Latitude, Longitude, Altitude (m), Time, Sats, Speed (m/s), Range (m), Battery (%), Roll (deg), Pitch (deg), Yaw (deg), Images, HD Signal (%), RC Signal (%), Battery Temp (C), Battery Voltage (mV), Battery Current (mA), Battery Energy (mAh), Battery Capacity (mAh), Battery Discharges, flyState, timestamp (Unix), LastUpdate (ms), radioChannel, Rc_elevator, Rc_aileron, Rc_throttle, Rc_rudder, Rc_gyro, Dronetype, Battery_Cell1 (mV), Battery_Cell2 (mV), Battery_Cell3 (mV), Battery_Cell4 (mV), Battery_Cell5 (mV), Battery_Cell6 (mV), Video, isFlying, elapsedTime (ms), gimbalPitch (deg), gimbalRoll (deg), gimbalYaw (deg), VelocityX (m/s), VelocityY (m/s), VelocityZ (m/s), GroundSmear (cm), App Version, Aircraft Name, Aircraft Firmware, Aircraft Serial Number, Battery Serial Number, Battery Lifetime (%), App_Tip, App_Warning, CurrentFlightStartingIndex, CurrentFlightLastVisitedWaypoint, PreviousFlightEndingWaypointIndex
38.5374689, -120.3487191, 0.000, 16:00:19.492, 9, 0.00, 0.63, 100, 0.300, 2.500, 95.100, 1118, 100, 100, 31, 25781, -2912, 5320, 5320, 20, 11, 1531004419.493, 33, 0, 1024, 1024, 1024, 1024, 0, 6, 4326, 4272, 4310, 4254, 4314, 4328, 0, 1, 3029, -89.900, 0.000, 93.900, 0.000, 0.000, -0.100, 0.0, MapPilot_2.8.1_04242018, Dendroctonus I, 1.3.1.00, 041DDC1887, 1058171200279, 95, DJI_0125.jpg, Starting Mission from Lat/Long: 38.53747/-120.34872 Camera: Zenmuse X3 - Overlap: 90/90 - Active Connection: No, 41, 41, 41
38.5374689, -120.3487191, 0.000, 16:00:19.564, 9, 0.00, 0.63, 100, 0.300, 2.500, 95.100, 1118, 100, 100, 31, 25781, -2912, 5320, 5320, 20, 11, 1531004419.564, 104, 0, 1024, 1024, 1024, 1024, 0, 6, 4326, 4272, 4310, 4254, 4314, 4328, 0, 1, 3101, -89.900, 0.000, 93.900, 0.000, 0.000, -0.100, 0.0, , , , , , 95, , , 41, 41, 41
38.5374689, -120.3487192, 0.000, 16:00:19.663, 9, 0.10, 0.63, 100, 0.400, 1.800, 95.200, 1118, 100, 100, 31, 25781, -2912, 5320, 5320, 20, 11, 1531004419.663, 97, 0, 1024, 1024, 1024, 1024, 0, 6, 4326, 4272, 4310, 4254, 4314, 4328, 0, 1, 3200, -90.000, 0.000, 93.900, 0.000, -0.100, -0.200, 0.0, , , , , , 95, , , 41, 41, 41
38.5374689, -120.3487193, 0.000, 16:00:19.764, 9, 0.10, 0.63, 100, 0.300, 0.800, 95.200, 1118, 100, 100, 31, 25781, -2912, 5320, 5320, 20, 11, 1531004419.764, 93, 0, 1024, 1024, 1024, 1024, 0, 6, 4326, 4272, 4310, 4254, 4314, 4328, 0, 1, 3301, -90.000, 0.000, 93.900, 0.000, -0.100, -0.400, 0.0, , , , , , 95, , , 41, 41, 41
38.5374690, -120.3487195, 0.000, 16:00:19.864, 8, 0.10, 0.63, 100, 0.100, -0.100, 95.300, 1118, 100, 100, 31, 25781, -2912, 5320, 5320, 20, 11, 1531004419.864, 96, 0, 1024, 1024, 1024, 1024, 0, 6, 4326, 4272, 4310, 4254, 4314, 4328, 0, 1, 3401, -90.000, 0.000, 94.000, 0.000, -0.100, -0.400, 0.0, , , , , , 95, , , 41, 41, 41
38.5374690, -120.3487197, 0.100, 16:00:19.964, 8, 0.10, 0.62, 100, 0.000, -0.700, 95.200, 1118, 100, 100, 31, 25665, -4994, 5320, 5320, 20, 11, 1531004419.964, 93, 0, 1024, 1024, 1024, 1024, 0, 6, 4283, 4264, 4246, 4248, 4261, 4266, 0, 1, 3501, -90.000, 0.000, 94.000, 0.000, -0.100, -0.400, 0.0, , , , , , 95, , , 41, 41, 41
38.5374691, -120.3487198, 0.100, 16:00:20.063, 9, 0.10, 0.61, 100, 0.300, -1.200, 95.200, 1118, 100, 100, 31, 25665, -4994, 5320, 5320, 20, 11, 1531004420.063, 67, 0, 1024, 1024, 1024, 1024, 0, 6, 4283, 4264, 4246, 4248, 4261, 4266, 0, 1, 3600, -90.000, 0.000, 94.000, 0.000, -0.100, -0.400, 0.0, , , , , , 95, , , 41, 41, 41
38.5374692, -120.3487199, 0.200, 16:00:20.164, 9, 0.00, 0.61, 100, 0.400, -1.300, 95.100, 1118, 100, 100, 31, 25665, -4994, 5320, 5320, 20, 11, 1531004420.164, 75, 0, 1024, 1024, 1024, 1024, 0, 6, 4283, 4264, 4246, 4248, 4261, 4266, 0, 1, 3701, -89.900, 0.000, 94.000, 0.000, 0.000, -0.400, 0.0, , , , , , 95, , , 41, 41, 41
38.5374693, -120.3487200, 0.200, 16:00:20.264, 10, 0.10, 0.60, 100, 0.600, -1.000, 95.000, 1118, 100, 100, 31, 25665, -4994, 5320, 5320, 20, 11, 1531004420.264, 65, 0, 1024, 1024, 1024, 1024, 0, 6, 4283, 4264, 4246, 4248, 4261, 4266, 0, 1, 3801, -90.000, 0.000, 94.000, 0.100, 0.000, -0.400, 0.0, , , , , , 95, , , 41, 41, 41
38.5374694, -120.3487199, 0.300, 16:00:20.364, 10, 0.10, 0.60, 100, 1.000, -0.600, 95.000, 1118, 100, 100, 31, 25665, -4994, 5320, 5320, 20, 11, 1531004420.364, 69, 0, 1024, 1024, 1024, 1024, 0, 6, 4283, 4264, 4246, 4248, 4261, 4266, 0, 1, 3901, -89.900, 0.000, 94.000, 0.100, 0.000, -0.400, 0.0, , , , , , 95, , , 41, 41, 41
38.5374694, -120.3487199, 0.300, 16:00:20.464, 8, 0.00, 0.59, 100, 1.200, -0.400, 95.000, 1118, 100, 100, 31, 25665, -4994, 5320, 5320, 20, 11, 1531004420.464, 59, 0, 1024, 1024, 1024, 1024, 0, 6, 4283, 4264, 4246, 4248, 4261, 4266, 0, 1, 4001, -89.900, 0.000, 94.000, 0.000, 0.000, -0.400, 0.0, , , , , , 95, , , 41, 41, 41
38.5374694, -120.3487200, 0.400, 16:00:20.564, 8, 0.00, 0.59, 100, 1.000, -0.200, 95.000, 1118, 100, 100, 31, 25665, -4994, 5320, 5320, 20, 11, 1531004420.564, 49, 0, 1024, 1024, 1024, 1024, 0, 6, 4283, 4264, 4246, 4248, 4261, 4266, 0, 1, 4101, -89.900, 0.000, 94.000, 0.000, 0.000, -0.500, 0.0, , , , , , 95, , , 41, 41, 41
38.5374694, -120.3487201, 0.400, 16:00:20.663, 8, 0.00, 0.59, 100, 0.900, -0.100, 95.000, 1118, 100, 100, 31, 25665, -4994, 5320, 5320, 20, 11, 1531004420.664, 49, 0, 1024, 1024, 1024, 1024, 0, 6, 4283, 4264, 4246, 4248, 4261, 4266, 0, 1, 4200, -90.000, 0.000, 94.000, 0.000, 0.000, -0.400, 0.0, , , , , , 95, , , 41, 41, 41
38.5374693, -120.3487202, 0.500, 16:00:20.764, 8, 0.00, 0.61, 100, 0.800, -0.200, 95.000, 1118, 100, 100, 31, 25665, -4994, 5320, 5320, 20, 11, 1531004420.764, 43, 0, 1024, 1024, 1024, 1024, 0, 6, 4283, 4264, 4246, 4248, 4261, 4266, 0, 1, 4301, -90.000, 0.000, 94.000, 0.000, 0.000, -0.400, 0.0, , , , , , 95, , , 41, 41, 41
38.5374693, -120.3487202, 0.500, 16:00:20.864, 8, 0.00, 0.61, 100, 0.800, -0.200, 95.000, 1118, 100, 100, 31, 25665, -4994, 5320, 5320, 20, 11, 1531004420.864, 143, 0, 1024, 1024, 1024, 1024, 0, 6, 4283, 4264, 4246, 4248, 4261, 4266, 0, 1, 4400, -89.900, 0.000, 94.000, 0.000, 0.000, -0.400, 0.0, , , , , , 95, , , 41, 41, 41
38.5374693, -120.3487202, 0.600, 16:00:20.964, 8, 0.00, 0.61, 100, 0.800, -0.300, 95.100, 1118, 100, 100, 31, 24984, -15250, 5320, 5320, 20, 11, 1531004420.964, 46, 0, 1024, 1024, 1024, 1024, 0, 6, 4175, 4164, 4154, 4144, 4179, 4164, 0, 1, 4501, -89.900, 0.000, 94.000, 0.000, 0.000, -0.400, 0.0, , , , , , 95, , , 41, 41, 41
38.5374695, -120.3487203, 0.700, 16:00:21.064, 9, 0.00, 0.59, 100, 0.700, -0.300, 95.100, 1118, 100, 100, 31, 24984, -15250, 5320, 5320, 20, 11, 1531004421.064, 29, 0, 1024, 1024, 1024, 1024, 0, 6, 4175, 4164, 4154, 4144, 4179, 4164, 0, 1, 4600, -89.900, 0.000, 94.000, 0.000, 0.000, -0.500, 0.0, , , , , , 95, , , 41, 41, 41
38.5374696, -120.3487202, 0.700, 16:00:21.164, 10, 0.00, 0.58, 100, 0.900, -0.400, 95.100, 1118, 100, 100, 31, 24984, -15250, 5320, 5320, 20, 11, 1531004421.164, 23, 0, 1024, 1024, 1024, 1024, 0, 6, 4175, 4164, 4154, 4144, 4179, 4164, 0, 1, 4700, -90.000, 0.000, 94.000, 0.000, 0.000, -0.400, 0.0, , , , , , 95, , , 41, 41, 41
38.5374695, -120.3487202, 0.800, 16:00:21.263, 10, 0.00, 0.58, 100, 1.000, -0.300, 95.100, 1118, 100, 100, 31, 24984, -15250, 5320, 5320, 20, 11, 1531004421.264, 41, 0, 1024, 1024, 1024, 1024, 0, 6, 4175, 4164, 4154, 4144, 4179, 4164, 0, 1, 4800, -90.000, 0.000, 94.000, 0.000, 0.000, -0.400, 0.0, , , , , , 95, , , 41, 41, 41
38.5374695, -120.3487201, 0.800, 16:00:21.363, 9, 0.00, 0.58, 100, 0.800, -0.200, 95.200, 1118, 100, 100, 31, 24984, -15250, 5320, 5320, 20, 11, 1531004421.363, 16, 0, 1024, 1024, 1024, 1024, 0, 6, 4175, 4164, 4154, 4144, 4179, 4164, 0, 1, 4900, -89.900, 0.000, 94.000, 0.000, 0.000, -0.400, 0.0, , , , , , 95, , , 41, 41, 41
38.5374696, -120.3487201, 0.900, 16:00:21.464, 9, 0.00, 0.57, 100, 0.800, -0.100, 95.200, 1118, 100, 100, 31, 24984, -15250, 5320, 5320, 20, 14, 1531004421.464, 23, 0, 1024, 1024, 1024, 1024, 0, 6, 4175, 4164, 4154, 4144, 4179, 4164, 0, 1, 5000, -89.900, 0.000, 94.000, 0.000, 0.000, -0.400, 0.0, , , , , , 95, , , 41, 41, 41
38.5374697, -120.3487201, 0.900, 16:00:21.572, 9, 0.00, 0.57, 100, 0.800, -0.200, 95.100, 1118, 100, 100, 31, 24984, -15250, 5320, 5320, 20, 14, 1531004421.572, 2, 0, 1024, 1024, 1024, 1024, 0, 6, 4175, 4164, 4154, 4144, 4179, 4164, 0, 1, 5109, -89.900, 0.000, 94.000, 0.000, 0.000, -0.400, 0.0, , , , , , 95, , , 41, 41, 41
38.5374696, -120.3487199, 1.000, 16:00:21.663, 9, 0.00, 0.57, 100, 0.900, 0.000, 95.100, 1118, 100, 100, 31, 24984, -15250, 5320, 5320, 20, 14, 1531004421.664, 4, 0, 1024, 1024, 1024, 1024, 0, 6, 4175, 4164, 4154, 4144, 4179, 4164, 0, 1, 5200, -89.900, 0.000, 94.100, 0.000, 0.000, -0.300, 0.0, , , , , , 95, , , 41, 41, 41
38.5374696, -120.3487199, 1.000, 16:00:21.764, 9, 0.00, 0.57, 100, 0.900, 0.300, 95.100, 1118, 100, 100, 31, 24984, -15250, 5320, 5320, 20, 14, 1531004421.764, 6, 0, 1024, 1024, 1024, 1024, 0, 6, 4175, 4164, 4154, 4144, 4179, 4164, 0, 1, 5300, -89.900, 0.000, 94.100, 0.000, 0.000, -0.200, 0.0, , , , , , 95, , , 41, 41, 41
38.5374696, -120.3487199, 1.000, 16:00:21.864, 9, 0.00, 0.57, 100, 0.900, 0.300, 95.100, 1118, 100, 100, 31, 24984, -15250, 5320, 5320, 20, 14, 1531004421.864, 106, 0, 1024, 1024, 1024, 1024, 0, 6, 4175, 4164, 4154, 4144, 4179, 4164, 0, 1, 5400, -89.900, 0.000, 94.100, 0.000, 0.000, -0.200, 0.0, , , , , , 95, , , 41, 41, 41
38.5374696, -120.3487200, 1.000, 16:00:21.964, 9, 0.00, 0.58, 100, 0.900, 0.300, 95.100, 1118, 100, 100, 31, 24804, -16521, 5320, 5320, 20, 14, 1531004421.964, 95, 0, 1024, 1024, 1024, 1024, 0, 6, 4175, 4164, 4154, 4144, 4179, 4164, 0, 1, 5500, -89.900, 0.000, 94.100, 0.000, 0.000, -0.300, 0.0, , , , , , 95, , , 41, 41, 41
38.5374693, -120.3487199, 1.100, 16:00:22.065, 7, 0.00, 0.60, 100, 0.400, 0.200, 95.100, 1118, 100, 100, 31, 24804, -16521, 5320, 5320, 20, 14, 1531004422.065, 1, 0, 1024, 1024, 1024, 1024, 0, 6, 4175, 4164, 4154, 4144, 4179, 4164, 0, 1, 5602, -89.900, 0.000, 94.100, 0.000, 0.000, -0.600, 0.0, , , , , , 95, , , 41, 41, 41
38.5374693, -120.3487199, 1.100, 16:00:22.163, 7, 0.00, 0.60, 100, 0.400, 0.200, 95.100, 1118, 100, 100, 31, 24804, -16521, 5320, 5320, 20, 14, 1531004422.164, 100, 0, 1024, 1024, 1024, 1024, 0, 6, 4175, 4164, 4154, 4144, 4179, 4164, 0, 1, 5700, -89.900, 0.000, 94.100, 0.000, 0.000, -0.600, 0.0, , , , , , 95, , , 41, 41, 41
38.5374691, -120.3487198, 1.200, 16:00:22.264, 8, 0.00, 0.62, 100, 0.000, 0.300, 95.100, 1118, 100, 100, 31, 24804, -16521, 5320, 5320, 20, 14, 1531004422.264, 98, 0, 1024, 1024, 1024, 1024, 0, 6, 4175, 4164, 4154, 4144, 4179, 4164, 0, 1, 5800, -89.900, 0.000, 94.100, 0.000, 0.000, -0.600, 0.0, , , , , , 95, , , 41, 41, 41
38.5374690, -120.3487198, 1.300, 16:00:22.364, 8, 0.00, 0.63, 100, -0.100, 0.400, 95.200, 1118, 100, 100, 31, 24804, -16521, 5320, 5320, 20, 14, 1531004422.364, 59, 0, 1024, 1024, 1024, 1024, 0, 6, 4175, 4164, 4154, 4144, 4179, 4164, 0, 1, 5900, -89.900, 0.000, 94.100, 0.000, 0.000, -0.900, 0.0, , , , , , 95, , , 41, 41, 41
38.5374690, -120.3487198, 1.400, 16:00:22.464, 9, 0.00, 0.63, 100, -0.100, 0.500, 95.200, 1118, 100, 100, 31, 24804, -16521, 5320, 5320, 20, 14, 1531004422.464, 87, 0, 1024, 1024, 1024, 1024, 0, 6, 4135, 4124, 4130, 4130, 4146, 4139, 0, 1, 6000, -89.900, 0.000, 94.100, 0.000, 0.000, -1.100, 0.0, , , , , , 95, , , 41, 41, 41
38.5374691, -120.3487198, 1.500, 16:00:22.564, 9, 0.00, 0.62, 100, 0.000, 0.500, 95.200, 1118, 100, 100, 31, 24804, -16521, 5320, 5320, 20, 14, 1531004422.564, 73, 0, 1024, 1024, 1024, 1024, 0, 6, 4135, 4124, 4130, 4130, 4146, 4139, 0, 1, 6100, -89.900, 0.000, 94.100, 0.000, 0.000, -1.300, 0.0, , , , , , 95, , , 41, 41, 41
38.5374692, -120.3487198, 1.700, 16:00:22.663, 8, 0.00, 0.61, 100, 0.300, 0.400, 95.200, 1118, 100, 100, 31, 24804, -16521, 5320, 5320, 20, 14, 1531004422.664, 64, 0, 1024, 1024, 1024, 1024, 0, 6, 4135, 4124, 4130, 4130, 4146, 4139, 0, 1, 6200, -89.900, 0.000, 94.100, 0.000, 0.000, -1.500, 0.0, , , , , , 95, , , 41, 41, 41
38.5374694, -120.3487198, 1.900, 16:00:22.764, 8, 0.00, 0.59, 100, 0.800, 0.300, 95.200, 1118, 100, 100, 31, 24804, -16521, 5320, 5320, 20, 14, 1531004422.764, 79, 0, 1024, 1024, 1024, 1024, 0, 6, 4135, 4124, 4130, 4130, 4146, 4139, 0, 1, 6301, -89.900, 0.000, 94.100, 0.000, 0.000, -1.700, 0.0, , , , , , 95, , , 41, 41, 41
38.5374696, -120.3487198, 2.000, 16:00:22.863, 10, 0.10, 0.57, 100, 1.300, 0.300, 95.200, 1118, 100, 100, 31, 24804, -16521, 5320, 5320, 20, 14, 1531004422.864, 46, 0, 1024, 1024, 1024, 1024, 0, 6, 4135, 4124, 4130, 4130, 4146, 4139, 0, 1, 6400, -90.000, 0.000, 94.100, 0.100, 0.000, -1.900, 0.0, , , , , , 95, , , 41, 41, 41
38.5374697, -120.3487199, 2.200, 16:00:22.963, 10, 0.10, 0.56, 100, 1.800, 0.100, 95.200, 1118, 100, 100, 31, 24804, -16521, 5320, 5320, 20, 14, 1531004422.964, 51, 0, 1024, 1024, 1024, 1024, 0, 6, 4135, 4124, 4130, 4130, 4146, 4139, 0, 1, 6500, -90.000, 0.000, 94.100, 0.100, 0.000, -2.100, 0.0, , , , , , 95, , , 41, 41, 41
38.5374699, -120.3487199, 2.500, 16:00:23.064, 8, 0.10, 0.54, 100, 2.100, -0.200, 95.200, 1118, 100, 100, 31, 24804, -16521, 5320, 5320, 20, 14, 1531004423.064, 60, 0, 1024, 1024, 1024, 1024, 0, 6, 4135, 4124, 4130, 4130, 4146, 4139, 0, 1, 6600, -90.000, 0.000, 94.100, 0.100, 0.000, -2.400, 0.0, , , , , , 95, , , 41, 41, 41
38.5374702, -120.3487198, 2.800, 16:00:23.163, 8, 0.00, 0.51, 100, 2.100, -0.300, 95.200, 1118, 100, 100, 31, 24804, -16521, 5320, 5320, 20, 14, 1531004423.164, 48, 0, 1024, 1024, 1024, 1024, 0, 6, 4135, 4124, 4130, 4130, 4146, 4139, 0, 1, 6700, -89.900, 0.000, 94.100, 0.000, 0.000, -2.700, 0.0, , , , , , 95, , , 41, 41, 41
38.5374704, -120.3487198, 3.100, 16:00:23.264, 9, 0.00, 0.49, 100, 1.900, -0.100, 95.200, 1118, 100, 100, 31, 24804, -16521, 5320, 5320, 20, 14, 1531004423.264, 53, 0, 1024, 1024, 1024, 1024, 0, 6, 4135, 4124, 4130, 4130, 4146, 4139, 0, 1, 6800, -89.900, 0.000, 94.100, 0.000, 0.000, -2.800, 0.0, , , , , , 95, , , 41, 41, 41
38.5374707, -120.3487201, 3.700, 16:00:23.363, 9, 0.00, 0.47, 100, 1.700, 0.000, 95.300, 1118, 100, 100, 31, 24804, -16521, 5320, 5320, 20, 14, 1531004423.364, 40, 0, 1024, 1024, 1024, 1024, 0, 6, 4135, 4124, 4130, 4130, 4146, 4139, 0, 1, 6900, -89.900, 0.000, 94.100, 0.000, 0.000, -3.000, 0.0, , , , , , 95, , , 41, 41, 41
38.5374711, -120.3487204, 4.000, 16:00:23.463, 9, 0.10, 0.44, 100, 2.000, -0.300, 95.300, 1118, 100, 100, 31, 24741, -16903, 5320, 5320, 20, 14, 1531004423.464, 47, 0, 1024, 1024, 1024, 1024, 0, 6, 4151, 4118, 4101, 4081, 4129, 4106, 0, 1, 7000, -90.000, 0.000, 94.200, 0.100, 0.000, -3.000, 0.0, , , , , , 95, , , 41, 41, 41
38.5374715, -120.3487205, 4.300, 16:00:23.564, 9, 0.10, 0.41, 100, 2.700, -0.800, 95.300, 1118, 100, 100, 31, 24741, -16903, 5320, 5320, 20, 14, 1531004423.564, 34, 0, 1024, 1024, 1024, 1024, 0, 6, 4151, 4118, 4101, 4081, 4129, 4106, 0, 1, 7100, -90.000, 0.000, 94.200, 0.100, 0.000, -3.100, 0.0, , , , , , 95, , , 41, 41, 41
38.5374715, -120.3487204, 4.600, 16:00:23.663, 9, 0.00, 0.40, 100, 3.300, -0.900, 95.200, 1118, 100, 100, 31, 24741, -16903, 5320, 5320, 20, 14, 1531004423.664, 43, 0, 1024, 1024, 1024, 1024, 0, 6, 4151, 4118, 4101, 4081, 4129, 4106, 0, 1, 7200, -90.000, 0.000, 94.200, 0.000, 0.000, -3.200, 0.0, , , , , , 95, , , 41, 41, 41
38.5374716, -120.3487204, 5.000, 16:00:23.763, 10, 0.00, 0.39, 100, 3.300, -0.700, 95.200, 1118, 100, 100, 31, 24741, -16903, 5320, 5320, 20, 14, 1531004423.764, 33, 0, 1024, 1024, 1024, 1024, 0, 6, 4151, 4118, 4101, 4081, 4129, 4106, 0, 1, 7300, -89.900, 0.000, 94.200, 0.000, 0.000, -3.200, 0.0, , , , , , 95, , , 41, 41, 41
38.5374717, -120.3487205, 5.300, 16:00:23.864, 10, 0.00, 0.39, 100, 3.000, -0.400, 95.200, 1118, 100, 100, 31, 24741, -16903, 5320, 5320, 20, 14, 1531004423.864, 26, 0, 1024, 1024, 1024, 1024, 0, 6, 4151, 4118, 4101, 4081, 4129, 4106, 0, 1, 7400, -90.000, 0.000, 94.200, 0.000, 0.000, -3.100, 0.0, , , , , , 95, , , 41, 41, 41
38.5374717, -120.3487205, 5.700, 16:00:23.963, 12, 0.00, 0.40, 100, 2.500, -0.600, 95.100, 1118, 100, 100, 31, 24741, -16903, 5320, 5320, 20, 14, 1531004423.964, 27, 0, 1024, 1024, 1024, 1024, 0, 6, 4151, 4118, 4101, 4081, 4129, 4106, 0, 1, 7500, -90.000, 0.000, 94.200, 0.000, 0.000, -3.200, 0.0, , , , , , 95, , , 41, 41, 41
38.5374715, -120.3487204, 6.000, 16:00:24.063, 12, 0.00, 0.41, 100, 2.100, -0.500, 95.100, 1118, 100, 100, 31, 24741, -16903, 5320, 5320, 20, 14, 1531004424.064, 27, 0, 1024, 1024, 1024, 1024, 0, 6, 4151, 4118, 4101, 4081, 4129, 4106, 0, 1, 7600, -89.900, 0.000, 94.200, 0.000, 0.000, -3.200, 0.0, , , , , , 95, , , 41, 41, 41
38.5374713, -120.3487203, 6.300, 16:00:24.163, 12, 0.00, 0.42, 100, 1.600, -0.300, 95.100, 1118, 100, 100, 31, 24741, -16903, 5320, 5320, 20, 14, 1531004424.163, 3, 0, 1024, 1024, 1024, 1024, 0, 6, 4151, 4118, 4101, 4081, 4129, 4106, 0, 1, 7700, -89.900, 0.000, 94.200, 0.000, 0.000, -3.200, 0.0, , , , , , 95, , , 41, 41, 41
38.5374713, -120.3487203, 6.300, 16:00:24.263, 12, 0.00, 0.42, 100, 1.600, -0.300, 95.100, 1118, 100, 100, 31, 24741, -16903, 5320, 5320, 20, 14, 1531004424.264, 104, 0, 1024, 1024, 1024, 1024, 0, 6, 4151, 4118, 4101, 4081, 4129, 4106, 0, 1, 7800, -89.900, 0.000, 94.200, 0.000, 0.000, -3.200, 0.0, , , , , , 95, , , 41, 41, 41
38.5374711, -120.3487202, 6.700, 16:00:24.363, 12, 0.10, 0.43, 100, 1.000, 0.000, 95.200, 1118, 100, 100, 31, 24741, -16903, 5320, 5320, 20, 14, 1531004424.364, 94, 0, 1024, 1024, 1024, 1024, 0, 6, 4151, 4118, 4101, 4081, 4129, 4106, 0, 1, 7900, -89.900, 0.000, 94.200, -0.100, 0.000, -3.100, 0.0, , , , , , 95, , , 41, 41, 41
38.5374705, -120.3487199, 7.300, 16:00:24.464, 12, 0.10, 0.48, 100, -0.100, 0.600, 95.300, 1118, 100, 100, 31, 24276, -23384, 5320, 5320, 20, 14, 1531004424.464, 10, 0, 1024, 1024, 1024, 1024, 0, 6, 4039, 4042, 4017, 4019, 4052, 4048, 0, 1, 8001, -89.900, 0.000, 94.200, -0.100, 0.000, -3.100, 0.0, , , , , , 95, , , 41, 41, 41
38.5374705, -120.3487199, 7.300, 16:00:24.562, 12, 0.10, 0.48, 100, -0.100, 0.600, 95.300, 1118, 100, 100, 31, 24276, -23384, 5320, 5320, 20, 14, 1531004424.563, 109, 0, 1024, 1024, 1024, 1024, 0, 6, 4039, 4042, 4017, 4019, 4052, 4048, 0, 1, 8099, -89.900, 0.000, 94.200, -0.100, 0.000, -3.100, 0.0, , , , , , 95, , , 41, 41, 41
38.5374702, -120.3487199, 7.700, 16:00:24.663, 12, 0.10, 0.50, 100, -0.500, 0.800, 95.300, 1118, 100, 100, 31, 24276, -23384, 5320, 5320, 20, 14, 1531004424.664, 90, 0, 1024, 1024, 1024, 1024, 0, 6, 4039, 4042, 4017, 4019, 4052, 4048, 0, 1, 8200, -89.900, 0.000, 94.200, -0.100, 0.000, -3.100, 0.0, , , , , , 95, , , 41, 41, 41
38.5374699, -120.3487198, 8.000, 16:00:24.763, 12, 0.10, 0.53, 100, -0.700, 0.900, 95.300, 1118, 100, 100, 31, 24276, -23384, 5320, 5320, 20, 14, 1531004424.764, 77, 0, 1024, 1024, 1024, 1024, 0, 6, 4039, 4042, 4017, 4019, 4052, 4048, 0, 1, 8300, -89.900, 0.000, 94.200, -0.100, 0.000, -3.100, 0.0, , , , , , 95, , , 41, 41, 41
38.5374696, -120.3487198, 8.300, 16:00:24.863, 12, 0.10, 0.56, 100, -0.900, 0.900, 95.200, 1118, 100, 100, 31, 24276, -23384, 5320, 5320, 20, 14, 1531004424.864, 80, 0, 1024, 1024, 1024, 1024, 0, 6, 4039, 4042, 4017, 4019, 4052, 4048, 0, 1, 8401, -89.900, 0.000, 94.200, -0.100, 0.000, -3.100, 0.0, , , , , , 95, , , 41, 41, 41
38.5374694, -120.3487197, 8.600, 16:00:24.963, 12, 0.00, 0.58, 100, -1.000, 0.700, 95.100, 1118, 100, 100, 31, 24276, -23384, 5320, 5320, 20, 14, 1531004424.964, 82, 0, 1024, 1024, 1024, 1024, 0, 6, 4039, 4042, 4017, 4019, 4052, 4048, 0, 1, 8500, -89.900, 0.000, 94.200, 0.000, 0.000, -3.100, 0.0, , , , , , 95, , , 41, 41, 41
38.5374692, -120.3487196, 9.000, 16:00:25.063, 12, 0.00, 0.61, 100, -0.900, 0.500, 95.100, 1118, 100, 100, 31, 24276, -23384, 5320, 5320, 20, 14, 1531004425.064, 73, 0, 1024, 1024, 1024, 1024, 0, 6, 4039, 4042, 4017, 4019, 4052, 4048, 0, 1, 8601, -89.900, 0.000, 94.200, 0.000, 0.000, -3.100, 0.0, , , , , , 95, , , 41, 41, 41
38.5374689, -120.3487196, 9.300, 16:00:25.163, 12, 0.00, 0.64, 100, -0.900, 0.400, 95.100, 1118, 100, 100, 31, 24276, -23384, 5320, 5320, 20, 14, 1531004425.164, 64, 0, 1024, 1024, 1024, 1024, 0, 6, 4039, 4042, 4017, 4019, 4052, 4048, 0, 1, 8701, -89.900, 0.000, 94.200, 0.000, 0.000, -3.100, 0.0, , , , , , 95, , , 41, 41, 41
38.5374685, -120.3487195, 9.600, 16:00:25.263, 12, 0.00, 0.67, 100, -0.800, 0.500, 95.100, 1118, 100, 100, 31, 24276, -23384, 5320, 5320, 20, 14, 1531004425.264, 80, 0, 1024, 1024, 1024, 1024, 0, 6, 4039, 4042, 4017, 4019, 4052, 4048, 0, 1, 8800, -89.900, 0.000, 94.200, 0.000, 0.000, -3.000, 0.0, , , , , , 95, , , 41, 41, 41
38.5374682, -120.3487194, 9.900, 16:00:25.363, 12, 0.00, 0.71, 100, -1.100, 0.700, 95.100, 1118, 100, 100, 31, 24276, -23384, 5320, 5320, 20, 14, 1531004425.364, 73, 0, 1024, 1024, 1024, 1024, 0, 6, 4039, 4042, 4017, 4019, 4052, 4048, 0, 1, 8901, -89.900, 0.000, 94.200, 0.000, 0.000, -2.900, 0.0, , , , , , 95, , , 41, 41, 41
38.5374678, -120.3487194, 10.200, 16:00:25.463, 13, 0.00, 0.75, 100, -1.400, 1.000, 95.100, 1118, 100, 100, 31, 24419, -20623, 5213, 5320, 20, 14, 1531004425.464, 74, 0, 1024, 1024, 1024, 1024, 0, 6, 4083, 4073, 4047, 4052, 4094, 4079, 0, 1, 9000, -89.900, 0.000, 94.200, 0.000, 0.000, -3.000, 0.0, , , , , , 95, , , 41, 41, 41
38.5374674, -120.3487193, 10.500, 16:00:25.563, 13, 0.00, 0.79, 100, -1.900, 1.100, 95.100, 1118, 100, 100, 31, 24419, -20623, 5213, 5320, 20, 14, 1531004425.564, 57, 0, 1024, 1024, 1024, 1024, 0, 6, 4083, 4073, 4047, 4052, 4094, 4079, 0, 1, 9101, -89.900, 0.000, 94.200, 0.000, 0.000, -3.000, 0.0, , , , , , 95, , , 41, 41, 41
38.5374670, -120.3487193, 10.900, 16:00:25.663, 13, 0.00, 0.84, 100, -2.200, 1.000, 95.100, 1118, 100, 100, 31, 24419, -20623, 5213, 5320, 20, 14, 1531004425.663, 33, 0, 1024, 1024, 1024, 1024, 0, 6, 4083, 4073, 4047, 4052, 4094, 4079, 0, 1, 9200, -89.900, 0.000, 94.200, 0.000, 0.000, -3.000, 0.0, , , , , , 95, , , 41, 41, 41
38.5374665, -120.3487192, 11.200, 16:00:25.763, 13, 0.00, 0.88, 100, -2.500, 0.900, 95.100, 1118, 100, 100, 31, 24419, -20623, 5213, 5320, 20, 14, 1531004425.764, 56, 0, 1024, 1024, 1024, 1024, 0, 6, 4083, 4073, 4047, 4052, 4094, 4079, 0, 1, 9300, -89.900, 0.000, 94.200, 0.000, 0.000, -3.000, 0.0, , , , , , 95, , , 41, 41, 41
38.5374661, -120.3487191, 11.500, 16:00:25.863, 15, 0.00, 0.93, 100, -2.800, 0.900, 95.100, 1118, 100, 100, 31, 24419, -20623, 5213, 5320, 20, 14, 1531004425.863, 56, 0, 1024, 1024, 1024, 1024, 0, 6, 4083, 4073, 4047, 4052, 4094, 4079, 0, 1, 9400, -89.900, 0.000, 94.200, 0.000, 0.000, -2.900, 0.0, , , , , , 95, , , 41, 41, 41
38.5374658, -120.3487190, 11.800, 16:00:25.964, 15, 0.00, 0.96, 98, -2.900, 0.900, 95.200, 1118, 100, 100, 31, 24419, -20623, 5213, 5320, 20, 14, 1531004425.964, 50, 0, 1024, 1024, 1024, 1024, 0, 6, 4083, 4073, 4047, 4052, 4094, 4079, 0, 1, 9501, -89.900, 0.000, 94.200, 0.000, 0.000, -3.000, 0.0, , , , , , 95, , , 41, 41, 41
38.5374655, -120.3487190, 12.100, 16:00:26.063, 15, 0.00, 1.00, 98, -3.100, 1.000, 95.200, 1118, 100, 100, 31, 24419, -20623, 5213, 5320, 20, 14, 1531004426.063, 31, 0, 1024, 1024, 1024, 1024, 0, 6, 4083, 4073, 4047, 4052, 4094, 4079, 0, 1, 9600, -89.900, 0.000, 94.200, 0.000, 0.000, -2.900, 0.0, , , , , , 95, , , 41, 41, 41
38.5374651, -120.3487190, 12.700, 16:00:26.163, 15, 0.10, 1.04, 98, -2.900, 0.900, 95.200, 1118, 100, 100, 31, 24419, -20623, 5213, 5320, 20, 14, 1531004426.163, 31, 0, 1024, 1024, 1024, 1024, 0, 6, 4083, 4073, 4047, 4052, 4094, 4079, 0, 1, 9700, -89.900, 0.000, 94.200, 0.100, 0.000, -2.900, 0.0, , , , , , 95, , , 41, 41, 41
38.5374650, -120.3487190, 13.000, 16:00:26.263, 15, 0.10, 1.05, 98, -2.500, 0.900, 95.200, 1118, 100, 100, 31, 24419, -20623, 5213, 5320, 20, 14, 1531004426.263, 37, 0, 1024, 1024, 1024, 1024, 0, 6, 4083, 4073, 4047, 4052, 4094, 4079, 0, 1, 9800, -89.900, 0.000, 94.200, 0.100, 0.000, -2.900, 0.0, , , , , , 95, , , 41, 41, 41
38.5374650, -120.3487191, 13.300, 16:00:26.363, 14, 0.10, 1.05, 98, -2.100, 0.800, 95.200, 1118, 100, 100, 31, 24419, -20623, 5213, 5320, 20, 14, 1531004426.363, 28, 0, 1024, 1024, 1024, 1024, 0, 6, 4083, 4073, 4047, 4052, 4094, 4079, 0, 1, 9900, -89.900, 0.000, 94.200, 0.100, 0.000, -2.900, 0.0, , , , , , 95, , , 41, 41, 41
38.5374650, -120.3487190, 13.600, 16:00:26.463, 14, 0.20, 1.05, 98, -1.600, 0.600, 95.200, 1118, 100, 100, 31, 24466, -18600, 5213, 5320, 20, 14, 1531004426.464, 16, 0, 1024, 1024, 1024, 1024, 0, 6, 4089, 4067, 4061, 4065, 4090, 4075, 0, 1, 10000, -89.900, 0.000, 94.200, 0.200, 0.000, -2.900, 0.1, , , , , , 95, , , 41, 41, 41
38.5374651, -120.3487191, 13.900, 16:00:26.566, 14, 0.20, 1.04, 98, -1.100, 0.600, 95.100, 1118, 100, 100, 31, 24466, -18600, 5213, 5320, 20, 14, 1531004426.566, 2, 0, 1024, 1024, 1024, 1024, 0, 6, 4089, 4067, 4061, 4065, 4090, 4075, 0, 1, 10103, -89.900, 0.000, 94.200, 0.200, 0.000, -2.900, 0.1, , , , , , 95, , , 41, 41, 41
38.5374651, -120.3487191, 14.200, 16:00:26.663, 14, 0.20, 1.04, 98, -0.700, 0.500, 95.100, 1118, 100, 100, 31, 24466, -18600, 5213, 5320, 20, 14, 1531004426.663, 23, 0, 1024, 1024, 1024, 1024, 0, 6, 4089, 4067, 4061, 4065, 4090, 4075, 0, 1, 10200, -89.900, 0.000, 94.200, 0.200, 0.000, -2.900, 0.1, , , , , , 95, , , 41, 41, 41
38.5374652, -120.3487192, 14.500, 16:00:26.763, 15, 0.20, 1.03, 98, -0.600, 0.400, 95.200, 1118, 100, 100, 31, 24466, -18600, 5213, 5320, 20, 14, 1531004426.764, 15, 0, 1024, 1024, 1024, 1024, 0, 6, 4089, 4067, 4061, 4065, 4090, 4075, 0, 1, 10301, -89.900, 0.000, 94.200, 0.200, 0.000, -2.900, 0.1, , , , , , 95, , , 41, 41, 41
38.5374653, -120.3487193, 14.800, 16:00:26.863, 15, 0.20, 1.02, 98, -0.500, 0.300, 95.300, 1118, 100, 100, 31, 24466, -18600, 5213, 5320, 20, 14, 1531004426.864, 6, 0, 1024, 1024, 1024, 1024, 0, 6, 4089, 4067, 4061, 4065, 4090, 4075, 0, 1, 10400, -89.900, 0.000, 94.200, 0.200, 0.000, -2.900, 0.1, , , , , , 95, , , 41, 41, 41
38.5374654, -120.3487193, 15.100, 16:00:26.963, 15, 0.20, 1.01, 98, -0.300, 0.200, 95.400, 1118, 100, 98, 31, 24466, -18600, 5213, 5320, 20, 14, 1531004426.964, 12, 0, 1024, 1024, 1024, 1024, 0, 6, 4089, 4067, 4061, 4065, 4090, 4075, 0, 1, 10501, -90.000, 0.000, 94.200, 0.200, 0.000, -3.000, 0.1, , , , , , 95, , , 41, 41, 41
38.5374656, -120.3487194, 15.400, 16:00:27.063, 15, 0.30, 0.99, 98, -0.100, 0.100, 95.600, 1118, 100, 98, 31, 24466, -18600, 5213, 5320, 20, 14, 1531004427.063, 1, 0, 1024, 1024, 1024, 1024, 0, 6, 4089, 4067, 4061, 4065, 4090, 4075, 0, 1, 10600, -89.900, 0.000, 94.200, 0.300, 0.000, -3.000, 0.1, , , , , , 95, , , 41, 41, 41
38.5374656, -120.3487194, 15.400, 16:00:27.163, 15, 0.30, 0.99, 98, -0.100, 0.100, 95.600, 1118, 100, 98, 31, 24466, -18600, 5213, 5320, 20, 14, 1531004427.163, 101, 0, 1024, 1024, 1024, 1024, 0, 6, 4089, 4067, 4061, 4065, 4090, 4075, 0, 1, 10700, -89.900, 0.000, 94.200, 0.300, 0.000, -3.000, 0.1, , , , , , 95, , , 41, 41, 41
38.5374658, -120.3487194, 15.700, 16:00:27.262, 15, 0.30, 0.97, 98, 0.200, 0.100, 95.700, 1118, 100, 98, 31, 24466, -18600, 5213, 5320, 20, 14, 1531004427.263, 95, 0, 1024, 1024, 1024, 1024, 0, 6, 4089, 4067, 4061, 4065, 4090, 4075, 0, 1, 10799, -89.900, 0.000, 94.200, 0.300, 0.000, -3.000, 0.1, , , , , , 95, , , 41, 41, 41
38.5374659, -120.3487195, 16.000, 16:00:27.363, 15, 0.20, 0.96, 98, 0.400, 0.200, 95.800, 1118, 100, 98, 31, 24466, -18600, 5213, 5320, 20, 14, 1531004427.363, 73, 0, 1024, 1024, 1024, 1024, 0, 6, 4089, 4067, 4061, 4065, 4090, 4075, 0, 1, 10900, -89.900, 0.000, 94.200, 0.200, 0.000, -3.000, 0.1, , , , , , 95, , , 41, 41, 41
38.5374660, -120.3487195, 16.300, 16:00:27.463, 14, 0.20, 0.94, 98, 0.300, 0.200, 95.700, 1118, 100, 98, 32, 24447, -18523, 5213, 5320, 20, 14, 1531004427.463, 75, 0, 1024, 1024, 1024, 1024, 0, 6, 4089, 4067, 4061, 4065, 4090, 4075, 0, 1, 11000, -89.900, 0.000, 94.200, 0.200, 0.000, -2.900, 0.1, , , , , , 95, , , 41, 41, 41
38.5374662, -120.3487196, 16.700, 16:00:27.563, 14, 0.30, 0.92, 98, 0.400, 0.200, 95.700, 1118, 100, 98, 32, 24447, -18523, 5213, 5320, 20, 14, 1531004427.563, 78, 0, 1024, 1024, 1024, 1024, 0, 6, 4089, 4067, 4061, 4065, 4090, 4075, 0, 1, 11100, -90.000, 0.000, 94.200, 0.300, 0.000, -2.900, 0.1, , , , , , 95, , , 41, 41, 41
38.5374664, -120.3487197, 17.000, 16:00:27.663, 14, 0.20, 0.90, 98, 0.600, 0.100, 95.500, 1118, 100, 98, 32, 24447, -18523, 5213, 5320, 20, 14, 1531004427.663, 71, 0, 1024, 1024, 1024, 1024, 0, 6, 4089, 4067, 4061, 4065, 4090, 4075, 0, 1, 11200, -89.900, 0.000, 94.200, 0.200, 0.000, -2.900, 0.1, , , , , , 95, , , 41, 41, 41
38.5374666, -120.3487197, 17.200, 16:00:27.763, 14, 0.20, 0.88, 98, 0.600, 0.100, 95.400, 1118, 100, 98, 32, 24447, -18523, 5213, 5320, 20, 14, 1531004427.763, 70, 0, 1024, 1024, 1024, 1024, 0, 6, 4089, 4067, 4061, 4065, 4090, 4075, 0, 1, 11300, -89.900, 0.000, 94.200, 0.200, 0.000, -2.800, 0.1, , , , , , 95, , , 41, 41, 41
38.5374668, -120.3487198, 17.500, 16:00:27.863, 15, 0.20, 0.87, 98, 0.800, 0.100, 95.200, 1118, 100, 98, 32, 24447, -18523, 5213, 5320, 20, 14, 1531004427.864, 50, 0, 1024, 1024, 1024, 1024, 0, 6, 4089, 4067, 4061, 4065, 4090, 4075, 0, 1, 11400, -89.900, 0.000, 94.200, 0.200, 0.000, -2.800, 0.1, , , , , , 95, , , 41, 41, 41
38.5374669, -120.3487198, 17.800, 16:00:27.963, 15, 0.20, 0.85, 98, 0.800, 0.200, 95.000, 1118, 100, 98, 32, 24447, -18523, 5213, 5320, 20, 14, 1531004427.963, 64, 0, 1024, 1024, 1024, 1024, 0, 6, 4077, 4069, 4054, 4065, 4094, 4072, 0, 1, 11500, -89.900, 0.000, 94.200, 0.200, 0.000, -2.900, 0.1, , , , , , 95, , , 41, 41, 41
38.5374671, -120.3487199, 18.100, 16:00:28.063, 16, 0.20, 0.83, 98, 0.800, 0.200, 94.900, 1118, 100, 98, 32, 24447, -18523, 5213, 5320, 20, 14, 1531004428.063, 66, 0, 1024, 1024, 1024, 1024, 0, 6, 4077, 4069, 4054, 4065, 4094, 4072, 0, 1, 11600, -89.900, 0.000, 94.200, 0.200, 0.000, -2.900, 0.1, , , , , , 95, , , 41, 41, 41
38.5374673, -120.3487199, 18.400, 16:00:28.163, 16, 0.20, 0.81, 98, 0.900, 0.200, 94.800, 1118, 100, 98, 32, 24447, -18523, 5213, 5320, 20, 14, 1531004428.163, 55, 0, 1024, 1024, 1024, 1024, 0, 6, 4077, 4069, 4054, 4065, 4094, 4072, 0, 1, 11700, -89.900, 0.000, 94.200, 0.200, 0.000, -2.900, 0.1, , , , , , 95, , , 41, 41, 41
38.5374677, -120.3487200, 19.000, 16:00:28.263, 15, 0.20, 0.78, 98, 1.100, 0.100, 94.800, 1118, 100, 98, 32, 24447, -18523, 5213, 5320, 20, 14, 1531004428.263, 53, 0, 1024, 1024, 1024, 1024, 0, 6, 4077, 4069, 4054, 4065, 4094, 4072, 0, 1, 11800, -89.900, 0.000, 94.200, 0.200, 0.000, -3.000, 0.1, , , , , , 95, , , 41, 41, 41
38.5374678, -120.3487200, 19.300, 16:00:28.363, 17, 0.20, 0.76, 98, 0.900, 0.200, 94.800, 1118, 100, 98, 32, 24447, -18523, 5213, 5320, 20, 14, 1531004428.363, 31, 0, 1024, 1024, 1024, 1024, 0, 6, 4077, 4069, 4054, 4065, 4094, 4072, 0, 1, 11900, -89.900, 0.000, 94.200, 0.200, 0.000, -3.000, 0.1, , , , , , 95, , , 41, 41, 41
38.5374680, -120.3487201, 19.700, 16:00:28.463, 17, 0.20, 0.74, 98, 0.900, 0.100, 94.800, 1118, 100, 98, 32, 24447, -18523, 5213, 5320, 20, 14, 1531004428.463, 21, 0, 1024, 1024, 1024, 1024, 0, 6, 4077, 4069, 4054, 4065, 4094, 4072, 0, 1, 12000, -90.000, 0.000, 94.200, 0.200, 0.000, -3.000, 0.1, , , , , , 95, , , 41, 41, 41
38.5374682, -120.3487201, 20.000, 16:00:28.563, 18, 0.20, 0.73, 98, 1.000, 0.000, 94.800, 1118, 100, 93, 32, 24447, -18523, 5213, 5320, 20, 14, 1531004428.563, 18, 0, 1024, 1024, 1024, 1024, 0, 6, 4077, 4069, 4054, 4065, 4094, 4072, 0, 1, 12100, -90.000, 0.000, 94.200, 0.200, 0.000, -3.000, 0.1, , , , , , 95, , , 41, 41, 41
38.5374683, -120.3487201, 20.300, 16:00:28.663, 18, 0.20, 0.71, 98, 1.200, -0.100, 94.700, 1118, 100, 93, 32, 24447, -18523, 5213, 5320, 20, 14, 1531004428.663, 29, 0, 1024, 1024, 1024, 1024, 0, 6, 4077, 4069, 4054, 4065, 4094, 4072, 0, 1, 12200, -90.000, 0.000, 94.200, 0.200, 0.000, -3.000, 0.1, , , , , , 95, , , 41, 41, 41
38.5374683, -120.3487201, 20.300, 16:00:28.763, 18, 0.20, 0.71, 98, 1.200, -0.100, 94.700, 1118, 100, 93, 32, 24447, -18523, 5213, 5320, 20, 14, 1531004428.763, 129, 0, 1024, 1024, 1024, 1024, 0, 6, 4077, 4069, 4054, 4065, 4094, 4072, 0, 1, 12300, -89.900, 0.000, 94.200, 0.200, 0.000, -3.000, 0.1, , , , , , 95, , , 41, 41, 41
38.5374685, -120.3487202, 20.900, 16:00:28.863, 17, 0.10, 0.69, 98, 1.500, 0.000, 94.600, 1118, 100, 93, 32, 24428, -18214, 5213, 5320, 20, 14, 1531004428.863, 15, 0, 1024, 1024, 1024, 1024, 0, 6, 4068, 4058, 4062, 4052, 4090, 4081, 0, 1, 12400, -89.900, 0.000, 94.200, 0.100, 0.000, -2.900, 0.0, , , , , , 95, , , 41, 41, 41
38.5374686, -120.3487202, 21.200, 16:00:28.963, 18, 0.10, 0.68, 98, 1.500, 0.100, 94.700, 1118, 100, 92, 32, 24428, -18214, 5213, 5320, 20, 14, 1531004428.964, 20, 0, 1024, 1024, 1024, 1024, 0, 6, 4068, 4058, 4062, 4052, 4090, 4081, 0, 1, 12501, -89.900, 0.000, 94.200, 0.100, 0.000, -2.900, 0.0, , , , , , 95, , , 41, 41, 41
38.5374687, -120.3487202, 21.500, 16:00:29.063, 18, 0.10, 0.67, 98, 1.200, 0.400, 94.800, 1118, 100, 92, 32, 24428, -18214, 5213, 5320, 20, 14, 1531004429.063, 2, 0, 1024, 1024, 1024, 1024, 0, 6, 4068, 4058, 4062, 4052, 4090, 4081, 0, 1, 12600, -89.900, 0.000, 94.200, 0.100, 0.000, -2.900, 0.0, , , , , , 95, , , 41, 41, 41
38.5374687, -120.3487202, 21.800, 16:00:29.163, 18, 0.10, 0.67, 98, 1.100, 0.500, 95.000, 1118, 100, 92, 32, 24428, -18214, 5213, 5320, 20, 14, 1531004429.163, 3, 0, 1024, 1024, 1024, 1024, 0, 6, 4068, 4058, 4062, 4052, 4090, 4081, 0, 1, 12700, -89.900, 0.000, 94.200, 0.100, 0.000, -2.900, 0.0, , , , , , 95, , , 41, 41, 41
38.5374687, -120.3487202, 21.800, 16:00:29.263, 18, 0.10, 0.67, 98, 1.100, 0.500, 95.000, 1118, 100, 92, 32, 24428, -18214, 5213, 5320, 20, 14, 1531004429.264, 104, 0, 1024, 1024, 1024, 1024, 0, 6, 4068, 4058, 4062, 4052, 4090, 4081, 0, 1, 12800, -89.900, 0.000, 94.200, 0.100, 0.000, -2.900, 0.0, , , , , , 95, , , 41, 41, 41
38.5374688, -120.3487202, 22.100, 16:00:29.363, 18, 0.10, 0.66, 98, 0.800, 0.500, 95.200, 1118, 100, 92, 32, 24428, -18214, 5213, 5320, 20, 14, 1531004429.363, 92, 0, 1024, 1024, 1024, 1024, 0, 6, 4068, 4058, 4062, 4052, 4090, 4081, 0, 1, 12900, -89.900, 0.000, 94.200, 0.100, 0.000, -2.900, 0.0, , , , , , 95, , , 41, 41, 41
38.5374688, -120.3487202, 22.400, 16:00:29.463, 18, 0.00, 0.66, 98, 0.600, 0.300, 95.300, 1118, 100, 92, 32, 24428, -18214, 5213, 5320, 20, 14, 1531004429.463, 86, 0, 1024, 1024, 1024, 1024, 0, 6, 4068, 4058, 4062, 4052, 4090, 4081, 0, 1, 13000, -90.000, 0.000, 94.200, 0.000, 0.000, -2.900, 0.0, , , , , , 95, , , 41, 41, 41
38.5374688, -120.3487202, 22.700, 16:00:29.563, 18, 0.00, 0.66, 98, 0.500, 0.400, 95.300, 1118, 100, 97, 32, 24428, -18214, 5213, 5320, 20, 14, 1531004429.564, 88, 0, 1024, 1024, 1024, 1024, 0, 6, 4068, 4058, 4062, 4052, 4090, 4081, 0, 1, 13100, -89.900, 0.000, 94.200, 0.000, 0.000, -2.900, 0.0, , , , , , 95, , , 41, 41, 41
38.5374689, -120.3487202, 23.000, 16:00:29.663, 18, 0.00, 0.65, 98, 0.500, 0.500, 95.300, 1118, 100, 97, 32, 24428, -18214, 5213, 5320, 20, 14, 1531004429.663, 80, 0, 1024, 1024, 1024, 1024, 0, 6, 4068, 4058, 4062, 4052, 4090, 4081, 0, 1, 13200, -90.000, 0.000, 94.200, 0.000, 0.000, -2.900, 0.0, , , , , , 95, , , 41, 41, 41
38.5374689, -120.3487202, 23.300, 16:00:29.763, 18, 0.10, 0.65, 98, 0.500, 0.600, 95.200, 1118, 100, 97, 32, 24428, -18214, 5213, 5320, 20, 14, 1531004429.763, 75, 0, 1024, 1024, 1024, 1024, 0, 6, 4068, 4058, 4062, 4052, 4090, 4081, 0, 1, 13300, -89.900, 0.000, 94.200, 0.100, 0.000, -2.800, 0.0, , , , , , 95, , , 41, 41, 41
38.5374690, -120.3487201, 23.600, 16:00:29.863, 18, 0.10, 0.64, 98, 0.700, 0.800, 95.100, 1118, 100, 97, 32, 24428, -18214, 5213, 5320, 20, 14, 1531004429.863, 76, 0, 1024, 1024, 1024, 1024, 0, 6, 4068, 4058, 4062, 4052, 4090, 4081, 0, 1, 13400, -89.900, 0.000, 94.200, 0.100, 0.000, -2.800, 0.0, , , , , , 95, , , 41, 41, 41
38.5374690, -120.3487201, 23.900, 16:00:29.963, 18, 0.00, 0.64, 98, 0.700, 0.900, 95.100, 1118, 100, 97, 32, 24416, -17907, 5213, 5320, 20, 14, 1531004429.964, 53, 0, 1024, 1024, 1024, 1024, 0, 6, 4084, 4062, 4063, 4056, 4092, 4082, 0, 1, 13500, -90.000, 0.000, 94.200, 0.000, 0.000, -2.800, 0.0, , , , , , 95, , , 41, 41, 41
38.5374690, -120.3487201, 24.200, 16:00:30.063, 18, 0.00, 0.64, 98, 0.800, 1.100, 95.100, 1118, 100, 99, 32, 24416, -17907, 5213, 5320, 20, 14, 1531004430.063, 53, 0, 1024, 1024, 1024, 1024, 0, 6, 4084, 4062, 4063, 4056, 4092, 4082, 0, 1, 13600, -89.900, 0.000, 94.200, 0.000, 0.000, -2.900, 0.0, , , , , , 95, , , 41, 41, 41
38.5374690, -120.3487200, 24.500, 16:00:30.163, 18, 0.00, 0.64, 98, 0.800, 1.200, 95.100, 1118, 100, 99, 32, 24416, -17907, 5213, 5320, 20, 14, 1531004430.163, 56, 0, 1024, 1024, 1024, 1024, 0, 6, 4084, 4062, 4063, 4056, 4092, 4082, 0, 1, 13700, -89.900, 0.000, 94.200, 0.000, 0.000, -2.900, 0.0, , , , , , 95, , , 41, 41, 41
38.5374690, -120.3487200, 24.700, 16:00:30.263, 18, 0.00, 0.64, 98, 0.800, 1.300, 95.100, 1118, 100, 99, 32, 24416, -17907, 5213, 5320, 20, 14, 1531004430.263, 62, 0, 1024, 1024, 1024, 1024, 0, 6, 4084, 4062, 4063, 4056, 4092, 4082, 0, 1, 13800, -89.900, 0.000, 94.200, 0.000, 0.000, -2.900, 0.0, , , , , , 95, , , 41, 41, 41
38.5374690, -120.3487200, 25.000, 16:00:30.363, 18, 0.00, 0.64, 98, 0.800, 1.300, 95.200, 1118, 100, 99, 32, 24416, -17907, 5213, 5320, 20, 14, 1531004430.363, 51, 0, 1024, 1024, 1024, 1024, 0, 6, 4084, 4062, 4063, 4056, 4092, 4082, 0, 1, 13900, -89.900, 0.000, 94.200, 0.000, 0.000, -2.900, 0.0, , , , , , 95, , , 41, 41, 41
38.5374690, -120.3487200, 25.300, 16:00:30.463, 18, 0.00, 0.64, 98, 0.800, 1.300, 95.200, 1118, 100, 99, 32, 24416, -17907, 5213, 5320, 20, 14, 1531004430.463, 49, 0, 1024, 1024, 1024, 1024, 0, 6, 4084, 4062, 4063, 4056, 4092, 4082, 0, 1, 14000, -89.900, 0.000, 94.200, 0.000, 0.000, -2.900, 0.0, , , , , , 95, , , 41, 41, 41
38.5374689, -120.3487200, 25.900, 16:00:30.563, 18, 0.00, 0.64, 98, 0.900, 1.100, 95.100, 1118, 100, 99, 32, 24416, -17907, 5213, 5320, 20, 14, 1531004430.563, 52, 0, 1024, 1024, 1024, 1024, 0, 6, 4084, 4062, 4063, 4056, 4092, 4082, 0, 1, 14100, -89.900, 0.000, 94.200, 0.000, 0.000, -2.900, 0.0, , , , , , 95, , , 41, 41, 41
38.5374689, -120.3487200, 25.900, 16:00:30.663, 18, 0.00, 0.64, 98, 0.900, 1.100, 95.100, 1118, 100, 99, 32, 24416, -17907, 5213, 5320, 20, 14, 1531004430.663, 152, 0, 1024, 1024, 1024, 1024, 0, 6, 4084, 4062, 4063, 4056, 4092, 4082, 0, 1, 14200, -89.900, 0.000, 94.200, 0.000, 0.000, -2.900, 0.0, , , , , , 95, , , 41, 41, 41
38.5374689, -120.3487200, 26.500, 16:00:30.763, 18, 0.00, 0.64, 98, 0.800, 1.100, 95.100, 1118, 100, 99, 32, 24416, -17907, 5213, 5320, 20, 14, 1531004430.763, 3, 0, 1024, 1024, 1024, 1024, 0, 6, 4084, 4062, 4063, 4056, 4092, 4082, 0, 1, 14300, -89.900, 0.000, 94.200, 0.000, 0.000, -3.000, 0.0, , , , , , 95, , , 41, 41, 41
38.5374689, -120.3487200, 26.800, 16:00:30.863, 18, 0.00, 0.64, 98, 0.800, 1.200, 95.100, 1118, 100, 99, 32, 24416, -17907, 5213, 5320, 20, 14, 1531004430.863, 25, 0, 1024, 1024, 1024, 1024, 0, 6, 4084, 4062, 4063, 4056, 4092, 4082, 0, 1, 14400, -89.900, 0.000, 94.200, 0.000, 0.000, -2.900, 0.0, , , , , , 95, , , 41, 41, 41
38.5374689, -120.3487200, 27.100, 16:00:30.963, 18, 0.00, 0.65, 98, 0.700, 1.200, 95.100, 1118, 100, 98, 32, 24411, -17751, 5213, 5320, 20, 14, 1531004430.963, 18, 0, 1024, 1024, 1024, 1024, 0, 6, 4081, 4059, 4049, 4059, 4081, 4074, 0, 1, 14500, -89.900, 0.000, 94.200, 0.000, 0.000, -2.900, 0.0, , , , , , 95, , , 41, 41, 41
38.5374688, -120.3487200, 27.400, 16:00:31.063, 18, 0.00, 0.66, 98, 0.500, 1.200, 95.100, 1118, 100, 98, 32, 24411, -17751, 5213, 5320, 20, 14, 1531004431.063, 15, 0, 1024, 1024, 1024, 1024, 0, 6, 4081, 4059, 4049, 4059, 4081, 4074, 0, 1, 14600, -89.900, 0.000, 94.200, 0.000, 0.000, -3.000, 0.0, , , , , , 95, , , 41, 41, 41
38.5374687, -120.3487200, 27.700, 16:00:31.163, 18, 0.00, 0.67, 98, 0.200, 1.200, 95.100, 1118, 100, 98, 32, 24411, -17751, 5213, 5320, 20, 14, 1531004431.164, 16, 0, 1024, 1024, 1024, 1024, 0, 6, 4081, 4059, 4049, 4059, 4081, 4074, 0, 1, 14700, -89.900, 0.000, 94.200, 0.000, 0.000, -2.900, 0.0, , , , , , 95, , , 41, 41, 41
38.5374686, -120.3487200, 28.000, 16:00:31.263, 18, 0.00, 0.67, 98, 0.200, 1.200, 95.000, 1118, 100, 98, 32, 24411, -17751, 5213, 5320, 20, 14, 1531004431.263, 30, 0, 1024, 1024, 1024, 1024, 0, 6, 4081, 4059, 4049, 4059, 4081, 4074, 0, 1, 14800, -89.900, 0.000, 94.200, 0.000, 0.000, -2.900, 0.0, , , , , , 95, , , 41, 41, 41
38.5374686, -120.3487200, 28.300, 16:00:31.363, 18, 0.00, 0.68, 98, 0.100, 1.200, 95.000, 1118, 100, 98, 32, 24411, -17751, 5213, 5320, 20, 14, 1531004431.363, 30, 0, 1024, 1024, 1024, 1024, 0, 6, 4081, 4059, 4049, 4059, 4081, 4074, 0, 1, 14900, -89.900, 0.000, 94.200, 0.000, 0.000, -2.900, 0.0, , , , , , 95, , , 41, 41, 41
38.5374685, -120.3487199, 28.600, 16:00:31.463, 18, 0.00, 0.69, 98, 0.100, 1.200, 94.900, 1118, 100, 97, 32, 24411, -17751, 5213, 5320, 20, 14, 1531004431.463, 22, 0, 1024, 1024, 1024, 1024, 0, 6, 4081, 4059, 4049, 4059, 4081, 4074, 0, 1, 15000, -89.900, 0.000, 94.200, 0.000, 0.000, -2.900, 0.0, , , , , , 95, , , 41, 41, 41
38.5374684, -120.3487199, 28.900, 16:00:31.563, 18, 0.00, 0.70, 98, 0.000, 1.400, 94.900, 1118, 100, 97, 32, 24411, -17751, 5213, 5320, 20, 14, 1531004431.563, 14, 0, 1024, 1024, 1024, 1024, 0, 6, 4081, 4059, 4049, 4059, 4081, 4074, 0, 1, 15100, -89.900, 0.000, 94.200, 0.000, 0.000, -2.900, 0.0, , , , , , 95, , , 41, 41, 41
38.5374683, -120.3487199, 29.200, 16:00:31.662, 18, 0.00, 0.71, 98, 0.000, 1.500, 94.800, 1118, 100, 97, 32, 24411, -17751, 5213, 5320, 20, 14, 1531004431.663, 6, 0, 1024, 1024, 1024, 1024, 0, 6, 4081, 4059, 4049, 4059, 4081, 4074, 0, 1, 15199, -89.900, 0.000, 94.200, 0.000, 0.000, -2.900, 0.0, , , , , , 95, , , 41, 41, 41
38.5374683, -120.3487199, 29.200, 16:00:31.763, 18, 0.00, 0.71, 98, 0.000, 1.500, 94.800, 1118, 100, 97, 32, 24411, -17751, 5213, 5320, 20, 14, 1531004431.763, 107, 0, 1024, 1024, 1024, 1024, 0, 6, 4081, 4059, 4049, 4059, 4081, 4074, 0, 1, 15300, -89.900, 0.000, 94.200, 0.000, 0.000, -2.900, 0.0, , , , , , 95, , , 41, 41, 41
38.5374682, -120.3487199, 29.500, 16:00:31.863, 18, 0.00, 0.71, 98, 0.000, 1.500, 94.800, 1118, 100, 97, 32, 24399, -17690, 5213, 5320, 20, 14, 1531004431.863, 95, 0, 1024, 1024, 1024, 1024, 0, 6, 4081, 4059, 4049, 4059, 4081, 4074, 0, 1, 15400, -89.900, 0.000, 94.200, 0.000, 0.000, -2.900, 0.0, , , , , , 95, , , 41, 41, 41
38.5374682, -120.3487199, 30.100, 16:00:31.963, 18, 0.10, 0.72, 98, 0.400, 1.400, 94.900, 1118, 100, 93, 32, 24399, -17690, 5213, 5320, 20, 14, 1531004431.964, 5, 0, 1024, 1024, 1024, 1024, 0, 6, 4081, 4059, 4049, 4059, 4081, 4074, 0, 1, 15500, -89.900, 0.000, 94.200, 0.100, 0.000, -2.900, 0.0, , , , , , 95, , , 41, 41, 41
38.5374682, -120.3487199, 30.100, 16:00:32.063, 18, 0.10, 0.72, 98, 0.400, 1.400, 94.900, 1118, 100, 93, 32, 24399, -17690, 5213, 5320, 20, 14, 1531004432.063, 104, 0, 1024, 1024, 1024, 1024, 0, 6, 4080, 4065, 4055, 4059, 4081, 4084, 0, 1, 15600, -89.900, 0.000, 94.200, 0.100, 0.000, -2.900, 0.0, , , , , , 95, , , 41, 41, 41
38.5374681, -120.3487199, 30.400, 16:00:32.162, 18, 0.10, 0.72, 98, 0.500, 1.500, 95.000, 1118, 100, 93, 32, 24399, -17690, 5213, 5320, 20, 14, 1531004432.162, 95, 0, 1024, 1024, 1024, 1024, 0, 6, 4080, 4065, 4055, 4059, 4081, 4084, 0, 1, 15699, -89.900, 0.000, 94.200, 0.100, 0.000, -2.900, 0.0, , , , , , 95, , , 41, 41, 41
38.5374681, -120.3487199, 30.700, 16:00:32.263, 18, 0.10, 0.73, 98, 0.600, 1.500, 95.100, 1118, 100, 93, 32, 24399, -17690, 5213, 5320, 20, 14, 1531004432.264, 97, 0, 1024, 1024, 1024, 1024, 0, 6, 4080, 4065, 4055, 4059, 4081, 4084, 0, 1, 15800, -89.900, 0.000, 94.200, 0.100, 0.000, -2.900, 0.0, , , , , , 95, , , 41, 41, 41
38.5374680, -120.3487199, 31.000, 16:00:32.363, 18, 0.10, 0.73, 98, 0.500, 1.500, 95.300, 1118, 100, 93, 32, 24399, -17690, 5213, 5320, 20, 14, 1531004432.363, 72, 0, 1024, 1024, 1024, 1024, 0, 6, 4080, 4065, 4055, 4059, 4081, 4084, 0, 1, 15900, -90.000, 0.000, 94.200, 0.100, 0.000, -2.900, 0.0, , , , , , 95, , , 41, 41, 41
38.5374680, -120.3487198, 31.300, 16:00:32.463, 18, 0.10, 0.74, 98, 0.400, 1.600, 95.400, 1118, 100, 93, 32, 24399, -17690, 5213, 5320, 20, 14, 1531004432.463, 76, 0, 1024, 1024, 1024, 1024, 0, 6, 4080, 4065, 4055, 4059, 4081, 4084, 0, 1, 16000, -90.000, 0.000, 94.200, 0.100, 0.000, -2.900, 0.0, , , , , , 95, , , 41, 41, 41
38.5374679, -120.3487198, 31.600, 16:00:32.563, 18, 0.10, 0.75, 98, 0.500, 1.700, 95.500, 1118, 100, 93, 32, 24399, -17690, 5213, 5320, 20, 14, 1531004432.563, 68, 0, 1024, 1024, 1024, 1024, 0, 6, 4080, 4065, 4055, 4059, 4081, 4084, 0, 1, 16100, -89.900, 0.000, 94.200, 0.100, 0.000, -2.900, 0.0, , , , , , 95, , , 41, 41, 41
38.5374679, -120.3487198, 31.900, 16:00:32.663, 18, 0.10, 0.75, 98, 0.500, 1.700, 95.500, 1118, 100, 93, 32, 24399, -17690, 5213, 5320, 20, 14, 1531004432.663, 75, 0, 1024, 1024, 1024, 1024, 0, 6, 4080, 4065, 4055, 4059, 4081, 4084, 0, 1, 16200, -89.900, 0.000, 94.200, 0.100, 0.000, -2.900, 0.0, , , , , , 95, , , 41, 41, 41
38.5374678, -120.3487198, 32.200, 16:00:32.763, 18, 0.10, 0.76, 98, 0.400, 1.600, 95.500, 1118, 100, 93, 32, 24399, -17690, 5213, 5320, 20, 14, 1531004432.763, 65, 0, 1024, 1024, 1024, 1024, 0, 6, 4080, 4065, 4055, 4059, 4081, 4084, 0, 1, 16300, -89.900, 0.000, 94.200, 0.100, 0.000, -2.900, 0.0, , , , , , 95, , , 41, 41, 41
38.5374678, -120.3487198, 32.500, 16:00:32.863, 18, 0.10, 0.76, 98, 0.300, 1.600, 95.500, 1118, 100, 93, 32, 24399, -17690, 5213, 5320, 20, 14, 1531004432.863, 61, 0, 1024, 1024, 1024, 1024, 0, 6, 4080, 4065, 4055, 4059, 4081, 4084, 0, 1, 16400, -89.900, 0.000, 94.200, 0.100, 0.000, -2.900, 0.0, , , , , , 95, , , 41, 41, 41
38.5374677, -120.3487199, 32.800, 16:00:32.963, 18, 0.10, 0.77, 98, 0.300, 1.400, 95.400, 1118, 100, 93, 32, 24407, -17481, 5213, 5320, 20, 14, 1531004432.964, 39, 0, 1024, 1024, 1024, 1024, 0, 6, 4080, 4065, 4055, 4059, 4081, 4084, 0, 1, 16501, -90.000, 0.000, 94.200, 0.100, 0.000, -3.000, 0.0, , , , , , 95, , , 41, 41, 41
38.5374676, -120.3487199, 33.100, 16:00:33.063, 18, 0.10, 0.78, 98, 0.400, 1.300, 95.300, 1118, 100, 93, 32, 24407, -17481, 5213, 5320, 20, 14, 1531004433.064, 40, 0, 1024, 1024, 1024, 1024, 0, 6, 4080, 4065, 4055, 4059, 4081, 4084, 0, 1, 16600, -90.000, 0.000, 94.200, 0.100, 0.000, -3.000, 0.0, , , , , , 95, , , 41, 41, 41
38.5374675, -120.3487198, 33.700, 16:00:33.163, 18, 0.10, 0.79, 98, 0.200, 1.300, 95.200, 1118, 100, 93, 32, 24407, -17481, 5213, 5320, 20, 14, 1531004433.164, 32, 0, 1024, 1024, 1024, 1024, 0, 6, 4080, 4065, 4055, 4059, 4081, 4084, 0, 1, 16700, -90.000, 0.000, 94.200, 0.100, 0.000, -2.900, 0.0, , , , , , 95, , , 41, 41, 41
38.5374675, -120.3487199, 34.000, 16:00:33.263, 18, 0.10, 0.79, 98, 0.000, 1.400, 95.100, 1118, 100, 93, 32, 24407, -17481, 5213, 5320, 20, 14, 1531004433.264, 35, 0, 1024, 1024, 1024, 1024, 0, 6, 4080, 4065, 4055, 4059, 4081, 4084, 0, 1, 16800, -89.900, 0.000, 94.200, 0.100, 0.000, -2.900, 0.0, , , , , , 95, , , 41, 41, 41
38.5374674, -120.3487199, 34.300, 16:00:33.363, 18, 0.10, 0.80, 98, 0.000, 1.400, 95.100, 1118, 100, 93, 32, 24407, -17481, 5213, 5320, 20, 14, 1531004433.364, 31, 0, 1024, 1024, 1024, 1024, 0, 6, 4080, 4065, 4055, 4059, 4081, 4084, 0, 1, 16900, -90.000, 0.000, 94.200, 0.100, 0.000, -3.000, 0.0, , , , , , 95, , , 41, 41, 41
38.5374673, -120.3487199, 34.600, 16:00:33.463, 18, 0.10, 0.81, 98, 0.000, 1.300, 95.100, 1118, 100, 99, 32, 24407, -17481, 5213, 5320, 20, 14, 1531004433.464, 32, 0, 1024, 1024, 1024, 1024, 0, 6, 4078, 4063, 4048, 4052, 4086, 4069, 0, 1, 17000, -90.000, 0.000, 94.200, 0.100, 0.000, -2.900, 0.0, , , , , , 95, , , 41, 41, 41
38.5374673, -120.3487199, 34.900, 16:00:33.563, 18, 0.10, 0.82, 98, -0.100, 1.200, 95.100, 1118, 100, 99, 32, 24407, -17481, 5213, 5320, 20, 14, 1531004433.563, 23, 0, 1024, 1024, 1024, 1024, 0, 6, 4078, 4063, 4048, 4052, 4086, 4069, 0, 1, 17099, -90.000, 0.000, 94.200, 0.100, 0.000, -2.900, 0.0, , , , , , 95, , , 41, 41, 41
38.5374672, -120.3487199, 35.200, 16:00:33.667, 18, 0.10, 0.82, 98, -0.200, 1.000, 95.100, 1118, 100, 99, 32, 24407, -17481, 5213, 5320, 20, 14, 1531004433.667, 3, 0, 1024, 1024, 1024, 1024, 0, 6, 4078, 4063, 4048, 4052, 4086, 4069, 0, 1, 17204, -90.000, 0.000, 94.200, 0.100, 0.000, -2.900, 0.0, , , , , , 95, , , 41, 41, 41
38.5374672, -120.3487199, 35.500, 16:00:33.763, 18, 0.10, 0.83, 98, -0.400, 1.000, 95.200, 1118, 100, 99, 32, 24407, -17481, 5213, 5320, 20, 14, 1531004433.763, 5, 0, 1024, 1024, 1024, 1024, 0, 6, 4078, 4063, 4048, 4052, 4086, 4069, 0, 1, 17300, -89.900, 0.000, 94.200, 0.100, 0.000, -3.000, 0.0, , , , , , 95, , , 41, 41, 41
38.5374671, -120.3487200, 35.800, 16:00:33.863, 18, 0.10, 0.84, 98, -0.400, 1.100, 95.200, 1118, 100, 99, 32, 24407, -17481, 5213, 5320, 20, 14, 1531004433.864, 6, 0, 1024, 1024, 1024, 1024, 0, 6, 4078, 4063, 4048, 4052, 4086, 4069, 0, 1, 17401, -89.900, 0.000, 94.200, 0.100, 0.000, -3.000, 0.0, , , , , , 95, , , 41, 41, 41
38.5374671, -120.3487200, 35.800, 16:00:33.963, 18, 0.10, 0.84, 98, -0.400, 1.100, 95.200, 1118, 100, 99, 32, 24407, -17481, 5213, 5320, 20, 14, 1531004433.963, 105, 0, 1024, 1024, 1024, 1024, 0, 6, 4078, 4063, 4048, 4052, 4086, 4069, 0, 1, 17500, -89.900, 0.000, 94.200, 0.100, 0.000, -3.000, 0.0, , , , , , 95, , , 41, 41, 41
38.5374670, -120.3487199, 36.400, 16:00:34.063, 18, 0.10, 0.84, 98, -0.300, 1.400, 95.300, 1118, 100, 99, 32, 24407, -17481, 5213, 5320, 20, 14, 1531004434.064, 4, 0, 1024, 1024, 1024, 1024, 0, 6, 4078, 4063, 4048, 4052, 4086, 4069, 0, 1, 17600, -89.900, 0.000, 94.200, 0.100, 0.000, -2.900, 0.0, , , , , , 95, , , 41, 41, 41
38.5374670, -120.3487199, 36.400, 16:00:34.162, 18, 0.10, 0.84, 98, -0.300, 1.400, 95.300, 1118, 100, 99, 32, 24407, -17481, 5213, 5320, 20, 14, 1531004434.163, 103, 0, 1024, 1024, 1024, 1024, 0, 6, 4078, 4063, 4048, 4052, 4086, 4069, 0, 1, 17700, -89.900, 0.000, 94.200, 0.100, 0.000, -2.900, 0.0, , , , , , 95, , , 41, 41, 41
38.5374670, -120.3487199, 36.700, 16:00:34.262, 18, 0.10, 0.85, 98, -0.300, 1.600, 95.400, 1118, 100, 99, 32, 24407, -17481, 5213, 5320, 20, 14, 1531004434.263, 95, 0, 1024, 1024, 1024, 1024, 0, 6, 4078, 4063, 4048, 4052, 4086, 4069, 0, 1, 17799, -89.900, 0.000, 94.200, 0.100, 0.000, -2.900, 0.0, , , , , , 95, , , 41, 41, 41
38.5374670, -120.3487199, 37.000, 16:00:34.363, 18, 0.10, 0.85, 98, -0.300, 1.700, 95.400, 1118, 100, 99, 32, 24407, -17481, 5213, 5320, 20, 14, 1531004434.364, 98, 0, 1024, 1024, 1024, 1024, 0, 6, 4078, 4063, 4048, 4052, 4086, 4069, 0, 1, 17900, -89.900, 0.000, 94.200, 0.100, 0.000, -2.900, 0.0, , , , , , 95, , , 41, 41, 41
38.5374669, -120.3487199, 37.300, 16:00:34.463, 18, 0.10, 0.85, 98, -0.300, 1.600, 95.300, 1118, 100, 99, 32, 24333, -17874, 5213, 5320, 20, 14, 1531004434.464, 79, 0, 1024, 1024, 1024, 1024, 0, 6, 4062, 4049, 4055, 4046, 4076, 4058, 0, 1, 18000, -89.900, 0.000, 94.200, 0.100, 0.000, -2.900, 0.0, , , , , , 95, , , 41, 41, 41
38.5374669, -120.3487199, 37.600, 16:00:34.563, 18, 0.10, 0.85, 98, -0.200, 1.400, 95.100, 1118, 100, 98, 32, 24333, -17874, 5213, 5320, 20, 14, 1531004434.564, 82, 0, 1024, 1024, 1024, 1024, 0, 6, 4062, 4049, 4055, 4046, 4076, 4058, 0, 1, 18100, -89.900, 0.000, 94.200, 0.100, 0.000, -2.900, 0.0, , , , , , 95, , , 41, 41, 41
38.5374669, -120.3487199, 37.900, 16:00:34.663, 18, 0.10, 0.85, 98, -0.100, 1.300, 94.900, 1118, 100, 98, 32, 24333, -17874, 5213, 5320, 20, 14, 1531004434.663, 64, 0, 1024, 1024, 1024, 1024, 0, 6, 4062, 4049, 4055, 4046, 4076, 4058, 0, 1, 18200, -89.900, 0.000, 94.200, 0.100, 0.000, -3.000, 0.0, , , , , , 95, , , 41, 41, 41
38.5374669, -120.3487199, 38.200, 16:00:34.763, 18, 0.10, 0.85, 98, 0.000, 1.200, 94.800, 1118, 100, 98, 32, 24333, -17874, 5213, 5320, 20, 14, 1531004434.763, 56, 0, 1024, 1024, 1024, 1024, 0, 6, 4062, 4049, 4055, 4046, 4076, 4058, 0, 1, 18300, -89.900, 0.000, 94.200, 0.100, 0.000, -3.000, 0.0, , , , , , 95, , , 41, 41, 41
38.5374669, -120.3487198, 38.500, 16:00:34.863, 18, 0.10, 0.86, 98, 0.000, 1.400, 94.800, 1118, 100, 98, 32, 24333, -17874, 5213, 5320, 20, 14, 1531004434.863, 48, 0, 1024, 1024, 1024, 1024, 0, 6, 4062, 4049, 4055, 4046, 4076, 4058, 0, 1, 18400, -89.900, 0.000, 94.200, 0.100, 0.000, -2.900, 0.0, , , , , , 95, , , 41, 41, 41
38.5374669, -120.3487198, 38.800, 16:00:34.963, 18, 0.10, 0.86, 98, -0.100, 1.600, 94.800, 1118, 100, 98, 32, 24333, -17874, 5213, 5320, 20, 14, 1531004434.963, 71, 0, 1024, 1024, 1024, 1024, 0, 6, 4062, 4049, 4055, 4046, 4076, 4058, 0, 1, 18500, -89.900, 0.000, 94.200, 0.100, 0.000, -2.900, 0.0, , , , , , 95, , , 41, 41, 41
38.5374669, -120.3487198, 39.200, 16:00:35.063, 18, 0.10, 0.86, 98, -0.100, 1.600, 94.900, 1118, 100, 98, 32, 24333, -17874, 5213, 5320, 20, 14, 1531004435.063, 56, 0, 1024, 1024, 1024, 1024, 0, 6, 4062, 4049, 4055, 4046, 4076, 4058, 0, 1, 18600, -89.900, 0.000, 94.200, 0.100, 0.000, -2.900, 0.0, , , , , , 95, , , 41, 41, 41
38.5374669, -120.3487198, 39.400, 16:00:35.163, 18, 0.10, 0.86, 98, -0.200, 1.600, 95.000, 1118, 100, 98, 32, 24333, -17874, 5213, 5320, 20, 14, 1531004435.163, 43, 0, 1024, 1024, 1024, 1024, 0, 6, 4062, 4049, 4055, 4046, 4076, 4058, 0, 1, 18700, -89.900, 0.000, 94.200, 0.100, 0.000, -2.900, 0.0, , , , , , 95, , , 41, 41, 41
38.5374669, -120.3487197, 39.700, 16:00:35.262, 18, 0.10, 0.85, 98, 0.000, 1.600, 95.200, 1118, 100, 98, 32, 24333, -17874, 5213, 5320, 20, 14, 1531004435.262, 25, 0, 1024, 1024, 1024, 1024, 0, 6, 4062, 4049, 4055, 4046, 4076, 4058, 0, 1, 18799, -89.900, 0.000, 94.200, 0.100, 0.000, -2.800, 0.0, , , , , , 95, , , 41, 41, 41
38.5374669, -120.3487197, 40.300, 16:00:35.363, 18, 0.10, 0.85, 98, 0.000, 2.000, 95.300, 1118, 100, 98, 32, 24333, -17874, 5213, 5320, 20, 14, 1531004435.363, 40, 0, 1024, 1024, 1024, 1024, 0, 6, 4062, 4049, 4055, 4046, 4076, 4058, 0, 1, 18900, -89.900, 0.000, 94.200, 0.100, 0.000, -2.800, 0.0, , , , , , 95, , , 41, 41, 41
38.5374669, -120.3487196, 40.600, 16:00:35.463, 18, 0.10, 0.85, 98, 0.000, 2.200, 95.300, 1118, 100, 97, 32, 24354, -17486, 5213, 5320, 20, 14, 1531004435.463, 31, 0, 1024, 1024, 1024, 1024, 0, 6, 4065, 4053, 4043, 4049, 4077, 4059, 0, 1, 19000, -89.900, 0.000, 94.200, 0.100, 0.000, -2.900, 0.0, , , , , , 95, , , 41, 41, 41
38.5374669, -120.3487196, 40.600, 16:00:35.563, 18, 0.10, 0.85, 98, 0.000, 2.200, 95.300, 1118, 100, 97, 32, 24354, -17486, 5213, 5320, 20, 14, 1531004435.563, 131, 0, 1024, 1024, 1024, 1024, 0, 6, 4065, 4053, 4043, 4049, 4077, 4059, 0, 1, 19100, -89.900, 0.000, 94.200, 0.100, 0.000, -2.900, 0.0, , , , , , 95, , , 41, 41, 41
38.5374669, -120.3487195, 41.200, 16:00:35.663, 18, 0.10, 0.85, 98, 0.000, 2.500, 95.100, 1118, 100, 97, 32, 24354, -17486, 5213, 5320, 20, 14, 1531004435.663, 24, 0, 1024, 1024, 1024, 1024, 0, 6, 4065, 4053, 4043, 4049, 4077, 4059, 0, 1, 19199, -89.900, 0.000, 94.200, 0.100, 0.000, -2.900, 0.0, , , , , , 95, , , 41, 41, 41
38.5374669, -120.3487195, 41.200, 16:00:35.763, 18, 0.10, 0.85, 98, 0.000, 2.500, 95.100, 1118, 100, 97, 32, 24354, -17486, 5213, 5320, 20, 14, 1531004435.763, 124, 0, 1024, 1024, 1024, 1024, 0, 6, 4065, 4053, 4043, 4049, 4077, 4059, 0, 1, 19300, -89.900, 0.000, 94.200, 0.100, 0.000, -2.900, 0.0, , , , , , 95, , , 41, 41, 41
38.5374669, -120.3487195, 41.700, 16:00:35.863, 18, 0.10, 0.84, 98, -0.100, 2.200, 95.100, 1118, 100, 97, 32, 24354, -17486, 5213, 5320, 20, 14, 1531004435.863, 18, 0, 1024, 1024, 1024, 1024, 0, 6, 4065, 4053, 4043, 4049, 4077, 4059, 0, 1, 19400, -89.900, 0.000, 94.200, 0.100, 0.000, -2.800, 0.0, , , , , , 95, , , 41, 41, 41
38.5374669, -120.3487195, 41.700, 16:00:35.962, 18, 0.10, 0.84, 98, -0.100, 2.200, 95.100, 1118, 100, 97, 32, 24354, -17486, 5213, 5320, 20, 14, 1531004435.963, 117, 0, 1024, 1024, 1024, 1024, 0, 6, 4065, 4053, 4043, 4049, 4077, 4059, 0, 1, 19499, -89.900, 0.000, 94.200, 0.100, 0.000, -2.800, 0.0, , , , , , 95, , , 41, 41, 41
38.5374669, -120.3487195, 41.700, 16:00:36.062, 18, 0.10, 0.84, 98, -0.100, 2.200, 95.100, 1118, 100, 97, 32, 24354, -17486, 5213, 5320, 20, 14, 1531004436.063, 217, 0, 1024, 1024, 1024, 1024, 0, 6, 4065, 4053, 4043, 4049, 4077, 4059, 0, 1, 19600, -89.900, 0.000, 94.200, 0.100, 0.000, -2.800, 0.0, , , , , , 95, , , 41, 41, 41
38.5374670, -120.3487195, 42.300, 16:00:36.163, 18, 0.10, 0.84, 98, 0.000, 1.900, 95.200, 1118, 100, 97, 32, 24354, -17486, 5213, 5320, 20, 14, 1531004436.163, 55, 0, 1024, 1024, 1024, 1024, 0, 6, 4065, 4053, 4043, 4049, 4077, 4059, 0, 1, 19699, -89.900, 0.000, 94.200, 0.100, 0.000, -2.900, 0.0, , , , , , 95, , , 41, 41, 41
38.5374671, -120.3487195, 42.900, 16:00:36.264, 18, 0.20, 0.83, 98, 0.200, 2.000, 95.200, 1118, 100, 97, 32, 24354, -17486, 5213, 5320, 20, 14, 1531004436.264, 1, 0, 1024, 1024, 1024, 1024, 0, 6, 4065, 4053, 4043, 4049, 4077, 4059, 0, 1, 19801, -89.900, 0.000, 94.200, 0.200, 0.000, -3.000, 0.1, , , , , , 95, , , 41, 41, 41
38.5374671, -120.3487195, 42.900, 16:00:36.363, 18, 0.20, 0.83, 98, 0.200, 2.000, 95.200, 1118, 100, 97, 32, 24354, -17486, 5213, 5320, 20, 14, 1531004436.363, 100, 0, 1024, 1024, 1024, 1024, 0, 6, 4065, 4053, 4043, 4049, 4077, 4059, 0, 1, 19900, -89.900, 0.000, 94.200, 0.200, 0.000, -3.000, 0.1, , , , , , 95, , , 41, 41, 41
38.5374671, -120.3487195, 43.300, 16:00:36.462, 18, 0.20, 0.82, 98, 0.300, 2.200, 95.200, 1118, 100, 97, 32, 24354, -17486, 5213, 5320, 20, 14, 1531004436.462, 68, 0, 1024, 1024, 1024, 1024, 0, 6, 4065, 4053, 4043, 4049, 4077, 4059, 0, 1, 19999, -89.900, 0.000, 94.200, 0.200, 0.000, -3.000, 0.1, , , , , , 95, , , 41, 41, 41
38.5374672, -120.3487194, 43.500, 16:00:36.563, 18, 0.20, 0.82, 98, 0.400, 2.300, 95.100, 1118, 100, 95, 32, 24354, -17486, 5213, 5320, 20, 14, 1531004436.563, 83, 0, 1024, 1024, 1024, 1024, 0, 6, 4065, 4053, 4043, 4049, 4077, 4059, 0, 1, 20100, -89.900, 0.000, 94.200, 0.200, 0.000, -2.800, 0.1, , , , , , 95, , , 41, 41, 41
38.5374672, -120.3487194, 43.800, 16:00:36.663, 18, 0.20, 0.81, 98, 0.600, 2.300, 95.100, 1118, 100, 95, 32, 24354, -17486, 5213, 5320, 20, 14, 1531004436.663, 86, 0, 1024, 1024, 1024, 1024, 0, 6, 4065, 4053, 4043, 4049, 4077, 4059, 0, 1, 20199, -89.900, 0.000, 94.200, 0.200, 0.000, -2.900, 0.1, , , , , , 95, , , 41, 41, 41
38.5374673, -120.3487194, 44.100, 16:00:36.763, 18, 0.10, 0.81, 98, 0.700, 2.200, 95.100, 1118, 100, 95, 32, 24354, -17486, 5213, 5320, 20, 14, 1531004436.763, 77, 0, 1024, 1024, 1024, 1024, 0, 6, 4065, 4053, 4043, 4049, 4077, 4059, 0, 1, 20300, -89.900, 0.000, 94.200, 0.100, 0.000, -2.900, 0.0, , , , , , 95, , , 41, 41, 41
38.5374673, -120.3487194, 44.400, 16:00:36.863, 18, 0.10, 0.80, 98, 0.700, 2.000, 95.100, 1118, 100, 95, 32, 24354, -17486, 5213, 5320, 20, 14, 1531004436.863, 69, 0, 1024, 1024, 1024, 1024, 0, 6, 4065, 4053, 4043, 4049, 4077, 4059, 0, 1, 20400, -89.900, 0.000, 94.200, 0.100, 0.000, -2.900, 0.0, , , , , , 95, , , 41, 41, 41
38.5374673, -120.3487194, 44.700, 16:00:36.963, 18, 0.10, 0.80, 97, 0.400, 2.000, 95.100, 1118, 100, 95, 32, 24351, -17323, 5160, 5320, 20, 14, 1531004436.963, 65, 0, 1024, 1024, 1024, 1024, 0, 6, 4068, 4053, 4043, 4044, 4073, 4054, 0, 1, 20500, -89.900, 0.000, 94.200, 0.100, 0.000, -3.000, 0.0, , , , , , 95, , , 41, 41, 41
38.5374673, -120.3487194, 44.700, 16:00:37.063, 18, 0.10, 0.80, 97, 0.400, 2.000, 95.100, 1118, 100, 97, 32, 24351, -17323, 5160, 5320, 20, 14, 1531004437.063, 164, 0, 1024, 1024, 1024, 1024, 0, 6, 4068, 4053, 4043, 4044, 4073, 4054, 0, 1, 20599, -89.900, 0.000, 94.200, 0.100, 0.000, -3.000, 0.0, , , , , , 95, , , 41, 41, 41
38.5374674, -120.3487194, 45.400, 16:00:37.163, 18, 0.10, 0.80, 97, 0.500, 2.100, 95.100, 1118, 100, 97, 32, 24351, -17323, 5160, 5320, 20, 14, 1531004437.163, 22, 0, 1024, 1024, 1024, 1024, 0, 6, 4068, 4053, 4043, 4044, 4073, 4054, 0, 1, 20700, -89.900, 0.000, 94.200, 0.100, 0.000, -3.000, 0.0, , , , , , 95, , , 41, 41, 41
38.5374674, -120.3487194, 45.700, 16:00:37.263, 18, 0.10, 0.79, 97, 0.600, 2.000, 95.200, 1118, 100, 97, 32, 24351, -17323, 5160, 5320, 20, 14, 1531004437.263, 26, 0, 1024, 1024, 1024, 1024, 0, 6, 4068, 4053, 4043, 4044, 4073, 4054, 0, 1, 20800, -89.900, 0.000, 94.200, 0.100, 0.000, -3.000, 0.0, , , , , , 95, , , 41, 41, 41
38.5374675, -120.3487195, 46.300, 16:00:37.362, 18, 0.10, 0.79, 97, 0.800, 2.000, 95.300, 1118, 100, 97, 32, 24351, -17323, 5160, 5320, 20, 14, 1531004437.363, 26, 0, 1024, 1024, 1024, 1024, 0, 6, 4068, 4053, 4043, 4044, 4073, 4054, 0, 1, 20899, -89.900, 0.000, 94.200, 0.100, 0.000, -2.900, 0.0, , , , , , 95, , , 41, 41, 41
