latitude,longitude,altitude(feet),ascent(feet),speed(mph),distance(feet),time(millisecond),datetime(utc),satellites,gpslevel,voltage(v),max_altitude(feet),max_ascent(feet),max_speed(mph),max_distance(feet), xSpeed(mph), ySpeed(mph), zSpeed(mph), compass_heading(degrees), pitch(degrees), roll(degrees),isPhoto,isVideo,rc_elevator,rc_aileron,rc_throttle,rc_rudder,gimbal_heading(degrees),gimbal_pitch(degrees),battery_percent,voltageCell1,voltageCell2,voltageCell3,voltageCell4,voltageCell5,voltageCell6,current(A),battery_temperature(f),flycStateRaw,flycState,message
38.5374381,-120.3487298,5383.15116898,0,0,0,3100,2018-07-07 22:03:01,9,0,0,5383.15116898,0,0,0,0,0,0,98, 1, 0.2,1,0,1024,1024,1024,1024,97.6,-89.9,98,4.161,4.16,4.175,4.213,4.208,4.112,0,89.6,11,AutoTakeoff,DJI_0001.jpg Starting Mission from Lat/Long: 38.53746/-120.34876 Camera: Zenmuse X3 - Overlap: 90/90 - Active Connection: No
38.5374381,-120.3487299,5383.15116898,0,0,0.028538550782,3200,2018-07-07 22:03:01,9,0,0,5383.15116898,0,0,0.028538550782,0,0,0,98.1, 0.4, 0,0,0,1024,1024,1024,1024,97.6,-89.9,98,4.161,4.16,4.175,4.213,4.208,4.112,0,89.6,11,AutoTakeoff,
38.5374381,-120.3487299,5383.15116898,0,0,0.028538550782,3300,2018-07-07 22:03:01,9,0,0,5383.15116898,0,0,0.028538550782,0,0,0,98.2, 0.1, -0.1,0,0,1024,1024,1024,1024,97.6,-89.9,98,4.161,4.16,4.175,4.213,4.208,4.112,0,89.6,11,AutoTakeoff,
38.5374382,-120.34873,5383.15116898,0,0,0.067741800068,3400,2018-07-07 22:03:01,9,0,0,5383.15116898,0,0,0.067741800068,0,0,0,98.3, 0, -0.3,0,0,1024,1024,1024,1024,97.6,-89.9,98,4.161,4.16,4.175,4.213,4.208,4.112,0,89.6,11,AutoTakeoff,
38.5374383,-120.34873,5383.47925298,0.328084,0,0.092641407164,3500,2018-07-07 22:03:01,9,0,0,5383.47925298,0.328084,0,0.092641407164,0,0,0,98.3, 0, -0.1,0,0,1024,1024,1024,1024,97.6,-90,98,4.161,4.16,4.175,4.213,4.208,4.112,0,89.6,11,AutoTakeoff,
38.5374384,-120.34873,5383.47925298,0.328084,0.223694,0.123442917336,3600,2018-07-07 22:03:01,9,0,0,5383.47925298,0.328084,0.223694,0.123442917336,0,0,0,98.3, 0, 0.3,0,0,1024,1024,1024,1024,97.6,-89.9,98,4.161,4.16,4.175,4.213,4.208,4.112,0,89.6,11,AutoTakeoff,
38.5374385,-120.34873,5383.47925298,0.328084,0.223694,0.156704073256,3700,2018-07-07 22:03:01,9,0,0,5383.47925298,0.328084,0.223694,0.156704073256,0,0,0,98.2, 0, 0.8,0,0,1024,1024,1024,1024,97.6,-89.9,98,4.161,4.16,4.175,4.213,4.208,4.112,0,89.6,11,AutoTakeoff,
38.5374386,-120.3487299,5383.80733698,0.656168,0.223694,0.184643378612,3800,2018-07-07 22:03:01,10,0,0,5383.80733698,0.656168,0.223694,0.184643378612,0,0,0,98.1, 0, 1,0,0,1024,1024,1024,1024,97.6,-89.9,98,4.161,4.16,4.175,4.213,4.208,4.112,0,89.6,11,AutoTakeoff,
38.5374387,-120.3487299,5383.80733698,0.656168,0.223694,0.220762146172,3900,2018-07-07 22:03:01,10,0,0,5383.80733698,0.656168,0.223694,0.220762146172,0,0,0,98.1, 0.2, 1.4,0,0,1024,1024,1024,1024,97.6,-89.9,98,4.161,4.16,4.175,4.213,4.208,4.112,0,89.6,11,AutoTakeoff,
38.5374388,-120.3487298,5384.13542098,0.984252,0,0.255394693212,4000,2018-07-07 22:03:02,9,0,25.07,5384.13542098,0.984252,0.223694,0.255394693212,0,0,0,98, 0.3, 1.7,0,0,1024,1024,1024,1024,97.6,-89.9,98,4.161,4.16,4.175,4.213,4.208,4.112,8.525,89.6,11,AutoTakeoff,
38.5374388,-120.3487298,5384.13542098,0.984252,0,0.255394693212,4100,2018-07-07 22:03:02,9,0,25.07,5384.13542098,0.984252,0.223694,0.255394693212,0,0,0,98, 0.4, 1.6,0,0,1024,1024,1024,1024,97.6,-89.9,98,4.161,4.16,4.175,4.213,4.208,4.112,8.525,89.6,11,AutoTakeoff,
38.5374388,-120.3487297,5384.46350498,1.312336,0,0.256984260192,4200,2018-07-07 22:03:02,11,0,25.07,5384.46350498,1.312336,0.223694,0.256984260192,0,0,0,98, 0.5, 1.6,0,0,1024,1024,1024,1024,97.6,-89.9,98,4.161,4.16,4.175,4.213,4.208,4.112,8.525,89.6,11,AutoTakeoff,
38.5374388,-120.3487296,5384.46350498,1.312336,0,0.261694890264,4300,2018-07-07 22:03:02,11,0,25.07,5384.46350498,1.312336,0.223694,0.261694890264,0,0,0,98, 0.6, 1.5,0,0,1024,1024,1024,1024,97.6,-89.9,98,4.161,4.16,4.175,4.213,4.208,4.112,8.525,89.6,11,AutoTakeoff,
38.5374388,-120.3487295,5384.79158898,1.64042,0,0.269363197596,4400,2018-07-07 22:03:02,11,0,25.07,5384.79158898,1.64042,0.223694,0.269363197596,0,0,0,98, 0.6, 1.3,0,0,1024,1024,1024,1024,97.6,-89.9,98,4.161,4.16,4.175,4.213,4.208,4.112,8.525,89.6,11,AutoTakeoff,
38.5374388,-120.3487295,5384.79158898,1.64042,0,0.269363197596,4500,2018-07-07 22:03:02,11,0,25.07,5384.79158898,1.64042,0.223694,0.269363197596,0,0,0,98, 0.6, 1,0,0,1024,1024,1024,1024,97.6,-89.9,98,4.161,4.16,4.175,4.213,4.208,4.112,8.525,89.6,11,AutoTakeoff,
38.5374388,-120.3487295,5385.11967298,1.968504,0,0.269363197596,4600,2018-07-07 22:03:02,10,0,25.07,5385.11967298,1.968504,0.223694,0.269363197596,0,0,-0.223694,98, 0.6, 1,0,0,1024,1024,1024,1024,97.6,-89.9,98,4.161,4.16,4.175,4.213,4.208,4.112,8.525,89.6,11,AutoTakeoff,
38.5374389,-120.3487295,5385.44775698,2.296588,0,0.304177175088,4700,2018-07-07 22:03:02,9,0,25.07,5385.44775698,2.296588,0.223694,0.304177175088,0,0,-0.223694,98.1, 0.5, 1.1,0,0,1024,1024,1024,1024,97.6,-89.9,98,4.161,4.16,4.175,4.213,4.208,4.112,8.525,89.6,11,AutoTakeoff,
38.5374388,-120.3487295,5385.44775698,2.296588,0,0.269363197596,4900,2018-07-07 22:03:02,9,0,25.07,5385.44775698,2.296588,0.223694,0.304177175088,0,0,-0.223694,98.1, 0.5, 1.1,0,0,1024,1024,1024,1024,97.6,-89.9,98,4.161,4.16,4.175,4.213,4.208,4.112,8.525,89.6,11,AutoTakeoff,
38.5374388,-120.3487293,5385.77584098,2.624672,0,0.292553815136,5000,2018-07-07 22:03:03,9,0,24.637,5385.77584098,2.624672,0.223694,0.304177175088,0,0,-0.223694,98.2, 0.6, 0.9,0,0,1024,1024,1024,1024,97.6,-89.9,98,4.161,4.16,4.175,4.213,4.208,4.112,16.626,89.6,11,AutoTakeoff,
38.5374388,-120.3487293,5386.10392498,2.952756,0,0.292553815136,5200,2018-07-07 22:03:03,9,0,24.637,5386.10392498,2.952756,0.223694,0.304177175088,0,0,-0.223694,98.2, 0.6, 0.8,0,0,1024,1024,1024,1024,97.6,-89.9,98,4.161,4.16,4.175,4.213,4.208,4.112,16.626,89.6,14,Waypoint,
38.5374388,-120.3487292,5386.10392498,2.952756,0,0.307484261808,5300,2018-07-07 22:03:03,9,0,24.637,5386.10392498,2.952756,0.223694,0.307484261808,0,0,0,98.1, 0.6, 0.9,0,0,1024,1024,1024,1024,97.6,-89.9,98,4.161,4.16,4.175,4.213,4.208,4.112,16.626,89.6,14,Waypoint,
38.5374389,-120.3487291,5386.43200898,3.28084,0,0.35369751788,5400,2018-07-07 22:03:03,9,0,24.637,5386.43200898,3.28084,0.223694,0.35369751788,0,0,0,98.1, 0.6, 0.7,0,0,1024,1024,1024,1024,97.6,-89.9,98,4.161,4.16,4.175,4.213,4.208,4.112,16.626,89.6,14,Waypoint,
38.5374389,-120.348729,5386.43200898,3.28084,0,0.37056431632,5500,2018-07-07 22:03:03,9,0,24.637,5386.43200898,3.28084,0.223694,0.37056431632,0,0,0,98.1, 0.7, 0.7,0,0,1024,1024,1024,1024,97.6,-89.9,98,4.161,4.16,4.175,4.213,4.208,4.112,16.626,89.6,14,Waypoint,
38.5374389,-120.3487289,5386.43200898,3.28084,0,0.38879922504,5600,2018-07-07 22:03:03,9,0,24.637,5386.43200898,3.28084,0.223694,0.38879922504,0,0,0,98.2, 0.8, 0.8,0,0,1024,1024,1024,1024,97.6,-89.9,98,4.161,4.16,4.175,4.213,4.208,4.112,16.626,89.6,14,Waypoint,
38.5374389,-120.3487289,5386.76009298,3.608924,0,0.38879922504,5700,2018-07-07 22:03:03,9,0,24.637,5386.76009298,3.608924,0.223694,0.38879922504,0,0,0,98.2, 0.9, 0.9,0,0,1024,1024,1024,1024,97.6,-89.9,98,4.161,4.16,4.175,4.213,4.208,4.112,16.626,89.6,14,Waypoint,
38.5374389,-120.3487289,5386.76009298,3.608924,0,0.38879922504,5800,2018-07-07 22:03:03,10,0,24.637,5386.76009298,3.608924,0.223694,0.38879922504,0,0,-0.223694,98.2, 0.8, 0.8,0,0,1024,1024,1024,1024,97.6,-89.9,98,4.161,4.16,4.175,4.213,4.208,4.112,16.626,89.6,14,Waypoint,
38.537439,-120.3487288,5387.08817698,3.937008,0,0.43504922652,5900,2018-07-07 22:03:03,10,0,24.637,5387.08817698,3.937008,0.223694,0.43504922652,0,0,-0.223694,98.2, 0.8, 0.8,0,0,1024,1024,1024,1024,97.6,-89.9,98,4.161,4.16,4.175,4.213,4.208,4.112,16.626,89.6,14,Waypoint,
38.537439,-120.3487287,5387.41626098,4.265092,0,0.4542815106,6000,2018-07-07 22:03:04,10,0,24.637,5387.41626098,4.265092,0.223694,0.4542815106,0,0,-0.223694,98.2, 0.9, 0.9,0,0,1024,1024,1024,1024,97.6,-89.9,98,4.088,4.099,4.098,4.129,4.117,4.084,16.626,89.6,14,Waypoint,
38.537439,-120.3487286,5387.74434498,4.593176,0,0.47445211492,6100,2018-07-07 22:03:04,10,0,24.637,5387.74434498,4.593176,0.223694,0.47445211492,0,0,-0.223694,98.2, 1.1, 1,0,0,1024,1024,1024,1024,97.6,-89.9,98,4.088,4.099,4.098,4.129,4.117,4.084,16.626,89.6,14,Waypoint,
38.5374389,-120.3487285,5388.07242898,4.92126,0,0.47205382088,6200,2018-07-07 22:03:04,10,0,24.637,5388.07242898,4.92126,0.223694,0.47445211492,0,0,-0.223694,98.2, 1.1, 1,0,0,1024,1024,1024,1024,97.6,-89.9,98,4.088,4.099,4.098,4.129,4.117,4.084,16.626,89.6,14,Waypoint,
38.5374391,-120.3487285,5388.40051298,5.249344,0,0.52034450484,6300,2018-07-07 22:03:04,10,0,24.637,5388.40051298,5.249344,0.223694,0.52034450484,0,0,-0.223694,98.2, 1, 1,0,0,1024,1024,1024,1024,97.6,-89.9,98,4.088,4.099,4.098,4.129,4.117,4.084,16.626,89.6,14,Waypoint,
38.5374392,-120.3487285,5389.05668098,5.905512,0,0.54654529308,6400,2018-07-07 22:03:04,10,0,24.637,5389.05668098,5.905512,0.223694,0.54654529308,0,0,-0.447388,98.2, 0.8, 1.3,0,0,1024,1024,1024,1024,97.6,-89.9,98,4.088,4.099,4.098,4.129,4.117,4.084,16.626,89.6,14,Waypoint,
38.5374392,-120.3487284,5389.71284898,6.56168,0,0.5663057924,6500,2018-07-07 22:03:04,10,0,24.637,5389.71284898,6.56168,0.223694,0.5663057924,0,0,-0.447388,98.2, 0.8, 1.7,0,0,1024,1024,1024,1024,97.6,-89.9,98,4.088,4.099,4.098,4.129,4.117,4.084,16.626,89.6,14,Waypoint,
38.5374392,-120.3487283,5390.36901698,7.217848,0,0.58678807652,6600,2018-07-07 22:03:04,11,0,24.637,5390.36901698,7.217848,0.223694,0.58678807652,0,0,-0.447388,98.2, 0.8, 1.6,0,0,1024,1024,1024,1024,97.6,-89.9,98,4.088,4.099,4.098,4.129,4.117,4.084,16.626,89.6,14,Waypoint,
38.5374391,-120.3487283,5391.02518498,7.874016,0,0.56246392876,6700,2018-07-07 22:03:04,11,0,24.637,5391.02518498,7.874016,0.223694,0.58678807652,0,0,-0.447388,98.1, 0.9, 1.4,0,0,1024,1024,1024,1024,97.6,-89.9,98,4.088,4.099,4.098,4.129,4.117,4.084,16.626,89.6,14,Waypoint,
38.537439,-120.3487282,5392.00943698,8.858268,0,0.56242455868,6800,2018-07-07 22:03:04,10,0,24.637,5392.00943698,8.858268,0.223694,0.58678807652,0,0,-0.671082,98.1, 1.1, 1,0,0,1024,1024,1024,1024,97.6,-89.9,98,4.088,4.099,4.098,4.129,4.117,4.084,16.626,89.6,14,Waypoint,
38.5374389,-120.3487282,5392.99368898,9.84252,0,0.54193571288,6900,2018-07-07 22:03:04,10,0,24.637,5392.99368898,9.84252,0.223694,0.58678807652,0,0,-0.671082,98, 1.2, 0.7,0,0,1024,1024,1024,1024,97.6,-89.9,98,4.088,4.099,4.098,4.129,4.117,4.084,16.626,89.6,14,Waypoint,
38.5374387,-120.3487283,5394.96219298,11.811024,0,0.48080382116,7100,2018-07-07 22:03:05,10,0,24.637,5394.96219298,11.811024,0.223694,0.58678807652,0,0,-0.671082,97.9, 1.2, 0,0,0,1024,1024,1024,1024,97.6,-89.9,98,4.088,4.099,4.098,4.129,4.117,4.084,16.626,89.6,14,Waypoint,
38.5374384,-120.3487284,5397.25878098,14.107612,0,0.41426182428,7300,2018-07-07 22:03:05,10,0,24.637,5397.25878098,14.107612,0.223694,0.58678807652,0,0,-0.671082,98, 0.9, -0.1,0,0,1024,1024,1024,1024,97.6,-90,98,4.088,4.099,4.098,4.129,4.117,4.084,16.626,89.6,14,Waypoint,
38.5374382,-120.3487285,5399.22728498,16.076116,0,0.37279200668,7400,2018-07-07 22:03:05,10,0,24.637,5399.22728498,16.076116,0.223694,0.58678807652,0,0,-0.671082,98, 0.7, -0.2,0,0,1024,1024,1024,1024,97.6,-89.9,98,4.088,4.099,4.098,4.129,4.117,4.084,16.626,89.6,14,Waypoint,
38.5374382,-120.3487284,5400.53962098,17.388452,0,0.40120080024,7600,2018-07-07 22:03:05,10,0,24.637,5400.53962098,17.388452,0.223694,0.58678807652,0,0,-0.671082,97.9, 0.7, 0,0,0,1024,1024,1024,1024,97.6,-89.9,98,4.088,4.099,4.098,4.129,4.117,4.084,16.626,89.6,14,Waypoint,
38.5374384,-120.3487283,5401.52387298,18.372704,0,0.44185040784,7700,2018-07-07 22:03:05,10,0,24.637,5401.52387298,18.372704,0.223694,0.58678807652,0,0,-0.671082,97.8, 0.8, 0.1,0,0,1024,1024,1024,1024,97.6,-89.9,98,4.088,4.099,4.098,4.129,4.117,4.084,16.626,89.6,14,Waypoint,
38.5374385,-120.3487281,5402.83620898,19.68504,0,0.50663059364,7800,2018-07-07 22:03:05,11,0,24.637,5402.83620898,19.68504,0.223694,0.58678807652,0,0,-0.671082,97.7, 1.1, 0.7,0,0,1024,1024,1024,1024,97.6,-89.9,98,4.088,4.099,4.098,4.129,4.117,4.084,16.626,89.6,14,Waypoint,
38.5374386,-120.3487282,5403.82046098,20.669292,0,0.49170933332,7900,2018-07-07 22:03:05,11,0,24.637,5403.82046098,20.669292,0.223694,0.58678807652,0,0,-0.671082,97.7, 1.3, 1.1,0,0,1024,1024,1024,1024,97.6,-89.9,98,4.088,4.099,4.098,4.129,4.117,4.084,16.626,89.6,14,Waypoint,
38.5374386,-120.3487282,5404.80471298,21.653544,0,0.49170933332,8000,2018-07-07 22:03:06,10,0,24.312,5404.80471298,21.653544,0.223694,0.58678807652,0,0,-0.671082,97.7, 1.2, 1.2,0,0,1024,1024,1024,1024,97.6,-89.9,98,4.006,4.027,4.013,4.061,4.058,4.021,19.202,89.6,14,Waypoint,
38.5374387,-120.3487282,5405.78896498,22.637796,0,0.5063812498,8100,2018-07-07 22:03:06,10,0,24.312,5405.78896498,22.637796,0.223694,0.58678807652,0,0,-0.671082,97.8, 1, 1.2,0,0,1024,1024,1024,1024,97.6,-89.9,98,4.006,4.027,4.013,4.061,4.058,4.021,19.202,89.6,14,Waypoint,
38.5374387,-120.3487283,5407.10130098,23.950132,0,0.48080382116,8200,2018-07-07 22:03:06,10,0,24.312,5407.10130098,23.950132,0.223694,0.58678807652,0,0,-0.671082,97.9, 0.8, 1.1,0,0,1024,1024,1024,1024,97.6,-89.9,98,4.006,4.027,4.013,4.061,4.058,4.021,19.202,89.6,14,Waypoint,
38.5374388,-120.3487282,5408.08555298,24.934384,0,0.52318899312,8300,2018-07-07 22:03:06,10,0,24.312,5408.08555298,24.934384,0.223694,0.58678807652,0,0,-0.671082,98.1, 0.7, 1.2,0,0,1024,1024,1024,1024,97.6,-89.9,98,4.006,4.027,4.013,4.061,4.058,4.021,19.202,89.6,14,Waypoint,
38.5374389,-120.3487282,5409.06980498,25.918636,0,0.54193571288,8400,2018-07-07 22:03:06,10,0,24.312,5409.06980498,25.918636,0.223694,0.58678807652,0,0,-0.671082,98.3, 0.7, 1.3,0,0,1024,1024,1024,1024,97.6,-89.9,98,4.006,4.027,4.013,4.061,4.058,4.021,19.202,89.6,14,Waypoint,
38.5374391,-120.3487282,5410.38214098,27.230972,0,0.58447836516,8500,2018-07-07 22:03:06,10,0,24.312,5410.38214098,27.230972,0.223694,0.58678807652,0,0,-0.671082,98.5, 0.8, 1.6,0,0,1024,1024,1024,1024,97.6,-89.9,98,4.006,4.027,4.013,4.061,4.058,4.021,19.202,89.6,14,Waypoint,
38.5374393,-120.3487282,5411.36639298,28.215224,0,0.63260172628,8600,2018-07-07 22:03:06,10,0,24.312,5411.36639298,28.215224,0.223694,0.63260172628,0,0,-0.671082,98.5, 0.9, 1.8,0,0,1024,1024,1024,1024,97.6,-89.9,98,4.006,4.027,4.013,4.061,4.058,4.021,19.202,89.6,14,Waypoint,
38.5374393,-120.3487281,5412.35064498,29.199476,0,0.65350067708,8700,2018-07-07 22:03:06,10,0,24.312,5412.35064498,29.199476,0.223694,0.65350067708,0,0,-0.671082,98.5, 1, 1.8,0,0,1024,1024,1024,1024,97.6,-89.9,98,4.006,4.027,4.013,4.061,4.058,4.021,19.202,89.6,14,Waypoint,
38.5374393,-120.3487281,5413.33489698,30.183728,0,0.65350067708,8800,2018-07-07 22:03:06,10,0,24.312,5413.33489698,30.183728,0.223694,0.65350067708,0,0,-0.671082,98.4, 1.1, 1.6,0,0,1024,1024,1024,1024,97.6,-89.9,98,4.006,4.027,4.013,4.061,4.058,4.021,19.202,89.6,14,Waypoint,
38.5374393,-120.3487281,5414.31914898,31.16798,0,0.65350067708,8900,2018-07-07 22:03:06,10,0,24.312,5414.31914898,31.16798,0.223694,0.65350067708,0,0,-0.671082,98.4, 1.1, 1.4,0,0,1024,1024,1024,1024,97.6,-89.9,98,4.006,4.027,4.013,4.061,4.058,4.021,19.202,89.6,14,Waypoint,
38.5374394,-120.3487281,5415.63148498,32.480316,0,0.67848427368,9000,2018-07-07 22:03:07,10,0,24.007,5415.63148498,32.480316,0.223694,0.67848427368,0,0,-0.671082,98.3, 1.2, 1.2,0,0,1024,1024,1024,1024,97.6,-89.9,98,3.993,4.018,3.99,4.043,4.032,4.004,23.128,89.6,14,Waypoint,
38.5374395,-120.3487281,5417.59998898,34.44882,0,0.70447180732,9200,2018-07-07 22:03:07,11,0,24.007,5417.59998898,34.44882,0.223694,0.70447180732,0,0,-0.671082,98.2, 0.9, 1.3,0,0,1024,1024,1024,1024,97.6,-89.9,98,3.993,4.018,3.99,4.043,4.032,4.004,23.128,89.6,14,Waypoint,
38.5374395,-120.3487281,5418.58424098,35.433072,0,0.70447180732,9300,2018-07-07 22:03:07,11,0,24.007,5418.58424098,35.433072,0.223694,0.70447180732,0,0,-0.671082,98.2, 0.8, 1.5,0,0,1024,1024,1024,1024,97.6,-89.9,98,3.993,4.018,3.99,4.043,4.032,4.004,23.128,89.6,14,Waypoint,
38.5374396,-120.3487282,5419.56849298,36.417324,0,0.7127460858,9400,2018-07-07 22:03:07,11,0,24.007,5419.56849298,36.417324,0.223694,0.7127460858,0,0,-0.671082,98.1, 0.8, 1.5,0,0,1024,1024,1024,1024,97.6,-89.9,98,3.993,4.018,3.99,4.043,4.032,4.004,23.128,89.6,14,Waypoint,
38.5374397,-120.3487282,5420.55274498,37.401576,0,0.74112863264,9500,2018-07-07 22:03:07,11,0,24.007,5420.55274498,37.401576,0.223694,0.74112863264,0,0,-0.671082,98.2, 0.9, 1.5,0,0,1024,1024,1024,1024,97.6,-89.9,98,3.993,4.018,3.99,4.043,4.032,4.004,23.128,89.6,14,Waypoint,
38.5374397,-120.3487282,5421.53699698,38.385828,0,0.74112863264,9600,2018-07-07 22:03:07,11,0,24.007,5421.53699698,38.385828,0.223694,0.74112863264,0,0,-0.671082,98.2, 1, 1.4,0,0,1024,1024,1024,1024,97.6,-89.9,98,3.993,4.018,3.99,4.043,4.032,4.004,23.128,89.6,14,Waypoint,
38.5374397,-120.3487282,5422.52124898,39.37008,0,0.74112863264,9700,2018-07-07 22:03:07,11,0,24.007,5422.52124898,39.37008,0.223694,0.74112863264,0,0,-0.671082,98.2, 0.8, 1.2,0,0,1024,1024,1024,1024,97.6,-89.9,98,3.993,4.018,3.99,4.043,4.032,4.004,23.128,89.6,14,Waypoint,
38.5374397,-120.3487282,5423.50550098,40.354332,0,0.74112863264,9800,2018-07-07 22:03:07,11,0,24.007,5423.50550098,40.354332,0.223694,0.74112863264,0,0,-0.671082,98.2, 0.8, 1.2,0,0,1024,1024,1024,1024,97.6,-89.9,98,3.993,4.018,3.99,4.043,4.032,4.004,23.128,89.6,14,Waypoint,
38.5374397,-120.3487283,5424.48975298,41.338584,0,0.72389766096,9900,2018-07-07 22:03:07,11,0,24.007,5424.48975298,41.338584,0.223694,0.74112863264,0,0,-0.671082,98.3, 0.8, 1.1,0,0,1024,1024,1024,1024,97.6,-89.9,98,3.993,4.018,3.99,4.043,4.032,4.004,23.128,89.6,14,Waypoint,
38.5374396,-120.3487283,5425.80208898,42.65092,0,0.69480973352,10000,2018-07-07 22:03:08,11,0,24.183,5425.80208898,42.65092,0.223694,0.74112863264,0,0,-0.671082,98.3, 0.8, 1,0,0,1024,1024,1024,1024,97.6,-89.9,98,4.022,4.026,4.02,4.06,4.059,4.018,18.933,89.6,14,Waypoint,
38.5374397,-120.3487283,5426.78634098,43.635172,0,0.72389766096,10100,2018-07-07 22:03:08,11,0,24.183,5426.78634098,43.635172,0.223694,0.74112863264,0,0,-0.671082,98.3, 0.8, 0.7,0,0,1024,1024,1024,1024,97.6,-89.9,98,4.022,4.026,4.02,4.06,4.059,4.018,18.933,89.6,14,Waypoint,
38.5374397,-120.3487283,5427.77059298,44.619424,0,0.72389766096,10200,2018-07-07 22:03:08,11,0,24.183,5427.77059298,44.619424,0.223694,0.74112863264,0,0,-0.671082,98.3, 0.8, 0.8,0,0,1024,1024,1024,1024,97.6,-89.9,98,4.022,4.026,4.02,4.06,4.059,4.018,18.933,89.6,14,Waypoint,
38.5374397,-120.3487283,5428.75484498,45.603676,0,0.72389766096,10300,2018-07-07 22:03:08,11,0,24.183,5428.75484498,45.603676,0.223694,0.74112863264,0,0,-0.671082,98.2, 0.9, 1,0,0,1024,1024,1024,1024,97.6,-89.9,98,4.022,4.026,4.02,4.06,4.059,4.018,18.933,89.6,14,Waypoint,
38.5374396,-120.3487284,5429.73909698,46.587928,0,0.67759844688,10400,2018-07-07 22:03:08,11,0,24.183,5429.73909698,46.587928,0.223694,0.74112863264,0,0,-0.671082,98.1, 0.9, 1.1,0,0,1024,1024,1024,1024,97.6,-89.9,98,4.022,4.026,4.02,4.06,4.059,4.018,18.933,89.6,14,Waypoint,
38.5374397,-120.3487284,5430.72334898,47.57218,0,0.70739503576,10500,2018-07-07 22:03:08,11,0,24.183,5430.72334898,47.57218,0.223694,0.74112863264,0,0,-0.671082,98.1, 0.7, 1.1,0,0,1024,1024,1024,1024,97.6,-89.9,98,4.022,4.026,4.02,4.06,4.059,4.018,18.933,89.6,14,Waypoint,
38.5374397,-120.3487284,5431.70760098,48.556432,0,0.70739503576,10600,2018-07-07 22:03:08,11,0,24.183,5431.70760098,48.556432,0.223694,0.74112863264,0,0,-0.671082,98.1, 0.7, 1.1,0,0,1024,1024,1024,1024,97.6,-89.9,98,4.022,4.026,4.02,4.06,4.059,4.018,18.933,89.6,14,Waypoint,
38.5374396,-120.3487285,5432.69185298,49.540684,0,0.66117456184,10700,2018-07-07 22:03:08,11,0,24.183,5432.69185298,49.540684,0.223694,0.74112863264,0,0,-0.671082,98.1, 0.7, 1.2,0,0,1024,1024,1024,1024,97.6,-89.9,98,4.022,4.026,4.02,4.06,4.059,4.018,18.933,89.6,14,Waypoint,
38.5374396,-120.3487286,5433.67610498,50.524936,0,0.64559385268,10800,2018-07-07 22:03:08,11,0,24.183,5433.67610498,50.524936,0.223694,0.74112863264,0,0,-0.671082,98, 0.7, 1.2,0,0,1024,1024,1024,1024,97.6,-89.9,98,4.022,4.026,4.02,4.06,4.059,4.018,18.933,89.6,14,Waypoint,
38.5374396,-120.3487285,5434.66035698,51.509188,0,0.66117456184,10900,2018-07-07 22:03:08,11,0,24.183,5434.66035698,51.509188,0.223694,0.74112863264,0,0,-0.671082,98, 0.7, 1.2,0,0,1024,1024,1024,1024,97.6,-89.9,98,4.022,4.026,4.02,4.06,4.059,4.018,18.933,89.6,14,Waypoint,
38.5374397,-120.3487285,5436.62886098,53.477692,0,0.69167653132,11100,2018-07-07 22:03:09,11,0,24.183,5436.62886098,53.477692,0.223694,0.74112863264,0,0,-0.671082,98, 1.1, 1.6,0,0,1024,1024,1024,1024,97.6,-89.9,98,4.022,4.026,4.02,4.06,4.059,4.018,18.933,89.6,14,Waypoint,
38.5374396,-120.3487285,5437.61311298,54.461944,0,0.66117456184,11200,2018-07-07 22:03:09,11,0,24.183,5437.61311298,54.461944,0.223694,0.74112863264,0,0,-0.671082,98.1, 1.1, 1.8,0,0,1024,1024,1024,1024,97.6,-89.9,98,4.022,4.026,4.02,4.06,4.059,4.018,18.933,89.6,14,Waypoint,
38.5374396,-120.3487286,5438.59736498,55.446196,0,0.64559385268,11300,2018-07-07 22:03:09,11,0,24.183,5438.59736498,55.446196,0.223694,0.74112863264,0,0,-0.671082,98.1, 1.1, 1.8,0,0,1024,1024,1024,1024,97.6,-89.9,98,4.022,4.026,4.02,4.06,4.059,4.018,18.933,89.6,14,Waypoint,
38.5374396,-120.3487286,5439.58161698,56.430448,0,0.64559385268,11400,2018-07-07 22:03:09,11,0,24.183,5439.58161698,56.430448,0.223694,0.74112863264,0,0,-0.671082,98.1, 1.2, 1.7,0,0,1024,1024,1024,1024,97.6,-89.9,98,4.022,4.026,4.02,4.06,4.059,4.018,18.933,89.6,14,Waypoint,
38.5374395,-120.3487285,5441.55012098,58.398952,0,0.63130579448,11510,2018-07-07 22:03:09,11,0,24.183,5441.55012098,58.398952,0.223694,0.74112863264,0,0,-0.671082,98.3, 1.3, 1.5,0,0,1024,1024,1024,1024,97.6,-89.9,98,4.022,4.026,4.02,4.06,4.059,4.018,18.933,89.6,14,Waypoint,
38.5374395,-120.3487286,5442.53437298,59.383204,0,0.61496721128,11600,2018-07-07 22:03:09,11,0,24.183,5442.53437298,59.383204,0.223694,0.74112863264,0,0,-0.671082,98.3, 1.4, 1.3,0,0,1024,1024,1024,1024,97.6,-89.9,98,4.022,4.026,4.02,4.06,4.059,4.018,18.933,89.6,14,Waypoint,
38.5374394,-120.3487286,5443.51862498,60.367456,0,0.58501642292,11800,2018-07-07 22:03:09,11,0,24.183,5443.51862498,60.367456,0.223694,0.74112863264,0,0,-0.671082,98.4, 1.3, 1.2,0,0,1024,1024,1024,1024,97.6,-89.9,98,4.022,4.026,4.02,4.06,4.059,4.018,18.933,89.6,14,Waypoint,
38.5374393,-120.3487287,5444.50287698,61.351708,0,0.53873361304,11900,2018-07-07 22:03:09,11,0,24.183,5444.50287698,61.351708,0.223694,0.74112863264,0,0,-0.671082,98.3, 1.1, 1.2,0,0,1024,1024,1024,1024,97.6,-89.9,98,4.022,4.026,4.02,4.06,4.059,4.018,18.933,89.6,14,Waypoint,
38.5374391,-120.3487288,5446.47138098,63.320212,0,0.4632053954,12100,2018-07-07 22:03:10,11,0,24.183,5446.47138098,63.320212,0.223694,0.74112863264,0,0,-0.671082,98.2, 0.9, 0.7,0,0,1024,1024,1024,1024,97.6,-90,98,4.022,4.026,4.02,4.06,4.059,4.018,18.933,89.6,14,Waypoint,
38.537439,-120.3487289,5447.45563298,64.304464,0,0.41688649628,12200,2018-07-07 22:03:10,11,0,24.183,5447.45563298,64.304464,0.223694,0.74112863264,0,0,-0.671082,98.1, 0.8, 0.6,0,0,1024,1024,1024,1024,97.6,-89.9,98,4.022,4.026,4.02,4.06,4.059,4.018,18.933,89.6,14,Waypoint,
38.537439,-120.3487289,5448.76796898,65.6168,0,0.41688649628,12300,2018-07-07 22:03:10,11,0,24.183,5448.76796898,65.6168,0.223694,0.74112863264,0,0,-0.671082,98.1, 0.8, 0.5,0,0,1024,1024,1024,1024,97.6,-90,98,4.022,4.026,4.02,4.06,4.059,4.018,18.933,89.6,14,Waypoint,
38.5374389,-120.348729,5449.75222098,66.601052,0,0.37056431632,12400,2018-07-07 22:03:10,11,0,24.183,5449.75222098,66.601052,0.223694,0.74112863264,0,0,-0.671082,98.1, 0.7, 0.5,0,0,1024,1024,1024,1024,97.6,-90,98,4.022,4.026,4.02,4.06,4.059,4.018,18.933,89.6,14,Waypoint,
38.5374388,-120.348729,5450.40838898,67.25722,0,0.34256562776,12500,2018-07-07 22:03:10,11,0,24.183,5450.40838898,67.25722,0.223694,0.74112863264,0,0,-0.671082,98.1, 0.6, 0.5,0,0,1024,1024,1024,1024,97.6,-90,98,4.022,4.026,4.02,4.06,4.059,4.018,18.933,89.6,14,Waypoint,
38.5374387,-120.348729,5451.72072498,68.569556,0,0.31630086314,12600,2018-07-07 22:03:10,11,0,24.183,5451.72072498,68.569556,0.223694,0.74112863264,0,0,-0.671082,98.1, 0.8, 0.4,0,0,1024,1024,1024,1024,97.6,-89.9,98,4.022,4.026,4.02,4.06,4.059,4.018,18.933,89.6,14,Waypoint,
38.5374386,-120.348729,5452.70497698,69.553808,0,0.292238854496,12700,2018-07-07 22:03:10,11,0,24.183,5452.70497698,69.553808,0.223694,0.74112863264,0,0,-0.671082,98.1, 0.9, 0.4,0,0,1024,1024,1024,1024,97.6,-89.9,98,4.022,4.026,4.02,4.06,4.059,4.018,18.933,89.6,14,Waypoint,
38.5374386,-120.348729,5453.68922898,70.53806,0,0.292238854496,12800,2018-07-07 22:03:10,11,0,24.183,5453.68922898,70.53806,0.223694,0.74112863264,0,0,-0.671082,98.1, 1, 0.4,0,0,1024,1024,1024,1024,97.6,-89.9,98,4.022,4.026,4.02,4.06,4.059,4.018,18.933,89.6,14,Waypoint,
38.5374386,-120.3487291,5454.67348098,71.522312,0,0.270530520468,12900,2018-07-07 22:03:10,11,0,24.183,5454.67348098,71.522312,0.223694,0.74112863264,0,0,-0.671082,98.1, 0.9, 0.5,0,0,1024,1024,1024,1024,97.6,-89.9,98,4.022,4.026,4.02,4.06,4.059,4.018,18.933,89.6,14,Waypoint,
38.5374385,-120.3487291,5455.65773298,72.506564,0,0.247399286132,13000,2018-07-07 22:03:11,11,0,24.138,5455.65773298,72.506564,0.223694,0.74112863264,0,0,-0.671082,98.1, 1, 0.7,0,0,1024,1024,1024,1024,97.6,-89.9,97,4.007,4.014,4.017,4.048,4.058,4.008,18.632,91.4,14,Waypoint,
38.5374385,-120.3487291,5456.64198498,73.490816,0,0.247399286132,13100,2018-07-07 22:03:11,11,0,24.138,5456.64198498,73.490816,0.223694,0.74112863264,0,0,-0.671082,98.1, 1, 0.8,0,0,1024,1024,1024,1024,97.6,-89.9,97,4.007,4.014,4.017,4.048,4.058,4.008,18.632,91.4,14,Waypoint,
38.5374384,-120.3487291,5457.62623698,74.475068,0,0.22779036162,13200,2018-07-07 22:03:11,11,0,24.138,5457.62623698,74.475068,0.223694,0.74112863264,0,0,-0.671082,98.1, 1, 0.8,0,0,1024,1024,1024,1024,97.6,-89.9,97,4.007,4.014,4.017,4.048,4.058,4.008,18.632,91.4,14,Waypoint,
38.5374384,-120.3487291,5458.61048898,75.45932,0,0.22779036162,13300,2018-07-07 22:03:11,11,0,24.138,5458.61048898,75.45932,0.223694,0.74112863264,0,0,-0.671082,98.1, 1, 0.8,0,0,1024,1024,1024,1024,97.6,-89.9,97,4.007,4.014,4.017,4.048,4.058,4.008,18.632,91.4,14,Waypoint,
38.5374384,-120.3487291,5459.59474098,76.443572,0,0.22779036162,13400,2018-07-07 22:03:11,11,0,24.138,5459.59474098,76.443572,0.223694,0.74112863264,0,0,-0.671082,98.1, 1.1, 0.9,0,0,1024,1024,1024,1024,97.6,-89.9,97,4.007,4.014,4.017,4.048,4.058,4.008,18.632,91.4,14,Waypoint,
38.5374384,-120.3487291,5460.57899298,77.427824,0,0.22779036162,13500,2018-07-07 22:03:11,11,0,24.138,5460.57899298,77.427824,0.223694,0.74112863264,0,0,-0.671082,98.1, 1.1, 0.9,0,0,1024,1024,1024,1024,97.6,-89.9,97,4.007,4.014,4.017,4.048,4.058,4.008,18.632,91.4,14,Waypoint,
38.5374383,-120.3487291,5461.56324498,78.412076,0,0.212679796832,13600,2018-07-07 22:03:11,11,0,24.138,5461.56324498,78.412076,0.223694,0.74112863264,0,0,-0.671082,98, 1.1, 0.9,0,0,1024,1024,1024,1024,97.6,-89.9,97,4.007,4.014,4.017,4.048,4.058,4.008,18.632,91.4,14,Waypoint,
38.5374382,-120.3487292,5462.54749698,79.396328,0,0.175075136836,13700,2018-07-07 22:03:11,11,0,24.138,5462.54749698,79.396328,0.223694,0.74112863264,0,0,-0.671082,97.9, 1.1, 0.8,0,0,1024,1024,1024,1024,97.6,-89.9,97,4.007,4.014,4.017,4.048,4.058,4.008,18.632,91.4,14,Waypoint,
38.5374381,-120.3487292,5463.53174898,80.38058,0,0.171231304692,13800,2018-07-07 22:03:11,11,0,24.138,5463.53174898,80.38058,0.223694,0.74112863264,0,0,-0.671082,97.8, 1.1, 0.7,0,0,1024,1024,1024,1024,97.6,-89.9,97,4.007,4.014,4.017,4.048,4.058,4.008,18.632,91.4,14,Waypoint,
38.5374381,-120.3487291,5464.51600098,81.364832,0,0.199770019516,13900,2018-07-07 22:03:11,11,0,24.138,5464.51600098,81.364832,0.223694,0.74112863264,0,0,-0.671082,97.8, 1.3, 0.6,0,0,1024,1024,1024,1024,97.6,-89.9,97,4.007,4.014,4.017,4.048,4.058,4.008,18.632,91.4,14,Waypoint,
38.5374381,-120.3487291,5465.50025298,82.349084,0,0.199770019516,14000,2018-07-07 22:03:12,11,0,24.115,5465.50025298,82.349084,0.223694,0.74112863264,0,0,-0.671082,97.8, 1.5, 0.6,0,0,1024,1024,1024,1024,97.6,-89.9,97,3.997,4.01,4.007,4.046,4.044,4.005,18.787,91.4,14,Waypoint,
38.537438,-120.3487291,5466.48450498,83.333336,0,0.203074481564,14100,2018-07-07 22:03:12,11,0,24.115,5466.48450498,83.333336,0.223694,0.74112863264,0,0,-0.671082,97.9, 1.6, 0.4,0,0,1024,1024,1024,1024,97.6,-89.9,97,3.997,4.01,4.007,4.046,4.044,4.005,18.787,91.4,14,Waypoint,
38.5374379,-120.348729,5467.46875698,84.317588,0,0.239686031292,14200,2018-07-07 22:03:12,11,0,24.115,5467.46875698,84.317588,0.223694,0.74112863264,0,0,-0.671082,98, 1.8, 0.3,0,0,1024,1024,1024,1024,97.6,-89.9,97,3.997,4.01,4.007,4.046,4.044,4.005,18.787,91.4,14,Waypoint,
38.5374379,-120.348729,5469.43726098,86.286092,0,0.239686031292,14300,2018-07-07 22:03:12,11,0,24.115,5469.43726098,86.286092,0.223694,0.74112863264,0,0,-0.671082,98.4, 1.8, 0.3,0,0,1024,1024,1024,1024,97.6,-89.9,97,3.997,4.01,4.007,4.046,4.044,4.005,18.787,91.4,14,Waypoint,
38.5374379,-120.348729,5469.43726098,86.286092,0,0.239686031292,14400,2018-07-07 22:03:12,11,0,24.115,5469.43726098,86.286092,0.223694,0.74112863264,0,0,-0.671082,98.4, 1.8, 0.3,0,0,1024,1024,1024,1024,97.6,-89.9,97,3.997,4.01,4.007,4.046,4.044,4.005,18.787,91.4,14,Waypoint,
38.5374379,-120.3487291,5472.39001698,89.238848,0,0.212679796832,14600,2018-07-07 22:03:12,11,0,24.115,5472.39001698,89.238848,0.223694,0.74112863264,0,0,-0.671082,98.5, 1.3, 0.7,0,0,1024,1024,1024,1024,97.6,-90,97,3.997,4.01,4.007,4.046,4.044,4.005,18.787,91.4,14,Waypoint,
38.5374378,-120.3487292,5473.37426898,90.2231,0,0.203225400204,14800,2018-07-07 22:03:12,11,0,24.115,5473.37426898,90.2231,0.223694,0.74112863264,0,0,-0.671082,98.4, 1.4, 0.7,0,0,1024,1024,1024,1024,97.6,-89.9,97,3.997,4.01,4.007,4.046,4.044,4.005,18.787,91.4,14,Waypoint,
38.5374379,-120.3487292,5474.35852098,91.207352,0,0.186131239552,14900,2018-07-07 22:03:12,11,0,24.115,5474.35852098,91.207352,0.223694,0.74112863264,0,0,-0.671082,98.2, 1.6, 1,0,0,1024,1024,1024,1024,97.6,-89.9,97,3.997,4.01,4.007,4.046,4.044,4.005,18.787,91.4,14,Waypoint,
38.5374379,-120.3487291,5475.01468898,91.86352,0,0.212679796832,15000,2018-07-07 22:03:13,11,0,24.088,5475.01468898,91.86352,0.223694,0.74112863264,0,0,-0.671082,98.1, 1.6, 1.1,0,0,1024,1024,1024,1024,97.6,-89.9,97,3.987,4.012,4.002,4.042,4.043,3.998,18.645,91.4,14,Waypoint,
38.5374379,-120.3487291,5475.99894098,92.847772,0,0.212679796832,15100,2018-07-07 22:03:13,11,0,24.088,5475.99894098,92.847772,0.223694,0.74112863264,0,0,-0.671082,98.1, 1.4, 1,0,0,1024,1024,1024,1024,97.6,-89.9,97,3.987,4.012,4.002,4.042,4.043,3.998,18.645,91.4,14,Waypoint,
38.5374379,-120.3487291,5476.98319298,93.832024,0,0.212679796832,15200,2018-07-07 22:03:13,11,0,24.088,5476.98319298,93.832024,0.223694,0.74112863264,0,0,-0.671082,98.1, 1.3, 1,0,0,1024,1024,1024,1024,97.6,-89.9,97,3.987,4.012,4.002,4.042,4.043,3.998,18.645,91.4,14,Waypoint,
38.5374379,-120.3487291,5477.96744498,94.816276,0,0.212679796832,15300,2018-07-07 22:03:13,11,0,24.088,5477.96744498,94.816276,0.223694,0.74112863264,0,0,-0.671082,98.1, 1.4, 1.1,0,0,1024,1024,1024,1024,97.6,-89.9,97,3.987,4.012,4.002,4.042,4.043,3.998,18.645,91.4,14,Waypoint,
38.5374379,-120.3487291,5478.95169698,95.800528,0,0.212679796832,15400,2018-07-07 22:03:13,11,0,24.088,5478.95169698,95.800528,0.223694,0.74112863264,0,0,-0.671082,98.2, 1.7, 1.2,0,0,1024,1024,1024,1024,97.6,-89.9,97,3.987,4.012,4.002,4.042,4.043,3.998,18.645,91.4,14,Waypoint,
38.537438,-120.348729,5479.93594898,96.78478,0,0.231205387976,15500,2018-07-07 22:03:13,11,0,24.088,5479.93594898,96.78478,0.223694,0.74112863264,0,0,-0.671082,98.2, 1.9, 1.3,0,0,1024,1024,1024,1024,97.6,-89.9,97,3.987,4.012,4.002,4.042,4.043,3.998,18.645,91.4,14,Waypoint,
38.537438,-120.348729,5480.92020098,97.769032,0,0.231205387976,15600,2018-07-07 22:03:13,11,0,24.088,5480.92020098,97.769032,0.223694,0.74112863264,0,0,-0.671082,98.2, 1.9, 1.3,0,0,1024,1024,1024,1024,97.6,-89.9,97,3.987,4.012,4.002,4.042,4.043,3.998,18.645,91.4,14,Waypoint,
38.5374381,-120.348729,5481.90445298,98.753284,0,0.228308406256,15700,2018-07-07 22:03:13,11,0,24.088,5481.90445298,98.753284,0.223694,0.74112863264,0,0,-0.671082,98.2, 1.9, 1.3,0,0,1024,1024,1024,1024,97.6,-89.9,97,3.987,4.012,4.002,4.042,4.043,3.998,18.645,91.4,14,Waypoint,
38.5374381,-120.348729,5482.88870498,99.737536,0,0.228308406256,15800,2018-07-07 22:03:13,11,0,24.088,5482.88870498,99.737536,0.223694,0.74112863264,0,0,-0.671082,98.3, 2, 1.4,0,0,1024,1024,1024,1024,97.6,-89.9,97,3.987,4.012,4.002,4.042,4.043,3.998,18.645,91.4,14,Waypoint,
38.5374381,-120.3487289,5483.87295698,100.721788,0,0.25684712108,15900,2018-07-07 22:03:13,11,0,24.088,5483.87295698,100.721788,0.223694,0.74112863264,0,0,-0.671082,98.3, 2, 1.5,0,0,1024,1024,1024,1024,97.6,-89.9,97,3.987,4.012,4.002,4.042,4.043,3.998,18.645,91.4,14,Waypoint,
38.5374382,-120.3487289,5484.85720898,101.70604,0,0.259425533236,16000,2018-07-07 22:03:14,11,0,24.054,5484.85720898,101.70604,0.223694,0.74112863264,0,0,-0.671082,98.3, 2.1, 1.6,0,0,1024,1024,1024,1024,97.6,-89.9,97,3.987,4.012,4.002,4.042,4.043,3.998,18.668,91.4,14,Waypoint,
38.5374382,-120.3487288,5485.84146098,102.690292,0,0.28770834254,16100,2018-07-07 22:03:14,11,0,24.054,5485.84146098,102.690292,0.223694,0.74112863264,0,0,-0.671082,98.3, 2.3, 1.5,0,0,1024,1024,1024,1024,97.6,-89.9,97,3.987,4.012,4.002,4.042,4.043,3.998,18.668,91.4,14,Waypoint,
38.5374382,-120.3487288,5486.82571298,103.674544,0,0.28770834254,16200,2018-07-07 22:03:14,11,0,24.054,5486.82571298,103.674544,0.223694,0.74112863264,0,0,-0.671082,98.3, 2.4, 1.5,0,0,1024,1024,1024,1024,97.6,-89.9,97,3.987,4.012,4.002,4.042,4.043,3.998,18.668,91.4,14,Waypoint,
38.5374381,-120.3487288,5487.80996498,104.658796,0,0.28538550782,16300,2018-07-07 22:03:14,11,0,24.054,5487.80996498,104.658796,0.223694,0.74112863264,0,0,-0.671082,98.3, 2.5, 1.4,0,0,1024,1024,1024,1024,97.6,-89.9,97,3.987,4.012,4.002,4.042,4.043,3.998,18.668,91.4,14,Waypoint,
38.5374381,-120.3487287,5488.79421698,105.643048,0,0.313924222644,16400,2018-07-07 22:03:14,11,0,24.054,5488.79421698,105.643048,0.223694,0.74112863264,0,0,-0.671082,98.2, 2.5, 1.4,0,0,1024,1024,1024,1024,97.6,-89.9,97,3.987,4.012,4.002,4.042,4.043,3.998,18.668,91.4,14,Waypoint,
38.5374381,-120.3487287,5489.77846898,106.6273,0,0.313924222644,16500,2018-07-07 22:03:14,11,0,24.054,5489.77846898,106.6273,0.223694,0.74112863264,0,0,-0.671082,98.2, 2.4, 1.2,0,0,1024,1024,1024,1024,97.6,-89.9,97,3.987,4.012,4.002,4.042,4.043,3.998,18.668,91.4,14,Waypoint,
38.5374381,-120.3487287,5490.76272098,107.611552,0,0.313924222644,16610,2018-07-07 22:03:14,11,0,24.054,5490.76272098,107.611552,0.223694,0.74112863264,0,0,-0.671082,98.1, 2.3, 1.1,0,0,1024,1024,1024,1024,97.6,-89.9,97,3.987,4.012,4.002,4.042,4.043,3.998,18.668,91.4,14,Waypoint,
38.5374382,-120.3487287,5492.73122498,109.580056,0,0.316037411688,16700,2018-07-07 22:03:14,11,0,24.054,5492.73122498,109.580056,0.223694,0.74112863264,0,0,-0.671082,98.1, 2.2, 1.3,0,0,1024,1024,1024,1024,97.6,-89.9,97,3.987,4.012,4.002,4.042,4.043,3.998,18.668,91.4,14,Waypoint,
38.5374382,-120.3487287,5493.71547698,110.564308,0,0.316037411688,16900,2018-07-07 22:03:14,11,0,24.054,5493.71547698,110.564308,0.223694,0.74112863264,0,0,-0.671082,98.2, 2.1, 1.5,0,0,1024,1024,1024,1024,97.6,-89.9,97,3.987,4.012,4.002,4.042,4.043,3.998,18.668,91.4,14,Waypoint,
38.5374382,-120.3487287,5494.69972898,111.54856,0,0.316037411688,17000,2018-07-07 22:03:15,11,0,24.054,5494.69972898,111.54856,0.223694,0.74112863264,0,0,-0.671082,98.3, 2, 1.7,0,0,1024,1024,1024,1024,97.6,-89.9,97,3.989,4.007,3.993,4.031,4.04,3.985,18.668,91.4,14,Waypoint,
38.5374383,-120.3487287,5495.68398098,112.532812,0,0.3222933174,17100,2018-07-07 22:03:15,11,0,24.054,5495.68398098,112.532812,0.223694,0.74112863264,0,0,-0.671082,98.3, 2.1, 2,0,0,1024,1024,1024,1024,97.6,-89.9,97,3.989,4.007,3.993,4.031,4.04,3.985,18.668,91.4,14,Waypoint,
38.5374383,-120.3487287,5496.66823298,113.517064,0,0.3222933174,17200,2018-07-07 22:03:15,11,0,24.054,5496.66823298,113.517064,0.223694,0.74112863264,0,0,-0.671082,98.3, 2.2, 2.2,0,0,1024,1024,1024,1024,97.6,-89.9,97,3.989,4.007,3.993,4.031,4.04,3.985,18.668,91.4,14,Waypoint,
38.5374384,-120.3487287,5497.65248498,114.501316,0,0.33245735972,17300,2018-07-07 22:03:15,11,0,24.054,5497.65248498,114.501316,0.223694,0.74112863264,0,0,-0.671082,98.2, 2.2, 2.2,0,0,1024,1024,1024,1024,97.6,-89.9,97,3.989,4.007,3.993,4.031,4.04,3.985,18.668,91.4,14,Waypoint,
38.5374384,-120.3487288,5498.63673698,115.485568,0,0.305655521592,17400,2018-07-07 22:03:15,11,0,24.054,5498.63673698,115.485568,0.223694,0.74112863264,0,0,-0.671082,98.1, 2, 2.1,0,0,1024,1024,1024,1024,97.6,-89.9,97,3.989,4.007,3.993,4.031,4.04,3.985,18.668,91.4,14,Waypoint,
38.5374384,-120.3487288,5499.62098898,116.46982,0,0.305655521592,17500,2018-07-07 22:03:15,11,0,24.054,5499.62098898,116.46982,0.223694,0.74112863264,0,0,-0.671082,98.1, 1.9, 2,0,0,1024,1024,1024,1024,97.6,-89.9,97,3.989,4.007,3.993,4.031,4.04,3.985,18.668,91.4,14,Waypoint,
38.5374384,-120.3487287,5500.60524098,117.454072,0,0.33245735972,17600,2018-07-07 22:03:15,11,0,24.054,5500.60524098,117.454072,0.223694,0.74112863264,0,0,-0.671082,98.1, 1.8, 1.9,0,0,1024,1024,1024,1024,97.6,-89.9,97,3.989,4.007,3.993,4.031,4.04,3.985,18.668,91.4,14,Waypoint,
38.5374384,-120.3487288,5501.58949298,118.438324,0,0.305655521592,17700,2018-07-07 22:03:15,11,0,24.054,5501.58949298,118.438324,0.223694,0.74112863264,0,0,-0.671082,98.1, 1.8, 1.7,0,0,1024,1024,1024,1024,97.6,-89.9,97,3.989,4.007,3.993,4.031,4.04,3.985,18.668,91.4,14,Waypoint,
38.5374384,-120.3487288,5502.57374498,119.422576,0,0.305655521592,17800,2018-07-07 22:03:15,11,0,24.054,5502.57374498,119.422576,0.223694,0.74112863264,0,0,-0.671082,98.3, 1.9, 1.6,0,0,1024,1024,1024,1024,97.6,-89.9,97,3.989,4.007,3.993,4.031,4.04,3.985,18.668,91.4,14,Waypoint,
38.5374384,-120.3487288,5503.55799698,120.406828,0,0.305655521592,17900,2018-07-07 22:03:15,11,0,24.054,5503.55799698,120.406828,0.223694,0.74112863264,0,0,-0.671082,98.3, 2, 1.6,0,0,1024,1024,1024,1024,97.6,-89.9,97,3.989,4.007,3.993,4.031,4.04,3.985,18.668,91.4,14,Waypoint,
38.5374384,-120.3487287,5504.54224898,121.39108,0,0.33245735972,18000,2018-07-07 22:03:16,11,0,23.974,5504.54224898,121.39108,0.223694,0.74112863264,0,0,-0.671082,98.3, 2.2, 1.7,0,0,1024,1024,1024,1024,97.6,-89.9,97,3.974,3.988,3.985,4.023,4.018,3.983,19.669,91.4,14,Waypoint,
38.5374383,-120.3487287,5505.52650098,122.375332,0,0.3222933174,18100,2018-07-07 22:03:16,11,0,23.974,5505.52650098,122.375332,0.223694,0.74112863264,0,0,-0.671082,98.3, 2.7, 1.6,0,0,1024,1024,1024,1024,97.6,-89.9,97,3.974,3.988,3.985,4.023,4.018,3.983,19.669,91.4,14,Waypoint,
38.5374383,-120.3487286,5507.49500498,124.343836,0,0.35015092984,18300,2018-07-07 22:03:16,11,0,23.974,5507.49500498,124.343836,0.223694,0.74112863264,0,0,-0.671082,98.4, 3.2, 1.5,0,0,1024,1024,1024,1024,97.6,-89.9,97,3.974,3.988,3.985,4.023,4.018,3.983,19.669,91.4,14,Waypoint,
38.5374383,-120.3487285,5508.47925698,125.328088,0,0.37811024832,18400,2018-07-07 22:03:16,11,0,23.974,5508.47925698,125.328088,0.223694,0.74112863264,0,0,-0.671082,98.4, 3.3, 1.6,0,0,1024,1024,1024,1024,97.6,-89.9,97,3.974,3.988,3.985,4.023,4.018,3.983,19.669,91.4,14,Waypoint,
38.5374383,-120.3487285,5509.46350898,126.31234,0,0.37811024832,18500,2018-07-07 22:03:16,11,0,23.974,5509.46350898,126.31234,0.223694,0.74112863264,0,0,-0.671082,98.4, 3.1, 1.6,0,0,1024,1024,1024,1024,97.6,-89.9,97,3.974,3.988,3.985,4.023,4.018,3.983,19.669,91.4,14,Waypoint,
38.5374383,-120.3487285,5510.44776098,127.296592,0,0.37811024832,18600,2018-07-07 22:03:16,11,0,23.974,5510.44776098,127.296592,0.223694,0.74112863264,0,0,-0.671082,98.3, 2.9, 1.8,0,0,1024,1024,1024,1024,97.6,-89.9,97,3.974,3.988,3.985,4.023,4.018,3.983,19.669,91.4,14,Waypoint,
38.5374383,-120.3487285,5511.43201298,128.280844,0,0.37811024832,18700,2018-07-07 22:03:16,11,0,23.974,5511.43201298,128.280844,0.223694,0.74112863264,0,0,-0.671082,98.3, 2.7, 2.2,0,0,1024,1024,1024,1024,97.6,-89.9,97,3.974,3.988,3.985,4.023,4.018,3.983,19.669,91.4,14,Waypoint,
38.5374384,-120.3487285,5512.41626498,129.265096,0,0.386811036,18800,2018-07-07 22:03:16,11,0,23.974,5512.41626498,129.265096,0.223694,0.74112863264,0,0,-0.671082,98.2, 2.7, 2.1,0,0,1024,1024,1024,1024,97.6,-89.9,97,3.974,3.988,3.985,4.023,4.018,3.983,19.669,91.4,14,Waypoint,
38.5374384,-120.3487286,5513.40051698,130.249348,0,0.35952757056,18900,2018-07-07 22:03:16,11,0,23.974,5513.40051698,130.249348,0.223694,0.74112863264,0,0,-0.671082,98.1, 2.5, 2,0,0,1024,1024,1024,1024,97.6,-89.9,97,3.974,3.988,3.985,4.023,4.018,3.983,19.669,91.4,14,Waypoint,
38.5374384,-120.3487286,5515.36902098,132.217852,0,0.35952757056,19100,2018-07-07 22:03:17,11,0,23.974,5515.36902098,132.217852,0.223694,0.74112863264,0,0,-0.671082,98.4, 2.1, 1.8,0,0,1024,1024,1024,1024,97.6,-89.9,97,3.974,3.988,3.985,4.023,4.018,3.983,19.669,91.4,14,Waypoint,
38.5374384,-120.3487286,5516.35327298,133.202104,0,0.35952757056,19200,2018-07-07 22:03:17,11,0,23.974,5516.35327298,133.202104,0.223694,0.74112863264,0,0,-0.671082,98.5, 2.2, 2,0,0,1024,1024,1024,1024,97.6,-89.9,97,3.974,3.988,3.985,4.023,4.018,3.983,19.669,91.4,14,Waypoint,
38.5374384,-120.3487286,5517.33752498,134.186356,0.223694,0.35952757056,19300,2018-07-07 22:03:17,11,0,23.974,5517.33752498,134.186356,0.223694,0.74112863264,0,0,-0.671082,98.6, 2.4, 2.3,0,0,1024,1024,1024,1024,97.6,-89.9,97,3.974,3.988,3.985,4.023,4.018,3.983,19.669,91.4,14,Waypoint,
38.5374385,-120.3487286,5518.32177698,135.170608,0.223694,0.37226379144,19400,2018-07-07 22:03:17,11,0,23.974,5518.32177698,135.170608,0.223694,0.74112863264,0,0,-0.671082,98.4, 2.5, 2.6,0,0,1024,1024,1024,1024,97.6,-89.9,97,3.974,3.988,3.985,4.023,4.018,3.983,19.669,91.4,14,Waypoint,
38.5374385,-120.3487286,5519.30602898,136.15486,0,0.37226379144,19500,2018-07-07 22:03:17,11,0,23.974,5519.30602898,136.15486,0.223694,0.74112863264,0,0,-0.671082,98.2, 2.5, 2.7,0,0,1024,1024,1024,1024,97.6,-89.9,97,3.974,3.988,3.985,4.023,4.018,3.983,19.669,91.4,14,Waypoint,
38.5374385,-120.3487286,5520.29028098,137.139112,0,0.37226379144,19600,2018-07-07 22:03:17,11,0,23.974,5520.29028098,137.139112,0.223694,0.74112863264,0,0,-0.671082,98, 2.5, 2.6,0,0,1024,1024,1024,1024,97.6,-89.9,97,3.974,3.988,3.985,4.023,4.018,3.983,19.669,91.4,14,Waypoint,
38.5374385,-120.3487286,5521.27453298,138.123364,0,0.37226379144,19700,2018-07-07 22:03:17,11,0,23.974,5521.27453298,138.123364,0.223694,0.74112863264,0,0,-0.671082,97.7, 2.5, 2.4,0,0,1024,1024,1024,1024,97.6,-89.9,97,3.974,3.988,3.985,4.023,4.018,3.983,19.669,91.4,14,Waypoint,
38.5374384,-120.3487285,5522.25878498,139.107616,0,0.386811036,19800,2018-07-07 22:03:17,11,0,23.974,5522.25878498,139.107616,0.223694,0.74112863264,0,0,-0.671082,97.6, 2.6, 2.1,0,0,1024,1024,1024,1024,97.6,-89.9,97,3.974,3.988,3.985,4.023,4.018,3.983,19.669,91.4,14,Waypoint,
38.5374384,-120.3487285,5523.24303698,140.091868,0,0.386811036,19900,2018-07-07 22:03:17,11,0,23.974,5523.24303698,140.091868,0.223694,0.74112863264,0,0,-0.671082,97.5, 2.6, 2,0,0,1024,1024,1024,1024,97.6,-89.9,97,3.974,3.988,3.985,4.023,4.018,3.983,19.669,91.4,14,Waypoint,
38.5374383,-120.3487285,5524.22728898,141.07612,0,0.37811024832,20000,2018-07-07 22:03:18,11,0,23.941,5524.22728898,141.07612,0.223694,0.74112863264,0,0,-0.671082,97.6, 2.7, 1.9,0,0,1024,1024,1024,1024,97.6,-89.9,97,3.968,3.979,3.98,4.012,4.013,3.969,19.361,91.4,14,Waypoint,
38.5374383,-120.3487285,5525.21154098,142.060372,0,0.37811024832,20100,2018-07-07 22:03:18,11,0,23.941,5525.21154098,142.060372,0.223694,0.74112863264,0,0,-0.671082,97.8, 2.6, 1.9,0,0,1024,1024,1024,1024,97.6,-89.9,97,3.968,3.979,3.98,4.012,4.013,3.969,19.361,91.4,14,Waypoint,
38.5374382,-120.3487286,5526.19579298,143.044624,0,0.34439961732,20200,2018-07-07 22:03:18,11,0,23.941,5526.19579298,143.044624,0.223694,0.74112863264,0,0,-0.671082,98, 2.5, 1.8,0,0,1024,1024,1024,1024,97.6,-89.9,97,3.968,3.979,3.98,4.012,4.013,3.969,19.361,91.4,14,Waypoint,
38.5374381,-120.3487285,5527.18004498,144.028876,0,0.37100066804,20300,2018-07-07 22:03:18,11,0,23.941,5527.18004498,144.028876,0.223694,0.74112863264,0,0,-0.671082,98.2, 2.5, 1.6,0,0,1024,1024,1024,1024,97.6,-89.9,97,3.968,3.979,3.98,4.012,4.013,3.969,19.361,91.4,14,Waypoint,
38.5374381,-120.3487285,5528.16429698,145.013128,0,0.37100066804,20400,2018-07-07 22:03:18,11,0,23.941,5528.16429698,145.013128,0.223694,0.74112863264,0,0,-0.671082,98.4, 2.3, 1.2,0,0,1024,1024,1024,1024,97.6,-90,97,3.968,3.979,3.98,4.012,4.013,3.969,19.361,91.4,14,Waypoint,
38.537438,-120.3487285,5529.14854898,145.99738,0,0.37279200668,20500,2018-07-07 22:03:18,11,0,23.941,5529.14854898,145.99738,0.223694,0.74112863264,0,0,-0.671082,98.6, 2.4, 1,0,0,1024,1024,1024,1024,97.6,-89.9,97,3.968,3.979,3.98,4.012,4.013,3.969,19.361,91.4,14,Waypoint,
38.5374379,-120.3487285,5530.13280098,146.981632,0,0.37811024832,20600,2018-07-07 22:03:18,11,0,23.941,5530.13280098,146.981632,0.223694,0.74112863264,0,0,-0.671082,98.8, 2.7, 1,0,0,1024,1024,1024,1024,97.6,-89.9,97,3.968,3.979,3.98,4.012,4.013,3.969,19.361,91.4,14,Waypoint,
38.5374379,-120.3487285,5531.11705298,147.965884,0,0.37811024832,20700,2018-07-07 22:03:18,11,0,23.941,5531.11705298,147.965884,0.223694,0.74112863264,0,0,-0.671082,98.9, 2.9, 1.2,0,0,1024,1024,1024,1024,97.6,-89.9,97,3.968,3.979,3.98,4.012,4.013,3.969,19.361,91.4,14,Waypoint,
38.5374378,-120.3487285,5532.10130498,148.950136,0,0.386811036,20800,2018-07-07 22:03:18,11,0,23.941,5532.10130498,148.950136,0.223694,0.74112863264,0,0,-0.671082,98.9, 3.1, 1.4,0,0,1024,1024,1024,1024,97.6,-89.9,97,3.968,3.979,3.98,4.012,4.013,3.969,19.361,91.4,14,Waypoint,
38.5374378,-120.3487285,5533.08555698,149.934388,0,0.386811036,20900,2018-07-07 22:03:18,11,0,23.941,5533.08555698,149.934388,0.223694,0.74112863264,0,0,-0.671082,98.9, 3.1, 1.6,0,0,1024,1024,1024,1024,97.6,-89.9,97,3.968,3.979,3.98,4.012,4.013,3.969,19.361,91.4,14,Waypoint,
38.5374378,-120.3487284,5535.38214498,152.230976,0,0.41426182428,21110,2018-07-07 22:03:19,11,0,23.941,5535.38214498,152.230976,0.223694,0.74112863264,0,0,-0.671082,98.5, 3.1, 2.1,0,0,1024,1024,1024,1024,97.6,-89.9,97,3.968,3.979,3.98,4.012,4.013,3.969,19.361,91.4,14,Waypoint,
38.5374378,-120.3487284,5537.35064898,154.19948,0,0.41426182428,21200,2018-07-07 22:03:19,11,0,23.941,5537.35064898,154.19948,0.223694,0.74112863264,0,0,-0.671082,98.1, 3.2, 2.2,0,0,1024,1024,1024,1024,97.6,-89.9,97,3.968,3.979,3.98,4.012,4.013,3.969,19.361,91.4,14,Waypoint,
38.5374378,-120.3487284,5538.33490098,155.183732,0,0.41426182428,21300,2018-07-07 22:03:19,11,0,23.941,5538.33490098,155.183732,0.223694,0.74112863264,0,0,-0.671082,98, 3.2, 1.9,0,0,1024,1024,1024,1024,97.6,-89.9,97,3.968,3.979,3.98,4.012,4.013,3.969,19.361,91.4,14,Waypoint,
38.5374378,-120.3487284,5539.31915298,156.167984,0,0.41426182428,21400,2018-07-07 22:03:19,11,0,23.941,5539.31915298,156.167984,0.223694,0.74112863264,0,0,-0.671082,97.9, 3.4, 1.8,0,0,1024,1024,1024,1024,97.6,-89.9,97,3.968,3.979,3.98,4.012,4.013,3.969,19.361,91.4,14,Waypoint,
38.5374378,-120.3487283,5539.97532098,156.824152,0,0.44185040784,21500,2018-07-07 22:03:19,11,0,23.941,5539.97532098,156.824152,0.223694,0.74112863264,0,0,-0.671082,97.8, 3.6, 1.8,0,0,1024,1024,1024,1024,97.6,-89.9,97,3.968,3.979,3.98,4.012,4.013,3.969,19.361,91.4,14,Waypoint,
38.5374378,-120.3487283,5541.28765698,158.136488,0,0.44185040784,21700,2018-07-07 22:03:19,11,0,23.941,5541.28765698,158.136488,0.223694,0.74112863264,0,0,-0.671082,97.7, 3.6, 2,0,0,1024,1024,1024,1024,97.6,-89.9,97,3.968,3.979,3.98,4.012,4.013,3.969,19.361,91.4,14,Waypoint,
38.5374377,-120.3487283,5541.94382498,158.792656,0,0.45227035568,21800,2018-07-07 22:03:19,11,0,23.941,5541.94382498,158.792656,0.223694,0.74112863264,0,0,-0.671082,97.7, 3.5, 2,0,0,1024,1024,1024,1024,97.6,-89.9,97,3.968,3.979,3.98,4.012,4.013,3.969,19.361,91.4,14,Waypoint,
38.5374377,-120.3487284,5542.92807698,159.776908,0,0.425360906,21900,2018-07-07 22:03:19,11,0,23.941,5542.92807698,159.776908,0.223694,0.74112863264,0,0,-0.671082,97.7, 3.2, 2,0,0,1024,1024,1024,1024,97.6,-89.9,97,3.968,3.979,3.98,4.012,4.013,3.969,19.361,91.4,14,Waypoint,
38.5374377,-120.3487285,5543.91232898,160.76116,0,0.39867455344,22000,2018-07-07 22:03:20,11,0,23.927,5543.91232898,160.76116,0.223694,0.74112863264,0,0,-0.671082,97.9, 2.9, 1.8,0,0,1024,1024,1024,1024,97.6,-89.9,96,3.966,3.977,3.979,4.017,4.025,3.974,19.296,91.4,14,Waypoint,
38.5374377,-120.3487285,5544.89658098,161.745412,0,0.39867455344,22100,2018-07-07 22:03:20,11,0,23.927,5544.89658098,161.745412,0.223694,0.74112863264,0,0,-0.671082,98, 2.8, 1.6,0,0,1024,1024,1024,1024,97.6,-89.9,96,3.966,3.977,3.979,4.017,4.025,3.974,19.296,91.4,14,Waypoint,
38.5374377,-120.3487285,5545.88083298,162.729664,0,0.39867455344,22200,2018-07-07 22:03:20,11,0,23.927,5545.88083298,162.729664,0.223694,0.74112863264,0,0,-0.671082,98.1, 2.7, 1.5,0,0,1024,1024,1024,1024,97.6,-90,96,3.966,3.977,3.979,4.017,4.025,3.974,19.296,91.4,14,Waypoint,
38.5374376,-120.3487286,5546.86508498,163.713916,0,0.38801838512,22300,2018-07-07 22:03:20,11,0,23.927,5546.86508498,163.713916,0.223694,0.74112863264,0,0,-0.671082,98.2, 2.6, 1.4,0,0,1024,1024,1024,1024,97.6,-89.9,96,3.966,3.977,3.979,4.017,4.025,3.974,19.296,91.4,14,Waypoint,
38.5374376,-120.3487286,5548.83358898,165.68242,0,0.38801838512,22500,2018-07-07 22:03:20,11,0,23.927,5548.83358898,165.68242,0.223694,0.74112863264,0,0,-0.671082,98.5, 2.7, 1.3,0,0,1024,1024,1024,1024,97.6,-89.9,96,3.966,3.977,3.979,4.017,4.025,3.974,19.296,91.4,14,Waypoint,
38.5374375,-120.3487286,5549.81784098,166.666672,0,0.40645014424,22600,2018-07-07 22:03:20,11,0,23.927,5549.81784098,166.666672,0.223694,0.74112863264,0,0,-0.671082,98.6, 2.9, 1.3,0,0,1024,1024,1024,1024,97.6,-89.9,96,3.966,3.977,3.979,4.017,4.025,3.974,19.296,91.4,14,Waypoint,
38.5374375,-120.3487286,5550.80209298,167.650924,0,0.40645014424,22700,2018-07-07 22:03:20,11,0,23.927,5550.80209298,167.650924,0.223694,0.74112863264,0,0,-0.671082,98.6, 3, 1.1,0,0,1024,1024,1024,1024,97.6,-89.9,96,3.966,3.977,3.979,4.017,4.025,3.974,19.296,91.4,14,Waypoint,
38.5374375,-120.3487286,5551.78634498,168.635176,0,0.40645014424,22800,2018-07-07 22:03:20,11,0,23.927,5551.78634498,168.635176,0.223694,0.74112863264,0,0,-0.671082,98.4, 3.2, 1.3,0,0,1024,1024,1024,1024,97.6,-89.9,96,3.966,3.977,3.979,4.017,4.025,3.974,19.296,91.4,14,Waypoint,
38.5374375,-120.3487286,5552.77059698,169.619428,0,0.40645014424,22900,2018-07-07 22:03:20,11,0,23.927,5552.77059698,169.619428,0.223694,0.74112863264,0,0,-0.671082,98.2, 3.3, 1.5,0,0,1024,1024,1024,1024,97.6,-89.9,96,3.966,3.977,3.979,4.017,4.025,3.974,19.296,91.4,14,Waypoint,
38.5374376,-120.3487285,5553.75484898,170.60368,0,0.41342521008,23000,2018-07-07 22:03:21,11,0,24.003,5553.75484898,170.60368,0.223694,0.74112863264,0,0,-0.671082,98.1, 3.3, 1.6,0,0,1024,1024,1024,1024,97.6,-89.9,96,3.982,3.991,3.991,4.026,4.02,3.987,17.818,91.4,14,Waypoint,
38.5374375,-120.3487286,5554.73910098,171.587932,0,0.40645014424,23100,2018-07-07 22:03:21,11,0,24.003,5554.73910098,171.587932,0.223694,0.74112863264,0,0,-0.671082,98, 3.3, 1.6,0,0,1024,1024,1024,1024,97.6,-89.9,96,3.982,3.991,3.991,4.026,4.02,3.987,17.818,91.4,14,Waypoint,
38.5374375,-120.3487286,5555.72335298,172.572184,0,0.40645014424,23200,2018-07-07 22:03:21,11,0,24.003,5555.72335298,172.572184,0.223694,0.74112863264,0,0,-0.671082,97.9, 3.1, 1.5,0,0,1024,1024,1024,1024,97.6,-89.9,96,3.982,3.991,3.991,4.026,4.02,3.987,17.818,91.4,14,Waypoint,
38.5374375,-120.3487286,5556.70760498,173.556436,0,0.40645014424,23300,2018-07-07 22:03:21,11,0,24.003,5556.70760498,173.556436,0.223694,0.74112863264,0,0,-0.671082,97.8, 3, 1.5,0,0,1024,1024,1024,1024,97.6,-89.9,96,3.982,3.991,3.991,4.026,4.02,3.987,17.818,91.4,14,Waypoint,
38.5374375,-120.3487287,5557.69185698,174.540688,0,0.38271326684,23400,2018-07-07 22:03:21,11,0,24.003,5557.69185698,174.540688,0.223694,0.74112863264,0,0,-0.671082,97.9, 2.9, 1.2,0,0,1024,1024,1024,1024,97.6,-89.9,96,3.982,3.991,3.991,4.026,4.02,3.987,17.818,91.4,14,Waypoint,
38.5374375,-120.3487287,5559.66036098,176.509192,0,0.38271326684,23500,2018-07-07 22:03:21,11,0,24.003,5559.66036098,176.509192,0.223694,0.74112863264,0,0,-0.671082,98, 2.9, 0.9,0,0,1024,1024,1024,1024,97.6,-89.9,96,3.982,3.991,3.991,4.026,4.02,3.987,17.818,91.4,14,Waypoint,
38.5374375,-120.3487287,5560.64461298,177.493444,0,0.38271326684,23600,2018-07-07 22:03:21,11,0,24.003,5560.64461298,177.493444,0.223694,0.74112863264,0,0,-0.671082,98.1, 2.9, 1.1,0,0,1024,1024,1024,1024,97.6,-89.9,96,3.982,3.991,3.991,4.026,4.02,3.987,17.818,91.4,14,Waypoint,
38.5374375,-120.3487288,5561.62886498,178.477696,0.223694,0.35967520836,23900,2018-07-07 22:03:21,11,0,24.003,5561.62886498,178.477696,0.223694,0.74112863264,0,0,-0.671082,98.2, 2.8, 1.4,0,0,1024,1024,1024,1024,97.6,-89.9,96,3.982,3.991,3.991,4.026,4.02,3.987,17.818,91.4,14,Waypoint,
38.5374376,-120.3487288,5563.26928498,180.118116,0.223694,0.33870735992,24000,2018-07-07 22:03:22,11,0,23.976,5563.26928498,180.118116,0.223694,0.74112863264,0,0,-0.671082,98.2, 2.8, 1.8,0,0,1024,1024,1024,1024,97.6,-89.9,96,3.972,3.986,3.989,4.02,4.019,3.989,18.45,91.4,14,Waypoint,
38.5374376,-120.3487289,5564.58162098,181.430452,0.223694,0.315038395908,24100,2018-07-07 22:03:22,11,0,23.976,5564.58162098,181.430452,0.223694,0.74112863264,0,0,-0.671082,98.2, 2.7, 1.9,0,0,1024,1024,1024,1024,97.6,-89.9,96,3.972,3.986,3.989,4.02,4.019,3.989,18.45,91.4,14,Waypoint,
38.5374377,-120.3487289,5565.23778898,182.08662,0,0.295413067196,24200,2018-07-07 22:03:22,11,0,23.976,5565.23778898,182.08662,0.223694,0.74112863264,0,0,-0.671082,98.2, 2.6, 1.9,0,0,1024,1024,1024,1024,97.6,-89.9,96,3.972,3.986,3.989,4.02,4.019,3.989,18.45,91.4,14,Waypoint,
38.5374377,-120.348729,5566.22204098,183.070872,0,0.270967200272,24300,2018-07-07 22:03:22,11,0,23.976,5566.22204098,183.070872,0.223694,0.74112863264,0,0,-0.671082,98.1, 2.4, 1.6,0,0,1024,1024,1024,1024,97.6,-89.9,96,3.972,3.986,3.989,4.02,4.019,3.989,18.45,91.4,14,Waypoint,
38.5374377,-120.348729,5567.20629298,184.055124,0,0.270967200272,24400,2018-07-07 22:03:22,11,0,23.976,5567.20629298,184.055124,0.223694,0.74112863264,0,0,-0.671082,98.1, 2.5, 1.5,0,0,1024,1024,1024,1024,97.6,-89.9,96,3.972,3.986,3.989,4.02,4.019,3.989,18.45,91.4,14,Waypoint,
38.5374377,-120.348729,5568.19054498,185.039376,0,0.270967200272,24500,2018-07-07 22:03:22,11,0,23.976,5568.19054498,185.039376,0.223694,0.74112863264,0,0,-0.671082,98, 2.5, 1.7,0,0,1024,1024,1024,1024,97.6,-89.9,96,3.972,3.986,3.989,4.02,4.019,3.989,18.45,91.4,14,Waypoint,
38.5374377,-120.348729,5570.15904898,187.00788,0,0.270967200272,24700,2018-07-07 22:03:22,11,0,23.976,5570.15904898,187.00788,0.223694,0.74112863264,0,0,-0.671082,98.2, 2.7, 1.3,0,0,1024,1024,1024,1024,97.6,-89.9,96,3.972,3.986,3.989,4.02,4.019,3.989,18.45,91.4,14,Waypoint,
38.5374377,-120.348729,5571.14330098,187.992132,0,0.270967200272,24800,2018-07-07 22:03:22,11,0,23.976,5571.14330098,187.992132,0.223694,0.74112863264,0,0,-0.671082,98.3, 2.8, 1,0,0,1024,1024,1024,1024,97.6,-89.9,96,3.972,3.986,3.989,4.02,4.019,3.989,18.45,91.4,14,Waypoint,
38.5374376,-120.348729,5572.12755298,188.976384,0,0.292238854496,24900,2018-07-07 22:03:22,11,0,23.976,5572.12755298,188.976384,0.223694,0.74112863264,0,0,-0.671082,98.4, 2.6, 1.1,0,0,1024,1024,1024,1024,97.6,-90,96,3.972,3.986,3.989,4.02,4.019,3.989,18.45,91.4,14,Waypoint,
38.5374376,-120.348729,5573.11180498,189.960636,0,0.292238854496,25000,2018-07-07 22:03:23,11,0,23.963,5573.11180498,189.960636,0.223694,0.74112863264,0,0,-0.671082,98.4, 2.4, 1.2,0,0,1024,1024,1024,1024,97.6,-89.9,96,3.978,3.991,3.976,4.019,4.015,3.976,18.655,91.4,14,Waypoint,
38.5374376,-120.348729,5574.42414098,191.272972,0,0.292238854496,25100,2018-07-07 22:03:23,11,0,23.963,5574.42414098,191.272972,0.223694,0.74112863264,0,0,-0.671082,98.5, 2.6, 1.2,0,0,1024,1024,1024,1024,97.6,-89.9,96,3.978,3.991,3.976,4.019,4.015,3.976,18.655,91.4,14,Waypoint,
38.5374377,-120.348729,5575.40839298,192.257224,0,0.270967200272,25200,2018-07-07 22:03:23,11,0,23.963,5575.40839298,192.257224,0.223694,0.74112863264,0,0,-0.671082,98.4, 2.8, 1.3,0,0,1024,1024,1024,1024,97.6,-89.9,96,3.978,3.991,3.976,4.019,4.015,3.976,18.655,91.4,14,Waypoint,
38.5374377,-120.348729,5576.39264498,193.241476,0,0.270967200272,25300,2018-07-07 22:03:23,11,0,23.963,5576.39264498,193.241476,0.223694,0.74112863264,0,0,-0.671082,98.3, 2.9, 1.5,0,0,1024,1024,1024,1024,97.6,-89.9,96,3.978,3.991,3.976,4.019,4.015,3.976,18.655,91.4,14,Waypoint,
38.5374377,-120.348729,5577.37689698,194.225728,0,0.270967200272,25400,2018-07-07 22:03:23,11,0,23.963,5577.37689698,194.225728,0.223694,0.74112863264,0,0,-0.671082,98.2, 3.1, 1.8,0,0,1024,1024,1024,1024,97.6,-89.9,96,3.978,3.991,3.976,4.019,4.015,3.976,18.655,91.4,14,Waypoint,
38.5374378,-120.3487289,5578.36114898,195.20998,0,0.279196531244,25500,2018-07-07 22:03:23,11,0,23.963,5578.36114898,195.20998,0.223694,0.74112863264,0,0,-0.671082,98.2, 3.2, 2,0,0,1024,1024,1024,1024,97.6,-89.9,96,3.978,3.991,3.976,4.019,4.015,3.976,18.655,91.4,14,Waypoint,
38.5374379,-120.3487289,5579.34540098,196.194232,0,0.2670111634,25600,2018-07-07 22:03:23,11,0,23.963,5579.34540098,196.194232,0.223694,0.74112863264,0,0,-0.671082,98.1, 3.3, 2,0,0,1024,1024,1024,1024,97.6,-89.9,96,3.978,3.991,3.976,4.019,4.015,3.976,18.655,91.4,14,Waypoint,
38.5374379,-120.3487289,5580.32965298,197.178484,0,0.2670111634,25700,2018-07-07 22:03:23,11,0,23.963,5580.32965298,197.178484,0.223694,0.74112863264,0,0,-0.671082,98.1, 3.3, 2,0,0,1024,1024,1024,1024,97.6,-89.9,96,3.978,3.991,3.976,4.019,4.015,3.976,18.655,91.4,14,Waypoint,
38.5374379,-120.3487289,5581.31390498,198.162736,0,0.2670111634,25800,2018-07-07 22:03:23,11,0,23.963,5581.31390498,198.162736,0.223694,0.74112863264,0,0,-0.671082,98, 3.3, 1.8,0,0,1024,1024,1024,1024,97.6,-89.9,96,3.978,3.991,3.976,4.019,4.015,3.976,18.655,91.4,14,Waypoint,
38.5374379,-120.3487288,5582.29815698,199.146988,0,0.294566610476,25900,2018-07-07 22:03:23,11,0,23.963,5582.29815698,199.146988,0.223694,0.74112863264,0,0,-0.671082,98, 3.3, 1.8,0,0,1024,1024,1024,1024,97.6,-89.9,96,3.978,3.991,3.976,4.019,4.015,3.976,18.655,91.4,14,Waypoint,
38.5374379,-120.3487288,5583.28240898,200.13124,0,0.294566610476,26000,2018-07-07 22:03:24,11,0,23.93,5583.28240898,200.13124,0.223694,0.74112863264,0,0,-0.671082,98, 3.4, 1.8,0,0,1024,1024,1024,1024,97.6,-89.9,96,3.963,3.976,3.979,4.02,4.019,3.968,18.683,91.4,14,Waypoint,
38.5374379,-120.3487288,5584.26666098,201.115492,0,0.294566610476,26100,2018-07-07 22:03:24,11,0,23.93,5584.26666098,201.115492,0.223694,0.74112863264,0,0,-0.671082,98.1, 3.5, 1.8,0,0,1024,1024,1024,1024,97.6,-89.9,96,3.963,3.976,3.979,4.02,4.019,3.968,18.683,91.4,14,Waypoint,
38.537438,-120.3487288,5585.25091298,202.099744,0,0.28770834254,26200,2018-07-07 22:03:24,11,0,23.93,5585.25091298,202.099744,0.223694,0.74112863264,0,0,-0.671082,98.2, 3.6, 1.7,0,0,1024,1024,1024,1024,97.6,-89.9,96,3.963,3.976,3.979,4.02,4.019,3.968,18.683,91.4,14,Waypoint,
38.537438,-120.3487287,5588.20366898,205.0525,0,0.316037411688,26400,2018-07-07 22:03:24,11,0,23.93,5588.20366898,205.0525,0.223694,0.74112863264,0,0,-0.671082,98.5, 3.4, 1.7,0,0,1024,1024,1024,1024,97.6,-89.9,96,3.963,3.976,3.979,4.02,4.019,3.968,18.683,91.4,14,Waypoint,
38.537438,-120.3487287,5589.18792098,206.036752,0,0.316037411688,26500,2018-07-07 22:03:24,11,0,23.93,5589.18792098,206.036752,0.223694,0.74112863264,0,0,-0.671082,98.6, 3.4, 1.8,0,0,1024,1024,1024,1024,97.6,-89.9,96,3.963,3.976,3.979,4.02,4.019,3.968,18.683,91.4,14,Waypoint,
38.537438,-120.3487287,5590.17217298,207.021004,0,0.316037411688,26700,2018-07-07 22:03:24,11,0,23.93,5590.17217298,207.021004,0.223694,0.74112863264,0,0,-0.671082,98.6, 3.3, 1.8,0,0,1024,1024,1024,1024,97.6,-89.9,96,3.963,3.976,3.979,4.02,4.019,3.968,18.683,91.4,14,Waypoint,
38.537438,-120.3487287,5591.15642498,208.005256,0,0.316037411688,26800,2018-07-07 22:03:24,11,0,23.93,5591.15642498,208.005256,0.223694,0.74112863264,0,0,-0.671082,98.5, 3.3, 1.9,0,0,1024,1024,1024,1024,97.6,-89.9,96,3.963,3.976,3.979,4.02,4.019,3.968,18.683,91.4,14,Waypoint,
