Latitude, Longitude, Altitude (m), Time, Sats, Speed (m/s), Range (m), Battery (%), Roll (deg), Pitch (deg), Yaw (deg), Images, HD Signal (%), RC Signal (%), Battery Temp (C), Battery Voltage (mV), Battery Current (mA), Battery Energy (mAh), Battery Capacity (mAh), Battery Discharges, flyState, timestamp (Unix), LastUpdate (ms), radioChannel, Rc_elevator, Rc_aileron, Rc_throttle, Rc_rudder, Rc_gyro, Dronetype, Battery_Cell1 (mV), Battery_Cell2 (mV), Battery_Cell3 (mV), Battery_Cell4 (mV), Battery_Cell5 (mV), Battery_Cell6 (mV), Video, isFlying, elapsedTime (ms), gimbalPitch (deg), gimbalRoll (deg), gimbalYaw (deg), VelocityX (m/s), VelocityY (m/s), VelocityZ (m/s), GroundSmear (cm), App Version, Aircraft Name, Aircraft Firmware, Aircraft Serial Number, Battery Serial Number, Battery Lifetime (%), App_Tip, App_Warning, CurrentFlightStartingIndex, CurrentFlightLastVisitedWaypoint, PreviousFlightEndingWaypointIndex
37.7783053, -120.1185311, 0.000, 10:01:40.651, 17, 0.10, 0.05, 98, -0.600, 0.000, -95.700, 2, 100, 100, 30, 25593, -3986, 5306, 5415, 15, 11, 1526317300.651, 9, 0, 1024, 1024, 1024, 1024, 0, 6, 4260, 4295, 4242, 4280, 4304, 4250, 0, 1, 2905, -89.900, 0.000, -95.300, -0.100, 0.000, -0.300, 0.0, MapPilot_2.8.1_04242018, Dendroctonus I, 1.3.1.00, 041DDC1887, 1058163200505, 97, DJI_0001.jpg, Starting Mission from Lat/Long: 37.77832/-120.11854 Camera: Zenmuse X3 - Overlap: 90/90 - Active Connection: No, 0, 0, 0
37.7783051, -120.1185311, 0.000, 10:01:40.747, 17, 0.10, 0.07, 98, 0.100, -0.200, -95.600, 2, 100, 100, 30, 25593, -3986, 5306, 5415, 15, 11, 1526317300.748, 29, 0, 1024, 1024, 1024, 1024, 0, 6, 4260, 4295, 4242, 4280, 4304, 4250, 0, 1, 3001, -89.900, 0.000, -95.400, -0.100, 0.000, -0.400, 0.0, , , , , , 97, , , 0, 0, 0
37.7783049, -120.1185311, 0.100, 10:01:40.847, 17, 0.20, 0.09, 98, 0.800, -0.200, -95.600, 2, 100, 100, 30, 25593, -3986, 5306, 5415, 15, 11, 1526317300.848, 21, 0, 1024, 1024, 1024, 1024, 0, 6, 4260, 4295, 4242, 4280, 4304, 4250, 0, 1, 3101, -89.900, 0.000, -95.300, -0.200, 0.000, -0.400, 0.0, , , , , , 97, , , 0, 0, 0
37.7783047, -120.1185311, 0.100, 10:01:40.947, 17, 0.20, 0.11, 98, 1.500, 0.000, -95.600, 2, 100, 100, 30, 25593, -3986, 5306, 5415, 15, 11, 1526317300.948, 23, 0, 1024, 1024, 1024, 1024, 0, 6, 4260, 4295, 4242, 4280, 4304, 4250, 0, 1, 3201, -89.900, 0.000, -95.300, -0.200, 0.000, -0.400, 0.0, , , , , , 97, , , 0, 0, 0
37.7783044, -120.1185311, 0.200, 10:01:41.048, 17, 0.20, 0.14, 98, 2.100, 0.400, -95.800, 2, 100, 100, 30, 25512, -4417, 5306, 5415, 15, 11, 1526317301.048, 39, 0, 1024, 1024, 1024, 1024, 0, 6, 4244, 4251, 4221, 4231, 4231, 4219, 0, 1, 3301, -89.900, 0.000, -95.300, -0.200, 0.000, -0.400, 0.0, , , , , , 97, , , 0, 0, 0
37.7783042, -120.1185310, 0.200, 10:01:41.152, 17, 0.20, 0.16, 98, 2.700, 0.400, -95.900, 2, 100, 100, 30, 25512, -4417, 5306, 5415, 15, 11, 1526317301.152, 11, 0, 1024, 1024, 1024, 1024, 0, 6, 4244, 4251, 4221, 4231, 4231, 4219, 0, 1, 3405, -89.900, 0.000, -95.300, -0.200, 0.000, -0.400, 0.0, , , , , , 97, , , 0, 0, 0
37.7783042, -120.1185310, 0.200, 10:01:41.247, 17, 0.20, 0.16, 98, 2.700, 0.400, -95.900, 2, 100, 100, 30, 25512, -4417, 5306, 5415, 15, 11, 1526317301.247, 106, 0, 1024, 1024, 1024, 1024, 0, 6, 4244, 4251, 4221, 4231, 4231, 4219, 0, 1, 3500, -89.900, 0.000, -95.300, -0.200, 0.000, -0.400, 0.0, , , , , , 97, , , 0, 0, 0
37.7783040, -120.1185310, 0.300, 10:01:41.347, 17, 0.10, 0.18, 98, 2.500, 0.100, -96.000, 2, 100, 100, 30, 25512, -4417, 5306, 5415, 15, 11, 1526317301.347, 70, 0, 1024, 1024, 1024, 1024, 0, 6, 4244, 4251, 4221, 4231, 4231, 4219, 0, 1, 3600, -89.900, 0.000, -95.300, -0.100, 0.000, -0.400, 0.0, , , , , , 97, , , 0, 0, 0
37.7783036, -120.1185308, 0.400, 10:01:41.447, 17, 0.10, 0.23, 98, 1.800, 0.000, -96.200, 2, 100, 100, 30, 25512, -4417, 5306, 5415, 15, 11, 1526317301.448, 19, 0, 1024, 1024, 1024, 1024, 0, 6, 4244, 4251, 4221, 4231, 4231, 4219, 0, 1, 3701, -89.900, 0.000, -95.300, -0.100, 0.000, -0.400, 0.0, , , , , , 97, , , 0, 0, 0
37.7783035, -120.1185308, 0.500, 10:01:41.547, 17, 0.10, 0.24, 98, 1.500, -0.100, -96.200, 2, 100, 100, 30, 25512, -4417, 5306, 5415, 15, 11, 1526317301.548, 36, 0, 1024, 1024, 1024, 1024, 0, 6, 4244, 4251, 4221, 4231, 4231, 4219, 0, 1, 3801, -90.000, 0.000, -95.300, -0.100, 0.000, -0.400, 0.0, , , , , , 97, , , 0, 0, 0
37.7783034, -120.1185307, 0.500, 10:01:41.647, 17, 0.10, 0.26, 98, 1.400, -0.200, -96.100, 2, 100, 100, 30, 25512, -4417, 5306, 5415, 15, 11, 1526317301.648, 35, 0, 1024, 1024, 1024, 1024, 0, 6, 4244, 4251, 4221, 4231, 4231, 4219, 0, 1, 3901, -90.000, 0.000, -95.300, -0.100, 0.000, -0.400, 0.0, , , , , , 97, , , 0, 0, 0
37.7783032, -120.1185306, 0.600, 10:01:41.747, 17, 0.10, 0.28, 98, 1.500, -0.400, -96.000, 2, 100, 100, 30, 25512, -4417, 5306, 5415, 15, 11, 1526317301.748, 35, 0, 1024, 1024, 1024, 1024, 0, 6, 4244, 4251, 4221, 4231, 4231, 4219, 0, 1, 4001, -90.000, 0.000, -95.300, -0.100, 0.000, -0.400, 0.0, , , , , , 97, , , 0, 0, 0
37.7783031, -120.1185305, 0.600, 10:01:41.847, 17, 0.10, 0.30, 98, 1.800, -0.600, -95.800, 2, 100, 100, 30, 25512, -4417, 5306, 5415, 15, 11, 1526317301.848, 30, 0, 1024, 1024, 1024, 1024, 0, 6, 4244, 4251, 4221, 4231, 4231, 4219, 0, 1, 4101, -90.000, 0.000, -95.300, -0.100, 0.000, -0.500, 0.0, , , , , , 97, , , 0, 0, 0
37.7783029, -120.1185305, 0.700, 10:01:41.947, 17, 0.10, 0.31, 98, 2.100, -0.600, -95.700, 2, 100, 100, 30, 25512, -4417, 5306, 5415, 15, 11, 1526317301.948, 19, 0, 1024, 1024, 1024, 1024, 0, 6, 4244, 4251, 4221, 4231, 4231, 4219, 0, 1, 4201, -89.900, 0.000, -95.300, -0.100, 0.000, -0.400, 0.0, , , , , , 97, , , 0, 0, 0
37.7783028, -120.1185304, 0.700, 10:01:42.047, 17, 0.10, 0.33, 98, 2.200, -0.600, -95.600, 2, 100, 100, 30, 24737, -14849, 5306, 5415, 15, 11, 1526317302.047, 17, 0, 1024, 1024, 1024, 1024, 0, 6, 4244, 4251, 4221, 4231, 4231, 4219, 0, 1, 4300, -90.000, 0.000, -95.300, -0.100, 0.000, -0.400, 0.0, , , , , , 97, , , 0, 0, 0
37.7783028, -120.1185304, 0.700, 10:01:42.148, 17, 0.10, 0.33, 98, 2.200, -0.600, -95.600, 2, 100, 100, 30, 24737, -14849, 5306, 5415, 15, 11, 1526317302.148, 118, 0, 1024, 1024, 1024, 1024, 0, 6, 4114, 4125, 4105, 4148, 4136, 4093, 0, 1, 4401, -90.000, 0.000, -95.300, -0.100, 0.000, -0.400, 0.0, , , , , , 97, , , 0, 0, 0
37.7783026, -120.1185303, 0.800, 10:01:42.247, 17, 0.00, 0.35, 98, 2.300, -0.600, -95.500, 2, 100, 100, 30, 24737, -14849, 5306, 5415, 15, 11, 1526317302.248, 30, 0, 1024, 1024, 1024, 1024, 0, 6, 4114, 4125, 4105, 4148, 4136, 4093, 0, 1, 4501, -89.900, 0.000, -95.300, 0.000, 0.000, -0.400, 0.0, , , , , , 97, , , 0, 0, 0
37.7783026, -120.1185303, 0.800, 10:01:42.348, 17, 0.00, 0.35, 98, 2.300, -0.600, -95.500, 2, 100, 100, 30, 24737, -14849, 5306, 5415, 15, 11, 1526317302.348, 130, 0, 1024, 1024, 1024, 1024, 0, 6, 4114, 4125, 4105, 4148, 4136, 4093, 0, 1, 4601, -89.900, 0.000, -95.300, 0.000, 0.000, -0.400, 0.0, , , , , , 97, , , 0, 0, 0
37.7783025, -120.1185302, 0.800, 10:01:42.447, 17, 0.00, 0.36, 98, 2.500, -0.600, -95.600, 2, 100, 100, 30, 24737, -14849, 5306, 5415, 15, 11, 1526317302.447, 84, 0, 1024, 1024, 1024, 1024, 0, 6, 4114, 4125, 4105, 4148, 4136, 4093, 0, 1, 4701, -90.000, 0.000, -95.300, 0.000, 0.000, -0.500, 0.0, , , , , , 97, , , 0, 0, 0
37.7783025, -120.1185301, 0.900, 10:01:42.547, 17, 0.00, 0.37, 98, 2.700, -0.700, -95.800, 2, 100, 100, 30, 24737, -14849, 5306, 5415, 15, 14, 1526317302.548, 71, 0, 1024, 1024, 1024, 1024, 0, 6, 4114, 4125, 4105, 4148, 4136, 4093, 0, 1, 4801, -90.000, 0.000, -95.300, 0.000, 0.000, -0.500, 0.0, , , , , , 97, , , 0, 0, 0
37.7783025, -120.1185301, 1.000, 10:01:42.649, 17, 0.00, 0.36, 98, 1.600, -0.600, -96.200, 2, 100, 100, 30, 24737, -14849, 5306, 5415, 15, 14, 1526317302.649, 3, 0, 1024, 1024, 1024, 1024, 0, 6, 4114, 4125, 4105, 4148, 4136, 4093, 0, 1, 4903, -89.900, 0.000, -95.300, 0.000, 0.000, -0.200, 0.0, , , , , , 97, , , 0, 0, 0
37.7783025, -120.1185301, 1.000, 10:01:42.747, 17, 0.00, 0.36, 98, 1.600, -0.600, -96.200, 2, 100, 100, 30, 24737, -14849, 5306, 5415, 15, 14, 1526317302.747, 101, 0, 1024, 1024, 1024, 1024, 0, 6, 4114, 4125, 4105, 4148, 4136, 4093, 0, 1, 5000, -89.900, 0.000, -95.300, 0.000, 0.000, -0.200, 0.0, , , , , , 97, , , 0, 0, 0
37.7783025, -120.1185301, 1.000, 10:01:42.847, 17, 0.00, 0.37, 98, 1.000, -0.400, -96.200, 2, 100, 100, 30, 24737, -14849, 5306, 5415, 15, 14, 1526317302.848, 98, 0, 1024, 1024, 1024, 1024, 0, 6, 4114, 4125, 4105, 4148, 4136, 4093, 0, 1, 5101, -90.000, 0.000, -95.300, 0.000, 0.000, -0.200, 0.0, , , , , , 97, , , 0, 0, 0
37.7783024, -120.1185301, 1.000, 10:01:42.948, 17, 0.00, 0.38, 98, 0.900, -0.400, -96.100, 2, 100, 100, 30, 24737, -14849, 5306, 5415, 15, 14, 1526317302.948, 91, 0, 1024, 1024, 1024, 1024, 0, 6, 4114, 4125, 4105, 4148, 4136, 4093, 0, 1, 5201, -89.900, 0.000, -95.300, 0.000, 0.000, -0.300, 0.0, , , , , , 97, , , 0, 0, 0
37.7783023, -120.1185300, 1.100, 10:01:43.047, 17, 0.00, 0.39, 98, 1.000, -0.400, -96.000, 2, 100, 100, 30, 24737, -14849, 5306, 5415, 15, 14, 1526317303.047, 86, 0, 1024, 1024, 1024, 1024, 0, 6, 4114, 4125, 4105, 4148, 4136, 4093, 0, 1, 5300, -89.900, 0.000, -95.300, 0.000, 0.000, -0.400, 0.0, , , , , , 97, , , 0, 0, 0
37.7783022, -120.1185300, 1.100, 10:01:43.147, 17, 0.00, 0.40, 98, 1.400, -0.500, -95.900, 2, 100, 100, 30, 24571, -16115, 5306, 5415, 15, 14, 1526317303.148, 98, 0, 1024, 1024, 1024, 1024, 0, 6, 4071, 4092, 4087, 4115, 4120, 4084, 0, 1, 5401, -89.900, 0.000, -95.300, 0.000, 0.000, -0.700, 0.0, , , , , , 97, , , 0, 0, 0
37.7783022, -120.1185300, 1.200, 10:01:43.248, 17, 0.00, 0.40, 98, 1.600, -0.400, -95.900, 2, 100, 100, 30, 24571, -16115, 5306, 5415, 15, 14, 1526317303.248, 53, 0, 1024, 1024, 1024, 1024, 0, 6, 4071, 4092, 4087, 4115, 4120, 4084, 0, 1, 5501, -89.900, 0.000, -95.300, 0.000, 0.000, -0.800, 0.0, , , , , , 97, , , 0, 0, 0
37.7783022, -120.1185299, 1.300, 10:01:43.347, 17, 0.00, 0.40, 98, 1.600, -0.400, -96.000, 2, 100, 100, 30, 24571, -16115, 5306, 5415, 15, 14, 1526317303.347, 66, 0, 1024, 1024, 1024, 1024, 0, 6, 4071, 4092, 4087, 4115, 4120, 4084, 0, 1, 5600, -89.900, 0.000, -95.300, 0.000, 0.000, -0.900, 0.0, , , , , , 97, , , 0, 0, 0
37.7783022, -120.1185299, 1.400, 10:01:43.447, 17, 0.00, 0.40, 98, 1.400, -0.400, -96.200, 2, 100, 100, 30, 24571, -16115, 5306, 5415, 15, 14, 1526317303.448, 48, 0, 1024, 1024, 1024, 1024, 0, 6, 4071, 4092, 4087, 4115, 4120, 4084, 0, 1, 5701, -89.900, 0.000, -95.300, 0.000, 0.000, -1.100, 0.0, , , , , , 97, , , 0, 0, 0
37.7783022, -120.1185299, 1.500, 10:01:43.547, 17, 0.00, 0.40, 98, 1.100, -0.300, -96.400, 2, 100, 100, 30, 24571, -16115, 5306, 5415, 15, 14, 1526317303.547, 58, 0, 1024, 1024, 1024, 1024, 0, 6, 4071, 4092, 4087, 4115, 4120, 4084, 0, 1, 5800, -90.000, 0.000, -95.400, 0.000, 0.000, -1.400, 0.0, , , , , , 97, , , 0, 0, 0
37.7783022, -120.1185299, 1.700, 10:01:43.647, 17, 0.00, 0.40, 98, 0.700, -0.400, -96.500, 2, 100, 100, 30, 24571, -16115, 5306, 5415, 15, 14, 1526317303.647, 40, 0, 1024, 1024, 1024, 1024, 0, 6, 4071, 4092, 4087, 4115, 4120, 4084, 0, 1, 5900, -89.900, 0.000, -95.300, 0.000, 0.000, -1.600, 0.0, , , , , , 97, , , 0, 0, 0
37.7783023, -120.1185300, 1.800, 10:01:43.747, 17, 0.00, 0.39, 98, 0.600, -0.400, -96.500, 2, 100, 100, 30, 24571, -16115, 5306, 5415, 15, 14, 1526317303.747, 58, 0, 1024, 1024, 1024, 1024, 0, 6, 4071, 4092, 4087, 4115, 4120, 4084, 0, 1, 6000, -89.900, 0.000, -95.300, 0.000, 0.000, -1.800, 0.0, , , , , , 97, , , 0, 0, 0
37.7783024, -120.1185301, 2.300, 10:01:43.848, 17, 0.00, 0.38, 98, 0.100, -0.400, -96.500, 2, 100, 100, 30, 24571, -16115, 5306, 5415, 15, 14, 1526317303.848, 34, 0, 1024, 1024, 1024, 1024, 0, 6, 4071, 4092, 4087, 4115, 4120, 4084, 0, 1, 6101, -90.000, 0.000, -95.300, 0.000, 0.000, -2.300, 0.0, , , , , , 97, , , 0, 0, 0
37.7783025, -120.1185301, 2.500, 10:01:43.948, 17, 0.00, 0.37, 98, 0.000, -0.400, -96.400, 2, 100, 100, 30, 24571, -16115, 5306, 5415, 15, 14, 1526317303.948, 25, 0, 1024, 1024, 1024, 1024, 0, 6, 4071, 4092, 4087, 4115, 4120, 4084, 0, 1, 6201, -89.900, 0.000, -95.400, 0.000, 0.000, -2.500, 0.0, , , , , , 97, , , 0, 0, 0
37.7783025, -120.1185300, 2.800, 10:01:44.062, 17, 0.00, 0.37, 98, 0.000, -0.500, -96.300, 2, 100, 100, 30, 24562, -15899, 5306, 5415, 15, 14, 1526317304.062, 13, 0, 1024, 1024, 1024, 1024, 0, 6, 4071, 4092, 4087, 4115, 4120, 4084, 0, 1, 6315, -90.000, 0.000, -95.300, 0.000, 0.000, -2.700, 0.0, , , , , , 97, , , 0, 0, 0
37.7783025, -120.1185300, 2.800, 10:01:44.147, 17, 0.00, 0.37, 98, 0.000, -0.500, -96.300, 2, 100, 100, 30, 24562, -15899, 5306, 5415, 15, 14, 1526317304.148, 99, 0, 1024, 1024, 1024, 1024, 0, 6, 4071, 4092, 4087, 4115, 4120, 4084, 0, 1, 6401, -90.000, 0.000, -95.300, 0.000, 0.000, -2.700, 0.0, , , , , , 97, , , 0, 0, 0
37.7783026, -120.1185300, 3.100, 10:01:44.248, 17, 0.00, 0.36, 98, 0.000, -0.500, -96.200, 2, 100, 100, 30, 24562, -15899, 5306, 5415, 15, 14, 1526317304.248, 91, 0, 1024, 1024, 1024, 1024, 0, 6, 4071, 4092, 4087, 4115, 4120, 4084, 0, 1, 6501, -89.900, 0.000, -95.300, 0.000, 0.000, -2.900, 0.0, , , , , , 97, , , 0, 0, 0
37.7783026, -120.1185300, 3.400, 10:01:44.348, 17, 0.00, 0.36, 98, 0.000, -0.600, -96.200, 2, 100, 100, 30, 24562, -15899, 5306, 5415, 15, 14, 1526317304.348, 36, 0, 1024, 1024, 1024, 1024, 0, 6, 4071, 4092, 4087, 4115, 4120, 4084, 0, 1, 6601, -89.900, 0.000, -95.300, 0.000, 0.000, -3.000, 0.0, , , , , , 97, , , 0, 0, 0
37.7783026, -120.1185300, 4.000, 10:01:44.447, 17, 0.00, 0.36, 98, 0.000, -0.500, -96.300, 2, 100, 100, 30, 24562, -15899, 5306, 5415, 15, 14, 1526317304.448, 5, 0, 1024, 1024, 1024, 1024, 0, 6, 4071, 4092, 4087, 4115, 4120, 4084, 0, 1, 6701, -89.900, 0.000, -95.300, 0.000, 0.000, -3.200, 0.0, , , , , , 97, , , 0, 0, 0
37.7783026, -120.1185300, 4.400, 10:01:44.571, 17, 0.00, 0.36, 98, 0.100, -0.300, -96.400, 2, 100, 100, 30, 24562, -15899, 5306, 5415, 15, 14, 1526317304.571, 8, 0, 1024, 1024, 1024, 1024, 0, 6, 4071, 4092, 4087, 4115, 4120, 4084, 0, 1, 6824, -89.900, 0.000, -95.300, 0.000, 0.000, -3.300, 0.0, , , , , , 97, , , 0, 0, 0
37.7783026, -120.1185300, 4.700, 10:01:44.651, 17, 0.00, 0.36, 98, 0.300, -0.200, -96.400, 2, 100, 100, 30, 24562, -15899, 5306, 5415, 15, 14, 1526317304.651, 3, 0, 1024, 1024, 1024, 1024, 0, 6, 4036, 4070, 4038, 4092, 4129, 4049, 0, 1, 6904, -89.900, 0.000, -95.300, 0.000, 0.000, -3.200, 0.0, , , , , , 97, , , 0, 0, 0
37.7783026, -120.1185301, 5.000, 10:01:44.750, 17, 0.00, 0.35, 98, 0.300, -0.200, -96.300, 2, 100, 100, 30, 24562, -15899, 5306, 5415, 15, 14, 1526317304.751, 4, 0, 1024, 1024, 1024, 1024, 0, 6, 4036, 4070, 4038, 4092, 4129, 4049, 0, 1, 7004, -89.900, 0.000, -95.400, 0.000, 0.000, -3.200, 0.0, , , , , , 97, , , 0, 0, 0
37.7783026, -120.1185301, 5.000, 10:01:44.848, 17, 0.00, 0.35, 98, 0.300, -0.200, -96.300, 2, 100, 100, 30, 24562, -15899, 5306, 5415, 15, 14, 1526317304.848, 102, 0, 1024, 1024, 1024, 1024, 0, 6, 4036, 4070, 4038, 4092, 4129, 4049, 0, 1, 7101, -89.900, 0.000, -95.400, 0.000, 0.000, -3.200, 0.0, , , , , , 97, , , 0, 0, 0
37.7783027, -120.1185301, 5.400, 10:01:44.947, 17, 0.00, 0.35, 98, 0.100, -0.300, -96.200, 2, 100, 100, 30, 24562, -15899, 5306, 5415, 15, 14, 1526317304.947, 86, 0, 1024, 1024, 1024, 1024, 0, 6, 4036, 4070, 4038, 4092, 4129, 4049, 0, 1, 7200, -89.900, 0.000, -95.300, 0.000, 0.000, -3.200, 0.0, , , , , , 97, , , 0, 0, 0
37.7783027, -120.1185300, 5.700, 10:01:45.048, 17, 0.00, 0.35, 98, 0.000, -0.200, -96.100, 2, 100, 100, 30, 24562, -15899, 5306, 5415, 15, 14, 1526317305.048, 92, 0, 1024, 1024, 1024, 1024, 0, 6, 4036, 4070, 4038, 4092, 4129, 4049, 0, 1, 7301, -89.900, 0.000, -95.400, 0.000, 0.000, -3.200, 0.0, , , , , , 97, , , 0, 0, 0
37.7783027, -120.1185299, 6.000, 10:01:45.147, 17, 0.00, 0.35, 98, 0.000, -0.100, -96.100, 2, 100, 100, 30, 24562, -15899, 5306, 5415, 15, 14, 1526317305.148, 85, 0, 1024, 1024, 1024, 1024, 0, 6, 4036, 4070, 4038, 4092, 4129, 4049, 0, 1, 7401, -89.900, 0.000, -95.400, 0.000, 0.000, -3.200, 0.0, , , , , , 97, , , 0, 0, 0
37.7783027, -120.1185298, 6.400, 10:01:45.248, 17, 0.00, 0.36, 98, 0.000, -0.500, -96.100, 2, 100, 100, 30, 24562, -15899, 5306, 5415, 15, 14, 1526317305.248, 73, 0, 1024, 1024, 1024, 1024, 0, 6, 4036, 4070, 4038, 4092, 4129, 4049, 0, 1, 7501, -90.000, 0.000, -95.300, 0.000, 0.000, -3.200, 0.0, , , , , , 97, , , 0, 0, 0
37.7783027, -120.1185296, 6.700, 10:01:45.348, 17, 0.00, 0.36, 98, -0.100, -1.100, -96.100, 2, 100, 100, 30, 24562, -15899, 5306, 5415, 15, 14, 1526317305.348, 70, 0, 1024, 1024, 1024, 1024, 0, 6, 4036, 4070, 4038, 4092, 4129, 4049, 0, 1, 7601, -90.000, 0.000, -95.400, 0.000, 0.000, -3.200, 0.0, , , , , , 97, , , 0, 0, 0
37.7783028, -120.1185295, 7.000, 10:01:45.447, 17, 0.10, 0.36, 98, -0.100, -1.600, -96.200, 2, 100, 100, 30, 24562, -15899, 5306, 5415, 15, 14, 1526317305.448, 75, 0, 1024, 1024, 1024, 1024, 0, 6, 4036, 4070, 4038, 4092, 4129, 4049, 0, 1, 7701, -90.000, 0.000, -95.400, 0.000, 0.100, -3.200, 0.0, , , , , , 97, , , 0, 0, 0
37.7783028, -120.1185293, 7.400, 10:01:45.548, 17, 0.10, 0.37, 98, -0.300, -2.300, -96.100, 2, 100, 100, 30, 24065, -22233, 5306, 5415, 15, 14, 1526317305.548, 74, 0, 1024, 1024, 1024, 1024, 0, 6, 4036, 4070, 4038, 4092, 4129, 4049, 0, 1, 7801, -90.000, 0.000, -95.300, 0.000, 0.100, -3.200, 0.0, , , , , , 97, , , 0, 0, 0
37.7783028, -120.1185290, 7.700, 10:01:45.648, 17, 0.10, 0.38, 98, -0.200, -3.300, -96.100, 2, 100, 100, 30, 24065, -22233, 5306, 5415, 15, 14, 1526317305.649, 18, 0, 1024, 1024, 1024, 1024, 0, 6, 4036, 4070, 4038, 4092, 4129, 4049, 0, 1, 7902, -89.900, 0.000, -95.300, 0.000, 0.100, -3.200, 0.0, , , , , , 97, , , 0, 0, 0
37.7783028, -120.1185288, 8.100, 10:01:45.748, 17, 0.10, 0.39, 98, -0.100, -3.500, -96.000, 2, 100, 100, 30, 24065, -22233, 5306, 5415, 15, 14, 1526317305.748, 62, 0, 1024, 1024, 1024, 1024, 0, 6, 4036, 4070, 4038, 4092, 4129, 4049, 0, 1, 8001, -89.900, 0.000, -95.400, 0.000, 0.100, -3.200, 0.0, , , , , , 97, , , 0, 0, 0
37.7783028, -120.1185288, 8.100, 10:01:45.848, 17, 0.10, 0.39, 98, -0.100, -3.500, -96.000, 2, 100, 100, 30, 24065, -22233, 5306, 5415, 15, 14, 1526317305.848, 162, 0, 1024, 1024, 1024, 1024, 0, 6, 3982, 3999, 3996, 4029, 4033, 4008, 0, 1, 8101, -89.900, 0.000, -95.300, 0.000, 0.100, -3.200, 0.0, , , , , , 97, , , 0, 0, 0
37.7783028, -120.1185285, 8.700, 10:01:45.948, 17, 0.00, 0.40, 98, 0.000, -2.800, -95.800, 2, 100, 100, 30, 24065, -22233, 5306, 5415, 15, 14, 1526317305.948, 59, 0, 1024, 1024, 1024, 1024, 0, 6, 3982, 3999, 3996, 4029, 4033, 4008, 0, 1, 8201, -89.900, 0.000, -95.300, 0.000, 0.000, -3.100, 0.0, , , , , , 97, , , 0, 0, 0
37.7783029, -120.1185283, 9.400, 10:01:46.048, 17, 0.00, 0.41, 98, 0.100, -2.700, -96.000, 2, 100, 100, 30, 24065, -22233, 5306, 5415, 15, 14, 1526317306.048, 48, 0, 1024, 1024, 1024, 1024, 0, 6, 3982, 3999, 3996, 4029, 4033, 4008, 0, 1, 8301, -89.900, 0.000, -95.400, 0.000, 0.000, -3.000, 0.0, , , , , , 97, , , 0, 0, 0
37.7783029, -120.1185283, 9.400, 10:01:46.148, 17, 0.00, 0.41, 98, 0.100, -2.700, -96.000, 2, 100, 100, 30, 24065, -22233, 5306, 5415, 15, 14, 1526317306.148, 148, 0, 1024, 1024, 1024, 1024, 0, 6, 3982, 3999, 3996, 4029, 4033, 4008, 0, 1, 8401, -89.900, 0.000, -95.400, 0.000, 0.000, -3.000, 0.0, , , , , , 97, , , 0, 0, 0
37.7783029, -120.1185282, 9.700, 10:01:46.248, 17, 0.00, 0.42, 98, 0.100, -2.700, -96.200, 2, 100, 100, 30, 24065, -22233, 5306, 5415, 15, 14, 1526317306.248, 59, 0, 1024, 1024, 1024, 1024, 0, 6, 3982, 3999, 3996, 4029, 4033, 4008, 0, 1, 8501, -89.900, 0.000, -95.400, 0.000, 0.000, -2.900, 0.0, , , , , , 97, , , 0, 0, 0
37.7783029, -120.1185282, 9.700, 10:01:46.348, 17, 0.00, 0.42, 98, 0.100, -2.700, -96.200, 2, 100, 100, 30, 24065, -22233, 5306, 5415, 15, 14, 1526317306.348, 159, 0, 1024, 1024, 1024, 1024, 0, 6, 3982, 3999, 3996, 4029, 4033, 4008, 0, 1, 8601, -89.900, 0.000, -95.400, 0.000, 0.000, -2.900, 0.0, , , , , , 97, , , 0, 0, 0
37.7783029, -120.1185282, 9.700, 10:01:46.448, 17, 0.00, 0.42, 98, 0.100, -2.700, -96.200, 2, 100, 100, 30, 24065, -22233, 5306, 5415, 15, 14, 1526317306.448, 259, 0, 1024, 1024, 1024, 1024, 0, 6, 3982, 3999, 3996, 4029, 4033, 4008, 0, 1, 8701, -89.900, 0.000, -95.400, 0.000, 0.000, -2.900, 0.0, , , , , , 97, , , 0, 0, 0
37.7783029, -120.1185281, 10.600, 10:01:46.548, 17, 0.00, 0.42, 98, -0.500, -2.200, -96.500, 2, 100, 100, 30, 24065, -22233, 5306, 5415, 15, 14, 1526317306.548, 15, 0, 1024, 1024, 1024, 1024, 0, 6, 3982, 3999, 3996, 4029, 4033, 4008, 0, 1, 8801, -89.900, 0.000, -95.400, 0.000, 0.000, -3.000, 0.0, , , , , , 97, , , 0, 0, 0
37.7783029, -120.1185281, 10.600, 10:01:46.647, 17, 0.00, 0.42, 98, -0.500, -2.200, -96.500, 2, 100, 100, 30, 24065, -22233, 5306, 5415, 15, 14, 1526317306.647, 115, 0, 1024, 1024, 1024, 1024, 0, 6, 3982, 3999, 3996, 4029, 4033, 4008, 0, 1, 8900, -89.900, 0.000, -95.400, 0.000, 0.000, -3.000, 0.0, , , , , , 97, , , 0, 0, 0
37.7783029, -120.1185281, 10.900, 10:01:46.747, 17, 0.00, 0.42, 98, -0.200, -2.200, -96.400, 2, 100, 97, 30, 24286, -17315, 5306, 5415, 15, 14, 1526317306.747, 36, 0, 1024, 1024, 1024, 1024, 0, 6, 3982, 3999, 3996, 4029, 4033, 4008, 0, 1, 9000, -89.900, 0.000, -95.400, 0.000, 0.000, -3.000, 0.0, , , , , , 97, , , 0, 0, 0
37.7783030, -120.1185281, 11.200, 10:01:46.847, 17, 0.00, 0.42, 98, -0.200, -2.200, -96.400, 2, 100, 97, 30, 24286, -17315, 5306, 5415, 15, 14, 1526317306.847, 22, 0, 1024, 1024, 1024, 1024, 0, 6, 4035, 4046, 4050, 4070, 4075, 4043, 0, 1, 9100, -89.900, 0.000, -95.300, 0.000, 0.000, -2.900, 0.0, , , , , , 97, , , 0, 0, 0
37.7783030, -120.1185281, 11.500, 10:01:46.947, 17, 0.00, 0.41, 98, -0.400, -1.900, -96.400, 2, 100, 97, 30, 24286, -17315, 5306, 5415, 15, 14, 1526317306.948, 39, 0, 1024, 1024, 1024, 1024, 0, 6, 4035, 4046, 4050, 4070, 4075, 4043, 0, 1, 9201, -89.900, 0.000, -95.400, 0.000, 0.000, -3.000, 0.0, , , , , , 97, , , 0, 0, 0
37.7783031, -120.1185282, 11.900, 10:01:47.048, 17, 0.00, 0.40, 98, -0.800, -1.600, -96.500, 2, 100, 97, 30, 24286, -17315, 5306, 5415, 15, 14, 1526317307.049, 22, 0, 1024, 1024, 1024, 1024, 0, 6, 4035, 4046, 4050, 4070, 4075, 4043, 0, 1, 9302, -89.900, 0.000, -95.400, 0.000, 0.000, -3.000, 0.0, , , , , , 97, , , 0, 0, 0
37.7783031, -120.1185282, 11.900, 10:01:47.147, 17, 0.00, 0.40, 98, -0.800, -1.600, -96.500, 2, 100, 97, 30, 24286, -17315, 5306, 5415, 15, 14, 1526317307.148, 121, 0, 1024, 1024, 1024, 1024, 0, 6, 4035, 4046, 4050, 4070, 4075, 4043, 0, 1, 9401, -89.900, 0.000, -95.400, 0.000, 0.000, -3.000, 0.0, , , , , , 97, , , 0, 0, 0
37.7783031, -120.1185282, 12.200, 10:01:47.248, 17, 0.00, 0.39, 98, -1.000, -1.500, -96.600, 2, 100, 97, 30, 24286, -17315, 5306, 5415, 15, 14, 1526317307.248, 33, 0, 1024, 1024, 1024, 1024, 0, 6, 4035, 4046, 4050, 4070, 4075, 4043, 0, 1, 9501, -89.900, 0.000, -95.300, 0.000, 0.000, -3.000, 0.0, , , , , , 97, , , 0, 0, 0
37.7783031, -120.1185282, 12.200, 10:01:47.347, 17, 0.00, 0.39, 98, -1.000, -1.500, -96.600, 2, 100, 97, 30, 24286, -17315, 5306, 5415, 15, 14, 1526317307.348, 133, 0, 1024, 1024, 1024, 1024, 0, 6, 4035, 4046, 4050, 4070, 4075, 4043, 0, 1, 9601, -89.900, 0.000, -95.300, 0.000, 0.000, -3.000, 0.0, , , , , , 97, , , 0, 0, 0
37.7783032, -120.1185283, 12.500, 10:01:47.447, 17, 0.00, 0.38, 98, -0.900, -1.200, -96.600, 2, 100, 97, 30, 24286, -17315, 5306, 5415, 15, 14, 1526317307.447, 61, 0, 1024, 1024, 1024, 1024, 0, 6, 4035, 4046, 4050, 4070, 4075, 4043, 0, 1, 9701, -89.900, 0.000, -95.300, 0.000, 0.000, -2.900, 0.0, , , , , , 97, , , 0, 0, 0
37.7783032, -120.1185283, 12.800, 10:01:47.547, 17, 0.00, 0.38, 98, -0.900, -1.200, -96.400, 2, 100, 97, 30, 24286, -17315, 5306, 5415, 15, 14, 1526317307.548, 37, 0, 1024, 1024, 1024, 1024, 0, 6, 4035, 4046, 4050, 4070, 4075, 4043, 0, 1, 9801, -89.900, 0.000, -95.400, 0.000, 0.000, -3.000, 0.0, , , , , , 97, , , 0, 0, 0
37.7783033, -120.1185284, 13.100, 10:01:47.647, 17, 0.00, 0.37, 98, -1.600, -1.300, -96.200, 2, 100, 97, 30, 24286, -17315, 5306, 5415, 15, 14, 1526317307.647, 62, 0, 1024, 1024, 1024, 1024, 0, 6, 4035, 4046, 4050, 4070, 4075, 4043, 0, 1, 9900, -89.900, 0.000, -95.400, 0.000, 0.000, -2.900, 0.0, , , , , , 97, , , 0, 0, 0
37.7783035, -120.1185285, 13.400, 10:01:47.748, 17, 0.00, 0.35, 98, -2.100, -1.600, -96.100, 2, 100, 97, 30, 24286, -17315, 5306, 5415, 15, 14, 1526317307.748, 71, 0, 1024, 1024, 1024, 1024, 0, 6, 4035, 4046, 4050, 4070, 4075, 4043, 0, 1, 10001, -89.900, 0.000, -95.300, 0.000, 0.000, -2.900, 0.0, , , , , , 97, , , 0, 0, 0
37.7783035, -120.1185285, 13.400, 10:01:47.848, 17, 0.00, 0.35, 98, -2.100, -1.600, -96.100, 2, 100, 97, 30, 24286, -17315, 5306, 5415, 15, 14, 1526317307.848, 171, 0, 1024, 1024, 1024, 1024, 0, 6, 4035, 4046, 4050, 4070, 4075, 4043, 0, 1, 10101, -89.900, 0.000, -95.300, 0.000, 0.000, -2.900, 0.0, , , , , , 97, , , 0, 0, 0
37.7783037, -120.1185286, 14.000, 10:01:47.948, 17, 0.00, 0.33, 98, -2.700, -1.200, -96.000, 2, 100, 97, 30, 24286, -17315, 5306, 5415, 15, 14, 1526317307.948, 74, 0, 1024, 1024, 1024, 1024, 0, 6, 4035, 4046, 4050, 4070, 4075, 4043, 0, 1, 10201, -89.900, 0.000, -95.300, 0.000, 0.000, -2.900, 0.0, , , , , , 97, , , 0, 0, 0
37.7783037, -120.1185286, 14.300, 10:01:48.048, 17, 0.00, 0.33, 98, -2.600, -1.000, -96.000, 2, 100, 97, 30, 24286, -17315, 5306, 5415, 15, 14, 1526317308.048, 71, 0, 1024, 1024, 1024, 1024, 0, 6, 4035, 4046, 4050, 4070, 4075, 4043, 0, 1, 10301, -89.900, 0.000, -95.400, 0.000, 0.000, -2.800, 0.0, , , , , , 97, , , 0, 0, 0
37.7783037, -120.1185286, 14.300, 10:01:48.148, 17, 0.00, 0.33, 98, -2.600, -1.000, -96.000, 2, 100, 97, 30, 24286, -17315, 5306, 5415, 15, 14, 1526317308.148, 171, 0, 1024, 1024, 1024, 1024, 0, 6, 4035, 4046, 4050, 4070, 4075, 4043, 0, 1, 10401, -89.900, 0.000, -95.300, 0.000, 0.000, -2.800, 0.0, , , , , , 97, , , 0, 0, 0
37.7783038, -120.1185288, 14.900, 10:01:48.248, 17, 0.00, 0.31, 98, -2.100, -0.800, -96.100, 2, 100, 97, 30, 24286, -17315, 5306, 5415, 15, 14, 1526317308.248, 96, 0, 1024, 1024, 1024, 1024, 0, 6, 4035, 4046, 4050, 4070, 4075, 4043, 0, 1, 10501, -89.900, 0.000, -95.400, 0.000, 0.000, -2.800, 0.0, , , , , , 97, , , 0, 0, 0
37.7783038, -120.1185292, 16.000, 10:01:48.351, 17, 0.00, 0.28, 98, -1.800, -0.900, -96.200, 2, 100, 100, 30, 24272, -18193, 5306, 5415, 15, 14, 1526317308.351, 3, 0, 1024, 1024, 1024, 1024, 0, 6, 4018, 4035, 4024, 4056, 4065, 4031, 0, 1, 10604, -89.900, 0.000, -95.300, 0.000, 0.000, -2.800, 0.0, , , , , , 97, , , 0, 0, 0
37.7783038, -120.1185294, 16.500, 10:01:48.448, 17, 0.00, 0.27, 98, -1.200, -0.700, -96.300, 2, 100, 100, 30, 24272, -18193, 5306, 5415, 15, 14, 1526317308.448, 28, 0, 1024, 1024, 1024, 1024, 0, 6, 4018, 4035, 4024, 4056, 4065, 4031, 0, 1, 10701, -89.900, 0.000, -95.400, 0.000, 0.000, -2.900, 0.0, , , , , , 97, , , 0, 0, 0
37.7783038, -120.1185295, 16.800, 10:01:48.548, 17, 0.00, 0.27, 98, -1.300, -0.400, -96.300, 2, 100, 99, 30, 24137, -19353, 5252, 5415, 15, 14, 1526317308.548, 47, 0, 1024, 1024, 1024, 1024, 0, 6, 3997, 4015, 4007, 4039, 4048, 4009, 0, 1, 10801, -89.900, 0.000, -95.300, 0.000, 0.000, -2.900, 0.0, , , , , , 97, , , 0, 0, 0
37.7783038, -120.1185296, 17.100, 10:01:48.647, 17, 0.00, 0.26, 98, -1.400, -0.100, -96.400, 2, 100, 99, 30, 24137, -19353, 5252, 5415, 15, 14, 1526317308.647, 25, 0, 1024, 1024, 1024, 1024, 0, 6, 3997, 4015, 4007, 4039, 4048, 4009, 0, 1, 10900, -89.900, 0.000, -95.400, 0.000, 0.000, -3.000, 0.0, , , , , , 97, , , 0, 0, 0
37.7783038, -120.1185296, 17.100, 10:01:48.747, 17, 0.00, 0.26, 98, -1.400, -0.100, -96.400, 2, 100, 99, 30, 24137, -19353, 5252, 5415, 15, 14, 1526317308.747, 125, 0, 1024, 1024, 1024, 1024, 0, 6, 3997, 4015, 4007, 4039, 4048, 4009, 0, 1, 11000, -89.900, 0.000, -95.400, 0.000, 0.000, -3.000, 0.0, , , , , , 97, , , 0, 0, 0
37.7783038, -120.1185299, 17.700, 10:01:48.848, 17, 0.00, 0.24, 98, -1.800, 0.000, -96.500, 2, 100, 99, 30, 24137, -19353, 5252, 5415, 15, 14, 1526317308.848, 21, 0, 1024, 1024, 1024, 1024, 0, 6, 3997, 4015, 4007, 4039, 4048, 4009, 0, 1, 11101, -89.900, 0.000, -95.400, 0.000, 0.000, -3.000, 0.0, , , , , , 97, , , 0, 0, 0
37.7783039, -120.1185300, 18.000, 10:01:48.948, 17, 0.00, 0.23, 98, -2.000, 0.000, -96.500, 2, 100, 99, 30, 24137, -19353, 5252, 5415, 15, 14, 1526317308.948, 23, 0, 1024, 1024, 1024, 1024, 0, 6, 3997, 4015, 4007, 4039, 4048, 4009, 0, 1, 11201, -89.900, 0.000, -95.400, 0.000, 0.000, -3.000, 0.0, , , , , , 97, , , 0, 0, 0
37.7783040, -120.1185300, 18.300, 10:01:49.058, 17, 0.00, 0.22, 98, -2.200, 0.000, -96.500, 2, 100, 98, 30, 24137, -19353, 5252, 5415, 15, 14, 1526317309.058, 5, 0, 1024, 1024, 1024, 1024, 0, 6, 3997, 4015, 4007, 4039, 4048, 4009, 0, 1, 11312, -89.900, 0.000, -95.400, 0.000, 0.000, -3.000, 0.0, , , , , , 97, , , 0, 0, 0
37.7783040, -120.1185301, 18.600, 10:01:49.151, 17, 0.00, 0.22, 98, -2.200, -0.300, -96.400, 2, 100, 98, 30, 24137, -19353, 5252, 5415, 15, 14, 1526317309.151, 4, 0, 1024, 1024, 1024, 1024, 0, 6, 3997, 4015, 4007, 4039, 4048, 4009, 0, 1, 11404, -89.900, 0.000, -95.300, 0.000, 0.000, -2.900, 0.0, , , , , , 97, , , 0, 0, 0
37.7783040, -120.1185301, 18.900, 10:01:49.248, 17, 0.00, 0.21, 98, -2.400, -0.500, -96.300, 2, 100, 98, 30, 24137, -19353, 5252, 5415, 15, 14, 1526317309.248, 6, 0, 1024, 1024, 1024, 1024, 0, 6, 3997, 4015, 4007, 4039, 4048, 4009, 0, 1, 11501, -89.900, 0.000, -95.300, 0.000, 0.000, -3.000, 0.0, , , , , , 97, , , 0, 0, 0
37.7783040, -120.1185301, 19.200, 10:01:49.351, 17, 0.00, 0.21, 98, -2.500, -0.600, -96.300, 2, 100, 98, 30, 24137, -19353, 5252, 5415, 15, 14, 1526317309.352, 11, 0, 1024, 1024, 1024, 1024, 0, 6, 3997, 4015, 4007, 4039, 4048, 4009, 0, 1, 11605, -89.900, 0.000, -95.400, 0.000, 0.000, -3.000, 0.0, , , , , , 97, , , 0, 0, 0
37.7783041, -120.1185301, 19.500, 10:01:49.449, 17, 0.00, 0.21, 97, -2.500, -0.500, -96.300, 2, 100, 98, 30, 24018, -20401, 5252, 5415, 15, 14, 1526317309.450, 7, 0, 1024, 1024, 1024, 1024, 0, 6, 3997, 4015, 4007, 4039, 4048, 4009, 0, 1, 11703, -89.900, 0.000, -95.400, 0.000, 0.000, -3.000, 0.0, , , , , , 97, , , 0, 0, 0
37.7783041, -120.1185301, 19.500, 10:01:49.547, 17, 0.00, 0.21, 97, -2.500, -0.500, -96.300, 2, 100, 98, 30, 24018, -20401, 5252, 5415, 15, 14, 1526317309.547, 104, 0, 1024, 1024, 1024, 1024, 0, 6, 3997, 4015, 4007, 4039, 4048, 4009, 0, 1, 11800, -89.900, 0.000, -95.400, 0.000, 0.000, -3.000, 0.0, , , , , , 97, , , 0, 0, 0
37.7783041, -120.1185301, 19.800, 10:01:49.647, 17, 0.00, 0.21, 97, -2.400, -0.700, -96.300, 2, 100, 98, 30, 24018, -20401, 5252, 5415, 15, 14, 1526317309.647, 98, 0, 1024, 1024, 1024, 1024, 0, 6, 3997, 4015, 4007, 4039, 4048, 4009, 0, 1, 11901, -89.900, 0.000, -95.400, 0.000, 0.000, -3.000, 0.0, , , , , , 97, , , 0, 0, 0
37.7783041, -120.1185300, 20.100, 10:01:49.748, 17, 0.00, 0.21, 97, -2.200, -1.200, -96.400, 2, 100, 98, 30, 24018, -20401, 5252, 5415, 15, 14, 1526317309.748, 70, 0, 1024, 1024, 1024, 1024, 0, 6, 3997, 4015, 4007, 4039, 4048, 4009, 0, 1, 12001, -89.900, 0.000, -95.400, 0.000, 0.000, -3.000, 0.0, , , , , , 97, , , 0, 0, 0
37.7783041, -120.1185299, 20.400, 10:01:49.848, 17, 0.00, 0.22, 97, -2.100, -1.500, -96.400, 2, 100, 98, 30, 24018, -20401, 5252, 5415, 15, 14, 1526317309.848, 53, 0, 1024, 1024, 1024, 1024, 0, 6, 3997, 4015, 4007, 4039, 4048, 4009, 0, 1, 12101, -90.000, 0.000, -95.300, 0.000, 0.000, -3.000, 0.0, , , , , , 97, , , 0, 0, 0
37.7783040, -120.1185299, 20.700, 10:01:49.948, 17, 0.00, 0.22, 97, -1.900, -1.700, -96.400, 2, 100, 98, 30, 24018, -20401, 5252, 5415, 15, 14, 1526317309.948, 70, 0, 1024, 1024, 1024, 1024, 0, 6, 3997, 4015, 4007, 4039, 4048, 4009, 0, 1, 12201, -90.000, 0.000, -95.400, 0.000, 0.000, -3.100, 0.0, , , , , , 97, , , 0, 0, 0
37.7783040, -120.1185298, 21.000, 10:01:50.048, 17, 0.00, 0.23, 97, -1.700, -1.900, -96.400, 2, 100, 98, 30, 24018, -20401, 5252, 5415, 15, 14, 1526317310.048, 71, 0, 1024, 1024, 1024, 1024, 0, 6, 3976, 4003, 3992, 4025, 4036, 3997, 0, 1, 12301, -90.000, 0.000, -95.400, 0.000, 0.000, -3.100, 0.0, , , , , , 97, , , 0, 0, 0
37.7783040, -120.1185298, 21.000, 10:01:50.148, 17, 0.00, 0.23, 97, -1.700, -1.900, -96.400, 2, 100, 98, 30, 24018, -20401, 5252, 5415, 15, 14, 1526317310.148, 172, 0, 1024, 1024, 1024, 1024, 0, 6, 3976, 4003, 3992, 4025, 4036, 3997, 0, 1, 12401, -90.000, 0.000, -95.400, 0.000, 0.000, -3.100, 0.0, , , , , , 97, , , 0, 0, 0
37.7783039, -120.1185297, 21.300, 10:01:50.247, 17, 0.00, 0.24, 97, -1.400, -1.900, -96.400, 2, 100, 99, 30, 24018, -20401, 5252, 5415, 15, 14, 1526317310.248, 57, 0, 1024, 1024, 1024, 1024, 0, 6, 3976, 4003, 3992, 4025, 4036, 3997, 0, 1, 12501, -89.900, 0.000, -95.400, 0.000, 0.000, -3.000, 0.0, , , , , , 97, , , 0, 0, 0
37.7783039, -120.1185296, 21.600, 10:01:50.348, 17, 0.00, 0.25, 97, -1.100, -1.900, -96.300, 2, 100, 99, 30, 24018, -20401, 5252, 5415, 15, 14, 1526317310.348, 54, 0, 1024, 1024, 1024, 1024, 0, 6, 3976, 4003, 3992, 4025, 4036, 3997, 0, 1, 12601, -89.900, 0.000, -95.400, 0.000, 0.000, -2.900, 0.0, , , , , , 97, , , 0, 0, 0
37.7783038, -120.1185296, 21.900, 10:01:50.448, 17, 0.00, 0.26, 97, -0.900, -1.800, -96.300, 2, 100, 99, 30, 24018, -20401, 5252, 5415, 15, 14, 1526317310.448, 31, 0, 1024, 1024, 1024, 1024, 0, 6, 3976, 4003, 3992, 4025, 4036, 3997, 0, 1, 12701, -89.900, 0.000, -95.300, 0.000, 0.000, -2.900, 0.0, , , , , , 97, , , 0, 0, 0
37.7783038, -120.1185295, 22.500, 10:01:50.548, 17, 0.00, 0.27, 97, -0.800, -1.600, -96.300, 2, 100, 99, 30, 24018, -20401, 5252, 5415, 15, 14, 1526317310.548, 53, 0, 1024, 1024, 1024, 1024, 0, 6, 3976, 4003, 3992, 4025, 4036, 3997, 0, 1, 12801, -89.900, 0.000, -95.400, 0.000, 0.000, -2.900, 0.0, , , , , , 97, , , 0, 0, 0
37.7783038, -120.1185295, 22.500, 10:01:50.647, 17, 0.00, 0.27, 97, -0.800, -1.600, -96.300, 2, 100, 99, 30, 24018, -20401, 5252, 5415, 15, 14, 1526317310.647, 152, 0, 1024, 1024, 1024, 1024, 0, 6, 3976, 4003, 3992, 4025, 4036, 3997, 0, 1, 12901, -89.900, 0.000, -95.400, 0.000, 0.000, -2.900, 0.0, , , , , , 97, , , 0, 0, 0
37.7783037, -120.1185294, 23.100, 10:01:50.747, 17, 0.00, 0.28, 97, -1.100, -1.700, -96.200, 2, 100, 99, 30, 24018, -20401, 5252, 5415, 15, 14, 1526317310.748, 13, 0, 1024, 1024, 1024, 1024, 0, 6, 3976, 4003, 3992, 4025, 4036, 3997, 0, 1, 13001, -90.000, 0.000, -95.400, 0.000, 0.000, -3.000, 0.0, , , , , , 97, , , 0, 0, 0
37.7783037, -120.1185294, 23.100, 10:01:50.847, 17, 0.00, 0.28, 97, -1.100, -1.700, -96.200, 2, 100, 99, 30, 24018, -20401, 5252, 5415, 15, 14, 1526317310.848, 114, 0, 1024, 1024, 1024, 1024, 0, 6, 3976, 4003, 3992, 4025, 4036, 3997, 0, 1, 13101, -90.000, 0.000, -95.400, 0.000, 0.000, -3.000, 0.0, , , , , , 97, , , 0, 0, 0
37.7783037, -120.1185294, 23.400, 10:01:50.947, 17, 0.00, 0.28, 97, -1.300, -1.800, -96.100, 2, 100, 99, 30, 24018, -20401, 5252, 5415, 15, 14, 1526317310.948, 69, 0, 1024, 1024, 1024, 1024, 0, 6, 3976, 4003, 3992, 4025, 4036, 3997, 0, 1, 13201, -90.000, 0.000, -95.400, 0.000, 0.000, -3.000, 0.0, , , , , , 97, , , 0, 0, 0
37.7783036, -120.1185293, 24.000, 10:01:51.048, 17, 0.00, 0.29, 97, -1.100, -1.800, -96.200, 2, 100, 99, 30, 24018, -20401, 5252, 5415, 15, 14, 1526317311.049, 3, 0, 1024, 1024, 1024, 1024, 0, 6, 3976, 4003, 3992, 4025, 4036, 3997, 0, 1, 13302, -89.900, 0.000, -95.300, 0.000, 0.000, -3.000, 0.0, , , , , , 97, , , 0, 0, 0
37.7783036, -120.1185293, 24.000, 10:01:51.148, 17, 0.00, 0.29, 97, -1.100, -1.800, -96.200, 2, 100, 99, 30, 24018, -20401, 5252, 5415, 15, 14, 1526317311.150, 105, 0, 1024, 1024, 1024, 1024, 0, 6, 3976, 4003, 3992, 4025, 4036, 3997, 0, 1, 13403, -89.900, 0.000, -95.300, 0.000, 0.000, -3.000, 0.0, , , , , , 97, , , 0, 0, 0
37.7783036, -120.1185292, 24.300, 10:01:51.260, 17, 0.00, 0.30, 97, -1.000, -1.800, -96.200, 2, 100, 99, 30, 23982, -20261, 5252, 5415, 15, 14, 1526317311.260, 13, 0, 1024, 1024, 1024, 1024, 0, 6, 3976, 4003, 3992, 4025, 4036, 3997, 0, 1, 13513, -90.000, 0.000, -95.300, 0.000, 0.000, -3.000, 0.0, , , , , , 97, , , 0, 0, 0
37.7783036, -120.1185292, 24.600, 10:01:51.347, 17, 0.00, 0.30, 97, -0.900, -1.800, -96.200, 2, 100, 99, 30, 23982, -20261, 5252, 5415, 15, 14, 1526317311.347, 36, 0, 1024, 1024, 1024, 1024, 0, 6, 3969, 3993, 3982, 4021, 4033, 3981, 0, 1, 13600, -89.900, 0.000, -95.400, 0.000, 0.000, -3.000, 0.0, , , , , , 97, , , 0, 0, 0
37.7783035, -120.1185291, 24.900, 10:01:51.448, 17, 0.00, 0.31, 97, -0.700, -1.700, -96.300, 2, 100, 99, 30, 23982, -20261, 5252, 5415, 15, 14, 1526317311.448, 20, 0, 1024, 1024, 1024, 1024, 0, 6, 3969, 3993, 3982, 4021, 4033, 3981, 0, 1, 13701, -89.900, 0.000, -95.400, 0.000, 0.000, -3.000, 0.0, , , , , , 97, , , 0, 0, 0
37.7783035, -120.1185291, 25.200, 10:01:51.548, 17, 0.00, 0.31, 97, -0.800, -1.700, -96.300, 2, 100, 99, 30, 23982, -20261, 5252, 5415, 15, 14, 1526317311.549, 31, 0, 1024, 1024, 1024, 1024, 0, 6, 3969, 3993, 3982, 4021, 4033, 3981, 0, 1, 13802, -89.900, 0.000, -95.400, 0.000, 0.000, -3.000, 0.0, , , , , , 97, , , 0, 0, 0
37.7783034, -120.1185291, 25.500, 10:01:51.649, 17, 0.00, 0.32, 97, -0.800, -1.800, -96.400, 2, 100, 99, 30, 23982, -20261, 5252, 5415, 15, 14, 1526317311.650, 4, 0, 1024, 1024, 1024, 1024, 0, 6, 3969, 3993, 3982, 4021, 4033, 3981, 0, 1, 13903, -89.900, 0.000, -95.400, 0.000, 0.000, -3.000, 0.0, , , , , , 97, , , 0, 0, 0
37.7783034, -120.1185291, 25.500, 10:01:51.748, 17, 0.00, 0.32, 97, -0.800, -1.800, -96.400, 2, 100, 99, 30, 23982, -20261, 5252, 5415, 15, 14, 1526317311.748, 102, 0, 1024, 1024, 1024, 1024, 0, 6, 3969, 3993, 3982, 4021, 4033, 3981, 0, 1, 14001, -89.900, 0.000, -95.400, 0.000, 0.000, -3.000, 0.0, , , , , , 97, , , 0, 0, 0
37.7783034, -120.1185290, 25.900, 10:01:51.848, 17, 0.00, 0.32, 97, -0.800, -1.900, -96.400, 2, 100, 99, 30, 23982, -20261, 5252, 5415, 15, 14, 1526317311.848, 78, 0, 1024, 1024, 1024, 1024, 0, 6, 3969, 3993, 3982, 4021, 4033, 3981, 0, 1, 14101, -89.900, 0.000, -95.300, 0.000, 0.000, -3.000, 0.0, , , , , , 97, , , 0, 0, 0
37.7783034, -120.1185290, 26.400, 10:01:51.948, 17, 0.00, 0.33, 97, -1.000, -1.900, -96.300, 2, 100, 99, 30, 23982, -20261, 5252, 5415, 15, 14, 1526317311.948, 36, 0, 1024, 1024, 1024, 1024, 0, 6, 3969, 3993, 3982, 4021, 4033, 3981, 0, 1, 14201, -89.900, 0.000, -95.400, 0.000, 0.000, -3.000, 0.0, , , , , , 97, , , 0, 0, 0
37.7783034, -120.1185290, 26.400, 10:01:52.047, 17, 0.00, 0.33, 97, -1.000, -1.900, -96.300, 2, 100, 99, 30, 23982, -20261, 5252, 5415, 15, 14, 1526317312.047, 135, 0, 1024, 1024, 1024, 1024, 0, 6, 3969, 3993, 3982, 4021, 4033, 3981, 0, 1, 14300, -89.900, 0.000, -95.400, 0.000, 0.000, -3.000, 0.0, , , , , , 97, , , 0, 0, 0
37.7783033, -120.1185290, 26.700, 10:01:52.148, 17, 0.00, 0.33, 97, -1.100, -1.700, -96.300, 2, 100, 99, 30, 23982, -20261, 5252, 5415, 15, 14, 1526317312.148, 86, 0, 1024, 1024, 1024, 1024, 0, 6, 3969, 3993, 3982, 4021, 4033, 3981, 0, 1, 14401, -89.900, 0.000, -95.400, 0.000, 0.000, -3.000, 0.0, , , , , , 97, , , 0, 0, 0
37.7783033, -120.1185290, 27.100, 10:01:52.248, 17, 0.00, 0.33, 97, -1.200, -1.600, -96.300, 2, 100, 99, 30, 23918, -20657, 5252, 5415, 15, 14, 1526317312.248, 33, 0, 1024, 1024, 1024, 1024, 0, 6, 3969, 3993, 3982, 4021, 4033, 3981, 0, 1, 14501, -89.900, 0.000, -95.400, 0.000, 0.000, -3.000, 0.0, , , , , , 97, , , 0, 0, 0
37.7783033, -120.1185291, 27.400, 10:01:52.348, 17, 0.00, 0.33, 97, -1.200, -1.400, -96.400, 2, 100, 99, 30, 23918, -20657, 5252, 5415, 15, 14, 1526317312.348, 39, 0, 1024, 1024, 1024, 1024, 0, 6, 3961, 3970, 3981, 4015, 4025, 3967, 0, 1, 14601, -89.900, 0.000, -95.400, 0.000, 0.000, -3.000, 0.0, , , , , , 97, , , 0, 0, 0
37.7783033, -120.1185291, 27.700, 10:01:52.448, 17, 0.00, 0.33, 97, -1.100, -1.400, -96.300, 2, 100, 99, 30, 23918, -20657, 5252, 5415, 15, 14, 1526317312.449, 7, 0, 1024, 1024, 1024, 1024, 0, 6, 3961, 3970, 3981, 4015, 4025, 3967, 0, 1, 14702, -89.900, 0.000, -95.400, 0.000, 0.000, -3.000, 0.0, , , , , , 97, , , 0, 0, 0
37.7783033, -120.1185291, 27.900, 10:01:52.548, 17, 0.00, 0.33, 97, -1.200, -1.400, -96.300, 2, 100, 99, 30, 23918, -20657, 5252, 5415, 15, 14, 1526317312.548, 32, 0, 1024, 1024, 1024, 1024, 0, 6, 3961, 3970, 3981, 4015, 4025, 3967, 0, 1, 14801, -89.900, 0.000, -95.400, 0.000, 0.000, -2.900, 0.0, , , , , , 97, , , 0, 0, 0
37.7783033, -120.1185291, 28.200, 10:01:52.647, 17, 0.00, 0.33, 97, -1.200, -1.500, -96.300, 2, 100, 99, 30, 23918, -20657, 5252, 5415, 15, 14, 1526317312.648, 85, 0, 1024, 1024, 1024, 1024, 0, 6, 3961, 3970, 3981, 4015, 4025, 3967, 0, 1, 14901, -89.900, 0.000, -95.400, 0.000, 0.000, -3.000, 0.0, , , , , , 97, , , 0, 0, 0
37.7783033, -120.1185291, 28.600, 10:01:52.748, 17, 0.00, 0.33, 97, -1.200, -1.600, -96.300, 2, 100, 99, 30, 23918, -20657, 5252, 5415, 15, 14, 1526317312.749, 12, 0, 1024, 1024, 1024, 1024, 0, 6, 3961, 3970, 3981, 4015, 4025, 3967, 0, 1, 15002, -89.900, 0.000, -95.400, 0.000, 0.000, -3.000, 0.0, , , , , , 97, , , 0, 0, 0
37.7783033, -120.1185291, 28.900, 10:01:52.848, 17, 0.00, 0.33, 97, -1.100, -1.400, -96.300, 2, 100, 99, 30, 23918, -20657, 5252, 5415, 15, 14, 1526317312.848, 36, 0, 1024, 1024, 1024, 1024, 0, 6, 3961, 3970, 3981, 4015, 4025, 3967, 0, 1, 15101, -89.900, 0.000, -95.300, 0.000, 0.000, -3.000, 0.0, , , , , , 97, , , 0, 0, 0
37.7783033, -120.1185291, 28.900, 10:01:52.948, 17, 0.00, 0.33, 97, -1.100, -1.400, -96.300, 2, 100, 99, 30, 23918, -20657, 5252, 5415, 15, 14, 1526317312.948, 136, 0, 1024, 1024, 1024, 1024, 0, 6, 3961, 3970, 3981, 4015, 4025, 3967, 0, 1, 15201, -89.900, 0.000, -95.300, 0.000, 0.000, -3.000, 0.0, , , , , , 97, , , 0, 0, 0
37.7783032, -120.1185291, 29.500, 10:01:53.048, 17, 0.00, 0.34, 97, -1.100, -1.200, -96.300, 2, 100, 99, 30, 23918, -20657, 5252, 5415, 15, 14, 1526317313.048, 57, 0, 1024, 1024, 1024, 1024, 0, 6, 3961, 3970, 3981, 4015, 4025, 3967, 0, 1, 15301, -89.900, 0.000, -95.400, 0.000, 0.000, -3.000, 0.0, , , , , , 97, , , 0, 0, 0
37.7783032, -120.1185290, 30.000, 10:01:53.147, 17, 0.00, 0.34, 97, -1.100, -1.500, -96.200, 2, 100, 99, 30, 23918, -20657, 5252, 5415, 15, 14, 1526317313.148, 34, 0, 1024, 1024, 1024, 1024, 0, 6, 3961, 3970, 3981, 4015, 4025, 3967, 0, 1, 15401, -90.000, 0.000, -95.400, 0.000, 0.000, -3.000, 0.0, , , , , , 97, , , 0, 0, 0
37.7783032, -120.1185290, 30.400, 10:01:53.248, 17, 0.00, 0.34, 97, -1.000, -1.900, -96.200, 2, 100, 99, 30, 23884, -20695, 5252, 5415, 15, 14, 1526317313.248, 26, 0, 1024, 1024, 1024, 1024, 0, 6, 3963, 3974, 3968, 3998, 4013, 3967, 0, 1, 15501, -90.000, 0.000, -95.400, 0.000, 0.000, -3.100, 0.0, , , , , , 97, , , 0, 0, 0
37.7783032, -120.1185290, 30.700, 10:01:53.348, 17, 0.00, 0.35, 97, -1.000, -2.100, -96.200, 2, 100, 99, 30, 23884, -20695, 5252, 5415, 15, 14, 1526317313.348, 48, 0, 1024, 1024, 1024, 1024, 0, 6, 3963, 3974, 3968, 3998, 4013, 3967, 0, 1, 15601, -90.000, 0.000, -95.300, 0.000, 0.000, -3.000, 0.0, , , , , , 97, , , 0, 0, 0
37.7783031, -120.1185289, 31.300, 10:01:53.448, 17, 0.00, 0.36, 97, -0.900, -2.100, -96.300, 2, 100, 99, 30, 23884, -20695, 5252, 5415, 15, 14, 1526317313.448, 64, 0, 1024, 1024, 1024, 1024, 0, 6, 3963, 3974, 3968, 3998, 4013, 3967, 0, 1, 15701, -89.900, 0.000, -95.400, 0.000, 0.000, -3.000, 0.0, , , , , , 97, , , 0, 0, 0
37.7783031, -120.1185289, 31.600, 10:01:53.548, 17, 0.00, 0.36, 97, -0.800, -1.900, -96.300, 2, 100, 99, 30, 23884, -20695, 5252, 5415, 15, 14, 1526317313.548, 52, 0, 1024, 1024, 1024, 1024, 0, 6, 3963, 3974, 3968, 3998, 4013, 3967, 0, 1, 15801, -89.900, 0.000, -95.400, 0.000, 0.000, -3.000, 0.0, , , , , , 97, , , 0, 0, 0
37.7783031, -120.1185289, 32.200, 10:01:53.648, 17, 0.00, 0.36, 97, -0.900, -1.900, -96.400, 2, 100, 97, 30, 23884, -20695, 5252, 5415, 15, 14, 1526317313.648, 23, 0, 1024, 1024, 1024, 1024, 0, 6, 3963, 3974, 3968, 3998, 4013, 3967, 0, 1, 15901, -89.900, 0.000, -95.400, 0.000, 0.000, -3.000, 0.0, , , , , , 97, , , 0, 0, 0
37.7783031, -120.1185290, 32.500, 10:01:53.748, 17, 0.00, 0.36, 97, -1.000, -1.900, -96.400, 2, 100, 97, 30, 23884, -20695, 5252, 5415, 15, 14, 1526317313.748, 18, 0, 1024, 1024, 1024, 1024, 0, 6, 3963, 3974, 3968, 3998, 4013, 3967, 0, 1, 16001, -89.900, 0.000, -95.400, 0.000, 0.000, -3.100, 0.0, , , , , , 97, , , 0, 0, 0
37.7783031, -120.1185290, 32.800, 10:01:53.848, 17, 0.00, 0.36, 97, -1.100, -1.900, -96.400, 2, 100, 97, 30, 23884, -20695, 5252, 5415, 15, 14, 1526317313.848, 19, 0, 1024, 1024, 1024, 1024, 0, 6, 3963, 3974, 3968, 3998, 4013, 3967, 0, 1, 16101, -89.900, 0.000, -95.400, 0.000, 0.000, -3.000, 0.0, , , , , , 97, , , 0, 0, 0
37.7783031, -120.1185290, 32.800, 10:01:53.948, 17, 0.00, 0.36, 97, -1.100, -1.900, -96.400, 2, 100, 97, 30, 23884, -20695, 5252, 5415, 15, 14, 1526317313.948, 119, 0, 1024, 1024, 1024, 1024, 0, 6, 3963, 3974, 3968, 3998, 4013, 3967, 0, 1, 16201, -89.900, 0.000, -95.400, 0.000, 0.000, -3.000, 0.0, , , , , , 97, , , 0, 0, 0
37.7783031, -120.1185290, 33.400, 10:01:54.049, 17, 0.00, 0.35, 97, -1.200, -1.600, -96.200, 2, 100, 97, 30, 23893, -20479, 5252, 5415, 15, 14, 1526317314.050, 8, 0, 1024, 1024, 1024, 1024, 0, 6, 3963, 3974, 3968, 3998, 4013, 3967, 0, 1, 16303, -89.900, 0.000, -95.400, 0.000, 0.000, -2.900, 0.0, , , , , , 97, , , 0, 0, 0
37.7783031, -120.1185290, 33.400, 10:01:54.148, 17, 0.00, 0.35, 97, -1.200, -1.600, -96.200, 2, 100, 97, 30, 23893, -20479, 5252, 5415, 15, 14, 1526317314.148, 107, 0, 1024, 1024, 1024, 1024, 0, 6, 3955, 3978, 3965, 4009, 4025, 3958, 0, 1, 16401, -89.900, 0.000, -95.400, 0.000, 0.000, -2.900, 0.0, , , , , , 97, , , 0, 0, 0
37.7783031, -120.1185290, 33.700, 10:01:54.248, 17, 0.00, 0.35, 97, -1.200, -1.700, -96.200, 2, 100, 97, 30, 23893, -20479, 5252, 5415, 15, 14, 1526317314.248, 75, 0, 1024, 1024, 1024, 1024, 0, 6, 3955, 3978, 3965, 4009, 4025, 3958, 0, 1, 16501, -89.900, 0.000, -95.400, 0.000, 0.000, -3.000, 0.0, , , , , , 97, , , 0, 0, 0
37.7783031, -120.1185290, 34.000, 10:01:54.348, 17, 0.00, 0.35, 97, -1.200, -1.800, -96.200, 2, 100, 97, 30, 23893, -20479, 5252, 5415, 15, 14, 1526317314.348, 97, 0, 1024, 1024, 1024, 1024, 0, 6, 3955, 3978, 3965, 4009, 4025, 3958, 0, 1, 16601, -89.900, 0.000, -95.400, 0.000, 0.000, -3.000, 0.0, , , , , , 97, , , 0, 0, 0
37.7783031, -120.1185290, 34.300, 10:01:54.448, 17, 0.00, 0.35, 97, -1.300, -1.800, -96.200, 2, 100, 97, 30, 23893, -20479, 5252, 5415, 15, 14, 1526317314.448, 50, 0, 1024, 1024, 1024, 1024, 0, 6, 3955, 3978, 3965, 4009, 4025, 3958, 0, 1, 16701, -89.900, 0.000, -95.400, 0.000, 0.000, -3.000, 0.0, , , , , , 97, , , 0, 0, 0
37.7783031, -120.1185290, 34.300, 10:01:54.547, 17, 0.00, 0.35, 97, -1.300, -1.800, -96.200, 2, 100, 97, 30, 23893, -20479, 5252, 5415, 15, 14, 1526317314.547, 150, 0, 1024, 1024, 1024, 1024, 0, 6, 3955, 3978, 3965, 4009, 4025, 3958, 0, 1, 16801, -89.900, 0.000, -95.400, 0.000, 0.000, -3.000, 0.0, , , , , , 97, , , 0, 0, 0
37.7783032, -120.1185290, 34.900, 10:01:54.648, 17, 0.00, 0.34, 97, -2.000, -1.800, -96.200, 2, 100, 94, 30, 23893, -20479, 5252, 5415, 15, 14, 1526317314.648, 67, 0, 1024, 1024, 1024, 1024, 0, 6, 3955, 3978, 3965, 4009, 4025, 3958, 0, 1, 16901, -89.900, 0.000, -95.400, 0.000, 0.000, -3.000, 0.0, , , , , , 97, , , 0, 0, 0
37.7783032, -120.1185291, 35.200, 10:01:54.747, 17, 0.00, 0.34, 97, -2.300, -1.500, -96.300, 2, 100, 94, 30, 23893, -20479, 5252, 5415, 15, 14, 1526317314.748, 57, 0, 1024, 1024, 1024, 1024, 0, 6, 3955, 3978, 3965, 4009, 4025, 3958, 0, 1, 17001, -89.900, 0.000, -95.400, 0.000, 0.000, -3.000, 0.0, , , , , , 97, , , 0, 0, 0
37.7783033, -120.1185291, 35.500, 10:01:54.848, 17, 0.00, 0.33, 97, -2.400, -1.300, -96.400, 2, 100, 94, 30, 23893, -20479, 5252, 5415, 15, 14, 1526317314.848, 82, 0, 1024, 1024, 1024, 1024, 0, 6, 3955, 3978, 3965, 4009, 4025, 3958, 0, 1, 17101, -89.900, 0.000, -95.400, 0.000, 0.000, -2.900, 0.0, , , , , , 97, , , 0, 0, 0
37.7783033, -120.1185291, 35.800, 10:01:54.947, 17, 0.00, 0.33, 97, -2.200, -1.300, -96.400, 2, 100, 94, 30, 23893, -20479, 5252, 5415, 15, 14, 1526317314.948, 72, 0, 1024, 1024, 1024, 1024, 0, 6, 3955, 3978, 3965, 4009, 4025, 3958, 0, 1, 17201, -89.900, 0.000, -95.400, 0.000, 0.000, -2.900, 0.0, , , , , , 97, , , 0, 0, 0
37.7783034, -120.1185291, 36.100, 10:01:55.047, 17, 0.00, 0.32, 97, -2.000, -1.600, -96.300, 2, 100, 94, 30, 23941, -19616, 5252, 5415, 15, 14, 1526317315.048, 47, 0, 1024, 1024, 1024, 1024, 0, 6, 3955, 3978, 3965, 4009, 4025, 3958, 0, 1, 17301, -89.900, 0.000, -95.400, 0.000, 0.000, -2.900, 0.0, , , , , , 97, , , 0, 0, 0
37.7783034, -120.1185290, 36.400, 10:01:55.147, 17, 0.00, 0.32, 97, -1.800, -1.800, -96.300, 2, 100, 92, 30, 23941, -19616, 5252, 5415, 15, 14, 1526317315.148, 52, 0, 1024, 1024, 1024, 1024, 0, 6, 3955, 3978, 3965, 4009, 4025, 3958, 0, 1, 17401, -90.000, 0.000, -95.400, 0.000, 0.000, -2.800, 0.0, , , , , , 97, , , 0, 0, 0
37.7783034, -120.1185290, 36.700, 10:01:55.247, 17, 0.00, 0.33, 97, -1.600, -1.900, -96.300, 2, 100, 92, 30, 23941, -19616, 5252, 5415, 15, 14, 1526317315.247, 49, 0, 1024, 1024, 1024, 1024, 0, 6, 3955, 3978, 3965, 4009, 4025, 3958, 0, 1, 17500, -90.000, 0.000, -95.400, 0.000, 0.000, -2.900, 0.0, , , , , , 97, , , 0, 0, 0
37.7783034, -120.1185289, 37.300, 10:01:55.348, 17, 0.00, 0.33, 97, -1.600, -2.100, -96.200, 2, 100, 92, 30, 23941, -19616, 5252, 5415, 15, 14, 1526317315.348, 21, 0, 1024, 1024, 1024, 1024, 0, 6, 3955, 3978, 3965, 4009, 4025, 3958, 0, 1, 17601, -90.000, 0.000, -95.300, 0.000, 0.000, -3.000, 0.0, , , , , , 97, , , 0, 0, 0
37.7783034, -120.1185289, 37.300, 10:01:55.447, 17, 0.00, 0.33, 97, -1.600, -2.100, -96.200, 2, 100, 92, 30, 23941, -19616, 5252, 5415, 15, 14, 1526317315.449, 122, 0, 1024, 1024, 1024, 1024, 0, 6, 3955, 3978, 3965, 4009, 4025, 3958, 0, 1, 17702, -90.000, 0.000, -95.400, 0.000, 0.000, -3.000, 0.0, , , , , , 97, , , 0, 0, 0
37.7783034, -120.1185289, 37.600, 10:01:55.547, 17, 0.00, 0.33, 97, -1.800, -2.200, -96.100, 2, 100, 92, 30, 23941, -19616, 5252, 5415, 15, 14, 1526317315.547, 28, 0, 1024, 1024, 1024, 1024, 0, 6, 3960, 3979, 3971, 4023, 4019, 3971, 0, 1, 17800, -90.000, 0.000, -95.400, 0.000, 0.000, -3.000, 0.0, , , , , , 97, , , 0, 0, 0
37.7783035, -120.1185288, 38.200, 10:01:55.647, 17, 0.00, 0.33, 97, -1.900, -2.200, -96.200, 2, 100, 91, 30, 23941, -19616, 5252, 5415, 15, 14, 1526317315.648, 30, 0, 1024, 1024, 1024, 1024, 0, 6, 3960, 3979, 3971, 4023, 4019, 3971, 0, 1, 17901, -90.000, 0.000, -95.300, 0.000, 0.000, -3.000, 0.0, , , , , , 97, , , 0, 0, 0
37.7783035, -120.1185288, 38.500, 10:01:55.747, 17, 0.00, 0.33, 97, -1.800, -2.300, -96.200, 2, 100, 91, 30, 23941, -19616, 5252, 5415, 15, 14, 1526317315.748, 31, 0, 1024, 1024, 1024, 1024, 0, 6, 3960, 3979, 3971, 4023, 4019, 3971, 0, 1, 18001, -90.000, 0.000, -95.400, 0.000, 0.000, -3.000, 0.0, , , , , , 97, , , 0, 0, 0
37.7783035, -120.1185288, 38.800, 10:01:55.847, 17, 0.00, 0.33, 97, -1.900, -2.600, -96.200, 2, 100, 91, 30, 23941, -19616, 5252, 5415, 15, 14, 1526317315.847, 34, 0, 1024, 1024, 1024, 1024, 0, 6, 3960, 3979, 3971, 4023, 4019, 3971, 0, 1, 18100, -90.000, 0.000, -95.400, 0.000, 0.000, -3.000, 0.0, , , , , , 97, , , 0, 0, 0
37.7783035, -120.1185288, 39.100, 10:01:55.948, 17, 0.00, 0.33, 97, -2.100, -2.500, -96.300, 2, 100, 91, 30, 23941, -19616, 5252, 5415, 15, 14, 1526317315.948, 28, 0, 1024, 1024, 1024, 1024, 0, 6, 3960, 3979, 3971, 4023, 4019, 3971, 0, 1, 18201, -89.900, 0.000, -95.400, 0.000, 0.000, -3.000, 0.0, , , , , , 97, , , 0, 0, 0
37.7783035, -120.1185288, 39.100, 10:01:56.048, 17, 0.00, 0.33, 97, -2.100, -2.500, -96.300, 2, 100, 91, 30, 23941, -19616, 5252, 5415, 15, 14, 1526317316.048, 128, 0, 1024, 1024, 1024, 1024, 0, 6, 3960, 3979, 3971, 4023, 4019, 3971, 0, 1, 18301, -89.900, 0.000, -95.400, 0.000, 0.000, -3.000, 0.0, , , , , , 97, , , 0, 0, 0
37.7783035, -120.1185288, 39.400, 10:01:56.147, 17, 0.00, 0.33, 97, -2.300, -2.400, -96.300, 2, 100, 91, 30, 23941, -19616, 5252, 5415, 15, 14, 1526317316.147, 96, 0, 1024, 1024, 1024, 1024, 0, 6, 3960, 3979, 3971, 4023, 4019, 3971, 0, 1, 18400, -89.900, 0.000, -95.400, 0.000, 0.000, -3.000, 0.0, , , , , , 97, , , 0, 0, 0
37.7783036, -120.1185287, 40.000, 10:01:56.265, 17, 0.00, 0.33, 97, -2.300, -2.600, -96.300, 2, 100, 98, 30, 23941, -19616, 5252, 5415, 15, 14, 1526317316.266, 5, 0, 1024, 1024, 1024, 1024, 0, 6, 3960, 3979, 3971, 4023, 4019, 3971, 0, 1, 18519, -90.000, 0.000, -95.400, 0.000, 0.000, -3.000, 0.0, , , , , , 97, , , 0, 0, 0
37.7783036, -120.1185287, 40.300, 10:01:56.353, 17, 0.00, 0.33, 97, -2.100, -2.600, -96.300, 2, 100, 98, 30, 23941, -19616, 5252, 5415, 15, 14, 1526317316.353, 12, 0, 1024, 1024, 1024, 1024, 0, 6, 3960, 3979, 3971, 4023, 4019, 3971, 0, 1, 18606, -89.900, 0.000, -95.400, 0.000, 0.000, -3.000, 0.0, , , , , , 97, , , 0, 0, 0
37.7783036, -120.1185287, 40.300, 10:01:56.447, 17, 0.00, 0.33, 97, -2.100, -2.600, -96.300, 2, 100, 98, 30, 23941, -19616, 5252, 5415, 15, 14, 1526317316.448, 106, 0, 1024, 1024, 1024, 1024, 0, 6, 3960, 3979, 3971, 4023, 4019, 3971, 0, 1, 18701, -89.900, 0.000, -95.400, 0.000, 0.000, -3.000, 0.0, , , , , , 97, , , 0, 0, 0
37.7783036, -120.1185286, 41.000, 10:01:56.553, 17, 0.00, 0.33, 97, -2.000, -2.300, -96.300, 2, 100, 97, 30, 23920, -19544, 5252, 5415, 15, 14, 1526317316.554, 12, 0, 1024, 1024, 1024, 1024, 0, 6, 3960, 3979, 3971, 4023, 4019, 3971, 0, 1, 18807, -90.000, 0.000, -95.400, 0.000, 0.000, -2.900, 0.0, , , , , , 97, , , 0, 0, 0
37.7783036, -120.1185286, 41.000, 10:01:56.648, 17, 0.00, 0.33, 97, -2.000, -2.300, -96.300, 2, 100, 97, 30, 23920, -19544, 5252, 5415, 15, 14, 1526317316.648, 106, 0, 1024, 1024, 1024, 1024, 0, 6, 3952, 3984, 3970, 4008, 4013, 3972, 0, 1, 18901, -90.000, 0.000, -95.400, 0.000, 0.000, -2.900, 0.0, , , , , , 97, , , 0, 0, 0
37.7783036, -120.1185286, 41.300, 10:01:56.748, 17, 0.00, 0.33, 97, -2.400, -2.500, -96.200, 2, 100, 97, 30, 23920, -19544, 5252, 5415, 15, 14, 1526317316.748, 90, 0, 1024, 1024, 1024, 1024, 0, 6, 3952, 3984, 3970, 4008, 4013, 3972, 0, 1, 19001, -90.000, 0.000, -95.400, 0.000, 0.000, -2.900, 0.0, , , , , , 97, , , 0, 0, 0
37.7783037, -120.1185286, 41.600, 10:01:56.848, 17, 0.00, 0.33, 97, -2.600, -2.600, -96.100, 2, 100, 97, 30, 23920, -19544, 5252, 5415, 15, 14, 1526317316.848, 78, 0, 1024, 1024, 1024, 1024, 0, 6, 3952, 3984, 3970, 4008, 4013, 3972, 0, 1, 19101, -89.900, 0.000, -95.400, 0.000, 0.000, -2.900, 0.0, , , , , , 97, , , 0, 0, 0
37.7783037, -120.1185286, 41.900, 10:01:56.948, 17, 0.00, 0.33, 97, -2.200, -2.700, -96.100, 2, 100, 97, 30, 23920, -19544, 5252, 5415, 15, 14, 1526317316.948, 73, 0, 1024, 1024, 1024, 1024, 0, 6, 3952, 3984, 3970, 4008, 4013, 3972, 0, 1, 19201, -89.900, 0.000, -95.400, 0.000, 0.000, -2.900, 0.0, , , , , , 97, , , 0, 0, 0
37.7783037, -120.1185285, 42.200, 10:01:57.047, 17, 0.00, 0.33, 97, -2.300, -2.600, -96.100, 2, 100, 97, 30, 23920, -19544, 5252, 5415, 15, 14, 1526317317.048, 86, 0, 1024, 1024, 1024, 1024, 0, 6, 3952, 3984, 3970, 4008, 4013, 3972, 0, 1, 19301, -89.900, 0.000, -95.400, 0.000, 0.000, -2.900, 0.0, , , , , , 97, , , 0, 0, 0
37.7783037, -120.1185285, 42.400, 10:01:57.147, 17, 0.00, 0.33, 97, -2.200, -2.700, -96.100, 2, 100, 97, 30, 23920, -19544, 5252, 5415, 15, 14, 1526317317.148, 73, 0, 1024, 1024, 1024, 1024, 0, 6, 3952, 3984, 3970, 4008, 4013, 3972, 0, 1, 19401, -90.000, 0.000, -95.400, 0.000, 0.000, -2.900, 0.0, , , , , , 97, , , 0, 0, 0
37.7783037, -120.1185286, 42.700, 10:01:57.247, 17, 0.00, 0.33, 97, -2.200, -2.700, -96.200, 2, 100, 97, 30, 23920, -19544, 5252, 5415, 15, 14, 1526317317.247, 53, 0, 1024, 1024, 1024, 1024, 0, 6, 3952, 3984, 3970, 4008, 4013, 3972, 0, 1, 19500, -89.900, 0.000, -95.400, 0.000, 0.000, -2.900, 0.0, , , , , , 97, , , 0, 0, 0
37.7783037, -120.1185286, 43.000, 10:01:57.348, 17, 0.00, 0.33, 97, -2.000, -2.500, -96.300, 2, 100, 97, 30, 23920, -19544, 5252, 5415, 15, 14, 1526317317.348, 40, 0, 1024, 1024, 1024, 1024, 0, 6, 3952, 3984, 3970, 4008, 4013, 3972, 0, 1, 19601, -89.900, 0.000, -95.400, 0.000, 0.000, -2.800, 0.0, , , , , , 97, , , 0, 0, 0
37.7783037, -120.1185286, 43.300, 10:01:57.447, 17, 0.00, 0.33, 97, -1.700, -2.300, -96.400, 2, 100, 97, 30, 23920, -19544, 5252, 5415, 15, 14, 1526317317.447, 68, 0, 1024, 1024, 1024, 1024, 0, 6, 3952, 3984, 3970, 4008, 4013, 3972, 0, 1, 19700, -89.900, 0.000, -95.400, 0.000, 0.000, -2.900, 0.0, , , , , , 97, , , 0, 0, 0
37.7783036, -120.1185287, 43.600, 10:01:57.548, 17, 0.00, 0.33, 97, -1.100, -2.200, -96.500, 2, 100, 97, 30, 23896, -19309, 5252, 5415, 15, 14, 1526317317.549, 81, 0, 1024, 1024, 1024, 1024, 0, 6, 3952, 3984, 3970, 4008, 4013, 3972, 0, 1, 19802, -89.900, 0.000, -95.400, 0.000, 0.000, -2.900, 0.0, , , , , , 97, , , 0, 0, 0
37.7783036, -120.1185287, 43.900, 10:01:57.647, 17, 0.00, 0.33, 97, -0.900, -2.100, -96.600, 2, 100, 96, 30, 23896, -19309, 5252, 5415, 15, 14, 1526317317.647, 38, 0, 1024, 1024, 1024, 1024, 0, 6, 3952, 3984, 3970, 4008, 4013, 3972, 0, 1, 19901, -89.900, 0.000, -95.400, 0.000, 0.000, -2.900, 0.0, , , , , , 97, , , 0, 0, 0
37.7783035, -120.1185288, 44.200, 10:01:57.748, 17, 0.00, 0.33, 97, -1.100, -2.100, -96.600, 2, 100, 96, 30, 23896, -19309, 5252, 5415, 15, 14, 1526317317.748, 52, 0, 1024, 1024, 1024, 1024, 0, 6, 3951, 3968, 3977, 4020, 4018, 3975, 0, 1, 20001, -89.900, 0.000, -95.400, 0.000, 0.000, -2.900, 0.0, , , , , , 97, , , 0, 0, 0
37.7783035, -120.1185289, 44.500, 10:01:57.848, 17, 0.00, 0.32, 97, -1.500, -2.100, -96.600, 2, 100, 96, 30, 23896, -19309, 5252, 5415, 15, 14, 1526317317.848, 36, 0, 1024, 1024, 1024, 1024, 0, 6, 3951, 3968, 3977, 4020, 4018, 3975, 0, 1, 20101, -89.900, 0.000, -95.400, 0.000, 0.000, -2.900, 0.0, , , , , , 97, , , 0, 0, 0
37.7783035, -120.1185290, 45.100, 10:01:57.948, 17, 0.00, 0.32, 97, -1.700, -1.800, -96.400, 2, 100, 96, 30, 23896, -19309, 5252, 5415, 15, 14, 1526317317.948, 49, 0, 1024, 1024, 1024, 1024, 0, 6, 3951, 3968, 3977, 4020, 4018, 3975, 0, 1, 20201, -89.900, 0.000, -95.400, 0.000, 0.000, -3.000, 0.0, , , , , , 97, , , 0, 0, 0
37.7783035, -120.1185291, 45.400, 10:01:58.048, 17, 0.00, 0.31, 97, -1.600, -1.600, -96.400, 2, 100, 96, 30, 23896, -19309, 5252, 5415, 15, 14, 1526317318.048, 43, 0, 1024, 1024, 1024, 1024, 0, 6, 3951, 3968, 3977, 4020, 4018, 3975, 0, 1, 20301, -89.900, 0.000, -95.400, 0.000, 0.000, -3.000, 0.0, , , , , , 97, , , 0, 0, 0
37.7783035, -120.1185291, 45.400, 10:01:58.148, 17, 0.00, 0.31, 97, -1.600, -1.600, -96.400, 2, 100, 96, 30, 23896, -19309, 5252, 5415, 15, 14, 1526317318.148, 143, 0, 1024, 1024, 1024, 1024, 0, 6, 3951, 3968, 3977, 4020, 4018, 3975, 0, 1, 20401, -89.900, 0.000, -95.400, 0.000, 0.000, -3.000, 0.0, , , , , , 97, , , 0, 0, 0
37.7783034, -120.1185292, 46.000, 10:01:58.247, 17, 0.00, 0.31, 97, -1.600, -1.900, -96.200, 2, 100, 96, 30, 23896, -19309, 5252, 5415, 15, 14, 1526317318.248, 13, 0, 1024, 1024, 1024, 1024, 0, 6, 3951, 3968, 3977, 4020, 4018, 3975, 0, 1, 20501, -89.900, 0.000, -95.400, 0.000, 0.000, -3.000, 0.0, , , , , , 97, , , 0, 0, 0
37.7783034, -120.1185292, 46.300, 10:01:58.348, 17, 0.00, 0.31, 97, -1.300, -1.800, -96.100, 2, 100, 96, 30, 23896, -19309, 5252, 5415, 15, 14, 1526317318.348, 18, 0, 1024, 1024, 1024, 1024, 0, 6, 3951, 3968, 3977, 4020, 4018, 3975, 0, 1, 20601, -89.900, 0.000, -95.400, 0.000, 0.000, -2.900, 0.0, , , , , , 97, , , 0, 0, 0
37.7783034, -120.1185292, 46.600, 10:01:58.447, 17, 0.00, 0.31, 97, -1.300, -1.500, -96.100, 2, 100, 96, 30, 23896, -19309, 5252, 5415, 15, 14, 1526317318.448, 12, 0, 1024, 1024, 1024, 1024, 0, 6, 3951, 3968, 3977, 4020, 4018, 3975, 0, 1, 20701, -89.900, 0.000, -95.400, 0.000, 0.000, -3.000, 0.0, , , , , , 97, , , 0, 0, 0
37.7783034, -120.1185292, 46.600, 10:01:58.548, 17, 0.00, 0.31, 97, -1.300, -1.500, -96.100, 2, 100, 96, 30, 23896, -19309, 5252, 5415, 15, 14, 1526317318.548, 112, 0, 1024, 1024, 1024, 1024, 0, 6, 3951, 3968, 3977, 4020, 4018, 3975, 0, 1, 20801, -89.900, 0.000, -95.400, 0.000, 0.000, -3.000, 0.0, , , , , , 97, , , 0, 0, 0
37.7783035, -120.1185293, 47.200, 10:01:58.655, 17, 0.00, 0.30, 97, -1.700, -1.400, -96.200, 2, 100, 97, 31, 23833, -20621, 5198, 5415, 15, 14, 1526317318.655, 11, 0, 1024, 1024, 1024, 1024, 0, 6, 3939, 3951, 3953, 3992, 3995, 3958, 0, 1, 20909, -89.900, 0.000, -95.400, 0.000, 0.000, -2.900, 0.0, , , , , , 97, , , 0, 0, 0
37.7783035, -120.1185294, 47.500, 10:01:58.748, 17, 0.00, 0.30, 97, -1.800, -1.400, -96.200, 2, 100, 97, 31, 23833, -20621, 5198, 5415, 15, 14, 1526317318.748, 28, 0, 1024, 1024, 1024, 1024, 0, 6, 3939, 3951, 3953, 3992, 3995, 3958, 0, 1, 21001, -89.900, 0.000, -95.400, 0.000, 0.000, -2.800, 0.0, , , , , , 97, , , 0, 0, 0
