Latitude, Longitude, Altitude (m), Time, Sats, Speed (m/s), Range (m), Battery (%), Roll (deg), Pitch (deg), Yaw (deg), Images, HD Signal (%), RC Signal (%), Battery Temp (C), Battery Voltage (mV), Battery Current (mA), Battery Energy (mAh), Battery Capacity (mAh), Battery Discharges, flyState, timestamp (Unix), LastUpdate (ms), radioChannel, Rc_elevator, Rc_aileron, Rc_throttle, Rc_rudder, Rc_gyro, Dronetype, Battery_Cell1 (mV), Battery_Cell2 (mV), Battery_Cell3 (mV), Battery_Cell4 (mV), Battery_Cell5 (mV), Battery_Cell6 (mV), Video, isFlying, elapsedTime (ms), gimbalPitch (deg), gimbalRoll (deg), gimbalYaw (deg), VelocityX (m/s), VelocityY (m/s), VelocityZ (m/s), GroundSmear (cm), App Version, Aircraft Name, Aircraft Firmware, Aircraft Serial Number, Battery Serial Number, Battery Lifetime (%), App_Tip, App_Warning, CurrentFlightStartingIndex, CurrentFlightLastVisitedWaypoint, PreviousFlightEndingWaypointIndex
37.7782969, -120.1185189, 0.000, 10:58:41.968, 19, 0.00, 0.03, 98, 0.300, 2.500, -91.500, 2, 100, 100, 23, 25694, -3925, 5306, 5415, 15, 11, 1526320721.969, 130, 0, 1024, 1024, 1024, 1024, 0, 6, 4297, 4299, 4287, 4288, 4299, 4299, 0, 1, 3106, -89.900, 0.000, -91.500, 0.000, 0.000, -0.100, 0.0, MapPilot_2.8.1_04242018, Dendroctonus I, 1.3.1.00, 041DDC1887, 1058171200140, 97, DJI_0727.jpg, Starting Mission from Lat/Long: 37.77831/-120.11853 Camera: Zenmuse X3 - Overlap: 90/90 - Active Connection: No, 0, 0, 0
37.7782969, -120.1185189, 0.000, 10:58:42.063, 19, 0.00, 0.03, 98, 0.300, 2.500, -91.500, 2, 100, 100, 23, 25694, -3925, 5306, 5415, 15, 11, 1526320722.063, 224, 0, 1024, 1024, 1024, 1024, 0, 6, 4297, 4299, 4287, 4288, 4299, 4299, 0, 1, 3201, -89.900, 0.000, -91.500, 0.000, 0.000, -0.100, 0.0, , , , , , 97, , , 0, 0, 0
37.7782969, -120.1185189, 0.000, 10:58:42.164, 19, 0.00, 0.03, 98, 0.300, 2.500, -91.500, 2, 100, 100, 23, 25694, -3925, 5306, 5415, 15, 11, 1526320722.165, 326, 0, 1024, 1024, 1024, 1024, 0, 6, 4297, 4299, 4287, 4288, 4299, 4299, 0, 1, 3302, -89.900, 0.000, -91.500, 0.000, 0.000, -0.100, 0.0, , , , , , 97, , , 0, 0, 0
37.7782970, -120.1185187, 0.000, 10:58:42.273, 19, 0.10, 0.01, 98, 0.400, 1.100, -91.000, 2, 100, 100, 23, 25694, -3925, 5306, 5415, 15, 11, 1526320722.274, 6, 0, 1024, 1024, 1024, 1024, 0, 6, 4297, 4299, 4287, 4288, 4299, 4299, 0, 1, 3412, -90.000, 0.000, -91.400, 0.000, 0.100, -0.300, 0.0, , , , , , 97, , , 0, 0, 0
37.7782970, -120.1185186, 0.100, 10:58:42.363, 19, 0.10, 0.00, 98, 0.100, 0.100, -91.100, 2, 100, 100, 23, 25694, -3925, 5306, 5415, 15, 11, 1526320722.364, 15, 0, 1024, 1024, 1024, 1024, 0, 6, 4297, 4299, 4287, 4288, 4299, 4299, 0, 1, 3502, -90.000, 0.000, -91.500, 0.000, 0.100, -0.300, 0.0, , , , , , 97, , , 0, 0, 0
37.7782970, -120.1185186, 0.100, 10:58:42.464, 19, 0.10, 0.00, 98, 0.100, 0.100, -91.100, 2, 100, 100, 23, 25694, -3925, 5306, 5415, 15, 11, 1526320722.464, 115, 0, 1024, 1024, 1024, 1024, 0, 6, 4297, 4299, 4287, 4288, 4299, 4299, 0, 1, 3602, -90.000, 0.000, -91.500, 0.000, 0.100, -0.300, 0.0, , , , , , 97, , , 0, 0, 0
37.7782972, -120.1185184, 0.100, 10:58:42.563, 19, 0.10, 0.03, 98, 0.100, -0.600, -91.300, 2, 100, 100, 23, 25694, -3925, 5306, 5415, 15, 11, 1526320722.564, 61, 0, 1024, 1024, 1024, 1024, 0, 6, 4297, 4299, 4287, 4288, 4299, 4299, 0, 1, 3701, -90.000, 0.000, -91.400, 0.100, 0.000, -0.300, 0.0, , , , , , 97, , , 0, 0, 0
37.7782975, -120.1185182, 0.200, 10:58:42.663, 19, 0.10, 0.07, 98, -0.900, -0.900, -91.300, 2, 100, 100, 23, 25694, -3925, 5306, 5415, 15, 11, 1526320722.663, 14, 0, 1024, 1024, 1024, 1024, 0, 6, 4297, 4299, 4287, 4288, 4299, 4299, 0, 1, 3801, -90.000, 0.000, -91.500, 0.100, 0.000, -0.400, 0.0, , , , , , 97, , , 0, 0, 0
37.7782975, -120.1185182, 0.200, 10:58:42.763, 19, 0.10, 0.07, 98, -0.900, -0.900, -91.300, 2, 100, 100, 23, 25694, -3925, 5306, 5415, 15, 11, 1526320722.764, 115, 0, 1024, 1024, 1024, 1024, 0, 6, 4297, 4299, 4287, 4288, 4299, 4299, 0, 1, 3902, -90.000, 0.000, -91.500, 0.100, 0.000, -0.400, 0.0, , , , , , 97, , , 0, 0, 0
37.7782979, -120.1185181, 0.300, 10:58:42.863, 19, 0.10, 0.10, 98, -1.900, -0.400, -91.500, 2, 100, 100, 23, 25694, -3925, 5306, 5415, 15, 11, 1526320722.864, 48, 0, 1024, 1024, 1024, 1024, 0, 6, 4297, 4299, 4287, 4288, 4299, 4299, 0, 1, 4001, -90.000, 0.000, -91.500, 0.100, 0.000, -0.400, 0.0, , , , , , 97, , , 0, 0, 0
37.7782980, -120.1185182, 0.400, 10:58:42.982, 19, 0.10, 0.11, 98, -2.100, -0.300, -91.500, 2, 100, 100, 23, 25694, -3925, 5306, 5415, 15, 11, 1526320722.982, 31, 0, 1024, 1024, 1024, 1024, 0, 6, 4297, 4299, 4287, 4288, 4299, 4299, 0, 1, 4120, -89.900, 0.000, -91.400, 0.100, 0.000, -0.400, 0.0, , , , , , 97, , , 0, 0, 0
37.7782980, -120.1185182, 0.400, 10:58:43.065, 19, 0.10, 0.11, 98, -2.100, -0.300, -91.500, 2, 100, 100, 23, 25694, -3925, 5306, 5415, 15, 11, 1526320723.065, 114, 0, 1024, 1024, 1024, 1024, 0, 6, 4297, 4299, 4287, 4288, 4299, 4299, 0, 1, 4203, -89.900, 0.000, -91.400, 0.100, 0.000, -0.400, 0.0, , , , , , 97, , , 0, 0, 0
37.7782981, -120.1185182, 0.400, 10:58:43.164, 18, 0.10, 0.13, 98, -2.300, -0.300, -91.600, 2, 100, 100, 23, 25694, -3925, 5306, 5415, 15, 11, 1526320723.165, 64, 0, 1024, 1024, 1024, 1024, 0, 6, 4297, 4299, 4287, 4288, 4299, 4299, 0, 1, 4302, -90.000, 0.000, -91.500, 0.100, 0.000, -0.500, 0.0, , , , , , 97, , , 0, 0, 0
37.7782982, -120.1185182, 0.500, 10:58:43.263, 18, 0.00, 0.14, 98, -2.200, -0.400, -91.600, 2, 100, 100, 23, 25694, -3925, 5306, 5415, 15, 11, 1526320723.264, 35, 0, 1024, 1024, 1024, 1024, 0, 6, 4297, 4299, 4287, 4288, 4299, 4299, 0, 1, 4402, -90.000, 0.000, -91.500, 0.000, 0.000, -0.500, 0.0, , , , , , 97, , , 0, 0, 0
37.7782983, -120.1185183, 0.600, 10:58:43.366, 18, 0.00, 0.15, 98, -2.300, -0.400, -91.800, 2, 100, 100, 23, 25201, -7671, 5306, 5415, 15, 11, 1526320723.367, 19, 0, 1024, 1024, 1024, 1024, 0, 6, 4297, 4299, 4287, 4288, 4299, 4299, 0, 1, 4504, -90.000, 0.000, -91.500, 0.000, 0.000, -0.500, 0.0, , , , , , 97, , , 0, 0, 0
37.7782983, -120.1185183, 0.600, 10:58:43.465, 18, 0.00, 0.15, 98, -2.300, -0.400, -91.800, 2, 100, 100, 23, 25201, -7671, 5306, 5415, 15, 11, 1526320723.466, 118, 0, 1024, 1024, 1024, 1024, 0, 6, 4135, 4137, 4161, 4168, 4139, 4176, 0, 1, 4603, -90.000, 0.000, -91.500, 0.000, 0.000, -0.500, 0.0, , , , , , 97, , , 0, 0, 0
37.7782983, -120.1185183, 0.700, 10:58:43.566, 19, 0.00, 0.15, 98, -2.200, -0.300, -91.900, 2, 100, 100, 23, 25201, -7671, 5306, 5415, 15, 11, 1526320723.567, 35, 0, 1024, 1024, 1024, 1024, 0, 6, 4135, 4137, 4161, 4168, 4139, 4176, 0, 1, 4704, -90.000, 0.000, -91.500, 0.000, 0.000, -0.400, 0.0, , , , , , 97, , , 0, 0, 0
37.7782983, -120.1185185, 0.800, 10:58:43.666, 19, 0.00, 0.14, 98, -2.000, -0.100, -92.000, 2, 100, 100, 23, 25201, -7671, 5306, 5415, 15, 11, 1526320723.667, 29, 0, 1024, 1024, 1024, 1024, 0, 6, 4135, 4137, 4161, 4168, 4139, 4176, 0, 1, 4804, -89.900, 0.000, -91.500, 0.000, 0.000, -0.400, 0.0, , , , , , 97, , , 0, 0, 0
37.7782982, -120.1185186, 0.800, 10:58:43.764, 19, 0.00, 0.13, 98, -1.700, 0.000, -92.000, 2, 100, 100, 23, 25201, -7671, 5306, 5415, 15, 11, 1526320723.765, 46, 0, 1024, 1024, 1024, 1024, 0, 6, 4135, 4137, 4161, 4168, 4139, 4176, 0, 1, 4902, -89.900, 0.000, -91.500, 0.000, 0.000, -0.400, 0.0, , , , , , 97, , , 0, 0, 0
37.7782982, -120.1185187, 0.900, 10:58:43.864, 19, 0.00, 0.13, 98, -1.400, 0.300, -91.900, 2, 100, 100, 24, 24427, -16420, 5306, 5415, 15, 6, 1526320723.865, 62, 0, 1024, 1024, 1024, 1024, 0, 6, 4135, 4137, 4161, 4168, 4139, 4176, 0, 1, 5003, -89.900, 0.000, -91.500, 0.000, 0.000, -0.500, 0.0, , , , , , 97, , , 0, 0, 0
37.7782982, -120.1185187, 0.900, 10:58:43.963, 19, 0.00, 0.13, 98, -1.400, 0.300, -91.900, 2, 100, 100, 24, 24427, -16420, 5306, 5415, 15, 6, 1526320723.964, 161, 0, 1024, 1024, 1024, 1024, 0, 6, 4041, 4057, 4066, 4076, 4045, 4061, 0, 1, 5101, -89.900, 0.000, -91.500, 0.000, 0.000, -0.500, 0.0, , , , , , 97, , , 0, 0, 0
37.7782981, -120.1185189, 1.000, 10:58:44.065, 18, 0.00, 0.12, 98, -0.300, 0.700, -91.600, 2, 100, 100, 24, 24427, -16420, 5306, 5415, 15, 14, 1526320724.066, 36, 0, 1024, 1024, 1024, 1024, 0, 6, 4041, 4057, 4066, 4076, 4045, 4061, 0, 1, 5204, -89.900, 0.000, -91.500, 0.000, 0.000, -0.400, 0.0, , , , , , 97, , , 0, 0, 0
37.7782981, -120.1185189, 1.000, 10:58:44.165, 18, 0.00, 0.12, 98, -0.300, 0.700, -91.600, 2, 100, 100, 24, 24427, -16420, 5306, 5415, 15, 14, 1526320724.165, 136, 0, 1024, 1024, 1024, 1024, 0, 6, 4041, 4057, 4066, 4076, 4045, 4061, 0, 1, 5303, -89.900, 0.000, -91.500, 0.000, 0.000, -0.400, 0.0, , , , , , 97, , , 0, 0, 0
37.7782980, -120.1185191, 1.100, 10:58:44.273, 19, 0.00, 0.11, 98, 0.500, 1.000, -91.200, 2, 100, 100, 24, 24427, -16420, 5306, 5415, 15, 14, 1526320724.273, 7, 0, 1024, 1024, 1024, 1024, 0, 6, 4041, 4057, 4066, 4076, 4045, 4061, 0, 1, 5411, -89.900, 0.000, -91.500, 0.000, 0.000, -0.300, 0.0, , , , , , 97, , , 0, 0, 0
37.7782980, -120.1185191, 1.100, 10:58:44.366, 19, 0.00, 0.11, 98, 0.500, 1.000, -91.200, 2, 100, 100, 24, 24427, -16420, 5306, 5415, 15, 14, 1526320724.367, 100, 0, 1024, 1024, 1024, 1024, 0, 6, 4041, 4057, 4066, 4076, 4045, 4061, 0, 1, 5504, -89.900, 0.000, -91.500, 0.000, 0.000, -0.300, 0.0, , , , , , 97, , , 0, 0, 0
37.7782979, -120.1185192, 1.200, 10:58:44.467, 19, 0.00, 0.11, 98, 0.000, 0.600, -91.200, 2, 100, 100, 24, 24427, -16420, 5306, 5415, 15, 14, 1526320724.468, 24, 0, 1024, 1024, 1024, 1024, 0, 6, 4041, 4057, 4066, 4076, 4045, 4061, 0, 1, 5605, -89.900, 0.000, -91.500, 0.000, 0.000, -0.500, 0.0, , , , , , 97, , , 0, 0, 0
37.7782979, -120.1185193, 1.300, 10:58:44.568, 19, 0.00, 0.12, 98, -0.300, 0.700, -91.200, 2, 100, 100, 24, 24427, -16420, 5306, 5415, 15, 14, 1526320724.569, 11, 0, 1024, 1024, 1024, 1024, 0, 6, 4041, 4057, 4066, 4076, 4045, 4061, 0, 1, 5706, -89.900, 0.000, -91.500, 0.000, 0.000, -0.700, 0.0, , , , , , 97, , , 0, 0, 0
37.7782980, -120.1185194, 1.400, 10:58:44.672, 19, 0.00, 0.12, 98, -0.700, 0.700, -91.300, 2, 100, 100, 24, 24427, -16420, 5306, 5415, 15, 14, 1526320724.672, 11, 0, 1024, 1024, 1024, 1024, 0, 6, 4041, 4057, 4066, 4076, 4045, 4061, 0, 1, 5810, -89.900, 0.000, -91.500, 0.000, 0.000, -0.900, 0.0, , , , , , 97, , , 0, 0, 0
37.7782980, -120.1185194, 1.500, 10:58:44.764, 19, 0.00, 0.12, 98, -0.900, 0.800, -91.400, 2, 100, 100, 24, 24427, -16420, 5306, 5415, 15, 14, 1526320724.765, 33, 0, 1024, 1024, 1024, 1024, 0, 6, 4041, 4057, 4066, 4076, 4045, 4061, 0, 1, 5903, -89.900, 0.000, -91.500, 0.000, 0.000, -1.000, 0.0, , , , , , 97, , , 0, 0, 0
37.7782980, -120.1185195, 1.600, 10:58:44.868, 19, 0.00, 0.13, 98, -1.000, 0.700, -91.400, 2, 100, 100, 24, 24293, -16091, 5306, 5415, 15, 14, 1526320724.869, 29, 0, 1024, 1024, 1024, 1024, 0, 6, 4041, 4057, 4066, 4076, 4045, 4061, 0, 1, 6006, -89.900, 0.000, -91.500, 0.000, 0.000, -1.200, 0.0, , , , , , 97, , , 0, 0, 0
37.7782980, -120.1185195, 1.600, 10:58:44.966, 19, 0.00, 0.13, 98, -1.000, 0.700, -91.400, 2, 100, 100, 24, 24293, -16091, 5306, 5415, 15, 14, 1526320724.967, 127, 0, 1024, 1024, 1024, 1024, 0, 6, 4028, 4040, 4061, 4070, 4032, 4057, 0, 1, 6105, -89.900, 0.000, -91.500, 0.000, 0.000, -1.200, 0.0, , , , , , 97, , , 0, 0, 0
37.7782981, -120.1185196, 1.800, 10:58:45.065, 19, 0.00, 0.14, 98, -1.100, 0.800, -91.500, 2, 100, 100, 24, 24293, -16091, 5306, 5415, 15, 14, 1526320725.065, 49, 0, 1024, 1024, 1024, 1024, 0, 6, 4028, 4040, 4061, 4070, 4032, 4057, 0, 1, 6203, -89.900, 0.000, -91.500, 0.000, 0.000, -1.400, 0.0, , , , , , 97, , , 0, 0, 0
37.7782981, -120.1185196, 1.800, 10:58:45.163, 19, 0.00, 0.14, 98, -1.100, 0.800, -91.500, 2, 100, 100, 24, 24293, -16091, 5306, 5415, 15, 14, 1526320725.164, 147, 0, 1024, 1024, 1024, 1024, 0, 6, 4028, 4040, 4061, 4070, 4032, 4057, 0, 1, 6301, -89.900, 0.000, -91.500, 0.000, 0.000, -1.400, 0.0, , , , , , 97, , , 0, 0, 0
37.7782981, -120.1185196, 1.900, 10:58:45.263, 19, 0.00, 0.15, 98, -1.100, 0.700, -91.500, 2, 100, 100, 24, 24293, -16091, 5306, 5415, 15, 14, 1526320725.264, 44, 0, 1024, 1024, 1024, 1024, 0, 6, 4028, 4040, 4061, 4070, 4032, 4057, 0, 1, 6401, -90.000, 0.000, -91.500, 0.000, 0.000, -1.500, 0.0, , , , , , 97, , , 0, 0, 0
37.7782981, -120.1185196, 2.100, 10:58:45.362, 19, 0.00, 0.15, 98, -1.000, 0.600, -91.500, 2, 100, 100, 24, 24293, -16091, 5306, 5415, 15, 14, 1526320725.363, 26, 0, 1024, 1024, 1024, 1024, 0, 6, 4028, 4040, 4061, 4070, 4032, 4057, 0, 1, 6500, -89.900, 0.000, -91.400, 0.000, 0.000, -1.700, 0.0, , , , , , 97, , , 0, 0, 0
37.7782982, -120.1185197, 2.300, 10:58:45.463, 19, 0.00, 0.16, 98, -1.100, 0.600, -91.400, 2, 100, 100, 24, 24293, -16091, 5306, 5415, 15, 14, 1526320725.464, 31, 0, 1024, 1024, 1024, 1024, 0, 6, 4028, 4040, 4061, 4070, 4032, 4057, 0, 1, 6601, -89.900, 0.000, -91.400, 0.000, 0.000, -1.900, 0.0, , , , , , 97, , , 0, 0, 0
37.7782982, -120.1185197, 2.300, 10:58:45.564, 19, 0.00, 0.16, 98, -1.100, 0.600, -91.400, 2, 100, 100, 24, 24293, -16091, 5306, 5415, 15, 14, 1526320725.564, 131, 0, 1024, 1024, 1024, 1024, 0, 6, 4028, 4040, 4061, 4070, 4032, 4057, 0, 1, 6702, -89.900, 0.000, -91.400, 0.000, 0.000, -1.900, 0.0, , , , , , 97, , , 0, 0, 0
37.7782982, -120.1185197, 2.300, 10:58:45.663, 19, 0.00, 0.16, 98, -1.100, 0.600, -91.400, 2, 100, 100, 24, 24293, -16091, 5306, 5415, 15, 14, 1526320725.665, 231, 0, 1024, 1024, 1024, 1024, 0, 6, 4028, 4040, 4061, 4070, 4032, 4057, 0, 1, 6802, -89.900, 0.000, -91.400, 0.000, 0.000, -1.900, 0.0, , , , , , 97, , , 0, 0, 0
37.7782984, -120.1185197, 3.300, 10:58:45.763, 19, 0.00, 0.18, 98, -1.500, 0.500, -90.700, 2, 100, 100, 24, 24293, -16091, 5306, 5415, 15, 14, 1526320725.766, 45, 0, 1024, 1024, 1024, 1024, 0, 6, 4028, 4040, 4061, 4070, 4032, 4057, 0, 1, 6904, -90.000, 0.000, -91.500, 0.000, 0.000, -2.900, 0.0, , , , , , 97, , , 0, 0, 0
37.7782984, -120.1185197, 3.300, 10:58:45.863, 19, 0.00, 0.18, 98, -1.500, 0.500, -90.700, 2, 100, 100, 24, 24293, -16091, 5306, 5415, 15, 14, 1526320725.864, 143, 0, 1024, 1024, 1024, 1024, 0, 6, 4028, 4040, 4061, 4070, 4032, 4057, 0, 1, 7001, -90.000, 0.000, -91.500, 0.000, 0.000, -2.900, 0.0, , , , , , 97, , , 0, 0, 0
37.7782984, -120.1185197, 3.900, 10:58:45.963, 19, 0.00, 0.18, 98, -0.200, -0.200, -90.800, 2, 100, 100, 24, 24018, -17703, 5306, 5415, 15, 14, 1526320725.964, 90, 0, 1024, 1024, 1024, 1024, 0, 6, 3980, 3999, 3983, 3995, 3961, 4003, 0, 1, 7102, -90.000, 0.000, -91.500, 0.000, 0.000, -3.000, 0.0, , , , , , 97, , , 0, 0, 0
37.7782984, -120.1185197, 3.900, 10:58:46.063, 19, 0.00, 0.18, 98, -0.200, -0.200, -90.800, 2, 100, 100, 24, 24018, -17703, 5306, 5415, 15, 14, 1526320726.066, 192, 0, 1024, 1024, 1024, 1024, 0, 6, 3980, 3999, 3983, 3995, 3961, 4003, 0, 1, 7203, -90.000, 0.000, -91.400, 0.000, 0.000, -3.000, 0.0, , , , , , 97, , , 0, 0, 0
37.7782984, -120.1185196, 4.600, 10:58:46.163, 19, 0.00, 0.17, 98, 0.100, -0.500, -90.900, 2, 100, 100, 24, 24018, -17703, 5306, 5415, 15, 14, 1526320726.163, 89, 0, 1024, 1024, 1024, 1024, 0, 6, 3980, 3999, 3983, 3995, 3961, 4003, 0, 1, 7301, -90.000, 0.000, -91.500, 0.000, 0.000, -3.100, 0.0, , , , , , 97, , , 0, 0, 0
37.7782984, -120.1185195, 4.900, 10:58:46.263, 19, 0.00, 0.17, 98, 0.200, -0.700, -91.000, 2, 100, 100, 24, 24018, -17703, 5306, 5415, 15, 14, 1526320726.264, 57, 0, 1024, 1024, 1024, 1024, 0, 6, 3980, 3999, 3983, 3995, 3961, 4003, 0, 1, 7402, -90.000, 0.000, -91.500, 0.000, 0.000, -3.100, 0.0, , , , , , 97, , , 0, 0, 0
37.7782983, -120.1185194, 5.300, 10:58:46.363, 19, 0.00, 0.16, 98, 0.300, -0.900, -91.100, 2, 100, 100, 24, 24018, -17703, 5306, 5415, 15, 14, 1526320726.364, 77, 0, 1024, 1024, 1024, 1024, 0, 6, 3980, 3999, 3983, 3995, 3961, 4003, 0, 1, 7501, -90.000, 0.000, -91.500, 0.000, 0.000, -3.100, 0.0, , , , , , 97, , , 0, 0, 0
37.7782983, -120.1185194, 5.600, 10:58:46.463, 19, 0.00, 0.15, 98, 0.300, -1.000, -91.300, 2, 100, 100, 24, 24018, -17703, 5306, 5415, 15, 14, 1526320726.464, 74, 0, 1024, 1024, 1024, 1024, 0, 6, 3980, 3999, 3983, 3995, 3961, 4003, 0, 1, 7601, -90.000, 0.000, -91.500, 0.000, 0.000, -3.100, 0.0, , , , , , 97, , , 0, 0, 0
37.7782981, -120.1185193, 6.200, 10:58:46.563, 19, 0.00, 0.13, 98, 0.800, -0.700, -91.600, 2, 100, 100, 24, 24018, -17703, 5306, 5415, 15, 14, 1526320726.564, 33, 0, 1024, 1024, 1024, 1024, 0, 6, 3980, 3999, 3983, 3995, 3961, 4003, 0, 1, 7701, -90.000, 0.000, -91.500, 0.000, 0.000, -3.100, 0.0, , , , , , 97, , , 0, 0, 0
37.7782979, -120.1185192, 6.600, 10:58:46.663, 19, 0.00, 0.11, 98, 1.000, -0.800, -91.700, 2, 100, 100, 24, 24018, -17703, 5306, 5415, 15, 14, 1526320726.664, 46, 0, 1024, 1024, 1024, 1024, 0, 6, 3980, 3999, 3983, 3995, 3961, 4003, 0, 1, 7801, -90.000, 0.000, -91.500, 0.000, 0.000, -3.100, 0.0, , , , , , 97, , , 0, 0, 0
37.7782978, -120.1185192, 6.900, 10:58:46.763, 19, 0.10, 0.10, 98, 1.700, -0.900, -91.800, 2, 100, 100, 24, 24018, -17703, 5306, 5415, 15, 14, 1526320726.763, 95, 0, 1024, 1024, 1024, 1024, 0, 6, 3980, 3999, 3983, 3995, 3961, 4003, 0, 1, 7901, -90.000, 0.000, -91.500, -0.100, 0.000, -3.200, 0.0, , , , , , 97, , , 0, 0, 0
37.7782976, -120.1185192, 7.200, 10:58:46.863, 19, 0.10, 0.08, 98, 2.000, -1.000, -91.900, 2, 100, 100, 24, 23660, -22366, 5306, 5415, 15, 14, 1526320726.864, 32, 0, 1024, 1024, 1024, 1024, 0, 6, 3980, 3999, 3983, 3995, 3961, 4003, 0, 1, 8001, -90.000, 0.000, -91.500, -0.100, 0.000, -3.100, 0.0, , , , , , 97, , , 0, 0, 0
37.7782975, -120.1185191, 7.600, 10:58:46.965, 19, 0.00, 0.06, 98, 2.000, -1.100, -91.900, 2, 100, 100, 24, 23660, -22366, 5306, 5415, 15, 14, 1526320726.965, 14, 0, 1024, 1024, 1024, 1024, 0, 6, 3980, 3999, 3983, 3995, 3961, 4003, 0, 1, 8103, -90.000, 0.000, -91.500, 0.000, 0.000, -3.100, 0.0, , , , , , 97, , , 0, 0, 0
37.7782973, -120.1185191, 7.900, 10:58:47.063, 19, 0.00, 0.05, 98, 1.800, -1.100, -91.700, 2, 100, 100, 24, 23660, -22366, 5306, 5415, 15, 14, 1526320727.063, 9, 0, 1024, 1024, 1024, 1024, 0, 6, 3980, 3999, 3983, 3995, 3961, 4003, 0, 1, 8201, -90.000, 0.000, -91.500, 0.000, 0.000, -3.100, 0.0, , , , , , 97, , , 0, 0, 0
37.7782972, -120.1185191, 8.200, 10:58:47.163, 19, 0.00, 0.04, 98, 1.800, -1.000, -91.500, 2, 100, 100, 24, 23660, -22366, 5306, 5415, 15, 14, 1526320727.164, 12, 0, 1024, 1024, 1024, 1024, 0, 6, 3980, 3999, 3983, 3995, 3961, 4003, 0, 1, 8301, -90.000, 0.000, -91.500, 0.000, 0.000, -3.100, 0.0, , , , , , 97, , , 0, 0, 0
37.7782970, -120.1185191, 8.500, 10:58:47.265, 19, 0.00, 0.04, 98, 1.900, -0.800, -91.400, 2, 100, 100, 24, 23660, -22366, 5306, 5415, 15, 14, 1526320727.266, 34, 0, 1024, 1024, 1024, 1024, 0, 6, 3980, 3999, 3983, 3995, 3961, 4003, 0, 1, 8403, -89.900, 0.000, -91.400, 0.000, 0.000, -3.100, 0.0, , , , , , 97, , , 0, 0, 0
37.7782969, -120.1185191, 8.800, 10:58:47.363, 19, 0.00, 0.04, 98, 2.100, -0.300, -91.200, 2, 100, 100, 24, 23660, -22366, 5306, 5415, 15, 14, 1526320727.364, 32, 0, 1024, 1024, 1024, 1024, 0, 6, 3980, 3999, 3983, 3995, 3961, 4003, 0, 1, 8501, -89.900, 0.000, -91.500, 0.000, 0.000, -3.000, 0.0, , , , , , 97, , , 0, 0, 0
37.7782967, -120.1185191, 9.200, 10:58:47.463, 19, 0.00, 0.05, 98, 2.100, -0.200, -91.200, 2, 100, 100, 24, 23660, -22366, 5306, 5415, 15, 14, 1526320727.464, 16, 0, 1024, 1024, 1024, 1024, 0, 6, 3921, 3952, 3962, 3970, 3937, 3978, 0, 1, 8601, -89.900, 0.000, -91.500, 0.000, 0.000, -3.000, 0.0, , , , , , 97, , , 0, 0, 0
37.7782967, -120.1185191, 9.200, 10:58:47.563, 19, 0.00, 0.05, 98, 2.100, -0.200, -91.200, 2, 100, 100, 24, 23660, -22366, 5306, 5415, 15, 14, 1526320727.564, 116, 0, 1024, 1024, 1024, 1024, 0, 6, 3921, 3952, 3962, 3970, 3937, 3978, 0, 1, 8701, -89.900, 0.000, -91.500, 0.000, 0.000, -3.000, 0.0, , , , , , 97, , , 0, 0, 0
37.7782966, -120.1185192, 9.500, 10:58:47.663, 19, 0.00, 0.07, 98, 2.100, -0.100, -91.200, 2, 100, 100, 24, 23660, -22366, 5306, 5415, 15, 14, 1526320727.663, 18, 0, 1024, 1024, 1024, 1024, 0, 6, 3921, 3952, 3962, 3970, 3937, 3978, 0, 1, 8801, -89.900, 0.000, -91.400, 0.000, 0.000, -3.000, 0.0, , , , , , 97, , , 0, 0, 0
37.7782965, -120.1185192, 9.700, 10:58:47.764, 19, 0.00, 0.08, 98, 2.000, -0.100, -91.200, 2, 100, 100, 24, 23660, -22366, 5306, 5415, 15, 14, 1526320727.765, 60, 0, 1024, 1024, 1024, 1024, 0, 6, 3921, 3952, 3962, 3970, 3937, 3978, 0, 1, 8902, -89.900, 0.000, -91.500, 0.000, 0.000, -2.900, 0.0, , , , , , 97, , , 0, 0, 0
37.7782962, -120.1185193, 10.400, 10:58:47.863, 19, 0.00, 0.10, 98, 2.200, 0.000, -91.100, 2, 100, 100, 24, 23660, -22366, 5306, 5415, 15, 14, 1526320727.864, 58, 0, 1024, 1024, 1024, 1024, 0, 6, 3921, 3952, 3962, 3970, 3937, 3978, 0, 1, 9001, -89.900, 0.000, -91.400, 0.000, 0.000, -3.100, 0.0, , , , , , 97, , , 0, 0, 0
37.7782962, -120.1185193, 10.400, 10:58:47.963, 19, 0.00, 0.10, 98, 2.200, 0.000, -91.100, 2, 100, 100, 24, 23660, -22366, 5306, 5415, 15, 14, 1526320727.964, 158, 0, 1024, 1024, 1024, 1024, 0, 6, 3921, 3952, 3962, 3970, 3937, 3978, 0, 1, 9101, -89.900, 0.000, -91.400, 0.000, 0.000, -3.100, 0.0, , , , , , 97, , , 0, 0, 0
37.7782961, -120.1185193, 10.700, 10:58:48.065, 19, 0.00, 0.11, 98, 2.300, 0.000, -91.200, 2, 100, 100, 24, 23660, -22366, 5306, 5415, 15, 14, 1526320728.066, 98, 0, 1024, 1024, 1024, 1024, 0, 6, 3921, 3952, 3962, 3970, 3937, 3978, 0, 1, 9203, -89.900, 0.000, -91.400, 0.000, 0.000, -3.000, 0.0, , , , , , 97, , , 0, 0, 0
37.7782961, -120.1185193, 10.700, 10:58:48.164, 19, 0.00, 0.11, 98, 2.300, 0.000, -91.200, 2, 100, 100, 24, 23660, -22366, 5306, 5415, 15, 14, 1526320728.164, 196, 0, 1024, 1024, 1024, 1024, 0, 6, 3921, 3952, 3962, 3970, 3937, 3978, 0, 1, 9302, -89.900, 0.000, -91.400, 0.000, 0.000, -3.000, 0.0, , , , , , 97, , , 0, 0, 0
37.7782960, -120.1185193, 11.000, 10:58:48.263, 19, 0.00, 0.12, 98, 2.300, -0.200, -91.100, 2, 100, 100, 24, 23660, -22366, 5306, 5415, 15, 14, 1526320728.264, 65, 0, 1024, 1024, 1024, 1024, 0, 6, 3921, 3952, 3962, 3970, 3937, 3978, 0, 1, 9401, -90.000, 0.000, -91.500, 0.000, 0.000, -3.000, 0.0, , , , , , 97, , , 0, 0, 0
37.7782960, -120.1185193, 11.000, 10:58:48.364, 19, 0.00, 0.12, 98, 2.300, -0.200, -91.100, 2, 100, 100, 24, 23660, -22366, 5306, 5415, 15, 14, 1526320728.365, 166, 0, 1024, 1024, 1024, 1024, 0, 6, 3921, 3952, 3962, 3970, 3937, 3978, 0, 1, 9502, -90.000, 0.000, -91.500, 0.000, 0.000, -3.000, 0.0, , , , , , 97, , , 0, 0, 0
37.7782960, -120.1185193, 11.300, 10:58:48.473, 19, 0.00, 0.13, 98, 2.400, -0.400, -91.100, 2, 100, 100, 24, 23660, -22366, 5306, 5415, 15, 14, 1526320728.473, 67, 0, 1024, 1024, 1024, 1024, 0, 6, 3921, 3952, 3962, 3970, 3937, 3978, 0, 1, 9611, -90.000, 0.000, -91.500, 0.000, 0.000, -3.000, 0.0, , , , , , 97, , , 0, 0, 0
37.7782959, -120.1185193, 11.900, 10:58:48.564, 19, 0.00, 0.14, 98, 2.600, -0.100, -91.100, 2, 100, 100, 24, 23922, -17942, 5306, 5415, 15, 14, 1526320728.564, 24, 0, 1024, 1024, 1024, 1024, 0, 6, 3961, 3984, 3999, 4008, 3971, 4010, 0, 1, 9702, -89.900, 0.000, -91.500, 0.000, 0.000, -3.000, 0.0, , , , , , 97, , , 0, 0, 0
37.7782959, -120.1185193, 11.900, 10:58:48.663, 19, 0.00, 0.14, 98, 2.600, -0.100, -91.100, 2, 100, 100, 24, 23922, -17942, 5306, 5415, 15, 14, 1526320728.664, 123, 0, 1024, 1024, 1024, 1024, 0, 6, 3961, 3984, 3999, 4008, 3971, 4010, 0, 1, 9801, -89.900, 0.000, -91.500, 0.000, 0.000, -3.000, 0.0, , , , , , 97, , , 0, 0, 0
37.7782958, -120.1185193, 12.900, 10:58:48.764, 19, 0.00, 0.15, 98, 2.100, -0.300, -91.200, 2, 100, 100, 24, 23922, -17942, 5306, 5415, 15, 14, 1526320728.765, 96, 0, 1024, 1024, 1024, 1024, 0, 6, 3961, 3984, 3999, 4008, 3971, 4010, 0, 1, 9902, -90.000, 0.000, -91.400, 0.000, 0.000, -3.000, 0.0, , , , , , 97, , , 0, 0, 0
37.7782958, -120.1185192, 13.500, 10:58:48.886, 19, 0.00, 0.15, 98, 1.800, -0.400, -91.200, 2, 100, 100, 24, 23922, -17942, 5306, 5415, 15, 14, 1526320728.886, 5, 0, 1024, 1024, 1024, 1024, 0, 6, 3961, 3984, 3999, 4008, 3971, 4010, 0, 1, 10024, -90.000, 0.000, -91.400, 0.000, 0.000, -2.900, 0.0, , , , , , 97, , , 0, 0, 0
37.7782959, -120.1185192, 13.800, 10:58:48.970, 19, 0.00, 0.14, 98, 1.600, -0.600, -91.200, 2, 100, 100, 24, 23922, -17942, 5306, 5415, 15, 14, 1526320728.970, 5, 0, 1024, 1024, 1024, 1024, 0, 6, 3961, 3984, 3999, 4008, 3971, 4010, 0, 1, 10108, -90.000, 0.000, -91.500, 0.000, 0.000, -2.900, 0.0, , , , , , 97, , , 0, 0, 0
37.7782959, -120.1185192, 13.800, 10:58:49.065, 19, 0.00, 0.14, 98, 1.600, -0.600, -91.200, 2, 100, 100, 24, 23922, -17942, 5306, 5415, 15, 14, 1526320729.066, 101, 0, 1024, 1024, 1024, 1024, 0, 6, 3961, 3984, 3999, 4008, 3971, 4010, 0, 1, 10203, -90.000, 0.000, -91.500, 0.000, 0.000, -2.900, 0.0, , , , , , 97, , , 0, 0, 0
37.7782960, -120.1185191, 14.400, 10:58:49.165, 19, 0.10, 0.12, 98, 1.500, -1.100, -91.200, 2, 100, 100, 24, 23922, -17942, 5306, 5415, 15, 14, 1526320729.166, 84, 0, 1024, 1024, 1024, 1024, 0, 6, 3961, 3984, 3999, 4008, 3971, 4010, 0, 1, 10304, -90.000, 0.000, -91.500, 0.100, 0.000, -2.900, 0.0, , , , , , 97, , , 0, 0, 0
37.7782961, -120.1185191, 14.700, 10:58:49.265, 19, 0.10, 0.11, 98, 1.400, -1.100, -91.200, 2, 100, 100, 24, 23922, -17942, 5306, 5415, 15, 14, 1526320729.265, 83, 0, 1024, 1024, 1024, 1024, 0, 6, 3961, 3984, 3999, 4008, 3971, 4010, 0, 1, 10403, -90.000, 0.000, -91.500, 0.100, 0.000, -2.900, 0.0, , , , , , 97, , , 0, 0, 0
37.7782961, -120.1185190, 15.000, 10:58:49.368, 19, 0.10, 0.11, 98, 1.400, -1.000, -91.100, 2, 100, 100, 24, 23922, -17942, 5306, 5415, 15, 14, 1526320729.369, 17, 0, 1024, 1024, 1024, 1024, 0, 6, 3961, 3984, 3999, 4008, 3971, 4010, 0, 1, 10507, -90.000, 0.000, -91.500, 0.100, 0.000, -2.900, 0.0, , , , , , 97, , , 0, 0, 0
37.7782962, -120.1185190, 15.300, 10:58:49.465, 19, 0.10, 0.09, 98, 1.100, -0.900, -91.100, 2, 100, 100, 24, 23922, -17942, 5306, 5415, 15, 14, 1526320729.466, 35, 0, 1024, 1024, 1024, 1024, 0, 6, 3961, 3984, 3999, 4008, 3971, 4010, 0, 1, 10604, -90.000, 0.000, -91.500, 0.100, 0.000, -2.900, 0.0, , , , , , 97, , , 0, 0, 0
37.7782962, -120.1185190, 15.300, 10:58:49.563, 19, 0.10, 0.09, 98, 1.100, -0.900, -91.100, 2, 100, 100, 24, 23922, -17942, 5306, 5415, 15, 14, 1526320729.564, 132, 0, 1024, 1024, 1024, 1024, 0, 6, 3961, 3984, 3999, 4008, 3971, 4010, 0, 1, 10701, -90.000, 0.000, -91.500, 0.100, 0.000, -2.900, 0.0, , , , , , 97, , , 0, 0, 0
37.7782964, -120.1185190, 15.600, 10:58:49.663, 19, 0.10, 0.08, 98, 0.700, -1.000, -91.000, 2, 100, 100, 24, 23922, -17942, 5306, 5415, 15, 14, 1526320729.664, 69, 0, 1024, 1024, 1024, 1024, 0, 6, 3961, 3984, 3999, 4008, 3971, 4010, 0, 1, 10801, -90.000, 0.000, -91.500, 0.100, 0.000, -2.900, 0.0, , , , , , 97, , , 0, 0, 0
37.7782965, -120.1185190, 15.900, 10:58:49.763, 19, 0.10, 0.07, 98, 0.400, -0.900, -91.100, 2, 100, 100, 24, 23922, -17942, 5306, 5415, 15, 14, 1526320729.764, 58, 0, 1024, 1024, 1024, 1024, 0, 6, 3961, 3984, 3999, 4008, 3971, 4010, 0, 1, 10902, -90.000, 0.000, -91.500, 0.100, 0.000, -2.900, 0.0, , , , , , 97, , , 0, 0, 0
37.7782968, -120.1185190, 16.500, 10:58:49.867, 19, 0.10, 0.04, 97, 0.000, -0.500, -91.300, 2, 100, 99, 24, 23903, -17942, 5252, 5415, 15, 14, 1526320729.869, 36, 0, 1024, 1024, 1024, 1024, 0, 6, 3960, 3971, 4000, 4013, 3975, 4001, 0, 1, 11006, -89.900, 0.000, -91.500, 0.100, 0.000, -2.900, 0.0, , , , , , 97, , , 0, 0, 0
37.7782968, -120.1185190, 16.500, 10:58:49.963, 19, 0.10, 0.04, 97, 0.000, -0.500, -91.300, 2, 100, 99, 24, 23903, -17942, 5252, 5415, 15, 14, 1526320729.964, 132, 0, 1024, 1024, 1024, 1024, 0, 6, 3960, 3971, 4000, 4013, 3975, 4001, 0, 1, 11102, -89.900, 0.000, -91.500, 0.100, 0.000, -2.900, 0.0, , , , , , 97, , , 0, 0, 0
37.7782971, -120.1185191, 17.100, 10:58:50.069, 19, 0.10, 0.04, 97, -0.200, -0.200, -91.400, 2, 100, 99, 24, 23903, -17942, 5252, 5415, 15, 14, 1526320730.069, 8, 0, 1024, 1024, 1024, 1024, 0, 6, 3960, 3971, 4000, 4013, 3975, 4001, 0, 1, 11207, -89.900, 0.000, -91.500, 0.100, 0.000, -2.900, 0.0, , , , , , 97, , , 0, 0, 0
37.7782971, -120.1185191, 17.100, 10:58:50.163, 19, 0.10, 0.04, 97, -0.200, -0.200, -91.400, 2, 100, 99, 24, 23903, -17942, 5252, 5415, 15, 14, 1526320730.164, 103, 0, 1024, 1024, 1024, 1024, 0, 6, 3960, 3971, 4000, 4013, 3975, 4001, 0, 1, 11302, -89.900, 0.000, -91.500, 0.100, 0.000, -2.900, 0.0, , , , , , 97, , , 0, 0, 0
37.7782973, -120.1185191, 17.400, 10:58:50.263, 19, 0.10, 0.05, 97, -0.200, -0.100, -91.400, 2, 100, 99, 24, 23903, -17942, 5252, 5415, 15, 14, 1526320730.264, 60, 0, 1024, 1024, 1024, 1024, 0, 6, 3960, 3971, 4000, 4013, 3975, 4001, 0, 1, 11401, -89.900, 0.000, -91.400, 0.100, 0.000, -2.900, 0.0, , , , , , 97, , , 0, 0, 0
37.7782976, -120.1185191, 18.200, 10:58:50.365, 19, 0.10, 0.07, 97, -0.300, -0.300, -91.200, 2, 100, 99, 24, 23948, -18283, 5252, 5415, 15, 14, 1526320730.365, 9, 0, 1024, 1024, 1024, 1024, 0, 6, 3952, 3967, 3997, 4012, 3962, 3995, 0, 1, 11503, -89.900, 0.000, -91.500, 0.100, 0.000, -3.000, 0.0, , , , , , 97, , , 0, 0, 0
37.7782979, -120.1185191, 18.900, 10:58:50.463, 19, 0.00, 0.10, 97, -0.500, -0.500, -91.100, 2, 100, 99, 24, 23948, -18283, 5252, 5415, 15, 14, 1526320730.464, 67, 0, 1024, 1024, 1024, 1024, 0, 6, 3952, 3967, 3997, 4012, 3962, 3995, 0, 1, 11601, -90.000, 0.000, -91.500, 0.000, 0.000, -2.900, 0.0, , , , , , 97, , , 0, 0, 0
37.7782980, -120.1185190, 19.200, 10:58:50.563, 19, 0.00, 0.11, 97, -0.600, -0.500, -91.100, 2, 100, 99, 24, 23948, -18283, 5252, 5415, 15, 14, 1526320730.564, 85, 0, 1024, 1024, 1024, 1024, 0, 6, 3952, 3967, 3997, 4012, 3962, 3995, 0, 1, 11701, -90.000, 0.000, -91.500, 0.000, 0.000, -2.900, 0.0, , , , , , 97, , , 0, 0, 0
37.7782981, -120.1185190, 19.500, 10:58:50.663, 19, 0.00, 0.12, 97, -0.700, -0.500, -91.200, 2, 100, 99, 24, 23948, -18283, 5252, 5415, 15, 14, 1526320730.664, 76, 0, 1024, 1024, 1024, 1024, 0, 6, 3952, 3967, 3997, 4012, 3962, 3995, 0, 1, 11801, -90.000, 0.000, -91.500, 0.000, 0.000, -3.000, 0.0, , , , , , 97, , , 0, 0, 0
37.7782981, -120.1185190, 19.500, 10:58:50.763, 19, 0.00, 0.12, 97, -0.700, -0.500, -91.200, 2, 100, 98, 24, 23948, -18283, 5252, 5415, 15, 14, 1526320730.763, 176, 0, 1024, 1024, 1024, 1024, 0, 6, 3952, 3967, 3997, 4012, 3962, 3995, 0, 1, 11901, -90.000, 0.000, -91.500, 0.000, 0.000, -3.000, 0.0, , , , , , 97, , , 0, 0, 0
37.7782983, -120.1185189, 20.100, 10:58:50.863, 19, 0.00, 0.15, 97, -0.800, -0.800, -91.300, 2, 100, 98, 24, 23948, -18283, 5252, 5415, 15, 14, 1526320730.864, 66, 0, 1024, 1024, 1024, 1024, 0, 6, 3952, 3967, 3997, 4012, 3962, 3995, 0, 1, 12001, -90.000, 0.000, -91.500, 0.000, 0.000, -2.900, 0.0, , , , , , 97, , , 0, 0, 0
37.7782985, -120.1185189, 20.400, 10:58:50.963, 19, 0.00, 0.16, 97, -0.900, -0.900, -91.300, 2, 100, 98, 24, 23948, -18283, 5252, 5415, 15, 14, 1526320730.964, 76, 0, 1024, 1024, 1024, 1024, 0, 6, 3952, 3967, 3997, 4012, 3962, 3995, 0, 1, 12101, -90.000, 0.000, -91.500, 0.000, 0.000, -2.900, 0.0, , , , , , 97, , , 0, 0, 0
37.7782985, -120.1185189, 20.700, 10:58:51.063, 19, 0.00, 0.17, 97, -1.100, -1.000, -91.200, 2, 100, 98, 24, 23948, -18283, 5252, 5415, 15, 14, 1526320731.064, 26, 0, 1024, 1024, 1024, 1024, 0, 6, 3952, 3967, 3997, 4012, 3962, 3995, 0, 1, 12201, -90.000, 0.000, -91.500, 0.000, 0.000, -2.900, 0.0, , , , , , 97, , , 0, 0, 0
37.7782986, -120.1185190, 21.000, 10:58:51.163, 19, 0.00, 0.18, 97, -1.200, -0.800, -91.200, 2, 100, 97, 24, 23948, -18283, 5252, 5415, 15, 14, 1526320731.164, 27, 0, 1024, 1024, 1024, 1024, 0, 6, 3952, 3967, 3997, 4012, 3962, 3995, 0, 1, 12301, -89.900, 0.000, -91.500, 0.000, 0.000, -2.900, 0.0, , , , , , 97, , , 0, 0, 0
37.7782987, -120.1185190, 21.300, 10:58:51.263, 19, 0.00, 0.19, 97, -1.300, -0.500, -91.200, 2, 100, 97, 24, 23948, -18283, 5252, 5415, 15, 14, 1526320731.265, 55, 0, 1024, 1024, 1024, 1024, 0, 6, 3952, 3967, 3997, 4012, 3962, 3995, 0, 1, 12402, -89.900, 0.000, -91.500, 0.000, 0.000, -2.900, 0.0, , , , , , 97, , , 0, 0, 0
37.7782988, -120.1185189, 21.600, 10:58:51.363, 19, 0.00, 0.20, 97, -1.200, -0.400, -91.200, 2, 100, 97, 24, 23948, -18283, 5252, 5415, 15, 14, 1526320731.364, 35, 0, 1024, 1024, 1024, 1024, 0, 6, 3952, 3967, 3997, 4012, 3962, 3995, 0, 1, 12501, -89.900, 0.000, -91.500, 0.000, 0.000, -2.900, 0.0, , , , , , 97, , , 0, 0, 0
37.7782988, -120.1185189, 21.600, 10:58:51.463, 19, 0.00, 0.20, 97, -1.200, -0.400, -91.200, 2, 100, 97, 24, 23948, -18283, 5252, 5415, 15, 14, 1526320731.463, 134, 0, 1024, 1024, 1024, 1024, 0, 6, 3952, 3967, 3997, 4012, 3962, 3995, 0, 1, 12601, -89.900, 0.000, -91.500, 0.000, 0.000, -2.900, 0.0, , , , , , 97, , , 0, 0, 0
37.7782989, -120.1185189, 22.200, 10:58:51.563, 19, 0.00, 0.21, 97, -1.100, -0.500, -91.100, 2, 100, 97, 24, 23948, -18283, 5252, 5415, 15, 14, 1526320731.564, 38, 0, 1024, 1024, 1024, 1024, 0, 6, 3952, 3967, 3997, 4012, 3962, 3995, 0, 1, 12701, -90.000, 0.000, -91.500, 0.000, 0.000, -2.900, 0.0, , , , , , 97, , , 0, 0, 0
37.7782990, -120.1185189, 22.500, 10:58:51.663, 19, 0.00, 0.22, 97, -1.200, -0.600, -91.100, 2, 100, 97, 24, 23796, -18467, 5252, 5415, 15, 14, 1526320731.664, 15, 0, 1024, 1024, 1024, 1024, 0, 6, 3941, 3966, 3970, 3981, 3948, 3982, 0, 1, 12802, -90.000, 0.000, -91.500, 0.000, 0.000, -2.900, 0.0, , , , , , 97, , , 0, 0, 0
37.7782990, -120.1185188, 22.800, 10:58:51.763, 19, 0.00, 0.22, 97, -1.200, -0.700, -91.100, 2, 100, 97, 24, 23796, -18467, 5252, 5415, 15, 14, 1526320731.764, 27, 0, 1024, 1024, 1024, 1024, 0, 6, 3941, 3966, 3970, 3981, 3948, 3982, 0, 1, 12901, -90.000, 0.000, -91.500, 0.000, 0.000, -2.900, 0.0, , , , , , 97, , , 0, 0, 0
37.7782991, -120.1185188, 23.100, 10:58:51.863, 19, 0.00, 0.23, 97, -1.300, -1.100, -91.100, 2, 100, 97, 24, 23796, -18467, 5252, 5415, 15, 14, 1526320731.864, 31, 0, 1024, 1024, 1024, 1024, 0, 6, 3941, 3966, 3970, 3981, 3948, 3982, 0, 1, 13002, -90.000, 0.000, -91.500, 0.000, 0.000, -2.900, 0.0, , , , , , 97, , , 0, 0, 0
37.7782992, -120.1185187, 23.400, 10:58:51.963, 19, 0.00, 0.24, 97, -1.300, -1.200, -91.100, 2, 100, 97, 24, 23796, -18467, 5252, 5415, 15, 14, 1526320731.964, 25, 0, 1024, 1024, 1024, 1024, 0, 6, 3941, 3966, 3970, 3981, 3948, 3982, 0, 1, 13102, -90.000, 0.000, -91.500, 0.000, 0.000, -3.000, 0.0, , , , , , 97, , , 0, 0, 0
37.7782992, -120.1185187, 23.400, 10:58:52.063, 19, 0.00, 0.24, 97, -1.300, -1.200, -91.100, 2, 100, 97, 24, 23761, -18586, 5252, 5415, 15, 14, 1526320732.063, 124, 0, 1024, 1024, 1024, 1024, 0, 6, 3941, 3966, 3970, 3981, 3948, 3982, 0, 1, 13201, -90.000, 0.000, -91.500, 0.000, 0.000, -3.000, 0.0, , , , , , 97, , , 0, 0, 0
37.7782992, -120.1185187, 23.400, 10:58:52.165, 19, 0.00, 0.24, 97, -1.300, -1.200, -91.100, 2, 100, 97, 24, 23761, -18586, 5252, 5415, 15, 14, 1526320732.166, 226, 0, 1024, 1024, 1024, 1024, 0, 6, 3941, 3966, 3970, 3981, 3948, 3982, 0, 1, 13303, -90.000, 0.000, -91.500, 0.000, 0.000, -3.000, 0.0, , , , , , 97, , , 0, 0, 0
37.7782993, -120.1185187, 24.000, 10:58:52.264, 19, 0.00, 0.25, 97, -1.800, -0.900, -91.200, 2, 100, 98, 24, 23761, -18586, 5252, 5415, 15, 14, 1526320732.264, 95, 0, 1024, 1024, 1024, 1024, 0, 6, 3941, 3966, 3970, 3981, 3948, 3982, 0, 1, 13402, -89.900, 0.000, -91.500, 0.000, 0.000, -3.000, 0.0, , , , , , 97, , , 0, 0, 0
37.7782994, -120.1185186, 24.300, 10:58:52.363, 19, 0.00, 0.26, 97, -1.900, -1.000, -91.200, 2, 100, 98, 24, 23761, -18586, 5252, 5415, 15, 14, 1526320732.364, 70, 0, 1024, 1024, 1024, 1024, 0, 6, 3941, 3966, 3970, 3981, 3948, 3982, 0, 1, 13501, -90.000, 0.000, -91.500, 0.000, 0.000, -2.900, 0.0, , , , , , 97, , , 0, 0, 0
37.7782994, -120.1185186, 24.600, 10:58:52.463, 19, 0.00, 0.27, 97, -2.000, -1.300, -91.100, 2, 100, 98, 24, 23761, -18586, 5252, 5415, 15, 14, 1526320732.464, 80, 0, 1024, 1024, 1024, 1024, 0, 6, 3941, 3966, 3970, 3981, 3948, 3982, 0, 1, 13601, -90.000, 0.000, -91.500, 0.000, 0.000, -2.900, 0.0, , , , , , 97, , , 0, 0, 0
37.7782994, -120.1185186, 24.600, 10:58:52.563, 19, 0.00, 0.27, 97, -2.000, -1.300, -91.100, 2, 100, 98, 24, 23761, -18586, 5252, 5415, 15, 14, 1526320732.565, 182, 0, 1024, 1024, 1024, 1024, 0, 6, 3941, 3966, 3970, 3981, 3948, 3982, 0, 1, 13703, -90.000, 0.000, -91.500, 0.000, 0.000, -2.900, 0.0, , , , , , 97, , , 0, 0, 0
37.7782996, -120.1185185, 25.500, 10:58:52.663, 19, 0.00, 0.28, 97, -2.200, -1.400, -91.200, 2, 100, 98, 24, 23761, -18586, 5252, 5415, 15, 14, 1526320732.665, 76, 0, 1024, 1024, 1024, 1024, 0, 6, 3938, 3949, 3967, 3980, 3935, 3970, 0, 1, 13802, -90.000, 0.000, -91.500, 0.000, 0.000, -2.900, 0.0, , , , , , 97, , , 0, 0, 0
37.7782996, -120.1185185, 25.500, 10:58:52.763, 19, 0.00, 0.28, 97, -2.200, -1.400, -91.200, 2, 100, 97, 24, 23761, -18586, 5252, 5415, 15, 14, 1526320732.764, 176, 0, 1024, 1024, 1024, 1024, 0, 6, 3938, 3949, 3967, 3980, 3935, 3970, 0, 1, 13902, -90.000, 0.000, -91.500, 0.000, 0.000, -2.900, 0.0, , , , , , 97, , , 0, 0, 0
37.7782996, -120.1185184, 25.800, 10:58:52.863, 19, 0.00, 0.29, 97, -2.200, -1.400, -91.200, 2, 100, 97, 24, 23761, -18586, 5252, 5415, 15, 14, 1526320732.864, 77, 0, 1024, 1024, 1024, 1024, 0, 6, 3938, 3949, 3967, 3980, 3935, 3970, 0, 1, 14001, -90.000, 0.000, -91.500, 0.000, 0.000, -2.800, 0.0, , , , , , 97, , , 0, 0, 0
37.7782996, -120.1185183, 26.400, 10:58:52.964, 19, 0.00, 0.29, 97, -1.700, -1.400, -91.300, 2, 100, 97, 24, 23761, -18586, 5252, 5415, 15, 14, 1526320732.964, 73, 0, 1024, 1024, 1024, 1024, 0, 6, 3938, 3949, 3967, 3980, 3935, 3970, 0, 1, 14102, -90.000, 0.000, -91.500, 0.000, 0.000, -2.800, 0.0, , , , , , 97, , , 0, 0, 0
37.7782996, -120.1185183, 26.700, 10:58:53.063, 19, 0.00, 0.28, 97, -1.400, -1.300, -91.300, 2, 100, 97, 24, 23761, -18586, 5252, 5415, 15, 14, 1526320733.064, 75, 0, 1024, 1024, 1024, 1024, 0, 6, 3938, 3949, 3967, 3980, 3935, 3970, 0, 1, 14201, -90.000, 0.000, -91.500, 0.000, 0.000, -2.800, 0.0, , , , , , 97, , , 0, 0, 0
37.7782996, -120.1185183, 26.700, 10:58:53.163, 19, 0.00, 0.28, 97, -1.400, -1.300, -91.300, 2, 100, 97, 24, 23761, -18586, 5252, 5415, 15, 14, 1526320733.164, 175, 0, 1024, 1024, 1024, 1024, 0, 6, 3938, 3949, 3967, 3980, 3935, 3970, 0, 1, 14301, -90.000, 0.000, -91.500, 0.000, 0.000, -2.800, 0.0, , , , , , 97, , , 0, 0, 0
37.7782995, -120.1185182, 27.200, 10:58:53.263, 19, 0.00, 0.27, 97, -1.000, -1.100, -91.300, 2, 100, 97, 24, 23761, -18586, 5252, 5415, 15, 14, 1526320733.264, 64, 0, 1024, 1024, 1024, 1024, 0, 6, 3938, 3949, 3967, 3980, 3935, 3970, 0, 1, 14401, -90.000, 0.000, -91.500, 0.000, 0.000, -2.800, 0.0, , , , , , 97, , , 0, 0, 0
37.7782994, -120.1185182, 27.500, 10:58:53.363, 19, 0.00, 0.27, 97, -0.900, -1.100, -91.200, 2, 100, 97, 24, 23761, -18586, 5252, 5415, 15, 14, 1526320733.364, 63, 0, 1024, 1024, 1024, 1024, 0, 6, 3938, 3949, 3967, 3980, 3935, 3970, 0, 1, 14501, -89.900, 0.000, -91.500, 0.000, 0.000, -2.900, 0.0, , , , , , 97, , , 0, 0, 0
37.7782994, -120.1185182, 27.500, 10:58:53.463, 19, 0.00, 0.27, 97, -0.900, -1.100, -91.200, 2, 100, 97, 24, 23761, -18586, 5252, 5415, 15, 14, 1526320733.464, 164, 0, 1024, 1024, 1024, 1024, 0, 6, 3938, 3949, 3967, 3980, 3935, 3970, 0, 1, 14602, -89.900, 0.000, -91.500, 0.000, 0.000, -2.900, 0.0, , , , , , 97, , , 0, 0, 0
37.7782993, -120.1185182, 28.100, 10:58:53.563, 19, 0.00, 0.26, 97, -0.900, -1.200, -91.100, 2, 100, 97, 24, 23761, -18586, 5252, 5415, 15, 14, 1526320733.566, 28, 0, 1024, 1024, 1024, 1024, 0, 6, 3938, 3949, 3967, 3980, 3935, 3970, 0, 1, 14704, -90.000, 0.000, -91.400, 0.000, 0.000, -2.800, 0.0, , , , , , 97, , , 0, 0, 0
37.7782993, -120.1185182, 28.400, 10:58:53.667, 19, 0.00, 0.25, 97, -0.800, -1.200, -91.100, 2, 100, 96, 24, 23665, -19006, 5252, 5415, 15, 14, 1526320733.667, 23, 0, 1024, 1024, 1024, 1024, 0, 6, 3938, 3949, 3967, 3980, 3935, 3970, 0, 1, 14805, -89.900, 0.000, -91.500, 0.000, 0.000, -2.900, 0.0, , , , , , 97, , , 0, 0, 0
37.7782992, -120.1185182, 28.700, 10:58:53.763, 19, 0.00, 0.25, 97, -0.800, -1.200, -91.100, 2, 100, 96, 24, 23665, -19006, 5252, 5415, 15, 14, 1526320733.764, 27, 0, 1024, 1024, 1024, 1024, 0, 6, 3917, 3941, 3949, 3966, 3925, 3955, 0, 1, 14902, -90.000, 0.000, -91.500, 0.000, 0.000, -2.900, 0.0, , , , , , 97, , , 0, 0, 0
37.7782992, -120.1185182, 29.000, 10:58:53.864, 19, 0.00, 0.24, 97, -0.800, -1.400, -91.100, 2, 100, 96, 24, 23665, -19006, 5252, 5415, 15, 14, 1526320733.865, 34, 0, 1024, 1024, 1024, 1024, 0, 6, 3917, 3941, 3949, 3966, 3925, 3955, 0, 1, 15003, -89.900, 0.000, -91.500, 0.000, 0.000, -2.900, 0.0, , , , , , 97, , , 0, 0, 0
37.7782992, -120.1185182, 29.300, 10:58:53.965, 19, 0.00, 0.24, 97, -0.800, -1.400, -91.200, 2, 100, 96, 24, 23665, -19006, 5252, 5415, 15, 14, 1526320733.965, 26, 0, 1024, 1024, 1024, 1024, 0, 6, 3917, 3941, 3949, 3966, 3925, 3955, 0, 1, 15103, -89.900, 0.000, -91.500, 0.000, 0.000, -2.900, 0.0, , , , , , 97, , , 0, 0, 0
37.7782991, -120.1185182, 29.600, 10:58:54.065, 19, 0.00, 0.23, 97, -0.600, -1.300, -91.300, 2, 100, 96, 24, 23665, -19006, 5252, 5415, 15, 14, 1526320734.065, 34, 0, 1024, 1024, 1024, 1024, 0, 6, 3917, 3941, 3949, 3966, 3925, 3955, 0, 1, 15203, -89.900, 0.000, -91.500, 0.000, 0.000, -3.000, 0.0, , , , , , 97, , , 0, 0, 0
37.7782991, -120.1185182, 29.600, 10:58:54.165, 19, 0.00, 0.23, 97, -0.600, -1.300, -91.300, 2, 100, 96, 24, 23665, -19006, 5252, 5415, 15, 14, 1526320734.166, 134, 0, 1024, 1024, 1024, 1024, 0, 6, 3917, 3941, 3949, 3966, 3925, 3955, 0, 1, 15303, -89.900, 0.000, -91.500, 0.000, 0.000, -3.000, 0.0, , , , , , 97, , , 0, 0, 0
37.7782991, -120.1185182, 29.900, 10:58:54.263, 19, 0.00, 0.23, 97, -0.700, -1.100, -91.400, 2, 100, 96, 24, 23665, -19006, 5252, 5415, 15, 14, 1526320734.264, 89, 0, 1024, 1024, 1024, 1024, 0, 6, 3917, 3941, 3949, 3966, 3925, 3955, 0, 1, 15402, -89.900, 0.000, -91.400, 0.000, 0.000, -3.000, 0.0, , , , , , 97, , , 0, 0, 0
37.7782990, -120.1185182, 30.200, 10:58:54.363, 19, 0.00, 0.23, 97, -0.700, -1.000, -91.300, 2, 100, 96, 24, 23665, -19006, 5252, 5415, 15, 14, 1526320734.364, 92, 0, 1024, 1024, 1024, 1024, 0, 6, 3917, 3941, 3949, 3966, 3925, 3955, 0, 1, 15501, -89.900, 0.000, -91.500, 0.000, 0.000, -3.000, 0.0, , , , , , 97, , , 0, 0, 0
37.7782990, -120.1185182, 30.200, 10:58:54.466, 19, 0.00, 0.23, 97, -0.700, -1.000, -91.300, 2, 100, 96, 24, 23665, -19006, 5252, 5415, 15, 14, 1526320734.466, 194, 0, 1024, 1024, 1024, 1024, 0, 6, 3917, 3941, 3949, 3966, 3925, 3955, 0, 1, 15604, -89.900, 0.000, -91.500, 0.000, 0.000, -3.000, 0.0, , , , , , 97, , , 0, 0, 0
37.7782990, -120.1185182, 30.500, 10:58:54.567, 19, 0.00, 0.22, 97, -0.800, -1.000, -91.200, 2, 100, 96, 24, 23665, -19006, 5252, 5415, 15, 14, 1526320734.568, 30, 0, 1024, 1024, 1024, 1024, 0, 6, 3917, 3941, 3949, 3966, 3925, 3955, 0, 1, 15706, -89.900, 0.000, -91.500, 0.000, 0.000, -3.000, 0.0, , , , , , 97, , , 0, 0, 0
37.7782990, -120.1185182, 30.500, 10:58:54.663, 19, 0.00, 0.22, 97, -0.800, -1.000, -91.200, 2, 100, 96, 24, 23665, -19006, 5252, 5415, 15, 14, 1526320734.664, 126, 0, 1024, 1024, 1024, 1024, 0, 6, 3917, 3941, 3949, 3966, 3925, 3955, 0, 1, 15801, -90.000, 0.000, -91.500, 0.000, 0.000, -3.000, 0.0, , , , , , 97, , , 0, 0, 0
37.7782990, -120.1185183, 30.800, 10:58:54.763, 19, 0.00, 0.22, 97, -0.800, -1.000, -91.200, 2, 100, 96, 24, 23665, -19006, 5252, 5415, 15, 14, 1526320734.764, 58, 0, 1024, 1024, 1024, 1024, 0, 6, 3917, 3941, 3949, 3966, 3925, 3955, 0, 1, 15901, -89.900, 0.000, -91.500, 0.000, 0.000, -2.900, 0.0, , , , , , 97, , , 0, 0, 0
37.7782990, -120.1185183, 31.100, 10:58:54.893, 19, 0.00, 0.22, 97, -0.700, -1.200, -91.200, 2, 100, 96, 24, 23549, -20524, 5252, 5415, 15, 14, 1526320734.894, 101, 0, 1024, 1024, 1024, 1024, 0, 6, 3917, 3941, 3949, 3966, 3925, 3955, 0, 1, 16031, -90.000, 0.000, -91.500, 0.000, 0.000, -3.000, 0.0, , , , , , 97, , , 0, 0, 0
37.7782990, -120.1185183, 31.100, 10:58:54.963, 19, 0.00, 0.22, 97, -0.700, -1.200, -91.200, 2, 100, 96, 24, 23549, -20524, 5252, 5415, 15, 14, 1526320734.966, 173, 0, 1024, 1024, 1024, 1024, 0, 6, 3917, 3941, 3949, 3966, 3925, 3955, 0, 1, 16104, -90.000, 0.000, -91.500, 0.000, 0.000, -3.000, 0.0, , , , , , 97, , , 0, 0, 0
37.7782990, -120.1185183, 31.100, 10:58:55.063, 19, 0.00, 0.22, 97, -0.700, -1.200, -91.200, 2, 100, 96, 24, 23549, -20524, 5252, 5415, 15, 14, 1526320735.064, 270, 0, 1024, 1024, 1024, 1024, 0, 6, 3917, 3941, 3949, 3966, 3925, 3955, 0, 1, 16201, -90.000, 0.000, -91.500, 0.000, 0.000, -3.000, 0.0, , , , , , 97, , , 0, 0, 0
37.7782990, -120.1185183, 31.100, 10:58:55.163, 19, 0.00, 0.22, 97, -0.700, -1.200, -91.200, 2, 100, 96, 24, 23549, -20524, 5252, 5415, 15, 14, 1526320735.164, 371, 0, 1024, 1024, 1024, 1024, 0, 6, 3917, 3941, 3949, 3966, 3925, 3955, 0, 1, 16301, -90.000, 0.000, -91.500, 0.000, 0.000, -3.000, 0.0, , , , , , 97, , , 0, 0, 0
37.7782989, -120.1185182, 31.400, 10:58:55.269, 19, 0.00, 0.21, 97, -0.700, -1.300, -91.200, 2, 100, 96, 24, 23549, -20524, 5252, 5415, 15, 14, 1526320735.270, 32, 0, 1024, 1024, 1024, 1024, 0, 6, 3917, 3941, 3949, 3966, 3925, 3955, 0, 1, 16407, -90.000, 0.000, -91.500, 0.000, 0.000, -3.000, 0.0, , , , , , 97, , , 0, 0, 0
37.7782989, -120.1185182, 31.400, 10:58:55.363, 19, 0.00, 0.21, 97, -0.700, -1.300, -91.200, 2, 100, 95, 24, 23549, -20524, 5252, 5415, 15, 14, 1526320735.365, 127, 0, 1024, 1024, 1024, 1024, 0, 6, 3917, 3941, 3949, 3966, 3925, 3955, 0, 1, 16502, -90.000, 0.000, -91.500, 0.000, 0.000, -3.000, 0.0, , , , , , 97, , , 0, 0, 0
37.7782989, -120.1185182, 31.700, 10:58:55.493, 19, 0.00, 0.21, 97, -0.800, -1.600, -91.200, 2, 100, 95, 24, 23549, -20524, 5252, 5415, 15, 14, 1526320735.494, 44, 0, 1024, 1024, 1024, 1024, 0, 6, 3888, 3918, 3925, 3942, 3901, 3933, 0, 1, 16632, -90.000, 0.000, -91.500, 0.000, 0.000, -3.000, 0.0, , , , , , 97, , , 0, 0, 0
37.7782989, -120.1185182, 31.700, 10:58:55.563, 19, 0.00, 0.21, 97, -0.800, -1.600, -91.200, 2, 100, 95, 24, 23549, -20524, 5252, 5415, 15, 14, 1526320735.564, 113, 0, 1024, 1024, 1024, 1024, 0, 6, 3888, 3918, 3925, 3942, 3901, 3933, 0, 1, 16701, -90.000, 0.000, -91.500, 0.000, 0.000, -3.000, 0.0, , , , , , 97, , , 0, 0, 0
37.7782989, -120.1185181, 33.200, 10:58:55.673, 19, 0.00, 0.21, 97, -1.300, -1.600, -91.300, 2, 100, 95, 24, 23549, -20524, 5252, 5415, 15, 14, 1526320735.673, 15, 0, 1024, 1024, 1024, 1024, 0, 6, 3888, 3918, 3925, 3942, 3901, 3933, 0, 1, 16811, -90.000, 0.000, -91.500, 0.000, 0.000, -3.000, 0.0, , , , , , 97, , , 0, 0, 0
37.7782989, -120.1185181, 33.200, 10:58:55.763, 19, 0.00, 0.21, 97, -1.300, -1.600, -91.300, 2, 100, 95, 24, 23549, -20524, 5252, 5415, 15, 14, 1526320735.764, 105, 0, 1024, 1024, 1024, 1024, 0, 6, 3888, 3918, 3925, 3942, 3901, 3933, 0, 1, 16902, -90.000, 0.000, -91.500, 0.000, 0.000, -3.000, 0.0, , , , , , 97, , , 0, 0, 0
37.7782989, -120.1185181, 34.300, 10:58:55.863, 19, 0.00, 0.21, 97, -1.000, -2.000, -91.100, 2, 100, 95, 24, 23509, -20181, 5252, 5415, 15, 14, 1526320735.864, 15, 0, 1024, 1024, 1024, 1024, 0, 6, 3897, 3917, 3932, 3950, 3901, 3937, 0, 1, 17002, -90.000, 0.000, -91.500, 0.000, 0.000, -3.000, 0.0, , , , , , 97, , , 0, 0, 0
37.7782988, -120.1185182, 35.200, 10:58:55.963, 19, 0.00, 0.20, 97, -1.200, -1.500, -91.300, 2, 100, 96, 24, 23509, -20181, 5252, 5415, 15, 14, 1526320735.964, 68, 0, 1024, 1024, 1024, 1024, 0, 6, 3897, 3917, 3932, 3950, 3901, 3937, 0, 1, 17101, -89.900, 0.000, -91.500, 0.000, 0.000, -3.000, 0.0, , , , , , 97, , , 0, 0, 0
37.7782988, -120.1185182, 35.500, 10:58:56.063, 19, 0.00, 0.20, 97, -1.400, -1.400, -91.300, 2, 100, 96, 24, 23509, -20181, 5252, 5415, 15, 14, 1526320736.064, 77, 0, 1024, 1024, 1024, 1024, 0, 6, 3897, 3917, 3932, 3950, 3901, 3937, 0, 1, 17201, -89.900, 0.000, -91.400, 0.000, 0.000, -3.000, 0.0, , , , , , 97, , , 0, 0, 0
37.7782988, -120.1185182, 35.500, 10:58:56.163, 19, 0.00, 0.20, 97, -1.400, -1.400, -91.300, 2, 100, 96, 24, 23509, -20181, 5252, 5415, 15, 14, 1526320736.164, 177, 0, 1024, 1024, 1024, 1024, 0, 6, 3897, 3917, 3932, 3950, 3901, 3937, 0, 1, 17301, -89.900, 0.000, -91.400, 0.000, 0.000, -3.000, 0.0, , , , , , 97, , , 0, 0, 0
37.7782988, -120.1185182, 35.500, 10:58:56.263, 19, 0.00, 0.20, 97, -1.400, -1.400, -91.300, 2, 100, 95, 24, 23509, -20181, 5252, 5415, 15, 14, 1526320736.264, 277, 0, 1024, 1024, 1024, 1024, 0, 6, 3897, 3917, 3932, 3950, 3901, 3937, 0, 1, 17401, -89.900, 0.000, -91.500, 0.000, 0.000, -3.000, 0.0, , , , , , 97, , , 0, 0, 0
37.7782989, -120.1185183, 36.400, 10:58:56.363, 19, 0.00, 0.21, 97, -1.600, -1.000, -91.300, 2, 100, 95, 24, 23509, -20181, 5252, 5415, 15, 14, 1526320736.364, 54, 0, 1024, 1024, 1024, 1024, 0, 6, 3897, 3917, 3932, 3950, 3901, 3937, 0, 1, 17501, -89.900, 0.000, -91.500, 0.000, 0.000, -3.000, 0.0, , , , , , 97, , , 0, 0, 0
37.7782989, -120.1185184, 36.800, 10:58:56.464, 19, 0.00, 0.21, 97, -1.600, -0.900, -91.300, 2, 100, 95, 24, 23509, -20181, 5252, 5415, 15, 14, 1526320736.465, 58, 0, 1024, 1024, 1024, 1024, 0, 6, 3897, 3917, 3932, 3950, 3901, 3937, 0, 1, 17602, -89.900, 0.000, -91.500, 0.000, 0.000, -3.000, 0.0, , , , , , 97, , , 0, 0, 0
37.7782989, -120.1185184, 37.100, 10:58:56.563, 19, 0.00, 0.21, 97, -1.700, -0.800, -91.300, 2, 100, 95, 24, 23509, -20181, 5252, 5415, 15, 14, 1526320736.564, 62, 0, 1024, 1024, 1024, 1024, 0, 6, 3897, 3917, 3932, 3950, 3901, 3937, 0, 1, 17701, -89.900, 0.000, -91.500, 0.000, 0.000, -3.000, 0.0, , , , , , 97, , , 0, 0, 0
37.7782990, -120.1185185, 37.400, 10:58:56.663, 19, 0.00, 0.21, 97, -1.600, -0.600, -91.400, 2, 100, 95, 24, 23573, -19407, 5252, 5415, 15, 14, 1526320736.664, 63, 0, 1024, 1024, 1024, 1024, 0, 6, 3904, 3923, 3938, 3958, 3908, 3943, 0, 1, 17801, -89.900, 0.000, -91.500, 0.000, 0.000, -3.000, 0.0, , , , , , 97, , , 0, 0, 0
37.7782990, -120.1185185, 37.400, 10:58:56.763, 19, 0.00, 0.21, 97, -1.600, -0.600, -91.400, 2, 100, 95, 24, 23573, -19407, 5252, 5415, 15, 14, 1526320736.764, 163, 0, 1024, 1024, 1024, 1024, 0, 6, 3904, 3923, 3938, 3958, 3908, 3943, 0, 1, 17901, -89.900, 0.000, -91.500, 0.000, 0.000, -3.000, 0.0, , , , , , 97, , , 0, 0, 0
37.7782990, -120.1185186, 38.000, 10:58:56.863, 19, 0.00, 0.22, 97, -1.700, -0.500, -91.400, 2, 100, 95, 24, 23573, -19407, 5252, 5415, 15, 14, 1526320736.864, 50, 0, 1024, 1024, 1024, 1024, 0, 6, 3904, 3923, 3938, 3958, 3908, 3943, 0, 1, 18001, -89.900, 0.000, -91.500, 0.000, 0.000, -3.000, 0.0, , , , , , 97, , , 0, 0, 0
37.7782990, -120.1185186, 38.300, 10:58:56.963, 19, 0.00, 0.21, 97, -1.600, -0.500, -91.400, 2, 100, 95, 24, 23573, -19407, 5252, 5415, 15, 14, 1526320736.964, 37, 0, 1024, 1024, 1024, 1024, 0, 6, 3904, 3923, 3938, 3958, 3908, 3943, 0, 1, 18102, -89.900, 0.000, -91.500, 0.000, 0.000, -3.000, 0.0, , , , , , 97, , , 0, 0, 0
37.7782990, -120.1185186, 38.300, 10:58:57.063, 19, 0.00, 0.21, 97, -1.600, -0.500, -91.400, 2, 100, 95, 24, 23573, -19407, 5252, 5415, 15, 14, 1526320737.063, 136, 0, 1024, 1024, 1024, 1024, 0, 6, 3904, 3923, 3938, 3958, 3908, 3943, 0, 1, 18201, -89.900, 0.000, -91.500, 0.000, 0.000, -3.000, 0.0, , , , , , 97, , , 0, 0, 0
37.7782990, -120.1185187, 38.900, 10:58:57.163, 19, 0.00, 0.21, 97, -1.600, -0.800, -91.400, 2, 100, 95, 24, 23573, -19407, 5252, 5415, 15, 14, 1526320737.164, 38, 0, 1024, 1024, 1024, 1024, 0, 6, 3904, 3923, 3938, 3958, 3908, 3943, 0, 1, 18301, -89.900, 0.000, -91.500, 0.000, 0.000, -2.900, 0.0, , , , , , 97, , , 0, 0, 0
37.7782989, -120.1185187, 39.200, 10:58:57.263, 19, 0.00, 0.21, 97, -1.300, -0.800, -91.300, 2, 100, 95, 24, 23573, -19407, 5252, 5415, 15, 14, 1526320737.264, 33, 0, 1024, 1024, 1024, 1024, 0, 6, 3904, 3923, 3938, 3958, 3908, 3943, 0, 1, 18401, -89.900, 0.000, -91.500, 0.000, 0.000, -2.900, 0.0, , , , , , 97, , , 0, 0, 0
37.7782989, -120.1185187, 39.500, 10:58:57.363, 19, 0.00, 0.20, 97, -0.900, -0.800, -91.200, 2, 100, 95, 24, 23573, -19407, 5252, 5415, 15, 14, 1526320737.364, 45, 0, 1024, 1024, 1024, 1024, 0, 6, 3904, 3923, 3938, 3958, 3908, 3943, 0, 1, 18501, -89.900, 0.000, -91.500, 0.000, 0.000, -2.900, 0.0, , , , , , 97, , , 0, 0, 0
37.7782988, -120.1185186, 39.800, 10:58:57.463, 19, 0.00, 0.20, 97, -0.600, -0.900, -91.200, 2, 100, 95, 24, 23573, -19407, 5252, 5415, 15, 14, 1526320737.465, 27, 0, 1024, 1024, 1024, 1024, 0, 6, 3904, 3923, 3938, 3958, 3908, 3943, 0, 1, 18602, -89.900, 0.000, -91.500, 0.000, 0.000, -2.900, 0.0, , , , , , 97, , , 0, 0, 0
37.7782987, -120.1185186, 40.100, 10:58:57.563, 19, 0.00, 0.19, 97, -0.400, -1.300, -91.200, 2, 100, 95, 24, 23573, -19407, 5252, 5415, 15, 14, 1526320737.564, 33, 0, 1024, 1024, 1024, 1024, 0, 6, 3904, 3923, 3938, 3958, 3908, 3943, 0, 1, 18701, -90.000, 0.000, -91.500, 0.000, 0.000, -2.900, 0.0, , , , , , 97, , , 0, 0, 0
37.7782987, -120.1185186, 40.400, 10:58:57.663, 19, 0.00, 0.18, 97, -0.300, -1.400, -91.200, 2, 100, 95, 24, 23573, -19407, 5252, 5415, 15, 14, 1526320737.664, 30, 0, 1024, 1024, 1024, 1024, 0, 6, 3904, 3923, 3938, 3958, 3908, 3943, 0, 1, 18801, -89.900, 0.000, -91.500, 0.000, 0.000, -3.000, 0.0, , , , , , 97, , , 0, 0, 0
37.7782986, -120.1185186, 40.700, 10:58:57.767, 19, 0.00, 0.18, 97, -0.200, -1.300, -91.200, 2, 100, 95, 24, 23573, -19407, 5252, 5415, 15, 14, 1526320737.767, 9, 0, 1024, 1024, 1024, 1024, 0, 6, 3904, 3923, 3938, 3958, 3908, 3943, 0, 1, 18905, -90.000, 0.000, -91.500, 0.000, 0.000, -3.000, 0.0, , , , , , 97, , , 0, 0, 0
37.7782986, -120.1185185, 41.000, 10:58:57.863, 19, 0.00, 0.17, 97, -0.300, -1.400, -91.200, 2, 100, 95, 24, 23573, -19407, 5252, 5415, 15, 14, 1526320737.864, 27, 0, 1024, 1024, 1024, 1024, 0, 6, 3904, 3923, 3938, 3958, 3908, 3943, 0, 1, 19002, -90.000, 0.000, -91.500, 0.000, 0.000, -3.000, 0.0, , , , , , 97, , , 0, 0, 0
37.7782986, -120.1185185, 41.300, 10:58:57.963, 19, 0.00, 0.17, 97, -0.400, -1.600, -91.100, 2, 100, 95, 24, 23573, -19407, 5252, 5415, 15, 14, 1526320737.965, 18, 0, 1024, 1024, 1024, 1024, 0, 6, 3904, 3923, 3938, 3958, 3908, 3943, 0, 1, 19102, -90.000, 0.000, -91.500, 0.000, 0.000, -3.000, 0.0, , , , , , 97, , , 0, 0, 0
37.7782986, -120.1185185, 41.600, 10:58:58.076, 19, 0.00, 0.17, 97, -0.400, -1.700, -91.100, 2, 100, 95, 24, 23573, -19407, 5252, 5415, 15, 14, 1526320738.077, 4, 0, 1024, 1024, 1024, 1024, 0, 6, 3904, 3923, 3938, 3958, 3908, 3943, 0, 1, 19214, -90.000, 0.000, -91.500, 0.000, 0.000, -3.000, 0.0, , , , , , 97, , , 0, 0, 0
37.7782986, -120.1185185, 41.900, 10:58:58.163, 19, 0.00, 0.17, 97, -0.300, -1.700, -91.100, 2, 100, 96, 24, 23589, -19002, 5252, 5415, 15, 14, 1526320738.164, 14, 0, 1024, 1024, 1024, 1024, 0, 6, 3899, 3923, 3939, 3954, 3906, 3945, 0, 1, 19301, -90.000, 0.000, -91.500, 0.000, 0.000, -2.900, 0.0, , , , , , 97, , , 0, 0, 0
37.7782985, -120.1185185, 42.200, 10:58:58.263, 19, 0.00, 0.17, 97, -0.100, -1.600, -91.100, 2, 100, 96, 24, 23589, -19002, 5252, 5415, 15, 14, 1526320738.264, 15, 0, 1024, 1024, 1024, 1024, 0, 6, 3899, 3923, 3939, 3954, 3906, 3945, 0, 1, 19401, -89.900, 0.000, -91.500, 0.000, 0.000, -3.000, 0.0, , , , , , 97, , , 0, 0, 0
37.7782985, -120.1185185, 42.500, 10:58:58.369, 19, 0.00, 0.17, 97, -0.100, -1.500, -91.200, 2, 100, 96, 24, 23589, -19002, 5252, 5415, 15, 14, 1526320738.370, 5, 0, 1024, 1024, 1024, 1024, 0, 6, 3899, 3923, 3939, 3954, 3906, 3945, 0, 1, 19507, -89.900, 0.000, -91.500, 0.000, 0.000, -2.900, 0.0, , , , , , 97, , , 0, 0, 0
37.7782985, -120.1185185, 42.800, 10:58:58.468, 19, 0.00, 0.17, 97, -0.400, -1.400, -91.200, 2, 100, 96, 24, 23589, -19002, 5252, 5415, 15, 14, 1526320738.468, 4, 0, 1024, 1024, 1024, 1024, 0, 6, 3899, 3923, 3939, 3954, 3906, 3945, 0, 1, 19606, -89.900, 0.000, -91.500, 0.000, 0.000, -3.000, 0.0, , , , , , 97, , , 0, 0, 0
37.7782985, -120.1185185, 43.100, 10:58:58.569, 19, 0.00, 0.17, 97, -0.600, -1.400, -91.300, 2, 100, 96, 24, 23589, -19002, 5252, 5415, 15, 14, 1526320738.570, 8, 0, 1024, 1024, 1024, 1024, 0, 6, 3899, 3923, 3939, 3954, 3906, 3945, 0, 1, 19708, -89.900, 0.000, -91.500, 0.000, 0.000, -3.000, 0.0, , , , , , 97, , , 0, 0, 0
37.7782986, -120.1185185, 43.400, 10:58:58.663, 19, 0.00, 0.17, 97, -0.800, -1.300, -91.300, 2, 100, 97, 24, 23589, -19002, 5252, 5415, 15, 14, 1526320738.664, 90, 0, 1024, 1024, 1024, 1024, 0, 6, 3899, 3923, 3939, 3954, 3906, 3945, 0, 1, 19801, -89.900, 0.000, -91.500, 0.000, 0.000, -2.900, 0.0, , , , , , 97, , , 0, 0, 0
37.7782986, -120.1185185, 43.400, 10:58:58.763, 19, 0.00, 0.17, 97, -0.800, -1.300, -91.300, 2, 100, 97, 24, 23589, -19002, 5252, 5415, 15, 14, 1526320738.764, 190, 0, 1024, 1024, 1024, 1024, 0, 6, 3899, 3923, 3939, 3954, 3906, 3945, 0, 1, 19901, -89.900, 0.000, -91.500, 0.000, 0.000, -2.900, 0.0, , , , , , 97, , , 0, 0, 0
37.7782986, -120.1185185, 43.900, 10:58:58.863, 19, 0.00, 0.17, 97, -0.700, -1.200, -91.300, 2, 100, 97, 24, 23589, -19002, 5252, 5415, 15, 14, 1526320738.864, 79, 0, 1024, 1024, 1024, 1024, 0, 6, 3899, 3923, 3939, 3954, 3906, 3945, 0, 1, 20001, -89.900, 0.000, -91.500, 0.000, 0.000, -2.900, 0.0, , , , , , 97, , , 0, 0, 0
37.7782986, -120.1185185, 44.200, 10:58:58.963, 19, 0.00, 0.18, 97, -0.700, -1.000, -91.300, 2, 100, 97, 24, 23589, -19002, 5252, 5415, 15, 14, 1526320738.964, 81, 0, 1024, 1024, 1024, 1024, 0, 6, 3899, 3923, 3939, 3954, 3906, 3945, 0, 1, 20101, -89.900, 0.000, -91.500, 0.000, 0.000, -3.000, 0.0, , , , , , 97, , , 0, 0, 0
37.7782986, -120.1185185, 44.200, 10:58:59.063, 19, 0.00, 0.18, 97, -0.700, -1.000, -91.300, 2, 100, 97, 24, 23589, -19002, 5252, 5415, 15, 14, 1526320739.063, 180, 0, 1024, 1024, 1024, 1024, 0, 6, 3899, 3923, 3939, 3954, 3906, 3945, 0, 1, 20201, -89.900, 0.000, -91.500, 0.000, 0.000, -3.000, 0.0, , , , , , 97, , , 0, 0, 0
37.7782987, -120.1185186, 44.900, 10:58:59.163, 19, 0.00, 0.18, 97, -0.900, -0.900, -91.300, 2, 100, 97, 24, 23489, -19972, 5252, 5415, 15, 14, 1526320739.164, 66, 0, 1024, 1024, 1024, 1024, 0, 6, 3891, 3915, 3914, 3949, 3902, 3930, 0, 1, 20301, -89.900, 0.000, -91.500, 0.000, 0.000, -3.000, 0.0, , , , , , 97, , , 0, 0, 0
37.7782987, -120.1185186, 45.200, 10:58:59.263, 19, 0.00, 0.18, 97, -1.100, -0.800, -91.300, 2, 100, 98, 24, 23489, -19972, 5252, 5415, 15, 14, 1526320739.264, 82, 0, 1024, 1024, 1024, 1024, 0, 6, 3891, 3915, 3914, 3949, 3902, 3930, 0, 1, 20401, -89.900, 0.000, -91.500, 0.000, 0.000, -3.000, 0.0, , , , , , 97, , , 0, 0, 0
37.7782987, -120.1185187, 45.400, 10:58:59.363, 19, 0.00, 0.18, 97, -1.100, -0.700, -91.300, 2, 100, 98, 24, 23489, -19972, 5252, 5415, 15, 14, 1526320739.364, 66, 0, 1024, 1024, 1024, 1024, 0, 6, 3891, 3915, 3914, 3949, 3902, 3930, 0, 1, 20501, -89.900, 0.000, -91.500, 0.000, 0.000, -3.000, 0.0, , , , , , 97, , , 0, 0, 0
37.7782987, -120.1185187, 45.800, 10:58:59.463, 19, 0.00, 0.19, 97, -1.300, -0.700, -91.200, 2, 100, 98, 24, 23489, -19972, 5252, 5415, 15, 14, 1526320739.463, 85, 0, 1024, 1024, 1024, 1024, 0, 6, 3891, 3915, 3914, 3949, 3902, 3930, 0, 1, 20601, -89.900, 0.000, -91.500, 0.000, 0.000, -3.000, 0.0, , , , , , 97, , , 0, 0, 0
37.7782987, -120.1185187, 46.100, 10:58:59.563, 19, 0.00, 0.19, 97, -1.100, -0.700, -91.200, 2, 100, 98, 24, 23489, -19972, 5252, 5415, 15, 14, 1526320739.564, 83, 0, 1024, 1024, 1024, 1024, 0, 6, 3891, 3915, 3914, 3949, 3902, 3930, 0, 1, 20701, -89.900, 0.000, -91.500, 0.000, 0.000, -3.000, 0.0, , , , , , 97, , , 0, 0, 0
37.7782987, -120.1185187, 46.400, 10:58:59.663, 19, 0.00, 0.19, 97, -1.000, -0.700, -91.300, 2, 100, 98, 24, 23489, -19972, 5252, 5415, 15, 14, 1526320739.664, 57, 0, 1024, 1024, 1024, 1024, 0, 6, 3891, 3915, 3914, 3949, 3902, 3930, 0, 1, 20801, -89.900, 0.000, -91.500, 0.000, 0.000, -3.000, 0.0, , , , , , 97, , , 0, 0, 0
37.7782987, -120.1185187, 46.700, 10:58:59.763, 19, 0.00, 0.19, 97, -0.900, -0.800, -91.300, 2, 100, 98, 24, 23489, -19972, 5252, 5415, 15, 14, 1526320739.765, 62, 0, 1024, 1024, 1024, 1024, 0, 6, 3891, 3915, 3914, 3949, 3902, 3930, 0, 1, 20902, -89.900, 0.000, -91.500, 0.000, 0.000, -3.000, 0.0, , , , , , 97, , , 0, 0, 0
37.7782987, -120.1185187, 47.000, 10:58:59.863, 19, 0.00, 0.19, 97, -0.900, -0.900, -91.300, 2, 100, 98, 24, 23489, -19972, 5252, 5415, 15, 14, 1526320739.864, 39, 0, 1024, 1024, 1024, 1024, 0, 6, 3891, 3915, 3914, 3949, 3902, 3930, 0, 1, 21002, -89.900, 0.000, -91.500, 0.000, 0.000, -3.000, 0.0, , , , , , 97, , , 0, 0, 0
37.7782987, -120.1185187, 47.300, 10:58:59.963, 19, 0.00, 0.18, 97, -0.800, -1.100, -91.200, 2, 100, 98, 24, 23489, -19972, 5252, 5415, 15, 14, 1526320739.964, 63, 0, 1024, 1024, 1024, 1024, 0, 6, 3891, 3915, 3914, 3949, 3902, 3930, 0, 1, 21101, -89.900, 0.000, -91.500, 0.000, 0.000, -3.000, 0.0, , , , , , 97, , , 0, 0, 0
37.7782987, -120.1185187, 47.600, 10:59:00.063, 19, 0.00, 0.18, 97, -0.800, -1.100, -91.100, 2, 100, 98, 24, 23489, -19972, 5252, 5415, 15, 14, 1526320740.064, 47, 0, 1024, 1024, 1024, 1024, 0, 6, 3891, 3915, 3914, 3949, 3902, 3930, 0, 1, 21201, -89.900, 0.000, -91.500, 0.000, 0.000, -3.000, 0.0, , , , , , 97, , , 0, 0, 0
