latitude,longitude,altitude(feet),ascent(feet),speed(mph),distance(feet),time(millisecond),datetime(utc),satellites,gpslevel,voltage(v),max_altitude(feet),max_ascent(feet),max_speed(mph),max_distance(feet), xSpeed(mph), ySpeed(mph), zSpeed(mph), compass_heading(degrees), pitch(degrees), roll(degrees),isPhoto,isVideo,rc_elevator,rc_aileron,rc_throttle,rc_rudder,gimbal_heading(degrees),gimbal_pitch(degrees),battery_percent,voltageCell1,voltageCell2,voltageCell3,voltageCell4,voltageCell5,voltageCell6,current(A),battery_temperature(f),flycStateRaw,flycState,message
37.778297,-120.1185187,3631.9050988325,0,0.223694,0,3410,2018-05-14 17:58:42,19,0,0,3631.9050988325,0,0.223694,0,0,0,0,269, 1.1, 0.4,1,0,1024,1024,1024,1024,268.6,-90,98,4.297,4.299,4.287,4.288,4.299,4.299,0,73.4,11,AutoTakeoff,
37.778297,-120.1185186,3632.2331828325,0.328084,0.223694,0.0288372056472,3500,2018-05-14 17:58:42,19,0,0,3632.2331828325,0.328084,0.223694,0.0288372056472,0,0,0,268.9, 0.1, 0.1,0,0,1024,1024,1024,1024,268.5,-90,98,4.297,4.299,4.287,4.288,4.299,4.299,0,73.4,11,AutoTakeoff,
37.7782972,-120.1185184,3632.2331828325,0.328084,0.223694,0.113176184724,3700,2018-05-14 17:58:43,19,0,0,3632.2331828325,0.328084,0.223694,0.113176184724,0,0,0,268.7, -0.6, 0.1,0,0,1024,1024,1024,1024,268.6,-90,98,4.297,4.299,4.287,4.288,4.299,4.299,0,73.4,11,AutoTakeoff,
37.7782975,-120.1185182,3632.5612668325,0.656168,0.223694,0.23252625416,3800,2018-05-14 17:58:43,19,0,0,3632.5612668325,0.656168,0.223694,0.23252625416,0,0,0,268.7, -0.9, -0.9,0,0,1024,1024,1024,1024,268.5,-90,98,4.297,4.299,4.287,4.288,4.299,4.299,0,73.4,11,AutoTakeoff,
37.7782979,-120.1185181,3632.8893508325,0.984252,0.223694,0.3711614292,4000,2018-05-14 17:58:43,19,0,25.694,3632.8893508325,0.984252,0.223694,0.3711614292,0,0,0,268.5, -0.4, -1.9,0,0,1024,1024,1024,1024,268.5,-90,98,4.297,4.299,4.287,4.288,4.299,4.299,3.925,73.4,11,AutoTakeoff,
37.778298,-120.1185182,3633.2174348325,1.312336,0.223694,0.392306443,4120,2018-05-14 17:58:43,19,0,25.694,3633.2174348325,1.312336,0.223694,0.392306443,0,0,0,268.5, -0.3, -2.1,0,0,1024,1024,1024,1024,268.6,-89.9,98,4.297,4.299,4.287,4.288,4.299,4.299,3.925,73.4,11,AutoTakeoff,
37.7782981,-120.1185182,3633.2174348325,1.312336,0.223694,0.42645014488,4300,2018-05-14 17:58:43,18,0,25.694,3633.2174348325,1.312336,0.223694,0.42645014488,0,0,-0.223694,268.4, -0.3, -2.3,0,0,1024,1024,1024,1024,268.5,-90,98,4.297,4.299,4.287,4.288,4.299,4.299,3.925,73.4,11,AutoTakeoff,
37.7782982,-120.1185182,3633.5455188325,1.64042,0,0.46095145832,4400,2018-05-14 17:58:43,18,0,25.694,3633.5455188325,1.64042,0.223694,0.46095145832,0,0,-0.223694,268.4, -0.4, -2.2,0,0,1024,1024,1024,1024,268.5,-90,98,4.297,4.299,4.287,4.288,4.299,4.299,3.925,73.4,11,AutoTakeoff,
37.7782983,-120.1185183,3633.8736028325,1.968504,0,0.48812993688,4500,2018-05-14 17:58:43,18,0,25.694,3633.8736028325,1.968504,0.223694,0.48812993688,0,0,-0.223694,268.2, -0.4, -2.3,0,0,1024,1024,1024,1024,268.5,-90,98,4.297,4.299,4.287,4.288,4.299,4.299,3.925,73.4,11,AutoTakeoff,
37.7782983,-120.1185183,3634.2016868325,2.296588,0,0.48812993688,4700,2018-05-14 17:58:44,19,0,25.694,3634.2016868325,2.296588,0.223694,0.48812993688,0,0,0,268.1, -0.3, -2.2,0,0,1024,1024,1024,1024,268.5,-90,98,4.297,4.299,4.287,4.288,4.299,4.299,3.925,73.4,11,AutoTakeoff,
37.7782983,-120.1185185,3634.5297708325,2.624672,0,0.47779857172,4800,2018-05-14 17:58:44,19,0,25.694,3634.5297708325,2.624672,0.223694,0.48812993688,0,0,0,268, -0.1, -2,0,0,1024,1024,1024,1024,268.5,-89.9,98,4.297,4.299,4.287,4.288,4.299,4.299,3.925,73.4,11,AutoTakeoff,
37.7782982,-120.1185186,3634.5297708325,2.624672,0,0.43876641824,4900,2018-05-14 17:58:44,19,0,25.694,3634.5297708325,2.624672,0.223694,0.48812993688,0,0,0,268, 0, -1.7,0,0,1024,1024,1024,1024,268.5,-89.9,98,4.297,4.299,4.287,4.288,4.299,4.299,3.925,73.4,11,AutoTakeoff,
37.7782982,-120.1185187,3634.8578548325,2.952756,0,0.43781825548,5000,2018-05-14 17:58:44,19,0,24.427,3634.8578548325,2.952756,0.223694,0.48812993688,0,0,-0.223694,268.1, 0.3, -1.4,0,0,1024,1024,1024,1024,268.5,-89.9,98,4.135,4.137,4.161,4.168,4.139,4.176,16.42,75.2,6,P-GPS,
37.7782981,-120.1185189,3635.1859388325,3.28084,0,0.40545604972,5200,2018-05-14 17:58:44,18,0,24.427,3635.1859388325,3.28084,0.223694,0.48812993688,0,0,0,268.4, 0.7, -0.3,0,0,1024,1024,1024,1024,268.5,-89.9,98,4.135,4.137,4.161,4.168,4.139,4.176,16.42,75.2,14,Waypoint,
37.778298,-120.1185191,3635.5140228325,3.608924,0,0.38264765004,5410,2018-05-14 17:58:44,19,0,24.427,3635.5140228325,3.608924,0.223694,0.48812993688,0,0,0,268.8, 1, 0.5,0,0,1024,1024,1024,1024,268.5,-89.9,98,4.135,4.137,4.161,4.168,4.139,4.176,16.42,75.2,14,Waypoint,
37.7782979,-120.1185192,3635.8421068325,3.937008,0,0.35862533956,5610,2018-05-14 17:58:44,19,0,24.427,3635.8421068325,3.937008,0.223694,0.48812993688,0,0,-0.223694,268.8, 0.6, 0,0,0,1024,1024,1024,1024,268.5,-89.9,98,4.135,4.137,4.161,4.168,4.139,4.176,16.42,75.2,14,Waypoint,
37.7782979,-120.1185193,3636.1701908325,4.265092,0,0.3711614292,5710,2018-05-14 17:58:45,19,0,24.427,3636.1701908325,4.265092,0.223694,0.48812993688,0,0,-0.223694,268.8, 0.7, -0.3,0,0,1024,1024,1024,1024,268.5,-89.9,98,4.135,4.137,4.161,4.168,4.139,4.176,16.42,75.2,14,Waypoint,
37.778298,-120.1185194,3636.4982748325,4.593176,0,0.41696851728,5810,2018-05-14 17:58:45,19,0,24.427,3636.4982748325,4.593176,0.223694,0.48812993688,0,0,-0.223694,268.7, 0.7, -0.7,0,0,1024,1024,1024,1024,268.5,-89.9,98,4.135,4.137,4.161,4.168,4.139,4.176,16.42,75.2,14,Waypoint,
37.778298,-120.1185194,3636.8263588325,4.92126,0,0.41696851728,5900,2018-05-14 17:58:45,19,0,24.427,3636.8263588325,4.92126,0.223694,0.48812993688,0,0,-0.223694,268.6, 0.8, -0.9,0,0,1024,1024,1024,1024,268.5,-89.9,98,4.135,4.137,4.161,4.168,4.139,4.176,16.42,75.2,14,Waypoint,
37.778298,-120.1185195,3637.1544428325,5.249344,0,0.43166668048,6010,2018-05-14 17:58:45,19,0,24.293,3637.1544428325,5.249344,0.223694,0.48812993688,0,0,-0.223694,268.6, 0.7, -1,0,0,1024,1024,1024,1024,268.5,-89.9,98,4.041,4.057,4.066,4.076,4.045,4.061,16.091,75.2,14,Waypoint,
37.7782981,-120.1185196,3637.8106108325,5.905512,0,0.47793964784,6200,2018-05-14 17:58:45,19,0,24.293,3637.8106108325,5.905512,0.223694,0.48812993688,0,0,-0.223694,268.5, 0.8, -1.1,0,0,1024,1024,1024,1024,268.5,-89.9,98,4.041,4.057,4.066,4.076,4.045,4.061,16.091,75.2,14,Waypoint,
37.7782981,-120.1185196,3638.1386948325,6.233596,0,0.47793964784,6400,2018-05-14 17:58:45,19,0,24.293,3638.1386948325,6.233596,0.223694,0.48812993688,0,0,-0.447388,268.5, 0.7, -1.1,0,0,1024,1024,1024,1024,268.5,-90,98,4.041,4.057,4.066,4.076,4.045,4.061,16.091,75.2,14,Waypoint,
37.7782981,-120.1185196,3638.7948628325,6.889764,0,0.47793964784,6500,2018-05-14 17:58:45,19,0,24.293,3638.7948628325,6.889764,0.223694,0.48812993688,0,0,-0.447388,268.5, 0.6, -1,0,0,1024,1024,1024,1024,268.6,-89.9,98,4.041,4.057,4.066,4.076,4.045,4.061,16.091,75.2,14,Waypoint,
37.7782982,-120.1185197,3639.4510308325,7.545932,0,0.52425526612,6600,2018-05-14 17:58:45,19,0,24.293,3639.4510308325,7.545932,0.223694,0.52425526612,0,0,-0.447388,268.6, 0.6, -1.1,0,0,1024,1024,1024,1024,268.6,-89.9,98,4.041,4.057,4.066,4.076,4.045,4.061,16.091,75.2,14,Waypoint,
37.7782984,-120.1185197,3642.7318708325,10.826772,0,0.58656826024,6900,2018-05-14 17:58:46,19,0,24.293,3642.7318708325,10.826772,0.223694,0.58656826024,0,0,-0.671082,269.3, 0.5, -1.5,0,0,1024,1024,1024,1024,268.5,-90,98,4.041,4.057,4.066,4.076,4.045,4.061,16.091,75.2,14,Waypoint,
37.7782984,-120.1185197,3644.7003748325,12.795276,0,0.58656826024,7100,2018-05-14 17:58:46,19,0,24.293,3644.7003748325,12.795276,0.223694,0.58656826024,0,0,-0.671082,269.2, -0.2, -0.2,0,0,1024,1024,1024,1024,268.5,-90,98,4.041,4.057,4.066,4.076,4.045,4.061,16.091,75.2,14,Waypoint,
37.7782984,-120.1185196,3646.9969628325,15.091864,0,0.57294293172,7300,2018-05-14 17:58:46,19,0,24.293,3646.9969628325,15.091864,0.223694,0.58656826024,0,0,-0.671082,269.1, -0.5, 0.1,0,0,1024,1024,1024,1024,268.5,-90,98,4.041,4.057,4.066,4.076,4.045,4.061,16.091,75.2,14,Waypoint,
37.7782984,-120.1185195,3647.9812148325,16.076116,0,0.56046917804,7400,2018-05-14 17:58:46,19,0,24.293,3647.9812148325,16.076116,0.223694,0.58656826024,0,0,-0.671082,269, -0.7, 0.2,0,0,1024,1024,1024,1024,268.5,-90,98,4.041,4.057,4.066,4.076,4.045,4.061,16.091,75.2,14,Waypoint,
37.7782983,-120.1185194,3649.2935508325,17.388452,0,0.51547245744,7500,2018-05-14 17:58:46,19,0,24.293,3649.2935508325,17.388452,0.223694,0.58656826024,0,0,-0.671082,268.9, -0.9, 0.3,0,0,1024,1024,1024,1024,268.5,-90,98,4.041,4.057,4.066,4.076,4.045,4.061,16.091,75.2,14,Waypoint,
37.7782983,-120.1185194,3650.2778028325,18.372704,0,0.51547245744,7600,2018-05-14 17:58:46,19,0,24.293,3650.2778028325,18.372704,0.223694,0.58656826024,0,0,-0.671082,268.7, -1, 0.3,0,0,1024,1024,1024,1024,268.5,-90,98,4.041,4.057,4.066,4.076,4.045,4.061,16.091,75.2,14,Waypoint,
37.7782981,-120.1185193,3652.2463068325,20.341208,0,0.43704397724,7700,2018-05-14 17:58:47,19,0,24.293,3652.2463068325,20.341208,0.223694,0.58656826024,0,0,-0.671082,268.4, -0.7, 0.8,0,0,1024,1024,1024,1024,268.5,-90,98,4.041,4.057,4.066,4.076,4.045,4.061,16.091,75.2,14,Waypoint,
37.7782979,-120.1185192,3653.5586428325,21.653544,0,0.35862533956,7800,2018-05-14 17:58:47,19,0,24.293,3653.5586428325,21.653544,0.223694,0.58656826024,0,0,-0.671082,268.3, -0.8, 1,0,0,1024,1024,1024,1024,268.5,-90,98,4.041,4.057,4.066,4.076,4.045,4.061,16.091,75.2,14,Waypoint,
37.7782978,-120.1185192,3654.5428948325,22.637796,0.223694,0.325550863436,7900,2018-05-14 17:58:47,19,0,24.293,3654.5428948325,22.637796,0.223694,0.58656826024,0,0,-0.671082,268.2, -0.9, 1.7,0,0,1024,1024,1024,1024,268.5,-90,98,4.041,4.057,4.066,4.076,4.045,4.061,16.091,75.2,14,Waypoint,
37.7782976,-120.1185192,3655.5271468325,23.622048,0.223694,0.262127961144,8000,2018-05-14 17:58:47,19,0,23.66,3655.5271468325,23.622048,0.223694,0.58656826024,0,0,-0.671082,268.1, -1, 2,0,0,1024,1024,1024,1024,268.5,-90,98,3.98,3.999,3.983,3.995,3.961,4.003,22.366,75.2,14,Waypoint,
37.7782975,-120.1185191,3656.8394828325,24.934384,0,0.215833668324,8100,2018-05-14 17:58:47,19,0,23.66,3656.8394828325,24.934384,0.223694,0.58656826024,0,0,-0.671082,268.1, -1.1, 2,0,0,1024,1024,1024,1024,268.5,-90,98,3.98,3.999,3.983,3.995,3.961,4.003,22.366,75.2,14,Waypoint,
37.7782973,-120.1185191,3657.8237348325,25.918636,0,0.159014768868,8200,2018-05-14 17:58:47,19,0,23.66,3657.8237348325,25.918636,0.223694,0.58656826024,0,0,-0.671082,268.3, -1.1, 1.8,0,0,1024,1024,1024,1024,268.5,-90,98,3.98,3.999,3.983,3.995,3.961,4.003,22.366,75.2,14,Waypoint,
37.7782972,-120.1185191,3658.8079868325,26.902888,0,0.136491802268,8300,2018-05-14 17:58:47,19,0,23.66,3658.8079868325,26.902888,0.223694,0.58656826024,0,0,-0.671082,268.5, -1, 1.8,0,0,1024,1024,1024,1024,268.5,-90,98,3.98,3.999,3.983,3.995,3.961,4.003,22.366,75.2,14,Waypoint,
37.778297,-120.1185191,3659.7922388325,27.88714,0,0.115348756972,8400,2018-05-14 17:58:47,19,0,23.66,3659.7922388325,27.88714,0.223694,0.58656826024,0,0,-0.671082,268.6, -0.8, 1.9,0,0,1024,1024,1024,1024,268.6,-89.9,98,3.98,3.999,3.983,3.995,3.961,4.003,22.366,75.2,14,Waypoint,
37.7782969,-120.1185191,3660.7764908325,28.871392,0,0.120981631168,8500,2018-05-14 17:58:47,19,0,23.66,3660.7764908325,28.871392,0.223694,0.58656826024,0,0,-0.671082,268.8, -0.3, 2.1,0,0,1024,1024,1024,1024,268.5,-89.9,98,3.98,3.999,3.983,3.995,3.961,4.003,22.366,75.2,14,Waypoint,
37.7782967,-120.1185191,3662.0888268325,30.183728,0,0.159014768868,8600,2018-05-14 17:58:47,19,0,23.66,3662.0888268325,30.183728,0.223694,0.58656826024,0,0,-0.671082,268.8, -0.2, 2.1,0,0,1024,1024,1024,1024,268.5,-89.9,98,3.98,3.999,3.983,3.995,3.961,4.003,22.366,75.2,14,Waypoint,
37.7782966,-120.1185192,3663.0730788325,31.16798,0,0.205153877956,8800,2018-05-14 17:58:48,19,0,23.66,3663.0730788325,31.16798,0.223694,0.58656826024,0,0,-0.671082,268.8, -0.1, 2.1,0,0,1024,1024,1024,1024,268.6,-89.9,98,3.98,3.999,3.983,3.995,3.961,4.003,22.366,75.2,14,Waypoint,
37.7782965,-120.1185192,3663.7292468325,31.824148,0,0.23252625416,8900,2018-05-14 17:58:48,19,0,23.66,3663.7292468325,31.824148,0.223694,0.58656826024,0,0,-0.671082,268.8, -0.1, 2,0,0,1024,1024,1024,1024,268.5,-89.9,98,3.98,3.999,3.983,3.995,3.961,4.003,22.366,75.2,14,Waypoint,
37.7782962,-120.1185193,3666.0258348325,34.120736,0,0.33930775364,9000,2018-05-14 17:58:48,19,0,23.66,3666.0258348325,34.120736,0.223694,0.58656826024,0,0,-0.671082,268.9, 0, 2.2,0,0,1024,1024,1024,1024,268.6,-89.9,98,3.921,3.952,3.962,3.97,3.937,3.978,22.366,75.2,14,Waypoint,
37.7782961,-120.1185193,3667.0100868325,35.104988,0,0.3711614292,9200,2018-05-14 17:58:48,19,0,23.66,3667.0100868325,35.104988,0.223694,0.58656826024,0,0,-0.671082,268.8, 0, 2.3,0,0,1024,1024,1024,1024,268.6,-89.9,98,3.921,3.952,3.962,3.97,3.937,3.978,22.366,75.2,14,Waypoint,
37.778296,-120.1185193,3667.9943388325,36.08924,0,0.40379594468,9400,2018-05-14 17:58:48,19,0,23.66,3667.9943388325,36.08924,0.223694,0.58656826024,0,0,-0.671082,268.9, -0.2, 2.3,0,0,1024,1024,1024,1024,268.5,-90,98,3.921,3.952,3.962,3.97,3.937,3.978,22.366,75.2,14,Waypoint,
37.778296,-120.1185193,3668.9785908325,37.073492,0,0.40379594468,9610,2018-05-14 17:58:48,19,0,23.66,3668.9785908325,37.073492,0.223694,0.58656826024,0,0,-0.671082,268.9, -0.4, 2.4,0,0,1024,1024,1024,1024,268.5,-90,98,3.921,3.952,3.962,3.97,3.937,3.978,22.366,75.2,14,Waypoint,
37.7782959,-120.1185193,3670.9470948325,39.041996,0,0.43704397724,9700,2018-05-14 17:58:49,19,0,23.66,3670.9470948325,39.041996,0.223694,0.58656826024,0,0,-0.671082,268.9, -0.1, 2.6,0,0,1024,1024,1024,1024,268.5,-89.9,98,3.921,3.952,3.962,3.97,3.937,3.978,22.366,75.2,14,Waypoint,
37.7782958,-120.1185193,3674.2279348325,42.322836,0,0.4707677316,9900,2018-05-14 17:58:49,19,0,23.66,3674.2279348325,42.322836,0.223694,0.58656826024,0,0,-0.671082,268.8, -0.3, 2.1,0,0,1024,1024,1024,1024,268.6,-90,98,3.921,3.952,3.962,3.97,3.937,3.978,22.366,75.2,14,Waypoint,
37.7782958,-120.1185192,3676.1964388325,44.29134,0,0.46095145832,10020,2018-05-14 17:58:49,19,0,23.922,3676.1964388325,44.29134,0.223694,0.58656826024,0,0,-0.671082,268.8, -0.4, 1.8,0,0,1024,1024,1024,1024,268.6,-90,98,3.961,3.984,3.999,4.008,3.971,4.01,17.942,75.2,14,Waypoint,
37.7782959,-120.1185192,3677.1806908325,45.275592,0,0.42645014488,10110,2018-05-14 17:58:49,19,0,23.922,3677.1806908325,45.275592,0.223694,0.58656826024,0,0,-0.671082,268.8, -0.6, 1.6,0,0,1024,1024,1024,1024,268.5,-90,98,3.961,3.984,3.999,4.008,3.971,4.01,17.942,75.2,14,Waypoint,
37.778296,-120.1185191,3679.1491948325,47.244096,0.223694,0.38264765004,10300,2018-05-14 17:58:49,19,0,23.922,3679.1491948325,47.244096,0.223694,0.58656826024,0,0,-0.671082,268.8, -1.1, 1.5,0,0,1024,1024,1024,1024,268.5,-90,98,3.961,3.984,3.999,4.008,3.971,4.01,17.942,75.2,14,Waypoint,
37.7782961,-120.1185191,3680.1334468325,48.228348,0.223694,0.34803478804,10400,2018-05-14 17:58:49,19,0,23.922,3680.1334468325,48.228348,0.223694,0.58656826024,0,0,-0.671082,268.8, -1.1, 1.4,0,0,1024,1024,1024,1024,268.5,-90,98,3.961,3.984,3.999,4.008,3.971,4.01,17.942,75.2,14,Waypoint,
37.7782961,-120.118519,3681.1176988325,49.2126,0.223694,0.33957022084,10510,2018-05-14 17:58:49,19,0,23.922,3681.1176988325,49.2126,0.223694,0.58656826024,0,0,-0.671082,268.9, -1, 1.4,0,0,1024,1024,1024,1024,268.5,-90,98,3.961,3.984,3.999,4.008,3.971,4.01,17.942,75.2,14,Waypoint,
37.7782962,-120.118519,3682.1019508325,50.196852,0.223694,0.304430455936,10600,2018-05-14 17:58:49,19,0,23.922,3682.1019508325,50.196852,0.223694,0.58656826024,0,0,-0.671082,268.9, -0.9, 1.1,0,0,1024,1024,1024,1024,268.5,-90,98,3.961,3.984,3.999,4.008,3.971,4.01,17.942,75.2,14,Waypoint,
37.7782964,-120.118519,3683.0862028325,51.181104,0.223694,0.235384193884,10800,2018-05-14 17:58:50,19,0,23.922,3683.0862028325,51.181104,0.223694,0.58656826024,0,0,-0.671082,269, -1, 0.7,0,0,1024,1024,1024,1024,268.5,-90,98,3.961,3.984,3.999,4.008,3.971,4.01,17.942,75.2,14,Waypoint,
37.7782965,-120.118519,3684.0704548325,52.165356,0.223694,0.201898628508,10900,2018-05-14 17:58:50,19,0,23.922,3684.0704548325,52.165356,0.223694,0.58656826024,0,0,-0.671082,268.9, -0.9, 0.4,0,0,1024,1024,1024,1024,268.5,-90,98,3.961,3.984,3.999,4.008,3.971,4.01,17.942,75.2,14,Waypoint,
37.7782968,-120.118519,3686.0389588325,54.13386,0.223694,0.113176184724,11010,2018-05-14 17:58:50,19,0,23.903,3686.0389588325,54.13386,0.223694,0.58656826024,0,0,-0.671082,268.7, -0.5, 0,0,0,1024,1024,1024,1024,268.5,-89.9,97,3.96,3.971,4,4.013,3.975,4.001,17.942,75.2,14,Waypoint,
37.7782971,-120.1185191,3688.0074628325,56.102364,0.223694,0.120981631168,11210,2018-05-14 17:58:50,19,0,23.903,3688.0074628325,56.102364,0.223694,0.58656826024,0,0,-0.671082,268.6, -0.2, -0.2,0,0,1024,1024,1024,1024,268.5,-89.9,97,3.96,3.971,4,4.013,3.975,4.001,17.942,75.2,14,Waypoint,
37.7782973,-120.1185191,3688.9917148325,57.086616,0.223694,0.159014768868,11400,2018-05-14 17:58:50,19,0,23.903,3688.9917148325,57.086616,0.223694,0.58656826024,0,0,-0.671082,268.6, -0.1, -0.2,0,0,1024,1024,1024,1024,268.6,-89.9,97,3.96,3.971,4,4.013,3.975,4.001,17.942,75.2,14,Waypoint,
37.7782976,-120.1185191,3691.6163868325,59.711288,0.223694,0.247440624716,11500,2018-05-14 17:58:50,19,0,23.903,3691.6163868325,59.711288,0.223694,0.58656826024,0,0,-0.671082,268.8, -0.3, -0.3,0,0,1024,1024,1024,1024,268.5,-89.9,97,3.96,3.971,4,4.013,3.975,4.001,17.942,75.2,14,Waypoint,
37.7782979,-120.1185191,3693.9129748325,62.007876,0,0.34803478804,11600,2018-05-14 17:58:50,19,0,23.903,3693.9129748325,62.007876,0.223694,0.58656826024,0,0,-0.671082,268.9, -0.5, -0.5,0,0,1024,1024,1024,1024,268.5,-90,97,3.96,3.971,4,4.013,3.975,4.001,17.942,75.2,14,Waypoint,
37.778298,-120.118519,3694.8972268325,62.992128,0,0.3749672036,11700,2018-05-14 17:58:51,19,0,23.903,3694.8972268325,62.992128,0.223694,0.58656826024,0,0,-0.671082,268.9, -0.5, -0.6,0,0,1024,1024,1024,1024,268.5,-90,97,3.96,3.971,4,4.013,3.975,4.001,17.942,75.2,14,Waypoint,
37.7782981,-120.118519,3695.8814788325,63.97638,0,0.41055119424,11800,2018-05-14 17:58:51,19,0,23.903,3695.8814788325,63.97638,0.223694,0.58656826024,0,0,-0.671082,268.8, -0.5, -0.7,0,0,1024,1024,1024,1024,268.5,-90,97,3.96,3.971,4,4.013,3.975,4.001,17.942,75.2,14,Waypoint,
37.7782983,-120.1185189,3697.8499828325,65.944884,0,0.47779857172,12000,2018-05-14 17:58:51,19,0,23.948,3697.8499828325,65.944884,0.223694,0.58656826024,0,0,-0.671082,268.7, -0.8, -0.8,0,0,1024,1024,1024,1024,268.5,-90,97,3.952,3.967,3.997,4.012,3.962,3.995,18.283,75.2,14,Waypoint,
37.7782985,-120.1185189,3698.8342348325,66.929136,0,0.55030513572,12100,2018-05-14 17:58:51,19,0,23.948,3698.8342348325,66.929136,0.223694,0.58656826024,0,0,-0.671082,268.7, -0.9, -0.9,0,0,1024,1024,1024,1024,268.5,-90,97,3.952,3.967,3.997,4.012,3.962,3.995,18.283,75.2,14,Waypoint,
37.7782985,-120.1185189,3699.8184868325,67.913388,0,0.55030513572,12200,2018-05-14 17:58:51,19,0,23.948,3699.8184868325,67.913388,0.223694,0.58656826024,0,0,-0.671082,268.8, -1, -1.1,0,0,1024,1024,1024,1024,268.5,-90,97,3.952,3.967,3.997,4.012,3.962,3.995,18.283,75.2,14,Waypoint,
37.7782986,-120.118519,3700.8027388325,68.89764,0,0.59013453332,12300,2018-05-14 17:58:51,19,0,23.948,3700.8027388325,68.89764,0.223694,0.59013453332,0,0,-0.671082,268.8, -0.8, -1.2,0,0,1024,1024,1024,1024,268.5,-89.9,97,3.952,3.967,3.997,4.012,3.962,3.995,18.283,75.2,14,Waypoint,
37.7782987,-120.118519,3701.7869908325,69.881892,0,0.6262467392,12400,2018-05-14 17:58:51,19,0,23.948,3701.7869908325,69.881892,0.223694,0.6262467392,0,0,-0.671082,268.8, -0.5, -1.3,0,0,1024,1024,1024,1024,268.5,-89.9,97,3.952,3.967,3.997,4.012,3.962,3.995,18.283,75.2,14,Waypoint,
37.7782988,-120.1185189,3702.7712428325,70.866144,0,0.65925527044,12500,2018-05-14 17:58:51,19,0,23.948,3702.7712428325,70.866144,0.223694,0.65925527044,0,0,-0.671082,268.8, -0.4, -1.2,0,0,1024,1024,1024,1024,268.5,-89.9,97,3.952,3.967,3.997,4.012,3.962,3.995,18.283,75.2,14,Waypoint,
37.7782989,-120.1185189,3704.7397468325,72.834648,0,0.69561025848,12700,2018-05-14 17:58:52,19,0,23.948,3704.7397468325,72.834648,0.223694,0.69561025848,0,0,-0.671082,268.9, -0.5, -1.1,0,0,1024,1024,1024,1024,268.5,-90,97,3.952,3.967,3.997,4.012,3.962,3.995,18.283,75.2,14,Waypoint,
37.778299,-120.1185189,3705.7239988325,73.8189,0,0.73197508904,12800,2018-05-14 17:58:52,19,0,23.948,3705.7239988325,73.8189,0.223694,0.73197508904,0,0,-0.671082,268.9, -0.6, -1.2,0,0,1024,1024,1024,1024,268.5,-90,97,3.952,3.967,3.997,4.012,3.962,3.995,18.283,75.2,14,Waypoint,
37.778299,-120.1185188,3706.7082508325,74.803152,0,0.73026905224,12900,2018-05-14 17:58:52,19,0,23.948,3706.7082508325,74.803152,0.223694,0.73197508904,0,0,-0.671082,268.9, -0.7, -1.2,0,0,1024,1024,1024,1024,268.5,-90,97,3.952,3.967,3.997,4.012,3.962,3.995,18.283,75.2,14,Waypoint,
37.7782991,-120.1185188,3707.6925028325,75.787404,0,0.76672574632,13000,2018-05-14 17:58:52,19,0,23.796,3707.6925028325,75.787404,0.223694,0.76672574632,0,0,-0.671082,268.9, -1.1, -1.3,0,0,1024,1024,1024,1024,268.5,-90,97,3.941,3.966,3.97,3.981,3.948,3.982,18.467,75.2,14,Waypoint,
37.7782992,-120.1185187,3708.6767548325,76.771656,0,0.80266734852,13100,2018-05-14 17:58:52,19,0,23.796,3708.6767548325,76.771656,0.223694,0.80266734852,0,0,-0.671082,268.9, -1.2, -1.3,0,0,1024,1024,1024,1024,268.5,-90,97,3.941,3.966,3.97,3.981,3.948,3.982,18.467,75.2,14,Waypoint,
37.7782993,-120.1185187,3710.6452588325,78.74016,0,0.83915357016,13400,2018-05-14 17:58:52,19,0,23.796,3710.6452588325,78.74016,0.223694,0.83915357016,0,0,-0.671082,268.8, -0.9, -1.8,0,0,1024,1024,1024,1024,268.5,-89.9,97,3.941,3.966,3.97,3.981,3.948,3.982,18.467,75.2,14,Waypoint,
37.7782994,-120.1185186,3711.6295108325,79.724412,0,0.87611223276,13500,2018-05-14 17:58:52,19,0,23.796,3711.6295108325,79.724412,0.223694,0.87611223276,0,0,-0.671082,268.8, -1, -1.9,0,0,1024,1024,1024,1024,268.5,-90,97,3.941,3.966,3.97,3.981,3.948,3.982,18.467,75.2,14,Waypoint,
37.7782994,-120.1185186,3712.6137628325,80.708664,0,0.87611223276,13600,2018-05-14 17:58:52,19,0,23.796,3712.6137628325,80.708664,0.223694,0.87611223276,0,0,-0.671082,268.9, -1.3, -2,0,0,1024,1024,1024,1024,268.5,-90,97,3.941,3.966,3.97,3.981,3.948,3.982,18.467,75.2,14,Waypoint,
37.7782996,-120.1185185,3715.5665188325,83.66142,0,0.9503609228,13800,2018-05-14 17:58:53,19,0,23.796,3715.5665188325,83.66142,0.223694,0.9503609228,0,0,-0.671082,268.8, -1.4, -2.2,0,0,1024,1024,1024,1024,268.5,-90,97,3.941,3.966,3.97,3.981,3.948,3.982,18.467,75.2,14,Waypoint,
37.7782996,-120.1185184,3716.5507708325,84.645672,0,0.95254596224,14000,2018-05-14 17:58:53,19,0,23.761,3716.5507708325,84.645672,0.223694,0.95254596224,0,0,-0.671082,268.8, -1.4, -2.2,0,0,1024,1024,1024,1024,268.5,-90,97,3.938,3.949,3.967,3.98,3.935,3.97,18.586,75.2,14,Waypoint,
37.7782996,-120.1185183,3718.5192748325,86.614176,0,0.95559714344,14100,2018-05-14 17:58:53,19,0,23.761,3718.5192748325,86.614176,0.223694,0.95559714344,0,0,-0.671082,268.7, -1.4, -1.7,0,0,1024,1024,1024,1024,268.5,-90,97,3.938,3.949,3.967,3.98,3.935,3.97,18.586,75.2,14,Waypoint,
37.7782996,-120.1185183,3719.5035268325,87.598428,0,0.95559714344,14200,2018-05-14 17:58:53,19,0,23.761,3719.5035268325,87.598428,0.223694,0.95559714344,0,0,-0.671082,268.7, -1.3, -1.4,0,0,1024,1024,1024,1024,268.5,-90,97,3.938,3.949,3.967,3.98,3.935,3.97,18.586,75.2,14,Waypoint,
37.7782995,-120.1185182,3721.1439468325,89.238848,0,0.92344819228,14400,2018-05-14 17:58:53,19,0,23.761,3721.1439468325,89.238848,0.223694,0.95559714344,0,0,-0.671082,268.7, -1.1, -1,0,0,1024,1024,1024,1024,268.5,-90,97,3.938,3.949,3.967,3.98,3.935,3.97,18.586,75.2,14,Waypoint,
37.7782994,-120.1185182,3722.1281988325,90.2231,0,0.88743113076,14500,2018-05-14 17:58:53,19,0,23.761,3722.1281988325,90.2231,0.223694,0.95559714344,0,0,-0.671082,268.8, -1.1, -0.9,0,0,1024,1024,1024,1024,268.5,-89.9,97,3.938,3.949,3.967,3.98,3.935,3.97,18.586,75.2,14,Waypoint,
37.7782993,-120.1185182,3724.0967028325,92.191604,0,0.85145015848,14700,2018-05-14 17:58:54,19,0,23.761,3724.0967028325,92.191604,0.223694,0.95559714344,0,0,-0.671082,268.9, -1.2, -0.9,0,0,1024,1024,1024,1024,268.6,-90,97,3.938,3.949,3.967,3.98,3.935,3.97,18.586,75.2,14,Waypoint,
37.7782993,-120.1185182,3725.0809548325,93.175856,0,0.85145015848,14800,2018-05-14 17:58:54,19,0,23.761,3725.0809548325,93.175856,0.223694,0.95559714344,0,0,-0.671082,268.9, -1.2, -0.8,0,0,1024,1024,1024,1024,268.5,-89.9,97,3.938,3.949,3.967,3.98,3.935,3.97,18.586,75.2,14,Waypoint,
37.7782992,-120.1185182,3726.0652068325,94.160108,0,0.81551511796,14900,2018-05-14 17:58:54,19,0,23.761,3726.0652068325,94.160108,0.223694,0.95559714344,0,0,-0.671082,268.9, -1.2, -0.8,0,0,1024,1024,1024,1024,268.5,-90,97,3.938,3.949,3.967,3.98,3.935,3.97,18.586,75.2,14,Waypoint,
37.7782992,-120.1185182,3727.0494588325,95.14436,0,0.81551511796,15000,2018-05-14 17:58:54,19,0,23.665,3727.0494588325,95.14436,0.223694,0.95559714344,0,0,-0.671082,268.9, -1.4, -0.8,0,0,1024,1024,1024,1024,268.5,-89.9,97,3.917,3.941,3.949,3.966,3.925,3.955,19.006,75.2,14,Waypoint,
37.7782992,-120.1185182,3728.0337108325,96.128612,0,0.81551511796,15100,2018-05-14 17:58:54,19,0,23.665,3728.0337108325,96.128612,0.223694,0.95559714344,0,0,-0.671082,268.8, -1.4, -0.8,0,0,1024,1024,1024,1024,268.5,-89.9,97,3.917,3.941,3.949,3.966,3.925,3.955,19.006,75.2,14,Waypoint,
37.7782991,-120.1185182,3729.0179628325,97.112864,0,0.77963257088,15200,2018-05-14 17:58:54,19,0,23.665,3729.0179628325,97.112864,0.223694,0.95559714344,0,0,-0.671082,268.7, -1.3, -0.6,0,0,1024,1024,1024,1024,268.5,-89.9,97,3.917,3.941,3.949,3.966,3.925,3.955,19.006,75.2,14,Waypoint,
37.7782991,-120.1185182,3730.0022148325,98.097116,0,0.77963257088,15400,2018-05-14 17:58:54,19,0,23.665,3730.0022148325,98.097116,0.223694,0.95559714344,0,0,-0.671082,268.6, -1.1, -0.7,0,0,1024,1024,1024,1024,268.6,-89.9,97,3.917,3.941,3.949,3.966,3.925,3.955,19.006,75.2,14,Waypoint,
37.778299,-120.1185182,3730.9864668325,99.081368,0,0.74380907892,15500,2018-05-14 17:58:54,19,0,23.665,3730.9864668325,99.081368,0.223694,0.95559714344,0,0,-0.671082,268.7, -1, -0.7,0,0,1024,1024,1024,1024,268.5,-89.9,97,3.917,3.941,3.949,3.966,3.925,3.955,19.006,75.2,14,Waypoint,
37.778299,-120.1185182,3731.9707188325,100.06562,0,0.74380907892,15710,2018-05-14 17:58:55,19,0,23.665,3731.9707188325,100.06562,0.223694,0.95559714344,0,0,-0.671082,268.8, -1, -0.8,0,0,1024,1024,1024,1024,268.5,-89.9,97,3.917,3.941,3.949,3.966,3.925,3.955,19.006,75.2,14,Waypoint,
37.778299,-120.1185183,3732.9549708325,101.049872,0,0.73875986616,15900,2018-05-14 17:58:55,19,0,23.665,3732.9549708325,101.049872,0.223694,0.95559714344,0,0,-0.671082,268.8, -1, -0.8,0,0,1024,1024,1024,1024,268.5,-89.9,97,3.917,3.941,3.949,3.966,3.925,3.955,19.006,75.2,14,Waypoint,
37.7782989,-120.1185182,3734.9234748325,103.018376,0,0.70805120376,16410,2018-05-14 17:58:55,19,0,23.665,3734.9234748325,103.018376,0.223694,0.95559714344,0,0,-0.671082,268.8, -1.3, -0.7,0,0,1024,1024,1024,1024,268.5,-90,97,3.917,3.941,3.949,3.966,3.925,3.955,19.006,75.2,14,Waypoint,
37.7782989,-120.1185182,3735.9077268325,104.002628,0,0.70805120376,16630,2018-05-14 17:58:55,19,0,23.665,3735.9077268325,104.002628,0.223694,0.95559714344,0,0,-0.671082,268.8, -1.6, -0.8,0,0,1024,1024,1024,1024,268.5,-90,97,3.917,3.941,3.949,3.966,3.925,3.955,19.006,75.2,14,Waypoint,
37.7782989,-120.1185181,3740.8289868325,108.923888,0,0.71448165016,16810,2018-05-14 17:58:56,19,0,23.665,3740.8289868325,108.923888,0.223694,0.95559714344,0,0,-0.671082,268.7, -1.6, -1.3,0,0,1024,1024,1024,1024,268.5,-90,97,3.917,3.941,3.949,3.966,3.925,3.955,19.006,75.2,14,Waypoint,
37.7782989,-120.1185181,3744.4379108325,112.532812,0,0.71448165016,17000,2018-05-14 17:58:56,19,0,23.509,3744.4379108325,112.532812,0.223694,0.95559714344,0,0,-0.671082,268.9, -2, -1,0,0,1024,1024,1024,1024,268.5,-90,97,3.897,3.917,3.932,3.95,3.901,3.937,20.181,75.2,14,Waypoint,
37.7782988,-120.1185182,3747.3906668325,115.485568,0,0.67237206876,17100,2018-05-14 17:58:56,19,0,23.509,3747.3906668325,115.485568,0.223694,0.95559714344,0,0,-0.671082,268.7, -1.5, -1.2,0,0,1024,1024,1024,1024,268.5,-89.9,97,3.897,3.917,3.932,3.95,3.901,3.937,20.181,75.2,14,Waypoint,
37.7782988,-120.1185182,3748.3749188325,116.46982,0,0.67237206876,17200,2018-05-14 17:58:56,19,0,23.509,3748.3749188325,116.46982,0.223694,0.95559714344,0,0,-0.671082,268.7, -1.4, -1.4,0,0,1024,1024,1024,1024,268.6,-89.9,97,3.897,3.917,3.932,3.95,3.901,3.937,20.181,75.2,14,Waypoint,
37.7782989,-120.1185183,3751.3276748325,119.422576,0,0.70274608548,17500,2018-05-14 17:58:56,19,0,23.509,3751.3276748325,119.422576,0.223694,0.95559714344,0,0,-0.671082,268.7, -1, -1.6,0,0,1024,1024,1024,1024,268.5,-89.9,97,3.897,3.917,3.932,3.95,3.901,3.937,20.181,75.2,14,Waypoint,
37.7782989,-120.1185184,3752.6400108325,120.734912,0,0.69859254204,17600,2018-05-14 17:58:56,19,0,23.509,3752.6400108325,120.734912,0.223694,0.95559714344,0,0,-0.671082,268.7, -0.9, -1.6,0,0,1024,1024,1024,1024,268.5,-89.9,97,3.897,3.917,3.932,3.95,3.901,3.937,20.181,75.2,14,Waypoint,
37.7782989,-120.1185184,3753.6242628325,121.719164,0,0.69859254204,17700,2018-05-14 17:58:57,19,0,23.509,3753.6242628325,121.719164,0.223694,0.95559714344,0,0,-0.671082,268.7, -0.8, -1.7,0,0,1024,1024,1024,1024,268.5,-89.9,97,3.897,3.917,3.932,3.95,3.901,3.937,20.181,75.2,14,Waypoint,
37.778299,-120.1185185,3754.6085148325,122.703416,0,0.73197508904,17800,2018-05-14 17:58:57,19,0,23.509,3754.6085148325,122.703416,0.223694,0.95559714344,0,0,-0.671082,268.6, -0.6, -1.6,0,0,1024,1024,1024,1024,268.5,-89.9,97,3.897,3.917,3.932,3.95,3.901,3.937,20.181,75.2,14,Waypoint,
37.778299,-120.1185186,3756.5770188325,124.67192,0,0.73026905224,18000,2018-05-14 17:58:57,19,0,23.573,3756.5770188325,124.67192,0.223694,0.95559714344,0,0,-0.671082,268.6, -0.5, -1.7,0,0,1024,1024,1024,1024,268.5,-89.9,97,3.904,3.923,3.938,3.958,3.908,3.943,19.407,75.2,14,Waypoint,
37.778299,-120.1185186,3757.5612708325,125.656172,0,0.73026905224,18100,2018-05-14 17:58:57,19,0,23.573,3757.5612708325,125.656172,0.223694,0.95559714344,0,0,-0.671082,268.6, -0.5, -1.6,0,0,1024,1024,1024,1024,268.5,-89.9,97,3.904,3.923,3.938,3.958,3.908,3.943,19.407,75.2,14,Waypoint,
37.778299,-120.1185187,3759.5297748325,127.624676,0,0.72969818608,18300,2018-05-14 17:58:57,19,0,23.573,3759.5297748325,127.624676,0.223694,0.95559714344,0,0,-0.671082,268.6, -0.8, -1.6,0,0,1024,1024,1024,1024,268.5,-89.9,97,3.904,3.923,3.938,3.958,3.908,3.943,19.407,75.2,14,Waypoint,
37.7782989,-120.1185187,3760.5140268325,128.608928,0,0.69321524528,18400,2018-05-14 17:58:57,19,0,23.573,3760.5140268325,128.608928,0.223694,0.95559714344,0,0,-0.671082,268.7, -0.8, -1.3,0,0,1024,1024,1024,1024,268.5,-89.9,97,3.904,3.923,3.938,3.958,3.908,3.943,19.407,75.2,14,Waypoint,
37.7782989,-120.1185187,3761.4982788325,129.59318,0,0.69321524528,18500,2018-05-14 17:58:57,19,0,23.573,3761.4982788325,129.59318,0.223694,0.95559714344,0,0,-0.671082,268.8, -0.8, -0.9,0,0,1024,1024,1024,1024,268.5,-89.9,97,3.904,3.923,3.938,3.958,3.908,3.943,19.407,75.2,14,Waypoint,
37.7782988,-120.1185186,3762.4825308325,130.577432,0,0.65736222576,18600,2018-05-14 17:58:57,19,0,23.573,3762.4825308325,130.577432,0.223694,0.95559714344,0,0,-0.671082,268.8, -0.9, -0.6,0,0,1024,1024,1024,1024,268.5,-89.9,97,3.904,3.923,3.938,3.958,3.908,3.943,19.407,75.2,14,Waypoint,
37.7782987,-120.1185186,3763.4667828325,131.561684,0,0.6209153742,18700,2018-05-14 17:58:58,19,0,23.573,3763.4667828325,131.561684,0.223694,0.95559714344,0,0,-0.671082,268.8, -1.3, -0.4,0,0,1024,1024,1024,1024,268.5,-90,97,3.904,3.923,3.938,3.958,3.908,3.943,19.407,75.2,14,Waypoint,
37.7782987,-120.1185186,3764.4510348325,132.545936,0,0.6209153742,18800,2018-05-14 17:58:58,19,0,23.573,3764.4510348325,132.545936,0.223694,0.95559714344,0,0,-0.671082,268.8, -1.4, -0.3,0,0,1024,1024,1024,1024,268.5,-89.9,97,3.904,3.923,3.938,3.958,3.908,3.943,19.407,75.2,14,Waypoint,
37.7782986,-120.1185186,3765.4352868325,133.530188,0,0.58447180348,18910,2018-05-14 17:58:58,19,0,23.573,3765.4352868325,133.530188,0.223694,0.95559714344,0,0,-0.671082,268.8, -1.3, -0.2,0,0,1024,1024,1024,1024,268.5,-90,97,3.904,3.923,3.938,3.958,3.908,3.943,19.407,75.2,14,Waypoint,
37.7782986,-120.1185185,3766.4195388325,134.51444,0,0.58660106864,19000,2018-05-14 17:58:58,19,0,23.573,3766.4195388325,134.51444,0.223694,0.95559714344,0,0,-0.671082,268.8, -1.4, -0.3,0,0,1024,1024,1024,1024,268.5,-90,97,3.904,3.923,3.938,3.958,3.908,3.943,19.407,75.2,14,Waypoint,
37.7782986,-120.1185185,3767.4037908325,135.498692,0,0.58660106864,19100,2018-05-14 17:58:58,19,0,23.573,3767.4037908325,135.498692,0.223694,0.95559714344,0,0,-0.671082,268.9, -1.6, -0.4,0,0,1024,1024,1024,1024,268.5,-90,97,3.904,3.923,3.938,3.958,3.908,3.943,19.407,75.2,14,Waypoint,
37.7782986,-120.1185185,3768.3880428325,136.482944,0,0.58660106864,19210,2018-05-14 17:58:58,19,0,23.573,3768.3880428325,136.482944,0.223694,0.95559714344,0,0,-0.671082,268.9, -1.7, -0.4,0,0,1024,1024,1024,1024,268.5,-90,97,3.904,3.923,3.938,3.958,3.908,3.943,19.407,75.2,14,Waypoint,
37.7782986,-120.1185185,3769.3722948325,137.467196,0,0.58660106864,19300,2018-05-14 17:58:58,19,0,23.573,3769.3722948325,137.467196,0.223694,0.95559714344,0,0,-0.671082,268.9, -1.7, -0.3,0,0,1024,1024,1024,1024,268.5,-90,97,3.904,3.923,3.938,3.958,3.908,3.943,19.407,75.2,14,Waypoint,
37.7782985,-120.1185185,3770.3565468325,138.451448,0,0.55030513572,19400,2018-05-14 17:58:58,19,0,23.573,3770.3565468325,138.451448,0.223694,0.95559714344,0,0,-0.671082,268.9, -1.6, -0.1,0,0,1024,1024,1024,1024,268.5,-89.9,97,3.904,3.923,3.938,3.958,3.908,3.943,19.407,75.2,14,Waypoint,
37.7782985,-120.1185185,3771.3407988325,139.4357,0,0.55030513572,19510,2018-05-14 17:58:58,19,0,23.573,3771.3407988325,139.4357,0.223694,0.95559714344,0,0,-0.671082,268.8, -1.5, -0.1,0,0,1024,1024,1024,1024,268.5,-89.9,97,3.904,3.923,3.938,3.958,3.908,3.943,19.407,75.2,14,Waypoint,
37.7782985,-120.1185185,3772.3250508325,140.419952,0,0.55030513572,19610,2018-05-14 17:58:58,19,0,23.573,3772.3250508325,140.419952,0.223694,0.95559714344,0,0,-0.671082,268.8, -1.4, -0.4,0,0,1024,1024,1024,1024,268.5,-89.9,97,3.904,3.923,3.938,3.958,3.908,3.943,19.407,75.2,14,Waypoint,
37.7782985,-120.1185185,3773.3093028325,141.404204,0,0.55030513572,19710,2018-05-14 17:58:59,19,0,23.573,3773.3093028325,141.404204,0.223694,0.95559714344,0,0,-0.671082,268.7, -1.4, -0.6,0,0,1024,1024,1024,1024,268.5,-89.9,97,3.904,3.923,3.938,3.958,3.908,3.943,19.407,75.2,14,Waypoint,
37.7782986,-120.1185185,3774.2935548325,142.388456,0,0.58660106864,19800,2018-05-14 17:58:59,19,0,23.573,3774.2935548325,142.388456,0.223694,0.95559714344,0,0,-0.671082,268.7, -1.3, -0.8,0,0,1024,1024,1024,1024,268.5,-89.9,97,3.904,3.923,3.938,3.958,3.908,3.943,19.407,75.2,14,Waypoint,
37.7782986,-120.1185185,3775.9339748325,144.028876,0,0.58660106864,20000,2018-05-14 17:58:59,19,0,23.589,3775.9339748325,144.028876,0.223694,0.95559714344,0,0,-0.671082,268.7, -1.2, -0.7,0,0,1024,1024,1024,1024,268.5,-89.9,97,3.899,3.923,3.939,3.954,3.906,3.945,19.002,75.2,14,Waypoint,
37.7782986,-120.1185185,3776.9182268325,145.013128,0,0.58660106864,20100,2018-05-14 17:58:59,19,0,23.589,3776.9182268325,145.013128,0.223694,0.95559714344,0,0,-0.671082,268.7, -1, -0.7,0,0,1024,1024,1024,1024,268.5,-89.9,97,3.899,3.923,3.939,3.954,3.906,3.945,19.002,75.2,14,Waypoint,
37.7782987,-120.1185186,3779.2148148325,147.309716,0,0.6209153742,20300,2018-05-14 17:58:59,19,0,23.589,3779.2148148325,147.309716,0.223694,0.95559714344,0,0,-0.671082,268.7, -0.9, -0.9,0,0,1024,1024,1024,1024,268.5,-89.9,97,3.899,3.923,3.939,3.954,3.906,3.945,19.002,75.2,14,Waypoint,
37.7782987,-120.1185186,3780.1990668325,148.293968,0,0.6209153742,20400,2018-05-14 17:58:59,19,0,23.589,3780.1990668325,148.293968,0.223694,0.95559714344,0,0,-0.671082,268.7, -0.8, -1.1,0,0,1024,1024,1024,1024,268.5,-89.9,97,3.899,3.923,3.939,3.954,3.906,3.945,19.002,75.2,14,Waypoint,
37.7782987,-120.1185187,3780.8552348325,148.950136,0,0.620242802,20500,2018-05-14 17:58:59,19,0,23.589,3780.8552348325,148.950136,0.223694,0.95559714344,0,0,-0.671082,268.7, -0.7, -1.1,0,0,1024,1024,1024,1024,268.5,-89.9,97,3.899,3.923,3.939,3.954,3.906,3.945,19.002,75.2,14,Waypoint,
37.7782987,-120.1185187,3782.1675708325,150.262472,0,0.620242802,20600,2018-05-14 17:58:59,19,0,23.589,3782.1675708325,150.262472,0.223694,0.95559714344,0,0,-0.671082,268.8, -0.7, -1.3,0,0,1024,1024,1024,1024,268.5,-89.9,97,3.899,3.923,3.939,3.954,3.906,3.945,19.002,75.2,14,Waypoint,
37.7782987,-120.1185187,3783.1518228325,151.246724,0,0.620242802,20700,2018-05-14 17:59:00,19,0,23.589,3783.1518228325,151.246724,0.223694,0.95559714344,0,0,-0.671082,268.8, -0.7, -1.1,0,0,1024,1024,1024,1024,268.5,-89.9,97,3.899,3.923,3.939,3.954,3.906,3.945,19.002,75.2,14,Waypoint,
37.7782987,-120.1185187,3784.1360748325,152.230976,0,0.620242802,20800,2018-05-14 17:59:00,19,0,23.589,3784.1360748325,152.230976,0.223694,0.95559714344,0,0,-0.671082,268.7, -0.7, -1,0,0,1024,1024,1024,1024,268.5,-89.9,97,3.899,3.923,3.939,3.954,3.906,3.945,19.002,75.2,14,Waypoint,
37.7782987,-120.1185187,3785.1203268325,153.215228,0,0.620242802,20900,2018-05-14 17:59:00,19,0,23.589,3785.1203268325,153.215228,0.223694,0.95559714344,0,0,-0.671082,268.7, -0.8, -0.9,0,0,1024,1024,1024,1024,268.5,-89.9,97,3.899,3.923,3.939,3.954,3.906,3.945,19.002,75.2,14,Waypoint,
37.7782987,-120.1185187,3786.1045788325,154.19948,0,0.620242802,21000,2018-05-14 17:59:00,19,0,23.489,3786.1045788325,154.19948,0.223694,0.95559714344,0,0,-0.671082,268.7, -0.9, -0.9,0,0,1024,1024,1024,1024,268.5,-89.9,97,3.891,3.915,3.914,3.949,3.902,3.93,19.972,75.2,14,Waypoint,
37.7782987,-120.1185187,3787.0888308325,155.183732,0,0.620242802,21100,2018-05-14 17:59:00,19,0,23.489,3787.0888308325,155.183732,0.223694,0.95559714344,0,0,-0.671082,268.8, -1.1, -0.8,0,0,1024,1024,1024,1024,268.5,-89.9,97,3.891,3.915,3.914,3.949,3.902,3.93,19.972,75.2,14,Waypoint,
37.7782987,-120.1185187,3788.0730828325,156.167984,0,0.620242802,21200,2018-05-14 17:59:00,19,0,23.489,3788.0730828325,156.167984,0.223694,0.95559714344,0,0,-0.671082,268.9, -1.1, -0.8,0,0,1024,1024,1024,1024,268.5,-89.9,97,3.891,3.915,3.914,3.949,3.902,3.93,19.972,75.2,14,Waypoint,
37.7782987,-120.1185186,3789.0573348325,157.152236,0,0.6209153742,21300,2018-05-14 17:59:00,19,0,23.489,3789.0573348325,157.152236,0.223694,0.95559714344,0,0,-0.671082,269, -1.2, -0.9,0,0,1024,1024,1024,1024,268.5,-90,97,3.891,3.915,3.914,3.949,3.902,3.93,19.972,75.2,14,Waypoint,
37.7782987,-120.1185186,3790.0415868325,158.136488,0,0.6209153742,21400,2018-05-14 17:59:00,19,0,23.489,3790.0415868325,158.136488,0.223694,0.95559714344,0,0,-0.671082,269.1, -1.4, -0.9,0,0,1024,1024,1024,1024,268.5,-90,97,3.891,3.915,3.914,3.949,3.902,3.93,19.972,75.2,14,Waypoint,
37.7782986,-120.1185185,3791.0258388325,159.12074,0,0.58660106864,21500,2018-05-14 17:59:00,19,0,23.489,3791.0258388325,159.12074,0.223694,0.95559714344,0,0,-0.671082,269.1, -1.9, -1,0,0,1024,1024,1024,1024,268.5,-90,97,3.891,3.915,3.914,3.949,3.902,3.93,19.972,75.2,14,Waypoint,
37.7782986,-120.1185185,3792.0100908325,160.104992,0,0.58660106864,21600,2018-05-14 17:59:00,19,0,23.489,3792.0100908325,160.104992,0.223694,0.95559714344,0,0,-0.671082,269.1, -2, -1.1,0,0,1024,1024,1024,1024,268.5,-90,97,3.891,3.915,3.914,3.949,3.902,3.93,19.972,75.2,14,Waypoint,
37.7782986,-120.1185184,3793.3224268325,161.417328,0,0.59013453332,21700,2018-05-14 17:59:01,19,0,23.489,3793.3224268325,161.417328,0.223694,0.95559714344,0,0,-0.671082,269, -1.9, -0.9,0,0,1024,1024,1024,1024,268.5,-90,97,3.891,3.915,3.914,3.949,3.902,3.93,19.972,75.2,14,Waypoint,
37.7782986,-120.1185184,3794.3066788325,162.40158,0,0.59013453332,21800,2018-05-14 17:59:01,19,0,23.489,3794.3066788325,162.40158,0.223694,0.95559714344,0,0,-0.671082,268.9, -1.5, -0.9,0,0,1024,1024,1024,1024,268.5,-89.9,97,3.891,3.915,3.914,3.949,3.902,3.93,19.972,75.2,14,Waypoint,
37.7782986,-120.1185184,3795.2909308325,163.385832,0,0.59013453332,21900,2018-05-14 17:59:01,19,0,23.489,3795.2909308325,163.385832,0.223694,0.95559714344,0,0,-0.671082,268.8, -1.2, -0.9,0,0,1024,1024,1024,1024,268.5,-89.9,97,3.891,3.915,3.914,3.949,3.902,3.93,19.972,75.2,14,Waypoint,
37.7782986,-120.1185184,3795.9470988325,164.042,0,0.59013453332,22000,2018-05-14 17:59:01,19,0,23.459,3795.9470988325,164.042,0.223694,0.95559714344,0,0,-0.671082,268.6, -1.2, -0.9,0,0,1024,1024,1024,1024,268.5,-89.9,96,3.878,3.903,3.926,3.937,3.884,3.923,19.88,75.2,14,Waypoint,
37.7782985,-120.1185184,3797.9156028325,166.010504,0,0.5540682592,22200,2018-05-14 17:59:01,19,0,23.459,3797.9156028325,166.010504,0.223694,0.95559714344,0,0,-0.671082,268.6, -1.1, -0.6,0,0,1024,1024,1024,1024,268.5,-89.9,96,3.878,3.903,3.926,3.937,3.884,3.923,19.88,75.2,14,Waypoint,
37.7782985,-120.1185184,3798.8998548325,166.994756,0,0.5540682592,22300,2018-05-14 17:59:01,19,0,23.459,3798.8998548325,166.994756,0.223694,0.95559714344,0,0,-0.671082,268.6, -1.1, -0.4,0,0,1024,1024,1024,1024,268.5,-89.9,96,3.878,3.903,3.926,3.937,3.884,3.923,19.88,75.2,14,Waypoint,
37.7782984,-120.1185184,3801.8526108325,169.947512,0,0.51806432104,22610,2018-05-14 17:59:01,19,0,23.459,3801.8526108325,169.947512,0.223694,0.95559714344,0,0,-0.671082,268.5, -1.3, 0,0,0,1024,1024,1024,1024,268.5,-90,96,3.878,3.903,3.926,3.937,3.884,3.923,19.88,75.2,14,Waypoint,
37.7782984,-120.1185184,3802.8368628325,170.931764,0,0.51806432104,22700,2018-05-14 17:59:02,19,0,23.459,3802.8368628325,170.931764,0.223694,0.95559714344,0,0,-0.671082,268.6, -1.3, 0,0,0,1024,1024,1024,1024,268.5,-90,96,3.878,3.903,3.926,3.937,3.884,3.923,19.88,75.2,14,Waypoint,
37.7782984,-120.1185183,3803.8211148325,171.916016,0,0.52365159156,22810,2018-05-14 17:59:02,19,0,23.459,3803.8211148325,171.916016,0.223694,0.95559714344,0,0,-0.671082,268.6, -1.3, -0.1,0,0,1024,1024,1024,1024,268.5,-90,96,3.878,3.903,3.926,3.937,3.884,3.923,19.88,75.2,14,Waypoint,
37.7782984,-120.1185183,3804.8053668325,172.900268,0,0.52365159156,23100,2018-05-14 17:59:02,19,0,23.459,3804.8053668325,172.900268,0.223694,0.95559714344,0,0,-0.671082,268.7, -1.5, -0.4,0,0,1024,1024,1024,1024,268.5,-90,96,3.878,3.903,3.926,3.937,3.884,3.923,19.88,75.2,14,Waypoint,
37.7782985,-120.1185183,3807.7581228325,175.853024,0,0.55929791816,23220,2018-05-14 17:59:02,19,0,23.459,3807.7581228325,175.853024,0.223694,0.95559714344,0,0,-0.671082,268.8, -1.5, -0.5,0,0,1024,1024,1024,1024,268.5,-89.9,96,3.878,3.903,3.926,3.937,3.884,3.923,19.88,75.2,14,Waypoint,
37.7782985,-120.1185183,3808.7423748325,176.837276,0,0.55929791816,23410,2018-05-14 17:59:02,19,0,23.459,3808.7423748325,176.837276,0.223694,0.95559714344,0,0,-0.671082,268.8, -1.4, -0.7,0,0,1024,1024,1024,1024,268.5,-89.9,96,3.878,3.903,3.926,3.937,3.884,3.923,19.88,75.2,14,Waypoint,
37.7782986,-120.1185184,3810.7108788325,178.80578,0,0.59013453332,23510,2018-05-14 17:59:02,19,0,23.459,3810.7108788325,178.80578,0.223694,0.95559714344,0,0,-0.671082,268.7, -1.2, -0.8,0,0,1024,1024,1024,1024,268.5,-89.9,96,3.878,3.903,3.926,3.937,3.884,3.923,19.88,75.2,14,Waypoint,
37.7782987,-120.1185184,3811.6951308325,179.790032,0,0.6262467392,23610,2018-05-14 17:59:02,19,0,23.459,3811.6951308325,179.790032,0.223694,0.95559714344,0,0,-0.671082,268.6, -1, -0.6,0,0,1024,1024,1024,1024,268.5,-89.9,96,3.878,3.903,3.926,3.937,3.884,3.923,19.88,75.2,14,Waypoint,
37.7782987,-120.1185184,3813.9917188325,182.08662,0,0.6262467392,23810,2018-05-14 17:59:03,19,0,23.459,3813.9917188325,182.08662,0.223694,0.95559714344,0,0,-0.671082,268.6, -1.2, -1,0,0,1024,1024,1024,1024,268.5,-89.9,96,3.878,3.903,3.926,3.937,3.884,3.923,19.88,75.2,14,Waypoint,
37.7782988,-120.1185184,3814.9759708325,183.070872,0,0.662401596,23900,2018-05-14 17:59:03,19,0,23.459,3814.9759708325,183.070872,0.223694,0.95559714344,0,0,-0.671082,268.6, -1.5, -1.3,0,0,1024,1024,1024,1024,268.5,-90,96,3.878,3.903,3.926,3.937,3.884,3.923,19.88,75.2,14,Waypoint,
37.7782988,-120.1185184,3815.6321388325,183.72704,0,0.662401596,24000,2018-05-14 17:59:03,19,0,23.421,3815.6321388325,183.72704,0.223694,0.95559714344,0,0,-0.671082,268.6, -1.5, -1.3,0,0,1024,1024,1024,1024,268.5,-90,96,3.874,3.892,3.923,3.929,3.868,3.916,20.081,75.2,14,Waypoint,
37.7782989,-120.1185184,3816.6163908325,184.711292,0,0.69859254204,24100,2018-05-14 17:59:03,19,0,23.421,3816.6163908325,184.711292,0.223694,0.95559714344,0,0,-0.671082,268.6, -1.5, -1.2,0,0,1024,1024,1024,1024,268.5,-90,96,3.874,3.892,3.923,3.929,3.868,3.916,20.081,75.2,14,Waypoint,
37.7782989,-120.1185185,3817.6006428325,185.695544,0,0.69561025848,24200,2018-05-14 17:59:03,19,0,23.421,3817.6006428325,185.695544,0.223694,0.95559714344,0,0,-0.671082,268.6, -1.6, -1.3,0,0,1024,1024,1024,1024,268.5,-90,96,3.874,3.892,3.923,3.929,3.868,3.916,20.081,75.2,14,Waypoint,
37.778299,-120.1185185,3818.5848948325,186.679796,0,0.73197508904,24300,2018-05-14 17:59:03,19,0,23.421,3818.5848948325,186.679796,0.223694,0.95559714344,0,0,-0.671082,268.7, -1.7, -1.5,0,0,1024,1024,1024,1024,268.5,-90,96,3.874,3.892,3.923,3.929,3.868,3.916,20.081,75.2,14,Waypoint,
37.778299,-120.1185185,3819.5691468325,187.664048,0,0.73197508904,24400,2018-05-14 17:59:03,19,0,23.421,3819.5691468325,187.664048,0.223694,0.95559714344,0,0,-0.671082,268.8, -1.7, -1.3,0,0,1024,1024,1024,1024,268.5,-90,96,3.874,3.892,3.923,3.929,3.868,3.916,20.081,75.2,14,Waypoint,
37.778299,-120.1185185,3820.5533988325,188.6483,0,0.73197508904,24500,2018-05-14 17:59:03,19,0,23.421,3820.5533988325,188.6483,0.223694,0.95559714344,0,0,-0.671082,268.8, -1.6, -1.2,0,0,1024,1024,1024,1024,268.5,-89.9,96,3.874,3.892,3.923,3.929,3.868,3.916,20.081,75.2,14,Waypoint,
37.778299,-120.1185185,3821.8657348325,189.960636,0,0.73197508904,24600,2018-05-14 17:59:03,19,0,23.421,3821.8657348325,189.960636,0.223694,0.95559714344,0,0,-0.671082,268.9, -1.4, -1.2,0,0,1024,1024,1024,1024,268.5,-89.9,96,3.874,3.892,3.923,3.929,3.868,3.916,20.081,75.2,14,Waypoint,
37.778299,-120.1185186,3822.8499868325,190.944888,0,0.73026905224,24700,2018-05-14 17:59:04,19,0,23.421,3822.8499868325,190.944888,0.223694,0.95559714344,0,0,-0.671082,268.9, -1.2, -1.2,0,0,1024,1024,1024,1024,268.5,-89.9,96,3.874,3.892,3.923,3.929,3.868,3.916,20.081,75.2,14,Waypoint,
37.7782991,-120.1185186,3823.5061548325,191.601056,0,0.76672574632,24800,2018-05-14 17:59:04,19,0,23.421,3823.5061548325,191.601056,0.223694,0.95559714344,0,0,-0.671082,269, -1.2, -1.1,0,0,1024,1024,1024,1024,268.5,-89.9,96,3.874,3.892,3.923,3.929,3.868,3.916,20.081,75.2,14,Waypoint,
37.7782991,-120.1185186,3824.4904068325,192.585308,0,0.76672574632,24900,2018-05-14 17:59:04,19,0,23.421,3824.4904068325,192.585308,0.223694,0.95559714344,0,0,-0.671082,269.1, -1.2, -1.1,0,0,1024,1024,1024,1024,268.5,-90,96,3.874,3.892,3.923,3.929,3.868,3.916,20.081,75.2,14,Waypoint,
37.7782991,-120.1185186,3825.4746588325,193.56956,0,0.76672574632,25000,2018-05-14 17:59:04,19,0,23.363,3825.4746588325,193.56956,0.223694,0.95559714344,0,0,-0.671082,269.2, -1.2, -0.8,0,0,1024,1024,1024,1024,268.5,-89.9,96,3.866,3.883,3.902,3.928,3.865,3.911,20.222,75.2,14,Waypoint,
37.7782991,-120.1185187,3826.4589108325,194.553812,0,0.76618440772,25100,2018-05-14 17:59:04,19,0,23.363,3826.4589108325,194.553812,0.223694,0.95559714344,0,0,-0.671082,269.1, -1.2, -0.7,0,0,1024,1024,1024,1024,268.5,-89.9,96,3.866,3.883,3.902,3.928,3.865,3.911,20.222,75.2,14,Waypoint,
37.7782991,-120.1185187,3827.4431628325,195.538064,0,0.76618440772,25200,2018-05-14 17:59:04,19,0,23.363,3827.4431628325,195.538064,0.223694,0.95559714344,0,0,-0.671082,269, -1.1, -0.7,0,0,1024,1024,1024,1024,268.5,-89.9,96,3.866,3.883,3.902,3.928,3.865,3.911,20.222,75.2,14,Waypoint,
37.7782991,-120.1185188,3828.4274148325,196.522316,0,0.76672574632,25300,2018-05-14 17:59:04,19,0,23.363,3828.4274148325,196.522316,0.223694,0.95559714344,0,0,-0.671082,268.9, -1, -0.9,0,0,1024,1024,1024,1024,268.6,-89.9,96,3.866,3.883,3.902,3.928,3.865,3.911,20.222,75.2,14,Waypoint,
37.778299,-120.1185189,3830.0678348325,198.162736,0,0.73197508904,25500,2018-05-14 17:59:04,19,0,23.363,3830.0678348325,198.162736,0.223694,0.95559714344,0,0,-0.671082,268.7, -0.7, -0.9,0,0,1024,1024,1024,1024,268.5,-89.9,96,3.866,3.883,3.902,3.928,3.865,3.911,20.222,75.2,14,Waypoint,
37.778299,-120.118519,3831.0520868325,199.146988,0,0.7348097348,25600,2018-05-14 17:59:04,19,0,23.363,3831.0520868325,199.146988,0.223694,0.95559714344,0,0,-0.671082,268.7, -0.5, -0.8,0,0,1024,1024,1024,1024,268.5,-89.9,96,3.866,3.883,3.902,3.928,3.865,3.911,20.222,75.2,14,Waypoint,
37.778299,-120.118519,3832.0363388325,200.13124,0,0.7348097348,25700,2018-05-14 17:59:05,19,0,23.363,3832.0363388325,200.13124,0.223694,0.95559714344,0,0,-0.671082,268.6, -0.3, -0.8,0,0,1024,1024,1024,1024,268.5,-89.9,96,3.866,3.883,3.902,3.928,3.865,3.911,20.222,75.2,14,Waypoint,
37.778299,-120.1185191,3833.0205908325,201.115492,0,0.73875986616,25800,2018-05-14 17:59:05,19,0,23.363,3833.0205908325,201.115492,0.223694,0.95559714344,0,0,-0.671082,268.6, -0.2, -0.9,0,0,1024,1024,1024,1024,268.5,-89.9,96,3.866,3.883,3.902,3.928,3.865,3.911,20.222,75.2,14,Waypoint,
37.778299,-120.1185191,3834.0048428325,202.099744,0,0.73875986616,25900,2018-05-14 17:59:05,19,0,23.363,3834.0048428325,202.099744,0.223694,0.95559714344,0,0,-0.671082,268.6, -0.3, -0.8,0,0,1024,1024,1024,1024,268.5,-89.9,96,3.866,3.883,3.902,3.928,3.865,3.911,20.222,75.2,14,Waypoint,
37.7782989,-120.1185191,3834.9890948325,203.083996,0,0.70274608548,26000,2018-05-14 17:59:05,19,0,23.309,3834.9890948325,203.083996,0.223694,0.95559714344,0,0,-0.671082,268.7, -0.4, -0.5,0,0,1024,1024,1024,1024,268.5,-89.9,96,3.856,3.871,3.899,3.91,3.852,3.913,20.659,77,14,Waypoint,
37.7782989,-120.1185192,3835.9733468325,204.068248,0.223694,0.70805120376,26100,2018-05-14 17:59:05,19,0,23.309,3835.9733468325,204.068248,0.223694,0.95559714344,0,0,-0.671082,268.7, -0.5, 0,0,0,1024,1024,1024,1024,268.5,-89.9,96,3.856,3.871,3.899,3.91,3.852,3.913,20.659,77,14,Waypoint,
37.7782988,-120.1185192,3836.9575988325,205.0525,0.223694,0.67237206876,26200,2018-05-14 17:59:05,19,0,23.309,3836.9575988325,205.0525,0.223694,0.95559714344,0,0,-0.671082,268.8, -0.5, 0.4,0,0,1024,1024,1024,1024,268.5,-89.9,96,3.856,3.871,3.899,3.91,3.852,3.913,20.659,77,14,Waypoint,
37.7782987,-120.1185192,3838.9261028325,207.021004,0,0.63678151644,26410,2018-05-14 17:59:05,19,0,23.309,3838.9261028325,207.021004,0.223694,0.95559714344,0,0,-0.671082,268.7, -0.5, 0.4,0,0,1024,1024,1024,1024,268.5,-89.9,96,3.856,3.871,3.899,3.91,3.852,3.913,20.659,77,14,Waypoint,
37.7782986,-120.1185192,3839.9103548325,208.005256,0,0.60130251268,26500,2018-05-14 17:59:05,19,0,23.309,3839.9103548325,208.005256,0.223694,0.95559714344,0,0,-0.671082,268.6, -0.5, 0.2,0,0,1024,1024,1024,1024,268.5,-89.9,96,3.856,3.871,3.899,3.91,3.852,3.913,20.659,77,14,Waypoint,
37.7782986,-120.1185193,3840.8946068325,208.989508,0,0.60886156804,26600,2018-05-14 17:59:05,19,0,23.309,3840.8946068325,208.989508,0.223694,0.95559714344,0,0,-0.671082,268.5, -0.5, 0.1,0,0,1024,1024,1024,1024,268.5,-89.9,96,3.856,3.871,3.899,3.91,3.852,3.913,20.659,77,14,Waypoint,
37.7782986,-120.1185193,3842.2069428325,210.301844,0,0.60886156804,26710,2018-05-14 17:59:06,19,0,23.309,3842.2069428325,210.301844,0.223694,0.95559714344,0,0,-0.671082,268.5, -0.4, 0.1,0,0,1024,1024,1024,1024,268.5,-89.9,96,3.856,3.871,3.899,3.91,3.852,3.913,20.659,77,14,Waypoint,
37.7782985,-120.1185193,3842.8631108325,210.958012,0,0.57397311548,26910,2018-05-14 17:59:06,19,0,23.309,3842.8631108325,210.958012,0.223694,0.95559714344,0,0,-0.671082,268.6, -0.3, 0.2,0,0,1024,1024,1024,1024,268.5,-89.9,96,3.856,3.871,3.899,3.91,3.852,3.913,20.659,77,14,Waypoint,
37.7782985,-120.1185193,3843.8473628325,211.942264,0,0.57397311548,27210,2018-05-14 17:59:06,19,0,23.309,3843.8473628325,211.942264,0.223694,0.95559714344,0,0,-0.671082,268.7, -0.2, 0.4,0,0,1024,1024,1024,1024,268.5,-89.9,96,3.856,3.871,3.899,3.91,3.852,3.913,20.659,77,14,Waypoint,
37.7782985,-120.1185193,3844.8316148325,212.926516,0,0.57397311548,27320,2018-05-14 17:59:06,19,0,23.309,3844.8316148325,212.926516,0.223694,0.95559714344,0,0,-0.671082,268.8, -0.2, 0.3,0,0,1024,1024,1024,1024,268.5,-89.9,96,3.856,3.871,3.899,3.91,3.852,3.913,20.659,77,14,Waypoint,
37.7782985,-120.1185192,3846.8001188325,214.89502,0,0.56594818084,27500,2018-05-14 17:59:06,19,0,23.309,3846.8001188325,214.89502,0.223694,0.95559714344,0,0,-0.671082,268.8, -0.6, -0.1,0,0,1024,1024,1024,1024,268.5,-89.9,96,3.856,3.871,3.899,3.91,3.852,3.913,20.659,77,14,Waypoint,
37.7782985,-120.1185191,3848.7686228325,216.863524,0,0.55929791816,27610,2018-05-14 17:59:06,19,0,23.309,3848.7686228325,216.863524,0.223694,0.95559714344,0,0,-0.671082,268.7, -0.9, -0.5,0,0,1024,1024,1024,1024,268.5,-90,96,3.856,3.871,3.899,3.91,3.852,3.913,20.659,77,14,Waypoint,
37.7782985,-120.1185191,3851.0652108325,219.160112,0,0.55929791816,27710,2018-05-14 17:59:07,19,0,23.309,3851.0652108325,219.160112,0.223694,0.95559714344,0,0,-0.671082,268.7, -1, -0.6,0,0,1024,1024,1024,1024,268.5,-90,96,3.856,3.871,3.899,3.91,3.852,3.913,20.659,77,14,Waypoint,
37.7782985,-120.118519,3853.0337148325,221.128616,0,0.5540682592,27820,2018-05-14 17:59:07,19,0,23.309,3853.0337148325,221.128616,0.223694,0.95559714344,0,0,-0.671082,268.7, -0.9, -0.6,0,0,1024,1024,1024,1024,268.5,-89.9,96,3.856,3.871,3.899,3.91,3.852,3.913,20.659,77,14,Waypoint,
37.7782985,-120.118519,3854.0179668325,222.112868,0,0.5540682592,27910,2018-05-14 17:59:07,19,0,23.309,3854.0179668325,222.112868,0.223694,0.95559714344,0,0,-0.671082,268.8, -0.9, -0.5,0,0,1024,1024,1024,1024,268.5,-89.9,96,3.856,3.871,3.899,3.91,3.852,3.913,20.659,77,14,Waypoint,
37.7782985,-120.118519,3855.0022188325,223.09712,0,0.5540682592,28010,2018-05-14 17:59:07,19,0,23.282,3855.0022188325,223.09712,0.223694,0.95559714344,0,0,-0.671082,268.8, -0.9, -0.4,0,0,1024,1024,1024,1024,268.5,-89.9,96,3.843,3.872,3.896,3.915,3.847,3.897,20.43,77,14,Waypoint,
37.7782984,-120.118519,3855.9864708325,224.081372,0,0.51806432104,28110,2018-05-14 17:59:07,19,0,23.282,3855.9864708325,224.081372,0.223694,0.95559714344,0,0,-0.671082,268.8, -0.9, -0.3,0,0,1024,1024,1024,1024,268.5,-89.9,96,3.843,3.872,3.896,3.915,3.847,3.897,20.43,77,14,Waypoint,
37.7782984,-120.118519,3856.9707228325,225.065624,0,0.51806432104,28210,2018-05-14 17:59:07,19,0,23.282,3856.9707228325,225.065624,0.223694,0.95559714344,0,0,-0.671082,268.8, -0.9, -0.2,0,0,1024,1024,1024,1024,268.5,-89.9,96,3.843,3.872,3.896,3.915,3.847,3.897,20.43,77,14,Waypoint,
37.7782984,-120.118519,3857.9549748325,226.049876,0,0.51806432104,28300,2018-05-14 17:59:07,19,0,23.282,3857.9549748325,226.049876,0.223694,0.95559714344,0,0,-0.671082,268.7, -0.8, -0.1,0,0,1024,1024,1024,1024,268.5,-89.9,96,3.843,3.872,3.896,3.915,3.847,3.897,20.43,77,14,Waypoint,
37.7782984,-120.118519,3859.9234788325,228.01838,0,0.51806432104,28510,2018-05-14 17:59:07,19,0,23.282,3859.9234788325,228.01838,0.223694,0.95559714344,0,0,-0.671082,268.7, -0.7, -0.2,0,0,1024,1024,1024,1024,268.5,-89.9,96,3.843,3.872,3.896,3.915,3.847,3.897,20.43,77,14,Waypoint,
37.7782983,-120.1185189,3861.8919828325,229.986884,0,0.47779857172,28700,2018-05-14 17:59:08,19,0,23.282,3861.8919828325,229.986884,0.223694,0.95559714344,0,0,-0.671082,268.7, -0.7, 0,0,0,1024,1024,1024,1024,268.6,-89.9,96,3.843,3.872,3.896,3.915,3.847,3.897,20.43,77,14,Waypoint,
37.7782983,-120.1185189,3862.8762348325,230.971136,0,0.47779857172,28800,2018-05-14 17:59:08,19,0,23.282,3862.8762348325,230.971136,0.223694,0.95559714344,0,0,-0.671082,268.8, -0.7, 0,0,0,1024,1024,1024,1024,268.6,-89.9,96,3.843,3.872,3.896,3.915,3.847,3.897,20.43,77,14,Waypoint,
37.7782983,-120.1185189,3863.8604868325,231.955388,0,0.47779857172,28900,2018-05-14 17:59:08,19,0,23.282,3863.8604868325,231.955388,0.223694,0.95559714344,0,0,-0.671082,268.9, -0.8, 0,0,0,1024,1024,1024,1024,268.6,-90,96,3.843,3.872,3.896,3.915,3.847,3.897,20.43,77,14,Waypoint,
37.7782983,-120.1185188,3864.8447388325,232.93964,0,0.4751804614,29010,2018-05-14 17:59:08,19,0,23.301,3864.8447388325,232.93964,0.223694,0.95559714344,0,0,-0.671082,268.9, -0.9, -0.2,0,0,1024,1024,1024,1024,268.5,-90,96,3.847,3.878,3.898,3.918,3.858,3.898,20.051,77,14,Waypoint,
37.7782983,-120.1185188,3865.8289908325,233.923892,0,0.4751804614,29100,2018-05-14 17:59:08,19,0,23.301,3865.8289908325,233.923892,0.223694,0.95559714344,0,0,-0.671082,268.9, -1.1, -0.3,0,0,1024,1024,1024,1024,268.5,-90,96,3.847,3.878,3.898,3.918,3.858,3.898,20.051,77,14,Waypoint,
37.7782983,-120.1185187,3866.8132428325,234.908144,0,0.47430447712,29200,2018-05-14 17:59:08,19,0,23.301,3866.8132428325,234.908144,0.223694,0.95559714344,0,0,-0.671082,268.9, -1.3, -0.5,0,0,1024,1024,1024,1024,268.5,-90,96,3.847,3.878,3.898,3.918,3.858,3.898,20.051,77,14,Waypoint,
37.7782984,-120.1185187,3868.7817468325,236.876648,0,0.51079069876,29400,2018-05-14 17:59:08,19,0,23.301,3868.7817468325,236.876648,0.223694,0.95559714344,0,0,-0.671082,268.8, -1.4, -0.9,0,0,1024,1024,1024,1024,268.5,-90,96,3.847,3.878,3.898,3.918,3.858,3.898,20.051,77,14,Waypoint,
37.7782984,-120.1185186,3869.7659988325,237.8609,0,0.51160106624,29500,2018-05-14 17:59:08,19,0,23.301,3869.7659988325,237.8609,0.223694,0.95559714344,0,0,-0.671082,268.7, -1.4, -0.9,0,0,1024,1024,1024,1024,268.5,-90,96,3.847,3.878,3.898,3.918,3.858,3.898,20.051,77,14,Waypoint,
37.7782984,-120.1185186,3870.7502508325,238.845152,0,0.51160106624,29600,2018-05-14 17:59:08,19,0,23.301,3870.7502508325,238.845152,0.223694,0.95559714344,0,0,-0.671082,268.7, -1.4, -0.8,0,0,1024,1024,1024,1024,268.5,-90,96,3.847,3.878,3.898,3.918,3.858,3.898,20.051,77,14,Waypoint,
37.7782984,-120.1185185,3871.7345028325,239.829404,0,0.51403544952,29700,2018-05-14 17:59:09,19,0,23.301,3871.7345028325,239.829404,0.223694,0.95559714344,0,0,-0.671082,268.7, -1.5, -0.6,0,0,1024,1024,1024,1024,268.5,-90,96,3.847,3.878,3.898,3.918,3.858,3.898,20.051,77,14,Waypoint,
37.7782984,-120.1185185,3872.7187548325,240.813656,0,0.51403544952,29800,2018-05-14 17:59:09,19,0,23.301,3872.7187548325,240.813656,0.223694,0.95559714344,0,0,-0.671082,268.6, -1.5, -0.5,0,0,1024,1024,1024,1024,268.5,-90,96,3.847,3.878,3.898,3.918,3.858,3.898,20.051,77,14,Waypoint,
37.7782984,-120.1185185,3873.7030068325,241.797908,0,0.51403544952,29900,2018-05-14 17:59:09,19,0,23.301,3873.7030068325,241.797908,0.223694,0.95559714344,0,0,-0.671082,268.6, -1.4, -0.6,0,0,1024,1024,1024,1024,268.5,-90,96,3.847,3.878,3.898,3.918,3.858,3.898,20.051,77,14,Waypoint,
37.7782984,-120.1185184,3874.6872588325,242.78216,0,0.51806432104,30010,2018-05-14 17:59:09,19,0,23.256,3874.6872588325,242.78216,0.223694,0.95559714344,0,0,-0.671082,268.6, -1.3, -0.7,0,0,1024,1024,1024,1024,268.5,-90,96,3.847,3.878,3.898,3.918,3.858,3.898,20.305,77,14,Waypoint,
37.7782984,-120.1185184,3875.6715108325,243.766412,0,0.51806432104,30120,2018-05-14 17:59:09,19,0,23.256,3875.6715108325,243.766412,0.223694,0.95559714344,0,0,-0.671082,268.7, -1.4, -0.7,0,0,1024,1024,1024,1024,268.5,-90,96,3.847,3.878,3.898,3.918,3.858,3.898,20.305,77,14,Waypoint,
37.7782985,-120.1185184,3876.6557628325,244.750664,0,0.5540682592,30210,2018-05-14 17:59:09,19,0,23.256,3876.6557628325,244.750664,0.223694,0.95559714344,0,0,-0.671082,268.7, -1.4, -0.7,0,0,1024,1024,1024,1024,268.5,-90,96,3.847,3.878,3.898,3.918,3.858,3.898,20.305,77,14,Waypoint,
37.7782985,-120.1185184,3877.6400148325,245.734916,0,0.5540682592,30300,2018-05-14 17:59:09,19,0,23.256,3877.6400148325,245.734916,0.223694,0.95559714344,0,0,-0.671082,268.7, -1.4, -0.8,0,0,1024,1024,1024,1024,268.6,-90,96,3.847,3.878,3.898,3.918,3.858,3.898,20.305,77,14,Waypoint,
37.7782985,-120.1185184,3879.6085188325,247.70342,0,0.5540682592,30510,2018-05-14 17:59:09,19,0,23.256,3879.6085188325,247.70342,0.223694,0.95559714344,0,0,-0.671082,268.8, -1.3, -0.6,0,0,1024,1024,1024,1024,268.5,-90,96,3.847,3.878,3.898,3.918,3.858,3.898,20.305,77,14,Waypoint,
37.7782985,-120.1185184,3879.6085188325,247.70342,0,0.5540682592,30600,2018-05-14 17:59:09,19,0,23.256,3879.6085188325,247.70342,0.223694,0.95559714344,0,0,-0.671082,268.8, -1.3, -0.6,0,0,1024,1024,1024,1024,268.5,-90,96,3.847,3.878,3.898,3.918,3.858,3.898,20.305,77,14,Waypoint,
