Latitude, Longitude, Altitude (m), Time, Sats, Speed (m/s), Range (m), Battery (%), Roll (deg), Pitch (deg), Yaw (deg), Images, HD Signal (%), RC Signal (%), Battery Temp (C), Battery Voltage (mV), Battery Current (mA), Battery Energy (mAh), Battery Capacity (mAh), Battery Discharges, flyState, timestamp (Unix), LastUpdate (ms), radioChannel, Rc_elevator, Rc_aileron, Rc_throttle, Rc_rudder, Rc_gyro, Dronetype, Battery_Cell1 (mV), Battery_Cell2 (mV), Battery_Cell3 (mV), Battery_Cell4 (mV), Battery_Cell5 (mV), Battery_Cell6 (mV), Video, isFlying, elapsedTime (ms), gimbalPitch (deg), gimbalRoll (deg), gimbalYaw (deg), VelocityX (m/s), VelocityY (m/s), VelocityZ (m/s), GroundSmear (cm), App Version, Aircraft Name, Aircraft Firmware, Aircraft Serial Number, Battery Serial Number, Battery Lifetime (%), App_Tip, App_Warning, CurrentFlightStartingIndex, CurrentFlightLastVisitedWaypoint, PreviousFlightEndingWaypointIndex
37.7783037, -120.1185145, 0.000, 10:20:48.571, 17, 0.00, 0.03, 100, 1.700, 1.400, -92.200, 400, 100, 100, 21, 25879, -2819, 5396, 5396, 16, 11, 1526318448.572, 127, 0, 1024, 1024, 1024, 1024, 0, 6, 4293, 4312, 4271, 4286, 4305, 4236, 0, 1, 3085, -89.900, 0.000, -91.700, 0.000, 0.000, -0.200, 0.0, MapPilot_2.8.1_04242018, Dendroctonus I, 1.3.1.00, 041DDC1887, 1058171200162, 96, DJI_0398.jpg, Starting Mission from Lat/Long: 37.77830/-120.11851 Camera: Zenmuse X3 - Overlap: 90/90 - Active Connection: No, 13, 13, 13
37.7783037, -120.1185145, 0.000, 10:20:48.587, 17, 0.10, 0.04, 100, 0.300, 0.800, -92.100, 400, 100, 100, 21, 25691, -3087, 5396, 5396, 16, 11, 1526318448.587, 7, 0, 1024, 1024, 1024, 1024, 0, 6, 4293, 4312, 4271, 4286, 4305, 4236, 0, 1, 3100, -89.900, 0.000, -91.700, 0.100, 0.000, -0.300, 0.0, , , , , , 96, , , 13, 13, 13
37.7783040, -120.1185144, 0.000, 10:20:48.688, 17, 0.10, 0.06, 100, -0.900, -0.400, -92.000, 400, 100, 100, 21, 25691, -3087, 5396, 5396, 16, 11, 1526318448.689, 59, 0, 1024, 1024, 1024, 1024, 0, 6, 4232, 4252, 4271, 4269, 4243, 4267, 0, 1, 3202, -90.000, 0.000, -91.700, 0.100, 0.000, -0.400, 0.0, , , , , , 96, , , 13, 13, 13
37.7783040, -120.1185144, 0.000, 10:20:48.788, 17, 0.10, 0.06, 100, -0.900, -0.400, -92.000, 400, 100, 100, 21, 25691, -3087, 5396, 5396, 16, 11, 1526318448.788, 158, 0, 1024, 1024, 1024, 1024, 0, 6, 4232, 4252, 4271, 4269, 4243, 4267, 0, 1, 3301, -90.000, 0.000, -91.700, 0.100, 0.000, -0.400, 0.0, , , , , , 96, , , 13, 13, 13
37.7783041, -120.1185143, 0.100, 10:20:48.887, 17, 0.10, 0.08, 100, -0.600, -0.300, -92.100, 400, 100, 100, 21, 25691, -3087, 5396, 5396, 16, 11, 1526318448.887, 40, 0, 1024, 1024, 1024, 1024, 0, 6, 4232, 4252, 4271, 4269, 4243, 4267, 0, 1, 3400, -89.900, 0.000, -91.700, 0.100, 0.000, -0.400, 0.0, , , , , , 96, , , 13, 13, 13
37.7783044, -120.1185143, 0.200, 10:20:48.988, 17, 0.10, 0.11, 100, -0.700, -0.200, -92.500, 400, 100, 100, 21, 25691, -3087, 5396, 5396, 16, 11, 1526318448.988, 16, 0, 1024, 1024, 1024, 1024, 0, 6, 4232, 4252, 4271, 4269, 4243, 4267, 0, 1, 3501, -89.900, 0.000, -91.700, 0.100, 0.000, -0.400, 0.0, , , , , , 96, , , 13, 13, 13
37.7783046, -120.1185143, 0.200, 10:20:49.088, 17, 0.10, 0.12, 100, -1.000, 0.000, -92.600, 400, 100, 100, 21, 25691, -3087, 5396, 5396, 16, 11, 1526318449.088, 33, 0, 1024, 1024, 1024, 1024, 0, 6, 4232, 4252, 4271, 4269, 4243, 4267, 0, 1, 3601, -89.900, 0.000, -91.700, 0.100, 0.000, -0.300, 0.0, , , , , , 96, , , 13, 13, 13
37.7783047, -120.1185142, 0.200, 10:20:49.188, 17, 0.10, 0.14, 100, -1.400, -0.100, -92.500, 400, 100, 100, 21, 25691, -3087, 5396, 5396, 16, 11, 1526318449.189, 23, 0, 1024, 1024, 1024, 1024, 0, 6, 4232, 4252, 4271, 4269, 4243, 4267, 0, 1, 3701, -89.900, 0.000, -91.700, 0.100, 0.000, -0.400, 0.0, , , , , , 96, , , 13, 13, 13
37.7783048, -120.1185142, 0.300, 10:20:49.288, 17, 0.10, 0.15, 100, -1.500, 0.000, -92.300, 400, 100, 100, 21, 25691, -3087, 5396, 5396, 16, 11, 1526318449.289, 32, 0, 1024, 1024, 1024, 1024, 0, 6, 4232, 4252, 4271, 4269, 4243, 4267, 0, 1, 3801, -89.900, 0.000, -91.700, 0.100, 0.000, -0.400, 0.0, , , , , , 96, , , 13, 13, 13
37.7783049, -120.1185141, 0.300, 10:20:49.388, 17, 0.10, 0.16, 100, -1.500, -0.100, -92.200, 400, 100, 100, 21, 25691, -3087, 5396, 5396, 16, 11, 1526318449.388, 39, 0, 1024, 1024, 1024, 1024, 0, 6, 4232, 4252, 4271, 4269, 4243, 4267, 0, 1, 3901, -89.900, 0.000, -91.700, 0.100, 0.000, -0.400, 0.0, , , , , , 96, , , 13, 13, 13
37.7783050, -120.1185141, 0.400, 10:20:49.496, 17, 0.10, 0.18, 100, -1.600, -0.500, -92.200, 400, 100, 100, 21, 25691, -3087, 5396, 5396, 16, 11, 1526318449.496, 12, 0, 1024, 1024, 1024, 1024, 0, 6, 4232, 4252, 4271, 4269, 4243, 4267, 0, 1, 4009, -90.000, 0.000, -91.700, 0.100, 0.000, -0.400, 0.0, , , , , , 96, , , 13, 13, 13
37.7783051, -120.1185140, 0.400, 10:20:49.596, 18, 0.00, 0.18, 100, -1.700, -0.800, -92.300, 400, 100, 100, 21, 24795, -11822, 5396, 5396, 16, 11, 1526318449.597, 11, 0, 1024, 1024, 1024, 1024, 0, 6, 4232, 4252, 4271, 4269, 4243, 4267, 0, 1, 4110, -90.000, 0.000, -91.700, 0.000, 0.000, -0.400, 0.0, , , , , , 96, , , 13, 13, 13
37.7783052, -120.1185140, 0.500, 10:20:49.689, 18, 0.00, 0.19, 100, -1.900, -0.800, -92.500, 400, 100, 100, 21, 24795, -11822, 5396, 5396, 16, 11, 1526318449.689, 7, 0, 1024, 1024, 1024, 1024, 0, 6, 4037, 4055, 4074, 4118, 4104, 4074, 0, 1, 4202, -89.900, 0.000, -91.700, 0.000, 0.000, -0.400, 0.0, , , , , , 96, , , 13, 13, 13
37.7783052, -120.1185139, 0.500, 10:20:49.788, 18, 0.00, 0.20, 100, -2.000, -0.800, -92.700, 400, 100, 100, 21, 24795, -11822, 5396, 5396, 16, 11, 1526318449.789, 9, 0, 1024, 1024, 1024, 1024, 0, 6, 4037, 4055, 4074, 4118, 4104, 4074, 0, 1, 4301, -89.900, 0.000, -91.700, 0.000, 0.000, -0.400, 0.0, , , , , , 96, , , 13, 13, 13
37.7783053, -120.1185139, 0.600, 10:20:49.892, 18, 0.00, 0.21, 100, -2.100, -0.700, -92.900, 400, 100, 100, 21, 24795, -11822, 5396, 5396, 16, 11, 1526318449.893, 5, 0, 1024, 1024, 1024, 1024, 0, 6, 4037, 4055, 4074, 4118, 4104, 4074, 0, 1, 4405, -90.000, 0.000, -91.700, 0.000, 0.000, -0.400, 0.0, , , , , , 96, , , 13, 13, 13
37.7783053, -120.1185139, 0.600, 10:20:49.988, 18, 0.00, 0.21, 100, -2.100, -0.700, -92.900, 400, 100, 100, 21, 24795, -11822, 5396, 5396, 16, 11, 1526318449.988, 101, 0, 1024, 1024, 1024, 1024, 0, 6, 4037, 4055, 4074, 4118, 4104, 4074, 0, 1, 4501, -90.000, 0.000, -91.700, 0.000, 0.000, -0.400, 0.0, , , , , , 96, , , 13, 13, 13
37.7783054, -120.1185138, 0.600, 10:20:50.087, 18, 0.00, 0.22, 100, -2.200, -0.800, -93.000, 400, 100, 100, 21, 24795, -11822, 5396, 5396, 16, 11, 1526318450.088, 80, 0, 1024, 1024, 1024, 1024, 0, 6, 4037, 4055, 4074, 4118, 4104, 4074, 0, 1, 4601, -89.900, 0.000, -91.700, 0.000, 0.000, -0.400, 0.0, , , , , , 96, , , 13, 13, 13
37.7783054, -120.1185138, 0.700, 10:20:50.187, 18, 0.00, 0.22, 100, -2.200, -0.900, -93.000, 400, 100, 100, 21, 24795, -11822, 5396, 5396, 16, 11, 1526318450.188, 81, 0, 1024, 1024, 1024, 1024, 0, 6, 4037, 4055, 4074, 4118, 4104, 4074, 0, 1, 4701, -90.000, 0.000, -91.700, 0.000, 0.000, -0.500, 0.0, , , , , , 96, , , 13, 13, 13
37.7783053, -120.1185138, 0.700, 10:20:50.288, 17, 0.00, 0.21, 100, -2.100, -0.900, -92.900, 400, 100, 100, 21, 24795, -11822, 5396, 5396, 16, 11, 1526318450.288, 83, 0, 1024, 1024, 1024, 1024, 0, 6, 4037, 4055, 4074, 4118, 4104, 4074, 0, 1, 4801, -89.900, 0.000, -91.700, 0.000, 0.000, -0.400, 0.0, , , , , , 96, , , 13, 13, 13
37.7783053, -120.1185138, 0.800, 10:20:50.388, 17, 0.00, 0.21, 100, -1.900, -0.900, -92.700, 400, 100, 100, 21, 24795, -11822, 5396, 5396, 16, 11, 1526318450.388, 90, 0, 1024, 1024, 1024, 1024, 0, 6, 4037, 4055, 4074, 4118, 4104, 4074, 0, 1, 4901, -90.000, 0.000, -91.700, 0.000, 0.000, -0.500, 0.0, , , , , , 96, , , 13, 13, 13
37.7783053, -120.1185137, 0.800, 10:20:50.487, 17, 0.00, 0.21, 100, -1.700, -1.000, -92.500, 400, 100, 100, 21, 24795, -11822, 5396, 5396, 16, 11, 1526318450.487, 83, 0, 1024, 1024, 1024, 1024, 0, 6, 4037, 4055, 4074, 4118, 4104, 4074, 0, 1, 5000, -89.900, 0.000, -91.700, 0.000, 0.000, -0.400, 0.0, , , , , , 96, , , 13, 13, 13
37.7783053, -120.1185137, 0.900, 10:20:50.588, 17, 0.00, 0.21, 100, -1.700, -1.000, -92.200, 400, 100, 100, 21, 24119, -16347, 5396, 5396, 16, 6, 1526318450.589, 50, 0, 1024, 1024, 1024, 1024, 0, 6, 3996, 4019, 4027, 4025, 4004, 4022, 0, 1, 5101, -89.900, 0.000, -91.700, 0.000, 0.000, -0.500, 0.0, , , , , , 96, , , 13, 13, 13
37.7783052, -120.1185137, 0.900, 10:20:50.688, 18, 0.00, 0.20, 100, -1.800, -1.000, -92.100, 400, 100, 100, 21, 24119, -16347, 5396, 5396, 16, 14, 1526318450.688, 52, 0, 1024, 1024, 1024, 1024, 0, 6, 3996, 4019, 4027, 4025, 4004, 4022, 0, 1, 5201, -89.900, 0.000, -91.700, 0.000, 0.000, -0.400, 0.0, , , , , , 96, , , 13, 13, 13
37.7783052, -120.1185137, 1.000, 10:20:50.787, 18, 0.00, 0.20, 100, -0.900, -0.600, -91.900, 400, 100, 100, 21, 24119, -16347, 5396, 5396, 16, 14, 1526318450.788, 51, 0, 1024, 1024, 1024, 1024, 0, 6, 3996, 4019, 4027, 4025, 4004, 4022, 0, 1, 5301, -89.900, 0.000, -91.700, 0.000, 0.000, -0.300, 0.0, , , , , , 96, , , 13, 13, 13
37.7783052, -120.1185137, 1.000, 10:20:50.888, 18, 0.00, 0.20, 100, 0.000, -0.300, -91.700, 400, 100, 100, 21, 24119, -16347, 5396, 5396, 16, 14, 1526318450.888, 58, 0, 1024, 1024, 1024, 1024, 0, 6, 3996, 4019, 4027, 4025, 4004, 4022, 0, 1, 5401, -89.900, 0.000, -91.700, 0.000, 0.000, -0.300, 0.0, , , , , , 96, , , 13, 13, 13
37.7783051, -120.1185137, 1.000, 10:20:50.988, 18, 0.00, 0.19, 100, 0.200, -0.200, -91.400, 400, 100, 100, 21, 24119, -16347, 5396, 5396, 16, 14, 1526318450.988, 58, 0, 1024, 1024, 1024, 1024, 0, 6, 3996, 4019, 4027, 4025, 4004, 4022, 0, 1, 5501, -89.900, 0.000, -91.700, 0.000, 0.000, -0.300, 0.0, , , , , , 96, , , 13, 13, 13
37.7783051, -120.1185137, 1.200, 10:20:51.088, 17, 0.00, 0.19, 100, -0.400, -0.100, -90.900, 400, 100, 100, 21, 24119, -16347, 5396, 5396, 16, 14, 1526318451.088, 38, 0, 1024, 1024, 1024, 1024, 0, 6, 3996, 4019, 4027, 4025, 4004, 4022, 0, 1, 5601, -89.900, 0.000, -91.700, 0.000, 0.000, -0.500, 0.0, , , , , , 96, , , 13, 13, 13
37.7783051, -120.1185137, 1.200, 10:20:51.188, 17, 0.00, 0.19, 100, -0.700, -0.100, -90.900, 400, 100, 100, 21, 24119, -16347, 5396, 5396, 16, 14, 1526318451.188, 44, 0, 1024, 1024, 1024, 1024, 0, 6, 3996, 4019, 4027, 4025, 4004, 4022, 0, 1, 5701, -89.900, 0.000, -91.700, 0.000, 0.000, -0.700, 0.0, , , , , , 96, , , 13, 13, 13
37.7783051, -120.1185138, 1.300, 10:20:51.288, 17, 0.00, 0.19, 100, -0.700, 0.000, -90.900, 400, 100, 100, 21, 24119, -16347, 5396, 5396, 16, 14, 1526318451.288, 22, 0, 1024, 1024, 1024, 1024, 0, 6, 3996, 4019, 4027, 4025, 4004, 4022, 0, 1, 5801, -89.900, 0.000, -91.700, 0.000, 0.000, -0.800, 0.0, , , , , , 96, , , 13, 13, 13
37.7783051, -120.1185138, 1.400, 10:20:51.387, 16, 0.00, 0.19, 100, -0.500, 0.100, -90.900, 400, 100, 100, 21, 24119, -16347, 5396, 5396, 16, 14, 1526318451.388, 50, 0, 1024, 1024, 1024, 1024, 0, 6, 3996, 4019, 4027, 4025, 4004, 4022, 0, 1, 5901, -89.900, 0.000, -91.700, 0.000, 0.000, -1.000, 0.0, , , , , , 96, , , 13, 13, 13
37.7783052, -120.1185137, 1.500, 10:20:51.487, 16, 0.00, 0.20, 100, -0.500, 0.100, -90.900, 400, 100, 100, 21, 24119, -16347, 5396, 5396, 16, 14, 1526318451.487, 43, 0, 1024, 1024, 1024, 1024, 0, 6, 3996, 4019, 4027, 4025, 4004, 4022, 0, 1, 6000, -89.900, 0.000, -91.700, 0.000, 0.000, -1.200, 0.0, , , , , , 96, , , 13, 13, 13
37.7783053, -120.1185137, 1.700, 10:20:51.587, 17, 0.00, 0.21, 100, -0.700, 0.100, -90.700, 400, 100, 100, 21, 24064, -16483, 5396, 5396, 16, 14, 1526318451.588, 15, 0, 1024, 1024, 1024, 1024, 0, 6, 3996, 4019, 4027, 4025, 4004, 4022, 0, 1, 6101, -89.900, 0.000, -91.700, 0.000, 0.000, -1.400, 0.0, , , , , , 96, , , 13, 13, 13
37.7783054, -120.1185137, 1.800, 10:20:51.688, 17, 0.00, 0.22, 100, -1.200, 0.200, -90.500, 400, 100, 100, 21, 24064, -16483, 5396, 5396, 16, 14, 1526318451.688, 15, 0, 1024, 1024, 1024, 1024, 0, 6, 3996, 4019, 4027, 4025, 4004, 4022, 0, 1, 6201, -89.900, 0.000, -91.700, 0.000, 0.000, -1.600, 0.0, , , , , , 96, , , 13, 13, 13
37.7783055, -120.1185137, 2.000, 10:20:51.787, 17, 0.10, 0.23, 100, -1.800, -0.100, -90.400, 400, 100, 100, 21, 24064, -16483, 5396, 5396, 16, 14, 1526318451.790, 21, 0, 1024, 1024, 1024, 1024, 0, 6, 3996, 4019, 4027, 4025, 4004, 4022, 0, 1, 6303, -89.900, 0.000, -91.700, 0.100, 0.000, -1.800, 0.0, , , , , , 96, , , 13, 13, 13
37.7783056, -120.1185138, 2.200, 10:20:51.887, 17, 0.00, 0.25, 100, -2.200, -0.300, -90.600, 400, 100, 100, 21, 24064, -16483, 5396, 5396, 16, 14, 1526318451.888, 10, 0, 1024, 1024, 1024, 1024, 0, 6, 3996, 4019, 4027, 4025, 4004, 4022, 0, 1, 6401, -90.000, 0.000, -91.700, 0.000, 0.000, -2.100, 0.0, , , , , , 96, , , 13, 13, 13
37.7783058, -120.1185138, 2.500, 10:20:51.988, 16, 0.00, 0.26, 100, -2.100, -0.100, -90.900, 400, 100, 100, 21, 24064, -16483, 5396, 5396, 16, 14, 1526318451.988, 28, 0, 1024, 1024, 1024, 1024, 0, 6, 3996, 4019, 4027, 4025, 4004, 4022, 0, 1, 6501, -89.900, 0.000, -91.700, 0.000, 0.000, -2.300, 0.0, , , , , , 96, , , 13, 13, 13
37.7783058, -120.1185138, 2.500, 10:20:52.088, 16, 0.00, 0.26, 100, -2.100, -0.100, -90.900, 400, 100, 100, 21, 24064, -16483, 5396, 5396, 16, 14, 1526318452.088, 127, 0, 1024, 1024, 1024, 1024, 0, 6, 3996, 4019, 4027, 4025, 4004, 4022, 0, 1, 6601, -89.900, 0.000, -91.700, 0.000, 0.000, -2.300, 0.0, , , , , , 96, , , 13, 13, 13
37.7783059, -120.1185139, 2.700, 10:20:52.188, 16, 0.00, 0.27, 98, -2.100, 0.200, -91.200, 400, 100, 100, 21, 24064, -16483, 5288, 5396, 16, 14, 1526318452.188, 83, 0, 1024, 1024, 1024, 1024, 0, 6, 3996, 4019, 4027, 4025, 4004, 4022, 0, 1, 6701, -89.900, 0.000, -91.700, 0.000, 0.000, -2.400, 0.0, , , , , , 96, , , 13, 13, 13
37.7783062, -120.1185141, 3.300, 10:20:52.291, 17, 0.00, 0.30, 98, -2.300, 0.700, -91.700, 400, 100, 100, 21, 24064, -16483, 5288, 5396, 16, 14, 1526318452.291, 4, 0, 1024, 1024, 1024, 1024, 0, 6, 3997, 4021, 4015, 4018, 4007, 4032, 0, 1, 6804, -89.900, 0.000, -91.700, 0.000, 0.000, -2.900, 0.0, , , , , , 96, , , 13, 13, 13
37.7783063, -120.1185142, 3.600, 10:20:52.390, 18, 0.00, 0.31, 98, -2.700, 0.800, -91.800, 400, 100, 100, 21, 24064, -16483, 5288, 5396, 16, 14, 1526318452.390, 6, 0, 1024, 1024, 1024, 1024, 0, 6, 3997, 4021, 4015, 4018, 4007, 4032, 0, 1, 6903, -89.900, 0.000, -91.700, 0.000, 0.000, -3.000, 0.0, , , , , , 96, , , 13, 13, 13
37.7783064, -120.1185144, 3.900, 10:20:52.487, 18, 0.00, 0.32, 98, -2.900, 0.700, -91.800, 400, 100, 100, 21, 24064, -16483, 5288, 5396, 16, 14, 1526318452.487, 7, 0, 1024, 1024, 1024, 1024, 0, 6, 3997, 4021, 4015, 4018, 4007, 4032, 0, 1, 7000, -89.900, 0.000, -91.700, 0.000, 0.000, -3.000, 0.0, , , , , , 96, , , 13, 13, 13
37.7783064, -120.1185144, 3.900, 10:20:52.588, 18, 0.00, 0.32, 98, -2.900, 0.700, -91.800, 400, 100, 100, 21, 24064, -16483, 5288, 5396, 16, 14, 1526318452.588, 108, 0, 1024, 1024, 1024, 1024, 0, 6, 3997, 4021, 4015, 4018, 4007, 4032, 0, 1, 7101, -89.900, 0.000, -91.700, 0.000, 0.000, -3.000, 0.0, , , , , , 96, , , 13, 13, 13
37.7783065, -120.1185145, 4.200, 10:20:52.688, 18, 0.00, 0.34, 98, -3.000, 1.000, -91.600, 400, 100, 100, 21, 24064, -16483, 5288, 5396, 16, 14, 1526318452.688, 86, 0, 1024, 1024, 1024, 1024, 0, 6, 3997, 4021, 4015, 4018, 4007, 4032, 0, 1, 7201, -89.900, 0.000, -91.700, 0.000, 0.000, -3.100, 0.0, , , , , , 96, , , 13, 13, 13
37.7783066, -120.1185146, 4.600, 10:20:52.788, 18, 0.00, 0.35, 98, -3.200, 1.300, -91.300, 400, 100, 100, 21, 24064, -16483, 5288, 5396, 16, 14, 1526318452.788, 96, 0, 1024, 1024, 1024, 1024, 0, 6, 3997, 4021, 4015, 4018, 4007, 4032, 0, 1, 7301, -89.900, 0.000, -91.700, 0.000, 0.000, -3.200, 0.0, , , , , , 96, , , 13, 13, 13
37.7783067, -120.1185146, 4.900, 10:20:52.888, 18, 0.00, 0.36, 98, -3.500, 1.200, -91.100, 400, 100, 100, 21, 24064, -16483, 5288, 5396, 16, 14, 1526318452.888, 73, 0, 1024, 1024, 1024, 1024, 0, 6, 3997, 4021, 4015, 4018, 4007, 4032, 0, 1, 7401, -89.900, 0.000, -91.700, 0.000, 0.000, -3.200, 0.0, , , , , , 96, , , 13, 13, 13
37.7783067, -120.1185147, 5.300, 10:20:52.987, 18, 0.00, 0.36, 98, -3.600, 1.200, -91.000, 400, 100, 100, 21, 24064, -16483, 5288, 5396, 16, 14, 1526318452.987, 65, 0, 1024, 1024, 1024, 1024, 0, 6, 3997, 4021, 4015, 4018, 4007, 4032, 0, 1, 7500, -89.900, 0.000, -91.700, 0.000, 0.000, -3.100, 0.0, , , , , , 96, , , 13, 13, 13
37.7783067, -120.1185147, 5.600, 10:20:53.088, 18, 0.00, 0.36, 98, -3.100, 1.100, -90.900, 400, 100, 100, 21, 23994, -23152, 5288, 5396, 16, 14, 1526318453.088, 47, 0, 1024, 1024, 1024, 1024, 0, 6, 3845, 3905, 3928, 3953, 3942, 3927, 0, 1, 7601, -89.900, 0.000, -91.700, 0.000, 0.000, -3.200, 0.0, , , , , , 96, , , 13, 13, 13
37.7783067, -120.1185147, 5.900, 10:20:53.188, 18, 0.00, 0.36, 98, -2.800, 0.800, -90.900, 400, 100, 100, 21, 23994, -23152, 5288, 5396, 16, 14, 1526318453.188, 36, 0, 1024, 1024, 1024, 1024, 0, 6, 3845, 3905, 3928, 3953, 3942, 3927, 0, 1, 7701, -89.900, 0.000, -91.700, 0.000, 0.000, -3.200, 0.0, , , , , , 96, , , 13, 13, 13
37.7783067, -120.1185147, 6.200, 10:20:53.288, 18, 0.00, 0.36, 98, -2.300, 0.700, -91.000, 400, 100, 100, 21, 23994, -23152, 5288, 5396, 16, 14, 1526318453.289, 37, 0, 1024, 1024, 1024, 1024, 0, 6, 3845, 3905, 3928, 3953, 3942, 3927, 0, 1, 7802, -89.900, 0.000, -91.700, 0.000, 0.000, -3.100, 0.0, , , , , , 96, , , 13, 13, 13
37.7783065, -120.1185146, 6.900, 10:20:53.388, 18, 0.00, 0.34, 98, -1.600, 0.500, -91.300, 400, 100, 100, 21, 23994, -23152, 5288, 5396, 16, 14, 1526318453.389, 20, 0, 1024, 1024, 1024, 1024, 0, 6, 3845, 3905, 3928, 3953, 3942, 3927, 0, 1, 7901, -89.900, 0.000, -91.700, 0.000, 0.000, -3.100, 0.0, , , , , , 96, , , 13, 13, 13
37.7783064, -120.1185145, 7.200, 10:20:53.487, 18, 0.00, 0.33, 98, -1.500, 0.500, -91.400, 400, 100, 100, 21, 23994, -23152, 5288, 5396, 16, 14, 1526318453.488, 40, 0, 1024, 1024, 1024, 1024, 0, 6, 3845, 3905, 3928, 3953, 3942, 3927, 0, 1, 8001, -89.900, 0.000, -91.700, 0.000, 0.000, -3.100, 0.0, , , , , , 96, , , 13, 13, 13
37.7783063, -120.1185145, 7.500, 10:20:53.588, 18, 0.00, 0.32, 98, -1.300, 0.200, -91.400, 400, 100, 100, 21, 23994, -23152, 5288, 5396, 16, 14, 1526318453.589, 43, 0, 1024, 1024, 1024, 1024, 0, 6, 3845, 3905, 3928, 3953, 3942, 3927, 0, 1, 8102, -89.900, 0.000, -91.700, 0.000, 0.000, -3.100, 0.0, , , , , , 96, , , 13, 13, 13
37.7783062, -120.1185144, 7.900, 10:20:53.688, 18, 0.00, 0.30, 98, -1.300, 0.200, -91.400, 400, 100, 100, 21, 23994, -23152, 5288, 5396, 16, 14, 1526318453.688, 47, 0, 1024, 1024, 1024, 1024, 0, 6, 3845, 3905, 3928, 3953, 3942, 3927, 0, 1, 8201, -89.900, 0.000, -91.700, 0.000, 0.000, -3.100, 0.0, , , , , , 96, , , 13, 13, 13
37.7783061, -120.1185142, 8.200, 10:20:53.788, 18, 0.00, 0.29, 98, -1.300, 0.000, -91.500, 400, 100, 100, 21, 23994, -23152, 5288, 5396, 16, 14, 1526318453.788, 16, 0, 1024, 1024, 1024, 1024, 0, 6, 3845, 3905, 3928, 3953, 3942, 3927, 0, 1, 8301, -89.900, 0.000, -91.700, 0.000, 0.000, -3.200, 0.0, , , , , , 96, , , 13, 13, 13
37.7783059, -120.1185141, 8.500, 10:20:53.888, 18, 0.00, 0.28, 98, -1.100, -0.300, -91.500, 400, 100, 100, 21, 23994, -23152, 5288, 5396, 16, 14, 1526318453.888, 15, 0, 1024, 1024, 1024, 1024, 0, 6, 3845, 3905, 3928, 3953, 3942, 3927, 0, 1, 8401, -90.000, 0.000, -91.700, 0.000, 0.000, -3.100, 0.0, , , , , , 96, , , 13, 13, 13
37.7783058, -120.1185140, 8.900, 10:20:53.987, 18, 0.00, 0.27, 98, -1.000, -0.500, -91.500, 400, 100, 100, 21, 23994, -23152, 5288, 5396, 16, 14, 1526318453.988, 15, 0, 1024, 1024, 1024, 1024, 0, 6, 3845, 3905, 3928, 3953, 3942, 3927, 0, 1, 8501, -90.000, 0.000, -91.700, 0.000, 0.000, -3.100, 0.0, , , , , , 96, , , 13, 13, 13
37.7783058, -120.1185140, 8.900, 10:20:54.088, 18, 0.00, 0.27, 98, -1.000, -0.500, -91.500, 400, 100, 100, 21, 23994, -23152, 5288, 5396, 16, 14, 1526318454.089, 116, 0, 1024, 1024, 1024, 1024, 0, 6, 3845, 3905, 3928, 3953, 3942, 3927, 0, 1, 8602, -90.000, 0.000, -91.700, 0.000, 0.000, -3.100, 0.0, , , , , , 96, , , 13, 13, 13
37.7783057, -120.1185137, 9.500, 10:20:54.195, 18, 0.00, 0.25, 98, -0.600, -0.900, -91.400, 400, 100, 100, 21, 23678, -18285, 5288, 5396, 16, 14, 1526318454.195, 5, 0, 1024, 1024, 1024, 1024, 0, 6, 3845, 3905, 3928, 3953, 3942, 3927, 0, 1, 8708, -90.000, 0.000, -91.700, 0.000, 0.000, -3.000, 0.0, , , , , , 96, , , 13, 13, 13
37.7783057, -120.1185137, 9.500, 10:20:54.288, 18, 0.00, 0.25, 98, -0.600, -0.900, -91.400, 400, 100, 100, 21, 23678, -18285, 5288, 5396, 16, 14, 1526318454.289, 99, 0, 1024, 1024, 1024, 1024, 0, 6, 3845, 3905, 3928, 3953, 3942, 3927, 0, 1, 8802, -90.000, 0.000, -91.700, 0.000, 0.000, -3.000, 0.0, , , , , , 96, , , 13, 13, 13
37.7783054, -120.1185135, 10.200, 10:20:54.389, 18, 0.00, 0.23, 98, -0.100, -1.200, -91.200, 400, 100, 100, 21, 23678, -18285, 5288, 5396, 16, 14, 1526318454.389, 16, 0, 1024, 1024, 1024, 1024, 0, 6, 3845, 3905, 3928, 3953, 3942, 3927, 0, 1, 8902, -90.000, 0.000, -91.700, 0.000, 0.000, -3.000, 0.0, , , , , , 96, , , 13, 13, 13
37.7783054, -120.1185133, 10.500, 10:20:54.495, 18, 0.00, 0.23, 98, 0.100, -1.300, -91.100, 400, 100, 100, 21, 23678, -18285, 5288, 5396, 16, 14, 1526318454.495, 6, 0, 1024, 1024, 1024, 1024, 0, 6, 3920, 3961, 3959, 3951, 3961, 3908, 0, 1, 9008, -90.000, 0.000, -91.700, 0.000, 0.000, -3.000, 0.0, , , , , , 96, , , 13, 13, 13
37.7783053, -120.1185132, 10.800, 10:20:54.597, 18, 0.00, 0.23, 98, 0.000, -1.300, -91.100, 400, 100, 100, 21, 23678, -18285, 5288, 5396, 16, 14, 1526318454.597, 7, 0, 1024, 1024, 1024, 1024, 0, 6, 3920, 3961, 3959, 3951, 3961, 3908, 0, 1, 9110, -89.900, 0.000, -91.700, 0.000, 0.000, -3.000, 0.0, , , , , , 96, , , 13, 13, 13
37.7783053, -120.1185132, 10.800, 10:20:54.689, 18, 0.00, 0.23, 98, 0.000, -1.300, -91.100, 400, 100, 100, 21, 23678, -18285, 5288, 5396, 16, 14, 1526318454.690, 100, 0, 1024, 1024, 1024, 1024, 0, 6, 3920, 3961, 3959, 3951, 3961, 3908, 0, 1, 9203, -89.900, 0.000, -91.700, 0.000, 0.000, -3.000, 0.0, , , , , , 96, , , 13, 13, 13
37.7783052, -120.1185131, 11.100, 10:20:54.788, 18, 0.00, 0.22, 98, -0.100, -1.200, -91.100, 400, 100, 100, 21, 23678, -18285, 5288, 5396, 16, 14, 1526318454.789, 63, 0, 1024, 1024, 1024, 1024, 0, 6, 3920, 3961, 3959, 3951, 3961, 3908, 0, 1, 9301, -89.900, 0.000, -91.700, 0.000, 0.000, -2.900, 0.0, , , , , , 96, , , 13, 13, 13
37.7783051, -120.1185131, 11.400, 10:20:54.888, 18, 0.00, 0.21, 98, -0.100, -1.100, -91.100, 400, 100, 100, 21, 23678, -18285, 5288, 5396, 16, 14, 1526318454.889, 75, 0, 1024, 1024, 1024, 1024, 0, 6, 3920, 3961, 3959, 3951, 3961, 3908, 0, 1, 9402, -89.900, 0.000, -91.700, 0.000, 0.000, -3.000, 0.0, , , , , , 96, , , 13, 13, 13
37.7783050, -120.1185130, 11.700, 10:20:54.989, 18, 0.00, 0.21, 98, -0.200, -1.000, -91.000, 400, 100, 100, 21, 23678, -18285, 5288, 5396, 16, 14, 1526318454.990, 85, 0, 1024, 1024, 1024, 1024, 0, 6, 3920, 3961, 3959, 3951, 3961, 3908, 0, 1, 9503, -89.900, 0.000, -91.700, 0.000, 0.000, -3.000, 0.0, , , , , , 96, , , 13, 13, 13
37.7783050, -120.1185129, 12.000, 10:20:55.088, 18, 0.00, 0.21, 98, -0.400, -1.000, -90.900, 400, 100, 100, 21, 23830, -16534, 5288, 5396, 16, 14, 1526318455.089, 79, 0, 1024, 1024, 1024, 1024, 0, 6, 3948, 3986, 3980, 3974, 3967, 3979, 0, 1, 9602, -90.000, 0.000, -91.700, 0.000, 0.000, -3.000, 0.0, , , , , , 96, , , 13, 13, 13
37.7783049, -120.1185129, 12.300, 10:20:55.212, 18, 0.00, 0.20, 98, -0.500, -0.900, -90.900, 400, 100, 100, 21, 23830, -16534, 5288, 5396, 16, 14, 1526318455.213, 9, 0, 1024, 1024, 1024, 1024, 0, 6, 3948, 3986, 3980, 3974, 3967, 3979, 0, 1, 9726, -89.900, 0.000, -91.700, 0.000, 0.000, -2.900, 0.0, , , , , , 96, , , 13, 13, 13
37.7783049, -120.1185128, 12.600, 10:20:55.288, 18, 0.00, 0.20, 98, -0.500, -0.900, -90.800, 400, 100, 100, 21, 23830, -16534, 5288, 5396, 16, 14, 1526318455.289, 50, 0, 1024, 1024, 1024, 1024, 0, 6, 3948, 3986, 3980, 3974, 3967, 3979, 0, 1, 9802, -90.000, 0.000, -91.700, 0.000, 0.000, -2.900, 0.0, , , , , , 96, , , 13, 13, 13
37.7783048, -120.1185128, 13.000, 10:20:55.388, 18, 0.00, 0.20, 98, -0.500, -0.900, -90.900, 400, 100, 100, 21, 23830, -16534, 5288, 5396, 16, 14, 1526318455.389, 75, 0, 1024, 1024, 1024, 1024, 0, 6, 3948, 3986, 3980, 3974, 3967, 3979, 0, 1, 9902, -90.000, 0.000, -91.700, 0.000, 0.000, -2.900, 0.0, , , , , , 96, , , 13, 13, 13
37.7783048, -120.1185127, 13.300, 10:20:55.488, 18, 0.00, 0.20, 98, -0.400, -0.900, -90.900, 400, 100, 100, 21, 23830, -16534, 5288, 5396, 16, 14, 1526318455.488, 41, 0, 1024, 1024, 1024, 1024, 0, 6, 3948, 3986, 3980, 3974, 3967, 3979, 0, 1, 10001, -89.900, 0.000, -91.700, 0.000, 0.000, -2.900, 0.0, , , , , , 96, , , 13, 13, 13
37.7783047, -120.1185127, 13.600, 10:20:55.589, 18, 0.00, 0.20, 98, -0.400, -0.900, -91.000, 400, 100, 100, 21, 23830, -16534, 5288, 5396, 16, 14, 1526318455.589, 32, 0, 1024, 1024, 1024, 1024, 0, 6, 3948, 3986, 3980, 3974, 3967, 3979, 0, 1, 10102, -89.900, 0.000, -91.700, 0.000, 0.000, -2.900, 0.0, , , , , , 96, , , 13, 13, 13
37.7783047, -120.1185127, 13.900, 10:20:55.689, 18, 0.00, 0.19, 98, -0.600, -0.900, -91.100, 400, 100, 100, 21, 23830, -16534, 5288, 5396, 16, 14, 1526318455.690, 38, 0, 1024, 1024, 1024, 1024, 0, 6, 3948, 3986, 3980, 3974, 3967, 3979, 0, 1, 10203, -89.900, 0.000, -91.700, 0.000, 0.000, -2.900, 0.0, , , , , , 96, , , 13, 13, 13
37.7783047, -120.1185127, 14.200, 10:20:55.788, 18, 0.00, 0.19, 98, -0.900, -0.900, -91.100, 400, 100, 100, 21, 23830, -16534, 5288, 5396, 16, 14, 1526318455.789, 30, 0, 1024, 1024, 1024, 1024, 0, 6, 3948, 3986, 3980, 3974, 3967, 3979, 0, 1, 10302, -89.900, 0.000, -91.700, 0.000, 0.000, -2.900, 0.0, , , , , , 96, , , 13, 13, 13
37.7783046, -120.1185127, 14.500, 10:20:55.888, 18, 0.00, 0.19, 98, -0.700, -0.800, -91.100, 400, 100, 100, 21, 23830, -16534, 5288, 5396, 16, 14, 1526318455.889, 30, 0, 1024, 1024, 1024, 1024, 0, 6, 3948, 3986, 3980, 3974, 3967, 3979, 0, 1, 10402, -89.900, 0.000, -91.700, 0.000, 0.000, -2.900, 0.0, , , , , , 96, , , 13, 13, 13
37.7783046, -120.1185127, 14.800, 10:20:55.988, 18, 0.00, 0.18, 98, -0.700, -0.700, -91.100, 400, 100, 100, 21, 23830, -16534, 5288, 5396, 16, 14, 1526318455.989, 33, 0, 1024, 1024, 1024, 1024, 0, 6, 3948, 3986, 3980, 3974, 3967, 3979, 0, 1, 10501, -89.900, 0.000, -91.700, 0.000, 0.000, -2.900, 0.0, , , , , , 96, , , 13, 13, 13
37.7783044, -120.1185128, 15.300, 10:20:56.105, 18, 0.00, 0.17, 98, 0.000, -0.300, -90.900, 400, 100, 100, 21, 23818, -16622, 5288, 5396, 16, 14, 1526318456.107, 18, 0, 1024, 1024, 1024, 1024, 0, 6, 3948, 3984, 3974, 3971, 3975, 3964, 0, 1, 10620, -89.900, 0.000, -91.700, 0.000, 0.000, -2.800, 0.0, , , , , , 96, , , 13, 13, 13
37.7783044, -120.1185129, 15.600, 10:20:56.188, 18, 0.00, 0.16, 98, 0.000, -0.200, -90.800, 400, 100, 100, 21, 23818, -16622, 5288, 5396, 16, 14, 1526318456.188, 13, 0, 1024, 1024, 1024, 1024, 0, 6, 3948, 3984, 3974, 3971, 3975, 3964, 0, 1, 10701, -89.900, 0.000, -91.700, 0.000, 0.000, -2.800, 0.0, , , , , , 96, , , 13, 13, 13
37.7783043, -120.1185130, 15.900, 10:20:56.288, 18, 0.00, 0.15, 98, 0.300, 0.000, -90.700, 400, 100, 100, 21, 23818, -16622, 5288, 5396, 16, 14, 1526318456.288, 12, 0, 1024, 1024, 1024, 1024, 0, 6, 3948, 3984, 3974, 3971, 3975, 3964, 0, 1, 10801, -89.900, 0.000, -91.700, 0.000, 0.000, -2.800, 0.0, , , , , , 96, , , 13, 13, 13
37.7783043, -120.1185130, 16.200, 10:20:56.388, 18, 0.00, 0.14, 98, 0.500, 0.200, -90.800, 400, 100, 100, 21, 23818, -16622, 5288, 5396, 16, 14, 1526318456.389, 25, 0, 1024, 1024, 1024, 1024, 0, 6, 3948, 3984, 3974, 3971, 3975, 3964, 0, 1, 10902, -89.900, 0.000, -91.700, 0.000, 0.000, -2.900, 0.0, , , , , , 96, , , 13, 13, 13
37.7783042, -120.1185131, 16.500, 10:20:56.487, 18, 0.00, 0.13, 98, 0.500, 0.200, -90.800, 400, 100, 100, 21, 23818, -16622, 5288, 5396, 16, 14, 1526318456.488, 8, 0, 1024, 1024, 1024, 1024, 0, 6, 3948, 3984, 3974, 3971, 3975, 3964, 0, 1, 11000, -89.900, 0.000, -91.700, 0.000, 0.000, -2.900, 0.0, , , , , , 96, , , 13, 13, 13
37.7783042, -120.1185132, 16.800, 10:20:56.587, 18, 0.00, 0.13, 98, 0.400, 0.100, -90.900, 400, 100, 100, 21, 23818, -16622, 5288, 5396, 16, 14, 1526318456.588, 13, 0, 1024, 1024, 1024, 1024, 0, 6, 3948, 3984, 3974, 3971, 3975, 3964, 0, 1, 11101, -89.900, 0.000, -91.700, 0.000, 0.000, -2.900, 0.0, , , , , , 96, , , 13, 13, 13
37.7783042, -120.1185132, 17.100, 10:20:56.687, 18, 0.00, 0.12, 98, 0.000, 0.000, -90.900, 400, 100, 99, 21, 23818, -16622, 5288, 5396, 16, 14, 1526318456.688, 28, 0, 1024, 1024, 1024, 1024, 0, 6, 3948, 3984, 3974, 3971, 3975, 3964, 0, 1, 11201, -89.900, 0.000, -91.700, 0.000, 0.000, -2.900, 0.0, , , , , , 96, , , 13, 13, 13
37.7783042, -120.1185132, 17.100, 10:20:56.787, 18, 0.00, 0.12, 98, 0.000, 0.000, -90.900, 400, 100, 99, 21, 23818, -16622, 5288, 5396, 16, 14, 1526318456.788, 128, 0, 1024, 1024, 1024, 1024, 0, 6, 3948, 3984, 3974, 3971, 3975, 3964, 0, 1, 11301, -89.900, 0.000, -91.700, 0.000, 0.000, -2.900, 0.0, , , , , , 96, , , 13, 13, 13
37.7783042, -120.1185133, 17.400, 10:20:56.888, 18, 0.00, 0.12, 98, 0.000, 0.000, -90.800, 400, 100, 99, 21, 23818, -16622, 5288, 5396, 16, 14, 1526318456.889, 79, 0, 1024, 1024, 1024, 1024, 0, 6, 3948, 3984, 3974, 3971, 3975, 3964, 0, 1, 11402, -90.000, 0.000, -91.700, 0.000, 0.000, -2.900, 0.0, , , , , , 96, , , 13, 13, 13
37.7783042, -120.1185133, 17.700, 10:20:56.988, 18, 0.00, 0.12, 98, 0.000, -0.200, -90.700, 400, 100, 99, 21, 23818, -16622, 5288, 5396, 16, 14, 1526318456.989, 82, 0, 1024, 1024, 1024, 1024, 0, 6, 3948, 3984, 3974, 3971, 3975, 3964, 0, 1, 11502, -90.000, 0.000, -91.700, 0.000, 0.000, -2.900, 0.0, , , , , , 96, , , 13, 13, 13
37.7783042, -120.1185134, 18.000, 10:20:57.088, 18, 0.00, 0.12, 98, 0.000, -0.300, -90.600, 400, 100, 99, 21, 23818, -16622, 5288, 5396, 16, 14, 1526318457.089, 87, 0, 1024, 1024, 1024, 1024, 0, 6, 3948, 3984, 3974, 3971, 3975, 3964, 0, 1, 11601, -90.000, 0.000, -91.700, 0.000, 0.000, -2.900, 0.0, , , , , , 96, , , 13, 13, 13
37.7783042, -120.1185134, 18.300, 10:20:57.189, 18, 0.00, 0.11, 98, -0.100, -0.400, -90.500, 400, 100, 99, 21, 23728, -17455, 5288, 5396, 16, 14, 1526318457.189, 72, 0, 1024, 1024, 1024, 1024, 0, 6, 3948, 3984, 3974, 3971, 3975, 3964, 0, 1, 11702, -90.000, 0.000, -91.700, 0.000, 0.000, -2.900, 0.0, , , , , , 96, , , 13, 13, 13
37.7783043, -120.1185135, 18.600, 10:20:57.289, 18, 0.00, 0.11, 98, -0.200, -0.500, -90.400, 400, 100, 99, 21, 23728, -17455, 5288, 5396, 16, 14, 1526318457.290, 89, 0, 1024, 1024, 1024, 1024, 0, 6, 3948, 3984, 3974, 3971, 3975, 3964, 0, 1, 11803, -89.900, 0.000, -91.700, 0.000, 0.000, -2.900, 0.0, , , , , , 96, , , 13, 13, 13
37.7783043, -120.1185135, 18.900, 10:20:57.390, 18, 0.00, 0.11, 98, -0.100, -0.300, -90.500, 400, 100, 99, 21, 23728, -17455, 5288, 5396, 16, 14, 1526318457.391, 82, 0, 1024, 1024, 1024, 1024, 0, 6, 3948, 3984, 3974, 3971, 3975, 3964, 0, 1, 11904, -89.900, 0.000, -91.700, 0.000, 0.000, -2.900, 0.0, , , , , , 96, , , 13, 13, 13
37.7783043, -120.1185135, 19.200, 10:20:57.489, 18, 0.00, 0.11, 98, 0.000, -0.100, -90.600, 400, 100, 99, 21, 23728, -17455, 5288, 5396, 16, 14, 1526318457.490, 80, 0, 1024, 1024, 1024, 1024, 0, 6, 3948, 3984, 3974, 3971, 3975, 3964, 0, 1, 12003, -89.900, 0.000, -91.700, 0.000, 0.000, -3.000, 0.0, , , , , , 96, , , 13, 13, 13
37.7783043, -120.1185136, 19.500, 10:20:57.588, 18, 0.00, 0.11, 98, 0.200, 0.000, -90.800, 400, 100, 99, 21, 23728, -17455, 5288, 5396, 16, 14, 1526318457.588, 83, 0, 1024, 1024, 1024, 1024, 0, 6, 3931, 3969, 3962, 3959, 3954, 3960, 0, 1, 12101, -89.900, 0.000, -91.700, 0.000, 0.000, -3.000, 0.0, , , , , , 96, , , 13, 13, 13
37.7783042, -120.1185137, 19.800, 10:20:57.688, 18, 0.00, 0.10, 98, 0.200, 0.000, -90.900, 400, 100, 97, 21, 23728, -17455, 5288, 5396, 16, 14, 1526318457.688, 67, 0, 1024, 1024, 1024, 1024, 0, 6, 3931, 3969, 3962, 3959, 3954, 3960, 0, 1, 12201, -89.900, 0.000, -91.700, 0.000, 0.000, -2.900, 0.0, , , , , , 96, , , 13, 13, 13
37.7783042, -120.1185137, 20.100, 10:20:57.788, 18, 0.00, 0.10, 98, 0.300, 0.000, -90.900, 400, 100, 97, 21, 23728, -17455, 5288, 5396, 16, 14, 1526318457.789, 48, 0, 1024, 1024, 1024, 1024, 0, 6, 3931, 3969, 3962, 3959, 3954, 3960, 0, 1, 12302, -89.900, 0.000, -91.700, 0.000, 0.000, -2.900, 0.0, , , , , , 96, , , 13, 13, 13
37.7783042, -120.1185137, 20.400, 10:20:57.888, 18, 0.00, 0.10, 98, 0.400, 0.000, -91.000, 400, 100, 97, 21, 23728, -17455, 5288, 5396, 16, 14, 1526318457.889, 83, 0, 1024, 1024, 1024, 1024, 0, 6, 3931, 3969, 3962, 3959, 3954, 3960, 0, 1, 12402, -89.900, 0.000, -91.700, 0.000, 0.000, -2.900, 0.0, , , , , , 96, , , 13, 13, 13
37.7783043, -120.1185138, 20.700, 10:20:57.988, 18, 0.00, 0.10, 98, 0.300, -0.100, -91.000, 400, 100, 97, 21, 23728, -17455, 5288, 5396, 16, 14, 1526318457.989, 58, 0, 1024, 1024, 1024, 1024, 0, 6, 3931, 3969, 3962, 3959, 3954, 3960, 0, 1, 12502, -89.900, 0.000, -91.700, 0.000, 0.000, -2.900, 0.0, , , , , , 96, , , 13, 13, 13
37.7783043, -120.1185138, 21.000, 10:20:58.088, 18, 0.00, 0.10, 98, 0.300, -0.200, -91.000, 400, 100, 97, 21, 23728, -17455, 5288, 5396, 16, 14, 1526318458.089, 46, 0, 1024, 1024, 1024, 1024, 0, 6, 3931, 3969, 3962, 3959, 3954, 3960, 0, 1, 12602, -89.900, 0.000, -91.700, 0.000, 0.000, -2.900, 0.0, , , , , , 96, , , 13, 13, 13
37.7783043, -120.1185138, 21.300, 10:20:58.189, 18, 0.00, 0.10, 98, 0.200, -0.300, -91.100, 400, 100, 97, 21, 23728, -17455, 5288, 5396, 16, 14, 1526318458.189, 3, 0, 1024, 1024, 1024, 1024, 0, 6, 3931, 3969, 3962, 3959, 3954, 3960, 0, 1, 12702, -89.900, 0.000, -91.700, 0.000, 0.000, -2.900, 0.0, , , , , , 96, , , 13, 13, 13
37.7783043, -120.1185138, 21.600, 10:20:58.288, 18, 0.00, 0.10, 98, 0.200, -0.300, -91.100, 400, 100, 96, 21, 23728, -17455, 5288, 5396, 16, 14, 1526318458.289, 44, 0, 1024, 1024, 1024, 1024, 0, 6, 3931, 3969, 3962, 3959, 3954, 3960, 0, 1, 12802, -89.900, 0.000, -91.700, 0.000, 0.000, -2.900, 0.0, , , , , , 96, , , 13, 13, 13
37.7783043, -120.1185139, 22.100, 10:20:58.388, 18, 0.00, 0.10, 98, 0.000, -0.100, -91.000, 400, 100, 96, 21, 23728, -17455, 5288, 5396, 16, 14, 1526318458.388, 42, 0, 1024, 1024, 1024, 1024, 0, 6, 3931, 3969, 3962, 3959, 3954, 3960, 0, 1, 12901, -89.900, 0.000, -91.700, 0.000, 0.000, -2.900, 0.0, , , , , , 96, , , 13, 13, 13
37.7783044, -120.1185139, 22.400, 10:20:58.487, 18, 0.00, 0.11, 98, 0.000, -0.100, -90.900, 400, 100, 96, 21, 23728, -17455, 5288, 5396, 16, 14, 1526318458.488, 49, 0, 1024, 1024, 1024, 1024, 0, 6, 3931, 3969, 3962, 3959, 3954, 3960, 0, 1, 13001, -89.900, 0.000, -91.700, 0.000, 0.000, -3.000, 0.0, , , , , , 96, , , 13, 13, 13
37.7783044, -120.1185140, 22.700, 10:20:58.588, 18, 0.00, 0.11, 98, 0.000, -0.100, -90.900, 400, 100, 96, 21, 23721, -17066, 5288, 5396, 16, 14, 1526318458.588, 27, 0, 1024, 1024, 1024, 1024, 0, 6, 3931, 3969, 3962, 3959, 3954, 3960, 0, 1, 13101, -89.900, 0.000, -91.700, 0.000, 0.000, -2.900, 0.0, , , , , , 96, , , 13, 13, 13
37.7783044, -120.1185140, 23.000, 10:20:58.688, 18, 0.00, 0.11, 98, 0.000, 0.000, -90.800, 400, 100, 95, 21, 23721, -17066, 5288, 5396, 16, 14, 1526318458.688, 31, 0, 1024, 1024, 1024, 1024, 0, 6, 3931, 3965, 3959, 3963, 3954, 3960, 0, 1, 13201, -89.900, 0.000, -91.700, 0.000, 0.000, -2.900, 0.0, , , , , , 96, , , 13, 13, 13
37.7783044, -120.1185141, 23.300, 10:20:58.788, 18, 0.00, 0.11, 98, 0.200, 0.000, -90.800, 400, 100, 95, 21, 23721, -17066, 5288, 5396, 16, 14, 1526318458.788, 19, 0, 1024, 1024, 1024, 1024, 0, 6, 3931, 3965, 3959, 3963, 3954, 3960, 0, 1, 13301, -89.900, 0.000, -91.700, 0.000, 0.000, -3.000, 0.0, , , , , , 96, , , 13, 13, 13
37.7783045, -120.1185141, 23.600, 10:20:58.887, 18, 0.00, 0.11, 98, 0.300, 0.100, -90.800, 400, 100, 95, 21, 23721, -17066, 5288, 5396, 16, 14, 1526318458.888, 10, 0, 1024, 1024, 1024, 1024, 0, 6, 3931, 3965, 3959, 3963, 3954, 3960, 0, 1, 13401, -89.900, 0.000, -91.700, 0.000, 0.000, -3.000, 0.0, , , , , , 96, , , 13, 13, 13
37.7783045, -120.1185141, 23.900, 10:20:58.988, 18, 0.00, 0.12, 98, 0.100, 0.200, -90.800, 400, 100, 95, 21, 23721, -17066, 5288, 5396, 16, 14, 1526318458.988, 20, 0, 1024, 1024, 1024, 1024, 0, 6, 3931, 3965, 3959, 3963, 3954, 3960, 0, 1, 13501, -89.900, 0.000, -91.700, 0.000, 0.000, -2.900, 0.0, , , , , , 96, , , 13, 13, 13
37.7783045, -120.1185141, 23.900, 10:20:59.088, 18, 0.00, 0.12, 98, 0.100, 0.200, -90.800, 400, 100, 95, 21, 23721, -17066, 5288, 5396, 16, 14, 1526318459.088, 120, 0, 1024, 1024, 1024, 1024, 0, 6, 3931, 3965, 3959, 3963, 3954, 3960, 0, 1, 13601, -89.900, 0.000, -91.700, 0.000, 0.000, -2.900, 0.0, , , , , , 96, , , 13, 13, 13
37.7783046, -120.1185142, 24.200, 10:20:59.188, 18, 0.00, 0.12, 98, -0.100, 0.200, -91.000, 400, 100, 95, 21, 23721, -17066, 5288, 5396, 16, 14, 1526318459.189, 80, 0, 1024, 1024, 1024, 1024, 0, 6, 3931, 3965, 3959, 3963, 3954, 3960, 0, 1, 13701, -89.900, 0.000, -91.700, 0.000, 0.000, -2.900, 0.0, , , , , , 96, , , 13, 13, 13
37.7783046, -120.1185142, 24.500, 10:20:59.289, 18, 0.00, 0.13, 98, -0.400, 0.200, -91.200, 400, 100, 95, 21, 23721, -17066, 5288, 5396, 16, 14, 1526318459.290, 84, 0, 1024, 1024, 1024, 1024, 0, 6, 3931, 3965, 3959, 3963, 3954, 3960, 0, 1, 13803, -89.900, 0.000, -91.700, 0.000, 0.000, -2.900, 0.0, , , , , , 96, , , 13, 13, 13
37.7783047, -120.1185143, 25.100, 10:20:59.395, 18, 0.00, 0.14, 98, -0.500, 0.000, -91.400, 400, 100, 95, 21, 23721, -17066, 5288, 5396, 16, 14, 1526318459.396, 5, 0, 1024, 1024, 1024, 1024, 0, 6, 3931, 3965, 3959, 3963, 3954, 3960, 0, 1, 13909, -90.000, 0.000, -91.700, 0.000, 0.000, -3.000, 0.0, , , , , , 96, , , 13, 13, 13
37.7783047, -120.1185143, 25.100, 10:20:59.489, 18, 0.00, 0.14, 98, -0.500, 0.000, -91.400, 400, 100, 95, 21, 23721, -17066, 5288, 5396, 16, 14, 1526318459.490, 99, 0, 1024, 1024, 1024, 1024, 0, 6, 3931, 3965, 3959, 3963, 3954, 3960, 0, 1, 14003, -90.000, 0.000, -91.700, 0.000, 0.000, -3.000, 0.0, , , , , , 96, , , 13, 13, 13
37.7783047, -120.1185144, 25.400, 10:20:59.587, 18, 0.00, 0.14, 98, -0.300, 0.000, -91.400, 400, 100, 95, 21, 23721, -17066, 5288, 5396, 16, 14, 1526318459.588, 65, 0, 1024, 1024, 1024, 1024, 0, 6, 3931, 3965, 3959, 3963, 3954, 3960, 0, 1, 14101, -89.900, 0.000, -91.700, 0.000, 0.000, -3.000, 0.0, , , , , , 96, , , 13, 13, 13
37.7783048, -120.1185144, 25.700, 10:20:59.687, 18, 0.00, 0.15, 98, -0.300, 0.200, -91.300, 400, 100, 97, 21, 23713, -16778, 5288, 5396, 16, 14, 1526318459.688, 91, 0, 1024, 1024, 1024, 1024, 0, 6, 3931, 3965, 3959, 3963, 3954, 3960, 0, 1, 14201, -89.900, 0.000, -91.700, 0.000, 0.000, -2.900, 0.0, , , , , , 96, , , 13, 13, 13
37.7783048, -120.1185144, 26.000, 10:20:59.789, 18, 0.00, 0.16, 98, -0.400, 0.300, -91.200, 400, 100, 97, 21, 23713, -16778, 5288, 5396, 16, 14, 1526318459.791, 91, 0, 1024, 1024, 1024, 1024, 0, 6, 3932, 3965, 3959, 3960, 3954, 3953, 0, 1, 14304, -89.900, 0.000, -91.700, 0.000, 0.000, -2.900, 0.0, , , , , , 96, , , 13, 13, 13
37.7783049, -120.1185145, 26.300, 10:20:59.888, 18, 0.00, 0.16, 98, -0.400, 0.400, -91.200, 400, 100, 97, 21, 23713, -16778, 5288, 5396, 16, 14, 1526318459.889, 82, 0, 1024, 1024, 1024, 1024, 0, 6, 3932, 3965, 3959, 3960, 3954, 3953, 0, 1, 14402, -89.900, 0.000, -91.700, 0.000, 0.000, -2.900, 0.0, , , , , , 96, , , 13, 13, 13
37.7783050, -120.1185145, 26.600, 10:20:59.989, 18, 0.00, 0.17, 98, -0.700, 0.300, -91.100, 400, 100, 97, 21, 23713, -16778, 5288, 5396, 16, 14, 1526318459.989, 81, 0, 1024, 1024, 1024, 1024, 0, 6, 3932, 3965, 3959, 3960, 3954, 3953, 0, 1, 14502, -89.900, 0.000, -91.700, 0.000, 0.000, -3.000, 0.0, , , , , , 96, , , 13, 13, 13
37.7783051, -120.1185145, 26.900, 10:21:00.089, 18, 0.00, 0.18, 98, -1.000, 0.400, -91.100, 400, 100, 97, 21, 23713, -16778, 5288, 5396, 16, 14, 1526318460.090, 77, 0, 1024, 1024, 1024, 1024, 0, 6, 3932, 3965, 3959, 3960, 3954, 3953, 0, 1, 14603, -89.900, 0.000, -91.700, 0.000, 0.000, -3.000, 0.0, , , , , , 96, , , 13, 13, 13
37.7783051, -120.1185146, 27.200, 10:21:00.195, 18, 0.00, 0.19, 98, -1.100, 0.300, -91.100, 400, 100, 97, 21, 23713, -16778, 5288, 5396, 16, 14, 1526318460.195, 4, 0, 1024, 1024, 1024, 1024, 0, 6, 3932, 3965, 3959, 3960, 3954, 3953, 0, 1, 14708, -89.900, 0.000, -91.700, 0.000, 0.000, -3.000, 0.0, , , , , , 96, , , 13, 13, 13
37.7783052, -120.1185146, 27.500, 10:21:00.288, 18, 0.00, 0.20, 98, -1.200, 0.300, -91.200, 400, 100, 97, 21, 23713, -16778, 5288, 5396, 16, 14, 1526318460.289, 31, 0, 1024, 1024, 1024, 1024, 0, 6, 3932, 3965, 3959, 3960, 3954, 3953, 0, 1, 14802, -89.900, 0.000, -91.700, 0.000, 0.000, -3.000, 0.0, , , , , , 96, , , 13, 13, 13
37.7783052, -120.1185146, 27.800, 10:21:00.388, 18, 0.00, 0.20, 98, -1.200, 0.200, -91.200, 400, 100, 97, 21, 23713, -16778, 5288, 5396, 16, 14, 1526318460.389, 47, 0, 1024, 1024, 1024, 1024, 0, 6, 3932, 3965, 3959, 3960, 3954, 3953, 0, 1, 14902, -89.900, 0.000, -91.700, 0.000, 0.000, -3.000, 0.0, , , , , , 96, , , 13, 13, 13
37.7783053, -120.1185146, 28.100, 10:21:00.488, 18, 0.00, 0.21, 98, -1.100, 0.300, -91.200, 400, 100, 97, 21, 23713, -16778, 5288, 5396, 16, 14, 1526318460.489, 60, 0, 1024, 1024, 1024, 1024, 0, 6, 3932, 3965, 3959, 3960, 3954, 3953, 0, 1, 15002, -89.900, 0.000, -91.700, 0.000, 0.000, -3.000, 0.0, , , , , , 96, , , 13, 13, 13
37.7783054, -120.1185147, 28.400, 10:21:00.588, 18, 0.00, 0.22, 98, -1.100, 0.300, -91.200, 400, 100, 97, 21, 23713, -16778, 5288, 5396, 16, 14, 1526318460.589, 45, 0, 1024, 1024, 1024, 1024, 0, 6, 3932, 3965, 3959, 3960, 3954, 3953, 0, 1, 15101, -89.900, 0.000, -91.700, 0.000, 0.000, -3.000, 0.0, , , , , , 96, , , 13, 13, 13
37.7783054, -120.1185147, 28.700, 10:21:00.690, 18, 0.00, 0.23, 98, -1.200, 0.200, -91.300, 400, 100, 96, 21, 23713, -16778, 5288, 5396, 16, 14, 1526318460.691, 39, 0, 1024, 1024, 1024, 1024, 0, 6, 3932, 3965, 3959, 3960, 3954, 3953, 0, 1, 15204, -89.900, 0.000, -91.700, 0.000, 0.000, -3.000, 0.0, , , , , , 96, , , 13, 13, 13
37.7783055, -120.1185147, 29.000, 10:21:00.788, 18, 0.00, 0.23, 98, -1.400, 0.300, -91.400, 400, 100, 96, 21, 23713, -16778, 5288, 5396, 16, 14, 1526318460.789, 59, 0, 1024, 1024, 1024, 1024, 0, 6, 3932, 3965, 3959, 3960, 3954, 3953, 0, 1, 15302, -89.900, 0.000, -91.700, 0.000, 0.000, -3.000, 0.0, , , , , , 96, , , 13, 13, 13
37.7783056, -120.1185147, 29.400, 10:21:00.888, 18, 0.00, 0.24, 98, -1.600, 0.400, -91.400, 400, 100, 96, 21, 23713, -16778, 5288, 5396, 16, 14, 1526318460.889, 33, 0, 1024, 1024, 1024, 1024, 0, 6, 3932, 3965, 3959, 3960, 3954, 3953, 0, 1, 15402, -89.900, 0.000, -91.700, 0.000, 0.000, -3.000, 0.0, , , , , , 96, , , 13, 13, 13
37.7783057, -120.1185147, 30.000, 10:21:00.988, 18, 0.00, 0.26, 98, -2.300, 0.100, -91.200, 400, 100, 96, 21, 23713, -16778, 5288, 5396, 16, 14, 1526318460.989, 26, 0, 1024, 1024, 1024, 1024, 0, 6, 3932, 3965, 3959, 3960, 3954, 3953, 0, 1, 15501, -89.900, 0.000, -91.700, 0.000, 0.000, -3.000, 0.0, , , , , , 96, , , 13, 13, 13
37.7783058, -120.1185146, 30.300, 10:21:01.089, 18, 0.00, 0.27, 98, -2.400, -0.100, -91.000, 400, 100, 96, 21, 23694, -16910, 5288, 5396, 16, 14, 1526318461.090, 18, 0, 1024, 1024, 1024, 1024, 0, 6, 3932, 3965, 3959, 3960, 3954, 3953, 0, 1, 15603, -90.000, 0.000, -91.700, 0.000, 0.000, -2.900, 0.0, , , , , , 96, , , 13, 13, 13
37.7783059, -120.1185146, 30.600, 10:21:01.188, 18, 0.00, 0.27, 98, -2.400, -0.100, -90.800, 400, 100, 95, 21, 23694, -16910, 5288, 5396, 16, 14, 1526318461.188, 11, 0, 1024, 1024, 1024, 1024, 0, 6, 3926, 3969, 3956, 3946, 3944, 3956, 0, 1, 15701, -90.000, 0.000, -91.700, 0.000, 0.000, -3.000, 0.0, , , , , , 96, , , 13, 13, 13
37.7783060, -120.1185145, 30.900, 10:21:01.288, 18, 0.00, 0.29, 98, -2.700, -0.300, -90.700, 400, 100, 95, 21, 23694, -16910, 5288, 5396, 16, 14, 1526318461.288, 23, 0, 1024, 1024, 1024, 1024, 0, 6, 3926, 3969, 3956, 3946, 3944, 3956, 0, 1, 15801, -90.000, 0.000, -91.700, 0.000, 0.000, -2.900, 0.0, , , , , , 96, , , 13, 13, 13
37.7783061, -120.1185145, 31.200, 10:21:01.388, 18, 0.00, 0.30, 98, -3.000, -0.400, -90.600, 400, 100, 95, 21, 23694, -16910, 5288, 5396, 16, 14, 1526318461.388, 23, 0, 1024, 1024, 1024, 1024, 0, 6, 3926, 3969, 3956, 3946, 3944, 3956, 0, 1, 15901, -90.000, 0.000, -91.700, 0.000, 0.000, -2.900, 0.0, , , , , , 96, , , 13, 13, 13
37.7783062, -120.1185145, 31.500, 10:21:01.487, 18, 0.00, 0.31, 98, -3.000, -0.600, -90.600, 400, 100, 95, 21, 23694, -16910, 5288, 5396, 16, 14, 1526318461.488, 14, 0, 1024, 1024, 1024, 1024, 0, 6, 3926, 3969, 3956, 3946, 3944, 3956, 0, 1, 16001, -90.000, 0.000, -91.700, 0.000, 0.000, -2.900, 0.0, , , , , , 96, , , 13, 13, 13
37.7783063, -120.1185144, 31.800, 10:21:01.588, 18, 0.00, 0.32, 98, -2.800, -0.500, -90.600, 400, 100, 95, 21, 23651, -17203, 5288, 5396, 16, 14, 1526318461.588, 28, 0, 1024, 1024, 1024, 1024, 0, 6, 3926, 3969, 3956, 3946, 3944, 3956, 0, 1, 16101, -90.000, 0.000, -91.700, 0.000, 0.000, -2.900, 0.0, , , , , , 96, , , 13, 13, 13
37.7783064, -120.1185144, 32.100, 10:21:01.693, 18, 0.00, 0.33, 98, -2.800, -0.100, -90.800, 400, 100, 98, 21, 23651, -17203, 5288, 5396, 16, 14, 1526318461.693, 7, 0, 1024, 1024, 1024, 1024, 0, 6, 3922, 3959, 3947, 3939, 3938, 3942, 0, 1, 16206, -89.900, 0.000, -91.700, 0.000, 0.000, -2.800, 0.0, , , , , , 96, , , 13, 13, 13
37.7783065, -120.1185144, 32.400, 10:21:01.788, 18, 0.00, 0.33, 98, -2.800, 0.200, -90.900, 400, 100, 98, 21, 23651, -17203, 5288, 5396, 16, 14, 1526318461.789, 7, 0, 1024, 1024, 1024, 1024, 0, 6, 3922, 3959, 3947, 3939, 3938, 3942, 0, 1, 16302, -89.900, 0.000, -91.700, 0.000, 0.000, -2.800, 0.0, , , , , , 96, , , 13, 13, 13
37.7783065, -120.1185144, 32.400, 10:21:01.888, 18, 0.00, 0.33, 98, -2.800, 0.200, -90.900, 400, 100, 98, 21, 23651, -17203, 5288, 5396, 16, 14, 1526318461.888, 107, 0, 1024, 1024, 1024, 1024, 0, 6, 3922, 3959, 3947, 3939, 3938, 3942, 0, 1, 16401, -89.900, 0.000, -91.700, 0.000, 0.000, -2.800, 0.0, , , , , , 96, , , 13, 13, 13
37.7783065, -120.1185144, 32.600, 10:21:01.988, 18, 0.00, 0.34, 98, -2.900, 0.200, -91.000, 400, 100, 98, 21, 23651, -17203, 5288, 5396, 16, 14, 1526318461.988, 81, 0, 1024, 1024, 1024, 1024, 0, 6, 3922, 3959, 3947, 3939, 3938, 3942, 0, 1, 16501, -89.900, 0.000, -91.700, 0.000, 0.000, -2.900, 0.0, , , , , , 96, , , 13, 13, 13
37.7783067, -120.1185144, 33.200, 10:21:02.100, 18, 0.00, 0.36, 98, -3.000, 0.300, -91.100, 400, 100, 98, 21, 23651, -17203, 5288, 5396, 16, 14, 1526318462.102, 5, 0, 1024, 1024, 1024, 1024, 0, 6, 3922, 3959, 3947, 3939, 3938, 3942, 0, 1, 16615, -89.900, 0.000, -91.700, 0.000, 0.000, -2.900, 0.0, , , , , , 96, , , 13, 13, 13
37.7783067, -120.1185144, 33.200, 10:21:02.188, 18, 0.00, 0.36, 98, -3.000, 0.300, -91.100, 400, 100, 99, 21, 23651, -17203, 5288, 5396, 16, 14, 1526318462.189, 92, 0, 1024, 1024, 1024, 1024, 0, 6, 3922, 3959, 3947, 3939, 3938, 3942, 0, 1, 16702, -89.900, 0.000, -91.700, 0.000, 0.000, -2.900, 0.0, , , , , , 96, , , 13, 13, 13
37.7783067, -120.1185144, 33.500, 10:21:02.287, 18, 0.00, 0.36, 98, -3.100, 0.300, -91.100, 400, 100, 99, 21, 23651, -17203, 5288, 5396, 16, 14, 1526318462.288, 79, 0, 1024, 1024, 1024, 1024, 0, 6, 3922, 3959, 3947, 3939, 3938, 3942, 0, 1, 16801, -89.900, 0.000, -91.700, 0.000, 0.000, -2.800, 0.0, , , , , , 96, , , 13, 13, 13
37.7783068, -120.1185144, 33.800, 10:21:02.388, 18, 0.00, 0.37, 98, -3.000, 0.200, -91.000, 400, 100, 99, 21, 23651, -17203, 5288, 5396, 16, 14, 1526318462.389, 78, 0, 1024, 1024, 1024, 1024, 0, 6, 3922, 3959, 3947, 3939, 3938, 3942, 0, 1, 16901, -89.900, 0.000, -91.700, 0.000, 0.000, -2.900, 0.0, , , , , , 96, , , 13, 13, 13
37.7783068, -120.1185143, 34.100, 10:21:02.487, 18, 0.00, 0.37, 98, -2.800, 0.000, -90.900, 400, 100, 99, 21, 23651, -17203, 5288, 5396, 16, 14, 1526318462.488, 92, 0, 1024, 1024, 1024, 1024, 0, 6, 3922, 3959, 3947, 3939, 3938, 3942, 0, 1, 17001, -90.000, 0.000, -91.700, 0.000, 0.000, -2.900, 0.0, , , , , , 96, , , 13, 13, 13
37.7783068, -120.1185142, 34.400, 10:21:02.587, 18, 0.00, 0.38, 98, -2.700, -0.100, -90.900, 400, 100, 99, 21, 23661, -16996, 5288, 5396, 16, 14, 1526318462.588, 81, 0, 1024, 1024, 1024, 1024, 0, 6, 3922, 3959, 3947, 3939, 3938, 3942, 0, 1, 17101, -90.000, 0.000, -91.700, 0.000, 0.000, -2.900, 0.0, , , , , , 96, , , 13, 13, 13
37.7783069, -120.1185142, 34.700, 10:21:02.688, 18, 0.00, 0.38, 98, -2.700, -0.300, -90.800, 400, 100, 98, 21, 23661, -16996, 5288, 5396, 16, 14, 1526318462.688, 70, 0, 1024, 1024, 1024, 1024, 0, 6, 3922, 3959, 3947, 3939, 3938, 3942, 0, 1, 17201, -90.000, 0.000, -91.700, 0.000, 0.000, -2.800, 0.0, , , , , , 96, , , 13, 13, 13
37.7783069, -120.1185141, 35.000, 10:21:02.788, 18, 0.00, 0.38, 98, -2.800, -0.600, -90.800, 400, 100, 98, 21, 23661, -16996, 5288, 5396, 16, 14, 1526318462.789, 71, 0, 1024, 1024, 1024, 1024, 0, 6, 3922, 3959, 3947, 3939, 3938, 3942, 0, 1, 17301, -90.000, 0.000, -91.700, 0.000, 0.000, -2.900, 0.0, , , , , , 96, , , 13, 13, 13
37.7783069, -120.1185140, 35.300, 10:21:02.888, 18, 0.00, 0.38, 98, -2.900, -0.700, -90.700, 400, 100, 98, 21, 23661, -16996, 5288, 5396, 16, 14, 1526318462.888, 75, 0, 1024, 1024, 1024, 1024, 0, 6, 3922, 3959, 3947, 3939, 3938, 3942, 0, 1, 17401, -90.000, 0.000, -91.700, 0.000, 0.000, -2.900, 0.0, , , , , , 96, , , 13, 13, 13
37.7783069, -120.1185140, 35.600, 10:21:02.988, 18, 0.00, 0.38, 98, -3.000, -0.700, -90.700, 400, 100, 98, 21, 23661, -16996, 5288, 5396, 16, 14, 1526318462.989, 76, 0, 1024, 1024, 1024, 1024, 0, 6, 3922, 3959, 3947, 3939, 3938, 3942, 0, 1, 17502, -90.000, 0.000, -91.700, 0.000, 0.000, -2.900, 0.0, , , , , , 96, , , 13, 13, 13
37.7783069, -120.1185139, 35.900, 10:21:03.088, 18, 0.00, 0.38, 97, -2.800, -0.600, -90.600, 400, 100, 98, 21, 23661, -16996, 5234, 5396, 16, 14, 1526318463.089, 60, 0, 1024, 1024, 1024, 1024, 0, 6, 3919, 3955, 3938, 3937, 3930, 3936, 0, 1, 17601, -90.000, 0.000, -91.700, 0.000, 0.000, -2.900, 0.0, , , , , , 96, , , 13, 13, 13
37.7783069, -120.1185139, 36.200, 10:21:03.188, 18, 0.00, 0.38, 97, -2.600, -0.500, -90.700, 400, 100, 98, 21, 23661, -16996, 5234, 5396, 16, 14, 1526318463.188, 20, 0, 1024, 1024, 1024, 1024, 0, 6, 3919, 3955, 3938, 3937, 3930, 3936, 0, 1, 17701, -90.000, 0.000, -91.700, 0.000, 0.000, -3.000, 0.0, , , , , , 96, , , 13, 13, 13
37.7783068, -120.1185138, 36.800, 10:21:03.288, 18, 0.00, 0.38, 97, -2.400, -0.400, -91.000, 400, 100, 98, 21, 23661, -16996, 5234, 5396, 16, 14, 1526318463.289, 28, 0, 1024, 1024, 1024, 1024, 0, 6, 3919, 3955, 3938, 3937, 3930, 3936, 0, 1, 17802, -90.000, 0.000, -91.700, 0.000, 0.000, -3.000, 0.0, , , , , , 96, , , 13, 13, 13
37.7783068, -120.1185138, 37.100, 10:21:03.388, 18, 0.00, 0.37, 97, -2.400, -0.300, -91.100, 400, 100, 98, 21, 23661, -16996, 5234, 5396, 16, 14, 1526318463.389, 37, 0, 1024, 1024, 1024, 1024, 0, 6, 3919, 3955, 3938, 3937, 3930, 3936, 0, 1, 17902, -89.900, 0.000, -91.700, 0.000, 0.000, -3.000, 0.0, , , , , , 96, , , 13, 13, 13
37.7783068, -120.1185138, 37.400, 10:21:03.487, 18, 0.00, 0.37, 97, -2.400, -0.300, -91.200, 400, 100, 98, 21, 23661, -16996, 5234, 5396, 16, 14, 1526318463.488, 39, 0, 1024, 1024, 1024, 1024, 0, 6, 3919, 3955, 3938, 3937, 3930, 3936, 0, 1, 18001, -90.000, 0.000, -91.700, 0.000, 0.000, -2.900, 0.0, , , , , , 96, , , 13, 13, 13
37.7783067, -120.1185138, 37.600, 10:21:03.587, 18, 0.00, 0.37, 97, -2.200, -0.200, -91.100, 400, 100, 98, 21, 23661, -16996, 5234, 5396, 16, 14, 1526318463.588, 26, 0, 1024, 1024, 1024, 1024, 0, 6, 3919, 3955, 3938, 3937, 3930, 3936, 0, 1, 18101, -89.900, 0.000, -91.700, 0.000, 0.000, -2.900, 0.0, , , , , , 96, , , 13, 13, 13
37.7783067, -120.1185137, 37.900, 10:21:03.694, 18, 0.00, 0.36, 97, -1.800, -0.100, -91.000, 400, 100, 97, 21, 23661, -16996, 5234, 5396, 16, 14, 1526318463.695, 8, 0, 1024, 1024, 1024, 1024, 0, 6, 3919, 3955, 3938, 3937, 3930, 3936, 0, 1, 18208, -89.900, 0.000, -91.700, 0.000, 0.000, -2.900, 0.0, , , , , , 96, , , 13, 13, 13
37.7783066, -120.1185137, 38.200, 10:21:03.788, 18, 0.00, 0.36, 97, -1.900, -0.100, -91.000, 400, 100, 97, 21, 23661, -16996, 5234, 5396, 16, 14, 1526318463.788, 20, 0, 1024, 1024, 1024, 1024, 0, 6, 3919, 3955, 3938, 3937, 3930, 3936, 0, 1, 18301, -89.900, 0.000, -91.700, 0.000, 0.000, -3.000, 0.0, , , , , , 96, , , 13, 13, 13
37.7783066, -120.1185137, 38.500, 10:21:03.888, 18, 0.00, 0.35, 97, -2.100, -0.200, -90.900, 400, 100, 97, 21, 23661, -16996, 5234, 5396, 16, 14, 1526318463.888, 19, 0, 1024, 1024, 1024, 1024, 0, 6, 3919, 3955, 3938, 3937, 3930, 3936, 0, 1, 18401, -90.000, 0.000, -91.700, 0.000, 0.000, -3.000, 0.0, , , , , , 96, , , 13, 13, 13
37.7783066, -120.1185136, 38.800, 10:21:03.988, 18, 0.00, 0.35, 97, -2.300, -0.500, -91.000, 400, 100, 97, 21, 23661, -16996, 5234, 5396, 16, 14, 1526318463.988, 24, 0, 1024, 1024, 1024, 1024, 0, 6, 3919, 3955, 3938, 3937, 3930, 3936, 0, 1, 18501, -90.000, 0.000, -91.700, 0.000, 0.000, -3.000, 0.0, , , , , , 96, , , 13, 13, 13
37.7783066, -120.1185136, 39.200, 10:21:04.099, 18, 0.00, 0.35, 97, -2.500, -0.800, -91.100, 400, 100, 97, 21, 23427, -19140, 5234, 5396, 16, 14, 1526318464.099, 9, 0, 1024, 1024, 1024, 1024, 0, 6, 3919, 3955, 3938, 3937, 3930, 3936, 0, 1, 18612, -90.000, 0.000, -91.700, 0.000, 0.000, -3.000, 0.0, , , , , , 96, , , 13, 13, 13
37.7783066, -120.1185135, 39.500, 10:21:04.190, 18, 0.00, 0.35, 97, -2.600, -1.000, -91.200, 400, 100, 99, 21, 23427, -19140, 5234, 5396, 16, 14, 1526318464.191, 11, 0, 1024, 1024, 1024, 1024, 0, 6, 3876, 3917, 3912, 3904, 3897, 3899, 0, 1, 18704, -90.000, 0.000, -91.700, 0.000, 0.000, -3.000, 0.0, , , , , , 96, , , 13, 13, 13
37.7783065, -120.1185135, 39.800, 10:21:04.294, 18, 0.00, 0.35, 97, -2.600, -1.200, -91.300, 400, 100, 99, 21, 23427, -19140, 5234, 5396, 16, 14, 1526318464.294, 5, 0, 1024, 1024, 1024, 1024, 0, 6, 3876, 3917, 3912, 3904, 3897, 3899, 0, 1, 18807, -90.000, 0.000, -91.700, 0.000, 0.000, -3.000, 0.0, , , , , , 96, , , 13, 13, 13
37.7783065, -120.1185135, 39.800, 10:21:04.387, 18, 0.00, 0.35, 97, -2.600, -1.200, -91.300, 400, 100, 99, 21, 23427, -19140, 5234, 5396, 16, 14, 1526318464.388, 98, 0, 1024, 1024, 1024, 1024, 0, 6, 3876, 3917, 3912, 3904, 3897, 3899, 0, 1, 18901, -90.000, 0.000, -91.700, 0.000, 0.000, -3.000, 0.0, , , , , , 96, , , 13, 13, 13
37.7783065, -120.1185134, 40.100, 10:21:04.487, 18, 0.00, 0.35, 97, -2.400, -1.200, -91.300, 400, 100, 99, 21, 23427, -19140, 5234, 5396, 16, 14, 1526318464.488, 82, 0, 1024, 1024, 1024, 1024, 0, 6, 3876, 3917, 3912, 3904, 3897, 3899, 0, 1, 19001, -90.000, 0.000, -91.700, 0.000, 0.000, -3.000, 0.0, , , , , , 96, , , 13, 13, 13
37.7783065, -120.1185133, 40.400, 10:21:04.588, 18, 0.00, 0.34, 97, -2.200, -1.300, -91.200, 400, 100, 99, 21, 23427, -19140, 5234, 5396, 16, 14, 1526318464.588, 86, 0, 1024, 1024, 1024, 1024, 0, 6, 3876, 3917, 3912, 3904, 3897, 3899, 0, 1, 19101, -90.000, 0.000, -91.700, 0.000, 0.000, -3.000, 0.0, , , , , , 96, , , 13, 13, 13
37.7783064, -120.1185133, 40.700, 10:21:04.690, 18, 0.00, 0.34, 97, -2.300, -1.500, -91.100, 400, 100, 98, 21, 23427, -19140, 5234, 5396, 16, 14, 1526318464.691, 84, 0, 1024, 1024, 1024, 1024, 0, 6, 3876, 3917, 3912, 3904, 3897, 3899, 0, 1, 19204, -90.000, 0.000, -91.700, 0.000, 0.000, -3.000, 0.0, , , , , , 96, , , 13, 13, 13
37.7783064, -120.1185132, 41.000, 10:21:04.790, 18, 0.00, 0.34, 97, -2.200, -1.700, -90.900, 400, 100, 98, 21, 23427, -19140, 5234, 5396, 16, 14, 1526318464.791, 83, 0, 1024, 1024, 1024, 1024, 0, 6, 3876, 3917, 3912, 3904, 3897, 3899, 0, 1, 19304, -90.000, 0.000, -91.700, 0.000, 0.000, -3.100, 0.0, , , , , , 96, , , 13, 13, 13
37.7783064, -120.1185131, 41.300, 10:21:04.890, 18, 0.00, 0.34, 97, -2.100, -2.100, -90.800, 400, 100, 98, 21, 23427, -19140, 5234, 5396, 16, 14, 1526318464.891, 82, 0, 1024, 1024, 1024, 1024, 0, 6, 3876, 3917, 3912, 3904, 3897, 3899, 0, 1, 19403, -90.000, 0.000, -91.700, 0.000, 0.000, -3.000, 0.0, , , , , , 96, , , 13, 13, 13
37.7783064, -120.1185130, 41.600, 10:21:04.989, 18, 0.00, 0.34, 97, -2.000, -2.100, -90.700, 400, 100, 98, 21, 23427, -19140, 5234, 5396, 16, 14, 1526318464.991, 83, 0, 1024, 1024, 1024, 1024, 0, 6, 3876, 3917, 3912, 3904, 3897, 3899, 0, 1, 19504, -89.900, 0.000, -91.700, 0.000, 0.000, -2.900, 0.0, , , , , , 96, , , 13, 13, 13
37.7783064, -120.1185129, 41.900, 10:21:05.088, 18, 0.00, 0.34, 97, -2.200, -2.100, -90.500, 400, 100, 98, 21, 23363, -19140, 5234, 5396, 16, 14, 1526318465.089, 65, 0, 1024, 1024, 1024, 1024, 0, 6, 3876, 3917, 3912, 3904, 3897, 3899, 0, 1, 19602, -89.900, 0.000, -91.700, 0.000, 0.000, -3.000, 0.0, , , , , , 96, , , 13, 13, 13
37.7783063, -120.1185129, 42.200, 10:21:05.188, 18, 0.00, 0.34, 97, -2.500, -2.200, -90.500, 400, 100, 96, 21, 23363, -19140, 5234, 5396, 16, 14, 1526318465.189, 71, 0, 1024, 1024, 1024, 1024, 0, 6, 3862, 3903, 3895, 3898, 3899, 3895, 0, 1, 19701, -90.000, 0.000, -91.700, 0.000, 0.000, -2.900, 0.0, , , , , , 96, , , 13, 13, 13
37.7783063, -120.1185128, 42.500, 10:21:05.290, 18, 0.00, 0.34, 97, -2.400, -2.200, -90.600, 400, 100, 96, 21, 23363, -19140, 5234, 5396, 16, 14, 1526318465.291, 39, 0, 1024, 1024, 1024, 1024, 0, 6, 3862, 3903, 3895, 3898, 3899, 3895, 0, 1, 19803, -89.900, 0.000, -91.700, 0.000, 0.000, -2.900, 0.0, , , , , , 96, , , 13, 13, 13
37.7783063, -120.1185128, 42.800, 10:21:05.388, 18, 0.00, 0.34, 97, -2.200, -2.200, -90.800, 400, 100, 96, 21, 23363, -19140, 5234, 5396, 16, 14, 1526318465.389, 44, 0, 1024, 1024, 1024, 1024, 0, 6, 3862, 3903, 3895, 3898, 3899, 3895, 0, 1, 19901, -89.900, 0.000, -91.700, 0.000, 0.000, -3.000, 0.0, , , , , , 96, , , 13, 13, 13
37.7783062, -120.1185128, 43.400, 10:21:05.487, 18, 0.00, 0.33, 97, -2.000, -1.600, -91.300, 400, 100, 96, 21, 23363, -19140, 5234, 5396, 16, 14, 1526318465.488, 21, 0, 1024, 1024, 1024, 1024, 0, 6, 3862, 3903, 3895, 3898, 3899, 3895, 0, 1, 20001, -89.900, 0.000, -91.700, 0.000, 0.000, -2.900, 0.0, , , , , , 96, , , 13, 13, 13
37.7783062, -120.1185128, 43.400, 10:21:05.590, 18, 0.00, 0.33, 97, -2.000, -1.600, -91.300, 400, 100, 96, 21, 23363, -19140, 5234, 5396, 16, 14, 1526318465.591, 124, 0, 1024, 1024, 1024, 1024, 0, 6, 3862, 3903, 3895, 3898, 3899, 3895, 0, 1, 20104, -89.900, 0.000, -91.700, 0.000, 0.000, -2.900, 0.0, , , , , , 96, , , 13, 13, 13
37.7783061, -120.1185128, 44.000, 10:21:05.690, 18, 0.00, 0.32, 97, -1.300, -0.800, -91.500, 400, 100, 95, 21, 23363, -19140, 5234, 5396, 16, 14, 1526318465.691, 27, 0, 1024, 1024, 1024, 1024, 0, 6, 3862, 3903, 3895, 3898, 3899, 3895, 0, 1, 20204, -89.900, 0.000, -91.700, 0.000, 0.000, -2.900, 0.0, , , , , , 96, , , 13, 13, 13
37.7783061, -120.1185128, 44.000, 10:21:05.788, 18, 0.00, 0.32, 97, -1.300, -0.800, -91.500, 400, 100, 95, 21, 23363, -19140, 5234, 5396, 16, 14, 1526318465.788, 125, 0, 1024, 1024, 1024, 1024, 0, 6, 3862, 3903, 3895, 3898, 3899, 3895, 0, 1, 20301, -89.900, 0.000, -91.700, 0.000, 0.000, -2.900, 0.0, , , , , , 96, , , 13, 13, 13
37.7783061, -120.1185129, 44.300, 10:21:05.889, 18, 0.00, 0.32, 97, -1.200, -0.800, -91.500, 400, 100, 95, 21, 23363, -19140, 5234, 5396, 16, 14, 1526318465.890, 88, 0, 1024, 1024, 1024, 1024, 0, 6, 3862, 3903, 3895, 3898, 3899, 3895, 0, 1, 20403, -89.900, 0.000, -91.700, 0.000, 0.000, -2.900, 0.0, , , , , , 96, , , 13, 13, 13
37.7783061, -120.1185129, 44.900, 10:21:06.008, 18, 0.00, 0.32, 97, -1.700, -1.200, -91.300, 400, 100, 95, 21, 23363, -19140, 5234, 5396, 16, 14, 1526318466.008, 17, 0, 1024, 1024, 1024, 1024, 0, 6, 3862, 3903, 3895, 3898, 3899, 3895, 0, 1, 20521, -90.000, 0.000, -91.700, 0.000, 0.000, -3.000, 0.0, , , , , , 96, , , 13, 13, 13
37.7783061, -120.1185129, 44.900, 10:21:06.088, 18, 0.00, 0.32, 97, -1.700, -1.200, -91.300, 400, 100, 95, 21, 23363, -19140, 5234, 5396, 16, 14, 1526318466.089, 97, 0, 1024, 1024, 1024, 1024, 0, 6, 3862, 3903, 3895, 3898, 3899, 3895, 0, 1, 20602, -90.000, 0.000, -91.700, 0.000, 0.000, -3.000, 0.0, , , , , , 96, , , 13, 13, 13
37.7783061, -120.1185129, 45.200, 10:21:06.187, 18, 0.00, 0.31, 97, -1.900, -1.400, -91.200, 400, 100, 95, 22, 23363, -19140, 5234, 5396, 16, 14, 1526318466.187, 93, 0, 1024, 1024, 1024, 1024, 0, 6, 3862, 3903, 3895, 3898, 3899, 3895, 0, 1, 20700, -90.000, 0.000, -91.700, 0.000, 0.000, -2.900, 0.0, , , , , , 96, , , 13, 13, 13
37.7783060, -120.1185129, 45.500, 10:21:06.288, 18, 0.00, 0.31, 97, -1.900, -1.400, -91.100, 400, 100, 96, 22, 23363, -19140, 5234, 5396, 16, 14, 1526318466.290, 53, 0, 1024, 1024, 1024, 1024, 0, 6, 3862, 3903, 3895, 3898, 3899, 3895, 0, 1, 20803, -90.000, 0.000, -91.700, 0.000, 0.000, -2.900, 0.0, , , , , , 96, , , 13, 13, 13
