latitude,longitude,altitude(feet),ascent(feet),speed(mph),distance(feet),time(millisecond),datetime(utc),satellites,gpslevel,voltage(v),max_altitude(feet),max_ascent(feet),max_speed(mph),max_distance(feet), xSpeed(mph), ySpeed(mph), zSpeed(mph), compass_heading(degrees), pitch(degrees), roll(degrees),isPhoto,isVideo,rc_elevator,rc_aileron,rc_throttle,rc_rudder,gimbal_heading(degrees),gimbal_pitch(degrees),battery_percent,voltageCell1,voltageCell2,voltageCell3,voltageCell4,voltageCell5,voltageCell6,current(A),battery_temperature(f),flycStateRaw,flycState,message
37.7783053,-120.1185311,3631.5546670628,0,0.223694,0,2900,2018-05-14 17:01:41,17,0,0,3631.5546670628,0,0.223694,0,0,0,0,264.3, 0, -0.6,1,0,1024,1024,1024,1024,264.7,-89.9,98,4.26,4.295,4.242,4.28,4.304,4.25,0,86,11,AutoTakeoff,DJI_0001.jpg Starting Mission from Lat/Long: 37.77832/-120.11854 Camera: Zenmuse X3 - Overlap: 90/90 - Active Connection: No
37.7783051,-120.1185311,3631.5546670628,0,0.223694,0.072969818608,3000,2018-05-14 17:01:41,17,0,25.593,3631.5546670628,0,0.223694,0.072969818608,0,0,0,264.4, -0.2, 0.1,0,0,1024,1024,1024,1024,264.6,-89.9,98,4.26,4.295,4.242,4.28,4.304,4.25,3.986,86,11,AutoTakeoff,
37.7783049,-120.1185311,3631.8827510628,0.328084,0.447388,0.145939637216,3100,2018-05-14 17:01:41,17,0,25.593,3631.8827510628,0.328084,0.447388,0.145939637216,0,0,0,264.4, -0.2, 0.8,0,0,1024,1024,1024,1024,264.7,-89.9,98,4.26,4.295,4.242,4.28,4.304,4.25,3.986,86,11,AutoTakeoff,
37.7783047,-120.1185311,3631.8827510628,0.328084,0.447388,0.218909783908,3200,2018-05-14 17:01:41,17,0,25.593,3631.8827510628,0.328084,0.447388,0.218909783908,0,0,0,264.4, 0, 1.5,0,0,1024,1024,1024,1024,264.7,-89.9,98,4.26,4.295,4.242,4.28,4.304,4.25,3.986,86,11,AutoTakeoff,
37.7783044,-120.1185311,3632.2108350628,0.656168,0.447388,0.3283628714,3300,2018-05-14 17:01:41,17,0,25.593,3632.2108350628,0.656168,0.447388,0.3283628714,0,0,0,264.2, 0.4, 2.1,0,0,1024,1024,1024,1024,264.7,-89.9,98,4.26,4.295,4.242,4.28,4.304,4.25,3.986,86,11,AutoTakeoff,
37.7783042,-120.118531,3632.2108350628,0.656168,0.447388,0.40236877928,3400,2018-05-14 17:01:41,17,0,25.593,3632.2108350628,0.656168,0.447388,0.40236877928,0,0,0,264.1, 0.4, 2.7,0,0,1024,1024,1024,1024,264.7,-89.9,98,4.26,4.295,4.242,4.28,4.304,4.25,3.986,86,11,AutoTakeoff,
37.778304,-120.118531,3632.5389190628,0.984252,0.223694,0.4751804614,3600,2018-05-14 17:01:41,17,0,25.593,3632.5389190628,0.984252,0.447388,0.4751804614,0,0,0,264, 0.1, 2.5,0,0,1024,1024,1024,1024,264.7,-89.9,98,4.26,4.295,4.242,4.28,4.304,4.25,3.986,86,11,AutoTakeoff,
37.7783036,-120.1185308,3632.8670030628,1.312336,0.223694,0.6262467392,3700,2018-05-14 17:01:41,17,0,25.593,3632.8670030628,1.312336,0.447388,0.6262467392,0,0,0,263.8, 0, 1.8,0,0,1024,1024,1024,1024,264.7,-89.9,98,4.26,4.295,4.242,4.28,4.304,4.25,3.986,86,11,AutoTakeoff,
37.7783035,-120.1185308,3633.1950870628,1.64042,0.223694,0.662401596,3800,2018-05-14 17:01:42,17,0,25.593,3633.1950870628,1.64042,0.447388,0.662401596,0,0,0,263.8, -0.1, 1.5,0,0,1024,1024,1024,1024,264.7,-90,98,4.26,4.295,4.242,4.28,4.304,4.25,3.986,86,11,AutoTakeoff,
37.7783034,-120.1185307,3633.1950870628,1.64042,0.223694,0.70274608548,3900,2018-05-14 17:01:42,17,0,25.593,3633.1950870628,1.64042,0.447388,0.70274608548,0,0,0,263.9, -0.2, 1.4,0,0,1024,1024,1024,1024,264.7,-90,98,4.26,4.295,4.242,4.28,4.304,4.25,3.986,86,11,AutoTakeoff,
37.7783032,-120.1185306,3633.5231710628,1.968504,0.223694,0.77963257088,4000,2018-05-14 17:01:42,17,0,25.512,3633.5231710628,1.968504,0.447388,0.77963257088,0,0,0,264, -0.4, 1.5,0,0,1024,1024,1024,1024,264.7,-90,98,4.244,4.251,4.221,4.231,4.231,4.219,4.417,86,11,AutoTakeoff,
37.7783031,-120.1185305,3633.5231710628,1.968504,0.223694,0.82110566932,4100,2018-05-14 17:01:42,17,0,25.512,3633.5231710628,1.968504,0.447388,0.82110566932,0,0,-0.223694,264.2, -0.6, 1.8,0,0,1024,1024,1024,1024,264.7,-90,98,4.244,4.251,4.221,4.231,4.231,4.219,4.417,86,11,AutoTakeoff,
37.7783029,-120.1185305,3633.8512550628,2.296588,0.223694,0.8925689262,4200,2018-05-14 17:01:42,17,0,25.512,3633.8512550628,2.296588,0.447388,0.8925689262,0,0,0,264.3, -0.6, 2.1,0,0,1024,1024,1024,1024,264.7,-89.9,98,4.244,4.251,4.221,4.231,4.231,4.219,4.417,86,11,AutoTakeoff,
37.7783028,-120.1185304,3633.8512550628,2.296588,0.223694,0.93419294328,4300,2018-05-14 17:01:42,17,0,25.512,3633.8512550628,2.296588,0.447388,0.93419294328,0,0,0,264.4, -0.6, 2.2,0,0,1024,1024,1024,1024,264.7,-90,98,4.244,4.251,4.221,4.231,4.231,4.219,4.417,86,11,AutoTakeoff,
37.7783026,-120.1185303,3634.1793390628,2.624672,0,1.0117454392,4500,2018-05-14 17:01:42,17,0,25.512,3634.1793390628,2.624672,0.447388,1.0117454392,0,0,0,264.5, -0.6, 2.3,0,0,1024,1024,1024,1024,264.7,-89.9,98,4.244,4.251,4.221,4.231,4.231,4.219,4.417,86,11,AutoTakeoff,
37.7783025,-120.1185302,3634.1793390628,2.624672,0,1.05403218596,4700,2018-05-14 17:01:42,17,0,25.512,3634.1793390628,2.624672,0.447388,1.05403218596,0,0,-0.223694,264.4, -0.6, 2.5,0,0,1024,1024,1024,1024,264.7,-90,98,4.244,4.251,4.221,4.231,4.231,4.219,4.417,86,11,AutoTakeoff,
37.7783025,-120.1185301,3634.5074230628,2.952756,0,1.0614993778,4800,2018-05-14 17:01:43,17,0,25.512,3634.5074230628,2.952756,0.447388,1.0614993778,0,0,-0.223694,264.2, -0.7, 2.7,0,0,1024,1024,1024,1024,264.7,-90,98,4.244,4.251,4.221,4.231,4.231,4.219,4.417,86,14,Waypoint,
37.7783025,-120.1185301,3634.8355070628,3.28084,0,1.0614993778,4900,2018-05-14 17:01:43,17,0,25.512,3634.8355070628,3.28084,0.447388,1.0614993778,0,0,0,263.8, -0.6, 1.6,0,0,1024,1024,1024,1024,264.7,-89.9,98,4.244,4.251,4.221,4.231,4.231,4.219,4.417,86,14,Waypoint,
37.7783025,-120.1185301,3634.8355070628,3.28084,0,1.0614993778,5100,2018-05-14 17:01:43,17,0,25.512,3634.8355070628,3.28084,0.447388,1.0614993778,0,0,0,263.8, -0.4, 1,0,0,1024,1024,1024,1024,264.7,-90,98,4.244,4.251,4.221,4.231,4.231,4.219,4.417,86,14,Waypoint,
37.7783024,-120.1185301,3634.8355070628,3.28084,0,1.09665685924,5200,2018-05-14 17:01:43,17,0,25.512,3634.8355070628,3.28084,0.447388,1.09665685924,0,0,0,263.9, -0.4, 0.9,0,0,1024,1024,1024,1024,264.7,-89.9,98,4.244,4.251,4.221,4.231,4.231,4.219,4.417,86,14,Waypoint,
37.7783023,-120.11853,3635.1635910628,3.608924,0,1.13958665064,5300,2018-05-14 17:01:43,17,0,25.512,3635.1635910628,3.608924,0.447388,1.13958665064,0,0,0,264, -0.4, 1,0,0,1024,1024,1024,1024,264.7,-89.9,98,4.244,4.251,4.221,4.231,4.231,4.219,4.417,86,14,Waypoint,
37.7783022,-120.11853,3635.1635910628,3.608924,0,1.1746719536,5400,2018-05-14 17:01:43,17,0,25.512,3635.1635910628,3.608924,0.447388,1.1746719536,0,0,-0.223694,264.1, -0.5, 1.4,0,0,1024,1024,1024,1024,264.7,-89.9,98,4.244,4.251,4.221,4.231,4.231,4.219,4.417,86,14,Waypoint,
37.7783022,-120.11853,3635.4916750628,3.937008,0,1.1746719536,5500,2018-05-14 17:01:43,17,0,25.512,3635.4916750628,3.937008,0.447388,1.1746719536,0,0,-0.223694,264.1, -0.4, 1.6,0,0,1024,1024,1024,1024,264.7,-89.9,98,4.244,4.251,4.221,4.231,4.231,4.219,4.417,86,14,Waypoint,
37.7783022,-120.1185299,3635.8197590628,4.265092,0,1.18278547092,5600,2018-05-14 17:01:43,17,0,25.512,3635.8197590628,4.265092,0.447388,1.18278547092,0,0,-0.223694,264, -0.4, 1.6,0,0,1024,1024,1024,1024,264.7,-89.9,98,4.244,4.251,4.221,4.231,4.231,4.219,4.417,86,14,Waypoint,
37.7783022,-120.1185299,3636.1478430628,4.593176,0,1.18278547092,5700,2018-05-14 17:01:43,17,0,25.512,3636.1478430628,4.593176,0.447388,1.18278547092,0,0,-0.223694,263.8, -0.4, 1.4,0,0,1024,1024,1024,1024,264.7,-89.9,98,4.244,4.251,4.221,4.231,4.231,4.219,4.417,86,14,Waypoint,
37.7783022,-120.1185299,3636.4759270628,4.92126,0,1.18278547092,5800,2018-05-14 17:01:44,17,0,25.512,3636.4759270628,4.92126,0.447388,1.18278547092,0,0,-0.223694,263.6, -0.3, 1.1,0,0,1024,1024,1024,1024,264.6,-90,98,4.244,4.251,4.221,4.231,4.231,4.219,4.417,86,14,Waypoint,
37.7783022,-120.1185299,3637.1320950628,5.577428,0,1.18278547092,5900,2018-05-14 17:01:44,17,0,25.512,3637.1320950628,5.577428,0.447388,1.18278547092,0,0,-0.447388,263.5, -0.4, 0.7,0,0,1024,1024,1024,1024,264.7,-89.9,98,4.244,4.251,4.221,4.231,4.231,4.219,4.417,86,14,Waypoint,
37.7783023,-120.11853,3637.4601790628,5.905512,0,1.13958665064,6000,2018-05-14 17:01:44,17,0,24.571,3637.4601790628,5.905512,0.447388,1.18278547092,0,0,-0.447388,263.5, -0.4, 0.6,0,0,1024,1024,1024,1024,264.7,-89.9,98,4.071,4.092,4.087,4.115,4.12,4.084,16.115,86,14,Waypoint,
37.7783024,-120.1185301,3639.1005990628,7.545932,0,1.09665685924,6100,2018-05-14 17:01:44,17,0,24.571,3639.1005990628,7.545932,0.447388,1.18278547092,0,0,-0.447388,263.5, -0.4, 0.1,0,0,1024,1024,1024,1024,264.7,-90,98,4.071,4.092,4.087,4.115,4.12,4.084,16.115,86,14,Waypoint,
37.7783025,-120.1185301,3639.7567670628,8.2021,0,1.0614993778,6200,2018-05-14 17:01:44,17,0,24.571,3639.7567670628,8.2021,0.447388,1.18278547092,0,0,-0.671082,263.6, -0.4, 0,0,0,1024,1024,1024,1024,264.6,-89.9,98,4.071,4.092,4.087,4.115,4.12,4.084,16.115,86,14,Waypoint,
37.7783025,-120.11853,3640.7410190628,9.186352,0,1.06969491612,6320,2018-05-14 17:01:44,17,0,24.571,3640.7410190628,9.186352,0.447388,1.18278547092,0,0,-0.671082,263.7, -0.5, 0,0,0,1024,1024,1024,1024,264.7,-90,98,4.071,4.092,4.087,4.115,4.12,4.084,16.115,86,14,Waypoint,
37.7783025,-120.11853,3640.7410190628,9.186352,0,1.06969491612,6400,2018-05-14 17:01:44,17,0,24.571,3640.7410190628,9.186352,0.447388,1.18278547092,0,0,-0.671082,263.7, -0.5, 0,0,0,1024,1024,1024,1024,264.7,-90,98,4.071,4.092,4.087,4.115,4.12,4.084,16.115,86,14,Waypoint,
37.7783026,-120.11853,3641.7252710628,10.170604,0,1.03490488876,6500,2018-05-14 17:01:44,17,0,24.571,3641.7252710628,10.170604,0.447388,1.18278547092,0,0,-0.671082,263.8, -0.5, 0,0,0,1024,1024,1024,1024,264.7,-89.9,98,4.071,4.092,4.087,4.115,4.12,4.084,16.115,86,14,Waypoint,
37.7783026,-120.11853,3642.7095230628,11.154856,0,1.03490488876,6600,2018-05-14 17:01:44,17,0,24.571,3642.7095230628,11.154856,0.447388,1.18278547092,0,0,-0.671082,263.8, -0.6, 0,0,0,1024,1024,1024,1024,264.7,-89.9,98,4.071,4.092,4.087,4.115,4.12,4.084,16.115,86,14,Waypoint,
37.7783026,-120.11853,3644.6780270628,13.12336,0,1.03490488876,6700,2018-05-14 17:01:44,17,0,24.571,3644.6780270628,13.12336,0.447388,1.18278547092,0,0,-0.671082,263.7, -0.5, 0,0,0,1024,1024,1024,1024,264.7,-89.9,98,4.071,4.092,4.087,4.115,4.12,4.084,16.115,86,14,Waypoint,
37.7783026,-120.11853,3645.9903630628,14.435696,0,1.03490488876,6820,2018-05-14 17:01:45,17,0,24.571,3645.9903630628,14.435696,0.447388,1.18278547092,0,0,-0.671082,263.6, -0.3, 0.1,0,0,1024,1024,1024,1024,264.7,-89.9,98,4.071,4.092,4.087,4.115,4.12,4.084,16.115,86,14,Waypoint,
37.7783026,-120.11853,3646.9746150628,15.419948,0,1.03490488876,6900,2018-05-14 17:01:45,17,0,24.571,3646.9746150628,15.419948,0.447388,1.18278547092,0,0,-0.671082,263.6, -0.2, 0.3,0,0,1024,1024,1024,1024,264.7,-89.9,98,4.071,4.092,4.087,4.115,4.12,4.084,16.115,86,14,Waypoint,
37.7783026,-120.1185301,3647.9588670628,16.4042,0,1.02643375988,7000,2018-05-14 17:01:45,17,0,24.562,3647.9588670628,16.4042,0.447388,1.18278547092,0,0,-0.671082,263.7, -0.2, 0.3,0,0,1024,1024,1024,1024,264.6,-89.9,98,4.036,4.07,4.038,4.092,4.129,4.049,15.899,86,14,Waypoint,
37.7783027,-120.1185301,3649.2712030628,17.716536,0,0.99147312884,7200,2018-05-14 17:01:45,17,0,24.562,3649.2712030628,17.716536,0.447388,1.18278547092,0,0,-0.671082,263.8, -0.3, 0.1,0,0,1024,1024,1024,1024,264.7,-89.9,98,4.036,4.07,4.038,4.092,4.129,4.049,15.899,86,14,Waypoint,
37.7783027,-120.11853,3650.2554550628,18.700788,0,1.00023953332,7300,2018-05-14 17:01:45,17,0,24.562,3650.2554550628,18.700788,0.447388,1.18278547092,0,0,-0.671082,263.9, -0.2, 0,0,0,1024,1024,1024,1024,264.6,-89.9,98,4.036,4.07,4.038,4.092,4.129,4.049,15.899,86,14,Waypoint,
37.7783027,-120.1185299,3651.2397070628,19.68504,0,1.00975725016,7400,2018-05-14 17:01:45,17,0,24.562,3651.2397070628,19.68504,0.447388,1.18278547092,0,0,-0.671082,263.9, -0.1, 0,0,0,1024,1024,1024,1024,264.6,-89.9,98,4.036,4.07,4.038,4.092,4.129,4.049,15.899,86,14,Waypoint,
37.7783027,-120.1185298,3652.5520430628,20.997376,0,1.0199967518,7500,2018-05-14 17:01:45,17,0,24.562,3652.5520430628,20.997376,0.447388,1.18278547092,0,0,-0.671082,263.9, -0.5, 0,0,0,1024,1024,1024,1024,264.7,-90,98,4.036,4.07,4.038,4.092,4.129,4.049,15.899,86,14,Waypoint,
37.7783027,-120.1185296,3653.5362950628,21.981628,0,1.04257549268,7600,2018-05-14 17:01:45,17,0,24.562,3653.5362950628,21.981628,0.447388,1.18278547092,0,0,-0.671082,263.9, -1.1, -0.1,0,0,1024,1024,1024,1024,264.6,-90,98,4.036,4.07,4.038,4.092,4.129,4.049,15.899,86,14,Waypoint,
37.7783028,-120.1185295,3654.5205470628,22.96588,0.223694,1.02218179124,7700,2018-05-14 17:01:45,17,0,24.562,3654.5205470628,22.96588,0.447388,1.18278547092,0,0,-0.671082,263.8, -1.6, -0.1,0,0,1024,1024,1024,1024,264.6,-90,98,4.036,4.07,4.038,4.092,4.129,4.049,15.899,86,14,Waypoint,
37.7783028,-120.1185293,3655.8328830628,24.278216,0.223694,1.04947838004,7800,2018-05-14 17:01:46,17,0,24.562,3655.8328830628,24.278216,0.447388,1.18278547092,0,0,-0.671082,263.9, -2.3, -0.3,0,0,1024,1024,1024,1024,264.7,-90,98,4.036,4.07,4.038,4.092,4.129,4.049,15.899,86,14,Waypoint,
37.7783028,-120.118529,3656.8171350628,25.262468,0.223694,1.09485239724,7900,2018-05-14 17:01:46,17,0,24.562,3656.8171350628,25.262468,0.447388,1.18278547092,0,0,-0.671082,263.9, -3.3, -0.2,0,0,1024,1024,1024,1024,264.7,-89.9,98,4.036,4.07,4.038,4.092,4.129,4.049,15.899,86,14,Waypoint,
37.7783028,-120.1185288,3658.1294710628,26.574804,0.223694,1.12777562664,8000,2018-05-14 17:01:46,17,0,24.065,3658.1294710628,26.574804,0.447388,1.18278547092,0,0,-0.671082,264, -3.5, -0.1,0,0,1024,1024,1024,1024,264.6,-89.9,98,4.036,4.07,4.038,4.092,4.129,4.049,22.233,86,14,Waypoint,
37.7783028,-120.1185285,3660.0979750628,28.543308,0,1.18072838424,8200,2018-05-14 17:01:46,17,0,24.065,3660.0979750628,28.543308,0.447388,1.18278547092,0,0,-0.671082,264.2, -2.8, 0,0,0,1024,1024,1024,1024,264.7,-89.9,98,4.036,4.07,4.038,4.092,4.129,4.049,22.233,86,14,Waypoint,
37.7783029,-120.1185283,3662.3945630628,30.839896,0,1.19109583864,8300,2018-05-14 17:01:46,17,0,24.065,3662.3945630628,30.839896,0.447388,1.19109583864,0,0,-0.671082,264, -2.7, 0.1,0,0,1024,1024,1024,1024,264.6,-89.9,98,4.036,4.07,4.038,4.092,4.129,4.049,22.233,86,14,Waypoint,
37.7783029,-120.1185282,3663.3788150628,31.824148,0,1.21083009124,8500,2018-05-14 17:01:46,17,0,24.065,3663.3788150628,31.824148,0.447388,1.21083009124,0,0,-0.671082,263.8, -2.7, 0.1,0,0,1024,1024,1024,1024,264.6,-89.9,98,4.036,4.07,4.038,4.092,4.129,4.049,22.233,86,14,Waypoint,
37.7783029,-120.1185281,3666.3315710628,34.776904,0,1.2309219554,8800,2018-05-14 17:01:47,17,0,24.065,3666.3315710628,34.776904,0.447388,1.2309219554,0,0,-0.671082,263.5, -2.2, -0.5,0,0,1024,1024,1024,1024,264.6,-89.9,98,4.036,4.07,4.038,4.092,4.129,4.049,22.233,86,14,Waypoint,
37.7783029,-120.1185281,3667.3158230628,35.761156,0,1.2309219554,9000,2018-05-14 17:01:47,17,0,24.286,3667.3158230628,35.761156,0.447388,1.2309219554,0,0,-0.671082,263.6, -2.2, -0.2,0,0,1024,1024,1024,1024,264.6,-89.9,98,3.982,3.999,3.996,4.029,4.033,4.008,17.315,86,14,Waypoint,
37.778303,-120.1185281,3668.3000750628,36.745408,0,1.20523953988,9100,2018-05-14 17:01:47,17,0,24.286,3668.3000750628,36.745408,0.447388,1.2309219554,0,0,-0.671082,263.6, -2.2, -0.2,0,0,1024,1024,1024,1024,264.7,-89.9,98,3.982,3.999,3.996,4.029,4.033,4.008,17.315,86,14,Waypoint,
37.778303,-120.1185281,3669.2843270628,37.72966,0,1.20523953988,9200,2018-05-14 17:01:47,17,0,24.286,3669.2843270628,37.72966,0.447388,1.2309219554,0,0,-0.671082,263.6, -1.9, -0.4,0,0,1024,1024,1024,1024,264.6,-89.9,98,3.982,3.999,3.996,4.029,4.033,4.008,17.315,86,14,Waypoint,
37.7783031,-120.1185282,3670.5966630628,39.041996,0,1.1591535804,9300,2018-05-14 17:01:47,17,0,24.286,3670.5966630628,39.041996,0.447388,1.2309219554,0,0,-0.671082,263.5, -1.6, -0.8,0,0,1024,1024,1024,1024,264.6,-89.9,98,3.982,3.999,3.996,4.029,4.033,4.008,17.315,86,14,Waypoint,
37.7783031,-120.1185282,3671.5809150628,40.026248,0,1.1591535804,9500,2018-05-14 17:01:47,17,0,24.286,3671.5809150628,40.026248,0.447388,1.2309219554,0,0,-0.671082,263.4, -1.5, -1,0,0,1024,1024,1024,1024,264.7,-89.9,98,3.982,3.999,3.996,4.029,4.033,4.008,17.315,86,14,Waypoint,
37.7783032,-120.1185283,3672.5651670628,41.0105,0,1.11310371016,9700,2018-05-14 17:01:47,17,0,24.286,3672.5651670628,41.0105,0.447388,1.2309219554,0,0,-0.671082,263.4, -1.2, -0.9,0,0,1024,1024,1024,1024,264.7,-89.9,98,3.982,3.999,3.996,4.029,4.033,4.008,17.315,86,14,Waypoint,
37.7783032,-120.1185283,3673.5494190628,41.994752,0,1.11310371016,9800,2018-05-14 17:01:48,17,0,24.286,3673.5494190628,41.994752,0.447388,1.2309219554,0,0,-0.671082,263.6, -1.2, -0.9,0,0,1024,1024,1024,1024,264.6,-89.9,98,3.982,3.999,3.996,4.029,4.033,4.008,17.315,86,14,Waypoint,
37.7783033,-120.1185284,3674.5336710628,42.979004,0,1.06709321,9900,2018-05-14 17:01:48,17,0,24.286,3674.5336710628,42.979004,0.447388,1.2309219554,0,0,-0.671082,263.8, -1.3, -1.6,0,0,1024,1024,1024,1024,264.6,-89.9,98,3.982,3.999,3.996,4.029,4.033,4.008,17.315,86,14,Waypoint,
37.7783035,-120.1185285,3675.5179230628,43.963256,0,0.99671591116,10000,2018-05-14 17:01:48,17,0,24.286,3675.5179230628,43.963256,0.447388,1.2309219554,0,0,-0.671082,263.9, -1.6, -2.1,0,0,1024,1024,1024,1024,264.7,-89.9,98,4.035,4.046,4.05,4.07,4.075,4.043,17.315,86,14,Waypoint,
37.7783037,-120.1185286,3677.4864270628,45.93176,0,0.9276411058,10200,2018-05-14 17:01:48,17,0,24.286,3677.4864270628,45.93176,0.447388,1.2309219554,0,0,-0.671082,264, -1.2, -2.7,0,0,1024,1024,1024,1024,264.7,-89.9,98,4.035,4.046,4.05,4.07,4.075,4.043,17.315,86,14,Waypoint,
37.7783037,-120.1185286,3678.4706790628,46.916012,0,0.9276411058,10300,2018-05-14 17:01:48,17,0,24.286,3678.4706790628,46.916012,0.447388,1.2309219554,0,0,-0.671082,264, -1, -2.6,0,0,1024,1024,1024,1024,264.6,-89.9,98,4.035,4.046,4.05,4.07,4.075,4.043,17.315,86,14,Waypoint,
37.7783038,-120.1185288,3680.4391830628,48.884516,0,0.85989504064,10500,2018-05-14 17:01:48,17,0,24.286,3680.4391830628,48.884516,0.447388,1.2309219554,0,0,-0.671082,263.9, -0.8, -2.1,0,0,1024,1024,1024,1024,264.6,-89.9,98,4.035,4.046,4.05,4.07,4.075,4.043,17.315,86,14,Waypoint,
37.7783038,-120.1185292,3684.0481070628,52.49344,0,0.7744094736,10600,2018-05-14 17:01:48,17,0,24.286,3684.0481070628,52.49344,0.447388,1.2309219554,0,0,-0.671082,263.8, -0.9, -1.8,0,0,1024,1024,1024,1024,264.7,-89.9,98,4.035,4.046,4.05,4.07,4.075,4.043,17.315,86,14,Waypoint,
37.7783038,-120.1185294,3685.6885270628,54.13386,0,0.73473755632,10700,2018-05-14 17:01:48,17,0,24.286,3685.6885270628,54.13386,0.447388,1.2309219554,0,0,-0.671082,263.7, -0.7, -1.2,0,0,1024,1024,1024,1024,264.6,-89.9,98,4.035,4.046,4.05,4.07,4.075,4.043,17.315,86,14,Waypoint,
37.7783038,-120.1185295,3686.6727790628,55.118112,0,0.71581695204,10800,2018-05-14 17:01:49,17,0,24.286,3686.6727790628,55.118112,0.447388,1.2309219554,0,0,-0.671082,263.7, -0.4, -1.3,0,0,1024,1024,1024,1024,264.7,-89.9,98,4.035,4.046,4.05,4.07,4.075,4.043,17.315,86,14,Waypoint,
37.7783038,-120.1185296,3687.6570310628,56.102364,0,0.69757876248,10900,2018-05-14 17:01:49,17,0,24.286,3687.6570310628,56.102364,0.447388,1.2309219554,0,0,-0.671082,263.6, -0.1, -1.4,0,0,1024,1024,1024,1024,264.6,-89.9,98,4.035,4.046,4.05,4.07,4.075,4.043,17.315,86,14,Waypoint,
37.7783038,-120.1185299,3689.6255350628,58.070868,0,0.64750002072,11100,2018-05-14 17:01:49,17,0,24.286,3689.6255350628,58.070868,0.447388,1.2309219554,0,0,-0.671082,263.5, 0, -1.8,0,0,1024,1024,1024,1024,264.6,-89.9,98,4.035,4.046,4.05,4.07,4.075,4.043,17.315,86,14,Waypoint,
37.7783039,-120.11853,3690.6097870628,59.05512,0,0.60127298512,11200,2018-05-14 17:01:49,17,0,24.286,3690.6097870628,59.05512,0.447388,1.2309219554,0,0,-0.671082,263.5, 0, -2,0,0,1024,1024,1024,1024,264.6,-89.9,98,4.035,4.046,4.05,4.07,4.075,4.043,17.315,86,14,Waypoint,
37.778304,-120.11853,3691.5940390628,60.039372,0,0.57060041196,11310,2018-05-14 17:01:49,17,0,24.286,3691.5940390628,60.039372,0.447388,1.2309219554,0,0,-0.671082,263.5, 0, -2.2,0,0,1024,1024,1024,1024,264.6,-89.9,98,4.035,4.046,4.05,4.07,4.075,4.043,17.315,86,14,Waypoint,
37.778304,-120.1185301,3692.5782910628,61.023624,0,0.55508860044,11400,2018-05-14 17:01:49,17,0,24.286,3692.5782910628,61.023624,0.447388,1.2309219554,0,0,-0.671082,263.6, -0.3, -2.2,0,0,1024,1024,1024,1024,264.7,-89.9,98,4.035,4.046,4.05,4.07,4.075,4.043,17.315,86,14,Waypoint,
37.778304,-120.1185301,3693.5625430628,62.007876,0,0.55508860044,11500,2018-05-14 17:01:49,17,0,24.286,3693.5625430628,62.007876,0.447388,1.2309219554,0,0,-0.671082,263.7, -0.5, -2.4,0,0,1024,1024,1024,1024,264.7,-89.9,98,4.035,4.046,4.05,4.07,4.075,4.043,17.315,86,14,Waypoint,
37.778304,-120.1185301,3694.5467950628,62.992128,0,0.55508860044,11610,2018-05-14 17:01:49,17,0,24.286,3694.5467950628,62.992128,0.447388,1.2309219554,0,0,-0.671082,263.7, -0.6, -2.5,0,0,1024,1024,1024,1024,264.6,-89.9,98,4.035,4.046,4.05,4.07,4.075,4.043,17.315,86,14,Waypoint,
37.7783041,-120.1185301,3695.5310470628,63.97638,0,0.52425526612,11700,2018-05-14 17:01:49,17,0,24.286,3695.5310470628,63.97638,0.447388,1.2309219554,0,0,-0.671082,263.7, -0.5, -2.5,0,0,1024,1024,1024,1024,264.6,-89.9,98,4.035,4.046,4.05,4.07,4.075,4.043,17.315,86,14,Waypoint,
37.7783041,-120.1185301,3696.5152990628,64.960632,0,0.52425526612,11900,2018-05-14 17:01:50,17,0,24.286,3696.5152990628,64.960632,0.447388,1.2309219554,0,0,-0.671082,263.7, -0.7, -2.4,0,0,1024,1024,1024,1024,264.6,-89.9,98,4.035,4.046,4.05,4.07,4.075,4.043,17.315,86,14,Waypoint,
37.7783041,-120.11853,3697.4995510628,65.944884,0,0.54065618528,12000,2018-05-14 17:01:50,17,0,24.018,3697.4995510628,65.944884,0.447388,1.2309219554,0,0,-0.671082,263.6, -1.2, -2.2,0,0,1024,1024,1024,1024,264.6,-89.9,97,3.997,4.015,4.007,4.039,4.048,4.009,20.401,86,14,Waypoint,
37.7783041,-120.1185299,3698.4838030628,66.929136,0,0.55806432232,12100,2018-05-14 17:01:50,17,0,24.018,3698.4838030628,66.929136,0.447388,1.2309219554,0,0,-0.671082,263.6, -1.5, -2.1,0,0,1024,1024,1024,1024,264.7,-90,97,3.997,4.015,4.007,4.039,4.048,4.009,20.401,86,14,Waypoint,
37.778304,-120.1185299,3699.4680550628,67.913388,0,0.5871227222,12200,2018-05-14 17:01:50,17,0,24.018,3699.4680550628,67.913388,0.447388,1.2309219554,0,0,-0.671082,263.6, -1.7, -1.9,0,0,1024,1024,1024,1024,264.6,-90,97,3.997,4.015,4.007,4.039,4.048,4.009,20.401,86,14,Waypoint,
37.778304,-120.1185298,3700.4523070628,68.89764,0,0.60456694848,12300,2018-05-14 17:01:50,17,0,24.018,3700.4523070628,68.89764,0.447388,1.2309219554,0,0,-0.671082,263.6, -1.9, -1.7,0,0,1024,1024,1024,1024,264.6,-90,97,3.997,4.015,4.007,4.039,4.048,4.009,20.401,86,14,Waypoint,
37.7783039,-120.1185297,3701.4365590628,69.881892,0,0.65107285548,12500,2018-05-14 17:01:50,17,0,24.018,3701.4365590628,69.881892,0.447388,1.2309219554,0,0,-0.671082,263.6, -1.9, -1.4,0,0,1024,1024,1024,1024,264.6,-89.9,97,3.997,4.015,4.007,4.039,4.048,4.009,20.401,86,14,Waypoint,
37.7783039,-120.1185296,3702.4208110628,70.866144,0,0.66933729176,12600,2018-05-14 17:01:50,17,0,24.018,3702.4208110628,70.866144,0.447388,1.2309219554,0,0,-0.671082,263.7, -1.9, -1.1,0,0,1024,1024,1024,1024,264.6,-89.9,97,3.997,4.015,4.007,4.039,4.048,4.009,20.401,86,14,Waypoint,
37.7783038,-120.1185296,3703.4050630628,71.850396,0,0.69757876248,12700,2018-05-14 17:01:50,17,0,24.018,3703.4050630628,71.850396,0.447388,1.2309219554,0,0,-0.671082,263.7, -1.8, -0.9,0,0,1024,1024,1024,1024,264.7,-89.9,97,3.997,4.015,4.007,4.039,4.048,4.009,20.401,86,14,Waypoint,
37.7783038,-120.1185295,3705.3735670628,73.8189,0,0.71581695204,12800,2018-05-14 17:01:51,17,0,24.018,3705.3735670628,73.8189,0.447388,1.2309219554,0,0,-0.671082,263.7, -1.6, -0.8,0,0,1024,1024,1024,1024,264.6,-89.9,97,3.997,4.015,4.007,4.039,4.048,4.009,20.401,86,14,Waypoint,
37.7783037,-120.1185294,3707.3420710628,75.787404,0,0.76229989316,13000,2018-05-14 17:01:51,17,0,24.018,3707.3420710628,75.787404,0.447388,1.2309219554,0,0,-0.671082,263.8, -1.7, -1.1,0,0,1024,1024,1024,1024,264.6,-90,97,3.976,4.003,3.992,4.025,4.036,3.997,20.401,86,14,Waypoint,
37.7783037,-120.1185294,3708.3263230628,76.771656,0,0.76229989316,13200,2018-05-14 17:01:51,17,0,24.018,3708.3263230628,76.771656,0.447388,1.2309219554,0,0,-0.671082,263.9, -1.8, -1.3,0,0,1024,1024,1024,1024,264.6,-90,97,3.976,4.003,3.992,4.025,4.036,3.997,20.401,86,14,Waypoint,
37.7783036,-120.1185293,3710.2948270628,78.74016,0,0.80878611512,13300,2018-05-14 17:01:51,17,0,24.018,3710.2948270628,78.74016,0.447388,1.2309219554,0,0,-0.671082,263.8, -1.8, -1.1,0,0,1024,1024,1024,1024,264.7,-89.9,97,3.976,4.003,3.992,4.025,4.036,3.997,20.401,86,14,Waypoint,
37.7783036,-120.1185292,3711.2790790628,79.724412,0,0.82758860916,13510,2018-05-14 17:01:51,17,0,24.018,3711.2790790628,79.724412,0.447388,1.2309219554,0,0,-0.671082,263.8, -1.8, -1,0,0,1024,1024,1024,1024,264.7,-90,97,3.976,4.003,3.992,4.025,4.036,3.997,20.401,86,14,Waypoint,
37.7783036,-120.1185292,3712.2633310628,80.708664,0,0.82758860916,13600,2018-05-14 17:01:51,17,0,24.018,3712.2633310628,80.708664,0.447388,1.2309219554,0,0,-0.671082,263.8, -1.8, -0.9,0,0,1024,1024,1024,1024,264.6,-89.9,97,3.976,4.003,3.992,4.025,4.036,3.997,20.401,86,14,Waypoint,
37.7783035,-120.1185291,3713.2475830628,81.692916,0,0.87402889936,13700,2018-05-14 17:01:51,17,0,24.018,3713.2475830628,81.692916,0.447388,1.2309219554,0,0,-0.671082,263.7, -1.7, -0.7,0,0,1024,1024,1024,1024,264.6,-89.9,97,3.976,4.003,3.992,4.025,4.036,3.997,20.401,86,14,Waypoint,
37.7783035,-120.1185291,3714.2318350628,82.677168,0,0.87402889936,13800,2018-05-14 17:01:52,17,0,24.018,3714.2318350628,82.677168,0.447388,1.2309219554,0,0,-0.671082,263.7, -1.7, -0.8,0,0,1024,1024,1024,1024,264.6,-89.9,97,3.976,4.003,3.992,4.025,4.036,3.997,20.401,86,14,Waypoint,
37.7783034,-120.1185291,3715.2160870628,83.66142,0,0.90176512072,13900,2018-05-14 17:01:52,17,0,24.018,3715.2160870628,83.66142,0.447388,1.2309219554,0,0,-0.671082,263.6, -1.8, -0.8,0,0,1024,1024,1024,1024,264.6,-89.9,97,3.976,4.003,3.992,4.025,4.036,3.997,20.401,86,14,Waypoint,
37.7783034,-120.118529,3716.5284230628,84.973756,0,0.92047575124,14100,2018-05-14 17:01:52,17,0,24.018,3716.5284230628,84.973756,0.447388,1.2309219554,0,0,-0.671082,263.6, -1.9, -0.8,0,0,1024,1024,1024,1024,264.7,-89.9,97,3.976,4.003,3.992,4.025,4.036,3.997,20.401,86,14,Waypoint,
37.7783034,-120.118529,3718.1688430628,86.614176,0,0.92047575124,14200,2018-05-14 17:01:52,17,0,24.018,3718.1688430628,86.614176,0.447388,1.2309219554,0,0,-0.671082,263.7, -1.9, -1,0,0,1024,1024,1024,1024,264.6,-89.9,97,3.976,4.003,3.992,4.025,4.036,3.997,20.401,86,14,Waypoint,
37.7783033,-120.118529,3719.1530950628,87.598428,0,0.94825462352,14400,2018-05-14 17:01:52,17,0,24.018,3719.1530950628,87.598428,0.447388,1.2309219554,0,0,-0.671082,263.7, -1.7, -1.1,0,0,1024,1024,1024,1024,264.6,-89.9,97,3.976,4.003,3.992,4.025,4.036,3.997,20.401,86,14,Waypoint,
37.7783033,-120.118529,3720.4654310628,88.910764,0,0.94825462352,14500,2018-05-14 17:01:52,17,0,24.018,3720.4654310628,88.910764,0.447388,1.2309219554,0,0,-0.671082,263.7, -1.6, -1.2,0,0,1024,1024,1024,1024,264.6,-89.9,97,3.976,4.003,3.992,4.025,4.036,3.997,20.401,86,14,Waypoint,
37.7783033,-120.1185291,3721.4496830628,89.895016,0,0.93010501664,14600,2018-05-14 17:01:52,17,0,24.018,3721.4496830628,89.895016,0.447388,1.2309219554,0,0,-0.671082,263.6, -1.4, -1.2,0,0,1024,1024,1024,1024,264.6,-89.9,97,3.976,4.003,3.992,4.025,4.036,3.997,20.401,86,14,Waypoint,
37.7783033,-120.1185291,3722.4339350628,90.879268,0,0.93010501664,14700,2018-05-14 17:01:52,17,0,24.018,3722.4339350628,90.879268,0.447388,1.2309219554,0,0,-0.671082,263.7, -1.4, -1.1,0,0,1024,1024,1024,1024,264.6,-89.9,97,3.976,4.003,3.992,4.025,4.036,3.997,20.401,86,14,Waypoint,
37.7783033,-120.1185291,3723.0901030628,91.535436,0,0.93010501664,14800,2018-05-14 17:01:53,17,0,24.018,3723.0901030628,91.535436,0.447388,1.2309219554,0,0,-0.671082,263.7, -1.4, -1.2,0,0,1024,1024,1024,1024,264.6,-89.9,97,3.976,4.003,3.992,4.025,4.036,3.997,20.401,86,14,Waypoint,
37.7783033,-120.1185291,3724.0743550628,92.519688,0,0.93010501664,14900,2018-05-14 17:01:53,17,0,24.018,3724.0743550628,92.519688,0.447388,1.2309219554,0,0,-0.671082,263.7, -1.5, -1.2,0,0,1024,1024,1024,1024,264.6,-89.9,97,3.976,4.003,3.992,4.025,4.036,3.997,20.401,86,14,Waypoint,
37.7783033,-120.1185291,3725.3866910628,93.832024,0,0.93010501664,15000,2018-05-14 17:01:53,17,0,23.918,3725.3866910628,93.832024,0.447388,1.2309219554,0,0,-0.671082,263.7, -1.6, -1.2,0,0,1024,1024,1024,1024,264.6,-89.9,97,3.961,3.97,3.981,4.015,4.025,3.967,20.657,86,14,Waypoint,
37.7783033,-120.1185291,3726.3709430628,94.816276,0,0.93010501664,15100,2018-05-14 17:01:53,17,0,23.918,3726.3709430628,94.816276,0.447388,1.2309219554,0,0,-0.671082,263.7, -1.4, -1.1,0,0,1024,1024,1024,1024,264.7,-89.9,97,3.961,3.97,3.981,4.015,4.025,3.967,20.657,86,14,Waypoint,
37.7783032,-120.1185291,3728.3394470628,96.78478,0,0.95899609368,15300,2018-05-14 17:01:53,17,0,23.918,3728.3394470628,96.78478,0.447388,1.2309219554,0,0,-0.671082,263.7, -1.2, -1.1,0,0,1024,1024,1024,1024,264.6,-89.9,97,3.961,3.97,3.981,4.015,4.025,3.967,20.657,86,14,Waypoint,
37.7783032,-120.118529,3729.9798670628,98.4252,0,0.97661092364,15400,2018-05-14 17:01:53,17,0,23.918,3729.9798670628,98.4252,0.447388,1.2309219554,0,0,-0.671082,263.8, -1.5, -1.1,0,0,1024,1024,1024,1024,264.6,-90,97,3.961,3.97,3.981,4.015,4.025,3.967,20.657,86,14,Waypoint,
37.7783032,-120.118529,3731.2922030628,99.737536,0,0.97661092364,15500,2018-05-14 17:01:53,17,0,23.918,3731.2922030628,99.737536,0.447388,1.2309219554,0,0,-0.671082,263.8, -1.9, -1,0,0,1024,1024,1024,1024,264.6,-90,97,3.961,3.97,3.981,4.015,4.025,3.967,20.657,86,14,Waypoint,
37.7783032,-120.118529,3732.2764550628,100.721788,0,0.97661092364,15600,2018-05-14 17:01:53,17,0,23.918,3732.2764550628,100.721788,0.447388,1.2309219554,0,0,-0.671082,263.8, -2.1, -1,0,0,1024,1024,1024,1024,264.7,-90,97,3.961,3.97,3.981,4.015,4.025,3.967,20.657,86,14,Waypoint,
37.7783031,-120.1185289,3734.2449590628,102.690292,0,1.0231135498,15700,2018-05-14 17:01:53,17,0,23.918,3734.2449590628,102.690292,0.447388,1.2309219554,0,0,-0.671082,263.7, -2.1, -0.9,0,0,1024,1024,1024,1024,264.6,-89.9,97,3.961,3.97,3.981,4.015,4.025,3.967,20.657,86,14,Waypoint,
37.7783031,-120.1185289,3735.2292110628,103.674544,0,1.0231135498,15800,2018-05-14 17:01:54,17,0,23.918,3735.2292110628,103.674544,0.447388,1.2309219554,0,0,-0.671082,263.7, -1.9, -0.8,0,0,1024,1024,1024,1024,264.6,-89.9,97,3.961,3.97,3.981,4.015,4.025,3.967,20.657,86,14,Waypoint,
37.7783031,-120.1185289,3737.1977150628,105.643048,0,1.0231135498,15900,2018-05-14 17:01:54,17,0,23.918,3737.1977150628,105.643048,0.447388,1.2309219554,0,0,-0.671082,263.6, -1.9, -0.9,0,0,1024,1024,1024,1024,264.6,-89.9,97,3.961,3.97,3.981,4.015,4.025,3.967,20.657,86,14,Waypoint,
37.7783031,-120.118529,3738.1819670628,106.6273,0,1.00548887732,16000,2018-05-14 17:01:54,17,0,23.884,3738.1819670628,106.6273,0.447388,1.2309219554,0,0,-0.671082,263.6, -1.9, -1,0,0,1024,1024,1024,1024,264.6,-89.9,97,3.963,3.974,3.968,3.998,4.013,3.967,20.695,86,14,Waypoint,
37.7783031,-120.118529,3739.1662190628,107.611552,0,1.00548887732,16100,2018-05-14 17:01:54,17,0,23.884,3739.1662190628,107.611552,0.447388,1.2309219554,0,0,-0.671082,263.6, -1.9, -1.1,0,0,1024,1024,1024,1024,264.6,-89.9,97,3.963,3.974,3.968,3.998,4.013,3.967,20.695,86,14,Waypoint,
37.7783031,-120.118529,3741.1347230628,109.580056,0,1.00548887732,16300,2018-05-14 17:01:54,17,0,23.884,3741.1347230628,109.580056,0.447388,1.2309219554,0,0,-0.671082,263.8, -1.6, -1.2,0,0,1024,1024,1024,1024,264.6,-89.9,97,3.963,3.974,3.968,3.998,4.013,3.967,20.695,86,14,Waypoint,
37.7783031,-120.118529,3742.1189750628,110.564308,0,1.00548887732,16500,2018-05-14 17:01:54,17,0,23.884,3742.1189750628,110.564308,0.447388,1.2309219554,0,0,-0.671082,263.8, -1.7, -1.2,0,0,1024,1024,1024,1024,264.6,-89.9,97,3.963,3.974,3.968,3.998,4.013,3.967,20.695,86,14,Waypoint,
37.7783031,-120.118529,3743.1032270628,111.54856,0,1.00548887732,16600,2018-05-14 17:01:54,17,0,23.884,3743.1032270628,111.54856,0.447388,1.2309219554,0,0,-0.671082,263.8, -1.8, -1.2,0,0,1024,1024,1024,1024,264.6,-89.9,97,3.963,3.974,3.968,3.998,4.013,3.967,20.695,86,14,Waypoint,
37.7783031,-120.118529,3744.0874790628,112.532812,0,1.00548887732,16700,2018-05-14 17:01:54,17,0,23.884,3744.0874790628,112.532812,0.447388,1.2309219554,0,0,-0.671082,263.8, -1.8, -1.3,0,0,1024,1024,1024,1024,264.6,-89.9,97,3.963,3.974,3.968,3.998,4.013,3.967,20.695,86,14,Waypoint,
37.7783032,-120.118529,3746.0559830628,114.501316,0,0.97661092364,16900,2018-05-14 17:01:55,17,0,23.884,3746.0559830628,114.501316,0.447388,1.2309219554,0,0,-0.671082,263.8, -1.8, -2,0,0,1024,1024,1024,1024,264.6,-89.9,97,3.963,3.974,3.968,3.998,4.013,3.967,20.695,86,14,Waypoint,
37.7783032,-120.1185291,3747.0402350628,115.485568,0,0.95899609368,17000,2018-05-14 17:01:55,17,0,23.893,3747.0402350628,115.485568,0.447388,1.2309219554,0,0,-0.671082,263.7, -1.5, -2.3,0,0,1024,1024,1024,1024,264.6,-89.9,97,3.955,3.978,3.965,4.009,4.025,3.958,20.479,86,14,Waypoint,
37.7783033,-120.1185291,3748.0244870628,116.46982,0,0.93010501664,17100,2018-05-14 17:01:55,17,0,23.893,3748.0244870628,116.46982,0.447388,1.2309219554,0,0,-0.671082,263.6, -1.3, -2.4,0,0,1024,1024,1024,1024,264.6,-89.9,97,3.955,3.978,3.965,4.009,4.025,3.958,20.479,86,14,Waypoint,
37.7783033,-120.1185291,3749.0087390628,117.454072,0,0.93010501664,17200,2018-05-14 17:01:55,17,0,23.893,3749.0087390628,117.454072,0.447388,1.2309219554,0,0,-0.671082,263.6, -1.3, -2.2,0,0,1024,1024,1024,1024,264.6,-89.9,97,3.955,3.978,3.965,4.009,4.025,3.958,20.479,86,14,Waypoint,
37.7783034,-120.1185291,3749.9929910628,118.438324,0,0.90176512072,17300,2018-05-14 17:01:55,17,0,23.893,3749.9929910628,118.438324,0.447388,1.2309219554,0,0,-0.671082,263.7, -1.6, -2,0,0,1024,1024,1024,1024,264.6,-89.9,97,3.955,3.978,3.965,4.009,4.025,3.958,20.479,86,14,Waypoint,
37.7783034,-120.118529,3750.9772430628,119.422576,0,0.92047575124,17400,2018-05-14 17:01:55,17,0,23.893,3750.9772430628,119.422576,0.447388,1.2309219554,0,0,-0.671082,263.7, -1.8, -1.8,0,0,1024,1024,1024,1024,264.6,-90,97,3.955,3.978,3.965,4.009,4.025,3.958,20.479,86,14,Waypoint,
37.7783034,-120.118529,3751.9614950628,120.406828,0,0.92047575124,17500,2018-05-14 17:01:55,17,0,23.893,3751.9614950628,120.406828,0.447388,1.2309219554,0,0,-0.671082,263.7, -1.9, -1.6,0,0,1024,1024,1024,1024,264.6,-90,97,3.955,3.978,3.965,4.009,4.025,3.958,20.479,86,14,Waypoint,
37.7783034,-120.1185289,3753.9299990628,122.375332,0,0.9396981928,17600,2018-05-14 17:01:55,17,0,23.893,3753.9299990628,122.375332,0.447388,1.2309219554,0,0,-0.671082,263.8, -2.1, -1.6,0,0,1024,1024,1024,1024,264.7,-90,97,3.955,3.978,3.965,4.009,4.025,3.958,20.479,86,14,Waypoint,
37.7783034,-120.1185289,3754.9142510628,123.359584,0,0.9396981928,17800,2018-05-14 17:01:56,17,0,23.893,3754.9142510628,123.359584,0.447388,1.2309219554,0,0,-0.671082,263.9, -2.2, -1.8,0,0,1024,1024,1024,1024,264.6,-90,97,3.955,3.978,3.965,4.009,4.025,3.958,20.479,86,14,Waypoint,
37.7783035,-120.1185288,3756.8827550628,125.328088,0,0.9333825758,17900,2018-05-14 17:01:56,17,0,23.893,3756.8827550628,125.328088,0.447388,1.2309219554,0,0,-0.671082,263.8, -2.2, -1.9,0,0,1024,1024,1024,1024,264.7,-90,97,3.955,3.978,3.965,4.009,4.025,3.958,20.479,86,14,Waypoint,
37.7783035,-120.1185288,3757.8670070628,126.31234,0,0.9333825758,18000,2018-05-14 17:01:56,17,0,23.941,3757.8670070628,126.31234,0.447388,1.2309219554,0,0,-0.671082,263.8, -2.3, -1.8,0,0,1024,1024,1024,1024,264.6,-90,97,3.96,3.979,3.971,4.023,4.019,3.971,19.616,86,14,Waypoint,
37.7783035,-120.1185288,3758.8512590628,127.296592,0,0.9333825758,18100,2018-05-14 17:01:56,17,0,23.941,3758.8512590628,127.296592,0.447388,1.2309219554,0,0,-0.671082,263.8, -2.6, -1.9,0,0,1024,1024,1024,1024,264.6,-90,97,3.96,3.979,3.971,4.023,4.019,3.971,19.616,86,14,Waypoint,
37.7783035,-120.1185288,3759.8355110628,128.280844,0,0.9333825758,18200,2018-05-14 17:01:56,17,0,23.941,3759.8355110628,128.280844,0.447388,1.2309219554,0,0,-0.671082,263.7, -2.5, -2.1,0,0,1024,1024,1024,1024,264.6,-89.9,97,3.96,3.979,3.971,4.023,4.019,3.971,19.616,86,14,Waypoint,
37.7783035,-120.1185288,3760.8197630628,129.265096,0,0.9333825758,18400,2018-05-14 17:01:56,17,0,23.941,3760.8197630628,129.265096,0.447388,1.2309219554,0,0,-0.671082,263.7, -2.4, -2.3,0,0,1024,1024,1024,1024,264.6,-89.9,97,3.96,3.979,3.971,4.023,4.019,3.971,19.616,86,14,Waypoint,
37.7783036,-120.1185287,3762.7882670628,131.2336,0,0.92935370428,18520,2018-05-14 17:01:56,17,0,23.941,3762.7882670628,131.2336,0.447388,1.2309219554,0,0,-0.671082,263.7, -2.6, -2.3,0,0,1024,1024,1024,1024,264.6,-90,97,3.96,3.979,3.971,4.023,4.019,3.971,19.616,86,14,Waypoint,
37.7783036,-120.1185287,3763.7725190628,132.217852,0,0.92935370428,18610,2018-05-14 17:01:56,17,0,23.941,3763.7725190628,132.217852,0.447388,1.2309219554,0,0,-0.671082,263.7, -2.6, -2.1,0,0,1024,1024,1024,1024,264.6,-89.9,97,3.96,3.979,3.971,4.023,4.019,3.971,19.616,86,14,Waypoint,
37.7783036,-120.1185286,3766.0691070628,134.51444,0,0.95102365248,18810,2018-05-14 17:01:57,17,0,23.941,3766.0691070628,134.51444,0.447388,1.2309219554,0,0,-0.671082,263.7, -2.3, -2,0,0,1024,1024,1024,1024,264.6,-90,97,3.96,3.979,3.971,4.023,4.019,3.971,19.616,86,14,Waypoint,
37.7783036,-120.1185286,3767.0533590628,135.498692,0,0.95102365248,19000,2018-05-14 17:01:57,17,0,23.92,3767.0533590628,135.498692,0.447388,1.2309219554,0,0,-0.671082,263.8, -2.5, -2.4,0,0,1024,1024,1024,1024,264.6,-90,97,3.952,3.984,3.97,4.008,4.013,3.972,19.544,86,14,Waypoint,
37.7783037,-120.1185286,3768.0376110628,136.482944,0,0.9276411058,19100,2018-05-14 17:01:57,17,0,23.92,3768.0376110628,136.482944,0.447388,1.2309219554,0,0,-0.671082,263.9, -2.6, -2.6,0,0,1024,1024,1024,1024,264.6,-89.9,97,3.952,3.984,3.97,4.008,4.013,3.972,19.544,86,14,Waypoint,
37.7783037,-120.1185286,3769.0218630628,137.467196,0,0.9276411058,19200,2018-05-14 17:01:57,17,0,23.92,3769.0218630628,137.467196,0.447388,1.2309219554,0,0,-0.671082,263.9, -2.7, -2.2,0,0,1024,1024,1024,1024,264.6,-89.9,97,3.952,3.984,3.97,4.008,4.013,3.972,19.544,86,14,Waypoint,
37.7783037,-120.1185285,3770.0061150628,138.451448,0,0.95022312752,19300,2018-05-14 17:01:57,17,0,23.92,3770.0061150628,138.451448,0.447388,1.2309219554,0,0,-0.671082,263.9, -2.6, -2.3,0,0,1024,1024,1024,1024,264.6,-89.9,97,3.952,3.984,3.97,4.008,4.013,3.972,19.544,86,14,Waypoint,
37.7783037,-120.1185285,3770.6622830628,139.107616,0,0.95022312752,19400,2018-05-14 17:01:57,17,0,23.92,3770.6622830628,139.107616,0.447388,1.2309219554,0,0,-0.671082,263.9, -2.7, -2.2,0,0,1024,1024,1024,1024,264.6,-90,97,3.952,3.984,3.97,4.008,4.013,3.972,19.544,86,14,Waypoint,
37.7783037,-120.1185286,3771.6465350628,140.091868,0,0.9276411058,19500,2018-05-14 17:01:57,17,0,23.92,3771.6465350628,140.091868,0.447388,1.2309219554,0,0,-0.671082,263.8, -2.7, -2.2,0,0,1024,1024,1024,1024,264.6,-89.9,97,3.952,3.984,3.97,4.008,4.013,3.972,19.544,86,14,Waypoint,
37.7783037,-120.1185286,3772.6307870628,141.07612,0,0.9276411058,19600,2018-05-14 17:01:57,17,0,23.92,3772.6307870628,141.07612,0.447388,1.2309219554,0,0,-0.671082,263.7, -2.5, -2,0,0,1024,1024,1024,1024,264.6,-89.9,97,3.952,3.984,3.97,4.008,4.013,3.972,19.544,86,14,Waypoint,
37.7783037,-120.1185286,3773.6150390628,142.060372,0,0.9276411058,19700,2018-05-14 17:01:57,17,0,23.92,3773.6150390628,142.060372,0.447388,1.2309219554,0,0,-0.671082,263.6, -2.3, -1.7,0,0,1024,1024,1024,1024,264.6,-89.9,97,3.952,3.984,3.97,4.008,4.013,3.972,19.544,86,14,Waypoint,
37.7783036,-120.1185287,3774.5992910628,143.044624,0,0.92935370428,19800,2018-05-14 17:01:58,17,0,23.92,3774.5992910628,143.044624,0.447388,1.2309219554,0,0,-0.671082,263.5, -2.2, -1.1,0,0,1024,1024,1024,1024,264.6,-89.9,97,3.952,3.984,3.97,4.008,4.013,3.972,19.544,86,14,Waypoint,
37.7783036,-120.1185287,3775.5835430628,144.028876,0,0.92935370428,19900,2018-05-14 17:01:58,17,0,23.92,3775.5835430628,144.028876,0.447388,1.2309219554,0,0,-0.671082,263.4, -2.1, -0.9,0,0,1024,1024,1024,1024,264.6,-89.9,97,3.952,3.984,3.97,4.008,4.013,3.972,19.544,86,14,Waypoint,
37.7783035,-120.1185288,3776.5677950628,145.013128,0,0.9333825758,20000,2018-05-14 17:01:58,17,0,23.896,3776.5677950628,145.013128,0.447388,1.2309219554,0,0,-0.671082,263.4, -2.1, -1.1,0,0,1024,1024,1024,1024,264.6,-89.9,97,3.951,3.968,3.977,4.02,4.018,3.975,19.309,86,14,Waypoint,
37.7783035,-120.1185289,3777.5520470628,145.99738,0,0.91311682712,20100,2018-05-14 17:01:58,17,0,23.896,3777.5520470628,145.99738,0.447388,1.2309219554,0,0,-0.671082,263.4, -2.1, -1.5,0,0,1024,1024,1024,1024,264.6,-89.9,97,3.951,3.968,3.977,4.02,4.018,3.975,19.309,86,14,Waypoint,
37.7783035,-120.118529,3779.5205510628,147.965884,0,0.89332023856,20200,2018-05-14 17:01:58,17,0,23.896,3779.5205510628,147.965884,0.447388,1.2309219554,0,0,-0.671082,263.6, -1.8, -1.7,0,0,1024,1024,1024,1024,264.6,-89.9,97,3.951,3.968,3.977,4.02,4.018,3.975,19.309,86,14,Waypoint,
37.7783035,-120.1185291,3780.5048030628,148.950136,0,0.87402889936,20300,2018-05-14 17:01:58,17,0,23.896,3780.5048030628,148.950136,0.447388,1.2309219554,0,0,-0.671082,263.6, -1.6, -1.6,0,0,1024,1024,1024,1024,264.6,-89.9,97,3.951,3.968,3.977,4.02,4.018,3.975,19.309,86,14,Waypoint,
37.7783034,-120.1185292,3782.4733070628,150.91864,0,0.88359910964,20500,2018-05-14 17:01:58,17,0,23.896,3782.4733070628,150.91864,0.447388,1.2309219554,0,0,-0.671082,263.8, -1.9, -1.6,0,0,1024,1024,1024,1024,264.6,-89.9,97,3.951,3.968,3.977,4.02,4.018,3.975,19.309,86,14,Waypoint,
37.7783034,-120.1185292,3783.4575590628,151.902892,0,0.88359910964,20600,2018-05-14 17:01:58,17,0,23.896,3783.4575590628,151.902892,0.447388,1.2309219554,0,0,-0.671082,263.9, -1.8, -1.3,0,0,1024,1024,1024,1024,264.6,-89.9,97,3.951,3.968,3.977,4.02,4.018,3.975,19.309,86,14,Waypoint,
37.7783034,-120.1185292,3784.4418110628,152.887144,0,0.88359910964,20700,2018-05-14 17:01:58,17,0,23.896,3784.4418110628,152.887144,0.447388,1.2309219554,0,0,-0.671082,263.9, -1.5, -1.3,0,0,1024,1024,1024,1024,264.6,-89.9,97,3.951,3.968,3.977,4.02,4.018,3.975,19.309,86,14,Waypoint,
37.7783035,-120.1185293,3786.4103150628,154.855648,0,0.83709320264,20910,2018-05-14 17:01:59,17,0,23.896,3786.4103150628,154.855648,0.447388,1.2309219554,0,0,-0.671082,263.8, -1.4, -1.7,0,0,1024,1024,1024,1024,264.6,-89.9,97,3.951,3.968,3.977,4.02,4.018,3.975,19.309,86,14,Waypoint,
37.7783035,-120.1185294,3787.3945670628,155.8399,0,0.81952430444,21000,2018-05-14 17:01:59,17,0,23.833,3787.3945670628,155.8399,0.447388,1.2309219554,0,0,-0.671082,263.8, -1.4, -1.8,0,0,1024,1024,1024,1024,264.6,-89.9,97,3.939,3.951,3.953,3.992,3.995,3.958,20.621,87.8,14,Waypoint,
37.7783035,-120.1185294,3788.3788190628,156.824152,0,0.81952430444,21100,2018-05-14 17:01:59,17,0,23.833,3788.3788190628,156.824152,0.447388,1.2309219554,0,0,-0.671082,263.8, -1.4, -2,0,0,1024,1024,1024,1024,264.6,-89.9,97,3.939,3.951,3.953,3.992,3.995,3.958,20.621,87.8,14,Waypoint,
37.7783035,-120.1185294,3790.3473230628,158.792656,0,0.81952430444,21300,2018-05-14 17:01:59,17,0,23.833,3790.3473230628,158.792656,0.447388,1.2309219554,0,0,-0.671082,263.7, -1.8, -2,0,0,1024,1024,1024,1024,264.6,-89.9,97,3.939,3.951,3.953,3.992,3.995,3.958,20.621,87.8,14,Waypoint,
37.7783035,-120.1185294,3791.3315750628,159.776908,0,0.81952430444,21500,2018-05-14 17:01:59,17,0,23.833,3791.3315750628,159.776908,0.447388,1.2309219554,0,0,-0.671082,263.7, -1.9, -2,0,0,1024,1024,1024,1024,264.6,-89.9,97,3.939,3.951,3.953,3.992,3.995,3.958,20.621,87.8,14,Waypoint,
37.7783035,-120.1185294,3792.3158270628,160.76116,0,0.81952430444,21600,2018-05-14 17:01:59,17,0,23.833,3792.3158270628,160.76116,0.447388,1.2309219554,0,0,-0.671082,263.7, -2, -1.9,0,0,1024,1024,1024,1024,264.6,-89.9,97,3.939,3.951,3.953,3.992,3.995,3.958,20.621,87.8,14,Waypoint,
37.7783034,-120.1185294,3794.2843310628,162.729664,0,0.84904202192,21800,2018-05-14 17:02:00,17,0,23.833,3794.2843310628,162.729664,0.447388,1.2309219554,0,0,-0.671082,263.6, -1.9, -1.4,0,0,1024,1024,1024,1024,264.6,-89.9,97,3.939,3.951,3.953,3.992,3.995,3.958,20.621,87.8,14,Waypoint,
37.7783033,-120.1185294,3795.2685830628,163.713916,0,0.8790846738,21900,2018-05-14 17:02:00,17,0,23.833,3795.2685830628,163.713916,0.447388,1.2309219554,0,0,-0.671082,263.6, -1.7, -1.3,0,0,1024,1024,1024,1024,264.6,-89.9,97,3.939,3.951,3.953,3.992,3.995,3.958,20.621,87.8,14,Waypoint,
37.7783033,-120.1185295,3796.2528350628,164.698168,0,0.86333336096,22000,2018-05-14 17:02:00,17,0,23.778,3796.2528350628,164.698168,0.447388,1.2309219554,0,0,-0.671082,263.5, -1.4, -1.5,0,0,1024,1024,1024,1024,264.6,-89.9,96,3.946,3.961,3.945,3.977,3.99,3.939,20.806,87.8,14,Waypoint,
37.7783033,-120.1185296,3798.2213390628,166.666672,0,0.84827430536,22200,2018-05-14 17:02:00,17,0,23.778,3798.2213390628,166.666672,0.447388,1.2309219554,0,0,-0.671082,263.5, -1.3, -1.7,0,0,1024,1024,1024,1024,264.6,-89.9,96,3.946,3.961,3.945,3.977,3.99,3.939,20.806,87.8,14,Waypoint,
37.7783033,-120.1185296,3799.2055910628,167.650924,0,0.84827430536,22300,2018-05-14 17:02:00,17,0,23.778,3799.2055910628,167.650924,0.447388,1.2309219554,0,0,-0.671082,263.6, -1.4, -1.9,0,0,1024,1024,1024,1024,264.6,-89.9,96,3.946,3.961,3.945,3.977,3.99,3.939,20.806,87.8,14,Waypoint,
37.7783033,-120.1185296,3801.1740950628,169.619428,0,0.84827430536,22400,2018-05-14 17:02:00,17,0,23.778,3801.1740950628,169.619428,0.447388,1.2309219554,0,0,-0.671082,263.7, -1.6, -2,0,0,1024,1024,1024,1024,264.6,-89.9,96,3.946,3.961,3.945,3.977,3.99,3.939,20.806,87.8,14,Waypoint,
37.7783033,-120.1185296,3802.1583470628,170.60368,0,0.84827430536,22500,2018-05-14 17:02:00,17,0,23.778,3802.1583470628,170.60368,0.447388,1.2309219554,0,0,-0.671082,263.7, -1.6, -2,0,0,1024,1024,1024,1024,264.6,-89.9,96,3.946,3.961,3.945,3.977,3.99,3.939,20.806,87.8,14,Waypoint,
37.7783033,-120.1185296,3803.1425990628,171.587932,0,0.84827430536,22600,2018-05-14 17:02:00,17,0,23.778,3803.1425990628,171.587932,0.447388,1.2309219554,0,0,-0.671082,263.7, -1.8, -2.1,0,0,1024,1024,1024,1024,264.6,-90,96,3.946,3.961,3.945,3.977,3.99,3.939,20.806,87.8,14,Waypoint,
37.7783032,-120.1185296,3805.1111030628,173.556436,0,0.8798556712,22800,2018-05-14 17:02:01,17,0,23.778,3805.1111030628,173.556436,0.447388,1.2309219554,0,0,-0.671082,263.8, -1.9, -1.8,0,0,1024,1024,1024,1024,264.6,-90,96,3.946,3.961,3.945,3.977,3.99,3.939,20.806,87.8,14,Waypoint,
37.7783032,-120.1185296,3806.0953550628,174.540688,0,0.8798556712,22900,2018-05-14 17:02:01,17,0,23.778,3806.0953550628,174.540688,0.447388,1.2309219554,0,0,-0.671082,263.7, -1.9, -1.8,0,0,1024,1024,1024,1024,264.6,-89.9,96,3.946,3.961,3.945,3.977,3.99,3.939,20.806,87.8,14,Waypoint,
37.7783032,-120.1185296,3807.0796070628,175.52494,0,0.8798556712,23000,2018-05-14 17:02:01,17,0,23.702,3807.0796070628,175.52494,0.447388,1.2309219554,0,0,-0.671082,263.7, -1.9, -1.7,0,0,1024,1024,1024,1024,264.6,-89.9,96,3.946,3.961,3.945,3.977,3.99,3.939,21.319,87.8,14,Waypoint,
37.7783032,-120.1185296,3808.0638590628,176.509192,0,0.8798556712,23100,2018-05-14 17:02:01,17,0,23.702,3808.0638590628,176.509192,0.447388,1.2309219554,0,0,-0.671082,263.7, -1.8, -1.6,0,0,1024,1024,1024,1024,264.6,-89.9,96,3.946,3.961,3.945,3.977,3.99,3.939,21.319,87.8,14,Waypoint,
37.7783031,-120.1185296,3812.9851190628,181.430452,0,0.91180121028,23700,2018-05-14 17:02:01,17,0,23.702,3812.9851190628,181.430452,0.447388,1.2309219554,0,0,-0.671082,263.6, -1.8, -1.6,0,0,1024,1024,1024,1024,264.6,-89.9,96,3.946,3.961,3.945,3.977,3.99,3.939,21.319,87.8,14,Waypoint,
37.7783031,-120.1185297,3814.2974550628,182.742788,0,0.89848099988,23800,2018-05-14 17:02:02,17,0,23.702,3814.2974550628,182.742788,0.447388,1.2309219554,0,0,-0.671082,263.7, -1.6, -1.6,0,0,1024,1024,1024,1024,264.6,-89.9,96,3.946,3.961,3.945,3.977,3.99,3.939,21.319,87.8,14,Waypoint,
37.7783031,-120.1185297,3814.9536230628,183.398956,0,0.89848099988,23900,2018-05-14 17:02:02,17,0,23.702,3814.9536230628,183.398956,0.447388,1.2309219554,0,0,-0.671082,263.7, -1.5, -1.6,0,0,1024,1024,1024,1024,264.6,-89.9,96,3.946,3.961,3.945,3.977,3.99,3.939,21.319,87.8,14,Waypoint,
37.7783031,-120.1185297,3815.9378750628,184.383208,0,0.89848099988,24000,2018-05-14 17:02:02,17,0,23.702,3815.9378750628,184.383208,0.447388,1.2309219554,0,0,-0.671082,263.8, -1.6, -1.5,0,0,1024,1024,1024,1024,264.6,-89.9,96,3.917,3.942,3.944,3.991,3.98,3.944,21.319,87.8,14,Waypoint,
37.7783031,-120.1185297,3816.9221270628,185.36746,0,0.89848099988,24100,2018-05-14 17:02:02,17,0,23.702,3816.9221270628,185.36746,0.447388,1.2309219554,0,0,-0.671082,263.8, -1.8, -1.6,0,0,1024,1024,1024,1024,264.6,-89.9,96,3.917,3.942,3.944,3.991,3.98,3.944,21.319,87.8,14,Waypoint,
37.7783031,-120.1185297,3817.9063790628,186.351712,0,0.89848099988,24200,2018-05-14 17:02:02,17,0,23.702,3817.9063790628,186.351712,0.447388,1.2309219554,0,0,-0.671082,263.8, -1.8, -1.6,0,0,1024,1024,1024,1024,264.6,-89.9,96,3.917,3.942,3.944,3.991,3.98,3.944,21.319,87.8,14,Waypoint,
37.7783031,-120.1185297,3818.8906310628,187.335964,0,0.89848099988,24300,2018-05-14 17:02:02,17,0,23.702,3818.8906310628,187.335964,0.447388,1.2309219554,0,0,-0.671082,263.8, -1.7, -1.6,0,0,1024,1024,1024,1024,264.6,-89.9,96,3.917,3.942,3.944,3.991,3.98,3.944,21.319,87.8,14,Waypoint,
37.7783032,-120.1185297,3820.8591350628,189.304468,0,0.8660433348,24400,2018-05-14 17:02:02,17,0,23.702,3820.8591350628,189.304468,0.447388,1.2309219554,0,0,-0.671082,263.7, -1.7, -1.6,0,0,1024,1024,1024,1024,264.6,-89.9,96,3.917,3.942,3.944,3.991,3.98,3.944,21.319,87.8,14,Waypoint,
37.7783032,-120.1185297,3821.8433870628,190.28872,0,0.8660433348,24500,2018-05-14 17:02:02,17,0,23.702,3821.8433870628,190.28872,0.447388,1.2309219554,0,0,-0.671082,263.7, -1.7, -1.5,0,0,1024,1024,1024,1024,264.6,-89.9,96,3.917,3.942,3.944,3.991,3.98,3.944,21.319,87.8,14,Waypoint,
37.7783032,-120.1185298,3822.8276390628,191.272972,0,0.85297902992,24600,2018-05-14 17:02:02,17,0,23.702,3822.8276390628,191.272972,0.447388,1.2309219554,0,0,-0.671082,263.8, -1.7, -1.5,0,0,1024,1024,1024,1024,264.6,-89.9,96,3.917,3.942,3.944,3.991,3.98,3.944,21.319,87.8,14,Waypoint,
37.7783032,-120.1185298,3823.8118910628,192.257224,0,0.85297902992,24700,2018-05-14 17:02:02,17,0,23.702,3823.8118910628,192.257224,0.447388,1.2309219554,0,0,-0.671082,263.8, -1.6, -1.5,0,0,1024,1024,1024,1024,264.6,-89.9,96,3.917,3.942,3.944,3.991,3.98,3.944,21.319,87.8,14,Waypoint,
37.7783032,-120.1185298,3824.7961430628,193.241476,0,0.85297902992,24800,2018-05-14 17:02:03,17,0,23.702,3824.7961430628,193.241476,0.447388,1.2309219554,0,0,-0.671082,263.8, -1.5, -1.7,0,0,1024,1024,1024,1024,264.6,-89.9,96,3.917,3.942,3.944,3.991,3.98,3.944,21.319,87.8,14,Waypoint,
37.7783032,-120.1185299,3825.7803950628,194.225728,0,0.84070540748,24900,2018-05-14 17:02:03,17,0,23.702,3825.7803950628,194.225728,0.447388,1.2309219554,0,0,-0.671082,263.7, -1.4, -1.7,0,0,1024,1024,1024,1024,264.6,-89.9,96,3.917,3.942,3.944,3.991,3.98,3.944,21.319,87.8,14,Waypoint,
37.7783032,-120.1185299,3826.7646470628,195.20998,0,0.84070540748,25000,2018-05-14 17:02:03,17,0,23.781,3826.7646470628,195.20998,0.447388,1.2309219554,0,0,-0.671082,263.8, -1.3, -1.6,0,0,1024,1024,1024,1024,264.6,-89.9,96,3.937,3.959,3.951,3.994,3.987,3.944,20.123,87.8,14,Waypoint,
37.7783032,-120.11853,3827.7488990628,196.194232,0,0.82925199504,25100,2018-05-14 17:02:03,17,0,23.781,3827.7488990628,196.194232,0.447388,1.2309219554,0,0,-0.671082,263.8, -1.4, -1.5,0,0,1024,1024,1024,1024,264.6,-89.9,96,3.937,3.959,3.951,3.994,3.987,3.944,20.123,87.8,14,Waypoint,
37.7783032,-120.11853,3828.7331510628,197.178484,0,0.82925199504,25210,2018-05-14 17:02:03,17,0,23.781,3828.7331510628,197.178484,0.447388,1.2309219554,0,0,-0.671082,263.8, -1.3, -1.5,0,0,1024,1024,1024,1024,264.6,-89.9,96,3.937,3.959,3.951,3.994,3.987,3.944,20.123,87.8,14,Waypoint,
37.7783031,-120.11853,3829.7174030628,198.162736,0,0.8630741746,25310,2018-05-14 17:02:03,17,0,23.781,3829.7174030628,198.162736,0.447388,1.2309219554,0,0,-0.671082,263.8, -1.4, -1.3,0,0,1024,1024,1024,1024,264.6,-89.9,96,3.937,3.959,3.951,3.994,3.987,3.944,20.123,87.8,14,Waypoint,
37.7783031,-120.11853,3831.6859070628,200.13124,0,0.8630741746,25500,2018-05-14 17:02:03,17,0,23.781,3831.6859070628,200.13124,0.447388,1.2309219554,0,0,-0.671082,263.7, -1.7, -1.3,0,0,1024,1024,1024,1024,264.6,-89.9,96,3.937,3.959,3.951,3.994,3.987,3.944,20.123,87.8,14,Waypoint,
37.7783031,-120.1185301,3832.6701590628,201.115492,0,0.85289700892,25600,2018-05-14 17:02:03,17,0,23.781,3832.6701590628,201.115492,0.447388,1.2309219554,0,0,-0.671082,263.6, -1.7, -1.4,0,0,1024,1024,1024,1024,264.6,-89.9,96,3.937,3.959,3.951,3.994,3.987,3.944,20.123,87.8,14,Waypoint,
37.7783031,-120.1185301,3833.6544110628,202.099744,0,0.85289700892,25700,2018-05-14 17:02:03,17,0,23.781,3833.6544110628,202.099744,0.447388,1.2309219554,0,0,-0.671082,263.6, -1.6, -1.4,0,0,1024,1024,1024,1024,264.6,-89.9,96,3.937,3.959,3.951,3.994,3.987,3.944,20.123,87.8,14,Waypoint,
37.778303,-120.1185301,3834.6386630628,203.083996,0,0.8873195822,25800,2018-05-14 17:02:04,17,0,23.781,3834.6386630628,203.083996,0.447388,1.2309219554,0,0,-0.671082,263.5, -1.6, -1.1,0,0,1024,1024,1024,1024,264.6,-89.9,96,3.937,3.959,3.951,3.994,3.987,3.944,20.123,87.8,14,Waypoint,
37.778303,-120.1185301,3835.6229150628,204.068248,0,0.8873195822,25900,2018-05-14 17:02:04,17,0,23.781,3835.6229150628,204.068248,0.447388,1.2309219554,0,0,-0.671082,263.5, -1.5, -1,0,0,1024,1024,1024,1024,264.6,-89.9,96,3.937,3.959,3.951,3.994,3.987,3.944,20.123,87.8,14,Waypoint,
37.778303,-120.1185301,3836.6071670628,205.0525,0,0.8873195822,26000,2018-05-14 17:02:04,17,0,23.719,3836.6071670628,205.0525,0.447388,1.2309219554,0,0,-0.671082,263.4, -1.3, -1.2,0,0,1024,1024,1024,1024,264.6,-89.9,96,3.928,3.951,3.937,3.971,3.981,3.94,20.676,87.8,14,Waypoint,
37.778303,-120.1185301,3837.5914190628,206.036752,0,0.8873195822,26100,2018-05-14 17:02:04,17,0,23.719,3837.5914190628,206.036752,0.447388,1.2309219554,0,0,-0.671082,263.4, -1.3, -1.3,0,0,1024,1024,1024,1024,264.6,-89.9,96,3.928,3.951,3.937,3.971,3.981,3.94,20.676,87.8,14,Waypoint,
37.778303,-120.1185301,3838.5756710628,207.021004,0,0.8873195822,26300,2018-05-14 17:02:04,17,0,23.719,3838.5756710628,207.021004,0.447388,1.2309219554,0,0,-0.671082,263.5, -1.2, -1.3,0,0,1024,1024,1024,1024,264.6,-89.9,96,3.928,3.951,3.937,3.971,3.981,3.94,20.676,87.8,14,Waypoint,
37.7783029,-120.1185302,3839.5599230628,208.005256,0,0.91329071164,26400,2018-05-14 17:02:04,17,0,23.719,3839.5599230628,208.005256,0.447388,1.2309219554,0,0,-0.671082,263.6, -1.2, -1.2,0,0,1024,1024,1024,1024,264.6,-89.9,96,3.928,3.951,3.937,3.971,3.981,3.94,20.676,87.8,14,Waypoint,
37.7783029,-120.1185301,3840.5441750628,208.989508,0,0.9218996358,26500,2018-05-14 17:02:04,17,0,23.719,3840.5441750628,208.989508,0.447388,1.2309219554,0,0,-0.671082,263.7, -1.4, -1,0,0,1024,1024,1024,1024,264.6,-89.9,96,3.928,3.951,3.937,3.971,3.981,3.94,20.676,87.8,14,Waypoint,
37.7783029,-120.1185301,3841.5284270628,209.97376,0,0.9218996358,26600,2018-05-14 17:02:04,17,0,23.719,3841.5284270628,209.97376,0.447388,1.2309219554,0,0,-0.671082,263.8, -1.7, -1,0,0,1024,1024,1024,1024,264.6,-90,96,3.928,3.951,3.937,3.971,3.981,3.94,20.676,87.8,14,Waypoint,
37.7783029,-120.1185301,3842.5126790628,210.958012,0,0.9218996358,26700,2018-05-14 17:02:04,17,0,23.719,3842.5126790628,210.958012,0.447388,1.2309219554,0,0,-0.671082,263.8, -1.8, -1.1,0,0,1024,1024,1024,1024,264.6,-90,96,3.928,3.951,3.937,3.971,3.981,3.94,20.676,87.8,14,Waypoint,
37.7783029,-120.11853,3843.4969310628,211.942264,0,0.93132548912,26800,2018-05-14 17:02:05,17,0,23.719,3843.4969310628,211.942264,0.447388,1.2309219554,0,0,-0.671082,263.8, -1.9, -1.2,0,0,1024,1024,1024,1024,264.6,-90,96,3.928,3.951,3.937,3.971,3.981,3.94,20.676,87.8,14,Waypoint,
37.7783029,-120.1185299,3844.4811830628,212.926516,0,0.9415354632,26900,2018-05-14 17:02:05,17,0,23.719,3844.4811830628,212.926516,0.447388,1.2309219554,0,0,-0.671082,263.8, -2, -1.2,0,0,1024,1024,1024,1024,264.6,-90,96,3.928,3.951,3.937,3.971,3.981,3.94,20.676,87.8,14,Waypoint,
37.7783029,-120.1185299,3845.4654350628,213.910768,0,0.9415354632,27000,2018-05-14 17:02:05,17,0,23.659,3845.4654350628,213.910768,0.447388,1.2309219554,0,0,-0.671082,263.8, -2, -1.3,0,0,1024,1024,1024,1024,264.6,-90,96,3.924,3.934,3.929,3.969,3.977,3.924,21.457,87.8,14,Waypoint,
37.7783029,-120.1185298,3846.4496870628,214.89502,0,0.95251315384,27100,2018-05-14 17:02:05,17,0,23.659,3846.4496870628,214.89502,0.447388,1.2309219554,0,0,-0.671082,263.8, -1.9, -1.5,0,0,1024,1024,1024,1024,264.6,-89.9,96,3.924,3.934,3.929,3.969,3.977,3.924,21.457,87.8,14,Waypoint,
37.7783029,-120.1185297,3848.4181910628,216.863524,0,0.96422575264,27200,2018-05-14 17:02:05,17,0,23.659,3848.4181910628,216.863524,0.447388,1.2309219554,0,0,-0.671082,263.7, -2.2, -1.3,0,0,1024,1024,1024,1024,264.6,-89.9,96,3.924,3.934,3.929,3.969,3.977,3.924,21.457,87.8,14,Waypoint,
37.7783029,-120.1185297,3849.4024430628,217.847776,0,0.96422575264,27300,2018-05-14 17:02:05,17,0,23.659,3849.4024430628,217.847776,0.447388,1.2309219554,0,0,-0.671082,263.7, -2.2, -1.3,0,0,1024,1024,1024,1024,264.6,-90,96,3.924,3.934,3.929,3.969,3.977,3.924,21.457,87.8,14,Waypoint,
37.7783028,-120.1185297,3850.3866950628,218.832028,0,0.99747706604,27400,2018-05-14 17:02:05,17,0,23.659,3850.3866950628,218.832028,0.447388,1.2309219554,0,0,-0.671082,263.7, -2.1, -1.3,0,0,1024,1024,1024,1024,264.6,-90,96,3.924,3.934,3.929,3.969,3.977,3.924,21.457,87.8,14,Waypoint,
37.7783028,-120.1185297,3851.3709470628,219.81628,0,0.99747706604,27500,2018-05-14 17:02:05,17,0,23.659,3851.3709470628,219.81628,0.447388,1.2309219554,0,0,-0.671082,263.7, -2, -1.3,0,0,1024,1024,1024,1024,264.6,-90,96,3.924,3.934,3.929,3.969,3.977,3.924,21.457,87.8,14,Waypoint,
37.7783028,-120.1185297,3852.3551990628,220.800532,0,0.99747706604,27600,2018-05-14 17:02:05,17,0,23.659,3852.3551990628,220.800532,0.447388,1.2309219554,0,0,-0.671082,263.7, -2, -1.3,0,0,1024,1024,1024,1024,264.6,-90,96,3.924,3.934,3.929,3.969,3.977,3.924,21.457,87.8,14,Waypoint,
37.7783028,-120.1185297,3853.3394510628,221.784784,0,0.99747706604,27700,2018-05-14 17:02:05,17,0,23.659,3853.3394510628,221.784784,0.447388,1.2309219554,0,0,-0.671082,263.8, -2, -1.3,0,0,1024,1024,1024,1024,264.6,-89.9,96,3.924,3.934,3.929,3.969,3.977,3.924,21.457,87.8,14,Waypoint,
37.7783028,-120.1185296,3854.3237030628,222.769036,0,1.00949150212,27800,2018-05-14 17:02:06,17,0,23.659,3854.3237030628,222.769036,0.447388,1.2309219554,0,0,-0.671082,263.8, -2, -1.2,0,0,1024,1024,1024,1024,264.6,-90,96,3.924,3.934,3.929,3.969,3.977,3.924,21.457,87.8,14,Waypoint,
37.7783027,-120.1185296,3855.3079550628,223.753288,0,1.04257549268,27900,2018-05-14 17:02:06,17,0,23.659,3855.3079550628,223.753288,0.447388,1.2309219554,0,0,-0.671082,263.8, -2, -1.2,0,0,1024,1024,1024,1024,264.6,-89.9,96,3.924,3.934,3.929,3.969,3.977,3.924,21.457,87.8,14,Waypoint,
37.7783027,-120.1185296,3856.2922070628,224.73754,0,1.04257549268,28000,2018-05-14 17:02:06,17,0,23.682,3856.2922070628,224.73754,0.447388,1.2309219554,0,0,-0.671082,263.8, -2, -1.1,0,0,1024,1024,1024,1024,264.6,-90,96,3.922,3.936,3.936,3.976,3.978,3.923,20.948,87.8,14,Waypoint,
37.7783027,-120.1185296,3857.2764590628,225.721792,0,1.04257549268,28100,2018-05-14 17:02:06,17,0,23.682,3857.2764590628,225.721792,0.447388,1.2309219554,0,0,-0.671082,263.7, -1.9, -1,0,0,1024,1024,1024,1024,264.6,-89.9,96,3.922,3.936,3.936,3.976,3.978,3.923,20.948,87.8,14,Waypoint,
37.7783026,-120.1185296,3858.2607110628,226.706044,0,1.07587929952,28200,2018-05-14 17:02:06,17,0,23.682,3858.2607110628,226.706044,0.447388,1.2309219554,0,0,-0.671082,263.7, -1.9, -0.9,0,0,1024,1024,1024,1024,264.6,-89.9,96,3.922,3.936,3.936,3.976,3.978,3.923,20.948,87.8,14,Waypoint,
37.7783026,-120.1185296,3859.2449630628,227.690296,0,1.07587929952,28300,2018-05-14 17:02:06,17,0,23.682,3859.2449630628,227.690296,0.447388,1.2309219554,0,0,-0.671082,263.7, -1.9, -0.9,0,0,1024,1024,1024,1024,264.6,-90,96,3.922,3.936,3.936,3.976,3.978,3.923,20.948,87.8,14,Waypoint,
