Latitude, Longitude, Altitude (m), Time, Sats, Speed (m/s), Range (m), Battery (%), Roll (deg), Pitch (deg), Yaw (deg), Images, HD Signal (%), RC Signal (%), Battery Temp (C), Battery Voltage (mV), Battery Current (mA), Battery Energy (mAh), Battery Capacity (mAh), Battery Discharges, flyState, timestamp (Unix), LastUpdate (ms), radioChannel, Rc_elevator, Rc_aileron, Rc_throttle, Rc_rudder, Rc_gyro, Dronetype, Battery_Cell1 (mV), Battery_Cell2 (mV), Battery_Cell3 (mV), Battery_Cell4 (mV), Battery_Cell5 (mV), Battery_Cell6 (mV), Video, isFlying, elapsedTime (ms), gimbalPitch (deg), gimbalRoll (deg), gimbalYaw (deg), VelocityX (m/s), VelocityY (m/s), VelocityZ (m/s), GroundSmear (cm), App Version, Aircraft Name, Aircraft Firmware, Aircraft Serial Number, Battery Serial Number, Battery Lifetime (%), App_Tip, App_Warning, CurrentFlightStartingIndex, CurrentFlightLastVisitedWaypoint, PreviousFlightEndingWaypointIndex
37.7783114, -120.1185218, -0.100, 11:54:17.347, 19, 0.00, 0.07, 100, 0.900, 2.500, -93.400, 840, 100, 100, 24, 25865, -2844, 5510, 5510, 10, 11, 1526324057.348, 46, 0, 1024, 1024, 1024, 1024, 0, 6, 4305, 4306, 4315, 4312, 4172, 4303, 0, 1, 3106, -89.900, 0.000, -93.500, 0.000, 0.000, 0.000, 0.0, MapPilot_2.8.1_04242018, Dendroctonus I, 1.3.1.00, 041DDC1887, 1058171200149, 98, DJI_0566.jpg, Starting Mission from Lat/Long: 37.77832/-120.11852 Camera: Zenmuse X3 - Overlap: 90/90 - Active Connection: No, 37, 37, 37
37.7783114, -120.1185217, -0.100, 11:54:17.447, 19, 0.00, 0.08, 100, 0.800, 2.200, -93.100, 840, 100, 100, 24, 25865, -2844, 5510, 5510, 10, 11, 1526324057.447, 36, 0, 1024, 1024, 1024, 1024, 0, 6, 4305, 4306, 4315, 4312, 4172, 4303, 0, 1, 3205, -89.900, 0.000, -93.500, 0.000, 0.000, -0.100, 0.0, , , , , , 98, , , 37, 37, 37
37.7783114, -120.1185216, -0.100, 11:54:17.543, 19, 0.10, 0.09, 100, 0.600, 1.200, -92.900, 840, 100, 100, 24, 25671, -3051, 5510, 5510, 10, 11, 1526324057.544, 15, 0, 1024, 1024, 1024, 1024, 0, 6, 4305, 4306, 4315, 4312, 4172, 4303, 0, 1, 3301, -90.000, 0.000, -93.500, 0.000, 0.100, -0.200, 0.0, , , , , , 98, , , 37, 37, 37
37.7783115, -120.1185214, -0.100, 11:54:17.664, 19, 0.10, 0.10, 100, 0.400, 0.400, -92.900, 840, 100, 100, 24, 25671, -3051, 5510, 5510, 10, 11, 1526324057.665, 20, 0, 1024, 1024, 1024, 1024, 0, 6, 4258, 4270, 4308, 4254, 4273, 4251, 0, 1, 3422, -90.000, 0.000, -93.500, 0.000, 0.100, -0.300, 0.0, , , , , , 98, , , 37, 37, 37
37.7783115, -120.1185211, 0.000, 11:54:17.748, 19, 0.10, 0.12, 100, 0.200, -0.400, -92.900, 840, 100, 100, 24, 25671, -3051, 5510, 5510, 10, 11, 1526324057.748, 25, 0, 1024, 1024, 1024, 1024, 0, 6, 4258, 4270, 4308, 4254, 4273, 4251, 0, 1, 3506, -90.000, 0.000, -93.500, 0.000, 0.100, -0.300, 0.0, , , , , , 98, , , 37, 37, 37
37.7783116, -120.1185210, 0.000, 11:54:17.846, 19, 0.00, 0.13, 100, 0.000, -0.700, -93.100, 840, 100, 100, 24, 25671, -3051, 5510, 5510, 10, 11, 1526324057.846, 63, 0, 1024, 1024, 1024, 1024, 0, 6, 4258, 4270, 4308, 4254, 4273, 4251, 0, 1, 3603, -90.000, 0.000, -93.500, 0.000, 0.000, -0.400, 0.0, , , , , , 98, , , 37, 37, 37
37.7783116, -120.1185209, 0.000, 11:54:17.951, 19, 0.00, 0.14, 100, 0.100, -0.800, -93.100, 840, 100, 100, 24, 25671, -3051, 5510, 5510, 10, 11, 1526324057.952, 3, 0, 1024, 1024, 1024, 1024, 0, 6, 4258, 4270, 4308, 4254, 4273, 4251, 0, 1, 3709, -90.000, 0.000, -93.500, 0.000, 0.000, -0.400, 0.0, , , , , , 98, , , 37, 37, 37
37.7783116, -120.1185208, 0.100, 11:54:18.045, 19, 0.00, 0.15, 100, 0.000, -1.000, -93.200, 840, 100, 100, 24, 25671, -3051, 5510, 5510, 10, 11, 1526324058.046, 15, 0, 1024, 1024, 1024, 1024, 0, 6, 4258, 4270, 4308, 4254, 4273, 4251, 0, 1, 3803, -90.000, 0.000, -93.500, 0.000, 0.000, -0.400, 0.0, , , , , , 98, , , 37, 37, 37
37.7783116, -120.1185208, 0.100, 11:54:18.146, 19, 0.00, 0.15, 100, 0.000, -1.000, -93.200, 840, 100, 100, 24, 25671, -3051, 5510, 5510, 10, 11, 1526324058.146, 115, 0, 1024, 1024, 1024, 1024, 0, 6, 4258, 4270, 4308, 4254, 4273, 4251, 0, 1, 3904, -90.000, 0.000, -93.500, 0.000, 0.000, -0.400, 0.0, , , , , , 98, , , 37, 37, 37
37.7783116, -120.1185207, 0.100, 11:54:18.243, 19, 0.00, 0.15, 100, -0.100, -1.000, -93.300, 840, 100, 100, 24, 25671, -3051, 5510, 5510, 10, 11, 1526324058.244, 47, 0, 1024, 1024, 1024, 1024, 0, 6, 4258, 4270, 4308, 4254, 4273, 4251, 0, 1, 4001, -90.000, 0.000, -93.500, 0.000, 0.000, -0.400, 0.0, , , , , , 98, , , 37, 37, 37
37.7783116, -120.1185207, 0.200, 11:54:18.345, 19, 0.00, 0.15, 100, -0.200, -0.700, -93.300, 840, 100, 100, 24, 25671, -3051, 5510, 5510, 10, 11, 1526324058.345, 29, 0, 1024, 1024, 1024, 1024, 0, 6, 4258, 4270, 4308, 4254, 4273, 4251, 0, 1, 4103, -89.900, 0.000, -93.500, 0.000, 0.000, -0.400, 0.0, , , , , , 98, , , 37, 37, 37
37.7783117, -120.1185207, 0.300, 11:54:18.444, 19, 0.00, 0.15, 100, -0.400, -0.500, -93.300, 840, 100, 100, 24, 25671, -3051, 5510, 5510, 10, 11, 1526324058.445, 46, 0, 1024, 1024, 1024, 1024, 0, 6, 4258, 4270, 4308, 4254, 4273, 4251, 0, 1, 4202, -89.900, 0.000, -93.500, 0.000, 0.000, -0.400, 0.0, , , , , , 98, , , 37, 37, 37
37.7783117, -120.1185209, 0.300, 11:54:18.546, 19, 0.00, 0.14, 100, -0.400, -0.200, -93.300, 840, 100, 100, 24, 25671, -3051, 5510, 5510, 10, 11, 1526324058.547, 47, 0, 1024, 1024, 1024, 1024, 0, 6, 4258, 4270, 4308, 4254, 4273, 4251, 0, 1, 4304, -89.900, 0.000, -93.500, 0.000, 0.000, -0.400, 0.0, , , , , , 98, , , 37, 37, 37
37.7783117, -120.1185209, 0.400, 11:54:18.644, 19, 0.00, 0.13, 100, -0.300, 0.000, -93.400, 840, 100, 100, 24, 24833, -11686, 5510, 5510, 10, 11, 1526324058.645, 67, 0, 1024, 1024, 1024, 1024, 0, 6, 4122, 4075, 4112, 4110, 4127, 4080, 0, 1, 4402, -89.900, 0.000, -93.500, 0.000, 0.000, -0.400, 0.0, , , , , , 98, , , 37, 37, 37
37.7783117, -120.1185210, 0.400, 11:54:18.746, 19, 0.00, 0.13, 100, -0.300, 0.200, -93.400, 840, 100, 100, 24, 24833, -11686, 5510, 5510, 10, 11, 1526324058.747, 33, 0, 1024, 1024, 1024, 1024, 0, 6, 4122, 4075, 4112, 4110, 4127, 4080, 0, 1, 4504, -89.900, 0.000, -93.500, 0.000, 0.000, -0.400, 0.0, , , , , , 98, , , 37, 37, 37
37.7783117, -120.1185211, 0.500, 11:54:18.847, 19, 0.00, 0.12, 100, -0.200, 0.400, -93.500, 840, 100, 100, 24, 24833, -11686, 5510, 5510, 10, 11, 1526324058.848, 35, 0, 1024, 1024, 1024, 1024, 0, 6, 4122, 4075, 4112, 4110, 4127, 4080, 0, 1, 4605, -89.900, 0.000, -93.500, 0.000, 0.000, -0.400, 0.0, , , , , , 98, , , 37, 37, 37
37.7783116, -120.1185212, 0.500, 11:54:18.944, 19, 0.00, 0.11, 100, -0.100, 0.500, -93.500, 840, 100, 100, 24, 24833, -11686, 5510, 5510, 10, 11, 1526324058.944, 67, 0, 1024, 1024, 1024, 1024, 0, 6, 4122, 4075, 4112, 4110, 4127, 4080, 0, 1, 4701, -89.900, 0.000, -93.500, 0.000, 0.000, -0.400, 0.0, , , , , , 98, , , 37, 37, 37
37.7783116, -120.1185212, 0.600, 11:54:19.045, 19, 0.00, 0.11, 100, 0.000, 0.500, -93.500, 840, 100, 100, 24, 24833, -11686, 5510, 5510, 10, 11, 1526324059.046, 31, 0, 1024, 1024, 1024, 1024, 0, 6, 4122, 4075, 4112, 4110, 4127, 4080, 0, 1, 4803, -89.900, 0.000, -93.500, 0.000, 0.000, -0.400, 0.0, , , , , , 98, , , 37, 37, 37
37.7783115, -120.1185213, 0.600, 11:54:19.145, 19, 0.00, 0.11, 100, 0.000, 0.600, -93.500, 840, 100, 100, 24, 24833, -11686, 5510, 5510, 10, 11, 1526324059.146, 61, 0, 1024, 1024, 1024, 1024, 0, 6, 4122, 4075, 4112, 4110, 4127, 4080, 0, 1, 4903, -89.900, 0.000, -93.500, 0.000, 0.000, -0.400, 0.0, , , , , , 98, , , 37, 37, 37
37.7783115, -120.1185213, 0.600, 11:54:19.246, 19, 0.00, 0.11, 100, 0.000, 0.600, -93.500, 840, 100, 100, 24, 24833, -11686, 5510, 5510, 10, 11, 1526324059.247, 162, 0, 1024, 1024, 1024, 1024, 0, 6, 4122, 4075, 4112, 4110, 4127, 4080, 0, 1, 5004, -89.900, 0.000, -93.500, 0.000, 0.000, -0.400, 0.0, , , , , , 98, , , 37, 37, 37
37.7783115, -120.1185213, 0.700, 11:54:19.346, 19, 0.00, 0.10, 100, 0.000, 0.500, -93.600, 840, 100, 100, 24, 24833, -11686, 5510, 5510, 10, 11, 1526324059.347, 74, 0, 1024, 1024, 1024, 1024, 0, 6, 4122, 4075, 4112, 4110, 4127, 4080, 0, 1, 5104, -89.900, 0.000, -93.500, 0.000, 0.000, -0.500, 0.0, , , , , , 98, , , 37, 37, 37
37.7783115, -120.1185214, 0.700, 11:54:19.446, 19, 0.00, 0.10, 100, 0.000, 0.500, -93.600, 840, 100, 100, 24, 24833, -11686, 5510, 5510, 10, 11, 1526324059.447, 69, 0, 1024, 1024, 1024, 1024, 0, 6, 4122, 4075, 4112, 4110, 4127, 4080, 0, 1, 5204, -89.900, 0.000, -93.500, 0.000, 0.000, -0.500, 0.0, , , , , , 98, , , 37, 37, 37
37.7783115, -120.1185215, 0.800, 11:54:19.544, 19, 0.00, 0.09, 100, 0.000, 0.500, -93.700, 840, 100, 100, 24, 24833, -11686, 5510, 5510, 10, 11, 1526324059.545, 71, 0, 1024, 1024, 1024, 1024, 0, 6, 4122, 4075, 4112, 4110, 4127, 4080, 0, 1, 5302, -89.900, 0.000, -93.500, 0.000, 0.000, -0.500, 0.0, , , , , , 98, , , 37, 37, 37
37.7783113, -120.1185217, 0.900, 11:54:19.662, 19, 0.00, 0.08, 100, -0.100, 0.500, -93.700, 840, 100, 100, 24, 24407, -15824, 5399, 5510, 10, 14, 1526324059.662, 24, 0, 1024, 1024, 1024, 1024, 0, 6, 4122, 4075, 4112, 4110, 4127, 4080, 0, 1, 5420, -89.900, 0.000, -93.500, 0.000, 0.000, -0.400, 0.0, , , , , , 98, , , 37, 37, 37
37.7783113, -120.1185217, 0.900, 11:54:19.744, 19, 0.00, 0.08, 100, -0.100, 0.500, -93.700, 840, 100, 100, 24, 24407, -15824, 5399, 5510, 10, 14, 1526324059.744, 106, 0, 1024, 1024, 1024, 1024, 0, 6, 4122, 4075, 4112, 4110, 4127, 4080, 0, 1, 5502, -89.900, 0.000, -93.500, 0.000, 0.000, -0.400, 0.0, , , , , , 98, , , 37, 37, 37
37.7783111, -120.1185218, 1.000, 11:54:19.854, 19, 0.00, 0.09, 100, 0.300, 1.100, -93.800, 840, 100, 100, 24, 24407, -15824, 5399, 5510, 10, 14, 1526324059.854, 7, 0, 1024, 1024, 1024, 1024, 0, 6, 4036, 4036, 4084, 4064, 4085, 4050, 0, 1, 5612, -89.900, 0.000, -93.500, 0.000, 0.000, -0.200, 0.0, , , , , , 98, , , 37, 37, 37
37.7783111, -120.1185218, 1.000, 11:54:19.946, 19, 0.00, 0.09, 100, 0.300, 1.100, -93.800, 840, 100, 100, 24, 24407, -15824, 5399, 5510, 10, 14, 1526324059.947, 99, 0, 1024, 1024, 1024, 1024, 0, 6, 4036, 4036, 4084, 4064, 4085, 4050, 0, 1, 5704, -89.900, 0.000, -93.500, 0.000, 0.000, -0.200, 0.0, , , , , , 98, , , 37, 37, 37
37.7783110, -120.1185218, 1.000, 11:54:20.044, 19, 0.00, 0.10, 100, 0.600, 1.300, -93.800, 840, 100, 100, 24, 24407, -15824, 5399, 5510, 10, 14, 1526324060.045, 52, 0, 1024, 1024, 1024, 1024, 0, 6, 4036, 4036, 4084, 4064, 4085, 4050, 0, 1, 5802, -89.900, 0.000, -93.500, 0.000, 0.000, -0.200, 0.0, , , , , , 98, , , 37, 37, 37
37.7783109, -120.1185219, 1.100, 11:54:20.144, 18, 0.00, 0.11, 98, 0.900, 1.200, -93.900, 840, 100, 100, 24, 24407, -15824, 5399, 5510, 10, 14, 1526324060.144, 58, 0, 1024, 1024, 1024, 1024, 0, 6, 4036, 4036, 4084, 4064, 4085, 4050, 0, 1, 5901, -89.900, 0.000, -93.500, 0.000, 0.000, -0.300, 0.0, , , , , , 98, , , 37, 37, 37
37.7783108, -120.1185221, 1.200, 11:54:20.260, 18, 0.00, 0.11, 98, 0.800, 1.000, -94.000, 840, 100, 100, 24, 24407, -15824, 5399, 5510, 10, 14, 1526324060.261, 11, 0, 1024, 1024, 1024, 1024, 0, 6, 4036, 4036, 4084, 4064, 4085, 4050, 0, 1, 6018, -89.900, 0.000, -93.500, 0.000, 0.000, -0.500, 0.0, , , , , , 98, , , 37, 37, 37
37.7783108, -120.1185221, 1.200, 11:54:20.344, 18, 0.00, 0.11, 98, 0.800, 1.000, -94.000, 840, 100, 100, 24, 24407, -15824, 5399, 5510, 10, 14, 1526324060.345, 95, 0, 1024, 1024, 1024, 1024, 0, 6, 4036, 4036, 4084, 4064, 4085, 4050, 0, 1, 6102, -89.900, 0.000, -93.500, 0.000, 0.000, -0.500, 0.0, , , , , , 98, , , 37, 37, 37
37.7783107, -120.1185222, 1.300, 11:54:20.445, 19, 0.00, 0.12, 98, 0.600, 1.100, -94.000, 840, 100, 100, 24, 24407, -15824, 5399, 5510, 10, 14, 1526324060.446, 42, 0, 1024, 1024, 1024, 1024, 0, 6, 4036, 4036, 4084, 4064, 4085, 4050, 0, 1, 6204, -89.900, 0.000, -93.500, 0.000, 0.000, -0.900, 0.0, , , , , , 98, , , 37, 37, 37
37.7783107, -120.1185222, 1.400, 11:54:20.545, 19, 0.00, 0.12, 98, 0.500, 1.100, -94.000, 840, 100, 100, 24, 24407, -15824, 5399, 5510, 10, 14, 1526324060.547, 16, 0, 1024, 1024, 1024, 1024, 0, 6, 4036, 4036, 4084, 4064, 4085, 4050, 0, 1, 6304, -89.900, 0.000, -93.500, 0.000, 0.000, -1.100, 0.0, , , , , , 98, , , 37, 37, 37
37.7783107, -120.1185222, 1.600, 11:54:20.647, 19, 0.00, 0.13, 98, 0.400, 1.000, -93.900, 840, 100, 100, 24, 24291, -16165, 5399, 5510, 10, 14, 1526324060.648, 48, 0, 1024, 1024, 1024, 1024, 0, 6, 4038, 4022, 4065, 4119, 4062, 4068, 0, 1, 6405, -89.900, 0.000, -93.500, 0.000, 0.000, -1.300, 0.0, , , , , , 98, , , 37, 37, 37
37.7783107, -120.1185222, 1.600, 11:54:20.746, 19, 0.00, 0.13, 98, 0.400, 1.000, -93.900, 840, 100, 100, 24, 24291, -16165, 5399, 5510, 10, 14, 1526324060.746, 146, 0, 1024, 1024, 1024, 1024, 0, 6, 4038, 4022, 4065, 4119, 4062, 4068, 0, 1, 6503, -89.900, 0.000, -93.500, 0.000, 0.000, -1.300, 0.0, , , , , , 98, , , 37, 37, 37
37.7783107, -120.1185221, 1.700, 11:54:20.847, 19, 0.00, 0.13, 98, 0.500, 0.600, -93.900, 840, 100, 100, 24, 24291, -16165, 5399, 5510, 10, 14, 1526324060.847, 67, 0, 1024, 1024, 1024, 1024, 0, 6, 4038, 4022, 4065, 4119, 4062, 4068, 0, 1, 6605, -90.000, 0.000, -93.500, 0.000, 0.000, -1.500, 0.0, , , , , , 98, , , 37, 37, 37
37.7783107, -120.1185221, 1.900, 11:54:20.944, 19, 0.00, 0.13, 98, 0.500, 0.500, -93.800, 840, 100, 100, 24, 24291, -16165, 5399, 5510, 10, 14, 1526324060.944, 81, 0, 1024, 1024, 1024, 1024, 0, 6, 4038, 4022, 4065, 4119, 4062, 4068, 0, 1, 6701, -89.900, 0.000, -93.500, 0.000, 0.000, -1.800, 0.0, , , , , , 98, , , 37, 37, 37
37.7783107, -120.1185220, 2.100, 11:54:21.046, 19, 0.00, 0.13, 98, 0.300, 0.500, -93.700, 840, 100, 100, 24, 24291, -16165, 5399, 5510, 10, 14, 1526324061.047, 47, 0, 1024, 1024, 1024, 1024, 0, 6, 4038, 4022, 4065, 4119, 4062, 4068, 0, 1, 6804, -90.000, 0.000, -93.500, 0.000, 0.000, -2.000, 0.0, , , , , , 98, , , 37, 37, 37
37.7783106, -120.1185220, 2.300, 11:54:21.146, 18, 0.00, 0.13, 98, 0.400, 0.200, -93.600, 840, 100, 100, 24, 24291, -16165, 5399, 5510, 10, 14, 1526324061.147, 62, 0, 1024, 1024, 1024, 1024, 0, 6, 4038, 4022, 4065, 4119, 4062, 4068, 0, 1, 6904, -90.000, 0.000, -93.500, 0.000, 0.000, -2.200, 0.0, , , , , , 98, , , 37, 37, 37
37.7783106, -120.1185220, 2.600, 11:54:21.268, 18, 0.00, 0.14, 98, 0.600, 0.000, -93.500, 840, 100, 100, 24, 24291, -16165, 5399, 5510, 10, 14, 1526324061.269, 19, 0, 1024, 1024, 1024, 1024, 0, 6, 4038, 4022, 4065, 4119, 4062, 4068, 0, 1, 7026, -90.000, 0.000, -93.500, 0.000, 0.000, -2.400, 0.0, , , , , , 98, , , 37, 37, 37
37.7783106, -120.1185220, 2.600, 11:54:21.346, 18, 0.00, 0.14, 98, 0.600, 0.000, -93.500, 840, 100, 100, 24, 24291, -16165, 5399, 5510, 10, 14, 1526324061.347, 97, 0, 1024, 1024, 1024, 1024, 0, 6, 4038, 4022, 4065, 4119, 4062, 4068, 0, 1, 7104, -90.000, 0.000, -93.500, 0.000, 0.000, -2.400, 0.0, , , , , , 98, , , 37, 37, 37
37.7783106, -120.1185219, 2.800, 11:54:21.446, 19, 0.00, 0.14, 98, 0.800, 0.000, -93.300, 840, 100, 100, 24, 24291, -16165, 5399, 5510, 10, 14, 1526324061.447, 70, 0, 1024, 1024, 1024, 1024, 0, 6, 4038, 4022, 4065, 4119, 4062, 4068, 0, 1, 7204, -90.000, 0.000, -93.500, 0.000, 0.000, -2.600, 0.0, , , , , , 98, , , 37, 37, 37
37.7783106, -120.1185219, 3.100, 11:54:21.545, 19, 0.00, 0.13, 98, 0.800, 0.200, -93.200, 840, 100, 100, 24, 24291, -16165, 5399, 5510, 10, 14, 1526324061.546, 76, 0, 1024, 1024, 1024, 1024, 0, 6, 4038, 4022, 4065, 4119, 4062, 4068, 0, 1, 7303, -89.900, 0.000, -93.500, 0.000, 0.000, -2.900, 0.0, , , , , , 98, , , 37, 37, 37
37.7783106, -120.1185219, 3.400, 11:54:21.645, 19, 0.00, 0.14, 98, 0.400, 0.200, -93.100, 840, 100, 100, 24, 24291, -16165, 5399, 5510, 10, 14, 1526324061.646, 97, 0, 1024, 1024, 1024, 1024, 0, 6, 4038, 4022, 4065, 4119, 4062, 4068, 0, 1, 7404, -90.000, 0.000, -93.500, 0.000, 0.000, -3.000, 0.0, , , , , , 98, , , 37, 37, 37
37.7783106, -120.1185219, 3.400, 11:54:21.749, 19, 0.00, 0.14, 98, 0.400, 0.200, -93.100, 840, 100, 100, 24, 24291, -16165, 5399, 5510, 10, 14, 1526324061.751, 202, 0, 1024, 1024, 1024, 1024, 0, 6, 4038, 4022, 4065, 4119, 4062, 4068, 0, 1, 7508, -90.000, 0.000, -93.500, 0.000, 0.000, -3.000, 0.0, , , , , , 98, , , 37, 37, 37
37.7783106, -120.1185219, 3.400, 11:54:21.854, 19, 0.00, 0.14, 98, 0.400, 0.200, -93.100, 840, 100, 100, 24, 24291, -16165, 5399, 5510, 10, 14, 1526324061.855, 306, 0, 1024, 1024, 1024, 1024, 0, 6, 4038, 4022, 4065, 4119, 4062, 4068, 0, 1, 7612, -90.000, 0.000, -93.500, 0.000, 0.000, -3.000, 0.0, , , , , , 98, , , 37, 37, 37
37.7783106, -120.1185219, 3.400, 11:54:21.948, 19, 0.00, 0.14, 98, 0.400, 0.200, -93.100, 840, 100, 100, 24, 24291, -16165, 5399, 5510, 10, 14, 1526324061.950, 401, 0, 1024, 1024, 1024, 1024, 0, 6, 4038, 4022, 4065, 4119, 4062, 4068, 0, 1, 7707, -90.000, 0.000, -93.500, 0.000, 0.000, -3.000, 0.0, , , , , , 98, , , 37, 37, 37
37.7783106, -120.1185219, 3.400, 11:54:22.045, 19, 0.00, 0.14, 98, 0.400, 0.200, -93.100, 840, 100, 100, 24, 24291, -16165, 5399, 5510, 10, 14, 1526324062.053, 503, 0, 1024, 1024, 1024, 1024, 0, 6, 4038, 4022, 4065, 4119, 4062, 4068, 0, 1, 7810, -90.000, 0.000, -93.500, 0.000, 0.000, -3.000, 0.0, , , , , , 98, , , 37, 37, 37
37.7783106, -120.1185219, 3.400, 11:54:22.144, 19, 0.00, 0.14, 98, 0.400, 0.200, -93.100, 840, 100, 100, 24, 24291, -16165, 5399, 5510, 10, 14, 1526324062.149, 600, 0, 1024, 1024, 1024, 1024, 0, 6, 4038, 4022, 4065, 4119, 4062, 4068, 0, 1, 7906, -90.000, 0.000, -93.500, 0.000, 0.000, -3.000, 0.0, , , , , , 98, , , 37, 37, 37
37.7783106, -120.1185219, 3.400, 11:54:22.244, 19, 0.00, 0.14, 98, 0.400, 0.200, -93.100, 840, 100, 100, 24, 24291, -16165, 5399, 5510, 10, 14, 1526324062.245, 696, 0, 1024, 1024, 1024, 1024, 0, 6, 4038, 4022, 4065, 4119, 4062, 4068, 0, 1, 8002, -90.000, 0.000, -93.500, 0.000, 0.000, -3.000, 0.0, , , , , , 98, , , 37, 37, 37
37.7783106, -120.1185218, 4.100, 11:54:22.344, 19, 0.00, 0.14, 98, 0.300, 0.100, -93.300, 840, 100, 100, 24, 24291, -16165, 5399, 5510, 10, 14, 1526324062.344, 63, 0, 1024, 1024, 1024, 1024, 0, 6, 4038, 4022, 4065, 4119, 4062, 4068, 0, 1, 8101, -90.000, 0.000, -93.500, 0.000, 0.000, -3.100, 0.0, , , , , , 98, , , 37, 37, 37
37.7783105, -120.1185218, 5.800, 11:54:22.454, 19, 0.00, 0.15, 98, 0.100, 0.000, -93.900, 840, 100, 100, 24, 24291, -16165, 5399, 5510, 10, 14, 1526324062.454, 7, 0, 1024, 1024, 1024, 1024, 0, 6, 4038, 4022, 4065, 4119, 4062, 4068, 0, 1, 8211, -89.900, 0.000, -93.500, 0.000, 0.000, -3.100, 0.0, , , , , , 98, , , 37, 37, 37
37.7783105, -120.1185220, 6.700, 11:54:22.566, 20, 0.00, 0.15, 98, 0.400, 0.200, -94.000, 840, 100, 100, 24, 24291, -16165, 5399, 5510, 10, 14, 1526324062.566, 17, 0, 1024, 1024, 1024, 1024, 0, 6, 4038, 4022, 4065, 4119, 4062, 4068, 0, 1, 8323, -89.900, 0.000, -93.500, 0.000, 0.000, -3.100, 0.0, , , , , , 98, , , 37, 37, 37
37.7783105, -120.1185220, 6.700, 11:54:22.644, 20, 0.00, 0.15, 98, 0.400, 0.200, -94.000, 840, 100, 100, 24, 24291, -16165, 5399, 5510, 10, 14, 1526324062.645, 96, 0, 1024, 1024, 1024, 1024, 0, 6, 4038, 4022, 4065, 4119, 4062, 4068, 0, 1, 8402, -89.900, 0.000, -93.500, 0.000, 0.000, -3.100, 0.0, , , , , , 98, , , 37, 37, 37
37.7783105, -120.1185220, 6.700, 11:54:22.744, 20, 0.00, 0.15, 98, 0.400, 0.200, -94.000, 840, 100, 100, 24, 24291, -16165, 5399, 5510, 10, 14, 1526324062.745, 196, 0, 1024, 1024, 1024, 1024, 0, 6, 4038, 4022, 4065, 4119, 4062, 4068, 0, 1, 8502, -89.900, 0.000, -93.500, 0.000, 0.000, -3.100, 0.0, , , , , , 98, , , 37, 37, 37
37.7783104, -120.1185220, 7.400, 11:54:22.844, 20, 0.00, 0.16, 98, 1.100, 0.400, -93.900, 840, 100, 100, 24, 24291, -16165, 5399, 5510, 10, 14, 1526324062.845, 13, 0, 1024, 1024, 1024, 1024, 0, 6, 4038, 4022, 4065, 4119, 4062, 4068, 0, 1, 8602, -89.900, 0.000, -93.500, 0.000, 0.000, -3.100, 0.0, , , , , , 98, , , 37, 37, 37
37.7783104, -120.1185220, 7.400, 11:54:22.944, 20, 0.00, 0.16, 98, 1.100, 0.400, -93.900, 840, 100, 100, 24, 24291, -16165, 5399, 5510, 10, 14, 1526324062.944, 112, 0, 1024, 1024, 1024, 1024, 0, 6, 4038, 4022, 4065, 4119, 4062, 4068, 0, 1, 8701, -89.900, 0.000, -93.500, 0.000, 0.000, -3.100, 0.0, , , , , , 98, , , 37, 37, 37
37.7783103, -120.1185221, 8.400, 11:54:23.044, 20, 0.00, 0.16, 98, 1.100, 0.400, -93.700, 840, 100, 100, 24, 24291, -16165, 5399, 5510, 10, 14, 1526324063.044, 59, 0, 1024, 1024, 1024, 1024, 0, 6, 4038, 4022, 4065, 4119, 4062, 4068, 0, 1, 8801, -89.900, 0.000, -93.500, 0.000, 0.000, -3.100, 0.0, , , , , , 98, , , 37, 37, 37
37.7783104, -120.1185221, 8.700, 11:54:23.145, 20, 0.00, 0.16, 98, 0.600, 0.200, -93.600, 840, 100, 100, 24, 24291, -16165, 5399, 5510, 10, 14, 1526324063.146, 14, 0, 1024, 1024, 1024, 1024, 0, 6, 4038, 4022, 4065, 4119, 4062, 4068, 0, 1, 8903, -89.900, 0.000, -93.500, 0.000, 0.000, -3.100, 0.0, , , , , , 98, , , 37, 37, 37
37.7783104, -120.1185221, 8.700, 11:54:23.244, 20, 0.00, 0.16, 98, 0.600, 0.200, -93.600, 840, 100, 100, 24, 24291, -16165, 5399, 5510, 10, 14, 1526324063.245, 113, 0, 1024, 1024, 1024, 1024, 0, 6, 4038, 4022, 4065, 4119, 4062, 4068, 0, 1, 9002, -89.900, 0.000, -93.500, 0.000, 0.000, -3.100, 0.0, , , , , , 98, , , 37, 37, 37
37.7783104, -120.1185221, 9.000, 11:54:23.344, 20, 0.00, 0.15, 98, 0.300, 0.100, -93.600, 840, 100, 100, 24, 23586, -19242, 5399, 5510, 10, 14, 1526324063.346, 44, 0, 1024, 1024, 1024, 1024, 0, 6, 4038, 4022, 4065, 4119, 4062, 4068, 0, 1, 9103, -90.000, 0.000, -93.500, 0.000, 0.000, -3.000, 0.0, , , , , , 98, , , 37, 37, 37
37.7783104, -120.1185221, 9.000, 11:54:23.444, 20, 0.00, 0.15, 98, 0.300, 0.100, -93.600, 840, 100, 100, 24, 23586, -19242, 5399, 5510, 10, 14, 1526324063.445, 144, 0, 1024, 1024, 1024, 1024, 0, 6, 4038, 4022, 4065, 4119, 4062, 4068, 0, 1, 9202, -90.000, 0.000, -93.500, 0.000, 0.000, -3.000, 0.0, , , , , , 98, , , 37, 37, 37
37.7783105, -120.1185221, 9.300, 11:54:23.544, 20, 0.00, 0.15, 98, 0.100, 0.000, -93.600, 840, 100, 100, 24, 23586, -19242, 5399, 5510, 10, 14, 1526324063.546, 63, 0, 1024, 1024, 1024, 1024, 0, 6, 4038, 4022, 4065, 4119, 4062, 4068, 0, 1, 9303, -90.000, 0.000, -93.500, 0.000, 0.000, -3.000, 0.0, , , , , , 98, , , 37, 37, 37
37.7783105, -120.1185221, 9.700, 11:54:23.644, 20, 0.00, 0.14, 98, 0.000, 0.100, -93.600, 840, 100, 100, 24, 23586, -19242, 5399, 5510, 10, 14, 1526324063.645, 43, 0, 1024, 1024, 1024, 1024, 0, 6, 3950, 3954, 3984, 3963, 3971, 3960, 0, 1, 9402, -89.900, 0.000, -93.500, 0.000, 0.000, -3.000, 0.0, , , , , , 98, , , 37, 37, 37
37.7783105, -120.1185221, 10.000, 11:54:23.744, 20, 0.00, 0.14, 98, 0.000, 0.200, -93.700, 840, 100, 100, 24, 23586, -19242, 5399, 5510, 10, 14, 1526324063.744, 95, 0, 1024, 1024, 1024, 1024, 0, 6, 3950, 3954, 3984, 3963, 3971, 3960, 0, 1, 9501, -89.900, 0.000, -93.500, 0.000, 0.000, -3.000, 0.0, , , , , , 98, , , 37, 37, 37
37.7783106, -120.1185221, 10.600, 11:54:23.844, 20, 0.00, 0.13, 98, 0.000, 0.300, -93.900, 840, 100, 100, 24, 23586, -19242, 5399, 5510, 10, 14, 1526324063.844, 29, 0, 1024, 1024, 1024, 1024, 0, 6, 3950, 3954, 3984, 3963, 3971, 3960, 0, 1, 9602, -89.900, 0.000, -93.500, 0.000, 0.000, -3.100, 0.0, , , , , , 98, , , 37, 37, 37
37.7783107, -120.1185222, 10.900, 11:54:23.944, 20, 0.00, 0.12, 98, 0.000, 0.300, -93.900, 840, 100, 100, 24, 23586, -19242, 5399, 5510, 10, 14, 1526324063.945, 40, 0, 1024, 1024, 1024, 1024, 0, 6, 3950, 3954, 3984, 3963, 3971, 3960, 0, 1, 9702, -89.900, 0.000, -93.500, 0.000, 0.000, -3.000, 0.0, , , , , , 98, , , 37, 37, 37
37.7783107, -120.1185222, 10.900, 11:54:24.045, 20, 0.00, 0.12, 98, 0.000, 0.300, -93.900, 840, 100, 100, 24, 23586, -19242, 5399, 5510, 10, 14, 1526324064.046, 141, 0, 1024, 1024, 1024, 1024, 0, 6, 3950, 3954, 3984, 3963, 3971, 3960, 0, 1, 9803, -89.900, 0.000, -93.500, 0.000, 0.000, -3.000, 0.0, , , , , , 98, , , 37, 37, 37
37.7783107, -120.1185222, 10.900, 11:54:24.143, 20, 0.00, 0.12, 98, 0.000, 0.300, -93.900, 840, 100, 100, 24, 23586, -19242, 5399, 5510, 10, 14, 1526324064.145, 240, 0, 1024, 1024, 1024, 1024, 0, 6, 3950, 3954, 3984, 3963, 3971, 3960, 0, 1, 9902, -89.900, 0.000, -93.500, 0.000, 0.000, -3.000, 0.0, , , , , , 98, , , 37, 37, 37
37.7783108, -120.1185221, 11.900, 11:54:24.244, 20, 0.00, 0.11, 98, -0.300, 0.300, -93.600, 840, 100, 100, 24, 23586, -19242, 5399, 5510, 10, 14, 1526324064.244, 49, 0, 1024, 1024, 1024, 1024, 0, 6, 3950, 3954, 3984, 3963, 3971, 3960, 0, 1, 10002, -89.900, 0.000, -93.500, 0.000, 0.000, -3.000, 0.0, , , , , , 98, , , 37, 37, 37
37.7783109, -120.1185221, 12.500, 11:54:24.351, 20, 0.00, 0.10, 98, -0.500, 0.300, -93.500, 840, 100, 100, 24, 23905, -18361, 5399, 5510, 10, 14, 1526324064.352, 9, 0, 1024, 1024, 1024, 1024, 0, 6, 3950, 3954, 3984, 3963, 3971, 3960, 0, 1, 10109, -89.900, 0.000, -93.500, 0.000, 0.000, -2.900, 0.0, , , , , , 98, , , 37, 37, 37
37.7783110, -120.1185221, 13.100, 11:54:24.444, 20, 0.00, 0.09, 98, -0.500, 0.500, -93.500, 840, 100, 100, 24, 23905, -18361, 5399, 5510, 10, 14, 1526324064.444, 16, 0, 1024, 1024, 1024, 1024, 0, 6, 3960, 3963, 4003, 3989, 4005, 3968, 0, 1, 10201, -89.900, 0.000, -93.500, 0.000, 0.000, -2.900, 0.0, , , , , , 98, , , 37, 37, 37
37.7783110, -120.1185221, 13.400, 11:54:24.543, 20, 0.00, 0.09, 98, -0.500, 0.500, -93.500, 840, 100, 100, 24, 23905, -18361, 5399, 5510, 10, 14, 1526324064.544, 29, 0, 1024, 1024, 1024, 1024, 0, 6, 3960, 3963, 4003, 3989, 4005, 3968, 0, 1, 10301, -89.900, 0.000, -93.500, 0.000, 0.000, -2.900, 0.0, , , , , , 98, , , 37, 37, 37
37.7783110, -120.1185220, 14.000, 11:54:24.644, 20, 0.00, 0.09, 98, -0.200, 0.100, -93.500, 840, 100, 100, 24, 23905, -18361, 5399, 5510, 10, 14, 1526324064.644, 34, 0, 1024, 1024, 1024, 1024, 0, 6, 3960, 3963, 4003, 3989, 4005, 3968, 0, 1, 10401, -90.000, 0.000, -93.500, 0.000, 0.000, -2.900, 0.0, , , , , , 98, , , 37, 37, 37
37.7783111, -120.1185219, 14.300, 11:54:24.744, 20, 0.00, 0.09, 98, -0.100, 0.000, -93.600, 840, 100, 100, 24, 23905, -18361, 5399, 5510, 10, 14, 1526324064.744, 39, 0, 1024, 1024, 1024, 1024, 0, 6, 3960, 3963, 4003, 3989, 4005, 3968, 0, 1, 10501, -90.000, 0.000, -93.500, 0.000, 0.000, -2.900, 0.0, , , , , , 98, , , 37, 37, 37
37.7783111, -120.1185219, 14.600, 11:54:24.844, 20, 0.00, 0.09, 98, -0.100, -0.200, -93.800, 840, 100, 100, 24, 23905, -18361, 5399, 5510, 10, 14, 1526324064.844, 27, 0, 1024, 1024, 1024, 1024, 0, 6, 3960, 3963, 4003, 3989, 4005, 3968, 0, 1, 10601, -90.000, 0.000, -93.500, 0.000, 0.000, -2.900, 0.0, , , , , , 98, , , 37, 37, 37
37.7783111, -120.1185217, 15.200, 11:54:24.943, 20, 0.00, 0.10, 98, -0.100, -0.600, -93.900, 840, 100, 100, 24, 23904, -18235, 5399, 5510, 10, 14, 1526324064.944, 17, 0, 1024, 1024, 1024, 1024, 0, 6, 3961, 3956, 3997, 3982, 3997, 3979, 0, 1, 10701, -90.000, 0.000, -93.500, 0.000, 0.000, -2.900, 0.0, , , , , , 98, , , 37, 37, 37
37.7783111, -120.1185217, 15.200, 11:54:25.044, 20, 0.00, 0.10, 98, -0.100, -0.600, -93.900, 840, 100, 100, 24, 23904, -18235, 5399, 5510, 10, 14, 1526324065.044, 117, 0, 1024, 1024, 1024, 1024, 0, 6, 3961, 3956, 3997, 3982, 3997, 3979, 0, 1, 10801, -90.000, 0.000, -93.500, 0.000, 0.000, -2.900, 0.0, , , , , , 98, , , 37, 37, 37
37.7783112, -120.1185215, 15.800, 11:54:25.152, 20, 0.00, 0.10, 98, -0.200, -0.700, -94.000, 840, 100, 100, 24, 23904, -18235, 5399, 5510, 10, 14, 1526324065.152, 4, 0, 1024, 1024, 1024, 1024, 0, 6, 3961, 3956, 3997, 3982, 3997, 3979, 0, 1, 10909, -90.000, 0.000, -93.500, 0.000, 0.000, -3.000, 0.0, , , , , , 98, , , 37, 37, 37
37.7783112, -120.1185214, 16.100, 11:54:25.243, 20, 0.00, 0.11, 98, -0.200, -0.700, -93.900, 840, 100, 100, 24, 23904, -18235, 5399, 5510, 10, 14, 1526324065.244, 19, 0, 1024, 1024, 1024, 1024, 0, 6, 3961, 3956, 3997, 3982, 3997, 3979, 0, 1, 11001, -90.000, 0.000, -93.500, 0.000, 0.000, -2.900, 0.0, , , , , , 98, , , 37, 37, 37
37.7783112, -120.1185214, 16.100, 11:54:25.343, 20, 0.00, 0.11, 98, -0.200, -0.700, -93.900, 840, 100, 100, 24, 23904, -18235, 5399, 5510, 10, 14, 1526324065.343, 118, 0, 1024, 1024, 1024, 1024, 0, 6, 3961, 3956, 3997, 3982, 3997, 3979, 0, 1, 11100, -90.000, 0.000, -93.500, 0.000, 0.000, -2.900, 0.0, , , , , , 98, , , 37, 37, 37
37.7783112, -120.1185212, 16.700, 11:54:25.449, 20, 0.00, 0.12, 98, -0.200, -0.800, -93.700, 840, 100, 99, 24, 23904, -18235, 5399, 5510, 10, 14, 1526324065.449, 6, 0, 1024, 1024, 1024, 1024, 0, 6, 3961, 3956, 3997, 3982, 3997, 3979, 0, 1, 11206, -90.000, 0.000, -93.500, 0.000, 0.000, -2.900, 0.0, , , , , , 98, , , 37, 37, 37
37.7783112, -120.1185212, 16.900, 11:54:25.544, 20, 0.00, 0.13, 98, -0.300, -1.000, -93.600, 840, 100, 99, 24, 23904, -18235, 5399, 5510, 10, 14, 1526324065.544, 6, 0, 1024, 1024, 1024, 1024, 0, 6, 3961, 3956, 3997, 3982, 3997, 3979, 0, 1, 11301, -90.000, 0.000, -93.500, 0.000, 0.000, -2.900, 0.0, , , , , , 98, , , 37, 37, 37
37.7783112, -120.1185212, 16.900, 11:54:25.644, 20, 0.00, 0.13, 98, -0.300, -1.000, -93.600, 840, 100, 99, 24, 23904, -18235, 5399, 5510, 10, 14, 1526324065.644, 106, 0, 1024, 1024, 1024, 1024, 0, 6, 3961, 3956, 3997, 3982, 3997, 3979, 0, 1, 11401, -90.000, 0.000, -93.500, 0.000, 0.000, -2.900, 0.0, , , , , , 98, , , 37, 37, 37
37.7783113, -120.1185211, 17.200, 11:54:25.743, 20, 0.00, 0.13, 98, -0.500, -1.100, -93.500, 840, 100, 99, 24, 23904, -18235, 5399, 5510, 10, 14, 1526324065.743, 95, 0, 1024, 1024, 1024, 1024, 0, 6, 3961, 3956, 3997, 3982, 3997, 3979, 0, 1, 11501, -90.000, 0.000, -93.500, 0.000, 0.000, -2.900, 0.0, , , , , , 98, , , 37, 37, 37
37.7783113, -120.1185210, 17.500, 11:54:25.843, 20, 0.00, 0.14, 98, -0.600, -1.100, -93.500, 840, 100, 99, 24, 23904, -18235, 5399, 5510, 10, 14, 1526324065.844, 64, 0, 1024, 1024, 1024, 1024, 0, 6, 3961, 3956, 3997, 3982, 3997, 3979, 0, 1, 11601, -90.000, 0.000, -93.500, 0.000, 0.000, -2.900, 0.0, , , , , , 98, , , 37, 37, 37
37.7783113, -120.1185209, 17.800, 11:54:25.944, 20, 0.00, 0.15, 98, -0.600, -1.100, -93.500, 840, 100, 99, 24, 23904, -18235, 5399, 5510, 10, 14, 1526324065.944, 80, 0, 1024, 1024, 1024, 1024, 0, 6, 3961, 3956, 3997, 3982, 3997, 3979, 0, 1, 11701, -90.000, 0.000, -93.500, 0.000, 0.000, -2.900, 0.0, , , , , , 98, , , 37, 37, 37
37.7783113, -120.1185208, 18.200, 11:54:26.044, 20, 0.00, 0.15, 98, -0.400, -1.100, -93.600, 840, 100, 99, 24, 23887, -18172, 5399, 5510, 10, 14, 1526324066.044, 81, 0, 1024, 1024, 1024, 1024, 0, 6, 3966, 3961, 3996, 3978, 3995, 3989, 0, 1, 11802, -90.000, 0.000, -93.500, 0.000, 0.000, -3.000, 0.0, , , , , , 98, , , 37, 37, 37
37.7783113, -120.1185208, 18.500, 11:54:26.145, 20, 0.00, 0.16, 98, -0.400, -0.900, -93.700, 840, 100, 99, 24, 23887, -18172, 5399, 5510, 10, 14, 1526324066.146, 53, 0, 1024, 1024, 1024, 1024, 0, 6, 3966, 3961, 3996, 3978, 3995, 3989, 0, 1, 11904, -90.000, 0.000, -93.500, 0.000, 0.000, -2.900, 0.0, , , , , , 98, , , 37, 37, 37
37.7783113, -120.1185207, 18.700, 11:54:26.243, 20, 0.00, 0.16, 98, -0.300, -0.900, -93.800, 840, 100, 99, 24, 23887, -18172, 5399, 5510, 10, 14, 1526324066.244, 35, 0, 1024, 1024, 1024, 1024, 0, 6, 3966, 3961, 3996, 3978, 3995, 3989, 0, 1, 12001, -90.000, 0.000, -93.500, 0.000, 0.000, -2.900, 0.0, , , , , , 98, , , 37, 37, 37
37.7783113, -120.1185207, 19.100, 11:54:26.344, 20, 0.00, 0.16, 98, -0.200, -0.900, -93.900, 840, 100, 99, 24, 23887, -18172, 5399, 5510, 10, 14, 1526324066.345, 28, 0, 1024, 1024, 1024, 1024, 0, 6, 3966, 3961, 3996, 3978, 3995, 3989, 0, 1, 12102, -90.000, 0.000, -93.500, 0.000, 0.000, -2.900, 0.0, , , , , , 98, , , 37, 37, 37
37.7783113, -120.1185206, 19.400, 11:54:26.444, 20, 0.00, 0.17, 98, -0.200, -0.900, -94.000, 840, 100, 99, 24, 23887, -18172, 5399, 5510, 10, 14, 1526324066.445, 42, 0, 1024, 1024, 1024, 1024, 0, 6, 3966, 3961, 3996, 3978, 3995, 3989, 0, 1, 12202, -90.000, 0.000, -93.500, 0.000, 0.000, -3.000, 0.0, , , , , , 98, , , 37, 37, 37
37.7783113, -120.1185206, 19.700, 11:54:26.544, 20, 0.00, 0.17, 98, -0.400, -1.000, -93.900, 840, 100, 99, 24, 23887, -18172, 5399, 5510, 10, 14, 1526324066.544, 45, 0, 1024, 1024, 1024, 1024, 0, 6, 3966, 3961, 3996, 3978, 3995, 3989, 0, 1, 12301, -90.000, 0.000, -93.500, 0.000, 0.000, -2.900, 0.0, , , , , , 98, , , 37, 37, 37
37.7783113, -120.1185206, 20.000, 11:54:26.643, 20, 0.00, 0.17, 98, -0.600, -1.100, -93.900, 840, 100, 99, 24, 23887, -18172, 5399, 5510, 10, 14, 1526324066.644, 57, 0, 1024, 1024, 1024, 1024, 0, 6, 3966, 3961, 3996, 3978, 3995, 3989, 0, 1, 12401, -90.000, 0.000, -93.500, 0.000, 0.000, -2.900, 0.0, , , , , , 98, , , 37, 37, 37
37.7783113, -120.1185205, 20.300, 11:54:26.744, 20, 0.00, 0.17, 98, -0.400, -1.000, -93.800, 840, 100, 99, 24, 23887, -18172, 5399, 5510, 10, 14, 1526324066.744, 34, 0, 1024, 1024, 1024, 1024, 0, 6, 3966, 3961, 3996, 3978, 3995, 3989, 0, 1, 12502, -90.000, 0.000, -93.500, 0.000, 0.000, -2.900, 0.0, , , , , , 98, , , 37, 37, 37
37.7783113, -120.1185205, 20.600, 11:54:26.844, 20, 0.00, 0.17, 98, -0.200, -0.700, -93.800, 840, 100, 99, 24, 23887, -18172, 5399, 5510, 10, 14, 1526324066.844, 34, 0, 1024, 1024, 1024, 1024, 0, 6, 3966, 3961, 3996, 3978, 3995, 3989, 0, 1, 12601, -89.900, 0.000, -93.500, 0.000, 0.000, -2.900, 0.0, , , , , , 98, , , 37, 37, 37
37.7783113, -120.1185205, 20.900, 11:54:26.944, 20, 0.00, 0.17, 98, -0.200, -0.600, -93.800, 840, 100, 99, 24, 23862, -18127, 5399, 5510, 10, 14, 1526324066.945, 25, 0, 1024, 1024, 1024, 1024, 0, 6, 3966, 3961, 3996, 3978, 3995, 3989, 0, 1, 12702, -89.900, 0.000, -93.500, 0.000, 0.000, -2.900, 0.0, , , , , , 98, , , 37, 37, 37
37.7783113, -120.1185206, 21.400, 11:54:27.047, 20, 0.00, 0.17, 98, -0.100, -0.600, -93.800, 840, 100, 100, 24, 23862, -18127, 5399, 5510, 10, 14, 1526324067.048, 9, 0, 1024, 1024, 1024, 1024, 0, 6, 3966, 3961, 3996, 3978, 3995, 3989, 0, 1, 12805, -90.000, 0.000, -93.500, 0.000, 0.000, -2.900, 0.0, , , , , , 98, , , 37, 37, 37
37.7783112, -120.1185206, 21.700, 11:54:27.143, 20, 0.00, 0.18, 98, 0.000, -0.600, -93.800, 840, 100, 100, 24, 23862, -18127, 5399, 5510, 10, 14, 1526324067.143, 16, 0, 1024, 1024, 1024, 1024, 0, 6, 3966, 3961, 3996, 3978, 3995, 3989, 0, 1, 12901, -90.000, 0.000, -93.500, 0.000, 0.000, -2.900, 0.0, , , , , , 98, , , 37, 37, 37
37.7783112, -120.1185206, 22.000, 11:54:27.253, 20, 0.00, 0.18, 98, 0.100, -0.600, -93.800, 840, 100, 100, 24, 23862, -18127, 5399, 5510, 10, 14, 1526324067.254, 5, 0, 1024, 1024, 1024, 1024, 0, 6, 3966, 3961, 3996, 3978, 3995, 3989, 0, 1, 13011, -90.000, 0.000, -93.500, 0.000, 0.000, -2.900, 0.0, , , , , , 98, , , 37, 37, 37
37.7783112, -120.1185206, 22.000, 11:54:27.344, 20, 0.00, 0.18, 98, 0.100, -0.600, -93.800, 840, 100, 100, 24, 23862, -18127, 5399, 5510, 10, 14, 1526324067.345, 96, 0, 1024, 1024, 1024, 1024, 0, 6, 3966, 3961, 3996, 3978, 3995, 3989, 0, 1, 13102, -90.000, 0.000, -93.500, 0.000, 0.000, -2.900, 0.0, , , , , , 98, , , 37, 37, 37
37.7783112, -120.1185205, 22.300, 11:54:27.444, 20, 0.00, 0.18, 98, 0.100, -0.600, -93.800, 840, 100, 100, 24, 23862, -18127, 5399, 5510, 10, 14, 1526324067.444, 79, 0, 1024, 1024, 1024, 1024, 0, 6, 3966, 3961, 3996, 3978, 3995, 3989, 0, 1, 13202, -89.900, 0.000, -93.500, 0.000, 0.000, -2.900, 0.0, , , , , , 98, , , 37, 37, 37
37.7783112, -120.1185205, 22.900, 11:54:27.560, 20, 0.00, 0.18, 98, -0.100, -0.800, -93.700, 840, 100, 99, 24, 23862, -18127, 5399, 5510, 10, 14, 1526324067.561, 11, 0, 1024, 1024, 1024, 1024, 0, 6, 3958, 3952, 3991, 3978, 3992, 3970, 0, 1, 13318, -90.000, 0.000, -93.500, 0.000, 0.000, -3.000, 0.0, , , , , , 98, , , 37, 37, 37
37.7783112, -120.1185205, 22.900, 11:54:27.646, 20, 0.00, 0.18, 98, -0.100, -0.800, -93.700, 840, 100, 99, 24, 23862, -18127, 5399, 5510, 10, 14, 1526324067.646, 97, 0, 1024, 1024, 1024, 1024, 0, 6, 3958, 3952, 3991, 3978, 3992, 3970, 0, 1, 13403, -90.000, 0.000, -93.500, 0.000, 0.000, -3.000, 0.0, , , , , , 98, , , 37, 37, 37
37.7783112, -120.1185205, 23.200, 11:54:27.744, 20, 0.00, 0.18, 98, -0.300, -0.900, -93.700, 840, 100, 99, 24, 23862, -18127, 5399, 5510, 10, 14, 1526324067.744, 65, 0, 1024, 1024, 1024, 1024, 0, 6, 3958, 3952, 3991, 3978, 3992, 3970, 0, 1, 13502, -90.000, 0.000, -93.500, 0.000, 0.000, -3.000, 0.0, , , , , , 98, , , 37, 37, 37
37.7783112, -120.1185205, 23.200, 11:54:27.844, 20, 0.00, 0.18, 98, -0.300, -0.900, -93.700, 840, 100, 99, 24, 23862, -18127, 5399, 5510, 10, 14, 1526324067.844, 165, 0, 1024, 1024, 1024, 1024, 0, 6, 3958, 3952, 3991, 3978, 3992, 3970, 0, 1, 13602, -89.900, 0.000, -93.500, 0.000, 0.000, -3.000, 0.0, , , , , , 98, , , 37, 37, 37
37.7783113, -120.1185205, 23.800, 11:54:27.943, 20, 0.00, 0.17, 98, -0.900, -0.800, -93.700, 840, 100, 99, 24, 23862, -18127, 5399, 5510, 10, 14, 1526324067.944, 59, 0, 1024, 1024, 1024, 1024, 0, 6, 3958, 3952, 3991, 3978, 3992, 3970, 0, 1, 13701, -89.900, 0.000, -93.500, 0.000, 0.000, -3.000, 0.0, , , , , , 98, , , 37, 37, 37
37.7783114, -120.1185205, 24.100, 11:54:28.044, 20, 0.00, 0.17, 98, -1.100, -0.700, -93.700, 840, 100, 96, 24, 23862, -18127, 5399, 5510, 10, 14, 1526324068.044, 60, 0, 1024, 1024, 1024, 1024, 0, 6, 3958, 3952, 3991, 3978, 3992, 3970, 0, 1, 13802, -89.900, 0.000, -93.500, 0.000, 0.000, -3.000, 0.0, , , , , , 98, , , 37, 37, 37
37.7783114, -120.1185206, 24.400, 11:54:28.144, 20, 0.00, 0.17, 98, -1.200, -0.600, -93.800, 840, 100, 96, 24, 23862, -18127, 5399, 5510, 10, 14, 1526324068.145, 44, 0, 1024, 1024, 1024, 1024, 0, 6, 3958, 3952, 3991, 3978, 3992, 3970, 0, 1, 13902, -89.900, 0.000, -93.500, 0.000, 0.000, -2.900, 0.0, , , , , , 98, , , 37, 37, 37
37.7783114, -120.1185206, 24.800, 11:54:28.255, 20, 0.00, 0.17, 98, -1.200, -0.700, -93.800, 840, 100, 96, 24, 23862, -18127, 5399, 5510, 10, 14, 1526324068.256, 7, 0, 1024, 1024, 1024, 1024, 0, 6, 3958, 3952, 3991, 3978, 3992, 3970, 0, 1, 14013, -90.000, 0.000, -93.500, 0.000, 0.000, -3.000, 0.0, , , , , , 98, , , 37, 37, 37
37.7783114, -120.1185206, 24.800, 11:54:28.346, 20, 0.00, 0.17, 98, -1.200, -0.700, -93.800, 840, 100, 96, 24, 23862, -18127, 5399, 5510, 10, 14, 1526324068.347, 98, 0, 1024, 1024, 1024, 1024, 0, 6, 3958, 3952, 3991, 3978, 3992, 3970, 0, 1, 14104, -90.000, 0.000, -93.500, 0.000, 0.000, -3.000, 0.0, , , , , , 98, , , 37, 37, 37
37.7783114, -120.1185206, 25.100, 11:54:28.449, 20, 0.00, 0.17, 98, -1.100, -0.700, -93.800, 840, 100, 96, 24, 23862, -18127, 5399, 5510, 10, 14, 1526324068.449, 12, 0, 1024, 1024, 1024, 1024, 0, 6, 3958, 3952, 3991, 3978, 3992, 3970, 0, 1, 14206, -90.000, 0.000, -93.500, 0.000, 0.000, -3.000, 0.0, , , , , , 98, , , 37, 37, 37
37.7783115, -120.1185206, 25.400, 11:54:28.544, 20, 0.00, 0.17, 98, -1.000, -0.700, -93.800, 840, 100, 96, 24, 23801, -18223, 5399, 5510, 10, 14, 1526324068.544, 28, 0, 1024, 1024, 1024, 1024, 0, 6, 3958, 3952, 3991, 3978, 3992, 3970, 0, 1, 14301, -89.900, 0.000, -93.500, 0.000, 0.000, -2.900, 0.0, , , , , , 98, , , 37, 37, 37
37.7783115, -120.1185205, 25.700, 11:54:28.644, 20, 0.00, 0.17, 98, -1.000, -0.800, -93.800, 840, 100, 96, 24, 23801, -18223, 5399, 5510, 10, 14, 1526324068.645, 76, 0, 1024, 1024, 1024, 1024, 0, 6, 3949, 3942, 3992, 3966, 3987, 3965, 0, 1, 14402, -90.000, 0.000, -93.500, 0.000, 0.000, -3.000, 0.0, , , , , , 98, , , 37, 37, 37
37.7783115, -120.1185205, 25.700, 11:54:28.749, 20, 0.00, 0.17, 98, -1.000, -0.800, -93.800, 840, 100, 96, 24, 23801, -18223, 5399, 5510, 10, 14, 1526324068.749, 181, 0, 1024, 1024, 1024, 1024, 0, 6, 3949, 3942, 3992, 3966, 3987, 3965, 0, 1, 14506, -89.900, 0.000, -93.500, 0.000, 0.000, -3.000, 0.0, , , , , , 98, , , 37, 37, 37
37.7783115, -120.1185205, 25.700, 11:54:28.844, 20, 0.00, 0.17, 98, -1.000, -0.800, -93.800, 840, 100, 96, 24, 23801, -18223, 5399, 5510, 10, 14, 1526324068.845, 276, 0, 1024, 1024, 1024, 1024, 0, 6, 3949, 3942, 3992, 3966, 3987, 3965, 0, 1, 14602, -89.900, 0.000, -93.500, 0.000, 0.000, -3.000, 0.0, , , , , , 98, , , 37, 37, 37
37.7783115, -120.1185205, 26.200, 11:54:28.944, 20, 0.00, 0.17, 98, -1.100, -0.900, -93.800, 840, 100, 96, 24, 23801, -18223, 5399, 5510, 10, 14, 1526324068.945, 70, 0, 1024, 1024, 1024, 1024, 0, 6, 3949, 3942, 3992, 3966, 3987, 3965, 0, 1, 14702, -89.900, 0.000, -93.500, 0.000, 0.000, -2.900, 0.0, , , , , , 98, , , 37, 37, 37
37.7783116, -120.1185205, 26.600, 11:54:29.044, 20, 0.00, 0.17, 98, -1.000, -0.800, -93.800, 840, 100, 96, 24, 23801, -18223, 5399, 5510, 10, 14, 1526324069.044, 47, 0, 1024, 1024, 1024, 1024, 0, 6, 3949, 3942, 3992, 3966, 3987, 3965, 0, 1, 14801, -89.900, 0.000, -93.500, 0.000, 0.000, -3.000, 0.0, , , , , , 98, , , 37, 37, 37
37.7783116, -120.1185205, 26.900, 11:54:29.145, 20, 0.00, 0.17, 98, -1.100, -0.800, -93.900, 840, 100, 96, 24, 23801, -18223, 5399, 5510, 10, 14, 1526324069.146, 49, 0, 1024, 1024, 1024, 1024, 0, 6, 3949, 3942, 3992, 3966, 3987, 3965, 0, 1, 14903, -89.900, 0.000, -93.500, 0.000, 0.000, -3.000, 0.0, , , , , , 98, , , 37, 37, 37
37.7783116, -120.1185205, 26.900, 11:54:29.244, 20, 0.00, 0.17, 98, -1.100, -0.800, -93.900, 840, 100, 96, 24, 23801, -18223, 5399, 5510, 10, 14, 1526324069.244, 147, 0, 1024, 1024, 1024, 1024, 0, 6, 3949, 3942, 3992, 3966, 3987, 3965, 0, 1, 15001, -89.900, 0.000, -93.500, 0.000, 0.000, -3.000, 0.0, , , , , , 98, , , 37, 37, 37
37.7783117, -120.1185206, 27.700, 11:54:29.344, 20, 0.00, 0.16, 98, -1.300, -0.800, -94.000, 840, 100, 97, 24, 23801, -18223, 5399, 5510, 10, 14, 1526324069.345, 33, 0, 1024, 1024, 1024, 1024, 0, 6, 3949, 3942, 3992, 3966, 3987, 3965, 0, 1, 15102, -89.900, 0.000, -93.500, 0.000, 0.000, -2.900, 0.0, , , , , , 98, , , 37, 37, 37
37.7783117, -120.1185206, 28.000, 11:54:29.444, 20, 0.00, 0.16, 98, -1.300, -0.500, -94.000, 840, 100, 97, 24, 23801, -18223, 5399, 5510, 10, 14, 1526324069.444, 35, 0, 1024, 1024, 1024, 1024, 0, 6, 3949, 3942, 3992, 3966, 3987, 3965, 0, 1, 15202, -89.900, 0.000, -93.500, 0.000, 0.000, -2.900, 0.0, , , , , , 98, , , 37, 37, 37
37.7783117, -120.1185206, 28.600, 11:54:29.547, 20, 0.00, 0.16, 98, -1.500, -0.400, -94.000, 840, 100, 97, 24, 23861, -17554, 5344, 5510, 10, 14, 1526324069.548, 10, 0, 1024, 1024, 1024, 1024, 0, 6, 3949, 3942, 3992, 3966, 3987, 3965, 0, 1, 15305, -89.900, 0.000, -93.500, 0.000, 0.000, -2.900, 0.0, , , , , , 98, , , 37, 37, 37
37.7783117, -120.1185207, 28.900, 11:54:29.643, 20, 0.00, 0.16, 98, -1.800, -0.300, -94.100, 840, 100, 100, 24, 23861, -17554, 5344, 5510, 10, 14, 1526324069.644, 11, 0, 1024, 1024, 1024, 1024, 0, 6, 3961, 3958, 3989, 3979, 3993, 3978, 0, 1, 15402, -90.000, 0.000, -93.500, 0.000, 0.000, -3.000, 0.0, , , , , , 98, , , 37, 37, 37
37.7783117, -120.1185206, 29.200, 11:54:29.744, 20, 0.00, 0.16, 98, -1.600, -0.500, -94.100, 840, 100, 100, 24, 23861, -17554, 5344, 5510, 10, 14, 1526324069.745, 38, 0, 1024, 1024, 1024, 1024, 0, 6, 3961, 3958, 3989, 3979, 3993, 3978, 0, 1, 15502, -90.000, 0.000, -93.500, 0.000, 0.000, -3.000, 0.0, , , , , , 98, , , 37, 37, 37
37.7783117, -120.1185206, 29.500, 11:54:29.843, 20, 0.00, 0.16, 98, -1.100, -1.000, -93.900, 840, 100, 100, 24, 23861, -17554, 5344, 5510, 10, 14, 1526324069.844, 89, 0, 1024, 1024, 1024, 1024, 0, 6, 3961, 3958, 3989, 3979, 3993, 3978, 0, 1, 15601, -90.000, 0.000, -93.500, 0.000, 0.000, -2.900, 0.0, , , , , , 98, , , 37, 37, 37
37.7783117, -120.1185206, 29.800, 11:54:29.944, 20, 0.00, 0.17, 98, -0.700, -1.400, -93.700, 840, 100, 100, 24, 23861, -17554, 5344, 5510, 10, 14, 1526324069.944, 77, 0, 1024, 1024, 1024, 1024, 0, 6, 3961, 3958, 3989, 3979, 3993, 3978, 0, 1, 15701, -90.000, 0.000, -93.500, 0.000, 0.000, -3.000, 0.0, , , , , , 98, , , 37, 37, 37
37.7783117, -120.1185205, 30.100, 11:54:30.044, 20, 0.00, 0.17, 97, -0.600, -1.600, -93.500, 840, 100, 100, 24, 23861, -17554, 5344, 5510, 10, 14, 1526324070.045, 79, 0, 1024, 1024, 1024, 1024, 0, 6, 3961, 3958, 3989, 3979, 3993, 3978, 0, 1, 15802, -90.000, 0.000, -93.500, 0.000, 0.000, -3.000, 0.0, , , , , , 98, , , 37, 37, 37
37.7783117, -120.1185205, 30.500, 11:54:30.146, 20, 0.00, 0.17, 97, -0.600, -1.700, -93.400, 840, 100, 100, 24, 23861, -17554, 5344, 5510, 10, 14, 1526324070.147, 47, 0, 1024, 1024, 1024, 1024, 0, 6, 3961, 3958, 3989, 3979, 3993, 3978, 0, 1, 15905, -90.000, 0.000, -93.500, 0.000, 0.000, -2.900, 0.0, , , , , , 98, , , 37, 37, 37
37.7783118, -120.1185205, 30.800, 11:54:30.246, 20, 0.00, 0.17, 97, -0.600, -1.500, -93.400, 840, 100, 100, 24, 23861, -17554, 5344, 5510, 10, 14, 1526324070.247, 31, 0, 1024, 1024, 1024, 1024, 0, 6, 3961, 3958, 3989, 3979, 3993, 3978, 0, 1, 16004, -90.000, 0.000, -93.500, 0.000, 0.000, -2.900, 0.0, , , , , , 98, , , 37, 37, 37
37.7783118, -120.1185205, 31.100, 11:54:30.347, 20, 0.00, 0.17, 97, -0.800, -1.300, -93.300, 840, 100, 100, 24, 23861, -17554, 5344, 5510, 10, 14, 1526324070.347, 65, 0, 1024, 1024, 1024, 1024, 0, 6, 3961, 3958, 3989, 3979, 3993, 3978, 0, 1, 16104, -89.900, 0.000, -93.500, 0.000, 0.000, -2.900, 0.0, , , , , , 98, , , 37, 37, 37
37.7783118, -120.1185204, 31.400, 11:54:30.447, 20, 0.00, 0.18, 97, -1.200, -1.200, -93.300, 840, 100, 100, 24, 23807, -17545, 5344, 5510, 10, 14, 1526324070.447, 48, 0, 1024, 1024, 1024, 1024, 0, 6, 3951, 3946, 3986, 3973, 3984, 3970, 0, 1, 16205, -89.900, 0.000, -93.500, 0.000, 0.000, -2.900, 0.0, , , , , , 98, , , 37, 37, 37
37.7783118, -120.1185204, 31.400, 11:54:30.547, 20, 0.00, 0.18, 97, -1.200, -1.200, -93.300, 840, 100, 97, 24, 23807, -17545, 5344, 5510, 10, 14, 1526324070.548, 148, 0, 1024, 1024, 1024, 1024, 0, 6, 3951, 3946, 3986, 3973, 3984, 3970, 0, 1, 16305, -89.900, 0.000, -93.500, 0.000, 0.000, -2.900, 0.0, , , , , , 98, , , 37, 37, 37
37.7783120, -120.1185204, 32.000, 11:54:30.645, 20, 0.00, 0.18, 97, -1.800, -1.200, -93.400, 840, 100, 97, 24, 23807, -17545, 5344, 5510, 10, 14, 1526324070.647, 27, 0, 1024, 1024, 1024, 1024, 0, 6, 3951, 3946, 3986, 3973, 3984, 3970, 0, 1, 16404, -89.900, 0.000, -93.500, 0.000, 0.000, -2.900, 0.0, , , , , , 98, , , 37, 37, 37
37.7783120, -120.1185204, 32.300, 11:54:30.743, 20, 0.00, 0.18, 97, -2.000, -1.300, -93.500, 840, 100, 97, 24, 23807, -17545, 5344, 5510, 10, 14, 1526324070.748, 34, 0, 1024, 1024, 1024, 1024, 0, 6, 3951, 3946, 3986, 3973, 3984, 3970, 0, 1, 16505, -89.900, 0.000, -93.500, 0.000, 0.000, -2.900, 0.0, , , , , , 98, , , 37, 37, 37
37.7783121, -120.1185204, 32.600, 11:54:30.848, 20, 0.00, 0.18, 97, -2.400, -1.300, -93.500, 840, 100, 97, 24, 23807, -17545, 5344, 5510, 10, 14, 1526324070.849, 26, 0, 1024, 1024, 1024, 1024, 0, 6, 3951, 3946, 3986, 3973, 3984, 3970, 0, 1, 16607, -90.000, 0.000, -93.500, 0.000, 0.000, -2.900, 0.0, , , , , , 98, , , 37, 37, 37
37.7783121, -120.1185204, 32.600, 11:54:30.944, 20, 0.00, 0.18, 97, -2.400, -1.300, -93.500, 840, 100, 97, 24, 23807, -17545, 5344, 5510, 10, 14, 1526324070.946, 122, 0, 1024, 1024, 1024, 1024, 0, 6, 3951, 3946, 3986, 3973, 3984, 3970, 0, 1, 16703, -90.000, 0.000, -93.500, 0.000, 0.000, -2.900, 0.0, , , , , , 98, , , 37, 37, 37
37.7783123, -120.1185203, 33.200, 11:54:31.045, 20, 0.00, 0.19, 97, -2.800, -1.400, -93.600, 840, 100, 96, 24, 23807, -17545, 5344, 5510, 10, 14, 1526324071.046, 30, 0, 1024, 1024, 1024, 1024, 0, 6, 3951, 3946, 3986, 3973, 3984, 3970, 0, 1, 16803, -90.000, 0.000, -93.500, 0.000, 0.000, -2.900, 0.0, , , , , , 98, , , 37, 37, 37
37.7783123, -120.1185203, 33.200, 11:54:31.149, 20, 0.00, 0.19, 97, -2.800, -1.400, -93.600, 840, 100, 96, 24, 23807, -17545, 5344, 5510, 10, 14, 1526324071.153, 137, 0, 1024, 1024, 1024, 1024, 0, 6, 3951, 3946, 3986, 3973, 3984, 3970, 0, 1, 16910, -90.000, 0.000, -93.500, 0.000, 0.000, -2.900, 0.0, , , , , , 98, , , 37, 37, 37
37.7783124, -120.1185203, 33.700, 11:54:31.244, 20, 0.00, 0.20, 97, -2.800, -1.600, -93.600, 840, 100, 96, 24, 23807, -17545, 5344, 5510, 10, 14, 1526324071.248, 31, 0, 1024, 1024, 1024, 1024, 0, 6, 3951, 3946, 3986, 3973, 3984, 3970, 0, 1, 17005, -90.000, 0.000, -93.500, 0.000, 0.000, -2.900, 0.0, , , , , , 98, , , 37, 37, 37
37.7783124, -120.1185203, 33.700, 11:54:31.346, 20, 0.00, 0.20, 97, -2.800, -1.600, -93.600, 840, 100, 96, 24, 23807, -17545, 5344, 5510, 10, 14, 1526324071.347, 130, 0, 1024, 1024, 1024, 1024, 0, 6, 3951, 3946, 3986, 3973, 3984, 3970, 0, 1, 17104, -90.000, 0.000, -93.500, 0.000, 0.000, -2.900, 0.0, , , , , , 98, , , 37, 37, 37
37.7783124, -120.1185203, 33.700, 11:54:31.444, 20, 0.00, 0.20, 97, -2.800, -1.600, -93.600, 840, 100, 96, 24, 23807, -17545, 5344, 5510, 10, 14, 1526324071.447, 230, 0, 1024, 1024, 1024, 1024, 0, 6, 3951, 3946, 3986, 3973, 3984, 3970, 0, 1, 17205, -90.000, 0.000, -93.500, 0.000, 0.000, -2.900, 0.0, , , , , , 98, , , 37, 37, 37
37.7783126, -120.1185201, 34.300, 11:54:31.544, 20, 0.00, 0.22, 97, -3.000, -2.200, -93.600, 840, 100, 96, 24, 23807, -17545, 5344, 5510, 10, 14, 1526324071.547, 58, 0, 1024, 1024, 1024, 1024, 0, 6, 3951, 3946, 3986, 3973, 3984, 3970, 0, 1, 17305, -90.000, 0.000, -93.500, 0.000, 0.000, -2.900, 0.0, , , , , , 98, , , 37, 37, 37
37.7783126, -120.1185201, 34.600, 11:54:31.644, 20, 0.00, 0.23, 97, -3.000, -2.200, -93.700, 840, 100, 96, 24, 23750, -17952, 5344, 5510, 10, 14, 1526324071.646, 43, 0, 1024, 1024, 1024, 1024, 0, 6, 3951, 3946, 3986, 3973, 3984, 3970, 0, 1, 17403, -89.900, 0.000, -93.500, 0.000, 0.000, -3.000, 0.0, , , , , , 98, , , 37, 37, 37
37.7783126, -120.1185201, 34.600, 11:54:31.744, 20, 0.00, 0.23, 97, -3.000, -2.200, -93.700, 840, 100, 96, 24, 23750, -17952, 5344, 5510, 10, 14, 1526324071.745, 142, 0, 1024, 1024, 1024, 1024, 0, 6, 3936, 3934, 3981, 3964, 3979, 3955, 0, 1, 17502, -89.900, 0.000, -93.500, 0.000, 0.000, -3.000, 0.0, , , , , , 98, , , 37, 37, 37
37.7783126, -120.1185200, 34.900, 11:54:31.848, 20, 0.00, 0.23, 97, -2.700, -2.200, -93.700, 840, 100, 97, 24, 23750, -17952, 5344, 5510, 10, 14, 1526324071.849, 68, 0, 1024, 1024, 1024, 1024, 0, 6, 3936, 3934, 3981, 3964, 3979, 3955, 0, 1, 17606, -90.000, 0.000, -93.500, 0.000, 0.000, -2.900, 0.0, , , , , , 98, , , 37, 37, 37
37.7783127, -120.1185200, 35.200, 11:54:31.947, 20, 0.00, 0.24, 97, -2.300, -2.100, -93.800, 840, 100, 97, 24, 23750, -17952, 5344, 5510, 10, 14, 1526324071.948, 66, 0, 1024, 1024, 1024, 1024, 0, 6, 3936, 3934, 3981, 3964, 3979, 3955, 0, 1, 17705, -89.900, 0.000, -93.500, 0.000, 0.000, -2.900, 0.0, , , , , , 98, , , 37, 37, 37
37.7783128, -120.1185200, 35.800, 11:54:32.047, 20, 0.00, 0.24, 97, -2.500, -1.800, -94.000, 840, 100, 97, 24, 23750, -17952, 5344, 5510, 10, 14, 1526324072.048, 12, 0, 1024, 1024, 1024, 1024, 0, 6, 3936, 3934, 3981, 3964, 3979, 3955, 0, 1, 17805, -89.900, 0.000, -93.500, 0.000, 0.000, -2.900, 0.0, , , , , , 98, , , 37, 37, 37
37.7783128, -120.1185200, 35.800, 11:54:32.145, 20, 0.00, 0.24, 97, -2.500, -1.800, -94.000, 840, 100, 97, 24, 23750, -17952, 5344, 5510, 10, 14, 1526324072.146, 110, 0, 1024, 1024, 1024, 1024, 0, 6, 3936, 3934, 3981, 3964, 3979, 3955, 0, 1, 17903, -89.900, 0.000, -93.500, 0.000, 0.000, -2.900, 0.0, , , , , , 98, , , 37, 37, 37
37.7783128, -120.1185200, 36.100, 11:54:32.245, 20, 0.00, 0.24, 97, -2.500, -1.700, -94.000, 840, 100, 95, 24, 23750, -17952, 5344, 5510, 10, 14, 1526324072.246, 27, 0, 1024, 1024, 1024, 1024, 0, 6, 3936, 3934, 3981, 3964, 3979, 3955, 0, 1, 18003, -89.900, 0.000, -93.500, 0.000, 0.000, -2.900, 0.0, , , , , , 98, , , 37, 37, 37
37.7783128, -120.1185200, 36.400, 11:54:32.348, 20, 0.00, 0.24, 97, -2.500, -1.600, -93.900, 840, 100, 95, 24, 23750, -17952, 5344, 5510, 10, 14, 1526324072.349, 33, 0, 1024, 1024, 1024, 1024, 0, 6, 3936, 3934, 3981, 3964, 3979, 3955, 0, 1, 18106, -89.900, 0.000, -93.500, 0.000, 0.000, -2.900, 0.0, , , , , , 98, , , 37, 37, 37
37.7783128, -120.1185200, 36.700, 11:54:32.447, 20, 0.00, 0.24, 97, -2.400, -1.400, -93.900, 840, 100, 95, 24, 23750, -17952, 5344, 5510, 10, 14, 1526324072.448, 17, 0, 1024, 1024, 1024, 1024, 0, 6, 3936, 3934, 3981, 3964, 3979, 3955, 0, 1, 18205, -89.900, 0.000, -93.500, 0.000, 0.000, -2.900, 0.0, , , , , , 98, , , 37, 37, 37
37.7783128, -120.1185201, 37.000, 11:54:32.547, 20, 0.00, 0.24, 97, -2.200, -1.300, -93.800, 840, 100, 95, 24, 23750, -17952, 5344, 5510, 10, 14, 1526324072.548, 11, 0, 1024, 1024, 1024, 1024, 0, 6, 3936, 3934, 3981, 3964, 3979, 3955, 0, 1, 18305, -89.900, 0.000, -93.500, 0.000, 0.000, -2.900, 0.0, , , , , , 98, , , 37, 37, 37
37.7783128, -120.1185201, 37.200, 11:54:32.646, 20, 0.00, 0.23, 97, -2.200, -1.100, -93.700, 840, 100, 95, 24, 23739, -18070, 5344, 5510, 10, 14, 1526324072.647, 32, 0, 1024, 1024, 1024, 1024, 0, 6, 3936, 3934, 3981, 3964, 3979, 3955, 0, 1, 18405, -89.900, 0.000, -93.500, 0.000, 0.000, -2.900, 0.0, , , , , , 98, , , 37, 37, 37
37.7783128, -120.1185201, 37.500, 11:54:32.746, 20, 0.00, 0.23, 97, -2.100, -0.900, -93.600, 840, 100, 95, 24, 23739, -18070, 5344, 5510, 10, 14, 1526324072.746, 51, 0, 1024, 1024, 1024, 1024, 0, 6, 3936, 3934, 3981, 3964, 3979, 3955, 0, 1, 18504, -89.900, 0.000, -93.500, 0.000, 0.000, -2.900, 0.0, , , , , , 98, , , 37, 37, 37
37.7783128, -120.1185202, 37.800, 11:54:32.852, 20, 0.00, 0.23, 97, -1.800, -0.800, -93.500, 840, 100, 95, 24, 23739, -18070, 5344, 5510, 10, 14, 1526324072.853, 8, 0, 1024, 1024, 1024, 1024, 0, 6, 3936, 3934, 3981, 3964, 3979, 3955, 0, 1, 18610, -89.900, 0.000, -93.500, 0.000, 0.000, -2.900, 0.0, , , , , , 98, , , 37, 37, 37
37.7783128, -120.1185202, 38.100, 11:54:32.946, 20, 0.00, 0.22, 97, -1.900, -0.800, -93.500, 840, 100, 95, 24, 23739, -18070, 5344, 5510, 10, 14, 1526324072.947, 35, 0, 1024, 1024, 1024, 1024, 0, 6, 3936, 3934, 3981, 3964, 3979, 3955, 0, 1, 18705, -89.900, 0.000, -93.500, 0.000, 0.000, -3.000, 0.0, , , , , , 98, , , 37, 37, 37
37.7783128, -120.1185202, 38.400, 11:54:33.046, 20, 0.00, 0.22, 97, -2.000, -0.700, -93.500, 840, 100, 95, 24, 23739, -18070, 5344, 5510, 10, 14, 1526324073.047, 21, 0, 1024, 1024, 1024, 1024, 0, 6, 3936, 3934, 3981, 3964, 3979, 3955, 0, 1, 18804, -89.900, 0.000, -93.500, 0.000, 0.000, -3.000, 0.0, , , , , , 98, , , 37, 37, 37
37.7783128, -120.1185202, 38.400, 11:54:33.158, 20, 0.00, 0.22, 97, -2.000, -0.700, -93.500, 840, 100, 95, 24, 23739, -18070, 5344, 5510, 10, 14, 1526324073.158, 132, 0, 1024, 1024, 1024, 1024, 0, 6, 3936, 3934, 3981, 3964, 3979, 3955, 0, 1, 18915, -89.900, 0.000, -93.500, 0.000, 0.000, -3.000, 0.0, , , , , , 98, , , 37, 37, 37
37.7783128, -120.1185203, 38.700, 11:54:33.244, 20, 0.00, 0.22, 97, -2.200, -1.000, -93.400, 840, 100, 95, 24, 23739, -18070, 5344, 5510, 10, 14, 1526324073.244, 46, 0, 1024, 1024, 1024, 1024, 0, 6, 3936, 3934, 3981, 3964, 3979, 3955, 0, 1, 19002, -89.900, 0.000, -93.500, 0.000, 0.000, -3.100, 0.0, , , , , , 98, , , 37, 37, 37
37.7783128, -120.1185203, 39.000, 11:54:33.346, 20, 0.00, 0.22, 97, -2.500, -1.300, -93.400, 840, 100, 94, 24, 23739, -18070, 5344, 5510, 10, 14, 1526324073.347, 31, 0, 1024, 1024, 1024, 1024, 0, 6, 3936, 3934, 3981, 3964, 3979, 3955, 0, 1, 19104, -89.900, 0.000, -93.500, 0.000, 0.000, -3.100, 0.0, , , , , , 98, , , 37, 37, 37
37.7783128, -120.1185203, 39.000, 11:54:33.444, 20, 0.00, 0.22, 97, -2.500, -1.300, -93.400, 840, 100, 94, 24, 23739, -18070, 5344, 5510, 10, 14, 1526324073.445, 128, 0, 1024, 1024, 1024, 1024, 0, 6, 3936, 3934, 3981, 3964, 3979, 3955, 0, 1, 19202, -89.900, 0.000, -93.500, 0.000, 0.000, -3.100, 0.0, , , , , , 98, , , 37, 37, 37
37.7783128, -120.1185203, 39.000, 11:54:33.544, 20, 0.00, 0.22, 97, -2.500, -1.300, -93.400, 840, 100, 94, 24, 23739, -18070, 5344, 5510, 10, 14, 1526324073.544, 228, 0, 1024, 1024, 1024, 1024, 0, 6, 3936, 3934, 3981, 3964, 3979, 3955, 0, 1, 19301, -89.900, 0.000, -93.500, 0.000, 0.000, -3.100, 0.0, , , , , , 98, , , 37, 37, 37
37.7783129, -120.1185204, 40.000, 11:54:33.644, 20, 0.00, 0.22, 97, -3.300, -1.300, -93.700, 840, 100, 94, 24, 23739, -18070, 5344, 5510, 10, 14, 1526324073.644, 30, 0, 1024, 1024, 1024, 1024, 0, 6, 3936, 3934, 3981, 3964, 3979, 3955, 0, 1, 19402, -89.900, 0.000, -93.500, 0.000, 0.000, -3.000, 0.0, , , , , , 98, , , 37, 37, 37
37.7783129, -120.1185204, 40.300, 11:54:33.744, 20, 0.00, 0.22, 97, -3.400, -1.200, -94.000, 840, 100, 94, 24, 23739, -18070, 5344, 5510, 10, 14, 1526324073.744, 97, 0, 1024, 1024, 1024, 1024, 0, 6, 3928, 3934, 3978, 3954, 3975, 3958, 0, 1, 19502, -89.900, 0.000, -93.500, 0.000, 0.000, -3.000, 0.0, , , , , , 98, , , 37, 37, 37
37.7783129, -120.1185206, 40.900, 11:54:33.848, 20, 0.00, 0.21, 97, -2.600, -0.400, -94.200, 840, 100, 96, 24, 23739, -18070, 5344, 5510, 10, 14, 1526324073.848, 13, 0, 1024, 1024, 1024, 1024, 0, 6, 3928, 3934, 3978, 3954, 3975, 3958, 0, 1, 19605, -89.900, 0.000, -93.500, 0.000, 0.000, -2.900, 0.0, , , , , , 98, , , 37, 37, 37
37.7783129, -120.1185206, 41.100, 11:54:33.948, 20, 0.00, 0.20, 97, -2.100, -0.100, -94.000, 840, 100, 96, 24, 23739, -18070, 5344, 5510, 10, 14, 1526324073.949, 50, 0, 1024, 1024, 1024, 1024, 0, 6, 3928, 3934, 3978, 3954, 3975, 3958, 0, 1, 19706, -89.900, 0.000, -93.500, 0.000, 0.000, -2.900, 0.0, , , , , , 98, , , 37, 37, 37
37.7783129, -120.1185207, 41.700, 11:54:34.044, 20, 0.00, 0.19, 97, -2.200, -0.400, -93.700, 840, 100, 96, 24, 23739, -18070, 5344, 5510, 10, 14, 1526324074.044, 63, 0, 1024, 1024, 1024, 1024, 0, 6, 3928, 3934, 3978, 3954, 3975, 3958, 0, 1, 19801, -89.900, 0.000, -93.500, 0.000, 0.000, -3.000, 0.0, , , , , , 98, , , 37, 37, 37
37.7783129, -120.1185208, 42.000, 11:54:34.144, 20, 0.00, 0.19, 97, -2.500, -0.500, -93.600, 840, 100, 96, 24, 23587, -19555, 5344, 5510, 10, 14, 1526324074.144, 51, 0, 1024, 1024, 1024, 1024, 0, 6, 3915, 3907, 3955, 3927, 3945, 3931, 0, 1, 19901, -89.900, 0.000, -93.500, 0.000, 0.000, -3.000, 0.0, , , , , , 98, , , 37, 37, 37
37.7783129, -120.1185208, 42.000, 11:54:34.247, 20, 0.00, 0.19, 97, -2.500, -0.500, -93.600, 840, 100, 96, 24, 23587, -19555, 5344, 5510, 10, 14, 1526324074.247, 154, 0, 1024, 1024, 1024, 1024, 0, 6, 3915, 3907, 3955, 3927, 3945, 3931, 0, 1, 20004, -89.900, 0.000, -93.500, 0.000, 0.000, -3.000, 0.0, , , , , , 98, , , 37, 37, 37
37.7783129, -120.1185208, 42.300, 11:54:34.344, 20, 0.00, 0.19, 97, -2.900, -0.600, -93.600, 840, 100, 94, 24, 23587, -19555, 5344, 5510, 10, 14, 1526324074.345, 45, 0, 1024, 1024, 1024, 1024, 0, 6, 3915, 3907, 3955, 3927, 3945, 3931, 0, 1, 20102, -89.900, 0.000, -93.500, 0.000, 0.000, -3.000, 0.0, , , , , , 98, , , 37, 37, 37
37.7783129, -120.1185208, 42.300, 11:54:34.444, 20, 0.00, 0.19, 97, -2.900, -0.600, -93.600, 840, 100, 94, 24, 23587, -19555, 5344, 5510, 10, 14, 1526324074.445, 146, 0, 1024, 1024, 1024, 1024, 0, 6, 3915, 3907, 3955, 3927, 3945, 3931, 0, 1, 20202, -89.900, 0.000, -93.500, 0.000, 0.000, -3.000, 0.0, , , , , , 98, , , 37, 37, 37
37.7783129, -120.1185208, 42.300, 11:54:34.548, 20, 0.00, 0.19, 97, -2.900, -0.600, -93.600, 840, 100, 94, 24, 23587, -19555, 5344, 5510, 10, 14, 1526324074.548, 249, 0, 1024, 1024, 1024, 1024, 0, 6, 3915, 3907, 3955, 3927, 3945, 3931, 0, 1, 20305, -89.900, 0.000, -93.500, 0.000, 0.000, -3.000, 0.0, , , , , , 98, , , 37, 37, 37
37.7783128, -120.1185209, 43.200, 11:54:34.648, 20, 0.00, 0.18, 97, -2.600, -0.600, -93.700, 840, 100, 94, 24, 23587, -19555, 5344, 5510, 10, 14, 1526324074.649, 62, 0, 1024, 1024, 1024, 1024, 0, 6, 3915, 3907, 3955, 3927, 3945, 3931, 0, 1, 20406, -89.900, 0.000, -93.500, 0.000, 0.000, -2.900, 0.0, , , , , , 98, , , 37, 37, 37
37.7783127, -120.1185209, 43.500, 11:54:34.745, 20, 0.00, 0.17, 97, -2.200, -0.300, -93.700, 840, 100, 95, 24, 23587, -19555, 5344, 5510, 10, 14, 1526324074.746, 66, 0, 1024, 1024, 1024, 1024, 0, 6, 3915, 3907, 3955, 3927, 3945, 3931, 0, 1, 20504, -89.900, 0.000, -93.500, 0.000, 0.000, -3.000, 0.0, , , , , , 98, , , 37, 37, 37
37.7783127, -120.1185209, 43.800, 11:54:34.845, 20, 0.00, 0.17, 97, -1.900, -0.300, -93.600, 840, 100, 95, 24, 23587, -19555, 5344, 5510, 10, 14, 1526324074.845, 18, 0, 1024, 1024, 1024, 1024, 0, 6, 3915, 3907, 3955, 3927, 3945, 3931, 0, 1, 20602, -89.900, 0.000, -93.500, 0.000, 0.000, -3.000, 0.0, , , , , , 98, , , 37, 37, 37
37.7783127, -120.1185209, 44.200, 11:54:34.948, 20, 0.00, 0.16, 97, -2.000, -0.500, -93.600, 840, 100, 95, 24, 23587, -19555, 5344, 5510, 10, 14, 1526324074.949, 16, 0, 1024, 1024, 1024, 1024, 0, 6, 3915, 3907, 3955, 3927, 3945, 3931, 0, 1, 20706, -89.900, 0.000, -93.500, 0.000, 0.000, -3.000, 0.0, , , , , , 98, , , 37, 37, 37
37.7783127, -120.1185209, 44.500, 11:54:35.047, 20, 0.00, 0.16, 97, -2.400, -0.900, -93.500, 840, 100, 95, 24, 23587, -19555, 5344, 5510, 10, 14, 1526324075.048, 12, 0, 1024, 1024, 1024, 1024, 0, 6, 3915, 3907, 3955, 3927, 3945, 3931, 0, 1, 20805, -89.900, 0.000, -93.500, 0.000, 0.000, -3.000, 0.0, , , , , , 98, , , 37, 37, 37
37.7783127, -120.1185209, 44.500, 11:54:35.145, 20, 0.00, 0.16, 97, -2.400, -0.900, -93.500, 840, 100, 95, 24, 23587, -19555, 5344, 5510, 10, 14, 1526324075.146, 110, 0, 1024, 1024, 1024, 1024, 0, 6, 3915, 3907, 3955, 3927, 3945, 3931, 0, 1, 20903, -89.900, 0.000, -93.500, 0.000, 0.000, -3.000, 0.0, , , , , , 98, , , 37, 37, 37
