Latitude, Longitude, Altitude (m), Time, Sats, Speed (m/s), Range (m), Battery (%), Roll (deg), Pitch (deg), Yaw (deg), Images, HD Signal (%), RC Signal (%), Battery Temp (C), Battery Voltage (mV), Battery Current (mA), Battery Energy (mAh), Battery Capacity (mAh), Battery Discharges, flyState, timestamp (Unix), LastUpdate (ms), radioChannel, Rc_elevator, Rc_aileron, Rc_throttle, Rc_rudder, Rc_gyro, Dronetype, Battery_Cell1 (mV), Battery_Cell2 (mV), Battery_Cell3 (mV), Battery_Cell4 (mV), Battery_Cell5 (mV), Battery_Cell6 (mV), Video, isFlying, elapsedTime (ms), gimbalPitch (deg), gimbalRoll (deg), gimbalYaw (deg), VelocityX (m/s), VelocityY (m/s), VelocityZ (m/s), GroundSmear (cm), App Version, Aircraft Name, Aircraft Firmware, Aircraft Serial Number, Battery Serial Number, Battery Lifetime (%), App_Tip, App_Warning, CurrentFlightStartingIndex, CurrentFlightLastVisitedWaypoint, PreviousFlightEndingWaypointIndex
38.5226935, -120.3275403, 0.000, 14:30:34.273, 10, 0.00, 0.02, 98, 1.300, 0.800, 133.600, 1262, 100, 100, 32, 25646, -2812, 5018, 5121, 17, 11, 1529443834.273, 30, 0, 1024, 1024, 1024, 1024, 0, 6, 4305, 4197, 4302, 4307, 4296, 4261, 0, 1, 3004, -89.900, 0.000, 133.300, 0.000, 0.000, 0.000, 0.0, MapPilot_2.8.1_04242018, Dendroctonus I, 1.3.1.00, 041DDC1887, 1058171200154, 96, DJI_0260.jpg, Starting Mission from Lat/Long: 38.52269/-120.32754 Camera: Zenmuse X3 - Overlap: 90/90 - Active Connection: No, 47, 47, 47
38.5226935, -120.3275403, 0.000, 14:30:34.369, 10, 0.00, 0.02, 98, 0.900, 0.800, 133.700, 1262, 100, 100, 32, 25599, -3366, 5018, 5121, 17, 11, 1529443834.369, 11, 0, 1024, 1024, 1024, 1024, 0, 6, 4305, 4197, 4302, 4307, 4296, 4261, 0, 1, 3100, -89.900, 0.000, 133.300, 0.000, 0.000, -0.200, 0.0, , , , , , 96, , , 47, 47, 47
38.5226935, -120.3275404, 0.000, 14:30:34.468, 10, 0.00, 0.02, 98, 0.500, 0.300, 133.800, 1262, 100, 100, 32, 25599, -3366, 5018, 5121, 17, 11, 1529443834.469, 27, 0, 1024, 1024, 1024, 1024, 0, 6, 4305, 4197, 4302, 4307, 4296, 4261, 0, 1, 3200, -89.900, 0.000, 133.300, 0.000, 0.000, -0.300, 0.0, , , , , , 96, , , 47, 47, 47
38.5226934, -120.3275405, 0.000, 14:30:34.568, 10, 0.00, 0.03, 98, 0.000, 0.200, 133.900, 1262, 100, 100, 32, 25599, -3366, 5018, 5121, 17, 11, 1529443834.569, 16, 0, 1024, 1024, 1024, 1024, 0, 6, 4305, 4197, 4302, 4307, 4296, 4261, 0, 1, 3300, -89.900, 0.000, 133.300, 0.000, 0.000, -0.400, 0.0, , , , , , 96, , , 47, 47, 47
38.5226935, -120.3275405, 0.000, 14:30:34.669, 10, 0.00, 0.03, 98, 0.000, 0.000, 133.900, 1262, 100, 100, 32, 25599, -3366, 5018, 5121, 17, 11, 1529443834.669, 8, 0, 1024, 1024, 1024, 1024, 0, 6, 4305, 4197, 4302, 4307, 4296, 4261, 0, 1, 3401, -89.900, 0.000, 133.300, 0.000, 0.000, -0.400, 0.0, , , , , , 96, , , 47, 47, 47
38.5226935, -120.3275405, 0.100, 14:30:34.769, 10, 0.00, 0.03, 98, 0.500, 0.100, 133.800, 1262, 100, 100, 32, 25599, -3366, 5018, 5121, 17, 11, 1529443834.770, 2, 0, 1024, 1024, 1024, 1024, 0, 6, 4265, 4261, 4262, 4263, 4284, 4241, 0, 1, 3501, -89.900, 0.000, 133.300, 0.000, 0.000, -0.400, 0.0, , , , , , 96, , , 47, 47, 47
38.5226935, -120.3275406, 0.100, 14:30:34.869, 10, 0.00, 0.04, 98, 0.300, 0.000, 133.700, 1262, 100, 100, 32, 25599, -3366, 5018, 5121, 17, 11, 1529443834.869, 8, 0, 1024, 1024, 1024, 1024, 0, 6, 4265, 4261, 4262, 4263, 4284, 4241, 0, 1, 3600, -89.900, 0.000, 133.300, 0.000, 0.000, -0.400, 0.0, , , , , , 96, , , 47, 47, 47
38.5226935, -120.3275406, 0.200, 14:30:34.969, 11, 0.00, 0.04, 98, 0.000, -0.300, 133.600, 1262, 100, 100, 32, 25599, -3366, 5018, 5121, 17, 11, 1529443834.969, 3, 0, 1024, 1024, 1024, 1024, 0, 6, 4265, 4261, 4262, 4263, 4284, 4241, 0, 1, 3700, -89.900, 0.000, 133.300, 0.000, 0.000, -0.400, 0.0, , , , , , 96, , , 47, 47, 47
38.5226935, -120.3275406, 0.200, 14:30:35.068, 11, 0.00, 0.04, 98, 0.000, -0.300, 133.600, 1262, 100, 100, 32, 25599, -3366, 5018, 5121, 17, 11, 1529443835.069, 103, 0, 1024, 1024, 1024, 1024, 0, 6, 4265, 4261, 4262, 4263, 4284, 4241, 0, 1, 3800, -89.900, 0.000, 133.300, 0.000, 0.000, -0.400, 0.0, , , , , , 96, , , 47, 47, 47
38.5226936, -120.3275405, 0.200, 14:30:35.169, 11, 0.00, 0.04, 98, 0.000, -0.300, 133.600, 1262, 100, 100, 32, 25599, -3366, 5018, 5121, 17, 11, 1529443835.170, 80, 0, 1024, 1024, 1024, 1024, 0, 6, 4265, 4261, 4262, 4263, 4284, 4241, 0, 1, 3901, -89.900, 0.000, 133.300, 0.000, 0.000, -0.400, 0.0, , , , , , 96, , , 47, 47, 47
38.5226936, -120.3275404, 0.300, 14:30:35.268, 11, 0.00, 0.03, 98, 0.200, -0.300, 133.500, 1262, 100, 100, 32, 25599, -3366, 5018, 5121, 17, 11, 1529443835.269, 69, 0, 1024, 1024, 1024, 1024, 0, 6, 4265, 4261, 4262, 4263, 4284, 4241, 0, 1, 4000, -89.900, 0.000, 133.300, 0.000, 0.000, -0.400, 0.0, , , , , , 96, , , 47, 47, 47
38.5226935, -120.3275404, 0.300, 14:30:35.369, 11, 0.00, 0.03, 98, 0.400, -0.200, 133.400, 1262, 100, 100, 32, 25599, -3366, 5018, 5121, 17, 11, 1529443835.369, 71, 0, 1024, 1024, 1024, 1024, 0, 6, 4265, 4261, 4262, 4263, 4284, 4241, 0, 1, 4100, -89.900, 0.000, 133.300, 0.000, 0.000, -0.400, 0.0, , , , , , 96, , , 47, 47, 47
38.5226935, -120.3275403, 0.400, 14:30:35.469, 12, 0.00, 0.02, 98, 0.600, 0.000, 133.400, 1262, 100, 100, 32, 25599, -3366, 5018, 5121, 17, 11, 1529443835.469, 74, 0, 1024, 1024, 1024, 1024, 0, 6, 4265, 4261, 4262, 4263, 4284, 4241, 0, 1, 4200, -89.900, 0.000, 133.300, 0.000, 0.000, -0.500, 0.0, , , , , , 96, , , 47, 47, 47
38.5226935, -120.3275401, 0.400, 14:30:35.569, 12, 0.00, 0.02, 98, 0.600, 0.000, 133.400, 1262, 100, 100, 32, 25599, -3366, 5018, 5121, 17, 11, 1529443835.569, 69, 0, 1024, 1024, 1024, 1024, 0, 6, 4265, 4261, 4262, 4263, 4284, 4241, 0, 1, 4300, -89.900, 0.000, 133.300, 0.000, 0.000, -0.500, 0.0, , , , , , 96, , , 47, 47, 47
38.5226934, -120.3275399, 0.500, 14:30:35.669, 11, 0.00, 0.03, 98, 0.800, 0.100, 133.300, 1262, 100, 100, 32, 25599, -3366, 5018, 5121, 17, 11, 1529443835.669, 61, 0, 1024, 1024, 1024, 1024, 0, 6, 4265, 4261, 4262, 4263, 4284, 4241, 0, 1, 4401, -89.900, 0.000, 133.300, 0.000, 0.000, -0.500, 0.0, , , , , , 96, , , 47, 47, 47
38.5226934, -120.3275398, 0.600, 14:30:35.768, 11, 0.00, 0.03, 98, 0.900, 0.300, 133.300, 1262, 100, 100, 32, 25599, -3366, 5018, 5121, 17, 11, 1529443835.769, 50, 0, 1024, 1024, 1024, 1024, 0, 6, 4265, 4261, 4262, 4263, 4284, 4241, 0, 1, 4500, -89.900, 0.000, 133.300, 0.000, 0.000, -0.500, 0.0, , , , , , 96, , , 47, 47, 47
38.5226935, -120.3275398, 0.600, 14:30:35.868, 11, 0.00, 0.04, 98, 1.000, 0.400, 133.200, 1262, 100, 100, 32, 24876, -13027, 5018, 5121, 17, 11, 1529443835.869, 52, 0, 1024, 1024, 1024, 1024, 0, 6, 4122, 4158, 4146, 4155, 4158, 4116, 0, 1, 4600, -89.900, 0.000, 133.300, 0.000, 0.000, -0.500, 0.0, , , , , , 96, , , 47, 47, 47
38.5226936, -120.3275397, 0.700, 14:30:35.968, 12, 0.00, 0.05, 98, 1.300, 0.500, 133.200, 1262, 100, 100, 32, 24876, -13027, 5018, 5121, 17, 11, 1529443835.969, 52, 0, 1024, 1024, 1024, 1024, 0, 6, 4122, 4158, 4146, 4155, 4158, 4116, 0, 1, 4700, -89.900, 0.000, 133.300, 0.000, 0.000, -0.400, 0.0, , , , , , 96, , , 47, 47, 47
38.5226937, -120.3275397, 0.800, 14:30:36.069, 12, 0.00, 0.05, 98, 1.200, 0.400, 133.300, 1262, 100, 100, 32, 24876, -13027, 5018, 5121, 17, 11, 1529443836.069, 46, 0, 1024, 1024, 1024, 1024, 0, 6, 4122, 4158, 4146, 4155, 4158, 4116, 0, 1, 4800, -89.900, 0.000, 133.300, 0.000, 0.000, -0.400, 0.0, , , , , , 96, , , 47, 47, 47
38.5226937, -120.3275398, 0.800, 14:30:36.169, 11, 0.00, 0.06, 98, 1.200, 0.200, 133.400, 1262, 100, 100, 32, 24876, -13027, 5018, 5121, 17, 11, 1529443836.169, 60, 0, 1024, 1024, 1024, 1024, 0, 6, 4122, 4158, 4146, 4155, 4158, 4116, 0, 1, 4900, -89.900, 0.000, 133.300, 0.000, 0.000, -0.500, 0.0, , , , , , 96, , , 47, 47, 47
38.5226938, -120.3275397, 0.900, 14:30:36.268, 11, 0.00, 0.07, 98, 1.100, 0.100, 133.500, 1262, 100, 100, 32, 24876, -13027, 5018, 5121, 17, 14, 1529443836.269, 35, 0, 1024, 1024, 1024, 1024, 0, 6, 4122, 4158, 4146, 4155, 4158, 4116, 0, 1, 5000, -89.900, 0.000, 133.300, 0.000, 0.000, -0.500, 0.0, , , , , , 96, , , 47, 47, 47
38.5226940, -120.3275396, 1.000, 14:30:36.368, 11, 0.00, 0.08, 98, 1.200, 0.000, 133.600, 1262, 100, 100, 32, 24876, -13027, 5018, 5121, 17, 14, 1529443836.369, 29, 0, 1024, 1024, 1024, 1024, 0, 6, 4122, 4158, 4146, 4155, 4158, 4116, 0, 1, 5100, -89.900, 0.000, 133.300, 0.000, 0.000, -0.300, 0.0, , , , , , 96, , , 47, 47, 47
38.5226940, -120.3275396, 1.000, 14:30:36.469, 11, 0.00, 0.09, 98, 1.400, 0.000, 133.700, 1262, 100, 100, 32, 24876, -13027, 5018, 5121, 17, 14, 1529443836.469, 8, 0, 1024, 1024, 1024, 1024, 0, 6, 4122, 4158, 4146, 4155, 4158, 4116, 0, 1, 5200, -89.900, 0.000, 133.300, 0.000, 0.000, -0.200, 0.0, , , , , , 96, , , 47, 47, 47
38.5226941, -120.3275395, 1.000, 14:30:36.568, 11, 0.00, 0.10, 98, 1.500, 0.000, 133.700, 1262, 100, 100, 32, 24876, -13027, 5018, 5121, 17, 14, 1529443836.568, 34, 0, 1024, 1024, 1024, 1024, 0, 6, 4122, 4158, 4146, 4155, 4158, 4116, 0, 1, 5300, -89.900, 0.000, 133.300, 0.000, 0.000, -0.200, 0.0, , , , , , 96, , , 47, 47, 47
38.5226941, -120.3275395, 1.100, 14:30:36.668, 11, 0.00, 0.10, 98, 1.400, 0.000, 133.700, 1262, 100, 100, 32, 24876, -13027, 5018, 5121, 17, 14, 1529443836.669, 14, 0, 1024, 1024, 1024, 1024, 0, 6, 4122, 4158, 4146, 4155, 4158, 4116, 0, 1, 5400, -89.900, 0.000, 133.300, 0.000, 0.000, -0.300, 0.0, , , , , , 96, , , 47, 47, 47
38.5226941, -120.3275395, 1.100, 14:30:36.769, 11, 0.00, 0.10, 98, 1.200, -0.100, 133.700, 1262, 100, 100, 32, 24876, -13027, 5018, 5121, 17, 14, 1529443836.769, 21, 0, 1024, 1024, 1024, 1024, 0, 6, 4122, 4158, 4146, 4155, 4158, 4116, 0, 1, 5500, -89.900, 0.000, 133.300, 0.000, 0.000, -0.500, 0.0, , , , , , 96, , , 47, 47, 47
38.5226941, -120.3275395, 1.100, 14:30:36.869, 11, 0.00, 0.10, 98, 1.200, -0.100, 133.700, 1262, 100, 100, 32, 24876, -13027, 5018, 5121, 17, 14, 1529443836.869, 121, 0, 1024, 1024, 1024, 1024, 0, 6, 4122, 4158, 4146, 4155, 4158, 4116, 0, 1, 5600, -89.900, 0.000, 133.300, 0.000, 0.000, -0.500, 0.0, , , , , , 96, , , 47, 47, 47
38.5226941, -120.3275393, 1.300, 14:30:36.969, 12, 0.00, 0.11, 97, 1.100, 0.200, 133.800, 1262, 100, 100, 32, 24767, -16186, 4967, 5121, 17, 14, 1529443836.969, 6, 0, 1024, 1024, 1024, 1024, 0, 6, 4112, 4136, 4124, 4132, 4133, 4128, 0, 1, 5700, -89.900, 0.000, 133.300, 0.000, 0.000, -0.800, 0.0, , , , , , 96, , , 47, 47, 47
38.5226941, -120.3275392, 1.400, 14:30:37.072, 12, 0.00, 0.12, 97, 1.400, 0.600, 133.900, 1262, 100, 100, 32, 24767, -16186, 4967, 5121, 17, 14, 1529443837.072, 1, 0, 1024, 1024, 1024, 1024, 0, 6, 4112, 4136, 4124, 4132, 4133, 4128, 0, 1, 5803, -89.900, 0.000, 133.300, 0.000, 0.000, -1.000, 0.0, , , , , , 96, , , 47, 47, 47
38.5226941, -120.3275390, 1.500, 14:30:37.169, 11, 0.00, 0.13, 97, 1.500, 0.700, 133.900, 1262, 100, 100, 32, 24767, -16186, 4967, 5121, 17, 14, 1529443837.170, 2, 0, 1024, 1024, 1024, 1024, 0, 6, 4112, 4136, 4124, 4132, 4133, 4128, 0, 1, 5901, -89.900, 0.000, 133.300, 0.000, 0.000, -1.100, 0.0, , , , , , 96, , , 47, 47, 47
38.5226942, -120.3275389, 1.700, 14:30:37.269, 11, 0.00, 0.15, 97, 1.700, 0.700, 133.900, 1262, 100, 100, 32, 24767, -16186, 4967, 5121, 17, 14, 1529443837.269, 5, 0, 1024, 1024, 1024, 1024, 0, 6, 4112, 4136, 4124, 4132, 4133, 4128, 0, 1, 6000, -89.900, 0.000, 133.300, 0.000, 0.000, -1.300, 0.0, , , , , , 96, , , 47, 47, 47
38.5226944, -120.3275389, 1.800, 14:30:37.368, 11, 0.00, 0.17, 97, 1.900, 0.300, 133.900, 1262, 100, 100, 32, 24767, -16186, 4967, 5121, 17, 14, 1529443837.368, 8, 0, 1024, 1024, 1024, 1024, 0, 6, 4112, 4136, 4124, 4132, 4133, 4128, 0, 1, 6100, -89.900, 0.000, 133.300, 0.000, 0.000, -1.500, 0.0, , , , , , 96, , , 47, 47, 47
38.5226944, -120.3275389, 1.800, 14:30:37.469, 11, 0.00, 0.17, 97, 1.900, 0.300, 133.900, 1262, 100, 100, 32, 24767, -16186, 4967, 5121, 17, 14, 1529443837.469, 109, 0, 1024, 1024, 1024, 1024, 0, 6, 4112, 4136, 4124, 4132, 4133, 4128, 0, 1, 6200, -89.900, 0.000, 133.300, 0.000, 0.000, -1.500, 0.0, , , , , , 96, , , 47, 47, 47
38.5226946, -120.3275389, 2.000, 14:30:37.569, 11, 0.00, 0.18, 97, 2.200, 0.000, 134.000, 1262, 100, 100, 32, 24767, -16186, 4967, 5121, 17, 14, 1529443837.569, 91, 0, 1024, 1024, 1024, 1024, 0, 6, 4112, 4136, 4124, 4132, 4133, 4128, 0, 1, 6300, -90.000, 0.000, 133.300, 0.000, 0.000, -1.700, 0.0, , , , , , 96, , , 47, 47, 47
38.5226948, -120.3275389, 2.200, 14:30:37.669, 10, 0.00, 0.20, 97, 2.400, -0.300, 134.000, 1262, 100, 100, 32, 24767, -16186, 4967, 5121, 17, 14, 1529443837.669, 93, 0, 1024, 1024, 1024, 1024, 0, 6, 4112, 4136, 4124, 4132, 4133, 4128, 0, 1, 6400, -90.000, 0.000, 133.300, 0.000, 0.000, -1.800, 0.0, , , , , , 96, , , 47, 47, 47
38.5226949, -120.3275392, 2.400, 14:30:37.769, 10, 0.00, 0.20, 97, 2.300, -0.700, 134.000, 1262, 100, 100, 32, 24767, -16186, 4967, 5121, 17, 14, 1529443837.769, 69, 0, 1024, 1024, 1024, 1024, 0, 6, 4112, 4136, 4124, 4132, 4133, 4128, 0, 1, 6500, -90.000, 0.000, 133.300, 0.000, 0.000, -2.100, 0.0, , , , , , 96, , , 47, 47, 47
38.5226950, -120.3275395, 2.600, 14:30:37.869, 13, 0.00, 0.20, 97, 1.800, -1.000, 133.900, 1262, 100, 100, 32, 24798, -16166, 4967, 5121, 17, 14, 1529443837.869, 51, 0, 1024, 1024, 1024, 1024, 0, 6, 4104, 4114, 4132, 4129, 4096, 4170, 0, 1, 6600, -90.000, 0.000, 133.300, 0.000, 0.000, -2.400, 0.0, , , , , , 96, , , 47, 47, 47
38.5226950, -120.3275394, 2.900, 14:30:37.969, 13, 0.00, 0.20, 97, 1.400, -1.100, 133.800, 1262, 100, 100, 32, 24798, -16166, 4967, 5121, 17, 14, 1529443837.969, 76, 0, 1024, 1024, 1024, 1024, 0, 6, 4104, 4114, 4132, 4129, 4096, 4170, 0, 1, 6700, -90.000, 0.000, 133.300, 0.000, 0.000, -2.700, 0.0, , , , , , 96, , , 47, 47, 47
38.5226949, -120.3275393, 3.200, 14:30:38.069, 12, 0.00, 0.19, 97, 1.300, -0.900, 133.700, 1262, 100, 100, 32, 24798, -16166, 4967, 5121, 17, 14, 1529443838.069, 80, 0, 1024, 1024, 1024, 1024, 0, 6, 4104, 4114, 4132, 4129, 4096, 4170, 0, 1, 6800, -89.900, 0.000, 133.300, 0.000, 0.000, -2.900, 0.0, , , , , , 96, , , 47, 47, 47
38.5226946, -120.3275391, 3.600, 14:30:38.168, 12, 0.00, 0.17, 97, 1.200, -0.300, 133.700, 1262, 100, 100, 32, 24798, -16166, 4967, 5121, 17, 14, 1529443838.169, 59, 0, 1024, 1024, 1024, 1024, 0, 6, 4104, 4114, 4132, 4129, 4096, 4170, 0, 1, 6900, -89.900, 0.000, 133.300, 0.000, 0.000, -3.000, 0.0, , , , , , 96, , , 47, 47, 47
38.5226944, -120.3275388, 3.900, 14:30:38.268, 12, 0.00, 0.17, 97, 1.200, 0.500, 133.600, 1262, 100, 100, 32, 24798, -16166, 4967, 5121, 17, 14, 1529443838.268, 61, 0, 1024, 1024, 1024, 1024, 0, 6, 4104, 4114, 4132, 4129, 4096, 4170, 0, 1, 7000, -89.900, 0.000, 133.300, 0.000, 0.000, -3.000, 0.0, , , , , , 96, , , 47, 47, 47
38.5226944, -120.3275385, 4.200, 14:30:38.368, 12, 0.00, 0.19, 97, 1.100, 1.300, 133.500, 1262, 100, 100, 32, 24798, -16166, 4967, 5121, 17, 14, 1529443838.369, 68, 0, 1024, 1024, 1024, 1024, 0, 6, 4104, 4114, 4132, 4129, 4096, 4170, 0, 1, 7100, -89.900, 0.000, 133.300, 0.000, 0.000, -3.100, 0.0, , , , , , 96, , , 47, 47, 47
38.5226944, -120.3275387, 4.900, 14:30:38.468, 12, 0.00, 0.18, 97, 1.400, 1.400, 133.500, 1262, 100, 100, 32, 24798, -16166, 4967, 5121, 17, 14, 1529443838.468, 33, 0, 1024, 1024, 1024, 1024, 0, 6, 4104, 4114, 4132, 4129, 4096, 4170, 0, 1, 7200, -89.900, 0.000, 133.300, 0.000, 0.000, -3.100, 0.0, , , , , , 96, , , 47, 47, 47
38.5226945, -120.3275389, 5.200, 14:30:38.569, 11, 0.00, 0.17, 97, 1.300, 0.700, 133.500, 1262, 100, 100, 32, 24798, -16166, 4967, 5121, 17, 14, 1529443838.569, 62, 0, 1024, 1024, 1024, 1024, 0, 6, 4104, 4114, 4132, 4129, 4096, 4170, 0, 1, 7300, -89.900, 0.000, 133.300, 0.000, 0.000, -3.100, 0.0, , , , , , 96, , , 47, 47, 47
38.5226946, -120.3275389, 5.600, 14:30:38.668, 11, 0.00, 0.18, 97, 1.200, -0.200, 133.600, 1262, 100, 100, 32, 24798, -16166, 4967, 5121, 17, 14, 1529443838.669, 29, 0, 1024, 1024, 1024, 1024, 0, 6, 4104, 4114, 4132, 4129, 4096, 4170, 0, 1, 7400, -90.000, 0.000, 133.300, 0.000, 0.000, -3.100, 0.0, , , , , , 96, , , 47, 47, 47
38.5226948, -120.3275389, 5.900, 14:30:38.768, 12, 0.00, 0.20, 97, 1.500, -0.800, 133.600, 1262, 100, 100, 32, 24798, -16166, 4967, 5121, 17, 14, 1529443838.768, 6, 0, 1024, 1024, 1024, 1024, 0, 6, 4104, 4114, 4132, 4129, 4096, 4170, 0, 1, 7500, -90.000, 0.000, 133.300, 0.000, 0.000, -3.100, 0.0, , , , , , 96, , , 47, 47, 47
38.5226951, -120.3275392, 6.200, 14:30:38.868, 12, 0.00, 0.22, 97, 1.700, -1.200, 133.600, 1262, 100, 100, 32, 24295, -23187, 4967, 5121, 17, 14, 1529443838.869, 47, 0, 1024, 1024, 1024, 1024, 0, 6, 4024, 4040, 4035, 4023, 4028, 4050, 0, 1, 7600, -90.000, 0.000, 133.300, 0.000, 0.000, -3.100, 0.0, , , , , , 96, , , 47, 47, 47
38.5226953, -120.3275394, 6.600, 14:30:38.968, 13, 0.00, 0.23, 97, 1.800, -1.800, 133.600, 1262, 100, 100, 32, 24295, -23187, 4967, 5121, 17, 14, 1529443838.969, 26, 0, 1024, 1024, 1024, 1024, 0, 6, 4024, 4040, 4035, 4023, 4028, 4050, 0, 1, 7700, -90.000, 0.000, 133.300, 0.000, 0.000, -3.100, 0.0, , , , , , 96, , , 47, 47, 47
38.5226954, -120.3275396, 6.900, 14:30:39.068, 13, 0.00, 0.24, 97, 1.900, -2.100, 133.500, 1262, 100, 100, 32, 24295, -23187, 4967, 5121, 17, 14, 1529443839.069, 17, 0, 1024, 1024, 1024, 1024, 0, 6, 4024, 4040, 4035, 4023, 4028, 4050, 0, 1, 7800, -90.000, 0.000, 133.300, 0.000, 0.000, -3.000, 0.0, , , , , , 96, , , 47, 47, 47
38.5226954, -120.3275397, 7.200, 14:30:39.168, 13, 0.00, 0.24, 97, 1.900, -2.200, 133.400, 1262, 100, 100, 32, 24295, -23187, 4967, 5121, 17, 14, 1529443839.168, 18, 0, 1024, 1024, 1024, 1024, 0, 6, 4024, 4040, 4035, 4023, 4028, 4050, 0, 1, 7900, -90.000, 0.000, 133.300, 0.000, 0.000, -3.100, 0.0, , , , , , 96, , , 47, 47, 47
38.5226954, -120.3275396, 7.600, 14:30:39.269, 13, 0.00, 0.23, 97, 1.700, -1.900, 133.400, 1262, 100, 100, 32, 24295, -23187, 4967, 5121, 17, 14, 1529443839.269, 23, 0, 1024, 1024, 1024, 1024, 0, 6, 4024, 4040, 4035, 4023, 4028, 4050, 0, 1, 8000, -89.900, 0.000, 133.300, 0.000, 0.000, -3.000, 0.0, , , , , , 96, , , 47, 47, 47
38.5226952, -120.3275393, 7.900, 14:30:39.369, 13, 0.00, 0.22, 97, 1.600, -1.200, 133.400, 1262, 100, 100, 32, 24295, -23187, 4967, 5121, 17, 14, 1529443839.369, 19, 0, 1024, 1024, 1024, 1024, 0, 6, 4024, 4040, 4035, 4023, 4028, 4050, 0, 1, 8100, -89.900, 0.000, 133.300, 0.000, 0.000, -3.000, 0.0, , , , , , 96, , , 47, 47, 47
38.5226948, -120.3275385, 8.200, 14:30:39.469, 13, 0.14, 0.22, 97, 1.700, 0.000, 133.400, 1262, 100, 100, 32, 24295, -23187, 4967, 5121, 17, 14, 1529443839.469, 19, 0, 1024, 1024, 1024, 1024, 0, 6, 4024, 4040, 4035, 4023, 4028, 4050, 0, 1, 8200, -89.900, 0.000, 133.300, -0.100, 0.100, -3.000, 0.0, , , , , , 96, , , 47, 47, 47
38.5226944, -120.3275378, 8.600, 14:30:39.569, 13, 0.14, 0.24, 97, 1.800, 2.100, 133.500, 1262, 100, 100, 32, 24295, -23187, 4967, 5121, 17, 14, 1529443839.569, 9, 0, 1024, 1024, 1024, 1024, 0, 6, 4024, 4040, 4035, 4023, 4028, 4050, 0, 1, 8300, -89.900, 0.000, 133.300, -0.100, 0.100, -3.000, 0.0, , , , , , 96, , , 47, 47, 47
38.5226943, -120.3275377, 8.900, 14:30:39.672, 13, 0.14, 0.24, 97, 1.800, 3.600, 133.700, 1262, 100, 100, 32, 24295, -23187, 4967, 5121, 17, 14, 1529443839.672, 2, 0, 1024, 1024, 1024, 1024, 0, 6, 4024, 4040, 4035, 4023, 4028, 4050, 0, 1, 8403, -89.900, 0.000, 133.300, -0.100, 0.100, -3.000, 0.0, , , , , , 96, , , 47, 47, 47
38.5226943, -120.3275377, 8.900, 14:30:39.768, 13, 0.14, 0.24, 97, 1.800, 3.600, 133.700, 1262, 100, 100, 32, 24400, -18970, 4967, 5121, 17, 14, 1529443839.768, 98, 0, 1024, 1024, 1024, 1024, 0, 6, 4024, 4040, 4035, 4023, 4028, 4050, 0, 1, 8500, -89.900, 0.000, 133.300, -0.100, 0.100, -3.000, 0.0, , , , , , 96, , , 47, 47, 47
38.5226943, -120.3275377, 8.900, 14:30:39.869, 13, 0.14, 0.24, 97, 1.800, 3.600, 133.700, 1262, 100, 100, 32, 24400, -18970, 4967, 5121, 17, 14, 1529443839.869, 199, 0, 1024, 1024, 1024, 1024, 0, 6, 4024, 4040, 4035, 4023, 4028, 4050, 0, 1, 8600, -89.900, 0.000, 133.300, -0.100, 0.100, -3.000, 0.0, , , , , , 96, , , 47, 47, 47
38.5226942, -120.3275373, 9.500, 14:30:39.968, 13, 0.00, 0.27, 97, 1.900, 3.100, 133.900, 1262, 100, 98, 32, 24400, -18970, 4967, 5121, 17, 14, 1529443839.968, 83, 0, 1024, 1024, 1024, 1024, 0, 6, 4024, 4040, 4035, 4023, 4028, 4050, 0, 1, 8700, -89.900, 0.000, 133.300, 0.000, 0.000, -2.900, 0.0, , , , , , 96, , , 47, 47, 47
38.5226942, -120.3275372, 9.800, 14:30:40.068, 13, 0.00, 0.28, 97, 2.100, 2.400, 133.900, 1262, 100, 98, 32, 24400, -18970, 4967, 5121, 17, 14, 1529443840.068, 84, 0, 1024, 1024, 1024, 1024, 0, 6, 4024, 4040, 4035, 4023, 4028, 4050, 0, 1, 8799, -90.000, 0.000, 133.300, 0.000, 0.000, -2.900, 0.0, , , , , , 96, , , 47, 47, 47
38.5226944, -120.3275374, 10.200, 14:30:40.168, 13, 0.00, 0.27, 97, 2.300, 1.500, 133.900, 1262, 100, 98, 32, 24400, -18970, 4967, 5121, 17, 14, 1529443840.169, 89, 0, 1024, 1024, 1024, 1024, 0, 6, 4024, 4040, 4035, 4023, 4028, 4050, 0, 1, 8900, -90.000, 0.000, 133.300, 0.000, 0.000, -2.900, 0.0, , , , , , 96, , , 47, 47, 47
38.5226945, -120.3275375, 10.500, 14:30:40.269, 13, 0.00, 0.27, 97, 2.400, 0.500, 133.800, 1262, 100, 98, 32, 24400, -18970, 4967, 5121, 17, 14, 1529443840.269, 88, 0, 1024, 1024, 1024, 1024, 0, 6, 4024, 4040, 4035, 4023, 4028, 4050, 0, 1, 9000, -89.900, 0.000, 133.300, 0.000, 0.000, -2.900, 0.0, , , , , , 96, , , 47, 47, 47
38.5226946, -120.3275376, 10.800, 14:30:40.368, 13, 0.00, 0.26, 97, 2.400, -0.300, 133.700, 1262, 100, 98, 32, 24400, -18970, 4967, 5121, 17, 14, 1529443840.369, 73, 0, 1024, 1024, 1024, 1024, 0, 6, 4061, 4089, 4072, 4072, 4080, 4074, 0, 1, 9100, -89.900, 0.000, 133.300, 0.000, 0.000, -2.900, 0.0, , , , , , 96, , , 47, 47, 47
38.5226947, -120.3275377, 11.100, 14:30:40.468, 13, 0.00, 0.26, 97, 2.300, -0.600, 133.600, 1262, 100, 97, 32, 24400, -18970, 4967, 5121, 17, 14, 1529443840.468, 61, 0, 1024, 1024, 1024, 1024, 0, 6, 4061, 4089, 4072, 4072, 4080, 4074, 0, 1, 9200, -89.900, 0.000, 133.300, 0.000, 0.000, -2.900, 0.0, , , , , , 96, , , 47, 47, 47
38.5226946, -120.3275379, 11.400, 14:30:40.568, 13, 0.00, 0.25, 97, 2.200, -0.700, 133.500, 1262, 100, 97, 32, 24400, -18970, 4967, 5121, 17, 14, 1529443840.568, 75, 0, 1024, 1024, 1024, 1024, 0, 6, 4061, 4089, 4072, 4072, 4080, 4074, 0, 1, 9300, -89.900, 0.000, 133.300, 0.000, 0.000, -2.900, 0.0, , , , , , 96, , , 47, 47, 47
38.5226946, -120.3275380, 11.700, 14:30:40.668, 13, 0.00, 0.24, 97, 1.900, -0.600, 133.500, 1262, 100, 97, 32, 24400, -18970, 4967, 5121, 17, 14, 1529443840.669, 64, 0, 1024, 1024, 1024, 1024, 0, 6, 4061, 4089, 4072, 4072, 4080, 4074, 0, 1, 9400, -89.900, 0.000, 133.300, 0.000, 0.000, -2.800, 0.0, , , , , , 96, , , 47, 47, 47
38.5226947, -120.3275381, 12.000, 14:30:40.768, 13, 0.00, 0.24, 97, 1.600, -0.300, 133.600, 1262, 100, 97, 32, 24400, -18970, 4967, 5121, 17, 14, 1529443840.769, 47, 0, 1024, 1024, 1024, 1024, 0, 6, 4061, 4089, 4072, 4072, 4080, 4074, 0, 1, 9500, -89.900, 0.000, 133.300, 0.000, 0.000, -2.900, 0.0, , , , , , 96, , , 47, 47, 47
38.5226947, -120.3275382, 12.300, 14:30:40.868, 13, 0.00, 0.23, 97, 1.600, 0.000, 133.600, 1262, 100, 97, 32, 24400, -18970, 4967, 5121, 17, 14, 1529443840.868, 44, 0, 1024, 1024, 1024, 1024, 0, 6, 4061, 4089, 4072, 4072, 4080, 4074, 0, 1, 9600, -89.900, 0.000, 133.300, 0.000, 0.000, -2.900, 0.0, , , , , , 96, , , 47, 47, 47
38.5226946, -120.3275383, 12.900, 14:30:40.968, 13, 0.00, 0.22, 97, 1.900, 0.300, 133.700, 1262, 100, 97, 32, 24400, -18970, 4967, 5121, 17, 14, 1529443840.968, 32, 0, 1024, 1024, 1024, 1024, 0, 6, 4061, 4089, 4072, 4072, 4080, 4074, 0, 1, 9700, -89.900, 0.000, 133.300, 0.000, 0.000, -2.800, 0.0, , , , , , 96, , , 47, 47, 47
38.5226946, -120.3275383, 12.900, 14:30:41.069, 13, 0.00, 0.22, 97, 1.900, 0.300, 133.700, 1262, 100, 97, 32, 24400, -18970, 4967, 5121, 17, 14, 1529443841.069, 132, 0, 1024, 1024, 1024, 1024, 0, 6, 4061, 4089, 4072, 4072, 4080, 4074, 0, 1, 9800, -89.900, 0.000, 133.300, 0.000, 0.000, -2.800, 0.0, , , , , , 96, , , 47, 47, 47
38.5226948, -120.3275386, 13.500, 14:30:41.168, 11, 0.00, 0.21, 97, 2.000, -0.100, 133.700, 1262, 100, 97, 32, 24400, -18970, 4967, 5121, 17, 14, 1529443841.168, 46, 0, 1024, 1024, 1024, 1024, 0, 6, 4061, 4089, 4072, 4072, 4080, 4074, 0, 1, 9900, -89.900, 0.000, 133.300, 0.000, 0.000, -2.800, 0.0, , , , , , 96, , , 47, 47, 47
38.5226948, -120.3275387, 13.800, 14:30:41.268, 11, 0.00, 0.21, 97, 1.900, -0.300, 133.700, 1262, 100, 97, 32, 24400, -18970, 4967, 5121, 17, 14, 1529443841.268, 48, 0, 1024, 1024, 1024, 1024, 0, 6, 4061, 4089, 4072, 4072, 4080, 4074, 0, 1, 10000, -89.900, 0.000, 133.300, 0.000, 0.000, -2.800, 0.0, , , , , , 96, , , 47, 47, 47
38.5226948, -120.3275387, 13.800, 14:30:41.368, 11, 0.00, 0.21, 97, 1.900, -0.300, 133.700, 1262, 100, 97, 32, 24492, -17839, 4967, 5121, 17, 14, 1529443841.369, 149, 0, 1024, 1024, 1024, 1024, 0, 6, 4061, 4089, 4072, 4072, 4080, 4074, 0, 1, 10100, -89.900, 0.000, 133.300, 0.000, 0.000, -2.800, 0.0, , , , , , 96, , , 47, 47, 47
38.5226947, -120.3275389, 14.400, 14:30:41.468, 12, 0.00, 0.19, 97, 1.700, -0.100, 133.700, 1262, 100, 97, 32, 24492, -17839, 4967, 5121, 17, 14, 1529443841.468, 30, 0, 1024, 1024, 1024, 1024, 0, 6, 4069, 4085, 4081, 4078, 4074, 4084, 0, 1, 10199, -89.900, 0.000, 133.300, 0.000, 0.000, -2.900, 0.0, , , , , , 96, , , 47, 47, 47
38.5226947, -120.3275391, 14.700, 14:30:41.569, 13, 0.00, 0.18, 97, 1.500, -0.100, 133.700, 1262, 100, 97, 32, 24492, -17839, 4967, 5121, 17, 14, 1529443841.569, 40, 0, 1024, 1024, 1024, 1024, 0, 6, 4069, 4085, 4081, 4078, 4074, 4084, 0, 1, 10300, -89.900, 0.000, 133.300, 0.000, 0.000, -2.900, 0.0, , , , , , 96, , , 47, 47, 47
38.5226947, -120.3275392, 15.000, 14:30:41.668, 13, 0.00, 0.18, 97, 1.400, -0.200, 133.700, 1262, 100, 97, 32, 24492, -17839, 4967, 5121, 17, 14, 1529443841.669, 35, 0, 1024, 1024, 1024, 1024, 0, 6, 4069, 4085, 4081, 4078, 4074, 4084, 0, 1, 10400, -89.900, 0.000, 133.300, 0.000, 0.000, -2.800, 0.0, , , , , , 96, , , 47, 47, 47
38.5226947, -120.3275394, 15.300, 14:30:41.768, 14, 0.00, 0.17, 97, 1.300, -0.400, 133.600, 1262, 100, 97, 32, 24492, -17839, 4967, 5121, 17, 14, 1529443841.769, 40, 0, 1024, 1024, 1024, 1024, 0, 6, 4069, 4085, 4081, 4078, 4074, 4084, 0, 1, 10500, -90.000, 0.000, 133.300, 0.000, 0.000, -2.800, 0.0, , , , , , 96, , , 47, 47, 47
38.5226948, -120.3275396, 15.600, 14:30:41.868, 14, 0.00, 0.17, 97, 1.100, -0.700, 133.600, 1262, 100, 98, 32, 24492, -17839, 4967, 5121, 17, 14, 1529443841.868, 9, 0, 1024, 1024, 1024, 1024, 0, 6, 4069, 4085, 4081, 4078, 4074, 4084, 0, 1, 10600, -90.000, 0.000, 133.300, 0.000, 0.000, -2.800, 0.0, , , , , , 96, , , 47, 47, 47
38.5226948, -120.3275397, 15.900, 14:30:41.969, 14, 0.00, 0.17, 97, 0.900, -0.800, 133.500, 1262, 100, 98, 32, 24492, -17839, 4967, 5121, 17, 14, 1529443841.969, 27, 0, 1024, 1024, 1024, 1024, 0, 6, 4069, 4085, 4081, 4078, 4074, 4084, 0, 1, 10700, -90.000, 0.000, 133.300, 0.000, 0.000, -2.900, 0.0, , , , , , 96, , , 47, 47, 47
38.5226948, -120.3275398, 16.200, 14:30:42.069, 14, 0.00, 0.16, 97, 0.800, -0.800, 133.500, 1262, 100, 98, 32, 24492, -17839, 4967, 5121, 17, 14, 1529443842.069, 19, 0, 1024, 1024, 1024, 1024, 0, 6, 4069, 4085, 4081, 4078, 4074, 4084, 0, 1, 10800, -89.900, 0.000, 133.300, 0.000, 0.000, -2.800, 0.0, , , , , , 96, , , 47, 47, 47
38.5226948, -120.3275399, 16.500, 14:30:42.168, 14, 0.00, 0.16, 97, 1.000, -0.400, 133.400, 1262, 100, 98, 32, 24492, -17839, 4967, 5121, 17, 14, 1529443842.169, 9, 0, 1024, 1024, 1024, 1024, 0, 6, 4069, 4085, 4081, 4078, 4074, 4084, 0, 1, 10900, -89.900, 0.000, 133.300, 0.000, 0.000, -2.800, 0.0, , , , , , 96, , , 47, 47, 47
38.5226948, -120.3275400, 16.800, 14:30:42.269, 14, 0.00, 0.16, 97, 1.300, -0.300, 133.400, 1262, 100, 98, 32, 24430, -18237, 4967, 5121, 17, 14, 1529443842.269, 4, 0, 1024, 1024, 1024, 1024, 0, 6, 4061, 4074, 4070, 4071, 4066, 4075, 0, 1, 11000, -89.900, 0.000, 133.300, 0.000, 0.000, -2.800, 0.0, , , , , , 96, , , 47, 47, 47
38.5226948, -120.3275400, 16.800, 14:30:42.368, 14, 0.00, 0.16, 97, 1.300, -0.300, 133.400, 1262, 100, 98, 32, 24430, -18237, 4967, 5121, 17, 14, 1529443842.368, 103, 0, 1024, 1024, 1024, 1024, 0, 6, 4061, 4074, 4070, 4071, 4066, 4075, 0, 1, 11100, -89.900, 0.000, 133.300, 0.000, 0.000, -2.800, 0.0, , , , , , 96, , , 47, 47, 47
38.5226947, -120.3275401, 17.100, 14:30:42.468, 14, 0.00, 0.16, 97, 1.500, -0.100, 133.400, 1262, 100, 99, 32, 24430, -18237, 4967, 5121, 17, 14, 1529443842.469, 98, 0, 1024, 1024, 1024, 1024, 0, 6, 4061, 4074, 4070, 4071, 4066, 4075, 0, 1, 11200, -89.900, 0.000, 133.300, 0.000, 0.000, -2.900, 0.0, , , , , , 96, , , 47, 47, 47
38.5226947, -120.3275402, 17.400, 14:30:42.568, 14, 0.00, 0.16, 97, 1.700, -0.100, 133.500, 1262, 100, 99, 32, 24430, -18237, 4967, 5121, 17, 14, 1529443842.568, 91, 0, 1024, 1024, 1024, 1024, 0, 6, 4061, 4074, 4070, 4071, 4066, 4075, 0, 1, 11299, -89.900, 0.000, 133.300, 0.000, 0.000, -2.900, 0.0, , , , , , 96, , , 47, 47, 47
38.5226947, -120.3275402, 17.700, 14:30:42.668, 14, 0.00, 0.16, 97, 1.800, 0.000, 133.500, 1262, 100, 99, 32, 24430, -18237, 4967, 5121, 17, 14, 1529443842.668, 93, 0, 1024, 1024, 1024, 1024, 0, 6, 4061, 4074, 4070, 4071, 4066, 4075, 0, 1, 11399, -89.900, 0.000, 133.300, 0.000, 0.000, -2.900, 0.0, , , , , , 96, , , 47, 47, 47
38.5226947, -120.3275402, 18.000, 14:30:42.768, 14, 0.00, 0.16, 97, 1.700, -0.100, 133.600, 1262, 100, 99, 32, 24430, -18237, 4967, 5121, 17, 14, 1529443842.768, 83, 0, 1024, 1024, 1024, 1024, 0, 6, 4061, 4074, 4070, 4071, 4066, 4075, 0, 1, 11499, -89.900, 0.000, 133.300, 0.000, 0.000, -2.900, 0.0, , , , , , 96, , , 47, 47, 47
38.5226947, -120.3275402, 18.300, 14:30:42.868, 15, 0.00, 0.16, 97, 1.600, -0.300, 133.700, 1262, 100, 99, 32, 24430, -18237, 4967, 5121, 17, 14, 1529443842.869, 89, 0, 1024, 1024, 1024, 1024, 0, 6, 4061, 4074, 4070, 4071, 4066, 4075, 0, 1, 11600, -89.900, 0.000, 133.300, 0.000, 0.000, -2.900, 0.0, , , , , , 96, , , 47, 47, 47
38.5226947, -120.3275402, 18.600, 14:30:42.968, 15, 0.00, 0.15, 97, 1.800, -0.300, 133.800, 1262, 100, 99, 32, 24430, -18237, 4967, 5121, 17, 14, 1529443842.969, 56, 0, 1024, 1024, 1024, 1024, 0, 6, 4061, 4074, 4070, 4071, 4066, 4075, 0, 1, 11700, -89.900, 0.000, 133.300, 0.000, 0.000, -2.900, 0.0, , , , , , 96, , , 47, 47, 47
38.5226947, -120.3275401, 18.900, 14:30:43.068, 15, 0.00, 0.15, 97, 2.000, -0.300, 133.800, 1262, 100, 99, 32, 24430, -18237, 4967, 5121, 17, 14, 1529443843.068, 61, 0, 1024, 1024, 1024, 1024, 0, 6, 4061, 4074, 4070, 4071, 4066, 4075, 0, 1, 11799, -89.900, 0.000, 133.300, 0.000, 0.000, -2.900, 0.0, , , , , , 96, , , 47, 47, 47
38.5226947, -120.3275402, 19.200, 14:30:43.168, 15, 0.00, 0.15, 97, 2.000, -0.200, 133.700, 1262, 100, 99, 32, 24430, -18237, 4967, 5121, 17, 14, 1529443843.168, 61, 0, 1024, 1024, 1024, 1024, 0, 6, 4061, 4074, 4070, 4071, 4066, 4075, 0, 1, 11899, -89.900, 0.000, 133.300, 0.000, 0.000, -2.900, 0.0, , , , , , 96, , , 47, 47, 47
38.5226947, -120.3275402, 19.500, 14:30:43.269, 15, 0.00, 0.15, 97, 2.100, 0.000, 133.600, 1262, 100, 99, 32, 24430, -18237, 4967, 5121, 17, 14, 1529443843.269, 70, 0, 1024, 1024, 1024, 1024, 0, 6, 4061, 4074, 4070, 4071, 4066, 4075, 0, 1, 12000, -89.900, 0.000, 133.300, 0.000, 0.000, -2.800, 0.0, , , , , , 96, , , 47, 47, 47
38.5226947, -120.3275401, 19.900, 14:30:43.368, 15, 0.00, 0.15, 97, 2.100, 0.200, 133.500, 1262, 100, 99, 32, 24372, -18546, 4967, 5121, 17, 14, 1529443843.369, 69, 0, 1024, 1024, 1024, 1024, 0, 6, 4042, 4071, 4070, 4062, 4050, 4061, 0, 1, 12100, -89.900, 0.000, 133.300, 0.000, 0.000, -2.900, 0.0, , , , , , 96, , , 47, 47, 47
38.5226946, -120.3275400, 20.200, 14:30:43.469, 15, 0.00, 0.15, 97, 2.400, 0.400, 133.500, 1262, 100, 99, 32, 24372, -18546, 4967, 5121, 17, 14, 1529443843.469, 70, 0, 1024, 1024, 1024, 1024, 0, 6, 4042, 4071, 4070, 4062, 4050, 4061, 0, 1, 12200, -89.900, 0.000, 133.300, 0.000, 0.000, -2.800, 0.0, , , , , , 96, , , 47, 47, 47
38.5226946, -120.3275399, 20.800, 14:30:43.568, 15, 0.10, 0.15, 97, 2.900, 0.600, 133.700, 1262, 100, 99, 32, 24372, -18546, 4967, 5121, 17, 14, 1529443843.568, 58, 0, 1024, 1024, 1024, 1024, 0, 6, 4042, 4071, 4070, 4062, 4050, 4061, 0, 1, 12299, -89.900, 0.000, 133.300, 0.000, 0.100, -2.900, 0.0, , , , , , 96, , , 47, 47, 47
38.5226946, -120.3275398, 21.100, 14:30:43.668, 15, 0.10, 0.15, 97, 3.400, 0.800, 134.000, 1262, 100, 99, 32, 24372, -18546, 4967, 5121, 17, 14, 1529443843.668, 40, 0, 1024, 1024, 1024, 1024, 0, 6, 4042, 4071, 4070, 4062, 4050, 4061, 0, 1, 12399, -89.900, 0.000, 133.300, 0.000, 0.100, -2.800, 0.0, , , , , , 96, , , 47, 47, 47
38.5226947, -120.3275398, 21.400, 14:30:43.768, 15, 0.00, 0.15, 97, 3.600, 1.300, 134.100, 1262, 100, 99, 32, 24372, -18546, 4967, 5121, 17, 14, 1529443843.768, 43, 0, 1024, 1024, 1024, 1024, 0, 6, 4042, 4071, 4070, 4062, 4050, 4061, 0, 1, 12499, -89.900, 0.000, 133.300, 0.000, 0.000, -2.900, 0.0, , , , , , 96, , , 47, 47, 47
38.5226946, -120.3275397, 21.700, 14:30:43.868, 15, 0.00, 0.15, 97, 3.200, 1.400, 134.100, 1262, 100, 99, 32, 24372, -18546, 4967, 5121, 17, 14, 1529443843.868, 40, 0, 1024, 1024, 1024, 1024, 0, 6, 4042, 4071, 4070, 4062, 4050, 4061, 0, 1, 12599, -89.900, 0.000, 133.300, 0.000, 0.000, -2.800, 0.0, , , , , , 96, , , 47, 47, 47
38.5226946, -120.3275397, 21.700, 14:30:43.968, 15, 0.00, 0.15, 97, 3.200, 1.400, 134.100, 1262, 100, 98, 32, 24372, -18546, 4967, 5121, 17, 14, 1529443843.968, 140, 0, 1024, 1024, 1024, 1024, 0, 6, 4042, 4071, 4070, 4062, 4050, 4061, 0, 1, 12699, -89.900, 0.000, 133.300, 0.000, 0.000, -2.800, 0.0, , , , , , 96, , , 47, 47, 47
38.5226946, -120.3275398, 22.300, 14:30:44.068, 15, 0.00, 0.15, 97, 2.100, 0.000, 133.900, 1262, 100, 98, 32, 24372, -18546, 4967, 5121, 17, 14, 1529443844.068, 46, 0, 1024, 1024, 1024, 1024, 0, 6, 4042, 4071, 4070, 4062, 4050, 4061, 0, 1, 12799, -90.000, 0.000, 133.300, 0.000, 0.000, -2.700, 0.0, , , , , , 96, , , 47, 47, 47
38.5226947, -120.3275399, 22.500, 14:30:44.168, 15, 0.00, 0.15, 97, 1.900, -0.700, 133.600, 1262, 100, 98, 32, 24372, -18546, 4967, 5121, 17, 14, 1529443844.168, 37, 0, 1024, 1024, 1024, 1024, 0, 6, 4042, 4071, 4070, 4062, 4050, 4061, 0, 1, 12899, -89.900, 0.000, 133.300, 0.000, 0.000, -2.700, 0.0, , , , , , 96, , , 47, 47, 47
38.5226947, -120.3275399, 22.800, 14:30:44.268, 15, 0.00, 0.15, 97, 2.100, -1.000, 133.400, 1262, 100, 98, 32, 24381, -17901, 4967, 5121, 17, 14, 1529443844.268, 38, 0, 1024, 1024, 1024, 1024, 0, 6, 4047, 4070, 4068, 4067, 4053, 4064, 0, 1, 12999, -89.900, 0.000, 133.300, 0.000, 0.000, -2.700, 0.0, , , , , , 96, , , 47, 47, 47
38.5226947, -120.3275400, 23.100, 14:30:44.368, 15, 0.00, 0.15, 97, 2.100, -1.000, 133.100, 1262, 100, 98, 32, 24381, -17901, 4967, 5121, 17, 14, 1529443844.368, 19, 0, 1024, 1024, 1024, 1024, 0, 6, 4047, 4070, 4068, 4067, 4053, 4064, 0, 1, 13099, -90.000, 0.000, 133.300, 0.000, 0.000, -2.800, 0.0, , , , , , 96, , , 47, 47, 47
38.5226947, -120.3275400, 23.400, 14:30:44.468, 15, 0.00, 0.15, 97, 1.300, -1.200, 133.200, 1262, 100, 98, 32, 24381, -17901, 4967, 5121, 17, 14, 1529443844.468, 35, 0, 1024, 1024, 1024, 1024, 0, 6, 4047, 4070, 4068, 4067, 4053, 4064, 0, 1, 13199, -90.000, 0.000, 133.300, 0.000, 0.000, -2.700, 0.0, , , , , , 96, , , 47, 47, 47
38.5226947, -120.3275399, 23.700, 14:30:44.569, 15, 0.00, 0.15, 97, 1.400, -1.100, 133.500, 1262, 100, 98, 32, 24381, -17901, 4967, 5121, 17, 14, 1529443844.569, 2, 0, 1024, 1024, 1024, 1024, 0, 6, 4047, 4070, 4068, 4067, 4053, 4064, 0, 1, 13300, -89.900, 0.000, 133.300, 0.000, 0.000, -2.800, 0.0, , , , , , 96, , , 47, 47, 47
38.5226947, -120.3275398, 24.000, 14:30:44.668, 15, 0.00, 0.15, 97, 1.800, -0.400, 133.900, 1262, 100, 98, 32, 24381, -17901, 4967, 5121, 17, 14, 1529443844.668, 10, 0, 1024, 1024, 1024, 1024, 0, 6, 4047, 4070, 4068, 4067, 4053, 4064, 0, 1, 13399, -89.900, 0.000, 133.300, 0.000, 0.000, -2.800, 0.0, , , , , , 96, , , 47, 47, 47
38.5226947, -120.3275398, 24.000, 14:30:44.768, 15, 0.00, 0.15, 97, 1.800, -0.400, 133.900, 1262, 100, 98, 32, 24381, -17901, 4967, 5121, 17, 14, 1529443844.768, 110, 0, 1024, 1024, 1024, 1024, 0, 6, 4047, 4070, 4068, 4067, 4053, 4064, 0, 1, 13499, -89.900, 0.000, 133.300, 0.000, 0.000, -2.800, 0.0, , , , , , 96, , , 47, 47, 47
38.5226947, -120.3275397, 24.300, 14:30:44.868, 15, 0.10, 0.16, 97, 2.200, 0.000, 134.100, 1262, 100, 98, 32, 24381, -17901, 4967, 5121, 17, 14, 1529443844.868, 98, 0, 1024, 1024, 1024, 1024, 0, 6, 4047, 4070, 4068, 4067, 4053, 4064, 0, 1, 13599, -89.900, 0.000, 133.300, 0.000, 0.100, -2.900, 0.0, , , , , , 96, , , 47, 47, 47
38.5226948, -120.3275395, 24.900, 14:30:44.968, 15, 0.10, 0.18, 97, 3.700, 0.500, 134.100, 1262, 100, 99, 32, 24381, -17901, 4967, 5121, 17, 14, 1529443844.968, 8, 0, 1024, 1024, 1024, 1024, 0, 6, 4047, 4070, 4068, 4067, 4053, 4064, 0, 1, 13700, -89.900, 0.000, 133.300, 0.000, 0.100, -2.900, 0.0, , , , , , 96, , , 47, 47, 47
38.5226949, -120.3275393, 25.200, 14:30:45.069, 15, 0.14, 0.19, 97, 4.400, 0.500, 133.900, 1262, 100, 99, 32, 24381, -17901, 4967, 5121, 17, 14, 1529443845.069, 1, 0, 1024, 1024, 1024, 1024, 0, 6, 4047, 4070, 4068, 4067, 4053, 4064, 0, 1, 13800, -89.900, 0.000, 133.300, 0.100, 0.100, -2.900, 0.0, , , , , , 96, , , 47, 47, 47
38.5226949, -120.3275393, 25.200, 14:30:45.168, 15, 0.14, 0.19, 97, 4.400, 0.500, 133.900, 1262, 100, 99, 32, 24381, -17901, 4967, 5121, 17, 14, 1529443845.168, 101, 0, 1024, 1024, 1024, 1024, 0, 6, 4047, 4070, 4068, 4067, 4053, 4064, 0, 1, 13900, -89.900, 0.000, 133.300, 0.100, 0.100, -2.900, 0.0, , , , , , 96, , , 47, 47, 47
38.5226950, -120.3275392, 25.500, 14:30:45.269, 15, 0.14, 0.21, 97, 5.000, 0.300, 133.600, 1262, 100, 99, 32, 24381, -17901, 4967, 5121, 17, 14, 1529443845.269, 95, 0, 1024, 1024, 1024, 1024, 0, 6, 4047, 4070, 4068, 4067, 4053, 4064, 0, 1, 14000, -89.900, 0.000, 133.300, 0.100, 0.100, -2.900, 0.0, , , , , , 96, , , 47, 47, 47
38.5226952, -120.3275391, 25.800, 14:30:45.368, 15, 0.14, 0.22, 97, 5.300, 0.000, 133.300, 1262, 100, 99, 32, 24285, -18860, 4967, 5121, 17, 14, 1529443845.368, 97, 0, 1024, 1024, 1024, 1024, 0, 6, 4047, 4070, 4068, 4067, 4053, 4064, 0, 1, 14099, -89.900, 0.000, 133.300, 0.100, 0.100, -2.900, 0.0, , , , , , 96, , , 47, 47, 47
38.5226953, -120.3275390, 26.100, 14:30:45.468, 14, 0.14, 0.24, 97, 5.300, -0.400, 133.200, 1262, 100, 99, 32, 24285, -18860, 4967, 5121, 17, 14, 1529443845.468, 73, 0, 1024, 1024, 1024, 1024, 0, 6, 4047, 4070, 4068, 4067, 4053, 4064, 0, 1, 14199, -90.000, 0.000, 133.300, 0.100, 0.100, -2.800, 0.0, , , , , , 96, , , 47, 47, 47
38.5226954, -120.3275389, 26.400, 14:30:45.568, 14, 0.00, 0.25, 97, 5.400, -0.600, 133.100, 1262, 100, 99, 32, 24285, -18860, 4967, 5121, 17, 14, 1529443845.568, 79, 0, 1024, 1024, 1024, 1024, 0, 6, 4047, 4070, 4068, 4067, 4053, 4064, 0, 1, 14299, -89.900, 0.000, 133.300, 0.000, 0.000, -2.800, 0.0, , , , , , 96, , , 47, 47, 47
38.5226954, -120.3275388, 26.700, 14:30:45.668, 14, 0.00, 0.26, 97, 5.200, -0.500, 133.200, 1262, 100, 99, 32, 24285, -18860, 4967, 5121, 17, 14, 1529443845.668, 81, 0, 1024, 1024, 1024, 1024, 0, 6, 4047, 4070, 4068, 4067, 4053, 4064, 0, 1, 14399, -89.900, 0.000, 133.300, 0.000, 0.000, -2.800, 0.0, , , , , , 96, , , 47, 47, 47
38.5226955, -120.3275387, 27.000, 14:30:45.768, 14, 0.00, 0.27, 97, 4.900, -0.300, 133.300, 1262, 100, 99, 32, 24285, -18860, 4967, 5121, 17, 14, 1529443845.768, 62, 0, 1024, 1024, 1024, 1024, 0, 6, 4047, 4070, 4068, 4067, 4053, 4064, 0, 1, 14499, -89.900, 0.000, 133.300, 0.000, 0.000, -2.900, 0.0, , , , , , 96, , , 47, 47, 47
38.5226955, -120.3275387, 27.300, 14:30:45.868, 14, 0.00, 0.28, 97, 4.900, -0.200, 133.300, 1262, 100, 99, 32, 24285, -18860, 4967, 5121, 17, 14, 1529443845.868, 43, 0, 1024, 1024, 1024, 1024, 0, 6, 4033, 4056, 4049, 4046, 4044, 4052, 0, 1, 14599, -89.900, 0.000, 133.300, 0.000, 0.000, -2.800, 0.0, , , , , , 96, , , 47, 47, 47
38.5226956, -120.3275386, 27.600, 14:30:45.968, 14, 0.00, 0.29, 97, 4.900, -0.200, 133.400, 1262, 100, 100, 32, 24285, -18860, 4967, 5121, 17, 14, 1529443845.968, 50, 0, 1024, 1024, 1024, 1024, 0, 6, 4033, 4056, 4049, 4046, 4044, 4052, 0, 1, 14699, -89.900, 0.000, 133.300, 0.000, 0.000, -2.800, 0.0, , , , , , 96, , , 47, 47, 47
38.5226956, -120.3275385, 27.900, 14:30:46.068, 14, 0.00, 0.30, 97, 5.300, -0.100, 133.400, 1262, 100, 100, 32, 24285, -18860, 4967, 5121, 17, 14, 1529443846.068, 60, 0, 1024, 1024, 1024, 1024, 0, 6, 4033, 4056, 4049, 4046, 4044, 4052, 0, 1, 14799, -89.900, 0.000, 133.300, 0.000, 0.000, -2.800, 0.0, , , , , , 96, , , 47, 47, 47
38.5226958, -120.3275383, 28.500, 14:30:46.168, 14, 0.00, 0.32, 97, 5.300, -0.300, 133.400, 1262, 100, 100, 32, 24285, -18860, 4967, 5121, 17, 14, 1529443846.168, 53, 0, 1024, 1024, 1024, 1024, 0, 6, 4033, 4056, 4049, 4046, 4044, 4052, 0, 1, 14899, -89.900, 0.000, 133.300, 0.000, 0.000, -2.800, 0.0, , , , , , 96, , , 47, 47, 47
38.5226958, -120.3275383, 28.700, 14:30:46.268, 14, 0.00, 0.32, 97, 5.300, -0.100, 133.500, 1262, 100, 100, 32, 24285, -18860, 4967, 5121, 17, 14, 1529443846.268, 60, 0, 1024, 1024, 1024, 1024, 0, 6, 4033, 4056, 4049, 4046, 4044, 4052, 0, 1, 14999, -89.900, 0.000, 133.300, 0.000, 0.000, -2.800, 0.0, , , , , , 96, , , 47, 47, 47
38.5226958, -120.3275382, 29.000, 14:30:46.368, 14, 0.00, 0.32, 97, 5.000, 0.000, 133.400, 1262, 100, 100, 32, 24285, -18860, 4967, 5121, 17, 14, 1529443846.368, 49, 0, 1024, 1024, 1024, 1024, 0, 6, 4033, 4056, 4049, 4046, 4044, 4052, 0, 1, 15099, -89.900, 0.000, 133.300, 0.000, 0.000, -2.800, 0.0, , , , , , 96, , , 47, 47, 47
38.5226958, -120.3275382, 29.300, 14:30:46.469, 14, 0.00, 0.33, 97, 5.100, -0.300, 133.400, 1262, 100, 100, 32, 24285, -18860, 4967, 5121, 17, 14, 1529443846.469, 39, 0, 1024, 1024, 1024, 1024, 0, 6, 4033, 4056, 4049, 4046, 4044, 4052, 0, 1, 15200, -89.900, 0.000, 133.300, 0.000, 0.000, -2.800, 0.0, , , , , , 96, , , 47, 47, 47
38.5226958, -120.3275381, 29.600, 14:30:46.569, 14, 0.00, 0.33, 97, 4.800, -0.500, 133.300, 1262, 100, 100, 32, 24285, -18860, 4967, 5121, 17, 14, 1529443846.569, 32, 0, 1024, 1024, 1024, 1024, 0, 6, 4033, 4056, 4049, 4046, 4044, 4052, 0, 1, 15300, -89.900, 0.000, 133.300, 0.000, 0.000, -2.700, 0.0, , , , , , 96, , , 47, 47, 47
38.5226958, -120.3275381, 29.900, 14:30:46.668, 14, 0.00, 0.33, 97, 4.500, -0.400, 133.400, 1262, 100, 100, 32, 24285, -18860, 4967, 5121, 17, 14, 1529443846.668, 44, 0, 1024, 1024, 1024, 1024, 0, 6, 4033, 4056, 4049, 4046, 4044, 4052, 0, 1, 15399, -89.900, 0.000, 133.300, 0.000, 0.000, -2.700, 0.0, , , , , , 96, , , 47, 47, 47
38.5226958, -120.3275381, 30.100, 14:30:46.769, 14, 0.00, 0.33, 97, 4.500, -0.200, 133.600, 1262, 100, 100, 32, 24285, -18860, 4967, 5121, 17, 14, 1529443846.769, 13, 0, 1024, 1024, 1024, 1024, 0, 6, 4033, 4056, 4049, 4046, 4044, 4052, 0, 1, 15501, -89.900, 0.000, 133.300, 0.000, 0.000, -2.800, 0.0, , , , , , 96, , , 47, 47, 47
38.5226958, -120.3275381, 30.400, 14:30:46.868, 14, 0.00, 0.33, 96, 4.600, -0.100, 133.600, 1262, 100, 100, 32, 24313, -18421, 4916, 5121, 17, 14, 1529443846.868, 19, 0, 1024, 1024, 1024, 1024, 0, 6, 4039, 4059, 4055, 4051, 4048, 4047, 0, 1, 15600, -89.900, 0.000, 133.300, 0.000, 0.000, -2.900, 0.0, , , , , , 96, , , 47, 47, 47
38.5226958, -120.3275380, 30.700, 14:30:46.968, 14, 0.00, 0.33, 96, 4.400, 0.100, 133.600, 1262, 100, 100, 32, 24313, -18421, 4916, 5121, 17, 14, 1529443846.968, 13, 0, 1024, 1024, 1024, 1024, 0, 6, 4039, 4059, 4055, 4051, 4048, 4047, 0, 1, 15699, -89.900, 0.000, 133.300, 0.000, 0.000, -2.900, 0.0, , , , , , 96, , , 47, 47, 47
38.5226958, -120.3275380, 31.000, 14:30:47.068, 14, 0.00, 0.33, 96, 4.400, 0.200, 133.600, 1262, 100, 100, 32, 24313, -18421, 4916, 5121, 17, 14, 1529443847.068, 25, 0, 1024, 1024, 1024, 1024, 0, 6, 4039, 4059, 4055, 4051, 4048, 4047, 0, 1, 15799, -89.900, 0.000, 133.300, 0.000, 0.000, -2.900, 0.0, , , , , , 96, , , 47, 47, 47
38.5226958, -120.3275379, 31.300, 14:30:47.168, 14, 0.00, 0.33, 96, 4.600, 0.400, 133.700, 1262, 100, 100, 32, 24313, -18421, 4916, 5121, 17, 14, 1529443847.168, 16, 0, 1024, 1024, 1024, 1024, 0, 6, 4039, 4059, 4055, 4051, 4048, 4047, 0, 1, 15899, -89.900, 0.000, 133.300, 0.000, 0.000, -2.900, 0.0, , , , , , 96, , , 47, 47, 47
38.5226958, -120.3275379, 31.300, 14:30:47.268, 14, 0.00, 0.33, 96, 4.600, 0.400, 133.700, 1262, 100, 100, 32, 24313, -18421, 4916, 5121, 17, 14, 1529443847.268, 117, 0, 1024, 1024, 1024, 1024, 0, 6, 4039, 4059, 4055, 4051, 4048, 4047, 0, 1, 16000, -89.900, 0.000, 133.300, 0.000, 0.000, -2.900, 0.0, , , , , , 96, , , 47, 47, 47
38.5226958, -120.3275379, 31.600, 14:30:47.368, 14, 0.00, 0.34, 96, 5.000, 0.500, 133.800, 1262, 100, 100, 32, 24313, -18421, 4916, 5121, 17, 14, 1529443847.368, 96, 0, 1024, 1024, 1024, 1024, 0, 6, 4039, 4059, 4055, 4051, 4048, 4047, 0, 1, 16099, -89.900, 0.000, 133.300, 0.000, 0.000, -3.000, 0.0, , , , , , 96, , , 47, 47, 47
38.5226958, -120.3275378, 31.900, 14:30:47.468, 14, 0.00, 0.34, 96, 5.400, 0.800, 133.900, 1262, 100, 99, 32, 24313, -18421, 4916, 5121, 17, 14, 1529443847.468, 90, 0, 1024, 1024, 1024, 1024, 0, 6, 4039, 4059, 4055, 4051, 4048, 4047, 0, 1, 16199, -89.900, 0.000, 133.300, 0.000, 0.000, -2.900, 0.0, , , , , , 96, , , 47, 47, 47
38.5226957, -120.3275377, 32.500, 14:30:47.568, 14, 0.00, 0.34, 96, 5.700, 1.200, 134.100, 1262, 100, 99, 32, 24313, -18421, 4916, 5121, 17, 14, 1529443847.569, 4, 0, 1024, 1024, 1024, 1024, 0, 6, 4039, 4059, 4055, 4051, 4048, 4047, 0, 1, 16300, -89.900, 0.000, 133.300, 0.000, 0.000, -2.900, 0.0, , , , , , 96, , , 47, 47, 47
38.5226957, -120.3275377, 32.500, 14:30:47.668, 14, 0.00, 0.34, 96, 5.700, 1.200, 134.100, 1262, 100, 99, 32, 24313, -18421, 4916, 5121, 17, 14, 1529443847.668, 103, 0, 1024, 1024, 1024, 1024, 0, 6, 4039, 4059, 4055, 4051, 4048, 4047, 0, 1, 16399, -89.900, 0.000, 133.300, 0.000, 0.000, -2.900, 0.0, , , , , , 96, , , 47, 47, 47
38.5226956, -120.3275377, 32.700, 14:30:47.768, 14, 0.00, 0.34, 96, 5.600, 1.200, 134.100, 1262, 100, 99, 32, 24313, -18421, 4916, 5121, 17, 14, 1529443847.768, 83, 0, 1024, 1024, 1024, 1024, 0, 6, 4039, 4059, 4055, 4051, 4048, 4047, 0, 1, 16499, -89.900, 0.000, 133.300, 0.000, 0.000, -2.900, 0.0, , , , , , 96, , , 47, 47, 47
38.5226955, -120.3275377, 33.000, 14:30:47.868, 14, 0.00, 0.33, 96, 5.500, 1.300, 134.100, 1262, 100, 99, 32, 24208, -19521, 4916, 5121, 17, 14, 1529443847.868, 75, 0, 1024, 1024, 1024, 1024, 0, 6, 4007, 4043, 4026, 4031, 4016, 4032, 0, 1, 16599, -89.900, 0.000, 133.300, 0.000, 0.000, -2.900, 0.0, , , , , , 96, , , 47, 47, 47
38.5226955, -120.3275377, 33.300, 14:30:47.968, 14, 0.00, 0.32, 96, 4.900, 1.400, 134.100, 1262, 100, 99, 32, 24208, -19521, 4916, 5121, 17, 14, 1529443847.969, 72, 0, 1024, 1024, 1024, 1024, 0, 6, 4007, 4043, 4026, 4031, 4016, 4032, 0, 1, 16700, -89.900, 0.000, 133.300, 0.000, 0.000, -2.900, 0.0, , , , , , 96, , , 47, 47, 47
38.5226954, -120.3275377, 33.600, 14:30:48.068, 14, 0.00, 0.31, 96, 4.600, 1.500, 134.000, 1262, 100, 99, 32, 24208, -19521, 4916, 5121, 17, 14, 1529443848.069, 73, 0, 1024, 1024, 1024, 1024, 0, 6, 4007, 4043, 4026, 4031, 4016, 4032, 0, 1, 16800, -89.900, 0.000, 133.300, 0.000, 0.000, -2.900, 0.0, , , , , , 96, , , 47, 47, 47
38.5226954, -120.3275377, 33.600, 14:30:48.168, 14, 0.00, 0.31, 96, 4.600, 1.500, 134.000, 1262, 100, 99, 32, 24208, -19521, 4916, 5121, 17, 14, 1529443848.168, 172, 0, 1024, 1024, 1024, 1024, 0, 6, 4007, 4043, 4026, 4031, 4016, 4032, 0, 1, 16899, -89.900, 0.000, 133.300, 0.000, 0.000, -2.900, 0.0, , , , , , 96, , , 47, 47, 47
38.5226952, -120.3275378, 34.200, 14:30:48.268, 14, 0.00, 0.29, 96, 4.600, 1.300, 134.000, 1262, 100, 99, 32, 24208, -19521, 4916, 5121, 17, 14, 1529443848.268, 52, 0, 1024, 1024, 1024, 1024, 0, 6, 4007, 4043, 4026, 4031, 4016, 4032, 0, 1, 16999, -89.900, 0.000, 133.300, 0.000, 0.000, -3.000, 0.0, , , , , , 96, , , 47, 47, 47
38.5226951, -120.3275378, 34.500, 14:30:48.368, 14, 0.00, 0.28, 96, 4.300, 1.400, 133.900, 1262, 100, 99, 32, 24208, -19521, 4916, 5121, 17, 14, 1529443848.368, 40, 0, 1024, 1024, 1024, 1024, 0, 6, 4007, 4043, 4026, 4031, 4016, 4032, 0, 1, 17099, -89.900, 0.000, 133.300, 0.000, 0.000, -3.000, 0.0, , , , , , 96, , , 47, 47, 47
38.5226949, -120.3275379, 34.800, 14:30:48.468, 14, 0.00, 0.27, 96, 4.000, 1.200, 133.800, 1262, 100, 99, 32, 24208, -19521, 4916, 5121, 17, 14, 1529443848.469, 44, 0, 1024, 1024, 1024, 1024, 0, 6, 4007, 4043, 4026, 4031, 4016, 4032, 0, 1, 17200, -89.900, 0.000, 133.300, 0.000, 0.000, -2.900, 0.0, , , , , , 96, , , 47, 47, 47
38.5226947, -120.3275381, 35.400, 14:30:48.568, 14, 0.10, 0.23, 96, 3.200, 1.300, 133.600, 1262, 100, 99, 32, 24208, -19521, 4916, 5121, 17, 14, 1529443848.568, 44, 0, 1024, 1024, 1024, 1024, 0, 6, 4007, 4043, 4026, 4031, 4016, 4032, 0, 1, 17299, -89.900, 0.000, 133.300, -0.100, 0.000, -3.000, 0.0, , , , , , 96, , , 47, 47, 47
38.5226946, -120.3275383, 35.600, 14:30:48.668, 14, 0.00, 0.22, 96, 2.500, 1.300, 133.600, 1262, 100, 99, 32, 24208, -19521, 4916, 5121, 17, 14, 1529443848.668, 36, 0, 1024, 1024, 1024, 1024, 0, 6, 4007, 4043, 4026, 4031, 4016, 4032, 0, 1, 17399, -89.900, 0.000, 133.300, 0.000, 0.000, -3.000, 0.0, , , , , , 96, , , 47, 47, 47
38.5226944, -120.3275384, 36.000, 14:30:48.768, 14, 0.00, 0.20, 96, 2.200, 1.300, 133.600, 1262, 100, 99, 32, 24208, -19521, 4916, 5121, 17, 14, 1529443848.769, 28, 0, 1024, 1024, 1024, 1024, 0, 6, 4007, 4043, 4026, 4031, 4016, 4032, 0, 1, 17500, -90.000, 0.000, 133.300, 0.000, 0.000, -3.000, 0.0, , , , , , 96, , , 47, 47, 47
38.5226943, -120.3275385, 36.300, 14:30:48.868, 14, 0.00, 0.18, 96, 2.200, 1.100, 133.700, 1262, 100, 99, 32, 24181, -19896, 4916, 5121, 17, 14, 1529443848.868, 41, 0, 1024, 1024, 1024, 1024, 0, 6, 4024, 4029, 4038, 4026, 4016, 4032, 0, 1, 17599, -89.900, 0.000, 133.300, 0.000, 0.000, -3.000, 0.0, , , , , , 96, , , 47, 47, 47
38.5226942, -120.3275387, 36.600, 14:30:48.968, 14, 0.00, 0.17, 96, 2.200, 0.800, 133.700, 1262, 100, 95, 32, 24181, -19896, 4916, 5121, 17, 14, 1529443848.968, 25, 0, 1024, 1024, 1024, 1024, 0, 6, 4024, 4029, 4038, 4026, 4016, 4032, 0, 1, 17699, -89.900, 0.000, 133.300, 0.000, 0.000, -3.000, 0.0, , , , , , 96, , , 47, 47, 47
38.5226942, -120.3275388, 36.900, 14:30:49.068, 14, 0.00, 0.15, 96, 2.300, 0.700, 133.900, 1262, 100, 95, 32, 24181, -19896, 4916, 5121, 17, 14, 1529443849.068, 26, 0, 1024, 1024, 1024, 1024, 0, 6, 4024, 4029, 4038, 4026, 4016, 4032, 0, 1, 17799, -89.900, 0.000, 133.300, 0.000, 0.000, -3.000, 0.0, , , , , , 96, , , 47, 47, 47
38.5226942, -120.3275388, 36.900, 14:30:49.168, 14, 0.00, 0.15, 96, 2.300, 0.700, 133.900, 1262, 100, 95, 32, 24181, -19896, 4916, 5121, 17, 14, 1529443849.169, 126, 0, 1024, 1024, 1024, 1024, 0, 6, 4024, 4029, 4038, 4026, 4016, 4032, 0, 1, 17900, -89.900, 0.000, 133.300, 0.000, 0.000, -3.000, 0.0, , , , , , 96, , , 47, 47, 47
38.5226941, -120.3275390, 37.500, 14:30:49.268, 14, 0.00, 0.13, 96, 2.400, 0.800, 134.000, 1262, 100, 95, 32, 24181, -19896, 4916, 5121, 17, 14, 1529443849.268, 19, 0, 1024, 1024, 1024, 1024, 0, 6, 4024, 4029, 4038, 4026, 4016, 4032, 0, 1, 17999, -89.900, 0.000, 133.300, 0.000, 0.000, -3.100, 0.0, , , , , , 96, , , 47, 47, 47
38.5226941, -120.3275390, 37.500, 14:30:49.368, 14, 0.00, 0.13, 96, 2.400, 0.800, 134.000, 1262, 100, 95, 32, 24181, -19896, 4916, 5121, 17, 14, 1529443849.368, 119, 0, 1024, 1024, 1024, 1024, 0, 6, 4024, 4029, 4038, 4026, 4016, 4032, 0, 1, 18099, -89.900, 0.000, 133.300, 0.000, 0.000, -3.100, 0.0, , , , , , 96, , , 47, 47, 47
38.5226940, -120.3275391, 37.800, 14:30:49.468, 14, 0.00, 0.13, 96, 2.400, 0.600, 134.000, 1262, 100, 95, 32, 24181, -19896, 4916, 5121, 17, 14, 1529443849.468, 97, 0, 1024, 1024, 1024, 1024, 0, 6, 4024, 4029, 4038, 4026, 4016, 4032, 0, 1, 18199, -89.900, 0.000, 133.300, 0.000, 0.000, -3.200, 0.0, , , , , , 96, , , 47, 47, 47
38.5226939, -120.3275391, 38.100, 14:30:49.568, 14, 0.00, 0.11, 96, 2.600, 0.700, 133.800, 1262, 100, 95, 32, 24181, -19896, 4916, 5121, 17, 14, 1529443849.568, 92, 0, 1024, 1024, 1024, 1024, 0, 6, 4024, 4029, 4038, 4026, 4016, 4032, 0, 1, 18299, -89.900, 0.000, 133.300, 0.000, 0.000, -3.100, 0.0, , , , , , 96, , , 47, 47, 47
38.5226939, -120.3275392, 38.500, 14:30:49.668, 15, 0.00, 0.10, 96, 2.700, 0.800, 133.700, 1262, 100, 95, 32, 24181, -19896, 4916, 5121, 17, 14, 1529443849.668, 93, 0, 1024, 1024, 1024, 1024, 0, 6, 4024, 4029, 4038, 4026, 4016, 4032, 0, 1, 18399, -89.900, 0.000, 133.300, 0.000, 0.000, -3.100, 0.0, , , , , , 96, , , 47, 47, 47
38.5226938, -120.3275393, 38.800, 14:30:49.771, 15, 0.00, 0.09, 96, 2.800, 1.000, 133.600, 1262, 100, 95, 32, 24181, -19896, 4916, 5121, 17, 14, 1529443849.771, 90, 0, 1024, 1024, 1024, 1024, 0, 6, 4024, 4029, 4038, 4026, 4016, 4032, 0, 1, 18502, -89.900, 0.000, 133.300, 0.000, 0.000, -3.100, 0.0, , , , , , 96, , , 47, 47, 47
38.5226937, -120.3275394, 39.100, 14:30:49.868, 15, 0.00, 0.08, 96, 2.800, 1.000, 133.500, 1262, 100, 95, 32, 24129, -19813, 4916, 5121, 17, 14, 1529443849.868, 88, 0, 1024, 1024, 1024, 1024, 0, 6, 4017, 4027, 4024, 4029, 4016, 4023, 0, 1, 18599, -89.900, 0.000, 133.300, 0.000, 0.000, -3.000, 0.0, , , , , , 96, , , 47, 47, 47
38.5226937, -120.3275394, 39.500, 14:30:49.968, 15, 0.00, 0.08, 96, 2.800, 0.900, 133.500, 1262, 100, 99, 32, 24129, -19813, 4916, 5121, 17, 14, 1529443849.968, 90, 0, 1024, 1024, 1024, 1024, 0, 6, 4017, 4027, 4024, 4029, 4016, 4023, 0, 1, 18700, -89.900, 0.000, 133.300, 0.000, 0.000, -3.000, 0.0, , , , , , 96, , , 47, 47, 47
38.5226936, -120.3275394, 39.800, 14:30:50.068, 15, 0.00, 0.07, 96, 2.900, 0.700, 133.500, 1262, 100, 99, 32, 24129, -19813, 4916, 5121, 17, 14, 1529443850.068, 74, 0, 1024, 1024, 1024, 1024, 0, 6, 4017, 4027, 4024, 4029, 4016, 4023, 0, 1, 18800, -89.900, 0.000, 133.300, 0.000, 0.000, -3.000, 0.0, , , , , , 96, , , 47, 47, 47
38.5226936, -120.3275394, 40.100, 14:30:50.168, 15, 0.00, 0.07, 96, 2.800, 0.800, 133.600, 1262, 100, 99, 32, 24129, -19813, 4916, 5121, 17, 14, 1529443850.168, 65, 0, 1024, 1024, 1024, 1024, 0, 6, 4017, 4027, 4024, 4029, 4016, 4023, 0, 1, 18899, -89.900, 0.000, 133.300, 0.000, 0.000, -3.000, 0.0, , , , , , 96, , , 47, 47, 47
38.5226935, -120.3275394, 40.400, 14:30:50.268, 15, 0.00, 0.07, 96, 2.900, 1.000, 133.700, 1262, 100, 99, 32, 24129, -19813, 4916, 5121, 17, 14, 1529443850.268, 53, 0, 1024, 1024, 1024, 1024, 0, 6, 4017, 4027, 4024, 4029, 4016, 4023, 0, 1, 18999, -89.900, 0.000, 133.300, 0.000, 0.000, -3.000, 0.0, , , , , , 96, , , 47, 47, 47
38.5226935, -120.3275394, 40.800, 14:30:50.368, 15, 0.00, 0.07, 96, 3.100, 1.100, 133.600, 1262, 100, 99, 32, 24129, -19813, 4916, 5121, 17, 14, 1529443850.368, 58, 0, 1024, 1024, 1024, 1024, 0, 6, 4017, 4027, 4024, 4029, 4016, 4023, 0, 1, 19099, -89.900, 0.000, 133.300, 0.000, 0.000, -3.000, 0.0, , , , , , 96, , , 47, 47, 47
38.5226935, -120.3275394, 41.100, 14:30:50.468, 15, 0.00, 0.07, 96, 3.300, 1.100, 133.500, 1262, 100, 99, 32, 24129, -19813, 4916, 5121, 17, 14, 1529443850.468, 52, 0, 1024, 1024, 1024, 1024, 0, 6, 4017, 4027, 4024, 4029, 4016, 4023, 0, 1, 19199, -89.900, 0.000, 133.300, 0.000, 0.000, -3.000, 0.0, , , , , , 96, , , 47, 47, 47
38.5226934, -120.3275395, 41.700, 14:30:50.567, 15, 0.00, 0.06, 96, 3.300, 1.000, 133.400, 1262, 100, 99, 32, 24129, -19813, 4916, 5121, 17, 14, 1529443850.568, 57, 0, 1024, 1024, 1024, 1024, 0, 6, 4017, 4027, 4024, 4029, 4016, 4023, 0, 1, 19299, -89.900, 0.000, 133.300, 0.000, 0.000, -3.000, 0.0, , , , , , 96, , , 47, 47, 47
38.5226934, -120.3275395, 42.000, 14:30:50.668, 15, 0.00, 0.06, 96, 3.200, 1.300, 133.400, 1262, 100, 99, 32, 24129, -19813, 4916, 5121, 17, 14, 1529443850.668, 36, 0, 1024, 1024, 1024, 1024, 0, 6, 4017, 4027, 4024, 4029, 4016, 4023, 0, 1, 19399, -89.900, 0.000, 133.300, 0.000, 0.000, -2.900, 0.0, , , , , , 96, , , 47, 47, 47
38.5226934, -120.3275395, 42.300, 14:30:50.768, 15, 0.00, 0.06, 96, 3.400, 1.200, 133.400, 1262, 100, 99, 32, 24129, -19813, 4916, 5121, 17, 14, 1529443850.768, 49, 0, 1024, 1024, 1024, 1024, 0, 6, 4017, 4027, 4024, 4029, 4016, 4023, 0, 1, 19499, -89.900, 0.000, 133.300, 0.000, 0.000, -2.800, 0.0, , , , , , 96, , , 47, 47, 47
38.5226934, -120.3275395, 42.700, 14:30:50.868, 15, 0.00, 0.06, 96, 3.300, 1.200, 133.500, 1262, 100, 99, 32, 24199, -18755, 4916, 5121, 17, 14, 1529443850.868, 48, 0, 1024, 1024, 1024, 1024, 0, 6, 4023, 4045, 4035, 4034, 4032, 4039, 0, 1, 19599, -89.900, 0.000, 133.300, 0.000, 0.000, -2.900, 0.0, , , , , , 96, , , 47, 47, 47
38.5226934, -120.3275395, 43.000, 14:30:50.968, 15, 0.00, 0.06, 96, 3.100, 1.200, 133.600, 1262, 100, 98, 32, 24199, -18755, 4916, 5121, 17, 14, 1529443850.968, 34, 0, 1024, 1024, 1024, 1024, 0, 6, 4023, 4045, 4035, 4034, 4032, 4039, 0, 1, 19699, -89.900, 0.000, 133.300, 0.000, 0.000, -2.900, 0.0, , , , , , 96, , , 47, 47, 47
38.5226934, -120.3275396, 43.300, 14:30:51.067, 15, 0.00, 0.05, 96, 3.400, 1.000, 133.700, 1262, 100, 98, 32, 24199, -18755, 4916, 5121, 17, 14, 1529443851.068, 14, 0, 1024, 1024, 1024, 1024, 0, 6, 4023, 4045, 4035, 4034, 4032, 4039, 0, 1, 19799, -89.900, 0.000, 133.300, 0.000, 0.000, -2.800, 0.0, , , , , , 96, , , 47, 47, 47
38.5226934, -120.3275396, 43.500, 14:30:51.168, 15, 0.00, 0.05, 96, 3.400, 0.900, 133.700, 1262, 100, 98, 32, 24199, -18755, 4916, 5121, 17, 14, 1529443851.168, 39, 0, 1024, 1024, 1024, 1024, 0, 6, 4023, 4045, 4035, 4034, 4032, 4039, 0, 1, 19900, -89.900, 0.000, 133.300, 0.000, 0.000, -2.800, 0.0, , , , , , 96, , , 47, 47, 47
38.5226934, -120.3275396, 43.800, 14:30:51.267, 15, 0.00, 0.05, 96, 3.400, 0.800, 133.600, 1262, 100, 98, 32, 24199, -18755, 4916, 5121, 17, 14, 1529443851.268, 30, 0, 1024, 1024, 1024, 1024, 0, 6, 4023, 4045, 4035, 4034, 4032, 4039, 0, 1, 19999, -89.900, 0.000, 133.300, 0.000, 0.000, -2.800, 0.0, , , , , , 96, , , 47, 47, 47
38.5226934, -120.3275396, 44.100, 14:30:51.367, 15, 0.00, 0.05, 96, 3.700, 0.800, 133.600, 1262, 100, 97, 32, 24199, -18755, 4916, 5121, 17, 14, 1529443851.368, 34, 0, 1024, 1024, 1024, 1024, 0, 6, 4023, 4045, 4035, 4034, 4032, 4039, 0, 1, 20099, -89.900, 0.000, 133.300, 0.000, 0.000, -2.800, 0.0, , , , , , 96, , , 47, 47, 47
38.5226934, -120.3275396, 44.400, 14:30:51.467, 15, 0.00, 0.05, 96, 3.600, 0.900, 133.700, 1262, 100, 97, 32, 24199, -18755, 4916, 5121, 17, 14, 1529443851.468, 9, 0, 1024, 1024, 1024, 1024, 0, 6, 4023, 4045, 4035, 4034, 4032, 4039, 0, 1, 20199, -89.900, 0.000, 133.300, 0.000, 0.000, -2.800, 0.0, , , , , , 96, , , 47, 47, 47
38.5226934, -120.3275396, 44.700, 14:30:51.568, 15, 0.00, 0.05, 96, 3.400, 1.000, 133.800, 1262, 100, 97, 32, 24199, -18755, 4916, 5121, 17, 14, 1529443851.568, 1, 0, 1024, 1024, 1024, 1024, 0, 6, 4023, 4045, 4035, 4034, 4032, 4039, 0, 1, 20299, -89.900, 0.000, 133.300, 0.000, 0.000, -2.800, 0.0, , , , , , 96, , , 47, 47, 47
38.5226934, -120.3275397, 45.000, 14:30:51.668, 15, 0.00, 0.05, 96, 3.000, 1.200, 133.800, 1262, 100, 97, 32, 24199, -18755, 4916, 5121, 17, 14, 1529443851.668, 4, 0, 1024, 1024, 1024, 1024, 0, 6, 4023, 4045, 4035, 4034, 4032, 4039, 0, 1, 20399, -89.900, 0.000, 133.300, 0.000, 0.000, -2.900, 0.0, , , , , , 96, , , 47, 47, 47
38.5226934, -120.3275397, 45.300, 14:30:51.768, 15, 0.00, 0.04, 96, 2.900, 1.400, 133.800, 1262, 100, 97, 32, 24175, -18552, 4916, 5121, 17, 14, 1529443851.768, 9, 0, 1024, 1024, 1024, 1024, 0, 6, 4023, 4045, 4035, 4034, 4032, 4039, 0, 1, 20499, -89.900, 0.000, 133.300, 0.000, 0.000, -2.900, 0.0, , , , , , 96, , , 47, 47, 47
38.5226934, -120.3275397, 45.300, 14:30:51.868, 15, 0.00, 0.04, 96, 2.900, 1.400, 133.800, 1262, 100, 97, 32, 24175, -18552, 4916, 5121, 17, 14, 1529443851.868, 108, 0, 1024, 1024, 1024, 1024, 0, 6, 4023, 4045, 4035, 4034, 4032, 4039, 0, 1, 20599, -89.900, 0.000, 133.300, 0.000, 0.000, -2.900, 0.0, , , , , , 96, , , 47, 47, 47
38.5226934, -120.3275398, 45.900, 14:30:51.968, 15, 0.00, 0.03, 96, 2.700, 1.200, 133.600, 1262, 100, 98, 32, 24175, -18552, 4916, 5121, 17, 14, 1529443851.968, 6, 0, 1024, 1024, 1024, 1024, 0, 6, 4023, 4045, 4035, 4034, 4032, 4039, 0, 1, 20700, -89.900, 0.000, 133.300, 0.000, 0.000, -2.800, 0.0, , , , , , 96, , , 47, 47, 47
38.5226934, -120.3275399, 46.200, 14:30:52.073, 15, 0.00, 0.03, 96, 2.500, 1.100, 133.500, 1262, 100, 98, 32, 24175, -18552, 4916, 5121, 17, 14, 1529443852.073, 1, 0, 1024, 1024, 1024, 1024, 0, 6, 4023, 4045, 4035, 4034, 4032, 4039, 0, 1, 20805, -89.900, 0.000, 133.300, 0.000, 0.000, -2.900, 0.0, , , , , , 96, , , 47, 47, 47
