latitude,longitude,altitude(feet),ascent(feet),speed(mph),distance(feet),time(millisecond),datetime(utc),satellites,gpslevel,voltage(v),max_altitude(feet),max_ascent(feet),max_speed(mph),max_distance(feet), xSpeed(mph), ySpeed(mph), zSpeed(mph), compass_heading(degrees), pitch(degrees), roll(degrees),isPhoto,isVideo,rc_elevator,rc_aileron,rc_throttle,rc_rudder,gimbal_heading(degrees),gimbal_pitch(degrees),battery_percent,voltageCell1,voltageCell2,voltageCell3,voltageCell4,voltageCell5,voltageCell6,current(A),battery_temperature(f),flycStateRaw,flycState,message
38.5226812,-120.3275295,5420.4682410403,-0.328084,0,0,3200,2018-06-19 21:06:45,10,0,0,5420.4682410403,0,0,0,0,0,0,131.9, 1.2, 0.5,1,0,1024,1024,1024,1024,130.5,-89.9,100,4.25,4.28,4.253,4.281,4.301,4.286,0,78.8,11,AutoTakeoff,DJI_0838.jpg Starting Mission from Lat/Long: 38.52268/-120.32753 Camera: Zenmuse X3 - Overlap: 90/90 - Active Connection: No
38.5226811,-120.3275296,5420.7963250403,0,0,0.046324148464,3300,2018-06-19 21:06:46,10,0,0,5420.7963250403,0,0,0.046324148464,0,0,0,132, 0.8, 0.2,0,0,1024,1024,1024,1024,130.4,-89.9,100,4.25,4.28,4.253,4.281,4.301,4.286,0,78.8,11,AutoTakeoff,
38.5226811,-120.3275297,5420.7963250403,0,0,0.067751642588,3400,2018-06-19 21:06:46,10,0,0,5420.7963250403,0,0,0.067751642588,0,0,0,132, 0.7, 0.1,0,0,1024,1024,1024,1024,130.4,-89.9,100,4.25,4.28,4.253,4.281,4.301,4.286,0,78.8,11,AutoTakeoff,
38.5226811,-120.3275298,5420.7963250403,0,0,0.093081695892,3500,2018-06-19 21:06:46,11,0,0,5420.7963250403,0,0,0.093081695892,0,0,0,131.9, 0.3, 0,0,0,1024,1024,1024,1024,130.4,-90,100,4.25,4.28,4.253,4.281,4.301,4.286,0,78.8,11,AutoTakeoff,
38.5226811,-120.3275299,5420.7963250403,0,0,0.119865161316,3600,2018-06-19 21:06:46,11,0,0,5420.7963250403,0,0,0.119865161316,0,0,0,131.7, 0, -0.1,0,0,1024,1024,1024,1024,130.4,-90,100,4.25,4.28,4.253,4.281,4.301,4.286,0,78.8,11,AutoTakeoff,
38.5226811,-120.3275299,5421.1244090403,0.328084,0,0.119865161316,3800,2018-06-19 21:06:46,11,0,0,5421.1244090403,0.328084,0,0.119865161316,0,0,0,131.3, -0.4, 0,0,0,1024,1024,1024,1024,130.4,-90,100,4.25,4.28,4.253,4.281,4.301,4.286,0,78.8,11,AutoTakeoff,
38.5226811,-120.3275299,5421.4524930403,0.656168,0,0.119865161316,4000,2018-06-19 21:06:46,10,0,25.292,5421.4524930403,0.656168,0,0.119865161316,0,0,0,131.2, -0.5, 0,0,0,1024,1024,1024,1024,130.4,-90,100,4.25,4.28,4.253,4.281,4.301,4.286,16.324,78.8,11,AutoTakeoff,
38.5226811,-120.3275299,5421.4524930403,0.656168,0,0.119865161316,4100,2018-06-19 21:06:46,10,0,25.292,5421.4524930403,0.656168,0,0.119865161316,0,0,0,131.1, -0.5, 0,0,0,1024,1024,1024,1024,130.4,-90,100,4.25,4.28,4.253,4.281,4.301,4.286,16.324,78.8,11,AutoTakeoff,
38.5226811,-120.3275298,5421.7805770403,0.984252,0,0.093081695892,4200,2018-06-19 21:06:46,10,0,25.292,5421.7805770403,0.984252,0,0.119865161316,0,0,-0.223694,131.2, -0.4, 0,0,0,1024,1024,1024,1024,130.4,-89.9,100,4.25,4.28,4.253,4.281,4.301,4.286,16.324,78.8,11,AutoTakeoff,
38.5226811,-120.3275297,5422.1086610403,1.312336,0,0.067751642588,4300,2018-06-19 21:06:47,10,0,25.292,5422.1086610403,1.312336,0,0.119865161316,0,0,-0.223694,131.3, -0.1, 0,0,0,1024,1024,1024,1024,130.4,-89.9,100,4.25,4.28,4.253,4.281,4.301,4.286,16.324,78.8,11,AutoTakeoff,
38.5226811,-120.3275297,5422.1086610403,1.312336,0,0.067751642588,4410,2018-06-19 21:06:47,9,0,25.292,5422.1086610403,1.312336,0,0.119865161316,0,0,-0.223694,131.5, 0.1, 0.2,0,0,1024,1024,1024,1024,130.4,-89.9,100,4.25,4.28,4.253,4.281,4.301,4.286,16.324,78.8,11,AutoTakeoff,
38.5226811,-120.3275296,5422.4367450403,1.64042,0,0.046324148464,4500,2018-06-19 21:06:47,9,0,25.292,5422.4367450403,1.64042,0,0.119865161316,0,0,0,131.6, 0.2, 0.4,0,0,1024,1024,1024,1024,130.4,-89.9,100,4.25,4.28,4.253,4.281,4.301,4.286,16.324,78.8,11,AutoTakeoff,
38.5226811,-120.3275296,5422.4367450403,1.64042,0,0.046324148464,4600,2018-06-19 21:06:47,12,0,25.292,5422.4367450403,1.64042,0,0.119865161316,0,0,0,131.7, 0.3, 0.6,0,0,1024,1024,1024,1024,130.5,-89.9,100,4.25,4.28,4.253,4.281,4.301,4.286,16.324,78.8,11,AutoTakeoff,
38.5226811,-120.3275295,5422.7648290403,1.968504,0,0.036484909304,4700,2018-06-19 21:06:47,12,0,25.292,5422.7648290403,1.968504,0,0.119865161316,0,0,0,131.7, 0.3, 0.6,0,0,1024,1024,1024,1024,130.4,-89.9,100,4.25,4.28,4.253,4.281,4.301,4.286,16.324,78.8,11,AutoTakeoff,
38.5226811,-120.3275295,5423.0929130403,2.296588,0,0.036484909304,4800,2018-06-19 21:06:47,10,0,25.292,5423.0929130403,2.296588,0,0.119865161316,0,0,-0.223694,131.6, 0.4, 0.8,0,0,1024,1024,1024,1024,130.4,-89.9,100,4.25,4.28,4.253,4.281,4.301,4.286,16.324,78.8,11,AutoTakeoff,
38.5226811,-120.3275295,5423.0929130403,2.296588,0,0.036484909304,4900,2018-06-19 21:06:47,10,0,25.292,5423.0929130403,2.296588,0,0.119865161316,0,0,-0.223694,131.5, 0.4, 0.8,0,0,1024,1024,1024,1024,130.4,-89.9,100,4.25,4.28,4.253,4.281,4.301,4.286,16.324,78.8,11,AutoTakeoff,
38.5226812,-120.3275294,5423.7490810403,2.952756,0,0.0285444234856,5000,2018-06-19 21:06:47,10,0,25.292,5423.7490810403,2.952756,0,0.119865161316,0,0,-0.223694,131.3, 0.3, 0.7,0,0,1024,1024,1024,1024,130.4,-89.9,100,4.074,4.075,4.167,4.163,4.215,4.134,16.324,78.8,11,AutoTakeoff,
38.5226812,-120.3275294,5423.7490810403,2.952756,0,0.0285444234856,5100,2018-06-19 21:06:47,11,0,25.292,5423.7490810403,2.952756,0,0.119865161316,0,0,-0.223694,131.2, 0.3, 0.8,0,0,1024,1024,1024,1024,130.4,-89.9,100,4.074,4.075,4.167,4.163,4.215,4.134,16.324,78.8,14,Waypoint,
38.5226812,-120.3275294,5424.0771650403,3.28084,0,0.0285444234856,5200,2018-06-19 21:06:47,11,0,25.292,5424.0771650403,3.28084,0,0.119865161316,0,0,0,131, 0.2, 0.9,0,0,1024,1024,1024,1024,130.4,-89.9,100,4.074,4.075,4.167,4.163,4.215,4.134,16.324,78.8,14,Waypoint,
38.5226813,-120.3275294,5424.0771650403,3.28084,0,0.046324148464,5300,2018-06-19 21:06:48,11,0,25.292,5424.0771650403,3.28084,0,0.119865161316,0,0,0,130.9, 0, 0.9,0,0,1024,1024,1024,1024,130.4,-89.9,100,4.074,4.075,4.167,4.163,4.215,4.134,16.324,78.8,14,Waypoint,
38.5226814,-120.3275294,5424.4052490403,3.608924,0,0.078354333216,5400,2018-06-19 21:06:48,11,0,25.292,5424.4052490403,3.608924,0,0.119865161316,0,0,0,130.7, 0, 1,0,0,1024,1024,1024,1024,130.4,-89.9,100,4.074,4.075,4.167,4.163,4.215,4.134,16.324,78.8,14,Waypoint,
38.5226814,-120.3275293,5424.7333330403,3.937008,0,0.092648625012,5600,2018-06-19 21:06:48,12,0,25.292,5424.7333330403,3.937008,0,0.119865161316,0,0,0,130.2, 0, 1.1,0,0,1024,1024,1024,1024,130.4,-89.9,100,4.074,4.075,4.167,4.163,4.215,4.134,16.324,78.8,14,Waypoint,
38.5226814,-120.3275291,5425.0614170403,4.265092,0,0.135503285176,5800,2018-06-19 21:06:48,12,0,25.292,5425.0614170403,4.265092,0,0.135503285176,0,0,-0.223694,130, 0.3, 1,0,0,1024,1024,1024,1024,130.4,-89.9,100,4.074,4.075,4.167,4.163,4.215,4.134,16.324,78.8,14,Waypoint,
38.5226815,-120.327529,5425.0614170403,4.265092,0,0.179860898144,5900,2018-06-19 21:06:48,12,0,25.292,5425.0614170403,4.265092,0,0.179860898144,0,0,-0.223694,129.8, 0.5, 1,0,0,1024,1024,1024,1024,130.4,-89.9,100,4.074,4.075,4.167,4.163,4.215,4.134,16.324,78.8,14,Waypoint,
38.5226815,-120.3275289,5425.7175850403,4.92126,0,0.203254927764,6000,2018-06-19 21:06:48,9,0,24.277,5425.7175850403,4.92126,0,0.203254927764,0,0,-0.223694,129.6, 0.5, 1.1,0,0,1024,1024,1024,1024,130.4,-89.9,100,4.05,4.04,4.019,4.036,4.086,4.078,16.94,78.8,14,Waypoint,
38.5226816,-120.3275287,5426.0456690403,5.249344,0,0.271006570352,6100,2018-06-19 21:06:48,9,0,24.277,5426.0456690403,5.249344,0,0.271006570352,0,0,-0.223694,129.4, 0.5, 1.3,0,0,1024,1024,1024,1024,130.4,-89.9,100,4.05,4.04,4.019,4.036,4.086,4.078,16.94,78.8,14,Waypoint,
38.5226816,-120.3275287,5426.3737530403,5.577428,0,0.271006570352,6200,2018-06-19 21:06:48,12,0,24.277,5426.3737530403,5.577428,0,0.271006570352,0,0,-0.223694,129.3, 0.5, 1.5,0,0,1024,1024,1024,1024,130.4,-89.9,100,4.05,4.04,4.019,4.036,4.086,4.078,16.94,78.8,14,Waypoint,
38.5226817,-120.3275288,5427.0299210403,6.233596,0,0.27056103228,6300,2018-06-19 21:06:49,12,0,24.277,5427.0299210403,6.233596,0,0.271006570352,0,0,-0.447388,129.3, 0.3, 1.6,0,0,1024,1024,1024,1024,130.4,-90,100,4.05,4.04,4.019,4.036,4.086,4.078,16.94,78.8,14,Waypoint,
38.5226818,-120.3275288,5427.6860890403,6.889764,0,0.296388132844,6400,2018-06-19 21:06:49,11,0,24.277,5427.6860890403,6.889764,0,0.296388132844,0,0,-0.447388,129.3, 0, 1.5,0,0,1024,1024,1024,1024,130.4,-90,100,4.05,4.04,4.019,4.036,4.086,4.078,16.94,78.8,14,Waypoint,
38.5226818,-120.3275289,5428.3422570403,7.545932,0,0.277945546952,6500,2018-06-19 21:06:49,11,0,24.277,5428.3422570403,7.545932,0,0.296388132844,0,0,-0.447388,129.5, -0.3, 1.4,0,0,1024,1024,1024,1024,130.4,-90,100,4.05,4.04,4.019,4.036,4.086,4.078,16.94,78.8,14,Waypoint,
38.5226818,-120.327529,5428.9984250403,8.2021,0,0.26132546768,6600,2018-06-19 21:06:49,11,0,24.277,5428.9984250403,8.2021,0,0.296388132844,0,0,-0.447388,129.7, -0.3, 1.4,0,0,1024,1024,1024,1024,130.4,-90,100,4.05,4.04,4.019,4.036,4.086,4.078,16.94,78.8,14,Waypoint,
38.5226819,-120.3275292,5429.9826770403,9.186352,0,0.269368775024,6700,2018-06-19 21:06:49,11,0,24.277,5429.9826770403,9.186352,0,0.296388132844,0,0,-0.447388,129.9, -0.4, 1.2,0,0,1024,1024,1024,1024,130.4,-90,100,4.05,4.04,4.019,4.036,4.086,4.078,16.94,78.8,14,Waypoint,
38.5226819,-120.3275293,5430.9669290403,10.170604,0,0.261697514936,6800,2018-06-19 21:06:49,11,0,24.277,5430.9669290403,10.170604,0,0.296388132844,0,0,-0.671082,130, -0.6, 1,0,0,1024,1024,1024,1024,130.4,-90,100,4.05,4.04,4.019,4.036,4.086,4.078,16.94,78.8,14,Waypoint,
38.5226819,-120.3275292,5431.9511810403,11.154856,0,0.269368775024,6900,2018-06-19 21:06:49,11,0,24.277,5431.9511810403,11.154856,0,0.296388132844,0,0,-0.671082,130, -0.6, 0.7,0,0,1024,1024,1024,1024,130.4,-89.9,100,4.05,4.04,4.019,4.036,4.086,4.078,16.94,78.8,14,Waypoint,
38.5226818,-120.3275293,5432.9354330403,12.139108,0,0.226231306452,7000,2018-06-19 21:06:49,11,0,24.28,5432.9354330403,12.139108,0,0.296388132844,0,0,-0.671082,130, -0.3, 0.8,0,0,1024,1024,1024,1024,130.4,-89.9,98,4.096,4.01,3.999,3.997,4.03,4.02,17.144,78.8,14,Waypoint,
38.5226817,-120.3275294,5434.2477690403,13.451444,0,0.184644362864,7100,2018-06-19 21:06:49,11,0,24.28,5434.2477690403,13.451444,0,0.296388132844,0,0,-0.671082,129.9, -0.1, 0.7,0,0,1024,1024,1024,1024,130.4,-89.9,98,4.096,4.01,3.999,3.997,4.03,4.02,17.144,78.8,14,Waypoint,
38.5226817,-120.3275296,5435.2320210403,14.435696,0,0.184644362864,7200,2018-06-19 21:06:49,12,0,24.28,5435.2320210403,14.435696,0,0.296388132844,0,0,-0.671082,129.8, -0.1, 0.3,0,0,1024,1024,1024,1024,130.4,-89.9,98,4.096,4.01,3.999,3.997,4.03,4.02,17.144,78.8,14,Waypoint,
38.5226818,-120.32753,5437.5286090403,16.732284,0,0.26132546768,7300,2018-06-19 21:06:50,11,0,24.28,5437.5286090403,16.732284,0,0.296388132844,0,0,-0.671082,129.5, -0.4, 0,0,0,1024,1024,1024,1024,130.4,-89.9,98,4.096,4.01,3.999,3.997,4.03,4.02,17.144,78.8,14,Waypoint,
38.5226818,-120.3275304,5438.5128610403,17.716536,0,0.33751969584,7400,2018-06-19 21:06:50,11,0,24.28,5438.5128610403,17.716536,0,0.33751969584,0,0,-0.671082,129.5, -0.8, 0,0,0,1024,1024,1024,1024,130.4,-90,98,4.096,4.01,3.999,3.997,4.03,4.02,17.144,78.8,14,Waypoint,
38.5226819,-120.3275307,5439.8251970403,19.028872,0,0.4272637932,7500,2018-06-19 21:06:50,11,0,24.28,5439.8251970403,19.028872,0,0.4272637932,0,0,-0.671082,129.4, -1.3, -0.1,0,0,1024,1024,1024,1024,130.4,-90,98,4.096,4.01,3.999,3.997,4.03,4.02,17.144,78.8,14,Waypoint,
38.522682,-120.3275306,5440.8094490403,20.013124,0,0.42869752028,7600,2018-06-19 21:06:50,11,0,24.28,5440.8094490403,20.013124,0,0.42869752028,0,0,-0.671082,129.4, -1.5, 0,0,0,1024,1024,1024,1024,130.4,-90,98,4.096,4.01,3.999,3.997,4.03,4.02,17.144,78.8,14,Waypoint,
38.5226821,-120.3275306,5441.7937010403,20.997376,0,0.45432744236,7700,2018-06-19 21:06:50,12,0,24.28,5441.7937010403,20.997376,0,0.45432744236,0,0,-0.671082,129.4, -1.4, 0.7,0,0,1024,1024,1024,1024,130.4,-89.9,98,4.096,4.01,3.999,3.997,4.03,4.02,17.144,78.8,14,Waypoint,
38.5226822,-120.3275305,5442.7779530403,21.981628,0,0.46324148464,7800,2018-06-19 21:06:50,12,0,24.28,5442.7779530403,21.981628,0,0.46324148464,0,0,-0.671082,129.4, -1.2, 1.1,0,0,1024,1024,1024,1024,130.4,-89.9,98,4.096,4.01,3.999,3.997,4.03,4.02,17.144,78.8,14,Waypoint,
38.5226823,-120.3275303,5444.0902890403,23.293964,0,0.46175198328,7900,2018-06-19 21:06:50,12,0,24.28,5444.0902890403,23.293964,0,0.46324148464,0,0,-0.671082,129.5, -1.2, 1.4,0,0,1024,1024,1024,1024,130.4,-89.9,98,4.096,4.01,3.999,3.997,4.03,4.02,17.144,78.8,14,Waypoint,
38.5226824,-120.3275299,5445.0745410403,24.278216,0.223694,0.45246392524,8000,2018-06-19 21:06:50,12,0,23.725,5445.0745410403,24.278216,0.223694,0.46324148464,0,0,-0.671082,129.7, -0.8, 1.8,0,0,1024,1024,1024,1024,130.4,-89.9,98,3.954,3.937,3.914,3.931,3.969,3.956,23.336,78.8,14,Waypoint,
38.5226824,-120.3275296,5446.3868770403,25.590552,0.223694,0.43875001404,8100,2018-06-19 21:06:50,12,0,23.725,5446.3868770403,25.590552,0.223694,0.46324148464,0,0,-0.671082,129.8, -0.2, 2.3,0,0,1024,1024,1024,1024,130.4,-89.9,98,3.954,3.937,3.914,3.931,3.969,3.956,23.336,78.8,14,Waypoint,
38.5226825,-120.3275293,5448.3553810403,27.559056,0,0.47772639324,8300,2018-06-19 21:06:51,12,0,23.725,5448.3553810403,27.559056,0.223694,0.47772639324,0,0,-0.671082,129.9, 0.4, 2.3,0,0,1024,1024,1024,1024,130.4,-89.9,98,3.954,3.937,3.914,3.931,3.969,3.956,23.336,78.8,14,Waypoint,
38.5226825,-120.3275292,5449.3396330403,28.543308,0,0.4819718002,8500,2018-06-19 21:06:51,12,0,23.725,5449.3396330403,28.543308,0.223694,0.4819718002,0,0,-0.671082,129.8, 0.3, 2.1,0,0,1024,1024,1024,1024,130.4,-89.9,98,3.954,3.937,3.914,3.931,3.969,3.956,23.336,78.8,14,Waypoint,
38.5226824,-120.3275291,5450.6519690403,29.855644,0,0.45246392524,8600,2018-06-19 21:06:51,12,0,23.725,5450.6519690403,29.855644,0.223694,0.4819718002,0,0,-0.671082,129.7, 0.2, 1.9,0,0,1024,1024,1024,1024,130.4,-89.9,98,3.954,3.937,3.914,3.931,3.969,3.956,23.336,78.8,14,Waypoint,
38.5226824,-120.327529,5451.6362210403,30.839896,0,0.46049542156,8700,2018-06-19 21:06:51,12,0,23.725,5451.6362210403,30.839896,0.223694,0.4819718002,0,0,-0.671082,129.5, 0.2, 1.5,0,0,1024,1024,1024,1024,130.4,-89.9,98,3.954,3.937,3.914,3.931,3.969,3.956,23.336,78.8,14,Waypoint,
38.5226824,-120.3275289,5452.6204730403,31.824148,0,0.47012468696,8800,2018-06-19 21:06:51,12,0,23.725,5452.6204730403,31.824148,0.223694,0.4819718002,0,0,-0.671082,129.3, 0.1, 1.1,0,0,1024,1024,1024,1024,130.4,-89.9,98,3.954,3.937,3.914,3.931,3.969,3.956,23.336,78.8,14,Waypoint,
38.5226824,-120.3275288,5453.6047250403,32.8084,0,0.48125985792,8900,2018-06-19 21:06:51,12,0,23.725,5453.6047250403,32.8084,0.223694,0.4819718002,0,0,-0.671082,129.3, 0, 1,0,0,1024,1024,1024,1024,130.4,-89.9,98,3.954,3.937,3.914,3.931,3.969,3.956,23.336,78.8,14,Waypoint,
38.5226825,-120.3275286,5454.5889770403,33.792652,0,0.53940946608,9000,2018-06-19 21:06:51,13,0,23.836,5454.5889770403,33.792652,0.223694,0.53940946608,0,0,-0.671082,129.2, 0, 1.1,0,0,1024,1024,1024,1024,130.4,-89.9,98,3.98,3.965,3.953,3.974,4.007,3.993,20.025,78.8,14,Waypoint,
38.5226825,-120.3275284,5455.5732290403,34.776904,0,0.56881891584,9100,2018-06-19 21:06:51,13,0,23.836,5455.5732290403,34.776904,0.223694,0.56881891584,0,0,-0.671082,129.2, 0, 1.3,0,0,1024,1024,1024,1024,130.4,-89.9,98,3.98,3.965,3.953,3.974,4.007,3.993,20.025,78.8,14,Waypoint,
38.5226826,-120.3275283,5456.5574810403,35.761156,0,0.61500658136,9200,2018-06-19 21:06:51,12,0,23.836,5456.5574810403,35.761156,0.223694,0.61500658136,0,0,-0.671082,129.3, 0, 1.5,0,0,1024,1024,1024,1024,130.4,-89.9,98,3.98,3.965,3.953,3.974,4.007,3.993,20.025,78.8,14,Waypoint,
38.5226826,-120.3275281,5457.5417330403,36.745408,0,0.648540047,9300,2018-06-19 21:06:52,12,0,23.836,5457.5417330403,36.745408,0.223694,0.648540047,0,0,-0.671082,129.3, 0.1, 1.9,0,0,1024,1024,1024,1024,130.4,-89.9,98,3.98,3.965,3.953,3.974,4.007,3.993,20.025,78.8,14,Waypoint,
38.5226827,-120.327528,5458.5259850403,37.72966,0,0.69486222696,9400,2018-06-19 21:06:52,13,0,23.836,5458.5259850403,37.72966,0.223694,0.69486222696,0,0,-0.671082,129.4, 0, 2.1,0,0,1024,1024,1024,1024,130.4,-89.9,98,3.98,3.965,3.953,3.974,4.007,3.993,20.025,78.8,14,Waypoint,
38.5226828,-120.3275279,5460.8225730403,40.026248,0,0.74118768776,9500,2018-06-19 21:06:52,13,0,23.836,5460.8225730403,40.026248,0.223694,0.74118768776,0,0,-0.671082,129.6, 0, 1.9,0,0,1024,1024,1024,1024,130.4,-89.9,98,3.98,3.965,3.953,3.974,4.007,3.993,20.025,78.8,14,Waypoint,
38.5226828,-120.3275278,5461.8068250403,41.0105,0,0.75911091668,9600,2018-06-19 21:06:52,13,0,23.836,5461.8068250403,41.0105,0.223694,0.75911091668,0,0,-0.671082,129.6, 0, 1.8,0,0,1024,1024,1024,1024,130.4,-89.9,98,3.98,3.965,3.953,3.974,4.007,3.993,20.025,78.8,14,Waypoint,
38.5226829,-120.3275278,5462.7910770403,41.994752,0,0.78751314856,9700,2018-06-19 21:06:52,12,0,23.836,5462.7910770403,41.994752,0.223694,0.78751314856,0,0,-0.671082,129.6, 0, 1.9,0,0,1024,1024,1024,1024,130.4,-89.9,98,3.98,3.965,3.953,3.974,4.007,3.993,20.025,78.8,14,Waypoint,
38.5226829,-120.3275278,5463.7753290403,42.979004,0,0.78751314856,9800,2018-06-19 21:06:52,12,0,23.836,5463.7753290403,42.979004,0.223694,0.78751314856,0,0,-0.671082,129.6, -0.1, 1.8,0,0,1024,1024,1024,1024,130.4,-89.9,98,3.98,3.965,3.953,3.974,4.007,3.993,20.025,78.8,14,Waypoint,
38.5226829,-120.3275278,5464.7595810403,43.963256,0,0.78751314856,9900,2018-06-19 21:06:52,13,0,23.836,5464.7595810403,43.963256,0.223694,0.78751314856,0,0,-0.671082,129.6, -0.1, 1.6,0,0,1024,1024,1024,1024,130.4,-89.9,98,3.98,3.965,3.953,3.974,4.007,3.993,20.025,78.8,14,Waypoint,
38.5226828,-120.3275279,5465.7438330403,44.947508,0,0.74118768776,10000,2018-06-19 21:06:52,13,0,23.992,5465.7438330403,44.947508,0.223694,0.78751314856,0,0,-0.671082,129.6, -0.1, 1.3,0,0,1024,1024,1024,1024,130.4,-89.9,98,4.003,3.992,3.964,3.985,4.021,4.002,17.89,78.8,14,Waypoint,
38.5226828,-120.3275279,5466.7280850403,45.93176,0,0.74118768776,10100,2018-06-19 21:06:52,12,0,23.992,5466.7280850403,45.93176,0.223694,0.78751314856,0,0,-0.671082,129.6, -0.1, 1.1,0,0,1024,1024,1024,1024,130.4,-89.9,98,4.003,3.992,3.964,3.985,4.021,4.002,17.89,78.8,14,Waypoint,
38.5226827,-120.327528,5467.7123370403,46.916012,0,0.69486222696,10200,2018-06-19 21:06:52,12,0,23.992,5467.7123370403,46.916012,0.223694,0.78751314856,0,0,-0.671082,129.5, 0, 0.9,0,0,1024,1024,1024,1024,130.4,-89.9,98,4.003,3.992,3.964,3.985,4.021,4.002,17.89,78.8,14,Waypoint,
38.5226827,-120.327528,5468.6965890403,47.900264,0.223694,0.69486222696,10300,2018-06-19 21:06:53,13,0,23.992,5468.6965890403,47.900264,0.223694,0.78751314856,0,0,-0.671082,129.5, 0, 0.7,0,0,1024,1024,1024,1024,130.4,-89.9,98,4.003,3.992,3.964,3.985,4.021,4.002,17.89,78.8,14,Waypoint,
38.5226826,-120.3275279,5469.6808410403,48.884516,0,0.68519359148,10500,2018-06-19 21:06:53,13,0,23.992,5469.6808410403,48.884516,0.223694,0.78751314856,0,0,-0.671082,129.5, 0, 0.6,0,0,1024,1024,1024,1024,130.4,-89.9,98,4.003,3.992,3.964,3.985,4.021,4.002,17.89,78.8,14,Waypoint,
38.5226826,-120.327528,5471.6493450403,50.85302,0,0.66650592684,10600,2018-06-19 21:06:53,13,0,23.992,5471.6493450403,50.85302,0.223694,0.78751314856,0,0,-0.671082,129.4, 0.2, 0.8,0,0,1024,1024,1024,1024,130.4,-89.9,98,4.003,3.992,3.964,3.985,4.021,4.002,17.89,78.8,14,Waypoint,
38.5226826,-120.3275281,5472.6335970403,51.837272,0,0.648540047,10800,2018-06-19 21:06:53,13,0,23.992,5472.6335970403,51.837272,0.223694,0.78751314856,0,0,-0.671082,129.5, 0, 0.9,0,0,1024,1024,1024,1024,130.4,-89.9,98,4.003,3.992,3.964,3.985,4.021,4.002,17.89,78.8,14,Waypoint,
38.5226825,-120.3275282,5473.6178490403,52.821524,0,0.6022145862,10900,2018-06-19 21:06:53,13,0,23.992,5473.6178490403,52.821524,0.223694,0.78751314856,0,0,-0.671082,129.5, -0.1, 1,0,0,1024,1024,1024,1024,130.4,-89.9,98,4.003,3.992,3.964,3.985,4.021,4.002,17.89,78.8,14,Waypoint,
38.5226825,-120.3275282,5474.6021010403,53.805776,0,0.6022145862,11000,2018-06-19 21:06:53,13,0,23.95,5474.6021010403,53.805776,0.223694,0.78751314856,0,0,-0.671082,129.5, -0.2, 1,0,0,1024,1024,1024,1024,130.4,-89.9,98,3.99,3.982,3.964,3.983,4.016,4.003,18.047,78.8,14,Waypoint,
38.5226824,-120.3275283,5475.5863530403,54.790028,0.223694,0.55589240624,11100,2018-06-19 21:06:53,13,0,23.95,5475.5863530403,54.790028,0.223694,0.78751314856,0,0,-0.671082,129.5, -0.1, 0.9,0,0,1024,1024,1024,1024,130.4,-89.9,98,3.99,3.982,3.964,3.983,4.016,4.003,18.047,78.8,14,Waypoint,
38.5226823,-120.3275284,5476.5706050403,55.77428,0.223694,0.50956694544,11200,2018-06-19 21:06:53,13,0,23.95,5476.5706050403,55.77428,0.223694,0.78751314856,0,0,-0.671082,129.6, 0, 0.5,0,0,1024,1024,1024,1024,130.4,-89.9,98,3.99,3.982,3.964,3.983,4.016,4.003,18.047,78.8,14,Waypoint,
38.5226822,-120.3275285,5477.5548570403,56.758532,0.223694,0.46324148464,11300,2018-06-19 21:06:54,13,0,23.95,5477.5548570403,56.758532,0.223694,0.78751314856,0,0,-0.671082,129.6, 0, 0.2,0,0,1024,1024,1024,1024,130.4,-89.9,98,3.99,3.982,3.964,3.983,4.016,4.003,18.047,78.8,14,Waypoint,
38.5226822,-120.3275286,5478.5391090403,57.742784,0,0.44622048672,11400,2018-06-19 21:06:54,13,0,23.95,5478.5391090403,57.742784,0.223694,0.78751314856,0,0,-0.671082,129.6, 0.1, 0.1,0,0,1024,1024,1024,1024,130.4,-89.9,98,3.99,3.982,3.964,3.983,4.016,4.003,18.047,78.8,14,Waypoint,
38.5226821,-120.3275287,5479.5233610403,58.727036,0,0.39996064272,11500,2018-06-19 21:06:54,13,0,23.95,5479.5233610403,58.727036,0.223694,0.78751314856,0,0,-0.671082,129.5, 0.1, 0,0,0,1024,1024,1024,1024,130.4,-89.9,98,3.99,3.982,3.964,3.983,4.016,4.003,18.047,78.8,14,Waypoint,
38.522682,-120.3275289,5481.4918650403,60.69554,0,0.33841536516,11600,2018-06-19 21:06:54,14,0,23.95,5481.4918650403,60.69554,0.223694,0.78751314856,0,0,-0.671082,129.5, -0.1, 0.1,0,0,1024,1024,1024,1024,130.4,-89.9,98,3.99,3.982,3.964,3.983,4.016,4.003,18.047,78.8,14,Waypoint,
38.522682,-120.3275289,5482.4761170403,61.679792,0,0.33841536516,11700,2018-06-19 21:06:54,13,0,23.95,5482.4761170403,61.679792,0.223694,0.78751314856,0,0,-0.671082,129.5, -0.2, 0.3,0,0,1024,1024,1024,1024,130.4,-89.9,98,3.99,3.982,3.964,3.983,4.016,4.003,18.047,78.8,14,Waypoint,
38.5226819,-120.327529,5483.4603690403,62.664044,0,0.292567922748,11800,2018-06-19 21:06:54,13,0,23.95,5483.4603690403,62.664044,0.223694,0.78751314856,0,0,-0.671082,129.5, -0.2, 0.4,0,0,1024,1024,1024,1024,130.4,-89.9,98,3.99,3.982,3.964,3.983,4.016,4.003,18.047,78.8,14,Waypoint,
38.5226819,-120.3275291,5484.4446210403,63.648296,0,0.279755258296,11900,2018-06-19 21:06:54,14,0,23.95,5484.4446210403,63.648296,0.223694,0.78751314856,0,0,-0.671082,129.6, -0.1, 0.5,0,0,1024,1024,1024,1024,130.4,-89.9,98,3.99,3.982,3.964,3.983,4.016,4.003,18.047,78.8,14,Waypoint,
38.5226818,-120.3275293,5485.4288730403,64.632548,0,0.226231306452,12000,2018-06-19 21:06:54,14,0,23.941,5485.4288730403,64.632548,0.223694,0.78751314856,0,0,-0.671082,129.6, -0.1, 0.4,0,0,1024,1024,1024,1024,130.4,-89.9,98,3.986,3.977,3.96,3.98,4.012,3.998,17.897,78.8,14,Waypoint,
38.5226818,-120.3275294,5486.4131250403,65.6168,0,0.22076280234,12100,2018-06-19 21:06:54,15,0,23.941,5486.4131250403,65.6168,0.223694,0.78751314856,0,0,-0.671082,129.6, -0.2, 0.2,0,0,1024,1024,1024,1024,130.4,-89.9,98,3.986,3.977,3.96,3.98,4.012,3.998,17.897,78.8,14,Waypoint,
38.5226817,-120.3275294,5487.3973770403,66.601052,0,0.184644362864,12200,2018-06-19 21:06:54,15,0,23.941,5487.3973770403,66.601052,0.223694,0.78751314856,0,0,-0.671082,129.6, -0.3, 0,0,0,1024,1024,1024,1024,130.4,-89.9,98,3.986,3.977,3.96,3.98,4.012,3.998,17.897,78.8,14,Waypoint,
38.5226817,-120.3275295,5488.7097130403,67.913388,0,0.18242454652,12300,2018-06-19 21:06:55,15,0,23.941,5488.7097130403,67.913388,0.223694,0.78751314856,0,0,-0.671082,129.7, -0.2, 0,0,0,1024,1024,1024,1024,130.4,-89.9,98,3.986,3.977,3.96,3.98,4.012,3.998,17.897,78.8,14,Waypoint,
38.5226817,-120.3275296,5489.6939650403,68.89764,0,0.184644362864,12400,2018-06-19 21:06:55,15,0,23.941,5489.6939650403,68.89764,0.223694,0.78751314856,0,0,-0.671082,129.6, -0.2, 0,0,0,1024,1024,1024,1024,130.4,-89.9,98,3.986,3.977,3.96,3.98,4.012,3.998,17.897,78.8,14,Waypoint,
38.5226817,-120.3275297,5490.3501330403,69.553808,0,0.191148956248,12510,2018-06-19 21:06:55,15,0,23.941,5490.3501330403,69.553808,0.223694,0.78751314856,0,0,-0.671082,129.6, -0.2, 0.2,0,0,1024,1024,1024,1024,130.4,-89.9,98,3.986,3.977,3.96,3.98,4.012,3.998,17.897,78.8,14,Waypoint,
38.5226816,-120.3275297,5491.3343850403,70.53806,0,0.156708338348,12600,2018-06-19 21:06:55,15,0,23.941,5491.3343850403,70.53806,0.223694,0.78751314856,0,0,-0.671082,129.5, -0.1, 0.2,0,0,1024,1024,1024,1024,130.4,-89.9,98,3.986,3.977,3.96,3.98,4.012,3.998,17.897,78.8,14,Waypoint,
38.5226816,-120.3275297,5491.3343850403,70.53806,0,0.156708338348,12700,2018-06-19 21:06:55,15,0,23.941,5491.3343850403,70.53806,0.223694,0.78751314856,0,0,-0.671082,129.5, -0.1, 0.2,0,0,1024,1024,1024,1024,130.4,-89.9,98,3.986,3.977,3.96,3.98,4.012,3.998,17.897,78.8,14,Waypoint,
38.5226815,-120.3275298,5492.3186370403,71.522312,0,0.138972773476,12800,2018-06-19 21:06:55,15,0,23.941,5492.3186370403,71.522312,0.223694,0.78751314856,0,0,-0.671082,129.5, 0, 0.4,0,0,1024,1024,1024,1024,130.4,-89.9,98,3.986,3.977,3.96,3.98,4.012,3.998,17.897,78.8,14,Waypoint,
38.5226814,-120.3275299,5494.2871410403,73.490816,0,0.135503285176,12900,2018-06-19 21:06:55,15,0,23.941,5494.2871410403,73.490816,0.223694,0.78751314856,0,0,-0.671082,129.3, 0, 0.1,0,0,1024,1024,1024,1024,130.4,-89.9,98,3.986,3.977,3.96,3.98,4.012,3.998,17.897,78.8,14,Waypoint,
38.5226814,-120.3275299,5494.2871410403,73.490816,0,0.135503285176,13000,2018-06-19 21:06:55,15,0,23.89,5494.2871410403,73.490816,0.223694,0.78751314856,0,0,-0.671082,129.3, 0, 0.1,0,0,1024,1024,1024,1024,130.4,-89.9,98,3.987,3.976,3.949,3.98,4.013,3.99,18.351,78.8,14,Waypoint,
38.5226814,-120.3275299,5495.2713930403,74.475068,0,0.135503285176,13100,2018-06-19 21:06:55,15,0,23.89,5495.2713930403,74.475068,0.223694,0.78751314856,0,0,-0.671082,129.3, 0.2, 0.1,0,0,1024,1024,1024,1024,130.4,-89.9,98,3.987,3.976,3.949,3.98,4.013,3.99,18.351,78.8,14,Waypoint,
38.5226814,-120.3275299,5496.2556450403,75.45932,0,0.135503285176,13200,2018-06-19 21:06:55,15,0,23.89,5496.2556450403,75.45932,0.223694,0.78751314856,0,0,-0.671082,129.3, 0.3, 0.1,0,0,1024,1024,1024,1024,130.4,-89.9,98,3.987,3.976,3.949,3.98,4.013,3.99,18.351,78.8,14,Waypoint,
38.5226813,-120.32753,5497.2398970403,76.443572,0,0.147311684504,13300,2018-06-19 21:06:56,15,0,23.89,5497.2398970403,76.443572,0.223694,0.78751314856,0,0,-0.671082,129.3, 0.4, 0.1,0,0,1024,1024,1024,1024,130.4,-89.9,98,3.987,3.976,3.949,3.98,4.013,3.99,18.351,78.8,14,Waypoint,
38.5226813,-120.32753,5498.2241490403,77.427824,0,0.147311684504,13400,2018-06-19 21:06:56,15,0,23.89,5498.2241490403,77.427824,0.223694,0.78751314856,0,0,-0.671082,129.4, 0.3, 0.2,0,0,1024,1024,1024,1024,130.4,-89.9,98,3.987,3.976,3.949,3.98,4.013,3.99,18.351,78.8,14,Waypoint,
38.5226813,-120.32753,5499.2084010403,78.412076,0,0.147311684504,13500,2018-06-19 21:06:56,15,0,23.89,5499.2084010403,78.412076,0.223694,0.78751314856,0,0,-0.671082,129.5, 0.1, 0.3,0,0,1024,1024,1024,1024,130.4,-89.9,98,3.987,3.976,3.949,3.98,4.013,3.99,18.351,78.8,14,Waypoint,
38.5226813,-120.3275301,5500.1926530403,79.396328,0,0.175109585656,13600,2018-06-19 21:06:56,15,0,23.89,5500.1926530403,79.396328,0.223694,0.78751314856,0,0,-0.671082,129.5, 0, 0.3,0,0,1024,1024,1024,1024,130.4,-90,98,3.987,3.976,3.949,3.98,4.013,3.99,18.351,78.8,14,Waypoint,
38.5226813,-120.3275301,5501.1769050403,80.38058,0,0.175109585656,13700,2018-06-19 21:06:56,15,0,23.89,5501.1769050403,80.38058,0.223694,0.78751314856,0,0,-0.671082,129.5, -0.2, 0.2,0,0,1024,1024,1024,1024,130.4,-90,98,3.987,3.976,3.949,3.98,4.013,3.99,18.351,78.8,14,Waypoint,
38.5226813,-120.3275303,5503.1454090403,82.349084,0,0.23125164782,13800,2018-06-19 21:06:56,15,0,23.89,5503.1454090403,82.349084,0.223694,0.78751314856,0,0,-0.671082,129.6, -0.5, 0.4,0,0,1024,1024,1024,1024,130.4,-90,98,3.987,3.976,3.949,3.98,4.013,3.99,18.351,78.8,14,Waypoint,
38.5226814,-120.3275304,5505.1139130403,84.317588,0,0.26706201642,14000,2018-06-19 21:06:56,15,0,23.875,5505.1139130403,84.317588,0.223694,0.78751314856,0,0,-0.671082,129.7, -0.3, 0.7,0,0,1024,1024,1024,1024,130.4,-89.9,98,3.978,3.97,3.955,3.97,4.006,3.986,17.725,78.8,14,Waypoint,
38.5226814,-120.3275304,5507.0824170403,86.286092,0,0.26706201642,14200,2018-06-19 21:06:56,15,0,23.875,5507.0824170403,86.286092,0.223694,0.78751314856,0,0,-0.671082,129.7, -0.7, 0.6,0,0,1024,1024,1024,1024,130.4,-90,98,3.978,3.97,3.955,3.97,4.006,3.986,17.725,78.8,14,Waypoint,
38.5226814,-120.3275304,5508.0666690403,87.270344,0,0.26706201642,14300,2018-06-19 21:06:57,15,0,23.875,5508.0666690403,87.270344,0.223694,0.78751314856,0,0,-0.671082,129.6, -0.6, 0.5,0,0,1024,1024,1024,1024,130.4,-89.9,98,3.978,3.97,3.955,3.97,4.006,3.986,17.725,78.8,14,Waypoint,
38.5226815,-120.3275304,5509.0509210403,88.254596,0,0.279245087676,14400,2018-06-19 21:06:57,15,0,23.875,5509.0509210403,88.254596,0.223694,0.78751314856,0,0,-0.671082,129.5, -0.5, 0.7,0,0,1024,1024,1024,1024,130.4,-89.9,98,3.978,3.97,3.955,3.97,4.006,3.986,17.725,78.8,14,Waypoint,
38.5226815,-120.3275304,5510.0351730403,89.238848,0,0.279245087676,14500,2018-06-19 21:06:57,15,0,23.875,5510.0351730403,89.238848,0.223694,0.78751314856,0,0,-0.671082,129.5, -0.4, 0.8,0,0,1024,1024,1024,1024,130.4,-89.9,98,3.978,3.97,3.955,3.97,4.006,3.986,17.725,78.8,14,Waypoint,
38.5226815,-120.3275304,5511.0194250403,90.2231,0,0.279245087676,14600,2018-06-19 21:06:57,15,0,23.875,5511.0194250403,90.2231,0.223694,0.78751314856,0,0,-0.671082,129.5, -0.4, 0.7,0,0,1024,1024,1024,1024,130.4,-89.9,98,3.978,3.97,3.955,3.97,4.006,3.986,17.725,78.8,14,Waypoint,
38.5226816,-120.3275305,5512.0036770403,91.207352,0,0.320588264852,14700,2018-06-19 21:06:57,15,0,23.875,5512.0036770403,91.207352,0.223694,0.78751314856,0,0,-0.671082,129.5, -0.6, 0.5,0,0,1024,1024,1024,1024,130.4,-89.9,98,3.978,3.97,3.955,3.97,4.006,3.986,17.725,78.8,14,Waypoint,
38.5226816,-120.3275305,5512.9879290403,92.191604,0,0.320588264852,14800,2018-06-19 21:06:57,15,0,23.875,5512.9879290403,92.191604,0.223694,0.78751314856,0,0,-0.671082,129.5, -0.8, 0.3,0,0,1024,1024,1024,1024,130.4,-90,98,3.978,3.97,3.955,3.97,4.006,3.986,17.725,78.8,14,Waypoint,
38.5226817,-120.3275306,5513.9721810403,93.175856,0,0.36313649456,14900,2018-06-19 21:06:57,15,0,23.875,5513.9721810403,93.175856,0.223694,0.78751314856,0,0,-0.671082,129.4, -1, 0.3,0,0,1024,1024,1024,1024,130.4,-90,98,3.978,3.97,3.955,3.97,4.006,3.986,17.725,78.8,14,Waypoint,
38.5226817,-120.3275306,5514.9564330403,94.160108,0,0.36313649456,15000,2018-06-19 21:06:57,15,0,23.87,5514.9564330403,94.160108,0.223694,0.78751314856,0,0,-0.671082,129.3, -1.3, 0.5,0,0,1024,1024,1024,1024,130.4,-90,98,3.978,3.97,3.955,3.97,4.006,3.986,17.727,78.8,14,Waypoint,
38.5226818,-120.3275306,5515.9406850403,95.14436,0,0.38276576028,15100,2018-06-19 21:06:57,15,0,23.87,5515.9406850403,95.14436,0.223694,0.78751314856,0,0,-0.671082,129.2, -1.4, 0.6,0,0,1024,1024,1024,1024,130.4,-90,98,3.978,3.97,3.955,3.97,4.006,3.986,17.727,78.8,14,Waypoint,
38.5226819,-120.3275306,5516.9249370403,96.128612,0,0.4047408266,15200,2018-06-19 21:06:57,15,0,23.87,5516.9249370403,96.128612,0.223694,0.78751314856,0,0,-0.671082,129.2, -1.5, 0.7,0,0,1024,1024,1024,1024,130.4,-90,98,3.978,3.97,3.955,3.97,4.006,3.986,17.727,78.8,14,Waypoint,
38.522682,-120.3275306,5517.9091890403,97.112864,0,0.42869752028,15400,2018-06-19 21:06:58,15,0,23.87,5517.9091890403,97.112864,0.223694,0.78751314856,0,0,-0.671082,129.1, -1.5, 1.1,0,0,1024,1024,1024,1024,130.4,-90,98,3.978,3.97,3.955,3.97,4.006,3.986,17.727,78.8,14,Waypoint,
38.5226821,-120.3275306,5518.8934410403,98.097116,0,0.45432744236,15500,2018-06-19 21:06:58,15,0,23.87,5518.8934410403,98.097116,0.223694,0.78751314856,0,0,-0.671082,129.1, -1.7, 1.5,0,0,1024,1024,1024,1024,130.4,-90,98,3.978,3.97,3.955,3.97,4.006,3.986,17.727,78.8,14,Waypoint,
38.5226822,-120.3275306,5519.8776930403,99.081368,0,0.48135500228,15600,2018-06-19 21:06:58,15,0,23.87,5519.8776930403,99.081368,0.223694,0.78751314856,0,0,-0.671082,129, -1.8, 1.8,0,0,1024,1024,1024,1024,130.4,-90,98,3.978,3.97,3.955,3.97,4.006,3.986,17.727,78.8,14,Waypoint,
38.5226823,-120.3275306,5520.8619450403,100.06562,0,0.50956694544,15700,2018-06-19 21:06:58,15,0,23.87,5520.8619450403,100.06562,0.223694,0.78751314856,0,0,-0.671082,129, -1.9, 2.1,0,0,1024,1024,1024,1024,130.4,-90,98,3.978,3.97,3.955,3.97,4.006,3.986,17.727,78.8,14,Waypoint,
38.5226824,-120.3275305,5521.8461970403,101.049872,0,0.52265093536,15800,2018-06-19 21:06:58,15,0,23.87,5521.8461970403,101.049872,0.223694,0.78751314856,0,0,-0.671082,129, -2.2, 2.1,0,0,1024,1024,1024,1024,130.4,-90,98,3.978,3.97,3.955,3.97,4.006,3.986,17.727,78.8,14,Waypoint,
38.5226826,-120.3275305,5522.8304490403,102.034124,0,0.58513453316,15900,2018-06-19 21:06:58,15,0,23.87,5522.8304490403,102.034124,0.223694,0.78751314856,0,0,-0.671082,129.2, -2.6, 2.2,0,0,1024,1024,1024,1024,130.4,-90,98,3.978,3.97,3.955,3.97,4.006,3.986,17.727,78.8,14,Waypoint,
38.5226827,-120.3275305,5523.8147010403,103.018376,0,0.6172408334,16000,2018-06-19 21:06:58,15,0,23.87,5523.8147010403,103.018376,0.223694,0.78751314856,0,0,-0.671082,129.3, -2.7, 2.5,0,0,1024,1024,1024,1024,130.4,-89.9,98,3.979,3.967,3.955,3.972,4,3.989,17.727,78.8,14,Waypoint,
38.5226828,-120.3275305,5524.7989530403,104.002628,0,0.64980973208,16100,2018-06-19 21:06:58,15,0,23.87,5524.7989530403,104.002628,0.223694,0.78751314856,0,0,-0.671082,129.4, -2.5, 2.7,0,0,1024,1024,1024,1024,130.4,-89.9,98,3.979,3.967,3.955,3.972,4,3.989,17.727,78.8,14,Waypoint,
38.5226829,-120.3275304,5526.7674570403,105.971132,0,0.671341885,16300,2018-06-19 21:06:59,15,0,23.87,5526.7674570403,105.971132,0.223694,0.78751314856,0,0,-0.671082,129.7, -2.4, 2.6,0,0,1024,1024,1024,1024,130.4,-89.9,98,3.979,3.967,3.955,3.972,4,3.989,17.727,78.8,14,Waypoint,
38.522683,-120.3275304,5527.7517090403,106.955384,0,0.70518703044,16400,2018-06-19 21:06:59,15,0,23.87,5527.7517090403,106.955384,0.223694,0.78751314856,0,0,-0.671082,129.7, -2.2, 2.5,0,0,1024,1024,1024,1024,130.4,-89.9,98,3.979,3.967,3.955,3.972,4,3.989,17.727,78.8,14,Waypoint,
38.522683,-120.3275303,5528.7359610403,107.939636,0,0.69529857868,16500,2018-06-19 21:06:59,15,0,23.87,5528.7359610403,107.939636,0.223694,0.78751314856,0,0,-0.671082,129.8, -2, 2.4,0,0,1024,1024,1024,1024,130.4,-89.9,98,3.979,3.967,3.955,3.972,4,3.989,17.727,78.8,14,Waypoint,
38.5226831,-120.3275302,5530.7044650403,109.90814,0,0.72143703096,16600,2018-06-19 21:06:59,15,0,23.87,5530.7044650403,109.90814,0.223694,0.78751314856,0,0,-0.671082,129.8, -1.5, 2.1,0,0,1024,1024,1024,1024,130.4,-89.9,98,3.979,3.967,3.955,3.972,4,3.989,17.727,78.8,14,Waypoint,
38.5226831,-120.3275301,5531.6887170403,110.892392,0,0.7140584218,16700,2018-06-19 21:06:59,15,0,23.87,5531.6887170403,110.892392,0.223694,0.78751314856,0,0,-0.671082,129.7, -1.5, 2.3,0,0,1024,1024,1024,1024,130.4,-89.9,98,3.979,3.967,3.955,3.972,4,3.989,17.727,78.8,14,Waypoint,
38.5226832,-120.3275301,5532.6729690403,111.876644,0,0.74952758304,16800,2018-06-19 21:06:59,15,0,23.87,5532.6729690403,111.876644,0.223694,0.78751314856,0,0,-0.671082,129.6, -1.5, 2.4,0,0,1024,1024,1024,1024,130.4,-89.9,98,3.979,3.967,3.955,3.972,4,3.989,17.727,78.8,14,Waypoint,
38.5226832,-120.32753,5533.6572210403,112.860896,0,0.74352692668,16900,2018-06-19 21:06:59,15,0,23.87,5533.6572210403,112.860896,0.223694,0.78751314856,0,0,-0.671082,129.5, -1.6, 2.5,0,0,1024,1024,1024,1024,130.4,-89.9,98,3.979,3.967,3.955,3.972,4,3.989,17.727,78.8,14,Waypoint,
38.5226832,-120.32753,5534.3133890403,113.517064,0,0.74352692668,17000,2018-06-19 21:06:59,15,0,23.838,5534.3133890403,113.517064,0.223694,0.78751314856,0,0,-0.671082,129.5, -1.7, 2.5,0,0,1024,1024,1024,1024,130.4,-89.9,98,3.97,3.967,3.94,3.972,4.001,3.978,18.122,78.8,14,Waypoint,
38.5226833,-120.32753,5535.2976410403,114.501316,0,0.779363542,17100,2018-06-19 21:06:59,15,0,23.838,5535.2976410403,114.501316,0.223694,0.78751314856,0,0,-0.671082,129.5, -1.8, 2.5,0,0,1024,1024,1024,1024,130.4,-89.9,98,3.97,3.967,3.94,3.972,4.001,3.978,18.122,78.8,14,Waypoint,
38.5226833,-120.32753,5536.2818930403,115.485568,0,0.779363542,17200,2018-06-19 21:06:59,15,0,23.838,5536.2818930403,115.485568,0.223694,0.78751314856,0,0,-0.671082,129.5, -1.8, 2.4,0,0,1024,1024,1024,1024,130.4,-89.9,98,3.97,3.967,3.94,3.972,4.001,3.978,18.122,78.8,14,Waypoint,
38.5226833,-120.3275299,5537.2661450403,116.46982,0,0.77464569408,17300,2018-06-19 21:07:00,15,0,23.838,5537.2661450403,116.46982,0.223694,0.78751314856,0,0,-0.671082,129.5, -1.8, 2.4,0,0,1024,1024,1024,1024,130.4,-89.9,98,3.97,3.967,3.94,3.972,4.001,3.978,18.122,78.8,14,Waypoint,
38.5226833,-120.32753,5538.2503970403,117.454072,0,0.779363542,17400,2018-06-19 21:07:00,15,0,23.838,5538.2503970403,117.454072,0.223694,0.78751314856,0,0,-0.671082,129.5, -1.8, 2.4,0,0,1024,1024,1024,1024,130.4,-89.9,98,3.97,3.967,3.94,3.972,4.001,3.978,18.122,78.8,14,Waypoint,
38.5226833,-120.32753,5539.2346490403,118.438324,0,0.779363542,17600,2018-06-19 21:07:00,15,0,23.838,5539.2346490403,118.438324,0.223694,0.78751314856,0,0,-0.671082,129.5, -1.8, 2.1,0,0,1024,1024,1024,1024,130.4,-89.9,98,3.97,3.967,3.94,3.972,4.001,3.978,18.122,78.8,14,Waypoint,
38.5226833,-120.32753,5539.8908170403,119.094492,0,0.779363542,17700,2018-06-19 21:07:00,15,0,23.838,5539.8908170403,119.094492,0.223694,0.78751314856,0,0,-0.671082,129.5, -1.7, 1.7,0,0,1024,1024,1024,1024,130.4,-89.9,98,3.97,3.967,3.94,3.972,4.001,3.978,18.122,78.8,14,Waypoint,
38.5226833,-120.3275301,5540.8750690403,120.078744,0,0.78509188864,17800,2018-06-19 21:07:00,15,0,23.838,5540.8750690403,120.078744,0.223694,0.78751314856,0,0,-0.671082,129.5, -1.8, 1.5,0,0,1024,1024,1024,1024,130.4,-89.9,98,3.97,3.967,3.94,3.972,4.001,3.978,18.122,78.8,14,Waypoint,
38.5226832,-120.3275301,5541.8593210403,121.062996,0,0.74952758304,17900,2018-06-19 21:07:00,15,0,23.838,5541.8593210403,121.062996,0.223694,0.78751314856,0,0,-0.671082,129.5, -2, 1.4,0,0,1024,1024,1024,1024,130.4,-89.9,98,3.97,3.967,3.94,3.972,4.001,3.978,18.122,78.8,14,Waypoint,
38.5226832,-120.3275302,5543.8278250403,123.0315,0,0.756561704,18000,2018-06-19 21:07:00,15,0,23.834,5543.8278250403,123.0315,0.223694,0.78751314856,0,0,-0.671082,129.5, -2, 1,0,0,1024,1024,1024,1024,130.4,-89.9,98,3.949,3.934,3.945,3.974,4.004,3.984,18.943,78.8,14,Waypoint,
38.5226832,-120.3275303,5544.8120770403,124.015752,0,0.76459648116,18200,2018-06-19 21:07:00,15,0,23.834,5544.8120770403,124.015752,0.223694,0.78751314856,0,0,-0.671082,129.6, -1.9, 1.1,0,0,1024,1024,1024,1024,130.4,-89.9,98,3.949,3.934,3.945,3.974,4.004,3.984,18.943,78.8,14,Waypoint,
38.5226831,-120.3275303,5545.7963290403,125.000004,0,0.7298556664,18300,2018-06-19 21:07:01,15,0,23.834,5545.7963290403,125.000004,0.223694,0.78751314856,0,0,-0.671082,129.6, -2, 1.2,0,0,1024,1024,1024,1024,130.4,-89.9,98,3.949,3.934,3.945,3.974,4.004,3.984,18.943,78.8,14,Waypoint,
38.5226831,-120.3275304,5546.7805810403,125.984256,0,0.73928480056,18400,2018-06-19 21:07:01,15,0,23.834,5546.7805810403,125.984256,0.223694,0.78751314856,0,0,-0.671082,129.7, -2.2, 1.4,0,0,1024,1024,1024,1024,130.4,-89.9,98,3.949,3.934,3.945,3.974,4.004,3.984,18.943,78.8,14,Waypoint,
38.5226831,-120.3275304,5547.7648330403,126.968508,0,0.73928480056,18500,2018-06-19 21:07:01,15,0,23.834,5547.7648330403,126.968508,0.223694,0.78751314856,0,0,-0.671082,129.7, -2.4, 1.5,0,0,1024,1024,1024,1024,130.4,-89.9,98,3.949,3.934,3.945,3.974,4.004,3.984,18.943,78.8,14,Waypoint,
38.5226831,-120.3275305,5548.7490850403,127.95276,0,0.74968178252,18600,2018-06-19 21:07:01,15,0,23.834,5548.7490850403,127.95276,0.223694,0.78751314856,0,0,-0.671082,129.6, -2.4, 1.6,0,0,1024,1024,1024,1024,130.4,-89.9,98,3.949,3.934,3.945,3.974,4.004,3.984,18.943,78.8,14,Waypoint,
38.5226831,-120.3275305,5549.7333370403,128.937012,0,0.74968178252,18700,2018-06-19 21:07:01,15,0,23.834,5549.7333370403,128.937012,0.223694,0.78751314856,0,0,-0.671082,129.5, -2.2, 1.6,0,0,1024,1024,1024,1024,130.4,-89.9,98,3.949,3.934,3.945,3.974,4.004,3.984,18.943,78.8,14,Waypoint,
38.5226831,-120.3275306,5551.7018410403,130.905516,0,0.7610072422,18800,2018-06-19 21:07:01,15,0,23.834,5551.7018410403,130.905516,0.223694,0.78751314856,0,0,-0.671082,129.3, -2.1, 1.6,0,0,1024,1024,1024,1024,130.4,-89.9,98,3.949,3.934,3.945,3.974,4.004,3.984,18.943,78.8,14,Waypoint,
38.522683,-120.3275306,5552.6860930403,131.889768,0,0.72792981332,18900,2018-06-19 21:07:01,15,0,23.834,5552.6860930403,131.889768,0.223694,0.78751314856,0,0,-0.671082,129.3, -2.2, 1.6,0,0,1024,1024,1024,1024,130.4,-89.9,98,3.949,3.934,3.945,3.974,4.004,3.984,18.943,78.8,14,Waypoint,
38.522683,-120.3275307,5553.6703450403,132.87402,0,0.74068900008,19000,2018-06-19 21:07:01,15,0,23.607,5553.6703450403,132.87402,0.223694,0.78751314856,0,0,-0.671082,129.2, -2.4, 1.3,0,0,1024,1024,1024,1024,130.4,-89.9,97,3.934,3.921,3.915,3.928,3.977,3.959,19.902,78.8,14,Waypoint,
38.522683,-120.3275308,5554.6545970403,133.858272,0,0.7543143286,19100,2018-06-19 21:07:01,15,0,23.607,5554.6545970403,133.858272,0.223694,0.78751314856,0,0,-0.671082,129.2, -2.5, 1.2,0,0,1024,1024,1024,1024,130.4,-89.9,97,3.934,3.921,3.915,3.928,3.977,3.959,19.902,78.8,14,Waypoint,
38.5226829,-120.3275308,5555.6388490403,134.842524,0,0.72277233284,19200,2018-06-19 21:07:01,15,0,23.607,5555.6388490403,134.842524,0.223694,0.78751314856,0,0,-0.671082,129.3, -2.6, 1.3,0,0,1024,1024,1024,1024,130.4,-89.9,97,3.934,3.921,3.915,3.928,3.977,3.959,19.902,78.8,14,Waypoint,
38.5226829,-120.3275308,5556.6231010403,135.826776,0,0.72277233284,19300,2018-06-19 21:07:02,16,0,23.607,5556.6231010403,135.826776,0.223694,0.78751314856,0,0,-0.671082,129.3, -2.4, 1.2,0,0,1024,1024,1024,1024,130.4,-89.9,97,3.934,3.921,3.915,3.928,3.977,3.959,19.902,78.8,14,Waypoint,
38.5226829,-120.3275309,5557.6073530403,136.811028,0,0.73783466928,19400,2018-06-19 21:07:02,16,0,23.607,5557.6073530403,136.811028,0.223694,0.78751314856,0,0,-0.671082,129.5, -2.2, 1.3,0,0,1024,1024,1024,1024,130.4,-89.9,97,3.934,3.921,3.915,3.928,3.977,3.959,19.902,78.8,14,Waypoint,
38.5226829,-120.3275309,5558.5916050403,137.79528,0,0.73783466928,19500,2018-06-19 21:07:02,16,0,23.607,5558.5916050403,137.79528,0.223694,0.78751314856,0,0,-0.671082,129.5, -2.3, 0.9,0,0,1024,1024,1024,1024,130.4,-89.9,97,3.934,3.921,3.915,3.928,3.977,3.959,19.902,78.8,14,Waypoint,
38.5226828,-120.327531,5559.2477730403,138.451448,0,0.72394687356,19600,2018-06-19 21:07:02,16,0,23.607,5559.2477730403,138.451448,0.223694,0.78751314856,0,0,-0.671082,129.6, -2.3, 0.7,0,0,1024,1024,1024,1024,130.4,-89.9,97,3.934,3.921,3.915,3.928,3.977,3.959,19.902,78.8,14,Waypoint,
38.5226826,-120.3275311,5561.2162770403,140.419952,0,0.68519359148,19800,2018-06-19 21:07:02,16,0,23.607,5561.2162770403,140.419952,0.223694,0.78751314856,0,0,-0.671082,129.6, -2.4, 0.3,0,0,1024,1024,1024,1024,130.4,-89.9,97,3.934,3.921,3.915,3.928,3.977,3.959,19.902,78.8,14,Waypoint,
38.5226825,-120.3275312,5562.2005290403,141.404204,0,0.67855645216,19900,2018-06-19 21:07:02,16,0,23.607,5562.2005290403,141.404204,0.223694,0.78751314856,0,0,-0.671082,129.5, -2.3, 0.2,0,0,1024,1024,1024,1024,130.4,-89.9,97,3.934,3.921,3.915,3.928,3.977,3.959,19.902,78.8,14,Waypoint,
38.5226825,-120.3275312,5563.5128650403,142.71654,0,0.67855645216,20000,2018-06-19 21:07:02,16,0,23.621,5563.5128650403,142.71654,0.223694,0.78751314856,0,0,-0.671082,129.5, -2.3, 0.2,0,0,1024,1024,1024,1024,130.4,-89.9,97,3.939,3.926,3.912,3.926,3.966,3.94,19.656,80.6,14,Waypoint,
38.5226825,-120.3275312,5563.5128650403,142.71654,0,0.67855645216,20100,2018-06-19 21:07:02,16,0,23.621,5563.5128650403,142.71654,0.223694,0.78751314856,0,0,-0.671082,129.5, -2.3, 0.2,0,0,1024,1024,1024,1024,130.4,-89.9,97,3.939,3.926,3.912,3.926,3.966,3.94,19.656,80.6,14,Waypoint,
38.5226824,-120.3275312,5564.4971170403,143.700792,0,0.65357285556,20200,2018-06-19 21:07:02,16,0,23.621,5564.4971170403,143.700792,0.223694,0.78751314856,0,0,-0.671082,129.5, -2.4, 0.2,0,0,1024,1024,1024,1024,130.4,-89.9,97,3.939,3.926,3.912,3.926,3.966,3.94,19.656,80.6,14,Waypoint,
38.5226824,-120.3275312,5565.4813690403,144.685044,0,0.65357285556,20300,2018-06-19 21:07:03,16,0,23.621,5565.4813690403,144.685044,0.223694,0.78751314856,0,0,-0.671082,129.5, -2.4, 0.4,0,0,1024,1024,1024,1024,130.4,-89.9,97,3.939,3.926,3.912,3.926,3.966,3.94,19.656,80.6,14,Waypoint,
38.5226823,-120.3275312,5566.4656210403,145.669296,0,0.62971458708,20400,2018-06-19 21:07:03,16,0,23.621,5566.4656210403,145.669296,0.223694,0.78751314856,0,0,-0.671082,129.6, -2.2, 0.5,0,0,1024,1024,1024,1024,130.4,-89.9,97,3.939,3.926,3.912,3.926,3.966,3.94,19.656,80.6,14,Waypoint,
38.5226823,-120.3275312,5567.4498730403,146.653548,0,0.62971458708,20500,2018-06-19 21:07:03,16,0,23.621,5567.4498730403,146.653548,0.223694,0.78751314856,0,0,-0.671082,129.7, -1.9, 0.7,0,0,1024,1024,1024,1024,130.4,-89.9,97,3.939,3.926,3.912,3.926,3.966,3.94,19.656,80.6,14,Waypoint,
38.5226822,-120.3275312,5568.4341250403,147.6378,0,0.60711288032,20600,2018-06-19 21:07:03,16,0,23.621,5568.4341250403,147.6378,0.223694,0.78751314856,0,0,-0.671082,129.7, -1.7, 0.5,0,0,1024,1024,1024,1024,130.4,-89.9,97,3.939,3.926,3.912,3.926,3.966,3.94,19.656,80.6,14,Waypoint,
38.5226821,-120.3275312,5570.4026290403,149.606304,0,0.58591537308,20800,2018-06-19 21:07:03,16,0,23.621,5570.4026290403,149.606304,0.223694,0.78751314856,0,0,-0.671082,129.8, -1.6, -0.2,0,0,1024,1024,1024,1024,130.4,-89.9,97,3.939,3.926,3.912,3.926,3.966,3.94,19.656,80.6,14,Waypoint,
38.522682,-120.3275312,5571.3868810403,150.590556,0,0.566272984,20900,2018-06-19 21:07:03,16,0,23.621,5571.3868810403,150.590556,0.223694,0.78751314856,0,0,-0.671082,129.8, -1.6, -0.1,0,0,1024,1024,1024,1024,130.4,-89.9,97,3.939,3.926,3.912,3.926,3.966,3.94,19.656,80.6,14,Waypoint,
38.5226819,-120.3275311,5572.3711330403,151.574808,0,0.52327101412,21000,2018-06-19 21:07:03,16,0,23.578,5572.3711330403,151.574808,0.223694,0.78751314856,0,0,-0.671082,129.9, -1.7, 0,0,0,1024,1024,1024,1024,130.4,-89.9,97,3.933,3.91,3.91,3.924,3.962,3.939,19.815,80.6,14,Waypoint,
38.5226819,-120.3275311,5573.3553850403,152.55906,0,0.52327101412,21100,2018-06-19 21:07:03,16,0,23.578,5573.3553850403,152.55906,0.223694,0.78751314856,0,0,-0.671082,129.8, -1.8, 0.3,0,0,1024,1024,1024,1024,130.4,-89.9,97,3.933,3.91,3.91,3.924,3.962,3.939,19.815,80.6,14,Waypoint,
38.5226819,-120.327531,5574.3396370403,153.543312,0,0.49854988472,21200,2018-06-19 21:07:03,16,0,23.578,5574.3396370403,153.543312,0.223694,0.78751314856,0,0,-0.671082,129.7, -1.8, 0.4,0,0,1024,1024,1024,1024,130.4,-89.9,97,3.933,3.91,3.91,3.924,3.962,3.939,19.815,80.6,14,Waypoint,
38.522682,-120.3275309,5576.3081410403,155.511816,0,0.4948655014,21300,2018-06-19 21:07:04,16,0,23.578,5576.3081410403,155.511816,0.223694,0.78751314856,0,0,-0.671082,129.6, -1.8, 0.7,0,0,1024,1024,1024,1024,130.4,-89.9,97,3.933,3.91,3.91,3.924,3.962,3.939,19.815,80.6,14,Waypoint,
38.522682,-120.3275309,5577.2923930403,156.496068,0,0.4948655014,21400,2018-06-19 21:07:04,16,0,23.578,5577.2923930403,156.496068,0.223694,0.78751314856,0,0,-0.671082,129.6, -1.7, 1.4,0,0,1024,1024,1024,1024,130.4,-89.9,97,3.933,3.91,3.91,3.924,3.962,3.939,19.815,80.6,14,Waypoint,
38.5226821,-120.3275308,5578.2766450403,157.48032,0,0.49550198436,21500,2018-06-19 21:07:04,16,0,23.578,5578.2766450403,157.48032,0.223694,0.78751314856,0,0,-0.671082,129.5, -1.9, 2.1,0,0,1024,1024,1024,1024,130.4,-89.9,97,3.933,3.91,3.91,3.924,3.962,3.939,19.815,80.6,14,Waypoint,
38.5226822,-120.3275308,5579.2608970403,158.464572,0,0.52039699828,21600,2018-06-19 21:07:04,16,0,23.578,5579.2608970403,158.464572,0.223694,0.78751314856,0,0,-0.671082,129.3, -2.1, 2.5,0,0,1024,1024,1024,1024,130.4,-90,97,3.933,3.91,3.91,3.924,3.962,3.939,19.815,80.6,14,Waypoint,
38.5226823,-120.3275307,5580.2451490403,159.448824,0,0.52763453132,21700,2018-06-19 21:07:04,16,0,23.578,5580.2451490403,159.448824,0.223694,0.78751314856,0,0,-0.671082,129.2, -2.4, 2.5,0,0,1024,1024,1024,1024,130.4,-90,97,3.933,3.91,3.91,3.924,3.962,3.939,19.815,80.6,14,Waypoint,
38.5226823,-120.3275307,5581.2294010403,160.433076,0,0.52763453132,21800,2018-06-19 21:07:04,16,0,23.578,5581.2294010403,160.433076,0.223694,0.78751314856,0,0,-0.671082,129, -2.7, 2.3,0,0,1024,1024,1024,1024,130.4,-89.9,97,3.933,3.91,3.91,3.924,3.962,3.939,19.815,80.6,14,Waypoint,
38.5226823,-120.3275308,5582.2136530403,161.417328,0,0.54659778652,21900,2018-06-19 21:07:04,16,0,23.578,5582.2136530403,161.417328,0.223694,0.78751314856,0,0,-0.671082,128.9, -2.7, 2.2,0,0,1024,1024,1024,1024,130.4,-90,97,3.933,3.91,3.91,3.924,3.962,3.939,19.815,80.6,14,Waypoint,
38.5226823,-120.3275308,5583.1979050403,162.40158,0,0.54659778652,22000,2018-06-19 21:07:04,16,0,23.595,5583.1979050403,162.40158,0.223694,0.78751314856,0,0,-0.671082,128.9, -2.7, 1.9,0,0,1024,1024,1024,1024,130.4,-90,97,3.933,3.919,3.901,3.922,3.96,3.947,19.386,80.6,14,Waypoint,
38.5226824,-120.3275308,5584.1821570403,163.385832,0,0.57392062204,22100,2018-06-19 21:07:04,16,0,23.595,5584.1821570403,163.385832,0.223694,0.78751314856,0,0,-0.671082,129, -2.7, 1.5,0,0,1024,1024,1024,1024,130.4,-89.9,97,3.933,3.919,3.901,3.922,3.96,3.947,19.386,80.6,14,Waypoint,
38.5226824,-120.3275307,5585.1664090403,164.370084,0,0.55589240624,22200,2018-06-19 21:07:04,16,0,23.595,5585.1664090403,164.370084,0.223694,0.78751314856,0,0,-0.671082,129.1, -2.6, 1.3,0,0,1024,1024,1024,1024,130.4,-89.9,97,3.933,3.919,3.901,3.922,3.96,3.947,19.386,80.6,14,Waypoint,
38.5226824,-120.3275307,5586.1506610403,165.354336,0,0.55589240624,22300,2018-06-19 21:07:05,16,0,23.595,5586.1506610403,165.354336,0.223694,0.78751314856,0,0,-0.671082,129.3, -2.4, 1.2,0,0,1024,1024,1024,1024,130.4,-89.9,97,3.933,3.919,3.901,3.922,3.96,3.947,19.386,80.6,14,Waypoint,
38.5226824,-120.3275307,5587.1349130403,166.338588,0,0.55589240624,22500,2018-06-19 21:07:05,16,0,23.595,5587.1349130403,166.338588,0.223694,0.78751314856,0,0,-0.671082,129.5, -2.5, 1.3,0,0,1024,1024,1024,1024,130.4,-90,97,3.933,3.919,3.901,3.922,3.96,3.947,19.386,80.6,14,Waypoint,
38.5226824,-120.3275307,5588.1191650403,167.32284,0,0.55589240624,22600,2018-06-19 21:07:05,16,0,23.595,5588.1191650403,167.32284,0.223694,0.78751314856,0,0,-0.671082,129.6, -2.5, 1.4,0,0,1024,1024,1024,1024,130.4,-89.9,97,3.933,3.919,3.901,3.922,3.96,3.947,19.386,80.6,14,Waypoint,
38.5226824,-120.3275307,5589.1034170403,168.307092,0,0.55589240624,22700,2018-06-19 21:07:05,16,0,23.595,5589.1034170403,168.307092,0.223694,0.78751314856,0,0,-0.671082,129.6, -2.6, 1.7,0,0,1024,1024,1024,1024,130.4,-90,97,3.933,3.919,3.901,3.922,3.96,3.947,19.386,80.6,14,Waypoint,
38.5226824,-120.3275307,5590.0876690403,169.291344,0,0.55589240624,22800,2018-06-19 21:07:05,16,0,23.595,5590.0876690403,169.291344,0.223694,0.78751314856,0,0,-0.671082,129.6, -2.7, 1.6,0,0,1024,1024,1024,1024,130.4,-90,97,3.933,3.919,3.901,3.922,3.96,3.947,19.386,80.6,14,Waypoint,
38.5226824,-120.3275307,5591.0719210403,170.275596,0,0.55589240624,22900,2018-06-19 21:07:05,16,0,23.595,5591.0719210403,170.275596,0.223694,0.78751314856,0,0,-0.671082,129.5, -2.5, 1.5,0,0,1024,1024,1024,1024,130.4,-89.9,97,3.933,3.919,3.901,3.922,3.96,3.947,19.386,80.6,14,Waypoint,
38.5226824,-120.3275307,5592.0561730403,171.259848,0,0.55589240624,23000,2018-06-19 21:07:05,16,0,23.639,5592.0561730403,171.259848,0.223694,0.78751314856,0,0,-0.671082,129.6, -2.3, 1.4,0,0,1024,1024,1024,1024,130.4,-89.9,97,3.943,3.933,3.914,3.932,3.971,3.951,18.748,80.6,14,Waypoint,
38.5226824,-120.3275306,5593.0404250403,172.2441,0,0.53877298312,23100,2018-06-19 21:07:05,16,0,23.639,5593.0404250403,172.2441,0.223694,0.78751314856,0,0,-0.671082,129.8, -2.1, 1.3,0,0,1024,1024,1024,1024,130.4,-89.9,97,3.943,3.933,3.914,3.932,3.971,3.951,18.748,80.6,14,Waypoint,
38.5226824,-120.3275306,5594.0246770403,173.228352,0,0.53877298312,23200,2018-06-19 21:07:05,16,0,23.639,5594.0246770403,173.228352,0.223694,0.78751314856,0,0,-0.671082,130, -2.1, 1.2,0,0,1024,1024,1024,1024,130.4,-89.9,97,3.943,3.933,3.914,3.932,3.971,3.951,18.748,80.6,14,Waypoint,
38.5226823,-120.3275306,5595.0089290403,174.212604,0,0.50956694544,23300,2018-06-19 21:07:06,16,0,23.639,5595.0089290403,174.212604,0.223694,0.78751314856,0,0,-0.671082,130.2, -2, 1.3,0,0,1024,1024,1024,1024,130.4,-89.9,97,3.943,3.933,3.914,3.932,3.971,3.951,18.748,80.6,14,Waypoint,
38.5226823,-120.3275306,5595.9931810403,175.196856,0,0.50956694544,23400,2018-06-19 21:07:06,16,0,23.639,5595.9931810403,175.196856,0.223694,0.78751314856,0,0,-0.671082,130.2, -1.9, 1.2,0,0,1024,1024,1024,1024,130.4,-89.9,97,3.943,3.933,3.914,3.932,3.971,3.951,18.748,80.6,14,Waypoint,
38.5226823,-120.3275306,5596.9774330403,176.181108,0,0.50956694544,23500,2018-06-19 21:07:06,16,0,23.639,5596.9774330403,176.181108,0.223694,0.78751314856,0,0,-0.671082,130.1, -1.7, 1,0,0,1024,1024,1024,1024,130.4,-89.9,97,3.943,3.933,3.914,3.932,3.971,3.951,18.748,80.6,14,Waypoint,
38.5226822,-120.3275306,5597.9616850403,177.16536,0,0.48135500228,23600,2018-06-19 21:07:06,16,0,23.639,5597.9616850403,177.16536,0.223694,0.78751314856,0,0,-0.671082,130, -1.7, 0.9,0,0,1024,1024,1024,1024,130.4,-89.9,97,3.943,3.933,3.914,3.932,3.971,3.951,18.748,80.6,14,Waypoint,
38.5226822,-120.3275307,5598.9459370403,178.149612,0,0.5004429294,23700,2018-06-19 21:07:06,16,0,23.639,5598.9459370403,178.149612,0.223694,0.78751314856,0,0,-0.671082,129.8, -1.7, 0.7,0,0,1024,1024,1024,1024,130.4,-89.9,97,3.943,3.933,3.914,3.932,3.971,3.951,18.748,80.6,14,Waypoint,
38.5226822,-120.3275308,5599.9301890403,179.133864,0,0.52039699828,23800,2018-06-19 21:07:06,16,0,23.639,5599.9301890403,179.133864,0.223694,0.78751314856,0,0,-0.671082,129.5, -1.9, 0.5,0,0,1024,1024,1024,1024,130.4,-89.9,97,3.943,3.933,3.914,3.932,3.971,3.951,18.748,80.6,14,Waypoint,
38.5226821,-120.3275308,5601.8986930403,181.102368,0,0.49550198436,23900,2018-06-19 21:07:06,16,0,23.639,5601.8986930403,181.102368,0.223694,0.78751314856,0,0,-0.671082,129.1, -2.1, 0.4,0,0,1024,1024,1024,1024,130.4,-89.9,97,3.943,3.933,3.914,3.932,3.971,3.951,18.748,80.6,14,Waypoint,
38.5226821,-120.3275309,5602.8829450403,182.08662,0,0.517224426,24000,2018-06-19 21:07:06,16,0,23.698,5602.8829450403,182.08662,0.223694,0.78751314856,0,0,-0.671082,129, -2.1, 0.4,0,0,1024,1024,1024,1024,130.4,-89.9,97,3.949,3.943,3.917,3.938,3.982,3.956,17.64,80.6,14,Waypoint,
38.522682,-120.3275309,5604.8514490403,184.055124,0,0.4948655014,24200,2018-06-19 21:07:06,16,0,23.698,5604.8514490403,184.055124,0.223694,0.78751314856,0,0,-0.671082,128.9, -2.1, 0.4,0,0,1024,1024,1024,1024,130.4,-89.9,97,3.949,3.943,3.917,3.938,3.982,3.956,17.64,80.6,14,Waypoint,
38.522682,-120.3275309,5606.8199530403,186.023628,0,0.4948655014,24400,2018-06-19 21:07:07,16,0,23.698,5606.8199530403,186.023628,0.223694,0.78751314856,0,0,-0.671082,129, -1.8, 0.6,0,0,1024,1024,1024,1024,130.4,-89.9,97,3.949,3.943,3.917,3.938,3.982,3.956,17.64,80.6,14,Waypoint,
38.522682,-120.3275309,5607.8042050403,187.00788,0,0.4948655014,24500,2018-06-19 21:07:07,16,0,23.698,5607.8042050403,187.00788,0.223694,0.78751314856,0,0,-0.671082,129.2, -1.8, 0.5,0,0,1024,1024,1024,1024,130.4,-89.9,97,3.949,3.943,3.917,3.938,3.982,3.956,17.64,80.6,14,Waypoint,
38.5226819,-120.327531,5609.7727090403,188.976384,0,0.49854988472,24700,2018-06-19 21:07:07,16,0,23.698,5609.7727090403,188.976384,0.223694,0.78751314856,0,0,-0.671082,129.4, -1.8, 0.3,0,0,1024,1024,1024,1024,130.4,-89.9,97,3.949,3.943,3.917,3.938,3.982,3.956,17.64,80.6,14,Waypoint,
38.5226819,-120.327531,5610.7569610403,189.960636,0,0.49854988472,24800,2018-06-19 21:07:07,16,0,23.698,5610.7569610403,189.960636,0.223694,0.78751314856,0,0,-0.671082,129.4, -2, 0.4,0,0,1024,1024,1024,1024,130.4,-90,97,3.949,3.943,3.917,3.938,3.982,3.956,17.64,80.6,14,Waypoint,
38.5226819,-120.327531,5612.0692970403,191.272972,0,0.49854988472,24900,2018-06-19 21:07:07,16,0,23.698,5612.0692970403,191.272972,0.223694,0.78751314856,0,0,-0.671082,129.3, -2.2, 0.5,0,0,1024,1024,1024,1024,130.4,-90,97,3.949,3.943,3.917,3.938,3.982,3.956,17.64,80.6,14,Waypoint,
38.5226819,-120.327531,5613.0535490403,192.257224,0,0.49854988472,25000,2018-06-19 21:07:07,16,0,23.713,5613.0535490403,192.257224,0.223694,0.78751314856,0,0,-0.671082,129.3, -2.3, 0.6,0,0,1024,1024,1024,1024,130.4,-89.9,97,3.954,3.949,3.926,3.947,3.987,3.969,17.634,80.6,14,Waypoint,
38.5226819,-120.327531,5614.0378010403,193.241476,0,0.49854988472,25100,2018-06-19 21:07:07,16,0,23.713,5614.0378010403,193.241476,0.223694,0.78751314856,0,0,-0.671082,129.1, -2.2, 0.8,0,0,1024,1024,1024,1024,130.4,-90,97,3.954,3.949,3.926,3.947,3.987,3.969,17.634,80.6,14,Waypoint,
38.522682,-120.327531,5615.0220530403,194.225728,0,0.51818899296,25200,2018-06-19 21:07:07,16,0,23.713,5615.0220530403,194.225728,0.223694,0.78751314856,0,0,-0.671082,129.1, -2.6, 0.7,0,0,1024,1024,1024,1024,130.4,-90,97,3.954,3.949,3.926,3.947,3.987,3.969,17.634,80.6,14,Waypoint,
38.522682,-120.327531,5615.0220530403,194.225728,0,0.51818899296,25300,2018-06-19 21:07:08,16,0,23.713,5615.0220530403,194.225728,0.223694,0.78751314856,0,0,-0.671082,129.1, -2.6, 0.7,0,0,1024,1024,1024,1024,130.4,-90,97,3.954,3.949,3.926,3.947,3.987,3.969,17.634,80.6,14,Waypoint,
38.522682,-120.327531,5616.0063050403,195.20998,0,0.51818899296,25400,2018-06-19 21:07:08,16,0,23.713,5616.0063050403,195.20998,0.223694,0.78751314856,0,0,-0.671082,129.1, -2.9, 0.6,0,0,1024,1024,1024,1024,130.4,-90,97,3.954,3.949,3.926,3.947,3.987,3.969,17.634,80.6,14,Waypoint,
38.522682,-120.327531,5616.9905570403,196.194232,0,0.51818899296,25500,2018-06-19 21:07:08,16,0,23.713,5616.9905570403,196.194232,0.223694,0.78751314856,0,0,-0.671082,129.1, -2.9, 0.8,0,0,1024,1024,1024,1024,130.4,-90,97,3.954,3.949,3.926,3.947,3.987,3.969,17.634,80.6,14,Waypoint,
38.522682,-120.3275309,5617.9748090403,197.178484,0,0.4948655014,25600,2018-06-19 21:07:08,16,0,23.713,5617.9748090403,197.178484,0.223694,0.78751314856,0,0,-0.671082,129.2, -2.5, 1.3,0,0,1024,1024,1024,1024,130.4,-89.9,97,3.954,3.949,3.926,3.947,3.987,3.969,17.634,80.6,14,Waypoint,
38.522682,-120.3275308,5618.6309770403,197.834652,0.223694,0.472112876,25700,2018-06-19 21:07:08,16,0,23.713,5618.6309770403,197.834652,0.223694,0.78751314856,0,0,-0.671082,129.2, -2.4, 1.9,0,0,1024,1024,1024,1024,130.4,-89.9,97,3.954,3.949,3.926,3.947,3.987,3.969,17.634,80.6,14,Waypoint,
38.5226821,-120.3275307,5619.6152290403,198.818904,0.223694,0.47450132752,25800,2018-06-19 21:07:08,16,0,23.713,5619.6152290403,198.818904,0.223694,0.78751314856,0,0,-0.671082,129.1, -2.1, 2.6,0,0,1024,1024,1024,1024,130.4,-89.9,97,3.954,3.949,3.926,3.947,3.987,3.969,17.634,80.6,14,Waypoint,
38.5226822,-120.3275307,5620.5994810403,199.803156,0.223694,0.5004429294,25900,2018-06-19 21:07:08,16,0,23.713,5620.5994810403,199.803156,0.223694,0.78751314856,0,0,-0.671082,129.1, -2.2, 2.9,0,0,1024,1024,1024,1024,130.4,-89.9,97,3.954,3.949,3.926,3.947,3.987,3.969,17.634,80.6,14,Waypoint,
38.5226822,-120.3275306,5621.5837330403,200.787408,0.223694,0.48135500228,26000,2018-06-19 21:07:08,16,0,23.76,5621.5837330403,200.787408,0.223694,0.78751314856,0,0,-0.671082,129.2, -2, 2.8,0,0,1024,1024,1024,1024,130.4,-89.9,97,3.954,3.949,3.926,3.947,3.987,3.969,16.8,80.6,14,Waypoint,
38.5226823,-120.3275304,5622.5679850403,201.77166,0.223694,0.47651576328,26100,2018-06-19 21:07:08,16,0,23.76,5622.5679850403,201.77166,0.223694,0.78751314856,0,0,-0.671082,129.4, -1.7, 2.7,0,0,1024,1024,1024,1024,130.4,-89.9,97,3.954,3.949,3.926,3.947,3.987,3.969,16.8,80.6,14,Waypoint,
38.5226823,-120.3275303,5623.5522370403,202.755912,0.223694,0.46175198328,26200,2018-06-19 21:07:08,16,0,23.76,5623.5522370403,202.755912,0.223694,0.78751314856,0,0,-0.671082,129.5, -1.4, 2.5,0,0,1024,1024,1024,1024,130.4,-89.9,97,3.954,3.949,3.926,3.947,3.987,3.969,16.8,80.6,14,Waypoint,
38.5226823,-120.3275302,5624.2084050403,203.41208,0.223694,0.44832350516,26300,2018-06-19 21:07:09,16,0,23.76,5624.2084050403,203.41208,0.223694,0.78751314856,0,0,-0.671082,129.5, -1.1, 2.4,0,0,1024,1024,1024,1024,130.4,-89.9,97,3.954,3.949,3.926,3.947,3.987,3.969,16.8,80.6,14,Waypoint,
