Latitude, Longitude, Altitude (m), Time, Sats, Speed (m/s), Range (m), Battery (%), Roll (deg), Pitch (deg), Yaw (deg), Images, HD Signal (%), RC Signal (%), Battery Temp (C), Battery Voltage (mV), Battery Current (mA), Battery Energy (mAh), Battery Capacity (mAh), Battery Discharges, flyState, timestamp (Unix), LastUpdate (ms), radioChannel, Rc_elevator, Rc_aileron, Rc_throttle, Rc_rudder, Rc_gyro, Dronetype, Battery_Cell1 (mV), Battery_Cell2 (mV), Battery_Cell3 (mV), Battery_Cell4 (mV), Battery_Cell5 (mV), Battery_Cell6 (mV), Video, isFlying, elapsedTime (ms), gimbalPitch (deg), gimbalRoll (deg), gimbalYaw (deg), VelocityX (m/s), VelocityY (m/s), VelocityZ (m/s), GroundSmear (cm), App Version, Aircraft Name, Aircraft Firmware, Aircraft Serial Number, Battery Serial Number, Battery Lifetime (%), App_Tip, App_Warning, CurrentFlightStartingIndex, CurrentFlightLastVisitedWaypoint, PreviousFlightEndingWaypointIndex
38.5226867, -120.3275458, 0.000, 13:25:09.408, 11, 0.00, 0.03, 100, 0.200, 0.000, 129.100, 2, 100, 100, 28, 25712, -3937, 5358, 5358, 18, 11, 1529439909.408, 21, 0, 1024, 1024, 1024, 1024, 0, 6, 4319, 4303, 4291, 4305, 4293, 4272, 0, 1, 3101, -89.900, 0.000, 129.700, 0.000, 0.000, -0.200, 0.0, MapPilot_2.8.1_04242018, Dendroctonus I, 1.3.1.00, 041DDC1887, 1058171200161, 96, DJI_0001.jpg, Starting Mission from Lat/Long: 38.52267/-120.32751 Camera: Zenmuse X3 - Overlap: 90/90 - Active Connection: No, 0, 0, 0
38.5226867, -120.3275458, 0.000, 13:25:09.508, 11, 0.00, 0.03, 100, 0.200, 0.000, 129.100, 2, 100, 100, 28, 25712, -3937, 5358, 5358, 18, 11, 1529439909.508, 121, 0, 1024, 1024, 1031, 1024, 0, 6, 4319, 4303, 4291, 4305, 4293, 4272, 0, 1, 3201, -89.900, 0.000, 129.700, 0.000, 0.000, -0.200, 0.0, , , , , , 96, , , 0, 0, 0
38.5226867, -120.3275457, 0.000, 13:25:09.608, 11, 0.00, 0.04, 100, 0.100, 0.300, 129.200, 2, 100, 100, 28, 25712, -3937, 5358, 5358, 18, 11, 1529439909.608, 64, 0, 1024, 1024, 1024, 1024, 0, 6, 4319, 4303, 4291, 4305, 4293, 4272, 0, 1, 3301, -89.900, 0.000, 129.700, 0.000, 0.000, -0.300, 0.0, , , , , , 96, , , 0, 0, 0
38.5226868, -120.3275456, 0.000, 13:25:09.708, 11, 0.00, 0.04, 100, 0.300, 0.300, 129.200, 2, 100, 100, 28, 25712, -3937, 5358, 5358, 18, 11, 1529439909.708, 70, 0, 1024, 1024, 1024, 1024, 0, 6, 4319, 4303, 4291, 4305, 4293, 4272, 0, 1, 3401, -89.900, 0.000, 129.700, 0.000, 0.000, -0.300, 0.0, , , , , , 96, , , 0, 0, 0
38.5226868, -120.3275455, 0.000, 13:25:09.808, 11, 0.00, 0.05, 100, 0.700, 0.200, 129.200, 2, 100, 100, 28, 25649, -4867, 5358, 5358, 18, 11, 1529439909.808, 57, 0, 1024, 1024, 1024, 1024, 0, 6, 4237, 4236, 4242, 4259, 4253, 4251, 0, 1, 3501, -89.900, 0.000, 129.700, 0.000, 0.000, -0.400, 0.0, , , , , , 96, , , 0, 0, 0
38.5226869, -120.3275453, 0.100, 13:25:09.908, 11, 0.10, 0.06, 100, 0.900, 0.600, 129.100, 2, 100, 100, 28, 25649, -4867, 5358, 5358, 18, 11, 1529439909.908, 48, 0, 1024, 1024, 1024, 1024, 0, 6, 4237, 4236, 4242, 4259, 4253, 4251, 0, 1, 3601, -89.900, 0.000, 129.700, 0.000, 0.100, -0.400, 0.0, , , , , , 96, , , 0, 0, 0
38.5226869, -120.3275452, 0.100, 13:25:10.008, 11, 0.10, 0.07, 100, 1.200, 0.800, 129.100, 2, 100, 100, 28, 25649, -4867, 5358, 5358, 18, 11, 1529439910.008, 63, 0, 1024, 1024, 1024, 1024, 0, 6, 4237, 4236, 4242, 4259, 4253, 4251, 0, 1, 3701, -89.900, 0.000, 129.700, 0.000, 0.100, -0.400, 0.0, , , , , , 96, , , 0, 0, 0
38.5226870, -120.3275450, 0.200, 13:25:10.108, 11, 0.10, 0.09, 100, 1.400, 0.800, 129.000, 2, 100, 100, 28, 25649, -4867, 5358, 5358, 18, 11, 1529439910.108, 69, 0, 1024, 1024, 1024, 1024, 0, 6, 4237, 4236, 4242, 4259, 4253, 4251, 0, 1, 3801, -89.900, 0.000, 129.700, 0.000, 0.100, -0.300, 0.0, , , , , , 96, , , 0, 0, 0
38.5226870, -120.3275449, 0.200, 13:25:10.208, 11, 0.00, 0.10, 100, 1.400, 0.900, 128.900, 2, 100, 100, 28, 25649, -4867, 5358, 5358, 18, 11, 1529439910.208, 48, 0, 1024, 1024, 1024, 1024, 0, 6, 4237, 4236, 4242, 4259, 4253, 4251, 0, 1, 3901, -89.900, 0.000, 129.700, 0.000, 0.000, -0.400, 0.0, , , , , , 96, , , 0, 0, 0
38.5226870, -120.3275448, 0.300, 13:25:10.308, 10, 0.00, 0.10, 100, 1.400, 0.500, 128.800, 2, 100, 100, 28, 25649, -4867, 5358, 5358, 18, 11, 1529439910.308, 51, 0, 1024, 1024, 1024, 1024, 0, 6, 4237, 4236, 4242, 4259, 4253, 4251, 0, 1, 4001, -89.900, 0.000, 129.700, 0.000, 0.000, -0.400, 0.0, , , , , , 96, , , 0, 0, 0
38.5226870, -120.3275447, 0.300, 13:25:10.408, 10, 0.00, 0.11, 100, 1.500, 0.500, 128.800, 2, 100, 100, 28, 25649, -4867, 5358, 5358, 18, 11, 1529439910.408, 29, 0, 1024, 1024, 1024, 1024, 0, 6, 4237, 4236, 4242, 4259, 4253, 4251, 0, 1, 4101, -89.900, 0.000, 129.700, 0.000, 0.000, -0.400, 0.0, , , , , , 96, , , 0, 0, 0
38.5226870, -120.3275446, 0.400, 13:25:10.508, 11, 0.00, 0.11, 100, 1.300, 0.700, 128.800, 2, 100, 100, 28, 25649, -4867, 5358, 5358, 18, 11, 1529439910.508, 18, 0, 1024, 1024, 1024, 1024, 0, 6, 4237, 4236, 4242, 4259, 4253, 4251, 0, 1, 4201, -89.900, 0.000, 129.700, 0.000, 0.000, -0.400, 0.0, , , , , , 96, , , 0, 0, 0
38.5226870, -120.3275445, 0.400, 13:25:10.608, 11, 0.00, 0.12, 100, 1.400, 0.900, 128.900, 2, 100, 100, 28, 25649, -4867, 5358, 5358, 18, 11, 1529439910.608, 21, 0, 1024, 1024, 1024, 1024, 0, 6, 4237, 4236, 4242, 4259, 4253, 4251, 0, 1, 4301, -89.900, 0.000, 129.700, 0.000, 0.000, -0.400, 0.0, , , , , , 96, , , 0, 0, 0
38.5226871, -120.3275444, 0.500, 13:25:10.708, 10, 0.00, 0.13, 100, 1.500, 0.900, 128.900, 2, 100, 100, 28, 25649, -4867, 5358, 5358, 18, 11, 1529439910.708, 22, 0, 1024, 1024, 1024, 1024, 0, 6, 4237, 4236, 4242, 4259, 4253, 4251, 0, 1, 4401, -89.900, 0.000, 129.700, 0.000, 0.000, -0.400, 0.0, , , , , , 96, , , 0, 0, 0
38.5226871, -120.3275443, 0.500, 13:25:10.808, 10, 0.00, 0.15, 100, 1.700, 0.900, 129.000, 2, 100, 100, 28, 24856, -15218, 5250, 5358, 18, 11, 1529439910.808, 16, 0, 1024, 1024, 1024, 1024, 0, 6, 4140, 4142, 4140, 4140, 4149, 4131, 0, 1, 4501, -89.900, 0.000, 129.700, 0.000, 0.000, -0.400, 0.0, , , , , , 96, , , 0, 0, 0
38.5226872, -120.3275442, 0.600, 13:25:10.908, 10, 0.00, 0.16, 100, 2.100, 1.000, 129.100, 2, 100, 100, 28, 24856, -15218, 5250, 5358, 18, 11, 1529439910.908, 11, 0, 1024, 1024, 1024, 1024, 0, 6, 4140, 4142, 4140, 4140, 4149, 4131, 0, 1, 4601, -89.900, 0.000, 129.700, 0.000, 0.000, -0.500, 0.0, , , , , , 96, , , 0, 0, 0
38.5226873, -120.3275441, 0.600, 13:25:11.009, 10, 0.00, 0.17, 100, 2.200, 1.000, 129.100, 2, 100, 100, 28, 24856, -15218, 5250, 5358, 18, 11, 1529439911.009, 2, 0, 1024, 1024, 1024, 1024, 0, 6, 4140, 4142, 4140, 4140, 4149, 4131, 0, 1, 4702, -89.900, 0.000, 129.700, 0.000, 0.000, -0.400, 0.0, , , , , , 96, , , 0, 0, 0
38.5226873, -120.3275441, 0.600, 13:25:11.107, 10, 0.00, 0.17, 100, 2.200, 1.000, 129.100, 2, 100, 100, 28, 24856, -15218, 5250, 5358, 18, 11, 1529439911.107, 100, 0, 1024, 1024, 1024, 1024, 0, 6, 4140, 4142, 4140, 4140, 4149, 4131, 0, 1, 4800, -89.900, 0.000, 129.700, 0.000, 0.000, -0.400, 0.0, , , , , , 96, , , 0, 0, 0
38.5226874, -120.3275440, 0.700, 13:25:11.207, 10, 0.00, 0.19, 100, 2.600, 0.900, 129.000, 2, 100, 100, 28, 24856, -15218, 5250, 5358, 18, 11, 1529439911.207, 76, 0, 1024, 1024, 1024, 1024, 0, 6, 4140, 4142, 4140, 4140, 4149, 4131, 0, 1, 4900, -89.900, 0.000, 129.700, 0.000, 0.000, -0.400, 0.0, , , , , , 96, , , 0, 0, 0
38.5226874, -120.3275439, 0.800, 13:25:11.307, 10, 0.00, 0.19, 100, 2.500, 0.800, 128.800, 2, 100, 100, 28, 24856, -15218, 5250, 5358, 18, 11, 1529439911.307, 86, 0, 1024, 1024, 1024, 1024, 0, 6, 4140, 4142, 4140, 4140, 4149, 4131, 0, 1, 5000, -89.900, 0.000, 129.700, 0.000, 0.000, -0.400, 0.0, , , , , , 96, , , 0, 0, 0
38.5226874, -120.3275439, 0.800, 13:25:11.407, 10, 0.00, 0.20, 98, 2.400, 0.700, 128.700, 2, 100, 100, 28, 24856, -15218, 5250, 5358, 18, 11, 1529439911.407, 91, 0, 1024, 1024, 1024, 1024, 0, 6, 4140, 4142, 4140, 4140, 4149, 4131, 0, 1, 5100, -89.900, 0.000, 129.700, 0.000, 0.000, -0.500, 0.0, , , , , , 96, , , 0, 0, 0
38.5226874, -120.3275439, 0.900, 13:25:11.507, 10, 0.00, 0.20, 98, 2.200, 0.800, 128.500, 2, 100, 100, 28, 24856, -15218, 5250, 5358, 18, 6, 1529439911.507, 80, 0, 1024, 1024, 1024, 1024, 0, 6, 4140, 4142, 4140, 4140, 4149, 4131, 0, 1, 5200, -89.900, 0.000, 129.700, 0.000, 0.000, -0.500, 0.0, , , , , , 96, , , 0, 0, 0
38.5226874, -120.3275439, 0.900, 13:25:11.607, 10, 0.00, 0.20, 98, 2.200, 1.000, 128.500, 2, 100, 100, 28, 24856, -15218, 5250, 5358, 18, 14, 1529439911.607, 70, 0, 1024, 1024, 1024, 1024, 0, 6, 4140, 4142, 4140, 4140, 4149, 4131, 0, 1, 5300, -89.900, 0.000, 129.700, 0.000, 0.000, -0.500, 0.0, , , , , , 96, , , 0, 0, 0
38.5226874, -120.3275439, 1.000, 13:25:11.707, 11, 0.00, 0.19, 98, 1.300, 0.800, 128.500, 2, 100, 100, 28, 24856, -15218, 5250, 5358, 18, 14, 1529439911.707, 64, 0, 1024, 1024, 1024, 1024, 0, 6, 4140, 4142, 4140, 4140, 4149, 4131, 0, 1, 5400, -89.900, 0.000, 129.700, 0.000, 0.000, -0.300, 0.0, , , , , , 96, , , 0, 0, 0
38.5226874, -120.3275439, 1.000, 13:25:11.807, 11, 0.00, 0.19, 98, 0.300, 0.400, 128.500, 2, 100, 100, 28, 24671, -16687, 5250, 5358, 18, 14, 1529439911.807, 67, 0, 1024, 1024, 1024, 1024, 0, 6, 4140, 4142, 4140, 4140, 4149, 4131, 0, 1, 5500, -90.000, 0.000, 129.600, 0.000, 0.000, -0.200, 0.0, , , , , , 96, , , 0, 0, 0
38.5226874, -120.3275439, 1.000, 13:25:11.907, 11, 0.00, 0.19, 98, 0.100, 0.100, 128.500, 2, 100, 100, 28, 24671, -16687, 5250, 5358, 18, 14, 1529439911.907, 45, 0, 1024, 1024, 1024, 1024, 0, 6, 4140, 4142, 4140, 4140, 4149, 4131, 0, 1, 5600, -90.000, 0.000, 129.600, 0.000, 0.000, -0.200, 0.0, , , , , , 96, , , 0, 0, 0
38.5226874, -120.3275438, 1.100, 13:25:12.007, 11, 0.00, 0.20, 98, 0.200, 0.000, 128.600, 2, 100, 100, 28, 24671, -16687, 5250, 5358, 18, 14, 1529439912.007, 58, 0, 1024, 1024, 1024, 1024, 0, 6, 4140, 4142, 4140, 4140, 4149, 4131, 0, 1, 5700, -89.900, 0.000, 129.600, 0.000, 0.000, -0.300, 0.0, , , , , , 96, , , 0, 0, 0
38.5226875, -120.3275438, 1.100, 13:25:12.108, 11, 0.00, 0.21, 98, 0.400, 0.100, 128.700, 2, 100, 100, 28, 24671, -16687, 5250, 5358, 18, 14, 1529439912.108, 48, 0, 1024, 1024, 1024, 1024, 0, 6, 4140, 4142, 4140, 4140, 4149, 4131, 0, 1, 5801, -89.900, 0.000, 129.600, 0.000, 0.000, -0.400, 0.0, , , , , , 96, , , 0, 0, 0
38.5226876, -120.3275436, 1.200, 13:25:12.208, 11, 0.00, 0.22, 98, 0.800, 0.200, 128.900, 2, 100, 100, 28, 24671, -16687, 5250, 5358, 18, 14, 1529439912.208, 28, 0, 1024, 1024, 1024, 1024, 0, 6, 4140, 4142, 4140, 4140, 4149, 4131, 0, 1, 5901, -89.900, 0.000, 129.600, 0.000, 0.000, -0.600, 0.0, , , , , , 96, , , 0, 0, 0
38.5226877, -120.3275435, 1.200, 13:25:12.308, 12, 0.00, 0.24, 98, 1.300, 0.300, 128.900, 2, 100, 100, 28, 24671, -16687, 5250, 5358, 18, 14, 1529439912.308, 41, 0, 1024, 1024, 1024, 1024, 0, 6, 4109, 4116, 4099, 4115, 4121, 4115, 0, 1, 6001, -89.900, 0.000, 129.600, 0.000, 0.000, -0.800, 0.0, , , , , , 96, , , 0, 0, 0
38.5226879, -120.3275434, 1.300, 13:25:12.408, 12, 0.00, 0.26, 98, 1.800, 0.200, 129.000, 2, 100, 100, 28, 24671, -16687, 5250, 5358, 18, 14, 1529439912.408, 33, 0, 1024, 1024, 1024, 1024, 0, 6, 4109, 4116, 4099, 4115, 4121, 4115, 0, 1, 6101, -89.900, 0.000, 129.500, 0.000, 0.000, -1.100, 0.0, , , , , , 96, , , 0, 0, 0
38.5226880, -120.3275433, 1.500, 13:25:12.508, 12, 0.00, 0.28, 98, 2.200, 0.100, 129.000, 2, 100, 100, 28, 24671, -16687, 5250, 5358, 18, 14, 1529439912.508, 26, 0, 1024, 1024, 1024, 1024, 0, 6, 4109, 4116, 4099, 4115, 4121, 4115, 0, 1, 6201, -89.900, 0.000, 129.500, 0.000, 0.000, -1.300, 0.0, , , , , , 96, , , 0, 0, 0
38.5226882, -120.3275432, 1.600, 13:25:12.608, 12, 0.00, 0.30, 98, 2.400, 0.100, 128.900, 2, 100, 100, 28, 24671, -16687, 5250, 5358, 18, 14, 1529439912.608, 28, 0, 1024, 1024, 1024, 1024, 0, 6, 4109, 4116, 4099, 4115, 4121, 4115, 0, 1, 6301, -89.900, 0.000, 129.500, 0.000, 0.000, -1.400, 0.0, , , , , , 96, , , 0, 0, 0
38.5226883, -120.3275431, 1.800, 13:25:12.708, 11, 0.00, 0.31, 98, 2.600, 0.100, 128.800, 2, 100, 100, 28, 24671, -16687, 5250, 5358, 18, 14, 1529439912.708, 23, 0, 1024, 1024, 1024, 1024, 0, 6, 4109, 4116, 4099, 4115, 4121, 4115, 0, 1, 6401, -89.900, 0.000, 129.500, 0.000, 0.000, -1.600, 0.0, , , , , , 96, , , 0, 0, 0
38.5226883, -120.3275431, 1.900, 13:25:12.808, 11, 0.00, 0.31, 98, 2.500, 0.200, 128.700, 2, 100, 100, 28, 24671, -16687, 5250, 5358, 18, 14, 1529439912.808, 16, 0, 1024, 1024, 1024, 1024, 0, 6, 4109, 4116, 4099, 4115, 4121, 4115, 0, 1, 6501, -89.900, 0.000, 129.500, 0.000, 0.000, -1.800, 0.0, , , , , , 96, , , 0, 0, 0
38.5226883, -120.3275431, 1.900, 13:25:12.908, 11, 0.00, 0.31, 98, 2.500, 0.200, 128.700, 2, 100, 100, 28, 24671, -16687, 5250, 5358, 18, 14, 1529439912.908, 116, 0, 1024, 1024, 1024, 1024, 0, 6, 4109, 4116, 4099, 4115, 4121, 4115, 0, 1, 6601, -89.900, 0.000, 129.500, 0.000, 0.000, -1.800, 0.0, , , , , , 96, , , 0, 0, 0
38.5226882, -120.3275431, 2.200, 13:25:13.008, 11, 0.00, 0.31, 98, 2.300, 0.400, 128.500, 2, 100, 100, 28, 24671, -16687, 5250, 5358, 18, 14, 1529439913.008, 98, 0, 1024, 1024, 1024, 1024, 0, 6, 4109, 4116, 4099, 4115, 4121, 4115, 0, 1, 6701, -89.900, 0.000, 129.500, 0.000, 0.000, -2.100, 0.0, , , , , , 96, , , 0, 0, 0
38.5226880, -120.3275433, 2.600, 13:25:13.113, 11, 0.00, 0.28, 98, 1.500, 0.400, 128.200, 2, 100, 100, 28, 24671, -16687, 5250, 5358, 18, 14, 1529439913.113, 4, 0, 1024, 1024, 1024, 1024, 0, 6, 4109, 4116, 4099, 4115, 4121, 4115, 0, 1, 6806, -89.900, 0.000, 129.500, 0.000, 0.000, -2.500, 0.0, , , , , , 96, , , 0, 0, 0
38.5226879, -120.3275433, 2.900, 13:25:13.208, 11, 0.00, 0.27, 98, 1.100, 0.400, 128.100, 2, 100, 100, 28, 24671, -16687, 5250, 5358, 18, 14, 1529439913.208, 4, 0, 1024, 1024, 1024, 1024, 0, 6, 4109, 4116, 4099, 4115, 4121, 4115, 0, 1, 6901, -89.900, 0.000, 129.500, 0.000, 0.000, -2.800, 0.0, , , , , , 96, , , 0, 0, 0
38.5226879, -120.3275433, 2.900, 13:25:13.308, 11, 0.00, 0.27, 98, 1.100, 0.400, 128.100, 2, 100, 100, 28, 24671, -16687, 5250, 5358, 18, 14, 1529439913.308, 104, 0, 1024, 1024, 1024, 1024, 0, 6, 4109, 4116, 4099, 4115, 4121, 4115, 0, 1, 7001, -89.900, 0.000, 129.500, 0.000, 0.000, -2.800, 0.0, , , , , , 96, , , 0, 0, 0
38.5226876, -120.3275435, 3.600, 13:25:13.408, 11, 0.00, 0.24, 98, 0.400, 0.700, 128.100, 2, 100, 100, 28, 24791, -16322, 5250, 5358, 18, 14, 1529439913.408, 91, 0, 1024, 1024, 1024, 1024, 0, 6, 4082, 4076, 4106, 4114, 4087, 4121, 0, 1, 7101, -89.900, 0.000, 129.500, 0.000, 0.000, -3.000, 0.0, , , , , , 96, , , 0, 0, 0
38.5226874, -120.3275437, 3.900, 13:25:13.508, 11, 0.00, 0.21, 98, 0.100, 0.600, 128.200, 2, 100, 100, 28, 24791, -16322, 5250, 5358, 18, 14, 1529439913.508, 96, 0, 1024, 1024, 1024, 1024, 0, 6, 4082, 4076, 4106, 4114, 4087, 4121, 0, 1, 7201, -89.900, 0.000, 129.500, 0.000, 0.000, -3.100, 0.0, , , , , , 96, , , 0, 0, 0
38.5226872, -120.3275438, 4.200, 13:25:13.608, 11, 0.00, 0.19, 98, -0.300, 0.500, 128.300, 2, 100, 100, 28, 24791, -16322, 5250, 5358, 18, 14, 1529439913.608, 85, 0, 1024, 1024, 1024, 1024, 0, 6, 4082, 4076, 4106, 4114, 4087, 4121, 0, 1, 7301, -89.900, 0.000, 129.500, 0.000, 0.000, -3.100, 0.0, , , , , , 96, , , 0, 0, 0
38.5226870, -120.3275438, 4.600, 13:25:13.708, 11, 0.00, 0.18, 98, -0.600, 0.300, 128.400, 2, 100, 100, 28, 24791, -16322, 5250, 5358, 18, 14, 1529439913.708, 79, 0, 1024, 1024, 1024, 1024, 0, 6, 4082, 4076, 4106, 4114, 4087, 4121, 0, 1, 7401, -89.900, 0.000, 129.500, 0.000, 0.000, -3.100, 0.0, , , , , , 96, , , 0, 0, 0
38.5226870, -120.3275437, 4.900, 13:25:13.808, 11, 0.00, 0.19, 98, -0.500, 0.400, 128.500, 2, 100, 100, 28, 24791, -16322, 5250, 5358, 18, 14, 1529439913.808, 68, 0, 1024, 1024, 1024, 1024, 0, 6, 4082, 4076, 4106, 4114, 4087, 4121, 0, 1, 7501, -89.900, 0.000, 129.500, 0.000, 0.000, -3.100, 0.0, , , , , , 96, , , 0, 0, 0
38.5226869, -120.3275435, 5.200, 13:25:13.908, 12, 0.00, 0.20, 98, 0.000, 0.700, 128.500, 2, 100, 100, 28, 24791, -16322, 5250, 5358, 18, 14, 1529439913.908, 55, 0, 1024, 1024, 1024, 1024, 0, 6, 4082, 4076, 4106, 4114, 4087, 4121, 0, 1, 7601, -89.900, 0.000, 129.500, 0.000, 0.000, -3.100, 0.0, , , , , , 96, , , 0, 0, 0
38.5226869, -120.3275434, 5.500, 13:25:14.008, 12, 0.00, 0.21, 98, 0.500, 1.100, 128.600, 2, 100, 100, 28, 24791, -16322, 5250, 5358, 18, 14, 1529439914.009, 48, 0, 1024, 1024, 1024, 1024, 0, 6, 4082, 4076, 4106, 4114, 4087, 4121, 0, 1, 7701, -89.900, 0.000, 129.500, 0.000, 0.000, -3.100, 0.0, , , , , , 96, , , 0, 0, 0
38.5226869, -120.3275433, 5.900, 13:25:14.107, 12, 0.00, 0.22, 98, 0.800, 1.200, 128.600, 2, 100, 100, 28, 24791, -16322, 5250, 5358, 18, 14, 1529439914.107, 61, 0, 1024, 1024, 1024, 1024, 0, 6, 4082, 4076, 4106, 4114, 4087, 4121, 0, 1, 7800, -89.900, 0.000, 129.500, 0.000, 0.000, -3.100, 0.0, , , , , , 96, , , 0, 0, 0
38.5226870, -120.3275430, 6.200, 13:25:14.207, 12, 0.00, 0.24, 98, 1.400, 1.300, 128.600, 2, 100, 100, 28, 24791, -16322, 5250, 5358, 18, 14, 1529439914.207, 16, 0, 1024, 1024, 1024, 1024, 0, 6, 4082, 4076, 4106, 4114, 4087, 4121, 0, 1, 7900, -89.900, 0.000, 129.500, 0.000, 0.000, -3.200, 0.0, , , , , , 96, , , 0, 0, 0
38.5226872, -120.3275429, 6.500, 13:25:14.307, 12, 0.00, 0.26, 98, 1.900, 1.300, 128.600, 2, 100, 100, 28, 24194, -16322, 5250, 5358, 18, 14, 1529439914.307, 55, 0, 1024, 1024, 1024, 1024, 0, 6, 4031, 4031, 4012, 4030, 4035, 4012, 0, 1, 8000, -89.900, 0.000, 129.500, 0.000, 0.000, -3.200, 0.0, , , , , , 96, , , 0, 0, 0
38.5226874, -120.3275429, 6.900, 13:25:14.407, 12, 0.00, 0.27, 98, 2.300, 1.100, 128.500, 2, 100, 100, 28, 24194, -16322, 5250, 5358, 18, 14, 1529439914.407, 45, 0, 1024, 1024, 1024, 1024, 0, 6, 4031, 4031, 4012, 4030, 4035, 4012, 0, 1, 8100, -89.900, 0.000, 129.400, 0.000, 0.000, -3.200, 0.0, , , , , , 96, , , 0, 0, 0
38.5226876, -120.3275428, 7.200, 13:25:14.507, 12, 0.00, 0.28, 98, 2.400, 0.600, 128.500, 2, 100, 100, 28, 24194, -16322, 5250, 5358, 18, 14, 1529439914.507, 62, 0, 1024, 1024, 1024, 1024, 0, 6, 4031, 4031, 4012, 4030, 4035, 4012, 0, 1, 8200, -90.000, 0.000, 129.500, 0.000, 0.000, -3.100, 0.0, , , , , , 96, , , 0, 0, 0
38.5226878, -120.3275426, 7.500, 13:25:14.607, 12, 0.00, 0.31, 98, 2.500, 0.200, 128.500, 2, 100, 100, 28, 24194, -16322, 5250, 5358, 18, 14, 1529439914.607, 26, 0, 1033, 1024, 1024, 1024, 0, 6, 4031, 4031, 4012, 4030, 4035, 4012, 0, 1, 8300, -90.000, 0.000, 129.500, 0.000, 0.000, -3.000, 0.0, , , , , , 96, , , 0, 0, 0
38.5226880, -120.3275424, 7.800, 13:25:14.707, 11, 0.00, 0.34, 98, 2.800, 0.000, 128.400, 2, 100, 100, 28, 24194, -16322, 5250, 5358, 18, 14, 1529439914.707, 24, 0, 1024, 1024, 1024, 1024, 0, 6, 4031, 4031, 4012, 4030, 4035, 4012, 0, 1, 8400, -90.000, 0.000, 129.400, 0.000, 0.000, -3.100, 0.0, , , , , , 96, , , 0, 0, 0
38.5226880, -120.3275423, 8.100, 13:25:14.807, 11, 0.00, 0.35, 98, 2.800, 0.100, 128.400, 2, 100, 100, 28, 24194, -16322, 5250, 5358, 18, 14, 1529439914.807, 32, 0, 1024, 1024, 1024, 1024, 0, 6, 4031, 4031, 4012, 4030, 4035, 4012, 0, 1, 8500, -90.000, 0.000, 129.400, 0.000, 0.000, -3.000, 0.0, , , , , , 96, , , 0, 0, 0
38.5226881, -120.3275421, 8.500, 13:25:14.907, 11, 0.00, 0.36, 98, 2.400, 0.300, 128.500, 2, 100, 100, 28, 24194, -16322, 5250, 5358, 18, 14, 1529439914.907, 24, 0, 1024, 1024, 1024, 1024, 0, 6, 4031, 4031, 4012, 4030, 4035, 4012, 0, 1, 8600, -89.900, 0.000, 129.400, 0.000, 0.000, -3.100, 0.0, , , , , , 96, , , 0, 0, 0
38.5226882, -120.3275420, 8.800, 13:25:15.007, 11, 0.00, 0.39, 98, 2.300, 0.700, 128.500, 2, 100, 100, 28, 24194, -16322, 5250, 5358, 18, 14, 1529439915.007, 32, 0, 1024, 1024, 1024, 1024, 0, 6, 4031, 4031, 4012, 4030, 4035, 4012, 0, 1, 8700, -89.900, 0.000, 129.400, 0.000, 0.000, -3.100, 0.0, , , , , , 96, , , 0, 0, 0
38.5226884, -120.3275418, 9.100, 13:25:15.107, 11, 0.00, 0.40, 98, 2.500, 0.900, 128.500, 2, 100, 100, 28, 24194, -16322, 5250, 5358, 18, 14, 1529439915.107, 26, 0, 1024, 1024, 1024, 1024, 0, 6, 4031, 4031, 4012, 4030, 4035, 4012, 0, 1, 8800, -89.900, 0.000, 129.400, 0.000, 0.000, -3.000, 0.0, , , , , , 96, , , 0, 0, 0
38.5226884, -120.3275417, 9.400, 13:25:15.207, 11, 0.00, 0.42, 98, 2.700, 1.000, 128.500, 2, 100, 100, 28, 24194, -16322, 5250, 5358, 18, 14, 1529439915.207, 29, 0, 1024, 1024, 1024, 1024, 0, 6, 4031, 4031, 4012, 4030, 4035, 4012, 0, 1, 8900, -89.900, 0.000, 129.400, 0.000, 0.000, -3.000, 0.0, , , , , , 96, , , 0, 0, 0
38.5226884, -120.3275417, 9.400, 13:25:15.307, 11, 0.00, 0.42, 98, 2.700, 1.000, 128.500, 2, 100, 100, 28, 24194, -16322, 5250, 5358, 18, 14, 1529439915.307, 129, 0, 1024, 1024, 1024, 1024, 0, 6, 4031, 4031, 4012, 4030, 4035, 4012, 0, 1, 9000, -89.900, 0.000, 129.400, 0.000, 0.000, -3.000, 0.0, , , , , , 96, , , 0, 0, 0
38.5226885, -120.3275416, 9.700, 13:25:15.407, 11, 0.00, 0.43, 98, 2.700, 1.000, 128.500, 2, 100, 100, 28, 24249, -18951, 5250, 5358, 18, 14, 1529439915.407, 95, 0, 1024, 1024, 1024, 1024, 0, 6, 4043, 4053, 4023, 4061, 4056, 4050, 0, 1, 9100, -89.900, 0.000, 129.400, 0.000, 0.000, -3.000, 0.0, , , , , , 96, , , 0, 0, 0
38.5226886, -120.3275415, 10.400, 13:25:15.507, 11, 0.00, 0.44, 98, 2.500, 0.900, 128.500, 2, 100, 100, 28, 24249, -18951, 5250, 5358, 18, 14, 1529439915.507, 11, 0, 1024, 1024, 1024, 1024, 0, 6, 4043, 4053, 4023, 4061, 4056, 4050, 0, 1, 9200, -89.900, 0.000, 129.400, 0.000, 0.000, -3.100, 0.0, , , , , , 96, , , 0, 0, 0
38.5226887, -120.3275415, 10.700, 13:25:15.607, 11, 0.00, 0.45, 98, 2.400, 0.700, 128.500, 2, 100, 100, 28, 24249, -18951, 5250, 5358, 18, 14, 1529439915.607, 4, 0, 1024, 1024, 1024, 1024, 0, 6, 4043, 4053, 4023, 4061, 4056, 4050, 0, 1, 9300, -89.900, 0.000, 129.400, 0.000, 0.000, -3.100, 0.0, , , , , , 96, , , 0, 0, 0
38.5226887, -120.3275415, 10.700, 13:25:15.707, 11, 0.00, 0.45, 98, 2.400, 0.700, 128.500, 2, 100, 100, 28, 24249, -18951, 5250, 5358, 18, 14, 1529439915.707, 105, 0, 1024, 1024, 1024, 1024, 0, 6, 4043, 4053, 4023, 4061, 4056, 4050, 0, 1, 9400, -89.900, 0.000, 129.400, 0.000, 0.000, -3.100, 0.0, , , , , , 96, , , 0, 0, 0
38.5226888, -120.3275414, 11.000, 13:25:15.807, 11, 0.00, 0.46, 98, 2.400, 0.600, 128.500, 2, 100, 100, 28, 24249, -18951, 5250, 5358, 18, 14, 1529439915.807, 77, 0, 1024, 1024, 1024, 1024, 0, 6, 4043, 4053, 4023, 4061, 4056, 4050, 0, 1, 9500, -89.900, 0.000, 129.400, 0.000, 0.000, -3.000, 0.0, , , , , , 96, , , 0, 0, 0
38.5226888, -120.3275414, 11.400, 13:25:15.907, 11, 0.00, 0.46, 98, 2.400, 0.400, 128.600, 2, 100, 100, 28, 24249, -18951, 5250, 5358, 18, 14, 1529439915.907, 88, 0, 1024, 1024, 1024, 1024, 0, 6, 4043, 4053, 4023, 4061, 4056, 4050, 0, 1, 9600, -90.000, 0.000, 129.400, 0.000, 0.000, -3.000, 0.0, , , , , , 96, , , 0, 0, 0
38.5226891, -120.3275414, 12.000, 13:25:16.007, 11, 0.00, 0.48, 98, 2.100, 0.100, 128.700, 2, 100, 100, 28, 24249, -18951, 5250, 5358, 18, 14, 1529439916.007, 90, 0, 1024, 1024, 1024, 1024, 0, 6, 4043, 4053, 4023, 4061, 4056, 4050, 0, 1, 9700, -90.000, 0.000, 129.400, 0.000, 0.000, -3.000, 0.0, , , , , , 96, , , 0, 0, 0
38.5226892, -120.3275413, 12.300, 13:25:16.107, 12, 0.00, 0.49, 98, 2.200, 0.000, 128.700, 2, 100, 100, 28, 24249, -18951, 5250, 5358, 18, 14, 1529439916.107, 94, 0, 1024, 1024, 1024, 1024, 0, 6, 4043, 4053, 4023, 4061, 4056, 4050, 0, 1, 9800, -90.000, 0.000, 129.400, 0.000, 0.000, -2.900, 0.0, , , , , , 96, , , 0, 0, 0
38.5226892, -120.3275412, 12.600, 13:25:16.207, 12, 0.00, 0.50, 98, 2.500, 0.000, 128.600, 2, 100, 100, 28, 24249, -18951, 5250, 5358, 18, 14, 1529439916.207, 72, 0, 1024, 1024, 1024, 1024, 0, 6, 4043, 4053, 4023, 4061, 4056, 4050, 0, 1, 9900, -90.000, 0.000, 129.400, 0.000, 0.000, -2.900, 0.0, , , , , , 96, , , 0, 0, 0
38.5226893, -120.3275412, 12.900, 13:25:16.307, 12, 0.00, 0.50, 98, 2.600, 0.200, 128.500, 2, 100, 100, 28, 24249, -18951, 5250, 5358, 18, 14, 1529439916.307, 49, 0, 1024, 1024, 1024, 1024, 0, 6, 4043, 4053, 4023, 4061, 4056, 4050, 0, 1, 10000, -89.900, 0.000, 129.400, 0.000, 0.000, -2.900, 0.0, , , , , , 96, , , 0, 0, 0
38.5226893, -120.3275413, 13.100, 13:25:16.407, 12, 0.00, 0.50, 98, 2.600, 0.300, 128.400, 2, 100, 99, 28, 24336, -18426, 5250, 5358, 18, 14, 1529439916.407, 64, 0, 1024, 1024, 1024, 1024, 0, 6, 4052, 4057, 4043, 4055, 4063, 4056, 0, 1, 10100, -89.900, 0.000, 129.400, 0.000, 0.000, -2.900, 0.0, , , , , , 96, , , 0, 0, 0
38.5226894, -120.3275413, 13.400, 13:25:16.507, 12, 0.00, 0.50, 98, 2.600, 0.300, 128.300, 2, 100, 99, 28, 24336, -18426, 5250, 5358, 18, 14, 1529439916.507, 80, 0, 1024, 1024, 1024, 1024, 0, 6, 4052, 4057, 4043, 4055, 4063, 4056, 0, 1, 10200, -89.900, 0.000, 129.400, 0.000, 0.000, -2.900, 0.0, , , , , , 96, , , 0, 0, 0
38.5226894, -120.3275413, 13.700, 13:25:16.607, 12, 0.00, 0.51, 98, 2.500, 0.400, 128.300, 2, 100, 99, 28, 24336, -18426, 5250, 5358, 18, 14, 1529439916.607, 74, 0, 1024, 1024, 1024, 1024, 0, 6, 4052, 4057, 4043, 4055, 4063, 4056, 0, 1, 10300, -89.900, 0.000, 129.400, 0.000, 0.000, -2.900, 0.0, , , , , , 96, , , 0, 0, 0
38.5226893, -120.3275413, 14.000, 13:25:16.707, 12, 0.00, 0.51, 98, 2.400, 0.700, 128.200, 2, 100, 99, 28, 24336, -18426, 5250, 5358, 18, 14, 1529439916.707, 31, 0, 1024, 1024, 1024, 1024, 0, 6, 4052, 4057, 4043, 4055, 4063, 4056, 0, 1, 10400, -89.900, 0.000, 129.400, 0.000, 0.000, -3.000, 0.0, , , , , , 96, , , 0, 0, 0
38.5226893, -120.3275413, 14.300, 13:25:16.807, 12, 0.00, 0.50, 98, 2.300, 0.800, 128.200, 2, 100, 99, 28, 24336, -18426, 5250, 5358, 18, 14, 1529439916.807, 48, 0, 1024, 1024, 1024, 1024, 0, 6, 4052, 4057, 4043, 4055, 4063, 4056, 0, 1, 10500, -89.900, 0.000, 129.400, 0.000, 0.000, -3.000, 0.0, , , , , , 96, , , 0, 0, 0
38.5226893, -120.3275414, 14.600, 13:25:16.907, 12, 0.10, 0.50, 98, 2.100, 0.900, 128.200, 2, 100, 98, 28, 24336, -18426, 5250, 5358, 18, 14, 1529439916.907, 50, 0, 1024, 1024, 1024, 1024, 0, 6, 4052, 4057, 4043, 4055, 4063, 4056, 0, 1, 10600, -89.900, 0.000, 129.400, -0.100, 0.000, -3.000, 0.0, , , , , , 96, , , 0, 0, 0
38.5226893, -120.3275414, 14.900, 13:25:17.007, 12, 0.10, 0.49, 98, 1.900, 0.700, 128.200, 2, 100, 98, 28, 24336, -18426, 5250, 5358, 18, 14, 1529439917.007, 28, 0, 1024, 1024, 1024, 1024, 0, 6, 4052, 4057, 4043, 4055, 4063, 4056, 0, 1, 10700, -89.900, 0.000, 129.400, -0.100, 0.000, -3.000, 0.0, , , , , , 96, , , 0, 0, 0
38.5226893, -120.3275414, 14.900, 13:25:17.107, 12, 0.10, 0.49, 98, 1.900, 0.700, 128.200, 2, 100, 98, 28, 24336, -18426, 5250, 5358, 18, 14, 1529439917.107, 129, 0, 1024, 1024, 1024, 1024, 0, 6, 4052, 4057, 4043, 4055, 4063, 4056, 0, 1, 10800, -89.900, 0.000, 129.400, -0.100, 0.000, -3.000, 0.0, , , , , , 96, , , 0, 0, 0
38.5226891, -120.3275416, 15.600, 13:25:17.207, 12, 0.14, 0.47, 98, 1.900, 0.600, 128.300, 2, 100, 98, 28, 24336, -18426, 5250, 5358, 18, 14, 1529439917.207, 18, 0, 1024, 1024, 1024, 1024, 0, 6, 4052, 4057, 4043, 4055, 4063, 4056, 0, 1, 10900, -89.900, 0.000, 129.400, -0.100, -0.100, -3.000, 0.0, , , , , , 96, , , 0, 0, 0
38.5226891, -120.3275417, 15.900, 13:25:17.307, 12, 0.14, 0.46, 98, 1.700, 0.600, 128.400, 2, 100, 98, 28, 24244, -18866, 5250, 5358, 18, 14, 1529439917.307, 32, 0, 1024, 1024, 1024, 1024, 0, 6, 4052, 4057, 4043, 4055, 4063, 4056, 0, 1, 11000, -89.900, 0.000, 129.400, -0.100, -0.100, -3.000, 0.0, , , , , , 96, , , 0, 0, 0
38.5226890, -120.3275418, 16.200, 13:25:17.407, 12, 0.14, 0.45, 98, 1.300, 0.700, 128.400, 2, 100, 96, 28, 24244, -18866, 5250, 5358, 18, 14, 1529439917.407, 19, 0, 1024, 1024, 1024, 1024, 0, 6, 4052, 4057, 4043, 4055, 4063, 4056, 0, 1, 11100, -89.900, 0.000, 129.400, -0.100, -0.100, -3.000, 0.0, , , , , , 96, , , 0, 0, 0
38.5226889, -120.3275419, 16.500, 13:25:17.507, 12, 0.14, 0.43, 98, 1.100, 0.700, 128.400, 2, 100, 96, 28, 24244, -18866, 5250, 5358, 18, 14, 1529439917.507, 22, 0, 1024, 1024, 1024, 1024, 0, 6, 4052, 4057, 4043, 4055, 4063, 4056, 0, 1, 11200, -89.900, 0.000, 129.400, -0.100, -0.100, -2.900, 0.0, , , , , , 96, , , 0, 0, 0
38.5226888, -120.3275421, 16.800, 13:25:17.607, 12, 0.14, 0.42, 98, 1.000, 0.700, 128.400, 2, 100, 96, 28, 24244, -18866, 5250, 5358, 18, 14, 1529439917.607, 28, 0, 1024, 1024, 1024, 1024, 0, 6, 4052, 4057, 4043, 4055, 4063, 4056, 0, 1, 11300, -89.900, 0.000, 129.400, -0.100, -0.100, -3.000, 0.0, , , , , , 96, , , 0, 0, 0
38.5226887, -120.3275422, 17.100, 13:25:17.707, 12, 0.14, 0.40, 98, 0.800, 0.600, 128.500, 2, 100, 96, 28, 24244, -18866, 5250, 5358, 18, 14, 1529439917.707, 20, 0, 1024, 1024, 1024, 1024, 0, 6, 4052, 4057, 4043, 4055, 4063, 4056, 0, 1, 11400, -90.000, 0.000, 129.400, -0.100, -0.100, -3.000, 0.0, , , , , , 96, , , 0, 0, 0
38.5226887, -120.3275422, 17.100, 13:25:17.807, 12, 0.14, 0.40, 98, 0.800, 0.600, 128.500, 2, 100, 96, 28, 24244, -18866, 5250, 5358, 18, 14, 1529439917.807, 120, 0, 1024, 1024, 1024, 1024, 0, 6, 4052, 4057, 4043, 4055, 4063, 4056, 0, 1, 11500, -90.000, 0.000, 129.400, -0.100, -0.100, -3.000, 0.0, , , , , , 96, , , 0, 0, 0
38.5226887, -120.3275423, 17.400, 13:25:17.907, 12, 0.14, 0.39, 98, 0.800, 0.400, 128.600, 2, 100, 96, 28, 24244, -18866, 5250, 5358, 18, 14, 1529439917.907, 87, 0, 1024, 1024, 1024, 1024, 0, 6, 4021, 4045, 4036, 4059, 4065, 4040, 0, 1, 11600, -90.000, 0.000, 129.400, -0.100, -0.100, -3.000, 0.0, , , , , , 96, , , 0, 0, 0
38.5226886, -120.3275424, 17.700, 13:25:18.007, 12, 0.10, 0.38, 98, 0.600, 0.300, 128.800, 2, 100, 96, 28, 24244, -18866, 5250, 5358, 18, 14, 1529439918.007, 80, 0, 1024, 1024, 1024, 1024, 0, 6, 4021, 4045, 4036, 4059, 4065, 4040, 0, 1, 11700, -90.000, 0.000, 129.400, 0.000, -0.100, -3.000, 0.0, , , , , , 96, , , 0, 0, 0
38.5226886, -120.3275425, 18.000, 13:25:18.107, 12, 0.00, 0.37, 98, 0.600, 0.100, 128.900, 2, 100, 96, 28, 24244, -18866, 5250, 5358, 18, 14, 1529439918.107, 94, 0, 1024, 1024, 1024, 1024, 0, 6, 4021, 4045, 4036, 4059, 4065, 4040, 0, 1, 11800, -89.900, 0.000, 129.400, 0.000, 0.000, -2.900, 0.0, , , , , , 96, , , 0, 0, 0
38.5226885, -120.3275426, 18.700, 13:25:18.207, 12, 0.00, 0.36, 98, 1.100, 0.600, 129.200, 2, 100, 96, 28, 24244, -18866, 5250, 5358, 18, 14, 1529439918.207, 77, 0, 1024, 1024, 1024, 1024, 0, 6, 4021, 4045, 4036, 4059, 4065, 4040, 0, 1, 11900, -89.900, 0.000, 129.400, 0.000, 0.000, -3.100, 0.0, , , , , , 96, , , 0, 0, 0
38.5226885, -120.3275426, 18.700, 13:25:18.307, 12, 0.00, 0.36, 98, 1.100, 0.600, 129.200, 2, 100, 96, 28, 24244, -18866, 5250, 5358, 18, 14, 1529439918.307, 177, 0, 1024, 1024, 1024, 1024, 0, 6, 4021, 4045, 4036, 4059, 4065, 4040, 0, 1, 12000, -89.900, 0.000, 129.400, 0.000, 0.000, -3.100, 0.0, , , , , , 96, , , 0, 0, 0
38.5226885, -120.3275425, 19.300, 13:25:18.407, 12, 0.00, 0.36, 98, 1.900, 0.900, 129.100, 2, 100, 92, 28, 24244, -18866, 5250, 5358, 18, 14, 1529439918.407, 82, 0, 1024, 1024, 1024, 1024, 0, 6, 4021, 4045, 4036, 4059, 4065, 4040, 0, 1, 12100, -89.900, 0.000, 129.400, 0.000, 0.000, -3.000, 0.0, , , , , , 96, , , 0, 0, 0
38.5226885, -120.3275425, 19.700, 13:25:18.507, 12, 0.00, 0.36, 98, 2.600, 0.900, 129.000, 2, 100, 92, 28, 24244, -18866, 5250, 5358, 18, 14, 1529439918.507, 87, 0, 1024, 1024, 1024, 1024, 0, 6, 4021, 4045, 4036, 4059, 4065, 4040, 0, 1, 12200, -89.900, 0.000, 129.400, 0.000, 0.000, -3.000, 0.0, , , , , , 96, , , 0, 0, 0
38.5226885, -120.3275425, 20.000, 13:25:18.607, 12, 0.00, 0.37, 98, 2.800, 0.500, 128.700, 2, 100, 92, 28, 24244, -18866, 5250, 5358, 18, 14, 1529439918.607, 85, 0, 1024, 1024, 1024, 1024, 0, 6, 4021, 4045, 4036, 4059, 4065, 4040, 0, 1, 12300, -89.900, 0.000, 129.400, 0.000, 0.000, -3.000, 0.0, , , , , , 96, , , 0, 0, 0
38.5226886, -120.3275425, 20.300, 13:25:18.707, 12, 0.00, 0.37, 98, 2.900, 0.000, 128.400, 2, 100, 92, 28, 24244, -18866, 5250, 5358, 18, 14, 1529439918.707, 57, 0, 1024, 1024, 1024, 1024, 0, 6, 4021, 4045, 4036, 4059, 4065, 4040, 0, 1, 12400, -90.000, 0.000, 129.400, 0.000, 0.000, -2.900, 0.0, , , , , , 96, , , 0, 0, 0
38.5226886, -120.3275426, 20.600, 13:25:18.807, 12, 0.00, 0.36, 98, 2.800, -0.200, 128.100, 2, 100, 92, 28, 24244, -18866, 5250, 5358, 18, 14, 1529439918.807, 62, 0, 1024, 1024, 1024, 1024, 0, 6, 4021, 4045, 4036, 4059, 4065, 4040, 0, 1, 12500, -90.000, 0.000, 129.400, 0.000, 0.000, -2.800, 0.0, , , , , , 96, , , 0, 0, 0
38.5226886, -120.3275427, 20.900, 13:25:18.907, 12, 0.00, 0.36, 98, 2.700, -0.400, 128.000, 2, 100, 93, 28, 24244, -18866, 5250, 5358, 18, 14, 1529439918.907, 44, 0, 1024, 1024, 1024, 1024, 0, 6, 4021, 4045, 4036, 4059, 4065, 4040, 0, 1, 12600, -90.000, 0.000, 129.400, 0.000, 0.000, -2.800, 0.0, , , , , , 96, , , 0, 0, 0
38.5226886, -120.3275428, 21.200, 13:25:19.007, 12, 0.00, 0.35, 98, 2.400, -0.700, 127.900, 2, 100, 93, 28, 24244, -18866, 5250, 5358, 18, 14, 1529439919.007, 54, 0, 1024, 1024, 1024, 1024, 0, 6, 4021, 4045, 4036, 4059, 4065, 4040, 0, 1, 12700, -90.000, 0.000, 129.400, 0.000, 0.000, -2.700, 0.0, , , , , , 96, , , 0, 0, 0
38.5226886, -120.3275430, 21.500, 13:25:19.107, 12, 0.00, 0.34, 98, 2.100, -1.100, 127.900, 2, 100, 93, 28, 24244, -18866, 5250, 5358, 18, 14, 1529439919.107, 56, 0, 1024, 1024, 1024, 1024, 0, 6, 4021, 4045, 4036, 4059, 4065, 4040, 0, 1, 12800, -89.900, 0.000, 129.400, 0.000, 0.000, -2.700, 0.0, , , , , , 96, , , 0, 0, 0
38.5226886, -120.3275431, 21.700, 13:25:19.207, 12, 0.00, 0.34, 98, 1.800, -1.400, 127.800, 2, 100, 93, 28, 24244, -18866, 5250, 5358, 18, 14, 1529439919.207, 11, 0, 1024, 1024, 1024, 1024, 0, 6, 4021, 4045, 4036, 4059, 4065, 4040, 0, 1, 12900, -89.900, 0.000, 129.400, 0.000, 0.000, -2.700, 0.0, , , , , , 96, , , 0, 0, 0
38.5226886, -120.3275431, 22.000, 13:25:19.307, 12, 0.00, 0.33, 98, 1.700, -1.400, 127.800, 2, 100, 93, 28, 24309, -17994, 5250, 5358, 18, 14, 1529439919.307, 51, 0, 1024, 1024, 1024, 1024, 0, 6, 4047, 4057, 4033, 4056, 4057, 4056, 0, 1, 13000, -89.900, 0.000, 129.400, 0.000, 0.000, -2.700, 0.0, , , , , , 96, , , 0, 0, 0
38.5226886, -120.3275431, 22.300, 13:25:19.407, 12, 0.00, 0.33, 98, 2.000, -1.000, 127.800, 2, 100, 95, 28, 24309, -17994, 5250, 5358, 18, 14, 1529439919.407, 30, 0, 1024, 1024, 1024, 1024, 0, 6, 4047, 4057, 4033, 4056, 4057, 4056, 0, 1, 13100, -90.000, 0.000, 129.400, 0.000, 0.000, -2.800, 0.0, , , , , , 96, , , 0, 0, 0
38.5226886, -120.3275431, 22.600, 13:25:19.507, 12, 0.00, 0.33, 98, 2.100, -0.600, 127.900, 2, 100, 95, 28, 24309, -17994, 5250, 5358, 18, 14, 1529439919.507, 31, 0, 1024, 1024, 1024, 1024, 0, 6, 4047, 4057, 4033, 4056, 4057, 4056, 0, 1, 13200, -89.900, 0.000, 129.400, 0.000, 0.000, -2.800, 0.0, , , , , , 96, , , 0, 0, 0
38.5226886, -120.3275430, 22.900, 13:25:19.607, 12, 0.00, 0.34, 98, 2.300, -0.100, 128.100, 2, 100, 95, 28, 24309, -17994, 5250, 5358, 18, 14, 1529439919.607, 24, 0, 1024, 1024, 1024, 1024, 0, 6, 4047, 4057, 4033, 4056, 4057, 4056, 0, 1, 13300, -89.900, 0.000, 129.400, 0.000, 0.000, -2.800, 0.0, , , , , , 96, , , 0, 0, 0
38.5226885, -120.3275429, 23.200, 13:25:19.707, 12, 0.00, 0.34, 98, 2.500, 0.300, 128.300, 2, 100, 95, 28, 24309, -17994, 5250, 5358, 18, 14, 1529439919.707, 15, 0, 1024, 1024, 1024, 1024, 0, 6, 4047, 4057, 4033, 4056, 4057, 4056, 0, 1, 13400, -89.900, 0.000, 129.400, 0.000, 0.000, -2.800, 0.0, , , , , , 96, , , 0, 0, 0
38.5226885, -120.3275429, 23.400, 13:25:19.807, 12, 0.00, 0.34, 98, 2.700, 0.600, 128.500, 2, 100, 95, 28, 24324, -17409, 5250, 5358, 18, 14, 1529439919.807, 21, 0, 1024, 1024, 1024, 1024, 0, 6, 4053, 4049, 4029, 4054, 4052, 4046, 0, 1, 13500, -89.900, 0.000, 129.400, 0.000, 0.000, -2.800, 0.0, , , , , , 96, , , 0, 0, 0
38.5226885, -120.3275428, 23.700, 13:25:19.907, 12, 0.00, 0.34, 98, 3.100, 0.900, 128.600, 2, 100, 94, 28, 24324, -17409, 5250, 5358, 18, 14, 1529439919.907, 9, 0, 1024, 1024, 1024, 1024, 0, 6, 4053, 4049, 4029, 4054, 4052, 4046, 0, 1, 13600, -89.900, 0.000, 129.400, 0.000, 0.000, -2.900, 0.0, , , , , , 96, , , 0, 0, 0
38.5226884, -120.3275428, 24.000, 13:25:20.007, 12, 0.00, 0.34, 98, 3.100, 0.900, 128.600, 2, 100, 94, 28, 24324, -17409, 5250, 5358, 18, 14, 1529439920.007, 17, 0, 1024, 1024, 1024, 1024, 0, 6, 4053, 4049, 4029, 4054, 4052, 4046, 0, 1, 13700, -89.900, 0.000, 129.400, 0.000, 0.000, -2.900, 0.0, , , , , , 96, , , 0, 0, 0
38.5226884, -120.3275427, 24.300, 13:25:20.111, 12, 0.00, 0.34, 98, 3.300, 0.600, 128.600, 2, 100, 94, 28, 24324, -17409, 5250, 5358, 18, 14, 1529439920.111, 4, 0, 1024, 1024, 1024, 1024, 0, 6, 4053, 4049, 4029, 4054, 4052, 4046, 0, 1, 13804, -89.900, 0.000, 129.400, 0.000, 0.000, -2.900, 0.0, , , , , , 96, , , 0, 0, 0
38.5226884, -120.3275427, 24.600, 13:25:20.207, 12, 0.00, 0.34, 98, 3.300, 0.300, 128.600, 2, 100, 94, 28, 24324, -17409, 5250, 5358, 18, 14, 1529439920.207, 7, 0, 1024, 1024, 1024, 1024, 0, 6, 4053, 4049, 4029, 4054, 4052, 4046, 0, 1, 13900, -89.900, 0.000, 129.400, 0.000, 0.000, -2.800, 0.0, , , , , , 96, , , 0, 0, 0
38.5226884, -120.3275427, 24.900, 13:25:20.308, 12, 0.00, 0.34, 98, 3.100, 0.400, 128.700, 2, 100, 97, 28, 24324, -17409, 5250, 5358, 18, 14, 1529439920.308, 2, 0, 1024, 1024, 1024, 1024, 0, 6, 4053, 4049, 4029, 4054, 4052, 4046, 0, 1, 14001, -89.900, 0.000, 129.400, 0.000, 0.000, -2.900, 0.0, , , , , , 96, , , 0, 0, 0
38.5226884, -120.3275427, 24.900, 13:25:20.407, 12, 0.00, 0.34, 98, 3.100, 0.400, 128.700, 2, 100, 97, 28, 24324, -17409, 5250, 5358, 18, 14, 1529439920.407, 101, 0, 1024, 1024, 1024, 1024, 0, 6, 4053, 4049, 4029, 4054, 4052, 4046, 0, 1, 14100, -89.900, 0.000, 129.400, 0.000, 0.000, -2.900, 0.0, , , , , , 96, , , 0, 0, 0
38.5226883, -120.3275426, 25.500, 13:25:20.507, 12, 0.00, 0.34, 98, 3.100, 0.400, 128.500, 2, 100, 97, 28, 24324, -17409, 5250, 5358, 18, 14, 1529439920.507, 63, 0, 1024, 1024, 1024, 1024, 0, 6, 4053, 4049, 4029, 4054, 4052, 4046, 0, 1, 14200, -89.900, 0.000, 129.400, 0.000, 0.000, -2.800, 0.0, , , , , , 96, , , 0, 0, 0
38.5226883, -120.3275426, 25.800, 13:25:20.607, 12, 0.00, 0.34, 98, 2.800, 0.300, 128.400, 2, 100, 97, 28, 24324, -17409, 5250, 5358, 18, 14, 1529439920.607, 81, 0, 1024, 1024, 1024, 1024, 0, 6, 4053, 4049, 4029, 4054, 4052, 4046, 0, 1, 14300, -89.900, 0.000, 129.400, 0.000, 0.000, -2.800, 0.0, , , , , , 96, , , 0, 0, 0
38.5226883, -120.3275426, 25.800, 13:25:20.707, 12, 0.00, 0.34, 98, 2.800, 0.300, 128.400, 2, 100, 97, 28, 24324, -17409, 5250, 5358, 18, 14, 1529439920.707, 181, 0, 1024, 1024, 1024, 1024, 0, 6, 4053, 4049, 4029, 4054, 4052, 4046, 0, 1, 14400, -89.900, 0.000, 129.400, 0.000, 0.000, -2.800, 0.0, , , , , , 96, , , 0, 0, 0
38.5226882, -120.3275426, 26.400, 13:25:20.807, 12, 0.00, 0.34, 98, 2.600, 0.000, 128.300, 2, 100, 97, 28, 24324, -17409, 5250, 5358, 18, 14, 1529439920.807, 46, 0, 1024, 1024, 1024, 1024, 0, 6, 4053, 4049, 4029, 4054, 4052, 4046, 0, 1, 14500, -89.900, 0.000, 129.400, 0.000, 0.000, -2.800, 0.0, , , , , , 96, , , 0, 0, 0
38.5226882, -120.3275425, 26.600, 13:25:20.907, 12, 0.00, 0.34, 98, 2.600, 0.100, 128.300, 2, 100, 96, 28, 24324, -17409, 5250, 5358, 18, 14, 1529439920.907, 53, 0, 1024, 1024, 1024, 1024, 0, 6, 4053, 4049, 4029, 4054, 4052, 4046, 0, 1, 14600, -89.900, 0.000, 129.400, 0.000, 0.000, -2.800, 0.0, , , , , , 96, , , 0, 0, 0
38.5226882, -120.3275425, 26.900, 13:25:21.007, 12, 0.00, 0.34, 98, 2.700, 0.400, 128.400, 2, 100, 96, 28, 24324, -17409, 5250, 5358, 18, 14, 1529439921.007, 66, 0, 1024, 1024, 1024, 1024, 0, 6, 4053, 4049, 4029, 4054, 4052, 4046, 0, 1, 14700, -89.900, 0.000, 129.400, 0.000, 0.000, -2.900, 0.0, , , , , , 96, , , 0, 0, 0
38.5226881, -120.3275424, 27.200, 13:25:21.107, 12, 0.00, 0.34, 98, 3.000, 0.800, 128.600, 2, 100, 96, 28, 24324, -17409, 5250, 5358, 18, 14, 1529439921.107, 72, 0, 1024, 1024, 1024, 1024, 0, 6, 4053, 4049, 4029, 4054, 4052, 4046, 0, 1, 14800, -89.900, 0.000, 129.400, 0.000, 0.000, -2.900, 0.0, , , , , , 96, , , 0, 0, 0
38.5226881, -120.3275424, 27.500, 13:25:21.207, 12, 0.00, 0.35, 98, 3.000, 0.900, 128.700, 2, 100, 96, 28, 24324, -17409, 5250, 5358, 18, 14, 1529439921.207, 62, 0, 1024, 1024, 1024, 1024, 0, 6, 4053, 4049, 4029, 4054, 4052, 4046, 0, 1, 14900, -89.900, 0.000, 129.400, 0.000, 0.000, -2.900, 0.0, , , , , , 96, , , 0, 0, 0
38.5226880, -120.3275423, 27.800, 13:25:21.307, 12, 0.00, 0.35, 98, 2.900, 1.100, 128.700, 2, 100, 96, 28, 24160, -19531, 5250, 5358, 18, 14, 1529439921.307, 66, 0, 1024, 1024, 1024, 1024, 0, 6, 4021, 4039, 4004, 4036, 4030, 4026, 0, 1, 15000, -89.900, 0.000, 129.400, 0.000, 0.000, -2.900, 0.0, , , , , , 96, , , 0, 0, 0
38.5226880, -120.3275423, 27.800, 13:25:21.407, 12, 0.00, 0.35, 98, 2.900, 1.100, 128.700, 2, 100, 98, 28, 24160, -19531, 5250, 5358, 18, 14, 1529439921.407, 166, 0, 1024, 1024, 1024, 1024, 0, 6, 4021, 4039, 4004, 4036, 4030, 4026, 0, 1, 15100, -89.900, 0.000, 129.400, 0.000, 0.000, -2.900, 0.0, , , , , , 96, , , 0, 0, 0
38.5226879, -120.3275421, 28.300, 13:25:21.507, 12, 0.00, 0.36, 98, 2.900, 1.300, 128.700, 2, 100, 98, 28, 24160, -19531, 5250, 5358, 18, 14, 1529439921.507, 62, 0, 1024, 1024, 1024, 1024, 0, 6, 4021, 4039, 4004, 4036, 4030, 4026, 0, 1, 15200, -89.900, 0.000, 129.400, 0.000, 0.000, -2.900, 0.0, , , , , , 96, , , 0, 0, 0
38.5226879, -120.3275421, 28.600, 13:25:21.607, 12, 0.00, 0.36, 98, 2.900, 1.300, 128.700, 2, 100, 98, 28, 24160, -19531, 5250, 5358, 18, 14, 1529439921.607, 53, 0, 1024, 1024, 1024, 1024, 0, 6, 4021, 4039, 4004, 4036, 4030, 4026, 0, 1, 15300, -89.900, 0.000, 129.400, 0.000, 0.000, -2.900, 0.0, , , , , , 96, , , 0, 0, 0
38.5226879, -120.3275421, 28.900, 13:25:21.707, 12, 0.00, 0.36, 98, 3.000, 1.200, 128.600, 2, 100, 98, 28, 24160, -19531, 5250, 5358, 18, 14, 1529439921.707, 47, 0, 1024, 1024, 1024, 1024, 0, 6, 4021, 4039, 4004, 4036, 4030, 4026, 0, 1, 15400, -89.900, 0.000, 129.400, 0.000, 0.000, -2.900, 0.0, , , , , , 96, , , 0, 0, 0
38.5226878, -120.3275420, 29.200, 13:25:21.807, 12, 0.00, 0.36, 98, 3.000, 1.100, 128.600, 2, 100, 98, 28, 24093, -19716, 5197, 5358, 18, 14, 1529439921.807, 41, 0, 1024, 1024, 1024, 1024, 0, 6, 4000, 4006, 3993, 4013, 4022, 4011, 0, 1, 15500, -89.900, 0.000, 129.400, 0.000, 0.000, -2.900, 0.0, , , , , , 96, , , 0, 0, 0
38.5226878, -120.3275420, 29.500, 13:25:21.907, 12, 0.00, 0.36, 98, 3.200, 1.300, 128.600, 2, 100, 96, 28, 24093, -19716, 5197, 5358, 18, 14, 1529439921.907, 11, 0, 1024, 1024, 1024, 1024, 0, 6, 4000, 4006, 3993, 4013, 4022, 4011, 0, 1, 15600, -89.900, 0.000, 129.400, 0.000, 0.000, -3.000, 0.0, , , , , , 96, , , 0, 0, 0
38.5226878, -120.3275420, 29.800, 13:25:22.007, 12, 0.00, 0.36, 98, 3.200, 1.400, 128.600, 2, 100, 96, 28, 24093, -19716, 5197, 5358, 18, 14, 1529439922.007, 2, 0, 1024, 1024, 1024, 1024, 0, 6, 4000, 4006, 3993, 4013, 4022, 4011, 0, 1, 15700, -89.900, 0.000, 129.400, 0.000, 0.000, -3.000, 0.0, , , , , , 96, , , 0, 0, 0
38.5226877, -120.3275420, 30.100, 13:25:22.108, 12, 0.00, 0.36, 98, 3.000, 1.300, 128.600, 2, 100, 96, 28, 24093, -19716, 5197, 5358, 18, 14, 1529439922.108, 42, 0, 1024, 1024, 1024, 1024, 0, 6, 4000, 4006, 3993, 4013, 4022, 4011, 0, 1, 15801, -89.900, 0.000, 129.400, 0.000, 0.000, -3.000, 0.0, , , , , , 96, , , 0, 0, 0
38.5226877, -120.3275420, 30.400, 13:25:22.208, 12, 0.00, 0.35, 98, 2.800, 1.100, 128.500, 2, 100, 96, 28, 24093, -19716, 5197, 5358, 18, 14, 1529439922.208, 43, 0, 1024, 1024, 1024, 1024, 0, 6, 4000, 4006, 3993, 4013, 4022, 4011, 0, 1, 15901, -89.900, 0.000, 129.400, 0.000, 0.000, -3.000, 0.0, , , , , , 96, , , 0, 0, 0
38.5226876, -120.3275420, 30.700, 13:25:22.308, 12, 0.00, 0.35, 97, 2.500, 1.000, 128.400, 2, 100, 96, 28, 24093, -19716, 5197, 5358, 18, 14, 1529439922.308, 9, 0, 1024, 1024, 1024, 1024, 0, 6, 4000, 4006, 3993, 4013, 4022, 4011, 0, 1, 16001, -89.900, 0.000, 129.400, 0.000, 0.000, -3.000, 0.0, , , , , , 96, , , 0, 0, 0
38.5226876, -120.3275420, 30.700, 13:25:22.408, 12, 0.00, 0.35, 97, 2.500, 1.000, 128.400, 2, 100, 96, 28, 24093, -19716, 5197, 5358, 18, 14, 1529439922.408, 109, 0, 1024, 1024, 1024, 1024, 0, 6, 4000, 4006, 3993, 4013, 4022, 4011, 0, 1, 16101, -89.900, 0.000, 129.400, 0.000, 0.000, -3.000, 0.0, , , , , , 96, , , 0, 0, 0
38.5226875, -120.3275420, 31.300, 13:25:22.508, 12, 0.00, 0.34, 97, 2.200, 1.000, 128.300, 2, 100, 96, 28, 24093, -19716, 5197, 5358, 18, 14, 1529439922.508, 8, 0, 1024, 1024, 1024, 1024, 0, 6, 4000, 4006, 3993, 4013, 4022, 4011, 0, 1, 16201, -89.900, 0.000, 129.400, 0.000, 0.000, -3.000, 0.0, , , , , , 96, , , 0, 0, 0
38.5226875, -120.3275421, 31.600, 13:25:22.612, 12, 0.00, 0.34, 97, 2.300, 1.200, 128.300, 2, 100, 96, 28, 24093, -19716, 5197, 5358, 18, 14, 1529439922.612, 2, 0, 1024, 1024, 1024, 1024, 0, 6, 4000, 4006, 3993, 4013, 4022, 4011, 0, 1, 16305, -89.900, 0.000, 129.400, 0.000, 0.000, -3.000, 0.0, , , , , , 96, , , 0, 0, 0
38.5226874, -120.3275421, 31.900, 13:25:22.708, 12, 0.00, 0.34, 97, 2.200, 1.200, 128.300, 2, 100, 96, 28, 24093, -19716, 5197, 5358, 18, 14, 1529439922.708, 3, 0, 1024, 1024, 1024, 1024, 0, 6, 4000, 4006, 3993, 4013, 4022, 4011, 0, 1, 16401, -89.900, 0.000, 129.400, 0.000, 0.000, -3.000, 0.0, , , , , , 96, , , 0, 0, 0
38.5226874, -120.3275421, 31.900, 13:25:22.808, 12, 0.00, 0.34, 97, 2.200, 1.200, 128.300, 2, 100, 96, 28, 24093, -19716, 5197, 5358, 18, 14, 1529439922.808, 103, 0, 1024, 1024, 1024, 1024, 0, 6, 4000, 4006, 3993, 4013, 4022, 4011, 0, 1, 16501, -89.900, 0.000, 129.400, 0.000, 0.000, -3.000, 0.0, , , , , , 96, , , 0, 0, 0
38.5226874, -120.3275421, 31.900, 13:25:22.908, 12, 0.00, 0.34, 97, 2.200, 1.200, 128.300, 2, 100, 94, 28, 24007, -20688, 5197, 5358, 18, 14, 1529439922.908, 203, 0, 1024, 1024, 1024, 1024, 0, 6, 4000, 4006, 3993, 4013, 4022, 4011, 0, 1, 16601, -89.900, 0.000, 129.400, 0.000, 0.000, -3.000, 0.0, , , , , , 96, , , 0, 0, 0
38.5226874, -120.3275421, 32.800, 13:25:23.008, 12, 0.00, 0.33, 97, 2.600, 1.200, 128.500, 2, 100, 94, 28, 24007, -20688, 5197, 5358, 18, 14, 1529439923.008, 92, 0, 1024, 1024, 1024, 1024, 0, 6, 4000, 4006, 3993, 4013, 4022, 4011, 0, 1, 16701, -89.900, 0.000, 129.400, 0.000, 0.000, -3.000, 0.0, , , , , , 96, , , 0, 0, 0
38.5226873, -120.3275421, 33.100, 13:25:23.108, 12, 0.00, 0.33, 97, 2.400, 1.200, 128.500, 2, 100, 94, 28, 24007, -20688, 5197, 5358, 18, 14, 1529439923.108, 88, 0, 1024, 1024, 1024, 1024, 0, 6, 4000, 4006, 3993, 4013, 4022, 4011, 0, 1, 16801, -89.900, 0.000, 129.400, 0.000, 0.000, -3.000, 0.0, , , , , , 96, , , 0, 0, 0
38.5226873, -120.3275421, 33.100, 13:25:23.208, 12, 0.00, 0.33, 97, 2.400, 1.200, 128.500, 2, 100, 94, 28, 24007, -20688, 5197, 5358, 18, 14, 1529439923.208, 188, 0, 1024, 1024, 1024, 1024, 0, 6, 4000, 4006, 3993, 4013, 4022, 4011, 0, 1, 16901, -89.900, 0.000, 129.400, 0.000, 0.000, -3.000, 0.0, , , , , , 96, , , 0, 0, 0
38.5226873, -120.3275422, 33.700, 13:25:23.308, 12, 0.00, 0.33, 97, 2.400, 1.000, 128.500, 2, 100, 94, 28, 24007, -20688, 5197, 5358, 18, 14, 1529439923.308, 73, 0, 1024, 1024, 1024, 1024, 0, 6, 4000, 4006, 3993, 4013, 4022, 4011, 0, 1, 17001, -89.900, 0.000, 129.400, 0.000, 0.000, -3.100, 0.0, , , , , , 96, , , 0, 0, 0
38.5226873, -120.3275422, 33.700, 13:25:23.408, 12, 0.00, 0.33, 97, 2.400, 1.000, 128.500, 2, 100, 94, 28, 24007, -20688, 5197, 5358, 18, 14, 1529439923.408, 173, 0, 1024, 1024, 1024, 1024, 0, 6, 4000, 4006, 3993, 4013, 4022, 4011, 0, 1, 17101, -89.900, 0.000, 129.400, 0.000, 0.000, -3.100, 0.0, , , , , , 96, , , 0, 0, 0
38.5226874, -120.3275422, 34.300, 13:25:23.508, 12, 0.00, 0.32, 97, 2.600, 0.900, 128.600, 2, 100, 94, 28, 24007, -20688, 5197, 5358, 18, 14, 1529439923.508, 62, 0, 1024, 1024, 1024, 1024, 0, 6, 3984, 3999, 3990, 4009, 4008, 4002, 0, 1, 17201, -89.900, 0.000, 129.400, 0.000, 0.000, -3.000, 0.0, , , , , , 96, , , 0, 0, 0
38.5226874, -120.3275423, 34.600, 13:25:23.608, 12, 0.00, 0.32, 97, 2.700, 0.800, 128.600, 2, 100, 94, 28, 24007, -20688, 5197, 5358, 18, 14, 1529439923.608, 62, 0, 1024, 1024, 1024, 1024, 0, 6, 3984, 3999, 3990, 4009, 4008, 4002, 0, 1, 17301, -89.900, 0.000, 129.400, 0.000, 0.000, -3.000, 0.0, , , , , , 96, , , 0, 0, 0
38.5226874, -120.3275423, 34.900, 13:25:23.708, 12, 0.00, 0.32, 97, 2.700, 0.700, 128.600, 2, 100, 94, 28, 24007, -20688, 5197, 5358, 18, 14, 1529439923.708, 44, 0, 1024, 1024, 1024, 1024, 0, 6, 3984, 3999, 3990, 4009, 4008, 4002, 0, 1, 17401, -89.900, 0.000, 129.400, 0.000, 0.000, -3.000, 0.0, , , , , , 96, , , 0, 0, 0
38.5226875, -120.3275423, 35.200, 13:25:23.808, 12, 0.00, 0.32, 97, 2.600, 0.600, 128.500, 2, 100, 94, 28, 24007, -20688, 5197, 5358, 18, 14, 1529439923.808, 38, 0, 1024, 1024, 1024, 1024, 0, 6, 3984, 3999, 3990, 4009, 4008, 4002, 0, 1, 17501, -89.900, 0.000, 129.400, 0.000, 0.000, -3.000, 0.0, , , , , , 96, , , 0, 0, 0
38.5226875, -120.3275423, 35.500, 13:25:23.908, 12, 0.00, 0.32, 97, 2.600, 0.600, 128.400, 2, 100, 94, 28, 24007, -20688, 5197, 5358, 18, 14, 1529439923.909, 39, 0, 1024, 1024, 1024, 1024, 0, 6, 3984, 3999, 3990, 4009, 4008, 4002, 0, 1, 17601, -89.900, 0.000, 129.400, 0.000, 0.000, -3.000, 0.0, , , , , , 96, , , 0, 0, 0
38.5226875, -120.3275424, 35.800, 13:25:24.008, 12, 0.00, 0.32, 97, 2.600, 0.500, 128.300, 2, 100, 94, 28, 24007, -20688, 5197, 5358, 18, 14, 1529439924.008, 32, 0, 1024, 1024, 1024, 1024, 0, 6, 3984, 3999, 3990, 4009, 4008, 4002, 0, 1, 17701, -89.900, 0.000, 129.400, 0.000, 0.000, -3.000, 0.0, , , , , , 96, , , 0, 0, 0
38.5226875, -120.3275424, 35.800, 13:25:24.107, 12, 0.00, 0.32, 97, 2.600, 0.500, 128.300, 2, 100, 94, 28, 24007, -20688, 5197, 5358, 18, 14, 1529439924.107, 130, 0, 1024, 1024, 1024, 1024, 0, 6, 3984, 3999, 3990, 4009, 4008, 4002, 0, 1, 17800, -89.900, 0.000, 129.400, 0.000, 0.000, -3.000, 0.0, , , , , , 96, , , 0, 0, 0
38.5226875, -120.3275424, 36.400, 13:25:24.207, 12, 0.00, 0.31, 97, 2.900, 0.700, 128.400, 2, 100, 94, 28, 24007, -20688, 5197, 5358, 18, 14, 1529439924.207, 32, 0, 1024, 1024, 1024, 1024, 0, 6, 3984, 3999, 3990, 4009, 4008, 4002, 0, 1, 17900, -89.900, 0.000, 129.400, 0.000, 0.000, -3.000, 0.0, , , , , , 96, , , 0, 0, 0
38.5226876, -120.3275424, 36.700, 13:25:24.307, 12, 0.00, 0.31, 97, 3.000, 0.500, 128.400, 2, 100, 94, 28, 23987, -20296, 5197, 5358, 18, 14, 1529439924.307, 16, 0, 1024, 1024, 1024, 1024, 0, 6, 3991, 3996, 3987, 4011, 4005, 3995, 0, 1, 18000, -89.900, 0.000, 129.400, 0.000, 0.000, -3.000, 0.0, , , , , , 96, , , 0, 0, 0
38.5226876, -120.3275425, 37.000, 13:25:24.407, 12, 0.00, 0.31, 97, 2.700, 0.500, 128.300, 2, 100, 93, 28, 23987, -20296, 5197, 5358, 18, 14, 1529439924.407, 8, 0, 1024, 1024, 1024, 1024, 0, 6, 3991, 3996, 3987, 4011, 4005, 3995, 0, 1, 18100, -89.900, 0.000, 129.400, 0.000, 0.000, -3.000, 0.0, , , , , , 96, , , 0, 0, 0
38.5226876, -120.3275426, 37.400, 13:25:24.507, 12, 0.00, 0.31, 97, 2.500, 0.600, 128.300, 2, 100, 93, 28, 23987, -20296, 5197, 5358, 18, 14, 1529439924.507, 23, 0, 1024, 1024, 1024, 1024, 0, 6, 3991, 3996, 3987, 4011, 4005, 3995, 0, 1, 18200, -89.900, 0.000, 129.400, 0.000, 0.000, -3.000, 0.0, , , , , , 96, , , 0, 0, 0
38.5226876, -120.3275426, 37.600, 13:25:24.607, 12, 0.00, 0.30, 97, 2.700, 0.300, 128.100, 2, 100, 93, 28, 23987, -20296, 5197, 5358, 18, 14, 1529439924.607, 18, 0, 1024, 1024, 1024, 1024, 0, 6, 3991, 3996, 3987, 4011, 4005, 3995, 0, 1, 18300, -90.000, 0.000, 129.400, 0.000, 0.000, -3.000, 0.0, , , , , , 96, , , 0, 0, 0
38.5226876, -120.3275427, 37.900, 13:25:24.707, 12, 0.00, 0.29, 97, 2.600, 0.100, 127.800, 2, 100, 93, 28, 23987, -20296, 5197, 5358, 18, 14, 1529439924.707, 21, 0, 1024, 1024, 1024, 1024, 0, 6, 3991, 3996, 3987, 4011, 4005, 3995, 0, 1, 18400, -90.000, 0.000, 129.400, 0.000, 0.000, -3.000, 0.0, , , , , , 96, , , 0, 0, 0
38.5226876, -120.3275427, 37.900, 13:25:24.807, 12, 0.00, 0.29, 97, 2.600, 0.100, 127.800, 2, 100, 93, 28, 23987, -20296, 5197, 5358, 18, 14, 1529439924.807, 121, 0, 1024, 1024, 1024, 1024, 0, 6, 3991, 3996, 3987, 4011, 4005, 3995, 0, 1, 18500, -90.000, 0.000, 129.400, 0.000, 0.000, -3.000, 0.0, , , , , , 96, , , 0, 0, 0
38.5226877, -120.3275429, 38.500, 13:25:24.906, 12, 0.00, 0.29, 97, 2.600, -0.400, 127.700, 2, 100, 94, 28, 23987, -20296, 5197, 5358, 18, 14, 1529439924.907, 6, 0, 1024, 1024, 1024, 1024, 0, 6, 3991, 3996, 3987, 4011, 4005, 3995, 0, 1, 18599, -90.000, 0.000, 129.400, 0.000, 0.000, -3.000, 0.0, , , , , , 96, , , 0, 0, 0
38.5226877, -120.3275429, 38.500, 13:25:25.007, 12, 0.00, 0.29, 97, 2.600, -0.400, 127.700, 2, 100, 94, 28, 23987, -20296, 5197, 5358, 18, 14, 1529439925.007, 107, 0, 1024, 1024, 1024, 1024, 0, 6, 3991, 3996, 3987, 4011, 4005, 3995, 0, 1, 18700, -90.000, 0.000, 129.400, 0.000, 0.000, -3.000, 0.0, , , , , , 96, , , 0, 0, 0
38.5226877, -120.3275429, 38.900, 13:25:25.108, 12, 0.00, 0.28, 97, 2.600, -0.600, 127.900, 2, 100, 94, 28, 23987, -20296, 5197, 5358, 18, 14, 1529439925.108, 87, 0, 1024, 1024, 1024, 1024, 0, 6, 3991, 3996, 3987, 4011, 4005, 3995, 0, 1, 18801, -90.000, 0.000, 129.400, 0.000, 0.000, -3.000, 0.0, , , , , , 96, , , 0, 0, 0
38.5226878, -120.3275430, 39.500, 13:25:25.208, 12, 0.00, 0.28, 97, 2.900, -0.400, 128.300, 2, 100, 94, 28, 23987, -20296, 5197, 5358, 18, 14, 1529439925.208, 92, 0, 1024, 1024, 1024, 1024, 0, 6, 3991, 3996, 3987, 4011, 4005, 3995, 0, 1, 18901, -90.000, 0.000, 129.400, 0.000, 0.000, -3.000, 0.0, , , , , , 96, , , 0, 0, 0
38.5226878, -120.3275430, 39.500, 13:25:25.308, 12, 0.00, 0.28, 97, 2.900, -0.400, 128.300, 2, 100, 94, 28, 23987, -20296, 5197, 5358, 18, 14, 1529439925.308, 192, 0, 1024, 1024, 1024, 1024, 0, 6, 3991, 3996, 3987, 4011, 4005, 3995, 0, 1, 19001, -89.900, 0.000, 129.400, 0.000, 0.000, -3.000, 0.0, , , , , , 96, , , 0, 0, 0
38.5226877, -120.3275430, 40.100, 13:25:25.408, 12, 0.00, 0.28, 97, 2.600, 0.100, 128.600, 2, 100, 89, 28, 23941, -20484, 5197, 5358, 18, 14, 1529439925.408, 88, 0, 1024, 1024, 1024, 1024, 0, 6, 3983, 3987, 3979, 3999, 4006, 3993, 0, 1, 19101, -89.900, 0.000, 129.400, 0.000, 0.000, -3.000, 0.0, , , , , , 96, , , 0, 0, 0
38.5226877, -120.3275431, 40.400, 13:25:25.508, 12, 0.00, 0.28, 97, 2.500, 0.300, 128.700, 2, 100, 89, 28, 23941, -20484, 5197, 5358, 18, 14, 1529439925.508, 70, 0, 1024, 1024, 1024, 1024, 0, 6, 3983, 3987, 3979, 3999, 4006, 3993, 0, 1, 19201, -89.900, 0.000, 129.400, 0.000, 0.000, -3.000, 0.0, , , , , , 96, , , 0, 0, 0
38.5226877, -120.3275431, 40.700, 13:25:25.608, 12, 0.00, 0.27, 97, 2.700, 0.400, 128.700, 2, 100, 89, 28, 23941, -20484, 5197, 5358, 18, 14, 1529439925.608, 68, 0, 1024, 1024, 1024, 1024, 0, 6, 3983, 3987, 3979, 3999, 4006, 3993, 0, 1, 19301, -89.900, 0.000, 129.400, 0.000, 0.000, -3.100, 0.0, , , , , , 96, , , 0, 0, 0
38.5226878, -120.3275431, 41.000, 13:25:25.708, 12, 0.00, 0.27, 97, 2.600, 0.100, 128.700, 2, 100, 89, 28, 23941, -20484, 5197, 5358, 18, 14, 1529439925.708, 45, 0, 1024, 1024, 1024, 1024, 0, 6, 3983, 3987, 3979, 3999, 4006, 3993, 0, 1, 19401, -89.900, 0.000, 129.400, 0.000, 0.000, -3.100, 0.0, , , , , , 96, , , 0, 0, 0
38.5226878, -120.3275431, 41.300, 13:25:25.808, 12, 0.00, 0.27, 97, 2.900, -0.100, 128.800, 2, 100, 89, 28, 23941, -20484, 5197, 5358, 18, 14, 1529439925.809, 73, 0, 1024, 1024, 1024, 1024, 0, 6, 3983, 3987, 3979, 3999, 4006, 3993, 0, 1, 19501, -90.000, 0.000, 129.400, 0.000, 0.000, -3.100, 0.0, , , , , , 96, , , 0, 0, 0
38.5226878, -120.3275432, 41.600, 13:25:25.908, 12, 0.00, 0.27, 97, 3.000, -0.500, 128.800, 2, 100, 90, 28, 23941, -20484, 5197, 5358, 18, 14, 1529439925.908, 64, 0, 1024, 1024, 1024, 1024, 0, 6, 3983, 3987, 3979, 3999, 4006, 3993, 0, 1, 19601, -90.000, 0.000, 129.400, 0.000, 0.000, -3.100, 0.0, , , , , , 96, , , 0, 0, 0
38.5226879, -120.3275432, 41.900, 13:25:26.008, 12, 0.00, 0.27, 97, 3.000, -0.600, 128.900, 2, 100, 90, 28, 23941, -20484, 5197, 5358, 18, 14, 1529439926.008, 60, 0, 1024, 1024, 1024, 1024, 0, 6, 3983, 3987, 3979, 3999, 4006, 3993, 0, 1, 19701, -90.000, 0.000, 129.400, 0.000, 0.000, -3.000, 0.0, , , , , , 96, , , 0, 0, 0
38.5226879, -120.3275432, 42.200, 13:25:26.108, 12, 0.00, 0.27, 97, 3.000, -0.600, 128.900, 2, 100, 90, 28, 23941, -20484, 5197, 5358, 18, 14, 1529439926.108, 59, 0, 1024, 1024, 1024, 1024, 0, 6, 3983, 3987, 3979, 3999, 4006, 3993, 0, 1, 19800, -90.000, 0.000, 129.400, 0.000, 0.000, -2.900, 0.0, , , , , , 96, , , 0, 0, 0
38.5226879, -120.3275433, 42.500, 13:25:26.208, 12, 0.00, 0.27, 97, 3.000, -0.600, 128.700, 2, 100, 90, 28, 23941, -20484, 5197, 5358, 18, 14, 1529439926.208, 28, 0, 1024, 1024, 1024, 1024, 0, 6, 3983, 3987, 3979, 3999, 4006, 3993, 0, 1, 19901, -90.000, 0.000, 129.400, 0.000, 0.000, -3.000, 0.0, , , , , , 96, , , 0, 0, 0
38.5226879, -120.3275433, 42.800, 13:25:26.308, 12, 0.00, 0.27, 97, 2.900, -0.700, 128.500, 2, 100, 90, 28, 23994, -19716, 5197, 5358, 18, 14, 1529439926.308, 46, 0, 1024, 1024, 1024, 1024, 0, 6, 3992, 4005, 3979, 4012, 4013, 3997, 0, 1, 20001, -90.000, 0.000, 129.400, 0.000, 0.000, -3.000, 0.0, , , , , , 96, , , 0, 0, 0
38.5226880, -120.3275433, 43.100, 13:25:26.407, 12, 0.00, 0.27, 97, 2.700, -0.900, 128.300, 2, 100, 89, 28, 23994, -19716, 5197, 5358, 18, 14, 1529439926.407, 42, 0, 1024, 1024, 1024, 1024, 0, 6, 3992, 4005, 3979, 4012, 4013, 3997, 0, 1, 20100, -90.000, 0.000, 129.400, 0.000, 0.000, -3.000, 0.0, , , , , , 96, , , 0, 0, 0
38.5226880, -120.3275434, 43.400, 13:25:26.509, 12, 0.00, 0.27, 97, 2.800, -0.700, 128.100, 2, 100, 89, 28, 23994, -19716, 5197, 5358, 18, 14, 1529439926.510, 2, 0, 1024, 1024, 1024, 1024, 0, 6, 3992, 4005, 3979, 4012, 4013, 3997, 0, 1, 20202, -90.000, 0.000, 129.400, 0.000, 0.000, -3.000, 0.0, , , , , , 96, , , 0, 0, 0
38.5226880, -120.3275434, 43.700, 13:25:26.607, 12, 0.00, 0.27, 97, 2.700, -0.500, 128.000, 2, 100, 89, 28, 23994, -19716, 5197, 5358, 18, 14, 1529439926.607, 25, 0, 1024, 1024, 1024, 1024, 0, 6, 3992, 4005, 3979, 4012, 4013, 3997, 0, 1, 20300, -89.900, 0.000, 129.400, 0.000, 0.000, -3.000, 0.0, , , , , , 96, , , 0, 0, 0
38.5226880, -120.3275434, 44.000, 13:25:26.707, 12, 0.00, 0.27, 97, 2.800, -0.300, 128.000, 2, 100, 89, 28, 23994, -19716, 5197, 5358, 18, 14, 1529439926.707, 2, 0, 1024, 1024, 1024, 1024, 0, 6, 3992, 4005, 3979, 4012, 4013, 3997, 0, 1, 20400, -89.900, 0.000, 129.400, 0.000, 0.000, -3.000, 0.0, , , , , , 96, , , 0, 0, 0
38.5226880, -120.3275434, 44.000, 13:25:26.807, 12, 0.00, 0.27, 97, 2.800, -0.300, 128.000, 2, 100, 89, 28, 23994, -19716, 5197, 5358, 18, 14, 1529439926.807, 102, 0, 1024, 1024, 1024, 1024, 0, 6, 3992, 4005, 3979, 4012, 4013, 3997, 0, 1, 20499, -89.900, 0.000, 129.400, 0.000, 0.000, -3.000, 0.0, , , , , , 96, , , 0, 0, 0
38.5226880, -120.3275434, 44.600, 13:25:26.907, 12, 0.00, 0.27, 97, 2.800, -0.400, 128.000, 2, 100, 93, 28, 23994, -19716, 5197, 5358, 18, 14, 1529439926.907, 3, 0, 1024, 1024, 1024, 1024, 0, 6, 3992, 4005, 3979, 4012, 4013, 3997, 0, 1, 20599, -89.900, 0.000, 129.400, 0.000, 0.000, -3.000, 0.0, , , , , , 96, , , 0, 0, 0
38.5226881, -120.3275433, 44.900, 13:25:27.007, 12, 0.00, 0.28, 97, 3.000, -0.300, 128.200, 2, 100, 93, 28, 23994, -19716, 5197, 5358, 18, 14, 1529439927.007, 8, 0, 1024, 1024, 1024, 1024, 0, 6, 3992, 4005, 3979, 4012, 4013, 3997, 0, 1, 20699, -89.900, 0.000, 129.400, 0.000, 0.000, -3.000, 0.0, , , , , , 96, , , 0, 0, 0
38.5226881, -120.3275433, 44.900, 13:25:27.107, 12, 0.00, 0.28, 97, 3.000, -0.300, 128.200, 2, 100, 93, 28, 23994, -19716, 5197, 5358, 18, 14, 1529439927.107, 108, 0, 1024, 1024, 1024, 1024, 0, 6, 3992, 4005, 3979, 4012, 4013, 3997, 0, 1, 20799, -89.900, 0.000, 129.400, 0.000, 0.000, -3.000, 0.0, , , , , , 96, , , 0, 0, 0
38.5226881, -120.3275433, 45.500, 13:25:27.207, 12, 0.00, 0.28, 97, 3.500, 0.000, 128.500, 2, 100, 93, 28, 23994, -19716, 5197, 5358, 18, 14, 1529439927.207, 85, 0, 1024, 1024, 1024, 1024, 0, 6, 3992, 4005, 3979, 4012, 4013, 3997, 0, 1, 20900, -89.900, 0.000, 129.400, 0.000, 0.000, -3.000, 0.0, , , , , , 96, , , 0, 0, 0
38.5226881, -120.3275432, 45.800, 13:25:27.307, 12, 0.00, 0.29, 97, 3.400, 0.000, 128.700, 2, 100, 93, 28, 23994, -19716, 5197, 5358, 18, 14, 1529439927.307, 94, 0, 1024, 1024, 1024, 1024, 0, 6, 3992, 4005, 3979, 4012, 4013, 3997, 0, 1, 20999, -89.900, 0.000, 129.400, 0.000, 0.000, -3.000, 0.0, , , , , , 96, , , 0, 0, 0
38.5226881, -120.3275432, 46.100, 13:25:27.407, 12, 0.00, 0.29, 97, 3.600, -0.200, 128.700, 2, 100, 94, 28, 23994, -19716, 5197, 5358, 18, 14, 1529439927.407, 89, 0, 1024, 1024, 1024, 1024, 0, 6, 3992, 4005, 3979, 4012, 4013, 3997, 0, 1, 21099, -89.900, 0.000, 129.400, 0.000, 0.000, -3.000, 0.0, , , , , , 96, , , 0, 0, 0
38.5226882, -120.3275432, 46.400, 13:25:27.507, 12, 0.00, 0.30, 97, 3.500, -0.300, 128.700, 2, 100, 94, 28, 23994, -19716, 5197, 5358, 18, 14, 1529439927.507, 72, 0, 1024, 1024, 1024, 1024, 0, 6, 3992, 4005, 3979, 4012, 4013, 3997, 0, 1, 21199, -89.900, 0.000, 129.400, 0.000, 0.000, -2.900, 0.0, , , , , , 96, , , 0, 0, 0
