Latitude, Longitude, Altitude (m), Time, Sats, Speed (m/s), Range (m), Battery (%), Roll (deg), Pitch (deg), Yaw (deg), Images, HD Signal (%), RC Signal (%), Battery Temp (C), Battery Voltage (mV), Battery Current (mA), Battery Energy (mAh), Battery Capacity (mAh), Battery Discharges, flyState, timestamp (Unix), LastUpdate (ms), radioChannel, Rc_elevator, Rc_aileron, Rc_throttle, Rc_rudder, Rc_gyro, Dronetype, Battery_Cell1 (mV), Battery_Cell2 (mV), Battery_Cell3 (mV), Battery_Cell4 (mV), Battery_Cell5 (mV), Battery_Cell6 (mV), Video, isFlying, elapsedTime (ms), gimbalPitch (deg), gimbalRoll (deg), gimbalYaw (deg), VelocityX (m/s), VelocityY (m/s), VelocityZ (m/s), GroundSmear (cm), App Version, Aircraft Name, Aircraft Firmware, Aircraft Serial Number, Battery Serial Number, Battery Lifetime (%), App_Tip, App_Warning, CurrentFlightStartingIndex, CurrentFlightLastVisitedWaypoint, PreviousFlightEndingWaypointIndex
38.5226812, -120.3275295, -0.100, 14:06:45.488, 10, 0.00, 0.02, 100, 0.500, 1.200, 131.900, 840, 100, 100, 26, 25622, -3938, 5396, 5396, 16, 11, 1529442405.488, 3, 0, 1024, 1024, 1024, 1024, 0, 6, 4250, 4280, 4253, 4281, 4301, 4286, 0, 1, 3201, -89.900, 0.000, 130.500, 0.000, 0.000, -0.300, 0.0, MapPilot_2.8.1_04242018, Dendroctonus I, 1.3.1.00, 041DDC1887, 1058163200445, 96, DJI_0838.jpg, Starting Mission from Lat/Long: 38.52268/-120.32753 Camera: Zenmuse X3 - Overlap: 90/90 - Active Connection: No, 31, 31, 31
38.5226811, -120.3275296, 0.000, 14:06:45.588, 10, 0.00, 0.03, 100, 0.200, 0.800, 132.000, 840, 100, 100, 26, 25622, -3938, 5396, 5396, 16, 11, 1529442405.588, 8, 0, 1024, 1024, 1024, 1024, 0, 6, 4250, 4280, 4253, 4281, 4301, 4286, 0, 1, 3301, -89.900, 0.000, 130.400, 0.000, 0.000, -0.400, 0.0, , , , , , 96, , , 31, 31, 31
38.5226811, -120.3275297, 0.000, 14:06:45.688, 10, 0.00, 0.04, 100, 0.100, 0.700, 132.000, 840, 100, 100, 26, 25622, -3938, 5396, 5396, 16, 11, 1529442405.688, 5, 0, 1024, 1024, 1024, 1024, 0, 6, 4250, 4280, 4253, 4281, 4301, 4286, 0, 1, 3401, -89.900, 0.000, 130.400, 0.000, 0.000, -0.400, 0.0, , , , , , 96, , , 31, 31, 31
38.5226811, -120.3275298, 0.000, 14:06:45.788, 11, 0.00, 0.05, 100, 0.000, 0.300, 131.900, 840, 100, 100, 26, 25622, -3938, 5396, 5396, 16, 11, 1529442405.788, 4, 0, 1024, 1024, 1024, 1024, 0, 6, 4250, 4280, 4253, 4281, 4301, 4286, 0, 1, 3501, -90.000, 0.000, 130.400, 0.000, 0.000, -0.400, 0.0, , , , , , 96, , , 31, 31, 31
38.5226811, -120.3275299, 0.000, 14:06:45.888, 11, 0.00, 0.05, 100, -0.100, 0.000, 131.700, 840, 100, 100, 26, 25622, -3938, 5396, 5396, 16, 11, 1529442405.888, 10, 0, 1024, 1024, 1024, 1024, 0, 6, 4250, 4280, 4253, 4281, 4301, 4286, 0, 1, 3601, -90.000, 0.000, 130.400, 0.000, 0.000, -0.400, 0.0, , , , , , 96, , , 31, 31, 31
38.5226811, -120.3275299, 0.000, 14:06:45.988, 11, 0.00, 0.05, 100, -0.100, 0.000, 131.700, 840, 100, 100, 26, 25622, -3938, 5396, 5396, 16, 11, 1529442405.988, 109, 0, 1024, 1024, 1024, 1024, 0, 6, 4250, 4280, 4253, 4281, 4301, 4286, 0, 1, 3701, -90.000, 0.000, 130.400, 0.000, 0.000, -0.400, 0.0, , , , , , 96, , , 31, 31, 31
38.5226811, -120.3275299, 0.100, 14:06:46.089, 11, 0.00, 0.05, 100, 0.000, -0.400, 131.300, 840, 100, 100, 26, 25292, -16324, 5396, 5396, 16, 11, 1529442406.089, 5, 0, 1024, 1024, 1024, 1024, 0, 6, 4250, 4280, 4253, 4281, 4301, 4286, 0, 1, 3802, -90.000, 0.000, 130.400, 0.000, 0.000, -0.400, 0.0, , , , , , 96, , , 31, 31, 31
38.5226811, -120.3275299, 0.100, 14:06:46.188, 11, 0.00, 0.05, 100, 0.000, -0.400, 131.300, 840, 100, 100, 26, 25292, -16324, 5396, 5396, 16, 11, 1529442406.188, 103, 0, 1024, 1024, 1024, 1024, 0, 6, 4250, 4280, 4253, 4281, 4301, 4286, 0, 1, 3901, -90.000, 0.000, 130.400, 0.000, 0.000, -0.400, 0.0, , , , , , 96, , , 31, 31, 31
38.5226811, -120.3275299, 0.200, 14:06:46.288, 10, 0.00, 0.05, 100, 0.000, -0.500, 131.200, 840, 100, 100, 26, 25292, -16324, 5396, 5396, 16, 11, 1529442406.288, 85, 0, 1024, 1024, 1024, 1024, 0, 6, 4250, 4280, 4253, 4281, 4301, 4286, 0, 1, 4001, -90.000, 0.000, 130.400, 0.000, 0.000, -0.400, 0.0, , , , , , 96, , , 31, 31, 31
38.5226811, -120.3275299, 0.200, 14:06:46.388, 10, 0.00, 0.05, 100, 0.000, -0.500, 131.100, 840, 100, 100, 26, 25292, -16324, 5396, 5396, 16, 11, 1529442406.388, 89, 0, 1024, 1024, 1024, 1024, 0, 6, 4250, 4280, 4253, 4281, 4301, 4286, 0, 1, 4101, -90.000, 0.000, 130.400, 0.000, 0.000, -0.400, 0.0, , , , , , 96, , , 31, 31, 31
38.5226811, -120.3275298, 0.300, 14:06:46.488, 10, 0.00, 0.05, 100, 0.000, -0.400, 131.200, 840, 100, 100, 26, 25292, -16324, 5396, 5396, 16, 11, 1529442406.488, 85, 0, 1024, 1024, 1024, 1024, 0, 6, 4250, 4280, 4253, 4281, 4301, 4286, 0, 1, 4201, -89.900, 0.000, 130.400, 0.000, 0.000, -0.500, 0.0, , , , , , 96, , , 31, 31, 31
38.5226811, -120.3275297, 0.400, 14:06:46.588, 10, 0.00, 0.04, 100, 0.000, -0.100, 131.300, 840, 100, 100, 26, 25292, -16324, 5396, 5396, 16, 11, 1529442406.588, 78, 0, 1024, 1024, 1024, 1024, 0, 6, 4074, 4075, 4167, 4163, 4215, 4134, 0, 1, 4301, -89.900, 0.000, 130.400, 0.000, 0.000, -0.500, 0.0, , , , , , 96, , , 31, 31, 31
38.5226811, -120.3275297, 0.400, 14:06:46.696, 9, 0.00, 0.04, 100, 0.200, 0.100, 131.500, 840, 100, 100, 26, 25292, -16324, 5396, 5396, 16, 11, 1529442406.696, 88, 0, 1024, 1024, 1024, 1024, 0, 6, 4074, 4075, 4167, 4163, 4215, 4134, 0, 1, 4409, -89.900, 0.000, 130.400, 0.000, 0.000, -0.500, 0.0, , , , , , 96, , , 31, 31, 31
38.5226811, -120.3275296, 0.500, 14:06:46.788, 9, 0.00, 0.04, 100, 0.400, 0.200, 131.600, 840, 100, 100, 26, 25292, -16324, 5396, 5396, 16, 11, 1529442406.788, 60, 0, 1024, 1024, 1024, 1024, 0, 6, 4074, 4075, 4167, 4163, 4215, 4134, 0, 1, 4501, -89.900, 0.000, 130.400, 0.000, 0.000, -0.400, 0.0, , , , , , 96, , , 31, 31, 31
38.5226811, -120.3275296, 0.500, 14:06:46.888, 12, 0.00, 0.04, 100, 0.600, 0.300, 131.700, 840, 100, 100, 26, 25292, -16324, 5396, 5396, 16, 11, 1529442406.888, 63, 0, 1024, 1024, 1024, 1024, 0, 6, 4074, 4075, 4167, 4163, 4215, 4134, 0, 1, 4601, -89.900, 0.000, 130.500, 0.000, 0.000, -0.400, 0.0, , , , , , 96, , , 31, 31, 31
38.5226811, -120.3275295, 0.600, 14:06:46.988, 12, 0.00, 0.03, 100, 0.600, 0.300, 131.700, 840, 100, 100, 26, 25292, -16324, 5396, 5396, 16, 11, 1529442406.988, 62, 0, 1024, 1024, 1024, 1024, 0, 6, 4074, 4075, 4167, 4163, 4215, 4134, 0, 1, 4701, -89.900, 0.000, 130.400, 0.000, 0.000, -0.400, 0.0, , , , , , 96, , , 31, 31, 31
38.5226811, -120.3275295, 0.700, 14:06:47.088, 10, 0.00, 0.03, 100, 0.800, 0.400, 131.600, 840, 100, 100, 26, 25292, -16324, 5396, 5396, 16, 11, 1529442407.088, 55, 0, 1024, 1024, 1024, 1024, 0, 6, 4074, 4075, 4167, 4163, 4215, 4134, 0, 1, 4801, -89.900, 0.000, 130.400, 0.000, 0.000, -0.500, 0.0, , , , , , 96, , , 31, 31, 31
38.5226811, -120.3275295, 0.700, 14:06:47.188, 10, 0.00, 0.03, 100, 0.800, 0.400, 131.500, 840, 100, 100, 26, 25292, -16324, 5396, 5396, 16, 11, 1529442407.188, 46, 0, 1024, 1024, 1024, 1024, 0, 6, 4074, 4075, 4167, 4163, 4215, 4134, 0, 1, 4901, -89.900, 0.000, 130.400, 0.000, 0.000, -0.500, 0.0, , , , , , 96, , , 31, 31, 31
38.5226812, -120.3275294, 0.900, 14:06:47.288, 10, 0.00, 0.02, 100, 0.700, 0.300, 131.300, 840, 100, 100, 26, 25292, -16324, 5396, 5396, 16, 11, 1529442407.288, 47, 0, 1024, 1024, 1024, 1024, 0, 6, 4074, 4075, 4167, 4163, 4215, 4134, 0, 1, 5001, -89.900, 0.000, 130.400, 0.000, 0.000, -0.500, 0.0, , , , , , 96, , , 31, 31, 31
38.5226812, -120.3275294, 0.900, 14:06:47.388, 11, 0.00, 0.01, 100, 0.800, 0.300, 131.200, 840, 100, 100, 26, 25292, -16324, 5396, 5396, 16, 14, 1529442407.388, 31, 0, 1024, 1024, 1024, 1024, 0, 6, 4074, 4075, 4167, 4163, 4215, 4134, 0, 1, 5101, -89.900, 0.000, 130.400, 0.000, 0.000, -0.500, 0.0, , , , , , 96, , , 31, 31, 31
38.5226812, -120.3275294, 1.000, 14:06:47.488, 11, 0.00, 0.01, 100, 0.900, 0.200, 131.000, 840, 100, 100, 26, 24277, -16940, 5396, 5396, 16, 14, 1529442407.488, 23, 0, 1024, 1024, 1024, 1024, 0, 6, 4050, 4040, 4019, 4036, 4086, 4078, 0, 1, 5201, -89.900, 0.000, 130.400, 0.000, 0.000, -0.300, 0.0, , , , , , 96, , , 31, 31, 31
38.5226813, -120.3275294, 1.000, 14:06:47.588, 11, 0.00, 0.01, 100, 0.900, 0.000, 130.900, 840, 100, 100, 26, 24277, -16940, 5396, 5396, 16, 14, 1529442407.588, 20, 0, 1024, 1024, 1024, 1024, 0, 6, 4050, 4040, 4019, 4036, 4086, 4078, 0, 1, 5301, -89.900, 0.000, 130.400, 0.000, 0.000, -0.300, 0.0, , , , , , 96, , , 31, 31, 31
38.5226814, -120.3275294, 1.100, 14:06:47.688, 11, 0.00, 0.01, 100, 1.000, 0.000, 130.700, 840, 100, 100, 26, 24277, -16940, 5396, 5396, 16, 14, 1529442407.688, 13, 0, 1024, 1024, 1024, 1024, 0, 6, 4050, 4040, 4019, 4036, 4086, 4078, 0, 1, 5401, -89.900, 0.000, 130.400, 0.000, 0.000, -0.300, 0.0, , , , , , 96, , , 31, 31, 31
38.5226814, -120.3275294, 1.100, 14:06:47.788, 11, 0.00, 0.01, 100, 1.000, 0.000, 130.700, 840, 100, 100, 26, 24277, -16940, 5396, 5396, 16, 14, 1529442407.788, 113, 0, 1024, 1024, 1024, 1024, 0, 6, 4050, 4040, 4019, 4036, 4086, 4078, 0, 1, 5501, -89.900, 0.000, 130.400, 0.000, 0.000, -0.300, 0.0, , , , , , 96, , , 31, 31, 31
38.5226814, -120.3275293, 1.200, 14:06:47.888, 12, 0.00, 0.01, 100, 1.100, 0.000, 130.200, 840, 100, 100, 26, 24277, -16940, 5396, 5396, 16, 14, 1529442407.888, 4, 0, 1024, 1024, 1024, 1024, 0, 6, 4050, 4040, 4019, 4036, 4086, 4078, 0, 1, 5601, -89.900, 0.000, 130.400, 0.000, 0.000, -0.400, 0.0, , , , , , 96, , , 31, 31, 31
38.5226814, -120.3275293, 1.200, 14:06:47.988, 12, 0.00, 0.01, 100, 1.100, 0.000, 130.200, 840, 100, 100, 26, 24277, -16940, 5396, 5396, 16, 14, 1529442407.988, 104, 0, 1024, 1024, 1024, 1024, 0, 6, 4050, 4040, 4019, 4036, 4086, 4078, 0, 1, 5701, -89.900, 0.000, 130.400, 0.000, 0.000, -0.400, 0.0, , , , , , 96, , , 31, 31, 31
38.5226814, -120.3275291, 1.300, 14:06:48.087, 12, 0.00, 0.02, 100, 1.000, 0.300, 130.000, 840, 100, 100, 26, 24277, -16940, 5396, 5396, 16, 14, 1529442408.087, 83, 0, 1024, 1024, 1024, 1024, 0, 6, 4050, 4040, 4019, 4036, 4086, 4078, 0, 1, 5800, -89.900, 0.000, 130.400, 0.000, 0.000, -0.600, 0.0, , , , , , 96, , , 31, 31, 31
38.5226815, -120.3275290, 1.300, 14:06:48.187, 12, 0.00, 0.03, 100, 1.000, 0.500, 129.800, 840, 100, 100, 26, 24277, -16940, 5396, 5396, 16, 14, 1529442408.187, 98, 0, 1024, 1024, 1024, 1024, 0, 6, 4050, 4040, 4019, 4036, 4086, 4078, 0, 1, 5900, -89.900, 0.000, 130.400, 0.000, 0.000, -0.700, 0.0, , , , , , 96, , , 31, 31, 31
38.5226815, -120.3275289, 1.500, 14:06:48.287, 9, 0.00, 0.05, 100, 1.100, 0.500, 129.600, 840, 100, 100, 26, 24277, -16940, 5396, 5396, 16, 14, 1529442408.287, 64, 0, 1024, 1024, 1024, 1024, 0, 6, 4050, 4040, 4019, 4036, 4086, 4078, 0, 1, 6000, -89.900, 0.000, 130.400, 0.000, 0.000, -1.000, 0.0, , , , , , 96, , , 31, 31, 31
38.5226816, -120.3275287, 1.600, 14:06:48.387, 9, 0.00, 0.06, 100, 1.300, 0.500, 129.400, 840, 100, 100, 26, 24277, -16940, 5396, 5396, 16, 14, 1529442408.387, 78, 0, 1024, 1024, 1024, 1024, 0, 6, 4050, 4040, 4019, 4036, 4086, 4078, 0, 1, 6100, -89.900, 0.000, 130.400, 0.000, 0.000, -1.100, 0.0, , , , , , 96, , , 31, 31, 31
38.5226816, -120.3275287, 1.700, 14:06:48.487, 12, 0.00, 0.07, 100, 1.500, 0.500, 129.300, 840, 100, 100, 26, 24277, -16940, 5396, 5396, 16, 14, 1529442408.487, 70, 0, 1024, 1024, 1024, 1024, 0, 6, 4050, 4040, 4019, 4036, 4086, 4078, 0, 1, 6200, -89.900, 0.000, 130.400, 0.000, 0.000, -1.400, 0.0, , , , , , 96, , , 31, 31, 31
38.5226817, -120.3275288, 1.900, 14:06:48.587, 12, 0.00, 0.07, 100, 1.600, 0.300, 129.300, 840, 100, 100, 26, 24280, -17144, 5288, 5396, 16, 14, 1529442408.587, 83, 0, 1024, 1024, 1024, 1024, 0, 6, 4096, 4010, 3999, 3997, 4030, 4020, 0, 1, 6300, -90.000, 0.000, 130.400, 0.000, 0.000, -1.500, 0.0, , , , , , 96, , , 31, 31, 31
38.5226818, -120.3275288, 2.100, 14:06:48.687, 11, 0.00, 0.07, 100, 1.500, 0.000, 129.300, 840, 100, 100, 26, 24280, -17144, 5288, 5396, 16, 14, 1529442408.687, 79, 0, 1024, 1024, 1024, 1024, 0, 6, 4096, 4010, 3999, 3997, 4030, 4020, 0, 1, 6400, -90.000, 0.000, 130.400, 0.000, 0.000, -1.700, 0.0, , , , , , 96, , , 31, 31, 31
38.5226818, -120.3275289, 2.300, 14:06:48.787, 11, 0.00, 0.06, 100, 1.400, -0.300, 129.500, 840, 100, 100, 26, 24280, -17144, 5288, 5396, 16, 14, 1529442408.787, 61, 0, 1024, 1024, 1024, 1024, 0, 6, 4096, 4010, 3999, 3997, 4030, 4020, 0, 1, 6500, -90.000, 0.000, 130.400, 0.000, 0.000, -2.000, 0.0, , , , , , 96, , , 31, 31, 31
38.5226818, -120.3275290, 2.500, 14:06:48.887, 11, 0.00, 0.06, 100, 1.400, -0.300, 129.700, 840, 100, 100, 26, 24280, -17144, 5288, 5396, 16, 14, 1529442408.887, 60, 0, 1024, 1024, 1024, 1024, 0, 6, 4096, 4010, 3999, 3997, 4030, 4020, 0, 1, 6600, -90.000, 0.000, 130.400, 0.000, 0.000, -2.200, 0.0, , , , , , 96, , , 31, 31, 31
38.5226819, -120.3275292, 2.800, 14:06:48.987, 11, 0.00, 0.06, 100, 1.200, -0.400, 129.900, 840, 100, 100, 26, 24280, -17144, 5288, 5396, 16, 14, 1529442408.987, 39, 0, 1024, 1024, 1024, 1024, 0, 6, 4096, 4010, 3999, 3997, 4030, 4020, 0, 1, 6700, -90.000, 0.000, 130.400, 0.000, 0.000, -2.400, 0.0, , , , , , 96, , , 31, 31, 31
38.5226819, -120.3275293, 3.100, 14:06:49.087, 11, 0.00, 0.07, 98, 1.000, -0.600, 130.000, 840, 100, 100, 26, 24280, -17144, 5288, 5396, 16, 14, 1529442409.087, 41, 0, 1024, 1024, 1024, 1024, 0, 6, 4096, 4010, 3999, 3997, 4030, 4020, 0, 1, 6800, -90.000, 0.000, 130.400, 0.000, 0.000, -2.700, 0.0, , , , , , 96, , , 31, 31, 31
38.5226819, -120.3275292, 3.400, 14:06:49.187, 11, 0.00, 0.07, 98, 0.700, -0.600, 130.000, 840, 100, 100, 26, 24280, -17144, 5288, 5396, 16, 14, 1529442409.187, 46, 0, 1024, 1024, 1024, 1024, 0, 6, 4096, 4010, 3999, 3997, 4030, 4020, 0, 1, 6900, -89.900, 0.000, 130.400, 0.000, 0.000, -2.800, 0.0, , , , , , 96, , , 31, 31, 31
38.5226818, -120.3275293, 3.700, 14:06:49.287, 11, 0.00, 0.06, 98, 0.800, -0.300, 130.000, 840, 100, 100, 26, 24280, -17144, 5288, 5396, 16, 14, 1529442409.287, 54, 0, 1024, 1024, 1024, 1024, 0, 6, 4096, 4010, 3999, 3997, 4030, 4020, 0, 1, 7000, -89.900, 0.000, 130.400, 0.000, 0.000, -2.900, 0.0, , , , , , 96, , , 31, 31, 31
38.5226817, -120.3275294, 4.100, 14:06:49.387, 11, 0.00, 0.05, 98, 0.700, -0.100, 129.900, 840, 100, 100, 26, 24280, -17144, 5288, 5396, 16, 14, 1529442409.387, 44, 0, 1024, 1024, 1024, 1024, 0, 6, 4096, 4010, 3999, 3997, 4030, 4020, 0, 1, 7100, -89.900, 0.000, 130.400, 0.000, 0.000, -3.000, 0.0, , , , , , 96, , , 31, 31, 31
38.5226817, -120.3275296, 4.400, 14:06:49.487, 12, 0.00, 0.05, 98, 0.300, -0.100, 129.800, 840, 100, 100, 26, 24280, -17144, 5288, 5396, 16, 14, 1529442409.487, 49, 0, 1024, 1024, 1024, 1024, 0, 6, 4096, 4010, 3999, 3997, 4030, 4020, 0, 1, 7200, -89.900, 0.000, 130.400, 0.000, 0.000, -3.000, 0.0, , , , , , 96, , , 31, 31, 31
38.5226818, -120.3275300, 5.100, 14:06:49.587, 11, 0.00, 0.07, 98, 0.000, -0.400, 129.500, 840, 100, 100, 26, 23725, -23336, 5288, 5396, 16, 14, 1529442409.587, 33, 0, 1024, 1024, 1024, 1024, 0, 6, 3954, 3937, 3914, 3931, 3969, 3956, 0, 1, 7300, -89.900, 0.000, 130.400, 0.000, 0.000, -3.100, 0.0, , , , , , 96, , , 31, 31, 31
38.5226818, -120.3275304, 5.400, 14:06:49.687, 11, 0.00, 0.11, 98, 0.000, -0.800, 129.500, 840, 100, 100, 26, 23725, -23336, 5288, 5396, 16, 14, 1529442409.687, 30, 0, 1024, 1024, 1024, 1024, 0, 6, 3954, 3937, 3914, 3931, 3969, 3956, 0, 1, 7400, -90.000, 0.000, 130.400, 0.000, 0.000, -3.100, 0.0, , , , , , 96, , , 31, 31, 31
38.5226819, -120.3275307, 5.800, 14:06:49.787, 11, 0.00, 0.13, 98, -0.100, -1.300, 129.400, 840, 100, 100, 26, 23725, -23336, 5288, 5396, 16, 14, 1529442409.787, 20, 0, 1024, 1024, 1024, 1024, 0, 6, 3954, 3937, 3914, 3931, 3969, 3956, 0, 1, 7500, -90.000, 0.000, 130.400, 0.000, 0.000, -3.000, 0.0, , , , , , 96, , , 31, 31, 31
38.5226820, -120.3275306, 6.100, 14:06:49.887, 11, 0.00, 0.13, 98, 0.000, -1.500, 129.400, 840, 100, 100, 26, 23725, -23336, 5288, 5396, 16, 14, 1529442409.887, 20, 0, 1024, 1024, 1024, 1024, 0, 6, 3954, 3937, 3914, 3931, 3969, 3956, 0, 1, 7600, -90.000, 0.000, 130.400, 0.000, 0.000, -3.000, 0.0, , , , , , 96, , , 31, 31, 31
38.5226821, -120.3275306, 6.400, 14:06:49.987, 12, 0.00, 0.14, 98, 0.700, -1.400, 129.400, 840, 100, 100, 26, 23725, -23336, 5288, 5396, 16, 14, 1529442409.987, 23, 0, 1024, 1024, 1024, 1024, 0, 6, 3954, 3937, 3914, 3931, 3969, 3956, 0, 1, 7700, -89.900, 0.000, 130.400, 0.000, 0.000, -3.100, 0.0, , , , , , 96, , , 31, 31, 31
38.5226822, -120.3275305, 6.700, 14:06:50.087, 12, 0.00, 0.14, 98, 1.100, -1.200, 129.400, 840, 100, 100, 26, 23725, -23336, 5288, 5396, 16, 14, 1529442410.087, 4, 0, 1024, 1024, 1024, 1024, 0, 6, 3954, 3937, 3914, 3931, 3969, 3956, 0, 1, 7800, -89.900, 0.000, 130.400, 0.000, 0.000, -3.000, 0.0, , , , , , 96, , , 31, 31, 31
38.5226823, -120.3275303, 7.100, 14:06:50.187, 12, 0.00, 0.14, 98, 1.400, -1.200, 129.500, 840, 100, 100, 26, 23725, -23336, 5288, 5396, 16, 14, 1529442410.187, 10, 0, 1024, 1024, 1024, 1024, 0, 6, 3954, 3937, 3914, 3931, 3969, 3956, 0, 1, 7900, -89.900, 0.000, 130.400, 0.000, 0.000, -3.100, 0.0, , , , , , 96, , , 31, 31, 31
38.5226824, -120.3275299, 7.400, 14:06:50.287, 12, 0.10, 0.12, 98, 1.800, -0.800, 129.700, 840, 100, 100, 26, 23725, -23336, 5288, 5396, 16, 14, 1529442410.287, 8, 0, 1024, 1024, 1024, 1024, 0, 6, 3954, 3937, 3914, 3931, 3969, 3956, 0, 1, 8000, -89.900, 0.000, 130.400, 0.000, 0.100, -3.100, 0.0, , , , , , 96, , , 31, 31, 31
38.5226824, -120.3275296, 7.800, 14:06:50.387, 12, 0.10, 0.12, 98, 2.300, -0.200, 129.800, 840, 100, 100, 26, 23725, -23336, 5288, 5396, 16, 14, 1529442410.387, 12, 0, 1024, 1024, 1024, 1024, 0, 6, 3954, 3937, 3914, 3931, 3969, 3956, 0, 1, 8100, -89.900, 0.000, 130.400, 0.000, 0.100, -3.000, 0.0, , , , , , 96, , , 31, 31, 31
38.5226824, -120.3275296, 7.800, 14:06:50.487, 12, 0.10, 0.12, 98, 2.300, -0.200, 129.800, 840, 100, 100, 26, 23725, -23336, 5288, 5396, 16, 14, 1529442410.487, 112, 0, 1024, 1024, 1024, 1024, 0, 6, 3954, 3937, 3914, 3931, 3969, 3956, 0, 1, 8200, -89.900, 0.000, 130.400, 0.000, 0.100, -3.000, 0.0, , , , , , 96, , , 31, 31, 31
38.5226825, -120.3275293, 8.400, 14:06:50.587, 12, 0.00, 0.13, 98, 2.300, 0.400, 129.900, 840, 100, 100, 26, 23836, -20025, 5288, 5396, 16, 14, 1529442410.587, 8, 0, 1024, 1024, 1024, 1024, 0, 6, 3980, 3965, 3953, 3974, 4007, 3993, 0, 1, 8300, -89.900, 0.000, 130.400, 0.000, 0.000, -3.000, 0.0, , , , , , 96, , , 31, 31, 31
38.5226825, -120.3275293, 8.400, 14:06:50.687, 12, 0.00, 0.13, 98, 2.300, 0.400, 129.900, 840, 100, 100, 26, 23836, -20025, 5288, 5396, 16, 14, 1529442410.687, 108, 0, 1024, 1024, 1024, 1024, 0, 6, 3980, 3965, 3953, 3974, 4007, 3993, 0, 1, 8400, -89.900, 0.000, 130.400, 0.000, 0.000, -3.000, 0.0, , , , , , 96, , , 31, 31, 31
38.5226825, -120.3275292, 8.700, 14:06:50.787, 12, 0.00, 0.13, 98, 2.100, 0.300, 129.800, 840, 100, 100, 26, 23836, -20025, 5288, 5396, 16, 14, 1529442410.787, 68, 0, 1024, 1024, 1024, 1024, 0, 6, 3980, 3965, 3953, 3974, 4007, 3993, 0, 1, 8500, -89.900, 0.000, 130.400, 0.000, 0.000, -2.900, 0.0, , , , , , 96, , , 31, 31, 31
38.5226824, -120.3275291, 9.100, 14:06:50.887, 12, 0.00, 0.13, 98, 1.900, 0.200, 129.700, 840, 100, 100, 26, 23836, -20025, 5288, 5396, 16, 14, 1529442410.887, 71, 0, 1024, 1024, 1024, 1024, 0, 6, 3980, 3965, 3953, 3974, 4007, 3993, 0, 1, 8600, -89.900, 0.000, 130.400, 0.000, 0.000, -2.900, 0.0, , , , , , 96, , , 31, 31, 31
38.5226824, -120.3275290, 9.400, 14:06:50.987, 12, 0.00, 0.12, 98, 1.500, 0.200, 129.500, 840, 100, 100, 26, 23836, -20025, 5288, 5396, 16, 14, 1529442410.987, 75, 0, 1024, 1024, 1024, 1024, 0, 6, 3980, 3965, 3953, 3974, 4007, 3993, 0, 1, 8700, -89.900, 0.000, 130.400, 0.000, 0.000, -2.900, 0.0, , , , , , 96, , , 31, 31, 31
38.5226824, -120.3275289, 9.700, 14:06:51.087, 12, 0.00, 0.13, 98, 1.100, 0.100, 129.300, 840, 100, 100, 26, 23836, -20025, 5288, 5396, 16, 14, 1529442411.087, 70, 0, 1024, 1024, 1024, 1024, 0, 6, 3980, 3965, 3953, 3974, 4007, 3993, 0, 1, 8800, -89.900, 0.000, 130.400, 0.000, 0.000, -2.900, 0.0, , , , , , 96, , , 31, 31, 31
38.5226824, -120.3275288, 10.000, 14:06:51.187, 12, 0.00, 0.13, 98, 1.000, 0.000, 129.300, 840, 100, 100, 26, 23836, -20025, 5288, 5396, 16, 14, 1529442411.187, 71, 0, 1024, 1024, 1024, 1024, 0, 6, 3980, 3965, 3953, 3974, 4007, 3993, 0, 1, 8900, -89.900, 0.000, 130.400, 0.000, 0.000, -2.900, 0.0, , , , , , 96, , , 31, 31, 31
38.5226825, -120.3275286, 10.300, 14:06:51.287, 13, 0.00, 0.14, 98, 1.100, 0.000, 129.200, 840, 100, 100, 26, 23836, -20025, 5288, 5396, 16, 14, 1529442411.287, 75, 0, 1024, 1024, 1024, 1024, 0, 6, 3980, 3965, 3953, 3974, 4007, 3993, 0, 1, 9000, -89.900, 0.000, 130.400, 0.000, 0.000, -2.900, 0.0, , , , , , 96, , , 31, 31, 31
38.5226825, -120.3275284, 10.600, 14:06:51.387, 13, 0.00, 0.15, 98, 1.300, 0.000, 129.200, 840, 100, 100, 26, 23836, -20025, 5288, 5396, 16, 14, 1529442411.387, 53, 0, 1024, 1024, 1024, 1024, 0, 6, 3980, 3965, 3953, 3974, 4007, 3993, 0, 1, 9100, -89.900, 0.000, 130.400, 0.000, 0.000, -2.800, 0.0, , , , , , 96, , , 31, 31, 31
38.5226826, -120.3275283, 10.900, 14:06:51.487, 12, 0.00, 0.17, 98, 1.500, 0.000, 129.300, 840, 100, 100, 26, 23836, -20025, 5288, 5396, 16, 14, 1529442411.487, 44, 0, 1024, 1024, 1024, 1024, 0, 6, 3980, 3965, 3953, 3974, 4007, 3993, 0, 1, 9200, -89.900, 0.000, 130.400, 0.000, 0.000, -2.800, 0.0, , , , , , 96, , , 31, 31, 31
38.5226826, -120.3275281, 11.200, 14:06:51.587, 12, 0.00, 0.18, 98, 1.900, 0.100, 129.300, 840, 100, 100, 26, 23992, -17890, 5288, 5396, 16, 14, 1529442411.587, 47, 0, 1024, 1024, 1024, 1024, 0, 6, 3980, 3965, 3953, 3974, 4007, 3993, 0, 1, 9300, -89.900, 0.000, 130.400, 0.000, 0.000, -2.800, 0.0, , , , , , 96, , , 31, 31, 31
38.5226827, -120.3275280, 11.500, 14:06:51.687, 13, 0.00, 0.20, 98, 2.100, 0.000, 129.400, 840, 100, 100, 26, 23992, -17890, 5288, 5396, 16, 14, 1529442411.687, 53, 0, 1024, 1024, 1024, 1024, 0, 6, 3980, 3965, 3953, 3974, 4007, 3993, 0, 1, 9400, -89.900, 0.000, 130.400, 0.000, 0.000, -2.800, 0.0, , , , , , 96, , , 31, 31, 31
38.5226828, -120.3275279, 12.200, 14:06:51.787, 13, 0.00, 0.21, 98, 1.900, 0.000, 129.600, 840, 100, 100, 26, 23992, -17890, 5288, 5396, 16, 14, 1529442411.787, 32, 0, 1024, 1024, 1024, 1024, 0, 6, 3980, 3965, 3953, 3974, 4007, 3993, 0, 1, 9500, -89.900, 0.000, 130.400, 0.000, 0.000, -2.800, 0.0, , , , , , 96, , , 31, 31, 31
38.5226828, -120.3275278, 12.500, 14:06:51.887, 13, 0.00, 0.21, 98, 1.800, 0.000, 129.600, 840, 100, 100, 26, 23992, -17890, 5288, 5396, 16, 14, 1529442411.887, 39, 0, 1024, 1024, 1024, 1024, 0, 6, 3980, 3965, 3953, 3974, 4007, 3993, 0, 1, 9600, -89.900, 0.000, 130.400, 0.000, 0.000, -2.800, 0.0, , , , , , 96, , , 31, 31, 31
38.5226829, -120.3275278, 12.800, 14:06:51.987, 12, 0.00, 0.22, 98, 1.900, 0.000, 129.600, 840, 100, 100, 26, 23992, -17890, 5288, 5396, 16, 14, 1529442411.987, 47, 0, 1024, 1024, 1024, 1024, 0, 6, 3980, 3965, 3953, 3974, 4007, 3993, 0, 1, 9700, -89.900, 0.000, 130.400, 0.000, 0.000, -2.800, 0.0, , , , , , 96, , , 31, 31, 31
38.5226829, -120.3275278, 13.100, 14:06:52.087, 12, 0.00, 0.22, 98, 1.800, -0.100, 129.600, 840, 100, 100, 26, 23992, -17890, 5288, 5396, 16, 14, 1529442412.087, 38, 0, 1024, 1024, 1024, 1024, 0, 6, 4003, 3992, 3964, 3985, 4021, 4002, 0, 1, 9800, -89.900, 0.000, 130.400, 0.000, 0.000, -2.800, 0.0, , , , , , 96, , , 31, 31, 31
38.5226829, -120.3275278, 13.400, 14:06:52.187, 13, 0.00, 0.22, 98, 1.600, -0.100, 129.600, 840, 100, 100, 26, 23992, -17890, 5288, 5396, 16, 14, 1529442412.187, 32, 0, 1024, 1024, 1024, 1024, 0, 6, 4003, 3992, 3964, 3985, 4021, 4002, 0, 1, 9900, -89.900, 0.000, 130.400, 0.000, 0.000, -2.800, 0.0, , , , , , 96, , , 31, 31, 31
38.5226828, -120.3275279, 13.700, 14:06:52.287, 13, 0.00, 0.21, 98, 1.300, -0.100, 129.600, 840, 100, 100, 26, 23992, -17890, 5288, 5396, 16, 14, 1529442412.287, 36, 0, 1024, 1024, 1024, 1024, 0, 6, 4003, 3992, 3964, 3985, 4021, 4002, 0, 1, 10000, -89.900, 0.000, 130.400, 0.000, 0.000, -2.800, 0.0, , , , , , 96, , , 31, 31, 31
38.5226828, -120.3275279, 14.000, 14:06:52.387, 12, 0.00, 0.20, 98, 1.100, -0.100, 129.600, 840, 100, 100, 26, 23992, -17890, 5288, 5396, 16, 14, 1529442412.387, 28, 0, 1024, 1024, 1024, 1024, 0, 6, 4003, 3992, 3964, 3985, 4021, 4002, 0, 1, 10100, -89.900, 0.000, 130.400, 0.000, 0.000, -2.800, 0.0, , , , , , 96, , , 31, 31, 31
38.5226827, -120.3275280, 14.300, 14:06:52.487, 12, 0.00, 0.20, 98, 0.900, 0.000, 129.500, 840, 100, 100, 26, 23992, -17890, 5288, 5396, 16, 14, 1529442412.487, 20, 0, 1024, 1024, 1024, 1024, 0, 6, 4003, 3992, 3964, 3985, 4021, 4002, 0, 1, 10200, -89.900, 0.000, 130.400, 0.000, 0.000, -2.800, 0.0, , , , , , 96, , , 31, 31, 31
38.5226827, -120.3275280, 14.600, 14:06:52.587, 13, 0.10, 0.19, 98, 0.700, 0.000, 129.500, 840, 100, 100, 26, 23992, -17890, 5288, 5396, 16, 14, 1529442412.587, 2, 0, 1024, 1024, 1024, 1024, 0, 6, 4003, 3992, 3964, 3985, 4021, 4002, 0, 1, 10300, -89.900, 0.000, 130.400, -0.100, 0.000, -2.800, 0.0, , , , , , 96, , , 31, 31, 31
38.5226827, -120.3275280, 14.600, 14:06:52.687, 13, 0.10, 0.19, 98, 0.700, 0.000, 129.500, 840, 100, 100, 26, 23992, -17890, 5288, 5396, 16, 14, 1529442412.687, 101, 0, 1024, 1024, 1024, 1024, 0, 6, 4003, 3992, 3964, 3985, 4021, 4002, 0, 1, 10400, -89.900, 0.000, 130.400, -0.100, 0.000, -2.800, 0.0, , , , , , 96, , , 31, 31, 31
38.5226826, -120.3275279, 14.900, 14:06:52.787, 13, 0.00, 0.19, 98, 0.600, 0.000, 129.500, 840, 100, 100, 26, 23992, -17890, 5288, 5396, 16, 14, 1529442412.787, 76, 0, 1024, 1024, 1024, 1024, 0, 6, 4003, 3992, 3964, 3985, 4021, 4002, 0, 1, 10500, -89.900, 0.000, 130.400, 0.000, 0.000, -2.800, 0.0, , , , , , 96, , , 31, 31, 31
38.5226826, -120.3275280, 15.500, 14:06:52.889, 13, 0.00, 0.18, 98, 0.800, 0.200, 129.400, 840, 100, 100, 26, 23992, -17890, 5288, 5396, 16, 14, 1529442412.890, 4, 0, 1024, 1024, 1024, 1024, 0, 6, 4003, 3992, 3964, 3985, 4021, 4002, 0, 1, 10603, -89.900, 0.000, 130.400, 0.000, 0.000, -2.800, 0.0, , , , , , 96, , , 31, 31, 31
38.5226826, -120.3275280, 15.500, 14:06:52.987, 13, 0.00, 0.18, 98, 0.800, 0.200, 129.400, 840, 100, 100, 26, 23992, -17890, 5288, 5396, 16, 14, 1529442412.987, 101, 0, 1024, 1024, 1024, 1024, 0, 6, 4003, 3992, 3964, 3985, 4021, 4002, 0, 1, 10700, -89.900, 0.000, 130.400, 0.000, 0.000, -2.800, 0.0, , , , , , 96, , , 31, 31, 31
38.5226826, -120.3275281, 15.800, 14:06:53.088, 13, 0.00, 0.18, 98, 0.900, 0.000, 129.500, 840, 100, 100, 26, 23950, -18047, 5288, 5396, 16, 14, 1529442413.088, 70, 0, 1024, 1024, 1024, 1024, 0, 6, 3990, 3982, 3964, 3983, 4016, 4003, 0, 1, 10801, -89.900, 0.000, 130.400, 0.000, 0.000, -2.800, 0.0, , , , , , 96, , , 31, 31, 31
38.5226825, -120.3275282, 16.100, 14:06:53.188, 13, 0.00, 0.17, 98, 1.000, -0.100, 129.500, 840, 100, 100, 26, 23950, -18047, 5288, 5396, 16, 14, 1529442413.188, 84, 0, 1024, 1024, 1024, 1024, 0, 6, 3990, 3982, 3964, 3983, 4016, 4003, 0, 1, 10901, -89.900, 0.000, 130.400, 0.000, 0.000, -2.800, 0.0, , , , , , 96, , , 31, 31, 31
38.5226825, -120.3275282, 16.400, 14:06:53.288, 13, 0.00, 0.16, 98, 1.000, -0.200, 129.500, 840, 100, 100, 26, 23950, -18047, 5288, 5396, 16, 14, 1529442413.288, 91, 0, 1024, 1024, 1024, 1024, 0, 6, 3990, 3982, 3964, 3983, 4016, 4003, 0, 1, 11001, -89.900, 0.000, 130.400, 0.000, 0.000, -2.800, 0.0, , , , , , 96, , , 31, 31, 31
38.5226824, -120.3275283, 16.700, 14:06:53.388, 13, 0.10, 0.15, 98, 0.900, -0.100, 129.500, 840, 100, 100, 26, 23950, -18047, 5288, 5396, 16, 14, 1529442413.388, 57, 0, 1024, 1024, 1024, 1024, 0, 6, 3990, 3982, 3964, 3983, 4016, 4003, 0, 1, 11101, -89.900, 0.000, 130.400, -0.100, 0.000, -2.800, 0.0, , , , , , 96, , , 31, 31, 31
38.5226823, -120.3275284, 17.000, 14:06:53.488, 13, 0.10, 0.13, 98, 0.500, 0.000, 129.600, 840, 100, 100, 26, 23950, -18047, 5288, 5396, 16, 14, 1529442413.488, 65, 0, 1024, 1024, 1024, 1024, 0, 6, 3990, 3982, 3964, 3983, 4016, 4003, 0, 1, 11201, -89.900, 0.000, 130.400, -0.100, 0.000, -2.800, 0.0, , , , , , 96, , , 31, 31, 31
38.5226822, -120.3275285, 17.300, 14:06:53.588, 13, 0.10, 0.12, 98, 0.200, 0.000, 129.600, 840, 100, 100, 26, 23950, -18047, 5288, 5396, 16, 14, 1529442413.588, 71, 0, 1024, 1024, 1024, 1024, 0, 6, 3990, 3982, 3964, 3983, 4016, 4003, 0, 1, 11301, -89.900, 0.000, 130.400, -0.100, 0.000, -2.800, 0.0, , , , , , 96, , , 31, 31, 31
38.5226822, -120.3275286, 17.600, 14:06:53.688, 13, 0.00, 0.11, 98, 0.100, 0.100, 129.600, 840, 100, 99, 26, 23950, -18047, 5288, 5396, 16, 14, 1529442413.688, 64, 0, 1024, 1024, 1024, 1024, 0, 6, 3990, 3982, 3964, 3983, 4016, 4003, 0, 1, 11401, -89.900, 0.000, 130.400, 0.000, 0.000, -2.700, 0.0, , , , , , 96, , , 31, 31, 31
38.5226821, -120.3275287, 17.900, 14:06:53.788, 13, 0.00, 0.10, 98, 0.000, 0.100, 129.500, 840, 100, 99, 26, 23950, -18047, 5288, 5396, 16, 14, 1529442413.788, 22, 0, 1024, 1024, 1024, 1024, 0, 6, 3990, 3982, 3964, 3983, 4016, 4003, 0, 1, 11501, -89.900, 0.000, 130.400, 0.000, 0.000, -2.800, 0.0, , , , , , 96, , , 31, 31, 31
38.5226820, -120.3275289, 18.500, 14:06:53.888, 14, 0.00, 0.09, 98, 0.100, -0.100, 129.500, 840, 100, 99, 26, 23950, -18047, 5288, 5396, 16, 14, 1529442413.888, 55, 0, 1024, 1024, 1024, 1024, 0, 6, 3990, 3982, 3964, 3983, 4016, 4003, 0, 1, 11601, -89.900, 0.000, 130.400, 0.000, 0.000, -2.800, 0.0, , , , , , 96, , , 31, 31, 31
38.5226820, -120.3275289, 18.800, 14:06:53.988, 13, 0.00, 0.08, 98, 0.300, -0.200, 129.500, 840, 100, 99, 26, 23950, -18047, 5288, 5396, 16, 14, 1529442413.988, 46, 0, 1024, 1024, 1024, 1024, 0, 6, 3990, 3982, 3964, 3983, 4016, 4003, 0, 1, 11701, -89.900, 0.000, 130.400, 0.000, 0.000, -2.800, 0.0, , , , , , 96, , , 31, 31, 31
38.5226819, -120.3275290, 19.100, 14:06:54.088, 13, 0.00, 0.07, 98, 0.400, -0.200, 129.500, 840, 100, 99, 26, 23941, -17897, 5288, 5396, 16, 14, 1529442414.088, 38, 0, 1024, 1024, 1024, 1024, 0, 6, 3986, 3977, 3960, 3980, 4012, 3998, 0, 1, 11801, -89.900, 0.000, 130.400, 0.000, 0.000, -2.800, 0.0, , , , , , 96, , , 31, 31, 31
38.5226819, -120.3275291, 19.400, 14:06:54.188, 14, 0.00, 0.06, 98, 0.500, -0.100, 129.600, 840, 100, 99, 26, 23941, -17897, 5288, 5396, 16, 14, 1529442414.188, 30, 0, 1024, 1024, 1024, 1024, 0, 6, 3986, 3977, 3960, 3980, 4012, 3998, 0, 1, 11901, -89.900, 0.000, 130.400, 0.000, 0.000, -2.800, 0.0, , , , , , 96, , , 31, 31, 31
38.5226818, -120.3275293, 19.700, 14:06:54.288, 14, 0.00, 0.06, 98, 0.400, -0.100, 129.600, 840, 100, 99, 26, 23941, -17897, 5288, 5396, 16, 14, 1529442414.288, 34, 0, 1024, 1024, 1024, 1024, 0, 6, 3986, 3977, 3960, 3980, 4012, 3998, 0, 1, 12001, -89.900, 0.000, 130.400, 0.000, 0.000, -2.800, 0.0, , , , , , 96, , , 31, 31, 31
38.5226818, -120.3275294, 20.000, 14:06:54.388, 15, 0.00, 0.05, 98, 0.200, -0.200, 129.600, 840, 100, 99, 26, 23941, -17897, 5288, 5396, 16, 14, 1529442414.388, 14, 0, 1024, 1024, 1024, 1024, 0, 6, 3986, 3977, 3960, 3980, 4012, 3998, 0, 1, 12101, -89.900, 0.000, 130.400, 0.000, 0.000, -2.800, 0.0, , , , , , 96, , , 31, 31, 31
38.5226817, -120.3275294, 20.300, 14:06:54.488, 15, 0.00, 0.04, 98, 0.000, -0.300, 129.600, 840, 100, 99, 26, 23941, -17897, 5288, 5396, 16, 14, 1529442414.488, 29, 0, 1024, 1024, 1024, 1024, 0, 6, 3986, 3977, 3960, 3980, 4012, 3998, 0, 1, 12201, -89.900, 0.000, 130.400, 0.000, 0.000, -2.800, 0.0, , , , , , 96, , , 31, 31, 31
38.5226817, -120.3275295, 20.700, 14:06:54.588, 15, 0.00, 0.04, 98, 0.000, -0.200, 129.700, 840, 100, 99, 26, 23941, -17897, 5288, 5396, 16, 14, 1529442414.588, 23, 0, 1024, 1024, 1024, 1024, 0, 6, 3986, 3977, 3960, 3980, 4012, 3998, 0, 1, 12301, -89.900, 0.000, 130.400, 0.000, 0.000, -2.800, 0.0, , , , , , 96, , , 31, 31, 31
38.5226817, -120.3275296, 21.000, 14:06:54.688, 15, 0.00, 0.05, 98, 0.000, -0.200, 129.600, 840, 100, 98, 26, 23941, -17897, 5288, 5396, 16, 14, 1529442414.688, 22, 0, 1024, 1024, 1024, 1024, 0, 6, 3986, 3977, 3960, 3980, 4012, 3998, 0, 1, 12401, -89.900, 0.000, 130.400, 0.000, 0.000, -2.800, 0.0, , , , , , 96, , , 31, 31, 31
38.5226817, -120.3275297, 21.200, 14:06:54.801, 15, 0.00, 0.05, 98, 0.200, -0.200, 129.600, 840, 100, 98, 26, 23941, -17897, 5288, 5396, 16, 14, 1529442414.801, 3, 0, 1024, 1024, 1024, 1024, 0, 6, 3986, 3977, 3960, 3980, 4012, 3998, 0, 1, 12514, -89.900, 0.000, 130.400, 0.000, 0.000, -2.700, 0.0, , , , , , 96, , , 31, 31, 31
38.5226816, -120.3275297, 21.500, 14:06:54.891, 15, 0.00, 0.04, 98, 0.200, -0.100, 129.500, 840, 100, 98, 26, 23941, -17897, 5288, 5396, 16, 14, 1529442414.891, 3, 0, 1024, 1024, 1024, 1024, 0, 6, 3986, 3977, 3960, 3980, 4012, 3998, 0, 1, 12604, -89.900, 0.000, 130.400, 0.000, 0.000, -2.700, 0.0, , , , , , 96, , , 31, 31, 31
38.5226816, -120.3275297, 21.500, 14:06:54.988, 15, 0.00, 0.04, 98, 0.200, -0.100, 129.500, 840, 100, 98, 26, 23941, -17897, 5288, 5396, 16, 14, 1529442414.988, 99, 0, 1024, 1024, 1024, 1024, 0, 6, 3986, 3977, 3960, 3980, 4012, 3998, 0, 1, 12701, -89.900, 0.000, 130.400, 0.000, 0.000, -2.700, 0.0, , , , , , 96, , , 31, 31, 31
38.5226815, -120.3275298, 21.800, 14:06:55.088, 15, 0.00, 0.04, 98, 0.400, 0.000, 129.500, 840, 100, 98, 26, 23890, -18351, 5288, 5396, 16, 14, 1529442415.089, 99, 0, 1024, 1024, 1024, 1024, 0, 6, 3987, 3976, 3949, 3980, 4013, 3990, 0, 1, 12802, -89.900, 0.000, 130.400, 0.000, 0.000, -2.800, 0.0, , , , , , 96, , , 31, 31, 31
38.5226814, -120.3275299, 22.400, 14:06:55.190, 15, 0.00, 0.04, 98, 0.100, 0.000, 129.300, 840, 100, 94, 26, 23890, -18351, 5288, 5396, 16, 14, 1529442415.191, 2, 0, 1024, 1024, 1024, 1024, 0, 6, 3987, 3976, 3949, 3980, 4013, 3990, 0, 1, 12904, -89.900, 0.000, 130.400, 0.000, 0.000, -2.700, 0.0, , , , , , 96, , , 31, 31, 31
38.5226814, -120.3275299, 22.400, 14:06:55.288, 15, 0.00, 0.04, 98, 0.100, 0.000, 129.300, 840, 100, 94, 26, 23890, -18351, 5288, 5396, 16, 14, 1529442415.288, 99, 0, 1024, 1024, 1024, 1024, 0, 6, 3987, 3976, 3949, 3980, 4013, 3990, 0, 1, 13001, -89.900, 0.000, 130.400, 0.000, 0.000, -2.700, 0.0, , , , , , 96, , , 31, 31, 31
38.5226814, -120.3275299, 22.700, 14:06:55.388, 15, 0.00, 0.05, 98, 0.100, 0.200, 129.300, 840, 100, 94, 26, 23890, -18351, 5288, 5396, 16, 14, 1529442415.388, 90, 0, 1024, 1024, 1024, 1024, 0, 6, 3987, 3976, 3949, 3980, 4013, 3990, 0, 1, 13101, -89.900, 0.000, 130.400, 0.000, 0.000, -2.700, 0.0, , , , , , 96, , , 31, 31, 31
38.5226814, -120.3275299, 23.000, 14:06:55.488, 15, 0.00, 0.05, 98, 0.100, 0.300, 129.300, 840, 100, 94, 26, 23890, -18351, 5288, 5396, 16, 14, 1529442415.488, 82, 0, 1024, 1024, 1024, 1024, 0, 6, 3987, 3976, 3949, 3980, 4013, 3990, 0, 1, 13201, -89.900, 0.000, 130.400, 0.000, 0.000, -2.700, 0.0, , , , , , 96, , , 31, 31, 31
38.5226813, -120.3275300, 23.300, 14:06:55.588, 15, 0.00, 0.05, 98, 0.100, 0.400, 129.300, 840, 100, 94, 26, 23890, -18351, 5288, 5396, 16, 14, 1529442415.588, 84, 0, 1024, 1024, 1024, 1024, 0, 6, 3987, 3976, 3949, 3980, 4013, 3990, 0, 1, 13301, -89.900, 0.000, 130.400, 0.000, 0.000, -2.800, 0.0, , , , , , 96, , , 31, 31, 31
38.5226813, -120.3275300, 23.600, 14:06:55.688, 15, 0.00, 0.05, 98, 0.200, 0.300, 129.400, 840, 100, 93, 26, 23890, -18351, 5288, 5396, 16, 14, 1529442415.688, 74, 0, 1024, 1024, 1024, 1024, 0, 6, 3987, 3976, 3949, 3980, 4013, 3990, 0, 1, 13401, -89.900, 0.000, 130.400, 0.000, 0.000, -2.800, 0.0, , , , , , 96, , , 31, 31, 31
38.5226813, -120.3275300, 23.900, 14:06:55.788, 15, 0.00, 0.06, 98, 0.300, 0.100, 129.500, 840, 100, 93, 26, 23890, -18351, 5288, 5396, 16, 14, 1529442415.788, 55, 0, 1024, 1024, 1024, 1024, 0, 6, 3987, 3976, 3949, 3980, 4013, 3990, 0, 1, 13501, -89.900, 0.000, 130.400, 0.000, 0.000, -2.900, 0.0, , , , , , 96, , , 31, 31, 31
38.5226813, -120.3275301, 24.200, 14:06:55.888, 15, 0.00, 0.06, 98, 0.300, 0.000, 129.500, 840, 100, 93, 26, 23890, -18351, 5288, 5396, 16, 14, 1529442415.888, 64, 0, 1024, 1024, 1024, 1024, 0, 6, 3987, 3976, 3949, 3980, 4013, 3990, 0, 1, 13601, -90.000, 0.000, 130.400, 0.000, 0.000, -2.800, 0.0, , , , , , 96, , , 31, 31, 31
38.5226813, -120.3275301, 24.500, 14:06:55.988, 15, 0.00, 0.07, 98, 0.200, -0.200, 129.500, 840, 100, 93, 26, 23890, -18351, 5288, 5396, 16, 14, 1529442415.988, 54, 0, 1024, 1024, 1024, 1024, 0, 6, 3987, 3976, 3949, 3980, 4013, 3990, 0, 1, 13701, -90.000, 0.000, 130.400, 0.000, 0.000, -2.800, 0.0, , , , , , 96, , , 31, 31, 31
38.5226813, -120.3275303, 25.100, 14:06:56.088, 15, 0.00, 0.08, 98, 0.400, -0.500, 129.600, 840, 100, 93, 26, 23875, -17725, 5288, 5396, 16, 14, 1529442416.088, 54, 0, 1024, 1024, 1024, 1024, 0, 6, 3978, 3970, 3955, 3970, 4006, 3986, 0, 1, 13801, -90.000, 0.000, 130.400, 0.000, 0.000, -2.800, 0.0, , , , , , 96, , , 31, 31, 31
38.5226813, -120.3275303, 25.100, 14:06:56.188, 15, 0.00, 0.08, 98, 0.400, -0.500, 129.600, 840, 100, 95, 26, 23875, -17725, 5288, 5396, 16, 14, 1529442416.188, 154, 0, 1024, 1024, 1024, 1024, 0, 6, 3978, 3970, 3955, 3970, 4006, 3986, 0, 1, 13901, -89.900, 0.000, 130.400, 0.000, 0.000, -2.800, 0.0, , , , , , 96, , , 31, 31, 31
38.5226814, -120.3275304, 25.700, 14:06:56.288, 15, 0.00, 0.09, 98, 0.700, -0.300, 129.700, 840, 100, 95, 26, 23875, -17725, 5288, 5396, 16, 14, 1529442416.288, 48, 0, 1024, 1024, 1024, 1024, 0, 6, 3978, 3970, 3955, 3970, 4006, 3986, 0, 1, 14001, -89.900, 0.000, 130.400, 0.000, 0.000, -2.800, 0.0, , , , , , 96, , , 31, 31, 31
38.5226814, -120.3275304, 25.700, 14:06:56.388, 15, 0.00, 0.09, 98, 0.700, -0.300, 129.700, 840, 100, 95, 26, 23875, -17725, 5288, 5396, 16, 14, 1529442416.388, 148, 0, 1024, 1024, 1024, 1024, 0, 6, 3978, 3970, 3955, 3970, 4006, 3986, 0, 1, 14101, -89.900, 0.000, 130.400, 0.000, 0.000, -2.800, 0.0, , , , , , 96, , , 31, 31, 31
38.5226814, -120.3275304, 26.300, 14:06:56.488, 15, 0.00, 0.09, 98, 0.600, -0.700, 129.700, 840, 100, 95, 26, 23875, -17725, 5288, 5396, 16, 14, 1529442416.488, 45, 0, 1024, 1024, 1024, 1024, 0, 6, 3978, 3970, 3955, 3970, 4006, 3986, 0, 1, 14201, -90.000, 0.000, 130.400, 0.000, 0.000, -2.700, 0.0, , , , , , 96, , , 31, 31, 31
38.5226814, -120.3275304, 26.600, 14:06:56.588, 15, 0.00, 0.09, 98, 0.500, -0.600, 129.600, 840, 100, 95, 26, 23875, -17725, 5288, 5396, 16, 14, 1529442416.588, 37, 0, 1024, 1024, 1024, 1024, 0, 6, 3978, 3970, 3955, 3970, 4006, 3986, 0, 1, 14301, -89.900, 0.000, 130.400, 0.000, 0.000, -2.800, 0.0, , , , , , 96, , , 31, 31, 31
38.5226815, -120.3275304, 26.900, 14:06:56.688, 15, 0.00, 0.09, 98, 0.700, -0.500, 129.500, 840, 100, 99, 26, 23875, -17725, 5288, 5396, 16, 14, 1529442416.688, 38, 0, 1024, 1024, 1024, 1024, 0, 6, 3978, 3970, 3955, 3970, 4006, 3986, 0, 1, 14401, -89.900, 0.000, 130.400, 0.000, 0.000, -2.800, 0.0, , , , , , 96, , , 31, 31, 31
38.5226815, -120.3275304, 27.200, 14:06:56.788, 15, 0.00, 0.09, 98, 0.800, -0.400, 129.500, 840, 100, 99, 26, 23875, -17725, 5288, 5396, 16, 14, 1529442416.788, 39, 0, 1024, 1024, 1024, 1024, 0, 6, 3978, 3970, 3955, 3970, 4006, 3986, 0, 1, 14501, -89.900, 0.000, 130.400, 0.000, 0.000, -2.700, 0.0, , , , , , 96, , , 31, 31, 31
38.5226815, -120.3275304, 27.500, 14:06:56.888, 15, 0.00, 0.10, 98, 0.700, -0.400, 129.500, 840, 100, 99, 26, 23875, -17725, 5288, 5396, 16, 14, 1529442416.888, 7, 0, 1024, 1024, 1024, 1024, 0, 6, 3978, 3970, 3955, 3970, 4006, 3986, 0, 1, 14601, -89.900, 0.000, 130.400, 0.000, 0.000, -2.800, 0.0, , , , , , 96, , , 31, 31, 31
38.5226816, -120.3275305, 27.800, 14:06:56.988, 15, 0.00, 0.10, 98, 0.500, -0.600, 129.500, 840, 100, 99, 26, 23870, -17727, 5288, 5396, 16, 14, 1529442416.988, 10, 0, 1024, 1024, 1024, 1024, 0, 6, 3978, 3970, 3955, 3970, 4006, 3986, 0, 1, 14701, -89.900, 0.000, 130.400, 0.000, 0.000, -2.800, 0.0, , , , , , 96, , , 31, 31, 31
38.5226816, -120.3275305, 28.100, 14:06:57.088, 15, 0.00, 0.11, 98, 0.300, -0.800, 129.500, 840, 100, 97, 26, 23870, -17727, 5288, 5396, 16, 14, 1529442417.088, 13, 0, 1024, 1024, 1024, 1024, 0, 6, 3978, 3970, 3955, 3970, 4006, 3986, 0, 1, 14801, -90.000, 0.000, 130.400, 0.000, 0.000, -2.800, 0.0, , , , , , 96, , , 31, 31, 31
38.5226817, -120.3275306, 28.400, 14:06:57.188, 15, 0.00, 0.11, 98, 0.300, -1.000, 129.400, 840, 100, 97, 26, 23870, -17727, 5288, 5396, 16, 14, 1529442417.188, 4, 0, 1024, 1024, 1024, 1024, 0, 6, 3978, 3970, 3955, 3970, 4006, 3986, 0, 1, 14901, -90.000, 0.000, 130.400, 0.000, 0.000, -2.800, 0.0, , , , , , 96, , , 31, 31, 31
38.5226817, -120.3275306, 28.700, 14:06:57.288, 15, 0.00, 0.11, 98, 0.500, -1.300, 129.300, 840, 100, 97, 26, 23870, -17727, 5288, 5396, 16, 14, 1529442417.288, 18, 0, 1024, 1024, 1024, 1024, 0, 6, 3978, 3970, 3955, 3970, 4006, 3986, 0, 1, 15001, -90.000, 0.000, 130.400, 0.000, 0.000, -2.800, 0.0, , , , , , 96, , , 31, 31, 31
38.5226818, -120.3275306, 29.000, 14:06:57.388, 15, 0.00, 0.12, 98, 0.600, -1.400, 129.200, 840, 100, 97, 26, 23870, -17727, 5288, 5396, 16, 14, 1529442417.388, 5, 0, 1024, 1024, 1024, 1024, 0, 6, 3978, 3970, 3955, 3970, 4006, 3986, 0, 1, 15101, -90.000, 0.000, 130.400, 0.000, 0.000, -2.800, 0.0, , , , , , 96, , , 31, 31, 31
38.5226819, -120.3275306, 29.300, 14:06:57.486, 15, 0.00, 0.12, 98, 0.700, -1.500, 129.200, 840, 100, 97, 26, 23870, -17727, 5288, 5396, 16, 14, 1529442417.486, 5, 0, 1024, 1024, 1024, 1024, 0, 6, 3979, 3967, 3955, 3972, 4000, 3989, 0, 1, 15199, -90.000, 0.000, 130.400, 0.000, 0.000, -2.800, 0.0, , , , , , 96, , , 31, 31, 31
38.5226819, -120.3275306, 29.300, 14:06:57.588, 15, 0.00, 0.12, 98, 0.700, -1.500, 129.200, 840, 100, 97, 26, 23870, -17727, 5288, 5396, 16, 14, 1529442417.588, 106, 0, 1024, 1024, 1024, 1024, 0, 6, 3979, 3967, 3955, 3972, 4000, 3989, 0, 1, 15301, -90.000, 0.000, 130.400, 0.000, 0.000, -2.800, 0.0, , , , , , 96, , , 31, 31, 31
38.5226820, -120.3275306, 29.600, 14:06:57.688, 15, 0.00, 0.13, 98, 1.100, -1.500, 129.100, 840, 100, 96, 26, 23870, -17727, 5288, 5396, 16, 14, 1529442417.688, 85, 0, 1024, 1024, 1024, 1024, 0, 6, 3979, 3967, 3955, 3972, 4000, 3989, 0, 1, 15401, -90.000, 0.000, 130.400, 0.000, 0.000, -2.800, 0.0, , , , , , 96, , , 31, 31, 31
38.5226821, -120.3275306, 29.900, 14:06:57.788, 15, 0.00, 0.14, 98, 1.500, -1.700, 129.100, 840, 100, 96, 26, 23870, -17727, 5288, 5396, 16, 14, 1529442417.788, 77, 0, 1024, 1024, 1024, 1024, 0, 6, 3979, 3967, 3955, 3972, 4000, 3989, 0, 1, 15501, -90.000, 0.000, 130.400, 0.000, 0.000, -2.800, 0.0, , , , , , 96, , , 31, 31, 31
38.5226822, -120.3275306, 30.200, 14:06:57.888, 15, 0.00, 0.14, 98, 1.800, -1.800, 129.000, 840, 100, 96, 26, 23870, -17727, 5288, 5396, 16, 14, 1529442417.888, 71, 0, 1024, 1024, 1024, 1024, 0, 6, 3979, 3967, 3955, 3972, 4000, 3989, 0, 1, 15601, -90.000, 0.000, 130.400, 0.000, 0.000, -2.800, 0.0, , , , , , 96, , , 31, 31, 31
38.5226823, -120.3275306, 30.500, 14:06:57.988, 15, 0.00, 0.15, 98, 2.100, -1.900, 129.000, 840, 100, 96, 26, 23870, -17727, 5288, 5396, 16, 14, 1529442417.988, 85, 0, 1024, 1024, 1024, 1024, 0, 6, 3979, 3967, 3955, 3972, 4000, 3989, 0, 1, 15701, -90.000, 0.000, 130.400, 0.000, 0.000, -2.900, 0.0, , , , , , 96, , , 31, 31, 31
38.5226824, -120.3275305, 30.800, 14:06:58.086, 15, 0.00, 0.16, 98, 2.100, -2.200, 129.000, 840, 100, 96, 26, 23870, -17727, 5288, 5396, 16, 14, 1529442418.087, 88, 0, 1024, 1024, 1024, 1024, 0, 6, 3979, 3967, 3955, 3972, 4000, 3989, 0, 1, 15800, -90.000, 0.000, 130.400, 0.000, 0.000, -2.800, 0.0, , , , , , 96, , , 31, 31, 31
38.5226826, -120.3275305, 31.100, 14:06:58.188, 15, 0.00, 0.17, 98, 2.200, -2.600, 129.200, 840, 100, 96, 26, 23870, -17727, 5288, 5396, 16, 14, 1529442418.188, 82, 0, 1024, 1024, 1024, 1024, 0, 6, 3979, 3967, 3955, 3972, 4000, 3989, 0, 1, 15901, -90.000, 0.000, 130.400, 0.000, 0.000, -2.800, 0.0, , , , , , 96, , , 31, 31, 31
38.5226827, -120.3275305, 31.400, 14:06:58.288, 15, 0.00, 0.18, 98, 2.500, -2.700, 129.300, 840, 100, 96, 26, 23870, -17727, 5288, 5396, 16, 14, 1529442418.288, 74, 0, 1024, 1024, 1024, 1024, 0, 6, 3979, 3967, 3955, 3972, 4000, 3989, 0, 1, 16001, -89.900, 0.000, 130.400, 0.000, 0.000, -2.900, 0.0, , , , , , 96, , , 31, 31, 31
38.5226828, -120.3275305, 31.700, 14:06:58.388, 15, 0.00, 0.19, 98, 2.700, -2.500, 129.400, 840, 100, 96, 26, 23870, -17727, 5288, 5396, 16, 14, 1529442418.388, 59, 0, 1024, 1024, 1024, 1024, 0, 6, 3979, 3967, 3955, 3972, 4000, 3989, 0, 1, 16101, -89.900, 0.000, 130.400, 0.000, 0.000, -2.800, 0.0, , , , , , 96, , , 31, 31, 31
38.5226828, -120.3275305, 31.700, 14:06:58.488, 15, 0.00, 0.19, 98, 2.700, -2.500, 129.400, 840, 100, 96, 26, 23870, -17727, 5288, 5396, 16, 14, 1529442418.488, 159, 0, 1024, 1024, 1024, 1024, 0, 6, 3979, 3967, 3955, 3972, 4000, 3989, 0, 1, 16201, -89.900, 0.000, 130.400, 0.000, 0.000, -2.800, 0.0, , , , , , 96, , , 31, 31, 31
38.5226829, -120.3275304, 32.300, 14:06:58.588, 15, 0.00, 0.20, 98, 2.600, -2.400, 129.700, 840, 100, 96, 26, 23838, -18122, 5288, 5396, 16, 14, 1529442418.588, 63, 0, 1024, 1024, 1024, 1024, 0, 6, 3970, 3967, 3940, 3972, 4001, 3978, 0, 1, 16301, -89.900, 0.000, 130.400, 0.000, 0.000, -2.800, 0.0, , , , , , 96, , , 31, 31, 31
38.5226830, -120.3275304, 32.600, 14:06:58.688, 15, 0.00, 0.21, 98, 2.500, -2.200, 129.700, 840, 100, 97, 26, 23838, -18122, 5288, 5396, 16, 14, 1529442418.688, 58, 0, 1024, 1024, 1024, 1024, 0, 6, 3970, 3967, 3940, 3972, 4001, 3978, 0, 1, 16401, -89.900, 0.000, 130.400, 0.000, 0.000, -2.700, 0.0, , , , , , 96, , , 31, 31, 31
38.5226830, -120.3275303, 32.900, 14:06:58.788, 15, 0.00, 0.21, 98, 2.400, -2.000, 129.800, 840, 100, 97, 26, 23838, -18122, 5288, 5396, 16, 14, 1529442418.788, 58, 0, 1024, 1024, 1024, 1024, 0, 6, 3970, 3967, 3940, 3972, 4001, 3978, 0, 1, 16501, -89.900, 0.000, 130.400, 0.000, 0.000, -2.600, 0.0, , , , , , 96, , , 31, 31, 31
38.5226831, -120.3275302, 33.500, 14:06:58.888, 15, 0.00, 0.21, 98, 2.100, -1.500, 129.800, 840, 100, 97, 26, 23838, -18122, 5288, 5396, 16, 14, 1529442418.888, 30, 0, 1024, 1024, 1024, 1024, 0, 6, 3970, 3967, 3940, 3972, 4001, 3978, 0, 1, 16601, -89.900, 0.000, 130.400, 0.000, 0.000, -2.600, 0.0, , , , , , 96, , , 31, 31, 31
38.5226831, -120.3275301, 33.800, 14:06:58.988, 15, 0.00, 0.21, 98, 2.300, -1.500, 129.700, 840, 100, 97, 26, 23838, -18122, 5288, 5396, 16, 14, 1529442418.988, 43, 0, 1024, 1024, 1024, 1024, 0, 6, 3970, 3967, 3940, 3972, 4001, 3978, 0, 1, 16701, -89.900, 0.000, 130.400, 0.000, 0.000, -2.700, 0.0, , , , , , 96, , , 31, 31, 31
38.5226832, -120.3275301, 34.100, 14:06:59.087, 15, 0.00, 0.21, 98, 2.400, -1.500, 129.600, 840, 100, 97, 26, 23838, -18122, 5288, 5396, 16, 14, 1529442419.087, 23, 0, 1024, 1024, 1024, 1024, 0, 6, 3970, 3967, 3940, 3972, 4001, 3978, 0, 1, 16800, -89.900, 0.000, 130.400, 0.000, 0.000, -2.800, 0.0, , , , , , 96, , , 31, 31, 31
38.5226832, -120.3275300, 34.400, 14:06:59.187, 15, 0.00, 0.22, 98, 2.500, -1.600, 129.500, 840, 100, 96, 26, 23838, -18122, 5288, 5396, 16, 14, 1529442419.187, 25, 0, 1024, 1024, 1024, 1024, 0, 6, 3970, 3967, 3940, 3972, 4001, 3978, 0, 1, 16900, -89.900, 0.000, 130.400, 0.000, 0.000, -2.800, 0.0, , , , , , 96, , , 31, 31, 31
38.5226832, -120.3275300, 34.600, 14:06:59.287, 15, 0.00, 0.22, 98, 2.500, -1.700, 129.500, 840, 100, 96, 26, 23838, -18122, 5288, 5396, 16, 14, 1529442419.287, 26, 0, 1024, 1024, 1024, 1024, 0, 6, 3970, 3967, 3940, 3972, 4001, 3978, 0, 1, 17000, -89.900, 0.000, 130.400, 0.000, 0.000, -2.700, 0.0, , , , , , 96, , , 31, 31, 31
38.5226833, -120.3275300, 34.900, 14:06:59.387, 15, 0.00, 0.22, 98, 2.500, -1.800, 129.500, 840, 100, 96, 26, 23838, -18122, 5288, 5396, 16, 14, 1529442419.387, 19, 0, 1024, 1024, 1024, 1024, 0, 6, 3970, 3967, 3940, 3972, 4001, 3978, 0, 1, 17100, -89.900, 0.000, 130.400, 0.000, 0.000, -2.700, 0.0, , , , , , 96, , , 31, 31, 31
38.5226833, -120.3275300, 35.200, 14:06:59.487, 15, 0.00, 0.22, 98, 2.400, -1.800, 129.500, 840, 100, 96, 26, 23838, -18122, 5288, 5396, 16, 14, 1529442419.487, 24, 0, 1024, 1024, 1024, 1024, 0, 6, 3970, 3967, 3940, 3972, 4001, 3978, 0, 1, 17200, -89.900, 0.000, 130.400, 0.000, 0.000, -2.700, 0.0, , , , , , 96, , , 31, 31, 31
38.5226833, -120.3275299, 35.500, 14:06:59.587, 15, 0.00, 0.23, 98, 2.400, -1.800, 129.500, 840, 100, 96, 26, 23834, -18943, 5234, 5396, 16, 14, 1529442419.587, 14, 0, 1024, 1024, 1024, 1024, 0, 6, 3949, 3934, 3945, 3974, 4004, 3984, 0, 1, 17300, -89.900, 0.000, 130.400, 0.000, 0.000, -2.800, 0.0, , , , , , 96, , , 31, 31, 31
38.5226833, -120.3275300, 35.800, 14:06:59.687, 15, 0.00, 0.23, 98, 2.400, -1.800, 129.500, 840, 100, 96, 26, 23834, -18943, 5234, 5396, 16, 14, 1529442419.687, 19, 0, 1024, 1024, 1024, 1024, 0, 6, 3949, 3934, 3945, 3974, 4004, 3984, 0, 1, 17400, -89.900, 0.000, 130.400, 0.000, 0.000, -2.800, 0.0, , , , , , 96, , , 31, 31, 31
38.5226833, -120.3275300, 35.800, 14:06:59.787, 15, 0.00, 0.23, 98, 2.400, -1.800, 129.500, 840, 100, 96, 26, 23834, -18943, 5234, 5396, 16, 14, 1529442419.787, 119, 0, 1024, 1024, 1024, 1024, 0, 6, 3949, 3934, 3945, 3974, 4004, 3984, 0, 1, 17500, -89.900, 0.000, 130.400, 0.000, 0.000, -2.800, 0.0, , , , , , 96, , , 31, 31, 31
38.5226833, -120.3275300, 36.100, 14:06:59.887, 15, 0.00, 0.23, 98, 2.100, -1.800, 129.500, 840, 100, 96, 26, 23834, -18943, 5234, 5396, 16, 14, 1529442419.887, 90, 0, 1024, 1024, 1024, 1024, 0, 6, 3949, 3934, 3945, 3974, 4004, 3984, 0, 1, 17600, -89.900, 0.000, 130.400, 0.000, 0.000, -2.700, 0.0, , , , , , 96, , , 31, 31, 31
38.5226833, -120.3275300, 36.300, 14:06:59.987, 15, 0.00, 0.22, 98, 1.700, -1.700, 129.500, 840, 100, 96, 26, 23834, -18943, 5234, 5396, 16, 14, 1529442419.987, 98, 0, 1024, 1024, 1024, 1024, 0, 6, 3949, 3934, 3945, 3974, 4004, 3984, 0, 1, 17700, -89.900, 0.000, 130.400, 0.000, 0.000, -2.800, 0.0, , , , , , 96, , , 31, 31, 31
38.5226833, -120.3275301, 36.600, 14:07:00.087, 15, 0.00, 0.22, 98, 1.500, -1.800, 129.500, 840, 100, 96, 26, 23834, -18943, 5234, 5396, 16, 14, 1529442420.087, 91, 0, 1024, 1024, 1024, 1024, 0, 6, 3949, 3934, 3945, 3974, 4004, 3984, 0, 1, 17800, -89.900, 0.000, 130.400, 0.000, 0.000, -2.800, 0.0, , , , , , 96, , , 31, 31, 31
38.5226832, -120.3275301, 36.900, 14:07:00.187, 15, 0.00, 0.22, 98, 1.400, -2.000, 129.500, 840, 100, 96, 26, 23834, -18943, 5234, 5396, 16, 14, 1529442420.187, 95, 0, 1024, 1024, 1024, 1024, 0, 6, 3949, 3934, 3945, 3974, 4004, 3984, 0, 1, 17900, -89.900, 0.000, 130.400, 0.000, 0.000, -2.900, 0.0, , , , , , 96, , , 31, 31, 31
38.5226832, -120.3275302, 37.500, 14:07:00.287, 15, 0.00, 0.22, 98, 1.000, -2.000, 129.500, 840, 100, 96, 26, 23834, -18943, 5234, 5396, 16, 14, 1529442420.287, 1, 0, 1024, 1024, 1024, 1024, 0, 6, 3949, 3934, 3945, 3974, 4004, 3984, 0, 1, 18000, -89.900, 0.000, 130.400, 0.000, 0.000, -2.800, 0.0, , , , , , 96, , , 31, 31, 31
38.5226832, -120.3275302, 37.500, 14:07:00.387, 15, 0.00, 0.22, 98, 1.000, -2.000, 129.500, 840, 100, 96, 26, 23834, -18943, 5234, 5396, 16, 14, 1529442420.387, 101, 0, 1024, 1024, 1024, 1024, 0, 6, 3949, 3934, 3945, 3974, 4004, 3984, 0, 1, 18100, -89.900, 0.000, 130.400, 0.000, 0.000, -2.800, 0.0, , , , , , 96, , , 31, 31, 31
38.5226832, -120.3275303, 37.800, 14:07:00.487, 15, 0.00, 0.22, 98, 1.100, -1.900, 129.600, 840, 100, 96, 26, 23834, -18943, 5234, 5396, 16, 14, 1529442420.487, 92, 0, 1024, 1024, 1024, 1024, 0, 6, 3949, 3934, 3945, 3974, 4004, 3984, 0, 1, 18200, -89.900, 0.000, 130.400, 0.000, 0.000, -2.800, 0.0, , , , , , 96, , , 31, 31, 31
38.5226831, -120.3275303, 38.100, 14:07:00.587, 15, 0.00, 0.22, 97, 1.200, -2.000, 129.600, 840, 100, 96, 26, 23607, -19902, 5234, 5396, 16, 14, 1529442420.587, 77, 0, 1024, 1024, 1024, 1024, 0, 6, 3934, 3921, 3915, 3928, 3977, 3959, 0, 1, 18300, -89.900, 0.000, 130.400, 0.000, 0.000, -2.900, 0.0, , , , , , 96, , , 31, 31, 31
38.5226831, -120.3275304, 38.400, 14:07:00.687, 15, 0.00, 0.22, 97, 1.400, -2.200, 129.700, 840, 100, 98, 26, 23607, -19902, 5234, 5396, 16, 14, 1529442420.687, 84, 0, 1024, 1024, 1024, 1024, 0, 6, 3934, 3921, 3915, 3928, 3977, 3959, 0, 1, 18400, -89.900, 0.000, 130.400, 0.000, 0.000, -2.900, 0.0, , , , , , 96, , , 31, 31, 31
38.5226831, -120.3275304, 38.700, 14:07:00.787, 15, 0.00, 0.22, 97, 1.500, -2.400, 129.700, 840, 100, 98, 26, 23607, -19902, 5234, 5396, 16, 14, 1529442420.787, 62, 0, 1024, 1024, 1024, 1024, 0, 6, 3934, 3921, 3915, 3928, 3977, 3959, 0, 1, 18500, -89.900, 0.000, 130.400, 0.000, 0.000, -2.900, 0.0, , , , , , 96, , , 31, 31, 31
38.5226831, -120.3275305, 39.000, 14:07:00.887, 15, 0.00, 0.22, 97, 1.600, -2.400, 129.600, 840, 100, 98, 26, 23607, -19902, 5234, 5396, 16, 14, 1529442420.887, 54, 0, 1024, 1024, 1024, 1024, 0, 6, 3934, 3921, 3915, 3928, 3977, 3959, 0, 1, 18600, -89.900, 0.000, 130.400, 0.000, 0.000, -2.800, 0.0, , , , , , 96, , , 31, 31, 31
38.5226831, -120.3275305, 39.300, 14:07:00.987, 15, 0.00, 0.22, 97, 1.600, -2.200, 129.500, 840, 100, 98, 26, 23607, -19902, 5234, 5396, 16, 14, 1529442420.987, 54, 0, 1024, 1024, 1024, 1024, 0, 6, 3934, 3921, 3915, 3928, 3977, 3959, 0, 1, 18700, -89.900, 0.000, 130.400, 0.000, 0.000, -2.800, 0.0, , , , , , 96, , , 31, 31, 31
38.5226831, -120.3275306, 39.900, 14:07:01.087, 15, 0.00, 0.22, 97, 1.600, -2.100, 129.300, 840, 100, 98, 26, 23607, -19902, 5234, 5396, 16, 14, 1529442421.087, 53, 0, 1024, 1024, 1024, 1024, 0, 6, 3934, 3921, 3915, 3928, 3977, 3959, 0, 1, 18800, -89.900, 0.000, 130.400, 0.000, 0.000, -2.900, 0.0, , , , , , 96, , , 31, 31, 31
38.5226830, -120.3275306, 40.200, 14:07:01.187, 15, 0.00, 0.22, 97, 1.600, -2.200, 129.300, 840, 100, 97, 26, 23607, -19902, 5234, 5396, 16, 14, 1529442421.187, 22, 0, 1024, 1024, 1024, 1024, 0, 6, 3934, 3921, 3915, 3928, 3977, 3959, 0, 1, 18900, -89.900, 0.000, 130.400, 0.000, 0.000, -2.900, 0.0, , , , , , 96, , , 31, 31, 31
38.5226830, -120.3275307, 40.500, 14:07:01.287, 15, 0.00, 0.22, 97, 1.300, -2.400, 129.200, 840, 100, 97, 26, 23607, -19902, 5234, 5396, 16, 14, 1529442421.287, 28, 0, 1024, 1024, 1024, 1024, 0, 6, 3934, 3921, 3915, 3928, 3977, 3959, 0, 1, 19000, -89.900, 0.000, 130.400, 0.000, 0.000, -2.900, 0.0, , , , , , 96, , , 31, 31, 31
38.5226830, -120.3275308, 40.800, 14:07:01.387, 15, 0.00, 0.22, 97, 1.200, -2.500, 129.200, 840, 100, 97, 26, 23607, -19902, 5234, 5396, 16, 14, 1529442421.387, 34, 0, 1024, 1024, 1024, 1024, 0, 6, 3934, 3921, 3915, 3928, 3977, 3959, 0, 1, 19100, -89.900, 0.000, 130.400, 0.000, 0.000, -2.900, 0.0, , , , , , 96, , , 31, 31, 31
38.5226829, -120.3275308, 41.100, 14:07:01.487, 15, 0.00, 0.22, 97, 1.300, -2.600, 129.300, 840, 100, 97, 27, 23621, -19656, 5234, 5396, 16, 14, 1529442421.487, 23, 0, 1024, 1024, 1024, 1024, 0, 6, 3939, 3926, 3912, 3926, 3966, 3940, 0, 1, 19200, -89.900, 0.000, 130.400, 0.000, 0.000, -2.800, 0.0, , , , , , 96, , , 31, 31, 31
38.5226829, -120.3275308, 41.400, 14:07:01.587, 16, 0.00, 0.22, 97, 1.200, -2.400, 129.300, 840, 100, 97, 27, 23621, -19656, 5234, 5396, 16, 14, 1529442421.587, 26, 0, 1024, 1024, 1024, 1024, 0, 6, 3939, 3926, 3912, 3926, 3966, 3940, 0, 1, 19300, -89.900, 0.000, 130.400, 0.000, 0.000, -2.800, 0.0, , , , , , 96, , , 31, 31, 31
38.5226829, -120.3275309, 41.700, 14:07:01.687, 16, 0.00, 0.22, 97, 1.300, -2.200, 129.500, 840, 100, 98, 27, 23621, -19656, 5234, 5396, 16, 14, 1529442421.687, 12, 0, 1024, 1024, 1024, 1024, 0, 6, 3939, 3926, 3912, 3926, 3966, 3940, 0, 1, 19400, -89.900, 0.000, 130.400, 0.000, 0.000, -2.800, 0.0, , , , , , 96, , , 31, 31, 31
38.5226829, -120.3275309, 42.000, 14:07:01.788, 16, 0.00, 0.22, 97, 0.900, -2.300, 129.500, 840, 100, 98, 27, 23621, -19656, 5234, 5396, 16, 14, 1529442421.789, 4, 0, 1024, 1024, 1024, 1024, 0, 6, 3939, 3926, 3912, 3926, 3966, 3940, 0, 1, 19502, -89.900, 0.000, 130.400, 0.000, 0.000, -2.800, 0.0, , , , , , 96, , , 31, 31, 31
38.5226828, -120.3275310, 42.200, 14:07:01.887, 16, 0.00, 0.21, 97, 0.700, -2.300, 129.600, 840, 100, 98, 27, 23621, -19656, 5234, 5396, 16, 14, 1529442421.887, 18, 0, 1024, 1024, 1024, 1024, 0, 6, 3939, 3926, 3912, 3926, 3966, 3940, 0, 1, 19600, -89.900, 0.000, 130.400, 0.000, 0.000, -2.900, 0.0, , , , , , 96, , , 31, 31, 31
38.5226828, -120.3275310, 42.200, 14:07:01.987, 16, 0.00, 0.21, 97, 0.700, -2.300, 129.600, 840, 100, 98, 27, 23621, -19656, 5234, 5396, 16, 14, 1529442421.987, 118, 0, 1024, 1024, 1024, 1024, 0, 6, 3939, 3926, 3912, 3926, 3966, 3940, 0, 1, 19700, -89.900, 0.000, 130.400, 0.000, 0.000, -2.900, 0.0, , , , , , 96, , , 31, 31, 31
38.5226826, -120.3275311, 42.800, 14:07:02.087, 16, 0.00, 0.21, 97, 0.300, -2.400, 129.600, 840, 100, 98, 27, 23621, -19656, 5234, 5396, 16, 14, 1529442422.087, 1, 0, 1024, 1024, 1024, 1024, 0, 6, 3939, 3926, 3912, 3926, 3966, 3940, 0, 1, 19800, -89.900, 0.000, 130.400, 0.000, 0.000, -2.900, 0.0, , , , , , 96, , , 31, 31, 31
38.5226825, -120.3275312, 43.100, 14:07:02.187, 16, 0.00, 0.21, 97, 0.200, -2.300, 129.500, 840, 100, 98, 27, 23621, -19656, 5234, 5396, 16, 14, 1529442422.187, 9, 0, 1024, 1024, 1024, 1024, 0, 6, 3939, 3926, 3912, 3926, 3966, 3940, 0, 1, 19900, -89.900, 0.000, 130.400, 0.000, 0.000, -2.900, 0.0, , , , , , 96, , , 31, 31, 31
38.5226825, -120.3275312, 43.500, 14:07:02.289, 16, 0.00, 0.20, 97, 0.200, -2.300, 129.500, 840, 100, 98, 27, 23621, -19656, 5234, 5396, 16, 14, 1529442422.289, 1, 0, 1024, 1024, 1024, 1024, 0, 6, 3939, 3926, 3912, 3926, 3966, 3940, 0, 1, 20002, -89.900, 0.000, 130.400, 0.000, 0.000, -3.000, 0.0, , , , , , 96, , , 31, 31, 31
38.5226825, -120.3275312, 43.500, 14:07:02.387, 16, 0.00, 0.20, 97, 0.200, -2.300, 129.500, 840, 100, 98, 27, 23621, -19656, 5234, 5396, 16, 14, 1529442422.387, 99, 0, 1024, 1024, 1024, 1024, 0, 6, 3939, 3926, 3912, 3926, 3966, 3940, 0, 1, 20100, -89.900, 0.000, 130.400, 0.000, 0.000, -3.000, 0.0, , , , , , 96, , , 31, 31, 31
38.5226824, -120.3275312, 43.800, 14:07:02.487, 16, 0.00, 0.20, 97, 0.200, -2.400, 129.500, 840, 100, 98, 27, 23621, -19656, 5234, 5396, 16, 14, 1529442422.487, 87, 0, 1024, 1024, 1024, 1024, 0, 6, 3939, 3926, 3912, 3926, 3966, 3940, 0, 1, 20200, -89.900, 0.000, 130.400, 0.000, 0.000, -2.900, 0.0, , , , , , 96, , , 31, 31, 31
38.5226824, -120.3275312, 44.100, 14:07:02.587, 16, 0.00, 0.20, 97, 0.400, -2.400, 129.500, 840, 100, 98, 27, 23578, -19815, 5234, 5396, 16, 14, 1529442422.587, 83, 0, 1024, 1024, 1024, 1024, 0, 6, 3939, 3926, 3912, 3926, 3966, 3940, 0, 1, 20300, -89.900, 0.000, 130.400, 0.000, 0.000, -2.900, 0.0, , , , , , 96, , , 31, 31, 31
38.5226823, -120.3275312, 44.400, 14:07:02.687, 16, 0.00, 0.20, 97, 0.500, -2.200, 129.600, 840, 100, 99, 27, 23578, -19815, 5234, 5396, 16, 14, 1529442422.687, 96, 0, 1024, 1024, 1024, 1024, 0, 6, 3939, 3926, 3912, 3926, 3966, 3940, 0, 1, 20400, -89.900, 0.000, 130.400, 0.000, 0.000, -2.900, 0.0, , , , , , 96, , , 31, 31, 31
38.5226823, -120.3275312, 44.700, 14:07:02.786, 16, 0.00, 0.19, 97, 0.700, -1.900, 129.700, 840, 100, 99, 27, 23578, -19815, 5234, 5396, 16, 14, 1529442422.786, 79, 0, 1024, 1024, 1024, 1024, 0, 6, 3939, 3926, 3912, 3926, 3966, 3940, 0, 1, 20499, -89.900, 0.000, 130.400, 0.000, 0.000, -2.900, 0.0, , , , , , 96, , , 31, 31, 31
38.5226822, -120.3275312, 45.000, 14:07:02.887, 16, 0.00, 0.19, 97, 0.500, -1.700, 129.700, 840, 100, 99, 27, 23578, -19815, 5234, 5396, 16, 14, 1529442422.887, 49, 0, 1024, 1024, 1024, 1024, 0, 6, 3939, 3926, 3912, 3926, 3966, 3940, 0, 1, 20600, -89.900, 0.000, 130.400, 0.000, 0.000, -3.000, 0.0, , , , , , 96, , , 31, 31, 31
38.5226822, -120.3275312, 45.000, 14:07:02.987, 16, 0.00, 0.19, 97, 0.500, -1.700, 129.700, 840, 100, 99, 27, 23578, -19815, 5234, 5396, 16, 14, 1529442422.987, 149, 0, 1024, 1024, 1024, 1024, 0, 6, 3939, 3926, 3912, 3926, 3966, 3940, 0, 1, 20700, -89.900, 0.000, 130.400, 0.000, 0.000, -3.000, 0.0, , , , , , 96, , , 31, 31, 31
38.5226821, -120.3275312, 45.600, 14:07:03.087, 16, 0.00, 0.18, 97, -0.200, -1.600, 129.800, 840, 100, 99, 27, 23578, -19815, 5234, 5396, 16, 14, 1529442423.087, 66, 0, 1024, 1024, 1024, 1024, 0, 6, 3933, 3910, 3910, 3924, 3962, 3939, 0, 1, 20800, -89.900, 0.000, 130.400, 0.000, 0.000, -2.900, 0.0, , , , , , 96, , , 31, 31, 31
38.5226820, -120.3275312, 45.900, 14:07:03.187, 16, 0.00, 0.17, 97, -0.100, -1.600, 129.800, 840, 100, 98, 27, 23578, -19815, 5234, 5396, 16, 14, 1529442423.187, 70, 0, 1024, 1024, 1024, 1024, 0, 6, 3933, 3910, 3910, 3924, 3962, 3939, 0, 1, 20900, -89.900, 0.000, 130.400, 0.000, 0.000, -2.900, 0.0, , , , , , 96, , , 31, 31, 31
38.5226819, -120.3275311, 46.200, 14:07:03.287, 16, 0.00, 0.17, 97, 0.000, -1.700, 129.900, 840, 100, 98, 27, 23578, -19815, 5234, 5396, 16, 14, 1529442423.287, 64, 0, 1024, 1024, 1024, 1024, 0, 6, 3933, 3910, 3910, 3924, 3962, 3939, 0, 1, 21000, -89.900, 0.000, 130.400, 0.000, 0.000, -2.900, 0.0, , , , , , 96, , , 31, 31, 31
