Latitude, Longitude, Altitude (m), Time, Sats, Speed (m/s), Range (m), Battery (%), Roll (deg), Pitch (deg), Yaw (deg), Images, HD Signal (%), RC Signal (%), Battery Temp (C), Battery Voltage (mV), Battery Current (mA), Battery Energy (mAh), Battery Capacity (mAh), Battery Discharges, flyState, timestamp (Unix), LastUpdate (ms), radioChannel, Rc_elevator, Rc_aileron, Rc_throttle, Rc_rudder, Rc_gyro, Dronetype, Battery_Cell1 (mV), Battery_Cell2 (mV), Battery_Cell3 (mV), Battery_Cell4 (mV), Battery_Cell5 (mV), Battery_Cell6 (mV), Video, isFlying, elapsedTime (ms), gimbalPitch (deg), gimbalRoll (deg), gimbalYaw (deg), VelocityX (m/s), VelocityY (m/s), VelocityZ (m/s), GroundSmear (cm), App Version, Aircraft Name, Aircraft Firmware, Aircraft Serial Number, Battery Serial Number, Battery Lifetime (%), App_Tip, App_Warning, CurrentFlightStartingIndex, CurrentFlightLastVisitedWaypoint, PreviousFlightEndingWaypointIndex
37.7328338, -120.0946886, 0.000, 11:10:44.958, 17, 0.10, 0.03, 98, -0.200, 1.100, 31.000, 2, 100, 100, 27, 25699, -2886, 5130, 5235, 11, 11, 1526235044.958, 151, 0, 1024, 1024, 1024, 1024, 0, 6, 4221, 4281, 4288, 4290, 4201, 4269, 0, 1, 3008, -89.900, 0.000, 31.700, 0.000, -0.100, -0.100, 0.0, MapPilot_2.8.1_04242018, Dendroctonus I, 1.3.1.00, 041DDC1887, 1058171200154, 98, DJI_0001.jpg, Starting Mission from Lat/Long: 37.73282/-120.09469 Camera: Zenmuse X3 - Overlap: 90/90 - Active Connection: No, 0, 0, 0
37.7328339, -120.0946889, 0.000, 11:10:45.051, 16, 0.10, 0.05, 98, 0.900, 0.300, 31.200, 2, 100, 100, 27, 25699, -2886, 5130, 5235, 11, 11, 1526235045.051, 29, 0, 1024, 1024, 1024, 1024, 0, 6, 4221, 4281, 4288, 4290, 4201, 4269, 0, 1, 3101, -90.000, 0.000, 31.700, 0.000, -0.100, -0.300, 0.0, , , , , , 98, , , 0, 0, 0
37.7328340, -120.0946891, 0.100, 11:10:45.151, 15, 0.00, 0.06, 98, 1.100, -0.300, 30.900, 2, 100, 100, 27, 25699, -2886, 5130, 5235, 11, 11, 1526235045.152, 8, 0, 1024, 1024, 1024, 1024, 0, 6, 4221, 4281, 4288, 4290, 4201, 4269, 0, 1, 3202, -90.000, 0.000, 31.700, 0.000, 0.000, -0.400, 0.0, , , , , , 98, , , 0, 0, 0
37.7328340, -120.0946891, 0.200, 11:10:45.254, 16, 0.00, 0.07, 98, 1.000, -0.400, 30.800, 2, 100, 100, 27, 25699, -2886, 5130, 5235, 11, 11, 1526235045.254, 19, 0, 1024, 1024, 1024, 1024, 0, 6, 4221, 4281, 4288, 4290, 4201, 4269, 0, 1, 3304, -90.000, 0.000, 31.700, 0.000, 0.000, -0.400, 0.0, , , , , , 98, , , 0, 0, 0
37.7328340, -120.0946891, 0.200, 11:10:45.351, 16, 0.00, 0.07, 98, 0.700, -0.300, 30.800, 2, 100, 100, 27, 25361, -6145, 5130, 5235, 11, 11, 1526235045.352, 19, 0, 1024, 1024, 1024, 1024, 0, 6, 4221, 4281, 4288, 4290, 4201, 4269, 0, 1, 3402, -89.900, 0.000, 31.700, 0.000, 0.000, -0.300, 0.0, , , , , , 98, , , 0, 0, 0
37.7328340, -120.0946891, 0.200, 11:10:45.451, 15, 0.00, 0.07, 98, 0.200, 0.100, 30.700, 2, 100, 100, 27, 25361, -6145, 5130, 5235, 11, 11, 1526235045.452, 22, 0, 1024, 1024, 1024, 1024, 0, 6, 4221, 4281, 4288, 4290, 4201, 4269, 0, 1, 3502, -89.900, 0.000, 31.700, 0.000, 0.000, -0.300, 0.0, , , , , , 98, , , 0, 0, 0
37.7328340, -120.0946891, 0.300, 11:10:45.555, 15, 0.00, 0.06, 98, 0.000, 0.200, 30.700, 2, 100, 100, 27, 25361, -6145, 5130, 5235, 11, 11, 1526235045.556, 3, 0, 1024, 1024, 1024, 1024, 0, 6, 4221, 4281, 4288, 4290, 4201, 4269, 0, 1, 3606, -89.900, 0.000, 31.700, 0.000, 0.000, -0.300, 0.0, , , , , , 98, , , 0, 0, 0
37.7328340, -120.0946890, 0.300, 11:10:45.650, 15, 0.00, 0.06, 98, -0.500, 0.400, 30.500, 2, 100, 100, 27, 25361, -6145, 5130, 5235, 11, 11, 1526235045.651, 6, 0, 1024, 1024, 1024, 1024, 0, 6, 4221, 4281, 4288, 4290, 4201, 4269, 0, 1, 3700, -89.900, 0.000, 31.700, 0.000, 0.000, -0.400, 0.0, , , , , , 98, , , 0, 0, 0
37.7328340, -120.0946889, 0.400, 11:10:45.751, 15, 0.00, 0.06, 98, -0.400, 0.300, 30.500, 2, 100, 100, 27, 25361, -6145, 5130, 5235, 11, 11, 1526235045.752, 22, 0, 1024, 1024, 1024, 1024, 0, 6, 4216, 4182, 4191, 4197, 4187, 4211, 0, 1, 3802, -89.900, 0.000, 31.700, 0.000, 0.000, -0.400, 0.0, , , , , , 98, , , 0, 0, 0
37.7328340, -120.0946889, 0.400, 11:10:45.851, 15, 0.00, 0.06, 98, -0.400, 0.300, 30.500, 2, 100, 100, 27, 25361, -6145, 5130, 5235, 11, 11, 1526235045.852, 121, 0, 1024, 1024, 1024, 1024, 0, 6, 4216, 4182, 4191, 4197, 4187, 4211, 0, 1, 3901, -89.900, 0.000, 31.700, 0.000, 0.000, -0.400, 0.0, , , , , , 98, , , 0, 0, 0
37.7328340, -120.0946889, 0.400, 11:10:45.951, 17, 0.00, 0.06, 98, -0.200, 0.200, 30.500, 2, 100, 100, 27, 25361, -6145, 5130, 5235, 11, 11, 1526235045.951, 79, 0, 1024, 1024, 1024, 1024, 0, 6, 4216, 4182, 4191, 4197, 4187, 4211, 0, 1, 4001, -90.000, 0.000, 31.700, 0.000, 0.000, -0.500, 0.0, , , , , , 98, , , 0, 0, 0
37.7328340, -120.0946888, 0.500, 11:10:46.051, 17, 0.00, 0.05, 98, -0.300, 0.100, 30.700, 2, 100, 100, 27, 25361, -6145, 5130, 5235, 11, 11, 1526235046.052, 79, 0, 1024, 1024, 1024, 1024, 0, 6, 4216, 4182, 4191, 4197, 4187, 4211, 0, 1, 4101, -90.000, 0.000, 31.700, 0.000, 0.000, -0.400, 0.0, , , , , , 98, , , 0, 0, 0
37.7328340, -120.0946887, 0.500, 11:10:46.151, 18, 0.00, 0.05, 98, -0.700, 0.000, 30.800, 2, 100, 100, 27, 25361, -6145, 5130, 5235, 11, 11, 1526235046.152, 91, 0, 1024, 1024, 1024, 1024, 0, 6, 4216, 4182, 4191, 4197, 4187, 4211, 0, 1, 4202, -89.900, 0.000, 31.700, 0.000, 0.000, -0.500, 0.0, , , , , , 98, , , 0, 0, 0
37.7328340, -120.0946886, 0.600, 11:10:46.251, 18, 0.00, 0.05, 98, -0.700, 0.200, 31.000, 2, 100, 100, 27, 25361, -6145, 5130, 5235, 11, 11, 1526235046.252, 81, 0, 1024, 1024, 1024, 1024, 0, 6, 4216, 4182, 4191, 4197, 4187, 4211, 0, 1, 4302, -89.900, 0.000, 31.700, 0.000, 0.000, -0.500, 0.0, , , , , , 98, , , 0, 0, 0
37.7328341, -120.0946885, 0.600, 11:10:46.351, 18, 0.00, 0.06, 98, -0.600, 0.400, 31.000, 2, 100, 100, 27, 25361, -6145, 5130, 5235, 11, 11, 1526235046.351, 74, 0, 1024, 1024, 1024, 1024, 0, 6, 4216, 4182, 4191, 4197, 4187, 4211, 0, 1, 4401, -89.900, 0.000, 31.700, 0.000, 0.000, -0.500, 0.0, , , , , , 98, , , 0, 0, 0
37.7328341, -120.0946884, 0.700, 11:10:46.451, 18, 0.00, 0.06, 98, -0.600, 0.600, 31.000, 2, 100, 100, 27, 25361, -6145, 5130, 5235, 11, 11, 1526235046.452, 56, 0, 1024, 1024, 1024, 1024, 0, 6, 4216, 4182, 4191, 4197, 4187, 4211, 0, 1, 4501, -89.900, 0.000, 31.700, 0.000, 0.000, -0.500, 0.0, , , , , , 98, , , 0, 0, 0
37.7328341, -120.0946883, 0.700, 11:10:46.551, 16, 0.00, 0.06, 98, -0.500, 0.700, 31.000, 2, 100, 100, 27, 25361, -6145, 5130, 5235, 11, 11, 1526235046.551, 57, 0, 1024, 1024, 1024, 1024, 0, 6, 4216, 4182, 4191, 4197, 4187, 4211, 0, 1, 4601, -89.900, 0.000, 31.700, 0.000, 0.000, -0.400, 0.0, , , , , , 98, , , 0, 0, 0
37.7328341, -120.0946882, 0.800, 11:10:46.651, 16, 0.00, 0.07, 98, -0.600, 0.700, 31.000, 2, 100, 100, 27, 25361, -6145, 5130, 5235, 11, 11, 1526235046.652, 70, 0, 1024, 1024, 1024, 1024, 0, 6, 4216, 4182, 4191, 4197, 4187, 4211, 0, 1, 4701, -89.900, 0.000, 31.700, 0.000, 0.000, -0.400, 0.0, , , , , , 98, , , 0, 0, 0
37.7328340, -120.0946882, 0.800, 11:10:46.751, 15, 0.00, 0.07, 98, -0.600, 0.600, 31.000, 2, 100, 100, 27, 25361, -6145, 5130, 5235, 11, 11, 1526235046.752, 71, 0, 1024, 1024, 1024, 1024, 0, 6, 4216, 4182, 4191, 4197, 4187, 4211, 0, 1, 4802, -89.900, 0.000, 31.700, 0.000, 0.000, -0.400, 0.0, , , , , , 98, , , 0, 0, 0
37.7328340, -120.0946881, 0.900, 11:10:46.851, 15, 0.00, 0.07, 98, -0.700, 0.700, 31.000, 2, 100, 100, 27, 24704, -15381, 5130, 5235, 11, 6, 1526235046.851, 58, 0, 1024, 1024, 1024, 1024, 0, 6, 4096, 4109, 4105, 4098, 4101, 4119, 0, 1, 4901, -89.900, 0.000, 31.700, 0.000, 0.000, -0.500, 0.0, , , , , , 98, , , 0, 0, 0
37.7328340, -120.0946880, 0.900, 11:10:46.952, 15, 0.00, 0.08, 98, -0.800, 0.600, 31.000, 2, 100, 100, 27, 24704, -15381, 5130, 5235, 11, 14, 1526235046.952, 63, 0, 1024, 1024, 1024, 1024, 0, 6, 4096, 4109, 4105, 4098, 4101, 4119, 0, 1, 5002, -90.000, 0.000, 31.700, 0.000, 0.000, -0.400, 0.0, , , , , , 98, , , 0, 0, 0
37.7328341, -120.0946881, 1.000, 11:10:47.051, 15, 0.00, 0.08, 98, -0.600, 0.500, 31.000, 2, 100, 100, 27, 24704, -15381, 5130, 5235, 11, 14, 1526235047.051, 20, 0, 1024, 1024, 1024, 1024, 0, 6, 4096, 4109, 4105, 4098, 4101, 4119, 0, 1, 5101, -89.900, 0.000, 31.700, 0.000, 0.000, -0.300, 0.0, , , , , , 98, , , 0, 0, 0
37.7328342, -120.0946881, 1.000, 11:10:47.151, 16, 0.00, 0.09, 98, -0.300, 0.600, 31.000, 2, 100, 100, 27, 24704, -15381, 5130, 5235, 11, 14, 1526235047.151, 35, 0, 1024, 1024, 1024, 1024, 0, 6, 4096, 4109, 4105, 4098, 4101, 4119, 0, 1, 5201, -89.900, 0.000, 31.700, 0.000, 0.000, -0.200, 0.0, , , , , , 98, , , 0, 0, 0
37.7328341, -120.0946878, 1.100, 11:10:47.251, 19, 0.00, 0.09, 98, -0.100, 0.700, 30.800, 2, 100, 100, 27, 24704, -15381, 5130, 5235, 11, 14, 1526235047.251, 24, 0, 1024, 1024, 1024, 1024, 0, 6, 4096, 4109, 4105, 4098, 4101, 4119, 0, 1, 5301, -89.900, 0.000, 31.700, 0.000, 0.000, -0.400, 0.0, , , , , , 98, , , 0, 0, 0
37.7328341, -120.0946877, 1.100, 11:10:47.350, 19, 0.00, 0.10, 98, -0.300, 0.700, 30.800, 2, 100, 100, 27, 24704, -15381, 5130, 5235, 11, 14, 1526235047.351, 18, 0, 1024, 1024, 1024, 1024, 0, 6, 4096, 4109, 4105, 4098, 4101, 4119, 0, 1, 5401, -89.900, 0.000, 31.700, 0.000, 0.000, -0.500, 0.0, , , , , , 98, , , 0, 0, 0
37.7328341, -120.0946875, 1.200, 11:10:47.451, 17, 0.00, 0.11, 98, -0.400, 0.800, 30.800, 2, 100, 100, 27, 24704, -15381, 5130, 5235, 11, 14, 1526235047.452, 37, 0, 1024, 1024, 1024, 1024, 0, 6, 4096, 4109, 4105, 4098, 4101, 4119, 0, 1, 5501, -89.900, 0.000, 31.700, 0.000, 0.000, -0.700, 0.0, , , , , , 98, , , 0, 0, 0
37.7328341, -120.0946875, 1.200, 11:10:47.551, 17, 0.00, 0.11, 98, -0.400, 0.800, 30.800, 2, 100, 100, 27, 24704, -15381, 5130, 5235, 11, 14, 1526235047.552, 137, 0, 1024, 1024, 1024, 1024, 0, 6, 4096, 4109, 4105, 4098, 4101, 4119, 0, 1, 5601, -89.900, 0.000, 31.700, 0.000, 0.000, -0.700, 0.0, , , , , , 98, , , 0, 0, 0
37.7328342, -120.0946873, 1.400, 11:10:47.652, 16, 0.00, 0.14, 98, -0.800, 1.100, 30.800, 2, 100, 100, 27, 24704, -15381, 5130, 5235, 11, 14, 1526235047.653, 37, 0, 1024, 1024, 1024, 1024, 0, 6, 4096, 4109, 4105, 4098, 4101, 4119, 0, 1, 5702, -89.900, 0.000, 31.700, 0.000, 0.000, -1.100, 0.0, , , , , , 98, , , 0, 0, 0
37.7328343, -120.0946871, 1.500, 11:10:47.751, 16, 0.00, 0.16, 98, -1.100, 1.300, 30.800, 2, 100, 100, 27, 24532, -15661, 5130, 5235, 11, 14, 1526235047.752, 11, 0, 1024, 1024, 1024, 1024, 0, 6, 4096, 4109, 4105, 4098, 4101, 4119, 0, 1, 5802, -89.900, 0.000, 31.700, 0.000, 0.000, -1.300, 0.0, , , , , , 98, , , 0, 0, 0
37.7328343, -120.0946870, 1.600, 11:10:47.851, 14, 0.00, 0.17, 98, -1.200, 1.400, 30.900, 2, 100, 100, 27, 24532, -15661, 5130, 5235, 11, 14, 1526235047.851, 26, 0, 1024, 1024, 1024, 1024, 0, 6, 4083, 4091, 4089, 4085, 4085, 4086, 0, 1, 5901, -89.900, 0.000, 31.700, 0.000, 0.000, -1.500, 0.0, , , , , , 98, , , 0, 0, 0
37.7328343, -120.0946870, 1.600, 11:10:47.950, 14, 0.00, 0.17, 98, -1.200, 1.400, 30.900, 2, 100, 100, 27, 24532, -15661, 5130, 5235, 11, 14, 1526235047.951, 126, 0, 1024, 1024, 1024, 1024, 0, 6, 4083, 4091, 4089, 4085, 4085, 4086, 0, 1, 6001, -89.900, 0.000, 31.700, 0.000, 0.000, -1.500, 0.0, , , , , , 98, , , 0, 0, 0
37.7328346, -120.0946869, 2.000, 11:10:48.051, 16, 0.00, 0.19, 98, -0.900, 1.400, 31.200, 2, 100, 100, 27, 24532, -15661, 5130, 5235, 11, 14, 1526235048.053, 15, 0, 1024, 1024, 1024, 1024, 0, 6, 4083, 4091, 4089, 4085, 4085, 4086, 0, 1, 6102, -89.900, 0.000, 31.700, 0.000, 0.000, -1.900, 0.0, , , , , , 98, , , 0, 0, 0
37.7328346, -120.0946868, 2.200, 11:10:48.151, 16, 0.00, 0.20, 98, -0.700, 1.300, 31.300, 2, 100, 100, 27, 24532, -15661, 5130, 5235, 11, 14, 1526235048.151, 6, 0, 1024, 1024, 1024, 1024, 0, 6, 4083, 4091, 4089, 4085, 4085, 4086, 0, 1, 6202, -89.900, 0.000, 31.700, 0.000, 0.000, -2.100, 0.0, , , , , , 98, , , 0, 0, 0
37.7328347, -120.0946868, 2.400, 11:10:48.251, 18, 0.00, 0.21, 98, -0.500, 1.400, 31.300, 2, 100, 100, 27, 24532, -15661, 5130, 5235, 11, 14, 1526235048.251, 8, 0, 1024, 1024, 1024, 1024, 0, 6, 4083, 4091, 4089, 4085, 4085, 4086, 0, 1, 6301, -89.900, 0.000, 31.700, 0.000, 0.000, -2.300, 0.0, , , , , , 98, , , 0, 0, 0
37.7328347, -120.0946868, 2.400, 11:10:48.350, 18, 0.00, 0.21, 98, -0.500, 1.400, 31.300, 2, 100, 100, 27, 24532, -15661, 5130, 5235, 11, 14, 1526235048.351, 108, 0, 1024, 1024, 1024, 1024, 0, 6, 4083, 4091, 4089, 4085, 4085, 4086, 0, 1, 6400, -89.900, 0.000, 31.700, 0.000, 0.000, -2.300, 0.0, , , , , , 98, , , 0, 0, 0
37.7328348, -120.0946869, 2.700, 11:10:48.450, 18, 0.00, 0.21, 98, -0.200, 1.500, 31.300, 2, 100, 100, 27, 24532, -15661, 5130, 5235, 11, 14, 1526235048.451, 95, 0, 1024, 1024, 1024, 1024, 0, 6, 4083, 4091, 4089, 4085, 4085, 4086, 0, 1, 6501, -89.900, 0.000, 31.700, 0.000, 0.000, -2.600, 0.0, , , , , , 98, , , 0, 0, 0
37.7328350, -120.0946869, 3.000, 11:10:48.551, 18, 0.00, 0.22, 98, -0.100, 1.500, 31.200, 2, 100, 100, 27, 24532, -15661, 5130, 5235, 11, 14, 1526235048.551, 91, 0, 1024, 1024, 1024, 1024, 0, 6, 4083, 4091, 4089, 4085, 4085, 4086, 0, 1, 6601, -89.900, 0.000, 31.700, 0.000, 0.000, -2.700, 0.0, , , , , , 98, , , 0, 0, 0
37.7328350, -120.0946869, 3.200, 11:10:48.650, 18, 0.00, 0.22, 98, 0.000, 1.400, 31.100, 2, 100, 100, 27, 24532, -15661, 5130, 5235, 11, 14, 1526235048.651, 95, 0, 1024, 1024, 1024, 1024, 0, 6, 4083, 4091, 4089, 4085, 4085, 4086, 0, 1, 6701, -89.900, 0.000, 31.700, 0.000, 0.000, -2.900, 0.0, , , , , , 98, , , 0, 0, 0
37.7328351, -120.0946869, 3.600, 11:10:48.751, 18, 0.00, 0.22, 98, 0.000, 1.300, 31.000, 2, 100, 100, 27, 24532, -15661, 5130, 5235, 11, 14, 1526235048.752, 95, 0, 1024, 1024, 1024, 1024, 0, 6, 4083, 4091, 4089, 4085, 4085, 4086, 0, 1, 6802, -89.900, 0.000, 31.700, 0.000, 0.000, -3.000, 0.0, , , , , , 98, , , 0, 0, 0
37.7328352, -120.0946871, 3.900, 11:10:48.851, 18, 0.00, 0.23, 98, 0.000, 1.300, 31.000, 2, 100, 100, 27, 24290, -18011, 5130, 5235, 11, 14, 1526235048.851, 91, 0, 1024, 1024, 1024, 1024, 0, 6, 4027, 4038, 4037, 4026, 4032, 4035, 0, 1, 6901, -89.900, 0.000, 31.700, 0.000, 0.000, -3.100, 0.0, , , , , , 98, , , 0, 0, 0
37.7328353, -120.0946872, 4.200, 11:10:48.951, 19, 0.00, 0.23, 98, 0.100, 1.300, 31.000, 2, 100, 100, 27, 24290, -18011, 5130, 5235, 11, 14, 1526235048.951, 68, 0, 1024, 1024, 1024, 1024, 0, 6, 4027, 4038, 4037, 4026, 4032, 4035, 0, 1, 7001, -89.900, 0.000, 31.700, 0.000, 0.000, -3.200, 0.0, , , , , , 98, , , 0, 0, 0
37.7328353, -120.0946874, 4.500, 11:10:49.051, 19, 0.00, 0.22, 98, 0.300, 1.300, 31.100, 2, 100, 100, 27, 24290, -18011, 5130, 5235, 11, 14, 1526235049.052, 58, 0, 1024, 1024, 1024, 1024, 0, 6, 4027, 4038, 4037, 4026, 4032, 4035, 0, 1, 7102, -89.900, 0.000, 31.700, 0.000, 0.000, -3.200, 0.0, , , , , , 98, , , 0, 0, 0
37.7328353, -120.0946874, 4.900, 11:10:49.151, 18, 0.00, 0.22, 98, 0.400, 1.200, 31.100, 2, 100, 100, 27, 24290, -18011, 5130, 5235, 11, 14, 1526235049.151, 72, 0, 1024, 1024, 1024, 1024, 0, 6, 4027, 4038, 4037, 4026, 4032, 4035, 0, 1, 7201, -89.900, 0.000, 31.700, 0.000, 0.000, -3.300, 0.0, , , , , , 98, , , 0, 0, 0
37.7328354, -120.0946874, 5.200, 11:10:49.251, 18, 0.00, 0.23, 98, 0.500, 1.100, 31.100, 2, 100, 100, 27, 24290, -18011, 5130, 5235, 11, 14, 1526235049.252, 59, 0, 1024, 1024, 1024, 1024, 0, 6, 4027, 4038, 4037, 4026, 4032, 4035, 0, 1, 7301, -89.900, 0.000, 31.700, 0.000, 0.000, -3.300, 0.0, , , , , , 98, , , 0, 0, 0
37.7328355, -120.0946874, 5.600, 11:10:49.351, 17, 0.00, 0.24, 98, 0.400, 1.300, 31.100, 2, 100, 100, 27, 24290, -18011, 5130, 5235, 11, 14, 1526235049.352, 54, 0, 1024, 1024, 1024, 1024, 0, 6, 4027, 4038, 4037, 4026, 4032, 4035, 0, 1, 7402, -89.900, 0.000, 31.700, 0.000, 0.000, -3.300, 0.0, , , , , , 98, , , 0, 0, 0
37.7328354, -120.0946874, 5.900, 11:10:49.450, 17, 0.00, 0.23, 98, 0.100, 1.600, 31.200, 2, 100, 100, 27, 24290, -18011, 5130, 5235, 11, 14, 1526235049.451, 57, 0, 1024, 1024, 1024, 1024, 0, 6, 4027, 4038, 4037, 4026, 4032, 4035, 0, 1, 7501, -89.900, 0.000, 31.700, 0.000, 0.000, -3.200, 0.0, , , , , , 98, , , 0, 0, 0
37.7328353, -120.0946874, 6.200, 11:10:49.551, 16, 0.00, 0.22, 98, -0.300, 1.400, 31.200, 2, 100, 100, 27, 24290, -18011, 5130, 5235, 11, 14, 1526235049.552, 69, 0, 1024, 1024, 1024, 1024, 0, 6, 4027, 4038, 4037, 4026, 4032, 4035, 0, 1, 7601, -90.000, 0.000, 31.700, 0.000, 0.000, -3.200, 0.0, , , , , , 98, , , 0, 0, 0
37.7328352, -120.0946873, 6.600, 11:10:49.651, 16, 0.00, 0.22, 98, -0.800, 0.900, 31.200, 2, 100, 100, 27, 24290, -18011, 5130, 5235, 11, 14, 1526235049.652, 58, 0, 1024, 1024, 1024, 1024, 0, 6, 4027, 4038, 4037, 4026, 4032, 4035, 0, 1, 7702, -90.000, 0.000, 31.700, 0.000, 0.000, -3.200, 0.0, , , , , , 98, , , 0, 0, 0
37.7328351, -120.0946872, 6.900, 11:10:49.751, 16, 0.00, 0.22, 98, -1.200, 0.700, 31.100, 2, 100, 100, 27, 24290, -18011, 5130, 5235, 11, 14, 1526235049.751, 61, 0, 1024, 1024, 1024, 1024, 0, 6, 4027, 4038, 4037, 4026, 4032, 4035, 0, 1, 7801, -90.000, 0.000, 31.700, 0.000, 0.000, -3.200, 0.0, , , , , , 98, , , 0, 0, 0
37.7328351, -120.0946871, 7.200, 11:10:49.851, 16, 0.00, 0.22, 98, -1.300, 0.500, 31.000, 2, 100, 99, 27, 23965, -21719, 5130, 5235, 11, 14, 1526235049.852, 62, 0, 1024, 1024, 1024, 1024, 0, 6, 3989, 4000, 4002, 3993, 4006, 4001, 0, 1, 7902, -90.000, 0.000, 31.700, 0.000, 0.000, -3.100, 0.0, , , , , , 98, , , 0, 0, 0
37.7328350, -120.0946870, 7.600, 11:10:49.951, 17, 0.00, 0.21, 98, -1.300, 0.400, 30.900, 2, 100, 99, 27, 23965, -21719, 5130, 5235, 11, 14, 1526235049.953, 41, 0, 1024, 1024, 1024, 1024, 0, 6, 3989, 4000, 4002, 3993, 4006, 4001, 0, 1, 8003, -90.000, 0.000, 31.700, 0.000, 0.000, -3.200, 0.0, , , , , , 98, , , 0, 0, 0
37.7328345, -120.0946866, 8.200, 11:10:50.050, 17, 0.00, 0.21, 98, -1.400, 0.500, 30.800, 2, 100, 99, 27, 23965, -21719, 5130, 5235, 11, 14, 1526235050.051, 24, 0, 1024, 1024, 1024, 1024, 0, 6, 3989, 4000, 4002, 3993, 4006, 4001, 0, 1, 8101, -90.000, 0.000, 31.700, 0.000, 0.000, -3.100, 0.0, , , , , , 98, , , 0, 0, 0
37.7328344, -120.0946865, 8.600, 11:10:50.151, 17, 0.00, 0.21, 98, -1.600, 0.300, 30.800, 2, 100, 99, 27, 23965, -21719, 5130, 5235, 11, 14, 1526235050.153, 21, 0, 1024, 1024, 1024, 1024, 0, 6, 3989, 4000, 4002, 3993, 4006, 4001, 0, 1, 8203, -90.000, 0.000, 31.700, 0.000, 0.000, -3.200, 0.0, , , , , , 98, , , 0, 0, 0
37.7328343, -120.0946865, 8.900, 11:10:50.254, 18, 0.00, 0.21, 98, -1.700, 0.100, 30.800, 2, 100, 99, 27, 23965, -21719, 5130, 5235, 11, 14, 1526235050.255, 40, 0, 1024, 1024, 1024, 1024, 0, 6, 3989, 4000, 4002, 3993, 4006, 4001, 0, 1, 8304, -90.000, 0.000, 31.700, 0.000, 0.000, -3.100, 0.0, , , , , , 98, , , 0, 0, 0
37.7328343, -120.0946865, 8.900, 11:10:50.351, 18, 0.00, 0.21, 98, -1.700, 0.100, 30.800, 2, 100, 98, 27, 23965, -21719, 5130, 5235, 11, 14, 1526235050.352, 137, 0, 1024, 1024, 1024, 1024, 0, 6, 3989, 4000, 4002, 3993, 4006, 4001, 0, 1, 8401, -90.000, 0.000, 31.700, 0.000, 0.000, -3.100, 0.0, , , , , , 98, , , 0, 0, 0
37.7328342, -120.0946863, 9.600, 11:10:50.450, 17, 0.00, 0.22, 98, -1.700, 0.200, 30.700, 2, 100, 98, 27, 23965, -21719, 5130, 5235, 11, 14, 1526235050.451, 29, 0, 1024, 1024, 1024, 1024, 0, 6, 3989, 4000, 4002, 3993, 4006, 4001, 0, 1, 8500, -90.000, 0.000, 31.700, 0.000, 0.000, -3.100, 0.0, , , , , , 98, , , 0, 0, 0
37.7328341, -120.0946862, 9.900, 11:10:50.550, 17, 0.00, 0.22, 98, -1.600, 0.300, 30.700, 2, 100, 98, 27, 23965, -21719, 5130, 5235, 11, 14, 1526235050.551, 26, 0, 1024, 1024, 1024, 1024, 0, 6, 3989, 4000, 4002, 3993, 4006, 4001, 0, 1, 8600, -90.000, 0.000, 31.700, 0.000, 0.000, -3.100, 0.0, , , , , , 98, , , 0, 0, 0
37.7328340, -120.0946861, 10.200, 11:10:50.651, 18, 0.00, 0.23, 98, -1.600, 0.400, 30.700, 2, 100, 98, 27, 23965, -21719, 5130, 5235, 11, 14, 1526235050.651, 29, 0, 1024, 1024, 1024, 1024, 0, 6, 3989, 4000, 4002, 3993, 4006, 4001, 0, 1, 8701, -90.000, 0.000, 31.700, 0.000, 0.000, -3.100, 0.0, , , , , , 98, , , 0, 0, 0
37.7328340, -120.0946860, 10.600, 11:10:50.751, 18, 0.00, 0.24, 98, -1.700, 0.500, 30.800, 2, 100, 98, 27, 24187, -17529, 5130, 5235, 11, 14, 1526235050.752, 22, 0, 1024, 1024, 1024, 1024, 0, 6, 3989, 4000, 4002, 3993, 4006, 4001, 0, 1, 8801, -90.000, 0.000, 31.700, 0.000, 0.000, -3.100, 0.0, , , , , , 98, , , 0, 0, 0
37.7328340, -120.0946860, 10.600, 11:10:50.850, 18, 0.00, 0.24, 98, -1.700, 0.500, 30.800, 2, 100, 98, 27, 24187, -17529, 5130, 5235, 11, 14, 1526235050.851, 121, 0, 1024, 1024, 1024, 1024, 0, 6, 3989, 4000, 4002, 3993, 4006, 4001, 0, 1, 8901, -90.000, 0.000, 31.700, 0.000, 0.000, -3.100, 0.0, , , , , , 98, , , 0, 0, 0
37.7328340, -120.0946859, 10.900, 11:10:50.952, 16, 0.00, 0.24, 98, -1.800, 0.600, 30.800, 2, 100, 99, 27, 24187, -17529, 5130, 5235, 11, 14, 1526235050.952, 98, 0, 1024, 1024, 1024, 1024, 0, 6, 3989, 4000, 4002, 3993, 4006, 4001, 0, 1, 9002, -89.900, 0.000, 31.700, 0.000, 0.000, -2.900, 0.0, , , , , , 98, , , 0, 0, 0
37.7328339, -120.0946858, 11.200, 11:10:51.051, 16, 0.00, 0.25, 98, -2.000, 0.800, 30.700, 2, 100, 99, 27, 24187, -17529, 5130, 5235, 11, 14, 1526235051.052, 79, 0, 1024, 1024, 1024, 1024, 0, 6, 3989, 4000, 4002, 3993, 4006, 4001, 0, 1, 9101, -89.900, 0.000, 31.700, 0.000, 0.000, -3.000, 0.0, , , , , , 98, , , 0, 0, 0
37.7328338, -120.0946857, 11.500, 11:10:51.153, 17, 0.00, 0.26, 98, -2.100, 0.800, 30.700, 2, 100, 99, 27, 24187, -17529, 5130, 5235, 11, 14, 1526235051.153, 90, 0, 1024, 1024, 1024, 1024, 0, 6, 3989, 4000, 4002, 3993, 4006, 4001, 0, 1, 9203, -89.900, 0.000, 31.700, 0.000, 0.000, -2.900, 0.0, , , , , , 98, , , 0, 0, 0
37.7328337, -120.0946857, 11.800, 11:10:51.253, 17, 0.00, 0.26, 98, -2.100, 0.700, 30.700, 2, 100, 99, 27, 24187, -17529, 5130, 5235, 11, 14, 1526235051.253, 96, 0, 1024, 1024, 1024, 1024, 0, 6, 3989, 4000, 4002, 3993, 4006, 4001, 0, 1, 9303, -90.000, 0.000, 31.700, 0.000, 0.000, -2.800, 0.0, , , , , , 98, , , 0, 0, 0
37.7328337, -120.0946856, 12.100, 11:10:51.354, 19, 0.00, 0.27, 98, -1.900, 0.600, 30.800, 2, 100, 99, 27, 24187, -17529, 5130, 5235, 11, 14, 1526235051.354, 95, 0, 1024, 1024, 1024, 1024, 0, 6, 4023, 4039, 4034, 4024, 4032, 4044, 0, 1, 9404, -90.000, 0.000, 31.700, 0.000, 0.000, -2.800, 0.0, , , , , , 98, , , 0, 0, 0
37.7328336, -120.0946857, 12.400, 11:10:51.453, 19, 0.00, 0.26, 98, -1.900, 0.500, 30.800, 2, 100, 99, 27, 24187, -17529, 5130, 5235, 11, 14, 1526235051.454, 94, 0, 1024, 1024, 1024, 1024, 0, 6, 4023, 4039, 4034, 4024, 4032, 4044, 0, 1, 9504, -90.000, 0.000, 31.700, 0.000, 0.000, -2.900, 0.0, , , , , , 98, , , 0, 0, 0
37.7328336, -120.0946857, 12.700, 11:10:51.553, 19, 0.00, 0.26, 98, -1.700, 0.400, 30.900, 2, 100, 99, 27, 24187, -17529, 5130, 5235, 11, 14, 1526235051.554, 77, 0, 1024, 1024, 1024, 1024, 0, 6, 4023, 4039, 4034, 4024, 4032, 4044, 0, 1, 9603, -90.000, 0.000, 31.700, 0.000, 0.000, -2.900, 0.0, , , , , , 98, , , 0, 0, 0
37.7328336, -120.0946857, 13.000, 11:10:51.655, 18, 0.00, 0.26, 98, -1.400, 0.400, 31.000, 2, 100, 99, 27, 24187, -17529, 5130, 5235, 11, 14, 1526235051.657, 92, 0, 1024, 1024, 1024, 1024, 0, 6, 4023, 4039, 4034, 4024, 4032, 4044, 0, 1, 9706, -89.900, 0.000, 31.700, 0.000, 0.000, -2.900, 0.0, , , , , , 98, , , 0, 0, 0
37.7328337, -120.0946857, 13.300, 11:10:51.758, 19, 0.00, 0.26, 98, -1.100, 0.600, 31.100, 2, 100, 99, 27, 24187, -17529, 5130, 5235, 11, 14, 1526235051.760, 66, 0, 1024, 1024, 1024, 1024, 0, 6, 4023, 4039, 4034, 4024, 4032, 4044, 0, 1, 9809, -89.900, 0.000, 31.700, 0.000, 0.000, -3.000, 0.0, , , , , , 98, , , 0, 0, 0
37.7328338, -120.0946857, 13.600, 11:10:51.855, 19, 0.00, 0.26, 98, -1.000, 1.000, 31.100, 2, 100, 99, 27, 24187, -17529, 5130, 5235, 11, 14, 1526235051.857, 51, 0, 1024, 1024, 1024, 1024, 0, 6, 4023, 4039, 4034, 4024, 4032, 4044, 0, 1, 9907, -89.900, 0.000, 31.700, 0.000, 0.000, -3.000, 0.0, , , , , , 98, , , 0, 0, 0
37.7328339, -120.0946857, 13.900, 11:10:51.953, 18, 0.00, 0.26, 98, -1.100, 1.200, 31.200, 2, 100, 97, 27, 24187, -17529, 5130, 5235, 11, 14, 1526235051.953, 59, 0, 1024, 1024, 1024, 1024, 0, 6, 4023, 4039, 4034, 4024, 4032, 4044, 0, 1, 10003, -89.900, 0.000, 31.700, 0.000, 0.000, -3.000, 0.0, , , , , , 98, , , 0, 0, 0
37.7328339, -120.0946857, 14.200, 11:10:52.055, 18, 0.00, 0.26, 98, -1.000, 1.400, 31.200, 2, 100, 97, 27, 24187, -17529, 5130, 5235, 11, 14, 1526235052.057, 49, 0, 1024, 1024, 1024, 1024, 0, 6, 4023, 4039, 4034, 4024, 4032, 4044, 0, 1, 10106, -89.900, 0.000, 31.700, 0.000, 0.000, -2.900, 0.0, , , , , , 98, , , 0, 0, 0
37.7328339, -120.0946857, 14.200, 11:10:52.155, 18, 0.00, 0.26, 98, -1.000, 1.400, 31.200, 2, 100, 97, 27, 24187, -17529, 5130, 5235, 11, 14, 1526235052.157, 149, 0, 1024, 1024, 1024, 1024, 0, 6, 4023, 4039, 4034, 4024, 4032, 4044, 0, 1, 10207, -89.900, 0.000, 31.700, 0.000, 0.000, -2.900, 0.0, , , , , , 98, , , 0, 0, 0
37.7328339, -120.0946857, 14.500, 11:10:52.253, 19, 0.00, 0.26, 98, -1.000, 1.400, 31.200, 2, 100, 97, 27, 24187, -17529, 5130, 5235, 11, 14, 1526235052.253, 61, 0, 1024, 1024, 1024, 1024, 0, 6, 4023, 4039, 4034, 4024, 4032, 4044, 0, 1, 10303, -89.900, 0.000, 31.700, 0.000, 0.000, -2.900, 0.0, , , , , , 98, , , 0, 0, 0
37.7328339, -120.0946857, 14.800, 11:10:52.356, 19, 0.00, 0.26, 98, -1.000, 1.400, 31.200, 2, 100, 97, 27, 24187, -17529, 5130, 5235, 11, 14, 1526235052.357, 79, 0, 1024, 1024, 1024, 1024, 0, 6, 4023, 4039, 4034, 4024, 4032, 4044, 0, 1, 10407, -89.900, 0.000, 31.700, 0.000, 0.000, -2.900, 0.0, , , , , , 98, , , 0, 0, 0
37.7328340, -120.0946857, 15.100, 11:10:52.455, 19, 0.00, 0.26, 98, -0.900, 1.400, 31.200, 2, 100, 94, 27, 24257, -16504, 5130, 5235, 11, 14, 1526235052.456, 82, 0, 1024, 1024, 1024, 1024, 0, 6, 4036, 4054, 4041, 4039, 4029, 4056, 0, 1, 10506, -89.900, 0.000, 31.700, 0.000, 0.000, -2.900, 0.0, , , , , , 98, , , 0, 0, 0
37.7328340, -120.0946857, 15.400, 11:10:52.557, 19, 0.00, 0.26, 98, -0.900, 1.300, 31.300, 2, 100, 94, 27, 24257, -16504, 5130, 5235, 11, 14, 1526235052.558, 84, 0, 1024, 1024, 1024, 1024, 0, 6, 4036, 4054, 4041, 4039, 4029, 4056, 0, 1, 10608, -89.900, 0.000, 31.700, 0.000, 0.000, -2.800, 0.0, , , , , , 98, , , 0, 0, 0
37.7328341, -120.0946859, 16.300, 11:10:52.655, 19, 0.10, 0.25, 98, -0.700, 1.000, 31.200, 2, 100, 94, 27, 24257, -16504, 5130, 5235, 11, 14, 1526235052.658, 26, 0, 1024, 1024, 1024, 1024, 0, 6, 4036, 4054, 4041, 4039, 4029, 4056, 0, 1, 10708, -89.900, 0.000, 31.700, 0.000, -0.100, -2.900, 0.0, , , , , , 98, , , 0, 0, 0
37.7328341, -120.0946860, 16.600, 11:10:52.770, 19, 0.10, 0.24, 98, -0.500, 0.900, 31.200, 2, 100, 94, 27, 24257, -16504, 5130, 5235, 11, 14, 1526235052.771, 13, 0, 1024, 1024, 1024, 1024, 0, 6, 4036, 4054, 4041, 4039, 4029, 4056, 0, 1, 10821, -90.000, 0.000, 31.700, 0.000, -0.100, -2.900, 0.0, , , , , , 98, , , 0, 0, 0
37.7328341, -120.0946861, 16.800, 11:10:52.856, 19, 0.10, 0.24, 98, -0.300, 1.000, 31.100, 2, 100, 94, 27, 24257, -16504, 5130, 5235, 11, 14, 1526235052.857, 26, 0, 1024, 1024, 1024, 1024, 0, 6, 4036, 4054, 4041, 4039, 4029, 4056, 0, 1, 10907, -89.900, 0.000, 31.700, 0.000, -0.100, -2.800, 0.0, , , , , , 98, , , 0, 0, 0
37.7328342, -120.0946861, 17.100, 11:10:52.964, 19, 0.10, 0.23, 98, -0.200, 0.900, 31.100, 2, 100, 94, 27, 24257, -16504, 5130, 5235, 11, 14, 1526235052.965, 7, 0, 1024, 1024, 1024, 1024, 0, 6, 4036, 4054, 4041, 4039, 4029, 4056, 0, 1, 11014, -89.900, 0.000, 31.700, 0.000, -0.100, -2.800, 0.0, , , , , , 98, , , 0, 0, 0
37.7328342, -120.0946862, 17.400, 11:10:53.056, 19, 0.00, 0.23, 98, -0.100, 0.900, 31.000, 2, 100, 94, 27, 24257, -16504, 5130, 5235, 11, 14, 1526235053.057, 18, 0, 1024, 1024, 1024, 1024, 0, 6, 4036, 4054, 4041, 4039, 4029, 4056, 0, 1, 11107, -89.900, 0.000, 31.700, 0.000, 0.000, -2.900, 0.0, , , , , , 98, , , 0, 0, 0
37.7328342, -120.0946862, 17.400, 11:10:53.151, 19, 0.00, 0.23, 98, -0.100, 0.900, 31.000, 2, 100, 94, 27, 24257, -16504, 5130, 5235, 11, 14, 1526235053.152, 113, 0, 1024, 1024, 1024, 1024, 0, 6, 4036, 4054, 4041, 4039, 4029, 4056, 0, 1, 11202, -89.900, 0.000, 31.700, 0.000, 0.000, -2.900, 0.0, , , , , , 98, , , 0, 0, 0
37.7328342, -120.0946862, 17.700, 11:10:53.251, 19, 0.00, 0.23, 98, -0.300, 1.000, 30.900, 2, 100, 94, 27, 24257, -16504, 5130, 5235, 11, 14, 1526235053.252, 85, 0, 1024, 1024, 1024, 1024, 0, 6, 4036, 4054, 4041, 4039, 4029, 4056, 0, 1, 11301, -89.900, 0.000, 31.700, 0.000, 0.000, -2.900, 0.0, , , , , , 98, , , 0, 0, 0
37.7328342, -120.0946862, 18.000, 11:10:53.351, 19, 0.00, 0.23, 98, -0.400, 1.000, 30.800, 2, 100, 94, 27, 24208, -17407, 5130, 5235, 11, 14, 1526235053.351, 96, 0, 1024, 1024, 1024, 1024, 0, 6, 4027, 4044, 4042, 4025, 4023, 4038, 0, 1, 11401, -89.900, 0.000, 31.700, 0.000, 0.000, -3.000, 0.0, , , , , , 98, , , 0, 0, 0
37.7328343, -120.0946863, 18.300, 11:10:53.451, 19, 0.00, 0.22, 98, -0.500, 1.000, 30.800, 2, 100, 100, 27, 24208, -17407, 5130, 5235, 11, 14, 1526235053.451, 71, 0, 1024, 1024, 1024, 1024, 0, 6, 4027, 4044, 4042, 4025, 4023, 4038, 0, 1, 11501, -89.900, 0.000, 31.700, 0.000, 0.000, -3.000, 0.0, , , , , , 98, , , 0, 0, 0
37.7328344, -120.0946863, 18.900, 11:10:53.556, 19, 0.00, 0.22, 98, -0.500, 1.300, 30.800, 2, 100, 100, 27, 24208, -17407, 5130, 5235, 11, 14, 1526235053.556, 5, 0, 1024, 1024, 1024, 1024, 0, 6, 4027, 4044, 4042, 4025, 4023, 4038, 0, 1, 11606, -89.900, 0.000, 31.700, 0.000, 0.000, -3.000, 0.0, , , , , , 98, , , 0, 0, 0
37.7328344, -120.0946863, 18.900, 11:10:53.650, 19, 0.00, 0.22, 98, -0.500, 1.300, 30.800, 2, 100, 100, 27, 24208, -17407, 5130, 5235, 11, 14, 1526235053.651, 99, 0, 1024, 1024, 1024, 1024, 0, 6, 4027, 4044, 4042, 4025, 4023, 4038, 0, 1, 11701, -89.900, 0.000, 31.700, 0.000, 0.000, -3.000, 0.0, , , , , , 98, , , 0, 0, 0
37.7328344, -120.0946863, 19.200, 11:10:53.751, 19, 0.00, 0.23, 98, -0.500, 1.300, 30.900, 2, 100, 100, 27, 24208, -17407, 5130, 5235, 11, 14, 1526235053.751, 77, 0, 1024, 1024, 1024, 1024, 0, 6, 4027, 4044, 4042, 4025, 4023, 4038, 0, 1, 11801, -89.900, 0.000, 31.700, 0.000, 0.000, -3.000, 0.0, , , , , , 98, , , 0, 0, 0
37.7328345, -120.0946864, 19.500, 11:10:53.850, 19, 0.00, 0.22, 98, -0.500, 1.400, 30.900, 2, 100, 100, 27, 24208, -17407, 5130, 5235, 11, 14, 1526235053.851, 68, 0, 1024, 1024, 1024, 1024, 0, 6, 4027, 4044, 4042, 4025, 4023, 4038, 0, 1, 11900, -89.900, 0.000, 31.700, 0.000, 0.000, -2.900, 0.0, , , , , , 98, , , 0, 0, 0
37.7328345, -120.0946864, 19.800, 11:10:53.950, 19, 0.00, 0.22, 98, -0.600, 1.400, 31.000, 2, 100, 100, 27, 24208, -17407, 5130, 5235, 11, 14, 1526235053.952, 64, 0, 1024, 1024, 1024, 1024, 0, 6, 4027, 4044, 4042, 4025, 4023, 4038, 0, 1, 12001, -89.900, 0.000, 31.700, 0.000, 0.000, -2.900, 0.0, , , , , , 98, , , 0, 0, 0
37.7328345, -120.0946864, 20.100, 11:10:54.050, 19, 0.00, 0.22, 98, -0.600, 1.300, 31.100, 2, 100, 100, 27, 24208, -17407, 5130, 5235, 11, 14, 1526235054.051, 52, 0, 1024, 1024, 1024, 1024, 0, 6, 4027, 4044, 4042, 4025, 4023, 4038, 0, 1, 12101, -89.900, 0.000, 31.700, 0.000, 0.000, -2.900, 0.0, , , , , , 98, , , 0, 0, 0
37.7328345, -120.0946865, 20.400, 11:10:54.151, 19, 0.00, 0.22, 98, -0.700, 1.200, 31.100, 2, 100, 100, 27, 24208, -17407, 5130, 5235, 11, 14, 1526235054.152, 77, 0, 1024, 1024, 1024, 1024, 0, 6, 4027, 4044, 4042, 4025, 4023, 4038, 0, 1, 12202, -89.900, 0.000, 31.700, 0.000, 0.000, -2.900, 0.0, , , , , , 98, , , 0, 0, 0
37.7328345, -120.0946865, 20.700, 11:10:54.251, 19, 0.00, 0.21, 98, -0.700, 1.100, 31.100, 2, 100, 100, 27, 24208, -17407, 5130, 5235, 11, 14, 1526235054.252, 20, 0, 1024, 1024, 1024, 1024, 0, 6, 4027, 4044, 4042, 4025, 4023, 4038, 0, 1, 12302, -89.900, 0.000, 31.700, 0.000, 0.000, -2.900, 0.0, , , , , , 98, , , 0, 0, 0
37.7328345, -120.0946866, 21.000, 11:10:54.351, 19, 0.00, 0.21, 98, -0.400, 1.100, 31.100, 2, 100, 100, 27, 24121, -17874, 5130, 5235, 11, 14, 1526235054.352, 60, 0, 1024, 1024, 1024, 1024, 0, 6, 4015, 4024, 4029, 4008, 4000, 4032, 0, 1, 12402, -89.900, 0.000, 31.700, 0.000, 0.000, -2.900, 0.0, , , , , , 98, , , 0, 0, 0
37.7328345, -120.0946867, 21.300, 11:10:54.450, 19, 0.00, 0.20, 98, -0.200, 1.000, 31.100, 2, 100, 100, 27, 24121, -17874, 5130, 5235, 11, 14, 1526235054.452, 53, 0, 1024, 1024, 1024, 1024, 0, 6, 4015, 4024, 4029, 4008, 4000, 4032, 0, 1, 12502, -89.900, 0.000, 31.700, 0.000, 0.000, -2.900, 0.0, , , , , , 98, , , 0, 0, 0
37.7328345, -120.0946868, 21.600, 11:10:54.551, 19, 0.00, 0.19, 98, -0.100, 1.000, 31.100, 2, 100, 100, 27, 24121, -17874, 5130, 5235, 11, 14, 1526235054.553, 34, 0, 1024, 1024, 1024, 1024, 0, 6, 4015, 4024, 4029, 4008, 4000, 4032, 0, 1, 12602, -89.900, 0.000, 31.700, 0.000, 0.000, -2.900, 0.0, , , , , , 98, , , 0, 0, 0
37.7328345, -120.0946869, 21.900, 11:10:54.651, 19, 0.00, 0.19, 98, 0.000, 1.000, 31.100, 2, 100, 100, 27, 24121, -17874, 5130, 5235, 11, 14, 1526235054.652, 36, 0, 1024, 1024, 1024, 1024, 0, 6, 4015, 4024, 4029, 4008, 4000, 4032, 0, 1, 12702, -90.000, 0.000, 31.700, 0.000, 0.000, -2.900, 0.0, , , , , , 98, , , 0, 0, 0
37.7328345, -120.0946870, 22.200, 11:10:54.751, 19, 0.00, 0.18, 98, 0.000, 0.900, 31.100, 2, 100, 100, 27, 24121, -17874, 5130, 5235, 11, 14, 1526235054.752, 38, 0, 1024, 1024, 1024, 1024, 0, 6, 4015, 4024, 4029, 4008, 4000, 4032, 0, 1, 12802, -89.900, 0.000, 31.700, 0.000, 0.000, -2.900, 0.0, , , , , , 98, , , 0, 0, 0
37.7328345, -120.0946872, 22.800, 11:10:54.851, 19, 0.00, 0.17, 98, 0.300, 0.800, 31.000, 2, 100, 100, 27, 24121, -17874, 5130, 5235, 11, 14, 1526235054.853, 28, 0, 1024, 1024, 1024, 1024, 0, 6, 4015, 4024, 4029, 4008, 4000, 4032, 0, 1, 12902, -90.000, 0.000, 31.700, 0.000, 0.000, -3.000, 0.0, , , , , , 98, , , 0, 0, 0
37.7328345, -120.0946873, 23.100, 11:10:54.962, 19, 0.00, 0.16, 98, 0.300, 0.800, 31.000, 2, 100, 100, 27, 24121, -17874, 5130, 5235, 11, 14, 1526235054.962, 9, 0, 1024, 1024, 1024, 1024, 0, 6, 4015, 4024, 4029, 4008, 4000, 4032, 0, 1, 13012, -90.000, 0.000, 31.700, 0.000, 0.000, -2.900, 0.0, , , , , , 98, , , 0, 0, 0
37.7328345, -120.0946874, 23.400, 11:10:55.055, 19, 0.00, 0.15, 98, 0.300, 0.700, 31.000, 2, 100, 100, 27, 24121, -17874, 5130, 5235, 11, 14, 1526235055.055, 13, 0, 1024, 1024, 1024, 1024, 0, 6, 4015, 4024, 4029, 4008, 4000, 4032, 0, 1, 13105, -90.000, 0.000, 31.700, 0.000, 0.000, -3.000, 0.0, , , , , , 98, , , 0, 0, 0
37.7328345, -120.0946874, 23.400, 11:10:55.152, 19, 0.00, 0.15, 98, 0.300, 0.700, 31.000, 2, 100, 100, 27, 24121, -17874, 5130, 5235, 11, 14, 1526235055.153, 110, 0, 1024, 1024, 1024, 1024, 0, 6, 4015, 4024, 4029, 4008, 4000, 4032, 0, 1, 13202, -90.000, 0.000, 31.700, 0.000, 0.000, -3.000, 0.0, , , , , , 98, , , 0, 0, 0
37.7328345, -120.0946875, 23.700, 11:10:55.256, 19, 0.00, 0.14, 98, 0.300, 0.600, 31.000, 2, 100, 100, 27, 24121, -17874, 5130, 5235, 11, 14, 1526235055.259, 102, 0, 1024, 1024, 1024, 1024, 0, 6, 4015, 4024, 4029, 4008, 4000, 4032, 0, 1, 13309, -90.000, 0.000, 31.700, 0.000, 0.000, -3.000, 0.0, , , , , , 98, , , 0, 0, 0
37.7328344, -120.0946876, 24.300, 11:10:55.359, 19, 0.00, 0.14, 98, 0.100, 0.600, 31.100, 2, 100, 100, 27, 24130, -17292, 5077, 5235, 11, 14, 1526235055.360, 13, 0, 1024, 1024, 1024, 1024, 0, 6, 4015, 4021, 4026, 4010, 4015, 4033, 0, 1, 13410, -90.000, 0.000, 31.700, 0.000, 0.000, -3.000, 0.0, , , , , , 98, , , 0, 0, 0
37.7328344, -120.0946876, 24.600, 11:10:55.454, 19, 0.00, 0.14, 98, 0.000, 0.700, 31.100, 2, 100, 100, 27, 24130, -17292, 5077, 5235, 11, 14, 1526235055.455, 6, 0, 1024, 1024, 1024, 1024, 0, 6, 4015, 4021, 4026, 4010, 4015, 4033, 0, 1, 13505, -89.900, 0.000, 31.700, 0.000, 0.000, -3.000, 0.0, , , , , , 98, , , 0, 0, 0
37.7328344, -120.0946876, 24.900, 11:10:55.552, 19, 0.00, 0.14, 98, -0.100, 0.900, 31.100, 2, 100, 100, 27, 24130, -17292, 5077, 5235, 11, 14, 1526235055.552, 7, 0, 1024, 1024, 1024, 1024, 0, 6, 4015, 4021, 4026, 4010, 4015, 4033, 0, 1, 13602, -89.900, 0.000, 31.700, 0.000, 0.000, -2.900, 0.0, , , , , , 98, , , 0, 0, 0
37.7328344, -120.0946876, 24.900, 11:10:55.652, 19, 0.00, 0.14, 98, -0.100, 0.900, 31.100, 2, 100, 100, 27, 24130, -17292, 5077, 5235, 11, 14, 1526235055.653, 107, 0, 1024, 1024, 1024, 1024, 0, 6, 4015, 4021, 4026, 4010, 4015, 4033, 0, 1, 13703, -89.900, 0.000, 31.700, 0.000, 0.000, -2.900, 0.0, , , , , , 98, , , 0, 0, 0
37.7328344, -120.0946876, 25.200, 11:10:55.751, 19, 0.00, 0.13, 98, 0.000, 1.100, 31.100, 2, 100, 100, 27, 24130, -17292, 5077, 5235, 11, 14, 1526235055.751, 71, 0, 1024, 1024, 1024, 1024, 0, 6, 4015, 4021, 4026, 4010, 4015, 4033, 0, 1, 13801, -89.900, 0.000, 31.700, 0.000, 0.000, -3.000, 0.0, , , , , , 98, , , 0, 0, 0
37.7328344, -120.0946876, 25.500, 11:10:55.850, 19, 0.00, 0.13, 98, 0.000, 0.900, 31.000, 2, 100, 100, 27, 24130, -17292, 5077, 5235, 11, 14, 1526235055.852, 77, 0, 1024, 1024, 1024, 1024, 0, 6, 4015, 4021, 4026, 4010, 4015, 4033, 0, 1, 13902, -90.000, 0.000, 31.700, 0.000, 0.000, -3.000, 0.0, , , , , , 98, , , 0, 0, 0
37.7328343, -120.0946877, 25.800, 11:10:55.951, 19, 0.00, 0.12, 98, 0.000, 0.700, 30.900, 2, 100, 100, 27, 24130, -17292, 5077, 5235, 11, 14, 1526235055.953, 66, 0, 1024, 1024, 1024, 1024, 0, 6, 4015, 4021, 4026, 4010, 4015, 4033, 0, 1, 14002, -90.000, 0.000, 31.700, 0.000, 0.000, -3.000, 0.0, , , , , , 98, , , 0, 0, 0
37.7328343, -120.0946877, 26.100, 11:10:56.050, 19, 0.00, 0.12, 98, 0.000, 0.600, 30.800, 2, 100, 100, 27, 24130, -17292, 5077, 5235, 11, 14, 1526235056.052, 55, 0, 1024, 1024, 1024, 1024, 0, 6, 4015, 4021, 4026, 4010, 4015, 4033, 0, 1, 14102, -90.000, 0.000, 31.700, 0.000, 0.000, -3.000, 0.0, , , , , , 98, , , 0, 0, 0
37.7328342, -120.0946877, 26.400, 11:10:56.151, 19, 0.00, 0.11, 98, -0.100, 0.500, 30.700, 2, 100, 100, 27, 24130, -17292, 5077, 5235, 11, 14, 1526235056.151, 59, 0, 1024, 1024, 1024, 1024, 0, 6, 4015, 4021, 4026, 4010, 4015, 4033, 0, 1, 14201, -90.000, 0.000, 31.700, 0.000, 0.000, -3.000, 0.0, , , , , , 98, , , 0, 0, 0
37.7328342, -120.0946877, 26.700, 11:10:56.250, 19, 0.00, 0.11, 98, -0.100, 0.600, 30.700, 2, 100, 100, 27, 24130, -17292, 5077, 5235, 11, 14, 1526235056.251, 38, 0, 1024, 1024, 1024, 1024, 0, 6, 4015, 4021, 4026, 4010, 4015, 4033, 0, 1, 14300, -90.000, 0.000, 31.700, 0.000, 0.000, -3.000, 0.0, , , , , , 98, , , 0, 0, 0
37.7328342, -120.0946877, 27.000, 11:10:56.350, 19, 0.00, 0.11, 97, -0.300, 0.600, 30.700, 2, 100, 100, 27, 24105, -17598, 5077, 5235, 11, 14, 1526235056.352, 46, 0, 1024, 1024, 1024, 1024, 0, 6, 4015, 4021, 4026, 4010, 4015, 4033, 0, 1, 14401, -89.900, 0.000, 31.700, 0.000, 0.000, -2.900, 0.0, , , , , , 98, , , 0, 0, 0
37.7328341, -120.0946877, 27.300, 11:10:56.452, 19, 0.00, 0.11, 97, -0.500, 0.800, 30.700, 2, 100, 100, 27, 24105, -17598, 5077, 5235, 11, 14, 1526235056.453, 50, 0, 1024, 1024, 1024, 1024, 0, 6, 4015, 4021, 4026, 4010, 4015, 4033, 0, 1, 14503, -90.000, 0.000, 31.700, 0.000, 0.000, -3.000, 0.0, , , , , , 98, , , 0, 0, 0
37.7328341, -120.0946877, 27.600, 11:10:56.551, 19, 0.00, 0.10, 97, -0.500, 0.700, 30.600, 2, 100, 100, 27, 24105, -17598, 5077, 5235, 11, 14, 1526235056.553, 48, 0, 1024, 1024, 1024, 1024, 0, 6, 4015, 4021, 4026, 4010, 4015, 4033, 0, 1, 14602, -90.000, 0.000, 31.700, 0.000, 0.000, -3.000, 0.0, , , , , , 98, , , 0, 0, 0
37.7328340, -120.0946876, 28.000, 11:10:56.651, 19, 0.00, 0.10, 97, -0.400, 0.600, 30.600, 2, 100, 100, 27, 24105, -17598, 5077, 5235, 11, 14, 1526235056.652, 46, 0, 1024, 1024, 1024, 1024, 0, 6, 4015, 4021, 4026, 4010, 4015, 4033, 0, 1, 14702, -90.000, 0.000, 31.700, 0.000, 0.000, -3.100, 0.0, , , , , , 98, , , 0, 0, 0
37.7328339, -120.0946876, 28.300, 11:10:56.753, 19, 0.00, 0.10, 97, -0.600, 0.400, 30.600, 2, 100, 100, 27, 24105, -17598, 5077, 5235, 11, 14, 1526235056.754, 38, 0, 1024, 1024, 1024, 1024, 0, 6, 4015, 4021, 4026, 4010, 4015, 4033, 0, 1, 14804, -90.000, 0.000, 31.700, 0.000, 0.000, -3.000, 0.0, , , , , , 98, , , 0, 0, 0
37.7328339, -120.0946875, 28.600, 11:10:56.851, 19, 0.00, 0.11, 97, -0.900, 0.400, 30.600, 2, 100, 100, 27, 24105, -17598, 5077, 5235, 11, 14, 1526235056.852, 30, 0, 1024, 1024, 1024, 1024, 0, 6, 4010, 4025, 4022, 4012, 4001, 4026, 0, 1, 14901, -90.000, 0.000, 31.700, 0.000, 0.000, -3.000, 0.0, , , , , , 98, , , 0, 0, 0
37.7328338, -120.0946874, 29.200, 11:10:56.951, 19, 0.00, 0.12, 97, -0.900, 0.600, 30.500, 2, 100, 100, 27, 24105, -17598, 5077, 5235, 11, 14, 1526235056.952, 19, 0, 1024, 1024, 1024, 1024, 0, 6, 4010, 4025, 4022, 4012, 4001, 4026, 0, 1, 15002, -89.900, 0.000, 31.700, 0.000, 0.000, -2.900, 0.0, , , , , , 98, , , 0, 0, 0
37.7328338, -120.0946873, 29.500, 11:10:57.055, 19, 0.00, 0.12, 97, -0.800, 0.700, 30.300, 2, 100, 100, 27, 24105, -17598, 5077, 5235, 11, 14, 1526235057.055, 25, 0, 1024, 1024, 1024, 1024, 0, 6, 4010, 4025, 4022, 4012, 4001, 4026, 0, 1, 15105, -89.900, 0.000, 31.700, 0.000, 0.000, -2.900, 0.0, , , , , , 98, , , 0, 0, 0
37.7328337, -120.0946871, 29.800, 11:10:57.152, 19, 0.10, 0.13, 97, -1.600, 0.700, 30.200, 2, 100, 100, 27, 24105, -17598, 5077, 5235, 11, 14, 1526235057.153, 27, 0, 1024, 1024, 1024, 1024, 0, 6, 4010, 4025, 4022, 4012, 4001, 4026, 0, 1, 15202, -89.900, 0.000, 31.700, 0.000, 0.100, -3.100, 0.0, , , , , , 98, , , 0, 0, 0
37.7328337, -120.0946871, 29.800, 11:10:57.257, 19, 0.10, 0.13, 97, -1.600, 0.700, 30.200, 2, 100, 100, 27, 24105, -17598, 5077, 5235, 11, 14, 1526235057.259, 133, 0, 1024, 1024, 1024, 1024, 0, 6, 4010, 4025, 4022, 4012, 4001, 4026, 0, 1, 15308, -89.900, 0.000, 31.700, 0.000, 0.100, -3.100, 0.0, , , , , , 98, , , 0, 0, 0
37.7328337, -120.0946871, 29.800, 11:10:57.352, 19, 0.10, 0.13, 97, -1.600, 0.700, 30.200, 2, 100, 100, 27, 24105, -17598, 5077, 5235, 11, 14, 1526235057.354, 228, 0, 1024, 1024, 1024, 1024, 0, 6, 4010, 4025, 4022, 4012, 4001, 4026, 0, 1, 15403, -89.900, 0.000, 31.700, 0.000, 0.100, -3.100, 0.0, , , , , , 98, , , 0, 0, 0
37.7328335, -120.0946865, 30.800, 11:10:57.455, 19, 0.10, 0.19, 97, -3.800, 0.900, 30.700, 2, 100, 100, 27, 24105, -17598, 5077, 5235, 11, 14, 1526235057.456, 8, 0, 1024, 1024, 1024, 1024, 0, 6, 4010, 4025, 4022, 4012, 4001, 4026, 0, 1, 15506, -89.900, 0.000, 31.700, 0.000, 0.100, -3.000, 0.0, , , , , , 98, , , 0, 0, 0
37.7328335, -120.0946865, 30.800, 11:10:57.551, 19, 0.10, 0.19, 97, -3.800, 0.900, 30.700, 2, 100, 100, 27, 24105, -17598, 5077, 5235, 11, 14, 1526235057.551, 103, 0, 1024, 1024, 1024, 1024, 0, 6, 4010, 4025, 4022, 4012, 4001, 4026, 0, 1, 15601, -89.900, 0.000, 31.700, 0.000, 0.100, -3.000, 0.0, , , , , , 98, , , 0, 0, 0
37.7328334, -120.0946863, 31.100, 11:10:57.652, 19, 0.10, 0.21, 97, -4.000, 1.300, 30.900, 2, 100, 100, 27, 24105, -17598, 5077, 5235, 11, 14, 1526235057.652, 94, 0, 1024, 1024, 1024, 1024, 0, 6, 4010, 4025, 4022, 4012, 4001, 4026, 0, 1, 15702, -89.900, 0.000, 31.700, 0.000, 0.100, -2.900, 0.0, , , , , , 98, , , 0, 0, 0
37.7328334, -120.0946861, 31.400, 11:10:57.750, 19, 0.10, 0.22, 97, -4.100, 1.600, 30.900, 2, 100, 100, 27, 24105, -17598, 5077, 5235, 11, 14, 1526235057.751, 95, 0, 1024, 1024, 1024, 1024, 0, 6, 4010, 4025, 4022, 4012, 4001, 4026, 0, 1, 15801, -89.900, 0.000, 31.700, 0.000, 0.100, -2.900, 0.0, , , , , , 98, , , 0, 0, 0
37.7328333, -120.0946859, 31.700, 11:10:57.850, 19, 0.10, 0.24, 97, -4.200, 1.900, 30.900, 2, 100, 100, 27, 24105, -17598, 5077, 5235, 11, 14, 1526235057.852, 87, 0, 1024, 1024, 1024, 1024, 0, 6, 4010, 4025, 4022, 4012, 4001, 4026, 0, 1, 15902, -89.900, 0.000, 31.700, 0.000, 0.100, -2.900, 0.0, , , , , , 98, , , 0, 0, 0
37.7328333, -120.0946857, 32.000, 11:10:57.951, 19, 0.00, 0.26, 97, -4.300, 1.800, 30.900, 2, 100, 100, 27, 24086, -17240, 5077, 5235, 11, 14, 1526235057.952, 72, 0, 1024, 1024, 1024, 1024, 0, 6, 4009, 4023, 4019, 4014, 4010, 4025, 0, 1, 16002, -89.900, 0.000, 31.700, 0.000, 0.000, -2.900, 0.0, , , , , , 98, , , 0, 0, 0
37.7328332, -120.0946856, 32.300, 11:10:58.051, 19, 0.00, 0.27, 97, -4.300, 1.600, 30.800, 2, 100, 100, 27, 24086, -17240, 5077, 5235, 11, 14, 1526235058.052, 73, 0, 1024, 1024, 1024, 1024, 0, 6, 4009, 4023, 4019, 4014, 4010, 4025, 0, 1, 16101, -89.900, 0.000, 31.700, 0.000, 0.000, -2.900, 0.0, , , , , , 98, , , 0, 0, 0
37.7328332, -120.0946855, 32.600, 11:10:58.151, 19, 0.00, 0.28, 97, -4.300, 1.300, 30.800, 2, 100, 100, 27, 24086, -17240, 5077, 5235, 11, 14, 1526235058.153, 74, 0, 1024, 1024, 1024, 1024, 0, 6, 4009, 4023, 4019, 4014, 4010, 4025, 0, 1, 16202, -90.000, 0.000, 31.700, 0.000, 0.000, -2.900, 0.0, , , , , , 98, , , 0, 0, 0
37.7328331, -120.0946854, 32.900, 11:10:58.256, 19, 0.00, 0.29, 97, -4.300, 0.900, 30.900, 2, 100, 100, 27, 24086, -17240, 5077, 5235, 11, 14, 1526235058.256, 92, 0, 1024, 1024, 1024, 1024, 0, 6, 4009, 4023, 4019, 4014, 4010, 4025, 0, 1, 16306, -90.000, 0.000, 31.700, 0.000, 0.000, -2.800, 0.0, , , , , , 98, , , 0, 0, 0
37.7328330, -120.0946854, 33.200, 11:10:58.350, 19, 0.00, 0.29, 97, -3.900, 0.300, 31.000, 2, 100, 100, 27, 24086, -17240, 5077, 5235, 11, 14, 1526235058.351, 67, 0, 1024, 1024, 1024, 1024, 0, 6, 4009, 4023, 4019, 4014, 4010, 4025, 0, 1, 16401, -90.000, 0.000, 31.700, 0.000, 0.000, -2.800, 0.0, , , , , , 98, , , 0, 0, 0
37.7328329, -120.0946855, 33.500, 11:10:58.451, 19, 0.00, 0.29, 97, -3.500, 0.000, 31.100, 2, 100, 100, 27, 24086, -17240, 5077, 5235, 11, 14, 1526235058.452, 49, 0, 1024, 1024, 1024, 1024, 0, 6, 4009, 4023, 4019, 4014, 4010, 4025, 0, 1, 16501, -90.000, 0.000, 31.700, 0.000, 0.000, -2.800, 0.0, , , , , , 98, , , 0, 0, 0
37.7328328, -120.0946855, 33.800, 11:10:58.550, 19, 0.00, 0.28, 97, -3.300, -0.300, 31.300, 2, 100, 100, 27, 24086, -17240, 5077, 5235, 11, 14, 1526235058.552, 57, 0, 1024, 1024, 1024, 1024, 0, 6, 4009, 4023, 4019, 4014, 4010, 4025, 0, 1, 16602, -90.000, 0.000, 31.700, 0.000, 0.000, -2.800, 0.0, , , , , , 98, , , 0, 0, 0
37.7328328, -120.0946855, 33.800, 11:10:58.650, 19, 0.00, 0.28, 97, -3.300, -0.300, 31.300, 2, 100, 100, 27, 24086, -17240, 5077, 5235, 11, 14, 1526235058.652, 157, 0, 1024, 1024, 1024, 1024, 0, 6, 4009, 4023, 4019, 4014, 4010, 4025, 0, 1, 16702, -90.000, 0.000, 31.700, 0.000, 0.000, -2.800, 0.0, , , , , , 98, , , 0, 0, 0
37.7328328, -120.0946856, 34.300, 11:10:58.750, 19, 0.00, 0.28, 97, -3.300, 0.000, 31.500, 2, 100, 100, 27, 24086, -17240, 5077, 5235, 11, 14, 1526235058.753, 38, 0, 1024, 1024, 1024, 1024, 0, 6, 4009, 4023, 4019, 4014, 4010, 4025, 0, 1, 16803, -90.000, 0.000, 31.700, 0.000, 0.000, -2.700, 0.0, , , , , , 98, , , 0, 0, 0
37.7328328, -120.0946856, 34.600, 11:10:58.851, 19, 0.00, 0.28, 97, -3.100, 0.000, 31.600, 2, 100, 95, 27, 24193, -15841, 5077, 5235, 11, 14, 1526235058.851, 38, 0, 1024, 1024, 1024, 1024, 0, 6, 4027, 4038, 4029, 4032, 4021, 4035, 0, 1, 16901, -90.000, 0.000, 31.700, 0.000, 0.000, -2.700, 0.0, , , , , , 98, , , 0, 0, 0
37.7328328, -120.0946856, 34.800, 11:10:58.951, 19, 0.00, 0.28, 97, -3.000, 0.000, 31.600, 2, 100, 95, 27, 24193, -15841, 5077, 5235, 11, 14, 1526235058.953, 17, 0, 1024, 1024, 1024, 1024, 0, 6, 4027, 4038, 4029, 4032, 4021, 4035, 0, 1, 17003, -90.000, 0.000, 31.700, 0.000, 0.000, -2.700, 0.0, , , , , , 98, , , 0, 0, 0
37.7328328, -120.0946856, 34.800, 11:10:59.051, 19, 0.00, 0.28, 97, -3.000, 0.000, 31.600, 2, 100, 95, 27, 24193, -15841, 5077, 5235, 11, 14, 1526235059.053, 117, 0, 1024, 1024, 1024, 1024, 0, 6, 4027, 4038, 4029, 4032, 4021, 4035, 0, 1, 17103, -90.000, 0.000, 31.700, 0.000, 0.000, -2.700, 0.0, , , , , , 98, , , 0, 0, 0
37.7328328, -120.0946857, 35.300, 11:10:59.155, 19, 0.00, 0.27, 97, -2.800, 0.000, 31.400, 2, 100, 95, 27, 24193, -15841, 5077, 5235, 11, 14, 1526235059.155, 11, 0, 1024, 1024, 1024, 1024, 0, 6, 4027, 4038, 4029, 4032, 4021, 4035, 0, 1, 17205, -90.000, 0.000, 31.700, 0.000, 0.000, -2.800, 0.0, , , , , , 98, , , 0, 0, 0
37.7328328, -120.0946858, 35.800, 11:10:59.250, 19, 0.00, 0.26, 97, -2.600, 0.000, 31.200, 2, 100, 95, 27, 24193, -15841, 5077, 5235, 11, 14, 1526235059.252, 25, 0, 1024, 1024, 1024, 1024, 0, 6, 4027, 4038, 4029, 4032, 4021, 4035, 0, 1, 17302, -90.000, 0.000, 31.700, 0.000, 0.000, -2.900, 0.0, , , , , , 98, , , 0, 0, 0
37.7328329, -120.0946859, 36.100, 11:10:59.356, 19, 0.00, 0.25, 97, -2.500, 0.100, 31.200, 2, 100, 94, 27, 24193, -15841, 5077, 5235, 11, 14, 1526235059.357, 16, 0, 1024, 1024, 1024, 1024, 0, 6, 4027, 4038, 4029, 4032, 4021, 4035, 0, 1, 17407, -90.000, 0.000, 31.700, 0.000, 0.000, -2.900, 0.0, , , , , , 98, , , 0, 0, 0
37.7328329, -120.0946859, 36.100, 11:10:59.461, 19, 0.00, 0.25, 97, -2.500, 0.100, 31.200, 2, 100, 94, 27, 24193, -15841, 5077, 5235, 11, 14, 1526235059.461, 120, 0, 1024, 1024, 1024, 1024, 0, 6, 4027, 4038, 4029, 4032, 4021, 4035, 0, 1, 17511, -89.900, 0.000, 31.700, 0.000, 0.000, -2.900, 0.0, , , , , , 98, , , 0, 0, 0
37.7328329, -120.0946860, 36.400, 11:10:59.551, 19, 0.00, 0.24, 97, -2.400, 0.200, 31.200, 2, 100, 94, 27, 24193, -15841, 5077, 5235, 11, 14, 1526235059.552, 87, 0, 1024, 1024, 1024, 1024, 0, 6, 4027, 4038, 4029, 4032, 4021, 4035, 0, 1, 17601, -89.900, 0.000, 31.700, 0.000, 0.000, -2.900, 0.0, , , , , , 98, , , 0, 0, 0
37.7328330, -120.0946861, 36.900, 11:10:59.651, 19, 0.00, 0.23, 97, -2.400, 0.300, 31.200, 2, 100, 94, 27, 24193, -15841, 5077, 5235, 11, 14, 1526235059.653, 20, 0, 1024, 1024, 1024, 1024, 0, 6, 4027, 4038, 4029, 4032, 4021, 4035, 0, 1, 17703, -89.900, 0.000, 31.700, 0.000, 0.000, -3.000, 0.0, , , , , , 98, , , 0, 0, 0
37.7328330, -120.0946861, 37.200, 11:10:59.751, 19, 0.00, 0.23, 97, -2.400, 0.100, 31.200, 2, 100, 94, 27, 24185, -15815, 5077, 5235, 11, 14, 1526235059.752, 12, 0, 1024, 1024, 1024, 1024, 0, 6, 4015, 4025, 4025, 4032, 4021, 4035, 0, 1, 17801, -90.000, 0.000, 31.700, 0.000, 0.000, -3.100, 0.0, , , , , , 98, , , 0, 0, 0
37.7328330, -120.0946862, 37.500, 11:10:59.859, 19, 0.00, 0.22, 97, -2.500, 0.000, 31.200, 2, 100, 93, 27, 24185, -15815, 5077, 5235, 11, 14, 1526235059.859, 19, 0, 1024, 1024, 1024, 1024, 0, 6, 4015, 4025, 4025, 4032, 4021, 4035, 0, 1, 17909, -90.000, 0.000, 31.700, 0.000, 0.000, -3.100, 0.0, , , , , , 98, , , 0, 0, 0
37.7328330, -120.0946862, 37.800, 11:10:59.963, 19, 0.00, 0.22, 97, -2.600, -0.100, 31.100, 2, 100, 93, 27, 24185, -15815, 5077, 5235, 11, 14, 1526235059.963, 5, 0, 1024, 1024, 1024, 1024, 0, 6, 4015, 4025, 4025, 4032, 4021, 4035, 0, 1, 18013, -90.000, 0.000, 31.700, 0.000, 0.000, -3.000, 0.0, , , , , , 98, , , 0, 0, 0
37.7328330, -120.0946862, 37.800, 11:11:00.055, 19, 0.00, 0.22, 97, -2.600, -0.100, 31.100, 2, 100, 93, 27, 24185, -15815, 5077, 5235, 11, 14, 1526235060.057, 99, 0, 1024, 1024, 1024, 1024, 0, 6, 4015, 4025, 4025, 4032, 4021, 4035, 0, 1, 18106, -90.000, 0.000, 31.700, 0.000, 0.000, -3.000, 0.0, , , , , , 98, , , 0, 0, 0
37.7328330, -120.0946863, 38.100, 11:11:00.153, 19, 0.00, 0.22, 97, -2.600, -0.100, 30.900, 2, 100, 93, 27, 24185, -15815, 5077, 5235, 11, 14, 1526235060.154, 76, 0, 1024, 1024, 1024, 1024, 0, 6, 4015, 4025, 4025, 4032, 4021, 4035, 0, 1, 18204, -90.000, 0.000, 31.700, 0.000, 0.000, -3.000, 0.0, , , , , , 98, , , 0, 0, 0
37.7328330, -120.0946863, 38.400, 11:11:00.250, 19, 0.00, 0.21, 97, -2.800, 0.000, 30.800, 2, 100, 93, 27, 24185, -15815, 5077, 5235, 11, 14, 1526235060.251, 44, 0, 1024, 1024, 1024, 1024, 0, 6, 4015, 4025, 4025, 4032, 4021, 4035, 0, 1, 18301, -90.000, 0.000, 31.700, 0.000, 0.000, -3.100, 0.0, , , , , , 98, , , 0, 0, 0
37.7328330, -120.0946863, 38.700, 11:11:00.356, 19, 0.00, 0.21, 97, -3.000, 0.000, 30.800, 2, 100, 93, 27, 24185, -15815, 5077, 5235, 11, 14, 1526235060.357, 65, 0, 1024, 1024, 1024, 1024, 0, 6, 4015, 4025, 4025, 4032, 4021, 4035, 0, 1, 18407, -89.900, 0.000, 31.700, 0.000, 0.000, -3.100, 0.0, , , , , , 98, , , 0, 0, 0
37.7328329, -120.0946863, 39.000, 11:11:00.457, 19, 0.00, 0.21, 97, -3.300, 0.000, 30.900, 2, 100, 98, 27, 24185, -15815, 5077, 5235, 11, 14, 1526235060.458, 50, 0, 1024, 1024, 1024, 1024, 0, 6, 4015, 4025, 4025, 4032, 4021, 4035, 0, 1, 18508, -90.000, 0.000, 31.700, 0.000, 0.000, -3.100, 0.0, , , , , , 98, , , 0, 0, 0
37.7328329, -120.0946863, 39.300, 11:11:00.551, 19, 0.00, 0.21, 97, -3.600, 0.000, 31.000, 2, 100, 98, 27, 24185, -15815, 5077, 5235, 11, 14, 1526235060.551, 57, 0, 1024, 1024, 1024, 1024, 0, 6, 4015, 4025, 4025, 4032, 4021, 4035, 0, 1, 18601, -89.900, 0.000, 31.700, 0.000, 0.000, -3.100, 0.0, , , , , , 98, , , 0, 0, 0
37.7328328, -120.0946864, 39.600, 11:11:00.656, 19, 0.00, 0.21, 97, -3.500, -0.100, 31.100, 2, 100, 98, 27, 24185, -15815, 5077, 5235, 11, 14, 1526235060.656, 87, 0, 1024, 1024, 1024, 1024, 0, 6, 4015, 4025, 4025, 4032, 4021, 4035, 0, 1, 18706, -89.900, 0.000, 31.700, 0.000, 0.000, -3.100, 0.0, , , , , , 98, , , 0, 0, 0
37.7328328, -120.0946864, 39.900, 11:11:00.750, 19, 0.00, 0.21, 97, -3.400, -0.200, 31.200, 2, 100, 98, 27, 24185, -15815, 5077, 5235, 11, 14, 1526235060.751, 75, 0, 1024, 1024, 1024, 1024, 0, 6, 4015, 4025, 4025, 4032, 4021, 4035, 0, 1, 18801, -90.000, 0.000, 31.700, 0.000, 0.000, -3.000, 0.0, , , , , , 98, , , 0, 0, 0
37.7328327, -120.0946864, 40.200, 11:11:00.858, 19, 0.00, 0.21, 97, -3.300, -0.300, 31.300, 2, 100, 98, 27, 24007, -17683, 5077, 5235, 11, 14, 1526235060.858, 49, 0, 1024, 1024, 1024, 1024, 0, 6, 3987, 4011, 4011, 3995, 3996, 4021, 0, 1, 18908, -89.900, 0.000, 31.700, 0.000, 0.000, -3.000, 0.0, , , , , , 98, , , 0, 0, 0
37.7328327, -120.0946865, 40.500, 11:11:00.955, 19, 0.00, 0.21, 97, -3.200, -0.300, 31.200, 2, 100, 98, 27, 24007, -17683, 5077, 5235, 11, 14, 1526235060.957, 45, 0, 1024, 1024, 1024, 1024, 0, 6, 3987, 4011, 4011, 3995, 3996, 4021, 0, 1, 19007, -89.900, 0.000, 31.700, 0.000, 0.000, -3.000, 0.0, , , , , , 98, , , 0, 0, 0
37.7328327, -120.0946865, 40.800, 11:11:01.056, 19, 0.00, 0.21, 97, -3.000, -0.200, 31.100, 2, 100, 98, 27, 24007, -17683, 5077, 5235, 11, 14, 1526235061.057, 54, 0, 1024, 1024, 1024, 1024, 0, 6, 3987, 4011, 4011, 3995, 3996, 4021, 0, 1, 19107, -89.900, 0.000, 31.700, 0.000, 0.000, -3.000, 0.0, , , , , , 98, , , 0, 0, 0
37.7328327, -120.0946866, 41.100, 11:11:01.158, 19, 0.00, 0.20, 97, -2.800, 0.000, 31.000, 2, 100, 98, 27, 24007, -17683, 5077, 5235, 11, 14, 1526235061.159, 15, 0, 1024, 1024, 1024, 1024, 0, 6, 3987, 4011, 4011, 3995, 3996, 4021, 0, 1, 19208, -89.900, 0.000, 31.700, 0.000, 0.000, -3.000, 0.0, , , , , , 98, , , 0, 0, 0
37.7328327, -120.0946866, 41.400, 11:11:01.252, 19, 0.00, 0.20, 97, -2.900, 0.100, 30.800, 2, 100, 98, 27, 24007, -17683, 5077, 5235, 11, 14, 1526235061.254, 48, 0, 1024, 1024, 1024, 1024, 0, 6, 3987, 4011, 4011, 3995, 3996, 4021, 0, 1, 19304, -90.000, 0.000, 31.700, 0.000, 0.000, -3.100, 0.0, , , , , , 98, , , 0, 0, 0
37.7328327, -120.0946866, 41.700, 11:11:01.351, 19, 0.00, 0.20, 97, -3.100, 0.200, 30.800, 2, 100, 99, 27, 24007, -17683, 5077, 5235, 11, 14, 1526235061.352, 60, 0, 1024, 1024, 1024, 1024, 0, 6, 3987, 4011, 4011, 3995, 3996, 4021, 0, 1, 19402, -89.900, 0.000, 31.700, 0.000, 0.000, -3.100, 0.0, , , , , , 98, , , 0, 0, 0
37.7328327, -120.0946866, 42.000, 11:11:01.451, 19, 0.00, 0.20, 97, -3.000, 0.000, 30.700, 2, 100, 99, 27, 24007, -17683, 5077, 5235, 11, 14, 1526235061.452, 36, 0, 1024, 1024, 1024, 1024, 0, 6, 3987, 4011, 4011, 3995, 3996, 4021, 0, 1, 19502, -89.900, 0.000, 31.700, 0.000, 0.000, -3.100, 0.0, , , , , , 98, , , 0, 0, 0
37.7328327, -120.0946866, 42.400, 11:11:01.550, 19, 0.00, 0.20, 97, -3.200, -0.100, 30.800, 2, 100, 99, 27, 24007, -17683, 5077, 5235, 11, 14, 1526235061.551, 41, 0, 1024, 1024, 1024, 1024, 0, 6, 3987, 4011, 4011, 3995, 3996, 4021, 0, 1, 19601, -90.000, 0.000, 31.700, 0.000, 0.000, -3.100, 0.0, , , , , , 98, , , 0, 0, 0
37.7328326, -120.0946866, 42.700, 11:11:01.651, 19, 0.00, 0.20, 97, -3.400, -0.100, 30.800, 2, 100, 99, 27, 24007, -17683, 5077, 5235, 11, 14, 1526235061.652, 30, 0, 1024, 1024, 1024, 1024, 0, 6, 3987, 4011, 4011, 3995, 3996, 4021, 0, 1, 19702, -90.000, 0.000, 31.700, 0.000, 0.000, -3.100, 0.0, , , , , , 98, , , 0, 0, 0
37.7328326, -120.0946866, 43.300, 11:11:01.750, 19, 0.00, 0.21, 97, -3.400, 0.000, 31.200, 2, 100, 99, 27, 24007, -17683, 5077, 5235, 11, 14, 1526235061.751, 21, 0, 1024, 1024, 1024, 1024, 0, 6, 3987, 4011, 4011, 3995, 3996, 4021, 0, 1, 19801, -89.900, 0.000, 31.700, 0.000, 0.000, -3.000, 0.0, , , , , , 98, , , 0, 0, 0
37.7328326, -120.0946866, 43.300, 11:11:01.850, 19, 0.00, 0.21, 97, -3.400, 0.000, 31.200, 2, 100, 99, 27, 23992, -16973, 5077, 5235, 11, 14, 1526235061.852, 123, 0, 1024, 1024, 1024, 1024, 0, 6, 3987, 4011, 4011, 3995, 3996, 4021, 0, 1, 19902, -89.900, 0.000, 31.700, 0.000, 0.000, -3.000, 0.0, , , , , , 98, , , 0, 0, 0
37.7328325, -120.0946865, 43.900, 11:11:01.955, 19, 0.00, 0.22, 97, -3.500, 0.000, 31.400, 2, 100, 99, 27, 23992, -16973, 5077, 5235, 11, 14, 1526235061.955, 16, 0, 1024, 1024, 1024, 1024, 0, 6, 3987, 4011, 4011, 3995, 3996, 4021, 0, 1, 20005, -90.000, 0.000, 31.700, 0.000, 0.000, -3.000, 0.0, , , , , , 98, , , 0, 0, 0
37.7328324, -120.0946864, 44.200, 11:11:02.060, 19, 0.00, 0.23, 97, -4.200, 0.000, 31.400, 2, 100, 99, 27, 23992, -16973, 5077, 5235, 11, 14, 1526235062.061, 12, 0, 1024, 1024, 1024, 1024, 0, 6, 3992, 4012, 3994, 3994, 3994, 4001, 0, 1, 20110, -89.900, 0.000, 31.700, 0.000, 0.000, -3.100, 0.0, , , , , , 98, , , 0, 0, 0
37.7328323, -120.0946864, 44.500, 11:11:02.150, 19, 0.00, 0.24, 97, -4.600, -0.300, 31.400, 2, 100, 99, 27, 23992, -16973, 5077, 5235, 11, 14, 1526235062.151, 5, 0, 1024, 1024, 1024, 1024, 0, 6, 3992, 4012, 3994, 3994, 3994, 4001, 0, 1, 20200, -90.000, 0.000, 31.700, 0.000, 0.000, -3.100, 0.0, , , , , , 98, , , 0, 0, 0
37.7328323, -120.0946864, 44.500, 11:11:02.251, 19, 0.00, 0.24, 97, -4.600, -0.300, 31.400, 2, 100, 99, 27, 23992, -16973, 5077, 5235, 11, 14, 1526235062.252, 106, 0, 1024, 1024, 1024, 1024, 0, 6, 3992, 4012, 3994, 3994, 3994, 4001, 0, 1, 20302, -90.000, 0.000, 31.700, 0.000, 0.000, -3.100, 0.0, , , , , , 98, , , 0, 0, 0
37.7328323, -120.0946864, 45.100, 11:11:02.350, 19, 0.00, 0.24, 97, -4.500, -0.400, 31.000, 2, 100, 97, 27, 23992, -16973, 5077, 5235, 11, 14, 1526235062.351, 10, 0, 1024, 1024, 1024, 1024, 0, 6, 3992, 4012, 3994, 3994, 3994, 4001, 0, 1, 20401, -89.900, 0.000, 31.700, 0.000, 0.000, -3.000, 0.0, , , , , , 98, , , 0, 0, 0
37.7328323, -120.0946864, 45.100, 11:11:02.451, 19, 0.00, 0.24, 97, -4.500, -0.400, 31.000, 2, 100, 97, 27, 23992, -16973, 5077, 5235, 11, 14, 1526235062.451, 110, 0, 1024, 1024, 1024, 1024, 0, 6, 3992, 4012, 3994, 3994, 3994, 4001, 0, 1, 20501, -89.900, 0.000, 31.700, 0.000, 0.000, -3.000, 0.0, , , , , , 98, , , 0, 0, 0
37.7328323, -120.0946864, 45.400, 11:11:02.551, 19, 0.00, 0.24, 97, -4.000, -0.300, 30.900, 2, 100, 97, 27, 23992, -16973, 5077, 5235, 11, 14, 1526235062.551, 75, 0, 1024, 1024, 1024, 1024, 0, 6, 3992, 4012, 3994, 3994, 3994, 4001, 0, 1, 20601, -89.900, 0.000, 31.700, 0.000, 0.000, -3.000, 0.0, , , , , , 98, , , 0, 0, 0
37.7328323, -120.0946864, 45.700, 11:11:02.651, 19, 0.00, 0.24, 97, -3.600, -0.300, 30.900, 2, 100, 97, 27, 23992, -16973, 5077, 5235, 11, 14, 1526235062.652, 78, 0, 1024, 1024, 1024, 1024, 0, 6, 3992, 4012, 3994, 3994, 3994, 4001, 0, 1, 20702, -90.000, 0.000, 31.700, 0.000, 0.000, -3.000, 0.0, , , , , , 98, , , 0, 0, 0
37.7328323, -120.0946865, 46.000, 11:11:02.751, 19, 0.00, 0.23, 97, -2.900, -0.300, 30.900, 2, 100, 97, 27, 23992, -16973, 5077, 5235, 11, 14, 1526235062.754, 75, 0, 1024, 1024, 1024, 1024, 0, 6, 3992, 4012, 3994, 3994, 3994, 4001, 0, 1, 20804, -90.000, 0.000, 31.700, 0.000, 0.000, -2.900, 0.0, , , , , , 98, , , 0, 0, 0
37.7328324, -120.0946866, 46.300, 11:11:02.852, 19, 0.00, 0.22, 97, -2.100, -0.300, 30.900, 2, 100, 97, 27, 23930, -18563, 5077, 5235, 11, 14, 1526235062.853, 74, 0, 1024, 1024, 1024, 1024, 0, 6, 3992, 4012, 3994, 3994, 3994, 4001, 0, 1, 20902, -89.900, 0.000, 31.700, 0.000, 0.000, -3.000, 0.0, , , , , , 98, , , 0, 0, 0
37.7328324, -120.0946867, 46.600, 11:11:02.951, 19, 0.00, 0.21, 97, -1.900, -0.400, 30.900, 2, 100, 96, 27, 23930, -18563, 5077, 5235, 11, 14, 1526235062.952, 63, 0, 1024, 1024, 1024, 1024, 0, 6, 3992, 4012, 3994, 3994, 3994, 4001, 0, 1, 21002, -90.000, 0.000, 31.700, 0.000, 0.000, -3.000, 0.0, , , , , , 98, , , 0, 0, 0
37.7328324, -120.0946867, 46.600, 11:11:03.050, 19, 0.00, 0.21, 97, -1.900, -0.400, 30.900, 2, 100, 96, 27, 23930, -18563, 5077, 5235, 11, 14, 1526235063.052, 163, 0, 1024, 1024, 1024, 1024, 0, 6, 3992, 4012, 3994, 3994, 3994, 4001, 0, 1, 21102, -90.000, 0.000, 31.700, 0.000, 0.000, -3.000, 0.0, , , , , , 98, , , 0, 0, 0
37.7328325, -120.0946869, 47.200, 11:11:03.151, 19, 0.00, 0.19, 97, -2.100, -0.500, 30.900, 2, 100, 96, 27, 23930, -18563, 5077, 5235, 11, 14, 1526235063.152, 64, 0, 1024, 1024, 1024, 1024, 0, 6, 3992, 4012, 3994, 3994, 3994, 4001, 0, 1, 21202, -89.900, 0.000, 31.700, 0.000, 0.000, -3.100, 0.0, , , , , , 98, , , 0, 0, 0
