latitude,longitude,altitude(feet),ascent(feet),speed(mph),distance(feet),time(millisecond),datetime(utc),satellites,gpslevel,voltage(v),max_altitude(feet),max_ascent(feet),max_speed(mph),max_distance(feet), xSpeed(mph), ySpeed(mph), zSpeed(mph), compass_heading(degrees), pitch(degrees), roll(degrees),isPhoto,isVideo,rc_elevator,rc_aileron,rc_throttle,rc_rudder,gimbal_heading(degrees),gimbal_pitch(degrees),battery_percent,voltageCell1,voltageCell2,voltageCell3,voltageCell4,voltageCell5,voltageCell6,current(A),battery_temperature(f),flycStateRaw,flycState,message
37.7328339,-120.0946889,3057.2672943549,0,0.223694,0,3100,2018-05-13 18:10:45,16,0,0,3057.2672943549,0,0.223694,0,0,0,0,31.2, 0.3, 0.9,1,0,1024,1024,1024,1024,31.7,-90,98,4.216,4.182,4.191,4.197,4.187,4.211,0,80.6,11,AutoTakeoff,
37.732834,-120.0946891,3057.5953783549,0.328084,0,0.06827592082,3200,2018-05-13 18:10:45,15,0,0,3057.5953783549,0.328084,0.223694,0.06827592082,0,0,0,30.9, -0.3, 1.1,0,0,1024,1024,1024,1024,31.7,-90,98,4.216,4.182,4.191,4.197,4.187,4.211,0,80.6,11,AutoTakeoff,
37.732834,-120.0946891,3057.9234623549,0.656168,0,0.06827592082,3300,2018-05-13 18:10:45,16,0,0,3057.9234623549,0.656168,0.223694,0.06827592082,0,0,0,30.8, -0.4, 1,0,0,1024,1024,1024,1024,31.7,-90,98,4.216,4.182,4.191,4.197,4.187,4.211,0,80.6,11,AutoTakeoff,
37.732834,-120.0946891,3057.9234623549,0.656168,0,0.06827592082,3400,2018-05-13 18:10:45,16,0,0,3057.9234623549,0.656168,0.223694,0.06827592082,0,0,0,30.8, -0.3, 0.7,0,0,1024,1024,1024,1024,31.7,-89.9,98,4.216,4.182,4.191,4.197,4.187,4.211,0,80.6,11,AutoTakeoff,
37.732834,-120.0946891,3057.9234623549,0.656168,0,0.06827592082,3500,2018-05-13 18:10:45,15,0,0,3057.9234623549,0.656168,0.223694,0.06827592082,0,0,0,30.7, 0.1, 0.2,0,0,1024,1024,1024,1024,31.7,-89.9,98,4.216,4.182,4.191,4.197,4.187,4.211,0,80.6,11,AutoTakeoff,
37.732834,-120.0946891,3058.2515463549,0.984252,0,0.06827592082,3610,2018-05-13 18:10:46,15,0,0,3058.2515463549,0.984252,0.223694,0.06827592082,0,0,0,30.7, 0.2, 0,0,0,1024,1024,1024,1024,31.7,-89.9,98,4.216,4.182,4.191,4.197,4.187,4.211,0,80.6,11,AutoTakeoff,
37.732834,-120.094689,3058.2515463549,0.984252,0,0.046516077604,3700,2018-05-13 18:10:46,15,0,0,3058.2515463549,0.984252,0.223694,0.06827592082,0,0,0,30.5, 0.4, -0.5,0,0,1024,1024,1024,1024,31.7,-89.9,98,4.216,4.182,4.191,4.197,4.187,4.211,0,80.6,11,AutoTakeoff,
37.732834,-120.0946889,3058.5796303549,1.312336,0,0.036484909304,3800,2018-05-13 18:10:46,15,0,0,3058.5796303549,1.312336,0.223694,0.06827592082,0,0,0,30.5, 0.3, -0.4,0,0,1024,1024,1024,1024,31.7,-89.9,98,4.216,4.182,4.191,4.197,4.187,4.211,0,80.6,11,AutoTakeoff,
37.732834,-120.0946889,3058.5796303549,1.312336,0,0.036484909304,4000,2018-05-13 18:10:46,17,0,25.361,3058.5796303549,1.312336,0.223694,0.06827592082,0,0,-0.223694,30.5, 0.2, -0.2,0,0,1024,1024,1024,1024,31.7,-90,98,4.216,4.182,4.191,4.197,4.187,4.211,6.145,80.6,11,AutoTakeoff,
37.732834,-120.0946888,3058.9077143549,1.64042,0,0.046516077604,4100,2018-05-13 18:10:46,17,0,25.361,3058.9077143549,1.64042,0.223694,0.06827592082,0,0,0,30.7, 0.1, -0.3,0,0,1024,1024,1024,1024,31.7,-90,98,4.216,4.182,4.191,4.197,4.187,4.211,6.145,80.6,11,AutoTakeoff,
37.732834,-120.0946887,3058.9077143549,1.64042,0,0.06827592082,4200,2018-05-13 18:10:46,18,0,25.361,3058.9077143549,1.64042,0.223694,0.06827592082,0,0,-0.223694,30.8, 0, -0.7,0,0,1024,1024,1024,1024,31.7,-89.9,98,4.216,4.182,4.191,4.197,4.187,4.211,6.145,80.6,11,AutoTakeoff,
37.732834,-120.0946886,3059.2357983549,1.968504,0,0.093939635552,4300,2018-05-13 18:10:46,18,0,25.361,3059.2357983549,1.968504,0.223694,0.093939635552,0,0,-0.223694,31, 0.2, -0.7,0,0,1024,1024,1024,1024,31.7,-89.9,98,4.216,4.182,4.191,4.197,4.187,4.211,6.145,80.6,11,AutoTakeoff,
37.7328341,-120.0946885,3059.2357983549,1.968504,0,0.136551513556,4400,2018-05-13 18:10:46,18,0,25.361,3059.2357983549,1.968504,0.223694,0.136551513556,0,0,-0.223694,31, 0.4, -0.6,0,0,1024,1024,1024,1024,31.7,-89.9,98,4.216,4.182,4.191,4.197,4.187,4.211,6.145,80.6,11,AutoTakeoff,
37.7328341,-120.0946884,3059.5638823549,2.296588,0,0.16167815478,4500,2018-05-13 18:10:46,18,0,25.361,3059.5638823549,2.296588,0.223694,0.16167815478,0,0,-0.223694,31, 0.6, -0.6,0,0,1024,1024,1024,1024,31.7,-89.9,98,4.216,4.182,4.191,4.197,4.187,4.211,6.145,80.6,11,AutoTakeoff,
37.7328341,-120.0946883,3059.5638823549,2.296588,0,0.18787894302,4600,2018-05-13 18:10:47,16,0,25.361,3059.5638823549,2.296588,0.223694,0.18787894302,0,0,0,31, 0.7, -0.5,0,0,1024,1024,1024,1024,31.7,-89.9,98,4.216,4.182,4.191,4.197,4.187,4.211,6.145,80.6,11,AutoTakeoff,
37.7328341,-120.0946882,3059.8919663549,2.624672,0,0.214761161728,4700,2018-05-13 18:10:47,16,0,25.361,3059.8919663549,2.624672,0.223694,0.214761161728,0,0,0,31, 0.7, -0.6,0,0,1024,1024,1024,1024,31.7,-89.9,98,4.216,4.182,4.191,4.197,4.187,4.211,6.145,80.6,11,AutoTakeoff,
37.732834,-120.0946882,3059.8919663549,2.624672,0,0.205253287408,4800,2018-05-13 18:10:47,15,0,25.361,3059.8919663549,2.624672,0.223694,0.214761161728,0,0,0,31, 0.6, -0.6,0,0,1024,1024,1024,1024,31.7,-89.9,98,4.216,4.182,4.191,4.197,4.187,4.211,6.145,80.6,11,AutoTakeoff,
37.732834,-120.0946881,3060.2200503549,2.952756,0,0.233705059972,4900,2018-05-13 18:10:47,15,0,25.361,3060.2200503549,2.952756,0.223694,0.233705059972,0,0,-0.223694,31, 0.7, -0.7,0,0,1024,1024,1024,1024,31.7,-89.9,98,4.216,4.182,4.191,4.197,4.187,4.211,6.145,80.6,6,P-GPS,
37.732834,-120.094688,3060.2200503549,2.952756,0,0.262245087132,5000,2018-05-13 18:10:47,15,0,24.704,3060.2200503549,2.952756,0.223694,0.262245087132,0,0,0,31, 0.6, -0.8,0,0,1024,1024,1024,1024,31.7,-90,98,4.096,4.109,4.105,4.098,4.101,4.119,15.381,80.6,14,Waypoint,
37.7328341,-120.0946881,3060.5481343549,3.28084,0,0.24209810486,5100,2018-05-13 18:10:47,15,0,24.704,3060.5481343549,3.28084,0.223694,0.262245087132,0,0,0,31, 0.5, -0.6,0,0,1024,1024,1024,1024,31.7,-89.9,98,4.096,4.109,4.105,4.098,4.101,4.119,15.381,80.6,14,Waypoint,
37.7328342,-120.0946881,3060.5481343549,3.28084,0,0.255474745708,5200,2018-05-13 18:10:47,16,0,24.704,3060.5481343549,3.28084,0.223694,0.262245087132,0,0,0,31, 0.6, -0.3,0,0,1024,1024,1024,1024,31.7,-89.9,98,4.096,4.109,4.105,4.098,4.101,4.119,15.381,80.6,14,Waypoint,
37.7328341,-120.0946878,3060.8762183549,3.608924,0,0.32568406554,5300,2018-05-13 18:10:47,19,0,24.704,3060.8762183549,3.608924,0.223694,0.32568406554,0,0,0,30.8, 0.7, -0.1,0,0,1024,1024,1024,1024,31.7,-89.9,98,4.096,4.109,4.105,4.098,4.101,4.119,15.381,80.6,14,Waypoint,
37.7328341,-120.0946877,3060.8762183549,3.608924,0,0.35386484072,5400,2018-05-13 18:10:47,19,0,24.704,3060.8762183549,3.608924,0.223694,0.35386484072,0,0,-0.223694,30.8, 0.7, -0.3,0,0,1024,1024,1024,1024,31.7,-89.9,98,4.096,4.109,4.105,4.098,4.101,4.119,15.381,80.6,14,Waypoint,
37.7328341,-120.0946875,3061.2043023549,3.937008,0,0.41050526248,5500,2018-05-13 18:10:47,17,0,24.704,3061.2043023549,3.937008,0.223694,0.41050526248,0,0,-0.223694,30.8, 0.8, -0.4,0,0,1024,1024,1024,1024,31.7,-89.9,98,4.096,4.109,4.105,4.098,4.101,4.119,15.381,80.6,14,Waypoint,
37.7328342,-120.0946873,3061.8604703549,4.593176,0,0.4744750808,5700,2018-05-13 18:10:48,16,0,24.704,3061.8604703549,4.593176,0.223694,0.4744750808,0,0,-0.223694,30.8, 1.1, -0.8,0,0,1024,1024,1024,1024,31.7,-89.9,98,4.096,4.109,4.105,4.098,4.101,4.119,15.381,80.6,14,Waypoint,
37.7328343,-120.0946871,3062.1885543549,4.92126,0,0.53950461044,5800,2018-05-13 18:10:48,16,0,24.704,3062.1885543549,4.92126,0.223694,0.53950461044,0,0,-0.223694,30.8, 1.3, -1.1,0,0,1024,1024,1024,1024,31.7,-89.9,98,4.096,4.109,4.105,4.098,4.101,4.119,15.381,80.6,14,Waypoint,
37.7328343,-120.094687,3062.5166383549,5.249344,0,0.56733597616,5900,2018-05-13 18:10:48,14,0,24.704,3062.5166383549,5.249344,0.223694,0.56733597616,0,0,-0.447388,30.9, 1.4, -1.2,0,0,1024,1024,1024,1024,31.7,-89.9,98,4.096,4.109,4.105,4.098,4.101,4.119,15.381,80.6,14,Waypoint,
37.7328346,-120.0946869,3063.8289743549,6.56168,0,0.6310859782,6100,2018-05-13 18:10:48,16,0,24.704,3063.8289743549,6.56168,0.223694,0.6310859782,0,0,-0.447388,31.2, 1.4, -0.9,0,0,1024,1024,1024,1024,31.7,-89.9,98,4.096,4.109,4.105,4.098,4.101,4.119,15.381,80.6,14,Waypoint,
37.7328346,-120.0946868,3064.4851423549,7.217848,0,0.65757548036,6200,2018-05-13 18:10:48,16,0,24.704,3064.4851423549,7.217848,0.223694,0.65757548036,0,0,-0.447388,31.3, 1.3, -0.7,0,0,1024,1024,1024,1024,31.7,-89.9,98,4.096,4.109,4.105,4.098,4.101,4.119,15.381,80.6,14,Waypoint,
37.7328347,-120.0946868,3065.1413103549,7.874016,0,0.6725886042,6300,2018-05-13 18:10:48,18,0,24.704,3065.1413103549,7.874016,0.223694,0.6725886042,0,0,-0.447388,31.3, 1.4, -0.5,0,0,1024,1024,1024,1024,31.7,-89.9,98,4.096,4.109,4.105,4.098,4.101,4.119,15.381,80.6,14,Waypoint,
37.7328348,-120.0946869,3066.1255623549,8.858268,0,0.6639763992,6500,2018-05-13 18:10:48,18,0,24.704,3066.1255623549,8.858268,0.223694,0.6725886042,0,0,-0.671082,31.3, 1.5, -0.2,0,0,1024,1024,1024,1024,31.7,-89.9,98,4.096,4.109,4.105,4.098,4.101,4.119,15.381,80.6,14,Waypoint,
37.732835,-120.0946869,3067.1098143549,9.84252,0,0.70292981252,6600,2018-05-13 18:10:49,18,0,24.704,3067.1098143549,9.84252,0.223694,0.70292981252,0,0,-0.671082,31.2, 1.5, -0.1,0,0,1024,1024,1024,1024,31.7,-89.9,98,4.096,4.109,4.105,4.098,4.101,4.119,15.381,80.6,14,Waypoint,
37.732835,-120.0946869,3067.7659823549,10.498688,0,0.70292981252,6700,2018-05-13 18:10:49,18,0,24.704,3067.7659823549,10.498688,0.223694,0.70292981252,0,0,-0.671082,31.1, 1.4, 0,0,0,1024,1024,1024,1024,31.7,-89.9,98,4.096,4.109,4.105,4.098,4.101,4.119,15.381,80.6,14,Waypoint,
37.7328351,-120.0946869,3069.0783183549,11.811024,0,0.72438322528,6800,2018-05-13 18:10:49,18,0,24.704,3069.0783183549,11.811024,0.223694,0.72438322528,0,0,-0.671082,31, 1.3, 0,0,0,1024,1024,1024,1024,31.7,-89.9,98,4.096,4.109,4.105,4.098,4.101,4.119,15.381,80.6,14,Waypoint,
37.7328352,-120.0946871,3070.0625703549,12.795276,0,0.70336944508,6900,2018-05-13 18:10:49,18,0,24.704,3070.0625703549,12.795276,0.223694,0.72438322528,0,0,-0.671082,31, 1.3, 0,0,0,1024,1024,1024,1024,31.7,-89.9,98,4.096,4.109,4.105,4.098,4.101,4.119,15.381,80.6,14,Waypoint,
37.7328353,-120.0946872,3071.0468223549,13.779528,0,0.70818899904,7000,2018-05-13 18:10:49,19,0,24.29,3071.0468223549,13.779528,0.223694,0.72438322528,0,0,-0.671082,31, 1.3, 0.1,0,0,1024,1024,1024,1024,31.7,-89.9,98,4.027,4.038,4.037,4.026,4.032,4.035,18.011,80.6,14,Waypoint,
37.7328353,-120.0946874,3072.0310743549,14.76378,0,0.66950789544,7100,2018-05-13 18:10:49,19,0,24.29,3072.0310743549,14.76378,0.223694,0.72438322528,0,0,-0.671082,31.1, 1.3, 0.3,0,0,1024,1024,1024,1024,31.7,-89.9,98,4.027,4.038,4.037,4.026,4.032,4.035,18.011,80.6,14,Waypoint,
37.7328353,-120.0946874,3073.3434103549,16.076116,0,0.66950789544,7200,2018-05-13 18:10:49,18,0,24.29,3073.3434103549,16.076116,0.223694,0.72438322528,0,0,-0.671082,31.1, 1.2, 0.4,0,0,1024,1024,1024,1024,31.7,-89.9,98,4.027,4.038,4.037,4.026,4.032,4.035,18.011,80.6,14,Waypoint,
37.7328354,-120.0946874,3074.3276623549,17.060368,0,0.69774280448,7300,2018-05-13 18:10:49,18,0,24.29,3074.3276623549,17.060368,0.223694,0.72438322528,0,0,-0.671082,31.1, 1.1, 0.5,0,0,1024,1024,1024,1024,31.7,-89.9,98,4.027,4.038,4.037,4.026,4.032,4.035,18.011,80.6,14,Waypoint,
37.7328355,-120.0946874,3075.6399983549,18.372704,0,0.72671262168,7400,2018-05-13 18:10:49,17,0,24.29,3075.6399983549,18.372704,0.223694,0.72671262168,0,0,-0.671082,31.1, 1.3, 0.4,0,0,1024,1024,1024,1024,31.7,-89.9,98,4.027,4.038,4.037,4.026,4.032,4.035,18.011,80.6,14,Waypoint,
37.7328354,-120.0946874,3076.6242503549,19.356956,0,0.69774280448,7500,2018-05-13 18:10:49,17,0,24.29,3076.6242503549,19.356956,0.223694,0.72671262168,0,0,-0.671082,31.2, 1.6, 0.1,0,0,1024,1024,1024,1024,31.7,-89.9,98,4.027,4.038,4.037,4.026,4.032,4.035,18.011,80.6,14,Waypoint,
37.7328353,-120.0946874,3077.6085023549,20.341208,0,0.66950789544,7600,2018-05-13 18:10:50,16,0,24.29,3077.6085023549,20.341208,0.223694,0.72671262168,0,0,-0.671082,31.2, 1.4, -0.3,0,0,1024,1024,1024,1024,31.7,-90,98,4.027,4.038,4.037,4.026,4.032,4.035,18.011,80.6,14,Waypoint,
37.7328352,-120.0946873,3078.9208383549,21.653544,0,0.66189962748,7700,2018-05-13 18:10:50,16,0,24.29,3078.9208383549,21.653544,0.223694,0.72671262168,0,0,-0.671082,31.2, 0.9, -0.8,0,0,1024,1024,1024,1024,31.7,-90,98,4.027,4.038,4.037,4.026,4.032,4.035,18.011,80.6,14,Waypoint,
37.7328351,-120.0946872,3079.9050903549,22.637796,0,0.65750330188,7800,2018-05-13 18:10:50,16,0,24.29,3079.9050903549,22.637796,0.223694,0.72671262168,0,0,-0.671082,31.1, 0.7, -1.2,0,0,1024,1024,1024,1024,31.7,-90,98,4.027,4.038,4.037,4.026,4.032,4.035,18.011,80.6,14,Waypoint,
37.7328351,-120.0946871,3080.8893423549,23.622048,0,0.67930120284,7900,2018-05-13 18:10:50,16,0,24.29,3080.8893423549,23.622048,0.223694,0.72671262168,0,0,-0.671082,31, 0.5, -1.3,0,0,1024,1024,1024,1024,31.7,-90,98,4.027,4.038,4.037,4.026,4.032,4.035,18.011,80.6,14,Waypoint,
37.732835,-120.094687,3082.2016783549,24.934384,0,0.67944227896,8000,2018-05-13 18:10:50,17,0,23.965,3082.2016783549,24.934384,0.223694,0.72671262168,0,0,-0.671082,30.9, 0.4, -1.3,0,0,1024,1024,1024,1024,31.7,-90,98,3.989,4,4.002,3.993,4.006,4.001,21.719,80.6,14,Waypoint,
37.7328345,-120.0946866,3084.1701823549,26.902888,0,0.6988353242,8100,2018-05-13 18:10:50,17,0,23.965,3084.1701823549,26.902888,0.223694,0.72671262168,0,0,-0.671082,30.8, 0.5, -1.4,0,0,1024,1024,1024,1024,31.7,-90,98,3.989,4,4.002,3.993,4.006,4.001,21.719,80.6,14,Waypoint,
37.7328344,-120.0946865,3085.4825183549,28.215224,0,0.7161417552,8200,2018-05-13 18:10:50,17,0,23.965,3085.4825183549,28.215224,0.223694,0.72671262168,0,0,-0.671082,30.8, 0.3, -1.6,0,0,1024,1024,1024,1024,31.7,-90,98,3.989,4,4.002,3.993,4.006,4.001,21.719,80.6,14,Waypoint,
37.7328343,-120.0946865,3086.4667703549,29.199476,0,0.70772968144,8300,2018-05-13 18:10:50,18,0,23.965,3086.4667703549,29.199476,0.223694,0.72671262168,0,0,-0.671082,30.8, 0.1, -1.7,0,0,1024,1024,1024,1024,31.7,-90,98,3.989,4,4.002,3.993,4.006,4.001,21.719,80.6,14,Waypoint,
37.7328342,-120.0946863,3088.7633583549,31.496064,0,0.75817259644,8500,2018-05-13 18:10:50,17,0,23.965,3088.7633583549,31.496064,0.223694,0.75817259644,0,0,-0.671082,30.7, 0.2, -1.7,0,0,1024,1024,1024,1024,31.7,-90,98,3.989,4,4.002,3.993,4.006,4.001,21.719,80.6,14,Waypoint,
37.7328341,-120.0946862,3089.7476103549,32.480316,0,0.78249346336,8600,2018-05-13 18:10:51,17,0,23.965,3089.7476103549,32.480316,0.223694,0.78249346336,0,0,-0.671082,30.7, 0.3, -1.6,0,0,1024,1024,1024,1024,31.7,-90,98,3.989,4,4.002,3.993,4.006,4.001,21.719,80.6,14,Waypoint,
37.732834,-120.0946861,3090.7318623549,33.464568,0,0.80876314924,8700,2018-05-13 18:10:51,18,0,23.965,3090.7318623549,33.464568,0.223694,0.80876314924,0,0,-0.671082,30.7, 0.4, -1.6,0,0,1024,1024,1024,1024,31.7,-90,98,3.989,4,4.002,3.993,4.006,4.001,21.719,80.6,14,Waypoint,
37.732834,-120.094686,3092.0441983549,34.776904,0,0.83758860948,8800,2018-05-13 18:10:51,18,0,23.965,3092.0441983549,34.776904,0.223694,0.83758860948,0,0,-0.671082,30.8, 0.5, -1.7,0,0,1024,1024,1024,1024,31.7,-90,98,3.989,4,4.002,3.993,4.006,4.001,21.719,80.6,14,Waypoint,
37.732834,-120.0946859,3093.0284503549,35.761156,0,0.86641735056,9000,2018-05-13 18:10:51,16,0,24.187,3093.0284503549,35.761156,0.223694,0.86641735056,0,0,-0.671082,30.8, 0.6, -1.8,0,0,1024,1024,1024,1024,31.7,-89.9,98,3.989,4,4.002,3.993,4.006,4.001,17.529,80.6,14,Waypoint,
37.7328339,-120.0946858,3094.0127023549,36.745408,0,0.8945046218,9100,2018-05-13 18:10:51,16,0,24.187,3094.0127023549,36.745408,0.223694,0.8945046218,0,0,-0.671082,30.7, 0.8, -2,0,0,1024,1024,1024,1024,31.7,-89.9,98,3.989,4,4.002,3.993,4.006,4.001,17.529,80.6,14,Waypoint,
37.7328338,-120.0946857,3094.9969543549,37.72966,0,0.92407811356,9200,2018-05-13 18:10:51,17,0,24.187,3094.9969543549,37.72966,0.223694,0.92407811356,0,0,-0.671082,30.7, 0.8, -2.1,0,0,1024,1024,1024,1024,31.7,-89.9,98,3.989,4,4.002,3.993,4.006,4.001,17.529,80.6,14,Waypoint,
37.7328337,-120.0946857,3095.9812063549,38.713912,0,0.92623690628,9300,2018-05-13 18:10:51,17,0,24.187,3095.9812063549,38.713912,0.223694,0.92623690628,0,0,-0.671082,30.7, 0.7, -2.1,0,0,1024,1024,1024,1024,31.7,-90,98,3.989,4,4.002,3.993,4.006,4.001,17.529,80.6,14,Waypoint,
37.7328337,-120.0946856,3096.9654583549,39.698164,0,0.95500659224,9400,2018-05-13 18:10:51,19,0,24.187,3096.9654583549,39.698164,0.223694,0.95500659224,0,0,-0.671082,30.8, 0.6, -1.9,0,0,1024,1024,1024,1024,31.7,-90,98,3.989,4,4.002,3.993,4.006,4.001,17.529,80.6,14,Waypoint,
37.7328336,-120.0946857,3097.9497103549,40.682416,0,0.9298228644,9500,2018-05-13 18:10:51,19,0,24.187,3097.9497103549,40.682416,0.223694,0.95500659224,0,0,-0.671082,30.8, 0.5, -1.9,0,0,1024,1024,1024,1024,31.7,-90,98,3.989,4,4.002,3.993,4.006,4.001,17.529,80.6,14,Waypoint,
37.7328336,-120.0946857,3098.9339623549,41.666668,0,0.9298228644,9600,2018-05-13 18:10:52,19,0,24.187,3098.9339623549,41.666668,0.223694,0.95500659224,0,0,-0.671082,30.9, 0.4, -1.7,0,0,1024,1024,1024,1024,31.7,-90,98,3.989,4,4.002,3.993,4.006,4.001,17.529,80.6,14,Waypoint,
37.7328336,-120.0946857,3099.9182143549,42.65092,0,0.9298228644,9710,2018-05-13 18:10:52,18,0,24.187,3099.9182143549,42.65092,0.223694,0.95500659224,0,0,-0.671082,31, 0.4, -1.4,0,0,1024,1024,1024,1024,31.7,-89.9,98,3.989,4,4.002,3.993,4.006,4.001,17.529,80.6,14,Waypoint,
37.7328337,-120.0946857,3100.9024663549,43.635172,0,0.92623690628,9810,2018-05-13 18:10:52,19,0,24.187,3100.9024663549,43.635172,0.223694,0.95500659224,0,0,-0.671082,31.1, 0.6, -1.1,0,0,1024,1024,1024,1024,31.7,-89.9,98,3.989,4,4.002,3.993,4.006,4.001,17.529,80.6,14,Waypoint,
37.7328338,-120.0946857,3101.8867183549,44.619424,0,0.92407811356,9910,2018-05-13 18:10:52,19,0,24.187,3101.8867183549,44.619424,0.223694,0.95500659224,0,0,-0.671082,31.1, 1, -1,0,0,1024,1024,1024,1024,31.7,-89.9,98,3.989,4,4.002,3.993,4.006,4.001,17.529,80.6,14,Waypoint,
37.7328339,-120.0946857,3102.8709703549,45.603676,0,0.9233596096,10000,2018-05-13 18:10:52,18,0,24.187,3102.8709703549,45.603676,0.223694,0.95500659224,0,0,-0.671082,31.2, 1.2, -1.1,0,0,1024,1024,1024,1024,31.7,-89.9,98,4.023,4.039,4.034,4.024,4.032,4.044,17.529,80.6,14,Waypoint,
37.7328339,-120.0946857,3103.8552223549,46.587928,0,0.9233596096,10110,2018-05-13 18:10:52,18,0,24.187,3103.8552223549,46.587928,0.223694,0.95500659224,0,0,-0.671082,31.2, 1.4, -1,0,0,1024,1024,1024,1024,31.7,-89.9,98,4.023,4.039,4.034,4.024,4.032,4.044,17.529,80.6,14,Waypoint,
37.7328339,-120.0946857,3104.8394743549,47.57218,0,0.9233596096,10300,2018-05-13 18:10:52,19,0,24.187,3104.8394743549,47.57218,0.223694,0.95500659224,0,0,-0.671082,31.2, 1.4, -1,0,0,1024,1024,1024,1024,31.7,-89.9,98,4.023,4.039,4.034,4.024,4.032,4.044,17.529,80.6,14,Waypoint,
37.7328339,-120.0946857,3105.8237263549,48.556432,0,0.9233596096,10410,2018-05-13 18:10:52,19,0,24.187,3105.8237263549,48.556432,0.223694,0.95500659224,0,0,-0.671082,31.2, 1.4, -1,0,0,1024,1024,1024,1024,31.7,-89.9,98,4.023,4.039,4.034,4.024,4.032,4.044,17.529,80.6,14,Waypoint,
37.732834,-120.0946857,3106.8079783549,49.540684,0,0.92407811356,10510,2018-05-13 18:10:52,19,0,24.187,3106.8079783549,49.540684,0.223694,0.95500659224,0,0,-0.671082,31.2, 1.4, -0.9,0,0,1024,1024,1024,1024,31.7,-89.9,98,4.023,4.039,4.034,4.024,4.032,4.044,17.529,80.6,14,Waypoint,
37.732834,-120.0946857,3107.7922303549,50.524936,0,0.92407811356,10610,2018-05-13 18:10:53,19,0,24.187,3107.7922303549,50.524936,0.223694,0.95500659224,0,0,-0.671082,31.3, 1.3, -0.9,0,0,1024,1024,1024,1024,31.7,-89.9,98,4.023,4.039,4.034,4.024,4.032,4.044,17.529,80.6,14,Waypoint,
37.7328341,-120.0946859,3110.7449863549,53.477692,0.223694,0.8687172194,10710,2018-05-13 18:10:53,19,0,24.187,3110.7449863549,53.477692,0.223694,0.95500659224,0,0,-0.671082,31.2, 1, -0.7,0,0,1024,1024,1024,1024,31.7,-89.9,98,4.023,4.039,4.034,4.024,4.032,4.044,17.529,80.6,14,Waypoint,
37.7328341,-120.094686,3111.7292383549,54.461944,0.223694,0.83997049932,10820,2018-05-13 18:10:53,19,0,24.187,3111.7292383549,54.461944,0.223694,0.95500659224,0,0,-0.671082,31.2, 0.9, -0.5,0,0,1024,1024,1024,1024,31.7,-90,98,4.023,4.039,4.034,4.024,4.032,4.044,17.529,80.6,14,Waypoint,
37.7328341,-120.0946861,3112.3854063549,55.118112,0.223694,0.81122706008,10910,2018-05-13 18:10:53,19,0,24.187,3112.3854063549,55.118112,0.223694,0.95500659224,0,0,-0.671082,31.1, 1, -0.3,0,0,1024,1024,1024,1024,31.7,-89.9,98,4.023,4.039,4.034,4.024,4.032,4.044,17.529,80.6,14,Waypoint,
37.7328342,-120.0946861,3113.3696583549,56.102364,0.223694,0.81531826756,11010,2018-05-13 18:10:53,19,0,24.257,3113.3696583549,56.102364,0.223694,0.95500659224,0,0,-0.671082,31.1, 0.9, -0.2,0,0,1024,1024,1024,1024,31.7,-89.9,98,4.036,4.054,4.041,4.039,4.029,4.056,16.504,80.6,14,Waypoint,
37.7328342,-120.0946862,3114.3539103549,57.086616,0,0.78673558948,11110,2018-05-13 18:10:53,19,0,24.257,3114.3539103549,57.086616,0.223694,0.95500659224,0,0,-0.671082,31, 0.9, -0.1,0,0,1024,1024,1024,1024,31.7,-89.9,98,4.036,4.054,4.041,4.039,4.029,4.056,16.504,80.6,14,Waypoint,
37.7328342,-120.0946862,3115.3381623549,58.070868,0,0.78673558948,11300,2018-05-13 18:10:53,19,0,24.257,3115.3381623549,58.070868,0.223694,0.95500659224,0,0,-0.671082,30.9, 1, -0.3,0,0,1024,1024,1024,1024,31.7,-89.9,98,4.036,4.054,4.041,4.039,4.029,4.056,16.504,80.6,14,Waypoint,
37.7328342,-120.0946862,3116.3224143549,59.05512,0,0.78673558948,11400,2018-05-13 18:10:53,19,0,24.257,3116.3224143549,59.05512,0.223694,0.95500659224,0,0,-0.671082,30.8, 1, -0.4,0,0,1024,1024,1024,1024,31.7,-89.9,98,4.036,4.054,4.041,4.039,4.029,4.056,16.504,80.6,14,Waypoint,
37.7328343,-120.0946863,3117.3066663549,60.039372,0,0.76429136304,11500,2018-05-13 18:10:53,19,0,24.257,3117.3066663549,60.039372,0.223694,0.95500659224,0,0,-0.671082,30.8, 1, -0.5,0,0,1024,1024,1024,1024,31.7,-89.9,98,4.036,4.054,4.041,4.039,4.029,4.056,16.504,80.6,14,Waypoint,
37.7328344,-120.0946863,3119.2751703549,62.007876,0,0.77208991972,11610,2018-05-13 18:10:54,19,0,24.257,3119.2751703549,62.007876,0.223694,0.95500659224,0,0,-0.671082,30.8, 1.3, -0.5,0,0,1024,1024,1024,1024,31.7,-89.9,98,4.036,4.054,4.041,4.039,4.029,4.056,16.504,80.6,14,Waypoint,
37.7328344,-120.0946863,3119.2751703549,62.007876,0,0.77208991972,11700,2018-05-13 18:10:54,19,0,24.257,3119.2751703549,62.007876,0.223694,0.95500659224,0,0,-0.671082,30.8, 1.3, -0.5,0,0,1024,1024,1024,1024,31.7,-89.9,98,4.036,4.054,4.041,4.039,4.029,4.056,16.504,80.6,14,Waypoint,
37.7328344,-120.0946863,3120.2594223549,62.992128,0,0.77208991972,11800,2018-05-13 18:10:54,19,0,24.257,3120.2594223549,62.992128,0.223694,0.95500659224,0,0,-0.671082,30.9, 1.3, -0.5,0,0,1024,1024,1024,1024,31.7,-89.9,98,4.036,4.054,4.041,4.039,4.029,4.056,16.504,80.6,14,Waypoint,
37.7328345,-120.0946864,3121.2436743549,63.97638,0,0.75385829184,11900,2018-05-13 18:10:54,19,0,24.257,3121.2436743549,63.97638,0.223694,0.95500659224,0,0,-0.671082,30.9, 1.4, -0.5,0,0,1024,1024,1024,1024,31.7,-89.9,98,4.036,4.054,4.041,4.039,4.029,4.056,16.504,80.6,14,Waypoint,
37.7328345,-120.0946864,3122.2279263549,64.960632,0,0.75385829184,12000,2018-05-13 18:10:54,19,0,24.208,3122.2279263549,64.960632,0.223694,0.95500659224,0,0,-0.671082,31, 1.4, -0.6,0,0,1024,1024,1024,1024,31.7,-89.9,98,4.027,4.044,4.042,4.025,4.023,4.038,17.407,80.6,14,Waypoint,
37.7328345,-120.0946864,3123.2121783549,65.944884,0,0.75385829184,12100,2018-05-13 18:10:54,19,0,24.208,3123.2121783549,65.944884,0.223694,0.95500659224,0,0,-0.671082,31.1, 1.3, -0.6,0,0,1024,1024,1024,1024,31.7,-89.9,98,4.027,4.044,4.042,4.025,4.023,4.038,17.407,80.6,14,Waypoint,
37.7328345,-120.0946865,3124.1964303549,66.929136,0,0.726295955,12200,2018-05-13 18:10:54,19,0,24.208,3124.1964303549,66.929136,0.223694,0.95500659224,0,0,-0.671082,31.1, 1.2, -0.7,0,0,1024,1024,1024,1024,31.7,-89.9,98,4.027,4.044,4.042,4.025,4.023,4.038,17.407,80.6,14,Waypoint,
37.7328345,-120.0946865,3125.1806823549,67.913388,0,0.726295955,12300,2018-05-13 18:10:54,19,0,24.208,3125.1806823549,67.913388,0.223694,0.95500659224,0,0,-0.671082,31.1, 1.1, -0.7,0,0,1024,1024,1024,1024,31.7,-89.9,98,4.027,4.044,4.042,4.025,4.023,4.038,17.407,80.6,14,Waypoint,
37.7328345,-120.0946866,3126.1649343549,68.89764,0,0.6988353242,12400,2018-05-13 18:10:54,19,0,24.208,3126.1649343549,68.89764,0.223694,0.95500659224,0,0,-0.671082,31.1, 1.1, -0.4,0,0,1024,1024,1024,1024,31.7,-89.9,98,4.027,4.044,4.042,4.025,4.023,4.038,17.407,80.6,14,Waypoint,
37.7328345,-120.0946867,3127.1491863549,69.881892,0,0.67149280364,12500,2018-05-13 18:10:54,19,0,24.208,3127.1491863549,69.881892,0.223694,0.95500659224,0,0,-0.671082,31.1, 1, -0.2,0,0,1024,1024,1024,1024,31.7,-89.9,98,4.027,4.044,4.042,4.025,4.023,4.038,17.407,80.6,14,Waypoint,
37.7328345,-120.0946868,3128.1334383549,70.866144,0,0.64428479752,12600,2018-05-13 18:10:55,19,0,24.208,3128.1334383549,70.866144,0.223694,0.95500659224,0,0,-0.671082,31.1, 1, -0.1,0,0,1024,1024,1024,1024,31.7,-89.9,98,4.027,4.044,4.042,4.025,4.023,4.038,17.407,80.6,14,Waypoint,
37.7328345,-120.0946869,3129.1176903549,71.850396,0,0.6172244292,12700,2018-05-13 18:10:55,19,0,24.208,3129.1176903549,71.850396,0.223694,0.95500659224,0,0,-0.671082,31.1, 1, 0,0,0,1024,1024,1024,1024,31.7,-90,98,4.027,4.044,4.042,4.025,4.023,4.038,17.407,80.6,14,Waypoint,
37.7328345,-120.094687,3130.1019423549,72.834648,0,0.59033138372,12800,2018-05-13 18:10:55,19,0,24.208,3130.1019423549,72.834648,0.223694,0.95500659224,0,0,-0.671082,31.1, 0.9, 0,0,0,1024,1024,1024,1024,31.7,-89.9,98,4.027,4.044,4.042,4.025,4.023,4.038,17.407,80.6,14,Waypoint,
37.7328345,-120.0946872,3132.0704463549,74.803152,0,0.53716537152,12900,2018-05-13 18:10:55,19,0,24.208,3132.0704463549,74.803152,0.223694,0.95500659224,0,0,-0.671082,31, 0.8, 0.3,0,0,1024,1024,1024,1024,31.7,-90,98,4.027,4.044,4.042,4.025,4.023,4.038,17.407,80.6,14,Waypoint,
37.7328345,-120.0946873,3133.0546983549,75.787404,0,0.51094817908,13010,2018-05-13 18:10:55,19,0,24.121,3133.0546983549,75.787404,0.223694,0.95500659224,0,0,-0.671082,31, 0.8, 0.3,0,0,1024,1024,1024,1024,31.7,-90,98,4.015,4.024,4.029,4.008,4,4.032,17.874,80.6,14,Waypoint,
37.7328345,-120.0946874,3134.0389503549,76.771656,0,0.48503282392,13110,2018-05-13 18:10:55,19,0,24.121,3134.0389503549,76.771656,0.223694,0.95500659224,0,0,-0.671082,31, 0.7, 0.3,0,0,1024,1024,1024,1024,31.7,-90,98,4.015,4.024,4.029,4.008,4,4.032,17.874,80.6,14,Waypoint,
37.7328344,-120.0946876,3136.9917063549,79.724412,0,0.41711943592,13410,2018-05-13 18:10:55,19,0,24.121,3136.9917063549,79.724412,0.223694,0.95500659224,0,0,-0.671082,31.1, 0.6, 0.1,0,0,1024,1024,1024,1024,31.7,-90,98,4.015,4.024,4.029,4.008,4,4.032,17.874,80.6,14,Waypoint,
37.7328344,-120.0946876,3137.9759583549,80.708664,0,0.41711943592,13510,2018-05-13 18:10:55,19,0,24.121,3137.9759583549,80.708664,0.223694,0.95500659224,0,0,-0.671082,31.1, 0.7, 0,0,0,1024,1024,1024,1024,31.7,-89.9,98,4.015,4.024,4.029,4.008,4,4.032,17.874,80.6,14,Waypoint,
37.7328344,-120.0946876,3138.9602103549,81.692916,0,0.41711943592,13600,2018-05-13 18:10:56,19,0,24.121,3138.9602103549,81.692916,0.223694,0.95500659224,0,0,-0.671082,31.1, 0.9, -0.1,0,0,1024,1024,1024,1024,31.7,-89.9,98,4.015,4.024,4.029,4.008,4,4.032,17.874,80.6,14,Waypoint,
37.7328344,-120.0946876,3139.9444623549,82.677168,0,0.41711943592,13800,2018-05-13 18:10:56,19,0,24.121,3139.9444623549,82.677168,0.223694,0.95500659224,0,0,-0.671082,31.1, 1.1, 0,0,0,1024,1024,1024,1024,31.7,-89.9,98,4.015,4.024,4.029,4.008,4,4.032,17.874,80.6,14,Waypoint,
37.7328344,-120.0946876,3140.9287143549,83.66142,0,0.41711943592,13900,2018-05-13 18:10:56,19,0,24.121,3140.9287143549,83.66142,0.223694,0.95500659224,0,0,-0.671082,31, 0.9, 0,0,0,1024,1024,1024,1024,31.7,-90,98,4.015,4.024,4.029,4.008,4,4.032,17.874,80.6,14,Waypoint,
37.7328343,-120.0946877,3141.9129663549,84.645672,0,0.37575788604,14000,2018-05-13 18:10:56,19,0,24.13,3141.9129663549,84.645672,0.223694,0.95500659224,0,0,-0.671082,30.9, 0.7, 0,0,0,1024,1024,1024,1024,31.7,-90,98,4.015,4.021,4.026,4.01,4.015,4.033,17.292,80.6,14,Waypoint,
37.7328343,-120.0946877,3142.8972183549,85.629924,0,0.37575788604,14100,2018-05-13 18:10:56,19,0,24.13,3142.8972183549,85.629924,0.223694,0.95500659224,0,0,-0.671082,30.8, 0.6, 0,0,0,1024,1024,1024,1024,31.7,-90,98,4.015,4.021,4.026,4.01,4.015,4.033,17.292,80.6,14,Waypoint,
37.7328342,-120.0946877,3143.8814703549,86.614176,0,0.36314633708,14200,2018-05-13 18:10:56,19,0,24.13,3143.8814703549,86.614176,0.223694,0.95500659224,0,0,-0.671082,30.7, 0.5, -0.1,0,0,1024,1024,1024,1024,31.7,-90,98,4.015,4.021,4.026,4.01,4.015,4.033,17.292,80.6,14,Waypoint,
37.7328342,-120.0946877,3144.8657223549,87.598428,0,0.36314633708,14300,2018-05-13 18:10:56,19,0,24.13,3144.8657223549,87.598428,0.223694,0.95500659224,0,0,-0.671082,30.7, 0.6, -0.1,0,0,1024,1024,1024,1024,31.7,-90,98,4.015,4.021,4.026,4.01,4.015,4.033,17.292,80.6,14,Waypoint,
37.7328342,-120.0946877,3145.8499743549,88.58268,0,0.36314633708,14400,2018-05-13 18:10:56,19,0,24.13,3145.8499743549,88.58268,0.223694,0.95500659224,0,0,-0.671082,30.7, 0.6, -0.3,0,0,1024,1024,1024,1024,31.7,-89.9,98,4.015,4.021,4.026,4.01,4.015,4.033,17.292,80.6,14,Waypoint,
37.7328341,-120.0946877,3146.8342263549,89.566932,0,0.35386484072,14500,2018-05-13 18:10:56,19,0,24.13,3146.8342263549,89.566932,0.223694,0.95500659224,0,0,-0.671082,30.7, 0.8, -0.5,0,0,1024,1024,1024,1024,31.7,-90,98,4.015,4.021,4.026,4.01,4.015,4.033,17.292,80.6,14,Waypoint,
37.7328341,-120.0946877,3147.8184783549,90.551184,0,0.35386484072,14600,2018-05-13 18:10:57,19,0,24.13,3147.8184783549,90.551184,0.223694,0.95500659224,0,0,-0.671082,30.6, 0.7, -0.5,0,0,1024,1024,1024,1024,31.7,-90,98,4.015,4.021,4.026,4.01,4.015,4.033,17.292,80.6,14,Waypoint,
37.732834,-120.0946876,3149.1308143549,91.86352,0,0.37688321416,14700,2018-05-13 18:10:57,19,0,24.13,3149.1308143549,91.86352,0.223694,0.95500659224,0,0,-0.671082,30.6, 0.6, -0.4,0,0,1024,1024,1024,1024,31.7,-90,98,4.015,4.021,4.026,4.01,4.015,4.033,17.292,80.6,14,Waypoint,
37.7328339,-120.0946876,3150.1150663549,92.847772,0,0.3751148414,14800,2018-05-13 18:10:57,19,0,24.13,3150.1150663549,92.847772,0.223694,0.95500659224,0,0,-0.671082,30.6, 0.4, -0.6,0,0,1024,1024,1024,1024,31.7,-90,98,4.015,4.021,4.026,4.01,4.015,4.033,17.292,80.6,14,Waypoint,
37.7328339,-120.0946875,3151.0993183549,93.832024,0,0.4039698292,14900,2018-05-13 18:10:57,19,0,24.13,3151.0993183549,93.832024,0.223694,0.95500659224,0,0,-0.671082,30.6, 0.4, -0.9,0,0,1024,1024,1024,1024,31.7,-90,98,4.015,4.021,4.026,4.01,4.015,4.033,17.292,80.6,14,Waypoint,
37.7328338,-120.0946874,3153.0678223549,95.800528,0,0.43436025012,15000,2018-05-13 18:10:57,19,0,24.105,3153.0678223549,95.800528,0.223694,0.95500659224,0,0,-0.671082,30.5, 0.6, -0.9,0,0,1024,1024,1024,1024,31.7,-89.9,97,4.01,4.025,4.022,4.012,4.001,4.026,17.598,80.6,14,Waypoint,
37.7328338,-120.0946873,3154.0520743549,96.78478,0,0.46312009356,15110,2018-05-13 18:10:57,19,0,24.105,3154.0520743549,96.78478,0.223694,0.95500659224,0,0,-0.671082,30.3, 0.7, -0.8,0,0,1024,1024,1024,1024,31.7,-89.9,97,4.01,4.025,4.022,4.012,4.001,4.026,17.598,80.6,14,Waypoint,
37.7328337,-120.0946871,3155.0363263549,97.769032,0.223694,0.5244914866,15200,2018-05-13 18:10:57,19,0,24.105,3155.0363263549,97.769032,0.223694,0.95500659224,0,0,-0.671082,30.2, 0.7, -1.6,0,0,1024,1024,1024,1024,31.7,-89.9,97,4.01,4.025,4.022,4.012,4.001,4.026,17.598,80.6,14,Waypoint,
37.7328335,-120.0946865,3158.3171663549,101.049872,0.223694,0.70772968144,15510,2018-05-13 18:10:57,19,0,24.105,3158.3171663549,101.049872,0.223694,0.95500659224,0,0,-0.671082,30.7, 0.9, -3.8,0,0,1024,1024,1024,1024,31.7,-89.9,97,4.01,4.025,4.022,4.012,4.001,4.026,17.598,80.6,14,Waypoint,
37.7328334,-120.0946863,3159.3014183549,102.034124,0.223694,0.77208991972,15700,2018-05-13 18:10:58,19,0,24.105,3159.3014183549,102.034124,0.223694,0.95500659224,0,0,-0.671082,30.9, 1.3, -4,0,0,1024,1024,1024,1024,31.7,-89.9,97,4.01,4.025,4.022,4.012,4.001,4.026,17.598,80.6,14,Waypoint,
37.7328334,-120.0946861,3160.2856703549,103.018376,0.223694,0.82827758556,15800,2018-05-13 18:10:58,19,0,24.105,3160.2856703549,103.018376,0.223694,0.95500659224,0,0,-0.671082,30.9, 1.6, -4.1,0,0,1024,1024,1024,1024,31.7,-89.9,97,4.01,4.025,4.022,4.012,4.001,4.026,17.598,80.6,14,Waypoint,
37.7328333,-120.0946859,3161.2699223549,104.002628,0.223694,0.89290029104,15900,2018-05-13 18:10:58,19,0,24.105,3161.2699223549,104.002628,0.223694,0.95500659224,0,0,-0.671082,30.9, 1.9, -4.2,0,0,1024,1024,1024,1024,31.7,-89.9,97,4.01,4.025,4.022,4.012,4.001,4.026,17.598,80.6,14,Waypoint,
37.7328333,-120.0946857,3162.2541743549,104.98688,0,0.94895344244,16000,2018-05-13 18:10:58,19,0,24.086,3162.2541743549,104.98688,0.223694,0.95500659224,0,0,-0.671082,30.9, 1.8, -4.3,0,0,1024,1024,1024,1024,31.7,-89.9,97,4.009,4.023,4.019,4.014,4.01,4.025,17.24,80.6,14,Waypoint,
37.7328332,-120.0946856,3163.2384263549,105.971132,0,0.98586945412,16100,2018-05-13 18:10:58,19,0,24.086,3163.2384263549,105.971132,0.223694,0.98586945412,0,0,-0.671082,30.8, 1.6, -4.3,0,0,1024,1024,1024,1024,31.7,-89.9,97,4.009,4.023,4.019,4.014,4.01,4.025,17.24,80.6,14,Waypoint,
37.7328332,-120.0946855,3164.2226783549,106.955384,0,1.01376643664,16200,2018-05-13 18:10:58,19,0,24.086,3164.2226783549,106.955384,0.223694,1.01376643664,0,0,-0.671082,30.8, 1.3, -4.3,0,0,1024,1024,1024,1024,31.7,-90,97,4.009,4.023,4.019,4.014,4.01,4.025,17.24,80.6,14,Waypoint,
37.7328331,-120.0946854,3165.2069303549,107.939636,0,1.05125659532,16310,2018-05-13 18:10:58,19,0,24.086,3165.2069303549,107.939636,0.223694,1.05125659532,0,0,-0.671082,30.9, 0.9, -4.3,0,0,1024,1024,1024,1024,31.7,-90,97,4.009,4.023,4.019,4.014,4.01,4.025,17.24,80.6,14,Waypoint,
37.732833,-120.0946854,3166.1911823549,108.923888,0,1.06196525708,16400,2018-05-13 18:10:58,19,0,24.086,3166.1911823549,108.923888,0.223694,1.06196525708,0,0,-0.671082,31, 0.3, -3.9,0,0,1024,1024,1024,1024,31.7,-90,97,4.009,4.023,4.019,4.014,4.01,4.025,17.24,80.6,14,Waypoint,
37.7328329,-120.0946855,3167.1754343549,109.90814,0,1.04671263192,16500,2018-05-13 18:10:58,19,0,24.086,3167.1754343549,109.90814,0.223694,1.06196525708,0,0,-0.671082,31.1, 0, -3.5,0,0,1024,1024,1024,1024,31.7,-90,97,4.009,4.023,4.019,4.014,4.01,4.025,17.24,80.6,14,Waypoint,
37.7328328,-120.0946855,3168.1596863549,110.892392,0,1.05998362972,16600,2018-05-13 18:10:59,19,0,24.086,3168.1596863549,110.892392,0.223694,1.06196525708,0,0,-0.671082,31.3, -0.3, -3.3,0,0,1024,1024,1024,1024,31.7,-90,97,4.009,4.023,4.019,4.014,4.01,4.025,17.24,80.6,14,Waypoint,
37.7328328,-120.0946856,3169.8001063549,112.532812,0,1.0333333664,16800,2018-05-13 18:10:59,19,0,24.086,3169.8001063549,112.532812,0.223694,1.06196525708,0,0,-0.671082,31.5, 0, -3.3,0,0,1024,1024,1024,1024,31.7,-90,97,4.009,4.023,4.019,4.014,4.01,4.025,17.24,80.6,14,Waypoint,
37.7328328,-120.0946856,3170.7843583549,113.517064,0,1.0333333664,16900,2018-05-13 18:10:59,19,0,24.086,3170.7843583549,113.517064,0.223694,1.06196525708,0,0,-0.671082,31.6, 0, -3.1,0,0,1024,1024,1024,1024,31.7,-90,97,4.009,4.023,4.019,4.014,4.01,4.025,17.24,80.6,14,Waypoint,
37.7328328,-120.0946856,3171.4405263549,114.173232,0,1.0333333664,17000,2018-05-13 18:10:59,19,0,24.193,3171.4405263549,114.173232,0.223694,1.06196525708,0,0,-0.671082,31.6, 0, -3,0,0,1024,1024,1024,1024,31.7,-90,97,4.027,4.038,4.029,4.032,4.021,4.035,15.841,80.6,14,Waypoint,
37.7328328,-120.0946857,3173.0809463549,115.813652,0,1.006807775,17200,2018-05-13 18:10:59,19,0,24.193,3173.0809463549,115.813652,0.223694,1.06196525708,0,0,-0.671082,31.4, 0, -2.8,0,0,1024,1024,1024,1024,31.7,-90,97,4.027,4.038,4.029,4.032,4.021,4.035,15.841,80.6,14,Waypoint,
37.7328328,-120.0946858,3174.7213663549,117.454072,0,0.98041013636,17300,2018-05-13 18:10:59,19,0,24.193,3174.7213663549,117.454072,0.223694,1.06196525708,0,0,-0.671082,31.2, 0, -2.6,0,0,1024,1024,1024,1024,31.7,-90,97,4.027,4.038,4.029,4.032,4.021,4.035,15.841,80.6,14,Waypoint,
37.7328329,-120.0946859,3175.7056183549,118.438324,0,0.93939635552,17410,2018-05-13 18:10:59,19,0,24.193,3175.7056183549,118.438324,0.223694,1.06196525708,0,0,-0.671082,31.2, 0.1, -2.5,0,0,1024,1024,1024,1024,31.7,-90,97,4.027,4.038,4.029,4.032,4.021,4.035,15.841,80.6,14,Waypoint,
37.7328329,-120.094686,3176.6898703549,119.422576,0,0.91287404496,17600,2018-05-13 18:11:00,19,0,24.193,3176.6898703549,119.422576,0.223694,1.06196525708,0,0,-0.671082,31.2, 0.2, -2.4,0,0,1024,1024,1024,1024,31.7,-89.9,97,4.027,4.038,4.029,4.032,4.021,4.035,15.841,80.6,14,Waypoint,
37.732833,-120.0946861,3178.3302903549,121.062996,0,0.87211616964,17700,2018-05-13 18:11:00,19,0,24.193,3178.3302903549,121.062996,0.223694,1.06196525708,0,0,-0.671082,31.2, 0.3, -2.4,0,0,1024,1024,1024,1024,31.7,-89.9,97,4.027,4.038,4.029,4.032,4.021,4.035,15.841,80.6,14,Waypoint,
37.732833,-120.0946861,3179.3145423549,122.047248,0,0.87211616964,17800,2018-05-13 18:11:00,19,0,24.193,3179.3145423549,122.047248,0.223694,1.06196525708,0,0,-0.671082,31.2, 0.1, -2.4,0,0,1024,1024,1024,1024,31.7,-90,97,4.027,4.038,4.029,4.032,4.021,4.035,15.841,80.6,14,Waypoint,
37.732833,-120.0946862,3180.2987943549,123.0315,0,0.8454560638,17910,2018-05-13 18:11:00,19,0,24.193,3180.2987943549,123.0315,0.223694,1.06196525708,0,0,-0.671082,31.2, 0, -2.5,0,0,1024,1024,1024,1024,31.7,-90,97,4.027,4.038,4.029,4.032,4.021,4.035,15.841,80.6,14,Waypoint,
37.732833,-120.0946862,3181.2830463549,124.015752,0,0.8454560638,18010,2018-05-13 18:11:00,19,0,24.185,3181.2830463549,124.015752,0.223694,1.06196525708,0,0,-0.671082,31.1, -0.1, -2.6,0,0,1024,1024,1024,1024,31.7,-90,97,4.015,4.025,4.025,4.032,4.021,4.035,15.815,80.6,14,Waypoint,
37.732833,-120.0946862,3181.2830463549,124.015752,0,0.8454560638,18110,2018-05-13 18:11:00,19,0,24.185,3181.2830463549,124.015752,0.223694,1.06196525708,0,0,-0.671082,31.1, -0.1, -2.6,0,0,1024,1024,1024,1024,31.7,-90,97,4.015,4.025,4.025,4.032,4.021,4.035,15.815,80.6,14,Waypoint,
37.732833,-120.0946863,3182.2672983549,125.000004,0,0.81894359576,18200,2018-05-13 18:11:00,19,0,24.185,3182.2672983549,125.000004,0.223694,1.06196525708,0,0,-0.671082,30.9, -0.1, -2.6,0,0,1024,1024,1024,1024,31.7,-90,97,4.015,4.025,4.025,4.032,4.021,4.035,15.815,80.6,14,Waypoint,
37.732833,-120.0946863,3183.2515503549,125.984256,0,0.81894359576,18300,2018-05-13 18:11:00,19,0,24.185,3183.2515503549,125.984256,0.223694,1.06196525708,0,0,-0.671082,30.8, 0, -2.8,0,0,1024,1024,1024,1024,31.7,-90,97,4.015,4.025,4.025,4.032,4.021,4.035,15.815,80.6,14,Waypoint,
37.732833,-120.0946863,3184.2358023549,126.968508,0,0.81894359576,18410,2018-05-13 18:11:00,19,0,24.185,3184.2358023549,126.968508,0.223694,1.06196525708,0,0,-0.671082,30.8, 0, -3,0,0,1024,1024,1024,1024,31.7,-89.9,97,4.015,4.025,4.025,4.032,4.021,4.035,15.815,80.6,14,Waypoint,
37.7328329,-120.0946863,3185.2200543549,127.95276,0,0.83424215268,18510,2018-05-13 18:11:00,19,0,24.185,3185.2200543549,127.95276,0.223694,1.06196525708,0,0,-0.671082,30.9, 0, -3.3,0,0,1024,1024,1024,1024,31.7,-90,97,4.015,4.025,4.025,4.032,4.021,4.035,15.815,80.6,14,Waypoint,
37.7328329,-120.0946863,3186.2043063549,128.937012,0,0.83424215268,18600,2018-05-13 18:11:01,19,0,24.185,3186.2043063549,128.937012,0.223694,1.06196525708,0,0,-0.671082,31, 0, -3.6,0,0,1024,1024,1024,1024,31.7,-89.9,97,4.015,4.025,4.025,4.032,4.021,4.035,15.815,80.6,14,Waypoint,
37.7328328,-120.0946864,3187.1885583549,129.921264,0,0.82549871408,18710,2018-05-13 18:11:01,19,0,24.185,3187.1885583549,129.921264,0.223694,1.06196525708,0,0,-0.671082,31.1, -0.1, -3.5,0,0,1024,1024,1024,1024,31.7,-89.9,97,4.015,4.025,4.025,4.032,4.021,4.035,15.815,80.6,14,Waypoint,
37.7328328,-120.0946864,3188.1728103549,130.905516,0,0.82549871408,18800,2018-05-13 18:11:01,19,0,24.185,3188.1728103549,130.905516,0.223694,1.06196525708,0,0,-0.671082,31.2, -0.2, -3.4,0,0,1024,1024,1024,1024,31.7,-90,97,4.015,4.025,4.025,4.032,4.021,4.035,15.815,80.6,14,Waypoint,
37.7328327,-120.0946864,3189.1570623549,131.889768,0,0.84383860968,18910,2018-05-13 18:11:01,19,0,24.185,3189.1570623549,131.889768,0.223694,1.06196525708,0,0,-0.671082,31.3, -0.3, -3.3,0,0,1024,1024,1024,1024,31.7,-89.9,97,4.015,4.025,4.025,4.032,4.021,4.035,15.815,80.6,14,Waypoint,
37.7328327,-120.0946865,3190.1413143549,132.87402,0,0.81931104984,19010,2018-05-13 18:11:01,19,0,24.007,3190.1413143549,132.87402,0.223694,1.06196525708,0,0,-0.671082,31.2, -0.3, -3.2,0,0,1024,1024,1024,1024,31.7,-89.9,97,3.987,4.011,4.011,3.995,3.996,4.021,17.683,80.6,14,Waypoint,
37.7328327,-120.0946865,3191.1255663549,133.858272,0,0.81931104984,19110,2018-05-13 18:11:01,19,0,24.007,3191.1255663549,133.858272,0.223694,1.06196525708,0,0,-0.671082,31.1, -0.2, -3,0,0,1024,1024,1024,1024,31.7,-89.9,97,3.987,4.011,4.011,3.995,3.996,4.021,17.683,80.6,14,Waypoint,
37.7328327,-120.0946866,3192.1098183549,134.842524,0,0.79506892308,19210,2018-05-13 18:11:01,19,0,24.007,3192.1098183549,134.842524,0.223694,1.06196525708,0,0,-0.671082,31, 0, -2.8,0,0,1024,1024,1024,1024,31.7,-89.9,97,3.987,4.011,4.011,3.995,3.996,4.021,17.683,80.6,14,Waypoint,
37.7328327,-120.0946866,3193.0940703549,135.826776,0,0.79506892308,19300,2018-05-13 18:11:01,19,0,24.007,3193.0940703549,135.826776,0.223694,1.06196525708,0,0,-0.671082,30.8, 0.1, -2.9,0,0,1024,1024,1024,1024,31.7,-90,97,3.987,4.011,4.011,3.995,3.996,4.021,17.683,80.6,14,Waypoint,
37.7328327,-120.0946866,3194.0783223549,136.811028,0,0.79506892308,19400,2018-05-13 18:11:01,19,0,24.007,3194.0783223549,136.811028,0.223694,1.06196525708,0,0,-0.671082,30.8, 0.2, -3.1,0,0,1024,1024,1024,1024,31.7,-89.9,97,3.987,4.011,4.011,3.995,3.996,4.021,17.683,80.6,14,Waypoint,
37.7328327,-120.0946866,3195.0625743549,137.79528,0,0.79506892308,19500,2018-05-13 18:11:01,19,0,24.007,3195.0625743549,137.79528,0.223694,1.06196525708,0,0,-0.671082,30.7, 0, -3,0,0,1024,1024,1024,1024,31.7,-89.9,97,3.987,4.011,4.011,3.995,3.996,4.021,17.683,80.6,14,Waypoint,
37.7328327,-120.0946866,3196.3749103549,139.107616,0,0.79506892308,19600,2018-05-13 18:11:02,19,0,24.007,3196.3749103549,139.107616,0.223694,1.06196525708,0,0,-0.671082,30.8, -0.1, -3.2,0,0,1024,1024,1024,1024,31.7,-90,97,3.987,4.011,4.011,3.995,3.996,4.021,17.683,80.6,14,Waypoint,
37.7328326,-120.0946866,3197.3591623549,140.091868,0,0.81572837256,19700,2018-05-13 18:11:02,19,0,24.007,3197.3591623549,140.091868,0.223694,1.06196525708,0,0,-0.671082,30.8, -0.1, -3.4,0,0,1024,1024,1024,1024,31.7,-90,97,3.987,4.011,4.011,3.995,3.996,4.021,17.683,80.6,14,Waypoint,
37.7328326,-120.0946866,3199.3276663549,142.060372,0,0.81572837256,19800,2018-05-13 18:11:02,19,0,24.007,3199.3276663549,142.060372,0.223694,1.06196525708,0,0,-0.671082,31.2, 0, -3.4,0,0,1024,1024,1024,1024,31.7,-89.9,97,3.987,4.011,4.011,3.995,3.996,4.021,17.683,80.6,14,Waypoint,
37.7328325,-120.0946865,3201.2961703549,144.028876,0,0.8605151194,20000,2018-05-13 18:11:02,19,0,23.992,3201.2961703549,144.028876,0.223694,1.06196525708,0,0,-0.671082,31.4, 0, -3.5,0,0,1024,1024,1024,1024,31.7,-90,97,3.987,4.011,4.011,3.995,3.996,4.021,16.973,80.6,14,Waypoint,
37.7328324,-120.0946864,3202.2804223549,145.013128,0,0.90547575076,20110,2018-05-13 18:11:02,19,0,23.992,3202.2804223549,145.013128,0.223694,1.06196525708,0,0,-0.671082,31.4, 0, -4.2,0,0,1024,1024,1024,1024,31.7,-89.9,97,3.987,4.011,4.011,3.995,3.996,4.021,16.973,80.6,14,Waypoint,
37.7328323,-120.0946864,3203.2646743549,145.99738,0,0.927985594,20200,2018-05-13 18:11:02,19,0,23.992,3203.2646743549,145.99738,0.223694,1.06196525708,0,0,-0.671082,31.4, -0.3, -4.6,0,0,1024,1024,1024,1024,31.7,-90,97,3.987,4.011,4.011,3.995,3.996,4.021,16.973,80.6,14,Waypoint,
37.7328323,-120.0946864,3205.2331783549,147.965884,0,0.927985594,20400,2018-05-13 18:11:02,19,0,23.992,3205.2331783549,147.965884,0.223694,1.06196525708,0,0,-0.671082,31, -0.4, -4.5,0,0,1024,1024,1024,1024,31.7,-89.9,97,3.987,4.011,4.011,3.995,3.996,4.021,16.973,80.6,14,Waypoint,
37.7328323,-120.0946864,3206.2174303549,148.950136,0,0.927985594,20600,2018-05-13 18:11:03,19,0,23.992,3206.2174303549,148.950136,0.223694,1.06196525708,0,0,-0.671082,30.9, -0.3, -4,0,0,1024,1024,1024,1024,31.7,-89.9,97,3.987,4.011,4.011,3.995,3.996,4.021,16.973,80.6,14,Waypoint,
37.7328323,-120.0946864,3207.2016823549,149.934388,0,0.927985594,20700,2018-05-13 18:11:03,19,0,23.992,3207.2016823549,149.934388,0.223694,1.06196525708,0,0,-0.671082,30.9, -0.3, -3.6,0,0,1024,1024,1024,1024,31.7,-90,97,3.987,4.011,4.011,3.995,3.996,4.021,16.973,80.6,14,Waypoint,
37.7328323,-120.0946865,3208.1859343549,150.91864,0,0.90573493712,20800,2018-05-13 18:11:03,19,0,23.992,3208.1859343549,150.91864,0.223694,1.06196525708,0,0,-0.671082,30.9, -0.3, -2.9,0,0,1024,1024,1024,1024,31.7,-90,97,3.987,4.011,4.011,3.995,3.996,4.021,16.973,80.6,14,Waypoint,
37.7328324,-120.0946866,3209.1701863549,151.902892,0,0.86021000128,20900,2018-05-13 18:11:03,19,0,23.992,3209.1701863549,151.902892,0.223694,1.06196525708,0,0,-0.671082,30.9, -0.3, -2.1,0,0,1024,1024,1024,1024,31.7,-89.9,97,3.987,4.011,4.011,3.995,3.996,4.021,16.973,80.6,14,Waypoint,
37.7328324,-120.0946867,3210.1544383549,152.887144,0,0.83814635228,21000,2018-05-13 18:11:03,19,0,23.93,3210.1544383549,152.887144,0.223694,1.06196525708,0,0,-0.671082,30.9, -0.4, -1.9,0,0,1024,1024,1024,1024,31.7,-90,97,3.992,4.012,3.994,3.994,3.994,4.001,18.563,80.6,14,Waypoint,
37.7328325,-120.0946869,3212.1229423549,154.855648,0,0.77067915852,21200,2018-05-13 18:11:03,19,0,23.93,3212.1229423549,154.855648,0.223694,1.06196525708,0,0,-0.671082,30.9, -0.5, -2.1,0,0,1024,1024,1024,1024,31.7,-89.9,97,3.992,4.012,3.994,3.994,3.994,4.001,18.563,80.6,14,Waypoint,
37.7328325,-120.0946869,3213.1071943549,155.8399,0,0.77067915852,21300,2018-05-13 18:11:03,19,0,23.93,3213.1071943549,155.8399,0.223694,1.06196525708,0,0,-0.671082,30.7, -0.3, -2.7,0,0,1024,1024,1024,1024,31.7,-89.9,97,3.992,4.012,3.994,3.994,3.994,4.001,18.563,80.6,14,Waypoint,
37.7328326,-120.0946869,3214.0914463549,156.824152,0,0.7469980554,21400,2018-05-13 18:11:03,19,0,23.93,3214.0914463549,156.824152,0.223694,1.06196525708,0,0,-0.671082,30.5, 0.1, -3,0,0,1024,1024,1024,1024,31.7,-89.9,97,3.992,4.012,3.994,3.994,3.994,4.001,18.563,80.6,14,Waypoint,
37.7328326,-120.0946869,3215.0756983549,157.808404,0,0.7469980554,21500,2018-05-13 18:11:03,19,0,23.93,3215.0756983549,157.808404,0.223694,1.06196525708,0,0,-0.671082,30.2, 0.7, -3,0,0,1024,1024,1024,1024,31.7,-89.9,97,3.992,4.012,3.994,3.994,3.994,4.001,18.563,80.6,14,Waypoint,
37.7328326,-120.094687,3216.3880343549,159.12074,0,0.72493768724,21600,2018-05-13 18:11:04,19,0,23.93,3216.3880343549,159.12074,0.223694,1.06196525708,0,0,-0.671082,30.1, 0.5, -2.5,0,0,1024,1024,1024,1024,31.7,-90,97,3.992,4.012,3.994,3.994,3.994,4.001,18.563,80.6,14,Waypoint,
37.7328326,-120.094687,3217.3722863549,160.104992,0,0.72493768724,21700,2018-05-13 18:11:04,19,0,23.93,3217.3722863549,160.104992,0.223694,1.06196525708,0,0,-0.671082,30.3, -0.1, -2.5,0,0,1024,1024,1024,1024,31.7,-90,97,3.992,4.012,3.994,3.994,3.994,4.001,18.563,80.6,14,Waypoint,
37.7328326,-120.0946871,3218.3565383549,161.089244,0,0.70336944508,21800,2018-05-13 18:11:04,19,0,23.93,3218.3565383549,161.089244,0.223694,1.06196525708,0,0,-0.671082,30.8, -0.9, -2.3,0,0,1024,1024,1024,1024,31.7,-90,97,3.992,4.012,3.994,3.994,3.994,4.001,18.563,80.6,14,Waypoint,
37.7328325,-120.0946872,3220.3250423549,163.057748,0,0.70818899904,21900,2018-05-13 18:11:04,19,0,23.93,3220.3250423549,163.057748,0.223694,1.06196525708,0,0,-0.671082,31.6, -1.5, -2.3,0,0,1024,1024,1024,1024,31.7,-90,97,3.992,4.012,3.994,3.994,3.994,4.001,18.563,80.6,14,Waypoint,
37.7328324,-120.0946873,3222.2935463549,165.026252,0,0.71600067908,22100,2018-05-13 18:11:04,19,0,23.93,3222.2935463549,165.026252,0.223694,1.06196525708,0,0,-0.671082,32, -1.8, -3,0,0,1024,1024,1024,1024,31.7,-90,97,3.992,4.012,3.994,3.994,3.994,4.001,18.563,80.6,14,Waypoint,
37.7328324,-120.0946873,3223.2777983549,166.010504,0,0.71600067908,22200,2018-05-13 18:11:04,19,0,23.93,3223.2777983549,166.010504,0.223694,1.06196525708,0,0,-0.671082,32, -1.9, -2.9,0,0,1024,1024,1024,1024,31.7,-89.9,97,3.992,4.012,3.994,3.994,3.994,4.001,18.563,80.6,14,Waypoint,
37.7328324,-120.0946874,3224.5901343549,167.32284,0,0.69774280448,22300,2018-05-13 18:11:04,19,0,23.93,3224.5901343549,167.32284,0.223694,1.06196525708,0,0,-0.671082,32, -1.6, -2.9,0,0,1024,1024,1024,1024,31.7,-89.9,97,3.992,4.012,3.994,3.994,3.994,4.001,18.563,80.6,14,Waypoint,
37.7328324,-120.0946873,3225.2463023549,167.979008,0,0.71600067908,22400,2018-05-13 18:11:04,19,0,23.93,3225.2463023549,167.979008,0.223694,1.06196525708,0,0,-0.671082,31.8, -1.1, -2.9,0,0,1024,1024,1024,1024,31.7,-89.9,97,3.992,4.012,3.994,3.994,3.994,4.001,18.563,80.6,14,Waypoint,
37.7328324,-120.0946872,3227.5428903549,170.275596,0,0.73493768756,22620,2018-05-13 18:11:05,19,0,23.93,3227.5428903549,170.275596,0.223694,1.06196525708,0,0,-0.671082,31.4, -0.3, -3.3,0,0,1024,1024,1024,1024,31.7,-89.9,97,3.992,4.012,3.994,3.994,3.994,4.001,18.563,80.6,14,Waypoint,
37.7328324,-120.0946872,3227.5428903549,170.275596,0,0.73493768756,22700,2018-05-13 18:11:05,19,0,23.93,3227.5428903549,170.275596,0.223694,1.06196525708,0,0,-0.671082,31.4, -0.3, -3.3,0,0,1024,1024,1024,1024,31.7,-89.9,97,3.992,4.012,3.994,3.994,3.994,4.001,18.563,80.6,14,Waypoint,
37.7328324,-120.0946871,3228.5271423549,171.259848,0,0.75450133648,22800,2018-05-13 18:11:05,19,0,23.93,3228.5271423549,171.259848,0.223694,1.06196525708,0,0,-0.671082,31.4, -0.2, -4,0,0,1024,1024,1024,1024,31.7,-89.9,97,3.992,4.012,3.994,3.994,3.994,4.001,18.563,80.6,14,Waypoint,
37.7328324,-120.094687,3229.5113943549,172.2441,0,0.77464897492,22900,2018-05-13 18:11:05,19,0,23.93,3229.5113943549,172.2441,0.223694,1.06196525708,0,0,-0.671082,31.5, -0.2, -4.4,0,0,1024,1024,1024,1024,31.7,-89.9,97,3.992,4.012,3.994,3.994,3.994,4.001,18.563,80.6,14,Waypoint,
37.7328324,-120.0946869,3231.4798983549,174.212604,0,0.79533139028,23000,2018-05-13 18:11:05,19,0,23.825,3231.4798983549,174.212604,0.223694,1.06196525708,0,0,-0.671082,31.5, -0.4, -4.7,0,0,1024,1024,1024,1024,31.7,-89.9,97,3.967,3.983,3.961,3.951,3.965,3.969,19.228,82.4,14,Waypoint,
37.7328324,-120.0946869,3232.4641503549,175.196856,0,0.79533139028,23200,2018-05-13 18:11:05,19,0,23.825,3232.4641503549,175.196856,0.223694,1.06196525708,0,0,-0.671082,31.4, -0.2, -4.3,0,0,1024,1024,1024,1024,31.7,-89.9,97,3.967,3.983,3.961,3.951,3.965,3.969,19.228,82.4,14,Waypoint,
37.7328324,-120.0946869,3233.4484023549,176.181108,0,0.79533139028,23300,2018-05-13 18:11:05,19,0,23.825,3233.4484023549,176.181108,0.223694,1.06196525708,0,0,-0.671082,31.2, -0.2, -3.8,0,0,1024,1024,1024,1024,31.7,-89.9,97,3.967,3.983,3.961,3.951,3.965,3.969,19.228,82.4,14,Waypoint,
37.7328325,-120.0946869,3234.4326543549,177.16536,0,0.77067915852,23400,2018-05-13 18:11:05,19,0,23.825,3234.4326543549,177.16536,0.223694,1.06196525708,0,0,-0.671082,30.9, 0, -3.3,0,0,1024,1024,1024,1024,31.7,-89.9,97,3.967,3.983,3.961,3.951,3.965,3.969,19.228,82.4,14,Waypoint,
37.7328325,-120.0946869,3235.4169063549,178.149612,0,0.77067915852,23500,2018-05-13 18:11:05,19,0,23.825,3235.4169063549,178.149612,0.223694,1.06196525708,0,0,-0.671082,30.7, 0, -3,0,0,1024,1024,1024,1024,31.7,-89.9,97,3.967,3.983,3.961,3.951,3.965,3.969,19.228,82.4,14,Waypoint,
37.7328326,-120.0946869,3236.0730743549,178.80578,0,0.7469980554,23600,2018-05-13 18:11:06,19,0,23.825,3236.0730743549,178.80578,0.223694,1.06196525708,0,0,-0.671082,30.6, 0.2, -3.1,0,0,1024,1024,1024,1024,31.7,-89.9,97,3.967,3.983,3.961,3.951,3.965,3.969,19.228,82.4,14,Waypoint,
37.7328326,-120.0946869,3237.0573263549,179.790032,0,0.7469980554,23700,2018-05-13 18:11:06,19,0,23.825,3237.0573263549,179.790032,0.223694,1.06196525708,0,0,-0.671082,30.6, 0.3, -3.1,0,0,1024,1024,1024,1024,31.7,-89.9,97,3.967,3.983,3.961,3.951,3.965,3.969,19.228,82.4,14,Waypoint,
37.7328326,-120.0946869,3238.0415783549,180.774284,0,0.7469980554,23800,2018-05-13 18:11:06,19,0,23.825,3238.0415783549,180.774284,0.223694,1.06196525708,0,0,-0.671082,30.7, 0.2, -3.3,0,0,1024,1024,1024,1024,31.7,-89.9,97,3.967,3.983,3.961,3.951,3.965,3.969,19.228,82.4,14,Waypoint,
37.7328326,-120.0946868,3239.0258303549,181.758536,0,0.76950789864,23900,2018-05-13 18:11:06,19,0,23.825,3239.0258303549,181.758536,0.223694,1.06196525708,0,0,-0.671082,30.8, -0.1, -3.2,0,0,1024,1024,1024,1024,31.7,-89.9,97,3.967,3.983,3.961,3.951,3.965,3.969,19.228,82.4,14,Waypoint,
37.7328326,-120.0946868,3240.0100823549,182.742788,0,0.76950789864,24000,2018-05-13 18:11:06,19,0,23.837,3240.0100823549,182.742788,0.223694,1.06196525708,0,0,-0.671082,30.8, -0.3, -3,0,0,1024,1024,1024,1024,31.7,-89.9,97,3.964,3.99,3.969,3.959,3.963,3.987,18.409,82.4,14,Waypoint,
37.7328326,-120.0946869,3240.9943343549,183.72704,0,0.7469980554,24100,2018-05-13 18:11:06,19,0,23.837,3240.9943343549,183.72704,0.223694,1.06196525708,0,0,-0.671082,30.7, -0.2, -3.1,0,0,1024,1024,1024,1024,31.7,-89.9,97,3.964,3.99,3.969,3.959,3.963,3.987,18.409,82.4,14,Waypoint,
37.7328327,-120.0946869,3241.9785863549,184.711292,0,0.72438322528,24200,2018-05-13 18:11:06,19,0,23.837,3241.9785863549,184.711292,0.223694,1.06196525708,0,0,-0.671082,30.7, 0, -3,0,0,1024,1024,1024,1024,31.7,-89.9,97,3.964,3.99,3.969,3.959,3.963,3.987,18.409,82.4,14,Waypoint,
37.7328327,-120.0946869,3242.9628383549,185.695544,0,0.72438322528,24300,2018-05-13 18:11:06,19,0,23.837,3242.9628383549,185.695544,0.223694,1.06196525708,0,0,-0.671082,30.8, 0, -2.9,0,0,1024,1024,1024,1024,31.7,-89.9,97,3.964,3.99,3.969,3.959,3.963,3.987,18.409,82.4,14,Waypoint,
37.7328328,-120.0946869,3243.9470903549,186.679796,0,0.70293309336,24400,2018-05-13 18:11:06,19,0,23.837,3243.9470903549,186.679796,0.223694,1.06196525708,0,0,-0.671082,30.8, 0, -2.9,0,0,1024,1024,1024,1024,31.7,-89.9,97,3.964,3.99,3.969,3.959,3.963,3.987,18.409,82.4,14,Waypoint,
37.7328328,-120.0946869,3244.9313423549,187.664048,0,0.70293309336,24500,2018-05-13 18:11:06,19,0,23.837,3244.9313423549,187.664048,0.223694,1.06196525708,0,0,-0.671082,30.8, 0.1, -3,0,0,1024,1024,1024,1024,31.7,-89.9,97,3.964,3.99,3.969,3.959,3.963,3.987,18.409,82.4,14,Waypoint,
37.7328329,-120.0946869,3245.9155943549,188.6483,0.223694,0.6827592082,24600,2018-05-13 18:11:07,19,0,23.837,3245.9155943549,188.6483,0.223694,1.06196525708,0,0,-0.671082,30.7, 0.3, -2.7,0,0,1024,1024,1024,1024,31.7,-89.9,97,3.964,3.99,3.969,3.959,3.963,3.987,18.409,82.4,14,Waypoint,
37.732833,-120.094687,3246.8998463549,189.632552,0.223694,0.6390584194,24700,2018-05-13 18:11:07,19,0,23.837,3246.8998463549,189.632552,0.223694,1.06196525708,0,0,-0.671082,30.7, 0.6, -2.5,0,0,1024,1024,1024,1024,31.7,-89.9,97,3.964,3.99,3.969,3.959,3.963,3.987,18.409,82.4,14,Waypoint,
37.7328331,-120.094687,3247.8840983549,190.616804,0.223694,0.62109910124,24800,2018-05-13 18:11:07,19,0,23.837,3247.8840983549,190.616804,0.223694,1.06196525708,0,0,-0.671082,30.7, 0.8, -2.2,0,0,1024,1024,1024,1024,31.7,-89.9,97,3.964,3.99,3.969,3.959,3.963,3.987,18.409,82.4,14,Waypoint,
37.7328332,-120.0946871,3249.8526023549,192.585308,0,0.57878610776,24910,2018-05-13 18:11:07,19,0,23.837,3249.8526023549,192.585308,0.223694,1.06196525708,0,0,-0.671082,30.7, 1.2, -2.1,0,0,1024,1024,1024,1024,31.7,-89.9,97,3.964,3.99,3.969,3.959,3.963,3.987,18.409,82.4,14,Waypoint,
37.7328333,-120.0946871,3251.8211063549,194.553812,0,0.56363846948,25100,2018-05-13 18:11:07,19,0,23.837,3251.8211063549,194.553812,0.223694,1.06196525708,0,0,-0.671082,30.7, 0.9, -2.4,0,0,1024,1024,1024,1024,31.7,-89.9,97,3.964,3.99,3.969,3.959,3.963,3.987,18.409,82.4,14,Waypoint,
37.7328334,-120.0946871,3252.8053583549,195.538064,0,0.55049542444,25200,2018-05-13 18:11:07,19,0,23.837,3252.8053583549,195.538064,0.223694,1.06196525708,0,0,-0.671082,30.7, 0.7, -2.3,0,0,1024,1024,1024,1024,31.7,-89.9,97,3.964,3.99,3.969,3.959,3.963,3.987,18.409,82.4,14,Waypoint,
37.7328334,-120.0946871,3254.1176943549,196.8504,0,0.55049542444,25300,2018-05-13 18:11:07,19,0,23.837,3254.1176943549,196.8504,0.223694,1.06196525708,0,0,-0.671082,30.7, 0.7, -2.4,0,0,1024,1024,1024,1024,31.7,-89.9,97,3.964,3.99,3.969,3.959,3.963,3.987,18.409,82.4,14,Waypoint,
37.7328335,-120.0946871,3254.7738623549,197.506568,0,0.53950461044,25400,2018-05-13 18:11:07,19,0,23.837,3254.7738623549,197.506568,0.223694,1.06196525708,0,0,-0.671082,30.6, 1.1, -2.3,0,0,1024,1024,1024,1024,31.7,-89.9,97,3.964,3.99,3.969,3.959,3.963,3.987,18.409,82.4,14,Waypoint,
37.7328336,-120.094687,3256.7423663549,199.475072,0.223694,0.55906497852,25700,2018-05-13 18:11:08,19,0,23.837,3256.7423663549,199.475072,0.223694,1.06196525708,0,0,-0.671082,30.8, 1.9, -2.8,0,0,1024,1024,1024,1024,31.7,-89.9,97,3.964,3.99,3.969,3.959,3.963,3.987,18.409,82.4,14,Waypoint,
37.7328337,-120.0946869,3258.0547023549,200.787408,0.223694,0.581692932,25800,2018-05-13 18:11:08,19,0,23.837,3258.0547023549,200.787408,0.223694,1.06196525708,0,0,-0.671082,30.8, 2.3, -2.5,0,0,1024,1024,1024,1024,31.7,-89.9,97,3.964,3.99,3.969,3.959,3.963,3.987,18.409,82.4,14,Waypoint,
37.7328338,-120.0946868,3258.7108703549,201.443576,0.223694,0.60705054436,25900,2018-05-13 18:11:08,19,0,23.837,3258.7108703549,201.443576,0.223694,1.06196525708,0,0,-0.671082,30.9, 2.6, -2.6,0,0,1024,1024,1024,1024,31.7,-89.9,97,3.964,3.99,3.969,3.959,3.963,3.987,18.409,82.4,14,Waypoint,
37.7328338,-120.0946867,3259.6951223549,202.427828,0.223694,0.63585631956,26000,2018-05-13 18:11:08,19,0,23.704,3259.6951223549,202.427828,0.223694,1.06196525708,0,0,-0.671082,30.9, 2.7, -2.8,0,0,1024,1024,1024,1024,31.7,-89.9,96,3.949,3.96,3.956,3.943,3.943,3.957,20.084,82.4,14,Waypoint,
37.7328339,-120.0946866,3260.6793743549,203.41208,0,0.6636647194,26100,2018-05-13 18:11:08,19,0,23.704,3260.6793743549,203.41208,0.223694,1.06196525708,0,0,-0.671082,30.9, 3, -2.9,0,0,1024,1024,1024,1024,31.7,-89.9,96,3.949,3.96,3.956,3.943,3.943,3.957,20.084,82.4,14,Waypoint,
37.7328339,-120.0946865,3261.6636263549,204.396332,0,0.6925197072,26200,2018-05-13 18:11:08,19,0,23.704,3261.6636263549,204.396332,0.223694,1.06196525708,0,0,-0.671082,30.9, 2.9, -3,0,0,1024,1024,1024,1024,31.7,-89.9,96,3.949,3.96,3.956,3.943,3.943,3.957,20.084,82.4,14,Waypoint,
37.732834,-120.0946865,3262.6478783549,205.380584,0,0.69347771248,26300,2018-05-13 18:11:08,19,0,23.704,3262.6478783549,205.380584,0.223694,1.06196525708,0,0,-0.671082,30.8, 3, -3,0,0,1024,1024,1024,1024,31.7,-89.9,96,3.949,3.96,3.956,3.943,3.943,3.957,20.084,82.4,14,Waypoint,
37.732834,-120.0946865,3263.6321303549,206.364836,0,0.69347771248,26400,2018-05-13 18:11:08,19,0,23.704,3263.6321303549,206.364836,0.223694,1.06196525708,0,0,-0.671082,30.8, 2.8, -2.7,0,0,1024,1024,1024,1024,31.7,-89.9,96,3.949,3.96,3.956,3.943,3.943,3.957,20.084,82.4,14,Waypoint,
37.732834,-120.0946865,3264.6163823549,207.349088,0,0.69347771248,26500,2018-05-13 18:11:08,19,0,23.704,3264.6163823549,207.349088,0.223694,1.06196525708,0,0,-0.671082,30.8, 2.7, -2.6,0,0,1024,1024,1024,1024,31.7,-89.9,96,3.949,3.96,3.956,3.943,3.943,3.957,20.084,82.4,14,Waypoint,
37.732834,-120.0946865,3265.6006343549,208.33334,0,0.69347771248,26600,2018-05-13 18:11:09,19,0,23.704,3265.6006343549,208.33334,0.223694,1.06196525708,0,0,-0.671082,31, 2.4, -2.5,0,0,1024,1024,1024,1024,31.7,-89.9,96,3.949,3.96,3.956,3.943,3.943,3.957,20.084,82.4,14,Waypoint,
37.732834,-120.0946865,3266.5848863549,209.317592,0,0.69347771248,26700,2018-05-13 18:11:09,19,0,23.704,3266.5848863549,209.317592,0.223694,1.06196525708,0,0,-0.671082,31.2, 2.1, -2.4,0,0,1024,1024,1024,1024,31.7,-89.9,96,3.949,3.96,3.956,3.943,3.943,3.957,20.084,82.4,14,Waypoint,
37.732834,-120.0946865,3267.5691383549,210.301844,0,0.69347771248,26810,2018-05-13 18:11:09,19,0,23.704,3267.5691383549,210.301844,0.223694,1.06196525708,0,0,-0.671082,31.3, 2, -2.5,0,0,1024,1024,1024,1024,31.7,-89.9,96,3.949,3.96,3.956,3.943,3.943,3.957,20.084,82.4,14,Waypoint,
37.732834,-120.0946865,3268.5533903549,211.286096,0,0.69347771248,26920,2018-05-13 18:11:09,19,0,23.704,3268.5533903549,211.286096,0.223694,1.06196525708,0,0,-0.671082,31.2, 1.9, -2.9,0,0,1024,1024,1024,1024,31.7,-89.9,96,3.949,3.96,3.956,3.943,3.943,3.957,20.084,82.4,14,Waypoint,
37.732834,-120.0946866,3269.8657263549,212.598432,0,0.6646653756,27000,2018-05-13 18:11:09,19,0,23.741,3269.8657263549,212.598432,0.223694,1.06196525708,0,0,-0.671082,31, 1.9, -2.9,0,0,1024,1024,1024,1024,31.7,-89.9,96,3.944,3.967,3.962,3.96,3.944,3.969,19.021,82.4,14,Waypoint,
