Latitude, Longitude, Altitude (m), Time, Sats, Speed (m/s), Range (m), Battery (%), Roll (deg), Pitch (deg), Yaw (deg), Images, HD Signal (%), RC Signal (%), Battery Temp (C), Battery Voltage (mV), Battery Current (mA), Battery Energy (mAh), Battery Capacity (mAh), Battery Discharges, flyState, timestamp (Unix), LastUpdate (ms), radioChannel, Rc_elevator, Rc_aileron, Rc_throttle, Rc_rudder, Rc_gyro, Dronetype, Battery_Cell1 (mV), Battery_Cell2 (mV), Battery_Cell3 (mV), Battery_Cell4 (mV), Battery_Cell5 (mV), Battery_Cell6 (mV), Video, isFlying, elapsedTime (ms), gimbalPitch (deg), gimbalRoll (deg), gimbalYaw (deg), VelocityX (m/s), VelocityY (m/s), VelocityZ (m/s), GroundSmear (cm), App Version, Aircraft Name, Aircraft Firmware, Aircraft Serial Number, Battery Serial Number, Battery Lifetime (%), App_Tip, App_Warning, CurrentFlightStartingIndex, CurrentFlightLastVisitedWaypoint, PreviousFlightEndingWaypointIndex
37.7328382, -120.0946514, 0.000, 11:49:38.450, 15, 0.10, 0.10, 100, 0.900, -0.300, 31.400, 800, 100, 100, 26, 25781, -3264, 5453, 5453, 13, 11, 1526237378.451, 96, 0, 1024, 1024, 1024, 1024, 0, 6, 4297, 4275, 4279, 4282, 4274, 4290, 0, 1, 2853, -90.000, 0.000, 28.600, 0.100, 0.000, -0.100, 0.0, MapPilot_2.8.1_04242018, Dendroctonus I, 1.3.1.00, 041DDC1887, 1058163200459, 97, DJI_0800.jpg, Starting Mission from Lat/Long: 37.73283/-120.09467 Camera: Zenmuse X3 - Overlap: 90/90 - Active Connection: No, 33, 33, 33
37.7328383, -120.0946514, 0.000, 11:49:38.498, 15, 0.10, 0.11, 100, 1.000, -0.100, 31.800, 800, 100, 100, 26, 25781, -3264, 5453, 5453, 13, 11, 1526237378.500, 42, 0, 1024, 1024, 1024, 1024, 0, 6, 4297, 4275, 4279, 4282, 4274, 4290, 0, 1, 2902, -89.900, 0.000, 28.700, 0.100, 0.000, -0.200, 0.0, , , , , , 97, , , 33, 33, 33
37.7328384, -120.0946514, 0.000, 11:49:38.598, 15, 0.10, 0.12, 100, 0.800, 0.000, 31.900, 800, 100, 100, 26, 25781, -3264, 5453, 5453, 13, 11, 1526237378.600, 48, 0, 1024, 1024, 1024, 1024, 0, 6, 4297, 4275, 4279, 4282, 4274, 4290, 0, 1, 3003, -89.900, 0.000, 28.800, 0.100, 0.000, -0.300, 0.0, , , , , , 97, , , 33, 33, 33
37.7328385, -120.0946514, 0.000, 11:49:38.699, 14, 0.10, 0.14, 100, 0.400, 0.600, 31.700, 800, 100, 100, 26, 25781, -3264, 5453, 5453, 13, 11, 1526237378.701, 49, 0, 1024, 1024, 1024, 1024, 0, 6, 4297, 4275, 4279, 4282, 4274, 4290, 0, 1, 3104, -89.900, 0.000, 28.800, 0.100, 0.000, -0.400, 0.0, , , , , , 97, , , 33, 33, 33
37.7328386, -120.0946512, 0.000, 11:49:38.798, 14, 0.10, 0.15, 100, 0.100, 0.900, 31.400, 800, 100, 100, 26, 25781, -3264, 5453, 5453, 13, 11, 1526237378.799, 47, 0, 1024, 1024, 1024, 1024, 0, 6, 4297, 4275, 4279, 4282, 4274, 4290, 0, 1, 3201, -89.900, 0.000, 28.800, 0.100, 0.000, -0.400, 0.0, , , , , , 97, , , 33, 33, 33
37.7328387, -120.0946511, 0.100, 11:49:38.898, 14, 0.10, 0.17, 100, 0.000, 1.000, 31.100, 800, 100, 100, 26, 25781, -3264, 5453, 5453, 13, 11, 1526237378.899, 63, 0, 1024, 1024, 1024, 1024, 0, 6, 4297, 4275, 4279, 4282, 4274, 4290, 0, 1, 3302, -89.900, 0.000, 28.900, 0.100, 0.000, -0.400, 0.0, , , , , , 97, , , 33, 33, 33
37.7328388, -120.0946510, 0.100, 11:49:38.998, 14, 0.10, 0.18, 100, 0.000, 1.200, 30.800, 800, 100, 100, 26, 25781, -3264, 5453, 5453, 13, 11, 1526237378.999, 55, 0, 1024, 1024, 1024, 1024, 0, 6, 4297, 4275, 4279, 4282, 4274, 4290, 0, 1, 3401, -89.900, 0.000, 28.900, 0.100, 0.000, -0.400, 0.0, , , , , , 97, , , 33, 33, 33
37.7328390, -120.0946509, 0.200, 11:49:39.099, 15, 0.10, 0.20, 100, 0.000, 1.200, 30.600, 800, 100, 100, 26, 25017, -11755, 5453, 5453, 13, 11, 1526237379.099, 47, 0, 1024, 1024, 1024, 1024, 0, 6, 4297, 4275, 4279, 4282, 4274, 4290, 0, 1, 3502, -89.900, 0.000, 29.000, 0.100, 0.000, -0.400, 0.0, , , , , , 97, , , 33, 33, 33
37.7328391, -120.0946509, 0.200, 11:49:39.197, 15, 0.10, 0.22, 100, -0.100, 1.400, 30.500, 800, 100, 100, 26, 25017, -11755, 5453, 5453, 13, 11, 1526237379.198, 40, 0, 1024, 1024, 1024, 1024, 0, 6, 4144, 4151, 4129, 4120, 4121, 4152, 0, 1, 3601, -89.900, 0.000, 29.000, 0.100, 0.000, -0.400, 0.0, , , , , , 97, , , 33, 33, 33
37.7328394, -120.0946506, 0.300, 11:49:39.298, 14, 0.10, 0.25, 100, 0.000, 2.000, 30.500, 800, 100, 100, 26, 25017, -11755, 5453, 5453, 13, 11, 1526237379.298, 32, 0, 1024, 1024, 1024, 1024, 0, 6, 4144, 4151, 4129, 4120, 4121, 4152, 0, 1, 3701, -89.900, 0.000, 29.000, 0.100, 0.000, -0.400, 0.0, , , , , , 97, , , 33, 33, 33
37.7328394, -120.0946506, 0.300, 11:49:39.398, 14, 0.10, 0.25, 100, 0.000, 2.000, 30.500, 800, 100, 100, 26, 25017, -11755, 5453, 5453, 13, 11, 1526237379.398, 132, 0, 1024, 1024, 1024, 1024, 0, 6, 4144, 4151, 4129, 4120, 4121, 4152, 0, 1, 3801, -89.900, 0.000, 29.100, 0.100, 0.000, -0.400, 0.0, , , , , , 97, , , 33, 33, 33
37.7328396, -120.0946506, 0.400, 11:49:39.498, 13, 0.10, 0.28, 100, -0.200, 2.900, 30.400, 800, 100, 100, 26, 25017, -11755, 5453, 5453, 13, 11, 1526237379.499, 28, 0, 1024, 1024, 1024, 1024, 0, 6, 4144, 4151, 4129, 4120, 4121, 4152, 0, 1, 3901, -89.900, 0.000, 29.100, 0.100, 0.000, -0.400, 0.0, , , , , , 97, , , 33, 33, 33
37.7328397, -120.0946505, 0.400, 11:49:39.598, 13, 0.00, 0.29, 100, 0.000, 2.900, 30.400, 800, 100, 100, 26, 25017, -11755, 5453, 5453, 13, 11, 1526237379.599, 27, 0, 1024, 1024, 1024, 1024, 0, 6, 4144, 4151, 4129, 4120, 4121, 4152, 0, 1, 4001, -89.900, 0.000, 29.100, 0.000, 0.000, -0.400, 0.0, , , , , , 97, , , 33, 33, 33
37.7328398, -120.0946505, 0.500, 11:49:39.698, 13, 0.00, 0.30, 100, 0.000, 2.900, 30.500, 800, 100, 100, 26, 25017, -11755, 5453, 5453, 13, 11, 1526237379.698, 29, 0, 1024, 1024, 1024, 1024, 0, 6, 4144, 4151, 4129, 4120, 4121, 4152, 0, 1, 4101, -89.900, 0.000, 29.200, 0.000, 0.000, -0.500, 0.0, , , , , , 97, , , 33, 33, 33
37.7328399, -120.0946505, 0.600, 11:49:39.798, 14, 0.00, 0.31, 100, 0.000, 3.000, 30.600, 800, 100, 100, 26, 25017, -11755, 5453, 5453, 13, 11, 1526237379.799, 19, 0, 1024, 1024, 1024, 1024, 0, 6, 4144, 4151, 4129, 4120, 4121, 4152, 0, 1, 4202, -89.900, 0.000, 29.200, 0.000, 0.000, -0.500, 0.0, , , , , , 97, , , 33, 33, 33
37.7328399, -120.0946505, 0.600, 11:49:39.898, 14, 0.00, 0.31, 100, 0.000, 3.100, 30.600, 800, 100, 100, 26, 25017, -11755, 5453, 5453, 13, 11, 1526237379.899, 9, 0, 1024, 1024, 1024, 1024, 0, 6, 4144, 4151, 4129, 4120, 4121, 4152, 0, 1, 4301, -89.900, 0.000, 29.300, 0.000, 0.000, -0.500, 0.0, , , , , , 97, , , 33, 33, 33
37.7328400, -120.0946504, 0.700, 11:49:39.998, 14, 0.00, 0.32, 100, 0.000, 3.200, 30.700, 800, 100, 100, 26, 24650, -15136, 5343, 5453, 13, 11, 1526237379.999, 10, 0, 1024, 1024, 1024, 1024, 0, 6, 4144, 4151, 4129, 4120, 4121, 4152, 0, 1, 4401, -89.900, 0.000, 29.300, 0.000, 0.000, -0.500, 0.0, , , , , , 97, , , 33, 33, 33
37.7328402, -120.0946504, 0.700, 11:49:40.097, 14, 0.00, 0.34, 100, 0.000, 3.200, 30.800, 800, 100, 100, 26, 24650, -15136, 5343, 5453, 13, 11, 1526237380.098, 11, 0, 1024, 1024, 1024, 1024, 0, 6, 4090, 4109, 4111, 4100, 4106, 4118, 0, 1, 4500, -89.900, 0.000, 29.300, 0.000, 0.000, -0.500, 0.0, , , , , , 97, , , 33, 33, 33
37.7328402, -120.0946504, 0.800, 11:49:40.202, 15, 0.00, 0.34, 100, 0.000, 3.300, 30.900, 800, 100, 100, 26, 24650, -15136, 5343, 5453, 13, 11, 1526237380.202, 4, 0, 1024, 1024, 1024, 1024, 0, 6, 4090, 4109, 4111, 4100, 4106, 4118, 0, 1, 4605, -89.900, 0.000, 29.300, 0.000, 0.000, -0.500, 0.0, , , , , , 97, , , 33, 33, 33
37.7328402, -120.0946504, 0.800, 11:49:40.298, 15, 0.00, 0.34, 100, 0.000, 3.300, 30.900, 800, 100, 100, 26, 24650, -15136, 5343, 5453, 13, 11, 1526237380.298, 101, 0, 1024, 1024, 1024, 1024, 0, 6, 4090, 4109, 4111, 4100, 4106, 4118, 0, 1, 4701, -89.900, 0.000, 29.300, 0.000, 0.000, -0.500, 0.0, , , , , , 97, , , 33, 33, 33
37.7328402, -120.0946504, 0.800, 11:49:40.398, 15, 0.00, 0.34, 100, -0.100, 3.400, 30.900, 800, 100, 100, 26, 24650, -15136, 5343, 5453, 13, 11, 1526237380.398, 91, 0, 1024, 1024, 1024, 1024, 0, 6, 4090, 4109, 4111, 4100, 4106, 4118, 0, 1, 4801, -89.900, 0.000, 29.400, 0.000, 0.000, -0.400, 0.0, , , , , , 97, , , 33, 33, 33
37.7328402, -120.0946504, 0.900, 11:49:40.498, 15, 0.00, 0.34, 100, 0.000, 3.300, 30.800, 800, 100, 100, 26, 24650, -15136, 5343, 5453, 13, 6, 1526237380.498, 82, 0, 1024, 1024, 1024, 1024, 0, 6, 4090, 4109, 4111, 4100, 4106, 4118, 0, 1, 4901, -89.900, 0.000, 29.400, 0.000, 0.000, -0.400, 0.0, , , , , , 97, , , 33, 33, 33
37.7328402, -120.0946503, 0.900, 11:49:40.598, 15, 0.00, 0.35, 100, -0.200, 3.200, 30.800, 800, 100, 100, 26, 24650, -15136, 5343, 5453, 13, 14, 1526237380.598, 87, 0, 1024, 1024, 1024, 1024, 0, 6, 4090, 4109, 4111, 4100, 4106, 4118, 0, 1, 5001, -89.900, 0.000, 29.400, 0.000, 0.000, -0.400, 0.0, , , , , , 97, , , 33, 33, 33
37.7328402, -120.0946503, 1.000, 11:49:40.698, 16, 0.00, 0.35, 100, -0.600, 1.800, 30.800, 800, 100, 100, 26, 24650, -15136, 5343, 5453, 13, 14, 1526237380.698, 82, 0, 1024, 1024, 1024, 1024, 0, 6, 4090, 4109, 4111, 4100, 4106, 4118, 0, 1, 5101, -90.000, 0.000, 29.400, 0.000, 0.000, -0.300, 0.0, , , , , , 97, , , 33, 33, 33
37.7328402, -120.0946502, 1.000, 11:49:40.798, 16, 0.00, 0.34, 100, -0.700, 0.700, 30.900, 800, 100, 100, 26, 24650, -15136, 5343, 5453, 13, 14, 1526237380.798, 65, 0, 1024, 1024, 1024, 1024, 0, 6, 4090, 4109, 4111, 4100, 4106, 4118, 0, 1, 5201, -90.000, 0.000, 29.400, 0.000, 0.000, -0.300, 0.0, , , , , , 97, , , 33, 33, 33
37.7328401, -120.0946502, 1.000, 11:49:40.898, 16, 0.00, 0.34, 100, -0.200, 0.600, 30.900, 800, 100, 100, 26, 24650, -15136, 5343, 5453, 13, 14, 1526237380.898, 69, 0, 1024, 1024, 1024, 1024, 0, 6, 4090, 4109, 4111, 4100, 4106, 4118, 0, 1, 5301, -89.900, 0.000, 29.500, 0.000, 0.000, -0.300, 0.0, , , , , , 97, , , 33, 33, 33
37.7328402, -120.0946502, 1.100, 11:49:40.998, 16, 0.00, 0.34, 100, 0.000, 1.000, 30.900, 800, 100, 100, 26, 24650, -15136, 5343, 5453, 13, 14, 1526237380.999, 61, 0, 1024, 1024, 1024, 1024, 0, 6, 4090, 4109, 4111, 4100, 4106, 4118, 0, 1, 5401, -89.900, 0.000, 29.500, 0.000, 0.000, -0.500, 0.0, , , , , , 97, , , 33, 33, 33
37.7328402, -120.0946502, 1.200, 11:49:41.098, 14, 0.00, 0.35, 98, 0.000, 1.400, 30.800, 800, 100, 100, 26, 24592, -15366, 5343, 5453, 13, 14, 1526237381.098, 63, 0, 1024, 1024, 1024, 1024, 0, 6, 4090, 4109, 4111, 4100, 4106, 4118, 0, 1, 5501, -89.900, 0.000, 29.500, 0.000, 0.000, -0.500, 0.0, , , , , , 97, , , 33, 33, 33
37.7328403, -120.0946502, 1.200, 11:49:41.198, 14, 0.00, 0.35, 98, -0.200, 1.800, 30.800, 800, 100, 100, 26, 24592, -15366, 5343, 5453, 13, 14, 1526237381.199, 48, 0, 1024, 1024, 1024, 1024, 0, 6, 4090, 4109, 4111, 4100, 4106, 4118, 0, 1, 5602, -89.900, 0.000, 29.500, 0.000, 0.000, -0.700, 0.0, , , , , , 97, , , 33, 33, 33
37.7328403, -120.0946501, 1.300, 11:49:41.298, 14, 0.00, 0.36, 98, -0.500, 2.200, 30.700, 800, 100, 100, 26, 24592, -15366, 5343, 5453, 13, 14, 1526237381.299, 48, 0, 1024, 1024, 1024, 1024, 0, 6, 4090, 4109, 4111, 4100, 4106, 4118, 0, 1, 5701, -89.900, 0.000, 29.500, 0.000, 0.000, -0.900, 0.0, , , , , , 97, , , 33, 33, 33
37.7328403, -120.0946501, 1.400, 11:49:41.398, 14, 0.00, 0.37, 98, -0.700, 2.400, 30.300, 800, 100, 100, 26, 24592, -15366, 5343, 5453, 13, 14, 1526237381.399, 59, 0, 1024, 1024, 1024, 1024, 0, 6, 4090, 4109, 4111, 4100, 4106, 4118, 0, 1, 5801, -89.900, 0.000, 29.600, 0.000, 0.000, -1.100, 0.0, , , , , , 97, , , 33, 33, 33
37.7328404, -120.0946501, 1.500, 11:49:41.498, 15, 0.00, 0.37, 98, -0.400, 2.400, 30.000, 800, 100, 100, 26, 24592, -15366, 5343, 5453, 13, 14, 1526237381.499, 49, 0, 1024, 1024, 1024, 1024, 0, 6, 4090, 4109, 4111, 4100, 4106, 4118, 0, 1, 5902, -89.900, 0.000, 29.600, 0.000, 0.000, -1.200, 0.0, , , , , , 97, , , 33, 33, 33
37.7328405, -120.0946501, 1.700, 11:49:41.598, 15, 0.00, 0.38, 98, -0.200, 2.200, 29.800, 800, 100, 100, 26, 24592, -15366, 5343, 5453, 13, 14, 1526237381.599, 34, 0, 1024, 1024, 1024, 1024, 0, 6, 4090, 4109, 4111, 4100, 4106, 4118, 0, 1, 6002, -89.900, 0.000, 29.600, 0.000, 0.000, -1.400, 0.0, , , , , , 97, , , 33, 33, 33
37.7328406, -120.0946501, 1.800, 11:49:41.698, 15, 0.00, 0.39, 98, 0.000, 1.900, 29.800, 800, 100, 100, 26, 24592, -15366, 5343, 5453, 13, 14, 1526237381.699, 31, 0, 1024, 1024, 1024, 1024, 0, 6, 4090, 4109, 4111, 4100, 4106, 4118, 0, 1, 6101, -89.900, 0.000, 29.600, 0.000, 0.000, -1.600, 0.0, , , , , , 97, , , 33, 33, 33
37.7328406, -120.0946502, 2.000, 11:49:41.803, 15, 0.00, 0.39, 98, 0.500, 1.800, 30.000, 800, 100, 100, 26, 24592, -15366, 5343, 5453, 13, 14, 1526237381.804, 6, 0, 1024, 1024, 1024, 1024, 0, 6, 4079, 4110, 4103, 4085, 4095, 4120, 0, 1, 6207, -89.900, 0.000, 29.600, 0.000, 0.000, -1.700, 0.0, , , , , , 97, , , 33, 33, 33
37.7328407, -120.0946502, 2.400, 11:49:41.899, 15, 0.00, 0.40, 98, 0.900, 1.800, 30.400, 800, 100, 100, 26, 24592, -15366, 5343, 5453, 13, 14, 1526237381.901, 17, 0, 1024, 1024, 1024, 1024, 0, 6, 4079, 4110, 4103, 4085, 4095, 4120, 0, 1, 6303, -90.000, 0.000, 29.600, 0.000, 0.000, -2.300, 0.0, , , , , , 97, , , 33, 33, 33
37.7328408, -120.0946502, 2.600, 11:49:41.998, 17, 0.00, 0.41, 98, 1.100, 1.700, 30.500, 800, 100, 100, 26, 24592, -15366, 5343, 5453, 13, 14, 1526237381.998, 16, 0, 1024, 1024, 1024, 1024, 0, 6, 4079, 4110, 4103, 4085, 4095, 4120, 0, 1, 6401, -89.900, 0.000, 29.600, 0.000, 0.000, -2.500, 0.0, , , , , , 97, , , 33, 33, 33
37.7328409, -120.0946503, 2.900, 11:49:42.104, 17, 0.00, 0.42, 98, 1.600, 1.700, 30.600, 800, 100, 100, 26, 24592, -15366, 5343, 5453, 13, 14, 1526237382.105, 6, 0, 1024, 1024, 1024, 1024, 0, 6, 4079, 4110, 4103, 4085, 4095, 4120, 0, 1, 6507, -89.900, 0.000, 29.600, 0.000, 0.000, -2.700, 0.0, , , , , , 97, , , 33, 33, 33
37.7328409, -120.0946503, 2.900, 11:49:42.198, 17, 0.00, 0.42, 98, 1.600, 1.700, 30.600, 800, 100, 100, 26, 24592, -15366, 5343, 5453, 13, 14, 1526237382.199, 101, 0, 1024, 1024, 1024, 1024, 0, 6, 4079, 4110, 4103, 4085, 4095, 4120, 0, 1, 6602, -89.900, 0.000, 29.600, 0.000, 0.000, -2.700, 0.0, , , , , , 97, , , 33, 33, 33
37.7328410, -120.0946504, 3.500, 11:49:42.299, 16, 0.00, 0.42, 98, 1.500, 1.800, 30.200, 800, 100, 100, 26, 24592, -15366, 5343, 5453, 13, 14, 1526237382.299, 10, 0, 1024, 1024, 1024, 1024, 0, 6, 4079, 4110, 4103, 4085, 4095, 4120, 0, 1, 6702, -90.000, 0.000, 29.600, 0.000, 0.000, -3.000, 0.0, , , , , , 97, , , 33, 33, 33
37.7328410, -120.0946504, 3.500, 11:49:42.398, 16, 0.00, 0.42, 98, 1.500, 1.800, 30.200, 800, 100, 100, 26, 24592, -15366, 5343, 5453, 13, 14, 1526237382.399, 109, 0, 1024, 1024, 1024, 1024, 0, 6, 4079, 4110, 4103, 4085, 4095, 4120, 0, 1, 6801, -90.000, 0.000, 29.600, 0.000, 0.000, -3.000, 0.0, , , , , , 97, , , 33, 33, 33
37.7328410, -120.0946505, 3.800, 11:49:42.498, 14, 0.00, 0.43, 98, 1.200, 1.500, 30.000, 800, 100, 100, 26, 24592, -15366, 5343, 5453, 13, 14, 1526237382.499, 96, 0, 1024, 1024, 1024, 1024, 0, 6, 4079, 4110, 4103, 4085, 4095, 4120, 0, 1, 6901, -89.900, 0.000, 29.600, 0.000, 0.000, -3.000, 0.0, , , , , , 97, , , 33, 33, 33
37.7328411, -120.0946507, 4.400, 11:49:42.615, 15, 0.00, 0.44, 98, 0.600, 2.100, 29.800, 800, 100, 100, 26, 24359, -17932, 5343, 5453, 13, 14, 1526237382.616, 15, 0, 1024, 1024, 1024, 1024, 0, 6, 3989, 4050, 4034, 4041, 4054, 4060, 0, 1, 7018, -89.900, 0.000, 29.600, 0.000, 0.000, -3.100, 0.0, , , , , , 97, , , 33, 33, 33
37.7328411, -120.0946507, 4.400, 11:49:42.698, 15, 0.00, 0.44, 98, 0.600, 2.100, 29.800, 800, 100, 100, 26, 24359, -17932, 5343, 5453, 13, 14, 1526237382.699, 98, 0, 1024, 1024, 1024, 1024, 0, 6, 3989, 4050, 4034, 4041, 4054, 4060, 0, 1, 7101, -89.900, 0.000, 29.600, 0.000, 0.000, -3.100, 0.0, , , , , , 97, , , 33, 33, 33
37.7328411, -120.0946506, 4.700, 11:49:42.798, 15, 0.00, 0.43, 98, 0.400, 2.500, 29.800, 800, 100, 100, 26, 24359, -17932, 5343, 5453, 13, 14, 1526237382.799, 65, 0, 1024, 1024, 1024, 1024, 0, 6, 3989, 4050, 4034, 4041, 4054, 4060, 0, 1, 7201, -89.900, 0.000, 29.600, 0.000, 0.000, -3.300, 0.0, , , , , , 97, , , 33, 33, 33
37.7328412, -120.0946506, 5.100, 11:49:42.898, 16, 0.00, 0.44, 98, 0.500, 2.800, 29.900, 800, 100, 100, 26, 24359, -17932, 5343, 5453, 13, 14, 1526237382.899, 96, 0, 1024, 1024, 1024, 1024, 0, 6, 3989, 4050, 4034, 4041, 4054, 4060, 0, 1, 7301, -89.900, 0.000, 29.600, 0.000, 0.000, -3.300, 0.0, , , , , , 97, , , 33, 33, 33
37.7328413, -120.0946507, 5.400, 11:49:42.998, 16, 0.00, 0.45, 98, 0.900, 2.800, 30.000, 800, 100, 100, 26, 24359, -17932, 5343, 5453, 13, 14, 1526237382.999, 97, 0, 1024, 1024, 1024, 1024, 0, 6, 3989, 4050, 4034, 4041, 4054, 4060, 0, 1, 7402, -89.900, 0.000, 29.600, 0.000, 0.000, -3.300, 0.0, , , , , , 97, , , 33, 33, 33
37.7328414, -120.0946508, 5.800, 11:49:43.097, 15, 0.00, 0.46, 98, 1.300, 3.000, 30.100, 800, 100, 100, 26, 24359, -17932, 5343, 5453, 13, 14, 1526237383.098, 65, 0, 1024, 1024, 1024, 1024, 0, 6, 3989, 4050, 4034, 4041, 4054, 4060, 0, 1, 7501, -89.900, 0.000, 29.600, 0.000, 0.000, -3.400, 0.0, , , , , , 97, , , 33, 33, 33
37.7328414, -120.0946508, 6.100, 11:49:43.198, 15, 0.00, 0.47, 98, 1.100, 3.200, 30.200, 800, 100, 100, 26, 24359, -17932, 5343, 5453, 13, 14, 1526237383.199, 47, 0, 1024, 1024, 1024, 1024, 0, 6, 3989, 4050, 4034, 4041, 4054, 4060, 0, 1, 7601, -89.900, 0.000, 29.600, 0.000, 0.000, -3.300, 0.0, , , , , , 97, , , 33, 33, 33
37.7328415, -120.0946508, 6.500, 11:49:43.298, 15, 0.00, 0.47, 98, 0.800, 3.100, 30.300, 800, 100, 100, 26, 24359, -17932, 5343, 5453, 13, 14, 1526237383.299, 84, 0, 1024, 1024, 1024, 1024, 0, 6, 3989, 4050, 4034, 4041, 4054, 4060, 0, 1, 7701, -89.900, 0.000, 29.600, 0.000, 0.000, -3.300, 0.0, , , , , , 97, , , 33, 33, 33
37.7328415, -120.0946507, 6.800, 11:49:43.398, 15, 0.00, 0.47, 98, 0.300, 3.100, 30.200, 800, 100, 100, 26, 24359, -17932, 5343, 5453, 13, 14, 1526237383.400, 85, 0, 1024, 1024, 1024, 1024, 0, 6, 3989, 4050, 4034, 4041, 4054, 4060, 0, 1, 7803, -89.900, 0.000, 29.600, 0.000, 0.000, -3.200, 0.0, , , , , , 97, , , 33, 33, 33
37.7328414, -120.0946506, 7.200, 11:49:43.498, 16, 0.00, 0.47, 98, -0.400, 2.700, 30.100, 800, 100, 100, 26, 24359, -17932, 5343, 5453, 13, 14, 1526237383.499, 80, 0, 1024, 1024, 1024, 1024, 0, 6, 3989, 4050, 4034, 4041, 4054, 4060, 0, 1, 7901, -89.900, 0.000, 29.600, 0.000, 0.000, -3.200, 0.0, , , , , , 97, , , 33, 33, 33
37.7328414, -120.0946505, 7.500, 11:49:43.599, 16, 0.00, 0.47, 98, -0.600, 2.200, 30.100, 800, 100, 100, 26, 23879, -23777, 5343, 5453, 13, 14, 1526237383.600, 34, 0, 1024, 1024, 1024, 1024, 0, 6, 3989, 4050, 4034, 4041, 4054, 4060, 0, 1, 8003, -90.000, 0.000, 29.600, 0.000, 0.000, -3.200, 0.0, , , , , , 97, , , 33, 33, 33
37.7328413, -120.0946505, 7.900, 11:49:43.698, 17, 0.00, 0.46, 98, -0.700, 1.700, 30.100, 800, 100, 100, 26, 23879, -23777, 5343, 5453, 13, 14, 1526237383.699, 54, 0, 1024, 1024, 1024, 1024, 0, 6, 3954, 3996, 3993, 3977, 3990, 4011, 0, 1, 8102, -90.000, 0.000, 29.600, 0.000, 0.000, -3.100, 0.0, , , , , , 97, , , 33, 33, 33
37.7328412, -120.0946504, 8.200, 11:49:43.798, 17, 0.00, 0.44, 98, -0.700, 1.400, 30.100, 800, 100, 100, 26, 23879, -23777, 5343, 5453, 13, 14, 1526237383.799, 19, 0, 1024, 1024, 1024, 1024, 0, 6, 3954, 3996, 3993, 3977, 3990, 4011, 0, 1, 8202, -90.000, 0.000, 29.600, 0.000, 0.000, -3.100, 0.0, , , , , , 97, , , 33, 33, 33
37.7328410, -120.0946503, 8.500, 11:49:43.898, 16, 0.00, 0.43, 98, -0.800, 1.200, 30.000, 800, 100, 100, 26, 23879, -23777, 5343, 5453, 13, 14, 1526237383.898, 47, 0, 1024, 1024, 1024, 1024, 0, 6, 3954, 3996, 3993, 3977, 3990, 4011, 0, 1, 8301, -90.000, 0.000, 29.600, 0.000, 0.000, -3.200, 0.0, , , , , , 97, , , 33, 33, 33
37.7328409, -120.0946501, 8.900, 11:49:43.998, 16, 0.00, 0.42, 98, -1.400, 1.300, 29.800, 800, 100, 100, 26, 23879, -23777, 5343, 5453, 13, 14, 1526237383.999, 51, 0, 1024, 1024, 1024, 1024, 0, 6, 3954, 3996, 3993, 3977, 3990, 4011, 0, 1, 8402, -90.000, 0.000, 29.600, 0.000, 0.000, -3.100, 0.0, , , , , , 97, , , 33, 33, 33
37.7328408, -120.0946499, 9.200, 11:49:44.099, 16, 0.10, 0.42, 98, -2.100, 1.300, 29.600, 800, 100, 100, 26, 23879, -23777, 5343, 5453, 13, 14, 1526237384.101, 53, 0, 1024, 1024, 1024, 1024, 0, 6, 3954, 3996, 3993, 3977, 3990, 4011, 0, 1, 8504, -90.000, 0.000, 29.600, 0.000, 0.100, -3.100, 0.0, , , , , , 97, , , 33, 33, 33
37.7328407, -120.0946497, 9.500, 11:49:44.198, 16, 0.10, 0.42, 98, -2.600, 1.400, 29.400, 800, 100, 100, 26, 23879, -23777, 5343, 5453, 13, 14, 1526237384.199, 31, 0, 1024, 1024, 1024, 1024, 0, 6, 3954, 3996, 3993, 3977, 3990, 4011, 0, 1, 8601, -90.000, 0.000, 29.600, 0.000, 0.100, -3.000, 0.0, , , , , , 97, , , 33, 33, 33
37.7328406, -120.0946496, 10.100, 11:49:44.298, 16, 0.00, 0.41, 98, -2.700, 1.600, 29.300, 800, 100, 100, 26, 23879, -23777, 5343, 5453, 13, 14, 1526237384.299, 27, 0, 1024, 1024, 1024, 1024, 0, 6, 3954, 3996, 3993, 3977, 3990, 4011, 0, 1, 8701, -90.000, 0.000, 29.600, 0.000, 0.000, -3.000, 0.0, , , , , , 97, , , 33, 33, 33
37.7328405, -120.0946496, 10.400, 11:49:44.398, 17, 0.00, 0.41, 98, -2.300, 1.700, 29.300, 800, 100, 100, 26, 23879, -23777, 5343, 5453, 13, 14, 1526237384.399, 40, 0, 1024, 1024, 1024, 1024, 0, 6, 3954, 3996, 3993, 3977, 3990, 4011, 0, 1, 8801, -90.000, 0.000, 29.600, 0.000, 0.000, -3.000, 0.0, , , , , , 97, , , 33, 33, 33
37.7328405, -120.0946497, 10.700, 11:49:44.498, 17, 0.00, 0.40, 98, -1.700, 1.500, 29.600, 800, 100, 100, 26, 23879, -23777, 5343, 5453, 13, 14, 1526237384.499, 31, 0, 1024, 1024, 1024, 1024, 0, 6, 3954, 3996, 3993, 3977, 3990, 4011, 0, 1, 8902, -90.000, 0.000, 29.600, 0.000, 0.000, -3.000, 0.0, , , , , , 97, , , 33, 33, 33
37.7328405, -120.0946496, 11.100, 11:49:44.600, 16, 0.00, 0.40, 98, -1.400, 1.000, 29.700, 800, 100, 100, 26, 24118, -19651, 5343, 5453, 13, 14, 1526237384.600, 17, 0, 1024, 1024, 1024, 1024, 0, 6, 3954, 3996, 3993, 3977, 3990, 4011, 0, 1, 9003, -90.000, 0.000, 29.600, 0.000, 0.000, -3.100, 0.0, , , , , , 97, , , 33, 33, 33
37.7328404, -120.0946495, 11.400, 11:49:44.704, 16, 0.00, 0.39, 98, -1.600, 0.800, 29.700, 800, 100, 100, 26, 24118, -19651, 5343, 5453, 13, 14, 1526237384.705, 7, 0, 1024, 1024, 1024, 1024, 0, 6, 3998, 4038, 4032, 4015, 4034, 4040, 0, 1, 9107, -90.000, 0.000, 29.600, 0.000, 0.000, -3.100, 0.0, , , , , , 97, , , 33, 33, 33
37.7328402, -120.0946495, 11.700, 11:49:44.800, 17, 0.00, 0.38, 98, -1.800, 0.600, 29.700, 800, 100, 100, 26, 24118, -19651, 5343, 5453, 13, 14, 1526237384.800, 15, 0, 1024, 1024, 1024, 1024, 0, 6, 3998, 4038, 4032, 4015, 4034, 4040, 0, 1, 9203, -90.000, 0.000, 29.600, 0.000, 0.000, -3.000, 0.0, , , , , , 97, , , 33, 33, 33
37.7328401, -120.0946495, 12.000, 11:49:44.906, 17, 0.00, 0.37, 98, -2.000, 0.400, 29.700, 800, 100, 100, 26, 24118, -19651, 5343, 5453, 13, 14, 1526237384.907, 5, 0, 1024, 1024, 1024, 1024, 0, 6, 3998, 4038, 4032, 4015, 4034, 4040, 0, 1, 9309, -90.000, 0.000, 29.600, 0.000, 0.000, -3.000, 0.0, , , , , , 97, , , 33, 33, 33
37.7328400, -120.0946494, 12.300, 11:49:44.998, 18, 0.00, 0.36, 98, -2.100, 0.100, 29.700, 800, 100, 100, 26, 24118, -19651, 5343, 5453, 13, 14, 1526237384.999, 18, 0, 1024, 1024, 1024, 1024, 0, 6, 3998, 4038, 4032, 4015, 4034, 4040, 0, 1, 9402, -90.000, 0.000, 29.600, 0.000, 0.000, -3.000, 0.0, , , , , , 97, , , 33, 33, 33
37.7328400, -120.0946494, 12.300, 11:49:45.098, 18, 0.00, 0.36, 98, -2.100, 0.100, 29.700, 800, 100, 100, 26, 24118, -19651, 5343, 5453, 13, 14, 1526237385.099, 118, 0, 1024, 1024, 1024, 1024, 0, 6, 3998, 4038, 4032, 4015, 4034, 4040, 0, 1, 9502, -90.000, 0.000, 29.600, 0.000, 0.000, -3.000, 0.0, , , , , , 97, , , 33, 33, 33
37.7328399, -120.0946493, 12.600, 11:49:45.198, 18, 0.00, 0.36, 98, -2.300, 0.000, 29.700, 800, 100, 100, 26, 24118, -19651, 5343, 5453, 13, 14, 1526237385.198, 96, 0, 1024, 1024, 1024, 1024, 0, 6, 3998, 4038, 4032, 4015, 4034, 4040, 0, 1, 9601, -90.000, 0.000, 29.600, 0.000, 0.000, -3.000, 0.0, , , , , , 97, , , 33, 33, 33
37.7328398, -120.0946492, 12.900, 11:49:45.298, 17, 0.00, 0.35, 98, -2.400, 0.000, 29.700, 800, 100, 100, 26, 24118, -19651, 5343, 5453, 13, 14, 1526237385.298, 83, 0, 1024, 1024, 1024, 1024, 0, 6, 3998, 4038, 4032, 4015, 4034, 4040, 0, 1, 9701, -90.000, 0.000, 29.600, 0.000, 0.000, -2.900, 0.0, , , , , , 97, , , 33, 33, 33
37.7328396, -120.0946490, 13.200, 11:49:45.398, 17, 0.00, 0.35, 98, -2.500, 0.000, 29.800, 800, 100, 100, 26, 24118, -19651, 5343, 5453, 13, 14, 1526237385.398, 95, 0, 1024, 1024, 1024, 1024, 0, 6, 3998, 4038, 4032, 4015, 4034, 4040, 0, 1, 9801, -90.000, 0.000, 29.600, 0.000, 0.000, -2.900, 0.0, , , , , , 97, , , 33, 33, 33
37.7328395, -120.0946489, 13.500, 11:49:45.498, 15, 0.00, 0.34, 98, -2.600, 0.000, 29.800, 800, 100, 100, 26, 24118, -19651, 5343, 5453, 13, 14, 1526237385.498, 97, 0, 1024, 1024, 1024, 1024, 0, 6, 3998, 4038, 4032, 4015, 4034, 4040, 0, 1, 9901, -90.000, 0.000, 29.600, 0.000, 0.000, -2.900, 0.0, , , , , , 97, , , 33, 33, 33
37.7328394, -120.0946489, 13.800, 11:49:45.598, 15, 0.00, 0.34, 98, -2.700, 0.000, 29.800, 800, 100, 100, 26, 24173, -18327, 5343, 5453, 13, 14, 1526237385.599, 96, 0, 1024, 1024, 1024, 1024, 0, 6, 3998, 4038, 4032, 4015, 4034, 4040, 0, 1, 10001, -90.000, 0.000, 29.600, 0.000, 0.000, -2.900, 0.0, , , , , , 97, , , 33, 33, 33
37.7328393, -120.0946488, 14.100, 11:49:45.698, 17, 0.00, 0.34, 98, -2.700, 0.100, 29.800, 800, 100, 100, 26, 24173, -18327, 5343, 5453, 13, 14, 1526237385.698, 80, 0, 1024, 1024, 1024, 1024, 0, 6, 3998, 4038, 4032, 4015, 4034, 4040, 0, 1, 10101, -90.000, 0.000, 29.600, 0.000, 0.000, -2.900, 0.0, , , , , , 97, , , 33, 33, 33
37.7328393, -120.0946488, 14.400, 11:49:45.798, 17, 0.00, 0.34, 98, -2.800, 0.100, 29.800, 800, 100, 100, 26, 24173, -18327, 5343, 5453, 13, 14, 1526237385.798, 73, 0, 1024, 1024, 1024, 1024, 0, 6, 3998, 4038, 4032, 4015, 4034, 4040, 0, 1, 10201, -90.000, 0.000, 29.600, 0.000, 0.000, -2.900, 0.0, , , , , , 97, , , 33, 33, 33
37.7328392, -120.0946487, 14.700, 11:49:45.898, 18, 0.00, 0.34, 98, -2.600, 0.100, 29.800, 800, 100, 100, 26, 24173, -18327, 5343, 5453, 13, 14, 1526237385.898, 31, 0, 1024, 1024, 1024, 1024, 0, 6, 3998, 4038, 4032, 4015, 4034, 4040, 0, 1, 10301, -90.000, 0.000, 29.600, 0.000, 0.000, -3.000, 0.0, , , , , , 97, , , 33, 33, 33
37.7328392, -120.0946488, 15.000, 11:49:45.998, 18, 0.00, 0.33, 98, -2.200, 0.100, 29.800, 800, 100, 100, 26, 24173, -18327, 5343, 5453, 13, 14, 1526237385.998, 68, 0, 1024, 1024, 1024, 1024, 0, 6, 3998, 4038, 4032, 4015, 4034, 4040, 0, 1, 10401, -90.000, 0.000, 29.600, 0.000, 0.000, -3.000, 0.0, , , , , , 97, , , 33, 33, 33
37.7328392, -120.0946488, 15.300, 11:49:46.098, 18, 0.00, 0.33, 98, -2.000, 0.100, 29.700, 800, 100, 100, 26, 24173, -18327, 5343, 5453, 13, 14, 1526237386.098, 71, 0, 1024, 1024, 1024, 1024, 0, 6, 3998, 4038, 4032, 4015, 4034, 4040, 0, 1, 10501, -90.000, 0.000, 29.600, 0.000, 0.000, -3.000, 0.0, , , , , , 97, , , 33, 33, 33
37.7328392, -120.0946488, 15.600, 11:49:46.198, 18, 0.00, 0.33, 98, -1.800, 0.100, 29.700, 800, 100, 100, 26, 24173, -18327, 5343, 5453, 13, 14, 1526237386.198, 62, 0, 1024, 1024, 1024, 1024, 0, 6, 3998, 4038, 4032, 4015, 4034, 4040, 0, 1, 10601, -90.000, 0.000, 29.600, 0.000, 0.000, -3.000, 0.0, , , , , , 97, , , 33, 33, 33
37.7328392, -120.0946488, 15.900, 11:49:46.298, 18, 0.00, 0.33, 98, -1.600, 0.200, 29.700, 800, 100, 100, 26, 24173, -18327, 5343, 5453, 13, 14, 1526237386.298, 30, 0, 1024, 1024, 1024, 1024, 0, 6, 3998, 4038, 4032, 4015, 4034, 4040, 0, 1, 10701, -90.000, 0.000, 29.600, 0.000, 0.000, -2.900, 0.0, , , , , , 97, , , 33, 33, 33
37.7328392, -120.0946488, 16.200, 11:49:46.398, 18, 0.00, 0.33, 98, -1.800, 0.400, 29.700, 800, 100, 100, 26, 24173, -18327, 5343, 5453, 13, 14, 1526237386.398, 50, 0, 1024, 1024, 1024, 1024, 0, 6, 3998, 4038, 4032, 4015, 4034, 4040, 0, 1, 10801, -89.900, 0.000, 29.600, 0.000, 0.000, -3.000, 0.0, , , , , , 97, , , 33, 33, 33
37.7328392, -120.0946488, 16.500, 11:49:46.498, 17, 0.00, 0.33, 98, -2.100, 0.800, 29.600, 800, 100, 100, 26, 24173, -18327, 5343, 5453, 13, 14, 1526237386.499, 54, 0, 1024, 1024, 1024, 1024, 0, 6, 3998, 4038, 4032, 4015, 4034, 4040, 0, 1, 10901, -89.900, 0.000, 29.600, 0.000, 0.000, -2.900, 0.0, , , , , , 97, , , 33, 33, 33
37.7328392, -120.0946488, 16.500, 11:49:46.598, 17, 0.00, 0.33, 98, -2.100, 0.800, 29.600, 800, 100, 100, 26, 24183, -17636, 5343, 5453, 13, 14, 1526237386.599, 154, 0, 1024, 1024, 1024, 1024, 0, 6, 3998, 4038, 4032, 4015, 4034, 4040, 0, 1, 11001, -90.000, 0.000, 29.600, 0.000, 0.000, -2.900, 0.0, , , , , , 97, , , 33, 33, 33
37.7328392, -120.0946488, 17.100, 11:49:46.703, 16, 0.00, 0.33, 98, -2.200, 0.400, 29.800, 800, 100, 100, 26, 24183, -17636, 5343, 5453, 13, 14, 1526237386.704, 10, 0, 1024, 1024, 1024, 1024, 0, 6, 3998, 4038, 4032, 4015, 4034, 4040, 0, 1, 11107, -90.000, 0.000, 29.600, 0.000, 0.000, -3.000, 0.0, , , , , , 97, , , 33, 33, 33
37.7328392, -120.0946488, 17.700, 11:49:46.818, 17, 0.00, 0.33, 98, -2.100, 0.200, 30.000, 800, 100, 95, 26, 24183, -17636, 5343, 5453, 13, 14, 1526237386.819, 13, 0, 1024, 1024, 1024, 1024, 0, 6, 3993, 4036, 4035, 4023, 4035, 4047, 0, 1, 11221, -90.000, 0.000, 29.600, 0.000, 0.000, -2.900, 0.0, , , , , , 97, , , 33, 33, 33
37.7328392, -120.0946490, 18.000, 11:49:46.898, 17, 0.00, 0.32, 98, -2.100, 0.200, 30.000, 800, 100, 95, 26, 24183, -17636, 5343, 5453, 13, 14, 1526237386.899, 17, 0, 1024, 1024, 1024, 1024, 0, 6, 3993, 4036, 4035, 4023, 4035, 4047, 0, 1, 11301, -89.900, 0.000, 29.600, 0.000, 0.000, -2.900, 0.0, , , , , , 97, , , 33, 33, 33
37.7328393, -120.0946491, 18.300, 11:49:47.006, 18, 0.00, 0.32, 98, -1.900, 0.400, 29.900, 800, 100, 95, 26, 24183, -17636, 5343, 5453, 13, 14, 1526237387.007, 18, 0, 1024, 1024, 1024, 1024, 0, 6, 3993, 4036, 4035, 4023, 4035, 4047, 0, 1, 11409, -89.900, 0.000, 29.600, 0.000, 0.000, -3.000, 0.0, , , , , , 97, , , 33, 33, 33
37.7328393, -120.0946492, 18.600, 11:49:47.101, 18, 0.00, 0.32, 98, -1.700, 0.500, 29.800, 800, 100, 95, 26, 24183, -17636, 5343, 5453, 13, 14, 1526237387.101, 9, 0, 1024, 1024, 1024, 1024, 0, 6, 3993, 4036, 4035, 4023, 4035, 4047, 0, 1, 11504, -90.000, 0.000, 29.600, 0.000, 0.000, -3.000, 0.0, , , , , , 97, , , 33, 33, 33
37.7328393, -120.0946492, 18.600, 11:49:47.198, 18, 0.00, 0.32, 98, -1.700, 0.500, 29.800, 800, 100, 93, 26, 24183, -17636, 5343, 5453, 13, 14, 1526237387.199, 107, 0, 1024, 1024, 1024, 1024, 0, 6, 3993, 4036, 4035, 4023, 4035, 4047, 0, 1, 11602, -90.000, 0.000, 29.500, 0.000, 0.000, -3.000, 0.0, , , , , , 97, , , 33, 33, 33
37.7328394, -120.0946493, 19.200, 11:49:47.309, 18, 0.00, 0.32, 98, -1.200, 0.500, 29.500, 800, 100, 93, 26, 24183, -17636, 5343, 5453, 13, 14, 1526237387.309, 8, 0, 1024, 1024, 1024, 1024, 0, 6, 3993, 4036, 4035, 4023, 4035, 4047, 0, 1, 11712, -89.900, 0.000, 29.600, 0.000, 0.000, -2.900, 0.0, , , , , , 97, , , 33, 33, 33
37.7328394, -120.0946493, 19.200, 11:49:47.400, 18, 0.00, 0.32, 98, -1.200, 0.500, 29.500, 800, 100, 93, 26, 24183, -17636, 5343, 5453, 13, 14, 1526237387.401, 100, 0, 1024, 1024, 1024, 1024, 0, 6, 3993, 4036, 4035, 4023, 4035, 4047, 0, 1, 11804, -89.900, 0.000, 29.600, 0.000, 0.000, -2.900, 0.0, , , , , , 97, , , 33, 33, 33
37.7328395, -120.0946493, 19.500, 11:49:47.498, 17, 0.00, 0.32, 98, -1.200, 0.700, 29.400, 800, 100, 93, 26, 24183, -17636, 5343, 5453, 13, 14, 1526237387.499, 65, 0, 1024, 1024, 1024, 1024, 0, 6, 3993, 4036, 4035, 4023, 4035, 4047, 0, 1, 11901, -89.900, 0.000, 29.600, 0.000, 0.000, -3.000, 0.0, , , , , , 97, , , 33, 33, 33
37.7328395, -120.0946494, 19.800, 11:49:47.598, 17, 0.00, 0.32, 98, -1.200, 1.000, 29.400, 800, 100, 93, 26, 24191, -17514, 5343, 5453, 13, 14, 1526237387.599, 69, 0, 1024, 1024, 1024, 1024, 0, 6, 3993, 4036, 4035, 4023, 4035, 4047, 0, 1, 12001, -89.900, 0.000, 29.600, 0.000, 0.000, -3.000, 0.0, , , , , , 97, , , 33, 33, 33
37.7328396, -120.0946494, 20.100, 11:49:47.699, 17, 0.00, 0.33, 98, -1.500, 1.200, 29.500, 800, 100, 93, 26, 24191, -17514, 5343, 5453, 13, 14, 1526237387.700, 97, 0, 1024, 1024, 1024, 1024, 0, 6, 3993, 4036, 4035, 4023, 4035, 4047, 0, 1, 12103, -89.900, 0.000, 29.600, 0.000, 0.000, -2.900, 0.0, , , , , , 97, , , 33, 33, 33
37.7328396, -120.0946494, 20.300, 11:49:47.797, 17, 0.00, 0.33, 98, -1.800, 1.400, 29.600, 800, 100, 93, 26, 24191, -17514, 5343, 5453, 13, 14, 1526237387.798, 53, 0, 1024, 1024, 1024, 1024, 0, 6, 3993, 4036, 4035, 4023, 4035, 4047, 0, 1, 12201, -89.900, 0.000, 29.600, 0.000, 0.000, -2.900, 0.0, , , , , , 97, , , 33, 33, 33
37.7328397, -120.0946494, 20.600, 11:49:47.898, 18, 0.00, 0.34, 98, -1.800, 1.600, 29.700, 800, 100, 93, 26, 24191, -17514, 5343, 5453, 13, 14, 1526237387.900, 71, 0, 1024, 1024, 1024, 1024, 0, 6, 3993, 4036, 4035, 4023, 4035, 4047, 0, 1, 12303, -89.900, 0.000, 29.600, 0.000, 0.000, -2.900, 0.0, , , , , , 97, , , 33, 33, 33
37.7328397, -120.0946494, 20.900, 11:49:47.998, 18, 0.00, 0.34, 98, -1.800, 1.700, 29.700, 800, 100, 93, 26, 24191, -17514, 5343, 5453, 13, 14, 1526237387.999, 47, 0, 1024, 1024, 1024, 1024, 0, 6, 3993, 4036, 4035, 4023, 4035, 4047, 0, 1, 12401, -89.900, 0.000, 29.600, 0.000, 0.000, -2.900, 0.0, , , , , , 97, , , 33, 33, 33
37.7328397, -120.0946493, 21.200, 11:49:48.100, 18, 0.00, 0.34, 98, -2.000, 1.800, 29.700, 800, 100, 93, 26, 24191, -17514, 5343, 5453, 13, 14, 1526237388.101, 73, 0, 1024, 1024, 1024, 1024, 0, 6, 3993, 4036, 4035, 4023, 4035, 4047, 0, 1, 12503, -89.900, 0.000, 29.600, 0.000, 0.000, -3.000, 0.0, , , , , , 97, , , 33, 33, 33
37.7328397, -120.0946493, 21.500, 11:49:48.198, 18, 0.00, 0.34, 98, -2.300, 1.700, 29.800, 800, 100, 95, 26, 24191, -17514, 5343, 5453, 13, 14, 1526237388.199, 40, 0, 1024, 1024, 1024, 1024, 0, 6, 4005, 4037, 4037, 4020, 4029, 4048, 0, 1, 12602, -89.900, 0.000, 29.600, 0.000, 0.000, -3.000, 0.0, , , , , , 97, , , 33, 33, 33
37.7328397, -120.0946493, 21.900, 11:49:48.298, 18, 0.00, 0.34, 98, -2.600, 1.400, 29.900, 800, 100, 95, 26, 24191, -17514, 5343, 5453, 13, 14, 1526237388.299, 30, 0, 1024, 1024, 1024, 1024, 0, 6, 4005, 4037, 4037, 4020, 4029, 4048, 0, 1, 12701, -89.900, 0.000, 29.600, 0.000, 0.000, -3.000, 0.0, , , , , , 97, , , 33, 33, 33
37.7328397, -120.0946493, 22.100, 11:49:48.399, 18, 0.00, 0.34, 98, -2.700, 1.100, 30.100, 800, 100, 95, 26, 24191, -17514, 5343, 5453, 13, 14, 1526237388.400, 37, 0, 1024, 1024, 1024, 1024, 0, 6, 4005, 4037, 4037, 4020, 4029, 4048, 0, 1, 12802, -90.000, 0.000, 29.600, 0.000, 0.000, -3.000, 0.0, , , , , , 97, , , 33, 33, 33
37.7328397, -120.0946492, 22.400, 11:49:48.497, 18, 0.00, 0.35, 98, -2.900, 0.900, 30.100, 800, 100, 95, 26, 24191, -17514, 5343, 5453, 13, 14, 1526237388.498, 42, 0, 1024, 1024, 1024, 1024, 0, 6, 4005, 4037, 4037, 4020, 4029, 4048, 0, 1, 12901, -90.000, 0.000, 29.600, 0.000, 0.000, -2.900, 0.0, , , , , , 97, , , 33, 33, 33
37.7328397, -120.0946492, 22.700, 11:49:48.598, 18, 0.00, 0.35, 98, -2.900, 0.800, 30.000, 800, 100, 95, 26, 24191, -17514, 5343, 5453, 13, 14, 1526237388.599, 40, 0, 1024, 1024, 1024, 1024, 0, 6, 4005, 4037, 4037, 4020, 4029, 4048, 0, 1, 13002, -90.000, 0.000, 29.600, 0.000, 0.000, -2.900, 0.0, , , , , , 97, , , 33, 33, 33
37.7328397, -120.0946492, 23.000, 11:49:48.698, 18, 0.00, 0.35, 98, -2.700, 1.100, 29.900, 800, 100, 96, 26, 24191, -17514, 5343, 5453, 13, 14, 1526237388.699, 34, 0, 1024, 1024, 1024, 1024, 0, 6, 4005, 4037, 4037, 4020, 4029, 4048, 0, 1, 13102, -89.900, 0.000, 29.600, 0.000, 0.000, -3.000, 0.0, , , , , , 97, , , 33, 33, 33
37.7328397, -120.0946492, 23.300, 11:49:48.798, 18, 0.00, 0.35, 98, -2.800, 1.100, 29.700, 800, 100, 96, 26, 24191, -17514, 5343, 5453, 13, 14, 1526237388.799, 44, 0, 1024, 1024, 1024, 1024, 0, 6, 4005, 4037, 4037, 4020, 4029, 4048, 0, 1, 13202, -89.900, 0.000, 29.500, 0.000, 0.000, -3.000, 0.0, , , , , , 97, , , 33, 33, 33
37.7328397, -120.0946492, 23.900, 11:49:48.905, 18, 0.00, 0.35, 98, -3.100, 1.300, 29.900, 800, 100, 96, 26, 24191, -17514, 5343, 5453, 13, 14, 1526237388.905, 6, 0, 1024, 1024, 1024, 1024, 0, 6, 4005, 4037, 4037, 4020, 4029, 4048, 0, 1, 13308, -89.900, 0.000, 29.600, 0.000, 0.000, -2.900, 0.0, , , , , , 97, , , 33, 33, 33
37.7328397, -120.0946492, 24.200, 11:49:48.998, 17, 0.00, 0.35, 98, -3.100, 0.900, 30.100, 800, 100, 96, 26, 24191, -17514, 5343, 5453, 13, 14, 1526237388.999, 28, 0, 1024, 1024, 1024, 1024, 0, 6, 4005, 4037, 4037, 4020, 4029, 4048, 0, 1, 13402, -89.900, 0.000, 29.600, 0.000, 0.000, -2.900, 0.0, , , , , , 97, , , 33, 33, 33
37.7328398, -120.0946492, 24.500, 11:49:49.098, 17, 0.00, 0.35, 98, -3.000, 0.800, 30.200, 800, 100, 96, 26, 24147, -17841, 5343, 5453, 13, 14, 1526237389.099, 29, 0, 1024, 1024, 1024, 1024, 0, 6, 4005, 4037, 4037, 4020, 4029, 4048, 0, 1, 13501, -90.000, 0.000, 29.600, 0.000, 0.000, -2.900, 0.0, , , , , , 97, , , 33, 33, 33
37.7328398, -120.0946493, 24.800, 11:49:49.198, 18, 0.00, 0.35, 98, -2.600, 1.000, 30.300, 800, 100, 96, 26, 24147, -17841, 5343, 5453, 13, 14, 1526237389.198, 10, 0, 1024, 1024, 1024, 1024, 0, 6, 4001, 4031, 4029, 4018, 4024, 4042, 0, 1, 13601, -90.000, 0.000, 29.600, 0.000, 0.000, -2.900, 0.0, , , , , , 97, , , 33, 33, 33
37.7328398, -120.0946493, 24.800, 11:49:49.299, 18, 0.00, 0.35, 98, -2.600, 1.000, 30.300, 800, 100, 96, 26, 24147, -17841, 5343, 5453, 13, 14, 1526237389.300, 111, 0, 1024, 1024, 1024, 1024, 0, 6, 4001, 4031, 4029, 4018, 4024, 4042, 0, 1, 13702, -89.900, 0.000, 29.600, 0.000, 0.000, -2.900, 0.0, , , , , , 97, , , 33, 33, 33
37.7328399, -120.0946494, 25.400, 11:49:49.398, 18, 0.00, 0.35, 98, -2.000, 1.300, 30.100, 800, 100, 96, 26, 24147, -17841, 5343, 5453, 13, 14, 1526237389.399, 24, 0, 1024, 1024, 1024, 1024, 0, 6, 4001, 4031, 4029, 4018, 4024, 4042, 0, 1, 13801, -89.900, 0.000, 29.600, 0.000, 0.000, -3.000, 0.0, , , , , , 97, , , 33, 33, 33
37.7328400, -120.0946495, 25.600, 11:49:49.498, 18, 0.00, 0.36, 98, -1.700, 1.700, 29.800, 800, 100, 96, 26, 24147, -17841, 5343, 5453, 13, 14, 1526237389.499, 12, 0, 1024, 1024, 1024, 1024, 0, 6, 4001, 4031, 4029, 4018, 4024, 4042, 0, 1, 13901, -89.900, 0.000, 29.500, 0.000, 0.000, -3.000, 0.0, , , , , , 97, , , 33, 33, 33
37.7328400, -120.0946495, 25.600, 11:49:49.599, 18, 0.00, 0.36, 98, -1.700, 1.700, 29.800, 800, 100, 98, 26, 24147, -17841, 5343, 5453, 13, 14, 1526237389.600, 113, 0, 1024, 1024, 1024, 1024, 0, 6, 4001, 4031, 4029, 4018, 4024, 4042, 0, 1, 14003, -89.900, 0.000, 29.500, 0.000, 0.000, -3.000, 0.0, , , , , , 97, , , 33, 33, 33
37.7328402, -120.0946496, 26.200, 11:49:49.699, 18, 0.00, 0.38, 98, -1.100, 2.300, 29.600, 800, 100, 98, 26, 24147, -17841, 5343, 5453, 13, 14, 1526237389.700, 4, 0, 1024, 1024, 1024, 1024, 0, 6, 4001, 4031, 4029, 4018, 4024, 4042, 0, 1, 14102, -89.900, 0.000, 29.600, 0.000, 0.000, -3.000, 0.0, , , , , , 97, , , 33, 33, 33
37.7328402, -120.0946496, 26.200, 11:49:49.798, 18, 0.00, 0.38, 98, -1.100, 2.300, 29.600, 800, 100, 98, 26, 24147, -17841, 5343, 5453, 13, 14, 1526237389.798, 103, 0, 1024, 1024, 1024, 1024, 0, 6, 4001, 4031, 4029, 4018, 4024, 4042, 0, 1, 14201, -89.900, 0.000, 29.600, 0.000, 0.000, -3.000, 0.0, , , , , , 97, , , 33, 33, 33
37.7328403, -120.0946496, 26.500, 11:49:49.898, 18, 0.00, 0.38, 98, -1.100, 2.700, 29.500, 800, 100, 98, 26, 24147, -17841, 5343, 5453, 13, 14, 1526237389.898, 92, 0, 1024, 1024, 1024, 1024, 0, 6, 4001, 4031, 4029, 4018, 4024, 4042, 0, 1, 14301, -89.900, 0.000, 29.500, 0.000, 0.000, -3.100, 0.0, , , , , , 97, , , 33, 33, 33
37.7328404, -120.0946496, 26.800, 11:49:49.998, 18, 0.00, 0.39, 98, -0.900, 2.600, 29.400, 800, 100, 98, 26, 24147, -17841, 5343, 5453, 13, 14, 1526237389.999, 57, 0, 1024, 1024, 1024, 1024, 0, 6, 4001, 4031, 4029, 4018, 4024, 4042, 0, 1, 14401, -89.900, 0.000, 29.600, 0.000, 0.000, -3.100, 0.0, , , , , , 97, , , 33, 33, 33
37.7328405, -120.0946497, 27.100, 11:49:50.098, 18, 0.10, 0.40, 98, -0.900, 3.000, 29.500, 800, 100, 98, 26, 24134, -17227, 5343, 5453, 13, 14, 1526237390.098, 63, 0, 1024, 1024, 1024, 1024, 0, 6, 3999, 4036, 4027, 4014, 4028, 4045, 0, 1, 14501, -89.900, 0.000, 29.600, 0.100, 0.000, -3.100, 0.0, , , , , , 97, , , 33, 33, 33
37.7328407, -120.0946496, 27.500, 11:49:50.198, 18, 0.10, 0.42, 98, -0.800, 3.300, 29.600, 800, 100, 98, 26, 24134, -17227, 5343, 5453, 13, 14, 1526237390.199, 77, 0, 1024, 1024, 1024, 1024, 0, 6, 3999, 4036, 4027, 4014, 4028, 4045, 0, 1, 14601, -89.900, 0.000, 29.600, 0.100, 0.000, -3.100, 0.0, , , , , , 97, , , 33, 33, 33
37.7328408, -120.0946496, 27.800, 11:49:50.306, 18, 0.00, 0.43, 98, -0.700, 4.300, 29.800, 800, 100, 98, 26, 24134, -17227, 5343, 5453, 13, 14, 1526237390.307, 95, 0, 1024, 1024, 1024, 1024, 0, 6, 3999, 4036, 4027, 4014, 4028, 4045, 0, 1, 14709, -89.900, 0.000, 29.600, 0.000, 0.000, -3.200, 0.0, , , , , , 97, , , 33, 33, 33
37.7328409, -120.0946496, 28.100, 11:49:50.399, 18, 0.00, 0.44, 98, -1.200, 4.500, 30.000, 800, 100, 98, 26, 24134, -17227, 5343, 5453, 13, 14, 1526237390.400, 78, 0, 1024, 1024, 1024, 1024, 0, 6, 3999, 4036, 4027, 4014, 4028, 4045, 0, 1, 14803, -89.900, 0.000, 29.600, 0.000, 0.000, -3.100, 0.0, , , , , , 97, , , 33, 33, 33
37.7328409, -120.0946495, 28.500, 11:49:50.499, 18, 0.10, 0.45, 98, -2.100, 4.200, 29.900, 800, 100, 98, 26, 24134, -17227, 5343, 5453, 13, 14, 1526237390.501, 85, 0, 1024, 1024, 1024, 1024, 0, 6, 3999, 4036, 4027, 4014, 4028, 4045, 0, 1, 14904, -90.000, 0.000, 29.600, 0.000, 0.100, -3.200, 0.0, , , , , , 97, , , 33, 33, 33
37.7328410, -120.0946495, 28.800, 11:49:50.598, 18, 0.10, 0.45, 98, -2.800, 3.500, 29.800, 800, 100, 98, 26, 24134, -17227, 5343, 5453, 13, 14, 1526237390.599, 61, 0, 1024, 1024, 1024, 1024, 0, 6, 3999, 4036, 4027, 4014, 4028, 4045, 0, 1, 15001, -90.000, 0.000, 29.600, 0.000, 0.100, -3.100, 0.0, , , , , , 97, , , 33, 33, 33
37.7328410, -120.0946494, 29.200, 11:49:50.698, 18, 0.10, 0.46, 98, -3.300, 3.000, 29.600, 800, 100, 99, 26, 24134, -17227, 5343, 5453, 13, 14, 1526237390.699, 48, 0, 1024, 1024, 1024, 1024, 0, 6, 3999, 4036, 4027, 4014, 4028, 4045, 0, 1, 15101, -90.000, 0.000, 29.600, 0.000, 0.100, -3.000, 0.0, , , , , , 97, , , 33, 33, 33
37.7328409, -120.0946494, 29.500, 11:49:50.798, 18, 0.10, 0.45, 98, -3.300, 2.500, 29.500, 800, 100, 99, 26, 24134, -17227, 5343, 5453, 13, 14, 1526237390.799, 51, 0, 1024, 1024, 1024, 1024, 0, 6, 3999, 4036, 4027, 4014, 4028, 4045, 0, 1, 15202, -90.000, 0.000, 29.500, 0.000, 0.100, -3.000, 0.0, , , , , , 97, , , 33, 33, 33
37.7328409, -120.0946494, 29.500, 11:49:50.898, 18, 0.10, 0.45, 98, -3.300, 2.500, 29.500, 800, 100, 99, 26, 24134, -17227, 5343, 5453, 13, 14, 1526237390.898, 150, 0, 1024, 1024, 1024, 1024, 0, 6, 3999, 4036, 4027, 4014, 4028, 4045, 0, 1, 15301, -90.000, 0.000, 29.600, 0.000, 0.100, -3.000, 0.0, , , , , , 97, , , 33, 33, 33
37.7328409, -120.0946493, 30.100, 11:49:50.999, 18, 0.10, 0.45, 98, -3.500, 1.900, 29.600, 800, 100, 99, 26, 24134, -17227, 5343, 5453, 13, 14, 1526237391.000, 32, 0, 1024, 1024, 1024, 1024, 0, 6, 3999, 4036, 4027, 4014, 4028, 4045, 0, 1, 15403, -90.000, 0.000, 29.500, 0.000, 0.100, -3.000, 0.0, , , , , , 97, , , 33, 33, 33
37.7328408, -120.0946493, 30.500, 11:49:51.099, 18, 0.10, 0.45, 98, -3.800, 1.900, 29.800, 800, 100, 99, 26, 24121, -17210, 5343, 5453, 13, 14, 1526237391.100, 44, 0, 1024, 1024, 1024, 1024, 0, 6, 3999, 4036, 4027, 4014, 4028, 4045, 0, 1, 15503, -90.000, 0.000, 29.600, 0.000, 0.100, -2.900, 0.0, , , , , , 97, , , 33, 33, 33
37.7328408, -120.0946492, 30.800, 11:49:51.197, 18, 0.10, 0.45, 98, -4.000, 2.200, 30.000, 800, 100, 99, 26, 24121, -17210, 5343, 5453, 13, 14, 1526237391.198, 24, 0, 1024, 1024, 1024, 1024, 0, 6, 3999, 4036, 4027, 4014, 4028, 4045, 0, 1, 15601, -90.000, 0.000, 29.600, 0.000, 0.100, -2.900, 0.0, , , , , , 97, , , 33, 33, 33
37.7328406, -120.0946490, 31.400, 11:49:51.298, 18, 0.10, 0.44, 98, -5.300, 2.300, 29.900, 800, 100, 99, 26, 24121, -17210, 5343, 5453, 13, 14, 1526237391.299, 28, 0, 1024, 1024, 1024, 1024, 0, 6, 3998, 4033, 4035, 4017, 4034, 4054, 0, 1, 15702, -90.000, 0.000, 29.500, 0.000, 0.100, -2.900, 0.0, , , , , , 97, , , 33, 33, 33
37.7328406, -120.0946490, 31.400, 11:49:51.399, 18, 0.10, 0.44, 98, -5.300, 2.300, 29.900, 800, 100, 99, 26, 24121, -17210, 5343, 5453, 13, 14, 1526237391.399, 128, 0, 1024, 1024, 1024, 1024, 0, 6, 3998, 4033, 4035, 4017, 4034, 4054, 0, 1, 15802, -89.900, 0.000, 29.500, 0.000, 0.100, -2.900, 0.0, , , , , , 97, , , 33, 33, 33
37.7328405, -120.0946488, 31.700, 11:49:51.498, 18, 0.10, 0.44, 98, -5.500, 2.300, 29.800, 800, 100, 99, 26, 24121, -17210, 5343, 5453, 13, 14, 1526237391.499, 34, 0, 1024, 1024, 1024, 1024, 0, 6, 3998, 4033, 4035, 4017, 4034, 4054, 0, 1, 15902, -90.000, 0.000, 29.600, 0.000, 0.100, -2.800, 0.0, , , , , , 97, , , 33, 33, 33
37.7328404, -120.0946487, 32.000, 11:49:51.597, 18, 0.14, 0.43, 98, -6.000, 2.300, 29.800, 800, 100, 99, 26, 24121, -17210, 5343, 5453, 13, 14, 1526237391.598, 29, 0, 1024, 1024, 1024, 1024, 0, 6, 3998, 4033, 4035, 4017, 4034, 4054, 0, 1, 16001, -90.000, 0.000, 29.600, -0.100, 0.100, -2.800, 0.0, , , , , , 97, , , 33, 33, 33
37.7328402, -120.0946484, 32.500, 11:49:51.704, 18, 0.14, 0.43, 98, -6.400, 2.000, 30.000, 800, 100, 99, 26, 24121, -17210, 5343, 5453, 13, 14, 1526237391.704, 11, 0, 1024, 1024, 1024, 1024, 0, 6, 3998, 4033, 4035, 4017, 4034, 4054, 0, 1, 16107, -90.000, 0.000, 29.600, -0.100, 0.100, -2.600, 0.0, , , , , , 97, , , 33, 33, 33
37.7328401, -120.0946483, 32.800, 11:49:51.798, 18, 0.14, 0.43, 98, -6.600, 1.900, 30.000, 800, 100, 99, 26, 24121, -17210, 5343, 5453, 13, 14, 1526237391.798, 31, 0, 1024, 1024, 1024, 1024, 0, 6, 3998, 4033, 4035, 4017, 4034, 4054, 0, 1, 16201, -90.000, 0.000, 29.600, -0.100, 0.100, -2.600, 0.0, , , , , , 97, , , 33, 33, 33
37.7328401, -120.0946483, 32.800, 11:49:51.899, 18, 0.14, 0.43, 98, -6.600, 1.900, 30.000, 800, 100, 99, 26, 24121, -17210, 5343, 5453, 13, 14, 1526237391.900, 133, 0, 1024, 1024, 1024, 1024, 0, 6, 3998, 4033, 4035, 4017, 4034, 4054, 0, 1, 16303, -90.000, 0.000, 29.600, -0.100, 0.100, -2.600, 0.0, , , , , , 97, , , 33, 33, 33
37.7328398, -120.0946480, 33.300, 11:49:51.998, 18, 0.10, 0.43, 98, -6.300, 1.500, 30.300, 800, 100, 99, 26, 24250, -15569, 5289, 5453, 13, 14, 1526237391.999, 14, 0, 1024, 1024, 1024, 1024, 0, 6, 4005, 4054, 4038, 4028, 4033, 4063, 0, 1, 16401, -90.000, 0.000, 29.600, 0.000, 0.100, -2.600, 0.0, , , , , , 97, , , 33, 33, 33
37.7328398, -120.0946480, 33.500, 11:49:52.152, 18, 0.00, 0.43, 98, -5.900, 1.300, 30.300, 800, 100, 99, 26, 24250, -15569, 5289, 5453, 13, 14, 1526237392.152, 36, 0, 1024, 1024, 1024, 1024, 0, 6, 4005, 4054, 4038, 4028, 4033, 4063, 0, 1, 16555, -89.900, 0.000, 29.600, 0.000, 0.000, -2.600, 0.0, , , , , , 97, , , 33, 33, 33
37.7328398, -120.0946480, 33.700, 11:49:52.208, 18, 0.00, 0.43, 98, -5.400, 1.400, 30.200, 800, 100, 99, 26, 24250, -15569, 5289, 5453, 13, 14, 1526237392.209, 10, 0, 1024, 1024, 1024, 1024, 0, 6, 4005, 4054, 4038, 4028, 4033, 4063, 0, 1, 16611, -90.000, 0.000, 29.600, 0.000, 0.000, -2.600, 0.0, , , , , , 97, , , 33, 33, 33
37.7328398, -120.0946480, 33.700, 11:49:52.298, 18, 0.00, 0.43, 98, -5.400, 1.400, 30.200, 800, 100, 99, 26, 24250, -15569, 5289, 5453, 13, 14, 1526237392.299, 101, 0, 1024, 1024, 1024, 1024, 0, 6, 4005, 4054, 4038, 4028, 4033, 4063, 0, 1, 16702, -90.000, 0.000, 29.600, 0.000, 0.000, -2.600, 0.0, , , , , , 97, , , 33, 33, 33
37.7328398, -120.0946479, 34.100, 11:49:52.398, 18, 0.00, 0.44, 98, -4.900, 2.700, 29.800, 800, 100, 99, 26, 24250, -15569, 5289, 5453, 13, 14, 1526237392.399, 13, 0, 1024, 1024, 1024, 1024, 0, 6, 4005, 4054, 4038, 4028, 4033, 4063, 0, 1, 16801, -89.900, 0.000, 29.600, 0.000, 0.000, -2.700, 0.0, , , , , , 97, , , 33, 33, 33
37.7328399, -120.0946479, 34.400, 11:49:52.506, 18, 0.00, 0.44, 98, -4.600, 3.600, 29.400, 800, 100, 99, 26, 24250, -15569, 5289, 5453, 13, 14, 1526237392.507, 7, 0, 1024, 1024, 1024, 1024, 0, 6, 4005, 4054, 4038, 4028, 4033, 4063, 0, 1, 16910, -89.900, 0.000, 29.600, 0.000, 0.000, -2.800, 0.0, , , , , , 97, , , 33, 33, 33
37.7328399, -120.0946479, 34.400, 11:49:52.599, 18, 0.00, 0.44, 98, -4.600, 3.600, 29.400, 800, 100, 99, 26, 24250, -15569, 5289, 5453, 13, 14, 1526237392.600, 100, 0, 1024, 1024, 1024, 1024, 0, 6, 4005, 4054, 4038, 4028, 4033, 4063, 0, 1, 17003, -89.900, 0.000, 29.600, 0.000, 0.000, -2.800, 0.0, , , , , , 97, , , 33, 33, 33
37.7328399, -120.0946479, 34.600, 11:49:52.698, 18, 0.00, 0.45, 98, -4.300, 3.900, 29.200, 800, 100, 100, 26, 24250, -15569, 5289, 5453, 13, 14, 1526237392.699, 95, 0, 1024, 1024, 1024, 1024, 0, 6, 4005, 4054, 4038, 4028, 4033, 4063, 0, 1, 17101, -89.900, 0.000, 29.600, 0.000, 0.000, -3.000, 0.0, , , , , , 97, , , 33, 33, 33
37.7328400, -120.0946479, 34.900, 11:49:52.798, 18, 0.00, 0.45, 98, -4.100, 3.800, 28.900, 800, 100, 100, 26, 24250, -15569, 5289, 5453, 13, 14, 1526237392.800, 78, 0, 1024, 1024, 1024, 1024, 0, 6, 4005, 4054, 4038, 4028, 4033, 4063, 0, 1, 17203, -89.900, 0.000, 29.600, 0.000, 0.000, -3.100, 0.0, , , , , , 97, , , 33, 33, 33
37.7328401, -120.0946479, 35.200, 11:49:52.898, 18, 0.00, 0.46, 98, -3.600, 3.600, 28.700, 800, 100, 100, 26, 24250, -15569, 5289, 5453, 13, 14, 1526237392.899, 76, 0, 1024, 1024, 1024, 1024, 0, 6, 4005, 4054, 4038, 4028, 4033, 4063, 0, 1, 17301, -89.900, 0.000, 29.500, 0.000, 0.000, -3.100, 0.0, , , , , , 97, , , 33, 33, 33
37.7328401, -120.0946479, 35.500, 11:49:52.998, 18, 0.00, 0.46, 98, -3.600, 3.900, 28.700, 800, 100, 100, 26, 24250, -15569, 5289, 5453, 13, 14, 1526237392.999, 91, 0, 1024, 1024, 1024, 1024, 0, 6, 4005, 4054, 4038, 4028, 4033, 4063, 0, 1, 17401, -89.900, 0.000, 29.600, 0.000, 0.000, -3.100, 0.0, , , , , , 97, , , 33, 33, 33
37.7328401, -120.0946479, 35.800, 11:49:53.098, 18, 0.00, 0.46, 97, -3.600, 3.800, 28.800, 800, 100, 100, 26, 24129, -21938, 5289, 5453, 13, 14, 1526237393.099, 63, 0, 1024, 1024, 1024, 1024, 0, 6, 4005, 4054, 4038, 4028, 4033, 4063, 0, 1, 17502, -89.900, 0.000, 29.600, 0.000, 0.000, -3.200, 0.0, , , , , , 97, , , 33, 33, 33
37.7328401, -120.0946479, 36.100, 11:49:53.198, 18, 0.00, 0.46, 97, -3.800, 3.900, 29.300, 800, 100, 98, 26, 24129, -21938, 5289, 5453, 13, 14, 1526237393.202, 26, 0, 1024, 1024, 1024, 1024, 0, 6, 4005, 4054, 4038, 4028, 4033, 4063, 0, 1, 17604, -89.900, 0.000, 29.600, 0.000, 0.000, -3.200, 0.0, , , , , , 97, , , 33, 33, 33
37.7328402, -120.0946479, 36.400, 11:49:53.298, 18, 0.00, 0.46, 97, -3.700, 3.800, 29.700, 800, 100, 98, 26, 24129, -21938, 5289, 5453, 13, 14, 1526237393.301, 32, 0, 1024, 1024, 1024, 1024, 0, 6, 4005, 4054, 4038, 4028, 4033, 4063, 0, 1, 17704, -89.900, 0.000, 29.600, 0.000, 0.000, -3.300, 0.0, , , , , , 97, , , 33, 33, 33
37.7328402, -120.0946479, 36.700, 11:49:53.398, 18, 0.00, 0.47, 97, -3.800, 3.700, 29.800, 800, 100, 98, 26, 24129, -21938, 5289, 5453, 13, 14, 1526237393.399, 46, 0, 1024, 1024, 1024, 1024, 0, 6, 4005, 4054, 4038, 4028, 4033, 4063, 0, 1, 17802, -89.900, 0.000, 29.600, 0.000, 0.000, -3.300, 0.0, , , , , , 97, , , 33, 33, 33
37.7328402, -120.0946479, 37.100, 11:49:53.498, 18, 0.00, 0.47, 97, -3.900, 3.800, 29.500, 800, 100, 98, 26, 24129, -21938, 5289, 5453, 13, 14, 1526237393.499, 60, 0, 1024, 1024, 1024, 1024, 0, 6, 4005, 4054, 4038, 4028, 4033, 4063, 0, 1, 17902, -89.900, 0.000, 29.600, 0.000, 0.000, -3.400, 0.0, , , , , , 97, , , 33, 33, 33
37.7328402, -120.0946480, 37.400, 11:49:53.598, 18, 0.00, 0.47, 97, -3.900, 4.100, 29.500, 800, 100, 98, 26, 24129, -21938, 5289, 5453, 13, 14, 1526237393.599, 61, 0, 1024, 1024, 1024, 1024, 0, 6, 4005, 4054, 4038, 4028, 4033, 4063, 0, 1, 18001, -89.900, 0.000, 29.600, 0.000, 0.000, -3.300, 0.0, , , , , , 97, , , 33, 33, 33
37.7328403, -120.0946480, 37.700, 11:49:53.698, 18, 0.00, 0.47, 97, -3.700, 4.100, 29.600, 800, 100, 98, 26, 24129, -21938, 5289, 5453, 13, 14, 1526237393.701, 64, 0, 1024, 1024, 1024, 1024, 0, 6, 3921, 3972, 3986, 3981, 3982, 3996, 0, 1, 18104, -89.900, 0.000, 29.600, 0.000, 0.000, -3.200, 0.0, , , , , , 97, , , 33, 33, 33
37.7328403, -120.0946480, 38.000, 11:49:53.798, 18, 0.00, 0.47, 97, -3.300, 4.200, 29.700, 800, 100, 98, 26, 24129, -21938, 5289, 5453, 13, 14, 1526237393.800, 15, 0, 1024, 1024, 1024, 1024, 0, 6, 3921, 3972, 3986, 3981, 3982, 3996, 0, 1, 18203, -89.900, 0.000, 29.600, 0.000, 0.000, -3.200, 0.0, , , , , , 97, , , 33, 33, 33
37.7328403, -120.0946480, 38.700, 11:49:53.898, 18, 0.00, 0.47, 97, -4.000, 4.500, 29.600, 800, 100, 98, 26, 24129, -21938, 5289, 5453, 13, 14, 1526237393.899, 41, 0, 1024, 1024, 1024, 1024, 0, 6, 3921, 3972, 3986, 3981, 3982, 3996, 0, 1, 18302, -89.900, 0.000, 29.600, 0.000, 0.000, -3.400, 0.0, , , , , , 97, , , 33, 33, 33
37.7328403, -120.0946480, 38.700, 11:49:53.998, 18, 0.00, 0.47, 97, -4.000, 4.500, 29.600, 800, 100, 98, 26, 24129, -21938, 5289, 5453, 13, 14, 1526237394.001, 143, 0, 1024, 1024, 1024, 1024, 0, 6, 3921, 3972, 3986, 3981, 3982, 3996, 0, 1, 18403, -89.900, 0.000, 29.500, 0.000, 0.000, -3.400, 0.0, , , , , , 97, , , 33, 33, 33
37.7328403, -120.0946479, 39.400, 11:49:54.105, 18, 0.00, 0.47, 97, -5.000, 4.200, 29.700, 800, 100, 98, 26, 24129, -21938, 5289, 5453, 13, 14, 1526237394.105, 12, 0, 1024, 1024, 1024, 1024, 0, 6, 3921, 3972, 3986, 3981, 3982, 3996, 0, 1, 18508, -89.900, 0.000, 29.600, 0.000, 0.000, -3.200, 0.0, , , , , , 97, , , 33, 33, 33
37.7328403, -120.0946479, 39.400, 11:49:54.198, 18, 0.00, 0.47, 97, -5.000, 4.200, 29.700, 800, 100, 98, 26, 24129, -21938, 5289, 5453, 13, 14, 1526237394.199, 106, 0, 1024, 1024, 1024, 1024, 0, 6, 3921, 3972, 3986, 3981, 3982, 3996, 0, 1, 18601, -89.900, 0.000, 29.600, 0.000, 0.000, -3.200, 0.0, , , , , , 97, , , 33, 33, 33
37.7328403, -120.0946479, 40.000, 11:49:54.298, 18, 0.00, 0.47, 97, -4.400, 3.700, 30.300, 800, 100, 94, 26, 24129, -21938, 5289, 5453, 13, 14, 1526237394.299, 21, 0, 1024, 1024, 1024, 1024, 0, 6, 3921, 3972, 3986, 3981, 3982, 3996, 0, 1, 18701, -89.900, 0.000, 29.600, 0.000, 0.000, -3.100, 0.0, , , , , , 97, , , 33, 33, 33
37.7328403, -120.0946479, 40.400, 11:49:54.398, 18, 0.00, 0.47, 97, -4.400, 3.900, 30.500, 800, 100, 94, 26, 24129, -21938, 5289, 5453, 13, 14, 1526237394.398, 24, 0, 1024, 1024, 1024, 1024, 0, 6, 3921, 3972, 3986, 3981, 3982, 3996, 0, 1, 18801, -89.900, 0.000, 29.600, 0.000, 0.000, -3.200, 0.0, , , , , , 97, , , 33, 33, 33
37.7328403, -120.0946479, 40.700, 11:49:54.499, 18, 0.00, 0.47, 97, -4.500, 4.500, 30.500, 800, 100, 94, 26, 24129, -21938, 5289, 5453, 13, 14, 1526237394.500, 7, 0, 1024, 1024, 1024, 1024, 0, 6, 3921, 3972, 3986, 3981, 3982, 3996, 0, 1, 18903, -89.900, 0.000, 29.600, 0.000, 0.000, -3.100, 0.0, , , , , , 97, , , 33, 33, 33
37.7328403, -120.0946479, 40.700, 11:49:54.598, 18, 0.00, 0.47, 97, -4.500, 4.500, 30.500, 800, 100, 94, 26, 24129, -21938, 5289, 5453, 13, 14, 1526237394.598, 106, 0, 1024, 1024, 1024, 1024, 0, 6, 3921, 3972, 3986, 3981, 3982, 3996, 0, 1, 19001, -89.900, 0.000, 29.600, 0.000, 0.000, -3.100, 0.0, , , , , , 97, , , 33, 33, 33
37.7328404, -120.0946479, 41.300, 11:49:54.697, 18, 0.10, 0.48, 97, -4.800, 5.300, 30.000, 800, 100, 95, 26, 24129, -21938, 5289, 5453, 13, 14, 1526237394.698, 10, 0, 1024, 1024, 1024, 1024, 0, 6, 3921, 3972, 3986, 3981, 3982, 3996, 0, 1, 19101, -89.900, 0.000, 29.600, 0.000, 0.100, -3.100, 0.0, , , , , , 97, , , 33, 33, 33
37.7328404, -120.0946479, 41.600, 11:49:54.807, 18, 0.10, 0.48, 97, -5.000, 5.400, 29.700, 800, 100, 95, 26, 24129, -21938, 5289, 5453, 13, 14, 1526237394.808, 9, 0, 1024, 1024, 1024, 1024, 0, 6, 3921, 3972, 3986, 3981, 3982, 3996, 0, 1, 19210, -89.900, 0.000, 29.600, 0.000, 0.100, -3.100, 0.0, , , , , , 97, , , 33, 33, 33
37.7328404, -120.0946479, 41.600, 11:49:54.898, 18, 0.10, 0.48, 97, -5.000, 5.400, 29.700, 800, 100, 95, 26, 24129, -21938, 5289, 5453, 13, 14, 1526237394.898, 100, 0, 1024, 1024, 1024, 1024, 0, 6, 3921, 3972, 3986, 3981, 3982, 3996, 0, 1, 19301, -89.900, 0.000, 29.600, 0.000, 0.100, -3.100, 0.0, , , , , , 97, , , 33, 33, 33
37.7328405, -120.0946479, 41.900, 11:49:54.998, 18, 0.10, 0.49, 97, -5.000, 5.300, 29.400, 800, 100, 95, 26, 24129, -21938, 5289, 5453, 13, 14, 1526237394.998, 97, 0, 1024, 1024, 1024, 1024, 0, 6, 3921, 3972, 3986, 3981, 3982, 3996, 0, 1, 19401, -89.900, 0.000, 29.500, 0.000, 0.100, -3.100, 0.0, , , , , , 97, , , 33, 33, 33
37.7328406, -120.0946478, 42.300, 11:49:55.098, 18, 0.10, 0.50, 97, -5.300, 5.300, 29.200, 800, 100, 95, 26, 24003, -18204, 5289, 5453, 13, 14, 1526237395.098, 86, 0, 1024, 1024, 1024, 1024, 0, 6, 3967, 4012, 4005, 3988, 3973, 3983, 0, 1, 19501, -89.900, 0.000, 29.500, 0.000, 0.100, -3.000, 0.0, , , , , , 97, , , 33, 33, 33
37.7328406, -120.0946478, 42.600, 11:49:55.198, 18, 0.10, 0.50, 97, -5.500, 5.300, 29.100, 800, 100, 95, 26, 24003, -18204, 5289, 5453, 13, 14, 1526237395.199, 65, 0, 1024, 1024, 1024, 1024, 0, 6, 3967, 4012, 4005, 3988, 3973, 3983, 0, 1, 19601, -89.900, 0.000, 29.500, 0.000, 0.100, -3.100, 0.0, , , , , , 97, , , 33, 33, 33
37.7328406, -120.0946477, 42.900, 11:49:55.298, 18, 0.10, 0.51, 97, -5.900, 5.500, 29.100, 800, 100, 95, 26, 24003, -18204, 5289, 5453, 13, 14, 1526237395.298, 86, 0, 1024, 1024, 1024, 1024, 0, 6, 3967, 4012, 4005, 3988, 3973, 3983, 0, 1, 19701, -89.900, 0.000, 29.600, 0.000, 0.100, -3.000, 0.0, , , , , , 97, , , 33, 33, 33
37.7328406, -120.0946476, 43.200, 11:49:55.398, 18, 0.10, 0.52, 97, -6.200, 5.500, 29.300, 800, 100, 95, 26, 24003, -18204, 5289, 5453, 13, 14, 1526237395.398, 74, 0, 1024, 1024, 1024, 1024, 0, 6, 3967, 4012, 4005, 3988, 3973, 3983, 0, 1, 19801, -89.900, 0.000, 29.500, 0.000, 0.100, -3.000, 0.0, , , , , , 97, , , 33, 33, 33
37.7328407, -120.0946475, 43.500, 11:49:55.498, 18, 0.10, 0.52, 97, -6.400, 5.700, 29.400, 800, 100, 95, 26, 24003, -18204, 5289, 5453, 13, 14, 1526237395.498, 77, 0, 1024, 1024, 1024, 1024, 0, 6, 3967, 4012, 4005, 3988, 3973, 3983, 0, 1, 19901, -89.900, 0.000, 29.600, 0.000, 0.100, -3.100, 0.0, , , , , , 97, , , 33, 33, 33
37.7328407, -120.0946475, 43.800, 11:49:55.598, 18, 0.10, 0.53, 97, -6.300, 6.000, 29.400, 800, 100, 95, 26, 24080, -16974, 5289, 5453, 13, 14, 1526237395.598, 55, 0, 1024, 1024, 1024, 1024, 0, 6, 3986, 4008, 4017, 4004, 4017, 4035, 0, 1, 20001, -89.900, 0.000, 29.500, 0.000, 0.100, -3.100, 0.0, , , , , , 97, , , 33, 33, 33
37.7328407, -120.0946475, 44.200, 11:49:55.698, 18, 0.00, 0.53, 97, -6.000, 5.900, 29.400, 800, 100, 98, 26, 24080, -16974, 5289, 5453, 13, 14, 1526237395.699, 48, 0, 1024, 1024, 1024, 1024, 0, 6, 3986, 4008, 4017, 4004, 4017, 4035, 0, 1, 20101, -89.900, 0.000, 29.500, 0.000, 0.000, -3.100, 0.0, , , , , , 97, , , 33, 33, 33
37.7328407, -120.0946475, 44.500, 11:49:55.798, 18, 0.00, 0.54, 97, -5.700, 5.700, 29.400, 800, 100, 98, 26, 24080, -16974, 5289, 5453, 13, 14, 1526237395.799, 58, 0, 1024, 1024, 1024, 1024, 0, 6, 3986, 4008, 4017, 4004, 4017, 4035, 0, 1, 20201, -89.900, 0.000, 29.500, 0.000, 0.000, -3.100, 0.0, , , , , , 97, , , 33, 33, 33
37.7328407, -120.0946475, 44.800, 11:49:55.898, 18, 0.00, 0.53, 97, -5.500, 5.400, 29.400, 800, 100, 98, 26, 24080, -16974, 5289, 5453, 13, 14, 1526237395.898, 48, 0, 1024, 1024, 1024, 1024, 0, 6, 3986, 4008, 4017, 4004, 4017, 4035, 0, 1, 20301, -89.900, 0.000, 29.500, 0.000, 0.000, -2.900, 0.0, , , , , , 97, , , 33, 33, 33
37.7328407, -120.0946475, 45.200, 11:49:55.998, 18, 0.00, 0.53, 97, -5.300, 5.200, 29.500, 800, 100, 98, 26, 24080, -16974, 5289, 5453, 13, 14, 1526237395.998, 64, 0, 1024, 1024, 1024, 1024, 0, 6, 3986, 4008, 4017, 4004, 4017, 4035, 0, 1, 20401, -89.900, 0.000, 29.500, 0.000, 0.000, -2.900, 0.0, , , , , , 97, , , 33, 33, 33
37.7328407, -120.0946475, 45.500, 11:49:56.098, 18, 0.00, 0.53, 97, -5.500, 5.000, 29.600, 800, 100, 98, 26, 24080, -16974, 5289, 5453, 13, 14, 1526237396.099, 56, 0, 1024, 1024, 1024, 1024, 0, 6, 3986, 4008, 4017, 4004, 4017, 4035, 0, 1, 20501, -90.000, 0.000, 29.500, 0.000, 0.000, -2.900, 0.0, , , , , , 97, , , 33, 33, 33
37.7328407, -120.0946475, 45.800, 11:49:56.198, 18, 0.00, 0.53, 97, -5.400, 4.900, 29.700, 800, 100, 98, 26, 24080, -16974, 5289, 5453, 13, 14, 1526237396.198, 42, 0, 1024, 1024, 1024, 1024, 0, 6, 3986, 4008, 4017, 4004, 4017, 4035, 0, 1, 20601, -89.900, 0.000, 29.500, 0.000, 0.000, -2.800, 0.0, , , , , , 97, , , 33, 33, 33
37.7328407, -120.0946475, 46.100, 11:49:56.298, 18, 0.00, 0.52, 97, -5.200, 4.800, 29.800, 800, 100, 98, 26, 24080, -16974, 5289, 5453, 13, 14, 1526237396.298, 45, 0, 1024, 1024, 1024, 1024, 0, 6, 3986, 4008, 4017, 4004, 4017, 4035, 0, 1, 20701, -90.000, 0.000, 29.600, 0.000, 0.000, -2.900, 0.0, , , , , , 97, , , 33, 33, 33
