latitude,longitude,altitude(feet),ascent(feet),speed(mph),distance(feet),time(millisecond),datetime(utc),satellites,gpslevel,voltage(v),max_altitude(feet),max_ascent(feet),max_speed(mph),max_distance(feet), xSpeed(mph), ySpeed(mph), zSpeed(mph), compass_heading(degrees), pitch(degrees), roll(degrees),isPhoto,isVideo,rc_elevator,rc_aileron,rc_throttle,rc_rudder,gimbal_heading(degrees),gimbal_pitch(degrees),battery_percent,voltageCell1,voltageCell2,voltageCell3,voltageCell4,voltageCell5,voltageCell6,current(A),battery_temperature(f),flycStateRaw,flycState,message
36.767329,-118.8834299,5724.4846844958,0,0.4921268,0,3230,2018-04-14 19:45:00,11,0,0,5724.4846844958,0,0.4921268,0,0,0,0,60.9, 1.6, 0.9,1,0,1024,1024,1024,1024,63.4,-90,100,4.07,4.11,4.071,4.107,0,0,0,59,11,AutoTakeoff,DJI_0208.jpg Starting Mission from Lat/Long: 36.76734/-118.88342 Camera: Zenmuse X3 - Overlap: 90/90 - Active Connection: Yes
36.767329,-118.8834299,5724.4846844958,0,0.4921268,0,3300,2018-04-14 19:45:00,11,0,0,5724.4846844958,0,0.4921268,0,0,0,0,60.9, 1.6, 0.9,0,0,1024,1024,1024,1024,63.4,-90,100,4.07,4.11,4.071,4.107,0,0,0,59,11,AutoTakeoff,
36.7673289,-118.8834301,5724.4846844958,0,0.4921268,0.068906170184,3400,2018-04-14 19:45:00,11,0,0,5724.4846844958,0,0.4921268,0.068906170184,0,0,0,60.9, 0.1, 0.4,0,0,1024,1024,1024,1024,63.3,-89.9,100,4.07,4.11,4.071,4.107,0,0,0,59,11,AutoTakeoff,
36.7673289,-118.8834304,5724.8127684958,0.328084,0.4921268,0.150621067812,3500,2018-04-14 19:45:00,11,0,0,5724.8127684958,0.328084,0.4921268,0.150621067812,0,0,0,61.1, -1, 0,0,0,1024,1024,1024,1024,63.3,-89.9,100,4.07,4.11,4.071,4.107,0,0,0,59,11,AutoTakeoff,
36.7673289,-118.8834306,5724.8127684958,0.328084,0.223694,0.207817591952,3700,2018-04-14 19:45:01,11,0,0,5724.8127684958,0.328084,0.4921268,0.207817591952,0,0,0,61.3, -1.8, -0.1,0,0,1024,1024,1024,1024,63.2,-90,100,4.07,4.11,4.071,4.107,0,0,0,59,11,AutoTakeoff,
36.7673289,-118.8834308,5724.8127684958,0.328084,0.223694,0.265562016372,3800,2018-04-14 19:45:01,10,0,0,5724.8127684958,0.328084,0.4921268,0.265562016372,0,0,0,61.5, -2, 0,0,0,1024,1024,1024,1024,63.2,-90,100,4.07,4.11,4.071,4.107,0,0,0,59,11,AutoTakeoff,
36.7673289,-118.883431,5724.8127684958,0.328084,0.223694,0.323561690144,3900,2018-04-14 19:45:01,10,0,0,5724.8127684958,0.328084,0.4921268,0.323561690144,0,0,0,61.7, -1.6, 0,0,0,1024,1024,1024,1024,63.2,-89.9,100,4.07,4.11,4.071,4.107,0,0,0,59,11,AutoTakeoff,
36.7673289,-118.8834312,5725.1408524958,0.656168,0,0.38169948728,4010,2018-04-14 19:45:01,12,0,24.876,5725.1408524958,0.656168,0.4921268,0.38169948728,0,0,0,61.8, -0.8, 0,0,0,1024,1024,1024,1024,63.1,-89.9,100,4.07,4.11,4.071,4.107,0,0,7.664,59,11,AutoTakeoff,
36.767329,-118.8834313,5725.1408524958,0.656168,0,0.40917980312,4110,2018-04-14 19:45:01,12,0,24.876,5725.1408524958,0.656168,0.4921268,0.40917980312,0,0,0,61.9, -0.3, 0.1,0,0,1024,1024,1024,1024,63.1,-89.9,100,4.07,4.11,4.071,4.107,0,0,7.664,59,11,AutoTakeoff,
36.7673291,-118.8834313,5725.4689364958,0.984252,0,0.41080381892,4200,2018-04-14 19:45:01,12,0,24.876,5725.4689364958,0.984252,0.4921268,0.41080381892,0,0,0,61.9, -0.2, 0.3,0,0,1024,1024,1024,1024,63.1,-89.9,100,4.07,4.11,4.071,4.107,0,0,7.664,59,11,AutoTakeoff,
36.7673291,-118.8834313,5725.7970204958,1.312336,0,0.41080381892,4300,2018-04-14 19:45:01,12,0,24.876,5725.7970204958,1.312336,0.4921268,0.41080381892,0,0,-0.223694,61.8, -0.1, 0.3,0,0,1024,1024,1024,1024,63,-89.9,100,4.07,4.11,4.071,4.107,0,0,7.664,59,11,AutoTakeoff,
36.7673291,-118.8834314,5726.1251044958,1.64042,0,0.43992127392,4400,2018-04-14 19:45:01,12,0,24.876,5726.1251044958,1.64042,0.4921268,0.43992127392,0,0,-0.223694,61.8, 0, 0.3,0,0,1024,1024,1024,1024,63,-89.9,100,4.07,4.11,4.071,4.107,0,0,7.664,59,11,AutoTakeoff,
36.7673291,-118.8834314,5726.1251044958,1.64042,0,0.43992127392,4500,2018-04-14 19:45:01,10,0,24.876,5726.1251044958,1.64042,0.4921268,0.43992127392,0,0,0,61.7, 0.1, 0.2,0,0,1024,1024,1024,1024,63,-89.9,100,4.07,4.11,4.071,4.107,0,0,7.664,59,11,AutoTakeoff,
36.767329,-118.8834314,5726.4531884958,1.968504,0,0.43840552584,4600,2018-04-14 19:45:02,10,0,24.876,5726.4531884958,1.968504,0.4921268,0.43992127392,0,0,0,61.6, 0.1, 0.2,0,0,1024,1024,1024,1024,62.9,-89.9,100,4.07,4.11,4.071,4.107,0,0,7.664,59,11,AutoTakeoff,
36.767329,-118.8834313,5726.4531884958,1.968504,0,0.40917980312,4700,2018-04-14 19:45:02,11,0,24.876,5726.4531884958,1.968504,0.4921268,0.43992127392,0,0,-0.223694,61.4, 0.2, 0.1,0,0,1024,1024,1024,1024,62.9,-89.9,100,4.07,4.11,4.071,4.107,0,0,7.664,59,11,AutoTakeoff,
36.7673289,-118.8834312,5726.7812724958,2.296588,0,0.38169948728,4800,2018-04-14 19:45:02,11,0,24.876,5726.7812724958,2.296588,0.4921268,0.43992127392,0,0,0,61.3, 0.2, 0,0,0,1024,1024,1024,1024,62.9,-89.9,100,4.07,4.11,4.071,4.107,0,0,7.664,59,11,AutoTakeoff,
36.7673289,-118.8834311,5727.1093564958,2.624672,0,0.35261812152,4900,2018-04-14 19:45:02,12,0,24.876,5727.1093564958,2.624672,0.4921268,0.43992127392,0,0,-0.223694,61.2, 0.3, -0.2,0,0,1024,1024,1024,1024,62.9,-89.9,100,4.07,4.11,4.071,4.107,0,0,7.664,59,11,AutoTakeoff,
36.7673287,-118.8834308,5727.4374404958,2.952756,0.223694,0.284907817516,5000,2018-04-14 19:45:02,12,0,23.765,5727.4374404958,2.952756,0.4921268,0.43992127392,0,0,-0.223694,61.2, 0.2, -0.7,0,0,1024,1024,1024,1024,62.8,-89.9,100,3.934,3.958,3.927,3.961,0,0,16.687,59,6,P-GPS,
36.7673287,-118.8834305,5727.4374404958,2.952756,0.223694,0.206718182468,5100,2018-04-14 19:45:02,12,0,23.765,5727.4374404958,2.952756,0.4921268,0.43992127392,0,0,-0.223694,61.3, 0.2, -1.1,0,0,1024,1024,1024,1024,62.8,-89.9,100,3.934,3.958,3.927,3.961,0,0,16.687,59,14,Waypoint,
36.7673286,-118.8834303,5727.7655244958,3.28084,0.223694,0.186991803884,5200,2018-04-14 19:45:02,12,0,23.765,5727.7655244958,3.28084,0.4921268,0.43992127392,0,0,0,61.3, 0.5, -1.8,0,0,1024,1024,1024,1024,62.8,-89.9,100,3.934,3.958,3.927,3.961,0,0,16.687,59,14,Waypoint,
36.7673286,-118.8834301,5728.0936084958,3.608924,0.223694,0.157210963036,5300,2018-04-14 19:45:02,12,0,23.765,5728.0936084958,3.608924,0.4921268,0.43992127392,0,0,0,61.4, 0.9, -2.3,0,0,1024,1024,1024,1024,62.8,-89.9,100,3.934,3.958,3.927,3.961,0,0,16.687,59,14,Waypoint,
36.7673285,-118.8834299,5728.0936084958,3.608924,0.223694,0.18242454652,5400,2018-04-14 19:45:02,12,0,23.765,5728.0936084958,3.608924,0.4921268,0.43992127392,0,0,0,61.5, 1.2, -2.5,0,0,1024,1024,1024,1024,62.7,-89.9,100,3.934,3.958,3.927,3.961,0,0,16.687,59,14,Waypoint,
36.7673283,-118.8834296,5728.0936084958,3.608924,0.223694,0.270026583444,5500,2018-04-14 19:45:02,12,0,23.765,5728.0936084958,3.608924,0.4921268,0.43992127392,0,0,0,61.6, 1.4, -2.4,0,0,1024,1024,1024,1024,62.7,-89.9,100,3.934,3.958,3.927,3.961,0,0,16.687,59,14,Waypoint,
36.7673281,-118.8834294,5728.4216924958,3.937008,0.223694,0.359416022,5600,2018-04-14 19:45:03,12,0,23.765,5728.4216924958,3.937008,0.4921268,0.43992127392,0,0,0,61.7, 1.6, -2.2,0,0,1024,1024,1024,1024,62.7,-89.9,100,3.934,3.958,3.927,3.961,0,0,16.687,59,14,Waypoint,
36.767328,-118.8834292,5728.4216924958,3.937008,0,0.41829725748,5700,2018-04-14 19:45:03,12,0,23.765,5728.4216924958,3.937008,0.4921268,0.43992127392,0,0,-0.223694,61.7, 1.6, -2.1,0,0,1024,1024,1024,1024,62.7,-89.9,100,3.934,3.958,3.927,3.961,0,0,16.687,59,14,Waypoint,
36.7673279,-118.8834291,5728.7497764958,4.265092,0,0.46447836132,5800,2018-04-14 19:45:03,12,0,23.765,5728.7497764958,4.265092,0.4921268,0.46447836132,0,0,-0.223694,61.6, 1.3, -2,0,0,1024,1024,1024,1024,62.6,-89.9,100,3.934,3.958,3.927,3.961,0,0,16.687,59,14,Waypoint,
36.767328,-118.8834289,5729.0778604958,4.593176,0,0.46748032992,5910,2018-04-14 19:45:03,12,0,23.765,5729.0778604958,4.593176,0.4921268,0.46748032992,0,0,-0.223694,61.4, 1, -2.1,0,0,1024,1024,1024,1024,62.6,-89.9,100,3.934,3.958,3.927,3.961,0,0,16.687,59,14,Waypoint,
36.767328,-118.8834288,5729.4059444958,4.92126,0,0.48628938564,6000,2018-04-14 19:45:03,11,0,23.544,5729.4059444958,4.92126,0.4921268,0.48628938564,0,0,-0.223694,61.2, 0.8, -2.1,0,0,1024,1024,1024,1024,62.6,-89.9,100,3.917,3.915,3.905,3.936,0,0,16.991,59,14,Waypoint,
36.7673281,-118.8834288,5730.0621124958,5.577428,0,0.4595472588,6200,2018-04-14 19:45:03,11,0,23.544,5730.0621124958,5.577428,0.4921268,0.48628938564,0,0,-0.223694,61.1, 0.9, -2.1,0,0,1024,1024,1024,1024,62.6,-89.9,100,3.917,3.915,3.905,3.936,0,0,16.991,59,14,Waypoint,
36.7673283,-118.8834288,5730.3901964958,5.905512,0,0.41059384516,6300,2018-04-14 19:45:03,11,0,23.544,5730.3901964958,5.905512,0.4921268,0.48628938564,0,0,-0.447388,61.1, 1.1, -1.8,0,0,1024,1024,1024,1024,62.6,-89.9,100,3.917,3.915,3.905,3.936,0,0,16.991,59,14,Waypoint,
36.7673287,-118.8834287,5731.0463644958,6.56168,0.223694,0.36740814824,6400,2018-04-14 19:45:03,11,0,23.544,5731.0463644958,6.56168,0.4921268,0.48628938564,0,0,-0.447388,61.1, 1.4, -1.2,0,0,1024,1024,1024,1024,62.6,-89.9,100,3.917,3.915,3.905,3.936,0,0,16.991,59,14,Waypoint,
36.767329,-118.8834288,5731.7025324958,7.217848,0.223694,0.321498041784,6500,2018-04-14 19:45:03,11,0,23.544,5731.7025324958,7.217848,0.4921268,0.48628938564,0,0,-0.447388,61.1, 1.7, -0.3,0,0,1024,1024,1024,1024,62.5,-89.9,100,3.917,3.915,3.905,3.936,0,0,16.991,59,14,Waypoint,
36.7673293,-118.8834288,5732.3587004958,7.874016,0.223694,0.33961943344,6600,2018-04-14 19:45:04,11,0,23.544,5732.3587004958,7.874016,0.4921268,0.48628938564,0,0,-0.447388,61.2, 2, 0.4,0,0,1024,1024,1024,1024,62.5,-89.9,100,3.917,3.915,3.905,3.936,0,0,16.991,59,14,Waypoint,
36.7673296,-118.8834289,5733.0148684958,8.530184,0.223694,0.36516405368,6700,2018-04-14 19:45:04,14,0,23.544,5733.0148684958,8.530184,0.4921268,0.48628938564,0,0,-0.447388,61.2, 2.1, 1,0,0,1024,1024,1024,1024,62.5,-89.9,100,3.917,3.915,3.905,3.936,0,0,16.991,59,14,Waypoint,
36.7673298,-118.883429,5733.9991204958,9.514436,0,0.39291996008,6800,2018-04-14 19:45:04,14,0,23.544,5733.9991204958,9.514436,0.4921268,0.48628938564,0,0,-0.671082,61.2, 1.8, 1.4,0,0,1024,1024,1024,1024,62.5,-89.9,100,3.917,3.915,3.905,3.936,0,0,16.991,59,14,Waypoint,
36.76733,-118.883429,5734.9833724958,10.498688,0,0.4497867598,6900,2018-04-14 19:45:04,14,0,23.544,5734.9833724958,10.498688,0.4921268,0.48628938564,0,0,-0.671082,61.2, 1.4, 1.6,0,0,1024,1024,1024,1024,62.5,-89.9,100,3.917,3.915,3.905,3.936,0,0,16.991,59,14,Waypoint,
36.7673303,-118.883429,5735.9676244958,11.48294,0,0.54236222208,7000,2018-04-14 19:45:04,14,0,23.435,5735.9676244958,11.48294,0.4921268,0.54236222208,0,0,-0.671082,61.2, 1.2, 1.4,0,0,1024,1024,1024,1024,62.5,-89.9,100,3.881,3.87,3.847,3.886,0,0,17.034,59,14,Waypoint,
36.7673304,-118.8834289,5738.2642124958,13.779528,0,0.58849739416,7100,2018-04-14 19:45:04,14,0,23.435,5738.2642124958,13.779528,0.4921268,0.58849739416,0,0,-0.671082,61.4, 1.4, 0.8,0,0,1024,1024,1024,1024,62.5,-89.9,100,3.881,3.87,3.847,3.886,0,0,17.034,59,14,Waypoint,
36.7673305,-118.8834289,5739.2484644958,14.76378,0,0.62042980988,7200,2018-04-14 19:45:04,14,0,23.435,5739.2484644958,14.76378,0.4921268,0.62042980988,0,0,-0.671082,61.4, 1.5, 0.2,0,0,1024,1024,1024,1024,62.4,-89.9,100,3.881,3.87,3.847,3.886,0,0,17.034,59,14,Waypoint,
36.7673307,-118.883429,5740.2327164958,15.748032,0,0.67371721316,7300,2018-04-14 19:45:04,14,0,23.435,5740.2327164958,15.748032,0.4921268,0.67371721316,0,0,-0.671082,61.4, 1.6, 0,0,0,1024,1024,1024,1024,62.4,-89.9,100,3.881,3.87,3.847,3.886,0,0,17.034,59,14,Waypoint,
36.7673309,-118.8834291,5741.5450524958,17.060368,0,0.73158466908,7400,2018-04-14 19:45:04,14,0,23.435,5741.5450524958,17.060368,0.4921268,0.73158466908,0,0,-0.671082,61.5, 1.6, 0.3,0,0,1024,1024,1024,1024,62.4,-89.9,100,3.881,3.87,3.847,3.886,0,0,17.034,59,14,Waypoint,
36.7673309,-118.883429,5742.5293044958,18.04462,0,0.74144359328,7500,2018-04-14 19:45:04,14,0,23.435,5742.5293044958,18.04462,0.4921268,0.74144359328,0,0,-0.671082,61.5, 1.6, 0.6,0,0,1024,1024,1024,1024,62.4,-89.9,100,3.881,3.87,3.847,3.886,0,0,17.034,59,14,Waypoint,
36.7673307,-118.8834289,5743.8416404958,19.356956,0,0.68565618992,7600,2018-04-14 19:45:05,12,0,23.435,5743.8416404958,19.356956,0.4921268,0.74144359328,0,0,-0.671082,61.5, 1.5, 0.6,0,0,1024,1024,1024,1024,62.4,-89.9,100,3.881,3.87,3.847,3.886,0,0,17.034,59,14,Waypoint,
36.7673305,-118.8834289,5744.8258924958,20.341208,0.223694,0.62042980988,7700,2018-04-14 19:45:05,12,0,23.435,5744.8258924958,20.341208,0.4921268,0.74144359328,0,0,-0.671082,61.5, 1.4, 0.3,0,0,1024,1024,1024,1024,62.4,-89.9,100,3.881,3.87,3.847,3.886,0,0,17.034,59,14,Waypoint,
36.7673303,-118.8834288,5745.8101444958,21.32546,0.223694,0.57299542516,7800,2018-04-14 19:45:05,12,0,23.435,5745.8101444958,21.32546,0.4921268,0.74144359328,0,0,-0.671082,61.6, 1.1, -0.4,0,0,1024,1024,1024,1024,62.4,-89.9,100,3.881,3.87,3.847,3.886,0,0,17.034,59,14,Waypoint,
36.7673301,-118.8834286,5746.7943964958,22.309712,0.223694,0.55266077884,7900,2018-04-14 19:45:05,12,0,23.435,5746.7943964958,22.309712,0.4921268,0.74144359328,0,0,-0.671082,61.6, 0.8, -1.1,0,0,1024,1024,1024,1024,62.4,-89.9,100,3.881,3.87,3.847,3.886,0,0,17.034,59,14,Waypoint,
36.7673299,-118.8834284,5748.1067324958,23.622048,0.223694,0.54774279968,8000,2018-04-14 19:45:05,12,0,22.716,5748.1067324958,23.622048,0.4921268,0.74144359328,0,0,-0.671082,61.6, 0.9, -1.7,0,0,1024,1024,1024,1024,62.4,-89.9,100,3.754,3.751,3.729,3.792,0,0,24.79,59,14,Waypoint,
36.7673297,-118.8834283,5749.0909844958,24.6063,0.223694,0.53282810104,8100,2018-04-14 19:45:05,12,0,22.716,5749.0909844958,24.6063,0.4921268,0.74144359328,0,0,-0.671082,61.5, 1.3, -2.1,0,0,1024,1024,1024,1024,62.4,-89.9,100,3.754,3.751,3.729,3.792,0,0,24.79,59,14,Waypoint,
36.7673295,-118.8834281,5750.0752364958,25.590552,0.223694,0.55681760312,8200,2018-04-14 19:45:05,12,0,22.716,5750.0752364958,25.590552,0.4921268,0.74144359328,0,0,-0.671082,61.4, 1.4, -2.3,0,0,1024,1024,1024,1024,62.4,-89.9,100,3.754,3.751,3.729,3.792,0,0,24.79,59,14,Waypoint,
36.7673292,-118.883428,5751.3875724958,26.902888,0.223694,0.5600886006,8300,2018-04-14 19:45:05,12,0,22.716,5751.3875724958,26.902888,0.4921268,0.74144359328,0,0,-0.671082,61.3, 1.5, -2.4,0,0,1024,1024,1024,1024,62.4,-89.9,100,3.754,3.751,3.729,3.792,0,0,24.79,59,14,Waypoint,
36.767329,-118.8834279,5752.3718244958,27.88714,0.223694,0.58454070112,8500,2018-04-14 19:45:05,14,0,22.716,5752.3718244958,27.88714,0.4921268,0.74144359328,0,0,-0.671082,61.3, 1.4, -2.5,0,0,1024,1024,1024,1024,62.4,-89.9,100,3.754,3.751,3.729,3.792,0,0,24.79,59,14,Waypoint,
36.7673288,-118.8834278,5753.3560764958,28.871392,0.223694,0.61809057096,8600,2018-04-14 19:45:06,14,0,22.716,5753.3560764958,28.871392,0.4921268,0.74144359328,0,0,-0.671082,61.4, 1.3, -2.4,0,0,1024,1024,1024,1024,62.4,-89.9,100,3.754,3.751,3.729,3.792,0,0,24.79,59,14,Waypoint,
36.7673286,-118.8834277,5754.3403284958,29.855644,0.223694,0.6593504148,8700,2018-04-14 19:45:06,16,0,22.716,5754.3403284958,29.855644,0.4921268,0.74144359328,0,0,-0.671082,61.5, 1.1, -2.4,0,0,1024,1024,1024,1024,62.4,-89.9,100,3.754,3.751,3.729,3.792,0,0,24.79,59,14,Waypoint,
36.7673283,-118.8834275,5755.6526644958,31.16798,0.223694,0.74649936772,8800,2018-04-14 19:45:06,16,0,22.716,5755.6526644958,31.16798,0.4921268,0.74649936772,0,0,-0.671082,61.5, 0.9, -2.8,0,0,1024,1024,1024,1024,62.4,-89.9,100,3.754,3.751,3.729,3.792,0,0,24.79,59,14,Waypoint,
36.7673281,-118.8834274,5756.6369164958,32.152232,0.223694,0.80106957944,8900,2018-04-14 19:45:06,15,0,22.716,5756.6369164958,32.152232,0.4921268,0.80106957944,0,0,-0.671082,61.4, 0.8, -3.5,0,0,1024,1024,1024,1024,62.4,-89.9,100,3.754,3.751,3.729,3.792,0,0,24.79,59,14,Waypoint,
36.7673279,-118.8834272,5757.6211684958,33.136484,0,0.88532483148,9000,2018-04-14 19:45:06,15,0,22.882,5757.6211684958,33.136484,0.4921268,0.88532483148,0,0,-0.671082,61.3, 0.7, -3.8,0,0,1024,1024,1024,1024,62.4,-89.9,100,3.815,3.824,3.794,3.843,0,0,21.545,59,14,Waypoint,
36.7673277,-118.8834271,5758.6054204958,34.120736,0,0.94587273368,9100,2018-04-14 19:45:06,13,0,22.882,5758.6054204958,34.120736,0.4921268,0.94587273368,0,0,-0.671082,61.2, 0.8, -3.6,0,0,1024,1024,1024,1024,62.4,-89.9,100,3.815,3.824,3.794,3.843,0,0,21.545,59,14,Waypoint,
36.7673275,-118.8834271,5759.5896724958,35.104988,0,0.98448822048,9200,2018-04-14 19:45:06,13,0,22.882,5759.5896724958,35.104988,0.4921268,0.98448822048,0,0,-0.671082,61.1, 1, -3.1,0,0,1024,1024,1024,1024,62.4,-89.9,100,3.815,3.824,3.794,3.843,0,0,21.545,59,14,Waypoint,
36.7673274,-118.883427,5760.5739244958,36.08924,0,1.02916341876,9300,2018-04-14 19:45:06,12,0,22.882,5760.5739244958,36.08924,0.4921268,1.02916341876,0,0,-0.671082,61.1, 1.1, -2.7,0,0,1024,1024,1024,1024,62.4,-89.9,100,3.815,3.824,3.794,3.843,0,0,21.545,59,14,Waypoint,
36.7673274,-118.8834269,5761.5581764958,37.073492,0,1.0533628946,9400,2018-04-14 19:45:06,12,0,22.882,5761.5581764958,37.073492,0.4921268,1.0533628946,0,0,-0.671082,61, 1.3, -2.4,0,0,1024,1024,1024,1024,62.4,-89.9,100,3.815,3.824,3.794,3.843,0,0,21.545,59,14,Waypoint,
36.7673273,-118.8834268,5762.5424284958,38.057744,0.223694,1.09800200364,9500,2018-04-14 19:45:06,13,0,22.882,5762.5424284958,38.057744,0.4921268,1.09800200364,0,0,-0.671082,61, 1.4, -2.1,0,0,1024,1024,1024,1024,62.4,-89.9,100,3.815,3.824,3.794,3.843,0,0,21.545,59,14,Waypoint,
36.7673272,-118.8834267,5763.5266804958,39.041996,0.223694,1.14281171636,9600,2018-04-14 19:45:07,13,0,22.882,5763.5266804958,39.041996,0.4921268,1.14281171636,0,0,-0.671082,61.1, 1.4, -2,0,0,1024,1024,1024,1024,62.4,-89.9,100,3.815,3.824,3.794,3.843,0,0,21.545,59,14,Waypoint,
36.7673271,-118.8834266,5764.5109324958,40.026248,0.223694,1.18776906688,9700,2018-04-14 19:45:07,13,0,22.882,5764.5109324958,40.026248,0.4921268,1.18776906688,0,0,-0.671082,61.2, 1.4, -2,0,0,1024,1024,1024,1024,62.4,-89.9,100,3.815,3.824,3.794,3.843,0,0,21.545,59,14,Waypoint,
36.7673272,-118.8834266,5766.8075204958,42.322836,0.223694,1.16685043104,9800,2018-04-14 19:45:07,13,0,22.882,5766.8075204958,42.322836,0.4921268,1.18776906688,0,0,-0.671082,61.4, 1.3, -1.9,0,0,1024,1024,1024,1024,62.4,-89.9,100,3.815,3.824,3.794,3.843,0,0,21.545,59,14,Waypoint,
36.7673271,-118.8834265,5767.7917724958,43.307088,0.223694,1.21162077368,9900,2018-04-14 19:45:07,13,0,22.882,5767.7917724958,43.307088,0.4921268,1.21162077368,0,0,-0.671082,61.4, 1.5, -1.5,0,0,1024,1024,1024,1024,62.4,-89.9,100,3.815,3.824,3.794,3.843,0,0,21.545,59,14,Waypoint,
36.7673271,-118.8834265,5768.7760244958,44.29134,0.223694,1.21162077368,10000,2018-04-14 19:45:07,13,0,22.953,5768.7760244958,44.29134,0.4921268,1.21162077368,0,0,-0.671082,61.4, 1.6, -1.5,0,0,1024,1024,1024,1024,62.4,-89.9,98,3.83,3.838,3.81,3.845,0,0,19.976,59,14,Waypoint,
36.7673271,-118.8834265,5770.7445284958,46.259844,0.223694,1.21162077368,10210,2018-04-14 19:45:07,14,0,22.953,5770.7445284958,46.259844,0.4921268,1.21162077368,0,0,-0.671082,61.4, 1.4, -2.1,0,0,1024,1024,1024,1024,62.4,-89.9,98,3.83,3.838,3.81,3.845,0,0,19.976,59,14,Waypoint,
36.7673273,-118.8834267,5773.0411164958,48.556432,0.223694,1.12224084956,10400,2018-04-14 19:45:07,15,0,22.953,5773.0411164958,48.556432,0.4921268,1.21162077368,0,0,-0.671082,61.6, 1.2, -1.2,0,0,1024,1024,1024,1024,62.4,-89.9,98,3.83,3.838,3.81,3.845,0,0,19.976,59,14,Waypoint,
36.7673271,-118.8834268,5775.0096204958,50.524936,0.223694,1.1408136848,10610,2018-04-14 19:45:08,15,0,22.953,5775.0096204958,50.524936,0.4921268,1.21162077368,0,0,-0.671082,61.6, 1.3, -1.6,0,0,1024,1024,1024,1024,62.4,-89.9,98,3.83,3.838,3.81,3.845,0,0,19.976,59,14,Waypoint,
36.767327,-118.8834269,5775.9938724958,51.509188,0.223694,1.14072838296,10710,2018-04-14 19:45:08,15,0,22.953,5775.9938724958,51.509188,0.4921268,1.21162077368,0,0,-0.671082,61.5, 1.3, -1.9,0,0,1024,1024,1024,1024,62.4,-89.9,98,3.83,3.838,3.81,3.845,0,0,19.976,59,14,Waypoint,
36.7673269,-118.8834269,5776.9781244958,52.49344,0.223694,1.16440620524,10820,2018-04-14 19:45:08,15,0,22.953,5776.9781244958,52.49344,0.4921268,1.21162077368,0,0,-0.671082,61.5, 1.2, -2.6,0,0,1024,1024,1024,1024,62.4,-89.9,98,3.83,3.838,3.81,3.845,0,0,19.976,59,14,Waypoint,
36.7673269,-118.8834269,5776.9781244958,52.49344,0.223694,1.16440620524,10900,2018-04-14 19:45:08,15,0,22.953,5776.9781244958,52.49344,0.4921268,1.21162077368,0,0,-0.671082,61.5, 1.2, -2.6,0,0,1024,1024,1024,1024,62.4,-89.9,98,3.83,3.838,3.81,3.845,0,0,19.976,59,14,Waypoint,
36.7673268,-118.883427,5777.9623764958,53.477692,0.223694,1.1673392762,11010,2018-04-14 19:45:08,15,0,22.93,5777.9623764958,53.477692,0.4921268,1.21162077368,0,0,-0.671082,61.5, 0.8, -3.1,0,0,1024,1024,1024,1024,62.4,-89.9,98,3.83,3.838,3.81,3.845,0,0,19.763,59,14,Waypoint,
36.7673267,-118.8834271,5778.9466284958,54.461944,0.223694,1.1721293026,11110,2018-04-14 19:45:08,15,0,22.93,5778.9466284958,54.461944,0.4921268,1.21162077368,0,0,-0.671082,61.5, 0.2, -3.3,0,0,1024,1024,1024,1024,62.4,-90,98,3.83,3.838,3.81,3.845,0,0,19.763,59,14,Waypoint,
36.7673266,-118.8834273,5779.9308804958,55.446196,0.223694,1.15939636256,11200,2018-04-14 19:45:08,15,0,22.93,5779.9308804958,55.446196,0.4921268,1.21162077368,0,0,-0.671082,61.4, -0.2, -3.2,0,0,1024,1024,1024,1024,62.4,-89.9,98,3.83,3.838,3.81,3.845,0,0,19.763,59,14,Waypoint,
36.7673265,-118.8834274,5780.9151324958,56.430448,0.223694,1.1687008248,11300,2018-04-14 19:45:08,14,0,22.93,5780.9151324958,56.430448,0.4921268,1.21162077368,0,0,-0.671082,61.4, -0.5, -3.2,0,0,1024,1024,1024,1024,62.4,-90,98,3.83,3.838,3.81,3.845,0,0,19.763,59,14,Waypoint,
36.7673265,-118.8834275,5781.8993844958,57.4147,0.223694,1.15065292396,11400,2018-04-14 19:45:08,14,0,22.93,5781.8993844958,57.4147,0.4921268,1.21162077368,0,0,-0.671082,61.3, -0.6, -3.4,0,0,1024,1024,1024,1024,62.4,-89.9,98,3.83,3.838,3.81,3.845,0,0,19.763,59,14,Waypoint,
36.7673265,-118.8834276,5782.8836364958,58.398952,0.223694,1.1330709024,11500,2018-04-14 19:45:08,15,0,22.93,5782.8836364958,58.398952,0.4921268,1.21162077368,0,0,-0.671082,61.4, 0, -3.2,0,0,1024,1024,1024,1024,62.4,-89.9,98,3.83,3.838,3.81,3.845,0,0,19.763,59,14,Waypoint,
36.7673266,-118.8834277,5783.8678884958,59.383204,0.223694,1.08636486416,11600,2018-04-14 19:45:09,15,0,22.93,5783.8678884958,59.383204,0.4921268,1.21162077368,0,0,-0.671082,61.4, 0.2, -3,0,0,1024,1024,1024,1024,62.4,-89.9,98,3.83,3.838,3.81,3.845,0,0,19.763,59,14,Waypoint,
36.7673267,-118.8834278,5784.8521404958,60.367456,0.223694,1.03965882592,11800,2018-04-14 19:45:09,15,0,22.93,5784.8521404958,60.367456,0.4921268,1.21162077368,0,0,-0.671082,61.4, 0.4, -2.7,0,0,1024,1024,1024,1024,62.4,-89.9,98,3.83,3.838,3.81,3.845,0,0,19.763,59,14,Waypoint,
36.7673267,-118.8834279,5785.8363924958,61.351708,0.223694,1.02267719808,11900,2018-04-14 19:45:09,15,0,22.93,5785.8363924958,61.351708,0.4921268,1.21162077368,0,0,-0.671082,61.4, 0.4, -2.8,0,0,1024,1024,1024,1024,62.4,-89.9,98,3.83,3.838,3.81,3.845,0,0,19.763,59,14,Waypoint,
36.7673267,-118.8834282,5787.4768124958,62.992128,0.223694,0.97521656664,12000,2018-04-14 19:45:09,16,0,22.93,5787.4768124958,62.992128,0.4921268,1.21162077368,0,0,-0.671082,61.5, 0.2, -2.4,0,0,1024,1024,1024,1024,62.4,-89.9,98,3.814,3.827,3.805,3.842,0,0,19.763,59,14,Waypoint,
36.7673268,-118.8834284,5788.4610644958,63.97638,0.223694,0.91458992428,12110,2018-04-14 19:45:09,15,0,22.93,5788.4610644958,63.97638,0.4921268,1.21162077368,0,0,-0.671082,61.6, 0, -2.2,0,0,1024,1024,1024,1024,62.4,-89.9,98,3.814,3.827,3.805,3.842,0,0,19.763,59,14,Waypoint,
36.7673269,-118.8834285,5789.4453164958,64.960632,0.223694,0.86859910916,12200,2018-04-14 19:45:09,15,0,22.93,5789.4453164958,64.960632,0.4921268,1.21162077368,0,0,-0.671082,61.7, 0, -2,0,0,1024,1024,1024,1024,62.4,-90,98,3.814,3.827,3.805,3.842,0,0,19.763,59,14,Waypoint,
36.767327,-118.8834286,5790.4295684958,65.944884,0.3131716,0.82269359588,12300,2018-04-14 19:45:09,16,0,22.93,5790.4295684958,65.944884,0.4921268,1.21162077368,0,0,-0.671082,61.7, 0, -1.7,0,0,1024,1024,1024,1024,62.4,-89.9,98,3.814,3.827,3.805,3.842,0,0,19.763,59,14,Waypoint,
36.7673271,-118.8834287,5791.4138204958,66.929136,0.223694,0.7768865078,12400,2018-04-14 19:45:09,16,0,22.93,5791.4138204958,66.929136,0.4921268,1.21162077368,0,0,-0.671082,61.6, 0, -1.4,0,0,1024,1024,1024,1024,62.4,-90,98,3.814,3.827,3.805,3.842,0,0,19.763,59,14,Waypoint,
36.7673273,-118.883429,5793.3823244958,68.89764,0.3131716,0.67371721316,12500,2018-04-14 19:45:09,16,0,22.93,5793.3823244958,68.89764,0.4921268,1.21162077368,0,0,-0.671082,61.2, 0.2, -1.8,0,0,1024,1024,1024,1024,62.4,-89.9,98,3.814,3.827,3.805,3.842,0,0,19.763,59,14,Waypoint,
36.7673275,-118.8834291,5794.0384924958,69.553808,0.3131716,0.5951279718,12600,2018-04-14 19:45:10,15,0,22.93,5794.0384924958,69.553808,0.4921268,1.21162077368,0,0,-0.671082,61, 0.4, -1.8,0,0,1024,1024,1024,1024,62.4,-89.9,98,3.814,3.827,3.805,3.842,0,0,19.763,59,14,Waypoint,
36.7673276,-118.8834292,5795.3508284958,70.866144,0.3131716,0.55023951892,12700,2018-04-14 19:45:10,15,0,22.93,5795.3508284958,70.866144,0.4921268,1.21162077368,0,0,-0.671082,60.9, 0.4, -1.4,0,0,1024,1024,1024,1024,62.4,-89.9,98,3.814,3.827,3.805,3.842,0,0,19.763,59,14,Waypoint,
36.7673277,-118.8834293,5796.3350804958,71.850396,0.223694,0.50568571172,12800,2018-04-14 19:45:10,16,0,22.93,5796.3350804958,71.850396,0.4921268,1.21162077368,0,0,-0.671082,60.8, 0.3, -1.2,0,0,1024,1024,1024,1024,62.4,-89.9,98,3.814,3.827,3.805,3.842,0,0,19.763,59,14,Waypoint,
36.7673277,-118.8834294,5797.3193324958,72.834648,0.223694,0.49630579016,12900,2018-04-14 19:45:10,16,0,22.93,5797.3193324958,72.834648,0.4921268,1.21162077368,0,0,-0.671082,60.7, 0, -1.3,0,0,1024,1024,1024,1024,62.4,-90,98,3.814,3.827,3.805,3.842,0,0,19.763,59,14,Waypoint,
36.7673277,-118.8834295,5798.3035844958,73.8189,0.223694,0.4885006718,13000,2018-04-14 19:45:10,15,0,22.965,5798.3035844958,73.8189,0.4921268,1.21162077368,0,0,-0.671082,60.7, 0, -1.4,0,0,1024,1024,1024,1024,62.4,-89.9,98,3.813,3.827,3.799,3.847,0,0,18.893,59,14,Waypoint,
36.7673278,-118.8834295,5799.2878364958,74.803152,0.223694,0.45315946332,13100,2018-04-14 19:45:10,15,0,22.965,5799.2878364958,74.803152,0.4921268,1.21162077368,0,0,-0.671082,60.7, -0.1, -1.8,0,0,1024,1024,1024,1024,62.4,-89.9,98,3.813,3.827,3.799,3.847,0,0,18.893,59,14,Waypoint,
36.7673278,-118.8834296,5800.2720884958,75.787404,0.223694,0.44651248148,13210,2018-04-14 19:45:10,15,0,22.965,5800.2720884958,75.787404,0.4921268,1.21162077368,0,0,-0.671082,60.9, -0.2, -2,0,0,1024,1024,1024,1024,62.4,-89.9,98,3.813,3.827,3.799,3.847,0,0,18.893,59,14,Waypoint,
36.7673278,-118.8834297,5801.2563404958,76.771656,0.223694,0.44170277004,13300,2018-04-14 19:45:10,15,0,22.965,5801.2563404958,76.771656,0.4921268,1.21162077368,0,0,-0.671082,61.1, -0.4, -2.3,0,0,1024,1024,1024,1024,62.4,-90,98,3.813,3.827,3.799,3.847,0,0,18.893,59,14,Waypoint,
36.7673278,-118.8834299,5802.2405924958,77.755908,0.223694,0.43781825548,13400,2018-04-14 19:45:10,15,0,22.965,5802.2405924958,77.755908,0.4921268,1.21162077368,0,0,-0.671082,61.4, -1.1, -2,0,0,1024,1024,1024,1024,62.4,-90,98,3.813,3.827,3.799,3.847,0,0,18.893,59,14,Waypoint,
36.7673279,-118.88343,5803.2248444958,78.74016,0.223694,0.40239830684,13500,2018-04-14 19:45:10,15,0,22.965,5803.2248444958,78.74016,0.4921268,1.21162077368,0,0,-0.671082,61.7, -1.2, -1.5,0,0,1024,1024,1024,1024,62.4,-90,98,3.813,3.827,3.799,3.847,0,0,18.893,59,14,Waypoint,
36.7673279,-118.8834302,5804.2090964958,79.724412,0.223694,0.41080053808,13700,2018-04-14 19:45:11,15,0,22.965,5804.2090964958,79.724412,0.4921268,1.21162077368,0,0,-0.671082,61.9, -1.1, -0.7,0,0,1024,1024,1024,1024,62.4,-89.9,98,3.813,3.827,3.799,3.847,0,0,18.893,59,14,Waypoint,
36.7673279,-118.8834302,5805.1933484958,80.708664,0,0.41080053808,13800,2018-04-14 19:45:11,15,0,22.965,5805.1933484958,80.708664,0.4921268,1.21162077368,0,0,-0.671082,62, -1, -0.5,0,0,1024,1024,1024,1024,62.4,-89.9,98,3.813,3.827,3.799,3.847,0,0,18.893,59,14,Waypoint,
36.767328,-118.8834303,5806.1776004958,81.692916,0,0.38312337184,13900,2018-04-14 19:45:11,16,0,22.965,5806.1776004958,81.692916,0.4921268,1.21162077368,0,0,-0.671082,62.1, -0.7, -0.6,0,0,1024,1024,1024,1024,62.4,-89.9,98,3.813,3.827,3.799,3.847,0,0,18.893,59,14,Waypoint,
36.767328,-118.8834304,5807.1618524958,82.677168,0,0.3930282278,14000,2018-04-14 19:45:11,16,0,22.812,5807.1618524958,82.677168,0.4921268,1.21162077368,0,0,-0.671082,62.1, -0.6, -0.6,0,0,1024,1024,1024,1024,62.4,-89.9,98,3.8,3.79,3.783,3.847,0,0,20.008,59,14,Waypoint,
36.767328,-118.8834304,5807.8180204958,83.333336,0,0.3930282278,14100,2018-04-14 19:45:11,16,0,22.812,5807.8180204958,83.333336,0.4921268,1.21162077368,0,0,-0.671082,62.1, -0.5, -0.7,0,0,1024,1024,1024,1024,62.4,-89.9,98,3.8,3.79,3.783,3.847,0,0,20.008,59,14,Waypoint,
36.7673281,-118.8834304,5809.1303564958,84.645672,0,0.359416022,14200,2018-04-14 19:45:11,16,0,22.812,5809.1303564958,84.645672,0.4921268,1.21162077368,0,0,-0.671082,62, -0.3, -0.5,0,0,1024,1024,1024,1024,62.4,-89.9,98,3.8,3.79,3.783,3.847,0,0,20.008,59,14,Waypoint,
36.7673281,-118.8834304,5810.1146084958,85.629924,0,0.359416022,14300,2018-04-14 19:45:11,16,0,22.812,5810.1146084958,85.629924,0.4921268,1.21162077368,0,0,-0.671082,61.9, -0.2, -0.4,0,0,1024,1024,1024,1024,62.4,-89.9,98,3.8,3.79,3.783,3.847,0,0,20.008,59,14,Waypoint,
36.7673281,-118.8834304,5811.0988604958,86.614176,0,0.359416022,14400,2018-04-14 19:45:11,16,0,22.812,5811.0988604958,86.614176,0.4921268,1.21162077368,0,0,-0.671082,61.8, -0.5, -0.9,0,0,1024,1024,1024,1024,62.4,-90,98,3.8,3.79,3.783,3.847,0,0,20.008,59,14,Waypoint,
36.767328,-118.8834304,5812.0831124958,87.598428,0,0.3930282278,14500,2018-04-14 19:45:11,16,0,22.812,5812.0831124958,87.598428,0.4921268,1.21162077368,0,0,-0.671082,61.8, -1.1, -1.8,0,0,1024,1024,1024,1024,62.4,-89.9,98,3.8,3.79,3.783,3.847,0,0,20.008,59,14,Waypoint,
36.7673279,-118.8834303,5813.0673644958,88.58268,0,0.41801510524,14600,2018-04-14 19:45:12,16,0,22.812,5813.0673644958,88.58268,0.4921268,1.21162077368,0,0,-0.671082,61.7, -0.9, -2.5,0,0,1024,1024,1024,1024,62.4,-89.9,98,3.8,3.79,3.783,3.847,0,0,20.008,59,14,Waypoint,
36.7673277,-118.88343,5815.0358684958,90.551184,0,0.47520342728,14700,2018-04-14 19:45:12,16,0,22.812,5815.0358684958,90.551184,0.4921268,1.21162077368,0,0,-0.671082,61.2, 0.5, -2.9,0,0,1024,1024,1024,1024,62.4,-89.9,98,3.8,3.79,3.783,3.847,0,0,20.008,59,14,Waypoint,
36.7673276,-118.8834299,5816.0201204958,91.535436,0,0.51079069876,14800,2018-04-14 19:45:12,15,0,22.812,5816.0201204958,91.535436,0.4921268,1.21162077368,0,0,-0.671082,61, 0.7, -3.2,0,0,1024,1024,1024,1024,62.4,-89.9,98,3.8,3.79,3.783,3.847,0,0,20.008,59,14,Waypoint,
36.7673275,-118.8834298,5817.3324564958,92.847772,0,0.54805447948,14900,2018-04-14 19:45:12,15,0,22.812,5817.3324564958,92.847772,0.4921268,1.21162077368,0,0,-0.671082,60.9, 0.9, -3.4,0,0,1024,1024,1024,1024,62.4,-89.9,98,3.8,3.79,3.783,3.847,0,0,20.008,59,14,Waypoint,
36.7673274,-118.8834297,5818.3167084958,93.832024,0,0.5866798088,15000,2018-04-14 19:45:12,17,0,22.785,5818.3167084958,93.832024,0.4921268,1.21162077368,0,0,-0.671082,61, 0.9, -3.7,0,0,1024,1024,1024,1024,62.4,-89.9,98,3.799,3.795,3.793,3.817,0,0,20.008,60.8,14,Waypoint,
36.7673272,-118.8834295,5819.3009604958,94.816276,0.223694,0.66705382712,15100,2018-04-14 19:45:12,17,0,22.785,5819.3009604958,94.816276,0.4921268,1.21162077368,0,0,-0.671082,61.1, 0.6, -4.1,0,0,1024,1024,1024,1024,62.4,-89.9,98,3.799,3.795,3.793,3.817,0,0,20.008,60.8,14,Waypoint,
36.767327,-118.8834294,5820.2852124958,95.800528,0.223694,0.74418965636,15200,2018-04-14 19:45:12,17,0,22.785,5820.2852124958,95.800528,0.4921268,1.21162077368,0,0,-0.671082,61.3, 0.7, -5.1,0,0,1024,1024,1024,1024,62.4,-89.9,98,3.799,3.795,3.793,3.817,0,0,20.008,60.8,14,Waypoint,
36.7673268,-118.8834293,5821.2694644958,96.78478,0.223694,0.82160107616,15300,2018-04-14 19:45:12,17,0,22.785,5821.2694644958,96.78478,0.4921268,1.21162077368,0,0,-0.671082,61.6, 0.4, -5.7,0,0,1024,1024,1024,1024,62.4,-90,98,3.799,3.795,3.793,3.817,0,0,20.008,60.8,14,Waypoint,
36.7673266,-118.8834293,5822.2537164958,97.769032,0.223694,0.89302496296,15400,2018-04-14 19:45:12,17,0,22.785,5822.2537164958,97.769032,0.4921268,1.21162077368,0,0,-0.671082,61.9, -0.2, -5.9,0,0,1024,1024,1024,1024,62.3,-90,98,3.799,3.795,3.793,3.817,0,0,20.008,60.8,14,Waypoint,
36.7673264,-118.8834292,5823.2379684958,98.753284,0.223694,0.97041997856,15500,2018-04-14 19:45:12,17,0,22.785,5823.2379684958,98.753284,0.4921268,1.21162077368,0,0,-0.671082,62.1, -0.9, -5.7,0,0,1024,1024,1024,1024,62.3,-90,98,3.799,3.795,3.793,3.817,0,0,20.008,60.8,14,Waypoint,
36.7673262,-118.8834292,5824.2222204958,99.737536,0.223694,1.0418635504,15600,2018-04-14 19:45:13,17,0,22.785,5824.2222204958,99.737536,0.4921268,1.21162077368,0,0,-0.671082,62.1, -1.5, -5.9,0,0,1024,1024,1024,1024,62.3,-90,98,3.799,3.795,3.793,3.817,0,0,20.008,60.8,14,Waypoint,
36.7673261,-118.8834292,5825.2064724958,100.721788,0,1.07766079564,15700,2018-04-14 19:45:13,17,0,22.785,5825.2064724958,100.721788,0.4921268,1.21162077368,0,0,-0.671082,62, -1.5, -6.2,0,0,1024,1024,1024,1024,62.3,-89.9,98,3.799,3.795,3.793,3.817,0,0,20.008,60.8,14,Waypoint,
36.767326,-118.8834291,5825.8626404958,101.377956,0,1.1192421618,15900,2018-04-14 19:45:13,17,0,22.785,5825.8626404958,101.377956,0.4921268,1.21162077368,0,0,-0.671082,61.8, -1.1, -5.8,0,0,1024,1024,1024,1024,62.3,-89.9,98,3.799,3.795,3.793,3.817,0,0,20.008,60.8,14,Waypoint,
36.7673259,-118.883429,5826.8468924958,102.362208,0,1.16121722876,16000,2018-04-14 19:45:13,17,0,22.814,5826.8468924958,102.362208,0.4921268,1.21162077368,0,0,-0.671082,61.5, -0.9, -5.4,0,0,1024,1024,1024,1024,62.3,-89.9,98,3.799,3.795,3.793,3.817,0,0,19.277,60.8,14,Waypoint,
36.7673258,-118.8834289,5827.5030604958,103.018376,0,1.20354662644,16100,2018-04-14 19:45:13,16,0,22.814,5827.5030604958,103.018376,0.4921268,1.21162077368,0,0,-0.671082,61.2, -0.6, -4.6,0,0,1024,1024,1024,1024,62.3,-89.9,98,3.799,3.795,3.793,3.817,0,0,19.277,60.8,14,Waypoint,
36.7673258,-118.8834289,5828.4873124958,104.002628,0,1.20354662644,16200,2018-04-14 19:45:13,16,0,22.814,5828.4873124958,104.002628,0.4921268,1.21162077368,0,0,-0.671082,61, -0.3, -4.2,0,0,1024,1024,1024,1024,62.3,-89.9,98,3.799,3.795,3.793,3.817,0,0,19.277,60.8,14,Waypoint,
36.7673258,-118.8834288,5829.4715644958,104.98688,0,1.2109744482,16300,2018-04-14 19:45:13,17,0,22.814,5829.4715644958,104.98688,0.4921268,1.21162077368,0,0,-0.671082,61, -0.2, -4.2,0,0,1024,1024,1024,1024,62.3,-89.9,98,3.799,3.795,3.793,3.817,0,0,19.277,60.8,14,Waypoint,
36.7673257,-118.8834288,5830.1277324958,105.643048,0,1.24618770392,16400,2018-04-14 19:45:13,17,0,22.814,5830.1277324958,105.643048,0.4921268,1.24618770392,0,0,-0.671082,61.1, -0.3, -4.3,0,0,1024,1024,1024,1024,62.3,-89.9,98,3.799,3.795,3.793,3.817,0,0,19.277,60.8,14,Waypoint,
36.7673257,-118.8834288,5831.1119844958,106.6273,0,1.24618770392,16500,2018-04-14 19:45:13,17,0,22.814,5831.1119844958,106.6273,0.4921268,1.24618770392,0,0,-0.671082,61.3, -0.6, -4.2,0,0,1024,1024,1024,1024,62.3,-89.9,98,3.799,3.795,3.793,3.817,0,0,19.277,60.8,14,Waypoint,
36.7673258,-118.8834288,5832.0962364958,107.611552,0,1.2109744482,16600,2018-04-14 19:45:14,17,0,22.814,5832.0962364958,107.611552,0.4921268,1.24618770392,0,0,-0.671082,61.4, -0.7, -4.1,0,0,1024,1024,1024,1024,62.3,-89.9,98,3.799,3.795,3.793,3.817,0,0,19.277,60.8,14,Waypoint,
36.7673258,-118.8834287,5833.0804884958,108.595804,0,1.21905843796,16700,2018-04-14 19:45:14,17,0,22.814,5833.0804884958,108.595804,0.4921268,1.24618770392,0,0,-0.671082,61.4, -0.6, -4.2,0,0,1024,1024,1024,1024,62.3,-89.9,98,3.799,3.795,3.793,3.817,0,0,19.277,60.8,14,Waypoint,
36.7673259,-118.8834288,5834.7209084958,110.236224,0,1.17583993264,16800,2018-04-14 19:45:14,17,0,22.814,5834.7209084958,110.236224,0.4921268,1.24618770392,0,0,-0.671082,61.1, -0.8, -3.8,0,0,1024,1024,1024,1024,62.3,-89.9,98,3.799,3.795,3.793,3.817,0,0,19.277,60.8,14,Waypoint,
36.767326,-118.8834288,5835.7051604958,111.220476,0,1.14078743808,16900,2018-04-14 19:45:14,17,0,22.814,5835.7051604958,111.220476,0.4921268,1.24618770392,0,0,-0.671082,61.2, -0.9, -3.6,0,0,1024,1024,1024,1024,62.3,-89.9,98,3.799,3.795,3.793,3.817,0,0,19.277,60.8,14,Waypoint,
36.7673261,-118.8834288,5836.6894124958,112.204728,0.223694,1.10583008788,17000,2018-04-14 19:45:14,17,0,22.6,5836.6894124958,112.204728,0.4921268,1.24618770392,0,0,-0.671082,61.3, -0.9, -3.5,0,0,1024,1024,1024,1024,62.3,-89.9,98,3.755,3.736,3.729,3.767,0,0,20.765,60.8,14,Waypoint,
36.7673261,-118.8834288,5837.6736644958,113.18898,0.223694,1.10583008788,17100,2018-04-14 19:45:14,17,0,22.6,5837.6736644958,113.18898,0.4921268,1.24618770392,0,0,-0.671082,61.4, -0.6, -3.5,0,0,1024,1024,1024,1024,62.3,-89.9,98,3.755,3.736,3.729,3.767,0,0,20.765,60.8,14,Waypoint,
36.7673262,-118.8834287,5838.6579164958,114.173232,0.223694,1.08010830228,17200,2018-04-14 19:45:14,17,0,22.6,5838.6579164958,114.173232,0.4921268,1.24618770392,0,0,-0.671082,61.4, 0, -3.7,0,0,1024,1024,1024,1024,62.3,-89.9,98,3.755,3.736,3.729,3.767,0,0,20.765,60.8,14,Waypoint,
36.7673264,-118.8834287,5839.6421684958,115.157484,0.223694,1.0113681426,17300,2018-04-14 19:45:14,17,0,22.6,5839.6421684958,115.157484,0.4921268,1.24618770392,0,0,-0.671082,61.4, 0.2, -3.8,0,0,1024,1024,1024,1024,62.3,-89.9,98,3.755,3.736,3.729,3.767,0,0,20.765,60.8,14,Waypoint,
36.7673264,-118.8834286,5840.6264204958,116.141736,0.223694,1.02187011144,17400,2018-04-14 19:45:14,17,0,22.6,5840.6264204958,116.141736,0.4921268,1.24618770392,0,0,-0.671082,61.4, 0.3, -3.7,0,0,1024,1024,1024,1024,62.3,-89.9,98,3.755,3.736,3.729,3.767,0,0,20.765,60.8,14,Waypoint,
36.7673265,-118.8834286,5841.6106724958,117.125988,0.223694,0.98809714448,17500,2018-04-14 19:45:14,17,0,22.6,5841.6106724958,117.125988,0.4921268,1.24618770392,0,0,-0.671082,61.4, 0.4, -3.5,0,0,1024,1024,1024,1024,62.3,-89.9,98,3.755,3.736,3.729,3.767,0,0,20.765,60.8,14,Waypoint,
36.7673266,-118.8834286,5842.5949244958,118.11024,0.223694,0.95451774708,17600,2018-04-14 19:45:15,17,0,22.6,5842.5949244958,118.11024,0.4921268,1.24618770392,0,0,-0.671082,61.3, 0.3, -3.2,0,0,1024,1024,1024,1024,62.3,-89.9,98,3.755,3.736,3.729,3.767,0,0,20.765,60.8,14,Waypoint,
36.7673267,-118.8834285,5845.8757644958,121.39108,0,0.93359911124,17900,2018-04-14 19:45:15,17,0,22.6,5845.8757644958,121.39108,0.4921268,1.24618770392,0,0,-0.671082,61.4, 0.4, -4,0,0,1024,1024,1024,1024,62.3,-89.9,98,3.755,3.736,3.729,3.767,0,0,20.765,60.8,14,Waypoint,
36.7673267,-118.8834284,5846.8600164958,122.375332,0,0.94677168384,18020,2018-04-14 19:45:15,17,0,22.271,5846.8600164958,122.375332,0.4921268,1.24618770392,0,0,-0.671082,61.3, 0.5, -4.1,0,0,1024,1024,1024,1024,62.3,-89.9,97,3.704,3.706,3.691,3.727,0,0,24.229,60.8,14,Waypoint,
36.7673267,-118.8834284,5846.8600164958,122.375332,0,0.94677168384,18100,2018-04-14 19:45:15,17,0,22.271,5846.8600164958,122.375332,0.4921268,1.24618770392,0,0,-0.671082,61.3, 0.5, -4.1,0,0,1024,1024,1024,1024,62.3,-89.9,97,3.704,3.706,3.691,3.727,0,0,24.229,60.8,14,Waypoint,
36.7673267,-118.8834284,5848.8285204958,124.343836,0,0.94677168384,18310,2018-04-14 19:45:15,18,0,22.271,5848.8285204958,124.343836,0.4921268,1.24618770392,0,0,-0.671082,61.3, 0.2, -4.3,0,0,1024,1024,1024,1024,62.3,-89.9,97,3.704,3.706,3.691,3.727,0,0,24.229,60.8,14,Waypoint,
36.7673267,-118.8834284,5849.8127724958,125.328088,0,0.94677168384,18410,2018-04-14 19:45:15,18,0,22.271,5849.8127724958,125.328088,0.4921268,1.24618770392,0,0,-0.671082,61.3, 0, -4.5,0,0,1024,1024,1024,1024,62.3,-89.9,97,3.704,3.706,3.691,3.727,0,0,24.229,60.8,14,Waypoint,
36.7673267,-118.8834284,5850.7970244958,126.31234,0,0.94677168384,18500,2018-04-14 19:45:15,18,0,22.271,5850.7970244958,126.31234,0.4921268,1.24618770392,0,0,-0.671082,61.4, 0, -4.5,0,0,1024,1024,1024,1024,62.3,-89.9,97,3.704,3.706,3.691,3.727,0,0,24.229,60.8,14,Waypoint,
36.7673267,-118.8834284,5851.7812764958,127.296592,0,0.94677168384,18610,2018-04-14 19:45:16,18,0,22.271,5851.7812764958,127.296592,0.4921268,1.24618770392,0,0,-0.671082,61.4, 0, -4.3,0,0,1024,1024,1024,1024,62.3,-89.9,97,3.704,3.706,3.691,3.727,0,0,24.229,60.8,14,Waypoint,
36.7673267,-118.8834285,5852.7655284958,128.280844,0.223694,0.93359911124,18700,2018-04-14 19:45:16,17,0,22.271,5852.7655284958,128.280844,0.4921268,1.24618770392,0,0,-0.671082,61.4, -0.3, -4.1,0,0,1024,1024,1024,1024,62.3,-90,97,3.704,3.706,3.691,3.727,0,0,24.229,60.8,14,Waypoint,
36.7673267,-118.8834285,5853.7497804958,129.265096,0,0.93359911124,18800,2018-04-14 19:45:16,17,0,22.271,5853.7497804958,129.265096,0.4921268,1.24618770392,0,0,-0.671082,61.5, -0.4, -4,0,0,1024,1024,1024,1024,62.3,-89.9,97,3.704,3.706,3.691,3.727,0,0,24.229,60.8,14,Waypoint,
36.7673267,-118.8834285,5854.7340324958,130.249348,0.223694,0.93359911124,18910,2018-04-14 19:45:16,17,0,22.271,5854.7340324958,130.249348,0.4921268,1.24618770392,0,0,-0.671082,61.6, -0.6, -4,0,0,1024,1024,1024,1024,62.3,-89.9,97,3.704,3.706,3.691,3.727,0,0,24.229,60.8,14,Waypoint,
36.7673267,-118.8834286,5857.0306204958,132.545936,0,0.92116472764,19000,2018-04-14 19:45:16,18,0,22.271,5857.0306204958,132.545936,0.4921268,1.24618770392,0,0,-0.671082,61.6, -0.5, -3.6,0,0,1024,1024,1024,1024,62.3,-89.9,97,3.704,3.706,3.691,3.727,0,0,24.229,60.8,14,Waypoint,
36.7673267,-118.8834286,5858.6710404958,134.186356,0,0.92116472764,19300,2018-04-14 19:45:16,18,0,22.271,5858.6710404958,134.186356,0.4921268,1.24618770392,0,0,-0.671082,61.5, -0.6, -3.9,0,0,1024,1024,1024,1024,62.3,-89.9,97,3.704,3.706,3.691,3.727,0,0,24.229,60.8,14,Waypoint,
36.7673267,-118.8834286,5859.6552924958,135.170608,0,0.92116472764,19400,2018-04-14 19:45:16,18,0,22.271,5859.6552924958,135.170608,0.4921268,1.24618770392,0,0,-0.671082,61.4, -0.6, -4.3,0,0,1024,1024,1024,1024,62.3,-89.9,97,3.704,3.706,3.691,3.727,0,0,24.229,60.8,14,Waypoint,
36.7673267,-118.8834286,5860.6395444958,136.15486,0,0.92116472764,19500,2018-04-14 19:45:16,18,0,22.271,5860.6395444958,136.15486,0.4921268,1.24618770392,0,0,-0.671082,61.4, -0.4, -4.6,0,0,1024,1024,1024,1024,62.3,-89.9,97,3.704,3.706,3.691,3.727,0,0,24.229,60.8,14,Waypoint,
36.7673266,-118.8834286,5861.6237964958,137.139112,0,0.95451774708,19600,2018-04-14 19:45:17,18,0,22.271,5861.6237964958,137.139112,0.4921268,1.24618770392,0,0,-0.671082,61.4, -0.1, -4.6,0,0,1024,1024,1024,1024,62.3,-89.9,97,3.704,3.706,3.691,3.727,0,0,24.229,60.8,14,Waypoint,
36.7673265,-118.8834286,5862.6080484958,138.123364,0,0.98809714448,19700,2018-04-14 19:45:17,18,0,22.271,5862.6080484958,138.123364,0.4921268,1.24618770392,0,0,-0.671082,61.4, 0, -4.4,0,0,1024,1024,1024,1024,62.3,-89.9,97,3.704,3.706,3.691,3.727,0,0,24.229,60.8,14,Waypoint,
36.7673265,-118.8834286,5864.5765524958,140.091868,0.223694,0.98809714448,19900,2018-04-14 19:45:17,18,0,22.271,5864.5765524958,140.091868,0.4921268,1.24618770392,0,0,-0.671082,61.4, -0.5, -3.9,0,0,1024,1024,1024,1024,62.3,-89.9,97,3.704,3.706,3.691,3.727,0,0,24.229,60.8,14,Waypoint,
36.7673265,-118.8834287,5865.5608044958,141.07612,0.223694,0.9772310024,20000,2018-04-14 19:45:17,18,0,22.381,5865.5608044958,141.07612,0.4921268,1.24618770392,0,0,-0.671082,61.5, -0.7, -3.7,0,0,1024,1024,1024,1024,62.3,-90,97,3.726,3.726,3.708,3.751,0,0,21.799,60.8,14,Waypoint,
36.7673265,-118.8834288,5866.5450564958,142.060372,0.223694,0.9671260152,20100,2018-04-14 19:45:17,18,0,22.381,5866.5450564958,142.060372,0.4921268,1.24618770392,0,0,-0.671082,61.5, -0.9, -3.5,0,0,1024,1024,1024,1024,62.3,-90,97,3.726,3.726,3.708,3.751,0,0,21.799,60.8,14,Waypoint,
36.7673265,-118.8834288,5867.5293084958,143.044624,0.223694,0.9671260152,20300,2018-04-14 19:45:17,18,0,22.381,5867.5293084958,143.044624,0.4921268,1.24618770392,0,0,-0.671082,61.5, -1, -3.3,0,0,1024,1024,1024,1024,62.3,-89.9,97,3.726,3.726,3.708,3.751,0,0,21.799,60.8,14,Waypoint,
36.7673266,-118.8834289,5869.4978124958,145.013128,0.3131716,0.92312666996,20400,2018-04-14 19:45:17,18,0,22.381,5869.4978124958,145.013128,0.4921268,1.24618770392,0,0,-0.671082,61.4, -0.7, -3.2,0,0,1024,1024,1024,1024,62.3,-89.9,97,3.726,3.726,3.708,3.751,0,0,21.799,60.8,14,Waypoint,
36.7673267,-118.8834289,5870.4820644958,145.99738,0.3131716,0.88859582896,20500,2018-04-14 19:45:17,18,0,22.381,5870.4820644958,145.99738,0.4921268,1.24618770392,0,0,-0.671082,61.4, -0.7, -3.1,0,0,1024,1024,1024,1024,62.3,-89.9,97,3.726,3.726,3.708,3.751,0,0,21.799,60.8,14,Waypoint,
36.7673269,-118.883429,5872.4505684958,147.965884,0.3131716,0.81007876608,20600,2018-04-14 19:45:18,18,0,22.381,5872.4505684958,147.965884,0.4921268,1.24618770392,0,0,-0.671082,61.5, -0.3, -2.7,0,0,1024,1024,1024,1024,62.3,-89.9,97,3.726,3.726,3.708,3.751,0,0,21.799,60.8,14,Waypoint,
36.767327,-118.883429,5873.7629044958,149.27822,0.3131716,0.77566275448,20800,2018-04-14 19:45:18,18,0,22.381,5873.7629044958,149.27822,0.4921268,1.24618770392,0,0,-0.671082,61.5, -0.3, -2.5,0,0,1024,1024,1024,1024,62.3,-89.9,97,3.726,3.726,3.708,3.751,0,0,21.799,60.8,14,Waypoint,
36.767327,-118.8834291,5874.7471564958,150.262472,0.3131716,0.76624346284,20900,2018-04-14 19:45:18,18,0,22.381,5874.7471564958,150.262472,0.4921268,1.24618770392,0,0,-0.671082,61.6, -0.4, -2.4,0,0,1024,1024,1024,1024,62.3,-89.9,97,3.726,3.726,3.708,3.751,0,0,21.799,60.8,14,Waypoint,
36.7673271,-118.8834291,5875.7314084958,151.246724,0.223694,0.73158466908,21000,2018-04-14 19:45:18,18,0,22.26,5875.7314084958,151.246724,0.4921268,1.24618770392,0,0,-0.671082,61.6, -0.4, -2.3,0,0,1024,1024,1024,1024,62.3,-89.9,97,3.726,3.726,3.708,3.751,0,0,22.304,60.8,14,Waypoint,
36.7673271,-118.8834291,5876.7156604958,152.230976,0.223694,0.73158466908,21100,2018-04-14 19:45:18,18,0,22.26,5876.7156604958,152.230976,0.4921268,1.24618770392,0,0,-0.671082,61.6, -0.4, -2.5,0,0,1024,1024,1024,1024,62.3,-89.9,97,3.726,3.726,3.708,3.751,0,0,22.304,60.8,14,Waypoint,
36.7673271,-118.8834291,5877.6999124958,153.215228,0,0.73158466908,21200,2018-04-14 19:45:18,18,0,22.26,5877.6999124958,153.215228,0.4921268,1.24618770392,0,0,-0.671082,61.5, -0.2, -2.8,0,0,1024,1024,1024,1024,62.3,-89.9,97,3.726,3.726,3.708,3.751,0,0,22.304,60.8,14,Waypoint,
36.7673272,-118.8834291,5879.0122484958,154.527564,0,0.69710960236,21300,2018-04-14 19:45:18,18,0,22.26,5879.0122484958,154.527564,0.4921268,1.24618770392,0,0,-0.671082,61.4, -0.1, -2.7,0,0,1024,1024,1024,1024,62.3,-89.9,97,3.726,3.726,3.708,3.751,0,0,22.304,60.8,14,Waypoint,
36.7673272,-118.8834291,5879.9965004958,155.511816,0,0.69710960236,21400,2018-04-14 19:45:18,18,0,22.26,5879.9965004958,155.511816,0.4921268,1.24618770392,0,0,-0.671082,61.4, -0.2, -2.8,0,0,1024,1024,1024,1024,62.3,-89.9,97,3.726,3.726,3.708,3.751,0,0,22.304,60.8,14,Waypoint,
36.7673271,-118.8834292,5880.9807524958,156.496068,0,0.72277561368,21500,2018-04-14 19:45:18,18,0,22.26,5880.9807524958,156.496068,0.4921268,1.24618770392,0,0,-0.671082,61.4, -0.3, -3.1,0,0,1024,1024,1024,1024,62.3,-90,97,3.726,3.726,3.708,3.751,0,0,22.304,60.8,14,Waypoint,
36.7673271,-118.8834292,5882.9492564958,158.464572,0,0.72277561368,21600,2018-04-14 19:45:19,18,0,22.26,5882.9492564958,158.464572,0.4921268,1.24618770392,0,0,-0.671082,61.5, -0.9, -3.7,0,0,1024,1024,1024,1024,62.3,-90,97,3.726,3.726,3.708,3.751,0,0,22.304,60.8,14,Waypoint,
36.767327,-118.8834292,5884.2615924958,159.776908,0,0.75783795076,21700,2018-04-14 19:45:19,18,0,22.26,5884.2615924958,159.776908,0.4921268,1.24618770392,0,0,-0.671082,61.6, -1, -3.7,0,0,1024,1024,1024,1024,62.3,-90,97,3.726,3.726,3.708,3.751,0,0,22.304,60.8,14,Waypoint,
36.767327,-118.8834292,5885.2458444958,160.76116,0,0.75783795076,21800,2018-04-14 19:45:19,18,0,22.26,5885.2458444958,160.76116,0.4921268,1.24618770392,0,0,-0.671082,61.6, -0.9, -3.6,0,0,1024,1024,1024,1024,62.3,-90,97,3.726,3.726,3.708,3.751,0,0,22.304,60.8,14,Waypoint,
36.7673269,-118.8834292,5887.2143484958,162.729664,0,0.7930282406,22000,2018-04-14 19:45:19,18,0,22.26,5887.2143484958,162.729664,0.4921268,1.24618770392,0,0,-0.671082,61.7, -0.9, -4.3,0,0,1024,1024,1024,1024,62.3,-89.9,97,3.692,3.702,3.68,3.723,0,0,22.304,60.8,14,Waypoint,
36.7673268,-118.8834292,5888.1986004958,163.713916,0,0.82833335984,22100,2018-04-14 19:45:19,18,0,22.26,5888.1986004958,163.713916,0.4921268,1.24618770392,0,0,-0.671082,61.6, -0.5, -4.3,0,0,1024,1024,1024,1024,62.3,-89.9,97,3.692,3.702,3.68,3.723,0,0,22.304,60.8,14,Waypoint,
36.7673268,-118.8834291,5889.1828524958,164.698168,0,0.83603021048,22200,2018-04-14 19:45:19,18,0,22.26,5889.1828524958,164.698168,0.4921268,1.24618770392,0,0,-0.671082,61.5, -0.2, -4.3,0,0,1024,1024,1024,1024,62.3,-89.9,97,3.692,3.702,3.68,3.723,0,0,22.304,60.8,14,Waypoint,
36.7673268,-118.8834291,5890.1671044958,165.68242,0,0.83603021048,22300,2018-04-14 19:45:19,18,0,22.26,5890.1671044958,165.68242,0.4921268,1.24618770392,0,0,-0.671082,61.4, -0.4, -4.2,0,0,1024,1024,1024,1024,62.3,-89.9,97,3.692,3.702,3.68,3.723,0,0,22.304,60.8,14,Waypoint,
36.7673267,-118.8834291,5891.1513564958,166.666672,0,0.87111879428,22400,2018-04-14 19:45:19,18,0,22.26,5891.1513564958,166.666672,0.4921268,1.24618770392,0,0,-0.671082,61.4, -0.6, -4.2,0,0,1024,1024,1024,1024,62.3,-89.9,97,3.692,3.702,3.68,3.723,0,0,22.304,60.8,14,Waypoint,
36.7673267,-118.8834291,5892.1356084958,167.650924,0,0.87111879428,22500,2018-04-14 19:45:19,18,0,22.26,5892.1356084958,167.650924,0.4921268,1.24618770392,0,0,-0.671082,61.4, -0.7, -4.1,0,0,1024,1024,1024,1024,62.3,-89.9,97,3.692,3.702,3.68,3.723,0,0,22.304,60.8,14,Waypoint,
36.7673266,-118.8834292,5893.1198604958,168.635176,0,0.89922246972,22600,2018-04-14 19:45:20,18,0,22.26,5893.1198604958,168.635176,0.4921268,1.24618770392,0,0,-0.671082,61.4, -0.5, -4.1,0,0,1024,1024,1024,1024,62.3,-89.9,97,3.692,3.702,3.68,3.723,0,0,22.304,60.8,14,Waypoint,
36.7673266,-118.8834292,5894.1041124958,169.619428,0,0.89922246972,22700,2018-04-14 19:45:20,18,0,22.26,5894.1041124958,169.619428,0.4921268,1.24618770392,0,0,-0.671082,61.4, -0.4, -4.3,0,0,1024,1024,1024,1024,62.3,-89.9,97,3.692,3.702,3.68,3.723,0,0,22.304,60.8,14,Waypoint,
36.7673265,-118.8834292,5895.0883644958,170.60368,0,0.93478677532,22810,2018-04-14 19:45:20,18,0,22.26,5895.0883644958,170.60368,0.4921268,1.24618770392,0,0,-0.671082,61.5, -0.4, -4.2,0,0,1024,1024,1024,1024,62.3,-89.9,97,3.692,3.702,3.68,3.723,0,0,22.304,60.8,14,Waypoint,
36.7673265,-118.8834292,5895.7445324958,171.259848,0,0.93478677532,22910,2018-04-14 19:45:20,18,0,22.26,5895.7445324958,171.259848,0.4921268,1.24618770392,0,0,-0.671082,61.5, -0.4, -4,0,0,1024,1024,1024,1024,62.3,-89.9,97,3.692,3.702,3.68,3.723,0,0,22.304,60.8,14,Waypoint,
36.7673265,-118.8834292,5896.7287844958,172.2441,0,0.93478677532,23100,2018-04-14 19:45:20,18,0,22.26,5896.7287844958,172.2441,0.4921268,1.24618770392,0,0,-0.671082,61.5, -0.5, -3.9,0,0,1024,1024,1024,1024,62.3,-89.9,97,3.692,3.702,3.68,3.723,0,0,22.304,60.8,14,Waypoint,
36.7673265,-118.8834292,5897.7130364958,173.228352,0,0.93478677532,23200,2018-04-14 19:45:20,18,0,22.26,5897.7130364958,173.228352,0.4921268,1.24618770392,0,0,-0.671082,61.3, -0.4, -3.8,0,0,1024,1024,1024,1024,62.3,-89.9,97,3.692,3.702,3.68,3.723,0,0,22.304,60.8,14,Waypoint,
36.7673265,-118.8834292,5898.6972884958,174.212604,0,0.93478677532,23300,2018-04-14 19:45:20,18,0,22.26,5898.6972884958,174.212604,0.4921268,1.24618770392,0,0,-0.671082,61.2, -0.5, -4,0,0,1024,1024,1024,1024,62.3,-89.9,97,3.692,3.702,3.68,3.723,0,0,22.304,60.8,14,Waypoint,
36.7673266,-118.8834292,5899.6815404958,175.196856,0.223694,0.89922246972,23400,2018-04-14 19:45:20,18,0,22.26,5899.6815404958,175.196856,0.4921268,1.24618770392,0,0,-0.671082,61.1, -0.6, -3.9,0,0,1024,1024,1024,1024,62.3,-89.9,97,3.692,3.702,3.68,3.723,0,0,22.304,60.8,14,Waypoint,
36.7673266,-118.8834293,5900.6657924958,176.181108,0.223694,0.89302496296,23500,2018-04-14 19:45:20,18,0,22.26,5900.6657924958,176.181108,0.4921268,1.24618770392,0,0,-0.671082,61, -0.5, -3.7,0,0,1024,1024,1024,1024,62.3,-89.9,97,3.692,3.702,3.68,3.723,0,0,22.304,60.8,14,Waypoint,
36.7673267,-118.8834293,5901.6500444958,177.16536,0.223694,0.85728021116,23600,2018-04-14 19:45:21,18,0,22.26,5901.6500444958,177.16536,0.4921268,1.24618770392,0,0,-0.671082,61, -0.2, -2.9,0,0,1024,1024,1024,1024,62.3,-89.9,97,3.692,3.702,3.68,3.723,0,0,22.304,60.8,14,Waypoint,
36.7673267,-118.8834294,5902.6342964958,178.149612,0,0.85178152332,23700,2018-04-14 19:45:21,18,0,22.26,5902.6342964958,178.149612,0.4921268,1.24618770392,0,0,-0.671082,61, -0.2, -2.9,0,0,1024,1024,1024,1024,62.3,-89.9,97,3.692,3.702,3.68,3.723,0,0,22.304,60.8,14,Waypoint,
36.7673267,-118.8834294,5904.6028004958,180.118116,0,0.85178152332,23800,2018-04-14 19:45:21,18,0,22.26,5904.6028004958,180.118116,0.4921268,1.24618770392,0,0,-0.671082,61.2, -0.6, -3.8,0,0,1024,1024,1024,1024,62.3,-90,97,3.692,3.702,3.68,3.723,0,0,22.304,60.8,14,Waypoint,
36.7673267,-118.8834293,5905.5870524958,181.102368,0,0.85728021116,23900,2018-04-14 19:45:21,18,0,22.26,5905.5870524958,181.102368,0.4921268,1.24618770392,0,0,-0.671082,61.4, -0.6, -4.1,0,0,1024,1024,1024,1024,62.3,-90,97,3.692,3.702,3.68,3.723,0,0,22.304,60.8,14,Waypoint,
36.7673267,-118.8834293,5906.5713044958,182.08662,0,0.85728021116,24000,2018-04-14 19:45:21,18,0,22.24,5906.5713044958,182.08662,0.4921268,1.24618770392,0,0,-0.671082,61.4, -0.5, -4.4,0,0,1024,1024,1024,1024,62.3,-89.9,97,3.707,3.712,3.672,3.732,0,0,22.33,62.6,14,Waypoint,
36.7673267,-118.8834293,5907.5555564958,183.070872,0,0.85728021116,24100,2018-04-14 19:45:21,18,0,22.24,5907.5555564958,183.070872,0.4921268,1.24618770392,0,0,-0.671082,61.5, -0.5, -4.4,0,0,1024,1024,1024,1024,62.3,-89.9,97,3.707,3.712,3.672,3.732,0,0,22.33,62.6,14,Waypoint,
36.7673266,-118.8834294,5908.5398084958,184.055124,0,0.88774937224,24200,2018-04-14 19:45:21,18,0,22.24,5908.5398084958,184.055124,0.4921268,1.24618770392,0,0,-0.671082,61.6, -0.5, -4.2,0,0,1024,1024,1024,1024,62.3,-89.9,97,3.707,3.712,3.672,3.732,0,0,22.33,62.6,14,Waypoint,
36.7673266,-118.8834294,5909.5240604958,185.039376,0,0.88774937224,24300,2018-04-14 19:45:21,18,0,22.24,5909.5240604958,185.039376,0.4921268,1.24618770392,0,0,-0.671082,61.6, -0.5, -4.2,0,0,1024,1024,1024,1024,62.3,-89.9,97,3.707,3.712,3.672,3.732,0,0,22.33,62.6,14,Waypoint,
36.7673265,-118.8834295,5911.4925644958,187.00788,0,0.9195866436,24500,2018-04-14 19:45:21,18,0,22.24,5911.4925644958,187.00788,0.4921268,1.24618770392,0,0,-0.671082,61.7, -1.1, -4.4,0,0,1024,1024,1024,1024,62.3,-90,97,3.707,3.712,3.672,3.732,0,0,22.33,62.6,14,Waypoint,
36.7673264,-118.8834295,5912.4768164958,187.992132,0,0.95578415132,24600,2018-04-14 19:45:22,18,0,22.24,5912.4768164958,187.992132,0.4921268,1.24618770392,0,0,-0.671082,61.7, -1.3, -4.4,0,0,1024,1024,1024,1024,62.3,-90,97,3.707,3.712,3.672,3.732,0,0,22.33,62.6,14,Waypoint,
36.7673264,-118.8834295,5913.4610684958,188.976384,0,0.95578415132,24700,2018-04-14 19:45:22,18,0,22.24,5913.4610684958,188.976384,0.4921268,1.24618770392,0,0,-0.671082,61.7, -1.4, -4.3,0,0,1024,1024,1024,1024,62.3,-90,97,3.707,3.712,3.672,3.732,0,0,22.33,62.6,14,Waypoint,
36.7673263,-118.8834295,5914.4453204958,189.960636,0,0.99200790576,24800,2018-04-14 19:45:22,18,0,22.24,5914.4453204958,189.960636,0.4921268,1.24618770392,0,0,-0.671082,61.7, -1.3, -4.5,0,0,1024,1024,1024,1024,62.3,-90,97,3.707,3.712,3.672,3.732,0,0,22.33,62.6,14,Waypoint,
36.7673263,-118.8834296,5915.4295724958,190.944888,0,0.98898625212,24900,2018-04-14 19:45:22,18,0,22.24,5915.4295724958,190.944888,0.4921268,1.24618770392,0,0,-0.671082,61.6, -1.3, -5,0,0,1024,1024,1024,1024,62.3,-90,97,3.707,3.712,3.672,3.732,0,0,22.33,62.6,14,Waypoint,
36.7673262,-118.8834296,5916.4138244958,191.92914,0,1.02533467848,25100,2018-04-14 19:45:22,18,0,22.24,5916.4138244958,191.92914,0.4921268,1.24618770392,0,0,-0.671082,61.6, -1.5, -5,0,0,1024,1024,1024,1024,62.3,-90,97,3.707,3.712,3.672,3.732,0,0,22.33,62.6,14,Waypoint,
36.7673261,-118.8834296,5919.3665804958,194.881896,0,1.06168966652,25300,2018-04-14 19:45:22,18,0,22.24,5919.3665804958,194.881896,0.4921268,1.24618770392,0,0,-0.671082,61.4, -1.4, -4.9,0,0,1024,1024,1024,1024,62.3,-89.9,97,3.707,3.712,3.672,3.732,0,0,22.33,62.6,14,Waypoint,
36.767326,-118.8834296,5920.3508324958,195.866148,0,1.09805449708,25500,2018-04-14 19:45:22,18,0,22.24,5920.3508324958,195.866148,0.4921268,1.24618770392,0,0,-0.671082,61.4, -1.3, -4.8,0,0,1024,1024,1024,1024,62.3,-89.9,97,3.707,3.712,3.672,3.732,0,0,22.33,62.6,14,Waypoint,
36.7673259,-118.8834296,5921.3350844958,196.8504,0,1.13442588932,25600,2018-04-14 19:45:23,18,0,22.24,5921.3350844958,196.8504,0.4921268,1.24618770392,0,0,-0.671082,61.3, -1.3, -4.7,0,0,1024,1024,1024,1024,62.3,-90,97,3.707,3.712,3.672,3.732,0,0,22.33,62.6,14,Waypoint,
36.7673259,-118.8834296,5922.3193364958,197.834652,0,1.13442588932,25700,2018-04-14 19:45:23,18,0,22.24,5922.3193364958,197.834652,0.4921268,1.24618770392,0,0,-0.671082,61.3, -1.4, -4.6,0,0,1024,1024,1024,1024,62.3,-90,97,3.707,3.712,3.672,3.732,0,0,22.33,62.6,14,Waypoint,
36.7673258,-118.8834296,5923.3035884958,198.818904,0,1.17080712408,25800,2018-04-14 19:45:23,18,0,22.24,5923.3035884958,198.818904,0.4921268,1.24618770392,0,0,-0.671082,61.3, -1.4, -4.9,0,0,1024,1024,1024,1024,62.3,-90,97,3.707,3.712,3.672,3.732,0,0,22.33,62.6,14,Waypoint,
36.7673257,-118.8834296,5924.2878404958,199.803156,0,1.20719163968,25900,2018-04-14 19:45:23,18,0,22.24,5924.2878404958,199.803156,0.4921268,1.24618770392,0,0,-0.671082,61.4, -1.6, -5.3,0,0,1024,1024,1024,1024,62.3,-90,97,3.707,3.712,3.672,3.732,0,0,22.33,62.6,14,Waypoint,
36.7673255,-118.8834296,5926.2563444958,201.77166,0,1.27998035592,26000,2018-04-14 19:45:23,18,0,22.016,5926.2563444958,201.77166,0.4921268,1.27998035592,0,0,-0.671082,61.5, -1.9, -5.9,0,0,1024,1024,1024,1024,62.3,-89.9,97,3.672,3.675,3.644,3.695,0,0,23.895,62.6,14,Waypoint,
36.7673255,-118.8834296,5927.2405964958,202.755912,0,1.27998035592,26200,2018-04-14 19:45:23,18,0,22.016,5927.2405964958,202.755912,0.4921268,1.27998035592,0,0,-0.671082,61.5, -1.9, -5.8,0,0,1024,1024,1024,1024,62.3,-89.9,97,3.672,3.675,3.644,3.695,0,0,23.895,62.6,14,Waypoint,
36.7673255,-118.8834295,5928.2248484958,203.740164,0,1.28231303316,26300,2018-04-14 19:45:23,18,0,22.016,5928.2248484958,203.740164,0.4921268,1.28231303316,0,0,-0.671082,61.5, -1.6, -5.7,0,0,1024,1024,1024,1024,62.3,-89.9,97,3.672,3.675,3.644,3.695,0,0,23.895,62.6,14,Waypoint,
36.7673255,-118.8834295,5929.8652684958,205.380584,0.223694,1.28231303316,26400,2018-04-14 19:45:23,18,0,22.016,5929.8652684958,205.380584,0.4921268,1.28231303316,0,0,-0.671082,61.6, -1.2, -5.1,0,0,1024,1024,1024,1024,62.3,-89.9,97,3.672,3.675,3.644,3.695,0,0,23.895,62.6,14,Waypoint,
36.7673255,-118.8834294,5931.8337724958,207.349088,0.223694,1.28530844008,26600,2018-04-14 19:45:24,18,0,22.016,5931.8337724958,207.349088,0.4921268,1.28530844008,0,0,-0.671082,61.8, -1.2, -5,0,0,1024,1024,1024,1024,62.3,-89.9,97,3.672,3.675,3.644,3.695,0,0,23.895,62.6,14,Waypoint,
36.7673255,-118.8834294,5932.8180244958,208.33334,0.223694,1.28530844008,26700,2018-04-14 19:45:24,18,0,22.016,5932.8180244958,208.33334,0.4921268,1.28530844008,0,0,-0.671082,61.7, -1.4, -5.1,0,0,1024,1024,1024,1024,62.3,-90,97,3.672,3.675,3.644,3.695,0,0,23.895,62.6,14,Waypoint,
36.7673255,-118.8834294,5933.8022764958,209.317592,0.223694,1.28530844008,26800,2018-04-14 19:45:24,18,0,22.016,5933.8022764958,209.317592,0.4921268,1.28530844008,0,0,-0.671082,61.6, -1.4, -4.9,0,0,1024,1024,1024,1024,62.3,-89.9,97,3.672,3.675,3.644,3.695,0,0,23.895,62.6,14,Waypoint,
36.7673255,-118.8834294,5934.7865284958,210.301844,0.223694,1.28530844008,26900,2018-04-14 19:45:24,18,0,22.016,5934.7865284958,210.301844,0.4921268,1.28530844008,0,0,-0.671082,61.6, -1.3, -4.7,0,0,1024,1024,1024,1024,62.3,-89.9,97,3.672,3.675,3.644,3.695,0,0,23.895,62.6,14,Waypoint,
36.7673256,-118.8834294,5936.7550324958,212.270348,0.223694,1.2490650006,27110,2018-04-14 19:45:24,18,0,22.016,5936.7550324958,212.270348,0.4921268,1.28530844008,0,0,-0.671082,61.6, -1.6, -4.7,0,0,1024,1024,1024,1024,62.3,-90,97,3.672,3.675,3.644,3.695,0,0,23.895,62.6,14,Waypoint,
36.7673256,-118.8834293,5938.7235364958,214.238852,0.223694,1.2528215624,27300,2018-04-14 19:45:24,18,0,22.016,5938.7235364958,214.238852,0.4921268,1.28530844008,0,0,-0.671082,61.6, -1.5, -5.3,0,0,1024,1024,1024,1024,62.3,-90,97,3.672,3.675,3.644,3.695,0,0,23.895,62.6,14,Waypoint,
36.7673256,-118.8834293,5939.7077884958,215.223104,0.223694,1.2528215624,27410,2018-04-14 19:45:24,18,0,22.016,5939.7077884958,215.223104,0.4921268,1.28530844008,0,0,-0.671082,61.6, -1.3, -5.5,0,0,1024,1024,1024,1024,62.3,-89.9,97,3.672,3.675,3.644,3.695,0,0,23.895,62.6,14,Waypoint,
