Latitude, Longitude, Altitude (m), Time, Sats, Speed (m/s), Range (m), Battery (%), Roll (deg), Pitch (deg), Yaw (deg), Images, HD Signal (%), RC Signal (%), Battery Temp (C), Battery Voltage (mV), Battery Current (mA), Battery Energy (mAh), Battery Capacity (mAh), Battery Discharges, flyState, timestamp (Unix), LastUpdate (ms), radioChannel, Rc_elevator, Rc_aileron, Rc_throttle, Rc_rudder, Rc_gyro, Dronetype, Battery_Cell1 (mV), Battery_Cell2 (mV), Battery_Cell3 (mV), Battery_Cell4 (mV), Battery_Cell5 (mV), Battery_Cell6 (mV), Video, isFlying, elapsedTime (ms), gimbalPitch (deg), gimbalRoll (deg), gimbalYaw (deg), VelocityX (m/s), VelocityY (m/s), VelocityZ (m/s), GroundSmear (cm), App Version, Aircraft Name, Aircraft Firmware, Aircraft Serial Number, Battery Serial Number, Battery Lifetime (%), App_Tip, App_Warning, CurrentFlightStartingIndex, CurrentFlightLastVisitedWaypoint, PreviousFlightEndingWaypointIndex
36.7673107, -118.8833941, 0.000, 14:09:31.093, 13, 0.10, 0.02, 92, 0.800, 2.900, 64.100, 1029, 100, 100, 23, 24966, -3837, 5156, 5605, 5, 11, 1523740171.094, 53, 0, 1024, 1024, 1024, 1024, 0, 6, 4214, 4157, 4169, 4221, 4177, 4194, 0, 1, 3111, -90.000, 0.000, 64.000, 0.000, -0.100, -0.200, 0.1, MapPilot_2.7.4_02272018, Dendroctonus I, 1.3.1.00, 041DDC1887, 1058163200468, 99, DJI_0050.jpg, Starting Mission from Lat/Long: 36.76731/-118.88340 Camera: Zenmuse X3 - Overlap: 90/90 - Active Connection: Yes, 61, 61, 61
36.7673106, -118.8833943, 0.000, 14:09:31.184, 13, 0.14, 0.03, 92, 0.800, 1.500, 64.200, 1029, 100, 100, 23, 24966, -3837, 5156, 5605, 5, 11, 1523740171.184, 30, 0, 1024, 1024, 1024, 1024, 0, 6, 4214, 4157, 4169, 4221, 4177, 4194, 0, 1, 3201, -90.000, 0.000, 64.000, -0.100, -0.100, -0.300, 0.1, , , , , , 99, , , 61, 61, 61
36.7673105, -118.8833945, 0.000, 14:09:31.284, 13, 0.14, 0.05, 92, 0.600, 0.400, 64.200, 1029, 100, 100, 23, 24966, -3837, 5156, 5605, 5, 11, 1523740171.284, 23, 0, 1024, 1024, 1024, 1024, 0, 6, 4214, 4157, 4169, 4221, 4177, 4194, 0, 1, 3301, -90.000, 0.000, 64.000, -0.100, -0.100, -0.300, 0.1, , , , , , 99, , , 61, 61, 61
36.7673103, -118.8833947, 0.100, 14:09:31.384, 13, 0.14, 0.08, 92, 0.200, -0.600, 64.200, 1029, 100, 100, 23, 24918, -6020, 5156, 5605, 5, 11, 1523740171.384, 14, 0, 1024, 1024, 1024, 1024, 0, 6, 4214, 4157, 4169, 4221, 4177, 4194, 0, 1, 3401, -90.000, 0.000, 64.000, -0.100, -0.100, -0.400, 0.0, , , , , , 99, , , 61, 61, 61
36.7673102, -118.8833949, 0.100, 14:09:31.483, 12, 0.14, 0.10, 92, -0.300, -1.600, 64.300, 1029, 100, 100, 23, 24918, -6020, 5156, 5605, 5, 11, 1523740171.484, 19, 0, 1024, 1024, 1024, 1024, 0, 6, 4097, 4105, 4092, 4128, 4119, 4087, 0, 1, 3501, -90.000, 0.000, 64.000, -0.100, -0.100, -0.300, 0.0, , , , , , 99, , , 61, 61, 61
36.7673101, -118.8833950, 0.200, 14:09:31.584, 12, 0.10, 0.11, 92, -0.500, -2.000, 64.400, 1029, 100, 100, 23, 24918, -6020, 5156, 5605, 5, 11, 1523740171.584, 10, 0, 1024, 1024, 1024, 1024, 0, 6, 4097, 4105, 4092, 4128, 4119, 4087, 0, 1, 3601, -90.000, 0.000, 64.000, -0.100, 0.000, -0.400, 0.0, , , , , , 99, , , 61, 61, 61
36.7673100, -118.8833951, 0.200, 14:09:31.684, 11, 0.10, 0.13, 92, -0.900, -1.900, 64.400, 1029, 100, 100, 23, 24918, -6020, 5156, 5605, 5, 11, 1523740171.684, 6, 0, 1024, 1024, 1024, 1024, 0, 6, 4097, 4105, 4092, 4128, 4119, 4087, 0, 1, 3701, -89.900, 0.000, 64.000, -0.100, 0.000, -0.400, 0.0, , , , , , 99, , , 61, 61, 61
36.7673100, -118.8833951, 0.200, 14:09:31.784, 11, 0.10, 0.13, 92, -0.900, -1.900, 64.400, 1029, 100, 100, 23, 24918, -6020, 5156, 5605, 5, 11, 1523740171.784, 105, 0, 1024, 1024, 1024, 1024, 0, 6, 4097, 4105, 4092, 4128, 4119, 4087, 0, 1, 3801, -89.900, 0.000, 64.000, -0.100, 0.000, -0.400, 0.0, , , , , , 99, , , 61, 61, 61
36.7673098, -118.8833952, 0.300, 14:09:31.885, 10, 0.10, 0.15, 92, -1.300, -1.000, 64.300, 1029, 100, 100, 23, 24918, -6020, 5156, 5605, 5, 11, 1523740171.886, 4, 0, 1024, 1024, 1024, 1024, 0, 6, 4097, 4105, 4092, 4128, 4119, 4087, 0, 1, 3903, -89.900, 0.000, 64.000, -0.100, 0.000, -0.400, 0.0, , , , , , 99, , , 61, 61, 61
36.7673098, -118.8833952, 0.300, 14:09:31.984, 10, 0.10, 0.15, 92, -1.300, -1.000, 64.300, 1029, 100, 100, 23, 24918, -6020, 5156, 5605, 5, 11, 1523740171.984, 102, 0, 1024, 1024, 1024, 1024, 0, 6, 4097, 4105, 4092, 4128, 4119, 4087, 0, 1, 4001, -89.900, 0.000, 64.000, -0.100, 0.000, -0.400, 0.0, , , , , , 99, , , 61, 61, 61
36.7673097, -118.8833952, 0.300, 14:09:32.083, 10, 0.00, 0.15, 92, -1.300, -0.400, 64.200, 1029, 100, 100, 23, 24918, -6020, 5156, 5605, 5, 11, 1523740172.084, 55, 0, 1024, 1024, 1024, 1024, 0, 6, 4097, 4105, 4092, 4128, 4119, 4087, 0, 1, 4101, -89.900, 0.000, 64.000, 0.000, 0.000, -0.400, 0.0, , , , , , 99, , , 61, 61, 61
36.7673097, -118.8833951, 0.400, 14:09:32.183, 12, 0.00, 0.15, 92, -1.300, 0.000, 64.100, 1029, 100, 100, 23, 24918, -6020, 5156, 5605, 5, 11, 1523740172.184, 49, 0, 1024, 1024, 1024, 1024, 0, 6, 4097, 4105, 4092, 4128, 4119, 4087, 0, 1, 4201, -89.900, 0.000, 64.000, 0.000, 0.000, -0.400, 0.0, , , , , , 99, , , 61, 61, 61
36.7673095, -118.8833951, 0.500, 14:09:32.283, 13, 0.00, 0.16, 92, -1.600, 0.400, 64.000, 1029, 100, 100, 23, 24918, -6020, 5156, 5605, 5, 11, 1523740172.283, 67, 0, 1024, 1024, 1024, 1024, 0, 6, 4097, 4105, 4092, 4128, 4119, 4087, 0, 1, 4300, -89.900, 0.000, 64.000, 0.000, 0.000, -0.400, 0.0, , , , , , 99, , , 61, 61, 61
36.7673094, -118.8833951, 0.500, 14:09:32.384, 13, 0.00, 0.17, 92, -1.600, 0.300, 64.000, 1029, 100, 100, 23, 24918, -6020, 5156, 5605, 5, 11, 1523740172.384, 75, 0, 1024, 1024, 1024, 1024, 0, 6, 4097, 4105, 4092, 4128, 4119, 4087, 0, 1, 4401, -89.900, 0.000, 64.000, 0.000, 0.000, -0.400, 0.0, , , , , , 99, , , 61, 61, 61
36.7673094, -118.8833951, 0.600, 14:09:32.484, 13, 0.00, 0.17, 92, -1.300, 0.100, 64.100, 1029, 100, 100, 23, 23925, -16098, 5156, 5605, 5, 11, 1523740172.484, 65, 0, 1024, 1024, 1024, 1024, 0, 6, 3983, 3977, 3972, 3981, 3976, 3991, 0, 1, 4501, -89.900, 0.000, 64.000, 0.000, 0.000, -0.400, 0.0, , , , , , 99, , , 61, 61, 61
36.7673094, -118.8833951, 0.600, 14:09:32.584, 13, 0.00, 0.18, 92, -1.200, 0.000, 64.100, 1029, 100, 100, 23, 23925, -16098, 5156, 5605, 5, 11, 1523740172.584, 66, 0, 1024, 1024, 1024, 1024, 0, 6, 3983, 3977, 3972, 3981, 3976, 3991, 0, 1, 4601, -89.900, 0.000, 64.000, 0.000, 0.000, -0.500, 0.0, , , , , , 99, , , 61, 61, 61
36.7673093, -118.8833950, 0.700, 14:09:32.684, 11, 0.00, 0.17, 92, -1.200, -0.100, 64.200, 1029, 100, 100, 23, 23925, -16098, 5156, 5605, 5, 11, 1523740172.684, 56, 0, 1024, 1024, 1024, 1024, 0, 6, 3983, 3977, 3972, 3981, 3976, 3991, 0, 1, 4701, -89.900, 0.000, 64.000, 0.000, 0.000, -0.500, 0.0, , , , , , 99, , , 61, 61, 61
36.7673093, -118.8833949, 0.700, 14:09:32.784, 11, 0.00, 0.17, 92, -1.100, 0.000, 64.300, 1029, 100, 100, 23, 23925, -16098, 5156, 5605, 5, 11, 1523740172.784, 57, 0, 1024, 1024, 1024, 1024, 0, 6, 3983, 3977, 3972, 3981, 3976, 3991, 0, 1, 4801, -89.900, 0.000, 64.000, 0.000, 0.000, -0.500, 0.0, , , , , , 99, , , 61, 61, 61
36.7673092, -118.8833948, 0.800, 14:09:32.884, 10, 0.00, 0.18, 92, -1.200, 0.200, 64.500, 1029, 100, 100, 23, 23925, -16098, 5156, 5605, 5, 11, 1523740172.884, 48, 0, 1024, 1024, 1024, 1024, 0, 6, 3983, 3977, 3972, 3981, 3976, 3991, 0, 1, 4901, -89.900, 0.000, 64.000, 0.000, 0.000, -0.500, 0.0, , , , , , 99, , , 61, 61, 61
36.7673091, -118.8833948, 0.900, 14:09:32.984, 10, 0.00, 0.19, 92, -1.400, 0.400, 64.600, 1029, 100, 100, 23, 23925, -16098, 5156, 5605, 5, 6, 1523740172.984, 36, 0, 1024, 1024, 1024, 1024, 0, 6, 3983, 3977, 3972, 3981, 3976, 3991, 0, 1, 5001, -89.900, 0.000, 64.000, 0.000, 0.000, -0.500, 0.0, , , , , , 99, , , 61, 61, 61
36.7673091, -118.8833947, 0.900, 14:09:33.084, 11, 0.00, 0.19, 92, -1.500, 0.500, 64.500, 1029, 100, 100, 23, 23925, -16098, 5156, 5605, 5, 14, 1523740173.084, 38, 0, 1024, 1024, 1024, 1024, 0, 6, 3983, 3977, 3972, 3981, 3976, 3991, 0, 1, 5101, -89.900, 0.000, 64.000, 0.000, 0.000, -0.500, 0.0, , , , , , 99, , , 61, 61, 61
36.7673090, -118.8833947, 1.000, 14:09:33.184, 11, 0.00, 0.19, 92, -1.300, 0.800, 64.600, 1029, 100, 100, 23, 23925, -16098, 5156, 5605, 5, 14, 1523740173.184, 40, 0, 1024, 1024, 1024, 1024, 0, 6, 3983, 3977, 3972, 3981, 3976, 3991, 0, 1, 5201, -89.900, 0.000, 64.000, 0.000, 0.000, -0.300, 0.0, , , , , , 99, , , 61, 61, 61
36.7673090, -118.8833947, 1.000, 14:09:33.284, 11, 0.00, 0.20, 92, -0.800, 0.900, 64.700, 1029, 100, 100, 23, 23925, -16098, 5156, 5605, 5, 14, 1523740173.284, 35, 0, 1024, 1024, 1024, 1024, 0, 6, 3983, 3977, 3972, 3981, 3976, 3991, 0, 1, 5301, -89.900, 0.000, 64.000, 0.000, 0.000, -0.200, 0.0, , , , , , 99, , , 61, 61, 61
36.7673089, -118.8833947, 1.000, 14:09:33.384, 11, 0.00, 0.21, 92, -0.700, 0.900, 64.700, 1029, 100, 100, 23, 23714, -16973, 5156, 5605, 5, 14, 1523740173.384, 33, 0, 1024, 1024, 1024, 1024, 0, 6, 3946, 3952, 3937, 3952, 3955, 3968, 0, 1, 5401, -89.900, 0.000, 64.000, 0.000, 0.000, -0.200, 0.0, , , , , , 99, , , 61, 61, 61
36.7673088, -118.8833945, 1.100, 14:09:33.483, 14, 0.00, 0.21, 92, -0.800, 0.900, 64.600, 1029, 100, 100, 23, 23714, -16973, 5156, 5605, 5, 14, 1523740173.483, 17, 0, 1024, 1024, 1024, 1024, 0, 6, 3946, 3952, 3937, 3952, 3955, 3968, 0, 1, 5500, -89.900, 0.000, 64.000, 0.000, 0.000, -0.300, 0.0, , , , , , 99, , , 61, 61, 61
36.7673087, -118.8833943, 1.100, 14:09:33.583, 14, 0.00, 0.21, 92, -1.100, 0.900, 64.500, 1029, 100, 100, 23, 23714, -16973, 5156, 5605, 5, 14, 1523740173.583, 19, 0, 1024, 1024, 1024, 1024, 0, 6, 3946, 3952, 3937, 3952, 3955, 3968, 0, 1, 5600, -89.900, 0.000, 64.000, 0.000, 0.000, -0.500, 0.0, , , , , , 99, , , 61, 61, 61
36.7673087, -118.8833942, 1.200, 14:09:33.684, 12, 0.00, 0.22, 92, -1.300, 1.000, 64.300, 1029, 100, 100, 23, 23714, -16973, 5156, 5605, 5, 14, 1523740173.684, 20, 0, 1024, 1024, 1024, 1024, 0, 6, 3946, 3952, 3937, 3952, 3955, 3968, 0, 1, 5701, -89.900, 0.000, 64.000, 0.000, 0.000, -0.500, 0.0, , , , , , 99, , , 61, 61, 61
36.7673086, -118.8833942, 1.200, 14:09:33.783, 12, 0.00, 0.22, 92, -1.400, 1.000, 64.200, 1029, 100, 100, 23, 23714, -16973, 5156, 5605, 5, 14, 1523740173.783, 7, 0, 1024, 1024, 1024, 1024, 0, 6, 3946, 3952, 3937, 3952, 3955, 3968, 0, 1, 5800, -89.900, 0.000, 64.000, 0.000, 0.000, -0.700, 0.0, , , , , , 99, , , 61, 61, 61
36.7673086, -118.8833940, 1.300, 14:09:33.883, 12, 0.00, 0.23, 92, -1.500, 0.800, 64.200, 1029, 100, 100, 23, 23714, -16973, 5156, 5605, 5, 14, 1523740173.883, 12, 0, 1024, 1024, 1024, 1024, 0, 6, 3946, 3952, 3937, 3952, 3955, 3968, 0, 1, 5901, -89.900, 0.000, 64.000, 0.000, 0.000, -1.000, 0.0, , , , , , 99, , , 61, 61, 61
36.7673086, -118.8833940, 1.300, 14:09:33.986, 12, 0.00, 0.23, 92, -1.500, 0.800, 64.200, 1029, 100, 97, 23, 23714, -16973, 5156, 5605, 5, 14, 1523740173.987, 115, 0, 1024, 1024, 1024, 1024, 0, 6, 3946, 3952, 3937, 3952, 3955, 3968, 0, 1, 6004, -89.900, 0.000, 64.000, 0.000, 0.000, -1.000, 0.0, , , , , , 99, , , 61, 61, 61
36.7673086, -118.8833940, 1.300, 14:09:34.083, 12, 0.00, 0.23, 92, -1.500, 0.800, 64.200, 1029, 100, 97, 23, 23714, -16973, 5156, 5605, 5, 14, 1523740174.084, 213, 0, 1024, 1024, 1024, 1024, 0, 6, 3946, 3952, 3937, 3952, 3955, 3968, 0, 1, 6101, -89.900, 0.000, 64.000, 0.000, 0.000, -1.000, 0.0, , , , , , 99, , , 61, 61, 61
36.7673086, -118.8833937, 1.600, 14:09:34.184, 13, 0.00, 0.22, 92, -1.700, 0.800, 64.300, 1029, 100, 97, 23, 23714, -16973, 5156, 5605, 5, 14, 1523740174.184, 97, 0, 1024, 1024, 1024, 1024, 0, 6, 3946, 3952, 3937, 3952, 3955, 3968, 0, 1, 6201, -89.900, 0.000, 64.000, 0.000, 0.000, -1.300, 0.0, , , , , , 99, , , 61, 61, 61
36.7673088, -118.8833935, 1.700, 14:09:34.284, 13, 0.00, 0.21, 92, -1.800, 1.100, 64.300, 1029, 100, 97, 23, 23714, -16973, 5156, 5605, 5, 14, 1523740174.284, 83, 0, 1024, 1024, 1024, 1024, 0, 6, 3946, 3952, 3937, 3952, 3955, 3968, 0, 1, 6301, -89.900, 0.000, 64.000, 0.000, 0.000, -1.600, 0.0, , , , , , 99, , , 61, 61, 61
36.7673088, -118.8833934, 1.900, 14:09:34.383, 11, 0.00, 0.21, 92, -1.400, 1.500, 64.400, 1029, 100, 97, 23, 23714, -16973, 5156, 5605, 5, 14, 1523740174.383, 83, 0, 1024, 1024, 1024, 1024, 0, 6, 3946, 3952, 3937, 3952, 3955, 3968, 0, 1, 6400, -89.900, 0.000, 64.000, 0.000, 0.000, -1.800, 0.0, , , , , , 99, , , 61, 61, 61
36.7673088, -118.8833932, 2.100, 14:09:34.483, 11, 0.00, 0.21, 92, -1.200, 1.600, 64.400, 1029, 100, 97, 23, 23574, -16527, 5156, 5605, 5, 14, 1523740174.484, 76, 0, 1024, 1024, 1024, 1024, 0, 6, 3907, 3909, 3927, 3931, 3919, 3927, 0, 1, 6501, -90.000, 0.000, 64.000, 0.000, 0.000, -2.100, 0.0, , , , , , 99, , , 61, 61, 61
36.7673091, -118.8833934, 2.600, 14:09:34.583, 12, 0.00, 0.17, 92, -0.500, 1.000, 64.600, 1029, 100, 93, 23, 23574, -16527, 5156, 5605, 5, 14, 1523740174.584, 57, 0, 1024, 1024, 1024, 1024, 0, 6, 3907, 3909, 3927, 3931, 3919, 3927, 0, 1, 6601, -90.000, 0.000, 64.000, 0.000, 0.000, -2.500, 0.0, , , , , , 99, , , 61, 61, 61
36.7673091, -118.8833934, 2.600, 14:09:34.684, 12, 0.00, 0.17, 92, -0.500, 1.000, 64.600, 1029, 100, 93, 23, 23574, -16527, 5156, 5605, 5, 14, 1523740174.684, 157, 0, 1024, 1024, 1024, 1024, 0, 6, 3907, 3909, 3927, 3931, 3919, 3927, 0, 1, 6701, -89.900, 0.000, 64.000, 0.000, 0.000, -2.500, 0.0, , , , , , 99, , , 61, 61, 61
36.7673093, -118.8833934, 3.100, 14:09:34.784, 12, 0.00, 0.15, 92, 0.400, 1.000, 64.600, 1029, 100, 93, 23, 23574, -16527, 5156, 5605, 5, 14, 1523740174.784, 70, 0, 1024, 1024, 1024, 1024, 0, 6, 3907, 3909, 3927, 3931, 3919, 3927, 0, 1, 6801, -89.900, 0.000, 64.000, 0.000, 0.000, -2.800, 0.0, , , , , , 99, , , 61, 61, 61
36.7673094, -118.8833934, 3.500, 14:09:34.883, 12, 0.00, 0.15, 92, 0.300, 1.300, 64.700, 1029, 100, 93, 23, 23574, -16527, 5156, 5605, 5, 14, 1523740174.884, 59, 0, 1024, 1024, 1024, 1024, 0, 6, 3907, 3909, 3927, 3931, 3919, 3927, 0, 1, 6901, -89.900, 0.000, 64.000, 0.000, 0.000, -3.100, 0.0, , , , , , 99, , , 61, 61, 61
36.7673095, -118.8833933, 3.800, 14:09:34.983, 12, 0.00, 0.14, 92, 0.300, 1.500, 64.800, 1029, 100, 93, 23, 23574, -16527, 5156, 5605, 5, 14, 1523740174.983, 78, 0, 1024, 1024, 1024, 1024, 0, 6, 3907, 3909, 3927, 3931, 3919, 3927, 0, 1, 7000, -89.900, 0.000, 64.000, 0.000, 0.000, -3.200, 0.0, , , , , , 99, , , 61, 61, 61
36.7673095, -118.8833933, 4.100, 14:09:35.083, 13, 0.00, 0.14, 92, 0.200, 1.700, 64.900, 1029, 100, 93, 23, 23574, -16527, 5156, 5605, 5, 14, 1523740175.084, 73, 0, 1024, 1024, 1024, 1024, 0, 6, 3907, 3909, 3927, 3931, 3919, 3927, 0, 1, 7101, -89.900, 0.000, 64.000, 0.000, 0.000, -3.200, 0.0, , , , , , 99, , , 61, 61, 61
36.7673095, -118.8833932, 4.500, 14:09:35.184, 13, 0.00, 0.14, 92, 0.100, 1.800, 65.000, 1029, 100, 93, 23, 23574, -16527, 5156, 5605, 5, 14, 1523740175.184, 38, 0, 1024, 1024, 1024, 1024, 0, 6, 3907, 3909, 3927, 3931, 3919, 3927, 0, 1, 7201, -89.900, 0.000, 64.000, 0.000, 0.000, -3.200, 0.0, , , , , , 99, , , 61, 61, 61
36.7673097, -118.8833932, 4.800, 14:09:35.284, 13, 0.00, 0.12, 92, -0.100, 1.700, 65.000, 1029, 100, 93, 23, 23574, -16527, 5156, 5605, 5, 14, 1523740175.284, 35, 0, 1024, 1024, 1024, 1024, 0, 6, 3907, 3909, 3927, 3931, 3919, 3927, 0, 1, 7301, -89.900, 0.000, 64.000, 0.000, 0.000, -3.200, 0.0, , , , , , 99, , , 61, 61, 61
36.7673098, -118.8833932, 5.200, 14:09:35.384, 13, 0.00, 0.11, 92, 0.000, 1.600, 65.000, 1029, 100, 93, 23, 23015, -24155, 5156, 5605, 5, 14, 1523740175.384, 48, 0, 1024, 1024, 1024, 1024, 0, 6, 3907, 3909, 3927, 3931, 3919, 3927, 0, 1, 7401, -89.900, 0.000, 64.000, 0.000, 0.000, -3.200, 0.0, , , , , , 99, , , 61, 61, 61
36.7673098, -118.8833931, 5.500, 14:09:35.484, 12, 0.00, 0.11, 92, 0.200, 1.500, 64.900, 1029, 100, 100, 23, 23015, -24155, 5156, 5605, 5, 14, 1523740175.484, 43, 0, 1024, 1024, 1024, 1024, 0, 6, 3907, 3909, 3927, 3931, 3919, 3927, 0, 1, 7501, -90.000, 0.000, 64.000, 0.000, 0.000, -3.200, 0.0, , , , , , 99, , , 61, 61, 61
36.7673098, -118.8833931, 5.900, 14:09:35.583, 12, 0.00, 0.12, 92, 0.100, 1.400, 64.700, 1029, 100, 100, 23, 23015, -24155, 5156, 5605, 5, 14, 1523740175.584, 41, 0, 1024, 1024, 1024, 1024, 0, 6, 3907, 3909, 3927, 3931, 3919, 3927, 0, 1, 7601, -89.900, 0.000, 64.000, 0.000, 0.000, -3.200, 0.0, , , , , , 99, , , 61, 61, 61
36.7673095, -118.8833931, 6.200, 14:09:35.683, 15, 0.00, 0.15, 92, -0.300, 1.200, 64.600, 1029, 100, 100, 23, 23015, -24155, 5156, 5605, 5, 14, 1523740175.684, 47, 0, 1024, 1024, 1024, 1024, 0, 6, 3907, 3909, 3927, 3931, 3919, 3927, 0, 1, 7701, -89.900, 0.000, 64.000, 0.000, 0.000, -3.200, 0.0, , , , , , 99, , , 61, 61, 61
36.7673091, -118.8833932, 6.500, 14:09:35.783, 15, 0.10, 0.18, 92, -1.200, 0.600, 64.600, 1029, 100, 100, 23, 23015, -24155, 5156, 5605, 5, 14, 1523740175.784, 16, 0, 1024, 1024, 1024, 1024, 0, 6, 3907, 3909, 3927, 3931, 3919, 3927, 0, 1, 7801, -90.000, 0.000, 64.000, -0.100, 0.000, -3.100, 0.0, , , , , , 99, , , 61, 61, 61
36.7673087, -118.8833931, 6.900, 14:09:35.883, 15, 0.10, 0.23, 92, -2.000, 0.100, 64.600, 1029, 100, 100, 23, 23015, -24155, 5156, 5605, 5, 14, 1523740175.884, 13, 0, 1024, 1024, 1024, 1024, 0, 6, 3907, 3909, 3927, 3931, 3919, 3927, 0, 1, 7901, -90.000, 0.000, 64.000, -0.100, 0.000, -3.100, 0.0, , , , , , 99, , , 61, 61, 61
36.7673083, -118.8833931, 7.200, 14:09:35.984, 15, 0.10, 0.27, 92, -2.900, 0.000, 64.600, 1029, 100, 100, 23, 23015, -24155, 5156, 5605, 5, 14, 1523740175.984, 30, 0, 1024, 1024, 1024, 1024, 0, 6, 3817, 3843, 3803, 3849, 3837, 3845, 0, 1, 8001, -90.000, 0.000, 64.000, -0.100, 0.000, -3.100, 0.0, , , , , , 99, , , 61, 61, 61
36.7673083, -118.8833931, 7.200, 14:09:36.085, 15, 0.10, 0.27, 92, -2.900, 0.000, 64.600, 1029, 100, 100, 23, 23015, -24155, 5156, 5605, 5, 14, 1523740176.086, 131, 0, 1024, 1024, 1024, 1024, 0, 6, 3817, 3843, 3803, 3849, 3837, 3845, 0, 1, 8103, -90.000, 0.000, 64.000, -0.100, 0.000, -3.100, 0.0, , , , , , 99, , , 61, 61, 61
36.7673081, -118.8833931, 7.500, 14:09:36.183, 14, 0.10, 0.30, 92, -3.600, 0.000, 64.400, 1029, 100, 100, 23, 23015, -24155, 5156, 5605, 5, 14, 1523740176.184, 95, 0, 1024, 1024, 1024, 1024, 0, 6, 3817, 3843, 3803, 3849, 3837, 3845, 0, 1, 8201, -90.000, 0.000, 64.000, -0.100, 0.000, -3.100, 0.0, , , , , , 99, , , 61, 61, 61
36.7673079, -118.8833930, 7.800, 14:09:36.283, 14, 0.00, 0.31, 92, -3.700, 0.300, 64.300, 1029, 100, 100, 23, 23015, -24155, 5156, 5605, 5, 14, 1523740176.283, 68, 0, 1024, 1024, 1024, 1024, 0, 6, 3817, 3843, 3803, 3849, 3837, 3845, 0, 1, 8300, -89.900, 0.000, 64.000, 0.000, 0.000, -3.100, 0.0, , , , , , 99, , , 61, 61, 61
36.7673080, -118.8833929, 8.200, 14:09:36.383, 16, 0.00, 0.30, 92, -3.300, 0.600, 64.200, 1029, 100, 100, 23, 23015, -24155, 5156, 5605, 5, 14, 1523740176.384, 88, 0, 1024, 1024, 1024, 1024, 0, 6, 3817, 3843, 3803, 3849, 3837, 3845, 0, 1, 8401, -89.900, 0.000, 64.000, 0.000, 0.000, -3.200, 0.0, , , , , , 99, , , 61, 61, 61
36.7673080, -118.8833929, 8.200, 14:09:36.483, 16, 0.00, 0.30, 92, -3.300, 0.600, 64.200, 1029, 100, 100, 23, 23015, -24155, 5156, 5605, 5, 14, 1523740176.484, 188, 0, 1024, 1024, 1024, 1024, 0, 6, 3817, 3843, 3803, 3849, 3837, 3845, 0, 1, 8501, -89.900, 0.000, 64.000, 0.000, 0.000, -3.200, 0.0, , , , , , 99, , , 61, 61, 61
36.7673087, -118.8833927, 9.200, 14:09:36.588, 16, 0.10, 0.24, 92, -0.100, 2.200, 64.200, 1029, 100, 96, 23, 23015, -24155, 5156, 5605, 5, 14, 1523740176.589, 4, 0, 1024, 1024, 1024, 1024, 0, 6, 3817, 3843, 3803, 3849, 3837, 3845, 0, 1, 8606, -89.900, 0.000, 64.000, 0.100, 0.000, -3.100, 0.0, , , , , , 99, , , 61, 61, 61
36.7673087, -118.8833927, 9.200, 14:09:36.684, 16, 0.10, 0.24, 92, -0.100, 2.200, 64.200, 1029, 100, 96, 23, 23015, -24155, 5156, 5605, 5, 14, 1523740176.684, 99, 0, 1024, 1024, 1024, 1024, 0, 6, 3817, 3843, 3803, 3849, 3837, 3845, 0, 1, 8701, -89.900, 0.000, 64.000, 0.100, 0.000, -3.100, 0.0, , , , , , 99, , , 61, 61, 61
36.7673088, -118.8833926, 9.500, 14:09:36.783, 15, 0.10, 0.24, 92, 0.400, 2.700, 64.300, 1029, 100, 96, 23, 23015, -24155, 5156, 5605, 5, 14, 1523740176.784, 89, 0, 1024, 1024, 1024, 1024, 0, 6, 3817, 3843, 3803, 3849, 3837, 3845, 0, 1, 8801, -89.900, 0.000, 64.000, 0.100, 0.000, -3.100, 0.0, , , , , , 99, , , 61, 61, 61
36.7673089, -118.8833925, 9.800, 14:09:36.883, 15, 0.10, 0.23, 92, 0.500, 2.900, 64.500, 1029, 100, 96, 23, 23015, -24155, 5156, 5605, 5, 14, 1523740176.884, 88, 0, 1024, 1024, 1024, 1024, 0, 6, 3817, 3843, 3803, 3849, 3837, 3845, 0, 1, 8901, -89.900, 0.000, 64.000, 0.100, 0.000, -3.100, 0.0, , , , , , 99, , , 61, 61, 61
36.7673090, -118.8833925, 10.200, 14:09:36.984, 16, 0.00, 0.23, 92, 0.300, 2.800, 64.700, 1029, 100, 96, 23, 23169, -20764, 5156, 5605, 5, 14, 1523740176.984, 56, 0, 1024, 1024, 1024, 1024, 0, 6, 3817, 3843, 3803, 3849, 3837, 3845, 0, 1, 9001, -89.900, 0.000, 64.000, 0.000, 0.000, -3.000, 0.0, , , , , , 99, , , 61, 61, 61
36.7673091, -118.8833925, 10.800, 14:09:37.084, 15, 0.00, 0.22, 92, 0.400, 2.300, 64.900, 1029, 100, 96, 23, 23169, -20764, 5156, 5605, 5, 14, 1523740177.084, 46, 0, 1024, 1024, 1024, 1024, 0, 6, 3817, 3843, 3803, 3849, 3837, 3845, 0, 1, 9101, -89.900, 0.000, 64.000, 0.000, 0.000, -2.900, 0.0, , , , , , 99, , , 61, 61, 61
36.7673091, -118.8833925, 11.100, 14:09:37.183, 15, 0.00, 0.21, 92, 0.200, 2.000, 64.800, 1029, 100, 96, 23, 23169, -20764, 5156, 5605, 5, 14, 1523740177.184, 32, 0, 1024, 1024, 1024, 1024, 0, 6, 3817, 3843, 3803, 3849, 3837, 3845, 0, 1, 9201, -89.900, 0.000, 64.000, 0.000, 0.000, -3.000, 0.0, , , , , , 99, , , 61, 61, 61
36.7673091, -118.8833925, 11.100, 14:09:37.283, 15, 0.00, 0.21, 92, 0.200, 2.000, 64.800, 1029, 100, 96, 23, 23169, -20764, 5156, 5605, 5, 14, 1523740177.284, 132, 0, 1024, 1024, 1024, 1024, 0, 6, 3817, 3843, 3803, 3849, 3837, 3845, 0, 1, 9301, -89.900, 0.000, 64.000, 0.000, 0.000, -3.000, 0.0, , , , , , 99, , , 61, 61, 61
36.7673091, -118.8833925, 11.400, 14:09:37.385, 16, 0.00, 0.21, 92, -0.300, 1.800, 64.600, 1029, 100, 96, 23, 23169, -20764, 5156, 5605, 5, 14, 1523740177.386, 83, 0, 1024, 1024, 1024, 1024, 0, 6, 3817, 3843, 3803, 3849, 3837, 3845, 0, 1, 9403, -90.000, 0.000, 64.000, 0.000, 0.000, -3.000, 0.0, , , , , , 99, , , 61, 61, 61
36.7673091, -118.8833924, 11.700, 14:09:37.483, 16, 0.00, 0.22, 92, -0.700, 1.700, 64.500, 1029, 100, 96, 23, 23169, -20764, 5156, 5605, 5, 14, 1523740177.484, 96, 0, 1024, 1024, 1024, 1024, 0, 6, 3859, 3853, 3855, 3861, 3871, 3895, 0, 1, 9501, -90.000, 0.000, 64.000, 0.000, 0.000, -2.900, 0.0, , , , , , 99, , , 61, 61, 61
36.7673090, -118.8833924, 12.000, 14:09:37.587, 17, 0.00, 0.22, 92, -1.000, 1.700, 64.300, 1029, 100, 96, 23, 23169, -20764, 5156, 5605, 5, 14, 1523740177.588, 6, 0, 1024, 1024, 1024, 1024, 0, 6, 3859, 3853, 3855, 3861, 3871, 3895, 0, 1, 9605, -90.000, 0.000, 64.000, 0.000, 0.000, -2.900, 0.0, , , , , , 99, , , 61, 61, 61
36.7673090, -118.8833925, 12.300, 14:09:37.683, 17, 0.00, 0.22, 92, -1.000, 1.600, 64.300, 1029, 100, 96, 23, 23169, -20764, 5156, 5605, 5, 14, 1523740177.684, 44, 0, 1024, 1024, 1024, 1024, 0, 6, 3859, 3853, 3855, 3861, 3871, 3895, 0, 1, 9701, -90.000, 0.000, 64.000, 0.000, 0.000, -2.900, 0.0, , , , , , 99, , , 61, 61, 61
36.7673090, -118.8833925, 12.300, 14:09:37.783, 17, 0.00, 0.22, 92, -1.000, 1.600, 64.300, 1029, 100, 96, 23, 23169, -20764, 5156, 5605, 5, 14, 1523740177.783, 144, 0, 1024, 1024, 1024, 1024, 0, 6, 3859, 3853, 3855, 3861, 3871, 3895, 0, 1, 9800, -90.000, 0.000, 64.000, 0.000, 0.000, -2.900, 0.0, , , , , , 99, , , 61, 61, 61
36.7673089, -118.8833926, 12.600, 14:09:37.884, 17, 0.00, 0.22, 92, -1.100, 1.500, 64.200, 1029, 100, 96, 23, 23169, -20764, 5156, 5605, 5, 14, 1523740177.884, 67, 0, 1024, 1024, 1024, 1024, 0, 6, 3859, 3853, 3855, 3861, 3871, 3895, 0, 1, 9901, -90.000, 0.000, 64.000, 0.000, 0.000, -2.900, 0.0, , , , , , 99, , , 61, 61, 61
36.7673089, -118.8833927, 12.900, 14:09:37.983, 17, 0.00, 0.22, 92, -1.100, 1.300, 64.300, 1029, 100, 96, 23, 23169, -20764, 5156, 5605, 5, 14, 1523740177.984, 53, 0, 1024, 1024, 1024, 1024, 0, 6, 3859, 3853, 3855, 3861, 3871, 3895, 0, 1, 10001, -90.000, 0.000, 64.000, 0.000, 0.000, -2.900, 0.0, , , , , , 99, , , 61, 61, 61
36.7673089, -118.8833928, 13.200, 14:09:38.084, 16, 0.00, 0.22, 92, -1.100, 1.100, 64.300, 1029, 100, 96, 23, 23269, -19185, 5156, 5605, 5, 14, 1523740178.084, 76, 0, 1024, 1024, 1024, 1024, 0, 6, 3859, 3853, 3855, 3861, 3871, 3895, 0, 1, 10101, -90.000, 0.000, 64.000, 0.000, 0.000, -3.000, 0.0, , , , , , 99, , , 61, 61, 61
36.7673089, -118.8833929, 13.500, 14:09:38.187, 16, 0.00, 0.22, 92, -1.000, 1.000, 64.400, 1029, 100, 100, 23, 23269, -19185, 5156, 5605, 5, 14, 1523740178.188, 10, 0, 1024, 1024, 1024, 1024, 0, 6, 3869, 3870, 3871, 3879, 3883, 3901, 0, 1, 10205, -90.000, 0.000, 64.000, 0.000, 0.000, -2.900, 0.0, , , , , , 99, , , 61, 61, 61
36.7673088, -118.8833930, 13.800, 14:09:38.283, 16, 0.10, 0.22, 92, -0.800, 0.900, 64.500, 1029, 100, 100, 23, 23269, -19185, 5156, 5605, 5, 14, 1523740178.284, 42, 0, 1024, 1024, 1024, 1024, 0, 6, 3869, 3870, 3871, 3879, 3883, 3901, 0, 1, 10301, -90.000, 0.000, 64.000, 0.000, -0.100, -3.000, 0.0, , , , , , 99, , , 61, 61, 61
36.7673089, -118.8833932, 14.400, 14:09:38.389, 16, 0.00, 0.21, 92, -0.500, 0.600, 64.600, 1029, 100, 100, 23, 23269, -19185, 5156, 5605, 5, 14, 1523740178.389, 5, 0, 1024, 1024, 1024, 1024, 0, 6, 3869, 3870, 3871, 3879, 3883, 3901, 0, 1, 10406, -90.000, 0.000, 64.000, 0.000, 0.000, -2.900, 0.0, , , , , , 99, , , 61, 61, 61
36.7673089, -118.8833932, 14.700, 14:09:38.483, 16, 0.00, 0.20, 92, -0.400, 0.600, 64.700, 1029, 100, 100, 23, 23269, -19185, 5156, 5605, 5, 14, 1523740178.484, 9, 0, 1024, 1024, 1024, 1024, 0, 6, 3869, 3870, 3871, 3879, 3883, 3901, 0, 1, 10501, -90.000, 0.000, 64.000, 0.000, 0.000, -3.000, 0.0, , , , , , 99, , , 61, 61, 61
36.7673089, -118.8833933, 15.100, 14:09:38.583, 16, 0.00, 0.20, 92, -0.400, 0.600, 64.700, 1029, 100, 100, 23, 23269, -19185, 5156, 5605, 5, 14, 1523740178.584, 16, 0, 1024, 1024, 1024, 1024, 0, 6, 3869, 3870, 3871, 3879, 3883, 3901, 0, 1, 10601, -90.000, 0.000, 64.000, 0.000, 0.000, -2.900, 0.0, , , , , , 99, , , 61, 61, 61
36.7673089, -118.8833934, 15.300, 14:09:38.683, 16, 0.00, 0.20, 92, -0.300, 0.600, 64.700, 1029, 100, 100, 23, 23269, -19185, 5156, 5605, 5, 14, 1523740178.683, 39, 0, 1024, 1024, 1024, 1024, 0, 6, 3869, 3870, 3871, 3879, 3883, 3901, 0, 1, 10700, -90.000, 0.000, 64.000, 0.000, 0.000, -2.900, 0.0, , , , , , 99, , , 61, 61, 61
36.7673090, -118.8833935, 15.900, 14:09:38.784, 17, 0.00, 0.19, 92, -0.300, 0.800, 64.600, 1029, 100, 100, 23, 23269, -19185, 5156, 5605, 5, 14, 1523740178.784, 18, 0, 1024, 1024, 1024, 1024, 0, 6, 3869, 3870, 3871, 3879, 3883, 3901, 0, 1, 10801, -90.000, 0.000, 64.000, 0.000, 0.000, -2.800, 0.0, , , , , , 99, , , 61, 61, 61
36.7673090, -118.8833935, 15.900, 14:09:38.883, 17, 0.00, 0.19, 92, -0.300, 0.800, 64.600, 1029, 100, 100, 23, 23269, -19185, 5156, 5605, 5, 14, 1523740178.884, 118, 0, 1024, 1024, 1024, 1024, 0, 6, 3869, 3870, 3871, 3879, 3883, 3901, 0, 1, 10901, -90.000, 0.000, 64.000, 0.000, 0.000, -2.800, 0.0, , , , , , 99, , , 61, 61, 61
36.7673090, -118.8833935, 15.900, 14:09:38.984, 17, 0.00, 0.19, 92, -0.300, 0.800, 64.600, 1029, 100, 100, 23, 23240, -19430, 5156, 5605, 5, 14, 1523740178.985, 218, 0, 1024, 1024, 1024, 1024, 0, 6, 3869, 3870, 3871, 3879, 3883, 3901, 0, 1, 11002, -90.000, 0.000, 64.000, 0.000, 0.000, -2.800, 0.0, , , , , , 99, , , 61, 61, 61
36.7673088, -118.8833937, 16.500, 14:09:39.083, 15, 0.00, 0.20, 92, -0.400, 0.800, 64.600, 1029, 100, 100, 23, 23240, -19430, 5156, 5605, 5, 14, 1523740179.083, 78, 0, 1024, 1024, 1024, 1024, 0, 6, 3870, 3861, 3862, 3882, 3870, 3892, 0, 1, 11100, -90.000, 0.000, 64.000, 0.000, 0.000, -2.900, 0.0, , , , , , 99, , , 61, 61, 61
36.7673088, -118.8833939, 16.800, 14:09:39.183, 16, 0.00, 0.21, 92, -0.600, 0.400, 64.600, 1029, 100, 100, 23, 23240, -19430, 5156, 5605, 5, 14, 1523740179.184, 78, 0, 1024, 1024, 1024, 1024, 0, 6, 3870, 3861, 3862, 3882, 3870, 3892, 0, 1, 11201, -90.000, 0.000, 64.000, 0.000, 0.000, -2.900, 0.0, , , , , , 99, , , 61, 61, 61
36.7673087, -118.8833940, 17.100, 14:09:39.283, 16, 0.00, 0.21, 92, -0.700, 0.000, 64.600, 1029, 100, 100, 23, 23240, -19430, 5156, 5605, 5, 14, 1523740179.283, 72, 0, 1024, 1024, 1024, 1024, 0, 6, 3870, 3861, 3862, 3882, 3870, 3892, 0, 1, 11300, -90.000, 0.000, 64.000, 0.000, 0.000, -2.900, 0.0, , , , , , 99, , , 61, 61, 61
36.7673087, -118.8833941, 17.500, 14:09:39.383, 16, 0.00, 0.22, 92, -0.800, 0.000, 64.500, 1029, 100, 100, 23, 23240, -19430, 5156, 5605, 5, 14, 1523740179.383, 86, 0, 1024, 1024, 1024, 1024, 0, 6, 3870, 3861, 3862, 3882, 3870, 3892, 0, 1, 11400, -89.900, 0.000, 64.000, 0.000, 0.000, -2.900, 0.0, , , , , , 99, , , 61, 61, 61
36.7673086, -118.8833943, 18.100, 14:09:39.483, 15, 0.00, 0.23, 92, -0.700, -0.100, 64.600, 1029, 100, 100, 23, 23240, -19430, 5156, 5605, 5, 14, 1523740179.484, 60, 0, 1024, 1024, 1024, 1024, 0, 6, 3870, 3861, 3862, 3882, 3870, 3892, 0, 1, 11501, -89.900, 0.000, 64.000, 0.000, 0.000, -2.900, 0.0, , , , , , 99, , , 61, 61, 61
36.7673086, -118.8833943, 18.100, 14:09:39.583, 15, 0.00, 0.23, 92, -0.700, -0.100, 64.600, 1029, 100, 99, 23, 23240, -19430, 5156, 5605, 5, 14, 1523740179.584, 160, 0, 1024, 1024, 1024, 1024, 0, 6, 3870, 3861, 3862, 3882, 3870, 3892, 0, 1, 11601, -90.000, 0.000, 64.000, 0.000, 0.000, -2.900, 0.0, , , , , , 99, , , 61, 61, 61
36.7673086, -118.8833945, 18.600, 14:09:39.683, 15, 0.00, 0.23, 92, -0.300, 0.000, 64.700, 1029, 100, 99, 23, 23240, -19430, 5156, 5605, 5, 14, 1523740179.684, 58, 0, 1024, 1024, 1024, 1024, 0, 6, 3870, 3861, 3862, 3882, 3870, 3892, 0, 1, 11701, -90.000, 0.000, 64.000, 0.000, 0.000, -2.900, 0.0, , , , , , 99, , , 61, 61, 61
36.7673086, -118.8833946, 18.900, 14:09:39.783, 15, 0.00, 0.23, 92, -0.100, 0.000, 64.700, 1029, 100, 99, 23, 23240, -19430, 5156, 5605, 5, 14, 1523740179.784, 53, 0, 1024, 1024, 1024, 1024, 0, 6, 3870, 3861, 3862, 3882, 3870, 3892, 0, 1, 11801, -90.000, 0.000, 64.000, 0.000, 0.000, -2.900, 0.0, , , , , , 99, , , 61, 61, 61
36.7673086, -118.8833947, 19.200, 14:09:39.883, 16, 0.00, 0.24, 92, -0.100, 0.000, 64.700, 1029, 100, 99, 23, 23258, -19221, 5156, 5605, 5, 14, 1523740179.884, 42, 0, 1024, 1024, 1024, 1024, 0, 6, 3862, 3869, 3846, 3885, 3884, 3882, 0, 1, 11901, -90.000, 0.000, 64.000, 0.000, 0.000, -2.900, 0.0, , , , , , 99, , , 61, 61, 61
36.7673086, -118.8833947, 19.500, 14:09:39.984, 16, 0.00, 0.24, 92, 0.000, 0.100, 64.700, 1029, 100, 99, 23, 23258, -19221, 5156, 5605, 5, 14, 1523740179.984, 43, 0, 1024, 1024, 1024, 1024, 0, 6, 3862, 3869, 3846, 3885, 3884, 3882, 0, 1, 12001, -90.000, 0.000, 64.000, 0.000, 0.000, -2.900, 0.0, , , , , , 99, , , 61, 61, 61
36.7673086, -118.8833948, 19.800, 14:09:40.083, 16, 0.00, 0.23, 92, 0.100, 0.200, 64.800, 1029, 100, 99, 23, 23258, -19221, 5156, 5605, 5, 14, 1523740180.084, 22, 0, 1024, 1024, 1024, 1024, 0, 6, 3862, 3869, 3846, 3885, 3884, 3882, 0, 1, 12101, -89.900, 0.000, 64.000, 0.000, 0.000, -2.900, 0.0, , , , , , 99, , , 61, 61, 61
36.7673087, -118.8833948, 20.100, 14:09:40.183, 16, 0.00, 0.23, 92, 0.100, 0.400, 64.800, 1029, 100, 99, 23, 23258, -19221, 5156, 5605, 5, 14, 1523740180.184, 33, 0, 1024, 1024, 1024, 1024, 0, 6, 3862, 3869, 3846, 3885, 3884, 3882, 0, 1, 12201, -89.900, 0.000, 64.000, 0.000, 0.000, -2.900, 0.0, , , , , , 99, , , 61, 61, 61
36.7673086, -118.8833949, 20.400, 14:09:40.283, 17, 0.00, 0.24, 92, -0.100, 0.400, 64.700, 1029, 100, 99, 23, 23258, -19221, 5156, 5605, 5, 14, 1523740180.284, 47, 0, 1024, 1024, 1024, 1024, 0, 6, 3862, 3869, 3846, 3885, 3884, 3882, 0, 1, 12301, -90.000, 0.000, 64.000, 0.000, 0.000, -2.900, 0.0, , , , , , 99, , , 61, 61, 61
36.7673086, -118.8833949, 20.700, 14:09:40.383, 17, 0.00, 0.25, 92, -0.400, 0.200, 64.600, 1029, 100, 99, 23, 23258, -19221, 5156, 5605, 5, 14, 1523740180.384, 48, 0, 1024, 1024, 1024, 1024, 0, 6, 3862, 3869, 3846, 3885, 3884, 3882, 0, 1, 12401, -89.900, 0.000, 64.000, 0.000, 0.000, -2.900, 0.0, , , , , , 99, , , 61, 61, 61
36.7673085, -118.8833949, 21.000, 14:09:40.483, 17, 0.00, 0.25, 92, -0.700, 0.200, 64.700, 1029, 100, 100, 23, 23258, -19221, 5156, 5605, 5, 14, 1523740180.484, 20, 0, 1024, 1024, 1024, 1024, 0, 6, 3862, 3869, 3846, 3885, 3884, 3882, 0, 1, 12501, -90.000, 0.000, 64.000, 0.000, 0.000, -2.900, 0.0, , , , , , 99, , , 61, 61, 61
36.7673085, -118.8833949, 21.300, 14:09:40.583, 17, 0.00, 0.25, 92, -0.800, 0.300, 64.800, 1029, 100, 100, 23, 23258, -19221, 5156, 5605, 5, 14, 1523740180.584, 26, 0, 1024, 1024, 1024, 1024, 0, 6, 3862, 3869, 3846, 3885, 3884, 3882, 0, 1, 12601, -90.000, 0.000, 64.000, 0.000, 0.000, -2.900, 0.0, , , , , , 99, , , 61, 61, 61
36.7673084, -118.8833949, 21.600, 14:09:40.684, 17, 0.00, 0.26, 92, -1.100, 0.400, 64.900, 1029, 100, 100, 23, 23258, -19221, 5156, 5605, 5, 14, 1523740180.684, 20, 0, 1024, 1024, 1024, 1024, 0, 6, 3862, 3869, 3846, 3885, 3884, 3882, 0, 1, 12701, -90.000, 0.000, 64.000, 0.000, 0.000, -2.900, 0.0, , , , , , 99, , , 61, 61, 61
36.7673084, -118.8833949, 21.600, 14:09:40.784, 17, 0.00, 0.26, 92, -1.100, 0.400, 64.900, 1029, 100, 100, 23, 23258, -19221, 5156, 5605, 5, 14, 1523740180.784, 119, 0, 1024, 1024, 1024, 1024, 0, 6, 3862, 3869, 3846, 3885, 3884, 3882, 0, 1, 12801, -90.000, 0.000, 64.000, 0.000, 0.000, -2.900, 0.0, , , , , , 99, , , 61, 61, 61
36.7673083, -118.8833949, 22.200, 14:09:40.883, 17, 0.00, 0.28, 92, -1.300, 0.200, 65.100, 1029, 100, 100, 23, 23178, -19200, 5156, 5605, 5, 14, 1523740180.884, 23, 0, 1024, 1024, 1024, 1024, 0, 6, 3862, 3869, 3846, 3885, 3884, 3882, 0, 1, 12901, -90.000, 0.000, 64.000, 0.000, 0.000, -3.000, 0.0, , , , , , 99, , , 61, 61, 61
36.7673082, -118.8833950, 22.500, 14:09:40.983, 17, 0.00, 0.28, 92, -1.500, 0.000, 65.000, 1029, 100, 100, 23, 23178, -19200, 5156, 5605, 5, 14, 1523740180.984, 27, 0, 1024, 1024, 1024, 1024, 0, 6, 3862, 3869, 3846, 3885, 3884, 3882, 0, 1, 13001, -90.000, 0.000, 64.000, 0.000, 0.000, -2.900, 0.0, , , , , , 99, , , 61, 61, 61
36.7673082, -118.8833950, 22.800, 14:09:41.083, 16, 0.00, 0.29, 92, -1.900, -0.100, 64.800, 1029, 100, 100, 23, 23178, -19200, 5156, 5605, 5, 14, 1523740181.083, 16, 0, 1024, 1024, 1024, 1024, 0, 6, 3862, 3869, 3846, 3885, 3884, 3882, 0, 1, 13100, -90.000, 0.000, 64.000, 0.000, 0.000, -2.900, 0.0, , , , , , 99, , , 61, 61, 61
36.7673082, -118.8833950, 22.800, 14:09:41.184, 16, 0.00, 0.29, 92, -1.900, -0.100, 64.800, 1029, 100, 100, 23, 23178, -19200, 5156, 5605, 5, 14, 1523740181.184, 117, 0, 1024, 1024, 1024, 1024, 0, 6, 3862, 3869, 3846, 3885, 3884, 3882, 0, 1, 13201, -89.900, 0.000, 64.000, 0.000, 0.000, -2.900, 0.0, , , , , , 99, , , 61, 61, 61
36.7673081, -118.8833950, 23.400, 14:09:41.283, 17, 0.00, 0.30, 92, -2.100, -0.100, 64.500, 1029, 100, 100, 23, 23178, -19200, 5156, 5605, 5, 14, 1523740181.284, 16, 0, 1024, 1024, 1024, 1024, 0, 6, 3862, 3869, 3846, 3885, 3884, 3882, 0, 1, 13301, -90.000, 0.000, 64.000, 0.000, 0.000, -2.900, 0.0, , , , , , 99, , , 61, 61, 61
36.7673080, -118.8833949, 23.700, 14:09:41.384, 17, 0.00, 0.30, 92, -1.800, 0.000, 64.500, 1029, 100, 100, 23, 23178, -19200, 5156, 5605, 5, 14, 1523740181.385, 4, 0, 1024, 1024, 1024, 1024, 0, 6, 3862, 3869, 3846, 3885, 3884, 3882, 0, 1, 13402, -89.900, 0.000, 64.000, 0.000, 0.000, -2.900, 0.0, , , , , , 99, , , 61, 61, 61
36.7673080, -118.8833949, 23.700, 14:09:41.483, 17, 0.00, 0.30, 91, -1.800, 0.000, 64.500, 1029, 100, 100, 23, 23178, -19200, 5100, 5605, 5, 14, 1523740181.484, 103, 0, 1024, 1024, 1024, 1024, 0, 6, 3859, 3865, 3840, 3861, 3865, 3881, 0, 1, 13501, -89.900, 0.000, 64.000, 0.000, 0.000, -2.900, 0.0, , , , , , 99, , , 61, 61, 61
36.7673080, -118.8833950, 24.000, 14:09:41.583, 17, 0.00, 0.31, 91, -1.600, 0.300, 64.500, 1029, 100, 100, 23, 23178, -19200, 5100, 5605, 5, 14, 1523740181.584, 94, 0, 1024, 1024, 1024, 1024, 0, 6, 3859, 3865, 3840, 3861, 3865, 3881, 0, 1, 13601, -90.000, 0.000, 64.000, 0.000, 0.000, -2.900, 0.0, , , , , , 99, , , 61, 61, 61
36.7673079, -118.8833950, 24.300, 14:09:41.683, 17, 0.00, 0.32, 91, -1.800, 0.300, 64.500, 1029, 100, 100, 23, 23178, -19200, 5100, 5605, 5, 14, 1523740181.684, 87, 0, 1024, 1024, 1024, 1024, 0, 6, 3859, 3865, 3840, 3861, 3865, 3881, 0, 1, 13701, -90.000, 0.000, 64.000, 0.000, 0.000, -2.900, 0.0, , , , , , 99, , , 61, 61, 61
36.7673078, -118.8833950, 24.600, 14:09:41.783, 16, 0.00, 0.33, 91, -1.900, 0.200, 64.600, 1029, 100, 100, 23, 23178, -19200, 5100, 5605, 5, 14, 1523740181.783, 96, 0, 1024, 1024, 1024, 1024, 0, 6, 3859, 3865, 3840, 3861, 3865, 3881, 0, 1, 13800, -90.000, 0.000, 64.000, 0.000, 0.000, -2.900, 0.0, , , , , , 99, , , 61, 61, 61
36.7673077, -118.8833951, 25.200, 14:09:41.883, 17, 0.00, 0.34, 91, -1.900, -0.200, 65.000, 1029, 100, 100, 23, 23178, -19200, 5100, 5605, 5, 14, 1523740181.884, 82, 0, 1024, 1024, 1024, 1024, 0, 6, 3859, 3865, 3840, 3861, 3865, 3881, 0, 1, 13901, -90.000, 0.000, 64.000, 0.000, 0.000, -2.900, 0.0, , , , , , 99, , , 61, 61, 61
36.7673077, -118.8833951, 25.200, 14:09:41.983, 17, 0.00, 0.34, 91, -1.900, -0.200, 65.000, 1029, 100, 100, 23, 23178, -19200, 5100, 5605, 5, 14, 1523740181.984, 183, 0, 1024, 1024, 1024, 1024, 0, 6, 3859, 3865, 3840, 3861, 3865, 3881, 0, 1, 14001, -90.000, 0.000, 64.000, 0.000, 0.000, -2.900, 0.0, , , , , , 99, , , 61, 61, 61
36.7673075, -118.8833951, 25.800, 14:09:42.083, 17, 0.00, 0.36, 91, -2.200, -0.800, 65.400, 1029, 100, 100, 23, 23178, -19200, 5100, 5605, 5, 14, 1523740182.084, 72, 0, 1024, 1024, 1024, 1024, 0, 6, 3859, 3865, 3840, 3861, 3865, 3881, 0, 1, 14101, -90.000, 0.000, 64.000, 0.000, 0.000, -2.900, 0.0, , , , , , 99, , , 61, 61, 61
36.7673074, -118.8833951, 26.100, 14:09:42.183, 17, 0.00, 0.37, 91, -2.300, -0.900, 65.300, 1029, 100, 100, 23, 23178, -19200, 5100, 5605, 5, 14, 1523740182.183, 57, 0, 1024, 1024, 1024, 1024, 0, 6, 3859, 3865, 3840, 3861, 3865, 3881, 0, 1, 14200, -89.900, 0.000, 64.000, 0.000, 0.000, -2.800, 0.0, , , , , , 99, , , 61, 61, 61
36.7673074, -118.8833951, 26.400, 14:09:42.283, 17, 0.00, 0.38, 91, -2.600, -1.000, 65.100, 1029, 100, 100, 23, 23178, -19200, 5100, 5605, 5, 14, 1523740182.284, 41, 0, 1024, 1024, 1024, 1024, 0, 6, 3859, 3865, 3840, 3861, 3865, 3881, 0, 1, 14301, -90.000, 0.000, 64.000, 0.000, 0.000, -2.900, 0.0, , , , , , 99, , , 61, 61, 61
36.7673073, -118.8833950, 26.700, 14:09:42.383, 17, 0.00, 0.38, 91, -3.300, -1.000, 64.700, 1029, 100, 100, 23, 23178, -19200, 5100, 5605, 5, 14, 1523740182.384, 18, 0, 1024, 1024, 1024, 1024, 0, 6, 3859, 3865, 3840, 3861, 3865, 3881, 0, 1, 14401, -89.900, 0.000, 64.000, 0.000, 0.000, -2.900, 0.0, , , , , , 99, , , 61, 61, 61
36.7673072, -118.8833950, 27.000, 14:09:42.483, 17, 0.00, 0.39, 91, -3.600, -0.600, 64.400, 1029, 100, 100, 23, 23158, -19022, 5100, 5605, 5, 14, 1523740182.484, 41, 0, 1024, 1024, 1024, 1024, 0, 6, 3845, 3854, 3840, 3857, 3865, 3877, 0, 1, 14501, -89.900, 0.000, 64.000, 0.000, 0.000, -2.900, 0.0, , , , , , 99, , , 61, 61, 61
36.7673072, -118.8833949, 27.300, 14:09:42.583, 17, 0.00, 0.40, 91, -3.600, -0.100, 64.200, 1029, 100, 100, 23, 23158, -19022, 5100, 5605, 5, 14, 1523740182.584, 44, 0, 1024, 1024, 1024, 1024, 0, 6, 3845, 3854, 3840, 3857, 3865, 3877, 0, 1, 14601, -89.900, 0.000, 64.000, 0.000, 0.000, -2.900, 0.0, , , , , , 99, , , 61, 61, 61
36.7673071, -118.8833949, 27.600, 14:09:42.683, 17, 0.00, 0.40, 91, -3.100, 0.000, 64.200, 1029, 100, 100, 23, 23158, -19022, 5100, 5605, 5, 14, 1523740182.684, 59, 0, 1024, 1024, 1024, 1024, 0, 6, 3845, 3854, 3840, 3857, 3865, 3877, 0, 1, 14701, -89.900, 0.000, 64.000, 0.000, 0.000, -2.900, 0.0, , , , , , 99, , , 61, 61, 61
36.7673072, -118.8833948, 27.900, 14:09:42.783, 17, 0.00, 0.39, 91, -2.800, 0.100, 64.200, 1029, 100, 100, 23, 23158, -19022, 5100, 5605, 5, 14, 1523740182.784, 53, 0, 1024, 1024, 1024, 1024, 0, 6, 3845, 3854, 3840, 3857, 3865, 3877, 0, 1, 14801, -89.900, 0.000, 64.000, 0.000, 0.000, -2.900, 0.0, , , , , , 99, , , 61, 61, 61
36.7673071, -118.8833948, 28.200, 14:09:42.884, 17, 0.00, 0.40, 91, -2.700, 0.200, 64.300, 1029, 100, 100, 23, 23158, -19022, 5100, 5605, 5, 14, 1523740182.885, 40, 0, 1024, 1024, 1024, 1024, 0, 6, 3845, 3854, 3840, 3857, 3865, 3877, 0, 1, 14902, -89.900, 0.000, 64.000, 0.000, 0.000, -2.900, 0.0, , , , , , 99, , , 61, 61, 61
36.7673071, -118.8833947, 28.500, 14:09:42.983, 17, 0.00, 0.40, 91, -2.700, 0.400, 64.500, 1029, 100, 100, 23, 23158, -19022, 5100, 5605, 5, 14, 1523740182.984, 17, 0, 1024, 1024, 1024, 1024, 0, 6, 3845, 3854, 3840, 3857, 3865, 3877, 0, 1, 15001, -89.900, 0.000, 64.000, 0.000, 0.000, -2.900, 0.0, , , , , , 99, , , 61, 61, 61
36.7673071, -118.8833947, 28.800, 14:09:43.083, 17, 0.00, 0.40, 91, -2.500, 0.500, 64.600, 1029, 100, 100, 23, 23158, -19022, 5100, 5605, 5, 14, 1523740183.084, 23, 0, 1024, 1024, 1024, 1024, 0, 6, 3845, 3854, 3840, 3857, 3865, 3877, 0, 1, 15101, -89.900, 0.000, 64.000, 0.000, 0.000, -2.800, 0.0, , , , , , 99, , , 61, 61, 61
36.7673072, -118.8833947, 29.100, 14:09:43.187, 17, 0.00, 0.39, 91, -2.400, 0.500, 64.700, 1029, 100, 100, 23, 23158, -19022, 5100, 5605, 5, 14, 1523740183.187, 10, 0, 1024, 1024, 1024, 1024, 0, 6, 3845, 3854, 3840, 3857, 3865, 3877, 0, 1, 15204, -89.900, 0.000, 64.000, 0.000, 0.000, -2.900, 0.0, , , , , , 99, , , 61, 61, 61
36.7673072, -118.8833946, 29.400, 14:09:43.284, 17, 0.00, 0.39, 91, -2.400, 0.500, 64.900, 1029, 100, 100, 23, 23158, -19022, 5100, 5605, 5, 14, 1523740183.284, 15, 0, 1024, 1024, 1024, 1024, 0, 6, 3845, 3854, 3840, 3857, 3865, 3877, 0, 1, 15301, -89.900, 0.000, 64.000, 0.000, 0.000, -2.900, 0.0, , , , , , 99, , , 61, 61, 61
36.7673072, -118.8833946, 29.700, 14:09:43.383, 17, 0.00, 0.39, 91, -2.400, 0.500, 65.100, 1029, 100, 100, 23, 23102, -19639, 5100, 5605, 5, 14, 1523740183.384, 9, 0, 1024, 1024, 1024, 1024, 0, 6, 3845, 3854, 3840, 3857, 3865, 3877, 0, 1, 15401, -89.900, 0.000, 64.000, 0.000, 0.000, -2.900, 0.0, , , , , , 99, , , 61, 61, 61
36.7673072, -118.8833946, 29.700, 14:09:43.484, 17, 0.00, 0.39, 91, -2.400, 0.500, 65.100, 1029, 100, 100, 23, 23102, -19639, 5100, 5605, 5, 14, 1523740183.485, 109, 0, 1024, 1024, 1024, 1024, 0, 6, 3838, 3841, 3835, 3854, 3858, 3877, 0, 1, 15502, -90.000, 0.000, 64.000, 0.000, 0.000, -2.900, 0.0, , , , , , 99, , , 61, 61, 61
36.7673072, -118.8833946, 30.200, 14:09:43.587, 17, 0.00, 0.39, 91, -2.300, 0.000, 65.100, 1029, 100, 100, 23, 23102, -19639, 5100, 5605, 5, 14, 1523740183.588, 5, 0, 1024, 1024, 1024, 1024, 0, 6, 3838, 3841, 3835, 3854, 3858, 3877, 0, 1, 15605, -89.900, 0.000, 64.000, 0.000, 0.000, -2.900, 0.0, , , , , , 99, , , 61, 61, 61
36.7673072, -118.8833945, 30.500, 14:09:43.684, 17, 0.00, 0.38, 91, -2.200, 0.100, 64.800, 1029, 100, 100, 23, 23102, -19639, 5100, 5605, 5, 14, 1523740183.685, 5, 0, 1024, 1024, 1024, 1024, 0, 6, 3838, 3841, 3835, 3854, 3858, 3877, 0, 1, 15702, -89.900, 0.000, 64.000, 0.000, 0.000, -2.900, 0.0, , , , , , 99, , , 61, 61, 61
36.7673072, -118.8833945, 30.500, 14:09:43.783, 17, 0.00, 0.38, 91, -2.200, 0.100, 64.800, 1029, 100, 100, 23, 23102, -19639, 5100, 5605, 5, 14, 1523740183.784, 104, 0, 1024, 1024, 1024, 1024, 0, 6, 3838, 3841, 3835, 3854, 3858, 3877, 0, 1, 15801, -89.900, 0.000, 64.000, 0.000, 0.000, -2.900, 0.0, , , , , , 99, , , 61, 61, 61
36.7673072, -118.8833944, 30.800, 14:09:43.884, 17, 0.00, 0.38, 91, -2.300, 0.200, 64.600, 1029, 100, 100, 23, 23102, -19639, 5100, 5605, 5, 14, 1523740183.884, 71, 0, 1024, 1024, 1024, 1024, 0, 6, 3838, 3841, 3835, 3854, 3858, 3877, 0, 1, 15901, -89.900, 0.000, 64.000, 0.000, 0.000, -2.900, 0.0, , , , , , 99, , , 61, 61, 61
36.7673073, -118.8833943, 31.400, 14:09:43.984, 17, 0.00, 0.37, 91, -2.200, 1.200, 64.400, 1029, 100, 100, 23, 23102, -19639, 5100, 5605, 5, 14, 1523740183.984, 70, 0, 1024, 1024, 1024, 1024, 0, 6, 3838, 3841, 3835, 3854, 3858, 3877, 0, 1, 16001, -89.900, 0.000, 64.000, 0.000, 0.000, -2.800, 0.0, , , , , , 99, , , 61, 61, 61
36.7673074, -118.8833943, 31.700, 14:09:44.083, 17, 0.00, 0.37, 91, -1.900, 1.200, 64.500, 1029, 100, 99, 23, 23102, -19639, 5100, 5605, 5, 14, 1523740184.083, 65, 0, 1024, 1024, 1024, 1024, 0, 6, 3838, 3841, 3835, 3854, 3858, 3877, 0, 1, 16100, -90.000, 0.000, 64.000, 0.000, 0.000, -2.900, 0.0, , , , , , 99, , , 61, 61, 61
36.7673074, -118.8833943, 31.900, 14:09:44.183, 17, 0.00, 0.36, 91, -1.800, 1.000, 64.500, 1029, 100, 99, 23, 23102, -19639, 5100, 5605, 5, 14, 1523740184.184, 29, 0, 1024, 1024, 1024, 1024, 0, 6, 3838, 3841, 3835, 3854, 3858, 3877, 0, 1, 16201, -90.000, 0.000, 64.000, 0.000, 0.000, -2.900, 0.0, , , , , , 99, , , 61, 61, 61
36.7673074, -118.8833943, 32.200, 14:09:44.283, 17, 0.00, 0.36, 91, -1.900, 0.600, 64.500, 1029, 100, 99, 23, 23102, -19639, 5100, 5605, 5, 14, 1523740184.283, 54, 0, 1024, 1024, 1024, 1024, 0, 6, 3838, 3841, 3835, 3854, 3858, 3877, 0, 1, 16300, -90.000, 0.000, 64.000, 0.000, 0.000, -3.000, 0.0, , , , , , 99, , , 61, 61, 61
36.7673074, -118.8833942, 32.500, 14:09:44.383, 17, 0.00, 0.36, 91, -2.200, 0.300, 64.400, 1029, 100, 99, 23, 23035, -19963, 5100, 5605, 5, 14, 1523740184.384, 62, 0, 1024, 1024, 1024, 1024, 0, 6, 3824, 3838, 3808, 3835, 3842, 3857, 0, 1, 16401, -90.000, 0.000, 64.000, 0.000, 0.000, -3.000, 0.0, , , , , , 99, , , 61, 61, 61
36.7673074, -118.8833942, 32.800, 14:09:44.483, 17, 0.00, 0.36, 91, -2.600, 0.300, 64.400, 1029, 100, 99, 23, 23035, -19963, 5100, 5605, 5, 14, 1523740184.484, 37, 0, 1024, 1024, 1024, 1024, 0, 6, 3824, 3838, 3808, 3835, 3842, 3857, 0, 1, 16501, -90.000, 0.000, 64.000, 0.000, 0.000, -3.000, 0.0, , , , , , 99, , , 61, 61, 61
36.7673074, -118.8833942, 33.200, 14:09:44.583, 17, 0.00, 0.36, 91, -2.900, 0.500, 64.300, 1029, 100, 99, 23, 23035, -19963, 5100, 5605, 5, 14, 1523740184.584, 24, 0, 1024, 1024, 1024, 1024, 0, 6, 3824, 3838, 3808, 3835, 3842, 3857, 0, 1, 16601, -89.900, 0.000, 64.000, 0.000, 0.000, -3.000, 0.0, , , , , , 99, , , 61, 61, 61
36.7673074, -118.8833942, 33.500, 14:09:44.683, 17, 0.00, 0.36, 91, -3.100, 0.500, 64.300, 1029, 100, 99, 23, 23035, -19963, 5100, 5605, 5, 14, 1523740184.684, 29, 0, 1024, 1024, 1024, 1024, 0, 6, 3824, 3838, 3808, 3835, 3842, 3857, 0, 1, 16701, -89.900, 0.000, 64.000, 0.000, 0.000, -3.000, 0.0, , , , , , 99, , , 61, 61, 61
36.7673074, -118.8833942, 33.700, 14:09:44.783, 17, 0.00, 0.37, 91, -3.000, 0.300, 64.300, 1029, 100, 99, 23, 23035, -19963, 5100, 5605, 5, 14, 1523740184.784, 47, 0, 1024, 1024, 1024, 1024, 0, 6, 3824, 3838, 3808, 3835, 3842, 3857, 0, 1, 16801, -89.900, 0.000, 64.000, 0.000, 0.000, -3.000, 0.0, , , , , , 99, , , 61, 61, 61
36.7673073, -118.8833942, 34.000, 14:09:44.883, 17, 0.00, 0.37, 91, -2.800, 0.200, 64.400, 1029, 100, 99, 23, 23035, -19963, 5100, 5605, 5, 14, 1523740184.884, 43, 0, 1024, 1024, 1024, 1024, 0, 6, 3824, 3838, 3808, 3835, 3842, 3857, 0, 1, 16901, -89.900, 0.000, 64.000, 0.000, 0.000, -2.900, 0.0, , , , , , 99, , , 61, 61, 61
36.7673073, -118.8833942, 34.300, 14:09:44.983, 17, 0.00, 0.37, 91, -2.300, 0.200, 64.500, 1029, 100, 99, 23, 23035, -19963, 5100, 5605, 5, 14, 1523740184.984, 34, 0, 1024, 1024, 1024, 1024, 0, 6, 3824, 3838, 3808, 3835, 3842, 3857, 0, 1, 17001, -89.900, 0.000, 64.000, 0.000, 0.000, -3.000, 0.0, , , , , , 99, , , 61, 61, 61
36.7673074, -118.8833943, 34.600, 14:09:45.083, 17, 0.00, 0.37, 91, -2.300, 0.100, 64.600, 1029, 100, 99, 23, 23035, -19963, 5100, 5605, 5, 14, 1523740185.084, 35, 0, 1024, 1024, 1024, 1024, 0, 6, 3824, 3838, 3808, 3835, 3842, 3857, 0, 1, 17101, -89.900, 0.000, 64.000, 0.000, 0.000, -3.000, 0.0, , , , , , 99, , , 61, 61, 61
36.7673074, -118.8833943, 34.900, 14:09:45.202, 17, 0.00, 0.37, 91, -2.200, 0.100, 64.700, 1029, 100, 99, 23, 23035, -19963, 5100, 5605, 5, 14, 1523740185.202, 13, 0, 1024, 1024, 1024, 1024, 0, 6, 3824, 3838, 3808, 3835, 3842, 3857, 0, 1, 17219, -89.900, 0.000, 64.000, 0.000, 0.000, -3.100, 0.0, , , , , , 99, , , 61, 61, 61
36.7673073, -118.8833943, 35.200, 14:09:45.285, 17, 0.00, 0.37, 91, -2.200, 0.000, 64.700, 1029, 100, 99, 23, 23035, -19963, 5100, 5605, 5, 14, 1523740185.285, 6, 0, 1024, 1024, 1024, 1024, 0, 6, 3824, 3838, 3808, 3835, 3842, 3857, 0, 1, 17302, -89.900, 0.000, 64.000, 0.000, 0.000, -3.100, 0.0, , , , , , 99, , , 61, 61, 61
36.7673073, -118.8833943, 35.600, 14:09:45.387, 17, 0.00, 0.37, 91, -2.300, 0.100, 64.600, 1029, 100, 99, 23, 23010, -20172, 5100, 5605, 5, 14, 1523740185.388, 8, 0, 1024, 1024, 1024, 1024, 0, 6, 3824, 3838, 3808, 3835, 3842, 3857, 0, 1, 17405, -90.000, 0.000, 64.000, 0.000, 0.000, -3.100, 0.0, , , , , , 99, , , 61, 61, 61
36.7673073, -118.8833943, 35.900, 14:09:45.483, 17, 0.00, 0.37, 91, -2.500, 0.200, 64.600, 1029, 100, 100, 23, 23010, -20172, 5100, 5605, 5, 14, 1523740185.484, 14, 0, 1024, 1024, 1024, 1024, 0, 6, 3818, 3833, 3819, 3839, 3845, 3848, 0, 1, 17501, -89.900, 0.000, 64.000, 0.000, 0.000, -3.100, 0.0, , , , , , 99, , , 61, 61, 61
36.7673073, -118.8833943, 35.900, 14:09:45.583, 17, 0.00, 0.37, 91, -2.500, 0.200, 64.600, 1029, 100, 100, 23, 23010, -20172, 5100, 5605, 5, 14, 1523740185.584, 114, 0, 1024, 1024, 1024, 1024, 0, 6, 3818, 3833, 3819, 3839, 3845, 3848, 0, 1, 17601, -89.900, 0.000, 64.000, 0.000, 0.000, -3.100, 0.0, , , , , , 99, , , 61, 61, 61
36.7673073, -118.8833944, 36.200, 14:09:45.683, 17, 0.00, 0.37, 91, -2.500, 0.200, 64.500, 1029, 100, 100, 23, 23010, -20172, 5100, 5605, 5, 14, 1523740185.684, 70, 0, 1024, 1024, 1024, 1024, 0, 6, 3818, 3833, 3819, 3839, 3845, 3848, 0, 1, 17701, -89.900, 0.000, 64.000, 0.000, 0.000, -3.000, 0.0, , , , , , 99, , , 61, 61, 61
36.7673073, -118.8833944, 36.500, 14:09:45.783, 17, 0.00, 0.37, 91, -2.500, 0.200, 64.500, 1029, 100, 100, 23, 23010, -20172, 5100, 5605, 5, 14, 1523740185.784, 74, 0, 1024, 1024, 1024, 1024, 0, 6, 3818, 3833, 3819, 3839, 3845, 3848, 0, 1, 17801, -89.900, 0.000, 64.000, 0.000, 0.000, -3.000, 0.0, , , , , , 99, , , 61, 61, 61
36.7673073, -118.8833944, 36.800, 14:09:45.883, 17, 0.00, 0.37, 91, -2.500, 0.100, 64.500, 1029, 100, 100, 23, 23010, -20172, 5100, 5605, 5, 14, 1523740185.884, 76, 0, 1024, 1024, 1024, 1024, 0, 6, 3818, 3833, 3819, 3839, 3845, 3848, 0, 1, 17901, -90.000, 0.000, 64.000, 0.000, 0.000, -3.000, 0.0, , , , , , 99, , , 61, 61, 61
36.7673073, -118.8833944, 37.100, 14:09:45.983, 17, 0.00, 0.37, 91, -2.500, 0.100, 64.600, 1029, 100, 100, 23, 23010, -20172, 5100, 5605, 5, 14, 1523740185.984, 54, 0, 1024, 1024, 1024, 1024, 0, 6, 3818, 3833, 3819, 3839, 3845, 3848, 0, 1, 18001, -90.000, 0.000, 64.000, 0.000, 0.000, -3.000, 0.0, , , , , , 99, , , 61, 61, 61
36.7673073, -118.8833944, 37.700, 14:09:46.084, 17, 0.00, 0.37, 91, -2.400, 0.000, 64.600, 1029, 100, 99, 23, 23010, -20172, 5100, 5605, 5, 14, 1523740186.086, 53, 0, 1024, 1024, 1024, 1024, 0, 6, 3818, 3833, 3819, 3839, 3845, 3848, 0, 1, 18103, -90.000, 0.000, 64.000, 0.000, 0.000, -3.000, 0.0, , , , , , 99, , , 61, 61, 61
36.7673073, -118.8833945, 38.000, 14:09:46.183, 17, 0.00, 0.37, 91, -2.400, 0.000, 64.700, 1029, 100, 99, 23, 23010, -20172, 5100, 5605, 5, 14, 1523740186.183, 48, 0, 1024, 1024, 1024, 1024, 0, 6, 3818, 3833, 3819, 3839, 3845, 3848, 0, 1, 18200, -89.900, 0.000, 64.000, 0.000, 0.000, -2.900, 0.0, , , , , , 99, , , 61, 61, 61
36.7673073, -118.8833945, 38.300, 14:09:46.283, 17, 0.00, 0.37, 91, -2.400, 0.200, 64.700, 1029, 100, 99, 23, 23010, -20172, 5100, 5605, 5, 14, 1523740186.284, 71, 0, 1024, 1024, 1024, 1024, 0, 6, 3818, 3833, 3819, 3839, 3845, 3848, 0, 1, 18301, -89.900, 0.000, 64.000, 0.000, 0.000, -3.000, 0.0, , , , , , 99, , , 61, 61, 61
36.7673073, -118.8833945, 38.600, 14:09:46.383, 17, 0.00, 0.37, 91, -2.600, 0.300, 64.600, 1029, 100, 99, 23, 23010, -20172, 5100, 5605, 5, 14, 1523740186.384, 44, 0, 1024, 1024, 1024, 1024, 0, 6, 3818, 3833, 3819, 3839, 3845, 3848, 0, 1, 18401, -89.900, 0.000, 64.000, 0.000, 0.000, -3.000, 0.0, , , , , , 99, , , 61, 61, 61
36.7673073, -118.8833945, 38.900, 14:09:46.483, 17, 0.00, 0.38, 91, -2.600, 0.300, 64.600, 1029, 100, 99, 23, 23041, -19562, 5100, 5605, 5, 14, 1523740186.484, 31, 0, 1024, 1024, 1024, 1024, 0, 6, 3818, 3833, 3819, 3839, 3845, 3848, 0, 1, 18501, -89.900, 0.000, 64.000, 0.000, 0.000, -3.000, 0.0, , , , , , 99, , , 61, 61, 61
36.7673073, -118.8833945, 39.200, 14:09:46.583, 17, 0.00, 0.38, 91, -2.600, 0.300, 64.500, 1029, 100, 99, 23, 23041, -19562, 5100, 5605, 5, 14, 1523740186.584, 47, 0, 1024, 1024, 1024, 1024, 0, 6, 3824, 3848, 3815, 3841, 3843, 3863, 0, 1, 18601, -89.900, 0.000, 64.000, 0.000, 0.000, -3.100, 0.0, , , , , , 99, , , 61, 61, 61
36.7673073, -118.8833944, 39.500, 14:09:46.683, 17, 0.00, 0.37, 91, -2.600, 0.300, 64.500, 1029, 100, 99, 23, 23041, -19562, 5100, 5605, 5, 14, 1523740186.684, 45, 0, 1024, 1024, 1024, 1024, 0, 6, 3824, 3848, 3815, 3841, 3843, 3863, 0, 1, 18701, -89.900, 0.000, 64.000, 0.000, 0.000, -3.000, 0.0, , , , , , 99, , , 61, 61, 61
36.7673073, -118.8833944, 39.900, 14:09:46.783, 17, 0.00, 0.37, 91, -2.600, 0.300, 64.400, 1029, 100, 99, 23, 23041, -19562, 5100, 5605, 5, 14, 1523740186.784, 52, 0, 1024, 1024, 1024, 1024, 0, 6, 3824, 3848, 3815, 3841, 3843, 3863, 0, 1, 18801, -89.900, 0.000, 64.000, 0.000, 0.000, -3.000, 0.0, , , , , , 99, , , 61, 61, 61
36.7673073, -118.8833944, 40.200, 14:09:46.883, 17, 0.00, 0.37, 91, -2.600, 0.300, 64.300, 1029, 100, 99, 23, 23041, -19562, 5100, 5605, 5, 14, 1523740186.884, 39, 0, 1024, 1024, 1024, 1024, 0, 6, 3824, 3848, 3815, 3841, 3843, 3863, 0, 1, 18901, -89.900, 0.000, 64.000, 0.000, 0.000, -3.000, 0.0, , , , , , 99, , , 61, 61, 61
36.7673073, -118.8833944, 40.500, 14:09:46.983, 17, 0.00, 0.37, 91, -2.400, 0.300, 64.200, 1029, 100, 100, 23, 23041, -19562, 5100, 5605, 5, 14, 1523740186.984, 38, 0, 1024, 1024, 1024, 1024, 0, 6, 3824, 3848, 3815, 3841, 3843, 3863, 0, 1, 19001, -89.900, 0.000, 64.000, 0.000, 0.000, -2.900, 0.0, , , , , , 99, , , 61, 61, 61
36.7673073, -118.8833945, 40.700, 14:09:47.083, 17, 0.00, 0.37, 91, -2.100, 0.400, 64.200, 1029, 100, 100, 23, 23041, -19562, 5100, 5605, 5, 14, 1523740187.084, 44, 0, 1024, 1024, 1024, 1024, 0, 6, 3824, 3848, 3815, 3841, 3843, 3863, 0, 1, 19101, -89.900, 0.000, 64.000, 0.000, 0.000, -2.900, 0.0, , , , , , 99, , , 61, 61, 61
36.7673074, -118.8833945, 41.000, 14:09:47.205, 17, 0.00, 0.37, 91, -2.000, 0.400, 64.200, 1029, 100, 100, 23, 23041, -19562, 5100, 5605, 5, 14, 1523740187.205, 11, 0, 1024, 1024, 1024, 1024, 0, 6, 3824, 3848, 3815, 3841, 3843, 3863, 0, 1, 19222, -89.900, 0.000, 64.000, 0.000, 0.000, -2.900, 0.0, , , , , , 99, , , 61, 61, 61
36.7673074, -118.8833945, 41.000, 14:09:47.282, 17, 0.00, 0.37, 91, -2.000, 0.400, 64.200, 1029, 100, 100, 23, 23041, -19562, 5100, 5605, 5, 14, 1523740187.283, 89, 0, 1024, 1024, 1024, 1024, 0, 6, 3824, 3848, 3815, 3841, 3843, 3863, 0, 1, 19300, -89.900, 0.000, 64.000, 0.000, 0.000, -2.900, 0.0, , , , , , 99, , , 61, 61, 61
36.7673074, -118.8833945, 41.600, 14:09:47.383, 17, 0.00, 0.36, 91, -2.300, 0.400, 64.300, 1029, 100, 100, 23, 22990, -19373, 5100, 5605, 5, 14, 1523740187.383, 13, 0, 1024, 1024, 1024, 1024, 0, 6, 3824, 3848, 3815, 3841, 3843, 3863, 0, 1, 19400, -90.000, 0.000, 64.000, 0.000, 0.000, -3.000, 0.0, , , , , , 99, , , 61, 61, 61
36.7673074, -118.8833946, 41.900, 14:09:47.496, 17, 0.00, 0.36, 91, -2.200, 0.500, 64.500, 1029, 100, 100, 23, 22990, -19373, 5100, 5605, 5, 14, 1523740187.496, 12, 0, 1024, 1024, 1024, 1024, 0, 6, 3824, 3848, 3815, 3841, 3843, 3863, 0, 1, 19513, -89.900, 0.000, 64.000, 0.000, 0.000, -2.900, 0.0, , , , , , 99, , , 61, 61, 61
36.7673074, -118.8833946, 41.900, 14:09:47.583, 17, 0.00, 0.36, 91, -2.200, 0.500, 64.500, 1029, 100, 100, 23, 22990, -19373, 5100, 5605, 5, 14, 1523740187.584, 99, 0, 1024, 1024, 1024, 1024, 0, 6, 3824, 3848, 3815, 3841, 3843, 3863, 0, 1, 19601, -89.900, 0.000, 64.000, 0.000, 0.000, -2.900, 0.0, , , , , , 99, , , 61, 61, 61
36.7673074, -118.8833946, 42.200, 14:09:47.683, 17, 0.10, 0.36, 91, -2.100, 0.500, 64.600, 1029, 100, 100, 23, 22990, -19373, 5100, 5605, 5, 14, 1523740187.684, 97, 0, 1024, 1024, 1024, 1024, 0, 6, 3824, 3848, 3815, 3841, 3843, 3863, 0, 1, 19701, -89.900, 0.000, 64.000, 0.100, 0.000, -2.900, 0.0, , , , , , 99, , , 61, 61, 61
36.7673074, -118.8833946, 42.500, 14:09:47.783, 17, 0.10, 0.36, 91, -2.000, 0.300, 64.700, 1029, 100, 100, 23, 22990, -19373, 5100, 5605, 5, 14, 1523740187.784, 98, 0, 1024, 1024, 1024, 1024, 0, 6, 3824, 3848, 3815, 3841, 3843, 3863, 0, 1, 19801, -90.000, 0.000, 64.000, 0.100, 0.000, -2.900, 0.0, , , , , , 99, , , 61, 61, 61
36.7673075, -118.8833947, 42.800, 14:09:47.884, 17, 0.10, 0.36, 91, -2.000, 0.000, 64.700, 1029, 100, 100, 23, 22990, -19373, 5100, 5605, 5, 14, 1523740187.884, 89, 0, 1024, 1024, 1024, 1024, 0, 6, 3824, 3848, 3815, 3841, 3843, 3863, 0, 1, 19901, -90.000, 0.000, 64.000, 0.100, 0.000, -2.900, 0.0, , , , , , 99, , , 61, 61, 61
36.7673076, -118.8833947, 43.400, 14:09:47.985, 17, 0.10, 0.34, 91, -1.200, 0.100, 64.700, 1029, 100, 97, 23, 22990, -19373, 5100, 5605, 5, 14, 1523740187.986, 6, 0, 1024, 1024, 1024, 1024, 0, 6, 3823, 3826, 3822, 3841, 3855, 3849, 0, 1, 20003, -89.900, 0.000, 64.000, 0.100, 0.000, -2.900, 0.0, , , , , , 99, , , 61, 61, 61
36.7673076, -118.8833947, 43.400, 14:09:48.083, 17, 0.10, 0.34, 91, -1.200, 0.100, 64.700, 1029, 100, 97, 23, 22990, -19373, 5100, 5605, 5, 14, 1523740188.084, 104, 0, 1024, 1024, 1024, 1024, 0, 6, 3823, 3826, 3822, 3841, 3855, 3849, 0, 1, 20101, -89.900, 0.000, 64.000, 0.100, 0.000, -2.900, 0.0, , , , , , 99, , , 61, 61, 61
36.7673077, -118.8833947, 43.700, 14:09:48.183, 17, 0.10, 0.33, 91, -0.800, 0.600, 64.700, 1029, 100, 97, 23, 22990, -19373, 5100, 5605, 5, 14, 1523740188.184, 73, 0, 1024, 1024, 1024, 1024, 0, 6, 3823, 3826, 3822, 3841, 3855, 3849, 0, 1, 20201, -89.900, 0.000, 64.000, 0.100, 0.000, -2.900, 0.0, , , , , , 99, , , 61, 61, 61
36.7673078, -118.8833947, 43.900, 14:09:48.283, 17, 0.10, 0.32, 91, -0.600, 0.900, 64.700, 1029, 100, 97, 23, 22990, -19373, 5100, 5605, 5, 14, 1523740188.284, 90, 0, 1024, 1024, 1024, 1024, 0, 6, 3823, 3826, 3822, 3841, 3855, 3849, 0, 1, 20301, -90.000, 0.000, 64.000, 0.100, 0.000, -2.900, 0.0, , , , , , 99, , , 61, 61, 61
36.7673078, -118.8833947, 43.900, 14:09:48.384, 17, 0.10, 0.32, 91, -0.600, 0.900, 64.700, 1029, 100, 97, 23, 22990, -19373, 5100, 5605, 5, 14, 1523740188.384, 190, 0, 1024, 1024, 1024, 1024, 0, 6, 3823, 3826, 3822, 3841, 3855, 3849, 0, 1, 20401, -90.000, 0.000, 64.000, 0.100, 0.000, -2.900, 0.0, , , , , , 99, , , 61, 61, 61
36.7673079, -118.8833947, 44.800, 14:09:48.483, 17, 0.10, 0.31, 91, -0.600, 1.000, 64.600, 1029, 100, 97, 24, 22990, -19373, 5100, 5605, 5, 14, 1523740188.484, 29, 0, 1024, 1024, 1024, 1024, 0, 6, 3823, 3826, 3822, 3841, 3855, 3849, 0, 1, 20501, -89.900, 0.000, 64.000, 0.100, 0.000, -3.000, 0.0, , , , , , 99, , , 61, 61, 61
36.7673080, -118.8833947, 45.200, 14:09:48.583, 17, 0.10, 0.31, 91, -0.700, 0.900, 64.600, 1029, 100, 93, 24, 22990, -19373, 5100, 5605, 5, 14, 1523740188.584, 58, 0, 1024, 1024, 1024, 1024, 0, 6, 3823, 3826, 3822, 3841, 3855, 3849, 0, 1, 20601, -89.900, 0.000, 64.000, 0.100, 0.000, -3.000, 0.0, , , , , , 99, , , 61, 61, 61
36.7673080, -118.8833948, 45.500, 14:09:48.683, 17, 0.10, 0.30, 91, -0.900, 0.800, 64.600, 1029, 100, 93, 24, 22990, -19373, 5100, 5605, 5, 14, 1523740188.684, 57, 0, 1024, 1024, 1024, 1024, 0, 6, 3823, 3826, 3822, 3841, 3855, 3849, 0, 1, 20701, -89.900, 0.000, 64.000, 0.100, 0.000, -3.000, 0.0, , , , , , 99, , , 61, 61, 61
36.7673081, -118.8833948, 45.800, 14:09:48.783, 17, 0.10, 0.30, 91, -0.800, 0.800, 64.600, 1029, 100, 93, 24, 22990, -19373, 5100, 5605, 5, 14, 1523740188.784, 50, 0, 1024, 1024, 1024, 1024, 0, 6, 3823, 3826, 3822, 3841, 3855, 3849, 0, 1, 20801, -89.900, 0.000, 64.000, 0.100, 0.000, -3.000, 0.0, , , , , , 99, , , 61, 61, 61
36.7673081, -118.8833948, 46.100, 14:09:48.883, 17, 0.10, 0.29, 91, -0.800, 0.800, 64.500, 1029, 100, 93, 24, 22933, -19830, 5100, 5605, 5, 14, 1523740188.884, 54, 0, 1024, 1024, 1024, 1024, 0, 6, 3808, 3822, 3804, 3825, 3830, 3842, 0, 1, 20901, -89.900, 0.000, 64.000, 0.100, 0.000, -3.000, 0.0, , , , , , 99, , , 61, 61, 61
36.7673081, -118.8833948, 46.400, 14:09:48.983, 17, 0.10, 0.29, 91, -0.900, 0.800, 64.500, 1029, 100, 93, 24, 22933, -19830, 5100, 5605, 5, 14, 1523740188.984, 57, 0, 1024, 1024, 1024, 1024, 0, 6, 3808, 3822, 3804, 3825, 3830, 3842, 0, 1, 21001, -90.000, 0.000, 64.000, 0.100, 0.000, -3.000, 0.0, , , , , , 99, , , 61, 61, 61
