latitude,longitude,altitude(feet),ascent(feet),speed(mph),distance(feet),time(millisecond),datetime(utc),satellites,gpslevel,voltage(v),max_altitude(feet),max_ascent(feet),max_speed(mph),max_distance(feet), xSpeed(mph), ySpeed(mph), zSpeed(mph), compass_heading(degrees), pitch(degrees), roll(degrees),isPhoto,isVideo,rc_elevator,rc_aileron,rc_throttle,rc_rudder,gimbal_heading(degrees),gimbal_pitch(degrees),battery_percent,voltageCell1,voltageCell2,voltageCell3,voltageCell4,voltageCell5,voltageCell6,current(A),battery_temperature(f),flycStateRaw,flycState,message
36.7673042,-118.8834154,5724.7197737422,0,0.447388,0,3010,2018-04-14 20:43:32,10,0,25.252,5724.7197737422,0,0.447388,0,0,0,0,65.2, 2.3, -0.1,1,0,1024,1024,1024,1024,66.1,-90,98,4.18,4.211,4.236,4.223,0,0,3.724,60.8,11,AutoTakeoff,DJI_0840.jpg Starting Mission from Lat/Long: 36.76729/-118.88344 Camera: Zenmuse X3 - Overlap: 90/90 - Active Connection: Yes
36.7673043,-118.8834156,5724.7197737422,0,0.447388,0.068906170184,3100,2018-04-14 20:43:32,10,0,25.252,5724.7197737422,0,0.447388,0.068906170184,0,0,0,65.2, 1, 0,0,0,1024,1024,1024,1024,66.1,-90,98,4.18,4.211,4.236,4.223,0,0,3.724,60.8,11,AutoTakeoff,
36.7673043,-118.8834159,5724.7197737422,0,0.447388,0.150621067812,3200,2018-04-14 20:43:32,10,0,25.252,5724.7197737422,0,0.447388,0.150621067812,0,0,0,65.2, -0.3, 0.1,0,0,1024,1024,1024,1024,66.1,-90,98,4.18,4.211,4.236,4.223,0,0,3.724,60.8,11,AutoTakeoff,
36.7673043,-118.8834161,5724.7197737422,0,0.447388,0.207817591952,3300,2018-04-14 20:43:33,10,0,25.252,5724.7197737422,0,0.447388,0.207817591952,0,0,0,65.1, -0.8, 0.1,0,0,1024,1024,1024,1024,66.1,-89.9,98,4.18,4.211,4.236,4.223,0,0,3.724,60.8,11,AutoTakeoff,
36.7673043,-118.8834163,5724.7197737422,0,0.447388,0.265562016372,3400,2018-04-14 20:43:33,10,0,25.252,5724.7197737422,0,0.447388,0.265562016372,0,0,0,65, -1.2, 0.2,0,0,1024,1024,1024,1024,66.1,-90,98,4.18,4.211,4.236,4.223,0,0,3.724,60.8,11,AutoTakeoff,
36.7673044,-118.8834165,5725.0478577422,0.328084,0.223694,0.3296752074,3500,2018-04-14 20:43:33,10,0,25.252,5725.0478577422,0.328084,0.447388,0.3296752074,0,0,0,65.1, -1.4, 0.6,0,0,1024,1024,1024,1024,66.1,-89.9,98,4.18,4.211,4.236,4.223,0,0,3.724,60.8,11,AutoTakeoff,
36.7673045,-118.8834166,5725.0478577422,0.328084,0.223694,0.36740814824,3600,2018-04-14 20:43:33,11,0,25.252,5725.0478577422,0.328084,0.447388,0.36740814824,0,0,0,65.2, -1.4, 1,0,0,1024,1024,1024,1024,66.1,-89.9,98,4.18,4.211,4.236,4.223,0,0,3.724,60.8,11,AutoTakeoff,
36.7673046,-118.8834166,5725.3759417422,0.656168,0,0.37987862108,3700,2018-04-14 20:43:33,11,0,25.252,5725.3759417422,0.656168,0.447388,0.37987862108,0,0,0,65.4, -1, 0.8,0,0,1024,1024,1024,1024,66.1,-89.9,98,4.18,4.211,4.236,4.223,0,0,3.724,60.8,11,AutoTakeoff,
36.7673047,-118.8834168,5725.3759417422,0.656168,0,0.44800198284,3800,2018-04-14 20:43:33,10,0,25.252,5725.3759417422,0.656168,0.447388,0.44800198284,0,0,0,65.5, -0.7, 0.7,0,0,1024,1024,1024,1024,66.1,-89.9,98,4.18,4.211,4.236,4.223,0,0,3.724,60.8,11,AutoTakeoff,
36.7673048,-118.8834169,5725.7040257422,0.984252,0,0.49002298156,3900,2018-04-14 20:43:33,10,0,25.252,5725.7040257422,0.984252,0.447388,0.49002298156,0,0,0,65.4, -0.5, 0.8,0,0,1024,1024,1024,1024,66.1,-89.9,98,4.18,4.211,4.236,4.223,0,0,3.724,60.8,11,AutoTakeoff,
36.767305,-118.883417,5726.0321097422,1.312336,0,0.55125001764,4000,2018-04-14 20:43:33,11,0,24.742,5726.0321097422,1.312336,0.447388,0.55125001764,0,0,0,65.4, -0.3, 1,0,0,1024,1024,1024,1024,66.1,-89.9,98,4.123,4.114,4.107,4.15,0,0,6.357,60.8,11,AutoTakeoff,
36.7673051,-118.8834171,5726.0321097422,1.312336,0,0.59556104268,4100,2018-04-14 20:43:33,11,0,24.742,5726.0321097422,1.312336,0.447388,0.59556104268,0,0,0,65.4, 0, 1.1,0,0,1024,1024,1024,1024,66.1,-89.9,98,4.123,4.114,4.107,4.15,0,0,6.357,60.8,11,AutoTakeoff,
36.7673051,-118.883417,5726.3601937422,1.64042,0,0.57140421776,4200,2018-04-14 20:43:33,11,0,24.742,5726.3601937422,1.64042,0.447388,0.59556104268,0,0,0,65.5, 0.2, 1.2,0,0,1024,1024,1024,1024,66.1,-89.9,98,4.123,4.114,4.107,4.15,0,0,6.357,60.8,11,AutoTakeoff,
36.7673051,-118.883417,5726.3601937422,1.64042,0,0.57140421776,4300,2018-04-14 20:43:34,11,0,24.742,5726.3601937422,1.64042,0.447388,0.59556104268,0,0,0,65.5, 0.4, 1.2,0,0,1024,1024,1024,1024,66.1,-89.9,98,4.123,4.114,4.107,4.15,0,0,6.357,60.8,11,AutoTakeoff,
36.7673051,-118.8834169,5726.6882777422,1.968504,0,0.54774279968,4400,2018-04-14 20:43:34,11,0,24.742,5726.6882777422,1.968504,0.447388,0.59556104268,0,0,0,65.5, 0.5, 0.7,0,0,1024,1024,1024,1024,66.1,-89.9,98,4.123,4.114,4.107,4.15,0,0,6.357,60.8,11,AutoTakeoff,
36.7673052,-118.8834169,5726.6882777422,1.968504,0,0.57036419148,4500,2018-04-14 20:43:34,11,0,24.742,5726.6882777422,1.968504,0.447388,0.59556104268,0,0,0,65.5, 0.5, 0.5,0,0,1024,1024,1024,1024,66.1,-89.9,98,4.123,4.114,4.107,4.15,0,0,6.357,60.8,11,AutoTakeoff,
36.7673051,-118.8834168,5727.0163617422,2.296588,0,0.52464240524,4700,2018-04-14 20:43:34,12,0,24.742,5727.0163617422,2.296588,0.447388,0.59556104268,0,0,0,65.3, 0.7, 0.3,0,0,1024,1024,1024,1024,66.1,-89.9,98,4.123,4.114,4.107,4.15,0,0,6.357,60.8,11,AutoTakeoff,
36.7673051,-118.8834166,5727.0163617422,2.296588,0,0.48044949044,4800,2018-04-14 20:43:34,12,0,24.742,5727.0163617422,2.296588,0.447388,0.59556104268,0,0,0,65.1, 0.7, 0.2,0,0,1024,1024,1024,1024,66.1,-89.9,98,4.123,4.114,4.107,4.15,0,0,6.357,60.8,11,AutoTakeoff,
36.7673051,-118.8834166,5727.3444457422,2.624672,0,0.48044949044,4900,2018-04-14 20:43:34,12,0,24.742,5727.3444457422,2.624672,0.447388,0.59556104268,0,0,0,65, 0.6, 0.2,0,0,1024,1024,1024,1024,66.1,-89.9,98,4.123,4.114,4.107,4.15,0,0,6.357,60.8,11,AutoTakeoff,
36.7673052,-118.8834166,5727.3444457422,2.624672,0,0.5060859742,5000,2018-04-14 20:43:34,12,0,23.679,5727.3444457422,2.624672,0.447388,0.59556104268,0,0,0,64.9, 0.6, 0.3,0,0,1024,1024,1024,1024,66.1,-89.9,98,3.926,3.92,3.962,3.957,0,0,16.386,60.8,11,AutoTakeoff,
36.7673053,-118.8834165,5727.6725297422,2.952756,0,0.51422901908,5100,2018-04-14 20:43:34,12,0,23.679,5727.6725297422,2.952756,0.447388,0.59556104268,0,0,-0.223694,64.9, 0.4, 0.2,0,0,1024,1024,1024,1024,66.1,-89.9,98,3.926,3.92,3.962,3.957,0,0,16.386,60.8,11,AutoTakeoff,
36.7673053,-118.8834164,5727.6725297422,2.952756,0,0.49647967468,5200,2018-04-14 20:43:34,12,0,23.679,5727.6725297422,2.952756,0.447388,0.59556104268,0,0,0,64.9, 0.5, 0,0,0,1024,1024,1024,1024,66.1,-89.9,98,3.926,3.92,3.962,3.957,0,0,16.386,60.8,14,Waypoint,
36.7673053,-118.8834163,5727.6725297422,2.952756,0.223694,0.4798556584,5300,2018-04-14 20:43:35,12,0,23.679,5727.6725297422,2.952756,0.447388,0.59556104268,0,0,0,64.9, 0.7, -0.4,0,0,1024,1024,1024,1024,66.1,-89.9,98,3.926,3.92,3.962,3.957,0,0,16.386,60.8,14,Waypoint,
36.7673053,-118.8834162,5728.0006137422,3.28084,0,0.46447836132,5400,2018-04-14 20:43:35,12,0,23.679,5728.0006137422,3.28084,0.447388,0.59556104268,0,0,0,64.8, 1, -0.9,0,0,1024,1024,1024,1024,66.1,-89.9,98,3.926,3.92,3.962,3.957,0,0,16.386,60.8,14,Waypoint,
36.7673052,-118.8834159,5728.3286977422,3.608924,0,0.3930282278,5500,2018-04-14 20:43:35,13,0,23.679,5728.3286977422,3.608924,0.447388,0.59556104268,0,0,0,65, 1.5, -0.7,0,0,1024,1024,1024,1024,66,-89.9,98,3.926,3.92,3.962,3.957,0,0,16.386,60.8,14,Waypoint,
36.7673051,-118.8834159,5728.3286977422,3.608924,0,0.359416022,5600,2018-04-14 20:43:35,13,0,23.679,5728.3286977422,3.608924,0.447388,0.59556104268,0,0,-0.223694,65.1, 1.6, -0.5,0,0,1024,1024,1024,1024,66,-89.9,98,3.926,3.92,3.962,3.957,0,0,16.386,60.8,14,Waypoint,
36.7673051,-118.8834158,5728.6567817422,3.937008,0,0.3485564416,5700,2018-04-14 20:43:35,13,0,23.679,5728.6567817422,3.937008,0.447388,0.59556104268,0,0,-0.223694,65.1, 1.4, -0.6,0,0,1024,1024,1024,1024,66,-89.9,98,3.926,3.92,3.962,3.957,0,0,16.386,60.8,14,Waypoint,
36.767305,-118.8834157,5728.9848657422,4.265092,0,0.304764773532,5800,2018-04-14 20:43:35,14,0,23.679,5728.9848657422,4.265092,0.447388,0.59556104268,0,0,-0.223694,65, 1, -0.7,0,0,1024,1024,1024,1024,66,-89.9,98,3.926,3.92,3.962,3.957,0,0,16.386,60.8,14,Waypoint,
36.7673049,-118.8834156,5728.9848657422,4.265092,0,0.261998696048,5900,2018-04-14 20:43:35,14,0,23.679,5728.9848657422,4.265092,0.447388,0.59556104268,0,0,-0.223694,64.9, 0.8, -0.9,0,0,1024,1024,1024,1024,66,-89.9,98,3.926,3.92,3.962,3.957,0,0,16.386,60.8,14,Waypoint,
36.7673049,-118.8834156,5729.6410337422,4.92126,0,0.261998696048,6000,2018-04-14 20:43:35,14,0,23.473,5729.6410337422,4.92126,0.447388,0.59556104268,0,0,-0.223694,64.8, 0.8, -1.2,0,0,1024,1024,1024,1024,66,-89.9,98,3.926,3.92,3.962,3.957,0,0,16.761,60.8,14,Waypoint,
36.7673049,-118.8834155,5729.9691177422,5.249344,0,0.257061359932,6100,2018-04-14 20:43:35,14,0,23.473,5729.9691177422,5.249344,0.447388,0.59556104268,0,0,-0.223694,64.8, 0.9, -1.2,0,0,1024,1024,1024,1024,66,-89.9,98,3.926,3.92,3.962,3.957,0,0,16.761,60.8,14,Waypoint,
36.7673049,-118.8834153,5730.2972017422,5.577428,0,0.257061359932,6200,2018-04-14 20:43:35,12,0,23.473,5730.2972017422,5.577428,0.447388,0.59556104268,0,0,-0.447388,64.8, 1.1, -1.1,0,0,1024,1024,1024,1024,65.9,-89.9,98,3.926,3.92,3.962,3.957,0,0,16.761,60.8,14,Waypoint,
36.7673049,-118.8834152,5730.9533697422,6.233596,0,0.261998696048,6300,2018-04-14 20:43:36,12,0,23.473,5730.9533697422,6.233596,0.447388,0.59556104268,0,0,-0.447388,64.8, 1.4, -1,0,0,1024,1024,1024,1024,65.9,-89.9,98,3.926,3.92,3.962,3.957,0,0,16.761,60.8,14,Waypoint,
36.767305,-118.883415,5731.6095377422,6.889764,0,0.314421926072,6400,2018-04-14 20:43:36,11,0,23.473,5731.6095377422,6.889764,0.447388,0.59556104268,0,0,-0.447388,64.8, 1.5, -0.9,0,0,1024,1024,1024,1024,65.9,-89.9,98,3.926,3.92,3.962,3.957,0,0,16.761,60.8,14,Waypoint,
36.7673051,-118.8834148,5732.2657057422,7.545932,0,0.37225722976,6500,2018-04-14 20:43:36,11,0,23.473,5732.2657057422,7.545932,0.447388,0.59556104268,0,0,-0.447388,64.9, 1.6, -0.8,0,0,1024,1024,1024,1024,65.9,-89.9,98,3.926,3.92,3.962,3.957,0,0,16.761,60.8,14,Waypoint,
36.7673051,-118.8834147,5733.2499577422,8.530184,0,0.38688649532,6600,2018-04-14 20:43:36,11,0,23.473,5733.2499577422,8.530184,0.447388,0.59556104268,0,0,-0.671082,65, 1.7, -0.7,0,0,1024,1024,1024,1024,65.9,-89.9,98,3.926,3.92,3.962,3.957,0,0,16.761,60.8,14,Waypoint,
36.7673052,-118.8834147,5733.9061257422,9.186352,0,0.41829725748,6700,2018-04-14 20:43:36,11,0,23.473,5733.9061257422,9.186352,0.447388,0.59556104268,0,0,-0.671082,65, 1.5, -0.7,0,0,1024,1024,1024,1024,65.9,-89.9,98,3.926,3.92,3.962,3.957,0,0,16.761,60.8,14,Waypoint,
36.7673052,-118.8834146,5734.8903777422,10.170604,0,0.43334318972,6900,2018-04-14 20:43:36,11,0,23.473,5734.8903777422,10.170604,0.447388,0.59556104268,0,0,-0.671082,64.9, 1.3, -0.7,0,0,1024,1024,1024,1024,65.9,-89.9,98,3.926,3.92,3.962,3.957,0,0,16.761,60.8,14,Waypoint,
36.7673054,-118.8834144,5735.8746297422,11.154856,0,0.526410778,7000,2018-04-14 20:43:36,11,0,23.473,5735.8746297422,11.154856,0.447388,0.59556104268,0,0,-0.671082,64.8, 1.4, -0.6,0,0,1024,1024,1024,1024,65.9,-89.9,98,3.875,3.876,3.916,3.901,0,0,16.761,60.8,14,Waypoint,
36.7673055,-118.8834144,5736.8588817422,12.139108,0,0.55712272124,7100,2018-04-14 20:43:36,12,0,23.473,5736.8588817422,12.139108,0.447388,0.59556104268,0,0,-0.671082,64.8, 1.7, -0.6,0,0,1024,1024,1024,1024,65.9,-89.9,98,3.875,3.876,3.916,3.901,0,0,16.761,60.8,14,Waypoint,
36.7673056,-118.8834144,5738.1712177422,13.451444,0,0.58849739416,7200,2018-04-14 20:43:36,12,0,23.473,5738.1712177422,13.451444,0.447388,0.59556104268,0,0,-0.671082,64.7, 1.8, -0.5,0,0,1024,1024,1024,1024,65.9,-89.9,98,3.875,3.876,3.916,3.901,0,0,16.761,60.8,14,Waypoint,
36.7673057,-118.8834143,5739.1554697422,14.435696,0,0.63472114892,7300,2018-04-14 20:43:37,11,0,23.473,5739.1554697422,14.435696,0.447388,0.63472114892,0,0,-0.671082,64.8, 1.8, -0.3,0,0,1024,1024,1024,1024,65.9,-89.9,98,3.875,3.876,3.916,3.901,0,0,16.761,60.8,14,Waypoint,
36.7673057,-118.8834143,5740.1397217422,15.419948,0,0.63472114892,7400,2018-04-14 20:43:37,11,0,23.473,5740.1397217422,15.419948,0.447388,0.63472114892,0,0,-0.671082,64.9, 1.9, -0.1,0,0,1024,1024,1024,1024,65.9,-89.9,98,3.875,3.876,3.916,3.901,0,0,16.761,60.8,14,Waypoint,
36.7673057,-118.8834142,5741.4520577422,16.732284,0,0.65001314416,7500,2018-04-14 20:43:37,11,0,23.473,5741.4520577422,16.732284,0.447388,0.65001314416,0,0,-0.671082,64.9, 2, 0,0,0,1024,1024,1024,1024,65.9,-89.9,98,3.875,3.876,3.916,3.901,0,0,16.761,60.8,14,Waypoint,
36.7673057,-118.8834142,5742.4363097422,17.716536,0,0.65001314416,7600,2018-04-14 20:43:37,11,0,23.473,5742.4363097422,17.716536,0.447388,0.65001314416,0,0,-0.671082,65, 2, -0.2,0,0,1024,1024,1024,1024,65.9,-89.9,98,3.875,3.876,3.916,3.901,0,0,16.761,60.8,14,Waypoint,
36.7673057,-118.8834141,5743.7486457422,19.028872,0,0.66623689796,7700,2018-04-14 20:43:37,12,0,23.473,5743.7486457422,19.028872,0.447388,0.66623689796,0,0,-0.671082,65, 2, -0.3,0,0,1024,1024,1024,1024,65.9,-89.9,98,3.875,3.876,3.916,3.901,0,0,16.761,60.8,14,Waypoint,
36.7673056,-118.8834141,5744.7328977422,20.013124,0,0.63660763192,7800,2018-04-14 20:43:37,12,0,23.473,5744.7328977422,20.013124,0.447388,0.66623689796,0,0,-0.671082,65, 2, -0.4,0,0,1024,1024,1024,1024,65.9,-89.9,98,3.875,3.876,3.916,3.901,0,0,16.761,60.8,14,Waypoint,
36.7673054,-118.8834142,5747.0294857422,22.309712,0,0.5609744274,7900,2018-04-14 20:43:37,12,0,23.473,5747.0294857422,22.309712,0.447388,0.66623689796,0,0,-0.671082,65, 1.6, -0.8,0,0,1024,1024,1024,1024,65.9,-89.9,98,3.875,3.876,3.916,3.901,0,0,16.761,60.8,14,Waypoint,
36.7673054,-118.8834143,5748.0137377422,23.293964,0,0.54318243208,8000,2018-04-14 20:43:37,11,0,23.609,5748.0137377422,23.293964,0.447388,0.66623689796,0,0,-0.671082,65, 1.1, -1,0,0,1024,1024,1024,1024,65.9,-89.9,98,3.949,3.9,3.922,3.937,0,0,16.629,60.8,14,Waypoint,
36.7673054,-118.8834143,5749.3260737422,24.6063,0,0.54318243208,8100,2018-04-14 20:43:37,11,0,23.609,5749.3260737422,24.6063,0.447388,0.66623689796,0,0,-0.671082,64.9, 0.8, -1.2,0,0,1024,1024,1024,1024,65.9,-90,98,3.949,3.9,3.922,3.937,0,0,16.629,60.8,14,Waypoint,
36.7673052,-118.8834144,5751.2945777422,26.574804,0,0.46748032992,8300,2018-04-14 20:43:38,12,0,23.609,5751.2945777422,26.574804,0.447388,0.66623689796,0,0,-0.671082,64.7, 0.7, -1.3,0,0,1024,1024,1024,1024,65.9,-90,98,3.949,3.9,3.922,3.937,0,0,16.629,60.8,14,Waypoint,
36.7673051,-118.8834144,5752.6069137422,27.88714,0,0.43959647076,8400,2018-04-14 20:43:38,13,0,23.609,5752.6069137422,27.88714,0.447388,0.66623689796,0,0,-0.671082,64.7, 0.6, -1.4,0,0,1024,1024,1024,1024,65.9,-89.9,98,3.949,3.9,3.922,3.937,0,0,16.629,60.8,14,Waypoint,
36.767305,-118.8834145,5753.5911657422,28.871392,0,0.39291996008,8520,2018-04-14 20:43:38,13,0,23.609,5753.5911657422,28.871392,0.447388,0.66623689796,0,0,-0.671082,64.6, 0.4, -1.6,0,0,1024,1024,1024,1024,65.9,-89.9,98,3.949,3.9,3.922,3.937,0,0,16.629,60.8,14,Waypoint,
36.7673049,-118.8834144,5754.9035017422,30.183728,0,0.38813649536,8600,2018-04-14 20:43:38,14,0,23.609,5754.9035017422,30.183728,0.447388,0.66623689796,0,0,-0.671082,64.6, 0.3, -2,0,0,1024,1024,1024,1024,65.9,-89.9,98,3.949,3.9,3.922,3.937,0,0,16.629,60.8,14,Waypoint,
36.7673048,-118.8834143,5755.8877537422,31.16798,0,0.38895014368,8700,2018-04-14 20:43:38,14,0,23.609,5755.8877537422,31.16798,0.447388,0.66623689796,0,0,-0.671082,64.7, 0.4, -2.2,0,0,1024,1024,1024,1024,65.9,-89.9,98,3.949,3.9,3.922,3.937,0,0,16.629,60.8,14,Waypoint,
36.7673046,-118.8834144,5756.8720057422,32.152232,0,0.3266814409,8800,2018-04-14 20:43:38,15,0,23.609,5756.8720057422,32.152232,0.447388,0.66623689796,0,0,-0.671082,64.7, 0.7, -2.1,0,0,1024,1024,1024,1024,65.9,-89.9,98,3.949,3.9,3.922,3.937,0,0,16.629,60.8,14,Waypoint,
36.7673045,-118.8834145,5757.8562577422,33.136484,0,0.284907817516,8910,2018-04-14 20:43:38,15,0,23.609,5757.8562577422,33.136484,0.447388,0.66623689796,0,0,-0.671082,64.7, 0.6, -2,0,0,1024,1024,1024,1024,65.9,-89.9,98,3.949,3.9,3.922,3.937,0,0,16.629,60.8,14,Waypoint,
36.7673043,-118.8834146,5759.1685937422,34.44882,0,0.236646333032,9000,2018-04-14 20:43:38,14,0,22.958,5759.1685937422,34.44882,0.447388,0.66623689796,0,0,-0.671082,64.7, 0.3, -2.1,0,0,1024,1024,1024,1024,65.9,-89.9,98,3.768,3.763,3.785,3.786,0,0,19.412,60.8,14,Waypoint,
36.7673041,-118.8834147,5760.1528457422,35.433072,0,0.207817591952,9200,2018-04-14 20:43:38,14,0,22.958,5760.1528457422,35.433072,0.447388,0.66623689796,0,0,-0.671082,64.7, 0, -2.4,0,0,1024,1024,1024,1024,65.9,-89.9,98,3.768,3.763,3.785,3.786,0,0,19.412,60.8,14,Waypoint,
36.7673041,-118.8834148,5761.1370977422,36.417324,0,0.179117787884,9300,2018-04-14 20:43:39,13,0,22.958,5761.1370977422,36.417324,0.447388,0.66623689796,0,0,-0.671082,64.6, 0, -2.5,0,0,1024,1024,1024,1024,65.9,-89.9,98,3.768,3.763,3.785,3.786,0,0,19.412,60.8,14,Waypoint,
36.7673041,-118.8834149,5762.1213497422,37.401576,0,0.150621067812,9410,2018-04-14 20:43:39,13,0,22.958,5762.1213497422,37.401576,0.447388,0.66623689796,0,0,-0.671082,64.5, 0.1, -2.5,0,0,1024,1024,1024,1024,65.9,-89.9,98,3.768,3.763,3.785,3.786,0,0,19.412,60.8,14,Waypoint,
36.767304,-118.8834149,5763.1056017422,38.385828,0,0.163340884492,9500,2018-04-14 20:43:39,14,0,22.958,5763.1056017422,38.385828,0.447388,0.66623689796,0,0,-0.671082,64.5, 0.3, -2.4,0,0,1024,1024,1024,1024,65.9,-89.9,98,3.768,3.763,3.785,3.786,0,0,19.412,60.8,14,Waypoint,
36.767304,-118.8834149,5764.0898537422,39.37008,0,0.163340884492,9700,2018-04-14 20:43:39,14,0,22.958,5764.0898537422,39.37008,0.447388,0.66623689796,0,0,-0.671082,64.6, 0.4, -2.2,0,0,1024,1024,1024,1024,65.9,-89.9,98,3.768,3.763,3.785,3.786,0,0,19.412,60.8,14,Waypoint,
36.767304,-118.8834149,5765.0741057422,40.354332,0,0.163340884492,9900,2018-04-14 20:43:39,14,0,22.958,5765.0741057422,40.354332,0.447388,0.66623689796,0,0,-0.671082,64.8, 0.9, -1.8,0,0,1024,1024,1024,1024,65.9,-89.9,98,3.768,3.763,3.785,3.786,0,0,19.412,60.8,14,Waypoint,
36.767304,-118.8834149,5766.0583577422,41.338584,0,0.163340884492,10000,2018-04-14 20:43:39,14,0,22.958,5766.0583577422,41.338584,0.447388,0.66623689796,0,0,-0.671082,64.9, 1.2, -1.5,0,0,1024,1024,1024,1024,65.9,-89.9,97,3.803,3.802,3.856,3.838,0,0,19.412,60.8,14,Waypoint,
36.767304,-118.883415,5767.0426097422,42.322836,0,0.137812012284,10100,2018-04-14 20:43:39,15,0,22.958,5767.0426097422,42.322836,0.447388,0.66623689796,0,0,-0.671082,65.1, 1.2, -1.5,0,0,1024,1024,1024,1024,65.9,-89.9,97,3.803,3.802,3.856,3.838,0,0,19.412,60.8,14,Waypoint,
36.7673041,-118.8834151,5768.0268617422,43.307088,0,0.094969163144,10200,2018-04-14 20:43:39,15,0,22.958,5768.0268617422,43.307088,0.447388,0.66623689796,0,0,-0.671082,65.1, 0.9, -1.5,0,0,1024,1024,1024,1024,65.9,-89.9,97,3.803,3.802,3.856,3.838,0,0,19.412,60.8,14,Waypoint,
36.7673041,-118.8834151,5769.9953657422,45.275592,0,0.094969163144,10300,2018-04-14 20:43:40,15,0,22.958,5769.9953657422,45.275592,0.447388,0.66623689796,0,0,-0.671082,64.9, 0.9, -1.4,0,0,1024,1024,1024,1024,65.9,-89.9,97,3.803,3.802,3.856,3.838,0,0,19.412,60.8,14,Waypoint,
36.7673041,-118.8834152,5772.9481217422,48.228348,0,0.068906170184,10400,2018-04-14 20:43:40,16,0,22.958,5772.9481217422,48.228348,0.447388,0.66623689796,0,0,-0.671082,65.1, 1.2, -1.6,0,0,1024,1024,1024,1024,65.9,-89.9,97,3.803,3.802,3.856,3.838,0,0,19.412,60.8,14,Waypoint,
36.7673042,-118.8834153,5773.9323737422,49.2126,0,0.0292271006728,10500,2018-04-14 20:43:40,16,0,22.958,5773.9323737422,49.2126,0.447388,0.66623689796,0,0,-0.671082,65.2, 0.8, -1.6,0,0,1024,1024,1024,1024,65.9,-89.9,97,3.803,3.802,3.856,3.838,0,0,19.412,60.8,14,Waypoint,
36.7673042,-118.8834153,5774.5885417422,49.868768,0,0.0292271006728,10600,2018-04-14 20:43:40,16,0,22.958,5774.5885417422,49.868768,0.447388,0.66623689796,0,0,-0.671082,65.2, 0.7, -1.3,0,0,1024,1024,1024,1024,65.9,-89.9,97,3.803,3.802,3.856,3.838,0,0,19.412,60.8,14,Waypoint,
36.7673043,-118.8834153,5775.5727937422,50.85302,0,0.046748032992,10700,2018-04-14 20:43:40,16,0,22.958,5775.5727937422,50.85302,0.447388,0.66623689796,0,0,-0.671082,65.1, 0.7, -1,0,0,1024,1024,1024,1024,65.9,-89.9,97,3.803,3.802,3.856,3.838,0,0,19.412,60.8,14,Waypoint,
36.7673043,-118.8834153,5776.5570457422,51.837272,0,0.046748032992,10800,2018-04-14 20:43:40,16,0,22.958,5776.5570457422,51.837272,0.447388,0.66623689796,0,0,-0.671082,65, 0.8, -0.8,0,0,1024,1024,1024,1024,65.9,-89.9,97,3.803,3.802,3.856,3.838,0,0,19.412,60.8,14,Waypoint,
36.7673043,-118.8834154,5777.5412977422,52.821524,0,0.036484909304,10900,2018-04-14 20:43:40,16,0,22.958,5777.5412977422,52.821524,0.447388,0.66623689796,0,0,-0.671082,65, 0.7, -0.5,0,0,1024,1024,1024,1024,65.9,-89.9,97,3.803,3.802,3.856,3.838,0,0,19.412,60.8,14,Waypoint,
36.7673043,-118.8834154,5778.5255497422,53.805776,0,0.036484909304,11000,2018-04-14 20:43:40,16,0,22.898,5778.5255497422,53.805776,0.447388,0.66623689796,0,0,-0.671082,65, 0.7, -0.5,0,0,1024,1024,1024,1024,65.9,-89.9,97,3.815,3.801,3.858,3.841,0,0,19.333,60.8,14,Waypoint,
36.7673043,-118.8834154,5779.5098017422,54.790028,0,0.036484909304,11110,2018-04-14 20:43:40,16,0,22.898,5779.5098017422,54.790028,0.447388,0.66623689796,0,0,-0.671082,65, 0.6, -0.7,0,0,1024,1024,1024,1024,65.9,-89.9,97,3.815,3.801,3.858,3.841,0,0,19.333,60.8,14,Waypoint,
36.7673042,-118.8834155,5780.8221377422,56.102364,0,0.0292271006728,11200,2018-04-14 20:43:40,15,0,22.898,5780.8221377422,56.102364,0.447388,0.66623689796,0,0,-0.671082,65, 0.5, -1.1,0,0,1024,1024,1024,1024,65.9,-90,97,3.815,3.801,3.858,3.841,0,0,19.333,60.8,14,Waypoint,
36.7673041,-118.8834157,5782.7906417422,58.070868,0,0.094969163144,11400,2018-04-14 20:43:41,16,0,22.898,5782.7906417422,58.070868,0.447388,0.66623689796,0,0,-0.671082,65, 0.2, -1.9,0,0,1024,1024,1024,1024,65.9,-90,97,3.815,3.801,3.858,3.841,0,0,19.333,60.8,14,Waypoint,
36.7673041,-118.8834157,5783.7748937422,59.05512,0,0.094969163144,11510,2018-04-14 20:43:41,16,0,22.898,5783.7748937422,59.05512,0.447388,0.66623689796,0,0,-0.671082,65.2, 0.1, -1.8,0,0,1024,1024,1024,1024,65.9,-90,97,3.815,3.801,3.858,3.841,0,0,19.333,60.8,14,Waypoint,
36.7673041,-118.8834158,5784.7591457422,60.039372,0,0.122469164024,11630,2018-04-14 20:43:41,15,0,22.898,5784.7591457422,60.039372,0.447388,0.66623689796,0,0,-0.671082,65.3, 0, -1.7,0,0,1024,1024,1024,1024,65.9,-90,97,3.815,3.801,3.858,3.841,0,0,19.333,60.8,14,Waypoint,
36.7673041,-118.8834158,5784.7591457422,60.039372,0,0.122469164024,11700,2018-04-14 20:43:41,15,0,22.898,5784.7591457422,60.039372,0.447388,0.66623689796,0,0,-0.671082,65.3, 0, -1.7,0,0,1024,1024,1024,1024,65.9,-89.9,97,3.815,3.801,3.858,3.841,0,0,19.333,60.8,14,Waypoint,
36.7673041,-118.8834158,5785.7433977422,61.023624,0,0.122469164024,11800,2018-04-14 20:43:41,15,0,22.898,5785.7433977422,61.023624,0.447388,0.66623689796,0,0,-0.671082,65.3, 0.1, -1.7,0,0,1024,1024,1024,1024,65.9,-89.9,97,3.815,3.801,3.858,3.841,0,0,19.333,60.8,14,Waypoint,
36.7673041,-118.8834159,5786.7276497422,62.007876,0,0.150621067812,12000,2018-04-14 20:43:41,16,0,22.898,5786.7276497422,62.007876,0.447388,0.66623689796,0,0,-0.671082,65.2, 0, -1.9,0,0,1024,1024,1024,1024,65.9,-89.9,97,3.79,3.784,3.828,3.821,0,0,19.333,60.8,14,Waypoint,
36.7673041,-118.8834159,5787.7119017422,62.992128,0,0.150621067812,12100,2018-04-14 20:43:41,16,0,22.898,5787.7119017422,62.992128,0.447388,0.66623689796,0,0,-0.671082,65.1, 0, -2,0,0,1024,1024,1024,1024,65.9,-90,97,3.79,3.784,3.828,3.821,0,0,19.333,60.8,14,Waypoint,
36.7673041,-118.8834159,5788.6961537422,63.97638,0,0.150621067812,12210,2018-04-14 20:43:41,14,0,22.898,5788.6961537422,63.97638,0.447388,0.66623689796,0,0,-0.671082,65, 0, -2,0,0,1024,1024,1024,1024,65.9,-89.9,97,3.79,3.784,3.828,3.821,0,0,19.333,60.8,14,Waypoint,
36.7673041,-118.8834159,5788.6961537422,63.97638,0,0.150621067812,12300,2018-04-14 20:43:42,14,0,22.898,5788.6961537422,63.97638,0.447388,0.66623689796,0,0,-0.671082,65, 0, -2,0,0,1024,1024,1024,1024,65.9,-89.9,97,3.79,3.784,3.828,3.821,0,0,19.333,60.8,14,Waypoint,
36.767304,-118.8834159,5789.6804057422,64.960632,0,0.163340884492,12400,2018-04-14 20:43:42,14,0,22.898,5789.6804057422,64.960632,0.447388,0.66623689796,0,0,-0.671082,64.9, 0.1, -2,0,0,1024,1024,1024,1024,65.9,-89.9,97,3.79,3.784,3.828,3.821,0,0,19.333,60.8,14,Waypoint,
36.767304,-118.8834159,5790.6646577422,65.944884,0,0.163340884492,12500,2018-04-14 20:43:42,17,0,22.898,5790.6646577422,65.944884,0.447388,0.66623689796,0,0,-0.671082,64.8, 0.2, -2.1,0,0,1024,1024,1024,1024,65.9,-89.9,97,3.79,3.784,3.828,3.821,0,0,19.333,60.8,14,Waypoint,
36.7673039,-118.883416,5791.6489097422,66.929136,0,0.206718182468,12600,2018-04-14 20:43:42,17,0,22.898,5791.6489097422,66.929136,0.447388,0.66623689796,0,0,-0.671082,64.6, 0.2, -1.9,0,0,1024,1024,1024,1024,65.9,-90,97,3.79,3.784,3.828,3.821,0,0,19.333,60.8,14,Waypoint,
36.7673039,-118.8834161,5793.2893297422,68.569556,0,0.232028550732,12710,2018-04-14 20:43:42,17,0,22.898,5793.2893297422,68.569556,0.447388,0.66623689796,0,0,-0.671082,64.6, 0, -1.9,0,0,1024,1024,1024,1024,65.9,-89.9,97,3.79,3.784,3.828,3.821,0,0,19.333,60.8,14,Waypoint,
36.7673039,-118.8834161,5793.2893297422,68.569556,0,0.232028550732,12800,2018-04-14 20:43:42,17,0,22.898,5793.2893297422,68.569556,0.447388,0.66623689796,0,0,-0.671082,64.6, 0, -1.9,0,0,1024,1024,1024,1024,65.9,-89.9,97,3.79,3.784,3.828,3.821,0,0,19.333,60.8,14,Waypoint,
36.7673039,-118.8834161,5794.2735817422,69.553808,0,0.232028550732,12910,2018-04-14 20:43:42,17,0,22.898,5794.2735817422,69.553808,0.447388,0.66623689796,0,0,-0.671082,64.7, 0, -2,0,0,1024,1024,1024,1024,65.9,-89.9,97,3.79,3.784,3.828,3.821,0,0,19.333,60.8,14,Waypoint,
36.7673038,-118.8834161,5795.2578337422,70.53806,0,0.25130742274,13000,2018-04-14 20:43:42,17,0,22.859,5795.2578337422,70.53806,0.447388,0.66623689796,0,0,-0.671082,64.8, 0, -2.1,0,0,1024,1024,1024,1024,65.9,-89.9,97,3.783,3.78,3.831,3.807,0,0,19.794,62.6,14,Waypoint,
36.7673037,-118.8834161,5796.2420857422,71.522312,0,0.274108932656,13100,2018-04-14 20:43:42,17,0,22.859,5796.2420857422,71.522312,0.447388,0.66623689796,0,0,-0.671082,64.8, 0, -2.3,0,0,1024,1024,1024,1024,65.9,-89.9,97,3.783,3.78,3.831,3.807,0,0,19.794,62.6,14,Waypoint,
36.7673036,-118.8834161,5798.2105897422,73.490816,0,0.299630258932,13200,2018-04-14 20:43:42,17,0,22.859,5798.2105897422,73.490816,0.447388,0.66623689796,0,0,-0.671082,64.9, -0.2, -2.6,0,0,1024,1024,1024,1024,65.9,-89.9,97,3.783,3.78,3.831,3.807,0,0,19.794,62.6,14,Waypoint,
36.7673036,-118.8834162,5800.1790937422,75.45932,0,0.320299550932,13290,2018-04-14 20:43:43,17,0,22.859,5800.1790937422,75.45932,0.447388,0.66623689796,0,0,-0.671082,64.9, -0.2, -2.5,0,0,1024,1024,1024,1024,65.9,-89.9,97,3.783,3.78,3.831,3.807,0,0,19.794,62.6,14,Waypoint,
36.7673036,-118.8834162,5801.1633457422,76.443572,0,0.320299550932,13390,2018-04-14 20:43:43,17,0,22.859,5801.1633457422,76.443572,0.447388,0.66623689796,0,0,-0.671082,64.9, -0.2, -2,0,0,1024,1024,1024,1024,65.9,-89.9,97,3.783,3.78,3.831,3.807,0,0,19.794,62.6,14,Waypoint,
36.7673037,-118.8834162,5801.8195137422,77.09974,0,0.296562017364,13490,2018-04-14 20:43:43,17,0,22.859,5801.8195137422,77.09974,0.447388,0.66623689796,0,0,-0.671082,64.9, 0, -1.7,0,0,1024,1024,1024,1024,65.9,-89.9,97,3.783,3.78,3.831,3.807,0,0,19.794,62.6,14,Waypoint,
36.7673038,-118.8834161,5802.8037657422,78.083992,0,0.25130742274,13600,2018-04-14 20:43:43,17,0,22.859,5802.8037657422,78.083992,0.447388,0.66623689796,0,0,-0.671082,64.9, 0.2, -1.5,0,0,1024,1024,1024,1024,65.9,-89.9,97,3.783,3.78,3.831,3.807,0,0,19.794,62.6,14,Waypoint,
36.7673038,-118.8834161,5803.7880177422,79.068244,0,0.25130742274,13700,2018-04-14 20:43:43,16,0,22.859,5803.7880177422,79.068244,0.447388,0.66623689796,0,0,-0.671082,65, 0.4, -1.4,0,0,1024,1024,1024,1024,65.9,-89.9,97,3.783,3.78,3.831,3.807,0,0,19.794,62.6,14,Waypoint,
36.7673039,-118.8834161,5804.7722697422,80.052496,0,0.232028550732,13790,2018-04-14 20:43:43,16,0,22.859,5804.7722697422,80.052496,0.447388,0.66623689796,0,0,-0.671082,65.2, 0.4, -1.3,0,0,1024,1024,1024,1024,65.9,-89.9,97,3.783,3.78,3.831,3.807,0,0,19.794,62.6,14,Waypoint,
36.767304,-118.8834161,5805.7565217422,81.036748,0,0.217213261544,13890,2018-04-14 20:43:43,17,0,22.859,5805.7565217422,81.036748,0.447388,0.66623689796,0,0,-0.671082,65.3, 0.5, -1.3,0,0,1024,1024,1024,1024,65.9,-89.9,97,3.783,3.78,3.831,3.807,0,0,19.794,62.6,14,Waypoint,
36.767304,-118.8834161,5806.7407737422,82.021,0,0.217213261544,13990,2018-04-14 20:43:43,17,0,22.804,5806.7407737422,82.021,0.447388,0.66623689796,0,0,-0.671082,65.4, 0.4, -1.3,0,0,1024,1024,1024,1024,65.9,-89.9,97,3.776,3.769,3.823,3.797,0,0,19.616,62.6,14,Waypoint,
36.7673041,-118.8834161,5807.7250257422,83.005252,0,0.207817591952,14100,2018-04-14 20:43:43,17,0,22.804,5807.7250257422,83.005252,0.447388,0.66623689796,0,0,-0.671082,65.6, 0.4, -1.4,0,0,1024,1024,1024,1024,65.9,-89.9,97,3.776,3.769,3.823,3.797,0,0,19.616,62.6,14,Waypoint,
36.7673041,-118.8834161,5808.7092777422,83.989504,0,0.207817591952,14200,2018-04-14 20:43:43,17,0,22.804,5808.7092777422,83.989504,0.447388,0.66623689796,0,0,-0.671082,65.6, 0.2, -1.3,0,0,1024,1024,1024,1024,65.9,-89.9,97,3.776,3.769,3.823,3.797,0,0,19.616,62.6,14,Waypoint,
36.7673042,-118.8834161,5809.6935297422,84.973756,0,0.204589573476,14290,2018-04-14 20:43:44,18,0,22.804,5809.6935297422,84.973756,0.447388,0.66623689796,0,0,-0.671082,65.5, 0, -1.3,0,0,1024,1024,1024,1024,65.9,-89.9,97,3.776,3.769,3.823,3.797,0,0,19.616,62.6,14,Waypoint,
36.7673042,-118.8834161,5810.6777817422,85.958008,0,0.204589573476,14390,2018-04-14 20:43:44,18,0,22.804,5810.6777817422,85.958008,0.447388,0.66623689796,0,0,-0.671082,65.4, 0, -1.4,0,0,1024,1024,1024,1024,65.9,-90,97,3.776,3.769,3.823,3.797,0,0,19.616,62.6,14,Waypoint,
36.7673042,-118.8834161,5811.6620337422,86.94226,0,0.204589573476,14490,2018-04-14 20:43:44,18,0,22.804,5811.6620337422,86.94226,0.447388,0.66623689796,0,0,-0.671082,65.1, -0.1, -1.4,0,0,1024,1024,1024,1024,65.9,-89.9,97,3.776,3.769,3.823,3.797,0,0,19.616,62.6,14,Waypoint,
36.7673042,-118.8834161,5814.6147897422,89.895016,0,0.204589573476,14700,2018-04-14 20:43:44,18,0,22.804,5814.6147897422,89.895016,0.447388,0.66623689796,0,0,-0.671082,64.7, 0.1, -1.5,0,0,1024,1024,1024,1024,65.9,-89.9,97,3.776,3.769,3.823,3.797,0,0,19.616,62.6,14,Waypoint,
36.7673043,-118.8834161,5815.9271257422,91.207352,0,0.207817591952,14790,2018-04-14 20:43:44,18,0,22.804,5815.9271257422,91.207352,0.447388,0.66623689796,0,0,-0.671082,64.8, 0.4, -1.4,0,0,1024,1024,1024,1024,65.9,-89.9,97,3.776,3.769,3.823,3.797,0,0,19.616,62.6,14,Waypoint,
36.7673043,-118.8834161,5816.9113777422,92.191604,0,0.207817591952,14890,2018-04-14 20:43:44,18,0,22.804,5816.9113777422,92.191604,0.447388,0.66623689796,0,0,-0.671082,64.7, 0.3, -1.7,0,0,1024,1024,1024,1024,65.9,-89.9,97,3.776,3.769,3.823,3.797,0,0,19.616,62.6,14,Waypoint,
36.7673043,-118.8834161,5817.8956297422,93.175856,0,0.207817591952,14990,2018-04-14 20:43:44,18,0,22.684,5817.8956297422,93.175856,0.447388,0.66623689796,0,0,-0.671082,64.7, 0, -2,0,0,1024,1024,1024,1024,65.9,-89.9,97,3.776,3.769,3.823,3.797,0,0,20.558,62.6,14,Waypoint,
36.7673043,-118.883416,5818.8798817422,94.160108,0,0.179117787884,15090,2018-04-14 20:43:44,18,0,22.684,5818.8798817422,94.160108,0.447388,0.66623689796,0,0,-0.671082,64.6, -0.2, -2,0,0,1024,1024,1024,1024,65.9,-89.9,97,3.776,3.769,3.823,3.797,0,0,20.558,62.6,14,Waypoint,
36.7673043,-118.8834161,5819.8641337422,95.14436,0,0.207817591952,15190,2018-04-14 20:43:44,18,0,22.684,5819.8641337422,95.14436,0.447388,0.66623689796,0,0,-0.671082,64.4, -0.2, -2,0,0,1024,1024,1024,1024,65.9,-89.9,97,3.776,3.769,3.823,3.797,0,0,20.558,62.6,14,Waypoint,
36.7673043,-118.8834161,5820.8483857422,96.128612,0,0.207817591952,15290,2018-04-14 20:43:45,18,0,22.684,5820.8483857422,96.128612,0.447388,0.66623689796,0,0,-0.671082,64.5, -0.1, -2.1,0,0,1024,1024,1024,1024,65.9,-89.9,97,3.776,3.769,3.823,3.797,0,0,20.558,62.6,14,Waypoint,
36.7673043,-118.8834161,5821.8326377422,97.112864,0,0.207817591952,15390,2018-04-14 20:43:45,19,0,22.684,5821.8326377422,97.112864,0.447388,0.66623689796,0,0,-0.671082,64.8, -0.2, -2.1,0,0,1024,1024,1024,1024,65.9,-89.9,97,3.776,3.769,3.823,3.797,0,0,20.558,62.6,14,Waypoint,
36.7673043,-118.8834162,5822.8168897422,98.097116,0,0.236646333032,15490,2018-04-14 20:43:45,19,0,22.684,5822.8168897422,98.097116,0.447388,0.66623689796,0,0,-0.671082,65.1, -0.3, -1.9,0,0,1024,1024,1024,1024,65.9,-89.9,97,3.776,3.769,3.823,3.797,0,0,20.558,62.6,14,Waypoint,
36.7673043,-118.8834163,5823.8011417422,99.081368,0,0.265562016372,15600,2018-04-14 20:43:45,17,0,22.684,5823.8011417422,99.081368,0.447388,0.66623689796,0,0,-0.671082,65.4, -0.7, -1.9,0,0,1024,1024,1024,1024,65.9,-89.9,97,3.776,3.769,3.823,3.797,0,0,20.558,62.6,14,Waypoint,
36.7673042,-118.8834163,5824.7853937422,100.06562,0,0.263043971672,15690,2018-04-14 20:43:45,17,0,22.684,5824.7853937422,100.06562,0.447388,0.66623689796,0,0,-0.671082,65.7, -0.9, -1.7,0,0,1024,1024,1024,1024,65.9,-90,97,3.776,3.769,3.823,3.797,0,0,20.558,62.6,14,Waypoint,
36.7673042,-118.8834164,5825.7696457422,101.049872,0,0.292271006728,15800,2018-04-14 20:43:45,18,0,22.684,5825.7696457422,101.049872,0.447388,0.66623689796,0,0,-0.671082,65.7, -0.8, -1.7,0,0,1024,1024,1024,1024,65.9,-89.9,97,3.776,3.769,3.823,3.797,0,0,20.558,62.6,14,Waypoint,
36.7673041,-118.8834165,5826.7538977422,102.034124,0,0.323561690144,15920,2018-04-14 20:43:45,18,0,22.684,5826.7538977422,102.034124,0.447388,0.66623689796,0,0,-0.671082,65.4, -1.1, -1.9,0,0,1024,1024,1024,1024,65.9,-89.9,97,3.776,3.769,3.823,3.797,0,0,20.558,62.6,14,Waypoint,
36.7673041,-118.8834166,5827.7381497422,103.018376,0,0.35261812152,16000,2018-04-14 20:43:45,18,0,22.687,5827.7381497422,103.018376,0.447388,0.66623689796,0,0,-0.671082,65.1, -1.4, -2,0,0,1024,1024,1024,1024,65.8,-90,97,3.755,3.764,3.793,3.789,0,0,20.417,62.6,14,Waypoint,
36.767304,-118.8834167,5829.7066537422,104.98688,0,0.38689633784,16200,2018-04-14 20:43:45,18,0,22.687,5829.7066537422,104.98688,0.447388,0.66623689796,0,0,-0.671082,64.7, -1.9, -2.3,0,0,1024,1024,1024,1024,65.8,-89.9,97,3.755,3.764,3.793,3.789,0,0,20.417,62.6,14,Waypoint,
36.767304,-118.8834167,5830.6909057422,105.971132,0,0.38689633784,16300,2018-04-14 20:43:46,18,0,22.687,5830.6909057422,105.971132,0.447388,0.66623689796,0,0,-0.671082,64.7, -1.6, -2.2,0,0,1024,1024,1024,1024,65.8,-89.9,97,3.755,3.764,3.793,3.789,0,0,20.417,62.6,14,Waypoint,
36.7673039,-118.8834167,5831.6751577422,106.955384,0,0.39540355596,16490,2018-04-14 20:43:46,18,0,22.687,5831.6751577422,106.955384,0.447388,0.66623689796,0,0,-0.671082,64.7, -1.4, -2.1,0,0,1024,1024,1024,1024,65.8,-89.9,97,3.755,3.764,3.793,3.789,0,0,20.417,62.6,14,Waypoint,
36.7673039,-118.8834167,5832.6594097422,107.939636,0,0.39540355596,16590,2018-04-14 20:43:46,18,0,22.687,5832.6594097422,107.939636,0.447388,0.66623689796,0,0,-0.671082,64.8, -1.1, -2.2,0,0,1024,1024,1024,1024,65.8,-89.9,97,3.755,3.764,3.793,3.789,0,0,20.417,62.6,14,Waypoint,
36.7673039,-118.8834167,5833.6436617422,108.923888,0,0.39540355596,16690,2018-04-14 20:43:46,17,0,22.687,5833.6436617422,108.923888,0.447388,0.66623689796,0,0,-0.671082,64.8, -0.9, -2.4,0,0,1024,1024,1024,1024,65.8,-89.9,97,3.755,3.764,3.793,3.789,0,0,20.417,62.6,14,Waypoint,
36.7673039,-118.8834167,5834.6279137422,109.90814,0,0.39540355596,16790,2018-04-14 20:43:46,17,0,22.687,5834.6279137422,109.90814,0.447388,0.66623689796,0,0,-0.671082,64.8, -0.7, -2.2,0,0,1024,1024,1024,1024,65.8,-89.9,97,3.755,3.764,3.793,3.789,0,0,20.417,62.6,14,Waypoint,
36.7673039,-118.8834167,5835.6121657422,110.892392,0,0.39540355596,16890,2018-04-14 20:43:46,18,0,22.687,5835.6121657422,110.892392,0.447388,0.66623689796,0,0,-0.671082,64.8, -0.6, -2.2,0,0,1024,1024,1024,1024,65.8,-89.9,97,3.755,3.764,3.793,3.789,0,0,20.417,62.6,14,Waypoint,
36.7673039,-118.8834167,5836.5964177422,111.876644,0,0.39540355596,17010,2018-04-14 20:43:46,18,0,22.747,5836.5964177422,111.876644,0.447388,0.66623689796,0,0,-0.671082,65, -0.6, -2,0,0,1024,1024,1024,1024,65.8,-89.9,97,3.755,3.764,3.793,3.789,0,0,19.459,62.6,14,Waypoint,
36.7673039,-118.8834167,5838.5649217422,113.845148,0,0.39540355596,17110,2018-04-14 20:43:46,19,0,22.747,5838.5649217422,113.845148,0.447388,0.66623689796,0,0,-0.671082,65.5, -0.5, -1.5,0,0,1024,1024,1024,1024,65.8,-89.9,97,3.755,3.764,3.793,3.789,0,0,19.459,62.6,14,Waypoint,
36.7673039,-118.8834167,5838.5649217422,113.845148,0,0.39540355596,17190,2018-04-14 20:43:46,19,0,22.747,5838.5649217422,113.845148,0.447388,0.66623689796,0,0,-0.671082,65.5, -0.5, -1.5,0,0,1024,1024,1024,1024,65.8,-89.9,97,3.755,3.764,3.793,3.789,0,0,19.459,62.6,14,Waypoint,
36.7673038,-118.8834166,5839.5491737422,114.8294,0,0.37987862108,17300,2018-04-14 20:43:47,19,0,22.747,5839.5491737422,114.8294,0.447388,0.66623689796,0,0,-0.671082,65.4, -0.5, -2.2,0,0,1024,1024,1024,1024,65.9,-89.9,97,3.755,3.764,3.793,3.789,0,0,19.459,62.6,14,Waypoint,
36.7673038,-118.8834166,5840.5334257422,115.813652,0,0.37987862108,17390,2018-04-14 20:43:47,19,0,22.747,5840.5334257422,115.813652,0.447388,0.66623689796,0,0,-0.671082,65.1, -0.1, -2.8,0,0,1024,1024,1024,1024,65.8,-89.9,97,3.755,3.764,3.793,3.789,0,0,19.459,62.6,14,Waypoint,
36.7673037,-118.8834165,5841.5176777422,116.797904,0,0.36964896196,17500,2018-04-14 20:43:47,19,0,22.747,5841.5176777422,116.797904,0.447388,0.66623689796,0,0,-0.671082,64.8, 0, -3.3,0,0,1024,1024,1024,1024,65.8,-89.9,97,3.755,3.764,3.793,3.789,0,0,19.459,62.6,14,Waypoint,
36.7673036,-118.8834164,5842.5019297422,117.782156,0,0.36516405368,17600,2018-04-14 20:43:47,19,0,22.747,5842.5019297422,117.782156,0.447388,0.66623689796,0,0,-0.671082,64.5, 0, -3.6,0,0,1024,1024,1024,1024,65.8,-89.9,97,3.755,3.764,3.793,3.789,0,0,19.459,62.6,14,Waypoint,
36.7673035,-118.8834163,5843.4861817422,118.766408,0,0.36663058916,17700,2018-04-14 20:43:47,20,0,22.747,5843.4861817422,118.766408,0.447388,0.66623689796,0,0,-0.671082,64.2, 0, -3.8,0,0,1024,1024,1024,1024,65.8,-89.9,97,3.755,3.764,3.793,3.789,0,0,19.459,62.6,14,Waypoint,
36.7673035,-118.8834163,5844.4704337422,119.75066,0,0.36663058916,17890,2018-04-14 20:43:47,20,0,22.747,5844.4704337422,119.75066,0.447388,0.66623689796,0,0,-0.671082,64, 0, -4.1,0,0,1024,1024,1024,1024,65.8,-89.9,97,3.755,3.764,3.793,3.789,0,0,19.459,62.6,14,Waypoint,
36.7673034,-118.8834163,5845.4546857422,120.734912,0,0.39291996008,18000,2018-04-14 20:43:47,20,0,22.747,5845.4546857422,120.734912,0.447388,0.66623689796,0,0,-0.671082,64, -0.2, -3.9,0,0,1024,1024,1024,1024,65.8,-89.9,97,3.768,3.761,3.813,3.797,0,0,19.459,62.6,14,Waypoint,
36.7673034,-118.8834163,5846.4389377422,121.719164,0,0.39291996008,18100,2018-04-14 20:43:47,20,0,22.747,5846.4389377422,121.719164,0.447388,0.66623689796,0,0,-0.671082,64.2, -0.4, -3.9,0,0,1024,1024,1024,1024,65.8,-89.9,97,3.768,3.761,3.813,3.797,0,0,19.459,62.6,14,Waypoint,
36.7673034,-118.8834163,5847.4231897422,122.703416,0,0.39291996008,18210,2018-04-14 20:43:47,20,0,22.747,5847.4231897422,122.703416,0.447388,0.66623689796,0,0,-0.671082,64.4, -0.7, -3.8,0,0,1024,1024,1024,1024,65.8,-90,97,3.768,3.761,3.813,3.797,0,0,19.459,62.6,14,Waypoint,
36.7673034,-118.8834163,5847.4231897422,122.703416,0,0.39291996008,18300,2018-04-14 20:43:48,20,0,22.747,5847.4231897422,122.703416,0.447388,0.66623689796,0,0,-0.671082,64.4, -0.7, -3.8,0,0,1024,1024,1024,1024,65.8,-90,97,3.768,3.761,3.813,3.797,0,0,19.459,62.6,14,Waypoint,
36.7673034,-118.8834164,5848.4074417422,123.687668,0,0.413057756,18400,2018-04-14 20:43:48,20,0,22.747,5848.4074417422,123.687668,0.447388,0.66623689796,0,0,-0.671082,64.7, -1, -3.3,0,0,1024,1024,1024,1024,65.8,-90,97,3.768,3.761,3.813,3.797,0,0,19.459,62.6,14,Waypoint,
36.7673033,-118.8834164,5849.3916937422,124.67192,0,0.43959647076,18490,2018-04-14 20:43:48,20,0,22.747,5849.3916937422,124.67192,0.447388,0.66623689796,0,0,-0.671082,64.9, -1, -3.3,0,0,1024,1024,1024,1024,65.9,-89.9,97,3.768,3.761,3.813,3.797,0,0,19.459,62.6,14,Waypoint,
36.7673033,-118.8834165,5850.3759457422,125.656172,0,0.4595472588,18590,2018-04-14 20:43:48,20,0,22.747,5850.3759457422,125.656172,0.447388,0.66623689796,0,0,-0.671082,65, -0.7, -3.2,0,0,1024,1024,1024,1024,65.9,-89.9,97,3.768,3.761,3.813,3.797,0,0,19.459,62.6,14,Waypoint,
36.7673033,-118.8834165,5851.3601977422,126.640424,0,0.4595472588,18700,2018-04-14 20:43:48,20,0,22.747,5851.3601977422,126.640424,0.447388,0.66623689796,0,0,-0.671082,64.9, -0.6, -3.6,0,0,1024,1024,1024,1024,65.8,-89.9,97,3.768,3.761,3.813,3.797,0,0,19.459,62.6,14,Waypoint,
36.7673032,-118.8834165,5852.3444497422,127.624676,0,0.48628938564,18790,2018-04-14 20:43:48,20,0,22.747,5852.3444497422,127.624676,0.447388,0.66623689796,0,0,-0.671082,64.8, -0.6, -3.9,0,0,1024,1024,1024,1024,65.8,-89.9,97,3.768,3.761,3.813,3.797,0,0,19.459,62.6,14,Waypoint,
36.7673032,-118.8834166,5853.3287017422,128.608928,0,0.5060859742,18990,2018-04-14 20:43:48,20,0,22.668,5853.3287017422,128.608928,0.447388,0.66623689796,0,0,-0.671082,64.7, -0.7, -3.8,0,0,1024,1024,1024,1024,65.8,-89.9,97,3.756,3.742,3.809,3.776,0,0,19.538,62.6,14,Waypoint,
36.7673031,-118.8834167,5855.9533737422,131.2336,0,0.55266077884,19090,2018-04-14 20:43:48,20,0,22.668,5855.9533737422,131.2336,0.447388,0.66623689796,0,0,-0.671082,64.9, -0.4, -3.2,0,0,1024,1024,1024,1024,65.8,-89.9,97,3.756,3.742,3.809,3.776,0,0,19.538,62.6,14,Waypoint,
36.7673031,-118.8834167,5856.9376257422,132.217852,0,0.55266077884,19200,2018-04-14 20:43:48,20,0,22.668,5856.9376257422,132.217852,0.447388,0.66623689796,0,0,-0.671082,65, -0.5, -3,0,0,1024,1024,1024,1024,65.8,-89.9,97,3.756,3.742,3.809,3.776,0,0,19.538,62.6,14,Waypoint,
36.7673031,-118.8834168,5858.9061297422,134.186356,0,0.5731463438,19300,2018-04-14 20:43:49,20,0,22.668,5858.9061297422,134.186356,0.447388,0.66623689796,0,0,-0.671082,65.2, -1, -3.3,0,0,1024,1024,1024,1024,65.8,-90,97,3.756,3.742,3.809,3.776,0,0,19.538,62.6,14,Waypoint,
36.767303,-118.8834168,5859.8903817422,135.170608,0,0.5992618302,19390,2018-04-14 20:43:49,20,0,22.668,5859.8903817422,135.170608,0.447388,0.66623689796,0,0,-0.671082,65.3, -1.2, -3.6,0,0,1024,1024,1024,1024,65.8,-89.9,97,3.756,3.742,3.809,3.776,0,0,19.538,62.6,14,Waypoint,
36.767303,-118.8834168,5860.5465497422,135.826776,0,0.5992618302,19490,2018-04-14 20:43:49,20,0,22.668,5860.5465497422,135.826776,0.447388,0.66623689796,0,0,-0.671082,65.3, -1, -3.6,0,0,1024,1024,1024,1024,65.8,-89.9,97,3.756,3.742,3.809,3.776,0,0,19.538,62.6,14,Waypoint,
36.767303,-118.8834168,5861.5308017422,136.811028,0,0.5992618302,19590,2018-04-14 20:43:49,20,0,22.668,5861.5308017422,136.811028,0.447388,0.66623689796,0,0,-0.671082,65.4, -0.9, -3.6,0,0,1024,1024,1024,1024,65.8,-89.9,97,3.756,3.742,3.809,3.776,0,0,19.538,62.6,14,Waypoint,
36.7673031,-118.8834166,5863.4993057422,138.779532,0.223694,0.5329888622,19690,2018-04-14 20:43:49,20,0,22.668,5863.4993057422,138.779532,0.447388,0.66623689796,0,0,-0.671082,65.1, -0.1, -3.3,0,0,1024,1024,1024,1024,65.8,-89.9,97,3.756,3.742,3.809,3.776,0,0,19.538,62.6,14,Waypoint,
36.7673032,-118.8834166,5864.4835577422,139.763784,0.223694,0.5060859742,19790,2018-04-14 20:43:49,20,0,22.668,5864.4835577422,139.763784,0.447388,0.66623689796,0,0,-0.671082,64.9, 0.3, -2.8,0,0,1024,1024,1024,1024,65.9,-89.9,97,3.756,3.742,3.809,3.776,0,0,19.538,62.6,14,Waypoint,
36.7673034,-118.8834165,5865.4678097422,140.748036,0.223694,0.43422901652,19890,2018-04-14 20:43:49,20,0,22.668,5865.4678097422,140.748036,0.447388,0.66623689796,0,0,-0.671082,64.8, 0.5, -2.4,0,0,1024,1024,1024,1024,65.9,-89.9,97,3.756,3.742,3.809,3.776,0,0,19.538,62.6,14,Waypoint,
36.7673035,-118.8834165,5866.4520617422,141.732288,0.223694,0.41059384516,19990,2018-04-14 20:43:49,20,0,22.596,5866.4520617422,141.732288,0.447388,0.66623689796,0,0,-0.671082,64.7, 0.6, -2.1,0,0,1024,1024,1024,1024,65.8,-89.9,96,3.74,3.73,3.798,3.764,0,0,19.521,62.6,14,Waypoint,
36.7673036,-118.8834165,5867.4363137422,142.71654,0.223694,0.38895014368,20090,2018-04-14 20:43:49,20,0,22.596,5867.4363137422,142.71654,0.447388,0.66623689796,0,0,-0.671082,64.7, 0.6, -1.8,0,0,1024,1024,1024,1024,65.8,-89.9,96,3.74,3.73,3.798,3.764,0,0,19.521,62.6,14,Waypoint,
36.7673036,-118.8834164,5868.4205657422,143.700792,0.223694,0.36516405368,20190,2018-04-14 20:43:49,20,0,22.596,5868.4205657422,143.700792,0.447388,0.66623689796,0,0,-0.671082,64.7, 0.5, -2,0,0,1024,1024,1024,1024,65.8,-89.9,96,3.74,3.73,3.798,3.764,0,0,19.521,62.6,14,Waypoint,
36.7673037,-118.8834164,5869.7329017422,145.013128,0,0.34453085092,20290,2018-04-14 20:43:50,20,0,22.596,5869.7329017422,145.013128,0.447388,0.66623689796,0,0,-0.671082,64.6, 0.5, -2.4,0,0,1024,1024,1024,1024,65.8,-89.9,96,3.74,3.73,3.798,3.764,0,0,19.521,62.6,14,Waypoint,
36.7673037,-118.8834164,5870.7171537422,145.99738,0,0.34453085092,20390,2018-04-14 20:43:50,20,0,22.596,5870.7171537422,145.99738,0.447388,0.66623689796,0,0,-0.671082,64.6, 0.3, -2.8,0,0,1024,1024,1024,1024,65.8,-89.9,96,3.74,3.73,3.798,3.764,0,0,19.521,62.6,14,Waypoint,
36.7673037,-118.8834163,5871.7014057422,146.981632,0,0.320110574548,20490,2018-04-14 20:43:50,20,0,22.596,5871.7014057422,146.981632,0.447388,0.66623689796,0,0,-0.671082,64.6, 0.2, -2.8,0,0,1024,1024,1024,1024,65.8,-89.9,96,3.74,3.73,3.798,3.764,0,0,19.521,62.6,14,Waypoint,
36.7673037,-118.8834162,5872.6856577422,147.965884,0,0.296562017364,20590,2018-04-14 20:43:50,20,0,22.596,5872.6856577422,147.965884,0.447388,0.66623689796,0,0,-0.671082,64.6, 0.2, -2.8,0,0,1024,1024,1024,1024,65.8,-89.9,96,3.74,3.73,3.798,3.764,0,0,19.521,62.6,14,Waypoint,
36.7673037,-118.8834161,5873.9979937422,149.27822,0,0.274108932656,20700,2018-04-14 20:43:50,20,0,22.596,5873.9979937422,149.27822,0.447388,0.66623689796,0,0,-0.671082,64.6, 0.5, -3.2,0,0,1024,1024,1024,1024,65.8,-89.9,96,3.74,3.73,3.798,3.764,0,0,19.521,62.6,14,Waypoint,
36.7673036,-118.883416,5874.9822457422,150.262472,0.223694,0.280487869868,20800,2018-04-14 20:43:50,20,0,22.596,5874.9822457422,150.262472,0.447388,0.66623689796,0,0,-0.671082,64.4, 0.7, -3.8,0,0,1024,1024,1024,1024,65.8,-89.9,96,3.74,3.73,3.798,3.764,0,0,19.521,62.6,14,Waypoint,
36.7673036,-118.8834159,5875.9664977422,151.246724,0.223694,0.263205389,20900,2018-04-14 20:43:50,20,0,22.596,5875.9664977422,151.246724,0.447388,0.66623689796,0,0,-0.671082,64.3, 1.1, -4.7,0,0,1024,1024,1024,1024,65.8,-89.9,96,3.74,3.73,3.798,3.764,0,0,19.521,62.6,14,Waypoint,
36.7673035,-118.8834158,5877.2788337422,152.55906,0,0.280880586416,21090,2018-04-14 20:43:50,20,0,22.596,5877.2788337422,152.55906,0.447388,0.66623689796,0,0,-0.671082,64.2, 1.4, -5.2,0,0,1024,1024,1024,1024,65.8,-89.9,96,3.74,3.73,3.798,3.764,0,0,19.521,62.6,14,Waypoint,
36.7673034,-118.8834157,5878.2630857422,153.543312,0,0.304764773532,21190,2018-04-14 20:43:50,20,0,22.596,5878.2630857422,153.543312,0.447388,0.66623689796,0,0,-0.671082,64.2, 1.2, -5.4,0,0,1024,1024,1024,1024,65.8,-89.9,96,3.74,3.73,3.798,3.764,0,0,19.521,62.6,14,Waypoint,
36.7673033,-118.8834157,5879.2473377422,154.527564,0,0.33986877728,21290,2018-04-14 20:43:51,20,0,22.596,5879.2473377422,154.527564,0.447388,0.66623689796,0,0,-0.671082,64.3, 0.9, -5,0,0,1024,1024,1024,1024,65.8,-89.9,96,3.74,3.73,3.798,3.764,0,0,19.521,62.6,14,Waypoint,
36.7673033,-118.8834156,5880.2315897422,155.511816,0,0.33352691356,21500,2018-04-14 20:43:51,20,0,22.596,5880.2315897422,155.511816,0.447388,0.66623689796,0,0,-0.671082,64.5, 0.7, -4.4,0,0,1024,1024,1024,1024,65.9,-89.9,96,3.74,3.73,3.798,3.764,0,0,19.521,62.6,14,Waypoint,
36.7673032,-118.8834156,5880.8877577422,156.167984,0,0.36950132416,21600,2018-04-14 20:43:51,20,0,22.596,5880.8877577422,156.167984,0.447388,0.66623689796,0,0,-0.671082,64.6, 0.5, -4.1,0,0,1024,1024,1024,1024,65.8,-89.9,96,3.74,3.73,3.798,3.764,0,0,19.521,62.6,14,Waypoint,
36.7673032,-118.8834156,5881.8720097422,157.152236,0,0.36950132416,21690,2018-04-14 20:43:51,20,0,22.596,5881.8720097422,157.152236,0.447388,0.66623689796,0,0,-0.671082,64.8, 0.3, -3.9,0,0,1024,1024,1024,1024,65.8,-89.9,96,3.74,3.73,3.798,3.764,0,0,19.521,62.6,14,Waypoint,
36.7673029,-118.8834155,5884.4966817422,159.776908,0,0.47520342728,21890,2018-04-14 20:43:51,20,0,22.596,5884.4966817422,159.776908,0.447388,0.66623689796,0,0,-0.671082,65, 0.4, -5.2,0,0,1024,1024,1024,1024,65.8,-89.9,96,3.74,3.73,3.798,3.764,0,0,19.521,62.6,14,Waypoint,
36.7673028,-118.8834154,5887.4494377422,162.729664,0,0.51079069876,22110,2018-04-14 20:43:51,20,0,22.596,5887.4494377422,162.729664,0.447388,0.66623689796,0,0,-0.671082,64.9, 0.7, -4.9,0,0,1024,1024,1024,1024,65.8,-89.9,96,3.74,3.73,3.798,3.764,0,0,19.521,62.6,14,Waypoint,
36.7673028,-118.8834154,5887.4494377422,162.729664,0,0.51079069876,22190,2018-04-14 20:43:51,20,0,22.596,5887.4494377422,162.729664,0.447388,0.66623689796,0,0,-0.671082,64.9, 0.7, -4.9,0,0,1024,1024,1024,1024,65.8,-89.9,96,3.74,3.73,3.798,3.764,0,0,19.521,62.6,14,Waypoint,
36.7673029,-118.8834154,5889.4179417422,164.698168,0,0.47430447712,22290,2018-04-14 20:43:52,20,0,22.596,5889.4179417422,164.698168,0.447388,0.66623689796,0,0,-0.671082,64.8, 0.2, -4.7,0,0,1024,1024,1024,1024,65.8,-89.9,96,3.74,3.73,3.798,3.764,0,0,19.521,62.6,14,Waypoint,
36.7673029,-118.8834154,5890.4021937422,165.68242,0,0.47430447712,22390,2018-04-14 20:43:52,20,0,22.596,5890.4021937422,165.68242,0.447388,0.66623689796,0,0,-0.671082,64.7, 0, -3.9,0,0,1024,1024,1024,1024,65.8,-89.9,96,3.74,3.73,3.798,3.764,0,0,19.521,62.6,14,Waypoint,
36.7673029,-118.8834155,5891.3864457422,166.666672,0,0.47520342728,22490,2018-04-14 20:43:52,20,0,22.596,5891.3864457422,166.666672,0.447388,0.66623689796,0,0,-0.671082,64.7, 0, -3.8,0,0,1024,1024,1024,1024,65.8,-89.9,96,3.74,3.73,3.798,3.764,0,0,19.521,62.6,14,Waypoint,
36.767303,-118.8834155,5892.3706977422,167.650924,0,0.43879266496,22590,2018-04-14 20:43:52,20,0,22.596,5892.3706977422,167.650924,0.447388,0.66623689796,0,0,-0.671082,64.7, 0.2, -3.8,0,0,1024,1024,1024,1024,65.8,-89.9,96,3.74,3.73,3.798,3.764,0,0,19.521,62.6,14,Waypoint,
36.767303,-118.8834155,5893.3549497422,168.635176,0,0.43879266496,22700,2018-04-14 20:43:52,20,0,22.596,5893.3549497422,168.635176,0.447388,0.66623689796,0,0,-0.671082,64.6, 0.5, -4.2,0,0,1024,1024,1024,1024,65.8,-89.9,96,3.74,3.73,3.798,3.764,0,0,19.521,62.6,14,Waypoint,
36.767303,-118.8834155,5894.3392017422,169.619428,0,0.43879266496,22790,2018-04-14 20:43:52,20,0,22.596,5894.3392017422,169.619428,0.447388,0.66623689796,0,0,-0.671082,64.6, 0.5, -4.4,0,0,1024,1024,1024,1024,65.8,-89.9,96,3.74,3.73,3.798,3.764,0,0,19.521,62.6,14,Waypoint,
36.767303,-118.8834155,5895.6515377422,170.931764,0,0.43879266496,22890,2018-04-14 20:43:52,20,0,22.596,5895.6515377422,170.931764,0.447388,0.66623689796,0,0,-0.671082,64.6, 0.5, -4.4,0,0,1024,1024,1024,1024,65.8,-89.9,96,3.74,3.73,3.798,3.764,0,0,19.521,62.6,14,Waypoint,
36.7673028,-118.8834156,5897.6200417422,172.900268,0,0.5141240322,23190,2018-04-14 20:43:52,20,0,22.596,5897.6200417422,172.900268,0.447388,0.66623689796,0,0,-0.671082,65.1, 0, -5.3,0,0,1024,1024,1024,1024,65.8,-90,96,3.74,3.73,3.798,3.764,0,0,19.521,62.6,14,Waypoint,
36.7673026,-118.8834156,5898.6042937422,173.88452,0,0.5866798088,23300,2018-04-14 20:43:53,20,0,22.596,5898.6042937422,173.88452,0.447388,0.66623689796,0,0,-0.671082,65.3, -0.6, -5.6,0,0,1024,1024,1024,1024,65.8,-90,96,3.74,3.73,3.798,3.764,0,0,19.521,62.6,14,Waypoint,
36.7673024,-118.8834157,5900.5727977422,175.853024,0,0.66255579548,23410,2018-04-14 20:43:53,20,0,22.596,5900.5727977422,175.853024,0.447388,0.66623689796,0,0,-0.671082,65.5, -1.3, -6.1,0,0,1024,1024,1024,1024,65.8,-89.9,96,3.74,3.73,3.798,3.764,0,0,19.521,62.6,14,Waypoint,
36.7673024,-118.8834157,5900.5727977422,175.853024,0,0.66255579548,23500,2018-04-14 20:43:53,20,0,22.596,5900.5727977422,175.853024,0.447388,0.66623689796,0,0,-0.671082,65.5, -1.3, -6.1,0,0,1024,1024,1024,1024,65.8,-89.9,96,3.74,3.73,3.798,3.764,0,0,19.521,62.6,14,Waypoint,
36.7673023,-118.8834158,5901.5570497422,176.837276,0,0.703001991,23590,2018-04-14 20:43:53,20,0,22.596,5901.5570497422,176.837276,0.447388,0.703001991,0,0,-0.671082,65.5, -1.2, -6.2,0,0,1024,1024,1024,1024,65.8,-89.9,96,3.74,3.73,3.798,3.764,0,0,19.521,62.6,14,Waypoint,
36.7673022,-118.8834158,5902.5413017422,177.821528,0,0.73900592916,23690,2018-04-14 20:43:53,20,0,22.596,5902.5413017422,177.821528,0.447388,0.73900592916,0,0,-0.671082,65.4, -1.1, -5.9,0,0,1024,1024,1024,1024,65.8,-89.9,96,3.74,3.73,3.798,3.764,0,0,19.521,62.6,14,Waypoint,
36.7673021,-118.8834158,5903.5255537422,178.80578,0,0.77505251824,23800,2018-04-14 20:43:53,20,0,22.596,5903.5255537422,178.80578,0.447388,0.77505251824,0,0,-0.671082,65.2, -1, -5.9,0,0,1024,1024,1024,1024,65.8,-89.9,96,3.74,3.73,3.798,3.764,0,0,19.521,62.6,14,Waypoint,
36.7673021,-118.8834159,5904.5098057422,179.790032,0,0.77999674412,23900,2018-04-14 20:43:53,20,0,22.596,5904.5098057422,179.790032,0.447388,0.77999674412,0,0,-0.671082,65.1, -0.8, -6,0,0,1024,1024,1024,1024,65.8,-89.9,96,3.74,3.73,3.798,3.764,0,0,19.521,62.6,14,Waypoint,
36.767302,-118.8834159,5905.4940577422,180.774284,0,0.815862887,23990,2018-04-14 20:43:53,20,0,22.388,5905.4940577422,180.774284,0.447388,0.815862887,0,0,-0.671082,64.9, -0.4, -6.4,0,0,1024,1024,1024,1024,65.8,-89.9,96,3.717,3.709,3.779,3.723,0,0,21.31,62.6,14,Waypoint,
36.7673018,-118.8834159,5907.4625617422,182.742788,0,0.88774937224,24090,2018-04-14 20:43:53,20,0,22.388,5907.4625617422,182.742788,0.447388,0.88774937224,0,0,-0.671082,64.6, -0.2, -6.4,0,0,1024,1024,1024,1024,65.8,-89.9,96,3.717,3.709,3.779,3.723,0,0,21.31,62.6,14,Waypoint,
36.7673017,-118.8834159,5909.4310657422,184.711292,0,0.92375659124,24300,2018-04-14 20:43:54,20,0,22.388,5909.4310657422,184.711292,0.447388,0.92375659124,0,0,-0.671082,64.8, -0.9, -6.1,0,0,1024,1024,1024,1024,65.8,-90,96,3.717,3.709,3.779,3.723,0,0,21.31,62.6,14,Waypoint,
36.7673017,-118.883416,5910.4153177422,185.695544,0,0.92882876988,24390,2018-04-14 20:43:54,20,0,22.388,5910.4153177422,185.695544,0.447388,0.92882876988,0,0,-0.671082,64.9, -1.3, -5.9,0,0,1024,1024,1024,1024,65.8,-90,96,3.717,3.709,3.779,3.723,0,0,21.31,62.6,14,Waypoint,
36.7673017,-118.8834161,5911.3995697422,186.679796,0.223694,0.93478677532,24500,2018-04-14 20:43:54,20,0,22.388,5911.3995697422,186.679796,0.447388,0.93478677532,0,0,-0.671082,64.9, -1.3, -5.8,0,0,1024,1024,1024,1024,65.8,-89.9,96,3.717,3.709,3.779,3.723,0,0,21.31,62.6,14,Waypoint,
36.7673018,-118.8834161,5912.3838217422,187.664048,0,0.89922246972,24590,2018-04-14 20:43:54,20,0,22.388,5912.3838217422,187.664048,0.447388,0.93478677532,0,0,-0.671082,64.9, -1.3, -5.7,0,0,1024,1024,1024,1024,65.8,-89.9,96,3.717,3.709,3.779,3.723,0,0,21.31,62.6,14,Waypoint,
36.7673018,-118.8834161,5913.3680737422,188.6483,0.223694,0.89922246972,24690,2018-04-14 20:43:54,20,0,22.388,5913.3680737422,188.6483,0.447388,0.93478677532,0,0,-0.671082,64.8, -0.9, -5.5,0,0,1024,1024,1024,1024,65.8,-89.9,96,3.717,3.709,3.779,3.723,0,0,21.31,62.6,14,Waypoint,
36.7673018,-118.8834161,5914.3523257422,189.632552,0.223694,0.89922246972,24800,2018-04-14 20:43:54,20,0,22.388,5914.3523257422,189.632552,0.447388,0.93478677532,0,0,-0.671082,64.8, -0.3, -5.1,0,0,1024,1024,1024,1024,65.8,-89.9,96,3.717,3.709,3.779,3.723,0,0,21.31,62.6,14,Waypoint,
36.7673019,-118.8834161,5915.0084937422,190.28872,0.223694,0.86373362344,24900,2018-04-14 20:43:54,20,0,22.388,5915.0084937422,190.28872,0.447388,0.93478677532,0,0,-0.671082,64.7, 0, -4.8,0,0,1024,1024,1024,1024,65.8,-89.9,96,3.717,3.709,3.779,3.723,0,0,21.31,62.6,14,Waypoint,
36.7673019,-118.8834161,5915.9927457422,191.272972,0.223694,0.86373362344,24990,2018-04-14 20:43:54,20,0,22.495,5915.9927457422,191.272972,0.447388,0.93478677532,0,0,-0.671082,64.7, 0.1, -4.6,0,0,1024,1024,1024,1024,65.8,-89.9,96,3.722,3.715,3.775,3.746,0,0,19.597,64.4,14,Waypoint,
36.767302,-118.883416,5916.9769977422,192.257224,0.223694,0.82160107616,25090,2018-04-14 20:43:54,20,0,22.495,5916.9769977422,192.257224,0.447388,0.93478677532,0,0,-0.671082,64.9, 0.3, -4.6,0,0,1024,1024,1024,1024,65.8,-89.9,96,3.722,3.715,3.775,3.746,0,0,19.597,64.4,14,Waypoint,
36.767302,-118.883416,5917.9612497422,193.241476,0.223694,0.82160107616,25200,2018-04-14 20:43:54,20,0,22.495,5917.9612497422,193.241476,0.447388,0.93478677532,0,0,-0.671082,65, 0.3, -5,0,0,1024,1024,1024,1024,65.8,-89.9,96,3.722,3.715,3.775,3.746,0,0,19.597,64.4,14,Waypoint,
36.767302,-118.8834159,5918.9455017422,194.225728,0.223694,0.815862887,25290,2018-04-14 20:43:55,20,0,22.495,5918.9455017422,194.225728,0.447388,0.93478677532,0,0,-0.671082,65.1, 0.4, -5.2,0,0,1024,1024,1024,1024,65.8,-89.9,96,3.722,3.715,3.775,3.746,0,0,19.597,64.4,14,Waypoint,
36.767302,-118.8834159,5919.9297537422,195.20998,0,0.815862887,25390,2018-04-14 20:43:55,20,0,22.495,5919.9297537422,195.20998,0.447388,0.93478677532,0,0,-0.671082,65, 0.4, -5.6,0,0,1024,1024,1024,1024,65.8,-89.9,96,3.722,3.715,3.775,3.746,0,0,19.597,64.4,14,Waypoint,
36.767302,-118.8834158,5920.9140057422,196.194232,0.223694,0.8111384774,25490,2018-04-14 20:43:55,20,0,22.495,5920.9140057422,196.194232,0.447388,0.93478677532,0,0,-0.671082,64.9, 0.4, -5.6,0,0,1024,1024,1024,1024,65.8,-89.9,96,3.722,3.715,3.775,3.746,0,0,19.597,64.4,14,Waypoint,
36.767302,-118.8834158,5921.8982577422,197.178484,0,0.8111384774,25690,2018-04-14 20:43:55,20,0,22.495,5921.8982577422,197.178484,0.447388,0.93478677532,0,0,-0.671082,64.8, 0.5, -5.7,0,0,1024,1024,1024,1024,65.8,-89.9,96,3.722,3.715,3.775,3.746,0,0,19.597,64.4,14,Waypoint,
36.767302,-118.8834157,5922.8825097422,198.162736,0,0.80744425156,25790,2018-04-14 20:43:55,20,0,22.495,5922.8825097422,198.162736,0.447388,0.93478677532,0,0,-0.671082,64.9, 0.8, -6.2,0,0,1024,1024,1024,1024,65.8,-89.9,96,3.722,3.715,3.775,3.746,0,0,19.597,64.4,14,Waypoint,
36.767302,-118.8834157,5923.8667617422,199.146988,0,0.80744425156,25890,2018-04-14 20:43:55,20,0,22.495,5923.8667617422,199.146988,0.447388,0.93478677532,0,0,-0.671082,65.1, 0.5, -6.5,0,0,1024,1024,1024,1024,65.8,-89.9,96,3.722,3.715,3.775,3.746,0,0,19.597,64.4,14,Waypoint,
36.767302,-118.8834158,5924.8510137422,200.13124,0.223694,0.8111384774,25990,2018-04-14 20:43:55,20,0,22.432,5924.8510137422,200.13124,0.447388,0.93478677532,0,0,-0.671082,65.1, -0.1, -6,0,0,1024,1024,1024,1024,65.8,-90,96,3.72,3.702,3.768,3.713,0,0,20.509,64.4,14,Waypoint,
36.7673021,-118.8834158,5925.8352657422,201.115492,0.223694,0.77505251824,26090,2018-04-14 20:43:55,20,0,22.432,5925.8352657422,201.115492,0.447388,0.93478677532,0,0,-0.671082,65.1, -0.6, -5.2,0,0,1024,1024,1024,1024,65.8,-90,96,3.72,3.702,3.768,3.713,0,0,20.509,64.4,14,Waypoint,
36.7673023,-118.8834159,5927.8037697422,203.083996,0.223694,0.7084481854,26190,2018-04-14 20:43:55,20,0,22.432,5927.8037697422,203.083996,0.447388,0.93478677532,0,0,-0.671082,65, -0.7, -4.9,0,0,1024,1024,1024,1024,65.8,-90,96,3.72,3.702,3.768,3.713,0,0,20.509,64.4,14,Waypoint,
36.7673024,-118.8834159,5928.7880217422,204.068248,0.223694,0.67279201628,26390,2018-04-14 20:43:56,20,0,22.432,5928.7880217422,204.068248,0.447388,0.93478677532,0,0,-0.671082,64.9, -0.5, -4.8,0,0,1024,1024,1024,1024,65.8,-89.9,96,3.72,3.702,3.768,3.713,0,0,20.509,64.4,14,Waypoint,
36.7673026,-118.8834159,5930.7565257422,206.036752,0.223694,0.6017716728,26490,2018-04-14 20:43:56,20,0,22.432,5930.7565257422,206.036752,0.447388,0.93478677532,0,0,-0.671082,64.6, -0.1, -4.3,0,0,1024,1024,1024,1024,65.8,-89.9,96,3.72,3.702,3.768,3.713,0,0,20.509,64.4,14,Waypoint,
36.7673028,-118.883416,5931.7407777422,207.021004,0.223694,0.54005251072,26590,2018-04-14 20:43:56,21,0,22.432,5931.7407777422,207.021004,0.447388,0.93478677532,0,0,-0.671082,64.7, 0.1, -4.2,0,0,1024,1024,1024,1024,65.8,-89.9,96,3.72,3.702,3.768,3.713,0,0,20.509,64.4,14,Waypoint,
36.7673029,-118.883416,5932.7250297422,208.005256,0.223694,0.50568571172,26690,2018-04-14 20:43:56,21,0,22.432,5932.7250297422,208.005256,0.447388,0.93478677532,0,0,-0.671082,64.9, 0.1, -3.9,0,0,1024,1024,1024,1024,65.8,-89.9,96,3.72,3.702,3.768,3.713,0,0,20.509,64.4,14,Waypoint,
36.767303,-118.8834161,5933.7092817422,208.989508,0.223694,0.48326117032,26790,2018-04-14 20:43:56,21,0,22.432,5933.7092817422,208.989508,0.447388,0.93478677532,0,0,-0.671082,65.2, 0, -3.7,0,0,1024,1024,1024,1024,65.8,-89.9,96,3.72,3.702,3.768,3.713,0,0,20.509,64.4,14,Waypoint,
