latitude,longitude,altitude(feet),ascent(feet),speed(mph),distance(feet),time(millisecond),datetime(utc),satellites,gpslevel,voltage(v),max_altitude(feet),max_ascent(feet),max_speed(mph),max_distance(feet), xSpeed(mph), ySpeed(mph), zSpeed(mph), compass_heading(degrees), pitch(degrees), roll(degrees),isPhoto,isVideo,rc_elevator,rc_aileron,rc_throttle,rc_rudder,gimbal_heading(degrees),gimbal_pitch(degrees),battery_percent,voltageCell1,voltageCell2,voltageCell3,voltageCell4,voltageCell5,voltageCell6,current(A),battery_temperature(f),flycStateRaw,flycState,message
36.767265,-118.8834255,5724.4806795745,0,0.4921268,0,3010,2018-04-14 21:43:39,11,0,25.287,5724.4806795745,0,0.4921268,0,0,0,0,63.5, 2.9, 1.2,1,0,1024,1024,1024,1024,63.5,-90,98,4.216,4.237,4.23,4.247,0,0,3.8,73.4,11,AutoTakeoff,DJI_0256.jpg Starting Mission from Lat/Long: 36.76725/-118.88345 Camera: Zenmuse X3 - Overlap: 90/90 - Active Connection: Yes
36.7672649,-118.8834257,5724.4806795745,0,0.4921268,0.068906170184,3100,2018-04-14 21:43:39,11,0,25.287,5724.4806795745,0,0.4921268,0.068906170184,0,0,0,63.4, 1.3, 1.1,0,0,1024,1024,1024,1024,63.6,-90,98,4.216,4.237,4.23,4.247,0,0,3.8,73.4,11,AutoTakeoff,
36.7672648,-118.8834261,5724.4806795745,0,0.6263432,0.189938654372,3200,2018-04-14 21:43:39,12,0,25.287,5724.4806795745,0,0.6263432,0.189938654372,0,0,0,63.4, -0.1, 0.7,0,0,1024,1024,1024,1024,63.6,-90,98,4.216,4.237,4.23,4.247,0,0,3.8,73.4,11,AutoTakeoff,
36.7672646,-118.8834264,5724.4806795745,0,0.6263432,0.300816610676,3300,2018-04-14 21:43:39,12,0,25.287,5724.4806795745,0,0.6263432,0.300816610676,0,0,0,63.3, -1.2, 0.1,0,0,1024,1024,1024,1024,63.6,-90,98,4.216,4.237,4.23,4.247,0,0,3.8,73.4,11,AutoTakeoff,
36.7672645,-118.8834267,5724.8087635745,0.328084,0.6263432,0.39533137748,3400,2018-04-14 21:43:39,13,0,25.287,5724.8087635745,0.328084,0.6263432,0.39533137748,0,0,0,63.4, -2, -0.4,0,0,1024,1024,1024,1024,63.6,-90,98,4.216,4.237,4.23,4.247,0,0,3.8,73.4,11,AutoTakeoff,
36.7672644,-118.8834269,5724.8087635745,0.328084,0.4921268,0.4640584138,3500,2018-04-14 21:43:40,13,0,25.287,5724.8087635745,0.328084,0.6263432,0.4640584138,0,0,0,63.5, -2.7, -0.9,0,0,1024,1024,1024,1024,63.6,-90,98,4.216,4.237,4.23,4.247,0,0,3.8,73.4,11,AutoTakeoff,
36.7672643,-118.8834272,5725.1368475745,0.656168,0.3131716,0.55865815436,3600,2018-04-14 21:43:40,14,0,25.287,5725.1368475745,0.656168,0.6263432,0.55865815436,0,0,0,63.7, -2.7, -1.1,0,0,1024,1024,1024,1024,63.6,-89.9,98,4.216,4.237,4.23,4.247,0,0,3.8,73.4,11,AutoTakeoff,
36.7672642,-118.8834274,5725.1368475745,0.656168,0.3131716,0.62734910144,3700,2018-04-14 21:43:40,14,0,25.287,5725.1368475745,0.656168,0.6263432,0.62734910144,0,0,0,63.9, -2.4, -1.1,0,0,1024,1024,1024,1024,63.6,-89.9,98,4.216,4.237,4.23,4.247,0,0,3.8,73.4,11,AutoTakeoff,
36.7672641,-118.8834276,5725.4649315745,0.984252,0.223694,0.69608598028,3900,2018-04-14 21:43:40,13,0,25.287,5725.4649315745,0.984252,0.6263432,0.69608598028,0,0,0,64, -2, -0.9,0,0,1024,1024,1024,1024,63.6,-89.9,98,4.216,4.237,4.23,4.247,0,0,3.8,73.4,11,AutoTakeoff,
36.7672641,-118.8834277,5725.4649315745,0.984252,0,0.72198821208,4000,2018-04-14 21:43:40,13,0,25.35,5725.4649315745,0.984252,0.6263432,0.72198821208,0,0,0,64.1, -1.7, -0.5,0,0,1024,1024,1024,1024,63.6,-89.9,98,4.181,4.169,4.18,4.202,0,0,4.125,73.4,11,AutoTakeoff,
36.7672641,-118.8834278,5725.7930155745,1.312336,0,0.74813650688,4100,2018-04-14 21:43:40,13,0,25.35,5725.7930155745,1.312336,0.6263432,0.74813650688,0,0,0,64.2, -1, -0.1,0,0,1024,1024,1024,1024,63.6,-89.9,98,4.181,4.169,4.18,4.202,0,0,4.125,73.4,11,AutoTakeoff,
36.7672641,-118.8834281,5725.7930155745,1.312336,0,0.82781498712,4200,2018-04-14 21:43:40,13,0,25.35,5725.7930155745,1.312336,0.6263432,0.82781498712,0,0,0,64.1, -0.6, 0,0,0,1024,1024,1024,1024,63.6,-89.9,98,4.181,4.169,4.18,4.202,0,0,4.125,73.4,11,AutoTakeoff,
36.7672641,-118.8834282,5726.1210995745,1.64042,0,0.8547244368,4300,2018-04-14 21:43:40,13,0,25.35,5726.1210995745,1.64042,0.6263432,0.8547244368,0,0,0,63.9, -0.8, 0.1,0,0,1024,1024,1024,1024,63.6,-89.9,98,4.181,4.169,4.18,4.202,0,0,4.125,73.4,11,AutoTakeoff,
36.7672641,-118.8834283,5726.4491835745,1.968504,0,0.88177824344,4400,2018-04-14 21:43:40,13,0,25.35,5726.4491835745,1.968504,0.6263432,0.88177824344,0,0,0,63.6, -1.1, -0.1,0,0,1024,1024,1024,1024,63.6,-89.9,98,4.181,4.169,4.18,4.202,0,0,4.125,73.4,11,AutoTakeoff,
36.767264,-118.8834283,5726.4491835745,1.968504,0,0.89600724652,4500,2018-04-14 21:43:41,13,0,25.35,5726.4491835745,1.968504,0.6263432,0.89600724652,0,0,-0.223694,63.6, -1.1, -0.4,0,0,1024,1024,1024,1024,63.6,-89.9,98,4.181,4.169,4.18,4.202,0,0,4.125,73.4,11,AutoTakeoff,
36.767264,-118.8834284,5726.7772675745,2.296588,0,0.92277562008,4600,2018-04-14 21:43:41,13,0,25.35,5726.7772675745,2.296588,0.6263432,0.92277562008,0,0,-0.223694,63.7, -1, -0.4,0,0,1024,1024,1024,1024,63.6,-89.9,98,4.181,4.169,4.18,4.202,0,0,4.125,73.4,11,AutoTakeoff,
36.7672639,-118.8834285,5727.1053515745,2.624672,0,0.96429793112,4700,2018-04-14 21:43:41,13,0,25.35,5727.1053515745,2.624672,0.6263432,0.96429793112,0,0,-0.223694,63.8, -0.9, -0.5,0,0,1024,1024,1024,1024,63.6,-89.9,98,4.181,4.169,4.18,4.202,0,0,4.125,73.4,11,AutoTakeoff,
36.7672638,-118.8834286,5727.1053515745,2.624672,0,1.00627955976,4800,2018-04-14 21:43:41,11,0,25.35,5727.1053515745,2.624672,0.6263432,1.00627955976,0,0,-0.223694,64, -1.1, -0.6,0,0,1024,1024,1024,1024,63.6,-89.9,98,4.181,4.169,4.18,4.202,0,0,4.125,73.4,11,AutoTakeoff,
36.7672638,-118.8834287,5727.4334355745,2.952756,0,1.03267063672,4900,2018-04-14 21:43:41,11,0,25.35,5727.4334355745,2.952756,0.6263432,1.03267063672,0,0,-0.223694,64, -1.2, -0.8,0,0,1024,1024,1024,1024,63.6,-89.9,98,4.181,4.169,4.18,4.202,0,0,4.125,73.4,6,P-GPS,
36.7672636,-118.8834287,5727.4334355745,2.952756,0,1.06565948292,5000,2018-04-14 21:43:41,11,0,24.16,5727.4334355745,2.952756,0.6263432,1.06565948292,0,0,0,63.9, -1.4, -0.9,0,0,1024,1024,1024,1024,63.6,-89.9,98,4.031,3.995,4.011,4.009,0,0,16.084,73.4,14,Waypoint,
36.7672635,-118.8834286,5727.7615195745,3.28084,0,1.0584974092,5100,2018-04-14 21:43:41,11,0,24.16,5727.7615195745,3.28084,0.6263432,1.06565948292,0,0,0,63.9, -1.1, -1.4,0,0,1024,1024,1024,1024,63.6,-89.9,98,4.031,3.995,4.011,4.009,0,0,16.084,73.4,14,Waypoint,
36.7672634,-118.8834286,5727.7615195745,3.28084,0,1.07781499512,5200,2018-04-14 21:43:41,12,0,24.16,5727.7615195745,3.28084,0.6263432,1.07781499512,0,0,0,64, -0.7, -1.7,0,0,1024,1024,1024,1024,63.6,-89.9,98,4.031,3.995,4.011,4.009,0,0,16.084,73.4,14,Waypoint,
36.7672634,-118.8834287,5727.7615195745,3.28084,0,1.10249675444,5300,2018-04-14 21:43:41,12,0,24.16,5727.7615195745,3.28084,0.6263432,1.10249675444,0,0,0,64.1, -0.6, -1.7,0,0,1024,1024,1024,1024,63.6,-89.9,98,4.031,3.995,4.011,4.009,0,0,16.084,73.4,14,Waypoint,
36.7672634,-118.8834287,5728.0896035745,3.608924,0,1.10249675444,5400,2018-04-14 21:43:41,13,0,24.16,5728.0896035745,3.608924,0.6263432,1.10249675444,0,0,0,64.1, -0.7, -1.4,0,0,1024,1024,1024,1024,63.6,-89.9,98,4.031,3.995,4.011,4.009,0,0,16.084,73.4,14,Waypoint,
36.7672633,-118.8834287,5728.0896035745,3.608924,0,1.1222441304,5500,2018-04-14 21:43:42,13,0,24.16,5728.0896035745,3.608924,0.6263432,1.1222441304,0,0,-0.223694,64.1, -0.6, -1.3,0,0,1024,1024,1024,1024,63.6,-89.9,98,4.031,3.995,4.011,4.009,0,0,16.084,73.4,14,Waypoint,
36.7672632,-118.8834287,5728.4176875745,3.937008,0,1.14281171636,5600,2018-04-14 21:43:42,11,0,24.16,5728.4176875745,3.937008,0.6263432,1.14281171636,0,0,-0.223694,64.1, -0.5, -1.4,0,0,1024,1024,1024,1024,63.6,-89.9,98,4.031,3.995,4.011,4.009,0,0,16.084,73.4,14,Waypoint,
36.7672632,-118.8834286,5728.7457715745,4.265092,0,1.11901906468,5700,2018-04-14 21:43:42,11,0,24.16,5728.7457715745,4.265092,0.6263432,1.14281171636,0,0,-0.223694,64.1, -0.5, -1.4,0,0,1024,1024,1024,1024,63.6,-89.9,98,4.031,3.995,4.011,4.009,0,0,16.084,73.4,14,Waypoint,
36.7672632,-118.8834286,5729.4019395745,4.92126,0,1.11901906468,5800,2018-04-14 21:43:42,11,0,24.16,5729.4019395745,4.92126,0.6263432,1.14281171636,0,0,-0.223694,64.2, -0.5, -1.3,0,0,1024,1024,1024,1024,63.6,-89.9,98,4.031,3.995,4.011,4.009,0,0,16.084,73.4,14,Waypoint,
36.7672632,-118.8834286,5729.7300235745,5.249344,0,1.11901906468,5900,2018-04-14 21:43:42,11,0,24.16,5729.7300235745,5.249344,0.6263432,1.14281171636,0,0,-0.223694,64.2, -0.6, -1.1,0,0,1024,1024,1024,1024,63.6,-89.9,98,4.031,3.995,4.011,4.009,0,0,16.084,73.4,14,Waypoint,
36.7672633,-118.8834286,5730.0581075745,5.577428,0,1.09800528448,6000,2018-04-14 21:43:42,11,0,23.941,5730.0581075745,5.577428,0.6263432,1.14281171636,0,0,-0.223694,64.2, -0.7, -1,0,0,1024,1024,1024,1024,63.6,-89.9,98,4.01,3.967,3.987,3.977,0,0,16.93,73.4,14,Waypoint,
36.7672634,-118.8834286,5730.7142755745,6.233596,0,1.07781499512,6120,2018-04-14 21:43:42,11,0,23.941,5730.7142755745,6.233596,0.6263432,1.14281171636,0,0,-0.447388,64.1, -0.6, -0.9,0,0,1024,1024,1024,1024,63.6,-89.9,98,4.01,3.967,3.987,3.977,0,0,16.93,73.4,14,Waypoint,
36.7672634,-118.8834286,5730.7142755745,6.233596,0,1.07781499512,6200,2018-04-14 21:43:42,11,0,23.941,5730.7142755745,6.233596,0.6263432,1.14281171636,0,0,-0.447388,64.1, -0.6, -0.9,0,0,1024,1024,1024,1024,63.6,-89.9,98,4.01,3.967,3.987,3.977,0,0,16.93,73.4,14,Waypoint,
36.7672634,-118.8834285,5731.6985275745,7.217848,0,1.0533628946,6300,2018-04-14 21:43:42,11,0,23.941,5731.6985275745,7.217848,0.6263432,1.14281171636,0,0,-0.447388,63.7, -0.5, -0.6,0,0,1024,1024,1024,1024,63.6,-89.9,98,4.01,3.967,3.987,3.977,0,0,16.93,73.4,14,Waypoint,
36.7672635,-118.8834286,5732.6827795745,8.2021,0,1.0584974092,6400,2018-04-14 21:43:42,12,0,23.941,5732.6827795745,8.2021,0.6263432,1.14281171636,0,0,-0.447388,63.6, -0.3, -0.5,0,0,1024,1024,1024,1024,63.6,-89.9,98,4.01,3.967,3.987,3.977,0,0,16.93,73.4,14,Waypoint,
36.7672635,-118.8834286,5733.6670315745,9.186352,0,1.0584974092,6500,2018-04-14 21:43:43,12,0,23.941,5733.6670315745,9.186352,0.6263432,1.14281171636,0,0,-0.671082,63.6, -0.3, -0.3,0,0,1024,1024,1024,1024,63.6,-89.9,98,4.01,3.967,3.987,3.977,0,0,16.93,73.4,14,Waypoint,
36.7672636,-118.8834286,5735.3074515745,10.826772,0,1.04010502016,6700,2018-04-14 21:43:43,13,0,23.941,5735.3074515745,10.826772,0.6263432,1.14281171636,0,0,-0.671082,63.7, -0.7, -0.1,0,0,1024,1024,1024,1024,63.6,-89.9,98,4.01,3.967,3.987,3.977,0,0,16.93,73.4,14,Waypoint,
36.7672636,-118.8834286,5736.2917035745,11.811024,0,1.04010502016,6900,2018-04-14 21:43:43,13,0,23.941,5736.2917035745,11.811024,0.6263432,1.14281171636,0,0,-0.671082,63.8, -0.7, -0.3,0,0,1024,1024,1024,1024,63.6,-89.9,98,4.01,3.967,3.987,3.977,0,0,16.93,73.4,14,Waypoint,
36.7672637,-118.8834287,5737.2759555745,12.795276,0,1.04866145088,7000,2018-04-14 21:43:43,13,0,23.809,5737.2759555745,12.795276,0.6263432,1.14281171636,0,0,-0.671082,63.9, -0.6, -0.3,0,0,1024,1024,1024,1024,63.6,-89.9,98,3.958,3.911,3.928,3.96,0,0,17.588,73.4,14,Waypoint,
36.7672638,-118.8834287,5738.5882915745,14.107612,0,1.03267063672,7100,2018-04-14 21:43:43,13,0,23.809,5738.5882915745,14.107612,0.6263432,1.14281171636,0,0,-0.671082,64, -0.3, -0.1,0,0,1024,1024,1024,1024,63.6,-89.9,98,3.958,3.911,3.928,3.96,0,0,17.588,73.4,14,Waypoint,
36.7672641,-118.8834287,5740.5567955745,16.076116,0,0.99123690836,7200,2018-04-14 21:43:43,12,0,23.809,5740.5567955745,16.076116,0.6263432,1.14281171636,0,0,-0.671082,64, -0.6, 0,0,0,1024,1024,1024,1024,63.6,-89.9,98,3.958,3.911,3.928,3.96,0,0,17.588,73.4,14,Waypoint,
36.7672643,-118.8834289,5741.8691315745,17.388452,0,1.0260170932,7300,2018-04-14 21:43:43,12,0,23.809,5741.8691315745,17.388452,0.6263432,1.14281171636,0,0,-0.671082,63.9, -0.8, 0.3,0,0,1024,1024,1024,1024,63.6,-89.9,98,3.958,3.911,3.928,3.96,0,0,17.588,73.4,14,Waypoint,
36.7672643,-118.8834289,5742.8533835745,18.372704,0,1.0260170932,7400,2018-04-14 21:43:43,10,0,23.809,5742.8533835745,18.372704,0.6263432,1.14281171636,0,0,-0.671082,63.8, -0.9, 0.8,0,0,1024,1024,1024,1024,63.6,-89.9,98,3.958,3.911,3.928,3.96,0,0,17.588,73.4,14,Waypoint,
36.7672643,-118.8834288,5744.1657195745,19.68504,0,0.9977362524,7500,2018-04-14 21:43:44,10,0,23.809,5744.1657195745,19.68504,0.6263432,1.14281171636,0,0,-0.671082,63.8, -0.7, 0.8,0,0,1024,1024,1024,1024,63.6,-89.9,98,3.958,3.911,3.928,3.96,0,0,17.588,73.4,14,Waypoint,
36.7672643,-118.8834287,5745.1499715745,20.669292,0,0.96951118588,7600,2018-04-14 21:43:44,12,0,23.809,5745.1499715745,20.669292,0.6263432,1.14281171636,0,0,-0.671082,63.8, -0.4, 0.3,0,0,1024,1024,1024,1024,63.6,-89.9,98,3.958,3.911,3.928,3.96,0,0,17.588,73.4,14,Waypoint,
36.7672643,-118.8834286,5746.1342235745,21.653544,0,0.94134845532,7700,2018-04-14 21:43:44,12,0,23.809,5746.1342235745,21.653544,0.6263432,1.14281171636,0,0,-0.671082,63.8, -0.2, 0,0,0,1024,1024,1024,1024,63.6,-89.9,98,3.958,3.911,3.928,3.96,0,0,17.588,73.4,14,Waypoint,
36.7672643,-118.8834284,5747.4465595745,22.96588,0,0.88522968712,7800,2018-04-14 21:43:44,11,0,23.809,5747.4465595745,22.96588,0.6263432,1.14281171636,0,0,-0.671082,63.8, 0.1, 0,0,0,1024,1024,1024,1024,63.6,-89.9,98,3.958,3.911,3.928,3.96,0,0,17.588,73.4,14,Waypoint,
36.7672643,-118.8834283,5748.4308115745,23.950132,0,0.85728677284,7900,2018-04-14 21:43:44,11,0,23.809,5748.4308115745,23.950132,0.6263432,1.14281171636,0,0,-0.671082,63.8, 0.5, 0,0,0,1024,1024,1024,1024,63.6,-89.9,98,3.958,3.911,3.928,3.96,0,0,17.588,73.4,14,Waypoint,
36.7672643,-118.8834282,5749.4150635745,24.934384,0,0.82943244124,8000,2018-04-14 21:43:44,13,0,23.238,5749.4150635745,24.934384,0.6263432,1.14281171636,0,0,-0.671082,63.8, 0.8, 0,0,0,1024,1024,1024,1024,63.6,-89.9,98,3.878,3.853,3.852,3.854,0,0,23.958,73.4,14,Waypoint,
36.7672643,-118.8834281,5750.7273995745,26.24672,0,0.801673254,8100,2018-04-14 21:43:44,13,0,23.238,5750.7273995745,26.24672,0.6263432,1.14281171636,0,0,-0.671082,63.9, 0.9, 0,0,0,1024,1024,1024,1024,63.6,-89.9,98,3.878,3.853,3.852,3.854,0,0,23.958,73.4,14,Waypoint,
36.7672643,-118.883428,5751.7116515745,27.230972,0,0.77402561532,8200,2018-04-14 21:43:44,13,0,23.238,5751.7116515745,27.230972,0.6263432,1.14281171636,0,0,-0.671082,63.9, 0.7, -0.3,0,0,1024,1024,1024,1024,63.6,-89.9,98,3.878,3.853,3.852,3.854,0,0,23.958,73.4,14,Waypoint,
36.7672644,-118.8834279,5752.6959035745,28.215224,0,0.73481629648,8300,2018-04-14 21:43:44,13,0,23.238,5752.6959035745,28.215224,0.6263432,1.14281171636,0,0,-0.671082,63.9, 0.5, -0.4,0,0,1024,1024,1024,1024,63.6,-89.9,98,3.878,3.853,3.852,3.854,0,0,23.958,73.4,14,Waypoint,
36.7672646,-118.8834279,5754.9924915745,30.511812,0,0.71647312004,8500,2018-04-14 21:43:45,13,0,23.238,5754.9924915745,30.511812,0.6263432,1.14281171636,0,0,-0.671082,64, 0.3, 0,0,0,1024,1024,1024,1024,63.6,-89.9,98,3.878,3.853,3.852,3.854,0,0,23.958,73.4,14,Waypoint,
36.7672647,-118.8834279,5755.9767435745,31.496064,0,0.70993768676,8600,2018-04-14 21:43:45,13,0,23.238,5755.9767435745,31.496064,0.6263432,1.14281171636,0,0,-0.671082,63.9, 0.3, 0.1,0,0,1024,1024,1024,1024,63.6,-89.9,98,3.878,3.853,3.852,3.854,0,0,23.958,73.4,14,Waypoint,
36.7672648,-118.8834279,5756.9609955745,32.480316,0,0.70523624304,8700,2018-04-14 21:43:45,13,0,23.238,5756.9609955745,32.480316,0.6263432,1.14281171636,0,0,-0.671082,63.8, 0.3, 0.4,0,0,1024,1024,1024,1024,63.6,-89.9,98,3.878,3.853,3.852,3.854,0,0,23.958,73.4,14,Waypoint,
36.7672648,-118.8834278,5759.2575835745,34.776904,0,0.67617128148,8900,2018-04-14 21:43:45,12,0,23.238,5759.2575835745,34.776904,0.6263432,1.14281171636,0,0,-0.671082,63.7, 0.5, 0.9,0,0,1024,1024,1024,1024,63.6,-89.9,98,3.878,3.853,3.852,3.854,0,0,23.958,73.4,14,Waypoint,
36.7672649,-118.8834278,5760.2418355745,35.761156,0,0.6732119638,9100,2018-04-14 21:43:45,14,0,23.238,5760.2418355745,35.761156,0.6263432,1.14281171636,0,0,-0.671082,63.7, 0.4, 0.9,0,0,1024,1024,1024,1024,63.6,-89.9,98,3.878,3.853,3.852,3.854,0,0,23.958,73.4,14,Waypoint,
36.7672649,-118.8834277,5761.2260875745,36.745408,0,0.64403217284,9200,2018-04-14 21:43:45,14,0,23.238,5761.2260875745,36.745408,0.6263432,1.14281171636,0,0,-0.671082,63.7, 0.4, 0.6,0,0,1024,1024,1024,1024,63.6,-89.9,98,3.878,3.853,3.852,3.854,0,0,23.958,73.4,14,Waypoint,
36.7672649,-118.8834277,5762.2103395745,37.72966,0,0.64403217284,9300,2018-04-14 21:43:45,15,0,23.238,5762.2103395745,37.72966,0.6263432,1.14281171636,0,0,-0.671082,63.8, 0.4, 0.1,0,0,1024,1024,1024,1024,63.6,-89.9,98,3.878,3.853,3.852,3.854,0,0,23.958,73.4,14,Waypoint,
36.7672648,-118.8834277,5763.1945915745,38.713912,0,0.64712272412,9400,2018-04-14 21:43:45,15,0,23.238,5763.1945915745,38.713912,0.6263432,1.14281171636,0,0,-0.671082,64, 0.4, -0.3,0,0,1024,1024,1024,1024,63.6,-89.9,98,3.878,3.853,3.852,3.854,0,0,23.958,73.4,14,Waypoint,
36.7672647,-118.8834276,5765.1630955745,40.682416,0,0.62345146352,9500,2018-04-14 21:43:46,15,0,23.238,5765.1630955745,40.682416,0.6263432,1.14281171636,0,0,-0.671082,64.1, 0, -0.8,0,0,1024,1024,1024,1024,63.6,-89.9,98,3.878,3.853,3.852,3.854,0,0,23.958,73.4,14,Waypoint,
36.7672647,-118.8834276,5767.1315995745,42.65092,0,0.62345146352,9700,2018-04-14 21:43:46,14,0,23.238,5767.1315995745,42.65092,0.6263432,1.14281171636,0,0,-0.671082,64.1, -0.1, -0.7,0,0,1024,1024,1024,1024,63.6,-89.9,98,3.878,3.853,3.852,3.854,0,0,23.958,73.4,14,Waypoint,
36.7672647,-118.8834276,5768.1158515745,43.635172,0,0.62345146352,9800,2018-04-14 21:43:46,13,0,23.238,5768.1158515745,43.635172,0.6263432,1.14281171636,0,0,-0.671082,64, -0.1, -0.3,0,0,1024,1024,1024,1024,63.6,-89.9,98,3.878,3.853,3.852,3.854,0,0,23.958,73.4,14,Waypoint,
36.7672646,-118.8834277,5769.1001035745,44.619424,0,0.6593504148,9900,2018-04-14 21:43:46,13,0,23.238,5769.1001035745,44.619424,0.6263432,1.14281171636,0,0,-0.671082,63.9, -0.1, -0.1,0,0,1024,1024,1024,1024,63.6,-89.9,98,3.878,3.853,3.852,3.854,0,0,23.958,73.4,14,Waypoint,
36.7672645,-118.8834277,5770.4124395745,45.93176,0,0.6683727248,10000,2018-04-14 21:43:46,13,0,23.553,5770.4124395745,45.93176,0.6263432,1.14281171636,0,0,-0.671082,63.9, -0.1, 0,0,0,1024,1024,1024,1024,63.6,-89.9,97,3.925,3.903,3.903,3.922,0,0,18.51,73.4,14,Waypoint,
36.7672645,-118.8834277,5771.3966915745,46.916012,0,0.6683727248,10100,2018-04-14 21:43:46,13,0,23.553,5771.3966915745,46.916012,0.6263432,1.14281171636,0,0,-0.671082,63.8, -0.1, -0.1,0,0,1024,1024,1024,1024,63.6,-89.9,97,3.925,3.903,3.903,3.922,0,0,18.51,73.4,14,Waypoint,
36.7672645,-118.8834277,5772.3809435745,47.900264,0,0.6683727248,10200,2018-04-14 21:43:46,13,0,23.553,5772.3809435745,47.900264,0.6263432,1.14281171636,0,0,-0.671082,63.8, -0.1, -0.3,0,0,1024,1024,1024,1024,63.6,-89.9,97,3.925,3.903,3.903,3.922,0,0,18.51,73.4,14,Waypoint,
36.7672644,-118.8834277,5774.3494475745,49.868768,0,0.67923886688,10400,2018-04-14 21:43:46,14,0,23.553,5774.3494475745,49.868768,0.6263432,1.14281171636,0,0,-0.671082,63.8, -0.6, -0.4,0,0,1024,1024,1024,1024,63.6,-90,97,3.925,3.903,3.903,3.922,0,0,18.51,73.4,14,Waypoint,
36.7672644,-118.8834278,5775.3336995745,50.85302,0,0.70696852656,10500,2018-04-14 21:43:47,14,0,23.553,5775.3336995745,50.85302,0.6263432,1.14281171636,0,0,-0.671082,63.9, -0.7, -0.6,0,0,1024,1024,1024,1024,63.6,-90,97,3.925,3.903,3.903,3.922,0,0,18.51,73.4,14,Waypoint,
36.7672643,-118.8834278,5776.3179515745,51.837272,0,0.71910435372,10600,2018-04-14 21:43:47,14,0,23.553,5776.3179515745,51.837272,0.6263432,1.14281171636,0,0,-0.671082,64, -0.8, -0.7,0,0,1024,1024,1024,1024,63.6,-89.9,97,3.925,3.903,3.903,3.922,0,0,18.51,73.4,14,Waypoint,
36.7672643,-118.8834278,5777.3022035745,52.821524,0,0.71910435372,10700,2018-04-14 21:43:47,14,0,23.553,5777.3022035745,52.821524,0.6263432,1.14281171636,0,0,-0.671082,64.1, -0.7, -0.9,0,0,1024,1024,1024,1024,63.6,-89.9,97,3.925,3.903,3.903,3.922,0,0,18.51,73.4,14,Waypoint,
36.7672643,-118.8834278,5778.2864555745,53.805776,0,0.71910435372,10800,2018-04-14 21:43:47,14,0,23.553,5778.2864555745,53.805776,0.6263432,1.14281171636,0,0,-0.671082,64.2, -0.4, -0.9,0,0,1024,1024,1024,1024,63.6,-89.9,97,3.925,3.903,3.903,3.922,0,0,18.51,73.4,14,Waypoint,
36.7672643,-118.8834277,5780.2549595745,55.77428,0,0.69186025836,11000,2018-04-14 21:43:47,14,0,23.521,5780.2549595745,55.77428,0.6263432,1.14281171636,0,0,-0.671082,64.1, 0.4, -0.8,0,0,1024,1024,1024,1024,63.6,-89.9,97,3.925,3.903,3.903,3.922,0,0,18.508,73.4,14,Waypoint,
36.7672642,-118.8834277,5782.2234635745,57.742784,0,0.70614175488,11210,2018-04-14 21:43:47,14,0,23.521,5782.2234635745,57.742784,0.6263432,1.14281171636,0,0,-0.671082,64.1, 0.5, -0.8,0,0,1024,1024,1024,1024,63.6,-89.9,97,3.925,3.903,3.903,3.922,0,0,18.508,73.4,14,Waypoint,
36.7672641,-118.8834277,5783.2077155745,58.727036,0,0.72198821208,11300,2018-04-14 21:43:47,14,0,23.521,5783.2077155745,58.727036,0.6263432,1.14281171636,0,0,-0.671082,64, 0.3, -1,0,0,1024,1024,1024,1024,63.6,-89.9,97,3.925,3.903,3.903,3.922,0,0,18.508,73.4,14,Waypoint,
36.7672641,-118.8834277,5784.1919675745,59.711288,0,0.72198821208,11500,2018-04-14 21:43:48,14,0,23.521,5784.1919675745,59.711288,0.6263432,1.14281171636,0,0,-0.671082,63.8, 0, -1.3,0,0,1024,1024,1024,1024,63.6,-89.9,97,3.925,3.903,3.903,3.922,0,0,18.508,73.4,14,Waypoint,
36.7672641,-118.8834278,5784.8481355745,60.367456,0,0.74813650688,11600,2018-04-14 21:43:48,14,0,23.521,5784.8481355745,60.367456,0.6263432,1.14281171636,0,0,-0.671082,63.7, -0.1, -1.3,0,0,1024,1024,1024,1024,63.6,-89.9,97,3.925,3.903,3.903,3.922,0,0,18.508,73.4,14,Waypoint,
36.7672641,-118.8834279,5786.8166395745,62.33596,0,0.77450461796,11700,2018-04-14 21:43:48,14,0,23.521,5786.8166395745,62.33596,0.6263432,1.14281171636,0,0,-0.671082,63.7, -0.5, -1.2,0,0,1024,1024,1024,1024,63.6,-90,97,3.925,3.903,3.903,3.922,0,0,18.508,73.4,14,Waypoint,
36.767264,-118.8834279,5787.8008915745,63.320212,0,0.79066275496,11800,2018-04-14 21:43:48,14,0,23.521,5787.8008915745,63.320212,0.6263432,1.14281171636,0,0,-0.671082,63.8, -0.4, -1.1,0,0,1024,1024,1024,1024,63.6,-90,97,3.925,3.903,3.903,3.922,0,0,18.508,73.4,14,Waypoint,
36.7672639,-118.8834279,5788.7851435745,64.304464,0,0.80814635132,11900,2018-04-14 21:43:48,14,0,23.521,5788.7851435745,64.304464,0.6263432,1.14281171636,0,0,-0.671082,63.9, -0.2, -1.1,0,0,1024,1024,1024,1024,63.6,-89.9,97,3.925,3.903,3.903,3.922,0,0,18.508,73.4,14,Waypoint,
36.7672639,-118.8834279,5789.7693955745,65.288716,0,0.80814635132,12000,2018-04-14 21:43:48,14,0,23.521,5789.7693955745,65.288716,0.6263432,1.14281171636,0,0,-0.671082,64.1, -0.2, -1.1,0,0,1024,1024,1024,1024,63.6,-90,97,3.925,3.905,3.897,3.916,0,0,18.508,73.4,14,Waypoint,
36.7672639,-118.8834279,5790.7536475745,66.272968,0,0.80814635132,12100,2018-04-14 21:43:48,14,0,23.521,5790.7536475745,66.272968,0.6263432,1.14281171636,0,0,-0.671082,64.2, -0.6, -1,0,0,1024,1024,1024,1024,63.6,-89.9,97,3.925,3.905,3.897,3.916,0,0,18.508,73.4,14,Waypoint,
36.7672639,-118.883428,5791.7378995745,67.25722,0,0.83364175896,12200,2018-04-14 21:43:48,14,0,23.521,5791.7378995745,67.25722,0.6263432,1.14281171636,0,0,-0.671082,64.4, -0.7, -1,0,0,1024,1024,1024,1024,63.6,-89.9,97,3.925,3.905,3.897,3.916,0,0,18.508,73.4,14,Waypoint,
36.7672639,-118.883428,5792.7221515745,68.241472,0,0.83364175896,12300,2018-04-14 21:43:48,14,0,23.521,5792.7221515745,68.241472,0.6263432,1.14281171636,0,0,-0.671082,64.5, -0.5, -0.6,0,0,1024,1024,1024,1024,63.6,-89.9,97,3.925,3.905,3.897,3.916,0,0,18.508,73.4,14,Waypoint,
36.7672639,-118.8834281,5793.7064035745,69.225724,0,0.85937338708,12400,2018-04-14 21:43:48,14,0,23.521,5793.7064035745,69.225724,0.6263432,1.14281171636,0,0,-0.671082,64.5, -0.1, -0.5,0,0,1024,1024,1024,1024,63.6,-89.9,97,3.925,3.905,3.897,3.916,0,0,18.508,73.4,14,Waypoint,
36.7672639,-118.8834281,5794.6906555745,70.209976,0,0.85937338708,12500,2018-04-14 21:43:49,14,0,23.521,5794.6906555745,70.209976,0.6263432,1.14281171636,0,0,-0.671082,64.4, 0, -0.7,0,0,1024,1024,1024,1024,63.6,-89.9,97,3.925,3.905,3.897,3.916,0,0,18.508,73.4,14,Waypoint,
36.7672639,-118.8834282,5795.6749075745,71.194228,0,0.88532483148,12600,2018-04-14 21:43:49,14,0,23.521,5795.6749075745,71.194228,0.6263432,1.14281171636,0,0,-0.671082,64.3, 0, -0.8,0,0,1024,1024,1024,1024,63.6,-89.9,97,3.925,3.905,3.897,3.916,0,0,18.508,73.4,14,Waypoint,
36.7672639,-118.8834283,5796.6591595745,72.17848,0,0.91147312628,12700,2018-04-14 21:43:49,14,0,23.521,5796.6591595745,72.17848,0.6263432,1.14281171636,0,0,-0.671082,64.2, -0.3, -0.8,0,0,1024,1024,1024,1024,63.6,-89.9,97,3.925,3.905,3.897,3.916,0,0,18.508,73.4,14,Waypoint,
36.7672638,-118.8834283,5797.6434115745,73.162732,0,0.92811354676,12800,2018-04-14 21:43:49,14,0,23.521,5797.6434115745,73.162732,0.6263432,1.14281171636,0,0,-0.671082,64, -0.5, -0.8,0,0,1024,1024,1024,1024,63.6,-90,97,3.925,3.905,3.897,3.916,0,0,18.508,73.4,14,Waypoint,
36.7672638,-118.8834283,5798.6276635745,74.146984,0,0.92811354676,12900,2018-04-14 21:43:49,14,0,23.521,5798.6276635745,74.146984,0.6263432,1.14281171636,0,0,-0.671082,64, -0.5, -1.3,0,0,1024,1024,1024,1024,63.6,-89.9,97,3.925,3.905,3.897,3.916,0,0,18.508,73.4,14,Waypoint,
36.7672637,-118.8834283,5799.6119155745,75.131236,0,0.94587273368,13000,2018-04-14 21:43:49,15,0,23.473,5799.6119155745,75.131236,0.6263432,1.14281171636,0,0,-0.671082,64.1, -0.4, -1.8,0,0,1024,1024,1024,1024,63.6,-89.9,97,3.922,3.9,3.891,3.905,0,0,19.006,73.4,14,Waypoint,
36.7672636,-118.8834283,5800.5961675745,76.115488,0,0.96468507024,13100,2018-04-14 21:43:49,15,0,23.473,5800.5961675745,76.115488,0.6263432,1.14281171636,0,0,-0.671082,64.1, -0.3, -1.8,0,0,1024,1024,1024,1024,63.6,-89.9,97,3.922,3.9,3.891,3.905,0,0,19.006,73.4,14,Waypoint,
36.7672636,-118.8834284,5801.5804195745,77.09974,0,0.9895997692,13200,2018-04-14 21:43:49,15,0,23.473,5801.5804195745,77.09974,0.6263432,1.14281171636,0,0,-0.671082,64.1, -0.4, -1.8,0,0,1024,1024,1024,1024,63.6,-89.9,97,3.922,3.9,3.891,3.905,0,0,19.006,73.4,14,Waypoint,
36.7672635,-118.8834284,5802.5646715745,78.083992,0,1.00891735512,13300,2018-04-14 21:43:49,15,0,23.473,5802.5646715745,78.083992,0.6263432,1.14281171636,0,0,-0.671082,64, -0.6, -1.8,0,0,1024,1024,1024,1024,63.6,-89.9,97,3.922,3.9,3.891,3.905,0,0,19.006,73.4,14,Waypoint,
36.7672635,-118.8834284,5803.5489235745,79.068244,0,1.00891735512,13400,2018-04-14 21:43:49,15,0,23.473,5803.5489235745,79.068244,0.6263432,1.14281171636,0,0,-0.671082,63.9, -0.7, -1.7,0,0,1024,1024,1024,1024,63.6,-89.9,97,3.922,3.9,3.891,3.905,0,0,19.006,73.4,14,Waypoint,
36.7672635,-118.8834285,5804.5331755745,80.052496,0,1.03359255276,13510,2018-04-14 21:43:50,15,0,23.473,5804.5331755745,80.052496,0.6263432,1.14281171636,0,0,-0.671082,63.8, -0.7, -2,0,0,1024,1024,1024,1024,63.6,-89.9,97,3.922,3.9,3.891,3.905,0,0,19.006,73.4,14,Waypoint,
36.7672635,-118.8834285,5805.5174275745,81.036748,0,1.03359255276,13600,2018-04-14 21:43:50,14,0,23.473,5805.5174275745,81.036748,0.6263432,1.14281171636,0,0,-0.671082,63.7, -0.4, -2.1,0,0,1024,1024,1024,1024,63.6,-89.9,97,3.922,3.9,3.891,3.905,0,0,19.006,73.4,14,Waypoint,
36.7672635,-118.8834285,5806.5016795745,82.021,0,1.03359255276,13700,2018-04-14 21:43:50,14,0,23.473,5806.5016795745,82.021,0.6263432,1.14281171636,0,0,-0.671082,63.7, -0.1, -1.6,0,0,1024,1024,1024,1024,63.6,-89.9,97,3.922,3.9,3.891,3.905,0,0,19.006,73.4,14,Waypoint,
36.7672636,-118.8834285,5807.4859315745,83.005252,0,1.01474412696,13800,2018-04-14 21:43:50,15,0,23.473,5807.4859315745,83.005252,0.6263432,1.14281171636,0,0,-0.671082,63.7, 0.1, -1.2,0,0,1024,1024,1024,1024,63.6,-89.9,97,3.922,3.9,3.891,3.905,0,0,19.006,73.4,14,Waypoint,
36.7672636,-118.8834285,5808.1420995745,83.66142,0,1.01474412696,13900,2018-04-14 21:43:50,15,0,23.473,5808.1420995745,83.66142,0.6263432,1.14281171636,0,0,-0.671082,63.7, 0.3, -0.9,0,0,1024,1024,1024,1024,63.6,-89.9,97,3.922,3.9,3.891,3.905,0,0,19.006,73.4,14,Waypoint,
36.7672636,-118.8834286,5809.1263515745,84.645672,0,1.04010502016,14100,2018-04-14 21:43:50,14,0,23.473,5809.1263515745,84.645672,0.6263432,1.14281171636,0,0,-0.671082,63.8, 0.4, -0.7,0,0,1024,1024,1024,1024,63.6,-89.9,97,3.922,3.9,3.891,3.905,0,0,19.006,73.4,14,Waypoint,
36.7672636,-118.8834286,5810.1106035745,85.629924,0,1.04010502016,14200,2018-04-14 21:43:50,14,0,23.473,5810.1106035745,85.629924,0.6263432,1.14281171636,0,0,-0.671082,64, 0.3, -0.8,0,0,1024,1024,1024,1024,63.6,-89.9,97,3.922,3.9,3.891,3.905,0,0,19.006,73.4,14,Waypoint,
36.7672636,-118.8834286,5811.0948555745,86.614176,0,1.04010502016,14300,2018-04-14 21:43:50,14,0,23.473,5811.0948555745,86.614176,0.6263432,1.14281171636,0,0,-0.671082,64, 0.1, -0.9,0,0,1024,1024,1024,1024,63.6,-89.9,97,3.922,3.9,3.891,3.905,0,0,19.006,73.4,14,Waypoint,
36.7672636,-118.8834287,5812.0791075745,87.598428,0,1.06565948292,14400,2018-04-14 21:43:50,14,0,23.473,5812.0791075745,87.598428,0.6263432,1.14281171636,0,0,-0.671082,64, 0, -1.2,0,0,1024,1024,1024,1024,63.6,-89.9,97,3.922,3.9,3.891,3.905,0,0,19.006,73.4,14,Waypoint,
36.7672635,-118.8834288,5814.0476115745,89.566932,0,1.10894360504,14500,2018-04-14 21:43:51,14,0,23.473,5814.0476115745,89.566932,0.6263432,1.14281171636,0,0,-0.671082,64.1, -0.6, -1.3,0,0,1024,1024,1024,1024,63.6,-90,97,3.922,3.9,3.891,3.905,0,0,19.006,73.4,14,Waypoint,
36.7672635,-118.8834289,5815.0318635745,90.551184,0,1.13445541688,14600,2018-04-14 21:43:51,14,0,23.473,5815.0318635745,90.551184,0.6263432,1.14281171636,0,0,-0.671082,64.2, -1, -0.6,0,0,1024,1024,1024,1024,63.6,-90,97,3.922,3.9,3.891,3.905,0,0,19.006,73.4,14,Waypoint,
36.7672635,-118.883429,5816.0161155745,91.535436,0,1.16014439408,14700,2018-04-14 21:43:51,14,0,23.473,5816.0161155745,91.535436,0.6263432,1.16014439408,0,0,-0.671082,64.1, -1.2, -0.7,0,0,1024,1024,1024,1024,63.6,-90,97,3.922,3.9,3.891,3.905,0,0,19.006,73.4,14,Waypoint,
36.7672635,-118.883429,5817.0003675745,92.519688,0,1.16014439408,14800,2018-04-14 21:43:51,15,0,23.473,5817.0003675745,92.519688,0.6263432,1.16014439408,0,0,-0.671082,64, -0.9, -1.1,0,0,1024,1024,1024,1024,63.6,-90,97,3.922,3.9,3.891,3.905,0,0,19.006,73.4,14,Waypoint,
36.7672635,-118.883429,5817.9846195745,93.50394,0,1.16014439408,14900,2018-04-14 21:43:51,15,0,23.473,5817.9846195745,93.50394,0.6263432,1.16014439408,0,0,-0.671082,63.9, -0.8, -1.3,0,0,1024,1024,1024,1024,63.6,-90,97,3.922,3.9,3.891,3.905,0,0,19.006,73.4,14,Waypoint,
36.7672635,-118.883429,5818.9688715745,94.488192,0,1.16014439408,15000,2018-04-14 21:43:51,15,0,23.361,5818.9688715745,94.488192,0.6263432,1.16014439408,0,0,-0.671082,63.8, -0.5, -1.3,0,0,1024,1024,1024,1024,63.6,-89.9,97,3.903,3.875,3.872,3.893,0,0,19.367,73.4,14,Waypoint,
36.7672634,-118.883429,5819.9531235745,95.472444,0,1.17779531328,15100,2018-04-14 21:43:51,15,0,23.361,5819.9531235745,95.472444,0.6263432,1.17779531328,0,0,-0.671082,63.6, -0.2, -1.5,0,0,1024,1024,1024,1024,63.6,-89.9,97,3.903,3.875,3.872,3.893,0,0,19.367,73.4,14,Waypoint,
36.7672634,-118.883429,5820.9373755745,96.456696,0,1.17779531328,15200,2018-04-14 21:43:51,15,0,23.361,5820.9373755745,96.456696,0.6263432,1.17779531328,0,0,-0.671082,63.5, -0.2, -1.7,0,0,1024,1024,1024,1024,63.6,-89.9,97,3.903,3.875,3.872,3.893,0,0,19.367,73.4,14,Waypoint,
36.7672634,-118.8834291,5821.9216275745,97.440948,0,1.20326775504,15300,2018-04-14 21:43:51,15,0,23.361,5821.9216275745,97.440948,0.6263432,1.20326775504,0,0,-0.671082,63.5, -0.4, -1.4,0,0,1024,1024,1024,1024,63.6,-90,97,3.903,3.875,3.872,3.893,0,0,19.367,73.4,14,Waypoint,
36.7672634,-118.8834291,5822.9058795745,98.4252,0,1.20326775504,15400,2018-04-14 21:43:51,16,0,23.361,5822.9058795745,98.4252,0.6263432,1.20326775504,0,0,-0.671082,63.6, -0.6, -1,0,0,1024,1024,1024,1024,63.6,-90,97,3.903,3.875,3.872,3.893,0,0,19.367,73.4,14,Waypoint,
36.7672634,-118.8834291,5823.8901315745,99.409452,0,1.20326775504,15500,2018-04-14 21:43:52,16,0,23.361,5823.8901315745,99.409452,0.6263432,1.20326775504,0,0,-0.671082,63.7, -0.8, -0.8,0,0,1024,1024,1024,1024,63.6,-90,97,3.903,3.875,3.872,3.893,0,0,19.367,73.4,14,Waypoint,
36.7672634,-118.8834292,5824.8743835745,100.393704,0,1.2289042388,15600,2018-04-14 21:43:52,16,0,23.361,5824.8743835745,100.393704,0.6263432,1.2289042388,0,0,-0.671082,63.8, -0.9, -1.1,0,0,1024,1024,1024,1024,63.6,-90,97,3.903,3.875,3.872,3.893,0,0,19.367,73.4,14,Waypoint,
36.7672635,-118.8834293,5826.8428875745,102.362208,0,1.23814636508,15800,2018-04-14 21:43:52,16,0,23.361,5826.8428875745,102.362208,0.6263432,1.23814636508,0,0,-0.671082,64.1, -1, -1,0,0,1024,1024,1024,1024,63.6,-89.9,97,3.903,3.875,3.872,3.893,0,0,19.367,73.4,14,Waypoint,
36.7672635,-118.8834293,5827.8271395745,103.34646,0,1.23814636508,15900,2018-04-14 21:43:52,16,0,23.361,5827.8271395745,103.34646,0.6263432,1.23814636508,0,0,-0.671082,64.1, -0.9, -1.1,0,0,1024,1024,1024,1024,63.6,-89.9,97,3.903,3.875,3.872,3.893,0,0,19.367,73.4,14,Waypoint,
36.7672635,-118.8834293,5829.1394755745,104.658796,0,1.23814636508,16000,2018-04-14 21:43:52,16,0,23.275,5829.1394755745,104.658796,0.6263432,1.23814636508,0,0,-0.671082,64.2, -0.9, -1.4,0,0,1024,1024,1024,1024,63.6,-89.9,97,3.888,3.862,3.857,3.87,0,0,20.018,75.2,14,Waypoint,
36.7672635,-118.8834293,5830.1237275745,105.643048,0,1.23814636508,16100,2018-04-14 21:43:52,16,0,23.275,5830.1237275745,105.643048,0.6263432,1.23814636508,0,0,-0.671082,64.4, -0.9, -1.3,0,0,1024,1024,1024,1024,63.6,-89.9,97,3.888,3.862,3.857,3.87,0,0,20.018,75.2,14,Waypoint,
36.7672635,-118.8834293,5831.1079795745,106.6273,0,1.23814636508,16300,2018-04-14 21:43:52,16,0,23.275,5831.1079795745,106.6273,0.6263432,1.23814636508,0,0,-0.671082,64.5, -1.1, -1.5,0,0,1024,1024,1024,1024,63.6,-89.9,97,3.888,3.862,3.857,3.87,0,0,20.018,75.2,14,Waypoint,
36.7672634,-118.8834293,5832.0922315745,107.611552,0,1.25470148372,16400,2018-04-14 21:43:52,16,0,23.275,5832.0922315745,107.611552,0.6263432,1.25470148372,0,0,-0.671082,64.7, -1, -1.6,0,0,1024,1024,1024,1024,63.6,-89.9,97,3.888,3.862,3.857,3.87,0,0,20.018,75.2,14,Waypoint,
36.7672634,-118.8834293,5834.0607355745,109.580056,0,1.25470148372,16500,2018-04-14 21:43:53,16,0,23.275,5834.0607355745,109.580056,0.6263432,1.25470148372,0,0,-0.671082,64.5, -0.9, -1.8,0,0,1024,1024,1024,1024,63.6,-89.9,97,3.888,3.862,3.857,3.87,0,0,20.018,75.2,14,Waypoint,
36.7672635,-118.8834291,5836.0292395745,111.54856,0.223694,1.18599413244,16700,2018-04-14 21:43:53,16,0,23.275,5836.0292395745,111.54856,0.6263432,1.25470148372,0,0,-0.671082,64, -0.1, -2,0,0,1024,1024,1024,1024,63.6,-89.9,97,3.888,3.862,3.857,3.87,0,0,20.018,75.2,14,Waypoint,
36.7672635,-118.8834289,5837.9977435745,113.517064,0.223694,1.13445541688,16900,2018-04-14 21:43:53,16,0,23.275,5837.9977435745,113.517064,0.6263432,1.25470148372,0,0,-0.671082,63.6, 0.3, -2.3,0,0,1024,1024,1024,1024,63.6,-89.9,97,3.888,3.862,3.857,3.87,0,0,20.018,75.2,14,Waypoint,
36.7672635,-118.8834288,5838.9819955745,114.501316,0.223694,1.10894360504,17000,2018-04-14 21:43:53,16,0,23.307,5838.9819955745,114.501316,0.6263432,1.25470148372,0,0,-0.671082,63.5, 0.3, -2.6,0,0,1024,1024,1024,1024,63.6,-89.9,97,3.888,3.867,3.859,3.868,0,0,19.509,75.2,14,Waypoint,
36.7672634,-118.8834286,5839.9662475745,115.485568,0.223694,1.07781499512,17100,2018-04-14 21:43:53,16,0,23.307,5839.9662475745,115.485568,0.6263432,1.25470148372,0,0,-0.671082,63.4, 0.7, -3.1,0,0,1024,1024,1024,1024,63.6,-89.9,97,3.888,3.867,3.859,3.868,0,0,19.509,75.2,14,Waypoint,
36.7672634,-118.8834285,5840.9504995745,116.46982,0.223694,1.0533628946,17200,2018-04-14 21:43:53,16,0,23.307,5840.9504995745,116.46982,0.6263432,1.25470148372,0,0,-0.671082,63.5, 1.1, -3.4,0,0,1024,1024,1024,1024,63.6,-89.9,97,3.888,3.867,3.859,3.868,0,0,19.509,75.2,14,Waypoint,
36.7672633,-118.8834283,5841.9347515745,117.454072,0.3131716,1.02684714572,17300,2018-04-14 21:43:53,16,0,23.307,5841.9347515745,117.454072,0.6263432,1.25470148372,0,0,-0.671082,63.6, 1.3, -3.7,0,0,1024,1024,1024,1024,63.6,-89.9,97,3.888,3.867,3.859,3.868,0,0,19.509,75.2,14,Waypoint,
36.7672632,-118.8834282,5842.9190035745,118.438324,0.3131716,1.026656857,17400,2018-04-14 21:43:53,16,0,23.307,5842.9190035745,118.438324,0.6263432,1.25470148372,0,0,-0.671082,63.8, 1.3, -3.7,0,0,1024,1024,1024,1024,63.6,-89.9,97,3.888,3.867,3.859,3.868,0,0,19.509,75.2,14,Waypoint,
36.7672632,-118.8834281,5843.9032555745,119.422576,0,1.0043635492,17500,2018-04-14 21:43:54,16,0,23.307,5843.9032555745,119.422576,0.6263432,1.25470148372,0,0,-0.671082,64, 1, -3.7,0,0,1024,1024,1024,1024,63.6,-89.9,97,3.888,3.867,3.859,3.868,0,0,19.509,75.2,14,Waypoint,
36.7672631,-118.883428,5844.8875075745,120.406828,0,1.00719163328,17600,2018-04-14 21:43:54,16,0,23.307,5844.8875075745,120.406828,0.6263432,1.25470148372,0,0,-0.671082,64, 0.6, -3.3,0,0,1024,1024,1024,1024,63.6,-89.9,97,3.888,3.867,3.859,3.868,0,0,19.509,75.2,14,Waypoint,
36.7672631,-118.8834279,5845.5436755745,121.062996,0,0.98619425728,17700,2018-04-14 21:43:54,16,0,23.307,5845.5436755745,121.062996,0.6263432,1.25470148372,0,0,-0.671082,64, 0.4, -3.1,0,0,1024,1024,1024,1024,63.6,-89.9,97,3.888,3.867,3.859,3.868,0,0,19.509,75.2,14,Waypoint,
36.7672631,-118.8834278,5846.5279275745,122.047248,0,0.96562339048,17800,2018-04-14 21:43:54,16,0,23.307,5846.5279275745,122.047248,0.6263432,1.25470148372,0,0,-0.671082,63.8, 0.4, -3.2,0,0,1024,1024,1024,1024,63.6,-89.9,97,3.888,3.867,3.859,3.868,0,0,19.509,75.2,14,Waypoint,
36.7672631,-118.8834277,5847.5121795745,123.0315,0,0.94551184128,17900,2018-04-14 21:43:54,16,0,23.307,5847.5121795745,123.0315,0.6263432,1.25470148372,0,0,-0.671082,63.6, 0.4, -3.3,0,0,1024,1024,1024,1024,63.6,-89.9,97,3.888,3.867,3.859,3.868,0,0,19.509,75.2,14,Waypoint,
36.7672631,-118.8834275,5848.4964315745,124.015752,0,0.90677168256,18000,2018-04-14 21:43:54,16,0,23.33,5848.4964315745,124.015752,0.6263432,1.25470148372,0,0,-0.671082,63.3, 0.7, -3.4,0,0,1024,1024,1024,1024,63.6,-89.9,97,3.898,3.869,3.867,3.883,0,0,18.818,75.2,14,Waypoint,
36.7672631,-118.8834274,5849.4806835745,125.000004,0,0.88821197068,18100,2018-04-14 21:43:54,16,0,23.33,5849.4806835745,125.000004,0.6263432,1.25470148372,0,0,-0.671082,63.1, 1, -3.5,0,0,1024,1024,1024,1024,63.6,-89.9,97,3.898,3.869,3.867,3.883,0,0,18.818,75.2,14,Waypoint,
36.7672632,-118.8834273,5850.4649355745,125.984256,0,0.84146328152,18200,2018-04-14 21:43:54,16,0,23.33,5850.4649355745,125.984256,0.6263432,1.25470148372,0,0,-0.671082,63.1, 1.4, -3.1,0,0,1024,1024,1024,1024,63.6,-89.9,97,3.898,3.869,3.867,3.883,0,0,18.818,75.2,14,Waypoint,
36.7672632,-118.8834271,5851.1211035745,126.640424,0,0.80621065572,18300,2018-04-14 21:43:54,16,0,23.33,5851.1211035745,126.640424,0.6263432,1.25470148372,0,0,-0.671082,63.2, 1.6, -2.8,0,0,1024,1024,1024,1024,63.6,-89.9,97,3.898,3.869,3.867,3.883,0,0,18.818,75.2,14,Waypoint,
36.7672632,-118.883427,5852.1053555745,127.624676,0,0.789616167,18400,2018-04-14 21:43:54,16,0,23.33,5852.1053555745,127.624676,0.6263432,1.25470148372,0,0,-0.671082,63.3, 1.8, -2.7,0,0,1024,1024,1024,1024,63.6,-89.9,97,3.898,3.869,3.867,3.883,0,0,18.818,75.2,14,Waypoint,
36.7672632,-118.8834269,5853.0896075745,128.608928,0,0.7737697098,18500,2018-04-14 21:43:55,16,0,23.33,5853.0896075745,128.608928,0.6263432,1.25470148372,0,0,-0.671082,63.6, 2, -2.8,0,0,1024,1024,1024,1024,63.6,-89.9,97,3.898,3.869,3.867,3.883,0,0,18.818,75.2,14,Waypoint,
36.7672631,-118.8834268,5854.0738595745,129.59318,0,0.79051183632,18620,2018-04-14 21:43:55,16,0,23.33,5854.0738595745,129.59318,0.6263432,1.25470148372,0,0,-0.671082,63.9, 1, -4,0,0,1024,1024,1024,1024,63.6,-89.9,97,3.898,3.869,3.867,3.883,0,0,18.818,75.2,14,Waypoint,
36.7672631,-118.8834267,5855.3861955745,130.905516,0,0.7768865078,18700,2018-04-14 21:43:55,16,0,23.33,5855.3861955745,130.905516,0.6263432,1.25470148372,0,0,-0.671082,63.9, 0.2, -5.1,0,0,1024,1024,1024,1024,63.6,-90,97,3.898,3.869,3.867,3.883,0,0,18.818,75.2,14,Waypoint,
36.767263,-118.8834266,5856.3704475745,131.889768,0,0.79738519612,18800,2018-04-14 21:43:55,16,0,23.33,5856.3704475745,131.889768,0.6263432,1.25470148372,0,0,-0.671082,63.8, 0.4, -5.1,0,0,1024,1024,1024,1024,63.6,-89.9,97,3.898,3.869,3.867,3.883,0,0,18.818,75.2,14,Waypoint,
36.767263,-118.8834265,5857.3546995745,132.87402,0,0.7860564556,19000,2018-04-14 21:43:55,16,0,23.279,5857.3546995745,132.87402,0.6263432,1.25470148372,0,0,-0.671082,63.8, 1.2, -4.1,0,0,1024,1024,1024,1024,63.6,-89.9,97,3.889,3.849,3.855,3.871,0,0,19.279,75.2,14,Waypoint,
36.7672632,-118.8834263,5859.3232035745,134.842524,0,0.69710960236,19100,2018-04-14 21:43:55,16,0,23.279,5859.3232035745,134.842524,0.6263432,1.25470148372,0,0,-0.671082,63.9, 2.3, -3.6,0,0,1024,1024,1024,1024,63.6,-89.9,97,3.889,3.849,3.855,3.871,0,0,19.279,75.2,14,Waypoint,
36.7672632,-118.8834262,5859.9793715745,135.498692,0,0.68785763356,19300,2018-04-14 21:43:55,16,0,23.279,5859.9793715745,135.498692,0.6263432,1.25470148372,0,0,-0.671082,64, 2.5, -3.7,0,0,1024,1024,1024,1024,63.6,-89.9,97,3.889,3.849,3.855,3.871,0,0,19.279,75.2,14,Waypoint,
36.7672632,-118.8834261,5861.9478755745,137.467196,0,0.67973755456,19400,2018-04-14 21:43:55,16,0,23.279,5861.9478755745,137.467196,0.6263432,1.25470148372,0,0,-0.671082,64.1, 2.1, -3.7,0,0,1024,1024,1024,1024,63.6,-89.9,97,3.889,3.849,3.855,3.871,0,0,19.279,75.2,14,Waypoint,
36.7672633,-118.8834261,5862.9321275745,138.451448,0,0.64455710724,19500,2018-04-14 21:43:56,16,0,23.279,5862.9321275745,138.451448,0.6263432,1.25470148372,0,0,-0.671082,64.1, 1.8, -3.4,0,0,1024,1024,1024,1024,63.6,-89.9,97,3.889,3.849,3.855,3.871,0,0,19.279,75.2,14,Waypoint,
36.7672634,-118.8834262,5864.5725475745,140.091868,0,0.61857285444,19700,2018-04-14 21:43:56,16,0,23.279,5864.5725475745,140.091868,0.6263432,1.25470148372,0,0,-0.671082,64.2, 1.4, -2.6,0,0,1024,1024,1024,1024,63.6,-89.9,97,3.889,3.849,3.855,3.871,0,0,19.279,75.2,14,Waypoint,
36.7672634,-118.8834263,5865.5567995745,141.07612,0,0.62884516448,19800,2018-04-14 21:43:56,16,0,23.279,5865.5567995745,141.07612,0.6263432,1.25470148372,0,0,-0.671082,64.2, 1.2, -2.8,0,0,1024,1024,1024,1024,63.6,-90,97,3.889,3.849,3.855,3.871,0,0,19.279,75.2,14,Waypoint,
36.7672634,-118.8834263,5866.5410515745,142.060372,0,0.62884516448,19900,2018-04-14 21:43:56,16,0,23.279,5866.5410515745,142.060372,0.6263432,1.25470148372,0,0,-0.671082,64.2, 1, -3.3,0,0,1024,1024,1024,1024,63.6,-89.9,97,3.889,3.849,3.855,3.871,0,0,19.279,75.2,14,Waypoint,
36.7672635,-118.8834264,5867.5253035745,143.044624,0,0.60720802468,20000,2018-04-14 21:43:56,16,0,23.245,5867.5253035745,143.044624,0.6263432,1.25470148372,0,0,-0.671082,64.1, 1, -3.5,0,0,1024,1024,1024,1024,63.6,-89.9,96,3.881,3.844,3.853,3.861,0,0,19.235,75.2,14,Waypoint,
36.7672635,-118.8834264,5868.5095555745,144.028876,0,0.60720802468,20100,2018-04-14 21:43:56,16,0,23.245,5868.5095555745,144.028876,0.6263432,1.25470148372,0,0,-0.671082,63.9, 1.1, -3.3,0,0,1024,1024,1024,1024,63.6,-89.9,96,3.881,3.844,3.853,3.861,0,0,19.235,75.2,14,Waypoint,
36.7672636,-118.8834265,5869.4938075745,145.013128,0,0.58849739416,20200,2018-04-14 21:43:56,17,0,23.245,5869.4938075745,145.013128,0.6263432,1.25470148372,0,0,-0.671082,63.8, 1.1, -2.9,0,0,1024,1024,1024,1024,63.6,-89.9,96,3.881,3.844,3.853,3.861,0,0,19.235,75.2,14,Waypoint,
36.7672636,-118.8834266,5870.4780595745,145.99738,0,0.60354660724,20300,2018-04-14 21:43:56,17,0,23.245,5870.4780595745,145.99738,0.6263432,1.25470148372,0,0,-0.671082,63.8, 1.1, -2.5,0,0,1024,1024,1024,1024,63.6,-89.9,96,3.881,3.844,3.853,3.861,0,0,19.235,75.2,14,Waypoint,
36.7672637,-118.8834267,5871.4623115745,146.981632,0,0.58989175116,20400,2018-04-14 21:43:56,17,0,23.245,5871.4623115745,146.981632,0.6263432,1.25470148372,0,0,-0.671082,63.7, 0.9, -2.1,0,0,1024,1024,1024,1024,63.6,-90,96,3.881,3.844,3.853,3.861,0,0,19.235,75.2,14,Waypoint,
36.7672638,-118.8834268,5872.4465635745,147.965884,0,0.57969818128,20500,2018-04-14 21:43:57,17,0,23.245,5872.4465635745,147.965884,0.6263432,1.25470148372,0,0,-0.671082,63.7, 0.7, -2,0,0,1024,1024,1024,1024,63.6,-89.9,96,3.881,3.844,3.853,3.861,0,0,19.235,75.2,14,Waypoint,
36.7672638,-118.8834269,5873.4308155745,148.950136,0,0.5992618302,20600,2018-04-14 21:43:57,17,0,23.245,5873.4308155745,148.950136,0.6263432,1.25470148372,0,0,-0.671082,63.6, 0.7, -2.3,0,0,1024,1024,1024,1024,63.6,-89.9,96,3.881,3.844,3.853,3.861,0,0,19.235,75.2,14,Waypoint,
36.7672638,-118.883427,5874.4150675745,149.934388,0,0.619586634,20700,2018-04-14 21:43:57,17,0,23.245,5874.4150675745,149.934388,0.6263432,1.25470148372,0,0,-0.671082,63.6, 0.5, -2.9,0,0,1024,1024,1024,1024,63.6,-90,96,3.881,3.844,3.853,3.861,0,0,19.235,75.2,14,Waypoint,
36.7672638,-118.883427,5875.3993195745,150.91864,0,0.619586634,20800,2018-04-14 21:43:57,17,0,23.245,5875.3993195745,150.91864,0.6263432,1.25470148372,0,0,-0.671082,63.6, 0.3, -3.4,0,0,1024,1024,1024,1024,63.6,-89.9,96,3.881,3.844,3.853,3.861,0,0,19.235,75.2,14,Waypoint,
36.7672638,-118.8834271,5876.3835715745,151.902892,0,0.6406004142,20900,2018-04-14 21:43:57,17,0,23.245,5876.3835715745,151.902892,0.6263432,1.25470148372,0,0,-0.671082,63.6, 0.3, -3.5,0,0,1024,1024,1024,1024,63.6,-89.9,96,3.881,3.844,3.853,3.861,0,0,19.235,75.2,14,Waypoint,
36.7672639,-118.8834271,5877.6959075745,153.215228,0,0.6162401772,21000,2018-04-14 21:43:57,17,0,23.245,5877.6959075745,153.215228,0.6263432,1.25470148372,0,0,-0.671082,63.7, 0.6, -3.2,0,0,1024,1024,1024,1024,63.6,-89.9,96,3.881,3.844,3.853,3.861,0,0,19.235,75.2,14,Waypoint,
36.767264,-118.8834272,5879.6644115745,155.183732,0,0.61643046592,21210,2018-04-14 21:43:57,17,0,23.245,5879.6644115745,155.183732,0.6263432,1.25470148372,0,0,-0.671082,63.8, 1.2, -2.8,0,0,1024,1024,1024,1024,63.6,-89.9,96,3.881,3.844,3.853,3.861,0,0,19.235,75.2,14,Waypoint,
36.7672641,-118.8834273,5880.6486635745,156.167984,0,0.62015421932,21400,2018-04-14 21:43:57,17,0,23.245,5880.6486635745,156.167984,0.6263432,1.25470148372,0,0,-0.671082,63.8, 1.4, -2.3,0,0,1024,1024,1024,1024,63.6,-89.9,96,3.881,3.844,3.853,3.861,0,0,19.235,75.2,14,Waypoint,
36.7672642,-118.8834273,5881.6329155745,157.152236,0,0.60163387752,21500,2018-04-14 21:43:58,17,0,23.245,5881.6329155745,157.152236,0.6263432,1.25470148372,0,0,-0.671082,63.8, 1.5, -2.2,0,0,1024,1024,1024,1024,63.6,-89.9,96,3.881,3.844,3.853,3.861,0,0,19.235,75.2,14,Waypoint,
36.7672642,-118.8834273,5882.9452515745,158.464572,0,0.60163387752,21700,2018-04-14 21:43:58,17,0,23.245,5882.9452515745,158.464572,0.6263432,1.25470148372,0,0,-0.671082,63.8, 1.5, -2.5,0,0,1024,1024,1024,1024,63.6,-89.9,96,3.881,3.844,3.853,3.861,0,0,19.235,75.2,14,Waypoint,
36.7672642,-118.8834273,5883.9295035745,159.448824,0,0.60163387752,21900,2018-04-14 21:43:58,17,0,23.245,5883.9295035745,159.448824,0.6263432,1.25470148372,0,0,-0.671082,63.7, 1.3, -3,0,0,1024,1024,1024,1024,63.6,-89.9,96,3.881,3.844,3.853,3.861,0,0,19.235,75.2,14,Waypoint,
36.7672642,-118.8834273,5884.9137555745,160.433076,0.223694,0.60163387752,22000,2018-04-14 21:43:58,17,0,23.022,5884.9137555745,160.433076,0.6263432,1.25470148372,0,0,-0.671082,63.6, 1.3, -3.5,0,0,1024,1024,1024,1024,63.6,-89.9,96,3.845,3.819,3.804,3.832,0,0,21.59,75.2,14,Waypoint,
36.7672641,-118.8834274,5885.8980075745,161.417328,0.223694,0.64513453508,22200,2018-04-14 21:43:58,17,0,23.022,5885.8980075745,161.417328,0.6263432,1.25470148372,0,0,-0.671082,63.6, 1.3, -4.1,0,0,1024,1024,1024,1024,63.6,-89.9,96,3.845,3.819,3.804,3.832,0,0,21.59,75.2,14,Waypoint,
36.7672641,-118.8834274,5887.2103435745,162.729664,0.223694,0.64513453508,22300,2018-04-14 21:43:58,17,0,23.022,5887.2103435745,162.729664,0.6263432,1.25470148372,0,0,-0.671082,63.8, 1.1, -4.6,0,0,1024,1024,1024,1024,63.6,-90,96,3.845,3.819,3.804,3.832,0,0,21.59,75.2,14,Waypoint,
36.7672638,-118.8834275,5891.1473515745,166.666672,0,0.73032482652,22500,2018-04-14 21:43:59,17,0,23.022,5891.1473515745,166.666672,0.6263432,1.25470148372,0,0,-0.671082,64.1, 0.9, -4.3,0,0,1024,1024,1024,1024,63.6,-89.9,96,3.845,3.819,3.804,3.832,0,0,21.59,75.2,14,Waypoint,
36.7672638,-118.8834275,5891.8035195745,167.32284,0,0.73032482652,22700,2018-04-14 21:43:59,17,0,23.022,5891.8035195745,167.32284,0.6263432,1.25470148372,0,0,-0.671082,64.1, 1.3, -3.4,0,0,1024,1024,1024,1024,63.6,-89.9,96,3.845,3.819,3.804,3.832,0,0,21.59,75.2,14,Waypoint,
36.7672638,-118.8834275,5892.7877715745,168.307092,0,0.73032482652,22800,2018-04-14 21:43:59,17,0,23.022,5892.7877715745,168.307092,0.6263432,1.25470148372,0,0,-0.671082,64.1, 1.4, -3.2,0,0,1024,1024,1024,1024,63.6,-89.9,96,3.845,3.819,3.804,3.832,0,0,21.59,75.2,14,Waypoint,
36.7672637,-118.8834275,5893.7720235745,169.291344,0,0.75276577212,22900,2018-04-14 21:43:59,17,0,23.022,5893.7720235745,169.291344,0.6263432,1.25470148372,0,0,-0.671082,64.3, 1.4, -3.6,0,0,1024,1024,1024,1024,63.6,-89.9,96,3.845,3.819,3.804,3.832,0,0,21.59,75.2,14,Waypoint,
36.7672636,-118.8834276,5895.7405275745,171.259848,0,0.79851052424,23000,2018-04-14 21:43:59,17,0,22.99,5895.7405275745,171.259848,0.6263432,1.25470148372,0,0,-0.671082,64.4, 0.6, -3.9,0,0,1024,1024,1024,1024,63.6,-90,96,3.845,3.811,3.824,3.833,0,0,21.271,75.2,14,Waypoint,
36.7672636,-118.8834276,5896.3966955745,171.916016,0,0.79851052424,23200,2018-04-14 21:43:59,17,0,22.99,5896.3966955745,171.916016,0.6263432,1.25470148372,0,0,-0.671082,64.2, 0.5, -3.7,0,0,1024,1024,1024,1024,63.6,-89.9,96,3.845,3.811,3.824,3.833,0,0,21.271,75.2,14,Waypoint,
36.7672635,-118.8834277,5898.3651995745,173.88452,0,0.84436682492,23300,2018-04-14 21:43:59,17,0,22.99,5898.3651995745,173.88452,0.6263432,1.25470148372,0,0,-0.671082,63.7, 0.6, -4,0,0,1024,1024,1024,1024,63.6,-89.9,96,3.845,3.811,3.824,3.833,0,0,21.271,75.2,14,Waypoint,
36.7672634,-118.8834276,5900.3337035745,175.853024,0,0.8470472712,23400,2018-04-14 21:43:59,17,0,22.99,5900.3337035745,175.853024,0.6263432,1.25470148372,0,0,-0.671082,63.1, 0.8, -4.4,0,0,1024,1024,1024,1024,63.6,-89.9,96,3.845,3.811,3.824,3.833,0,0,21.271,75.2,14,Waypoint,
36.7672633,-118.8834277,5902.3022075745,177.821528,0,0.89339241704,23600,2018-04-14 21:44:00,17,0,22.99,5902.3022075745,177.821528,0.6263432,1.25470148372,0,0,-0.671082,62.9, 1.1, -4.3,0,0,1024,1024,1024,1024,63.6,-89.9,96,3.845,3.811,3.824,3.833,0,0,21.271,75.2,14,Waypoint,
36.7672632,-118.8834278,5903.9426275745,179.461948,0,0.93977693296,23700,2018-04-14 21:44:00,17,0,22.99,5903.9426275745,179.461948,0.6263432,1.25470148372,0,0,-0.671082,63.3, 1, -3.8,0,0,1024,1024,1024,1024,63.6,-89.9,96,3.845,3.811,3.824,3.833,0,0,21.271,75.2,14,Waypoint,
36.7672633,-118.8834278,5904.9268795745,180.4462,0,0.91465226024,23800,2018-04-14 21:44:00,17,0,22.99,5904.9268795745,180.4462,0.6263432,1.25470148372,0,0,-0.671082,63.8, 1.1, -3.3,0,0,1024,1024,1024,1024,63.6,-89.9,96,3.845,3.811,3.824,3.833,0,0,21.271,75.2,14,Waypoint,
36.7672633,-118.8834279,5905.9111315745,181.430452,0,0.93634189348,23910,2018-04-14 21:44:00,17,0,22.99,5905.9111315745,181.430452,0.6263432,1.25470148372,0,0,-0.671082,64.2, 1, -2.8,0,0,1024,1024,1024,1024,63.6,-89.9,96,3.845,3.811,3.824,3.833,0,0,21.271,75.2,14,Waypoint,
36.7672633,-118.883428,5906.8953835745,182.414704,0,0.9584317892,24010,2018-04-14 21:44:00,17,0,23.18,5906.8953835745,182.414704,0.6263432,1.25470148372,0,0,-0.671082,64.6, 0.5, -2.7,0,0,1024,1024,1024,1024,63.6,-89.9,96,3.87,3.852,3.836,3.862,0,0,19.189,75.2,14,Waypoint,
36.7672633,-118.8834281,5907.8796355745,183.398956,0,0.98089570068,24200,2018-04-14 21:44:00,17,0,23.18,5907.8796355745,183.398956,0.6263432,1.25470148372,0,0,-0.671082,64.8, 0, -3,0,0,1024,1024,1024,1024,63.6,-90,96,3.87,3.852,3.836,3.862,0,0,19.189,75.2,14,Waypoint,
36.7672633,-118.8834283,5910.1762235745,185.695544,0,1.02684714572,24300,2018-04-14 21:44:00,17,0,23.18,5910.1762235745,185.695544,0.6263432,1.25470148372,0,0,-0.671082,64.6, 0, -3.3,0,0,1024,1024,1024,1024,63.6,-90,96,3.87,3.852,3.836,3.862,0,0,19.189,75.2,14,Waypoint,
36.7672633,-118.8834283,5912.1447275745,187.664048,0,1.02684714572,24500,2018-04-14 21:44:01,17,0,23.18,5912.1447275745,187.664048,0.6263432,1.25470148372,0,0,-0.671082,64.2, 0.5, -3.7,0,0,1024,1024,1024,1024,63.6,-89.9,96,3.87,3.852,3.836,3.862,0,0,19.189,75.2,14,Waypoint,
36.7672633,-118.8834283,5913.1289795745,188.6483,0,1.02684714572,24600,2018-04-14 21:44:01,17,0,23.18,5913.1289795745,188.6483,0.6263432,1.25470148372,0,0,-0.671082,63.9, 0.5, -3.6,0,0,1024,1024,1024,1024,63.6,-89.9,96,3.87,3.852,3.836,3.862,0,0,19.189,75.2,14,Waypoint,
36.7672633,-118.8834283,5914.1132315745,189.632552,0,1.02684714572,24700,2018-04-14 21:44:01,17,0,23.18,5914.1132315745,189.632552,0.6263432,1.25470148372,0,0,-0.671082,63.7, 0.7, -3.1,0,0,1024,1024,1024,1024,63.6,-89.9,96,3.87,3.852,3.836,3.862,0,0,19.189,75.2,14,Waypoint,
36.7672633,-118.8834284,5915.0974835745,190.616804,0,1.05028874752,24800,2018-04-14 21:44:01,17,0,23.18,5915.0974835745,190.616804,0.6263432,1.25470148372,0,0,-0.671082,63.8, 0.8, -2.8,0,0,1024,1024,1024,1024,63.6,-89.9,96,3.87,3.852,3.836,3.862,0,0,19.189,75.2,14,Waypoint,
36.7672633,-118.8834284,5916.0817355745,191.601056,0,1.05028874752,24900,2018-04-14 21:44:01,17,0,23.18,5916.0817355745,191.601056,0.6263432,1.25470148372,0,0,-0.671082,63.9, 0.6, -3,0,0,1024,1024,1024,1024,63.6,-89.9,96,3.87,3.852,3.836,3.862,0,0,19.189,75.2,14,Waypoint,
36.7672633,-118.8834284,5917.3940715745,192.913392,0,1.05028874752,25000,2018-04-14 21:44:01,17,0,23.046,5917.3940715745,192.913392,0.6263432,1.25470148372,0,0,-0.671082,63.9, 0.4, -3.2,0,0,1024,1024,1024,1024,63.6,-89.9,96,3.849,3.818,3.829,3.823,0,0,20.227,75.2,14,Waypoint,
36.7672633,-118.8834284,5918.3783235745,193.897644,0,1.05028874752,25100,2018-04-14 21:44:01,17,0,23.046,5918.3783235745,193.897644,0.6263432,1.25470148372,0,0,-0.671082,63.9, 0.8, -3.4,0,0,1024,1024,1024,1024,63.6,-89.9,96,3.849,3.818,3.829,3.823,0,0,20.227,75.2,14,Waypoint,
36.7672634,-118.8834283,5919.3625755745,194.881896,0,1.00522969096,25200,2018-04-14 21:44:01,17,0,23.046,5919.3625755745,194.881896,0.6263432,1.25470148372,0,0,-0.671082,63.9, 1.1, -3.8,0,0,1024,1024,1024,1024,63.6,-89.9,96,3.849,3.818,3.829,3.823,0,0,20.227,75.2,14,Waypoint,
36.7672634,-118.8834283,5920.6749115745,196.194232,0,1.00522969096,25300,2018-04-14 21:44:01,17,0,23.046,5920.6749115745,196.194232,0.6263432,1.25470148372,0,0,-0.671082,64, 1.2, -4.1,0,0,1024,1024,1024,1024,63.6,-89.9,96,3.849,3.818,3.829,3.823,0,0,20.227,75.2,14,Waypoint,
36.7672634,-118.8834282,5921.6591635745,197.178484,0,0.98158139624,25400,2018-04-14 21:44:01,17,0,23.046,5921.6591635745,197.178484,0.6263432,1.25470148372,0,0,-0.671082,64, 1.4, -4,0,0,1024,1024,1024,1024,63.6,-89.9,96,3.849,3.818,3.829,3.823,0,0,20.227,75.2,14,Waypoint,
36.7672634,-118.8834281,5922.6434155745,198.162736,0,0.95824478132,25500,2018-04-14 21:44:02,17,0,23.046,5922.6434155745,198.162736,0.6263432,1.25470148372,0,0,-0.671082,64, 1.4, -3.9,0,0,1024,1024,1024,1024,63.6,-89.9,96,3.849,3.818,3.829,3.823,0,0,20.227,75.2,14,Waypoint,
36.7672634,-118.8834281,5923.6276675745,199.146988,0,0.95824478132,25600,2018-04-14 21:44:02,17,0,23.046,5923.6276675745,199.146988,0.6263432,1.25470148372,0,0,-0.671082,64, 1.3, -4.3,0,0,1024,1024,1024,1024,63.6,-89.9,96,3.849,3.818,3.829,3.823,0,0,20.227,75.2,14,Waypoint,
36.7672634,-118.883428,5924.9400035745,200.459324,0,0.9352362504,25700,2018-04-14 21:44:02,17,0,23.046,5924.9400035745,200.459324,0.6263432,1.25470148372,0,0,-0.671082,64, 1.2, -4.5,0,0,1024,1024,1024,1024,63.6,-89.9,96,3.849,3.818,3.829,3.823,0,0,20.227,75.2,14,Waypoint,
36.7672634,-118.8834279,5925.9242555745,201.443576,0,0.9125820502,25800,2018-04-14 21:44:02,17,0,23.046,5925.9242555745,201.443576,0.6263432,1.25470148372,0,0,-0.671082,63.9, 1.4, -4.5,0,0,1024,1024,1024,1024,63.6,-89.9,96,3.849,3.818,3.829,3.823,0,0,20.227,75.2,14,Waypoint,
36.7672634,-118.8834279,5926.9085075745,202.427828,0,0.9125820502,25900,2018-04-14 21:44:02,17,0,23.046,5926.9085075745,202.427828,0.6263432,1.25470148372,0,0,-0.671082,63.9, 1.5, -4.3,0,0,1024,1024,1024,1024,63.6,-89.9,96,3.849,3.818,3.829,3.823,0,0,20.227,75.2,14,Waypoint,
36.7672634,-118.8834279,5927.8927595745,203.41208,0,0.9125820502,26020,2018-04-14 21:44:02,17,0,23.052,5927.8927595745,203.41208,0.6263432,1.25470148372,0,0,-0.671082,63.8, 1.5, -4.2,0,0,1024,1024,1024,1024,63.6,-89.9,96,3.858,3.819,3.829,3.834,0,0,19.764,75.2,14,Waypoint,
36.7672634,-118.8834279,5927.8927595745,203.41208,0,0.9125820502,26100,2018-04-14 21:44:02,17,0,23.052,5927.8927595745,203.41208,0.6263432,1.25470148372,0,0,-0.671082,63.8, 1.5, -4.2,0,0,1024,1024,1024,1024,63.6,-89.9,96,3.858,3.819,3.829,3.834,0,0,19.764,75.2,14,Waypoint,
36.7672635,-118.8834279,5929.5331795745,205.0525,0,0.88968506784,26200,2018-04-14 21:44:02,17,0,23.052,5929.5331795745,205.0525,0.6263432,1.25470148372,0,0,-0.671082,63.9, 1.4, -3.4,0,0,1024,1024,1024,1024,63.6,-89.9,96,3.858,3.819,3.829,3.834,0,0,19.764,75.2,14,Waypoint,
36.7672635,-118.8834279,5930.5174315745,206.036752,0,0.88968506784,26300,2018-04-14 21:44:02,17,0,23.052,5930.5174315745,206.036752,0.6263432,1.25470148372,0,0,-0.671082,63.9, 1.2, -2.7,0,0,1024,1024,1024,1024,63.6,-89.9,96,3.858,3.819,3.829,3.834,0,0,19.764,75.2,14,Waypoint,
36.7672636,-118.8834279,5931.5016835745,207.021004,0,0.86771984404,26410,2018-04-14 21:44:02,17,0,23.052,5931.5016835745,207.021004,0.6263432,1.25470148372,0,0,-0.671082,63.8, 1, -2.7,0,0,1024,1024,1024,1024,63.6,-89.9,96,3.858,3.819,3.829,3.834,0,0,19.764,75.2,14,Waypoint,
36.7672636,-118.883428,5932.4859355745,208.005256,0,0.89151249572,26510,2018-04-14 21:44:03,17,0,23.052,5932.4859355745,208.005256,0.6263432,1.25470148372,0,0,-0.671082,63.7, 0.9, -2.8,0,0,1024,1024,1024,1024,63.6,-89.9,96,3.858,3.819,3.829,3.834,0,0,19.764,75.2,14,Waypoint,
36.7672636,-118.883428,5933.1421035745,208.661424,0,0.89151249572,26600,2018-04-14 21:44:03,17,0,23.052,5933.1421035745,208.661424,0.6263432,1.25470148372,0,0,-0.671082,63.7, 0.8, -2.9,0,0,1024,1024,1024,1024,63.6,-89.9,96,3.858,3.819,3.829,3.834,0,0,19.764,75.2,14,Waypoint,
36.7672637,-118.8834281,5934.1263555745,209.645676,0,0.89577758772,26700,2018-04-14 21:44:03,17,0,23.052,5934.1263555745,209.645676,0.6263432,1.25470148372,0,0,-0.671082,63.8, 0.7, -2.9,0,0,1024,1024,1024,1024,63.6,-89.9,96,3.858,3.819,3.829,3.834,0,0,19.764,75.2,14,Waypoint,
36.7672637,-118.8834281,5935.1106075745,210.629928,0,0.89577758772,26900,2018-04-14 21:44:03,17,0,23.052,5935.1106075745,210.629928,0.6263432,1.25470148372,0,0,-0.671082,64, 0.7, -2.9,0,0,1024,1024,1024,1024,63.6,-90,96,3.858,3.819,3.829,3.834,0,0,19.764,75.2,14,Waypoint,
36.7672637,-118.8834282,5936.0948595745,211.61418,0,0.9207021292,27000,2018-04-14 21:44:03,17,0,23.2,5936.0948595745,211.61418,0.6263432,1.25470148372,0,0,-0.671082,64.1, 0.5, -2.8,0,0,1024,1024,1024,1024,63.6,-89.9,96,3.885,3.842,3.854,3.856,0,0,18.419,75.2,14,Waypoint,
36.7672638,-118.8834283,5938.0633635745,213.582684,0,0.92811354676,27100,2018-04-14 21:44:03,17,0,23.2,5938.0633635745,213.582684,0.6263432,1.25470148372,0,0,-0.671082,64.1, 0.4, -2.4,0,0,1024,1024,1024,1024,63.6,-89.9,96,3.885,3.842,3.854,3.856,0,0,18.419,75.2,14,Waypoint,
36.7672638,-118.8834283,5938.7195315745,214.238852,0,0.92811354676,27300,2018-04-14 21:44:03,17,0,23.2,5938.7195315745,214.238852,0.6263432,1.25470148372,0,0,-0.671082,64, 0.5, -2.6,0,0,1024,1024,1024,1024,63.6,-89.9,96,3.885,3.842,3.854,3.856,0,0,18.419,75.2,14,Waypoint,
36.7672638,-118.8834284,5940.6880355745,216.207356,0,0.953986251,27400,2018-04-14 21:44:03,17,0,23.2,5940.6880355745,216.207356,0.6263432,1.25470148372,0,0,-0.671082,63.8, 0.5, -2.7,0,0,1024,1024,1024,1024,63.6,-89.9,96,3.885,3.842,3.854,3.856,0,0,18.419,75.2,14,Waypoint,
36.7672638,-118.8834285,5941.6722875745,217.191608,0,0.98004596312,27500,2018-04-14 21:44:04,17,0,23.2,5941.6722875745,217.191608,0.6263432,1.25470148372,0,0,-0.671082,63.8, 0.4, -2.8,0,0,1024,1024,1024,1024,63.6,-90,96,3.885,3.842,3.854,3.856,0,0,18.419,75.2,14,Waypoint,
36.7672638,-118.8834285,5942.9846235745,218.503944,0,0.98004596312,27600,2018-04-14 21:44:04,17,0,23.2,5942.9846235745,218.503944,0.6263432,1.25470148372,0,0,-0.671082,63.8, 0.1, -3.1,0,0,1024,1024,1024,1024,63.6,-90,96,3.885,3.842,3.854,3.856,0,0,18.419,75.2,14,Waypoint,
36.7672639,-118.8834286,5943.9688755745,219.488196,0,0.99094819444,27700,2018-04-14 21:44:04,17,0,23.2,5943.9688755745,219.488196,0.6263432,1.25470148372,0,0,-0.671082,63.7, 0, -2.9,0,0,1024,1024,1024,1024,63.6,-89.9,96,3.885,3.842,3.854,3.856,0,0,18.419,75.2,14,Waypoint,
36.7672639,-118.8834286,5944.9531275745,220.472448,0,0.99094819444,27800,2018-04-14 21:44:04,17,0,23.2,5944.9531275745,220.472448,0.6263432,1.25470148372,0,0,-0.671082,63.7, 0, -3,0,0,1024,1024,1024,1024,63.6,-90,96,3.885,3.842,3.854,3.856,0,0,18.419,75.2,14,Waypoint,
