Latitude, Longitude, Altitude (m), Time, Sats, Speed (m/s), Range (m), Battery (%), Roll (deg), Pitch (deg), Yaw (deg), Images, HD Signal (%), RC Signal (%), Battery Temp (C), Battery Voltage (mV), Battery Current (mA), Battery Energy (mAh), Battery Capacity (mAh), Battery Discharges, flyState, timestamp (Unix), LastUpdate (ms), radioChannel, Rc_elevator, Rc_aileron, Rc_throttle, Rc_rudder, Rc_gyro, Dronetype, Battery_Cell1 (mV), Battery_Cell2 (mV), Battery_Cell3 (mV), Battery_Cell4 (mV), Battery_Cell5 (mV), Battery_Cell6 (mV), Video, isFlying, elapsedTime (ms), gimbalPitch (deg), gimbalRoll (deg), gimbalYaw (deg), VelocityX (m/s), VelocityY (m/s), VelocityZ (m/s), GroundSmear (cm), App Version, Aircraft Name, Aircraft Firmware, Aircraft Serial Number, Battery Serial Number, Battery Lifetime (%), App_Tip, App_Warning, CurrentFlightStartingIndex, CurrentFlightLastVisitedWaypoint, PreviousFlightEndingWaypointIndex
36.7672650, -118.8834255, 0.000, 14:43:39.087, 11, 0.22, 0.06, 98, 1.200, 2.900, 63.500, 2, 100, 100, 23, 25287, -3800, 5455, 5567, 7, 11, 1523742219.088, 55, 0, 1024, 1024, 1024, 1024, 0, 6, 4216, 4237, 4230, 4247, 4273, 4192, 0, 1, 3013, -90.000, 0.000, 63.500, -0.100, -0.200, -0.100, 0.1, MapPilot_2.7.4_02272018, Dendroctonus I, 1.3.1.00, 041DDC1887, 1058171200279, 99, DJI_0256.jpg, Starting Mission from Lat/Long: 36.76725/-118.88345 Camera: Zenmuse X3 - Overlap: 90/90 - Active Connection: Yes, 0, 0, 0
36.7672649, -118.8834257, 0.000, 14:43:39.174, 11, 0.22, 0.07, 98, 1.100, 1.300, 63.400, 2, 100, 100, 23, 25287, -3800, 5455, 5567, 7, 11, 1523742219.175, 18, 0, 1024, 1024, 1024, 1024, 0, 6, 4216, 4237, 4230, 4247, 4273, 4192, 0, 1, 3100, -90.000, 0.000, 63.600, -0.100, -0.200, -0.200, 0.1, , , , , , 99, , , 0, 0, 0
36.7672648, -118.8834261, 0.000, 14:43:39.274, 12, 0.28, 0.08, 98, 0.700, -0.100, 63.400, 2, 100, 100, 23, 25287, -3800, 5455, 5567, 7, 11, 1523742219.275, 28, 0, 1024, 1024, 1024, 1024, 0, 6, 4216, 4237, 4230, 4247, 4273, 4192, 0, 1, 3200, -90.000, 0.000, 63.600, -0.200, -0.200, -0.300, 0.0, , , , , , 99, , , 0, 0, 0
36.7672646, -118.8834264, 0.000, 14:43:39.374, 12, 0.28, 0.10, 98, 0.100, -1.200, 63.300, 2, 100, 100, 23, 25287, -3800, 5455, 5567, 7, 11, 1523742219.375, 37, 0, 1024, 1024, 1024, 1024, 0, 6, 4216, 4237, 4230, 4247, 4273, 4192, 0, 1, 3300, -90.000, 0.000, 63.600, -0.200, -0.200, -0.400, 0.0, , , , , , 99, , , 0, 0, 0
36.7672645, -118.8834267, 0.100, 14:43:39.475, 13, 0.28, 0.13, 98, -0.400, -2.000, 63.400, 2, 100, 100, 23, 25350, -4125, 5455, 5567, 7, 11, 1523742219.476, 24, 0, 1024, 1024, 1024, 1024, 0, 6, 4216, 4237, 4230, 4247, 4273, 4192, 0, 1, 3401, -90.000, 0.000, 63.600, -0.200, -0.200, -0.400, 0.0, , , , , , 99, , , 0, 0, 0
36.7672644, -118.8834269, 0.100, 14:43:39.574, 13, 0.22, 0.15, 98, -0.900, -2.700, 63.500, 2, 100, 100, 23, 25350, -4125, 5455, 5567, 7, 11, 1523742219.575, 19, 0, 1024, 1024, 1024, 1024, 0, 6, 4181, 4169, 4180, 4202, 4210, 4176, 0, 1, 3500, -90.000, 0.000, 63.600, -0.100, -0.200, -0.400, 0.0, , , , , , 99, , , 0, 0, 0
36.7672643, -118.8834272, 0.200, 14:43:39.675, 14, 0.14, 0.18, 98, -1.100, -2.700, 63.700, 2, 100, 100, 23, 25350, -4125, 5455, 5567, 7, 11, 1523742219.676, 23, 0, 1024, 1024, 1024, 1024, 0, 6, 4181, 4169, 4180, 4202, 4210, 4176, 0, 1, 3601, -89.900, 0.000, 63.600, -0.100, -0.100, -0.400, 0.0, , , , , , 99, , , 0, 0, 0
36.7672642, -118.8834274, 0.200, 14:43:39.774, 14, 0.14, 0.20, 98, -1.100, -2.400, 63.900, 2, 100, 100, 23, 25350, -4125, 5455, 5567, 7, 11, 1523742219.775, 5, 0, 1024, 1024, 1024, 1024, 0, 6, 4181, 4169, 4180, 4202, 4210, 4176, 0, 1, 3700, -89.900, 0.000, 63.600, -0.100, -0.100, -0.400, 0.0, , , , , , 99, , , 0, 0, 0
36.7672642, -118.8834274, 0.200, 14:43:39.875, 14, 0.14, 0.20, 98, -1.100, -2.400, 63.900, 2, 100, 100, 23, 25350, -4125, 5455, 5567, 7, 11, 1523742219.876, 106, 0, 1024, 1024, 1024, 1024, 0, 6, 4181, 4169, 4180, 4202, 4210, 4176, 0, 1, 3801, -89.900, 0.000, 63.600, -0.100, -0.100, -0.400, 0.0, , , , , , 99, , , 0, 0, 0
36.7672641, -118.8834276, 0.300, 14:43:39.974, 13, 0.10, 0.21, 98, -0.900, -2.000, 64.000, 2, 100, 100, 23, 25350, -4125, 5455, 5567, 7, 11, 1523742219.975, 94, 0, 1024, 1024, 1024, 1024, 0, 6, 4181, 4169, 4180, 4202, 4210, 4176, 0, 1, 3900, -89.900, 0.000, 63.600, 0.000, -0.100, -0.300, 0.0, , , , , , 99, , , 0, 0, 0
36.7672641, -118.8834277, 0.300, 14:43:40.075, 13, 0.00, 0.22, 98, -0.500, -1.700, 64.100, 2, 100, 100, 23, 25350, -4125, 5455, 5567, 7, 11, 1523742220.076, 98, 0, 1024, 1024, 1024, 1024, 0, 6, 4181, 4169, 4180, 4202, 4210, 4176, 0, 1, 4001, -89.900, 0.000, 63.600, 0.000, 0.000, -0.400, 0.0, , , , , , 99, , , 0, 0, 0
36.7672641, -118.8834278, 0.400, 14:43:40.175, 13, 0.00, 0.24, 98, -0.100, -1.000, 64.200, 2, 100, 100, 23, 25350, -4125, 5455, 5567, 7, 11, 1523742220.176, 92, 0, 1024, 1024, 1024, 1024, 0, 6, 4181, 4169, 4180, 4202, 4210, 4176, 0, 1, 4101, -89.900, 0.000, 63.600, 0.000, 0.000, -0.400, 0.0, , , , , , 99, , , 0, 0, 0
36.7672641, -118.8834281, 0.400, 14:43:40.274, 13, 0.00, 0.26, 98, 0.000, -0.600, 64.100, 2, 100, 100, 23, 25350, -4125, 5455, 5567, 7, 11, 1523742220.275, 78, 0, 1024, 1024, 1024, 1024, 0, 6, 4181, 4169, 4180, 4202, 4210, 4176, 0, 1, 4200, -89.900, 0.000, 63.600, 0.000, 0.000, -0.400, 0.0, , , , , , 99, , , 0, 0, 0
36.7672641, -118.8834282, 0.500, 14:43:40.375, 13, 0.00, 0.27, 98, 0.100, -0.800, 63.900, 2, 100, 100, 23, 25350, -4125, 5455, 5567, 7, 11, 1523742220.376, 77, 0, 1024, 1024, 1024, 1024, 0, 6, 4181, 4169, 4180, 4202, 4210, 4176, 0, 1, 4301, -89.900, 0.000, 63.600, 0.000, 0.000, -0.400, 0.0, , , , , , 99, , , 0, 0, 0
36.7672641, -118.8834283, 0.600, 14:43:40.475, 13, 0.00, 0.28, 98, -0.100, -1.100, 63.600, 2, 100, 100, 23, 25350, -4125, 5455, 5567, 7, 11, 1523742220.476, 74, 0, 1024, 1024, 1024, 1024, 0, 6, 4181, 4169, 4180, 4202, 4210, 4176, 0, 1, 4401, -89.900, 0.000, 63.600, 0.000, 0.000, -0.400, 0.0, , , , , , 99, , , 0, 0, 0
36.7672640, -118.8834283, 0.600, 14:43:40.575, 13, 0.00, 0.28, 98, -0.400, -1.100, 63.600, 2, 100, 100, 23, 24160, -16084, 5455, 5567, 7, 11, 1523742220.576, 81, 0, 1024, 1024, 1024, 1024, 0, 6, 4031, 3995, 4011, 4009, 4036, 4021, 0, 1, 4501, -89.900, 0.000, 63.600, 0.000, 0.000, -0.500, 0.0, , , , , , 99, , , 0, 0, 0
36.7672640, -118.8834284, 0.700, 14:43:40.675, 13, 0.00, 0.29, 98, -0.400, -1.000, 63.700, 2, 100, 100, 23, 24160, -16084, 5455, 5567, 7, 11, 1523742220.676, 82, 0, 1024, 1024, 1024, 1024, 0, 6, 4031, 3995, 4011, 4009, 4036, 4021, 0, 1, 4601, -89.900, 0.000, 63.600, 0.000, 0.000, -0.500, 0.0, , , , , , 99, , , 0, 0, 0
36.7672639, -118.8834285, 0.800, 14:43:40.775, 13, 0.00, 0.30, 98, -0.500, -0.900, 63.800, 2, 100, 100, 23, 24160, -16084, 5455, 5567, 7, 11, 1523742220.775, 58, 0, 1024, 1024, 1024, 1024, 0, 6, 4031, 3995, 4011, 4009, 4036, 4021, 0, 1, 4700, -89.900, 0.000, 63.600, 0.000, 0.000, -0.500, 0.0, , , , , , 99, , , 0, 0, 0
36.7672638, -118.8834286, 0.800, 14:43:40.875, 11, 0.00, 0.31, 98, -0.600, -1.100, 64.000, 2, 100, 100, 23, 24160, -16084, 5455, 5567, 7, 11, 1523742220.876, 66, 0, 1024, 1024, 1024, 1024, 0, 6, 4031, 3995, 4011, 4009, 4036, 4021, 0, 1, 4801, -89.900, 0.000, 63.600, 0.000, 0.000, -0.500, 0.0, , , , , , 99, , , 0, 0, 0
36.7672638, -118.8834287, 0.900, 14:43:40.974, 11, 0.00, 0.32, 98, -0.800, -1.200, 64.000, 2, 100, 100, 23, 24160, -16084, 5455, 5567, 7, 6, 1523742220.975, 57, 0, 1024, 1024, 1024, 1024, 0, 6, 4031, 3995, 4011, 4009, 4036, 4021, 0, 1, 4900, -89.900, 0.000, 63.600, 0.000, 0.000, -0.500, 0.0, , , , , , 99, , , 0, 0, 0
36.7672636, -118.8834287, 0.900, 14:43:41.075, 11, 0.00, 0.32, 98, -0.900, -1.400, 63.900, 2, 100, 100, 23, 24160, -16084, 5455, 5567, 7, 14, 1523742221.076, 62, 0, 1024, 1024, 1024, 1024, 0, 6, 4031, 3995, 4011, 4009, 4036, 4021, 0, 1, 5001, -89.900, 0.000, 63.600, 0.000, 0.000, -0.400, 0.0, , , , , , 99, , , 0, 0, 0
36.7672635, -118.8834286, 1.000, 14:43:41.174, 11, 0.00, 0.32, 98, -1.400, -1.100, 63.900, 2, 100, 100, 23, 24160, -16084, 5455, 5567, 7, 14, 1523742221.175, 24, 0, 1024, 1024, 1024, 1024, 0, 6, 4031, 3995, 4011, 4009, 4036, 4021, 0, 1, 5100, -89.900, 0.000, 63.600, 0.000, 0.000, -0.200, 0.0, , , , , , 99, , , 0, 0, 0
36.7672634, -118.8834286, 1.000, 14:43:41.275, 12, 0.00, 0.33, 98, -1.700, -0.700, 64.000, 2, 100, 100, 23, 24160, -16084, 5455, 5567, 7, 14, 1523742221.276, 65, 0, 1024, 1024, 1024, 1024, 0, 6, 4031, 3995, 4011, 4009, 4036, 4021, 0, 1, 5201, -89.900, 0.000, 63.600, 0.000, 0.000, -0.200, 0.0, , , , , , 99, , , 0, 0, 0
36.7672634, -118.8834287, 1.000, 14:43:41.375, 12, 0.00, 0.33, 98, -1.700, -0.600, 64.100, 2, 100, 100, 23, 24160, -16084, 5455, 5567, 7, 14, 1523742221.376, 59, 0, 1024, 1024, 1024, 1024, 0, 6, 4031, 3995, 4011, 4009, 4036, 4021, 0, 1, 5301, -89.900, 0.000, 63.600, 0.000, 0.000, -0.300, 0.0, , , , , , 99, , , 0, 0, 0
36.7672634, -118.8834287, 1.100, 14:43:41.475, 13, 0.00, 0.33, 98, -1.400, -0.700, 64.100, 2, 100, 100, 23, 23941, -16930, 5455, 5567, 7, 14, 1523742221.475, 60, 0, 1024, 1024, 1024, 1024, 0, 6, 4031, 3995, 4011, 4009, 4036, 4021, 0, 1, 5401, -89.900, 0.000, 63.600, 0.000, 0.000, -0.400, 0.0, , , , , , 99, , , 0, 0, 0
36.7672633, -118.8834287, 1.100, 14:43:41.575, 13, 0.00, 0.34, 98, -1.300, -0.600, 64.100, 2, 100, 100, 23, 23941, -16930, 5455, 5567, 7, 14, 1523742221.576, 41, 0, 1024, 1024, 1024, 1024, 0, 6, 4031, 3995, 4011, 4009, 4036, 4021, 0, 1, 5501, -89.900, 0.000, 63.600, 0.000, 0.000, -0.500, 0.0, , , , , , 99, , , 0, 0, 0
36.7672632, -118.8834287, 1.200, 14:43:41.675, 11, 0.00, 0.34, 98, -1.400, -0.500, 64.100, 2, 100, 100, 23, 23941, -16930, 5455, 5567, 7, 14, 1523742221.676, 50, 0, 1024, 1024, 1024, 1024, 0, 6, 4031, 3995, 4011, 4009, 4036, 4021, 0, 1, 5601, -89.900, 0.000, 63.600, 0.000, 0.000, -0.700, 0.0, , , , , , 99, , , 0, 0, 0
36.7672632, -118.8834286, 1.300, 14:43:41.775, 11, 0.00, 0.34, 98, -1.400, -0.500, 64.100, 2, 100, 100, 23, 23941, -16930, 5455, 5567, 7, 14, 1523742221.776, 51, 0, 1024, 1024, 1024, 1024, 0, 6, 4031, 3995, 4011, 4009, 4036, 4021, 0, 1, 5701, -89.900, 0.000, 63.600, 0.000, 0.000, -0.900, 0.0, , , , , , 99, , , 0, 0, 0
36.7672632, -118.8834286, 1.500, 14:43:41.875, 11, 0.00, 0.34, 98, -1.300, -0.500, 64.200, 2, 100, 100, 23, 23941, -16930, 5455, 5567, 7, 14, 1523742221.875, 39, 0, 1024, 1024, 1024, 1024, 0, 6, 4031, 3995, 4011, 4009, 4036, 4021, 0, 1, 5800, -89.900, 0.000, 63.600, 0.000, 0.000, -1.100, 0.0, , , , , , 99, , , 0, 0, 0
36.7672632, -118.8834286, 1.600, 14:43:41.975, 11, 0.00, 0.34, 98, -1.100, -0.600, 64.200, 2, 100, 100, 23, 23941, -16930, 5455, 5567, 7, 14, 1523742221.975, 37, 0, 1024, 1024, 1024, 1024, 0, 6, 4010, 3967, 3987, 3977, 4004, 3990, 0, 1, 5901, -89.900, 0.000, 63.600, 0.000, 0.000, -1.100, 0.0, , , , , , 99, , , 0, 0, 0
36.7672633, -118.8834286, 1.700, 14:43:42.075, 11, 0.00, 0.33, 98, -1.000, -0.700, 64.200, 2, 100, 100, 23, 23941, -16930, 5455, 5567, 7, 14, 1523742222.075, 41, 0, 1024, 1024, 1024, 1024, 0, 6, 4010, 3967, 3987, 3977, 4004, 3990, 0, 1, 6000, -89.900, 0.000, 63.600, 0.000, 0.000, -1.400, 0.0, , , , , , 99, , , 0, 0, 0
36.7672634, -118.8834286, 1.900, 14:43:42.190, 11, 0.00, 0.32, 98, -0.900, -0.600, 64.100, 2, 100, 100, 23, 23941, -16930, 5455, 5567, 7, 14, 1523742222.191, 4, 0, 1024, 1024, 1024, 1024, 0, 6, 4010, 3967, 3987, 3977, 4004, 3990, 0, 1, 6116, -89.900, 0.000, 63.600, 0.000, 0.000, -1.600, 0.0, , , , , , 99, , , 0, 0, 0
36.7672634, -118.8834286, 1.900, 14:43:42.275, 11, 0.00, 0.32, 98, -0.900, -0.600, 64.100, 2, 100, 100, 23, 23941, -16930, 5455, 5567, 7, 14, 1523742222.275, 88, 0, 1024, 1024, 1024, 1024, 0, 6, 4010, 3967, 3987, 3977, 4004, 3990, 0, 1, 6200, -89.900, 0.000, 63.600, 0.000, 0.000, -1.600, 0.0, , , , , , 99, , , 0, 0, 0
36.7672634, -118.8834285, 2.200, 14:43:42.375, 11, 0.00, 0.32, 98, -0.600, -0.500, 63.700, 2, 100, 100, 23, 23941, -16930, 5455, 5567, 7, 14, 1523742222.375, 13, 0, 1024, 1024, 1024, 1024, 0, 6, 4010, 3967, 3987, 3977, 4004, 3990, 0, 1, 6300, -89.900, 0.000, 63.600, 0.000, 0.000, -2.100, 0.0, , , , , , 99, , , 0, 0, 0
36.7672635, -118.8834286, 2.500, 14:43:42.475, 12, 0.00, 0.32, 98, -0.500, -0.300, 63.600, 2, 100, 100, 23, 23941, -16930, 5455, 5567, 7, 14, 1523742222.476, 12, 0, 1024, 1024, 1024, 1024, 0, 6, 4010, 3967, 3987, 3977, 4004, 3990, 0, 1, 6401, -89.900, 0.000, 63.600, 0.000, 0.000, -2.300, 0.0, , , , , , 99, , , 0, 0, 0
36.7672635, -118.8834286, 2.800, 14:43:42.575, 12, 0.00, 0.32, 98, -0.300, -0.300, 63.600, 2, 100, 100, 23, 23941, -16930, 5455, 5567, 7, 14, 1523742222.576, 7, 0, 1024, 1024, 1024, 1024, 0, 6, 4010, 3967, 3987, 3977, 4004, 3990, 0, 1, 6501, -89.900, 0.000, 63.600, 0.000, 0.000, -2.500, 0.0, , , , , , 99, , , 0, 0, 0
36.7672635, -118.8834286, 2.800, 14:43:42.675, 12, 0.00, 0.32, 98, -0.300, -0.300, 63.600, 2, 100, 100, 23, 23941, -16930, 5455, 5567, 7, 14, 1523742222.675, 106, 0, 1024, 1024, 1024, 1024, 0, 6, 4010, 3967, 3987, 3977, 4004, 3990, 0, 1, 6600, -89.900, 0.000, 63.600, 0.000, 0.000, -2.500, 0.0, , , , , , 99, , , 0, 0, 0
36.7672636, -118.8834286, 3.300, 14:43:42.778, 13, 0.00, 0.32, 98, -0.100, -0.700, 63.700, 2, 100, 100, 23, 23941, -16930, 5455, 5567, 7, 14, 1523742222.778, 4, 0, 1024, 1024, 1024, 1024, 0, 6, 4010, 3967, 3987, 3977, 4004, 3990, 0, 1, 6703, -89.900, 0.000, 63.600, 0.000, 0.000, -2.900, 0.0, , , , , , 99, , , 0, 0, 0
36.7672636, -118.8834286, 3.300, 14:43:42.875, 13, 0.00, 0.32, 98, -0.100, -0.700, 63.700, 2, 100, 100, 23, 23941, -16930, 5455, 5567, 7, 14, 1523742222.875, 101, 0, 1024, 1024, 1024, 1024, 0, 6, 4010, 3967, 3987, 3977, 4004, 3990, 0, 1, 6801, -89.900, 0.000, 63.600, 0.000, 0.000, -2.900, 0.0, , , , , , 99, , , 0, 0, 0
36.7672636, -118.8834286, 3.600, 14:43:42.975, 13, 0.00, 0.32, 98, -0.300, -0.700, 63.800, 2, 100, 100, 23, 23941, -16930, 5455, 5567, 7, 14, 1523742222.976, 81, 0, 1024, 1024, 1024, 1024, 0, 6, 4010, 3967, 3987, 3977, 4004, 3990, 0, 1, 6901, -89.900, 0.000, 63.600, 0.000, 0.000, -2.900, 0.0, , , , , , 99, , , 0, 0, 0
36.7672637, -118.8834287, 3.900, 14:43:43.075, 13, 0.00, 0.32, 98, -0.300, -0.600, 63.900, 2, 100, 100, 23, 23809, -17588, 5455, 5567, 7, 14, 1523742223.076, 83, 0, 1024, 1024, 1024, 1024, 0, 6, 3958, 3911, 3928, 3960, 3973, 3933, 0, 1, 7001, -89.900, 0.000, 63.600, 0.000, 0.000, -3.100, 0.0, , , , , , 99, , , 0, 0, 0
36.7672638, -118.8834287, 4.300, 14:43:43.175, 13, 0.00, 0.32, 98, -0.100, -0.300, 64.000, 2, 100, 99, 23, 23809, -17588, 5455, 5567, 7, 14, 1523742223.175, 80, 0, 1024, 1024, 1024, 1024, 0, 6, 3958, 3911, 3928, 3960, 3973, 3933, 0, 1, 7101, -89.900, 0.000, 63.600, 0.000, 0.000, -3.200, 0.0, , , , , , 99, , , 0, 0, 0
36.7672641, -118.8834287, 4.900, 14:43:43.275, 12, 0.00, 0.32, 98, 0.000, -0.600, 64.000, 2, 100, 99, 23, 23809, -17588, 5455, 5567, 7, 14, 1523742223.275, 38, 0, 1024, 1024, 1024, 1024, 0, 6, 3958, 3911, 3928, 3960, 3973, 3933, 0, 1, 7200, -89.900, 0.000, 63.600, 0.000, 0.000, -3.200, 0.0, , , , , , 99, , , 0, 0, 0
36.7672643, -118.8834289, 5.300, 14:43:43.375, 12, 0.00, 0.33, 98, 0.300, -0.800, 63.900, 2, 100, 99, 23, 23809, -17588, 5455, 5567, 7, 14, 1523742223.376, 81, 0, 1024, 1024, 1024, 1024, 0, 6, 3958, 3911, 3928, 3960, 3973, 3933, 0, 1, 7301, -89.900, 0.000, 63.600, 0.000, 0.000, -3.300, 0.0, , , , , , 99, , , 0, 0, 0
36.7672643, -118.8834289, 5.600, 14:43:43.475, 10, 0.00, 0.33, 98, 0.800, -0.900, 63.800, 2, 100, 99, 23, 23809, -17588, 5455, 5567, 7, 14, 1523742223.476, 86, 0, 1024, 1024, 1024, 1024, 0, 6, 3958, 3911, 3928, 3960, 3973, 3933, 0, 1, 7401, -89.900, 0.000, 63.600, 0.000, 0.000, -3.200, 0.0, , , , , , 99, , , 0, 0, 0
36.7672643, -118.8834288, 6.000, 14:43:43.575, 10, 0.00, 0.32, 98, 0.800, -0.700, 63.800, 2, 100, 97, 23, 23809, -17588, 5455, 5567, 7, 14, 1523742223.576, 57, 0, 1024, 1024, 1024, 1024, 0, 6, 3958, 3911, 3928, 3960, 3973, 3933, 0, 1, 7501, -89.900, 0.000, 63.600, 0.000, 0.000, -3.200, 0.0, , , , , , 99, , , 0, 0, 0
36.7672643, -118.8834287, 6.300, 14:43:43.675, 12, 0.00, 0.31, 98, 0.300, -0.400, 63.800, 2, 100, 97, 23, 23809, -17588, 5455, 5567, 7, 14, 1523742223.676, 61, 0, 1024, 1024, 1024, 1024, 0, 6, 3958, 3911, 3928, 3960, 3973, 3933, 0, 1, 7601, -89.900, 0.000, 63.600, 0.000, 0.000, -3.200, 0.0, , , , , , 99, , , 0, 0, 0
36.7672643, -118.8834286, 6.600, 14:43:43.775, 12, 0.00, 0.30, 98, 0.000, -0.200, 63.800, 2, 100, 97, 23, 23809, -17588, 5455, 5567, 7, 14, 1523742223.776, 52, 0, 1024, 1024, 1024, 1024, 0, 6, 3958, 3911, 3928, 3960, 3973, 3933, 0, 1, 7701, -89.900, 0.000, 63.600, 0.000, 0.000, -3.100, 0.0, , , , , , 99, , , 0, 0, 0
36.7672643, -118.8834284, 7.000, 14:43:43.875, 11, 0.00, 0.29, 98, 0.000, 0.100, 63.800, 2, 100, 97, 23, 23809, -17588, 5455, 5567, 7, 14, 1523742223.875, 58, 0, 1024, 1024, 1024, 1024, 0, 6, 3958, 3911, 3928, 3960, 3973, 3933, 0, 1, 7800, -89.900, 0.000, 63.600, 0.000, 0.000, -3.100, 0.0, , , , , , 99, , , 0, 0, 0
36.7672643, -118.8834283, 7.300, 14:43:43.975, 11, 0.00, 0.27, 98, 0.000, 0.500, 63.800, 2, 100, 97, 23, 23238, -23958, 5455, 5567, 7, 14, 1523742223.975, 61, 0, 1024, 1024, 1024, 1024, 0, 6, 3878, 3853, 3852, 3854, 3886, 3884, 0, 1, 7901, -89.900, 0.000, 63.600, 0.000, 0.000, -3.100, 0.0, , , , , , 99, , , 0, 0, 0
36.7672643, -118.8834282, 7.600, 14:43:44.075, 13, 0.00, 0.26, 98, 0.000, 0.800, 63.800, 2, 100, 97, 23, 23238, -23958, 5455, 5567, 7, 14, 1523742224.076, 64, 0, 1024, 1024, 1024, 1024, 0, 6, 3878, 3853, 3852, 3854, 3886, 3884, 0, 1, 8001, -89.900, 0.000, 63.600, 0.000, 0.000, -3.100, 0.0, , , , , , 99, , , 0, 0, 0
36.7672643, -118.8834281, 8.000, 14:43:44.175, 13, 0.00, 0.26, 98, 0.000, 0.900, 63.900, 2, 100, 97, 23, 23238, -23958, 5455, 5567, 7, 14, 1523742224.175, 14, 0, 1024, 1024, 1024, 1024, 0, 6, 3878, 3853, 3852, 3854, 3886, 3884, 0, 1, 8101, -89.900, 0.000, 63.600, 0.000, 0.000, -3.100, 0.0, , , , , , 99, , , 0, 0, 0
36.7672643, -118.8834280, 8.300, 14:43:44.275, 13, 0.00, 0.25, 98, -0.300, 0.700, 63.900, 2, 100, 97, 23, 23238, -23958, 5455, 5567, 7, 14, 1523742224.276, 35, 0, 1024, 1024, 1024, 1024, 0, 6, 3878, 3853, 3852, 3854, 3886, 3884, 0, 1, 8201, -89.900, 0.000, 63.600, 0.000, 0.000, -3.100, 0.0, , , , , , 99, , , 0, 0, 0
36.7672644, -118.8834279, 8.600, 14:43:44.375, 13, 0.00, 0.24, 98, -0.400, 0.500, 63.900, 2, 100, 97, 23, 23238, -23958, 5455, 5567, 7, 14, 1523742224.375, 40, 0, 1024, 1024, 1024, 1024, 0, 6, 3878, 3853, 3852, 3854, 3886, 3884, 0, 1, 8301, -89.900, 0.000, 63.600, 0.000, 0.000, -3.100, 0.0, , , , , , 99, , , 0, 0, 0
36.7672644, -118.8834279, 8.600, 14:43:44.475, 13, 0.00, 0.24, 98, -0.400, 0.500, 63.900, 2, 100, 97, 23, 23238, -23958, 5455, 5567, 7, 14, 1523742224.476, 141, 0, 1024, 1024, 1024, 1024, 0, 6, 3878, 3853, 3852, 3854, 3886, 3884, 0, 1, 8401, -89.900, 0.000, 63.600, 0.000, 0.000, -3.100, 0.0, , , , , , 99, , , 0, 0, 0
36.7672646, -118.8834279, 9.300, 14:43:44.575, 13, 0.00, 0.24, 98, 0.000, 0.300, 64.000, 2, 100, 94, 23, 23238, -23958, 5455, 5567, 7, 14, 1523742224.575, 30, 0, 1024, 1024, 1024, 1024, 0, 6, 3878, 3853, 3852, 3854, 3886, 3884, 0, 1, 8501, -89.900, 0.000, 63.600, 0.000, 0.000, -3.000, 0.0, , , , , , 99, , , 0, 0, 0
36.7672647, -118.8834279, 9.600, 14:43:44.675, 13, 0.00, 0.24, 98, 0.100, 0.300, 63.900, 2, 100, 94, 23, 23238, -23958, 5455, 5567, 7, 14, 1523742224.676, 9, 0, 1024, 1024, 1024, 1024, 0, 6, 3878, 3853, 3852, 3854, 3886, 3884, 0, 1, 8601, -89.900, 0.000, 63.600, 0.000, 0.000, -3.000, 0.0, , , , , , 99, , , 0, 0, 0
36.7672648, -118.8834279, 9.900, 14:43:44.775, 13, 0.00, 0.24, 98, 0.400, 0.300, 63.800, 2, 100, 94, 23, 23238, -23958, 5455, 5567, 7, 14, 1523742224.775, 14, 0, 1024, 1024, 1024, 1024, 0, 6, 3878, 3853, 3852, 3854, 3886, 3884, 0, 1, 8701, -89.900, 0.000, 63.600, 0.000, 0.000, -3.000, 0.0, , , , , , 99, , , 0, 0, 0
36.7672648, -118.8834279, 9.900, 14:43:44.875, 13, 0.00, 0.24, 98, 0.400, 0.300, 63.800, 2, 100, 94, 23, 23238, -23958, 5455, 5567, 7, 14, 1523742224.876, 114, 0, 1024, 1024, 1024, 1024, 0, 6, 3878, 3853, 3852, 3854, 3886, 3884, 0, 1, 8801, -89.900, 0.000, 63.600, 0.000, 0.000, -3.000, 0.0, , , , , , 99, , , 0, 0, 0
36.7672648, -118.8834278, 10.600, 14:43:44.975, 12, 0.00, 0.24, 98, 0.900, 0.500, 63.700, 2, 100, 94, 23, 23519, -19358, 5399, 5567, 7, 14, 1523742224.976, 14, 0, 1024, 1024, 1024, 1024, 0, 6, 3878, 3853, 3852, 3854, 3886, 3884, 0, 1, 8901, -89.900, 0.000, 63.600, 0.000, 0.000, -3.100, 0.0, , , , , , 99, , , 0, 0, 0
36.7672648, -118.8834278, 10.600, 14:43:45.075, 12, 0.00, 0.24, 98, 0.900, 0.500, 63.700, 2, 100, 94, 23, 23519, -19358, 5399, 5567, 7, 14, 1523742225.075, 113, 0, 1024, 1024, 1024, 1024, 0, 6, 3925, 3912, 3896, 3912, 3933, 3940, 0, 1, 9001, -89.900, 0.000, 63.600, 0.000, 0.000, -3.100, 0.0, , , , , , 99, , , 0, 0, 0
36.7672649, -118.8834278, 10.900, 14:43:45.175, 14, 0.00, 0.23, 98, 0.900, 0.400, 63.700, 2, 100, 96, 23, 23519, -19358, 5399, 5567, 7, 14, 1523742225.176, 74, 0, 1024, 1024, 1024, 1024, 0, 6, 3925, 3912, 3896, 3912, 3933, 3940, 0, 1, 9101, -89.900, 0.000, 63.600, 0.000, 0.000, -3.100, 0.0, , , , , , 99, , , 0, 0, 0
36.7672649, -118.8834277, 11.200, 14:43:45.275, 14, 0.00, 0.23, 98, 0.600, 0.400, 63.700, 2, 100, 96, 23, 23519, -19358, 5399, 5567, 7, 14, 1523742225.275, 95, 0, 1024, 1024, 1024, 1024, 0, 6, 3925, 3912, 3896, 3912, 3933, 3940, 0, 1, 9201, -89.900, 0.000, 63.600, 0.000, 0.000, -3.000, 0.0, , , , , , 99, , , 0, 0, 0
36.7672649, -118.8834277, 11.500, 14:43:45.375, 15, 0.00, 0.22, 98, 0.100, 0.400, 63.800, 2, 100, 96, 23, 23519, -19358, 5399, 5567, 7, 14, 1523742225.376, 81, 0, 1024, 1024, 1024, 1024, 0, 6, 3925, 3912, 3896, 3912, 3933, 3940, 0, 1, 9301, -89.900, 0.000, 63.600, 0.000, 0.000, -3.000, 0.0, , , , , , 99, , , 0, 0, 0
36.7672648, -118.8834277, 11.800, 14:43:45.475, 15, 0.00, 0.22, 98, -0.300, 0.400, 64.000, 2, 100, 96, 23, 23519, -19358, 5399, 5567, 7, 14, 1523742225.476, 82, 0, 1024, 1024, 1024, 1024, 0, 6, 3925, 3912, 3896, 3912, 3933, 3940, 0, 1, 9401, -89.900, 0.000, 63.600, 0.000, 0.000, -2.900, 0.0, , , , , , 99, , , 0, 0, 0
36.7672647, -118.8834276, 12.400, 14:43:45.575, 15, 0.00, 0.21, 97, -0.800, 0.000, 64.100, 2, 100, 96, 23, 23519, -19358, 5399, 5567, 7, 14, 1523742225.575, 92, 0, 1024, 1024, 1024, 1024, 0, 6, 3925, 3912, 3896, 3912, 3933, 3940, 0, 1, 9500, -89.900, 0.000, 63.600, 0.000, 0.000, -2.900, 0.0, , , , , , 99, , , 0, 0, 0
36.7672647, -118.8834276, 12.400, 14:43:45.675, 15, 0.00, 0.21, 97, -0.800, 0.000, 64.100, 2, 100, 96, 23, 23519, -19358, 5399, 5567, 7, 14, 1523742225.675, 192, 0, 1024, 1024, 1024, 1024, 0, 6, 3925, 3912, 3896, 3912, 3933, 3940, 0, 1, 9601, -89.900, 0.000, 63.600, 0.000, 0.000, -2.900, 0.0, , , , , , 99, , , 0, 0, 0
36.7672647, -118.8834276, 13.000, 14:43:45.775, 14, 0.00, 0.21, 97, -0.700, -0.100, 64.100, 2, 100, 96, 23, 23519, -19358, 5399, 5567, 7, 14, 1523742225.776, 90, 0, 1024, 1024, 1024, 1024, 0, 6, 3925, 3912, 3896, 3912, 3933, 3940, 0, 1, 9701, -89.900, 0.000, 63.600, 0.000, 0.000, -2.900, 0.0, , , , , , 99, , , 0, 0, 0
36.7672647, -118.8834276, 13.300, 14:43:45.875, 13, 0.00, 0.22, 97, -0.300, -0.100, 64.000, 2, 100, 96, 23, 23519, -19358, 5399, 5567, 7, 14, 1523742225.875, 80, 0, 1024, 1024, 1024, 1024, 0, 6, 3925, 3912, 3896, 3912, 3933, 3940, 0, 1, 9801, -89.900, 0.000, 63.600, 0.000, 0.000, -2.900, 0.0, , , , , , 99, , , 0, 0, 0
36.7672646, -118.8834277, 13.600, 14:43:45.975, 13, 0.00, 0.22, 97, -0.100, -0.100, 63.900, 2, 100, 96, 23, 23553, -18510, 5399, 5567, 7, 14, 1523742225.976, 56, 0, 1024, 1024, 1024, 1024, 0, 6, 3925, 3903, 3903, 3922, 3938, 3941, 0, 1, 9901, -89.900, 0.000, 63.600, 0.000, 0.000, -2.900, 0.0, , , , , , 99, , , 0, 0, 0
36.7672645, -118.8834277, 14.000, 14:43:46.075, 13, 0.00, 0.22, 97, 0.000, -0.100, 63.900, 2, 100, 99, 23, 23553, -18510, 5399, 5567, 7, 14, 1523742226.076, 56, 0, 1024, 1024, 1024, 1024, 0, 6, 3925, 3903, 3903, 3922, 3938, 3941, 0, 1, 10001, -89.900, 0.000, 63.600, 0.000, 0.000, -2.900, 0.0, , , , , , 99, , , 0, 0, 0
36.7672645, -118.8834277, 14.300, 14:43:46.175, 13, 0.00, 0.22, 97, -0.100, -0.100, 63.800, 2, 100, 99, 23, 23553, -18510, 5399, 5567, 7, 14, 1523742226.175, 40, 0, 1024, 1024, 1024, 1024, 0, 6, 3925, 3903, 3903, 3922, 3938, 3941, 0, 1, 10101, -89.900, 0.000, 63.600, 0.000, 0.000, -2.900, 0.0, , , , , , 99, , , 0, 0, 0
36.7672645, -118.8834277, 14.600, 14:43:46.275, 13, 0.00, 0.22, 97, -0.300, -0.100, 63.800, 2, 100, 99, 23, 23553, -18510, 5399, 5567, 7, 14, 1523742226.276, 51, 0, 1024, 1024, 1024, 1024, 0, 6, 3925, 3903, 3903, 3922, 3938, 3941, 0, 1, 10201, -89.900, 0.000, 63.600, 0.000, 0.000, -2.900, 0.0, , , , , , 99, , , 0, 0, 0
36.7672645, -118.8834277, 14.600, 14:43:46.375, 13, 0.00, 0.22, 97, -0.300, -0.100, 63.800, 2, 100, 99, 23, 23553, -18510, 5399, 5567, 7, 14, 1523742226.376, 151, 0, 1024, 1024, 1024, 1024, 0, 6, 3925, 3903, 3903, 3922, 3938, 3941, 0, 1, 10301, -89.900, 0.000, 63.600, 0.000, 0.000, -2.900, 0.0, , , , , , 99, , , 0, 0, 0
36.7672644, -118.8834277, 15.200, 14:43:46.475, 14, 0.00, 0.22, 97, -0.400, -0.600, 63.800, 2, 100, 99, 23, 23553, -18510, 5399, 5567, 7, 14, 1523742226.475, 30, 0, 1024, 1024, 1024, 1024, 0, 6, 3925, 3903, 3903, 3922, 3938, 3941, 0, 1, 10401, -90.000, 0.000, 63.600, 0.000, 0.000, -2.900, 0.0, , , , , , 99, , , 0, 0, 0
36.7672644, -118.8834278, 15.500, 14:43:46.575, 14, 0.00, 0.23, 97, -0.600, -0.700, 63.900, 2, 100, 97, 23, 23553, -18510, 5399, 5567, 7, 14, 1523742226.576, 41, 0, 1024, 1024, 1024, 1024, 0, 6, 3925, 3903, 3903, 3922, 3938, 3941, 0, 1, 10501, -90.000, 0.000, 63.600, 0.000, 0.000, -2.800, 0.0, , , , , , 99, , , 0, 0, 0
36.7672643, -118.8834278, 15.800, 14:43:46.675, 14, 0.00, 0.23, 97, -0.700, -0.800, 64.000, 2, 100, 97, 23, 23553, -18510, 5399, 5567, 7, 14, 1523742226.676, 43, 0, 1024, 1024, 1024, 1024, 0, 6, 3925, 3903, 3903, 3922, 3938, 3941, 0, 1, 10601, -89.900, 0.000, 63.600, 0.000, 0.000, -2.900, 0.0, , , , , , 99, , , 0, 0, 0
36.7672643, -118.8834278, 16.100, 14:43:46.775, 14, 0.00, 0.23, 97, -0.900, -0.700, 64.100, 2, 100, 97, 23, 23553, -18510, 5399, 5567, 7, 14, 1523742226.776, 35, 0, 1024, 1024, 1024, 1024, 0, 6, 3925, 3903, 3903, 3922, 3938, 3941, 0, 1, 10701, -89.900, 0.000, 63.600, 0.000, 0.000, -2.900, 0.0, , , , , , 99, , , 0, 0, 0
36.7672643, -118.8834278, 16.400, 14:43:46.875, 14, 0.00, 0.23, 97, -0.900, -0.400, 64.200, 2, 100, 97, 23, 23553, -18510, 5399, 5567, 7, 14, 1523742226.875, 24, 0, 1024, 1024, 1024, 1024, 0, 6, 3925, 3903, 3903, 3922, 3938, 3941, 0, 1, 10801, -89.900, 0.000, 63.600, 0.000, 0.000, -2.900, 0.0, , , , , , 99, , , 0, 0, 0
36.7672643, -118.8834278, 16.400, 14:43:46.975, 14, 0.00, 0.23, 97, -0.900, -0.400, 64.200, 2, 100, 97, 23, 23553, -18510, 5399, 5567, 7, 14, 1523742226.975, 124, 0, 1024, 1024, 1024, 1024, 0, 6, 3925, 3903, 3903, 3922, 3938, 3941, 0, 1, 10901, -89.900, 0.000, 63.600, 0.000, 0.000, -2.900, 0.0, , , , , , 99, , , 0, 0, 0
36.7672643, -118.8834277, 17.000, 14:43:47.075, 14, 0.00, 0.22, 97, -0.800, 0.400, 64.100, 2, 100, 97, 23, 23521, -18508, 5399, 5567, 7, 14, 1523742227.076, 16, 0, 1024, 1024, 1024, 1024, 0, 6, 3925, 3903, 3903, 3922, 3938, 3941, 0, 1, 11001, -89.900, 0.000, 63.600, 0.000, 0.000, -2.800, 0.0, , , , , , 99, , , 0, 0, 0
36.7672643, -118.8834277, 17.000, 14:43:47.175, 14, 0.00, 0.22, 97, -0.800, 0.400, 64.100, 2, 100, 97, 23, 23521, -18508, 5399, 5567, 7, 14, 1523742227.176, 117, 0, 1024, 1024, 1024, 1024, 0, 6, 3925, 3903, 3903, 3922, 3938, 3941, 0, 1, 11101, -89.900, 0.000, 63.600, 0.000, 0.000, -2.800, 0.0, , , , , , 99, , , 0, 0, 0
36.7672642, -118.8834277, 17.600, 14:43:47.284, 14, 0.00, 0.22, 97, -0.800, 0.500, 64.100, 2, 100, 97, 23, 23521, -18508, 5399, 5567, 7, 14, 1523742227.284, 13, 0, 1024, 1024, 1024, 1024, 0, 6, 3925, 3903, 3903, 3922, 3938, 3941, 0, 1, 11210, -89.900, 0.000, 63.600, 0.000, 0.000, -2.800, 0.0, , , , , , 99, , , 0, 0, 0
36.7672641, -118.8834277, 17.900, 14:43:47.375, 14, 0.00, 0.22, 97, -1.000, 0.300, 64.000, 2, 100, 97, 23, 23521, -18508, 5399, 5567, 7, 14, 1523742227.376, 5, 0, 1024, 1024, 1024, 1024, 0, 6, 3925, 3903, 3903, 3922, 3938, 3941, 0, 1, 11301, -89.900, 0.000, 63.600, 0.000, 0.000, -2.800, 0.0, , , , , , 99, , , 0, 0, 0
36.7672641, -118.8834277, 17.900, 14:43:47.474, 14, 0.00, 0.22, 97, -1.000, 0.300, 64.000, 2, 100, 97, 23, 23521, -18508, 5399, 5567, 7, 14, 1523742227.475, 104, 0, 1024, 1024, 1024, 1024, 0, 6, 3925, 3903, 3903, 3922, 3938, 3941, 0, 1, 11400, -89.900, 0.000, 63.600, 0.000, 0.000, -2.800, 0.0, , , , , , 99, , , 0, 0, 0
36.7672641, -118.8834277, 18.200, 14:43:47.575, 14, 0.00, 0.23, 97, -1.300, 0.000, 63.800, 2, 100, 97, 23, 23521, -18508, 5399, 5567, 7, 14, 1523742227.576, 78, 0, 1024, 1024, 1024, 1024, 0, 6, 3925, 3905, 3897, 3916, 3937, 3935, 0, 1, 11501, -89.900, 0.000, 63.600, 0.000, 0.000, -2.800, 0.0, , , , , , 99, , , 0, 0, 0
36.7672641, -118.8834278, 18.400, 14:43:47.675, 14, 0.00, 0.23, 97, -1.300, -0.100, 63.700, 2, 100, 97, 23, 23521, -18508, 5399, 5567, 7, 14, 1523742227.676, 79, 0, 1024, 1024, 1024, 1024, 0, 6, 3925, 3905, 3897, 3916, 3937, 3935, 0, 1, 11601, -89.900, 0.000, 63.600, 0.000, 0.000, -2.800, 0.0, , , , , , 99, , , 0, 0, 0
36.7672641, -118.8834279, 19.000, 14:43:47.775, 14, 0.00, 0.24, 97, -1.200, -0.500, 63.700, 2, 100, 97, 23, 23521, -18508, 5399, 5567, 7, 14, 1523742227.776, 87, 0, 1024, 1024, 1024, 1024, 0, 6, 3925, 3905, 3897, 3916, 3937, 3935, 0, 1, 11701, -90.000, 0.000, 63.600, 0.000, 0.000, -2.800, 0.0, , , , , , 99, , , 0, 0, 0
36.7672640, -118.8834279, 19.300, 14:43:47.875, 14, 0.00, 0.24, 97, -1.100, -0.400, 63.800, 2, 100, 97, 23, 23521, -18508, 5399, 5567, 7, 14, 1523742227.876, 77, 0, 1024, 1024, 1024, 1024, 0, 6, 3925, 3905, 3897, 3916, 3937, 3935, 0, 1, 11801, -90.000, 0.000, 63.600, 0.000, 0.000, -2.800, 0.0, , , , , , 99, , , 0, 0, 0
36.7672639, -118.8834279, 19.600, 14:43:47.975, 14, 0.00, 0.25, 97, -1.100, -0.200, 63.900, 2, 100, 97, 23, 23521, -18508, 5399, 5567, 7, 14, 1523742227.976, 64, 0, 1024, 1024, 1024, 1024, 0, 6, 3925, 3905, 3897, 3916, 3937, 3935, 0, 1, 11901, -89.900, 0.000, 63.600, 0.000, 0.000, -2.900, 0.0, , , , , , 99, , , 0, 0, 0
36.7672639, -118.8834279, 19.900, 14:43:48.075, 14, 0.00, 0.25, 97, -1.100, -0.200, 64.100, 2, 100, 97, 23, 23521, -18508, 5399, 5567, 7, 14, 1523742228.076, 63, 0, 1024, 1024, 1024, 1024, 0, 6, 3925, 3905, 3897, 3916, 3937, 3935, 0, 1, 12001, -90.000, 0.000, 63.600, 0.000, 0.000, -2.900, 0.0, , , , , , 99, , , 0, 0, 0
36.7672639, -118.8834279, 20.200, 14:43:48.175, 14, 0.00, 0.25, 97, -1.000, -0.600, 64.200, 2, 100, 97, 23, 23521, -18508, 5399, 5567, 7, 14, 1523742228.176, 75, 0, 1024, 1024, 1024, 1024, 0, 6, 3925, 3905, 3897, 3916, 3937, 3935, 0, 1, 12101, -89.900, 0.000, 63.600, 0.000, 0.000, -2.900, 0.0, , , , , , 99, , , 0, 0, 0
36.7672639, -118.8834280, 20.500, 14:43:48.275, 14, 0.00, 0.26, 97, -1.000, -0.700, 64.400, 2, 100, 97, 23, 23521, -18508, 5399, 5567, 7, 14, 1523742228.276, 75, 0, 1024, 1024, 1024, 1024, 0, 6, 3925, 3905, 3897, 3916, 3937, 3935, 0, 1, 12201, -89.900, 0.000, 63.600, 0.000, 0.000, -2.900, 0.0, , , , , , 99, , , 0, 0, 0
36.7672639, -118.8834280, 20.800, 14:43:48.375, 14, 0.00, 0.26, 97, -0.600, -0.500, 64.500, 2, 100, 97, 23, 23521, -18508, 5399, 5567, 7, 14, 1523742228.376, 55, 0, 1024, 1024, 1024, 1024, 0, 6, 3925, 3905, 3897, 3916, 3937, 3935, 0, 1, 12301, -89.900, 0.000, 63.600, 0.000, 0.000, -2.900, 0.0, , , , , , 99, , , 0, 0, 0
36.7672639, -118.8834281, 21.100, 14:43:48.475, 14, 0.00, 0.26, 97, -0.500, -0.100, 64.500, 2, 100, 97, 23, 23473, -19006, 5399, 5567, 7, 14, 1523742228.476, 56, 0, 1024, 1024, 1024, 1024, 0, 6, 3922, 3900, 3891, 3905, 3927, 3910, 0, 1, 12401, -89.900, 0.000, 63.600, 0.000, 0.000, -2.800, 0.0, , , , , , 99, , , 0, 0, 0
36.7672639, -118.8834281, 21.400, 14:43:48.575, 14, 0.00, 0.27, 97, -0.700, 0.000, 64.400, 2, 100, 97, 23, 23473, -19006, 5399, 5567, 7, 14, 1523742228.576, 23, 0, 1024, 1024, 1024, 1024, 0, 6, 3922, 3900, 3891, 3905, 3927, 3910, 0, 1, 12501, -89.900, 0.000, 63.600, 0.000, 0.000, -2.900, 0.0, , , , , , 99, , , 0, 0, 0
36.7672639, -118.8834282, 21.700, 14:43:48.675, 14, 0.00, 0.27, 97, -0.800, 0.000, 64.300, 2, 100, 97, 23, 23473, -19006, 5399, 5567, 7, 14, 1523742228.676, 31, 0, 1024, 1024, 1024, 1024, 0, 6, 3922, 3900, 3891, 3905, 3927, 3910, 0, 1, 12601, -89.900, 0.000, 63.600, 0.000, 0.000, -2.900, 0.0, , , , , , 99, , , 0, 0, 0
36.7672639, -118.8834283, 22.000, 14:43:48.775, 14, 0.00, 0.28, 97, -0.800, -0.300, 64.200, 2, 100, 97, 23, 23473, -19006, 5399, 5567, 7, 14, 1523742228.776, 34, 0, 1024, 1024, 1024, 1024, 0, 6, 3922, 3900, 3891, 3905, 3927, 3910, 0, 1, 12701, -89.900, 0.000, 63.600, 0.000, 0.000, -2.900, 0.0, , , , , , 99, , , 0, 0, 0
36.7672638, -118.8834283, 22.300, 14:43:48.875, 14, 0.00, 0.29, 97, -0.800, -0.500, 64.000, 2, 100, 97, 23, 23473, -19006, 5399, 5567, 7, 14, 1523742228.876, 49, 0, 1024, 1024, 1024, 1024, 0, 6, 3922, 3900, 3891, 3905, 3927, 3910, 0, 1, 12801, -90.000, 0.000, 63.600, 0.000, 0.000, -2.800, 0.0, , , , , , 99, , , 0, 0, 0
36.7672638, -118.8834283, 22.600, 14:43:48.975, 14, 0.00, 0.29, 97, -1.300, -0.500, 64.000, 2, 100, 97, 23, 23473, -19006, 5399, 5567, 7, 14, 1523742228.976, 40, 0, 1024, 1024, 1024, 1024, 0, 6, 3922, 3900, 3891, 3905, 3927, 3910, 0, 1, 12901, -89.900, 0.000, 63.600, 0.000, 0.000, -2.900, 0.0, , , , , , 99, , , 0, 0, 0
36.7672637, -118.8834283, 22.900, 14:43:49.075, 15, 0.00, 0.29, 97, -1.800, -0.400, 64.100, 2, 100, 100, 23, 23473, -19006, 5399, 5567, 7, 14, 1523742229.076, 27, 0, 1024, 1024, 1024, 1024, 0, 6, 3922, 3900, 3891, 3905, 3927, 3910, 0, 1, 13002, -89.900, 0.000, 63.600, 0.000, 0.000, -2.900, 0.0, , , , , , 99, , , 0, 0, 0
36.7672636, -118.8834283, 23.200, 14:43:49.175, 15, 0.00, 0.29, 97, -1.800, -0.300, 64.100, 2, 100, 100, 23, 23473, -19006, 5399, 5567, 7, 14, 1523742229.176, 31, 0, 1024, 1024, 1024, 1024, 0, 6, 3922, 3900, 3891, 3905, 3927, 3910, 0, 1, 13101, -89.900, 0.000, 63.600, 0.000, 0.000, -2.800, 0.0, , , , , , 99, , , 0, 0, 0
36.7672636, -118.8834284, 23.500, 14:43:49.275, 15, 0.00, 0.30, 97, -1.800, -0.400, 64.100, 2, 100, 100, 23, 23473, -19006, 5399, 5567, 7, 14, 1523742229.276, 33, 0, 1024, 1024, 1024, 1024, 0, 6, 3922, 3900, 3891, 3905, 3927, 3910, 0, 1, 13201, -89.900, 0.000, 63.600, 0.000, 0.000, -2.800, 0.0, , , , , , 99, , , 0, 0, 0
36.7672635, -118.8834284, 23.800, 14:43:49.375, 15, 0.00, 0.30, 97, -1.800, -0.600, 64.000, 2, 100, 100, 23, 23473, -19006, 5399, 5567, 7, 14, 1523742229.376, 36, 0, 1024, 1024, 1024, 1024, 0, 6, 3922, 3900, 3891, 3905, 3927, 3910, 0, 1, 13301, -89.900, 0.000, 63.600, 0.000, 0.000, -2.900, 0.0, , , , , , 99, , , 0, 0, 0
36.7672635, -118.8834284, 24.100, 14:43:49.475, 15, 0.00, 0.31, 97, -1.700, -0.700, 63.900, 2, 100, 100, 23, 23381, -19529, 5399, 5567, 7, 14, 1523742229.476, 13, 0, 1024, 1024, 1024, 1024, 0, 6, 3915, 3887, 3872, 3888, 3926, 3903, 0, 1, 13401, -89.900, 0.000, 63.600, 0.000, 0.000, -2.900, 0.0, , , , , , 99, , , 0, 0, 0
36.7672635, -118.8834285, 24.400, 14:43:49.583, 15, 0.00, 0.31, 97, -2.000, -0.700, 63.800, 2, 100, 99, 23, 23381, -19529, 5399, 5567, 7, 14, 1523742229.584, 12, 0, 1024, 1024, 1024, 1024, 0, 6, 3915, 3887, 3872, 3888, 3926, 3903, 0, 1, 13509, -89.900, 0.000, 63.600, 0.000, 0.000, -2.900, 0.0, , , , , , 99, , , 0, 0, 0
36.7672635, -118.8834285, 24.700, 14:43:49.675, 14, 0.00, 0.31, 97, -2.100, -0.400, 63.700, 2, 100, 99, 23, 23381, -19529, 5399, 5567, 7, 14, 1523742229.676, 15, 0, 1024, 1024, 1024, 1024, 0, 6, 3915, 3887, 3872, 3888, 3926, 3903, 0, 1, 13601, -89.900, 0.000, 63.600, 0.000, 0.000, -2.900, 0.0, , , , , , 99, , , 0, 0, 0
36.7672635, -118.8834285, 25.000, 14:43:49.774, 14, 0.00, 0.31, 97, -1.600, -0.100, 63.700, 2, 100, 99, 23, 23381, -19529, 5399, 5567, 7, 14, 1523742229.775, 18, 0, 1024, 1024, 1024, 1024, 0, 6, 3915, 3887, 3872, 3888, 3926, 3903, 0, 1, 13701, -89.900, 0.000, 63.600, 0.000, 0.000, -2.900, 0.0, , , , , , 99, , , 0, 0, 0
36.7672636, -118.8834285, 25.300, 14:43:49.875, 15, 0.00, 0.31, 97, -1.200, 0.100, 63.700, 2, 100, 99, 23, 23381, -19529, 5399, 5567, 7, 14, 1523742229.876, 22, 0, 1024, 1024, 1024, 1024, 0, 6, 3915, 3887, 3872, 3888, 3926, 3903, 0, 1, 13801, -89.900, 0.000, 63.600, 0.000, 0.000, -2.900, 0.0, , , , , , 99, , , 0, 0, 0
36.7672636, -118.8834285, 25.500, 14:43:49.975, 15, 0.00, 0.31, 97, -0.900, 0.300, 63.700, 2, 100, 99, 23, 23381, -19529, 5399, 5567, 7, 14, 1523742229.976, 14, 0, 1024, 1024, 1024, 1024, 0, 6, 3915, 3887, 3872, 3888, 3926, 3903, 0, 1, 13901, -89.900, 0.000, 63.600, 0.000, 0.000, -2.800, 0.0, , , , , , 99, , , 0, 0, 0
36.7672636, -118.8834285, 25.500, 14:43:50.075, 15, 0.00, 0.31, 97, -0.900, 0.300, 63.700, 2, 100, 99, 23, 23381, -19529, 5399, 5567, 7, 14, 1523742230.076, 114, 0, 1024, 1024, 1024, 1024, 0, 6, 3915, 3887, 3872, 3888, 3926, 3903, 0, 1, 14001, -89.900, 0.000, 63.600, 0.000, 0.000, -2.800, 0.0, , , , , , 99, , , 0, 0, 0
36.7672636, -118.8834286, 25.800, 14:43:50.175, 14, 0.00, 0.31, 97, -0.700, 0.400, 63.800, 2, 100, 99, 23, 23381, -19529, 5399, 5567, 7, 14, 1523742230.176, 87, 0, 1024, 1024, 1024, 1024, 0, 6, 3915, 3887, 3872, 3888, 3926, 3903, 0, 1, 14101, -89.900, 0.000, 63.600, 0.000, 0.000, -2.800, 0.0, , , , , , 99, , , 0, 0, 0
36.7672636, -118.8834286, 26.100, 14:43:50.275, 14, 0.00, 0.32, 97, -0.800, 0.300, 64.000, 2, 100, 99, 23, 23381, -19529, 5399, 5567, 7, 14, 1523742230.276, 81, 0, 1024, 1024, 1024, 1024, 0, 6, 3915, 3887, 3872, 3888, 3926, 3903, 0, 1, 14201, -89.900, 0.000, 63.600, 0.000, 0.000, -2.800, 0.0, , , , , , 99, , , 0, 0, 0
36.7672636, -118.8834286, 26.400, 14:43:50.375, 14, 0.00, 0.32, 97, -0.900, 0.100, 64.000, 2, 100, 99, 23, 23381, -19529, 5399, 5567, 7, 14, 1523742230.376, 79, 0, 1024, 1024, 1024, 1024, 0, 6, 3915, 3887, 3872, 3888, 3926, 3903, 0, 1, 14301, -89.900, 0.000, 63.600, 0.000, 0.000, -2.900, 0.0, , , , , , 99, , , 0, 0, 0
36.7672636, -118.8834287, 26.700, 14:43:50.475, 14, 0.00, 0.33, 97, -1.200, 0.000, 64.000, 2, 100, 99, 23, 23381, -19529, 5399, 5567, 7, 14, 1523742230.476, 91, 0, 1024, 1024, 1024, 1024, 0, 6, 3915, 3887, 3872, 3888, 3926, 3903, 0, 1, 14401, -89.900, 0.000, 63.600, 0.000, 0.000, -2.900, 0.0, , , , , , 99, , , 0, 0, 0
36.7672635, -118.8834288, 27.300, 14:43:50.575, 14, 0.00, 0.34, 97, -1.300, -0.600, 64.100, 2, 100, 99, 23, 23361, -19367, 5399, 5567, 7, 14, 1523742230.576, 67, 0, 1024, 1024, 1024, 1024, 0, 6, 3903, 3875, 3872, 3893, 3914, 3897, 0, 1, 14501, -90.000, 0.000, 63.600, 0.000, 0.000, -3.000, 0.0, , , , , , 99, , , 0, 0, 0
36.7672635, -118.8834289, 27.600, 14:43:50.675, 14, 0.00, 0.35, 97, -0.600, -1.000, 64.200, 2, 100, 99, 23, 23361, -19367, 5399, 5567, 7, 14, 1523742230.676, 89, 0, 1024, 1024, 1024, 1024, 0, 6, 3903, 3875, 3872, 3893, 3914, 3897, 0, 1, 14601, -90.000, 0.000, 63.600, 0.000, 0.000, -3.000, 0.0, , , , , , 99, , , 0, 0, 0
36.7672635, -118.8834290, 27.900, 14:43:50.775, 14, 0.00, 0.35, 97, -0.700, -1.200, 64.100, 2, 100, 99, 23, 23361, -19367, 5399, 5567, 7, 14, 1523742230.776, 81, 0, 1024, 1024, 1024, 1024, 0, 6, 3903, 3875, 3872, 3893, 3914, 3897, 0, 1, 14701, -90.000, 0.000, 63.600, 0.000, 0.000, -2.900, 0.0, , , , , , 99, , , 0, 0, 0
36.7672635, -118.8834290, 28.200, 14:43:50.875, 15, 0.00, 0.35, 97, -1.100, -0.900, 64.000, 2, 100, 99, 23, 23361, -19367, 5399, 5567, 7, 14, 1523742230.876, 79, 0, 1024, 1024, 1024, 1024, 0, 6, 3903, 3875, 3872, 3893, 3914, 3897, 0, 1, 14801, -90.000, 0.000, 63.600, 0.000, 0.000, -3.000, 0.0, , , , , , 99, , , 0, 0, 0
36.7672635, -118.8834290, 28.500, 14:43:50.976, 15, 0.00, 0.36, 97, -1.300, -0.800, 63.900, 2, 100, 99, 23, 23361, -19367, 5399, 5567, 7, 14, 1523742230.977, 69, 0, 1024, 1024, 1024, 1024, 0, 6, 3903, 3875, 3872, 3893, 3914, 3897, 0, 1, 14902, -90.000, 0.000, 63.600, 0.000, 0.000, -2.900, 0.0, , , , , , 99, , , 0, 0, 0
36.7672635, -118.8834290, 28.800, 14:43:51.075, 15, 0.00, 0.36, 97, -1.300, -0.500, 63.800, 2, 100, 100, 23, 23361, -19367, 5399, 5567, 7, 14, 1523742231.076, 41, 0, 1024, 1024, 1024, 1024, 0, 6, 3903, 3875, 3872, 3893, 3914, 3897, 0, 1, 15001, -89.900, 0.000, 63.600, 0.000, 0.000, -2.900, 0.0, , , , , , 99, , , 0, 0, 0
36.7672634, -118.8834290, 29.100, 14:43:51.175, 15, 0.00, 0.36, 97, -1.500, -0.200, 63.600, 2, 100, 100, 23, 23361, -19367, 5399, 5567, 7, 14, 1523742231.176, 42, 0, 1024, 1024, 1024, 1024, 0, 6, 3903, 3875, 3872, 3893, 3914, 3897, 0, 1, 15101, -89.900, 0.000, 63.600, 0.000, 0.000, -3.000, 0.0, , , , , , 99, , , 0, 0, 0
36.7672634, -118.8834290, 29.400, 14:43:51.274, 15, 0.00, 0.36, 97, -1.700, -0.200, 63.500, 2, 100, 100, 23, 23361, -19367, 5399, 5567, 7, 14, 1523742231.275, 42, 0, 1024, 1024, 1024, 1024, 0, 6, 3903, 3875, 3872, 3893, 3914, 3897, 0, 1, 15200, -89.900, 0.000, 63.600, 0.000, 0.000, -3.000, 0.0, , , , , , 99, , , 0, 0, 0
36.7672634, -118.8834291, 29.700, 14:43:51.375, 15, 0.00, 0.36, 97, -1.400, -0.400, 63.500, 2, 100, 100, 23, 23361, -19367, 5399, 5567, 7, 14, 1523742231.376, 59, 0, 1024, 1024, 1024, 1024, 0, 6, 3903, 3875, 3872, 3893, 3914, 3897, 0, 1, 15301, -90.000, 0.000, 63.600, 0.000, 0.000, -2.900, 0.0, , , , , , 99, , , 0, 0, 0
36.7672634, -118.8834291, 30.000, 14:43:51.475, 16, 0.00, 0.37, 97, -1.000, -0.600, 63.600, 2, 100, 100, 24, 23275, -20018, 5399, 5567, 7, 14, 1523742231.476, 22, 0, 1024, 1024, 1024, 1024, 0, 6, 3888, 3862, 3857, 3870, 3903, 3878, 0, 1, 15401, -90.000, 0.000, 63.600, 0.000, 0.000, -3.000, 0.0, , , , , , 99, , , 0, 0, 0
36.7672634, -118.8834291, 30.300, 14:43:51.575, 16, 0.00, 0.37, 97, -0.800, -0.800, 63.700, 2, 100, 100, 24, 23275, -20018, 5399, 5567, 7, 14, 1523742231.576, 20, 0, 1024, 1024, 1024, 1024, 0, 6, 3888, 3862, 3857, 3870, 3903, 3878, 0, 1, 15501, -90.000, 0.000, 63.600, 0.000, 0.000, -3.000, 0.0, , , , , , 99, , , 0, 0, 0
36.7672634, -118.8834292, 30.600, 14:43:51.675, 16, 0.00, 0.37, 97, -1.100, -0.900, 63.800, 2, 100, 100, 24, 23275, -20018, 5399, 5567, 7, 14, 1523742231.676, 35, 0, 1024, 1024, 1024, 1024, 0, 6, 3888, 3862, 3857, 3870, 3903, 3878, 0, 1, 15601, -90.000, 0.000, 63.600, 0.000, 0.000, -3.000, 0.0, , , , , , 99, , , 0, 0, 0
36.7672634, -118.8834292, 30.600, 14:43:51.775, 16, 0.00, 0.37, 97, -1.100, -0.900, 63.800, 2, 100, 100, 24, 23275, -20018, 5399, 5567, 7, 14, 1523742231.776, 135, 0, 1024, 1024, 1024, 1024, 0, 6, 3888, 3862, 3857, 3870, 3903, 3878, 0, 1, 15701, -90.000, 0.000, 63.600, 0.000, 0.000, -3.000, 0.0, , , , , , 99, , , 0, 0, 0
36.7672635, -118.8834293, 31.200, 14:43:51.875, 16, 0.00, 0.38, 97, -1.000, -1.000, 64.100, 2, 100, 100, 24, 23275, -20018, 5399, 5567, 7, 14, 1523742231.876, 32, 0, 1024, 1024, 1024, 1024, 0, 6, 3888, 3862, 3857, 3870, 3903, 3878, 0, 1, 15801, -89.900, 0.000, 63.600, 0.000, 0.000, -3.000, 0.0, , , , , , 99, , , 0, 0, 0
36.7672635, -118.8834293, 31.500, 14:43:51.975, 16, 0.00, 0.38, 97, -1.100, -0.900, 64.100, 2, 100, 100, 24, 23275, -20018, 5399, 5567, 7, 14, 1523742231.976, 17, 0, 1024, 1024, 1024, 1024, 0, 6, 3888, 3862, 3857, 3870, 3903, 3878, 0, 1, 15901, -89.900, 0.000, 63.600, 0.000, 0.000, -3.000, 0.0, , , , , , 99, , , 0, 0, 0
36.7672635, -118.8834293, 31.900, 14:43:52.075, 16, 0.00, 0.38, 97, -1.400, -0.900, 64.200, 2, 100, 99, 24, 23275, -20018, 5399, 5567, 7, 14, 1523742232.076, 15, 0, 1024, 1024, 1024, 1024, 0, 6, 3888, 3862, 3857, 3870, 3903, 3878, 0, 1, 16001, -89.900, 0.000, 63.600, 0.000, 0.000, -3.000, 0.0, , , , , , 99, , , 0, 0, 0
36.7672635, -118.8834293, 32.200, 14:43:52.175, 16, 0.00, 0.38, 97, -1.300, -0.900, 64.400, 2, 100, 99, 24, 23275, -20018, 5399, 5567, 7, 14, 1523742232.176, 9, 0, 1024, 1024, 1024, 1024, 0, 6, 3888, 3862, 3857, 3870, 3903, 3878, 0, 1, 16101, -89.900, 0.000, 63.600, 0.000, 0.000, -2.900, 0.0, , , , , , 99, , , 0, 0, 0
36.7672635, -118.8834293, 32.200, 14:43:52.275, 16, 0.00, 0.38, 97, -1.300, -0.900, 64.400, 2, 100, 99, 24, 23275, -20018, 5399, 5567, 7, 14, 1523742232.276, 109, 0, 1024, 1024, 1024, 1024, 0, 6, 3888, 3862, 3857, 3870, 3903, 3878, 0, 1, 16201, -89.900, 0.000, 63.600, 0.000, 0.000, -2.900, 0.0, , , , , , 99, , , 0, 0, 0
36.7672635, -118.8834293, 32.500, 14:43:52.375, 16, 0.00, 0.38, 97, -1.500, -1.100, 64.500, 2, 100, 99, 24, 23275, -20018, 5399, 5567, 7, 14, 1523742232.376, 97, 0, 1024, 1024, 1024, 1024, 0, 6, 3888, 3862, 3857, 3870, 3903, 3878, 0, 1, 16301, -89.900, 0.000, 63.600, 0.000, 0.000, -2.900, 0.0, , , , , , 99, , , 0, 0, 0
36.7672634, -118.8834293, 32.800, 14:43:52.475, 16, 0.00, 0.39, 97, -1.600, -1.000, 64.700, 2, 100, 99, 24, 23275, -20018, 5399, 5567, 7, 14, 1523742232.475, 84, 0, 1024, 1024, 1024, 1024, 0, 6, 3888, 3862, 3857, 3870, 3903, 3878, 0, 1, 16400, -89.900, 0.000, 63.600, 0.000, 0.000, -3.000, 0.0, , , , , , 99, , , 0, 0, 0
36.7672634, -118.8834293, 33.400, 14:43:52.575, 16, 0.00, 0.38, 97, -1.800, -0.900, 64.500, 2, 100, 99, 24, 23307, -19509, 5399, 5567, 7, 14, 1523742232.575, 92, 0, 1024, 1024, 1024, 1024, 0, 6, 3888, 3862, 3857, 3870, 3903, 3878, 0, 1, 16501, -89.900, 0.000, 63.600, 0.000, 0.000, -2.900, 0.0, , , , , , 99, , , 0, 0, 0
36.7672634, -118.8834293, 33.400, 14:43:52.675, 16, 0.00, 0.38, 97, -1.800, -0.900, 64.500, 2, 100, 99, 24, 23307, -19509, 5399, 5567, 7, 14, 1523742232.676, 192, 0, 1024, 1024, 1024, 1024, 0, 6, 3888, 3862, 3857, 3870, 3903, 3878, 0, 1, 16601, -89.900, 0.000, 63.600, 0.000, 0.000, -2.900, 0.0, , , , , , 99, , , 0, 0, 0
36.7672635, -118.8834291, 34.000, 14:43:52.775, 16, 0.10, 0.36, 97, -2.000, -0.100, 64.000, 2, 100, 99, 24, 23307, -19509, 5399, 5567, 7, 14, 1523742232.776, 63, 0, 1024, 1024, 1024, 1024, 0, 6, 3888, 3862, 3857, 3870, 3903, 3878, 0, 1, 16701, -89.900, 0.000, 63.600, 0.000, 0.100, -2.900, 0.0, , , , , , 99, , , 0, 0, 0
36.7672635, -118.8834291, 34.000, 14:43:52.875, 16, 0.10, 0.36, 97, -2.000, -0.100, 64.000, 2, 100, 99, 24, 23307, -19509, 5399, 5567, 7, 14, 1523742232.876, 162, 0, 1024, 1024, 1024, 1024, 0, 6, 3888, 3862, 3857, 3870, 3903, 3878, 0, 1, 16801, -89.900, 0.000, 63.600, 0.000, 0.100, -2.900, 0.0, , , , , , 99, , , 0, 0, 0
36.7672635, -118.8834289, 34.600, 14:43:52.975, 16, 0.10, 0.35, 97, -2.300, 0.300, 63.600, 2, 100, 99, 24, 23307, -19509, 5399, 5567, 7, 14, 1523742232.976, 75, 0, 1024, 1024, 1024, 1024, 0, 6, 3888, 3862, 3857, 3870, 3903, 3878, 0, 1, 16902, -89.900, 0.000, 63.600, 0.000, 0.100, -2.800, 0.0, , , , , , 99, , , 0, 0, 0
36.7672635, -118.8834288, 34.900, 14:43:53.075, 16, 0.10, 0.34, 97, -2.600, 0.300, 63.500, 2, 100, 99, 24, 23307, -19509, 5399, 5567, 7, 14, 1523742233.076, 81, 0, 1024, 1024, 1024, 1024, 0, 6, 3888, 3867, 3859, 3868, 3908, 3886, 0, 1, 17001, -89.900, 0.000, 63.600, 0.000, 0.100, -2.900, 0.0, , , , , , 99, , , 0, 0, 0
36.7672634, -118.8834286, 35.200, 14:43:53.175, 16, 0.10, 0.33, 97, -3.100, 0.700, 63.400, 2, 100, 99, 24, 23307, -19509, 5399, 5567, 7, 14, 1523742233.176, 34, 0, 1024, 1024, 1024, 1024, 0, 6, 3888, 3867, 3859, 3868, 3908, 3886, 0, 1, 17101, -89.900, 0.000, 63.600, 0.000, 0.100, -2.900, 0.0, , , , , , 99, , , 0, 0, 0
36.7672634, -118.8834285, 35.500, 14:43:53.275, 16, 0.10, 0.31, 97, -3.400, 1.100, 63.500, 2, 100, 99, 24, 23307, -19509, 5399, 5567, 7, 14, 1523742233.276, 72, 0, 1024, 1024, 1024, 1024, 0, 6, 3888, 3867, 3859, 3868, 3908, 3886, 0, 1, 17201, -89.900, 0.000, 63.600, 0.000, 0.100, -2.800, 0.0, , , , , , 99, , , 0, 0, 0
36.7672633, -118.8834283, 35.800, 14:43:53.375, 16, 0.14, 0.31, 97, -3.700, 1.300, 63.600, 2, 100, 99, 24, 23307, -19509, 5399, 5567, 7, 14, 1523742233.375, 72, 0, 1024, 1024, 1024, 1024, 0, 6, 3888, 3867, 3859, 3868, 3908, 3886, 0, 1, 17300, -89.900, 0.000, 63.600, -0.100, 0.100, -2.800, 0.0, , , , , , 99, , , 0, 0, 0
36.7672632, -118.8834282, 36.100, 14:43:53.475, 16, 0.14, 0.30, 97, -3.700, 1.300, 63.800, 2, 100, 99, 24, 23307, -19509, 5399, 5567, 7, 14, 1523742233.475, 61, 0, 1024, 1024, 1024, 1024, 0, 6, 3888, 3867, 3859, 3868, 3908, 3886, 0, 1, 17400, -89.900, 0.000, 63.600, -0.100, 0.100, -2.800, 0.0, , , , , , 99, , , 0, 0, 0
36.7672632, -118.8834281, 36.400, 14:43:53.575, 16, 0.00, 0.29, 97, -3.700, 1.000, 64.000, 2, 100, 99, 24, 23307, -19509, 5399, 5567, 7, 14, 1523742233.576, 62, 0, 1024, 1024, 1024, 1024, 0, 6, 3888, 3867, 3859, 3868, 3908, 3886, 0, 1, 17501, -89.900, 0.000, 63.600, 0.000, 0.000, -2.800, 0.0, , , , , , 99, , , 0, 0, 0
36.7672631, -118.8834280, 36.700, 14:43:53.675, 16, 0.00, 0.29, 97, -3.300, 0.600, 64.000, 2, 100, 99, 24, 23307, -19509, 5399, 5567, 7, 14, 1523742233.676, 54, 0, 1024, 1024, 1024, 1024, 0, 6, 3888, 3867, 3859, 3868, 3908, 3886, 0, 1, 17601, -89.900, 0.000, 63.600, 0.000, 0.000, -2.800, 0.0, , , , , , 99, , , 0, 0, 0
36.7672631, -118.8834279, 36.900, 14:43:53.775, 16, 0.00, 0.28, 97, -3.100, 0.400, 64.000, 2, 100, 99, 24, 23307, -19509, 5399, 5567, 7, 14, 1523742233.776, 43, 0, 1024, 1024, 1024, 1024, 0, 6, 3888, 3867, 3859, 3868, 3908, 3886, 0, 1, 17701, -89.900, 0.000, 63.600, 0.000, 0.000, -2.800, 0.0, , , , , , 99, , , 0, 0, 0
36.7672631, -118.8834278, 37.200, 14:43:53.875, 16, 0.00, 0.27, 97, -3.200, 0.400, 63.800, 2, 100, 99, 24, 23307, -19509, 5399, 5567, 7, 14, 1523742233.876, 57, 0, 1024, 1024, 1024, 1024, 0, 6, 3888, 3867, 3859, 3868, 3908, 3886, 0, 1, 17801, -89.900, 0.000, 63.600, 0.000, 0.000, -2.900, 0.0, , , , , , 99, , , 0, 0, 0
36.7672631, -118.8834277, 37.500, 14:43:53.975, 16, 0.00, 0.27, 97, -3.300, 0.400, 63.600, 2, 100, 99, 24, 23330, -18818, 5399, 5567, 7, 14, 1523742233.976, 26, 0, 1024, 1024, 1024, 1024, 0, 6, 3898, 3869, 3867, 3883, 3916, 3889, 0, 1, 17901, -89.900, 0.000, 63.600, 0.000, 0.000, -2.900, 0.0, , , , , , 99, , , 0, 0, 0
36.7672631, -118.8834275, 37.800, 14:43:54.075, 16, 0.00, 0.26, 97, -3.400, 0.700, 63.300, 2, 100, 98, 24, 23330, -18818, 5399, 5567, 7, 14, 1523742234.076, 48, 0, 1024, 1024, 1024, 1024, 0, 6, 3898, 3869, 3867, 3883, 3916, 3889, 0, 1, 18001, -89.900, 0.000, 63.600, 0.000, 0.000, -2.900, 0.0, , , , , , 99, , , 0, 0, 0
36.7672631, -118.8834274, 38.100, 14:43:54.175, 16, 0.00, 0.24, 97, -3.500, 1.000, 63.100, 2, 100, 98, 24, 23330, -18818, 5399, 5567, 7, 14, 1523742234.176, 20, 0, 1024, 1024, 1024, 1024, 0, 6, 3898, 3869, 3867, 3883, 3916, 3889, 0, 1, 18101, -89.900, 0.000, 63.600, 0.000, 0.000, -3.000, 0.0, , , , , , 99, , , 0, 0, 0
36.7672632, -118.8834273, 38.400, 14:43:54.275, 16, 0.00, 0.23, 97, -3.100, 1.400, 63.100, 2, 100, 98, 24, 23330, -18818, 5399, 5567, 7, 14, 1523742234.276, 21, 0, 1024, 1024, 1024, 1024, 0, 6, 3898, 3869, 3867, 3883, 3916, 3889, 0, 1, 18201, -89.900, 0.000, 63.600, 0.000, 0.000, -2.800, 0.0, , , , , , 99, , , 0, 0, 0
36.7672632, -118.8834271, 38.600, 14:43:54.375, 16, 0.00, 0.22, 97, -2.800, 1.600, 63.200, 2, 100, 98, 24, 23330, -18818, 5399, 5567, 7, 14, 1523742234.376, 24, 0, 1024, 1024, 1024, 1024, 0, 6, 3898, 3869, 3867, 3883, 3916, 3889, 0, 1, 18301, -89.900, 0.000, 63.600, 0.000, 0.000, -2.900, 0.0, , , , , , 99, , , 0, 0, 0
36.7672632, -118.8834270, 38.900, 14:43:54.475, 16, 0.00, 0.21, 97, -2.700, 1.800, 63.300, 2, 100, 98, 24, 23330, -18818, 5399, 5567, 7, 14, 1523742234.476, 22, 0, 1024, 1024, 1024, 1024, 0, 6, 3898, 3869, 3867, 3883, 3916, 3889, 0, 1, 18401, -89.900, 0.000, 63.600, 0.000, 0.000, -2.900, 0.0, , , , , , 99, , , 0, 0, 0
36.7672632, -118.8834269, 39.200, 14:43:54.576, 16, 0.00, 0.21, 97, -2.800, 2.000, 63.600, 2, 100, 97, 24, 23330, -18818, 5399, 5567, 7, 14, 1523742234.576, 8, 0, 1024, 1024, 1024, 1024, 0, 6, 3898, 3869, 3867, 3883, 3916, 3889, 0, 1, 18502, -89.900, 0.000, 63.600, 0.000, 0.000, -3.000, 0.0, , , , , , 99, , , 0, 0, 0
36.7672631, -118.8834268, 39.500, 14:43:54.690, 16, 0.00, 0.21, 97, -4.000, 1.000, 63.900, 2, 100, 97, 24, 23330, -18818, 5399, 5567, 7, 14, 1523742234.690, 4, 0, 1024, 1024, 1024, 1024, 0, 6, 3898, 3869, 3867, 3883, 3916, 3889, 0, 1, 18616, -89.900, 0.000, 63.600, 0.000, 0.000, -3.100, 0.0, , , , , , 99, , , 0, 0, 0
36.7672631, -118.8834267, 39.900, 14:43:54.775, 16, 0.00, 0.21, 97, -5.100, 0.200, 63.900, 2, 100, 97, 24, 23330, -18818, 5399, 5567, 7, 14, 1523742234.776, 21, 0, 1024, 1024, 1024, 1024, 0, 6, 3898, 3869, 3867, 3883, 3916, 3889, 0, 1, 18701, -90.000, 0.000, 63.600, 0.000, 0.000, -3.100, 0.0, , , , , , 99, , , 0, 0, 0
36.7672630, -118.8834266, 40.200, 14:43:54.875, 16, 0.00, 0.20, 97, -5.100, 0.400, 63.800, 2, 100, 97, 24, 23330, -18818, 5399, 5567, 7, 14, 1523742234.876, 6, 0, 1024, 1024, 1024, 1024, 0, 6, 3898, 3869, 3867, 3883, 3916, 3889, 0, 1, 18801, -89.900, 0.000, 63.600, 0.000, 0.000, -3.000, 0.0, , , , , , 99, , , 0, 0, 0
36.7672630, -118.8834266, 40.200, 14:43:54.975, 16, 0.00, 0.20, 97, -5.100, 0.400, 63.800, 2, 100, 97, 24, 23330, -18818, 5399, 5567, 7, 14, 1523742234.975, 106, 0, 1024, 1024, 1024, 1024, 0, 6, 3898, 3869, 3867, 3883, 3916, 3889, 0, 1, 18900, -89.900, 0.000, 63.600, 0.000, 0.000, -3.000, 0.0, , , , , , 99, , , 0, 0, 0
36.7672630, -118.8834265, 40.500, 14:43:55.075, 16, 0.00, 0.20, 97, -4.100, 1.200, 63.800, 2, 100, 98, 24, 23279, -19279, 5344, 5567, 7, 14, 1523742235.075, 96, 0, 1024, 1024, 1024, 1024, 0, 6, 3889, 3849, 3855, 3871, 3894, 3882, 0, 1, 19001, -89.900, 0.000, 63.600, 0.000, 0.000, -2.900, 0.0, , , , , , 99, , , 0, 0, 0
36.7672632, -118.8834263, 41.100, 14:43:55.175, 16, 0.00, 0.18, 97, -3.600, 2.300, 63.900, 2, 100, 98, 24, 23279, -19279, 5344, 5567, 7, 14, 1523742235.176, 6, 0, 1024, 1024, 1024, 1024, 0, 6, 3889, 3849, 3855, 3871, 3894, 3882, 0, 1, 19101, -89.900, 0.000, 63.600, 0.000, 0.000, -2.900, 0.0, , , , , , 99, , , 0, 0, 0
36.7672632, -118.8834263, 41.100, 14:43:55.275, 16, 0.00, 0.18, 97, -3.600, 2.300, 63.900, 2, 100, 98, 24, 23279, -19279, 5344, 5567, 7, 14, 1523742235.276, 106, 0, 1024, 1024, 1024, 1024, 0, 6, 3889, 3849, 3855, 3871, 3894, 3882, 0, 1, 19201, -89.900, 0.000, 63.600, 0.000, 0.000, -2.900, 0.0, , , , , , 99, , , 0, 0, 0
36.7672632, -118.8834262, 41.300, 14:43:55.375, 16, 0.00, 0.17, 97, -3.700, 2.500, 64.000, 2, 100, 98, 24, 23279, -19279, 5344, 5567, 7, 14, 1523742235.376, 72, 0, 1024, 1024, 1024, 1024, 0, 6, 3889, 3849, 3855, 3871, 3894, 3882, 0, 1, 19301, -89.900, 0.000, 63.600, 0.000, 0.000, -2.900, 0.0, , , , , , 99, , , 0, 0, 0
36.7672632, -118.8834261, 41.900, 14:43:55.475, 16, 0.00, 0.16, 97, -3.700, 2.100, 64.100, 2, 100, 98, 24, 23279, -19279, 5344, 5567, 7, 14, 1523742235.476, 76, 0, 1024, 1024, 1024, 1024, 0, 6, 3889, 3849, 3855, 3871, 3894, 3882, 0, 1, 19401, -89.900, 0.000, 63.600, 0.000, 0.000, -2.800, 0.0, , , , , , 99, , , 0, 0, 0
36.7672633, -118.8834261, 42.200, 14:43:55.575, 16, 0.00, 0.16, 96, -3.400, 1.800, 64.100, 2, 100, 98, 24, 23279, -19279, 5344, 5567, 7, 14, 1523742235.576, 86, 0, 1024, 1024, 1024, 1024, 0, 6, 3889, 3849, 3855, 3871, 3894, 3882, 0, 1, 19501, -89.900, 0.000, 63.600, 0.000, 0.000, -2.800, 0.0, , , , , , 99, , , 0, 0, 0
36.7672633, -118.8834261, 42.200, 14:43:55.675, 16, 0.00, 0.16, 96, -3.400, 1.800, 64.100, 2, 100, 98, 24, 23279, -19279, 5344, 5567, 7, 14, 1523742235.676, 186, 0, 1024, 1024, 1024, 1024, 0, 6, 3889, 3849, 3855, 3871, 3894, 3882, 0, 1, 19601, -89.900, 0.000, 63.600, 0.000, 0.000, -2.800, 0.0, , , , , , 99, , , 0, 0, 0
36.7672634, -118.8834262, 42.700, 14:43:55.775, 16, 0.00, 0.15, 96, -2.600, 1.400, 64.200, 2, 100, 98, 24, 23279, -19279, 5344, 5567, 7, 14, 1523742235.776, 41, 0, 1024, 1024, 1024, 1024, 0, 6, 3889, 3849, 3855, 3871, 3894, 3882, 0, 1, 19701, -89.900, 0.000, 63.600, 0.000, 0.000, -2.900, 0.0, , , , , , 99, , , 0, 0, 0
36.7672634, -118.8834263, 43.000, 14:43:55.875, 16, 0.00, 0.15, 96, -2.800, 1.200, 64.200, 2, 100, 98, 24, 23279, -19279, 5344, 5567, 7, 14, 1523742235.876, 65, 0, 1024, 1024, 1024, 1024, 0, 6, 3889, 3849, 3855, 3871, 3894, 3882, 0, 1, 19801, -90.000, 0.000, 63.600, 0.000, 0.000, -3.000, 0.0, , , , , , 99, , , 0, 0, 0
36.7672634, -118.8834263, 43.300, 14:43:55.975, 16, 0.00, 0.15, 96, -3.300, 1.000, 64.200, 2, 100, 98, 24, 23279, -19279, 5344, 5567, 7, 14, 1523742235.976, 71, 0, 1024, 1024, 1024, 1024, 0, 6, 3889, 3849, 3855, 3871, 3894, 3882, 0, 1, 19901, -89.900, 0.000, 63.600, 0.000, 0.000, -3.100, 0.0, , , , , , 99, , , 0, 0, 0
36.7672635, -118.8834264, 43.600, 14:43:56.075, 16, 0.00, 0.15, 96, -3.500, 1.000, 64.100, 2, 100, 98, 24, 23245, -19235, 5344, 5567, 7, 14, 1523742236.076, 59, 0, 1024, 1024, 1024, 1024, 0, 6, 3881, 3844, 3853, 3861, 3925, 3872, 0, 1, 20001, -89.900, 0.000, 63.600, 0.000, 0.000, -3.100, 0.0, , , , , , 99, , , 0, 0, 0
36.7672635, -118.8834264, 43.900, 14:43:56.175, 16, 0.00, 0.15, 96, -3.300, 1.100, 63.900, 2, 100, 98, 24, 23245, -19235, 5344, 5567, 7, 14, 1523742236.175, 34, 0, 1024, 1024, 1024, 1024, 0, 6, 3881, 3844, 3853, 3861, 3925, 3872, 0, 1, 20101, -89.900, 0.000, 63.600, 0.000, 0.000, -3.000, 0.0, , , , , , 99, , , 0, 0, 0
36.7672636, -118.8834265, 44.200, 14:43:56.275, 17, 0.00, 0.15, 96, -2.900, 1.100, 63.800, 2, 100, 98, 24, 23245, -19235, 5344, 5567, 7, 14, 1523742236.276, 58, 0, 1024, 1024, 1024, 1024, 0, 6, 3881, 3844, 3853, 3861, 3925, 3872, 0, 1, 20201, -89.900, 0.000, 63.600, 0.000, 0.000, -3.000, 0.0, , , , , , 99, , , 0, 0, 0
36.7672636, -118.8834266, 44.500, 14:43:56.375, 17, 0.00, 0.15, 96, -2.500, 1.100, 63.800, 2, 100, 98, 24, 23245, -19235, 5344, 5567, 7, 14, 1523742236.376, 30, 0, 1024, 1024, 1024, 1024, 0, 6, 3881, 3844, 3853, 3861, 3925, 3872, 0, 1, 20301, -89.900, 0.000, 63.600, 0.000, 0.000, -2.900, 0.0, , , , , , 99, , , 0, 0, 0
36.7672637, -118.8834267, 44.800, 14:43:56.475, 17, 0.00, 0.16, 96, -2.100, 0.900, 63.700, 2, 100, 98, 24, 23245, -19235, 5344, 5567, 7, 14, 1523742236.476, 54, 0, 1024, 1024, 1024, 1024, 0, 6, 3881, 3844, 3853, 3861, 3925, 3872, 0, 1, 20401, -90.000, 0.000, 63.600, 0.000, 0.000, -2.900, 0.0, , , , , , 99, , , 0, 0, 0
36.7672638, -118.8834268, 45.100, 14:43:56.575, 17, 0.00, 0.16, 96, -2.000, 0.700, 63.700, 2, 100, 98, 24, 23245, -19235, 5344, 5567, 7, 14, 1523742236.575, 42, 0, 1024, 1024, 1024, 1024, 0, 6, 3881, 3844, 3853, 3861, 3925, 3872, 0, 1, 20500, -89.900, 0.000, 63.600, 0.000, 0.000, -3.000, 0.0, , , , , , 99, , , 0, 0, 0
36.7672638, -118.8834269, 45.400, 14:43:56.675, 17, 0.00, 0.17, 96, -2.300, 0.700, 63.600, 2, 100, 98, 24, 23245, -19235, 5344, 5567, 7, 14, 1523742236.676, 41, 0, 1024, 1024, 1024, 1024, 0, 6, 3881, 3844, 3853, 3861, 3925, 3872, 0, 1, 20601, -89.900, 0.000, 63.600, 0.000, 0.000, -3.100, 0.0, , , , , , 99, , , 0, 0, 0
36.7672638, -118.8834270, 45.700, 14:43:56.775, 17, 0.00, 0.17, 96, -2.900, 0.500, 63.600, 2, 100, 98, 24, 23245, -19235, 5344, 5567, 7, 14, 1523742236.776, 22, 0, 1024, 1024, 1024, 1024, 0, 6, 3881, 3844, 3853, 3861, 3925, 3872, 0, 1, 20701, -90.000, 0.000, 63.600, 0.000, 0.000, -3.100, 0.0, , , , , , 99, , , 0, 0, 0
36.7672638, -118.8834270, 46.000, 14:43:56.875, 17, 0.00, 0.18, 96, -3.400, 0.300, 63.600, 2, 100, 98, 24, 23245, -19235, 5344, 5567, 7, 14, 1523742236.876, 26, 0, 1024, 1024, 1024, 1024, 0, 6, 3881, 3844, 3853, 3861, 3925, 3872, 0, 1, 20801, -89.900, 0.000, 63.600, 0.000, 0.000, -3.100, 0.0, , , , , , 99, , , 0, 0, 0
36.7672638, -118.8834271, 46.300, 14:43:56.975, 17, 0.00, 0.18, 96, -3.500, 0.300, 63.600, 2, 100, 98, 24, 23245, -19235, 5344, 5567, 7, 14, 1523742236.976, 39, 0, 1024, 1024, 1024, 1024, 0, 6, 3881, 3844, 3853, 3861, 3925, 3872, 0, 1, 20901, -89.900, 0.000, 63.600, 0.000, 0.000, -3.100, 0.0, , , , , , 99, , , 0, 0, 0
36.7672639, -118.8834271, 46.700, 14:43:57.075, 17, 0.00, 0.18, 96, -3.200, 0.600, 63.700, 2, 100, 96, 24, 23245, -19235, 5344, 5567, 7, 14, 1523742237.076, 23, 0, 1024, 1024, 1024, 1024, 0, 6, 3881, 3844, 3853, 3861, 3925, 3872, 0, 1, 21001, -89.900, 0.000, 63.600, 0.000, 0.000, -3.100, 0.0, , , , , , 99, , , 0, 0, 0
36.7672639, -118.8834271, 46.700, 14:43:57.175, 17, 0.00, 0.18, 96, -3.200, 0.600, 63.700, 2, 100, 96, 24, 23245, -19235, 5344, 5567, 7, 14, 1523742237.176, 124, 0, 1024, 1024, 1024, 1024, 0, 6, 3881, 3844, 3853, 3861, 3925, 3872, 0, 1, 21101, -89.900, 0.000, 63.600, 0.000, 0.000, -3.100, 0.0, , , , , , 99, , , 0, 0, 0
36.7672640, -118.8834272, 47.300, 14:43:57.279, 17, 0.00, 0.18, 96, -2.800, 1.200, 63.800, 2, 100, 96, 24, 23245, -19235, 5344, 5567, 7, 14, 1523742237.283, 22, 0, 1024, 1024, 1024, 1024, 0, 6, 3881, 3844, 3853, 3861, 3925, 3872, 0, 1, 21208, -89.900, 0.000, 63.600, 0.000, 0.000, -3.100, 0.0, , , , , , 99, , , 0, 0, 0
