latitude,longitude,altitude(feet),ascent(feet),speed(mph),distance(feet),time(millisecond),datetime(utc),satellites,gpslevel,voltage(v),max_altitude(feet),max_ascent(feet),max_speed(mph),max_distance(feet), xSpeed(mph), ySpeed(mph), zSpeed(mph), compass_heading(degrees), pitch(degrees), roll(degrees),isPhoto,isVideo,rc_elevator,rc_aileron,rc_throttle,rc_rudder,gimbal_heading(degrees),gimbal_pitch(degrees),battery_percent,voltageCell1,voltageCell2,voltageCell3,voltageCell4,voltageCell5,voltageCell6,current(A),battery_temperature(f),flycStateRaw,flycState,message
36.6440332,-118.9467507,4806.2635944172,0,0.3131716,0,3100,2018-04-13 17:38:20,13,0,0,4806.2635944172,0,0.3131716,0,0,0,0,13.2, -0.3, -1,1,0,1024,1024,1024,1024,13.5,-89.9,94,3.958,4.005,3.969,4.027,0,0,0,62.6,11,AutoTakeoff,
36.6440333,-118.9467509,4806.2635944172,0,0.4921268,0.068985566512,3200,2018-04-13 17:38:20,13,0,0,4806.2635944172,0,0.4921268,0.068985566512,0,0,0,13.1, 0, -0.3,0,0,1024,1024,1024,1024,13.5,-89.9,94,3.958,4.005,3.969,4.027,0,0,0,62.6,11,AutoTakeoff,
36.6440335,-118.9467511,4806.2635944172,0,0.4921268,0.160286750536,3300,2018-04-13 17:38:20,13,0,0,4806.2635944172,0,0.4921268,0.160286750536,0,0,0,13, 0.3, 0.5,0,0,1024,1024,1024,1024,13.5,-89.9,94,3.958,4.005,3.969,4.027,0,0,0,62.6,11,AutoTakeoff,
36.6440336,-118.9467514,4806.5916784172,0.328084,0.4921268,0.2515748112,3400,2018-04-13 17:38:20,14,0,0,4806.5916784172,0.328084,0.4921268,0.2515748112,0,0,0,12.9, 0.8, 1,0,0,1024,1024,1024,1024,13.5,-89.9,94,3.958,4.005,3.969,4.027,0,0,0,62.6,11,AutoTakeoff,
36.6440338,-118.9467516,4806.5916784172,0.328084,0.4921268,0.34254266188,3500,2018-04-13 17:38:20,14,0,0,4806.5916784172,0.328084,0.4921268,0.34254266188,0,0,0,12.9, 0.8, 1.8,0,0,1024,1024,1024,1024,13.5,-89.9,94,3.958,4.005,3.969,4.027,0,0,0,62.6,11,AutoTakeoff,
36.6440339,-118.9467519,4806.5916784172,0.328084,0.3131716,0.43431431836,3600,2018-04-13 17:38:20,12,0,0,4806.5916784172,0.328084,0.4921268,0.43431431836,0,0,0,12.9, 0.9, 2.5,0,0,1024,1024,1024,1024,13.5,-89.9,94,3.958,4.005,3.969,4.027,0,0,0,62.6,11,AutoTakeoff,
36.6440341,-118.9467521,4806.9197624172,0.656168,0.3131716,0.52515749712,3700,2018-04-13 17:38:21,12,0,0,4806.9197624172,0.656168,0.4921268,0.52515749712,0,0,0,12.9, 0.7, 2.5,0,0,1024,1024,1024,1024,13.5,-89.9,94,3.958,4.005,3.969,4.027,0,0,0,62.6,11,AutoTakeoff,
36.6440342,-118.9467523,4806.9197624172,0.656168,0.3131716,0.5937172106,3800,2018-04-13 17:38:21,12,0,0,4806.9197624172,0.656168,0.4921268,0.5937172106,0,0,0,13.1, 0.8, 2.2,0,0,1024,1024,1024,1024,13.5,-89.9,94,3.958,4.005,3.969,4.027,0,0,0,62.6,11,AutoTakeoff,
36.6440343,-118.9467524,4807.2478464172,0.984252,0.3131716,0.6393208866,3900,2018-04-13 17:38:21,12,0,0,4807.2478464172,0.984252,0.4921268,0.6393208866,0,0,0,13.3, 0.8, 1.9,0,0,1024,1024,1024,1024,13.5,-89.9,94,3.958,4.005,3.969,4.027,0,0,0,62.6,11,AutoTakeoff,
36.6440344,-118.9467525,4807.2478464172,0.984252,0.223694,0.68508532376,4000,2018-04-13 17:38:21,12,0,24.302,4807.2478464172,0.984252,0.4921268,0.68508532376,0,0,0,13.4, 0.8, 1.8,0,0,1024,1024,1024,1024,13.5,-89.9,94,3.958,4.005,3.969,4.027,0,0,8.374,62.6,11,AutoTakeoff,
36.6440345,-118.9467527,4807.5759304172,1.312336,0.223694,0.7534941186,4100,2018-04-13 17:38:21,12,0,24.302,4807.5759304172,1.312336,0.4921268,0.7534941186,0,0,0,13.6, 0.8, 1.5,0,0,1024,1024,1024,1024,13.5,-89.9,94,3.958,4.005,3.969,4.027,0,0,8.374,62.6,11,AutoTakeoff,
36.6440346,-118.9467527,4807.5759304172,1.312336,0.223694,0.77697837132,4200,2018-04-13 17:38:21,13,0,24.302,4807.5759304172,1.312336,0.4921268,0.77697837132,0,0,0,13.7, 0.8, 1.2,0,0,1024,1024,1024,1024,13.5,-89.9,94,3.958,4.005,3.969,4.027,0,0,8.374,62.6,11,AutoTakeoff,
36.6440348,-118.9467528,4807.5759304172,1.312336,0.223694,0.84775921348,4300,2018-04-13 17:38:21,13,0,24.302,4807.5759304172,1.312336,0.4921268,0.84775921348,0,0,0,13.7, 1.1, 1.1,0,0,1024,1024,1024,1024,13.5,-89.9,94,3.958,4.005,3.969,4.027,0,0,8.374,62.6,11,AutoTakeoff,
36.644035,-118.9467529,4807.9040144172,1.64042,0.223694,0.91981958324,4410,2018-04-13 17:38:21,13,0,24.302,4807.9040144172,1.64042,0.4921268,0.91981958324,0,0,-0.223694,13.7, 1.3, 1.1,0,0,1024,1024,1024,1024,13.5,-89.9,94,3.958,4.005,3.969,4.027,0,0,8.374,62.6,11,AutoTakeoff,
36.6440351,-118.946753,4807.9040144172,1.64042,0.223694,0.96637470284,4500,2018-04-13 17:38:21,13,0,24.302,4807.9040144172,1.64042,0.4921268,0.96637470284,0,0,0,13.6, 1.4, 1.2,0,0,1024,1024,1024,1024,13.5,-89.9,94,3.958,4.005,3.969,4.027,0,0,8.374,62.6,11,AutoTakeoff,
36.6440352,-118.9467531,4808.2320984172,1.968504,0.223694,1.01295278832,4600,2018-04-13 17:38:21,13,0,24.302,4808.2320984172,1.968504,0.4921268,1.01295278832,0,0,-0.223694,13.4, 1.5, 1.4,0,0,1024,1024,1024,1024,13.5,-89.9,94,3.958,4.005,3.969,4.027,0,0,8.374,62.6,11,AutoTakeoff,
36.6440353,-118.9467532,4808.2320984172,1.968504,0,1.059547278,4800,2018-04-13 17:38:22,13,0,24.302,4808.2320984172,1.968504,0.4921268,1.059547278,0,0,-0.223694,13.3, 1.5, 1.6,0,0,1024,1024,1024,1024,13.5,-89.9,94,3.958,4.005,3.969,4.027,0,0,8.374,62.6,11,AutoTakeoff,
36.6440354,-118.9467533,4808.5601824172,2.296588,0,1.10615817188,4900,2018-04-13 17:38:22,13,0,24.302,4808.5601824172,2.296588,0.4921268,1.10615817188,0,0,-0.223694,13.1, 1.4, 1.8,0,0,1024,1024,1024,1024,13.5,-89.9,94,3.958,4.005,3.969,4.027,0,0,8.374,62.6,11,AutoTakeoff,
36.6440355,-118.9467534,4808.8882664172,2.624672,0,1.15278218912,5000,2018-04-13 17:38:22,13,0,23.312,4808.8882664172,2.624672,0.4921268,1.15278218912,0,0,-0.223694,13, 1.6, 2,0,0,1024,1024,1024,1024,13.5,-89.9,94,3.843,3.867,3.841,3.897,0,0,16.477,62.6,11,AutoTakeoff,
36.6440357,-118.9467535,4808.8882664172,2.624672,0,1.22630909436,5100,2018-04-13 17:38:22,12,0,23.312,4808.8882664172,2.624672,0.4921268,1.22630909436,0,0,-0.223694,13, 1.9, 2.1,0,0,1024,1024,1024,1024,13.5,-89.9,94,3.843,3.867,3.841,3.897,0,0,16.477,62.6,11,AutoTakeoff,
36.6440358,-118.9467535,4809.2163504172,2.952756,0,1.25368442332,5200,2018-04-13 17:38:22,12,0,23.312,4809.2163504172,2.952756,0.4921268,1.25368442332,0,0,-0.223694,13, 2.2, 2.1,0,0,1024,1024,1024,1024,13.5,-89.9,94,3.843,3.867,3.841,3.897,0,0,16.477,62.6,11,AutoTakeoff,
36.6440359,-118.9467535,4809.2163504172,2.952756,0,1.2815125082,5300,2018-04-13 17:38:22,13,0,23.312,4809.2163504172,2.952756,0.4921268,1.2815125082,0,0,0,13, 2.5, 2.1,0,0,1024,1024,1024,1024,13.5,-89.9,94,3.843,3.867,3.841,3.897,0,0,16.477,62.6,14,Waypoint,
36.6440361,-118.9467535,4809.5444344172,3.28084,0,1.338418678,5400,2018-04-13 17:38:22,12,0,23.312,4809.5444344172,3.28084,0.4921268,1.338418678,0,0,0,13, 1.8, 0.8,0,0,1024,1024,1024,1024,13.5,-89.9,94,3.843,3.867,3.841,3.897,0,0,16.477,62.6,14,Waypoint,
36.644036,-118.9467535,4809.5444344172,3.28084,0,1.30976710228,5500,2018-04-13 17:38:22,12,0,23.312,4809.5444344172,3.28084,0.4921268,1.338418678,0,0,0,13, 1.2, 0.3,0,0,1024,1024,1024,1024,13.5,-90,94,3.843,3.867,3.841,3.897,0,0,16.477,62.6,14,Waypoint,
36.644036,-118.9467534,4809.5444344172,3.28084,0,1.29164702296,5600,2018-04-13 17:38:22,13,0,23.312,4809.5444344172,3.28084,0.4921268,1.338418678,0,0,0,13.2, 0.9, 0,0,0,1024,1024,1024,1024,13.5,-90,94,3.843,3.867,3.841,3.897,0,0,16.477,62.6,14,Waypoint,
36.6440361,-118.9467534,4809.8725184172,3.608924,0,1.32069229948,5700,2018-04-13 17:38:23,13,0,23.312,4809.8725184172,3.608924,0.4921268,1.338418678,0,0,0,13.4, 0.8, 0,0,0,1024,1024,1024,1024,13.5,-89.9,94,3.843,3.867,3.841,3.897,0,0,16.477,62.6,14,Waypoint,
36.6440362,-118.9467533,4809.8725184172,3.608924,0,1.33317261484,5800,2018-04-13 17:38:23,12,0,23.312,4809.8725184172,3.608924,0.4921268,1.338418678,0,0,-0.223694,13.8, 1, 0,0,0,1024,1024,1024,1024,13.5,-89.9,94,3.843,3.867,3.841,3.897,0,0,16.477,62.6,14,Waypoint,
36.6440363,-118.9467533,4810.2006024172,3.937008,0,1.36328416436,5900,2018-04-13 17:38:23,12,0,23.312,4810.2006024172,3.937008,0.4921268,1.36328416436,0,0,-0.223694,14.2, 1.2, 0.3,0,0,1024,1024,1024,1024,13.5,-89.9,94,3.843,3.867,3.841,3.897,0,0,16.477,62.6,14,Waypoint,
36.6440364,-118.9467533,4810.5286864172,4.265092,0,1.39370411284,6000,2018-04-13 17:38:23,13,0,23.069,4810.5286864172,4.265092,0.4921268,1.39370411284,0,0,-0.223694,14.7, 1.4, 0.4,0,0,1024,1024,1024,1024,13.5,-89.9,94,3.843,3.867,3.841,3.897,0,0,16.743,62.6,14,Waypoint,
36.6440365,-118.9467534,4810.8567704172,4.593176,0,1.44026251328,6100,2018-04-13 17:38:23,13,0,23.069,4810.8567704172,4.593176,0.4921268,1.44026251328,0,0,-0.223694,15.1, 1.4, 0.5,0,0,1024,1024,1024,1024,13.5,-89.9,94,3.843,3.867,3.841,3.897,0,0,16.743,62.6,14,Waypoint,
36.6440366,-118.9467535,4811.1848544172,4.92126,0,1.48683403708,6200,2018-04-13 17:38:23,13,0,23.069,4811.1848544172,4.92126,0.4921268,1.48683403708,0,0,-0.223694,15.3, 1.5, 0.7,0,0,1024,1024,1024,1024,13.5,-89.9,94,3.843,3.867,3.841,3.897,0,0,16.743,62.6,14,Waypoint,
36.6440367,-118.9467536,4811.8410224172,5.577428,0,1.53341868424,6300,2018-04-13 17:38:23,13,0,23.069,4811.8410224172,5.577428,0.4921268,1.53341868424,0,0,-0.447388,15.5, 1.7, 0.9,0,0,1024,1024,1024,1024,13.6,-89.9,94,3.843,3.867,3.841,3.897,0,0,16.743,62.6,14,Waypoint,
36.6440368,-118.9467537,4812.4971904172,6.233596,0,1.58001317392,6400,2018-04-13 17:38:23,13,0,23.069,4812.4971904172,6.233596,0.4921268,1.58001317392,0,0,-0.447388,15.5, 1.8, 1,0,0,1024,1024,1024,1024,13.6,-89.9,94,3.843,3.867,3.841,3.897,0,0,16.743,62.6,14,Waypoint,
36.6440368,-118.9467538,4813.1533584172,6.889764,0,1.59646986736,6500,2018-04-13 17:38:23,13,0,23.069,4813.1533584172,6.889764,0.4921268,1.59646986736,0,0,-0.447388,15.5, 1.6, 1.2,0,0,1024,1024,1024,1024,13.6,-89.9,94,3.843,3.867,3.841,3.897,0,0,16.743,62.6,14,Waypoint,
36.6440368,-118.946754,4813.8095264172,7.545932,0,1.6304626506,6600,2018-04-13 17:38:23,13,0,23.069,4813.8095264172,7.545932,0.4921268,1.6304626506,0,0,-0.447388,15.4, 1.3, 1.4,0,0,1024,1024,1024,1024,13.7,-89.9,94,3.843,3.867,3.841,3.897,0,0,16.743,62.6,14,Waypoint,
36.6440367,-118.9467541,4814.4656944172,8.2021,0,1.61904860824,6700,2018-04-13 17:38:24,13,0,23.069,4814.4656944172,8.2021,0.4921268,1.6304626506,0,0,-0.671082,15.3, 1.1, 1.5,0,0,1024,1024,1024,1024,13.7,-90,94,3.843,3.867,3.841,3.897,0,0,16.743,62.6,14,Waypoint,
36.6440366,-118.9467542,4815.4499464172,9.186352,0,1.60891081264,6800,2018-04-13 17:38:24,12,0,23.069,4815.4499464172,9.186352,0.4921268,1.6304626506,0,0,-0.671082,15.1, 1.1, 1.5,0,0,1024,1024,1024,1024,13.7,-89.9,94,3.843,3.867,3.841,3.897,0,0,16.743,62.6,14,Waypoint,
36.6440365,-118.9467543,4816.4341984172,10.170604,0,1.60007879136,6900,2018-04-13 17:38:24,12,0,23.069,4816.4341984172,10.170604,0.4921268,1.6304626506,0,0,-0.671082,14.9, 1, 1.5,0,0,1024,1024,1024,1024,13.7,-90,94,3.843,3.867,3.841,3.897,0,0,16.743,62.6,14,Waypoint,
36.6440361,-118.9467545,4818.4027024172,12.139108,0,1.53523955044,7100,2018-04-13 17:38:24,11,0,23.069,4818.4027024172,12.139108,0.4921268,1.6304626506,0,0,-0.671082,14.8, 0.4, 1.3,0,0,1024,1024,1024,1024,13.8,-90,94,3.843,3.867,3.841,3.897,0,0,16.743,62.6,14,Waypoint,
36.644036,-118.9467546,4819.7150384172,13.451444,0,1.53201448472,7200,2018-04-13 17:38:24,14,0,23.069,4819.7150384172,13.451444,0.4921268,1.6304626506,0,0,-0.671082,14.8, 0.2, 1.5,0,0,1024,1024,1024,1024,13.8,-90,94,3.843,3.867,3.841,3.897,0,0,16.743,62.6,14,Waypoint,
36.6440359,-118.9467548,4820.6992904172,14.435696,0,1.55272970848,7320,2018-04-13 17:38:24,14,0,23.069,4820.6992904172,14.435696,0.4921268,1.6304626506,0,0,-0.671082,15, 0, 1.7,0,0,1024,1024,1024,1024,13.8,-90,94,3.843,3.867,3.841,3.897,0,0,16.743,62.6,14,Waypoint,
36.6440358,-118.9467549,4821.6835424172,15.419948,0,1.55291671636,7400,2018-04-13 17:38:24,14,0,23.069,4821.6835424172,15.419948,0.4921268,1.6304626506,0,0,-0.671082,15.1, 0, 1.6,0,0,1024,1024,1024,1024,13.9,-90,94,3.843,3.867,3.841,3.897,0,0,16.743,62.6,14,Waypoint,
36.6440359,-118.946755,4822.9958784172,16.732284,0,1.59841868632,7500,2018-04-13 17:38:24,14,0,23.069,4822.9958784172,16.732284,0.4921268,1.6304626506,0,0,-0.671082,15.3, -0.1, 1.4,0,0,1024,1024,1024,1024,13.9,-89.9,94,3.843,3.867,3.841,3.897,0,0,16.743,62.6,14,Waypoint,
36.6440359,-118.9467551,4823.9801304172,17.716536,0,1.62157485504,7700,2018-04-13 17:38:25,14,0,23.069,4823.9801304172,17.716536,0.4921268,1.6304626506,0,0,-0.671082,15.4, 0, 1.5,0,0,1024,1024,1024,1024,13.9,-89.9,94,3.843,3.867,3.841,3.897,0,0,16.743,62.6,14,Waypoint,
36.644036,-118.9467551,4826.2767184172,20.013124,0,1.64399283476,7800,2018-04-13 17:38:25,13,0,23.069,4826.2767184172,20.013124,0.4921268,1.64399283476,0,0,-0.671082,15.5, 0.6, 1.6,0,0,1024,1024,1024,1024,14,-89.9,94,3.843,3.867,3.841,3.897,0,0,16.743,62.6,14,Waypoint,
36.6440362,-118.9467551,4827.2609704172,20.997376,0,1.6903051722,8000,2018-04-13 17:38:25,13,0,22.978,4827.2609704172,20.997376,0.4921268,1.6903051722,0,0,-0.671082,15.4, 1, 1.7,0,0,1024,1024,1024,1024,14,-89.9,94,3.795,3.792,3.822,3.844,0,0,17.279,62.6,14,Waypoint,
36.6440363,-118.9467549,4828.5733064172,22.309712,0,1.67060700884,8100,2018-04-13 17:38:25,14,0,22.978,4828.5733064172,22.309712,0.4921268,1.6903051722,0,0,-0.671082,15.3, 1.4, 1.5,0,0,1024,1024,1024,1024,14,-89.9,94,3.795,3.792,3.822,3.844,0,0,17.279,62.6,14,Waypoint,
36.6440367,-118.9467545,4830.5418104172,24.278216,0,1.6935532038,8200,2018-04-13 17:38:25,14,0,22.978,4830.5418104172,24.278216,0.4921268,1.6935532038,0,0,-0.671082,15.2, 2.2, 0.7,0,0,1024,1024,1024,1024,14,-89.9,94,3.795,3.792,3.822,3.844,0,0,17.279,62.6,14,Waypoint,
36.6440368,-118.9467544,4831.8541464172,25.590552,0,1.70245740356,8300,2018-04-13 17:38:25,14,0,22.978,4831.8541464172,25.590552,0.4921268,1.70245740356,0,0,-0.671082,15.2, 2.5, 0.3,0,0,1024,1024,1024,1024,14.1,-89.9,94,3.795,3.792,3.822,3.844,0,0,17.279,62.6,14,Waypoint,
36.644037,-118.9467542,4832.8383984172,26.574804,0,1.72394034388,8400,2018-04-13 17:38:25,14,0,22.978,4832.8383984172,26.574804,0.4921268,1.72394034388,0,0,-0.671082,15.3, 2.7, 0,0,0,1024,1024,1024,1024,14.1,-89.9,94,3.795,3.792,3.822,3.844,0,0,17.279,62.6,14,Waypoint,
36.6440372,-118.946754,4833.8226504172,27.559056,0,1.750164098,8500,2018-04-13 17:38:25,14,0,22.978,4833.8226504172,27.559056,0.4921268,1.750164098,0,0,-0.671082,15.4, 2.9, 0.2,0,0,1024,1024,1024,1024,14.1,-89.9,94,3.795,3.792,3.822,3.844,0,0,17.279,62.6,14,Waypoint,
36.6440373,-118.9467538,4835.1349864172,28.871392,0,1.74963260192,8600,2018-04-13 17:38:25,14,0,22.978,4835.1349864172,28.871392,0.4921268,1.750164098,0,0,-0.671082,15.5, 2.9, 0.4,0,0,1024,1024,1024,1024,14.1,-89.9,94,3.795,3.792,3.822,3.844,0,0,17.279,62.6,14,Waypoint,
36.6440375,-118.9467537,4836.1192384172,29.855644,0,1.79793640924,8700,2018-04-13 17:38:26,14,0,22.978,4836.1192384172,29.855644,0.4921268,1.79793640924,0,0,-0.671082,15.6, 2.7, 0.6,0,0,1024,1024,1024,1024,14.1,-89.9,94,3.795,3.792,3.822,3.844,0,0,17.279,62.6,14,Waypoint,
36.6440376,-118.9467535,4837.1034904172,30.839896,0,1.80249021516,8800,2018-04-13 17:38:26,14,0,22.978,4837.1034904172,30.839896,0.4921268,1.80249021516,0,0,-0.671082,15.6, 2.6, 0.6,0,0,1024,1024,1024,1024,14.1,-89.9,94,3.795,3.792,3.822,3.844,0,0,17.279,62.6,14,Waypoint,
36.6440377,-118.9467533,4838.0877424172,31.824148,0,1.80966541224,8900,2018-04-13 17:38:26,14,0,22.978,4838.0877424172,31.824148,0.4921268,1.80966541224,0,0,-0.671082,15.6, 2.7, 0.4,0,0,1024,1024,1024,1024,14.1,-89.9,94,3.795,3.792,3.822,3.844,0,0,17.279,62.6,14,Waypoint,
36.6440378,-118.9467531,4839.0719944172,32.8084,0,1.81943247292,9000,2018-04-13 17:38:26,14,0,22.518,4839.0719944172,32.8084,0.4921268,1.81943247292,0,0,-0.671082,15.6, 2.9, 0.2,0,0,1024,1024,1024,1024,14.2,-89.9,94,3.733,3.746,3.732,3.793,0,0,20.225,62.6,14,Waypoint,
36.6440379,-118.9467529,4840.0562464172,33.792652,0,1.8317421846,9100,2018-04-13 17:38:26,14,0,22.518,4840.0562464172,33.792652,0.4921268,1.8317421846,0,0,-0.671082,15.6, 2.7, 0.2,0,0,1024,1024,1024,1024,14.2,-89.9,94,3.733,3.746,3.732,3.793,0,0,20.225,62.6,14,Waypoint,
36.644038,-118.9467527,4841.0404984172,34.776904,0,1.84655189636,9200,2018-04-13 17:38:26,14,0,22.518,4841.0404984172,34.776904,0.4921268,1.84655189636,0,0,-0.671082,15.5, 2.5, 0,0,0,1024,1024,1024,1024,14.2,-89.9,94,3.733,3.746,3.732,3.793,0,0,20.225,62.6,14,Waypoint,
36.644038,-118.9467525,4842.3528344172,36.08924,0,1.82883207952,9310,2018-04-13 17:38:26,14,0,22.518,4842.3528344172,36.08924,0.4921268,1.84655189636,0,0,-0.671082,15.4, 2.4, -0.2,0,0,1024,1024,1024,1024,14.2,-89.9,94,3.733,3.746,3.732,3.793,0,0,20.225,62.6,14,Waypoint,
36.6440381,-118.9467524,4843.3370864172,37.073492,0,1.85573496752,9400,2018-04-13 17:38:26,15,0,22.518,4843.3370864172,37.073492,0.4921268,1.85573496752,0,0,-0.671082,15.3, 2.6, -0.4,0,0,1024,1024,1024,1024,14.2,-89.9,94,3.733,3.746,3.732,3.793,0,0,20.225,62.6,14,Waypoint,
36.6440382,-118.9467523,4844.3213384172,38.057744,0,1.88341869544,9500,2018-04-13 17:38:26,15,0,22.518,4844.3213384172,38.057744,0.4921268,1.88341869544,0,0,-0.671082,15.3, 2.7, -0.5,0,0,1024,1024,1024,1024,14.3,-89.9,94,3.733,3.746,3.732,3.793,0,0,20.225,62.6,14,Waypoint,
36.6440383,-118.9467522,4845.3055904172,39.041996,0,1.9118438932,9700,2018-04-13 17:38:27,16,0,22.518,4845.3055904172,39.041996,0.4921268,1.9118438932,0,0,-0.671082,15.3, 2.8, -0.2,0,0,1024,1024,1024,1024,14.3,-89.9,94,3.733,3.746,3.732,3.793,0,0,20.225,62.6,14,Waypoint,
36.6440383,-118.9467521,4846.2898424172,40.026248,0,1.9053314258,9800,2018-04-13 17:38:27,16,0,22.518,4846.2898424172,40.026248,0.4921268,1.9118438932,0,0,-0.671082,15.3, 3, 0,0,0,1024,1024,1024,1024,14.3,-89.9,94,3.733,3.746,3.732,3.793,0,0,20.225,62.6,14,Waypoint,
36.6440384,-118.9467521,4847.2740944172,41.0105,0,1.9409777524,9900,2018-04-13 17:38:27,16,0,22.518,4847.2740944172,41.0105,0.4921268,1.9409777524,0,0,-0.671082,15.3, 3, 0,0,0,1024,1024,1024,1024,14.3,-89.9,94,3.733,3.746,3.732,3.793,0,0,20.225,62.6,14,Waypoint,
36.6440385,-118.9467521,4848.2583464172,41.994752,0,1.9766568874,10000,2018-04-13 17:38:27,16,0,22.518,4848.2583464172,41.994752,0.4921268,1.9766568874,0,0,-0.671082,15.3, 2.9, 0,0,0,1024,1024,1024,1024,14.3,-89.9,94,3.733,3.746,3.732,3.793,0,0,20.225,62.6,14,Waypoint,
36.6440385,-118.9467521,4851.5391864172,45.275592,0,1.9766568874,10200,2018-04-13 17:38:27,15,0,22.518,4851.5391864172,45.275592,0.4921268,1.9766568874,0,0,-0.671082,15.5, 2.4, 0.7,0,0,1024,1024,1024,1024,14.3,-89.9,94,3.733,3.746,3.732,3.793,0,0,20.225,62.6,14,Waypoint,
36.6440385,-118.9467521,4852.5234384172,46.259844,0.223694,1.9766568874,10300,2018-04-13 17:38:27,15,0,22.518,4852.5234384172,46.259844,0.4921268,1.9766568874,0,0,-0.671082,15.5, 2.4, 0.8,0,0,1024,1024,1024,1024,14.3,-89.9,94,3.733,3.746,3.732,3.793,0,0,20.225,62.6,14,Waypoint,
36.6440384,-118.946752,4853.5076904172,47.244096,0.223694,1.93500990444,10400,2018-04-13 17:38:27,16,0,22.518,4853.5076904172,47.244096,0.4921268,1.9766568874,0,0,-0.671082,15.6, 2.4, 0.5,0,0,1024,1024,1024,1024,14.3,-89.9,94,3.733,3.746,3.732,3.793,0,0,20.225,62.6,14,Waypoint,
36.6440384,-118.946752,4854.4919424172,48.228348,0.223694,1.93500990444,10500,2018-04-13 17:38:27,16,0,22.518,4854.4919424172,48.228348,0.4921268,1.9766568874,0,0,-0.671082,15.6, 2.2, 0,0,0,1024,1024,1024,1024,14.3,-89.9,94,3.733,3.746,3.732,3.793,0,0,20.225,62.6,14,Waypoint,
36.6440383,-118.9467519,4855.4761944172,49.2126,0.223694,1.8936024228,10600,2018-04-13 17:38:27,15,0,22.518,4855.4761944172,49.2126,0.4921268,1.9766568874,0,0,-0.671082,15.5, 2.1, -0.7,0,0,1024,1024,1024,1024,14.3,-89.9,94,3.733,3.746,3.732,3.793,0,0,20.225,62.6,14,Waypoint,
36.6440382,-118.9467518,4856.1323624172,49.868768,0.223694,1.85245084668,10700,2018-04-13 17:38:28,15,0,22.518,4856.1323624172,49.868768,0.4921268,1.9766568874,0,0,-0.671082,15.3, 2.1, -1.1,0,0,1024,1024,1024,1024,14.3,-89.9,94,3.733,3.746,3.732,3.793,0,0,20.225,62.6,14,Waypoint,
36.6440382,-118.9467518,4857.1166144172,50.85302,0.223694,1.85245084668,10800,2018-04-13 17:38:28,15,0,22.518,4857.1166144172,50.85302,0.4921268,1.9766568874,0,0,-0.671082,15.2, 2.1, -1,0,0,1024,1024,1024,1024,14.3,-89.9,94,3.733,3.746,3.732,3.793,0,0,20.225,62.6,14,Waypoint,
36.6440381,-118.9467518,4858.1008664172,51.837272,0.223694,1.81653221036,10900,2018-04-13 17:38:28,15,0,22.518,4858.1008664172,51.837272,0.4921268,1.9766568874,0,0,-0.671082,15.2, 2, -0.8,0,0,1024,1024,1024,1024,14.3,-89.9,94,3.733,3.746,3.732,3.793,0,0,20.225,62.6,14,Waypoint,
36.644038,-118.9467519,4859.0851184172,52.821524,0.223694,1.78616147448,11000,2018-04-13 17:38:28,15,0,22.454,4859.0851184172,52.821524,0.4921268,1.9766568874,0,0,-0.671082,15.2, 2, -0.4,0,0,1024,1024,1024,1024,14.3,-89.9,93,3.738,3.753,3.739,3.784,0,0,20.513,62.6,14,Waypoint,
36.6440379,-118.946752,4860.0693704172,53.805776,0.223694,1.7565125234,11100,2018-04-13 17:38:28,15,0,22.454,4860.0693704172,53.805776,0.4921268,1.9766568874,0,0,-0.671082,15.2, 2.2, 0,0,0,1024,1024,1024,1024,14.3,-89.9,93,3.738,3.753,3.739,3.784,0,0,20.513,62.6,14,Waypoint,
36.6440379,-118.9467521,4861.0536224172,54.790028,0.223694,1.76308732676,11200,2018-04-13 17:38:28,15,0,22.454,4861.0536224172,54.790028,0.4921268,1.9766568874,0,0,-0.671082,15.3, 2.3, 0.3,0,0,1024,1024,1024,1024,14.3,-89.9,93,3.738,3.753,3.739,3.784,0,0,20.513,62.6,14,Waypoint,
36.6440378,-118.9467522,4862.0378744172,55.77428,0.223694,1.73479992428,11300,2018-04-13 17:38:28,15,0,22.454,4862.0378744172,55.77428,0.4921268,1.9766568874,0,0,-0.671082,15.3, 2.2, 0.3,0,0,1024,1024,1024,1024,14.3,-89.9,93,3.738,3.753,3.739,3.784,0,0,20.513,62.6,14,Waypoint,
36.6440377,-118.9467522,4863.0221264172,56.758532,0.223694,1.69952761344,11400,2018-04-13 17:38:28,16,0,22.454,4863.0221264172,56.758532,0.4921268,1.9766568874,0,0,-0.671082,15.3, 2, 0.2,0,0,1024,1024,1024,1024,14.3,-89.9,93,3.738,3.753,3.739,3.784,0,0,20.513,62.6,14,Waypoint,
36.6440377,-118.9467523,4864.0063784172,57.742784,0.223694,1.70732617012,11500,2018-04-13 17:38:28,16,0,22.454,4864.0063784172,57.742784,0.4921268,1.9766568874,0,0,-0.671082,15.2, 1.7, 0.1,0,0,1024,1024,1024,1024,14.3,-89.9,93,3.738,3.753,3.739,3.784,0,0,20.513,62.6,14,Waypoint,
36.6440375,-118.9467524,4864.9906304172,58.727036,0.223694,1.64589244112,11600,2018-04-13 17:38:28,16,0,22.454,4864.9906304172,58.727036,0.4921268,1.9766568874,0,0,-0.671082,15.1, 1.5, 0,0,0,1024,1024,1024,1024,14.3,-89.9,93,3.738,3.753,3.739,3.784,0,0,20.513,62.6,14,Waypoint,
36.6440374,-118.9467525,4865.9748824172,59.711288,0.223694,1.62043312272,11700,2018-04-13 17:38:29,16,0,22.454,4865.9748824172,59.711288,0.4921268,1.9766568874,0,0,-0.671082,15.1, 1.3, 0,0,0,1024,1024,1024,1024,14.3,-90,93,3.738,3.753,3.739,3.784,0,0,20.513,62.6,14,Waypoint,
36.6440373,-118.9467526,4866.9591344172,60.69554,0.223694,1.59594165212,11900,2018-04-13 17:38:29,16,0,22.454,4866.9591344172,60.69554,0.4921268,1.9766568874,0,0,-0.671082,15.1, 0.9, 0,0,0,1024,1024,1024,1024,14.3,-90,93,3.738,3.753,3.739,3.784,0,0,20.513,62.6,14,Waypoint,
36.6440371,-118.9467527,4868.9276384172,62.664044,0.223694,1.53865818572,12100,2018-04-13 17:38:29,16,0,22.454,4868.9276384172,62.664044,0.4921268,1.9766568874,0,0,-0.671082,15.1, 0.9, 0,0,0,1024,1024,1024,1024,14.3,-89.9,93,3.738,3.753,3.739,3.784,0,0,20.513,62.6,14,Waypoint,
36.644037,-118.9467528,4869.9118904172,63.648296,0,1.51661094092,12200,2018-04-13 17:38:29,16,0,22.454,4869.9118904172,63.648296,0.4921268,1.9766568874,0,0,-0.671082,15.2, 0.9, 0,0,0,1024,1024,1024,1024,14.3,-89.9,93,3.738,3.753,3.739,3.784,0,0,20.513,62.6,14,Waypoint,
36.6440369,-118.9467528,4870.8961424172,64.632548,0,1.48333009996,12300,2018-04-13 17:38:29,15,0,22.454,4870.8961424172,64.632548,0.4921268,1.9766568874,0,0,-0.671082,15.2, 1.1, 0,0,0,1024,1024,1024,1024,14.3,-89.9,93,3.738,3.753,3.739,3.784,0,0,20.513,62.6,14,Waypoint,
36.6440367,-118.9467528,4872.5365624172,66.272968,0,1.41724413984,12400,2018-04-13 17:38:29,16,0,22.454,4872.5365624172,66.272968,0.4921268,1.9766568874,0,0,-0.671082,15.3, 1.4, 0,0,0,1024,1024,1024,1024,14.3,-89.9,93,3.738,3.753,3.739,3.784,0,0,20.513,62.6,14,Waypoint,
36.6440366,-118.9467529,4873.8488984172,67.585304,0,1.39770673764,12500,2018-04-13 17:38:29,16,0,22.454,4873.8488984172,67.585304,0.4921268,1.9766568874,0,0,-0.671082,15.3, 1.4, 0,0,0,1024,1024,1024,1024,14.3,-89.9,93,3.738,3.753,3.739,3.784,0,0,20.513,62.6,14,Waypoint,
36.6440365,-118.9467529,4874.8331504172,68.569556,0,1.36542983372,12600,2018-04-13 17:38:29,16,0,22.454,4874.8331504172,68.569556,0.4921268,1.9766568874,0,0,-0.671082,15.3, 1.1, -0.2,0,0,1024,1024,1024,1024,14.3,-90,93,3.738,3.753,3.739,3.784,0,0,20.513,62.6,14,Waypoint,
36.6440364,-118.946753,4875.8174024172,69.553808,0,1.3477526678,12700,2018-04-13 17:38:30,16,0,22.454,4875.8174024172,69.553808,0.4921268,1.9766568874,0,0,-0.671082,15.4, 0.9, -0.2,0,0,1024,1024,1024,1024,14.3,-90,93,3.738,3.753,3.739,3.784,0,0,20.513,62.6,14,Waypoint,
36.6440364,-118.946753,4876.8016544172,70.53806,0,1.3477526678,12800,2018-04-13 17:38:30,16,0,22.454,4876.8016544172,70.53806,0.4921268,1.9766568874,0,0,-0.671082,15.4, 1.1, -0.2,0,0,1024,1024,1024,1024,14.3,-89.9,93,3.738,3.753,3.739,3.784,0,0,20.513,62.6,14,Waypoint,
36.6440363,-118.9467529,4877.4578224172,71.194228,0,1.3015420364,12900,2018-04-13 17:38:30,16,0,22.454,4877.4578224172,71.194228,0.4921268,1.9766568874,0,0,-0.671082,15.5, 1.2, -0.2,0,0,1024,1024,1024,1024,14.3,-89.9,93,3.738,3.753,3.739,3.784,0,0,20.513,62.6,14,Waypoint,
36.6440363,-118.9467529,4878.7701584172,72.506564,0,1.3015420364,13000,2018-04-13 17:38:30,16,0,22.277,4878.7701584172,72.506564,0.4921268,1.9766568874,0,0,-0.671082,15.4, 1.3, -0.4,0,0,1024,1024,1024,1024,14.3,-89.9,93,3.679,3.704,3.677,3.744,0,0,21.085,62.6,14,Waypoint,
36.6440363,-118.946753,4879.7544104172,73.490816,0,1.316273008,13100,2018-04-13 17:38:30,16,0,22.277,4879.7544104172,73.490816,0.4921268,1.9766568874,0,0,-0.671082,15.3, 1.2, -0.8,0,0,1024,1024,1024,1024,14.3,-89.9,93,3.679,3.704,3.677,3.744,0,0,21.085,62.6,14,Waypoint,
36.6440363,-118.946753,4880.7386624172,74.475068,0,1.316273008,13200,2018-04-13 17:38:30,16,0,22.277,4880.7386624172,74.475068,0.4921268,1.9766568874,0,0,-0.671082,15.3, 1.3, -0.7,0,0,1024,1024,1024,1024,14.3,-89.9,93,3.679,3.704,3.677,3.744,0,0,21.085,62.6,14,Waypoint,
36.6440363,-118.9467529,4881.7229144172,75.45932,0,1.3015420364,13300,2018-04-13 17:38:30,16,0,22.277,4881.7229144172,75.45932,0.4921268,1.9766568874,0,0,-0.671082,15.3, 1.4, -0.4,0,0,1024,1024,1024,1024,14.3,-89.9,93,3.679,3.704,3.677,3.744,0,0,21.085,62.6,14,Waypoint,
36.6440363,-118.9467529,4882.7071664172,76.443572,0,1.3015420364,13400,2018-04-13 17:38:30,16,0,22.277,4882.7071664172,76.443572,0.4921268,1.9766568874,0,0,-0.671082,15.3, 1.7, -0.2,0,0,1024,1024,1024,1024,14.3,-89.9,93,3.679,3.704,3.677,3.744,0,0,21.085,62.6,14,Waypoint,
36.6440363,-118.946753,4883.6914184172,77.427824,0,1.316273008,13500,2018-04-13 17:38:30,16,0,22.277,4883.6914184172,77.427824,0.4921268,1.9766568874,0,0,-0.671082,15.3, 1.8, 0,0,0,1024,1024,1024,1024,14.3,-89.9,93,3.679,3.704,3.677,3.744,0,0,21.085,62.6,14,Waypoint,
36.6440363,-118.946753,4884.6756704172,78.412076,0,1.316273008,13600,2018-04-13 17:38:30,16,0,22.277,4884.6756704172,78.412076,0.4921268,1.9766568874,0,0,-0.671082,15.2, 1.9, 0.1,0,0,1024,1024,1024,1024,14.3,-89.9,93,3.679,3.704,3.677,3.744,0,0,21.085,62.6,14,Waypoint,
36.6440363,-118.946753,4885.6599224172,79.396328,0,1.316273008,13700,2018-04-13 17:38:31,16,0,22.277,4885.6599224172,79.396328,0.4921268,1.9766568874,0,0,-0.671082,15, 2.1, 0,0,0,1024,1024,1024,1024,14.3,-89.9,93,3.679,3.704,3.677,3.744,0,0,21.085,62.6,14,Waypoint,
36.6440363,-118.9467529,4886.6441744172,80.38058,0,1.3015420364,13800,2018-04-13 17:38:31,16,0,22.277,4886.6441744172,80.38058,0.4921268,1.9766568874,0,0,-0.671082,14.9, 2, -0.3,0,0,1024,1024,1024,1024,14.3,-89.9,93,3.679,3.704,3.677,3.744,0,0,21.085,62.6,14,Waypoint,
36.6440363,-118.9467529,4887.6284264172,81.364832,0,1.3015420364,13910,2018-04-13 17:38:31,16,0,22.277,4887.6284264172,81.364832,0.4921268,1.9766568874,0,0,-0.671082,14.9, 1.9, -0.4,0,0,1024,1024,1024,1024,14.3,-89.9,93,3.679,3.704,3.677,3.744,0,0,21.085,62.6,14,Waypoint,
36.6440363,-118.9467529,4888.9407624172,82.677168,0,1.3015420364,14000,2018-04-13 17:38:31,16,0,22.208,4888.9407624172,82.677168,0.4921268,1.9766568874,0,0,-0.671082,14.9, 1.8, -0.4,0,0,1024,1024,1024,1024,14.3,-89.9,93,3.669,3.691,3.67,3.737,0,0,21.412,62.6,14,Waypoint,
36.6440364,-118.9467528,4889.9250144172,83.66142,0,1.31947838868,14100,2018-04-13 17:38:31,16,0,22.208,4889.9250144172,83.66142,0.4921268,1.9766568874,0,0,-0.671082,14.9, 1.8, -0.5,0,0,1024,1024,1024,1024,14.3,-89.9,93,3.669,3.691,3.67,3.737,0,0,21.412,62.6,14,Waypoint,
36.6440364,-118.9467528,4890.9092664172,84.645672,0,1.31947838868,14200,2018-04-13 17:38:31,16,0,22.208,4890.9092664172,84.645672,0.4921268,1.9766568874,0,0,-0.671082,15, 1.9, -0.6,0,0,1024,1024,1024,1024,14.3,-89.9,93,3.669,3.691,3.67,3.737,0,0,21.412,62.6,14,Waypoint,
36.6440364,-118.9467527,4891.8935184172,85.629924,0,1.30609584232,14300,2018-04-13 17:38:31,16,0,22.208,4891.8935184172,85.629924,0.4921268,1.9766568874,0,0,-0.671082,15.1, 1.9, -0.8,0,0,1024,1024,1024,1024,14.3,-89.9,93,3.669,3.691,3.67,3.737,0,0,21.412,62.6,14,Waypoint,
36.6440364,-118.9467527,4892.5496864172,86.286092,0,1.30609584232,14400,2018-04-13 17:38:31,16,0,22.208,4892.5496864172,86.286092,0.4921268,1.9766568874,0,0,-0.671082,15.1, 1.9, -0.8,0,0,1024,1024,1024,1024,14.3,-89.9,93,3.669,3.691,3.67,3.737,0,0,21.412,62.6,14,Waypoint,
36.6440364,-118.9467526,4893.5339384172,87.270344,0,1.29323823036,14600,2018-04-13 17:38:31,16,0,22.208,4893.5339384172,87.270344,0.4921268,1.9766568874,0,0,-0.671082,15.2, 1.8, -0.7,0,0,1024,1024,1024,1024,14.3,-90,93,3.669,3.691,3.67,3.737,0,0,21.412,62.6,14,Waypoint,
36.6440364,-118.9467526,4894.5181904172,88.254596,0,1.29323823036,14700,2018-04-13 17:38:32,16,0,22.208,4894.5181904172,88.254596,0.4921268,1.9766568874,0,0,-0.671082,15.3, 1.7, -0.8,0,0,1024,1024,1024,1024,14.3,-89.9,93,3.669,3.691,3.67,3.737,0,0,21.412,62.6,14,Waypoint,
36.6440364,-118.9467526,4895.5024424172,89.238848,0,1.29323823036,14800,2018-04-13 17:38:32,16,0,22.208,4895.5024424172,89.238848,0.4921268,1.9766568874,0,0,-0.671082,15.4, 1.6, -0.9,0,0,1024,1024,1024,1024,14.3,-90,93,3.669,3.691,3.67,3.737,0,0,21.412,62.6,14,Waypoint,
36.6440364,-118.9467525,4896.4866944172,90.2231,0,1.28091867616,14900,2018-04-13 17:38:32,16,0,22.208,4896.4866944172,90.2231,0.4921268,1.9766568874,0,0,-0.671082,15.4, 1.6, -1,0,0,1024,1024,1024,1024,14.3,-89.9,93,3.669,3.691,3.67,3.737,0,0,21.412,62.6,14,Waypoint,
36.6440363,-118.9467524,4898.4551984172,92.191604,0,1.2356791734,15000,2018-04-13 17:38:32,16,0,22.218,4898.4551984172,92.191604,0.4921268,1.9766568874,0,0,-0.671082,15.3, 1.4, -1.2,0,0,1024,1024,1024,1024,14.3,-89.9,93,3.681,3.69,3.678,3.743,0,0,20.776,62.6,14,Waypoint,
36.6440363,-118.9467523,4900.4237024172,94.160108,0,1.2241798292,15200,2018-04-13 17:38:32,16,0,22.218,4900.4237024172,94.160108,0.4921268,1.9766568874,0,0,-0.671082,15.4, 1.3, -1.3,0,0,1024,1024,1024,1024,14.3,-89.9,93,3.681,3.69,3.678,3.743,0,0,20.776,62.6,14,Waypoint,
36.6440363,-118.9467523,4901.4079544172,95.14436,0,1.2241798292,15300,2018-04-13 17:38:32,16,0,22.218,4901.4079544172,95.14436,0.4921268,1.9766568874,0,0,-0.671082,15.3, 1.3, -1.5,0,0,1024,1024,1024,1024,14.3,-89.9,93,3.681,3.69,3.678,3.743,0,0,20.776,62.6,14,Waypoint,
36.6440363,-118.9467522,4902.3922064172,96.128612,0,1.21328087872,15400,2018-04-13 17:38:32,16,0,22.218,4902.3922064172,96.128612,0.4921268,1.9766568874,0,0,-0.671082,15.2, 1.4, -1.6,0,0,1024,1024,1024,1024,14.3,-89.9,93,3.681,3.69,3.678,3.743,0,0,20.776,62.6,14,Waypoint,
36.6440362,-118.9467522,4903.3764584172,97.112864,0,1.17934386976,15500,2018-04-13 17:38:32,16,0,22.218,4903.3764584172,97.112864,0.4921268,1.9766568874,0,0,-0.671082,14.9, 1.5, -1.5,0,0,1024,1024,1024,1024,14.3,-89.9,93,3.681,3.69,3.678,3.743,0,0,20.776,62.6,14,Waypoint,
36.6440362,-118.9467522,4904.6887944172,98.4252,0,1.17934386976,15600,2018-04-13 17:38:32,16,0,22.218,4904.6887944172,98.4252,0.4921268,1.9766568874,0,0,-0.671082,14.7, 1.2, -1.2,0,0,1024,1024,1024,1024,14.3,-90,93,3.681,3.69,3.678,3.743,0,0,20.776,62.6,14,Waypoint,
36.6440361,-118.9467523,4905.6730464172,99.409452,0,1.15709977456,15700,2018-04-13 17:38:33,16,0,22.218,4905.6730464172,99.409452,0.4921268,1.9766568874,0,0,-0.671082,14.6, 0.8, -0.7,0,0,1024,1024,1024,1024,14.3,-90,93,3.681,3.69,3.678,3.743,0,0,20.776,62.6,14,Waypoint,
36.6440361,-118.9467523,4906.6572984172,100.393704,0,1.15709977456,15800,2018-04-13 17:38:33,16,0,22.218,4906.6572984172,100.393704,0.4921268,1.9766568874,0,0,-0.671082,14.5, 0.5, -0.4,0,0,1024,1024,1024,1024,14.3,-90,93,3.681,3.69,3.678,3.743,0,0,20.776,62.6,14,Waypoint,
36.6440361,-118.9467523,4907.6415504172,101.377956,0,1.15709977456,15900,2018-04-13 17:38:33,16,0,22.218,4907.6415504172,101.377956,0.4921268,1.9766568874,0,0,-0.671082,14.6, 0.4, -0.4,0,0,1024,1024,1024,1024,14.3,-90,93,3.681,3.69,3.678,3.743,0,0,20.776,62.6,14,Waypoint,
36.6440361,-118.9467522,4908.6258024172,102.362208,0,1.14556434112,16000,2018-04-13 17:38:33,16,0,22.153,4908.6258024172,102.362208,0.4921268,1.9766568874,0,0,-0.671082,14.8, 0.3, -0.8,0,0,1024,1024,1024,1024,14.3,-90,93,3.662,3.666,3.664,3.73,0,0,21.357,62.6,14,Waypoint,
36.644036,-118.9467522,4909.6100544172,103.34646,0,1.11195213532,16100,2018-04-13 17:38:33,16,0,22.153,4909.6100544172,103.34646,0.4921268,1.9766568874,0,0,-0.671082,15.1, 0.3, -0.9,0,0,1024,1024,1024,1024,14.3,-90,93,3.662,3.666,3.664,3.73,0,0,21.357,62.6,14,Waypoint,
36.644036,-118.9467521,4910.5943064172,104.330712,0,1.10072182,16200,2018-04-13 17:38:33,16,0,22.153,4910.5943064172,104.330712,0.4921268,1.9766568874,0,0,-0.671082,15.3, 0.7, -1,0,0,1024,1024,1024,1024,14.3,-89.9,93,3.662,3.666,3.664,3.73,0,0,21.357,62.6,14,Waypoint,
36.644036,-118.9467521,4911.5785584172,105.314964,0,1.10072182,16300,2018-04-13 17:38:33,16,0,22.153,4911.5785584172,105.314964,0.4921268,1.9766568874,0,0,-0.671082,15.5, 0.9, -1.4,0,0,1024,1024,1024,1024,14.3,-89.9,93,3.662,3.666,3.664,3.73,0,0,21.357,62.6,14,Waypoint,
36.644036,-118.9467521,4912.5628104172,106.299216,0,1.10072182,16400,2018-04-13 17:38:33,16,0,22.153,4912.5628104172,106.299216,0.4921268,1.9766568874,0,0,-0.671082,15.7, 1, -1.7,0,0,1024,1024,1024,1024,14.3,-89.9,93,3.662,3.666,3.664,3.73,0,0,21.357,62.6,14,Waypoint,
36.644036,-118.946752,4913.5470624172,107.283468,0,1.09016079604,16510,2018-04-13 17:38:33,16,0,22.153,4913.5470624172,107.283468,0.4921268,1.9766568874,0,0,-0.671082,15.9, 0.9, -1.7,0,0,1024,1024,1024,1024,14.3,-89.9,93,3.662,3.666,3.664,3.73,0,0,21.357,62.6,14,Waypoint,
36.644036,-118.946752,4914.2032304172,107.939636,0,1.09016079604,16600,2018-04-13 17:38:33,16,0,22.153,4914.2032304172,107.939636,0.4921268,1.9766568874,0,0,-0.671082,15.9, 1, -1.6,0,0,1024,1024,1024,1024,14.3,-89.9,93,3.662,3.666,3.664,3.73,0,0,21.357,62.6,14,Waypoint,
36.644036,-118.9467519,4915.1874824172,108.923888,0,1.08028874848,16700,2018-04-13 17:38:34,16,0,22.153,4915.1874824172,108.923888,0.4921268,1.9766568874,0,0,-0.671082,15.9, 1, -1.6,0,0,1024,1024,1024,1024,14.3,-89.9,93,3.662,3.666,3.664,3.73,0,0,21.357,62.6,14,Waypoint,
36.644036,-118.9467519,4916.1717344172,109.90814,0,1.08028874848,16800,2018-04-13 17:38:34,16,0,22.153,4916.1717344172,109.90814,0.4921268,1.9766568874,0,0,-0.671082,15.8, 1.1, -1.3,0,0,1024,1024,1024,1024,14.3,-89.9,93,3.662,3.666,3.664,3.73,0,0,21.357,62.6,14,Waypoint,
36.644036,-118.9467519,4917.1559864172,110.892392,0,1.08028874848,16900,2018-04-13 17:38:34,16,0,22.153,4917.1559864172,110.892392,0.4921268,1.9766568874,0,0,-0.671082,15.6, 1.3, -1,0,0,1024,1024,1024,1024,14.3,-89.9,93,3.662,3.666,3.664,3.73,0,0,21.357,62.6,14,Waypoint,
36.6440361,-118.9467519,4918.7964064172,112.532812,0,1.11485567872,17110,2018-04-13 17:38:34,16,0,22.153,4918.7964064172,112.532812,0.4921268,1.9766568874,0,0,-0.671082,15.4, 1.6, -1,0,0,1024,1024,1024,1024,14.3,-89.9,93,3.662,3.666,3.664,3.73,0,0,21.357,62.6,14,Waypoint,
36.6440361,-118.9467519,4919.7806584172,113.517064,0,1.11485567872,17300,2018-04-13 17:38:34,16,0,22.153,4919.7806584172,113.517064,0.4921268,1.9766568874,0,0,-0.671082,15.3, 1.5, -1.1,0,0,1024,1024,1024,1024,14.3,-89.9,93,3.662,3.666,3.664,3.73,0,0,21.357,62.6,14,Waypoint,
36.6440361,-118.9467519,4921.7491624172,115.485568,0,1.11485567872,17400,2018-04-13 17:38:34,16,0,22.153,4921.7491624172,115.485568,0.4921268,1.9766568874,0,0,-0.671082,15.2, 1.3, -1.6,0,0,1024,1024,1024,1024,14.3,-89.9,93,3.662,3.666,3.664,3.73,0,0,21.357,62.6,14,Waypoint,
36.6440361,-118.9467519,4922.7334144172,116.46982,0,1.11485567872,17500,2018-04-13 17:38:34,16,0,22.153,4922.7334144172,116.46982,0.4921268,1.9766568874,0,0,-0.671082,15.2, 1.4, -1.2,0,0,1024,1024,1024,1024,14.3,-89.9,93,3.662,3.666,3.664,3.73,0,0,21.357,62.6,14,Waypoint,
36.6440361,-118.9467519,4923.7176664172,117.454072,0,1.11485567872,17600,2018-04-13 17:38:34,16,0,22.153,4923.7176664172,117.454072,0.4921268,1.9766568874,0,0,-0.671082,15.2, 1.4, -0.9,0,0,1024,1024,1024,1024,14.3,-89.9,93,3.662,3.666,3.664,3.73,0,0,21.357,62.6,14,Waypoint,
36.6440362,-118.946752,4924.3738344172,118.11024,0,1.15881893472,17700,2018-04-13 17:38:35,16,0,22.153,4924.3738344172,118.11024,0.4921268,1.9766568874,0,0,-0.671082,15.2, 1.5, -0.5,0,0,1024,1024,1024,1024,14.3,-89.9,93,3.662,3.666,3.664,3.73,0,0,21.357,62.6,14,Waypoint,
36.6440362,-118.946752,4925.3580864172,119.094492,0,1.15881893472,17800,2018-04-13 17:38:35,16,0,22.153,4925.3580864172,119.094492,0.4921268,1.9766568874,0,0,-0.671082,15.2, 1.7, -0.4,0,0,1024,1024,1024,1024,14.3,-89.9,93,3.662,3.666,3.664,3.73,0,0,21.357,62.6,14,Waypoint,
36.6440362,-118.946752,4926.3423384172,120.078744,0,1.15881893472,17900,2018-04-13 17:38:35,16,0,22.153,4926.3423384172,120.078744,0.4921268,1.9766568874,0,0,-0.671082,15.2, 1.7, -0.5,0,0,1024,1024,1024,1024,14.3,-89.9,93,3.662,3.666,3.664,3.73,0,0,21.357,62.6,14,Waypoint,
36.6440362,-118.946752,4927.3265904172,121.062996,0,1.15881893472,18000,2018-04-13 17:38:35,16,0,22.144,4927.3265904172,121.062996,0.4921268,1.9766568874,0,0,-0.671082,15.2, 1.6, -0.9,0,0,1024,1024,1024,1024,14.3,-89.9,93,3.663,3.661,3.66,3.725,0,0,20.918,62.6,14,Waypoint,
36.6440362,-118.946752,4928.6389264172,122.375332,0,1.15881893472,18100,2018-04-13 17:38:35,16,0,22.144,4928.6389264172,122.375332,0.4921268,1.9766568874,0,0,-0.671082,15.1, 1.5, -1.3,0,0,1024,1024,1024,1024,14.3,-89.9,93,3.663,3.661,3.66,3.725,0,0,20.918,62.6,14,Waypoint,
36.6440363,-118.946752,4929.6231784172,123.359584,0,1.1933399332,18200,2018-04-13 17:38:35,16,0,22.144,4929.6231784172,123.359584,0.4921268,1.9766568874,0,0,-0.671082,15.1, 1.4, -1.4,0,0,1024,1024,1024,1024,14.3,-89.9,93,3.663,3.661,3.66,3.725,0,0,20.918,62.6,14,Waypoint,
36.6440363,-118.946752,4930.6074304172,124.343836,0,1.1933399332,18300,2018-04-13 17:38:35,16,0,22.144,4930.6074304172,124.343836,0.4921268,1.9766568874,0,0,-0.671082,15, 1.5, -1.4,0,0,1024,1024,1024,1024,14.3,-89.9,93,3.663,3.661,3.66,3.725,0,0,20.918,62.6,14,Waypoint,
36.6440363,-118.946752,4931.5916824172,125.328088,0,1.1933399332,18400,2018-04-13 17:38:35,16,0,22.144,4931.5916824172,125.328088,0.4921268,1.9766568874,0,0,-0.671082,15, 1.5, -1.1,0,0,1024,1024,1024,1024,14.3,-89.9,93,3.663,3.661,3.66,3.725,0,0,20.918,62.6,14,Waypoint,
36.6440363,-118.946752,4932.5759344172,126.31234,0,1.1933399332,18500,2018-04-13 17:38:35,16,0,22.144,4932.5759344172,126.31234,0.4921268,1.9766568874,0,0,-0.671082,15, 1.4, -0.9,0,0,1024,1024,1024,1024,14.3,-89.9,93,3.663,3.661,3.66,3.725,0,0,20.918,62.6,14,Waypoint,
36.6440363,-118.946752,4933.5601864172,127.296592,0,1.1933399332,18600,2018-04-13 17:38:35,16,0,22.144,4933.5601864172,127.296592,0.4921268,1.9766568874,0,0,-0.671082,15, 1.5, -0.9,0,0,1024,1024,1024,1024,14.3,-89.9,93,3.663,3.661,3.66,3.725,0,0,20.918,62.6,14,Waypoint,
36.6440363,-118.946752,4934.5444384172,128.280844,0,1.1933399332,18700,2018-04-13 17:38:36,16,0,22.144,4934.5444384172,128.280844,0.4921268,1.9766568874,0,0,-0.671082,15, 1.6, -0.9,0,0,1024,1024,1024,1024,14.3,-89.9,93,3.663,3.661,3.66,3.725,0,0,20.918,62.6,14,Waypoint,
36.6440363,-118.946752,4935.5286904172,129.265096,0,1.1933399332,18800,2018-04-13 17:38:36,16,0,22.144,4935.5286904172,129.265096,0.4921268,1.9766568874,0,0,-0.671082,15.2, 1.6, -1.2,0,0,1024,1024,1024,1024,14.3,-89.9,93,3.663,3.661,3.66,3.725,0,0,20.918,62.6,14,Waypoint,
36.6440363,-118.946752,4936.5129424172,130.249348,0,1.1933399332,18900,2018-04-13 17:38:36,16,0,22.144,4936.5129424172,130.249348,0.4921268,1.9766568874,0,0,-0.671082,15.4, 1.6, -1.4,0,0,1024,1024,1024,1024,14.3,-89.9,93,3.663,3.661,3.66,3.725,0,0,20.918,62.6,14,Waypoint,
36.6440363,-118.946752,4937.1691104172,130.905516,0,1.1933399332,19000,2018-04-13 17:38:36,16,0,22.016,4937.1691104172,130.905516,0.4921268,1.9766568874,0,0,-0.671082,15.6, 1.5, -1.3,0,0,1024,1024,1024,1024,14.3,-89.9,93,3.637,3.653,3.643,3.709,0,0,22.002,64.4,14,Waypoint,
36.6440363,-118.946752,4938.1533624172,131.889768,0,1.1933399332,19100,2018-04-13 17:38:36,16,0,22.016,4938.1533624172,131.889768,0.4921268,1.9766568874,0,0,-0.671082,15.7, 1.4, -0.9,0,0,1024,1024,1024,1024,14.3,-90,93,3.637,3.653,3.643,3.709,0,0,22.002,64.4,14,Waypoint,
36.6440363,-118.9467521,4939.1376144172,132.87402,0,1.20299544532,19200,2018-04-13 17:38:36,16,0,22.016,4939.1376144172,132.87402,0.4921268,1.9766568874,0,0,-0.671082,15.7, 1.3, -0.4,0,0,1024,1024,1024,1024,14.3,-89.9,93,3.637,3.653,3.643,3.709,0,0,22.002,64.4,14,Waypoint,
36.6440363,-118.9467523,4941.4342024172,135.170608,0,1.2241798292,19400,2018-04-13 17:38:36,16,0,22.016,4941.4342024172,135.170608,0.4921268,1.9766568874,0,0,-0.671082,15.9, 1.5, 0,0,0,1024,1024,1024,1024,14.3,-89.9,93,3.637,3.653,3.643,3.709,0,0,22.002,64.4,14,Waypoint,
36.6440362,-118.9467525,4943.4027064172,137.139112,0,1.2147802226,19700,2018-04-13 17:38:37,16,0,22.016,4943.4027064172,137.139112,0.4921268,1.9766568874,0,0,-0.671082,15.9, 1.5, 0,0,0,1024,1024,1024,1024,14.3,-89.9,93,3.637,3.653,3.643,3.709,0,0,22.002,64.4,14,Waypoint,
36.6440362,-118.9467526,4944.3869584172,138.123364,0,1.22776250648,19800,2018-04-13 17:38:37,16,0,22.016,4944.3869584172,138.123364,0.4921268,1.9766568874,0,0,-0.671082,15.9, 1.3, 0,0,0,1024,1024,1024,1024,14.3,-90,93,3.637,3.653,3.643,3.709,0,0,22.002,64.4,14,Waypoint,
36.6440362,-118.9467527,4945.3712104172,139.107616,0,1.24129925232,19900,2018-04-13 17:38:37,16,0,22.016,4945.3712104172,139.107616,0.4921268,1.9766568874,0,0,-0.671082,15.8, 1.1, 0.3,0,0,1024,1024,1024,1024,14.3,-90,93,3.637,3.653,3.643,3.709,0,0,22.002,64.4,14,Waypoint,
36.6440362,-118.9467529,4947.3397144172,141.07612,0,1.2699639514,20000,2018-04-13 17:38:37,16,0,22.016,4947.3397144172,141.07612,0.4921268,1.9766568874,0,0,-0.671082,15.7, 0.9, 0.5,0,0,1024,1024,1024,1024,14.3,-90,93,3.637,3.653,3.643,3.709,0,0,22.002,64.4,14,Waypoint,
36.6440362,-118.9467529,4948.3239664172,142.060372,0,1.2699639514,20100,2018-04-13 17:38:37,16,0,22.016,4948.3239664172,142.060372,0.4921268,1.9766568874,0,0,-0.671082,15.6, 1, 0.2,0,0,1024,1024,1024,1024,14.3,-89.9,93,3.637,3.653,3.643,3.709,0,0,22.002,64.4,14,Waypoint,
36.6440361,-118.9467529,4949.3082184172,143.044624,0,1.23865817612,20200,2018-04-13 17:38:37,16,0,22.016,4949.3082184172,143.044624,0.4921268,1.9766568874,0,0,-0.671082,15.4, 0.9, 0,0,0,1024,1024,1024,1024,14.3,-90,93,3.637,3.653,3.643,3.709,0,0,22.002,64.4,14,Waypoint,
36.6440361,-118.946753,4950.6205544172,144.35696,0,1.25412733672,20300,2018-04-13 17:38:37,16,0,22.016,4950.6205544172,144.35696,0.4921268,1.9766568874,0,0,-0.671082,15.3, 0.9, -0.1,0,0,1024,1024,1024,1024,14.3,-89.9,93,3.637,3.653,3.643,3.709,0,0,22.002,64.4,14,Waypoint,
36.6440361,-118.946753,4951.6048064172,145.341212,0,1.25412733672,20400,2018-04-13 17:38:37,16,0,22.016,4951.6048064172,145.341212,0.4921268,1.9766568874,0,0,-0.671082,15.2, 1, -0.1,0,0,1024,1024,1024,1024,14.3,-89.9,93,3.637,3.653,3.643,3.709,0,0,22.002,64.4,14,Waypoint,
36.6440361,-118.946753,4952.5890584172,146.325464,0,1.25412733672,20500,2018-04-13 17:38:37,16,0,22.016,4952.5890584172,146.325464,0.4921268,1.9766568874,0,0,-0.671082,15.1, 1, 0,0,0,1024,1024,1024,1024,14.3,-89.9,93,3.637,3.653,3.643,3.709,0,0,22.002,64.4,14,Waypoint,
36.644036,-118.9467531,4953.5733104172,147.309716,0,1.23985240188,20600,2018-04-13 17:38:37,16,0,22.016,4953.5733104172,147.309716,0.4921268,1.9766568874,0,0,-0.671082,15, 1.1, 0,0,0,1024,1024,1024,1024,14.3,-89.9,93,3.637,3.653,3.643,3.709,0,0,22.002,64.4,14,Waypoint,
36.644036,-118.9467531,4954.5575624172,148.293968,0,1.23985240188,20700,2018-04-13 17:38:38,16,0,22.016,4954.5575624172,148.293968,0.4921268,1.9766568874,0,0,-0.671082,15, 1.1, 0,0,0,1024,1024,1024,1024,14.3,-89.9,93,3.637,3.653,3.643,3.709,0,0,22.002,64.4,14,Waypoint,
36.644036,-118.9467531,4955.5418144172,149.27822,0,1.23985240188,20800,2018-04-13 17:38:38,16,0,22.016,4955.5418144172,149.27822,0.4921268,1.9766568874,0,0,-0.671082,15, 1.1, 0,0,0,1024,1024,1024,1024,14.3,-90,93,3.637,3.653,3.643,3.709,0,0,22.002,64.4,14,Waypoint,
36.644036,-118.9467532,4956.5260664172,150.262472,0,1.25667326856,20900,2018-04-13 17:38:38,16,0,22.016,4956.5260664172,150.262472,0.4921268,1.9766568874,0,0,-0.671082,15, 1.1, 0.1,0,0,1024,1024,1024,1024,14.3,-89.9,93,3.637,3.653,3.643,3.709,0,0,22.002,64.4,14,Waypoint,
36.644036,-118.9467532,4957.5103184172,151.246724,0,1.25667326856,21000,2018-04-13 17:38:38,16,0,21.995,4957.5103184172,151.246724,0.4921268,1.9766568874,0,0,-0.671082,15.1, 1.1, 0.2,0,0,1024,1024,1024,1024,14.3,-89.9,92,3.647,3.653,3.646,3.708,0,0,21.586,64.4,14,Waypoint,
36.644036,-118.9467532,4958.4945704172,152.230976,0,1.25667326856,21100,2018-04-13 17:38:38,16,0,21.995,4958.4945704172,152.230976,0.4921268,1.9766568874,0,0,-0.671082,15.3, 1.2, 0.1,0,0,1024,1024,1024,1024,14.3,-89.9,92,3.647,3.653,3.646,3.708,0,0,21.586,64.4,14,Waypoint,
36.644036,-118.9467532,4959.4788224172,153.215228,0,1.25667326856,21200,2018-04-13 17:38:38,16,0,21.995,4959.4788224172,153.215228,0.4921268,1.9766568874,0,0,-0.671082,15.5, 1.3, 0,0,0,1024,1024,1024,1024,14.3,-89.9,92,3.647,3.653,3.646,3.708,0,0,21.586,64.4,14,Waypoint,
36.644036,-118.9467532,4960.4630744172,154.19948,0,1.25667326856,21300,2018-04-13 17:38:38,16,0,21.995,4960.4630744172,154.19948,0.4921268,1.9766568874,0,0,-0.671082,15.6, 1.4, 0,0,0,1024,1024,1024,1024,14.3,-89.9,92,3.647,3.653,3.646,3.708,0,0,21.586,64.4,14,Waypoint,
36.644036,-118.9467532,4962.4315784172,156.167984,0,1.25667326856,21500,2018-04-13 17:38:38,16,0,21.995,4962.4315784172,156.167984,0.4921268,1.9766568874,0,0,-0.671082,15.7, 1.6, 0,0,0,1024,1024,1024,1024,14.3,-89.9,92,3.647,3.653,3.646,3.708,0,0,21.586,64.4,14,Waypoint,
36.644036,-118.9467532,4963.4158304172,157.152236,0,1.25667326856,21620,2018-04-13 17:38:38,16,0,21.995,4963.4158304172,157.152236,0.4921268,1.9766568874,0,0,-0.671082,15.6, 1.7, -0.1,0,0,1024,1024,1024,1024,14.3,-89.9,92,3.647,3.653,3.646,3.708,0,0,21.586,64.4,14,Waypoint,
36.644036,-118.9467532,4963.4158304172,157.152236,0,1.25667326856,21700,2018-04-13 17:38:39,16,0,21.995,4963.4158304172,157.152236,0.4921268,1.9766568874,0,0,-0.671082,15.6, 1.7, -0.1,0,0,1024,1024,1024,1024,14.3,-89.9,92,3.647,3.653,3.646,3.708,0,0,21.586,64.4,14,Waypoint,
36.6440361,-118.9467532,4964.4000824172,158.136488,0,1.28650922752,21800,2018-04-13 17:38:39,16,0,21.995,4964.4000824172,158.136488,0.4921268,1.9766568874,0,0,-0.671082,15.5, 1.8, 0,0,0,1024,1024,1024,1024,14.3,-89.9,92,3.647,3.653,3.646,3.708,0,0,21.586,64.4,14,Waypoint,
36.6440361,-118.9467532,4965.3843344172,159.12074,0,1.28650922752,21900,2018-04-13 17:38:39,16,0,21.995,4965.3843344172,159.12074,0.4921268,1.9766568874,0,0,-0.671082,15.4, 1.9, -0.1,0,0,1024,1024,1024,1024,14.3,-89.9,92,3.647,3.653,3.646,3.708,0,0,21.586,64.4,14,Waypoint,
36.6440361,-118.9467532,4966.3685864172,160.104992,0,1.28650922752,22000,2018-04-13 17:38:39,16,0,21.995,4966.3685864172,160.104992,0.4921268,1.9766568874,0,0,-0.671082,15.3, 1.9, 0,0,0,1024,1024,1024,1024,14.3,-89.9,92,3.647,3.653,3.646,3.708,0,0,21.586,64.4,14,Waypoint,
36.6440361,-118.9467532,4967.0247544172,160.76116,0,1.28650922752,22100,2018-04-13 17:38:39,16,0,21.995,4967.0247544172,160.76116,0.4921268,1.9766568874,0,0,-0.671082,15.2, 1.7, 0,0,0,1024,1024,1024,1024,14.3,-89.9,92,3.647,3.653,3.646,3.708,0,0,21.586,64.4,14,Waypoint,
36.644036,-118.9467531,4968.0090064172,161.745412,0,1.23985240188,22200,2018-04-13 17:38:39,16,0,21.995,4968.0090064172,161.745412,0.4921268,1.9766568874,0,0,-0.671082,15.1, 1.6, -0.1,0,0,1024,1024,1024,1024,14.3,-89.9,92,3.647,3.653,3.646,3.708,0,0,21.586,64.4,14,Waypoint,
36.644036,-118.9467531,4970.3055944172,164.042,0,1.23985240188,22300,2018-04-13 17:38:39,16,0,21.995,4970.3055944172,164.042,0.4921268,1.9766568874,0,0,-0.671082,14.8, 1.3, -0.1,0,0,1024,1024,1024,1024,14.3,-89.9,92,3.647,3.653,3.646,3.708,0,0,21.586,64.4,14,Waypoint,
36.644036,-118.9467531,4971.2898464172,165.026252,0,1.23985240188,22400,2018-04-13 17:38:39,16,0,21.995,4971.2898464172,165.026252,0.4921268,1.9766568874,0,0,-0.671082,14.6, 1.3, 0,0,0,1024,1024,1024,1024,14.3,-89.9,92,3.647,3.653,3.646,3.708,0,0,21.586,64.4,14,Waypoint,
36.644036,-118.9467531,4972.2740984172,166.010504,0,1.23985240188,22500,2018-04-13 17:38:39,16,0,21.995,4972.2740984172,166.010504,0.4921268,1.9766568874,0,0,-0.671082,14.4, 1.4, -0.2,0,0,1024,1024,1024,1024,14.3,-89.9,92,3.647,3.653,3.646,3.708,0,0,21.586,64.4,14,Waypoint,
36.644036,-118.9467531,4973.2583504172,166.994756,0,1.23985240188,22600,2018-04-13 17:38:39,16,0,21.995,4973.2583504172,166.994756,0.4921268,1.9766568874,0,0,-0.671082,14.4, 1.6, -0.6,0,0,1024,1024,1024,1024,14.3,-89.9,92,3.647,3.653,3.646,3.708,0,0,21.586,64.4,14,Waypoint,
36.644036,-118.9467531,4974.2426024172,167.979008,0,1.23985240188,22700,2018-04-13 17:38:40,16,0,21.995,4974.2426024172,167.979008,0.4921268,1.9766568874,0,0,-0.671082,14.5, 1.6, -0.8,0,0,1024,1024,1024,1024,14.3,-89.9,92,3.647,3.653,3.646,3.708,0,0,21.586,64.4,14,Waypoint,
36.644036,-118.9467531,4975.2268544172,168.96326,0,1.23985240188,22800,2018-04-13 17:38:40,16,0,21.995,4975.2268544172,168.96326,0.4921268,1.9766568874,0,0,-0.671082,14.8, 1.7, -0.6,0,0,1024,1024,1024,1024,14.3,-89.9,92,3.647,3.653,3.646,3.708,0,0,21.586,64.4,14,Waypoint,
36.644036,-118.946753,4976.2111064172,169.947512,0,1.22350397616,22900,2018-04-13 17:38:40,16,0,21.995,4976.2111064172,169.947512,0.4921268,1.9766568874,0,0,-0.671082,15, 1.7, -0.3,0,0,1024,1024,1024,1024,14.3,-89.9,92,3.647,3.653,3.646,3.708,0,0,21.586,64.4,14,Waypoint,
36.644036,-118.946753,4977.1953584172,170.931764,0,1.22350397616,23000,2018-04-13 17:38:40,16,0,22.034,4977.1953584172,170.931764,0.4921268,1.9766568874,0,0,-0.671082,15.2, 1.5, -0.4,0,0,1024,1024,1024,1024,14.3,-90,92,3.647,3.661,3.643,3.712,0,0,20.732,64.4,14,Waypoint,
36.644036,-118.946753,4978.1796104172,171.916016,0,1.22350397616,23100,2018-04-13 17:38:40,16,0,22.034,4978.1796104172,171.916016,0.4921268,1.9766568874,0,0,-0.671082,15.4, 1.3, -0.5,0,0,1024,1024,1024,1024,14.3,-90,92,3.647,3.661,3.643,3.712,0,0,20.732,64.4,14,Waypoint,
36.6440359,-118.946753,4979.1638624172,172.900268,0,1.1932086996,23200,2018-04-13 17:38:40,16,0,22.034,4979.1638624172,172.900268,0.4921268,1.9766568874,0,0,-0.671082,15.5, 1.3, -0.6,0,0,1024,1024,1024,1024,14.3,-90,92,3.647,3.661,3.643,3.712,0,0,20.732,64.4,14,Waypoint,
36.6440359,-118.9467529,4980.1481144172,173.88452,0,1.17693901404,23300,2018-04-13 17:38:40,16,0,22.034,4980.1481144172,173.88452,0.4921268,1.9766568874,0,0,-0.671082,15.5, 1.1, -0.6,0,0,1024,1024,1024,1024,14.3,-90,92,3.647,3.661,3.643,3.712,0,0,20.732,64.4,14,Waypoint,
36.6440359,-118.9467529,4981.1323664172,174.868772,0,1.17693901404,23500,2018-04-13 17:38:40,16,0,22.034,4981.1323664172,174.868772,0.4921268,1.9766568874,0,0,-0.671082,15.3, 0.9, -0.4,0,0,1024,1024,1024,1024,14.3,-90,92,3.647,3.661,3.643,3.712,0,0,20.732,64.4,14,Waypoint,
36.6440359,-118.9467529,4982.1166184172,175.853024,0,1.17693901404,23600,2018-04-13 17:38:40,16,0,22.034,4982.1166184172,175.853024,0.4921268,1.9766568874,0,0,-0.671082,15.1, 0.9, -0.1,0,0,1024,1024,1024,1024,14.3,-89.9,92,3.647,3.661,3.643,3.712,0,0,20.732,64.4,14,Waypoint,
36.6440358,-118.9467529,4984.0851224172,177.821528,0,1.14657483984,23700,2018-04-13 17:38:41,16,0,22.034,4984.0851224172,177.821528,0.4921268,1.9766568874,0,0,-0.671082,15.1, 1.4, -0.2,0,0,1024,1024,1024,1024,14.3,-89.9,92,3.647,3.661,3.643,3.712,0,0,20.732,64.4,14,Waypoint,
36.6440358,-118.9467528,4985.0693744172,178.80578,0,1.13039045612,23800,2018-04-13 17:38:41,16,0,22.034,4985.0693744172,178.80578,0.4921268,1.9766568874,0,0,-0.671082,15.2, 1.5, -0.5,0,0,1024,1024,1024,1024,14.3,-89.9,92,3.647,3.661,3.643,3.712,0,0,20.732,64.4,14,Waypoint,
36.6440358,-118.9467528,4987.0378784172,180.774284,0,1.13039045612,24000,2018-04-13 17:38:41,16,0,22.034,4987.0378784172,180.774284,0.4921268,1.9766568874,0,0,-0.671082,15.5, 1.5, -0.9,0,0,1024,1024,1024,1024,14.3,-89.9,92,3.641,3.655,3.645,3.713,0,0,20.784,64.4,14,Waypoint,
36.6440358,-118.9467527,4988.0221304172,181.758536,0,1.11474084932,24200,2018-04-13 17:38:41,16,0,22.034,4988.0221304172,181.758536,0.4921268,1.9766568874,0,0,-0.671082,15.7, 1.4, -1.2,0,0,1024,1024,1024,1024,14.3,-90,92,3.641,3.655,3.645,3.713,0,0,20.784,64.4,14,Waypoint,
36.6440358,-118.9467527,4989.9906344172,183.72704,0,1.11474084932,24300,2018-04-13 17:38:41,16,0,22.034,4989.9906344172,183.72704,0.4921268,1.9766568874,0,0,-0.671082,15.9, 1.2, -1,0,0,1024,1024,1024,1024,14.3,-89.9,92,3.641,3.655,3.645,3.713,0,0,20.784,64.4,14,Waypoint,
36.6440358,-118.9467527,4990.9748864172,184.711292,0,1.11474084932,24400,2018-04-13 17:38:41,16,0,22.034,4990.9748864172,184.711292,0.4921268,1.9766568874,0,0,-0.671082,16, 1.3, -0.7,0,0,1024,1024,1024,1024,14.3,-89.9,92,3.641,3.655,3.645,3.713,0,0,20.784,64.4,14,Waypoint,
36.6440358,-118.9467528,4991.9591384172,185.695544,0,1.13039045612,24500,2018-04-13 17:38:41,16,0,22.034,4991.9591384172,185.695544,0.4921268,1.9766568874,0,0,-0.671082,16, 1.3, -0.5,0,0,1024,1024,1024,1024,14.3,-89.9,92,3.641,3.655,3.645,3.713,0,0,20.784,64.4,14,Waypoint,
36.6440359,-118.9467528,4992.9433904172,186.679796,0,1.16117785868,24600,2018-04-13 17:38:41,16,0,22.034,4992.9433904172,186.679796,0.4921268,1.9766568874,0,0,-0.671082,15.9, 1.3, -0.2,0,0,1024,1024,1024,1024,14.3,-89.9,92,3.641,3.655,3.645,3.713,0,0,20.784,64.4,14,Waypoint,
36.6440359,-118.9467528,4993.9276424172,187.664048,0,1.16117785868,24700,2018-04-13 17:38:42,16,0,22.034,4993.9276424172,187.664048,0.4921268,1.9766568874,0,0,-0.671082,15.6, 1.3, 0,0,0,1024,1024,1024,1024,14.3,-89.9,92,3.641,3.655,3.645,3.713,0,0,20.784,64.4,14,Waypoint,
36.6440359,-118.9467528,4994.9118944172,188.6483,0,1.16117785868,24800,2018-04-13 17:38:42,16,0,22.034,4994.9118944172,188.6483,0.4921268,1.9766568874,0,0,-0.671082,15.3, 1.4, 0.3,0,0,1024,1024,1024,1024,14.3,-89.9,92,3.641,3.655,3.645,3.713,0,0,20.784,64.4,14,Waypoint,
36.6440359,-118.9467528,4995.8961464172,189.632552,0,1.16117785868,24900,2018-04-13 17:38:42,16,0,22.034,4995.8961464172,189.632552,0.4921268,1.9766568874,0,0,-0.671082,14.9, 1.5, 0.3,0,0,1024,1024,1024,1024,14.3,-89.9,92,3.641,3.655,3.645,3.713,0,0,20.784,64.4,14,Waypoint,
36.6440359,-118.9467528,4996.8803984172,190.616804,0,1.16117785868,25000,2018-04-13 17:38:42,16,0,22.036,4996.8803984172,190.616804,0.4921268,1.9766568874,0,0,-0.671082,14.6, 1.5, 0.1,0,0,1024,1024,1024,1024,14.3,-89.9,92,3.66,3.665,3.646,3.714,0,0,20.708,64.4,14,Waypoint,
36.6440359,-118.9467528,4997.8646504172,191.601056,0,1.16117785868,25100,2018-04-13 17:38:42,16,0,22.036,4997.8646504172,191.601056,0.4921268,1.9766568874,0,0,-0.671082,14.5, 1.5, -0.2,0,0,1024,1024,1024,1024,14.3,-89.9,92,3.66,3.665,3.646,3.714,0,0,20.708,64.4,14,Waypoint,
36.6440359,-118.9467528,4999.1769864172,192.913392,0,1.16117785868,25200,2018-04-13 17:38:42,16,0,22.036,4999.1769864172,192.913392,0.4921268,1.9766568874,0,0,-0.671082,14.5, 1.4, -0.6,0,0,1024,1024,1024,1024,14.3,-89.9,92,3.66,3.665,3.646,3.714,0,0,20.708,64.4,14,Waypoint,
36.644036,-118.9467528,5000.1612384172,193.897644,0,1.19228678356,25300,2018-04-13 17:38:42,16,0,22.036,5000.1612384172,193.897644,0.4921268,1.9766568874,0,0,-0.671082,14.5, 1.5, -0.9,0,0,1024,1024,1024,1024,14.3,-89.9,92,3.66,3.665,3.646,3.714,0,0,20.708,64.4,14,Waypoint,
36.644036,-118.9467527,5001.1454904172,194.881896,0,1.17745738676,25400,2018-04-13 17:38:42,16,0,22.036,5001.1454904172,194.881896,0.4921268,1.9766568874,0,0,-0.671082,14.6, 1.7, -1,0,0,1024,1024,1024,1024,14.3,-89.9,92,3.66,3.665,3.646,3.714,0,0,20.708,64.4,14,Waypoint,
36.644036,-118.9467528,5002.1297424172,195.866148,0,1.19228678356,25500,2018-04-13 17:38:42,16,0,22.036,5002.1297424172,195.866148,0.4921268,1.9766568874,0,0,-0.671082,14.8, 1.7, -0.9,0,0,1024,1024,1024,1024,14.3,-89.9,92,3.66,3.665,3.646,3.714,0,0,20.708,64.4,14,Waypoint,
36.644036,-118.9467528,5004.0982464172,197.834652,0,1.19228678356,25720,2018-04-13 17:38:43,16,0,22.036,5004.0982464172,197.834652,0.4921268,1.9766568874,0,0,-0.671082,15.1, 1.5, -0.3,0,0,1024,1024,1024,1024,14.3,-89.9,92,3.66,3.665,3.646,3.714,0,0,20.708,64.4,14,Waypoint,
36.644036,-118.9467528,5005.0824984172,198.818904,0,1.19228678356,25800,2018-04-13 17:38:43,16,0,22.036,5005.0824984172,198.818904,0.4921268,1.9766568874,0,0,-0.671082,15.2, 1.5, -0.3,0,0,1024,1024,1024,1024,14.3,-89.9,92,3.66,3.665,3.646,3.714,0,0,20.708,64.4,14,Waypoint,
36.6440359,-118.9467528,5006.0667504172,199.803156,0,1.16117785868,25900,2018-04-13 17:38:43,16,0,22.036,5006.0667504172,199.803156,0.4921268,1.9766568874,0,0,-0.671082,15.3, 1.4, -0.4,0,0,1024,1024,1024,1024,14.3,-89.9,92,3.66,3.665,3.646,3.714,0,0,20.708,64.4,14,Waypoint,
36.6440359,-118.9467529,5007.0510024172,200.787408,0,1.17693901404,26100,2018-04-13 17:38:43,16,0,22.036,5007.0510024172,200.787408,0.4921268,1.9766568874,0,0,-0.671082,15.4, 1.5, -0.3,0,0,1024,1024,1024,1024,14.3,-89.9,92,3.66,3.665,3.646,3.714,0,0,20.708,64.4,14,Waypoint,
36.6440359,-118.9467529,5008.0352544172,201.77166,0,1.17693901404,26200,2018-04-13 17:38:43,16,0,22.036,5008.0352544172,201.77166,0.4921268,1.9766568874,0,0,-0.671082,15.5, 1.5, -0.2,0,0,1024,1024,1024,1024,14.3,-90,92,3.66,3.665,3.646,3.714,0,0,20.708,64.4,14,Waypoint,
36.6440359,-118.946753,5010.0037584172,203.740164,0,1.1932086996,26300,2018-04-13 17:38:43,16,0,22.036,5010.0037584172,203.740164,0.4921268,1.9766568874,0,0,-0.671082,15.9, 1.2, 0.1,0,0,1024,1024,1024,1024,14.3,-90,92,3.66,3.665,3.646,3.714,0,0,20.708,64.4,14,Waypoint,
36.6440358,-118.9467531,5010.6599264172,204.396332,0,1.18045279368,26400,2018-04-13 17:38:43,16,0,22.036,5010.6599264172,204.396332,0.4921268,1.9766568874,0,0,-0.671082,16, 1.1, 0.1,0,0,1024,1024,1024,1024,14.3,-90,92,3.66,3.665,3.646,3.714,0,0,20.708,64.4,14,Waypoint,
36.6440358,-118.9467531,5011.6441784172,205.380584,0,1.18045279368,26500,2018-04-13 17:38:43,16,0,22.036,5011.6441784172,205.380584,0.4921268,1.9766568874,0,0,-0.671082,16.1, 1.1, 0.1,0,0,1024,1024,1024,1024,14.3,-90,92,3.66,3.665,3.646,3.714,0,0,20.708,64.4,14,Waypoint,
36.6440358,-118.9467531,5012.6284304172,206.364836,0,1.18045279368,26600,2018-04-13 17:38:43,16,0,22.036,5012.6284304172,206.364836,0.4921268,1.9766568874,0,0,-0.671082,16.1, 0.9, 0,0,0,1024,1024,1024,1024,14.3,-90,92,3.66,3.665,3.646,3.714,0,0,20.708,64.4,14,Waypoint,
36.6440357,-118.9467532,5013.9407664172,207.677172,0,1.16943245212,26700,2018-04-13 17:38:44,16,0,22.036,5013.9407664172,207.677172,0.4921268,1.9766568874,0,0,-0.671082,16, 0.9, -0.2,0,0,1024,1024,1024,1024,14.3,-90,92,3.66,3.665,3.646,3.714,0,0,20.708,64.4,14,Waypoint,
36.6440357,-118.9467532,5014.9250184172,208.661424,0,1.16943245212,26800,2018-04-13 17:38:44,16,0,22.036,5014.9250184172,208.661424,0.4921268,1.9766568874,0,0,-0.671082,15.8, 1, -0.3,0,0,1024,1024,1024,1024,14.3,-89.9,92,3.66,3.665,3.646,3.714,0,0,20.708,64.4,14,Waypoint,
36.6440357,-118.9467532,5015.9092704172,209.645676,0,1.16943245212,26900,2018-04-13 17:38:44,16,0,22.036,5015.9092704172,209.645676,0.4921268,1.9766568874,0,0,-0.671082,15.7, 1.1, -0.2,0,0,1024,1024,1024,1024,14.3,-89.9,92,3.66,3.665,3.646,3.714,0,0,20.708,64.4,14,Waypoint,
36.6440357,-118.9467532,5016.8935224172,210.629928,0,1.16943245212,27000,2018-04-13 17:38:44,16,0,22.175,5016.8935224172,210.629928,0.4921268,1.9766568874,0,0,-0.671082,15.6, 1.4, -0.1,0,0,1024,1024,1024,1024,14.3,-89.9,92,3.671,3.68,3.669,3.736,0,0,18.717,64.4,14,Waypoint,
