Latitude, Longitude, Altitude (m), Time, Sats, Speed (m/s), Range (m), Battery (%), Roll (deg), Pitch (deg), Yaw (deg), Images, HD Signal (%), RC Signal (%), Battery Temp (C), Battery Voltage (mV), Battery Current (mA), Battery Energy (mAh), Battery Capacity (mAh), Battery Discharges, flyState, timestamp (Unix), LastUpdate (ms), radioChannel, Rc_elevator, Rc_aileron, Rc_throttle, Rc_rudder, Rc_gyro, Dronetype, Battery_Cell1 (mV), Battery_Cell2 (mV), Battery_Cell3 (mV), Battery_Cell4 (mV), Battery_Cell5 (mV), Battery_Cell6 (mV), Video, isFlying, elapsedTime (ms), gimbalPitch (deg), gimbalRoll (deg), gimbalYaw (deg), VelocityX (m/s), VelocityY (m/s), VelocityZ (m/s), GroundSmear (cm), App Version, Aircraft Name, Aircraft Firmware, Aircraft Serial Number, Battery Serial Number, Battery Lifetime (%), App_Tip, App_Warning, CurrentFlightStartingIndex, CurrentFlightLastVisitedWaypoint, PreviousFlightEndingWaypointIndex
36.6440229, -118.9467564, 0.000, 12:06:43.070, 15, 0.00, 0.02, 96, -1.600, -0.200, 12.800, 255, 100, 100, 16, 25135, -3112, 5344, 5567, 7, 11, 1523646403.071, 94, 0, 1024, 1024, 1025, 1024, 0, 6, 4153, 4145, 4169, 4171, 4177, 4133, 0, 1, 3002, -89.900, 0.000, 11.200, 0.000, 0.000, 0.000, 0.0, MapPilot_2.7.4_02272018, Dendroctonus I, 1.3.1.00, 041DDC1887, 1058163200459, 99, DJI_0959.jpg, Starting Mission from Lat/Long: 36.64402/-118.94675 Camera: Zenmuse X3 - Overlap: 90/90 - Active Connection: Yes, 51, 51, 51
36.6440230, -118.9467565, 0.000, 12:06:43.170, 15, 0.00, 0.03, 96, -0.600, 0.000, 13.000, 255, 100, 100, 16, 25135, -3112, 5344, 5567, 7, 11, 1523646403.171, 30, 0, 1024, 1024, 1024, 1024, 0, 6, 4153, 4145, 4169, 4171, 4177, 4133, 0, 1, 3102, -89.900, 0.000, 11.200, 0.000, 0.000, -0.200, 0.0, , , , , , 99, , , 51, 51, 51
36.6440230, -118.9467566, 0.000, 12:06:43.269, 15, 0.00, 0.04, 96, 0.100, 0.200, 13.200, 255, 100, 100, 16, 25135, -3112, 5344, 5567, 7, 11, 1523646403.270, 29, 0, 1024, 1024, 1024, 1024, 0, 6, 4153, 4145, 4169, 4171, 4177, 4133, 0, 1, 3201, -89.900, 0.000, 11.200, 0.000, 0.000, -0.300, 0.0, , , , , , 99, , , 51, 51, 51
36.6440230, -118.9467567, 0.000, 12:06:43.368, 15, 0.10, 0.05, 96, 0.400, 0.300, 13.300, 255, 100, 100, 16, 25135, -3112, 5344, 5567, 7, 11, 1523646403.369, 54, 0, 1024, 1024, 1024, 1024, 0, 6, 4153, 4145, 4169, 4171, 4177, 4133, 0, 1, 3301, -89.900, 0.000, 11.300, 0.000, -0.100, -0.400, 0.0, , , , , , 99, , , 51, 51, 51
36.6440231, -118.9467569, 0.100, 12:06:43.476, 15, 0.10, 0.06, 96, 0.700, 0.500, 13.300, 255, 100, 100, 16, 25135, -3112, 5344, 5567, 7, 11, 1523646403.477, 13, 0, 1024, 1024, 1024, 1024, 0, 6, 4153, 4145, 4169, 4171, 4177, 4133, 0, 1, 3408, -89.900, 0.000, 11.300, 0.000, -0.100, -0.400, 0.0, , , , , , 99, , , 51, 51, 51
36.6440231, -118.9467570, 0.100, 12:06:43.568, 15, 0.10, 0.07, 96, 0.400, 0.300, 13.200, 255, 100, 100, 16, 25135, -3112, 5344, 5567, 7, 11, 1523646403.569, 31, 0, 1024, 1024, 1024, 1024, 0, 6, 4153, 4145, 4169, 4171, 4177, 4133, 0, 1, 3501, -89.900, 0.000, 11.300, 0.000, -0.100, -0.400, 0.0, , , , , , 99, , , 51, 51, 51
36.6440231, -118.9467572, 0.200, 12:06:43.668, 15, 0.00, 0.09, 96, 0.700, 0.200, 13.200, 255, 100, 100, 16, 25135, -3112, 5344, 5567, 7, 11, 1523646403.669, 66, 0, 1024, 1024, 1025, 1024, 0, 6, 4153, 4145, 4169, 4171, 4177, 4133, 0, 1, 3601, -89.900, 0.000, 11.300, 0.000, 0.000, -0.400, 0.0, , , , , , 99, , , 51, 51, 51
36.6440231, -118.9467572, 0.200, 12:06:43.776, 15, 0.00, 0.09, 96, 0.900, 0.200, 13.100, 255, 100, 100, 16, 25135, -3112, 5344, 5567, 7, 11, 1523646403.777, 61, 0, 1024, 1024, 1024, 1024, 0, 6, 4153, 4145, 4169, 4171, 4177, 4133, 0, 1, 3708, -89.900, 0.000, 11.300, 0.000, 0.000, -0.400, 0.0, , , , , , 99, , , 51, 51, 51
36.6440231, -118.9467573, 0.300, 12:06:43.868, 15, 0.00, 0.09, 96, 0.700, 0.000, 13.000, 255, 100, 100, 16, 23934, -11578, 5344, 5567, 7, 11, 1523646403.870, 56, 0, 1024, 1024, 1024, 1024, 0, 6, 4153, 4145, 4169, 4171, 4177, 4133, 0, 1, 3801, -90.000, 0.000, 11.400, 0.000, 0.000, -0.400, 0.0, , , , , , 99, , , 51, 51, 51
36.6440231, -118.9467574, 0.300, 12:06:43.969, 15, 0.00, 0.10, 96, 0.500, -0.300, 12.900, 255, 100, 100, 16, 23934, -11578, 5344, 5567, 7, 11, 1523646403.969, 34, 0, 1024, 1024, 1025, 1024, 0, 6, 4153, 4145, 4169, 4171, 4177, 4133, 0, 1, 3901, -89.900, 0.000, 11.400, 0.000, 0.000, -0.400, 0.0, , , , , , 99, , , 51, 51, 51
36.6440231, -118.9467575, 0.400, 12:06:44.068, 15, 0.00, 0.11, 96, 0.200, -0.400, 12.700, 255, 100, 100, 16, 23934, -11578, 5344, 5567, 7, 11, 1523646404.069, 94, 0, 1024, 1024, 1024, 1024, 0, 6, 4153, 4145, 4169, 4171, 4177, 4133, 0, 1, 4001, -90.000, 0.000, 11.400, 0.000, 0.000, -0.400, 0.0, , , , , , 99, , , 51, 51, 51
36.6440231, -118.9467574, 0.400, 12:06:44.168, 15, 0.00, 0.11, 96, 0.000, -0.400, 12.600, 255, 100, 100, 16, 23934, -11578, 5344, 5567, 7, 11, 1523646404.169, 67, 0, 1024, 1024, 1024, 1024, 0, 6, 4153, 4145, 4169, 4171, 4177, 4133, 0, 1, 4100, -89.900, 0.000, 11.400, 0.000, 0.000, -0.500, 0.0, , , , , , 99, , , 51, 51, 51
36.6440230, -118.9467574, 0.500, 12:06:44.269, 14, 0.00, 0.10, 96, 0.000, -0.300, 12.500, 255, 100, 100, 16, 23934, -11578, 5344, 5567, 7, 11, 1523646404.270, 66, 0, 1024, 1024, 1025, 1024, 0, 6, 4153, 4145, 4169, 4171, 4177, 4133, 0, 1, 4201, -89.900, 0.000, 11.400, 0.000, 0.000, -0.500, 0.0, , , , , , 99, , , 51, 51, 51
36.6440231, -118.9467574, 0.500, 12:06:44.369, 14, 0.00, 0.10, 96, 0.000, -0.200, 12.500, 255, 100, 100, 16, 23934, -11578, 5344, 5567, 7, 11, 1523646404.369, 78, 0, 1024, 1024, 1024, 1024, 0, 6, 3952, 3911, 3937, 3920, 3949, 3926, 0, 1, 4301, -89.900, 0.000, 11.500, 0.000, 0.000, -0.400, 0.0, , , , , , 99, , , 51, 51, 51
36.6440231, -118.9467573, 0.600, 12:06:44.469, 13, 0.00, 0.10, 96, 0.000, 0.000, 12.600, 255, 100, 100, 16, 23934, -11578, 5344, 5567, 7, 11, 1523646404.469, 56, 0, 1024, 1024, 1024, 1024, 0, 6, 3952, 3911, 3937, 3920, 3949, 3926, 0, 1, 4401, -89.900, 0.000, 11.500, 0.000, 0.000, -0.400, 0.0, , , , , , 99, , , 51, 51, 51
36.6440231, -118.9467574, 0.600, 12:06:44.568, 13, 0.00, 0.10, 96, 0.000, 0.000, 12.600, 255, 100, 100, 16, 23934, -11578, 5344, 5567, 7, 11, 1523646404.569, 63, 0, 1024, 1024, 1025, 1024, 0, 6, 3952, 3911, 3937, 3920, 3949, 3926, 0, 1, 4501, -89.900, 0.000, 11.500, 0.000, 0.000, -0.400, 0.0, , , , , , 99, , , 51, 51, 51
36.6440232, -118.9467575, 0.700, 12:06:44.668, 13, 0.00, 0.11, 96, 0.100, 0.000, 12.700, 255, 100, 100, 16, 23934, -11578, 5344, 5567, 7, 11, 1523646404.669, 79, 0, 1024, 1024, 1024, 1024, 0, 6, 3952, 3911, 3937, 3920, 3949, 3926, 0, 1, 4601, -89.900, 0.000, 11.500, 0.000, 0.000, -0.400, 0.0, , , , , , 99, , , 51, 51, 51
36.6440232, -118.9467574, 0.700, 12:06:44.768, 13, 0.00, 0.10, 96, 0.400, 0.000, 12.800, 255, 100, 100, 16, 23934, -11578, 5344, 5567, 7, 11, 1523646404.769, 49, 0, 1024, 1024, 1024, 1024, 0, 6, 3952, 3911, 3937, 3920, 3949, 3926, 0, 1, 4701, -89.900, 0.000, 11.500, 0.000, 0.000, -0.400, 0.0, , , , , , 99, , , 51, 51, 51
36.6440232, -118.9467572, 0.800, 12:06:44.869, 14, 0.00, 0.09, 96, 0.400, 0.100, 12.800, 255, 100, 100, 16, 23267, -11578, 5344, 5567, 7, 11, 1523646404.870, 45, 0, 1024, 1024, 1025, 1024, 0, 6, 3952, 3911, 3937, 3920, 3949, 3926, 0, 1, 4801, -89.900, 0.000, 11.500, 0.000, 0.000, -0.500, 0.0, , , , , , 99, , , 51, 51, 51
36.6440232, -118.9467573, 0.800, 12:06:44.969, 14, 0.00, 0.10, 96, 0.300, 0.000, 12.800, 255, 100, 100, 16, 23267, -11578, 5344, 5567, 7, 11, 1523646404.969, 65, 0, 1024, 1024, 1024, 1024, 0, 6, 3952, 3911, 3937, 3920, 3949, 3926, 0, 1, 4901, -89.900, 0.000, 11.600, 0.000, 0.000, -0.500, 0.0, , , , , , 99, , , 51, 51, 51
36.6440232, -118.9467570, 0.900, 12:06:45.068, 15, 0.00, 0.08, 96, 0.000, 0.300, 12.600, 255, 100, 100, 16, 23267, -11578, 5344, 5567, 7, 14, 1523646405.069, 17, 0, 1024, 1024, 1025, 1024, 0, 6, 3952, 3911, 3937, 3920, 3949, 3926, 0, 1, 5000, -89.900, 0.000, 11.600, 0.000, 0.000, -0.300, 0.0, , , , , , 99, , , 51, 51, 51
36.6440232, -118.9467568, 1.000, 12:06:45.168, 15, 0.00, 0.06, 96, -0.500, 0.300, 12.400, 255, 100, 100, 16, 23267, -11578, 5344, 5567, 7, 14, 1523646405.169, 46, 0, 1024, 1024, 1024, 1024, 0, 6, 3952, 3911, 3937, 3920, 3949, 3926, 0, 1, 5100, -89.900, 0.000, 11.600, 0.000, 0.000, -0.300, 0.0, , , , , , 99, , , 51, 51, 51
36.6440232, -118.9467568, 1.000, 12:06:45.268, 15, 0.00, 0.06, 96, -0.500, 0.300, 12.400, 255, 100, 100, 16, 23267, -11578, 5344, 5567, 7, 14, 1523646405.269, 146, 0, 1024, 1024, 1025, 1024, 0, 6, 3952, 3911, 3937, 3920, 3949, 3926, 0, 1, 5200, -89.900, 0.000, 11.600, 0.000, 0.000, -0.300, 0.0, , , , , , 99, , , 51, 51, 51
36.6440233, -118.9467567, 1.000, 12:06:45.369, 15, 0.00, 0.06, 96, -0.900, 0.400, 12.300, 255, 100, 100, 16, 23267, -16543, 5344, 5567, 7, 14, 1523646405.370, 35, 0, 1024, 1024, 1024, 1024, 0, 6, 3835, 3869, 3883, 3853, 3858, 3893, 0, 1, 5301, -89.900, 0.000, 11.600, 0.000, 0.000, -0.300, 0.0, , , , , , 99, , , 51, 51, 51
36.6440233, -118.9467565, 1.100, 12:06:45.468, 15, 0.00, 0.06, 96, -1.100, 0.300, 12.100, 255, 100, 100, 16, 23267, -16543, 5344, 5567, 7, 14, 1523646405.469, 25, 0, 1024, 1024, 1024, 1024, 0, 6, 3835, 3869, 3883, 3853, 3858, 3893, 0, 1, 5401, -90.000, 0.000, 11.600, 0.000, 0.000, -0.500, 0.0, , , , , , 99, , , 51, 51, 51
36.6440233, -118.9467566, 1.200, 12:06:45.568, 15, 0.00, 0.06, 96, -1.000, 0.100, 12.100, 255, 100, 100, 16, 23267, -16543, 5344, 5567, 7, 14, 1523646405.570, 28, 0, 1024, 1024, 1024, 1024, 0, 6, 3835, 3869, 3883, 3853, 3858, 3893, 0, 1, 5501, -90.000, 0.000, 11.600, 0.000, 0.000, -0.600, 0.0, , , , , , 99, , , 51, 51, 51
36.6440233, -118.9467566, 1.300, 12:06:45.668, 15, 0.00, 0.06, 96, -0.800, 0.000, 12.200, 255, 100, 100, 16, 23267, -16543, 5344, 5567, 7, 14, 1523646405.669, 19, 0, 1024, 1024, 1024, 1024, 0, 6, 3835, 3869, 3883, 3853, 3858, 3893, 0, 1, 5601, -90.000, 0.000, 11.600, 0.000, 0.000, -0.700, 0.0, , , , , , 99, , , 51, 51, 51
36.6440233, -118.9467567, 1.400, 12:06:45.768, 15, 0.00, 0.07, 96, -0.700, -0.200, 12.300, 255, 100, 100, 16, 23267, -16543, 5344, 5567, 7, 14, 1523646405.769, 18, 0, 1024, 1024, 1025, 1024, 0, 6, 3835, 3869, 3883, 3853, 3858, 3893, 0, 1, 5701, -90.000, 0.000, 11.600, 0.000, 0.000, -0.900, 0.0, , , , , , 99, , , 51, 51, 51
36.6440233, -118.9467567, 1.400, 12:06:45.868, 15, 0.00, 0.06, 96, -0.600, -0.200, 12.500, 255, 100, 99, 16, 23267, -16543, 5344, 5567, 7, 14, 1523646405.869, 24, 0, 1024, 1024, 1025, 1024, 0, 6, 3835, 3869, 3883, 3853, 3858, 3893, 0, 1, 5801, -90.000, 0.000, 11.600, 0.000, 0.000, -1.000, 0.0, , , , , , 99, , , 51, 51, 51
36.6440232, -118.9467568, 1.600, 12:06:45.969, 15, 0.00, 0.07, 96, -0.300, -0.300, 12.600, 255, 100, 99, 16, 23267, -16543, 5344, 5567, 7, 14, 1523646405.970, 16, 0, 1024, 1024, 1024, 1024, 0, 6, 3835, 3869, 3883, 3853, 3858, 3893, 0, 1, 5901, -90.000, 0.000, 11.600, 0.000, 0.000, -1.300, 0.0, , , , , , 99, , , 51, 51, 51
36.6440232, -118.9467570, 1.700, 12:06:46.076, 15, 0.00, 0.08, 96, -0.100, -0.400, 12.900, 255, 100, 99, 16, 23267, -16543, 5344, 5567, 7, 14, 1523646406.077, 5, 0, 1024, 1024, 1024, 1024, 0, 6, 3835, 3869, 3883, 3853, 3858, 3893, 0, 1, 6008, -90.000, 0.000, 11.600, 0.000, 0.000, -1.500, 0.0, , , , , , 99, , , 51, 51, 51
36.6440233, -118.9467573, 1.900, 12:06:46.169, 15, 0.00, 0.10, 96, 0.300, -0.400, 13.100, 255, 100, 99, 16, 23267, -16543, 5344, 5567, 7, 14, 1523646406.170, 15, 0, 1024, 1024, 1024, 1024, 0, 6, 3835, 3869, 3883, 3853, 3858, 3893, 0, 1, 6101, -90.000, 0.000, 11.600, 0.000, 0.000, -1.700, 0.0, , , , , , 99, , , 51, 51, 51
36.6440233, -118.9467573, 1.900, 12:06:46.269, 15, 0.00, 0.10, 96, 0.300, -0.400, 13.100, 255, 100, 99, 16, 23267, -16543, 5344, 5567, 7, 14, 1523646406.269, 115, 0, 1024, 1024, 1024, 1024, 0, 6, 3835, 3869, 3883, 3853, 3858, 3893, 0, 1, 6201, -90.000, 0.000, 11.600, 0.000, 0.000, -1.700, 0.0, , , , , , 99, , , 51, 51, 51
36.6440233, -118.9467574, 2.100, 12:06:46.368, 15, 0.00, 0.11, 96, 0.700, -0.400, 13.200, 255, 100, 99, 16, 23099, -16749, 5288, 5567, 7, 14, 1523646406.369, 92, 0, 1024, 1024, 1025, 1024, 0, 6, 3814, 3936, 3855, 3842, 3847, 3871, 0, 1, 6301, -90.000, 0.000, 11.600, 0.000, 0.000, -1.800, 0.0, , , , , , 99, , , 51, 51, 51
36.6440233, -118.9467575, 2.300, 12:06:46.469, 15, 0.00, 0.12, 96, 0.800, -0.600, 13.300, 255, 100, 99, 16, 23099, -16749, 5288, 5567, 7, 14, 1523646406.469, 92, 0, 1024, 1024, 1024, 1024, 0, 6, 3814, 3936, 3855, 3842, 3847, 3871, 0, 1, 6401, -90.000, 0.000, 11.600, 0.000, 0.000, -2.200, 0.0, , , , , , 99, , , 51, 51, 51
36.6440233, -118.9467576, 2.500, 12:06:46.568, 15, 0.00, 0.12, 96, 0.600, -0.500, 13.300, 255, 100, 99, 16, 23099, -16749, 5288, 5567, 7, 14, 1523646406.569, 86, 0, 1024, 1024, 1024, 1024, 0, 6, 3814, 3936, 3855, 3842, 3847, 3871, 0, 1, 6501, -90.000, 0.000, 11.600, 0.000, 0.000, -2.400, 0.0, , , , , , 99, , , 51, 51, 51
36.6440234, -118.9467576, 2.800, 12:06:46.669, 15, 0.00, 0.13, 96, 0.500, -0.300, 13.200, 255, 100, 99, 16, 23099, -16749, 5288, 5567, 7, 14, 1523646406.669, 73, 0, 1024, 1024, 1024, 1024, 0, 6, 3814, 3936, 3855, 3842, 3847, 3871, 0, 1, 6601, -89.900, 0.000, 11.700, 0.000, 0.000, -2.600, 0.0, , , , , , 99, , , 51, 51, 51
36.6440234, -118.9467577, 3.100, 12:06:46.768, 15, 0.00, 0.14, 96, 0.500, -0.100, 13.000, 255, 100, 99, 16, 23099, -16749, 5288, 5567, 7, 14, 1523646406.769, 80, 0, 1024, 1024, 1024, 1024, 0, 6, 3814, 3936, 3855, 3842, 3847, 3871, 0, 1, 6700, -89.900, 0.000, 11.700, 0.000, 0.000, -2.800, 0.0, , , , , , 99, , , 51, 51, 51
36.6440234, -118.9467578, 3.400, 12:06:46.868, 15, 0.00, 0.15, 95, 0.600, 0.000, 12.900, 255, 100, 99, 16, 23099, -16749, 5288, 5567, 7, 14, 1523646406.870, 83, 0, 1024, 1024, 1024, 1024, 0, 6, 3814, 3936, 3855, 3842, 3847, 3871, 0, 1, 6801, -89.900, 0.000, 11.700, 0.000, 0.000, -3.000, 0.0, , , , , , 99, , , 51, 51, 51
36.6440234, -118.9467579, 3.700, 12:06:46.969, 15, 0.00, 0.16, 95, 0.600, -0.100, 12.600, 255, 100, 99, 16, 23099, -16749, 5288, 5567, 7, 14, 1523646406.969, 76, 0, 1024, 1024, 1024, 1024, 0, 6, 3814, 3936, 3855, 3842, 3847, 3871, 0, 1, 6901, -90.000, 0.000, 11.700, 0.000, 0.000, -3.100, 0.0, , , , , , 99, , , 51, 51, 51
36.6440235, -118.9467580, 4.100, 12:06:47.068, 15, 0.00, 0.17, 95, 0.500, -0.100, 12.500, 255, 100, 99, 16, 23099, -16749, 5288, 5567, 7, 14, 1523646407.069, 71, 0, 1024, 1024, 1024, 1024, 0, 6, 3814, 3936, 3855, 3842, 3847, 3871, 0, 1, 7001, -89.900, 0.000, 11.700, 0.000, 0.000, -3.100, 0.0, , , , , , 99, , , 51, 51, 51
36.6440235, -118.9467580, 4.100, 12:06:47.169, 15, 0.00, 0.17, 95, 0.500, -0.100, 12.500, 255, 100, 99, 16, 23099, -16749, 5288, 5567, 7, 14, 1523646407.169, 171, 0, 1024, 1024, 1024, 1024, 0, 6, 3814, 3936, 3855, 3842, 3847, 3871, 0, 1, 7101, -89.900, 0.000, 11.700, 0.000, 0.000, -3.100, 0.0, , , , , , 99, , , 51, 51, 51
36.6440234, -118.9467578, 4.700, 12:06:47.268, 15, 0.00, 0.15, 95, -0.100, -0.100, 12.400, 255, 100, 99, 16, 23099, -16749, 5288, 5567, 7, 14, 1523646407.269, 30, 0, 1024, 1024, 1024, 1024, 0, 6, 3814, 3936, 3855, 3842, 3847, 3871, 0, 1, 7201, -89.900, 0.000, 11.700, 0.000, 0.000, -3.200, 0.0, , , , , , 99, , , 51, 51, 51
36.6440234, -118.9467579, 5.100, 12:06:47.368, 15, 0.00, 0.15, 95, -0.500, -0.100, 12.400, 255, 100, 99, 16, 22543, -22029, 5288, 5567, 7, 14, 1523646407.369, 48, 0, 1024, 1024, 1024, 1024, 0, 6, 3679, 3739, 3731, 3715, 3753, 3758, 0, 1, 7301, -90.000, 0.000, 11.700, 0.000, 0.000, -3.200, 0.0, , , , , , 99, , , 51, 51, 51
36.6440233, -118.9467579, 5.400, 12:06:47.468, 15, 0.00, 0.15, 95, -0.500, -0.200, 12.300, 255, 100, 98, 16, 22543, -22029, 5288, 5567, 7, 14, 1523646407.469, 41, 0, 1024, 1024, 1025, 1024, 0, 6, 3679, 3739, 3731, 3715, 3753, 3758, 0, 1, 7401, -90.000, 0.000, 11.700, 0.000, 0.000, -3.200, 0.0, , , , , , 99, , , 51, 51, 51
36.6440234, -118.9467577, 5.700, 12:06:47.568, 15, 0.00, 0.14, 95, -0.200, -0.200, 12.300, 255, 100, 98, 16, 22543, -22029, 5288, 5567, 7, 14, 1523646407.569, 46, 0, 1024, 1024, 1024, 1024, 0, 6, 3679, 3739, 3731, 3715, 3753, 3758, 0, 1, 7501, -89.900, 0.000, 11.700, 0.000, 0.000, -3.200, 0.0, , , , , , 99, , , 51, 51, 51
36.6440234, -118.9467576, 6.100, 12:06:47.669, 16, 0.00, 0.13, 95, -0.200, 0.000, 12.300, 255, 100, 98, 16, 22543, -22029, 5288, 5567, 7, 14, 1523646407.669, 50, 0, 1024, 1024, 1024, 1024, 0, 6, 3679, 3739, 3731, 3715, 3753, 3758, 0, 1, 7601, -89.900, 0.000, 11.700, 0.000, 0.000, -3.300, 0.0, , , , , , 99, , , 51, 51, 51
36.6440233, -118.9467574, 6.800, 12:06:47.769, 16, 0.00, 0.12, 95, -0.400, 0.000, 12.700, 255, 100, 98, 16, 22543, -22029, 5288, 5567, 7, 14, 1523646407.769, 42, 0, 1024, 1024, 1025, 1024, 0, 6, 3679, 3739, 3731, 3715, 3753, 3758, 0, 1, 7701, -89.900, 0.000, 11.700, 0.000, 0.000, -3.200, 0.0, , , , , , 99, , , 51, 51, 51
36.6440233, -118.9467572, 7.100, 12:06:47.869, 16, 0.00, 0.10, 95, -0.600, 0.000, 12.900, 255, 100, 98, 16, 22543, -22029, 5288, 5567, 7, 14, 1523646407.869, 49, 0, 1024, 1024, 1024, 1024, 0, 6, 3679, 3739, 3731, 3715, 3753, 3758, 0, 1, 7801, -89.900, 0.000, 11.700, 0.000, 0.000, -3.100, 0.0, , , , , , 99, , , 51, 51, 51
36.6440233, -118.9467572, 7.100, 12:06:47.968, 16, 0.00, 0.10, 95, -0.600, 0.000, 12.900, 255, 100, 98, 16, 22543, -22029, 5288, 5567, 7, 14, 1523646407.969, 148, 0, 1024, 1024, 1024, 1024, 0, 6, 3679, 3739, 3731, 3715, 3753, 3758, 0, 1, 7900, -89.900, 0.000, 11.700, 0.000, 0.000, -3.100, 0.0, , , , , , 99, , , 51, 51, 51
36.6440234, -118.9467569, 7.800, 12:06:48.069, 14, 0.00, 0.08, 95, -1.000, 0.200, 13.100, 255, 100, 98, 16, 22543, -22029, 5288, 5567, 7, 14, 1523646408.069, 14, 0, 1024, 1024, 1025, 1024, 0, 6, 3679, 3739, 3731, 3715, 3753, 3758, 0, 1, 8001, -89.900, 0.000, 11.700, 0.000, 0.000, -3.200, 0.0, , , , , , 99, , , 51, 51, 51
36.6440234, -118.9467567, 8.100, 12:06:48.185, 16, 0.00, 0.07, 95, -1.000, 0.400, 13.100, 255, 100, 98, 16, 22543, -22029, 5288, 5567, 7, 14, 1523646408.186, 7, 0, 1024, 1024, 1025, 1024, 0, 6, 3679, 3739, 3731, 3715, 3753, 3758, 0, 1, 8117, -89.900, 0.000, 11.700, 0.000, 0.000, -3.100, 0.0, , , , , , 99, , , 51, 51, 51
36.6440234, -118.9467565, 8.400, 12:06:48.272, 16, 0.00, 0.07, 95, -1.100, 0.700, 13.000, 255, 100, 98, 16, 22259, -23433, 5288, 5567, 7, 14, 1523646408.273, 10, 0, 1024, 1024, 1024, 1024, 0, 6, 3679, 3739, 3731, 3715, 3753, 3758, 0, 1, 8204, -89.900, 0.000, 11.700, 0.000, 0.000, -3.000, 0.0, , , , , , 99, , , 51, 51, 51
36.6440235, -118.9467564, 8.800, 12:06:48.375, 16, 0.00, 0.08, 95, -1.100, 0.800, 12.800, 255, 100, 98, 16, 22259, -23433, 5288, 5567, 7, 14, 1523646408.375, 15, 0, 1024, 1024, 1024, 1024, 0, 6, 3701, 3728, 3745, 3729, 3742, 3778, 0, 1, 8307, -89.900, 0.000, 11.700, 0.000, 0.000, -3.000, 0.0, , , , , , 99, , , 51, 51, 51
36.6440235, -118.9467562, 9.100, 12:06:48.469, 16, 0.00, 0.08, 95, -1.300, 1.000, 12.700, 255, 100, 98, 16, 22259, -23433, 5288, 5567, 7, 14, 1523646408.469, 9, 0, 1024, 1024, 1025, 1024, 0, 6, 3701, 3728, 3745, 3729, 3742, 3778, 0, 1, 8401, -89.900, 0.000, 11.700, 0.000, 0.000, -3.100, 0.0, , , , , , 99, , , 51, 51, 51
36.6440235, -118.9467562, 9.100, 12:06:48.568, 16, 0.00, 0.08, 95, -1.300, 1.000, 12.700, 255, 100, 98, 16, 22259, -23433, 5288, 5567, 7, 14, 1523646408.570, 110, 0, 1024, 1024, 1025, 1024, 0, 6, 3701, 3728, 3745, 3729, 3742, 3778, 0, 1, 8501, -89.900, 0.000, 11.700, 0.000, 0.000, -3.100, 0.0, , , , , , 99, , , 51, 51, 51
36.6440236, -118.9467560, 9.400, 12:06:48.669, 16, 0.00, 0.09, 95, -1.500, 1.000, 12.600, 255, 100, 98, 16, 22259, -23433, 5288, 5567, 7, 14, 1523646408.670, 97, 0, 1024, 1024, 1025, 1024, 0, 6, 3701, 3728, 3745, 3729, 3742, 3778, 0, 1, 8601, -89.900, 0.000, 11.700, 0.000, 0.000, -3.000, 0.0, , , , , , 99, , , 51, 51, 51
36.6440237, -118.9467559, 9.700, 12:06:48.769, 16, 0.00, 0.10, 95, -1.400, 1.000, 12.500, 255, 100, 98, 16, 22259, -23433, 5288, 5567, 7, 14, 1523646408.769, 74, 0, 1024, 1024, 1024, 1024, 0, 6, 3701, 3728, 3745, 3729, 3742, 3778, 0, 1, 8701, -89.900, 0.000, 11.700, 0.000, 0.000, -3.000, 0.0, , , , , , 99, , , 51, 51, 51
36.6440237, -118.9467557, 10.100, 12:06:48.868, 16, 0.00, 0.11, 95, -1.300, 1.100, 12.500, 255, 100, 98, 16, 22259, -23433, 5288, 5567, 7, 14, 1523646408.869, 79, 0, 1024, 1024, 1024, 1024, 0, 6, 3701, 3728, 3745, 3729, 3742, 3778, 0, 1, 8801, -89.900, 0.000, 11.700, 0.000, 0.000, -3.000, 0.0, , , , , , 99, , , 51, 51, 51
36.6440237, -118.9467556, 10.400, 12:06:48.968, 16, 0.00, 0.12, 95, -1.400, 1.100, 12.500, 255, 100, 100, 16, 22259, -23433, 5288, 5567, 7, 14, 1523646408.969, 67, 0, 1024, 1024, 1025, 1024, 0, 6, 3701, 3728, 3745, 3729, 3742, 3778, 0, 1, 8900, -89.900, 0.000, 11.700, 0.000, 0.000, -2.900, 0.0, , , , , , 99, , , 51, 51, 51
36.6440237, -118.9467555, 10.700, 12:06:49.069, 16, 0.00, 0.13, 95, -1.400, 0.900, 12.500, 255, 100, 100, 16, 22259, -23433, 5288, 5567, 7, 14, 1523646409.069, 69, 0, 1024, 1024, 1024, 1024, 0, 6, 3701, 3728, 3745, 3729, 3742, 3778, 0, 1, 9001, -89.900, 0.000, 11.700, 0.000, 0.000, -3.000, 0.0, , , , , , 99, , , 51, 51, 51
36.6440237, -118.9467553, 11.000, 12:06:49.169, 16, 0.00, 0.13, 95, -1.700, 0.900, 12.600, 255, 100, 100, 16, 22259, -23433, 5288, 5567, 7, 14, 1523646409.169, 32, 0, 1024, 1024, 1025, 1024, 0, 6, 3701, 3728, 3745, 3729, 3742, 3778, 0, 1, 9101, -89.900, 0.000, 11.700, 0.000, 0.000, -2.900, 0.0, , , , , , 99, , , 51, 51, 51
36.6440237, -118.9467552, 11.300, 12:06:49.269, 16, 0.00, 0.14, 95, -1.800, 0.800, 12.700, 255, 100, 100, 16, 22259, -23433, 5288, 5567, 7, 14, 1523646409.269, 24, 0, 1024, 1024, 1024, 1024, 0, 6, 3701, 3728, 3745, 3729, 3742, 3778, 0, 1, 9201, -89.900, 0.000, 11.700, 0.000, 0.000, -2.900, 0.0, , , , , , 99, , , 51, 51, 51
36.6440238, -118.9467551, 11.600, 12:06:49.369, 16, 0.00, 0.15, 95, -2.000, 0.800, 12.800, 255, 100, 100, 16, 22671, -18249, 5288, 5567, 7, 14, 1523646409.370, 49, 0, 1024, 1024, 1024, 1024, 0, 6, 3701, 3728, 3745, 3729, 3742, 3778, 0, 1, 9301, -89.900, 0.000, 11.700, 0.000, 0.000, -2.900, 0.0, , , , , , 99, , , 51, 51, 51
36.6440238, -118.9467550, 12.200, 12:06:49.469, 15, 0.00, 0.16, 95, -1.900, 1.000, 12.800, 255, 100, 100, 16, 22671, -18249, 5288, 5567, 7, 14, 1523646409.470, 41, 0, 1024, 1024, 1024, 1024, 0, 6, 3701, 3728, 3745, 3729, 3742, 3778, 0, 1, 9401, -89.900, 0.000, 11.700, 0.000, 0.000, -2.900, 0.0, , , , , , 99, , , 51, 51, 51
36.6440238, -118.9467550, 12.200, 12:06:49.569, 15, 0.00, 0.16, 95, -1.900, 1.000, 12.800, 255, 100, 100, 16, 22671, -18249, 5288, 5567, 7, 14, 1523646409.569, 141, 0, 1024, 1024, 1024, 1024, 0, 6, 3701, 3728, 3745, 3729, 3742, 3778, 0, 1, 9501, -89.900, 0.000, 11.700, 0.000, 0.000, -2.900, 0.0, , , , , , 99, , , 51, 51, 51
36.6440238, -118.9467549, 12.800, 12:06:49.669, 16, 0.00, 0.16, 95, -1.900, 0.800, 12.700, 255, 100, 100, 16, 22671, -18249, 5288, 5567, 7, 14, 1523646409.670, 26, 0, 1024, 1024, 1025, 1024, 0, 6, 3701, 3728, 3745, 3729, 3742, 3778, 0, 1, 9601, -89.900, 0.000, 11.700, 0.000, 0.000, -2.800, 0.0, , , , , , 99, , , 51, 51, 51
36.6440238, -118.9467549, 13.100, 12:06:49.769, 16, 0.00, 0.17, 95, -1.800, 0.700, 12.600, 255, 100, 100, 16, 22671, -18249, 5288, 5567, 7, 14, 1523646409.769, 30, 0, 1024, 1024, 1024, 1024, 0, 6, 3701, 3728, 3745, 3729, 3742, 3778, 0, 1, 9701, -89.900, 0.000, 11.700, 0.000, 0.000, -2.900, 0.0, , , , , , 99, , , 51, 51, 51
36.6440238, -118.9467549, 13.400, 12:06:49.869, 16, 0.00, 0.17, 95, -1.700, 0.900, 12.600, 255, 100, 100, 16, 22671, -18249, 5288, 5567, 7, 14, 1523646409.869, 29, 0, 1024, 1024, 1025, 1024, 0, 6, 3701, 3728, 3745, 3729, 3742, 3778, 0, 1, 9801, -89.900, 0.000, 11.700, 0.000, 0.000, -2.900, 0.0, , , , , , 99, , , 51, 51, 51
36.6440238, -118.9467550, 13.700, 12:06:49.968, 17, 0.00, 0.16, 95, -1.600, 1.100, 12.700, 255, 100, 100, 16, 22671, -18249, 5288, 5567, 7, 14, 1523646409.969, 17, 0, 1024, 1024, 1024, 1024, 0, 6, 3749, 3790, 3793, 3776, 3791, 3808, 0, 1, 9900, -89.900, 0.000, 11.700, 0.000, 0.000, -2.900, 0.0, , , , , , 99, , , 51, 51, 51
36.6440239, -118.9467550, 14.000, 12:06:50.069, 17, 0.00, 0.16, 95, -1.200, 1.100, 12.800, 255, 100, 100, 16, 22671, -18249, 5288, 5567, 7, 14, 1523646410.069, 21, 0, 1024, 1024, 1024, 1024, 0, 6, 3749, 3790, 3793, 3776, 3791, 3808, 0, 1, 10001, -89.900, 0.000, 11.700, 0.000, 0.000, -2.900, 0.0, , , , , , 99, , , 51, 51, 51
36.6440239, -118.9467550, 14.300, 12:06:50.172, 16, 0.00, 0.16, 95, -1.100, 0.900, 12.800, 255, 100, 100, 16, 22671, -18249, 5288, 5567, 7, 14, 1523646410.172, 7, 0, 1024, 1024, 1024, 1024, 0, 6, 3749, 3790, 3793, 3776, 3791, 3808, 0, 1, 10104, -89.900, 0.000, 11.700, 0.000, 0.000, -3.000, 0.0, , , , , , 99, , , 51, 51, 51
36.6440239, -118.9467551, 14.600, 12:06:50.269, 16, 0.00, 0.16, 95, -1.100, 0.800, 12.800, 255, 100, 100, 16, 22671, -18249, 5288, 5567, 7, 14, 1523646410.269, 27, 0, 1024, 1024, 1025, 1024, 0, 6, 3749, 3790, 3793, 3776, 3791, 3808, 0, 1, 10201, -89.900, 0.000, 11.700, 0.000, 0.000, -3.000, 0.0, , , , , , 99, , , 51, 51, 51
36.6440239, -118.9467551, 14.900, 12:06:50.370, 15, 0.00, 0.16, 95, -1.200, 0.800, 12.800, 255, 100, 100, 16, 22671, -18249, 5288, 5567, 7, 14, 1523646410.371, 7, 0, 1024, 1024, 1025, 1024, 0, 6, 3749, 3790, 3793, 3776, 3791, 3808, 0, 1, 10302, -89.900, 0.000, 11.700, 0.000, 0.000, -2.900, 0.0, , , , , , 99, , , 51, 51, 51
36.6440239, -118.9467552, 15.200, 12:06:50.473, 15, 0.00, 0.15, 95, -1.300, 0.800, 12.900, 255, 100, 100, 16, 22671, -18249, 5288, 5567, 7, 14, 1523646410.473, 4, 0, 1024, 1024, 1025, 1024, 0, 6, 3749, 3790, 3793, 3776, 3791, 3808, 0, 1, 10405, -89.900, 0.000, 11.700, 0.000, 0.000, -2.900, 0.0, , , , , , 99, , , 51, 51, 51
36.6440239, -118.9467552, 15.200, 12:06:50.569, 15, 0.00, 0.15, 95, -1.300, 0.800, 12.900, 255, 100, 100, 16, 22671, -18249, 5288, 5567, 7, 14, 1523646410.569, 100, 0, 1024, 1024, 1025, 1024, 0, 6, 3749, 3790, 3793, 3776, 3791, 3808, 0, 1, 10501, -89.900, 0.000, 11.700, 0.000, 0.000, -2.900, 0.0, , , , , , 99, , , 51, 51, 51
36.6440239, -118.9467553, 15.500, 12:06:50.669, 17, 0.00, 0.15, 95, -1.300, 0.800, 12.800, 255, 100, 100, 16, 22671, -18249, 5288, 5567, 7, 14, 1523646410.669, 95, 0, 1024, 1024, 1024, 1024, 0, 6, 3749, 3790, 3793, 3776, 3791, 3808, 0, 1, 10601, -89.900, 0.000, 11.700, 0.000, 0.000, -2.900, 0.0, , , , , , 99, , , 51, 51, 51
36.6440239, -118.9467554, 15.800, 12:06:50.769, 17, 0.00, 0.14, 95, -1.200, 0.800, 12.700, 255, 100, 100, 16, 22671, -18249, 5288, 5567, 7, 14, 1523646410.769, 73, 0, 1024, 1024, 1024, 1024, 0, 6, 3749, 3790, 3793, 3776, 3791, 3808, 0, 1, 10701, -89.900, 0.000, 11.700, 0.000, 0.000, -2.900, 0.0, , , , , , 99, , , 51, 51, 51
36.6440238, -118.9467556, 16.100, 12:06:50.869, 16, 0.00, 0.13, 95, -1.100, 0.900, 12.600, 255, 100, 100, 16, 22635, -18487, 5288, 5567, 7, 14, 1523646410.869, 78, 0, 1024, 1024, 1024, 1024, 0, 6, 3742, 3778, 3783, 3762, 3772, 3810, 0, 1, 10801, -89.900, 0.000, 11.700, 0.000, 0.000, -2.900, 0.0, , , , , , 99, , , 51, 51, 51
36.6440239, -118.9467556, 16.400, 12:06:50.969, 16, 0.00, 0.13, 95, -0.900, 0.900, 12.300, 255, 100, 100, 16, 22635, -18487, 5288, 5567, 7, 14, 1523646410.969, 77, 0, 1024, 1024, 1024, 1024, 0, 6, 3742, 3778, 3783, 3762, 3772, 3810, 0, 1, 10901, -89.900, 0.000, 11.700, 0.000, 0.000, -3.000, 0.0, , , , , , 99, , , 51, 51, 51
36.6440239, -118.9467557, 16.700, 12:06:51.069, 17, 0.00, 0.13, 95, -1.000, 0.900, 12.100, 255, 100, 100, 16, 22635, -18487, 5288, 5567, 7, 14, 1523646411.069, 57, 0, 1024, 1024, 1025, 1024, 0, 6, 3742, 3778, 3783, 3762, 3772, 3810, 0, 1, 11001, -89.900, 0.000, 11.700, 0.000, 0.000, -3.000, 0.0, , , , , , 99, , , 51, 51, 51
36.6440238, -118.9467558, 17.100, 12:06:51.168, 17, 0.00, 0.12, 95, -1.000, 0.900, 11.900, 255, 100, 100, 16, 22635, -18487, 5288, 5567, 7, 14, 1523646411.169, 46, 0, 1024, 1024, 1025, 1024, 0, 6, 3742, 3778, 3783, 3762, 3772, 3810, 0, 1, 11101, -89.900, 0.000, 11.700, 0.000, 0.000, -3.000, 0.0, , , , , , 99, , , 51, 51, 51
36.6440238, -118.9467559, 17.400, 12:06:51.268, 17, 0.00, 0.12, 95, -1.100, 0.900, 11.900, 255, 100, 100, 16, 22635, -18487, 5288, 5567, 7, 14, 1523646411.269, 37, 0, 1024, 1024, 1025, 1024, 0, 6, 3742, 3778, 3783, 3762, 3772, 3810, 0, 1, 11201, -89.900, 0.000, 11.700, 0.000, 0.000, -2.900, 0.0, , , , , , 99, , , 51, 51, 51
36.6440239, -118.9467559, 17.700, 12:06:51.369, 17, 0.00, 0.12, 95, -1.100, 0.800, 11.900, 255, 100, 100, 16, 22635, -18487, 5288, 5567, 7, 14, 1523646411.369, 40, 0, 1024, 1024, 1025, 1024, 0, 6, 3742, 3778, 3783, 3762, 3772, 3810, 0, 1, 11301, -89.900, 0.000, 11.700, 0.000, 0.000, -2.900, 0.0, , , , , , 99, , , 51, 51, 51
36.6440239, -118.9467559, 18.000, 12:06:51.469, 16, 0.00, 0.13, 95, -1.200, 0.900, 12.100, 255, 100, 100, 16, 22635, -18487, 5288, 5567, 7, 14, 1523646411.470, 42, 0, 1024, 1024, 1024, 1024, 0, 6, 3742, 3778, 3783, 3762, 3772, 3810, 0, 1, 11401, -89.900, 0.000, 11.700, 0.000, 0.000, -2.800, 0.0, , , , , , 99, , , 51, 51, 51
36.6440240, -118.9467559, 18.600, 12:06:51.569, 17, 0.00, 0.13, 95, -1.700, 1.200, 12.400, 255, 100, 100, 16, 22635, -18487, 5288, 5567, 7, 14, 1523646411.569, 38, 0, 1024, 1024, 1025, 1024, 0, 6, 3742, 3778, 3783, 3762, 3772, 3810, 0, 1, 11501, -89.900, 0.000, 11.700, 0.000, 0.000, -2.800, 0.0, , , , , , 99, , , 51, 51, 51
36.6440240, -118.9467559, 18.800, 12:06:51.668, 17, 0.00, 0.13, 95, -1.800, 1.200, 12.500, 255, 100, 100, 16, 22635, -18487, 5288, 5567, 7, 14, 1523646411.669, 45, 0, 1024, 1024, 1024, 1024, 0, 6, 3742, 3778, 3783, 3762, 3772, 3810, 0, 1, 11600, -89.900, 0.000, 11.700, 0.000, 0.000, -2.800, 0.0, , , , , , 99, , , 51, 51, 51
36.6440240, -118.9467559, 19.100, 12:06:51.769, 16, 0.00, 0.13, 95, -1.900, 1.100, 12.600, 255, 100, 100, 16, 22635, -18487, 5288, 5567, 7, 14, 1523646411.769, 44, 0, 1024, 1024, 1025, 1024, 0, 6, 3742, 3778, 3783, 3762, 3772, 3810, 0, 1, 11701, -89.900, 0.000, 11.700, 0.000, 0.000, -2.800, 0.0, , , , , , 99, , , 51, 51, 51
36.6440240, -118.9467558, 19.400, 12:06:51.869, 16, 0.00, 0.14, 95, -2.000, 1.000, 12.600, 255, 100, 100, 16, 22657, -18432, 5288, 5567, 7, 14, 1523646411.869, 49, 0, 1024, 1024, 1024, 1024, 0, 6, 3740, 3789, 3785, 3759, 3779, 3809, 0, 1, 11800, -89.900, 0.000, 11.700, 0.000, 0.000, -2.900, 0.0, , , , , , 99, , , 51, 51, 51
36.6440240, -118.9467558, 19.700, 12:06:51.968, 16, 0.00, 0.14, 95, -1.900, 1.100, 12.600, 255, 100, 100, 16, 22657, -18432, 5288, 5567, 7, 14, 1523646411.969, 18, 0, 1024, 1024, 1024, 1024, 0, 6, 3740, 3789, 3785, 3759, 3779, 3809, 0, 1, 11901, -89.900, 0.000, 11.700, 0.000, 0.000, -2.800, 0.0, , , , , , 99, , , 51, 51, 51
36.6440239, -118.9467560, 20.000, 12:06:52.069, 16, 0.00, 0.13, 95, -1.800, 1.000, 12.700, 255, 100, 100, 16, 22657, -18432, 5288, 5567, 7, 14, 1523646412.070, 24, 0, 1024, 1024, 1024, 1024, 0, 6, 3740, 3789, 3785, 3759, 3779, 3809, 0, 1, 12001, -89.900, 0.000, 11.700, 0.000, 0.000, -2.800, 0.0, , , , , , 99, , , 51, 51, 51
36.6440239, -118.9467562, 20.300, 12:06:52.175, 15, 0.00, 0.12, 95, -1.400, 0.800, 12.700, 255, 100, 100, 16, 22657, -18432, 5288, 5567, 7, 14, 1523646412.176, 7, 0, 1024, 1024, 1024, 1024, 0, 6, 3740, 3789, 3785, 3759, 3779, 3809, 0, 1, 12107, -89.900, 0.000, 11.700, 0.000, 0.000, -2.800, 0.0, , , , , , 99, , , 51, 51, 51
36.6440239, -118.9467562, 20.600, 12:06:52.268, 15, 0.00, 0.12, 95, -1.100, 0.700, 12.800, 255, 100, 100, 16, 22657, -18432, 5288, 5567, 7, 14, 1523646412.269, 11, 0, 1024, 1024, 1024, 1024, 0, 6, 3740, 3789, 3785, 3759, 3779, 3809, 0, 1, 12200, -89.900, 0.000, 11.700, 0.000, 0.000, -2.900, 0.0, , , , , , 99, , , 51, 51, 51
36.6440239, -118.9467562, 20.900, 12:06:52.373, 16, 0.00, 0.12, 95, -1.100, 0.800, 12.800, 255, 100, 100, 16, 22657, -18432, 5288, 5567, 7, 14, 1523646412.373, 9, 0, 1024, 1024, 1025, 1024, 0, 6, 3740, 3789, 3785, 3759, 3779, 3809, 0, 1, 12305, -89.900, 0.000, 11.700, 0.000, 0.000, -2.900, 0.0, , , , , , 99, , , 51, 51, 51
36.6440240, -118.9467562, 21.200, 12:06:52.472, 16, 0.00, 0.13, 95, -1.200, 0.800, 12.900, 255, 100, 100, 16, 22657, -18432, 5288, 5567, 7, 14, 1523646412.472, 6, 0, 1024, 1024, 1025, 1024, 0, 6, 3740, 3789, 3785, 3759, 3779, 3809, 0, 1, 12404, -89.900, 0.000, 11.700, 0.000, 0.000, -2.900, 0.0, , , , , , 99, , , 51, 51, 51
36.6440240, -118.9467562, 21.500, 12:06:52.573, 17, 0.00, 0.13, 95, -1.400, 0.800, 12.900, 255, 100, 100, 16, 22657, -18432, 5288, 5567, 7, 14, 1523646412.574, 12, 0, 1024, 1024, 1025, 1024, 0, 6, 3740, 3789, 3785, 3759, 3779, 3809, 0, 1, 12505, -89.900, 0.000, 11.700, 0.000, 0.000, -2.800, 0.0, , , , , , 99, , , 51, 51, 51
36.6440240, -118.9467562, 21.700, 12:06:52.668, 17, 0.00, 0.13, 95, -1.500, 0.700, 12.800, 255, 100, 100, 16, 22657, -18432, 5288, 5567, 7, 14, 1523646412.669, 8, 0, 1024, 1024, 1024, 1024, 0, 6, 3740, 3789, 3785, 3759, 3779, 3809, 0, 1, 12600, -89.900, 0.000, 11.700, 0.000, 0.000, -2.800, 0.0, , , , , , 99, , , 51, 51, 51
36.6440240, -118.9467562, 22.000, 12:06:52.769, 17, 0.00, 0.13, 95, -1.600, 0.800, 12.700, 255, 100, 100, 16, 22544, -18650, 5288, 5567, 7, 14, 1523646412.769, 10, 0, 1024, 1024, 1024, 1024, 0, 6, 3720, 3771, 3769, 3743, 3752, 3777, 0, 1, 12700, -89.900, 0.000, 11.700, 0.000, 0.000, -2.900, 0.0, , , , , , 99, , , 51, 51, 51
36.6440240, -118.9467562, 22.300, 12:06:52.871, 17, 0.00, 0.13, 95, -1.600, 0.800, 12.700, 255, 100, 100, 16, 22544, -18650, 5288, 5567, 7, 14, 1523646412.871, 13, 0, 1024, 1024, 1024, 1024, 0, 6, 3720, 3771, 3769, 3743, 3752, 3777, 0, 1, 12803, -89.900, 0.000, 11.700, 0.000, 0.000, -2.900, 0.0, , , , , , 99, , , 51, 51, 51
36.6440240, -118.9467562, 22.600, 12:06:52.970, 17, 0.00, 0.14, 95, -1.500, 0.800, 12.800, 255, 100, 100, 16, 22544, -18650, 5288, 5567, 7, 14, 1523646412.970, 4, 0, 1024, 1024, 1025, 1024, 0, 6, 3720, 3771, 3769, 3743, 3752, 3777, 0, 1, 12902, -89.900, 0.000, 11.700, 0.000, 0.000, -3.000, 0.0, , , , , , 99, , , 51, 51, 51
36.6440240, -118.9467562, 22.600, 12:06:53.069, 17, 0.00, 0.14, 95, -1.500, 0.800, 12.800, 255, 100, 100, 16, 22544, -18650, 5288, 5567, 7, 14, 1523646413.069, 102, 0, 1024, 1024, 1024, 1024, 0, 6, 3720, 3771, 3769, 3743, 3752, 3777, 0, 1, 13001, -89.900, 0.000, 11.700, 0.000, 0.000, -3.000, 0.0, , , , , , 99, , , 51, 51, 51
36.6440240, -118.9467564, 22.900, 12:06:53.168, 17, 0.00, 0.13, 95, -1.200, 0.800, 12.800, 255, 100, 100, 16, 22544, -18650, 5288, 5567, 7, 14, 1523646413.169, 95, 0, 1024, 1024, 1025, 1024, 0, 6, 3720, 3771, 3769, 3743, 3752, 3777, 0, 1, 13101, -89.900, 0.000, 11.700, 0.000, 0.000, -3.000, 0.0, , , , , , 99, , , 51, 51, 51
36.6440240, -118.9467565, 23.200, 12:06:53.269, 17, 0.00, 0.13, 95, -1.100, 0.600, 12.900, 255, 100, 100, 16, 22544, -18650, 5288, 5567, 7, 14, 1523646413.269, 51, 0, 1024, 1024, 1025, 1024, 0, 6, 3720, 3771, 3769, 3743, 3752, 3777, 0, 1, 13201, -89.900, 0.000, 11.700, 0.000, 0.000, -2.900, 0.0, , , , , , 99, , , 51, 51, 51
36.6440240, -118.9467566, 23.500, 12:06:53.368, 17, 0.00, 0.13, 95, -0.900, 0.500, 12.900, 255, 100, 100, 16, 22544, -18650, 5288, 5567, 7, 14, 1523646413.369, 77, 0, 1024, 1024, 1024, 1024, 0, 6, 3720, 3771, 3769, 3743, 3752, 3777, 0, 1, 13301, -89.900, 0.000, 11.700, 0.000, 0.000, -3.000, 0.0, , , , , , 99, , , 51, 51, 51
36.6440239, -118.9467568, 23.800, 12:06:53.469, 17, 0.00, 0.13, 95, -0.700, 0.500, 12.900, 255, 100, 100, 16, 22544, -18650, 5288, 5567, 7, 14, 1523646413.469, 79, 0, 1024, 1024, 1025, 1024, 0, 6, 3720, 3771, 3769, 3743, 3752, 3777, 0, 1, 13401, -89.900, 0.000, 11.700, 0.000, 0.000, -3.000, 0.0, , , , , , 99, , , 51, 51, 51
36.6440239, -118.9467568, 24.100, 12:06:53.569, 17, 0.00, 0.13, 95, -0.800, 0.400, 12.800, 255, 100, 100, 16, 22544, -18650, 5288, 5567, 7, 14, 1523646413.569, 61, 0, 1024, 1024, 1024, 1024, 0, 6, 3720, 3771, 3769, 3743, 3752, 3777, 0, 1, 13501, -89.900, 0.000, 11.700, 0.000, 0.000, -3.000, 0.0, , , , , , 99, , , 51, 51, 51
36.6440239, -118.9467569, 24.400, 12:06:53.669, 17, 0.00, 0.13, 95, -0.800, 0.500, 12.700, 255, 100, 100, 16, 22544, -18650, 5288, 5567, 7, 14, 1523646413.669, 74, 0, 1024, 1024, 1025, 1024, 0, 6, 3720, 3771, 3769, 3743, 3752, 3777, 0, 1, 13601, -89.900, 0.000, 11.700, 0.000, 0.000, -2.900, 0.0, , , , , , 99, , , 51, 51, 51
36.6440239, -118.9467568, 25.000, 12:06:53.769, 16, 0.00, 0.12, 95, -1.200, 0.600, 12.600, 255, 100, 100, 16, 22544, -18650, 5288, 5567, 7, 14, 1523646413.770, 46, 0, 1024, 1024, 1024, 1024, 0, 6, 3720, 3771, 3769, 3743, 3752, 3777, 0, 1, 13701, -89.900, 0.000, 11.700, 0.000, 0.000, -2.900, 0.0, , , , , , 99, , , 51, 51, 51
36.6440239, -118.9467568, 25.000, 12:06:53.868, 16, 0.00, 0.12, 95, -1.200, 0.600, 12.600, 255, 100, 100, 16, 22491, -19180, 5288, 5567, 7, 14, 1523646413.869, 145, 0, 1024, 1024, 1025, 1024, 0, 6, 3720, 3771, 3769, 3743, 3752, 3777, 0, 1, 13800, -89.900, 0.000, 11.700, 0.000, 0.000, -2.900, 0.0, , , , , , 99, , , 51, 51, 51
36.6440239, -118.9467564, 25.600, 12:06:53.968, 17, 0.00, 0.12, 95, -2.400, 0.600, 12.700, 255, 100, 99, 16, 22491, -19180, 5288, 5567, 7, 14, 1523646413.969, 20, 0, 1024, 1024, 1024, 1024, 0, 6, 3703, 3764, 3756, 3736, 3759, 3774, 0, 1, 13901, -90.000, 0.000, 11.700, 0.000, 0.000, -2.900, 0.0, , , , , , 99, , , 51, 51, 51
36.6440239, -118.9467562, 25.900, 12:06:54.068, 17, 0.10, 0.12, 95, -2.800, 0.800, 12.700, 255, 100, 99, 16, 22491, -19180, 5288, 5567, 7, 14, 1523646414.069, 39, 0, 1024, 1024, 1024, 1024, 0, 6, 3703, 3764, 3756, 3736, 3759, 3774, 0, 1, 14001, -89.900, 0.000, 11.700, 0.000, 0.100, -2.900, 0.0, , , , , , 99, , , 51, 51, 51
36.6440239, -118.9467560, 26.200, 12:06:54.169, 17, 0.10, 0.12, 95, -3.500, 1.000, 12.700, 255, 100, 99, 16, 22491, -19180, 5288, 5567, 7, 14, 1523646414.171, 11, 0, 1024, 1024, 1024, 1024, 0, 6, 3703, 3764, 3756, 3736, 3759, 3774, 0, 1, 14103, -89.900, 0.000, 11.700, 0.000, 0.100, -3.000, 0.0, , , , , , 99, , , 51, 51, 51
36.6440239, -118.9467559, 26.500, 12:06:54.274, 17, 0.10, 0.12, 95, -3.800, 1.100, 12.800, 255, 100, 99, 16, 22491, -19180, 5288, 5567, 7, 14, 1523646414.275, 12, 0, 1024, 1024, 1024, 1024, 0, 6, 3703, 3764, 3756, 3736, 3759, 3774, 0, 1, 14206, -89.900, 0.000, 11.700, 0.000, 0.100, -3.000, 0.0, , , , , , 99, , , 51, 51, 51
36.6440238, -118.9467558, 26.800, 12:06:54.368, 17, 0.00, 0.11, 95, -3.700, 1.000, 12.800, 255, 100, 99, 16, 22491, -19180, 5288, 5567, 7, 14, 1523646414.372, 30, 0, 1024, 1024, 1025, 1024, 0, 6, 3703, 3764, 3756, 3736, 3759, 3774, 0, 1, 14303, -89.900, 0.000, 11.700, 0.000, 0.000, -2.900, 0.0, , , , , , 99, , , 51, 51, 51
36.6440237, -118.9467557, 27.100, 12:06:54.468, 17, 0.00, 0.12, 95, -3.500, 0.800, 12.700, 255, 100, 98, 16, 22491, -19180, 5288, 5567, 7, 14, 1523646414.470, 27, 0, 1024, 1024, 1025, 1024, 0, 6, 3703, 3764, 3756, 3736, 3759, 3774, 0, 1, 14401, -90.000, 0.000, 11.700, 0.000, 0.000, -3.000, 0.0, , , , , , 99, , , 51, 51, 51
36.6440237, -118.9467555, 27.500, 12:06:54.575, 17, 0.00, 0.12, 95, -3.500, 0.500, 12.700, 255, 100, 98, 16, 22491, -19180, 5288, 5567, 7, 14, 1523646414.575, 11, 0, 1024, 1024, 1024, 1024, 0, 6, 3703, 3764, 3756, 3736, 3759, 3774, 0, 1, 14507, -90.000, 0.000, 11.700, 0.000, 0.000, -3.000, 0.0, , , , , , 99, , , 51, 51, 51
36.6440237, -118.9467553, 27.800, 12:06:54.670, 17, 0.10, 0.13, 95, -3.800, 0.400, 12.700, 255, 100, 98, 16, 22491, -19180, 5288, 5567, 7, 14, 1523646414.672, 14, 0, 1024, 1024, 1025, 1024, 0, 6, 3703, 3764, 3756, 3736, 3759, 3774, 0, 1, 14603, -90.000, 0.000, 11.700, 0.000, 0.100, -3.000, 0.0, , , , , , 99, , , 51, 51, 51
36.6440237, -118.9467551, 28.100, 12:06:54.768, 17, 0.10, 0.14, 95, -4.100, 0.500, 12.700, 255, 100, 98, 16, 22520, -18846, 5288, 5567, 7, 14, 1523646414.771, 26, 0, 1024, 1024, 1024, 1024, 0, 6, 3703, 3764, 3756, 3736, 3759, 3774, 0, 1, 14704, -90.000, 0.000, 11.700, 0.000, 0.100, -2.900, 0.0, , , , , , 99, , , 51, 51, 51
36.6440237, -118.9467551, 28.100, 12:06:54.869, 17, 0.10, 0.14, 95, -4.100, 0.500, 12.700, 255, 100, 98, 16, 22520, -18846, 5288, 5567, 7, 14, 1523646414.871, 125, 0, 1024, 1024, 1024, 1024, 0, 6, 3703, 3764, 3756, 3736, 3759, 3774, 0, 1, 14802, -90.000, 0.000, 11.700, 0.000, 0.100, -2.900, 0.0, , , , , , 99, , , 51, 51, 51
36.6440237, -118.9467549, 28.400, 12:06:54.968, 17, 0.10, 0.15, 95, -4.300, 0.600, 12.600, 255, 100, 98, 16, 22520, -18846, 5288, 5567, 7, 14, 1523646414.972, 81, 0, 1024, 1024, 1024, 1024, 0, 6, 3703, 3764, 3756, 3736, 3759, 3774, 0, 1, 14903, -89.900, 0.000, 11.700, 0.000, 0.100, -2.800, 0.0, , , , , , 99, , , 51, 51, 51
36.6440237, -118.9467548, 28.700, 12:06:55.068, 17, 0.00, 0.17, 95, -4.500, 1.000, 12.500, 255, 100, 98, 16, 22520, -18846, 5288, 5567, 7, 14, 1523646415.069, 78, 0, 1024, 1024, 1025, 1024, 0, 6, 3703, 3764, 3756, 3736, 3759, 3774, 0, 1, 15001, -89.900, 0.000, 11.700, 0.000, 0.000, -2.900, 0.0, , , , , , 99, , , 51, 51, 51
36.6440237, -118.9467546, 28.900, 12:06:55.169, 17, 0.00, 0.18, 95, -4.500, 1.400, 12.600, 255, 100, 98, 16, 22520, -18846, 5288, 5567, 7, 14, 1523646415.170, 81, 0, 1024, 1024, 1024, 1024, 0, 6, 3703, 3764, 3756, 3736, 3759, 3774, 0, 1, 15102, -89.900, 0.000, 11.700, 0.000, 0.000, -2.800, 0.0, , , , , , 99, , , 51, 51, 51
36.6440237, -118.9467544, 29.200, 12:06:55.268, 17, 0.00, 0.19, 95, -4.400, 1.400, 12.800, 255, 100, 98, 16, 22520, -18846, 5288, 5567, 7, 14, 1523646415.269, 43, 0, 1024, 1024, 1024, 1024, 0, 6, 3703, 3764, 3756, 3736, 3759, 3774, 0, 1, 15201, -89.900, 0.000, 11.700, 0.000, 0.000, -2.800, 0.0, , , , , , 99, , , 51, 51, 51
36.6440237, -118.9467543, 29.500, 12:06:55.368, 17, 0.00, 0.20, 95, -4.400, 1.300, 12.900, 255, 100, 98, 16, 22520, -18846, 5288, 5567, 7, 14, 1523646415.369, 46, 0, 1024, 1024, 1024, 1024, 0, 6, 3711, 3766, 3761, 3740, 3752, 3782, 0, 1, 15301, -89.900, 0.000, 11.700, 0.000, 0.000, -2.900, 0.0, , , , , , 99, , , 51, 51, 51
36.6440237, -118.9467541, 29.800, 12:06:55.476, 17, 0.00, 0.22, 95, -4.600, 1.200, 12.900, 255, 100, 99, 16, 22520, -18846, 5288, 5567, 7, 14, 1523646415.476, 6, 0, 1024, 1024, 1024, 1024, 0, 6, 3711, 3766, 3761, 3740, 3752, 3782, 0, 1, 15407, -89.900, 0.000, 11.700, 0.000, 0.000, -2.900, 0.0, , , , , , 99, , , 51, 51, 51
36.6440237, -118.9467539, 30.100, 12:06:55.570, 17, 0.00, 0.23, 95, -4.900, 1.200, 12.700, 255, 100, 99, 16, 22520, -18846, 5288, 5567, 7, 14, 1523646415.573, 29, 0, 1024, 1024, 1024, 1024, 0, 6, 3711, 3766, 3761, 3740, 3752, 3782, 0, 1, 15504, -89.900, 0.000, 11.700, 0.000, 0.000, -2.900, 0.0, , , , , , 99, , , 51, 51, 51
36.6440237, -118.9467538, 30.400, 12:06:55.672, 17, 0.00, 0.24, 95, -5.500, 1.100, 12.400, 255, 100, 99, 16, 22520, -18846, 5288, 5567, 7, 14, 1523646415.672, 19, 0, 1024, 1024, 1024, 1024, 0, 6, 3711, 3766, 3761, 3740, 3752, 3782, 0, 1, 15604, -90.000, 0.000, 11.700, 0.000, 0.000, -2.900, 0.0, , , , , , 99, , , 51, 51, 51
36.6440236, -118.9467536, 30.700, 12:06:55.769, 17, 0.00, 0.25, 95, -6.100, 0.800, 12.200, 255, 100, 99, 16, 22520, -18846, 5288, 5567, 7, 14, 1523646415.769, 12, 0, 1024, 1024, 1025, 1024, 0, 6, 3711, 3766, 3761, 3740, 3752, 3782, 0, 1, 15701, -89.900, 0.000, 11.700, 0.000, 0.000, -2.900, 0.0, , , , , , 99, , , 51, 51, 51
36.6440236, -118.9467535, 30.900, 12:06:55.869, 17, 0.00, 0.26, 95, -6.100, 0.800, 12.100, 255, 100, 99, 16, 22440, -18846, 5288, 5567, 7, 14, 1523646415.870, 36, 0, 1024, 1024, 1024, 1024, 0, 6, 3711, 3766, 3761, 3740, 3752, 3782, 0, 1, 15802, -90.000, 0.000, 11.700, 0.000, 0.000, -2.900, 0.0, , , , , , 99, , , 51, 51, 51
36.6440237, -118.9467534, 31.500, 12:06:55.968, 17, 0.00, 0.27, 95, -5.300, 1.200, 11.800, 255, 100, 99, 16, 22440, -18846, 5288, 5567, 7, 14, 1523646415.969, 43, 0, 1024, 1024, 1024, 1024, 0, 6, 3711, 3766, 3761, 3740, 3752, 3782, 0, 1, 15901, -89.900, 0.000, 11.700, 0.000, 0.000, -2.900, 0.0, , , , , , 99, , , 51, 51, 51
36.6440238, -118.9467535, 31.800, 12:06:56.068, 17, 0.00, 0.27, 95, -4.700, 1.500, 11.800, 255, 100, 99, 16, 22440, -18846, 5288, 5567, 7, 14, 1523646416.069, 31, 0, 1024, 1024, 1024, 1024, 0, 6, 3711, 3766, 3761, 3740, 3752, 3782, 0, 1, 16000, -89.900, 0.000, 11.700, 0.000, 0.000, -2.900, 0.0, , , , , , 99, , , 51, 51, 51
36.6440239, -118.9467536, 32.100, 12:06:56.186, 17, 0.00, 0.27, 95, -4.200, 1.700, 11.900, 255, 100, 99, 16, 22440, -18846, 5288, 5567, 7, 14, 1523646416.186, 5, 0, 1024, 1024, 1024, 1024, 0, 6, 3711, 3766, 3761, 3740, 3752, 3782, 0, 1, 16117, -89.900, 0.000, 11.700, 0.000, 0.000, -3.000, 0.0, , , , , , 99, , , 51, 51, 51
36.6440239, -118.9467537, 32.400, 12:06:56.269, 17, 0.00, 0.26, 95, -3.800, 1.900, 12.000, 255, 100, 99, 16, 22440, -18846, 5288, 5567, 7, 14, 1523646416.269, 19, 0, 1024, 1024, 1024, 1024, 0, 6, 3711, 3766, 3761, 3740, 3752, 3782, 0, 1, 16201, -89.900, 0.000, 11.700, 0.000, 0.000, -3.000, 0.0, , , , , , 99, , , 51, 51, 51
36.6440240, -118.9467538, 32.600, 12:06:56.368, 17, 0.00, 0.26, 95, -3.500, 2.000, 12.200, 255, 100, 98, 16, 22440, -19108, 5232, 5567, 7, 14, 1523646416.369, 23, 0, 1024, 1024, 1025, 1024, 0, 6, 3711, 3766, 3761, 3740, 3752, 3782, 0, 1, 16300, -89.900, 0.000, 11.700, 0.000, 0.000, -3.000, 0.0, , , , , , 99, , , 51, 51, 51
36.6440241, -118.9467539, 32.900, 12:06:56.468, 17, 0.00, 0.26, 95, -3.400, 1.900, 12.400, 255, 100, 98, 16, 22440, -19108, 5232, 5567, 7, 14, 1523646416.469, 15, 0, 1024, 1024, 1025, 1024, 0, 6, 3692, 3757, 3749, 3717, 3743, 3755, 0, 1, 16401, -89.900, 0.000, 11.700, 0.000, 0.000, -3.000, 0.0, , , , , , 99, , , 51, 51, 51
36.6440242, -118.9467540, 33.200, 12:06:56.569, 17, 0.00, 0.25, 95, -3.400, 1.900, 12.600, 255, 100, 98, 16, 22440, -19108, 5232, 5567, 7, 14, 1523646416.569, 30, 0, 1024, 1024, 1024, 1024, 0, 6, 3692, 3757, 3749, 3717, 3743, 3755, 0, 1, 16501, -89.900, 0.000, 11.700, 0.000, 0.000, -3.000, 0.0, , , , , , 99, , , 51, 51, 51
36.6440242, -118.9467540, 33.200, 12:06:56.668, 17, 0.00, 0.25, 95, -3.400, 1.900, 12.600, 255, 100, 98, 16, 22440, -19108, 5232, 5567, 7, 14, 1523646416.669, 129, 0, 1024, 1024, 1024, 1024, 0, 6, 3692, 3757, 3749, 3717, 3743, 3755, 0, 1, 16600, -89.900, 0.000, 11.700, 0.000, 0.000, -3.000, 0.0, , , , , , 99, , , 51, 51, 51
36.6440242, -118.9467541, 33.500, 12:06:56.769, 17, 0.00, 0.25, 95, -3.400, 1.900, 12.600, 255, 100, 98, 16, 22440, -19108, 5232, 5567, 7, 14, 1523646416.769, 97, 0, 1024, 1024, 1025, 1024, 0, 6, 3692, 3757, 3749, 3717, 3743, 3755, 0, 1, 16701, -89.900, 0.000, 11.700, 0.000, 0.000, -3.000, 0.0, , , , , , 99, , , 51, 51, 51
36.6440243, -118.9467542, 33.800, 12:06:56.869, 17, 0.00, 0.25, 94, -3.400, 2.000, 12.700, 255, 100, 98, 16, 22440, -19108, 5232, 5567, 7, 14, 1523646416.869, 97, 0, 1024, 1024, 1024, 1024, 0, 6, 3692, 3757, 3749, 3717, 3743, 3755, 0, 1, 16801, -89.900, 0.000, 11.700, 0.000, 0.000, -3.000, 0.0, , , , , , 99, , , 51, 51, 51
36.6440243, -118.9467543, 34.100, 12:06:56.969, 17, 0.00, 0.25, 94, -3.500, 2.200, 12.600, 255, 100, 98, 16, 22440, -19108, 5232, 5567, 7, 14, 1523646416.969, 97, 0, 1024, 1024, 1025, 1024, 0, 6, 3692, 3757, 3749, 3717, 3743, 3755, 0, 1, 16901, -89.900, 0.000, 11.700, 0.000, 0.000, -3.000, 0.0, , , , , , 99, , , 51, 51, 51
36.6440244, -118.9467543, 34.400, 12:06:57.069, 17, 0.00, 0.25, 94, -3.500, 2.300, 12.600, 255, 100, 98, 16, 22440, -19108, 5232, 5567, 7, 14, 1523646417.069, 92, 0, 1024, 1024, 1025, 1024, 0, 6, 3692, 3757, 3749, 3717, 3743, 3755, 0, 1, 17001, -89.900, 0.000, 11.700, 0.000, 0.000, -3.000, 0.0, , , , , , 99, , , 51, 51, 51
36.6440244, -118.9467544, 34.700, 12:06:57.169, 17, 0.00, 0.25, 94, -3.400, 2.500, 12.500, 255, 100, 98, 16, 22440, -19108, 5232, 5567, 7, 14, 1523646417.173, 99, 0, 1024, 1024, 1024, 1024, 0, 6, 3692, 3757, 3749, 3717, 3743, 3755, 0, 1, 17104, -89.900, 0.000, 11.700, 0.000, 0.000, -3.100, 0.0, , , , , , 99, , , 51, 51, 51
36.6440245, -118.9467544, 35.000, 12:06:57.268, 17, 0.00, 0.25, 94, -3.500, 2.500, 12.500, 255, 100, 98, 16, 22440, -19108, 5232, 5567, 7, 14, 1523646417.271, 45, 0, 1024, 1024, 1025, 1024, 0, 6, 3692, 3757, 3749, 3717, 3743, 3755, 0, 1, 17203, -89.900, 0.000, 11.700, 0.000, 0.000, -3.100, 0.0, , , , , , 99, , , 51, 51, 51
36.6440245, -118.9467545, 35.300, 12:06:57.368, 17, 0.00, 0.25, 94, -3.700, 2.400, 12.500, 255, 100, 98, 16, 22396, -19531, 5232, 5567, 7, 14, 1523646417.372, 77, 0, 1024, 1024, 1025, 1024, 0, 6, 3692, 3757, 3749, 3717, 3743, 3755, 0, 1, 17303, -89.900, 0.000, 11.700, 0.000, 0.000, -3.000, 0.0, , , , , , 99, , , 51, 51, 51
36.6440245, -118.9467545, 35.600, 12:06:57.468, 17, 0.00, 0.25, 94, -3.800, 2.200, 12.500, 255, 100, 99, 16, 22396, -19531, 5232, 5567, 7, 14, 1523646417.473, 68, 0, 1024, 1024, 1024, 1024, 0, 6, 3692, 3757, 3749, 3717, 3743, 3755, 0, 1, 17404, -89.900, 0.000, 11.700, 0.000, 0.000, -3.000, 0.0, , , , , , 99, , , 51, 51, 51
36.6440245, -118.9467545, 35.900, 12:06:57.569, 17, 0.00, 0.25, 94, -3.700, 2.000, 12.500, 255, 100, 99, 16, 22396, -19531, 5232, 5567, 7, 14, 1523646417.573, 20, 0, 1024, 1024, 1024, 1024, 0, 6, 3698, 3736, 3746, 3722, 3732, 3756, 0, 1, 17505, -89.900, 0.000, 11.700, 0.000, 0.000, -3.000, 0.0, , , , , , 99, , , 51, 51, 51
36.6440245, -118.9467546, 36.200, 12:06:57.670, 17, 0.00, 0.24, 94, -3.700, 1.700, 12.500, 255, 100, 99, 16, 22396, -19531, 5232, 5567, 7, 14, 1523646417.671, 55, 0, 1024, 1024, 1025, 1024, 0, 6, 3698, 3736, 3746, 3722, 3732, 3756, 0, 1, 17603, -89.900, 0.000, 11.700, 0.000, 0.000, -3.100, 0.0, , , , , , 99, , , 51, 51, 51
36.6440245, -118.9467546, 36.500, 12:06:57.769, 17, 0.00, 0.24, 94, -3.800, 1.800, 12.500, 255, 100, 99, 16, 22396, -19531, 5232, 5567, 7, 14, 1523646417.772, 58, 0, 1024, 1024, 1025, 1024, 0, 6, 3698, 3736, 3746, 3722, 3732, 3756, 0, 1, 17704, -89.900, 0.000, 11.700, 0.000, 0.000, -3.000, 0.0, , , , , , 99, , , 51, 51, 51
36.6440246, -118.9467547, 36.800, 12:06:57.869, 17, 0.00, 0.24, 94, -3.800, 2.000, 12.600, 255, 100, 99, 16, 22396, -19531, 5232, 5567, 7, 14, 1523646417.871, 57, 0, 1024, 1024, 1025, 1024, 0, 6, 3698, 3736, 3746, 3722, 3732, 3756, 0, 1, 17803, -89.900, 0.000, 11.700, 0.000, 0.000, -3.000, 0.0, , , , , , 99, , , 51, 51, 51
36.6440246, -118.9467548, 37.400, 12:06:57.968, 17, 0.00, 0.24, 94, -3.700, 2.300, 12.600, 255, 100, 99, 16, 22396, -19531, 5232, 5567, 7, 14, 1523646417.969, 37, 0, 1024, 1024, 1024, 1024, 0, 6, 3698, 3736, 3746, 3722, 3732, 3756, 0, 1, 17901, -89.900, 0.000, 11.700, 0.000, 0.000, -2.900, 0.0, , , , , , 99, , , 51, 51, 51
36.6440246, -118.9467548, 37.700, 12:06:58.070, 17, 0.00, 0.24, 94, -4.000, 2.200, 12.600, 255, 100, 99, 16, 22396, -19531, 5232, 5567, 7, 14, 1523646418.073, 45, 0, 1024, 1024, 1024, 1024, 0, 6, 3698, 3736, 3746, 3722, 3732, 3756, 0, 1, 18004, -89.900, 0.000, 11.700, 0.000, 0.000, -3.000, 0.0, , , , , , 99, , , 51, 51, 51
36.6440246, -118.9467548, 38.000, 12:06:58.187, 17, 0.00, 0.23, 94, -3.800, 2.000, 12.600, 255, 100, 99, 16, 22396, -19531, 5232, 5567, 7, 14, 1523646418.187, 8, 0, 1024, 1024, 1025, 1024, 0, 6, 3698, 3736, 3746, 3722, 3732, 3756, 0, 1, 18119, -89.900, 0.000, 11.700, 0.000, 0.000, -3.000, 0.0, , , , , , 99, , , 51, 51, 51
36.6440245, -118.9467549, 38.300, 12:06:58.271, 17, 0.00, 0.23, 94, -3.500, 1.700, 12.600, 255, 100, 99, 16, 22396, -19531, 5232, 5567, 7, 14, 1523646418.273, 13, 0, 1024, 1024, 1024, 1024, 0, 6, 3698, 3736, 3746, 3722, 3732, 3756, 0, 1, 18204, -89.900, 0.000, 11.700, 0.000, 0.000, -2.900, 0.0, , , , , , 99, , , 51, 51, 51
36.6440245, -118.9467550, 38.600, 12:06:58.380, 17, 0.00, 0.22, 94, -3.100, 1.400, 12.500, 255, 100, 98, 16, 22404, -19072, 5232, 5567, 7, 14, 1523646418.380, 16, 0, 1024, 1024, 1025, 1024, 0, 6, 3698, 3736, 3746, 3722, 3732, 3756, 0, 1, 18312, -89.900, 0.000, 11.700, 0.000, 0.000, -3.000, 0.0, , , , , , 99, , , 51, 51, 51
36.6440245, -118.9467552, 38.900, 12:06:58.487, 17, 0.00, 0.21, 94, -2.800, 1.400, 12.500, 255, 100, 98, 16, 22404, -19072, 5232, 5567, 7, 14, 1523646418.488, 8, 0, 1024, 1024, 1025, 1024, 0, 6, 3693, 3745, 3743, 3725, 3730, 3770, 0, 1, 18419, -89.900, 0.000, 11.700, 0.000, 0.000, -3.100, 0.0, , , , , , 99, , , 51, 51, 51
36.6440244, -118.9467553, 39.200, 12:06:58.573, 17, 0.00, 0.20, 94, -2.700, 1.400, 12.500, 255, 100, 98, 16, 22404, -19072, 5232, 5567, 7, 14, 1523646418.573, 17, 0, 1024, 1024, 1024, 1024, 0, 6, 3693, 3745, 3743, 3725, 3730, 3770, 0, 1, 18504, -89.900, 0.000, 11.700, 0.000, 0.000, -3.100, 0.0, , , , , , 99, , , 51, 51, 51
36.6440244, -118.9467554, 39.500, 12:06:58.668, 17, 0.00, 0.20, 94, -2.700, 1.400, 12.500, 255, 100, 98, 16, 22404, -19072, 5232, 5567, 7, 14, 1523646418.669, 10, 0, 1024, 1024, 1024, 1024, 0, 6, 3693, 3745, 3743, 3725, 3730, 3770, 0, 1, 18600, -89.900, 0.000, 11.700, 0.000, 0.000, -3.100, 0.0, , , , , , 99, , , 51, 51, 51
36.6440244, -118.9467555, 39.900, 12:06:58.770, 17, 0.00, 0.19, 94, -2.800, 1.400, 12.600, 255, 100, 98, 16, 22404, -19072, 5232, 5567, 7, 14, 1523646418.771, 13, 0, 1024, 1024, 1025, 1024, 0, 6, 3693, 3745, 3743, 3725, 3730, 3770, 0, 1, 18703, -89.900, 0.000, 11.700, 0.000, 0.000, -3.100, 0.0, , , , , , 99, , , 51, 51, 51
36.6440244, -118.9467555, 40.200, 12:06:58.872, 17, 0.00, 0.19, 94, -2.900, 1.400, 12.700, 255, 100, 98, 16, 22404, -19072, 5232, 5567, 7, 14, 1523646418.873, 16, 0, 1024, 1024, 1024, 1024, 0, 6, 3693, 3745, 3743, 3725, 3730, 3770, 0, 1, 18804, -89.900, 0.000, 11.700, 0.000, 0.000, -3.000, 0.0, , , , , , 99, , , 51, 51, 51
36.6440244, -118.9467555, 40.200, 12:06:58.971, 17, 0.00, 0.19, 94, -2.900, 1.400, 12.700, 255, 100, 98, 16, 22404, -19072, 5232, 5567, 7, 14, 1523646418.972, 116, 0, 1024, 1024, 1024, 1024, 0, 6, 3693, 3745, 3743, 3725, 3730, 3770, 0, 1, 18904, -89.900, 0.000, 11.700, 0.000, 0.000, -3.000, 0.0, , , , , , 99, , , 51, 51, 51
36.6440243, -118.9467556, 40.500, 12:06:59.068, 17, 0.00, 0.18, 94, -2.800, 1.500, 12.700, 255, 100, 98, 16, 22404, -19072, 5232, 5567, 7, 14, 1523646419.069, 81, 0, 1024, 1024, 1025, 1024, 0, 6, 3693, 3745, 3743, 3725, 3730, 3770, 0, 1, 19000, -89.900, 0.000, 11.700, 0.000, 0.000, -3.000, 0.0, , , , , , 99, , , 51, 51, 51
36.6440243, -118.9467556, 40.800, 12:06:59.171, 17, 0.00, 0.18, 94, -3.000, 1.500, 12.800, 255, 100, 98, 16, 22404, -19072, 5232, 5567, 7, 14, 1523646419.172, 87, 0, 1024, 1024, 1025, 1024, 0, 6, 3693, 3745, 3743, 3725, 3730, 3770, 0, 1, 19104, -89.900, 0.000, 11.700, 0.000, 0.000, -3.100, 0.0, , , , , , 99, , , 51, 51, 51
36.6440243, -118.9467556, 41.100, 12:06:59.268, 17, 0.00, 0.17, 94, -3.200, 1.500, 12.800, 255, 100, 98, 16, 22404, -19072, 5232, 5567, 7, 14, 1523646419.269, 35, 0, 1024, 1024, 1025, 1024, 0, 6, 3693, 3745, 3743, 3725, 3730, 3770, 0, 1, 19200, -89.900, 0.000, 11.700, 0.000, 0.000, -3.100, 0.0, , , , , , 99, , , 51, 51, 51
36.6440243, -118.9467556, 41.100, 12:06:59.371, 17, 0.00, 0.17, 94, -3.200, 1.500, 12.800, 255, 100, 98, 16, 22253, -20377, 5232, 5567, 7, 14, 1523646419.372, 138, 0, 1024, 1024, 1024, 1024, 0, 6, 3693, 3745, 3743, 3725, 3730, 3770, 0, 1, 19304, -90.000, 0.000, 11.700, 0.000, 0.000, -3.100, 0.0, , , , , , 99, , , 51, 51, 51
36.6440242, -118.9467556, 41.700, 12:06:59.471, 17, 0.00, 0.17, 94, -4.300, 1.200, 12.700, 255, 100, 97, 16, 22253, -20377, 5232, 5567, 7, 14, 1523646419.472, 59, 0, 1024, 1024, 1025, 1024, 0, 6, 3693, 3745, 3743, 3725, 3730, 3770, 0, 1, 19403, -90.000, 0.000, 11.700, 0.000, 0.000, -3.000, 0.0, , , , , , 99, , , 51, 51, 51
36.6440241, -118.9467555, 42.000, 12:06:59.568, 17, 0.00, 0.16, 94, -4.700, 1.000, 12.700, 255, 100, 97, 16, 22253, -20377, 5232, 5567, 7, 14, 1523646419.569, 29, 0, 1024, 1024, 1024, 1024, 0, 6, 3653, 3727, 3708, 3695, 3703, 3743, 0, 1, 19500, -90.000, 0.000, 11.700, 0.000, 0.000, -3.000, 0.0, , , , , , 99, , , 51, 51, 51
36.6440241, -118.9467555, 42.000, 12:06:59.669, 17, 0.00, 0.16, 94, -4.700, 1.000, 12.700, 255, 100, 97, 16, 22253, -20377, 5232, 5567, 7, 14, 1523646419.669, 129, 0, 1024, 1024, 1024, 1024, 0, 6, 3653, 3727, 3708, 3695, 3703, 3743, 0, 1, 19601, -89.900, 0.000, 11.700, 0.000, 0.000, -3.000, 0.0, , , , , , 99, , , 51, 51, 51
36.6440241, -118.9467555, 42.600, 12:06:59.778, 17, 0.00, 0.16, 94, -4.100, 1.400, 12.700, 255, 100, 97, 16, 22253, -20377, 5232, 5567, 7, 14, 1523646419.779, 17, 0, 1024, 1024, 1024, 1024, 0, 6, 3653, 3727, 3708, 3695, 3703, 3743, 0, 1, 19711, -89.900, 0.000, 11.700, 0.000, 0.000, -3.000, 0.0, , , , , , 99, , , 51, 51, 51
36.6440241, -118.9467555, 42.600, 12:06:59.869, 17, 0.00, 0.16, 94, -4.100, 1.400, 12.700, 255, 100, 97, 16, 22253, -20377, 5232, 5567, 7, 14, 1523646419.874, 112, 0, 1024, 1024, 1024, 1024, 0, 6, 3653, 3727, 3708, 3695, 3703, 3743, 0, 1, 19805, -89.900, 0.000, 11.700, 0.000, 0.000, -3.000, 0.0, , , , , , 99, , , 51, 51, 51
36.6440241, -118.9467556, 42.900, 12:06:59.968, 17, 0.00, 0.15, 94, -3.300, 1.600, 12.700, 255, 100, 97, 16, 22253, -20377, 5232, 5567, 7, 14, 1523646419.971, 68, 0, 1024, 1024, 1025, 1024, 0, 6, 3653, 3727, 3708, 3695, 3703, 3743, 0, 1, 19903, -89.900, 0.000, 11.700, 0.000, 0.000, -3.000, 0.0, , , , , , 99, , , 51, 51, 51
36.6440241, -118.9467557, 43.200, 12:07:00.068, 17, 0.00, 0.15, 94, -3.000, 1.600, 12.800, 255, 100, 96, 16, 22253, -20377, 5232, 5567, 7, 14, 1523646420.069, 94, 0, 1024, 1024, 1024, 1024, 0, 6, 3653, 3727, 3708, 3695, 3703, 3743, 0, 1, 20000, -89.900, 0.000, 11.700, 0.000, 0.000, -3.000, 0.0, , , , , , 99, , , 51, 51, 51
36.6440241, -118.9467559, 43.600, 12:07:00.168, 17, 0.00, 0.14, 94, -2.500, 1.500, 12.800, 255, 100, 96, 16, 22253, -20377, 5232, 5567, 7, 14, 1523646420.169, 94, 0, 1024, 1024, 1025, 1024, 0, 6, 3653, 3727, 3708, 3695, 3703, 3743, 0, 1, 20101, -89.900, 0.000, 11.700, 0.000, 0.000, -3.000, 0.0, , , , , , 99, , , 51, 51, 51
36.6440241, -118.9467560, 43.900, 12:07:00.268, 17, 0.00, 0.14, 94, -2.000, 1.600, 12.800, 255, 100, 96, 16, 22253, -20377, 5232, 5567, 7, 14, 1523646420.269, 86, 0, 1024, 1024, 1025, 1024, 0, 6, 3653, 3727, 3708, 3695, 3703, 3743, 0, 1, 20201, -89.900, 0.000, 11.700, 0.000, 0.000, -3.100, 0.0, , , , , , 99, , , 51, 51, 51
36.6440241, -118.9467562, 44.500, 12:07:00.368, 17, 0.00, 0.14, 94, -1.900, 1.800, 12.800, 255, 100, 96, 16, 22253, -20377, 5232, 5567, 7, 14, 1523646420.373, 25, 0, 1024, 1024, 1025, 1024, 0, 6, 3653, 3727, 3708, 3695, 3703, 3743, 0, 1, 20305, -89.900, 0.000, 11.700, 0.000, 0.000, -3.100, 0.0, , , , , , 99, , , 51, 51, 51
36.6440241, -118.9467563, 44.800, 12:07:00.472, 17, 0.00, 0.14, 94, -2.000, 1.700, 12.800, 255, 100, 96, 17, 22216, -20540, 5232, 5567, 7, 14, 1523646420.472, 35, 0, 1024, 1024, 1024, 1024, 0, 6, 3653, 3727, 3708, 3695, 3703, 3743, 0, 1, 20404, -89.900, 0.000, 11.700, 0.000, 0.000, -3.000, 0.0, , , , , , 99, , , 51, 51, 51
36.6440241, -118.9467563, 45.100, 12:07:00.571, 17, 0.00, 0.14, 94, -2.300, 1.600, 12.700, 255, 100, 96, 17, 22216, -20540, 5232, 5567, 7, 14, 1523646420.573, 30, 0, 1024, 1024, 1024, 1024, 0, 6, 3653, 3727, 3708, 3695, 3703, 3743, 0, 1, 20504, -89.900, 0.000, 11.700, 0.000, 0.000, -3.000, 0.0, , , , , , 99, , , 51, 51, 51
36.6440240, -118.9467563, 45.400, 12:07:00.671, 17, 0.00, 0.13, 94, -2.600, 1.600, 12.600, 255, 100, 96, 17, 22216, -20540, 5232, 5567, 7, 14, 1523646420.672, 44, 0, 1024, 1024, 1024, 1024, 0, 6, 3653, 3727, 3708, 3695, 3703, 3743, 0, 1, 20603, -89.900, 0.000, 11.700, 0.000, 0.000, -3.000, 0.0, , , , , , 99, , , 51, 51, 51
36.6440240, -118.9467562, 45.800, 12:07:00.768, 17, 0.00, 0.13, 94, -3.000, 1.500, 12.500, 255, 100, 96, 17, 22216, -20540, 5232, 5567, 7, 14, 1523646420.769, 62, 0, 1024, 1024, 1025, 1024, 0, 6, 3653, 3727, 3708, 3695, 3703, 3743, 0, 1, 20700, -89.900, 0.000, 11.700, 0.000, 0.000, -3.000, 0.0, , , , , , 99, , , 51, 51, 51
36.6440240, -118.9467561, 46.100, 12:07:00.869, 17, 0.00, 0.13, 94, -3.400, 1.400, 12.400, 255, 100, 96, 17, 22216, -20540, 5232, 5567, 7, 14, 1523646420.870, 12, 0, 1024, 1024, 1025, 1024, 0, 6, 3653, 3727, 3708, 3695, 3703, 3743, 0, 1, 20801, -90.000, 0.000, 11.700, 0.000, 0.000, -3.000, 0.0, , , , , , 99, , , 51, 51, 51
36.6440239, -118.9467560, 46.400, 12:07:00.970, 17, 0.00, 0.13, 94, -3.700, 1.300, 12.300, 255, 100, 98, 17, 22216, -20540, 5232, 5567, 7, 14, 1523646420.971, 10, 0, 1024, 1024, 1024, 1024, 0, 6, 3658, 3716, 3709, 3689, 3702, 3731, 0, 1, 20902, -90.000, 0.000, 11.700, 0.000, 0.000, -3.000, 0.0, , , , , , 99, , , 51, 51, 51
36.6440239, -118.9467559, 46.700, 12:07:01.071, 17, 0.00, 0.12, 94, -3.800, 1.400, 12.300, 255, 100, 98, 17, 22216, -20540, 5232, 5567, 7, 14, 1523646421.072, 13, 0, 1024, 1024, 1024, 1024, 0, 6, 3658, 3716, 3709, 3689, 3702, 3731, 0, 1, 21004, -90.000, 0.000, 11.700, 0.000, 0.000, -3.000, 0.0, , , , , , 99, , , 51, 51, 51
