Latitude, Longitude, Altitude (m), Time, Sats, Speed (m/s), Range (m), Battery (%), Roll (deg), Pitch (deg), Yaw (deg), Images, HD Signal (%), RC Signal (%), Battery Temp (C), Battery Voltage (mV), Battery Current (mA), Battery Energy (mAh), Battery Capacity (mAh), Battery Discharges, flyState, timestamp (Unix), LastUpdate (ms), radioChannel, Rc_elevator, Rc_aileron, Rc_throttle, Rc_rudder, Rc_gyro, Dronetype, Battery_Cell1 (mV), Battery_Cell2 (mV), Battery_Cell3 (mV), Battery_Cell4 (mV), Battery_Cell5 (mV), Battery_Cell6 (mV), Video, isFlying, elapsedTime (ms), gimbalPitch (deg), gimbalRoll (deg), gimbalYaw (deg), VelocityX (m/s), VelocityY (m/s), VelocityZ (m/s), GroundSmear (cm), App Version, Aircraft Name, Aircraft Firmware, Aircraft Serial Number, Battery Serial Number, Battery Lifetime (%), App_Tip, App_Warning, CurrentFlightStartingIndex, CurrentFlightLastVisitedWaypoint, PreviousFlightEndingWaypointIndex
36.6440275, -118.9467589, 0.000, 12:23:49.151, 15, 0.10, 0.04, 87, -0.500, -1.500, 11.600, 504, 100, 100, 14, 24472, -3718, 4826, 5548, 8, 11, 1523647429.151, 83, 0, 1024, 1024, 1025, 1024, 0, 6, 4105, 4118, 4052, 4105, 4074, 4092, 0, 1, 3101, -90.000, 0.000, 10.000, 0.100, 0.000, -0.100, 0.0, MapPilot_2.7.4_02272018, Dendroctonus I, 1.3.1.00, 041DDC1887, 1058171200154, 98, DJI_0209.jpg, Starting Mission from Lat/Long: 36.64403/-118.94676 Camera: Zenmuse X3 - Overlap: 90/90 - Active Connection: Yes, 65, 65, 65
36.6440276, -118.9467589, 0.000, 12:23:49.251, 15, 0.20, 0.06, 87, -0.300, -1.500, 11.900, 504, 100, 100, 14, 24472, -3718, 4826, 5548, 8, 11, 1523647429.251, 56, 0, 1024, 1024, 1025, 1024, 0, 6, 4105, 4118, 4052, 4105, 4074, 4092, 0, 1, 3201, -89.900, 0.000, 10.100, 0.200, 0.000, -0.200, 0.0, , , , , , 98, , , 65, 65, 65
36.6440278, -118.9467589, 0.000, 12:23:49.351, 16, 0.20, 0.08, 87, 0.100, -0.400, 12.100, 504, 100, 100, 14, 24472, -3718, 4826, 5548, 8, 11, 1523647429.351, 82, 0, 1024, 1024, 1025, 1024, 0, 6, 4105, 4118, 4052, 4105, 4074, 4092, 0, 1, 3301, -89.900, 0.000, 10.100, 0.200, 0.000, -0.300, 0.0, , , , , , 98, , , 65, 65, 65
36.6440280, -118.9467589, 0.000, 12:23:49.450, 16, 0.20, 0.11, 87, 0.400, 0.400, 12.200, 504, 100, 100, 14, 24472, -3718, 4826, 5548, 8, 11, 1523647429.451, 55, 0, 1024, 1024, 1025, 1024, 0, 6, 4105, 4118, 4052, 4105, 4074, 4092, 0, 1, 3401, -89.900, 0.000, 10.100, 0.200, 0.000, -0.400, 0.0, , , , , , 98, , , 65, 65, 65
36.6440283, -118.9467589, 0.100, 12:23:49.551, 16, 0.20, 0.13, 87, 0.300, 1.400, 12.200, 504, 100, 100, 14, 24387, -4647, 4826, 5548, 8, 11, 1523647429.551, 62, 0, 1024, 1024, 1025, 1024, 0, 6, 4085, 4035, 3990, 3994, 4036, 4017, 0, 1, 3501, -89.900, 0.000, 10.100, 0.200, 0.000, -0.400, 0.0, , , , , , 98, , , 65, 65, 65
36.6440287, -118.9467589, 0.200, 12:23:49.651, 15, 0.20, 0.18, 87, 0.000, 2.600, 12.200, 504, 100, 100, 14, 24387, -4647, 4826, 5548, 8, 11, 1523647429.651, 45, 0, 1024, 1024, 1025, 1024, 0, 6, 4085, 4035, 3990, 3994, 4036, 4017, 0, 1, 3601, -89.900, 0.000, 10.200, 0.200, 0.000, -0.400, 0.0, , , , , , 98, , , 65, 65, 65
36.6440289, -118.9467589, 0.200, 12:23:49.751, 15, 0.10, 0.20, 87, -0.100, 2.700, 12.100, 504, 100, 100, 14, 24387, -4647, 4826, 5548, 8, 11, 1523647429.751, 66, 0, 1024, 1024, 1025, 1024, 0, 6, 4085, 4035, 3990, 3994, 4036, 4017, 0, 1, 3701, -89.900, 0.000, 10.200, 0.100, 0.000, -0.400, 0.0, , , , , , 98, , , 65, 65, 65
36.6440290, -118.9467589, 0.300, 12:23:49.851, 15, 0.10, 0.21, 87, -0.100, 2.500, 11.900, 504, 100, 100, 14, 24387, -4647, 4826, 5548, 8, 11, 1523647429.851, 67, 0, 1024, 1024, 1025, 1024, 0, 6, 4085, 4035, 3990, 3994, 4036, 4017, 0, 1, 3801, -89.900, 0.000, 10.200, 0.100, 0.000, -0.400, 0.0, , , , , , 98, , , 65, 65, 65
36.6440292, -118.9467589, 0.300, 12:23:49.951, 15, 0.10, 0.23, 87, -0.200, 2.200, 11.700, 504, 100, 100, 14, 24387, -4647, 4826, 5548, 8, 11, 1523647429.951, 61, 0, 1024, 1024, 1025, 1024, 0, 6, 4085, 4035, 3990, 3994, 4036, 4017, 0, 1, 3901, -89.900, 0.000, 10.200, 0.100, 0.000, -0.400, 0.0, , , , , , 98, , , 65, 65, 65
36.6440293, -118.9467590, 0.400, 12:23:50.051, 15, 0.10, 0.25, 87, -0.100, 1.800, 11.500, 504, 100, 100, 14, 24387, -4647, 4826, 5548, 8, 11, 1523647430.051, 53, 0, 1024, 1024, 1025, 1024, 0, 6, 4085, 4035, 3990, 3994, 4036, 4017, 0, 1, 4001, -90.000, 0.000, 10.300, 0.100, 0.000, -0.500, 0.0, , , , , , 98, , , 65, 65, 65
36.6440295, -118.9467591, 0.400, 12:23:50.150, 15, 0.10, 0.26, 87, -0.100, 1.400, 11.300, 504, 100, 100, 14, 24387, -4647, 4826, 5548, 8, 11, 1523647430.151, 61, 0, 1024, 1024, 1025, 1024, 0, 6, 4085, 4035, 3990, 3994, 4036, 4017, 0, 1, 4101, -90.000, 0.000, 10.300, 0.100, 0.000, -0.500, 0.0, , , , , , 98, , , 65, 65, 65
36.6440295, -118.9467590, 0.500, 12:23:50.251, 15, 0.10, 0.27, 87, 0.000, 1.400, 11.100, 504, 100, 100, 14, 24387, -4647, 4826, 5548, 8, 11, 1523647430.251, 61, 0, 1024, 1024, 1025, 1024, 0, 6, 4085, 4035, 3990, 3994, 4036, 4017, 0, 1, 4201, -90.000, 0.000, 10.300, 0.100, 0.000, -0.500, 0.0, , , , , , 98, , , 65, 65, 65
36.6440296, -118.9467589, 0.500, 12:23:50.351, 15, 0.10, 0.28, 87, 0.000, 1.300, 11.100, 504, 100, 100, 14, 24387, -4647, 4826, 5548, 8, 11, 1523647430.351, 28, 0, 1024, 1024, 1025, 1024, 0, 6, 4085, 4035, 3990, 3994, 4036, 4017, 0, 1, 4301, -89.900, 0.000, 10.300, 0.100, 0.000, -0.400, 0.0, , , , , , 98, , , 65, 65, 65
36.6440297, -118.9467588, 0.600, 12:23:50.451, 14, 0.00, 0.28, 87, -0.100, 1.300, 11.100, 504, 100, 100, 14, 24387, -4647, 4826, 5548, 8, 11, 1523647430.451, 31, 0, 1024, 1024, 1025, 1024, 0, 6, 4085, 4035, 3990, 3994, 4036, 4017, 0, 1, 4401, -89.900, 0.000, 10.300, 0.000, 0.000, -0.500, 0.0, , , , , , 98, , , 65, 65, 65
36.6440298, -118.9467587, 0.600, 12:23:50.551, 14, 0.00, 0.30, 87, -0.200, 1.300, 11.300, 504, 100, 100, 14, 22989, -17076, 4826, 5548, 8, 11, 1523647430.551, 29, 0, 1024, 1024, 1025, 1024, 0, 6, 4085, 4035, 3990, 3994, 4036, 4017, 0, 1, 4501, -90.000, 0.000, 10.400, 0.000, 0.000, -0.500, 0.0, , , , , , 98, , , 65, 65, 65
36.6440299, -118.9467587, 0.700, 12:23:50.651, 17, 0.00, 0.31, 87, -0.400, 1.400, 11.400, 504, 100, 100, 14, 22989, -17076, 4826, 5548, 8, 11, 1523647430.651, 30, 0, 1024, 1024, 1025, 1024, 0, 6, 3754, 3767, 3789, 3770, 3766, 3802, 0, 1, 4601, -89.900, 0.000, 10.400, 0.000, 0.000, -0.500, 0.0, , , , , , 98, , , 65, 65, 65
36.6440300, -118.9467587, 0.700, 12:23:50.750, 17, 0.00, 0.32, 87, -0.600, 1.500, 11.600, 504, 100, 100, 14, 22989, -17076, 4826, 5548, 8, 11, 1523647430.751, 19, 0, 1024, 1024, 1025, 1024, 0, 6, 3754, 3767, 3789, 3770, 3766, 3802, 0, 1, 4701, -89.900, 0.000, 10.400, 0.000, 0.000, -0.500, 0.0, , , , , , 98, , , 65, 65, 65
36.6440301, -118.9467586, 0.800, 12:23:50.851, 17, 0.00, 0.33, 87, -0.600, 1.700, 11.600, 504, 100, 100, 14, 22989, -17076, 4826, 5548, 8, 11, 1523647430.851, 25, 0, 1024, 1024, 1025, 1024, 0, 6, 3754, 3767, 3789, 3770, 3766, 3802, 0, 1, 4801, -89.900, 0.000, 10.400, 0.000, 0.000, -0.500, 0.0, , , , , , 98, , , 65, 65, 65
36.6440302, -118.9467586, 0.800, 12:23:50.951, 17, 0.00, 0.34, 87, -0.500, 1.800, 11.700, 504, 100, 100, 14, 22989, -17076, 4826, 5548, 8, 11, 1523647430.951, 23, 0, 1024, 1024, 1025, 1024, 0, 6, 3754, 3767, 3789, 3770, 3766, 3802, 0, 1, 4901, -89.900, 0.000, 10.400, 0.000, 0.000, -0.400, 0.0, , , , , , 98, , , 65, 65, 65
36.6440303, -118.9467585, 0.900, 12:23:51.051, 16, 0.00, 0.35, 87, -0.400, 2.000, 11.700, 504, 100, 100, 14, 22989, -17076, 4826, 5548, 8, 14, 1523647431.051, 24, 0, 1024, 1024, 1025, 1024, 0, 6, 3754, 3767, 3789, 3770, 3766, 3802, 0, 1, 5001, -89.900, 0.000, 10.500, 0.000, 0.000, -0.500, 0.0, , , , , , 98, , , 65, 65, 65
36.6440304, -118.9467584, 0.900, 12:23:51.157, 16, 0.00, 0.36, 87, -0.500, 2.200, 11.800, 504, 100, 100, 14, 22989, -17076, 4826, 5548, 8, 14, 1523647431.158, 6, 0, 1024, 1024, 1025, 1024, 0, 6, 3754, 3767, 3789, 3770, 3766, 3802, 0, 1, 5108, -90.000, 0.000, 10.500, 0.000, 0.000, -0.300, 0.0, , , , , , 98, , , 65, 65, 65
36.6440304, -118.9467583, 1.000, 12:23:51.262, 16, 0.00, 0.37, 87, -0.900, 1.800, 11.800, 504, 100, 100, 14, 22989, -17076, 4826, 5548, 8, 14, 1523647431.263, 5, 0, 1024, 1024, 1025, 1024, 0, 6, 3754, 3767, 3789, 3770, 3766, 3802, 0, 1, 5213, -90.000, 0.000, 10.500, 0.000, 0.000, -0.300, 0.0, , , , , , 98, , , 65, 65, 65
36.6440304, -118.9467584, 1.000, 12:23:51.351, 16, 0.00, 0.37, 87, -1.000, 1.500, 11.900, 504, 100, 100, 14, 22989, -17076, 4826, 5548, 8, 14, 1523647431.351, 23, 0, 1024, 1024, 1025, 1024, 0, 6, 3754, 3767, 3789, 3770, 3766, 3802, 0, 1, 5301, -90.000, 0.000, 10.500, 0.000, 0.000, -0.200, 0.0, , , , , , 98, , , 65, 65, 65
36.6440305, -118.9467584, 1.100, 12:23:51.450, 16, 0.00, 0.38, 87, -0.900, 1.200, 11.900, 504, 100, 100, 14, 22989, -17076, 4826, 5548, 8, 14, 1523647431.451, 15, 0, 1024, 1024, 1025, 1024, 0, 6, 3754, 3767, 3789, 3770, 3766, 3802, 0, 1, 5401, -90.000, 0.000, 10.500, 0.000, 0.000, -0.300, 0.0, , , , , , 98, , , 65, 65, 65
36.6440305, -118.9467584, 1.100, 12:23:51.551, 16, 0.00, 0.38, 87, -0.900, 1.200, 11.900, 504, 100, 100, 14, 22989, -17076, 4826, 5548, 8, 14, 1523647431.552, 115, 0, 1024, 1024, 1025, 1024, 0, 6, 3754, 3767, 3789, 3770, 3766, 3802, 0, 1, 5502, -90.000, 0.000, 10.500, 0.000, 0.000, -0.300, 0.0, , , , , , 98, , , 65, 65, 65
36.6440306, -118.9467583, 1.100, 12:23:51.651, 16, 0.00, 0.39, 87, -0.800, 1.100, 11.900, 504, 100, 100, 14, 22501, -16836, 4826, 5548, 8, 14, 1523647431.651, 95, 0, 1024, 1024, 1025, 1024, 0, 6, 3754, 3767, 3789, 3770, 3766, 3802, 0, 1, 5601, -90.000, 0.000, 10.500, 0.000, 0.000, -0.400, 0.0, , , , , , 98, , , 65, 65, 65
36.6440307, -118.9467583, 1.100, 12:23:51.751, 17, 0.00, 0.40, 87, -0.700, 1.300, 11.800, 504, 100, 100, 14, 22501, -16836, 4826, 5548, 8, 14, 1523647431.751, 97, 0, 1024, 1024, 1025, 1024, 0, 6, 3754, 3767, 3789, 3770, 3766, 3802, 0, 1, 5701, -89.900, 0.000, 10.600, 0.000, 0.000, -0.500, 0.0, , , , , , 98, , , 65, 65, 65
36.6440307, -118.9467582, 1.200, 12:23:51.851, 17, 0.00, 0.40, 87, -0.400, 1.700, 11.700, 504, 100, 100, 14, 22501, -16836, 4826, 5548, 8, 14, 1523647431.851, 91, 0, 1024, 1024, 1025, 1024, 0, 6, 3754, 3767, 3789, 3770, 3766, 3802, 0, 1, 5801, -89.900, 0.000, 10.600, 0.000, 0.000, -0.700, 0.0, , , , , , 98, , , 65, 65, 65
36.6440308, -118.9467582, 1.300, 12:23:51.950, 17, 0.00, 0.41, 87, -0.200, 1.800, 11.400, 504, 100, 100, 14, 22501, -16836, 4826, 5548, 8, 14, 1523647431.951, 91, 0, 1024, 1024, 1025, 1024, 0, 6, 3754, 3767, 3789, 3770, 3766, 3802, 0, 1, 5901, -89.900, 0.000, 10.600, 0.000, 0.000, -0.900, 0.0, , , , , , 98, , , 65, 65, 65
36.6440309, -118.9467582, 1.400, 12:23:52.051, 17, 0.00, 0.42, 87, -0.200, 1.800, 11.100, 504, 100, 100, 14, 22501, -16836, 4826, 5548, 8, 14, 1523647432.051, 93, 0, 1024, 1024, 1025, 1024, 0, 6, 3823, 3790, 3759, 3737, 3748, 3780, 0, 1, 6001, -90.000, 0.000, 10.600, 0.000, 0.000, -1.100, 0.0, , , , , , 98, , , 65, 65, 65
36.6440309, -118.9467581, 1.500, 12:23:52.151, 17, 0.00, 0.42, 87, -0.500, 1.600, 10.800, 504, 100, 100, 14, 22501, -16836, 4826, 5548, 8, 14, 1523647432.151, 82, 0, 1024, 1024, 1025, 1024, 0, 6, 3823, 3790, 3759, 3737, 3748, 3780, 0, 1, 6101, -90.000, 0.000, 10.600, 0.000, 0.000, -1.200, 0.0, , , , , , 98, , , 65, 65, 65
36.6440309, -118.9467581, 1.700, 12:23:52.251, 17, 0.00, 0.42, 87, -0.600, 1.400, 10.600, 504, 100, 100, 14, 22501, -16836, 4826, 5548, 8, 14, 1523647432.251, 70, 0, 1024, 1024, 1025, 1024, 0, 6, 3823, 3790, 3759, 3737, 3748, 3780, 0, 1, 6201, -90.000, 0.000, 10.600, 0.000, 0.000, -1.400, 0.0, , , , , , 98, , , 65, 65, 65
36.6440310, -118.9467581, 2.000, 12:23:52.351, 16, 0.00, 0.44, 87, -0.400, 1.500, 10.500, 504, 100, 100, 14, 22501, -16836, 4826, 5548, 8, 14, 1523647432.351, 42, 0, 1024, 1024, 1025, 1024, 0, 6, 3823, 3790, 3759, 3737, 3748, 3780, 0, 1, 6301, -89.900, 0.000, 10.600, 0.000, 0.000, -1.900, 0.0, , , , , , 98, , , 65, 65, 65
36.6440311, -118.9467581, 2.200, 12:23:52.451, 17, 0.00, 0.44, 87, -0.500, 1.600, 10.500, 504, 100, 100, 14, 22501, -16836, 4826, 5548, 8, 14, 1523647432.451, 62, 0, 1024, 1024, 1025, 1024, 0, 6, 3823, 3790, 3759, 3737, 3748, 3780, 0, 1, 6401, -89.900, 0.000, 10.600, 0.000, 0.000, -2.100, 0.0, , , , , , 98, , , 65, 65, 65
36.6440311, -118.9467582, 2.500, 12:23:52.550, 17, 0.00, 0.44, 87, -0.500, 1.700, 10.400, 504, 100, 100, 14, 22501, -16836, 4826, 5548, 8, 14, 1523647432.551, 52, 0, 1024, 1024, 1025, 1024, 0, 6, 3823, 3790, 3759, 3737, 3748, 3780, 0, 1, 6501, -89.900, 0.000, 10.600, 0.000, 0.000, -2.400, 0.0, , , , , , 98, , , 65, 65, 65
36.6440311, -118.9467582, 2.700, 12:23:52.651, 17, 0.00, 0.44, 87, -0.200, 1.600, 10.300, 504, 100, 100, 14, 22501, -16836, 4826, 5548, 8, 14, 1523647432.651, 53, 0, 1024, 1024, 1025, 1024, 0, 6, 3823, 3790, 3759, 3737, 3748, 3780, 0, 1, 6601, -90.000, 0.000, 10.600, 0.000, 0.000, -2.600, 0.0, , , , , , 98, , , 65, 65, 65
36.6440311, -118.9467583, 3.000, 12:23:52.751, 17, 0.00, 0.44, 87, -0.100, 1.400, 10.200, 504, 100, 100, 14, 22501, -16836, 4826, 5548, 8, 14, 1523647432.751, 63, 0, 1024, 1024, 1025, 1024, 0, 6, 3823, 3790, 3759, 3737, 3748, 3780, 0, 1, 6701, -90.000, 0.000, 10.600, 0.000, 0.000, -2.800, 0.0, , , , , , 98, , , 65, 65, 65
36.6440310, -118.9467583, 3.300, 12:23:52.851, 17, 0.00, 0.44, 87, -0.400, 1.200, 10.100, 504, 100, 100, 14, 22501, -16836, 4826, 5548, 8, 14, 1523647432.852, 55, 0, 1024, 1024, 1025, 1024, 0, 6, 3823, 3790, 3759, 3737, 3748, 3780, 0, 1, 6802, -90.000, 0.000, 10.600, 0.000, 0.000, -3.000, 0.0, , , , , , 98, , , 65, 65, 65
36.6440310, -118.9467583, 3.700, 12:23:52.951, 17, 0.00, 0.43, 87, -0.800, 1.100, 10.200, 504, 100, 100, 14, 22501, -16836, 4826, 5548, 8, 14, 1523647432.951, 26, 0, 1024, 1024, 1025, 1024, 0, 6, 3823, 3790, 3759, 3737, 3748, 3780, 0, 1, 6901, -90.000, 0.000, 10.600, 0.000, 0.000, -3.100, 0.0, , , , , , 98, , , 65, 65, 65
36.6440310, -118.9467582, 4.000, 12:23:53.050, 17, 0.00, 0.43, 87, -1.200, 0.900, 10.500, 504, 100, 100, 14, 22005, -20790, 4826, 5548, 8, 14, 1523647433.051, 30, 0, 1024, 1024, 1025, 1024, 0, 6, 3620, 3633, 3639, 3631, 3625, 3636, 0, 1, 7001, -90.000, 0.000, 10.600, 0.000, 0.000, -3.200, 0.0, , , , , , 98, , , 65, 65, 65
36.6440309, -118.9467581, 4.300, 12:23:53.155, 17, 0.00, 0.43, 87, -1.500, 0.900, 10.800, 504, 100, 100, 14, 22005, -20790, 4826, 5548, 8, 14, 1523647433.155, 24, 0, 1024, 1024, 1025, 1024, 0, 6, 3620, 3633, 3639, 3631, 3625, 3636, 0, 1, 7105, -89.900, 0.000, 10.600, 0.000, 0.000, -3.200, 0.0, , , , , , 98, , , 65, 65, 65
36.6440309, -118.9467580, 4.700, 12:23:53.263, 17, 0.00, 0.42, 87, -1.600, 1.100, 11.100, 504, 100, 100, 14, 22005, -20790, 4826, 5548, 8, 14, 1523647433.263, 6, 0, 1024, 1024, 1025, 1024, 0, 6, 3620, 3633, 3639, 3631, 3625, 3636, 0, 1, 7213, -89.900, 0.000, 10.600, 0.000, 0.000, -3.200, 0.0, , , , , , 98, , , 65, 65, 65
36.6440309, -118.9467580, 5.000, 12:23:53.351, 17, 0.00, 0.42, 87, -1.500, 1.300, 11.300, 504, 100, 100, 14, 22005, -20790, 4826, 5548, 8, 14, 1523647433.351, 19, 0, 1024, 1024, 1025, 1024, 0, 6, 3620, 3633, 3639, 3631, 3625, 3636, 0, 1, 7301, -89.900, 0.000, 10.600, 0.000, 0.000, -3.300, 0.0, , , , , , 98, , , 65, 65, 65
36.6440309, -118.9467580, 5.400, 12:23:53.451, 18, 0.00, 0.42, 87, -1.500, 1.300, 11.400, 504, 100, 100, 14, 22005, -20790, 4826, 5548, 8, 14, 1523647433.451, 24, 0, 1024, 1024, 1025, 1024, 0, 6, 3620, 3633, 3639, 3631, 3625, 3636, 0, 1, 7401, -89.900, 0.000, 10.600, 0.000, 0.000, -3.200, 0.0, , , , , , 98, , , 65, 65, 65
36.6440309, -118.9467580, 5.700, 12:23:53.561, 18, 0.00, 0.42, 87, -1.200, 1.400, 11.300, 504, 100, 98, 14, 22005, -20790, 4826, 5548, 8, 14, 1523647433.561, 10, 0, 1024, 1024, 1025, 1024, 0, 6, 3620, 3633, 3639, 3631, 3625, 3636, 0, 1, 7511, -89.900, 0.000, 10.600, 0.000, 0.000, -3.300, 0.0, , , , , , 98, , , 65, 65, 65
36.6440309, -118.9467579, 6.100, 12:23:53.654, 18, 0.00, 0.43, 87, -1.000, 1.600, 11.200, 504, 100, 98, 14, 22005, -20790, 4826, 5548, 8, 14, 1523647433.655, 5, 0, 1024, 1024, 1025, 1024, 0, 6, 3620, 3633, 3639, 3631, 3625, 3636, 0, 1, 7605, -89.900, 0.000, 10.600, 0.000, 0.000, -3.200, 0.0, , , , , , 98, , , 65, 65, 65
36.6440310, -118.9467577, 6.400, 12:23:53.751, 18, 0.00, 0.44, 87, -0.900, 1.600, 11.100, 504, 100, 98, 14, 22005, -20790, 4826, 5548, 8, 14, 1523647433.751, 17, 0, 1024, 1024, 1025, 1024, 0, 6, 3620, 3633, 3639, 3631, 3625, 3636, 0, 1, 7701, -89.900, 0.000, 10.600, 0.000, 0.000, -3.200, 0.0, , , , , , 98, , , 65, 65, 65
36.6440310, -118.9467576, 6.800, 12:23:53.850, 17, 0.00, 0.44, 87, -0.900, 1.700, 11.000, 504, 100, 98, 14, 22005, -20790, 4826, 5548, 8, 14, 1523647433.850, 9, 0, 1024, 1024, 1025, 1024, 0, 6, 3620, 3633, 3639, 3631, 3625, 3636, 0, 1, 7800, -89.900, 0.000, 10.600, 0.000, 0.000, -3.200, 0.0, , , , , , 98, , , 65, 65, 65
36.6440310, -118.9467576, 6.800, 12:23:53.950, 17, 0.00, 0.44, 87, -0.900, 1.700, 11.000, 504, 100, 98, 14, 22005, -20790, 4826, 5548, 8, 14, 1523647433.951, 109, 0, 1024, 1024, 1025, 1024, 0, 6, 3620, 3633, 3639, 3631, 3625, 3636, 0, 1, 7901, -89.900, 0.000, 10.600, 0.000, 0.000, -3.200, 0.0, , , , , , 98, , , 65, 65, 65
36.6440311, -118.9467575, 7.100, 12:23:54.050, 17, 0.00, 0.45, 87, -1.000, 1.900, 11.000, 504, 100, 98, 14, 22005, -20790, 4826, 5548, 8, 14, 1523647434.051, 74, 0, 1024, 1024, 1025, 1024, 0, 6, 3620, 3633, 3639, 3631, 3625, 3636, 0, 1, 8001, -89.900, 0.000, 10.600, 0.000, 0.000, -3.200, 0.0, , , , , , 98, , , 65, 65, 65
36.6440311, -118.9467574, 7.500, 12:23:54.151, 17, 0.00, 0.46, 87, -1.100, 2.100, 10.900, 504, 100, 98, 14, 21628, -24544, 4826, 5548, 8, 14, 1523647434.151, 73, 0, 1024, 1024, 1025, 1024, 0, 6, 3620, 3636, 3636, 3606, 3611, 3642, 0, 1, 8101, -89.900, 0.000, 10.600, 0.000, 0.000, -3.200, 0.0, , , , , , 98, , , 65, 65, 65
36.6440312, -118.9467573, 7.800, 12:23:54.251, 17, 0.00, 0.47, 87, -1.300, 2.400, 10.900, 504, 100, 98, 14, 21628, -24544, 4826, 5548, 8, 14, 1523647434.251, 82, 0, 1024, 1024, 1025, 1024, 0, 6, 3620, 3636, 3636, 3606, 3611, 3642, 0, 1, 8201, -89.900, 0.000, 10.600, 0.000, 0.000, -3.200, 0.0, , , , , , 98, , , 65, 65, 65
36.6440313, -118.9467572, 8.100, 12:23:54.351, 18, 0.00, 0.48, 87, -1.400, 2.300, 10.900, 504, 100, 98, 14, 21628, -24544, 4826, 5548, 8, 14, 1523647434.351, 63, 0, 1024, 1024, 1025, 1024, 0, 6, 3620, 3636, 3636, 3606, 3611, 3642, 0, 1, 8301, -89.900, 0.000, 10.600, 0.000, 0.000, -3.100, 0.0, , , , , , 98, , , 65, 65, 65
36.6440313, -118.9467571, 8.500, 12:23:54.451, 18, 0.00, 0.49, 87, -1.500, 2.300, 10.800, 504, 100, 98, 14, 21628, -24544, 4826, 5548, 8, 14, 1523647434.451, 73, 0, 1024, 1024, 1025, 1024, 0, 6, 3620, 3636, 3636, 3606, 3611, 3642, 0, 1, 8401, -89.900, 0.000, 10.600, 0.000, 0.000, -3.100, 0.0, , , , , , 98, , , 65, 65, 65
36.6440314, -118.9467570, 8.800, 12:23:54.550, 17, 0.00, 0.50, 87, -1.600, 2.500, 10.700, 504, 100, 98, 14, 21628, -24544, 4826, 5548, 8, 14, 1523647434.550, 73, 0, 1024, 1024, 1025, 1024, 0, 6, 3620, 3636, 3636, 3606, 3611, 3642, 0, 1, 8500, -89.900, 0.000, 10.600, 0.000, 0.000, -3.100, 0.0, , , , , , 98, , , 65, 65, 65
36.6440315, -118.9467568, 9.500, 12:23:54.650, 17, 0.00, 0.52, 87, -1.900, 2.700, 10.800, 504, 100, 98, 14, 21628, -24544, 4826, 5548, 8, 14, 1523647434.651, 53, 0, 1024, 1024, 1025, 1024, 0, 6, 3620, 3636, 3636, 3606, 3611, 3642, 0, 1, 8601, -89.900, 0.000, 10.600, 0.000, 0.000, -3.000, 0.0, , , , , , 98, , , 65, 65, 65
36.6440315, -118.9467568, 9.500, 12:23:54.751, 17, 0.00, 0.52, 87, -1.900, 2.700, 10.800, 504, 100, 98, 14, 21628, -24544, 4826, 5548, 8, 14, 1523647434.751, 154, 0, 1024, 1024, 1025, 1024, 0, 6, 3620, 3636, 3636, 3606, 3611, 3642, 0, 1, 8701, -89.900, 0.000, 10.600, 0.000, 0.000, -3.000, 0.0, , , , , , 98, , , 65, 65, 65
36.6440316, -118.9467567, 10.100, 12:23:54.851, 17, 0.00, 0.53, 87, -1.600, 2.600, 10.800, 504, 100, 98, 14, 21628, -24544, 4826, 5548, 8, 14, 1523647434.851, 51, 0, 1024, 1024, 1025, 1024, 0, 6, 3620, 3636, 3636, 3606, 3611, 3642, 0, 1, 8801, -89.900, 0.000, 10.600, 0.000, 0.000, -2.900, 0.0, , , , , , 98, , , 65, 65, 65
36.6440317, -118.9467566, 10.400, 12:23:54.951, 17, 0.00, 0.54, 87, -1.500, 2.500, 10.700, 504, 100, 98, 14, 21628, -24544, 4826, 5548, 8, 14, 1523647434.951, 69, 0, 1024, 1024, 1025, 1024, 0, 6, 3620, 3636, 3636, 3606, 3611, 3642, 0, 1, 8901, -89.900, 0.000, 10.600, 0.000, 0.000, -2.900, 0.0, , , , , , 98, , , 65, 65, 65
36.6440316, -118.9467567, 10.700, 12:23:55.051, 18, 0.00, 0.53, 87, -1.500, 2.600, 10.600, 504, 100, 98, 14, 21971, -19457, 4826, 5548, 8, 14, 1523647435.051, 72, 0, 1024, 1024, 1025, 1024, 0, 6, 3661, 3681, 3686, 3660, 3660, 3683, 0, 1, 9001, -89.900, 0.000, 10.600, 0.000, 0.000, -2.900, 0.0, , , , , , 98, , , 65, 65, 65
36.6440315, -118.9467568, 11.000, 12:23:55.151, 18, 0.00, 0.51, 87, -1.500, 2.300, 10.500, 504, 100, 100, 14, 21971, -19457, 4826, 5548, 8, 14, 1523647435.151, 70, 0, 1024, 1024, 1025, 1024, 0, 6, 3661, 3681, 3686, 3660, 3660, 3683, 0, 1, 9101, -89.900, 0.000, 10.600, 0.000, 0.000, -2.900, 0.0, , , , , , 98, , , 65, 65, 65
36.6440313, -118.9467570, 11.300, 12:23:55.251, 18, 0.00, 0.49, 87, -1.300, 1.800, 10.400, 504, 100, 100, 14, 21971, -19457, 4826, 5548, 8, 14, 1523647435.252, 20, 0, 1024, 1024, 1025, 1024, 0, 6, 3661, 3681, 3686, 3660, 3660, 3683, 0, 1, 9202, -90.000, 0.000, 10.600, 0.000, 0.000, -2.900, 0.0, , , , , , 98, , , 65, 65, 65
36.6440313, -118.9467572, 11.600, 12:23:55.351, 18, 0.00, 0.48, 87, -1.400, 1.400, 10.300, 504, 100, 100, 14, 21971, -19457, 4826, 5548, 8, 14, 1523647435.351, 58, 0, 1024, 1024, 1025, 1024, 0, 6, 3661, 3681, 3686, 3660, 3660, 3683, 0, 1, 9301, -90.000, 0.000, 10.600, 0.000, 0.000, -2.900, 0.0, , , , , , 98, , , 65, 65, 65
36.6440312, -118.9467572, 12.000, 12:23:55.451, 18, 0.00, 0.47, 87, -1.200, 1.000, 10.200, 504, 100, 100, 14, 21971, -19457, 4826, 5548, 8, 14, 1523647435.451, 46, 0, 1024, 1024, 1025, 1024, 0, 6, 3661, 3681, 3686, 3660, 3660, 3683, 0, 1, 9401, -90.000, 0.000, 10.600, 0.000, 0.000, -3.000, 0.0, , , , , , 98, , , 65, 65, 65
36.6440312, -118.9467572, 12.300, 12:23:55.550, 18, 0.00, 0.47, 87, -1.100, 0.800, 10.200, 504, 100, 100, 14, 21971, -19457, 4826, 5548, 8, 14, 1523647435.550, 23, 0, 1024, 1024, 1025, 1024, 0, 6, 3661, 3681, 3686, 3660, 3660, 3683, 0, 1, 9500, -90.000, 0.000, 10.600, 0.000, 0.000, -3.000, 0.0, , , , , , 98, , , 65, 65, 65
36.6440312, -118.9467573, 12.600, 12:23:55.651, 18, 0.00, 0.47, 87, -1.400, 1.000, 10.300, 504, 100, 100, 14, 21971, -19457, 4826, 5548, 8, 14, 1523647435.651, 42, 0, 1024, 1024, 1025, 1024, 0, 6, 3661, 3681, 3686, 3660, 3660, 3683, 0, 1, 9601, -90.000, 0.000, 10.600, 0.000, 0.000, -2.900, 0.0, , , , , , 98, , , 65, 65, 65
36.6440311, -118.9467575, 12.900, 12:23:55.751, 18, 0.00, 0.46, 87, -1.500, 1.200, 10.500, 504, 100, 100, 14, 21971, -19457, 4826, 5548, 8, 14, 1523647435.751, 31, 0, 1024, 1024, 1025, 1024, 0, 6, 3661, 3681, 3686, 3660, 3660, 3683, 0, 1, 9701, -90.000, 0.000, 10.600, 0.000, 0.000, -2.900, 0.0, , , , , , 98, , , 65, 65, 65
36.6440311, -118.9467575, 13.200, 12:23:55.850, 18, 0.00, 0.46, 87, -1.500, 1.300, 10.800, 504, 100, 100, 14, 21971, -19457, 4826, 5548, 8, 14, 1523647435.851, 30, 0, 1024, 1024, 1025, 1024, 0, 6, 3661, 3681, 3686, 3660, 3660, 3683, 0, 1, 9801, -89.900, 0.000, 10.600, 0.000, 0.000, -2.900, 0.0, , , , , , 98, , , 65, 65, 65
36.6440312, -118.9467574, 13.500, 12:23:55.951, 18, 0.00, 0.46, 87, -1.300, 1.500, 11.100, 504, 100, 100, 14, 21971, -19457, 4826, 5548, 8, 14, 1523647435.951, 32, 0, 1024, 1024, 1025, 1024, 0, 6, 3661, 3681, 3686, 3660, 3660, 3683, 0, 1, 9901, -89.900, 0.000, 10.600, 0.000, 0.000, -2.800, 0.0, , , , , , 98, , , 65, 65, 65
36.6440312, -118.9467573, 13.800, 12:23:56.051, 18, 0.00, 0.47, 87, -1.300, 1.600, 11.300, 504, 100, 100, 14, 22019, -19076, 4826, 5548, 8, 14, 1523647436.051, 22, 0, 1024, 1024, 1025, 1024, 0, 6, 3661, 3681, 3686, 3660, 3660, 3683, 0, 1, 10001, -89.900, 0.000, 10.600, 0.000, 0.000, -2.800, 0.0, , , , , , 98, , , 65, 65, 65
36.6440313, -118.9467572, 14.100, 12:23:56.152, 18, 0.00, 0.48, 87, -1.600, 1.800, 11.300, 504, 100, 100, 14, 22019, -19076, 4826, 5548, 8, 14, 1523647436.153, 11, 0, 1024, 1024, 1025, 1024, 0, 6, 3660, 3674, 3671, 3658, 3662, 3685, 0, 1, 10103, -89.900, 0.000, 10.600, 0.000, 0.000, -2.800, 0.0, , , , , , 98, , , 65, 65, 65
36.6440313, -118.9467571, 14.400, 12:23:56.267, 18, 0.00, 0.49, 87, -1.800, 2.000, 11.200, 504, 100, 100, 14, 22019, -19076, 4826, 5548, 8, 14, 1523647436.267, 6, 0, 1024, 1024, 1025, 1024, 0, 6, 3660, 3674, 3671, 3658, 3662, 3685, 0, 1, 10217, -89.900, 0.000, 10.600, 0.000, 0.000, -2.800, 0.0, , , , , , 98, , , 65, 65, 65
36.6440314, -118.9467569, 14.700, 12:23:56.352, 18, 0.00, 0.50, 87, -2.000, 2.300, 11.100, 504, 100, 100, 14, 22019, -19076, 4826, 5548, 8, 14, 1523647436.353, 4, 0, 1024, 1024, 1025, 1024, 0, 6, 3660, 3674, 3671, 3658, 3662, 3685, 0, 1, 10303, -89.900, 0.000, 10.600, 0.000, 0.000, -2.800, 0.0, , , , , , 98, , , 65, 65, 65
36.6440314, -118.9467569, 14.700, 12:23:56.451, 18, 0.00, 0.50, 87, -2.000, 2.300, 11.100, 504, 100, 100, 14, 22019, -19076, 4826, 5548, 8, 14, 1523647436.451, 103, 0, 1024, 1024, 1025, 1024, 0, 6, 3660, 3674, 3671, 3658, 3662, 3685, 0, 1, 10402, -89.900, 0.000, 10.600, 0.000, 0.000, -2.800, 0.0, , , , , , 98, , , 65, 65, 65
36.6440315, -118.9467567, 15.300, 12:23:56.554, 18, 0.00, 0.52, 87, -1.900, 2.500, 10.700, 504, 100, 100, 14, 22019, -19076, 4826, 5548, 8, 14, 1523647436.555, 4, 0, 1024, 1024, 1025, 1024, 0, 6, 3660, 3674, 3671, 3658, 3662, 3685, 0, 1, 10505, -89.900, 0.000, 10.600, 0.000, 0.000, -2.900, 0.0, , , , , , 98, , , 65, 65, 65
36.6440315, -118.9467567, 15.300, 12:23:56.651, 18, 0.00, 0.52, 87, -1.900, 2.500, 10.700, 504, 100, 100, 14, 22019, -19076, 4826, 5548, 8, 14, 1523647436.651, 100, 0, 1024, 1024, 1025, 1024, 0, 6, 3660, 3674, 3671, 3658, 3662, 3685, 0, 1, 10601, -89.900, 0.000, 10.600, 0.000, 0.000, -2.900, 0.0, , , , , , 98, , , 65, 65, 65
36.6440315, -118.9467567, 15.600, 12:23:56.751, 18, 0.00, 0.52, 87, -2.100, 2.500, 10.600, 504, 100, 100, 14, 22019, -19076, 4826, 5548, 8, 14, 1523647436.751, 93, 0, 1024, 1024, 1025, 1024, 0, 6, 3660, 3674, 3671, 3658, 3662, 3685, 0, 1, 10701, -89.900, 0.000, 10.600, 0.000, 0.000, -2.900, 0.0, , , , , , 98, , , 65, 65, 65
36.6440315, -118.9467566, 15.900, 12:23:56.851, 18, 0.00, 0.52, 87, -2.400, 2.300, 10.400, 504, 100, 100, 14, 22019, -19076, 4826, 5548, 8, 14, 1523647436.851, 84, 0, 1024, 1024, 1025, 1024, 0, 6, 3660, 3674, 3671, 3658, 3662, 3685, 0, 1, 10801, -89.900, 0.000, 10.600, 0.000, 0.000, -2.900, 0.0, , , , , , 98, , , 65, 65, 65
36.6440315, -118.9467564, 16.500, 12:23:56.951, 18, 0.00, 0.53, 87, -2.700, 2.200, 10.300, 504, 100, 100, 14, 22019, -19076, 4826, 5548, 8, 14, 1523647436.951, 68, 0, 1024, 1024, 1025, 1024, 0, 6, 3660, 3674, 3671, 3658, 3662, 3685, 0, 1, 10901, -89.900, 0.000, 10.600, 0.000, 0.000, -2.800, 0.0, , , , , , 98, , , 65, 65, 65
36.6440315, -118.9467564, 16.500, 12:23:57.051, 18, 0.00, 0.53, 87, -2.700, 2.200, 10.300, 504, 100, 100, 14, 22019, -19027, 4826, 5548, 8, 14, 1523647437.051, 168, 0, 1024, 1024, 1025, 1024, 0, 6, 3660, 3674, 3671, 3658, 3662, 3685, 0, 1, 11001, -89.900, 0.000, 10.600, 0.000, 0.000, -2.800, 0.0, , , , , , 98, , , 65, 65, 65
36.6440315, -118.9467563, 16.800, 12:23:57.150, 18, 0.00, 0.53, 87, -2.900, 2.200, 10.400, 504, 100, 100, 14, 22019, -19027, 4826, 5548, 8, 14, 1523647437.150, 50, 0, 1024, 1024, 1025, 1024, 0, 6, 3660, 3674, 3671, 3658, 3662, 3685, 0, 1, 11100, -89.900, 0.000, 10.600, 0.000, 0.000, -2.800, 0.0, , , , , , 98, , , 65, 65, 65
36.6440316, -118.9467563, 17.100, 12:23:57.251, 18, 0.00, 0.54, 87, -3.000, 2.300, 10.500, 504, 100, 100, 14, 22019, -19027, 4826, 5548, 8, 14, 1523647437.251, 57, 0, 1024, 1024, 1025, 1024, 0, 6, 3660, 3674, 3671, 3658, 3662, 3685, 0, 1, 11201, -89.900, 0.000, 10.600, 0.000, 0.000, -2.800, 0.0, , , , , , 98, , , 65, 65, 65
36.6440317, -118.9467561, 17.600, 12:23:57.351, 18, 0.00, 0.55, 87, -2.700, 2.800, 10.800, 504, 100, 100, 14, 22019, -19027, 4826, 5548, 8, 14, 1523647437.351, 30, 0, 1024, 1024, 1025, 1024, 0, 6, 3660, 3674, 3671, 3658, 3662, 3685, 0, 1, 11301, -89.900, 0.000, 10.600, 0.000, 0.000, -2.800, 0.0, , , , , , 98, , , 65, 65, 65
36.6440317, -118.9467561, 17.600, 12:23:57.451, 18, 0.00, 0.55, 87, -2.700, 2.800, 10.800, 504, 100, 100, 14, 22019, -19027, 4826, 5548, 8, 14, 1523647437.451, 130, 0, 1024, 1024, 1025, 1024, 0, 6, 3660, 3674, 3671, 3658, 3662, 3685, 0, 1, 11401, -89.900, 0.000, 10.600, 0.000, 0.000, -2.800, 0.0, , , , , , 98, , , 65, 65, 65
36.6440318, -118.9467560, 18.200, 12:23:57.551, 18, 0.00, 0.57, 87, -3.000, 3.400, 10.900, 504, 100, 100, 14, 22019, -19027, 4771, 5548, 8, 14, 1523647437.551, 41, 0, 1024, 1024, 1025, 1024, 0, 6, 3652, 3677, 3670, 3657, 3653, 3672, 0, 1, 11501, -89.900, 0.000, 10.600, 0.000, 0.000, -2.800, 0.0, , , , , , 98, , , 65, 65, 65
36.6440318, -118.9467560, 18.500, 12:23:57.651, 18, 0.00, 0.57, 87, -3.000, 3.400, 10.900, 504, 100, 100, 14, 22019, -19027, 4771, 5548, 8, 14, 1523647437.651, 21, 0, 1024, 1024, 1025, 1024, 0, 6, 3652, 3677, 3670, 3657, 3653, 3672, 0, 1, 11601, -89.900, 0.000, 10.600, 0.000, 0.000, -2.900, 0.0, , , , , , 98, , , 65, 65, 65
36.6440318, -118.9467560, 18.700, 12:23:57.751, 18, 0.00, 0.57, 87, -2.900, 3.200, 10.900, 504, 100, 100, 14, 22019, -19027, 4771, 5548, 8, 14, 1523647437.752, 51, 0, 1024, 1024, 1025, 1024, 0, 6, 3652, 3677, 3670, 3657, 3653, 3672, 0, 1, 11702, -89.900, 0.000, 10.600, 0.000, 0.000, -2.800, 0.0, , , , , , 98, , , 65, 65, 65
36.6440318, -118.9467560, 19.000, 12:23:57.850, 18, 0.00, 0.57, 87, -2.800, 3.200, 10.900, 504, 100, 100, 14, 22019, -19027, 4771, 5548, 8, 14, 1523647437.851, 41, 0, 1024, 1024, 1025, 1024, 0, 6, 3652, 3677, 3670, 3657, 3653, 3672, 0, 1, 11801, -89.900, 0.000, 10.600, 0.000, 0.000, -2.900, 0.0, , , , , , 98, , , 65, 65, 65
36.6440318, -118.9467560, 19.300, 12:23:57.951, 18, 0.00, 0.57, 87, -2.700, 3.000, 10.900, 504, 100, 100, 14, 22019, -19027, 4771, 5548, 8, 14, 1523647437.951, 6, 0, 1024, 1024, 1025, 1024, 0, 6, 3652, 3677, 3670, 3657, 3653, 3672, 0, 1, 11901, -89.900, 0.000, 10.600, 0.000, 0.000, -2.900, 0.0, , , , , , 98, , , 65, 65, 65
36.6440318, -118.9467560, 19.600, 12:23:58.050, 18, 0.00, 0.57, 87, -2.500, 3.000, 10.900, 504, 100, 100, 14, 22019, -19027, 4771, 5548, 8, 14, 1523647438.051, 9, 0, 1024, 1024, 1025, 1024, 0, 6, 3652, 3677, 3670, 3657, 3653, 3672, 0, 1, 12001, -89.900, 0.000, 10.600, 0.000, 0.000, -2.900, 0.0, , , , , , 98, , , 65, 65, 65
36.6440318, -118.9467560, 19.900, 12:23:58.155, 18, 0.00, 0.57, 87, -2.400, 3.100, 10.800, 504, 100, 100, 14, 22019, -19027, 4771, 5548, 8, 14, 1523647438.155, 7, 0, 1024, 1024, 1025, 1024, 0, 6, 3652, 3677, 3670, 3657, 3653, 3672, 0, 1, 12105, -89.900, 0.000, 10.600, 0.000, 0.000, -2.900, 0.0, , , , , , 98, , , 65, 65, 65
36.6440318, -118.9467560, 19.900, 12:23:58.251, 18, 0.00, 0.57, 87, -2.400, 3.100, 10.800, 504, 100, 100, 14, 22019, -19027, 4771, 5548, 8, 14, 1523647438.251, 103, 0, 1024, 1024, 1025, 1024, 0, 6, 3652, 3677, 3670, 3657, 3653, 3672, 0, 1, 12201, -89.900, 0.000, 10.600, 0.000, 0.000, -2.900, 0.0, , , , , , 98, , , 65, 65, 65
36.6440318, -118.9467561, 20.100, 12:23:58.351, 18, 0.00, 0.57, 87, -2.500, 3.000, 10.800, 504, 100, 100, 14, 22019, -19027, 4771, 5548, 8, 14, 1523647438.351, 83, 0, 1024, 1024, 1025, 1024, 0, 6, 3652, 3677, 3670, 3657, 3653, 3672, 0, 1, 12301, -89.900, 0.000, 10.600, 0.000, 0.000, -2.900, 0.0, , , , , , 98, , , 65, 65, 65
36.6440318, -118.9467562, 20.700, 12:23:58.460, 18, 0.00, 0.56, 87, -2.800, 3.100, 10.700, 504, 100, 100, 14, 22019, -19027, 4771, 5548, 8, 14, 1523647438.460, 8, 0, 1024, 1024, 1025, 1024, 0, 6, 3652, 3677, 3670, 3657, 3653, 3672, 0, 1, 12410, -89.900, 0.000, 10.600, 0.000, 0.000, -3.000, 0.0, , , , , , 98, , , 65, 65, 65
36.6440318, -118.9467562, 20.700, 12:23:58.551, 18, 0.00, 0.56, 86, -2.800, 3.100, 10.700, 504, 100, 100, 14, 21963, -19438, 4771, 5548, 8, 14, 1523647438.551, 98, 0, 1024, 1024, 1025, 1024, 0, 6, 3629, 3658, 3652, 3640, 3637, 3652, 0, 1, 12501, -89.900, 0.000, 10.600, 0.000, 0.000, -3.000, 0.0, , , , , , 98, , , 65, 65, 65
36.6440318, -118.9467563, 21.000, 12:23:58.651, 18, 0.00, 0.56, 86, -2.500, 2.900, 10.600, 504, 100, 100, 14, 21963, -19438, 4771, 5548, 8, 14, 1523647438.651, 73, 0, 1024, 1024, 1025, 1024, 0, 6, 3629, 3658, 3652, 3640, 3637, 3652, 0, 1, 12601, -89.900, 0.000, 10.600, 0.000, 0.000, -3.000, 0.0, , , , , , 98, , , 65, 65, 65
36.6440318, -118.9467563, 21.300, 12:23:58.750, 18, 0.00, 0.56, 86, -2.200, 2.800, 10.500, 504, 100, 100, 14, 21963, -19438, 4771, 5548, 8, 14, 1523647438.751, 63, 0, 1024, 1024, 1025, 1024, 0, 6, 3629, 3658, 3652, 3640, 3637, 3652, 0, 1, 12701, -89.900, 0.000, 10.600, 0.000, 0.000, -3.000, 0.0, , , , , , 98, , , 65, 65, 65
36.6440319, -118.9467564, 21.700, 12:23:58.851, 18, 0.00, 0.56, 86, -2.300, 2.800, 10.500, 504, 100, 100, 14, 21963, -19438, 4771, 5548, 8, 14, 1523647438.851, 72, 0, 1024, 1024, 1025, 1024, 0, 6, 3629, 3658, 3652, 3640, 3637, 3652, 0, 1, 12801, -89.900, 0.000, 10.600, 0.000, 0.000, -3.000, 0.0, , , , , , 98, , , 65, 65, 65
36.6440319, -118.9467564, 22.300, 12:23:58.951, 18, 0.00, 0.56, 86, -3.000, 2.800, 10.500, 504, 100, 100, 14, 21963, -19438, 4771, 5548, 8, 14, 1523647438.951, 46, 0, 1024, 1024, 1025, 1024, 0, 6, 3629, 3658, 3652, 3640, 3637, 3652, 0, 1, 12901, -89.900, 0.000, 10.600, 0.000, 0.000, -2.900, 0.0, , , , , , 98, , , 65, 65, 65
36.6440319, -118.9467565, 22.600, 12:23:59.051, 18, 0.00, 0.56, 86, -3.000, 2.800, 10.600, 504, 100, 100, 14, 21963, -19438, 4771, 5548, 8, 14, 1523647439.051, 64, 0, 1024, 1024, 1025, 1024, 0, 6, 3629, 3658, 3652, 3640, 3637, 3652, 0, 1, 13002, -89.900, 0.000, 10.600, 0.000, 0.000, -3.000, 0.0, , , , , , 98, , , 65, 65, 65
36.6440319, -118.9467566, 22.900, 12:23:59.150, 18, 0.00, 0.56, 86, -2.600, 2.800, 10.700, 504, 100, 99, 14, 21963, -19438, 4771, 5548, 8, 14, 1523647439.150, 24, 0, 1024, 1024, 1025, 1024, 0, 6, 3629, 3658, 3652, 3640, 3637, 3652, 0, 1, 13100, -89.900, 0.000, 10.600, 0.000, 0.000, -3.000, 0.0, , , , , , 98, , , 65, 65, 65
36.6440319, -118.9467567, 23.200, 12:23:59.251, 18, 0.00, 0.56, 86, -2.400, 2.800, 10.800, 504, 100, 99, 14, 21963, -19438, 4771, 5548, 8, 14, 1523647439.251, 41, 0, 1024, 1024, 1025, 1024, 0, 6, 3629, 3658, 3652, 3640, 3637, 3652, 0, 1, 13201, -89.900, 0.000, 10.600, 0.000, 0.000, -3.000, 0.0, , , , , , 98, , , 65, 65, 65
36.6440320, -118.9467567, 23.500, 12:23:59.350, 18, 0.00, 0.56, 86, -2.300, 2.900, 10.900, 504, 100, 99, 14, 21963, -19438, 4771, 5548, 8, 14, 1523647439.351, 22, 0, 1024, 1024, 1025, 1024, 0, 6, 3629, 3658, 3652, 3640, 3637, 3652, 0, 1, 13301, -89.900, 0.000, 10.600, 0.000, 0.000, -3.000, 0.0, , , , , , 98, , , 65, 65, 65
36.6440320, -118.9467568, 23.800, 12:23:59.451, 18, 0.00, 0.57, 86, -2.300, 3.100, 10.900, 504, 100, 99, 14, 21963, -19438, 4771, 5548, 8, 14, 1523647439.451, 40, 0, 1024, 1024, 1025, 1024, 0, 6, 3629, 3658, 3652, 3640, 3637, 3652, 0, 1, 13401, -89.900, 0.000, 10.600, 0.000, 0.000, -3.000, 0.0, , , , , , 98, , , 65, 65, 65
36.6440320, -118.9467568, 24.100, 12:23:59.550, 18, 0.00, 0.57, 86, -2.500, 3.700, 10.900, 504, 100, 99, 14, 21763, -20512, 4771, 5548, 8, 14, 1523647439.551, 30, 0, 1024, 1024, 1025, 1024, 0, 6, 3619, 3635, 3639, 3612, 3612, 3641, 0, 1, 13501, -89.900, 0.000, 10.600, 0.000, 0.000, -3.000, 0.0, , , , , , 98, , , 65, 65, 65
36.6440321, -118.9467569, 24.400, 12:23:59.651, 18, 0.00, 0.57, 86, -2.700, 4.000, 10.800, 504, 100, 99, 14, 21763, -20512, 4771, 5548, 8, 14, 1523647439.651, 17, 0, 1024, 1024, 1025, 1024, 0, 6, 3619, 3635, 3639, 3612, 3612, 3641, 0, 1, 13601, -89.900, 0.000, 10.600, 0.000, 0.000, -2.900, 0.0, , , , , , 98, , , 65, 65, 65
36.6440321, -118.9467569, 24.400, 12:23:59.751, 18, 0.00, 0.57, 86, -2.700, 4.000, 10.800, 504, 100, 99, 14, 21763, -20512, 4771, 5548, 8, 14, 1523647439.751, 117, 0, 1024, 1024, 1025, 1024, 0, 6, 3619, 3635, 3639, 3612, 3612, 3641, 0, 1, 13701, -89.900, 0.000, 10.600, 0.000, 0.000, -2.900, 0.0, , , , , , 98, , , 65, 65, 65
36.6440321, -118.9467570, 25.000, 12:23:59.851, 18, 0.00, 0.57, 86, -2.400, 3.700, 10.600, 504, 100, 99, 14, 21763, -20512, 4771, 5548, 8, 14, 1523647439.852, 19, 0, 1024, 1024, 1025, 1024, 0, 6, 3619, 3635, 3639, 3612, 3612, 3641, 0, 1, 13802, -89.900, 0.000, 10.600, 0.000, 0.000, -2.900, 0.0, , , , , , 98, , , 65, 65, 65
36.6440321, -118.9467571, 25.300, 12:23:59.950, 18, 0.00, 0.57, 86, -2.200, 3.500, 10.500, 504, 100, 99, 14, 21763, -20512, 4771, 5548, 8, 14, 1523647439.950, 7, 0, 1024, 1024, 1025, 1024, 0, 6, 3619, 3635, 3639, 3612, 3612, 3641, 0, 1, 13900, -89.900, 0.000, 10.600, 0.000, 0.000, -2.800, 0.0, , , , , , 98, , , 65, 65, 65
36.6440321, -118.9467571, 25.300, 12:24:00.051, 18, 0.00, 0.57, 86, -2.200, 3.500, 10.500, 504, 100, 99, 14, 21763, -20512, 4771, 5548, 8, 14, 1523647440.051, 108, 0, 1024, 1024, 1025, 1024, 0, 6, 3619, 3635, 3639, 3612, 3612, 3641, 0, 1, 14001, -89.900, 0.000, 10.600, 0.000, 0.000, -2.800, 0.0, , , , , , 98, , , 65, 65, 65
36.6440321, -118.9467572, 25.500, 12:24:00.151, 18, 0.00, 0.57, 86, -1.900, 3.200, 10.300, 504, 100, 100, 14, 21763, -20512, 4771, 5548, 8, 14, 1523647440.151, 88, 0, 1024, 1024, 1025, 1024, 0, 6, 3619, 3635, 3639, 3612, 3612, 3641, 0, 1, 14101, -90.000, 0.000, 10.600, 0.000, 0.000, -2.900, 0.0, , , , , , 98, , , 65, 65, 65
36.6440321, -118.9467572, 25.800, 12:24:00.251, 18, 0.00, 0.56, 86, -2.200, 3.000, 10.300, 504, 100, 100, 14, 21763, -20512, 4771, 5548, 8, 14, 1523647440.251, 85, 0, 1024, 1024, 1025, 1024, 0, 6, 3619, 3635, 3639, 3612, 3612, 3641, 0, 1, 14201, -90.000, 0.000, 10.600, 0.000, 0.000, -2.900, 0.0, , , , , , 98, , , 65, 65, 65
36.6440320, -118.9467573, 26.100, 12:24:00.351, 18, 0.00, 0.56, 86, -2.100, 2.800, 10.400, 504, 100, 100, 14, 21763, -20512, 4771, 5548, 8, 14, 1523647440.351, 84, 0, 1024, 1024, 1025, 1024, 0, 6, 3619, 3635, 3639, 3612, 3612, 3641, 0, 1, 14301, -90.000, 0.000, 10.600, 0.000, 0.000, -2.900, 0.0, , , , , , 98, , , 65, 65, 65
36.6440320, -118.9467573, 26.400, 12:24:00.451, 18, 0.00, 0.55, 86, -2.000, 2.800, 10.600, 504, 100, 100, 14, 21763, -20512, 4771, 5548, 8, 14, 1523647440.451, 63, 0, 1024, 1024, 1025, 1024, 0, 6, 3619, 3635, 3639, 3612, 3612, 3641, 0, 1, 14401, -90.000, 0.000, 10.600, 0.000, 0.000, -2.900, 0.0, , , , , , 98, , , 65, 65, 65
36.6440320, -118.9467574, 26.700, 12:24:00.551, 18, 0.00, 0.55, 86, -2.000, 2.700, 10.700, 504, 100, 100, 14, 21763, -20512, 4771, 5548, 8, 14, 1523647440.551, 89, 0, 1024, 1024, 1025, 1024, 0, 6, 3619, 3635, 3639, 3612, 3612, 3641, 0, 1, 14501, -90.000, 0.000, 10.600, 0.000, 0.000, -2.900, 0.0, , , , , , 98, , , 65, 65, 65
36.6440319, -118.9467575, 27.000, 12:24:00.651, 18, 0.00, 0.54, 86, -2.000, 2.700, 10.800, 504, 100, 99, 14, 21732, -20381, 4771, 5548, 8, 14, 1523647440.651, 88, 0, 1024, 1024, 1025, 1024, 0, 6, 3612, 3635, 3631, 3613, 3614, 3633, 0, 1, 14601, -90.000, 0.000, 10.600, 0.000, 0.000, -3.000, 0.0, , , , , , 98, , , 65, 65, 65
36.6440319, -118.9467576, 27.300, 12:24:00.751, 18, 0.00, 0.54, 86, -1.800, 2.600, 10.900, 504, 100, 99, 14, 21732, -20381, 4771, 5548, 8, 14, 1523647440.751, 88, 0, 1024, 1024, 1025, 1024, 0, 6, 3612, 3635, 3631, 3613, 3614, 3633, 0, 1, 14701, -90.000, 0.000, 10.600, 0.000, 0.000, -3.000, 0.0, , , , , , 98, , , 65, 65, 65
36.6440318, -118.9467577, 27.600, 12:24:00.851, 18, 0.00, 0.53, 86, -1.500, 2.600, 10.900, 504, 100, 99, 14, 21732, -20381, 4771, 5548, 8, 14, 1523647440.851, 92, 0, 1024, 1024, 1025, 1024, 0, 6, 3612, 3635, 3631, 3613, 3614, 3633, 0, 1, 14801, -89.900, 0.000, 10.600, 0.000, 0.000, -3.000, 0.0, , , , , , 98, , , 65, 65, 65
36.6440318, -118.9467577, 28.000, 12:24:00.951, 18, 0.00, 0.53, 86, -1.600, 2.600, 10.900, 504, 100, 99, 14, 21732, -20381, 4771, 5548, 8, 14, 1523647440.951, 84, 0, 1024, 1024, 1025, 1024, 0, 6, 3612, 3635, 3631, 3613, 3614, 3633, 0, 1, 14901, -90.000, 0.000, 10.600, 0.000, 0.000, -3.100, 0.0, , , , , , 98, , , 65, 65, 65
36.6440318, -118.9467578, 28.600, 12:24:01.050, 18, 0.00, 0.52, 86, -2.000, 2.700, 11.000, 504, 100, 99, 14, 21732, -20381, 4771, 5548, 8, 14, 1523647441.050, 54, 0, 1024, 1024, 1025, 1024, 0, 6, 3612, 3635, 3631, 3613, 3614, 3633, 0, 1, 15000, -89.900, 0.000, 10.600, 0.000, 0.000, -3.000, 0.0, , , , , , 98, , , 65, 65, 65
36.6440317, -118.9467578, 28.900, 12:24:01.151, 18, 0.00, 0.52, 86, -2.000, 2.700, 10.900, 504, 100, 99, 14, 21732, -20381, 4771, 5548, 8, 14, 1523647441.151, 60, 0, 1024, 1024, 1025, 1024, 0, 6, 3612, 3635, 3631, 3613, 3614, 3633, 0, 1, 15101, -90.000, 0.000, 10.600, 0.000, 0.000, -3.000, 0.0, , , , , , 98, , , 65, 65, 65
36.6440317, -118.9467578, 28.900, 12:24:01.251, 18, 0.00, 0.52, 86, -2.000, 2.700, 10.900, 504, 100, 99, 14, 21732, -20381, 4771, 5548, 8, 14, 1523647441.251, 160, 0, 1024, 1024, 1025, 1024, 0, 6, 3612, 3635, 3631, 3613, 3614, 3633, 0, 1, 15201, -90.000, 0.000, 10.600, 0.000, 0.000, -3.000, 0.0, , , , , , 98, , , 65, 65, 65
36.6440317, -118.9467578, 29.500, 12:24:01.351, 18, 0.00, 0.51, 86, -2.000, 2.700, 10.800, 504, 100, 99, 14, 21732, -20381, 4771, 5548, 8, 14, 1523647441.351, 25, 0, 1024, 1024, 1025, 1024, 0, 6, 3612, 3635, 3631, 3613, 3614, 3633, 0, 1, 15301, -89.900, 0.000, 10.600, 0.000, 0.000, -3.000, 0.0, , , , , , 98, , , 65, 65, 65
36.6440317, -118.9467578, 29.500, 12:24:01.451, 18, 0.00, 0.51, 86, -2.000, 2.700, 10.800, 504, 100, 99, 14, 21732, -20381, 4771, 5548, 8, 14, 1523647441.451, 125, 0, 1024, 1024, 1025, 1024, 0, 6, 3612, 3635, 3631, 3613, 3614, 3633, 0, 1, 15401, -89.900, 0.000, 10.600, 0.000, 0.000, -3.000, 0.0, , , , , , 98, , , 65, 65, 65
36.6440316, -118.9467577, 30.100, 12:24:01.550, 18, 0.00, 0.51, 86, -2.900, 2.900, 10.600, 504, 100, 99, 14, 21557, -21259, 4771, 5548, 8, 14, 1523647441.551, 49, 0, 1024, 1024, 1025, 1024, 0, 6, 3583, 3605, 3604, 3580, 3585, 3602, 0, 1, 15501, -89.900, 0.000, 10.600, 0.000, 0.000, -3.000, 0.0, , , , , , 98, , , 65, 65, 65
36.6440316, -118.9467576, 30.400, 12:24:01.651, 18, 0.00, 0.51, 86, -3.200, 2.900, 10.600, 504, 100, 98, 14, 21557, -21259, 4771, 5548, 8, 14, 1523647441.651, 33, 0, 1024, 1024, 1025, 1024, 0, 6, 3583, 3605, 3604, 3580, 3585, 3602, 0, 1, 15601, -89.900, 0.000, 10.600, 0.000, 0.000, -3.000, 0.0, , , , , , 98, , , 65, 65, 65
36.6440316, -118.9467575, 30.700, 12:24:01.750, 18, 0.00, 0.50, 86, -3.400, 2.900, 10.500, 504, 100, 98, 14, 21557, -21259, 4771, 5548, 8, 14, 1523647441.751, 57, 0, 1024, 1024, 1025, 1024, 0, 6, 3583, 3605, 3604, 3580, 3585, 3602, 0, 1, 15701, -89.900, 0.000, 10.600, 0.000, 0.000, -3.000, 0.0, , , , , , 98, , , 65, 65, 65
36.6440315, -118.9467575, 31.100, 12:24:01.851, 18, 0.00, 0.50, 86, -3.600, 2.800, 10.500, 504, 100, 98, 14, 21557, -21259, 4771, 5548, 8, 14, 1523647441.851, 14, 0, 1024, 1024, 1025, 1024, 0, 6, 3583, 3605, 3604, 3580, 3585, 3602, 0, 1, 15801, -89.900, 0.000, 10.600, 0.000, 0.000, -3.100, 0.0, , , , , , 98, , , 65, 65, 65
36.6440315, -118.9467574, 31.400, 12:24:01.951, 18, 0.00, 0.50, 86, -3.400, 2.700, 10.500, 504, 100, 98, 14, 21557, -21259, 4771, 5548, 8, 14, 1523647441.951, 50, 0, 1024, 1024, 1025, 1024, 0, 6, 3583, 3605, 3604, 3580, 3585, 3602, 0, 1, 15901, -90.000, 0.000, 10.600, 0.000, 0.000, -3.100, 0.0, , , , , , 98, , , 65, 65, 65
36.6440314, -118.9467574, 31.800, 12:24:02.050, 18, 0.00, 0.49, 86, -3.600, 2.600, 10.500, 504, 100, 97, 14, 21557, -21259, 4771, 5548, 8, 14, 1523647442.050, 29, 0, 1024, 1024, 1025, 1024, 0, 6, 3583, 3605, 3604, 3580, 3585, 3602, 0, 1, 16000, -90.000, 0.000, 10.600, 0.000, 0.000, -3.100, 0.0, , , , , , 98, , , 65, 65, 65
36.6440313, -118.9467573, 32.100, 12:24:02.151, 18, 0.00, 0.48, 86, -3.800, 2.300, 10.700, 504, 100, 97, 14, 21557, -21259, 4771, 5548, 8, 14, 1523647442.151, 17, 0, 1024, 1024, 1025, 1024, 0, 6, 3583, 3605, 3604, 3580, 3585, 3602, 0, 1, 16101, -90.000, 0.000, 10.600, 0.000, 0.000, -3.000, 0.0, , , , , , 98, , , 65, 65, 65
36.6440313, -118.9467573, 32.400, 12:24:02.250, 18, 0.00, 0.47, 86, -3.500, 1.800, 10.900, 504, 100, 97, 14, 21557, -21259, 4771, 5548, 8, 14, 1523647442.251, 18, 0, 1024, 1024, 1025, 1024, 0, 6, 3583, 3605, 3604, 3580, 3585, 3602, 0, 1, 16201, -90.000, 0.000, 10.600, 0.000, 0.000, -2.900, 0.0, , , , , , 98, , , 65, 65, 65
36.6440312, -118.9467574, 32.700, 12:24:02.368, 18, 0.00, 0.47, 86, -2.800, 1.400, 11.200, 504, 100, 97, 14, 21557, -21259, 4771, 5548, 8, 14, 1523647442.369, 5, 0, 1024, 1024, 1025, 1024, 0, 6, 3583, 3605, 3604, 3580, 3585, 3602, 0, 1, 16319, -90.000, 0.000, 10.600, 0.000, 0.000, -2.800, 0.0, , , , , , 98, , , 65, 65, 65
36.6440312, -118.9467575, 32.900, 12:24:02.450, 18, 0.00, 0.46, 86, -1.700, 1.400, 11.300, 504, 100, 97, 14, 21557, -21259, 4771, 5548, 8, 14, 1523647442.451, 23, 0, 1024, 1024, 1025, 1024, 0, 6, 3583, 3605, 3604, 3580, 3585, 3602, 0, 1, 16401, -90.000, 0.000, 10.600, 0.000, 0.000, -2.600, 0.0, , , , , , 98, , , 65, 65, 65
36.6440312, -118.9467576, 33.200, 12:24:02.561, 18, 0.00, 0.46, 86, -0.900, 1.600, 11.400, 504, 100, 97, 14, 21611, -20859, 4771, 5548, 8, 14, 1523647442.562, 11, 0, 1024, 1024, 1025, 1024, 0, 6, 3583, 3605, 3604, 3580, 3585, 3602, 0, 1, 16512, -90.000, 0.000, 10.600, 0.000, 0.000, -2.600, 0.0, , , , , , 98, , , 65, 65, 65
36.6440312, -118.9467577, 33.400, 12:24:02.650, 18, 0.00, 0.46, 86, -0.700, 1.900, 11.400, 504, 100, 96, 14, 21611, -20859, 4771, 5548, 8, 14, 1523647442.651, 13, 0, 1024, 1024, 1025, 1024, 0, 6, 3583, 3605, 3604, 3580, 3585, 3602, 0, 1, 16601, -89.900, 0.000, 10.600, 0.000, 0.000, -2.700, 0.0, , , , , , 98, , , 65, 65, 65
36.6440312, -118.9467578, 33.700, 12:24:02.751, 18, 0.00, 0.46, 86, -0.600, 2.400, 11.400, 504, 100, 96, 14, 21611, -20859, 4771, 5548, 8, 14, 1523647442.751, 23, 0, 1024, 1024, 1025, 1024, 0, 6, 3583, 3605, 3604, 3580, 3585, 3602, 0, 1, 16701, -89.900, 0.000, 10.600, 0.000, 0.000, -2.700, 0.0, , , , , , 98, , , 65, 65, 65
36.6440313, -118.9467578, 34.000, 12:24:02.855, 18, 0.00, 0.47, 86, -0.300, 3.100, 11.300, 504, 100, 96, 14, 21611, -20859, 4771, 5548, 8, 14, 1523647442.856, 4, 0, 1024, 1024, 1025, 1024, 0, 6, 3583, 3605, 3604, 3580, 3585, 3602, 0, 1, 16806, -89.900, 0.000, 10.600, 0.000, 0.000, -2.800, 0.0, , , , , , 98, , , 65, 65, 65
36.6440313, -118.9467578, 34.200, 12:24:02.951, 18, 0.00, 0.47, 86, -0.700, 3.400, 11.200, 504, 100, 96, 14, 21611, -20859, 4771, 5548, 8, 14, 1523647442.951, 3, 0, 1024, 1024, 1025, 1024, 0, 6, 3583, 3605, 3604, 3580, 3585, 3602, 0, 1, 16901, -89.900, 0.000, 10.600, 0.000, 0.000, -2.800, 0.0, , , , , , 98, , , 65, 65, 65
36.6440313, -118.9467578, 34.200, 12:24:03.051, 18, 0.00, 0.47, 86, -0.700, 3.400, 11.200, 504, 100, 96, 14, 21611, -20859, 4771, 5548, 8, 14, 1523647443.051, 103, 0, 1024, 1024, 1025, 1024, 0, 6, 3583, 3605, 3604, 3580, 3585, 3602, 0, 1, 17001, -89.900, 0.000, 10.600, 0.000, 0.000, -2.800, 0.0, , , , , , 98, , , 65, 65, 65
36.6440314, -118.9467578, 34.500, 12:24:03.150, 18, 0.00, 0.48, 86, -1.000, 3.400, 10.900, 504, 100, 97, 14, 21611, -20859, 4771, 5548, 8, 14, 1523647443.150, 91, 0, 1024, 1024, 1025, 1024, 0, 6, 3594, 3615, 3611, 3592, 3585, 3617, 0, 1, 17100, -89.900, 0.000, 10.600, 0.000, 0.000, -2.800, 0.0, , , , , , 98, , , 65, 65, 65
36.6440314, -118.9467578, 34.500, 12:24:03.251, 18, 0.00, 0.48, 86, -1.000, 3.400, 10.900, 504, 100, 97, 14, 21611, -20859, 4771, 5548, 8, 14, 1523647443.251, 192, 0, 1024, 1024, 1025, 1024, 0, 6, 3594, 3615, 3611, 3592, 3585, 3617, 0, 1, 17201, -89.900, 0.000, 10.600, 0.000, 0.000, -2.800, 0.0, , , , , , 98, , , 65, 65, 65
36.6440314, -118.9467578, 35.100, 12:24:03.351, 18, 0.00, 0.48, 86, -1.600, 2.800, 10.400, 504, 100, 97, 14, 21611, -20859, 4771, 5548, 8, 14, 1523647443.351, 84, 0, 1024, 1024, 1025, 1024, 0, 6, 3594, 3615, 3611, 3592, 3585, 3617, 0, 1, 17301, -90.000, 0.000, 10.600, 0.000, 0.000, -2.900, 0.0, , , , , , 98, , , 65, 65, 65
36.6440314, -118.9467578, 35.100, 12:24:03.451, 18, 0.00, 0.48, 86, -1.600, 2.800, 10.400, 504, 100, 97, 14, 21611, -20859, 4771, 5548, 8, 14, 1523647443.451, 184, 0, 1024, 1024, 1025, 1024, 0, 6, 3594, 3615, 3611, 3592, 3585, 3617, 0, 1, 17401, -90.000, 0.000, 10.600, 0.000, 0.000, -2.900, 0.0, , , , , , 98, , , 65, 65, 65
36.6440315, -118.9467579, 35.700, 12:24:03.551, 18, 0.00, 0.49, 86, -2.200, 2.700, 10.200, 504, 100, 97, 15, 21611, -20859, 4771, 5548, 8, 14, 1523647443.551, 60, 0, 1024, 1024, 1025, 1024, 0, 6, 3594, 3615, 3611, 3592, 3585, 3617, 0, 1, 17501, -89.900, 0.000, 10.600, 0.000, 0.000, -2.900, 0.0, , , , , , 98, , , 65, 65, 65
36.6440317, -118.9467579, 36.300, 12:24:03.651, 18, 0.00, 0.51, 86, -1.400, 3.500, 10.300, 504, 100, 97, 15, 21611, -20859, 4771, 5548, 8, 14, 1523647443.651, 43, 0, 1024, 1024, 1025, 1024, 0, 6, 3594, 3615, 3611, 3592, 3585, 3617, 0, 1, 17601, -89.900, 0.000, 10.600, 0.000, 0.000, -3.000, 0.0, , , , , , 98, , , 65, 65, 65
36.6440318, -118.9467579, 36.600, 12:24:03.751, 18, 0.00, 0.52, 86, -1.300, 4.000, 10.400, 504, 100, 97, 15, 21611, -20859, 4771, 5548, 8, 14, 1523647443.751, 55, 0, 1024, 1024, 1025, 1024, 0, 6, 3594, 3615, 3611, 3592, 3585, 3617, 0, 1, 17701, -89.900, 0.000, 10.600, 0.000, 0.000, -3.100, 0.0, , , , , , 98, , , 65, 65, 65
36.6440319, -118.9467580, 36.900, 12:24:03.851, 18, 0.00, 0.53, 86, -1.200, 4.300, 10.400, 504, 100, 97, 15, 21611, -20859, 4771, 5548, 8, 14, 1523647443.851, 72, 0, 1024, 1024, 1025, 1024, 0, 6, 3594, 3615, 3611, 3592, 3585, 3617, 0, 1, 17801, -89.900, 0.000, 10.600, 0.000, 0.000, -3.100, 0.0, , , , , , 98, , , 65, 65, 65
36.6440319, -118.9467580, 37.200, 12:24:03.951, 18, 0.00, 0.54, 86, -0.900, 4.500, 10.500, 504, 100, 97, 15, 21611, -20859, 4771, 5548, 8, 14, 1523647443.951, 41, 0, 1024, 1024, 1025, 1024, 0, 6, 3594, 3615, 3611, 3592, 3585, 3617, 0, 1, 17902, -89.900, 0.000, 10.600, 0.000, 0.000, -3.100, 0.0, , , , , , 98, , , 65, 65, 65
36.6440320, -118.9467580, 37.500, 12:24:04.051, 18, 0.00, 0.54, 86, -0.800, 4.400, 10.500, 504, 100, 97, 15, 21725, -23427, 4771, 5548, 8, 14, 1523647444.051, 46, 0, 1024, 1024, 1025, 1024, 0, 6, 3546, 3575, 3616, 3592, 3560, 3597, 0, 1, 18001, -89.900, 0.000, 10.600, 0.000, 0.000, -3.100, 0.0, , , , , , 98, , , 65, 65, 65
36.6440320, -118.9467581, 37.900, 12:24:04.151, 18, 0.00, 0.54, 86, -1.100, 4.200, 10.500, 504, 100, 97, 15, 21725, -23427, 4771, 5548, 8, 14, 1523647444.151, 46, 0, 1024, 1024, 1025, 1024, 0, 6, 3546, 3575, 3616, 3592, 3560, 3597, 0, 1, 18101, -89.900, 0.000, 10.600, 0.000, 0.000, -3.100, 0.0, , , , , , 98, , , 65, 65, 65
36.6440320, -118.9467581, 38.200, 12:24:04.251, 18, 0.00, 0.54, 86, -1.500, 3.800, 10.500, 504, 100, 97, 15, 21725, -23427, 4771, 5548, 8, 14, 1523647444.251, 57, 0, 1024, 1024, 1025, 1024, 0, 6, 3546, 3575, 3616, 3592, 3560, 3597, 0, 1, 18201, -89.900, 0.000, 10.600, 0.000, 0.000, -3.100, 0.0, , , , , , 98, , , 65, 65, 65
36.6440320, -118.9467580, 38.500, 12:24:04.350, 18, 0.00, 0.54, 86, -1.700, 3.500, 10.500, 504, 100, 97, 15, 21725, -23427, 4771, 5548, 8, 14, 1523647444.350, 20, 0, 1024, 1024, 1025, 1024, 0, 6, 3546, 3575, 3616, 3592, 3560, 3597, 0, 1, 18300, -90.000, 0.000, 10.600, 0.000, 0.000, -3.100, 0.0, , , , , , 98, , , 65, 65, 65
36.6440319, -118.9467580, 38.800, 12:24:04.451, 18, 0.10, 0.54, 86, -2.500, 3.000, 10.700, 504, 100, 97, 15, 21725, -23427, 4771, 5548, 8, 14, 1523647444.451, 53, 0, 1024, 1024, 1025, 1024, 0, 6, 3546, 3575, 3616, 3592, 3560, 3597, 0, 1, 18401, -90.000, 0.000, 10.600, -0.100, 0.000, -3.000, 0.0, , , , , , 98, , , 65, 65, 65
36.6440319, -118.9467579, 39.100, 12:24:04.551, 18, 0.00, 0.53, 86, -3.500, 2.700, 10.900, 504, 100, 97, 15, 21725, -23427, 4771, 5548, 8, 14, 1523647444.551, 42, 0, 1024, 1024, 1025, 1024, 0, 6, 3546, 3575, 3616, 3592, 3560, 3597, 0, 1, 18501, -90.000, 0.000, 10.600, 0.000, 0.000, -3.100, 0.0, , , , , , 98, , , 65, 65, 65
36.6440318, -118.9467578, 39.400, 12:24:04.662, 18, 0.00, 0.53, 86, -3.700, 2.700, 11.100, 504, 100, 97, 15, 21725, -23427, 4771, 5548, 8, 14, 1523647444.663, 7, 0, 1024, 1024, 1025, 1024, 0, 6, 3546, 3575, 3616, 3592, 3560, 3597, 0, 1, 18613, -90.000, 0.000, 10.600, 0.000, 0.000, -3.000, 0.0, , , , , , 98, , , 65, 65, 65
36.6440318, -118.9467578, 39.700, 12:24:04.751, 18, 0.00, 0.53, 86, -3.500, 2.700, 11.200, 504, 100, 97, 15, 21725, -23427, 4771, 5548, 8, 14, 1523647444.751, 34, 0, 1024, 1024, 1025, 1024, 0, 6, 3546, 3575, 3616, 3592, 3560, 3597, 0, 1, 18701, -89.900, 0.000, 10.600, 0.000, 0.000, -2.900, 0.0, , , , , , 98, , , 65, 65, 65
36.6440318, -118.9467578, 40.000, 12:24:04.851, 18, 0.00, 0.53, 86, -2.600, 3.100, 11.200, 504, 100, 97, 15, 21725, -23427, 4771, 5548, 8, 14, 1523647444.851, 21, 0, 1024, 1024, 1025, 1024, 0, 6, 3546, 3575, 3616, 3592, 3560, 3597, 0, 1, 18801, -89.900, 0.000, 10.600, 0.000, 0.000, -2.900, 0.0, , , , , , 98, , , 65, 65, 65
36.6440318, -118.9467578, 40.000, 12:24:04.951, 18, 0.00, 0.53, 86, -2.600, 3.100, 11.200, 504, 100, 97, 15, 21725, -23427, 4771, 5548, 8, 14, 1523647444.951, 121, 0, 1024, 1024, 1025, 1024, 0, 6, 3546, 3575, 3616, 3592, 3560, 3597, 0, 1, 18901, -89.900, 0.000, 10.600, 0.000, 0.000, -2.900, 0.0, , , , , , 98, , , 65, 65, 65
36.6440319, -118.9467578, 40.300, 12:24:05.050, 18, 0.00, 0.53, 86, -1.800, 3.500, 11.100, 504, 100, 97, 15, 21725, -23427, 4771, 5548, 8, 14, 1523647445.051, 86, 0, 1024, 1024, 1025, 1024, 0, 6, 3546, 3575, 3616, 3592, 3560, 3597, 0, 1, 19001, -89.900, 0.000, 10.600, 0.000, 0.000, -2.800, 0.0, , , , , , 98, , , 65, 65, 65
36.6440319, -118.9467578, 40.300, 12:24:05.151, 18, 0.00, 0.53, 86, -1.800, 3.500, 11.100, 504, 100, 97, 15, 21469, -21218, 4771, 5548, 8, 14, 1523647445.151, 186, 0, 1024, 1024, 1025, 1024, 0, 6, 3546, 3575, 3616, 3592, 3560, 3597, 0, 1, 19101, -89.900, 0.000, 10.600, 0.000, 0.000, -2.800, 0.0, , , , , , 98, , , 65, 65, 65
36.6440319, -118.9467580, 41.200, 12:24:05.251, 18, 0.00, 0.54, 86, -0.300, 3.500, 10.900, 504, 100, 97, 15, 21469, -21218, 4771, 5548, 8, 14, 1523647445.252, 11, 0, 1024, 1024, 1025, 1024, 0, 6, 3569, 3600, 3603, 3582, 3538, 3574, 0, 1, 19202, -89.900, 0.000, 10.600, 0.000, 0.000, -2.900, 0.0, , , , , , 98, , , 65, 65, 65
36.6440319, -118.9467580, 41.200, 12:24:05.351, 18, 0.00, 0.54, 86, -0.300, 3.500, 10.900, 504, 100, 97, 15, 21469, -21218, 4771, 5548, 8, 14, 1523647445.351, 110, 0, 1024, 1024, 1025, 1024, 0, 6, 3569, 3600, 3603, 3582, 3538, 3574, 0, 1, 19301, -89.900, 0.000, 10.600, 0.000, 0.000, -2.900, 0.0, , , , , , 98, , , 65, 65, 65
36.6440319, -118.9467580, 41.800, 12:24:05.453, 18, 0.00, 0.54, 86, -0.900, 3.700, 10.800, 504, 100, 97, 15, 21469, -21218, 4771, 5548, 8, 14, 1523647445.453, 3, 0, 1024, 1024, 1025, 1024, 0, 6, 3569, 3600, 3603, 3582, 3538, 3574, 0, 1, 19403, -89.900, 0.000, 10.600, 0.000, 0.000, -3.000, 0.0, , , , , , 98, , , 65, 65, 65
36.6440319, -118.9467580, 41.800, 12:24:05.551, 18, 0.00, 0.54, 86, -0.900, 3.700, 10.800, 504, 100, 97, 15, 21469, -21218, 4771, 5548, 8, 14, 1523647445.551, 101, 0, 1024, 1024, 1025, 1024, 0, 6, 3569, 3600, 3603, 3582, 3538, 3574, 0, 1, 19501, -89.900, 0.000, 10.600, 0.000, 0.000, -3.000, 0.0, , , , , , 98, , , 65, 65, 65
36.6440319, -118.9467579, 42.100, 12:24:05.651, 18, 0.00, 0.53, 86, -1.600, 3.500, 10.800, 504, 100, 96, 15, 21469, -21218, 4771, 5548, 8, 14, 1523647445.651, 96, 0, 1024, 1024, 1025, 1024, 0, 6, 3569, 3600, 3603, 3582, 3538, 3574, 0, 1, 19601, -89.900, 0.000, 10.600, 0.000, 0.000, -3.000, 0.0, , , , , , 98, , , 65, 65, 65
36.6440318, -118.9467578, 42.400, 12:24:05.750, 18, 0.00, 0.53, 86, -2.100, 3.300, 10.700, 504, 100, 96, 15, 21469, -21218, 4771, 5548, 8, 14, 1523647445.751, 87, 0, 1024, 1024, 1025, 1024, 0, 6, 3569, 3600, 3603, 3582, 3538, 3574, 0, 1, 19701, -90.000, 0.000, 10.600, 0.000, 0.000, -3.000, 0.0, , , , , , 98, , , 65, 65, 65
36.6440318, -118.9467578, 42.700, 12:24:05.851, 18, 0.00, 0.52, 86, -2.400, 2.900, 10.700, 504, 100, 96, 15, 21469, -21218, 4771, 5548, 8, 14, 1523647445.851, 31, 0, 1024, 1024, 1025, 1024, 0, 6, 3569, 3600, 3603, 3582, 3538, 3574, 0, 1, 19801, -90.000, 0.000, 10.600, 0.000, 0.000, -3.000, 0.0, , , , , , 98, , , 65, 65, 65
36.6440317, -118.9467577, 43.300, 12:24:05.951, 18, 0.00, 0.51, 86, -2.200, 2.700, 10.700, 504, 100, 96, 15, 21469, -21218, 4771, 5548, 8, 14, 1523647445.951, 59, 0, 1024, 1024, 1025, 1024, 0, 6, 3569, 3600, 3603, 3582, 3538, 3574, 0, 1, 19901, -90.000, 0.000, 10.600, 0.000, 0.000, -3.000, 0.0, , , , , , 98, , , 65, 65, 65
36.6440316, -118.9467577, 43.600, 12:24:06.051, 18, 0.00, 0.50, 86, -2.100, 2.800, 10.800, 504, 100, 96, 15, 21353, -21940, 4715, 5548, 8, 14, 1523647446.051, 49, 0, 1024, 1024, 1025, 1024, 0, 6, 3551, 3571, 3576, 3554, 3533, 3580, 0, 1, 20002, -89.900, 0.000, 10.600, 0.000, 0.000, -3.000, 0.0, , , , , , 98, , , 65, 65, 65
36.6440316, -118.9467577, 43.600, 12:24:06.151, 18, 0.00, 0.50, 86, -2.100, 2.800, 10.800, 504, 100, 96, 15, 21353, -21940, 4715, 5548, 8, 14, 1523647446.151, 149, 0, 1024, 1024, 1025, 1024, 0, 6, 3551, 3571, 3576, 3554, 3533, 3580, 0, 1, 20101, -90.000, 0.000, 10.600, 0.000, 0.000, -3.000, 0.0, , , , , , 98, , , 65, 65, 65
36.6440316, -118.9467577, 43.600, 12:24:06.251, 18, 0.00, 0.50, 86, -2.100, 2.800, 10.800, 504, 100, 96, 15, 21353, -21940, 4715, 5548, 8, 14, 1523647446.252, 249, 0, 1024, 1024, 1025, 1024, 0, 6, 3551, 3571, 3576, 3554, 3533, 3580, 0, 1, 20202, -90.000, 0.000, 10.600, 0.000, 0.000, -3.000, 0.0, , , , , , 98, , , 65, 65, 65
36.6440315, -118.9467577, 44.200, 12:24:06.351, 18, 0.00, 0.50, 86, -2.000, 2.600, 10.900, 504, 100, 96, 15, 21353, -21940, 4715, 5548, 8, 14, 1523647446.351, 43, 0, 1024, 1024, 1025, 1024, 0, 6, 3551, 3571, 3576, 3554, 3533, 3580, 0, 1, 20301, -90.000, 0.000, 10.600, 0.000, 0.000, -3.000, 0.0, , , , , , 98, , , 65, 65, 65
36.6440315, -118.9467576, 44.800, 12:24:06.450, 18, 0.00, 0.50, 86, -1.900, 2.900, 10.800, 504, 100, 96, 15, 21353, -21940, 4715, 5548, 8, 14, 1523647446.451, 39, 0, 1024, 1024, 1025, 1024, 0, 6, 3551, 3571, 3576, 3554, 3533, 3580, 0, 1, 20401, -89.900, 0.000, 10.600, 0.000, 0.000, -3.000, 0.0, , , , , , 98, , , 65, 65, 65
36.6440315, -118.9467576, 45.100, 12:24:06.551, 18, 0.00, 0.50, 85, -2.200, 3.200, 10.600, 504, 100, 96, 15, 21353, -21940, 4715, 5548, 8, 14, 1523647446.551, 49, 0, 1024, 1024, 1025, 1024, 0, 6, 3551, 3571, 3576, 3554, 3533, 3580, 0, 1, 20501, -89.900, 0.000, 10.600, 0.000, 0.000, -3.000, 0.0, , , , , , 98, , , 65, 65, 65
36.6440315, -118.9467575, 45.400, 12:24:06.651, 18, 0.00, 0.50, 85, -2.400, 3.400, 10.400, 504, 100, 97, 15, 21353, -21940, 4715, 5548, 8, 14, 1523647446.651, 50, 0, 1024, 1024, 1025, 1024, 0, 6, 3551, 3571, 3576, 3554, 3533, 3580, 0, 1, 20601, -89.900, 0.000, 10.600, 0.000, 0.000, -3.000, 0.0, , , , , , 98, , , 65, 65, 65
36.6440316, -118.9467574, 45.700, 12:24:06.751, 18, 0.00, 0.51, 85, -2.500, 3.700, 10.300, 504, 100, 97, 15, 21353, -21940, 4715, 5548, 8, 14, 1523647446.751, 45, 0, 1024, 1024, 1025, 1024, 0, 6, 3551, 3571, 3576, 3554, 3533, 3580, 0, 1, 20701, -89.900, 0.000, 10.600, 0.000, 0.000, -3.000, 0.0, , , , , , 98, , , 65, 65, 65
36.6440316, -118.9467573, 46.000, 12:24:06.851, 18, 0.00, 0.51, 85, -2.500, 4.100, 10.300, 504, 100, 97, 15, 21353, -21940, 4715, 5548, 8, 14, 1523647446.851, 19, 0, 1024, 1024, 1025, 1024, 0, 6, 3551, 3571, 3576, 3554, 3533, 3580, 0, 1, 20802, -89.900, 0.000, 10.600, 0.000, 0.000, -3.000, 0.0, , , , , , 98, , , 65, 65, 65
36.6440316, -118.9467573, 46.000, 12:24:06.951, 18, 0.00, 0.51, 85, -2.500, 4.100, 10.300, 504, 100, 97, 15, 21353, -21940, 4715, 5548, 8, 14, 1523647446.951, 119, 0, 1024, 1024, 1025, 1024, 0, 6, 3551, 3571, 3576, 3554, 3533, 3580, 0, 1, 20901, -89.900, 0.000, 10.600, 0.000, 0.000, -3.000, 0.0, , , , , , 98, , , 65, 65, 65
36.6440316, -118.9467573, 46.000, 12:24:07.050, 18, 0.00, 0.51, 85, -2.500, 4.100, 10.300, 504, 100, 97, 15, 21396, -21300, 4715, 5548, 8, 14, 1523647447.051, 219, 0, 1024, 1024, 1025, 1024, 0, 6, 3551, 3571, 3576, 3554, 3533, 3580, 0, 1, 21001, -89.900, 0.000, 10.600, 0.000, 0.000, -3.000, 0.0, , , , , , 98, , , 65, 65, 65
36.6440316, -118.9467573, 46.000, 12:24:07.151, 18, 0.00, 0.51, 85, -2.500, 4.100, 10.300, 504, 100, 97, 15, 21396, -21300, 4715, 5548, 8, 14, 1523647447.151, 319, 0, 1024, 1024, 1025, 1024, 0, 6, 3551, 3571, 3576, 3554, 3533, 3580, 0, 1, 21101, -89.900, 0.000, 10.600, 0.000, 0.000, -3.000, 0.0, , , , , , 98, , , 65, 65, 65
