Latitude, Longitude, Altitude (m), Time, Sats, Speed (m/s), Range (m), Battery (%), Roll (deg), Pitch (deg), Yaw (deg), Images, HD Signal (%), RC Signal (%), Battery Temp (C), Battery Voltage (mV), Battery Current (mA), Battery Energy (mAh), Battery Capacity (mAh), Battery Discharges, flyState, timestamp (Unix), LastUpdate (ms), radioChannel, Rc_elevator, Rc_aileron, Rc_throttle, Rc_rudder, Rc_gyro, Dronetype, Battery_Cell1 (mV), Battery_Cell2 (mV), Battery_Cell3 (mV), Battery_Cell4 (mV), Battery_Cell5 (mV), Battery_Cell6 (mV), Video, isFlying, elapsedTime (ms), gimbalPitch (deg), gimbalRoll (deg), gimbalYaw (deg), VelocityX (m/s), VelocityY (m/s), VelocityZ (m/s), GroundSmear (cm), App Version, Aircraft Name, Aircraft Firmware, Aircraft Serial Number, Battery Serial Number, Battery Lifetime (%), App_Tip, App_Warning, CurrentFlightStartingIndex, CurrentFlightLastVisitedWaypoint, PreviousFlightEndingWaypointIndex
36.6440244, -118.9467590, 0.000, 11:19:55.626, 16, 0.10, 0.04, 97, -0.500, -2.000, 14.800, 481, 100, 100, 17, 25476, -3861, 5363, 5529, 9, 11, 1523643595.626, 101, 0, 1024, 1024, 1024, 1024, 0, 6, 4272, 4286, 4282, 4281, 4285, 4280, 0, 1, 2907, -90.000, 0.000, 12.300, 0.100, 0.000, -0.100, 0.0, MapPilot_2.7.4_02272018, Dendroctonus I, 1.3.1.00, 041DDC1887, 1058171200162, 98, DJI_0482.jpg, Starting Mission from Lat/Long: 36.64403/-118.94676 Camera: Zenmuse X3 - Overlap: 90/90 - Active Connection: Yes, 25, 25, 25
36.6440245, -118.9467591, 0.000, 11:19:55.720, 16, 0.10, 0.06, 97, -0.300, -1.800, 15.000, 481, 100, 100, 17, 25476, -3861, 5363, 5529, 9, 11, 1523643595.720, 66, 0, 1024, 1024, 1024, 1024, 0, 6, 4211, 4247, 4256, 4255, 4265, 4260, 0, 1, 3001, -89.900, 0.000, 12.300, 0.100, 0.000, -0.200, 0.0, , , , , , 98, , , 25, 25, 25
36.6440247, -118.9467591, 0.000, 11:19:55.819, 16, 0.20, 0.08, 97, 0.000, -0.800, 15.000, 481, 100, 100, 17, 25476, -3861, 5363, 5529, 9, 11, 1523643595.820, 70, 0, 1024, 1024, 1024, 1024, 0, 6, 4211, 4247, 4256, 4255, 4265, 4260, 0, 1, 3101, -89.900, 0.000, 12.400, 0.200, 0.000, -0.300, 0.0, , , , , , 98, , , 25, 25, 25
36.6440249, -118.9467592, 0.000, 11:19:55.920, 16, 0.20, 0.10, 97, 0.200, 0.200, 15.000, 481, 100, 100, 17, 25476, -3861, 5363, 5529, 9, 11, 1523643595.920, 71, 0, 1024, 1024, 1024, 1024, 0, 6, 4211, 4247, 4256, 4255, 4265, 4260, 0, 1, 3201, -89.900, 0.000, 12.400, 0.200, 0.000, -0.400, 0.0, , , , , , 98, , , 25, 25, 25
36.6440251, -118.9467592, 0.100, 11:19:56.020, 16, 0.20, 0.13, 97, 0.400, 1.200, 14.800, 481, 100, 100, 17, 25476, -3861, 5363, 5529, 9, 11, 1523643596.020, 78, 0, 1024, 1024, 1024, 1024, 0, 6, 4211, 4247, 4256, 4255, 4265, 4260, 0, 1, 3301, -89.900, 0.000, 12.500, 0.200, 0.000, -0.300, 0.0, , , , , , 98, , , 25, 25, 25
36.6440254, -118.9467592, 0.100, 11:19:56.120, 15, 0.20, 0.15, 97, 0.600, 1.900, 14.800, 481, 100, 100, 17, 25476, -3861, 5363, 5529, 9, 11, 1523643596.120, 71, 0, 1024, 1024, 1024, 1024, 0, 6, 4211, 4247, 4256, 4255, 4265, 4260, 0, 1, 3401, -89.900, 0.000, 12.500, 0.200, 0.000, -0.400, 0.0, , , , , , 98, , , 25, 25, 25
36.6440256, -118.9467591, 0.200, 11:19:56.219, 15, 0.20, 0.17, 97, 0.500, 2.400, 14.700, 481, 100, 100, 17, 25476, -3861, 5363, 5529, 9, 11, 1523643596.220, 60, 0, 1024, 1024, 1024, 1024, 0, 6, 4211, 4247, 4256, 4255, 4265, 4260, 0, 1, 3501, -89.900, 0.000, 12.600, 0.200, 0.000, -0.400, 0.0, , , , , , 98, , , 25, 25, 25
36.6440257, -118.9467591, 0.200, 11:19:56.320, 15, 0.10, 0.19, 97, 0.400, 2.400, 14.600, 481, 100, 100, 17, 25476, -3861, 5363, 5529, 9, 11, 1523643596.320, 50, 0, 1024, 1024, 1024, 1024, 0, 6, 4211, 4247, 4256, 4255, 4265, 4260, 0, 1, 3601, -89.900, 0.000, 12.600, 0.100, 0.000, -0.400, 0.0, , , , , , 98, , , 25, 25, 25
36.6440258, -118.9467591, 0.300, 11:19:56.420, 15, 0.10, 0.20, 97, 0.200, 2.200, 14.600, 481, 100, 100, 17, 25476, -3861, 5363, 5529, 9, 11, 1523643596.420, 47, 0, 1024, 1024, 1024, 1024, 0, 6, 4211, 4247, 4256, 4255, 4265, 4260, 0, 1, 3701, -89.900, 0.000, 12.700, 0.100, 0.000, -0.400, 0.0, , , , , , 98, , , 25, 25, 25
36.6440259, -118.9467591, 0.300, 11:19:56.520, 15, 0.10, 0.21, 97, 0.000, 1.600, 14.600, 481, 100, 100, 17, 25476, -3861, 5363, 5529, 9, 11, 1523643596.520, 55, 0, 1024, 1024, 1024, 1024, 0, 6, 4211, 4247, 4256, 4255, 4265, 4260, 0, 1, 3801, -89.900, 0.000, 12.700, 0.100, 0.000, -0.400, 0.0, , , , , , 98, , , 25, 25, 25
36.6440260, -118.9467590, 0.400, 11:19:56.620, 15, 0.10, 0.22, 97, 0.000, 1.200, 14.700, 481, 100, 100, 17, 25476, -3861, 5363, 5529, 9, 11, 1523643596.620, 53, 0, 1024, 1024, 1024, 1024, 0, 6, 4211, 4247, 4256, 4255, 4265, 4260, 0, 1, 3901, -89.900, 0.000, 12.700, 0.100, 0.000, -0.500, 0.0, , , , , , 98, , , 25, 25, 25
36.6440261, -118.9467590, 0.400, 11:19:56.720, 15, 0.10, 0.23, 97, -0.100, 1.100, 14.700, 481, 100, 100, 17, 24775, -8941, 5363, 5529, 9, 11, 1523643596.720, 51, 0, 1024, 1024, 1024, 1024, 0, 6, 4086, 4162, 4067, 4078, 4071, 4081, 0, 1, 4001, -89.900, 0.000, 12.800, 0.100, 0.000, -0.400, 0.0, , , , , , 98, , , 25, 25, 25
36.6440262, -118.9467590, 0.500, 11:19:56.820, 15, 0.00, 0.24, 97, -0.200, 1.100, 14.800, 481, 100, 100, 17, 24775, -8941, 5363, 5529, 9, 11, 1523643596.820, 53, 0, 1024, 1024, 1024, 1024, 0, 6, 4086, 4162, 4067, 4078, 4071, 4081, 0, 1, 4101, -89.900, 0.000, 12.800, 0.000, 0.000, -0.400, 0.0, , , , , , 98, , , 25, 25, 25
36.6440263, -118.9467589, 0.500, 11:19:56.920, 15, 0.10, 0.25, 97, -0.200, 1.300, 14.800, 481, 100, 100, 17, 24775, -8941, 5363, 5529, 9, 11, 1523643596.920, 51, 0, 1024, 1024, 1024, 1024, 0, 6, 4086, 4162, 4067, 4078, 4071, 4081, 0, 1, 4201, -89.900, 0.000, 12.900, 0.100, 0.000, -0.500, 0.0, , , , , , 98, , , 25, 25, 25
36.6440265, -118.9467588, 0.600, 11:19:57.020, 15, 0.10, 0.27, 97, -0.300, 1.500, 14.800, 481, 100, 100, 17, 24775, -8941, 5363, 5529, 9, 11, 1523643597.020, 38, 0, 1024, 1024, 1024, 1024, 0, 6, 4086, 4162, 4067, 4078, 4071, 4081, 0, 1, 4301, -89.900, 0.000, 12.900, 0.100, 0.000, -0.500, 0.0, , , , , , 98, , , 25, 25, 25
36.6440266, -118.9467588, 0.600, 11:19:57.120, 15, 0.00, 0.28, 97, -0.300, 1.700, 14.800, 481, 100, 100, 17, 24775, -8941, 5363, 5529, 9, 11, 1523643597.122, 34, 0, 1024, 1024, 1024, 1024, 0, 6, 4086, 4162, 4067, 4078, 4071, 4081, 0, 1, 4403, -89.900, 0.000, 12.900, 0.000, 0.000, -0.500, 0.0, , , , , , 98, , , 25, 25, 25
36.6440267, -118.9467587, 0.700, 11:19:57.220, 15, 0.00, 0.29, 97, -0.200, 1.900, 14.800, 481, 100, 100, 17, 24775, -8941, 5363, 5529, 9, 11, 1523643597.220, 11, 0, 1024, 1024, 1024, 1024, 0, 6, 4086, 4162, 4067, 4078, 4071, 4081, 0, 1, 4501, -89.900, 0.000, 13.000, 0.000, 0.000, -0.500, 0.0, , , , , , 98, , , 25, 25, 25
36.6440268, -118.9467587, 0.800, 11:19:57.319, 16, 0.00, 0.31, 97, -0.300, 2.100, 14.700, 481, 100, 100, 17, 24775, -8941, 5363, 5529, 9, 11, 1523643597.320, 15, 0, 1024, 1024, 1024, 1024, 0, 6, 4086, 4162, 4067, 4078, 4071, 4081, 0, 1, 4600, -89.900, 0.000, 13.000, 0.000, 0.000, -0.500, 0.0, , , , , , 98, , , 25, 25, 25
36.6440270, -118.9467587, 0.800, 11:19:57.421, 16, 0.00, 0.33, 97, -0.400, 2.400, 14.700, 481, 100, 100, 17, 24775, -8941, 5363, 5529, 9, 11, 1523643597.421, 7, 0, 1024, 1024, 1024, 1024, 0, 6, 4086, 4162, 4067, 4078, 4071, 4081, 0, 1, 4702, -89.900, 0.000, 13.000, 0.000, 0.000, -0.400, 0.0, , , , , , 98, , , 25, 25, 25
36.6440270, -118.9467586, 0.900, 11:19:57.520, 16, 0.00, 0.33, 97, -0.400, 2.600, 14.700, 481, 100, 100, 17, 24775, -8941, 5363, 5529, 9, 6, 1523643597.521, 21, 0, 1024, 1024, 1024, 1024, 0, 6, 4086, 4162, 4067, 4078, 4071, 4081, 0, 1, 4801, -89.900, 0.000, 13.100, 0.000, 0.000, -0.400, 0.0, , , , , , 98, , , 25, 25, 25
36.6440272, -118.9467585, 1.000, 11:19:57.621, 15, 0.00, 0.35, 97, -0.700, 2.000, 14.600, 481, 100, 100, 17, 24775, -8941, 5363, 5529, 9, 14, 1523643597.622, 7, 0, 1024, 1024, 1024, 1024, 0, 6, 4086, 4162, 4067, 4078, 4071, 4081, 0, 1, 4902, -89.900, 0.000, 13.100, 0.000, 0.000, -0.300, 0.0, , , , , , 98, , , 25, 25, 25
36.6440272, -118.9467585, 1.000, 11:19:57.720, 15, 0.00, 0.35, 97, -0.700, 2.000, 14.600, 481, 100, 100, 17, 23873, -16246, 5363, 5529, 9, 14, 1523643597.720, 106, 0, 1024, 1024, 1024, 1024, 0, 6, 4086, 4162, 4067, 4078, 4071, 4081, 0, 1, 5001, -89.900, 0.000, 13.100, 0.000, 0.000, -0.300, 0.0, , , , , , 98, , , 25, 25, 25
36.6440274, -118.9467585, 1.000, 11:19:57.841, 15, 0.00, 0.37, 97, -0.700, 1.500, 14.600, 481, 100, 100, 17, 23873, -16246, 5363, 5529, 9, 14, 1523643597.841, 10, 0, 1024, 1024, 1024, 1024, 0, 6, 4086, 4162, 4067, 4078, 4071, 4081, 0, 1, 5122, -90.000, 0.000, 13.100, 0.000, 0.000, -0.200, 0.0, , , , , , 98, , , 25, 25, 25
36.6440274, -118.9467583, 1.100, 11:19:57.922, 16, 0.00, 0.38, 97, -0.400, 1.300, 14.600, 481, 100, 100, 17, 23873, -16246, 5363, 5529, 9, 14, 1523643597.923, 7, 0, 1024, 1024, 1024, 1024, 0, 6, 3940, 3989, 3968, 3970, 3962, 3957, 0, 1, 5204, -90.000, 0.000, 13.200, 0.000, 0.000, -0.300, 0.0, , , , , , 98, , , 25, 25, 25
36.6440274, -118.9467583, 1.100, 11:19:58.020, 16, 0.00, 0.38, 97, -0.400, 1.300, 14.600, 481, 100, 100, 17, 23873, -16246, 5363, 5529, 9, 14, 1523643598.020, 104, 0, 1024, 1024, 1024, 1024, 0, 6, 3940, 3989, 3968, 3970, 3962, 3957, 0, 1, 5301, -90.000, 0.000, 13.200, 0.000, 0.000, -0.300, 0.0, , , , , , 98, , , 25, 25, 25
36.6440275, -118.9467583, 1.100, 11:19:58.120, 16, 0.00, 0.39, 97, -0.300, 1.300, 14.500, 481, 100, 100, 17, 23873, -16246, 5363, 5529, 9, 14, 1523643598.120, 88, 0, 1024, 1024, 1024, 1024, 0, 6, 3940, 3989, 3968, 3970, 3962, 3957, 0, 1, 5401, -90.000, 0.000, 13.200, 0.000, 0.000, -0.400, 0.0, , , , , , 98, , , 25, 25, 25
36.6440277, -118.9467583, 1.200, 11:19:58.220, 16, 0.00, 0.40, 97, -0.100, 1.200, 14.500, 481, 100, 100, 17, 23873, -16246, 5363, 5529, 9, 14, 1523643598.220, 79, 0, 1024, 1024, 1024, 1024, 0, 6, 3940, 3989, 3968, 3970, 3962, 3957, 0, 1, 5501, -90.000, 0.000, 13.200, 0.000, 0.000, -0.600, 0.0, , , , , , 98, , , 25, 25, 25
36.6440277, -118.9467583, 1.300, 11:19:58.319, 16, 0.00, 0.41, 97, 0.000, 1.300, 14.500, 481, 100, 100, 17, 23873, -16246, 5363, 5529, 9, 14, 1523643598.319, 88, 0, 1024, 1024, 1024, 1024, 0, 6, 3940, 3989, 3968, 3970, 3962, 3957, 0, 1, 5600, -90.000, 0.000, 13.300, 0.000, 0.000, -0.800, 0.0, , , , , , 98, , , 25, 25, 25
36.6440278, -118.9467583, 1.400, 11:19:58.420, 16, 0.00, 0.42, 97, 0.000, 1.400, 14.400, 481, 100, 100, 17, 23873, -16246, 5363, 5529, 9, 14, 1523643598.420, 90, 0, 1024, 1024, 1024, 1024, 0, 6, 3940, 3989, 3968, 3970, 3962, 3957, 0, 1, 5701, -89.900, 0.000, 13.300, 0.000, 0.000, -1.000, 0.0, , , , , , 98, , , 25, 25, 25
36.6440279, -118.9467582, 1.500, 11:19:58.520, 16, 0.00, 0.43, 97, 0.000, 1.700, 14.300, 481, 100, 100, 17, 23873, -16246, 5363, 5529, 9, 14, 1523643598.520, 79, 0, 1024, 1024, 1024, 1024, 0, 6, 3940, 3989, 3968, 3970, 3962, 3957, 0, 1, 5801, -89.900, 0.000, 13.300, 0.000, 0.000, -1.200, 0.0, , , , , , 98, , , 25, 25, 25
36.6440280, -118.9467580, 1.600, 11:19:58.620, 16, 0.00, 0.44, 97, -0.300, 1.800, 14.200, 481, 100, 100, 17, 23873, -16246, 5363, 5529, 9, 14, 1523643598.621, 69, 0, 1024, 1024, 1024, 1024, 0, 6, 3940, 3989, 3968, 3970, 3962, 3957, 0, 1, 5901, -89.900, 0.000, 13.300, 0.000, 0.000, -1.500, 0.0, , , , , , 98, , , 25, 25, 25
36.6440280, -118.9467580, 1.800, 11:19:58.720, 16, 0.00, 0.44, 97, -0.600, 1.900, 14.200, 481, 100, 100, 17, 23727, -18523, 5363, 5529, 9, 14, 1523643598.720, 69, 0, 1024, 1024, 1024, 1024, 0, 6, 3886, 3885, 3954, 3954, 3956, 3947, 0, 1, 6001, -89.900, 0.000, 13.300, 0.000, 0.000, -1.700, 0.0, , , , , , 98, , , 25, 25, 25
36.6440280, -118.9467580, 2.000, 11:19:58.820, 16, 0.00, 0.44, 97, -0.700, 2.000, 14.200, 481, 100, 98, 17, 23727, -18523, 5363, 5529, 9, 14, 1523643598.820, 46, 0, 1024, 1024, 1024, 1024, 0, 6, 3886, 3885, 3954, 3954, 3956, 3947, 0, 1, 6101, -89.900, 0.000, 13.400, 0.000, 0.000, -1.900, 0.0, , , , , , 98, , , 25, 25, 25
36.6440280, -118.9467580, 2.200, 11:19:58.919, 16, 0.00, 0.45, 97, -0.700, 2.100, 14.400, 481, 100, 98, 17, 23727, -18523, 5363, 5529, 9, 14, 1523643598.920, 78, 0, 1024, 1024, 1024, 1024, 0, 6, 3886, 3885, 3954, 3954, 3956, 3947, 0, 1, 6200, -89.900, 0.000, 13.400, 0.000, 0.000, -2.100, 0.0, , , , , , 98, , , 25, 25, 25
36.6440281, -118.9467580, 2.400, 11:19:59.020, 16, 0.00, 0.45, 97, -0.800, 2.200, 14.600, 481, 100, 98, 17, 23727, -18523, 5363, 5529, 9, 14, 1523643599.020, 79, 0, 1024, 1024, 1024, 1024, 0, 6, 3886, 3885, 3954, 3954, 3956, 3947, 0, 1, 6301, -89.900, 0.000, 13.400, 0.000, 0.000, -2.300, 0.0, , , , , , 98, , , 25, 25, 25
36.6440281, -118.9467580, 2.700, 11:19:59.120, 15, 0.00, 0.45, 97, -0.900, 2.200, 14.900, 481, 100, 98, 17, 23727, -18523, 5363, 5529, 9, 14, 1523643599.120, 40, 0, 1024, 1024, 1024, 1024, 0, 6, 3886, 3885, 3954, 3954, 3956, 3947, 0, 1, 6401, -89.900, 0.000, 13.400, 0.000, 0.000, -2.600, 0.0, , , , , , 98, , , 25, 25, 25
36.6440281, -118.9467581, 3.000, 11:19:59.220, 15, 0.00, 0.46, 97, -0.700, 2.200, 15.100, 481, 100, 98, 17, 23727, -18523, 5363, 5529, 9, 14, 1523643599.220, 59, 0, 1024, 1024, 1024, 1024, 0, 6, 3886, 3885, 3954, 3954, 3956, 3947, 0, 1, 6501, -89.900, 0.000, 13.400, 0.000, 0.000, -2.800, 0.0, , , , , , 98, , , 25, 25, 25
36.6440282, -118.9467581, 3.300, 11:19:59.320, 16, 0.00, 0.46, 97, -0.400, 2.000, 15.300, 481, 100, 97, 17, 23727, -18523, 5363, 5529, 9, 14, 1523643599.320, 37, 0, 1024, 1024, 1024, 1024, 0, 6, 3886, 3885, 3954, 3954, 3956, 3947, 0, 1, 6601, -89.900, 0.000, 13.500, 0.000, 0.000, -2.900, 0.0, , , , , , 98, , , 25, 25, 25
36.6440282, -118.9467581, 3.600, 11:19:59.420, 16, 0.00, 0.47, 97, -0.200, 2.100, 15.300, 481, 100, 97, 17, 23727, -18523, 5363, 5529, 9, 14, 1523643599.420, 31, 0, 1024, 1024, 1024, 1024, 0, 6, 3886, 3885, 3954, 3954, 3956, 3947, 0, 1, 6701, -89.900, 0.000, 13.500, 0.000, 0.000, -3.000, 0.0, , , , , , 98, , , 25, 25, 25
36.6440283, -118.9467583, 3.900, 11:19:59.520, 16, 0.00, 0.47, 97, 0.000, 2.000, 15.300, 481, 100, 97, 17, 23727, -18523, 5363, 5529, 9, 14, 1523643599.520, 24, 0, 1024, 1024, 1024, 1024, 0, 6, 3886, 3885, 3954, 3954, 3956, 3947, 0, 1, 6801, -89.900, 0.000, 13.500, 0.000, 0.000, -3.100, 0.0, , , , , , 98, , , 25, 25, 25
36.6440284, -118.9467586, 4.300, 11:19:59.620, 16, 0.00, 0.48, 97, 0.200, 2.000, 15.100, 481, 100, 97, 17, 23727, -18523, 5363, 5529, 9, 14, 1523643599.620, 29, 0, 1024, 1024, 1024, 1024, 0, 6, 3886, 3885, 3954, 3954, 3956, 3947, 0, 1, 6901, -89.900, 0.000, 13.500, 0.000, 0.000, -3.100, 0.0, , , , , , 98, , , 25, 25, 25
36.6440284, -118.9467586, 4.600, 11:19:59.720, 16, 0.00, 0.48, 97, 0.400, 2.000, 14.800, 481, 100, 97, 17, 22848, -23706, 5363, 5529, 9, 14, 1523643599.721, 31, 0, 1024, 1024, 1024, 1024, 0, 6, 3886, 3885, 3954, 3954, 3956, 3947, 0, 1, 7002, -89.900, 0.000, 13.500, 0.000, 0.000, -3.100, 0.0, , , , , , 98, , , 25, 25, 25
36.6440284, -118.9467586, 4.900, 11:19:59.830, 16, 0.00, 0.48, 97, 0.400, 2.100, 14.500, 481, 100, 97, 17, 22848, -23706, 5363, 5529, 9, 14, 1523643599.831, 12, 0, 1024, 1024, 1024, 1024, 0, 6, 3774, 3848, 3832, 3796, 3817, 3835, 0, 1, 7112, -89.900, 0.000, 13.500, 0.000, 0.000, -3.200, 0.0, , , , , , 98, , , 25, 25, 25
36.6440283, -118.9467584, 5.300, 11:19:59.920, 15, 0.00, 0.47, 97, 0.100, 2.200, 14.200, 481, 100, 97, 17, 22848, -23706, 5363, 5529, 9, 14, 1523643599.921, 25, 0, 1024, 1024, 1024, 1024, 0, 6, 3774, 3848, 3832, 3796, 3817, 3835, 0, 1, 7202, -89.900, 0.000, 13.500, 0.000, 0.000, -3.200, 0.0, , , , , , 98, , , 25, 25, 25
36.6440283, -118.9467584, 5.300, 11:20:00.020, 15, 0.00, 0.47, 97, 0.100, 2.200, 14.200, 481, 100, 97, 17, 22848, -23706, 5363, 5529, 9, 14, 1523643600.020, 125, 0, 1024, 1024, 1024, 1024, 0, 6, 3774, 3848, 3832, 3796, 3817, 3835, 0, 1, 7301, -89.900, 0.000, 13.500, 0.000, 0.000, -3.200, 0.0, , , , , , 98, , , 25, 25, 25
36.6440278, -118.9467577, 6.300, 11:20:00.125, 15, 0.10, 0.43, 97, -2.200, 0.800, 14.200, 481, 100, 97, 17, 22848, -23706, 5363, 5529, 9, 14, 1523643600.125, 19, 0, 1024, 1024, 1024, 1024, 0, 6, 3774, 3848, 3832, 3796, 3817, 3835, 0, 1, 7406, -90.000, 0.000, 13.600, -0.100, 0.000, -3.100, 0.0, , , , , , 98, , , 25, 25, 25
36.6440278, -118.9467577, 6.300, 11:20:00.220, 15, 0.10, 0.43, 97, -2.200, 0.800, 14.200, 481, 100, 97, 17, 22848, -23706, 5363, 5529, 9, 14, 1523643600.220, 115, 0, 1024, 1024, 1024, 1024, 0, 6, 3774, 3848, 3832, 3796, 3817, 3835, 0, 1, 7501, -90.000, 0.000, 13.600, -0.100, 0.000, -3.100, 0.0, , , , , , 98, , , 25, 25, 25
36.6440278, -118.9467575, 6.700, 11:20:00.319, 15, 0.00, 0.43, 97, -2.400, 0.500, 14.300, 481, 100, 97, 17, 22848, -23706, 5363, 5529, 9, 14, 1523643600.319, 96, 0, 1024, 1024, 1024, 1024, 0, 6, 3774, 3848, 3832, 3796, 3817, 3835, 0, 1, 7600, -90.000, 0.000, 13.600, 0.000, 0.000, -3.200, 0.0, , , , , , 98, , , 25, 25, 25
36.6440277, -118.9467574, 7.000, 11:20:00.420, 15, 0.00, 0.42, 97, -2.500, 0.700, 14.400, 481, 100, 100, 17, 22848, -23706, 5363, 5529, 9, 14, 1523643600.420, 82, 0, 1024, 1024, 1024, 1024, 0, 6, 3774, 3848, 3832, 3796, 3817, 3835, 0, 1, 7701, -90.000, 0.000, 13.600, 0.000, 0.000, -3.200, 0.0, , , , , , 98, , , 25, 25, 25
36.6440277, -118.9467571, 7.300, 11:20:00.520, 15, 0.00, 0.43, 97, -2.100, 1.100, 14.400, 481, 100, 100, 17, 22848, -23706, 5363, 5529, 9, 14, 1523643600.521, 61, 0, 1024, 1024, 1024, 1024, 0, 6, 3774, 3848, 3832, 3796, 3817, 3835, 0, 1, 7801, -89.900, 0.000, 13.600, 0.000, 0.000, -3.100, 0.0, , , , , , 98, , , 25, 25, 25
36.6440276, -118.9467569, 7.700, 11:20:00.620, 15, 0.00, 0.43, 97, -2.200, 1.500, 14.500, 481, 100, 100, 17, 22848, -23706, 5363, 5529, 9, 14, 1523643600.620, 81, 0, 1024, 1024, 1024, 1024, 0, 6, 3774, 3848, 3832, 3796, 3817, 3835, 0, 1, 7901, -89.900, 0.000, 13.600, 0.000, 0.000, -3.200, 0.0, , , , , , 98, , , 25, 25, 25
36.6440276, -118.9467567, 8.000, 11:20:00.720, 16, 0.00, 0.44, 97, -2.500, 1.600, 14.600, 481, 100, 100, 18, 23141, -19599, 5363, 5529, 9, 14, 1523643600.720, 68, 0, 1024, 1024, 1024, 1024, 0, 6, 3774, 3848, 3832, 3796, 3817, 3835, 0, 1, 8001, -89.900, 0.000, 13.700, 0.000, 0.000, -3.100, 0.0, , , , , , 98, , , 25, 25, 25
36.6440276, -118.9467564, 8.300, 11:20:00.820, 16, 0.00, 0.45, 97, -2.800, 1.700, 14.600, 481, 100, 100, 18, 23141, -19599, 5363, 5529, 9, 14, 1523643600.821, 50, 0, 1024, 1024, 1024, 1024, 0, 6, 3774, 3848, 3832, 3796, 3817, 3835, 0, 1, 8102, -89.900, 0.000, 13.700, 0.000, 0.000, -3.000, 0.0, , , , , , 98, , , 25, 25, 25
36.6440276, -118.9467563, 8.700, 11:20:00.919, 16, 0.00, 0.46, 97, -2.900, 1.800, 14.700, 481, 100, 100, 18, 23141, -19599, 5363, 5529, 9, 14, 1523643600.920, 77, 0, 1024, 1024, 1024, 1024, 0, 6, 3774, 3848, 3832, 3796, 3817, 3835, 0, 1, 8201, -89.900, 0.000, 13.700, 0.000, 0.000, -3.000, 0.0, , , , , , 98, , , 25, 25, 25
36.6440276, -118.9467561, 9.000, 11:20:01.020, 16, 0.00, 0.46, 97, -3.100, 1.800, 14.700, 481, 100, 100, 18, 23141, -19599, 5363, 5529, 9, 14, 1523643601.020, 78, 0, 1024, 1024, 1024, 1024, 0, 6, 3774, 3848, 3832, 3796, 3817, 3835, 0, 1, 8301, -89.900, 0.000, 13.700, 0.000, 0.000, -2.900, 0.0, , , , , , 98, , , 25, 25, 25
36.6440276, -118.9467559, 9.300, 11:20:01.119, 15, 0.00, 0.47, 97, -3.100, 1.700, 14.700, 481, 100, 100, 18, 23141, -19599, 5363, 5529, 9, 14, 1523643601.119, 48, 0, 1024, 1024, 1024, 1024, 0, 6, 3774, 3848, 3832, 3796, 3817, 3835, 0, 1, 8400, -89.900, 0.000, 13.700, 0.000, 0.000, -2.900, 0.0, , , , , , 98, , , 25, 25, 25
36.6440277, -118.9467557, 9.600, 11:20:01.220, 15, 0.00, 0.49, 97, -3.200, 1.800, 14.700, 481, 100, 100, 18, 23141, -19599, 5363, 5529, 9, 14, 1523643601.220, 49, 0, 1024, 1024, 1024, 1024, 0, 6, 3828, 3889, 3867, 3865, 3867, 3851, 0, 1, 8501, -89.900, 0.000, 13.700, 0.000, 0.000, -3.000, 0.0, , , , , , 98, , , 25, 25, 25
36.6440277, -118.9467555, 10.000, 11:20:01.320, 17, 0.00, 0.49, 97, -3.400, 1.700, 14.700, 481, 100, 100, 18, 23141, -19599, 5363, 5529, 9, 14, 1523643601.320, 49, 0, 1024, 1024, 1024, 1024, 0, 6, 3828, 3889, 3867, 3865, 3867, 3851, 0, 1, 8601, -89.900, 0.000, 13.700, 0.000, 0.000, -3.000, 0.0, , , , , , 98, , , 25, 25, 25
36.6440276, -118.9467554, 10.300, 11:20:01.420, 17, 0.00, 0.50, 97, -3.200, 1.700, 14.800, 481, 100, 100, 18, 23141, -19599, 5363, 5529, 9, 14, 1523643601.420, 50, 0, 1024, 1024, 1024, 1024, 0, 6, 3828, 3889, 3867, 3865, 3867, 3851, 0, 1, 8701, -89.900, 0.000, 13.700, 0.000, 0.000, -3.000, 0.0, , , , , , 98, , , 25, 25, 25
36.6440277, -118.9467553, 10.600, 11:20:01.520, 17, 0.00, 0.51, 97, -3.200, 1.900, 14.700, 481, 100, 100, 18, 23141, -19599, 5363, 5529, 9, 14, 1523643601.520, 24, 0, 1024, 1024, 1024, 1024, 0, 6, 3828, 3889, 3867, 3865, 3867, 3851, 0, 1, 8801, -89.900, 0.000, 13.700, 0.000, 0.000, -3.000, 0.0, , , , , , 98, , , 25, 25, 25
36.6440277, -118.9467552, 10.900, 11:20:01.620, 17, 0.00, 0.52, 97, -3.200, 2.200, 14.600, 481, 100, 100, 18, 23141, -19599, 5363, 5529, 9, 14, 1523643601.620, 41, 0, 1024, 1024, 1024, 1024, 0, 6, 3828, 3889, 3867, 3865, 3867, 3851, 0, 1, 8901, -89.900, 0.000, 13.700, 0.000, 0.000, -2.900, 0.0, , , , , , 98, , , 25, 25, 25
36.6440277, -118.9467551, 11.200, 11:20:01.720, 17, 0.00, 0.52, 97, -3.500, 2.300, 14.500, 481, 100, 100, 18, 23141, -19599, 5363, 5529, 9, 14, 1523643601.720, 44, 0, 1024, 1024, 1024, 1024, 0, 6, 3828, 3889, 3867, 3865, 3867, 3851, 0, 1, 9001, -89.900, 0.000, 13.700, 0.000, 0.000, -2.900, 0.0, , , , , , 98, , , 25, 25, 25
36.6440277, -118.9467550, 11.500, 11:20:01.824, 17, 0.00, 0.53, 97, -3.600, 2.300, 14.400, 481, 100, 100, 18, 23141, -19599, 5363, 5529, 9, 14, 1523643601.825, 6, 0, 1024, 1024, 1024, 1024, 0, 6, 3828, 3889, 3867, 3865, 3867, 3851, 0, 1, 9106, -89.900, 0.000, 13.700, 0.000, 0.000, -2.900, 0.0, , , , , , 98, , , 25, 25, 25
36.6440277, -118.9467549, 11.800, 11:20:01.920, 17, 0.00, 0.53, 97, -3.600, 2.200, 14.300, 481, 100, 100, 18, 23141, -19599, 5363, 5529, 9, 14, 1523643601.920, 33, 0, 1024, 1024, 1024, 1024, 0, 6, 3828, 3889, 3867, 3865, 3867, 3851, 0, 1, 9201, -89.900, 0.000, 13.700, 0.000, 0.000, -2.800, 0.0, , , , , , 98, , , 25, 25, 25
36.6440278, -118.9467549, 12.100, 11:20:02.020, 17, 0.00, 0.54, 97, -3.300, 2.100, 14.400, 481, 100, 100, 18, 23141, -19599, 5363, 5529, 9, 14, 1523643602.021, 35, 0, 1024, 1024, 1024, 1024, 0, 6, 3828, 3889, 3867, 3865, 3867, 3851, 0, 1, 9302, -89.900, 0.000, 13.700, 0.000, 0.000, -2.800, 0.0, , , , , , 98, , , 25, 25, 25
36.6440277, -118.9467549, 12.400, 11:20:02.133, 17, 0.00, 0.54, 97, -3.000, 2.000, 14.500, 481, 100, 100, 18, 23141, -19599, 5363, 5529, 9, 14, 1523643602.134, 18, 0, 1024, 1024, 1024, 1024, 0, 6, 3828, 3889, 3867, 3865, 3867, 3851, 0, 1, 9414, -89.900, 0.000, 13.700, 0.000, 0.000, -2.700, 0.0, , , , , , 98, , , 25, 25, 25
36.6440277, -118.9467549, 12.700, 11:20:02.220, 17, 0.00, 0.53, 97, -2.900, 1.800, 14.500, 481, 100, 100, 18, 23202, -18901, 5363, 5529, 9, 14, 1523643602.220, 16, 0, 1024, 1024, 1024, 1024, 0, 6, 3831, 3889, 3866, 3867, 3869, 3841, 0, 1, 9501, -89.900, 0.000, 13.700, 0.000, 0.000, -2.700, 0.0, , , , , , 98, , , 25, 25, 25
36.6440277, -118.9467550, 13.000, 11:20:02.324, 17, 0.10, 0.53, 97, -2.800, 1.600, 14.600, 481, 100, 100, 18, 23202, -18901, 5363, 5529, 9, 14, 1523643602.325, 9, 0, 1024, 1024, 1024, 1024, 0, 6, 3831, 3889, 3866, 3867, 3869, 3841, 0, 1, 9606, -89.900, 0.000, 13.700, 0.000, -0.100, -2.800, 0.0, , , , , , 98, , , 25, 25, 25
36.6440277, -118.9467550, 13.000, 11:20:02.420, 17, 0.10, 0.53, 97, -2.800, 1.600, 14.600, 481, 100, 100, 18, 23202, -18901, 5363, 5529, 9, 14, 1523643602.420, 105, 0, 1024, 1024, 1024, 1024, 0, 6, 3831, 3889, 3866, 3867, 3869, 3841, 0, 1, 9701, -89.900, 0.000, 13.700, 0.000, -0.100, -2.800, 0.0, , , , , , 98, , , 25, 25, 25
36.6440276, -118.9467550, 13.300, 11:20:02.519, 17, 0.10, 0.52, 97, -2.600, 1.400, 14.600, 481, 100, 100, 18, 23202, -18901, 5363, 5529, 9, 14, 1523643602.520, 96, 0, 1024, 1024, 1024, 1024, 0, 6, 3831, 3889, 3866, 3867, 3869, 3841, 0, 1, 9800, -89.900, 0.000, 13.700, 0.000, -0.100, -2.800, 0.0, , , , , , 98, , , 25, 25, 25
36.6440277, -118.9467552, 13.900, 11:20:02.622, 17, 0.10, 0.51, 97, -2.100, 1.300, 14.700, 481, 100, 100, 18, 23202, -18901, 5363, 5529, 9, 14, 1523643602.622, 4, 0, 1024, 1024, 1024, 1024, 0, 6, 3831, 3889, 3866, 3867, 3869, 3841, 0, 1, 9903, -90.000, 0.000, 13.700, 0.000, -0.100, -2.800, 0.0, , , , , , 98, , , 25, 25, 25
36.6440276, -118.9467554, 14.500, 11:20:02.736, 17, 0.10, 0.50, 97, -2.100, 1.200, 14.800, 481, 100, 100, 18, 23202, -18901, 5363, 5529, 9, 14, 1523643602.737, 5, 0, 1024, 1024, 1024, 1024, 0, 6, 3831, 3889, 3866, 3867, 3869, 3841, 0, 1, 10018, -89.900, 0.000, 13.700, 0.000, -0.100, -2.900, 0.0, , , , , , 98, , , 25, 25, 25
36.6440276, -118.9467555, 14.800, 11:20:02.831, 17, 0.10, 0.49, 97, -2.100, 1.200, 14.800, 481, 100, 100, 18, 23202, -18901, 5363, 5529, 9, 14, 1523643602.832, 11, 0, 1024, 1024, 1024, 1024, 0, 6, 3831, 3889, 3866, 3867, 3869, 3841, 0, 1, 10112, -89.900, 0.000, 13.700, 0.000, -0.100, -2.900, 0.0, , , , , , 98, , , 25, 25, 25
36.6440276, -118.9467555, 14.800, 11:20:02.920, 17, 0.10, 0.49, 97, -2.100, 1.200, 14.800, 481, 100, 100, 18, 23202, -18901, 5363, 5529, 9, 14, 1523643602.920, 100, 0, 1024, 1024, 1024, 1024, 0, 6, 3831, 3889, 3866, 3867, 3869, 3841, 0, 1, 10201, -89.900, 0.000, 13.700, 0.000, -0.100, -2.900, 0.0, , , , , , 98, , , 25, 25, 25
36.6440276, -118.9467555, 15.100, 11:20:03.020, 17, 0.10, 0.49, 97, -2.200, 1.300, 14.900, 481, 100, 100, 18, 23202, -18901, 5363, 5529, 9, 14, 1523643603.021, 86, 0, 1024, 1024, 1024, 1024, 0, 6, 3831, 3889, 3866, 3867, 3869, 3841, 0, 1, 10302, -89.900, 0.000, 13.700, 0.000, -0.100, -2.900, 0.0, , , , , , 98, , , 25, 25, 25
36.6440275, -118.9467556, 15.300, 11:20:03.120, 17, 0.10, 0.48, 97, -1.900, 1.300, 14.900, 481, 100, 100, 18, 23202, -18901, 5363, 5529, 9, 14, 1523643603.120, 76, 0, 1024, 1024, 1024, 1024, 0, 6, 3831, 3889, 3866, 3867, 3869, 3841, 0, 1, 10401, -89.900, 0.000, 13.700, 0.000, -0.100, -2.900, 0.0, , , , , , 98, , , 25, 25, 25
36.6440275, -118.9467557, 15.600, 11:20:03.219, 17, 0.00, 0.47, 97, -1.900, 1.400, 14.900, 481, 100, 100, 18, 23060, -19571, 5363, 5529, 9, 14, 1523643603.219, 80, 0, 1024, 1024, 1024, 1024, 0, 6, 3791, 3855, 3830, 3828, 3832, 3827, 0, 1, 10500, -89.900, 0.000, 13.700, 0.000, 0.000, -2.900, 0.0, , , , , , 98, , , 25, 25, 25
36.6440275, -118.9467559, 15.900, 11:20:03.320, 17, 0.00, 0.46, 97, -1.800, 1.600, 14.800, 481, 100, 100, 18, 23060, -19571, 5363, 5529, 9, 14, 1523643603.320, 80, 0, 1024, 1024, 1024, 1024, 0, 6, 3791, 3855, 3830, 3828, 3832, 3827, 0, 1, 10601, -89.900, 0.000, 13.700, 0.000, 0.000, -2.900, 0.0, , , , , , 98, , , 25, 25, 25
36.6440274, -118.9467561, 16.200, 11:20:03.420, 17, 0.00, 0.45, 97, -1.800, 1.600, 14.700, 481, 100, 100, 18, 23060, -19571, 5363, 5529, 9, 14, 1523643603.420, 78, 0, 1024, 1024, 1024, 1024, 0, 6, 3791, 3855, 3830, 3828, 3832, 3827, 0, 1, 10701, -89.900, 0.000, 13.700, 0.000, 0.000, -2.900, 0.0, , , , , , 98, , , 25, 25, 25
36.6440274, -118.9467565, 16.600, 11:20:03.520, 17, 0.10, 0.43, 97, -1.900, 1.600, 14.500, 481, 100, 100, 18, 23060, -19571, 5363, 5529, 9, 14, 1523643603.520, 66, 0, 1024, 1024, 1024, 1024, 0, 6, 3791, 3855, 3830, 3828, 3832, 3827, 0, 1, 10801, -89.900, 0.000, 13.700, 0.000, -0.100, -3.000, 0.0, , , , , , 98, , , 25, 25, 25
36.6440274, -118.9467569, 16.900, 11:20:03.620, 17, 0.10, 0.41, 97, -1.600, 1.300, 14.500, 481, 100, 100, 18, 23060, -19571, 5363, 5529, 9, 14, 1523643603.620, 55, 0, 1024, 1024, 1024, 1024, 0, 6, 3791, 3855, 3830, 3828, 3832, 3827, 0, 1, 10901, -89.900, 0.000, 13.700, 0.000, -0.100, -3.000, 0.0, , , , , , 98, , , 25, 25, 25
36.6440276, -118.9467574, 17.200, 11:20:03.720, 17, 0.10, 0.41, 97, -1.100, 1.300, 14.500, 481, 100, 100, 18, 23060, -19571, 5363, 5529, 9, 14, 1523643603.720, 59, 0, 1024, 1024, 1024, 1024, 0, 6, 3791, 3855, 3830, 3828, 3832, 3827, 0, 1, 11001, -89.900, 0.000, 13.700, 0.000, -0.100, -3.000, 0.0, , , , , , 98, , , 25, 25, 25
36.6440278, -118.9467579, 17.500, 11:20:03.820, 17, 0.10, 0.43, 97, -0.300, 1.400, 14.600, 481, 100, 100, 18, 23060, -19571, 5363, 5529, 9, 14, 1523643603.820, 15, 0, 1024, 1024, 1024, 1024, 0, 6, 3791, 3855, 3830, 3828, 3832, 3827, 0, 1, 11101, -89.900, 0.000, 13.700, 0.000, -0.100, -3.000, 0.0, , , , , , 98, , , 25, 25, 25
36.6440279, -118.9467580, 17.800, 11:20:03.920, 17, 0.10, 0.43, 97, 0.300, 1.800, 14.600, 481, 100, 100, 18, 23060, -19571, 5363, 5529, 9, 14, 1523643603.921, 62, 0, 1024, 1024, 1024, 1024, 0, 6, 3791, 3855, 3830, 3828, 3832, 3827, 0, 1, 11201, -89.900, 0.000, 13.700, 0.000, -0.100, -3.000, 0.0, , , , , , 98, , , 25, 25, 25
36.6440280, -118.9467581, 18.200, 11:20:04.020, 17, 0.00, 0.44, 97, 0.300, 2.100, 14.600, 481, 100, 100, 18, 23060, -19571, 5363, 5529, 9, 14, 1523643604.021, 52, 0, 1024, 1024, 1024, 1024, 0, 6, 3791, 3855, 3830, 3828, 3832, 3827, 0, 1, 11301, -89.900, 0.000, 13.700, 0.000, 0.000, -3.000, 0.0, , , , , , 98, , , 25, 25, 25
36.6440280, -118.9467580, 18.500, 11:20:04.120, 17, 0.00, 0.44, 97, 0.000, 2.200, 14.500, 481, 100, 100, 18, 23060, -19571, 5363, 5529, 9, 14, 1523643604.120, 36, 0, 1024, 1024, 1024, 1024, 0, 6, 3791, 3855, 3830, 3828, 3832, 3827, 0, 1, 11401, -89.900, 0.000, 13.700, 0.000, 0.000, -2.900, 0.0, , , , , , 98, , , 25, 25, 25
36.6440280, -118.9467578, 18.800, 11:20:04.219, 17, 0.00, 0.44, 97, -1.200, 2.000, 14.400, 481, 100, 100, 18, 22944, -20936, 5363, 5529, 9, 14, 1523643604.219, 59, 0, 1024, 1024, 1024, 1024, 0, 6, 3785, 3845, 3824, 3822, 3828, 3815, 0, 1, 11500, -89.900, 0.000, 13.700, 0.000, 0.000, -2.800, 0.0, , , , , , 98, , , 25, 25, 25
36.6440279, -118.9467574, 19.100, 11:20:04.320, 17, 0.10, 0.44, 97, -2.700, 1.900, 14.400, 481, 100, 100, 18, 22944, -20936, 5363, 5529, 9, 14, 1523643604.321, 42, 0, 1024, 1024, 1024, 1024, 0, 6, 3785, 3845, 3824, 3822, 3828, 3815, 0, 1, 11602, -90.000, 0.000, 13.700, 0.000, 0.100, -2.800, 0.0, , , , , , 98, , , 25, 25, 25
36.6440277, -118.9467570, 19.400, 11:20:04.420, 17, 0.14, 0.44, 97, -4.200, 1.600, 14.400, 481, 100, 100, 18, 22944, -20936, 5363, 5529, 9, 14, 1523643604.420, 32, 0, 1024, 1024, 1024, 1024, 0, 6, 3785, 3845, 3824, 3822, 3828, 3815, 0, 1, 11701, -90.000, 0.000, 13.700, -0.100, 0.100, -2.800, 0.0, , , , , , 98, , , 25, 25, 25
36.6440276, -118.9467566, 19.700, 11:20:04.520, 17, 0.14, 0.43, 97, -5.000, 1.100, 14.400, 481, 100, 100, 18, 22944, -20936, 5363, 5529, 9, 14, 1523643604.521, 32, 0, 1024, 1024, 1024, 1024, 0, 6, 3785, 3845, 3824, 3822, 3828, 3815, 0, 1, 11801, -90.000, 0.000, 13.700, -0.100, 0.100, -2.900, 0.0, , , , , , 98, , , 25, 25, 25
36.6440274, -118.9467563, 19.900, 11:20:04.620, 17, 0.14, 0.43, 97, -5.100, 0.700, 14.600, 481, 100, 100, 18, 22944, -20936, 5363, 5529, 9, 14, 1523643604.620, 33, 0, 1024, 1024, 1024, 1024, 0, 6, 3785, 3845, 3824, 3822, 3828, 3815, 0, 1, 11901, -90.000, 0.000, 13.700, -0.100, 0.100, -2.800, 0.0, , , , , , 98, , , 25, 25, 25
36.6440273, -118.9467561, 20.200, 11:20:04.721, 17, 0.10, 0.43, 97, -5.000, 0.400, 14.700, 481, 100, 100, 18, 22944, -20936, 5363, 5529, 9, 14, 1523643604.721, 11, 0, 1024, 1024, 1024, 1024, 0, 6, 3785, 3845, 3824, 3822, 3828, 3815, 0, 1, 12002, -90.000, 0.000, 13.700, -0.100, 0.000, -2.800, 0.0, , , , , , 98, , , 25, 25, 25
36.6440272, -118.9467560, 20.500, 11:20:04.820, 17, 0.00, 0.43, 97, -4.700, 0.000, 14.800, 481, 100, 100, 18, 22944, -20936, 5363, 5529, 9, 14, 1523643604.820, 6, 0, 1024, 1024, 1024, 1024, 0, 6, 3785, 3845, 3824, 3822, 3828, 3815, 0, 1, 12101, -90.000, 0.000, 13.700, 0.000, 0.000, -2.800, 0.0, , , , , , 98, , , 25, 25, 25
36.6440271, -118.9467559, 20.800, 11:20:04.923, 16, 0.00, 0.43, 97, -4.300, 0.000, 14.800, 481, 100, 100, 18, 22944, -20936, 5363, 5529, 9, 14, 1523643604.924, 4, 0, 1024, 1024, 1024, 1024, 0, 6, 3785, 3845, 3824, 3822, 3828, 3815, 0, 1, 12205, -90.000, 0.000, 13.700, 0.000, 0.000, -2.800, 0.0, , , , , , 98, , , 25, 25, 25
36.6440271, -118.9467559, 20.800, 11:20:05.020, 16, 0.00, 0.43, 97, -4.300, 0.000, 14.800, 481, 100, 100, 18, 22944, -20936, 5363, 5529, 9, 14, 1523643605.021, 101, 0, 1024, 1024, 1024, 1024, 0, 6, 3785, 3845, 3824, 3822, 3828, 3815, 0, 1, 12301, -89.900, 0.000, 13.700, 0.000, 0.000, -2.800, 0.0, , , , , , 98, , , 25, 25, 25
36.6440271, -118.9467558, 21.000, 11:20:05.120, 16, 0.00, 0.43, 97, -4.000, 0.200, 14.800, 481, 100, 100, 18, 22944, -20936, 5363, 5529, 9, 14, 1523643605.120, 97, 0, 1024, 1024, 1024, 1024, 0, 6, 3785, 3845, 3824, 3822, 3828, 3815, 0, 1, 12401, -89.900, 0.000, 13.700, 0.000, 0.000, -2.700, 0.0, , , , , , 98, , , 25, 25, 25
36.6440271, -118.9467559, 21.600, 11:20:05.220, 17, 0.00, 0.42, 97, -3.000, 0.600, 14.700, 481, 100, 100, 18, 22944, -20936, 5363, 5529, 9, 14, 1523643605.220, 81, 0, 1024, 1024, 1024, 1024, 0, 6, 3785, 3845, 3824, 3822, 3828, 3815, 0, 1, 12501, -89.900, 0.000, 13.700, 0.000, 0.000, -2.800, 0.0, , , , , , 98, , , 25, 25, 25
36.6440270, -118.9467558, 21.800, 11:20:05.320, 17, 0.00, 0.42, 97, -2.600, 0.900, 14.800, 481, 100, 100, 18, 23006, -19746, 5363, 5529, 9, 14, 1523643605.320, 78, 0, 1024, 1024, 1024, 1024, 0, 6, 3793, 3848, 3833, 3831, 3830, 3824, 0, 1, 12601, -89.900, 0.000, 13.700, 0.000, 0.000, -2.900, 0.0, , , , , , 98, , , 25, 25, 25
36.6440270, -118.9467558, 22.100, 11:20:05.420, 17, 0.00, 0.42, 97, -2.400, 1.000, 14.900, 481, 100, 100, 18, 23006, -19746, 5363, 5529, 9, 14, 1523643605.420, 82, 0, 1024, 1024, 1024, 1024, 0, 6, 3793, 3848, 3833, 3831, 3830, 3824, 0, 1, 12701, -89.900, 0.000, 13.700, 0.000, 0.000, -2.900, 0.0, , , , , , 98, , , 25, 25, 25
36.6440270, -118.9467558, 22.400, 11:20:05.520, 17, 0.00, 0.42, 97, -2.600, 1.100, 14.900, 481, 100, 100, 18, 23006, -19746, 5363, 5529, 9, 14, 1523643605.520, 77, 0, 1024, 1024, 1024, 1024, 0, 6, 3793, 3848, 3833, 3831, 3830, 3824, 0, 1, 12801, -89.900, 0.000, 13.700, 0.000, 0.000, -3.000, 0.0, , , , , , 98, , , 25, 25, 25
36.6440270, -118.9467558, 22.700, 11:20:05.620, 17, 0.00, 0.43, 97, -2.800, 1.100, 14.900, 481, 100, 100, 18, 23006, -19746, 5363, 5529, 9, 14, 1523643605.620, 91, 0, 1024, 1024, 1024, 1024, 0, 6, 3793, 3848, 3833, 3831, 3830, 3824, 0, 1, 12901, -89.900, 0.000, 13.700, 0.000, 0.000, -3.000, 0.0, , , , , , 98, , , 25, 25, 25
36.6440270, -118.9467557, 23.000, 11:20:05.720, 17, 0.00, 0.43, 97, -3.100, 1.000, 14.900, 481, 100, 100, 18, 23006, -19746, 5363, 5529, 9, 14, 1523643605.720, 69, 0, 1024, 1024, 1024, 1024, 0, 6, 3793, 3848, 3833, 3831, 3830, 3824, 0, 1, 13001, -89.900, 0.000, 13.700, 0.000, 0.000, -3.000, 0.0, , , , , , 98, , , 25, 25, 25
36.6440270, -118.9467557, 23.300, 11:20:05.820, 17, 0.00, 0.43, 97, -3.400, 0.900, 14.900, 481, 100, 100, 18, 23006, -19746, 5363, 5529, 9, 14, 1523643605.820, 61, 0, 1024, 1024, 1024, 1024, 0, 6, 3793, 3848, 3833, 3831, 3830, 3824, 0, 1, 13101, -90.000, 0.000, 13.700, 0.000, 0.000, -3.000, 0.0, , , , , , 98, , , 25, 25, 25
36.6440270, -118.9467556, 23.700, 11:20:05.920, 17, 0.00, 0.43, 97, -3.500, 0.800, 14.800, 481, 100, 100, 18, 23006, -19746, 5363, 5529, 9, 14, 1523643605.920, 86, 0, 1024, 1024, 1024, 1024, 0, 6, 3793, 3848, 3833, 3831, 3830, 3824, 0, 1, 13201, -89.900, 0.000, 13.700, 0.000, 0.000, -3.000, 0.0, , , , , , 98, , , 25, 25, 25
36.6440270, -118.9467556, 24.000, 11:20:06.020, 17, 0.00, 0.43, 97, -3.200, 0.800, 14.700, 481, 100, 100, 18, 23006, -19746, 5363, 5529, 9, 14, 1523643606.020, 63, 0, 1024, 1024, 1024, 1024, 0, 6, 3793, 3848, 3833, 3831, 3830, 3824, 0, 1, 13301, -90.000, 0.000, 13.700, 0.000, 0.000, -3.000, 0.0, , , , , , 98, , , 25, 25, 25
36.6440270, -118.9467556, 24.300, 11:20:06.120, 17, 0.00, 0.43, 97, -3.200, 0.700, 14.500, 481, 100, 100, 18, 23006, -19746, 5363, 5529, 9, 14, 1523643606.120, 54, 0, 1024, 1024, 1024, 1024, 0, 6, 3793, 3848, 3833, 3831, 3830, 3824, 0, 1, 13401, -89.900, 0.000, 13.700, 0.000, 0.000, -3.000, 0.0, , , , , , 98, , , 25, 25, 25
36.6440270, -118.9467556, 24.600, 11:20:06.220, 17, 0.00, 0.43, 97, -3.100, 1.000, 14.400, 481, 100, 100, 18, 22771, -21397, 5363, 5529, 9, 14, 1523643606.220, 68, 0, 1024, 1024, 1024, 1024, 0, 6, 3793, 3848, 3833, 3831, 3830, 3824, 0, 1, 13501, -89.900, 0.000, 13.700, 0.000, 0.000, -3.000, 0.0, , , , , , 98, , , 25, 25, 25
36.6440270, -118.9467556, 24.800, 11:20:06.319, 17, 0.00, 0.44, 97, -3.100, 1.400, 14.400, 481, 100, 97, 18, 22771, -21397, 5363, 5529, 9, 14, 1523643606.320, 67, 0, 1024, 1024, 1024, 1024, 0, 6, 3793, 3848, 3833, 3831, 3830, 3824, 0, 1, 13601, -89.900, 0.000, 13.700, 0.000, 0.000, -2.900, 0.0, , , , , , 98, , , 25, 25, 25
36.6440271, -118.9467556, 25.100, 11:20:06.420, 17, 0.00, 0.44, 97, -3.000, 1.500, 14.500, 481, 100, 97, 18, 22771, -21397, 5363, 5529, 9, 14, 1523643606.421, 53, 0, 1024, 1024, 1024, 1024, 0, 6, 3793, 3848, 3833, 3831, 3830, 3824, 0, 1, 13702, -89.900, 0.000, 13.700, 0.000, 0.000, -2.900, 0.0, , , , , , 98, , , 25, 25, 25
36.6440272, -118.9467556, 25.400, 11:20:06.520, 17, 0.00, 0.45, 97, -2.800, 1.600, 14.500, 481, 100, 97, 18, 22771, -21397, 5363, 5529, 9, 14, 1523643606.520, 29, 0, 1024, 1024, 1024, 1024, 0, 6, 3793, 3848, 3833, 3831, 3830, 3824, 0, 1, 13801, -89.900, 0.000, 13.700, 0.000, 0.000, -2.900, 0.0, , , , , , 98, , , 25, 25, 25
36.6440272, -118.9467556, 25.700, 11:20:06.620, 17, 0.00, 0.45, 97, -2.600, 1.800, 14.500, 481, 100, 97, 18, 22771, -21397, 5363, 5529, 9, 14, 1523643606.620, 45, 0, 1024, 1024, 1024, 1024, 0, 6, 3793, 3848, 3833, 3831, 3830, 3824, 0, 1, 13901, -89.900, 0.000, 13.700, 0.000, 0.000, -3.000, 0.0, , , , , , 98, , , 25, 25, 25
36.6440273, -118.9467555, 26.000, 11:20:06.720, 17, 0.00, 0.46, 97, -2.600, 1.900, 14.400, 481, 100, 97, 18, 22771, -21397, 5307, 5529, 9, 14, 1523643606.720, 39, 0, 1024, 1024, 1024, 1024, 0, 6, 3793, 3848, 3833, 3831, 3830, 3824, 0, 1, 14001, -89.900, 0.000, 13.700, 0.000, 0.000, -3.000, 0.0, , , , , , 98, , , 25, 25, 25
36.6440273, -118.9467555, 26.300, 11:20:06.819, 17, 0.00, 0.46, 97, -3.000, 2.000, 14.400, 481, 100, 97, 18, 22771, -21397, 5307, 5529, 9, 14, 1523643606.820, 14, 0, 1024, 1024, 1024, 1024, 0, 6, 3793, 3848, 3833, 3831, 3830, 3824, 0, 1, 14101, -89.900, 0.000, 13.700, 0.000, 0.000, -3.000, 0.0, , , , , , 98, , , 25, 25, 25
36.6440274, -118.9467555, 26.600, 11:20:06.920, 17, 0.00, 0.47, 97, -3.400, 1.900, 14.400, 481, 100, 97, 18, 22771, -21397, 5307, 5529, 9, 14, 1523643606.921, 23, 0, 1024, 1024, 1024, 1024, 0, 6, 3793, 3848, 3833, 3831, 3830, 3824, 0, 1, 14201, -89.900, 0.000, 13.700, 0.000, 0.000, -3.000, 0.0, , , , , , 98, , , 25, 25, 25
36.6440274, -118.9467554, 26.900, 11:20:07.020, 17, 0.00, 0.47, 97, -3.600, 1.800, 14.400, 481, 100, 97, 18, 22771, -21397, 5307, 5529, 9, 14, 1523643607.021, 33, 0, 1024, 1024, 1024, 1024, 0, 6, 3793, 3848, 3833, 3831, 3830, 3824, 0, 1, 14302, -89.900, 0.000, 13.700, 0.000, 0.000, -2.900, 0.0, , , , , , 98, , , 25, 25, 25
36.6440274, -118.9467554, 27.100, 11:20:07.120, 17, 0.00, 0.48, 97, -3.800, 1.900, 14.500, 481, 100, 97, 18, 22771, -21397, 5307, 5529, 9, 14, 1523643607.121, 33, 0, 1024, 1024, 1024, 1024, 0, 6, 3793, 3848, 3833, 3831, 3830, 3824, 0, 1, 14401, -89.900, 0.000, 13.700, 0.000, 0.000, -2.900, 0.0, , , , , , 98, , , 25, 25, 25
36.6440274, -118.9467554, 27.400, 11:20:07.220, 17, 0.00, 0.48, 96, -3.800, 2.000, 14.600, 481, 100, 97, 18, 22876, -19900, 5307, 5529, 9, 14, 1523643607.221, 18, 0, 1024, 1024, 1024, 1024, 0, 6, 3793, 3848, 3833, 3831, 3830, 3824, 0, 1, 14501, -89.900, 0.000, 13.700, 0.000, 0.000, -3.000, 0.0, , , , , , 98, , , 25, 25, 25
36.6440275, -118.9467555, 27.700, 11:20:07.321, 17, 0.00, 0.48, 96, -3.600, 2.100, 14.700, 481, 100, 97, 18, 22876, -19900, 5307, 5529, 9, 14, 1523643607.322, 11, 0, 1024, 1024, 1024, 1024, 0, 6, 3793, 3848, 3833, 3831, 3830, 3824, 0, 1, 14602, -89.900, 0.000, 13.700, 0.000, 0.000, -3.000, 0.0, , , , , , 98, , , 25, 25, 25
36.6440275, -118.9467556, 28.000, 11:20:07.423, 17, 0.00, 0.48, 96, -3.300, 2.100, 14.700, 481, 100, 97, 18, 22876, -19900, 5307, 5529, 9, 14, 1523643607.424, 5, 0, 1024, 1024, 1024, 1024, 0, 6, 3793, 3848, 3833, 3831, 3830, 3824, 0, 1, 14705, -89.900, 0.000, 13.700, 0.000, 0.000, -3.000, 0.0, , , , , , 98, , , 25, 25, 25
36.6440276, -118.9467557, 28.300, 11:20:07.522, 17, 0.00, 0.48, 96, -3.200, 2.200, 14.600, 481, 100, 97, 18, 22876, -19900, 5307, 5529, 9, 14, 1523643607.522, 4, 0, 1024, 1024, 1024, 1024, 0, 6, 3793, 3848, 3833, 3831, 3830, 3824, 0, 1, 14803, -89.900, 0.000, 13.700, 0.000, 0.000, -3.000, 0.0, , , , , , 98, , , 25, 25, 25
36.6440277, -118.9467558, 28.600, 11:20:07.624, 17, 0.00, 0.48, 96, -3.100, 2.000, 14.500, 481, 100, 97, 18, 22876, -19900, 5307, 5529, 9, 14, 1523643607.624, 5, 0, 1024, 1024, 1024, 1024, 0, 6, 3793, 3848, 3833, 3831, 3830, 3824, 0, 1, 14905, -89.900, 0.000, 13.700, 0.000, 0.000, -3.000, 0.0, , , , , , 98, , , 25, 25, 25
36.6440278, -118.9467561, 29.200, 11:20:07.744, 17, 0.10, 0.49, 96, -2.300, 2.100, 14.400, 481, 100, 97, 18, 22876, -19900, 5307, 5529, 9, 14, 1523643607.744, 4, 0, 1024, 1024, 1024, 1024, 0, 6, 3793, 3848, 3833, 3831, 3830, 3824, 0, 1, 15025, -89.900, 0.000, 13.700, 0.000, -0.100, -3.100, 0.0, , , , , , 98, , , 25, 25, 25
36.6440279, -118.9467562, 29.500, 11:20:07.821, 17, 0.10, 0.49, 96, -1.800, 2.400, 14.600, 481, 100, 98, 18, 22876, -19900, 5307, 5529, 9, 14, 1523643607.821, 7, 0, 1024, 1024, 1024, 1024, 0, 6, 3776, 3834, 3822, 3814, 3813, 3811, 0, 1, 15102, -89.900, 0.000, 13.700, 0.000, -0.100, -3.100, 0.0, , , , , , 98, , , 25, 25, 25
36.6440279, -118.9467562, 29.500, 11:20:07.920, 17, 0.10, 0.49, 96, -1.800, 2.400, 14.600, 481, 100, 98, 18, 22876, -19900, 5307, 5529, 9, 14, 1523643607.920, 105, 0, 1024, 1024, 1024, 1024, 0, 6, 3776, 3834, 3822, 3814, 3813, 3811, 0, 1, 15201, -89.900, 0.000, 13.700, 0.000, -0.100, -3.100, 0.0, , , , , , 98, , , 25, 25, 25
36.6440280, -118.9467564, 29.800, 11:20:08.020, 17, 0.10, 0.49, 96, -1.500, 2.500, 14.700, 481, 100, 98, 18, 22876, -19900, 5307, 5529, 9, 14, 1523643608.020, 63, 0, 1024, 1024, 1024, 1024, 0, 6, 3776, 3834, 3822, 3814, 3813, 3811, 0, 1, 15301, -89.900, 0.000, 13.700, 0.000, -0.100, -3.100, 0.0, , , , , , 98, , , 25, 25, 25
36.6440281, -118.9467565, 30.100, 11:20:08.120, 17, 0.10, 0.49, 96, -1.600, 2.500, 14.800, 481, 100, 98, 18, 22876, -19900, 5307, 5529, 9, 14, 1523643608.121, 78, 0, 1024, 1024, 1024, 1024, 0, 6, 3776, 3834, 3822, 3814, 3813, 3811, 0, 1, 15402, -89.900, 0.000, 13.700, 0.000, -0.100, -3.100, 0.0, , , , , , 98, , , 25, 25, 25
36.6440282, -118.9467567, 30.500, 11:20:08.220, 17, 0.10, 0.50, 96, -1.700, 2.600, 14.800, 481, 100, 98, 18, 22876, -19900, 5307, 5529, 9, 14, 1523643608.220, 79, 0, 1024, 1024, 1024, 1024, 0, 6, 3776, 3834, 3822, 3814, 3813, 3811, 0, 1, 15501, -89.900, 0.000, 13.700, 0.000, -0.100, -3.100, 0.0, , , , , , 98, , , 25, 25, 25
36.6440283, -118.9467568, 30.800, 11:20:08.320, 17, 0.10, 0.50, 96, -1.500, 2.600, 14.800, 481, 100, 100, 18, 22876, -19900, 5307, 5529, 9, 14, 1523643608.321, 79, 0, 1024, 1024, 1024, 1024, 0, 6, 3776, 3834, 3822, 3814, 3813, 3811, 0, 1, 15601, -89.900, 0.000, 13.700, 0.000, -0.100, -3.100, 0.0, , , , , , 98, , , 25, 25, 25
36.6440283, -118.9467569, 31.100, 11:20:08.420, 17, 0.00, 0.50, 96, -1.100, 2.600, 14.700, 481, 100, 100, 18, 22876, -19900, 5307, 5529, 9, 14, 1523643608.420, 66, 0, 1024, 1024, 1024, 1024, 0, 6, 3776, 3834, 3822, 3814, 3813, 3811, 0, 1, 15701, -89.900, 0.000, 13.700, 0.000, 0.000, -3.000, 0.0, , , , , , 98, , , 25, 25, 25
36.6440284, -118.9467570, 31.400, 11:20:08.520, 17, 0.00, 0.51, 96, -1.500, 2.500, 14.700, 481, 100, 100, 18, 22876, -19900, 5307, 5529, 9, 14, 1523643608.521, 56, 0, 1024, 1024, 1024, 1024, 0, 6, 3776, 3834, 3822, 3814, 3813, 3811, 0, 1, 15801, -89.900, 0.000, 13.700, 0.000, 0.000, -3.100, 0.0, , , , , , 98, , , 25, 25, 25
36.6440284, -118.9467571, 31.700, 11:20:08.620, 17, 0.00, 0.51, 96, -1.900, 2.500, 14.600, 481, 100, 100, 18, 22876, -19900, 5307, 5529, 9, 14, 1523643608.620, 64, 0, 1024, 1024, 1024, 1024, 0, 6, 3776, 3834, 3822, 3814, 3813, 3811, 0, 1, 15901, -89.900, 0.000, 13.700, 0.000, 0.000, -3.100, 0.0, , , , , , 98, , , 25, 25, 25
36.6440285, -118.9467571, 32.100, 11:20:08.719, 17, 0.00, 0.51, 96, -2.000, 2.500, 14.600, 481, 100, 100, 18, 22807, -20494, 5307, 5529, 9, 14, 1523643608.719, 40, 0, 1024, 1024, 1024, 1024, 0, 6, 3776, 3834, 3822, 3814, 3813, 3811, 0, 1, 16000, -89.900, 0.000, 13.700, 0.000, 0.000, -3.100, 0.0, , , , , , 98, , , 25, 25, 25
36.6440285, -118.9467572, 32.400, 11:20:08.820, 17, 0.00, 0.51, 96, -1.800, 2.500, 14.700, 481, 100, 100, 18, 22807, -20494, 5307, 5529, 9, 14, 1523643608.820, 48, 0, 1024, 1024, 1024, 1024, 0, 6, 3769, 3826, 3812, 3807, 3806, 3791, 0, 1, 16101, -89.900, 0.000, 13.700, 0.000, 0.000, -3.100, 0.0, , , , , , 98, , , 25, 25, 25
36.6440285, -118.9467573, 32.700, 11:20:08.920, 17, 0.00, 0.51, 96, -1.800, 2.400, 14.600, 481, 100, 100, 18, 22807, -20494, 5307, 5529, 9, 14, 1523643608.921, 37, 0, 1024, 1024, 1024, 1024, 0, 6, 3769, 3826, 3812, 3807, 3806, 3791, 0, 1, 16201, -89.900, 0.000, 13.700, 0.000, 0.000, -3.100, 0.0, , , , , , 98, , , 25, 25, 25
36.6440286, -118.9467573, 33.000, 11:20:09.020, 17, 0.00, 0.52, 96, -2.000, 2.400, 14.600, 481, 100, 100, 18, 22807, -20494, 5307, 5529, 9, 14, 1523643609.021, 31, 0, 1024, 1024, 1024, 1024, 0, 6, 3769, 3826, 3812, 3807, 3806, 3791, 0, 1, 16301, -89.900, 0.000, 13.700, 0.000, 0.000, -3.100, 0.0, , , , , , 98, , , 25, 25, 25
36.6440286, -118.9467574, 33.300, 11:20:09.120, 17, 0.00, 0.52, 96, -2.000, 2.300, 14.500, 481, 100, 100, 18, 22807, -20494, 5307, 5529, 9, 14, 1523643609.121, 35, 0, 1024, 1024, 1024, 1024, 0, 6, 3769, 3826, 3812, 3807, 3806, 3791, 0, 1, 16401, -89.900, 0.000, 13.700, 0.000, 0.000, -3.000, 0.0, , , , , , 98, , , 25, 25, 25
36.6440286, -118.9467575, 33.600, 11:20:09.219, 17, 0.00, 0.52, 96, -2.000, 2.100, 14.500, 481, 100, 100, 18, 22807, -20494, 5307, 5529, 9, 14, 1523643609.220, 34, 0, 1024, 1024, 1024, 1024, 0, 6, 3769, 3826, 3812, 3807, 3806, 3791, 0, 1, 16501, -89.900, 0.000, 13.700, 0.000, 0.000, -3.000, 0.0, , , , , , 98, , , 25, 25, 25
36.6440286, -118.9467575, 33.900, 11:20:09.320, 17, 0.00, 0.52, 96, -2.100, 2.200, 14.500, 481, 100, 99, 18, 22807, -20494, 5307, 5529, 9, 14, 1523643609.321, 40, 0, 1024, 1024, 1024, 1024, 0, 6, 3769, 3826, 3812, 3807, 3806, 3791, 0, 1, 16602, -89.900, 0.000, 13.700, 0.000, 0.000, -3.000, 0.0, , , , , , 98, , , 25, 25, 25
36.6440286, -118.9467576, 34.300, 11:20:09.420, 17, 0.00, 0.51, 96, -2.000, 2.200, 14.600, 481, 100, 99, 18, 22807, -20494, 5307, 5529, 9, 14, 1523643609.421, 42, 0, 1024, 1024, 1024, 1024, 0, 6, 3769, 3826, 3812, 3807, 3806, 3791, 0, 1, 16701, -89.900, 0.000, 13.700, 0.000, 0.000, -3.000, 0.0, , , , , , 98, , , 25, 25, 25
36.6440286, -118.9467576, 34.600, 11:20:09.520, 17, 0.00, 0.51, 96, -2.000, 2.100, 14.700, 481, 100, 99, 18, 22807, -20494, 5307, 5529, 9, 14, 1523643609.521, 46, 0, 1024, 1024, 1024, 1024, 0, 6, 3769, 3826, 3812, 3807, 3806, 3791, 0, 1, 16802, -89.900, 0.000, 13.700, 0.000, 0.000, -3.000, 0.0, , , , , , 98, , , 25, 25, 25
36.6440286, -118.9467576, 34.900, 11:20:09.620, 17, 0.00, 0.51, 96, -1.900, 2.100, 14.800, 481, 100, 99, 18, 22807, -20494, 5307, 5529, 9, 14, 1523643609.621, 36, 0, 1024, 1024, 1024, 1024, 0, 6, 3769, 3826, 3812, 3807, 3806, 3791, 0, 1, 16902, -89.900, 0.000, 13.700, 0.000, 0.000, -3.000, 0.0, , , , , , 98, , , 25, 25, 25
36.6440286, -118.9467577, 35.200, 11:20:09.720, 17, 0.00, 0.51, 96, -1.800, 2.300, 14.900, 481, 100, 99, 18, 22833, -19849, 5307, 5529, 9, 14, 1523643609.721, 36, 0, 1024, 1024, 1024, 1024, 0, 6, 3771, 3832, 3811, 3813, 3824, 3797, 0, 1, 17002, -89.900, 0.000, 13.700, 0.000, 0.000, -3.000, 0.0, , , , , , 98, , , 25, 25, 25
36.6440286, -118.9467577, 35.500, 11:20:09.838, 17, 0.00, 0.51, 96, -2.000, 2.400, 14.900, 481, 100, 98, 18, 22833, -19849, 5307, 5529, 9, 14, 1523643609.838, 11, 0, 1024, 1024, 1024, 1024, 0, 6, 3771, 3832, 3811, 3813, 3824, 3797, 0, 1, 17119, -89.900, 0.000, 13.700, 0.000, 0.000, -3.000, 0.0, , , , , , 98, , , 25, 25, 25
36.6440286, -118.9467577, 35.800, 11:20:09.920, 17, 0.00, 0.51, 96, -2.000, 2.500, 15.000, 481, 100, 98, 18, 22833, -19849, 5307, 5529, 9, 14, 1523643609.921, 28, 0, 1024, 1024, 1024, 1024, 0, 6, 3771, 3832, 3811, 3813, 3824, 3797, 0, 1, 17202, -89.900, 0.000, 13.700, 0.000, 0.000, -2.900, 0.0, , , , , , 98, , , 25, 25, 25
36.6440286, -118.9467577, 35.800, 11:20:10.020, 17, 0.00, 0.51, 96, -2.000, 2.500, 15.000, 481, 100, 98, 18, 22833, -19849, 5307, 5529, 9, 14, 1523643610.020, 127, 0, 1024, 1024, 1024, 1024, 0, 6, 3771, 3832, 3811, 3813, 3824, 3797, 0, 1, 17301, -89.900, 0.000, 13.700, 0.000, 0.000, -2.900, 0.0, , , , , , 98, , , 25, 25, 25
36.6440286, -118.9467576, 36.100, 11:20:10.120, 17, 0.00, 0.51, 96, -2.400, 2.400, 14.900, 481, 100, 98, 18, 22833, -19849, 5307, 5529, 9, 14, 1523643610.120, 91, 0, 1024, 1024, 1024, 1024, 0, 6, 3771, 3832, 3811, 3813, 3824, 3797, 0, 1, 17401, -89.900, 0.000, 13.700, 0.000, 0.000, -3.000, 0.0, , , , , , 98, , , 25, 25, 25
36.6440284, -118.9467575, 37.000, 11:20:10.223, 17, 0.00, 0.50, 96, -2.600, 2.000, 14.600, 481, 100, 97, 18, 22833, -19849, 5307, 5529, 9, 14, 1523643610.223, 10, 0, 1024, 1024, 1024, 1024, 0, 6, 3771, 3832, 3811, 3813, 3824, 3797, 0, 1, 17504, -89.900, 0.000, 13.700, 0.000, 0.000, -2.900, 0.0, , , , , , 98, , , 25, 25, 25
36.6440284, -118.9467575, 37.000, 11:20:10.320, 17, 0.00, 0.50, 96, -2.600, 2.000, 14.600, 481, 100, 97, 18, 22833, -19849, 5307, 5529, 9, 14, 1523643610.321, 108, 0, 1024, 1024, 1024, 1024, 0, 6, 3771, 3832, 3811, 3813, 3824, 3797, 0, 1, 17602, -89.900, 0.000, 13.700, 0.000, 0.000, -2.900, 0.0, , , , , , 98, , , 25, 25, 25
36.6440284, -118.9467575, 37.300, 11:20:10.420, 17, 0.00, 0.49, 96, -2.600, 1.900, 14.500, 481, 100, 97, 18, 22833, -19849, 5307, 5529, 9, 14, 1523643610.421, 91, 0, 1024, 1024, 1024, 1024, 0, 6, 3771, 3832, 3811, 3813, 3824, 3797, 0, 1, 17701, -89.900, 0.000, 13.700, 0.000, 0.000, -2.800, 0.0, , , , , , 98, , , 25, 25, 25
36.6440283, -118.9467575, 37.600, 11:20:10.520, 17, 0.00, 0.49, 96, -2.800, 1.700, 14.500, 481, 100, 97, 18, 22833, -19849, 5307, 5529, 9, 14, 1523643610.521, 92, 0, 1024, 1024, 1024, 1024, 0, 6, 3771, 3832, 3811, 3813, 3824, 3797, 0, 1, 17802, -89.900, 0.000, 13.700, 0.000, 0.000, -2.800, 0.0, , , , , , 98, , , 25, 25, 25
36.6440283, -118.9467574, 37.900, 11:20:10.620, 17, 0.00, 0.49, 96, -2.800, 1.600, 14.600, 481, 100, 97, 18, 22833, -19849, 5307, 5529, 9, 14, 1523643610.621, 67, 0, 1024, 1024, 1024, 1024, 0, 6, 3771, 3832, 3811, 3813, 3824, 3797, 0, 1, 17901, -89.900, 0.000, 13.700, 0.000, 0.000, -2.800, 0.0, , , , , , 98, , , 25, 25, 25
36.6440283, -118.9467574, 38.200, 11:20:10.720, 17, 0.00, 0.48, 96, -2.700, 1.800, 14.600, 481, 100, 97, 18, 22960, -18599, 5307, 5529, 9, 14, 1523643610.720, 68, 0, 1024, 1024, 1024, 1024, 0, 6, 3790, 3861, 3828, 3828, 3838, 3818, 0, 1, 18001, -89.900, 0.000, 13.700, 0.000, 0.000, -2.900, 0.0, , , , , , 98, , , 25, 25, 25
36.6440282, -118.9467574, 38.400, 11:20:10.820, 17, 0.00, 0.48, 96, -2.600, 2.100, 14.700, 481, 100, 97, 18, 22960, -18599, 5307, 5529, 9, 14, 1523643610.821, 12, 0, 1024, 1024, 1024, 1024, 0, 6, 3790, 3861, 3828, 3828, 3838, 3818, 0, 1, 18102, -89.900, 0.000, 13.700, 0.000, 0.000, -2.900, 0.0, , , , , , 98, , , 25, 25, 25
36.6440282, -118.9467574, 38.700, 11:20:10.920, 17, 0.00, 0.48, 96, -2.500, 2.400, 14.700, 481, 100, 97, 18, 22960, -18599, 5307, 5529, 9, 14, 1523643610.921, 36, 0, 1024, 1024, 1024, 1024, 0, 6, 3790, 3861, 3828, 3828, 3838, 3818, 0, 1, 18201, -89.900, 0.000, 13.700, 0.000, 0.000, -2.900, 0.0, , , , , , 98, , , 25, 25, 25
36.6440282, -118.9467574, 39.000, 11:20:11.019, 17, 0.00, 0.48, 96, -2.400, 2.400, 14.700, 481, 100, 97, 18, 22960, -18599, 5307, 5529, 9, 14, 1523643611.020, 51, 0, 1024, 1024, 1024, 1024, 0, 6, 3790, 3861, 3828, 3828, 3838, 3818, 0, 1, 18301, -89.900, 0.000, 13.700, 0.000, 0.000, -2.900, 0.0, , , , , , 98, , , 25, 25, 25
36.6440282, -118.9467574, 39.300, 11:20:11.120, 17, 0.00, 0.48, 96, -2.300, 2.400, 14.600, 481, 100, 97, 18, 22960, -18599, 5307, 5529, 9, 14, 1523643611.120, 51, 0, 1024, 1024, 1024, 1024, 0, 6, 3790, 3861, 3828, 3828, 3838, 3818, 0, 1, 18401, -89.900, 0.000, 13.700, 0.000, 0.000, -2.900, 0.0, , , , , , 98, , , 25, 25, 25
36.6440282, -118.9467574, 39.600, 11:20:11.220, 17, 0.00, 0.48, 96, -2.200, 2.400, 14.500, 481, 100, 97, 18, 22960, -18599, 5307, 5529, 9, 14, 1523643611.220, 52, 0, 1024, 1024, 1024, 1024, 0, 6, 3790, 3861, 3828, 3828, 3838, 3818, 0, 1, 18501, -89.900, 0.000, 13.700, 0.000, 0.000, -2.900, 0.0, , , , , , 98, , , 25, 25, 25
36.6440282, -118.9467573, 39.900, 11:20:11.320, 17, 0.00, 0.48, 96, -2.100, 2.500, 14.400, 481, 100, 95, 18, 22960, -18599, 5307, 5529, 9, 14, 1523643611.320, 44, 0, 1024, 1024, 1024, 1024, 0, 6, 3790, 3861, 3828, 3828, 3838, 3818, 0, 1, 18601, -89.900, 0.000, 13.700, 0.000, 0.000, -2.900, 0.0, , , , , , 98, , , 25, 25, 25
36.6440283, -118.9467573, 40.200, 11:20:11.420, 17, 0.00, 0.49, 96, -2.100, 2.700, 14.400, 481, 100, 95, 18, 22960, -18599, 5307, 5529, 9, 14, 1523643611.420, 34, 0, 1024, 1024, 1024, 1024, 0, 6, 3790, 3861, 3828, 3828, 3838, 3818, 0, 1, 18701, -89.900, 0.000, 13.700, 0.000, 0.000, -3.000, 0.0, , , , , , 98, , , 25, 25, 25
36.6440283, -118.9467572, 40.500, 11:20:11.520, 17, 0.00, 0.49, 96, -2.200, 2.900, 14.400, 481, 100, 95, 18, 22960, -18599, 5307, 5529, 9, 14, 1523643611.521, 36, 0, 1024, 1024, 1024, 1024, 0, 6, 3790, 3861, 3828, 3828, 3838, 3818, 0, 1, 18801, -89.900, 0.000, 13.700, 0.000, 0.000, -3.000, 0.0, , , , , , 98, , , 25, 25, 25
36.6440283, -118.9467571, 40.800, 11:20:11.620, 17, 0.00, 0.49, 96, -2.800, 3.200, 14.500, 481, 100, 95, 18, 22960, -18599, 5307, 5529, 9, 14, 1523643611.620, 35, 0, 1024, 1024, 1024, 1024, 0, 6, 3790, 3861, 3828, 3828, 3838, 3818, 0, 1, 18901, -89.900, 0.000, 13.800, 0.000, 0.000, -3.000, 0.0, , , , , , 98, , , 25, 25, 25
36.6440283, -118.9467570, 41.100, 11:20:11.720, 17, 0.00, 0.50, 96, -3.200, 3.500, 14.500, 481, 100, 95, 18, 22909, -18599, 5307, 5529, 9, 14, 1523643611.721, 27, 0, 1024, 1024, 1024, 1024, 0, 6, 3790, 3861, 3828, 3828, 3838, 3818, 0, 1, 19002, -89.900, 0.000, 13.800, 0.000, 0.000, -2.900, 0.0, , , , , , 98, , , 25, 25, 25
36.6440283, -118.9467570, 41.100, 11:20:11.820, 17, 0.00, 0.50, 96, -3.200, 3.500, 14.500, 481, 100, 95, 18, 22909, -18599, 5307, 5529, 9, 14, 1523643611.821, 127, 0, 1024, 1024, 1024, 1024, 0, 6, 3784, 3845, 3819, 3815, 3812, 3812, 0, 1, 19101, -89.900, 0.000, 13.800, 0.000, 0.000, -2.900, 0.0, , , , , , 98, , , 25, 25, 25
36.6440283, -118.9467568, 41.700, 11:20:11.922, 17, 0.00, 0.51, 96, -2.200, 3.500, 14.900, 481, 100, 95, 18, 22909, -18599, 5307, 5529, 9, 14, 1523643611.922, 12, 0, 1024, 1024, 1024, 1024, 0, 6, 3784, 3845, 3819, 3815, 3812, 3812, 0, 1, 19203, -89.900, 0.000, 13.800, 0.000, 0.000, -3.000, 0.0, , , , , , 98, , , 25, 25, 25
36.6440284, -118.9467567, 42.000, 11:20:12.020, 17, 0.00, 0.51, 96, -2.300, 3.600, 15.100, 481, 100, 95, 18, 22909, -18599, 5307, 5529, 9, 14, 1523643612.021, 34, 0, 1024, 1024, 1024, 1024, 0, 6, 3784, 3845, 3819, 3815, 3812, 3812, 0, 1, 19302, -89.900, 0.000, 13.800, 0.000, 0.000, -2.900, 0.0, , , , , , 98, , , 25, 25, 25
36.6440284, -118.9467566, 42.300, 11:20:12.120, 17, 0.00, 0.52, 96, -2.900, 3.300, 15.100, 481, 100, 95, 18, 22909, -18599, 5307, 5529, 9, 14, 1523643612.121, 23, 0, 1024, 1024, 1024, 1024, 0, 6, 3784, 3845, 3819, 3815, 3812, 3812, 0, 1, 19402, -89.900, 0.000, 13.800, 0.000, 0.000, -2.900, 0.0, , , , , , 98, , , 25, 25, 25
36.6440283, -118.9467564, 42.900, 11:20:12.220, 17, 0.00, 0.52, 96, -3.900, 3.500, 14.600, 481, 100, 95, 18, 22909, -18599, 5307, 5529, 9, 14, 1523643612.221, 19, 0, 1024, 1024, 1024, 1024, 0, 6, 3784, 3845, 3819, 3815, 3812, 3812, 0, 1, 19502, -89.900, 0.000, 13.800, 0.000, 0.000, -2.900, 0.0, , , , , , 98, , , 25, 25, 25
36.6440283, -118.9467564, 42.900, 11:20:12.320, 17, 0.00, 0.52, 96, -3.900, 3.500, 14.600, 481, 100, 88, 18, 22909, -18599, 5307, 5529, 9, 14, 1523643612.321, 119, 0, 1024, 1024, 1024, 1024, 0, 6, 3784, 3845, 3819, 3815, 3812, 3812, 0, 1, 19601, -89.900, 0.000, 13.800, 0.000, 0.000, -2.900, 0.0, , , , , , 98, , , 25, 25, 25
36.6440283, -118.9467562, 43.500, 11:20:12.420, 17, 0.00, 0.53, 96, -3.400, 3.700, 14.300, 481, 100, 88, 18, 22909, -18599, 5307, 5529, 9, 14, 1523643612.420, 9, 0, 1024, 1024, 1024, 1024, 0, 6, 3784, 3845, 3819, 3815, 3812, 3812, 0, 1, 19701, -89.900, 0.000, 13.800, 0.000, 0.000, -2.900, 0.0, , , , , , 98, , , 25, 25, 25
36.6440283, -118.9467562, 43.500, 11:20:12.520, 17, 0.00, 0.53, 96, -3.400, 3.700, 14.300, 481, 100, 88, 18, 22909, -18599, 5307, 5529, 9, 14, 1523643612.521, 109, 0, 1024, 1024, 1024, 1024, 0, 6, 3784, 3845, 3819, 3815, 3812, 3812, 0, 1, 19802, -89.900, 0.000, 13.800, 0.000, 0.000, -2.900, 0.0, , , , , , 98, , , 25, 25, 25
36.6440283, -118.9467562, 43.500, 11:20:12.620, 17, 0.00, 0.53, 96, -3.400, 3.700, 14.300, 481, 100, 88, 18, 22909, -18599, 5307, 5529, 9, 14, 1523643612.621, 209, 0, 1024, 1024, 1024, 1024, 0, 6, 3784, 3845, 3819, 3815, 3812, 3812, 0, 1, 19901, -89.900, 0.000, 13.800, 0.000, 0.000, -2.900, 0.0, , , , , , 98, , , 25, 25, 25
36.6440283, -118.9467561, 44.100, 11:20:12.720, 17, 0.00, 0.53, 96, -3.100, 3.600, 14.300, 481, 100, 88, 18, 22909, -18599, 5307, 5529, 9, 14, 1523643612.720, 88, 0, 1024, 1024, 1024, 1024, 0, 6, 3784, 3845, 3819, 3815, 3812, 3812, 0, 1, 20001, -89.900, 0.000, 13.800, 0.000, 0.000, -3.000, 0.0, , , , , , 98, , , 25, 25, 25
36.6440283, -118.9467560, 44.400, 11:20:12.820, 17, 0.00, 0.53, 96, -3.400, 3.500, 14.300, 481, 100, 88, 18, 22809, -19125, 5307, 5529, 9, 14, 1523643612.820, 92, 0, 1024, 1024, 1024, 1024, 0, 6, 3784, 3845, 3819, 3815, 3812, 3812, 0, 1, 20101, -89.900, 0.000, 13.800, 0.000, 0.000, -3.000, 0.0, , , , , , 98, , , 25, 25, 25
36.6440283, -118.9467560, 44.700, 11:20:12.920, 17, 0.00, 0.53, 96, -3.400, 3.100, 14.400, 481, 100, 89, 18, 22809, -19125, 5307, 5529, 9, 14, 1523643612.920, 80, 0, 1024, 1024, 1024, 1024, 0, 6, 3784, 3845, 3819, 3815, 3812, 3812, 0, 1, 20201, -89.900, 0.000, 13.800, 0.000, 0.000, -3.000, 0.0, , , , , , 98, , , 25, 25, 25
36.6440282, -118.9467560, 45.000, 11:20:13.020, 17, 0.10, 0.53, 96, -3.400, 2.600, 14.400, 481, 100, 89, 18, 22809, -19125, 5307, 5529, 9, 14, 1523643613.020, 61, 0, 1024, 1024, 1024, 1024, 0, 6, 3784, 3845, 3819, 3815, 3812, 3812, 0, 1, 20301, -90.000, 0.000, 13.800, -0.100, 0.000, -3.100, 0.0, , , , , , 98, , , 25, 25, 25
36.6440282, -118.9467559, 45.300, 11:20:13.120, 17, 0.10, 0.52, 96, -3.600, 2.200, 14.500, 481, 100, 89, 18, 22809, -19125, 5307, 5529, 9, 14, 1523643613.120, 81, 0, 1024, 1024, 1024, 1024, 0, 6, 3784, 3845, 3819, 3815, 3812, 3812, 0, 1, 20401, -90.000, 0.000, 13.800, -0.100, 0.000, -3.000, 0.0, , , , , , 98, , , 25, 25, 25
36.6440281, -118.9467559, 45.600, 11:20:13.220, 17, 0.10, 0.52, 96, -3.800, 2.000, 14.500, 481, 100, 89, 18, 22809, -19125, 5307, 5529, 9, 14, 1523643613.220, 81, 0, 1024, 1024, 1024, 1024, 0, 6, 3773, 3837, 3810, 3808, 3812, 3801, 0, 1, 20501, -90.000, 0.000, 13.800, -0.100, 0.000, -2.900, 0.0, , , , , , 98, , , 25, 25, 25
36.6440280, -118.9467559, 45.900, 11:20:13.320, 17, 0.00, 0.51, 96, -3.900, 2.000, 14.500, 481, 100, 91, 18, 22809, -19125, 5307, 5529, 9, 14, 1523643613.322, 82, 0, 1024, 1024, 1024, 1024, 0, 6, 3773, 3837, 3810, 3808, 3812, 3801, 0, 1, 20603, -90.000, 0.000, 13.800, 0.000, 0.000, -2.800, 0.0, , , , , , 98, , , 25, 25, 25
36.6440280, -118.9467559, 46.200, 11:20:13.420, 17, 0.00, 0.51, 96, -3.400, 1.900, 14.500, 481, 100, 91, 18, 22809, -19125, 5307, 5529, 9, 14, 1523643613.421, 82, 0, 1024, 1024, 1024, 1024, 0, 6, 3773, 3837, 3810, 3808, 3812, 3801, 0, 1, 20701, -90.000, 0.000, 13.800, 0.000, 0.000, -2.900, 0.0, , , , , , 98, , , 25, 25, 25
36.6440279, -118.9467559, 46.500, 11:20:13.520, 17, 0.00, 0.50, 96, -3.100, 1.800, 14.400, 481, 100, 91, 18, 22809, -19125, 5307, 5529, 9, 14, 1523643613.521, 62, 0, 1024, 1024, 1024, 1024, 0, 6, 3773, 3837, 3810, 3808, 3812, 3801, 0, 1, 20801, -90.000, 0.000, 13.800, 0.000, 0.000, -2.900, 0.0, , , , , , 98, , , 25, 25, 25
36.6440279, -118.9467559, 46.800, 11:20:13.620, 17, 0.00, 0.50, 96, -2.900, 1.600, 14.400, 481, 100, 91, 18, 22809, -19125, 5307, 5529, 9, 14, 1523643613.620, 38, 0, 1024, 1024, 1024, 1024, 0, 6, 3773, 3837, 3810, 3808, 3812, 3801, 0, 1, 20901, -90.000, 0.000, 13.800, 0.000, 0.000, -2.900, 0.0, , , , , , 98, , , 25, 25, 25
