Latitude, Longitude, Altitude (m), Time, Sats, Speed (m/s), Range (m), Battery (%), Roll (deg), Pitch (deg), Yaw (deg), Images, HD Signal (%), RC Signal (%), Battery Temp (C), Battery Voltage (mV), Battery Current (mA), Battery Energy (mAh), Battery Capacity (mAh), Battery Discharges, flyState, timestamp (Unix), LastUpdate (ms), radioChannel, Rc_elevator, Rc_aileron, Rc_throttle, Rc_rudder, Rc_gyro, Dronetype, Battery_Cell1 (mV), Battery_Cell2 (mV), Battery_Cell3 (mV), Battery_Cell4 (mV), Battery_Cell5 (mV), Battery_Cell6 (mV), Video, isFlying, elapsedTime (ms), gimbalPitch (deg), gimbalRoll (deg), gimbalYaw (deg), VelocityX (m/s), VelocityY (m/s), VelocityZ (m/s), GroundSmear (cm), App Version, Aircraft Name, Aircraft Firmware, Aircraft Serial Number, Battery Serial Number, Battery Lifetime (%), App_Tip, App_Warning, CurrentFlightStartingIndex, CurrentFlightLastVisitedWaypoint, PreviousFlightEndingWaypointIndex
36.6869866, -118.9584707, 0.000, 14:51:39.047, 18, 0.20, 0.04, 94, -1.100, -1.900, 137.300, 532, 100, 100, 18, 25129, -3820, 5286, 5624, 4, 11, 1523656299.049, 11, 0, 1024, 1024, 1025, 1024, 0, 6, 4166, 4201, 4131, 4102, 4179, 4214, 0, 1, 3092, -89.900, 0.000, 136.600, 0.000, 0.200, -0.300, 0.0, MapPilot_2.7.4_02272018, Dendroctonus I, 1.3.1.00, 041DDC1887, 1058163200468, 99, DJI_0530.jpg, Starting Mission from Lat/Long: 36.68699/-118.95847 Camera: Zenmuse X3 - Overlap: 90/90 - Active Connection: Yes, 29, 29, 29
36.6869866, -118.9584707, 0.000, 14:51:39.058, 18, 0.20, 0.04, 94, -1.100, -1.900, 137.300, 532, 100, 100, 18, 25129, -3820, 5286, 5624, 4, 11, 1523656299.060, 22, 0, 1024, 1024, 1025, 1024, 0, 6, 4166, 4201, 4131, 4102, 4179, 4214, 0, 1, 3103, -89.900, 0.000, 136.600, 0.000, 0.200, -0.300, 0.0, , , , , , 99, , , 29, 29, 29
36.6869866, -118.9584707, 0.000, 14:51:39.157, 18, 0.20, 0.04, 94, -1.100, -1.900, 137.300, 532, 100, 100, 18, 25129, -3820, 5286, 5624, 4, 11, 1523656299.159, 122, 0, 1024, 1024, 1025, 1024, 0, 6, 4166, 4201, 4131, 4102, 4179, 4214, 0, 1, 3203, -89.900, 0.000, 136.600, 0.000, 0.200, -0.300, 0.0, , , , , , 99, , , 29, 29, 29
36.6869864, -118.9584700, 0.100, 14:51:39.257, 16, 0.30, 0.11, 94, 0.000, 0.800, 137.500, 532, 100, 100, 18, 25129, -3820, 5286, 5624, 4, 11, 1523656299.259, 27, 0, 1024, 1024, 1025, 1024, 0, 6, 4166, 4201, 4131, 4102, 4179, 4214, 0, 1, 3302, -89.900, 0.000, 136.600, 0.000, 0.300, -0.400, 0.0, , , , , , 99, , , 29, 29, 29
36.6869863, -118.9584695, 0.100, 14:51:39.357, 16, 0.30, 0.15, 94, 0.800, 1.900, 137.500, 532, 100, 100, 18, 25037, -3645, 5286, 5624, 4, 11, 1523656299.360, 30, 0, 1024, 1024, 1025, 1024, 0, 6, 4166, 4201, 4131, 4102, 4179, 4214, 0, 1, 3403, -89.900, 0.000, 136.600, 0.000, 0.300, -0.300, 0.0, , , , , , 99, , , 29, 29, 29
36.6869862, -118.9584691, 0.100, 14:51:39.459, 17, 0.30, 0.19, 94, 1.600, 2.900, 137.500, 532, 100, 100, 18, 25037, -3645, 5286, 5624, 4, 11, 1523656299.461, 19, 0, 1024, 1024, 1025, 1024, 0, 6, 4130, 4126, 4118, 4150, 4155, 4137, 0, 1, 3505, -89.900, 0.000, 136.600, 0.000, 0.300, -0.300, 0.0, , , , , , 99, , , 29, 29, 29
36.6869861, -118.9584688, 0.200, 14:51:39.557, 17, 0.30, 0.22, 94, 2.100, 3.500, 137.400, 532, 100, 100, 18, 25037, -3645, 5286, 5624, 4, 11, 1523656299.560, 18, 0, 1024, 1024, 1025, 1024, 0, 6, 4130, 4126, 4118, 4150, 4155, 4137, 0, 1, 3604, -89.900, 0.000, 136.600, 0.000, 0.300, -0.300, 0.0, , , , , , 99, , , 29, 29, 29
36.6869861, -118.9584688, 0.200, 14:51:39.658, 17, 0.30, 0.22, 94, 2.100, 3.500, 137.400, 532, 100, 100, 18, 25037, -3645, 5286, 5624, 4, 11, 1523656299.660, 118, 0, 1024, 1024, 1025, 1024, 0, 6, 4130, 4126, 4118, 4150, 4155, 4137, 0, 1, 3703, -89.900, 0.000, 136.600, 0.000, 0.300, -0.300, 0.0, , , , , , 99, , , 29, 29, 29
36.6869858, -118.9584678, 0.300, 14:51:39.767, 17, 0.20, 0.31, 94, 1.900, 2.600, 137.000, 532, 100, 100, 18, 25037, -3645, 5286, 5624, 4, 11, 1523656299.768, 3, 0, 1024, 1024, 1025, 1024, 0, 6, 4130, 4126, 4118, 4150, 4155, 4137, 0, 1, 3811, -89.900, 0.000, 136.600, 0.000, 0.200, -0.400, 0.0, , , , , , 99, , , 29, 29, 29
36.6869857, -118.9584676, 0.400, 14:51:39.859, 17, 0.20, 0.33, 94, 1.700, 2.300, 137.000, 532, 100, 100, 18, 25037, -3645, 5286, 5624, 4, 11, 1523656299.859, 7, 0, 1024, 1024, 1025, 1024, 0, 6, 4130, 4126, 4118, 4150, 4155, 4137, 0, 1, 3903, -90.000, 0.000, 136.600, 0.000, 0.200, -0.400, 0.0, , , , , , 99, , , 29, 29, 29
36.6869857, -118.9584676, 0.400, 14:51:39.958, 17, 0.20, 0.33, 94, 1.700, 2.300, 137.000, 532, 100, 100, 18, 25037, -3645, 5286, 5624, 4, 11, 1523656299.960, 108, 0, 1024, 1024, 1025, 1024, 0, 6, 4130, 4126, 4118, 4150, 4155, 4137, 0, 1, 4003, -89.900, 0.000, 136.600, 0.000, 0.200, -0.400, 0.0, , , , , , 99, , , 29, 29, 29
36.6869855, -118.9584672, 0.500, 14:51:40.059, 17, 0.10, 0.37, 94, 1.200, 2.200, 137.300, 532, 100, 100, 18, 25037, -3645, 5286, 5624, 4, 11, 1523656300.059, 4, 0, 1024, 1024, 1025, 1024, 0, 6, 4130, 4126, 4118, 4150, 4155, 4137, 0, 1, 4102, -89.900, 0.000, 136.600, 0.000, 0.100, -0.500, 0.0, , , , , , 99, , , 29, 29, 29
36.6869855, -118.9584672, 0.500, 14:51:40.157, 17, 0.10, 0.37, 94, 1.200, 2.200, 137.300, 532, 100, 100, 18, 25037, -3645, 5286, 5624, 4, 11, 1523656300.157, 101, 0, 1024, 1024, 1025, 1024, 0, 6, 4130, 4126, 4118, 4150, 4155, 4137, 0, 1, 4200, -89.900, 0.000, 136.600, 0.000, 0.100, -0.500, 0.0, , , , , , 99, , , 29, 29, 29
36.6869854, -118.9584670, 0.500, 14:51:40.258, 18, 0.10, 0.40, 94, 1.000, 2.200, 137.500, 532, 100, 100, 18, 25037, -3645, 5286, 5624, 4, 11, 1523656300.259, 75, 0, 1024, 1024, 1025, 1024, 0, 6, 4130, 4126, 4118, 4150, 4155, 4137, 0, 1, 4303, -90.000, 0.000, 136.600, 0.000, 0.100, -0.500, 0.0, , , , , , 99, , , 29, 29, 29
36.6869854, -118.9584668, 0.600, 14:51:40.357, 18, 0.10, 0.41, 94, 0.900, 2.200, 137.600, 532, 100, 100, 18, 25037, -3645, 5286, 5624, 4, 11, 1523656300.358, 71, 0, 1024, 1024, 1025, 1024, 0, 6, 4130, 4126, 4118, 4150, 4155, 4137, 0, 1, 4402, -89.900, 0.000, 136.600, 0.000, 0.100, -0.500, 0.0, , , , , , 99, , , 29, 29, 29
36.6869853, -118.9584666, 0.600, 14:51:40.457, 18, 0.10, 0.43, 94, 0.800, 2.300, 137.500, 532, 100, 100, 18, 23838, -16637, 5286, 5624, 4, 11, 1523656300.458, 92, 0, 1024, 1024, 1025, 1024, 0, 6, 3863, 3866, 3886, 3925, 3929, 3910, 0, 1, 4501, -89.900, 0.000, 136.600, 0.000, 0.100, -0.500, 0.0, , , , , , 99, , , 29, 29, 29
36.6869852, -118.9584664, 0.700, 14:51:40.557, 18, 0.10, 0.45, 94, 0.900, 2.300, 137.400, 532, 100, 100, 18, 23838, -16637, 5286, 5624, 4, 11, 1523656300.558, 95, 0, 1024, 1024, 1025, 1024, 0, 6, 3863, 3866, 3886, 3925, 3929, 3910, 0, 1, 4602, -89.900, 0.000, 136.600, 0.000, 0.100, -0.500, 0.0, , , , , , 99, , , 29, 29, 29
36.6869851, -118.9584662, 0.800, 14:51:40.657, 17, 0.10, 0.47, 94, 1.000, 2.400, 137.200, 532, 100, 100, 18, 23838, -16637, 5286, 5624, 4, 11, 1523656300.658, 73, 0, 1024, 1024, 1025, 1024, 0, 6, 3863, 3866, 3886, 3925, 3929, 3910, 0, 1, 4701, -89.900, 0.000, 136.600, 0.000, 0.100, -0.500, 0.0, , , , , , 99, , , 29, 29, 29
36.6869851, -118.9584659, 0.800, 14:51:40.757, 17, 0.10, 0.50, 94, 1.000, 2.400, 137.000, 532, 100, 100, 18, 23838, -16637, 5286, 5624, 4, 11, 1523656300.758, 76, 0, 1024, 1024, 1025, 1024, 0, 6, 3863, 3866, 3886, 3925, 3929, 3910, 0, 1, 4801, -89.900, 0.000, 136.600, 0.000, 0.100, -0.500, 0.0, , , , , , 99, , , 29, 29, 29
36.6869851, -118.9584657, 0.900, 14:51:40.857, 18, 0.10, 0.52, 94, 1.200, 2.300, 136.800, 532, 100, 100, 18, 23838, -16637, 5286, 5624, 4, 6, 1523656300.858, 56, 0, 1024, 1024, 1025, 1024, 0, 6, 3863, 3866, 3886, 3925, 3929, 3910, 0, 1, 4901, -89.900, 0.000, 136.600, 0.000, 0.100, -0.500, 0.0, , , , , , 99, , , 29, 29, 29
36.6869851, -118.9584654, 0.900, 14:51:40.957, 18, 0.10, 0.54, 94, 1.600, 2.300, 136.600, 532, 100, 100, 18, 23838, -16637, 5286, 5624, 4, 14, 1523656300.958, 60, 0, 1024, 1024, 1025, 1024, 0, 6, 3863, 3866, 3886, 3925, 3929, 3910, 0, 1, 5001, -89.900, 0.000, 136.600, 0.000, 0.100, -0.400, 0.0, , , , , , 99, , , 29, 29, 29
36.6869850, -118.9584652, 1.000, 14:51:41.057, 16, 0.10, 0.56, 94, 2.200, 2.600, 136.400, 532, 100, 100, 18, 23838, -16637, 5286, 5624, 4, 14, 1523656301.058, 50, 0, 1024, 1024, 1025, 1024, 0, 6, 3863, 3866, 3886, 3925, 3929, 3910, 0, 1, 5102, -89.900, 0.000, 136.600, 0.000, 0.100, -0.300, 0.0, , , , , , 99, , , 29, 29, 29
36.6869849, -118.9584650, 1.000, 14:51:41.157, 16, 0.10, 0.58, 94, 2.400, 2.700, 136.100, 532, 100, 100, 18, 23838, -16637, 5286, 5624, 4, 14, 1523656301.158, 69, 0, 1024, 1024, 1025, 1024, 0, 6, 3863, 3866, 3886, 3925, 3929, 3910, 0, 1, 5201, -89.900, 0.000, 136.600, 0.000, 0.100, -0.300, 0.0, , , , , , 99, , , 29, 29, 29
36.6869849, -118.9584648, 1.100, 14:51:41.257, 16, 0.10, 0.60, 94, 2.300, 2.700, 135.800, 532, 100, 100, 18, 23838, -16637, 5286, 5624, 4, 14, 1523656301.258, 60, 0, 1024, 1024, 1025, 1024, 0, 6, 3863, 3866, 3886, 3925, 3929, 3910, 0, 1, 5302, -89.900, 0.000, 136.600, 0.000, 0.100, -0.200, 0.0, , , , , , 99, , , 29, 29, 29
36.6869848, -118.9584647, 1.100, 14:51:41.357, 16, 0.10, 0.61, 94, 1.900, 2.800, 135.700, 532, 100, 100, 18, 23170, -16214, 5286, 5624, 4, 14, 1523656301.358, 47, 0, 1024, 1024, 1025, 1024, 0, 6, 3863, 3866, 3886, 3925, 3929, 3910, 0, 1, 5401, -89.900, 0.000, 136.600, 0.000, 0.100, -0.300, 0.0, , , , , , 99, , , 29, 29, 29
36.6869847, -118.9584646, 1.100, 14:51:41.457, 16, 0.00, 0.62, 94, 1.500, 2.600, 135.600, 532, 100, 100, 18, 23170, -16214, 5286, 5624, 4, 14, 1523656301.458, 41, 0, 1024, 1024, 1025, 1024, 0, 6, 3863, 3866, 3886, 3925, 3929, 3910, 0, 1, 5501, -89.900, 0.000, 136.600, 0.000, 0.000, -0.400, 0.0, , , , , , 99, , , 29, 29, 29
36.6869847, -118.9584646, 1.200, 14:51:41.557, 16, 0.00, 0.63, 94, 1.100, 2.600, 135.600, 532, 100, 100, 18, 23170, -16214, 5286, 5624, 4, 14, 1523656301.558, 30, 0, 1024, 1024, 1025, 1024, 0, 6, 3863, 3866, 3886, 3925, 3929, 3910, 0, 1, 5601, -89.900, 0.000, 136.600, 0.000, 0.000, -0.500, 0.0, , , , , , 99, , , 29, 29, 29
36.6869847, -118.9584645, 1.300, 14:51:41.657, 17, 0.00, 0.63, 94, 1.000, 2.400, 135.600, 532, 100, 100, 18, 23170, -16214, 5286, 5624, 4, 14, 1523656301.659, 23, 0, 1024, 1024, 1025, 1024, 0, 6, 3863, 3866, 3886, 3925, 3929, 3910, 0, 1, 5702, -90.000, 0.000, 136.600, 0.000, 0.000, -0.800, 0.0, , , , , , 99, , , 29, 29, 29
36.6869847, -118.9584644, 1.400, 14:51:41.758, 17, 0.00, 0.64, 94, 1.100, 2.200, 135.700, 532, 100, 100, 18, 23170, -16214, 5286, 5624, 4, 14, 1523656301.759, 34, 0, 1024, 1024, 1025, 1024, 0, 6, 3863, 3866, 3886, 3925, 3929, 3910, 0, 1, 5802, -90.000, 0.000, 136.600, 0.000, 0.000, -1.000, 0.0, , , , , , 99, , , 29, 29, 29
36.6869847, -118.9584644, 1.500, 14:51:41.857, 17, 0.00, 0.64, 94, 1.300, 2.000, 136.000, 532, 100, 100, 18, 23170, -16214, 5286, 5624, 4, 14, 1523656301.857, 30, 0, 1024, 1024, 1025, 1024, 0, 6, 3931, 3885, 3850, 3886, 3866, 3882, 0, 1, 5901, -89.900, 0.000, 136.600, 0.000, 0.000, -1.200, 0.0, , , , , , 99, , , 29, 29, 29
36.6869846, -118.9584642, 1.600, 14:51:41.957, 17, 0.00, 0.65, 94, 1.400, 2.100, 136.300, 532, 100, 100, 18, 23170, -16214, 5286, 5624, 4, 14, 1523656301.958, 32, 0, 1024, 1024, 1025, 1024, 0, 6, 3931, 3885, 3850, 3886, 3866, 3882, 0, 1, 6001, -89.900, 0.000, 136.600, 0.000, 0.000, -1.400, 0.0, , , , , , 99, , , 29, 29, 29
36.6869846, -118.9584642, 1.800, 14:51:42.057, 17, 0.00, 0.66, 94, 1.300, 2.200, 136.500, 532, 100, 100, 18, 23170, -16214, 5286, 5624, 4, 14, 1523656302.058, 37, 0, 1024, 1024, 1025, 1024, 0, 6, 3931, 3885, 3850, 3886, 3866, 3882, 0, 1, 6101, -90.000, 0.000, 136.600, 0.000, 0.000, -1.600, 0.0, , , , , , 99, , , 29, 29, 29
36.6869846, -118.9584642, 1.900, 14:51:42.169, 17, 0.00, 0.66, 94, 1.100, 2.200, 136.700, 532, 100, 100, 18, 23170, -16214, 5286, 5624, 4, 14, 1523656302.169, 12, 0, 1024, 1024, 1025, 1024, 0, 6, 3931, 3885, 3850, 3886, 3866, 3882, 0, 1, 6213, -90.000, 0.000, 136.600, 0.000, 0.000, -1.800, 0.0, , , , , , 99, , , 29, 29, 29
36.6869846, -118.9584641, 2.100, 14:51:42.259, 17, 0.00, 0.66, 94, 0.700, 2.000, 136.600, 532, 100, 100, 18, 23170, -16214, 5286, 5624, 4, 14, 1523656302.261, 22, 0, 1024, 1024, 1025, 1024, 0, 6, 3931, 3885, 3850, 3886, 3866, 3882, 0, 1, 6304, -90.000, 0.000, 136.600, 0.000, 0.000, -2.100, 0.0, , , , , , 99, , , 29, 29, 29
36.6869845, -118.9584641, 2.600, 14:51:42.364, 18, 0.00, 0.67, 94, 0.900, 2.000, 136.300, 532, 100, 100, 18, 23170, -16214, 5286, 5624, 4, 14, 1523656302.365, 8, 0, 1024, 1024, 1025, 1024, 0, 6, 3931, 3885, 3850, 3886, 3866, 3882, 0, 1, 6408, -89.900, 0.000, 136.600, 0.000, 0.000, -2.600, 0.0, , , , , , 99, , , 29, 29, 29
36.6869845, -118.9584641, 2.900, 14:51:42.467, 18, 0.00, 0.67, 94, 1.000, 2.100, 136.100, 532, 100, 100, 18, 23170, -16214, 5286, 5624, 4, 14, 1523656302.468, 9, 0, 1024, 1024, 1025, 1024, 0, 6, 3931, 3885, 3850, 3886, 3866, 3882, 0, 1, 6511, -89.900, 0.000, 136.600, 0.000, 0.000, -2.800, 0.0, , , , , , 99, , , 29, 29, 29
36.6869844, -118.9584642, 3.200, 14:51:42.557, 18, 0.00, 0.67, 94, 1.000, 2.000, 136.000, 532, 100, 100, 18, 23170, -16214, 5286, 5624, 4, 14, 1523656302.558, 5, 0, 1024, 1024, 1025, 1024, 0, 6, 3931, 3885, 3850, 3886, 3866, 3882, 0, 1, 6601, -89.900, 0.000, 136.600, 0.000, 0.000, -3.000, 0.0, , , , , , 99, , , 29, 29, 29
36.6869844, -118.9584642, 3.600, 14:51:42.672, 18, 0.00, 0.67, 94, 1.000, 1.900, 136.000, 532, 100, 100, 18, 23170, -16214, 5286, 5624, 4, 14, 1523656302.673, 7, 0, 1024, 1024, 1025, 1024, 0, 6, 3931, 3885, 3850, 3886, 3866, 3882, 0, 1, 6716, -89.900, 0.000, 136.600, 0.000, 0.000, -3.100, 0.0, , , , , , 99, , , 29, 29, 29
36.6869844, -118.9584642, 3.600, 14:51:42.757, 18, 0.00, 0.67, 94, 1.000, 1.900, 136.000, 532, 100, 100, 18, 23170, -16214, 5286, 5624, 4, 14, 1523656302.758, 92, 0, 1024, 1024, 1025, 1024, 0, 6, 3931, 3885, 3850, 3886, 3866, 3882, 0, 1, 6802, -89.900, 0.000, 136.600, 0.000, 0.000, -3.100, 0.0, , , , , , 99, , , 29, 29, 29
36.6869844, -118.9584642, 3.900, 14:51:42.857, 17, 0.00, 0.66, 94, 0.900, 1.800, 136.000, 532, 100, 100, 18, 22587, -20303, 5286, 5624, 4, 14, 1523656302.858, 82, 0, 1024, 1024, 1025, 1024, 0, 6, 3759, 3746, 3733, 3768, 3775, 3778, 0, 1, 6901, -90.000, 0.000, 136.600, 0.000, 0.000, -3.200, 0.0, , , , , , 99, , , 29, 29, 29
36.6869844, -118.9584643, 4.200, 14:51:42.958, 17, 0.00, 0.66, 94, 0.600, 1.700, 136.100, 532, 100, 100, 18, 22587, -20303, 5286, 5624, 4, 14, 1523656302.958, 72, 0, 1024, 1024, 1025, 1024, 0, 6, 3759, 3746, 3733, 3768, 3775, 3778, 0, 1, 7001, -90.000, 0.000, 136.600, 0.000, 0.000, -3.200, 0.0, , , , , , 99, , , 29, 29, 29
36.6869844, -118.9584643, 4.600, 14:51:43.057, 17, 0.00, 0.66, 94, 0.500, 1.700, 136.200, 532, 100, 100, 18, 22587, -20303, 5286, 5624, 4, 14, 1523656303.058, 73, 0, 1024, 1024, 1025, 1024, 0, 6, 3759, 3746, 3733, 3768, 3775, 3778, 0, 1, 7101, -90.000, 0.000, 136.600, 0.000, 0.000, -3.200, 0.0, , , , , , 99, , , 29, 29, 29
36.6869846, -118.9584642, 4.900, 14:51:43.158, 17, 0.00, 0.66, 94, 1.100, 1.600, 136.300, 532, 100, 100, 18, 22587, -20303, 5286, 5624, 4, 14, 1523656303.159, 77, 0, 1024, 1024, 1025, 1024, 0, 6, 3759, 3746, 3733, 3768, 3775, 3778, 0, 1, 7203, -89.900, 0.000, 136.600, 0.000, 0.000, -3.300, 0.0, , , , , , 99, , , 29, 29, 29
36.6869847, -118.9584641, 5.300, 14:51:43.258, 17, 0.00, 0.67, 94, 1.700, 1.600, 136.400, 532, 100, 100, 18, 22587, -20303, 5286, 5624, 4, 14, 1523656303.259, 65, 0, 1024, 1024, 1025, 1024, 0, 6, 3759, 3746, 3733, 3768, 3775, 3778, 0, 1, 7302, -90.000, 0.000, 136.600, 0.000, 0.000, -3.300, 0.0, , , , , , 99, , , 29, 29, 29
36.6869848, -118.9584640, 5.600, 14:51:43.357, 17, 0.00, 0.67, 94, 2.200, 1.500, 136.500, 532, 100, 100, 18, 22587, -20303, 5286, 5624, 4, 14, 1523656303.357, 65, 0, 1024, 1024, 1025, 1024, 0, 6, 3759, 3746, 3733, 3768, 3775, 3778, 0, 1, 7401, -90.000, 0.000, 136.600, 0.000, 0.000, -3.200, 0.0, , , , , , 99, , , 29, 29, 29
36.6869850, -118.9584640, 6.000, 14:51:43.457, 17, 0.00, 0.66, 94, 2.400, 1.400, 136.500, 532, 100, 100, 18, 22587, -20303, 5286, 5624, 4, 14, 1523656303.458, 56, 0, 1024, 1024, 1025, 1024, 0, 6, 3759, 3746, 3733, 3768, 3775, 3778, 0, 1, 7501, -89.900, 0.000, 136.600, 0.000, 0.000, -3.200, 0.0, , , , , , 99, , , 29, 29, 29
36.6869850, -118.9584641, 6.300, 14:51:43.557, 17, 0.00, 0.66, 94, 2.300, 1.000, 136.500, 532, 100, 100, 18, 22587, -20303, 5286, 5624, 4, 14, 1523656303.558, 60, 0, 1024, 1024, 1025, 1024, 0, 6, 3759, 3746, 3733, 3768, 3775, 3778, 0, 1, 7601, -89.900, 0.000, 136.600, 0.000, 0.000, -3.100, 0.0, , , , , , 99, , , 29, 29, 29
36.6869851, -118.9584641, 6.600, 14:51:43.657, 18, 0.00, 0.65, 94, 1.900, 0.500, 136.600, 532, 100, 100, 18, 22587, -20303, 5286, 5624, 4, 14, 1523656303.658, 50, 0, 1024, 1024, 1025, 1024, 0, 6, 3759, 3746, 3733, 3768, 3775, 3778, 0, 1, 7702, -90.000, 0.000, 136.600, 0.000, 0.000, -3.100, 0.0, , , , , , 99, , , 29, 29, 29
36.6869852, -118.9584641, 7.000, 14:51:43.757, 18, 0.00, 0.65, 94, 1.700, 0.400, 136.700, 532, 100, 100, 18, 22587, -20303, 5286, 5624, 4, 14, 1523656303.758, 38, 0, 1024, 1024, 1025, 1024, 0, 6, 3759, 3746, 3733, 3768, 3775, 3778, 0, 1, 7801, -89.900, 0.000, 136.600, 0.000, 0.000, -3.100, 0.0, , , , , , 99, , , 29, 29, 29
36.6869853, -118.9584640, 7.300, 14:51:43.857, 18, 0.00, 0.65, 94, 1.800, 0.600, 136.800, 532, 100, 100, 18, 22479, -23566, 5286, 5624, 4, 14, 1523656303.859, 43, 0, 1024, 1024, 1025, 1024, 0, 6, 3736, 3743, 3728, 3745, 3768, 3774, 0, 1, 7902, -89.900, 0.000, 136.600, 0.000, 0.000, -3.100, 0.0, , , , , , 99, , , 29, 29, 29
36.6869853, -118.9584640, 7.600, 14:51:43.957, 18, 0.00, 0.65, 94, 1.700, 1.100, 136.900, 532, 100, 98, 18, 22479, -23566, 5286, 5624, 4, 14, 1523656303.958, 23, 0, 1024, 1024, 1025, 1024, 0, 6, 3736, 3743, 3728, 3745, 3768, 3774, 0, 1, 8001, -89.900, 0.000, 136.600, 0.000, 0.000, -3.100, 0.0, , , , , , 99, , , 29, 29, 29
36.6869853, -118.9584641, 8.000, 14:51:44.057, 17, 0.00, 0.65, 94, 1.800, 1.600, 136.800, 532, 100, 98, 18, 22479, -23566, 5286, 5624, 4, 14, 1523656304.058, 38, 0, 1024, 1024, 1025, 1024, 0, 6, 3736, 3743, 3728, 3745, 3768, 3774, 0, 1, 8101, -89.900, 0.000, 136.600, 0.000, 0.000, -3.100, 0.0, , , , , , 99, , , 29, 29, 29
36.6869853, -118.9584641, 8.300, 14:51:44.158, 17, 0.00, 0.65, 94, 2.000, 2.100, 136.600, 532, 100, 98, 18, 22479, -23566, 5286, 5624, 4, 14, 1523656304.158, 13, 0, 1024, 1024, 1025, 1024, 0, 6, 3736, 3743, 3728, 3745, 3768, 3774, 0, 1, 8202, -89.900, 0.000, 136.600, 0.000, 0.000, -3.000, 0.0, , , , , , 99, , , 29, 29, 29
36.6869852, -118.9584641, 8.600, 14:51:44.259, 17, 0.00, 0.65, 94, 2.200, 2.500, 136.400, 532, 100, 98, 18, 22479, -23566, 5286, 5624, 4, 14, 1523656304.259, 29, 0, 1024, 1024, 1025, 1024, 0, 6, 3736, 3743, 3728, 3745, 3768, 3774, 0, 1, 8303, -89.900, 0.000, 136.600, 0.000, 0.000, -3.100, 0.0, , , , , , 99, , , 29, 29, 29
36.6869851, -118.9584641, 8.900, 14:51:44.357, 17, 0.00, 0.65, 94, 1.900, 2.600, 136.100, 532, 100, 98, 18, 22479, -23566, 5286, 5624, 4, 14, 1523656304.358, 14, 0, 1024, 1024, 1025, 1024, 0, 6, 3736, 3743, 3728, 3745, 3768, 3774, 0, 1, 8401, -89.900, 0.000, 136.600, 0.000, 0.000, -3.100, 0.0, , , , , , 99, , , 29, 29, 29
36.6869850, -118.9584641, 9.300, 14:51:44.457, 17, 0.00, 0.66, 94, 1.600, 3.000, 135.800, 532, 100, 98, 18, 22479, -23566, 5286, 5624, 4, 14, 1523656304.458, 11, 0, 1024, 1024, 1025, 1024, 0, 6, 3736, 3743, 3728, 3745, 3768, 3774, 0, 1, 8501, -89.900, 0.000, 136.600, 0.000, 0.000, -3.100, 0.0, , , , , , 99, , , 29, 29, 29
36.6869849, -118.9584641, 9.900, 14:51:44.557, 17, 0.00, 0.66, 94, 1.500, 3.300, 135.600, 532, 100, 98, 18, 22479, -23566, 5286, 5624, 4, 14, 1523656304.558, 17, 0, 1024, 1024, 1025, 1024, 0, 6, 3736, 3743, 3728, 3745, 3768, 3774, 0, 1, 8601, -89.900, 0.000, 136.600, 0.000, 0.000, -3.100, 0.0, , , , , , 99, , , 29, 29, 29
36.6869849, -118.9584641, 9.900, 14:51:44.657, 17, 0.00, 0.66, 94, 1.500, 3.300, 135.600, 532, 100, 98, 18, 22479, -23566, 5286, 5624, 4, 14, 1523656304.658, 117, 0, 1024, 1024, 1025, 1024, 0, 6, 3736, 3743, 3728, 3745, 3768, 3774, 0, 1, 8701, -89.900, 0.000, 136.600, 0.000, 0.000, -3.100, 0.0, , , , , , 99, , , 29, 29, 29
36.6869848, -118.9584641, 10.200, 14:51:44.766, 17, 0.00, 0.66, 94, 1.600, 3.600, 135.600, 532, 100, 98, 18, 22479, -23566, 5286, 5624, 4, 14, 1523656304.766, 5, 0, 1024, 1024, 1026, 1024, 0, 6, 3736, 3743, 3728, 3745, 3768, 3774, 0, 1, 8810, -89.900, 0.000, 136.600, 0.000, 0.000, -3.000, 0.0, , , , , , 99, , , 29, 29, 29
36.6869847, -118.9584641, 10.600, 14:51:44.857, 17, 0.00, 0.66, 94, 1.300, 3.600, 135.700, 532, 100, 98, 18, 22666, -19521, 5286, 5624, 4, 14, 1523656304.858, 87, 0, 1024, 1024, 1025, 1024, 0, 6, 3736, 3743, 3728, 3745, 3768, 3774, 0, 1, 8901, -89.900, 0.000, 136.600, 0.000, 0.000, -3.000, 0.0, , , , , , 99, , , 29, 29, 29
36.6869846, -118.9584642, 11.200, 14:51:44.961, 17, 0.00, 0.66, 94, 1.000, 3.000, 136.000, 532, 100, 95, 18, 22666, -19521, 5286, 5624, 4, 14, 1523656304.962, 9, 0, 1024, 1024, 1025, 1024, 0, 6, 3736, 3743, 3728, 3745, 3768, 3774, 0, 1, 9005, -89.900, 0.000, 136.600, 0.000, 0.000, -2.900, 0.0, , , , , , 99, , , 29, 29, 29
36.6869846, -118.9584642, 11.200, 14:51:45.057, 17, 0.00, 0.66, 94, 1.000, 3.000, 136.000, 532, 100, 95, 18, 22666, -19521, 5286, 5624, 4, 14, 1523656305.058, 106, 0, 1024, 1024, 1025, 1024, 0, 6, 3777, 3777, 3754, 3774, 3788, 3797, 0, 1, 9102, -89.900, 0.000, 136.600, 0.000, 0.000, -2.900, 0.0, , , , , , 99, , , 29, 29, 29
36.6869845, -118.9584642, 11.500, 14:51:45.157, 17, 0.00, 0.66, 94, 0.900, 2.500, 136.100, 532, 100, 95, 18, 22666, -19521, 5286, 5624, 4, 14, 1523656305.158, 71, 0, 1024, 1024, 1025, 1024, 0, 6, 3777, 3777, 3754, 3774, 3788, 3797, 0, 1, 9202, -89.900, 0.000, 136.600, 0.000, 0.000, -2.900, 0.0, , , , , , 99, , , 29, 29, 29
36.6869845, -118.9584642, 11.800, 14:51:45.257, 17, 0.00, 0.66, 94, 1.000, 2.500, 136.000, 532, 100, 95, 18, 22666, -19521, 5286, 5624, 4, 14, 1523656305.258, 79, 0, 1024, 1024, 1025, 1024, 0, 6, 3777, 3777, 3754, 3774, 3788, 3797, 0, 1, 9301, -89.900, 0.000, 136.600, 0.000, 0.000, -2.900, 0.0, , , , , , 99, , , 29, 29, 29
36.6869844, -118.9584642, 12.100, 14:51:45.357, 17, 0.00, 0.66, 94, 1.400, 2.700, 135.900, 532, 100, 95, 18, 22666, -19521, 5286, 5624, 4, 14, 1523656305.358, 82, 0, 1024, 1024, 1025, 1024, 0, 6, 3777, 3777, 3754, 3774, 3788, 3797, 0, 1, 9401, -89.900, 0.000, 136.600, 0.000, 0.000, -2.900, 0.0, , , , , , 99, , , 29, 29, 29
36.6869844, -118.9584642, 12.400, 14:51:45.457, 17, 0.00, 0.67, 94, 1.600, 3.100, 135.900, 532, 100, 96, 18, 22666, -19521, 5286, 5624, 4, 14, 1523656305.458, 73, 0, 1024, 1024, 1025, 1024, 0, 6, 3777, 3777, 3754, 3774, 3788, 3797, 0, 1, 9501, -89.900, 0.000, 136.600, 0.000, 0.000, -2.900, 0.0, , , , , , 99, , , 29, 29, 29
36.6869844, -118.9584642, 12.700, 14:51:45.557, 17, 0.00, 0.66, 94, 1.500, 3.400, 135.900, 532, 100, 96, 18, 22666, -19521, 5286, 5624, 4, 14, 1523656305.558, 80, 0, 1024, 1024, 1025, 1024, 0, 6, 3777, 3777, 3754, 3774, 3788, 3797, 0, 1, 9601, -89.900, 0.000, 136.600, 0.000, 0.000, -2.900, 0.0, , , , , , 99, , , 29, 29, 29
36.6869843, -118.9584642, 13.000, 14:51:45.657, 18, 0.00, 0.67, 94, 1.200, 3.500, 136.000, 532, 100, 96, 18, 22666, -19521, 5286, 5624, 4, 14, 1523656305.658, 44, 0, 1024, 1024, 1025, 1024, 0, 6, 3777, 3777, 3754, 3774, 3788, 3797, 0, 1, 9701, -89.900, 0.000, 136.600, 0.000, 0.000, -2.800, 0.0, , , , , , 99, , , 29, 29, 29
36.6869843, -118.9584642, 13.300, 14:51:45.757, 18, 0.00, 0.67, 94, 1.000, 3.400, 136.100, 532, 100, 96, 18, 22666, -19521, 5286, 5624, 4, 14, 1523656305.758, 56, 0, 1024, 1024, 1025, 1024, 0, 6, 3777, 3777, 3754, 3774, 3788, 3797, 0, 1, 9801, -89.900, 0.000, 136.600, 0.000, 0.000, -2.800, 0.0, , , , , , 99, , , 29, 29, 29
36.6869842, -118.9584642, 13.600, 14:51:45.857, 18, 0.00, 0.67, 94, 0.900, 3.400, 136.300, 532, 100, 96, 18, 22695, -18756, 5230, 5624, 4, 14, 1523656305.857, 72, 0, 1024, 1024, 1025, 1024, 0, 6, 3769, 3765, 3772, 3787, 3777, 3799, 0, 1, 9900, -89.900, 0.000, 136.600, 0.000, 0.000, -2.900, 0.0, , , , , , 99, , , 29, 29, 29
36.6869841, -118.9584642, 13.900, 14:51:45.957, 18, 0.00, 0.68, 94, 0.700, 3.400, 136.400, 532, 100, 96, 18, 22695, -18756, 5230, 5624, 4, 14, 1523656305.958, 73, 0, 1024, 1024, 1025, 1024, 0, 6, 3769, 3765, 3772, 3787, 3777, 3799, 0, 1, 10001, -89.900, 0.000, 136.600, 0.000, 0.000, -2.900, 0.0, , , , , , 99, , , 29, 29, 29
36.6869840, -118.9584642, 14.200, 14:51:46.057, 18, 0.00, 0.68, 94, 0.500, 3.400, 136.500, 532, 100, 96, 18, 22695, -18756, 5230, 5624, 4, 14, 1523656306.058, 64, 0, 1024, 1024, 1025, 1024, 0, 6, 3769, 3765, 3772, 3787, 3777, 3799, 0, 1, 10101, -89.900, 0.000, 136.600, 0.000, 0.000, -2.900, 0.0, , , , , , 99, , , 29, 29, 29
36.6869840, -118.9584642, 14.500, 14:51:46.157, 18, 0.00, 0.68, 94, 0.500, 3.600, 136.500, 532, 100, 96, 18, 22695, -18756, 5230, 5624, 4, 14, 1523656306.158, 40, 0, 1024, 1024, 1025, 1024, 0, 6, 3769, 3765, 3772, 3787, 3777, 3799, 0, 1, 10201, -89.900, 0.000, 136.600, 0.000, 0.000, -2.900, 0.0, , , , , , 99, , , 29, 29, 29
36.6869840, -118.9584642, 14.800, 14:51:46.261, 17, 0.00, 0.68, 94, 0.700, 3.400, 136.600, 532, 100, 96, 18, 22695, -18756, 5230, 5624, 4, 14, 1523656306.262, 66, 0, 1024, 1024, 1025, 1024, 0, 6, 3769, 3765, 3772, 3787, 3777, 3799, 0, 1, 10305, -89.900, 0.000, 136.600, 0.000, 0.000, -2.800, 0.0, , , , , , 99, , , 29, 29, 29
36.6869840, -118.9584642, 15.100, 14:51:46.361, 17, 0.00, 0.68, 93, 1.000, 3.300, 136.500, 532, 100, 96, 18, 22695, -18756, 5230, 5624, 4, 14, 1523656306.362, 56, 0, 1024, 1024, 1025, 1024, 0, 6, 3769, 3765, 3772, 3787, 3777, 3799, 0, 1, 10405, -89.900, 0.000, 136.600, 0.000, 0.000, -2.800, 0.0, , , , , , 99, , , 29, 29, 29
36.6869840, -118.9584642, 15.400, 14:51:46.461, 17, 0.00, 0.68, 93, 1.400, 3.100, 136.400, 532, 100, 97, 18, 22695, -18756, 5230, 5624, 4, 14, 1523656306.462, 59, 0, 1024, 1024, 1025, 1024, 0, 6, 3769, 3765, 3772, 3787, 3777, 3799, 0, 1, 10505, -89.900, 0.000, 136.600, 0.000, 0.000, -2.800, 0.0, , , , , , 99, , , 29, 29, 29
36.6869840, -118.9584642, 15.700, 14:51:46.560, 17, 0.00, 0.69, 93, 2.100, 3.000, 136.400, 532, 100, 97, 18, 22695, -18756, 5230, 5624, 4, 14, 1523656306.562, 56, 0, 1024, 1024, 1025, 1024, 0, 6, 3769, 3765, 3772, 3787, 3777, 3799, 0, 1, 10605, -89.900, 0.000, 136.600, 0.000, 0.000, -2.900, 0.0, , , , , , 99, , , 29, 29, 29
36.6869840, -118.9584641, 16.000, 14:51:46.658, 17, 0.00, 0.69, 93, 2.700, 3.200, 136.500, 532, 100, 97, 18, 22695, -18756, 5230, 5624, 4, 14, 1523656306.658, 27, 0, 1024, 1024, 1025, 1024, 0, 6, 3769, 3765, 3772, 3787, 3777, 3799, 0, 1, 10702, -89.900, 0.000, 136.600, 0.000, 0.000, -2.800, 0.0, , , , , , 99, , , 29, 29, 29
36.6869841, -118.9584641, 16.300, 14:51:46.766, 17, 0.00, 0.69, 93, 2.600, 3.200, 136.600, 532, 100, 97, 18, 22695, -18756, 5230, 5624, 4, 14, 1523656306.767, 18, 0, 1024, 1024, 1025, 1024, 0, 6, 3769, 3765, 3772, 3787, 3777, 3799, 0, 1, 10810, -89.900, 0.000, 136.600, 0.000, 0.000, -2.800, 0.0, , , , , , 99, , , 29, 29, 29
36.6869841, -118.9584641, 16.600, 14:51:46.862, 17, 0.00, 0.69, 93, 2.600, 3.100, 136.600, 532, 100, 97, 18, 22514, -20273, 5230, 5624, 4, 14, 1523656306.863, 44, 0, 1024, 1024, 1025, 1024, 0, 6, 3769, 3765, 3772, 3787, 3777, 3799, 0, 1, 10906, -89.900, 0.000, 136.600, 0.000, 0.000, -2.800, 0.0, , , , , , 99, , , 29, 29, 29
36.6869841, -118.9584641, 16.900, 14:51:46.965, 17, 0.00, 0.69, 93, 2.200, 2.800, 136.500, 532, 100, 97, 18, 22514, -20273, 5230, 5624, 4, 14, 1523656306.966, 18, 0, 1024, 1024, 1025, 1024, 0, 6, 3769, 3765, 3772, 3787, 3777, 3799, 0, 1, 11010, -89.900, 0.000, 136.600, 0.000, 0.000, -2.800, 0.0, , , , , , 99, , , 29, 29, 29
36.6869841, -118.9584641, 16.900, 14:51:47.058, 17, 0.00, 0.69, 93, 2.200, 2.800, 136.500, 532, 100, 97, 18, 22514, -20273, 5230, 5624, 4, 14, 1523656307.059, 111, 0, 1024, 1024, 1025, 1024, 0, 6, 3769, 3765, 3772, 3787, 3777, 3799, 0, 1, 11102, -89.900, 0.000, 136.600, 0.000, 0.000, -2.800, 0.0, , , , , , 99, , , 29, 29, 29
36.6869841, -118.9584641, 16.900, 14:51:47.159, 17, 0.00, 0.69, 93, 2.200, 2.800, 136.500, 532, 100, 97, 18, 22514, -20273, 5230, 5624, 4, 14, 1523656307.160, 212, 0, 1024, 1024, 1025, 1024, 0, 6, 3769, 3765, 3772, 3787, 3777, 3799, 0, 1, 11203, -89.900, 0.000, 136.600, 0.000, 0.000, -2.800, 0.0, , , , , , 99, , , 29, 29, 29
36.6869841, -118.9584644, 18.000, 14:51:47.267, 17, 0.00, 0.67, 93, 0.900, 2.200, 136.100, 532, 100, 97, 18, 22514, -20273, 5230, 5624, 4, 14, 1523656307.268, 12, 0, 1024, 1024, 1025, 1024, 0, 6, 3769, 3765, 3772, 3787, 3777, 3799, 0, 1, 11311, -89.900, 0.000, 136.600, 0.000, 0.000, -2.700, 0.0, , , , , , 99, , , 29, 29, 29
36.6869841, -118.9584644, 18.300, 14:51:47.368, 17, 0.00, 0.66, 93, 1.200, 2.200, 136.200, 532, 100, 96, 18, 22514, -20273, 5230, 5624, 4, 14, 1523656307.369, 15, 0, 1024, 1024, 1025, 1024, 0, 6, 3742, 3738, 3736, 3748, 3749, 3771, 0, 1, 11413, -89.900, 0.000, 136.600, 0.000, 0.000, -2.800, 0.0, , , , , , 99, , , 29, 29, 29
36.6869841, -118.9584644, 18.600, 14:51:47.462, 17, 0.00, 0.66, 93, 1.500, 2.400, 136.300, 532, 100, 96, 18, 22514, -20273, 5230, 5624, 4, 14, 1523656307.463, 13, 0, 1024, 1024, 1025, 1024, 0, 6, 3742, 3738, 3736, 3748, 3749, 3771, 0, 1, 11506, -89.900, 0.000, 136.600, 0.000, 0.000, -2.900, 0.0, , , , , , 99, , , 29, 29, 29
36.6869841, -118.9584644, 18.600, 14:51:47.560, 17, 0.00, 0.66, 93, 1.500, 2.400, 136.300, 532, 100, 96, 18, 22514, -20273, 5230, 5624, 4, 14, 1523656307.561, 111, 0, 1024, 1024, 1025, 1024, 0, 6, 3742, 3738, 3736, 3748, 3749, 3771, 0, 1, 11605, -89.900, 0.000, 136.600, 0.000, 0.000, -2.900, 0.0, , , , , , 99, , , 29, 29, 29
36.6869841, -118.9584643, 18.900, 14:51:47.658, 17, 0.00, 0.67, 93, 1.800, 2.500, 136.400, 532, 100, 96, 18, 22514, -20273, 5230, 5624, 4, 14, 1523656307.659, 77, 0, 1024, 1024, 1025, 1024, 0, 6, 3742, 3738, 3736, 3748, 3749, 3771, 0, 1, 11702, -89.900, 0.000, 136.600, 0.000, 0.000, -2.900, 0.0, , , , , , 99, , , 29, 29, 29
36.6869842, -118.9584642, 19.500, 14:51:47.767, 17, 0.00, 0.68, 93, 2.500, 3.000, 136.400, 532, 100, 96, 18, 22514, -20273, 5230, 5624, 4, 14, 1523656307.768, 14, 0, 1024, 1024, 1025, 1024, 0, 6, 3742, 3738, 3736, 3748, 3749, 3771, 0, 1, 11811, -89.900, 0.000, 136.600, 0.000, 0.000, -3.000, 0.0, , , , , , 99, , , 29, 29, 29
36.6869842, -118.9584642, 19.500, 14:51:47.859, 17, 0.00, 0.68, 93, 2.500, 3.000, 136.400, 532, 100, 96, 18, 22514, -20273, 5230, 5624, 4, 14, 1523656307.859, 105, 0, 1024, 1024, 1025, 1024, 0, 6, 3742, 3738, 3736, 3748, 3749, 3771, 0, 1, 11903, -89.900, 0.000, 136.600, 0.000, 0.000, -3.000, 0.0, , , , , , 99, , , 29, 29, 29
36.6869842, -118.9584640, 19.800, 14:51:47.958, 17, 0.00, 0.69, 93, 2.600, 3.300, 136.200, 532, 100, 93, 18, 22514, -20273, 5230, 5624, 4, 14, 1523656307.960, 72, 0, 1024, 1024, 1025, 1024, 0, 6, 3742, 3738, 3736, 3748, 3749, 3771, 0, 1, 12003, -89.900, 0.000, 136.600, 0.000, 0.000, -3.100, 0.0, , , , , , 99, , , 29, 29, 29
36.6869842, -118.9584639, 20.200, 14:51:48.058, 18, 0.00, 0.70, 93, 3.000, 3.900, 136.200, 532, 100, 93, 18, 22514, -20273, 5230, 5624, 4, 14, 1523656308.059, 26, 0, 1024, 1024, 1025, 1024, 0, 6, 3742, 3738, 3736, 3748, 3749, 3771, 0, 1, 12103, -89.900, 0.000, 136.600, 0.000, 0.000, -3.100, 0.0, , , , , , 99, , , 29, 29, 29
36.6869842, -118.9584639, 20.200, 14:51:48.157, 18, 0.00, 0.70, 93, 3.000, 3.900, 136.200, 532, 100, 93, 18, 22514, -20273, 5230, 5624, 4, 14, 1523656308.158, 125, 0, 1024, 1024, 1025, 1024, 0, 6, 3742, 3738, 3736, 3748, 3749, 3771, 0, 1, 12201, -89.900, 0.000, 136.600, 0.000, 0.000, -3.100, 0.0, , , , , , 99, , , 29, 29, 29
36.6869842, -118.9584638, 20.800, 14:51:48.263, 18, 0.00, 0.71, 93, 3.000, 4.500, 136.000, 532, 100, 93, 18, 22514, -20273, 5230, 5624, 4, 14, 1523656308.264, 12, 0, 1024, 1024, 1025, 1024, 0, 6, 3742, 3738, 3736, 3748, 3749, 3771, 0, 1, 12307, -89.900, 0.000, 136.600, 0.000, 0.000, -3.000, 0.0, , , , , , 99, , , 29, 29, 29
36.6869842, -118.9584638, 21.100, 14:51:48.356, 18, 0.00, 0.71, 93, 2.600, 4.300, 136.000, 532, 100, 93, 18, 22322, -21831, 5230, 5624, 4, 14, 1523656308.357, 46, 0, 1024, 1024, 1025, 1024, 0, 6, 3708, 3715, 3696, 3715, 3725, 3744, 0, 1, 12400, -89.900, 0.000, 136.600, 0.000, 0.000, -2.900, 0.0, , , , , , 99, , , 29, 29, 29
36.6869842, -118.9584638, 21.400, 14:51:48.457, 18, 0.00, 0.71, 93, 2.100, 3.600, 136.000, 532, 100, 91, 18, 22322, -21831, 5230, 5624, 4, 14, 1523656308.458, 51, 0, 1024, 1024, 1025, 1024, 0, 6, 3708, 3715, 3696, 3715, 3725, 3744, 0, 1, 12501, -89.900, 0.000, 136.600, 0.000, 0.000, -2.900, 0.0, , , , , , 99, , , 29, 29, 29
36.6869842, -118.9584638, 21.400, 14:51:48.557, 18, 0.00, 0.71, 93, 2.100, 3.600, 136.000, 532, 100, 91, 18, 22322, -21831, 5230, 5624, 4, 14, 1523656308.559, 151, 0, 1024, 1024, 1025, 1024, 0, 6, 3708, 3715, 3696, 3715, 3725, 3744, 0, 1, 12602, -90.000, 0.000, 136.600, 0.000, 0.000, -2.900, 0.0, , , , , , 99, , , 29, 29, 29
36.6869842, -118.9584639, 22.000, 14:51:48.657, 18, 0.00, 0.70, 93, 2.000, 3.000, 136.100, 532, 100, 91, 18, 22322, -21831, 5230, 5624, 4, 14, 1523656308.658, 43, 0, 1024, 1024, 1025, 1024, 0, 6, 3708, 3715, 3696, 3715, 3725, 3744, 0, 1, 12701, -90.000, 0.000, 136.600, 0.000, 0.000, -2.800, 0.0, , , , , , 99, , , 29, 29, 29
36.6869843, -118.9584639, 22.300, 14:51:48.757, 18, 0.00, 0.70, 93, 2.100, 2.800, 136.300, 532, 100, 91, 18, 22322, -21831, 5230, 5624, 4, 14, 1523656308.758, 31, 0, 1024, 1024, 1025, 1024, 0, 6, 3708, 3715, 3696, 3715, 3725, 3744, 0, 1, 12802, -90.000, 0.000, 136.600, 0.000, 0.000, -2.800, 0.0, , , , , , 99, , , 29, 29, 29
36.6869844, -118.9584639, 22.600, 14:51:48.857, 18, 0.00, 0.69, 93, 2.200, 2.500, 136.300, 532, 100, 91, 18, 22322, -21831, 5230, 5624, 4, 14, 1523656308.858, 56, 0, 1024, 1024, 1025, 1024, 0, 6, 3708, 3715, 3696, 3715, 3725, 3744, 0, 1, 12901, -90.000, 0.000, 136.600, 0.000, 0.000, -2.800, 0.0, , , , , , 99, , , 29, 29, 29
36.6869845, -118.9584639, 22.800, 14:51:48.957, 18, 0.00, 0.69, 93, 2.600, 2.400, 136.400, 532, 100, 92, 18, 22322, -21831, 5230, 5624, 4, 14, 1523656308.958, 44, 0, 1024, 1024, 1025, 1024, 0, 6, 3708, 3715, 3696, 3715, 3725, 3744, 0, 1, 13001, -90.000, 0.000, 136.600, 0.000, 0.000, -2.700, 0.0, , , , , , 99, , , 29, 29, 29
36.6869846, -118.9584639, 23.100, 14:51:49.057, 18, 0.00, 0.69, 93, 2.900, 2.500, 136.300, 532, 100, 92, 18, 22322, -21831, 5230, 5624, 4, 14, 1523656309.058, 32, 0, 1024, 1024, 1025, 1024, 0, 6, 3708, 3715, 3696, 3715, 3725, 3744, 0, 1, 13101, -90.000, 0.000, 136.600, 0.000, 0.000, -2.800, 0.0, , , , , , 99, , , 29, 29, 29
36.6869846, -118.9584639, 23.400, 14:51:49.157, 18, 0.00, 0.69, 93, 2.900, 2.500, 136.100, 532, 100, 92, 18, 22322, -21831, 5230, 5624, 4, 14, 1523656309.158, 46, 0, 1024, 1024, 1025, 1024, 0, 6, 3708, 3715, 3696, 3715, 3725, 3744, 0, 1, 13201, -90.000, 0.000, 136.600, 0.000, 0.000, -2.800, 0.0, , , , , , 99, , , 29, 29, 29
36.6869846, -118.9584639, 23.700, 14:51:49.257, 18, 0.00, 0.68, 93, 2.400, 2.400, 136.100, 532, 100, 92, 18, 22322, -21831, 5230, 5624, 4, 14, 1523656309.259, 18, 0, 1024, 1024, 1026, 1024, 0, 6, 3708, 3715, 3696, 3715, 3725, 3744, 0, 1, 13303, -90.000, 0.000, 136.600, 0.000, 0.000, -2.900, 0.0, , , , , , 99, , , 29, 29, 29
36.6869847, -118.9584639, 24.000, 14:51:49.358, 18, 0.00, 0.68, 93, 2.200, 2.300, 136.100, 532, 100, 92, 18, 22322, -21831, 5230, 5624, 4, 14, 1523656309.359, 21, 0, 1024, 1024, 1025, 1024, 0, 6, 3708, 3715, 3696, 3715, 3725, 3744, 0, 1, 13403, -90.000, 0.000, 136.600, 0.000, 0.000, -2.900, 0.0, , , , , , 99, , , 29, 29, 29
36.6869847, -118.9584639, 24.300, 14:51:49.457, 18, 0.00, 0.68, 93, 2.200, 2.400, 136.100, 532, 100, 94, 18, 22322, -21831, 5230, 5624, 4, 14, 1523656309.459, 13, 0, 1024, 1024, 1025, 1024, 0, 6, 3708, 3715, 3696, 3715, 3725, 3744, 0, 1, 13502, -90.000, 0.000, 136.600, 0.000, 0.000, -3.000, 0.0, , , , , , 99, , , 29, 29, 29
36.6869848, -118.9584638, 24.900, 14:51:49.557, 18, 0.00, 0.68, 93, 2.300, 2.700, 136.200, 532, 100, 94, 18, 22322, -21831, 5230, 5624, 4, 14, 1523656309.557, 10, 0, 1024, 1024, 1025, 1024, 0, 6, 3708, 3715, 3696, 3715, 3725, 3744, 0, 1, 13601, -89.900, 0.000, 136.600, 0.000, 0.000, -2.900, 0.0, , , , , , 99, , , 29, 29, 29
36.6869848, -118.9584638, 24.900, 14:51:49.657, 18, 0.00, 0.68, 93, 2.300, 2.700, 136.200, 532, 100, 94, 18, 22322, -21831, 5230, 5624, 4, 14, 1523656309.658, 110, 0, 1024, 1024, 1025, 1024, 0, 6, 3708, 3715, 3696, 3715, 3725, 3744, 0, 1, 13701, -89.900, 0.000, 136.600, 0.000, 0.000, -2.900, 0.0, , , , , , 99, , , 29, 29, 29
36.6869848, -118.9584638, 24.900, 14:51:49.757, 18, 0.00, 0.68, 93, 2.300, 2.700, 136.200, 532, 100, 94, 18, 22322, -21831, 5230, 5624, 4, 14, 1523656309.759, 211, 0, 1024, 1024, 1025, 1024, 0, 6, 3708, 3715, 3696, 3715, 3725, 3744, 0, 1, 13802, -89.900, 0.000, 136.600, 0.000, 0.000, -2.900, 0.0, , , , , , 99, , , 29, 29, 29
36.6869848, -118.9584638, 25.200, 14:51:49.857, 18, 0.00, 0.69, 93, 2.500, 2.900, 136.200, 532, 100, 94, 18, 22322, -21831, 5230, 5624, 4, 14, 1523656309.858, 88, 0, 1024, 1024, 1025, 1024, 0, 6, 3708, 3715, 3696, 3715, 3725, 3744, 0, 1, 13901, -90.000, 0.000, 136.600, 0.000, 0.000, -2.800, 0.0, , , , , , 99, , , 29, 29, 29
36.6869848, -118.9584637, 25.500, 14:51:49.957, 18, 0.00, 0.70, 93, 3.100, 3.100, 136.300, 532, 100, 94, 18, 22325, -21455, 5230, 5624, 4, 14, 1523656309.958, 97, 0, 1024, 1024, 1025, 1024, 0, 6, 3726, 3729, 3712, 3730, 3729, 3753, 0, 1, 14001, -89.900, 0.000, 136.600, 0.000, 0.000, -2.900, 0.0, , , , , , 99, , , 29, 29, 29
36.6869849, -118.9584635, 26.100, 14:51:50.057, 18, 0.00, 0.71, 93, 3.600, 3.300, 136.400, 532, 100, 95, 18, 22325, -21455, 5230, 5624, 4, 14, 1523656310.058, 59, 0, 1024, 1024, 1025, 1024, 0, 6, 3726, 3729, 3712, 3730, 3729, 3753, 0, 1, 14101, -89.900, 0.000, 136.600, 0.000, 0.000, -2.900, 0.0, , , , , , 99, , , 29, 29, 29
36.6869849, -118.9584635, 26.700, 14:51:50.160, 18, 0.00, 0.71, 93, 3.000, 3.100, 136.300, 532, 100, 95, 18, 22325, -21455, 5230, 5624, 4, 14, 1523656310.161, 8, 0, 1024, 1024, 1025, 1024, 0, 6, 3726, 3729, 3712, 3730, 3729, 3753, 0, 1, 14204, -89.900, 0.000, 136.600, 0.000, 0.000, -3.000, 0.0, , , , , , 99, , , 29, 29, 29
36.6869849, -118.9584635, 26.700, 14:51:50.257, 18, 0.00, 0.71, 93, 3.000, 3.100, 136.300, 532, 100, 95, 18, 22325, -21455, 5230, 5624, 4, 14, 1523656310.258, 105, 0, 1024, 1024, 1025, 1024, 0, 6, 3726, 3729, 3712, 3730, 3729, 3753, 0, 1, 14301, -89.900, 0.000, 136.600, 0.000, 0.000, -3.000, 0.0, , , , , , 99, , , 29, 29, 29
36.6869849, -118.9584635, 27.000, 14:51:50.357, 18, 0.00, 0.71, 93, 2.700, 2.900, 136.300, 532, 100, 95, 18, 22325, -21455, 5230, 5624, 4, 14, 1523656310.358, 86, 0, 1024, 1024, 1025, 1024, 0, 6, 3726, 3729, 3712, 3730, 3729, 3753, 0, 1, 14401, -89.900, 0.000, 136.600, 0.000, 0.000, -3.000, 0.0, , , , , , 99, , , 29, 29, 29
36.6869849, -118.9584635, 27.200, 14:51:50.457, 18, 0.00, 0.70, 93, 2.600, 2.900, 136.400, 532, 100, 95, 18, 22176, -22294, 5230, 5624, 4, 14, 1523656310.458, 93, 0, 1024, 1024, 1025, 1024, 0, 6, 3682, 3691, 3673, 3696, 3695, 3720, 0, 1, 14501, -89.900, 0.000, 136.600, 0.000, 0.000, -2.900, 0.0, , , , , , 99, , , 29, 29, 29
36.6869849, -118.9584636, 27.500, 14:51:50.557, 18, 0.00, 0.70, 93, 2.600, 2.900, 136.400, 532, 100, 95, 18, 22176, -22294, 5230, 5624, 4, 14, 1523656310.558, 90, 0, 1024, 1024, 1025, 1024, 0, 6, 3682, 3691, 3673, 3696, 3695, 3720, 0, 1, 14601, -89.900, 0.000, 136.600, 0.000, 0.000, -2.900, 0.0, , , , , , 99, , , 29, 29, 29
36.6869849, -118.9584636, 27.800, 14:51:50.657, 18, 0.00, 0.70, 93, 2.600, 2.900, 136.400, 532, 100, 95, 18, 22176, -22294, 5230, 5624, 4, 14, 1523656310.658, 65, 0, 1024, 1024, 1025, 1024, 0, 6, 3682, 3691, 3673, 3696, 3695, 3720, 0, 1, 14702, -89.900, 0.000, 136.600, 0.000, 0.000, -2.900, 0.0, , , , , , 99, , , 29, 29, 29
36.6869850, -118.9584636, 28.100, 14:51:50.757, 18, 0.00, 0.70, 93, 2.600, 2.900, 136.300, 532, 100, 95, 18, 22176, -22294, 5230, 5624, 4, 14, 1523656310.758, 55, 0, 1024, 1024, 1025, 1024, 0, 6, 3682, 3691, 3673, 3696, 3695, 3720, 0, 1, 14801, -89.900, 0.000, 136.600, 0.000, 0.000, -3.000, 0.0, , , , , , 99, , , 29, 29, 29
36.6869850, -118.9584636, 28.400, 14:51:50.857, 18, 0.00, 0.70, 93, 2.600, 2.900, 136.200, 532, 100, 95, 18, 22176, -22294, 5230, 5624, 4, 14, 1523656310.858, 66, 0, 1024, 1024, 1025, 1024, 0, 6, 3682, 3691, 3673, 3696, 3695, 3720, 0, 1, 14901, -90.000, 0.000, 136.600, 0.000, 0.000, -3.000, 0.0, , , , , , 99, , , 29, 29, 29
36.6869849, -118.9584636, 28.700, 14:51:50.957, 18, 0.00, 0.69, 93, 2.400, 2.900, 136.300, 532, 100, 96, 18, 22176, -22294, 5230, 5624, 4, 14, 1523656310.958, 58, 0, 1024, 1024, 1025, 1024, 0, 6, 3682, 3691, 3673, 3696, 3695, 3720, 0, 1, 15001, -89.900, 0.000, 136.600, 0.000, 0.000, -3.000, 0.0, , , , , , 99, , , 29, 29, 29
36.6869849, -118.9584637, 29.000, 14:51:51.057, 18, 0.00, 0.69, 93, 2.300, 2.900, 136.300, 532, 100, 96, 18, 22176, -22294, 5230, 5624, 4, 14, 1523656311.058, 42, 0, 1024, 1024, 1025, 1024, 0, 6, 3682, 3691, 3673, 3696, 3695, 3720, 0, 1, 15101, -89.900, 0.000, 136.600, 0.000, 0.000, -3.100, 0.0, , , , , , 99, , , 29, 29, 29
36.6869849, -118.9584637, 29.300, 14:51:51.158, 18, 0.00, 0.69, 93, 2.300, 3.000, 136.300, 532, 100, 96, 18, 22176, -22294, 5230, 5624, 4, 14, 1523656311.158, 27, 0, 1024, 1024, 1025, 1024, 0, 6, 3682, 3691, 3673, 3696, 3695, 3720, 0, 1, 15201, -89.900, 0.000, 136.600, 0.000, 0.000, -3.000, 0.0, , , , , , 99, , , 29, 29, 29
36.6869849, -118.9584638, 29.600, 14:51:51.257, 18, 0.00, 0.69, 93, 2.300, 3.000, 136.200, 532, 100, 96, 18, 22176, -22294, 5230, 5624, 4, 14, 1523656311.258, 60, 0, 1024, 1024, 1025, 1024, 0, 6, 3682, 3691, 3673, 3696, 3695, 3720, 0, 1, 15301, -89.900, 0.000, 136.600, 0.000, 0.000, -3.000, 0.0, , , , , , 99, , , 29, 29, 29
36.6869848, -118.9584638, 30.000, 14:51:51.357, 18, 0.00, 0.68, 93, 2.300, 2.900, 136.100, 532, 100, 96, 19, 22146, -22216, 5230, 5624, 4, 14, 1523656311.358, 62, 0, 1024, 1024, 1025, 1024, 0, 6, 3684, 3689, 3676, 3697, 3700, 3717, 0, 1, 15401, -89.900, 0.000, 136.600, 0.000, 0.000, -3.100, 0.0, , , , , , 99, , , 29, 29, 29
36.6869849, -118.9584638, 30.300, 14:51:51.457, 18, 0.00, 0.68, 93, 2.400, 2.900, 136.100, 532, 100, 97, 19, 22146, -22216, 5230, 5624, 4, 14, 1523656311.458, 52, 0, 1024, 1024, 1025, 1024, 0, 6, 3684, 3689, 3676, 3697, 3700, 3717, 0, 1, 15501, -89.900, 0.000, 136.600, 0.000, 0.000, -3.000, 0.0, , , , , , 99, , , 29, 29, 29
36.6869849, -118.9584638, 30.600, 14:51:51.557, 18, 0.00, 0.68, 93, 2.600, 2.900, 136.100, 532, 100, 97, 19, 22146, -22216, 5230, 5624, 4, 14, 1523656311.557, 31, 0, 1024, 1024, 1025, 1024, 0, 6, 3684, 3689, 3676, 3697, 3700, 3717, 0, 1, 15601, -90.000, 0.000, 136.600, 0.000, 0.000, -3.100, 0.0, , , , , , 99, , , 29, 29, 29
36.6869849, -118.9584638, 30.900, 14:51:51.657, 18, 0.00, 0.68, 93, 2.900, 2.800, 136.200, 532, 100, 97, 19, 22146, -22216, 5230, 5624, 4, 14, 1523656311.658, 26, 0, 1024, 1024, 1025, 1024, 0, 6, 3684, 3689, 3676, 3697, 3700, 3717, 0, 1, 15701, -89.900, 0.000, 136.600, 0.000, 0.000, -3.100, 0.0, , , , , , 99, , , 29, 29, 29
36.6869849, -118.9584638, 31.300, 14:51:51.757, 18, 0.00, 0.68, 93, 2.900, 2.900, 136.200, 532, 100, 97, 19, 22146, -22216, 5230, 5624, 4, 14, 1523656311.758, 31, 0, 1024, 1024, 1025, 1024, 0, 6, 3684, 3689, 3676, 3697, 3700, 3717, 0, 1, 15801, -89.900, 0.000, 136.600, 0.000, 0.000, -3.100, 0.0, , , , , , 99, , , 29, 29, 29
36.6869849, -118.9584638, 31.600, 14:51:51.858, 18, 0.00, 0.68, 93, 2.700, 3.000, 136.200, 532, 100, 97, 19, 22146, -22216, 5230, 5624, 4, 14, 1523656311.859, 5, 0, 1024, 1024, 1025, 1024, 0, 6, 3684, 3689, 3676, 3697, 3700, 3717, 0, 1, 15902, -89.900, 0.000, 136.600, 0.000, 0.000, -3.000, 0.0, , , , , , 99, , , 29, 29, 29
36.6869849, -118.9584638, 31.600, 14:51:51.957, 18, 0.00, 0.68, 93, 2.700, 3.000, 136.200, 532, 100, 97, 19, 22146, -22216, 5230, 5624, 4, 14, 1523656311.958, 105, 0, 1024, 1024, 1025, 1024, 0, 6, 3684, 3689, 3676, 3697, 3700, 3717, 0, 1, 16001, -89.900, 0.000, 136.600, 0.000, 0.000, -3.000, 0.0, , , , , , 99, , , 29, 29, 29
36.6869850, -118.9584637, 32.200, 14:51:52.066, 18, 0.00, 0.69, 93, 2.800, 3.100, 136.200, 532, 100, 98, 19, 22146, -22216, 5230, 5624, 4, 14, 1523656312.066, 4, 0, 1024, 1024, 1025, 1024, 0, 6, 3684, 3689, 3676, 3697, 3700, 3717, 0, 1, 16109, -89.900, 0.000, 136.600, 0.000, 0.000, -2.900, 0.0, , , , , , 99, , , 29, 29, 29
36.6869850, -118.9584637, 32.200, 14:51:52.157, 18, 0.00, 0.69, 93, 2.800, 3.100, 136.200, 532, 100, 98, 19, 22146, -22216, 5230, 5624, 4, 14, 1523656312.158, 97, 0, 1024, 1024, 1025, 1024, 0, 6, 3684, 3689, 3676, 3697, 3700, 3717, 0, 1, 16202, -89.900, 0.000, 136.600, 0.000, 0.000, -2.900, 0.0, , , , , , 99, , , 29, 29, 29
36.6869850, -118.9584637, 32.800, 14:51:52.258, 18, 0.00, 0.69, 93, 2.900, 3.200, 136.200, 532, 100, 98, 19, 22146, -22216, 5230, 5624, 4, 14, 1523656312.259, 6, 0, 1024, 1024, 1025, 1024, 0, 6, 3684, 3689, 3676, 3697, 3700, 3717, 0, 1, 16302, -89.900, 0.000, 136.600, 0.000, 0.000, -3.000, 0.0, , , , , , 99, , , 29, 29, 29
36.6869850, -118.9584637, 32.800, 14:51:52.357, 18, 0.00, 0.69, 93, 2.900, 3.200, 136.200, 532, 100, 98, 19, 22146, -22216, 5230, 5624, 4, 14, 1523656312.357, 104, 0, 1024, 1024, 1025, 1024, 0, 6, 3684, 3689, 3676, 3697, 3700, 3717, 0, 1, 16401, -89.900, 0.000, 136.600, 0.000, 0.000, -3.000, 0.0, , , , , , 99, , , 29, 29, 29
36.6869850, -118.9584637, 33.400, 14:51:52.457, 18, 0.00, 0.69, 93, 3.000, 3.100, 136.200, 532, 100, 98, 19, 22133, -21981, 5230, 5624, 4, 14, 1523656312.458, 96, 0, 1024, 1024, 1025, 1024, 0, 6, 3684, 3689, 3676, 3697, 3700, 3717, 0, 1, 16501, -89.900, 0.000, 136.600, 0.000, 0.000, -2.900, 0.0, , , , , , 99, , , 29, 29, 29
36.6869850, -118.9584637, 33.700, 14:51:52.557, 18, 0.00, 0.68, 93, 2.700, 2.900, 136.100, 532, 100, 100, 19, 22133, -21981, 5230, 5624, 4, 14, 1523656312.558, 77, 0, 1024, 1024, 1025, 1024, 0, 6, 3684, 3689, 3676, 3697, 3700, 3717, 0, 1, 16601, -89.900, 0.000, 136.600, 0.000, 0.000, -2.900, 0.0, , , , , , 99, , , 29, 29, 29
36.6869850, -118.9584637, 33.700, 14:51:52.657, 18, 0.00, 0.68, 93, 2.700, 2.900, 136.100, 532, 100, 100, 19, 22133, -21981, 5230, 5624, 4, 14, 1523656312.658, 177, 0, 1024, 1024, 1025, 1024, 0, 6, 3684, 3689, 3676, 3697, 3700, 3717, 0, 1, 16701, -90.000, 0.000, 136.600, 0.000, 0.000, -2.900, 0.0, , , , , , 99, , , 29, 29, 29
36.6869850, -118.9584638, 34.600, 14:51:52.760, 18, 0.00, 0.68, 93, 2.900, 2.700, 136.200, 532, 100, 100, 19, 22133, -21981, 5230, 5624, 4, 14, 1523656312.760, 5, 0, 1024, 1024, 1025, 1024, 0, 6, 3684, 3689, 3676, 3697, 3700, 3717, 0, 1, 16804, -89.900, 0.000, 136.600, 0.000, 0.000, -2.900, 0.0, , , , , , 99, , , 29, 29, 29
36.6869850, -118.9584638, 34.600, 14:51:52.857, 18, 0.00, 0.68, 93, 2.900, 2.700, 136.200, 532, 100, 100, 19, 22133, -21981, 5230, 5624, 4, 14, 1523656312.858, 103, 0, 1024, 1024, 1025, 1024, 0, 6, 3684, 3689, 3676, 3697, 3700, 3717, 0, 1, 16901, -89.900, 0.000, 136.600, 0.000, 0.000, -2.900, 0.0, , , , , , 99, , , 29, 29, 29
36.6869850, -118.9584638, 34.900, 14:51:52.957, 18, 0.00, 0.68, 93, 2.900, 2.700, 136.200, 532, 100, 98, 19, 22133, -21981, 5230, 5624, 4, 14, 1523656312.958, 92, 0, 1024, 1024, 1025, 1024, 0, 6, 3684, 3689, 3676, 3697, 3700, 3717, 0, 1, 17001, -89.900, 0.000, 136.600, 0.000, 0.000, -2.900, 0.0, , , , , , 99, , , 29, 29, 29
36.6869850, -118.9584638, 35.200, 14:51:53.057, 18, 0.00, 0.67, 93, 2.700, 2.700, 136.100, 532, 100, 98, 19, 22133, -21981, 5230, 5624, 4, 14, 1523656313.058, 87, 0, 1024, 1024, 1025, 1024, 0, 6, 3684, 3689, 3676, 3697, 3700, 3717, 0, 1, 17101, -89.900, 0.000, 136.600, 0.000, 0.000, -2.900, 0.0, , , , , , 99, , , 29, 29, 29
36.6869850, -118.9584639, 35.500, 14:51:53.157, 18, 0.00, 0.67, 93, 2.600, 2.800, 136.100, 532, 100, 98, 19, 22133, -21981, 5230, 5624, 4, 14, 1523656313.158, 60, 0, 1024, 1024, 1025, 1024, 0, 6, 3684, 3689, 3676, 3697, 3700, 3717, 0, 1, 17201, -89.900, 0.000, 136.600, 0.000, 0.000, -2.900, 0.0, , , , , , 99, , , 29, 29, 29
36.6869850, -118.9584639, 35.800, 14:51:53.257, 18, 0.00, 0.67, 93, 2.400, 2.800, 136.000, 532, 100, 98, 19, 22133, -21981, 5230, 5624, 4, 14, 1523656313.258, 45, 0, 1024, 1024, 1025, 1024, 0, 6, 3684, 3689, 3676, 3697, 3700, 3717, 0, 1, 17301, -89.900, 0.000, 136.600, 0.000, 0.000, -2.900, 0.0, , , , , , 99, , , 29, 29, 29
36.6869850, -118.9584639, 36.100, 14:51:53.357, 18, 0.00, 0.67, 93, 2.300, 2.800, 136.000, 532, 100, 98, 19, 22133, -21981, 5230, 5624, 4, 14, 1523656313.358, 61, 0, 1024, 1024, 1025, 1024, 0, 6, 3678, 3685, 3676, 3704, 3696, 3720, 0, 1, 17401, -89.900, 0.000, 136.600, 0.000, 0.000, -2.900, 0.0, , , , , , 99, , , 29, 29, 29
36.6869850, -118.9584640, 36.400, 14:51:53.457, 18, 0.00, 0.67, 93, 2.500, 3.000, 136.100, 532, 100, 98, 19, 22133, -21981, 5230, 5624, 4, 14, 1523656313.458, 40, 0, 1024, 1024, 1025, 1024, 0, 6, 3678, 3685, 3676, 3704, 3696, 3720, 0, 1, 17501, -89.900, 0.000, 136.600, 0.000, 0.000, -2.900, 0.0, , , , , , 99, , , 29, 29, 29
36.6869850, -118.9584640, 36.700, 14:51:53.557, 18, 0.00, 0.66, 93, 2.700, 3.000, 136.100, 532, 100, 98, 19, 22133, -21981, 5230, 5624, 4, 14, 1523656313.558, 46, 0, 1024, 1024, 1025, 1024, 0, 6, 3678, 3685, 3676, 3704, 3696, 3720, 0, 1, 17601, -89.900, 0.000, 136.600, 0.000, 0.000, -2.900, 0.0, , , , , , 99, , , 29, 29, 29
36.6869850, -118.9584640, 37.000, 14:51:53.657, 18, 0.00, 0.66, 93, 2.400, 2.900, 136.000, 532, 100, 98, 19, 22133, -21981, 5230, 5624, 4, 14, 1523656313.658, 55, 0, 1024, 1024, 1025, 1024, 0, 6, 3678, 3685, 3676, 3704, 3696, 3720, 0, 1, 17701, -90.000, 0.000, 136.600, 0.000, 0.000, -2.900, 0.0, , , , , , 99, , , 29, 29, 29
36.6869850, -118.9584641, 37.200, 14:51:53.757, 18, 0.00, 0.66, 93, 1.900, 2.500, 135.900, 532, 100, 98, 19, 22133, -21981, 5230, 5624, 4, 14, 1523656313.758, 34, 0, 1024, 1024, 1025, 1024, 0, 6, 3678, 3685, 3676, 3704, 3696, 3720, 0, 1, 17801, -89.900, 0.000, 136.600, 0.000, 0.000, -2.900, 0.0, , , , , , 99, , , 29, 29, 29
36.6869850, -118.9584641, 37.500, 14:51:53.857, 18, 0.00, 0.66, 93, 1.700, 2.400, 136.000, 532, 100, 98, 19, 22232, -20770, 5230, 5624, 4, 14, 1523656313.858, 50, 0, 1024, 1024, 1025, 1024, 0, 6, 3692, 3707, 3680, 3715, 3710, 3739, 0, 1, 17901, -90.000, 0.000, 136.600, 0.000, 0.000, -2.800, 0.0, , , , , , 99, , , 29, 29, 29
36.6869850, -118.9584641, 37.800, 14:51:53.957, 18, 0.00, 0.65, 93, 1.700, 2.300, 136.100, 532, 100, 98, 19, 22232, -20770, 5230, 5624, 4, 14, 1523656313.958, 51, 0, 1024, 1024, 1025, 1024, 0, 6, 3692, 3707, 3680, 3715, 3710, 3739, 0, 1, 18001, -89.900, 0.000, 136.600, 0.000, 0.000, -2.700, 0.0, , , , , , 99, , , 29, 29, 29
36.6869849, -118.9584642, 38.100, 14:51:54.057, 18, 0.00, 0.65, 93, 1.600, 2.500, 136.300, 532, 100, 98, 19, 22232, -20770, 5230, 5624, 4, 14, 1523656314.058, 54, 0, 1024, 1024, 1025, 1024, 0, 6, 3692, 3707, 3680, 3715, 3710, 3739, 0, 1, 18101, -89.900, 0.000, 136.600, 0.000, 0.000, -2.800, 0.0, , , , , , 99, , , 29, 29, 29
36.6869849, -118.9584642, 38.400, 14:51:54.157, 18, 0.00, 0.65, 93, 2.000, 3.100, 136.500, 532, 100, 98, 19, 22232, -20770, 5230, 5624, 4, 14, 1523656314.158, 30, 0, 1024, 1024, 1025, 1024, 0, 6, 3692, 3707, 3680, 3715, 3710, 3739, 0, 1, 18201, -89.900, 0.000, 136.600, 0.000, 0.000, -3.000, 0.0, , , , , , 99, , , 29, 29, 29
36.6869849, -118.9584642, 38.700, 14:51:54.279, 18, 0.00, 0.65, 93, 2.500, 3.200, 136.700, 532, 100, 98, 19, 22232, -20770, 5230, 5624, 4, 14, 1523656314.279, 5, 0, 1024, 1024, 1025, 1024, 0, 6, 3692, 3707, 3680, 3715, 3710, 3739, 0, 1, 18323, -89.900, 0.000, 136.600, 0.000, 0.000, -3.100, 0.0, , , , , , 99, , , 29, 29, 29
36.6869850, -118.9584642, 39.000, 14:51:54.357, 18, 0.00, 0.65, 93, 2.800, 3.300, 136.900, 532, 100, 98, 19, 22232, -20770, 5230, 5624, 4, 14, 1523656314.358, 38, 0, 1024, 1024, 1025, 1024, 0, 6, 3692, 3707, 3680, 3715, 3710, 3739, 0, 1, 18401, -89.900, 0.000, 136.600, 0.000, 0.000, -3.100, 0.0, , , , , , 99, , , 29, 29, 29
36.6869850, -118.9584642, 39.300, 14:51:54.457, 18, 0.00, 0.65, 93, 2.600, 3.300, 136.700, 532, 100, 97, 19, 22232, -20770, 5230, 5624, 4, 14, 1523656314.457, 25, 0, 1024, 1024, 1025, 1024, 0, 6, 3692, 3707, 3680, 3715, 3710, 3739, 0, 1, 18500, -89.900, 0.000, 136.600, 0.000, 0.000, -3.000, 0.0, , , , , , 99, , , 29, 29, 29
36.6869850, -118.9584643, 39.600, 14:51:54.562, 18, 0.00, 0.64, 93, 2.300, 3.200, 136.400, 532, 100, 97, 19, 22232, -20770, 5230, 5624, 4, 14, 1523656314.563, 7, 0, 1024, 1024, 1025, 1024, 0, 6, 3692, 3707, 3680, 3715, 3710, 3739, 0, 1, 18606, -89.900, 0.000, 136.600, 0.000, 0.000, -2.900, 0.0, , , , , , 99, , , 29, 29, 29
36.6869850, -118.9584643, 39.900, 14:51:54.657, 18, 0.00, 0.63, 93, 2.100, 2.600, 136.100, 532, 100, 97, 19, 22232, -20770, 5230, 5624, 4, 14, 1523656314.657, 11, 0, 1024, 1024, 1025, 1024, 0, 6, 3692, 3707, 3680, 3715, 3710, 3739, 0, 1, 18701, -90.000, 0.000, 136.600, 0.000, 0.000, -2.900, 0.0, , , , , , 99, , , 29, 29, 29
36.6869850, -118.9584644, 40.200, 14:51:54.757, 18, 0.00, 0.63, 93, 1.900, 2.200, 135.800, 532, 100, 97, 19, 22232, -20770, 5230, 5624, 4, 14, 1523656314.759, 14, 0, 1024, 1024, 1025, 1024, 0, 6, 3692, 3707, 3680, 3715, 3710, 3739, 0, 1, 18803, -90.000, 0.000, 136.600, 0.000, 0.000, -2.900, 0.0, , , , , , 99, , , 29, 29, 29
36.6869850, -118.9584645, 40.500, 14:51:54.857, 18, 0.00, 0.62, 93, 1.800, 2.100, 135.700, 532, 100, 97, 19, 22119, -21662, 5174, 5624, 4, 14, 1523656314.857, 11, 0, 1024, 1024, 1025, 1024, 0, 6, 3692, 3707, 3680, 3715, 3710, 3739, 0, 1, 18900, -90.000, 0.000, 136.600, 0.000, 0.000, -2.900, 0.0, , , , , , 99, , , 29, 29, 29
36.6869849, -118.9584646, 40.800, 14:51:54.962, 18, 0.00, 0.61, 93, 1.700, 2.200, 135.600, 532, 100, 97, 19, 22119, -21662, 5174, 5624, 4, 14, 1523656314.962, 12, 0, 1024, 1024, 1025, 1024, 0, 6, 3692, 3672, 3667, 3686, 3703, 3730, 0, 1, 19005, -90.000, 0.000, 136.600, 0.000, 0.000, -2.900, 0.0, , , , , , 99, , , 29, 29, 29
36.6869849, -118.9584646, 41.100, 14:51:55.057, 18, 0.00, 0.61, 93, 1.600, 2.500, 135.500, 532, 100, 97, 19, 22119, -21662, 5174, 5624, 4, 14, 1523656315.058, 93, 0, 1024, 1024, 1025, 1024, 0, 6, 3692, 3672, 3667, 3686, 3703, 3730, 0, 1, 19101, -89.900, 0.000, 136.600, 0.000, 0.000, -2.900, 0.0, , , , , , 99, , , 29, 29, 29
36.6869849, -118.9584647, 41.700, 14:51:55.172, 18, 0.00, 0.61, 93, 1.400, 2.900, 135.700, 532, 100, 97, 19, 22119, -21662, 5174, 5624, 4, 14, 1523656315.174, 7, 0, 1024, 1024, 1025, 1024, 0, 6, 3692, 3672, 3667, 3686, 3703, 3730, 0, 1, 19218, -89.900, 0.000, 136.600, 0.000, 0.000, -2.900, 0.0, , , , , , 99, , , 29, 29, 29
36.6869849, -118.9584647, 41.700, 14:51:55.257, 18, 0.00, 0.61, 93, 1.400, 2.900, 135.700, 532, 100, 97, 19, 22119, -21662, 5174, 5624, 4, 14, 1523656315.258, 91, 0, 1024, 1024, 1025, 1024, 0, 6, 3692, 3672, 3667, 3686, 3703, 3730, 0, 1, 19301, -89.900, 0.000, 136.600, 0.000, 0.000, -2.900, 0.0, , , , , , 99, , , 29, 29, 29
36.6869849, -118.9584648, 42.300, 14:51:55.369, 18, 0.00, 0.60, 92, 1.600, 2.900, 135.900, 532, 100, 98, 19, 22119, -21662, 5174, 5624, 4, 14, 1523656315.369, 13, 0, 1024, 1024, 1025, 1024, 0, 6, 3692, 3672, 3667, 3686, 3703, 3730, 0, 1, 19413, -89.900, 0.000, 136.600, 0.000, 0.000, -2.900, 0.0, , , , , , 99, , , 29, 29, 29
36.6869849, -118.9584648, 42.300, 14:51:55.457, 18, 0.00, 0.60, 92, 1.600, 2.900, 135.900, 532, 100, 98, 19, 22119, -21662, 5174, 5624, 4, 14, 1523656315.458, 101, 0, 1024, 1024, 1025, 1024, 0, 6, 3692, 3672, 3667, 3686, 3703, 3730, 0, 1, 19501, -89.900, 0.000, 136.600, 0.000, 0.000, -2.900, 0.0, , , , , , 99, , , 29, 29, 29
36.6869849, -118.9584648, 42.600, 14:51:55.557, 18, 0.00, 0.60, 92, 1.800, 2.700, 136.100, 532, 100, 98, 19, 22119, -21662, 5174, 5624, 4, 14, 1523656315.558, 82, 0, 1024, 1024, 1025, 1024, 0, 6, 3692, 3672, 3667, 3686, 3703, 3730, 0, 1, 19601, -89.900, 0.000, 136.600, 0.000, 0.000, -3.000, 0.0, , , , , , 99, , , 29, 29, 29
36.6869849, -118.9584648, 42.900, 14:51:55.657, 18, 0.00, 0.59, 92, 1.800, 2.300, 136.400, 532, 100, 98, 19, 22119, -21662, 5174, 5624, 4, 14, 1523656315.658, 60, 0, 1024, 1024, 1025, 1024, 0, 6, 3692, 3672, 3667, 3686, 3703, 3730, 0, 1, 19701, -90.000, 0.000, 136.600, 0.000, 0.000, -2.900, 0.0, , , , , , 99, , , 29, 29, 29
36.6869849, -118.9584648, 43.200, 14:51:55.757, 18, 0.00, 0.59, 92, 1.600, 2.100, 136.700, 532, 100, 98, 19, 22119, -21662, 5174, 5624, 4, 14, 1523656315.758, 62, 0, 1024, 1024, 1025, 1024, 0, 6, 3692, 3672, 3667, 3686, 3703, 3730, 0, 1, 19801, -89.900, 0.000, 136.600, 0.000, 0.000, -2.900, 0.0, , , , , , 99, , , 29, 29, 29
36.6869849, -118.9584648, 43.500, 14:51:55.858, 18, 0.00, 0.60, 92, 2.000, 2.500, 136.900, 532, 100, 98, 19, 22115, -21197, 5174, 5624, 4, 14, 1523656315.859, 66, 0, 1024, 1024, 1025, 1024, 0, 6, 3670, 3682, 3651, 3686, 3681, 3705, 0, 1, 19903, -89.900, 0.000, 136.600, 0.000, 0.000, -2.900, 0.0, , , , , , 99, , , 29, 29, 29
36.6869850, -118.9584647, 43.800, 14:51:55.957, 18, 0.00, 0.60, 92, 2.400, 2.900, 136.900, 532, 100, 99, 19, 22115, -21197, 5174, 5624, 4, 14, 1523656315.958, 65, 0, 1024, 1024, 1025, 1024, 0, 6, 3670, 3682, 3651, 3686, 3681, 3705, 0, 1, 20001, -89.900, 0.000, 136.600, 0.000, 0.000, -3.000, 0.0, , , , , , 99, , , 29, 29, 29
36.6869850, -118.9584647, 44.100, 14:51:56.057, 18, 0.00, 0.60, 92, 2.900, 3.100, 136.800, 532, 100, 99, 19, 22115, -21197, 5174, 5624, 4, 14, 1523656316.058, 41, 0, 1024, 1024, 1025, 1024, 0, 6, 3670, 3682, 3651, 3686, 3681, 3705, 0, 1, 20101, -89.900, 0.000, 136.600, 0.000, 0.000, -3.000, 0.0, , , , , , 99, , , 29, 29, 29
36.6869850, -118.9584646, 44.500, 14:51:56.157, 18, 0.00, 0.61, 92, 3.300, 3.300, 136.700, 532, 100, 99, 19, 22115, -21197, 5174, 5624, 4, 14, 1523656316.158, 43, 0, 1024, 1024, 1025, 1024, 0, 6, 3670, 3682, 3651, 3686, 3681, 3705, 0, 1, 20201, -89.900, 0.000, 136.600, 0.000, 0.000, -3.000, 0.0, , , , , , 99, , , 29, 29, 29
36.6869851, -118.9584645, 44.800, 14:51:56.257, 18, 0.00, 0.61, 92, 3.700, 3.300, 136.600, 532, 100, 99, 19, 22115, -21197, 5174, 5624, 4, 14, 1523656316.258, 21, 0, 1024, 1024, 1025, 1024, 0, 6, 3670, 3682, 3651, 3686, 3681, 3705, 0, 1, 20301, -89.900, 0.000, 136.600, 0.000, 0.000, -3.100, 0.0, , , , , , 99, , , 29, 29, 29
36.6869851, -118.9584645, 45.100, 14:51:56.357, 18, 0.00, 0.62, 92, 3.900, 3.200, 136.500, 532, 100, 99, 19, 22115, -21197, 5174, 5624, 4, 14, 1523656316.359, 13, 0, 1024, 1024, 1025, 1024, 0, 6, 3670, 3682, 3651, 3686, 3681, 3705, 0, 1, 20402, -89.900, 0.000, 136.600, 0.000, 0.000, -3.000, 0.0, , , , , , 99, , , 29, 29, 29
36.6869851, -118.9584644, 45.400, 14:51:56.457, 18, 0.00, 0.62, 92, 3.900, 3.200, 136.300, 532, 100, 98, 19, 22115, -21197, 5174, 5624, 4, 14, 1523656316.458, 39, 0, 1024, 1024, 1025, 1024, 0, 6, 3670, 3682, 3651, 3686, 3681, 3705, 0, 1, 20501, -89.900, 0.000, 136.600, 0.000, 0.000, -3.000, 0.0, , , , , , 99, , , 29, 29, 29
36.6869852, -118.9584644, 45.700, 14:51:56.557, 18, 0.00, 0.63, 92, 3.900, 3.200, 136.200, 532, 100, 98, 19, 22115, -21197, 5174, 5624, 4, 14, 1523656316.558, 44, 0, 1024, 1024, 1025, 1024, 0, 6, 3670, 3682, 3651, 3686, 3681, 3705, 0, 1, 20601, -89.900, 0.000, 136.600, 0.000, 0.000, -2.900, 0.0, , , , , , 99, , , 29, 29, 29
36.6869852, -118.9584643, 46.000, 14:51:56.657, 18, 0.00, 0.63, 92, 3.800, 3.100, 136.000, 532, 100, 98, 19, 22115, -21197, 5174, 5624, 4, 14, 1523656316.658, 20, 0, 1024, 1024, 1025, 1024, 0, 6, 3670, 3682, 3651, 3686, 3681, 3705, 0, 1, 20702, -89.900, 0.000, 136.600, 0.000, 0.000, -3.000, 0.0, , , , , , 99, , , 29, 29, 29
36.6869852, -118.9584643, 46.300, 14:51:56.756, 18, 0.00, 0.63, 92, 3.900, 3.000, 136.000, 532, 100, 98, 19, 22115, -21197, 5174, 5624, 4, 14, 1523656316.757, 31, 0, 1024, 1024, 1025, 1024, 0, 6, 3670, 3682, 3651, 3686, 3681, 3705, 0, 1, 20801, -89.900, 0.000, 136.600, 0.000, 0.000, -2.900, 0.0, , , , , , 99, , , 29, 29, 29
36.6869852, -118.9584642, 46.600, 14:51:56.858, 18, 0.00, 0.64, 92, 3.700, 2.900, 136.100, 532, 100, 98, 19, 22191, -21095, 5174, 5624, 4, 14, 1523656316.858, 27, 0, 1024, 1024, 1025, 1024, 0, 6, 3700, 3696, 3675, 3699, 3697, 3738, 0, 1, 20902, -89.900, 0.000, 136.600, 0.000, 0.000, -2.900, 0.0, , , , , , 99, , , 29, 29, 29
