Latitude, Longitude, Altitude (m), Time, Sats, Speed (m/s), Range (m), Battery (%), Roll (deg), Pitch (deg), Yaw (deg), Images, HD Signal (%), RC Signal (%), Battery Temp (C), Battery Voltage (mV), Battery Current (mA), Battery Energy (mAh), Battery Capacity (mAh), Battery Discharges, flyState, timestamp (Unix), LastUpdate (ms), radioChannel, Rc_elevator, Rc_aileron, Rc_throttle, Rc_rudder, Rc_gyro, Dronetype, Battery_Cell1 (mV), Battery_Cell2 (mV), Battery_Cell3 (mV), Battery_Cell4 (mV), Battery_Cell5 (mV), Battery_Cell6 (mV), Video, isFlying, elapsedTime (ms), gimbalPitch (deg), gimbalRoll (deg), gimbalYaw (deg), VelocityX (m/s), VelocityY (m/s), VelocityZ (m/s), GroundSmear (cm), App Version, Aircraft Name, Aircraft Firmware, Aircraft Serial Number, Battery Serial Number, Battery Lifetime (%), App_Tip, App_Warning, CurrentFlightStartingIndex, CurrentFlightLastVisitedWaypoint, PreviousFlightEndingWaypointIndex
36.6869866, -118.9584878, 0.000, 14:26:45.133, 18, 0.10, 0.04, 100, -1.000, -2.600, 140.700, 269, 100, 100, 15, 25504, -3854, 5567, 5567, 7, 11, 1523654805.133, 99, 0, 1024, 1024, 1024, 1024, 0, 6, 4262, 4233, 4253, 4243, 4265, 4231, 0, 1, 2919, -90.000, 0.000, 140.400, 0.000, 0.100, 0.000, 0.0, MapPilot_2.7.4_02272018, Dendroctonus I, 1.3.1.00, 041DDC1887, 1058171200161, 99, DJI_0269.jpg, Starting Mission from Lat/Long: 36.68699/-118.95849 Camera: Zenmuse X3 - Overlap: 90/90 - Active Connection: Yes, 15, 15, 15
36.6869866, -118.9584876, 0.000, 14:26:45.216, 18, 0.20, 0.06, 100, -1.200, -2.200, 140.700, 269, 100, 100, 15, 25504, -3854, 5567, 5567, 7, 11, 1523654805.217, 46, 0, 1024, 1024, 1024, 1024, 0, 6, 4262, 4233, 4253, 4243, 4265, 4231, 0, 1, 3002, -89.900, 0.000, 140.400, 0.000, 0.200, -0.200, 0.0, , , , , , 99, , , 15, 15, 15
36.6869865, -118.9584874, 0.000, 14:26:45.316, 18, 0.20, 0.08, 100, -0.300, -1.100, 140.700, 269, 100, 100, 15, 25504, -3854, 5567, 5567, 7, 11, 1523654805.316, 61, 0, 1024, 1024, 1024, 1024, 0, 6, 4262, 4233, 4253, 4243, 4265, 4231, 0, 1, 3101, -89.900, 0.000, 140.400, 0.000, 0.200, -0.300, 0.0, , , , , , 99, , , 15, 15, 15
36.6869864, -118.9584871, 0.000, 14:26:45.415, 18, 0.20, 0.11, 100, 0.200, 0.000, 140.700, 269, 100, 100, 15, 25504, -3854, 5567, 5567, 7, 11, 1523654805.416, 77, 0, 1024, 1024, 1024, 1024, 0, 6, 4262, 4233, 4253, 4243, 4265, 4231, 0, 1, 3201, -89.900, 0.000, 140.400, 0.000, 0.200, -0.300, 0.0, , , , , , 99, , , 15, 15, 15
36.6869863, -118.9584867, 0.000, 14:26:45.516, 18, 0.30, 0.14, 100, 0.800, 1.200, 140.700, 269, 100, 100, 15, 25504, -3854, 5567, 5567, 7, 11, 1523654805.516, 51, 0, 1024, 1024, 1024, 1024, 0, 6, 4262, 4233, 4253, 4243, 4265, 4231, 0, 1, 3301, -89.900, 0.000, 140.400, 0.000, 0.300, -0.300, 0.0, , , , , , 99, , , 15, 15, 15
36.6869862, -118.9584863, 0.100, 14:26:45.615, 18, 0.30, 0.17, 100, 1.600, 2.200, 140.800, 269, 100, 100, 15, 25504, -3854, 5567, 5567, 7, 11, 1523654805.615, 67, 0, 1024, 1024, 1024, 1024, 0, 6, 4262, 4233, 4253, 4243, 4265, 4231, 0, 1, 3401, -89.900, 0.000, 140.400, 0.000, 0.300, -0.300, 0.0, , , , , , 99, , , 15, 15, 15
36.6869862, -118.9584859, 0.100, 14:26:45.715, 18, 0.30, 0.20, 100, 2.200, 2.800, 140.800, 269, 100, 100, 15, 25504, -3854, 5567, 5567, 7, 11, 1523654805.716, 57, 0, 1024, 1024, 1024, 1024, 0, 6, 4262, 4233, 4253, 4243, 4265, 4231, 0, 1, 3501, -89.900, 0.000, 140.400, 0.000, 0.300, -0.300, 0.0, , , , , , 99, , , 15, 15, 15
36.6869861, -118.9584856, 0.200, 14:26:45.815, 18, 0.20, 0.24, 100, 2.300, 2.800, 140.900, 269, 100, 100, 15, 24386, -7783, 5567, 5567, 7, 11, 1523654805.816, 46, 0, 1024, 1024, 1024, 1024, 0, 6, 4065, 4061, 4039, 4066, 4089, 4016, 0, 1, 3601, -89.900, 0.000, 140.400, 0.000, 0.200, -0.300, 0.0, , , , , , 99, , , 15, 15, 15
36.6869861, -118.9584853, 0.200, 14:26:45.915, 18, 0.20, 0.26, 100, 2.300, 2.600, 140.900, 269, 100, 100, 15, 24386, -7783, 5567, 5567, 7, 11, 1523654805.916, 53, 0, 1024, 1024, 1024, 1024, 0, 6, 4065, 4061, 4039, 4066, 4089, 4016, 0, 1, 3701, -89.900, 0.000, 140.400, 0.000, 0.200, -0.300, 0.0, , , , , , 99, , , 15, 15, 15
36.6869860, -118.9584851, 0.200, 14:26:46.016, 16, 0.20, 0.28, 100, 2.300, 2.400, 140.900, 269, 100, 100, 15, 24386, -7783, 5567, 5567, 7, 11, 1523654806.016, 53, 0, 1024, 1024, 1024, 1024, 0, 6, 4065, 4061, 4039, 4066, 4089, 4016, 0, 1, 3802, -89.900, 0.000, 140.400, 0.000, 0.200, -0.300, 0.0, , , , , , 99, , , 15, 15, 15
36.6869860, -118.9584849, 0.300, 14:26:46.115, 16, 0.10, 0.30, 100, 1.900, 2.000, 140.900, 269, 100, 100, 15, 24386, -7783, 5567, 5567, 7, 11, 1523654806.116, 53, 0, 1024, 1024, 1024, 1024, 0, 6, 4065, 4061, 4039, 4066, 4089, 4016, 0, 1, 3901, -90.000, 0.000, 140.400, 0.000, 0.100, -0.400, 0.0, , , , , , 99, , , 15, 15, 15
36.6869860, -118.9584847, 0.300, 14:26:46.215, 17, 0.10, 0.31, 100, 1.700, 1.800, 140.900, 269, 100, 100, 15, 24386, -7783, 5567, 5567, 7, 11, 1523654806.216, 34, 0, 1024, 1024, 1024, 1024, 0, 6, 4065, 4061, 4039, 4066, 4089, 4016, 0, 1, 4002, -90.000, 0.000, 140.400, 0.000, 0.100, -0.400, 0.0, , , , , , 99, , , 15, 15, 15
36.6869859, -118.9584845, 0.300, 14:26:46.315, 17, 0.10, 0.33, 100, 1.400, 1.700, 140.900, 269, 100, 100, 15, 24386, -7783, 5567, 5567, 7, 11, 1523654806.316, 25, 0, 1024, 1024, 1024, 1024, 0, 6, 4065, 4061, 4039, 4066, 4089, 4016, 0, 1, 4101, -90.000, 0.000, 140.400, 0.000, 0.100, -0.400, 0.0, , , , , , 99, , , 15, 15, 15
36.6869859, -118.9584843, 0.400, 14:26:46.415, 16, 0.10, 0.35, 100, 1.100, 1.400, 140.900, 269, 100, 100, 15, 24386, -7783, 5567, 5567, 7, 11, 1523654806.416, 32, 0, 1024, 1024, 1024, 1024, 0, 6, 4065, 4061, 4039, 4066, 4089, 4016, 0, 1, 4202, -90.000, 0.000, 140.400, 0.000, 0.100, -0.400, 0.0, , , , , , 99, , , 15, 15, 15
36.6869859, -118.9584841, 0.400, 14:26:46.516, 16, 0.10, 0.37, 100, 1.300, 1.200, 140.900, 269, 100, 100, 15, 24386, -7783, 5567, 5567, 7, 11, 1523654806.517, 17, 0, 1024, 1024, 1024, 1024, 0, 6, 4065, 4061, 4039, 4066, 4089, 4016, 0, 1, 4302, -90.000, 0.000, 140.400, 0.000, 0.100, -0.500, 0.0, , , , , , 99, , , 15, 15, 15
36.6869860, -118.9584839, 0.500, 14:26:46.615, 17, 0.10, 0.38, 100, 1.400, 1.200, 140.800, 269, 100, 100, 15, 24386, -7783, 5567, 5567, 7, 11, 1523654806.615, 12, 0, 1024, 1024, 1024, 1024, 0, 6, 4065, 4061, 4039, 4066, 4089, 4016, 0, 1, 4401, -90.000, 0.000, 140.400, 0.000, 0.100, -0.500, 0.0, , , , , , 99, , , 15, 15, 15
36.6869860, -118.9584836, 0.500, 14:26:46.716, 17, 0.10, 0.41, 100, 1.700, 1.200, 140.700, 269, 100, 100, 15, 24386, -7783, 5567, 5567, 7, 11, 1523654806.717, 11, 0, 1024, 1024, 1024, 1024, 0, 6, 4065, 4061, 4039, 4066, 4089, 4016, 0, 1, 4502, -89.900, 0.000, 140.400, 0.000, 0.100, -0.500, 0.0, , , , , , 99, , , 15, 15, 15
36.6869860, -118.9584834, 0.600, 14:26:46.815, 18, 0.10, 0.43, 100, 2.000, 1.400, 140.800, 269, 100, 100, 15, 23769, -15979, 5567, 5567, 7, 11, 1523654806.816, 19, 0, 1024, 1024, 1024, 1024, 0, 6, 3954, 3960, 3947, 3977, 3965, 3938, 0, 1, 4601, -89.900, 0.000, 140.400, 0.000, 0.100, -0.400, 0.0, , , , , , 99, , , 15, 15, 15
36.6869860, -118.9584834, 0.600, 14:26:46.915, 18, 0.10, 0.43, 100, 2.000, 1.400, 140.800, 269, 100, 100, 15, 23769, -15979, 5567, 5567, 7, 11, 1523654806.916, 119, 0, 1024, 1024, 1024, 1024, 0, 6, 3954, 3960, 3947, 3977, 3965, 3938, 0, 1, 4701, -89.900, 0.000, 140.400, 0.000, 0.100, -0.400, 0.0, , , , , , 99, , , 15, 15, 15
36.6869860, -118.9584829, 0.700, 14:26:47.016, 18, 0.10, 0.47, 100, 3.000, 2.000, 140.900, 269, 100, 100, 15, 23769, -15979, 5567, 5567, 7, 11, 1523654807.017, 4, 0, 1024, 1024, 1024, 1024, 0, 6, 3954, 3960, 3947, 3977, 3965, 3938, 0, 1, 4802, -89.900, 0.000, 140.400, 0.000, 0.100, -0.500, 0.0, , , , , , 99, , , 15, 15, 15
36.6869860, -118.9584829, 0.700, 14:26:47.115, 18, 0.10, 0.47, 100, 3.000, 2.000, 140.900, 269, 100, 100, 15, 23769, -15979, 5567, 5567, 7, 11, 1523654807.115, 103, 0, 1024, 1024, 1024, 1024, 0, 6, 3954, 3960, 3947, 3977, 3965, 3938, 0, 1, 4901, -89.900, 0.000, 140.400, 0.000, 0.100, -0.500, 0.0, , , , , , 99, , , 15, 15, 15
36.6869861, -118.9584828, 0.800, 14:26:47.215, 18, 0.10, 0.48, 100, 3.000, 2.100, 141.000, 269, 100, 100, 15, 23769, -15979, 5567, 5567, 7, 11, 1523654807.217, 92, 0, 1024, 1024, 1024, 1024, 0, 6, 3954, 3960, 3947, 3977, 3965, 3938, 0, 1, 5002, -89.900, 0.000, 140.400, 0.000, 0.100, -0.500, 0.0, , , , , , 99, , , 15, 15, 15
36.6869862, -118.9584826, 0.900, 14:26:47.317, 18, 0.00, 0.49, 100, 3.100, 1.800, 140.800, 269, 100, 100, 15, 23769, -15979, 5567, 5567, 7, 14, 1523654807.318, 82, 0, 1024, 1024, 1024, 1024, 0, 6, 3954, 3960, 3947, 3977, 3965, 3938, 0, 1, 5103, -90.000, 0.000, 140.400, 0.000, 0.000, -0.500, 0.0, , , , , , 99, , , 15, 15, 15
36.6869862, -118.9584825, 1.000, 14:26:47.420, 17, 0.00, 0.50, 100, 3.300, 1.500, 140.700, 269, 100, 100, 15, 23769, -15979, 5567, 5567, 7, 14, 1523654807.420, 6, 0, 1024, 1024, 1024, 1024, 0, 6, 3954, 3960, 3947, 3977, 3965, 3938, 0, 1, 5205, -90.000, 0.000, 140.400, 0.000, 0.000, -0.400, 0.0, , , , , , 99, , , 15, 15, 15
36.6869863, -118.9584824, 1.000, 14:26:47.515, 17, 0.00, 0.50, 100, 2.600, 0.500, 140.700, 269, 100, 100, 15, 23769, -15979, 5567, 5567, 7, 14, 1523654807.516, 93, 0, 1024, 1024, 1024, 1024, 0, 6, 3954, 3960, 3947, 3977, 3965, 3938, 0, 1, 5301, -90.000, 0.000, 140.400, 0.000, 0.000, -0.300, 0.0, , , , , , 99, , , 15, 15, 15
36.6869864, -118.9584824, 1.100, 14:26:47.615, 17, 0.00, 0.51, 100, 2.200, 0.100, 140.600, 269, 100, 100, 15, 23769, -15979, 5567, 5567, 7, 14, 1523654807.615, 79, 0, 1024, 1024, 1024, 1024, 0, 6, 3954, 3960, 3947, 3977, 3965, 3938, 0, 1, 5401, -90.000, 0.000, 140.400, 0.000, 0.000, -0.300, 0.0, , , , , , 99, , , 15, 15, 15
36.6869864, -118.9584823, 1.100, 14:26:47.715, 17, 0.00, 0.51, 100, 2.000, -0.200, 140.600, 269, 100, 100, 15, 23769, -15979, 5567, 5567, 7, 14, 1523654807.716, 62, 0, 1024, 1024, 1024, 1024, 0, 6, 3954, 3960, 3947, 3977, 3965, 3938, 0, 1, 5501, -90.000, 0.000, 140.400, 0.000, 0.000, -0.300, 0.0, , , , , , 99, , , 15, 15, 15
36.6869865, -118.9584823, 1.200, 14:26:47.815, 17, 0.00, 0.51, 100, 1.700, -0.200, 140.700, 269, 100, 100, 15, 23642, -16158, 5567, 5567, 7, 14, 1523654807.816, 59, 0, 1024, 1024, 1024, 1024, 0, 6, 3935, 3941, 3921, 3954, 3960, 3937, 0, 1, 5601, -90.000, 0.000, 140.400, 0.000, 0.000, -0.400, 0.0, , , , , , 99, , , 15, 15, 15
36.6869865, -118.9584822, 1.200, 14:26:47.915, 17, 0.00, 0.52, 100, 1.800, -0.100, 140.800, 269, 100, 100, 15, 23642, -16158, 5567, 5567, 7, 14, 1523654807.916, 44, 0, 1024, 1024, 1024, 1024, 0, 6, 3935, 3941, 3921, 3954, 3960, 3937, 0, 1, 5701, -90.000, 0.000, 140.400, 0.000, 0.000, -0.500, 0.0, , , , , , 99, , , 15, 15, 15
36.6869866, -118.9584821, 1.300, 14:26:48.015, 17, 0.00, 0.53, 100, 2.200, 0.000, 140.900, 269, 100, 100, 15, 23642, -16158, 5567, 5567, 7, 14, 1523654808.016, 55, 0, 1024, 1024, 1024, 1024, 0, 6, 3935, 3941, 3921, 3954, 3960, 3937, 0, 1, 5801, -89.900, 0.000, 140.400, 0.000, 0.000, -0.700, 0.0, , , , , , 99, , , 15, 15, 15
36.6869867, -118.9584820, 1.400, 14:26:48.115, 17, 0.00, 0.54, 100, 2.600, 0.200, 141.000, 269, 100, 100, 15, 23642, -16158, 5567, 5567, 7, 14, 1523654808.116, 51, 0, 1024, 1024, 1024, 1024, 0, 6, 3935, 3941, 3921, 3954, 3960, 3937, 0, 1, 5901, -89.900, 0.000, 140.400, 0.000, 0.000, -0.800, 0.0, , , , , , 99, , , 15, 15, 15
36.6869868, -118.9584819, 1.500, 14:26:48.215, 17, 0.00, 0.54, 100, 2.600, 0.400, 141.000, 269, 100, 100, 15, 23642, -16158, 5567, 5567, 7, 14, 1523654808.216, 40, 0, 1024, 1024, 1024, 1024, 0, 6, 3935, 3941, 3921, 3954, 3960, 3937, 0, 1, 6001, -89.900, 0.000, 140.400, 0.000, 0.000, -1.000, 0.0, , , , , , 99, , , 15, 15, 15
36.6869868, -118.9584818, 1.600, 14:26:48.315, 17, 0.00, 0.56, 100, 2.700, 0.300, 140.900, 269, 100, 100, 15, 23642, -16158, 5567, 5567, 7, 14, 1523654808.316, 51, 0, 1024, 1024, 1024, 1024, 0, 6, 3935, 3941, 3921, 3954, 3960, 3937, 0, 1, 6101, -89.900, 0.000, 140.400, 0.000, 0.000, -1.300, 0.0, , , , , , 99, , , 15, 15, 15
36.6869868, -118.9584816, 1.800, 14:26:48.415, 17, 0.10, 0.57, 100, 3.300, 0.500, 140.700, 269, 100, 100, 15, 23642, -16158, 5567, 5567, 7, 14, 1523654808.416, 54, 0, 1024, 1024, 1024, 1024, 0, 6, 3935, 3941, 3921, 3954, 3960, 3937, 0, 1, 6201, -89.900, 0.000, 140.400, 0.000, 0.100, -1.500, 0.0, , , , , , 99, , , 15, 15, 15
36.6869870, -118.9584814, 1.900, 14:26:48.515, 17, 0.00, 0.59, 100, 3.900, 0.300, 140.500, 269, 100, 100, 15, 23642, -16158, 5567, 5567, 7, 14, 1523654808.516, 55, 0, 1024, 1024, 1024, 1024, 0, 6, 3935, 3941, 3921, 3954, 3960, 3937, 0, 1, 6301, -90.000, 0.000, 140.400, 0.000, 0.000, -1.600, 0.0, , , , , , 99, , , 15, 15, 15
36.6869871, -118.9584812, 2.100, 14:26:48.615, 17, 0.00, 0.61, 100, 4.200, 0.200, 140.300, 269, 100, 100, 15, 23642, -16158, 5567, 5567, 7, 14, 1523654808.615, 22, 0, 1024, 1024, 1024, 1024, 0, 6, 3935, 3941, 3921, 3954, 3960, 3937, 0, 1, 6401, -89.900, 0.000, 140.400, 0.000, 0.000, -1.800, 0.0, , , , , , 99, , , 15, 15, 15
36.6869872, -118.9584810, 2.300, 14:26:48.715, 17, 0.00, 0.63, 100, 4.100, 0.200, 140.200, 269, 100, 100, 15, 23642, -16158, 5567, 5567, 7, 14, 1523654808.716, 36, 0, 1024, 1024, 1024, 1024, 0, 6, 3935, 3941, 3921, 3954, 3960, 3937, 0, 1, 6501, -89.900, 0.000, 140.400, 0.000, 0.000, -2.000, 0.0, , , , , , 99, , , 15, 15, 15
36.6869873, -118.9584808, 2.500, 14:26:48.815, 18, 0.00, 0.65, 100, 3.900, 0.400, 140.200, 269, 100, 100, 15, 23399, -16900, 5567, 5567, 7, 14, 1523654808.816, 35, 0, 1024, 1024, 1024, 1024, 0, 6, 3935, 3941, 3921, 3954, 3960, 3937, 0, 1, 6602, -89.900, 0.000, 140.400, 0.000, 0.000, -2.200, 0.0, , , , , , 99, , , 15, 15, 15
36.6869873, -118.9584805, 2.800, 14:26:48.916, 18, 0.00, 0.67, 100, 3.300, 0.600, 140.400, 269, 100, 100, 15, 23399, -16900, 5567, 5567, 7, 14, 1523654808.916, 34, 0, 1024, 1024, 1024, 1024, 0, 6, 3935, 3941, 3921, 3954, 3960, 3937, 0, 1, 6702, -89.900, 0.000, 140.400, 0.000, 0.000, -2.300, 0.0, , , , , , 99, , , 15, 15, 15
36.6869874, -118.9584803, 3.000, 14:26:49.015, 17, 0.00, 0.69, 100, 3.400, 0.800, 140.700, 269, 100, 100, 15, 23399, -16900, 5567, 5567, 7, 14, 1523654809.017, 37, 0, 1024, 1024, 1024, 1024, 0, 6, 3935, 3941, 3921, 3954, 3960, 3937, 0, 1, 6802, -89.900, 0.000, 140.400, 0.000, 0.000, -2.600, 0.0, , , , , , 99, , , 15, 15, 15
36.6869874, -118.9584803, 3.000, 14:26:49.115, 17, 0.00, 0.69, 100, 3.400, 0.800, 140.700, 269, 100, 100, 15, 23399, -16900, 5567, 5567, 7, 14, 1523654809.116, 136, 0, 1024, 1024, 1024, 1024, 0, 6, 3935, 3941, 3921, 3954, 3960, 3937, 0, 1, 6901, -89.900, 0.000, 140.400, 0.000, 0.000, -2.600, 0.0, , , , , , 99, , , 15, 15, 15
36.6869880, -118.9584798, 3.600, 14:26:49.220, 16, 0.00, 0.74, 100, 4.400, 0.900, 140.900, 269, 100, 100, 15, 23399, -16900, 5567, 5567, 7, 14, 1523654809.221, 8, 0, 1024, 1024, 1024, 1024, 0, 6, 3935, 3941, 3921, 3954, 3960, 3937, 0, 1, 7006, -89.900, 0.000, 140.400, 0.000, 0.000, -3.000, 0.0, , , , , , 99, , , 15, 15, 15
36.6869881, -118.9584797, 3.900, 14:26:49.315, 16, 0.00, 0.76, 100, 4.900, 0.600, 141.000, 269, 100, 100, 15, 23399, -16900, 5567, 5567, 7, 14, 1523654809.315, 10, 0, 1024, 1024, 1024, 1024, 0, 6, 3884, 3909, 3885, 3906, 3878, 3865, 0, 1, 7101, -90.000, 0.000, 140.400, 0.000, 0.000, -3.000, 0.0, , , , , , 99, , , 15, 15, 15
36.6869883, -118.9584793, 4.600, 14:26:49.424, 17, 0.00, 0.79, 100, 5.700, 0.600, 141.000, 269, 100, 100, 15, 23399, -16900, 5567, 5567, 7, 14, 1523654809.425, 9, 0, 1024, 1024, 1024, 1024, 0, 6, 3884, 3909, 3885, 3906, 3878, 3865, 0, 1, 7210, -89.900, 0.000, 140.400, 0.000, 0.000, -3.200, 0.0, , , , , , 99, , , 15, 15, 15
36.6869883, -118.9584793, 4.600, 14:26:49.515, 17, 0.00, 0.79, 100, 5.700, 0.600, 141.000, 269, 100, 100, 15, 23399, -16900, 5567, 5567, 7, 14, 1523654809.516, 101, 0, 1024, 1024, 1024, 1024, 0, 6, 3884, 3909, 3885, 3906, 3878, 3865, 0, 1, 7301, -90.000, 0.000, 140.400, 0.000, 0.000, -3.200, 0.0, , , , , , 99, , , 15, 15, 15
36.6869884, -118.9584792, 5.300, 14:26:49.620, 17, 0.00, 0.80, 100, 5.200, 0.200, 140.700, 269, 100, 100, 15, 23399, -16900, 5567, 5567, 7, 14, 1523654809.620, 6, 0, 1024, 1024, 1024, 1024, 0, 6, 3884, 3909, 3885, 3906, 3878, 3865, 0, 1, 7405, -90.000, 0.000, 140.400, 0.000, 0.000, -3.200, 0.0, , , , , , 99, , , 15, 15, 15
36.6869884, -118.9584792, 5.300, 14:26:49.715, 17, 0.00, 0.80, 100, 5.200, 0.200, 140.700, 269, 100, 100, 15, 23399, -16900, 5567, 5567, 7, 14, 1523654809.716, 101, 0, 1024, 1024, 1024, 1024, 0, 6, 3884, 3909, 3885, 3906, 3878, 3865, 0, 1, 7501, -90.000, 0.000, 140.400, 0.000, 0.000, -3.200, 0.0, , , , , , 99, , , 15, 15, 15
36.6869885, -118.9584793, 5.900, 14:26:49.828, 18, 0.10, 0.79, 100, 3.300, 0.200, 140.500, 269, 100, 100, 15, 23399, -16900, 5567, 5567, 7, 14, 1523654809.828, 9, 0, 1024, 1024, 1024, 1024, 0, 6, 3884, 3909, 3885, 3906, 3878, 3865, 0, 1, 7613, -89.900, 0.000, 140.400, 0.000, -0.100, -3.100, 0.0, , , , , , 99, , , 15, 15, 15
36.6869885, -118.9584793, 5.900, 14:26:49.915, 18, 0.10, 0.79, 100, 3.300, 0.200, 140.500, 269, 100, 100, 15, 23399, -16900, 5567, 5567, 7, 14, 1523654809.916, 97, 0, 1024, 1024, 1024, 1024, 0, 6, 3884, 3909, 3885, 3906, 3878, 3865, 0, 1, 7701, -89.900, 0.000, 140.400, 0.000, -0.100, -3.100, 0.0, , , , , , 99, , , 15, 15, 15
36.6869885, -118.9584794, 6.300, 14:26:50.015, 17, 0.10, 0.79, 100, 2.900, 0.100, 140.400, 269, 100, 100, 15, 23399, -16900, 5567, 5567, 7, 14, 1523654810.016, 95, 0, 1024, 1024, 1024, 1024, 0, 6, 3884, 3909, 3885, 3906, 3878, 3865, 0, 1, 7801, -90.000, 0.000, 140.400, 0.000, -0.100, -3.200, 0.0, , , , , , 99, , , 15, 15, 15
36.6869886, -118.9584795, 6.600, 14:26:50.115, 17, 0.10, 0.78, 100, 3.200, 0.000, 140.400, 269, 100, 100, 15, 23399, -16900, 5567, 5567, 7, 14, 1523654810.116, 75, 0, 1024, 1024, 1024, 1024, 0, 6, 3884, 3909, 3885, 3906, 3878, 3865, 0, 1, 7901, -90.000, 0.000, 140.400, 0.000, -0.100, -3.200, 0.0, , , , , , 99, , , 15, 15, 15
36.6869886, -118.9584796, 6.900, 14:26:50.216, 18, 0.10, 0.77, 100, 3.600, -0.300, 140.300, 269, 100, 100, 15, 23399, -16900, 5567, 5567, 7, 14, 1523654810.216, 48, 0, 1024, 1024, 1024, 1024, 0, 6, 3884, 3909, 3885, 3906, 3878, 3865, 0, 1, 8002, -90.000, 0.000, 140.400, 0.000, -0.100, -3.200, 0.0, , , , , , 99, , , 15, 15, 15
36.6869884, -118.9584798, 7.300, 14:26:50.315, 18, 0.10, 0.75, 100, 3.600, -0.600, 140.300, 269, 100, 100, 15, 22690, -24826, 5455, 5567, 7, 14, 1523654810.315, 78, 0, 1024, 1024, 1024, 1024, 0, 6, 3769, 3785, 3768, 3803, 3803, 3764, 0, 1, 8100, -89.900, 0.000, 140.400, 0.000, -0.100, -3.200, 0.0, , , , , , 99, , , 15, 15, 15
36.6869882, -118.9584800, 7.600, 14:26:50.415, 18, 0.14, 0.73, 100, 3.100, -0.600, 140.300, 269, 100, 100, 15, 22690, -24826, 5455, 5567, 7, 14, 1523654810.416, 71, 0, 1024, 1024, 1024, 1024, 0, 6, 3769, 3785, 3768, 3803, 3803, 3764, 0, 1, 8201, -89.900, 0.000, 140.400, -0.100, -0.100, -3.200, 0.0, , , , , , 99, , , 15, 15, 15
36.6869882, -118.9584800, 7.600, 14:26:50.516, 18, 0.14, 0.73, 100, 3.100, -0.600, 140.300, 269, 100, 100, 15, 22690, -24826, 5455, 5567, 7, 14, 1523654810.516, 171, 0, 1024, 1024, 1024, 1024, 0, 6, 3769, 3785, 3768, 3803, 3803, 3764, 0, 1, 8302, -89.900, 0.000, 140.400, -0.100, -0.100, -3.200, 0.0, , , , , , 99, , , 15, 15, 15
36.6869878, -118.9584804, 8.300, 14:26:50.615, 18, 0.14, 0.68, 100, 2.000, -0.100, 140.400, 269, 100, 100, 15, 22690, -24826, 5455, 5567, 7, 14, 1523654810.616, 66, 0, 1024, 1024, 1024, 1024, 0, 6, 3769, 3785, 3768, 3803, 3803, 3764, 0, 1, 8401, -89.900, 0.000, 140.400, -0.100, -0.100, -3.300, 0.0, , , , , , 99, , , 15, 15, 15
36.6869875, -118.9584807, 8.700, 14:26:50.716, 18, 0.14, 0.66, 100, 1.800, 0.100, 140.500, 269, 100, 100, 15, 22690, -24826, 5455, 5567, 7, 14, 1523654810.716, 69, 0, 1024, 1024, 1024, 1024, 0, 6, 3769, 3785, 3768, 3803, 3803, 3764, 0, 1, 8501, -89.900, 0.000, 140.400, -0.100, -0.100, -3.300, 0.0, , , , , , 99, , , 15, 15, 15
36.6869873, -118.9584809, 9.000, 14:26:50.815, 18, 0.14, 0.63, 98, 1.500, 0.200, 140.500, 269, 100, 100, 15, 22690, -24826, 5455, 5567, 7, 14, 1523654810.816, 68, 0, 1024, 1024, 1024, 1024, 0, 6, 3769, 3785, 3768, 3803, 3803, 3764, 0, 1, 8601, -89.900, 0.000, 140.400, -0.100, -0.100, -3.300, 0.0, , , , , , 99, , , 15, 15, 15
36.6869871, -118.9584811, 9.400, 14:26:50.915, 18, 0.10, 0.62, 98, 1.400, 0.000, 140.500, 269, 100, 100, 15, 22690, -24826, 5455, 5567, 7, 14, 1523654810.916, 51, 0, 1024, 1024, 1024, 1024, 0, 6, 3769, 3785, 3768, 3803, 3803, 3764, 0, 1, 8701, -90.000, 0.000, 140.400, -0.100, 0.000, -3.300, 0.0, , , , , , 99, , , 15, 15, 15
36.6869868, -118.9584812, 9.800, 14:26:51.016, 18, 0.10, 0.61, 98, 1.400, 0.000, 140.400, 269, 100, 100, 15, 22690, -24826, 5455, 5567, 7, 14, 1523654811.016, 57, 0, 1024, 1024, 1024, 1024, 0, 6, 3769, 3785, 3768, 3803, 3803, 3764, 0, 1, 8801, -89.900, 0.000, 140.400, -0.100, 0.000, -3.100, 0.0, , , , , , 99, , , 15, 15, 15
36.6869866, -118.9584814, 10.100, 14:26:51.115, 18, 0.20, 0.59, 98, 1.100, 0.900, 140.500, 269, 100, 100, 15, 22690, -24826, 5455, 5567, 7, 14, 1523654811.116, 58, 0, 1024, 1024, 1024, 1024, 0, 6, 3769, 3785, 3768, 3803, 3803, 3764, 0, 1, 8901, -89.900, 0.000, 140.400, -0.200, 0.000, -2.900, 0.0, , , , , , 99, , , 15, 15, 15
36.6869863, -118.9584815, 10.400, 14:26:51.215, 18, 0.20, 0.58, 98, 0.600, 1.900, 140.700, 269, 100, 100, 15, 22690, -24826, 5455, 5567, 7, 14, 1523654811.216, 37, 0, 1024, 1024, 1024, 1024, 0, 6, 3769, 3785, 3768, 3803, 3803, 3764, 0, 1, 9001, -89.900, 0.000, 140.400, -0.200, 0.000, -2.800, 0.0, , , , , , 99, , , 15, 15, 15
36.6869860, -118.9584816, 10.600, 14:26:51.315, 18, 0.20, 0.58, 98, 0.000, 2.700, 140.900, 269, 100, 100, 15, 22882, -21797, 5455, 5567, 7, 14, 1523654811.315, 11, 0, 1024, 1024, 1024, 1024, 0, 6, 3810, 3821, 3787, 3840, 3832, 3809, 0, 1, 9101, -89.900, 0.000, 140.400, -0.200, 0.000, -2.800, 0.0, , , , , , 99, , , 15, 15, 15
36.6869858, -118.9584816, 10.900, 14:26:51.415, 18, 0.20, 0.58, 98, -0.600, 3.400, 140.900, 269, 100, 100, 15, 22882, -21797, 5455, 5567, 7, 14, 1523654811.417, 43, 0, 1024, 1024, 1024, 1024, 0, 6, 3810, 3821, 3787, 3840, 3832, 3809, 0, 1, 9202, -89.900, 0.000, 140.400, -0.200, 0.000, -2.800, 0.0, , , , , , 99, , , 15, 15, 15
36.6869855, -118.9584817, 11.200, 14:26:51.516, 18, 0.10, 0.59, 98, -0.700, 4.300, 140.700, 269, 100, 100, 15, 22882, -21797, 5455, 5567, 7, 14, 1523654811.517, 45, 0, 1024, 1024, 1024, 1024, 0, 6, 3810, 3821, 3787, 3840, 3832, 3809, 0, 1, 9302, -89.900, 0.000, 140.400, -0.100, 0.000, -2.800, 0.0, , , , , , 99, , , 15, 15, 15
36.6869853, -118.9584817, 11.500, 14:26:51.615, 18, 0.10, 0.59, 98, -0.100, 4.700, 140.600, 269, 100, 100, 15, 22882, -21797, 5455, 5567, 7, 14, 1523654811.616, 45, 0, 1024, 1024, 1024, 1024, 0, 6, 3810, 3821, 3787, 3840, 3832, 3809, 0, 1, 9401, -89.900, 0.000, 140.400, -0.100, 0.000, -2.800, 0.0, , , , , , 99, , , 15, 15, 15
36.6869851, -118.9584817, 11.800, 14:26:51.716, 18, 0.00, 0.60, 98, 1.800, 4.100, 140.900, 269, 100, 100, 15, 22882, -21797, 5455, 5567, 7, 14, 1523654811.716, 32, 0, 1024, 1024, 1024, 1024, 0, 6, 3810, 3821, 3787, 3840, 3832, 3809, 0, 1, 9502, -90.000, 0.000, 140.400, 0.000, 0.000, -2.900, 0.0, , , , , , 99, , , 15, 15, 15
36.6869850, -118.9584816, 12.100, 14:26:51.817, 18, 0.00, 0.61, 98, 2.600, 3.800, 141.200, 269, 100, 100, 15, 22882, -21797, 5455, 5567, 7, 14, 1523654811.817, 10, 0, 1024, 1024, 1024, 1024, 0, 6, 3810, 3821, 3787, 3840, 3832, 3809, 0, 1, 9602, -89.900, 0.000, 140.400, 0.000, 0.000, -3.000, 0.0, , , , , , 99, , , 15, 15, 15
36.6869849, -118.9584816, 12.400, 14:26:51.917, 18, 0.00, 0.62, 98, 2.000, 3.400, 141.400, 269, 100, 100, 15, 22882, -21797, 5455, 5567, 7, 14, 1523654811.917, 7, 0, 1024, 1024, 1024, 1024, 0, 6, 3810, 3821, 3787, 3840, 3832, 3809, 0, 1, 9702, -90.000, 0.000, 140.400, 0.000, 0.000, -2.900, 0.0, , , , , , 99, , , 15, 15, 15
36.6869847, -118.9584817, 12.700, 14:26:52.015, 18, 0.00, 0.62, 98, 1.400, 3.300, 141.300, 269, 100, 100, 15, 22882, -21797, 5455, 5567, 7, 14, 1523654812.016, 12, 0, 1024, 1024, 1024, 1024, 0, 6, 3810, 3821, 3787, 3840, 3832, 3809, 0, 1, 9801, -90.000, 0.000, 140.400, 0.000, 0.000, -2.900, 0.0, , , , , , 99, , , 15, 15, 15
36.6869847, -118.9584817, 12.700, 14:26:52.115, 18, 0.00, 0.62, 98, 1.400, 3.300, 141.300, 269, 100, 100, 15, 22882, -21797, 5455, 5567, 7, 14, 1523654812.115, 112, 0, 1024, 1024, 1024, 1024, 0, 6, 3810, 3821, 3787, 3840, 3832, 3809, 0, 1, 9901, -90.000, 0.000, 140.400, 0.000, 0.000, -2.900, 0.0, , , , , , 99, , , 15, 15, 15
36.6869846, -118.9584817, 13.000, 14:26:52.217, 18, 0.00, 0.63, 98, 1.200, 3.400, 141.300, 269, 100, 100, 15, 22882, -21797, 5455, 5567, 7, 14, 1523654812.217, 77, 0, 1024, 1024, 1024, 1024, 0, 6, 3810, 3821, 3787, 3840, 3832, 3809, 0, 1, 10002, -89.900, 0.000, 140.400, 0.000, 0.000, -2.900, 0.0, , , , , , 99, , , 15, 15, 15
36.6869844, -118.9584816, 13.500, 14:26:52.316, 18, 0.00, 0.64, 98, 1.100, 3.400, 141.100, 269, 100, 100, 15, 22882, -21797, 5455, 5567, 7, 14, 1523654812.316, 73, 0, 1024, 1024, 1024, 1024, 0, 6, 3810, 3821, 3787, 3840, 3832, 3809, 0, 1, 10102, -90.000, 0.000, 140.400, 0.000, 0.000, -2.900, 0.0, , , , , , 99, , , 15, 15, 15
36.6869843, -118.9584816, 13.800, 14:26:52.416, 18, 0.00, 0.65, 98, 1.500, 3.600, 141.100, 269, 100, 99, 15, 23174, -18778, 5455, 5567, 7, 14, 1523654812.416, 96, 0, 1024, 1024, 1024, 1024, 0, 6, 3860, 3863, 3852, 3863, 3878, 3831, 0, 1, 10202, -89.900, 0.000, 140.400, 0.000, 0.000, -2.800, 0.0, , , , , , 99, , , 15, 15, 15
36.6869843, -118.9584815, 14.100, 14:26:52.515, 18, 0.00, 0.65, 98, 1.900, 3.300, 141.400, 269, 100, 99, 15, 23174, -18778, 5455, 5567, 7, 14, 1523654812.516, 90, 0, 1024, 1024, 1024, 1024, 0, 6, 3860, 3863, 3852, 3863, 3878, 3831, 0, 1, 10301, -90.000, 0.000, 140.400, 0.000, 0.000, -2.900, 0.0, , , , , , 99, , , 15, 15, 15
36.6869843, -118.9584815, 14.400, 14:26:52.615, 18, 0.00, 0.66, 98, 2.000, 3.000, 141.600, 269, 100, 99, 15, 23174, -18778, 5455, 5567, 7, 14, 1523654812.616, 95, 0, 1024, 1024, 1024, 1024, 0, 6, 3860, 3863, 3852, 3863, 3878, 3831, 0, 1, 10401, -90.000, 0.000, 140.400, 0.000, 0.000, -3.000, 0.0, , , , , , 99, , , 15, 15, 15
36.6869843, -118.9584814, 14.700, 14:26:52.715, 18, 0.00, 0.66, 98, 2.200, 2.800, 141.700, 269, 100, 99, 15, 23174, -18778, 5455, 5567, 7, 14, 1523654812.716, 95, 0, 1024, 1024, 1024, 1024, 0, 6, 3860, 3863, 3852, 3863, 3878, 3831, 0, 1, 10501, -89.900, 0.000, 140.400, 0.000, 0.000, -3.000, 0.0, , , , , , 99, , , 15, 15, 15
36.6869843, -118.9584813, 15.000, 14:26:52.816, 18, 0.00, 0.67, 98, 2.600, 2.800, 141.700, 269, 100, 99, 15, 23174, -18778, 5455, 5567, 7, 14, 1523654812.816, 86, 0, 1024, 1024, 1024, 1024, 0, 6, 3860, 3863, 3852, 3863, 3878, 3831, 0, 1, 10601, -89.900, 0.000, 140.400, 0.000, 0.000, -3.000, 0.0, , , , , , 99, , , 15, 15, 15
36.6869843, -118.9584813, 15.300, 14:26:52.915, 18, 0.00, 0.67, 98, 2.800, 2.800, 141.600, 269, 100, 99, 15, 23174, -18778, 5455, 5567, 7, 14, 1523654812.916, 65, 0, 1024, 1024, 1024, 1024, 0, 6, 3860, 3863, 3852, 3863, 3878, 3831, 0, 1, 10701, -89.900, 0.000, 140.400, 0.000, 0.000, -2.900, 0.0, , , , , , 99, , , 15, 15, 15
36.6869844, -118.9584813, 15.700, 14:26:53.015, 18, 0.00, 0.67, 98, 2.700, 3.000, 141.300, 269, 100, 99, 15, 23174, -18778, 5455, 5567, 7, 14, 1523654813.016, 79, 0, 1024, 1024, 1024, 1024, 0, 6, 3860, 3863, 3852, 3863, 3878, 3831, 0, 1, 10801, -89.900, 0.000, 140.400, 0.000, 0.000, -3.000, 0.0, , , , , , 99, , , 15, 15, 15
36.6869844, -118.9584812, 15.900, 14:26:53.115, 18, 0.00, 0.67, 98, 2.500, 3.000, 140.900, 269, 100, 99, 15, 23174, -18778, 5455, 5567, 7, 14, 1523654813.116, 65, 0, 1024, 1024, 1024, 1024, 0, 6, 3860, 3863, 3852, 3863, 3878, 3831, 0, 1, 10901, -90.000, 0.000, 140.400, 0.000, 0.000, -2.900, 0.0, , , , , , 99, , , 15, 15, 15
36.6869845, -118.9584811, 16.200, 14:26:53.216, 18, 0.00, 0.68, 98, 2.600, 2.900, 140.400, 269, 100, 99, 15, 23174, -18778, 5455, 5567, 7, 14, 1523654813.216, 37, 0, 1024, 1024, 1024, 1024, 0, 6, 3860, 3863, 3852, 3863, 3878, 3831, 0, 1, 11001, -89.900, 0.000, 140.400, 0.000, 0.000, -2.900, 0.0, , , , , , 99, , , 15, 15, 15
36.6869845, -118.9584811, 16.500, 14:26:53.315, 18, 0.00, 0.67, 98, 2.300, 2.800, 140.100, 269, 100, 99, 15, 22972, -20296, 5455, 5567, 7, 14, 1523654813.316, 45, 0, 1024, 1024, 1024, 1024, 0, 6, 3831, 3834, 3798, 3833, 3839, 3816, 0, 1, 11101, -90.000, 0.000, 140.400, 0.000, 0.000, -3.000, 0.0, , , , , , 99, , , 15, 15, 15
36.6869845, -118.9584811, 16.800, 14:26:53.416, 18, 0.00, 0.67, 98, 2.100, 2.600, 139.900, 269, 100, 91, 15, 22972, -20296, 5455, 5567, 7, 14, 1523654813.417, 26, 0, 1024, 1024, 1024, 1024, 0, 6, 3831, 3834, 3798, 3833, 3839, 3816, 0, 1, 11202, -90.000, 0.000, 140.400, 0.000, 0.000, -3.000, 0.0, , , , , , 99, , , 15, 15, 15
36.6869846, -118.9584811, 17.100, 14:26:53.515, 18, 0.00, 0.67, 98, 2.000, 2.500, 139.900, 269, 100, 91, 15, 22972, -20296, 5455, 5567, 7, 14, 1523654813.516, 56, 0, 1024, 1024, 1024, 1024, 0, 6, 3831, 3834, 3798, 3833, 3839, 3816, 0, 1, 11301, -90.000, 0.000, 140.400, 0.000, 0.000, -3.000, 0.0, , , , , , 99, , , 15, 15, 15
36.6869846, -118.9584811, 17.400, 14:26:53.615, 18, 0.00, 0.67, 98, 2.100, 2.600, 140.000, 269, 100, 91, 15, 22972, -20296, 5455, 5567, 7, 14, 1523654813.616, 55, 0, 1024, 1024, 1024, 1024, 0, 6, 3831, 3834, 3798, 3833, 3839, 3816, 0, 1, 11401, -90.000, 0.000, 140.400, 0.000, 0.000, -3.000, 0.0, , , , , , 99, , , 15, 15, 15
36.6869846, -118.9584811, 17.400, 14:26:53.716, 18, 0.00, 0.67, 98, 2.100, 2.600, 140.000, 269, 100, 91, 15, 22972, -20296, 5455, 5567, 7, 14, 1523654813.716, 156, 0, 1024, 1024, 1024, 1024, 0, 6, 3831, 3834, 3798, 3833, 3839, 3816, 0, 1, 11501, -90.000, 0.000, 140.400, 0.000, 0.000, -3.000, 0.0, , , , , , 99, , , 15, 15, 15
36.6869848, -118.9584810, 18.000, 14:26:53.816, 18, 0.00, 0.67, 98, 2.300, 2.600, 140.400, 269, 100, 91, 15, 22972, -20296, 5455, 5567, 7, 14, 1523654813.816, 44, 0, 1024, 1024, 1024, 1024, 0, 6, 3831, 3834, 3798, 3833, 3839, 3816, 0, 1, 11602, -90.000, 0.000, 140.400, 0.000, 0.000, -2.900, 0.0, , , , , , 99, , , 15, 15, 15
36.6869848, -118.9584810, 18.000, 14:26:53.915, 18, 0.00, 0.67, 98, 2.300, 2.600, 140.400, 269, 100, 90, 15, 22972, -20296, 5455, 5567, 7, 14, 1523654813.916, 143, 0, 1024, 1024, 1024, 1024, 0, 6, 3831, 3834, 3798, 3833, 3839, 3816, 0, 1, 11701, -90.000, 0.000, 140.400, 0.000, 0.000, -2.900, 0.0, , , , , , 99, , , 15, 15, 15
36.6869849, -118.9584810, 18.600, 14:26:54.016, 18, 0.00, 0.67, 98, 2.300, 2.300, 140.700, 269, 100, 90, 15, 22972, -20296, 5455, 5567, 7, 14, 1523654814.016, 29, 0, 1024, 1024, 1024, 1024, 0, 6, 3831, 3834, 3798, 3833, 3839, 3816, 0, 1, 11802, -90.000, 0.000, 140.400, 0.000, 0.000, -3.000, 0.0, , , , , , 99, , , 15, 15, 15
36.6869849, -118.9584810, 18.900, 14:26:54.115, 18, 0.00, 0.67, 98, 2.500, 2.200, 140.900, 269, 100, 90, 15, 22972, -20296, 5455, 5567, 7, 14, 1523654814.116, 45, 0, 1024, 1024, 1024, 1024, 0, 6, 3831, 3834, 3798, 3833, 3839, 3816, 0, 1, 11901, -90.000, 0.000, 140.400, 0.000, 0.000, -2.900, 0.0, , , , , , 99, , , 15, 15, 15
36.6869850, -118.9584810, 19.200, 14:26:54.219, 18, 0.00, 0.67, 98, 2.500, 2.200, 140.900, 269, 100, 90, 15, 22972, -20296, 5455, 5567, 7, 14, 1523654814.220, 7, 0, 1024, 1024, 1024, 1024, 0, 6, 3831, 3834, 3798, 3833, 3839, 3816, 0, 1, 12005, -90.000, 0.000, 140.400, 0.000, 0.000, -3.000, 0.0, , , , , , 99, , , 15, 15, 15
36.6869851, -118.9584809, 19.500, 14:26:54.315, 18, 0.00, 0.67, 98, 2.700, 2.400, 140.900, 269, 100, 90, 15, 22917, -20068, 5455, 5567, 7, 14, 1523654814.315, 5, 0, 1024, 1024, 1024, 1024, 0, 6, 3831, 3834, 3798, 3833, 3839, 3816, 0, 1, 12100, -90.000, 0.000, 140.400, 0.000, 0.000, -3.000, 0.0, , , , , , 99, , , 15, 15, 15
36.6869852, -118.9584809, 19.900, 14:26:54.416, 18, 0.00, 0.67, 98, 2.900, 2.600, 140.900, 269, 100, 90, 15, 22917, -20068, 5455, 5567, 7, 14, 1523654814.416, 17, 0, 1024, 1024, 1024, 1024, 0, 6, 3831, 3834, 3798, 3833, 3839, 3816, 0, 1, 12201, -89.900, 0.000, 140.400, 0.000, 0.000, -3.000, 0.0, , , , , , 99, , , 15, 15, 15
36.6869853, -118.9584809, 20.200, 14:26:54.515, 18, 0.00, 0.67, 98, 3.100, 2.700, 140.900, 269, 100, 90, 15, 22917, -20068, 5455, 5567, 7, 14, 1523654814.516, 7, 0, 1024, 1024, 1024, 1024, 0, 6, 3831, 3834, 3798, 3833, 3839, 3816, 0, 1, 12301, -89.900, 0.000, 140.400, 0.000, 0.000, -2.900, 0.0, , , , , , 99, , , 15, 15, 15
36.6869854, -118.9584808, 20.500, 14:26:54.615, 18, 0.00, 0.66, 98, 3.100, 2.600, 140.900, 269, 100, 90, 15, 22917, -20068, 5455, 5567, 7, 14, 1523654814.616, 26, 0, 1024, 1024, 1024, 1024, 0, 6, 3831, 3834, 3798, 3833, 3839, 3816, 0, 1, 12401, -89.900, 0.000, 140.400, 0.000, 0.000, -2.900, 0.0, , , , , , 99, , , 15, 15, 15
36.6869854, -118.9584808, 20.500, 14:26:54.716, 18, 0.00, 0.66, 98, 3.100, 2.600, 140.900, 269, 100, 90, 15, 22917, -20068, 5455, 5567, 7, 14, 1523654814.716, 126, 0, 1024, 1024, 1024, 1024, 0, 6, 3831, 3834, 3798, 3833, 3839, 3816, 0, 1, 12501, -89.900, 0.000, 140.400, 0.000, 0.000, -2.900, 0.0, , , , , , 99, , , 15, 15, 15
36.6869855, -118.9584807, 21.100, 14:26:54.816, 18, 0.00, 0.67, 98, 3.200, 2.400, 140.800, 269, 100, 95, 15, 22917, -20068, 5455, 5567, 7, 14, 1523654814.817, 12, 0, 1024, 1024, 1024, 1024, 0, 6, 3831, 3834, 3798, 3833, 3839, 3816, 0, 1, 12602, -90.000, 0.000, 140.400, 0.000, 0.000, -3.000, 0.0, , , , , , 99, , , 15, 15, 15
36.6869856, -118.9584808, 21.400, 14:26:54.915, 18, 0.00, 0.67, 98, 3.100, 2.400, 140.800, 269, 100, 95, 15, 22917, -20068, 5455, 5567, 7, 14, 1523654814.916, 15, 0, 1024, 1024, 1024, 1024, 0, 6, 3807, 3819, 3784, 3828, 3830, 3802, 0, 1, 12702, -89.900, 0.000, 140.400, 0.000, 0.000, -2.900, 0.0, , , , , , 99, , , 15, 15, 15
36.6869856, -118.9584808, 21.400, 14:26:55.015, 18, 0.00, 0.67, 98, 3.100, 2.400, 140.800, 269, 100, 95, 15, 22917, -20068, 5455, 5567, 7, 14, 1523654815.016, 115, 0, 1024, 1024, 1024, 1024, 0, 6, 3807, 3819, 3784, 3828, 3830, 3802, 0, 1, 12801, -89.900, 0.000, 140.400, 0.000, 0.000, -2.900, 0.0, , , , , , 99, , , 15, 15, 15
36.6869857, -118.9584808, 22.000, 14:26:55.115, 18, 0.00, 0.66, 98, 2.600, 2.500, 140.800, 269, 100, 95, 15, 22917, -20068, 5455, 5567, 7, 14, 1523654815.115, 73, 0, 1024, 1024, 1024, 1024, 0, 6, 3807, 3819, 3784, 3828, 3830, 3802, 0, 1, 12901, -90.000, 0.000, 140.400, 0.000, 0.000, -2.900, 0.0, , , , , , 99, , , 15, 15, 15
36.6869857, -118.9584808, 22.300, 14:26:55.215, 18, 0.00, 0.66, 98, 2.700, 2.400, 140.700, 269, 100, 95, 15, 22917, -20068, 5455, 5567, 7, 14, 1523654815.216, 90, 0, 1024, 1024, 1024, 1024, 0, 6, 3807, 3819, 3784, 3828, 3830, 3802, 0, 1, 13001, -89.900, 0.000, 140.400, 0.000, 0.000, -3.000, 0.0, , , , , , 99, , , 15, 15, 15
36.6869858, -118.9584808, 22.600, 14:26:55.316, 18, 0.00, 0.66, 98, 2.700, 2.300, 140.700, 269, 100, 95, 16, 22917, -20068, 5455, 5567, 7, 14, 1523654815.316, 84, 0, 1024, 1024, 1024, 1024, 0, 6, 3807, 3819, 3784, 3828, 3830, 3802, 0, 1, 13102, -90.000, 0.000, 140.400, 0.000, 0.000, -3.000, 0.0, , , , , , 99, , , 15, 15, 15
36.6869858, -118.9584808, 22.600, 14:26:55.416, 18, 0.00, 0.66, 98, 2.700, 2.300, 140.700, 269, 100, 99, 16, 22917, -20068, 5455, 5567, 7, 14, 1523654815.416, 184, 0, 1024, 1024, 1024, 1024, 0, 6, 3807, 3819, 3784, 3828, 3830, 3802, 0, 1, 13202, -90.000, 0.000, 140.400, 0.000, 0.000, -3.000, 0.0, , , , , , 99, , , 15, 15, 15
36.6869859, -118.9584808, 23.200, 14:26:55.515, 18, 0.00, 0.65, 98, 2.900, 1.700, 140.800, 269, 100, 99, 16, 22917, -20068, 5455, 5567, 7, 14, 1523654815.516, 57, 0, 1024, 1024, 1024, 1024, 0, 6, 3807, 3819, 3784, 3828, 3830, 3802, 0, 1, 13302, -90.000, 0.000, 140.400, 0.000, 0.000, -2.800, 0.0, , , , , , 99, , , 15, 15, 15
36.6869860, -118.9584808, 23.500, 14:26:55.615, 18, 0.00, 0.65, 98, 3.100, 1.400, 140.700, 269, 100, 99, 16, 22917, -20068, 5455, 5567, 7, 14, 1523654815.616, 86, 0, 1024, 1024, 1024, 1024, 0, 6, 3807, 3819, 3784, 3828, 3830, 3802, 0, 1, 13401, -90.000, 0.000, 140.400, 0.000, 0.000, -2.900, 0.0, , , , , , 99, , , 15, 15, 15
36.6869861, -118.9584809, 23.800, 14:26:55.715, 18, 0.00, 0.64, 98, 3.100, 1.200, 140.600, 269, 100, 99, 16, 22917, -20068, 5455, 5567, 7, 14, 1523654815.716, 81, 0, 1024, 1024, 1024, 1024, 0, 6, 3807, 3819, 3784, 3828, 3830, 3802, 0, 1, 13501, -90.000, 0.000, 140.400, 0.000, 0.000, -2.900, 0.0, , , , , , 99, , , 15, 15, 15
36.6869862, -118.9584809, 24.100, 14:26:55.815, 18, 0.00, 0.64, 98, 2.900, 1.100, 140.600, 269, 100, 99, 16, 22873, -19748, 5455, 5567, 7, 14, 1523654815.816, 72, 0, 1024, 1024, 1024, 1024, 0, 6, 3804, 3812, 3783, 3822, 3828, 3799, 0, 1, 13601, -89.900, 0.000, 140.400, 0.000, 0.000, -2.800, 0.0, , , , , , 99, , , 15, 15, 15
36.6869862, -118.9584809, 24.400, 14:26:55.915, 18, 0.00, 0.64, 98, 2.900, 1.300, 140.600, 269, 100, 100, 16, 22873, -19748, 5455, 5567, 7, 14, 1523654815.916, 76, 0, 1024, 1024, 1024, 1024, 0, 6, 3804, 3812, 3783, 3822, 3828, 3799, 0, 1, 13701, -89.900, 0.000, 140.400, 0.000, 0.000, -2.800, 0.0, , , , , , 99, , , 15, 15, 15
36.6869862, -118.9584810, 24.700, 14:26:56.016, 18, 0.00, 0.63, 98, 2.800, 1.500, 140.600, 269, 100, 100, 16, 22873, -19748, 5455, 5567, 7, 14, 1523654816.016, 74, 0, 1024, 1024, 1024, 1024, 0, 6, 3804, 3812, 3783, 3822, 3828, 3799, 0, 1, 13802, -89.900, 0.000, 140.400, 0.000, 0.000, -2.900, 0.0, , , , , , 99, , , 15, 15, 15
36.6869862, -118.9584810, 25.000, 14:26:56.115, 18, 0.00, 0.63, 98, 2.700, 1.700, 140.600, 269, 100, 100, 16, 22873, -19748, 5455, 5567, 7, 14, 1523654816.116, 50, 0, 1024, 1024, 1024, 1024, 0, 6, 3804, 3812, 3783, 3822, 3828, 3799, 0, 1, 13901, -89.900, 0.000, 140.400, 0.000, 0.000, -2.900, 0.0, , , , , , 99, , , 15, 15, 15
36.6869862, -118.9584810, 25.000, 14:26:56.215, 18, 0.00, 0.63, 98, 2.700, 1.700, 140.600, 269, 100, 100, 16, 22873, -19748, 5455, 5567, 7, 14, 1523654816.215, 149, 0, 1024, 1024, 1024, 1024, 0, 6, 3804, 3812, 3783, 3822, 3828, 3799, 0, 1, 14001, -89.900, 0.000, 140.400, 0.000, 0.000, -2.900, 0.0, , , , , , 99, , , 15, 15, 15
36.6869863, -118.9584810, 25.600, 14:26:56.316, 18, 0.00, 0.63, 98, 2.600, 1.800, 140.800, 269, 100, 100, 16, 22873, -19748, 5455, 5567, 7, 14, 1523654816.316, 45, 0, 1024, 1024, 1024, 1024, 0, 6, 3804, 3812, 3783, 3822, 3828, 3799, 0, 1, 14102, -90.000, 0.000, 140.400, 0.000, 0.000, -2.800, 0.0, , , , , , 99, , , 15, 15, 15
36.6869863, -118.9584809, 25.800, 14:26:56.416, 18, 0.00, 0.64, 98, 2.900, 2.000, 140.800, 269, 100, 100, 16, 22873, -19748, 5455, 5567, 7, 14, 1523654816.416, 51, 0, 1024, 1024, 1024, 1024, 0, 6, 3804, 3812, 3783, 3822, 3828, 3799, 0, 1, 14202, -90.000, 0.000, 140.400, 0.000, 0.000, -2.900, 0.0, , , , , , 99, , , 15, 15, 15
36.6869863, -118.9584809, 26.100, 14:26:56.516, 18, 0.00, 0.64, 98, 3.200, 2.200, 140.900, 269, 100, 100, 16, 22873, -19748, 5455, 5567, 7, 14, 1523654816.517, 43, 0, 1024, 1024, 1024, 1024, 0, 6, 3804, 3812, 3783, 3822, 3828, 3799, 0, 1, 14302, -89.900, 0.000, 140.400, 0.000, 0.000, -2.900, 0.0, , , , , , 99, , , 15, 15, 15
36.6869864, -118.9584808, 26.400, 14:26:56.615, 18, 0.00, 0.65, 98, 3.500, 2.400, 140.900, 269, 100, 100, 16, 22873, -19748, 5455, 5567, 7, 14, 1523654816.616, 17, 0, 1024, 1024, 1024, 1024, 0, 6, 3804, 3812, 3783, 3822, 3828, 3799, 0, 1, 14401, -89.900, 0.000, 140.400, 0.000, 0.000, -3.000, 0.0, , , , , , 99, , , 15, 15, 15
36.6869864, -118.9584808, 26.800, 14:26:56.716, 18, 0.00, 0.65, 98, 3.500, 2.400, 140.900, 269, 100, 100, 16, 22873, -19748, 5455, 5567, 7, 14, 1523654816.717, 17, 0, 1024, 1024, 1024, 1024, 0, 6, 3804, 3812, 3783, 3822, 3828, 3799, 0, 1, 14503, -89.900, 0.000, 140.400, 0.000, 0.000, -3.000, 0.0, , , , , , 99, , , 15, 15, 15
36.6869864, -118.9584808, 27.100, 14:26:56.815, 18, 0.00, 0.65, 98, 3.100, 2.500, 140.900, 269, 100, 100, 16, 22710, -21046, 5455, 5567, 7, 14, 1523654816.817, 26, 0, 1024, 1024, 1024, 1024, 0, 6, 3780, 3783, 3760, 3800, 3802, 3773, 0, 1, 14602, -89.900, 0.000, 140.400, 0.000, 0.000, -3.000, 0.0, , , , , , 99, , , 15, 15, 15
36.6869863, -118.9584808, 27.400, 14:26:56.917, 18, 0.00, 0.65, 98, 2.900, 2.400, 140.800, 269, 100, 99, 16, 22710, -21046, 5455, 5567, 7, 14, 1523654816.918, 15, 0, 1024, 1024, 1024, 1024, 0, 6, 3780, 3783, 3760, 3800, 3802, 3773, 0, 1, 14703, -90.000, 0.000, 140.400, 0.000, 0.000, -3.000, 0.0, , , , , , 99, , , 15, 15, 15
36.6869863, -118.9584808, 27.700, 14:26:57.018, 18, 0.00, 0.65, 98, 2.800, 2.300, 140.800, 269, 100, 99, 16, 22710, -21046, 5455, 5567, 7, 14, 1523654817.019, 6, 0, 1024, 1024, 1024, 1024, 0, 6, 3780, 3783, 3760, 3800, 3802, 3773, 0, 1, 14804, -90.000, 0.000, 140.400, 0.000, 0.000, -3.000, 0.0, , , , , , 99, , , 15, 15, 15
36.6869863, -118.9584808, 28.000, 14:26:57.115, 18, 0.00, 0.65, 98, 2.700, 2.200, 140.700, 269, 100, 99, 16, 22710, -21046, 5455, 5567, 7, 14, 1523654817.116, 15, 0, 1024, 1024, 1024, 1024, 0, 6, 3780, 3783, 3760, 3800, 3802, 3773, 0, 1, 14901, -90.000, 0.000, 140.400, 0.000, 0.000, -2.900, 0.0, , , , , , 99, , , 15, 15, 15
36.6869863, -118.9584808, 28.300, 14:26:57.216, 18, 0.00, 0.65, 98, 2.700, 2.200, 140.700, 269, 100, 99, 16, 22710, -21046, 5455, 5567, 7, 14, 1523654817.216, 16, 0, 1024, 1024, 1024, 1024, 0, 6, 3780, 3783, 3760, 3800, 3802, 3773, 0, 1, 15001, -90.000, 0.000, 140.400, 0.000, 0.000, -2.900, 0.0, , , , , , 99, , , 15, 15, 15
36.6869863, -118.9584808, 28.300, 14:26:57.315, 18, 0.00, 0.65, 98, 2.700, 2.200, 140.700, 269, 100, 99, 16, 22710, -21046, 5455, 5567, 7, 14, 1523654817.316, 116, 0, 1024, 1024, 1024, 1024, 0, 6, 3780, 3783, 3760, 3800, 3802, 3773, 0, 1, 15101, -90.000, 0.000, 140.400, 0.000, 0.000, -2.900, 0.0, , , , , , 99, , , 15, 15, 15
36.6869862, -118.9584808, 29.200, 14:26:57.416, 18, 0.00, 0.65, 98, 3.000, 2.300, 140.700, 269, 100, 97, 16, 22710, -21046, 5455, 5567, 7, 14, 1523654817.416, 9, 0, 1024, 1024, 1024, 1024, 0, 6, 3780, 3783, 3760, 3800, 3802, 3773, 0, 1, 15202, -89.900, 0.000, 140.400, 0.000, 0.000, -2.900, 0.0, , , , , , 99, , , 15, 15, 15
36.6869862, -118.9584808, 29.200, 14:26:57.516, 18, 0.00, 0.65, 98, 3.000, 2.300, 140.700, 269, 100, 97, 16, 22710, -21046, 5455, 5567, 7, 14, 1523654817.517, 109, 0, 1024, 1024, 1024, 1024, 0, 6, 3780, 3783, 3760, 3800, 3802, 3773, 0, 1, 15302, -89.900, 0.000, 140.400, 0.000, 0.000, -2.900, 0.0, , , , , , 99, , , 15, 15, 15
36.6869862, -118.9584808, 29.200, 14:26:57.615, 18, 0.00, 0.65, 98, 3.000, 2.300, 140.700, 269, 100, 97, 16, 22710, -21046, 5455, 5567, 7, 14, 1523654817.616, 208, 0, 1024, 1024, 1024, 1024, 0, 6, 3780, 3783, 3760, 3800, 3802, 3773, 0, 1, 15401, -89.900, 0.000, 140.400, 0.000, 0.000, -2.900, 0.0, , , , , , 99, , , 15, 15, 15
36.6869862, -118.9584808, 29.500, 14:26:57.715, 18, 0.00, 0.65, 98, 3.100, 2.300, 140.700, 269, 100, 97, 16, 22710, -21046, 5455, 5567, 7, 14, 1523654817.716, 52, 0, 1024, 1024, 1024, 1024, 0, 6, 3780, 3783, 3760, 3800, 3802, 3773, 0, 1, 15501, -89.900, 0.000, 140.400, 0.000, 0.000, -3.000, 0.0, , , , , , 99, , , 15, 15, 15
36.6869862, -118.9584808, 30.100, 14:26:57.815, 18, 0.00, 0.65, 98, 2.700, 2.000, 140.700, 269, 100, 97, 16, 22710, -21046, 5455, 5567, 7, 14, 1523654817.816, 82, 0, 1024, 1024, 1024, 1024, 0, 6, 3780, 3783, 3760, 3800, 3802, 3773, 0, 1, 15601, -90.000, 0.000, 140.400, 0.000, 0.000, -3.000, 0.0, , , , , , 99, , , 15, 15, 15
36.6869862, -118.9584809, 30.400, 14:26:57.915, 18, 0.00, 0.64, 98, 2.700, 2.000, 140.700, 269, 100, 92, 16, 22710, -21046, 5455, 5567, 7, 14, 1523654817.916, 84, 0, 1024, 1024, 1024, 1024, 0, 6, 3780, 3783, 3760, 3800, 3802, 3773, 0, 1, 15701, -89.900, 0.000, 140.400, 0.000, 0.000, -2.900, 0.0, , , , , , 99, , , 15, 15, 15
36.6869861, -118.9584809, 30.700, 14:26:58.015, 18, 0.00, 0.64, 98, 2.700, 2.200, 140.800, 269, 100, 92, 16, 22710, -21046, 5455, 5567, 7, 14, 1523654818.016, 75, 0, 1024, 1024, 1024, 1024, 0, 6, 3780, 3783, 3760, 3800, 3802, 3773, 0, 1, 15801, -89.900, 0.000, 140.400, 0.000, 0.000, -2.900, 0.0, , , , , , 99, , , 15, 15, 15
36.6869861, -118.9584809, 31.000, 14:26:58.115, 18, 0.00, 0.64, 98, 2.600, 2.500, 140.800, 269, 100, 92, 16, 22710, -21046, 5455, 5567, 7, 14, 1523654818.116, 64, 0, 1024, 1024, 1024, 1024, 0, 6, 3780, 3783, 3760, 3800, 3802, 3773, 0, 1, 15901, -89.900, 0.000, 140.400, 0.000, 0.000, -2.800, 0.0, , , , , , 99, , , 15, 15, 15
36.6869861, -118.9584809, 31.300, 14:26:58.215, 18, 0.00, 0.64, 98, 2.300, 2.500, 140.700, 269, 100, 92, 16, 22710, -21046, 5455, 5567, 7, 14, 1523654818.216, 56, 0, 1024, 1024, 1024, 1024, 0, 6, 3780, 3783, 3760, 3800, 3802, 3773, 0, 1, 16002, -89.900, 0.000, 140.400, 0.000, 0.000, -2.900, 0.0, , , , , , 99, , , 15, 15, 15
36.6869860, -118.9584809, 31.600, 14:26:58.315, 18, 0.00, 0.64, 98, 2.300, 2.500, 140.700, 269, 100, 92, 16, 22695, -21174, 5455, 5567, 7, 14, 1523654818.316, 67, 0, 1024, 1024, 1024, 1024, 0, 6, 3767, 3778, 3757, 3812, 3805, 3779, 0, 1, 16101, -89.900, 0.000, 140.400, 0.000, 0.000, -2.900, 0.0, , , , , , 99, , , 15, 15, 15
36.6869860, -118.9584810, 31.900, 14:26:58.416, 18, 0.00, 0.64, 98, 2.300, 2.500, 140.700, 269, 100, 86, 16, 22695, -21174, 5455, 5567, 7, 14, 1523654818.416, 51, 0, 1024, 1024, 1024, 1024, 0, 6, 3767, 3778, 3757, 3812, 3805, 3779, 0, 1, 16202, -89.900, 0.000, 140.400, 0.000, 0.000, -3.000, 0.0, , , , , , 99, , , 15, 15, 15
36.6869859, -118.9584810, 32.200, 14:26:58.515, 18, 0.00, 0.64, 98, 2.400, 2.600, 140.600, 269, 100, 86, 16, 22695, -21174, 5455, 5567, 7, 14, 1523654818.516, 56, 0, 1024, 1024, 1024, 1024, 0, 6, 3767, 3778, 3757, 3812, 3805, 3779, 0, 1, 16301, -89.900, 0.000, 140.400, 0.000, 0.000, -3.000, 0.0, , , , , , 99, , , 15, 15, 15
36.6869859, -118.9584810, 32.500, 14:26:58.615, 18, 0.00, 0.63, 98, 2.500, 2.600, 140.600, 269, 100, 86, 16, 22695, -21174, 5455, 5567, 7, 14, 1523654818.616, 34, 0, 1024, 1024, 1024, 1024, 0, 6, 3767, 3778, 3757, 3812, 3805, 3779, 0, 1, 16401, -89.900, 0.000, 140.400, 0.000, 0.000, -3.000, 0.0, , , , , , 99, , , 15, 15, 15
36.6869859, -118.9584810, 32.900, 14:26:58.716, 18, 0.00, 0.63, 98, 2.400, 2.500, 140.500, 269, 100, 86, 16, 22695, -21174, 5455, 5567, 7, 14, 1523654818.716, 22, 0, 1024, 1024, 1024, 1024, 0, 6, 3767, 3778, 3757, 3812, 3805, 3779, 0, 1, 16502, -89.900, 0.000, 140.400, 0.000, 0.000, -2.900, 0.0, , , , , , 99, , , 15, 15, 15
36.6869859, -118.9584811, 33.200, 14:26:58.815, 18, 0.00, 0.63, 98, 2.100, 2.400, 140.500, 269, 100, 86, 16, 22682, -20567, 5399, 5567, 7, 14, 1523654818.816, 38, 0, 1024, 1024, 1024, 1024, 0, 6, 3768, 3790, 3739, 3797, 3804, 3757, 0, 1, 16601, -90.000, 0.000, 140.400, 0.000, 0.000, -2.900, 0.0, , , , , , 99, , , 15, 15, 15
36.6869859, -118.9584811, 33.500, 14:26:58.916, 18, 0.00, 0.63, 98, 2.200, 2.300, 140.500, 269, 100, 88, 16, 22682, -20567, 5399, 5567, 7, 14, 1523654818.916, 25, 0, 1024, 1024, 1024, 1024, 0, 6, 3768, 3790, 3739, 3797, 3804, 3757, 0, 1, 16702, -90.000, 0.000, 140.400, 0.000, 0.000, -2.900, 0.0, , , , , , 99, , , 15, 15, 15
36.6869859, -118.9584811, 33.800, 14:26:59.015, 18, 0.00, 0.63, 98, 2.400, 2.200, 140.600, 269, 100, 88, 16, 22682, -20567, 5399, 5567, 7, 14, 1523654819.015, 27, 0, 1024, 1024, 1024, 1024, 0, 6, 3768, 3790, 3739, 3797, 3804, 3757, 0, 1, 16800, -90.000, 0.000, 140.400, 0.000, 0.000, -3.000, 0.0, , , , , , 99, , , 15, 15, 15
36.6869858, -118.9584811, 34.100, 14:26:59.118, 18, 0.00, 0.63, 98, 2.500, 2.300, 140.600, 269, 100, 88, 16, 22682, -20567, 5399, 5567, 7, 14, 1523654819.118, 12, 0, 1024, 1024, 1024, 1024, 0, 6, 3768, 3790, 3739, 3797, 3804, 3757, 0, 1, 16903, -89.900, 0.000, 140.400, 0.000, 0.000, -2.900, 0.0, , , , , , 99, , , 15, 15, 15
36.6869858, -118.9584811, 34.100, 14:26:59.216, 18, 0.00, 0.63, 98, 2.500, 2.300, 140.600, 269, 100, 88, 16, 22682, -20567, 5399, 5567, 7, 14, 1523654819.216, 110, 0, 1024, 1024, 1024, 1024, 0, 6, 3768, 3790, 3739, 3797, 3804, 3757, 0, 1, 17002, -89.900, 0.000, 140.400, 0.000, 0.000, -2.900, 0.0, , , , , , 99, , , 15, 15, 15
36.6869858, -118.9584812, 34.700, 14:26:59.315, 18, 0.00, 0.62, 98, 2.800, 2.200, 140.800, 269, 100, 88, 16, 22682, -20567, 5399, 5567, 7, 14, 1523654819.316, 24, 0, 1024, 1024, 1024, 1024, 0, 6, 3768, 3790, 3739, 3797, 3804, 3757, 0, 1, 17101, -89.900, 0.000, 140.400, 0.000, 0.000, -3.000, 0.0, , , , , , 99, , , 15, 15, 15
36.6869858, -118.9584812, 34.700, 14:26:59.415, 18, 0.00, 0.62, 98, 2.800, 2.200, 140.800, 269, 100, 88, 16, 22682, -20567, 5399, 5567, 7, 14, 1523654819.416, 124, 0, 1024, 1024, 1024, 1024, 0, 6, 3768, 3790, 3739, 3797, 3804, 3757, 0, 1, 17201, -89.900, 0.000, 140.400, 0.000, 0.000, -3.000, 0.0, , , , , , 99, , , 15, 15, 15
36.6869858, -118.9584811, 35.300, 14:26:59.516, 18, 0.00, 0.63, 98, 3.300, 2.400, 140.800, 269, 100, 92, 16, 22682, -20567, 5399, 5567, 7, 14, 1523654819.516, 7, 0, 1024, 1024, 1024, 1024, 0, 6, 3768, 3790, 3739, 3797, 3804, 3757, 0, 1, 17301, -89.900, 0.000, 140.400, 0.000, 0.000, -3.000, 0.0, , , , , , 99, , , 15, 15, 15
36.6869858, -118.9584811, 35.300, 14:26:59.614, 18, 0.00, 0.63, 98, 3.300, 2.400, 140.800, 269, 100, 92, 16, 22682, -20567, 5399, 5567, 7, 14, 1523654819.615, 106, 0, 1024, 1024, 1024, 1024, 0, 6, 3768, 3790, 3739, 3797, 3804, 3757, 0, 1, 17400, -89.900, 0.000, 140.400, 0.000, 0.000, -3.000, 0.0, , , , , , 99, , , 15, 15, 15
36.6869859, -118.9584811, 35.900, 14:26:59.733, 18, 0.00, 0.63, 98, 3.300, 2.200, 140.800, 269, 100, 92, 16, 22682, -20567, 5399, 5567, 7, 14, 1523654819.734, 5, 0, 1024, 1024, 1024, 1024, 0, 6, 3768, 3790, 3739, 3797, 3804, 3757, 0, 1, 17519, -90.000, 0.000, 140.400, 0.000, 0.000, -2.900, 0.0, , , , , , 99, , , 15, 15, 15
36.6869859, -118.9584811, 36.200, 14:26:59.817, 18, 0.00, 0.63, 97, 3.300, 2.100, 140.700, 269, 100, 92, 16, 22691, -20343, 5399, 5567, 7, 14, 1523654819.817, 14, 0, 1024, 1024, 1024, 1024, 0, 6, 3768, 3790, 3739, 3797, 3804, 3757, 0, 1, 17603, -89.900, 0.000, 140.400, 0.000, 0.000, -2.800, 0.0, , , , , , 99, , , 15, 15, 15
36.6869859, -118.9584811, 36.500, 14:26:59.916, 18, 0.00, 0.63, 97, 3.200, 2.000, 140.600, 269, 100, 99, 16, 22691, -20343, 5399, 5567, 7, 14, 1523654819.917, 96, 0, 1024, 1024, 1024, 1024, 0, 6, 3768, 3790, 3739, 3797, 3804, 3757, 0, 1, 17702, -90.000, 0.000, 140.400, 0.000, 0.000, -2.800, 0.0, , , , , , 99, , , 15, 15, 15
36.6869859, -118.9584811, 36.500, 14:27:00.015, 18, 0.00, 0.63, 97, 3.200, 2.000, 140.600, 269, 100, 99, 16, 22691, -20343, 5399, 5567, 7, 14, 1523654820.016, 195, 0, 1024, 1024, 1024, 1024, 0, 6, 3768, 3790, 3739, 3797, 3804, 3757, 0, 1, 17801, -90.000, 0.000, 140.400, 0.000, 0.000, -2.800, 0.0, , , , , , 99, , , 15, 15, 15
36.6869859, -118.9584811, 37.100, 14:27:00.115, 18, 0.00, 0.63, 97, 3.400, 2.200, 140.800, 269, 100, 99, 16, 22691, -20343, 5399, 5567, 7, 14, 1523654820.116, 81, 0, 1024, 1024, 1024, 1024, 0, 6, 3768, 3790, 3739, 3797, 3804, 3757, 0, 1, 17901, -89.900, 0.000, 140.400, 0.000, 0.000, -2.900, 0.0, , , , , , 99, , , 15, 15, 15
36.6869860, -118.9584810, 37.400, 14:27:00.216, 18, 0.00, 0.63, 97, 3.500, 2.200, 140.800, 269, 100, 99, 16, 22691, -20343, 5399, 5567, 7, 14, 1523654820.217, 89, 0, 1024, 1024, 1024, 1024, 0, 6, 3768, 3790, 3739, 3797, 3804, 3757, 0, 1, 18002, -89.900, 0.000, 140.400, 0.000, 0.000, -2.900, 0.0, , , , , , 99, , , 15, 15, 15
36.6869860, -118.9584809, 37.700, 14:27:00.316, 18, 0.00, 0.64, 97, 3.700, 2.200, 140.900, 269, 100, 99, 16, 22691, -20343, 5399, 5567, 7, 14, 1523654820.317, 64, 0, 1024, 1024, 1024, 1024, 0, 6, 3768, 3790, 3739, 3797, 3804, 3757, 0, 1, 18102, -89.900, 0.000, 140.400, 0.000, 0.000, -3.000, 0.0, , , , , , 99, , , 15, 15, 15
36.6869860, -118.9584809, 38.000, 14:27:00.417, 18, 0.00, 0.65, 97, 4.000, 2.300, 140.900, 269, 100, 99, 16, 22691, -20343, 5399, 5567, 7, 14, 1523654820.418, 64, 0, 1024, 1024, 1024, 1024, 0, 6, 3770, 3797, 3758, 3795, 3813, 3775, 0, 1, 18203, -89.900, 0.000, 140.400, 0.000, 0.000, -2.900, 0.0, , , , , , 99, , , 15, 15, 15
36.6869860, -118.9584808, 38.300, 14:27:00.516, 18, 0.00, 0.65, 97, 4.000, 2.300, 140.900, 269, 100, 99, 16, 22691, -20343, 5399, 5567, 7, 14, 1523654820.517, 76, 0, 1024, 1024, 1024, 1024, 0, 6, 3770, 3797, 3758, 3795, 3813, 3775, 0, 1, 18302, -89.900, 0.000, 140.400, 0.000, 0.000, -2.800, 0.0, , , , , , 99, , , 15, 15, 15
36.6869860, -118.9584808, 38.600, 14:27:00.617, 18, 0.00, 0.66, 97, 3.800, 2.400, 140.900, 269, 100, 99, 16, 22691, -20343, 5399, 5567, 7, 14, 1523654820.618, 66, 0, 1024, 1024, 1024, 1024, 0, 6, 3770, 3797, 3758, 3795, 3813, 3775, 0, 1, 18403, -89.900, 0.000, 140.400, 0.000, 0.000, -2.800, 0.0, , , , , , 99, , , 15, 15, 15
36.6869860, -118.9584807, 38.800, 14:27:00.717, 18, 0.00, 0.66, 97, 3.600, 2.600, 141.000, 269, 100, 99, 16, 22691, -20343, 5399, 5567, 7, 14, 1523654820.718, 49, 0, 1024, 1024, 1024, 1024, 0, 6, 3770, 3797, 3758, 3795, 3813, 3775, 0, 1, 18503, -89.900, 0.000, 140.400, 0.000, 0.000, -2.800, 0.0, , , , , , 99, , , 15, 15, 15
36.6869860, -118.9584806, 39.100, 14:27:00.816, 18, 0.00, 0.67, 97, 3.600, 2.900, 141.000, 269, 100, 99, 16, 22691, -20343, 5399, 5567, 7, 14, 1523654820.816, 44, 0, 1024, 1024, 1024, 1024, 0, 6, 3770, 3797, 3758, 3795, 3813, 3775, 0, 1, 18602, -89.900, 0.000, 140.400, 0.000, 0.000, -2.900, 0.0, , , , , , 99, , , 15, 15, 15
36.6869860, -118.9584806, 39.400, 14:27:00.916, 18, 0.00, 0.67, 97, 3.700, 3.100, 141.000, 269, 100, 100, 16, 22691, -20343, 5399, 5567, 7, 14, 1523654820.917, 40, 0, 1024, 1024, 1024, 1024, 0, 6, 3770, 3797, 3758, 3795, 3813, 3775, 0, 1, 18702, -89.900, 0.000, 140.400, 0.000, 0.000, -2.900, 0.0, , , , , , 99, , , 15, 15, 15
36.6869860, -118.9584805, 39.700, 14:27:01.016, 18, 0.00, 0.68, 97, 3.900, 3.300, 140.900, 269, 100, 100, 16, 22691, -20343, 5399, 5567, 7, 14, 1523654821.016, 54, 0, 1024, 1024, 1024, 1024, 0, 6, 3770, 3797, 3758, 3795, 3813, 3775, 0, 1, 18802, -89.900, 0.000, 140.400, 0.000, 0.000, -2.900, 0.0, , , , , , 99, , , 15, 15, 15
36.6869860, -118.9584804, 40.000, 14:27:01.116, 18, 0.00, 0.68, 97, 4.100, 3.300, 140.900, 269, 100, 100, 16, 22691, -20343, 5399, 5567, 7, 14, 1523654821.117, 46, 0, 1024, 1024, 1024, 1024, 0, 6, 3770, 3797, 3758, 3795, 3813, 3775, 0, 1, 18902, -89.900, 0.000, 140.400, 0.000, 0.000, -2.900, 0.0, , , , , , 99, , , 15, 15, 15
36.6869860, -118.9584804, 40.300, 14:27:01.216, 18, 0.00, 0.69, 97, 4.300, 3.300, 140.900, 269, 100, 100, 16, 22691, -20343, 5399, 5567, 7, 14, 1523654821.218, 32, 0, 1024, 1024, 1024, 1024, 0, 6, 3770, 3797, 3758, 3795, 3813, 3775, 0, 1, 19003, -89.900, 0.000, 140.400, 0.000, 0.000, -2.900, 0.0, , , , , , 99, , , 15, 15, 15
36.6869860, -118.9584802, 40.600, 14:27:01.316, 18, 0.00, 0.70, 97, 4.700, 3.400, 140.800, 269, 100, 100, 16, 22750, -19428, 5399, 5567, 7, 14, 1523654821.316, 11, 0, 1024, 1024, 1024, 1024, 0, 6, 3770, 3797, 3758, 3795, 3813, 3775, 0, 1, 19102, -89.900, 0.000, 140.400, 0.000, 0.000, -2.900, 0.0, , , , , , 99, , , 15, 15, 15
36.6869860, -118.9584801, 40.900, 14:27:01.417, 18, 0.00, 0.71, 97, 5.000, 3.400, 140.700, 269, 100, 100, 16, 22750, -19428, 5399, 5567, 7, 14, 1523654821.418, 14, 0, 1024, 1024, 1024, 1024, 0, 6, 3770, 3797, 3758, 3795, 3813, 3775, 0, 1, 19203, -89.900, 0.000, 140.400, 0.000, 0.000, -2.900, 0.0, , , , , , 99, , , 15, 15, 15
36.6869860, -118.9584800, 41.200, 14:27:01.516, 18, 0.00, 0.72, 97, 5.200, 3.500, 140.600, 269, 100, 100, 16, 22750, -19428, 5399, 5567, 7, 14, 1523654821.517, 12, 0, 1024, 1024, 1024, 1024, 0, 6, 3762, 3787, 3769, 3794, 3809, 3778, 0, 1, 19302, -89.900, 0.000, 140.400, 0.000, 0.000, -2.900, 0.0, , , , , , 99, , , 15, 15, 15
36.6869860, -118.9584800, 41.200, 14:27:01.616, 18, 0.00, 0.72, 97, 5.200, 3.500, 140.600, 269, 100, 100, 16, 22750, -19428, 5399, 5567, 7, 14, 1523654821.620, 115, 0, 1024, 1024, 1024, 1024, 0, 6, 3762, 3787, 3769, 3794, 3809, 3778, 0, 1, 19405, -89.900, 0.000, 140.400, 0.000, 0.000, -2.900, 0.0, , , , , , 99, , , 15, 15, 15
36.6869860, -118.9584799, 41.700, 14:27:01.719, 18, 0.00, 0.73, 97, 5.100, 3.600, 140.800, 269, 100, 100, 16, 22750, -19428, 5399, 5567, 7, 14, 1523654821.720, 16, 0, 1024, 1024, 1024, 1024, 0, 6, 3762, 3787, 3769, 3794, 3809, 3778, 0, 1, 19505, -89.900, 0.000, 140.400, 0.000, 0.000, -2.900, 0.0, , , , , , 99, , , 15, 15, 15
36.6869860, -118.9584799, 41.700, 14:27:01.815, 18, 0.00, 0.73, 97, 5.100, 3.600, 140.800, 269, 100, 100, 16, 22750, -19428, 5399, 5567, 7, 14, 1523654821.818, 113, 0, 1024, 1024, 1024, 1024, 0, 6, 3762, 3787, 3769, 3794, 3809, 3778, 0, 1, 19603, -89.900, 0.000, 140.400, 0.000, 0.000, -2.900, 0.0, , , , , , 99, , , 15, 15, 15
36.6869861, -118.9584798, 42.000, 14:27:01.915, 18, 0.00, 0.74, 97, 5.300, 3.700, 141.100, 269, 100, 99, 16, 22750, -19428, 5399, 5567, 7, 14, 1523654821.916, 71, 0, 1024, 1024, 1024, 1024, 0, 6, 3762, 3787, 3769, 3794, 3809, 3778, 0, 1, 19702, -89.900, 0.000, 140.400, 0.000, 0.000, -2.900, 0.0, , , , , , 99, , , 15, 15, 15
36.6869861, -118.9584797, 42.300, 14:27:02.015, 18, 0.00, 0.75, 97, 5.400, 3.800, 141.300, 269, 100, 99, 16, 22750, -19428, 5399, 5567, 7, 14, 1523654822.017, 48, 0, 1024, 1024, 1024, 1024, 0, 6, 3762, 3787, 3769, 3794, 3809, 3778, 0, 1, 19802, -89.900, 0.000, 140.400, 0.000, 0.000, -3.000, 0.0, , , , , , 99, , , 15, 15, 15
36.6869861, -118.9584797, 42.300, 14:27:02.115, 18, 0.00, 0.75, 97, 5.400, 3.800, 141.300, 269, 100, 99, 16, 22750, -19428, 5399, 5567, 7, 14, 1523654822.116, 147, 0, 1024, 1024, 1024, 1024, 0, 6, 3762, 3787, 3769, 3794, 3809, 3778, 0, 1, 19902, -89.900, 0.000, 140.400, 0.000, 0.000, -3.000, 0.0, , , , , , 99, , , 15, 15, 15
36.6869861, -118.9584797, 42.600, 14:27:02.217, 18, 0.00, 0.75, 97, 5.300, 3.800, 141.400, 269, 100, 99, 16, 22750, -19428, 5399, 5567, 7, 14, 1523654822.218, 47, 0, 1024, 1024, 1024, 1024, 0, 6, 3762, 3787, 3769, 3794, 3809, 3778, 0, 1, 20003, -89.900, 0.000, 140.400, 0.000, 0.000, -3.000, 0.0, , , , , , 99, , , 15, 15, 15
36.6869861, -118.9584796, 42.900, 14:27:02.316, 18, 0.00, 0.75, 97, 5.000, 3.600, 141.400, 269, 100, 99, 16, 22750, -19428, 5399, 5567, 7, 14, 1523654822.317, 68, 0, 1024, 1024, 1024, 1024, 0, 6, 3762, 3787, 3769, 3794, 3809, 3778, 0, 1, 20102, -89.900, 0.000, 140.400, 0.000, 0.000, -2.900, 0.0, , , , , , 99, , , 15, 15, 15
36.6869861, -118.9584796, 43.200, 14:27:02.416, 18, 0.00, 0.75, 97, 4.900, 3.300, 141.400, 269, 100, 99, 16, 22750, -19428, 5399, 5567, 7, 14, 1523654822.418, 13, 0, 1024, 1024, 1024, 1024, 0, 6, 3762, 3787, 3769, 3794, 3809, 3778, 0, 1, 20203, -89.900, 0.000, 140.400, 0.000, 0.000, -2.900, 0.0, , , , , , 99, , , 15, 15, 15
36.6869862, -118.9584796, 43.900, 14:27:02.516, 18, 0.00, 0.76, 97, 5.100, 3.200, 141.600, 269, 100, 99, 16, 22692, -19288, 5399, 5567, 7, 14, 1523654822.519, 30, 0, 1024, 1024, 1024, 1024, 0, 6, 3762, 3787, 3769, 3794, 3809, 3778, 0, 1, 20304, -89.900, 0.000, 140.400, 0.000, 0.000, -3.100, 0.0, , , , , , 99, , , 15, 15, 15
36.6869862, -118.9584796, 43.900, 14:27:02.615, 18, 0.00, 0.76, 97, 5.100, 3.200, 141.600, 269, 100, 99, 16, 22692, -19288, 5399, 5567, 7, 14, 1523654822.616, 127, 0, 1024, 1024, 1024, 1024, 0, 6, 3762, 3787, 3769, 3794, 3809, 3778, 0, 1, 20401, -89.900, 0.000, 140.400, 0.000, 0.000, -3.100, 0.0, , , , , , 99, , , 15, 15, 15
36.6869862, -118.9584795, 44.200, 14:27:02.716, 18, 0.00, 0.76, 97, 5.500, 3.300, 141.500, 269, 100, 99, 16, 22692, -19288, 5399, 5567, 7, 14, 1523654822.716, 75, 0, 1024, 1024, 1024, 1024, 0, 6, 3776, 3799, 3762, 3809, 3813, 3777, 0, 1, 20502, -89.900, 0.000, 140.400, 0.000, 0.000, -3.000, 0.0, , , , , , 99, , , 15, 15, 15
36.6869862, -118.9584795, 44.200, 14:27:02.816, 18, 0.00, 0.76, 97, 5.500, 3.300, 141.500, 269, 100, 99, 16, 22692, -19288, 5399, 5567, 7, 14, 1523654822.817, 176, 0, 1024, 1024, 1024, 1024, 0, 6, 3776, 3799, 3762, 3809, 3813, 3777, 0, 1, 20603, -89.900, 0.000, 140.400, 0.000, 0.000, -3.000, 0.0, , , , , , 99, , , 15, 15, 15
36.6869863, -118.9584795, 44.800, 14:27:02.915, 18, 0.00, 0.76, 97, 6.000, 3.100, 140.800, 269, 100, 99, 16, 22692, -19288, 5399, 5567, 7, 14, 1523654822.916, 76, 0, 1024, 1024, 1024, 1024, 0, 6, 3776, 3799, 3762, 3809, 3813, 3777, 0, 1, 20701, -89.900, 0.000, 140.400, 0.000, 0.000, -3.000, 0.0, , , , , , 99, , , 15, 15, 15
36.6869864, -118.9584795, 45.100, 14:27:03.015, 18, 0.00, 0.77, 97, 6.100, 2.800, 140.500, 269, 100, 99, 16, 22692, -19288, 5399, 5567, 7, 14, 1523654823.016, 77, 0, 1024, 1024, 1024, 1024, 0, 6, 3776, 3799, 3762, 3809, 3813, 3777, 0, 1, 20801, -90.000, 0.000, 140.400, 0.000, 0.000, -2.900, 0.0, , , , , , 99, , , 15, 15, 15
