Latitude, Longitude, Altitude (m), Time, Sats, Speed (m/s), Range (m), Battery (%), Roll (deg), Pitch (deg), Yaw (deg), Images, HD Signal (%), RC Signal (%), Battery Temp (C), Battery Voltage (mV), Battery Current (mA), Battery Energy (mAh), Battery Capacity (mAh), Battery Discharges, flyState, timestamp (Unix), LastUpdate (ms), radioChannel, Rc_elevator, Rc_aileron, Rc_throttle, Rc_rudder, Rc_gyro, Dronetype, Battery_Cell1 (mV), Battery_Cell2 (mV), Battery_Cell3 (mV), Battery_Cell4 (mV), Battery_Cell5 (mV), Battery_Cell6 (mV), Video, isFlying, elapsedTime (ms), gimbalPitch (deg), gimbalRoll (deg), gimbalYaw (deg), VelocityX (m/s), VelocityY (m/s), VelocityZ (m/s), GroundSmear (cm), App Version, Aircraft Name, Aircraft Firmware, Aircraft Serial Number, Battery Serial Number, Battery Lifetime (%), App_Tip, App_Warning, CurrentFlightStartingIndex, CurrentFlightLastVisitedWaypoint, PreviousFlightEndingWaypointIndex
36.6869859, -118.9584901, 0.000, 15:11:09.831, 17, 0.00, 0.04, 91, -0.800, 0.100, 134.600, 801, 100, 100, 14, 25278, -4029, 5031, 5529, 9, 11, 1523657469.832, 59, 0, 1024, 1024, 1025, 1024, 0, 6, 4180, 4232, 4208, 4227, 4197, 4239, 0, 1, 3004, -89.900, 0.000, 132.500, 0.000, 0.000, -0.100, 0.0, MapPilot_2.7.4_02272018, Dendroctonus I, 1.3.1.00, 041DDC1887, 1058171200140, 98, DJI_0798.jpg, Starting Mission from Lat/Long: 36.68697/-118.95849 Camera: Zenmuse X3 - Overlap: 90/90 - Active Connection: Yes, 45, 45, 45
36.6869859, -118.9584900, 0.000, 15:11:09.929, 17, 0.00, 0.04, 91, -0.600, 0.000, 134.700, 801, 100, 100, 14, 25278, -4029, 5031, 5529, 9, 11, 1523657469.929, 69, 0, 1024, 1024, 1025, 1024, 0, 6, 4180, 4232, 4208, 4227, 4197, 4239, 0, 1, 3101, -89.900, 0.000, 132.500, 0.000, 0.000, -0.300, 0.0, , , , , , 98, , , 45, 45, 45
36.6869859, -118.9584900, 0.000, 15:11:10.028, 17, 0.00, 0.05, 91, 0.000, 0.100, 134.700, 801, 100, 100, 14, 25278, -4029, 5031, 5529, 9, 11, 1523657470.028, 48, 0, 1024, 1024, 1024, 1024, 0, 6, 4180, 4232, 4208, 4227, 4197, 4239, 0, 1, 3200, -89.900, 0.000, 132.500, 0.000, 0.000, -0.300, 0.0, , , , , , 98, , , 45, 45, 45
36.6869859, -118.9584899, 0.100, 15:11:10.129, 17, 0.00, 0.05, 91, 0.400, 0.000, 134.700, 801, 100, 100, 14, 25278, -4029, 5031, 5529, 9, 11, 1523657470.129, 55, 0, 1024, 1024, 1025, 1024, 0, 6, 4180, 4232, 4208, 4227, 4197, 4239, 0, 1, 3301, -89.900, 0.000, 132.600, 0.000, 0.000, -0.400, 0.0, , , , , , 98, , , 45, 45, 45
36.6869858, -118.9584899, 0.100, 15:11:10.229, 14, 0.00, 0.05, 91, 0.300, -0.200, 134.600, 801, 100, 100, 14, 24455, -9494, 5031, 5529, 9, 11, 1523657470.229, 44, 0, 1024, 1024, 1025, 1024, 0, 6, 4180, 4232, 4208, 4227, 4197, 4239, 0, 1, 3401, -89.900, 0.000, 132.600, 0.000, 0.000, -0.400, 0.0, , , , , , 98, , , 45, 45, 45
36.6869858, -118.9584898, 0.200, 15:11:10.328, 14, 0.00, 0.05, 91, 0.000, 0.000, 134.500, 801, 100, 100, 14, 24455, -9494, 5031, 5529, 9, 11, 1523657470.329, 32, 0, 1024, 1024, 1025, 1024, 0, 6, 4180, 4232, 4208, 4227, 4197, 4239, 0, 1, 3501, -89.900, 0.000, 132.700, 0.000, 0.000, -0.400, 0.0, , , , , , 98, , , 45, 45, 45
36.6869857, -118.9584898, 0.200, 15:11:10.429, 14, 0.00, 0.05, 91, -0.200, 0.300, 134.300, 801, 100, 100, 14, 24455, -9494, 5031, 5529, 9, 11, 1523657470.429, 34, 0, 1024, 1024, 1025, 1024, 0, 6, 4180, 4232, 4208, 4227, 4197, 4239, 0, 1, 3601, -89.900, 0.000, 132.700, 0.000, 0.000, -0.400, 0.0, , , , , , 98, , , 45, 45, 45
36.6869856, -118.9584898, 0.200, 15:11:10.529, 14, 0.00, 0.05, 91, -0.400, 0.500, 134.100, 801, 100, 100, 14, 24455, -9494, 5031, 5529, 9, 11, 1523657470.529, 33, 0, 1024, 1024, 1025, 1024, 0, 6, 4180, 4232, 4208, 4227, 4197, 4239, 0, 1, 3701, -89.900, 0.000, 132.700, 0.000, 0.000, -0.400, 0.0, , , , , , 98, , , 45, 45, 45
36.6869856, -118.9584897, 0.300, 15:11:10.629, 15, 0.00, 0.06, 91, -0.600, 0.700, 133.800, 801, 100, 100, 14, 24455, -9494, 5031, 5529, 9, 11, 1523657470.629, 22, 0, 1024, 1024, 1024, 1024, 0, 6, 4180, 4232, 4208, 4227, 4197, 4239, 0, 1, 3801, -89.900, 0.000, 132.800, 0.000, 0.000, -0.300, 0.0, , , , , , 98, , , 45, 45, 45
36.6869855, -118.9584896, 0.300, 15:11:10.729, 15, 0.00, 0.07, 91, -0.700, 0.800, 133.700, 801, 100, 100, 14, 24455, -9494, 5031, 5529, 9, 11, 1523657470.729, 13, 0, 1024, 1024, 1025, 1024, 0, 6, 3970, 4039, 4002, 4032, 3994, 4046, 0, 1, 3901, -89.900, 0.000, 132.800, 0.000, 0.000, -0.300, 0.0, , , , , , 98, , , 45, 45, 45
36.6869854, -118.9584895, 0.400, 15:11:10.828, 16, 0.00, 0.08, 91, -0.400, 1.300, 133.600, 801, 100, 100, 14, 24455, -9494, 5031, 5529, 9, 11, 1523657470.828, 9, 0, 1024, 1024, 1025, 1024, 0, 6, 3970, 4039, 4002, 4032, 3994, 4046, 0, 1, 4000, -89.900, 0.000, 132.800, 0.000, 0.000, -0.400, 0.0, , , , , , 98, , , 45, 45, 45
36.6869854, -118.9584894, 0.400, 15:11:10.929, 16, 0.00, 0.09, 91, -0.100, 1.600, 133.700, 801, 100, 100, 14, 24455, -9494, 5031, 5529, 9, 11, 1523657470.930, 14, 0, 1024, 1024, 1024, 1024, 0, 6, 3970, 4039, 4002, 4032, 3994, 4046, 0, 1, 4101, -89.900, 0.000, 132.900, 0.000, 0.000, -0.400, 0.0, , , , , , 98, , , 45, 45, 45
36.6869854, -118.9584894, 0.400, 15:11:11.028, 16, 0.00, 0.09, 91, -0.100, 1.600, 133.700, 801, 100, 100, 14, 24455, -9494, 5031, 5529, 9, 11, 1523657471.028, 112, 0, 1024, 1024, 1024, 1024, 0, 6, 3970, 4039, 4002, 4032, 3994, 4046, 0, 1, 4200, -89.900, 0.000, 132.900, 0.000, 0.000, -0.400, 0.0, , , , , , 98, , , 45, 45, 45
36.6869853, -118.9584892, 0.500, 15:11:11.129, 17, 0.00, 0.11, 91, 0.000, 1.600, 133.900, 801, 100, 100, 14, 24455, -9494, 5031, 5529, 9, 11, 1523657471.129, 86, 0, 1024, 1024, 1025, 1024, 0, 6, 3970, 4039, 4002, 4032, 3994, 4046, 0, 1, 4301, -89.900, 0.000, 132.900, 0.000, 0.000, -0.500, 0.0, , , , , , 98, , , 45, 45, 45
36.6869851, -118.9584890, 0.600, 15:11:11.230, 17, 0.00, 0.13, 91, 0.100, 1.700, 134.100, 801, 100, 100, 14, 24455, -9494, 5031, 5529, 9, 11, 1523657471.231, 2, 0, 1024, 1024, 1025, 1024, 0, 6, 3970, 4039, 4002, 4032, 3994, 4046, 0, 1, 4403, -89.900, 0.000, 133.000, 0.000, 0.000, -0.500, 0.0, , , , , , 98, , , 45, 45, 45
36.6869851, -118.9584890, 0.600, 15:11:11.329, 17, 0.00, 0.13, 91, 0.100, 1.700, 134.100, 801, 100, 100, 14, 24455, -9494, 5031, 5529, 9, 11, 1523657471.329, 101, 0, 1024, 1024, 1025, 1024, 0, 6, 3970, 4039, 4002, 4032, 3994, 4046, 0, 1, 4501, -89.900, 0.000, 133.000, 0.000, 0.000, -0.500, 0.0, , , , , , 98, , , 45, 45, 45
36.6869851, -118.9584890, 0.700, 15:11:11.429, 17, 0.00, 0.13, 91, 0.100, 1.700, 134.300, 801, 100, 100, 14, 24455, -9494, 5031, 5529, 9, 11, 1523657471.429, 86, 0, 1024, 1024, 1025, 1024, 0, 6, 3970, 4039, 4002, 4032, 3994, 4046, 0, 1, 4601, -89.900, 0.000, 133.000, 0.000, 0.000, -0.500, 0.0, , , , , , 98, , , 45, 45, 45
36.6869851, -118.9584889, 0.700, 15:11:11.529, 17, 0.00, 0.14, 91, 0.000, 1.500, 134.500, 801, 100, 100, 14, 24455, -9494, 5031, 5529, 9, 11, 1523657471.529, 91, 0, 1024, 1024, 1025, 1024, 0, 6, 3970, 4039, 4002, 4032, 3994, 4046, 0, 1, 4701, -89.900, 0.000, 133.000, 0.000, 0.000, -0.500, 0.0, , , , , , 98, , , 45, 45, 45
36.6869850, -118.9584887, 0.800, 15:11:11.629, 18, 0.00, 0.15, 91, -0.100, 1.700, 134.700, 801, 100, 100, 14, 24455, -9494, 5031, 5529, 9, 11, 1523657471.629, 78, 0, 1024, 1024, 1025, 1024, 0, 6, 3970, 4039, 4002, 4032, 3994, 4046, 0, 1, 4801, -89.900, 0.000, 133.000, 0.000, 0.000, -0.500, 0.0, , , , , , 98, , , 45, 45, 45
36.6869850, -118.9584887, 0.900, 15:11:11.729, 18, 0.00, 0.16, 91, -0.100, 1.900, 135.000, 801, 100, 100, 14, 23426, -16863, 5031, 5529, 9, 6, 1523657471.729, 94, 0, 1024, 1024, 1024, 1024, 0, 6, 3862, 3887, 3899, 3917, 3883, 3902, 0, 1, 4901, -89.900, 0.000, 133.100, 0.000, 0.000, -0.500, 0.0, , , , , , 98, , , 45, 45, 45
36.6869849, -118.9584886, 0.900, 15:11:11.829, 18, 0.00, 0.17, 91, -0.100, 2.300, 135.200, 801, 100, 100, 14, 23426, -16863, 5031, 5529, 9, 14, 1523657471.829, 71, 0, 1024, 1024, 1024, 1024, 0, 6, 3862, 3887, 3899, 3917, 3883, 3902, 0, 1, 5001, -89.900, 0.000, 133.100, 0.000, 0.000, -0.500, 0.0, , , , , , 98, , , 45, 45, 45
36.6869849, -118.9584886, 1.000, 15:11:11.929, 18, 0.00, 0.17, 91, -0.200, 2.100, 135.500, 801, 100, 100, 14, 23426, -16863, 5031, 5529, 9, 14, 1523657471.929, 56, 0, 1024, 1024, 1025, 1024, 0, 6, 3862, 3887, 3899, 3917, 3883, 3902, 0, 1, 5101, -89.900, 0.000, 133.200, 0.000, 0.000, -0.300, 0.0, , , , , , 98, , , 45, 45, 45
36.6869849, -118.9584885, 1.000, 15:11:12.028, 17, 0.00, 0.18, 91, -0.200, 1.500, 135.900, 801, 100, 100, 14, 23426, -16863, 5031, 5529, 9, 14, 1523657472.028, 82, 0, 1024, 1024, 1025, 1024, 0, 6, 3862, 3887, 3899, 3917, 3883, 3902, 0, 1, 5200, -89.900, 0.000, 133.200, 0.000, 0.000, -0.300, 0.0, , , , , , 98, , , 45, 45, 45
36.6869848, -118.9584884, 1.100, 15:11:12.129, 17, 0.00, 0.19, 91, 0.000, 1.300, 136.200, 801, 100, 100, 14, 23426, -16863, 5031, 5529, 9, 14, 1523657472.129, 75, 0, 1024, 1024, 1025, 1024, 0, 6, 3862, 3887, 3899, 3917, 3883, 3902, 0, 1, 5301, -89.900, 0.000, 133.300, 0.000, 0.000, -0.200, 0.0, , , , , , 98, , , 45, 45, 45
36.6869848, -118.9584883, 1.100, 15:11:12.229, 18, 0.00, 0.20, 91, 0.200, 1.300, 136.400, 801, 100, 100, 14, 23426, -16863, 5031, 5529, 9, 14, 1523657472.229, 47, 0, 1024, 1024, 1025, 1024, 0, 6, 3862, 3887, 3899, 3917, 3883, 3902, 0, 1, 5401, -89.900, 0.000, 133.400, 0.000, 0.000, -0.300, 0.0, , , , , , 98, , , 45, 45, 45
36.6869847, -118.9584882, 1.100, 15:11:12.329, 18, 0.00, 0.21, 91, 0.300, 1.300, 136.500, 801, 100, 100, 14, 23426, -16863, 5031, 5529, 9, 14, 1523657472.329, 47, 0, 1024, 1024, 1025, 1024, 0, 6, 3862, 3887, 3899, 3917, 3883, 3902, 0, 1, 5501, -89.900, 0.000, 133.500, 0.000, 0.000, -0.400, 0.0, , , , , , 98, , , 45, 45, 45
36.6869846, -118.9584881, 1.200, 15:11:12.429, 20, 0.00, 0.22, 91, 0.200, 1.500, 136.600, 801, 100, 100, 14, 23426, -16863, 5031, 5529, 9, 14, 1523657472.429, 49, 0, 1024, 1024, 1025, 1024, 0, 6, 3862, 3887, 3899, 3917, 3883, 3902, 0, 1, 5601, -89.900, 0.000, 133.600, 0.000, 0.000, -0.500, 0.0, , , , , , 98, , , 45, 45, 45
36.6869846, -118.9584880, 1.200, 15:11:12.529, 20, 0.00, 0.23, 91, 0.200, 1.700, 136.600, 801, 100, 100, 14, 23426, -16863, 5031, 5529, 9, 14, 1523657472.529, 57, 0, 1024, 1024, 1025, 1024, 0, 6, 3862, 3887, 3899, 3917, 3883, 3902, 0, 1, 5701, -89.900, 0.000, 133.700, 0.000, 0.000, -0.700, 0.0, , , , , , 98, , , 45, 45, 45
36.6869845, -118.9584879, 1.300, 15:11:12.629, 19, 0.00, 0.24, 91, 0.300, 1.800, 136.500, 801, 100, 100, 14, 23426, -16863, 5031, 5529, 9, 14, 1523657472.629, 46, 0, 1024, 1024, 1025, 1024, 0, 6, 3862, 3887, 3899, 3917, 3883, 3902, 0, 1, 5801, -89.900, 0.000, 133.700, 0.000, 0.000, -1.000, 0.0, , , , , , 98, , , 45, 45, 45
36.6869844, -118.9584879, 1.400, 15:11:12.729, 19, 0.00, 0.25, 91, 0.000, 2.000, 136.400, 801, 100, 100, 14, 23191, -17187, 5031, 5529, 9, 14, 1523657472.729, 26, 0, 1024, 1024, 1025, 1024, 0, 6, 3862, 3887, 3899, 3917, 3883, 3902, 0, 1, 5901, -89.900, 0.000, 133.700, 0.000, 0.000, -1.200, 0.0, , , , , , 98, , , 45, 45, 45
36.6869843, -118.9584878, 1.600, 15:11:12.829, 17, 0.00, 0.27, 91, -0.100, 2.100, 136.200, 801, 100, 100, 14, 23191, -17187, 5031, 5529, 9, 14, 1523657472.829, 19, 0, 1024, 1024, 1025, 1024, 0, 6, 3862, 3887, 3899, 3917, 3883, 3902, 0, 1, 6001, -89.900, 0.000, 133.900, 0.000, 0.000, -1.400, 0.0, , , , , , 98, , , 45, 45, 45
36.6869843, -118.9584877, 1.700, 15:11:12.929, 17, 0.00, 0.27, 91, -0.200, 2.200, 136.100, 801, 100, 100, 14, 23191, -17187, 5031, 5529, 9, 14, 1523657472.929, 21, 0, 1024, 1024, 1025, 1024, 0, 6, 3847, 3873, 3864, 3890, 3847, 3892, 0, 1, 6101, -89.900, 0.000, 133.900, 0.000, 0.000, -1.500, 0.0, , , , , , 98, , , 45, 45, 45
36.6869842, -118.9584876, 1.900, 15:11:13.034, 19, 0.00, 0.28, 91, -0.200, 2.300, 136.100, 801, 100, 100, 14, 23191, -17187, 5031, 5529, 9, 14, 1523657473.034, 15, 0, 1024, 1024, 1025, 1024, 0, 6, 3847, 3873, 3864, 3890, 3847, 3892, 0, 1, 6206, -89.900, 0.000, 133.900, 0.000, 0.000, -1.800, 0.0, , , , , , 98, , , 45, 45, 45
36.6869842, -118.9584876, 1.900, 15:11:13.129, 19, 0.00, 0.28, 91, -0.200, 2.300, 136.100, 801, 100, 100, 14, 23191, -17187, 5031, 5529, 9, 14, 1523657473.129, 110, 0, 1024, 1024, 1024, 1024, 0, 6, 3847, 3873, 3864, 3890, 3847, 3892, 0, 1, 6301, -89.900, 0.000, 134.000, 0.000, 0.000, -1.800, 0.0, , , , , , 98, , , 45, 45, 45
36.6869842, -118.9584874, 2.300, 15:11:13.228, 18, 0.00, 0.31, 91, 0.000, 2.300, 136.100, 801, 100, 100, 14, 23191, -17187, 5031, 5529, 9, 14, 1523657473.228, 8, 0, 1024, 1024, 1025, 1024, 0, 6, 3847, 3873, 3864, 3890, 3847, 3892, 0, 1, 6400, -89.900, 0.000, 134.100, 0.000, 0.000, -2.300, 0.0, , , , , , 98, , , 45, 45, 45
36.6869842, -118.9584874, 2.300, 15:11:13.329, 18, 0.00, 0.31, 91, 0.000, 2.300, 136.100, 801, 100, 100, 14, 23191, -17187, 5031, 5529, 9, 14, 1523657473.329, 109, 0, 1024, 1024, 1025, 1024, 0, 6, 3847, 3873, 3864, 3890, 3847, 3892, 0, 1, 6501, -89.900, 0.000, 134.100, 0.000, 0.000, -2.300, 0.0, , , , , , 98, , , 45, 45, 45
36.6869844, -118.9584870, 2.800, 15:11:13.429, 18, 0.00, 0.32, 91, 0.900, 1.600, 136.200, 801, 100, 100, 14, 23191, -17187, 5031, 5529, 9, 14, 1523657473.430, 86, 0, 1024, 1024, 1025, 1024, 0, 6, 3847, 3873, 3864, 3890, 3847, 3892, 0, 1, 6601, -89.900, 0.000, 134.200, 0.000, 0.000, -2.700, 0.0, , , , , , 98, , , 45, 45, 45
36.6869843, -118.9584869, 3.400, 15:11:13.529, 17, 0.00, 0.34, 91, 1.200, 1.600, 136.600, 801, 100, 100, 14, 23191, -17187, 5031, 5529, 9, 14, 1523657473.529, 14, 0, 1024, 1024, 1024, 1024, 0, 6, 3847, 3873, 3864, 3890, 3847, 3892, 0, 1, 6701, -89.900, 0.000, 134.300, 0.000, 0.000, -3.100, 0.0, , , , , , 98, , , 45, 45, 45
36.6869843, -118.9584869, 3.400, 15:11:13.629, 17, 0.00, 0.34, 91, 1.200, 1.600, 136.600, 801, 100, 100, 14, 23191, -17187, 5031, 5529, 9, 14, 1523657473.629, 114, 0, 1024, 1024, 1024, 1024, 0, 6, 3847, 3873, 3864, 3890, 3847, 3892, 0, 1, 6801, -89.900, 0.000, 134.300, 0.000, 0.000, -3.100, 0.0, , , , , , 98, , , 45, 45, 45
36.6869842, -118.9584868, 3.800, 15:11:13.729, 17, 0.00, 0.35, 91, 1.000, 2.000, 136.800, 801, 100, 100, 15, 22850, -20046, 5031, 5529, 9, 14, 1523657473.729, 77, 0, 1024, 1024, 1025, 1024, 0, 6, 3794, 3835, 3783, 3797, 3747, 3806, 0, 1, 6901, -89.900, 0.000, 134.300, 0.000, 0.000, -3.200, 0.0, , , , , , 98, , , 45, 45, 45
36.6869841, -118.9584867, 4.100, 15:11:13.829, 19, 0.00, 0.36, 91, 0.800, 2.300, 136.900, 801, 100, 100, 15, 22850, -20046, 5031, 5529, 9, 14, 1523657473.829, 82, 0, 1024, 1024, 1025, 1024, 0, 6, 3794, 3835, 3783, 3797, 3747, 3806, 0, 1, 7001, -89.900, 0.000, 134.400, 0.000, 0.000, -3.300, 0.0, , , , , , 98, , , 45, 45, 45
36.6869840, -118.9584866, 4.400, 15:11:13.929, 19, 0.00, 0.37, 91, 0.500, 2.300, 136.900, 801, 100, 100, 15, 22850, -20046, 5031, 5529, 9, 14, 1523657473.929, 85, 0, 1024, 1024, 1025, 1024, 0, 6, 3794, 3835, 3783, 3797, 3747, 3806, 0, 1, 7101, -89.900, 0.000, 134.400, 0.000, 0.000, -3.300, 0.0, , , , , , 98, , , 45, 45, 45
36.6869840, -118.9584866, 4.800, 15:11:14.028, 19, 0.00, 0.38, 91, 0.500, 2.300, 136.800, 801, 100, 100, 15, 22850, -20046, 5031, 5529, 9, 14, 1523657474.028, 82, 0, 1024, 1024, 1025, 1024, 0, 6, 3794, 3835, 3783, 3797, 3747, 3806, 0, 1, 7200, -89.900, 0.000, 134.400, 0.000, 0.000, -3.400, 0.0, , , , , , 98, , , 45, 45, 45
36.6869840, -118.9584866, 5.200, 15:11:14.129, 19, 0.00, 0.38, 91, 0.600, 2.200, 136.700, 801, 100, 100, 15, 22850, -20046, 5031, 5529, 9, 14, 1523657474.129, 87, 0, 1024, 1024, 1024, 1024, 0, 6, 3794, 3835, 3783, 3797, 3747, 3806, 0, 1, 7301, -89.900, 0.000, 134.500, 0.000, 0.000, -3.400, 0.0, , , , , , 98, , , 45, 45, 45
36.6869841, -118.9584865, 5.500, 15:11:14.229, 18, 0.00, 0.38, 91, 1.000, 2.000, 136.600, 801, 100, 100, 15, 22850, -20046, 5031, 5529, 9, 14, 1523657474.229, 31, 0, 1024, 1024, 1025, 1024, 0, 6, 3794, 3835, 3783, 3797, 3747, 3806, 0, 1, 7401, -89.900, 0.000, 134.500, 0.000, 0.000, -3.300, 0.0, , , , , , 98, , , 45, 45, 45
36.6869842, -118.9584865, 5.900, 15:11:14.329, 18, 0.00, 0.37, 91, 1.300, 1.600, 136.500, 801, 100, 100, 15, 22850, -20046, 5031, 5529, 9, 14, 1523657474.329, 67, 0, 1024, 1024, 1025, 1024, 0, 6, 3794, 3835, 3783, 3797, 3747, 3806, 0, 1, 7501, -89.900, 0.000, 134.500, 0.000, 0.000, -3.300, 0.0, , , , , , 98, , , 45, 45, 45
36.6869843, -118.9584865, 6.200, 15:11:14.429, 19, 0.10, 0.37, 91, 1.700, 1.400, 136.400, 801, 100, 100, 15, 22850, -20046, 5031, 5529, 9, 14, 1523657474.429, 54, 0, 1024, 1024, 1025, 1024, 0, 6, 3794, 3835, 3783, 3797, 3747, 3806, 0, 1, 7601, -89.900, 0.000, 134.600, 0.100, 0.000, -3.300, 0.0, , , , , , 98, , , 45, 45, 45
36.6869845, -118.9584864, 6.600, 15:11:14.529, 19, 0.10, 0.37, 91, 2.300, 1.300, 136.300, 801, 100, 100, 15, 22850, -20046, 5031, 5529, 9, 14, 1523657474.529, 58, 0, 1024, 1024, 1025, 1024, 0, 6, 3794, 3835, 3783, 3797, 3747, 3806, 0, 1, 7701, -89.900, 0.000, 134.600, 0.100, 0.000, -3.300, 0.0, , , , , , 98, , , 45, 45, 45
36.6869846, -118.9584864, 6.900, 15:11:14.629, 19, 0.10, 0.36, 91, 2.500, 1.300, 136.400, 801, 100, 100, 15, 22850, -20046, 5031, 5529, 9, 14, 1523657474.629, 58, 0, 1024, 1024, 1025, 1024, 0, 6, 3794, 3835, 3783, 3797, 3747, 3806, 0, 1, 7801, -89.900, 0.000, 134.600, 0.100, 0.000, -3.300, 0.0, , , , , , 98, , , 45, 45, 45
36.6869847, -118.9584864, 7.300, 15:11:14.729, 19, 0.10, 0.36, 91, 2.500, 1.300, 136.500, 801, 100, 100, 15, 22303, -23912, 5031, 5529, 9, 14, 1523657474.729, 64, 0, 1024, 1024, 1025, 1024, 0, 6, 3677, 3710, 3730, 3768, 3735, 3752, 0, 1, 7901, -89.900, 0.000, 134.700, 0.100, 0.000, -3.300, 0.0, , , , , , 98, , , 45, 45, 45
36.6869849, -118.9584864, 7.600, 15:11:14.829, 17, 0.10, 0.36, 91, 2.600, 1.200, 136.500, 801, 100, 100, 15, 22303, -23912, 5031, 5529, 9, 14, 1523657474.829, 39, 0, 1024, 1024, 1025, 1024, 0, 6, 3677, 3710, 3730, 3768, 3735, 3752, 0, 1, 8001, -90.000, 0.000, 134.700, 0.100, 0.000, -3.300, 0.0, , , , , , 98, , , 45, 45, 45
36.6869850, -118.9584864, 8.000, 15:11:14.929, 17, 0.10, 0.35, 91, 3.000, 0.800, 136.400, 801, 100, 100, 15, 22303, -23912, 5031, 5529, 9, 14, 1523657474.930, 40, 0, 1024, 1024, 1024, 1024, 0, 6, 3677, 3710, 3730, 3768, 3735, 3752, 0, 1, 8102, -90.000, 0.000, 134.700, 0.100, 0.000, -3.200, 0.0, , , , , , 98, , , 45, 45, 45
36.6869852, -118.9584865, 8.300, 15:11:15.028, 19, 0.10, 0.35, 91, 3.200, 0.400, 136.400, 801, 100, 100, 15, 22303, -23912, 5031, 5529, 9, 14, 1523657475.029, 40, 0, 1024, 1024, 1024, 1024, 0, 6, 3677, 3710, 3730, 3768, 3735, 3752, 0, 1, 8201, -90.000, 0.000, 134.800, 0.100, 0.000, -3.100, 0.0, , , , , , 98, , , 45, 45, 45
36.6869853, -118.9584863, 8.700, 15:11:15.129, 19, 0.10, 0.36, 91, 3.100, 0.100, 136.400, 801, 100, 100, 15, 22303, -23912, 5031, 5529, 9, 14, 1523657475.129, 26, 0, 1024, 1024, 1025, 1024, 0, 6, 3677, 3710, 3730, 3768, 3735, 3752, 0, 1, 8301, -90.000, 0.000, 134.800, 0.100, 0.000, -3.000, 0.0, , , , , , 98, , , 45, 45, 45
36.6869855, -118.9584862, 9.000, 15:11:15.228, 19, 0.00, 0.37, 91, 3.100, 0.300, 136.300, 801, 100, 100, 15, 22303, -23912, 5031, 5529, 9, 14, 1523657475.228, 11, 0, 1024, 1024, 1025, 1024, 0, 6, 3677, 3710, 3730, 3768, 3735, 3752, 0, 1, 8400, -89.900, 0.000, 134.800, 0.000, 0.000, -3.000, 0.0, , , , , , 98, , , 45, 45, 45
36.6869856, -118.9584863, 9.300, 15:11:15.329, 19, 0.00, 0.36, 91, 3.300, 0.500, 136.200, 801, 100, 100, 15, 22303, -23912, 5031, 5529, 9, 14, 1523657475.330, 17, 0, 1024, 1024, 1025, 1024, 0, 6, 3677, 3710, 3730, 3768, 3735, 3752, 0, 1, 8501, -90.000, 0.000, 134.800, 0.000, 0.000, -2.900, 0.0, , , , , , 98, , , 45, 45, 45
36.6869858, -118.9584864, 9.600, 15:11:15.429, 18, 0.00, 0.35, 91, 3.300, 0.300, 136.000, 801, 100, 100, 15, 22303, -23912, 5031, 5529, 9, 14, 1523657475.429, 18, 0, 1024, 1024, 1025, 1024, 0, 6, 3677, 3710, 3730, 3768, 3735, 3752, 0, 1, 8601, -90.000, 0.000, 134.800, 0.000, 0.000, -2.900, 0.0, , , , , , 98, , , 45, 45, 45
36.6869860, -118.9584865, 10.200, 15:11:15.529, 18, 0.00, 0.34, 91, 3.000, -0.100, 135.700, 801, 100, 100, 15, 22303, -23912, 5031, 5529, 9, 14, 1523657475.529, 19, 0, 1024, 1024, 1025, 1024, 0, 6, 3677, 3710, 3730, 3768, 3735, 3752, 0, 1, 8701, -90.000, 0.000, 134.900, 0.000, 0.000, -2.900, 0.0, , , , , , 98, , , 45, 45, 45
36.6869860, -118.9584865, 10.200, 15:11:15.629, 18, 0.00, 0.34, 91, 3.000, -0.100, 135.700, 801, 100, 100, 15, 22303, -23912, 5031, 5529, 9, 14, 1523657475.629, 119, 0, 1024, 1024, 1025, 1024, 0, 6, 3677, 3710, 3730, 3768, 3735, 3752, 0, 1, 8801, -90.000, 0.000, 134.900, 0.000, 0.000, -2.900, 0.0, , , , , , 98, , , 45, 45, 45
36.6869860, -118.9584865, 10.200, 15:11:15.729, 18, 0.00, 0.34, 91, 3.000, -0.100, 135.700, 801, 100, 100, 15, 22303, -23912, 5031, 5529, 9, 14, 1523657475.729, 219, 0, 1024, 1024, 1025, 1024, 0, 6, 3677, 3710, 3730, 3768, 3735, 3752, 0, 1, 8901, -90.000, 0.000, 134.900, 0.000, 0.000, -2.900, 0.0, , , , , , 98, , , 45, 45, 45
36.6869862, -118.9584868, 10.800, 15:11:15.837, 18, 0.00, 0.33, 91, 1.500, -0.300, 136.000, 801, 100, 98, 15, 22894, -17855, 5031, 5529, 9, 14, 1523657475.837, 14, 0, 1024, 1024, 1024, 1024, 0, 6, 3677, 3710, 3730, 3768, 3735, 3752, 0, 1, 9009, -90.000, 0.000, 134.900, 0.000, 0.000, -2.800, 0.0, , , , , , 98, , , 45, 45, 45
36.6869862, -118.9584868, 11.100, 15:11:15.929, 18, 0.00, 0.33, 91, 1.300, -0.100, 136.300, 801, 100, 98, 15, 22894, -17855, 5031, 5529, 9, 14, 1523657475.929, 89, 0, 1024, 1024, 1025, 1024, 0, 6, 3677, 3710, 3730, 3768, 3735, 3752, 0, 1, 9101, -89.900, 0.000, 135.000, 0.000, 0.000, -2.800, 0.0, , , , , , 98, , , 45, 45, 45
36.6869863, -118.9584867, 11.400, 15:11:16.028, 17, 0.00, 0.33, 91, 1.600, 0.100, 136.600, 801, 100, 98, 15, 22894, -17855, 5031, 5529, 9, 14, 1523657476.028, 89, 0, 1024, 1024, 1025, 1024, 0, 6, 3677, 3710, 3730, 3768, 3735, 3752, 0, 1, 9200, -89.900, 0.000, 135.000, 0.000, 0.000, -2.800, 0.0, , , , , , 98, , , 45, 45, 45
36.6869864, -118.9584867, 11.700, 15:11:16.129, 17, 0.00, 0.33, 91, 2.100, 0.400, 136.800, 801, 100, 98, 15, 22894, -17855, 5031, 5529, 9, 14, 1523657476.129, 94, 0, 1024, 1024, 1025, 1024, 0, 6, 3677, 3710, 3730, 3768, 3735, 3752, 0, 1, 9301, -89.900, 0.000, 135.000, 0.000, 0.000, -2.900, 0.0, , , , , , 98, , , 45, 45, 45
36.6869864, -118.9584867, 11.900, 15:11:16.229, 18, 0.00, 0.34, 90, 2.600, 0.700, 136.900, 801, 100, 98, 15, 22894, -17855, 4976, 5529, 9, 14, 1523657476.229, 86, 0, 1024, 1024, 1025, 1024, 0, 6, 3783, 3809, 3826, 3842, 3806, 3851, 0, 1, 9401, -89.900, 0.000, 135.000, 0.000, 0.000, -2.800, 0.0, , , , , , 98, , , 45, 45, 45
36.6869865, -118.9584867, 12.200, 15:11:16.329, 18, 0.00, 0.34, 90, 3.000, 0.900, 136.900, 801, 100, 97, 15, 22894, -17855, 4976, 5529, 9, 14, 1523657476.329, 77, 0, 1024, 1024, 1025, 1024, 0, 6, 3783, 3809, 3826, 3842, 3806, 3851, 0, 1, 9501, -89.900, 0.000, 135.000, 0.000, 0.000, -2.900, 0.0, , , , , , 98, , , 45, 45, 45
36.6869865, -118.9584867, 12.500, 15:11:16.429, 18, 0.00, 0.34, 90, 3.200, 0.900, 136.900, 801, 100, 97, 15, 22894, -17855, 4976, 5529, 9, 14, 1523657476.429, 73, 0, 1024, 1024, 1025, 1024, 0, 6, 3783, 3809, 3826, 3842, 3806, 3851, 0, 1, 9601, -89.900, 0.000, 135.000, 0.000, 0.000, -2.900, 0.0, , , , , , 98, , , 45, 45, 45
36.6869865, -118.9584866, 12.800, 15:11:16.529, 18, 0.00, 0.34, 90, 3.300, 1.000, 136.900, 801, 100, 97, 15, 22894, -17855, 4976, 5529, 9, 14, 1523657476.529, 86, 0, 1024, 1024, 1025, 1024, 0, 6, 3783, 3809, 3826, 3842, 3806, 3851, 0, 1, 9701, -89.900, 0.000, 135.100, 0.000, 0.000, -2.900, 0.0, , , , , , 98, , , 45, 45, 45
36.6869865, -118.9584866, 13.200, 15:11:16.628, 18, 0.00, 0.35, 90, 3.000, 1.000, 136.900, 801, 100, 97, 15, 22894, -17855, 4976, 5529, 9, 14, 1523657476.629, 65, 0, 1024, 1024, 1025, 1024, 0, 6, 3783, 3809, 3826, 3842, 3806, 3851, 0, 1, 9801, -89.900, 0.000, 135.100, 0.000, 0.000, -2.900, 0.0, , , , , , 98, , , 45, 45, 45
36.6869866, -118.9584867, 13.400, 15:11:16.729, 18, 0.00, 0.34, 90, 2.800, 1.000, 136.800, 801, 100, 97, 15, 22894, -17855, 4976, 5529, 9, 14, 1523657476.729, 65, 0, 1024, 1024, 1025, 1024, 0, 6, 3783, 3809, 3826, 3842, 3806, 3851, 0, 1, 9901, -89.900, 0.000, 135.100, 0.000, 0.000, -2.900, 0.0, , , , , , 98, , , 45, 45, 45
36.6869866, -118.9584867, 13.700, 15:11:16.829, 19, 0.00, 0.34, 90, 2.500, 0.800, 136.700, 801, 100, 97, 15, 22894, -17855, 4976, 5529, 9, 14, 1523657476.830, 54, 0, 1024, 1024, 1025, 1024, 0, 6, 3783, 3809, 3826, 3842, 3806, 3851, 0, 1, 10001, -89.900, 0.000, 135.100, 0.000, 0.000, -2.900, 0.0, , , , , , 98, , , 45, 45, 45
36.6869866, -118.9584867, 14.000, 15:11:16.928, 19, 0.00, 0.34, 90, 2.600, 0.500, 136.400, 801, 100, 97, 15, 22894, -17855, 4976, 5529, 9, 14, 1523657476.929, 66, 0, 1024, 1024, 1025, 1024, 0, 6, 3783, 3809, 3826, 3842, 3806, 3851, 0, 1, 10101, -90.000, 0.000, 135.100, 0.000, 0.000, -2.900, 0.0, , , , , , 98, , , 45, 45, 45
36.6869866, -118.9584867, 14.300, 15:11:17.028, 18, 0.00, 0.34, 90, 2.400, 0.400, 136.200, 801, 100, 97, 15, 22894, -17855, 4976, 5529, 9, 14, 1523657477.028, 72, 0, 1024, 1024, 1025, 1024, 0, 6, 3783, 3809, 3826, 3842, 3806, 3851, 0, 1, 10200, -90.000, 0.000, 135.100, 0.000, 0.000, -2.900, 0.0, , , , , , 98, , , 45, 45, 45
36.6869866, -118.9584867, 14.600, 15:11:17.129, 18, 0.00, 0.34, 90, 2.300, 0.500, 136.000, 801, 100, 97, 15, 22894, -17855, 4976, 5529, 9, 14, 1523657477.129, 71, 0, 1024, 1024, 1025, 1024, 0, 6, 3783, 3809, 3826, 3842, 3806, 3851, 0, 1, 10301, -89.900, 0.000, 135.100, 0.000, 0.000, -2.900, 0.0, , , , , , 98, , , 45, 45, 45
36.6869865, -118.9584867, 14.900, 15:11:17.229, 19, 0.00, 0.34, 90, 2.400, 0.800, 136.000, 801, 100, 97, 15, 22837, -18422, 4976, 5529, 9, 14, 1523657477.229, 58, 0, 1024, 1024, 1025, 1024, 0, 6, 3789, 3800, 3792, 3810, 3766, 3810, 0, 1, 10401, -89.900, 0.000, 135.200, 0.000, 0.000, -3.000, 0.0, , , , , , 98, , , 45, 45, 45
36.6869865, -118.9584867, 15.200, 15:11:17.329, 19, 0.00, 0.34, 90, 2.500, 0.900, 136.100, 801, 100, 99, 15, 22837, -18422, 4976, 5529, 9, 14, 1523657477.329, 46, 0, 1024, 1024, 1024, 1024, 0, 6, 3789, 3800, 3792, 3810, 3766, 3810, 0, 1, 10501, -89.900, 0.000, 135.200, 0.000, 0.000, -3.000, 0.0, , , , , , 98, , , 45, 45, 45
36.6869865, -118.9584866, 15.500, 15:11:17.429, 20, 0.00, 0.35, 90, 3.100, 1.100, 136.200, 801, 100, 99, 15, 22837, -18422, 4976, 5529, 9, 14, 1523657477.429, 40, 0, 1024, 1024, 1025, 1024, 0, 6, 3789, 3800, 3792, 3810, 3766, 3810, 0, 1, 10601, -89.900, 0.000, 135.200, 0.000, 0.000, -2.900, 0.0, , , , , , 98, , , 45, 45, 45
36.6869865, -118.9584866, 15.800, 15:11:17.529, 20, 0.00, 0.35, 90, 3.500, 1.200, 136.300, 801, 100, 99, 15, 22837, -18422, 4976, 5529, 9, 14, 1523657477.529, 57, 0, 1024, 1024, 1025, 1024, 0, 6, 3789, 3800, 3792, 3810, 3766, 3810, 0, 1, 10701, -89.900, 0.000, 135.200, 0.000, 0.000, -3.000, 0.0, , , , , , 98, , , 45, 45, 45
36.6869865, -118.9584865, 16.100, 15:11:17.629, 20, 0.00, 0.35, 90, 3.600, 1.300, 136.400, 801, 100, 99, 15, 22837, -18422, 4976, 5529, 9, 14, 1523657477.629, 62, 0, 1024, 1024, 1025, 1024, 0, 6, 3789, 3800, 3792, 3810, 3766, 3810, 0, 1, 10801, -89.900, 0.000, 135.200, 0.000, 0.000, -2.900, 0.0, , , , , , 98, , , 45, 45, 45
36.6869864, -118.9584865, 16.400, 15:11:17.729, 20, 0.00, 0.36, 90, 3.500, 1.400, 136.500, 801, 100, 98, 15, 22837, -18422, 4976, 5529, 9, 14, 1523657477.729, 34, 0, 1024, 1024, 1025, 1024, 0, 6, 3789, 3800, 3792, 3810, 3766, 3810, 0, 1, 10901, -89.900, 0.000, 135.200, 0.000, 0.000, -2.900, 0.0, , , , , , 98, , , 45, 45, 45
36.6869864, -118.9584865, 16.700, 15:11:17.829, 20, 0.00, 0.36, 90, 3.300, 1.500, 136.500, 801, 100, 98, 15, 22837, -18422, 4976, 5529, 9, 14, 1523657477.829, 25, 0, 1024, 1024, 1025, 1024, 0, 6, 3789, 3800, 3792, 3810, 3766, 3810, 0, 1, 11001, -89.900, 0.000, 135.200, 0.000, 0.000, -2.900, 0.0, , , , , , 98, , , 45, 45, 45
36.6869863, -118.9584865, 17.000, 15:11:17.929, 20, 0.00, 0.35, 90, 3.100, 1.400, 136.600, 801, 100, 98, 15, 22837, -18422, 4976, 5529, 9, 14, 1523657477.929, 34, 0, 1024, 1024, 1025, 1024, 0, 6, 3789, 3800, 3792, 3810, 3766, 3810, 0, 1, 11101, -89.900, 0.000, 135.200, 0.000, 0.000, -2.900, 0.0, , , , , , 98, , , 45, 45, 45
36.6869862, -118.9584865, 17.300, 15:11:18.028, 20, 0.00, 0.35, 90, 2.900, 1.300, 136.600, 801, 100, 98, 15, 22837, -18422, 4976, 5529, 9, 14, 1523657478.028, 37, 0, 1024, 1024, 1025, 1024, 0, 6, 3789, 3800, 3792, 3810, 3766, 3810, 0, 1, 11200, -89.900, 0.000, 135.200, 0.000, 0.000, -3.000, 0.0, , , , , , 98, , , 45, 45, 45
36.6869862, -118.9584866, 17.600, 15:11:18.129, 20, 0.00, 0.34, 90, 2.700, 1.500, 136.700, 801, 100, 98, 15, 22837, -18422, 4976, 5529, 9, 14, 1523657478.129, 40, 0, 1024, 1024, 1025, 1024, 0, 6, 3789, 3800, 3792, 3810, 3766, 3810, 0, 1, 11301, -89.900, 0.000, 135.200, 0.000, 0.000, -3.000, 0.0, , , , , , 98, , , 45, 45, 45
36.6869861, -118.9584867, 17.900, 15:11:18.229, 20, 0.00, 0.33, 90, 2.400, 1.800, 136.700, 801, 100, 98, 15, 22591, -19959, 4976, 5529, 9, 14, 1523657478.229, 14, 0, 1024, 1024, 1025, 1024, 0, 6, 3789, 3800, 3792, 3810, 3766, 3810, 0, 1, 11401, -89.900, 0.000, 135.200, 0.000, 0.000, -3.000, 0.0, , , , , , 98, , , 45, 45, 45
36.6869860, -118.9584867, 18.200, 15:11:18.328, 20, 0.00, 0.33, 90, 1.800, 1.700, 136.500, 801, 100, 98, 15, 22591, -19959, 4976, 5529, 9, 14, 1523657478.329, 12, 0, 1024, 1024, 1025, 1024, 0, 6, 3735, 3763, 3771, 3788, 3742, 3782, 0, 1, 11501, -89.900, 0.000, 135.200, 0.000, 0.000, -3.000, 0.0, , , , , , 98, , , 45, 45, 45
36.6869859, -118.9584867, 18.500, 15:11:18.429, 19, 0.00, 0.32, 90, 2.000, 1.700, 136.300, 801, 100, 98, 15, 22591, -19959, 4976, 5529, 9, 14, 1523657478.429, 30, 0, 1024, 1024, 1024, 1024, 0, 6, 3735, 3763, 3771, 3788, 3742, 3782, 0, 1, 11601, -89.900, 0.000, 135.200, 0.000, 0.000, -3.000, 0.0, , , , , , 98, , , 45, 45, 45
36.6869858, -118.9584868, 18.800, 15:11:18.528, 19, 0.00, 0.32, 90, 1.800, 1.700, 136.100, 801, 100, 98, 15, 22591, -19959, 4976, 5529, 9, 14, 1523657478.529, 18, 0, 1024, 1024, 1025, 1024, 0, 6, 3735, 3763, 3771, 3788, 3742, 3782, 0, 1, 11701, -89.900, 0.000, 135.200, 0.000, 0.000, -3.000, 0.0, , , , , , 98, , , 45, 45, 45
36.6869858, -118.9584868, 18.800, 15:11:18.628, 19, 0.00, 0.32, 90, 1.800, 1.700, 136.100, 801, 100, 98, 15, 22591, -19959, 4976, 5529, 9, 14, 1523657478.628, 118, 0, 1024, 1024, 1025, 1024, 0, 6, 3735, 3763, 3771, 3788, 3742, 3782, 0, 1, 11800, -89.900, 0.000, 135.200, 0.000, 0.000, -3.000, 0.0, , , , , , 98, , , 45, 45, 45
36.6869856, -118.9584868, 19.400, 15:11:18.729, 19, 0.00, 0.31, 90, 2.100, 1.800, 135.900, 801, 100, 98, 15, 22591, -19959, 4976, 5529, 9, 14, 1523657478.729, 98, 0, 1024, 1024, 1025, 1024, 0, 6, 3735, 3763, 3771, 3788, 3742, 3782, 0, 1, 11901, -89.900, 0.000, 135.200, 0.000, 0.000, -3.000, 0.0, , , , , , 98, , , 45, 45, 45
36.6869855, -118.9584868, 19.700, 15:11:18.829, 19, 0.00, 0.31, 90, 2.100, 1.900, 135.900, 801, 100, 98, 15, 22591, -19959, 4976, 5529, 9, 14, 1523657478.829, 91, 0, 1024, 1024, 1025, 1024, 0, 6, 3735, 3763, 3771, 3788, 3742, 3782, 0, 1, 12001, -89.900, 0.000, 135.200, 0.000, 0.000, -3.000, 0.0, , , , , , 98, , , 45, 45, 45
36.6869854, -118.9584868, 20.000, 15:11:18.929, 19, 0.00, 0.32, 90, 2.000, 2.200, 135.900, 801, 100, 98, 15, 22591, -19959, 4976, 5529, 9, 14, 1523657478.929, 96, 0, 1024, 1024, 1024, 1024, 0, 6, 3735, 3763, 3771, 3788, 3742, 3782, 0, 1, 12101, -89.900, 0.000, 135.300, 0.000, 0.000, -3.000, 0.0, , , , , , 98, , , 45, 45, 45
36.6869853, -118.9584867, 20.600, 15:11:19.028, 20, 0.00, 0.33, 90, 2.300, 2.700, 136.200, 801, 100, 98, 15, 22591, -19959, 4976, 5529, 9, 14, 1523657479.029, 4, 0, 1024, 1024, 1025, 1024, 0, 6, 3735, 3763, 3771, 3788, 3742, 3782, 0, 1, 12201, -89.900, 0.000, 135.200, 0.000, 0.000, -2.900, 0.0, , , , , , 98, , , 45, 45, 45
36.6869853, -118.9584867, 20.600, 15:11:19.129, 20, 0.00, 0.33, 90, 2.300, 2.700, 136.200, 801, 100, 98, 15, 22591, -19959, 4976, 5529, 9, 14, 1523657479.129, 104, 0, 1024, 1024, 1025, 1024, 0, 6, 3735, 3763, 3771, 3788, 3742, 3782, 0, 1, 12301, -89.900, 0.000, 135.200, 0.000, 0.000, -2.900, 0.0, , , , , , 98, , , 45, 45, 45
36.6869852, -118.9584867, 20.800, 15:11:19.229, 20, 0.00, 0.33, 90, 2.100, 2.800, 136.300, 801, 100, 98, 15, 22600, -19588, 4976, 5529, 9, 14, 1523657479.229, 68, 0, 1024, 1024, 1025, 1024, 0, 6, 3738, 3760, 3769, 3792, 3745, 3780, 0, 1, 12401, -89.900, 0.000, 135.200, 0.000, 0.000, -2.900, 0.0, , , , , , 98, , , 45, 45, 45
36.6869851, -118.9584867, 21.100, 15:11:19.329, 20, 0.00, 0.33, 90, 2.100, 2.900, 136.500, 801, 100, 95, 15, 22600, -19588, 4976, 5529, 9, 14, 1523657479.329, 72, 0, 1024, 1024, 1025, 1024, 0, 6, 3738, 3760, 3769, 3792, 3745, 3780, 0, 1, 12501, -89.900, 0.000, 135.200, 0.000, 0.000, -2.900, 0.0, , , , , , 98, , , 45, 45, 45
36.6869850, -118.9584866, 21.400, 15:11:19.429, 20, 0.00, 0.34, 90, 2.000, 2.800, 136.900, 801, 100, 95, 15, 22600, -19588, 4976, 5529, 9, 14, 1523657479.429, 41, 0, 1024, 1024, 1025, 1024, 0, 6, 3738, 3760, 3769, 3792, 3745, 3780, 0, 1, 12601, -89.900, 0.000, 135.200, 0.000, 0.000, -3.000, 0.0, , , , , , 98, , , 45, 45, 45
36.6869849, -118.9584866, 21.700, 15:11:19.529, 20, 0.00, 0.34, 90, 1.800, 2.600, 137.100, 801, 100, 95, 15, 22600, -19588, 4976, 5529, 9, 14, 1523657479.529, 48, 0, 1024, 1024, 1025, 1024, 0, 6, 3738, 3760, 3769, 3792, 3745, 3780, 0, 1, 12701, -89.900, 0.000, 135.200, 0.000, 0.000, -3.100, 0.0, , , , , , 98, , , 45, 45, 45
36.6869849, -118.9584865, 22.100, 15:11:19.629, 19, 0.00, 0.35, 90, 2.300, 2.800, 137.200, 801, 100, 95, 15, 22600, -19588, 4976, 5529, 9, 14, 1523657479.629, 58, 0, 1024, 1024, 1025, 1024, 0, 6, 3738, 3760, 3769, 3792, 3745, 3780, 0, 1, 12801, -89.900, 0.000, 135.300, 0.000, 0.000, -3.000, 0.0, , , , , , 98, , , 45, 45, 45
36.6869848, -118.9584865, 22.400, 15:11:19.729, 19, 0.00, 0.35, 90, 2.700, 3.000, 137.000, 801, 100, 95, 15, 22600, -19588, 4976, 5529, 9, 14, 1523657479.729, 63, 0, 1024, 1024, 1025, 1024, 0, 6, 3738, 3760, 3769, 3792, 3745, 3780, 0, 1, 12901, -89.900, 0.000, 135.200, 0.000, 0.000, -3.000, 0.0, , , , , , 98, , , 45, 45, 45
36.6869848, -118.9584864, 22.700, 15:11:19.829, 20, 0.00, 0.36, 90, 2.900, 3.000, 136.800, 801, 100, 94, 15, 22600, -19588, 4976, 5529, 9, 14, 1523657479.829, 67, 0, 1024, 1024, 1025, 1024, 0, 6, 3738, 3760, 3769, 3792, 3745, 3780, 0, 1, 13001, -89.900, 0.000, 135.200, 0.000, 0.000, -3.000, 0.0, , , , , , 98, , , 45, 45, 45
36.6869848, -118.9584864, 23.000, 15:11:19.929, 20, 0.00, 0.37, 90, 3.000, 2.800, 136.600, 801, 100, 94, 15, 22600, -19588, 4976, 5529, 9, 14, 1523657479.929, 58, 0, 1024, 1024, 1025, 1024, 0, 6, 3738, 3760, 3769, 3792, 3745, 3780, 0, 1, 13101, -89.900, 0.000, 135.200, 0.000, 0.000, -3.000, 0.0, , , , , , 98, , , 45, 45, 45
36.6869848, -118.9584863, 23.300, 15:11:20.028, 19, 0.00, 0.37, 90, 2.900, 2.700, 136.500, 801, 100, 94, 15, 22600, -19588, 4976, 5529, 9, 14, 1523657480.028, 35, 0, 1024, 1024, 1025, 1024, 0, 6, 3738, 3760, 3769, 3792, 3745, 3780, 0, 1, 13200, -89.900, 0.000, 135.200, 0.000, 0.000, -3.000, 0.0, , , , , , 98, , , 45, 45, 45
36.6869848, -118.9584863, 23.600, 15:11:20.129, 19, 0.00, 0.37, 90, 2.900, 2.500, 136.400, 801, 100, 94, 15, 22600, -19588, 4976, 5529, 9, 14, 1523657480.129, 61, 0, 1024, 1024, 1025, 1024, 0, 6, 3738, 3760, 3769, 3792, 3745, 3780, 0, 1, 13301, -89.900, 0.000, 135.200, 0.000, 0.000, -2.900, 0.0, , , , , , 98, , , 45, 45, 45
36.6869847, -118.9584864, 23.800, 15:11:20.229, 19, 0.00, 0.37, 90, 2.800, 2.400, 136.400, 801, 100, 94, 15, 22496, -20319, 4976, 5529, 9, 14, 1523657480.229, 36, 0, 1024, 1024, 1025, 1024, 0, 6, 3716, 3764, 3759, 3773, 3719, 3784, 0, 1, 13401, -89.900, 0.000, 135.200, 0.000, 0.000, -2.900, 0.0, , , , , , 98, , , 45, 45, 45
36.6869847, -118.9584864, 23.800, 15:11:20.329, 19, 0.00, 0.37, 90, 2.800, 2.400, 136.400, 801, 100, 94, 15, 22496, -20319, 4976, 5529, 9, 14, 1523657480.330, 136, 0, 1024, 1024, 1025, 1024, 0, 6, 3716, 3764, 3759, 3773, 3719, 3784, 0, 1, 13501, -89.900, 0.000, 135.200, 0.000, 0.000, -2.900, 0.0, , , , , , 98, , , 45, 45, 45
36.6869847, -118.9584865, 24.400, 15:11:20.429, 19, 0.00, 0.36, 90, 1.800, 2.200, 136.300, 801, 100, 94, 15, 22496, -20319, 4976, 5529, 9, 14, 1523657480.429, 51, 0, 1024, 1024, 1025, 1024, 0, 6, 3716, 3764, 3759, 3773, 3719, 3784, 0, 1, 13601, -89.900, 0.000, 135.200, 0.000, 0.000, -3.000, 0.0, , , , , , 98, , , 45, 45, 45
36.6869847, -118.9584865, 24.400, 15:11:20.529, 19, 0.00, 0.36, 90, 1.800, 2.200, 136.300, 801, 100, 94, 15, 22496, -20319, 4976, 5529, 9, 14, 1523657480.529, 151, 0, 1024, 1024, 1025, 1024, 0, 6, 3716, 3764, 3759, 3773, 3719, 3784, 0, 1, 13701, -89.900, 0.000, 135.200, 0.000, 0.000, -3.000, 0.0, , , , , , 98, , , 45, 45, 45
36.6869847, -118.9584866, 25.100, 15:11:20.637, 20, 0.00, 0.35, 90, 1.500, 1.700, 136.000, 801, 100, 94, 15, 22496, -20319, 4976, 5529, 9, 14, 1523657480.638, 15, 0, 1024, 1024, 1025, 1024, 0, 6, 3716, 3764, 3759, 3773, 3719, 3784, 0, 1, 13810, -90.000, 0.000, 135.200, 0.000, 0.000, -3.100, 0.0, , , , , , 98, , , 45, 45, 45
36.6869847, -118.9584866, 25.100, 15:11:20.729, 20, 0.00, 0.35, 90, 1.500, 1.700, 136.000, 801, 100, 94, 15, 22496, -20319, 4976, 5529, 9, 14, 1523657480.729, 107, 0, 1024, 1024, 1025, 1024, 0, 6, 3716, 3764, 3759, 3773, 3719, 3784, 0, 1, 13901, -90.000, 0.000, 135.200, 0.000, 0.000, -3.100, 0.0, , , , , , 98, , , 45, 45, 45
36.6869847, -118.9584867, 25.400, 15:11:20.828, 20, 0.00, 0.34, 90, 1.700, 1.600, 135.700, 801, 100, 99, 15, 22496, -20319, 4976, 5529, 9, 14, 1523657480.829, 87, 0, 1024, 1024, 1025, 1024, 0, 6, 3716, 3764, 3759, 3773, 3719, 3784, 0, 1, 14001, -90.000, 0.000, 135.200, 0.000, 0.000, -3.100, 0.0, , , , , , 98, , , 45, 45, 45
36.6869847, -118.9584867, 26.400, 15:11:20.934, 20, 0.00, 0.33, 90, 2.000, 1.100, 135.700, 801, 100, 99, 15, 22496, -20319, 4976, 5529, 9, 14, 1523657480.934, 15, 0, 1024, 1024, 1025, 1024, 0, 6, 3716, 3764, 3759, 3773, 3719, 3784, 0, 1, 14106, -90.000, 0.000, 135.200, 0.000, 0.000, -3.000, 0.0, , , , , , 98, , , 45, 45, 45
36.6869847, -118.9584867, 26.400, 15:11:21.028, 20, 0.00, 0.33, 90, 2.000, 1.100, 135.700, 801, 100, 99, 15, 22496, -20319, 4976, 5529, 9, 14, 1523657481.028, 109, 0, 1024, 1024, 1025, 1024, 0, 6, 3716, 3764, 3759, 3773, 3719, 3784, 0, 1, 14200, -90.000, 0.000, 135.200, 0.000, 0.000, -3.000, 0.0, , , , , , 98, , , 45, 45, 45
36.6869848, -118.9584867, 26.700, 15:11:21.129, 20, 0.00, 0.33, 90, 2.200, 1.300, 135.900, 801, 100, 99, 15, 22496, -20319, 4976, 5529, 9, 14, 1523657481.129, 73, 0, 1024, 1024, 1025, 1024, 0, 6, 3716, 3764, 3759, 3773, 3719, 3784, 0, 1, 14301, -89.900, 0.000, 135.200, 0.000, 0.000, -3.000, 0.0, , , , , , 98, , , 45, 45, 45
36.6869848, -118.9584867, 27.000, 15:11:21.229, 20, 0.00, 0.33, 90, 2.200, 1.600, 136.200, 801, 100, 99, 15, 22515, -19607, 4976, 5529, 9, 14, 1523657481.229, 58, 0, 1024, 1024, 1025, 1024, 0, 6, 3716, 3764, 3759, 3773, 3719, 3784, 0, 1, 14401, -89.900, 0.000, 135.200, 0.000, 0.000, -3.000, 0.0, , , , , , 98, , , 45, 45, 45
36.6869848, -118.9584868, 27.300, 15:11:21.329, 20, 0.00, 0.33, 90, 2.400, 1.700, 136.500, 801, 100, 100, 15, 22515, -19607, 4976, 5529, 9, 14, 1523657481.329, 23, 0, 1024, 1024, 1025, 1024, 0, 6, 3716, 3764, 3759, 3773, 3719, 3784, 0, 1, 14501, -89.900, 0.000, 135.200, 0.000, 0.000, -2.900, 0.0, , , , , , 98, , , 45, 45, 45
36.6869848, -118.9584868, 27.600, 15:11:21.429, 20, 0.00, 0.33, 90, 2.300, 1.600, 136.600, 801, 100, 100, 15, 22515, -19607, 4976, 5529, 9, 14, 1523657481.429, 53, 0, 1024, 1024, 1025, 1024, 0, 6, 3716, 3764, 3759, 3773, 3719, 3784, 0, 1, 14601, -89.900, 0.000, 135.200, 0.000, 0.000, -3.000, 0.0, , , , , , 98, , , 45, 45, 45
36.6869849, -118.9584869, 28.200, 15:11:21.554, 20, 0.00, 0.32, 90, 2.200, 1.200, 136.500, 801, 100, 100, 15, 22515, -19607, 4976, 5529, 9, 14, 1523657481.554, 8, 0, 1024, 1024, 1025, 1024, 0, 6, 3716, 3764, 3759, 3773, 3719, 3784, 0, 1, 14726, -89.900, 0.000, 135.200, 0.000, 0.000, -3.000, 0.0, , , , , , 98, , , 45, 45, 45
36.6869849, -118.9584869, 28.200, 15:11:21.629, 20, 0.00, 0.32, 90, 2.200, 1.200, 136.500, 801, 100, 100, 15, 22515, -19607, 4976, 5529, 9, 14, 1523657481.629, 83, 0, 1024, 1024, 1025, 1024, 0, 6, 3716, 3764, 3759, 3773, 3719, 3784, 0, 1, 14801, -89.900, 0.000, 135.200, 0.000, 0.000, -3.000, 0.0, , , , , , 98, , , 45, 45, 45
36.6869849, -118.9584869, 28.500, 15:11:21.729, 20, 0.00, 0.31, 90, 2.300, 1.300, 136.400, 801, 100, 100, 15, 22515, -19607, 4976, 5529, 9, 14, 1523657481.729, 61, 0, 1024, 1024, 1025, 1024, 0, 6, 3729, 3757, 3776, 3795, 3746, 3784, 0, 1, 14901, -89.900, 0.000, 135.200, 0.000, 0.000, -3.000, 0.0, , , , , , 98, , , 45, 45, 45
36.6869849, -118.9584870, 28.800, 15:11:21.829, 20, 0.00, 0.30, 90, 2.100, 1.500, 136.300, 801, 100, 100, 15, 22515, -19607, 4976, 5529, 9, 14, 1523657481.829, 34, 0, 1024, 1024, 1025, 1024, 0, 6, 3729, 3757, 3776, 3795, 3746, 3784, 0, 1, 15001, -89.900, 0.000, 135.300, 0.000, 0.000, -3.000, 0.0, , , , , , 98, , , 45, 45, 45
36.6869849, -118.9584871, 29.100, 15:11:21.929, 20, 0.00, 0.30, 90, 1.900, 1.300, 136.300, 801, 100, 100, 15, 22515, -19607, 4976, 5529, 9, 14, 1523657481.929, 19, 0, 1024, 1024, 1025, 1024, 0, 6, 3729, 3757, 3776, 3795, 3746, 3784, 0, 1, 15101, -90.000, 0.000, 135.300, 0.000, 0.000, -3.000, 0.0, , , , , , 98, , , 45, 45, 45
36.6869850, -118.9584872, 29.400, 15:11:22.041, 20, 0.00, 0.29, 90, 1.600, 1.000, 136.200, 801, 100, 100, 15, 22515, -19607, 4976, 5529, 9, 14, 1523657482.041, 20, 0, 1024, 1024, 1025, 1024, 0, 6, 3729, 3757, 3776, 3795, 3746, 3784, 0, 1, 15213, -90.000, 0.000, 135.300, 0.000, 0.000, -2.900, 0.0, , , , , , 98, , , 45, 45, 45
36.6869850, -118.9584872, 29.400, 15:11:22.129, 20, 0.00, 0.29, 90, 1.600, 1.000, 136.200, 801, 100, 100, 15, 22515, -19607, 4976, 5529, 9, 14, 1523657482.129, 108, 0, 1024, 1024, 1025, 1024, 0, 6, 3729, 3757, 3776, 3795, 3746, 3784, 0, 1, 15301, -90.000, 0.000, 135.300, 0.000, 0.000, -2.900, 0.0, , , , , , 98, , , 45, 45, 45
36.6869851, -118.9584874, 30.000, 15:11:22.229, 20, 0.00, 0.27, 90, 1.500, 0.600, 136.200, 801, 100, 100, 15, 22515, -19607, 4976, 5529, 9, 14, 1523657482.229, 22, 0, 1024, 1024, 1025, 1024, 0, 6, 3729, 3757, 3776, 3795, 3746, 3784, 0, 1, 15401, -90.000, 0.000, 135.300, 0.000, 0.000, -2.900, 0.0, , , , , , 98, , , 45, 45, 45
36.6869851, -118.9584875, 30.300, 15:11:22.329, 20, 0.00, 0.26, 90, 1.700, 0.600, 136.200, 801, 100, 99, 15, 22515, -19607, 4976, 5529, 9, 14, 1523657482.329, 24, 0, 1024, 1024, 1025, 1024, 0, 6, 3729, 3757, 3776, 3795, 3746, 3784, 0, 1, 15501, -90.000, 0.000, 135.300, 0.000, 0.000, -2.900, 0.0, , , , , , 98, , , 45, 45, 45
36.6869852, -118.9584875, 30.600, 15:11:22.429, 20, 0.00, 0.25, 90, 1.800, 0.500, 136.100, 801, 100, 99, 15, 22515, -19607, 4976, 5529, 9, 14, 1523657482.429, 49, 0, 1024, 1024, 1025, 1024, 0, 6, 3729, 3757, 3776, 3795, 3746, 3784, 0, 1, 15601, -90.000, 0.000, 135.300, 0.000, 0.000, -2.900, 0.0, , , , , , 98, , , 45, 45, 45
36.6869852, -118.9584876, 30.900, 15:11:22.529, 20, 0.00, 0.25, 90, 1.800, 0.500, 136.100, 801, 100, 99, 15, 22515, -19607, 4976, 5529, 9, 14, 1523657482.529, 64, 0, 1024, 1024, 1025, 1024, 0, 6, 3729, 3757, 3776, 3795, 3746, 3784, 0, 1, 15701, -90.000, 0.000, 135.300, 0.000, 0.000, -3.000, 0.0, , , , , , 98, , , 45, 45, 45
36.6869852, -118.9584877, 31.200, 15:11:22.629, 20, 0.00, 0.24, 90, 1.600, 0.500, 136.200, 801, 100, 99, 15, 22515, -19607, 4976, 5529, 9, 14, 1523657482.629, 34, 0, 1024, 1024, 1025, 1024, 0, 6, 3729, 3757, 3776, 3795, 3746, 3784, 0, 1, 15801, -90.000, 0.000, 135.300, 0.000, 0.000, -3.000, 0.0, , , , , , 98, , , 45, 45, 45
36.6869853, -118.9584877, 31.500, 15:11:22.729, 20, 0.00, 0.24, 90, 1.700, 0.600, 136.200, 801, 100, 99, 15, 22625, -18185, 4976, 5529, 9, 14, 1523657482.730, 29, 0, 1024, 1024, 1025, 1024, 0, 6, 3729, 3757, 3776, 3795, 3746, 3784, 0, 1, 15901, -90.000, 0.000, 135.300, 0.000, 0.000, -2.900, 0.0, , , , , , 98, , , 45, 45, 45
36.6869853, -118.9584877, 31.800, 15:11:22.829, 20, 0.00, 0.24, 90, 1.700, 0.600, 136.100, 801, 100, 99, 15, 22625, -18185, 4976, 5529, 9, 14, 1523657482.829, 57, 0, 1024, 1024, 1025, 1024, 0, 6, 3741, 3766, 3789, 3800, 3755, 3788, 0, 1, 16001, -90.000, 0.000, 135.300, 0.000, 0.000, -2.900, 0.0, , , , , , 98, , , 45, 45, 45
36.6869853, -118.9584877, 32.100, 15:11:22.929, 20, 0.00, 0.23, 90, 1.800, 0.700, 136.100, 801, 100, 99, 15, 22625, -18185, 4976, 5529, 9, 14, 1523657482.929, 38, 0, 1024, 1024, 1025, 1024, 0, 6, 3741, 3766, 3789, 3800, 3755, 3788, 0, 1, 16101, -90.000, 0.000, 135.300, 0.000, 0.000, -2.900, 0.0, , , , , , 98, , , 45, 45, 45
36.6869854, -118.9584877, 32.400, 15:11:23.028, 20, 0.00, 0.23, 90, 2.100, 0.700, 136.100, 801, 100, 99, 15, 22625, -18185, 4976, 5529, 9, 14, 1523657483.028, 25, 0, 1024, 1024, 1025, 1024, 0, 6, 3741, 3766, 3789, 3800, 3755, 3788, 0, 1, 16200, -89.900, 0.000, 135.300, 0.000, 0.000, -2.900, 0.0, , , , , , 98, , , 45, 45, 45
36.6869854, -118.9584877, 32.700, 15:11:23.129, 20, 0.00, 0.23, 90, 2.200, 0.700, 136.200, 801, 100, 99, 15, 22625, -18185, 4976, 5529, 9, 14, 1523657483.129, 26, 0, 1024, 1024, 1025, 1024, 0, 6, 3741, 3766, 3789, 3800, 3755, 3788, 0, 1, 16301, -89.900, 0.000, 135.300, 0.000, 0.000, -2.900, 0.0, , , , , , 98, , , 45, 45, 45
36.6869854, -118.9584878, 33.000, 15:11:23.229, 20, 0.00, 0.23, 90, 2.200, 0.800, 136.300, 801, 100, 98, 15, 22625, -18185, 4976, 5529, 9, 14, 1523657483.229, 16, 0, 1024, 1024, 1025, 1024, 0, 6, 3741, 3766, 3789, 3800, 3755, 3788, 0, 1, 16401, -89.900, 0.000, 135.300, 0.000, 0.000, -2.900, 0.0, , , , , , 98, , , 45, 45, 45
36.6869854, -118.9584877, 33.300, 15:11:23.329, 20, 0.00, 0.23, 90, 2.200, 1.100, 136.400, 801, 100, 98, 15, 22625, -18185, 4976, 5529, 9, 14, 1523657483.329, 20, 0, 1024, 1024, 1025, 1024, 0, 6, 3741, 3766, 3789, 3800, 3755, 3788, 0, 1, 16501, -89.900, 0.000, 135.300, 0.000, 0.000, -2.900, 0.0, , , , , , 98, , , 45, 45, 45
36.6869854, -118.9584877, 33.600, 15:11:23.429, 20, 0.00, 0.23, 90, 2.400, 1.300, 136.500, 801, 100, 98, 15, 22625, -18185, 4976, 5529, 9, 14, 1523657483.429, 20, 0, 1024, 1024, 1025, 1024, 0, 6, 3741, 3766, 3789, 3800, 3755, 3788, 0, 1, 16601, -89.900, 0.000, 135.300, 0.000, 0.000, -2.900, 0.0, , , , , , 98, , , 45, 45, 45
36.6869854, -118.9584877, 33.900, 15:11:23.528, 20, 0.00, 0.23, 90, 2.400, 1.400, 136.500, 801, 100, 98, 15, 22625, -18185, 4976, 5529, 9, 14, 1523657483.529, 32, 0, 1024, 1024, 1025, 1024, 0, 6, 3741, 3766, 3789, 3800, 3755, 3788, 0, 1, 16701, -89.900, 0.000, 135.300, 0.000, 0.000, -2.900, 0.0, , , , , , 98, , , 45, 45, 45
36.6869854, -118.9584878, 34.200, 15:11:23.637, 20, 0.00, 0.23, 90, 2.100, 1.200, 136.300, 801, 100, 98, 15, 22625, -18185, 4976, 5529, 9, 14, 1523657483.637, 6, 0, 1024, 1024, 1025, 1024, 0, 6, 3741, 3766, 3789, 3800, 3755, 3788, 0, 1, 16809, -89.900, 0.000, 135.300, 0.000, 0.000, -2.900, 0.0, , , , , , 98, , , 45, 45, 45
36.6869854, -118.9584878, 34.200, 15:11:23.729, 20, 0.00, 0.23, 90, 2.100, 1.200, 136.300, 801, 100, 98, 15, 22625, -18185, 4976, 5529, 9, 14, 1523657483.730, 98, 0, 1024, 1024, 1025, 1024, 0, 6, 3741, 3766, 3789, 3800, 3755, 3788, 0, 1, 16901, -90.000, 0.000, 135.300, 0.000, 0.000, -2.900, 0.0, , , , , , 98, , , 45, 45, 45
36.6869854, -118.9584878, 34.800, 15:11:23.829, 20, 0.00, 0.23, 90, 1.500, 1.000, 135.900, 801, 100, 99, 15, 22641, -17895, 4976, 5529, 9, 14, 1523657483.829, 83, 0, 1024, 1024, 1025, 1024, 0, 6, 3744, 3772, 3785, 3808, 3757, 3795, 0, 1, 17001, -90.000, 0.000, 135.300, 0.000, 0.000, -2.800, 0.0, , , , , , 98, , , 45, 45, 45
36.6869854, -118.9584878, 35.100, 15:11:23.929, 20, 0.00, 0.22, 90, 1.300, 0.900, 135.700, 801, 100, 99, 15, 22641, -17895, 4976, 5529, 9, 14, 1523657483.929, 94, 0, 1024, 1024, 1025, 1024, 0, 6, 3744, 3772, 3785, 3808, 3757, 3795, 0, 1, 17101, -89.900, 0.000, 135.300, 0.000, 0.000, -2.900, 0.0, , , , , , 98, , , 45, 45, 45
36.6869853, -118.9584878, 35.400, 15:11:24.028, 20, 0.00, 0.22, 90, 1.300, 1.100, 135.600, 801, 100, 99, 15, 22641, -17895, 4976, 5529, 9, 14, 1523657484.028, 85, 0, 1024, 1024, 1025, 1024, 0, 6, 3744, 3772, 3785, 3808, 3757, 3795, 0, 1, 17200, -89.900, 0.000, 135.200, 0.000, 0.000, -2.900, 0.0, , , , , , 98, , , 45, 45, 45
36.6869853, -118.9584879, 35.700, 15:11:24.129, 20, 0.00, 0.22, 90, 1.600, 1.100, 135.700, 801, 100, 99, 15, 22641, -17895, 4976, 5529, 9, 14, 1523657484.129, 90, 0, 1024, 1024, 1024, 1024, 0, 6, 3744, 3772, 3785, 3808, 3757, 3795, 0, 1, 17301, -89.900, 0.000, 135.300, 0.000, 0.000, -3.000, 0.0, , , , , , 98, , , 45, 45, 45
36.6869853, -118.9584879, 36.000, 15:11:24.228, 20, 0.00, 0.22, 90, 1.600, 1.300, 135.900, 801, 100, 99, 15, 22641, -17895, 4976, 5529, 9, 14, 1523657484.228, 58, 0, 1024, 1024, 1025, 1024, 0, 6, 3744, 3772, 3785, 3808, 3757, 3795, 0, 1, 17400, -89.900, 0.000, 135.300, 0.000, 0.000, -3.000, 0.0, , , , , , 98, , , 45, 45, 45
36.6869853, -118.9584879, 36.300, 15:11:24.329, 20, 0.00, 0.22, 90, 1.700, 1.500, 136.100, 801, 100, 99, 15, 22641, -17895, 4976, 5529, 9, 14, 1523657484.329, 87, 0, 1024, 1024, 1024, 1024, 0, 6, 3744, 3772, 3785, 3808, 3757, 3795, 0, 1, 17501, -89.900, 0.000, 135.300, 0.000, 0.000, -3.000, 0.0, , , , , , 98, , , 45, 45, 45
36.6869853, -118.9584879, 36.600, 15:11:24.429, 20, 0.00, 0.22, 90, 1.700, 1.600, 136.300, 801, 100, 99, 15, 22641, -17895, 4976, 5529, 9, 14, 1523657484.429, 57, 0, 1024, 1024, 1025, 1024, 0, 6, 3744, 3772, 3785, 3808, 3757, 3795, 0, 1, 17601, -89.900, 0.000, 135.300, 0.000, 0.000, -2.900, 0.0, , , , , , 98, , , 45, 45, 45
36.6869853, -118.9584879, 36.900, 15:11:24.529, 20, 0.00, 0.22, 90, 1.700, 1.600, 136.400, 801, 100, 99, 15, 22641, -17895, 4976, 5529, 9, 14, 1523657484.529, 62, 0, 1024, 1024, 1025, 1024, 0, 6, 3744, 3772, 3785, 3808, 3757, 3795, 0, 1, 17701, -89.900, 0.000, 135.300, 0.000, 0.000, -2.900, 0.0, , , , , , 98, , , 45, 45, 45
36.6869853, -118.9584879, 37.200, 15:11:24.628, 20, 0.00, 0.22, 90, 1.600, 1.400, 136.500, 801, 100, 99, 15, 22641, -17895, 4976, 5529, 9, 14, 1523657484.628, 49, 0, 1024, 1024, 1025, 1024, 0, 6, 3744, 3772, 3785, 3808, 3757, 3795, 0, 1, 17800, -90.000, 0.000, 135.300, 0.000, 0.000, -2.900, 0.0, , , , , , 98, , , 45, 45, 45
36.6869853, -118.9584879, 37.500, 15:11:24.728, 20, 0.00, 0.22, 90, 1.600, 1.000, 136.600, 801, 100, 99, 15, 22647, -17778, 4976, 5529, 9, 14, 1523657484.728, 56, 0, 1024, 1024, 1025, 1024, 0, 6, 3750, 3766, 3787, 3802, 3752, 3787, 0, 1, 17900, -90.000, 0.000, 135.300, 0.000, 0.000, -2.900, 0.0, , , , , , 98, , , 45, 45, 45
36.6869853, -118.9584879, 37.800, 15:11:24.828, 20, 0.00, 0.22, 90, 1.700, 0.800, 136.700, 801, 100, 100, 15, 22647, -17778, 4976, 5529, 9, 14, 1523657484.829, 44, 0, 1024, 1024, 1025, 1024, 0, 6, 3750, 3766, 3787, 3802, 3752, 3787, 0, 1, 18001, -90.000, 0.000, 135.300, 0.000, 0.000, -2.900, 0.0, , , , , , 98, , , 45, 45, 45
36.6869853, -118.9584879, 38.100, 15:11:24.928, 20, 0.00, 0.22, 90, 1.700, 0.800, 136.700, 801, 100, 100, 15, 22647, -17778, 4976, 5529, 9, 14, 1523657484.928, 44, 0, 1024, 1024, 1025, 1024, 0, 6, 3750, 3766, 3787, 3802, 3752, 3787, 0, 1, 18100, -90.000, 0.000, 135.300, 0.000, 0.000, -2.900, 0.0, , , , , , 98, , , 45, 45, 45
36.6869853, -118.9584879, 38.400, 15:11:25.028, 20, 0.00, 0.22, 90, 1.800, 0.800, 136.600, 801, 100, 100, 15, 22647, -17778, 4976, 5529, 9, 14, 1523657485.028, 58, 0, 1024, 1024, 1025, 1024, 0, 6, 3750, 3766, 3787, 3802, 3752, 3787, 0, 1, 18200, -90.000, 0.000, 135.300, 0.000, 0.000, -2.900, 0.0, , , , , , 98, , , 45, 45, 45
36.6869853, -118.9584879, 38.700, 15:11:25.129, 20, 0.00, 0.22, 90, 1.800, 0.800, 136.500, 801, 100, 100, 15, 22647, -17778, 4976, 5529, 9, 14, 1523657485.129, 27, 0, 1024, 1024, 1025, 1024, 0, 6, 3750, 3766, 3787, 3802, 3752, 3787, 0, 1, 18301, -90.000, 0.000, 135.300, 0.000, 0.000, -2.900, 0.0, , , , , , 98, , , 45, 45, 45
36.6869853, -118.9584879, 39.000, 15:11:25.229, 20, 0.00, 0.22, 90, 1.600, 0.900, 136.400, 801, 100, 100, 15, 22647, -17778, 4976, 5529, 9, 14, 1523657485.229, 52, 0, 1024, 1024, 1025, 1024, 0, 6, 3750, 3766, 3787, 3802, 3752, 3787, 0, 1, 18401, -89.900, 0.000, 135.300, 0.000, 0.000, -2.900, 0.0, , , , , , 98, , , 45, 45, 45
36.6869853, -118.9584879, 39.300, 15:11:25.328, 20, 0.00, 0.22, 90, 1.500, 0.900, 136.400, 801, 100, 100, 15, 22647, -17778, 4976, 5529, 9, 14, 1523657485.328, 21, 0, 1024, 1024, 1024, 1024, 0, 6, 3750, 3766, 3787, 3802, 3752, 3787, 0, 1, 18500, -90.000, 0.000, 135.300, 0.000, 0.000, -2.800, 0.0, , , , , , 98, , , 45, 45, 45
36.6869853, -118.9584879, 39.600, 15:11:25.428, 20, 0.00, 0.22, 90, 1.400, 0.900, 136.400, 801, 100, 100, 15, 22647, -17778, 4976, 5529, 9, 14, 1523657485.428, 40, 0, 1024, 1024, 1025, 1024, 0, 6, 3750, 3766, 3787, 3802, 3752, 3787, 0, 1, 18600, -89.900, 0.000, 135.300, 0.000, 0.000, -2.800, 0.0, , , , , , 98, , , 45, 45, 45
36.6869853, -118.9584879, 39.600, 15:11:25.528, 20, 0.00, 0.22, 90, 1.400, 0.900, 136.400, 801, 100, 100, 15, 22647, -17778, 4976, 5529, 9, 14, 1523657485.528, 140, 0, 1024, 1024, 1025, 1024, 0, 6, 3750, 3766, 3787, 3802, 3752, 3787, 0, 1, 18700, -89.900, 0.000, 135.300, 0.000, 0.000, -2.800, 0.0, , , , , , 98, , , 45, 45, 45
36.6869853, -118.9584879, 40.100, 15:11:25.629, 20, 0.00, 0.22, 90, 1.100, 0.800, 136.500, 801, 100, 100, 15, 22647, -17778, 4976, 5529, 9, 14, 1523657485.629, 22, 0, 1024, 1024, 1025, 1024, 0, 6, 3750, 3766, 3787, 3802, 3752, 3787, 0, 1, 18801, -90.000, 0.000, 135.300, 0.000, 0.000, -2.900, 0.0, , , , , , 98, , , 45, 45, 45
36.6869852, -118.9584879, 40.400, 15:11:25.740, 20, 0.00, 0.22, 90, 1.200, 0.800, 136.500, 801, 100, 100, 15, 22671, -17692, 4976, 5529, 9, 14, 1523657485.740, 9, 0, 1024, 1024, 1025, 1024, 0, 6, 3750, 3766, 3787, 3802, 3752, 3787, 0, 1, 18912, -89.900, 0.000, 135.300, 0.000, 0.000, -2.900, 0.0, , , , , , 98, , , 45, 45, 45
36.6869852, -118.9584879, 40.400, 15:11:25.829, 20, 0.00, 0.22, 90, 1.200, 0.800, 136.500, 801, 100, 99, 15, 22671, -17692, 4976, 5529, 9, 14, 1523657485.829, 99, 0, 1024, 1024, 1025, 1024, 0, 6, 3750, 3777, 3781, 3805, 3750, 3799, 0, 1, 19001, -89.900, 0.000, 135.300, 0.000, 0.000, -2.900, 0.0, , , , , , 98, , , 45, 45, 45
36.6869852, -118.9584880, 41.000, 15:11:25.928, 20, 0.00, 0.22, 90, 1.400, 0.900, 136.300, 801, 100, 99, 15, 22671, -17692, 4976, 5529, 9, 14, 1523657485.928, 88, 0, 1024, 1024, 1025, 1024, 0, 6, 3750, 3777, 3781, 3805, 3750, 3799, 0, 1, 19100, -89.900, 0.000, 135.300, 0.000, 0.000, -2.900, 0.0, , , , , , 98, , , 45, 45, 45
36.6869852, -118.9584880, 41.300, 15:11:26.028, 20, 0.00, 0.21, 90, 1.300, 0.900, 136.200, 801, 100, 99, 15, 22671, -17692, 4976, 5529, 9, 14, 1523657486.028, 90, 0, 1024, 1024, 1025, 1024, 0, 6, 3750, 3777, 3781, 3805, 3750, 3799, 0, 1, 19200, -89.900, 0.000, 135.300, 0.000, 0.000, -2.900, 0.0, , , , , , 98, , , 45, 45, 45
36.6869852, -118.9584880, 41.600, 15:11:26.128, 20, 0.00, 0.21, 90, 1.200, 0.900, 136.200, 801, 100, 99, 15, 22671, -17692, 4976, 5529, 9, 14, 1523657486.129, 82, 0, 1024, 1024, 1025, 1024, 0, 6, 3750, 3777, 3781, 3805, 3750, 3799, 0, 1, 19300, -90.000, 0.000, 135.300, 0.000, 0.000, -3.000, 0.0, , , , , , 98, , , 45, 45, 45
36.6869851, -118.9584880, 41.900, 15:11:26.228, 20, 0.00, 0.21, 90, 1.000, 0.900, 136.300, 801, 100, 99, 15, 22671, -17692, 4976, 5529, 9, 14, 1523657486.229, 72, 0, 1024, 1024, 1025, 1024, 0, 6, 3750, 3777, 3781, 3805, 3750, 3799, 0, 1, 19401, -89.900, 0.000, 135.300, 0.000, 0.000, -3.000, 0.0, , , , , , 98, , , 45, 45, 45
36.6869851, -118.9584880, 42.200, 15:11:26.328, 20, 0.00, 0.21, 90, 0.900, 1.000, 136.300, 801, 100, 98, 15, 22671, -17692, 4976, 5529, 9, 14, 1523657486.328, 85, 0, 1024, 1024, 1025, 1024, 0, 6, 3750, 3777, 3781, 3805, 3750, 3799, 0, 1, 19500, -89.900, 0.000, 135.300, 0.000, 0.000, -3.000, 0.0, , , , , , 98, , , 45, 45, 45
36.6869851, -118.9584881, 42.500, 15:11:26.428, 20, 0.00, 0.21, 90, 0.900, 1.200, 136.300, 801, 100, 98, 15, 22671, -17692, 4976, 5529, 9, 14, 1523657486.428, 63, 0, 1024, 1024, 1025, 1024, 0, 6, 3750, 3777, 3781, 3805, 3750, 3799, 0, 1, 19600, -89.900, 0.000, 135.300, 0.000, 0.000, -3.000, 0.0, , , , , , 98, , , 45, 45, 45
36.6869850, -118.9584880, 42.800, 15:11:26.529, 20, 0.00, 0.21, 90, 1.000, 1.300, 136.200, 801, 100, 98, 15, 22671, -17692, 4976, 5529, 9, 14, 1523657486.529, 72, 0, 1024, 1024, 1025, 1024, 0, 6, 3750, 3777, 3781, 3805, 3750, 3799, 0, 1, 19701, -89.900, 0.000, 135.300, 0.000, 0.000, -3.000, 0.0, , , , , , 98, , , 45, 45, 45
36.6869850, -118.9584880, 43.100, 15:11:26.628, 20, 0.00, 0.21, 90, 1.100, 1.300, 136.100, 801, 100, 98, 15, 22671, -17692, 4976, 5529, 9, 14, 1523657486.628, 72, 0, 1024, 1024, 1025, 1024, 0, 6, 3750, 3777, 3781, 3805, 3750, 3799, 0, 1, 19800, -89.900, 0.000, 135.300, 0.000, 0.000, -3.000, 0.0, , , , , , 98, , , 45, 45, 45
36.6869850, -118.9584880, 43.400, 15:11:26.728, 20, 0.00, 0.21, 90, 1.200, 1.300, 136.000, 801, 100, 98, 15, 22595, -17721, 4976, 5529, 9, 14, 1523657486.728, 67, 0, 1024, 1024, 1025, 1024, 0, 6, 3750, 3777, 3781, 3805, 3750, 3799, 0, 1, 19900, -89.900, 0.000, 135.300, 0.000, 0.000, -3.000, 0.0, , , , , , 98, , , 45, 45, 45
36.6869851, -118.9584880, 43.700, 15:11:26.828, 20, 0.00, 0.21, 90, 1.300, 1.200, 135.900, 801, 100, 96, 15, 22595, -17721, 4976, 5529, 9, 14, 1523657486.828, 29, 0, 1024, 1024, 1024, 1024, 0, 6, 3750, 3777, 3781, 3805, 3750, 3799, 0, 1, 20000, -90.000, 0.000, 135.300, 0.000, 0.000, -3.000, 0.0, , , , , , 98, , , 45, 45, 45
36.6869851, -118.9584880, 43.700, 15:11:26.928, 20, 0.00, 0.21, 90, 1.300, 1.200, 135.900, 801, 100, 96, 15, 22595, -17721, 4976, 5529, 9, 14, 1523657486.929, 130, 0, 1024, 1024, 1024, 1024, 0, 6, 3750, 3777, 3781, 3805, 3750, 3799, 0, 1, 20101, -90.000, 0.000, 135.300, 0.000, 0.000, -3.000, 0.0, , , , , , 98, , , 45, 45, 45
36.6869850, -118.9584880, 44.300, 15:11:27.030, 20, 0.00, 0.22, 90, 1.500, 0.800, 135.700, 801, 100, 96, 15, 22595, -17721, 4976, 5529, 9, 14, 1523657487.030, 16, 0, 1024, 1024, 1025, 1024, 0, 6, 3750, 3777, 3781, 3805, 3750, 3799, 0, 1, 20202, -89.900, 0.000, 135.300, 0.000, 0.000, -2.900, 0.0, , , , , , 98, , , 45, 45, 45
36.6869850, -118.9584880, 44.600, 15:11:27.128, 20, 0.00, 0.22, 90, 1.500, 0.900, 135.800, 801, 100, 96, 15, 22595, -17721, 4976, 5529, 9, 14, 1523657487.129, 29, 0, 1024, 1024, 1025, 1024, 0, 6, 3750, 3777, 3781, 3805, 3750, 3799, 0, 1, 20301, -89.900, 0.000, 135.300, 0.000, 0.000, -3.000, 0.0, , , , , , 98, , , 45, 45, 45
36.6869850, -118.9584880, 44.900, 15:11:27.228, 20, 0.00, 0.22, 89, 1.500, 1.200, 135.900, 801, 100, 98, 15, 22595, -17721, 4920, 5529, 9, 14, 1523657487.228, 18, 0, 1024, 1024, 1025, 1024, 0, 6, 3731, 3764, 3771, 3804, 3749, 3779, 0, 1, 20400, -89.900, 0.000, 135.300, 0.000, 0.000, -3.000, 0.0, , , , , , 98, , , 45, 45, 45
36.6869850, -118.9584880, 45.300, 15:11:27.330, 20, 0.00, 0.22, 89, 1.500, 1.200, 136.100, 801, 100, 98, 15, 22595, -17721, 4920, 5529, 9, 14, 1523657487.330, 11, 0, 1024, 1024, 1025, 1024, 0, 6, 3731, 3764, 3771, 3804, 3749, 3779, 0, 1, 20502, -89.900, 0.000, 135.300, 0.000, 0.000, -3.000, 0.0, , , , , , 98, , , 45, 45, 45
36.6869850, -118.9584879, 45.900, 15:11:27.432, 20, 0.00, 0.22, 89, 1.500, 1.200, 136.200, 801, 100, 98, 15, 22595, -17721, 4920, 5529, 9, 14, 1523657487.435, 7, 0, 1024, 1024, 1025, 1024, 0, 6, 3731, 3764, 3771, 3804, 3749, 3779, 0, 1, 20607, -89.900, 0.000, 135.300, 0.000, 0.000, -2.900, 0.0, , , , , , 98, , , 45, 45, 45
36.6869850, -118.9584879, 46.100, 15:11:27.528, 20, 0.00, 0.22, 89, 1.700, 1.300, 136.300, 801, 100, 98, 15, 22595, -17721, 4920, 5529, 9, 14, 1523657487.528, 16, 0, 1024, 1024, 1025, 1024, 0, 6, 3731, 3764, 3771, 3804, 3749, 3779, 0, 1, 20700, -89.900, 0.000, 135.300, 0.000, 0.000, -2.900, 0.0, , , , , , 98, , , 45, 45, 45
36.6869850, -118.9584879, 46.100, 15:11:27.628, 20, 0.00, 0.22, 89, 1.700, 1.300, 136.300, 801, 100, 98, 15, 22595, -17721, 4920, 5529, 9, 14, 1523657487.628, 116, 0, 1024, 1024, 1025, 1024, 0, 6, 3731, 3764, 3771, 3804, 3749, 3779, 0, 1, 20800, -89.900, 0.000, 135.300, 0.000, 0.000, -2.900, 0.0, , , , , , 98, , , 45, 45, 45
36.6869850, -118.9584879, 46.400, 15:11:27.728, 20, 0.00, 0.22, 89, 1.700, 1.400, 136.400, 801, 100, 96, 15, 22595, -17721, 4920, 5529, 9, 14, 1523657487.729, 10, 0, 1024, 1024, 1025, 1024, 0, 6, 3731, 3764, 3771, 3804, 3749, 3779, 0, 1, 20901, -89.900, 0.000, 135.300, 0.000, 0.000, -2.900, 0.0, , , , , , 98, , , 45, 45, 45
