latitude,longitude,altitude(feet),ascent(feet),speed(mph),distance(feet),time(millisecond),datetime(utc),satellites,gpslevel,voltage(v),max_altitude(feet),max_ascent(feet),max_speed(mph),max_distance(feet), xSpeed(mph), ySpeed(mph), zSpeed(mph), compass_heading(degrees), pitch(degrees), roll(degrees),isPhoto,isVideo,rc_elevator,rc_aileron,rc_throttle,rc_rudder,gimbal_heading(degrees),gimbal_pitch(degrees),battery_percent,voltageCell1,voltageCell2,voltageCell3,voltageCell4,voltageCell5,voltageCell6,current(A),battery_temperature(f),flycStateRaw,flycState,message
36.6869866,-118.9584878,4940.6166354619,0,0.223694,0,2920,2018-04-13 21:26:45,18,0,0,4940.6166354619,0,0.223694,0,0,0,0,140.7, -2.6, -1,1,0,1024,1024,1024,1024,140.4,-90,100,4.262,4.233,4.253,4.243,0,0,0,59,11,AutoTakeoff,DJI_0269.jpg Starting Mission from Lat/Long: 36.68699/-118.95849 Camera: Zenmuse X3 - Overlap: 90/90 - Active Connection: Yes
36.6869866,-118.9584876,4940.6166354619,0,0.447388,0.05851542182,3000,2018-04-13 21:26:45,18,0,25.504,4940.6166354619,0,0.447388,0.05851542182,0,0,0,140.7, -2.2, -1.2,0,0,1024,1024,1024,1024,140.4,-89.9,100,4.262,4.233,4.253,4.243,0,0,3.854,59,11,AutoTakeoff,
36.6869865,-118.9584874,4940.6166354619,0,0.447388,0.122585961928,3100,2018-04-13 21:26:45,18,0,25.504,4940.6166354619,0,0.447388,0.122585961928,0,0,0,140.7, -1.1, -0.3,0,0,1024,1024,1024,1024,140.4,-89.9,100,4.262,4.233,4.253,4.243,0,0,3.854,59,11,AutoTakeoff,
36.6869864,-118.9584871,4940.6166354619,0,0.447388,0.21741470512,3200,2018-04-13 21:26:45,18,0,25.504,4940.6166354619,0,0.447388,0.21741470512,0,0,0,140.7, 0, 0.2,0,0,1024,1024,1024,1024,140.4,-89.9,100,4.262,4.233,4.253,4.243,0,0,3.854,59,11,AutoTakeoff,
36.6869863,-118.9584867,4940.6166354619,0,0.671082,0.33993767492,3300,2018-04-13 21:26:46,18,0,25.504,4940.6166354619,0,0.671082,0.33993767492,0,0,0,140.7, 1.2, 0.8,0,0,1024,1024,1024,1024,140.4,-89.9,100,4.262,4.233,4.253,4.243,0,0,3.854,59,11,AutoTakeoff,
36.6869862,-118.9584863,4940.9447194619,0.328084,0.671082,0.46249345312,3400,2018-04-13 21:26:46,18,0,25.504,4940.9447194619,0.328084,0.671082,0.46249345312,0,0,0,140.8, 2.2, 1.6,0,0,1024,1024,1024,1024,140.4,-89.9,100,4.262,4.233,4.253,4.243,0,0,3.854,59,11,AutoTakeoff,
36.6869862,-118.9584859,4940.9447194619,0.328084,0.671082,0.57473427036,3500,2018-04-13 21:26:46,18,0,25.504,4940.9447194619,0.328084,0.671082,0.57473427036,0,0,0,140.8, 2.8, 2.2,0,0,1024,1024,1024,1024,140.4,-89.9,100,4.262,4.233,4.253,4.243,0,0,3.854,59,11,AutoTakeoff,
36.6869861,-118.9584856,4941.2728034619,0.656168,0.447388,0.66902233112,3600,2018-04-13 21:26:46,18,0,25.504,4941.2728034619,0.656168,0.671082,0.66902233112,0,0,0,140.9, 2.8, 2.3,0,0,1024,1024,1024,1024,140.4,-89.9,100,4.262,4.233,4.253,4.243,0,0,3.854,59,11,AutoTakeoff,
36.6869861,-118.9584853,4941.2728034619,0.656168,0.447388,0.75384844932,3700,2018-04-13 21:26:46,18,0,25.504,4941.2728034619,0.656168,0.671082,0.75384844932,0,0,0,140.9, 2.6, 2.3,0,0,1024,1024,1024,1024,140.4,-89.9,100,4.262,4.233,4.253,4.243,0,0,3.854,59,11,AutoTakeoff,
36.686986,-118.9584851,4941.2728034619,0.656168,0.447388,0.81972771652,3800,2018-04-13 21:26:46,16,0,25.504,4941.2728034619,0.656168,0.671082,0.81972771652,0,0,0,140.9, 2.4, 2.3,0,0,1024,1024,1024,1024,140.4,-89.9,100,4.262,4.233,4.253,4.243,0,0,3.854,59,11,AutoTakeoff,
36.686986,-118.9584849,4941.6008874619,0.984252,0.223694,0.87625658972,3900,2018-04-13 21:26:46,16,0,25.504,4941.6008874619,0.984252,0.671082,0.87625658972,0,0,0,140.9, 2, 1.9,0,0,1024,1024,1024,1024,140.4,-90,100,4.262,4.233,4.253,4.243,0,0,3.854,59,11,AutoTakeoff,
36.686986,-118.9584847,4941.6008874619,0.984252,0.223694,0.93303152592,4000,2018-04-13 21:26:46,17,0,24.386,4941.6008874619,0.984252,0.671082,0.93303152592,0,0,0,140.9, 1.8, 1.7,0,0,1024,1024,1024,1024,140.4,-90,100,4.065,4.061,4.039,4.066,0,0,7.783,59,11,AutoTakeoff,
36.6869859,-118.9584845,4941.6008874619,0.984252,0.223694,0.99871066188,4100,2018-04-13 21:26:46,17,0,24.386,4941.6008874619,0.984252,0.671082,0.99871066188,0,0,0,140.9, 1.7, 1.4,0,0,1024,1024,1024,1024,140.4,-90,100,4.065,4.061,4.039,4.066,0,0,7.783,59,11,AutoTakeoff,
36.6869859,-118.9584843,4941.9289714619,1.312336,0.223694,1.05538717288,4200,2018-04-13 21:26:46,16,0,24.386,4941.9289714619,1.312336,0.671082,1.05538717288,0,0,0,140.9, 1.4, 1.1,0,0,1024,1024,1024,1024,140.4,-90,100,4.065,4.061,4.039,4.066,0,0,7.783,59,11,AutoTakeoff,
36.6869859,-118.9584841,4941.9289714619,1.312336,0.223694,1.1122539726,4300,2018-04-13 21:26:47,16,0,24.386,4941.9289714619,1.312336,0.671082,1.1122539726,0,0,-0.223694,140.9, 1.2, 1.3,0,0,1024,1024,1024,1024,140.4,-90,100,4.065,4.061,4.039,4.066,0,0,7.783,59,11,AutoTakeoff,
36.686986,-118.9584839,4942.2570554619,1.64042,0.223694,1.1618602734,4400,2018-04-13 21:26:47,17,0,24.386,4942.2570554619,1.64042,0.671082,1.1618602734,0,0,-0.223694,140.8, 1.2, 1.4,0,0,1024,1024,1024,1024,140.4,-90,100,4.065,4.061,4.039,4.066,0,0,7.783,59,11,AutoTakeoff,
36.686986,-118.9584836,4942.2570554619,1.64042,0.223694,1.24816933128,4500,2018-04-13 21:26:47,17,0,24.386,4942.2570554619,1.64042,0.671082,1.24816933128,0,0,-0.223694,140.7, 1.2, 1.7,0,0,1024,1024,1024,1024,140.4,-89.9,100,4.065,4.061,4.039,4.066,0,0,7.783,59,11,AutoTakeoff,
36.686986,-118.9584834,4942.5851394619,1.968504,0.223694,1.30581697092,4600,2018-04-13 21:26:47,18,0,24.386,4942.5851394619,1.968504,0.671082,1.30581697092,0,0,0,140.8, 1.4, 2,0,0,1024,1024,1024,1024,140.4,-89.9,100,4.065,4.061,4.039,4.066,0,0,7.783,59,11,AutoTakeoff,
36.686986,-118.9584829,4942.9132234619,2.296588,0.223694,1.45024282856,4800,2018-04-13 21:26:47,18,0,24.386,4942.9132234619,2.296588,0.671082,1.45024282856,0,0,-0.223694,140.9, 2, 3,0,0,1024,1024,1024,1024,140.4,-89.9,100,4.065,4.061,4.039,4.066,0,0,7.783,59,11,AutoTakeoff,
36.6869861,-118.9584828,4943.2413074619,2.624672,0.223694,1.47421592644,5000,2018-04-13 21:26:47,18,0,23.769,4943.2413074619,2.624672,0.671082,1.47421592644,0,0,-0.223694,141, 2.1, 3,0,0,1024,1024,1024,1024,140.4,-89.9,100,3.954,3.96,3.947,3.977,0,0,15.979,59,11,AutoTakeoff,
36.6869862,-118.9584826,4943.5693914619,2.952756,0,1.52838259484,5100,2018-04-13 21:26:47,18,0,23.769,4943.5693914619,2.952756,0.671082,1.52838259484,0,0,-0.223694,140.8, 1.8, 3.1,0,0,1024,1024,1024,1024,140.4,-90,100,3.954,3.96,3.947,3.977,0,0,15.979,59,14,Waypoint,
36.6869862,-118.9584825,4943.8974754619,3.28084,0,1.55750989236,5210,2018-04-13 21:26:47,17,0,23.769,4943.8974754619,3.28084,0.671082,1.55750989236,0,0,0,140.7, 1.5, 3.3,0,0,1024,1024,1024,1024,140.4,-90,100,3.954,3.96,3.947,3.977,0,0,15.979,59,14,Waypoint,
36.6869863,-118.9584824,4943.8974754619,3.28084,0,1.58370083808,5300,2018-04-13 21:26:48,17,0,23.769,4943.8974754619,3.28084,0.671082,1.58370083808,0,0,0,140.7, 0.5, 2.6,0,0,1024,1024,1024,1024,140.4,-90,100,3.954,3.96,3.947,3.977,0,0,15.979,59,14,Waypoint,
36.6869864,-118.9584824,4944.2255594619,3.608924,0,1.58159781964,5400,2018-04-13 21:26:48,17,0,23.769,4944.2255594619,3.608924,0.671082,1.58370083808,0,0,0,140.6, 0.1, 2.2,0,0,1024,1024,1024,1024,140.4,-90,100,3.954,3.96,3.947,3.977,0,0,15.979,59,14,Waypoint,
36.6869864,-118.9584823,4944.2255594619,3.608924,0,1.6108268232,5500,2018-04-13 21:26:48,17,0,23.769,4944.2255594619,3.608924,0.671082,1.6108268232,0,0,0,140.6, -0.2, 2,0,0,1024,1024,1024,1024,140.4,-90,100,3.954,3.96,3.947,3.977,0,0,15.979,59,14,Waypoint,
36.6869865,-118.9584823,4944.5536434619,3.937008,0,1.60958666568,5600,2018-04-13 21:26:48,17,0,23.769,4944.5536434619,3.937008,0.671082,1.6108268232,0,0,0,140.7, -0.2, 1.7,0,0,1024,1024,1024,1024,140.4,-90,100,3.954,3.96,3.947,3.977,0,0,15.979,59,14,Waypoint,
36.6869865,-118.9584822,4944.5536434619,3.937008,0,1.63883535428,5700,2018-04-13 21:26:48,17,0,23.769,4944.5536434619,3.937008,0.671082,1.63883535428,0,0,-0.223694,140.8, -0.1, 1.8,0,0,1024,1024,1024,1024,140.4,-90,100,3.954,3.96,3.947,3.977,0,0,15.979,59,14,Waypoint,
36.6869866,-118.9584821,4944.8817274619,4.265092,0,1.66768706124,5800,2018-04-13 21:26:48,17,0,23.769,4944.8817274619,4.265092,0.671082,1.66768706124,0,0,-0.223694,140.9, 0, 2.2,0,0,1024,1024,1024,1024,140.4,-89.9,100,3.954,3.96,3.947,3.977,0,0,15.979,59,14,Waypoint,
36.6869867,-118.958482,4945.2098114619,4.593176,0,1.69733929316,5900,2018-04-13 21:26:48,17,0,23.769,4945.2098114619,4.593176,0.671082,1.69733929316,0,0,-0.223694,141, 0.2, 2.6,0,0,1024,1024,1024,1024,140.4,-89.9,100,3.954,3.96,3.947,3.977,0,0,15.979,59,14,Waypoint,
36.6869868,-118.9584819,4945.5378954619,4.92126,0,1.72774611828,6000,2018-04-13 21:26:48,17,0,23.642,4945.5378954619,4.92126,0.671082,1.72774611828,0,0,-0.223694,141, 0.4, 2.6,0,0,1024,1024,1024,1024,140.4,-89.9,100,3.935,3.941,3.921,3.954,0,0,16.158,59,14,Waypoint,
36.6869868,-118.9584818,4945.8659794619,5.249344,0,1.75697840268,6100,2018-04-13 21:26:48,17,0,23.642,4945.8659794619,5.249344,0.671082,1.75697840268,0,0,-0.223694,140.9, 0.3, 2.7,0,0,1024,1024,1024,1024,140.4,-89.9,100,3.935,3.941,3.921,3.954,0,0,16.158,59,14,Waypoint,
36.6869868,-118.9584816,4946.5221474619,5.905512,0.223694,1.81544297148,6200,2018-04-13 21:26:48,17,0,23.642,4946.5221474619,5.905512,0.671082,1.81544297148,0,0,-0.447388,140.7, 0.5, 3.3,0,0,1024,1024,1024,1024,140.4,-89.9,100,3.935,3.941,3.921,3.954,0,0,16.158,59,14,Waypoint,
36.686987,-118.9584814,4946.8502314619,6.233596,0,1.87816935144,6300,2018-04-13 21:26:49,17,0,23.642,4946.8502314619,6.233596,0.671082,1.87816935144,0,0,-0.447388,140.5, 0.3, 3.9,0,0,1024,1024,1024,1024,140.4,-90,100,3.935,3.941,3.921,3.954,0,0,16.158,59,14,Waypoint,
36.6869871,-118.9584812,4947.5063994619,6.889764,0,1.93960636128,6400,2018-04-13 21:26:49,17,0,23.642,4947.5063994619,6.889764,0.671082,1.93960636128,0,0,-0.447388,140.3, 0.2, 4.2,0,0,1024,1024,1024,1024,140.4,-89.9,100,3.935,3.941,3.921,3.954,0,0,16.158,59,14,Waypoint,
36.6869872,-118.958481,4948.1625674619,7.545932,0,2.00152893544,6500,2018-04-13 21:26:49,17,0,23.642,4948.1625674619,7.545932,0.671082,2.00152893544,0,0,-0.447388,140.2, 0.2, 4.1,0,0,1024,1024,1024,1024,140.4,-89.9,100,3.935,3.941,3.921,3.954,0,0,16.158,59,14,Waypoint,
36.6869873,-118.9584808,4948.8187354619,8.2021,0,2.06390098468,6600,2018-04-13 21:26:49,18,0,23.642,4948.8187354619,8.2021,0.671082,2.06390098468,0,0,-0.447388,140.2, 0.4, 3.9,0,0,1024,1024,1024,1024,140.4,-89.9,100,3.935,3.941,3.921,3.954,0,0,16.158,59,14,Waypoint,
36.6869873,-118.9584805,4949.8029874619,9.186352,0,2.15102697172,6700,2018-04-13 21:26:49,18,0,23.642,4949.8029874619,9.186352,0.671082,2.15102697172,0,0,-0.447388,140.4, 0.6, 3.3,0,0,1024,1024,1024,1024,140.4,-89.9,100,3.935,3.941,3.921,3.954,0,0,16.158,59,14,Waypoint,
36.6869874,-118.9584803,4950.4591554619,9.84252,0,2.21365492648,6800,2018-04-13 21:26:49,17,0,23.642,4950.4591554619,9.84252,0.671082,2.21365492648,0,0,-0.671082,140.7, 0.8, 3.4,0,0,1024,1024,1024,1024,140.4,-89.9,100,3.935,3.941,3.921,3.954,0,0,16.158,59,14,Waypoint,
36.686988,-118.9584798,4952.4276594619,11.811024,0,2.3957021764,7010,2018-04-13 21:26:49,16,0,23.399,4952.4276594619,11.811024,0.671082,2.3957021764,0,0,-0.671082,140.9, 0.9, 4.4,0,0,1024,1024,1024,1024,140.4,-89.9,100,3.935,3.941,3.921,3.954,0,0,16.9,59,14,Waypoint,
36.6869881,-118.9584797,4953.4119114619,12.795276,0,2.43224417232,7100,2018-04-13 21:26:49,16,0,23.399,4953.4119114619,12.795276,0.671082,2.43224417232,0,0,-0.671082,141, 0.6, 4.9,0,0,1024,1024,1024,1024,140.4,-90,100,3.935,3.941,3.921,3.954,0,0,16.9,59,14,Waypoint,
36.6869883,-118.9584793,4955.7084994619,15.091864,0,2.56308407152,7210,2018-04-13 21:26:49,17,0,23.399,4955.7084994619,15.091864,0.671082,2.56308407152,0,0,-0.671082,141, 0.6, 5.7,0,0,1024,1024,1024,1024,140.4,-89.9,100,3.935,3.941,3.921,3.954,0,0,16.9,59,14,Waypoint,
36.6869884,-118.9584792,4958.0050874619,17.388452,0,2.60045283912,7410,2018-04-13 21:26:50,17,0,23.399,4958.0050874619,17.388452,0.671082,2.60045283912,0,0,-0.671082,140.7, 0.2, 5.2,0,0,1024,1024,1024,1024,140.4,-90,100,3.935,3.941,3.921,3.954,0,0,16.9,59,14,Waypoint,
36.6869885,-118.9584793,4959.9735914619,19.356956,0.223694,2.58171268104,7610,2018-04-13 21:26:50,18,0,23.399,4959.9735914619,19.356956,0.671082,2.60045283912,0,0,-0.671082,140.5, 0.2, 3.3,0,0,1024,1024,1024,1024,140.4,-89.9,100,3.935,3.941,3.921,3.954,0,0,16.9,59,14,Waypoint,
36.6869885,-118.9584793,4959.9735914619,19.356956,0.223694,2.58171268104,7700,2018-04-13 21:26:50,18,0,23.399,4959.9735914619,19.356956,0.671082,2.60045283912,0,0,-0.671082,140.5, 0.2, 3.3,0,0,1024,1024,1024,1024,140.4,-89.9,100,3.935,3.941,3.921,3.954,0,0,16.9,59,14,Waypoint,
36.6869885,-118.9584794,4961.2859274619,20.669292,0.223694,2.55354010796,7800,2018-04-13 21:26:50,17,0,23.399,4961.2859274619,20.669292,0.671082,2.60045283912,0,0,-0.671082,140.4, 0.1, 2.9,0,0,1024,1024,1024,1024,140.4,-90,100,3.935,3.941,3.921,3.954,0,0,16.9,59,14,Waypoint,
36.6869886,-118.9584795,4962.2701794619,21.653544,0.223694,2.53565296828,7900,2018-04-13 21:26:50,17,0,23.399,4962.2701794619,21.653544,0.671082,2.60045283912,0,0,-0.671082,140.4, 0, 3.2,0,0,1024,1024,1024,1024,140.4,-90,100,3.935,3.941,3.921,3.954,0,0,16.9,59,14,Waypoint,
36.6869886,-118.9584796,4963.2544314619,22.637796,0.223694,2.5076444372,8000,2018-04-13 21:26:50,18,0,23.399,4963.2544314619,22.637796,0.671082,2.60045283912,0,0,-0.671082,140.3, -0.3, 3.6,0,0,1024,1024,1024,1024,140.4,-90,100,3.884,3.909,3.885,3.906,0,0,16.9,59,14,Waypoint,
36.6869884,-118.9584798,4964.5667674619,23.950132,0.223694,2.43100073396,8100,2018-04-13 21:26:50,18,0,23.399,4964.5667674619,23.950132,0.671082,2.60045283912,0,0,-0.671082,140.3, -0.6, 3.6,0,0,1024,1024,1024,1024,140.4,-89.9,100,3.884,3.909,3.885,3.906,0,0,16.9,59,14,Waypoint,
36.6869882,-118.95848,4965.5510194619,24.934384,0.3131716,2.35558078404,8200,2018-04-13 21:26:50,18,0,23.399,4965.5510194619,24.934384,0.671082,2.60045283912,0,0,-0.671082,140.3, -0.6, 3.1,0,0,1024,1024,1024,1024,140.4,-89.9,100,3.884,3.909,3.885,3.906,0,0,16.9,59,14,Waypoint,
36.6869878,-118.9584804,4967.8476074619,27.230972,0.3131716,2.20889442764,8400,2018-04-13 21:26:51,18,0,23.399,4967.8476074619,27.230972,0.671082,2.60045283912,0,0,-0.671082,140.4, -0.1, 2,0,0,1024,1024,1024,1024,140.4,-89.9,100,3.884,3.909,3.885,3.906,0,0,16.9,59,14,Waypoint,
36.6869875,-118.9584807,4969.1599434619,28.543308,0.3131716,2.10308733764,8500,2018-04-13 21:26:51,18,0,23.399,4969.1599434619,28.543308,0.671082,2.60045283912,0,0,-0.671082,140.5, 0.1, 1.8,0,0,1024,1024,1024,1024,140.4,-89.9,100,3.884,3.909,3.885,3.906,0,0,16.9,59,14,Waypoint,
36.6869873,-118.9584809,4970.1441954619,29.52756,0.3131716,2.03487211236,8600,2018-04-13 21:26:51,18,0,23.399,4970.1441954619,29.52756,0.671082,2.60045283912,0,0,-0.671082,140.5, 0.2, 1.5,0,0,1024,1024,1024,1024,140.4,-89.9,100,3.884,3.909,3.885,3.906,0,0,16.9,59,14,Waypoint,
36.6869871,-118.9584811,4971.4565314619,30.839896,0.223694,1.9687336588,8700,2018-04-13 21:26:51,18,0,23.399,4971.4565314619,30.839896,0.671082,2.60045283912,0,0,-0.671082,140.5, 0, 1.4,0,0,1024,1024,1024,1024,140.4,-90,100,3.884,3.909,3.885,3.906,0,0,16.9,59,14,Waypoint,
36.6869868,-118.9584812,4972.7688674619,32.152232,0.223694,1.93238523244,8800,2018-04-13 21:26:51,18,0,23.399,4972.7688674619,32.152232,0.671082,2.60045283912,0,0,-0.671082,140.4, 0, 1.4,0,0,1024,1024,1024,1024,140.4,-89.9,100,3.884,3.909,3.885,3.906,0,0,16.9,59,14,Waypoint,
36.6869866,-118.9584814,4973.7531194619,33.136484,0.447388,1.87249349824,8900,2018-04-13 21:26:51,18,0,23.399,4973.7531194619,33.136484,0.671082,2.60045283912,0,0,-0.671082,140.5, 0.9, 1.1,0,0,1024,1024,1024,1024,140.4,-89.9,100,3.884,3.909,3.885,3.906,0,0,16.9,59,14,Waypoint,
36.6869863,-118.9584815,4974.7373714619,34.120736,0.447388,1.84648299872,9000,2018-04-13 21:26:51,18,0,22.69,4974.7373714619,34.120736,0.671082,2.60045283912,0,0,-0.671082,140.7, 1.9, 0.6,0,0,1024,1024,1024,1024,140.4,-89.9,98,3.769,3.785,3.768,3.803,0,0,24.826,59,14,Waypoint,
36.686986,-118.9584816,4975.3935394619,34.776904,0.447388,1.82713916608,9100,2018-04-13 21:26:51,18,0,22.69,4975.3935394619,34.776904,0.671082,2.60045283912,0,0,-0.671082,140.9, 2.7, 0,0,0,1024,1024,1024,1024,140.4,-89.9,98,3.769,3.785,3.768,3.803,0,0,24.826,59,14,Waypoint,
36.6869858,-118.9584816,4976.3777914619,35.761156,0.447388,1.83730977008,9200,2018-04-13 21:26:51,18,0,22.69,4976.3777914619,35.761156,0.671082,2.60045283912,0,0,-0.671082,140.9, 3.4, -0.6,0,0,1024,1024,1024,1024,140.4,-89.9,98,3.769,3.785,3.768,3.803,0,0,24.826,59,14,Waypoint,
36.6869855,-118.9584817,4977.3620434619,36.745408,0.223694,1.82928811628,9300,2018-04-13 21:26:52,18,0,22.69,4977.3620434619,36.745408,0.671082,2.60045283912,0,0,-0.671082,140.7, 4.3, -0.7,0,0,1024,1024,1024,1024,140.4,-89.9,98,3.769,3.785,3.768,3.803,0,0,24.826,59,14,Waypoint,
36.6869853,-118.9584817,4978.3462954619,37.72966,0.223694,1.8466700066,9400,2018-04-13 21:26:52,18,0,22.69,4978.3462954619,37.72966,0.671082,2.60045283912,0,0,-0.671082,140.6, 4.7, -0.1,0,0,1024,1024,1024,1024,140.4,-89.9,98,3.769,3.785,3.768,3.803,0,0,24.826,59,14,Waypoint,
36.6869851,-118.9584817,4979.3305474619,38.713912,0,1.86674218572,9500,2018-04-13 21:26:52,18,0,22.69,4979.3305474619,38.713912,0.671082,2.60045283912,0,0,-0.671082,140.9, 4.1, 1.8,0,0,1024,1024,1024,1024,140.4,-90,98,3.769,3.785,3.768,3.803,0,0,24.826,59,14,Waypoint,
36.686985,-118.9584816,4980.3147994619,39.698164,0,1.905593893,9600,2018-04-13 21:26:52,18,0,22.69,4980.3147994619,39.698164,0.671082,2.60045283912,0,0,-0.671082,141.2, 3.8, 2.6,0,0,1024,1024,1024,1024,140.4,-89.9,98,3.769,3.785,3.768,3.803,0,0,24.826,59,14,Waypoint,
36.6869849,-118.9584816,4981.2990514619,40.682416,0,1.91708339468,9700,2018-04-13 21:26:52,18,0,22.69,4981.2990514619,40.682416,0.671082,2.60045283912,0,0,-0.671082,141.4, 3.4, 2,0,0,1024,1024,1024,1024,140.4,-90,98,3.769,3.785,3.768,3.803,0,0,24.826,59,14,Waypoint,
36.6869847,-118.9584817,4982.2833034619,41.666668,0,1.91461948384,9800,2018-04-13 21:26:52,18,0,22.69,4982.2833034619,41.666668,0.671082,2.60045283912,0,0,-0.671082,141.3, 3.3, 1.4,0,0,1024,1024,1024,1024,140.4,-90,98,3.769,3.785,3.768,3.803,0,0,24.826,59,14,Waypoint,
36.6869846,-118.9584817,4983.2675554619,42.65092,0,1.92812998296,10000,2018-04-13 21:26:52,18,0,22.882,4983.2675554619,42.65092,0.671082,2.60045283912,0,0,-0.671082,141.3, 3.4, 1.2,0,0,1024,1024,1024,1024,140.4,-89.9,98,3.81,3.821,3.787,3.84,0,0,21.797,59,14,Waypoint,
36.6869844,-118.9584816,4984.9079754619,44.29134,0,1.9836286724,10100,2018-04-13 21:26:52,18,0,22.882,4984.9079754619,44.29134,0.671082,2.60045283912,0,0,-0.671082,141.1, 3.4, 1.1,0,0,1024,1024,1024,1024,140.4,-90,98,3.81,3.821,3.787,3.84,0,0,21.797,59,14,Waypoint,
36.6869843,-118.9584816,4985.8922274619,45.275592,0,1.9986713238,10200,2018-04-13 21:26:52,18,0,22.882,4985.8922274619,45.275592,0.671082,2.60045283912,0,0,-0.671082,141.1, 3.6, 1.5,0,0,1024,1024,1024,1024,140.4,-89.9,98,3.81,3.821,3.787,3.84,0,0,21.797,59,14,Waypoint,
36.6869843,-118.9584815,4986.8764794619,46.259844,0,2.025262532,10300,2018-04-13 21:26:53,18,0,22.882,4986.8764794619,46.259844,0.671082,2.60045283912,0,0,-0.671082,141.4, 3.3, 1.9,0,0,1024,1024,1024,1024,140.4,-90,98,3.81,3.821,3.787,3.84,0,0,21.797,59,14,Waypoint,
36.6869843,-118.9584815,4987.8607314619,47.244096,0,2.025262532,10400,2018-04-13 21:26:53,18,0,22.882,4987.8607314619,47.244096,0.671082,2.60045283912,0,0,-0.671082,141.6, 3, 2,0,0,1024,1024,1024,1024,140.4,-90,98,3.81,3.821,3.787,3.84,0,0,21.797,59,14,Waypoint,
36.6869843,-118.9584814,4988.8449834619,48.228348,0,2.05192591868,10500,2018-04-13 21:26:53,18,0,22.882,4988.8449834619,48.228348,0.671082,2.60045283912,0,0,-0.671082,141.7, 2.8, 2.2,0,0,1024,1024,1024,1024,140.4,-89.9,98,3.81,3.821,3.787,3.84,0,0,21.797,59,14,Waypoint,
36.6869843,-118.9584813,4989.8292354619,49.2126,0,2.07866148384,10600,2018-04-13 21:26:53,18,0,22.882,4989.8292354619,49.2126,0.671082,2.60045283912,0,0,-0.671082,141.7, 2.8, 2.6,0,0,1024,1024,1024,1024,140.4,-89.9,98,3.81,3.821,3.787,3.84,0,0,21.797,59,14,Waypoint,
36.6869843,-118.9584813,4990.8134874619,50.196852,0,2.07866148384,10700,2018-04-13 21:26:53,18,0,22.882,4990.8134874619,50.196852,0.671082,2.60045283912,0,0,-0.671082,141.6, 2.8, 2.8,0,0,1024,1024,1024,1024,140.4,-89.9,98,3.81,3.821,3.787,3.84,0,0,21.797,59,14,Waypoint,
36.6869844,-118.9584813,4992.1258234619,51.509188,0,2.06420282196,10800,2018-04-13 21:26:53,18,0,22.882,4992.1258234619,51.509188,0.671082,2.60045283912,0,0,-0.671082,141.3, 3, 2.7,0,0,1024,1024,1024,1024,140.4,-89.9,98,3.81,3.821,3.787,3.84,0,0,21.797,59,14,Waypoint,
36.6869844,-118.9584812,4992.7819914619,52.165356,0,2.09118773096,10900,2018-04-13 21:26:53,18,0,22.882,4992.7819914619,52.165356,0.671082,2.60045283912,0,0,-0.671082,140.9, 3, 2.5,0,0,1024,1024,1024,1024,140.4,-90,98,3.81,3.821,3.787,3.84,0,0,21.797,59,14,Waypoint,
36.6869845,-118.9584811,4993.7662434619,53.149608,0,2.10467854504,11000,2018-04-13 21:26:53,18,0,23.174,4993.7662434619,53.149608,0.671082,2.60045283912,0,0,-0.671082,140.4, 2.9, 2.6,0,0,1024,1024,1024,1024,140.4,-89.9,98,3.86,3.863,3.852,3.863,0,0,18.778,59,14,Waypoint,
36.6869845,-118.9584811,4994.7504954619,54.13386,0,2.10467854504,11100,2018-04-13 21:26:53,18,0,23.174,4994.7504954619,54.13386,0.671082,2.60045283912,0,0,-0.671082,140.1, 2.8, 2.3,0,0,1024,1024,1024,1024,140.4,-90,98,3.86,3.863,3.852,3.863,0,0,18.778,59,14,Waypoint,
36.6869845,-118.9584811,4995.7347474619,55.118112,0,2.10467854504,11200,2018-04-13 21:26:53,18,0,23.174,4995.7347474619,55.118112,0.671082,2.60045283912,0,0,-0.671082,139.9, 2.6, 2.1,0,0,1024,1024,1024,1024,140.4,-90,98,3.86,3.863,3.852,3.863,0,0,18.778,59,14,Waypoint,
36.6869846,-118.9584811,4996.7189994619,56.102364,0,2.09167329528,11300,2018-04-13 21:26:54,18,0,23.174,4996.7189994619,56.102364,0.671082,2.60045283912,0,0,-0.671082,139.9, 2.5, 2,0,0,1024,1024,1024,1024,140.4,-90,98,3.86,3.863,3.852,3.863,0,0,18.778,59,14,Waypoint,
36.6869846,-118.9584811,4997.7032514619,57.086616,0,2.09167329528,11400,2018-04-13 21:26:54,18,0,23.174,4997.7032514619,57.086616,0.671082,2.60045283912,0,0,-0.671082,140, 2.6, 2.1,0,0,1024,1024,1024,1024,140.4,-90,98,3.86,3.863,3.852,3.863,0,0,18.778,59,14,Waypoint,
36.6869848,-118.958481,4999.6717554619,59.05512,0,2.0951116156,11600,2018-04-13 21:26:54,18,0,23.174,4999.6717554619,59.05512,0.671082,2.60045283912,0,0,-0.671082,140.4, 2.6, 2.3,0,0,1024,1024,1024,1024,140.4,-90,98,3.86,3.863,3.852,3.863,0,0,18.778,59,14,Waypoint,
36.6869849,-118.958481,5001.6402594619,61.023624,0,2.08396332128,11800,2018-04-13 21:26:54,18,0,23.174,5001.6402594619,61.023624,0.671082,2.60045283912,0,0,-0.671082,140.7, 2.3, 2.3,0,0,1024,1024,1024,1024,140.4,-90,98,3.86,3.863,3.852,3.863,0,0,18.778,59,14,Waypoint,
36.6869849,-118.958481,5002.6245114619,62.007876,0,2.08396332128,11900,2018-04-13 21:26:54,18,0,23.174,5002.6245114619,62.007876,0.671082,2.60045283912,0,0,-0.671082,140.9, 2.2, 2.5,0,0,1024,1024,1024,1024,140.4,-90,98,3.86,3.863,3.852,3.863,0,0,18.778,59,14,Waypoint,
36.686985,-118.958481,5003.6087634619,62.992128,0,2.07339573564,12010,2018-04-13 21:26:54,18,0,22.972,5003.6087634619,62.992128,0.671082,2.60045283912,0,0,-0.671082,140.9, 2.2, 2.5,0,0,1024,1024,1024,1024,140.4,-90,98,3.831,3.834,3.798,3.833,0,0,20.296,59,14,Waypoint,
36.6869851,-118.9584809,5004.5930154619,63.97638,0,2.09164704856,12100,2018-04-13 21:26:54,18,0,22.972,5004.5930154619,63.97638,0.671082,2.60045283912,0,0,-0.671082,140.9, 2.4, 2.7,0,0,1024,1024,1024,1024,140.4,-90,98,3.831,3.834,3.798,3.833,0,0,20.296,59,14,Waypoint,
36.6869852,-118.9584809,5005.9053514619,65.288716,0,2.0823983606,12200,2018-04-13 21:26:54,18,0,22.972,5005.9053514619,65.288716,0.671082,2.60045283912,0,0,-0.671082,140.9, 2.6, 2.9,0,0,1024,1024,1024,1024,140.4,-89.9,98,3.831,3.834,3.798,3.833,0,0,20.296,59,14,Waypoint,
36.6869853,-118.9584809,5006.8896034619,66.272968,0,2.07375006636,12300,2018-04-13 21:26:55,18,0,22.972,5006.8896034619,66.272968,0.671082,2.60045283912,0,0,-0.671082,140.9, 2.7, 3.1,0,0,1024,1024,1024,1024,140.4,-89.9,98,3.831,3.834,3.798,3.833,0,0,20.296,59,14,Waypoint,
36.6869854,-118.9584808,5007.8738554619,67.25722,0,2.09431437148,12400,2018-04-13 21:26:55,18,0,22.972,5007.8738554619,67.25722,0.671082,2.60045283912,0,0,-0.671082,140.9, 2.6, 3.1,0,0,1024,1024,1024,1024,140.4,-89.9,98,3.831,3.834,3.798,3.833,0,0,20.296,59,14,Waypoint,
36.6869855,-118.9584807,5009.8423594619,69.225724,0,2.11570872912,12600,2018-04-13 21:26:55,18,0,22.972,5009.8423594619,69.225724,0.671082,2.60045283912,0,0,-0.671082,140.8, 2.4, 3.2,0,0,1024,1024,1024,1024,140.4,-90,98,3.831,3.834,3.798,3.833,0,0,20.296,59,14,Waypoint,
36.6869856,-118.9584808,5010.8266114619,70.209976,0,2.0802822188,12700,2018-04-13 21:26:55,18,0,22.972,5010.8266114619,70.209976,0.671082,2.60045283912,0,0,-0.671082,140.8, 2.4, 3.1,0,0,1024,1024,1024,1024,140.4,-89.9,98,3.831,3.834,3.798,3.833,0,0,20.296,59,14,Waypoint,
36.6869857,-118.9584808,5012.7951154619,72.17848,0,2.0741962606,12900,2018-04-13 21:26:55,18,0,22.972,5012.7951154619,72.17848,0.671082,2.60045283912,0,0,-0.671082,140.8, 2.5, 2.6,0,0,1024,1024,1024,1024,140.4,-90,98,3.831,3.834,3.798,3.833,0,0,20.296,59,14,Waypoint,
36.6869857,-118.9584808,5013.7793674619,73.162732,0,2.0741962606,13000,2018-04-13 21:26:55,18,0,22.917,5013.7793674619,73.162732,0.671082,2.60045283912,0,0,-0.671082,140.7, 2.4, 2.7,0,0,1024,1024,1024,1024,140.4,-89.9,98,3.807,3.819,3.784,3.828,0,0,20.068,59,14,Waypoint,
36.6869858,-118.9584808,5014.7636194619,74.146984,0,2.068733662,13100,2018-04-13 21:26:55,18,0,22.917,5014.7636194619,74.146984,0.671082,2.60045283912,0,0,-0.671082,140.7, 2.3, 2.7,0,0,1024,1024,1024,1024,140.4,-90,98,3.807,3.819,3.784,3.828,0,0,20.068,59,14,Waypoint,
36.6869859,-118.9584808,5016.7321234619,76.115488,0,2.06390098468,13300,2018-04-13 21:26:56,18,0,22.917,5016.7321234619,76.115488,0.671082,2.60045283912,0,0,-0.671082,140.8, 1.7, 2.9,0,0,1024,1024,1024,1024,140.4,-90,98,3.807,3.819,3.784,3.828,0,0,20.068,59,14,Waypoint,
36.686986,-118.9584808,5017.7163754619,77.09974,0,2.05970479032,13400,2018-04-13 21:26:56,18,0,22.917,5017.7163754619,77.09974,0.671082,2.60045283912,0,0,-0.671082,140.7, 1.4, 3.1,0,0,1024,1024,1024,1024,140.4,-90,98,3.807,3.819,3.784,3.828,0,0,20.068,59,14,Waypoint,
36.6869861,-118.9584809,5018.7006274619,78.083992,0,2.02700465804,13500,2018-04-13 21:26:56,18,0,22.917,5018.7006274619,78.083992,0.671082,2.60045283912,0,0,-0.671082,140.6, 1.2, 3.1,0,0,1024,1024,1024,1024,140.4,-90,98,3.807,3.819,3.784,3.828,0,0,20.068,59,14,Waypoint,
36.6869862,-118.9584809,5019.6848794619,79.068244,0,2.0240486212,13600,2018-04-13 21:26:56,18,0,22.917,5019.6848794619,79.068244,0.671082,2.60045283912,0,0,-0.671082,140.6, 1.1, 2.9,0,0,1024,1024,1024,1024,140.4,-89.9,98,3.807,3.819,3.784,3.828,0,0,20.068,59,14,Waypoint,
36.6869862,-118.9584809,5020.6691314619,80.052496,0,2.0240486212,13700,2018-04-13 21:26:56,18,0,22.917,5020.6691314619,80.052496,0.671082,2.60045283912,0,0,-0.671082,140.6, 1.3, 2.9,0,0,1024,1024,1024,1024,140.4,-89.9,98,3.807,3.819,3.784,3.828,0,0,20.068,59,14,Waypoint,
36.6869862,-118.958481,5021.6533834619,81.036748,0,1.99486883024,13800,2018-04-13 21:26:56,18,0,22.917,5021.6533834619,81.036748,0.671082,2.60045283912,0,0,-0.671082,140.6, 1.5, 2.8,0,0,1024,1024,1024,1024,140.4,-89.9,98,3.807,3.819,3.784,3.828,0,0,20.068,59,14,Waypoint,
36.6869862,-118.958481,5022.6376354619,82.021,0,1.99486883024,13900,2018-04-13 21:26:56,18,0,22.917,5022.6376354619,82.021,0.671082,2.60045283912,0,0,-0.671082,140.6, 1.7, 2.7,0,0,1024,1024,1024,1024,140.4,-89.9,98,3.807,3.819,3.784,3.828,0,0,20.068,59,14,Waypoint,
36.6869863,-118.958481,5024.6061394619,83.989504,0,1.99253287216,14100,2018-04-13 21:26:56,18,0,22.917,5024.6061394619,83.989504,0.671082,2.60045283912,0,0,-0.671082,140.8, 1.8, 2.6,0,0,1024,1024,1024,1024,140.4,-90,98,3.807,3.819,3.784,3.828,0,0,20.068,59,14,Waypoint,
36.6869863,-118.9584809,5025.2623074619,84.645672,0,2.02174547152,14200,2018-04-13 21:26:56,18,0,22.917,5025.2623074619,84.645672,0.671082,2.60045283912,0,0,-0.671082,140.8, 2, 2.9,0,0,1024,1024,1024,1024,140.4,-90,98,3.807,3.819,3.784,3.828,0,0,20.068,59,14,Waypoint,
36.6869863,-118.9584809,5026.2465594619,85.629924,0,2.02174547152,14300,2018-04-13 21:26:57,18,0,22.917,5026.2465594619,85.629924,0.671082,2.60045283912,0,0,-0.671082,140.9, 2.2, 3.2,0,0,1024,1024,1024,1024,140.4,-89.9,98,3.807,3.819,3.784,3.828,0,0,20.068,59,14,Waypoint,
36.6869864,-118.9584808,5027.2308114619,86.614176,0,2.04933733592,14400,2018-04-13 21:26:57,18,0,22.917,5027.2308114619,86.614176,0.671082,2.60045283912,0,0,-0.671082,140.9, 2.4, 3.5,0,0,1024,1024,1024,1024,140.4,-89.9,98,3.807,3.819,3.784,3.828,0,0,20.068,59,14,Waypoint,
36.6869864,-118.9584808,5028.5431474619,87.926512,0,2.04933733592,14500,2018-04-13 21:26:57,18,0,22.917,5028.5431474619,87.926512,0.671082,2.60045283912,0,0,-0.671082,140.9, 2.4, 3.5,0,0,1024,1024,1024,1024,140.4,-89.9,98,3.807,3.819,3.784,3.828,0,0,20.068,59,14,Waypoint,
36.6869864,-118.9584808,5029.5273994619,88.910764,0,2.04933733592,14600,2018-04-13 21:26:57,18,0,22.917,5029.5273994619,88.910764,0.671082,2.60045283912,0,0,-0.671082,140.9, 2.5, 3.1,0,0,1024,1024,1024,1024,140.4,-89.9,98,3.807,3.819,3.784,3.828,0,0,20.068,59,14,Waypoint,
36.6869863,-118.9584808,5030.5116514619,89.895016,0,2.05096135172,14700,2018-04-13 21:26:57,18,0,22.917,5030.5116514619,89.895016,0.671082,2.60045283912,0,0,-0.671082,140.8, 2.4, 2.9,0,0,1024,1024,1024,1024,140.4,-90,98,3.807,3.819,3.784,3.828,0,0,20.068,59,14,Waypoint,
36.6869863,-118.9584808,5031.4959034619,90.879268,0,2.05096135172,14800,2018-04-13 21:26:57,18,0,22.917,5031.4959034619,90.879268,0.671082,2.60045283912,0,0,-0.671082,140.8, 2.3, 2.8,0,0,1024,1024,1024,1024,140.4,-90,98,3.807,3.819,3.784,3.828,0,0,20.068,59,14,Waypoint,
36.6869863,-118.9584808,5032.4801554619,91.86352,0,2.05096135172,14900,2018-04-13 21:26:57,18,0,22.917,5032.4801554619,91.86352,0.671082,2.60045283912,0,0,-0.671082,140.7, 2.2, 2.7,0,0,1024,1024,1024,1024,140.4,-90,98,3.807,3.819,3.784,3.828,0,0,20.068,59,14,Waypoint,
36.6869863,-118.9584808,5033.4644074619,92.847772,0,2.05096135172,15000,2018-04-13 21:26:57,18,0,22.71,5033.4644074619,92.847772,0.671082,2.60045283912,0,0,-0.671082,140.7, 2.2, 2.7,0,0,1024,1024,1024,1024,140.4,-90,98,3.78,3.783,3.76,3.8,0,0,21.046,60.8,14,Waypoint,
36.6869862,-118.9584808,5036.4171634619,95.800528,0,2.053231693,15200,2018-04-13 21:26:57,18,0,22.71,5036.4171634619,95.800528,0.671082,2.60045283912,0,0,-0.671082,140.7, 2.3, 3,0,0,1024,1024,1024,1024,140.4,-89.9,98,3.78,3.783,3.76,3.8,0,0,21.046,60.8,14,Waypoint,
36.6869862,-118.9584808,5037.4014154619,96.78478,0,2.053231693,15500,2018-04-13 21:26:58,18,0,22.71,5037.4014154619,96.78478,0.671082,2.60045283912,0,0,-0.671082,140.7, 2.3, 3.1,0,0,1024,1024,1024,1024,140.4,-89.9,98,3.78,3.783,3.76,3.8,0,0,21.046,60.8,14,Waypoint,
36.6869862,-118.9584808,5039.3699194619,98.753284,0,2.053231693,15600,2018-04-13 21:26:58,18,0,22.71,5039.3699194619,98.753284,0.671082,2.60045283912,0,0,-0.671082,140.7, 2, 2.7,0,0,1024,1024,1024,1024,140.4,-90,98,3.78,3.783,3.76,3.8,0,0,21.046,60.8,14,Waypoint,
36.6869862,-118.9584809,5040.3541714619,99.737536,0,2.0240486212,15700,2018-04-13 21:26:58,18,0,22.71,5040.3541714619,99.737536,0.671082,2.60045283912,0,0,-0.671082,140.7, 2, 2.7,0,0,1024,1024,1024,1024,140.4,-89.9,98,3.78,3.783,3.76,3.8,0,0,21.046,60.8,14,Waypoint,
36.6869861,-118.9584809,5041.3384234619,100.721788,0,2.02700465804,15800,2018-04-13 21:26:58,18,0,22.71,5041.3384234619,100.721788,0.671082,2.60045283912,0,0,-0.671082,140.8, 2.2, 2.7,0,0,1024,1024,1024,1024,140.4,-89.9,98,3.78,3.783,3.76,3.8,0,0,21.046,60.8,14,Waypoint,
36.6869861,-118.9584809,5042.3226754619,101.70604,0,2.02700465804,15900,2018-04-13 21:26:58,18,0,22.71,5042.3226754619,101.70604,0.671082,2.60045283912,0,0,-0.671082,140.8, 2.5, 2.6,0,0,1024,1024,1024,1024,140.4,-89.9,98,3.78,3.783,3.76,3.8,0,0,21.046,60.8,14,Waypoint,
36.6869861,-118.9584809,5043.3069274619,102.690292,0,2.02700465804,16000,2018-04-13 21:26:58,18,0,22.71,5043.3069274619,102.690292,0.671082,2.60045283912,0,0,-0.671082,140.7, 2.5, 2.3,0,0,1024,1024,1024,1024,140.4,-89.9,98,3.78,3.783,3.76,3.8,0,0,21.046,60.8,14,Waypoint,
36.686986,-118.9584809,5044.2911794619,103.674544,0,2.03061358204,16100,2018-04-13 21:26:58,18,0,22.71,5044.2911794619,103.674544,0.671082,2.60045283912,0,0,-0.671082,140.7, 2.5, 2.3,0,0,1024,1024,1024,1024,140.4,-89.9,98,3.78,3.783,3.76,3.8,0,0,21.046,60.8,14,Waypoint,
36.686986,-118.958481,5045.2754314619,104.658796,0,2.00152893544,16200,2018-04-13 21:26:58,18,0,22.71,5045.2754314619,104.658796,0.671082,2.60045283912,0,0,-0.671082,140.7, 2.5, 2.3,0,0,1024,1024,1024,1024,140.4,-89.9,98,3.78,3.783,3.76,3.8,0,0,21.046,60.8,14,Waypoint,
36.6869859,-118.958481,5046.2596834619,105.643048,0,2.00584980172,16300,2018-04-13 21:26:59,18,0,22.71,5046.2596834619,105.643048,0.671082,2.60045283912,0,0,-0.671082,140.6, 2.6, 2.4,0,0,1024,1024,1024,1024,140.4,-89.9,98,3.78,3.783,3.76,3.8,0,0,21.046,60.8,14,Waypoint,
36.6869859,-118.958481,5047.2439354619,106.6273,0,2.00584980172,16400,2018-04-13 21:26:59,18,0,22.71,5047.2439354619,106.6273,0.671082,2.60045283912,0,0,-0.671082,140.6, 2.6, 2.5,0,0,1024,1024,1024,1024,140.4,-89.9,98,3.78,3.783,3.76,3.8,0,0,21.046,60.8,14,Waypoint,
36.6869859,-118.958481,5048.5562714619,107.939636,0,2.00584980172,16500,2018-04-13 21:26:59,18,0,22.71,5048.5562714619,107.939636,0.671082,2.60045283912,0,0,-0.671082,140.5, 2.5, 2.4,0,0,1024,1024,1024,1024,140.4,-89.9,98,3.78,3.783,3.76,3.8,0,0,21.046,60.8,14,Waypoint,
36.6869859,-118.9584811,5049.5405234619,108.923888,0,1.97683077192,16600,2018-04-13 21:26:59,18,0,22.71,5049.5405234619,108.923888,0.671082,2.60045283912,0,0,-0.671082,140.5, 2.4, 2.1,0,0,1024,1024,1024,1024,140.4,-90,98,3.78,3.783,3.76,3.8,0,0,21.046,60.8,14,Waypoint,
36.6869859,-118.9584811,5050.5247754619,109.90814,0,1.97683077192,16700,2018-04-13 21:26:59,18,0,22.71,5050.5247754619,109.90814,0.671082,2.60045283912,0,0,-0.671082,140.5, 2.3, 2.2,0,0,1024,1024,1024,1024,140.4,-90,98,3.78,3.783,3.76,3.8,0,0,21.046,60.8,14,Waypoint,
36.6869859,-118.9584811,5051.5090274619,110.892392,0,1.97683077192,16800,2018-04-13 21:26:59,18,0,22.71,5051.5090274619,110.892392,0.671082,2.60045283912,0,0,-0.671082,140.6, 2.2, 2.4,0,0,1024,1024,1024,1024,140.4,-90,98,3.78,3.783,3.76,3.8,0,0,21.046,60.8,14,Waypoint,
36.6869858,-118.9584811,5052.4932794619,111.876644,0,1.98187670384,16900,2018-04-13 21:26:59,18,0,22.71,5052.4932794619,111.876644,0.671082,2.60045283912,0,0,-0.671082,140.6, 2.3, 2.5,0,0,1024,1024,1024,1024,140.4,-89.9,98,3.78,3.783,3.76,3.8,0,0,21.046,60.8,14,Waypoint,
36.6869858,-118.9584812,5054.4617834619,113.845148,0,1.95294297588,17100,2018-04-13 21:26:59,18,0,22.71,5054.4617834619,113.845148,0.671082,2.60045283912,0,0,-0.671082,140.8, 2.2, 2.8,0,0,1024,1024,1024,1024,140.4,-89.9,98,3.78,3.783,3.76,3.8,0,0,21.046,60.8,14,Waypoint,
36.6869858,-118.9584811,5056.4302874619,115.813652,0,1.98187670384,17300,2018-04-13 21:27:00,18,0,22.71,5056.4302874619,115.813652,0.671082,2.60045283912,0,0,-0.671082,140.8, 2.4, 3.3,0,0,1024,1024,1024,1024,140.4,-89.9,98,3.78,3.783,3.76,3.8,0,0,21.046,60.8,14,Waypoint,
36.6869859,-118.9584811,5058.3987914619,117.782156,0,1.97683077192,17520,2018-04-13 21:27:00,18,0,22.71,5058.3987914619,117.782156,0.671082,2.60045283912,0,0,-0.671082,140.8, 2.2, 3.3,0,0,1024,1024,1024,1024,140.4,-90,98,3.78,3.783,3.76,3.8,0,0,21.046,60.8,14,Waypoint,
36.6869859,-118.9584811,5059.3830434619,118.766408,0,1.97683077192,17600,2018-04-13 21:27:00,18,0,22.71,5059.3830434619,118.766408,0.671082,2.60045283912,0,0,-0.671082,140.7, 2.1, 3.3,0,0,1024,1024,1024,1024,140.4,-89.9,98,3.78,3.783,3.76,3.8,0,0,21.046,60.8,14,Waypoint,
36.6869859,-118.9584811,5060.3672954619,119.75066,0,1.97683077192,17700,2018-04-13 21:27:00,18,0,22.71,5060.3672954619,119.75066,0.671082,2.60045283912,0,0,-0.671082,140.6, 2, 3.2,0,0,1024,1024,1024,1024,140.4,-90,98,3.78,3.783,3.76,3.8,0,0,21.046,60.8,14,Waypoint,
36.6869859,-118.9584811,5062.3357994619,121.719164,0,1.97683077192,17900,2018-04-13 21:27:00,18,0,22.71,5062.3357994619,121.719164,0.671082,2.60045283912,0,0,-0.671082,140.8, 2.2, 3.4,0,0,1024,1024,1024,1024,140.4,-89.9,98,3.78,3.783,3.76,3.8,0,0,21.046,60.8,14,Waypoint,
36.686986,-118.958481,5063.3200514619,122.703416,0,2.00152893544,18000,2018-04-13 21:27:00,18,0,22.691,5063.3200514619,122.703416,0.671082,2.60045283912,0,0,-0.671082,140.8, 2.2, 3.5,0,0,1024,1024,1024,1024,140.4,-89.9,97,3.768,3.79,3.739,3.797,0,0,20.343,60.8,14,Waypoint,
36.686986,-118.9584809,5064.3043034619,123.687668,0,2.03061358204,18100,2018-04-13 21:27:00,18,0,22.691,5064.3043034619,123.687668,0.671082,2.60045283912,0,0,-0.671082,140.9, 2.2, 3.7,0,0,1024,1024,1024,1024,140.4,-89.9,97,3.768,3.79,3.739,3.797,0,0,20.343,60.8,14,Waypoint,
36.686986,-118.9584809,5065.2885554619,124.67192,0,2.03061358204,18200,2018-04-13 21:27:00,18,0,22.691,5065.2885554619,124.67192,0.671082,2.60045283912,0,0,-0.671082,140.9, 2.3, 4,0,0,1024,1024,1024,1024,140.4,-89.9,97,3.768,3.79,3.739,3.797,0,0,20.343,60.8,14,Waypoint,
36.686986,-118.9584808,5066.2728074619,125.656172,0,2.05970479032,18300,2018-04-13 21:27:01,18,0,22.691,5066.2728074619,125.656172,0.671082,2.60045283912,0,0,-0.671082,140.9, 2.3, 4,0,0,1024,1024,1024,1024,140.4,-89.9,97,3.768,3.79,3.739,3.797,0,0,20.343,60.8,14,Waypoint,
36.686986,-118.9584808,5067.2570594619,126.640424,0,2.05970479032,18400,2018-04-13 21:27:01,18,0,22.691,5067.2570594619,126.640424,0.671082,2.60045283912,0,0,-0.671082,140.9, 2.4, 3.8,0,0,1024,1024,1024,1024,140.4,-89.9,97,3.768,3.79,3.739,3.797,0,0,20.343,60.8,14,Waypoint,
36.686986,-118.9584807,5067.9132274619,127.296592,0,2.08879927944,18500,2018-04-13 21:27:01,18,0,22.691,5067.9132274619,127.296592,0.671082,2.60045283912,0,0,-0.671082,141, 2.6, 3.6,0,0,1024,1024,1024,1024,140.4,-89.9,97,3.768,3.79,3.739,3.797,0,0,20.343,60.8,14,Waypoint,
36.686986,-118.9584806,5068.8974794619,128.280844,0,2.1178970494,18600,2018-04-13 21:27:01,18,0,22.691,5068.8974794619,128.280844,0.671082,2.60045283912,0,0,-0.671082,141, 2.9, 3.6,0,0,1024,1024,1024,1024,140.4,-89.9,97,3.768,3.79,3.739,3.797,0,0,20.343,60.8,14,Waypoint,
36.686986,-118.9584806,5069.8817314619,129.265096,0,2.1178970494,18700,2018-04-13 21:27:01,18,0,22.691,5069.8817314619,129.265096,0.671082,2.60045283912,0,0,-0.671082,141, 3.1, 3.7,0,0,1024,1024,1024,1024,140.4,-89.9,97,3.768,3.79,3.739,3.797,0,0,20.343,60.8,14,Waypoint,
36.686986,-118.9584805,5070.8659834619,130.249348,0,2.14700138104,18800,2018-04-13 21:27:01,18,0,22.691,5070.8659834619,130.249348,0.671082,2.60045283912,0,0,-0.671082,140.9, 3.3, 3.9,0,0,1024,1024,1024,1024,140.4,-89.9,97,3.768,3.79,3.739,3.797,0,0,20.343,60.8,14,Waypoint,
36.686986,-118.9584804,5071.8502354619,131.2336,0,2.17610899352,18900,2018-04-13 21:27:01,18,0,22.691,5071.8502354619,131.2336,0.671082,2.60045283912,0,0,-0.671082,140.9, 3.3, 4.1,0,0,1024,1024,1024,1024,140.4,-89.9,97,3.768,3.79,3.739,3.797,0,0,20.343,60.8,14,Waypoint,
36.686986,-118.9584804,5072.8344874619,132.217852,0,2.17610899352,19000,2018-04-13 21:27:01,18,0,22.691,5072.8344874619,132.217852,0.671082,2.60045283912,0,0,-0.671082,140.9, 3.3, 4.3,0,0,1024,1024,1024,1024,140.4,-89.9,97,3.77,3.797,3.758,3.795,0,0,20.343,60.8,14,Waypoint,
36.686986,-118.9584802,5073.8187394619,133.202104,0,2.234334061,19100,2018-04-13 21:27:01,18,0,22.691,5073.8187394619,133.202104,0.671082,2.60045283912,0,0,-0.671082,140.8, 3.4, 4.7,0,0,1024,1024,1024,1024,140.4,-89.9,97,3.77,3.797,3.758,3.795,0,0,20.343,60.8,14,Waypoint,
36.686986,-118.9584801,5074.8029914619,134.186356,0,2.263451516,19200,2018-04-13 21:27:01,18,0,22.691,5074.8029914619,134.186356,0.671082,2.60045283912,0,0,-0.671082,140.7, 3.4, 5,0,0,1024,1024,1024,1024,140.4,-89.9,97,3.77,3.797,3.758,3.795,0,0,20.343,60.8,14,Waypoint,
36.686986,-118.95848,5075.7872434619,135.170608,0,2.29257553268,19300,2018-04-13 21:27:02,18,0,22.691,5075.7872434619,135.170608,0.671082,2.60045283912,0,0,-0.671082,140.6, 3.5, 5.2,0,0,1024,1024,1024,1024,140.4,-89.9,97,3.77,3.797,3.758,3.795,0,0,20.343,60.8,14,Waypoint,
36.686986,-118.9584799,5077.4276634619,136.811028,0,2.32169954936,19500,2018-04-13 21:27:02,18,0,22.691,5077.4276634619,136.811028,0.671082,2.60045283912,0,0,-0.671082,140.8, 3.6, 5.1,0,0,1024,1024,1024,1024,140.4,-89.9,97,3.77,3.797,3.758,3.795,0,0,20.343,60.8,14,Waypoint,
36.6869861,-118.9584798,5078.4119154619,137.79528,0,2.34771332972,19700,2018-04-13 21:27:02,18,0,22.691,5078.4119154619,137.79528,0.671082,2.60045283912,0,0,-0.671082,141.1, 3.7, 5.3,0,0,1024,1024,1024,1024,140.4,-89.9,97,3.77,3.797,3.758,3.795,0,0,20.343,60.8,14,Waypoint,
36.6869861,-118.9584797,5079.3961674619,138.779532,0,2.37688327816,19800,2018-04-13 21:27:02,18,0,22.691,5079.3961674619,138.779532,0.671082,2.60045283912,0,0,-0.671082,141.3, 3.8, 5.4,0,0,1024,1024,1024,1024,140.4,-89.9,97,3.77,3.797,3.758,3.795,0,0,20.343,60.8,14,Waypoint,
36.6869861,-118.9584797,5080.3804194619,139.763784,0,2.37688327816,20000,2018-04-13 21:27:02,18,0,22.75,5080.3804194619,139.763784,0.671082,2.60045283912,0,0,-0.671082,141.4, 3.8, 5.3,0,0,1024,1024,1024,1024,140.4,-89.9,97,3.762,3.787,3.769,3.794,0,0,19.428,60.8,14,Waypoint,
36.6869861,-118.9584796,5081.3646714619,140.748036,0,2.40605650744,20100,2018-04-13 21:27:02,18,0,22.75,5081.3646714619,140.748036,0.671082,2.60045283912,0,0,-0.671082,141.4, 3.6, 5,0,0,1024,1024,1024,1024,140.4,-89.9,97,3.762,3.787,3.769,3.794,0,0,19.428,60.8,14,Waypoint,
36.6869861,-118.9584796,5082.3489234619,141.732288,0,2.40605650744,20200,2018-04-13 21:27:02,18,0,22.75,5082.3489234619,141.732288,0.671082,2.60045283912,0,0,-0.671082,141.4, 3.3, 4.9,0,0,1024,1024,1024,1024,140.4,-89.9,97,3.762,3.787,3.769,3.794,0,0,19.428,60.8,14,Waypoint,
36.6869862,-118.9584796,5084.6455114619,144.028876,0,2.40356634988,20300,2018-04-13 21:27:03,18,0,22.75,5084.6455114619,144.028876,0.671082,2.60045283912,0,0,-0.671082,141.6, 3.2, 5.1,0,0,1024,1024,1024,1024,140.4,-89.9,97,3.762,3.787,3.769,3.794,0,0,19.428,60.8,14,Waypoint,
36.6869862,-118.9584795,5085.6297634619,145.013128,0,2.43276910672,20500,2018-04-13 21:27:03,18,0,22.75,5085.6297634619,145.013128,0.671082,2.60045283912,0,0,-0.671082,141.5, 3.3, 5.5,0,0,1024,1024,1024,1024,140.4,-89.9,97,3.762,3.787,3.769,3.794,0,0,19.428,60.8,14,Waypoint,
36.6869863,-118.9584795,5087.5982674619,146.981632,0,2.43085309616,20700,2018-04-13 21:27:03,18,0,22.75,5087.5982674619,146.981632,0.671082,2.60045283912,0,0,-0.671082,140.8, 3.1, 6,0,0,1024,1024,1024,1024,140.4,-89.9,97,3.762,3.787,3.769,3.794,0,0,19.428,60.8,14,Waypoint,
36.6869864,-118.9584795,5088.5825194619,147.965884,0,2.42948498588,20800,2018-04-13 21:27:03,18,0,22.75,5088.5825194619,147.965884,0.671082,2.60045283912,0,0,-0.671082,140.5, 2.8, 6.1,0,0,1024,1024,1024,1024,140.4,-90,97,3.762,3.787,3.769,3.794,0,0,19.428,60.8,14,Waypoint,
36.6869864,-118.9584794,5089.5667714619,148.950136,0,2.45873039364,20900,2018-04-13 21:27:03,18,0,22.75,5089.5667714619,148.950136,0.671082,2.60045283912,0,0,-0.671082,140.4, 2.6, 5.9,0,0,1024,1024,1024,1024,140.4,-90,97,3.762,3.787,3.769,3.794,0,0,19.428,60.8,14,Waypoint,
36.6869865,-118.9584794,5090.5510234619,149.934388,0,2.45791674532,21000,2018-04-13 21:27:03,18,0,22.692,5090.5510234619,149.934388,0.671082,2.60045283912,0,0,-0.671082,140.3, 2.5, 5.7,0,0,1024,1024,1024,1024,140.4,-90,97,3.776,3.799,3.762,3.809,0,0,19.288,60.8,14,Waypoint,
36.6869865,-118.9584794,5091.5352754619,150.91864,0,2.45791674532,21100,2018-04-13 21:27:03,18,0,22.692,5091.5352754619,150.91864,0.671082,2.60045283912,0,0,-0.671082,140.2, 2.7, 5.7,0,0,1024,1024,1024,1024,140.4,-90,97,3.776,3.799,3.762,3.809,0,0,19.288,60.8,14,Waypoint,
36.6869865,-118.9584793,5092.5195274619,151.902892,0,2.4871719956,21200,2018-04-13 21:27:03,18,0,22.692,5092.5195274619,151.902892,0.671082,2.60045283912,0,0,-0.671082,140.3, 3, 5.7,0,0,1024,1024,1024,1024,140.4,-89.9,97,3.776,3.799,3.762,3.809,0,0,19.288,60.8,14,Waypoint,
36.6869864,-118.9584792,5094.1599474619,153.543312,0,2.51721792832,21400,2018-04-13 21:27:04,18,0,22.692,5094.1599474619,153.543312,0.671082,2.60045283912,0,0,-0.671082,140.5, 3.8, 5.8,0,0,1024,1024,1024,1024,140.4,-89.9,97,3.776,3.799,3.762,3.809,0,0,19.288,60.8,14,Waypoint,
36.6869864,-118.9584792,5095.1441994619,154.527564,0,2.51721792832,21500,2018-04-13 21:27:04,18,0,22.692,5095.1441994619,154.527564,0.671082,2.60045283912,0,0,-0.671082,140.6, 4.1, 5.7,0,0,1024,1024,1024,1024,140.4,-89.9,97,3.776,3.799,3.762,3.809,0,0,19.288,60.8,14,Waypoint,
36.6869864,-118.9584792,5096.1284514619,155.511816,0,2.51721792832,21610,2018-04-13 21:27:04,18,0,22.692,5096.1284514619,155.511816,0.671082,2.60045283912,0,0,-0.671082,140.8, 4.2, 6.2,0,0,1024,1024,1024,1024,140.4,-89.9,97,3.776,3.799,3.762,3.809,0,0,19.288,60.8,14,Waypoint,
36.6869863,-118.9584792,5097.1127034619,156.496068,0,2.51854010684,21710,2018-04-13 21:27:04,18,0,22.692,5097.1127034619,156.496068,0.671082,2.60045283912,0,0,-0.671082,140.9, 4.2, 6.1,0,0,1024,1024,1024,1024,140.4,-89.9,97,3.776,3.799,3.762,3.809,0,0,19.288,60.8,14,Waypoint,
36.6869863,-118.9584792,5098.0969554619,157.48032,0,2.51854010684,21810,2018-04-13 21:27:04,18,0,22.692,5098.0969554619,157.48032,0.671082,2.60045283912,0,0,-0.671082,141.1, 4.1, 5.5,0,0,1024,1024,1024,1024,140.4,-89.9,97,3.776,3.799,3.762,3.809,0,0,19.288,60.8,14,Waypoint,
36.6869863,-118.9584792,5099.0812074619,158.464572,0,2.51854010684,22010,2018-04-13 21:27:04,18,0,22.693,5099.0812074619,158.464572,0.671082,2.60045283912,0,0,-0.671082,141.1, 3.7, 4.6,0,0,1024,1024,1024,1024,140.4,-89.9,97,3.779,3.787,3.749,3.792,0,0,19.541,60.8,14,Waypoint,
36.6869862,-118.9584793,5101.0497114619,160.433076,0,2.49118118208,22100,2018-04-13 21:27:04,18,0,22.693,5101.0497114619,160.433076,0.671082,2.60045283912,0,0,-0.671082,141.2, 3.7, 4.6,0,0,1024,1024,1024,1024,140.4,-89.9,97,3.779,3.787,3.749,3.792,0,0,19.541,60.8,14,Waypoint,
36.6869862,-118.9584794,5102.0339634619,161.417328,0,2.4619751444,22200,2018-04-13 21:27:04,18,0,22.693,5102.0339634619,161.417328,0.671082,2.60045283912,0,0,-0.671082,141.1, 3.6, 4.9,0,0,1024,1024,1024,1024,140.4,-90,97,3.779,3.787,3.749,3.792,0,0,19.541,60.8,14,Waypoint,
36.6869861,-118.9584795,5104.0024674619,163.385832,0.223694,2.43522973672,22300,2018-04-13 21:27:05,18,0,22.693,5104.0024674619,163.385832,0.671082,2.60045283912,0,0,-0.671082,140.9, 2.9, 4.6,0,0,1024,1024,1024,1024,140.4,-89.9,97,3.779,3.787,3.749,3.792,0,0,19.541,60.8,14,Waypoint,
36.6869861,-118.9584797,5104.6586354619,164.042,0.223694,2.37688327816,22400,2018-04-13 21:27:05,18,0,22.693,5104.6586354619,164.042,0.671082,2.60045283912,0,0,-0.671082,140.9, 3.3, 4.8,0,0,1024,1024,1024,1024,140.4,-89.9,97,3.779,3.787,3.749,3.792,0,0,19.541,60.8,14,Waypoint,
36.686986,-118.9584799,5106.6271394619,166.010504,0.223694,2.32169954936,22500,2018-04-13 21:27:05,18,0,22.693,5106.6271394619,166.010504,0.671082,2.60045283912,0,0,-0.671082,140.6, 3.5, 2.9,0,0,1024,1024,1024,1024,140.4,-89.9,97,3.779,3.787,3.749,3.792,0,0,19.541,60.8,14,Waypoint,
36.6869858,-118.9584802,5108.5956434619,167.979008,0.223694,2.24266083292,22700,2018-04-13 21:27:05,18,0,22.693,5108.5956434619,167.979008,0.671082,2.60045283912,0,0,-0.671082,140.4, 3.2, 2.6,0,0,1024,1024,1024,1024,140.4,-90,97,3.779,3.787,3.749,3.792,0,0,19.541,60.8,14,Waypoint,
36.6869858,-118.9584803,5109.2518114619,168.635176,0,2.21365492648,22800,2018-04-13 21:27:05,18,0,22.693,5109.2518114619,168.635176,0.671082,2.60045283912,0,0,-0.671082,140.4, 3.2, 2.7,0,0,1024,1024,1024,1024,140.4,-89.9,97,3.779,3.787,3.749,3.792,0,0,19.541,60.8,14,Waypoint,
36.6869857,-118.9584804,5110.2360634619,169.619428,0,2.1898294664,22900,2018-04-13 21:27:05,18,0,22.693,5110.2360634619,169.619428,0.671082,2.60045283912,0,0,-0.671082,140.6, 3.2, 3,0,0,1024,1024,1024,1024,140.4,-89.9,97,3.779,3.787,3.749,3.792,0,0,19.541,60.8,14,Waypoint,
36.6869857,-118.9584805,5111.2203154619,170.60368,0,2.16090558096,23000,2018-04-13 21:27:05,18,0,22.697,5111.2203154619,170.60368,0.671082,2.60045283912,0,0,-0.671082,140.8, 3.5, 3,0,0,1024,1024,1024,1024,140.4,-89.9,97,3.772,3.796,3.747,3.799,0,0,19.042,60.8,14,Waypoint,
36.6869857,-118.9584806,5112.2045674619,171.587932,0,2.13199153804,23100,2018-04-13 21:27:05,18,0,22.697,5112.2045674619,171.587932,0.671082,2.60045283912,0,0,-0.671082,140.8, 3.4, 3,0,0,1024,1024,1024,1024,140.4,-89.9,97,3.772,3.796,3.747,3.799,0,0,19.042,60.8,14,Waypoint,
36.6869856,-118.9584807,5113.1888194619,172.572184,0,2.10909455568,23200,2018-04-13 21:27:05,18,0,22.697,5113.1888194619,172.572184,0.671082,2.60045283912,0,0,-0.671082,140.8, 3.4, 3,0,0,1024,1024,1024,1024,140.4,-89.9,97,3.772,3.796,3.747,3.799,0,0,19.042,60.8,14,Waypoint,
36.6869856,-118.9584809,5114.1730714619,173.556436,0.223694,2.05148628612,23300,2018-04-13 21:27:06,18,0,22.697,5114.1730714619,173.556436,0.671082,2.60045283912,0,0,-0.671082,140.7, 3.3, 2.7,0,0,1024,1024,1024,1024,140.4,-90,97,3.772,3.796,3.747,3.799,0,0,19.042,60.8,14,Waypoint,
36.6869856,-118.958481,5115.4854074619,174.868772,0,2.02270019596,23400,2018-04-13 21:27:06,18,0,22.697,5115.4854074619,174.868772,0.671082,2.60045283912,0,0,-0.671082,140.7, 3.2, 2.4,0,0,1024,1024,1024,1024,140.4,-90,97,3.772,3.796,3.747,3.799,0,0,19.042,60.8,14,Waypoint,
36.6869855,-118.9584811,5116.4696594619,175.853024,0,2.00092854172,23500,2018-04-13 21:27:06,18,0,22.697,5116.4696594619,175.853024,0.671082,2.60045283912,0,0,-0.671082,140.7, 3, 2.4,0,0,1024,1024,1024,1024,140.4,-90,97,3.772,3.796,3.747,3.799,0,0,19.042,60.8,14,Waypoint,
36.6869855,-118.9584812,5117.4539114619,176.837276,0,1.97227368516,23600,2018-04-13 21:27:06,18,0,22.697,5117.4539114619,176.837276,0.671082,2.60045283912,0,0,-0.671082,140.7, 2.9, 2.6,0,0,1024,1024,1024,1024,140.4,-90,97,3.772,3.796,3.747,3.799,0,0,19.042,60.8,14,Waypoint,
36.6869855,-118.9584814,5118.4381634619,177.821528,0,1.91501974632,23700,2018-04-13 21:27:06,18,0,22.697,5118.4381634619,177.821528,0.671082,2.60045283912,0,0,-0.671082,140.7, 2.5, 2.5,0,0,1024,1024,1024,1024,140.4,-90,97,3.772,3.796,3.747,3.799,0,0,19.042,60.8,14,Waypoint,
36.6869855,-118.9584815,5119.4224154619,178.80578,0.223694,1.88642066404,23800,2018-04-13 21:27:06,18,0,22.697,5119.4224154619,178.80578,0.671082,2.60045283912,0,0,-0.671082,140.5, 2.4, 2.2,0,0,1024,1024,1024,1024,140.4,-90,97,3.772,3.796,3.747,3.799,0,0,19.042,60.8,14,Waypoint,
36.6869854,-118.9584817,5120.4066674619,179.790032,0.223694,1.83763785408,23900,2018-04-13 21:27:06,18,0,22.697,5120.4066674619,179.790032,0.671082,2.60045283912,0,0,-0.671082,140.3, 2.5, 2.1,0,0,1024,1024,1024,1024,140.4,-90,97,3.772,3.796,3.747,3.799,0,0,19.042,60.8,14,Waypoint,
36.6869854,-118.9584819,5121.7190034619,181.102368,0.223694,1.78085963704,24000,2018-04-13 21:27:06,18,0,22.657,5121.7190034619,181.102368,0.671082,2.60045283912,0,0,-0.671082,140.3, 2.4, 1.7,0,0,1024,1024,1024,1024,140.4,-90,97,3.764,3.775,3.742,3.781,0,0,19.578,62.6,14,Waypoint,
36.6869854,-118.958482,5122.7032554619,182.08662,0.223694,1.75251646028,24100,2018-04-13 21:27:06,18,0,22.657,5122.7032554619,182.08662,0.671082,2.60045283912,0,0,-0.671082,140.4, 2.2, 1.3,0,0,1024,1024,1024,1024,140.4,-90,97,3.764,3.775,3.742,3.781,0,0,19.578,62.6,14,Waypoint,
36.6869854,-118.9584822,5123.6875074619,183.070872,0,1.69591868944,24200,2018-04-13 21:27:06,18,0,22.657,5123.6875074619,183.070872,0.671082,2.60045283912,0,0,-0.671082,140.6, 2.3, 1.4,0,0,1024,1024,1024,1024,140.4,-90,97,3.764,3.775,3.742,3.781,0,0,19.578,62.6,14,Waypoint,
36.6869854,-118.9584823,5124.6717594619,184.055124,0,1.66767065704,24300,2018-04-13 21:27:07,18,0,22.657,5124.6717594619,184.055124,0.671082,2.60045283912,0,0,-0.671082,140.8, 2.3, 1.7,0,0,1024,1024,1024,1024,140.4,-90,97,3.764,3.775,3.742,3.781,0,0,19.578,62.6,14,Waypoint,
36.6869854,-118.9584823,5125.6560114619,185.039376,0,1.66767065704,24400,2018-04-13 21:27:07,18,0,22.657,5125.6560114619,185.039376,0.671082,2.60045283912,0,0,-0.671082,140.9, 2.3, 2.1,0,0,1024,1024,1024,1024,140.4,-90,97,3.764,3.775,3.742,3.781,0,0,19.578,62.6,14,Waypoint,
36.6869854,-118.9584824,5126.9683474619,186.351712,0,1.63945543304,24500,2018-04-13 21:27:07,18,0,22.657,5126.9683474619,186.351712,0.671082,2.60045283912,0,0,-0.671082,141, 2.3, 2.3,0,0,1024,1024,1024,1024,140.4,-90,97,3.764,3.775,3.742,3.781,0,0,19.578,62.6,14,Waypoint,
36.6869854,-118.9584824,5128.9368514619,188.320216,0,1.63945543304,24720,2018-04-13 21:27:07,18,0,22.657,5128.9368514619,188.320216,0.671082,2.60045283912,0,0,-0.671082,141.1, 2.3, 2.5,0,0,1024,1024,1024,1024,140.4,-90,97,3.764,3.775,3.742,3.781,0,0,19.578,62.6,14,Waypoint,
36.6869854,-118.9584824,5128.9368514619,188.320216,0,1.63945543304,24800,2018-04-13 21:27:07,18,0,22.657,5128.9368514619,188.320216,0.671082,2.60045283912,0,0,-0.671082,141.1, 2.3, 2.5,0,0,1024,1024,1024,1024,140.4,-90,97,3.764,3.775,3.742,3.781,0,0,19.578,62.6,14,Waypoint,
36.6869854,-118.9584824,5130.9053554619,190.28872,0,1.63945543304,24900,2018-04-13 21:27:07,18,0,22.657,5130.9053554619,190.28872,0.671082,2.60045283912,0,0,-0.671082,140.9, 2.5, 2.4,0,0,1024,1024,1024,1024,140.4,-89.9,97,3.764,3.775,3.742,3.781,0,0,19.578,62.6,14,Waypoint,
36.6869854,-118.9584824,5132.8738594619,192.257224,0,1.63945543304,25100,2018-04-13 21:27:07,18,0,22.657,5132.8738594619,192.257224,0.671082,2.60045283912,0,0,-0.671082,140.6, 2.8, 2.5,0,0,1024,1024,1024,1024,140.4,-90,97,3.764,3.775,3.742,3.781,0,0,19.578,62.6,14,Waypoint,
36.6869854,-118.9584823,5133.8581114619,193.241476,0,1.66767065704,25200,2018-04-13 21:27:07,18,0,22.657,5133.8581114619,193.241476,0.671082,2.60045283912,0,0,-0.671082,140.4, 2.6, 2.5,0,0,1024,1024,1024,1024,140.4,-90,97,3.764,3.775,3.742,3.781,0,0,19.578,62.6,14,Waypoint,
36.6869854,-118.9584823,5135.8266154619,195.20998,0,1.66767065704,25400,2018-04-13 21:27:08,18,0,22.657,5135.8266154619,195.20998,0.671082,2.60045283912,0,0,-0.671082,140.3, 2.4, 2.4,0,0,1024,1024,1024,1024,140.4,-89.9,97,3.764,3.775,3.742,3.781,0,0,19.578,62.6,14,Waypoint,
36.6869855,-118.9584822,5136.8108674619,196.194232,0,1.68686685188,25500,2018-04-13 21:27:08,18,0,22.657,5136.8108674619,196.194232,0.671082,2.60045283912,0,0,-0.671082,140.4, 2.5, 2.7,0,0,1024,1024,1024,1024,140.4,-89.9,97,3.764,3.775,3.742,3.781,0,0,19.578,62.6,14,Waypoint,
36.6869855,-118.9584821,5137.7951194619,197.178484,0,1.71529861132,25600,2018-04-13 21:27:08,18,0,22.657,5137.7951194619,197.178484,0.671082,2.60045283912,0,0,-0.671082,140.6, 2.8, 3.7,0,0,1024,1024,1024,1024,140.4,-89.9,97,3.764,3.775,3.742,3.781,0,0,19.578,62.6,14,Waypoint,
36.6869855,-118.9584819,5138.4512874619,197.834652,0,1.7722441512,25700,2018-04-13 21:27:08,18,0,22.657,5138.4512874619,197.834652,0.671082,2.60045283912,0,0,-0.671082,140.7, 3, 4.1,0,0,1024,1024,1024,1024,140.4,-89.9,97,3.764,3.775,3.742,3.781,0,0,19.578,62.6,14,Waypoint,
36.6869856,-118.9584818,5139.7636234619,199.146988,0,1.79297577916,25800,2018-04-13 21:27:08,18,0,22.657,5139.7636234619,199.146988,0.671082,2.60045283912,0,0,-0.671082,140.7, 3, 4,0,0,1024,1024,1024,1024,140.4,-89.9,97,3.764,3.775,3.742,3.781,0,0,19.578,62.6,14,Waypoint,
36.6869856,-118.9584816,5141.7321274619,201.115492,0,1.85030517732,26000,2018-04-13 21:27:08,18,0,22.33,5141.7321274619,201.115492,0.671082,2.60045283912,0,0,-0.671082,140.7, 3, 3.8,0,0,1024,1024,1024,1024,140.4,-90,97,3.709,3.726,3.697,3.745,0,0,21.389,62.6,14,Waypoint,
36.6869856,-118.9584816,5142.7163794619,202.099744,0,1.85030517732,26100,2018-04-13 21:27:08,18,0,22.33,5142.7163794619,202.099744,0.671082,2.60045283912,0,0,-0.671082,140.7, 2.9, 3.5,0,0,1024,1024,1024,1024,140.4,-89.9,97,3.709,3.726,3.697,3.745,0,0,21.389,62.6,14,Waypoint,
36.6869856,-118.9584815,5143.7006314619,203.083996,0,1.87899612312,26200,2018-04-13 21:27:08,18,0,22.33,5143.7006314619,203.083996,0.671082,2.60045283912,0,0,-0.671082,140.8, 2.9, 3.5,0,0,1024,1024,1024,1024,140.4,-90,97,3.709,3.726,3.697,3.745,0,0,21.389,62.6,14,Waypoint,
36.6869856,-118.9584815,5144.6848834619,204.068248,0,1.87899612312,26300,2018-04-13 21:27:09,18,0,22.33,5144.6848834619,204.068248,0.671082,2.60045283912,0,0,-0.671082,140.8, 2.8, 3.2,0,0,1024,1024,1024,1024,140.4,-89.9,97,3.709,3.726,3.697,3.745,0,0,21.389,62.6,14,Waypoint,
36.6869856,-118.9584815,5146.3253034619,205.708668,0,1.87899612312,26500,2018-04-13 21:27:09,18,0,22.33,5146.3253034619,205.708668,0.671082,2.60045283912,0,0,-0.671082,140.8, 3, 2.8,0,0,1024,1024,1024,1024,140.4,-89.9,97,3.709,3.726,3.697,3.745,0,0,21.389,62.6,14,Waypoint,
36.6869856,-118.9584815,5147.3095554619,206.69292,0,1.87899612312,26600,2018-04-13 21:27:09,18,0,22.33,5147.3095554619,206.69292,0.671082,2.60045283912,0,0,-0.671082,140.9, 3.1, 3.2,0,0,1024,1024,1024,1024,140.4,-89.9,97,3.709,3.726,3.697,3.745,0,0,21.389,62.6,14,Waypoint,
36.6869856,-118.9584814,5148.2938074619,207.677172,0,1.90770675396,26700,2018-04-13 21:27:09,18,0,22.33,5148.2938074619,207.677172,0.671082,2.60045283912,0,0,-0.671082,140.9, 3.1, 3.2,0,0,1024,1024,1024,1024,140.4,-89.9,97,3.709,3.726,3.697,3.745,0,0,21.389,62.6,14,Waypoint,
36.6869856,-118.9584814,5149.2780594619,208.661424,0,1.90770675396,26900,2018-04-13 21:27:09,18,0,22.33,5149.2780594619,208.661424,0.671082,2.60045283912,0,0,-0.671082,140.9, 3.2, 3.2,0,0,1024,1024,1024,1024,140.4,-89.9,97,3.709,3.726,3.697,3.745,0,0,21.389,62.6,14,Waypoint,
36.6869856,-118.9584813,5150.2623114619,209.645676,0,1.93643050816,27000,2018-04-13 21:27:09,18,0,22.235,5150.2623114619,209.645676,0.671082,2.60045283912,0,0,-0.671082,140.9, 3.1, 3.3,0,0,1024,1024,1024,1024,140.4,-89.9,97,3.683,3.703,3.682,3.73,0,0,22.125,62.6,14,Waypoint,
36.6869857,-118.9584812,5152.2308154619,211.61418,0,1.9587270968,27100,2018-04-13 21:27:09,18,0,22.235,5152.2308154619,211.61418,0.671082,2.60045283912,0,0,-0.671082,140.8, 2.9, 3.6,0,0,1024,1024,1024,1024,140.4,-89.9,97,3.683,3.703,3.682,3.73,0,0,22.125,62.6,14,Waypoint,
36.6869858,-118.9584812,5154.8554874619,214.238852,0,1.95294297588,27400,2018-04-13 21:27:10,18,0,22.235,5154.8554874619,214.238852,0.671082,2.60045283912,0,0,-0.671082,140.8, 2.8, 3.6,0,0,1024,1024,1024,1024,140.4,-89.9,97,3.683,3.703,3.682,3.73,0,0,22.125,62.6,14,Waypoint,
36.6869858,-118.9584811,5155.8397394619,215.223104,0,1.98187670384,27500,2018-04-13 21:27:10,18,0,22.235,5155.8397394619,215.223104,0.671082,2.60045283912,0,0,-0.671082,140.8, 2.6, 3.6,0,0,1024,1024,1024,1024,140.4,-89.9,97,3.683,3.703,3.682,3.73,0,0,22.125,62.6,14,Waypoint,
36.6869858,-118.9584811,5156.8239914619,216.207356,0,1.98187670384,27600,2018-04-13 21:27:10,18,0,22.235,5156.8239914619,216.207356,0.671082,2.60045283912,0,0,-0.671082,140.8, 2.3, 3.6,0,0,1024,1024,1024,1024,140.4,-90,97,3.683,3.703,3.682,3.73,0,0,22.125,62.6,14,Waypoint,
36.6869858,-118.9584811,5157.8082434619,217.191608,0,1.98187670384,27700,2018-04-13 21:27:10,18,0,22.235,5157.8082434619,217.191608,0.671082,2.60045283912,0,0,-0.671082,140.8, 2.3, 3.6,0,0,1024,1024,1024,1024,140.4,-90,97,3.683,3.703,3.682,3.73,0,0,22.125,62.6,14,Waypoint,
36.6869858,-118.9584811,5158.7924954619,218.17586,0,1.98187670384,27800,2018-04-13 21:27:10,18,0,22.235,5158.7924954619,218.17586,0.671082,2.60045283912,0,0,-0.671082,140.8, 2.5, 3.7,0,0,1024,1024,1024,1024,140.4,-89.9,97,3.683,3.703,3.682,3.73,0,0,22.125,62.6,14,Waypoint,
36.6869858,-118.9584811,5159.7767474619,219.160112,0,1.98187670384,27900,2018-04-13 21:27:10,18,0,22.235,5159.7767474619,219.160112,0.671082,2.60045283912,0,0,-0.671082,140.9, 2.7, 3.6,0,0,1024,1024,1024,1024,140.4,-89.9,97,3.683,3.703,3.682,3.73,0,0,22.125,62.6,14,Waypoint,
36.6869858,-118.9584811,5161.7452514619,221.128616,0,1.98187670384,28100,2018-04-13 21:27:10,18,0,22.235,5161.7452514619,221.128616,0.671082,2.60045283912,0,0,-0.671082,140.9, 3.2, 3.5,0,0,1024,1024,1024,1024,140.4,-89.9,97,3.683,3.703,3.682,3.73,0,0,22.125,62.6,14,Waypoint,
36.6869858,-118.9584811,5162.7295034619,222.112868,0,1.98187670384,28200,2018-04-13 21:27:10,18,0,22.235,5162.7295034619,222.112868,0.671082,2.60045283912,0,0,-0.671082,140.8, 3.1, 3.3,0,0,1024,1024,1024,1024,140.4,-89.9,97,3.683,3.703,3.682,3.73,0,0,22.125,62.6,14,Waypoint,
36.6869858,-118.9584811,5163.7137554619,223.09712,0,1.98187670384,28300,2018-04-13 21:27:11,18,0,22.235,5163.7137554619,223.09712,0.671082,2.60045283912,0,0,-0.671082,140.7, 3, 3.1,0,0,1024,1024,1024,1024,140.4,-89.9,97,3.683,3.703,3.682,3.73,0,0,22.125,62.6,14,Waypoint,
