Latitude, Longitude, Altitude (m), Time, Sats, Speed (m/s), Range (m), Battery (%), Roll (deg), Pitch (deg), Yaw (deg), Images, HD Signal (%), RC Signal (%), Battery Temp (C), Battery Voltage (mV), Battery Current (mA), Battery Energy (mAh), Battery Capacity (mAh), Battery Discharges, flyState, timestamp (Unix), LastUpdate (ms), radioChannel, Rc_elevator, Rc_aileron, Rc_throttle, Rc_rudder, Rc_gyro, Dronetype, Battery_Cell1 (mV), Battery_Cell2 (mV), Battery_Cell3 (mV), Battery_Cell4 (mV), Battery_Cell5 (mV), Battery_Cell6 (mV), Video, isFlying, elapsedTime (ms), gimbalPitch (deg), gimbalRoll (deg), gimbalYaw (deg), VelocityX (m/s), VelocityY (m/s), VelocityZ (m/s), GroundSmear (cm), App Version, Aircraft Name, Aircraft Firmware, Aircraft Serial Number, Battery Serial Number, Battery Lifetime (%), App_Tip, App_Warning, CurrentFlightStartingIndex, CurrentFlightLastVisitedWaypoint, PreviousFlightEndingWaypointIndex
36.6869634, -118.9584903, 0.000, 15:30:11.024, 15, 0.00, 0.06, 98, -0.500, -1.300, 138.900, 1084, 100, 100, 13, 25324, -3895, 4351, 4440, 4, 11, 1523658611.025, 64, 0, 1024, 1024, 1026, 1024, 0, 6, 4208, 4207, 4197, 4261, 4273, 4222, 0, 1, 3001, -90.000, 0.000, 137.800, 0.000, 0.000, -0.100, 0.0, MapPilot_2.7.4_02272018, Dendroctonus I, 1.3.1.00, 041DDC1887, 9971171300641, 99, DJI_0081.jpg, Starting Mission from Lat/Long: 36.68696/-118.95849 Camera: Zenmuse X3 - Overlap: 90/90 - Active Connection: Yes, 59, 59, 59
36.6869634, -118.9584902, 0.000, 15:30:11.125, 15, 0.10, 0.07, 98, -1.000, -1.300, 139.100, 1084, 100, 100, 13, 25324, -3895, 4351, 4440, 4, 11, 1523658611.125, 70, 0, 1024, 1024, 1026, 1024, 0, 6, 4208, 4207, 4197, 4261, 4273, 4222, 0, 1, 3101, -89.900, 0.000, 137.800, 0.000, 0.100, -0.200, 0.0, , , , , , 99, , , 59, 59, 59
36.6869633, -118.9584897, 0.100, 15:30:11.225, 15, 0.20, 0.10, 98, -0.300, -0.100, 139.400, 1084, 100, 100, 13, 25324, -3895, 4351, 4440, 4, 11, 1523658611.225, 52, 0, 1024, 1024, 1027, 1024, 0, 6, 4208, 4207, 4197, 4261, 4273, 4222, 0, 1, 3201, -89.900, 0.000, 137.800, 0.000, 0.200, -0.400, 0.0, , , , , , 99, , , 59, 59, 59
36.6869633, -118.9584897, 0.100, 15:30:11.324, 15, 0.20, 0.10, 98, -0.300, -0.100, 139.400, 1084, 100, 100, 13, 25122, -5898, 4351, 4440, 4, 11, 1523658611.325, 151, 0, 1024, 1024, 1027, 1024, 0, 6, 4208, 4207, 4197, 4261, 4273, 4222, 0, 1, 3301, -89.900, 0.000, 137.800, 0.000, 0.200, -0.400, 0.0, , , , , , 99, , , 59, 59, 59
36.6869633, -118.9584895, 0.100, 15:30:11.425, 15, 0.20, 0.12, 98, 0.000, 0.600, 139.500, 1084, 100, 100, 13, 25122, -5898, 4351, 4440, 4, 11, 1523658611.425, 62, 0, 1024, 1024, 1026, 1024, 0, 6, 4149, 4147, 4115, 4143, 4140, 4147, 0, 1, 3401, -89.900, 0.000, 137.800, 0.000, 0.200, -0.300, 0.0, , , , , , 99, , , 59, 59, 59
36.6869633, -118.9584889, 0.200, 15:30:11.524, 15, 0.20, 0.18, 98, 1.100, 1.700, 139.300, 1084, 100, 100, 13, 25122, -5898, 4351, 4440, 4, 11, 1523658611.524, 49, 0, 1024, 1024, 1027, 1024, 0, 6, 4149, 4147, 4115, 4143, 4140, 4147, 0, 1, 3500, -89.900, 0.000, 137.800, 0.000, 0.200, -0.400, 0.0, , , , , , 99, , , 59, 59, 59
36.6869632, -118.9584886, 0.200, 15:30:11.624, 15, 0.20, 0.20, 98, 1.800, 2.100, 139.200, 1084, 100, 100, 13, 25122, -5898, 4351, 4440, 4, 11, 1523658611.625, 55, 0, 1024, 1024, 1026, 1024, 0, 6, 4149, 4147, 4115, 4143, 4140, 4147, 0, 1, 3601, -89.900, 0.000, 137.800, 0.000, 0.200, -0.400, 0.0, , , , , , 99, , , 59, 59, 59
36.6869632, -118.9584882, 0.300, 15:30:11.725, 15, 0.20, 0.23, 98, 2.200, 2.200, 139.000, 1084, 100, 100, 13, 25122, -5898, 4351, 4440, 4, 11, 1523658611.725, 62, 0, 1024, 1024, 1026, 1024, 0, 6, 4149, 4147, 4115, 4143, 4140, 4147, 0, 1, 3701, -89.900, 0.000, 137.800, 0.000, 0.200, -0.400, 0.0, , , , , , 99, , , 59, 59, 59
36.6869632, -118.9584879, 0.300, 15:30:11.825, 15, 0.20, 0.26, 98, 2.300, 2.100, 138.900, 1084, 100, 100, 13, 25122, -5898, 4351, 4440, 4, 11, 1523658611.826, 58, 0, 1024, 1024, 1026, 1024, 0, 6, 4149, 4147, 4115, 4143, 4140, 4147, 0, 1, 3802, -89.900, 0.000, 137.800, 0.000, 0.200, -0.400, 0.0, , , , , , 99, , , 59, 59, 59
36.6869632, -118.9584878, 0.400, 15:30:11.925, 15, 0.10, 0.27, 98, 2.000, 1.900, 138.800, 1084, 100, 100, 13, 25122, -5898, 4351, 4440, 4, 11, 1523658611.925, 24, 0, 1024, 1024, 1026, 1024, 0, 6, 4149, 4147, 4115, 4143, 4140, 4147, 0, 1, 3901, -89.900, 0.000, 137.800, 0.000, 0.100, -0.400, 0.0, , , , , , 99, , , 59, 59, 59
36.6869631, -118.9584876, 0.400, 15:30:12.024, 14, 0.10, 0.29, 98, 1.600, 1.700, 138.700, 1084, 100, 100, 13, 25122, -5898, 4351, 4440, 4, 11, 1523658612.024, 21, 0, 1024, 1024, 1026, 1024, 0, 6, 4149, 4147, 4115, 4143, 4140, 4147, 0, 1, 4000, -89.900, 0.000, 137.800, 0.000, 0.100, -0.400, 0.0, , , , , , 99, , , 59, 59, 59
36.6869631, -118.9584874, 0.500, 15:30:12.125, 14, 0.10, 0.31, 98, 1.400, 1.700, 138.700, 1084, 100, 100, 13, 25122, -5898, 4351, 4440, 4, 11, 1523658612.125, 23, 0, 1024, 1024, 1027, 1024, 0, 6, 4149, 4147, 4115, 4143, 4140, 4147, 0, 1, 4101, -89.900, 0.000, 137.800, 0.000, 0.100, -0.500, 0.0, , , , , , 99, , , 59, 59, 59
36.6869631, -118.9584872, 0.500, 15:30:12.225, 14, 0.10, 0.32, 98, 1.100, 1.400, 138.600, 1084, 100, 100, 13, 25122, -5898, 4351, 4440, 4, 11, 1523658612.226, 25, 0, 1024, 1024, 1027, 1024, 0, 6, 4149, 4147, 4115, 4143, 4140, 4147, 0, 1, 4201, -89.900, 0.000, 137.800, 0.000, 0.100, -0.500, 0.0, , , , , , 99, , , 59, 59, 59
36.6869631, -118.9584872, 0.500, 15:30:12.325, 14, 0.10, 0.32, 98, 1.100, 1.400, 138.600, 1084, 100, 100, 13, 25122, -5898, 4351, 4440, 4, 11, 1523658612.326, 126, 0, 1024, 1024, 1027, 1024, 0, 6, 4149, 4147, 4115, 4143, 4140, 4147, 0, 1, 4302, -89.900, 0.000, 137.800, 0.000, 0.100, -0.500, 0.0, , , , , , 99, , , 59, 59, 59
36.6869631, -118.9584868, 0.600, 15:30:12.425, 14, 0.10, 0.36, 98, 1.100, 1.300, 138.700, 1084, 100, 100, 13, 23938, -15426, 4351, 4440, 4, 11, 1523658612.425, 28, 0, 1024, 1024, 1027, 1024, 0, 6, 3960, 3972, 3975, 3996, 3987, 3975, 0, 1, 4401, -89.900, 0.000, 137.800, 0.000, 0.100, -0.500, 0.0, , , , , , 99, , , 59, 59, 59
36.6869631, -118.9584866, 0.700, 15:30:12.525, 14, 0.10, 0.38, 98, 1.300, 1.300, 138.700, 1084, 100, 100, 13, 23938, -15426, 4351, 4440, 4, 11, 1523658612.526, 6, 0, 1024, 1024, 1027, 1024, 0, 6, 3960, 3972, 3975, 3996, 3987, 3975, 0, 1, 4502, -89.900, 0.000, 137.800, 0.000, 0.100, -0.600, 0.0, , , , , , 99, , , 59, 59, 59
36.6869630, -118.9584864, 0.800, 15:30:12.625, 14, 0.10, 0.40, 98, 1.500, 1.500, 138.800, 1084, 100, 100, 13, 23938, -15426, 4351, 4440, 4, 11, 1523658612.625, 10, 0, 1024, 1024, 1026, 1024, 0, 6, 3960, 3972, 3975, 3996, 3987, 3975, 0, 1, 4601, -89.900, 0.000, 137.800, 0.000, 0.100, -0.500, 0.0, , , , , , 99, , , 59, 59, 59
36.6869630, -118.9584864, 0.800, 15:30:12.725, 14, 0.10, 0.40, 98, 1.500, 1.500, 138.800, 1084, 100, 100, 13, 23938, -15426, 4351, 4440, 4, 11, 1523658612.725, 110, 0, 1024, 1024, 1026, 1024, 0, 6, 3960, 3972, 3975, 3996, 3987, 3975, 0, 1, 4701, -89.900, 0.000, 137.800, 0.000, 0.100, -0.500, 0.0, , , , , , 99, , , 59, 59, 59
36.6869630, -118.9584861, 0.800, 15:30:12.825, 14, 0.10, 0.42, 98, 1.500, 1.700, 138.800, 1084, 100, 100, 13, 23938, -15426, 4351, 4440, 4, 11, 1523658612.825, 87, 0, 1024, 1024, 1026, 1024, 0, 6, 3960, 3972, 3975, 3996, 3987, 3975, 0, 1, 4801, -89.900, 0.000, 137.800, 0.000, 0.100, -0.400, 0.0, , , , , , 99, , , 59, 59, 59
36.6869630, -118.9584859, 0.900, 15:30:12.925, 14, 0.10, 0.44, 98, 1.800, 2.000, 138.900, 1084, 100, 100, 13, 23938, -15426, 4351, 4440, 4, 6, 1523658612.925, 89, 0, 1024, 1024, 1026, 1024, 0, 6, 3960, 3972, 3975, 3996, 3987, 3975, 0, 1, 4901, -89.900, 0.000, 137.800, 0.000, 0.100, -0.500, 0.0, , , , , , 99, , , 59, 59, 59
36.6869631, -118.9584857, 0.900, 15:30:13.024, 14, 0.10, 0.46, 98, 2.200, 2.300, 138.900, 1084, 100, 100, 13, 23938, -15426, 4351, 4440, 4, 14, 1523658613.024, 91, 0, 1024, 1024, 1026, 1024, 0, 6, 3960, 3972, 3975, 3996, 3987, 3975, 0, 1, 5000, -89.900, 0.000, 137.800, 0.000, 0.100, -0.400, 0.0, , , , , , 99, , , 59, 59, 59
36.6869632, -118.9584855, 1.000, 15:30:13.125, 14, 0.10, 0.48, 98, 2.100, 2.200, 138.900, 1084, 100, 100, 13, 23938, -15426, 4351, 4440, 4, 14, 1523658613.125, 99, 0, 1024, 1024, 1026, 1024, 0, 6, 3960, 3972, 3975, 3996, 3987, 3975, 0, 1, 5101, -89.900, 0.000, 137.800, 0.000, 0.100, -0.300, 0.0, , , , , , 99, , , 59, 59, 59
36.6869633, -118.9584852, 1.000, 15:30:13.225, 14, 0.10, 0.50, 98, 1.900, 1.900, 139.000, 1084, 100, 100, 13, 23938, -15426, 4351, 4440, 4, 14, 1523658613.225, 88, 0, 1024, 1024, 1026, 1024, 0, 6, 3960, 3972, 3975, 3996, 3987, 3975, 0, 1, 5201, -90.000, 0.000, 137.800, 0.000, 0.100, -0.200, 0.0, , , , , , 99, , , 59, 59, 59
36.6869634, -118.9584850, 1.100, 15:30:13.325, 14, 0.10, 0.52, 98, 1.900, 1.600, 139.100, 1084, 100, 100, 13, 23699, -15887, 4351, 4440, 4, 14, 1523658613.325, 93, 0, 1024, 1024, 1026, 1024, 0, 6, 3960, 3972, 3975, 3996, 3987, 3975, 0, 1, 5301, -90.000, 0.000, 137.800, 0.000, 0.100, -0.200, 0.0, , , , , , 99, , , 59, 59, 59
36.6869634, -118.9584849, 1.100, 15:30:13.425, 14, 0.00, 0.53, 98, 2.000, 1.400, 139.100, 1084, 100, 100, 13, 23699, -15887, 4351, 4440, 4, 14, 1523658613.425, 82, 0, 1024, 1024, 1026, 1024, 0, 6, 3960, 3972, 3975, 3996, 3987, 3975, 0, 1, 5401, -90.000, 0.000, 137.800, 0.000, 0.000, -0.300, 0.0, , , , , , 99, , , 59, 59, 59
36.6869634, -118.9584848, 1.100, 15:30:13.524, 14, 0.00, 0.54, 98, 2.000, 1.400, 139.000, 1084, 100, 100, 13, 23699, -15887, 4351, 4440, 4, 14, 1523658613.524, 71, 0, 1024, 1024, 1027, 1024, 0, 6, 3960, 3972, 3975, 3996, 3987, 3975, 0, 1, 5500, -89.900, 0.000, 137.800, 0.000, 0.000, -0.500, 0.0, , , , , , 99, , , 59, 59, 59
36.6869635, -118.9584846, 1.200, 15:30:13.625, 14, 0.00, 0.56, 98, 2.000, 1.500, 138.900, 1084, 100, 100, 13, 23699, -15887, 4351, 4440, 4, 14, 1523658613.625, 56, 0, 1024, 1024, 1026, 1024, 0, 6, 3960, 3972, 3975, 3996, 3987, 3975, 0, 1, 5601, -89.900, 0.000, 137.800, 0.000, 0.000, -0.600, 0.0, , , , , , 99, , , 59, 59, 59
36.6869635, -118.9584845, 1.300, 15:30:13.725, 14, 0.00, 0.57, 98, 2.000, 1.500, 138.800, 1084, 100, 100, 13, 23699, -15887, 4351, 4440, 4, 14, 1523658613.725, 73, 0, 1024, 1024, 1026, 1024, 0, 6, 3960, 3972, 3975, 3996, 3987, 3975, 0, 1, 5701, -89.900, 0.000, 137.800, 0.000, 0.000, -0.800, 0.0, , , , , , 99, , , 59, 59, 59
36.6869634, -118.9584843, 1.500, 15:30:13.825, 13, 0.00, 0.59, 98, 2.100, 1.400, 138.200, 1084, 100, 100, 13, 23699, -15887, 4351, 4440, 4, 14, 1523658613.826, 38, 0, 1024, 1024, 1026, 1024, 0, 6, 3935, 3953, 3947, 3955, 3964, 3950, 0, 1, 5802, -90.000, 0.000, 137.800, 0.000, 0.000, -1.200, 0.0, , , , , , 99, , , 59, 59, 59
36.6869631, -118.9584843, 1.700, 15:30:13.925, 13, 0.00, 0.58, 98, 1.800, 1.600, 137.800, 1084, 100, 100, 13, 23699, -15887, 4351, 4440, 4, 14, 1523658613.925, 56, 0, 1024, 1024, 1026, 1024, 0, 6, 3935, 3953, 3947, 3955, 3964, 3950, 0, 1, 5901, -89.900, 0.000, 137.800, 0.000, 0.000, -1.400, 0.0, , , , , , 99, , , 59, 59, 59
36.6869629, -118.9584843, 1.800, 15:30:14.024, 14, 0.10, 0.58, 98, 1.200, 1.800, 137.600, 1084, 100, 100, 13, 23699, -15887, 4351, 4440, 4, 14, 1523658614.024, 56, 0, 1024, 1024, 1026, 1024, 0, 6, 3935, 3953, 3947, 3955, 3964, 3950, 0, 1, 6000, -89.900, 0.000, 137.800, -0.100, 0.000, -1.600, 0.0, , , , , , 99, , , 59, 59, 59
36.6869629, -118.9584842, 2.000, 15:30:14.125, 14, 0.00, 0.59, 98, 0.600, 2.100, 137.600, 1084, 100, 100, 13, 23699, -15887, 4351, 4440, 4, 14, 1523658614.126, 62, 0, 1024, 1024, 1026, 1024, 0, 6, 3935, 3953, 3947, 3955, 3964, 3950, 0, 1, 6102, -89.900, 0.000, 137.800, 0.000, 0.000, -1.800, 0.0, , , , , , 99, , , 59, 59, 59
36.6869629, -118.9584841, 2.200, 15:30:14.225, 13, 0.00, 0.60, 98, 0.400, 2.000, 137.700, 1084, 100, 100, 13, 23699, -15887, 4351, 4440, 4, 14, 1523658614.225, 49, 0, 1024, 1024, 1026, 1024, 0, 6, 3935, 3953, 3947, 3955, 3964, 3950, 0, 1, 6201, -89.900, 0.000, 137.800, 0.000, 0.000, -2.100, 0.0, , , , , , 99, , , 59, 59, 59
36.6869628, -118.9584840, 2.400, 15:30:14.325, 13, 0.00, 0.61, 98, 0.500, 1.900, 137.900, 1084, 100, 100, 13, 23699, -15887, 4351, 4440, 4, 14, 1523658614.326, 49, 0, 1024, 1024, 1026, 1024, 0, 6, 3935, 3953, 3947, 3955, 3964, 3950, 0, 1, 6302, -89.900, 0.000, 137.800, 0.000, 0.000, -2.200, 0.0, , , , , , 99, , , 59, 59, 59
36.6869629, -118.9584838, 2.600, 15:30:14.431, 14, 0.00, 0.63, 98, 0.700, 2.000, 138.200, 1084, 100, 100, 13, 23699, -15887, 4351, 4440, 4, 14, 1523658614.431, 6, 0, 1024, 1024, 1026, 1024, 0, 6, 3935, 3953, 3947, 3955, 3964, 3950, 0, 1, 6407, -89.900, 0.000, 137.800, 0.000, 0.000, -2.500, 0.0, , , , , , 99, , , 59, 59, 59
36.6869629, -118.9584836, 2.900, 15:30:14.524, 14, 0.00, 0.64, 98, 1.000, 2.200, 138.400, 1084, 100, 100, 13, 23699, -15887, 4351, 4440, 4, 14, 1523658614.524, 19, 0, 1024, 1024, 1026, 1024, 0, 6, 3935, 3953, 3947, 3955, 3964, 3950, 0, 1, 6500, -89.900, 0.000, 137.800, 0.000, 0.000, -2.800, 0.0, , , , , , 99, , , 59, 59, 59
36.6869630, -118.9584834, 3.200, 15:30:14.624, 15, 0.00, 0.66, 98, 1.600, 2.400, 138.600, 1084, 100, 100, 13, 23699, -15887, 4351, 4440, 4, 14, 1523658614.625, 33, 0, 1024, 1024, 1026, 1024, 0, 6, 3935, 3953, 3947, 3955, 3964, 3950, 0, 1, 6601, -89.900, 0.000, 137.800, 0.000, 0.000, -3.000, 0.0, , , , , , 99, , , 59, 59, 59
36.6869631, -118.9584832, 3.600, 15:30:14.725, 15, 0.00, 0.68, 98, 1.900, 2.300, 138.600, 1084, 100, 100, 13, 23699, -15887, 4351, 4440, 4, 14, 1523658614.725, 22, 0, 1024, 1024, 1027, 1024, 0, 6, 3935, 3953, 3947, 3955, 3964, 3950, 0, 1, 6701, -89.900, 0.000, 137.800, 0.000, 0.000, -3.100, 0.0, , , , , , 99, , , 59, 59, 59
36.6869632, -118.9584831, 3.900, 15:30:14.824, 15, 0.00, 0.69, 98, 2.200, 2.400, 138.500, 1084, 100, 100, 13, 23525, -16436, 4351, 4440, 4, 14, 1523658614.825, 19, 0, 1024, 1024, 1026, 1024, 0, 6, 3935, 3953, 3947, 3955, 3964, 3950, 0, 1, 6801, -89.900, 0.000, 137.800, 0.000, 0.000, -3.200, 0.0, , , , , , 99, , , 59, 59, 59
36.6869633, -118.9584829, 4.300, 15:30:14.925, 15, 0.00, 0.71, 98, 2.400, 2.300, 138.400, 1084, 100, 100, 13, 23525, -16436, 4351, 4440, 4, 14, 1523658614.925, 24, 0, 1024, 1024, 1026, 1024, 0, 6, 3910, 3911, 3920, 3921, 3888, 3905, 0, 1, 6901, -90.000, 0.000, 137.800, 0.000, 0.000, -3.200, 0.0, , , , , , 99, , , 59, 59, 59
36.6869633, -118.9584829, 4.300, 15:30:15.024, 15, 0.00, 0.71, 98, 2.400, 2.300, 138.400, 1084, 100, 100, 13, 23525, -16436, 4351, 4440, 4, 14, 1523658615.024, 123, 0, 1024, 1024, 1026, 1024, 0, 6, 3910, 3911, 3920, 3921, 3888, 3905, 0, 1, 7000, -90.000, 0.000, 137.800, 0.000, 0.000, -3.200, 0.0, , , , , , 99, , , 59, 59, 59
36.6869635, -118.9584827, 4.600, 15:30:15.124, 15, 0.00, 0.72, 98, 2.500, 1.700, 138.200, 1084, 100, 100, 13, 23525, -16436, 4351, 4440, 4, 14, 1523658615.124, 86, 0, 1024, 1024, 1026, 1024, 0, 6, 3910, 3911, 3920, 3921, 3888, 3905, 0, 1, 7100, -90.000, 0.000, 137.800, 0.000, 0.000, -3.300, 0.0, , , , , , 99, , , 59, 59, 59
36.6869637, -118.9584826, 5.000, 15:30:15.224, 15, 0.00, 0.74, 98, 2.300, 1.200, 138.200, 1084, 100, 100, 13, 23525, -16436, 4351, 4440, 4, 14, 1523658615.225, 90, 0, 1024, 1024, 1026, 1024, 0, 6, 3910, 3911, 3920, 3921, 3888, 3905, 0, 1, 7201, -89.900, 0.000, 137.800, 0.000, 0.000, -3.200, 0.0, , , , , , 99, , , 59, 59, 59
36.6869638, -118.9584824, 5.300, 15:30:15.324, 15, 0.00, 0.75, 98, 2.600, 1.000, 138.300, 1084, 100, 100, 13, 23525, -16436, 4351, 4440, 4, 14, 1523658615.325, 92, 0, 1024, 1024, 1026, 1024, 0, 6, 3910, 3911, 3920, 3921, 3888, 3905, 0, 1, 7301, -89.900, 0.000, 137.800, 0.000, 0.000, -3.100, 0.0, , , , , , 99, , , 59, 59, 59
36.6869638, -118.9584824, 5.600, 15:30:15.424, 15, 0.00, 0.75, 98, 3.000, 1.000, 138.500, 1084, 100, 100, 13, 23525, -16436, 4351, 4440, 4, 14, 1523658615.425, 91, 0, 1024, 1024, 1026, 1024, 0, 6, 3910, 3911, 3920, 3921, 3888, 3905, 0, 1, 7401, -89.900, 0.000, 137.800, 0.000, 0.000, -3.100, 0.0, , , , , , 99, , , 59, 59, 59
36.6869637, -118.9584825, 6.000, 15:30:15.524, 15, 0.00, 0.75, 98, 2.600, 1.100, 138.500, 1084, 100, 100, 13, 23525, -16436, 4351, 4440, 4, 14, 1523658615.525, 77, 0, 1024, 1024, 1026, 1024, 0, 6, 3910, 3911, 3920, 3921, 3888, 3905, 0, 1, 7501, -90.000, 0.000, 137.800, 0.000, 0.000, -3.100, 0.0, , , , , , 99, , , 59, 59, 59
36.6869637, -118.9584826, 6.300, 15:30:15.625, 15, 0.10, 0.74, 98, 2.100, 1.400, 138.500, 1084, 100, 100, 13, 23525, -16436, 4351, 4440, 4, 14, 1523658615.625, 95, 0, 1024, 1024, 1026, 1024, 0, 6, 3910, 3911, 3920, 3921, 3888, 3905, 0, 1, 7601, -89.900, 0.000, 137.800, 0.000, -0.100, -3.200, 0.0, , , , , , 99, , , 59, 59, 59
36.6869636, -118.9584827, 6.600, 15:30:15.725, 15, 0.10, 0.73, 98, 1.600, 1.900, 138.300, 1084, 100, 100, 13, 23525, -16436, 4351, 4440, 4, 14, 1523658615.725, 97, 0, 1024, 1024, 1026, 1024, 0, 6, 3910, 3911, 3920, 3921, 3888, 3905, 0, 1, 7701, -89.900, 0.000, 137.800, 0.000, -0.100, -3.100, 0.0, , , , , , 99, , , 59, 59, 59
36.6869635, -118.9584828, 7.000, 15:30:15.824, 15, 0.10, 0.72, 98, 1.200, 2.200, 138.100, 1084, 100, 100, 13, 22832, -23225, 4351, 4440, 4, 14, 1523658615.825, 88, 0, 1024, 1024, 1026, 1024, 0, 6, 3782, 3816, 3797, 3811, 3817, 3828, 0, 1, 7801, -89.900, 0.000, 137.800, 0.000, -0.100, -3.200, 0.0, , , , , , 99, , , 59, 59, 59
36.6869635, -118.9584829, 7.300, 15:30:15.924, 15, 0.10, 0.71, 98, 0.700, 2.300, 137.900, 1084, 100, 100, 13, 22832, -23225, 4351, 4440, 4, 14, 1523658615.925, 89, 0, 1024, 1024, 1026, 1024, 0, 6, 3782, 3816, 3797, 3811, 3817, 3828, 0, 1, 7901, -89.900, 0.000, 137.800, 0.000, -0.100, -3.200, 0.0, , , , , , 99, , , 59, 59, 59
36.6869634, -118.9584830, 7.700, 15:30:16.024, 15, 0.10, 0.70, 98, 0.300, 1.800, 137.700, 1084, 100, 100, 13, 22832, -23225, 4351, 4440, 4, 14, 1523658616.024, 87, 0, 1024, 1024, 1026, 1024, 0, 6, 3782, 3816, 3797, 3811, 3817, 3828, 0, 1, 8000, -90.000, 0.000, 137.800, 0.000, -0.100, -3.100, 0.0, , , , , , 99, , , 59, 59, 59
36.6869634, -118.9584831, 8.000, 15:30:16.125, 15, 0.10, 0.69, 98, 0.200, 1.400, 137.500, 1084, 100, 100, 13, 22832, -23225, 4351, 4440, 4, 14, 1523658616.125, 56, 0, 1024, 1024, 1026, 1024, 0, 6, 3782, 3816, 3797, 3811, 3817, 3828, 0, 1, 8101, -90.000, 0.000, 137.800, 0.000, -0.100, -3.100, 0.0, , , , , , 99, , , 59, 59, 59
36.6869634, -118.9584832, 8.300, 15:30:16.224, 15, 0.10, 0.68, 98, 0.500, 1.400, 137.400, 1084, 100, 100, 13, 22832, -23225, 4351, 4440, 4, 14, 1523658616.225, 50, 0, 1024, 1024, 1026, 1024, 0, 6, 3782, 3816, 3797, 3811, 3817, 3828, 0, 1, 8201, -89.900, 0.000, 137.800, 0.000, -0.100, -3.100, 0.0, , , , , , 99, , , 59, 59, 59
36.6869634, -118.9584834, 8.600, 15:30:16.325, 15, 0.10, 0.67, 98, 0.800, 1.700, 137.400, 1084, 100, 100, 13, 22832, -23225, 4351, 4440, 4, 14, 1523658616.325, 58, 0, 1024, 1024, 1026, 1024, 0, 6, 3782, 3816, 3797, 3811, 3817, 3828, 0, 1, 8301, -89.900, 0.000, 137.800, 0.000, -0.100, -3.100, 0.0, , , , , , 99, , , 59, 59, 59
36.6869634, -118.9584838, 9.300, 15:30:16.425, 15, 0.10, 0.63, 98, 0.800, 1.600, 137.500, 1084, 100, 100, 13, 22832, -23225, 4351, 4440, 4, 14, 1523658616.425, 36, 0, 1024, 1024, 1026, 1024, 0, 6, 3782, 3816, 3797, 3811, 3817, 3828, 0, 1, 8401, -89.900, 0.000, 137.800, 0.000, -0.100, -3.100, 0.0, , , , , , 99, , , 59, 59, 59
36.6869634, -118.9584839, 9.600, 15:30:16.524, 15, 0.10, 0.62, 98, 0.800, 1.300, 137.600, 1084, 100, 100, 13, 22832, -23225, 4351, 4440, 4, 14, 1523658616.524, 33, 0, 1024, 1024, 1026, 1024, 0, 6, 3782, 3816, 3797, 3811, 3817, 3828, 0, 1, 8500, -90.000, 0.000, 137.800, 0.000, -0.100, -3.000, 0.0, , , , , , 99, , , 59, 59, 59
36.6869635, -118.9584840, 10.000, 15:30:16.624, 15, 0.10, 0.61, 98, 0.600, 1.100, 137.700, 1084, 100, 100, 13, 22832, -23225, 4351, 4440, 4, 14, 1523658616.625, 63, 0, 1024, 1024, 1026, 1024, 0, 6, 3782, 3816, 3797, 3811, 3817, 3828, 0, 1, 8601, -90.000, 0.000, 137.800, 0.000, -0.100, -3.000, 0.0, , , , , , 99, , , 59, 59, 59
36.6869636, -118.9584839, 10.300, 15:30:16.724, 15, 0.10, 0.62, 98, 0.600, 1.000, 137.700, 1084, 100, 100, 13, 22832, -23225, 4351, 4440, 4, 14, 1523658616.725, 51, 0, 1024, 1024, 1027, 1024, 0, 6, 3782, 3816, 3797, 3811, 3817, 3828, 0, 1, 8701, -90.000, 0.000, 137.800, 0.000, -0.100, -3.000, 0.0, , , , , , 99, , , 59, 59, 59
36.6869637, -118.9584837, 10.600, 15:30:16.825, 16, 0.00, 0.64, 98, 0.900, 0.900, 137.700, 1084, 100, 99, 13, 22832, -23225, 4351, 4440, 4, 14, 1523658616.825, 43, 0, 1024, 1024, 1026, 1024, 0, 6, 3782, 3816, 3797, 3811, 3817, 3828, 0, 1, 8801, -90.000, 0.000, 137.800, 0.000, 0.000, -3.000, 0.0, , , , , , 99, , , 59, 59, 59
36.6869639, -118.9584835, 10.900, 15:30:16.925, 16, 0.00, 0.66, 98, 1.600, 0.900, 137.800, 1084, 100, 99, 13, 22832, -23225, 4351, 4440, 4, 14, 1523658616.925, 49, 0, 1024, 1024, 1026, 1024, 0, 6, 3782, 3816, 3797, 3811, 3817, 3828, 0, 1, 8901, -90.000, 0.000, 137.800, 0.000, 0.000, -3.000, 0.0, , , , , , 99, , , 59, 59, 59
36.6869640, -118.9584835, 11.200, 15:30:17.024, 16, 0.00, 0.66, 98, 2.100, 1.000, 137.800, 1084, 100, 99, 13, 22832, -23225, 4351, 4440, 4, 14, 1523658617.025, 22, 0, 1024, 1024, 1026, 1024, 0, 6, 3782, 3816, 3797, 3811, 3817, 3828, 0, 1, 9000, -90.000, 0.000, 137.800, 0.000, 0.000, -3.000, 0.0, , , , , , 99, , , 59, 59, 59
36.6869639, -118.9584837, 11.600, 15:30:17.125, 16, 0.00, 0.64, 98, 2.000, 1.100, 137.800, 1084, 100, 99, 13, 22832, -23225, 4351, 4440, 4, 14, 1523658617.125, 21, 0, 1024, 1024, 1026, 1024, 0, 6, 3782, 3816, 3797, 3811, 3817, 3828, 0, 1, 9101, -89.900, 0.000, 137.800, 0.000, 0.000, -2.900, 0.0, , , , , , 99, , , 59, 59, 59
36.6869639, -118.9584840, 11.900, 15:30:17.225, 17, 0.10, 0.62, 98, 1.600, 1.100, 137.700, 1084, 100, 99, 13, 22832, -23225, 4351, 4440, 4, 14, 1523658617.225, 14, 0, 1024, 1024, 1026, 1024, 0, 6, 3782, 3816, 3797, 3811, 3817, 3828, 0, 1, 9201, -90.000, 0.000, 137.800, 0.000, -0.100, -2.900, 0.0, , , , , , 99, , , 59, 59, 59
36.6869639, -118.9584841, 12.200, 15:30:17.325, 17, 0.10, 0.61, 97, 1.500, 0.600, 137.700, 1084, 100, 98, 14, 23092, -18766, 4306, 4440, 4, 14, 1523658617.326, 34, 0, 1024, 1024, 1026, 1024, 0, 6, 3834, 3855, 3864, 3857, 3863, 3865, 0, 1, 9302, -90.000, 0.000, 137.800, 0.000, -0.100, -3.000, 0.0, , , , , , 99, , , 59, 59, 59
36.6869639, -118.9584843, 12.500, 15:30:17.435, 16, 0.10, 0.59, 97, 1.500, 0.300, 137.700, 1084, 100, 98, 14, 23092, -18766, 4306, 4440, 4, 14, 1523658617.435, 6, 0, 1024, 1024, 1026, 1024, 0, 6, 3834, 3855, 3864, 3857, 3863, 3865, 0, 1, 9411, -90.000, 0.000, 137.800, 0.000, -0.100, -3.000, 0.0, , , , , , 99, , , 59, 59, 59
36.6869639, -118.9584844, 12.800, 15:30:17.524, 16, 0.10, 0.58, 97, 1.500, 0.000, 137.800, 1084, 100, 98, 14, 23092, -18766, 4306, 4440, 4, 14, 1523658617.524, 19, 0, 1024, 1024, 1026, 1024, 0, 6, 3834, 3855, 3864, 3857, 3863, 3865, 0, 1, 9500, -90.000, 0.000, 137.800, 0.000, -0.100, -3.000, 0.0, , , , , , 99, , , 59, 59, 59
36.6869639, -118.9584845, 13.100, 15:30:17.625, 17, 0.10, 0.57, 97, 1.400, -0.100, 137.900, 1084, 100, 98, 14, 23092, -18766, 4306, 4440, 4, 14, 1523658617.625, 21, 0, 1024, 1024, 1026, 1024, 0, 6, 3834, 3855, 3864, 3857, 3863, 3865, 0, 1, 9601, -89.900, 0.000, 137.800, 0.000, -0.100, -2.900, 0.0, , , , , , 99, , , 59, 59, 59
36.6869639, -118.9584848, 13.400, 15:30:17.724, 17, 0.10, 0.54, 97, 1.200, 0.000, 137.900, 1084, 100, 98, 14, 23092, -18766, 4306, 4440, 4, 14, 1523658617.725, 9, 0, 1024, 1024, 1026, 1024, 0, 6, 3834, 3855, 3864, 3857, 3863, 3865, 0, 1, 9701, -89.900, 0.000, 137.800, 0.000, -0.100, -2.900, 0.0, , , , , , 99, , , 59, 59, 59
36.6869639, -118.9584848, 13.400, 15:30:17.825, 17, 0.10, 0.54, 97, 1.200, 0.000, 137.900, 1084, 100, 98, 14, 23092, -18766, 4306, 4440, 4, 14, 1523658617.826, 110, 0, 1024, 1024, 1026, 1024, 0, 6, 3834, 3855, 3864, 3857, 3863, 3865, 0, 1, 9801, -89.900, 0.000, 137.800, 0.000, -0.100, -2.900, 0.0, , , , , , 99, , , 59, 59, 59
36.6869638, -118.9584851, 13.700, 15:30:17.925, 17, 0.10, 0.52, 97, 0.800, 0.000, 137.900, 1084, 100, 98, 14, 23219, -18029, 4306, 4440, 4, 14, 1523658617.925, 87, 0, 1024, 1024, 1026, 1024, 0, 6, 3853, 3868, 3878, 3878, 3881, 3864, 0, 1, 9901, -90.000, 0.000, 137.800, 0.000, -0.100, -2.800, 0.0, , , , , , 99, , , 59, 59, 59
36.6869637, -118.9584854, 14.000, 15:30:18.024, 17, 0.10, 0.49, 97, 0.400, 0.000, 138.000, 1084, 100, 98, 14, 23219, -18029, 4306, 4440, 4, 14, 1523658618.025, 94, 0, 1024, 1024, 1027, 1024, 0, 6, 3853, 3868, 3878, 3878, 3881, 3864, 0, 1, 10001, -89.900, 0.000, 137.800, 0.000, -0.100, -2.800, 0.0, , , , , , 99, , , 59, 59, 59
36.6869636, -118.9584856, 14.300, 15:30:18.124, 17, 0.10, 0.47, 97, 0.000, 0.000, 138.100, 1084, 100, 98, 14, 23219, -18029, 4306, 4440, 4, 14, 1523658618.125, 96, 0, 1024, 1024, 1027, 1024, 0, 6, 3853, 3868, 3878, 3878, 3881, 3864, 0, 1, 10101, -90.000, 0.000, 137.800, 0.000, -0.100, -2.800, 0.0, , , , , , 99, , , 59, 59, 59
36.6869634, -118.9584858, 14.600, 15:30:18.224, 17, 0.00, 0.45, 97, -0.400, 0.000, 138.200, 1084, 100, 98, 14, 23219, -18029, 4306, 4440, 4, 14, 1523658618.225, 86, 0, 1024, 1024, 1026, 1024, 0, 6, 3853, 3868, 3878, 3878, 3881, 3864, 0, 1, 10201, -89.900, 0.000, 137.800, 0.000, 0.000, -2.800, 0.0, , , , , , 99, , , 59, 59, 59
36.6869633, -118.9584860, 14.900, 15:30:18.325, 18, 0.00, 0.43, 97, -0.600, 0.200, 138.200, 1084, 100, 98, 14, 23219, -18029, 4306, 4440, 4, 14, 1523658618.325, 64, 0, 1024, 1024, 1026, 1024, 0, 6, 3853, 3868, 3878, 3878, 3881, 3864, 0, 1, 10301, -89.900, 0.000, 137.800, 0.000, 0.000, -2.800, 0.0, , , , , , 99, , , 59, 59, 59
36.6869632, -118.9584861, 15.200, 15:30:18.424, 18, 0.00, 0.42, 97, -0.500, 0.600, 138.200, 1084, 100, 98, 14, 23219, -18029, 4306, 4440, 4, 14, 1523658618.425, 67, 0, 1024, 1024, 1026, 1024, 0, 6, 3853, 3868, 3878, 3878, 3881, 3864, 0, 1, 10401, -89.900, 0.000, 137.800, 0.000, 0.000, -2.900, 0.0, , , , , , 99, , , 59, 59, 59
36.6869632, -118.9584861, 15.200, 15:30:18.524, 18, 0.00, 0.42, 97, -0.500, 0.600, 138.200, 1084, 100, 98, 14, 23219, -18029, 4306, 4440, 4, 14, 1523658618.524, 167, 0, 1024, 1024, 1026, 1024, 0, 6, 3853, 3868, 3878, 3878, 3881, 3864, 0, 1, 10500, -89.900, 0.000, 137.800, 0.000, 0.000, -2.900, 0.0, , , , , , 99, , , 59, 59, 59
36.6869630, -118.9584864, 16.100, 15:30:18.625, 17, 0.00, 0.39, 97, -0.300, 1.100, 137.900, 1084, 100, 98, 14, 23219, -18029, 4306, 4440, 4, 14, 1523658618.626, 49, 0, 1024, 1024, 1026, 1024, 0, 6, 3853, 3868, 3878, 3878, 3881, 3864, 0, 1, 10602, -89.900, 0.000, 137.800, 0.000, 0.000, -2.900, 0.0, , , , , , 99, , , 59, 59, 59
36.6869630, -118.9584864, 16.100, 15:30:18.725, 17, 0.00, 0.39, 97, -0.300, 1.100, 137.900, 1084, 100, 98, 14, 23219, -18029, 4306, 4440, 4, 14, 1523658618.726, 149, 0, 1024, 1024, 1027, 1024, 0, 6, 3853, 3868, 3878, 3878, 3881, 3864, 0, 1, 10702, -89.900, 0.000, 137.800, 0.000, 0.000, -2.900, 0.0, , , , , , 99, , , 59, 59, 59
36.6869629, -118.9584866, 16.700, 15:30:18.824, 18, 0.00, 0.38, 97, -0.100, 1.100, 137.700, 1084, 100, 98, 14, 23268, -17146, 4306, 4440, 4, 14, 1523658618.825, 61, 0, 1024, 1024, 1027, 1024, 0, 6, 3853, 3868, 3878, 3878, 3881, 3864, 0, 1, 10801, -90.000, 0.000, 137.800, 0.000, 0.000, -2.800, 0.0, , , , , , 99, , , 59, 59, 59
36.6869628, -118.9584866, 17.000, 15:30:18.925, 18, 0.00, 0.38, 97, 0.000, 1.000, 137.600, 1084, 100, 97, 14, 23268, -17146, 4306, 4440, 4, 14, 1523658618.926, 60, 0, 1024, 1024, 1026, 1024, 0, 6, 3853, 3868, 3878, 3878, 3881, 3864, 0, 1, 10901, -89.900, 0.000, 137.800, 0.000, 0.000, -2.800, 0.0, , , , , , 99, , , 59, 59, 59
36.6869628, -118.9584866, 17.300, 15:30:19.024, 17, 0.00, 0.38, 97, 0.200, 0.900, 137.600, 1084, 100, 97, 14, 23268, -17146, 4306, 4440, 4, 14, 1523658619.024, 50, 0, 1024, 1024, 1027, 1024, 0, 6, 3853, 3868, 3878, 3878, 3881, 3864, 0, 1, 11000, -90.000, 0.000, 137.800, 0.000, 0.000, -2.800, 0.0, , , , , , 99, , , 59, 59, 59
36.6869628, -118.9584867, 17.600, 15:30:19.125, 17, 0.00, 0.37, 97, 0.300, 0.900, 137.700, 1084, 100, 97, 14, 23268, -17146, 4306, 4440, 4, 14, 1523658619.125, 45, 0, 1024, 1024, 1026, 1024, 0, 6, 3853, 3868, 3878, 3878, 3881, 3864, 0, 1, 11101, -90.000, 0.000, 137.800, 0.000, 0.000, -2.800, 0.0, , , , , , 99, , , 59, 59, 59
36.6869627, -118.9584867, 17.800, 15:30:19.225, 18, 0.00, 0.37, 97, 0.400, 1.000, 137.900, 1084, 100, 97, 14, 23268, -17146, 4306, 4440, 4, 14, 1523658619.226, 40, 0, 1024, 1024, 1026, 1024, 0, 6, 3853, 3868, 3878, 3878, 3881, 3864, 0, 1, 11201, -89.900, 0.000, 137.800, 0.000, 0.000, -2.800, 0.0, , , , , , 99, , , 59, 59, 59
36.6869627, -118.9584867, 18.100, 15:30:19.325, 18, 0.00, 0.37, 97, 0.500, 0.900, 138.000, 1084, 100, 97, 14, 23268, -17146, 4306, 4440, 4, 14, 1523658619.325, 44, 0, 1024, 1024, 1026, 1024, 0, 6, 3865, 3875, 3883, 3882, 3887, 3882, 0, 1, 11301, -89.900, 0.000, 137.800, 0.000, 0.000, -2.800, 0.0, , , , , , 99, , , 59, 59, 59
36.6869627, -118.9584867, 18.100, 15:30:19.425, 18, 0.00, 0.37, 97, 0.500, 0.900, 138.000, 1084, 100, 97, 14, 23268, -17146, 4306, 4440, 4, 14, 1523658619.425, 144, 0, 1024, 1024, 1026, 1024, 0, 6, 3865, 3875, 3883, 3882, 3887, 3882, 0, 1, 11401, -89.900, 0.000, 137.800, 0.000, 0.000, -2.800, 0.0, , , , , , 99, , , 59, 59, 59
36.6869627, -118.9584866, 18.700, 15:30:19.524, 18, 0.00, 0.38, 97, 0.300, 0.800, 137.900, 1084, 100, 97, 14, 23268, -17146, 4306, 4440, 4, 14, 1523658619.525, 27, 0, 1024, 1024, 1027, 1024, 0, 6, 3865, 3875, 3883, 3882, 3887, 3882, 0, 1, 11501, -89.900, 0.000, 137.800, 0.000, 0.000, -2.800, 0.0, , , , , , 99, , , 59, 59, 59
36.6869628, -118.9584866, 19.000, 15:30:19.624, 17, 0.00, 0.38, 97, 0.200, 0.900, 137.800, 1084, 100, 97, 14, 23268, -17146, 4306, 4440, 4, 14, 1523658619.624, 11, 0, 1024, 1024, 1026, 1024, 0, 6, 3865, 3875, 3883, 3882, 3887, 3882, 0, 1, 11600, -90.000, 0.000, 137.800, 0.000, 0.000, -2.800, 0.0, , , , , , 99, , , 59, 59, 59
36.6869628, -118.9584865, 19.300, 15:30:19.725, 17, 0.00, 0.38, 97, 0.100, 0.800, 137.900, 1084, 100, 97, 14, 23268, -17146, 4306, 4440, 4, 14, 1523658619.725, 41, 0, 1024, 1024, 1026, 1024, 0, 6, 3865, 3875, 3883, 3882, 3887, 3882, 0, 1, 11701, -90.000, 0.000, 137.800, 0.000, 0.000, -2.800, 0.0, , , , , , 99, , , 59, 59, 59
36.6869628, -118.9584865, 19.600, 15:30:19.825, 18, 0.00, 0.39, 97, 0.500, 1.200, 138.000, 1084, 100, 96, 14, 23268, -17146, 4306, 4440, 4, 14, 1523658619.826, 32, 0, 1024, 1024, 1027, 1024, 0, 6, 3865, 3875, 3883, 3882, 3887, 3882, 0, 1, 11802, -89.900, 0.000, 137.800, 0.000, 0.000, -2.800, 0.0, , , , , , 99, , , 59, 59, 59
36.6869628, -118.9584864, 19.900, 15:30:19.925, 18, 0.00, 0.40, 97, 0.700, 1.100, 138.000, 1084, 100, 96, 14, 23268, -17146, 4306, 4440, 4, 14, 1523658619.925, 38, 0, 1024, 1024, 1027, 1024, 0, 6, 3865, 3875, 3883, 3882, 3887, 3882, 0, 1, 11901, -89.900, 0.000, 137.800, 0.000, 0.000, -2.900, 0.0, , , , , , 99, , , 59, 59, 59
36.6869628, -118.9584863, 20.200, 15:30:20.024, 18, 0.00, 0.40, 97, 0.700, 1.000, 137.900, 1084, 100, 96, 14, 23268, -17146, 4306, 4440, 4, 14, 1523658620.025, 27, 0, 1024, 1024, 1026, 1024, 0, 6, 3865, 3875, 3883, 3882, 3887, 3882, 0, 1, 12001, -89.900, 0.000, 137.800, 0.000, 0.000, -2.900, 0.0, , , , , , 99, , , 59, 59, 59
36.6869629, -118.9584863, 20.500, 15:30:20.124, 18, 0.00, 0.41, 97, 0.600, 0.800, 137.900, 1084, 100, 96, 14, 23268, -17146, 4306, 4440, 4, 14, 1523658620.124, 31, 0, 1024, 1024, 1027, 1024, 0, 6, 3865, 3875, 3883, 3882, 3887, 3882, 0, 1, 12100, -89.900, 0.000, 137.800, 0.000, 0.000, -2.800, 0.0, , , , , , 99, , , 59, 59, 59
36.6869629, -118.9584862, 20.700, 15:30:20.227, 18, 0.00, 0.42, 97, 0.700, 0.800, 137.900, 1084, 100, 96, 14, 23268, -17146, 4306, 4440, 4, 14, 1523658620.228, 7, 0, 1024, 1024, 1027, 1024, 0, 6, 3865, 3875, 3883, 3882, 3887, 3882, 0, 1, 12204, -89.900, 0.000, 137.800, 0.000, 0.000, -2.800, 0.0, , , , , , 99, , , 59, 59, 59
36.6869629, -118.9584862, 20.700, 15:30:20.324, 18, 0.00, 0.42, 97, 0.700, 0.800, 137.900, 1084, 100, 96, 14, 23268, -17146, 4306, 4440, 4, 14, 1523658620.325, 104, 0, 1024, 1024, 1027, 1024, 0, 6, 3865, 3875, 3883, 3882, 3887, 3882, 0, 1, 12301, -89.900, 0.000, 137.800, 0.000, 0.000, -2.800, 0.0, , , , , , 99, , , 59, 59, 59
36.6869630, -118.9584859, 21.300, 15:30:20.429, 18, 0.00, 0.44, 97, 1.300, 1.000, 138.100, 1084, 100, 96, 14, 23144, -17995, 4306, 4440, 4, 14, 1523658620.430, 7, 0, 1024, 1024, 1026, 1024, 0, 6, 3836, 3862, 3857, 3849, 3878, 3873, 0, 1, 12405, -89.900, 0.000, 137.800, 0.000, 0.000, -2.900, 0.0, , , , , , 99, , , 59, 59, 59
36.6869630, -118.9584859, 21.300, 15:30:20.524, 18, 0.00, 0.44, 97, 1.300, 1.000, 138.100, 1084, 100, 96, 14, 23144, -17995, 4306, 4440, 4, 14, 1523658620.524, 101, 0, 1024, 1024, 1026, 1024, 0, 6, 3836, 3862, 3857, 3849, 3878, 3873, 0, 1, 12500, -89.900, 0.000, 137.800, 0.000, 0.000, -2.900, 0.0, , , , , , 99, , , 59, 59, 59
36.6869631, -118.9584857, 21.900, 15:30:20.641, 18, 0.00, 0.46, 97, 1.600, 1.200, 138.200, 1084, 100, 96, 14, 23144, -17995, 4306, 4440, 4, 14, 1523658620.642, 4, 0, 1024, 1024, 1026, 1024, 0, 6, 3836, 3862, 3857, 3849, 3878, 3873, 0, 1, 12618, -89.900, 0.000, 137.800, 0.000, 0.000, -2.900, 0.0, , , , , , 99, , , 59, 59, 59
36.6869631, -118.9584857, 21.900, 15:30:20.724, 18, 0.00, 0.46, 97, 1.600, 1.200, 138.200, 1084, 100, 96, 14, 23144, -17995, 4306, 4440, 4, 14, 1523658620.725, 87, 0, 1024, 1024, 1026, 1024, 0, 6, 3836, 3862, 3857, 3849, 3878, 3873, 0, 1, 12701, -90.000, 0.000, 137.800, 0.000, 0.000, -2.900, 0.0, , , , , , 99, , , 59, 59, 59
36.6869631, -118.9584856, 22.200, 15:30:20.825, 18, 0.00, 0.47, 97, 1.700, 1.100, 138.200, 1084, 100, 96, 14, 23144, -17995, 4306, 4440, 4, 14, 1523658620.826, 94, 0, 1024, 1024, 1026, 1024, 0, 6, 3836, 3862, 3857, 3849, 3878, 3873, 0, 1, 12802, -89.900, 0.000, 137.800, 0.000, 0.000, -2.900, 0.0, , , , , , 99, , , 59, 59, 59
36.6869632, -118.9584855, 22.500, 15:30:20.925, 18, 0.00, 0.48, 97, 1.700, 1.100, 138.200, 1084, 100, 97, 14, 23144, -17995, 4306, 4440, 4, 14, 1523658620.925, 94, 0, 1024, 1024, 1027, 1024, 0, 6, 3836, 3862, 3857, 3849, 3878, 3873, 0, 1, 12901, -89.900, 0.000, 137.800, 0.000, 0.000, -2.900, 0.0, , , , , , 99, , , 59, 59, 59
36.6869632, -118.9584853, 22.800, 15:30:21.024, 18, 0.00, 0.49, 97, 1.600, 1.100, 138.100, 1084, 100, 97, 14, 23144, -17995, 4306, 4440, 4, 14, 1523658621.024, 95, 0, 1024, 1024, 1026, 1024, 0, 6, 3836, 3862, 3857, 3849, 3878, 3873, 0, 1, 13000, -89.900, 0.000, 137.800, 0.000, 0.000, -2.900, 0.0, , , , , , 99, , , 59, 59, 59
36.6869633, -118.9584852, 23.100, 15:30:21.125, 17, 0.00, 0.50, 97, 1.800, 1.100, 138.000, 1084, 100, 97, 14, 23144, -17995, 4306, 4440, 4, 14, 1523658621.125, 83, 0, 1024, 1024, 1026, 1024, 0, 6, 3836, 3862, 3857, 3849, 3878, 3873, 0, 1, 13101, -89.900, 0.000, 137.800, 0.000, 0.000, -2.900, 0.0, , , , , , 99, , , 59, 59, 59
36.6869633, -118.9584851, 23.400, 15:30:21.225, 17, 0.00, 0.52, 97, 2.000, 1.200, 138.000, 1084, 100, 97, 14, 23144, -17995, 4306, 4440, 4, 14, 1523658621.225, 82, 0, 1024, 1024, 1026, 1024, 0, 6, 3836, 3862, 3857, 3849, 3878, 3873, 0, 1, 13201, -89.900, 0.000, 137.800, 0.000, 0.000, -2.900, 0.0, , , , , , 99, , , 59, 59, 59
36.6869634, -118.9584849, 23.700, 15:30:21.325, 18, 0.00, 0.53, 97, 1.900, 1.100, 137.900, 1084, 100, 97, 14, 23010, -18962, 4306, 4440, 4, 14, 1523658621.326, 60, 0, 1024, 1024, 1026, 1024, 0, 6, 3811, 3838, 3837, 3834, 3838, 3836, 0, 1, 13302, -90.000, 0.000, 137.800, 0.000, 0.000, -2.900, 0.0, , , , , , 99, , , 59, 59, 59
36.6869635, -118.9584849, 24.000, 15:30:21.425, 18, 0.00, 0.54, 97, 1.700, 0.900, 137.800, 1084, 100, 99, 14, 23010, -18962, 4306, 4440, 4, 14, 1523658621.426, 76, 0, 1024, 1024, 1026, 1024, 0, 6, 3811, 3838, 3837, 3834, 3838, 3836, 0, 1, 13402, -90.000, 0.000, 137.800, 0.000, 0.000, -2.900, 0.0, , , , , , 99, , , 59, 59, 59
36.6869635, -118.9584847, 24.600, 15:30:21.524, 18, 0.00, 0.55, 97, 1.600, 0.700, 137.700, 1084, 100, 99, 14, 23010, -18962, 4306, 4440, 4, 14, 1523658621.524, 60, 0, 1024, 1024, 1026, 1024, 0, 6, 3811, 3838, 3837, 3834, 3838, 3836, 0, 1, 13500, -90.000, 0.000, 137.800, 0.000, 0.000, -2.900, 0.0, , , , , , 99, , , 59, 59, 59
36.6869635, -118.9584846, 24.900, 15:30:21.625, 18, 0.00, 0.55, 97, 1.700, 0.700, 137.700, 1084, 100, 99, 14, 23010, -18962, 4306, 4440, 4, 14, 1523658621.625, 49, 0, 1024, 1024, 1026, 1024, 0, 6, 3811, 3838, 3837, 3834, 3838, 3836, 0, 1, 13601, -90.000, 0.000, 137.800, 0.000, 0.000, -3.000, 0.0, , , , , , 99, , , 59, 59, 59
36.6869635, -118.9584845, 25.200, 15:30:21.725, 18, 0.00, 0.57, 97, 1.500, 1.100, 137.700, 1084, 100, 99, 14, 23010, -18962, 4306, 4440, 4, 14, 1523658621.725, 63, 0, 1024, 1024, 1026, 1024, 0, 6, 3811, 3838, 3837, 3834, 3838, 3836, 0, 1, 13701, -89.900, 0.000, 137.800, 0.000, 0.000, -3.000, 0.0, , , , , , 99, , , 59, 59, 59
36.6869635, -118.9584844, 25.500, 15:30:21.825, 18, 0.00, 0.58, 97, 1.500, 1.500, 137.700, 1084, 100, 99, 14, 23010, -18962, 4306, 4440, 4, 14, 1523658621.825, 59, 0, 1024, 1024, 1026, 1024, 0, 6, 3811, 3838, 3837, 3834, 3838, 3836, 0, 1, 13801, -89.900, 0.000, 137.800, 0.000, 0.000, -3.000, 0.0, , , , , , 99, , , 59, 59, 59
36.6869636, -118.9584842, 25.800, 15:30:21.925, 18, 0.00, 0.59, 97, 1.800, 1.700, 137.800, 1084, 100, 100, 14, 23010, -18962, 4306, 4440, 4, 14, 1523658621.926, 60, 0, 1024, 1024, 1026, 1024, 0, 6, 3811, 3838, 3837, 3834, 3838, 3836, 0, 1, 13901, -89.900, 0.000, 137.800, 0.000, 0.000, -3.000, 0.0, , , , , , 99, , , 59, 59, 59
36.6869636, -118.9584841, 26.100, 15:30:22.024, 18, 0.00, 0.60, 97, 1.800, 1.800, 137.900, 1084, 100, 100, 14, 23010, -18962, 4306, 4440, 4, 14, 1523658622.025, 41, 0, 1024, 1024, 1026, 1024, 0, 6, 3811, 3838, 3837, 3834, 3838, 3836, 0, 1, 14000, -89.900, 0.000, 137.800, 0.000, 0.000, -3.000, 0.0, , , , , , 99, , , 59, 59, 59
36.6869636, -118.9584839, 26.400, 15:30:22.124, 18, 0.00, 0.62, 97, 2.100, 1.600, 138.200, 1084, 100, 100, 14, 23010, -18962, 4306, 4440, 4, 14, 1523658622.124, 46, 0, 1024, 1024, 1026, 1024, 0, 6, 3811, 3838, 3837, 3834, 3838, 3836, 0, 1, 14100, -89.900, 0.000, 137.800, 0.000, 0.000, -3.000, 0.0, , , , , , 99, , , 59, 59, 59
36.6869637, -118.9584838, 26.700, 15:30:22.224, 18, 0.00, 0.63, 97, 2.500, 1.800, 138.400, 1084, 100, 100, 14, 23010, -18962, 4306, 4440, 4, 14, 1523658622.225, 17, 0, 1024, 1024, 1027, 1024, 0, 6, 3811, 3838, 3837, 3834, 3838, 3836, 0, 1, 14201, -89.900, 0.000, 137.800, 0.000, 0.000, -2.900, 0.0, , , , , , 99, , , 59, 59, 59
36.6869637, -118.9584836, 27.000, 15:30:22.326, 18, 0.00, 0.65, 97, 3.000, 2.000, 138.500, 1084, 100, 100, 14, 22916, -19298, 4306, 4440, 4, 14, 1523658622.327, 12, 0, 1024, 1024, 1026, 1024, 0, 6, 3811, 3838, 3837, 3834, 3838, 3836, 0, 1, 14302, -89.900, 0.000, 137.800, 0.000, 0.000, -3.000, 0.0, , , , , , 99, , , 59, 59, 59
36.6869637, -118.9584836, 27.000, 15:30:22.425, 18, 0.00, 0.65, 97, 3.000, 2.000, 138.500, 1084, 100, 100, 14, 22916, -19298, 4306, 4440, 4, 14, 1523658622.425, 111, 0, 1024, 1024, 1026, 1024, 0, 6, 3804, 3821, 3830, 3816, 3826, 3818, 0, 1, 14401, -89.900, 0.000, 137.800, 0.000, 0.000, -3.000, 0.0, , , , , , 99, , , 59, 59, 59
36.6869638, -118.9584833, 27.600, 15:30:22.524, 18, 0.00, 0.68, 97, 3.200, 2.400, 138.400, 1084, 100, 100, 14, 22916, -19298, 4306, 4440, 4, 14, 1523658622.525, 28, 0, 1024, 1024, 1026, 1024, 0, 6, 3804, 3821, 3830, 3816, 3826, 3818, 0, 1, 14500, -89.900, 0.000, 137.800, 0.000, 0.000, -2.900, 0.0, , , , , , 99, , , 59, 59, 59
36.6869638, -118.9584833, 27.600, 15:30:22.625, 18, 0.00, 0.68, 97, 3.200, 2.400, 138.400, 1084, 100, 100, 14, 22916, -19298, 4306, 4440, 4, 14, 1523658622.626, 129, 0, 1024, 1024, 1026, 1024, 0, 6, 3804, 3821, 3830, 3816, 3826, 3818, 0, 1, 14601, -89.900, 0.000, 137.800, 0.000, 0.000, -2.900, 0.0, , , , , , 99, , , 59, 59, 59
36.6869638, -118.9584830, 28.200, 15:30:22.725, 18, 0.00, 0.71, 97, 3.600, 2.300, 138.200, 1084, 100, 100, 14, 22916, -19298, 4306, 4440, 4, 14, 1523658622.725, 19, 0, 1024, 1024, 1026, 1024, 0, 6, 3804, 3821, 3830, 3816, 3826, 3818, 0, 1, 14701, -89.900, 0.000, 137.800, 0.000, 0.000, -3.000, 0.0, , , , , , 99, , , 59, 59, 59
36.6869638, -118.9584828, 28.500, 15:30:22.824, 18, 0.00, 0.72, 97, 3.600, 2.200, 138.100, 1084, 100, 100, 14, 22916, -19298, 4306, 4440, 4, 14, 1523658622.824, 11, 0, 1024, 1024, 1026, 1024, 0, 6, 3804, 3821, 3830, 3816, 3826, 3818, 0, 1, 14800, -89.900, 0.000, 137.800, 0.000, 0.000, -3.000, 0.0, , , , , , 99, , , 59, 59, 59
36.6869638, -118.9584827, 28.800, 15:30:22.935, 18, 0.00, 0.73, 97, 3.400, 2.200, 138.100, 1084, 100, 100, 14, 22916, -19298, 4306, 4440, 4, 14, 1523658622.936, 13, 0, 1024, 1024, 1026, 1024, 0, 6, 3804, 3821, 3830, 3816, 3826, 3818, 0, 1, 14912, -89.900, 0.000, 137.800, 0.000, 0.000, -3.000, 0.0, , , , , , 99, , , 59, 59, 59
36.6869638, -118.9584827, 28.800, 15:30:23.024, 18, 0.00, 0.73, 97, 3.400, 2.200, 138.100, 1084, 100, 100, 14, 22916, -19298, 4306, 4440, 4, 14, 1523658623.024, 102, 0, 1024, 1024, 1026, 1024, 0, 6, 3804, 3821, 3830, 3816, 3826, 3818, 0, 1, 15000, -89.900, 0.000, 137.800, 0.000, 0.000, -3.000, 0.0, , , , , , 99, , , 59, 59, 59
36.6869638, -118.9584826, 29.400, 15:30:23.125, 18, 0.00, 0.74, 97, 2.800, 2.700, 137.900, 1084, 100, 100, 14, 22916, -19298, 4306, 4440, 4, 14, 1523658623.125, 18, 0, 1024, 1024, 1026, 1024, 0, 6, 3804, 3821, 3830, 3816, 3826, 3818, 0, 1, 15101, -89.900, 0.000, 137.800, 0.000, 0.000, -2.900, 0.0, , , , , , 99, , , 59, 59, 59
36.6869637, -118.9584825, 29.700, 15:30:23.225, 18, 0.00, 0.75, 97, 2.700, 2.900, 137.800, 1084, 100, 100, 14, 22916, -19298, 4306, 4440, 4, 14, 1523658623.225, 4, 0, 1024, 1024, 1027, 1024, 0, 6, 3804, 3821, 3830, 3816, 3826, 3818, 0, 1, 15201, -89.900, 0.000, 137.800, 0.000, 0.000, -2.900, 0.0, , , , , , 99, , , 59, 59, 59
36.6869637, -118.9584825, 30.000, 15:30:23.334, 18, 0.00, 0.75, 97, 2.600, 2.900, 137.800, 1084, 100, 100, 14, 22923, -18758, 4306, 4440, 4, 14, 1523658623.336, 15, 0, 1024, 1024, 1027, 1024, 0, 6, 3804, 3821, 3830, 3816, 3826, 3818, 0, 1, 15311, -89.900, 0.000, 137.800, 0.000, 0.000, -2.900, 0.0, , , , , , 99, , , 59, 59, 59
36.6869637, -118.9584825, 30.000, 15:30:23.425, 18, 0.00, 0.75, 97, 2.600, 2.900, 137.800, 1084, 100, 99, 14, 22923, -18758, 4306, 4440, 4, 14, 1523658623.425, 104, 0, 1024, 1024, 1027, 1024, 0, 6, 3799, 3815, 3826, 3814, 3830, 3821, 0, 1, 15401, -89.900, 0.000, 137.800, 0.000, 0.000, -2.900, 0.0, , , , , , 99, , , 59, 59, 59
36.6869637, -118.9584825, 30.300, 15:30:23.524, 18, 0.00, 0.75, 97, 2.300, 2.700, 137.900, 1084, 100, 99, 14, 22923, -18758, 4306, 4440, 4, 14, 1523658623.525, 71, 0, 1024, 1024, 1026, 1024, 0, 6, 3799, 3815, 3826, 3814, 3830, 3821, 0, 1, 15500, -89.900, 0.000, 137.800, 0.000, 0.000, -2.900, 0.0, , , , , , 99, , , 59, 59, 59
36.6869637, -118.9584825, 30.500, 15:30:23.625, 18, 0.00, 0.75, 97, 2.300, 2.600, 137.900, 1084, 100, 99, 14, 22923, -18758, 4306, 4440, 4, 14, 1523658623.625, 71, 0, 1024, 1024, 1026, 1024, 0, 6, 3799, 3815, 3826, 3814, 3830, 3821, 0, 1, 15601, -89.900, 0.000, 137.800, 0.000, 0.000, -2.900, 0.0, , , , , , 99, , , 59, 59, 59
36.6869637, -118.9584825, 30.800, 15:30:23.725, 18, 0.00, 0.75, 97, 2.600, 2.600, 137.900, 1084, 100, 99, 14, 22923, -18758, 4306, 4440, 4, 14, 1523658623.725, 52, 0, 1024, 1024, 1026, 1024, 0, 6, 3799, 3815, 3826, 3814, 3830, 3821, 0, 1, 15701, -89.900, 0.000, 137.800, 0.000, 0.000, -3.000, 0.0, , , , , , 99, , , 59, 59, 59
36.6869637, -118.9584824, 31.100, 15:30:23.825, 18, 0.00, 0.75, 97, 2.700, 2.600, 138.000, 1084, 100, 99, 14, 22923, -18758, 4306, 4440, 4, 14, 1523658623.826, 83, 0, 1024, 1024, 1026, 1024, 0, 6, 3799, 3815, 3826, 3814, 3830, 3821, 0, 1, 15801, -89.900, 0.000, 137.800, 0.000, 0.000, -2.900, 0.0, , , , , , 99, , , 59, 59, 59
36.6869637, -118.9584824, 31.400, 15:30:23.924, 18, 0.00, 0.76, 97, 2.600, 2.700, 138.100, 1084, 100, 99, 14, 22923, -18758, 4306, 4440, 4, 14, 1523658623.925, 71, 0, 1024, 1024, 1026, 1024, 0, 6, 3799, 3815, 3826, 3814, 3830, 3821, 0, 1, 15901, -89.900, 0.000, 137.800, 0.000, 0.000, -2.900, 0.0, , , , , , 99, , , 59, 59, 59
36.6869637, -118.9584824, 31.700, 15:30:24.024, 18, 0.00, 0.76, 97, 2.600, 2.800, 138.200, 1084, 100, 99, 14, 22923, -18758, 4306, 4440, 4, 14, 1523658624.025, 76, 0, 1024, 1024, 1026, 1024, 0, 6, 3799, 3815, 3826, 3814, 3830, 3821, 0, 1, 16000, -89.900, 0.000, 137.800, 0.000, 0.000, -2.900, 0.0, , , , , , 99, , , 59, 59, 59
36.6869636, -118.9584824, 32.000, 15:30:24.124, 18, 0.00, 0.76, 97, 2.600, 3.100, 138.200, 1084, 100, 99, 14, 22923, -18758, 4306, 4440, 4, 14, 1523658624.125, 79, 0, 1024, 1024, 1026, 1024, 0, 6, 3799, 3815, 3826, 3814, 3830, 3821, 0, 1, 16101, -89.900, 0.000, 137.800, 0.000, 0.000, -3.000, 0.0, , , , , , 99, , , 59, 59, 59
36.6869636, -118.9584824, 32.300, 15:30:24.225, 18, 0.00, 0.76, 97, 2.600, 3.100, 138.100, 1084, 100, 99, 14, 22923, -18758, 4306, 4440, 4, 14, 1523658624.226, 49, 0, 1024, 1024, 1026, 1024, 0, 6, 3799, 3815, 3826, 3814, 3830, 3821, 0, 1, 16201, -89.900, 0.000, 137.800, 0.000, 0.000, -2.900, 0.0, , , , , , 99, , , 59, 59, 59
36.6869636, -118.9584824, 32.900, 15:30:24.325, 18, 0.00, 0.75, 97, 2.600, 2.800, 138.000, 1084, 100, 99, 14, 22827, -19545, 4306, 4440, 4, 14, 1523658624.326, 40, 0, 1024, 1024, 1027, 1024, 0, 6, 3799, 3815, 3826, 3814, 3830, 3821, 0, 1, 16302, -89.900, 0.000, 137.800, 0.000, 0.000, -3.000, 0.0, , , , , , 99, , , 59, 59, 59
36.6869636, -118.9584825, 33.200, 15:30:24.425, 18, 0.00, 0.75, 97, 2.500, 2.800, 138.000, 1084, 100, 99, 14, 22827, -19545, 4306, 4440, 4, 14, 1523658624.425, 48, 0, 1024, 1024, 1027, 1024, 0, 6, 3799, 3815, 3826, 3814, 3830, 3821, 0, 1, 16401, -89.900, 0.000, 137.800, 0.000, 0.000, -3.000, 0.0, , , , , , 99, , , 59, 59, 59
36.6869636, -118.9584825, 33.500, 15:30:24.524, 18, 0.10, 0.74, 97, 2.400, 2.700, 137.800, 1084, 100, 99, 14, 22827, -19545, 4306, 4440, 4, 14, 1523658624.525, 25, 0, 1024, 1024, 1027, 1024, 0, 6, 3799, 3815, 3826, 3814, 3830, 3821, 0, 1, 16501, -89.900, 0.000, 137.800, 0.000, -0.100, -3.000, 0.0, , , , , , 99, , , 59, 59, 59
36.6869636, -118.9584826, 33.800, 15:30:24.624, 18, 0.10, 0.73, 97, 2.200, 2.600, 137.700, 1084, 100, 99, 14, 22827, -19545, 4306, 4440, 4, 14, 1523658624.624, 9, 0, 1024, 1024, 1027, 1024, 0, 6, 3799, 3815, 3826, 3814, 3830, 3821, 0, 1, 16600, -89.900, 0.000, 137.800, 0.000, -0.100, -3.000, 0.0, , , , , , 99, , , 59, 59, 59
36.6869636, -118.9584827, 34.100, 15:30:24.725, 18, 0.10, 0.73, 97, 2.100, 2.400, 137.700, 1084, 100, 99, 14, 22827, -19545, 4306, 4440, 4, 14, 1523658624.725, 15, 0, 1024, 1024, 1027, 1024, 0, 6, 3799, 3815, 3826, 3814, 3830, 3821, 0, 1, 16701, -89.900, 0.000, 137.800, 0.000, -0.100, -3.000, 0.0, , , , , , 99, , , 59, 59, 59
36.6869636, -118.9584828, 34.400, 15:30:24.825, 18, 0.10, 0.72, 97, 2.200, 2.300, 137.700, 1084, 100, 99, 14, 22827, -19545, 4306, 4440, 4, 14, 1523658624.825, 39, 0, 1024, 1024, 1026, 1024, 0, 6, 3776, 3807, 3808, 3799, 3810, 3807, 0, 1, 16801, -89.900, 0.000, 137.800, 0.000, -0.100, -3.000, 0.0, , , , , , 99, , , 59, 59, 59
36.6869636, -118.9584830, 34.800, 15:30:24.925, 18, 0.10, 0.70, 97, 2.200, 2.300, 137.800, 1084, 100, 99, 14, 22827, -19545, 4306, 4440, 4, 14, 1523658624.925, 18, 0, 1024, 1024, 1026, 1024, 0, 6, 3776, 3807, 3808, 3799, 3810, 3807, 0, 1, 16901, -90.000, 0.000, 137.800, 0.000, -0.100, -3.100, 0.0, , , , , , 99, , , 59, 59, 59
36.6869636, -118.9584831, 35.100, 15:30:25.024, 18, 0.10, 0.69, 97, 2.100, 2.000, 138.000, 1084, 100, 99, 14, 22827, -19545, 4306, 4440, 4, 14, 1523658625.025, 16, 0, 1024, 1024, 1026, 1024, 0, 6, 3776, 3807, 3808, 3799, 3810, 3807, 0, 1, 17001, -89.900, 0.000, 137.800, 0.000, -0.100, -3.100, 0.0, , , , , , 99, , , 59, 59, 59
36.6869636, -118.9584832, 35.400, 15:30:25.124, 18, 0.10, 0.69, 97, 1.900, 2.000, 138.200, 1084, 100, 99, 14, 22827, -19545, 4306, 4440, 4, 14, 1523658625.125, 18, 0, 1024, 1024, 1026, 1024, 0, 6, 3776, 3807, 3808, 3799, 3810, 3807, 0, 1, 17101, -89.900, 0.000, 137.800, 0.000, -0.100, -3.100, 0.0, , , , , , 99, , , 59, 59, 59
36.6869636, -118.9584833, 35.700, 15:30:25.225, 18, 0.10, 0.68, 97, 2.000, 2.000, 138.200, 1084, 100, 99, 14, 22827, -19545, 4306, 4440, 4, 14, 1523658625.225, 29, 0, 1024, 1024, 1026, 1024, 0, 6, 3776, 3807, 3808, 3799, 3810, 3807, 0, 1, 17201, -89.900, 0.000, 137.800, 0.000, -0.100, -3.000, 0.0, , , , , , 99, , , 59, 59, 59
36.6869635, -118.9584834, 36.000, 15:30:25.325, 18, 0.10, 0.66, 97, 1.900, 2.200, 138.200, 1084, 100, 97, 14, 22827, -19545, 4306, 4440, 4, 14, 1523658625.325, 21, 0, 1024, 1024, 1027, 1024, 0, 6, 3776, 3807, 3808, 3799, 3810, 3807, 0, 1, 17301, -89.900, 0.000, 137.800, 0.000, -0.100, -3.000, 0.0, , , , , , 99, , , 59, 59, 59
36.6869635, -118.9584835, 36.300, 15:30:25.425, 18, 0.00, 0.65, 97, 1.800, 2.300, 138.100, 1084, 100, 97, 14, 22827, -19545, 4306, 4440, 4, 14, 1523658625.425, 15, 0, 1024, 1024, 1026, 1024, 0, 6, 3776, 3807, 3808, 3799, 3810, 3807, 0, 1, 17401, -89.900, 0.000, 137.800, 0.000, 0.000, -3.000, 0.0, , , , , , 99, , , 59, 59, 59
36.6869635, -118.9584835, 36.300, 15:30:25.524, 18, 0.00, 0.65, 97, 1.800, 2.300, 138.100, 1084, 100, 97, 14, 22827, -19545, 4306, 4440, 4, 14, 1523658625.524, 114, 0, 1024, 1024, 1026, 1024, 0, 6, 3776, 3807, 3808, 3799, 3810, 3807, 0, 1, 17500, -89.900, 0.000, 137.800, 0.000, 0.000, -3.000, 0.0, , , , , , 99, , , 59, 59, 59
36.6869635, -118.9584836, 36.600, 15:30:25.625, 18, 0.00, 0.65, 97, 1.800, 2.300, 138.100, 1084, 100, 97, 14, 22827, -19545, 4306, 4440, 4, 14, 1523658625.625, 88, 0, 1024, 1024, 1026, 1024, 0, 6, 3776, 3807, 3808, 3799, 3810, 3807, 0, 1, 17601, -89.900, 0.000, 137.800, 0.000, 0.000, -3.000, 0.0, , , , , , 99, , , 59, 59, 59
36.6869635, -118.9584838, 37.200, 15:30:25.729, 18, 0.00, 0.63, 97, 1.800, 2.100, 138.000, 1084, 100, 97, 14, 22827, -19545, 4306, 4440, 4, 14, 1523658625.729, 3, 0, 1024, 1024, 1027, 1024, 0, 6, 3776, 3807, 3808, 3799, 3810, 3807, 0, 1, 17705, -89.900, 0.000, 137.800, 0.000, 0.000, -3.000, 0.0, , , , , , 99, , , 59, 59, 59
36.6869635, -118.9584839, 37.500, 15:30:25.832, 18, 0.00, 0.62, 97, 1.800, 2.200, 137.900, 1084, 100, 97, 14, 22761, -19772, 4262, 4440, 4, 14, 1523658625.833, 7, 0, 1024, 1024, 1026, 1024, 0, 6, 3773, 3806, 3794, 3791, 3813, 3795, 0, 1, 17808, -89.900, 0.000, 137.800, 0.000, 0.000, -3.000, 0.0, , , , , , 99, , , 59, 59, 59
36.6869635, -118.9584839, 37.800, 15:30:25.929, 18, 0.00, 0.62, 97, 1.800, 2.400, 138.000, 1084, 100, 97, 14, 22761, -19772, 4262, 4440, 4, 14, 1523658625.930, 7, 0, 1024, 1024, 1026, 1024, 0, 6, 3773, 3806, 3794, 3791, 3813, 3795, 0, 1, 17906, -89.900, 0.000, 137.800, 0.000, 0.000, -3.000, 0.0, , , , , , 99, , , 59, 59, 59
36.6869635, -118.9584839, 37.800, 15:30:26.024, 18, 0.00, 0.62, 97, 1.800, 2.400, 138.000, 1084, 100, 97, 14, 22761, -19772, 4262, 4440, 4, 14, 1523658626.024, 101, 0, 1024, 1024, 1026, 1024, 0, 6, 3773, 3806, 3794, 3791, 3813, 3795, 0, 1, 18000, -89.900, 0.000, 137.800, 0.000, 0.000, -3.000, 0.0, , , , , , 99, , , 59, 59, 59
36.6869635, -118.9584839, 38.100, 15:30:26.125, 18, 0.00, 0.62, 97, 2.100, 2.500, 138.000, 1084, 100, 97, 14, 22761, -19772, 4262, 4440, 4, 14, 1523658626.125, 84, 0, 1024, 1024, 1026, 1024, 0, 6, 3773, 3806, 3794, 3791, 3813, 3795, 0, 1, 18101, -89.900, 0.000, 137.800, 0.000, 0.000, -3.000, 0.0, , , , , , 99, , , 59, 59, 59
36.6869635, -118.9584840, 38.400, 15:30:26.225, 18, 0.00, 0.62, 97, 2.300, 2.600, 138.000, 1084, 100, 97, 14, 22761, -19772, 4262, 4440, 4, 14, 1523658626.226, 48, 0, 1024, 1024, 1026, 1024, 0, 6, 3773, 3806, 3794, 3791, 3813, 3795, 0, 1, 18202, -89.900, 0.000, 137.800, 0.000, 0.000, -3.000, 0.0, , , , , , 99, , , 59, 59, 59
36.6869635, -118.9584840, 38.700, 15:30:26.325, 18, 0.00, 0.61, 96, 2.100, 2.600, 137.900, 1084, 100, 97, 14, 22761, -19772, 4262, 4440, 4, 14, 1523658626.325, 45, 0, 1024, 1024, 1026, 1024, 0, 6, 3773, 3806, 3794, 3791, 3813, 3795, 0, 1, 18301, -89.900, 0.000, 137.800, 0.000, 0.000, -2.900, 0.0, , , , , , 99, , , 59, 59, 59
36.6869635, -118.9584840, 39.000, 15:30:26.425, 18, 0.00, 0.61, 96, 2.000, 2.500, 137.900, 1084, 100, 98, 14, 22761, -19772, 4262, 4440, 4, 14, 1523658626.425, 45, 0, 1024, 1024, 1026, 1024, 0, 6, 3773, 3806, 3794, 3791, 3813, 3795, 0, 1, 18401, -89.900, 0.000, 137.800, 0.000, 0.000, -2.900, 0.0, , , , , , 99, , , 59, 59, 59
36.6869635, -118.9584840, 39.300, 15:30:26.524, 18, 0.00, 0.61, 96, 2.300, 2.500, 137.900, 1084, 100, 98, 14, 22761, -19772, 4262, 4440, 4, 14, 1523658626.525, 14, 0, 1024, 1024, 1026, 1024, 0, 6, 3773, 3806, 3794, 3791, 3813, 3795, 0, 1, 18501, -89.900, 0.000, 137.800, 0.000, 0.000, -2.900, 0.0, , , , , , 99, , , 59, 59, 59
36.6869635, -118.9584840, 39.300, 15:30:26.625, 18, 0.00, 0.61, 96, 2.300, 2.500, 137.900, 1084, 100, 98, 14, 22761, -19772, 4262, 4440, 4, 14, 1523658626.627, 116, 0, 1024, 1024, 1026, 1024, 0, 6, 3773, 3806, 3794, 3791, 3813, 3795, 0, 1, 18602, -89.900, 0.000, 137.800, 0.000, 0.000, -2.900, 0.0, , , , , , 99, , , 59, 59, 59
36.6869634, -118.9584840, 39.900, 15:30:26.725, 17, 0.00, 0.61, 96, 2.300, 2.600, 138.000, 1084, 100, 98, 14, 22761, -19772, 4262, 4440, 4, 14, 1523658626.726, 57, 0, 1024, 1024, 1026, 1024, 0, 6, 3773, 3806, 3794, 3791, 3813, 3795, 0, 1, 18702, -89.900, 0.000, 137.800, 0.000, 0.000, -2.900, 0.0, , , , , , 99, , , 59, 59, 59
36.6869634, -118.9584841, 40.200, 15:30:26.828, 17, 0.00, 0.61, 96, 2.000, 2.800, 137.900, 1084, 100, 98, 14, 22761, -19772, 4262, 4440, 4, 14, 1523658626.829, 11, 0, 1024, 1024, 1026, 1024, 0, 6, 3773, 3806, 3794, 3791, 3813, 3795, 0, 1, 18805, -89.900, 0.000, 137.800, 0.000, 0.000, -2.900, 0.0, , , , , , 99, , , 59, 59, 59
36.6869634, -118.9584841, 40.200, 15:30:26.927, 17, 0.00, 0.61, 96, 2.000, 2.800, 137.900, 1084, 100, 98, 14, 22879, -18377, 4262, 4440, 4, 14, 1523658626.929, 111, 0, 1024, 1024, 1026, 1024, 0, 6, 3773, 3806, 3794, 3791, 3813, 3795, 0, 1, 18904, -89.900, 0.000, 137.800, 0.000, 0.000, -2.900, 0.0, , , , , , 99, , , 59, 59, 59
36.6869633, -118.9584841, 40.800, 15:30:27.024, 17, 0.00, 0.61, 96, 1.600, 2.900, 137.900, 1084, 100, 100, 14, 22879, -18377, 4262, 4440, 4, 14, 1523658627.026, 16, 0, 1024, 1024, 1026, 1024, 0, 6, 3773, 3806, 3794, 3791, 3813, 3795, 0, 1, 19004, -89.900, 0.000, 137.800, 0.000, 0.000, -2.900, 0.0, , , , , , 99, , , 59, 59, 59
36.6869633, -118.9584841, 40.800, 15:30:27.125, 17, 0.00, 0.61, 96, 1.600, 2.900, 137.900, 1084, 100, 100, 14, 22879, -18377, 4262, 4440, 4, 14, 1523658627.126, 116, 0, 1024, 1024, 1026, 1024, 0, 6, 3803, 3814, 3811, 3811, 3833, 3809, 0, 1, 19102, -89.900, 0.000, 137.800, 0.000, 0.000, -2.900, 0.0, , , , , , 99, , , 59, 59, 59
36.6869633, -118.9584840, 41.100, 15:30:27.226, 17, 0.00, 0.61, 96, 1.900, 2.900, 137.900, 1084, 100, 100, 14, 22879, -18377, 4262, 4440, 4, 14, 1523658627.227, 15, 0, 1024, 1024, 1027, 1024, 0, 6, 3803, 3814, 3811, 3811, 3833, 3809, 0, 1, 19203, -89.900, 0.000, 137.800, 0.000, 0.000, -3.000, 0.0, , , , , , 99, , , 59, 59, 59
36.6869633, -118.9584840, 41.400, 15:30:27.325, 17, 0.00, 0.61, 96, 2.100, 2.900, 137.900, 1084, 100, 100, 14, 22879, -18377, 4262, 4440, 4, 14, 1523658627.326, 30, 0, 1024, 1024, 1026, 1024, 0, 6, 3803, 3814, 3811, 3811, 3833, 3809, 0, 1, 19302, -89.900, 0.000, 137.800, 0.000, 0.000, -3.000, 0.0, , , , , , 99, , , 59, 59, 59
36.6869633, -118.9584840, 41.400, 15:30:27.426, 17, 0.00, 0.61, 96, 2.100, 2.900, 137.900, 1084, 100, 100, 14, 22879, -18377, 4262, 4440, 4, 14, 1523658627.427, 131, 0, 1024, 1024, 1026, 1024, 0, 6, 3803, 3814, 3811, 3811, 3833, 3809, 0, 1, 19403, -89.900, 0.000, 137.800, 0.000, 0.000, -3.000, 0.0, , , , , , 99, , , 59, 59, 59
36.6869633, -118.9584840, 41.700, 15:30:27.524, 17, 0.00, 0.61, 96, 2.300, 3.200, 137.900, 1084, 100, 100, 14, 22879, -18377, 4262, 4440, 4, 14, 1523658627.525, 52, 0, 1024, 1024, 1026, 1024, 0, 6, 3803, 3814, 3811, 3811, 3833, 3809, 0, 1, 19501, -89.900, 0.000, 137.800, 0.000, 0.000, -3.000, 0.0, , , , , , 99, , , 59, 59, 59
36.6869632, -118.9584840, 42.000, 15:30:27.625, 17, 0.00, 0.61, 96, 2.200, 3.600, 137.800, 1084, 100, 100, 14, 22879, -18377, 4262, 4440, 4, 14, 1523658627.626, 53, 0, 1024, 1024, 1026, 1024, 0, 6, 3803, 3814, 3811, 3811, 3833, 3809, 0, 1, 19602, -89.900, 0.000, 137.800, 0.000, 0.000, -3.000, 0.0, , , , , , 99, , , 59, 59, 59
36.6869632, -118.9584839, 42.300, 15:30:27.725, 17, 0.00, 0.61, 96, 2.000, 3.800, 137.800, 1084, 100, 100, 14, 22879, -18377, 4262, 4440, 4, 14, 1523658627.725, 41, 0, 1024, 1024, 1027, 1024, 0, 6, 3803, 3814, 3811, 3811, 3833, 3809, 0, 1, 19701, -89.900, 0.000, 137.800, 0.000, 0.000, -2.900, 0.0, , , , , , 99, , , 59, 59, 59
36.6869631, -118.9584840, 42.600, 15:30:27.825, 17, 0.00, 0.61, 96, 1.800, 3.700, 137.800, 1084, 100, 100, 14, 22879, -18377, 4262, 4440, 4, 14, 1523658627.826, 27, 0, 1024, 1024, 1026, 1024, 0, 6, 3803, 3814, 3811, 3811, 3833, 3809, 0, 1, 19802, -89.900, 0.000, 137.800, 0.000, 0.000, -2.900, 0.0, , , , , , 99, , , 59, 59, 59
36.6869631, -118.9584840, 42.900, 15:30:27.948, 17, 0.00, 0.61, 96, 1.500, 3.500, 137.800, 1084, 100, 100, 14, 22879, -18377, 4262, 4440, 4, 14, 1523658627.949, 5, 0, 1024, 1024, 1026, 1024, 0, 6, 3803, 3814, 3811, 3811, 3833, 3809, 0, 1, 19925, -89.900, 0.000, 137.800, 0.000, 0.000, -2.900, 0.0, , , , , , 99, , , 59, 59, 59
36.6869631, -118.9584840, 42.900, 15:30:28.026, 17, 0.00, 0.61, 96, 1.500, 3.500, 137.800, 1084, 100, 100, 14, 22820, -19057, 4262, 4440, 4, 14, 1523658628.027, 83, 0, 1024, 1024, 1026, 1024, 0, 6, 3803, 3814, 3811, 3811, 3833, 3809, 0, 1, 20003, -90.000, 0.000, 137.800, 0.000, 0.000, -2.900, 0.0, , , , , , 99, , , 59, 59, 59
36.6869630, -118.9584841, 43.500, 15:30:28.125, 18, 0.00, 0.60, 96, 1.300, 2.900, 137.800, 1084, 100, 99, 14, 22820, -19057, 4262, 4440, 4, 14, 1523658628.126, 47, 0, 1024, 1024, 1026, 1024, 0, 6, 3803, 3814, 3811, 3811, 3833, 3809, 0, 1, 20101, -90.000, 0.000, 137.800, 0.000, 0.000, -2.900, 0.0, , , , , , 99, , , 59, 59, 59
36.6869630, -118.9584841, 43.800, 15:30:28.225, 18, 0.00, 0.60, 96, 1.500, 2.700, 137.800, 1084, 100, 99, 14, 22820, -19057, 4262, 4440, 4, 14, 1523658628.225, 43, 0, 1024, 1024, 1026, 1024, 0, 6, 3777, 3802, 3796, 3796, 3823, 3788, 0, 1, 20201, -89.900, 0.000, 137.800, 0.000, 0.000, -2.900, 0.0, , , , , , 99, , , 59, 59, 59
36.6869630, -118.9584840, 44.400, 15:30:28.325, 18, 0.00, 0.61, 96, 1.200, 3.100, 137.800, 1084, 100, 99, 14, 22820, -19057, 4262, 4440, 4, 14, 1523658628.325, 44, 0, 1024, 1024, 1026, 1024, 0, 6, 3777, 3802, 3796, 3796, 3823, 3788, 0, 1, 20301, -89.900, 0.000, 137.800, 0.000, 0.000, -3.000, 0.0, , , , , , 99, , , 59, 59, 59
36.6869629, -118.9584840, 44.700, 15:30:28.425, 18, 0.00, 0.61, 96, 1.100, 3.300, 137.600, 1084, 100, 99, 14, 22820, -19057, 4262, 4440, 4, 14, 1523658628.426, 55, 0, 1024, 1024, 1026, 1024, 0, 6, 3777, 3802, 3796, 3796, 3823, 3788, 0, 1, 20401, -89.900, 0.000, 137.800, 0.000, 0.000, -3.000, 0.0, , , , , , 99, , , 59, 59, 59
36.6869629, -118.9584840, 45.300, 15:30:28.525, 17, 0.00, 0.61, 96, 1.300, 3.200, 137.400, 1084, 100, 98, 14, 22820, -19057, 4262, 4440, 4, 14, 1523658628.525, 8, 0, 1024, 1024, 1027, 1024, 0, 6, 3777, 3802, 3796, 3796, 3823, 3788, 0, 1, 20501, -89.900, 0.000, 137.800, 0.000, 0.000, -3.000, 0.0, , , , , , 99, , , 59, 59, 59
36.6869629, -118.9584840, 45.700, 15:30:28.625, 17, 0.00, 0.61, 96, 1.500, 3.200, 137.300, 1084, 100, 98, 14, 22820, -19057, 4262, 4440, 4, 14, 1523658628.625, 45, 0, 1024, 1024, 1026, 1024, 0, 6, 3777, 3802, 3796, 3796, 3823, 3788, 0, 1, 20601, -89.900, 0.000, 137.800, 0.000, 0.000, -3.000, 0.0, , , , , , 99, , , 59, 59, 59
36.6869628, -118.9584840, 46.000, 15:30:28.725, 17, 0.00, 0.61, 96, 1.700, 3.400, 137.400, 1084, 100, 98, 14, 22820, -19057, 4262, 4440, 4, 14, 1523658628.725, 35, 0, 1024, 1024, 1026, 1024, 0, 6, 3777, 3802, 3796, 3796, 3823, 3788, 0, 1, 20701, -89.900, 0.000, 137.800, 0.000, 0.000, -2.900, 0.0, , , , , , 99, , , 59, 59, 59
36.6869628, -118.9584839, 46.200, 15:30:28.825, 17, 0.00, 0.62, 96, 1.900, 3.900, 137.600, 1084, 100, 98, 14, 22731, -19744, 4262, 4440, 4, 14, 1523658628.825, 48, 0, 1024, 1024, 1026, 1024, 0, 6, 3772, 3780, 3783, 3790, 3791, 3783, 0, 1, 20801, -89.900, 0.000, 137.800, 0.000, 0.000, -2.900, 0.0, , , , , , 99, , , 59, 59, 59
36.6869627, -118.9584839, 46.900, 15:30:28.925, 17, 0.00, 0.62, 96, 1.300, 4.100, 138.100, 1084, 100, 95, 14, 22731, -19744, 4262, 4440, 4, 14, 1523658628.926, 52, 0, 1024, 1024, 1027, 1024, 0, 6, 3772, 3780, 3783, 3790, 3791, 3783, 0, 1, 20902, -89.900, 0.000, 137.800, 0.000, 0.000, -2.900, 0.0, , , , , , 99, , , 59, 59, 59
