latitude,longitude,altitude(feet),ascent(feet),speed(mph),distance(feet),time(millisecond),datetime(utc),satellites,gpslevel,voltage(v),max_altitude(feet),max_ascent(feet),max_speed(mph),max_distance(feet), xSpeed(mph), ySpeed(mph), zSpeed(mph), compass_heading(degrees), pitch(degrees), roll(degrees),isPhoto,isVideo,rc_elevator,rc_aileron,rc_throttle,rc_rudder,gimbal_heading(degrees),gimbal_pitch(degrees),battery_percent,voltageCell1,voltageCell2,voltageCell3,voltageCell4,voltageCell5,voltageCell6,current(A),battery_temperature(f),flycStateRaw,flycState,message
36.6440477,-118.9467532,4806.5444202136,0.328084,0,0,3200,2018-04-13 17:56:44,16,0,0,4806.5444202136,0.328084,0,0,0,0,0,13.9, 0.1, 0.3,1,0,1024,1024,1024,1024,12.3,-89.9,100,4.158,4.149,4.167,4.165,0,0,0,66.2,11,AutoTakeoff,
36.6440479,-118.9467531,4806.5444202136,0.328084,0.223694,0.078623034012,3300,2018-04-13 17:56:44,15,0,0,4806.5444202136,0.328084,0.223694,0.078623034012,0,0,0,13.9, 0.5, 0.1,0,0,1024,1024,1024,1024,12.3,-89.9,100,4.158,4.149,4.167,4.165,0,0,0,66.2,11,AutoTakeoff,
36.6440479,-118.9467531,4806.5444202136,0.328084,0,0.078623034012,3400,2018-04-13 17:56:44,15,0,0,4806.5444202136,0.328084,0.223694,0.078623034012,0,0,0,13.8, 0.7, 0.1,0,0,1024,1024,1024,1024,12.3,-89.9,100,4.158,4.149,4.167,4.165,0,0,0,66.2,11,AutoTakeoff,
36.644048,-118.946753,4806.8725042136,0.656168,0,0.124129925232,3500,2018-04-13 17:56:45,14,0,0,4806.8725042136,0.656168,0.223694,0.124129925232,0,0,0,13.7, 1, -0.2,0,0,1024,1024,1024,1024,12.3,-89.9,100,4.158,4.149,4.167,4.165,0,0,0,66.2,11,AutoTakeoff,
36.6440481,-118.9467529,4806.8725042136,0.656168,0,0.17032644902,3600,2018-04-13 17:56:45,14,0,0,4806.8725042136,0.656168,0.223694,0.17032644902,0,0,0,13.7, 1.2, -0.6,0,0,1024,1024,1024,1024,12.4,-89.9,100,4.158,4.149,4.167,4.165,0,0,0,66.2,11,AutoTakeoff,
36.6440483,-118.9467528,4807.2005882136,0.984252,0,0.248259850464,3700,2018-04-13 17:56:45,15,0,0,4807.2005882136,0.984252,0.223694,0.248259850464,0,0,0,13.7, 1.2, -0.7,0,0,1024,1024,1024,1024,12.4,-89.9,100,4.158,4.149,4.167,4.165,0,0,0,66.2,11,AutoTakeoff,
36.6440484,-118.9467528,4807.2005882136,0.984252,0,0.280958998492,3800,2018-04-13 17:56:45,15,0,0,4807.2005882136,0.984252,0.223694,0.280958998492,0,0,0,13.8, 1.2, -0.7,0,0,1024,1024,1024,1024,12.4,-89.9,100,4.158,4.149,4.167,4.165,0,0,0,66.2,11,AutoTakeoff,
36.6440484,-118.9467528,4807.5286722136,1.312336,0,0.280958998492,3900,2018-04-13 17:56:45,16,0,0,4807.5286722136,1.312336,0.223694,0.280958998492,0,0,0,13.8, 1.3, -0.6,0,0,1024,1024,1024,1024,12.4,-89.9,100,4.158,4.149,4.167,4.165,0,0,0,66.2,11,AutoTakeoff,
36.6440485,-118.9467527,4807.5286722136,1.312336,0,0.32652396058,4000,2018-04-13 17:56:45,16,0,25.259,4807.5286722136,1.312336,0.223694,0.32652396058,0,0,0,13.8, 1.4, -0.5,0,0,1024,1024,1024,1024,12.4,-89.9,100,4.158,4.149,4.167,4.165,0,0,4.356,66.2,11,AutoTakeoff,
36.6440486,-118.9467527,4807.8567562136,1.64042,0,0.35951116636,4100,2018-04-13 17:56:45,16,0,25.259,4807.8567562136,1.64042,0.223694,0.35951116636,0,0,-0.223694,13.7, 1.7, -0.4,0,0,1024,1024,1024,1024,12.5,-89.9,100,4.158,4.149,4.167,4.165,0,0,4.356,66.2,11,AutoTakeoff,
36.6440488,-118.9467527,4807.8567562136,1.64042,0,0.42719161472,4200,2018-04-13 17:56:45,16,0,25.259,4807.8567562136,1.64042,0.223694,0.42719161472,0,0,-0.223694,13.6, 1.8, -0.4,0,0,1024,1024,1024,1024,12.5,-89.9,100,4.158,4.149,4.167,4.165,0,0,4.356,66.2,11,AutoTakeoff,
36.6440489,-118.9467527,4808.1848402136,1.968504,0,0.46163715388,4300,2018-04-13 17:56:45,15,0,25.259,4808.1848402136,1.968504,0.223694,0.46163715388,0,0,0,13.6, 2, -0.3,0,0,1024,1024,1024,1024,12.5,-89.9,100,4.158,4.149,4.167,4.165,0,0,4.356,66.2,11,AutoTakeoff,
36.6440489,-118.9467527,4808.1848402136,1.968504,0,0.46163715388,4400,2018-04-13 17:56:45,15,0,25.259,4808.1848402136,1.968504,0.223694,0.46163715388,0,0,0,13.5, 2.1, -0.2,0,0,1024,1024,1024,1024,12.5,-89.9,100,4.158,4.149,4.167,4.165,0,0,4.356,66.2,11,AutoTakeoff,
36.644049,-118.9467527,4808.5129242136,2.296588,0,0.4963746878,4600,2018-04-13 17:56:46,13,0,25.259,4808.5129242136,2.296588,0.223694,0.4963746878,0,0,0,13.4, 2, -0.1,0,0,1024,1024,1024,1024,12.5,-89.9,100,4.158,4.149,4.167,4.165,0,0,4.356,66.2,11,AutoTakeoff,
36.6440491,-118.9467527,4808.5129242136,2.296588,0,0.5313484422,4700,2018-04-13 17:56:46,13,0,25.259,4808.5129242136,2.296588,0.223694,0.5313484422,0,0,0,13.3, 1.9, -0.2,0,0,1024,1024,1024,1024,12.6,-89.9,100,4.158,4.149,4.167,4.165,0,0,4.356,66.2,11,AutoTakeoff,
36.6440492,-118.9467527,4808.8410082136,2.624672,0,0.56650920448,4800,2018-04-13 17:56:46,14,0,25.259,4808.8410082136,2.624672,0.223694,0.56650920448,0,0,-0.223694,13.3, 2, -0.1,0,0,1024,1024,1024,1024,12.6,-89.9,100,4.158,4.149,4.167,4.165,0,0,4.356,66.2,11,AutoTakeoff,
36.6440493,-118.9467527,4809.1690922136,2.952756,0,0.60183072792,4900,2018-04-13 17:56:46,14,0,25.259,4809.1690922136,2.952756,0.223694,0.60183072792,0,0,-0.223694,13.3, 2.2, -0.1,0,0,1024,1024,1024,1024,12.6,-89.9,100,4.158,4.149,4.167,4.165,0,0,4.356,66.2,11,AutoTakeoff,
36.6440494,-118.9467527,4809.1690922136,2.952756,0,0.63728020412,5000,2018-04-13 17:56:46,13,0,24.127,4809.1690922136,2.952756,0.223694,0.63728020412,0,0,0,13.4, 2.5, -0.1,0,0,1024,1024,1024,1024,12.6,-89.9,98,3.996,3.978,4.006,3.99,0,0,14.091,66.2,14,Waypoint,
36.6440494,-118.9467526,4809.1690922136,2.952756,0,0.6446358474,5100,2018-04-13 17:56:46,13,0,24.127,4809.1690922136,2.952756,0.223694,0.6446358474,0,0,0,13.4, 2.2, -0.1,0,0,1024,1024,1024,1024,12.6,-90,98,3.996,3.978,4.006,3.99,0,0,14.091,66.2,14,Waypoint,
36.6440494,-118.9467525,4809.4971762136,3.28084,0,0.65321852484,5200,2018-04-13 17:56:46,15,0,24.127,4809.4971762136,3.28084,0.223694,0.65321852484,0,0,0,13.4, 1.1, -0.4,0,0,1024,1024,1024,1024,12.6,-90,98,3.996,3.978,4.006,3.99,0,0,14.091,66.2,14,Waypoint,
36.6440494,-118.9467524,4809.8252602136,3.608924,0,0.66298558552,5300,2018-04-13 17:56:46,16,0,24.127,4809.8252602136,3.608924,0.223694,0.66298558552,0,0,0,13.4, 0.3, -0.6,0,0,1024,1024,1024,1024,12.6,-90,98,3.996,3.978,4.006,3.99,0,0,14.091,66.2,14,Waypoint,
36.6440495,-118.9467523,4809.8252602136,3.608924,0,0.70760829036,5400,2018-04-13 17:56:46,16,0,24.127,4809.8252602136,3.608924,0.223694,0.70760829036,0,0,-0.223694,13.4, 0.4, -0.7,0,0,1024,1024,1024,1024,12.6,-89.9,98,3.996,3.978,4.006,3.99,0,0,14.091,66.2,14,Waypoint,
36.6440496,-118.9467522,4810.1533442136,3.937008,0,0.75249018156,5500,2018-04-13 17:56:47,16,0,24.127,4810.1533442136,3.937008,0.223694,0.75249018156,0,0,-0.223694,13.4, 0.8, -0.8,0,0,1024,1024,1024,1024,12.6,-89.9,98,3.996,3.978,4.006,3.99,0,0,14.091,66.2,14,Waypoint,
36.6440497,-118.9467522,4810.1533442136,3.937008,0,0.78623034012,5600,2018-04-13 17:56:47,16,0,24.127,4810.1533442136,3.937008,0.223694,0.78623034012,0,0,-0.223694,13.5, 1.2, -0.8,0,0,1024,1024,1024,1024,12.6,-89.9,98,3.996,3.978,4.006,3.99,0,0,14.091,66.2,14,Waypoint,
36.6440498,-118.9467521,4810.4814282136,4.265092,0,0.8311023888,5700,2018-04-13 17:56:47,16,0,24.127,4810.4814282136,4.265092,0.223694,0.8311023888,0,0,-0.223694,13.5, 1.5, -0.7,0,0,1024,1024,1024,1024,12.6,-89.9,98,3.996,3.978,4.006,3.99,0,0,14.091,66.2,14,Waypoint,
36.6440499,-118.9467521,4811.1375962136,4.92126,0,0.86485238988,5800,2018-04-13 17:56:47,16,0,24.127,4811.1375962136,4.92126,0.223694,0.86485238988,0,0,-0.223694,13.6, 1.7, -0.6,0,0,1024,1024,1024,1024,12.6,-89.9,98,3.996,3.978,4.006,3.99,0,0,14.091,66.2,14,Waypoint,
36.64405,-118.9467522,4811.4656802136,5.249344,0,0.88875002844,5900,2018-04-13 17:56:47,17,0,24.127,4811.4656802136,5.249344,0.223694,0.88875002844,0,0,-0.223694,13.6, 1.8, -0.5,0,0,1024,1024,1024,1024,12.6,-89.9,98,3.996,3.978,4.006,3.99,0,0,14.091,66.2,14,Waypoint,
36.6440502,-118.9467522,4811.7937642136,5.577428,0,0.95794950572,6000,2018-04-13 17:56:47,17,0,23.778,4811.7937642136,5.577428,0.223694,0.95794950572,0,0,-0.447388,13.7, 1.9, -0.4,0,0,1024,1024,1024,1024,12.6,-89.9,98,3.957,3.945,3.954,3.945,0,0,16.166,66.2,14,Waypoint,
36.6440503,-118.9467523,4812.4499322136,6.233596,0,0.98451774804,6100,2018-04-13 17:56:47,17,0,23.778,4812.4499322136,6.233596,0.223694,0.98451774804,0,0,-0.447388,13.7, 1.9, -0.2,0,0,1024,1024,1024,1024,12.6,-89.9,98,3.957,3.945,3.954,3.945,0,0,16.166,66.2,14,Waypoint,
36.6440503,-118.9467525,4813.1061002136,6.889764,0,0.9704888762,6210,2018-04-13 17:56:47,17,0,23.778,4813.1061002136,6.889764,0.223694,0.98451774804,0,0,-0.447388,13.6, 1.9, 0,0,0,1024,1024,1024,1024,12.6,-89.9,98,3.957,3.945,3.954,3.945,0,0,16.166,66.2,14,Waypoint,
36.6440502,-118.9467526,4813.7622682136,7.545932,0,0.92888126332,6300,2018-04-13 17:56:47,16,0,23.778,4813.7622682136,7.545932,0.223694,0.98451774804,0,0,-0.447388,13.7, 1.7, 0.3,0,0,1024,1024,1024,1024,12.6,-89.9,98,3.957,3.945,3.954,3.945,0,0,16.166,66.2,14,Waypoint,
36.6440501,-118.9467527,4814.7465202136,8.530184,0,0.88778874232,6400,2018-04-13 17:56:47,16,0,23.778,4814.7465202136,8.530184,0.223694,0.98451774804,0,0,-0.447388,13.7, 1.3, 0.5,0,0,1024,1024,1024,1024,12.6,-89.9,98,3.957,3.945,3.954,3.945,0,0,16.166,66.2,14,Waypoint,
36.64405,-118.9467527,4815.7307722136,9.514436,0,0.85182417424,6600,2018-04-13 17:56:48,15,0,23.778,4815.7307722136,9.514436,0.223694,0.98451774804,0,0,-0.671082,13.7, 0.9, 0.4,0,0,1024,1024,1024,1024,12.6,-90,98,3.957,3.945,3.954,3.945,0,0,16.166,66.2,14,Waypoint,
36.6440498,-118.9467528,4816.7150242136,10.498688,0,0.77507876496,6700,2018-04-13 17:56:48,15,0,23.778,4816.7150242136,10.498688,0.223694,0.98451774804,0,0,-0.671082,13.7, 0.5, 0.2,0,0,1024,1024,1024,1024,12.6,-90,98,3.957,3.945,3.954,3.945,0,0,16.166,66.2,14,Waypoint,
36.6440496,-118.9467529,4817.6992762136,11.48294,0,0.6987533032,6800,2018-04-13 17:56:48,17,0,23.778,4817.6992762136,11.48294,0.223694,0.98451774804,0,0,-0.671082,13.7, 0.1, 0.2,0,0,1024,1024,1024,1024,12.6,-90,98,3.957,3.945,3.954,3.945,0,0,16.166,66.2,14,Waypoint,
36.6440494,-118.9467531,4818.6835282136,12.467192,0,0.62093505924,6900,2018-04-13 17:56:48,17,0,23.778,4818.6835282136,12.467192,0.223694,0.98451774804,0,0,-0.671082,13.7, -0.2, 0.3,0,0,1024,1024,1024,1024,12.6,-90,98,3.957,3.945,3.954,3.945,0,0,16.166,66.2,14,Waypoint,
36.6440492,-118.9467532,4819.6677802136,13.451444,0,0.54727363956,7000,2018-04-13 17:56:48,17,0,23.732,4819.6677802136,13.451444,0.223694,0.98451774804,0,0,-0.671082,13.7, -0.5, 0.4,0,0,1024,1024,1024,1024,12.6,-90,98,3.933,3.92,3.961,3.921,0,0,16.166,66.2,14,Waypoint,
36.6440492,-118.9467534,4820.9801162136,14.76378,0,0.55039699924,7100,2018-04-13 17:56:48,17,0,23.732,4820.9801162136,14.76378,0.223694,0.98451774804,0,0,-0.671082,13.6, -0.6, 0.5,0,0,1024,1024,1024,1024,12.6,-90,98,3.933,3.92,3.961,3.921,0,0,16.166,66.2,14,Waypoint,
36.6440491,-118.9467536,4821.9643682136,15.748032,0,0.52403873068,7200,2018-04-13 17:56:48,17,0,23.732,4821.9643682136,15.748032,0.223694,0.98451774804,0,0,-0.671082,13.5, -0.5, 0.5,0,0,1024,1024,1024,1024,12.6,-89.9,98,3.933,3.92,3.961,3.921,0,0,16.166,66.2,14,Waypoint,
36.6440491,-118.9467536,4822.9486202136,16.732284,0,0.52403873068,7300,2018-04-13 17:56:48,17,0,23.732,4822.9486202136,16.732284,0.223694,0.98451774804,0,0,-0.671082,13.5, -0.2, 0.6,0,0,1024,1024,1024,1024,12.6,-89.9,98,3.933,3.92,3.961,3.921,0,0,16.166,66.2,14,Waypoint,
36.6440491,-118.9467534,4825.2452082136,19.028872,0,0.51413387472,7400,2018-04-13 17:56:48,17,0,23.732,4825.2452082136,19.028872,0.223694,0.98451774804,0,0,-0.671082,13.4, 0.4, 0.3,0,0,1024,1024,1024,1024,12.6,-89.9,98,3.933,3.92,3.961,3.921,0,0,16.166,66.2,14,Waypoint,
36.6440492,-118.9467533,4826.5575442136,20.341208,0,0.54805776032,7500,2018-04-13 17:56:49,17,0,23.732,4826.5575442136,20.341208,0.223694,0.98451774804,0,0,-0.671082,13.4, 0.5, 0,0,0,1024,1024,1024,1024,12.6,-89.9,98,3.933,3.92,3.961,3.921,0,0,16.166,66.2,14,Waypoint,
36.6440493,-118.9467532,4827.5417962136,21.32546,0,0.5837598612,7600,2018-04-13 17:56:49,17,0,23.732,4827.5417962136,21.32546,0.223694,0.98451774804,0,0,-0.671082,13.4, 0.7, -0.1,0,0,1024,1024,1024,1024,12.6,-89.9,98,3.933,3.92,3.961,3.921,0,0,16.166,66.2,14,Waypoint,
36.6440495,-118.9467531,4828.5260482136,22.309712,0,0.6573819108,7700,2018-04-13 17:56:49,17,0,23.732,4828.5260482136,22.309712,0.223694,0.98451774804,0,0,-0.671082,13.4, 1.2, -0.2,0,0,1024,1024,1024,1024,12.6,-89.9,98,3.933,3.92,3.961,3.921,0,0,16.166,66.2,14,Waypoint,
36.6440496,-118.9467528,4829.8383842136,23.622048,0,0.7030347994,7800,2018-04-13 17:56:49,17,0,23.732,4829.8383842136,23.622048,0.223694,0.98451774804,0,0,-0.671082,13.3, 1.7, -0.4,0,0,1024,1024,1024,1024,12.6,-89.9,98,3.933,3.92,3.961,3.921,0,0,16.166,66.2,14,Waypoint,
36.6440497,-118.9467526,4830.8226362136,24.6063,0,0.7505413626,7900,2018-04-13 17:56:49,17,0,23.732,4830.8226362136,24.6063,0.223694,0.98451774804,0,0,-0.671082,13.4, 1.9, -0.6,0,0,1024,1024,1024,1024,12.6,-89.9,98,3.933,3.92,3.961,3.921,0,0,16.166,66.2,14,Waypoint,
36.6440499,-118.9467523,4831.8068882136,25.590552,0,0.84480317664,8000,2018-04-13 17:56:49,17,0,23.207,4831.8068882136,25.590552,0.223694,0.98451774804,0,0,-0.671082,13.4, 1.9, -0.8,0,0,1024,1024,1024,1024,12.6,-89.9,98,3.853,3.847,3.831,3.818,0,0,22.497,66.2,14,Waypoint,
36.6440501,-118.9467521,4833.1192242136,26.902888,0,0.9329724708,8100,2018-04-13 17:56:49,17,0,23.207,4833.1192242136,26.902888,0.223694,0.98451774804,0,0,-0.671082,13.4, 2.1, -1,0,0,1024,1024,1024,1024,12.6,-89.9,98,3.853,3.847,3.831,3.818,0,0,22.497,66.2,14,Waypoint,
36.6440503,-118.9467518,4834.1034762136,27.88714,0,1.03335633228,8220,2018-04-13 17:56:49,17,0,23.207,4834.1034762136,27.88714,0.223694,1.03335633228,0,0,-0.671082,13.4, 2.3, -1,0,0,1024,1024,1024,1024,12.6,-89.9,98,3.853,3.847,3.831,3.818,0,0,22.497,66.2,14,Waypoint,
36.6440505,-118.9467516,4835.0877282136,28.871392,0,1.1238353378,8300,2018-04-13 17:56:49,17,0,23.207,4835.0877282136,28.871392,0.223694,1.1238353378,0,0,-0.671082,13.4, 2.4, -1,0,0,1024,1024,1024,1024,12.6,-89.9,98,3.853,3.847,3.831,3.818,0,0,22.497,66.2,14,Waypoint,
36.6440507,-118.9467514,4836.0719802136,29.855644,0,1.2147802226,8400,2018-04-13 17:56:49,17,0,23.207,4836.0719802136,29.855644,0.223694,1.2147802226,0,0,-0.671082,13.4, 2.6, -1,0,0,1024,1024,1024,1024,12.6,-89.9,98,3.853,3.847,3.831,3.818,0,0,22.497,66.2,14,Waypoint,
36.6440509,-118.9467512,4837.0562322136,30.839896,0,1.30609584232,8500,2018-04-13 17:56:50,17,0,23.207,4837.0562322136,30.839896,0.223694,1.30609584232,0,0,-0.671082,13.4, 2.9, -1.2,0,0,1024,1024,1024,1024,12.6,-89.9,98,3.853,3.847,3.831,3.818,0,0,22.497,66.2,14,Waypoint,
36.6440511,-118.9467509,4838.3685682136,32.152232,0,1.4114337722,8610,2018-04-13 17:56:50,17,0,23.207,4838.3685682136,32.152232,0.223694,1.4114337722,0,0,-0.671082,13.4, 3.2, -1.4,0,0,1024,1024,1024,1024,12.6,-89.9,98,3.853,3.847,3.831,3.818,0,0,22.497,66.2,14,Waypoint,
36.6440513,-118.9467506,4839.3528202136,33.136484,0,1.51805122968,8700,2018-04-13 17:56:50,16,0,23.207,4839.3528202136,33.136484,0.223694,1.51805122968,0,0,-0.671082,13.4, 3.4, -1.6,0,0,1024,1024,1024,1024,12.6,-89.9,98,3.853,3.847,3.831,3.818,0,0,22.497,66.2,14,Waypoint,
36.6440515,-118.9467505,4840.3370722136,34.120736,0,1.59590556288,8900,2018-04-13 17:56:50,16,0,23.207,4840.3370722136,34.120736,0.223694,1.59590556288,0,0,-0.671082,13.3, 3.5, -1.7,0,0,1024,1024,1024,1024,12.6,-89.9,98,3.853,3.847,3.831,3.818,0,0,22.497,66.2,14,Waypoint,
36.6440517,-118.9467503,4841.3213242136,35.104988,0,1.68835635324,9000,2018-04-13 17:56:50,16,0,23.33,4841.3213242136,35.104988,0.223694,1.68835635324,0,0,-0.671082,13.3, 3.6, -1.7,0,0,1024,1024,1024,1024,12.6,-89.9,98,3.884,3.876,3.882,3.876,0,0,18.507,66.2,14,Waypoint,
36.644052,-118.9467502,4842.6336602136,36.417324,0,1.7979331284,9100,2018-04-13 17:56:50,16,0,23.33,4842.6336602136,36.417324,0.223694,1.7979331284,0,0,-0.671082,13.2, 3.6, -1.6,0,0,1024,1024,1024,1024,12.6,-89.9,98,3.884,3.876,3.882,3.876,0,0,18.507,66.2,14,Waypoint,
36.6440522,-118.9467501,4843.6179122136,37.401576,0,1.8759350994,9200,2018-04-13 17:56:50,16,0,23.33,4843.6179122136,37.401576,0.223694,1.8759350994,0,0,-0.671082,13.2, 3.7, -1.4,0,0,1024,1024,1024,1024,12.6,-89.9,98,3.884,3.876,3.882,3.876,0,0,18.507,66.2,14,Waypoint,
36.6440524,-118.9467501,4844.6021642136,38.385828,0,1.94011817232,9300,2018-04-13 17:56:50,16,0,23.33,4844.6021642136,38.385828,0.223694,1.94011817232,0,0,-0.671082,13.1, 3.8, -1.1,0,0,1024,1024,1024,1024,12.6,-89.9,98,3.884,3.876,3.882,3.876,0,0,18.507,66.2,14,Waypoint,
36.6440525,-118.94675,4845.5864162136,39.37008,0,1.98607945988,9400,2018-04-13 17:56:50,17,0,23.33,4845.5864162136,39.37008,0.223694,1.98607945988,0,0,-0.671082,13.1, 3.8, -1.1,0,0,1024,1024,1024,1024,12.6,-89.9,98,3.884,3.876,3.882,3.876,0,0,18.507,66.2,14,Waypoint,
36.6440526,-118.94675,4846.5706682136,40.354332,0,2.0183235554,9500,2018-04-13 17:56:51,17,0,23.33,4846.5706682136,40.354332,0.223694,2.0183235554,0,0,-0.671082,13.2, 3.6, -1.1,0,0,1024,1024,1024,1024,12.6,-89.9,98,3.884,3.876,3.882,3.876,0,0,18.507,66.2,14,Waypoint,
36.6440528,-118.94675,4847.5549202136,41.338584,0,2.08323169396,9600,2018-04-13 17:56:51,17,0,23.33,4847.5549202136,41.338584,0.223694,2.08323169396,0,0,-0.671082,13.2, 3.5, -0.9,0,0,1024,1024,1024,1024,12.6,-89.9,98,3.884,3.876,3.882,3.876,0,0,18.507,66.2,14,Waypoint,
36.6440528,-118.94675,4849.5234242136,43.307088,0.223694,2.08323169396,9700,2018-04-13 17:56:51,17,0,23.33,4849.5234242136,43.307088,0.223694,2.08323169396,0,0,-0.671082,13.5, 3.2, -0.8,0,0,1024,1024,1024,1024,12.6,-89.9,98,3.884,3.876,3.882,3.876,0,0,18.507,66.2,14,Waypoint,
36.6440528,-118.9467501,4851.4919282136,45.275592,0.3131716,2.07023300588,9900,2018-04-13 17:56:51,17,0,23.33,4851.4919282136,45.275592,0.3131716,2.08323169396,0,0,-0.671082,13.7, 2.7, -0.7,0,0,1024,1024,1024,1024,12.6,-89.9,98,3.884,3.876,3.882,3.876,0,0,18.507,66.2,14,Waypoint,
36.6440527,-118.9467502,4852.4761802136,46.259844,0.3131716,2.02463589156,10000,2018-04-13 17:56:51,17,0,23.348,4852.4761802136,46.259844,0.3131716,2.08323169396,0,0,-0.671082,13.7, 2.5, -0.5,0,0,1024,1024,1024,1024,12.6,-89.9,98,3.894,3.884,3.885,3.881,0,0,18.186,66.2,14,Waypoint,
36.6440527,-118.9467504,4853.4604322136,47.244096,0.3131716,1.9999344472,10100,2018-04-13 17:56:51,16,0,23.348,4853.4604322136,47.244096,0.3131716,2.08323169396,0,0,-0.671082,13.6, 2.3, -0.3,0,0,1024,1024,1024,1024,12.6,-89.9,98,3.894,3.884,3.885,3.881,0,0,18.186,66.2,14,Waypoint,
36.6440526,-118.9467504,4854.4446842136,48.228348,0.3131716,1.96671266136,10200,2018-04-13 17:56:51,16,0,23.348,4854.4446842136,48.228348,0.3131716,2.08323169396,0,0,-0.671082,13.6, 2.1, -0.3,0,0,1024,1024,1024,1024,12.6,-89.9,98,3.894,3.884,3.885,3.881,0,0,18.186,66.2,14,Waypoint,
36.6440526,-118.9467505,4855.4289362136,49.2126,0.3131716,1.9546916636,10300,2018-04-13 17:56:51,16,0,23.348,4855.4289362136,49.2126,0.3131716,2.08323169396,0,0,-0.671082,13.5, 1.9, -0.3,0,0,1024,1024,1024,1024,12.6,-90,98,3.894,3.884,3.885,3.881,0,0,18.186,66.2,14,Waypoint,
36.6440525,-118.9467505,4856.4131882136,50.196852,0.3131716,1.92138129508,10400,2018-04-13 17:56:51,16,0,23.348,4856.4131882136,50.196852,0.3131716,2.08323169396,0,0,-0.671082,13.4, 1.7, -0.3,0,0,1024,1024,1024,1024,12.6,-90,98,3.894,3.884,3.885,3.881,0,0,18.186,66.2,14,Waypoint,
36.6440524,-118.9467505,4857.3974402136,51.181104,0.223694,1.88818575596,10500,2018-04-13 17:56:52,17,0,23.348,4857.3974402136,51.181104,0.3131716,2.08323169396,0,0,-0.671082,13.4, 1.6, -0.3,0,0,1024,1024,1024,1024,12.6,-90,98,3.894,3.884,3.885,3.881,0,0,18.186,66.2,14,Waypoint,
36.6440522,-118.9467506,4858.3816922136,52.165356,0.223694,1.80966541224,10600,2018-04-13 17:56:52,17,0,23.348,4858.3816922136,52.165356,0.3131716,2.08323169396,0,0,-0.671082,13.4, 1.6, -0.5,0,0,1024,1024,1024,1024,12.6,-89.9,98,3.894,3.884,3.885,3.881,0,0,18.186,66.2,14,Waypoint,
36.6440521,-118.9467506,4859.3659442136,53.149608,0.223694,1.77663063428,10700,2018-04-13 17:56:52,17,0,23.348,4859.3659442136,53.149608,0.3131716,2.08323169396,0,0,-0.671082,13.3, 1.7, -0.5,0,0,1024,1024,1024,1024,12.6,-89.9,98,3.894,3.884,3.885,3.881,0,0,18.186,66.2,14,Waypoint,
36.644052,-118.9467507,4860.3501962136,54.13386,0.223694,1.73115491104,10800,2018-04-13 17:56:52,17,0,23.348,4860.3501962136,54.13386,0.3131716,2.08323169396,0,0,-0.671082,13.2, 1.6, -0.6,0,0,1024,1024,1024,1024,12.6,-89.9,98,3.894,3.884,3.885,3.881,0,0,18.186,66.2,14,Waypoint,
36.6440517,-118.9467508,4862.3187002136,56.102364,0.223694,1.61970805708,11010,2018-04-13 17:56:52,17,0,23.317,4862.3187002136,56.102364,0.3131716,2.08323169396,0,0,-0.671082,13, 1.6, -0.9,0,0,1024,1024,1024,1024,12.6,-90,98,3.883,3.874,3.885,3.869,0,0,18.127,66.2,14,Waypoint,
36.6440516,-118.9467509,4863.3029522136,57.086616,0.223694,1.57417327872,11210,2018-04-13 17:56:52,17,0,23.317,4863.3029522136,57.086616,0.3131716,2.08323169396,0,0,-0.671082,13, 1.5, -1.2,0,0,1024,1024,1024,1024,12.6,-90,98,3.883,3.874,3.885,3.869,0,0,18.127,66.2,14,Waypoint,
36.6440515,-118.946751,4864.2872042136,58.070868,0.223694,1.52871067884,11310,2018-04-13 17:56:52,17,0,23.317,4864.2872042136,58.070868,0.3131716,2.08323169396,0,0,-0.671082,13.1, 1.2, -1.1,0,0,1024,1024,1025,1024,12.6,-90,98,3.883,3.874,3.885,3.869,0,0,18.127,66.2,14,Waypoint,
36.6440513,-118.946751,4865.2714562136,59.05512,0.223694,1.46285437752,11410,2018-04-13 17:56:52,17,0,23.317,4865.2714562136,59.05512,0.3131716,2.08323169396,0,0,-0.671082,13.2, 0.9, -1,0,0,1024,1024,1024,1024,12.6,-90,98,3.883,3.874,3.885,3.869,0,0,18.127,66.2,14,Waypoint,
36.6440512,-118.946751,4866.2557082136,60.039372,0.223694,1.43018705364,11510,2018-04-13 17:56:53,17,0,23.317,4866.2557082136,60.039372,0.3131716,2.08323169396,0,0,-0.671082,13.3, 0.7, -1,0,0,1024,1024,1024,1024,12.6,-90,98,3.883,3.874,3.885,3.869,0,0,18.127,66.2,14,Waypoint,
36.6440511,-118.9467511,4867.2399602136,61.023624,0.223694,1.38446198656,11710,2018-04-13 17:56:53,17,0,23.317,4867.2399602136,61.023624,0.3131716,2.08323169396,0,0,-0.671082,13.4, 0.7, -1,0,0,1024,1024,1024,1024,12.6,-90,98,3.883,3.874,3.885,3.869,0,0,18.127,66.2,14,Waypoint,
36.6440508,-118.9467512,4869.2084642136,62.992128,0.223694,1.27358599876,11810,2018-04-13 17:56:53,17,0,23.317,4869.2084642136,62.992128,0.3131716,2.08323169396,0,0,-0.671082,13.4, 0.7, -1,0,0,1024,1024,1024,1024,12.6,-90,98,3.883,3.874,3.885,3.869,0,0,18.127,66.2,14,Waypoint,
36.6440506,-118.9467513,4870.1927162136,63.97638,0.223694,1.19535108812,11910,2018-04-13 17:56:53,17,0,23.317,4870.1927162136,63.97638,0.3131716,2.08323169396,0,0,-0.671082,13.5, 0.7, -0.9,0,0,1024,1024,1024,1024,12.6,-90,98,3.883,3.874,3.885,3.869,0,0,18.127,66.2,14,Waypoint,
36.6440504,-118.9467515,4871.8331362136,65.6168,0,1.10366473348,12120,2018-04-13 17:56:53,16,0,23.317,4871.8331362136,65.6168,0.3131716,2.08323169396,0,0,-0.671082,13.7, 1.1, -0.7,0,0,1024,1024,1024,1024,12.6,-89.9,98,3.883,3.874,3.885,3.869,0,0,18.127,66.2,14,Waypoint,
36.6440504,-118.9467515,4871.8331362136,65.6168,0,1.10366473348,12210,2018-04-13 17:56:53,16,0,23.317,4871.8331362136,65.6168,0.3131716,2.08323169396,0,0,-0.671082,13.7, 1.1, -0.7,0,0,1024,1024,1024,1024,12.6,-89.9,98,3.883,3.874,3.885,3.869,0,0,18.127,66.2,14,Waypoint,
36.6440503,-118.9467516,4873.8016402136,67.585304,0,1.05794294724,12350,2018-04-13 17:56:53,16,0,23.317,4873.8016402136,67.585304,0.3131716,2.08323169396,0,0,-0.671082,13.6, 1, -0.7,0,0,1024,1024,1024,1024,12.6,-89.9,98,3.883,3.874,3.885,3.869,0,0,18.127,66.2,14,Waypoint,
36.6440503,-118.9467516,4873.8016402136,67.585304,0,1.05794294724,12410,2018-04-13 17:56:53,16,0,23.317,4873.8016402136,67.585304,0.3131716,2.08323169396,0,0,-0.671082,13.6, 1, -0.7,0,0,1024,1024,1024,1024,12.6,-89.9,98,3.883,3.874,3.885,3.869,0,0,18.127,66.2,14,Waypoint,
36.6440503,-118.9467516,4875.1139762136,68.89764,0,1.05794294724,12510,2018-04-13 17:56:54,17,0,23.317,4875.1139762136,68.89764,0.3131716,2.08323169396,0,0,-0.671082,13.5, 1, -0.5,0,0,1024,1024,1024,1024,12.6,-90,98,3.883,3.874,3.885,3.869,0,0,18.127,66.2,14,Waypoint,
36.6440502,-118.9467517,4876.0982282136,69.881892,0,1.01231630536,12610,2018-04-13 17:56:54,17,0,23.317,4876.0982282136,69.881892,0.3131716,2.08323169396,0,0,-0.671082,13.4, 1, -0.5,0,0,1024,1024,1024,1024,12.6,-90,98,3.883,3.874,3.885,3.869,0,0,18.127,66.2,14,Waypoint,
36.6440501,-118.9467517,4877.0824802136,70.866144,0,0.97957024132,12710,2018-04-13 17:56:54,17,0,23.317,4877.0824802136,70.866144,0.3131716,2.08323169396,0,0,-0.671082,13.3, 1, -0.7,0,0,1024,1024,1024,1024,12.6,-90,98,3.883,3.874,3.885,3.869,0,0,18.127,66.2,14,Waypoint,
36.6440501,-118.9467517,4877.7386482136,71.522312,0,0.97957024132,12810,2018-04-13 17:56:54,17,0,23.317,4877.7386482136,71.522312,0.3131716,2.08323169396,0,0,-0.671082,13.3, 1.2, -0.7,0,0,1024,1024,1024,1024,12.6,-89.9,98,3.883,3.874,3.885,3.869,0,0,18.127,66.2,14,Waypoint,
36.64405,-118.9467518,4878.7229002136,72.506564,0,0.93388782516,13010,2018-04-13 17:56:54,17,0,23.305,4878.7229002136,72.506564,0.3131716,2.08323169396,0,0,-0.671082,13.3, 1.3, -0.6,0,0,1024,1024,1024,1024,12.6,-89.9,98,3.88,3.87,3.87,3.867,0,0,18.251,66.2,14,Waypoint,
36.64405,-118.9467518,4879.7071522136,73.490816,0,0.93388782516,13100,2018-04-13 17:56:54,17,0,23.305,4879.7071522136,73.490816,0.3131716,2.08323169396,0,0,-0.671082,13.3, 1.3, -0.5,0,0,1024,1024,1024,1024,12.6,-89.9,98,3.88,3.87,3.87,3.867,0,0,18.251,66.2,14,Waypoint,
36.64405,-118.9467518,4880.6914042136,74.475068,0,0.93388782516,13200,2018-04-13 17:56:54,17,0,23.305,4880.6914042136,74.475068,0.3131716,2.08323169396,0,0,-0.671082,13.4, 1.4, -0.6,0,0,1024,1024,1024,1024,12.6,-89.9,98,3.88,3.87,3.87,3.867,0,0,18.251,66.2,14,Waypoint,
36.6440499,-118.9467519,4882.6599082136,76.443572,0,0.88831695756,13300,2018-04-13 17:56:54,17,0,23.305,4882.6599082136,76.443572,0.3131716,2.08323169396,0,0,-0.671082,13.4, 1.3, -0.4,0,0,1024,1024,1024,1024,12.6,-89.9,98,3.88,3.87,3.87,3.867,0,0,18.251,66.2,14,Waypoint,
36.6440499,-118.946752,4884.6284122136,78.412076,0,0.87617456872,13420,2018-04-13 17:56:54,17,0,23.305,4884.6284122136,78.412076,0.3131716,2.08323169396,0,0,-0.671082,13.1, 1.3, -0.3,0,0,1024,1024,1024,1024,12.6,-90,98,3.88,3.87,3.87,3.867,0,0,18.251,66.2,14,Waypoint,
36.6440499,-118.946752,4885.6126642136,79.396328,0,0.87617456872,13500,2018-04-13 17:56:55,17,0,23.305,4885.6126642136,79.396328,0.3131716,2.08323169396,0,0,-0.671082,13, 1.2, -0.6,0,0,1024,1024,1024,1024,12.6,-90,98,3.88,3.87,3.87,3.867,0,0,18.251,66.2,14,Waypoint,
36.6440499,-118.946752,4886.5969162136,80.38058,0,0.87617456872,13600,2018-04-13 17:56:55,17,0,23.305,4886.5969162136,80.38058,0.3131716,2.08323169396,0,0,-0.671082,13, 1.2, -0.7,0,0,1024,1024,1024,1024,12.6,-89.9,98,3.88,3.87,3.87,3.867,0,0,18.251,66.2,14,Waypoint,
36.6440499,-118.9467521,4887.5811682136,81.364832,0,0.86485238988,13700,2018-04-13 17:56:55,17,0,23.305,4887.5811682136,81.364832,0.3131716,2.08323169396,0,0,-0.671082,13, 1.3, -0.6,0,0,1024,1024,1024,1024,12.6,-89.9,98,3.88,3.87,3.87,3.867,0,0,18.251,66.2,14,Waypoint,
36.6440499,-118.9467521,4888.5654202136,82.349084,0,0.86485238988,13800,2018-04-13 17:56:55,17,0,23.305,4888.5654202136,82.349084,0.3131716,2.08323169396,0,0,-0.671082,13.2, 1.4, -0.5,0,0,1024,1024,1024,1024,12.6,-89.9,98,3.88,3.87,3.87,3.867,0,0,18.251,66.2,14,Waypoint,
36.6440499,-118.9467521,4889.5496722136,83.333336,0,0.86485238988,13900,2018-04-13 17:56:55,17,0,23.305,4889.5496722136,83.333336,0.3131716,2.08323169396,0,0,-0.671082,13.3, 1.5, -0.3,0,0,1024,1024,1024,1024,12.6,-89.9,98,3.88,3.87,3.87,3.867,0,0,18.251,66.2,14,Waypoint,
36.6440499,-118.9467522,4890.5339242136,84.317588,0,0.85438651028,14000,2018-04-13 17:56:55,17,0,23.255,4890.5339242136,84.317588,0.3131716,2.08323169396,0,0,-0.671082,13.5, 1.5, -0.3,0,0,1024,1024,1024,1024,12.6,-89.9,98,3.866,3.86,3.865,3.863,0,0,18.401,66.2,14,Waypoint,
36.6440499,-118.9467522,4891.5181762136,85.30184,0,0.85438651028,14100,2018-04-13 17:56:55,17,0,23.255,4891.5181762136,85.30184,0.3131716,2.08323169396,0,0,-0.671082,13.6, 1.5, -0.4,0,0,1024,1024,1024,1024,12.6,-89.9,98,3.866,3.86,3.865,3.863,0,0,18.401,66.2,14,Waypoint,
36.64405,-118.9467522,4892.5024282136,86.286092,0,0.88875002844,14200,2018-04-13 17:56:55,17,0,23.255,4892.5024282136,86.286092,0.3131716,2.08323169396,0,0,-0.671082,13.7, 1.6, -0.3,0,0,1024,1024,1024,1024,12.6,-89.9,98,3.866,3.86,3.865,3.863,0,0,18.401,66.2,14,Waypoint,
36.6440501,-118.9467523,4894.4709322136,88.254596,0,0.91441603976,14300,2018-04-13 17:56:55,17,0,23.255,4894.4709322136,88.254596,0.3131716,2.08323169396,0,0,-0.671082,13.7, 1.7, 0,0,0,1024,1024,1024,1024,12.6,-89.9,98,3.866,3.86,3.865,3.863,0,0,18.401,66.2,14,Waypoint,
36.6440501,-118.9467523,4895.4551842136,89.238848,0,0.91441603976,14400,2018-04-13 17:56:55,17,0,23.255,4895.4551842136,89.238848,0.3131716,2.08323169396,0,0,-0.671082,13.6, 1.8, 0.1,0,0,1024,1024,1024,1024,12.6,-89.9,98,3.866,3.86,3.865,3.863,0,0,18.401,66.2,14,Waypoint,
36.6440502,-118.9467523,4896.4394362136,90.2231,0,0.94941276004,14500,2018-04-13 17:56:56,17,0,23.255,4896.4394362136,90.2231,0.3131716,2.08323169396,0,0,-0.671082,13.5, 1.9, 0.2,0,0,1024,1024,1024,1024,12.6,-89.9,98,3.866,3.86,3.865,3.863,0,0,18.401,66.2,14,Waypoint,
36.6440502,-118.9467523,4897.4236882136,91.207352,0,0.94941276004,14600,2018-04-13 17:56:56,17,0,23.255,4897.4236882136,91.207352,0.3131716,2.08323169396,0,0,-0.671082,13.4, 1.9, 0.1,0,0,1024,1024,1024,1024,12.6,-90,98,3.866,3.86,3.865,3.863,0,0,18.401,66.2,14,Waypoint,
36.6440503,-118.9467523,4898.4079402136,92.191604,0,0.98451774804,14700,2018-04-13 17:56:56,17,0,23.255,4898.4079402136,92.191604,0.3131716,2.08323169396,0,0,-0.671082,13.3, 1.9, 0,0,0,1024,1024,1024,1024,12.6,-89.9,98,3.866,3.86,3.865,3.863,0,0,18.401,66.2,14,Waypoint,
36.6440503,-118.9467523,4899.3921922136,93.175856,0,0.98451774804,14800,2018-04-13 17:56:56,17,0,23.255,4899.3921922136,93.175856,0.3131716,2.08323169396,0,0,-0.671082,13.2, 2.1, 0,0,0,1024,1024,1024,1024,12.6,-89.9,98,3.866,3.86,3.865,3.863,0,0,18.401,66.2,14,Waypoint,
36.6440504,-118.9467523,4900.3764442136,94.160108,0,1.0197178804,14900,2018-04-13 17:56:56,17,0,23.255,4900.3764442136,94.160108,0.3131716,2.08323169396,0,0,-0.671082,13, 2.1, 0,0,0,1024,1024,1024,1024,12.6,-89.9,98,3.866,3.86,3.865,3.863,0,0,18.401,66.2,14,Waypoint,
36.6440505,-118.9467523,4901.3606962136,95.14436,0,1.05500659544,15000,2018-04-13 17:56:56,17,0,23.197,4901.3606962136,95.14436,0.3131716,2.08323169396,0,0,-0.671082,12.8, 2.1, 0,0,0,1024,1024,1024,1024,12.6,-89.9,97,3.859,3.851,3.862,3.859,0,0,18.23,66.2,14,Waypoint,
36.6440505,-118.9467522,4903.3292002136,97.112864,0,1.06269360356,15200,2018-04-13 17:56:56,17,0,23.197,4903.3292002136,97.112864,0.3131716,2.08323169396,0,0,-0.671082,12.9, 2.3, -0.3,0,0,1024,1024,1024,1024,12.6,-89.9,97,3.859,3.851,3.862,3.859,0,0,18.23,66.2,14,Waypoint,
36.6440506,-118.9467522,4904.3134522136,98.097116,0,1.09781499576,15300,2018-04-13 17:56:56,17,0,23.197,4904.3134522136,98.097116,0.3131716,2.08323169396,0,0,-0.671082,13.2, 2.4, -0.6,0,0,1024,1024,1024,1024,12.6,-89.9,97,3.859,3.851,3.862,3.859,0,0,18.23,66.2,14,Waypoint,
36.6440506,-118.9467521,4905.2977042136,99.081368,0,1.10598100652,15420,2018-04-13 17:56:56,17,0,23.197,4905.2977042136,99.081368,0.3131716,2.08323169396,0,0,-0.671082,13.4, 2.4, -0.8,0,0,1024,1024,1024,1024,12.6,-89.9,97,3.859,3.851,3.862,3.859,0,0,18.23,66.2,14,Waypoint,
36.6440506,-118.9467521,4905.2977042136,99.081368,0,1.10598100652,15500,2018-04-13 17:56:57,17,0,23.197,4905.2977042136,99.081368,0.3131716,2.08323169396,0,0,-0.671082,13.4, 2.4, -0.8,0,0,1024,1024,1024,1024,12.6,-89.9,97,3.859,3.851,3.862,3.859,0,0,18.23,66.2,14,Waypoint,
36.6440507,-118.946752,4907.2662082136,101.049872,0,1.14953743836,15700,2018-04-13 17:56:57,17,0,23.197,4907.2662082136,101.049872,0.3131716,2.08323169396,0,0,-0.671082,13.8, 2.1, -0.6,0,0,1024,1024,1024,1024,12.6,-89.9,97,3.859,3.851,3.862,3.859,0,0,18.23,66.2,14,Waypoint,
36.6440508,-118.946752,4908.2504602136,102.034124,0,1.18433074656,15800,2018-04-13 17:56:57,17,0,23.197,4908.2504602136,102.034124,0.3131716,2.08323169396,0,0,-0.671082,13.8, 2.2, -0.6,0,0,1024,1024,1024,1024,12.6,-89.9,97,3.859,3.851,3.862,3.859,0,0,18.23,66.2,14,Waypoint,
36.6440508,-118.946752,4909.2347122136,103.018376,0,1.18433074656,15900,2018-04-13 17:56:57,17,0,23.197,4909.2347122136,103.018376,0.3131716,2.08323169396,0,0,-0.671082,13.7, 2.5, -0.6,0,0,1024,1024,1024,1024,12.6,-89.9,97,3.859,3.851,3.862,3.859,0,0,18.23,66.2,14,Waypoint,
36.6440509,-118.946752,4910.2189642136,104.002628,0,1.21922247996,16000,2018-04-13 17:56:57,17,0,23.264,4910.2189642136,104.002628,0.3131716,2.08323169396,0,0,-0.671082,13.5, 2.7, -0.4,0,0,1024,1024,1024,1024,12.6,-89.9,97,3.88,3.869,3.872,3.859,0,0,17.92,66.2,14,Waypoint,
36.6440509,-118.946752,4911.2032162136,104.98688,0,1.21922247996,16100,2018-04-13 17:56:57,17,0,23.264,4911.2032162136,104.98688,0.3131716,2.08323169396,0,0,-0.671082,13.3, 2.7, -0.3,0,0,1024,1024,1024,1024,12.6,-89.9,97,3.88,3.869,3.872,3.859,0,0,17.92,66.2,14,Waypoint,
36.644051,-118.9467519,4912.1874682136,105.971132,0,1.26271657584,16200,2018-04-13 17:56:57,17,0,23.264,4912.1874682136,105.971132,0.3131716,2.08323169396,0,0,-0.671082,13.2, 2.9, -0.2,0,0,1024,1024,1024,1024,12.6,-89.9,97,3.88,3.869,3.872,3.859,0,0,17.92,66.2,14,Waypoint,
36.644051,-118.9467519,4913.1717202136,106.955384,0,1.26271657584,16300,2018-04-13 17:56:57,17,0,23.264,4913.1717202136,106.955384,0.3131716,2.08323169396,0,0,-0.671082,13.1, 2.9, -0.4,0,0,1024,1024,1024,1024,12.6,-89.9,97,3.88,3.869,3.872,3.859,0,0,17.92,66.2,14,Waypoint,
36.644051,-118.9467518,4914.1559722136,107.939636,0,1.27184387272,16400,2018-04-13 17:56:57,17,0,23.264,4914.1559722136,107.939636,0.3131716,2.08323169396,0,0,-0.671082,13.1, 3.2, -0.8,0,0,1024,1024,1024,1024,12.6,-89.9,97,3.88,3.869,3.872,3.859,0,0,17.92,66.2,14,Waypoint,
36.6440511,-118.9467517,4915.1402242136,108.923888,0,1.3159121156,16500,2018-04-13 17:56:58,17,0,23.264,4915.1402242136,108.923888,0.3131716,2.08323169396,0,0,-0.671082,13.1, 3.2, -1.1,0,0,1024,1024,1024,1024,12.6,-89.9,97,3.88,3.869,3.872,3.859,0,0,17.92,66.2,14,Waypoint,
36.6440511,-118.9467515,4917.1087282136,110.892392,0,1.33659125012,16600,2018-04-13 17:56:58,17,0,23.264,4917.1087282136,110.892392,0.3131716,2.08323169396,0,0,-0.671082,13.2, 3.2, -1.5,0,0,1024,1024,1024,1024,12.6,-89.9,97,3.88,3.869,3.872,3.859,0,0,17.92,66.2,14,Waypoint,
36.6440512,-118.9467515,4918.0929802136,111.876644,0,1.37051841656,16700,2018-04-13 17:56:58,17,0,23.264,4918.0929802136,111.876644,0.3131716,2.08323169396,0,0,-0.671082,13.3, 3.1, -1.5,0,0,1024,1024,1024,1024,12.6,-89.9,97,3.88,3.869,3.872,3.859,0,0,17.92,66.2,14,Waypoint,
36.6440512,-118.9467514,4919.0772322136,112.860896,0,1.38141736704,16800,2018-04-13 17:56:58,17,0,23.264,4919.0772322136,112.860896,0.3131716,2.08323169396,0,0,-0.671082,13.4, 3.2, -1.4,0,0,1024,1024,1024,1024,12.6,-89.9,97,3.88,3.869,3.872,3.859,0,0,17.92,66.2,14,Waypoint,
36.6440512,-118.9467514,4920.0614842136,113.845148,0,1.38141736704,16900,2018-04-13 17:56:58,17,0,23.264,4920.0614842136,113.845148,0.3131716,2.08323169396,0,0,-0.671082,13.5, 3.3, -1.2,0,0,1024,1024,1024,1024,12.6,-89.9,97,3.88,3.869,3.872,3.859,0,0,17.92,66.2,14,Waypoint,
36.6440512,-118.9467514,4921.0457362136,114.8294,0,1.38141736704,17000,2018-04-13 17:56:58,17,0,23.241,4921.0457362136,114.8294,0.3131716,2.08323169396,0,0,-0.671082,13.6, 3.2, -1.2,0,0,1024,1024,1024,1024,12.6,-89.9,97,3.874,3.865,3.881,3.861,0,0,17.428,66.2,14,Waypoint,
36.6440511,-118.9467513,4923.0142402136,116.797904,0,1.35947510912,17200,2018-04-13 17:56:58,17,0,23.241,4923.0142402136,116.797904,0.3131716,2.08323169396,0,0,-0.671082,13, 3, -1.1,0,0,1024,1024,1024,1024,12.6,-89.9,97,3.874,3.865,3.881,3.861,0,0,17.428,66.2,14,Waypoint,
36.644051,-118.9467513,4923.9984922136,117.782156,0,1.32626972748,17300,2018-04-13 17:56:58,17,0,23.241,4923.9984922136,117.782156,0.3131716,2.08323169396,0,0,-0.671082,12.8, 2.9, -1.3,0,0,1024,1024,1024,1024,12.6,-89.9,97,3.874,3.865,3.881,3.861,0,0,17.428,66.2,14,Waypoint,
36.644051,-118.9467512,4924.9827442136,118.766408,0,1.33880909796,17400,2018-04-13 17:56:58,17,0,23.241,4924.9827442136,118.766408,0.3131716,2.08323169396,0,0,-0.671082,12.7, 2.8, -1.7,0,0,1024,1024,1024,1024,12.6,-89.9,97,3.874,3.865,3.881,3.861,0,0,17.428,66.2,14,Waypoint,
36.6440509,-118.9467512,4925.9669962136,119.75066,0,1.30609584232,17500,2018-04-13 17:56:59,17,0,23.241,4925.9669962136,119.75066,0.3131716,2.08323169396,0,0,-0.671082,12.8, 2.7, -2.1,0,0,1024,1024,1024,1024,12.6,-90,97,3.874,3.865,3.881,3.861,0,0,17.428,66.2,14,Waypoint,
36.6440509,-118.9467511,4926.9512482136,120.734912,0,1.31947838868,17610,2018-04-13 17:56:59,17,0,23.241,4926.9512482136,120.734912,0.3131716,2.08323169396,0,0,-0.671082,13, 2.5, -2.5,0,0,1024,1024,1024,1024,12.6,-90,97,3.874,3.865,3.881,3.861,0,0,17.428,66.2,14,Waypoint,
36.6440508,-118.9467511,4927.9355002136,121.719164,0,1.28730647164,17710,2018-04-13 17:56:59,17,0,23.241,4927.9355002136,121.719164,0.3131716,2.08323169396,0,0,-0.671082,13.3, 2.4, -2.5,0,0,1024,1024,1024,1024,12.6,-90,97,3.874,3.865,3.881,3.861,0,0,17.428,66.2,14,Waypoint,
36.6440507,-118.9467511,4928.9197522136,122.703416,0,1.25537077508,17900,2018-04-13 17:56:59,17,0,23.241,4928.9197522136,122.703416,0.3131716,2.08323169396,0,0,-0.671082,13.5, 2.4, -2.2,0,0,1024,1024,1024,1024,12.6,-89.9,97,3.874,3.865,3.881,3.861,0,0,17.428,66.2,14,Waypoint,
36.6440506,-118.9467512,4930.8882562136,124.67192,0,1.20924872636,18000,2018-04-13 17:56:59,17,0,23.24,4930.8882562136,124.67192,0.3131716,2.08323169396,0,0,-0.671082,13.7, 2.2, -2.1,0,0,1024,1024,1024,1024,12.6,-90,97,3.866,3.853,3.868,3.863,0,0,17.523,66.2,14,Waypoint,
36.6440506,-118.9467512,4931.8725082136,125.656172,0,1.20924872636,18200,2018-04-13 17:56:59,17,0,23.24,4931.8725082136,125.656172,0.3131716,2.08323169396,0,0,-0.671082,13.8, 1.9, -1.5,0,0,1024,1024,1024,1024,12.6,-90,97,3.866,3.853,3.868,3.863,0,0,17.523,66.2,14,Waypoint,
36.6440504,-118.9467512,4933.8410122136,127.624676,0,1.1459481994,18300,2018-04-13 17:56:59,17,0,23.24,4933.8410122136,127.624676,0.3131716,2.08323169396,0,0,-0.671082,13.7, 1.9, -1.2,0,0,1024,1024,1024,1024,12.6,-90,97,3.866,3.853,3.868,3.863,0,0,17.523,66.2,14,Waypoint,
36.6440504,-118.9467512,4933.8410122136,127.624676,0,1.1459481994,18400,2018-04-13 17:56:59,17,0,23.24,4933.8410122136,127.624676,0.3131716,2.08323169396,0,0,-0.671082,13.7, 1.9, -1.2,0,0,1024,1024,1024,1024,12.6,-90,97,3.866,3.853,3.868,3.863,0,0,17.523,66.2,14,Waypoint,
36.6440504,-118.9467513,4934.8252642136,128.608928,0,1.13126972124,18500,2018-04-13 17:57:00,17,0,23.24,4934.8252642136,128.608928,0.3131716,2.08323169396,0,0,-0.671082,13.5, 2.1, -1,0,0,1024,1024,1024,1024,12.6,-89.9,97,3.866,3.853,3.868,3.863,0,0,17.523,66.2,14,Waypoint,
36.6440504,-118.9467513,4935.8095162136,129.59318,0,1.13126972124,18600,2018-04-13 17:57:00,17,0,23.24,4935.8095162136,129.59318,0.3131716,2.08323169396,0,0,-0.671082,13.3, 2.4, -0.8,0,0,1024,1024,1024,1024,12.6,-89.9,97,3.866,3.853,3.868,3.863,0,0,17.523,66.2,14,Waypoint,
36.6440504,-118.9467513,4936.7937682136,130.577432,0,1.13126972124,18700,2018-04-13 17:57:00,17,0,23.24,4936.7937682136,130.577432,0.3131716,2.08323169396,0,0,-0.671082,13.2, 2.6, -1.3,0,0,1024,1024,1024,1024,12.6,-89.9,97,3.866,3.853,3.868,3.863,0,0,17.523,66.2,14,Waypoint,
36.6440504,-118.9467512,4937.7780202136,131.561684,0,1.1459481994,18800,2018-04-13 17:57:00,17,0,23.24,4937.7780202136,131.561684,0.3131716,2.08323169396,0,0,-0.671082,13.1, 2.4, -1.8,0,0,1024,1024,1024,1024,12.6,-89.9,97,3.866,3.853,3.868,3.863,0,0,17.523,66.2,14,Waypoint,
36.6440503,-118.9467512,4938.7622722136,132.545936,0,1.11474084932,18900,2018-04-13 17:57:00,17,0,23.24,4938.7622722136,132.545936,0.3131716,2.08323169396,0,0,-0.671082,13, 2.3, -2.2,0,0,1024,1024,1024,1024,12.6,-89.9,97,3.866,3.853,3.868,3.863,0,0,17.523,66.2,14,Waypoint,
36.6440503,-118.9467511,4939.7465242136,133.530188,0,1.13039045612,19000,2018-04-13 17:57:00,17,0,23.185,4939.7465242136,133.530188,0.3131716,2.08323169396,0,0,-0.671082,12.8, 2.5, -2.4,0,0,1024,1024,1024,1024,12.6,-89.9,97,3.859,3.847,3.861,3.854,0,0,17.945,66.2,14,Waypoint,
36.6440503,-118.946751,4940.7307762136,134.51444,0,1.14657483984,19100,2018-04-13 17:57:00,17,0,23.185,4940.7307762136,134.51444,0.3131716,2.08323169396,0,0,-0.671082,12.7, 2.7, -2.3,0,0,1024,1024,1024,1024,12.6,-89.9,97,3.859,3.847,3.861,3.854,0,0,17.945,66.2,14,Waypoint,
36.6440503,-118.946751,4941.7150282136,135.498692,0,1.14657483984,19200,2018-04-13 17:57:00,17,0,23.185,4941.7150282136,135.498692,0.3131716,2.08323169396,0,0,-0.671082,12.7, 3.1, -2,0,0,1024,1024,1024,1024,12.6,-89.9,97,3.859,3.847,3.861,3.854,0,0,17.945,66.2,14,Waypoint,
36.6440504,-118.946751,4942.6992802136,136.482944,0,1.1769357332,19300,2018-04-13 17:57:00,17,0,23.185,4942.6992802136,136.482944,0.3131716,2.08323169396,0,0,-0.671082,12.8, 3.5, -1.4,0,0,1024,1024,1024,1024,12.6,-89.9,97,3.859,3.847,3.861,3.854,0,0,17.945,66.2,14,Waypoint,
36.6440504,-118.946751,4943.6835322136,137.467196,0,1.1769357332,19400,2018-04-13 17:57:00,17,0,23.185,4943.6835322136,137.467196,0.3131716,2.08323169396,0,0,-0.671082,13, 3.7, -1,0,0,1024,1024,1024,1024,12.6,-89.9,97,3.859,3.847,3.861,3.854,0,0,17.945,66.2,14,Waypoint,
36.6440504,-118.946751,4944.6677842136,138.451448,0,1.1769357332,19500,2018-04-13 17:57:01,17,0,23.185,4944.6677842136,138.451448,0.3131716,2.08323169396,0,0,-0.671082,13.3, 3.7, -1,0,0,1024,1024,1024,1024,12.6,-89.9,97,3.859,3.847,3.861,3.854,0,0,17.945,66.2,14,Waypoint,
36.6440505,-118.946751,4946.6362882136,140.419952,0,1.20764111476,19600,2018-04-13 17:57:01,17,0,23.185,4946.6362882136,140.419952,0.3131716,2.08323169396,0,0,-0.671082,13.6, 3.9, -1.2,0,0,1024,1024,1024,1024,12.6,-89.9,97,3.859,3.847,3.861,3.854,0,0,17.945,66.2,14,Waypoint,
36.6440504,-118.9467509,4947.2924562136,141.07612,0,1.1932086996,19700,2018-04-13 17:57:01,17,0,23.185,4947.2924562136,141.07612,0.3131716,2.08323169396,0,0,-0.671082,13.5, 3.7, -1.4,0,0,1024,1024,1024,1024,12.6,-89.9,97,3.859,3.847,3.861,3.854,0,0,17.945,66.2,14,Waypoint,
36.6440504,-118.9467509,4948.2767082136,142.060372,0,1.1932086996,19800,2018-04-13 17:57:01,17,0,23.185,4948.2767082136,142.060372,0.3131716,2.08323169396,0,0,-0.671082,13.4, 3.7, -1.8,0,0,1024,1024,1024,1024,12.6,-89.9,97,3.859,3.847,3.861,3.854,0,0,17.945,66.2,14,Waypoint,
36.6440504,-118.9467508,4949.2609602136,143.044624,0,1.20996723032,19900,2018-04-13 17:57:01,17,0,23.185,4949.2609602136,143.044624,0.3131716,2.08323169396,0,0,-0.671082,13.3, 3.5, -2,0,0,1024,1024,1024,1024,12.6,-89.9,97,3.859,3.847,3.861,3.854,0,0,17.945,66.2,14,Waypoint,
36.6440504,-118.9467508,4950.2452122136,144.028876,0,1.20996723032,20000,2018-04-13 17:57:01,17,0,23.175,4950.2452122136,144.028876,0.3131716,2.08323169396,0,0,-0.671082,13.2, 3, -1.9,0,0,1024,1024,1024,1024,12.6,-90,97,3.856,3.846,3.85,3.844,0,0,17.751,66.2,14,Waypoint,
36.6440504,-118.9467508,4951.2294642136,145.013128,0,1.20996723032,20100,2018-04-13 17:57:01,17,0,23.175,4951.2294642136,145.013128,0.3131716,2.08323169396,0,0,-0.671082,13.3, 2.9, -1.7,0,0,1024,1024,1024,1024,12.6,-90,97,3.856,3.846,3.85,3.844,0,0,17.751,66.2,14,Waypoint,
36.6440503,-118.9467507,4953.1979682136,146.981632,0,1.19810699372,20300,2018-04-13 17:57:01,17,0,23.175,4953.1979682136,146.981632,0.3131716,2.08323169396,0,0,-0.671082,13.8, 2.9, -2.4,0,0,1024,1024,1024,1024,12.6,-89.9,97,3.856,3.846,3.85,3.844,0,0,17.751,66.2,14,Waypoint,
36.6440502,-118.9467507,4954.1822202136,147.965884,0,1.16943245212,20400,2018-04-13 17:57:01,17,0,23.175,4954.1822202136,147.965884,0.3131716,2.08323169396,0,0,-0.671082,14, 2.9, -2.8,0,0,1024,1024,1024,1024,12.6,-90,97,3.856,3.846,3.85,3.844,0,0,17.751,66.2,14,Waypoint,
36.6440502,-118.9467506,4955.1664722136,148.950136,0,1.18797247896,20510,2018-04-13 17:57:02,17,0,23.175,4955.1664722136,148.950136,0.3131716,2.08323169396,0,0,-0.671082,14, 2.2, -2.9,0,0,1024,1024,1024,1024,12.6,-90,97,3.856,3.846,3.85,3.844,0,0,17.751,66.2,14,Waypoint,
36.6440502,-118.9467507,4956.1507242136,149.934388,0,1.16943245212,20600,2018-04-13 17:57:02,17,0,23.175,4956.1507242136,149.934388,0.3131716,2.08323169396,0,0,-0.671082,13.7, 2.1, -2.7,0,0,1024,1024,1024,1024,12.6,-89.9,97,3.856,3.846,3.85,3.844,0,0,17.751,66.2,14,Waypoint,
36.6440502,-118.9467507,4958.1192282136,151.902892,0,1.16943245212,20800,2018-04-13 17:57:02,17,0,23.175,4958.1192282136,151.902892,0.3131716,2.08323169396,0,0,-0.671082,13.1, 2.6, -1.9,0,0,1024,1024,1024,1024,12.6,-89.9,97,3.856,3.846,3.85,3.844,0,0,17.751,66.2,14,Waypoint,
36.6440502,-118.9467508,4959.1034802136,152.887144,0,1.15133861952,20910,2018-04-13 17:57:02,17,0,23.175,4959.1034802136,152.887144,0.3131716,2.08323169396,0,0,-0.671082,13.1, 3, -1.4,0,0,1024,1024,1024,1024,12.6,-89.9,97,3.856,3.846,3.85,3.844,0,0,17.751,66.2,14,Waypoint,
36.6440502,-118.9467509,4960.0877322136,153.871396,0,1.13371394704,21010,2018-04-13 17:57:02,17,0,23.149,4960.0877322136,153.871396,0.3131716,2.08323169396,0,0,-0.671082,13, 3.3, -1.2,0,0,1024,1024,1024,1024,12.6,-89.9,97,3.842,3.834,3.85,3.836,0,0,18.331,66.2,14,Waypoint,
36.6440502,-118.946751,4961.0719842136,154.855648,0,1.11657483888,21110,2018-04-13 17:57:02,17,0,23.149,4961.0719842136,154.855648,0.3131716,2.08323169396,0,0,-0.671082,13.2, 3.2, -1.2,0,0,1024,1024,1024,1024,12.6,-89.9,97,3.842,3.834,3.85,3.836,0,0,18.331,66.2,14,Waypoint,
36.6440502,-118.946751,4961.0719842136,154.855648,0,1.11657483888,21200,2018-04-13 17:57:02,17,0,23.149,4961.0719842136,154.855648,0.3131716,2.08323169396,0,0,-0.671082,13.2, 3.2, -1.2,0,0,1024,1024,1024,1024,12.6,-89.9,97,3.842,3.834,3.85,3.836,0,0,18.331,66.2,14,Waypoint,
36.6440502,-118.946751,4962.0562362136,155.8399,0,1.11657483888,21300,2018-04-13 17:57:02,17,0,23.149,4962.0562362136,155.8399,0.3131716,2.08323169396,0,0,-0.671082,13.3, 2.8, -1.3,0,0,1024,1024,1024,1024,12.6,-90,97,3.842,3.834,3.85,3.836,0,0,18.331,66.2,14,Waypoint,
36.6440501,-118.946751,4963.0404882136,156.824152,0,1.0869751004,21400,2018-04-13 17:57:02,17,0,23.149,4963.0404882136,156.824152,0.3131716,2.08323169396,0,0,-0.671082,13.5, 2.5, -1.3,0,0,1024,1024,1024,1024,12.6,-90,97,3.842,3.834,3.85,3.836,0,0,18.331,66.2,14,Waypoint,
36.6440501,-118.9467511,4964.0247402136,157.808404,0,1.06989176652,21500,2018-04-13 17:57:03,17,0,23.149,4964.0247402136,157.808404,0.3131716,2.08323169396,0,0,-0.671082,13.7, 2.4, -1.3,0,0,1024,1024,1024,1024,12.6,-90,97,3.842,3.834,3.85,3.836,0,0,18.331,66.2,14,Waypoint,
36.6440501,-118.9467511,4965.0089922136,158.792656,0,1.06989176652,21600,2018-04-13 17:57:03,17,0,23.149,4965.0089922136,158.792656,0.3131716,2.08323169396,0,0,-0.671082,13.8, 2.3, -1.3,0,0,1024,1024,1024,1024,12.6,-90,97,3.842,3.834,3.85,3.836,0,0,18.331,66.2,14,Waypoint,
36.6440501,-118.9467512,4965.9932442136,159.776908,0,1.05334320956,21700,2018-04-13 17:57:03,17,0,23.149,4965.9932442136,159.776908,0.3131716,2.08323169396,0,0,-0.671082,13.9, 2.2, -1.3,0,0,1024,1024,1024,1024,12.6,-90,97,3.842,3.834,3.85,3.836,0,0,18.331,66.2,14,Waypoint,
36.6440501,-118.9467512,4966.9774962136,160.76116,0,1.05334320956,21800,2018-04-13 17:57:03,17,0,23.149,4966.9774962136,160.76116,0.3131716,2.08323169396,0,0,-0.671082,14, 2.1, -1.4,0,0,1024,1024,1024,1024,12.6,-90,97,3.842,3.834,3.85,3.836,0,0,18.331,66.2,14,Waypoint,
36.6440501,-118.9467513,4967.9617482136,161.745412,0,1.03735567624,21900,2018-04-13 17:57:03,17,0,23.149,4967.9617482136,161.745412,0.3131716,2.08323169396,0,0,-0.671082,14, 2.2, -1.4,0,0,1024,1024,1024,1024,12.6,-89.9,97,3.842,3.834,3.85,3.836,0,0,18.331,66.2,14,Waypoint,
36.6440501,-118.9467513,4969.9302522136,163.713916,0,1.03735567624,22000,2018-04-13 17:57:03,17,0,23.077,4969.9302522136,163.713916,0.3131716,2.08323169396,0,0,-0.671082,13.8, 2.7, -1,0,0,1024,1024,1024,1024,12.6,-89.9,97,3.837,3.827,3.844,3.835,0,0,18.401,66.2,14,Waypoint,
36.6440501,-118.9467513,4970.9145042136,164.698168,0,1.03735567624,22100,2018-04-13 17:57:03,17,0,23.077,4970.9145042136,164.698168,0.3131716,2.08323169396,0,0,-0.671082,13.7, 3.1, -0.9,0,0,1024,1024,1024,1024,12.6,-89.9,97,3.837,3.827,3.844,3.835,0,0,18.401,66.2,14,Waypoint,
36.6440501,-118.9467513,4971.8987562136,165.68242,0,1.03735567624,22200,2018-04-13 17:57:03,17,0,23.077,4971.8987562136,165.68242,0.3131716,2.08323169396,0,0,-0.671082,13.5, 3.3, -0.9,0,0,1024,1024,1024,1024,12.6,-89.9,97,3.837,3.827,3.844,3.835,0,0,18.401,66.2,14,Waypoint,
36.6440501,-118.9467513,4972.8830082136,166.666672,0,1.03735567624,22300,2018-04-13 17:57:03,17,0,23.077,4972.8830082136,166.666672,0.3131716,2.08323169396,0,0,-0.671082,13.4, 3.4, -0.9,0,0,1024,1024,1024,1024,12.6,-89.9,97,3.837,3.827,3.844,3.835,0,0,18.401,66.2,14,Waypoint,
36.6440502,-118.9467513,4973.8672602136,167.650924,0,1.06833336752,22400,2018-04-13 17:57:03,17,0,23.077,4973.8672602136,167.650924,0.3131716,2.08323169396,0,0,-0.671082,13.4, 3.4, -1.1,0,0,1024,1024,1024,1024,12.6,-89.9,97,3.837,3.827,3.844,3.835,0,0,18.401,66.2,14,Waypoint,
36.6440502,-118.9467513,4974.8515122136,168.635176,0,1.06833336752,22500,2018-04-13 17:57:04,17,0,23.077,4974.8515122136,168.635176,0.3131716,2.08323169396,0,0,-0.671082,13.4, 3.4, -1.4,0,0,1024,1024,1024,1024,12.6,-89.9,97,3.837,3.827,3.844,3.835,0,0,18.401,66.2,14,Waypoint,
36.6440502,-118.9467513,4975.8357642136,169.619428,0,1.06833336752,22600,2018-04-13 17:57:04,17,0,23.077,4975.8357642136,169.619428,0.3131716,2.08323169396,0,0,-0.671082,13.4, 3.4, -1.7,0,0,1024,1024,1024,1024,12.6,-89.9,97,3.837,3.827,3.844,3.835,0,0,18.401,66.2,14,Waypoint,
36.6440502,-118.9467513,4976.8200162136,170.60368,0,1.06833336752,22700,2018-04-13 17:57:04,17,0,23.077,4976.8200162136,170.60368,0.3131716,2.08323169396,0,0,-0.671082,13.3, 3.4, -1.5,0,0,1024,1024,1024,1024,12.6,-89.9,97,3.837,3.827,3.844,3.835,0,0,18.401,66.2,14,Waypoint,
36.6440503,-118.9467513,4977.8042682136,171.587932,0,1.09964570448,22800,2018-04-13 17:57:04,17,0,23.077,4977.8042682136,171.587932,0.3131716,2.08323169396,0,0,-0.671082,13.4, 3.5, -1.1,0,0,1024,1024,1024,1024,12.6,-89.9,97,3.837,3.827,3.844,3.835,0,0,18.401,66.2,14,Waypoint,
36.6440503,-118.9467513,4979.7727722136,173.556436,0,1.09964570448,23010,2018-04-13 17:57:04,17,0,23.161,4979.7727722136,173.556436,0.3131716,2.08323169396,0,0,-0.671082,13.3, 3.3, -1,0,0,1024,1024,1024,1024,12.6,-89.9,97,3.837,3.827,3.844,3.835,0,0,17.232,68,14,Waypoint,
36.6440503,-118.9467512,4981.7412762136,175.52494,0,1.11474084932,23210,2018-04-13 17:57:04,17,0,23.161,4981.7412762136,175.52494,0.3131716,2.08323169396,0,0,-0.671082,13.1, 3.2, -1.5,0,0,1024,1024,1024,1024,12.6,-89.9,97,3.837,3.827,3.844,3.835,0,0,17.232,68,14,Waypoint,
36.6440502,-118.9467512,4982.7255282136,176.509192,0,1.08386158324,23300,2018-04-13 17:57:04,17,0,23.161,4982.7255282136,176.509192,0.3131716,2.08323169396,0,0,-0.671082,13, 3.2, -1.9,0,0,1024,1024,1024,1024,12.6,-89.9,97,3.837,3.827,3.844,3.835,0,0,17.232,68,14,Waypoint,
36.6440502,-118.946751,4984.6940322136,178.477696,0,1.11657483888,23510,2018-04-13 17:57:05,17,0,23.161,4984.6940322136,178.477696,0.3131716,2.08323169396,0,0,-0.671082,13, 3.6, -2.6,0,0,1024,1024,1024,1024,12.6,-89.9,97,3.837,3.827,3.844,3.835,0,0,17.232,68,14,Waypoint,
36.6440502,-118.946751,4985.6782842136,179.461948,0,1.11657483888,23700,2018-04-13 17:57:05,17,0,23.161,4985.6782842136,179.461948,0.3131716,2.08323169396,0,0,-0.671082,13, 3.6, -2.5,0,0,1024,1024,1024,1024,12.6,-89.9,97,3.837,3.827,3.844,3.835,0,0,17.232,68,14,Waypoint,
36.6440502,-118.946751,4986.6625362136,180.4462,0,1.11657483888,23800,2018-04-13 17:57:05,17,0,23.161,4986.6625362136,180.4462,0.3131716,2.08323169396,0,0,-0.671082,13, 3.4, -2.3,0,0,1024,1024,1024,1024,12.6,-89.9,97,3.837,3.827,3.844,3.835,0,0,17.232,68,14,Waypoint,
36.6440502,-118.9467509,4987.6467882136,181.430452,0,1.13371394704,23900,2018-04-13 17:57:05,17,0,23.161,4987.6467882136,181.430452,0.3131716,2.08323169396,0,0,-0.671082,13.2, 3.3, -2.1,0,0,1024,1024,1024,1024,12.6,-89.9,97,3.837,3.827,3.844,3.835,0,0,17.232,68,14,Waypoint,
36.6440502,-118.9467509,4988.6310402136,182.414704,0,1.13371394704,24000,2018-04-13 17:57:05,17,0,23.184,4988.6310402136,182.414704,0.3131716,2.08323169396,0,0,-0.671082,13.3, 3.3, -2.2,0,0,1024,1024,1024,1024,12.6,-89.9,97,3.865,3.849,3.863,3.856,0,0,17.071,68,14,Waypoint,
36.6440502,-118.9467509,4989.6152922136,183.398956,0,1.13371394704,24100,2018-04-13 17:57:05,17,0,23.184,4989.6152922136,183.398956,0.3131716,2.08323169396,0,0,-0.671082,13.3, 3.3, -2.1,0,0,1024,1024,1024,1024,12.6,-89.9,97,3.865,3.849,3.863,3.856,0,0,17.071,68,14,Waypoint,
36.6440502,-118.9467509,4990.5995442136,184.383208,0,1.13371394704,24200,2018-04-13 17:57:05,17,0,23.184,4990.5995442136,184.383208,0.3131716,2.08323169396,0,0,-0.671082,13.4, 3.5, -2,0,0,1024,1024,1024,1024,12.6,-89.9,97,3.865,3.849,3.863,3.856,0,0,17.071,68,14,Waypoint,
36.6440502,-118.9467508,4992.5680482136,186.351712,0,1.15133861952,24300,2018-04-13 17:57:05,17,0,23.184,4992.5680482136,186.351712,0.3131716,2.08323169396,0,0,-0.671082,13.3, 3.8, -1.8,0,0,1024,1024,1024,1024,12.6,-89.9,97,3.865,3.849,3.863,3.856,0,0,17.071,68,14,Waypoint,
36.6440502,-118.9467508,4993.5523002136,187.335964,0,1.15133861952,24400,2018-04-13 17:57:05,17,0,23.184,4993.5523002136,187.335964,0.3131716,2.08323169396,0,0,-0.671082,13.3, 3.8, -1.9,0,0,1024,1024,1024,1024,12.6,-89.9,97,3.865,3.849,3.863,3.856,0,0,17.071,68,14,Waypoint,
36.6440503,-118.9467508,4994.5365522136,188.320216,0,1.18045279368,24500,2018-04-13 17:57:06,17,0,23.184,4994.5365522136,188.320216,0.3131716,2.08323169396,0,0,-0.671082,13.2, 3.7, -2.1,0,0,1024,1024,1024,1024,12.6,-89.9,97,3.865,3.849,3.863,3.856,0,0,17.071,68,14,Waypoint,
36.6440503,-118.9467508,4995.5208042136,189.304468,0,1.18045279368,24600,2018-04-13 17:57:06,17,0,23.184,4995.5208042136,189.304468,0.3131716,2.08323169396,0,0,-0.671082,13.2, 3.7, -2.3,0,0,1024,1024,1024,1024,12.6,-89.9,97,3.865,3.849,3.863,3.856,0,0,17.071,68,14,Waypoint,
36.6440502,-118.9467507,4996.5050562136,190.28872,0,1.16943245212,24700,2018-04-13 17:57:06,17,0,23.184,4996.5050562136,190.28872,0.3131716,2.08323169396,0,0,-0.671082,13.2, 3.6, -2.5,0,0,1024,1024,1024,1024,12.6,-89.9,97,3.865,3.849,3.863,3.856,0,0,17.071,68,14,Waypoint,
36.6440502,-118.9467506,4998.4735602136,192.257224,0,1.18797247896,24910,2018-04-13 17:57:06,17,0,23.184,4998.4735602136,192.257224,0.3131716,2.08323169396,0,0,-0.671082,13.3, 3.4, -2.6,0,0,1024,1024,1024,1024,12.6,-89.9,97,3.865,3.849,3.863,3.856,0,0,17.071,68,14,Waypoint,
36.6440502,-118.9467506,4999.4578122136,193.241476,0,1.18797247896,25000,2018-04-13 17:57:06,17,0,23.184,4999.4578122136,193.241476,0.3131716,2.08323169396,0,0,-0.671082,13.3, 3.3, -2.5,0,0,1024,1024,1024,1024,12.6,-89.9,97,3.87,3.853,3.86,3.854,0,0,17.071,68,14,Waypoint,
36.6440501,-118.9467506,5000.4420642136,194.225728,0,1.16019688752,25100,2018-04-13 17:57:06,17,0,23.184,5000.4420642136,194.225728,0.3131716,2.08323169396,0,0,-0.671082,13.3, 3.2, -2.4,0,0,1024,1024,1024,1024,12.6,-89.9,97,3.87,3.853,3.86,3.854,0,0,17.071,68,14,Waypoint,
36.6440501,-118.9467506,5001.4263162136,195.20998,0,1.16019688752,25200,2018-04-13 17:57:06,17,0,23.184,5001.4263162136,195.20998,0.3131716,2.08323169396,0,0,-0.671082,13.2, 3.2, -2.4,0,0,1024,1024,1024,1024,12.6,-89.9,97,3.87,3.853,3.86,3.854,0,0,17.071,68,14,Waypoint,
36.6440501,-118.9467506,5003.3948202136,197.178484,0,1.16019688752,25410,2018-04-13 17:57:06,17,0,23.184,5003.3948202136,197.178484,0.3131716,2.08323169396,0,0,-0.671082,13.2, 3, -2.5,0,0,1024,1024,1024,1024,12.6,-90,97,3.87,3.853,3.86,3.854,0,0,17.071,68,14,Waypoint,
36.64405,-118.9467505,5005.3633242136,199.146988,0,1.15278218912,25600,2018-04-13 17:57:07,17,0,23.184,5005.3633242136,199.146988,0.3131716,2.08323169396,0,0,-0.671082,13.1, 2.9, -2.7,0,0,1024,1024,1024,1024,12.6,-89.9,97,3.87,3.853,3.86,3.854,0,0,17.071,68,14,Waypoint,
36.64405,-118.9467505,5006.3475762136,200.13124,0,1.15278218912,25700,2018-04-13 17:57:07,17,0,23.184,5006.3475762136,200.13124,0.3131716,2.08323169396,0,0,-0.671082,13.1, 3, -2.7,0,0,1024,1024,1024,1024,12.6,-89.9,97,3.87,3.853,3.86,3.854,0,0,17.071,68,14,Waypoint,
36.64405,-118.9467506,5007.3318282136,201.115492,0,1.13291342208,25900,2018-04-13 17:57:07,17,0,23.184,5007.3318282136,201.115492,0.3131716,2.08323169396,0,0,-0.671082,13.1, 3.2, -2.5,0,0,1024,1024,1024,1024,12.6,-89.9,97,3.87,3.853,3.86,3.854,0,0,17.071,68,14,Waypoint,
36.64405,-118.9467506,5008.3160802136,202.099744,0,1.13291342208,26000,2018-04-13 17:57:07,17,0,23.149,5008.3160802136,202.099744,0.3131716,2.08323169396,0,0,-0.671082,13.2, 3.2, -2.5,0,0,1024,1024,1024,1024,12.6,-89.9,97,3.851,3.84,3.846,3.846,0,0,17.436,68,14,Waypoint,
36.64405,-118.9467506,5009.3003322136,203.083996,0,1.13291342208,26100,2018-04-13 17:57:07,17,0,23.149,5009.3003322136,203.083996,0.3131716,2.08323169396,0,0,-0.671082,13.3, 3.3, -2.6,0,0,1024,1024,1024,1024,12.6,-89.9,97,3.851,3.84,3.846,3.846,0,0,17.436,68,14,Waypoint,
36.64405,-118.9467505,5010.2845842136,204.068248,0,1.15278218912,26200,2018-04-13 17:57:07,17,0,23.149,5010.2845842136,204.068248,0.3131716,2.08323169396,0,0,-0.671082,13.4, 3.4, -2.7,0,0,1024,1024,1024,1024,12.6,-89.9,97,3.851,3.84,3.846,3.846,0,0,17.436,68,14,Waypoint,
36.64405,-118.9467505,5011.2688362136,205.0525,0,1.15278218912,26300,2018-04-13 17:57:07,17,0,23.149,5011.2688362136,205.0525,0.3131716,2.08323169396,0,0,-0.671082,13.5, 3.4, -2.7,0,0,1024,1024,1024,1024,12.6,-89.9,97,3.851,3.84,3.846,3.846,0,0,17.436,68,14,Waypoint,
36.64405,-118.9467505,5013.2373402136,207.021004,0,1.15278218912,26400,2018-04-13 17:57:07,17,0,23.149,5013.2373402136,207.021004,0.3131716,2.08323169396,0,0,-0.671082,13.4, 3.5, -3.4,0,0,1024,1024,1024,1024,12.6,-89.9,97,3.851,3.84,3.846,3.846,0,0,17.436,68,14,Waypoint,
36.64405,-118.9467505,5014.2215922136,208.005256,0,1.15278218912,26500,2018-04-13 17:57:08,17,0,23.149,5014.2215922136,208.005256,0.3131716,2.08323169396,0,0,-0.671082,13.3, 3.6, -3.1,0,0,1024,1024,1024,1024,12.6,-89.9,97,3.851,3.84,3.846,3.846,0,0,17.436,68,14,Waypoint,
36.64405,-118.9467506,5015.2058442136,208.989508,0,1.13291342208,26600,2018-04-13 17:57:08,17,0,23.149,5015.2058442136,208.989508,0.3131716,2.08323169396,0,0,-0.671082,13.2, 3.8, -2.7,0,0,1024,1024,1024,1024,12.6,-89.9,97,3.851,3.84,3.846,3.846,0,0,17.436,68,14,Waypoint,
36.64405,-118.9467506,5016.1900962136,209.97376,0,1.13291342208,26700,2018-04-13 17:57:08,17,0,23.149,5016.1900962136,209.97376,0.3131716,2.08323169396,0,0,-0.671082,13.2, 3.8, -2.3,0,0,1024,1024,1024,1024,12.6,-89.9,97,3.851,3.84,3.846,3.846,0,0,17.436,68,14,Waypoint,
36.64405,-118.9467506,5017.1743482136,210.958012,0,1.13291342208,26800,2018-04-13 17:57:08,17,0,23.149,5017.1743482136,210.958012,0.3131716,2.08323169396,0,0,-0.671082,13.2, 3.7, -2.3,0,0,1024,1024,1024,1024,12.6,-89.9,97,3.851,3.84,3.846,3.846,0,0,17.436,68,14,Waypoint,
36.64405,-118.9467506,5018.1586002136,211.942264,0,1.13291342208,26900,2018-04-13 17:57:08,17,0,23.149,5018.1586002136,211.942264,0.3131716,2.08323169396,0,0,-0.671082,13.3, 3.7, -2.5,0,0,1024,1024,1024,1024,12.6,-89.9,97,3.851,3.84,3.846,3.846,0,0,17.436,68,14,Waypoint,
36.64405,-118.9467506,5019.1428522136,212.926516,0,1.13291342208,27000,2018-04-13 17:57:08,17,0,23.103,5019.1428522136,212.926516,0.3131716,2.08323169396,0,0,-0.671082,13.3, 3.7, -2.8,0,0,1024,1024,1024,1024,12.6,-89.9,96,3.837,3.835,3.835,3.835,0,0,17.869,68,14,Waypoint,
36.64405,-118.9467505,5020.1271042136,213.910768,0,1.15278218912,27100,2018-04-13 17:57:08,17,0,23.103,5020.1271042136,213.910768,0.3131716,2.08323169396,0,0,-0.671082,13.4, 3.5, -3,0,0,1024,1024,1024,1024,12.6,-89.9,96,3.837,3.835,3.835,3.835,0,0,17.869,68,14,Waypoint,
36.6440499,-118.9467505,5021.1113562136,214.89502,0,1.12650266072,27200,2018-04-13 17:57:08,17,0,23.103,5021.1113562136,214.89502,0.3131716,2.08323169396,0,0,-0.671082,13.6, 3.5, -3.1,0,0,1024,1024,1024,1024,12.6,-89.9,96,3.837,3.835,3.835,3.835,0,0,17.869,68,14,Waypoint,
36.6440499,-118.9467504,5022.0956082136,215.879272,0,1.14723100784,27300,2018-04-13 17:57:08,17,0,23.103,5022.0956082136,215.879272,0.3131716,2.08323169396,0,0,-0.671082,13.7, 3.5, -3.1,0,0,1024,1024,1024,1024,12.6,-89.9,96,3.837,3.835,3.835,3.835,0,0,17.869,68,14,Waypoint,
