latitude,longitude,altitude(feet),ascent(feet),speed(mph),distance(feet),time(millisecond),datetime(utc),satellites,gpslevel,voltage(v),max_altitude(feet),max_ascent(feet),max_speed(mph),max_distance(feet), xSpeed(mph), ySpeed(mph), zSpeed(mph), compass_heading(degrees), pitch(degrees), roll(degrees),isPhoto,isVideo,rc_elevator,rc_aileron,rc_throttle,rc_rudder,gimbal_heading(degrees),gimbal_pitch(degrees),battery_percent,voltageCell1,voltageCell2,voltageCell3,voltageCell4,voltageCell5,voltageCell6,current(A),battery_temperature(f),flycStateRaw,flycState,message
37.2566022,-119.3808266,5197.6042880425,0,0.671082,0,3200,2018-06-17 19:11:37,10,0,0,5197.6042880425,0,0.671082,0,0,0,0,344.5, -0.5, 0.7,1,0,1024,1024,1024,1024,344.7,-89.9,98,4.09,4.077,4.035,4.121,4.092,4.057,0,57.2,11,AutoTakeoff,DJI_0001.jpg Starting Mission from Lat/Long: 37.25660/-119.38085 Camera: Zenmuse X3 - Overlap: 90/90 - Active Connection: No
37.2566019,-119.3808266,5197.6042880425,0,0.671082,0.109454727912,3400,2018-06-17 19:11:37,10,0,0,5197.6042880425,0,0.671082,0.109454727912,0,0,0,344.7, -1.3, 1,0,0,1024,1024,1024,1024,344.7,-90,98,4.09,4.077,4.035,4.121,4.092,4.057,0,57.2,11,AutoTakeoff,
37.2566016,-119.3808266,5197.6042880425,0,0.447388,0.218909783908,3500,2018-06-17 19:11:37,10,0,0,5197.6042880425,0,0.671082,0.218909783908,0,0,0,344.9, -2.2, 1.2,0,0,1024,1024,1024,1024,344.7,-90,98,4.09,4.077,4.035,4.121,4.092,4.057,0,57.2,11,AutoTakeoff,
37.2566014,-119.3808267,5197.6042880425,0,0.447388,0.293320547444,3600,2018-06-17 19:11:37,10,0,0,5197.6042880425,0,0.671082,0.293320547444,0,0,0,345.1, -2.9, 1.1,0,0,1024,1024,1024,1024,344.7,-89.9,98,4.09,4.077,4.035,4.121,4.092,4.057,0,57.2,11,AutoTakeoff,
37.2566013,-119.3808268,5197.9323720425,0.328084,0.223694,0.33346129676,3700,2018-06-17 19:11:37,9,0,0,5197.9323720425,0.328084,0.671082,0.33346129676,0,0,0,345.2, -2.9, 1,0,0,1024,1024,1024,1024,344.7,-89.9,98,4.09,4.077,4.035,4.121,4.092,4.057,0,57.2,11,AutoTakeoff,
37.2566012,-119.3808268,5197.9323720425,0.328084,0,0.36944226904,3800,2018-06-17 19:11:37,9,0,0,5197.9323720425,0.328084,0.671082,0.36944226904,0,0,0,345.2, -1.9, 0.8,0,0,1024,1024,1024,1024,344.7,-89.9,98,4.09,4.077,4.035,4.121,4.092,4.057,0,57.2,11,AutoTakeoff,
37.2566011,-119.3808269,5197.9323720425,0.328084,0,0.41068242784,3900,2018-06-17 19:11:37,9,0,0,5197.9323720425,0.328084,0.671082,0.41068242784,0,0,0,345.1, -1, 0.5,0,0,1024,1024,1024,1024,344.7,-89.9,98,4.09,4.077,4.035,4.121,4.092,4.057,0,57.2,11,AutoTakeoff,
37.2566011,-119.3808269,5198.2604560425,0.656168,0,0.41068242784,4000,2018-06-17 19:11:38,9,0,24.535,5198.2604560425,0.656168,0.671082,0.41068242784,0,0,0,344.9, -0.6, 0.3,0,0,1024,1024,1024,1024,344.7,-89.9,98,4.09,4.077,4.035,4.121,4.092,4.057,5.534,57.2,11,AutoTakeoff,
37.2566012,-119.380827,5198.2604560425,0.656168,0,0.38289371304,4100,2018-06-17 19:11:38,9,0,24.535,5198.2604560425,0.656168,0.671082,0.41068242784,0,0,0,344.6, -0.4, 0.3,0,0,1024,1024,1024,1024,344.7,-89.9,98,4.09,4.077,4.035,4.121,4.092,4.057,5.534,57.2,11,AutoTakeoff,
37.2566011,-119.380827,5198.5885400425,0.984252,0,0.41780513148,4200,2018-06-17 19:11:38,9,0,24.535,5198.5885400425,0.984252,0.671082,0.41780513148,0,0,0,344.2, -0.3, 0.2,0,0,1024,1024,1024,1024,344.7,-89.9,98,4.09,4.077,4.035,4.121,4.092,4.057,5.534,57.2,11,AutoTakeoff,
37.2566011,-119.380827,5198.5885400425,0.984252,0,0.41780513148,4300,2018-06-17 19:11:38,10,0,24.535,5198.5885400425,0.984252,0.671082,0.41780513148,0,0,0,343.8, 0, 0.2,0,0,1024,1024,1024,1024,344.7,-89.9,98,4.09,4.077,4.035,4.121,4.092,4.057,5.534,57.2,11,AutoTakeoff,
37.2566011,-119.3808271,5198.9166240425,1.312336,0,0.42679135224,4400,2018-06-17 19:11:38,10,0,24.535,5198.9166240425,1.312336,0.671082,0.42679135224,0,0,-0.223694,343.6, 0.2, 0.2,0,0,1024,1024,1024,1024,344.7,-89.9,98,4.09,4.077,4.035,4.121,4.092,4.057,5.534,57.2,11,AutoTakeoff,
37.2566012,-119.3808271,5198.9166240425,1.312336,0,0.39268045876,4500,2018-06-17 19:11:38,10,0,24.535,5198.9166240425,1.312336,0.671082,0.42679135224,0,0,0,343.3, 0.4, 0.3,0,0,1024,1024,1024,1024,344.7,-89.9,98,4.09,4.077,4.035,4.121,4.092,4.057,5.534,57.2,11,AutoTakeoff,
37.2566012,-119.3808272,5198.9166240425,1.312336,0,0.40431759824,4600,2018-06-17 19:11:38,10,0,24.535,5198.9166240425,1.312336,0.671082,0.42679135224,0,0,0,343.3, 0.5, 0.4,0,0,1024,1024,1024,1024,344.7,-89.9,98,4.09,4.077,4.035,4.121,4.092,4.057,5.534,57.2,11,AutoTakeoff,
37.2566013,-119.3808273,5199.2447080425,1.64042,0,0.38619095724,4700,2018-06-17 19:11:38,10,0,24.535,5199.2447080425,1.64042,0.671082,0.42679135224,0,0,0,343.4, 0.7, 0.4,0,0,1024,1024,1024,1024,344.7,-89.9,98,4.09,4.077,4.035,4.121,4.092,4.057,5.534,57.2,11,AutoTakeoff,
37.2566014,-119.3808274,5199.2447080425,1.64042,0.223694,0.3730479122,4800,2018-06-17 19:11:38,10,0,24.535,5199.2447080425,1.64042,0.671082,0.42679135224,0,0,0,343.6, 0.9, 0.6,0,0,1024,1024,1024,1024,344.7,-89.9,98,4.09,4.077,4.035,4.121,4.092,4.057,5.534,57.2,11,AutoTakeoff,
37.2566014,-119.3808275,5199.5727920425,1.968504,0.223694,0.39179135112,4900,2018-06-17 19:11:38,10,0,24.535,5199.5727920425,1.968504,0.671082,0.42679135224,0,0,0,343.7, 1.2, 0.7,0,0,1024,1024,1024,1024,344.7,-89.9,98,4.09,4.077,4.035,4.121,4.092,4.057,5.534,57.2,11,AutoTakeoff,
37.2566015,-119.3808275,5199.5727920425,1.968504,0.223694,0.36542324004,5000,2018-06-17 19:11:39,10,0,23.499,5199.5727920425,1.968504,0.671082,0.42679135224,0,0,-0.223694,343.7, 1.4, 0.8,0,0,1024,1024,1024,1024,344.7,-89.9,98,3.92,3.924,3.889,3.935,3.908,3.895,15.294,57.2,11,AutoTakeoff,
37.2566016,-119.3808275,5199.5727920425,1.968504,0.223694,0.34092192692,5100,2018-06-17 19:11:39,9,0,23.499,5199.5727920425,1.968504,0.671082,0.42679135224,0,0,0,343.8, 1.5, 0.7,0,0,1024,1024,1024,1024,344.7,-89.9,98,3.92,3.924,3.889,3.935,3.908,3.895,15.294,57.2,11,AutoTakeoff,
37.2566018,-119.3808274,5199.9008760425,2.296588,0.223694,0.274352370984,5200,2018-06-17 19:11:39,9,0,23.499,5199.9008760425,2.296588,0.671082,0.42679135224,0,0,0,343.7, 1.4, 0.7,0,0,1024,1024,1024,1024,344.7,-89.9,98,3.92,3.924,3.889,3.935,3.908,3.895,15.294,57.2,11,AutoTakeoff,
37.2566019,-119.3808273,5199.9008760425,2.296588,0.223694,0.230871726548,5300,2018-06-17 19:11:39,10,0,23.499,5199.9008760425,2.296588,0.671082,0.42679135224,0,0,0,343.7, 1.4, 0.4,0,0,1024,1024,1024,1024,344.7,-89.9,98,3.92,3.924,3.889,3.935,3.908,3.895,15.294,57.2,11,AutoTakeoff,
37.256602,-119.3808274,5200.2289600425,2.624672,0.223694,0.243506569472,5400,2018-06-17 19:11:39,10,0,23.499,5200.2289600425,2.624672,0.671082,0.42679135224,0,0,0,343.5, 1.5, 0.2,0,0,1024,1024,1024,1024,344.7,-89.9,98,3.92,3.924,3.889,3.935,3.908,3.895,15.294,57.2,11,AutoTakeoff,
37.256602,-119.3808276,5200.2289600425,2.624672,0,0.299422909844,5500,2018-06-17 19:11:39,10,0,23.499,5200.2289600425,2.624672,0.671082,0.42679135224,0,0,0,343.3, 1.5, 0.4,0,0,1024,1024,1024,1024,344.7,-89.9,98,3.92,3.924,3.889,3.935,3.908,3.895,15.294,57.2,11,AutoTakeoff,
37.256602,-119.3808278,5200.5570440425,2.952756,0,0.35603347596,5600,2018-06-17 19:11:39,10,0,23.499,5200.5570440425,2.952756,0.671082,0.42679135224,0,0,0,343.2, 1.5, 0.7,0,0,1024,1024,1024,1024,344.7,-89.9,98,3.92,3.924,3.889,3.935,3.908,3.895,15.294,57.2,11,AutoTakeoff,
37.256602,-119.380828,5200.5570440425,2.952756,0,0.41305119432,5700,2018-06-17 19:11:39,9,0,23.499,5200.5570440425,2.952756,0.671082,0.42679135224,0,0,0,343.1, 1.7, 1.1,0,0,1024,1024,1024,1024,344.7,-89.9,98,3.92,3.924,3.889,3.935,3.908,3.895,15.294,57.2,14,Waypoint,
37.256602,-119.3808281,5200.5570440425,2.952756,0,0.44166339996,5800,2018-06-17 19:11:39,9,0,23.499,5200.5570440425,2.952756,0.671082,0.44166339996,0,0,0,343.1, 1.7, 1.4,0,0,1024,1024,1024,1024,344.6,-89.9,98,3.92,3.924,3.889,3.935,3.908,3.895,15.294,57.2,14,Waypoint,
37.2566021,-119.3808283,5200.8851280425,3.28084,0,0.49501970088,5900,2018-06-17 19:11:39,10,0,23.499,5200.8851280425,3.28084,0.671082,0.49501970088,0,0,0,343.1, 1.4, 1.1,0,0,1024,1024,1024,1024,344.6,-89.9,98,3.92,3.924,3.889,3.935,3.908,3.895,15.294,57.2,14,Waypoint,
37.2566022,-119.3808284,5200.8851280425,3.28084,0,0.52271327132,6000,2018-06-17 19:11:40,9,0,23.211,5200.8851280425,3.28084,0.671082,0.52271327132,0,0,0,343, 1.4, 0.7,0,0,1024,1024,1024,1024,344.6,-89.9,98,3.867,3.874,3.842,3.885,3.867,3.865,16.473,57.2,14,Waypoint,
37.2566023,-119.3808284,5201.2132120425,3.608924,0,0.5239829564,6200,2018-06-17 19:11:40,9,0,23.211,5201.2132120425,3.608924,0.671082,0.5239829564,0,0,0,343, 1.4, 0.3,0,0,1024,1024,1024,1024,344.6,-89.9,98,3.867,3.874,3.842,3.885,3.867,3.865,16.473,57.2,14,Waypoint,
37.2566024,-119.3808285,5201.2132120425,3.608924,0,0.55655513592,6300,2018-06-17 19:11:40,9,0,23.211,5201.2132120425,3.608924,0.671082,0.55655513592,0,0,-0.223694,343, 1.5, 0.1,0,0,1024,1024,1024,1024,344.5,-89.9,98,3.867,3.874,3.842,3.885,3.867,3.865,16.473,57.2,14,Waypoint,
37.2566025,-119.3808285,5201.5412960425,3.937008,0,0.56250329884,6400,2018-06-17 19:11:40,9,0,23.211,5201.5412960425,3.937008,0.671082,0.56250329884,0,0,-0.223694,343.1, 1.6, 0,0,0,1024,1024,1024,1024,344.5,-89.9,98,3.867,3.874,3.842,3.885,3.867,3.865,16.473,57.2,14,Waypoint,
37.2566027,-119.3808285,5201.8693800425,4.265092,0,0.58112534668,6500,2018-06-17 19:11:40,10,0,23.211,5201.8693800425,4.265092,0.671082,0.58112534668,0,0,-0.223694,343.1, 1.6, 0,0,0,1024,1024,1024,1024,344.5,-89.9,98,3.867,3.874,3.842,3.885,3.867,3.865,16.473,57.2,14,Waypoint,
37.2566028,-119.3808284,5201.8693800425,4.265092,0,0.5666994932,6600,2018-06-17 19:11:40,10,0,23.211,5201.8693800425,4.265092,0.671082,0.58112534668,0,0,-0.223694,343.2, 1.7, 0,0,0,1024,1024,1024,1024,344.5,-89.9,98,3.867,3.874,3.842,3.885,3.867,3.865,16.473,57.2,14,Waypoint,
37.256603,-119.3808284,5202.5255480425,4.92126,0,0.59868440236,6700,2018-06-17 19:11:40,10,0,23.211,5202.5255480425,4.92126,0.671082,0.59868440236,0,0,-0.223694,343.3, 2, 0,0,0,1024,1024,1024,1024,344.5,-89.9,98,3.867,3.874,3.842,3.885,3.867,3.865,16.473,57.2,14,Waypoint,
37.2566031,-119.3808283,5202.8536320425,5.249344,0,0.59290356228,6800,2018-06-17 19:11:40,10,0,23.211,5202.8536320425,5.249344,0.671082,0.59868440236,0,0,-0.447388,343.4, 2.2, 0,0,0,1024,1024,1024,1024,344.4,-89.9,98,3.867,3.874,3.842,3.885,3.867,3.865,16.473,57.2,14,Waypoint,
37.2566033,-119.3808282,5203.1817160425,5.577428,0,0.61396327424,6900,2018-06-17 19:11:40,10,0,23.211,5203.1817160425,5.577428,0.671082,0.61396327424,0,0,-0.447388,343.5, 2.2, -0.1,0,0,1024,1024,1024,1024,344.4,-89.9,98,3.867,3.874,3.842,3.885,3.867,3.865,16.473,57.2,14,Waypoint,
37.2566035,-119.3808281,5203.8378840425,6.233596,0,0.64397639856,7000,2018-06-17 19:11:41,10,0,23.111,5203.8378840425,6.233596,0.671082,0.64397639856,0,0,-0.447388,343.5, 2.1, -0.5,0,0,1024,1024,1024,1024,344.4,-89.9,98,3.845,3.848,3.834,3.862,3.947,3.857,16.955,57.2,14,Waypoint,
37.2566038,-119.380828,5204.4940520425,6.889764,0,0.71137797552,7100,2018-06-17 19:11:41,11,0,23.111,5204.4940520425,6.889764,0.671082,0.71137797552,0,0,-0.447388,343.5, 2.2, -0.9,0,0,1024,1024,1024,1024,344.4,-89.9,98,3.845,3.848,3.834,3.862,3.947,3.857,16.955,57.2,14,Waypoint,
37.256604,-119.3808278,5205.1502200425,7.545932,0,0.7434547482,7200,2018-06-17 19:11:41,11,0,23.111,5205.1502200425,7.545932,0.671082,0.7434547482,0,0,-0.447388,343.4, 2.5, -1.2,0,0,1024,1024,1024,1024,344.4,-89.9,98,3.845,3.848,3.834,3.862,3.947,3.857,16.955,57.2,14,Waypoint,
37.2566042,-119.3808275,5206.1344720425,8.530184,0,0.77509188832,7300,2018-06-17 19:11:41,10,0,23.111,5206.1344720425,8.530184,0.671082,0.77509188832,0,0,-0.671082,343.3, 2.6, -1.4,0,0,1024,1024,1024,1024,344.4,-89.9,98,3.845,3.848,3.834,3.862,3.947,3.857,16.955,57.2,14,Waypoint,
37.2566044,-119.3808272,5207.1187240425,9.514436,0,0.82136157484,7400,2018-06-17 19:11:41,10,0,23.111,5207.1187240425,9.514436,0.671082,0.82136157484,0,0,-0.671082,343.2, 2.6, -1.9,0,0,1024,1024,1024,1024,344.3,-89.9,98,3.845,3.848,3.834,3.862,3.947,3.857,16.955,57.2,14,Waypoint,
37.2566046,-119.3808269,5208.1029760425,10.498688,0,0.87996065808,7500,2018-06-17 19:11:41,10,0,23.111,5208.1029760425,10.498688,0.671082,0.87996065808,0,0,-0.671082,343, 2.6, -2.1,0,0,1024,1024,1024,1024,344.3,-89.9,98,3.845,3.848,3.834,3.862,3.947,3.857,16.955,57.2,14,Waypoint,
37.2566048,-119.3808268,5209.4153120425,11.811024,0,0.95038388868,7600,2018-06-17 19:11:41,10,0,23.111,5209.4153120425,11.811024,0.671082,0.95038388868,0,0,-0.671082,342.9, 2.6, -2.2,0,0,1024,1024,1024,1024,344.3,-89.9,98,3.845,3.848,3.834,3.862,3.947,3.857,16.955,57.2,14,Waypoint,
37.2566049,-119.3808267,5210.3995640425,12.795276,0,0.98552168508,7700,2018-06-17 19:11:41,8,0,23.111,5210.3995640425,12.795276,0.671082,0.98552168508,0,0,-0.671082,342.9, 2.7, -2,0,0,1024,1024,1024,1024,344.3,-89.9,98,3.845,3.848,3.834,3.862,3.947,3.857,16.955,57.2,14,Waypoint,
37.256605,-119.3808266,5211.3838160425,13.779528,0,1.02157811668,7800,2018-06-17 19:11:41,8,0,23.111,5211.3838160425,13.779528,0.671082,1.02157811668,0,0,-0.671082,342.9, 2.7, -1.9,0,0,1024,1024,1024,1024,344.3,-89.9,98,3.845,3.848,3.834,3.862,3.947,3.857,16.955,57.2,14,Waypoint,
37.256605,-119.3808265,5212.6961520425,15.091864,0,1.02199150252,7900,2018-06-17 19:11:41,11,0,23.111,5212.6961520425,15.091864,0.671082,1.02199150252,0,0,-0.671082,342.9, 2.8, -1.7,0,0,1024,1024,1024,1024,344.3,-89.9,98,3.845,3.848,3.834,3.862,3.947,3.857,16.955,57.2,14,Waypoint,
37.2566049,-119.3808265,5214.0084880425,16.4042,0,0.98552168508,8000,2018-06-17 19:11:42,11,0,22.626,5214.0084880425,16.4042,0.671082,1.02199150252,0,0,-0.671082,343.1, 2.6, -1.5,0,0,1024,1024,1024,1024,344.2,-89.9,98,3.768,3.777,3.722,3.757,3.753,3.732,22.852,57.2,14,Waypoint,
37.2566049,-119.3808265,5214.9927400425,17.388452,0.223694,0.98552168508,8100,2018-06-17 19:11:42,10,0,22.626,5214.9927400425,17.388452,0.671082,1.02199150252,0,0,-0.671082,343.2, 2.2, -1.3,0,0,1024,1024,1024,1024,344.2,-90,98,3.768,3.777,3.722,3.757,3.753,3.732,22.852,57.2,14,Waypoint,
37.2566047,-119.3808267,5216.3050760425,18.700788,0.223694,0.91258533104,8200,2018-06-17 19:11:42,10,0,22.626,5216.3050760425,18.700788,0.671082,1.02199150252,0,0,-0.671082,343.2, 1.7, -1.1,0,0,1024,1024,1024,1024,344.2,-89.9,98,3.768,3.777,3.722,3.757,3.753,3.732,22.852,57.2,14,Waypoint,
37.2566046,-119.380827,5218.6016640425,20.997376,0.223694,0.88331039572,8400,2018-06-17 19:11:42,11,0,22.626,5218.6016640425,20.997376,0.671082,1.02199150252,0,0,-0.671082,343.1, 1.7, -0.5,0,0,1024,1024,1024,1024,344.2,-90,98,3.768,3.777,3.722,3.757,3.753,3.732,22.852,57.2,14,Waypoint,
37.2566045,-119.3808271,5219.5859160425,21.981628,0.223694,0.851624043,8500,2018-06-17 19:11:42,11,0,22.626,5219.5859160425,21.981628,0.671082,1.02199150252,0,0,-0.671082,343.2, 1.8, -0.2,0,0,1024,1024,1024,1024,344.2,-90,98,3.768,3.777,3.722,3.757,3.753,3.732,22.852,57.2,14,Waypoint,
37.2566044,-119.3808273,5220.8982520425,23.293964,0.223694,0.82800855668,8600,2018-06-17 19:11:42,11,0,22.626,5220.8982520425,23.293964,0.671082,1.02199150252,0,0,-0.671082,343.2, 1.7, 0,0,0,1024,1024,1024,1024,344.2,-89.9,98,3.768,3.777,3.722,3.757,3.753,3.732,22.852,57.2,14,Waypoint,
37.2566043,-119.3808274,5221.8825040425,24.278216,0.223694,0.80062994688,8700,2018-06-17 19:11:42,11,0,22.626,5221.8825040425,24.278216,0.671082,1.02199150252,0,0,-0.671082,343.1, 1.8, 0,0,0,1024,1024,1024,1024,344.2,-89.9,98,3.768,3.777,3.722,3.757,3.753,3.732,22.852,57.2,14,Waypoint,
37.2566042,-119.3808277,5222.8667560425,25.262468,0.223694,0.7965551436,8800,2018-06-17 19:11:42,11,0,22.626,5222.8667560425,25.262468,0.671082,1.02199150252,0,0,-0.671082,343, 1.8, 0.1,0,0,1024,1024,1024,1024,344.1,-89.9,98,3.768,3.777,3.722,3.757,3.753,3.732,22.852,57.2,14,Waypoint,
37.2566042,-119.3808279,5224.1790920425,26.574804,0.223694,0.8215715486,8900,2018-06-17 19:11:42,11,0,22.626,5224.1790920425,26.574804,0.671082,1.02199150252,0,0,-0.671082,342.9, 1.7, 0.6,0,0,1024,1024,1024,1024,344.1,-89.9,98,3.768,3.777,3.722,3.757,3.753,3.732,22.852,57.2,14,Waypoint,
37.2566041,-119.380828,5225.1633440425,27.559056,0.223694,0.80363519632,9000,2018-06-17 19:11:43,11,0,22.626,5225.1633440425,27.559056,0.671082,1.02199150252,0,0,-0.671082,342.8, 1.7, 1,0,0,1024,1024,1024,1024,344.1,-89.9,98,3.768,3.777,3.722,3.757,3.753,3.732,22.852,57.2,14,Waypoint,
37.256604,-119.3808281,5226.1475960425,28.543308,0.223694,0.788057768,9100,2018-06-17 19:11:43,11,0,22.626,5226.1475960425,28.543308,0.671082,1.02199150252,0,0,-0.671082,342.8, 1.6, 1,0,0,1024,1024,1024,1024,344.1,-89.9,98,3.768,3.777,3.722,3.757,3.753,3.732,22.852,57.2,14,Waypoint,
37.2566038,-119.3808284,5227.4599320425,29.855644,0.223694,0.78358270224,9200,2018-06-17 19:11:43,11,0,22.626,5227.4599320425,29.855644,0.671082,1.02199150252,0,0,-0.671082,342.8, 1.5, 0.9,0,0,1024,1024,1024,1024,344.1,-90,98,3.768,3.777,3.722,3.757,3.753,3.732,22.852,57.2,14,Waypoint,
37.2566036,-119.3808286,5228.4441840425,30.839896,0.223694,0.77344818748,9300,2018-06-17 19:11:43,11,0,22.626,5228.4441840425,30.839896,0.671082,1.02199150252,0,0,-0.671082,342.9, 1.4, 0.8,0,0,1024,1024,1024,1024,344.1,-89.9,98,3.768,3.777,3.722,3.757,3.753,3.732,22.852,57.2,14,Waypoint,
37.2566033,-119.3808289,5229.4284360425,31.824148,0.223694,0.77921262336,9400,2018-06-17 19:11:43,11,0,22.626,5229.4284360425,31.824148,0.671082,1.02199150252,0,0,-0.671082,343, 1.2, 1,0,0,1024,1024,1024,1024,344.1,-90,98,3.768,3.777,3.722,3.757,3.753,3.732,22.852,57.2,14,Waypoint,
37.2566031,-119.3808293,5230.4126880425,32.8084,0.223694,0.8500492398,9500,2018-06-17 19:11:43,11,0,22.626,5230.4126880425,32.8084,0.671082,1.02199150252,0,0,-0.671082,343.1, 0.8, 1.5,0,0,1024,1024,1024,1024,344.1,-90,98,3.768,3.777,3.722,3.757,3.753,3.732,22.852,57.2,14,Waypoint,
37.2566028,-119.3808297,5231.7250240425,34.120736,0.223694,0.9264600034,9600,2018-06-17 19:11:43,11,0,22.626,5231.7250240425,34.120736,0.671082,1.02199150252,0,0,-0.671082,343.2, 0.6, 2.1,0,0,1024,1024,1024,1024,344.1,-90,98,3.768,3.777,3.722,3.757,3.753,3.732,22.852,57.2,14,Waypoint,
37.2566025,-119.3808301,5232.7092760425,35.104988,0.223694,1.0222605314,9700,2018-06-17 19:11:43,10,0,22.626,5232.7092760425,35.104988,0.671082,1.0222605314,0,0,-0.671082,343.3, 0.5, 2.8,0,0,1024,1024,1024,1024,344.1,-89.9,98,3.768,3.777,3.722,3.757,3.753,3.732,22.852,57.2,14,Waypoint,
37.2566023,-119.3808303,5233.6935280425,36.08924,0.223694,1.0750820554,9800,2018-06-17 19:11:43,10,0,22.626,5233.6935280425,36.08924,0.671082,1.0750820554,0,0,-0.671082,343.2, 0.4, 3.1,0,0,1024,1024,1024,1024,344.1,-90,98,3.768,3.777,3.722,3.757,3.753,3.732,22.852,57.2,14,Waypoint,
37.2566022,-119.3808304,5234.6777800425,37.073492,0,1.10350397232,9900,2018-06-17 19:11:43,10,0,22.626,5234.6777800425,37.073492,0.671082,1.10350397232,0,0,-0.671082,343.2, 0.1, 2.6,0,0,1024,1024,1024,1024,344.1,-89.9,98,3.768,3.777,3.722,3.757,3.753,3.732,22.852,57.2,14,Waypoint,
37.256602,-119.3808306,5235.9901160425,38.385828,0,1.16387142832,10000,2018-06-17 19:11:44,10,0,22.683,5235.9901160425,38.385828,0.671082,1.16387142832,0,0,-0.671082,343.2, 0, 2,0,0,1024,1024,1024,1024,344.1,-89.9,97,3.79,3.773,3.761,3.797,3.789,3.78,18.823,57.2,14,Waypoint,
37.2566016,-119.3808306,5237.9586200425,40.354332,0.223694,1.18203087772,10100,2018-06-17 19:11:44,10,0,22.683,5237.9586200425,40.354332,0.671082,1.18203087772,0,0,-0.671082,343.2, 0, 1.1,0,0,1024,1024,1024,1024,344.1,-89.9,97,3.79,3.773,3.761,3.797,3.789,3.78,18.823,57.2,14,Waypoint,
37.2566016,-119.3808306,5237.9586200425,40.354332,0.223694,1.18203087772,10200,2018-06-17 19:11:44,10,0,22.683,5237.9586200425,40.354332,0.671082,1.18203087772,0,0,-0.671082,343.2, 0, 1.1,0,0,1024,1024,1024,1024,344.1,-89.9,97,3.79,3.773,3.761,3.797,3.789,3.78,18.823,57.2,14,Waypoint,
37.2566013,-119.3808307,5239.9271240425,42.322836,0,1.235072218,10400,2018-06-17 19:11:44,11,0,22.683,5239.9271240425,42.322836,0.671082,1.235072218,0,0,-0.671082,343, 0, 0.8,0,0,1024,1024,1024,1024,344.1,-89.9,97,3.79,3.773,3.761,3.797,3.789,3.78,18.823,57.2,14,Waypoint,
37.2566012,-119.3808308,5241.8956280425,44.29134,0,1.27306106436,10600,2018-06-17 19:11:44,12,0,22.683,5241.8956280425,44.29134,0.671082,1.27306106436,0,0,-0.671082,343, 0.3, 1.3,0,0,1024,1024,1024,1024,344.1,-89.9,97,3.79,3.773,3.761,3.797,3.789,3.78,18.823,57.2,14,Waypoint,
37.2566011,-119.3808308,5242.8798800425,45.275592,0.223694,1.28399282324,10700,2018-06-17 19:11:44,12,0,22.683,5242.8798800425,45.275592,0.671082,1.28399282324,0,0,-0.671082,343, 0.5, 1.1,0,0,1024,1024,1024,1024,344.1,-89.9,97,3.79,3.773,3.761,3.797,3.789,3.78,18.823,57.2,14,Waypoint,
37.2566011,-119.3808308,5243.8641320425,46.259844,0.223694,1.28399282324,10800,2018-06-17 19:11:44,12,0,22.683,5243.8641320425,46.259844,0.671082,1.28399282324,0,0,-0.671082,343, 0.7, 0.9,0,0,1024,1024,1024,1024,344.1,-89.9,97,3.79,3.773,3.761,3.797,3.789,3.78,18.823,57.2,14,Waypoint,
37.2566011,-119.3808308,5244.8483840425,47.244096,0.223694,1.28399282324,10900,2018-06-17 19:11:44,11,0,22.683,5244.8483840425,47.244096,0.671082,1.28399282324,0,0,-0.671082,343, 0.9, 1,0,0,1024,1024,1024,1024,344.1,-89.9,97,3.79,3.773,3.761,3.797,3.789,3.78,18.823,57.2,14,Waypoint,
37.2566011,-119.3808306,5245.8326360425,48.228348,0.223694,1.22896001308,11000,2018-06-17 19:11:45,11,0,22.683,5245.8326360425,48.228348,0.671082,1.28399282324,0,0,-0.671082,343, 0.7, 0.9,0,0,1024,1024,1024,1024,344.1,-89.9,97,3.79,3.773,3.761,3.797,3.789,3.78,18.823,57.2,14,Waypoint,
37.2566011,-119.3808305,5246.8168880425,49.2126,0.223694,1.20154859488,11100,2018-06-17 19:11:45,11,0,22.683,5246.8168880425,49.2126,0.671082,1.28399282324,0,0,-0.671082,343.1, 0.5, 0.5,0,0,1024,1024,1024,1024,344.1,-89.9,97,3.79,3.773,3.761,3.797,3.789,3.78,18.823,57.2,14,Waypoint,
37.2566011,-119.3808303,5247.8011400425,50.196852,0.223694,1.14696854064,11200,2018-06-17 19:11:45,11,0,22.683,5247.8011400425,50.196852,0.671082,1.28399282324,0,0,-0.671082,343.2, 0.2, 0,0,0,1024,1024,1024,1024,344.1,-89.9,97,3.79,3.773,3.761,3.797,3.789,3.78,18.823,57.2,14,Waypoint,
37.2566011,-119.3808301,5248.7853920425,51.181104,0.223694,1.09275265964,11300,2018-06-17 19:11:45,11,0,22.683,5248.7853920425,51.181104,0.671082,1.28399282324,0,0,-0.671082,343.4, 0.1, -0.2,0,0,1024,1024,1024,1024,344.1,-89.9,97,3.79,3.773,3.761,3.797,3.789,3.78,18.823,57.2,14,Waypoint,
37.2566011,-119.3808299,5249.4415600425,51.837272,0.223694,1.03895016448,11400,2018-06-17 19:11:45,11,0,22.683,5249.4415600425,51.837272,0.671082,1.28399282324,0,0,-0.671082,343.5, 0.1, -0.7,0,0,1024,1024,1024,1024,344.1,-89.9,97,3.79,3.773,3.761,3.797,3.789,3.78,18.823,57.2,14,Waypoint,
37.2566011,-119.3808298,5250.4258120425,52.821524,0.223694,1.01222772268,11500,2018-06-17 19:11:45,11,0,22.683,5250.4258120425,52.821524,0.671082,1.28399282324,0,0,-0.671082,343.6, 0.1, -0.8,0,0,1024,1024,1024,1024,344.1,-89.9,97,3.79,3.773,3.761,3.797,3.789,3.78,18.823,57.2,14,Waypoint,
37.2566011,-119.3808297,5251.4100640425,53.805776,0.223694,0.98563323364,11600,2018-06-17 19:11:45,11,0,22.683,5251.4100640425,53.805776,0.671082,1.28399282324,0,0,-0.671082,343.6, 0.1, -0.8,0,0,1024,1024,1024,1024,344.1,-89.9,97,3.79,3.773,3.761,3.797,3.789,3.78,18.823,57.2,14,Waypoint,
37.2566011,-119.3808296,5252.3943160425,54.790028,0.223694,0.95918310156,11700,2018-06-17 19:11:45,12,0,22.683,5252.3943160425,54.790028,0.671082,1.28399282324,0,0,-0.671082,343.6, 0.2, -0.6,0,0,1024,1024,1024,1024,344.1,-89.9,97,3.79,3.773,3.761,3.797,3.789,3.78,18.823,57.2,14,Waypoint,
37.2566012,-119.3808294,5253.3785680425,55.77428,0.223694,0.89121065844,11800,2018-06-17 19:11:45,12,0,22.683,5253.3785680425,55.77428,0.671082,1.28399282324,0,0,-0.671082,343.5, 0.3, -0.4,0,0,1024,1024,1024,1024,344.1,-89.9,97,3.79,3.773,3.761,3.797,3.789,3.78,18.823,57.2,14,Waypoint,
37.2566013,-119.3808293,5254.3628200425,56.758532,0.223694,0.8500492398,11900,2018-06-17 19:11:45,12,0,22.683,5254.3628200425,56.758532,0.671082,1.28399282324,0,0,-0.671082,343.4, 0.6, -0.4,0,0,1024,1024,1024,1024,344.1,-89.9,97,3.79,3.773,3.761,3.797,3.789,3.78,18.823,57.2,14,Waypoint,
37.2566013,-119.3808291,5255.3470720425,57.742784,0.223694,0.79679464492,12010,2018-06-17 19:11:46,12,0,22.746,5255.3470720425,57.742784,0.671082,1.28399282324,0,0,-0.671082,343.4, 0.7, -0.6,0,0,1024,1024,1024,1024,344.1,-89.9,97,3.793,3.794,3.751,3.804,3.789,3.792,18.454,57.2,14,Waypoint,
37.2566013,-119.380829,5256.3313240425,58.727036,0.223694,0.77042981468,12100,2018-06-17 19:11:46,12,0,22.746,5256.3313240425,58.727036,0.671082,1.28399282324,0,0,-0.671082,343.3, 0.6, -0.8,0,0,1024,1024,1024,1024,344.1,-89.9,97,3.793,3.794,3.751,3.804,3.789,3.792,18.454,57.2,14,Waypoint,
37.2566013,-119.3808289,5257.3155760425,59.711288,0.223694,0.74426183484,12200,2018-06-17 19:11:46,12,0,22.746,5257.3155760425,59.711288,0.671082,1.28399282324,0,0,-0.671082,343.2, 0.4, -0.8,0,0,1024,1024,1024,1024,344.1,-89.9,97,3.793,3.794,3.751,3.804,3.789,3.792,18.454,57.2,14,Waypoint,
37.2566014,-119.3808288,5258.2998280425,60.69554,0.223694,0.70238847392,12300,2018-06-17 19:11:46,11,0,22.746,5258.2998280425,60.69554,0.671082,1.28399282324,0,0,-0.671082,343.1, 0.3, -0.7,0,0,1024,1024,1024,1024,344.1,-89.9,97,3.793,3.794,3.751,3.804,3.789,3.792,18.454,57.2,14,Waypoint,
37.2566014,-119.3808286,5259.9402480425,62.33596,0,0.65000986332,12400,2018-06-17 19:11:46,11,0,22.746,5259.9402480425,62.33596,0.671082,1.28399282324,0,0,-0.671082,343, 0.4, -0.5,0,0,1024,1024,1024,1024,344.1,-89.9,97,3.793,3.794,3.751,3.804,3.789,3.792,18.454,57.2,14,Waypoint,
37.2566015,-119.3808285,5260.9245000425,63.320212,0,0.60799214544,12500,2018-06-17 19:11:46,11,0,22.746,5260.9245000425,63.320212,0.671082,1.28399282324,0,0,-0.671082,342.9, 0.5, -0.3,0,0,1024,1024,1024,1024,344.1,-89.9,97,3.793,3.794,3.751,3.804,3.789,3.792,18.454,57.2,14,Waypoint,
37.2566016,-119.3808284,5261.9087520425,64.304464,0,0.5666994932,12700,2018-06-17 19:11:46,12,0,22.746,5261.9087520425,64.304464,0.671082,1.28399282324,0,0,-0.671082,342.9, 0.7, -0.5,0,0,1024,1024,1024,1024,344.1,-89.9,97,3.793,3.794,3.751,3.804,3.789,3.792,18.454,57.2,14,Waypoint,
37.2566016,-119.3808283,5262.8930040425,65.288716,0,0.54003282568,12800,2018-06-17 19:11:46,12,0,22.746,5262.8930040425,65.288716,0.671082,1.28399282324,0,0,-0.671082,343, 0.8, -0.8,0,0,1024,1024,1024,1024,344.1,-89.9,97,3.793,3.794,3.751,3.804,3.789,3.792,18.454,57.2,14,Waypoint,
37.2566018,-119.380828,5264.8615080425,67.25722,0,0.4319553944,13000,2018-06-17 19:11:47,11,0,22.654,5264.8615080425,67.25722,0.671082,1.28399282324,0,0,-0.671082,343.1, 0.7, -1,0,0,1024,1024,1024,1024,344.1,-89.9,97,3.776,3.773,3.751,3.788,3.783,3.772,19.109,57.2,14,Waypoint,
37.2566019,-119.3808279,5265.8457600425,68.241472,0,0.3930610362,13100,2018-06-17 19:11:47,12,0,22.654,5265.8457600425,68.241472,0.671082,1.28399282324,0,0,-0.671082,343.2, 0.8, -1.1,0,0,1024,1024,1024,1024,344.1,-89.9,97,3.776,3.773,3.751,3.788,3.783,3.772,19.109,57.2,14,Waypoint,
37.2566021,-119.3808277,5266.8300120425,69.225724,0,0.321511821312,13200,2018-06-17 19:11:47,12,0,22.654,5266.8300120425,69.225724,0.671082,1.28399282324,0,0,-0.671082,343.4, 1.1, -1.2,0,0,1024,1024,1024,1024,344.1,-89.9,97,3.776,3.773,3.751,3.788,3.783,3.772,19.109,57.2,14,Waypoint,
37.2566022,-119.3808276,5268.1423480425,70.53806,0,0.2903953505,13300,2018-06-17 19:11:47,12,0,22.654,5268.1423480425,70.53806,0.671082,1.28399282324,0,0,-0.671082,343.6, 1.2, -1.2,0,0,1024,1024,1024,1024,344.1,-89.9,97,3.776,3.773,3.751,3.788,3.783,3.772,19.109,57.2,14,Waypoint,
37.2566023,-119.3808275,5269.1266000425,71.522312,0,0.263890100308,13400,2018-06-17 19:11:47,12,0,22.654,5269.1266000425,71.522312,0.671082,1.28399282324,0,0,-0.671082,343.7, 1.1, -1.2,0,0,1024,1024,1024,1024,344.1,-89.9,97,3.776,3.773,3.751,3.788,3.783,3.772,19.109,57.2,14,Waypoint,
37.2566023,-119.3808275,5270.1108520425,72.506564,0,0.263890100308,13510,2018-06-17 19:11:47,12,0,22.654,5270.1108520425,72.506564,0.671082,1.28399282324,0,0,-0.671082,343.7, 1.1, -1.3,0,0,1024,1024,1024,1024,344.1,-89.9,97,3.776,3.773,3.751,3.788,3.783,3.772,19.109,57.2,14,Waypoint,
37.2566024,-119.3808274,5271.0951040425,73.490816,0,0.243506569472,13600,2018-06-17 19:11:47,12,0,22.654,5271.0951040425,73.490816,0.671082,1.28399282324,0,0,-0.671082,343.7, 1.1, -1.1,0,0,1024,1024,1024,1024,344.1,-89.9,97,3.776,3.773,3.751,3.788,3.783,3.772,19.109,57.2,14,Waypoint,
37.2566025,-119.3808273,5272.0793560425,74.475068,0,0.230871726548,13700,2018-06-17 19:11:47,12,0,22.654,5272.0793560425,74.475068,0.671082,1.28399282324,0,0,-0.671082,343.5, 1.2, -0.8,0,0,1024,1024,1024,1024,344.1,-89.9,97,3.776,3.773,3.751,3.788,3.783,3.772,19.109,57.2,14,Waypoint,
37.2566025,-119.3808273,5273.0636080425,75.45932,0,0.230871726548,13800,2018-06-17 19:11:47,12,0,22.654,5273.0636080425,75.45932,0.671082,1.28399282324,0,0,-0.671082,343.3, 1.2, -0.6,0,0,1024,1024,1024,1024,344.1,-89.9,97,3.776,3.773,3.751,3.788,3.783,3.772,19.109,57.2,14,Waypoint,
37.2566026,-119.3808273,5274.0478600425,76.443572,0,0.25023950932,13900,2018-06-17 19:11:47,12,0,22.654,5274.0478600425,76.443572,0.671082,1.28399282324,0,0,-0.671082,343.1, 1.3, -0.6,0,0,1024,1024,1024,1024,344.1,-89.9,97,3.776,3.773,3.751,3.788,3.783,3.772,19.109,57.2,14,Waypoint,
37.2566027,-119.3808272,5275.0321120425,77.427824,0,0.252264443768,14000,2018-06-17 19:11:48,12,0,22.57,5275.0321120425,77.427824,0.671082,1.28399282324,0,0,-0.671082,343, 1.2, -0.6,0,0,1024,1024,1024,1024,344.1,-89.9,97,3.751,3.748,3.722,3.763,3.758,3.748,20.01,57.2,14,Waypoint,
37.2566027,-119.3808272,5276.0163640425,78.412076,0,0.252264443768,14100,2018-06-17 19:11:48,12,0,22.57,5276.0163640425,78.412076,0.671082,1.28399282324,0,0,-0.671082,343, 1.1, -0.6,0,0,1024,1024,1024,1024,344.1,-89.9,97,3.751,3.748,3.722,3.763,3.758,3.748,20.01,57.2,14,Waypoint,
37.2566027,-119.3808272,5277.0006160425,79.396328,0,0.252264443768,14200,2018-06-17 19:11:48,12,0,22.57,5277.0006160425,79.396328,0.671082,1.28399282324,0,0,-0.671082,343, 1, -0.7,0,0,1024,1024,1024,1024,344.1,-89.9,97,3.751,3.748,3.722,3.763,3.758,3.748,20.01,57.2,14,Waypoint,
37.2566027,-119.3808271,5277.6567840425,80.052496,0,0.233154863104,14300,2018-06-17 19:11:48,12,0,22.57,5277.6567840425,80.052496,0.671082,1.28399282324,0,0,-0.671082,343, 0.9, -0.7,0,0,1024,1024,1024,1024,344.1,-89.9,97,3.751,3.748,3.722,3.763,3.758,3.748,20.01,57.2,14,Waypoint,
37.2566027,-119.3808271,5278.6410360425,81.036748,0,0.233154863104,14400,2018-06-17 19:11:48,12,0,22.57,5278.6410360425,81.036748,0.671082,1.28399282324,0,0,-0.671082,343.1, 0.9, -0.8,0,0,1024,1024,1024,1024,344.1,-89.9,97,3.751,3.748,3.722,3.763,3.758,3.748,20.01,57.2,14,Waypoint,
37.2566028,-119.3808271,5279.6252880425,82.021,0,0.262685703944,14600,2018-06-17 19:11:48,12,0,22.57,5279.6252880425,82.021,0.671082,1.28399282324,0,0,-0.671082,343.1, 1, -0.6,0,0,1024,1024,1024,1024,344.1,-89.9,97,3.751,3.748,3.722,3.763,3.758,3.748,20.01,57.2,14,Waypoint,
37.2566029,-119.3808271,5280.6095400425,83.005252,0,0.293783473968,14700,2018-06-17 19:11:48,12,0,22.57,5280.6095400425,83.005252,0.671082,1.28399282324,0,0,-0.671082,343, 1.1, -0.4,0,0,1024,1024,1024,1024,344.1,-89.9,97,3.751,3.748,3.722,3.763,3.758,3.748,20.01,57.2,14,Waypoint,
37.256603,-119.3808272,5281.5937920425,83.989504,0,0.33993111324,14800,2018-06-17 19:11:48,12,0,22.57,5281.5937920425,83.989504,0.671082,1.28399282324,0,0,-0.671082,342.9, 1.3, -0.3,0,0,1024,1024,1024,1024,344.1,-89.9,97,3.751,3.748,3.722,3.763,3.758,3.748,20.01,57.2,14,Waypoint,
37.256603,-119.3808272,5283.5622960425,85.958008,0,0.33993111324,14900,2018-06-17 19:11:48,12,0,22.57,5283.5622960425,85.958008,0.671082,1.28399282324,0,0,-0.671082,342.7, 1.6, -0.2,0,0,1024,1024,1024,1024,344.1,-89.9,97,3.751,3.748,3.722,3.763,3.758,3.748,20.01,57.2,14,Waypoint,
37.256603,-119.3808272,5284.5465480425,86.94226,0,0.33993111324,15000,2018-06-17 19:11:49,12,0,22.482,5284.5465480425,86.94226,0.671082,1.28399282324,0,0,-0.671082,342.7, 1.5, -0.1,0,0,1024,1024,1024,1024,344.1,-89.9,97,3.735,3.744,3.712,3.758,3.757,3.746,19.595,57.2,14,Waypoint,
37.256603,-119.3808273,5285.5308000425,87.926512,0,0.35568898776,15100,2018-06-17 19:11:49,12,0,22.482,5285.5308000425,87.926512,0.671082,1.28399282324,0,0,-0.671082,342.6, 1.2, -0.2,0,0,1024,1024,1024,1024,344.1,-89.9,97,3.735,3.744,3.712,3.758,3.757,3.746,19.595,57.2,14,Waypoint,
37.256603,-119.3808273,5286.5150520425,88.910764,0,0.35568898776,15200,2018-06-17 19:11:49,12,0,22.482,5286.5150520425,88.910764,0.671082,1.28399282324,0,0,-0.671082,342.6, 1.1, -0.2,0,0,1024,1024,1024,1024,344.1,-89.9,97,3.735,3.744,3.712,3.758,3.757,3.746,19.595,57.2,14,Waypoint,
37.256603,-119.3808273,5287.4993040425,89.895016,0,0.35568898776,15300,2018-06-17 19:11:49,12,0,22.482,5287.4993040425,89.895016,0.671082,1.28399282324,0,0,-0.671082,342.7, 1.1, -0.1,0,0,1024,1024,1024,1024,344.1,-89.9,97,3.735,3.744,3.712,3.758,3.757,3.746,19.595,57.2,14,Waypoint,
37.256603,-119.3808274,5288.4835560425,90.879268,0,0.3730479122,15400,2018-06-17 19:11:49,12,0,22.482,5288.4835560425,90.879268,0.671082,1.28399282324,0,0,-0.671082,342.7, 1.1, -0.3,0,0,1024,1024,1024,1024,344.1,-89.9,97,3.735,3.744,3.712,3.758,3.757,3.746,19.595,57.2,14,Waypoint,
37.256603,-119.3808274,5289.1397240425,91.535436,0,0.3730479122,15500,2018-06-17 19:11:49,12,0,22.482,5289.1397240425,91.535436,0.671082,1.28399282324,0,0,-0.671082,342.8, 1.2, -0.3,0,0,1024,1024,1024,1024,344.1,-89.9,97,3.735,3.744,3.712,3.758,3.757,3.746,19.595,57.2,14,Waypoint,
37.256603,-119.3808273,5290.4520600425,92.847772,0,0.35568898776,15600,2018-06-17 19:11:49,12,0,22.482,5290.4520600425,92.847772,0.671082,1.28399282324,0,0,-0.671082,342.8, 1.1, -0.2,0,0,1024,1024,1024,1024,344.1,-89.9,97,3.735,3.744,3.712,3.758,3.757,3.746,19.595,57.2,14,Waypoint,
37.256603,-119.3808273,5291.4363120425,93.832024,0,0.35568898776,15700,2018-06-17 19:11:49,12,0,22.482,5291.4363120425,93.832024,0.671082,1.28399282324,0,0,-0.671082,343, 0.8, -0.6,0,0,1024,1024,1024,1024,344.1,-90,97,3.735,3.744,3.712,3.758,3.757,3.746,19.595,57.2,14,Waypoint,
37.256603,-119.3808272,5292.4205640425,94.816276,0,0.33993111324,15800,2018-06-17 19:11:49,12,0,22.482,5292.4205640425,94.816276,0.671082,1.28399282324,0,0,-0.671082,343.3, 0.4, -1.4,0,0,1024,1024,1024,1024,344.1,-89.9,97,3.735,3.744,3.712,3.758,3.757,3.746,19.595,57.2,14,Waypoint,
37.256603,-119.3808272,5293.4048160425,95.800528,0,0.33993111324,15900,2018-06-17 19:11:49,12,0,22.482,5293.4048160425,95.800528,0.671082,1.28399282324,0,0,-0.671082,343.6, 0.4, -1.7,0,0,1024,1024,1024,1024,344.1,-89.9,97,3.735,3.744,3.712,3.758,3.757,3.746,19.595,57.2,14,Waypoint,
37.2566031,-119.3808272,5295.3733200425,97.769032,0,0.37172901452,16100,2018-06-17 19:11:50,12,0,22.482,5295.3733200425,97.769032,0.671082,1.28399282324,0,0,-0.671082,344.2, 1.2, -1.3,0,0,1024,1024,1024,1024,344.1,-89.9,97,3.735,3.744,3.712,3.758,3.757,3.746,19.595,57.2,14,Waypoint,
37.2566032,-119.3808272,5296.3575720425,98.753284,0,0.40431759824,16200,2018-06-17 19:11:50,12,0,22.482,5296.3575720425,98.753284,0.671082,1.28399282324,0,0,-0.671082,344.2, 1.5, -1,0,0,1024,1024,1024,1024,344.1,-89.9,97,3.735,3.744,3.712,3.758,3.757,3.746,19.595,57.2,14,Waypoint,
37.2566032,-119.3808272,5297.3418240425,99.737536,0,0.40431759824,16300,2018-06-17 19:11:50,12,0,22.482,5297.3418240425,99.737536,0.671082,1.28399282324,0,0,-0.671082,343.9, 1.8, -0.8,0,0,1024,1024,1024,1024,344.1,-89.9,97,3.735,3.744,3.712,3.758,3.757,3.746,19.595,57.2,14,Waypoint,
37.2566032,-119.3808273,5298.3260760425,100.721788,0,0.41765749368,16400,2018-06-17 19:11:50,12,0,22.482,5298.3260760425,100.721788,0.671082,1.28399282324,0,0,-0.671082,343.4, 2.2, -0.4,0,0,1024,1024,1024,1024,344.1,-89.9,97,3.735,3.744,3.712,3.758,3.757,3.746,19.595,57.2,14,Waypoint,
37.2566032,-119.3808274,5299.3103280425,101.70604,0,0.43253282224,16500,2018-06-17 19:11:50,12,0,22.482,5299.3103280425,101.70604,0.671082,1.28399282324,0,0,-0.671082,343, 2.3, -0.2,0,0,1024,1024,1024,1024,344.1,-89.9,97,3.735,3.744,3.712,3.758,3.757,3.746,19.595,57.2,14,Waypoint,
37.2566032,-119.3808275,5300.2945800425,102.690292,0,0.44879922696,16600,2018-06-17 19:11:50,12,0,22.482,5300.2945800425,102.690292,0.671082,1.28399282324,0,0,-0.671082,342.7, 2.2, 0.3,0,0,1024,1024,1024,1024,344.1,-90,97,3.735,3.744,3.712,3.758,3.757,3.746,19.595,57.2,14,Waypoint,
37.2566032,-119.3808275,5301.2788320425,103.674544,0,0.44879922696,16700,2018-06-17 19:11:50,12,0,22.482,5301.2788320425,103.674544,0.671082,1.28399282324,0,0,-0.671082,342.8, 1.3, 0.4,0,0,1024,1024,1024,1024,344.1,-90,97,3.735,3.744,3.712,3.758,3.757,3.746,19.595,57.2,14,Waypoint,
37.2566032,-119.3808275,5302.2630840425,104.658796,0,0.44879922696,16800,2018-06-17 19:11:50,12,0,22.482,5302.2630840425,104.658796,0.671082,1.28399282324,0,0,-0.671082,343, 0.8, -0.3,0,0,1024,1024,1024,1024,344.1,-89.9,97,3.735,3.744,3.712,3.758,3.757,3.746,19.595,57.2,14,Waypoint,
37.2566033,-119.3808274,5305.2158400425,107.611552,0,0.46372376812,17000,2018-06-17 19:11:51,12,0,22.276,5305.2158400425,107.611552,0.671082,1.28399282324,0,0,-0.671082,342.9, 2.2, -0.3,0,0,1024,1024,1024,1024,344.1,-89.9,97,3.718,3.717,3.691,3.737,3.734,3.718,20.531,57.2,14,Waypoint,
37.2566035,-119.3808271,5307.1843440425,109.580056,0.223694,0.4960301996,17200,2018-06-17 19:11:51,12,0,22.276,5307.1843440425,109.580056,0.671082,1.28399282324,0,0,-0.671082,342.6, 2.3, -3,0,0,1024,1024,1024,1024,344.1,-89.9,97,3.718,3.717,3.691,3.737,3.734,3.718,20.531,57.2,14,Waypoint,
37.2566036,-119.380827,5308.1685960425,110.564308,0.223694,0.52382875692,17400,2018-06-17 19:11:51,12,0,22.276,5308.1685960425,110.564308,0.671082,1.28399282324,0,0,-0.671082,342.5, 2.6, -3.6,0,0,1024,1024,1024,1024,344.1,-89.9,97,3.718,3.717,3.691,3.737,3.734,3.718,20.531,57.2,14,Waypoint,
37.2566037,-119.3808268,5309.1528480425,111.54856,0.223694,0.55034778664,17500,2018-06-17 19:11:51,12,0,22.276,5309.1528480425,111.54856,0.671082,1.28399282324,0,0,-0.671082,342.6, 3, -4,0,0,1024,1024,1024,1024,344.1,-89.9,97,3.718,3.717,3.691,3.737,3.734,3.718,20.531,57.2,14,Waypoint,
37.2566038,-119.3808267,5310.1371000425,112.532812,0,0.584481646,17600,2018-06-17 19:11:51,12,0,22.276,5310.1371000425,112.532812,0.671082,1.28399282324,0,0,-0.671082,342.6, 3.1, -4.1,0,0,1024,1024,1024,1024,344.1,-89.9,97,3.718,3.717,3.691,3.737,3.734,3.718,20.531,57.2,14,Waypoint,
37.2566039,-119.3808266,5311.1213520425,113.517064,0,0.620242802,17700,2018-06-17 19:11:51,12,0,22.276,5311.1213520425,113.517064,0.671082,1.28399282324,0,0,-0.671082,342.6, 3.1, -3.9,0,0,1024,1024,1024,1024,344.1,-89.9,97,3.718,3.717,3.691,3.737,3.734,3.718,20.531,57.2,14,Waypoint,
37.2566039,-119.3808265,5312.1056040425,114.501316,0,0.62092193588,17800,2018-06-17 19:11:51,12,0,22.276,5312.1056040425,114.501316,0.671082,1.28399282324,0,0,-0.671082,342.7, 2.8, -3.7,0,0,1024,1024,1024,1024,344.1,-89.9,97,3.718,3.717,3.691,3.737,3.734,3.718,20.531,57.2,14,Waypoint,
37.2566039,-119.3808264,5313.0898560425,115.485568,0,0.62295605668,17900,2018-06-17 19:11:51,12,0,22.276,5313.0898560425,115.485568,0.671082,1.28399282324,0,0,-0.671082,342.8, 2.4, -3.6,0,0,1024,1024,1024,1024,344.1,-89.9,97,3.718,3.717,3.691,3.737,3.734,3.718,20.531,57.2,14,Waypoint,
37.2566039,-119.3808263,5314.0741080425,116.46982,0,0.62633204104,18000,2018-06-17 19:11:52,12,0,22.334,5314.0741080425,116.46982,0.671082,1.28399282324,0,0,-0.671082,342.8, 2.2, -3.5,0,0,1024,1024,1024,1024,344.1,-89.9,97,3.695,3.711,3.678,3.732,3.727,3.702,20.059,59,14,Waypoint,
37.2566039,-119.3808262,5315.0583600425,117.454072,0,0.63102692308,18100,2018-06-17 19:11:52,12,0,22.334,5315.0583600425,117.454072,0.671082,1.28399282324,0,0,-0.671082,342.8, 2.1, -3.6,0,0,1024,1024,1024,1024,344.1,-89.9,97,3.695,3.711,3.678,3.732,3.727,3.702,20.059,59,14,Waypoint,
37.256604,-119.3808261,5316.0426120425,118.438324,0,0.6725886042,18200,2018-06-17 19:11:52,12,0,22.334,5316.0426120425,118.438324,0.671082,1.28399282324,0,0,-0.671082,342.8, 2.1, -3.7,0,0,1024,1024,1024,1024,344.1,-89.9,97,3.695,3.711,3.678,3.732,3.727,3.702,20.059,59,14,Waypoint,
37.256604,-119.380826,5317.0268640425,119.422576,0,0.67944884064,18300,2018-06-17 19:11:52,12,0,22.334,5317.0268640425,119.422576,0.671082,1.28399282324,0,0,-0.671082,342.8, 2.2, -3.8,0,0,1024,1024,1024,1024,344.1,-89.9,97,3.695,3.711,3.678,3.732,3.727,3.702,20.059,59,14,Waypoint,
37.256604,-119.3808259,5318.0111160425,120.406828,0,0.68747049444,18400,2018-06-17 19:11:52,12,0,22.334,5318.0111160425,120.406828,0.671082,1.28399282324,0,0,-0.671082,342.8, 2.4, -3.9,0,0,1024,1024,1024,1024,344.1,-89.9,97,3.695,3.711,3.678,3.732,3.727,3.702,20.059,59,14,Waypoint,
37.2566041,-119.3808258,5318.9953680425,121.39108,0,0.73110566644,18500,2018-06-17 19:11:52,12,0,22.334,5318.9953680425,121.39108,0.671082,1.28399282324,0,0,-0.671082,342.8, 2.4, -4.1,0,0,1024,1024,1024,1024,344.1,-89.9,97,3.695,3.711,3.678,3.732,3.727,3.702,20.059,59,14,Waypoint,
37.2566041,-119.3808257,5319.9796200425,122.375332,0,0.7408464804,18600,2018-06-17 19:11:52,12,0,22.334,5319.9796200425,122.375332,0.671082,1.28399282324,0,0,-0.671082,342.8, 2.4, -4.2,0,0,1024,1024,1024,1024,344.1,-89.9,97,3.695,3.711,3.678,3.732,3.727,3.702,20.059,59,14,Waypoint,
37.2566042,-119.3808256,5320.9638720425,123.359584,0,0.78536091752,18700,2018-06-17 19:11:52,12,0,22.334,5320.9638720425,123.359584,0.671082,1.28399282324,0,0,-0.671082,342.8, 2.4, -4.1,0,0,1024,1024,1024,1024,344.1,-89.9,97,3.695,3.711,3.678,3.732,3.727,3.702,20.059,59,14,Waypoint,
37.2566042,-119.3808255,5321.9481240425,124.343836,0,0.7965551436,18800,2018-06-17 19:11:52,12,0,22.334,5321.9481240425,124.343836,0.671082,1.28399282324,0,0,-0.671082,342.7, 2.6, -4,0,0,1024,1024,1024,1024,344.1,-89.9,97,3.695,3.711,3.678,3.732,3.727,3.702,20.059,59,14,Waypoint,
37.2566042,-119.3808254,5322.9323760425,125.328088,0,0.80863847732,19000,2018-06-17 19:11:53,12,0,22.02,5322.9323760425,125.328088,0.671082,1.28399282324,0,0,-0.671082,342.7, 2.6, -3.9,0,0,1024,1024,1024,1024,344.1,-89.9,97,3.695,3.711,3.678,3.732,3.727,3.702,22.332,59,14,Waypoint,
37.2566042,-119.3808252,5324.5727960425,126.968508,0,0.83531170652,19100,2018-06-17 19:11:53,12,0,22.02,5324.5727960425,126.968508,0.671082,1.28399282324,0,0,-0.671082,342.8, 2.5, -4.4,0,0,1024,1024,1024,1024,344.1,-89.9,97,3.695,3.711,3.678,3.732,3.727,3.702,22.332,59,14,Waypoint,
37.2566043,-119.3808251,5325.5570480425,127.95276,0,0.88135173424,19200,2018-06-17 19:11:53,12,0,22.02,5325.5570480425,127.95276,0.671082,1.28399282324,0,0,-0.671082,342.8, 2.5, -4.6,0,0,1024,1024,1024,1024,344.1,-89.9,97,3.695,3.711,3.678,3.732,3.727,3.702,22.332,59,14,Waypoint,
37.2566044,-119.3808249,5327.5255520425,129.921264,0,0.94233270732,19300,2018-06-17 19:11:53,12,0,22.02,5327.5255520425,129.921264,0.671082,1.28399282324,0,0,-0.671082,342.9, 2.7, -4.7,0,0,1024,1024,1024,1024,344.1,-89.9,97,3.695,3.711,3.678,3.732,3.727,3.702,22.332,59,14,Waypoint,
37.2566044,-119.3808248,5329.4940560425,131.889768,0,0.95786420388,19600,2018-06-17 19:11:53,12,0,22.02,5329.4940560425,131.889768,0.671082,1.28399282324,0,0,-0.671082,342.8, 2.9, -4.5,0,0,1024,1024,1024,1024,344.1,-89.9,97,3.695,3.711,3.678,3.732,3.727,3.702,22.332,59,14,Waypoint,
37.2566045,-119.3808247,5330.4783080425,132.87402,0,1.00429465156,19700,2018-06-17 19:11:53,12,0,22.02,5330.4783080425,132.87402,0.671082,1.28399282324,0,0,-0.671082,342.8, 2.9, -4.4,0,0,1024,1024,1024,1024,344.1,-89.9,97,3.695,3.711,3.678,3.732,3.727,3.702,22.332,59,14,Waypoint,
37.2566045,-119.3808247,5331.4625600425,133.858272,0,1.00429465156,19800,2018-06-17 19:11:53,12,0,22.02,5331.4625600425,133.858272,0.671082,1.28399282324,0,0,-0.671082,342.9, 3.1, -4.3,0,0,1024,1024,1024,1024,344.1,-89.9,97,3.695,3.711,3.678,3.732,3.727,3.702,22.332,59,14,Waypoint,
37.2566045,-119.3808247,5332.4468120425,134.842524,0,1.00429465156,19900,2018-06-17 19:11:53,12,0,22.02,5332.4468120425,134.842524,0.671082,1.28399282324,0,0,-0.671082,343, 3, -4.3,0,0,1024,1024,1024,1024,344.1,-89.9,97,3.695,3.711,3.678,3.732,3.727,3.702,22.332,59,14,Waypoint,
37.2566045,-119.3808246,5333.4310640425,135.826776,0,1.0205380904,20000,2018-06-17 19:11:54,12,0,22.02,5333.4310640425,135.826776,0.671082,1.28399282324,0,0,-0.671082,343.1, 2.6, -4.2,0,0,1024,1024,1024,1024,344.1,-89.9,96,3.672,3.665,3.634,3.692,3.675,3.674,22.332,59,14,Waypoint,
37.2566045,-119.3808245,5334.4153160425,136.811028,0,1.03733927204,20100,2018-06-17 19:11:54,12,0,22.02,5334.4153160425,136.811028,0.671082,1.28399282324,0,0,-0.671082,343.1, 2.5, -4.3,0,0,1024,1024,1024,1024,344.1,-89.9,96,3.672,3.665,3.634,3.692,3.675,3.674,22.332,59,14,Waypoint,
37.2566044,-119.3808245,5335.3995680425,137.79528,0,1.00805121336,20200,2018-06-17 19:11:54,12,0,22.02,5335.3995680425,137.79528,0.671082,1.28399282324,0,0,-0.671082,343.1, 2.3, -4.3,0,0,1024,1024,1024,1024,344.1,-89.9,96,3.672,3.665,3.634,3.692,3.675,3.674,22.332,59,14,Waypoint,
37.2566044,-119.3808245,5336.3838200425,138.779532,0,1.00805121336,20300,2018-06-17 19:11:54,12,0,22.02,5336.3838200425,138.779532,0.671082,1.28399282324,0,0,-0.671082,343.1, 2.4, -4.5,0,0,1024,1024,1024,1024,344.1,-89.9,96,3.672,3.665,3.634,3.692,3.675,3.674,22.332,59,14,Waypoint,
37.2566044,-119.3808245,5337.3680720425,139.763784,0,1.00805121336,20400,2018-06-17 19:11:54,12,0,22.02,5337.3680720425,139.763784,0.671082,1.28399282324,0,0,-0.671082,343, 2.4, -4.6,0,0,1024,1024,1024,1024,344.1,-89.9,96,3.672,3.665,3.634,3.692,3.675,3.674,22.332,59,14,Waypoint,
37.2566044,-119.3808245,5338.3523240425,140.748036,0,1.00805121336,20500,2018-06-17 19:11:54,12,0,22.02,5338.3523240425,140.748036,0.671082,1.28399282324,0,0,-0.671082,343, 2.4, -4.6,0,0,1024,1024,1024,1024,344.1,-89.9,96,3.672,3.665,3.634,3.692,3.675,3.674,22.332,59,14,Waypoint,
37.2566044,-119.3808246,5339.3365760425,141.732288,0,0.99075462488,20600,2018-06-17 19:11:54,12,0,22.02,5339.3365760425,141.732288,0.671082,1.28399282324,0,0,-0.671082,342.9, 2.5, -4.5,0,0,1024,1024,1024,1024,344.1,-89.9,96,3.672,3.665,3.634,3.692,3.675,3.674,22.332,59,14,Waypoint,
37.2566044,-119.3808246,5340.3208280425,142.71654,0,0.99075462488,20700,2018-06-17 19:11:54,12,0,22.02,5340.3208280425,142.71654,0.671082,1.28399282324,0,0,-0.671082,342.9, 2.7, -4.4,0,0,1024,1024,1024,1024,344.1,-89.9,96,3.672,3.665,3.634,3.692,3.675,3.674,22.332,59,14,Waypoint,
37.2566043,-119.3808246,5341.3050800425,143.700792,0,0.9614337578,20800,2018-06-17 19:11:54,12,0,22.02,5341.3050800425,143.700792,0.671082,1.28399282324,0,0,-0.671082,342.9, 2.8, -4.2,0,0,1024,1024,1024,1024,344.1,-89.9,96,3.672,3.665,3.634,3.692,3.675,3.674,22.332,59,14,Waypoint,
37.2566043,-119.3808247,5342.2893320425,144.685044,0,0.9441765394,20900,2018-06-17 19:11:54,12,0,22.02,5342.2893320425,144.685044,0.671082,1.28399282324,0,0,-0.671082,342.8, 2.7, -4,0,0,1024,1024,1024,1024,344.1,-89.9,96,3.672,3.665,3.634,3.692,3.675,3.674,22.332,59,14,Waypoint,
37.2566043,-119.3808247,5343.2735840425,145.669296,0,0.9441765394,21000,2018-06-17 19:11:55,12,0,21.853,5343.2735840425,145.669296,0.671082,1.28399282324,0,0,-0.671082,342.9, 2.7, -3.9,0,0,1024,1024,1024,1024,344.1,-89.9,96,3.634,3.641,3.615,3.668,3.646,3.641,23.366,59,14,Waypoint,
37.2566043,-119.3808248,5344.5859200425,146.981632,0,0.92750331052,21100,2018-06-17 19:11:55,12,0,21.853,5344.5859200425,146.981632,0.671082,1.28399282324,0,0,-0.671082,342.9, 2.7, -3.8,0,0,1024,1024,1024,1024,344.1,-89.9,96,3.634,3.641,3.615,3.668,3.646,3.641,23.366,59,14,Waypoint,
37.2566042,-119.3808247,5345.5701720425,147.965884,0,0.91481630224,21200,2018-06-17 19:11:55,12,0,21.853,5345.5701720425,147.965884,0.671082,1.28399282324,0,0,-0.671082,343, 2.5, -4.1,0,0,1024,1024,1024,1024,344.1,-90,96,3.634,3.641,3.615,3.668,3.646,3.641,23.366,59,14,Waypoint,
37.2566042,-119.3808247,5346.5544240425,148.950136,0,0.91481630224,21300,2018-06-17 19:11:55,12,0,21.853,5346.5544240425,148.950136,0.671082,1.28399282324,0,0,-0.671082,343, 2.3, -4.4,0,0,1024,1024,1024,1024,344.1,-89.9,96,3.634,3.641,3.615,3.668,3.646,3.641,23.366,59,14,Waypoint,
37.2566042,-119.3808248,5347.5386760425,149.934388,0,0.89760173476,21400,2018-06-17 19:11:55,12,0,21.853,5347.5386760425,149.934388,0.671082,1.28399282324,0,0,-0.671082,343, 2.3, -4.6,0,0,1024,1024,1024,1024,344.1,-89.9,96,3.634,3.641,3.615,3.668,3.646,3.641,23.366,59,14,Waypoint,
37.2566041,-119.3808248,5348.5229280425,150.91864,0,0.86820212752,21600,2018-06-17 19:11:55,12,0,21.853,5348.5229280425,150.91864,0.671082,1.28399282324,0,0,-0.671082,343, 2.4, -4.5,0,0,1024,1024,1024,1024,344.1,-89.9,96,3.634,3.641,3.615,3.668,3.646,3.641,23.366,59,14,Waypoint,
37.2566041,-119.3808249,5350.4914320425,152.887144,0,0.8510334918,21700,2018-06-17 19:11:55,12,0,21.853,5350.4914320425,152.887144,0.671082,1.28399282324,0,0,-0.671082,343, 2.4, -4.3,0,0,1024,1024,1024,1024,344.1,-89.9,96,3.634,3.641,3.615,3.668,3.646,3.641,23.366,59,14,Waypoint,
37.2566041,-119.380825,5351.4756840425,153.871396,0,0.83452430492,21830,2018-06-17 19:11:55,12,0,21.853,5351.4756840425,153.871396,0.671082,1.28399282324,0,0,-0.671082,343, 2.4, -4.1,0,0,1024,1024,1024,1024,344.1,-89.9,96,3.634,3.641,3.615,3.668,3.646,3.641,23.366,59,14,Waypoint,
37.2566041,-119.380825,5352.4599360425,154.855648,0,0.83452430492,21900,2018-06-17 19:11:55,12,0,21.853,5352.4599360425,154.855648,0.671082,1.28399282324,0,0,-0.671082,343, 2.4, -4,0,0,1024,1024,1024,1024,344.1,-89.9,96,3.634,3.641,3.615,3.668,3.646,3.641,23.366,59,14,Waypoint,
37.256604,-119.3808251,5354.4284400425,156.824152,0,0.788057768,22100,2018-06-17 19:11:56,12,0,21.853,5354.4284400425,156.824152,0.671082,1.28399282324,0,0,-0.671082,343, 2.4, -3.8,0,0,1024,1024,1024,1024,344.1,-89.9,96,3.634,3.641,3.615,3.668,3.646,3.641,23.366,59,14,Waypoint,
37.2566039,-119.3808252,5356.3969440425,158.792656,0,0.74161091612,22200,2018-06-17 19:11:56,12,0,21.853,5356.3969440425,158.792656,0.671082,1.28399282324,0,0,-0.671082,343, 2.4, -4,0,0,1024,1024,1024,1024,344.1,-89.9,96,3.634,3.641,3.615,3.668,3.646,3.641,23.366,59,14,Waypoint,
37.2566039,-119.3808252,5357.3811960425,159.776908,0,0.74161091612,22400,2018-06-17 19:11:56,12,0,21.853,5357.3811960425,159.776908,0.671082,1.28399282324,0,0,-0.671082,343, 2.4, -3.8,0,0,1024,1024,1024,1024,344.1,-89.9,96,3.634,3.641,3.615,3.668,3.646,3.641,23.366,59,14,Waypoint,
37.2566039,-119.3808252,5358.3654480425,160.76116,0,0.74161091612,22500,2018-06-17 19:11:56,12,0,21.853,5358.3654480425,160.76116,0.671082,1.28399282324,0,0,-0.671082,342.9, 2.3, -4.1,0,0,1024,1024,1024,1024,344.1,-89.9,96,3.634,3.641,3.615,3.668,3.646,3.641,23.366,59,14,Waypoint,
37.2566038,-119.3808252,5359.3497000425,161.745412,0,0.71137797552,22600,2018-06-17 19:11:56,12,0,21.853,5359.3497000425,161.745412,0.671082,1.28399282324,0,0,-0.671082,342.8, 2.1, -4.2,0,0,1024,1024,1024,1024,344.1,-90,96,3.634,3.641,3.615,3.668,3.646,3.641,23.366,59,14,Waypoint,
37.2566038,-119.3808252,5360.3339520425,162.729664,0,0.71137797552,22700,2018-06-17 19:11:56,12,0,21.853,5360.3339520425,162.729664,0.671082,1.28399282324,0,0,-0.671082,342.7, 2, -4.1,0,0,1024,1024,1024,1024,344.1,-90,96,3.634,3.641,3.615,3.668,3.646,3.641,23.366,59,14,Waypoint,
37.2566038,-119.3808253,5361.3182040425,163.713916,0,0.69519031096,22800,2018-06-17 19:11:56,12,0,21.853,5361.3182040425,163.713916,0.671082,1.28399282324,0,0,-0.671082,342.8, 2.1, -4.2,0,0,1024,1024,1024,1024,344.1,-89.9,96,3.634,3.641,3.615,3.668,3.646,3.641,23.366,59,14,Waypoint,
37.2566038,-119.3808253,5362.3024560425,164.698168,0,0.69519031096,22900,2018-06-17 19:11:56,12,0,21.853,5362.3024560425,164.698168,0.671082,1.28399282324,0,0,-0.671082,342.9, 2.2, -4.1,0,0,1024,1024,1024,1024,344.1,-89.9,96,3.634,3.641,3.615,3.668,3.646,3.641,23.366,59,14,Waypoint,
37.2566038,-119.3808254,5363.2867080425,165.68242,0,0.67985894564,23000,2018-06-17 19:11:57,12,0,21.831,5363.2867080425,165.68242,0.671082,1.28399282324,0,0,-0.671082,343, 2.4, -3.9,0,0,1024,1024,1024,1024,344.1,-89.9,96,3.631,3.643,3.597,3.668,3.646,3.654,22.652,59,14,Waypoint,
37.2566038,-119.3808255,5364.2709600425,166.666672,0,0.66544293468,23100,2018-06-17 19:11:57,12,0,21.831,5364.2709600425,166.666672,0.671082,1.28399282324,0,0,-0.671082,343.1, 2.5, -3.6,0,0,1024,1024,1024,1024,344.1,-89.9,96,3.631,3.643,3.597,3.668,3.646,3.654,22.652,59,14,Waypoint,
37.2566038,-119.3808255,5365.2552120425,167.650924,0,0.66544293468,23200,2018-06-17 19:11:57,12,0,21.831,5365.2552120425,167.650924,0.671082,1.28399282324,0,0,-0.671082,343.1, 2.6, -3.4,0,0,1024,1024,1024,1024,344.1,-89.9,96,3.631,3.643,3.597,3.668,3.646,3.654,22.652,59,14,Waypoint,
37.2566038,-119.3808256,5366.2394640425,168.635176,0,0.6520013332,23300,2018-06-17 19:11:57,12,0,21.831,5366.2394640425,168.635176,0.671082,1.28399282324,0,0,-0.671082,343.2, 2.7, -3.5,0,0,1024,1024,1024,1024,344.1,-89.9,96,3.631,3.643,3.597,3.668,3.646,3.654,22.652,59,14,Waypoint,
37.2566037,-119.3808256,5368.2079680425,170.60368,0,0.61954726392,23500,2018-06-17 19:11:57,12,0,21.831,5368.2079680425,170.60368,0.671082,1.28399282324,0,0,-0.671082,343.2, 2.6, -3.6,0,0,1024,1024,1024,1024,344.1,-89.9,96,3.631,3.643,3.597,3.668,3.646,3.654,22.652,59,14,Waypoint,
37.2566037,-119.3808256,5369.1922200425,171.587932,0,0.61954726392,23600,2018-06-17 19:11:57,12,0,21.831,5369.1922200425,171.587932,0.671082,1.28399282324,0,0,-0.671082,343.2, 2.6, -3.8,0,0,1024,1024,1024,1024,344.1,-89.9,96,3.631,3.643,3.597,3.668,3.646,3.654,22.652,59,14,Waypoint,
37.2566037,-119.3808256,5370.1764720425,172.572184,0,0.61954726392,23700,2018-06-17 19:11:57,12,0,21.831,5370.1764720425,172.572184,0.671082,1.28399282324,0,0,-0.671082,343.1, 2.3, -3.6,0,0,1024,1024,1024,1024,344.1,-90,96,3.631,3.643,3.597,3.668,3.646,3.654,22.652,59,14,Waypoint,
37.2566036,-119.3808257,5371.1607240425,173.556436,0,0.5737697034,23800,2018-06-17 19:11:57,12,0,21.831,5371.1607240425,173.556436,0.671082,1.28399282324,0,0,-0.671082,343.1, 2.1, -3.8,0,0,1024,1024,1024,1024,344.1,-89.9,96,3.631,3.643,3.597,3.668,3.646,3.654,22.652,59,14,Waypoint,
37.2566036,-119.3808257,5372.1449760425,174.540688,0,0.5737697034,23900,2018-06-17 19:11:57,12,0,21.831,5372.1449760425,174.540688,0.671082,1.28399282324,0,0,-0.671082,343, 2, -3.8,0,0,1024,1024,1024,1024,344.1,-89.9,96,3.631,3.643,3.597,3.668,3.646,3.654,22.652,59,14,Waypoint,
37.2566036,-119.3808257,5373.1292280425,175.52494,0,0.5737697034,24100,2018-06-17 19:11:58,12,0,21.831,5373.1292280425,175.52494,0.671082,1.28399282324,0,0,-0.671082,342.9, 2.2, -3.8,0,0,1024,1024,1024,1024,344.1,-89.9,96,3.631,3.643,3.597,3.668,3.646,3.654,22.652,59,14,Waypoint,
37.2566036,-119.3808257,5374.1134800425,176.509192,0,0.5737697034,24200,2018-06-17 19:11:58,12,0,21.831,5374.1134800425,176.509192,0.671082,1.28399282324,0,0,-0.671082,342.9, 2.4, -3.7,0,0,1024,1024,1024,1024,344.1,-89.9,96,3.631,3.643,3.597,3.668,3.646,3.654,22.652,59,14,Waypoint,
37.2566036,-119.3808257,5376.0819840425,178.477696,0,0.5737697034,24300,2018-06-17 19:11:58,12,0,21.831,5376.0819840425,178.477696,0.671082,1.28399282324,0,0,-0.671082,343.1, 2.3, -3.4,0,0,1024,1024,1024,1024,344.1,-89.9,96,3.631,3.643,3.597,3.668,3.646,3.654,22.652,59,14,Waypoint,
37.2566036,-119.3808256,5377.0662360425,179.461948,0,0.5875656356,24400,2018-06-17 19:11:58,12,0,21.831,5377.0662360425,179.461948,0.671082,1.28399282324,0,0,-0.671082,343.1, 2.3, -3.6,0,0,1024,1024,1024,1024,344.1,-89.9,96,3.631,3.643,3.597,3.668,3.646,3.654,22.652,59,14,Waypoint,
37.2566036,-119.3808256,5378.0504880425,180.4462,0,0.5875656356,24500,2018-06-17 19:11:58,12,0,21.831,5378.0504880425,180.4462,0.671082,1.28399282324,0,0,-0.671082,343.1, 2.4, -4,0,0,1024,1024,1024,1024,344.1,-89.9,96,3.631,3.643,3.597,3.668,3.646,3.654,22.652,59,14,Waypoint,
37.2566036,-119.3808256,5379.0347400425,181.430452,0,0.5875656356,24600,2018-06-17 19:11:58,12,0,21.831,5379.0347400425,181.430452,0.671082,1.28399282324,0,0,-0.671082,343.1, 2.5, -4.3,0,0,1024,1024,1024,1024,344.1,-89.9,96,3.631,3.643,3.597,3.668,3.646,3.654,22.652,59,14,Waypoint,
37.2566036,-119.3808255,5380.0189920425,182.414704,0,0.60244752584,24700,2018-06-17 19:11:58,12,0,21.831,5380.0189920425,182.414704,0.671082,1.28399282324,0,0,-0.671082,343.1, 2.4, -4.5,0,0,1024,1024,1024,1024,344.1,-89.9,96,3.631,3.643,3.597,3.668,3.646,3.654,22.652,59,14,Waypoint,
37.2566036,-119.3808255,5381.3313280425,183.72704,0,0.60244752584,24800,2018-06-17 19:11:58,12,0,21.831,5381.3313280425,183.72704,0.671082,1.28399282324,0,0,-0.671082,343.2, 2.2, -4.5,0,0,1024,1024,1024,1024,344.1,-89.9,96,3.631,3.643,3.597,3.668,3.646,3.654,22.652,59,14,Waypoint,
37.2566035,-119.3808255,5382.3155800425,184.711292,0,0.57184056948,24900,2018-06-17 19:11:58,12,0,21.831,5382.3155800425,184.711292,0.671082,1.28399282324,0,0,-0.671082,343.3, 1.8, -4.3,0,0,1024,1024,1024,1024,344.1,-90,96,3.631,3.643,3.597,3.668,3.646,3.654,22.652,59,14,Waypoint,
37.2566035,-119.3808254,5382.9717480425,185.36746,0,0.58855644928,25000,2018-06-17 19:11:59,12,0,21.777,5382.9717480425,185.36746,0.671082,1.28399282324,0,0,-0.671082,343.3, 1.6, -4.1,0,0,1024,1024,1024,1024,344.1,-90,96,3.624,3.619,3.592,3.647,3.643,3.612,22.861,59,14,Waypoint,
37.2566035,-119.3808254,5383.9560000425,186.351712,0,0.58855644928,25100,2018-06-17 19:11:59,12,0,21.777,5383.9560000425,186.351712,0.671082,1.28399282324,0,0,-0.671082,343.2, 1.7, -4.1,0,0,1024,1024,1024,1024,344.1,-89.9,96,3.624,3.619,3.592,3.647,3.643,3.612,22.861,59,14,Waypoint,
37.2566035,-119.3808254,5384.9402520425,187.335964,0,0.58855644928,25200,2018-06-17 19:11:59,12,0,21.777,5384.9402520425,187.335964,0.671082,1.28399282324,0,0,-0.671082,343.1, 2, -4.1,0,0,1024,1024,1024,1024,344.1,-89.9,96,3.624,3.619,3.592,3.647,3.643,3.612,22.861,59,14,Waypoint,
37.2566035,-119.3808254,5386.2525880425,188.6483,0,0.58855644928,25300,2018-06-17 19:11:59,12,0,21.777,5386.2525880425,188.6483,0.671082,1.28399282324,0,0,-0.671082,343, 2.1, -4.1,0,0,1024,1024,1024,1024,344.1,-89.9,96,3.624,3.619,3.592,3.647,3.643,3.612,22.861,59,14,Waypoint,
37.2566035,-119.3808254,5387.2368400425,189.632552,0,0.58855644928,25400,2018-06-17 19:11:59,12,0,21.777,5387.2368400425,189.632552,0.671082,1.28399282324,0,0,-0.671082,342.9, 2.3, -4,0,0,1024,1024,1024,1024,344.1,-89.9,96,3.624,3.619,3.592,3.647,3.643,3.612,22.861,59,14,Waypoint,
37.2566035,-119.3808254,5388.2210920425,190.616804,0,0.58855644928,25500,2018-06-17 19:11:59,12,0,21.777,5388.2210920425,190.616804,0.671082,1.28399282324,0,0,-0.671082,342.9, 2.4, -4.1,0,0,1024,1024,1024,1024,344.1,-89.9,96,3.624,3.619,3.592,3.647,3.643,3.612,22.861,59,14,Waypoint,
37.2566036,-119.3808254,5389.2053440425,191.601056,0,0.61833663396,25600,2018-06-17 19:11:59,12,0,21.777,5389.2053440425,191.601056,0.671082,1.28399282324,0,0,-0.671082,342.9, 2.5, -4.4,0,0,1024,1024,1024,1024,344.1,-89.9,96,3.624,3.619,3.592,3.647,3.643,3.612,22.861,59,14,Waypoint,
37.2566036,-119.3808253,5390.1895960425,192.585308,0,0.6351542198,25700,2018-06-17 19:11:59,12,0,21.777,5390.1895960425,192.585308,0.671082,1.28399282324,0,0,-0.671082,342.8, 2.4, -4.4,0,0,1024,1024,1024,1024,344.1,-89.9,96,3.624,3.619,3.592,3.647,3.643,3.612,22.861,59,14,Waypoint,
37.2566037,-119.3808253,5392.1581000425,194.553812,0,0.66484910264,25900,2018-06-17 19:11:59,12,0,21.777,5392.1581000425,194.553812,0.671082,1.28399282324,0,0,-0.671082,342.7, 2.5, -4.6,0,0,1024,1024,1024,1024,344.1,-89.9,96,3.624,3.619,3.592,3.647,3.643,3.612,22.861,59,14,Waypoint,
37.2566037,-119.3808253,5393.1423520425,195.538064,0,0.66484910264,26000,2018-06-17 19:12:00,12,0,21.718,5393.1423520425,195.538064,0.671082,1.28399282324,0,0,-0.671082,342.6, 2.6, -4.7,0,0,1024,1024,1024,1024,344.1,-89.9,96,3.615,3.611,3.589,3.643,3.647,3.615,22.861,59,14,Waypoint,
37.2566038,-119.3808253,5394.1266040425,196.522316,0,0.69519031096,26100,2018-06-17 19:12:00,12,0,21.718,5394.1266040425,196.522316,0.671082,1.28399282324,0,0,-0.671082,342.5, 2.9, -4.7,0,0,1024,1024,1024,1024,344.1,-89.9,96,3.615,3.611,3.589,3.643,3.647,3.615,22.861,59,14,Waypoint,
37.2566038,-119.3808252,5395.1108560425,197.506568,0,0.71137797552,26200,2018-06-17 19:12:00,12,0,21.718,5395.1108560425,197.506568,0.671082,1.28399282324,0,0,-0.671082,342.7, 3, -4.9,0,0,1024,1024,1024,1024,344.1,-89.9,96,3.615,3.611,3.589,3.643,3.647,3.615,22.861,59,14,Waypoint,
