Latitude, Longitude, Altitude (m), Time, Sats, Speed (m/s), Range (m), Battery (%), Roll (deg), Pitch (deg), Yaw (deg), Images, HD Signal (%), RC Signal (%), Battery Temp (C), Battery Voltage (mV), Battery Current (mA), Battery Energy (mAh), Battery Capacity (mAh), Battery Discharges, flyState, timestamp (Unix), LastUpdate (ms), radioChannel, Rc_elevator, Rc_aileron, Rc_throttle, Rc_rudder, Rc_gyro, Dronetype, Battery_Cell1 (mV), Battery_Cell2 (mV), Battery_Cell3 (mV), Battery_Cell4 (mV), Battery_Cell5 (mV), Battery_Cell6 (mV), Video, isFlying, elapsedTime (ms), gimbalPitch (deg), gimbalRoll (deg), gimbalYaw (deg), VelocityX (m/s), VelocityY (m/s), VelocityZ (m/s), GroundSmear (cm), App Version, Aircraft Name, Aircraft Firmware, Aircraft Serial Number, Battery Serial Number, Battery Lifetime (%), App_Tip, App_Warning, CurrentFlightStartingIndex, CurrentFlightLastVisitedWaypoint, PreviousFlightEndingWaypointIndex
37.2566066, -119.3807986, -0.100, 13:04:47.537, 10, 0.10, 0.12, 98, 0.500, 0.500, -24.700, 1156, 100, 100, 14, 25205, -3646, 5269, 5377, 17, 11, 1529265887.537, 87, 0, 1024, 1024, 1024, 1024, 0, 6, 4168, 4180, 4165, 4222, 4253, 4163, 0, 1, 3200, -89.900, 0.000, -24.700, -0.100, 0.000, 0.000, 0.0, MapPilot_2.8.1_04242018, Dendroctonus I, 1.3.1.00, 041DDC1887, 1058163200627, 96, DJI_0157.jpg, Starting Mission from Lat/Long: 37.25661/-119.38080 Camera: Zenmuse X3 - Overlap: 90/90 - Active Connection: No, 43, 43, 43
37.2566065, -119.3807986, -0.100, 13:04:47.637, 9, 0.10, 0.13, 98, 1.000, -0.300, -24.400, 1156, 100, 100, 14, 25205, -3646, 5269, 5377, 17, 11, 1529265887.637, 92, 0, 1024, 1024, 1024, 1024, 0, 6, 4168, 4180, 4165, 4222, 4253, 4163, 0, 1, 3300, -90.000, 0.000, -24.700, -0.100, 0.000, -0.200, 0.0, , , , , , 96, , , 43, 43, 43
37.2566063, -119.3807986, 0.000, 13:04:47.737, 9, 0.10, 0.15, 98, 1.000, -0.800, -24.300, 1156, 100, 100, 14, 25205, -3646, 5269, 5377, 17, 11, 1529265887.737, 84, 0, 1024, 1024, 1024, 1024, 0, 6, 4168, 4180, 4165, 4222, 4253, 4163, 0, 1, 3400, -89.900, 0.000, -24.700, -0.100, 0.000, -0.300, 0.0, , , , , , 96, , , 43, 43, 43
37.2566062, -119.3807986, 0.000, 13:04:47.837, 10, 0.10, 0.16, 98, 0.900, -0.800, -24.200, 1156, 100, 100, 14, 25205, -3646, 5269, 5377, 17, 11, 1529265887.837, 64, 0, 1024, 1024, 1024, 1024, 0, 6, 4168, 4180, 4165, 4222, 4253, 4163, 0, 1, 3500, -90.000, 0.000, -24.700, -0.100, 0.000, -0.400, 0.0, , , , , , 96, , , 43, 43, 43
37.2566060, -119.3807986, 0.000, 13:04:47.937, 10, 0.10, 0.18, 98, 0.700, -0.700, -24.200, 1156, 100, 100, 14, 25205, -3646, 5269, 5377, 17, 11, 1529265887.937, 67, 0, 1024, 1024, 1024, 1024, 0, 6, 4168, 4180, 4165, 4222, 4253, 4163, 0, 1, 3600, -89.900, 0.000, -24.700, -0.100, 0.000, -0.400, 0.0, , , , , , 96, , , 43, 43, 43
37.2566058, -119.3807986, 0.000, 13:04:48.037, 10, 0.10, 0.19, 98, 0.500, -0.600, -24.300, 1156, 100, 100, 14, 25205, -3646, 5269, 5377, 17, 11, 1529265888.037, 55, 0, 1024, 1024, 1024, 1024, 0, 6, 4168, 4180, 4165, 4222, 4253, 4163, 0, 1, 3700, -89.900, 0.000, -24.700, -0.100, 0.000, -0.400, 0.0, , , , , , 96, , , 43, 43, 43
37.2566057, -119.3807987, 0.100, 13:04:48.137, 10, 0.00, 0.20, 98, 0.500, -0.700, -24.500, 1156, 100, 100, 14, 25208, -3421, 5269, 5377, 17, 11, 1529265888.138, 56, 0, 1024, 1024, 1024, 1024, 0, 6, 4140, 4127, 4155, 4146, 4209, 4139, 0, 1, 3800, -90.000, 0.000, -24.700, 0.000, 0.000, -0.400, 0.0, , , , , , 96, , , 43, 43, 43
37.2566056, -119.3807987, 0.100, 13:04:48.237, 10, 0.00, 0.21, 98, 0.500, -0.600, -24.600, 1156, 100, 100, 14, 25208, -3421, 5269, 5377, 17, 11, 1529265888.238, 48, 0, 1024, 1024, 1024, 1024, 0, 6, 4140, 4127, 4155, 4146, 4209, 4139, 0, 1, 3900, -89.900, 0.000, -24.700, 0.000, 0.000, -0.400, 0.0, , , , , , 96, , , 43, 43, 43
37.2566056, -119.3807987, 0.200, 13:04:48.337, 10, 0.00, 0.21, 98, 0.700, -0.300, -24.800, 1156, 100, 100, 14, 25208, -3421, 5269, 5377, 17, 11, 1529265888.337, 52, 0, 1024, 1024, 1024, 1024, 0, 6, 4140, 4127, 4155, 4146, 4209, 4139, 0, 1, 4000, -89.900, 0.000, -24.700, 0.000, 0.000, -0.400, 0.0, , , , , , 96, , , 43, 43, 43
37.2566055, -119.3807986, 0.200, 13:04:48.437, 8, 0.00, 0.22, 98, 0.500, -0.200, -24.900, 1156, 100, 100, 14, 25208, -3421, 5269, 5377, 17, 11, 1529265888.437, 56, 0, 1024, 1024, 1024, 1024, 0, 6, 4140, 4127, 4155, 4146, 4209, 4139, 0, 1, 4100, -89.900, 0.000, -24.700, 0.000, 0.000, -0.400, 0.0, , , , , , 96, , , 43, 43, 43
37.2566055, -119.3807986, 0.300, 13:04:48.537, 8, 0.00, 0.22, 98, 0.500, 0.000, -25.000, 1156, 100, 100, 14, 25208, -3421, 5269, 5377, 17, 11, 1529265888.537, 26, 0, 1024, 1024, 1024, 1024, 0, 6, 4140, 4127, 4155, 4146, 4209, 4139, 0, 1, 4199, -89.900, 0.000, -24.700, 0.000, 0.000, -0.400, 0.0, , , , , , 96, , , 43, 43, 43
37.2566056, -119.3807986, 0.400, 13:04:48.637, 9, 0.00, 0.22, 98, 0.600, 0.100, -25.000, 1156, 100, 100, 14, 25208, -3421, 5269, 5377, 17, 11, 1529265888.637, 56, 0, 1024, 1024, 1024, 1024, 0, 6, 4140, 4127, 4155, 4146, 4209, 4139, 0, 1, 4299, -89.900, 0.000, -24.700, 0.000, 0.000, -0.400, 0.0, , , , , , 96, , , 43, 43, 43
37.2566056, -119.3807987, 0.400, 13:04:48.737, 9, 0.00, 0.21, 98, 0.500, 0.200, -25.100, 1156, 100, 100, 14, 25208, -3421, 5269, 5377, 17, 11, 1529265888.737, 26, 0, 1024, 1024, 1024, 1024, 0, 6, 4140, 4127, 4155, 4146, 4209, 4139, 0, 1, 4400, -89.900, 0.000, -24.700, 0.000, 0.000, -0.400, 0.0, , , , , , 96, , , 43, 43, 43
37.2566056, -119.3807987, 0.500, 13:04:48.837, 9, 0.00, 0.21, 98, 0.500, 0.200, -25.000, 1156, 100, 100, 14, 25208, -3421, 5269, 5377, 17, 11, 1529265888.837, 26, 0, 1024, 1024, 1024, 1024, 0, 6, 4140, 4127, 4155, 4146, 4209, 4139, 0, 1, 4500, -89.900, 0.000, -24.700, 0.000, 0.000, -0.400, 0.0, , , , , , 96, , , 43, 43, 43
37.2566056, -119.3807986, 0.600, 13:04:48.937, 8, 0.00, 0.21, 98, 0.500, 0.400, -24.900, 1156, 100, 100, 14, 25208, -3421, 5269, 5377, 17, 11, 1529265888.937, 25, 0, 1024, 1024, 1024, 1024, 0, 6, 4140, 4127, 4155, 4146, 4209, 4139, 0, 1, 4600, -89.900, 0.000, -24.700, 0.000, 0.000, -0.400, 0.0, , , , , , 96, , , 43, 43, 43
37.2566057, -119.3807986, 0.600, 13:04:49.037, 8, 0.00, 0.21, 98, 0.400, 0.400, -24.900, 1156, 100, 100, 14, 23712, -16974, 5269, 5377, 17, 11, 1529265889.037, 21, 0, 1024, 1024, 1024, 1024, 0, 6, 3819, 3811, 3868, 3880, 3892, 3865, 0, 1, 4700, -89.900, 0.000, -24.700, 0.000, 0.000, -0.400, 0.0, , , , , , 96, , , 43, 43, 43
37.2566057, -119.3807985, 0.700, 13:04:49.137, 8, 0.00, 0.21, 98, 0.200, 0.400, -24.800, 1156, 100, 100, 14, 23712, -16974, 5269, 5377, 17, 11, 1529265889.137, 21, 0, 1024, 1024, 1024, 1024, 0, 6, 3819, 3811, 3868, 3880, 3892, 3865, 0, 1, 4800, -89.900, 0.000, -24.700, 0.000, 0.000, -0.400, 0.0, , , , , , 96, , , 43, 43, 43
37.2566058, -119.3807984, 0.700, 13:04:49.237, 8, 0.00, 0.21, 98, 0.000, 0.400, -24.700, 1156, 100, 100, 14, 23712, -16974, 5269, 5377, 17, 11, 1529265889.237, 27, 0, 1024, 1024, 1024, 1024, 0, 6, 3819, 3811, 3868, 3880, 3892, 3865, 0, 1, 4900, -89.900, 0.000, -24.700, 0.000, 0.000, -0.400, 0.0, , , , , , 96, , , 43, 43, 43
37.2566058, -119.3807984, 0.700, 13:04:49.337, 8, 0.00, 0.21, 98, 0.000, 0.400, -24.700, 1156, 100, 100, 14, 23712, -16974, 5269, 5377, 17, 11, 1529265889.337, 127, 0, 1024, 1024, 1024, 1024, 0, 6, 3819, 3811, 3868, 3880, 3892, 3865, 0, 1, 5000, -89.900, 0.000, -24.700, 0.000, 0.000, -0.400, 0.0, , , , , , 96, , , 43, 43, 43
37.2566058, -119.3807983, 0.800, 13:04:49.438, 8, 0.00, 0.21, 98, -0.300, 0.400, -24.600, 1156, 100, 100, 14, 23712, -16974, 5269, 5377, 17, 11, 1529265889.439, 1, 0, 1024, 1024, 1024, 1024, 0, 6, 3819, 3811, 3868, 3880, 3892, 3865, 0, 1, 5101, -89.900, 0.000, -24.700, 0.000, 0.000, -0.400, 0.0, , , , , , 96, , , 43, 43, 43
37.2566058, -119.3807983, 0.800, 13:04:49.537, 8, 0.00, 0.21, 98, -0.300, 0.400, -24.600, 1156, 100, 100, 14, 23712, -16974, 5269, 5377, 17, 11, 1529265889.537, 99, 0, 1024, 1024, 1024, 1024, 0, 6, 3819, 3811, 3868, 3880, 3892, 3865, 0, 1, 5200, -89.900, 0.000, -24.700, 0.000, 0.000, -0.400, 0.0, , , , , , 96, , , 43, 43, 43
37.2566057, -119.3807982, 0.900, 13:04:49.637, 8, 0.00, 0.22, 98, -0.300, 0.300, -24.500, 1156, 100, 100, 14, 23712, -16974, 5269, 5377, 17, 6, 1529265889.637, 96, 0, 1024, 1024, 1024, 1024, 0, 6, 3819, 3811, 3868, 3880, 3892, 3865, 0, 1, 5300, -89.900, 0.000, -24.700, 0.000, 0.000, -0.400, 0.0, , , , , , 96, , , 43, 43, 43
37.2566058, -119.3807983, 0.900, 13:04:49.737, 8, 0.00, 0.21, 98, -0.200, 0.300, -24.500, 1156, 100, 100, 14, 23712, -16974, 5269, 5377, 17, 14, 1529265889.738, 87, 0, 1024, 1024, 1024, 1024, 0, 6, 3819, 3811, 3868, 3880, 3892, 3865, 0, 1, 5400, -89.900, 0.000, -24.700, 0.000, 0.000, -0.400, 0.0, , , , , , 96, , , 43, 43, 43
37.2566059, -119.3807983, 1.000, 13:04:49.837, 10, 0.00, 0.20, 98, 0.000, 0.600, -24.400, 1156, 100, 100, 14, 23712, -16974, 5269, 5377, 17, 14, 1529265889.837, 75, 0, 1024, 1024, 1024, 1024, 0, 6, 3819, 3811, 3868, 3880, 3892, 3865, 0, 1, 5500, -89.900, 0.000, -24.700, 0.000, 0.000, -0.300, 0.0, , , , , , 96, , , 43, 43, 43
37.2566060, -119.3807983, 1.000, 13:04:49.937, 10, 0.00, 0.20, 98, 0.100, 0.900, -24.300, 1156, 100, 100, 14, 23712, -16974, 5269, 5377, 17, 14, 1529265889.937, 55, 0, 1024, 1024, 1024, 1024, 0, 6, 3819, 3811, 3868, 3880, 3892, 3865, 0, 1, 5599, -89.900, 0.000, -24.700, 0.000, 0.000, -0.200, 0.0, , , , , , 96, , , 43, 43, 43
37.2566060, -119.3807982, 1.000, 13:04:50.037, 10, 0.00, 0.19, 98, 0.100, 1.000, -24.200, 1156, 100, 100, 14, 23712, -16974, 5269, 5377, 17, 14, 1529265890.037, 88, 0, 1024, 1024, 1024, 1024, 0, 6, 3819, 3811, 3868, 3880, 3892, 3865, 0, 1, 5699, -89.900, 0.000, -24.700, 0.000, 0.000, -0.300, 0.0, , , , , , 96, , , 43, 43, 43
37.2566061, -119.3807983, 1.100, 13:04:50.137, 10, 0.00, 0.18, 98, 0.100, 1.000, -24.100, 1156, 100, 100, 14, 22822, -17256, 5269, 5377, 17, 14, 1529265890.137, 69, 0, 1024, 1024, 1024, 1024, 0, 6, 3792, 3790, 3799, 3808, 3834, 3817, 0, 1, 5799, -89.900, 0.000, -24.700, 0.000, 0.000, -0.300, 0.0, , , , , , 96, , , 43, 43, 43
37.2566062, -119.3807983, 1.100, 13:04:50.237, 11, 0.00, 0.18, 98, 0.000, 1.000, -24.000, 1156, 100, 100, 14, 22822, -17256, 5269, 5377, 17, 14, 1529265890.238, 40, 0, 1024, 1024, 1024, 1024, 0, 6, 3792, 3790, 3799, 3808, 3834, 3817, 0, 1, 5900, -89.900, 0.000, -24.700, 0.000, 0.000, -0.500, 0.0, , , , , , 96, , , 43, 43, 43
37.2566063, -119.3807982, 1.200, 13:04:50.337, 11, 0.00, 0.17, 98, -0.100, 0.900, -23.900, 1156, 100, 100, 14, 22822, -17256, 5269, 5377, 17, 14, 1529265890.337, 77, 0, 1024, 1024, 1024, 1024, 0, 6, 3792, 3790, 3799, 3808, 3834, 3817, 0, 1, 6000, -89.900, 0.000, -24.700, 0.000, 0.000, -0.600, 0.0, , , , , , 96, , , 43, 43, 43
37.2566063, -119.3807982, 1.200, 13:04:50.437, 9, 0.00, 0.17, 98, 0.000, 0.900, -23.900, 1156, 100, 100, 14, 22822, -17256, 5269, 5377, 17, 14, 1529265890.437, 67, 0, 1024, 1024, 1024, 1024, 0, 6, 3792, 3790, 3799, 3808, 3834, 3817, 0, 1, 6099, -89.900, 0.000, -24.700, 0.000, 0.000, -0.800, 0.0, , , , , , 96, , , 43, 43, 43
37.2566063, -119.3807982, 1.300, 13:04:50.537, 9, 0.00, 0.18, 98, 0.000, 0.800, -24.000, 1156, 100, 100, 14, 22822, -17256, 5269, 5377, 17, 14, 1529265890.538, 48, 0, 1024, 1024, 1024, 1024, 0, 6, 3792, 3790, 3799, 3808, 3834, 3817, 0, 1, 6200, -90.000, 0.000, -24.700, 0.000, 0.000, -1.000, 0.0, , , , , , 96, , , 43, 43, 43
37.2566063, -119.3807981, 1.500, 13:04:50.637, 9, 0.00, 0.18, 98, -0.100, 0.700, -24.000, 1156, 100, 100, 14, 22822, -17256, 5269, 5377, 17, 14, 1529265890.638, 65, 0, 1024, 1024, 1024, 1024, 0, 6, 3792, 3790, 3799, 3808, 3834, 3817, 0, 1, 6300, -89.900, 0.000, -24.700, 0.000, 0.000, -1.200, 0.0, , , , , , 96, , , 43, 43, 43
37.2566062, -119.3807982, 1.600, 13:04:50.737, 9, 0.00, 0.18, 98, -0.100, 0.500, -24.000, 1156, 100, 100, 14, 22822, -17256, 5269, 5377, 17, 14, 1529265890.737, 41, 0, 1024, 1024, 1024, 1024, 0, 6, 3792, 3790, 3799, 3808, 3834, 3817, 0, 1, 6399, -90.000, 0.000, -24.700, 0.000, 0.000, -1.500, 0.0, , , , , , 96, , , 43, 43, 43
37.2566063, -119.3807982, 1.800, 13:04:50.837, 8, 0.00, 0.17, 98, 0.000, 0.500, -24.100, 1156, 100, 100, 14, 22822, -17256, 5269, 5377, 17, 14, 1529265890.838, 32, 0, 1024, 1024, 1024, 1024, 0, 6, 3792, 3790, 3799, 3808, 3834, 3817, 0, 1, 6500, -89.900, 0.000, -24.700, 0.000, 0.000, -1.600, 0.0, , , , , , 96, , , 43, 43, 43
37.2566064, -119.3807983, 2.000, 13:04:50.937, 8, 0.00, 0.15, 98, 0.500, 0.600, -24.100, 1156, 100, 100, 14, 22822, -17256, 5269, 5377, 17, 14, 1529265890.938, 34, 0, 1024, 1024, 1024, 1024, 0, 6, 3792, 3790, 3799, 3808, 3834, 3817, 0, 1, 6600, -89.900, 0.000, -24.700, 0.000, 0.000, -1.800, 0.0, , , , , , 96, , , 43, 43, 43
37.2566065, -119.3807984, 2.200, 13:04:51.037, 8, 0.00, 0.14, 98, 0.700, 1.000, -24.100, 1156, 100, 100, 14, 22515, -19161, 5269, 5377, 17, 14, 1529265891.037, 41, 0, 1024, 1024, 1024, 1024, 0, 6, 3704, 3690, 3709, 3729, 3764, 3688, 0, 1, 6699, -89.900, 0.000, -24.700, 0.000, 0.000, -2.000, 0.0, , , , , , 96, , , 43, 43, 43
37.2566065, -119.3807985, 2.400, 13:04:51.137, 8, 0.00, 0.14, 98, 0.700, 1.200, -24.000, 1156, 100, 100, 14, 22515, -19161, 5269, 5377, 17, 14, 1529265891.138, 16, 0, 1024, 1024, 1024, 1024, 0, 6, 3704, 3690, 3709, 3729, 3764, 3688, 0, 1, 6800, -89.900, 0.000, -24.700, 0.000, 0.000, -2.200, 0.0, , , , , , 96, , , 43, 43, 43
37.2566063, -119.3807984, 2.900, 13:04:51.237, 10, 0.00, 0.16, 98, 0.400, 1.100, -24.000, 1156, 100, 100, 14, 22515, -19161, 5269, 5377, 17, 14, 1529265891.238, 22, 0, 1024, 1024, 1024, 1024, 0, 6, 3704, 3690, 3709, 3729, 3764, 3688, 0, 1, 6900, -89.900, 0.000, -24.700, 0.000, 0.000, -2.900, 0.0, , , , , , 96, , , 43, 43, 43
37.2566061, -119.3807985, 3.200, 13:04:51.337, 10, 0.00, 0.17, 98, 0.300, 0.700, -24.000, 1156, 100, 100, 14, 22515, -19161, 5269, 5377, 17, 14, 1529265891.338, 25, 0, 1024, 1024, 1024, 1024, 0, 6, 3704, 3690, 3709, 3729, 3764, 3688, 0, 1, 7000, -89.900, 0.000, -24.700, 0.000, 0.000, -3.000, 0.0, , , , , , 96, , , 43, 43, 43
37.2566061, -119.3807985, 3.200, 13:04:51.437, 10, 0.00, 0.17, 98, 0.300, 0.700, -24.000, 1156, 100, 100, 14, 22515, -19161, 5269, 5377, 17, 14, 1529265891.437, 124, 0, 1024, 1024, 1024, 1024, 0, 6, 3704, 3690, 3709, 3729, 3764, 3688, 0, 1, 7100, -89.900, 0.000, -24.700, 0.000, 0.000, -3.000, 0.0, , , , , , 96, , , 43, 43, 43
37.2566058, -119.3807989, 3.900, 13:04:51.544, 10, 0.00, 0.19, 98, 1.100, 0.000, -24.200, 1156, 100, 100, 14, 22515, -19161, 5269, 5377, 17, 14, 1529265891.544, 8, 0, 1024, 1024, 1024, 1024, 0, 6, 3704, 3690, 3709, 3729, 3764, 3688, 0, 1, 7207, -90.000, 0.000, -24.700, 0.000, 0.000, -3.200, 0.0, , , , , , 96, , , 43, 43, 43
37.2566058, -119.3807989, 3.900, 13:04:51.637, 10, 0.00, 0.19, 98, 1.100, 0.000, -24.200, 1156, 100, 100, 14, 22515, -19161, 5269, 5377, 17, 14, 1529265891.638, 102, 0, 1024, 1024, 1024, 1024, 0, 6, 3704, 3690, 3709, 3729, 3764, 3688, 0, 1, 7300, -90.000, 0.000, -24.700, 0.000, 0.000, -3.200, 0.0, , , , , , 96, , , 43, 43, 43
37.2566055, -119.3807994, 4.300, 13:04:51.737, 10, 0.10, 0.21, 98, 1.800, -0.300, -24.300, 1156, 100, 100, 14, 22515, -19161, 5269, 5377, 17, 14, 1529265891.738, 96, 0, 1024, 1024, 1024, 1024, 0, 6, 3704, 3690, 3709, 3729, 3764, 3688, 0, 1, 7400, -90.000, 0.000, -24.700, 0.000, -0.100, -3.200, 0.0, , , , , , 96, , , 43, 43, 43
37.2566053, -119.3807997, 4.600, 13:04:51.837, 9, 0.10, 0.23, 98, 2.400, -0.300, -24.400, 1156, 100, 100, 14, 22515, -19161, 5269, 5377, 17, 14, 1529265891.838, 89, 0, 1024, 1024, 1024, 1024, 0, 6, 3704, 3690, 3709, 3729, 3764, 3688, 0, 1, 7500, -90.000, 0.000, -24.700, 0.000, -0.100, -3.200, 0.0, , , , , , 96, , , 43, 43, 43
37.2566054, -119.3807998, 5.000, 13:04:51.937, 9, 0.00, 0.22, 98, 2.700, 0.000, -24.400, 1156, 100, 100, 14, 22515, -19161, 5269, 5377, 17, 14, 1529265891.938, 83, 0, 1024, 1024, 1024, 1024, 0, 6, 3704, 3690, 3709, 3729, 3764, 3688, 0, 1, 7600, -89.900, 0.000, -24.700, 0.000, 0.000, -3.200, 0.0, , , , , , 96, , , 43, 43, 43
37.2566055, -119.3807998, 5.300, 13:04:52.037, 10, 0.00, 0.21, 98, 2.400, 0.500, -24.400, 1156, 100, 100, 14, 22515, -19161, 5269, 5377, 17, 14, 1529265892.038, 87, 0, 1024, 1024, 1024, 1024, 0, 6, 3704, 3690, 3709, 3729, 3764, 3688, 0, 1, 7700, -89.900, 0.000, -24.700, 0.000, 0.000, -3.200, 0.0, , , , , , 96, , , 43, 43, 43
37.2566055, -119.3807996, 5.600, 13:04:52.137, 10, 0.00, 0.20, 98, 1.800, 0.900, -24.400, 1156, 100, 100, 14, 21792, -25214, 5269, 5377, 17, 14, 1529265892.138, 91, 0, 1024, 1024, 1024, 1024, 0, 6, 3704, 3690, 3709, 3729, 3764, 3688, 0, 1, 7800, -89.900, 0.000, -24.700, 0.000, 0.000, -3.200, 0.0, , , , , , 96, , , 43, 43, 43
37.2566056, -119.3807994, 6.000, 13:04:52.237, 10, 0.00, 0.20, 98, 1.200, 1.000, -24.500, 1156, 100, 100, 14, 21792, -25214, 5269, 5377, 17, 14, 1529265892.238, 74, 0, 1024, 1024, 1024, 1024, 0, 6, 3704, 3690, 3709, 3729, 3764, 3688, 0, 1, 7900, -89.900, 0.000, -24.700, 0.000, 0.000, -3.200, 0.0, , , , , , 96, , , 43, 43, 43
37.2566057, -119.3807991, 6.300, 13:04:52.337, 10, 0.00, 0.19, 98, 0.500, 0.900, -24.500, 1156, 100, 100, 14, 21792, -25214, 5269, 5377, 17, 14, 1529265892.338, 87, 0, 1024, 1024, 1024, 1024, 0, 6, 3704, 3690, 3709, 3729, 3764, 3688, 0, 1, 8000, -89.900, 0.000, -24.700, 0.000, 0.000, -3.200, 0.0, , , , , , 96, , , 43, 43, 43
37.2566058, -119.3807988, 6.700, 13:04:52.437, 10, 0.00, 0.19, 98, 0.000, 1.000, -24.500, 1156, 100, 100, 14, 21792, -25214, 5269, 5377, 17, 14, 1529265892.438, 63, 0, 1024, 1024, 1024, 1024, 0, 6, 3704, 3690, 3709, 3729, 3764, 3688, 0, 1, 8100, -89.900, 0.000, -24.700, 0.000, 0.000, -3.200, 0.0, , , , , , 96, , , 43, 43, 43
37.2566060, -119.3807985, 7.000, 13:04:52.537, 10, 0.00, 0.18, 98, -0.600, 1.100, -24.600, 1156, 100, 100, 14, 21792, -25214, 5269, 5377, 17, 14, 1529265892.538, 75, 0, 1024, 1024, 1024, 1024, 0, 6, 3704, 3690, 3709, 3729, 3764, 3688, 0, 1, 8200, -89.900, 0.000, -24.700, 0.000, 0.000, -3.200, 0.0, , , , , , 96, , , 43, 43, 43
37.2566063, -119.3807981, 7.300, 13:04:52.637, 9, 0.00, 0.18, 98, -1.300, 1.100, -24.600, 1156, 100, 100, 14, 21792, -25214, 5269, 5377, 17, 14, 1529265892.638, 56, 0, 1024, 1024, 1024, 1024, 0, 6, 3648, 3661, 3652, 3673, 3691, 3676, 0, 1, 8300, -89.900, 0.000, -24.700, 0.000, 0.000, -3.200, 0.0, , , , , , 96, , , 43, 43, 43
37.2566065, -119.3807978, 7.700, 13:04:52.737, 9, 0.00, 0.19, 98, -1.600, 1.100, -24.700, 1156, 100, 100, 14, 21792, -25214, 5269, 5377, 17, 14, 1529265892.738, 53, 0, 1024, 1024, 1024, 1024, 0, 6, 3648, 3661, 3652, 3673, 3691, 3676, 0, 1, 8400, -89.900, 0.000, -24.700, 0.000, 0.000, -3.100, 0.0, , , , , , 96, , , 43, 43, 43
37.2566068, -119.3807975, 8.000, 13:04:52.837, 9, 0.00, 0.20, 98, -1.700, 1.300, -24.800, 1156, 100, 100, 14, 21792, -25214, 5269, 5377, 17, 14, 1529265892.838, 37, 0, 1024, 1024, 1024, 1024, 0, 6, 3648, 3661, 3652, 3673, 3691, 3676, 0, 1, 8500, -89.900, 0.000, -24.700, 0.000, 0.000, -3.100, 0.0, , , , , , 96, , , 43, 43, 43
37.2566068, -119.3807973, 8.400, 13:04:52.937, 9, 0.00, 0.21, 98, -1.700, 1.400, -24.900, 1156, 100, 100, 14, 21792, -25214, 5269, 5377, 17, 14, 1529265892.938, 42, 0, 1024, 1024, 1024, 1024, 0, 6, 3648, 3661, 3652, 3673, 3691, 3676, 0, 1, 8600, -89.900, 0.000, -24.700, 0.000, 0.000, -3.100, 0.0, , , , , , 96, , , 43, 43, 43
37.2566069, -119.3807972, 8.700, 13:04:53.037, 9, 0.00, 0.22, 98, -1.500, 1.200, -24.800, 1156, 100, 100, 14, 21792, -25214, 5269, 5377, 17, 14, 1529265893.038, 31, 0, 1024, 1024, 1024, 1024, 0, 6, 3648, 3661, 3652, 3673, 3691, 3676, 0, 1, 8700, -89.900, 0.000, -24.700, 0.000, 0.000, -3.100, 0.0, , , , , , 96, , , 43, 43, 43
37.2566070, -119.3807971, 9.000, 13:04:53.137, 9, 0.00, 0.22, 98, -1.200, 0.800, -24.700, 1156, 100, 100, 14, 21792, -25214, 5269, 5377, 17, 14, 1529265893.137, 33, 0, 1024, 1024, 1024, 1024, 0, 6, 3648, 3661, 3652, 3673, 3691, 3676, 0, 1, 8800, -89.900, 0.000, -24.700, 0.000, 0.000, -3.000, 0.0, , , , , , 96, , , 43, 43, 43
37.2566071, -119.3807970, 9.300, 13:04:53.237, 9, 0.00, 0.23, 98, -0.800, 0.900, -24.700, 1156, 100, 100, 14, 21792, -25214, 5269, 5377, 17, 14, 1529265893.237, 40, 0, 1024, 1024, 1024, 1024, 0, 6, 3648, 3661, 3652, 3673, 3691, 3676, 0, 1, 8900, -89.900, 0.000, -24.700, 0.000, 0.000, -3.000, 0.0, , , , , , 96, , , 43, 43, 43
37.2566075, -119.3807968, 9.900, 13:04:53.337, 10, 0.00, 0.25, 98, -0.800, 1.500, -24.600, 1156, 100, 100, 14, 21792, -25214, 5269, 5377, 17, 14, 1529265893.337, 36, 0, 1024, 1024, 1024, 1024, 0, 6, 3648, 3661, 3652, 3673, 3691, 3676, 0, 1, 8999, -89.900, 0.000, -24.700, 0.000, 0.000, -2.900, 0.0, , , , , , 96, , , 43, 43, 43
37.2566075, -119.3807968, 9.900, 13:04:53.437, 10, 0.00, 0.25, 98, -0.800, 1.500, -24.600, 1156, 100, 100, 14, 21792, -25214, 5269, 5377, 17, 14, 1529265893.437, 136, 0, 1024, 1024, 1024, 1024, 0, 6, 3648, 3661, 3652, 3673, 3691, 3676, 0, 1, 9099, -89.900, 0.000, -24.700, 0.000, 0.000, -2.900, 0.0, , , , , , 96, , , 43, 43, 43
37.2566077, -119.3807971, 10.600, 13:04:53.537, 10, 0.00, 0.22, 98, -0.700, 2.300, -24.400, 1156, 100, 100, 14, 22308, -19850, 5269, 5377, 17, 14, 1529265893.537, 23, 0, 1024, 1024, 1024, 1024, 0, 6, 3706, 3707, 3718, 3721, 3749, 3711, 0, 1, 9199, -89.900, 0.000, -24.700, 0.000, 0.000, -2.900, 0.0, , , , , , 96, , , 43, 43, 43
37.2566078, -119.3807972, 10.900, 13:04:53.637, 10, 0.00, 0.22, 98, -0.300, 2.700, -24.300, 1156, 100, 99, 14, 22308, -19850, 5269, 5377, 17, 14, 1529265893.637, 27, 0, 1024, 1024, 1024, 1024, 0, 6, 3706, 3707, 3718, 3721, 3749, 3711, 0, 1, 9299, -89.900, 0.000, -24.700, 0.000, 0.000, -2.900, 0.0, , , , , , 96, , , 43, 43, 43
37.2566078, -119.3807972, 11.200, 13:04:53.737, 10, 0.00, 0.22, 98, -0.100, 2.600, -24.400, 1156, 100, 99, 14, 22308, -19850, 5269, 5377, 17, 14, 1529265893.737, 27, 0, 1024, 1024, 1024, 1024, 0, 6, 3706, 3707, 3718, 3721, 3749, 3711, 0, 1, 9399, -89.900, 0.000, -24.700, 0.000, 0.000, -3.000, 0.0, , , , , , 96, , , 43, 43, 43
37.2566079, -119.3807973, 11.500, 13:04:53.837, 10, 0.10, 0.21, 98, 0.000, 2.400, -24.500, 1156, 100, 99, 14, 22308, -19850, 5269, 5377, 17, 14, 1529265893.837, 14, 0, 1024, 1024, 1024, 1024, 0, 6, 3706, 3707, 3718, 3721, 3749, 3711, 0, 1, 9499, -89.900, 0.000, -24.700, 0.000, -0.100, -3.000, 0.0, , , , , , 96, , , 43, 43, 43
37.2566079, -119.3807974, 11.800, 13:04:53.937, 10, 0.10, 0.20, 98, 0.300, 2.300, -24.500, 1156, 100, 99, 14, 22308, -19850, 5269, 5377, 17, 14, 1529265893.937, 17, 0, 1024, 1024, 1024, 1024, 0, 6, 3706, 3707, 3718, 3721, 3749, 3711, 0, 1, 9599, -89.900, 0.000, -24.700, 0.000, -0.100, -2.900, 0.0, , , , , , 96, , , 43, 43, 43
37.2566079, -119.3807974, 11.800, 13:04:54.037, 10, 0.10, 0.20, 98, 0.300, 2.300, -24.500, 1156, 100, 99, 14, 22308, -19850, 5269, 5377, 17, 14, 1529265894.037, 117, 0, 1024, 1024, 1024, 1024, 0, 6, 3706, 3707, 3718, 3721, 3749, 3711, 0, 1, 9699, -89.900, 0.000, -24.700, 0.000, -0.100, -2.900, 0.0, , , , , , 96, , , 43, 43, 43
37.2566078, -119.3807974, 12.100, 13:04:54.137, 10, 0.00, 0.20, 98, 0.200, 2.200, -24.500, 1156, 100, 99, 14, 22308, -19850, 5269, 5377, 17, 14, 1529265894.138, 87, 0, 1024, 1024, 1024, 1024, 0, 6, 3706, 3707, 3718, 3721, 3749, 3711, 0, 1, 9800, -89.900, 0.000, -24.700, 0.000, 0.000, -2.900, 0.0, , , , , , 96, , , 43, 43, 43
37.2566078, -119.3807974, 12.400, 13:04:54.237, 10, 0.00, 0.21, 98, 0.200, 1.800, -24.500, 1156, 100, 99, 14, 22308, -19850, 5269, 5377, 17, 14, 1529265894.238, 81, 0, 1024, 1024, 1024, 1024, 0, 6, 3706, 3707, 3718, 3721, 3749, 3711, 0, 1, 9900, -89.900, 0.000, -24.700, 0.000, 0.000, -2.900, 0.0, , , , , , 96, , , 43, 43, 43
37.2566078, -119.3807975, 12.700, 13:04:54.337, 10, 0.00, 0.20, 98, 0.200, 1.500, -24.400, 1156, 100, 99, 14, 22308, -19850, 5269, 5377, 17, 14, 1529265894.337, 92, 0, 1024, 1024, 1024, 1024, 0, 6, 3706, 3707, 3718, 3721, 3749, 3711, 0, 1, 10000, -89.900, 0.000, -24.700, 0.000, 0.000, -2.800, 0.0, , , , , , 96, , , 43, 43, 43
37.2566079, -119.3807976, 13.000, 13:04:54.437, 9, 0.00, 0.19, 98, 0.400, 1.400, -24.300, 1156, 100, 99, 14, 22308, -19850, 5269, 5377, 17, 14, 1529265894.437, 96, 0, 1024, 1024, 1024, 1024, 0, 6, 3706, 3707, 3718, 3721, 3749, 3711, 0, 1, 10100, -89.900, 0.000, -24.700, 0.000, 0.000, -2.900, 0.0, , , , , , 96, , , 43, 43, 43
37.2566079, -119.3807975, 13.300, 13:04:54.537, 9, 0.00, 0.19, 98, 0.600, 1.600, -24.300, 1156, 100, 99, 14, 22308, -19850, 5269, 5377, 17, 14, 1529265894.537, 65, 0, 1024, 1024, 1024, 1024, 0, 6, 3706, 3707, 3718, 3721, 3749, 3711, 0, 1, 10200, -89.900, 0.000, -24.700, 0.000, 0.000, -2.900, 0.0, , , , , , 96, , , 43, 43, 43
37.2566079, -119.3807975, 13.600, 13:04:54.637, 9, 0.00, 0.20, 98, 0.400, 1.500, -24.300, 1156, 100, 99, 14, 22333, -19203, 5269, 5377, 17, 14, 1529265894.638, 65, 0, 1024, 1024, 1024, 1024, 0, 6, 3708, 3708, 3716, 3735, 3747, 3708, 0, 1, 10300, -89.900, 0.000, -24.700, 0.000, 0.000, -2.900, 0.0, , , , , , 96, , , 43, 43, 43
37.2566079, -119.3807976, 13.900, 13:04:54.737, 9, 0.00, 0.19, 98, 0.100, 1.600, -24.300, 1156, 100, 99, 14, 22333, -19203, 5269, 5377, 17, 14, 1529265894.738, 65, 0, 1024, 1024, 1024, 1024, 0, 6, 3708, 3708, 3716, 3735, 3747, 3708, 0, 1, 10400, -89.900, 0.000, -24.700, 0.000, 0.000, -2.800, 0.0, , , , , , 96, , , 43, 43, 43
37.2566079, -119.3807976, 14.200, 13:04:54.837, 9, 0.00, 0.19, 98, -0.100, 1.700, -24.300, 1156, 100, 99, 14, 22333, -19203, 5269, 5377, 17, 14, 1529265894.838, 57, 0, 1024, 1024, 1024, 1024, 0, 6, 3708, 3708, 3716, 3735, 3747, 3708, 0, 1, 10500, -89.900, 0.000, -24.700, 0.000, 0.000, -2.800, 0.0, , , , , , 96, , , 43, 43, 43
37.2566079, -119.3807975, 14.500, 13:04:54.937, 9, 0.00, 0.20, 98, -0.100, 1.900, -24.200, 1156, 100, 99, 14, 22333, -19203, 5269, 5377, 17, 14, 1529265894.938, 53, 0, 1024, 1024, 1024, 1024, 0, 6, 3708, 3708, 3716, 3735, 3747, 3708, 0, 1, 10600, -89.900, 0.000, -24.700, 0.000, 0.000, -2.800, 0.0, , , , , , 96, , , 43, 43, 43
37.2566079, -119.3807975, 14.800, 13:04:55.037, 9, 0.00, 0.20, 98, -0.200, 1.900, -24.100, 1156, 100, 99, 14, 22333, -19203, 5269, 5377, 17, 14, 1529265895.037, 57, 0, 1024, 1024, 1024, 1024, 0, 6, 3708, 3708, 3716, 3735, 3747, 3708, 0, 1, 10700, -89.900, 0.000, -24.700, 0.000, 0.000, -2.900, 0.0, , , , , , 96, , , 43, 43, 43
37.2566078, -119.3807976, 15.100, 13:04:55.137, 9, 0.00, 0.19, 98, -0.300, 2.000, -24.100, 1156, 100, 100, 14, 22333, -19203, 5269, 5377, 17, 14, 1529265895.138, 59, 0, 1024, 1024, 1024, 1024, 0, 6, 3708, 3708, 3716, 3735, 3747, 3708, 0, 1, 10800, -89.900, 0.000, -24.700, 0.000, 0.000, -2.900, 0.0, , , , , , 96, , , 43, 43, 43
37.2566077, -119.3807977, 15.400, 13:04:55.237, 8, 0.10, 0.17, 98, -0.100, 2.000, -24.100, 1156, 100, 100, 14, 22333, -19203, 5269, 5377, 17, 14, 1529265895.238, 53, 0, 1024, 1024, 1024, 1024, 0, 6, 3708, 3708, 3716, 3735, 3747, 3708, 0, 1, 10900, -89.900, 0.000, -24.700, -0.100, 0.000, -2.800, 0.1, , , , , , 96, , , 43, 43, 43
37.2566077, -119.3807978, 15.700, 13:04:55.337, 8, 0.10, 0.17, 98, 0.300, 1.700, -24.100, 1156, 100, 100, 14, 22333, -19203, 5269, 5377, 17, 14, 1529265895.337, 53, 0, 1024, 1024, 1024, 1024, 0, 6, 3708, 3708, 3716, 3735, 3747, 3708, 0, 1, 11000, -89.900, 0.000, -24.700, -0.100, 0.000, -2.900, 0.1, , , , , , 96, , , 43, 43, 43
37.2566076, -119.3807979, 16.000, 13:04:55.437, 10, 0.10, 0.16, 98, 0.500, 1.500, -24.100, 1156, 100, 100, 14, 22333, -19203, 5269, 5377, 17, 14, 1529265895.438, 58, 0, 1024, 1024, 1024, 1024, 0, 6, 3708, 3708, 3716, 3735, 3747, 3708, 0, 1, 11100, -89.900, 0.000, -24.700, -0.100, 0.000, -2.900, 0.1, , , , , , 96, , , 43, 43, 43
37.2566071, -119.3807984, 16.600, 13:04:55.537, 11, 0.14, 0.11, 98, 1.400, 1.300, -24.300, 1156, 100, 100, 14, 22261, -19564, 5269, 5377, 17, 14, 1529265895.537, 40, 0, 1024, 1024, 1024, 1024, 0, 6, 3688, 3699, 3711, 3722, 3739, 3695, 0, 1, 11200, -89.900, 0.000, -24.700, -0.100, -0.100, -2.800, 0.1, , , , , , 96, , , 43, 43, 43
37.2566067, -119.3807989, 16.900, 13:04:55.637, 11, 0.14, 0.09, 98, 2.000, 1.000, -24.400, 1156, 100, 100, 14, 22261, -19564, 5269, 5377, 17, 14, 1529265895.638, 27, 0, 1024, 1024, 1024, 1024, 0, 6, 3688, 3699, 3711, 3722, 3739, 3695, 0, 1, 11300, -89.900, 0.000, -24.700, -0.100, -0.100, -2.900, 0.1, , , , , , 96, , , 43, 43, 43
37.2566064, -119.3807993, 17.200, 13:04:55.737, 11, 0.14, 0.11, 98, 2.800, 0.500, -24.500, 1156, 100, 100, 14, 22261, -19564, 5269, 5377, 17, 14, 1529265895.738, 22, 0, 1024, 1024, 1024, 1024, 0, 6, 3688, 3699, 3711, 3722, 3739, 3695, 0, 1, 11400, -90.000, 0.000, -24.700, -0.100, -0.100, -2.900, 0.1, , , , , , 96, , , 43, 43, 43
37.2566062, -119.3807994, 17.500, 13:04:55.837, 11, 0.14, 0.13, 98, 3.300, 0.000, -24.700, 1156, 100, 100, 14, 22261, -19564, 5269, 5377, 17, 14, 1529265895.837, 27, 0, 1024, 1024, 1024, 1024, 0, 6, 3688, 3699, 3711, 3722, 3739, 3695, 0, 1, 11500, -90.000, 0.000, -24.700, -0.100, -0.100, -3.000, 0.1, , , , , , 96, , , 43, 43, 43
37.2566061, -119.3807995, 17.800, 13:04:55.937, 11, 0.10, 0.14, 98, 3.200, 0.000, -24.800, 1156, 100, 100, 14, 22261, -19564, 5269, 5377, 17, 14, 1529265895.937, 20, 0, 1024, 1024, 1024, 1024, 0, 6, 3688, 3699, 3711, 3722, 3739, 3695, 0, 1, 11600, -90.000, 0.000, -24.700, -0.100, 0.000, -2.900, 0.1, , , , , , 96, , , 43, 43, 43
37.2566060, -119.3807996, 18.100, 13:04:56.037, 11, 0.00, 0.15, 98, 2.600, 0.300, -24.900, 1156, 100, 100, 14, 22261, -19564, 5269, 5377, 17, 14, 1529265896.038, 12, 0, 1024, 1024, 1024, 1024, 0, 6, 3688, 3699, 3711, 3722, 3739, 3695, 0, 1, 11700, -89.900, 0.000, -24.700, 0.000, 0.000, -2.900, 0.0, , , , , , 96, , , 43, 43, 43
37.2566060, -119.3807997, 18.400, 13:04:56.137, 11, 0.00, 0.16, 98, 2.000, 0.800, -24.900, 1156, 100, 100, 14, 22261, -19564, 5269, 5377, 17, 14, 1529265896.137, 5, 0, 1024, 1024, 1024, 1024, 0, 6, 3688, 3699, 3711, 3722, 3739, 3695, 0, 1, 11799, -89.900, 0.000, -24.700, 0.000, 0.000, -3.000, 0.0, , , , , , 96, , , 43, 43, 43
37.2566059, -119.3807997, 18.700, 13:04:56.237, 11, 0.00, 0.17, 98, 1.400, 1.000, -24.800, 1156, 100, 100, 14, 22261, -19564, 5269, 5377, 17, 14, 1529265896.237, 17, 0, 1024, 1024, 1024, 1024, 0, 6, 3688, 3699, 3711, 3722, 3739, 3695, 0, 1, 11899, -89.900, 0.000, -24.700, 0.000, 0.000, -2.900, 0.0, , , , , , 96, , , 43, 43, 43
37.2566058, -119.3807997, 19.000, 13:04:56.337, 11, 0.00, 0.18, 98, 1.100, 0.800, -24.700, 1156, 100, 100, 14, 22261, -19564, 5269, 5377, 17, 14, 1529265896.337, 9, 0, 1024, 1024, 1024, 1024, 0, 6, 3688, 3699, 3711, 3722, 3739, 3695, 0, 1, 11999, -89.900, 0.000, -24.700, 0.000, 0.000, -2.900, 0.0, , , , , , 96, , , 43, 43, 43
37.2566057, -119.3807997, 19.300, 13:04:56.437, 11, 0.00, 0.19, 98, 0.900, 0.600, -24.600, 1156, 100, 100, 14, 22261, -19564, 5269, 5377, 17, 14, 1529265896.437, 2, 0, 1024, 1024, 1024, 1024, 0, 6, 3688, 3699, 3711, 3722, 3739, 3695, 0, 1, 12099, -89.900, 0.000, -24.700, 0.000, 0.000, -2.900, 0.0, , , , , , 96, , , 43, 43, 43
37.2566057, -119.3807997, 19.300, 13:04:56.537, 11, 0.00, 0.19, 98, 0.900, 0.600, -24.600, 1156, 100, 100, 14, 22261, -19564, 5269, 5377, 17, 14, 1529265896.537, 102, 0, 1024, 1024, 1024, 1024, 0, 6, 3688, 3699, 3711, 3722, 3739, 3695, 0, 1, 12199, -89.900, 0.000, -24.700, 0.000, 0.000, -2.900, 0.0, , , , , , 96, , , 43, 43, 43
37.2566056, -119.3807996, 19.600, 13:04:56.637, 10, 0.00, 0.20, 98, 0.800, 0.300, -24.400, 1156, 100, 100, 14, 22186, -20204, 5269, 5377, 17, 14, 1529265896.637, 94, 0, 1024, 1024, 1024, 1024, 0, 6, 3682, 3684, 3695, 3707, 3725, 3680, 0, 1, 12299, -90.000, 0.000, -24.700, 0.000, 0.000, -2.900, 0.0, , , , , , 96, , , 43, 43, 43
37.2566056, -119.3807994, 19.900, 13:04:56.737, 10, 0.00, 0.20, 98, 0.700, 0.000, -24.400, 1156, 100, 100, 14, 22186, -20204, 5269, 5377, 17, 14, 1529265896.737, 75, 0, 1024, 1024, 1024, 1024, 0, 6, 3682, 3684, 3695, 3707, 3725, 3680, 0, 1, 12399, -90.000, 0.000, -24.700, 0.000, 0.000, -2.900, 0.0, , , , , , 96, , , 43, 43, 43
37.2566055, -119.3807992, 20.200, 13:04:56.837, 10, 0.00, 0.20, 98, 0.500, 0.000, -24.400, 1156, 100, 100, 14, 22186, -20204, 5269, 5377, 17, 14, 1529265896.837, 93, 0, 1024, 1024, 1024, 1024, 0, 6, 3682, 3684, 3695, 3707, 3725, 3680, 0, 1, 12499, -89.900, 0.000, -24.700, 0.000, 0.000, -2.900, 0.0, , , , , , 96, , , 43, 43, 43
37.2566056, -119.3807990, 20.500, 13:04:56.937, 10, 0.10, 0.21, 98, 0.200, -0.100, -24.500, 1156, 100, 100, 14, 22186, -20204, 5269, 5377, 17, 14, 1529265896.938, 76, 0, 1024, 1024, 1024, 1024, 0, 6, 3682, 3684, 3695, 3707, 3725, 3680, 0, 1, 12600, -89.900, 0.000, -24.700, 0.000, 0.100, -2.900, 0.1, , , , , , 96, , , 43, 43, 43
37.2566056, -119.3807987, 20.800, 13:04:57.037, 9, 0.10, 0.21, 98, 0.000, 0.000, -24.600, 1156, 100, 100, 14, 22186, -20204, 5269, 5377, 17, 14, 1529265897.037, 64, 0, 1024, 1024, 1024, 1024, 0, 6, 3682, 3684, 3695, 3707, 3725, 3680, 0, 1, 12699, -89.900, 0.000, -24.700, 0.000, 0.100, -2.900, 0.1, , , , , , 96, , , 43, 43, 43
37.2566055, -119.3807986, 21.100, 13:04:57.137, 9, 0.00, 0.22, 98, -0.400, 0.100, -24.700, 1156, 100, 100, 14, 22186, -20204, 5269, 5377, 17, 14, 1529265897.137, 65, 0, 1024, 1024, 1024, 1024, 0, 6, 3682, 3684, 3695, 3707, 3725, 3680, 0, 1, 12799, -89.900, 0.000, -24.700, 0.000, 0.000, -2.900, 0.0, , , , , , 96, , , 43, 43, 43
37.2566055, -119.3807986, 21.100, 13:04:57.237, 9, 0.00, 0.22, 98, -0.400, 0.100, -24.700, 1156, 100, 99, 14, 22186, -20204, 5269, 5377, 17, 14, 1529265897.237, 166, 0, 1024, 1024, 1024, 1024, 0, 6, 3682, 3684, 3695, 3707, 3725, 3680, 0, 1, 12899, -89.900, 0.000, -24.700, 0.000, 0.000, -2.900, 0.0, , , , , , 96, , , 43, 43, 43
37.2566056, -119.3807983, 21.700, 13:04:57.337, 10, 0.00, 0.23, 98, -0.900, 0.400, -24.700, 1156, 100, 99, 14, 22186, -20204, 5269, 5377, 17, 14, 1529265897.337, 27, 0, 1024, 1024, 1024, 1024, 0, 6, 3682, 3684, 3695, 3707, 3725, 3680, 0, 1, 12999, -89.900, 0.000, -24.700, 0.000, 0.000, -2.900, 0.0, , , , , , 96, , , 43, 43, 43
37.2566057, -119.3807981, 22.000, 13:04:57.437, 9, 0.00, 0.23, 98, -0.800, 0.800, -24.700, 1156, 100, 99, 14, 22186, -20204, 5269, 5377, 17, 14, 1529265897.437, 30, 0, 1024, 1024, 1024, 1024, 0, 6, 3682, 3684, 3695, 3707, 3725, 3680, 0, 1, 13099, -89.900, 0.000, -24.700, 0.000, 0.000, -2.900, 0.0, , , , , , 96, , , 43, 43, 43
37.2566057, -119.3807980, 22.300, 13:04:57.537, 9, 0.00, 0.23, 98, -0.800, 1.000, -24.500, 1156, 100, 99, 14, 22186, -20204, 5269, 5377, 17, 14, 1529265897.537, 37, 0, 1024, 1024, 1024, 1024, 0, 6, 3682, 3684, 3695, 3707, 3725, 3680, 0, 1, 13200, -89.900, 0.000, -24.700, 0.000, 0.000, -2.900, 0.0, , , , , , 96, , , 43, 43, 43
37.2566058, -119.3807978, 22.500, 13:04:57.637, 11, 0.00, 0.23, 98, -0.900, 1.200, -24.400, 1156, 100, 96, 14, 22193, -19696, 5269, 5377, 17, 14, 1529265897.637, 38, 0, 1024, 1024, 1024, 1024, 0, 6, 3682, 3684, 3695, 3707, 3725, 3680, 0, 1, 13299, -89.900, 0.000, -24.700, 0.000, 0.000, -2.900, 0.0, , , , , , 96, , , 43, 43, 43
37.2566059, -119.3807976, 22.800, 13:04:57.737, 11, 0.00, 0.25, 98, -0.900, 1.200, -24.300, 1156, 100, 96, 14, 22193, -19696, 5269, 5377, 17, 14, 1529265897.737, 38, 0, 1024, 1024, 1024, 1024, 0, 6, 3682, 3684, 3695, 3707, 3725, 3680, 0, 1, 13399, -89.900, 0.000, -24.700, 0.000, 0.000, -2.800, 0.0, , , , , , 96, , , 43, 43, 43
37.2566059, -119.3807973, 23.100, 13:04:57.837, 11, 0.00, 0.26, 98, -0.900, 1.000, -24.300, 1156, 100, 96, 14, 22193, -19696, 5269, 5377, 17, 14, 1529265897.837, 29, 0, 1024, 1024, 1024, 1024, 0, 6, 3682, 3684, 3695, 3707, 3725, 3680, 0, 1, 13499, -89.900, 0.000, -24.700, 0.000, 0.000, -2.900, 0.0, , , , , , 96, , , 43, 43, 43
37.2566059, -119.3807973, 23.400, 13:04:57.937, 11, 0.00, 0.26, 98, -0.800, 0.600, -24.300, 1156, 100, 96, 14, 22193, -19696, 5269, 5377, 17, 14, 1529265897.937, 31, 0, 1024, 1024, 1024, 1024, 0, 6, 3682, 3684, 3695, 3707, 3725, 3680, 0, 1, 13599, -90.000, 0.000, -24.700, 0.000, 0.000, -3.000, 0.0, , , , , , 96, , , 43, 43, 43
37.2566058, -119.3807973, 23.700, 13:04:58.036, 11, 0.00, 0.27, 98, -0.700, 0.400, -24.300, 1156, 100, 96, 14, 22193, -19696, 5269, 5377, 17, 14, 1529265898.037, 35, 0, 1024, 1024, 1024, 1024, 0, 6, 3682, 3684, 3695, 3707, 3725, 3680, 0, 1, 13699, -89.900, 0.000, -24.700, 0.000, 0.000, -3.000, 0.0, , , , , , 96, , , 43, 43, 43
37.2566058, -119.3807973, 23.700, 13:04:58.136, 11, 0.00, 0.27, 98, -0.700, 0.400, -24.300, 1156, 100, 93, 14, 22193, -19696, 5269, 5377, 17, 14, 1529265898.137, 134, 0, 1024, 1024, 1024, 1024, 0, 6, 3682, 3684, 3695, 3707, 3725, 3680, 0, 1, 13799, -89.900, 0.000, -24.700, 0.000, 0.000, -3.000, 0.0, , , , , , 96, , , 43, 43, 43
37.2566060, -119.3807969, 24.700, 13:04:58.236, 11, 0.00, 0.29, 98, -0.500, 0.600, -24.400, 1156, 100, 93, 14, 22193, -19696, 5269, 5377, 17, 14, 1529265898.237, 29, 0, 1024, 1024, 1024, 1024, 0, 6, 3682, 3684, 3695, 3707, 3725, 3680, 0, 1, 13899, -89.900, 0.000, -24.700, 0.000, 0.000, -2.900, 0.0, , , , , , 96, , , 43, 43, 43
37.2566061, -119.3807967, 25.000, 13:04:58.337, 12, 0.00, 0.29, 98, -0.600, 0.700, -24.400, 1156, 100, 93, 14, 22193, -19696, 5269, 5377, 17, 14, 1529265898.338, 4, 0, 1024, 1024, 1024, 1024, 0, 6, 3682, 3684, 3695, 3707, 3725, 3680, 0, 1, 14000, -89.900, 0.000, -24.700, 0.000, 0.000, -3.000, 0.0, , , , , , 96, , , 43, 43, 43
37.2566062, -119.3807965, 25.300, 13:04:58.437, 12, 0.00, 0.30, 98, -0.800, 0.900, -24.400, 1156, 100, 93, 14, 22193, -19696, 5269, 5377, 17, 14, 1529265898.437, 6, 0, 1024, 1024, 1024, 1024, 0, 6, 3682, 3684, 3695, 3707, 3725, 3680, 0, 1, 14099, -89.900, 0.000, -24.700, 0.000, 0.000, -3.000, 0.0, , , , , , 96, , , 43, 43, 43
37.2566063, -119.3807964, 25.600, 13:04:58.536, 12, 0.00, 0.31, 97, -1.100, 1.000, -24.500, 1156, 100, 93, 14, 22193, -19696, 5215, 5377, 17, 14, 1529265898.537, 21, 0, 1024, 1024, 1024, 1024, 0, 6, 3684, 3680, 3693, 3709, 3728, 3684, 0, 1, 14199, -89.900, 0.000, -24.700, 0.000, 0.000, -2.900, 0.0, , , , , , 96, , , 43, 43, 43
37.2566063, -119.3807963, 25.900, 13:04:58.637, 12, 0.00, 0.31, 97, -1.400, 1.000, -24.500, 1156, 100, 95, 14, 22193, -19696, 5215, 5377, 17, 14, 1529265898.637, 13, 0, 1024, 1024, 1024, 1024, 0, 6, 3684, 3680, 3693, 3709, 3728, 3684, 0, 1, 14299, -89.900, 0.000, -24.700, 0.000, 0.000, -2.900, 0.0, , , , , , 96, , , 43, 43, 43
37.2566063, -119.3807963, 25.900, 13:04:58.736, 12, 0.00, 0.31, 97, -1.400, 1.000, -24.500, 1156, 100, 95, 14, 22193, -19696, 5215, 5377, 17, 14, 1529265898.737, 113, 0, 1024, 1024, 1024, 1024, 0, 6, 3684, 3680, 3693, 3709, 3728, 3684, 0, 1, 14399, -89.900, 0.000, -24.700, 0.000, 0.000, -2.900, 0.0, , , , , , 96, , , 43, 43, 43
37.2566064, -119.3807963, 26.500, 13:04:58.838, 11, 0.00, 0.31, 97, -1.300, 1.400, -24.500, 1156, 100, 95, 14, 22193, -19696, 5215, 5377, 17, 14, 1529265898.838, 1, 0, 1024, 1024, 1024, 1024, 0, 6, 3684, 3680, 3693, 3709, 3728, 3684, 0, 1, 14500, -89.900, 0.000, -24.700, 0.000, 0.000, -2.900, 0.0, , , , , , 96, , , 43, 43, 43
37.2566064, -119.3807963, 26.500, 13:04:58.936, 11, 0.00, 0.31, 97, -1.300, 1.400, -24.500, 1156, 100, 95, 14, 22193, -19696, 5215, 5377, 17, 14, 1529265898.937, 100, 0, 1024, 1024, 1024, 1024, 0, 6, 3684, 3680, 3693, 3709, 3728, 3684, 0, 1, 14599, -89.900, 0.000, -24.700, 0.000, 0.000, -2.900, 0.0, , , , , , 96, , , 43, 43, 43
37.2566065, -119.3807964, 26.800, 13:04:59.036, 12, 0.00, 0.30, 97, -1.100, 1.800, -24.400, 1156, 100, 95, 14, 22193, -19696, 5215, 5377, 17, 14, 1529265899.037, 95, 0, 1024, 1024, 1024, 1024, 0, 6, 3684, 3680, 3693, 3709, 3728, 3684, 0, 1, 14699, -89.900, 0.000, -24.700, 0.000, 0.000, -2.900, 0.0, , , , , , 96, , , 43, 43, 43
37.2566065, -119.3807963, 27.000, 13:04:59.137, 12, 0.00, 0.30, 97, -1.100, 1.900, -24.200, 1156, 100, 95, 14, 22119, -20100, 5215, 5377, 17, 14, 1529265899.137, 65, 0, 1024, 1024, 1024, 1024, 0, 6, 3674, 3669, 3672, 3686, 3716, 3679, 0, 1, 14799, -89.900, 0.000, -24.700, 0.000, 0.000, -2.900, 0.0, , , , , , 96, , , 43, 43, 43
37.2566066, -119.3807963, 27.300, 13:04:59.236, 12, 0.00, 0.30, 97, -1.000, 1.900, -24.100, 1156, 100, 98, 14, 22119, -20100, 5215, 5377, 17, 14, 1529265899.237, 62, 0, 1024, 1024, 1024, 1024, 0, 6, 3674, 3669, 3672, 3686, 3716, 3679, 0, 1, 14899, -89.900, 0.000, -24.700, 0.000, 0.000, -2.900, 0.0, , , , , , 96, , , 43, 43, 43
37.2566066, -119.3807963, 27.300, 13:04:59.336, 12, 0.00, 0.30, 97, -1.000, 1.900, -24.100, 1156, 100, 98, 14, 22119, -20100, 5215, 5377, 17, 14, 1529265899.337, 161, 0, 1024, 1024, 1024, 1024, 0, 6, 3674, 3669, 3672, 3686, 3716, 3679, 0, 1, 14999, -89.900, 0.000, -24.700, 0.000, 0.000, -2.900, 0.0, , , , , , 96, , , 43, 43, 43
37.2566066, -119.3807963, 27.300, 13:04:59.436, 12, 0.00, 0.30, 97, -1.000, 1.900, -24.100, 1156, 100, 98, 14, 22119, -20100, 5215, 5377, 17, 14, 1529265899.437, 261, 0, 1024, 1024, 1024, 1024, 0, 6, 3674, 3669, 3672, 3686, 3716, 3679, 0, 1, 15099, -89.900, 0.000, -24.700, 0.000, 0.000, -2.900, 0.0, , , , , , 96, , , 43, 43, 43
37.2566067, -119.3807963, 28.200, 13:04:59.536, 12, 0.10, 0.30, 97, -0.500, 1.600, -24.000, 1156, 100, 98, 14, 22119, -20100, 5215, 5377, 17, 14, 1529265899.537, 59, 0, 1024, 1024, 1024, 1024, 0, 6, 3674, 3669, 3672, 3686, 3716, 3679, 0, 1, 15199, -89.900, 0.000, -24.700, 0.000, -0.100, -2.900, 0.1, , , , , , 96, , , 43, 43, 43
37.2566068, -119.3807964, 28.500, 13:04:59.636, 11, 0.10, 0.30, 97, -0.400, 1.700, -24.100, 1156, 100, 99, 14, 22119, -20100, 5215, 5377, 17, 14, 1529265899.637, 51, 0, 1024, 1024, 1024, 1024, 0, 6, 3674, 3669, 3672, 3686, 3716, 3679, 0, 1, 15299, -89.900, 0.000, -24.700, 0.000, -0.100, -2.900, 0.1, , , , , , 96, , , 43, 43, 43
37.2566068, -119.3807964, 28.800, 13:04:59.736, 11, 0.10, 0.29, 97, -0.300, 1.900, -24.200, 1156, 100, 99, 14, 22119, -20100, 5215, 5377, 17, 14, 1529265899.737, 64, 0, 1024, 1024, 1024, 1024, 0, 6, 3674, 3669, 3672, 3686, 3716, 3679, 0, 1, 15399, -89.900, 0.000, -24.700, 0.000, -0.100, -2.900, 0.1, , , , , , 96, , , 43, 43, 43
37.2566068, -119.3807965, 29.100, 13:04:59.836, 12, 0.10, 0.28, 97, -0.300, 1.800, -24.300, 1156, 100, 99, 14, 22119, -20100, 5215, 5377, 17, 14, 1529265899.837, 56, 0, 1024, 1024, 1024, 1024, 0, 6, 3674, 3669, 3672, 3686, 3716, 3679, 0, 1, 15499, -89.900, 0.000, -24.700, 0.000, -0.100, -2.900, 0.1, , , , , , 96, , , 43, 43, 43
37.2566069, -119.3807965, 29.400, 13:04:59.936, 12, 0.10, 0.28, 97, -0.200, 1.800, -24.400, 1156, 100, 99, 14, 22119, -20100, 5215, 5377, 17, 14, 1529265899.937, 38, 0, 1024, 1024, 1024, 1024, 0, 6, 3674, 3669, 3672, 3686, 3716, 3679, 0, 1, 15599, -89.900, 0.000, -24.700, 0.000, -0.100, -2.900, 0.1, , , , , , 96, , , 43, 43, 43
37.2566069, -119.3807966, 29.700, 13:05:00.036, 12, 0.00, 0.27, 97, -0.100, 1.800, -24.600, 1156, 100, 99, 14, 22188, -19249, 5215, 5377, 17, 14, 1529265900.037, 42, 0, 1024, 1024, 1024, 1024, 0, 6, 3678, 3686, 3700, 3698, 3717, 3680, 0, 1, 15699, -89.900, 0.000, -24.700, 0.000, 0.000, -3.000, 0.0, , , , , , 96, , , 43, 43, 43
37.2566069, -119.3807966, 30.000, 13:05:00.136, 12, 0.00, 0.27, 97, -0.100, 1.700, -24.600, 1156, 100, 99, 14, 22188, -19249, 5215, 5377, 17, 14, 1529265900.137, 26, 0, 1024, 1024, 1024, 1024, 0, 6, 3678, 3686, 3700, 3698, 3717, 3680, 0, 1, 15799, -89.900, 0.000, -24.700, 0.000, 0.000, -3.000, 0.0, , , , , , 96, , , 43, 43, 43
37.2566068, -119.3807967, 30.300, 13:05:00.236, 12, 0.00, 0.27, 97, -0.100, 1.400, -24.600, 1156, 100, 99, 14, 22188, -19249, 5215, 5377, 17, 14, 1529265900.237, 22, 0, 1024, 1024, 1024, 1024, 0, 6, 3678, 3686, 3700, 3698, 3717, 3680, 0, 1, 15899, -89.900, 0.000, -24.700, 0.000, 0.000, -3.000, 0.0, , , , , , 96, , , 43, 43, 43
37.2566068, -119.3807968, 30.900, 13:05:00.336, 12, 0.10, 0.26, 97, 0.000, 1.200, -24.700, 1156, 100, 99, 14, 22188, -19249, 5215, 5377, 17, 14, 1529265900.337, 5, 0, 1024, 1024, 1024, 1024, 0, 6, 3678, 3686, 3700, 3698, 3717, 3680, 0, 1, 15999, -89.900, 0.000, -24.700, 0.000, -0.100, -2.900, 0.1, , , , , , 96, , , 43, 43, 43
37.2566067, -119.3807969, 31.200, 13:05:00.436, 12, 0.00, 0.25, 97, 0.000, 1.200, -24.700, 1156, 100, 99, 14, 22188, -19249, 5215, 5377, 17, 14, 1529265900.437, 12, 0, 1024, 1024, 1024, 1024, 0, 6, 3678, 3686, 3700, 3698, 3717, 3680, 0, 1, 16099, -89.900, 0.000, -24.700, 0.000, 0.000, -2.900, 0.0, , , , , , 96, , , 43, 43, 43
37.2566067, -119.3807970, 31.500, 13:05:00.536, 12, 0.00, 0.25, 97, 0.200, 1.200, -24.700, 1156, 100, 99, 14, 22188, -19249, 5215, 5377, 17, 14, 1529265900.537, 17, 0, 1024, 1024, 1024, 1024, 0, 6, 3678, 3686, 3700, 3698, 3717, 3680, 0, 1, 16199, -89.900, 0.000, -24.700, 0.000, 0.000, -2.900, 0.0, , , , , , 96, , , 43, 43, 43
37.2566066, -119.3807970, 31.800, 13:05:00.636, 12, 0.00, 0.24, 97, 0.400, 1.000, -24.700, 1156, 100, 99, 14, 22188, -19249, 5215, 5377, 17, 14, 1529265900.637, 17, 0, 1024, 1024, 1024, 1024, 0, 6, 3678, 3686, 3700, 3698, 3717, 3680, 0, 1, 16299, -90.000, 0.000, -24.700, 0.000, 0.000, -2.900, 0.0, , , , , , 96, , , 43, 43, 43
37.2566066, -119.3807971, 32.100, 13:05:00.738, 12, 0.00, 0.24, 97, 0.700, 0.900, -24.600, 1156, 100, 99, 14, 22188, -19249, 5215, 5377, 17, 14, 1529265900.739, 2, 0, 1024, 1024, 1024, 1024, 0, 6, 3678, 3686, 3700, 3698, 3717, 3680, 0, 1, 16401, -90.000, 0.000, -24.700, 0.000, 0.000, -2.900, 0.0, , , , , , 96, , , 43, 43, 43
37.2566066, -119.3807971, 32.100, 13:05:00.836, 12, 0.00, 0.24, 97, 0.700, 0.900, -24.600, 1156, 100, 99, 14, 22188, -19249, 5215, 5377, 17, 14, 1529265900.837, 100, 0, 1024, 1024, 1024, 1024, 0, 6, 3678, 3686, 3700, 3698, 3717, 3680, 0, 1, 16499, -90.000, 0.000, -24.700, 0.000, 0.000, -2.900, 0.0, , , , , , 96, , , 43, 43, 43
37.2566065, -119.3807972, 32.400, 13:05:00.936, 12, 0.00, 0.23, 97, 0.800, 1.000, -24.500, 1156, 100, 99, 14, 22188, -19249, 5215, 5377, 17, 14, 1529265900.937, 88, 0, 1024, 1024, 1024, 1024, 0, 6, 3678, 3686, 3700, 3698, 3717, 3680, 0, 1, 16599, -89.900, 0.000, -24.700, 0.000, 0.000, -2.900, 0.0, , , , , , 96, , , 43, 43, 43
37.2566064, -119.3807974, 32.900, 13:05:01.036, 12, 0.00, 0.23, 97, 0.300, 0.600, -24.100, 1156, 100, 99, 14, 22140, -19698, 5215, 5377, 17, 14, 1529265901.037, 14, 0, 1024, 1024, 1024, 1024, 0, 6, 3665, 3673, 3682, 3690, 3716, 3680, 0, 1, 16699, -90.000, 0.000, -24.700, 0.000, 0.000, -2.900, 0.0, , , , , , 96, , , 43, 43, 43
37.2566064, -119.3807974, 32.900, 13:05:01.136, 12, 0.00, 0.23, 97, 0.300, 0.600, -24.100, 1156, 100, 99, 14, 22140, -19698, 5215, 5377, 17, 14, 1529265901.137, 114, 0, 1024, 1024, 1024, 1024, 0, 6, 3665, 3673, 3682, 3690, 3716, 3680, 0, 1, 16799, -90.000, 0.000, -24.700, 0.000, 0.000, -2.900, 0.0, , , , , , 96, , , 43, 43, 43
37.2566063, -119.3807975, 33.600, 13:05:01.239, 12, 0.00, 0.22, 97, 0.200, 0.900, -24.000, 1156, 100, 99, 14, 22140, -19698, 5215, 5377, 17, 14, 1529265901.239, 2, 0, 1024, 1024, 1024, 1024, 0, 6, 3665, 3673, 3682, 3690, 3716, 3680, 0, 1, 16902, -89.900, 0.000, -24.700, 0.000, 0.000, -3.100, 0.0, , , , , , 96, , , 43, 43, 43
37.2566063, -119.3807975, 33.600, 13:05:01.336, 12, 0.00, 0.22, 97, 0.200, 0.900, -24.000, 1156, 100, 99, 14, 22140, -19698, 5215, 5377, 17, 14, 1529265901.336, 100, 0, 1024, 1024, 1024, 1024, 0, 6, 3665, 3673, 3682, 3690, 3716, 3680, 0, 1, 16999, -89.900, 0.000, -24.700, 0.000, 0.000, -3.100, 0.0, , , , , , 96, , , 43, 43, 43
37.2566063, -119.3807975, 33.900, 13:05:01.436, 12, 0.00, 0.22, 97, 0.200, 1.000, -24.000, 1156, 100, 99, 14, 22140, -19698, 5215, 5377, 17, 14, 1529265901.437, 75, 0, 1024, 1024, 1024, 1024, 0, 6, 3665, 3673, 3682, 3690, 3716, 3680, 0, 1, 17099, -89.900, 0.000, -24.700, 0.000, 0.000, -3.100, 0.0, , , , , , 96, , , 43, 43, 43
37.2566063, -119.3807976, 34.200, 13:05:01.536, 12, 0.00, 0.22, 97, 0.300, 1.100, -24.000, 1156, 100, 99, 14, 22140, -19698, 5215, 5377, 17, 14, 1529265901.537, 79, 0, 1024, 1024, 1024, 1024, 0, 6, 3665, 3673, 3682, 3690, 3716, 3680, 0, 1, 17199, -89.900, 0.000, -24.700, 0.000, 0.000, -3.000, 0.0, , , , , , 96, , , 43, 43, 43
37.2566063, -119.3807976, 34.500, 13:05:01.636, 12, 0.00, 0.21, 97, 0.600, 1.100, -24.200, 1156, 100, 97, 14, 22140, -19698, 5215, 5377, 17, 14, 1529265901.637, 81, 0, 1024, 1024, 1024, 1024, 0, 6, 3665, 3673, 3682, 3690, 3716, 3680, 0, 1, 17299, -89.900, 0.000, -24.700, 0.000, 0.000, -3.000, 0.0, , , , , , 96, , , 43, 43, 43
37.2566062, -119.3807976, 34.800, 13:05:01.736, 12, 0.00, 0.21, 97, 0.600, 1.100, -24.400, 1156, 100, 97, 14, 22140, -19698, 5215, 5377, 17, 14, 1529265901.737, 72, 0, 1024, 1024, 1024, 1024, 0, 6, 3665, 3673, 3682, 3690, 3716, 3680, 0, 1, 17399, -89.900, 0.000, -24.700, 0.000, 0.000, -3.000, 0.0, , , , , , 96, , , 43, 43, 43
37.2566062, -119.3807976, 35.100, 13:05:01.836, 12, 0.00, 0.22, 97, 0.200, 1.000, -24.500, 1156, 100, 97, 14, 22140, -19698, 5215, 5377, 17, 14, 1529265901.837, 72, 0, 1024, 1024, 1024, 1024, 0, 6, 3665, 3673, 3682, 3690, 3716, 3680, 0, 1, 17499, -90.000, 0.000, -24.700, 0.000, 0.000, -3.000, 0.0, , , , , , 96, , , 43, 43, 43
37.2566062, -119.3807977, 35.400, 13:05:01.936, 12, 0.00, 0.22, 97, -0.100, 1.000, -24.600, 1156, 100, 97, 14, 22140, -19698, 5215, 5377, 17, 14, 1529265901.936, 77, 0, 1024, 1024, 1024, 1024, 0, 6, 3665, 3673, 3682, 3690, 3716, 3680, 0, 1, 17599, -89.900, 0.000, -24.700, 0.000, 0.000, -3.000, 0.0, , , , , , 96, , , 43, 43, 43
37.2566062, -119.3807976, 35.700, 13:05:02.036, 12, 0.00, 0.22, 97, -0.100, 1.000, -24.700, 1156, 100, 97, 14, 22140, -19698, 5215, 5377, 17, 14, 1529265902.037, 45, 0, 1024, 1024, 1024, 1024, 0, 6, 3665, 3673, 3682, 3690, 3716, 3680, 0, 1, 17699, -89.900, 0.000, -24.700, 0.000, 0.000, -3.000, 0.0, , , , , , 96, , , 43, 43, 43
37.2566062, -119.3807976, 36.000, 13:05:02.136, 12, 0.00, 0.22, 97, 0.000, 1.100, -24.700, 1156, 100, 96, 14, 22097, -19490, 5215, 5377, 17, 14, 1529265902.137, 50, 0, 1024, 1024, 1024, 1024, 0, 6, 3672, 3682, 3668, 3689, 3706, 3666, 0, 1, 17799, -89.900, 0.000, -24.700, 0.000, 0.000, -3.000, 0.0, , , , , , 96, , , 43, 43, 43
37.2566062, -119.3807976, 36.300, 13:05:02.236, 12, 0.00, 0.22, 97, -0.100, 1.200, -24.700, 1156, 100, 96, 14, 22097, -19490, 5215, 5377, 17, 14, 1529265902.237, 43, 0, 1024, 1024, 1024, 1024, 0, 6, 3672, 3682, 3668, 3689, 3706, 3666, 0, 1, 17899, -89.900, 0.000, -24.700, 0.000, 0.000, -3.000, 0.0, , , , , , 96, , , 43, 43, 43
37.2566061, -119.3807976, 36.700, 13:05:02.336, 12, 0.00, 0.22, 97, -0.100, 1.200, -24.600, 1156, 100, 96, 14, 22097, -19490, 5215, 5377, 17, 14, 1529265902.337, 46, 0, 1024, 1024, 1024, 1024, 0, 6, 3672, 3682, 3668, 3689, 3706, 3666, 0, 1, 17999, -90.000, 0.000, -24.700, 0.000, 0.000, -3.000, 0.0, , , , , , 96, , , 43, 43, 43
37.2566061, -119.3807976, 37.000, 13:05:02.436, 12, 0.00, 0.23, 97, -0.300, 1.100, -24.400, 1156, 100, 96, 14, 22097, -19490, 5215, 5377, 17, 14, 1529265902.437, 39, 0, 1024, 1024, 1024, 1024, 0, 6, 3672, 3682, 3668, 3689, 3706, 3666, 0, 1, 18099, -90.000, 0.000, -24.700, 0.000, 0.000, -3.000, 0.0, , , , , , 96, , , 43, 43, 43
37.2566061, -119.3807976, 37.300, 13:05:02.536, 12, 0.00, 0.23, 97, -0.400, 1.100, -24.200, 1156, 100, 96, 14, 22097, -19490, 5215, 5377, 17, 14, 1529265902.537, 30, 0, 1024, 1024, 1024, 1024, 0, 6, 3672, 3682, 3668, 3689, 3706, 3666, 0, 1, 18199, -89.900, 0.000, -24.700, 0.000, 0.000, -2.900, 0.0, , , , , , 96, , , 43, 43, 43
37.2566060, -119.3807976, 37.600, 13:05:02.636, 12, 0.00, 0.23, 97, -0.100, 1.200, -24.100, 1156, 100, 96, 14, 22097, -19490, 5215, 5377, 17, 14, 1529265902.637, 23, 0, 1024, 1024, 1024, 1024, 0, 6, 3672, 3682, 3668, 3689, 3706, 3666, 0, 1, 18299, -89.900, 0.000, -24.700, 0.000, 0.000, -2.900, 0.0, , , , , , 96, , , 43, 43, 43
37.2566060, -119.3807975, 38.200, 13:05:02.736, 12, 0.00, 0.24, 97, 0.100, 1.100, -24.000, 1156, 100, 96, 14, 22097, -19490, 5215, 5377, 17, 14, 1529265902.736, 14, 0, 1024, 1024, 1024, 1024, 0, 6, 3672, 3682, 3668, 3689, 3706, 3666, 0, 1, 18399, -89.900, 0.000, -24.700, 0.000, 0.000, -2.900, 0.0, , , , , , 96, , , 43, 43, 43
37.2566059, -119.3807975, 38.500, 13:05:02.836, 12, 0.00, 0.24, 97, 0.100, 1.100, -24.000, 1156, 100, 96, 14, 22097, -19490, 5215, 5377, 17, 14, 1529265902.837, 30, 0, 1024, 1024, 1024, 1024, 0, 6, 3672, 3682, 3668, 3689, 3706, 3666, 0, 1, 18499, -89.900, 0.000, -24.700, 0.000, 0.000, -3.000, 0.0, , , , , , 96, , , 43, 43, 43
37.2566059, -119.3807975, 38.800, 13:05:02.936, 12, 0.00, 0.25, 97, 0.000, 1.000, -24.100, 1156, 100, 96, 14, 22097, -19490, 5215, 5377, 17, 14, 1529265902.936, 6, 0, 1024, 1024, 1024, 1024, 0, 6, 3672, 3682, 3668, 3689, 3706, 3666, 0, 1, 18599, -89.900, 0.000, -24.700, 0.000, 0.000, -2.900, 0.0, , , , , , 96, , , 43, 43, 43
37.2566059, -119.3807974, 39.100, 13:05:03.036, 12, 0.00, 0.25, 97, 0.000, 1.000, -24.300, 1156, 100, 96, 14, 22185, -18512, 5215, 5377, 17, 14, 1529265903.036, 11, 0, 1024, 1024, 1024, 1024, 0, 6, 3672, 3682, 3668, 3689, 3706, 3666, 0, 1, 18699, -89.900, 0.000, -24.700, 0.000, 0.000, -2.900, 0.0, , , , , , 96, , , 43, 43, 43
37.2566059, -119.3807973, 39.400, 13:05:03.136, 12, 0.00, 0.26, 97, -0.400, 1.000, -24.500, 1156, 100, 96, 14, 22185, -18512, 5215, 5377, 17, 14, 1529265903.137, 16, 0, 1024, 1024, 1024, 1024, 0, 6, 3672, 3682, 3668, 3689, 3706, 3666, 0, 1, 18799, -89.900, 0.000, -24.700, 0.000, 0.000, -2.900, 0.0, , , , , , 96, , , 43, 43, 43
37.2566060, -119.3807972, 39.600, 13:05:03.238, 12, 0.00, 0.26, 97, -0.700, 1.200, -24.700, 1156, 100, 96, 14, 22185, -18512, 5215, 5377, 17, 14, 1529265903.238, 2, 0, 1024, 1024, 1024, 1024, 0, 6, 3672, 3682, 3668, 3689, 3706, 3666, 0, 1, 18900, -89.900, 0.000, -24.700, 0.000, 0.000, -2.900, 0.0, , , , , , 96, , , 43, 43, 43
37.2566060, -119.3807972, 39.900, 13:05:03.338, 12, 0.00, 0.27, 97, -0.700, 1.500, -24.800, 1156, 100, 96, 14, 22185, -18512, 5215, 5377, 17, 14, 1529265903.338, 4, 0, 1024, 1024, 1024, 1024, 0, 6, 3672, 3682, 3668, 3689, 3706, 3666, 0, 1, 19000, -89.900, 0.000, -24.700, 0.000, 0.000, -2.900, 0.0, , , , , , 96, , , 43, 43, 43
37.2566060, -119.3807972, 39.900, 13:05:03.436, 12, 0.00, 0.27, 97, -0.700, 1.500, -24.800, 1156, 100, 96, 14, 22185, -18512, 5215, 5377, 17, 14, 1529265903.436, 102, 0, 1024, 1024, 1024, 1024, 0, 6, 3672, 3682, 3668, 3689, 3706, 3666, 0, 1, 19099, -89.900, 0.000, -24.700, 0.000, 0.000, -2.900, 0.0, , , , , , 96, , , 43, 43, 43
37.2566060, -119.3807970, 40.300, 13:05:03.536, 12, 0.00, 0.27, 97, -0.900, 1.500, -24.800, 1156, 100, 96, 14, 22185, -18512, 5215, 5377, 17, 14, 1529265903.536, 88, 0, 1024, 1024, 1024, 1024, 0, 6, 3672, 3682, 3668, 3689, 3706, 3666, 0, 1, 19199, -89.900, 0.000, -24.700, 0.000, 0.000, -3.000, 0.0, , , , , , 96, , , 43, 43, 43
37.2566061, -119.3807969, 40.600, 13:05:03.636, 12, 0.00, 0.28, 97, -1.300, 1.500, -24.800, 1156, 100, 96, 14, 22185, -18512, 5215, 5377, 17, 14, 1529265903.636, 89, 0, 1024, 1024, 1024, 1024, 0, 6, 3682, 3680, 3690, 3701, 3733, 3679, 0, 1, 19299, -89.900, 0.000, -24.700, 0.000, 0.000, -3.000, 0.0, , , , , , 96, , , 43, 43, 43
37.2566061, -119.3807968, 40.900, 13:05:03.736, 12, 0.00, 0.29, 97, -1.800, 1.300, -24.800, 1156, 100, 97, 14, 22185, -18512, 5215, 5377, 17, 14, 1529265903.736, 72, 0, 1024, 1024, 1024, 1024, 0, 6, 3682, 3680, 3690, 3701, 3733, 3679, 0, 1, 19399, -90.000, 0.000, -24.700, 0.000, 0.000, -3.000, 0.0, , , , , , 96, , , 43, 43, 43
37.2566061, -119.3807966, 41.200, 13:05:03.836, 12, 0.00, 0.30, 97, -1.900, 1.100, -24.600, 1156, 100, 97, 14, 22185, -18512, 5215, 5377, 17, 14, 1529265903.837, 74, 0, 1024, 1024, 1024, 1024, 0, 6, 3682, 3680, 3690, 3701, 3733, 3679, 0, 1, 19499, -90.000, 0.000, -24.700, 0.000, 0.000, -3.000, 0.0, , , , , , 96, , , 43, 43, 43
37.2566061, -119.3807965, 41.500, 13:05:03.936, 12, 0.00, 0.31, 97, -2.000, 0.500, -24.500, 1156, 100, 97, 14, 22185, -18512, 5215, 5377, 17, 14, 1529265903.936, 76, 0, 1024, 1024, 1024, 1024, 0, 6, 3682, 3680, 3690, 3701, 3733, 3679, 0, 1, 19599, -90.000, 0.000, -24.700, 0.000, 0.000, -2.900, 0.0, , , , , , 96, , , 43, 43, 43
37.2566062, -119.3807963, 41.800, 13:05:04.036, 12, 0.00, 0.32, 97, -2.200, 0.100, -24.400, 1156, 100, 97, 14, 22185, -18512, 5215, 5377, 17, 14, 1529265904.036, 73, 0, 1024, 1024, 1024, 1024, 0, 6, 3682, 3680, 3690, 3701, 3733, 3679, 0, 1, 19699, -89.900, 0.000, -24.700, 0.000, 0.000, -2.900, 0.0, , , , , , 96, , , 43, 43, 43
37.2566062, -119.3807962, 42.100, 13:05:04.136, 12, 0.00, 0.33, 97, -2.000, 0.300, -24.400, 1156, 100, 97, 15, 22185, -18512, 5215, 5377, 17, 14, 1529265904.136, 42, 0, 1024, 1024, 1024, 1024, 0, 6, 3682, 3680, 3690, 3701, 3733, 3679, 0, 1, 19799, -89.900, 0.000, -24.700, 0.000, 0.000, -2.900, 0.0, , , , , , 96, , , 43, 43, 43
37.2566062, -119.3807961, 42.400, 13:05:04.236, 12, 0.00, 0.34, 97, -1.900, 0.500, -24.500, 1156, 100, 97, 15, 22185, -18512, 5215, 5377, 17, 14, 1529265904.236, 45, 0, 1024, 1024, 1024, 1024, 0, 6, 3682, 3680, 3690, 3701, 3733, 3679, 0, 1, 19899, -89.900, 0.000, -24.700, 0.000, 0.000, -2.900, 0.0, , , , , , 96, , , 43, 43, 43
37.2566063, -119.3807960, 42.700, 13:05:04.336, 12, 0.00, 0.34, 97, -2.300, 0.500, -24.600, 1156, 100, 97, 15, 22185, -18512, 5215, 5377, 17, 14, 1529265904.336, 43, 0, 1024, 1024, 1024, 1024, 0, 6, 3682, 3680, 3690, 3701, 3733, 3679, 0, 1, 19999, -89.900, 0.000, -24.700, 0.000, 0.000, -2.900, 0.0, , , , , , 96, , , 43, 43, 43
37.2566063, -119.3807958, 43.000, 13:05:04.436, 12, 0.00, 0.35, 97, -2.800, 0.600, -24.500, 1156, 100, 97, 15, 22185, -18512, 5215, 5377, 17, 14, 1529265904.436, 58, 0, 1024, 1024, 1024, 1024, 0, 6, 3682, 3680, 3690, 3701, 3733, 3679, 0, 1, 20099, -89.900, 0.000, -24.700, 0.000, 0.000, -2.800, 0.0, , , , , , 96, , , 43, 43, 43
37.2566064, -119.3807957, 43.300, 13:05:04.536, 12, 0.00, 0.36, 97, -3.300, 0.500, -24.500, 1156, 100, 97, 15, 22159, -18442, 5215, 5377, 17, 14, 1529265904.536, 37, 0, 1024, 1024, 1024, 1024, 0, 6, 3683, 3691, 3692, 3709, 3736, 3681, 0, 1, 20199, -89.900, 0.000, -24.700, 0.000, 0.000, -2.900, 0.0, , , , , , 96, , , 43, 43, 43
37.2566064, -119.3807956, 43.600, 13:05:04.636, 12, 0.00, 0.37, 97, -3.200, 0.800, -24.600, 1156, 100, 98, 15, 22159, -18442, 5215, 5377, 17, 14, 1529265904.636, 31, 0, 1024, 1024, 1024, 1024, 0, 6, 3683, 3691, 3692, 3709, 3736, 3681, 0, 1, 20299, -89.900, 0.000, -24.700, 0.000, 0.000, -2.900, 0.0, , , , , , 96, , , 43, 43, 43
37.2566065, -119.3807956, 43.900, 13:05:04.736, 12, 0.00, 0.37, 97, -2.700, 1.400, -24.700, 1156, 100, 98, 15, 22159, -18442, 5215, 5377, 17, 14, 1529265904.736, 34, 0, 1024, 1024, 1024, 1024, 0, 6, 3683, 3691, 3692, 3709, 3736, 3681, 0, 1, 20399, -89.900, 0.000, -24.700, 0.000, 0.000, -2.900, 0.0, , , , , , 96, , , 43, 43, 43
37.2566066, -119.3807957, 44.400, 13:05:04.836, 12, 0.00, 0.36, 97, -1.700, 1.800, -24.800, 1156, 100, 98, 15, 22159, -18442, 5215, 5377, 17, 14, 1529265904.836, 36, 0, 1024, 1024, 1024, 1024, 0, 6, 3683, 3691, 3692, 3709, 3736, 3681, 0, 1, 20499, -89.900, 0.000, -24.700, 0.000, 0.000, -2.900, 0.0, , , , , , 96, , , 43, 43, 43
37.2566066, -119.3807957, 44.400, 13:05:04.936, 12, 0.00, 0.36, 97, -1.700, 1.800, -24.800, 1156, 100, 98, 15, 22159, -18442, 5215, 5377, 17, 14, 1529265904.936, 136, 0, 1024, 1024, 1024, 1024, 0, 6, 3683, 3691, 3692, 3709, 3736, 3681, 0, 1, 20599, -89.900, 0.000, -24.700, 0.000, 0.000, -2.900, 0.0, , , , , , 96, , , 43, 43, 43
37.2566066, -119.3807959, 45.100, 13:05:05.036, 12, 0.00, 0.34, 97, -0.900, 1.300, -24.800, 1156, 100, 98, 15, 22159, -18442, 5215, 5377, 17, 14, 1529265905.036, 29, 0, 1024, 1024, 1024, 1024, 0, 6, 3683, 3691, 3692, 3709, 3736, 3681, 0, 1, 20699, -89.900, 0.000, -24.700, 0.000, 0.000, -3.000, 0.0, , , , , , 96, , , 43, 43, 43
37.2566066, -119.3807959, 45.100, 13:05:05.136, 12, 0.00, 0.34, 97, -0.900, 1.300, -24.800, 1156, 100, 98, 15, 22159, -18442, 5215, 5377, 17, 14, 1529265905.137, 129, 0, 1024, 1024, 1024, 1024, 0, 6, 3683, 3691, 3692, 3709, 3736, 3681, 0, 1, 20799, -90.000, 0.000, -24.700, 0.000, 0.000, -3.000, 0.0, , , , , , 96, , , 43, 43, 43
37.2566066, -119.3807960, 45.700, 13:05:05.236, 12, 0.00, 0.33, 97, -1.300, 1.100, -24.700, 1156, 100, 98, 15, 22159, -18442, 5215, 5377, 17, 14, 1529265905.236, 24, 0, 1024, 1024, 1024, 1024, 0, 6, 3683, 3691, 3692, 3709, 3736, 3681, 0, 1, 20899, -89.900, 0.000, -24.700, 0.000, 0.000, -3.000, 0.0, , , , , , 96, , , 43, 43, 43
37.2566066, -119.3807960, 45.700, 13:05:05.336, 12, 0.00, 0.33, 97, -1.300, 1.100, -24.700, 1156, 100, 98, 15, 22159, -18442, 5215, 5377, 17, 14, 1529265905.337, 125, 0, 1024, 1024, 1024, 1024, 0, 6, 3683, 3691, 3692, 3709, 3736, 3681, 0, 1, 20999, -89.900, 0.000, -24.700, 0.000, 0.000, -3.000, 0.0, , , , , , 96, , , 43, 43, 43
