latitude,longitude,altitude(feet),ascent(feet),speed(mph),distance(feet),time(millisecond),datetime(utc),satellites,gpslevel,voltage(v),max_altitude(feet),max_ascent(feet),max_speed(mph),max_distance(feet), xSpeed(mph), ySpeed(mph), zSpeed(mph), compass_heading(degrees), pitch(degrees), roll(degrees),isPhoto,isVideo,rc_elevator,rc_aileron,rc_throttle,rc_rudder,gimbal_heading(degrees),gimbal_pitch(degrees),battery_percent,voltageCell1,voltageCell2,voltageCell3,voltageCell4,voltageCell5,voltageCell6,current(A),battery_temperature(f),flycStateRaw,flycState,message
37.2566375,-119.3807895,5196.4528703547,0,0,0,3120,2018-06-17 20:24:31,9,0,0,5196.4528703547,0,0,0,0,0,0,349.1, -0.9, -0.2,1,0,1024,1024,1024,1024,348.3,-90,98,4.013,4,4.022,4.047,4.036,4.022,0,59,11,AutoTakeoff,DJI_0525.jpg Starting Mission from Lat/Long: 37.25664/-119.38079 Camera: Zenmuse X3 - Overlap: 90/90 - Active Connection: No
37.2566375,-119.3807896,5196.4528703547,0,0,0.02903953505,3300,2018-06-17 20:24:31,9,0,0,5196.4528703547,0,0,0.02903953505,0,0,0,349.3, -1.2, -0.3,0,0,1024,1024,1024,1024,348.3,-90,98,4.013,4,4.022,4.047,4.036,4.022,0,59,11,AutoTakeoff,
37.2566374,-119.3807896,5196.4528703547,0,0,0.046630907004,3400,2018-06-17 20:24:31,9,0,0,5196.4528703547,0,0,0.046630907004,0,0,0,349.4, -0.9, 0,0,0,1024,1024,1024,1024,348.3,-90,98,4.013,4,4.022,4.047,4.036,4.022,0,59,11,AutoTakeoff,
37.2566375,-119.3807897,5196.4528703547,0,0,0.0580790701,3500,2018-06-17 20:24:31,9,0,0,5196.4528703547,0,0,0.0580790701,0,0,0,349.4, -0.5, 0.1,0,0,1024,1024,1024,1024,348.3,-89.9,98,4.013,4,4.022,4.047,4.036,4.022,0,59,11,AutoTakeoff,
37.2566375,-119.3807899,5196.7809543547,0.328084,0,0.1161581402,3600,2018-06-17 20:24:31,9,0,0,5196.7809543547,0.328084,0,0.1161581402,0,0,0,349.3, 0, 0.2,0,0,1024,1024,1024,1024,348.3,-89.9,98,4.013,4,4.022,4.047,4.036,4.022,0,59,11,AutoTakeoff,
37.2566375,-119.38079,5196.7809543547,0.328084,0,0.145197511208,3700,2018-06-17 20:24:32,9,0,0,5196.7809543547,0.328084,0,0.145197511208,0,0,0,349.2, 0.3, 0.4,0,0,1024,1024,1024,1024,348.3,-89.9,98,4.013,4,4.022,4.047,4.036,4.022,0,59,11,AutoTakeoff,
37.2566375,-119.3807902,5196.7809543547,0.328084,0.223694,0.203276581308,3800,2018-06-17 20:24:32,9,0,0,5196.7809543547,0.328084,0.223694,0.203276581308,0,0,0,349, 0.5, 0.5,0,0,1024,1024,1024,1024,348.3,-89.9,98,4.013,4,4.022,4.047,4.036,4.022,0,59,11,AutoTakeoff,
37.2566375,-119.3807904,5197.1090383547,0.656168,0.223694,0.261355651408,3900,2018-06-17 20:24:32,9,0,0,5197.1090383547,0.656168,0.223694,0.261355651408,0,0,0,348.8, 0.7, 0.5,0,0,1024,1024,1024,1024,348.3,-89.9,98,4.013,4,4.022,4.047,4.036,4.022,0,59,11,AutoTakeoff,
37.2566376,-119.3807906,5197.1090383547,0.656168,0.223694,0.321511493228,4000,2018-06-17 20:24:32,8,0,24.511,5197.1090383547,0.656168,0.223694,0.321511493228,0,0,0,348.5, 0.7, 0.6,0,0,1024,1024,1024,1024,348.3,-89.9,98,4.013,4,4.022,4.047,4.036,4.022,6.926,59,11,AutoTakeoff,
37.2566377,-119.3807907,5197.4371223547,0.984252,0.223694,0.35603347596,4100,2018-06-17 20:24:32,8,0,24.511,5197.4371223547,0.984252,0.223694,0.35603347596,0,0,-0.223694,348.3, 0.8, 1,0,0,1024,1024,1024,1024,348.3,-89.9,98,4.013,4,4.022,4.047,4.036,4.022,6.926,59,11,AutoTakeoff,
37.2566377,-119.3807908,5197.7652063547,1.312336,0,0.38450132464,4200,2018-06-17 20:24:32,8,0,24.511,5197.7652063547,1.312336,0.223694,0.38450132464,0,0,-0.223694,348.2, 0.9, 1.5,0,0,1024,1024,1024,1024,348.3,-89.9,98,4.013,4,4.022,4.047,4.036,4.022,6.926,59,11,AutoTakeoff,
37.2566378,-119.3807909,5197.7652063547,1.312336,0,0.4210301972,4300,2018-06-17 20:24:32,8,0,24.511,5197.7652063547,1.312336,0.223694,0.4210301972,0,0,0,348.1, 1.2, 1.6,0,0,1024,1024,1024,1024,348.3,-89.9,98,4.013,4,4.022,4.047,4.036,4.022,6.926,59,11,AutoTakeoff,
37.2566378,-119.3807909,5198.0932903547,1.64042,0,0.4210301972,4400,2018-06-17 20:24:32,8,0,24.511,5198.0932903547,1.64042,0.223694,0.4210301972,0,0,-0.223694,348.2, 1.4, 1.4,0,0,1024,1024,1024,1024,348.3,-89.9,98,4.013,4,4.022,4.047,4.036,4.022,6.926,59,11,AutoTakeoff,
37.2566379,-119.380791,5198.0932903547,1.64042,0,0.45938977848,4500,2018-06-17 20:24:32,8,0,24.511,5198.0932903547,1.64042,0.223694,0.45938977848,0,0,-0.223694,348.3, 1.7, 1.2,0,0,1024,1024,1024,1024,348.3,-89.9,98,4.013,4,4.022,4.047,4.036,4.022,6.926,59,11,AutoTakeoff,
37.2566379,-119.380791,5198.4213743547,1.968504,0,0.45938977848,4600,2018-06-17 20:24:32,9,0,24.511,5198.4213743547,1.968504,0.223694,0.45938977848,0,0,0,348.6, 1.8, 1,0,0,1024,1024,1024,1024,348.3,-89.9,98,4.013,4,4.022,4.047,4.036,4.022,6.926,59,11,AutoTakeoff,
37.256638,-119.380791,5198.4213743547,1.968504,0,0.47225067128,4700,2018-06-17 20:24:33,9,0,24.511,5198.4213743547,1.968504,0.223694,0.47225067128,0,0,0,348.9, 1.7, 0.8,0,0,1024,1024,1024,1024,348.3,-89.9,98,4.013,4,4.022,4.047,4.036,4.022,6.926,59,11,AutoTakeoff,
37.2566381,-119.3807909,5198.7494583547,2.296588,0,0.46174214076,4800,2018-06-17 20:24:33,9,0,24.511,5198.7494583547,2.296588,0.223694,0.47225067128,0,0,0,349.2, 1.6, 0.6,0,0,1024,1024,1024,1024,348.3,-90,98,4.013,4,4.022,4.047,4.036,4.022,6.926,59,11,AutoTakeoff,
37.2566383,-119.380791,5199.0775423547,2.624672,0,0.5243438488,4900,2018-06-17 20:24:33,8,0,24.511,5199.0775423547,2.624672,0.223694,0.5243438488,0,0,-0.223694,349.6, 1.6, 0.7,0,0,1024,1024,1024,1024,348.3,-89.9,98,4.013,4,4.022,4.047,4.036,4.022,6.926,59,11,AutoTakeoff,
37.2566384,-119.380791,5199.0775423547,2.624672,0,0.54549542428,5000,2018-06-17 20:24:33,8,0,23.336,5199.0775423547,2.624672,0.223694,0.54549542428,0,0,-0.223694,349.7, 1.9, 0.9,0,0,1024,1024,1024,1024,348.3,-89.9,98,3.854,3.854,3.852,3.905,3.898,3.859,16.023,59,11,AutoTakeoff,
37.2566385,-119.3807911,5199.4056263547,2.952756,0,0.59076117376,5100,2018-06-17 20:24:33,10,0,23.336,5199.4056263547,2.952756,0.223694,0.59076117376,0,0,-0.223694,349.7, 2.2, 1.1,0,0,1024,1024,1024,1024,348.3,-89.9,98,3.854,3.854,3.852,3.905,3.898,3.859,16.023,59,6,P-GPS,
37.2566385,-119.3807911,5199.4056263547,2.952756,0,0.59076117376,5200,2018-06-17 20:24:33,10,0,23.336,5199.4056263547,2.952756,0.223694,0.59076117376,0,0,0,349.7, 2.4, 1.3,0,0,1024,1024,1024,1024,348.3,-89.9,98,3.854,3.854,3.852,3.905,3.898,3.859,16.023,59,14,Waypoint,
37.2566386,-119.3807911,5199.7337103547,3.28084,0,0.61396327424,5300,2018-06-17 20:24:33,10,0,23.336,5199.7337103547,3.28084,0.223694,0.61396327424,0,0,0,349.7, 1.9, 0.6,0,0,1024,1024,1024,1024,348.4,-90,98,3.854,3.854,3.852,3.905,3.898,3.859,16.023,59,14,Waypoint,
37.2566387,-119.3807909,5199.7337103547,3.28084,0,0.59747049156,5500,2018-06-17 20:24:33,10,0,23.336,5199.7337103547,3.28084,0.223694,0.61396327424,0,0,0,349.9, 1.3, 0,0,0,1024,1024,1024,1024,348.4,-90,98,3.854,3.854,3.852,3.905,3.898,3.859,16.023,59,14,Waypoint,
37.2566388,-119.3807908,5200.0617943547,3.608924,0,0.6062008068,5600,2018-06-17 20:24:33,7,0,23.336,5200.0617943547,3.608924,0.223694,0.61396327424,0,0,0,350, 1.2, -0.4,0,0,1024,1024,1024,1024,348.4,-90,98,3.854,3.854,3.852,3.905,3.898,3.859,16.023,59,14,Waypoint,
37.2566389,-119.3807907,5200.0617943547,3.608924,0,0.61833663396,5700,2018-06-17 20:24:34,7,0,23.336,5200.0617943547,3.608924,0.223694,0.61833663396,0,0,0,350.2, 1.1, -0.6,0,0,1024,1024,1024,1024,348.4,-90,98,3.854,3.854,3.852,3.905,3.898,3.859,16.023,59,14,Waypoint,
37.256639,-119.3807906,5200.0617943547,3.608924,0,0.6336778418,5800,2018-06-17 20:24:34,8,0,23.336,5200.0617943547,3.608924,0.223694,0.6336778418,0,0,0,350.3, 1.2, -0.7,0,0,1024,1024,1024,1024,348.4,-89.9,98,3.854,3.854,3.852,3.905,3.898,3.859,16.023,59,14,Waypoint,
37.2566391,-119.3807905,5200.3898783547,3.937008,0,0.6520013332,5900,2018-06-17 20:24:34,8,0,23.336,5200.3898783547,3.937008,0.223694,0.6520013332,0,0,-0.223694,350.3, 1.4, -0.8,0,0,1024,1024,1024,1024,348.4,-89.9,98,3.854,3.854,3.852,3.905,3.898,3.859,16.023,59,14,Waypoint,
37.2566393,-119.3807904,5200.3898783547,3.937008,0,0.7068241696,6000,2018-06-17 20:24:34,9,0,23.046,5200.3898783547,3.937008,0.223694,0.7068241696,0,0,-0.223694,350.2, 1.6, -0.7,0,0,1024,1024,1024,1024,348.5,-89.9,98,3.815,3.814,3.804,3.867,3.871,3.824,16.554,59,14,Waypoint,
37.2566394,-119.3807904,5200.7179623547,4.265092,0,0.7408464804,6100,2018-06-17 20:24:34,9,0,23.046,5200.7179623547,4.265092,0.223694,0.7408464804,0,0,-0.223694,350.1, 1.9, -0.5,0,0,1024,1024,1024,1024,348.5,-89.9,98,3.815,3.814,3.804,3.867,3.871,3.824,16.554,59,14,Waypoint,
37.2566394,-119.3807906,5201.0460463547,4.593176,0,0.7632710218,6200,2018-06-17 20:24:34,9,0,23.046,5201.0460463547,4.593176,0.223694,0.7632710218,0,0,-0.223694,350, 2, 0,0,0,1024,1024,1024,1024,348.5,-89.9,98,3.815,3.814,3.804,3.867,3.871,3.824,16.554,59,14,Waypoint,
37.2566395,-119.3807907,5201.3741303547,4.92126,0,0.80863847732,6300,2018-06-17 20:24:34,9,0,23.046,5201.3741303547,4.92126,0.223694,0.80863847732,0,0,-0.223694,349.8, 1.9, 0.2,0,0,1024,1024,1024,1024,348.5,-89.9,98,3.815,3.814,3.804,3.867,3.871,3.824,16.554,59,14,Waypoint,
37.2566395,-119.3807909,5202.0302983547,5.577428,0,0.83531170652,6400,2018-06-17 20:24:34,10,0,23.046,5202.0302983547,5.577428,0.223694,0.83531170652,0,0,-0.447388,349.7, 1.6, 0.6,0,0,1024,1024,1024,1024,348.5,-90,98,3.815,3.814,3.804,3.867,3.871,3.824,16.554,59,14,Waypoint,
37.2566395,-119.3807911,5202.6864663547,6.233596,0,0.86506892532,6500,2018-06-17 20:24:34,10,0,23.046,5202.6864663547,6.233596,0.223694,0.86506892532,0,0,-0.447388,349.6, 1.5, 1.1,0,0,1024,1024,1024,1024,348.5,-90,98,3.815,3.814,3.804,3.867,3.871,3.824,16.554,59,14,Waypoint,
37.2566394,-119.3807912,5203.3426343547,6.889764,0,0.8510334918,6600,2018-06-17 20:24:34,11,0,23.046,5203.3426343547,6.889764,0.223694,0.86506892532,0,0,-0.447388,349.5, 1.5, 1.3,0,0,1024,1024,1024,1024,348.6,-90,98,3.815,3.814,3.804,3.867,3.871,3.824,16.554,59,14,Waypoint,
37.2566394,-119.3807913,5203.9988023547,7.545932,0,0.86820212752,6700,2018-06-17 20:24:35,11,0,23.046,5203.9988023547,7.545932,0.223694,0.86820212752,0,0,-0.447388,349.4, 1.3, 1.3,0,0,1024,1024,1024,1024,348.6,-90,98,3.815,3.814,3.804,3.867,3.871,3.824,16.554,59,14,Waypoint,
37.2566393,-119.3807913,5204.9830543547,8.530184,0,0.83935698224,6800,2018-06-17 20:24:35,11,0,23.046,5204.9830543547,8.530184,0.223694,0.86820212752,0,0,-0.671082,349.4, 1, 1.1,0,0,1024,1024,1024,1024,348.6,-90,98,3.815,3.814,3.804,3.867,3.871,3.824,16.554,59,14,Waypoint,
37.2566393,-119.3807914,5205.9673063547,9.514436,0,0.8577428096,6900,2018-06-17 20:24:35,11,0,23.046,5205.9673063547,9.514436,0.223694,0.86820212752,0,0,-0.671082,349.4, 0.9, 0.7,0,0,1024,1024,1024,1024,348.6,-90,98,3.815,3.814,3.804,3.867,3.871,3.824,16.554,59,14,Waypoint,
37.2566393,-119.3807915,5206.9515583547,10.498688,0,0.87670278396,7000,2018-06-17 20:24:35,10,0,23.165,5206.9515583547,10.498688,0.223694,0.87670278396,0,0,-0.671082,349.5, 1, 0.6,0,0,1024,1024,1024,1024,348.6,-90,98,3.818,3.792,3.753,3.85,3.825,3.84,16.325,59,14,Waypoint,
37.2566391,-119.3807915,5208.9200623547,12.467192,0,0.82346459328,7100,2018-06-17 20:24:35,10,0,23.165,5208.9200623547,12.467192,0.223694,0.87670278396,0,0,-0.671082,349.7, 1.4, 0.8,0,0,1024,1024,1024,1024,348.6,-89.9,98,3.818,3.792,3.753,3.85,3.825,3.84,16.325,59,14,Waypoint,
37.256639,-119.3807914,5210.2323983547,13.779528,0,0.77713585164,7200,2018-06-17 20:24:35,10,0,23.165,5210.2323983547,13.779528,0.223694,0.87670278396,0,0,-0.671082,349.8, 1.2, 0.8,0,0,1024,1024,1024,1024,348.6,-89.9,98,3.818,3.792,3.753,3.85,3.825,3.84,16.325,59,14,Waypoint,
37.2566388,-119.3807913,5211.2166503547,14.76378,0,0.70582679424,7300,2018-06-17 20:24:35,10,0,23.165,5211.2166503547,14.76378,0.223694,0.87670278396,0,0,-0.671082,349.8, 0.7, 0.5,0,0,1024,1024,1024,1024,348.7,-90,98,3.818,3.792,3.753,3.85,3.825,3.84,16.325,59,14,Waypoint,
37.2566387,-119.3807912,5212.5289863547,16.076116,0,0.65984582164,7400,2018-06-17 20:24:35,10,0,23.165,5212.5289863547,16.076116,0.223694,0.87670278396,0,0,-0.671082,349.8, 0.4, 0.3,0,0,1024,1024,1024,1024,348.7,-90,98,3.818,3.792,3.753,3.85,3.825,3.84,16.325,59,14,Waypoint,
37.2566386,-119.3807912,5213.5132383547,17.060368,0,0.63622377364,7500,2018-06-17 20:24:35,11,0,23.165,5213.5132383547,17.060368,0.223694,0.87670278396,0,0,-0.671082,349.9, 0.1, 0.1,0,0,1024,1024,1024,1024,348.7,-90,98,3.818,3.792,3.753,3.85,3.825,3.84,16.325,59,14,Waypoint,
37.2566385,-119.3807912,5214.8255743547,18.372704,0,0.6138615682,7600,2018-06-17 20:24:36,11,0,23.165,5214.8255743547,18.372704,0.223694,0.87670278396,0,0,-0.671082,349.9, 0, 0,0,0,1024,1024,1024,1024,348.7,-90,98,3.818,3.792,3.753,3.85,3.825,3.84,16.325,59,14,Waypoint,
37.2566386,-119.380791,5215.8098263547,19.356956,0,0.59229332604,7800,2018-06-17 20:24:36,11,0,23.165,5215.8098263547,19.356956,0.223694,0.87670278396,0,0,-0.671082,349.9, 0.2, 0.2,0,0,1024,1024,1024,1024,348.7,-90,98,3.818,3.792,3.753,3.85,3.825,3.84,16.325,59,14,Waypoint,
37.2566386,-119.3807908,5217.1221623547,20.669292,0,0.55098755044,7900,2018-06-17 20:24:36,11,0,23.165,5217.1221623547,20.669292,0.223694,0.87670278396,0,0,-0.671082,349.8, 0.7, 0,0,0,1024,1024,1024,1024,348.7,-89.9,98,3.818,3.792,3.753,3.85,3.825,3.84,16.325,59,14,Waypoint,
37.2566387,-119.3807909,5218.1064143547,21.653544,0,0.59747049156,8000,2018-06-17 20:24:36,11,0,22.126,5218.1064143547,21.653544,0.223694,0.87670278396,0,0,-0.671082,349.7, 1.4, -0.1,0,0,1024,1024,1024,1024,348.7,-89.9,97,3.644,3.657,3.623,3.716,3.707,3.655,24.996,59,14,Waypoint,
37.2566387,-119.380791,5219.0906663547,22.637796,0,0.61759844496,8100,2018-06-17 20:24:36,11,0,22.126,5219.0906663547,22.637796,0.223694,0.87670278396,0,0,-0.671082,349.7, 1.8, -0.1,0,0,1024,1024,1024,1024,348.7,-89.9,97,3.644,3.657,3.623,3.716,3.707,3.655,24.996,59,14,Waypoint,
37.2566388,-119.380791,5220.4030023547,23.950132,0,0.64397639856,8200,2018-06-17 20:24:36,11,0,22.126,5220.4030023547,23.950132,0.223694,0.87670278396,0,0,-0.671082,349.6, 1.9, 0,0,0,1024,1024,1024,1024,348.7,-89.9,97,3.644,3.657,3.623,3.716,3.707,3.655,24.996,59,14,Waypoint,
37.2566389,-119.380791,5221.3872543547,24.934384,0,0.67130251492,8300,2018-06-17 20:24:36,11,0,22.126,5221.3872543547,24.934384,0.223694,0.87670278396,0,0,-0.671082,349.6, 1.8, 0,0,0,1024,1024,1024,1024,348.7,-89.9,97,3.644,3.657,3.623,3.716,3.707,3.655,24.996,59,14,Waypoint,
37.2566389,-119.3807911,5222.6995903547,26.24672,0,0.69049870976,8400,2018-06-17 20:24:36,12,0,22.126,5222.6995903547,26.24672,0.223694,0.87670278396,0,0,-0.671082,349.6, 1.6, 0.1,0,0,1024,1024,1024,1024,348.7,-89.9,97,3.644,3.657,3.623,3.716,3.707,3.655,24.996,59,14,Waypoint,
37.2566389,-119.3807912,5223.6838423547,27.230972,0,0.71036419596,8500,2018-06-17 20:24:36,12,0,22.126,5223.6838423547,27.230972,0.223694,0.87670278396,0,0,-0.671082,349.7, 1.6, 0.4,0,0,1024,1024,1024,1024,348.7,-89.9,97,3.644,3.657,3.623,3.716,3.707,3.655,24.996,59,14,Waypoint,
37.256639,-119.3807912,5224.6680943547,28.215224,0,0.73703414432,8600,2018-06-17 20:24:36,12,0,22.126,5224.6680943547,28.215224,0.223694,0.87670278396,0,0,-0.671082,349.8, 1.5, 0.6,0,0,1024,1024,1024,1024,348.7,-89.9,97,3.644,3.657,3.623,3.716,3.707,3.655,24.996,59,14,Waypoint,
37.2566391,-119.3807912,5225.6523463547,29.199476,0,0.764517741,8700,2018-06-17 20:24:37,12,0,22.126,5225.6523463547,29.199476,0.223694,0.87670278396,0,0,-0.671082,349.8, 1.4, 0.6,0,0,1024,1024,1024,1024,348.7,-89.9,97,3.644,3.657,3.623,3.716,3.707,3.655,24.996,59,14,Waypoint,
37.2566393,-119.3807913,5226.9646823547,30.511812,0,0.83935698224,8800,2018-06-17 20:24:37,12,0,22.126,5226.9646823547,30.511812,0.223694,0.87670278396,0,0,-0.671082,349.8, 1.6, 0.3,0,0,1024,1024,1024,1024,348.7,-89.9,97,3.644,3.657,3.623,3.716,3.707,3.655,24.996,59,14,Waypoint,
37.2566395,-119.3807914,5227.9489343547,31.496064,0,0.91481630224,8900,2018-06-17 20:24:37,12,0,22.126,5227.9489343547,31.496064,0.223694,0.91481630224,0,0,-0.671082,349.8, 1.9, 0.2,0,0,1024,1024,1024,1024,348.7,-89.9,97,3.644,3.657,3.623,3.716,3.707,3.655,24.996,59,14,Waypoint,
37.2566397,-119.3807914,5228.9331863547,32.480316,0,0.9740157792,9000,2018-06-17 20:24:37,12,0,22.239,5228.9331863547,32.480316,0.223694,0.9740157792,0,0,-0.671082,349.7, 2.4, 0.3,0,0,1024,1024,1024,1024,348.7,-89.9,97,3.644,3.657,3.623,3.716,3.707,3.655,21.584,59,14,Waypoint,
37.2566399,-119.3807915,5229.9174383547,33.464568,0,1.05074150344,9100,2018-06-17 20:24:37,12,0,22.239,5229.9174383547,33.464568,0.223694,1.05074150344,0,0,-0.671082,349.7, 2.7, 0.5,0,0,1024,1024,1024,1024,348.7,-89.9,97,3.644,3.657,3.623,3.716,3.707,3.655,21.584,59,14,Waypoint,
37.25664,-119.3807916,5230.9016903547,34.44882,0,1.09720804036,9200,2018-06-17 20:24:37,11,0,22.239,5230.9016903547,34.44882,0.223694,1.09720804036,0,0,-0.671082,349.7, 3.1, 0.7,0,0,1024,1024,1024,1024,348.7,-89.9,97,3.644,3.657,3.623,3.716,3.707,3.655,21.584,59,14,Waypoint,
37.2566402,-119.3807917,5231.8859423547,35.433072,0,1.17412077248,9300,2018-06-17 20:24:37,11,0,22.239,5231.8859423547,35.433072,0.223694,1.17412077248,0,0,-0.671082,349.8, 3.4, 0.9,0,0,1024,1024,1024,1024,348.7,-89.9,97,3.644,3.657,3.623,3.716,3.707,3.655,21.584,59,14,Waypoint,
37.2566403,-119.3807917,5232.8701943547,36.417324,0,1.20489833252,9400,2018-06-17 20:24:37,12,0,22.239,5232.8701943547,36.417324,0.223694,1.20489833252,0,0,-0.671082,349.8, 3.3, 0.9,0,0,1024,1024,1024,1024,348.7,-89.9,97,3.644,3.657,3.623,3.716,3.707,3.655,21.584,59,14,Waypoint,
37.2566405,-119.3807919,5234.8386983547,38.385828,0,1.29760174756,9500,2018-06-17 20:24:37,11,0,22.239,5234.8386983547,38.385828,0.223694,1.29760174756,0,0,-0.671082,349.8, 3, 0.9,0,0,1024,1024,1024,1024,348.7,-90,97,3.644,3.657,3.623,3.716,3.707,3.655,21.584,59,14,Waypoint,
37.2566407,-119.380792,5236.1510343547,39.698164,0,1.37482944032,9600,2018-06-17 20:24:37,11,0,22.239,5236.1510343547,39.698164,0.223694,1.37482944032,0,0,-0.671082,349.8, 3.1, 0.7,0,0,1024,1024,1024,1024,348.7,-89.9,97,3.644,3.657,3.623,3.716,3.707,3.655,21.584,59,14,Waypoint,
37.2566407,-119.380792,5237.1352863547,40.682416,0,1.37482944032,9700,2018-06-17 20:24:38,11,0,22.239,5237.1352863547,40.682416,0.223694,1.37482944032,0,0,-0.671082,349.7, 3.1, 0.6,0,0,1024,1024,1024,1024,348.7,-89.9,97,3.644,3.657,3.623,3.716,3.707,3.655,21.584,59,14,Waypoint,
37.2566408,-119.3807919,5238.1195383547,41.666668,0,1.39117130436,9800,2018-06-17 20:24:38,11,0,22.239,5238.1195383547,41.666668,0.223694,1.39117130436,0,0,-0.671082,349.7, 3, 0.4,0,0,1024,1024,1024,1024,348.7,-89.9,97,3.644,3.657,3.623,3.716,3.707,3.655,21.584,59,14,Waypoint,
37.2566408,-119.3807918,5239.1037903547,42.65092,0,1.3768537186,10000,2018-06-17 20:24:38,11,0,22.239,5239.1037903547,42.65092,0.223694,1.39117130436,0,0,-0.671082,349.6, 2.9, 0.1,0,0,1024,1024,1024,1024,348.7,-89.9,97,3.697,3.706,3.704,3.763,3.764,3.699,21.584,59,14,Waypoint,
37.2566408,-119.3807918,5241.0722943547,44.619424,0,1.3768537186,10100,2018-06-17 20:24:38,12,0,22.239,5241.0722943547,44.619424,0.223694,1.39117130436,0,0,-0.671082,349.4, 2.7, -0.1,0,0,1024,1024,1024,1024,348.7,-90,97,3.697,3.706,3.704,3.763,3.764,3.699,21.584,59,14,Waypoint,
37.2566408,-119.3807917,5242.0565463547,45.603676,0,1.36300201212,10300,2018-06-17 20:24:38,12,0,22.239,5242.0565463547,45.603676,0.223694,1.39117130436,0,0,-0.671082,349.4, 2.6, 0,0,0,1024,1024,1024,1024,348.7,-90,97,3.697,3.706,3.704,3.763,3.764,3.699,21.584,59,14,Waypoint,
37.2566408,-119.3807917,5243.0407983547,46.587928,0.223694,1.36300201212,10400,2018-06-17 20:24:38,11,0,22.239,5243.0407983547,46.587928,0.223694,1.39117130436,0,0,-0.671082,349.3, 2.5, -0.1,0,0,1024,1024,1024,1024,348.7,-89.9,97,3.697,3.706,3.704,3.763,3.764,3.699,21.584,59,14,Waypoint,
37.2566407,-119.3807917,5244.0250503547,47.57218,0.223694,1.33088586936,10500,2018-06-17 20:24:38,11,0,22.239,5244.0250503547,47.57218,0.223694,1.39117130436,0,0,-0.671082,349.4, 2.2, 0,0,0,1024,1024,1024,1024,348.7,-89.9,97,3.697,3.706,3.704,3.763,3.764,3.699,21.584,59,14,Waypoint,
37.2566406,-119.3807917,5245.0093023547,48.556432,0.223694,1.29899610456,10600,2018-06-17 20:24:38,12,0,22.239,5245.0093023547,48.556432,0.223694,1.39117130436,0,0,-0.671082,349.5, 1.9, 0.1,0,0,1024,1024,1024,1024,348.7,-90,97,3.697,3.706,3.704,3.763,3.764,3.699,21.584,59,14,Waypoint,
37.2566406,-119.3807916,5245.9935543547,49.540684,0.223694,1.28496395188,10700,2018-06-17 20:24:39,12,0,22.239,5245.9935543547,49.540684,0.223694,1.39117130436,0,0,-0.671082,349.6, 1.7, 0.1,0,0,1024,1024,1024,1024,348.7,-90,97,3.697,3.706,3.704,3.763,3.764,3.699,21.584,59,14,Waypoint,
37.2566405,-119.3807916,5246.9778063547,50.524936,0.223694,1.2529692002,10800,2018-06-17 20:24:39,11,0,22.239,5246.9778063547,50.524936,0.223694,1.39117130436,0,0,-0.671082,349.8, 1.5, 0,0,0,1024,1024,1024,1024,348.7,-90,97,3.697,3.706,3.704,3.763,3.764,3.699,21.584,59,14,Waypoint,
37.2566404,-119.3807916,5247.9620583547,51.509188,0.223694,1.22122379236,10900,2018-06-17 20:24:39,11,0,22.239,5247.9620583547,51.509188,0.223694,1.39117130436,0,0,-0.671082,349.9, 1.4, 0,0,0,1024,1024,1024,1024,348.7,-90,97,3.697,3.706,3.704,3.763,3.764,3.699,21.584,59,14,Waypoint,
37.2566404,-119.3807915,5248.9463103547,52.49344,0.223694,1.20698494676,11000,2018-06-17 20:24:39,11,0,22.442,5248.9463103547,52.49344,0.223694,1.39117130436,0,0,-0.671082,350, 1.4, 0.2,0,0,1024,1024,1024,1024,348.7,-90,97,3.717,3.724,3.72,3.786,3.775,3.724,19.521,59,14,Waypoint,
37.2566403,-119.3807915,5249.9305623547,53.477692,0.223694,1.17513455204,11100,2018-06-17 20:24:39,11,0,22.442,5249.9305623547,53.477692,0.223694,1.39117130436,0,0,-0.671082,350.1, 1.4, 0.2,0,0,1024,1024,1024,1024,348.7,-89.9,97,3.717,3.724,3.72,3.786,3.775,3.724,19.521,59,14,Waypoint,
37.2566402,-119.3807914,5250.9148143547,54.461944,0.223694,1.12908796264,11200,2018-06-17 20:24:39,12,0,22.442,5250.9148143547,54.461944,0.223694,1.39117130436,0,0,-0.671082,350.1, 1.4, 0,0,0,1024,1024,1024,1024,348.7,-90,97,3.717,3.724,3.72,3.786,3.775,3.724,19.521,59,14,Waypoint,
37.2566401,-119.3807914,5251.8990663547,55.446196,0.223694,1.09740160992,11300,2018-06-17 20:24:39,12,0,22.442,5251.8990663547,55.446196,0.223694,1.39117130436,0,0,-0.671082,350.1, 1.5, 0.1,0,0,1024,1024,1024,1024,348.7,-90,97,3.717,3.724,3.72,3.786,3.775,3.724,19.521,59,14,Waypoint,
37.2566399,-119.3807915,5252.8833183547,56.430448,0.223694,1.05074150344,11400,2018-06-17 20:24:39,12,0,22.442,5252.8833183547,56.430448,0.223694,1.39117130436,0,0,-0.671082,350, 1.4, 0.2,0,0,1024,1024,1024,1024,348.7,-90,97,3.717,3.724,3.72,3.786,3.775,3.724,19.521,59,14,Waypoint,
37.2566397,-119.3807917,5253.8675703547,57.4147,0.223694,1.02587929792,11500,2018-06-17 20:24:39,12,0,22.442,5253.8675703547,57.4147,0.223694,1.39117130436,0,0,-0.671082,349.9, 1.2, 0.6,0,0,1024,1024,1024,1024,348.7,-90,97,3.717,3.724,3.72,3.786,3.775,3.724,19.521,59,14,Waypoint,
37.2566395,-119.3807917,5254.8518223547,58.398952,0.223694,0.96985239324,11600,2018-06-17 20:24:39,11,0,22.442,5254.8518223547,58.398952,0.223694,1.39117130436,0,0,-0.671082,349.8, 1, 1.1,0,0,1024,1024,1024,1024,348.7,-90,97,3.717,3.724,3.72,3.786,3.775,3.724,19.521,59,14,Waypoint,
37.2566394,-119.3807918,5255.8360743547,59.383204,0.223694,0.96262470272,11700,2018-06-17 20:24:40,11,0,22.442,5255.8360743547,59.383204,0.223694,1.39117130436,0,0,-0.671082,349.6, 0.7, 1.3,0,0,1024,1024,1024,1024,348.7,-90,97,3.717,3.724,3.72,3.786,3.775,3.724,19.521,59,14,Waypoint,
37.2566393,-119.3807918,5256.8203263547,60.367456,0.223694,0.93669294336,11800,2018-06-17 20:24:40,11,0,22.442,5256.8203263547,60.367456,0.223694,1.39117130436,0,0,-0.671082,349.5, 0.6, 1.2,0,0,1024,1024,1024,1024,348.7,-90,97,3.717,3.724,3.72,3.786,3.775,3.724,19.521,59,14,Waypoint,
37.2566391,-119.3807917,5258.7888303547,62.33596,0,0.86540685184,11900,2018-06-17 20:24:40,12,0,22.442,5258.7888303547,62.33596,0.223694,1.39117130436,0,0,-0.671082,349.3, 0.5, 0.4,0,0,1024,1024,1024,1024,348.7,-90,97,3.717,3.724,3.72,3.786,3.775,3.724,19.521,59,14,Waypoint,
37.256639,-119.3807916,5259.7730823547,63.320212,0,0.81938979,12000,2018-06-17 20:24:40,12,0,22.436,5259.7730823547,63.320212,0.223694,1.39117130436,0,0,-0.671082,349.2, 0.5, 0.1,0,0,1024,1024,1024,1024,348.7,-90,97,3.717,3.72,3.724,3.783,3.772,3.727,19.815,59,14,Waypoint,
37.2566389,-119.3807915,5260.7573343547,64.304464,0,0.77344818748,12100,2018-06-17 20:24:40,12,0,22.436,5260.7573343547,64.304464,0.223694,1.39117130436,0,0,-0.671082,349.3, 0.7, 0,0,0,1024,1024,1024,1024,348.7,-90,97,3.717,3.72,3.724,3.783,3.772,3.727,19.815,59,14,Waypoint,
37.2566388,-119.3807915,5261.7415863547,65.288716,0,0.74985566704,12200,2018-06-17 20:24:40,12,0,22.436,5261.7415863547,65.288716,0.223694,1.39117130436,0,0,-0.671082,349.3, 0.8, 0,0,0,1024,1024,1024,1024,348.7,-90,97,3.717,3.72,3.724,3.783,3.772,3.727,19.815,59,14,Waypoint,
37.2566387,-119.3807915,5262.7258383547,66.272968,0,0.72732613876,12400,2018-06-17 20:24:40,10,0,22.436,5262.7258383547,66.272968,0.223694,1.39117130436,0,0,-0.671082,349.4, 0.7, 0.1,0,0,1024,1024,1024,1024,348.7,-90,97,3.717,3.72,3.724,3.783,3.772,3.727,19.815,59,14,Waypoint,
37.2566385,-119.3807912,5264.6943423547,68.241472,0,0.6138615682,12600,2018-06-17 20:24:40,11,0,22.436,5264.6943423547,68.241472,0.223694,1.39117130436,0,0,-0.671082,349.6, 0.7, 0,0,0,1024,1024,1024,1024,348.7,-90,97,3.717,3.72,3.724,3.783,3.772,3.727,19.815,59,14,Waypoint,
37.2566385,-119.380791,5265.6785943547,69.225724,0,0.56820539876,12700,2018-06-17 20:24:41,11,0,22.436,5265.6785943547,69.225724,0.223694,1.39117130436,0,0,-0.671082,349.7, 0.7, -0.1,0,0,1024,1024,1024,1024,348.7,-90,97,3.717,3.72,3.724,3.783,3.772,3.727,19.815,59,14,Waypoint,
37.2566385,-119.3807909,5266.6628463547,70.209976,0,0.54625986,12800,2018-06-17 20:24:41,11,0,22.436,5266.6628463547,70.209976,0.223694,1.39117130436,0,0,-0.671082,349.8, 0.8, -0.3,0,0,1024,1024,1024,1024,348.7,-90,97,3.717,3.72,3.724,3.783,3.772,3.727,19.815,59,14,Waypoint,
37.2566384,-119.3807909,5267.6470983547,71.194228,0,0.52259844192,12900,2018-06-17 20:24:41,11,0,22.436,5267.6470983547,71.194228,0.223694,1.39117130436,0,0,-0.671082,349.9, 0.9, -0.3,0,0,1024,1024,1024,1024,348.7,-89.9,97,3.717,3.72,3.724,3.783,3.772,3.727,19.815,59,14,Waypoint,
37.2566384,-119.3807908,5268.6313503547,72.17848,0,0.50034122336,13000,2018-06-17 20:24:41,12,0,22.381,5268.6313503547,72.17848,0.223694,1.39117130436,0,0,-0.671082,349.9, 1, -0.2,0,0,1024,1024,1024,1024,348.7,-90,97,3.708,3.716,3.711,3.776,3.771,3.718,19.641,59,14,Waypoint,
37.2566384,-119.3807907,5269.6156023547,73.162732,0,0.47880907044,13100,2018-06-17 20:24:41,12,0,22.381,5269.6156023547,73.162732,0.223694,1.39117130436,0,0,-0.671082,349.8, 1.1, -0.3,0,0,1024,1024,1024,1024,348.7,-90,97,3.708,3.716,3.711,3.776,3.771,3.718,19.641,59,14,Waypoint,
37.2566384,-119.3807906,5270.5998543547,74.146984,0,0.45810697004,13200,2018-06-17 20:24:41,12,0,22.381,5270.5998543547,74.146984,0.223694,1.39117130436,0,0,-0.671082,349.8, 1, -0.4,0,0,1024,1024,1024,1024,348.7,-90,97,3.708,3.716,3.711,3.776,3.771,3.718,19.641,59,14,Waypoint,
37.2566384,-119.3807905,5271.5841063547,75.131236,0,0.4383530324,13300,2018-06-17 20:24:41,12,0,22.381,5271.5841063547,75.131236,0.223694,1.39117130436,0,0,-0.671082,349.7, 1.1, -0.4,0,0,1024,1024,1024,1024,348.7,-90,97,3.708,3.716,3.711,3.776,3.771,3.718,19.641,59,14,Waypoint,
37.2566383,-119.3807904,5272.5683583547,76.115488,0,0.39179135112,13400,2018-06-17 20:24:41,11,0,22.381,5272.5683583547,76.115488,0.223694,1.39117130436,0,0,-0.671082,349.6, 1.2, -0.4,0,0,1024,1024,1024,1024,348.7,-90,97,3.708,3.716,3.711,3.776,3.771,3.718,19.641,59,14,Waypoint,
37.2566383,-119.3807904,5273.5526103547,77.09974,0,0.39179135112,13500,2018-06-17 20:24:41,11,0,22.381,5273.5526103547,77.09974,0.223694,1.39117130436,0,0,-0.671082,349.5, 1.3, -0.3,0,0,1024,1024,1024,1024,348.7,-90,97,3.708,3.716,3.711,3.776,3.771,3.718,19.641,59,14,Waypoint,
37.2566383,-119.3807904,5274.5368623547,78.083992,0,0.39179135112,13600,2018-06-17 20:24:41,10,0,22.381,5274.5368623547,78.083992,0.223694,1.39117130436,0,0,-0.671082,349.5, 1.3, -0.2,0,0,1024,1024,1024,1024,348.7,-90,97,3.708,3.716,3.711,3.776,3.771,3.718,19.641,59,14,Waypoint,
37.2566383,-119.3807903,5275.5211143547,79.068244,0,0.3730479122,13700,2018-06-17 20:24:42,10,0,22.381,5275.5211143547,79.068244,0.223694,1.39117130436,0,0,-0.671082,349.5, 1.3, -0.1,0,0,1024,1024,1024,1024,348.7,-90,97,3.708,3.716,3.711,3.776,3.771,3.718,19.641,59,14,Waypoint,
37.2566382,-119.3807903,5276.5053663547,80.052496,0,0.34524935488,13800,2018-06-17 20:24:42,11,0,22.381,5276.5053663547,80.052496,0.223694,1.39117130436,0,0,-0.671082,349.6, 1.2, -0.2,0,0,1024,1024,1024,1024,348.7,-90,97,3.708,3.716,3.711,3.776,3.771,3.718,19.641,59,14,Waypoint,
37.2566382,-119.3807903,5277.4896183547,81.036748,0,0.34524935488,13900,2018-06-17 20:24:42,11,0,22.381,5277.4896183547,81.036748,0.223694,1.39117130436,0,0,-0.671082,349.6, 1, 0,0,0,1024,1024,1024,1024,348.7,-90,97,3.708,3.716,3.711,3.776,3.771,3.718,19.641,59,14,Waypoint,
37.2566382,-119.3807902,5278.1457863547,81.692916,0,0.326416677112,14000,2018-06-17 20:24:42,12,0,22.412,5278.1457863547,81.692916,0.223694,1.39117130436,0,0,-0.671082,349.6, 0.9, 0,0,0,1024,1024,1024,1024,348.7,-90,97,3.714,3.719,3.711,3.77,3.766,3.713,19.168,59,14,Waypoint,
37.2566382,-119.3807902,5279.1300383547,82.677168,0,0.326416677112,14100,2018-06-17 20:24:42,12,0,22.412,5279.1300383547,82.677168,0.223694,1.39117130436,0,0,-0.671082,349.7, 0.8, 0,0,0,1024,1024,1024,1024,348.7,-90,97,3.714,3.719,3.711,3.77,3.766,3.713,19.168,59,14,Waypoint,
37.2566382,-119.3807902,5280.1142903547,83.66142,0,0.326416677112,14200,2018-06-17 20:24:42,12,0,22.412,5280.1142903547,83.66142,0.223694,1.39117130436,0,0,-0.671082,349.8, 0.9, -0.2,0,0,1024,1024,1024,1024,348.7,-90,97,3.714,3.719,3.711,3.77,3.766,3.713,19.168,59,14,Waypoint,
37.2566383,-119.3807902,5282.0827943547,85.629924,0,0.35568898776,14400,2018-06-17 20:24:42,12,0,22.412,5282.0827943547,85.629924,0.223694,1.39117130436,0,0,-0.671082,349.7, 1.5, -0.7,0,0,1024,1024,1024,1024,348.7,-89.9,97,3.714,3.719,3.711,3.77,3.766,3.713,19.168,59,14,Waypoint,
37.2566384,-119.3807903,5284.0512983547,87.598428,0,0.40223754568,14500,2018-06-17 20:24:42,12,0,22.412,5284.0512983547,87.598428,0.223694,1.39117130436,0,0,-0.671082,349.6, 1.8, -0.4,0,0,1024,1024,1024,1024,348.7,-89.9,97,3.714,3.719,3.711,3.77,3.766,3.713,19.168,59,14,Waypoint,
37.2566385,-119.3807904,5285.6917183547,89.238848,0,0.44879922696,14700,2018-06-17 20:24:43,12,0,22.412,5285.6917183547,89.238848,0.223694,1.39117130436,0,0,-0.671082,349.6, 1.7, -0.1,0,0,1024,1024,1024,1024,348.7,-89.9,97,3.714,3.719,3.711,3.77,3.766,3.713,19.168,59,14,Waypoint,
37.2566385,-119.3807903,5286.6759703547,90.2231,0,0.43253282224,14800,2018-06-17 20:24:43,12,0,22.412,5286.6759703547,90.2231,0.223694,1.39117130436,0,0,-0.671082,349.6, 1.9, -0.3,0,0,1024,1024,1024,1024,348.7,-89.9,97,3.714,3.719,3.711,3.77,3.766,3.713,19.168,59,14,Waypoint,
37.2566386,-119.3807903,5287.6602223547,91.207352,0,0.46372376812,14900,2018-06-17 20:24:43,12,0,22.412,5287.6602223547,91.207352,0.223694,1.39117130436,0,0,-0.671082,349.8, 1.9, -0.4,0,0,1024,1024,1024,1024,348.7,-89.9,97,3.714,3.719,3.711,3.77,3.766,3.713,19.168,59,14,Waypoint,
37.2566386,-119.3807904,5288.6444743547,92.191604,0,0.47893374236,15000,2018-06-17 20:24:43,12,0,22.412,5288.6444743547,92.191604,0.223694,1.39117130436,0,0,-0.671082,350, 1.6, -0.4,0,0,1024,1024,1024,1024,348.7,-89.9,97,3.706,3.711,3.705,3.778,3.767,3.712,19.128,59,14,Waypoint,
37.2566387,-119.3807903,5289.6287263547,93.175856,0,0.4956364988,15200,2018-06-17 20:24:43,12,0,22.412,5289.6287263547,93.175856,0.223694,1.39117130436,0,0,-0.671082,350.1, 1.7, -0.4,0,0,1024,1024,1024,1024,348.7,-90,97,3.706,3.711,3.705,3.778,3.767,3.712,19.128,59,14,Waypoint,
37.2566388,-119.3807903,5290.6129783547,94.160108,0,0.52814306152,15300,2018-06-17 20:24:43,12,0,22.412,5290.6129783547,94.160108,0.223694,1.39117130436,0,0,-0.671082,350, 1.8, -0.7,0,0,1024,1024,1024,1024,348.7,-89.9,97,3.706,3.711,3.705,3.778,3.767,3.712,19.128,59,14,Waypoint,
37.2566389,-119.3807902,5291.5972303547,95.14436,0,0.54975067376,15400,2018-06-17 20:24:43,13,0,22.412,5291.5972303547,95.14436,0.223694,1.39117130436,0,0,-0.671082,349.8, 1.8, -1,0,0,1024,1024,1024,1024,348.7,-89.9,97,3.706,3.711,3.705,3.778,3.767,3.712,19.128,59,14,Waypoint,
37.256639,-119.3807902,5292.9095663547,96.456696,0,0.58380579296,15500,2018-06-17 20:24:43,13,0,22.412,5292.9095663547,96.456696,0.223694,1.39117130436,0,0,-0.671082,349.7, 2, -1.1,0,0,1024,1024,1024,1024,348.7,-89.9,97,3.706,3.711,3.705,3.778,3.767,3.712,19.128,59,14,Waypoint,
37.256639,-119.3807902,5293.8938183547,97.440948,0,0.58380579296,15600,2018-06-17 20:24:43,13,0,22.412,5293.8938183547,97.440948,0.223694,1.39117130436,0,0,-0.671082,349.7, 2.4, -1.1,0,0,1024,1024,1024,1024,348.7,-89.9,97,3.706,3.711,3.705,3.778,3.767,3.712,19.128,59,14,Waypoint,
37.2566391,-119.3807902,5294.8780703547,98.4252,0,0.61813978356,15700,2018-06-17 20:24:44,13,0,22.412,5294.8780703547,98.4252,0.223694,1.39117130436,0,0,-0.671082,349.7, 2.7, -1.1,0,0,1024,1024,1024,1024,348.7,-89.9,97,3.706,3.711,3.705,3.778,3.767,3.712,19.128,59,14,Waypoint,
37.2566392,-119.3807901,5295.5342383547,99.081368,0,0.64425198912,15800,2018-06-17 20:24:44,13,0,22.412,5295.5342383547,99.081368,0.223694,1.39117130436,0,0,-0.671082,349.7, 2.6, -0.9,0,0,1024,1024,1024,1024,348.7,-89.9,97,3.706,3.711,3.705,3.778,3.767,3.712,19.128,59,14,Waypoint,
37.2566393,-119.3807901,5296.5184903547,100.06562,0,0.67944884064,15900,2018-06-17 20:24:44,13,0,22.412,5296.5184903547,100.06562,0.223694,1.39117130436,0,0,-0.671082,349.7, 2.5, -0.6,0,0,1024,1024,1024,1024,348.7,-89.9,97,3.706,3.711,3.705,3.778,3.767,3.712,19.128,59,14,Waypoint,
37.2566393,-119.38079,5297.5027423547,101.049872,0,0.6725886042,16000,2018-06-17 20:24:44,12,0,22.087,5297.5027423547,101.049872,0.223694,1.39117130436,0,0,-0.671082,349.8, 2.6, -0.7,0,0,1024,1024,1024,1024,348.7,-89.9,97,3.661,3.66,3.656,3.722,3.765,3.692,21.607,59,14,Waypoint,
37.2566394,-119.3807899,5298.8150783547,102.362208,0,0.70287731908,16100,2018-06-17 20:24:44,12,0,22.087,5298.8150783547,102.362208,0.223694,1.39117130436,0,0,-0.671082,349.8, 2.8, -0.8,0,0,1024,1024,1024,1024,348.7,-89.9,97,3.661,3.66,3.656,3.722,3.765,3.692,21.607,59,14,Waypoint,
37.2566394,-119.3807899,5299.7993303547,103.34646,0,0.70287731908,16200,2018-06-17 20:24:44,13,0,22.087,5299.7993303547,103.34646,0.223694,1.39117130436,0,0,-0.671082,349.7, 2.7, -1.2,0,0,1024,1024,1024,1024,348.7,-89.9,97,3.661,3.66,3.656,3.722,3.765,3.692,21.607,59,14,Waypoint,
37.2566395,-119.3807898,5300.7835823547,104.330712,0,0.73488191328,16300,2018-06-17 20:24:44,13,0,22.087,5300.7835823547,104.330712,0.223694,1.39117130436,0,0,-0.671082,349.5, 2.4, -1.4,0,0,1024,1024,1024,1024,348.7,-90,97,3.661,3.66,3.656,3.722,3.765,3.692,21.607,59,14,Waypoint,
37.2566395,-119.3807897,5301.7678343547,105.314964,0,0.73200789744,16400,2018-06-17 20:24:44,13,0,22.087,5301.7678343547,105.314964,0.223694,1.39117130436,0,0,-0.671082,349.3, 2, -1.5,0,0,1024,1024,1024,1024,348.7,-90,97,3.661,3.66,3.656,3.722,3.765,3.692,21.607,59,14,Waypoint,
37.2566395,-119.3807897,5302.7520863547,106.299216,0,0.73200789744,16500,2018-06-17 20:24:44,13,0,22.087,5302.7520863547,106.299216,0.223694,1.39117130436,0,0,-0.671082,349, 2, -1.9,0,0,1024,1024,1024,1024,348.7,-90,97,3.661,3.66,3.656,3.722,3.765,3.692,21.607,59,14,Waypoint,
37.2566395,-119.3807896,5303.7363383547,107.283468,0,0.73027561392,16600,2018-06-17 20:24:44,13,0,22.087,5303.7363383547,107.283468,0.223694,1.39117130436,0,0,-0.671082,348.8, 2, -2.1,0,0,1024,1024,1024,1024,348.7,-90,97,3.661,3.66,3.656,3.722,3.765,3.692,21.607,59,14,Waypoint,
37.2566394,-119.3807896,5305.7048423547,109.251972,0,0.69382220068,16700,2018-06-17 20:24:45,13,0,22.087,5305.7048423547,109.251972,0.223694,1.39117130436,0,0,-0.671082,348.7, 1.8, -1.4,0,0,1024,1024,1024,1024,348.7,-90,97,3.661,3.66,3.656,3.722,3.765,3.692,21.607,59,14,Waypoint,
37.2566394,-119.3807895,5306.6890943547,110.236224,0,0.69321524528,16800,2018-06-17 20:24:45,13,0,22.087,5306.6890943547,110.236224,0.223694,1.39117130436,0,0,-0.671082,349.1, 1.2, -1,0,0,1024,1024,1024,1024,348.7,-90,97,3.661,3.66,3.656,3.722,3.765,3.692,21.607,59,14,Waypoint,
37.2566394,-119.3807895,5307.6733463547,111.220476,0,0.69321524528,16900,2018-06-17 20:24:45,13,0,22.087,5307.6733463547,111.220476,0.223694,1.39117130436,0,0,-0.671082,349.5, 1.1, -1.1,0,0,1024,1024,1024,1024,348.7,-90,97,3.661,3.66,3.656,3.722,3.765,3.692,21.607,59,14,Waypoint,
37.2566393,-119.3807896,5309.6418503547,113.18898,0,0.65737206828,17100,2018-06-17 20:24:45,13,0,22.087,5309.6418503547,113.18898,0.223694,1.39117130436,0,0,-0.671082,350.2, 0.9, -1.2,0,0,1024,1024,1024,1024,348.7,-90,97,3.661,3.66,3.656,3.722,3.765,3.692,21.607,59,14,Waypoint,
37.2566393,-119.3807896,5310.6261023547,114.173232,0,0.65737206828,17200,2018-06-17 20:24:45,13,0,22.087,5310.6261023547,114.173232,0.223694,1.39117130436,0,0,-0.671082,350.3, 1.1, -1,0,0,1024,1024,1024,1024,348.7,-90,97,3.661,3.66,3.656,3.722,3.765,3.692,21.607,59,14,Waypoint,
37.2566393,-119.3807897,5311.6103543547,115.157484,0,0.65929135968,17300,2018-06-17 20:24:45,13,0,22.087,5311.6103543547,115.157484,0.223694,1.39117130436,0,0,-0.671082,350.2, 1.5, -0.7,0,0,1024,1024,1024,1024,348.7,-89.9,97,3.661,3.66,3.656,3.722,3.765,3.692,21.607,59,14,Waypoint,
37.2566393,-119.3807897,5312.5946063547,116.141736,0,0.65929135968,17420,2018-06-17 20:24:45,13,0,22.087,5312.5946063547,116.141736,0.223694,1.39117130436,0,0,-0.671082,349.8, 1.9, -0.4,0,0,1024,1024,1024,1024,348.7,-89.9,97,3.661,3.66,3.656,3.722,3.765,3.692,21.607,59,14,Waypoint,
37.2566393,-119.3807897,5312.5946063547,116.141736,0,0.65929135968,17500,2018-06-17 20:24:45,13,0,22.087,5312.5946063547,116.141736,0.223694,1.39117130436,0,0,-0.671082,349.8, 1.9, -0.4,0,0,1024,1024,1024,1024,348.7,-89.9,97,3.661,3.66,3.656,3.722,3.765,3.692,21.607,59,14,Waypoint,
37.2566393,-119.3807897,5313.5788583547,117.125988,0,0.65929135968,17600,2018-06-17 20:24:45,13,0,22.087,5313.5788583547,117.125988,0.223694,1.39117130436,0,0,-0.671082,349.4, 1.8, -0.8,0,0,1024,1024,1024,1024,348.7,-90,97,3.661,3.66,3.656,3.722,3.765,3.692,21.607,59,14,Waypoint,
37.2566393,-119.3807897,5314.5631103547,118.11024,0,0.65929135968,17700,2018-06-17 20:24:46,13,0,22.087,5314.5631103547,118.11024,0.223694,1.39117130436,0,0,-0.671082,348.9, 1.5, -1.3,0,0,1024,1024,1024,1024,348.7,-90,97,3.661,3.66,3.656,3.722,3.765,3.692,21.607,59,14,Waypoint,
37.2566393,-119.3807896,5315.5473623547,119.094492,0,0.65737206828,17800,2018-06-17 20:24:46,13,0,22.087,5315.5473623547,119.094492,0.223694,1.39117130436,0,0,-0.671082,348.3, 1.3, -1.9,0,0,1024,1024,1024,1024,348.7,-90,97,3.661,3.66,3.656,3.722,3.765,3.692,21.607,59,14,Waypoint,
37.2566392,-119.3807896,5316.5316143547,120.078744,0,0.62092193588,17900,2018-06-17 20:24:46,13,0,22.087,5316.5316143547,120.078744,0.223694,1.39117130436,0,0,-0.671082,348, 1.1, -1.9,0,0,1024,1024,1024,1024,348.7,-90,97,3.661,3.66,3.656,3.722,3.765,3.692,21.607,59,14,Waypoint,
37.2566392,-119.3807896,5317.8439503547,121.39108,0,0.62092193588,18000,2018-06-17 20:24:46,13,0,22.164,5317.8439503547,121.39108,0.223694,1.39117130436,0,0,-0.671082,348.2, 1.1, -1.6,0,0,1024,1024,1024,1024,348.7,-90,96,3.672,3.672,3.674,3.733,3.736,3.672,20.123,59,14,Waypoint,
37.2566392,-119.3807896,5318.8282023547,122.375332,0,0.62092193588,18100,2018-06-17 20:24:46,13,0,22.164,5318.8282023547,122.375332,0.223694,1.39117130436,0,0,-0.671082,348.8, 1, -1.4,0,0,1024,1024,1024,1024,348.7,-90,96,3.672,3.672,3.674,3.733,3.736,3.672,20.123,59,14,Waypoint,
37.2566392,-119.3807895,5319.8124543547,123.359584,0,0.620242802,18200,2018-06-17 20:24:46,13,0,22.164,5319.8124543547,123.359584,0.223694,1.39117130436,0,0,-0.671082,349.6, 1.1, -1.3,0,0,1024,1024,1024,1024,348.7,-90,96,3.672,3.672,3.674,3.733,3.736,3.672,20.123,59,14,Waypoint,
37.2566392,-119.3807895,5320.7967063547,124.343836,0,0.620242802,18300,2018-06-17 20:24:46,13,0,22.164,5320.7967063547,124.343836,0.223694,1.39117130436,0,0,-0.671082,350.4, 1.1, -1.6,0,0,1024,1024,1024,1024,348.7,-90,96,3.672,3.672,3.674,3.733,3.736,3.672,20.123,59,14,Waypoint,
37.2566392,-119.3807894,5321.7809583547,125.328088,0,0.62092193588,18400,2018-06-17 20:24:46,13,0,22.164,5321.7809583547,125.328088,0.223694,1.39117130436,0,0,-0.671082,351.1, 1.4, -1.7,0,0,1024,1024,1024,1024,348.7,-89.9,96,3.672,3.672,3.674,3.733,3.736,3.672,20.123,59,14,Waypoint,
37.2566393,-119.3807894,5322.7652103547,126.31234,0,0.65737206828,18500,2018-06-17 20:24:46,13,0,22.164,5322.7652103547,126.31234,0.223694,1.39117130436,0,0,-0.671082,351.4, 1.6, -1.8,0,0,1024,1024,1024,1024,348.7,-89.9,96,3.672,3.672,3.674,3.733,3.736,3.672,20.123,59,14,Waypoint,
37.2566393,-119.3807894,5323.4213783547,126.968508,0,0.65737206828,18600,2018-06-17 20:24:46,13,0,22.164,5323.4213783547,126.968508,0.223694,1.39117130436,0,0,-0.671082,351.4, 1.8, -1.9,0,0,1024,1024,1024,1024,348.7,-89.9,96,3.672,3.672,3.674,3.733,3.736,3.672,20.123,59,14,Waypoint,
37.2566393,-119.3807894,5324.4056303547,127.95276,0,0.65737206828,18700,2018-06-17 20:24:47,13,0,22.164,5324.4056303547,127.95276,0.223694,1.39117130436,0,0,-0.671082,351.1, 1.9, -2.3,0,0,1024,1024,1024,1024,348.7,-89.9,96,3.672,3.672,3.674,3.733,3.736,3.672,20.123,59,14,Waypoint,
37.2566393,-119.3807894,5325.3898823547,128.937012,0,0.65737206828,18800,2018-06-17 20:24:47,13,0,22.164,5325.3898823547,128.937012,0.223694,1.39117130436,0,0,-0.671082,350.7, 2.2, -2.3,0,0,1024,1024,1024,1024,348.7,-89.9,96,3.672,3.672,3.674,3.733,3.736,3.672,20.123,59,14,Waypoint,
37.2566394,-119.3807895,5326.3741343547,129.921264,0,0.69321524528,18900,2018-06-17 20:24:47,13,0,22.164,5326.3741343547,129.921264,0.223694,1.39117130436,0,0,-0.671082,350.3, 2.1, -1.6,0,0,1024,1024,1024,1024,348.7,-89.9,96,3.672,3.672,3.674,3.733,3.736,3.672,20.123,59,14,Waypoint,
37.2566394,-119.3807895,5327.3583863547,130.905516,0,0.69321524528,19000,2018-06-17 20:24:47,13,0,22.234,5327.3583863547,130.905516,0.223694,1.39117130436,0,0,-0.671082,349.8, 2.2, -1.3,0,0,1024,1024,1024,1024,348.7,-89.9,96,3.689,3.692,3.685,3.746,3.749,3.681,19.264,59,14,Waypoint,
37.2566394,-119.3807896,5328.3426383547,131.889768,0,0.69382220068,19100,2018-06-17 20:24:47,13,0,22.234,5328.3426383547,131.889768,0.223694,1.39117130436,0,0,-0.671082,349.5, 2.4, -1.3,0,0,1024,1024,1024,1024,348.7,-89.9,96,3.689,3.692,3.685,3.746,3.749,3.681,19.264,59,14,Waypoint,
37.2566395,-119.3807894,5330.3111423547,133.858272,0,0.73027561392,19200,2018-06-17 20:24:47,13,0,22.234,5330.3111423547,133.858272,0.223694,1.39117130436,0,0,-0.671082,349.1, 2.3, -1.6,0,0,1024,1024,1024,1024,348.7,-89.9,96,3.689,3.692,3.685,3.746,3.749,3.681,19.264,59,14,Waypoint,
37.2566395,-119.3807894,5331.2953943547,134.842524,0,0.73027561392,19300,2018-06-17 20:24:47,13,0,22.234,5331.2953943547,134.842524,0.223694,1.39117130436,0,0,-0.671082,349.1, 2.1, -2.1,0,0,1024,1024,1024,1024,348.7,-89.9,96,3.689,3.692,3.685,3.746,3.749,3.681,19.264,59,14,Waypoint,
37.2566395,-119.3807893,5331.9515623547,135.498692,0,0.73200789744,19400,2018-06-17 20:24:47,13,0,22.234,5331.9515623547,135.498692,0.223694,1.39117130436,0,0,-0.671082,349.2, 1.9, -2.5,0,0,1024,1024,1024,1024,348.7,-90,96,3.689,3.692,3.685,3.746,3.749,3.681,19.264,59,14,Waypoint,
37.2566396,-119.3807893,5332.9358143547,136.482944,0,0.76838257052,19500,2018-06-17 20:24:47,13,0,22.234,5332.9358143547,136.482944,0.223694,1.39117130436,0,0,-0.671082,349.4, 1.9, -2.6,0,0,1024,1024,1024,1024,348.7,-90,96,3.689,3.692,3.685,3.746,3.749,3.681,19.264,59,14,Waypoint,
37.2566396,-119.3807892,5333.9200663547,137.467196,0,0.77112207192,19600,2018-06-17 20:24:47,13,0,22.234,5333.9200663547,137.467196,0.223694,1.39117130436,0,0,-0.671082,349.5, 2, -2.6,0,0,1024,1024,1024,1024,348.7,-89.9,96,3.689,3.692,3.685,3.746,3.749,3.681,19.264,59,14,Waypoint,
37.2566396,-119.3807892,5335.8885703547,139.4357,0,0.77112207192,19800,2018-06-17 20:24:48,13,0,22.234,5335.8885703547,139.4357,0.223694,1.39117130436,0,0,-0.671082,349.8, 2.2, -2.4,0,0,1024,1024,1024,1024,348.7,-89.9,96,3.689,3.692,3.685,3.746,3.749,3.681,19.264,59,14,Waypoint,
37.2566396,-119.3807892,5336.8728223547,140.419952,0,0.77112207192,19900,2018-06-17 20:24:48,13,0,22.234,5336.8728223547,140.419952,0.223694,1.39117130436,0,0,-0.671082,349.9, 2.2, -2.4,0,0,1024,1024,1024,1024,348.7,-89.9,96,3.689,3.692,3.685,3.746,3.749,3.681,19.264,59,14,Waypoint,
37.2566397,-119.3807892,5337.8570743547,141.404204,0,0.8073819156,20100,2018-06-17 20:24:48,13,0,22.234,5337.8570743547,141.404204,0.223694,1.39117130436,0,0,-0.671082,349.9, 2.4, -2.2,0,0,1024,1024,1024,1024,348.7,-89.9,96,3.689,3.692,3.685,3.746,3.749,3.681,19.264,59,14,Waypoint,
37.2566397,-119.3807892,5338.8413263547,142.388456,0,0.8073819156,20200,2018-06-17 20:24:48,13,0,22.234,5338.8413263547,142.388456,0.223694,1.39117130436,0,0,-0.671082,349.8, 2.6, -1.9,0,0,1024,1024,1024,1024,348.7,-89.9,96,3.689,3.692,3.685,3.746,3.749,3.681,19.264,59,14,Waypoint,
37.2566397,-119.3807892,5339.8255783547,143.372708,0,0.8073819156,20300,2018-06-17 20:24:48,13,0,22.234,5339.8255783547,143.372708,0.223694,1.39117130436,0,0,-0.671082,349.7, 2.7, -1.8,0,0,1024,1024,1024,1024,348.7,-89.9,96,3.689,3.692,3.685,3.746,3.749,3.681,19.264,59,14,Waypoint,
37.2566397,-119.3807892,5340.8098303547,144.35696,0,0.8073819156,20400,2018-06-17 20:24:48,13,0,22.234,5340.8098303547,144.35696,0.223694,1.39117130436,0,0,-0.671082,349.6, 2.7, -2.1,0,0,1024,1024,1024,1024,348.7,-89.9,96,3.689,3.692,3.685,3.746,3.749,3.681,19.264,59,14,Waypoint,
37.2566398,-119.3807891,5342.7783343547,146.325464,0,0.84715553892,20600,2018-06-17 20:24:48,13,0,22.234,5342.7783343547,146.325464,0.223694,1.39117130436,0,0,-0.671082,349.4, 2.5, -2.7,0,0,1024,1024,1024,1024,348.8,-89.9,96,3.689,3.692,3.685,3.746,3.749,3.681,19.264,59,14,Waypoint,
37.2566398,-119.3807891,5343.4345023547,146.981632,0,0.84715553892,20700,2018-06-17 20:24:49,13,0,22.234,5343.4345023547,146.981632,0.223694,1.39117130436,0,0,-0.671082,349.4, 2.4, -2.8,0,0,1024,1024,1024,1024,348.7,-89.9,96,3.689,3.692,3.685,3.746,3.749,3.681,19.264,59,14,Waypoint,
37.2566398,-119.3807891,5344.4187543547,147.965884,0,0.84715553892,20800,2018-06-17 20:24:49,13,0,22.234,5344.4187543547,147.965884,0.223694,1.39117130436,0,0,-0.671082,349.5, 2.4, -2.6,0,0,1024,1024,1024,1024,348.7,-89.9,96,3.689,3.692,3.685,3.746,3.749,3.681,19.264,59,14,Waypoint,
37.2566398,-119.3807891,5345.4030063547,148.950136,0,0.84715553892,20900,2018-06-17 20:24:49,13,0,22.234,5345.4030063547,148.950136,0.223694,1.39117130436,0,0,-0.671082,349.6, 2.4, -2.5,0,0,1024,1024,1024,1024,348.7,-89.9,96,3.689,3.692,3.685,3.746,3.749,3.681,19.264,59,14,Waypoint,
37.2566398,-119.3807891,5346.3872583547,149.934388,0,0.84715553892,21000,2018-06-17 20:24:49,13,0,22.243,5346.3872583547,149.934388,0.223694,1.39117130436,0,0,-0.671082,349.6, 2.5, -2.4,0,0,1024,1024,1024,1024,348.7,-89.9,96,3.686,3.676,3.681,3.733,3.742,3.674,19.088,60.8,14,Waypoint,
37.2566398,-119.3807891,5347.3715103547,150.91864,0,0.84715553892,21100,2018-06-17 20:24:49,13,0,22.243,5347.3715103547,150.91864,0.223694,1.39117130436,0,0,-0.671082,349.7, 2.6, -2.3,0,0,1024,1024,1024,1024,348.8,-89.9,96,3.686,3.676,3.681,3.733,3.742,3.674,19.088,60.8,14,Waypoint,
37.2566398,-119.3807891,5348.3557623547,151.902892,0,0.84715553892,21200,2018-06-17 20:24:49,13,0,22.243,5348.3557623547,151.902892,0.223694,1.39117130436,0,0,-0.671082,349.6, 2.8, -2.4,0,0,1024,1024,1024,1024,348.7,-89.9,96,3.686,3.676,3.681,3.733,3.742,3.674,19.088,60.8,14,Waypoint,
37.2566398,-119.3807891,5349.3400143547,152.887144,0,0.84715553892,21300,2018-06-17 20:24:49,13,0,22.243,5349.3400143547,152.887144,0.223694,1.39117130436,0,0,-0.671082,349.6, 2.8, -2.4,0,0,1024,1024,1024,1024,348.7,-89.9,96,3.686,3.676,3.681,3.733,3.742,3.674,19.088,60.8,14,Waypoint,
37.2566398,-119.3807891,5350.3242663547,153.871396,0,0.84715553892,21400,2018-06-17 20:24:49,13,0,22.243,5350.3242663547,153.871396,0.223694,1.39117130436,0,0,-0.671082,349.7, 2.7, -2.3,0,0,1024,1024,1024,1024,348.7,-89.9,96,3.686,3.676,3.681,3.733,3.742,3.674,19.088,60.8,14,Waypoint,
37.2566398,-119.3807891,5351.3085183547,154.855648,0,0.84715553892,21500,2018-06-17 20:24:49,13,0,22.243,5351.3085183547,154.855648,0.223694,1.39117130436,0,0,-0.671082,349.7, 2.7, -2.2,0,0,1024,1024,1024,1024,348.8,-89.9,96,3.686,3.676,3.681,3.733,3.742,3.674,19.088,60.8,14,Waypoint,
37.2566398,-119.3807891,5352.6208543547,156.167984,0,0.84715553892,21600,2018-06-17 20:24:49,13,0,22.243,5352.6208543547,156.167984,0.223694,1.39117130436,0,0,-0.671082,349.7, 2.7, -2.3,0,0,1024,1024,1024,1024,348.7,-89.9,96,3.686,3.676,3.681,3.733,3.742,3.674,19.088,60.8,14,Waypoint,
37.2566398,-119.3807892,5354.5893583547,158.136488,0,0.84366472516,21700,2018-06-17 20:24:50,13,0,22.243,5354.5893583547,158.136488,0.223694,1.39117130436,0,0,-0.671082,349.8, 2.5, -2.3,0,0,1024,1024,1024,1024,348.7,-89.9,96,3.686,3.676,3.681,3.733,3.742,3.674,19.088,60.8,14,Waypoint,
37.2566398,-119.3807892,5355.5736103547,159.12074,0,0.84366472516,21800,2018-06-17 20:24:50,13,0,22.243,5355.5736103547,159.12074,0.223694,1.39117130436,0,0,-0.671082,349.8, 2.4, -2.2,0,0,1024,1024,1024,1024,348.7,-90,96,3.686,3.676,3.681,3.733,3.742,3.674,19.088,60.8,14,Waypoint,
37.2566397,-119.3807892,5356.5578623547,160.104992,0,0.8073819156,21900,2018-06-17 20:24:50,13,0,22.243,5356.5578623547,160.104992,0.223694,1.39117130436,0,0,-0.671082,349.7, 2.6, -2.4,0,0,1024,1024,1024,1024,348.7,-90,96,3.686,3.676,3.681,3.733,3.742,3.674,19.088,60.8,14,Waypoint,
37.2566397,-119.3807892,5357.5421143547,161.089244,0,0.8073819156,22100,2018-06-17 20:24:50,13,0,22.243,5357.5421143547,161.089244,0.223694,1.39117130436,0,0,-0.671082,349.7, 2.8, -2.3,0,0,1024,1024,1024,1024,348.7,-89.9,96,3.686,3.676,3.681,3.733,3.742,3.674,19.088,60.8,14,Waypoint,
37.2566397,-119.3807892,5358.5263663547,162.073496,0,0.8073819156,22200,2018-06-17 20:24:50,13,0,22.243,5358.5263663547,162.073496,0.223694,1.39117130436,0,0,-0.671082,349.7, 2.9, -2.1,0,0,1024,1024,1024,1024,348.7,-89.9,96,3.686,3.676,3.681,3.733,3.742,3.674,19.088,60.8,14,Waypoint,
37.2566397,-119.3807892,5359.5106183547,163.057748,0,0.8073819156,22300,2018-06-17 20:24:50,13,0,22.243,5359.5106183547,163.057748,0.223694,1.39117130436,0,0,-0.671082,349.7, 2.9, -2.1,0,0,1024,1024,1024,1024,348.7,-89.9,96,3.686,3.676,3.681,3.733,3.742,3.674,19.088,60.8,14,Waypoint,
37.2566397,-119.3807892,5360.4948703547,164.042,0,0.8073819156,22400,2018-06-17 20:24:50,13,0,22.243,5360.4948703547,164.042,0.223694,1.39117130436,0,0,-0.671082,349.7, 2.8, -2.2,0,0,1024,1024,1024,1024,348.7,-90,96,3.686,3.676,3.681,3.733,3.742,3.674,19.088,60.8,14,Waypoint,
37.2566397,-119.3807892,5361.4791223547,165.026252,0,0.8073819156,22500,2018-06-17 20:24:50,13,0,22.243,5361.4791223547,165.026252,0.223694,1.39117130436,0,0,-0.671082,349.7, 2.6, -2.3,0,0,1024,1024,1024,1024,348.7,-90,96,3.686,3.676,3.681,3.733,3.742,3.674,19.088,60.8,14,Waypoint,
37.2566397,-119.3807892,5362.4633743547,166.010504,0,0.8073819156,22600,2018-06-17 20:24:50,13,0,22.243,5362.4633743547,166.010504,0.223694,1.39117130436,0,0,-0.671082,349.7, 2.4, -2.3,0,0,1024,1024,1024,1024,348.7,-90,96,3.686,3.676,3.681,3.733,3.742,3.674,19.088,60.8,14,Waypoint,
37.2566396,-119.3807892,5363.4476263547,166.994756,0,0.77112207192,22700,2018-06-17 20:24:51,13,0,22.243,5363.4476263547,166.994756,0.223694,1.39117130436,0,0,-0.671082,349.7, 2.2, -2.4,0,0,1024,1024,1024,1024,348.7,-90,96,3.686,3.676,3.681,3.733,3.742,3.674,19.088,60.8,14,Waypoint,
37.2566396,-119.3807892,5364.4318783547,167.979008,0,0.77112207192,22800,2018-06-17 20:24:51,13,0,22.243,5364.4318783547,167.979008,0.223694,1.39117130436,0,0,-0.671082,349.7, 2.1, -2.5,0,0,1024,1024,1024,1024,348.7,-90,96,3.686,3.676,3.681,3.733,3.742,3.674,19.088,60.8,14,Waypoint,
37.2566396,-119.3807891,5365.4161303547,168.96326,0,0.77493768884,22900,2018-06-17 20:24:51,13,0,22.243,5365.4161303547,168.96326,0.223694,1.39117130436,0,0,-0.671082,349.7, 2, -2.6,0,0,1024,1024,1024,1024,348.8,-90,96,3.686,3.676,3.681,3.733,3.742,3.674,19.088,60.8,14,Waypoint,
37.2566395,-119.3807891,5366.4003823547,169.947512,0,0.73888781892,23000,2018-06-17 20:24:51,13,0,21.982,5366.4003823547,169.947512,0.223694,1.39117130436,0,0,-0.671082,349.7, 2, -2.6,0,0,1024,1024,1024,1024,348.7,-90,96,3.637,3.646,3.642,3.711,3.71,3.644,21.177,60.8,14,Waypoint,
37.2566395,-119.3807892,5367.3846343547,170.931764,0,0.73488191328,23100,2018-06-17 20:24:51,13,0,21.982,5367.3846343547,170.931764,0.223694,1.39117130436,0,0,-0.671082,349.6, 2.2, -2.6,0,0,1024,1024,1024,1024,348.7,-90,96,3.637,3.646,3.642,3.711,3.71,3.644,21.177,60.8,14,Waypoint,
37.2566395,-119.3807892,5368.3688863547,171.916016,0,0.73488191328,23200,2018-06-17 20:24:51,13,0,21.982,5368.3688863547,171.916016,0.223694,1.39117130436,0,0,-0.671082,349.6, 2.3, -2.5,0,0,1024,1024,1024,1024,348.8,-90,96,3.637,3.646,3.642,3.711,3.71,3.644,21.177,60.8,14,Waypoint,
37.2566395,-119.3807892,5369.3531383547,172.900268,0,0.73488191328,23300,2018-06-17 20:24:51,13,0,21.982,5369.3531383547,172.900268,0.223694,1.39117130436,0,0,-0.671082,349.6, 2.2, -2.4,0,0,1024,1024,1024,1024,348.7,-90,96,3.637,3.646,3.642,3.711,3.71,3.644,21.177,60.8,14,Waypoint,
37.2566395,-119.3807892,5370.6654743547,174.212604,0,0.73488191328,23400,2018-06-17 20:24:51,13,0,21.982,5370.6654743547,174.212604,0.223694,1.39117130436,0,0,-0.671082,349.5, 2, -2.3,0,0,1024,1024,1024,1024,348.8,-90,96,3.637,3.646,3.642,3.711,3.71,3.644,21.177,60.8,14,Waypoint,
37.2566395,-119.3807892,5371.3216423547,174.868772,0,0.73488191328,23500,2018-06-17 20:24:51,13,0,21.982,5371.3216423547,174.868772,0.223694,1.39117130436,0,0,-0.671082,349.5, 1.9, -2.4,0,0,1024,1024,1024,1024,348.7,-90,96,3.637,3.646,3.642,3.711,3.71,3.644,21.177,60.8,14,Waypoint,
37.2566394,-119.3807891,5372.3058943547,175.853024,0,0.70287731908,23600,2018-06-17 20:24:51,13,0,21.982,5372.3058943547,175.853024,0.223694,1.39117130436,0,0,-0.671082,349.4, 1.8, -2.6,0,0,1024,1024,1024,1024,348.7,-90,96,3.637,3.646,3.642,3.711,3.71,3.644,21.177,60.8,14,Waypoint,
37.2566394,-119.3807891,5373.2901463547,176.837276,0,0.70287731908,23700,2018-06-17 20:24:52,13,0,21.982,5373.2901463547,176.837276,0.223694,1.39117130436,0,0,-0.671082,349.5, 1.7, -2.8,0,0,1024,1024,1024,1024,348.7,-90,96,3.637,3.646,3.642,3.711,3.71,3.644,21.177,60.8,14,Waypoint,
37.2566393,-119.3807891,5374.2743983547,177.821528,0,0.66692259352,23800,2018-06-17 20:24:52,13,0,21.982,5374.2743983547,177.821528,0.223694,1.39117130436,0,0,-0.671082,349.6, 1.6, -2.8,0,0,1024,1024,1024,1024,348.8,-90,96,3.637,3.646,3.642,3.711,3.71,3.644,21.177,60.8,14,Waypoint,
37.2566393,-119.3807891,5376.2429023547,179.790032,0,0.66692259352,23900,2018-06-17 20:24:52,13,0,21.982,5376.2429023547,179.790032,0.223694,1.39117130436,0,0,-0.671082,349.7, 1.7, -2.5,0,0,1024,1024,1024,1024,348.7,-90,96,3.637,3.646,3.642,3.711,3.71,3.644,21.177,60.8,14,Waypoint,
37.2566392,-119.3807891,5378.5394903547,182.08662,0,0.63102692308,24100,2018-06-17 20:24:52,13,0,21.982,5378.5394903547,182.08662,0.223694,1.39117130436,0,0,-0.671082,350, 1.7, -2.3,0,0,1024,1024,1024,1024,348.8,-90,96,3.637,3.646,3.642,3.711,3.71,3.644,21.177,60.8,14,Waypoint,
37.2566392,-119.3807891,5379.5237423547,183.070872,0,0.63102692308,24200,2018-06-17 20:24:52,13,0,21.982,5379.5237423547,183.070872,0.223694,1.39117130436,0,0,-0.671082,350, 1.7, -2.2,0,0,1024,1024,1024,1024,348.8,-90,96,3.637,3.646,3.642,3.711,3.71,3.644,21.177,60.8,14,Waypoint,
37.2566392,-119.3807892,5381.4922463547,185.039376,0,0.62633204104,24400,2018-06-17 20:24:52,13,0,21.982,5381.4922463547,185.039376,0.223694,1.39117130436,0,0,-0.671082,349.9, 1.8, -2,0,0,1024,1024,1024,1024,348.7,-90,96,3.637,3.646,3.642,3.711,3.71,3.644,21.177,60.8,14,Waypoint,
37.2566391,-119.3807892,5383.4607503547,187.00788,0,0.590223116,24600,2018-06-17 20:24:52,13,0,21.982,5383.4607503547,187.00788,0.223694,1.39117130436,0,0,-0.671082,349.7, 1.8, -2.1,0,0,1024,1024,1024,1024,348.8,-89.9,96,3.637,3.646,3.642,3.711,3.71,3.644,21.177,60.8,14,Waypoint,
37.2566391,-119.3807892,5384.1169183547,187.664048,0,0.590223116,24700,2018-06-17 20:24:53,13,0,21.982,5384.1169183547,187.664048,0.223694,1.39117130436,0,0,-0.671082,349.7, 1.8, -2,0,0,1024,1024,1024,1024,348.7,-90,96,3.637,3.646,3.642,3.711,3.71,3.644,21.177,60.8,14,Waypoint,
37.2566391,-119.3807892,5385.4292543547,188.976384,0,0.590223116,24900,2018-06-17 20:24:53,13,0,21.982,5385.4292543547,188.976384,0.223694,1.39117130436,0,0,-0.671082,349.6, 1.6, -2.2,0,0,1024,1024,1024,1024,348.8,-90,96,3.637,3.646,3.642,3.711,3.71,3.644,21.177,60.8,14,Waypoint,
37.2566391,-119.3807892,5386.0854223547,189.632552,0,0.590223116,25000,2018-06-17 20:24:53,13,0,21.941,5386.0854223547,189.632552,0.223694,1.39117130436,0,0,-0.671082,349.5, 1.7, -2.4,0,0,1024,1024,1024,1024,348.8,-89.9,96,3.623,3.626,3.621,3.697,3.689,3.625,21.383,60.8,14,Waypoint,
37.2566391,-119.3807892,5387.0696743547,190.616804,0,0.590223116,25100,2018-06-17 20:24:53,13,0,21.941,5387.0696743547,190.616804,0.223694,1.39117130436,0,0,-0.671082,349.5, 1.9, -2.6,0,0,1024,1024,1024,1024,348.8,-89.9,96,3.623,3.626,3.621,3.697,3.689,3.625,21.383,60.8,14,Waypoint,
37.2566391,-119.3807892,5388.0539263547,191.601056,0,0.590223116,25200,2018-06-17 20:24:53,13,0,21.941,5388.0539263547,191.601056,0.223694,1.39117130436,0,0,-0.671082,349.4, 2.1, -2.8,0,0,1024,1024,1024,1024,348.7,-89.9,96,3.623,3.626,3.621,3.697,3.689,3.625,21.383,60.8,14,Waypoint,
37.2566391,-119.3807892,5389.0381783547,192.585308,0,0.590223116,25300,2018-06-17 20:24:53,13,0,21.941,5389.0381783547,192.585308,0.223694,1.39117130436,0,0,-0.671082,349.4, 2.2, -2.8,0,0,1024,1024,1024,1024,348.7,-90,96,3.623,3.626,3.621,3.697,3.689,3.625,21.383,60.8,14,Waypoint,
37.2566392,-119.3807891,5390.0224303547,193.56956,0,0.63102692308,25400,2018-06-17 20:24:53,13,0,21.941,5390.0224303547,193.56956,0.223694,1.39117130436,0,0,-0.671082,349.4, 2.2, -2.9,0,0,1024,1024,1024,1024,348.7,-90,96,3.623,3.626,3.621,3.697,3.689,3.625,21.383,60.8,14,Waypoint,
37.2566392,-119.3807891,5391.0066823547,194.553812,0,0.63102692308,25500,2018-06-17 20:24:53,13,0,21.941,5391.0066823547,194.553812,0.223694,1.39117130436,0,0,-0.671082,349.4, 2.2, -2.8,0,0,1024,1024,1024,1024,348.7,-90,96,3.623,3.626,3.621,3.697,3.689,3.625,21.383,60.8,14,Waypoint,
37.2566392,-119.3807891,5391.9909343547,195.538064,0,0.63102692308,25600,2018-06-17 20:24:53,13,0,21.941,5391.9909343547,195.538064,0.223694,1.39117130436,0,0,-0.671082,349.5, 2.1, -2.7,0,0,1024,1024,1024,1024,348.7,-90,96,3.623,3.626,3.621,3.697,3.689,3.625,21.383,60.8,14,Waypoint,
37.2566391,-119.3807891,5393.3032703547,196.8504,0,0.59520343112,25700,2018-06-17 20:24:54,13,0,21.941,5393.3032703547,196.8504,0.223694,1.39117130436,0,0,-0.671082,349.7, 1.9, -2.6,0,0,1024,1024,1024,1024,348.8,-90,96,3.623,3.626,3.621,3.697,3.689,3.625,21.383,60.8,14,Waypoint,
37.2566391,-119.3807892,5394.2875223547,197.834652,0,0.590223116,25800,2018-06-17 20:24:54,13,0,21.941,5394.2875223547,197.834652,0.223694,1.39117130436,0,0,-0.671082,349.7, 1.9, -2.4,0,0,1024,1024,1024,1024,348.7,-90,96,3.623,3.626,3.621,3.697,3.689,3.625,21.383,60.8,14,Waypoint,
37.2566391,-119.3807892,5395.2717743547,198.818904,0,0.590223116,25900,2018-06-17 20:24:54,13,0,21.941,5395.2717743547,198.818904,0.223694,1.39117130436,0,0,-0.671082,349.8, 1.7, -2.3,0,0,1024,1024,1024,1024,348.7,-90,96,3.623,3.626,3.621,3.697,3.689,3.625,21.383,60.8,14,Waypoint,
37.2566391,-119.3807892,5396.2560263547,199.803156,0,0.590223116,26000,2018-06-17 20:24:54,13,0,21.753,5396.2560263547,199.803156,0.223694,1.39117130436,0,0,-0.671082,349.9, 1.7, -2.3,0,0,1024,1024,1024,1024,348.7,-90,96,3.605,3.606,3.602,3.671,3.668,3.608,22.712,60.8,14,Waypoint,
37.256639,-119.3807892,5397.2402783547,200.787408,0,0.55416340356,26100,2018-06-17 20:24:54,13,0,21.753,5397.2402783547,200.787408,0.223694,1.39117130436,0,0,-0.671082,349.9, 1.7, -2.3,0,0,1024,1024,1024,1024,348.8,-90,96,3.605,3.606,3.602,3.671,3.668,3.608,22.712,60.8,14,Waypoint,
37.256639,-119.3807892,5398.2245303547,201.77166,0,0.55416340356,26200,2018-06-17 20:24:54,13,0,21.753,5398.2245303547,201.77166,0.223694,1.39117130436,0,0,-0.671082,349.8, 1.7, -2.1,0,0,1024,1024,1024,1024,348.7,-90,96,3.605,3.606,3.602,3.671,3.668,3.608,22.712,60.8,14,Waypoint,
