latitude,longitude,altitude(feet),ascent(feet),speed(mph),distance(feet),time(millisecond),datetime(utc),satellites,gpslevel,voltage(v),max_altitude(feet),max_ascent(feet),max_speed(mph),max_distance(feet), xSpeed(mph), ySpeed(mph), zSpeed(mph), compass_heading(degrees), pitch(degrees), roll(degrees),isPhoto,isVideo,rc_elevator,rc_aileron,rc_throttle,rc_rudder,gimbal_heading(degrees),gimbal_pitch(degrees),battery_percent,voltageCell1,voltageCell2,voltageCell3,voltageCell4,voltageCell5,voltageCell6,current(A),battery_temperature(f),flycStateRaw,flycState,message
37.2566355,-119.380768,5195.6230484778,0,0.4921268,0,3200,2018-06-17 19:46:28,9,0,0,5195.6230484778,0,0.4921268,0,0,0,0,343.8, 0.3, -1.6,1,0,1024,1024,1024,1024,341.2,-89.9,98,3.959,3.928,3.939,3.94,4.007,3.965,0,55.4,11,AutoTakeoff,DJI_0751.jpg Starting Mission from Lat/Long: 37.25664/-119.38077 Camera: Zenmuse X3 - Overlap: 90/90 - Active Connection: No
37.2566353,-119.3807682,5195.6230484778,0,0.6263432,0.093261814008,3300,2018-06-17 19:46:28,9,0,0,5195.6230484778,0,0.6263432,0.093261814008,0,0,0,344.3, -0.3, -0.8,0,0,1024,1024,1024,1024,341.2,-90,98,3.959,3.928,3.939,3.94,4.007,3.965,0,55.4,11,AutoTakeoff,
37.2566351,-119.3807684,5195.6230484778,0,0.4921268,0.186523628016,3400,2018-06-17 19:46:28,9,0,0,5195.6230484778,0,0.6263432,0.186523628016,0,0,0,344.5, -0.8, 0.1,0,0,1024,1024,1024,1024,341.3,-89.9,98,3.959,3.928,3.939,3.94,4.007,3.965,0,55.4,11,AutoTakeoff,
37.2566349,-119.3807687,5195.6230484778,0,0.4921268,0.298735573864,3500,2018-06-17 19:46:28,9,0,0,5195.6230484778,0,0.6263432,0.298735573864,0,0,0,344.6, -0.9, 0.8,0,0,1024,1024,1024,1024,341.4,-89.9,98,3.959,3.928,3.939,3.94,4.007,3.965,0,55.4,11,AutoTakeoff,
37.2566347,-119.380769,5195.9511324778,0.328084,0.4921268,0.41173229664,3600,2018-06-17 19:46:28,9,0,0,5195.9511324778,0.328084,0.6263432,0.41173229664,0,0,0,344.5, -0.8, 1.4,0,0,1024,1024,1024,1024,341.4,-89.9,98,3.959,3.928,3.939,3.94,4.007,3.965,0,55.4,11,AutoTakeoff,
37.2566346,-119.3807693,5195.9511324778,0.328084,0.4921268,0.50034122336,3700,2018-06-17 19:46:29,9,0,0,5195.9511324778,0.328084,0.6263432,0.50034122336,0,0,0,344.4, -0.7, 2.2,0,0,1024,1024,1024,1024,341.5,-89.9,98,3.959,3.928,3.939,3.94,4.007,3.965,0,55.4,11,AutoTakeoff,
37.2566345,-119.3807696,5196.2792164778,0.656168,0.447388,0.59076117376,3800,2018-06-17 19:46:29,9,0,0,5196.2792164778,0.656168,0.6263432,0.59076117376,0,0,0,344.2, -0.4, 2.9,0,0,1024,1024,1024,1024,341.5,-89.9,98,3.959,3.928,3.939,3.94,4.007,3.965,0,55.4,11,AutoTakeoff,
37.2566344,-119.38077,5196.2792164778,0.656168,0.447388,0.70596458952,3900,2018-06-17 19:46:29,9,0,0,5196.2792164778,0.656168,0.6263432,0.70596458952,0,0,0,344, 0, 3.3,0,0,1024,1024,1024,1024,341.6,-89.9,98,3.959,3.928,3.939,3.94,4.007,3.965,0,55.4,11,AutoTakeoff,
37.2566344,-119.3807703,5196.6073004778,0.984252,0.447388,0.77921262336,4000,2018-06-17 19:46:29,9,0,24.12,5196.6073004778,0.984252,0.6263432,0.77921262336,0,0,0,343.8, 0.4, 3.3,0,0,1024,1024,1024,1024,341.6,-89.9,98,3.959,3.928,3.939,3.94,4.007,3.965,9.345,55.4,11,AutoTakeoff,
37.2566342,-119.3807706,5196.9353844778,1.312336,0.223694,0.89164372932,4100,2018-06-17 19:46:29,9,0,24.12,5196.9353844778,1.312336,0.6263432,0.89164372932,0,0,0,343.5, 0.7, 2.6,0,0,1024,1024,1024,1024,341.7,-89.9,98,3.959,3.928,3.939,3.94,4.007,3.965,9.345,55.4,11,AutoTakeoff,
37.2566342,-119.3807708,5196.9353844778,1.312336,0.223694,0.94133205112,4200,2018-06-17 19:46:29,10,0,24.12,5196.9353844778,1.312336,0.6263432,0.94133205112,0,0,0,343.4, 0.6, 2,0,0,1024,1024,1024,1024,341.7,-89.9,98,3.959,3.928,3.939,3.94,4.007,3.965,9.345,55.4,11,AutoTakeoff,
37.2566342,-119.3807709,5197.2634684778,1.64042,0.223694,0.96652890232,4300,2018-06-17 19:46:29,10,0,24.12,5197.2634684778,1.64042,0.6263432,0.96652890232,0,0,-0.223694,343.3, 0.6, 1.6,0,0,1024,1024,1024,1024,341.8,-89.9,98,3.959,3.928,3.939,3.94,4.007,3.965,9.345,55.4,11,AutoTakeoff,
37.2566342,-119.3807711,5197.2634684778,1.64042,0.223694,1.01753284096,4400,2018-06-17 19:46:29,9,0,24.12,5197.2634684778,1.64042,0.6263432,1.01753284096,0,0,0,343.3, 0.6, 1.5,0,0,1024,1024,1024,1024,341.8,-89.9,98,3.959,3.928,3.939,3.94,4.007,3.965,9.345,55.4,11,AutoTakeoff,
37.2566342,-119.3807713,5197.5915524778,1.968504,0.223694,1.0692585644,4500,2018-06-17 19:46:29,9,0,24.12,5197.5915524778,1.968504,0.6263432,1.0692585644,0,0,0,343.5, 0.6, 1.6,0,0,1024,1024,1024,1024,341.8,-89.9,98,3.959,3.928,3.939,3.94,4.007,3.965,9.345,55.4,11,AutoTakeoff,
37.2566341,-119.3807715,5197.5915524778,1.968504,0.223694,1.1375164406,4600,2018-06-17 19:46:29,9,0,24.12,5197.5915524778,1.968504,0.6263432,1.1375164406,0,0,0,343.6, 0.6, 1.6,0,0,1024,1024,1024,1024,341.9,-89.9,98,3.959,3.928,3.939,3.94,4.007,3.965,9.345,55.4,11,AutoTakeoff,
37.2566341,-119.3807717,5197.9196364778,2.296588,0.223694,1.18969491996,4700,2018-06-17 19:46:30,9,0,24.12,5197.9196364778,2.296588,0.6263432,1.18969491996,0,0,0,343.7, 0.6, 1.7,0,0,1024,1024,1024,1024,341.9,-89.9,98,3.959,3.928,3.939,3.94,4.007,3.965,9.345,55.4,11,AutoTakeoff,
37.256634,-119.3807719,5197.9196364778,2.296588,0.223694,1.25783796676,4800,2018-06-17 19:46:30,9,0,24.12,5197.9196364778,2.296588,0.6263432,1.25783796676,0,0,-0.223694,343.8, 0.5, 1.8,0,0,1024,1024,1024,1024,341.9,-89.9,98,3.959,3.928,3.939,3.94,4.007,3.965,9.345,55.4,11,AutoTakeoff,
37.2566339,-119.3807721,5198.2477204778,2.624672,0.223694,1.32603022616,4900,2018-06-17 19:46:30,9,0,24.12,5198.2477204778,2.624672,0.6263432,1.32603022616,0,0,-0.223694,343.9, 0.4, 2,0,0,1024,1024,1024,1024,342,-89.9,98,3.959,3.928,3.939,3.94,4.007,3.965,9.345,55.4,11,AutoTakeoff,
37.2566338,-119.3807722,5198.5758044778,2.952756,0,1.36831041124,5000,2018-06-17 19:46:30,10,0,23.085,5198.5758044778,2.952756,0.6263432,1.36831041124,0,0,-0.223694,343.8, 0.3, 2.2,0,0,1024,1024,1024,1024,342,-89.9,98,3.835,3.811,3.796,3.821,3.869,3.84,17.103,55.4,6,P-GPS,
37.2566338,-119.3807724,5198.5758044778,2.952756,0,1.4203248486,5100,2018-06-17 19:46:30,10,0,23.085,5198.5758044778,2.952756,0.6263432,1.4203248486,0,0,-0.223694,343.8, 0.3, 2.6,0,0,1024,1024,1024,1024,342.1,-89.9,98,3.835,3.811,3.796,3.821,3.869,3.84,17.103,55.4,14,Waypoint,
37.2566337,-119.3807724,5198.9038884778,3.28084,0,1.4366306234,5200,2018-06-17 19:46:30,10,0,23.085,5198.9038884778,3.28084,0.6263432,1.4366306234,0,0,0,343.7, 0.4, 2.3,0,0,1024,1024,1024,1024,342.1,-89.9,98,3.835,3.811,3.796,3.821,3.869,3.84,17.103,55.4,14,Waypoint,
37.2566336,-119.3807724,5198.9038884778,3.28084,0,1.45367130636,5400,2018-06-17 19:46:30,10,0,23.085,5198.9038884778,3.28084,0.6263432,1.45367130636,0,0,0,343.7, 0.4, 1.8,0,0,1024,1024,1024,1024,342.1,-89.9,98,3.835,3.811,3.796,3.821,3.869,3.84,17.103,55.4,14,Waypoint,
37.2566337,-119.3807727,5199.2319724778,3.608924,0,1.51463915608,5500,2018-06-17 19:46:30,10,0,23.085,5199.2319724778,3.608924,0.6263432,1.51463915608,0,0,0,343.7, 0.3, 1.2,0,0,1024,1024,1024,1024,342.2,-89.9,98,3.835,3.811,3.796,3.821,3.869,3.84,17.103,55.4,14,Waypoint,
37.2566336,-119.3807728,5199.2319724778,3.608924,0,1.55675858,5710,2018-06-17 19:46:31,10,0,23.085,5199.2319724778,3.608924,0.6263432,1.55675858,0,0,0,343.6, 0.4, 1.2,0,0,1024,1024,1024,1024,342.2,-89.9,98,3.835,3.811,3.796,3.821,3.869,3.84,17.103,55.4,14,Waypoint,
37.2566336,-119.3807729,5199.5600564778,3.937008,0,1.58281173044,5800,2018-06-17 19:46:31,10,0,23.085,5199.5600564778,3.937008,0.6263432,1.58281173044,0,0,-0.223694,343.6, 0.4, 1.3,0,0,1024,1024,1024,1024,342.2,-89.9,98,3.835,3.811,3.796,3.821,3.869,3.84,17.103,55.4,14,Waypoint,
37.2566335,-119.380773,5199.8881404778,4.265092,0,1.62502301788,5900,2018-06-17 19:46:31,9,0,23.085,5199.8881404778,4.265092,0.6263432,1.62502301788,0,0,-0.223694,343.7, 0.2, 1.5,0,0,1024,1024,1024,1024,342.3,-90,98,3.835,3.811,3.796,3.821,3.869,3.84,17.103,55.4,14,Waypoint,
37.2566335,-119.3807731,5200.2162244778,4.593176,0,1.65102039404,6000,2018-06-17 19:46:31,9,0,22.818,5200.2162244778,4.593176,0.6263432,1.65102039404,0,0,-0.223694,343.7, 0.1, 1.6,0,0,1024,1024,1024,1024,342.3,-90,98,3.811,3.786,3.766,3.795,3.839,3.815,17.523,55.4,14,Waypoint,
37.2566335,-119.3807732,5200.5443084778,4.92126,0,1.67711947624,6100,2018-06-17 19:46:31,9,0,22.818,5200.5443084778,4.92126,0.6263432,1.67711947624,0,0,-0.223694,343.7, 0.1, 1.5,0,0,1024,1024,1024,1024,342.3,-89.9,98,3.811,3.786,3.766,3.795,3.839,3.815,17.523,55.4,14,Waypoint,
37.2566335,-119.3807732,5200.8723924778,5.249344,0,1.67711947624,6200,2018-06-17 19:46:31,9,0,22.818,5200.8723924778,5.249344,0.6263432,1.67711947624,0,0,-0.223694,343.7, 0.2, 1.5,0,0,1024,1024,1024,1024,342.3,-89.9,98,3.811,3.786,3.766,3.795,3.839,3.815,17.523,55.4,14,Waypoint,
37.2566336,-119.3807733,5201.5285604778,5.905512,0,1.68800530336,6300,2018-06-17 19:46:31,9,0,22.818,5201.5285604778,5.905512,0.6263432,1.68800530336,0,0,-0.447388,343.8, 0.3, 1.4,0,0,1024,1024,1024,1024,342.4,-89.9,98,3.811,3.786,3.766,3.795,3.839,3.815,17.523,55.4,14,Waypoint,
37.2566336,-119.3807734,5202.1847284778,6.56168,0,1.71452433308,6410,2018-06-17 19:46:31,9,0,22.818,5202.1847284778,6.56168,0.6263432,1.71452433308,0,0,-0.447388,343.9, 0.3, 1.3,0,0,1024,1024,1024,1024,342.4,-89.9,98,3.811,3.786,3.766,3.795,3.839,3.815,17.523,55.4,14,Waypoint,
37.2566337,-119.3807733,5203.4970644778,7.874016,0,1.67335307192,6500,2018-06-17 19:46:31,10,0,22.818,5203.4970644778,7.874016,0.6263432,1.71452433308,0,0,-0.447388,343.9, 0.9, 1.3,0,0,1024,1024,1024,1024,342.4,-89.9,98,3.811,3.786,3.766,3.795,3.839,3.815,17.523,55.4,14,Waypoint,
37.2566337,-119.3807733,5204.4813164778,8.858268,0,1.67335307192,6610,2018-06-17 19:46:31,10,0,22.818,5204.4813164778,8.858268,0.6263432,1.71452433308,0,0,-0.671082,344, 1.3, 1.2,0,0,1024,1024,1024,1024,342.4,-89.9,98,3.811,3.786,3.766,3.795,3.839,3.815,17.523,55.4,14,Waypoint,
37.2566337,-119.3807733,5205.1374844778,9.514436,0,1.67335307192,6710,2018-06-17 19:46:32,10,0,22.818,5205.1374844778,9.514436,0.6263432,1.71452433308,0,0,-0.671082,344, 1.2, 1.1,0,0,1024,1024,1024,1024,342.4,-89.9,98,3.811,3.786,3.766,3.795,3.839,3.815,17.523,55.4,14,Waypoint,
37.2566336,-119.3807732,5206.1217364778,10.498688,0,1.66156829464,6800,2018-06-17 19:46:32,10,0,22.818,5206.1217364778,10.498688,0.6263432,1.71452433308,0,0,-0.671082,344, 0.8, 1.3,0,0,1024,1024,1024,1024,342.5,-89.9,98,3.811,3.786,3.766,3.795,3.839,3.815,17.523,55.4,14,Waypoint,
37.2566334,-119.3807731,5207.4340724778,11.811024,0,1.66746724496,6910,2018-06-17 19:46:32,10,0,22.818,5207.4340724778,11.811024,0.6263432,1.71452433308,0,0,-0.671082,344, 0.3, 1.4,0,0,1024,1024,1024,1024,342.5,-90,98,3.811,3.786,3.766,3.795,3.839,3.815,17.523,55.4,14,Waypoint,
37.2566333,-119.380773,5208.4183244778,12.795276,0,1.65906829456,7000,2018-06-17 19:46:32,9,0,22.578,5208.4183244778,12.795276,0.6263432,1.71452433308,0,0,-0.671082,344, -0.2, 1.3,0,0,1024,1024,1024,1024,342.5,-90,98,3.746,3.709,3.683,3.716,3.756,3.711,18.404,55.4,14,Waypoint,
37.2566333,-119.3807728,5209.7306604778,14.107612,0,1.60848758428,7110,2018-06-17 19:46:32,9,0,22.578,5209.7306604778,14.107612,0.6263432,1.71452433308,0,0,-0.671082,343.9, -0.5, 1,0,0,1024,1024,1024,1024,342.5,-90,98,3.746,3.709,3.683,3.716,3.756,3.711,18.404,55.4,14,Waypoint,
37.2566333,-119.3807727,5210.7149124778,15.091864,0,1.58338587744,7210,2018-06-17 19:46:32,10,0,22.578,5210.7149124778,15.091864,0.6263432,1.71452433308,0,0,-0.671082,343.9, -0.7, 0.7,0,0,1024,1024,1024,1024,342.5,-89.9,98,3.746,3.709,3.683,3.716,3.756,3.711,18.404,55.4,14,Waypoint,
37.2566333,-119.3807726,5212.0272484778,16.4042,0,1.55842524672,7300,2018-06-17 19:46:32,10,0,22.578,5212.0272484778,16.4042,0.6263432,1.71452433308,0,0,-0.671082,343.9, -0.7, 0.4,0,0,1024,1024,1024,1024,342.5,-89.9,98,3.746,3.709,3.683,3.716,3.756,3.711,18.404,55.4,14,Waypoint,
37.2566334,-119.3807726,5213.0115004778,17.388452,0,1.53995083668,7410,2018-06-17 19:46:32,9,0,22.578,5213.0115004778,17.388452,0.6263432,1.71452433308,0,0,-0.671082,344, -0.4, 0.4,0,0,1024,1024,1024,1024,342.6,-89.9,98,3.746,3.709,3.683,3.716,3.756,3.711,18.404,55.4,14,Waypoint,
37.2566335,-119.3807726,5214.3238364778,18.700788,0.223694,1.52212603296,7500,2018-06-17 19:46:32,9,0,22.578,5214.3238364778,18.700788,0.6263432,1.71452433308,0,0,-0.671082,344.1, 0.2, 0.4,0,0,1024,1024,1024,1024,342.6,-89.9,98,3.746,3.709,3.683,3.716,3.756,3.711,18.404,55.4,14,Waypoint,
37.2566334,-119.3807725,5215.3080884778,19.68504,0,1.5148294448,7610,2018-06-17 19:46:32,10,0,22.578,5215.3080884778,19.68504,0.6263432,1.71452433308,0,0,-0.671082,344.1, 0.7, 0.4,0,0,1024,1024,1024,1024,342.6,-89.9,98,3.746,3.709,3.683,3.716,3.756,3.711,18.404,55.4,14,Waypoint,
37.2566332,-119.3807724,5216.6204244778,20.997376,0,1.5286581854,7710,2018-06-17 19:46:33,10,0,22.578,5216.6204244778,20.997376,0.6263432,1.71452433308,0,0,-0.671082,344.1, 0.7, 0.4,0,0,1024,1024,1024,1024,342.6,-89.9,98,3.746,3.709,3.683,3.716,3.756,3.711,18.404,55.4,14,Waypoint,
37.2566334,-119.3807722,5217.6046764778,21.981628,0,1.44035109596,7800,2018-06-17 19:46:33,10,0,22.578,5217.6046764778,21.981628,0.6263432,1.71452433308,0,0,-0.671082,344.1, 0.5, 0,0,0,1024,1024,1024,1024,342.6,-89.9,98,3.746,3.709,3.683,3.716,3.756,3.711,18.404,55.4,14,Waypoint,
37.2566335,-119.3807721,5218.5889284778,22.96588,0.223694,1.39643705256,7910,2018-06-17 19:46:33,10,0,22.578,5218.5889284778,22.96588,0.6263432,1.71452433308,0,0,-0.671082,343.9, 0.8, -0.5,0,0,1024,1024,1024,1024,342.6,-89.9,98,3.746,3.709,3.683,3.716,3.756,3.711,18.404,55.4,14,Waypoint,
37.2566337,-119.380772,5219.5731804778,23.950132,0.223694,1.33437668312,8010,2018-06-17 19:46:33,10,0,21.884,5219.5731804778,23.950132,0.6263432,1.71452433308,0,0,-0.671082,343.8, 1.4, -0.9,0,0,1024,1024,1024,1024,342.6,-89.9,98,3.675,3.625,3.629,3.648,3.71,3.679,25.349,55.4,14,Waypoint,
37.2566339,-119.3807718,5220.8855164778,25.262468,0.223694,1.24839570924,8210,2018-06-17 19:46:33,10,0,21.884,5220.8855164778,25.262468,0.6263432,1.71452433308,0,0,-0.671082,343.7, 2, -1,0,0,1024,1024,1024,1024,342.7,-89.9,98,3.675,3.625,3.629,3.648,3.71,3.679,25.349,55.4,14,Waypoint,
37.256634,-119.3807718,5221.8697684778,26.24672,0.223694,1.2317585696,8300,2018-06-17 19:46:33,10,0,21.884,5221.8697684778,26.24672,0.6263432,1.71452433308,0,0,-0.671082,343.6, 2, -1,0,0,1024,1024,1024,1024,342.7,-89.9,98,3.675,3.625,3.629,3.648,3.71,3.679,25.349,55.4,14,Waypoint,
37.2566341,-119.3807717,5222.8540204778,27.230972,0,1.18969491996,8400,2018-06-17 19:46:33,10,0,21.884,5222.8540204778,27.230972,0.6263432,1.71452433308,0,0,-0.671082,343.6, 1.7, -0.9,0,0,1024,1024,1024,1024,342.7,-89.9,98,3.675,3.625,3.629,3.648,3.71,3.679,25.349,55.4,14,Waypoint,
37.2566342,-119.3807716,5223.8382724778,28.215224,0,1.14798560104,8510,2018-06-17 19:46:33,10,0,21.884,5223.8382724778,28.215224,0.6263432,1.71452433308,0,0,-0.671082,343.6, 1.3, -0.7,0,0,1024,1024,1024,1024,342.7,-89.9,98,3.675,3.625,3.629,3.648,3.71,3.679,25.349,55.4,14,Waypoint,
37.2566343,-119.3807715,5224.8225244778,29.199476,0,1.10666998292,8610,2018-06-17 19:46:33,10,0,21.884,5224.8225244778,29.199476,0.6263432,1.71452433308,0,0,-0.671082,343.7, 1.2, -0.6,0,0,1024,1024,1024,1024,342.7,-89.9,98,3.675,3.625,3.629,3.648,3.71,3.679,25.349,55.4,14,Waypoint,
37.2566345,-119.3807715,5226.1348604778,30.511812,0,1.07988520516,8710,2018-06-17 19:46:34,10,0,21.884,5226.1348604778,30.511812,0.6263432,1.71452433308,0,0,-0.671082,343.6, 1.3, -0.8,0,0,1024,1024,1024,1024,342.7,-89.9,98,3.675,3.625,3.629,3.648,3.71,3.679,25.349,55.4,14,Waypoint,
37.2566346,-119.3807714,5227.1191124778,31.496064,0,1.04051512516,8800,2018-06-17 19:46:34,10,0,21.884,5227.1191124778,31.496064,0.6263432,1.71452433308,0,0,-0.671082,343.6, 1.7, -0.6,0,0,1024,1024,1024,1024,342.7,-89.9,98,3.675,3.625,3.629,3.648,3.71,3.679,25.349,55.4,14,Waypoint,
37.2566345,-119.3807716,5228.1033644778,32.480316,0,1.10726053412,8900,2018-06-17 19:46:34,9,0,21.884,5228.1033644778,32.480316,0.6263432,1.71452433308,0,0,-0.671082,343.6, 2.1, -0.6,0,0,1024,1024,1024,1024,342.7,-89.9,98,3.675,3.625,3.629,3.648,3.71,3.679,25.349,55.4,14,Waypoint,
37.2566345,-119.3807718,5229.0876164778,33.464568,0,1.1622539742,9010,2018-06-17 19:46:34,9,0,22.326,5229.0876164778,33.464568,0.6263432,1.71452433308,0,0,-0.671082,343.6, 1.9, -0.4,0,0,1024,1024,1024,1024,342.7,-89.9,98,3.727,3.706,3.684,3.718,3.759,3.733,19.715,55.4,14,Waypoint,
37.2566345,-119.380772,5230.0718684778,34.44882,0,1.21753284736,9110,2018-06-17 19:46:34,9,0,22.326,5230.0718684778,34.44882,0.6263432,1.71452433308,0,0,-0.671082,343.6, 1.5, 0.1,0,0,1024,1024,1024,1024,342.7,-89.9,98,3.727,3.706,3.684,3.718,3.759,3.733,19.715,55.4,14,Waypoint,
37.2566344,-119.3807722,5232.0403724778,36.417324,0,1.28399282324,9210,2018-06-17 19:46:34,11,0,22.326,5232.0403724778,36.417324,0.6263432,1.71452433308,0,0,-0.671082,343.8, 1, 0.6,0,0,1024,1024,1024,1024,342.7,-89.9,98,3.727,3.706,3.684,3.718,3.759,3.733,19.715,55.4,14,Waypoint,
37.2566343,-119.3807722,5233.0246244778,37.401576,0,1.29586290236,9310,2018-06-17 19:46:34,11,0,22.326,5233.0246244778,37.401576,0.6263432,1.71452433308,0,0,-0.671082,343.8, 0.7, 0.6,0,0,1024,1024,1024,1024,342.7,-90,98,3.727,3.706,3.684,3.718,3.759,3.733,19.715,55.4,14,Waypoint,
37.2566343,-119.3807723,5234.0088764778,38.385828,0,1.3232283888,9410,2018-06-17 19:46:34,10,0,22.326,5234.0088764778,38.385828,0.6263432,1.71452433308,0,0,-0.671082,343.9, 0.6, 0.4,0,0,1024,1024,1024,1024,342.7,-90,98,3.727,3.706,3.684,3.718,3.759,3.733,19.715,55.4,14,Waypoint,
37.2566343,-119.3807724,5234.9931284778,39.37008,0,1.35066605372,9510,2018-06-17 19:46:34,10,0,22.326,5234.9931284778,39.37008,0.6263432,1.71452433308,0,0,-0.671082,343.9, 0.5, 0.2,0,0,1024,1024,1024,1024,342.7,-90,98,3.727,3.706,3.684,3.718,3.759,3.733,19.715,55.4,14,Waypoint,
37.2566343,-119.3807725,5235.9773804778,40.354332,0,1.37817261628,9610,2018-06-17 19:46:34,11,0,22.326,5235.9773804778,40.354332,0.6263432,1.71452433308,0,0,-0.671082,343.8, 0.8, 0.3,0,0,1024,1024,1024,1024,342.7,-89.9,98,3.727,3.706,3.684,3.718,3.759,3.733,19.715,55.4,14,Waypoint,
37.2566343,-119.3807727,5236.9616324778,41.338584,0,1.43335962592,9710,2018-06-17 19:46:35,11,0,22.326,5236.9616324778,41.338584,0.6263432,1.71452433308,0,0,-0.671082,343.8, 1, 0.3,0,0,1024,1024,1024,1024,342.7,-89.9,98,3.727,3.706,3.684,3.718,3.759,3.733,19.715,55.4,14,Waypoint,
37.2566342,-119.3807728,5237.9458844778,42.322836,0,1.47238521772,9810,2018-06-17 19:46:35,11,0,22.326,5237.9458844778,42.322836,0.6263432,1.71452433308,0,0,-0.671082,343.7, 1.2, 0.2,0,0,1024,1024,1024,1024,342.7,-89.9,98,3.727,3.706,3.684,3.718,3.759,3.733,19.715,55.4,14,Waypoint,
37.256634,-119.3807729,5238.9301364778,43.307088,0,1.52455057372,9910,2018-06-17 19:46:35,11,0,22.326,5238.9301364778,43.307088,0.6263432,1.71452433308,0,0,-0.671082,343.6, 1.1, 0.3,0,0,1024,1024,1024,1024,342.7,-89.9,98,3.727,3.706,3.684,3.718,3.759,3.733,19.715,55.4,14,Waypoint,
37.256634,-119.380773,5239.9143884778,44.29134,0,1.5516896822,10010,2018-06-17 19:46:35,11,0,22.223,5239.9143884778,44.29134,0.6263432,1.71452433308,0,0,-0.671082,343.4, 0.8, 0.4,0,0,1024,1024,1024,1024,342.7,-89.9,98,3.727,3.706,3.684,3.718,3.759,3.733,20.904,55.4,14,Waypoint,
37.2566339,-119.3807732,5240.8986404778,45.275592,0,1.6189633064,10110,2018-06-17 19:46:35,11,0,22.223,5240.8986404778,45.275592,0.6263432,1.71452433308,0,0,-0.671082,343.3, 0.5, 0.6,0,0,1024,1024,1024,1024,342.7,-89.9,98,3.727,3.706,3.684,3.718,3.759,3.733,20.904,55.4,14,Waypoint,
37.2566338,-119.3807732,5241.8828924778,46.259844,0,1.63247380552,10210,2018-06-17 19:46:35,10,0,22.223,5241.8828924778,46.259844,0.6263432,1.71452433308,0,0,-0.671082,343.2, 0.2, 0.8,0,0,1024,1024,1024,1024,342.7,-90,98,3.727,3.706,3.684,3.718,3.759,3.733,20.904,55.4,14,Waypoint,
37.2566338,-119.3807732,5242.8671444778,47.244096,0,1.63247380552,10310,2018-06-17 19:46:35,10,0,22.223,5242.8671444778,47.244096,0.6263432,1.71452433308,0,0,-0.671082,343.2, 0.2, 0.8,0,0,1024,1024,1024,1024,342.7,-90,98,3.727,3.706,3.684,3.718,3.759,3.733,20.904,55.4,14,Waypoint,
37.2566338,-119.3807733,5243.8513964778,48.228348,0,1.65937341268,10410,2018-06-17 19:46:35,10,0,22.223,5243.8513964778,48.228348,0.6263432,1.71452433308,0,0,-0.671082,343.2, 0.3, 0.7,0,0,1024,1024,1024,1024,342.7,-89.9,98,3.727,3.706,3.684,3.718,3.759,3.733,20.904,55.4,14,Waypoint,
37.2566338,-119.3807733,5244.8356484778,49.2126,0,1.65937341268,10510,2018-06-17 19:46:35,10,0,22.223,5244.8356484778,49.2126,0.6263432,1.71452433308,0,0,-0.671082,343.3, 0.6, 0.6,0,0,1024,1024,1024,1024,342.7,-89.9,98,3.727,3.706,3.684,3.718,3.759,3.733,20.904,55.4,14,Waypoint,
37.2566338,-119.3807733,5245.8199004778,50.196852,0,1.65937341268,10610,2018-06-17 19:46:35,10,0,22.223,5245.8199004778,50.196852,0.6263432,1.71452433308,0,0,-0.671082,343.5, 0.7, 0.4,0,0,1024,1024,1024,1024,342.7,-89.9,98,3.727,3.706,3.684,3.718,3.759,3.733,20.904,55.4,14,Waypoint,
37.2566337,-119.3807732,5246.8041524778,51.181104,0,1.64668312356,10710,2018-06-17 19:46:36,10,0,22.223,5246.8041524778,51.181104,0.6263432,1.71452433308,0,0,-0.671082,343.7, 0.7, 0.2,0,0,1024,1024,1024,1024,342.7,-89.9,98,3.727,3.706,3.684,3.718,3.759,3.733,20.904,55.4,14,Waypoint,
37.2566337,-119.3807733,5247.7884044778,52.165356,0,1.67335307192,10810,2018-06-17 19:46:36,10,0,22.223,5247.7884044778,52.165356,0.6263432,1.71452433308,0,0,-0.671082,343.9, 0.5, 0,0,0,1024,1024,1024,1024,342.7,-89.9,98,3.727,3.706,3.684,3.718,3.759,3.733,20.904,55.4,14,Waypoint,
37.2566336,-119.3807734,5248.7726564778,53.149608,0,1.71452433308,11010,2018-06-17 19:46:36,10,0,22.223,5248.7726564778,53.149608,0.6263432,1.71452433308,0,0,-0.671082,344, 0.3, 0,0,0,1024,1024,1024,1024,342.7,-90,98,3.707,3.682,3.661,3.691,3.737,3.705,20.904,55.4,14,Waypoint,
37.2566335,-119.3807735,5249.7569084778,54.13386,0,1.75596790396,11110,2018-06-17 19:46:36,11,0,22.223,5249.7569084778,54.13386,0.6263432,1.75596790396,0,0,-0.671082,344.1, 0.2, 0,0,0,1024,1024,1024,1024,342.7,-89.9,98,3.707,3.682,3.661,3.691,3.737,3.705,20.904,55.4,14,Waypoint,
37.2566335,-119.3807735,5250.7411604778,55.118112,0,1.75596790396,11210,2018-06-17 19:46:36,11,0,22.223,5250.7411604778,55.118112,0.6263432,1.75596790396,0,0,-0.671082,344.1, 0, 0,0,0,1024,1024,1024,1024,342.7,-90,98,3.707,3.682,3.661,3.691,3.737,3.705,20.904,55.4,14,Waypoint,
37.2566334,-119.3807735,5251.7254124778,56.102364,0,1.7714403454,11310,2018-06-17 19:46:36,11,0,22.223,5251.7254124778,56.102364,0.6263432,1.7714403454,0,0,-0.671082,344, 0, 0.2,0,0,1024,1024,1024,1024,342.7,-89.9,98,3.707,3.682,3.661,3.691,3.737,3.705,20.904,55.4,14,Waypoint,
37.2566333,-119.3807734,5252.7096644778,57.086616,0,1.76162407212,11410,2018-06-17 19:46:36,11,0,22.223,5252.7096644778,57.086616,0.6263432,1.7714403454,0,0,-0.671082,344, 0, 0.2,0,0,1024,1024,1024,1024,342.7,-89.9,98,3.707,3.682,3.661,3.691,3.737,3.705,20.904,55.4,14,Waypoint,
37.2566333,-119.3807733,5253.6939164778,58.070868,0,1.7358268272,11510,2018-06-17 19:46:36,11,0,22.223,5253.6939164778,58.070868,0.6263432,1.7714403454,0,0,-0.671082,343.9, 0.1, 0.1,0,0,1024,1024,1024,1024,342.7,-89.9,98,3.707,3.682,3.661,3.691,3.737,3.705,20.904,55.4,14,Waypoint,
37.2566332,-119.3807733,5254.6781684778,59.05512,0,1.75299546292,11610,2018-06-17 19:46:36,11,0,22.223,5254.6781684778,59.05512,0.6263432,1.7714403454,0,0,-0.671082,343.9, 0, 0.2,0,0,1024,1024,1024,1024,342.7,-89.9,98,3.707,3.682,3.661,3.691,3.737,3.705,20.904,55.4,14,Waypoint,
37.2566332,-119.3807732,5255.6624204778,60.039372,0.223694,1.72755582956,11710,2018-06-17 19:46:37,11,0,22.223,5255.6624204778,60.039372,0.6263432,1.7714403454,0,0,-0.671082,343.9, -0.2, 0.4,0,0,1024,1024,1024,1024,342.7,-90,98,3.707,3.682,3.661,3.691,3.737,3.705,20.904,55.4,14,Waypoint,
37.2566332,-119.380773,5256.6466724778,61.023624,0.223694,1.67702433188,11810,2018-06-17 19:46:37,11,0,22.223,5256.6466724778,61.023624,0.6263432,1.7714403454,0,0,-0.671082,343.8, -0.3, 0,0,0,1024,1024,1024,1024,342.7,-90,98,3.707,3.682,3.661,3.691,3.737,3.705,20.904,55.4,14,Waypoint,
37.2566332,-119.3807729,5257.6309244778,62.007876,0.223694,1.65194559092,11910,2018-06-17 19:46:37,11,0,22.223,5257.6309244778,62.007876,0.6263432,1.7714403454,0,0,-0.671082,343.8, -0.3, -0.5,0,0,1024,1024,1024,1024,342.7,-89.9,98,3.707,3.682,3.661,3.691,3.737,3.705,20.904,55.4,14,Waypoint,
37.2566331,-119.3807726,5259.5994284778,63.97638,0.223694,1.59723430308,12010,2018-06-17 19:46:37,10,0,22.091,5259.5994284778,63.97638,0.6263432,1.7714403454,0,0,-0.671082,343.8, -0.2, -1.3,0,0,1024,1024,1024,1024,342.7,-89.9,98,3.689,3.671,3.644,3.672,3.722,3.696,21.712,55.4,14,Waypoint,
37.2566331,-119.3807724,5260.5836804778,64.960632,0.223694,1.54898627004,12110,2018-06-17 19:46:37,10,0,22.091,5260.5836804778,64.960632,0.6263432,1.7714403454,0,0,-0.671082,343.8, -0.2, -1.6,0,0,1024,1024,1024,1024,342.7,-89.9,98,3.689,3.671,3.644,3.672,3.722,3.696,21.712,55.4,14,Waypoint,
37.2566331,-119.3807724,5261.5679324778,65.944884,0,1.54898627004,12210,2018-06-17 19:46:37,10,0,22.091,5261.5679324778,65.944884,0.6263432,1.7714403454,0,0,-0.671082,343.8, -0.1, -1.7,0,0,1024,1024,1024,1024,342.7,-89.9,98,3.689,3.671,3.644,3.672,3.722,3.696,21.712,55.4,14,Waypoint,
37.2566331,-119.3807723,5262.5521844778,66.929136,0,1.52512143988,12310,2018-06-17 19:46:37,10,0,22.091,5262.5521844778,66.929136,0.6263432,1.7714403454,0,0,-0.671082,343.8, 0, -1.3,0,0,1024,1024,1024,1024,342.7,-89.9,98,3.689,3.671,3.644,3.672,3.722,3.696,21.712,55.4,14,Waypoint,
37.2566331,-119.3807722,5263.5364364778,67.913388,0,1.50143705592,12410,2018-06-17 19:46:37,10,0,22.091,5263.5364364778,67.913388,0.6263432,1.7714403454,0,0,-0.671082,343.9, 0.2, -0.7,0,0,1024,1024,1024,1024,342.7,-89.9,98,3.689,3.671,3.644,3.672,3.722,3.696,21.712,55.4,14,Waypoint,
37.256633,-119.3807721,5264.5206884778,68.89764,0,1.49984912936,12510,2018-06-17 19:46:37,10,0,22.091,5264.5206884778,68.89764,0.6263432,1.7714403454,0,0,-0.671082,344.1, 0.2, -0.5,0,0,1024,1024,1024,1024,342.7,-89.9,98,3.689,3.671,3.644,3.672,3.722,3.696,21.712,55.4,14,Waypoint,
37.256633,-119.3807721,5265.5049404778,69.881892,0,1.49984912936,12610,2018-06-17 19:46:37,10,0,22.091,5265.5049404778,69.881892,0.6263432,1.7714403454,0,0,-0.671082,344.2, 0.3, -0.6,0,0,1024,1024,1024,1024,342.7,-89.9,98,3.689,3.671,3.644,3.672,3.722,3.696,21.712,55.4,14,Waypoint,
37.256633,-119.380772,5266.4891924778,70.866144,0,1.4769029344,12710,2018-06-17 19:46:38,10,0,22.091,5266.4891924778,70.866144,0.6263432,1.7714403454,0,0,-0.671082,344.3, 0.2, -0.6,0,0,1024,1024,1024,1024,342.7,-89.9,98,3.689,3.671,3.644,3.672,3.722,3.696,21.712,55.4,14,Waypoint,
37.256633,-119.380772,5267.4734444778,71.850396,0,1.4769029344,12810,2018-06-17 19:46:38,11,0,22.091,5267.4734444778,71.850396,0.6263432,1.7714403454,0,0,-0.671082,344.4, -0.2, -0.4,0,0,1024,1024,1024,1024,342.7,-89.9,98,3.689,3.671,3.644,3.672,3.722,3.696,21.712,55.4,14,Waypoint,
37.2566328,-119.3807719,5268.4576964778,72.834648,0,1.50102038924,12910,2018-06-17 19:46:38,11,0,22.091,5268.4576964778,72.834648,0.6263432,1.7714403454,0,0,-0.671082,344.3, -0.7, -0.3,0,0,1024,1024,1024,1024,342.7,-90,98,3.689,3.671,3.644,3.672,3.722,3.696,21.712,55.4,14,Waypoint,
37.2566328,-119.3807718,5269.1138644778,73.490816,0,1.4792323308,13010,2018-06-17 19:46:38,10,0,22.084,5269.1138644778,73.490816,0.6263432,1.7714403454,0,0,-0.671082,344.1, -1, -0.1,0,0,1024,1024,1024,1024,342.7,-90,98,3.689,3.669,3.642,3.673,3.723,3.685,21.137,57.2,14,Waypoint,
37.2566328,-119.3807717,5270.0981164778,74.475068,0,1.45769689704,13110,2018-06-17 19:46:38,10,0,22.084,5270.0981164778,74.475068,0.6263432,1.7714403454,0,0,-0.671082,343.9, -1.1, -0.1,0,0,1024,1024,1024,1024,342.7,-90,98,3.689,3.669,3.642,3.673,3.723,3.685,21.137,57.2,14,Waypoint,
37.2566327,-119.3807716,5271.0823684778,75.45932,0,1.46168639848,13210,2018-06-17 19:46:38,11,0,22.084,5271.0823684778,75.45932,0.6263432,1.7714403454,0,0,-0.671082,343.6, -1.2, -0.4,0,0,1024,1024,1024,1024,342.7,-90,98,3.689,3.669,3.642,3.673,3.723,3.685,21.137,57.2,14,Waypoint,
37.2566327,-119.3807715,5272.0666204778,76.443572,0,1.4410597574,13310,2018-06-17 19:46:38,11,0,22.084,5272.0666204778,76.443572,0.6263432,1.7714403454,0,0,-0.671082,343.4, -1, -0.8,0,0,1024,1024,1024,1024,342.7,-89.9,98,3.689,3.669,3.642,3.673,3.723,3.685,21.137,57.2,14,Waypoint,
37.2566327,-119.3807714,5273.0508724778,77.427824,0,1.42072839192,13410,2018-06-17 19:46:38,12,0,22.084,5273.0508724778,77.427824,0.6263432,1.7714403454,0,0,-0.671082,343.3, -0.8, -1,0,0,1024,1024,1024,1024,342.7,-89.9,98,3.689,3.669,3.642,3.673,3.723,3.685,21.137,57.2,14,Waypoint,
37.2566327,-119.3807713,5274.3632084778,78.74016,0,1.40070214456,13510,2018-06-17 19:46:38,12,0,22.084,5274.3632084778,78.74016,0.6263432,1.7714403454,0,0,-0.671082,343.3, -0.7, -1.2,0,0,1024,1024,1024,1024,342.7,-89.9,98,3.689,3.669,3.642,3.673,3.723,3.685,21.137,57.2,14,Waypoint,
37.2566326,-119.3807712,5275.3474604778,79.724412,0,1.4082021448,13610,2018-06-17 19:46:38,11,0,22.084,5275.3474604778,79.724412,0.6263432,1.7714403454,0,0,-0.671082,343.4, -0.7, -1.4,0,0,1024,1024,1024,1024,342.7,-89.9,98,3.689,3.669,3.642,3.673,3.723,3.685,21.137,57.2,14,Waypoint,
37.2566326,-119.3807711,5276.0036284778,80.38058,0,1.38920936204,13710,2018-06-17 19:46:39,11,0,22.084,5276.0036284778,80.38058,0.6263432,1.7714403454,0,0,-0.671082,343.4, -0.8, -1.6,0,0,1024,1024,1024,1024,342.7,-89.9,98,3.689,3.669,3.642,3.673,3.723,3.685,21.137,57.2,14,Waypoint,
37.2566326,-119.3807711,5277.3159644778,81.692916,0,1.38920936204,13910,2018-06-17 19:46:39,12,0,22.084,5277.3159644778,81.692916,0.6263432,1.7714403454,0,0,-0.671082,343.4, -0.9, -1.9,0,0,1024,1024,1024,1024,342.7,-89.9,98,3.689,3.669,3.642,3.673,3.723,3.685,21.137,57.2,14,Waypoint,
37.2566325,-119.3807713,5279.2844684778,83.66142,0,1.45478023028,14010,2018-06-17 19:46:39,12,0,22.095,5279.2844684778,83.66142,0.6263432,1.7714403454,0,0,-0.671082,343.5, -1, -1,0,0,1024,1024,1024,1024,342.7,-89.9,97,3.692,3.661,3.647,3.679,3.715,3.691,20.948,57.2,14,Waypoint,
37.2566325,-119.3807713,5280.2687204778,84.645672,0,1.45478023028,14210,2018-06-17 19:46:39,12,0,22.095,5280.2687204778,84.645672,0.6263432,1.7714403454,0,0,-0.671082,343.6, -1, -0.4,0,0,1024,1024,1024,1024,342.7,-89.9,97,3.692,3.661,3.647,3.679,3.715,3.691,20.948,57.2,14,Waypoint,
37.2566325,-119.3807713,5281.2529724778,85.629924,0,1.45478023028,14310,2018-06-17 19:46:39,12,0,22.095,5281.2529724778,85.629924,0.6263432,1.7714403454,0,0,-0.671082,343.7, -1, -0.3,0,0,1024,1024,1024,1024,342.7,-89.9,97,3.692,3.661,3.647,3.679,3.715,3.691,20.948,57.2,14,Waypoint,
37.2566326,-119.3807713,5282.2372244778,86.614176,0,1.42752957324,14410,2018-06-17 19:46:39,12,0,22.095,5282.2372244778,86.614176,0.6263432,1.7714403454,0,0,-0.671082,343.8, -1, -0.7,0,0,1024,1024,1024,1024,342.7,-89.9,97,3.692,3.661,3.647,3.679,3.715,3.691,20.948,57.2,14,Waypoint,
37.2566326,-119.3807713,5283.2214764778,87.598428,0,1.42752957324,14510,2018-06-17 19:46:39,12,0,22.095,5283.2214764778,87.598428,0.6263432,1.7714403454,0,0,-0.671082,343.8, -0.7, -1,0,0,1024,1024,1024,1024,342.7,-89.9,97,3.692,3.661,3.647,3.679,3.715,3.691,20.948,57.2,14,Waypoint,
37.2566326,-119.3807712,5284.2057284778,88.58268,0,1.4082021448,14610,2018-06-17 19:46:39,12,0,22.095,5284.2057284778,88.58268,0.6263432,1.7714403454,0,0,-0.671082,343.8, -0.3, -1.1,0,0,1024,1024,1024,1024,342.7,-89.9,97,3.692,3.661,3.647,3.679,3.715,3.691,20.948,57.2,14,Waypoint,
37.2566327,-119.3807712,5285.1899804778,89.566932,0,1.38099741952,14710,2018-06-17 19:46:40,13,0,22.095,5285.1899804778,89.566932,0.6263432,1.7714403454,0,0,-0.671082,343.8, -0.1, -1.1,0,0,1024,1024,1024,1024,342.7,-89.9,97,3.692,3.661,3.647,3.679,3.715,3.691,20.948,57.2,14,Waypoint,
37.2566328,-119.3807712,5287.1584844778,91.535436,0,1.3542323268,14810,2018-06-17 19:46:40,12,0,22.095,5287.1584844778,91.535436,0.6263432,1.7714403454,0,0,-0.671082,343.7, 0, -1,0,0,1024,1024,1024,1024,342.7,-89.9,97,3.692,3.661,3.647,3.679,3.715,3.691,20.948,57.2,14,Waypoint,
37.2566328,-119.3807713,5288.1427364778,92.519688,0,1.37432091012,14910,2018-06-17 19:46:40,12,0,22.095,5288.1427364778,92.519688,0.6263432,1.7714403454,0,0,-0.671082,343.5, 0, -1.1,0,0,1024,1024,1024,1024,342.7,-89.9,97,3.692,3.661,3.647,3.679,3.715,3.691,20.948,57.2,14,Waypoint,
37.2566329,-119.3807713,5289.1269884778,93.50394,0,1.3484088358,15010,2018-06-17 19:46:40,12,0,22.059,5289.1269884778,93.50394,0.6263432,1.7714403454,0,0,-0.671082,343.3, 0, -0.9,0,0,1024,1024,1024,1024,342.7,-89.9,97,3.7,3.676,3.646,3.669,3.723,3.697,19.705,57.2,14,Waypoint,
37.2566329,-119.3807714,5291.0954924778,95.472444,0,1.36919951888,15210,2018-06-17 19:46:40,12,0,22.059,5291.0954924778,95.472444,0.6263432,1.7714403454,0,0,-0.671082,343.3, 0.3, -0.2,0,0,1024,1024,1024,1024,342.7,-89.9,97,3.7,3.676,3.646,3.669,3.723,3.697,19.705,57.2,14,Waypoint,
37.2566329,-119.3807714,5292.0797444778,96.456696,0,1.36919951888,15310,2018-06-17 19:46:40,12,0,22.059,5292.0797444778,96.456696,0.6263432,1.7714403454,0,0,-0.671082,343.4, 0.2, -0.1,0,0,1024,1024,1024,1024,342.7,-89.9,97,3.7,3.676,3.646,3.669,3.723,3.697,19.705,57.2,14,Waypoint,
37.256633,-119.3807713,5293.0639964778,97.440948,0,1.32299544916,15410,2018-06-17 19:46:40,12,0,22.059,5293.0639964778,97.440948,0.6263432,1.7714403454,0,0,-0.671082,343.5, 0.2, -0.6,0,0,1024,1024,1024,1024,342.7,-89.9,97,3.7,3.676,3.646,3.669,3.723,3.697,19.705,57.2,14,Waypoint,
37.2566331,-119.3807712,5294.0482484778,98.4252,0.223694,1.27682418784,15510,2018-06-17 19:46:40,12,0,22.059,5294.0482484778,98.4252,0.6263432,1.7714403454,0,0,-0.671082,343.6, 0.3, -1.1,0,0,1024,1024,1024,1024,342.7,-89.9,97,3.7,3.676,3.646,3.669,3.723,3.697,19.705,57.2,14,Waypoint,
37.2566331,-119.3807712,5295.0325004778,99.409452,0,1.27682418784,15610,2018-06-17 19:46:40,12,0,22.059,5295.0325004778,99.409452,0.6263432,1.7714403454,0,0,-0.671082,343.8, 0.4, -1.6,0,0,1024,1024,1024,1024,342.7,-89.9,97,3.7,3.676,3.646,3.669,3.723,3.697,19.705,57.2,14,Waypoint,
37.2566331,-119.3807713,5296.0167524778,100.393704,0,1.29811027776,15710,2018-06-17 19:46:41,12,0,22.059,5296.0167524778,100.393704,0.6263432,1.7714403454,0,0,-0.671082,343.8, 0.2, -1.7,0,0,1024,1024,1024,1024,342.7,-89.9,97,3.7,3.676,3.646,3.669,3.723,3.697,19.705,57.2,14,Waypoint,
37.2566331,-119.3807712,5296.6729204778,101.049872,0,1.27682418784,15810,2018-06-17 19:46:41,12,0,22.059,5296.6729204778,101.049872,0.6263432,1.7714403454,0,0,-0.671082,343.9, 0.1, -1.7,0,0,1024,1024,1024,1024,342.7,-89.9,97,3.7,3.676,3.646,3.669,3.723,3.697,19.705,57.2,14,Waypoint,
37.2566332,-119.3807712,5297.9852564778,102.362208,0.223694,1.2520833734,15910,2018-06-17 19:46:41,12,0,22.059,5297.9852564778,102.362208,0.6263432,1.7714403454,0,0,-0.671082,343.9, 0.2, -1.6,0,0,1024,1024,1024,1024,342.7,-89.9,97,3.7,3.676,3.646,3.669,3.723,3.697,19.705,57.2,14,Waypoint,
37.2566332,-119.3807712,5298.9695084778,103.34646,0.223694,1.2520833734,16010,2018-06-17 19:46:41,13,0,22.121,5298.9695084778,103.34646,0.6263432,1.7714403454,0,0,-0.671082,343.8, 0.5, -1.8,0,0,1024,1024,1024,1024,342.7,-89.9,97,3.695,3.672,3.646,3.679,3.729,3.713,19.756,57.2,14,Waypoint,
37.2566332,-119.3807712,5299.9537604778,104.330712,0.223694,1.2520833734,16110,2018-06-17 19:46:41,13,0,22.121,5299.9537604778,104.330712,0.6263432,1.7714403454,0,0,-0.671082,343.7, 0.6, -2.1,0,0,1024,1024,1024,1024,342.7,-89.9,97,3.695,3.672,3.646,3.679,3.729,3.713,19.756,57.2,14,Waypoint,
37.2566333,-119.3807711,5300.9380124778,105.314964,0.223694,1.2061024008,16210,2018-06-17 19:46:41,13,0,22.121,5300.9380124778,105.314964,0.6263432,1.7714403454,0,0,-0.671082,343.6, 0.6, -2.2,0,0,1024,1024,1024,1024,342.7,-89.9,97,3.695,3.672,3.646,3.679,3.729,3.713,19.756,57.2,14,Waypoint,
37.2566333,-119.380771,5301.9222644778,106.299216,0.223694,1.18458665208,16310,2018-06-17 19:46:41,13,0,22.121,5301.9222644778,106.299216,0.6263432,1.7714403454,0,0,-0.671082,343.4, 0.6, -2.3,0,0,1024,1024,1024,1024,342.7,-89.9,97,3.695,3.672,3.646,3.679,3.729,3.713,19.756,57.2,14,Waypoint,
37.2566334,-119.380771,5302.5784324778,106.955384,0.223694,1.16017392164,16410,2018-06-17 19:46:41,13,0,22.121,5302.5784324778,106.955384,0.6263432,1.7714403454,0,0,-0.671082,343.3, 0.6, -2.4,0,0,1024,1024,1024,1024,342.7,-89.9,97,3.695,3.672,3.646,3.679,3.729,3.713,19.756,57.2,14,Waypoint,
37.2566334,-119.380771,5303.5626844778,107.939636,0.223694,1.16017392164,16510,2018-06-17 19:46:41,13,0,22.121,5303.5626844778,107.939636,0.6263432,1.7714403454,0,0,-0.671082,343.2, 0.9, -2.4,0,0,1024,1024,1024,1024,342.8,-89.9,97,3.695,3.672,3.646,3.679,3.729,3.713,19.756,57.2,14,Waypoint,
37.2566335,-119.3807711,5304.5469364778,108.923888,0.223694,1.15882221556,16610,2018-06-17 19:46:41,13,0,22.121,5304.5469364778,108.923888,0.6263432,1.7714403454,0,0,-0.671082,343.2, 1, -2.5,0,0,1024,1024,1024,1024,342.8,-89.9,97,3.695,3.672,3.646,3.679,3.729,3.713,19.756,57.2,14,Waypoint,
37.2566335,-119.3807711,5305.5311884778,109.90814,0.223694,1.15882221556,16710,2018-06-17 19:46:42,13,0,22.121,5305.5311884778,109.90814,0.6263432,1.7714403454,0,0,-0.671082,343.3, 1.2, -2.5,0,0,1024,1024,1024,1024,342.8,-89.9,97,3.695,3.672,3.646,3.679,3.729,3.713,19.756,57.2,14,Waypoint,
37.2566336,-119.3807711,5306.1873564778,110.564308,0.223694,1.13620082376,16910,2018-06-17 19:46:42,13,0,22.121,5306.1873564778,110.564308,0.6263432,1.7714403454,0,0,-0.671082,343.5, 1.3, -2.2,0,0,1024,1024,1024,1024,342.8,-89.9,97,3.695,3.672,3.646,3.679,3.729,3.713,19.756,57.2,14,Waypoint,
37.2566338,-119.3807713,5308.1558604778,112.532812,0.223694,1.14151250372,17110,2018-06-17 19:46:42,14,0,22.121,5308.1558604778,112.532812,0.6263432,1.7714403454,0,0,-0.671082,343.6, 2.3, -1.1,0,0,1024,1024,1024,1024,342.8,-89.9,97,3.695,3.672,3.646,3.679,3.729,3.713,19.756,57.2,14,Waypoint,
37.2566338,-119.3807713,5309.1401124778,113.517064,0.223694,1.14151250372,17210,2018-06-17 19:46:42,14,0,22.121,5309.1401124778,113.517064,0.6263432,1.7714403454,0,0,-0.671082,343.6, 2.5, -1.6,0,0,1024,1024,1024,1024,342.8,-89.9,97,3.695,3.672,3.646,3.679,3.729,3.713,19.756,57.2,14,Waypoint,
37.256634,-119.3807714,5309.7962804778,114.173232,0.223694,1.12887470804,17310,2018-06-17 19:46:42,14,0,22.121,5309.7962804778,114.173232,0.6263432,1.7714403454,0,0,-0.671082,343.6, 2.7, -2.1,0,0,1024,1024,1024,1024,342.8,-89.9,97,3.695,3.672,3.646,3.679,3.729,3.713,19.756,57.2,14,Waypoint,
37.2566341,-119.3807714,5310.7805324778,115.157484,0.223694,1.11164373636,17410,2018-06-17 19:46:42,14,0,22.121,5310.7805324778,115.157484,0.6263432,1.7714403454,0,0,-0.671082,343.5, 2.5, -2.2,0,0,1024,1024,1024,1024,342.8,-89.9,97,3.695,3.672,3.646,3.679,3.729,3.713,19.756,57.2,14,Waypoint,
37.2566341,-119.3807715,5311.7647844778,116.141736,0.223694,1.1375164406,17510,2018-06-17 19:46:42,14,0,22.121,5311.7647844778,116.141736,0.6263432,1.7714403454,0,0,-0.671082,343.4, 2.6, -2.1,0,0,1024,1024,1024,1024,342.8,-89.9,97,3.695,3.672,3.646,3.679,3.729,3.713,19.756,57.2,14,Waypoint,
37.2566342,-119.3807716,5313.0771204778,117.454072,0.223694,1.14798560104,17610,2018-06-17 19:46:42,14,0,22.121,5313.0771204778,117.454072,0.6263432,1.7714403454,0,0,-0.671082,343.3, 2.8, -1.7,0,0,1024,1024,1024,1024,342.8,-89.9,97,3.695,3.672,3.646,3.679,3.729,3.713,19.756,57.2,14,Waypoint,
37.2566343,-119.3807716,5314.0613724778,118.438324,0.223694,1.1333989864,17710,2018-06-17 19:46:43,14,0,22.121,5314.0613724778,118.438324,0.6263432,1.7714403454,0,0,-0.671082,343.2, 2.5, -0.8,0,0,1024,1024,1024,1024,342.8,-89.9,97,3.695,3.672,3.646,3.679,3.729,3.713,19.756,57.2,14,Waypoint,
37.2566346,-119.3807716,5316.3579604778,120.734912,0.447388,1.09578087496,17810,2018-06-17 19:46:43,14,0,22.121,5316.3579604778,120.734912,0.6263432,1.7714403454,0,0,-0.671082,342.5, 3.9, -0.1,0,0,1024,1024,1024,1024,342.8,-89.9,97,3.695,3.672,3.646,3.679,3.729,3.713,19.756,57.2,14,Waypoint,
37.2566348,-119.3807714,5317.6702964778,122.047248,0.4921268,1.01983927148,17910,2018-06-17 19:46:43,14,0,22.121,5317.6702964778,122.047248,0.6263432,1.7714403454,0,0,-0.894776,342.4, 4.6, -2.3,0,0,1024,1024,1024,1024,342.8,-89.9,97,3.695,3.672,3.646,3.679,3.729,3.713,19.756,57.2,14,Waypoint,
37.2566349,-119.3807712,5318.9826324778,123.359584,0.6263432,0.95470147412,18010,2018-06-17 19:46:43,14,0,22.021,5318.9826324778,123.359584,0.6263432,1.7714403454,0,0,-0.671082,342.5, 4.8, -4.9,0,0,1024,1024,1024,1024,342.8,-89.9,97,3.667,3.635,3.62,3.652,3.689,3.684,20.603,57.2,14,Waypoint,
37.2566351,-119.3807709,5319.9668844778,124.343836,0.4921268,0.85469819008,18110,2018-06-17 19:46:43,14,0,22.021,5319.9668844778,124.343836,0.6263432,1.7714403454,0,0,-0.671082,343, 4.2, -6.3,0,0,1024,1024,1024,1024,342.8,-90,97,3.667,3.635,3.62,3.652,3.689,3.684,20.603,57.2,14,Waypoint,
37.2566353,-119.3807707,5320.6230524778,125.000004,0.3131716,0.78745409344,18210,2018-06-17 19:46:43,14,0,22.021,5320.6230524778,125.000004,0.6263432,1.7714403454,0,0,-0.671082,343.4, 3.5, -6.5,0,0,1024,1024,1024,1024,342.9,-90,97,3.667,3.635,3.62,3.652,3.689,3.684,20.603,57.2,14,Waypoint,
37.2566354,-119.3807705,5321.6073044778,125.984256,0.3131716,0.7269029104,18310,2018-06-17 19:46:43,14,0,22.021,5321.6073044778,125.984256,0.6263432,1.7714403454,0,0,-0.671082,343.8, 3.5, -5.8,0,0,1024,1024,1024,1024,342.9,-90,97,3.667,3.635,3.62,3.652,3.689,3.684,20.603,57.2,14,Waypoint,
37.2566355,-119.3807704,5322.2634724778,126.640424,0.223694,0.6969488412,18410,2018-06-17 19:46:43,14,0,22.021,5322.2634724778,126.640424,0.6263432,1.7714403454,0,0,-0.671082,344, 3.8, -5.4,0,0,1024,1024,1024,1024,342.9,-89.9,97,3.667,3.635,3.62,3.652,3.689,3.684,20.603,57.2,14,Waypoint,
37.2566356,-119.3807703,5323.2477244778,127.624676,0.223694,0.66890422088,18510,2018-06-17 19:46:43,14,0,22.021,5323.2477244778,127.624676,0.6263432,1.7714403454,0,0,-0.671082,344.1, 4.1, -5,0,0,1024,1024,1024,1024,342.9,-89.9,97,3.667,3.635,3.62,3.652,3.689,3.684,20.603,57.2,14,Waypoint,
37.2566356,-119.3807703,5323.9038924778,128.280844,0.223694,0.66890422088,18610,2018-06-17 19:46:43,14,0,22.021,5323.9038924778,128.280844,0.6263432,1.7714403454,0,0,-0.671082,344.2, 4.2, -4.4,0,0,1024,1024,1024,1024,342.9,-89.9,97,3.667,3.635,3.62,3.652,3.689,3.684,20.603,57.2,14,Waypoint,
37.2566357,-119.3807703,5324.8881444778,129.265096,0.223694,0.6718832236,18710,2018-06-17 19:46:44,14,0,22.021,5324.8881444778,129.265096,0.6263432,1.7714403454,0,0,-0.671082,344.3, 4.2, -3.9,0,0,1024,1024,1024,1024,342.9,-89.9,97,3.667,3.635,3.62,3.652,3.689,3.684,20.603,57.2,14,Waypoint,
37.2566358,-119.3807703,5325.8723964778,130.249348,0,0.67681760696,18810,2018-06-17 19:46:44,14,0,22.021,5325.8723964778,130.249348,0.6263432,1.7714403454,0,0,-0.671082,344.3, 4, -3.5,0,0,1024,1024,1024,1024,342.9,-89.9,97,3.667,3.635,3.62,3.652,3.689,3.684,20.603,57.2,14,Waypoint,
37.2566358,-119.3807703,5326.5285644778,130.905516,0.223694,0.67681760696,18910,2018-06-17 19:46:44,14,0,22.021,5326.5285644778,130.905516,0.6263432,1.7714403454,0,0,-0.671082,344.1, 4.3, -3.2,0,0,1024,1024,1024,1024,342.9,-89.9,97,3.667,3.635,3.62,3.652,3.689,3.684,20.603,57.2,14,Waypoint,
37.2566359,-119.3807704,5327.5128164778,131.889768,0,0.71206367108,19010,2018-06-17 19:46:44,14,0,21.955,5327.5128164778,131.889768,0.6263432,1.7714403454,0,0,-0.671082,344, 4.8, -3.1,0,0,1024,1024,1024,1024,342.9,-89.9,97,3.678,3.662,3.639,3.667,3.754,3.681,20.891,57.2,14,Waypoint,
37.256636,-119.3807704,5328.4970684778,132.87402,0,0.72042653224,19210,2018-06-17 19:46:44,14,0,21.955,5328.4970684778,132.87402,0.6263432,1.7714403454,0,0,-0.671082,343.8, 4.8, -2.7,0,0,1024,1024,1024,1024,342.9,-89.9,97,3.678,3.662,3.639,3.667,3.754,3.681,20.891,57.2,14,Waypoint,
37.256636,-119.3807704,5329.1532364778,133.530188,0,0.72042653224,19310,2018-06-17 19:46:44,14,0,21.955,5329.1532364778,133.530188,0.6263432,1.7714403454,0,0,-0.671082,343.6, 4.8, -2.4,0,0,1024,1024,1024,1024,342.9,-89.9,97,3.678,3.662,3.639,3.667,3.754,3.681,20.891,57.2,14,Waypoint,
37.2566361,-119.3807704,5330.4655724778,134.842524,0,0.73051839608,19410,2018-06-17 19:46:44,14,0,21.955,5330.4655724778,134.842524,0.6263432,1.7714403454,0,0,-0.671082,343.5, 4.4, -2.6,0,0,1024,1024,1024,1024,342.9,-89.9,97,3.678,3.662,3.639,3.667,3.754,3.681,20.891,57.2,14,Waypoint,
37.2566362,-119.3807704,5331.4498244778,135.826776,0,0.74227036496,19510,2018-06-17 19:46:44,14,0,21.955,5331.4498244778,135.826776,0.6263432,1.7714403454,0,0,-0.671082,343.3, 4.4, -3.1,0,0,1024,1024,1024,1024,342.9,-89.9,97,3.678,3.662,3.639,3.667,3.754,3.681,20.891,57.2,14,Waypoint,
37.2566362,-119.3807704,5332.4340764778,136.811028,0,0.74227036496,19610,2018-06-17 19:46:44,14,0,21.955,5332.4340764778,136.811028,0.6263432,1.7714403454,0,0,-0.671082,343.3, 4.6, -3.5,0,0,1024,1024,1024,1024,342.9,-89.9,97,3.678,3.662,3.639,3.667,3.754,3.681,20.891,57.2,14,Waypoint,
37.2566362,-119.3807704,5333.4183284778,137.79528,0,0.74227036496,19710,2018-06-17 19:46:45,14,0,21.955,5333.4183284778,137.79528,0.6263432,1.7714403454,0,0,-0.671082,343.3, 4.7, -4,0,0,1024,1024,1024,1024,342.9,-89.9,97,3.678,3.662,3.639,3.667,3.754,3.681,20.891,57.2,14,Waypoint,
37.2566362,-119.3807703,5334.4025804778,138.779532,0,0.71507220136,19810,2018-06-17 19:46:45,14,0,21.955,5334.4025804778,138.779532,0.6263432,1.7714403454,0,0,-0.671082,343.4, 4.5, -4,0,0,1024,1024,1024,1024,342.9,-90,97,3.678,3.662,3.639,3.667,3.754,3.681,20.891,57.2,14,Waypoint,
37.2566362,-119.3807704,5335.3868324778,139.763784,0,0.74227036496,19910,2018-06-17 19:46:45,14,0,21.955,5335.3868324778,139.763784,0.6263432,1.7714403454,0,0,-0.671082,343.5, 4.3, -3.6,0,0,1024,1024,1024,1024,342.9,-90,97,3.678,3.662,3.639,3.667,3.754,3.681,20.891,57.2,14,Waypoint,
37.2566361,-119.3807704,5336.3710844778,140.748036,0,0.73051839608,20010,2018-06-17 19:46:45,14,0,21.796,5336.3710844778,140.748036,0.6263432,1.7714403454,0,0,-0.671082,343.5, 3.7, -3.1,0,0,1024,1024,1024,1024,342.9,-89.9,97,3.634,3.605,3.588,3.614,3.672,3.64,22.378,57.2,14,Waypoint,
37.2566361,-119.3807704,5337.3553364778,141.732288,0,0.73051839608,20110,2018-06-17 19:46:45,14,0,21.796,5337.3553364778,141.732288,0.6263432,1.7714403454,0,0,-0.671082,343.6, 3.6, -3,0,0,1024,1024,1024,1024,342.9,-89.9,97,3.634,3.605,3.588,3.614,3.672,3.64,22.378,57.2,14,Waypoint,
37.256636,-119.3807705,5338.6676724778,143.044624,0,0.7485564544,20210,2018-06-17 19:46:45,14,0,21.796,5338.6676724778,143.044624,0.6263432,1.7714403454,0,0,-0.671082,343.7, 3.6, -2.8,0,0,1024,1024,1024,1024,342.9,-89.9,97,3.634,3.605,3.588,3.614,3.672,3.64,22.378,57.2,14,Waypoint,
37.2566358,-119.3807707,5340.6361764778,145.013128,0,0.79166997284,20310,2018-06-17 19:46:45,14,0,21.796,5340.6361764778,145.013128,0.6263432,1.7714403454,0,0,-0.671082,343.7, 3.7, -2.6,0,0,1024,1024,1024,1024,342.9,-90,97,3.634,3.605,3.588,3.614,3.672,3.64,22.378,57.2,14,Waypoint,
37.2566358,-119.3807708,5341.6204284778,145.99738,0,0.8204396588,20410,2018-06-17 19:46:45,14,0,21.796,5341.6204284778,145.99738,0.6263432,1.7714403454,0,0,-0.671082,343.7, 3.4, -2.5,0,0,1024,1024,1024,1024,342.9,-89.9,97,3.634,3.605,3.588,3.614,3.672,3.64,22.378,57.2,14,Waypoint,
37.2566357,-119.3807709,5342.6046804778,146.981632,0.223694,0.84530186432,20510,2018-06-17 19:46:45,14,0,21.796,5342.6046804778,146.981632,0.6263432,1.7714403454,0,0,-0.671082,343.8, 3.3, -1.6,0,0,1024,1024,1024,1024,342.9,-89.9,97,3.634,3.605,3.588,3.614,3.672,3.64,22.378,57.2,14,Waypoint,
37.2566356,-119.380771,5343.9170164778,148.293968,0,0.8719488468,20610,2018-06-17 19:46:45,14,0,21.796,5343.9170164778,148.293968,0.6263432,1.7714403454,0,0,-0.671082,343.8, 3.6, -1,0,0,1024,1024,1024,1024,342.9,-89.9,97,3.634,3.605,3.588,3.614,3.672,3.64,22.378,57.2,14,Waypoint,
37.2566355,-119.3807711,5344.9012684778,149.27822,0,0.90022640676,20710,2018-06-17 19:46:46,14,0,21.796,5344.9012684778,149.27822,0.6263432,1.7714403454,0,0,-0.671082,343.8, 3.8, -1.6,0,0,1024,1024,1024,1024,342.9,-89.9,97,3.634,3.605,3.588,3.614,3.672,3.64,22.378,57.2,14,Waypoint,
37.2566355,-119.3807712,5345.8855204778,150.262472,0,0.9292651216,20810,2018-06-17 19:46:46,14,0,21.796,5345.8855204778,150.262472,0.6263432,1.7714403454,0,0,-0.671082,344, 3.5, -2.3,0,0,1024,1024,1024,1024,342.9,-90,97,3.634,3.605,3.588,3.614,3.672,3.64,22.378,57.2,14,Waypoint,
37.2566354,-119.3807713,5346.8697724778,151.246724,0,0.95899937452,20910,2018-06-17 19:46:46,14,0,21.796,5346.8697724778,151.246724,0.6263432,1.7714403454,0,0,-0.671082,344.4, 3.3, -2.5,0,0,1024,1024,1024,1024,342.9,-89.9,97,3.634,3.605,3.588,3.614,3.672,3.64,22.378,57.2,14,Waypoint,
37.2566355,-119.3807714,5347.8540244778,152.230976,0.223694,0.98734255128,21010,2018-06-17 19:46:46,14,0,21.841,5347.8540244778,152.230976,0.6263432,1.7714403454,0,0,-0.671082,344.5, 4.4, -2.3,0,0,1024,1024,1024,1024,342.9,-89.9,97,3.634,3.605,3.588,3.614,3.672,3.64,21.536,57.2,14,Waypoint,
37.2566355,-119.3807715,5348.8382764778,153.215228,0.223694,1.01638454696,21110,2018-06-17 19:46:46,14,0,21.841,5348.8382764778,153.215228,0.6263432,1.7714403454,0,0,-0.671082,344.5, 5.3, -2.3,0,0,1024,1024,1024,1024,342.9,-89.9,97,3.634,3.605,3.588,3.614,3.672,3.64,21.536,57.2,14,Waypoint,
37.2566356,-119.3807716,5350.1506124778,154.527564,0.223694,1.04605974476,21210,2018-06-17 19:46:46,14,0,21.841,5350.1506124778,154.527564,0.6263432,1.7714403454,0,0,-0.671082,344.3, 6.1, -2.2,0,0,1024,1024,1024,1024,342.9,-89.9,97,3.634,3.605,3.588,3.614,3.672,3.64,21.536,57.2,14,Waypoint,
37.2566357,-119.3807718,5351.1348644778,155.511816,0.223694,1.10591210888,21310,2018-06-17 19:46:46,14,0,21.841,5351.1348644778,155.511816,0.6263432,1.7714403454,0,0,-0.671082,344.2, 6.6, -2,0,0,1024,1024,1024,1024,342.9,-89.9,97,3.634,3.605,3.588,3.614,3.672,3.64,21.536,57.2,14,Waypoint,
37.2566358,-119.3807721,5353.1033684778,157.48032,0.223694,1.19563980204,21510,2018-06-17 19:46:46,14,0,21.841,5353.1033684778,157.48032,0.6263432,1.7714403454,0,0,-0.671082,343.8, 6.6, -1.8,0,0,1024,1024,1024,1024,342.9,-89.9,97,3.634,3.605,3.588,3.614,3.672,3.64,21.536,57.2,14,Waypoint,
37.2566358,-119.3807723,5354.0876204778,158.464572,0.3131716,1.25348757292,21710,2018-06-17 19:46:47,14,0,21.841,5354.0876204778,158.464572,0.6263432,1.7714403454,0,0,-0.671082,343.5, 6.6, -1.6,0,0,1024,1024,1024,1024,342.9,-89.9,97,3.634,3.605,3.588,3.614,3.672,3.64,21.536,57.2,14,Waypoint,
37.2566358,-119.3807724,5355.0718724778,159.448824,0.223694,1.28241802004,21810,2018-06-17 19:46:47,14,0,21.841,5355.0718724778,159.448824,0.6263432,1.7714403454,0,0,-0.671082,343.2, 6.2, -0.9,0,0,1024,1024,1024,1024,342.9,-90,97,3.634,3.605,3.588,3.614,3.672,3.64,21.536,57.2,14,Waypoint,
37.2566358,-119.3807726,5356.0561244778,160.433076,0.223694,1.34029531848,21910,2018-06-17 19:46:47,14,0,21.841,5356.0561244778,160.433076,0.6263432,1.7714403454,0,0,-0.671082,343.1, 6, -0.1,0,0,1024,1024,1024,1024,342.9,-89.9,97,3.634,3.605,3.588,3.614,3.672,3.64,21.536,57.2,14,Waypoint,
37.2566358,-119.3807727,5357.0403764778,161.417328,0,1.36923888896,22010,2018-06-17 19:46:47,14,0,21.841,5357.0403764778,161.417328,0.6263432,1.7714403454,0,0,-0.671082,343.2, 6.2, 0.1,0,0,1024,1024,1024,1024,342.9,-89.9,97,3.655,3.629,3.601,3.632,3.69,3.661,21.536,57.2,14,Waypoint,
37.2566358,-119.3807728,5358.0246284778,162.40158,0,1.39818902112,22110,2018-06-17 19:46:47,14,0,21.841,5358.0246284778,162.40158,0.6263432,1.7714403454,0,0,-0.671082,343.2, 6.4, -0.1,0,0,1024,1024,1024,1024,342.9,-89.9,97,3.655,3.629,3.601,3.632,3.69,3.661,21.536,57.2,14,Waypoint,
37.2566358,-119.3807729,5359.0088804778,163.385832,0,1.42713915328,22210,2018-06-17 19:46:47,14,0,21.841,5359.0088804778,163.385832,0.6263432,1.7714403454,0,0,-0.671082,343.2, 6.6, -0.8,0,0,1024,1024,1024,1024,342.9,-89.9,97,3.655,3.629,3.601,3.632,3.69,3.661,21.536,57.2,14,Waypoint,
37.2566358,-119.3807729,5359.9931324778,164.370084,0,1.42713915328,22310,2018-06-17 19:46:47,14,0,21.841,5359.9931324778,164.370084,0.6263432,1.7714403454,0,0,-0.671082,343.3, 6.7, -1.4,0,0,1024,1024,1024,1024,342.9,-90,97,3.655,3.629,3.601,3.632,3.69,3.661,21.536,57.2,14,Waypoint,
37.2566357,-119.3807729,5360.9773844778,165.354336,0,1.42480647604,22410,2018-06-17 19:46:47,14,0,21.841,5360.9773844778,165.354336,0.6263432,1.7714403454,0,0,-0.671082,343.5, 6, -1.3,0,0,1024,1024,1024,1024,342.9,-90,97,3.655,3.629,3.601,3.632,3.69,3.661,21.536,57.2,14,Waypoint,
37.2566355,-119.3807728,5362.9458884778,167.32284,0,1.3938976824,22510,2018-06-17 19:46:47,14,0,21.841,5362.9458884778,167.32284,0.6263432,1.7714403454,0,0,-0.671082,343.7, 4.2, -1.5,0,0,1024,1024,1024,1024,342.9,-90,97,3.655,3.629,3.601,3.632,3.69,3.661,21.536,57.2,14,Waypoint,
37.2566353,-119.3807727,5363.9301404778,168.307092,0,1.36680778652,22610,2018-06-17 19:46:47,14,0,21.841,5363.9301404778,168.307092,0.6263432,1.7714403454,0,0,-0.671082,343.6, 3.4, -1.7,0,0,1024,1024,1024,1024,342.9,-90,97,3.655,3.629,3.601,3.632,3.69,3.661,21.536,57.2,14,Waypoint,
37.2566352,-119.3807727,5364.9143924778,169.291344,0,1.36923888896,22710,2018-06-17 19:46:48,14,0,21.841,5364.9143924778,169.291344,0.6263432,1.7714403454,0,0,-0.671082,343.5, 3, -1.6,0,0,1024,1024,1024,1024,342.9,-90,97,3.655,3.629,3.601,3.632,3.69,3.661,21.536,57.2,14,Waypoint,
37.256635,-119.3807726,5365.8986444778,170.275596,0,1.34821854708,22810,2018-06-17 19:46:48,14,0,21.841,5365.8986444778,170.275596,0.6263432,1.7714403454,0,0,-0.671082,343.5, 3, -1.8,0,0,1024,1024,1024,1024,342.9,-89.9,97,3.655,3.629,3.601,3.632,3.69,3.661,21.536,57.2,14,Waypoint,
37.2566349,-119.3807726,5366.8828964778,171.259848,0,1.35363521392,22910,2018-06-17 19:46:48,14,0,21.841,5366.8828964778,171.259848,0.6263432,1.7714403454,0,0,-0.671082,343.6, 2.9, -2.1,0,0,1024,1024,1024,1024,342.9,-89.9,97,3.655,3.629,3.601,3.632,3.69,3.661,21.536,57.2,14,Waypoint,
37.2566349,-119.3807725,5367.8671484778,172.2441,0,1.32498691904,23010,2018-06-17 19:46:48,14,0,22,5367.8671484778,172.2441,0.6263432,1.7714403454,0,0,-0.671082,343.6, 3.1, -2.3,0,0,1024,1024,1024,1024,342.9,-89.9,96,3.687,3.661,3.638,3.652,3.71,3.69,19.841,57.2,14,Waypoint,
37.2566348,-119.3807724,5368.8514004778,173.228352,0,1.30301185272,23110,2018-06-17 19:46:48,14,0,22,5368.8514004778,173.228352,0.6263432,1.7714403454,0,0,-0.671082,343.7, 3.1, -2.8,0,0,1024,1024,1024,1024,342.9,-90,96,3.687,3.661,3.638,3.652,3.71,3.69,19.841,57.2,14,Waypoint,
37.2566347,-119.3807724,5369.8356524778,174.212604,0,1.31065292908,23210,2018-06-17 19:46:48,14,0,22,5369.8356524778,174.212604,0.6263432,1.7714403454,0,0,-0.671082,343.8, 3.1, -2.8,0,0,1024,1024,1024,1024,342.9,-89.9,96,3.687,3.661,3.638,3.652,3.71,3.69,19.841,57.2,14,Waypoint,
37.2566347,-119.3807723,5370.8199044778,175.196856,0,1.28235896492,23310,2018-06-17 19:46:48,14,0,22,5370.8199044778,175.196856,0.6263432,1.7714403454,0,0,-0.671082,343.8, 3.6, -2.8,0,0,1024,1024,1024,1024,342.9,-89.9,96,3.687,3.661,3.638,3.652,3.71,3.69,19.841,57.2,14,Waypoint,
37.2566347,-119.3807723,5371.8041564778,176.181108,0,1.28235896492,23410,2018-06-17 19:46:48,14,0,22,5371.8041564778,176.181108,0.6263432,1.7714403454,0,0,-0.671082,343.8, 3.9, -2.7,0,0,1024,1024,1024,1024,342.9,-89.9,96,3.687,3.661,3.638,3.652,3.71,3.69,19.841,57.2,14,Waypoint,
37.2566347,-119.3807722,5372.7884084778,177.16536,0,1.25409780916,23510,2018-06-17 19:46:48,14,0,22,5372.7884084778,177.16536,0.6263432,1.7714403454,0,0,-0.671082,343.9, 4, -2.4,0,0,1024,1024,1024,1024,342.9,-89.9,96,3.687,3.661,3.638,3.652,3.71,3.69,19.841,57.2,14,Waypoint,
37.2566347,-119.3807721,5374.4288284778,178.80578,0,1.22587602348,23710,2018-06-17 19:46:49,14,0,22,5374.4288284778,178.80578,0.6263432,1.7714403454,0,0,-0.671082,343.6, 4.1, -2.6,0,0,1024,1024,1024,1024,342.9,-89.9,96,3.687,3.661,3.638,3.652,3.71,3.69,19.841,57.2,14,Waypoint,
37.2566347,-119.3807719,5375.4130804778,179.790032,0,1.16954728152,23910,2018-06-17 19:46:49,14,0,22,5375.4130804778,179.790032,0.6263432,1.7714403454,0,0,-0.671082,343.5, 4, -3,0,0,1024,1024,1024,1024,342.9,-89.9,96,3.687,3.661,3.638,3.652,3.71,3.69,19.841,57.2,14,Waypoint,
37.2566346,-119.3807718,5376.3973324778,180.774284,0,1.15132221532,24010,2018-06-17 19:46:49,14,0,21.822,5376.3973324778,180.774284,0.6263432,1.7714403454,0,0,-0.671082,343.3, 3.8, -3.5,0,0,1024,1024,1024,1024,342.9,-89.9,96,3.635,3.622,3.596,3.633,3.667,3.648,21.258,59,14,Waypoint,
37.2566346,-119.3807717,5377.3815844778,181.758536,0,1.12351709632,24110,2018-06-17 19:46:49,14,0,21.822,5377.3815844778,181.758536,0.6263432,1.7714403454,0,0,-0.671082,343.3, 3.8, -3.9,0,0,1024,1024,1024,1024,342.9,-89.9,96,3.635,3.622,3.596,3.633,3.667,3.648,21.258,59,14,Waypoint,
37.2566346,-119.3807716,5378.3658364778,182.742788,0,1.09578087496,24210,2018-06-17 19:46:49,14,0,21.822,5378.3658364778,182.742788,0.6263432,1.7714403454,0,0,-0.671082,343.2, 3.7, -4,0,0,1024,1024,1024,1024,342.9,-90,96,3.635,3.622,3.596,3.633,3.667,3.648,21.258,59,14,Waypoint,
37.2566345,-119.3807714,5379.3500884778,183.72704,0,1.05259845888,24310,2018-06-17 19:46:49,14,0,21.822,5379.3500884778,183.72704,0.6263432,1.7714403454,0,0,-0.671082,343.3, 3.5, -3.8,0,0,1024,1024,1024,1024,342.9,-90,96,3.635,3.622,3.596,3.633,3.667,3.648,21.258,59,14,Waypoint,
37.2566345,-119.3807713,5380.3343404778,184.711292,0,1.02540685696,24410,2018-06-17 19:46:49,14,0,21.822,5380.3343404778,184.711292,0.6263432,1.7714403454,0,0,-0.671082,343.5, 3.3, -3.7,0,0,1024,1024,1024,1024,342.9,-89.9,96,3.635,3.622,3.596,3.633,3.667,3.648,21.258,59,14,Waypoint,
37.2566345,-119.3807712,5381.3185924778,185.695544,0,0.99832352276,24510,2018-06-17 19:46:49,14,0,21.822,5381.3185924778,185.695544,0.6263432,1.7714403454,0,0,-0.671082,343.5, 3.2, -3.7,0,0,1024,1024,1024,1024,342.9,-89.9,96,3.635,3.622,3.596,3.633,3.667,3.648,21.258,59,14,Waypoint,
37.2566345,-119.3807711,5382.3028444778,186.679796,0,0.97134845628,24610,2018-06-17 19:46:49,14,0,21.822,5382.3028444778,186.679796,0.6263432,1.7714403454,0,0,-0.671082,343.5, 3.4, -3.7,0,0,1024,1024,1024,1024,342.9,-89.9,96,3.635,3.622,3.596,3.633,3.667,3.648,21.258,59,14,Waypoint,
37.2566345,-119.380771,5383.2870964778,187.664048,0,0.94450134256,24710,2018-06-17 19:46:50,14,0,21.822,5383.2870964778,187.664048,0.6263432,1.7714403454,0,0,-0.671082,343.4, 3.7, -3.5,0,0,1024,1024,1024,1024,342.9,-89.9,96,3.635,3.622,3.596,3.633,3.667,3.648,21.258,59,14,Waypoint,
37.2566345,-119.380771,5384.2713484778,188.6483,0,0.94450134256,24810,2018-06-17 19:46:50,14,0,21.822,5384.2713484778,188.6483,0.6263432,1.7714403454,0,0,-0.671082,343.5, 3.7, -3.7,0,0,1024,1024,1024,1024,342.9,-89.9,96,3.635,3.622,3.596,3.633,3.667,3.648,21.258,59,14,Waypoint,
37.2566345,-119.3807709,5386.2398524778,190.616804,0.223694,0.9177821816,24910,2018-06-17 19:46:50,14,0,21.822,5386.2398524778,190.616804,0.6263432,1.7714403454,0,0,-0.671082,343.7, 4, -4.1,0,0,1024,1024,1024,1024,342.9,-89.9,96,3.635,3.622,3.596,3.633,3.667,3.648,21.258,59,14,Waypoint,
37.2566345,-119.3807708,5387.2241044778,191.601056,0,0.89121065844,25010,2018-06-17 19:46:50,14,0,21.683,5387.2241044778,191.601056,0.6263432,1.7714403454,0,0,-0.671082,343.6, 4.4, -3.9,0,0,1024,1024,1024,1024,342.9,-89.9,96,3.615,3.596,3.569,3.614,3.644,3.629,22.567,59,14,Waypoint,
37.2566345,-119.3807707,5388.2083564778,192.585308,0,0.86479989644,25110,2018-06-17 19:46:50,14,0,21.683,5388.2083564778,192.585308,0.6263432,1.7714403454,0,0,-0.671082,343.6, 4.4, -3.6,0,0,1024,1024,1024,1024,342.9,-89.9,96,3.615,3.596,3.569,3.614,3.644,3.629,22.567,59,14,Waypoint,
37.2566345,-119.3807706,5389.1926084778,193.56956,0,0.83855973812,25210,2018-06-17 19:46:50,14,0,21.683,5389.1926084778,193.56956,0.6263432,1.7714403454,0,0,-0.671082,343.5, 3.8, -4.6,0,0,1024,1024,1024,1024,342.9,-90,96,3.615,3.596,3.569,3.614,3.644,3.629,22.567,59,14,Waypoint,
37.2566345,-119.3807706,5390.1768604778,194.553812,0,0.83855973812,25310,2018-06-17 19:46:50,14,0,21.683,5390.1768604778,194.553812,0.6263432,1.7714403454,0,0,-0.671082,343.4, 3.5, -4.8,0,0,1024,1024,1024,1024,342.9,-90,96,3.615,3.596,3.569,3.614,3.644,3.629,22.567,59,14,Waypoint,
37.2566346,-119.3807706,5390.8330284778,195.20998,0.223694,0.82333992136,25410,2018-06-17 19:46:50,14,0,21.683,5390.8330284778,195.20998,0.6263432,1.7714403454,0,0,-0.671082,343.4, 4, -4.8,0,0,1024,1024,1024,1024,342.9,-89.9,96,3.615,3.596,3.569,3.614,3.644,3.629,22.567,59,14,Waypoint,
