latitude,longitude,altitude(feet),ascent(feet),speed(mph),distance(feet),time(millisecond),datetime(utc),satellites,gpslevel,voltage(v),max_altitude(feet),max_ascent(feet),max_speed(mph),max_distance(feet), xSpeed(mph), ySpeed(mph), zSpeed(mph), compass_heading(degrees), pitch(degrees), roll(degrees),isPhoto,isVideo,rc_elevator,rc_aileron,rc_throttle,rc_rudder,gimbal_heading(degrees),gimbal_pitch(degrees),battery_percent,voltageCell1,voltageCell2,voltageCell3,voltageCell4,voltageCell5,voltageCell6,current(A),battery_temperature(f),flycStateRaw,flycState,message
37.2566066,-119.3807986,5196.3923155628,-0.328084,0.223694,0,3200,2018-06-17 20:04:48,10,0,0,5196.3923155628,0,0.223694,0,0,0,0,335.3, 0.5, 0.5,1,0,1024,1024,1024,1024,335.3,-89.9,98,4.14,4.127,4.155,4.146,4.209,4.139,0,57.2,11,AutoTakeoff,DJI_0157.jpg Starting Mission from Lat/Long: 37.25661/-119.38080 Camera: Zenmuse X3 - Overlap: 90/90 - Active Connection: No
37.2566065,-119.3807986,5196.3923155628,-0.328084,0.223694,0.036484909304,3300,2018-06-17 20:04:48,9,0,0,5196.3923155628,0,0.223694,0.036484909304,0,0,0,335.6, -0.3, 1,0,0,1024,1024,1024,1024,335.3,-90,98,4.14,4.127,4.155,4.146,4.209,4.139,0,57.2,11,AutoTakeoff,
37.2566063,-119.3807986,5196.7203995628,0,0.223694,0.109454727912,3400,2018-06-17 20:04:48,9,0,0,5196.7203995628,0,0.223694,0.109454727912,0,0,0,335.7, -0.8, 1,0,0,1024,1024,1024,1024,335.3,-89.9,98,4.14,4.127,4.155,4.146,4.209,4.139,0,57.2,11,AutoTakeoff,
37.2566062,-119.3807986,5196.7203995628,0,0.223694,0.145939637216,3500,2018-06-17 20:04:48,10,0,0,5196.7203995628,0,0.223694,0.145939637216,0,0,0,335.8, -0.8, 0.9,0,0,1024,1024,1024,1024,335.3,-90,98,4.14,4.127,4.155,4.146,4.209,4.139,0,57.2,11,AutoTakeoff,
37.256606,-119.3807986,5196.7203995628,0,0.223694,0.218909783908,3600,2018-06-17 20:04:48,10,0,0,5196.7203995628,0,0.223694,0.218909783908,0,0,0,335.8, -0.7, 0.7,0,0,1024,1024,1024,1024,335.3,-89.9,98,4.14,4.127,4.155,4.146,4.209,4.139,0,57.2,11,AutoTakeoff,
37.2566058,-119.3807986,5196.7203995628,0,0.223694,0.291879602516,3700,2018-06-17 20:04:48,10,0,0,5196.7203995628,0,0.223694,0.291879602516,0,0,0,335.7, -0.6, 0.5,0,0,1024,1024,1024,1024,335.3,-89.9,98,4.14,4.127,4.155,4.146,4.209,4.139,0,57.2,11,AutoTakeoff,
37.2566057,-119.3807987,5197.0484835628,0.328084,0,0.32964567984,3800,2018-06-17 20:04:48,10,0,0,5197.0484835628,0.328084,0.223694,0.32964567984,0,0,0,335.5, -0.7, 0.5,0,0,1024,1024,1024,1024,335.3,-90,98,4.14,4.127,4.155,4.146,4.209,4.139,0,57.2,11,AutoTakeoff,
37.2566056,-119.3807987,5197.0484835628,0.328084,0,0.36600394872,3900,2018-06-17 20:04:48,10,0,0,5197.0484835628,0.328084,0.223694,0.36600394872,0,0,0,335.4, -0.6, 0.5,0,0,1024,1024,1024,1024,335.3,-89.9,98,4.14,4.127,4.155,4.146,4.209,4.139,0,57.2,11,AutoTakeoff,
37.2566056,-119.3807987,5197.3765675628,0.656168,0,0.36600394872,4000,2018-06-17 20:04:48,10,0,25.208,5197.3765675628,0.656168,0.223694,0.36600394872,0,0,0,335.2, -0.3, 0.7,0,0,1024,1024,1024,1024,335.3,-89.9,98,4.14,4.127,4.155,4.146,4.209,4.139,3.421,57.2,11,AutoTakeoff,
37.2566055,-119.3807986,5197.3765675628,0.656168,0,0.40133531468,4100,2018-06-17 20:04:48,8,0,25.208,5197.3765675628,0.656168,0.223694,0.40133531468,0,0,0,335.1, -0.2, 0.5,0,0,1024,1024,1024,1024,335.3,-89.9,98,4.14,4.127,4.155,4.146,4.209,4.139,3.421,57.2,11,AutoTakeoff,
37.2566055,-119.3807986,5197.7046515628,0.984252,0,0.40133531468,4200,2018-06-17 20:04:49,8,0,25.208,5197.7046515628,0.984252,0.223694,0.40133531468,0,0,0,335, 0, 0.5,0,0,1024,1024,1024,1024,335.3,-89.9,98,4.14,4.127,4.155,4.146,4.209,4.139,3.421,57.2,11,AutoTakeoff,
37.2566056,-119.3807986,5198.0327355628,1.312336,0,0.36484909304,4300,2018-06-17 20:04:49,9,0,25.208,5198.0327355628,1.312336,0.223694,0.40133531468,0,0,0,335, 0.1, 0.6,0,0,1024,1024,1024,1024,335.3,-89.9,98,4.14,4.127,4.155,4.146,4.209,4.139,3.421,57.2,11,AutoTakeoff,
37.2566056,-119.3807987,5198.0327355628,1.312336,0,0.36600394872,4400,2018-06-17 20:04:49,9,0,25.208,5198.0327355628,1.312336,0.223694,0.40133531468,0,0,0,334.9, 0.2, 0.5,0,0,1024,1024,1024,1024,335.3,-89.9,98,4.14,4.127,4.155,4.146,4.209,4.139,3.421,57.2,11,AutoTakeoff,
37.2566056,-119.3807987,5198.3608195628,1.64042,0,0.36600394872,4500,2018-06-17 20:04:49,9,0,25.208,5198.3608195628,1.64042,0.223694,0.40133531468,0,0,0,335, 0.2, 0.5,0,0,1024,1024,1024,1024,335.3,-89.9,98,4.14,4.127,4.155,4.146,4.209,4.139,3.421,57.2,11,AutoTakeoff,
37.2566056,-119.3807986,5198.6889035628,1.968504,0,0.36484909304,4600,2018-06-17 20:04:49,8,0,25.208,5198.6889035628,1.968504,0.223694,0.40133531468,0,0,0,335.1, 0.4, 0.5,0,0,1024,1024,1024,1024,335.3,-89.9,98,4.14,4.127,4.155,4.146,4.209,4.139,3.421,57.2,11,AutoTakeoff,
37.2566057,-119.3807986,5198.6889035628,1.968504,0,0.3283628714,4700,2018-06-17 20:04:49,8,0,25.208,5198.6889035628,1.968504,0.223694,0.40133531468,0,0,0,335.1, 0.4, 0.4,0,0,1024,1024,1024,1024,335.3,-89.9,98,4.14,4.127,4.155,4.146,4.209,4.139,3.421,57.2,11,AutoTakeoff,
37.2566057,-119.3807985,5199.0169875628,2.296588,0,0.32964567984,4800,2018-06-17 20:04:49,8,0,25.208,5199.0169875628,2.296588,0.223694,0.40133531468,0,0,0,335.2, 0.4, 0.2,0,0,1024,1024,1024,1024,335.3,-89.9,98,4.14,4.127,4.155,4.146,4.209,4.139,3.421,57.2,11,AutoTakeoff,
37.2566058,-119.3807984,5199.0169875628,2.296588,0,0.29760171556,4900,2018-06-17 20:04:49,8,0,25.208,5199.0169875628,2.296588,0.223694,0.40133531468,0,0,0,335.3, 0.4, 0,0,0,1024,1024,1024,1024,335.3,-89.9,98,4.14,4.127,4.155,4.146,4.209,4.139,3.421,57.2,11,AutoTakeoff,
37.2566058,-119.3807983,5199.3450715628,2.624672,0,0.304603684288,5100,2018-06-17 20:04:49,8,0,25.208,5199.3450715628,2.624672,0.223694,0.40133531468,0,0,0,335.4, 0.4, -0.3,0,0,1024,1024,1024,1024,335.3,-89.9,98,4.14,4.127,4.155,4.146,4.209,4.139,3.421,57.2,11,AutoTakeoff,
37.2566058,-119.3807983,5199.3450715628,2.624672,0,0.304603684288,5200,2018-06-17 20:04:50,8,0,25.208,5199.3450715628,2.624672,0.223694,0.40133531468,0,0,0,335.4, 0.4, -0.3,0,0,1024,1024,1024,1024,335.3,-89.9,98,4.14,4.127,4.155,4.146,4.209,4.139,3.421,57.2,11,AutoTakeoff,
37.2566057,-119.3807982,5199.6731555628,2.952756,0,0.34830381692,5300,2018-06-17 20:04:50,8,0,25.208,5199.6731555628,2.952756,0.223694,0.40133531468,0,0,0,335.5, 0.3, -0.3,0,0,1024,1024,1024,1024,335.3,-89.9,98,4.14,4.127,4.155,4.146,4.209,4.139,3.421,57.2,6,P-GPS,
37.2566058,-119.3807983,5199.6731555628,2.952756,0,0.304603684288,5400,2018-06-17 20:04:50,8,0,25.208,5199.6731555628,2.952756,0.223694,0.40133531468,0,0,0,335.5, 0.3, -0.2,0,0,1024,1024,1024,1024,335.3,-89.9,98,4.14,4.127,4.155,4.146,4.209,4.139,3.421,57.2,14,Waypoint,
37.2566059,-119.3807983,5200.0012395628,3.28084,0,0.269844496824,5500,2018-06-17 20:04:50,10,0,25.208,5200.0012395628,3.28084,0.223694,0.40133531468,0,0,0,335.6, 0.6, 0,0,0,1024,1024,1024,1024,335.3,-89.9,98,4.14,4.127,4.155,4.146,4.209,4.139,3.421,57.2,14,Waypoint,
37.256606,-119.3807983,5200.0012395628,3.28084,0,0.235607947172,5600,2018-06-17 20:04:50,10,0,25.208,5200.0012395628,3.28084,0.223694,0.40133531468,0,0,0,335.7, 0.9, 0.1,0,0,1024,1024,1024,1024,335.3,-89.9,98,4.14,4.127,4.155,4.146,4.209,4.139,3.421,57.2,14,Waypoint,
37.256606,-119.3807982,5200.0012395628,3.28084,0,0.247818905568,5700,2018-06-17 20:04:50,10,0,25.208,5200.0012395628,3.28084,0.223694,0.40133531468,0,0,0,335.8, 1, 0.1,0,0,1024,1024,1024,1024,335.3,-89.9,98,4.14,4.127,4.155,4.146,4.209,4.139,3.421,57.2,14,Waypoint,
37.2566061,-119.3807983,5200.3293235628,3.608924,0,0.202159455288,5800,2018-06-17 20:04:50,10,0,25.208,5200.3293235628,3.608924,0.223694,0.40133531468,0,0,0,335.9, 1, 0.1,0,0,1024,1024,1024,1024,335.3,-89.9,98,4.14,4.127,4.155,4.146,4.209,4.139,3.421,57.2,14,Waypoint,
37.2566062,-119.3807983,5200.3293235628,3.608924,0,0.169964900452,5900,2018-06-17 20:04:50,11,0,25.208,5200.3293235628,3.608924,0.223694,0.40133531468,0,0,-0.223694,336, 1, 0,0,0,1024,1024,1024,1024,335.3,-89.9,98,4.14,4.127,4.155,4.146,4.209,4.139,3.421,57.2,14,Waypoint,
37.2566063,-119.3807982,5200.6574075628,3.937008,0,0.15960302348,6000,2018-06-17 20:04:50,11,0,22.822,5200.6574075628,3.937008,0.223694,0.40133531468,0,0,-0.223694,336.1, 0.9, -0.1,0,0,1024,1024,1024,1024,335.3,-89.9,98,3.792,3.79,3.799,3.808,3.834,3.817,17.256,57.2,14,Waypoint,
37.2566063,-119.3807982,5200.6574075628,3.937008,0,0.15960302348,6100,2018-06-17 20:04:50,9,0,22.822,5200.6574075628,3.937008,0.223694,0.40133531468,0,0,-0.223694,336.1, 0.9, 0,0,0,1024,1024,1024,1024,335.3,-89.9,98,3.792,3.79,3.799,3.808,3.834,3.817,17.256,57.2,14,Waypoint,
37.2566063,-119.3807982,5200.9854915628,4.265092,0,0.15960302348,6200,2018-06-17 20:04:51,9,0,22.822,5200.9854915628,4.265092,0.223694,0.40133531468,0,0,-0.223694,336, 0.8, 0,0,0,1024,1024,1024,1024,335.3,-90,98,3.792,3.79,3.799,3.808,3.834,3.817,17.256,57.2,14,Waypoint,
37.2566063,-119.3807981,5201.6416595628,4.92126,0,0.181831698732,6300,2018-06-17 20:04:51,9,0,22.822,5201.6416595628,4.92126,0.223694,0.40133531468,0,0,-0.223694,336, 0.7, -0.1,0,0,1024,1024,1024,1024,335.3,-89.9,98,3.792,3.79,3.799,3.808,3.834,3.817,17.256,57.2,14,Waypoint,
37.2566062,-119.3807982,5201.9697435628,5.249344,0,0.1865239561,6400,2018-06-17 20:04:51,9,0,22.822,5201.9697435628,5.249344,0.223694,0.40133531468,0,0,-0.447388,336, 0.5, -0.1,0,0,1024,1024,1024,1024,335.3,-90,98,3.792,3.79,3.799,3.808,3.834,3.817,17.256,57.2,14,Waypoint,
37.2566063,-119.3807982,5202.6259115628,5.905512,0,0.15960302348,6500,2018-06-17 20:04:51,8,0,22.822,5202.6259115628,5.905512,0.223694,0.40133531468,0,0,-0.447388,335.9, 0.5, 0,0,0,1024,1024,1024,1024,335.3,-89.9,98,3.792,3.79,3.799,3.808,3.834,3.817,17.256,57.2,14,Waypoint,
37.2566064,-119.3807983,5203.2820795628,6.56168,0,0.113640751668,6600,2018-06-17 20:04:51,8,0,22.822,5203.2820795628,6.56168,0.223694,0.40133531468,0,0,-0.447388,335.9, 0.6, 0.5,0,0,1024,1024,1024,1024,335.3,-89.9,98,3.792,3.79,3.799,3.808,3.834,3.817,17.256,57.2,14,Waypoint,
37.2566065,-119.3807984,5203.9382475628,7.217848,0,0.068588256788,6700,2018-06-17 20:04:51,8,0,22.822,5203.9382475628,7.217848,0.223694,0.40133531468,0,0,-0.447388,335.9, 1, 0.7,0,0,1024,1024,1024,1024,335.3,-89.9,98,3.792,3.79,3.799,3.808,3.834,3.817,17.256,57.2,14,Waypoint,
37.2566065,-119.3807985,5204.5944155628,7.874016,0,0.046630907004,6800,2018-06-17 20:04:51,8,0,22.822,5204.5944155628,7.874016,0.223694,0.40133531468,0,0,-0.447388,336, 1.2, 0.7,0,0,1024,1024,1024,1024,335.3,-89.9,98,3.792,3.79,3.799,3.808,3.834,3.817,17.256,57.2,14,Waypoint,
37.2566063,-119.3807984,5206.2348355628,9.514436,0,0.123909452784,6900,2018-06-17 20:04:51,10,0,22.822,5206.2348355628,9.514436,0.223694,0.40133531468,0,0,-0.671082,336, 1.1, 0.4,0,0,1024,1024,1024,1024,335.3,-89.9,98,3.792,3.79,3.799,3.808,3.834,3.817,17.256,57.2,14,Waypoint,
37.2566061,-119.3807985,5207.2190875628,10.498688,0,0.184721462604,7000,2018-06-17 20:04:51,10,0,22.515,5207.2190875628,10.498688,0.223694,0.40133531468,0,0,-0.671082,336, 0.7, 0.3,0,0,1024,1024,1024,1024,335.3,-89.9,98,3.704,3.69,3.709,3.729,3.764,3.688,19.161,57.2,14,Waypoint,
37.2566058,-119.3807989,5209.5156755628,12.795276,0,0.304603684288,7210,2018-06-17 20:04:52,10,0,22.515,5209.5156755628,12.795276,0.223694,0.40133531468,0,0,-0.671082,335.8, 0, 1.1,0,0,1024,1024,1024,1024,335.3,-90,98,3.704,3.69,3.709,3.729,3.764,3.688,19.161,57.2,14,Waypoint,
37.2566055,-119.3807994,5210.8280115628,14.107612,0.223694,0.46372376812,7400,2018-06-17 20:04:52,10,0,22.515,5210.8280115628,14.107612,0.223694,0.46372376812,0,0,-0.671082,335.7, -0.3, 1.8,0,0,1024,1024,1024,1024,335.3,-90,98,3.704,3.69,3.709,3.729,3.764,3.688,19.161,57.2,14,Waypoint,
37.2566053,-119.3807997,5211.8122635628,15.091864,0.223694,0.57184056948,7500,2018-06-17 20:04:52,9,0,22.515,5211.8122635628,15.091864,0.223694,0.57184056948,0,0,-0.671082,335.6, -0.3, 2.4,0,0,1024,1024,1024,1024,335.3,-90,98,3.704,3.69,3.709,3.729,3.764,3.688,19.161,57.2,14,Waypoint,
37.2566054,-119.3807998,5213.1245995628,16.4042,0,0.55957022788,7600,2018-06-17 20:04:52,9,0,22.515,5213.1245995628,16.4042,0.223694,0.57184056948,0,0,-0.671082,335.6, 0, 2.7,0,0,1024,1024,1024,1024,335.3,-89.9,98,3.704,3.69,3.709,3.729,3.764,3.688,19.161,57.2,14,Waypoint,
37.2566055,-119.3807998,5214.1088515628,17.388452,0,0.53150920336,7700,2018-06-17 20:04:52,10,0,22.515,5214.1088515628,17.388452,0.223694,0.57184056948,0,0,-0.671082,335.6, 0.5, 2.4,0,0,1024,1024,1024,1024,335.3,-89.9,98,3.704,3.69,3.709,3.729,3.764,3.688,19.161,57.2,14,Waypoint,
37.2566055,-119.3807996,5215.0931035628,18.372704,0,0.49537731244,7800,2018-06-17 20:04:52,10,0,22.515,5215.0931035628,18.372704,0.223694,0.57184056948,0,0,-0.671082,335.6, 0.9, 1.8,0,0,1024,1024,1024,1024,335.3,-89.9,98,3.704,3.69,3.709,3.729,3.764,3.688,19.161,57.2,14,Waypoint,
37.2566056,-119.3807994,5216.4054395628,19.68504,0,0.43253282224,7900,2018-06-17 20:04:52,10,0,22.515,5216.4054395628,19.68504,0.223694,0.57184056948,0,0,-0.671082,335.5, 1, 1.2,0,0,1024,1024,1024,1024,335.3,-89.9,98,3.704,3.69,3.709,3.729,3.764,3.688,19.161,57.2,14,Waypoint,
37.2566057,-119.3807991,5217.3896915628,20.669292,0,0.35903544456,8000,2018-06-17 20:04:52,10,0,21.792,5217.3896915628,20.669292,0.223694,0.57184056948,0,0,-0.671082,335.5, 0.9, 0.5,0,0,1024,1024,1024,1024,335.3,-89.9,98,3.704,3.69,3.709,3.729,3.764,3.688,25.214,57.2,14,Waypoint,
37.2566058,-119.3807988,5218.7020275628,21.981628,0,0.29760171556,8100,2018-06-17 20:04:52,10,0,21.792,5218.7020275628,21.981628,0.223694,0.57184056948,0,0,-0.671082,335.5, 1, 0,0,0,1024,1024,1024,1024,335.3,-89.9,98,3.704,3.69,3.709,3.729,3.764,3.688,25.214,57.2,14,Waypoint,
37.256606,-119.3807985,5219.6862795628,22.96588,0,0.220827434888,8200,2018-06-17 20:04:53,10,0,21.792,5219.6862795628,22.96588,0.223694,0.57184056948,0,0,-0.671082,335.4, 1.1, -0.6,0,0,1024,1024,1024,1024,335.3,-89.9,98,3.704,3.69,3.709,3.729,3.764,3.688,25.214,57.2,14,Waypoint,
37.2566063,-119.3807981,5220.6705315628,23.950132,0,0.181831698732,8300,2018-06-17 20:04:53,9,0,21.792,5220.6705315628,23.950132,0.223694,0.57184056948,0,0,-0.671082,335.4, 1.1, -1.3,0,0,1024,1024,1024,1024,335.3,-89.9,98,3.704,3.69,3.709,3.729,3.764,3.688,25.214,57.2,14,Waypoint,
37.2566065,-119.3807978,5221.9828675628,25.262468,0,0.235163721436,8400,2018-06-17 20:04:53,9,0,21.792,5221.9828675628,25.262468,0.223694,0.57184056948,0,0,-0.671082,335.3, 1.1, -1.6,0,0,1024,1024,1024,1024,335.3,-89.9,98,3.704,3.69,3.709,3.729,3.764,3.688,25.214,57.2,14,Waypoint,
37.2566068,-119.3807975,5222.9671195628,26.24672,0,0.327663396312,8500,2018-06-17 20:04:53,9,0,21.792,5222.9671195628,26.24672,0.223694,0.57184056948,0,0,-0.671082,335.2, 1.3, -1.7,0,0,1024,1024,1024,1024,335.3,-89.9,98,3.704,3.69,3.709,3.729,3.764,3.688,25.214,57.2,14,Waypoint,
37.2566068,-119.3807973,5224.2794555628,27.559056,0,0.38450132464,8600,2018-06-17 20:04:53,9,0,21.792,5224.2794555628,27.559056,0.223694,0.57184056948,0,0,-0.671082,335.1, 1.4, -1.7,0,0,1024,1024,1024,1024,335.3,-89.9,98,3.704,3.69,3.709,3.729,3.764,3.688,25.214,57.2,14,Waypoint,
37.2566069,-119.3807972,5225.2637075628,28.543308,0,0.4210301972,8700,2018-06-17 20:04:53,9,0,21.792,5225.2637075628,28.543308,0.223694,0.57184056948,0,0,-0.671082,335.2, 1.2, -1.5,0,0,1024,1024,1024,1024,335.3,-89.9,98,3.704,3.69,3.709,3.729,3.764,3.688,25.214,57.2,14,Waypoint,
37.256607,-119.3807971,5226.2479595628,29.52756,0,0.45938977848,8800,2018-06-17 20:04:53,9,0,21.792,5226.2479595628,29.52756,0.223694,0.57184056948,0,0,-0.671082,335.3, 0.8, -1.2,0,0,1024,1024,1024,1024,335.3,-89.9,98,3.704,3.69,3.709,3.729,3.764,3.688,25.214,57.2,14,Waypoint,
37.2566071,-119.380797,5227.2322115628,30.511812,0,0.49916012096,8900,2018-06-17 20:04:53,9,0,21.792,5227.2322115628,30.511812,0.223694,0.57184056948,0,0,-0.671082,335.3, 0.9, -0.8,0,0,1024,1024,1024,1024,335.3,-89.9,98,3.704,3.69,3.709,3.729,3.764,3.688,25.214,57.2,14,Waypoint,
37.2566075,-119.3807968,5229.2007155628,32.480316,0,0.61729332684,9000,2018-06-17 20:04:53,10,0,21.792,5229.2007155628,32.480316,0.223694,0.61729332684,0,0,-0.671082,335.4, 1.5, -0.8,0,0,1024,1024,1024,1024,335.3,-89.9,98,3.648,3.661,3.652,3.673,3.691,3.676,25.214,57.2,14,Waypoint,
37.2566077,-119.3807971,5231.4973035628,34.776904,0,0.59229332604,9200,2018-06-17 20:04:54,10,0,21.792,5231.4973035628,34.776904,0.223694,0.61729332684,0,0,-0.671082,335.6, 2.3, -0.7,0,0,1024,1024,1024,1024,335.3,-89.9,98,3.648,3.661,3.652,3.673,3.691,3.676,25.214,57.2,14,Waypoint,
37.2566078,-119.3807972,5232.4815555628,35.761156,0,0.59747049156,9300,2018-06-17 20:04:54,10,0,21.792,5232.4815555628,35.761156,0.223694,0.61729332684,0,0,-0.671082,335.7, 2.7, -0.3,0,0,1024,1024,1024,1024,335.3,-89.9,98,3.648,3.661,3.652,3.673,3.691,3.676,25.214,57.2,14,Waypoint,
37.2566078,-119.3807972,5233.4658075628,36.745408,0,0.59747049156,9400,2018-06-17 20:04:54,10,0,21.792,5233.4658075628,36.745408,0.223694,0.61729332684,0,0,-0.671082,335.6, 2.6, -0.1,0,0,1024,1024,1024,1024,335.3,-89.9,98,3.648,3.661,3.652,3.673,3.691,3.676,25.214,57.2,14,Waypoint,
37.2566079,-119.3807973,5234.4500595628,37.72966,0.223694,0.6062008068,9500,2018-06-17 20:04:54,10,0,21.792,5234.4500595628,37.72966,0.223694,0.61729332684,0,0,-0.671082,335.5, 2.4, 0,0,0,1024,1024,1024,1024,335.3,-89.9,98,3.648,3.661,3.652,3.673,3.691,3.676,25.214,57.2,14,Waypoint,
37.2566079,-119.3807974,5235.4343115628,38.713912,0.223694,0.58855644928,9600,2018-06-17 20:04:54,10,0,21.792,5235.4343115628,38.713912,0.223694,0.61729332684,0,0,-0.671082,335.5, 2.3, 0.3,0,0,1024,1024,1024,1024,335.3,-89.9,98,3.648,3.661,3.652,3.673,3.691,3.676,25.214,57.2,14,Waypoint,
37.2566078,-119.3807974,5236.4185635628,39.698164,0,0.55957022788,9800,2018-06-17 20:04:54,10,0,21.792,5236.4185635628,39.698164,0.223694,0.61729332684,0,0,-0.671082,335.5, 2.2, 0.2,0,0,1024,1024,1024,1024,335.3,-89.9,98,3.648,3.661,3.652,3.673,3.691,3.676,25.214,57.2,14,Waypoint,
37.2566078,-119.3807974,5237.4028155628,40.682416,0,0.55957022788,9900,2018-06-17 20:04:54,10,0,21.792,5237.4028155628,40.682416,0.223694,0.61729332684,0,0,-0.671082,335.5, 1.8, 0.2,0,0,1024,1024,1024,1024,335.3,-89.9,98,3.648,3.661,3.652,3.673,3.691,3.676,25.214,57.2,14,Waypoint,
37.2566078,-119.3807975,5238.3870675628,41.666668,0,0.5419619596,10000,2018-06-17 20:04:54,10,0,22.308,5238.3870675628,41.666668,0.223694,0.61729332684,0,0,-0.671082,335.6, 1.5, 0.2,0,0,1024,1024,1024,1024,335.3,-89.9,98,3.706,3.707,3.718,3.721,3.749,3.711,19.85,57.2,14,Waypoint,
37.2566079,-119.3807976,5239.3713195628,42.65092,0,0.55614175008,10100,2018-06-17 20:04:54,9,0,22.308,5239.3713195628,42.65092,0.223694,0.61729332684,0,0,-0.671082,335.7, 1.4, 0.4,0,0,1024,1024,1024,1024,335.3,-89.9,98,3.706,3.707,3.718,3.721,3.749,3.711,19.85,57.2,14,Waypoint,
37.2566079,-119.3807975,5240.3555715628,43.635172,0,0.57184056948,10200,2018-06-17 20:04:55,9,0,22.308,5240.3555715628,43.635172,0.223694,0.61729332684,0,0,-0.671082,335.7, 1.6, 0.6,0,0,1024,1024,1024,1024,335.3,-89.9,98,3.706,3.707,3.718,3.721,3.749,3.711,19.85,57.2,14,Waypoint,
37.2566079,-119.3807975,5241.3398235628,44.619424,0,0.57184056948,10300,2018-06-17 20:04:55,9,0,22.308,5241.3398235628,44.619424,0.223694,0.61729332684,0,0,-0.671082,335.7, 1.5, 0.4,0,0,1024,1024,1024,1024,335.3,-89.9,98,3.706,3.707,3.718,3.721,3.749,3.711,19.85,57.2,14,Waypoint,
37.2566079,-119.3807976,5242.3240755628,45.603676,0,0.55614175008,10400,2018-06-17 20:04:55,9,0,22.308,5242.3240755628,45.603676,0.223694,0.61729332684,0,0,-0.671082,335.7, 1.6, 0.1,0,0,1024,1024,1024,1024,335.3,-89.9,98,3.706,3.707,3.718,3.721,3.749,3.711,19.85,57.2,14,Waypoint,
37.2566079,-119.3807976,5243.3083275628,46.587928,0,0.55614175008,10500,2018-06-17 20:04:55,9,0,22.308,5243.3083275628,46.587928,0.223694,0.61729332684,0,0,-0.671082,335.7, 1.7, -0.1,0,0,1024,1024,1024,1024,335.3,-89.9,98,3.706,3.707,3.718,3.721,3.749,3.711,19.85,57.2,14,Waypoint,
37.2566079,-119.3807975,5244.2925795628,47.57218,0,0.57184056948,10600,2018-06-17 20:04:55,9,0,22.308,5244.2925795628,47.57218,0.223694,0.61729332684,0,0,-0.671082,335.8, 1.9, -0.1,0,0,1024,1024,1024,1024,335.3,-89.9,98,3.706,3.707,3.718,3.721,3.749,3.711,19.85,57.2,14,Waypoint,
37.2566079,-119.3807975,5245.2768315628,48.556432,0,0.57184056948,10700,2018-06-17 20:04:55,9,0,22.308,5245.2768315628,48.556432,0.223694,0.61729332684,0,0,-0.671082,335.9, 1.9, -0.2,0,0,1024,1024,1024,1024,335.3,-89.9,98,3.706,3.707,3.718,3.721,3.749,3.711,19.85,57.2,14,Waypoint,
37.2566078,-119.3807976,5246.2610835628,49.540684,0,0.52537075172,10800,2018-06-17 20:04:55,9,0,22.308,5246.2610835628,49.540684,0.223694,0.61729332684,0,0,-0.671082,335.9, 2, -0.3,0,0,1024,1024,1024,1024,335.3,-89.9,98,3.706,3.707,3.718,3.721,3.749,3.711,19.85,57.2,14,Waypoint,
37.2566077,-119.3807977,5247.2453355628,50.524936,0.223694,0.47893374236,10900,2018-06-17 20:04:55,8,0,22.308,5247.2453355628,50.524936,0.223694,0.61729332684,0,0,-0.671082,335.9, 2, -0.1,0,0,1024,1024,1024,1024,335.3,-89.9,98,3.706,3.707,3.718,3.721,3.749,3.711,19.85,57.2,14,Waypoint,
37.2566077,-119.3807978,5248.2295875628,51.509188,0.223694,0.46372376812,11000,2018-06-17 20:04:55,8,0,22.333,5248.2295875628,51.509188,0.223694,0.61729332684,0,0,-0.671082,335.9, 1.7, 0.3,0,0,1024,1024,1024,1024,335.3,-89.9,98,3.708,3.708,3.716,3.735,3.747,3.708,19.203,57.2,14,Waypoint,
37.2566076,-119.3807979,5249.2138395628,52.49344,0.223694,0.41765749368,11100,2018-06-17 20:04:55,10,0,22.333,5249.2138395628,52.49344,0.223694,0.61729332684,0,0,-0.671082,335.9, 1.5, 0.5,0,0,1024,1024,1024,1024,335.3,-89.9,98,3.708,3.708,3.716,3.735,3.747,3.708,19.203,57.2,14,Waypoint,
37.2566071,-119.3807984,5251.1823435628,54.461944,0.3131716,0.19144685652,11200,2018-06-17 20:04:56,11,0,22.333,5251.1823435628,54.461944,0.3131716,0.61729332684,0,0,-0.671082,335.7, 1.3, 1.4,0,0,1024,1024,1024,1024,335.3,-89.9,98,3.708,3.708,3.716,3.735,3.747,3.708,19.203,57.2,14,Waypoint,
37.2566067,-119.3807989,5252.1665955628,55.446196,0.3131716,0.094450134256,11300,2018-06-17 20:04:56,11,0,22.333,5252.1665955628,55.446196,0.3131716,0.61729332684,0,0,-0.671082,335.6, 1, 2,0,0,1024,1024,1024,1024,335.3,-89.9,98,3.708,3.708,3.716,3.735,3.747,3.708,19.203,57.2,14,Waypoint,
37.2566064,-119.3807993,5253.1508475628,56.430448,0.3131716,0.215977041032,11400,2018-06-17 20:04:56,11,0,22.333,5253.1508475628,56.430448,0.3131716,0.61729332684,0,0,-0.671082,335.5, 0.5, 2.8,0,0,1024,1024,1024,1024,335.3,-90,98,3.708,3.708,3.716,3.735,3.747,3.708,19.203,57.2,14,Waypoint,
37.2566062,-119.3807994,5254.1350995628,57.4147,0.3131716,0.274352370984,11500,2018-06-17 20:04:56,11,0,22.333,5254.1350995628,57.4147,0.3131716,0.61729332684,0,0,-0.671082,335.3, 0, 3.3,0,0,1024,1024,1024,1024,335.3,-90,98,3.708,3.708,3.716,3.735,3.747,3.708,19.203,57.2,14,Waypoint,
37.2566061,-119.3807995,5255.1193515628,58.398952,0.223694,0.318725075816,11600,2018-06-17 20:04:56,11,0,22.333,5255.1193515628,58.398952,0.3131716,0.61729332684,0,0,-0.671082,335.2, 0, 3.2,0,0,1024,1024,1024,1024,335.3,-90,98,3.708,3.708,3.716,3.735,3.747,3.708,19.203,57.2,14,Waypoint,
37.256606,-119.3807996,5256.1036035628,59.383204,0,0.3636647098,11700,2018-06-17 20:04:56,11,0,22.333,5256.1036035628,59.383204,0.3131716,0.61729332684,0,0,-0.671082,335.1, 0.3, 2.6,0,0,1024,1024,1024,1024,335.3,-89.9,98,3.708,3.708,3.716,3.735,3.747,3.708,19.203,57.2,14,Waypoint,
37.256606,-119.3807997,5257.0878555628,60.367456,0,0.38724738772,11800,2018-06-17 20:04:56,11,0,22.333,5257.0878555628,60.367456,0.3131716,0.61729332684,0,0,-0.671082,335.1, 0.8, 2,0,0,1024,1024,1024,1024,335.3,-89.9,98,3.708,3.708,3.716,3.735,3.747,3.708,19.203,57.2,14,Waypoint,
37.2566059,-119.3807997,5258.0721075628,61.351708,0,0.40897967188,11900,2018-06-17 20:04:56,11,0,22.333,5258.0721075628,61.351708,0.3131716,0.61729332684,0,0,-0.671082,335.2, 1, 1.4,0,0,1024,1024,1024,1024,335.3,-89.9,98,3.708,3.708,3.716,3.735,3.747,3.708,19.203,57.2,14,Waypoint,
37.2566058,-119.3807997,5259.0563595628,62.33596,0,0.43270342592,12000,2018-06-17 20:04:56,11,0,22.261,5259.0563595628,62.33596,0.3131716,0.61729332684,0,0,-0.671082,335.3, 0.8, 1.1,0,0,1024,1024,1024,1024,335.3,-89.9,98,3.688,3.699,3.711,3.722,3.739,3.695,19.564,57.2,14,Waypoint,
37.2566057,-119.3807997,5260.0406115628,63.320212,0,0.45810697004,12100,2018-06-17 20:04:56,11,0,22.261,5260.0406115628,63.320212,0.3131716,0.61729332684,0,0,-0.671082,335.4, 0.6, 0.9,0,0,1024,1024,1024,1024,335.3,-89.9,98,3.688,3.699,3.711,3.722,3.739,3.695,19.564,57.2,14,Waypoint,
37.2566056,-119.3807996,5261.0248635628,64.304464,0,0.46630907004,12300,2018-06-17 20:04:57,10,0,22.261,5261.0248635628,64.304464,0.3131716,0.61729332684,0,0,-0.671082,335.6, 0.3, 0.8,0,0,1024,1024,1024,1024,335.3,-90,98,3.688,3.699,3.711,3.722,3.739,3.695,19.564,57.2,14,Waypoint,
37.2566056,-119.3807994,5262.0091155628,65.288716,0,0.43253282224,12400,2018-06-17 20:04:57,10,0,22.261,5262.0091155628,65.288716,0.3131716,0.61729332684,0,0,-0.671082,335.6, 0, 0.7,0,0,1024,1024,1024,1024,335.3,-90,98,3.688,3.699,3.711,3.722,3.739,3.695,19.564,57.2,14,Waypoint,
37.2566055,-119.3807992,5262.9933675628,66.272968,0,0.43752626072,12500,2018-06-17 20:04:57,10,0,22.261,5262.9933675628,66.272968,0.3131716,0.61729332684,0,0,-0.671082,335.6, 0, 0.5,0,0,1024,1024,1024,1024,335.3,-89.9,98,3.688,3.699,3.711,3.722,3.739,3.695,19.564,57.2,14,Waypoint,
37.2566056,-119.380799,5263.9776195628,67.25722,0.223694,0.38289371304,12600,2018-06-17 20:04:57,10,0,22.261,5263.9776195628,67.25722,0.3131716,0.61729332684,0,0,-0.671082,335.5, -0.1, 0.2,0,0,1024,1024,1024,1024,335.3,-89.9,98,3.688,3.699,3.711,3.722,3.739,3.695,19.564,57.2,14,Waypoint,
37.2566056,-119.3807987,5264.9618715628,68.241472,0.223694,0.36600394872,12700,2018-06-17 20:04:57,9,0,22.261,5264.9618715628,68.241472,0.3131716,0.61729332684,0,0,-0.671082,335.4, 0, 0,0,0,1024,1024,1024,1024,335.3,-89.9,98,3.688,3.699,3.711,3.722,3.739,3.695,19.564,57.2,14,Waypoint,
37.2566055,-119.3807986,5265.9461235628,69.225724,0,0.40133531468,12800,2018-06-17 20:04:57,9,0,22.261,5265.9461235628,69.225724,0.3131716,0.61729332684,0,0,-0.671082,335.3, 0.1, -0.4,0,0,1024,1024,1024,1024,335.3,-89.9,98,3.688,3.699,3.711,3.722,3.739,3.695,19.564,57.2,14,Waypoint,
37.2566056,-119.3807983,5267.9146275628,71.194228,0,0.37510499888,13000,2018-06-17 20:04:57,10,0,22.186,5267.9146275628,71.194228,0.3131716,0.61729332684,0,0,-0.671082,335.3, 0.4, -0.9,0,0,1024,1024,1024,1024,335.3,-89.9,98,3.682,3.684,3.695,3.707,3.725,3.68,20.204,57.2,14,Waypoint,
37.2566057,-119.3807981,5268.8988795628,72.17848,0,0.35903544456,13100,2018-06-17 20:04:57,9,0,22.186,5268.8988795628,72.17848,0.3131716,0.61729332684,0,0,-0.671082,335.3, 0.8, -0.8,0,0,1024,1024,1024,1024,335.3,-89.9,98,3.682,3.684,3.695,3.707,3.725,3.68,20.204,57.2,14,Waypoint,
37.2566057,-119.380798,5269.8831315628,73.162732,0,0.37172901452,13200,2018-06-17 20:04:58,9,0,22.186,5269.8831315628,73.162732,0.3131716,0.61729332684,0,0,-0.671082,335.5, 1, -0.8,0,0,1024,1024,1024,1024,335.3,-89.9,98,3.682,3.684,3.695,3.707,3.725,3.68,20.204,57.2,14,Waypoint,
37.2566058,-119.3807978,5270.5392995628,73.8189,0,0.3730479122,13300,2018-06-17 20:04:58,11,0,22.186,5270.5392995628,73.8189,0.3131716,0.61729332684,0,0,-0.671082,335.6, 1.2, -0.9,0,0,1024,1024,1024,1024,335.3,-89.9,98,3.682,3.684,3.695,3.707,3.725,3.68,20.204,57.2,14,Waypoint,
37.2566059,-119.3807976,5271.5235515628,74.803152,0,0.38672573416,13400,2018-06-17 20:04:58,11,0,22.186,5271.5235515628,74.803152,0.3131716,0.61729332684,0,0,-0.671082,335.7, 1.2, -0.9,0,0,1024,1024,1024,1024,335.3,-89.9,98,3.682,3.684,3.695,3.707,3.725,3.68,20.204,57.2,14,Waypoint,
37.2566059,-119.3807973,5272.5078035628,75.787404,0,0.45578741616,13500,2018-06-17 20:04:58,11,0,22.186,5272.5078035628,75.787404,0.3131716,0.61729332684,0,0,-0.671082,335.7, 1, -0.9,0,0,1024,1024,1024,1024,335.3,-89.9,98,3.682,3.684,3.695,3.707,3.725,3.68,20.204,57.2,14,Waypoint,
37.2566059,-119.3807973,5273.4920555628,76.771656,0,0.45578741616,13600,2018-06-17 20:04:58,11,0,22.186,5273.4920555628,76.771656,0.3131716,0.61729332684,0,0,-0.671082,335.7, 0.6, -0.8,0,0,1024,1024,1024,1024,335.3,-90,98,3.682,3.684,3.695,3.707,3.725,3.68,20.204,57.2,14,Waypoint,
37.2566058,-119.3807973,5274.4763075628,77.755908,0,0.47719161632,13700,2018-06-17 20:04:58,11,0,22.186,5274.4763075628,77.755908,0.3131716,0.61729332684,0,0,-0.671082,335.7, 0.4, -0.7,0,0,1024,1024,1024,1024,335.3,-89.9,98,3.682,3.684,3.695,3.707,3.725,3.68,20.204,57.2,14,Waypoint,
37.256606,-119.3807969,5277.7571475628,81.036748,0,0.54002954484,13900,2018-06-17 20:04:58,11,0,22.186,5277.7571475628,81.036748,0.3131716,0.61729332684,0,0,-0.671082,335.6, 0.6, -0.5,0,0,1024,1024,1024,1024,335.3,-89.9,98,3.682,3.684,3.695,3.707,3.725,3.68,20.204,57.2,14,Waypoint,
37.2566061,-119.3807967,5278.7413995628,82.021,0,0.58112534668,14000,2018-06-17 20:04:58,12,0,22.193,5278.7413995628,82.021,0.3131716,0.61729332684,0,0,-0.671082,335.6, 0.7, -0.6,0,0,1024,1024,1024,1024,335.3,-89.9,98,3.682,3.684,3.695,3.707,3.725,3.68,19.696,57.2,14,Waypoint,
37.2566062,-119.3807965,5279.7256515628,83.005252,0,0.627050545,14100,2018-06-17 20:04:58,12,0,22.193,5279.7256515628,83.005252,0.3131716,0.627050545,0,0,-0.671082,335.6, 0.9, -0.8,0,0,1024,1024,1024,1024,335.3,-89.9,98,3.682,3.684,3.695,3.707,3.725,3.68,19.696,57.2,14,Waypoint,
37.2566063,-119.3807964,5280.7099035628,83.989504,0,0.6481791546,14200,2018-06-17 20:04:59,12,0,22.193,5280.7099035628,83.989504,0.3131716,0.6481791546,0,0,-0.671082,335.5, 1, -1.1,0,0,1024,1024,1024,1024,335.3,-89.9,98,3.682,3.684,3.695,3.707,3.725,3.68,19.696,57.2,14,Waypoint,
37.2566063,-119.3807963,5281.6941555628,84.973756,0,0.67681760696,14300,2018-06-17 20:04:59,12,0,22.193,5281.6941555628,84.973756,0.3131716,0.67681760696,0,0,-0.671082,335.5, 1, -1.4,0,0,1024,1024,1024,1024,335.3,-89.9,98,3.682,3.684,3.695,3.707,3.725,3.68,19.696,57.2,14,Waypoint,
37.2566064,-119.3807963,5283.6626595628,86.94226,0,0.6718832236,14500,2018-06-17 20:04:59,11,0,22.193,5283.6626595628,86.94226,0.3131716,0.67681760696,0,0,-0.671082,335.5, 1.4, -1.3,0,0,1024,1024,1024,1024,335.3,-89.9,98,3.682,3.684,3.695,3.707,3.725,3.68,19.696,57.2,14,Waypoint,
37.2566065,-119.3807964,5284.6469115628,87.926512,0,0.6399114378,14700,2018-06-17 20:04:59,12,0,22.193,5284.6469115628,87.926512,0.3131716,0.67681760696,0,0,-0.671082,335.6, 1.8, -1.1,0,0,1024,1024,1024,1024,335.3,-89.9,98,3.682,3.684,3.695,3.707,3.725,3.68,19.696,57.2,14,Waypoint,
37.2566065,-119.3807963,5285.3030795628,88.58268,0,0.66890422088,14800,2018-06-17 20:04:59,12,0,22.193,5285.3030795628,88.58268,0.3131716,0.67681760696,0,0,-0.671082,335.8, 1.9, -1.1,0,0,1024,1024,1024,1024,335.3,-89.9,98,3.682,3.684,3.695,3.707,3.725,3.68,19.696,57.2,14,Waypoint,
37.2566066,-119.3807963,5286.2873315628,89.566932,0,0.66791012636,14900,2018-06-17 20:04:59,12,0,22.193,5286.2873315628,89.566932,0.3131716,0.67681760696,0,0,-0.671082,335.9, 1.9, -1,0,0,1024,1024,1024,1024,335.3,-89.9,98,3.682,3.684,3.695,3.707,3.725,3.68,19.696,57.2,14,Waypoint,
37.2566067,-119.3807963,5289.2400875628,92.519688,0.223694,0.66890422088,15200,2018-06-17 20:05:00,12,0,22.193,5289.2400875628,92.519688,0.3131716,0.67681760696,0,0,-0.671082,336, 1.6, -0.5,0,0,1024,1024,1024,1024,335.3,-89.9,98,3.682,3.684,3.695,3.707,3.725,3.68,19.696,57.2,14,Waypoint,
37.2566068,-119.3807964,5290.2243395628,93.50394,0.223694,0.64302495496,15300,2018-06-17 20:05:00,11,0,22.193,5290.2243395628,93.50394,0.3131716,0.67681760696,0,0,-0.671082,335.9, 1.7, -0.4,0,0,1024,1024,1024,1024,335.3,-89.9,98,3.682,3.684,3.695,3.707,3.725,3.68,19.696,57.2,14,Waypoint,
37.2566068,-119.3807964,5291.2085915628,94.488192,0.223694,0.64302495496,15400,2018-06-17 20:05:00,11,0,22.193,5291.2085915628,94.488192,0.3131716,0.67681760696,0,0,-0.671082,335.8, 1.9, -0.3,0,0,1024,1024,1024,1024,335.3,-89.9,98,3.682,3.684,3.695,3.707,3.725,3.68,19.696,57.2,14,Waypoint,
37.2566068,-119.3807965,5292.1928435628,95.472444,0.223694,0.61417980968,15500,2018-06-17 20:05:00,12,0,22.193,5292.1928435628,95.472444,0.3131716,0.67681760696,0,0,-0.671082,335.7, 1.8, -0.3,0,0,1024,1024,1024,1024,335.3,-89.9,98,3.682,3.684,3.695,3.707,3.725,3.68,19.696,57.2,14,Waypoint,
37.2566069,-119.3807965,5293.1770955628,96.456696,0.223694,0.61957351064,15600,2018-06-17 20:05:00,12,0,22.193,5293.1770955628,96.456696,0.3131716,0.67681760696,0,0,-0.671082,335.6, 1.8, -0.2,0,0,1024,1024,1024,1024,335.3,-89.9,98,3.682,3.684,3.695,3.707,3.725,3.68,19.696,57.2,14,Waypoint,
37.2566069,-119.3807966,5294.1613475628,97.440948,0,0.59101379844,15700,2018-06-17 20:05:00,12,0,22.193,5294.1613475628,97.440948,0.3131716,0.67681760696,0,0,-0.671082,335.4, 1.8, -0.1,0,0,1024,1024,1024,1024,335.3,-89.9,98,3.682,3.684,3.695,3.707,3.725,3.68,19.696,57.2,14,Waypoint,
37.2566069,-119.3807966,5295.1455995628,98.4252,0,0.59101379844,15800,2018-06-17 20:05:00,12,0,22.193,5295.1455995628,98.4252,0.3131716,0.67681760696,0,0,-0.671082,335.4, 1.7, -0.1,0,0,1024,1024,1024,1024,335.3,-89.9,98,3.682,3.684,3.695,3.707,3.725,3.68,19.696,57.2,14,Waypoint,
37.2566068,-119.3807967,5296.1298515628,99.409452,0,0.55655513592,15900,2018-06-17 20:05:00,12,0,22.193,5296.1298515628,99.409452,0.3131716,0.67681760696,0,0,-0.671082,335.4, 1.4, -0.1,0,0,1024,1024,1024,1024,335.3,-89.9,98,3.682,3.684,3.695,3.707,3.725,3.68,19.696,57.2,14,Waypoint,
37.2566068,-119.3807968,5298.0983555628,101.377956,0.223694,0.52777888828,16000,2018-06-17 20:05:00,12,0,22.188,5298.0983555628,101.377956,0.3131716,0.67681760696,0,0,-0.671082,335.3, 1.2, 0,0,0,1024,1024,1024,1024,335.3,-89.9,97,3.678,3.686,3.7,3.698,3.717,3.68,19.249,57.2,14,Waypoint,
37.2566067,-119.3807969,5299.0826075628,102.362208,0,0.49501970088,16100,2018-06-17 20:05:00,12,0,22.188,5299.0826075628,102.362208,0.3131716,0.67681760696,0,0,-0.671082,335.3, 1.2, 0,0,0,1024,1024,1024,1024,335.3,-89.9,97,3.678,3.686,3.7,3.698,3.717,3.68,19.249,57.2,14,Waypoint,
37.2566067,-119.380797,5300.0668595628,103.34646,0,0.46606300704,16200,2018-06-17 20:05:01,12,0,22.188,5300.0668595628,103.34646,0.3131716,0.67681760696,0,0,-0.671082,335.3, 1.2, 0.2,0,0,1024,1024,1024,1024,335.3,-89.9,97,3.678,3.686,3.7,3.698,3.717,3.68,19.249,57.2,14,Waypoint,
37.2566066,-119.380797,5301.0511115628,104.330712,0,0.4646325608,16300,2018-06-17 20:05:01,12,0,22.188,5301.0511115628,104.330712,0.3131716,0.67681760696,0,0,-0.671082,335.3, 1, 0.4,0,0,1024,1024,1024,1024,335.3,-90,97,3.678,3.686,3.7,3.698,3.717,3.68,19.249,57.2,14,Waypoint,
37.2566066,-119.3807971,5302.0353635628,105.314964,0,0.43559384596,16400,2018-06-17 20:05:01,12,0,22.188,5302.0353635628,105.314964,0.3131716,0.67681760696,0,0,-0.671082,335.4, 0.9, 0.7,0,0,1024,1024,1024,1024,335.3,-90,97,3.678,3.686,3.7,3.698,3.717,3.68,19.249,57.2,14,Waypoint,
37.2566065,-119.3807972,5303.0196155628,106.299216,0,0.40818898944,16600,2018-06-17 20:05:01,12,0,22.188,5303.0196155628,106.299216,0.3131716,0.67681760696,0,0,-0.671082,335.5, 1, 0.8,0,0,1024,1024,1024,1024,335.3,-89.9,97,3.678,3.686,3.7,3.698,3.717,3.68,19.249,57.2,14,Waypoint,
37.2566064,-119.3807974,5304.6600355628,107.939636,0,0.35603347596,16700,2018-06-17 20:05:01,12,0,22.188,5304.6600355628,107.939636,0.3131716,0.67681760696,0,0,-0.671082,335.9, 0.6, 0.3,0,0,1024,1024,1024,1024,335.3,-90,97,3.678,3.686,3.7,3.698,3.717,3.68,19.249,57.2,14,Waypoint,
37.2566063,-119.3807975,5306.9566235628,110.236224,0,0.33766733364,16900,2018-06-17 20:05:01,12,0,22.188,5306.9566235628,110.236224,0.3131716,0.67681760696,0,0,-0.671082,336, 0.9, 0.2,0,0,1024,1024,1024,1024,335.3,-89.9,97,3.678,3.686,3.7,3.698,3.717,3.68,19.249,57.2,14,Waypoint,
37.2566063,-119.3807975,5307.9408755628,111.220476,0,0.33766733364,17100,2018-06-17 20:05:01,12,0,22.188,5307.9408755628,111.220476,0.3131716,0.67681760696,0,0,-0.671082,336, 1, 0.2,0,0,1024,1024,1024,1024,335.3,-89.9,97,3.678,3.686,3.7,3.698,3.717,3.68,19.249,57.2,14,Waypoint,
37.2566063,-119.3807976,5308.9251275628,112.204728,0,0.310338264524,17200,2018-06-17 20:05:02,12,0,22.188,5308.9251275628,112.204728,0.3131716,0.67681760696,0,0,-0.671082,336, 1.1, 0.3,0,0,1024,1024,1024,1024,335.3,-89.9,97,3.678,3.686,3.7,3.698,3.717,3.68,19.249,57.2,14,Waypoint,
37.2566063,-119.3807976,5309.9093795628,113.18898,0,0.310338264524,17300,2018-06-17 20:05:02,12,0,22.188,5309.9093795628,113.18898,0.3131716,0.67681760696,0,0,-0.671082,335.8, 1.1, 0.6,0,0,1024,1024,1024,1024,335.3,-89.9,97,3.678,3.686,3.7,3.698,3.717,3.68,19.249,57.2,14,Waypoint,
37.2566062,-119.3807976,5310.8936315628,114.173232,0,0.325004603576,17400,2018-06-17 20:05:02,12,0,22.188,5310.8936315628,114.173232,0.3131716,0.67681760696,0,0,-0.671082,335.6, 1.1, 0.6,0,0,1024,1024,1024,1024,335.3,-89.9,97,3.678,3.686,3.7,3.698,3.717,3.68,19.249,57.2,14,Waypoint,
37.2566062,-119.3807976,5311.8778835628,115.157484,0,0.325004603576,17500,2018-06-17 20:05:02,12,0,22.188,5311.8778835628,115.157484,0.3131716,0.67681760696,0,0,-0.671082,335.5, 1, 0.2,0,0,1024,1024,1024,1024,335.3,-90,97,3.678,3.686,3.7,3.698,3.717,3.68,19.249,57.2,14,Waypoint,
37.2566062,-119.3807977,5312.8621355628,116.141736,0,0.299341545012,17600,2018-06-17 20:05:02,12,0,22.188,5312.8621355628,116.141736,0.3131716,0.67681760696,0,0,-0.671082,335.4, 1, -0.1,0,0,1024,1024,1024,1024,335.3,-89.9,97,3.678,3.686,3.7,3.698,3.717,3.68,19.249,57.2,14,Waypoint,
37.2566062,-119.3807976,5313.8463875628,117.125988,0,0.325004603576,17700,2018-06-17 20:05:02,12,0,22.188,5313.8463875628,117.125988,0.3131716,0.67681760696,0,0,-0.671082,335.3, 1, -0.1,0,0,1024,1024,1024,1024,335.3,-89.9,97,3.678,3.686,3.7,3.698,3.717,3.68,19.249,57.2,14,Waypoint,
37.2566062,-119.3807976,5314.8306395628,118.11024,0,0.325004603576,17800,2018-06-17 20:05:02,12,0,22.188,5314.8306395628,118.11024,0.3131716,0.67681760696,0,0,-0.671082,335.3, 1.1, 0,0,0,1024,1024,1024,1024,335.3,-89.9,97,3.678,3.686,3.7,3.698,3.717,3.68,19.249,57.2,14,Waypoint,
37.2566062,-119.3807976,5315.8148915628,119.094492,0,0.325004603576,17900,2018-06-17 20:05:02,12,0,22.188,5315.8148915628,119.094492,0.3131716,0.67681760696,0,0,-0.671082,335.3, 1.2, -0.1,0,0,1024,1024,1024,1024,335.3,-89.9,97,3.678,3.686,3.7,3.698,3.717,3.68,19.249,57.2,14,Waypoint,
37.2566061,-119.3807976,5317.1272275628,120.406828,0,0.34293964352,18000,2018-06-17 20:05:02,12,0,22.097,5317.1272275628,120.406828,0.3131716,0.67681760696,0,0,-0.671082,335.4, 1.2, -0.1,0,0,1024,1024,1024,1024,335.3,-90,97,3.672,3.682,3.668,3.689,3.706,3.666,19.49,57.2,14,Waypoint,
37.2566061,-119.3807976,5318.1114795628,121.39108,0,0.34293964352,18100,2018-06-17 20:05:02,12,0,22.097,5318.1114795628,121.39108,0.3131716,0.67681760696,0,0,-0.671082,335.6, 1.1, -0.3,0,0,1024,1024,1024,1024,335.3,-90,97,3.672,3.682,3.668,3.689,3.706,3.666,19.49,57.2,14,Waypoint,
37.2566061,-119.3807976,5319.0957315628,122.375332,0,0.34293964352,18200,2018-06-17 20:05:03,12,0,22.097,5319.0957315628,122.375332,0.3131716,0.67681760696,0,0,-0.671082,335.8, 1.1, -0.4,0,0,1024,1024,1024,1024,335.3,-89.9,97,3.672,3.682,3.668,3.689,3.706,3.666,19.49,57.2,14,Waypoint,
37.256606,-119.3807976,5320.0799835628,123.359584,0,0.3636647098,18300,2018-06-17 20:05:03,12,0,22.097,5320.0799835628,123.359584,0.3131716,0.67681760696,0,0,-0.671082,335.9, 1.2, -0.1,0,0,1024,1024,1024,1024,335.3,-89.9,97,3.672,3.682,3.668,3.689,3.706,3.666,19.49,57.2,14,Waypoint,
37.256606,-119.3807975,5322.0484875628,125.328088,0,0.38724738772,18400,2018-06-17 20:05:03,12,0,22.097,5322.0484875628,125.328088,0.3131716,0.67681760696,0,0,-0.671082,336, 1.1, 0.1,0,0,1024,1024,1024,1024,335.3,-89.9,97,3.672,3.682,3.668,3.689,3.706,3.666,19.49,57.2,14,Waypoint,
37.2566059,-119.3807975,5323.0327395628,126.31234,0,0.40897967188,18500,2018-06-17 20:05:03,12,0,22.097,5323.0327395628,126.31234,0.3131716,0.67681760696,0,0,-0.671082,336, 1.1, 0.1,0,0,1024,1024,1024,1024,335.3,-89.9,97,3.672,3.682,3.668,3.689,3.706,3.666,19.49,57.2,14,Waypoint,
37.2566059,-119.3807975,5324.0169915628,127.296592,0,0.40897967188,18600,2018-06-17 20:05:03,12,0,22.097,5324.0169915628,127.296592,0.3131716,0.67681760696,0,0,-0.671082,335.9, 1, 0,0,0,1024,1024,1024,1024,335.3,-89.9,97,3.672,3.682,3.668,3.689,3.706,3.666,19.49,57.2,14,Waypoint,
37.2566059,-119.3807974,5325.0012435628,128.280844,0,0.43204397708,18700,2018-06-17 20:05:03,12,0,22.097,5325.0012435628,128.280844,0.3131716,0.67681760696,0,0,-0.671082,335.7, 1, 0,0,0,1024,1024,1024,1024,335.3,-89.9,97,3.672,3.682,3.668,3.689,3.706,3.666,19.49,57.2,14,Waypoint,
37.2566059,-119.3807973,5325.9854955628,129.265096,0,0.45578741616,18800,2018-06-17 20:05:03,12,0,22.097,5325.9854955628,129.265096,0.3131716,0.67681760696,0,0,-0.671082,335.5, 1, -0.4,0,0,1024,1024,1024,1024,335.3,-89.9,97,3.672,3.682,3.668,3.689,3.706,3.666,19.49,57.2,14,Waypoint,
37.256606,-119.3807972,5326.6416635628,129.921264,0,0.46174214076,18900,2018-06-17 20:05:03,12,0,22.097,5326.6416635628,129.921264,0.3131716,0.67681760696,0,0,-0.671082,335.3, 1.2, -0.7,0,0,1024,1024,1024,1024,335.3,-89.9,97,3.672,3.682,3.668,3.689,3.706,3.666,19.49,57.2,14,Waypoint,
37.256606,-119.3807972,5327.6259155628,130.905516,0,0.46174214076,19000,2018-06-17 20:05:03,12,0,22.185,5327.6259155628,130.905516,0.3131716,0.67681760696,0,0,-0.671082,335.2, 1.5, -0.7,0,0,1024,1024,1024,1024,335.3,-89.9,97,3.672,3.682,3.668,3.689,3.706,3.666,18.512,57.2,14,Waypoint,
37.256606,-119.380797,5328.9382515628,132.217852,0,0.51361878284,19200,2018-06-17 20:05:04,12,0,22.185,5328.9382515628,132.217852,0.3131716,0.67681760696,0,0,-0.671082,335.2, 1.5, -0.9,0,0,1024,1024,1024,1024,335.3,-89.9,97,3.672,3.682,3.668,3.689,3.706,3.666,18.512,57.2,14,Waypoint,
37.2566061,-119.3807969,5329.9225035628,133.202104,0,0.52629922944,19300,2018-06-17 20:05:04,12,0,22.185,5329.9225035628,133.202104,0.3131716,0.67681760696,0,0,-0.671082,335.2, 1.5, -1.3,0,0,1024,1024,1024,1024,335.3,-89.9,97,3.672,3.682,3.668,3.689,3.706,3.666,18.512,57.2,14,Waypoint,
37.2566061,-119.3807968,5330.9067555628,134.186356,0,0.55362862664,19400,2018-06-17 20:05:04,12,0,22.185,5330.9067555628,134.186356,0.3131716,0.67681760696,0,0,-0.671082,335.2, 1.3, -1.8,0,0,1024,1024,1024,1024,335.3,-90,97,3.672,3.682,3.668,3.689,3.706,3.666,18.512,57.2,14,Waypoint,
37.2566061,-119.3807966,5331.8910075628,135.170608,0,0.60876642368,19500,2018-06-17 20:05:04,12,0,22.185,5331.8910075628,135.170608,0.3131716,0.67681760696,0,0,-0.671082,335.4, 1.1, -1.9,0,0,1024,1024,1024,1024,335.3,-90,97,3.672,3.682,3.668,3.689,3.706,3.666,18.512,57.2,14,Waypoint,
37.2566061,-119.3807965,5332.8752595628,136.15486,0,0.6365321726,19600,2018-06-17 20:05:04,12,0,22.185,5332.8752595628,136.15486,0.3131716,0.67681760696,0,0,-0.671082,335.5, 0.5, -2,0,0,1024,1024,1024,1024,335.3,-90,97,3.672,3.682,3.668,3.689,3.706,3.666,18.512,57.2,14,Waypoint,
37.2566062,-119.3807963,5333.8595115628,137.139112,0,0.68366800088,19700,2018-06-17 20:05:04,12,0,22.185,5333.8595115628,137.139112,0.3131716,0.68366800088,0,0,-0.671082,335.6, 0.1, -2.2,0,0,1024,1024,1024,1024,335.3,-89.9,97,3.672,3.682,3.668,3.689,3.706,3.666,18.512,57.2,14,Waypoint,
37.2566062,-119.3807962,5334.8437635628,138.123364,0,0.71206367108,19800,2018-06-17 20:05:04,12,0,22.185,5334.8437635628,138.123364,0.3131716,0.71206367108,0,0,-0.671082,335.6, 0.3, -2,0,0,1024,1024,1024,1024,335.3,-89.9,97,3.672,3.682,3.668,3.689,3.706,3.666,18.512,57.2,14,Waypoint,
37.2566062,-119.3807961,5335.8280155628,139.107616,0,0.74051183472,19900,2018-06-17 20:05:04,12,0,22.185,5335.8280155628,139.107616,0.3131716,0.74051183472,0,0,-0.671082,335.5, 0.5, -1.9,0,0,1024,1024,1024,1024,335.3,-89.9,97,3.672,3.682,3.668,3.689,3.706,3.666,18.512,57.2,14,Waypoint,
37.2566063,-119.380796,5336.8122675628,140.091868,0,0.76291997192,20000,2018-06-17 20:05:04,12,0,22.185,5336.8122675628,140.091868,0.3131716,0.76291997192,0,0,-0.671082,335.4, 0.5, -2.3,0,0,1024,1024,1024,1024,335.3,-89.9,97,3.682,3.68,3.69,3.701,3.733,3.679,18.512,59,14,Waypoint,
37.2566063,-119.3807958,5337.7965195628,141.07612,0,0.8204396588,20100,2018-06-17 20:05:04,12,0,22.185,5337.7965195628,141.07612,0.3131716,0.8204396588,0,0,-0.671082,335.5, 0.6, -2.8,0,0,1024,1024,1024,1024,335.3,-89.9,97,3.682,3.68,3.69,3.701,3.733,3.679,18.512,59,14,Waypoint,
37.2566064,-119.3807957,5338.7807715628,142.060372,0,0.84530186432,20200,2018-06-17 20:05:05,12,0,22.185,5338.7807715628,142.060372,0.3131716,0.84530186432,0,0,-0.671082,335.5, 0.5, -3.3,0,0,1024,1024,1024,1024,335.3,-89.9,97,3.682,3.68,3.69,3.701,3.733,3.679,18.512,59,14,Waypoint,
37.2566064,-119.3807956,5339.7650235628,143.044624,0,0.87423559228,20300,2018-06-17 20:05:05,12,0,22.185,5339.7650235628,143.044624,0.3131716,0.87423559228,0,0,-0.671082,335.4, 0.8, -3.2,0,0,1024,1024,1024,1024,335.3,-89.9,97,3.682,3.68,3.69,3.701,3.733,3.679,18.512,59,14,Waypoint,
37.2566065,-119.3807956,5340.7492755628,144.028876,0,0.8719488468,20400,2018-06-17 20:05:05,12,0,22.185,5340.7492755628,144.028876,0.3131716,0.87423559228,0,0,-0.671082,335.3, 1.4, -2.7,0,0,1024,1024,1024,1024,335.3,-89.9,97,3.682,3.68,3.69,3.701,3.733,3.679,18.512,59,14,Waypoint,
37.2566066,-119.3807957,5342.3896955628,145.669296,0,0.84214569624,20500,2018-06-17 20:05:05,12,0,22.185,5342.3896955628,145.669296,0.3131716,0.87423559228,0,0,-0.671082,335.2, 1.8, -1.7,0,0,1024,1024,1024,1024,335.3,-89.9,97,3.682,3.68,3.69,3.701,3.733,3.679,18.512,59,14,Waypoint,
37.2566066,-119.3807959,5344.6862835628,147.965884,0,0.78406826656,20700,2018-06-17 20:05:05,12,0,22.185,5344.6862835628,147.965884,0.3131716,0.87423559228,0,0,-0.671082,335.2, 1.3, -0.9,0,0,1024,1024,1024,1024,335.3,-89.9,97,3.682,3.68,3.69,3.701,3.733,3.679,18.512,59,14,Waypoint,
37.2566066,-119.380796,5346.6547875628,149.934388,0,0.75502955172,20900,2018-06-17 20:05:05,12,0,22.185,5346.6547875628,149.934388,0.3131716,0.87423559228,0,0,-0.671082,335.3, 1.1, -1.3,0,0,1024,1024,1024,1024,335.3,-89.9,97,3.682,3.68,3.69,3.701,3.733,3.679,18.512,59,14,Waypoint,
37.2566066,-119.380796,5348.6232915628,151.902892,0,0.75502955172,21100,2018-06-17 20:05:05,12,0,22.185,5348.6232915628,151.902892,0.3131716,0.87423559228,0,0,-0.671082,335.5, 1.1, -2.1,0,0,1024,1024,1024,1024,335.3,-89.9,97,3.682,3.68,3.69,3.701,3.733,3.679,18.512,59,14,Waypoint,
37.2566066,-119.380796,5349.6075435628,152.887144,0,0.75502955172,21200,2018-06-17 20:05:06,12,0,22.185,5349.6075435628,152.887144,0.3131716,0.87423559228,0,0,-0.671082,335.6, 0.9, -2.1,0,0,1024,1024,1024,1024,335.3,-90,97,3.682,3.68,3.69,3.701,3.733,3.679,18.512,59,14,Waypoint,
37.2566066,-119.380796,5350.5917955628,153.871396,0,0.75502955172,21310,2018-06-17 20:05:06,12,0,22.185,5350.5917955628,153.871396,0.3131716,0.87423559228,0,0,-0.671082,335.8, 0.7, -2.2,0,0,1024,1024,1024,1024,335.3,-90,97,3.682,3.68,3.69,3.701,3.733,3.679,18.512,59,14,Waypoint,
37.2566066,-119.380796,5350.5917955628,153.871396,0,0.75502955172,21400,2018-06-17 20:05:06,12,0,22.185,5350.5917955628,153.871396,0.3131716,0.87423559228,0,0,-0.671082,335.8, 0.7, -2.2,0,0,1024,1024,1024,1024,335.3,-90,97,3.682,3.68,3.69,3.701,3.733,3.679,18.512,59,14,Waypoint,
37.2566066,-119.3807959,5351.5760475628,154.855648,0,0.78406826656,21500,2018-06-17 20:05:06,12,0,22.185,5351.5760475628,154.855648,0.3131716,0.87423559228,0,0,-0.671082,336, 0.4, -2.1,0,0,1024,1024,1024,1024,335.3,-90,97,3.682,3.68,3.69,3.701,3.733,3.679,18.512,59,14,Waypoint,
37.2566065,-119.3807959,5352.2322155628,155.511816,0.223694,0.78491472328,21600,2018-06-17 20:05:06,12,0,22.185,5352.2322155628,155.511816,0.3131716,0.87423559228,0,0,-0.671082,336.2, -0.4, -1.9,0,0,1024,1024,1024,1024,335.3,-90,97,3.682,3.68,3.69,3.701,3.733,3.679,18.512,59,14,Waypoint,
37.2566064,-119.3807959,5353.2164675628,156.496068,0,0.78745737428,21700,2018-06-17 20:05:06,12,0,22.185,5353.2164675628,156.496068,0.3131716,0.87423559228,0,0,-0.671082,336.4, -0.9, -1.6,0,0,1024,1024,1024,1024,335.3,-89.9,97,3.682,3.68,3.69,3.701,3.733,3.679,18.512,59,14,Waypoint,
37.2566064,-119.3807959,5354.2007195628,157.48032,0,0.78745737428,21800,2018-06-17 20:05:06,12,0,22.185,5354.2007195628,157.48032,0.3131716,0.87423559228,0,0,-0.671082,336.5, -0.9, -0.9,0,0,1024,1024,1024,1024,335.3,-89.9,97,3.682,3.68,3.69,3.701,3.733,3.679,18.512,59,14,Waypoint,
37.2566063,-119.3807959,5355.1849715628,158.464572,0,0.79166997284,21900,2018-06-17 20:05:06,12,0,22.185,5355.1849715628,158.464572,0.3131716,0.87423559228,0,0,-0.671082,336.5, -0.8, -0.8,0,0,1024,1024,1024,1024,335.3,-89.9,97,3.682,3.68,3.69,3.701,3.733,3.679,18.512,59,14,Waypoint,
37.2566063,-119.3807959,5356.1692235628,159.448824,0,0.79166997284,22000,2018-06-17 20:05:06,12,0,22.166,5356.1692235628,159.448824,0.3131716,0.87423559228,0,0,-0.671082,336.3, -0.4, -1.5,0,0,1024,1024,1024,1024,335.3,-89.9,97,3.688,3.69,3.698,3.708,3.738,3.686,18.188,59,14,Waypoint,
37.2566064,-119.3807958,5357.1534755628,160.433076,0,0.81637469804,22100,2018-06-17 20:05:06,12,0,22.166,5357.1534755628,160.433076,0.3131716,0.87423559228,0,0,-0.671082,335.9, -0.1, -2.2,0,0,1024,1024,1024,1024,335.3,-89.9,97,3.688,3.69,3.698,3.708,3.738,3.686,18.188,59,14,Waypoint,
37.2566064,-119.3807957,5358.1377275628,161.417328,0,0.84530186432,22200,2018-06-17 20:05:07,12,0,22.166,5358.1377275628,161.417328,0.3131716,0.87423559228,0,0,-0.671082,335.7, 0, -2.6,0,0,1024,1024,1024,1024,335.3,-89.9,97,3.688,3.69,3.698,3.708,3.738,3.686,18.188,59,14,Waypoint,
37.2566064,-119.3807957,5359.1219795628,162.40158,0,0.84530186432,22300,2018-06-17 20:05:07,12,0,22.166,5359.1219795628,162.40158,0.3131716,0.87423559228,0,0,-0.671082,335.5, 0.3, -2.7,0,0,1024,1024,1024,1024,335.3,-89.9,97,3.688,3.69,3.698,3.708,3.738,3.686,18.188,59,14,Waypoint,
37.2566064,-119.3807957,5360.1062315628,163.385832,0,0.84530186432,22400,2018-06-17 20:05:07,12,0,22.166,5360.1062315628,163.385832,0.3131716,0.87423559228,0,0,-0.671082,335.3, 0.3, -2.7,0,0,1024,1024,1024,1024,335.3,-89.9,97,3.688,3.69,3.698,3.708,3.738,3.686,18.188,59,14,Waypoint,
37.2566064,-119.3807957,5361.0904835628,164.370084,0,0.84530186432,22500,2018-06-17 20:05:07,12,0,22.166,5361.0904835628,164.370084,0.3131716,0.87423559228,0,0,-0.671082,335.2, 0.5, -2.5,0,0,1024,1024,1024,1024,335.3,-89.9,97,3.688,3.69,3.698,3.708,3.738,3.686,18.188,59,14,Waypoint,
37.2566065,-119.3807957,5362.0747355628,165.354336,0,0.84293637868,22600,2018-06-17 20:05:07,12,0,22.166,5362.0747355628,165.354336,0.3131716,0.87423559228,0,0,-0.671082,335.2, 0.6, -2.7,0,0,1024,1024,1024,1024,335.3,-89.9,97,3.688,3.69,3.698,3.708,3.738,3.686,18.188,59,14,Waypoint,
37.2566065,-119.3807957,5363.0589875628,166.338588,0,0.84293637868,22700,2018-06-17 20:05:07,12,0,22.166,5363.0589875628,166.338588,0.3131716,0.87423559228,0,0,-0.671082,335.3, 0.6, -2.9,0,0,1024,1024,1024,1024,335.3,-89.9,97,3.688,3.69,3.698,3.708,3.738,3.686,18.188,59,14,Waypoint,
37.2566065,-119.3807956,5364.6994075628,167.979008,0,0.8719488468,22800,2018-06-17 20:05:07,12,0,22.166,5364.6994075628,167.979008,0.3131716,0.87423559228,0,0,-0.671082,335.4, 0.6, -2.3,0,0,1024,1024,1024,1024,335.3,-89.9,97,3.688,3.69,3.698,3.708,3.738,3.686,18.188,59,14,Waypoint,
37.2566065,-119.3807957,5365.6836595628,168.96326,0,0.84293637868,23000,2018-06-17 20:05:07,12,0,22.306,5365.6836595628,168.96326,0.3131716,0.87423559228,0,0,-0.671082,335.6, 0.4, -2,0,0,1024,1024,1024,1024,335.3,-89.9,97,3.693,3.693,3.713,3.72,3.747,3.701,17.218,59,14,Waypoint,
37.2566065,-119.3807957,5367.6521635628,170.931764,0,0.84293637868,23100,2018-06-17 20:05:07,12,0,22.306,5367.6521635628,170.931764,0.3131716,0.87423559228,0,0,-0.671082,335.7, 0, -1.8,0,0,1024,1024,1024,1024,335.3,-90,97,3.693,3.693,3.713,3.72,3.747,3.701,17.218,59,14,Waypoint,
37.2566065,-119.3807957,5368.6364155628,171.916016,0,0.84293637868,23300,2018-06-17 20:05:08,12,0,22.306,5368.6364155628,171.916016,0.3131716,0.87423559228,0,0,-0.671082,335.7, 0.1, -2,0,0,1024,1024,1024,1024,335.3,-89.9,97,3.693,3.693,3.713,3.72,3.747,3.701,17.218,59,14,Waypoint,
37.2566064,-119.3807957,5370.2768355628,173.556436,0,0.84530186432,23500,2018-06-17 20:05:08,12,0,22.306,5370.2768355628,173.556436,0.3131716,0.87423559228,0,0,-0.671082,335.7, 0, -2.3,0,0,1024,1024,1024,1024,335.3,-90,97,3.693,3.693,3.713,3.72,3.747,3.701,17.218,59,14,Waypoint,
37.2566064,-119.3807956,5371.2610875628,174.540688,0,0.87423559228,23600,2018-06-17 20:05:08,12,0,22.306,5371.2610875628,174.540688,0.3131716,0.87423559228,0,0,-0.671082,335.8, -0.1, -2.5,0,0,1024,1024,1024,1024,335.3,-89.9,97,3.693,3.693,3.713,3.72,3.747,3.701,17.218,59,14,Waypoint,
37.2566065,-119.3807956,5372.2453395628,175.52494,0,0.8719488468,23700,2018-06-17 20:05:08,12,0,22.306,5372.2453395628,175.52494,0.3131716,0.87423559228,0,0,-0.671082,335.9, 0, -2.2,0,0,1024,1024,1024,1024,335.3,-89.9,97,3.693,3.693,3.713,3.72,3.747,3.701,17.218,59,14,Waypoint,
37.2566065,-119.3807956,5373.5576755628,176.837276,0,0.8719488468,23800,2018-06-17 20:05:08,12,0,22.306,5373.5576755628,176.837276,0.3131716,0.87423559228,0,0,-0.671082,335.9, 0.2, -2.1,0,0,1024,1024,1024,1024,335.3,-89.9,97,3.693,3.693,3.713,3.72,3.747,3.701,17.218,59,14,Waypoint,
37.2566065,-119.3807956,5374.5419275628,177.821528,0,0.8719488468,23900,2018-06-17 20:05:08,12,0,22.306,5374.5419275628,177.821528,0.3131716,0.87423559228,0,0,-0.671082,335.9, 0.3, -2.2,0,0,1024,1024,1024,1024,335.3,-89.9,97,3.693,3.693,3.713,3.72,3.747,3.701,17.218,59,14,Waypoint,
37.2566065,-119.3807957,5375.5261795628,178.80578,0,0.84293637868,24000,2018-06-17 20:05:08,12,0,22.151,5375.5261795628,178.80578,0.3131716,0.87423559228,0,0,-0.671082,335.7, 0.5, -2.2,0,0,1024,1024,1024,1024,335.3,-89.9,97,3.67,3.689,3.684,3.698,3.726,3.674,18.654,59,14,Waypoint,
37.2566065,-119.3807957,5376.5104315628,179.790032,0,0.84293637868,24100,2018-06-17 20:05:08,12,0,22.151,5376.5104315628,179.790032,0.3131716,0.87423559228,0,0,-0.671082,335.6, 0.8, -2.3,0,0,1024,1024,1024,1024,335.3,-89.9,97,3.67,3.689,3.684,3.698,3.726,3.674,18.654,59,14,Waypoint,
37.2566065,-119.3807957,5377.4946835628,180.774284,0,0.84293637868,24200,2018-06-17 20:05:09,12,0,22.151,5377.4946835628,180.774284,0.3131716,0.87423559228,0,0,-0.671082,335.5, 0.8, -2.4,0,0,1024,1024,1024,1024,335.3,-89.9,97,3.67,3.689,3.684,3.698,3.726,3.674,18.654,59,14,Waypoint,
37.2566065,-119.3807957,5378.4789355628,181.758536,0,0.84293637868,24300,2018-06-17 20:05:09,12,0,22.151,5378.4789355628,181.758536,0.3131716,0.87423559228,0,0,-0.671082,335.5, 0.7, -2.8,0,0,1024,1024,1024,1024,335.3,-89.9,97,3.67,3.689,3.684,3.698,3.726,3.674,18.654,59,14,Waypoint,
37.2566066,-119.3807956,5379.7912715628,183.070872,0,0.87118769192,24400,2018-06-17 20:05:09,12,0,22.151,5379.7912715628,183.070872,0.3131716,0.87423559228,0,0,-0.671082,335.4, 0.3, -3.3,0,0,1024,1024,1024,1024,335.3,-90,97,3.67,3.689,3.684,3.698,3.726,3.674,18.654,59,14,Waypoint,
37.2566066,-119.3807956,5380.7755235628,184.055124,0,0.87118769192,24500,2018-06-17 20:05:09,12,0,22.151,5380.7755235628,184.055124,0.3131716,0.87423559228,0,0,-0.671082,335.3, 0, -3.6,0,0,1024,1024,1024,1024,335.3,-89.9,97,3.67,3.689,3.684,3.698,3.726,3.674,18.654,59,14,Waypoint,
37.2566066,-119.3807955,5381.7597755628,185.039376,0,0.90022640676,24600,2018-06-17 20:05:09,12,0,22.151,5381.7597755628,185.039376,0.3131716,0.90022640676,0,0,-0.671082,335.2, 0.3, -3.7,0,0,1024,1024,1024,1024,335.3,-89.9,97,3.67,3.689,3.684,3.698,3.726,3.674,18.654,59,14,Waypoint,
37.2566066,-119.3807955,5382.7440275628,186.023628,0,0.90022640676,24700,2018-06-17 20:05:09,12,0,22.151,5382.7440275628,186.023628,0.3131716,0.90022640676,0,0,-0.671082,335, 0.5, -3.8,0,0,1024,1024,1024,1024,335.3,-89.9,97,3.67,3.689,3.684,3.698,3.726,3.674,18.654,59,14,Waypoint,
37.2566066,-119.3807954,5383.7282795628,187.00788,0,0.9292651216,24800,2018-06-17 20:05:09,12,0,22.151,5383.7282795628,187.00788,0.3131716,0.9292651216,0,0,-0.671082,335, 0.5, -3.4,0,0,1024,1024,1024,1024,335.3,-89.9,97,3.67,3.689,3.684,3.698,3.726,3.674,18.654,59,14,Waypoint,
37.2566067,-119.3807954,5384.7125315628,187.992132,0,0.92998034472,24900,2018-06-17 20:05:09,12,0,22.151,5384.7125315628,187.992132,0.3131716,0.92998034472,0,0,-0.671082,335, 0.6, -3.5,0,0,1024,1024,1024,1024,335.3,-89.9,97,3.67,3.689,3.684,3.698,3.726,3.674,18.654,59,14,Waypoint,
37.2566067,-119.3807953,5386.6810355628,189.960636,0,0.95899937452,25000,2018-06-17 20:05:09,12,0,21.973,5386.6810355628,189.960636,0.3131716,0.95899937452,0,0,-0.671082,335.3, 0.6, -3.8,0,0,1024,1024,1024,1024,335.3,-89.9,96,3.67,3.689,3.684,3.698,3.726,3.674,19.814,59,14,Waypoint,
37.2566067,-119.3807953,5387.6652875628,190.944888,0,0.95899937452,25100,2018-06-17 20:05:09,12,0,21.973,5387.6652875628,190.944888,0.3131716,0.95899937452,0,0,-0.671082,335.4, 0.6, -3.8,0,0,1024,1024,1024,1024,335.3,-89.9,96,3.67,3.689,3.684,3.698,3.726,3.674,19.814,59,14,Waypoint,
37.2566067,-119.3807953,5388.6495395628,191.92914,0,0.95899937452,25200,2018-06-17 20:05:10,12,0,21.973,5388.6495395628,191.92914,0.3131716,0.95899937452,0,0,-0.671082,335.5, 0.5, -3.8,0,0,1024,1024,1024,1024,335.3,-89.9,96,3.67,3.689,3.684,3.698,3.726,3.674,19.814,59,14,Waypoint,
37.2566067,-119.3807952,5390.2899595628,193.56956,0,0.98801840432,25410,2018-06-17 20:05:10,12,0,21.973,5390.2899595628,193.56956,0.3131716,0.98801840432,0,0,-0.671082,335.6, 0.2, -3.1,0,0,1024,1024,1024,1024,335.3,-89.9,96,3.67,3.689,3.684,3.698,3.726,3.674,19.814,59,14,Waypoint,
37.2566067,-119.3807952,5391.2742115628,194.553812,0,0.98801840432,25500,2018-06-17 20:05:10,12,0,21.973,5391.2742115628,194.553812,0.3131716,0.98801840432,0,0,-0.671082,335.7, 0.4, -2.8,0,0,1024,1024,1024,1024,335.3,-89.9,96,3.67,3.689,3.684,3.698,3.726,3.674,19.814,59,14,Waypoint,
37.2566067,-119.3807953,5393.2427155628,196.522316,0,0.95899937452,25700,2018-06-17 20:05:10,12,0,21.973,5393.2427155628,196.522316,0.3131716,0.98801840432,0,0,-0.671082,335.6, 0.5, -2.8,0,0,1024,1024,1024,1024,335.3,-89.9,96,3.67,3.689,3.684,3.698,3.726,3.674,19.814,59,14,Waypoint,
37.2566068,-119.3807953,5394.5550515628,197.834652,0,0.96107942708,25900,2018-06-17 20:05:10,12,0,21.973,5394.5550515628,197.834652,0.3131716,0.98801840432,0,0,-0.671082,335.5, 0.6, -3.1,0,0,1024,1024,1024,1024,335.3,-89.9,96,3.67,3.689,3.684,3.698,3.726,3.674,19.814,59,14,Waypoint,
37.2566069,-119.3807952,5395.5393035628,198.818904,0,0.99339242024,26000,2018-06-17 20:05:10,12,0,22.179,5395.5393035628,198.818904,0.3131716,0.99339242024,0,0,-0.671082,335.4, 0.7, -3.3,0,0,1024,1024,1024,1024,335.3,-89.9,96,3.673,3.685,3.702,3.706,3.728,3.677,18.138,59,14,Waypoint,
37.2566069,-119.3807952,5396.5235555628,199.803156,0,0.99339242024,26100,2018-06-17 20:05:10,12,0,22.179,5396.5235555628,199.803156,0.3131716,0.99339242024,0,0,-0.671082,335.3, 0.9, -4,0,0,1024,1024,1024,1024,335.3,-89.9,96,3.673,3.685,3.702,3.706,3.728,3.677,18.138,59,14,Waypoint,
37.256607,-119.3807951,5397.5078075628,200.787408,0,1.02680777564,26200,2018-06-17 20:05:11,12,0,22.179,5397.5078075628,200.787408,0.3131716,1.02680777564,0,0,-0.671082,335.2, 1.1, -4.8,0,0,1024,1024,1024,1024,335.3,-89.9,96,3.673,3.685,3.702,3.706,3.728,3.677,18.138,59,14,Waypoint,
37.2566071,-119.380795,5398.4920595628,201.77166,0,1.0612205064,26300,2018-06-17 20:05:11,12,0,22.179,5398.4920595628,201.77166,0.3131716,1.0612205064,0,0,-0.671082,335.2, 1.3, -5,0,0,1024,1024,1024,1024,335.3,-89.9,96,3.673,3.685,3.702,3.706,3.728,3.677,18.138,59,14,Waypoint,
37.2566072,-119.380795,5399.4763115628,202.755912,0,1.06809714704,26400,2018-06-17 20:05:11,12,0,22.179,5399.4763115628,202.755912,0.3131716,1.06809714704,0,0,-0.671082,335.1, 1.5, -4.7,0,0,1024,1024,1024,1024,335.3,-89.9,96,3.673,3.685,3.702,3.706,3.728,3.677,18.138,59,14,Waypoint,
37.2566072,-119.3807949,5400.4605635628,203.740164,0,1.09653546816,26500,2018-06-17 20:05:11,12,0,22.179,5400.4605635628,203.740164,0.3131716,1.09653546816,0,0,-0.671082,335.1, 1.6, -4.8,0,0,1024,1024,1024,1024,335.3,-89.9,96,3.673,3.685,3.702,3.706,3.728,3.677,18.138,59,14,Waypoint,
37.2566073,-119.3807949,5401.4448155628,204.724416,0,1.10439964164,26600,2018-06-17 20:05:11,12,0,22.179,5401.4448155628,204.724416,0.3131716,1.10439964164,0,0,-0.671082,335.1, 1.7, -5,0,0,1024,1024,1024,1024,335.3,-89.9,96,3.673,3.685,3.702,3.706,3.728,3.677,18.138,59,14,Waypoint,
37.2566074,-119.380795,5403.4133195628,206.69292,0.223694,1.08540357804,26700,2018-06-17 20:05:11,12,0,22.179,5403.4133195628,206.69292,0.3131716,1.10439964164,0,0,-0.671082,335, 1.7, -4.4,0,0,1024,1024,1024,1024,335.3,-89.9,96,3.673,3.685,3.702,3.706,3.728,3.677,18.138,59,14,Waypoint,
