Latitude, Longitude, Altitude (m), Time, Sats, Speed (m/s), Range (m), Battery (%), Roll (deg), Pitch (deg), Yaw (deg), Images, HD Signal (%), RC Signal (%), Battery Temp (C), Battery Voltage (mV), Battery Current (mA), Battery Energy (mAh), Battery Capacity (mAh), Battery Discharges, flyState, timestamp (Unix), LastUpdate (ms), radioChannel, Rc_elevator, Rc_aileron, Rc_throttle, Rc_rudder, Rc_gyro, Dronetype, Battery_Cell1 (mV), Battery_Cell2 (mV), Battery_Cell3 (mV), Battery_Cell4 (mV), Battery_Cell5 (mV), Battery_Cell6 (mV), Video, isFlying, elapsedTime (ms), gimbalPitch (deg), gimbalRoll (deg), gimbalYaw (deg), VelocityX (m/s), VelocityY (m/s), VelocityZ (m/s), GroundSmear (cm), App Version, Aircraft Name, Aircraft Firmware, Aircraft Serial Number, Battery Serial Number, Battery Lifetime (%), App_Tip, App_Warning, CurrentFlightStartingIndex, CurrentFlightLastVisitedWaypoint, PreviousFlightEndingWaypointIndex
37.2566022, -119.3808266, 0.000, 12:11:36.723, 10, 0.30, 0.24, 98, 0.700, -0.500, -15.500, 2, 100, 100, 14, 25498, -3816, 5288, 5396, 16, 11, 1529262696.723, 11, 0, 1024, 1024, 1024, 1024, 0, 6, 4228, 4253, 4249, 4293, 4204, 4267, 0, 1, 3201, -89.900, 0.000, -15.300, -0.300, 0.000, -0.300, 0.1, MapPilot_2.8.1_04242018, Dendroctonus I, 1.3.1.00, 041DDC1887, 1058171200161, 96, DJI_0001.jpg, Starting Mission from Lat/Long: 37.25660/-119.38085 Camera: Zenmuse X3 - Overlap: 90/90 - Active Connection: No, 0, 0, 0
37.2566022, -119.3808266, 0.000, 12:11:36.823, 10, 0.30, 0.24, 98, 0.700, -0.500, -15.500, 2, 100, 100, 14, 25498, -3816, 5288, 5396, 16, 11, 1529262696.823, 111, 0, 1024, 1024, 1024, 1024, 0, 6, 4228, 4253, 4249, 4293, 4204, 4267, 0, 1, 3301, -89.900, 0.000, -15.300, -0.300, 0.000, -0.300, 0.1, , , , , , 96, , , 0, 0, 0
37.2566019, -119.3808266, 0.000, 12:11:36.923, 10, 0.30, 0.28, 98, 1.000, -1.300, -15.300, 2, 100, 100, 14, 25498, -3816, 5288, 5396, 16, 11, 1529262696.923, 79, 0, 1024, 1024, 1024, 1024, 0, 6, 4228, 4253, 4249, 4293, 4204, 4267, 0, 1, 3400, -90.000, 0.000, -15.300, -0.300, 0.000, -0.400, 0.0, , , , , , 96, , , 0, 0, 0
37.2566016, -119.3808266, 0.000, 12:11:37.023, 10, 0.20, 0.31, 98, 1.200, -2.200, -15.100, 2, 100, 100, 14, 25498, -3816, 5288, 5396, 16, 11, 1529262697.023, 88, 0, 1024, 1024, 1024, 1024, 0, 6, 4228, 4253, 4249, 4293, 4204, 4267, 0, 1, 3501, -90.000, 0.000, -15.300, -0.200, 0.000, -0.400, 0.0, , , , , , 96, , , 0, 0, 0
37.2566014, -119.3808267, 0.000, 12:11:37.123, 10, 0.20, 0.33, 98, 1.100, -2.900, -14.900, 2, 100, 100, 14, 24535, -5534, 5288, 5396, 16, 11, 1529262697.123, 80, 0, 1024, 1024, 1024, 1024, 0, 6, 4090, 4077, 4035, 4121, 4092, 4057, 0, 1, 3601, -89.900, 0.000, -15.300, -0.200, 0.000, -0.300, 0.0, , , , , , 96, , , 0, 0, 0
37.2566013, -119.3808268, 0.100, 12:11:37.223, 9, 0.10, 0.34, 98, 1.000, -2.900, -14.800, 2, 100, 100, 14, 24535, -5534, 5288, 5396, 16, 11, 1529262697.223, 92, 0, 1024, 1024, 1024, 1024, 0, 6, 4090, 4077, 4035, 4121, 4092, 4057, 0, 1, 3701, -89.900, 0.000, -15.300, -0.100, 0.000, -0.300, 0.0, , , , , , 96, , , 0, 0, 0
37.2566012, -119.3808268, 0.100, 12:11:37.323, 9, 0.00, 0.35, 98, 0.800, -1.900, -14.800, 2, 100, 100, 14, 24535, -5534, 5288, 5396, 16, 11, 1529262697.323, 93, 0, 1024, 1024, 1024, 1024, 0, 6, 4090, 4077, 4035, 4121, 4092, 4057, 0, 1, 3801, -89.900, 0.000, -15.300, 0.000, 0.000, -0.300, 0.0, , , , , , 96, , , 0, 0, 0
37.2566011, -119.3808269, 0.100, 12:11:37.423, 9, 0.00, 0.36, 98, 0.500, -1.000, -14.900, 2, 100, 100, 14, 24535, -5534, 5288, 5396, 16, 11, 1529262697.423, 81, 0, 1024, 1024, 1024, 1024, 0, 6, 4090, 4077, 4035, 4121, 4092, 4057, 0, 1, 3900, -89.900, 0.000, -15.300, 0.000, 0.000, -0.300, 0.0, , , , , , 96, , , 0, 0, 0
37.2566011, -119.3808269, 0.200, 12:11:37.523, 9, 0.00, 0.36, 98, 0.300, -0.600, -15.100, 2, 100, 100, 14, 24535, -5534, 5288, 5396, 16, 11, 1529262697.523, 71, 0, 1024, 1024, 1024, 1024, 0, 6, 4090, 4077, 4035, 4121, 4092, 4057, 0, 1, 4001, -89.900, 0.000, -15.300, 0.000, 0.000, -0.400, 0.0, , , , , , 96, , , 0, 0, 0
37.2566012, -119.3808270, 0.200, 12:11:37.623, 9, 0.00, 0.36, 98, 0.300, -0.400, -15.400, 2, 100, 100, 14, 24535, -5534, 5288, 5396, 16, 11, 1529262697.623, 67, 0, 1024, 1024, 1024, 1024, 0, 6, 4090, 4077, 4035, 4121, 4092, 4057, 0, 1, 4101, -89.900, 0.000, -15.300, 0.000, 0.000, -0.400, 0.0, , , , , , 96, , , 0, 0, 0
37.2566011, -119.3808270, 0.300, 12:11:37.723, 9, 0.00, 0.36, 98, 0.200, -0.300, -15.800, 2, 100, 100, 14, 24535, -5534, 5288, 5396, 16, 11, 1529262697.723, 71, 0, 1024, 1024, 1024, 1024, 0, 6, 4090, 4077, 4035, 4121, 4092, 4057, 0, 1, 4201, -89.900, 0.000, -15.300, 0.000, 0.000, -0.400, 0.0, , , , , , 96, , , 0, 0, 0
37.2566011, -119.3808270, 0.300, 12:11:37.823, 10, 0.00, 0.36, 98, 0.200, 0.000, -16.200, 2, 100, 100, 14, 24535, -5534, 5288, 5396, 16, 11, 1529262697.823, 60, 0, 1024, 1024, 1024, 1024, 0, 6, 4090, 4077, 4035, 4121, 4092, 4057, 0, 1, 4301, -89.900, 0.000, -15.300, 0.000, 0.000, -0.400, 0.0, , , , , , 96, , , 0, 0, 0
37.2566011, -119.3808271, 0.400, 12:11:37.923, 10, 0.00, 0.36, 98, 0.200, 0.200, -16.400, 2, 100, 100, 14, 24535, -5534, 5288, 5396, 16, 11, 1529262697.923, 67, 0, 1024, 1024, 1024, 1024, 0, 6, 4090, 4077, 4035, 4121, 4092, 4057, 0, 1, 4401, -89.900, 0.000, -15.300, 0.000, 0.000, -0.500, 0.0, , , , , , 96, , , 0, 0, 0
37.2566012, -119.3808271, 0.400, 12:11:38.023, 10, 0.00, 0.35, 98, 0.300, 0.400, -16.700, 2, 100, 100, 14, 24535, -5534, 5288, 5396, 16, 11, 1529262698.023, 62, 0, 1024, 1024, 1024, 1024, 0, 6, 4090, 4077, 4035, 4121, 4092, 4057, 0, 1, 4500, -89.900, 0.000, -15.300, 0.000, 0.000, -0.400, 0.0, , , , , , 96, , , 0, 0, 0
37.2566012, -119.3808272, 0.400, 12:11:38.123, 10, 0.00, 0.35, 98, 0.400, 0.500, -16.700, 2, 100, 100, 14, 23499, -15294, 5288, 5396, 16, 11, 1529262698.123, 44, 0, 1024, 1024, 1024, 1024, 0, 6, 3920, 3924, 3889, 3935, 3908, 3895, 0, 1, 4601, -89.900, 0.000, -15.300, 0.000, 0.000, -0.300, 0.0, , , , , , 96, , , 0, 0, 0
37.2566013, -119.3808273, 0.500, 12:11:38.223, 10, 0.00, 0.34, 98, 0.400, 0.700, -16.600, 2, 100, 100, 14, 23499, -15294, 5288, 5396, 16, 11, 1529262698.223, 49, 0, 1024, 1024, 1024, 1024, 0, 6, 3920, 3924, 3889, 3935, 3908, 3895, 0, 1, 4700, -89.900, 0.000, -15.300, 0.000, 0.000, -0.400, 0.0, , , , , , 96, , , 0, 0, 0
37.2566014, -119.3808274, 0.500, 12:11:38.323, 10, 0.10, 0.34, 98, 0.600, 0.900, -16.400, 2, 100, 100, 14, 23499, -15294, 5288, 5396, 16, 11, 1529262698.323, 39, 0, 1024, 1024, 1024, 1024, 0, 6, 3920, 3924, 3889, 3935, 3908, 3895, 0, 1, 4800, -89.900, 0.000, -15.300, 0.100, 0.000, -0.400, 0.0, , , , , , 96, , , 0, 0, 0
37.2566014, -119.3808275, 0.600, 12:11:38.423, 10, 0.10, 0.33, 98, 0.700, 1.200, -16.300, 2, 100, 100, 14, 23499, -15294, 5288, 5396, 16, 11, 1529262698.423, 29, 0, 1024, 1024, 1024, 1024, 0, 6, 3920, 3924, 3889, 3935, 3908, 3895, 0, 1, 4900, -89.900, 0.000, -15.300, 0.100, 0.000, -0.400, 0.0, , , , , , 96, , , 0, 0, 0
37.2566015, -119.3808275, 0.600, 12:11:38.523, 10, 0.10, 0.32, 98, 0.800, 1.400, -16.300, 2, 100, 100, 14, 23499, -15294, 5288, 5396, 16, 11, 1529262698.523, 31, 0, 1024, 1024, 1024, 1024, 0, 6, 3920, 3924, 3889, 3935, 3908, 3895, 0, 1, 5000, -89.900, 0.000, -15.300, 0.100, 0.000, -0.500, 0.0, , , , , , 96, , , 0, 0, 0
37.2566016, -119.3808275, 0.600, 12:11:38.623, 9, 0.10, 0.31, 98, 0.700, 1.500, -16.200, 2, 100, 100, 14, 23499, -15294, 5288, 5396, 16, 11, 1529262698.623, 26, 0, 1024, 1024, 1024, 1024, 0, 6, 3920, 3924, 3889, 3935, 3908, 3895, 0, 1, 5100, -89.900, 0.000, -15.300, 0.100, 0.000, -0.400, 0.0, , , , , , 96, , , 0, 0, 0
37.2566018, -119.3808274, 0.700, 12:11:38.723, 9, 0.10, 0.29, 98, 0.700, 1.400, -16.300, 2, 100, 100, 14, 23499, -15294, 5288, 5396, 16, 11, 1529262698.723, 29, 0, 1024, 1024, 1024, 1024, 0, 6, 3920, 3924, 3889, 3935, 3908, 3895, 0, 1, 5200, -89.900, 0.000, -15.300, 0.100, 0.000, -0.400, 0.0, , , , , , 96, , , 0, 0, 0
37.2566019, -119.3808273, 0.700, 12:11:38.822, 10, 0.10, 0.28, 98, 0.400, 1.400, -16.300, 2, 100, 100, 14, 23499, -15294, 5288, 5396, 16, 11, 1529262698.822, 34, 0, 1024, 1024, 1024, 1024, 0, 6, 3920, 3924, 3889, 3935, 3908, 3895, 0, 1, 5300, -89.900, 0.000, -15.300, 0.100, 0.000, -0.400, 0.0, , , , , , 96, , , 0, 0, 0
37.2566020, -119.3808274, 0.800, 12:11:38.923, 10, 0.10, 0.27, 98, 0.200, 1.500, -16.500, 2, 100, 100, 14, 23499, -15294, 5288, 5396, 16, 11, 1529262698.923, 26, 0, 1024, 1024, 1024, 1024, 0, 6, 3920, 3924, 3889, 3935, 3908, 3895, 0, 1, 5400, -89.900, 0.000, -15.300, 0.100, 0.000, -0.400, 0.0, , , , , , 96, , , 0, 0, 0
37.2566020, -119.3808276, 0.800, 12:11:39.023, 10, 0.00, 0.27, 98, 0.400, 1.500, -16.700, 2, 100, 100, 14, 23211, -16473, 5288, 5396, 16, 11, 1529262699.023, 30, 0, 1024, 1024, 1024, 1024, 0, 6, 3867, 3874, 3842, 3885, 3867, 3865, 0, 1, 5500, -89.900, 0.000, -15.300, 0.000, 0.000, -0.400, 0.0, , , , , , 96, , , 0, 0, 0
37.2566020, -119.3808278, 0.900, 12:11:39.123, 10, 0.00, 0.28, 98, 0.700, 1.500, -16.800, 2, 100, 100, 14, 23211, -16473, 5288, 5396, 16, 11, 1529262699.123, 23, 0, 1024, 1024, 1024, 1024, 0, 6, 3867, 3874, 3842, 3885, 3867, 3865, 0, 1, 5600, -89.900, 0.000, -15.300, 0.000, 0.000, -0.400, 0.0, , , , , , 96, , , 0, 0, 0
37.2566020, -119.3808280, 0.900, 12:11:39.223, 9, 0.00, 0.29, 98, 1.100, 1.700, -16.900, 2, 100, 100, 14, 23211, -16473, 5288, 5396, 16, 14, 1529262699.223, 11, 0, 1024, 1024, 1024, 1024, 0, 6, 3867, 3874, 3842, 3885, 3867, 3865, 0, 1, 5700, -89.900, 0.000, -15.300, 0.000, 0.000, -0.400, 0.0, , , , , , 96, , , 0, 0, 0
37.2566020, -119.3808281, 0.900, 12:11:39.322, 9, 0.00, 0.29, 98, 1.400, 1.700, -16.900, 2, 100, 100, 14, 23211, -16473, 5288, 5396, 16, 14, 1529262699.323, 2, 0, 1024, 1024, 1024, 1024, 0, 6, 3867, 3874, 3842, 3885, 3867, 3865, 0, 1, 5800, -89.900, 0.000, -15.400, 0.000, 0.000, -0.300, 0.0, , , , , , 96, , , 0, 0, 0
37.2566021, -119.3808283, 1.000, 12:11:39.423, 10, 0.00, 0.28, 98, 1.100, 1.400, -16.900, 2, 100, 100, 14, 23211, -16473, 5288, 5396, 16, 14, 1529262699.423, 0, 0, 1024, 1024, 1024, 1024, 0, 6, 3867, 3874, 3842, 3885, 3867, 3865, 0, 1, 5901, -89.900, 0.000, -15.400, 0.000, 0.000, -0.200, 0.0, , , , , , 96, , , 0, 0, 0
37.2566022, -119.3808284, 1.000, 12:11:39.523, 9, 0.00, 0.28, 98, 0.700, 1.400, -17.000, 2, 100, 100, 14, 23211, -16473, 5288, 5396, 16, 14, 1529262699.523, 8, 0, 1024, 1024, 1024, 1024, 0, 6, 3867, 3874, 3842, 3885, 3867, 3865, 0, 1, 6000, -89.900, 0.000, -15.400, 0.000, 0.000, -0.300, 0.0, , , , , , 96, , , 0, 0, 0
37.2566022, -119.3808284, 1.000, 12:11:39.623, 9, 0.00, 0.28, 98, 0.700, 1.400, -17.000, 2, 100, 100, 14, 23211, -16473, 5288, 5396, 16, 14, 1529262699.623, 108, 0, 1024, 1024, 1024, 1024, 0, 6, 3867, 3874, 3842, 3885, 3867, 3865, 0, 1, 6100, -89.900, 0.000, -15.400, 0.000, 0.000, -0.300, 0.0, , , , , , 96, , , 0, 0, 0
37.2566023, -119.3808284, 1.100, 12:11:39.723, 9, 0.00, 0.27, 98, 0.300, 1.400, -17.000, 2, 100, 100, 14, 23211, -16473, 5288, 5396, 16, 14, 1529262699.723, 85, 0, 1024, 1024, 1024, 1024, 0, 6, 3867, 3874, 3842, 3885, 3867, 3865, 0, 1, 6200, -89.900, 0.000, -15.400, 0.000, 0.000, -0.400, 0.0, , , , , , 96, , , 0, 0, 0
37.2566024, -119.3808285, 1.100, 12:11:39.823, 9, 0.00, 0.26, 98, 0.100, 1.500, -17.000, 2, 100, 100, 14, 23211, -16473, 5288, 5396, 16, 14, 1529262699.823, 98, 0, 1024, 1024, 1024, 1024, 0, 6, 3867, 3874, 3842, 3885, 3867, 3865, 0, 1, 6300, -89.900, 0.000, -15.500, 0.000, 0.000, -0.500, 0.0, , , , , , 96, , , 0, 0, 0
37.2566025, -119.3808285, 1.200, 12:11:39.923, 9, 0.00, 0.25, 98, 0.000, 1.600, -16.900, 2, 100, 100, 14, 23211, -16473, 5288, 5396, 16, 14, 1529262699.923, 78, 0, 1024, 1024, 1024, 1024, 0, 6, 3867, 3874, 3842, 3885, 3867, 3865, 0, 1, 6400, -89.900, 0.000, -15.500, 0.000, 0.000, -0.700, 0.0, , , , , , 96, , , 0, 0, 0
37.2566027, -119.3808285, 1.300, 12:11:40.023, 10, 0.00, 0.24, 98, 0.000, 1.600, -16.900, 2, 100, 100, 14, 23211, -16473, 5288, 5396, 16, 14, 1529262700.023, 72, 0, 1024, 1024, 1024, 1024, 0, 6, 3867, 3874, 3842, 3885, 3867, 3865, 0, 1, 6500, -89.900, 0.000, -15.500, 0.000, 0.000, -0.900, 0.0, , , , , , 96, , , 0, 0, 0
37.2566028, -119.3808284, 1.300, 12:11:40.123, 10, 0.00, 0.22, 98, 0.000, 1.700, -16.800, 2, 100, 100, 14, 23111, -16955, 5288, 5396, 16, 14, 1529262700.123, 72, 0, 1024, 1024, 1024, 1024, 0, 6, 3845, 3848, 3834, 3862, 3947, 3857, 0, 1, 6600, -89.900, 0.000, -15.500, 0.000, 0.000, -1.000, 0.0, , , , , , 96, , , 0, 0, 0
37.2566030, -119.3808284, 1.500, 12:11:40.223, 10, 0.00, 0.21, 98, 0.000, 2.000, -16.700, 2, 100, 100, 14, 23111, -16955, 5288, 5396, 16, 14, 1529262700.223, 62, 0, 1024, 1024, 1024, 1024, 0, 6, 3845, 3848, 3834, 3862, 3947, 3857, 0, 1, 6700, -89.900, 0.000, -15.500, 0.000, 0.000, -1.300, 0.0, , , , , , 96, , , 0, 0, 0
37.2566031, -119.3808283, 1.600, 12:11:40.323, 10, 0.00, 0.19, 98, 0.000, 2.200, -16.600, 2, 100, 100, 14, 23111, -16955, 5288, 5396, 16, 14, 1529262700.323, 59, 0, 1024, 1024, 1024, 1024, 0, 6, 3845, 3848, 3834, 3862, 3947, 3857, 0, 1, 6800, -89.900, 0.000, -15.600, 0.000, 0.000, -1.500, 0.0, , , , , , 96, , , 0, 0, 0
37.2566033, -119.3808282, 1.700, 12:11:40.423, 10, 0.00, 0.18, 98, -0.100, 2.200, -16.500, 2, 100, 100, 14, 23111, -16955, 5288, 5396, 16, 14, 1529262700.423, 68, 0, 1024, 1024, 1024, 1024, 0, 6, 3845, 3848, 3834, 3862, 3947, 3857, 0, 1, 6900, -89.900, 0.000, -15.600, 0.000, 0.000, -1.600, 0.0, , , , , , 96, , , 0, 0, 0
37.2566035, -119.3808281, 1.900, 12:11:40.523, 10, 0.00, 0.15, 98, -0.500, 2.100, -16.500, 2, 100, 100, 14, 23111, -16955, 5288, 5396, 16, 14, 1529262700.523, 59, 0, 1024, 1024, 1024, 1024, 0, 6, 3845, 3848, 3834, 3862, 3947, 3857, 0, 1, 7000, -89.900, 0.000, -15.600, 0.000, 0.000, -1.900, 0.0, , , , , , 96, , , 0, 0, 0
37.2566038, -119.3808280, 2.100, 12:11:40.622, 11, 0.00, 0.13, 98, -0.900, 2.200, -16.500, 2, 100, 100, 14, 23111, -16955, 5288, 5396, 16, 14, 1529262700.622, 61, 0, 1024, 1024, 1024, 1024, 0, 6, 3845, 3848, 3834, 3862, 3947, 3857, 0, 1, 7100, -89.900, 0.000, -15.600, 0.000, 0.000, -2.200, 0.0, , , , , , 96, , , 0, 0, 0
37.2566040, -119.3808278, 2.300, 12:11:40.722, 11, 0.00, 0.10, 98, -1.200, 2.500, -16.600, 2, 100, 100, 14, 23111, -16955, 5288, 5396, 16, 14, 1529262700.722, 54, 0, 1024, 1024, 1024, 1024, 0, 6, 3845, 3848, 3834, 3862, 3947, 3857, 0, 1, 7200, -89.900, 0.000, -15.600, 0.000, 0.000, -2.400, 0.0, , , , , , 96, , , 0, 0, 0
37.2566042, -119.3808275, 2.600, 12:11:40.823, 10, 0.00, 0.07, 98, -1.400, 2.600, -16.700, 2, 100, 100, 14, 23111, -16955, 5288, 5396, 16, 14, 1529262700.823, 27, 0, 1024, 1024, 1024, 1024, 0, 6, 3845, 3848, 3834, 3862, 3947, 3857, 0, 1, 7300, -89.900, 0.000, -15.600, 0.000, 0.000, -2.700, 0.0, , , , , , 96, , , 0, 0, 0
37.2566044, -119.3808272, 2.900, 12:11:40.923, 10, 0.00, 0.04, 98, -1.900, 2.600, -16.800, 2, 100, 100, 14, 23111, -16955, 5288, 5396, 16, 14, 1529262700.923, 35, 0, 1024, 1024, 1024, 1024, 0, 6, 3845, 3848, 3834, 3862, 3947, 3857, 0, 1, 7400, -89.900, 0.000, -15.700, 0.000, 0.000, -3.000, 0.0, , , , , , 96, , , 0, 0, 0
37.2566046, -119.3808269, 3.200, 12:11:41.023, 10, 0.00, 0.03, 98, -2.100, 2.600, -17.000, 2, 100, 100, 14, 23111, -16955, 5288, 5396, 16, 14, 1529262701.023, 15, 0, 1024, 1024, 1024, 1024, 0, 6, 3845, 3848, 3834, 3862, 3947, 3857, 0, 1, 7500, -89.900, 0.000, -15.700, 0.000, 0.000, -3.200, 0.0, , , , , , 96, , , 0, 0, 0
37.2566048, -119.3808268, 3.600, 12:11:41.123, 10, 0.00, 0.04, 98, -2.200, 2.600, -17.100, 2, 100, 100, 14, 22626, -22852, 5288, 5396, 16, 14, 1529262701.123, 23, 0, 1024, 1024, 1024, 1024, 0, 6, 3845, 3848, 3834, 3862, 3947, 3857, 0, 1, 7600, -89.900, 0.000, -15.700, 0.000, 0.000, -3.200, 0.0, , , , , , 96, , , 0, 0, 0
37.2566049, -119.3808267, 3.900, 12:11:41.223, 8, 0.00, 0.06, 98, -2.000, 2.700, -17.100, 2, 100, 100, 14, 22626, -22852, 5288, 5396, 16, 14, 1529262701.223, 15, 0, 1024, 1024, 1024, 1024, 0, 6, 3845, 3848, 3834, 3862, 3947, 3857, 0, 1, 7700, -89.900, 0.000, -15.700, 0.000, 0.000, -3.300, 0.0, , , , , , 96, , , 0, 0, 0
37.2566050, -119.3808266, 4.200, 12:11:41.323, 8, 0.00, 0.07, 98, -1.900, 2.700, -17.100, 2, 100, 100, 14, 22626, -22852, 5288, 5396, 16, 14, 1529262701.323, 10, 0, 1024, 1024, 1024, 1024, 0, 6, 3845, 3848, 3834, 3862, 3947, 3857, 0, 1, 7800, -89.900, 0.000, -15.700, 0.000, 0.000, -3.400, 0.0, , , , , , 96, , , 0, 0, 0
37.2566050, -119.3808265, 4.600, 12:11:41.423, 11, 0.00, 0.07, 98, -1.700, 2.800, -17.100, 2, 100, 100, 14, 22626, -22852, 5288, 5396, 16, 14, 1529262701.423, 24, 0, 1024, 1024, 1024, 1024, 0, 6, 3845, 3848, 3834, 3862, 3947, 3857, 0, 1, 7900, -89.900, 0.000, -15.700, 0.000, 0.000, -3.400, 0.0, , , , , , 96, , , 0, 0, 0
37.2566049, -119.3808265, 5.000, 12:11:41.523, 11, 0.00, 0.07, 98, -1.500, 2.600, -16.900, 2, 100, 100, 14, 22626, -22852, 5288, 5396, 16, 14, 1529262701.523, 21, 0, 1024, 1024, 1024, 1024, 0, 6, 3768, 3777, 3722, 3757, 3753, 3732, 0, 1, 8000, -89.900, 0.000, -15.800, 0.000, 0.000, -3.400, 0.0, , , , , , 96, , , 0, 0, 0
37.2566049, -119.3808265, 5.300, 12:11:41.623, 10, 0.10, 0.06, 98, -1.300, 2.200, -16.800, 2, 100, 100, 14, 22626, -22852, 5288, 5396, 16, 14, 1529262701.623, 12, 0, 1024, 1024, 1024, 1024, 0, 6, 3768, 3777, 3722, 3757, 3753, 3732, 0, 1, 8100, -90.000, 0.000, -15.800, -0.100, 0.000, -3.400, 0.0, , , , , , 96, , , 0, 0, 0
37.2566047, -119.3808267, 5.700, 12:11:41.723, 10, 0.10, 0.04, 98, -1.100, 1.700, -16.800, 2, 100, 100, 14, 22626, -22852, 5288, 5396, 16, 14, 1529262701.723, 4, 0, 1024, 1024, 1024, 1024, 0, 6, 3768, 3777, 3722, 3757, 3753, 3732, 0, 1, 8200, -89.900, 0.000, -15.800, -0.100, 0.000, -3.400, 0.0, , , , , , 96, , , 0, 0, 0
37.2566047, -119.3808267, 5.700, 12:11:41.823, 10, 0.10, 0.04, 98, -1.100, 1.700, -16.800, 2, 100, 100, 14, 22626, -22852, 5288, 5396, 16, 14, 1529262701.823, 104, 0, 1024, 1024, 1024, 1024, 0, 6, 3768, 3777, 3722, 3757, 3753, 3732, 0, 1, 8300, -89.900, 0.000, -15.800, -0.100, 0.000, -3.400, 0.0, , , , , , 96, , , 0, 0, 0
37.2566046, -119.3808270, 6.400, 12:11:41.924, 11, 0.10, 0.03, 98, -0.500, 1.700, -16.900, 2, 100, 100, 14, 22626, -22852, 5288, 5396, 16, 14, 1529262701.924, 93, 0, 1024, 1024, 1024, 1024, 0, 6, 3768, 3777, 3722, 3757, 3753, 3732, 0, 1, 8401, -90.000, 0.000, -15.800, -0.100, 0.000, -3.300, 0.0, , , , , , 96, , , 0, 0, 0
37.2566045, -119.3808271, 6.700, 12:11:42.023, 11, 0.10, 0.04, 98, -0.200, 1.800, -16.800, 2, 100, 100, 14, 22626, -22852, 5288, 5396, 16, 14, 1529262702.023, 97, 0, 1024, 1024, 1024, 1024, 0, 6, 3768, 3777, 3722, 3757, 3753, 3732, 0, 1, 8500, -90.000, 0.000, -15.800, -0.100, 0.000, -3.300, 0.0, , , , , , 96, , , 0, 0, 0
37.2566044, -119.3808273, 7.100, 12:11:42.122, 11, 0.10, 0.04, 98, 0.000, 1.700, -16.800, 2, 100, 100, 14, 22626, -22852, 5288, 5396, 16, 14, 1529262702.122, 92, 0, 1024, 1024, 1024, 1024, 0, 6, 3768, 3777, 3722, 3757, 3753, 3732, 0, 1, 8600, -89.900, 0.000, -15.800, -0.100, 0.000, -3.200, 0.0, , , , , , 96, , , 0, 0, 0
37.2566043, -119.3808274, 7.400, 12:11:42.223, 11, 0.10, 0.06, 98, 0.000, 1.800, -16.900, 2, 100, 100, 14, 22626, -22852, 5288, 5396, 16, 14, 1529262702.223, 84, 0, 1024, 1024, 1024, 1024, 0, 6, 3768, 3777, 3722, 3757, 3753, 3732, 0, 1, 8700, -89.900, 0.000, -15.800, -0.100, 0.000, -3.200, 0.0, , , , , , 96, , , 0, 0, 0
37.2566042, -119.3808277, 7.700, 12:11:42.323, 11, 0.10, 0.08, 98, 0.100, 1.800, -17.000, 2, 100, 100, 14, 22626, -22852, 5288, 5396, 16, 14, 1529262702.323, 82, 0, 1024, 1024, 1024, 1024, 0, 6, 3768, 3777, 3722, 3757, 3753, 3732, 0, 1, 8800, -89.900, 0.000, -15.900, -0.100, 0.000, -3.200, 0.0, , , , , , 96, , , 0, 0, 0
37.2566042, -119.3808279, 8.100, 12:11:42.423, 11, 0.10, 0.10, 98, 0.600, 1.700, -17.100, 2, 100, 100, 14, 22626, -22852, 5288, 5396, 16, 14, 1529262702.423, 68, 0, 1024, 1024, 1024, 1024, 0, 6, 3768, 3777, 3722, 3757, 3753, 3732, 0, 1, 8900, -89.900, 0.000, -15.900, -0.100, 0.000, -3.200, 0.0, , , , , , 96, , , 0, 0, 0
37.2566041, -119.3808280, 8.400, 12:11:42.523, 11, 0.10, 0.11, 98, 1.000, 1.700, -17.200, 2, 100, 100, 14, 22626, -22852, 5288, 5396, 16, 14, 1529262702.523, 69, 0, 1024, 1024, 1024, 1024, 0, 6, 3768, 3777, 3722, 3757, 3753, 3732, 0, 1, 9000, -89.900, 0.000, -15.900, -0.100, 0.000, -3.100, 0.0, , , , , , 96, , , 0, 0, 0
37.2566040, -119.3808281, 8.700, 12:11:42.623, 11, 0.10, 0.13, 97, 1.000, 1.600, -17.200, 2, 100, 100, 14, 22204, -24409, 5234, 5396, 16, 14, 1529262702.623, 62, 0, 1024, 1024, 1024, 1024, 0, 6, 3737, 3714, 3719, 3739, 3735, 3718, 0, 1, 9100, -89.900, 0.000, -15.900, -0.100, 0.000, -3.200, 0.0, , , , , , 96, , , 0, 0, 0
37.2566038, -119.3808284, 9.100, 12:11:42.722, 11, 0.10, 0.15, 97, 0.900, 1.500, -17.200, 2, 100, 100, 14, 22204, -24409, 5234, 5396, 16, 14, 1529262702.722, 51, 0, 1024, 1024, 1024, 1024, 0, 6, 3737, 3714, 3719, 3739, 3735, 3718, 0, 1, 9200, -90.000, 0.000, -15.900, -0.100, 0.000, -3.200, 0.0, , , , , , 96, , , 0, 0, 0
37.2566036, -119.3808286, 9.400, 12:11:42.823, 11, 0.10, 0.18, 97, 0.800, 1.400, -17.100, 2, 100, 100, 14, 22204, -24409, 5234, 5396, 16, 14, 1529262702.823, 56, 0, 1024, 1024, 1024, 1024, 0, 6, 3737, 3714, 3719, 3739, 3735, 3718, 0, 1, 9300, -89.900, 0.000, -15.900, -0.100, 0.000, -3.100, 0.0, , , , , , 96, , , 0, 0, 0
37.2566033, -119.3808289, 9.700, 12:11:42.922, 11, 0.10, 0.22, 97, 1.000, 1.200, -17.000, 2, 100, 100, 14, 22204, -24409, 5234, 5396, 16, 14, 1529262702.923, 29, 0, 1024, 1024, 1024, 1024, 0, 6, 3737, 3714, 3719, 3739, 3735, 3718, 0, 1, 9400, -90.000, 0.000, -15.900, -0.100, 0.000, -3.100, 0.0, , , , , , 96, , , 0, 0, 0
37.2566031, -119.3808293, 10.000, 12:11:43.023, 11, 0.10, 0.27, 97, 1.500, 0.800, -16.900, 2, 100, 100, 14, 22204, -24409, 5234, 5396, 16, 14, 1529262703.023, 21, 0, 1024, 1024, 1024, 1024, 0, 6, 3737, 3714, 3719, 3739, 3735, 3718, 0, 1, 9500, -90.000, 0.000, -15.900, -0.100, 0.000, -3.100, 0.0, , , , , , 96, , , 0, 0, 0
37.2566028, -119.3808297, 10.400, 12:11:43.123, 11, 0.10, 0.31, 97, 2.100, 0.600, -16.800, 2, 100, 97, 14, 22204, -24409, 5234, 5396, 16, 14, 1529262703.123, 26, 0, 1024, 1024, 1024, 1024, 0, 6, 3737, 3714, 3719, 3739, 3735, 3718, 0, 1, 9600, -90.000, 0.000, -15.900, -0.100, 0.000, -3.100, 0.0, , , , , , 96, , , 0, 0, 0
37.2566025, -119.3808301, 10.700, 12:11:43.222, 10, 0.10, 0.36, 97, 2.800, 0.500, -16.700, 2, 100, 97, 14, 22204, -24409, 5234, 5396, 16, 14, 1529262703.222, 15, 0, 1024, 1024, 1024, 1024, 0, 6, 3737, 3714, 3719, 3739, 3735, 3718, 0, 1, 9700, -89.900, 0.000, -15.900, -0.100, 0.000, -3.100, 0.0, , , , , , 96, , , 0, 0, 0
37.2566023, -119.3808303, 11.000, 12:11:43.327, 10, 0.10, 0.38, 97, 3.100, 0.400, -16.800, 2, 100, 97, 14, 22204, -24409, 5234, 5396, 16, 14, 1529262703.327, 4, 0, 1024, 1024, 1024, 1024, 0, 6, 3737, 3714, 3719, 3739, 3735, 3718, 0, 1, 9805, -90.000, 0.000, -15.900, -0.100, 0.000, -3.000, 0.0, , , , , , 96, , , 0, 0, 0
37.2566022, -119.3808304, 11.300, 12:11:43.423, 10, 0.00, 0.41, 97, 2.600, 0.100, -16.800, 2, 100, 97, 14, 22204, -24409, 5234, 5396, 16, 14, 1529262703.423, 24, 0, 1024, 1024, 1024, 1024, 0, 6, 3737, 3714, 3719, 3739, 3735, 3718, 0, 1, 9900, -89.900, 0.000, -15.900, 0.000, 0.000, -3.000, 0.0, , , , , , 96, , , 0, 0, 0
37.2566020, -119.3808306, 11.700, 12:11:43.523, 10, 0.00, 0.43, 97, 2.000, 0.000, -16.800, 2, 100, 97, 14, 22683, -18823, 5234, 5396, 16, 14, 1529262703.523, 13, 0, 1024, 1024, 1024, 1024, 0, 6, 3790, 3773, 3761, 3797, 3789, 3780, 0, 1, 10000, -89.900, 0.000, -15.900, 0.000, 0.000, -2.900, 0.0, , , , , , 96, , , 0, 0, 0
37.2566016, -119.3808306, 12.300, 12:11:43.625, 10, 0.10, 0.46, 97, 1.100, 0.000, -16.800, 2, 100, 95, 14, 22683, -18823, 5234, 5396, 16, 14, 1529262703.625, 1, 0, 1024, 1024, 1024, 1024, 0, 6, 3790, 3773, 3761, 3797, 3789, 3780, 0, 1, 10103, -89.900, 0.000, -15.900, 0.000, 0.100, -2.900, 0.0, , , , , , 96, , , 0, 0, 0
37.2566016, -119.3808306, 12.300, 12:11:43.723, 10, 0.10, 0.46, 97, 1.100, 0.000, -16.800, 2, 100, 95, 14, 22683, -18823, 5234, 5396, 16, 14, 1529262703.723, 99, 0, 1024, 1024, 1024, 1024, 0, 6, 3790, 3773, 3761, 3797, 3789, 3780, 0, 1, 10200, -89.900, 0.000, -15.900, 0.000, 0.100, -2.900, 0.0, , , , , , 96, , , 0, 0, 0
37.2566016, -119.3808306, 12.300, 12:11:43.823, 10, 0.10, 0.46, 97, 1.100, 0.000, -16.800, 2, 100, 95, 14, 22683, -18823, 5234, 5396, 16, 14, 1529262703.823, 199, 0, 1024, 1024, 1024, 1024, 0, 6, 3790, 3773, 3761, 3797, 3789, 3780, 0, 1, 10300, -90.000, 0.000, -15.900, 0.000, 0.100, -2.900, 0.0, , , , , , 96, , , 0, 0, 0
37.2566013, -119.3808307, 12.900, 12:11:43.923, 11, 0.00, 0.49, 97, 0.800, 0.000, -17.000, 2, 100, 95, 14, 22683, -18823, 5234, 5396, 16, 14, 1529262703.923, 93, 0, 1024, 1024, 1024, 1024, 0, 6, 3790, 3773, 3761, 3797, 3789, 3780, 0, 1, 10400, -89.900, 0.000, -15.900, 0.000, 0.000, -2.900, 0.0, , , , , , 96, , , 0, 0, 0
37.2566013, -119.3808307, 12.900, 12:11:44.022, 11, 0.00, 0.49, 97, 0.800, 0.000, -17.000, 2, 100, 95, 14, 22683, -18823, 5234, 5396, 16, 14, 1529262704.022, 193, 0, 1024, 1024, 1024, 1024, 0, 6, 3790, 3773, 3761, 3797, 3789, 3780, 0, 1, 10500, -89.900, 0.000, -15.900, 0.000, 0.000, -2.900, 0.0, , , , , , 96, , , 0, 0, 0
37.2566012, -119.3808308, 13.500, 12:11:44.123, 12, 0.00, 0.50, 97, 1.300, 0.300, -17.000, 2, 100, 95, 14, 22683, -18823, 5234, 5396, 16, 14, 1529262704.123, 77, 0, 1024, 1024, 1024, 1024, 0, 6, 3790, 3773, 3761, 3797, 3789, 3780, 0, 1, 10600, -89.900, 0.000, -15.900, 0.000, 0.000, -2.900, 0.0, , , , , , 96, , , 0, 0, 0
37.2566011, -119.3808308, 13.800, 12:11:44.222, 12, 0.10, 0.50, 97, 1.100, 0.500, -17.000, 2, 100, 94, 14, 22683, -18823, 5234, 5396, 16, 14, 1529262704.223, 91, 0, 1024, 1024, 1024, 1024, 0, 6, 3790, 3773, 3761, 3797, 3789, 3780, 0, 1, 10700, -89.900, 0.000, -15.900, 0.000, 0.100, -2.900, 0.0, , , , , , 96, , , 0, 0, 0
37.2566011, -119.3808308, 14.100, 12:11:44.322, 12, 0.10, 0.51, 97, 0.900, 0.700, -17.000, 2, 100, 94, 14, 22683, -18823, 5234, 5396, 16, 14, 1529262704.323, 81, 0, 1024, 1024, 1024, 1024, 0, 6, 3790, 3773, 3761, 3797, 3789, 3780, 0, 1, 10800, -89.900, 0.000, -15.900, 0.000, 0.100, -2.900, 0.0, , , , , , 96, , , 0, 0, 0
37.2566011, -119.3808308, 14.400, 12:11:44.422, 11, 0.10, 0.51, 97, 1.000, 0.900, -17.000, 2, 100, 94, 14, 22683, -18823, 5234, 5396, 16, 14, 1529262704.423, 75, 0, 1024, 1024, 1024, 1024, 0, 6, 3790, 3773, 3761, 3797, 3789, 3780, 0, 1, 10900, -89.900, 0.000, -15.900, 0.000, 0.100, -2.900, 0.0, , , , , , 96, , , 0, 0, 0
37.2566011, -119.3808306, 14.700, 12:11:44.522, 11, 0.10, 0.50, 97, 0.900, 0.700, -17.000, 2, 100, 94, 14, 22683, -18823, 5234, 5396, 16, 14, 1529262704.523, 62, 0, 1024, 1024, 1024, 1024, 0, 6, 3790, 3773, 3761, 3797, 3789, 3780, 0, 1, 11000, -89.900, 0.000, -15.900, 0.000, 0.100, -2.900, 0.0, , , , , , 96, , , 0, 0, 0
37.2566011, -119.3808305, 15.000, 12:11:44.622, 11, 0.10, 0.49, 97, 0.500, 0.500, -16.900, 2, 100, 96, 14, 22746, -18454, 5234, 5396, 16, 14, 1529262704.623, 66, 0, 1024, 1024, 1024, 1024, 0, 6, 3793, 3794, 3751, 3804, 3789, 3792, 0, 1, 11100, -89.900, 0.000, -15.900, 0.000, 0.100, -2.900, 0.0, , , , , , 96, , , 0, 0, 0
37.2566011, -119.3808303, 15.300, 12:11:44.723, 11, 0.10, 0.48, 97, 0.000, 0.200, -16.800, 2, 100, 96, 14, 22746, -18454, 5234, 5396, 16, 14, 1529262704.723, 38, 0, 1024, 1024, 1024, 1024, 0, 6, 3793, 3794, 3751, 3804, 3789, 3792, 0, 1, 11200, -89.900, 0.000, -15.900, 0.000, 0.100, -2.900, 0.0, , , , , , 96, , , 0, 0, 0
37.2566011, -119.3808301, 15.600, 12:11:44.822, 11, 0.10, 0.47, 97, -0.200, 0.100, -16.600, 2, 100, 96, 14, 22746, -18454, 5234, 5396, 16, 14, 1529262704.823, 40, 0, 1024, 1024, 1024, 1024, 0, 6, 3793, 3794, 3751, 3804, 3789, 3792, 0, 1, 11300, -89.900, 0.000, -15.900, 0.000, 0.100, -2.900, 0.0, , , , , , 96, , , 0, 0, 0
37.2566011, -119.3808299, 15.800, 12:11:44.922, 11, 0.10, 0.46, 97, -0.700, 0.100, -16.500, 2, 100, 96, 14, 22746, -18454, 5234, 5396, 16, 14, 1529262704.923, 44, 0, 1024, 1024, 1024, 1024, 0, 6, 3793, 3794, 3751, 3804, 3789, 3792, 0, 1, 11400, -89.900, 0.000, -15.900, 0.000, 0.100, -2.900, 0.0, , , , , , 96, , , 0, 0, 0
37.2566011, -119.3808298, 16.100, 12:11:45.022, 11, 0.10, 0.45, 97, -0.800, 0.100, -16.400, 2, 100, 96, 14, 22746, -18454, 5234, 5396, 16, 14, 1529262705.023, 45, 0, 1024, 1024, 1024, 1024, 0, 6, 3793, 3794, 3751, 3804, 3789, 3792, 0, 1, 11500, -89.900, 0.000, -15.900, 0.000, 0.100, -2.800, 0.0, , , , , , 96, , , 0, 0, 0
37.2566011, -119.3808297, 16.400, 12:11:45.122, 11, 0.10, 0.44, 97, -0.800, 0.100, -16.400, 2, 100, 98, 14, 22746, -18454, 5234, 5396, 16, 14, 1529262705.123, 35, 0, 1024, 1024, 1024, 1024, 0, 6, 3793, 3794, 3751, 3804, 3789, 3792, 0, 1, 11600, -89.900, 0.000, -15.900, 0.000, 0.100, -2.800, 0.0, , , , , , 96, , , 0, 0, 0
37.2566011, -119.3808296, 16.700, 12:11:45.222, 12, 0.10, 0.44, 97, -0.600, 0.200, -16.400, 2, 100, 98, 14, 22746, -18454, 5234, 5396, 16, 14, 1529262705.223, 43, 0, 1024, 1024, 1024, 1024, 0, 6, 3793, 3794, 3751, 3804, 3789, 3792, 0, 1, 11700, -89.900, 0.000, -15.900, 0.000, 0.100, -2.800, 0.0, , , , , , 96, , , 0, 0, 0
37.2566012, -119.3808294, 17.000, 12:11:45.323, 12, 0.10, 0.42, 97, -0.400, 0.300, -16.500, 2, 100, 98, 14, 22746, -18454, 5234, 5396, 16, 14, 1529262705.323, 35, 0, 1024, 1024, 1024, 1024, 0, 6, 3793, 3794, 3751, 3804, 3789, 3792, 0, 1, 11800, -89.900, 0.000, -15.900, 0.000, 0.100, -2.900, 0.0, , , , , , 96, , , 0, 0, 0
37.2566013, -119.3808293, 17.300, 12:11:45.426, 12, 0.10, 0.40, 97, -0.400, 0.600, -16.600, 2, 100, 98, 14, 22746, -18454, 5234, 5396, 16, 14, 1529262705.427, 2, 0, 1024, 1024, 1024, 1024, 0, 6, 3793, 3794, 3751, 3804, 3789, 3792, 0, 1, 11904, -89.900, 0.000, -15.900, 0.000, 0.100, -2.800, 0.0, , , , , , 96, , , 0, 0, 0
37.2566013, -119.3808291, 17.600, 12:11:45.532, 12, 0.10, 0.40, 97, -0.600, 0.700, -16.600, 2, 100, 98, 14, 22746, -18454, 5234, 5396, 16, 14, 1529262705.533, 2, 0, 1024, 1024, 1024, 1024, 0, 6, 3793, 3794, 3751, 3804, 3789, 3792, 0, 1, 12010, -89.900, 0.000, -15.900, 0.000, 0.100, -2.900, 0.0, , , , , , 96, , , 0, 0, 0
37.2566013, -119.3808290, 17.900, 12:11:45.622, 12, 0.10, 0.40, 97, -0.800, 0.600, -16.700, 2, 100, 98, 14, 22654, -19109, 5234, 5396, 16, 14, 1529262705.623, 8, 0, 1024, 1024, 1024, 1024, 0, 6, 3776, 3773, 3751, 3788, 3783, 3772, 0, 1, 12100, -89.900, 0.000, -15.900, 0.000, 0.100, -2.900, 0.0, , , , , , 96, , , 0, 0, 0
37.2566013, -119.3808289, 18.200, 12:11:45.722, 12, 0.10, 0.39, 97, -0.800, 0.400, -16.800, 2, 100, 98, 14, 22654, -19109, 5234, 5396, 16, 14, 1529262705.723, 5, 0, 1024, 1024, 1024, 1024, 0, 6, 3776, 3773, 3751, 3788, 3783, 3772, 0, 1, 12200, -89.900, 0.000, -15.900, 0.000, 0.100, -2.900, 0.0, , , , , , 96, , , 0, 0, 0
37.2566014, -119.3808288, 18.500, 12:11:45.822, 11, 0.10, 0.38, 97, -0.700, 0.300, -16.900, 2, 100, 98, 14, 22654, -19109, 5234, 5396, 16, 14, 1529262705.823, 8, 0, 1024, 1024, 1024, 1024, 0, 6, 3776, 3773, 3751, 3788, 3783, 3772, 0, 1, 12300, -89.900, 0.000, -15.900, 0.000, 0.100, -2.900, 0.0, , , , , , 96, , , 0, 0, 0
37.2566014, -119.3808286, 19.000, 12:11:45.922, 11, 0.00, 0.37, 97, -0.500, 0.400, -17.000, 2, 100, 98, 14, 22654, -19109, 5234, 5396, 16, 14, 1529262705.923, 9, 0, 1024, 1024, 1024, 1024, 0, 6, 3776, 3773, 3751, 3788, 3783, 3772, 0, 1, 12400, -89.900, 0.000, -15.900, 0.000, 0.000, -2.900, 0.0, , , , , , 96, , , 0, 0, 0
37.2566015, -119.3808285, 19.300, 12:11:46.024, 11, 0.00, 0.35, 97, -0.300, 0.500, -17.100, 2, 100, 98, 14, 22654, -19109, 5234, 5396, 16, 14, 1529262706.024, 2, 0, 1024, 1024, 1024, 1024, 0, 6, 3776, 3773, 3751, 3788, 3783, 3772, 0, 1, 12502, -89.900, 0.000, -15.900, 0.000, 0.000, -2.900, 0.0, , , , , , 96, , , 0, 0, 0
37.2566015, -119.3808285, 19.300, 12:11:46.122, 11, 0.00, 0.35, 97, -0.300, 0.500, -17.100, 2, 100, 98, 14, 22654, -19109, 5234, 5396, 16, 14, 1529262706.122, 100, 0, 1024, 1024, 1024, 1024, 0, 6, 3776, 3773, 3751, 3788, 3783, 3772, 0, 1, 12599, -89.900, 0.000, -15.900, 0.000, 0.000, -2.900, 0.0, , , , , , 96, , , 0, 0, 0
37.2566016, -119.3808284, 19.600, 12:11:46.222, 12, 0.00, 0.34, 97, -0.500, 0.700, -17.100, 2, 100, 96, 14, 22654, -19109, 5234, 5396, 16, 14, 1529262706.223, 93, 0, 1024, 1024, 1024, 1024, 0, 6, 3776, 3773, 3751, 3788, 3783, 3772, 0, 1, 12700, -89.900, 0.000, -15.900, 0.000, 0.000, -2.900, 0.0, , , , , , 96, , , 0, 0, 0
37.2566016, -119.3808283, 19.900, 12:11:46.322, 12, 0.00, 0.33, 97, -0.800, 0.800, -17.000, 2, 100, 96, 14, 22654, -19109, 5234, 5396, 16, 14, 1529262706.323, 83, 0, 1024, 1024, 1024, 1024, 0, 6, 3776, 3773, 3751, 3788, 3783, 3772, 0, 1, 12800, -89.900, 0.000, -15.900, 0.000, 0.000, -3.000, 0.0, , , , , , 96, , , 0, 0, 0
37.2566016, -119.3808283, 19.900, 12:11:46.422, 12, 0.00, 0.33, 97, -0.800, 0.800, -17.000, 2, 100, 96, 14, 22654, -19109, 5234, 5396, 16, 14, 1529262706.423, 183, 0, 1024, 1024, 1024, 1024, 0, 6, 3776, 3773, 3751, 3788, 3783, 3772, 0, 1, 12900, -89.900, 0.000, -15.900, 0.000, 0.000, -3.000, 0.0, , , , , , 96, , , 0, 0, 0
37.2566018, -119.3808280, 20.500, 12:11:46.522, 11, 0.00, 0.30, 97, -1.000, 0.700, -16.900, 2, 100, 96, 14, 22654, -19109, 5234, 5396, 16, 14, 1529262706.523, 91, 0, 1024, 1024, 1024, 1024, 0, 6, 3776, 3773, 3751, 3788, 3783, 3772, 0, 1, 13000, -89.900, 0.000, -15.900, 0.000, 0.000, -3.000, 0.0, , , , , , 96, , , 0, 0, 0
37.2566019, -119.3808279, 20.800, 12:11:46.622, 12, 0.00, 0.29, 97, -1.100, 0.800, -16.800, 2, 100, 96, 14, 22570, -20010, 5234, 5396, 16, 14, 1529262706.623, 68, 0, 1024, 1024, 1024, 1024, 0, 6, 3776, 3773, 3751, 3788, 3783, 3772, 0, 1, 13100, -89.900, 0.000, -15.900, 0.000, 0.000, -2.900, 0.0, , , , , , 96, , , 0, 0, 0
37.2566021, -119.3808277, 21.100, 12:11:46.722, 12, 0.00, 0.27, 97, -1.200, 1.100, -16.600, 2, 100, 95, 14, 22570, -20010, 5234, 5396, 16, 14, 1529262706.723, 58, 0, 1024, 1024, 1024, 1024, 0, 6, 3776, 3773, 3751, 3788, 3783, 3772, 0, 1, 13200, -89.900, 0.000, -15.900, 0.000, 0.000, -3.000, 0.0, , , , , , 96, , , 0, 0, 0
37.2566022, -119.3808276, 21.500, 12:11:46.822, 12, 0.00, 0.25, 97, -1.200, 1.200, -16.400, 2, 100, 95, 14, 22570, -20010, 5234, 5396, 16, 14, 1529262706.822, 60, 0, 1024, 1024, 1024, 1024, 0, 6, 3776, 3773, 3751, 3788, 3783, 3772, 0, 1, 13300, -89.900, 0.000, -15.900, 0.000, 0.000, -3.000, 0.0, , , , , , 96, , , 0, 0, 0
37.2566023, -119.3808275, 21.800, 12:11:46.922, 12, 0.00, 0.24, 97, -1.200, 1.100, -16.300, 2, 100, 95, 14, 22570, -20010, 5234, 5396, 16, 14, 1529262706.922, 57, 0, 1024, 1024, 1024, 1024, 0, 6, 3776, 3773, 3751, 3788, 3783, 3772, 0, 1, 13399, -89.900, 0.000, -15.900, 0.000, 0.000, -3.000, 0.0, , , , , , 96, , , 0, 0, 0
37.2566023, -119.3808275, 22.100, 12:11:47.036, 12, 0.00, 0.24, 97, -1.300, 1.100, -16.300, 2, 100, 95, 14, 22570, -20010, 5234, 5396, 16, 14, 1529262707.036, 73, 0, 1024, 1024, 1024, 1024, 0, 6, 3776, 3773, 3751, 3788, 3783, 3772, 0, 1, 13513, -89.900, 0.000, -15.900, 0.000, 0.000, -3.000, 0.0, , , , , , 96, , , 0, 0, 0
37.2566024, -119.3808274, 22.400, 12:11:47.122, 12, 0.00, 0.23, 97, -1.100, 1.100, -16.300, 2, 100, 96, 14, 22570, -20010, 5234, 5396, 16, 14, 1529262707.123, 60, 0, 1024, 1024, 1024, 1024, 0, 6, 3751, 3748, 3722, 3763, 3758, 3748, 0, 1, 13600, -89.900, 0.000, -15.900, 0.000, 0.000, -3.000, 0.0, , , , , , 96, , , 0, 0, 0
37.2566025, -119.3808273, 22.700, 12:11:47.222, 12, 0.00, 0.22, 97, -0.800, 1.200, -16.500, 2, 100, 96, 14, 22570, -20010, 5234, 5396, 16, 14, 1529262707.223, 51, 0, 1024, 1024, 1024, 1024, 0, 6, 3751, 3748, 3722, 3763, 3758, 3748, 0, 1, 13700, -89.900, 0.000, -15.900, 0.000, 0.000, -3.000, 0.0, , , , , , 96, , , 0, 0, 0
37.2566025, -119.3808273, 23.000, 12:11:47.322, 12, 0.00, 0.21, 97, -0.600, 1.200, -16.700, 2, 100, 96, 14, 22570, -20010, 5234, 5396, 16, 14, 1529262707.322, 48, 0, 1024, 1024, 1024, 1024, 0, 6, 3751, 3748, 3722, 3763, 3758, 3748, 0, 1, 13800, -89.900, 0.000, -15.900, 0.000, 0.000, -2.900, 0.0, , , , , , 96, , , 0, 0, 0
37.2566026, -119.3808273, 23.300, 12:11:47.422, 12, 0.00, 0.20, 97, -0.600, 1.300, -16.900, 2, 100, 96, 14, 22570, -20010, 5234, 5396, 16, 14, 1529262707.422, 31, 0, 1024, 1024, 1024, 1024, 0, 6, 3751, 3748, 3722, 3763, 3758, 3748, 0, 1, 13900, -89.900, 0.000, -15.900, 0.000, 0.000, -2.900, 0.0, , , , , , 96, , , 0, 0, 0
37.2566027, -119.3808272, 23.600, 12:11:47.522, 12, 0.00, 0.19, 97, -0.600, 1.200, -17.000, 2, 100, 96, 14, 22570, -20010, 5234, 5396, 16, 14, 1529262707.523, 11, 0, 1024, 1024, 1024, 1024, 0, 6, 3751, 3748, 3722, 3763, 3758, 3748, 0, 1, 14000, -89.900, 0.000, -15.900, 0.000, 0.000, -2.900, 0.0, , , , , , 96, , , 0, 0, 0
37.2566027, -119.3808272, 23.900, 12:11:47.622, 12, 0.00, 0.19, 97, -0.600, 1.100, -17.000, 2, 100, 95, 14, 22570, -20010, 5234, 5396, 16, 14, 1529262707.622, 17, 0, 1024, 1024, 1024, 1024, 0, 6, 3751, 3748, 3722, 3763, 3758, 3748, 0, 1, 14100, -89.900, 0.000, -15.900, 0.000, 0.000, -2.900, 0.0, , , , , , 96, , , 0, 0, 0
37.2566027, -119.3808272, 24.200, 12:11:47.722, 12, 0.00, 0.19, 97, -0.700, 1.000, -17.000, 2, 100, 95, 14, 22570, -20010, 5234, 5396, 16, 14, 1529262707.723, 18, 0, 1024, 1024, 1024, 1024, 0, 6, 3751, 3748, 3722, 3763, 3758, 3748, 0, 1, 14200, -89.900, 0.000, -15.900, 0.000, 0.000, -2.900, 0.0, , , , , , 96, , , 0, 0, 0
37.2566027, -119.3808271, 24.400, 12:11:47.822, 12, 0.00, 0.19, 97, -0.700, 0.900, -17.000, 2, 100, 95, 14, 22570, -20010, 5234, 5396, 16, 14, 1529262707.822, 22, 0, 1024, 1024, 1024, 1024, 0, 6, 3751, 3748, 3722, 3763, 3758, 3748, 0, 1, 14300, -89.900, 0.000, -15.900, 0.000, 0.000, -2.900, 0.0, , , , , , 96, , , 0, 0, 0
37.2566027, -119.3808271, 24.700, 12:11:47.922, 12, 0.00, 0.18, 97, -0.800, 0.900, -16.900, 2, 100, 95, 14, 22570, -20010, 5234, 5396, 16, 14, 1529262707.922, 6, 0, 1024, 1024, 1024, 1024, 0, 6, 3751, 3748, 3722, 3763, 3758, 3748, 0, 1, 14399, -89.900, 0.000, -15.900, 0.000, 0.000, -2.900, 0.0, , , , , , 96, , , 0, 0, 0
37.2566027, -119.3808271, 24.700, 12:11:48.022, 12, 0.00, 0.18, 97, -0.800, 0.900, -16.900, 2, 100, 95, 14, 22570, -20010, 5234, 5396, 16, 14, 1529262708.023, 107, 0, 1024, 1024, 1024, 1024, 0, 6, 3751, 3748, 3722, 3763, 3758, 3748, 0, 1, 14500, -89.900, 0.000, -15.900, 0.000, 0.000, -2.900, 0.0, , , , , , 96, , , 0, 0, 0
37.2566028, -119.3808271, 25.000, 12:11:48.122, 12, 0.00, 0.18, 97, -0.600, 1.000, -16.900, 2, 100, 95, 14, 22482, -19595, 5234, 5396, 16, 14, 1529262708.122, 97, 0, 1024, 1024, 1024, 1024, 0, 6, 3735, 3744, 3712, 3758, 3757, 3746, 0, 1, 14600, -89.900, 0.000, -15.900, 0.000, 0.000, -2.900, 0.0, , , , , , 96, , , 0, 0, 0
37.2566029, -119.3808271, 25.300, 12:11:48.222, 12, 0.00, 0.17, 97, -0.400, 1.100, -17.000, 2, 100, 98, 14, 22482, -19595, 5234, 5396, 16, 14, 1529262708.222, 79, 0, 1024, 1024, 1024, 1024, 0, 6, 3735, 3744, 3712, 3758, 3757, 3746, 0, 1, 14700, -89.900, 0.000, -15.900, 0.000, 0.000, -2.900, 0.0, , , , , , 96, , , 0, 0, 0
37.2566030, -119.3808272, 25.600, 12:11:48.322, 12, 0.00, 0.16, 97, -0.300, 1.300, -17.100, 2, 100, 98, 14, 22482, -19595, 5234, 5396, 16, 14, 1529262708.322, 95, 0, 1024, 1024, 1024, 1024, 0, 6, 3735, 3744, 3712, 3758, 3757, 3746, 0, 1, 14800, -89.900, 0.000, -15.900, 0.000, 0.000, -2.900, 0.0, , , , , , 96, , , 0, 0, 0
37.2566030, -119.3808272, 26.200, 12:11:48.422, 12, 0.00, 0.16, 97, -0.200, 1.600, -17.300, 2, 100, 98, 14, 22482, -19595, 5234, 5396, 16, 14, 1529262708.422, 85, 0, 1024, 1024, 1024, 1024, 0, 6, 3735, 3744, 3712, 3758, 3757, 3746, 0, 1, 14900, -89.900, 0.000, -15.900, 0.000, 0.000, -2.900, 0.0, , , , , , 96, , , 0, 0, 0
37.2566030, -119.3808272, 26.500, 12:11:48.522, 12, 0.00, 0.16, 97, -0.100, 1.500, -17.300, 2, 100, 98, 14, 22482, -19595, 5234, 5396, 16, 14, 1529262708.522, 89, 0, 1024, 1024, 1024, 1024, 0, 6, 3735, 3744, 3712, 3758, 3757, 3746, 0, 1, 15000, -89.900, 0.000, -15.900, 0.000, 0.000, -2.900, 0.0, , , , , , 96, , , 0, 0, 0
37.2566030, -119.3808273, 26.800, 12:11:48.622, 12, 0.00, 0.16, 97, -0.200, 1.200, -17.400, 2, 100, 98, 14, 22482, -19595, 5234, 5396, 16, 14, 1529262708.623, 82, 0, 1024, 1024, 1024, 1024, 0, 6, 3735, 3744, 3712, 3758, 3757, 3746, 0, 1, 15100, -89.900, 0.000, -15.900, 0.000, 0.000, -2.900, 0.0, , , , , , 96, , , 0, 0, 0
37.2566030, -119.3808273, 27.100, 12:11:48.722, 12, 0.00, 0.16, 97, -0.200, 1.100, -17.400, 2, 100, 98, 14, 22482, -19595, 5234, 5396, 16, 14, 1529262708.723, 92, 0, 1024, 1024, 1024, 1024, 0, 6, 3735, 3744, 3712, 3758, 3757, 3746, 0, 1, 15200, -89.900, 0.000, -15.900, 0.000, 0.000, -2.900, 0.0, , , , , , 96, , , 0, 0, 0
37.2566030, -119.3808273, 27.400, 12:11:48.822, 12, 0.00, 0.16, 97, -0.100, 1.100, -17.300, 2, 100, 98, 14, 22482, -19595, 5234, 5396, 16, 14, 1529262708.822, 81, 0, 1024, 1024, 1024, 1024, 0, 6, 3735, 3744, 3712, 3758, 3757, 3746, 0, 1, 15300, -89.900, 0.000, -15.900, 0.000, 0.000, -3.000, 0.0, , , , , , 96, , , 0, 0, 0
37.2566030, -119.3808274, 27.700, 12:11:48.922, 12, 0.00, 0.16, 97, -0.300, 1.100, -17.300, 2, 100, 98, 14, 22482, -19595, 5234, 5396, 16, 14, 1529262708.923, 77, 0, 1024, 1024, 1024, 1024, 0, 6, 3735, 3744, 3712, 3758, 3757, 3746, 0, 1, 15400, -89.900, 0.000, -15.900, 0.000, 0.000, -2.900, 0.0, , , , , , 96, , , 0, 0, 0
37.2566030, -119.3808274, 27.900, 12:11:49.022, 12, 0.00, 0.16, 97, -0.300, 1.200, -17.200, 2, 100, 98, 14, 22482, -19595, 5234, 5396, 16, 14, 1529262709.023, 57, 0, 1024, 1024, 1024, 1024, 0, 6, 3735, 3744, 3712, 3758, 3757, 3746, 0, 1, 15500, -89.900, 0.000, -15.900, 0.000, 0.000, -2.900, 0.0, , , , , , 96, , , 0, 0, 0
37.2566030, -119.3808273, 28.300, 12:11:49.122, 12, 0.00, 0.16, 97, -0.200, 1.100, -17.200, 2, 100, 98, 14, 22382, -20317, 5234, 5396, 16, 14, 1529262709.122, 60, 0, 1024, 1024, 1024, 1024, 0, 6, 3727, 3726, 3695, 3747, 3743, 3724, 0, 1, 15600, -89.900, 0.000, -15.900, 0.000, 0.000, -3.100, 0.0, , , , , , 96, , , 0, 0, 0
37.2566030, -119.3808273, 28.600, 12:11:49.222, 12, 0.00, 0.16, 97, -0.600, 0.800, -17.000, 2, 100, 99, 14, 22382, -20317, 5234, 5396, 16, 14, 1529262709.222, 71, 0, 1024, 1024, 1024, 1024, 0, 6, 3727, 3726, 3695, 3747, 3743, 3724, 0, 1, 15700, -90.000, 0.000, -15.900, 0.000, 0.000, -3.100, 0.0, , , , , , 96, , , 0, 0, 0
37.2566030, -119.3808272, 28.900, 12:11:49.322, 12, 0.00, 0.16, 97, -1.400, 0.400, -16.700, 2, 100, 99, 14, 22382, -20317, 5234, 5396, 16, 14, 1529262709.322, 61, 0, 1024, 1024, 1024, 1024, 0, 6, 3727, 3726, 3695, 3747, 3743, 3724, 0, 1, 15799, -89.900, 0.000, -15.900, 0.000, 0.000, -3.100, 0.0, , , , , , 96, , , 0, 0, 0
37.2566030, -119.3808272, 29.200, 12:11:49.422, 12, 0.00, 0.15, 97, -1.700, 0.400, -16.400, 2, 100, 99, 14, 22382, -20317, 5234, 5396, 16, 14, 1529262709.422, 34, 0, 1024, 1024, 1024, 1024, 0, 6, 3727, 3726, 3695, 3747, 3743, 3724, 0, 1, 15899, -89.900, 0.000, -15.900, 0.000, 0.000, -3.000, 0.0, , , , , , 96, , , 0, 0, 0
37.2566030, -119.3808272, 29.200, 12:11:49.522, 12, 0.00, 0.15, 97, -1.700, 0.400, -16.400, 2, 100, 99, 14, 22382, -20317, 5234, 5396, 16, 14, 1529262709.522, 135, 0, 1024, 1024, 1024, 1024, 0, 6, 3727, 3726, 3695, 3747, 3743, 3724, 0, 1, 16000, -89.900, 0.000, -15.900, 0.000, 0.000, -3.000, 0.0, , , , , , 96, , , 0, 0, 0
37.2566031, -119.3808272, 29.800, 12:11:49.622, 12, 0.00, 0.14, 97, -1.300, 1.200, -15.800, 2, 100, 96, 14, 22382, -20317, 5234, 5396, 16, 14, 1529262709.622, 45, 0, 1024, 1024, 1024, 1024, 0, 6, 3727, 3726, 3695, 3747, 3743, 3724, 0, 1, 16100, -89.900, 0.000, -15.900, 0.000, 0.000, -3.100, 0.0, , , , , , 96, , , 0, 0, 0
37.2566032, -119.3808272, 30.100, 12:11:49.722, 12, 0.00, 0.14, 97, -1.000, 1.500, -15.800, 2, 100, 96, 14, 22382, -20317, 5234, 5396, 16, 14, 1529262709.723, 25, 0, 1024, 1024, 1024, 1024, 0, 6, 3727, 3726, 3695, 3747, 3743, 3724, 0, 1, 16200, -89.900, 0.000, -15.900, 0.000, 0.000, -3.000, 0.0, , , , , , 96, , , 0, 0, 0
37.2566032, -119.3808272, 30.400, 12:11:49.822, 12, 0.00, 0.14, 97, -0.800, 1.800, -16.100, 2, 100, 96, 14, 22382, -20317, 5234, 5396, 16, 14, 1529262709.822, 43, 0, 1024, 1024, 1024, 1024, 0, 6, 3727, 3726, 3695, 3747, 3743, 3724, 0, 1, 16300, -89.900, 0.000, -15.900, 0.000, 0.000, -3.000, 0.0, , , , , , 96, , , 0, 0, 0
37.2566032, -119.3808273, 30.700, 12:11:49.922, 12, 0.00, 0.14, 97, -0.400, 2.200, -16.600, 2, 100, 96, 14, 22382, -20317, 5234, 5396, 16, 14, 1529262709.922, 38, 0, 1024, 1024, 1024, 1024, 0, 6, 3727, 3726, 3695, 3747, 3743, 3724, 0, 1, 16400, -89.900, 0.000, -15.900, 0.000, 0.000, -3.000, 0.0, , , , , , 96, , , 0, 0, 0
37.2566032, -119.3808274, 31.000, 12:11:50.022, 12, 0.00, 0.14, 97, -0.200, 2.300, -17.000, 2, 100, 96, 14, 22382, -20317, 5234, 5396, 16, 14, 1529262710.022, 15, 0, 1024, 1024, 1024, 1024, 0, 6, 3727, 3726, 3695, 3747, 3743, 3724, 0, 1, 16499, -89.900, 0.000, -15.900, 0.000, 0.000, -2.900, 0.0, , , , , , 96, , , 0, 0, 0
37.2566032, -119.3808275, 31.300, 12:11:50.122, 12, 0.00, 0.14, 97, 0.300, 2.200, -17.300, 2, 100, 96, 14, 22276, -20531, 5234, 5396, 16, 14, 1529262710.122, 10, 0, 1024, 1024, 1024, 1024, 0, 6, 3718, 3717, 3691, 3737, 3734, 3718, 0, 1, 16600, -90.000, 0.000, -15.900, 0.000, 0.000, -2.900, 0.0, , , , , , 96, , , 0, 0, 0
37.2566032, -119.3808275, 31.600, 12:11:50.221, 12, 0.00, 0.15, 97, 0.400, 1.300, -17.200, 2, 100, 96, 14, 22276, -20531, 5234, 5396, 16, 14, 1529262710.222, 12, 0, 1024, 1024, 1024, 1024, 0, 6, 3718, 3717, 3691, 3737, 3734, 3718, 0, 1, 16699, -90.000, 0.000, -15.900, 0.000, 0.000, -2.900, 0.0, , , , , , 96, , , 0, 0, 0
37.2566032, -119.3808275, 31.900, 12:11:50.322, 12, 0.00, 0.15, 97, -0.300, 0.800, -17.000, 2, 100, 96, 14, 22276, -20531, 5234, 5396, 16, 14, 1529262710.322, 15, 0, 1024, 1024, 1024, 1024, 0, 6, 3718, 3717, 3691, 3737, 3734, 3718, 0, 1, 16799, -89.900, 0.000, -15.900, 0.000, 0.000, -2.900, 0.0, , , , , , 96, , , 0, 0, 0
37.2566032, -119.3808275, 31.900, 12:11:50.422, 12, 0.00, 0.15, 97, -0.300, 0.800, -17.000, 2, 100, 96, 14, 22276, -20531, 5234, 5396, 16, 14, 1529262710.422, 116, 0, 1024, 1024, 1024, 1024, 0, 6, 3718, 3717, 3691, 3737, 3734, 3718, 0, 1, 16900, -89.900, 0.000, -15.900, 0.000, 0.000, -2.900, 0.0, , , , , , 96, , , 0, 0, 0
37.2566033, -119.3808274, 32.800, 12:11:50.522, 12, 0.00, 0.13, 97, -0.300, 2.200, -17.100, 2, 100, 96, 14, 22276, -20531, 5234, 5396, 16, 14, 1529262710.522, 21, 0, 1024, 1024, 1024, 1024, 0, 6, 3718, 3717, 3691, 3737, 3734, 3718, 0, 1, 17000, -89.900, 0.000, -15.900, 0.000, 0.000, -2.900, 0.0, , , , , , 96, , , 0, 0, 0
37.2566033, -119.3808274, 32.800, 12:11:50.622, 12, 0.00, 0.13, 97, -0.300, 2.200, -17.100, 2, 100, 96, 14, 22276, -20531, 5234, 5396, 16, 14, 1529262710.622, 121, 0, 1024, 1024, 1024, 1024, 0, 6, 3718, 3717, 3691, 3737, 3734, 3718, 0, 1, 17100, -89.900, 0.000, -15.900, 0.000, 0.000, -2.900, 0.0, , , , , , 96, , , 0, 0, 0
37.2566035, -119.3808271, 33.400, 12:11:50.723, 12, 0.10, 0.10, 97, -3.000, 2.300, -17.400, 2, 100, 91, 14, 22276, -20531, 5234, 5396, 16, 14, 1529262710.724, 2, 0, 1024, 1024, 1024, 1024, 0, 6, 3718, 3717, 3691, 3737, 3734, 3718, 0, 1, 17201, -89.900, 0.000, -15.900, 0.000, 0.100, -3.000, 0.0, , , , , , 96, , , 0, 0, 0
37.2566035, -119.3808271, 33.400, 12:11:50.822, 12, 0.10, 0.10, 97, -3.000, 2.300, -17.400, 2, 100, 91, 14, 22276, -20531, 5234, 5396, 16, 14, 1529262710.822, 100, 0, 1024, 1024, 1024, 1024, 0, 6, 3718, 3717, 3691, 3737, 3734, 3718, 0, 1, 17299, -89.900, 0.000, -15.900, 0.000, 0.100, -3.000, 0.0, , , , , , 96, , , 0, 0, 0
37.2566036, -119.3808270, 33.700, 12:11:50.922, 12, 0.10, 0.09, 97, -3.600, 2.600, -17.500, 2, 100, 91, 14, 22276, -20531, 5234, 5396, 16, 14, 1529262710.922, 78, 0, 1024, 1024, 1024, 1024, 0, 6, 3718, 3717, 3691, 3737, 3734, 3718, 0, 1, 17400, -89.900, 0.000, -15.900, 0.000, 0.100, -2.900, 0.0, , , , , , 96, , , 0, 0, 0
37.2566037, -119.3808268, 34.000, 12:11:51.022, 12, 0.10, 0.08, 97, -4.000, 3.000, -17.400, 2, 100, 91, 14, 22276, -20531, 5234, 5396, 16, 14, 1529262711.022, 92, 0, 1024, 1024, 1024, 1024, 0, 6, 3718, 3717, 3691, 3737, 3734, 3718, 0, 1, 17500, -89.900, 0.000, -15.900, 0.000, 0.100, -2.800, 0.0, , , , , , 96, , , 0, 0, 0
37.2566038, -119.3808267, 34.300, 12:11:51.122, 12, 0.00, 0.06, 97, -4.100, 3.100, -17.400, 2, 100, 91, 15, 22334, -20059, 5234, 5396, 16, 14, 1529262711.122, 61, 0, 1024, 1024, 1024, 1024, 0, 6, 3695, 3711, 3678, 3732, 3727, 3702, 0, 1, 17600, -89.900, 0.000, -15.900, 0.000, 0.000, -2.800, 0.0, , , , , , 96, , , 0, 0, 0
37.2566039, -119.3808266, 34.600, 12:11:51.222, 12, 0.00, 0.06, 97, -3.900, 3.100, -17.400, 2, 100, 93, 15, 22334, -20059, 5234, 5396, 16, 14, 1529262711.222, 61, 0, 1024, 1024, 1024, 1024, 0, 6, 3695, 3711, 3678, 3732, 3727, 3702, 0, 1, 17700, -89.900, 0.000, -15.900, 0.000, 0.000, -2.900, 0.0, , , , , , 96, , , 0, 0, 0
37.2566039, -119.3808265, 34.900, 12:11:51.322, 12, 0.00, 0.06, 97, -3.700, 2.800, -17.300, 2, 100, 93, 15, 22334, -20059, 5234, 5396, 16, 14, 1529262711.322, 39, 0, 1024, 1024, 1024, 1024, 0, 6, 3695, 3711, 3678, 3732, 3727, 3702, 0, 1, 17800, -89.900, 0.000, -15.900, 0.000, 0.000, -3.000, 0.0, , , , , , 96, , , 0, 0, 0
37.2566039, -119.3808264, 35.200, 12:11:51.422, 12, 0.00, 0.06, 97, -3.600, 2.400, -17.200, 2, 100, 93, 15, 22334, -20059, 5234, 5396, 16, 14, 1529262711.422, 48, 0, 1024, 1024, 1024, 1024, 0, 6, 3695, 3711, 3678, 3732, 3727, 3702, 0, 1, 17900, -89.900, 0.000, -15.900, 0.000, 0.000, -3.000, 0.0, , , , , , 96, , , 0, 0, 0
37.2566039, -119.3808263, 35.500, 12:11:51.522, 12, 0.00, 0.06, 97, -3.500, 2.200, -17.200, 2, 100, 93, 15, 22334, -20059, 5234, 5396, 16, 14, 1529262711.522, 40, 0, 1024, 1024, 1024, 1024, 0, 6, 3695, 3711, 3678, 3732, 3727, 3702, 0, 1, 18000, -89.900, 0.000, -15.900, 0.000, 0.000, -3.000, 0.0, , , , , , 96, , , 0, 0, 0
37.2566039, -119.3808262, 35.800, 12:11:51.622, 12, 0.00, 0.07, 97, -3.600, 2.100, -17.200, 2, 100, 93, 15, 22334, -20059, 5234, 5396, 16, 14, 1529262711.622, 56, 0, 1024, 1024, 1024, 1024, 0, 6, 3695, 3711, 3678, 3732, 3727, 3702, 0, 1, 18100, -89.900, 0.000, -15.900, 0.000, 0.000, -3.000, 0.0, , , , , , 96, , , 0, 0, 0
37.2566040, -119.3808261, 36.100, 12:11:51.722, 12, 0.00, 0.07, 97, -3.700, 2.100, -17.200, 2, 100, 93, 15, 22334, -20059, 5234, 5396, 16, 14, 1529262711.722, 45, 0, 1024, 1024, 1024, 1024, 0, 6, 3695, 3711, 3678, 3732, 3727, 3702, 0, 1, 18200, -89.900, 0.000, -15.900, 0.000, 0.000, -2.900, 0.0, , , , , , 96, , , 0, 0, 0
37.2566040, -119.3808260, 36.400, 12:11:51.822, 12, 0.00, 0.08, 97, -3.800, 2.200, -17.200, 2, 100, 93, 15, 22334, -20059, 5234, 5396, 16, 14, 1529262711.822, 49, 0, 1024, 1024, 1024, 1024, 0, 6, 3695, 3711, 3678, 3732, 3727, 3702, 0, 1, 18300, -89.900, 0.000, -15.900, 0.000, 0.000, -2.900, 0.0, , , , , , 96, , , 0, 0, 0
37.2566040, -119.3808259, 36.700, 12:11:51.922, 12, 0.00, 0.09, 97, -3.900, 2.400, -17.200, 2, 100, 93, 15, 22334, -20059, 5234, 5396, 16, 14, 1529262711.923, 2, 0, 1024, 1024, 1024, 1024, 0, 6, 3695, 3711, 3678, 3732, 3727, 3702, 0, 1, 18400, -89.900, 0.000, -15.900, 0.000, 0.000, -2.900, 0.0, , , , , , 96, , , 0, 0, 0
37.2566041, -119.3808258, 37.000, 12:11:52.022, 12, 0.00, 0.09, 97, -4.100, 2.400, -17.200, 2, 100, 93, 15, 22334, -20059, 5234, 5396, 16, 14, 1529262712.022, 7, 0, 1024, 1024, 1024, 1024, 0, 6, 3695, 3711, 3678, 3732, 3727, 3702, 0, 1, 18500, -89.900, 0.000, -15.900, 0.000, 0.000, -2.900, 0.0, , , , , , 96, , , 0, 0, 0
37.2566041, -119.3808257, 37.300, 12:11:52.122, 12, 0.00, 0.10, 97, -4.200, 2.400, -17.200, 2, 100, 99, 15, 22020, -22332, 5234, 5396, 16, 14, 1529262712.122, 13, 0, 1024, 1024, 1024, 1024, 0, 6, 3695, 3711, 3678, 3732, 3727, 3702, 0, 1, 18600, -89.900, 0.000, -15.900, 0.000, 0.000, -2.800, 0.0, , , , , , 96, , , 0, 0, 0
37.2566042, -119.3808256, 37.600, 12:11:52.222, 12, 0.00, 0.10, 97, -4.100, 2.400, -17.200, 2, 100, 99, 15, 22020, -22332, 5234, 5396, 16, 14, 1529262712.223, 2, 0, 1024, 1024, 1024, 1024, 0, 6, 3695, 3711, 3678, 3732, 3727, 3702, 0, 1, 18700, -89.900, 0.000, -15.900, 0.000, 0.000, -2.800, 0.0, , , , , , 96, , , 0, 0, 0
37.2566042, -119.3808255, 37.900, 12:11:52.322, 12, 0.00, 0.11, 97, -4.000, 2.600, -17.300, 2, 100, 99, 15, 22020, -22332, 5234, 5396, 16, 14, 1529262712.322, 31, 0, 1024, 1024, 1024, 1024, 0, 6, 3695, 3711, 3678, 3732, 3727, 3702, 0, 1, 18800, -89.900, 0.000, -15.900, 0.000, 0.000, -2.900, 0.0, , , , , , 96, , , 0, 0, 0
37.2566042, -119.3808255, 37.900, 12:11:52.422, 12, 0.00, 0.11, 97, -4.000, 2.600, -17.300, 2, 100, 99, 15, 22020, -22332, 5234, 5396, 16, 14, 1529262712.422, 131, 0, 1024, 1024, 1024, 1024, 0, 6, 3695, 3711, 3678, 3732, 3727, 3702, 0, 1, 18900, -89.900, 0.000, -15.900, 0.000, 0.000, -2.900, 0.0, , , , , , 96, , , 0, 0, 0
37.2566042, -119.3808254, 38.200, 12:11:52.522, 12, 0.00, 0.12, 97, -3.900, 2.600, -17.300, 2, 100, 99, 15, 22020, -22332, 5234, 5396, 16, 14, 1529262712.522, 92, 0, 1024, 1024, 1024, 1024, 0, 6, 3695, 3711, 3678, 3732, 3727, 3702, 0, 1, 19000, -89.900, 0.000, -15.900, 0.000, 0.000, -2.900, 0.0, , , , , , 96, , , 0, 0, 0
37.2566042, -119.3808252, 38.700, 12:11:52.622, 12, 0.00, 0.14, 96, -4.400, 2.500, -17.200, 2, 100, 97, 15, 22020, -22332, 5180, 5396, 16, 14, 1529262712.623, 8, 0, 1024, 1024, 1024, 1024, 0, 6, 3672, 3665, 3634, 3692, 3675, 3674, 0, 1, 19100, -89.900, 0.000, -15.900, 0.000, 0.000, -3.000, 0.0, , , , , , 96, , , 0, 0, 0
37.2566043, -119.3808251, 39.000, 12:11:52.723, 12, 0.00, 0.15, 96, -4.600, 2.500, -17.200, 2, 100, 97, 15, 22020, -22332, 5180, 5396, 16, 14, 1529262712.723, 1, 0, 1024, 1024, 1024, 1024, 0, 6, 3672, 3665, 3634, 3692, 3675, 3674, 0, 1, 19200, -89.900, 0.000, -15.900, 0.000, 0.000, -3.000, 0.0, , , , , , 96, , , 0, 0, 0
37.2566044, -119.3808249, 39.600, 12:11:52.822, 12, 0.00, 0.16, 96, -4.700, 2.700, -17.100, 2, 100, 97, 15, 22020, -22332, 5180, 5396, 16, 14, 1529262712.822, 7, 0, 1024, 1024, 1024, 1024, 0, 6, 3672, 3665, 3634, 3692, 3675, 3674, 0, 1, 19300, -89.900, 0.000, -15.900, 0.000, 0.000, -2.900, 0.0, , , , , , 96, , , 0, 0, 0
37.2566044, -119.3808249, 39.600, 12:11:52.921, 12, 0.00, 0.16, 96, -4.700, 2.700, -17.100, 2, 100, 97, 15, 22020, -22332, 5180, 5396, 16, 14, 1529262712.921, 107, 0, 1024, 1024, 1024, 1024, 0, 6, 3672, 3665, 3634, 3692, 3675, 3674, 0, 1, 19399, -89.900, 0.000, -15.900, 0.000, 0.000, -2.900, 0.0, , , , , , 96, , , 0, 0, 0
37.2566044, -119.3808249, 39.600, 12:11:53.022, 12, 0.00, 0.16, 96, -4.700, 2.700, -17.100, 2, 100, 97, 15, 22020, -22332, 5180, 5396, 16, 14, 1529262713.022, 207, 0, 1024, 1024, 1024, 1024, 0, 6, 3672, 3665, 3634, 3692, 3675, 3674, 0, 1, 19500, -89.900, 0.000, -15.900, 0.000, 0.000, -2.900, 0.0, , , , , , 96, , , 0, 0, 0
37.2566044, -119.3808248, 40.200, 12:11:53.122, 12, 0.00, 0.18, 96, -4.500, 2.900, -17.200, 2, 100, 97, 15, 22020, -22332, 5180, 5396, 16, 14, 1529262713.122, 81, 0, 1024, 1024, 1024, 1024, 0, 6, 3672, 3665, 3634, 3692, 3675, 3674, 0, 1, 19600, -89.900, 0.000, -15.900, 0.000, 0.000, -3.000, 0.0, , , , , , 96, , , 0, 0, 0
37.2566045, -119.3808247, 40.500, 12:11:53.222, 12, 0.00, 0.18, 96, -4.400, 2.900, -17.200, 2, 100, 95, 15, 22020, -22332, 5180, 5396, 16, 14, 1529262713.222, 91, 0, 1024, 1024, 1024, 1024, 0, 6, 3672, 3665, 3634, 3692, 3675, 3674, 0, 1, 19700, -89.900, 0.000, -15.900, 0.000, 0.000, -2.900, 0.0, , , , , , 96, , , 0, 0, 0
37.2566045, -119.3808247, 40.800, 12:11:53.322, 12, 0.00, 0.18, 96, -4.300, 3.100, -17.100, 2, 100, 95, 15, 22020, -22332, 5180, 5396, 16, 14, 1529262713.322, 86, 0, 1024, 1024, 1024, 1024, 0, 6, 3672, 3665, 3634, 3692, 3675, 3674, 0, 1, 19800, -89.900, 0.000, -15.900, 0.000, 0.000, -3.100, 0.0, , , , , , 96, , , 0, 0, 0
37.2566045, -119.3808247, 41.100, 12:11:53.422, 12, 0.00, 0.19, 96, -4.300, 3.000, -17.000, 2, 100, 95, 15, 22020, -22332, 5180, 5396, 16, 14, 1529262713.422, 43, 0, 1024, 1024, 1024, 1024, 0, 6, 3672, 3665, 3634, 3692, 3675, 3674, 0, 1, 19900, -89.900, 0.000, -15.900, 0.000, 0.000, -3.000, 0.0, , , , , , 96, , , 0, 0, 0
37.2566045, -119.3808246, 41.400, 12:11:53.522, 12, 0.00, 0.19, 96, -4.200, 2.600, -16.900, 2, 100, 95, 15, 22020, -22332, 5180, 5396, 16, 14, 1529262713.522, 73, 0, 1024, 1024, 1024, 1024, 0, 6, 3672, 3665, 3634, 3692, 3675, 3674, 0, 1, 20000, -89.900, 0.000, -15.900, 0.000, 0.000, -3.100, 0.0, , , , , , 96, , , 0, 0, 0
37.2566045, -119.3808245, 41.700, 12:11:53.622, 12, 0.00, 0.20, 96, -4.300, 2.500, -16.900, 2, 100, 95, 15, 21853, -23366, 5180, 5396, 16, 14, 1529262713.622, 79, 0, 1024, 1024, 1024, 1024, 0, 6, 3634, 3641, 3615, 3668, 3646, 3641, 0, 1, 20100, -89.900, 0.000, -15.900, 0.000, 0.000, -3.100, 0.0, , , , , , 96, , , 0, 0, 0
37.2566044, -119.3808245, 42.000, 12:11:53.722, 12, 0.00, 0.20, 96, -4.300, 2.300, -16.900, 2, 100, 95, 15, 21853, -23366, 5180, 5396, 16, 14, 1529262713.722, 60, 0, 1024, 1024, 1024, 1024, 0, 6, 3634, 3641, 3615, 3668, 3646, 3641, 0, 1, 20200, -89.900, 0.000, -15.900, 0.000, 0.000, -3.100, 0.0, , , , , , 96, , , 0, 0, 0
37.2566044, -119.3808245, 42.300, 12:11:53.822, 12, 0.00, 0.20, 96, -4.500, 2.400, -16.900, 2, 100, 95, 15, 21853, -23366, 5180, 5396, 16, 14, 1529262713.822, 62, 0, 1024, 1024, 1024, 1024, 0, 6, 3634, 3641, 3615, 3668, 3646, 3641, 0, 1, 20300, -89.900, 0.000, -15.900, 0.000, 0.000, -3.100, 0.0, , , , , , 96, , , 0, 0, 0
37.2566044, -119.3808245, 42.600, 12:11:53.922, 12, 0.00, 0.20, 96, -4.600, 2.400, -17.000, 2, 100, 95, 15, 21853, -23366, 5180, 5396, 16, 14, 1529262713.922, 50, 0, 1024, 1024, 1024, 1024, 0, 6, 3634, 3641, 3615, 3668, 3646, 3641, 0, 1, 20400, -89.900, 0.000, -15.900, 0.000, 0.000, -3.000, 0.0, , , , , , 96, , , 0, 0, 0
37.2566044, -119.3808245, 42.900, 12:11:54.022, 12, 0.00, 0.20, 96, -4.600, 2.400, -17.000, 2, 100, 95, 15, 21853, -23366, 5180, 5396, 16, 14, 1529262714.022, 50, 0, 1024, 1024, 1024, 1024, 0, 6, 3634, 3641, 3615, 3668, 3646, 3641, 0, 1, 20500, -89.900, 0.000, -15.900, 0.000, 0.000, -3.000, 0.0, , , , , , 96, , , 0, 0, 0
37.2566044, -119.3808246, 43.200, 12:11:54.122, 12, 0.00, 0.20, 96, -4.500, 2.500, -17.100, 2, 100, 97, 15, 21853, -23366, 5180, 5396, 16, 14, 1529262714.122, 42, 0, 1024, 1024, 1024, 1024, 0, 6, 3634, 3641, 3615, 3668, 3646, 3641, 0, 1, 20599, -89.900, 0.000, -15.900, 0.000, 0.000, -3.000, 0.0, , , , , , 96, , , 0, 0, 0
37.2566044, -119.3808246, 43.500, 12:11:54.222, 12, 0.00, 0.19, 96, -4.400, 2.700, -17.100, 2, 100, 97, 15, 21853, -23366, 5180, 5396, 16, 14, 1529262714.222, 45, 0, 1024, 1024, 1024, 1024, 0, 6, 3634, 3641, 3615, 3668, 3646, 3641, 0, 1, 20700, -89.900, 0.000, -15.900, 0.000, 0.000, -3.000, 0.0, , , , , , 96, , , 0, 0, 0
37.2566043, -119.3808246, 43.800, 12:11:54.322, 12, 0.00, 0.19, 96, -4.200, 2.800, -17.100, 2, 100, 97, 15, 21853, -23366, 5180, 5396, 16, 14, 1529262714.322, 50, 0, 1024, 1024, 1024, 1024, 0, 6, 3634, 3641, 3615, 3668, 3646, 3641, 0, 1, 20799, -89.900, 0.000, -15.900, 0.000, 0.000, -3.100, 0.0, , , , , , 96, , , 0, 0, 0
37.2566043, -119.3808247, 44.100, 12:11:54.422, 12, 0.00, 0.18, 96, -4.000, 2.700, -17.200, 2, 100, 97, 15, 21853, -23366, 5180, 5396, 16, 14, 1529262714.422, 28, 0, 1024, 1024, 1024, 1024, 0, 6, 3634, 3641, 3615, 3668, 3646, 3641, 0, 1, 20900, -89.900, 0.000, -15.900, 0.000, 0.000, -3.000, 0.0, , , , , , 96, , , 0, 0, 0
37.2566043, -119.3808247, 44.400, 12:11:54.522, 12, 0.00, 0.18, 96, -3.900, 2.700, -17.100, 2, 100, 97, 15, 21853, -23366, 5180, 5396, 16, 14, 1529262714.522, 22, 0, 1024, 1024, 1024, 1024, 0, 6, 3634, 3641, 3615, 3668, 3646, 3641, 0, 1, 20999, -89.900, 0.000, -15.900, 0.000, 0.000, -3.000, 0.0, , , , , , 96, , , 0, 0, 0
37.2566043, -119.3808248, 44.800, 12:11:54.622, 12, 0.00, 0.18, 96, -3.800, 2.700, -17.100, 2, 100, 98, 15, 21805, -23432, 5180, 5396, 16, 14, 1529262714.622, 25, 0, 1024, 1024, 1024, 1024, 0, 6, 3629, 3631, 3603, 3654, 3654, 3647, 0, 1, 21099, -89.900, 0.000, -15.900, 0.000, 0.000, -3.100, 0.0, , , , , , 96, , , 0, 0, 0
37.2566042, -119.3808247, 45.100, 12:11:54.721, 12, 0.00, 0.18, 96, -4.100, 2.500, -17.000, 2, 100, 98, 15, 21805, -23432, 5180, 5396, 16, 14, 1529262714.721, 40, 0, 1024, 1024, 1024, 1024, 0, 6, 3629, 3631, 3603, 3654, 3654, 3647, 0, 1, 21199, -90.000, 0.000, -15.900, 0.000, 0.000, -3.100, 0.0, , , , , , 96, , , 0, 0, 0
37.2566042, -119.3808247, 45.400, 12:11:54.822, 12, 0.00, 0.18, 96, -4.400, 2.300, -17.000, 2, 100, 98, 15, 21805, -23432, 5180, 5396, 16, 14, 1529262714.822, 8, 0, 1024, 1024, 1024, 1024, 0, 6, 3629, 3631, 3603, 3654, 3654, 3647, 0, 1, 21299, -89.900, 0.000, -15.900, 0.000, 0.000, -3.000, 0.0, , , , , , 96, , , 0, 0, 0
