Latitude, Longitude, Altitude (m), Time, Sats, Speed (m/s), Range (m), Battery (%), Roll (deg), Pitch (deg), Yaw (deg), Images, HD Signal (%), RC Signal (%), Battery Temp (C), Battery Voltage (mV), Battery Current (mA), Battery Energy (mAh), Battery Capacity (mAh), Battery Discharges, flyState, timestamp (Unix), LastUpdate (ms), radioChannel, Rc_elevator, Rc_aileron, Rc_throttle, Rc_rudder, Rc_gyro, Dronetype, Battery_Cell1 (mV), Battery_Cell2 (mV), Battery_Cell3 (mV), Battery_Cell4 (mV), Battery_Cell5 (mV), Battery_Cell6 (mV), Video, isFlying, elapsedTime (ms), gimbalPitch (deg), gimbalRoll (deg), gimbalYaw (deg), VelocityX (m/s), VelocityY (m/s), VelocityZ (m/s), GroundSmear (cm), App Version, Aircraft Name, Aircraft Firmware, Aircraft Serial Number, Battery Serial Number, Battery Lifetime (%), App_Tip, App_Warning, CurrentFlightStartingIndex, CurrentFlightLastVisitedWaypoint, PreviousFlightEndingWaypointIndex
37.2566355, -119.3807680, 0.000, 12:46:28.047, 9, 0.22, 0.12, 98, -1.600, 0.300, -16.200, 753, 100, 100, 13, 25306, -2954, 5325, 5434, 14, 11, 1529264788.047, 93, 0, 1024, 1024, 1024, 1024, 0, 6, 4197, 4180, 4171, 4182, 4203, 4097, 0, 1, 3202, -89.900, 0.000, -18.800, -0.200, -0.100, -0.100, 0.0, MapPilot_2.8.1_04242018, Dendroctonus I, 1.3.1.00, 041DDC1887, 1058163200445, 97, DJI_0751.jpg, Starting Mission from Lat/Long: 37.25664/-119.38077 Camera: Zenmuse X3 - Overlap: 90/90 - Active Connection: No, 29, 29, 29
37.2566353, -119.3807682, 0.000, 12:46:28.147, 9, 0.28, 0.14, 98, -0.800, -0.300, -15.700, 753, 100, 100, 13, 25306, -2954, 5325, 5434, 14, 11, 1529264788.148, 76, 0, 1024, 1024, 1024, 1024, 0, 6, 4197, 4180, 4171, 4182, 4203, 4097, 0, 1, 3303, -90.000, 0.000, -18.800, -0.200, -0.200, -0.200, 0.1, , , , , , 97, , , 29, 29, 29
37.2566351, -119.3807684, 0.000, 12:46:28.248, 9, 0.22, 0.17, 98, 0.100, -0.800, -15.500, 753, 100, 100, 13, 25306, -2954, 5325, 5434, 14, 11, 1529264788.248, 66, 0, 1024, 1024, 1024, 1024, 0, 6, 4197, 4180, 4171, 4182, 4203, 4097, 0, 1, 3403, -89.900, 0.000, -18.700, -0.100, -0.200, -0.300, 0.0, , , , , , 97, , , 29, 29, 29
37.2566349, -119.3807687, 0.000, 12:46:28.348, 9, 0.22, 0.20, 98, 0.800, -0.900, -15.400, 753, 100, 100, 13, 24120, -9345, 5325, 5434, 14, 11, 1529264788.348, 81, 0, 1024, 1024, 1024, 1024, 0, 6, 3959, 3928, 3939, 3940, 4007, 3965, 0, 1, 3503, -89.900, 0.000, -18.600, -0.100, -0.200, -0.400, 0.0, , , , , , 97, , , 29, 29, 29
37.2566347, -119.3807690, 0.100, 12:46:28.448, 9, 0.22, 0.23, 98, 1.400, -0.800, -15.500, 753, 100, 100, 13, 24120, -9345, 5325, 5434, 14, 11, 1529264788.448, 76, 0, 1024, 1024, 1024, 1024, 0, 6, 3959, 3928, 3939, 3940, 4007, 3965, 0, 1, 3603, -89.900, 0.000, -18.600, -0.100, -0.200, -0.400, 0.0, , , , , , 97, , , 29, 29, 29
37.2566346, -119.3807693, 0.100, 12:46:28.548, 9, 0.22, 0.26, 98, 2.200, -0.700, -15.600, 753, 100, 100, 13, 24120, -9345, 5325, 5434, 14, 11, 1529264788.548, 54, 0, 1024, 1024, 1024, 1024, 0, 6, 3959, 3928, 3939, 3940, 4007, 3965, 0, 1, 3703, -89.900, 0.000, -18.500, -0.100, -0.200, -0.400, 0.0, , , , , , 97, , , 29, 29, 29
37.2566345, -119.3807696, 0.200, 12:46:28.648, 9, 0.20, 0.28, 98, 2.900, -0.400, -15.800, 753, 100, 100, 13, 24120, -9345, 5325, 5434, 14, 11, 1529264788.648, 73, 0, 1024, 1024, 1024, 1024, 0, 6, 3959, 3928, 3939, 3940, 4007, 3965, 0, 1, 3803, -89.900, 0.000, -18.500, 0.000, -0.200, -0.300, 0.0, , , , , , 97, , , 29, 29, 29
37.2566344, -119.3807700, 0.200, 12:46:28.748, 9, 0.20, 0.30, 98, 3.300, 0.000, -16.000, 753, 100, 100, 13, 24120, -9345, 5325, 5434, 14, 11, 1529264788.748, 63, 0, 1024, 1024, 1024, 1024, 0, 6, 3959, 3928, 3939, 3940, 4007, 3965, 0, 1, 3903, -89.900, 0.000, -18.400, 0.000, -0.200, -0.400, 0.0, , , , , , 97, , , 29, 29, 29
37.2566344, -119.3807703, 0.300, 12:46:28.848, 9, 0.20, 0.33, 98, 3.300, 0.400, -16.200, 753, 100, 100, 13, 24120, -9345, 5325, 5434, 14, 11, 1529264788.848, 68, 0, 1024, 1024, 1024, 1024, 0, 6, 3959, 3928, 3939, 3940, 4007, 3965, 0, 1, 4003, -89.900, 0.000, -18.400, 0.000, -0.200, -0.400, 0.0, , , , , , 97, , , 29, 29, 29
37.2566342, -119.3807706, 0.400, 12:46:28.948, 9, 0.10, 0.36, 98, 2.600, 0.700, -16.500, 753, 100, 100, 13, 24120, -9345, 5325, 5434, 14, 11, 1529264788.948, 64, 0, 1024, 1024, 1024, 1024, 0, 6, 3959, 3928, 3939, 3940, 4007, 3965, 0, 1, 4103, -89.900, 0.000, -18.300, 0.000, -0.100, -0.400, 0.0, , , , , , 97, , , 29, 29, 29
37.2566342, -119.3807708, 0.400, 12:46:29.048, 10, 0.10, 0.37, 98, 2.000, 0.600, -16.600, 753, 100, 100, 13, 24120, -9345, 5325, 5434, 14, 11, 1529264789.048, 54, 0, 1024, 1024, 1024, 1024, 0, 6, 3959, 3928, 3939, 3940, 4007, 3965, 0, 1, 4203, -89.900, 0.000, -18.300, 0.000, -0.100, -0.400, 0.0, , , , , , 97, , , 29, 29, 29
37.2566342, -119.3807709, 0.500, 12:46:29.148, 10, 0.10, 0.38, 98, 1.600, 0.600, -16.700, 753, 100, 100, 13, 24120, -9345, 5325, 5434, 14, 11, 1529264789.149, 46, 0, 1024, 1024, 1024, 1024, 0, 6, 3959, 3928, 3939, 3940, 4007, 3965, 0, 1, 4304, -89.900, 0.000, -18.200, 0.000, -0.100, -0.500, 0.0, , , , , , 97, , , 29, 29, 29
37.2566342, -119.3807711, 0.500, 12:46:29.248, 9, 0.10, 0.39, 98, 1.500, 0.600, -16.700, 753, 100, 100, 13, 23085, -17103, 5325, 5434, 14, 11, 1529264789.248, 35, 0, 1024, 1024, 1024, 1024, 0, 6, 3959, 3928, 3939, 3940, 4007, 3965, 0, 1, 4403, -89.900, 0.000, -18.200, 0.000, -0.100, -0.400, 0.0, , , , , , 97, , , 29, 29, 29
37.2566342, -119.3807713, 0.600, 12:46:29.348, 9, 0.10, 0.40, 98, 1.600, 0.600, -16.500, 753, 100, 100, 13, 23085, -17103, 5325, 5434, 14, 11, 1529264789.348, 42, 0, 1024, 1024, 1024, 1024, 0, 6, 3959, 3928, 3939, 3940, 4007, 3965, 0, 1, 4503, -89.900, 0.000, -18.200, 0.000, -0.100, -0.400, 0.0, , , , , , 97, , , 29, 29, 29
37.2566341, -119.3807715, 0.600, 12:46:29.448, 9, 0.10, 0.42, 98, 1.600, 0.600, -16.400, 753, 100, 100, 13, 23085, -17103, 5325, 5434, 14, 11, 1529264789.449, 33, 0, 1024, 1024, 1024, 1024, 0, 6, 3959, 3928, 3939, 3940, 4007, 3965, 0, 1, 4603, -89.900, 0.000, -18.100, 0.000, -0.100, -0.400, 0.0, , , , , , 97, , , 29, 29, 29
37.2566341, -119.3807717, 0.700, 12:46:29.548, 9, 0.10, 0.44, 98, 1.700, 0.600, -16.300, 753, 100, 100, 13, 23085, -17103, 5325, 5434, 14, 11, 1529264789.549, 28, 0, 1024, 1024, 1024, 1024, 0, 6, 3959, 3928, 3939, 3940, 4007, 3965, 0, 1, 4704, -89.900, 0.000, -18.100, 0.000, -0.100, -0.400, 0.0, , , , , , 97, , , 29, 29, 29
37.2566340, -119.3807719, 0.700, 12:46:29.648, 9, 0.10, 0.46, 98, 1.800, 0.500, -16.200, 753, 100, 100, 13, 23085, -17103, 5325, 5434, 14, 11, 1529264789.648, 20, 0, 1024, 1024, 1024, 1024, 0, 6, 3959, 3928, 3939, 3940, 4007, 3965, 0, 1, 4803, -89.900, 0.000, -18.100, 0.000, -0.100, -0.500, 0.0, , , , , , 97, , , 29, 29, 29
37.2566339, -119.3807721, 0.800, 12:46:29.749, 9, 0.10, 0.48, 98, 2.000, 0.400, -16.100, 753, 100, 100, 13, 23085, -17103, 5325, 5434, 14, 11, 1529264789.749, 6, 0, 1024, 1024, 1024, 1024, 0, 6, 3835, 3811, 3796, 3821, 3869, 3840, 0, 1, 4904, -89.900, 0.000, -18.000, 0.000, -0.100, -0.500, 0.0, , , , , , 97, , , 29, 29, 29
37.2566338, -119.3807722, 0.900, 12:46:29.849, 10, 0.00, 0.50, 98, 2.200, 0.300, -16.200, 753, 100, 100, 13, 23085, -17103, 5325, 5434, 14, 6, 1529264789.849, 21, 0, 1024, 1024, 1024, 1024, 0, 6, 3835, 3811, 3796, 3821, 3869, 3840, 0, 1, 5004, -89.900, 0.000, -18.000, 0.000, 0.000, -0.500, 0.0, , , , , , 97, , , 29, 29, 29
37.2566338, -119.3807724, 0.900, 12:46:29.949, 10, 0.00, 0.51, 98, 2.600, 0.300, -16.200, 753, 100, 100, 13, 23085, -17103, 5325, 5434, 14, 14, 1529264789.949, 15, 0, 1024, 1024, 1024, 1024, 0, 6, 3835, 3811, 3796, 3821, 3869, 3840, 0, 1, 5104, -89.900, 0.000, -17.900, 0.000, 0.000, -0.500, 0.0, , , , , , 97, , , 29, 29, 29
37.2566337, -119.3807724, 1.000, 12:46:30.049, 10, 0.00, 0.52, 98, 2.300, 0.400, -16.300, 753, 100, 100, 13, 23085, -17103, 5325, 5434, 14, 14, 1529264790.049, 16, 0, 1024, 1024, 1024, 1024, 0, 6, 3835, 3811, 3796, 3821, 3869, 3840, 0, 1, 5204, -89.900, 0.000, -17.900, 0.000, 0.000, -0.300, 0.0, , , , , , 97, , , 29, 29, 29
37.2566337, -119.3807724, 1.000, 12:46:30.148, 10, 0.00, 0.52, 98, 2.300, 0.400, -16.300, 753, 100, 100, 13, 23085, -17103, 5325, 5434, 14, 14, 1529264790.148, 115, 0, 1024, 1024, 1024, 1024, 0, 6, 3835, 3811, 3796, 3821, 3869, 3840, 0, 1, 5303, -89.900, 0.000, -17.900, 0.000, 0.000, -0.300, 0.0, , , , , , 97, , , 29, 29, 29
37.2566336, -119.3807724, 1.000, 12:46:30.249, 10, 0.00, 0.53, 98, 1.800, 0.400, -16.300, 753, 100, 100, 13, 23085, -17103, 5325, 5434, 14, 14, 1529264790.249, 83, 0, 1024, 1024, 1024, 1024, 0, 6, 3835, 3811, 3796, 3821, 3869, 3840, 0, 1, 5404, -89.900, 0.000, -17.900, 0.000, 0.000, -0.200, 0.0, , , , , , 97, , , 29, 29, 29
37.2566337, -119.3807727, 1.100, 12:46:30.350, 10, 0.00, 0.54, 98, 1.200, 0.300, -16.300, 753, 100, 100, 13, 23085, -17103, 5325, 5434, 14, 14, 1529264790.350, 1, 0, 1024, 1024, 1024, 1024, 0, 6, 3835, 3811, 3796, 3821, 3869, 3840, 0, 1, 5505, -89.900, 0.000, -17.800, 0.000, 0.000, -0.300, 0.0, , , , , , 97, , , 29, 29, 29
37.2566337, -119.3807727, 1.100, 12:46:30.449, 10, 0.00, 0.54, 98, 1.200, 0.300, -16.300, 753, 100, 100, 13, 23085, -17103, 5325, 5434, 14, 14, 1529264790.449, 101, 0, 1024, 1024, 1024, 1024, 0, 6, 3835, 3811, 3796, 3821, 3869, 3840, 0, 1, 5604, -89.900, 0.000, -17.800, 0.000, 0.000, -0.300, 0.0, , , , , , 97, , , 29, 29, 29
37.2566336, -119.3807728, 1.100, 12:46:30.549, 10, 0.00, 0.55, 98, 1.200, 0.400, -16.400, 753, 100, 100, 13, 23085, -17103, 5325, 5434, 14, 14, 1529264790.550, 94, 0, 1024, 1024, 1024, 1024, 0, 6, 3835, 3811, 3796, 3821, 3869, 3840, 0, 1, 5705, -89.900, 0.000, -17.800, 0.000, 0.000, -0.400, 0.0, , , , , , 97, , , 29, 29, 29
37.2566336, -119.3807729, 1.200, 12:46:30.649, 10, 0.00, 0.56, 98, 1.300, 0.400, -16.400, 753, 100, 100, 13, 23085, -17103, 5325, 5434, 14, 14, 1529264790.649, 73, 0, 1024, 1024, 1024, 1024, 0, 6, 3835, 3811, 3796, 3821, 3869, 3840, 0, 1, 5804, -89.900, 0.000, -17.800, 0.000, 0.000, -0.600, 0.0, , , , , , 97, , , 29, 29, 29
37.2566335, -119.3807730, 1.300, 12:46:30.749, 9, 0.00, 0.57, 98, 1.500, 0.200, -16.300, 753, 100, 100, 13, 23085, -17103, 5325, 5434, 14, 14, 1529264790.749, 81, 0, 1024, 1024, 1024, 1024, 0, 6, 3835, 3811, 3796, 3821, 3869, 3840, 0, 1, 5904, -90.000, 0.000, -17.700, 0.000, 0.000, -0.700, 0.0, , , , , , 97, , , 29, 29, 29
37.2566335, -119.3807731, 1.400, 12:46:30.849, 9, 0.00, 0.58, 98, 1.600, 0.100, -16.300, 753, 100, 100, 13, 22818, -17523, 5325, 5434, 14, 14, 1529264790.850, 89, 0, 1024, 1024, 1024, 1024, 0, 6, 3811, 3786, 3766, 3795, 3839, 3815, 0, 1, 6005, -90.000, 0.000, -17.700, 0.000, 0.000, -0.900, 0.0, , , , , , 97, , , 29, 29, 29
37.2566335, -119.3807732, 1.500, 12:46:30.949, 9, 0.00, 0.59, 98, 1.500, 0.100, -16.300, 753, 100, 100, 13, 22818, -17523, 5325, 5434, 14, 14, 1529264790.950, 87, 0, 1024, 1024, 1024, 1024, 0, 6, 3811, 3786, 3766, 3795, 3839, 3815, 0, 1, 6104, -89.900, 0.000, -17.700, 0.000, 0.000, -1.100, 0.0, , , , , , 97, , , 29, 29, 29
37.2566335, -119.3807732, 1.600, 12:46:31.049, 9, 0.00, 0.59, 98, 1.500, 0.200, -16.300, 753, 100, 100, 13, 22818, -17523, 5325, 5434, 14, 14, 1529264791.049, 70, 0, 1024, 1024, 1024, 1024, 0, 6, 3811, 3786, 3766, 3795, 3839, 3815, 0, 1, 6204, -89.900, 0.000, -17.700, 0.000, 0.000, -1.300, 0.0, , , , , , 97, , , 29, 29, 29
37.2566336, -119.3807733, 1.800, 12:46:31.149, 9, 0.00, 0.59, 98, 1.400, 0.300, -16.200, 753, 100, 100, 13, 22818, -17523, 5325, 5434, 14, 14, 1529264791.150, 71, 0, 1024, 1024, 1024, 1024, 0, 6, 3811, 3786, 3766, 3795, 3839, 3815, 0, 1, 6305, -89.900, 0.000, -17.600, 0.000, 0.000, -1.500, 0.0, , , , , , 97, , , 29, 29, 29
37.2566336, -119.3807734, 2.000, 12:46:31.249, 9, 0.00, 0.59, 98, 1.300, 0.300, -16.100, 753, 100, 100, 13, 22818, -17523, 5325, 5434, 14, 14, 1529264791.250, 72, 0, 1024, 1024, 1024, 1024, 0, 6, 3811, 3786, 3766, 3795, 3839, 3815, 0, 1, 6405, -89.900, 0.000, -17.600, 0.000, 0.000, -1.700, 0.0, , , , , , 97, , , 29, 29, 29
37.2566337, -119.3807733, 2.400, 12:46:31.349, 10, 0.00, 0.58, 98, 1.300, 0.900, -16.100, 753, 100, 100, 13, 22818, -17523, 5325, 5434, 14, 14, 1529264791.350, 72, 0, 1024, 1024, 1024, 1024, 0, 6, 3811, 3786, 3766, 3795, 3839, 3815, 0, 1, 6505, -89.900, 0.000, -17.600, 0.000, 0.000, -2.200, 0.0, , , , , , 97, , , 29, 29, 29
37.2566337, -119.3807733, 2.700, 12:46:31.449, 10, 0.00, 0.58, 98, 1.200, 1.300, -16.000, 753, 100, 100, 13, 22818, -17523, 5325, 5434, 14, 14, 1529264791.450, 46, 0, 1024, 1024, 1024, 1024, 0, 6, 3811, 3786, 3766, 3795, 3839, 3815, 0, 1, 6605, -89.900, 0.000, -17.600, 0.000, 0.000, -2.500, 0.0, , , , , , 97, , , 29, 29, 29
37.2566337, -119.3807733, 2.900, 12:46:31.549, 10, 0.00, 0.58, 98, 1.100, 1.200, -16.000, 753, 100, 100, 13, 22818, -17523, 5325, 5434, 14, 14, 1529264791.550, 62, 0, 1024, 1024, 1024, 1024, 0, 6, 3811, 3786, 3766, 3795, 3839, 3815, 0, 1, 6705, -89.900, 0.000, -17.600, 0.000, 0.000, -2.700, 0.0, , , , , , 97, , , 29, 29, 29
37.2566336, -119.3807732, 3.200, 12:46:31.649, 10, 0.00, 0.59, 98, 1.300, 0.800, -16.000, 753, 100, 100, 13, 22818, -17523, 5325, 5434, 14, 14, 1529264791.649, 53, 0, 1024, 1024, 1024, 1024, 0, 6, 3811, 3786, 3766, 3795, 3839, 3815, 0, 1, 6804, -89.900, 0.000, -17.500, 0.000, 0.000, -2.900, 0.0, , , , , , 97, , , 29, 29, 29
37.2566334, -119.3807731, 3.600, 12:46:31.749, 10, 0.00, 0.59, 98, 1.400, 0.300, -16.000, 753, 100, 100, 13, 22818, -17523, 5325, 5434, 14, 14, 1529264791.750, 42, 0, 1024, 1024, 1024, 1024, 0, 6, 3811, 3786, 3766, 3795, 3839, 3815, 0, 1, 6905, -90.000, 0.000, -17.500, 0.000, 0.000, -3.100, 0.0, , , , , , 97, , , 29, 29, 29
37.2566333, -119.3807730, 3.900, 12:46:31.849, 9, 0.00, 0.58, 98, 1.300, -0.200, -16.000, 753, 100, 100, 13, 22578, -18404, 5325, 5434, 14, 14, 1529264791.850, 46, 0, 1024, 1024, 1024, 1024, 0, 6, 3746, 3709, 3683, 3716, 3756, 3711, 0, 1, 7005, -90.000, 0.000, -17.500, 0.000, 0.000, -3.100, 0.0, , , , , , 97, , , 29, 29, 29
37.2566333, -119.3807728, 4.300, 12:46:31.949, 9, 0.00, 0.57, 98, 1.000, -0.500, -16.100, 753, 100, 100, 13, 22578, -18404, 5325, 5434, 14, 14, 1529264791.950, 37, 0, 1024, 1024, 1024, 1024, 0, 6, 3746, 3709, 3683, 3716, 3756, 3711, 0, 1, 7105, -90.000, 0.000, -17.500, 0.000, 0.000, -3.200, 0.0, , , , , , 97, , , 29, 29, 29
37.2566333, -119.3807727, 4.600, 12:46:32.050, 10, 0.00, 0.57, 98, 0.700, -0.700, -16.100, 753, 100, 100, 13, 22578, -18404, 5325, 5434, 14, 14, 1529264792.050, 40, 0, 1024, 1024, 1024, 1024, 0, 6, 3746, 3709, 3683, 3716, 3756, 3711, 0, 1, 7205, -89.900, 0.000, -17.500, 0.000, 0.000, -3.200, 0.0, , , , , , 97, , , 29, 29, 29
37.2566333, -119.3807726, 5.000, 12:46:32.150, 10, 0.00, 0.56, 98, 0.400, -0.700, -16.100, 753, 100, 100, 13, 22578, -18404, 5325, 5434, 14, 14, 1529264792.150, 24, 0, 1024, 1024, 1024, 1024, 0, 6, 3746, 3709, 3683, 3716, 3756, 3711, 0, 1, 7305, -89.900, 0.000, -17.500, 0.000, 0.000, -3.300, 0.0, , , , , , 97, , , 29, 29, 29
37.2566334, -119.3807726, 5.300, 12:46:32.250, 9, 0.00, 0.55, 98, 0.400, -0.400, -16.000, 753, 100, 100, 13, 22578, -18404, 5325, 5434, 14, 14, 1529264792.250, 39, 0, 1024, 1024, 1024, 1024, 0, 6, 3746, 3709, 3683, 3716, 3756, 3711, 0, 1, 7405, -89.900, 0.000, -17.400, 0.000, 0.000, -3.200, 0.0, , , , , , 97, , , 29, 29, 29
37.2566335, -119.3807726, 5.700, 12:46:32.350, 9, 0.10, 0.54, 98, 0.400, 0.200, -15.900, 753, 100, 100, 13, 22578, -18404, 5325, 5434, 14, 14, 1529264792.350, 15, 0, 1024, 1024, 1024, 1024, 0, 6, 3746, 3709, 3683, 3716, 3756, 3711, 0, 1, 7505, -89.900, 0.000, -17.400, 0.100, 0.000, -3.200, 0.0, , , , , , 97, , , 29, 29, 29
37.2566334, -119.3807725, 6.000, 12:46:32.450, 10, 0.00, 0.54, 98, 0.400, 0.700, -15.900, 753, 100, 100, 13, 22578, -18404, 5325, 5434, 14, 14, 1529264792.450, 19, 0, 1024, 1024, 1024, 1024, 0, 6, 3746, 3709, 3683, 3716, 3756, 3711, 0, 1, 7605, -89.900, 0.000, -17.400, 0.000, 0.000, -3.200, 0.0, , , , , , 97, , , 29, 29, 29
37.2566332, -119.3807724, 6.400, 12:46:32.550, 10, 0.00, 0.55, 98, 0.400, 0.700, -15.900, 753, 100, 100, 13, 22578, -18404, 5325, 5434, 14, 14, 1529264792.550, 22, 0, 1024, 1024, 1024, 1024, 0, 6, 3746, 3709, 3683, 3716, 3756, 3711, 0, 1, 7705, -89.900, 0.000, -17.400, 0.000, 0.000, -3.100, 0.0, , , , , , 97, , , 29, 29, 29
37.2566334, -119.3807722, 6.700, 12:46:32.650, 10, 0.00, 0.53, 98, 0.000, 0.500, -15.900, 753, 100, 100, 13, 22578, -18404, 5325, 5434, 14, 14, 1529264792.650, 14, 0, 1024, 1024, 1024, 1024, 0, 6, 3746, 3709, 3683, 3716, 3756, 3711, 0, 1, 7805, -89.900, 0.000, -17.400, 0.000, 0.000, -3.100, 0.0, , , , , , 97, , , 29, 29, 29
37.2566335, -119.3807721, 7.000, 12:46:32.750, 10, 0.10, 0.51, 98, -0.500, 0.800, -16.100, 753, 100, 100, 13, 21884, -25349, 5325, 5434, 14, 14, 1529264792.750, 7, 0, 1024, 1024, 1024, 1024, 0, 6, 3675, 3625, 3629, 3648, 3710, 3679, 0, 1, 7905, -89.900, 0.000, -17.400, 0.100, 0.000, -3.100, 0.0, , , , , , 97, , , 29, 29, 29
37.2566337, -119.3807720, 7.300, 12:46:32.850, 10, 0.10, 0.49, 98, -0.900, 1.400, -16.200, 753, 100, 100, 13, 21884, -25349, 5325, 5434, 14, 14, 1529264792.850, 13, 0, 1024, 1024, 1024, 1024, 0, 6, 3675, 3625, 3629, 3648, 3710, 3679, 0, 1, 8005, -89.900, 0.000, -17.400, 0.100, 0.000, -3.000, 0.0, , , , , , 97, , , 29, 29, 29
37.2566337, -119.3807720, 7.300, 12:46:32.950, 10, 0.10, 0.49, 98, -0.900, 1.400, -16.200, 753, 100, 100, 13, 21884, -25349, 5325, 5434, 14, 14, 1529264792.950, 112, 0, 1024, 1024, 1024, 1024, 0, 6, 3675, 3625, 3629, 3648, 3710, 3679, 0, 1, 8105, -89.900, 0.000, -17.400, 0.100, 0.000, -3.000, 0.0, , , , , , 97, , , 29, 29, 29
37.2566339, -119.3807718, 7.700, 12:46:33.050, 10, 0.10, 0.46, 98, -1.000, 2.000, -16.300, 753, 100, 100, 13, 21884, -25349, 5325, 5434, 14, 14, 1529264793.050, 86, 0, 1024, 1024, 1024, 1024, 0, 6, 3675, 3625, 3629, 3648, 3710, 3679, 0, 1, 8205, -89.900, 0.000, -17.300, 0.100, 0.000, -3.000, 0.0, , , , , , 97, , , 29, 29, 29
37.2566340, -119.3807718, 8.000, 12:46:33.150, 10, 0.10, 0.45, 98, -1.000, 2.000, -16.400, 753, 100, 100, 13, 21884, -25349, 5325, 5434, 14, 14, 1529264793.150, 65, 0, 1024, 1024, 1024, 1024, 0, 6, 3675, 3625, 3629, 3648, 3710, 3679, 0, 1, 8305, -89.900, 0.000, -17.300, 0.100, 0.000, -3.000, 0.0, , , , , , 97, , , 29, 29, 29
37.2566341, -119.3807717, 8.300, 12:46:33.249, 10, 0.00, 0.44, 98, -0.900, 1.700, -16.400, 753, 100, 100, 13, 21884, -25349, 5325, 5434, 14, 14, 1529264793.250, 83, 0, 1024, 1024, 1024, 1024, 0, 6, 3675, 3625, 3629, 3648, 3710, 3679, 0, 1, 8405, -89.900, 0.000, -17.300, 0.000, 0.000, -3.000, 0.0, , , , , , 97, , , 29, 29, 29
37.2566342, -119.3807716, 8.600, 12:46:33.350, 10, 0.00, 0.43, 98, -0.700, 1.300, -16.400, 753, 100, 100, 13, 21884, -25349, 5325, 5434, 14, 14, 1529264793.350, 76, 0, 1024, 1024, 1024, 1024, 0, 6, 3675, 3625, 3629, 3648, 3710, 3679, 0, 1, 8505, -89.900, 0.000, -17.300, 0.000, 0.000, -3.000, 0.0, , , , , , 97, , , 29, 29, 29
37.2566343, -119.3807715, 8.900, 12:46:33.450, 10, 0.00, 0.41, 98, -0.600, 1.200, -16.300, 753, 100, 100, 13, 21884, -25349, 5325, 5434, 14, 14, 1529264793.451, 80, 0, 1024, 1024, 1024, 1024, 0, 6, 3675, 3625, 3629, 3648, 3710, 3679, 0, 1, 8606, -89.900, 0.000, -17.300, 0.000, 0.000, -3.000, 0.0, , , , , , 97, , , 29, 29, 29
37.2566345, -119.3807715, 9.300, 12:46:33.550, 10, 0.00, 0.40, 98, -0.800, 1.300, -16.400, 753, 100, 100, 13, 21884, -25349, 5325, 5434, 14, 14, 1529264793.551, 72, 0, 1024, 1024, 1024, 1024, 0, 6, 3675, 3625, 3629, 3648, 3710, 3679, 0, 1, 8706, -89.900, 0.000, -17.300, 0.000, 0.000, -3.000, 0.0, , , , , , 97, , , 29, 29, 29
37.2566346, -119.3807714, 9.600, 12:46:33.650, 10, 0.00, 0.39, 98, -0.600, 1.700, -16.400, 753, 100, 100, 13, 21884, -25349, 5325, 5434, 14, 14, 1529264793.650, 76, 0, 1024, 1024, 1024, 1024, 0, 6, 3675, 3625, 3629, 3648, 3710, 3679, 0, 1, 8805, -89.900, 0.000, -17.300, 0.000, 0.000, -3.000, 0.0, , , , , , 97, , , 29, 29, 29
37.2566345, -119.3807716, 9.900, 12:46:33.750, 9, 0.00, 0.41, 98, -0.600, 2.100, -16.400, 753, 100, 100, 13, 21884, -25349, 5325, 5434, 14, 14, 1529264793.750, 76, 0, 1024, 1024, 1024, 1024, 0, 6, 3675, 3625, 3629, 3648, 3710, 3679, 0, 1, 8905, -89.900, 0.000, -17.300, 0.000, 0.000, -2.900, 0.0, , , , , , 97, , , 29, 29, 29
37.2566345, -119.3807718, 10.200, 12:46:33.850, 9, 0.00, 0.43, 98, -0.400, 1.900, -16.400, 753, 100, 100, 13, 22326, -19715, 5325, 5434, 14, 14, 1529264793.851, 44, 0, 1024, 1024, 1024, 1024, 0, 6, 3727, 3706, 3684, 3718, 3759, 3733, 0, 1, 9006, -89.900, 0.000, -17.300, 0.000, 0.000, -2.900, 0.0, , , , , , 97, , , 29, 29, 29
37.2566345, -119.3807720, 10.500, 12:46:33.950, 9, 0.00, 0.44, 98, 0.100, 1.500, -16.400, 753, 100, 100, 13, 22326, -19715, 5325, 5434, 14, 14, 1529264793.951, 59, 0, 1024, 1024, 1024, 1024, 0, 6, 3727, 3706, 3684, 3718, 3759, 3733, 0, 1, 9106, -89.900, 0.000, -17.300, 0.000, 0.000, -2.900, 0.0, , , , , , 97, , , 29, 29, 29
37.2566344, -119.3807722, 11.100, 12:46:34.050, 11, 0.00, 0.46, 98, 0.600, 1.000, -16.200, 753, 100, 100, 13, 22326, -19715, 5325, 5434, 14, 14, 1529264794.050, 45, 0, 1024, 1024, 1024, 1024, 0, 6, 3727, 3706, 3684, 3718, 3759, 3733, 0, 1, 9205, -89.900, 0.000, -17.300, 0.000, 0.000, -2.800, 0.0, , , , , , 97, , , 29, 29, 29
37.2566343, -119.3807722, 11.400, 12:46:34.150, 11, 0.00, 0.47, 98, 0.600, 0.700, -16.200, 753, 100, 100, 13, 22326, -19715, 5325, 5434, 14, 14, 1529264794.151, 36, 0, 1024, 1024, 1024, 1024, 0, 6, 3727, 3706, 3684, 3718, 3759, 3733, 0, 1, 9306, -90.000, 0.000, -17.300, 0.000, 0.000, -2.900, 0.0, , , , , , 97, , , 29, 29, 29
37.2566343, -119.3807723, 11.700, 12:46:34.250, 10, 0.00, 0.48, 98, 0.400, 0.600, -16.100, 753, 100, 100, 13, 22326, -19715, 5325, 5434, 14, 14, 1529264794.251, 41, 0, 1024, 1024, 1024, 1024, 0, 6, 3727, 3706, 3684, 3718, 3759, 3733, 0, 1, 9406, -90.000, 0.000, -17.300, 0.000, 0.000, -2.800, 0.0, , , , , , 97, , , 29, 29, 29
37.2566343, -119.3807724, 12.000, 12:46:34.350, 10, 0.00, 0.48, 98, 0.200, 0.500, -16.100, 753, 100, 100, 13, 22326, -19715, 5325, 5434, 14, 14, 1529264794.351, 59, 0, 1024, 1024, 1024, 1024, 0, 6, 3727, 3706, 3684, 3718, 3759, 3733, 0, 1, 9506, -90.000, 0.000, -17.300, 0.000, 0.000, -2.800, 0.0, , , , , , 97, , , 29, 29, 29
37.2566343, -119.3807725, 12.300, 12:46:34.450, 11, 0.00, 0.49, 98, 0.300, 0.800, -16.200, 753, 100, 100, 13, 22326, -19715, 5325, 5434, 14, 14, 1529264794.451, 50, 0, 1024, 1024, 1024, 1024, 0, 6, 3727, 3706, 3684, 3718, 3759, 3733, 0, 1, 9606, -89.900, 0.000, -17.300, 0.000, 0.000, -2.900, 0.0, , , , , , 97, , , 29, 29, 29
37.2566343, -119.3807727, 12.600, 12:46:34.550, 11, 0.00, 0.50, 98, 0.300, 1.000, -16.200, 753, 100, 100, 13, 22326, -19715, 5325, 5434, 14, 14, 1529264794.551, 33, 0, 1024, 1024, 1024, 1024, 0, 6, 3727, 3706, 3684, 3718, 3759, 3733, 0, 1, 9706, -89.900, 0.000, -17.300, 0.000, 0.000, -2.900, 0.0, , , , , , 97, , , 29, 29, 29
37.2566342, -119.3807728, 12.900, 12:46:34.651, 11, 0.00, 0.52, 98, 0.200, 1.200, -16.300, 753, 100, 100, 13, 22326, -19715, 5325, 5434, 14, 14, 1529264794.651, 37, 0, 1024, 1024, 1024, 1024, 0, 6, 3727, 3706, 3684, 3718, 3759, 3733, 0, 1, 9806, -89.900, 0.000, -17.300, 0.000, 0.000, -2.900, 0.0, , , , , , 97, , , 29, 29, 29
37.2566340, -119.3807729, 13.200, 12:46:34.750, 11, 0.00, 0.53, 98, 0.300, 1.100, -16.400, 753, 100, 100, 13, 22223, -20904, 5325, 5434, 14, 14, 1529264794.751, 29, 0, 1024, 1024, 1024, 1024, 0, 6, 3727, 3706, 3684, 3718, 3759, 3733, 0, 1, 9906, -89.900, 0.000, -17.300, 0.000, 0.000, -2.900, 0.0, , , , , , 97, , , 29, 29, 29
37.2566340, -119.3807730, 13.500, 12:46:34.851, 11, 0.00, 0.55, 98, 0.400, 0.800, -16.600, 753, 100, 100, 13, 22223, -20904, 5325, 5434, 14, 14, 1529264794.851, 34, 0, 1024, 1024, 1024, 1024, 0, 6, 3727, 3706, 3684, 3718, 3759, 3733, 0, 1, 10006, -89.900, 0.000, -17.300, 0.000, 0.000, -2.900, 0.0, , , , , , 97, , , 29, 29, 29
37.2566339, -119.3807732, 13.800, 12:46:34.951, 11, 0.00, 0.56, 98, 0.600, 0.500, -16.700, 753, 100, 100, 13, 22223, -20904, 5325, 5434, 14, 14, 1529264794.951, 13, 0, 1024, 1024, 1024, 1024, 0, 6, 3727, 3706, 3684, 3718, 3759, 3733, 0, 1, 10106, -89.900, 0.000, -17.300, 0.000, 0.000, -2.900, 0.0, , , , , , 97, , , 29, 29, 29
37.2566338, -119.3807732, 14.100, 12:46:35.051, 10, 0.00, 0.57, 98, 0.800, 0.200, -16.800, 753, 100, 100, 13, 22223, -20904, 5325, 5434, 14, 14, 1529264795.051, 31, 0, 1024, 1024, 1024, 1024, 0, 6, 3727, 3706, 3684, 3718, 3759, 3733, 0, 1, 10206, -90.000, 0.000, -17.300, 0.000, 0.000, -2.900, 0.0, , , , , , 97, , , 29, 29, 29
37.2566338, -119.3807732, 14.400, 12:46:35.151, 10, 0.00, 0.57, 98, 0.800, 0.200, -16.800, 753, 100, 100, 13, 22223, -20904, 5325, 5434, 14, 14, 1529264795.151, 24, 0, 1024, 1024, 1024, 1024, 0, 6, 3727, 3706, 3684, 3718, 3759, 3733, 0, 1, 10306, -90.000, 0.000, -17.300, 0.000, 0.000, -3.000, 0.0, , , , , , 97, , , 29, 29, 29
37.2566338, -119.3807733, 14.700, 12:46:35.251, 10, 0.00, 0.58, 98, 0.700, 0.300, -16.800, 753, 100, 100, 13, 22223, -20904, 5325, 5434, 14, 14, 1529264795.251, 20, 0, 1024, 1024, 1024, 1024, 0, 6, 3707, 3682, 3661, 3691, 3737, 3705, 0, 1, 10406, -89.900, 0.000, -17.300, 0.000, 0.000, -3.000, 0.0, , , , , , 97, , , 29, 29, 29
37.2566338, -119.3807733, 15.000, 12:46:35.353, 10, 0.00, 0.58, 98, 0.600, 0.600, -16.700, 753, 100, 100, 13, 22223, -20904, 5325, 5434, 14, 14, 1529264795.353, 1, 0, 1024, 1024, 1024, 1024, 0, 6, 3707, 3682, 3661, 3691, 3737, 3705, 0, 1, 10508, -89.900, 0.000, -17.300, 0.000, 0.000, -2.900, 0.0, , , , , , 97, , , 29, 29, 29
37.2566338, -119.3807733, 15.300, 12:46:35.451, 10, 0.00, 0.58, 98, 0.400, 0.700, -16.500, 753, 100, 100, 13, 22223, -20904, 5325, 5434, 14, 14, 1529264795.451, 1, 0, 1024, 1024, 1024, 1024, 0, 6, 3707, 3682, 3661, 3691, 3737, 3705, 0, 1, 10606, -89.900, 0.000, -17.300, 0.000, 0.000, -2.900, 0.0, , , , , , 97, , , 29, 29, 29
37.2566337, -119.3807732, 15.600, 12:46:35.551, 10, 0.00, 0.58, 98, 0.200, 0.700, -16.300, 753, 100, 100, 13, 22223, -20904, 5325, 5434, 14, 14, 1529264795.551, 2, 0, 1024, 1024, 1024, 1024, 0, 6, 3707, 3682, 3661, 3691, 3737, 3705, 0, 1, 10706, -89.900, 0.000, -17.300, 0.000, 0.000, -2.900, 0.0, , , , , , 97, , , 29, 29, 29
37.2566337, -119.3807733, 15.900, 12:46:35.651, 10, 0.00, 0.59, 98, 0.000, 0.500, -16.100, 753, 100, 100, 13, 22223, -20904, 5325, 5434, 14, 14, 1529264795.651, 7, 0, 1024, 1024, 1024, 1024, 0, 6, 3707, 3682, 3661, 3691, 3737, 3705, 0, 1, 10806, -89.900, 0.000, -17.300, 0.000, 0.000, -2.900, 0.0, , , , , , 97, , , 29, 29, 29
37.2566337, -119.3807733, 15.900, 12:46:35.751, 10, 0.00, 0.59, 98, 0.000, 0.500, -16.100, 753, 100, 100, 13, 22223, -20904, 5325, 5434, 14, 14, 1529264795.751, 107, 0, 1024, 1024, 1024, 1024, 0, 6, 3707, 3682, 3661, 3691, 3737, 3705, 0, 1, 10906, -89.900, 0.000, -17.300, 0.000, 0.000, -2.900, 0.0, , , , , , 97, , , 29, 29, 29
37.2566336, -119.3807734, 16.200, 12:46:35.851, 10, 0.00, 0.60, 98, 0.000, 0.300, -16.000, 753, 100, 100, 13, 22223, -20904, 5325, 5434, 14, 14, 1529264795.851, 59, 0, 1024, 1024, 1024, 1024, 0, 6, 3707, 3682, 3661, 3691, 3737, 3705, 0, 1, 11006, -90.000, 0.000, -17.300, 0.000, 0.000, -2.900, 0.0, , , , , , 97, , , 29, 29, 29
37.2566335, -119.3807735, 16.500, 12:46:35.951, 11, 0.00, 0.61, 98, 0.000, 0.200, -15.900, 753, 100, 100, 13, 22223, -20904, 5325, 5434, 14, 14, 1529264795.951, 75, 0, 1024, 1024, 1024, 1024, 0, 6, 3707, 3682, 3661, 3691, 3737, 3705, 0, 1, 11106, -89.900, 0.000, -17.300, 0.000, 0.000, -2.900, 0.0, , , , , , 97, , , 29, 29, 29
37.2566335, -119.3807735, 16.800, 12:46:36.051, 11, 0.00, 0.61, 98, 0.000, 0.000, -15.900, 753, 100, 100, 13, 22223, -20904, 5325, 5434, 14, 14, 1529264796.051, 69, 0, 1024, 1024, 1024, 1024, 0, 6, 3707, 3682, 3661, 3691, 3737, 3705, 0, 1, 11206, -90.000, 0.000, -17.300, 0.000, 0.000, -2.900, 0.0, , , , , , 97, , , 29, 29, 29
37.2566334, -119.3807735, 17.100, 12:46:36.151, 11, 0.00, 0.61, 98, 0.200, 0.000, -16.000, 753, 100, 100, 13, 22223, -20904, 5325, 5434, 14, 14, 1529264796.152, 73, 0, 1024, 1024, 1024, 1024, 0, 6, 3707, 3682, 3661, 3691, 3737, 3705, 0, 1, 11307, -89.900, 0.000, -17.300, 0.000, 0.000, -2.900, 0.0, , , , , , 97, , , 29, 29, 29
37.2566333, -119.3807734, 17.400, 12:46:36.251, 11, 0.00, 0.61, 98, 0.200, 0.000, -16.000, 753, 100, 100, 13, 22223, -20904, 5325, 5434, 14, 14, 1529264796.251, 89, 0, 1024, 1024, 1024, 1024, 0, 6, 3707, 3682, 3661, 3691, 3737, 3705, 0, 1, 11406, -89.900, 0.000, -17.300, 0.000, 0.000, -2.900, 0.0, , , , , , 97, , , 29, 29, 29
37.2566333, -119.3807733, 17.700, 12:46:36.351, 11, 0.00, 0.61, 98, 0.100, 0.100, -16.100, 753, 100, 100, 13, 22091, -21712, 5325, 5434, 14, 14, 1529264796.351, 71, 0, 1024, 1024, 1024, 1024, 0, 6, 3689, 3671, 3644, 3672, 3722, 3696, 0, 1, 11506, -89.900, 0.000, -17.300, 0.000, 0.000, -2.900, 0.0, , , , , , 97, , , 29, 29, 29
37.2566332, -119.3807733, 18.000, 12:46:36.451, 11, 0.00, 0.61, 98, 0.200, 0.000, -16.100, 753, 100, 100, 13, 22091, -21712, 5325, 5434, 14, 14, 1529264796.451, 50, 0, 1024, 1024, 1024, 1024, 0, 6, 3689, 3671, 3644, 3672, 3722, 3696, 0, 1, 11606, -89.900, 0.000, -17.300, 0.000, 0.000, -3.000, 0.0, , , , , , 97, , , 29, 29, 29
37.2566332, -119.3807732, 18.300, 12:46:36.551, 11, 0.10, 0.60, 98, 0.400, -0.200, -16.100, 753, 100, 100, 13, 22091, -21712, 5325, 5434, 14, 14, 1529264796.551, 53, 0, 1024, 1024, 1024, 1024, 0, 6, 3689, 3671, 3644, 3672, 3722, 3696, 0, 1, 11706, -90.000, 0.000, -17.300, 0.000, 0.100, -3.000, 0.0, , , , , , 97, , , 29, 29, 29
37.2566332, -119.3807730, 18.600, 12:46:36.651, 11, 0.10, 0.59, 98, 0.000, -0.300, -16.200, 753, 100, 100, 13, 22091, -21712, 5325, 5434, 14, 14, 1529264796.651, 46, 0, 1024, 1024, 1024, 1024, 0, 6, 3689, 3671, 3644, 3672, 3722, 3696, 0, 1, 11806, -90.000, 0.000, -17.300, 0.000, 0.100, -3.000, 0.0, , , , , , 97, , , 29, 29, 29
37.2566332, -119.3807729, 18.900, 12:46:36.751, 11, 0.10, 0.59, 98, -0.500, -0.300, -16.200, 753, 100, 100, 13, 22091, -21712, 5325, 5434, 14, 14, 1529264796.751, 49, 0, 1024, 1024, 1024, 1024, 0, 6, 3689, 3671, 3644, 3672, 3722, 3696, 0, 1, 11906, -89.900, 0.000, -17.300, 0.000, 0.100, -2.900, 0.0, , , , , , 97, , , 29, 29, 29
37.2566331, -119.3807726, 19.500, 12:46:36.851, 10, 0.10, 0.57, 98, -1.300, -0.200, -16.200, 753, 100, 99, 13, 22091, -21712, 5325, 5434, 14, 14, 1529264796.851, 51, 0, 1024, 1024, 1024, 1024, 0, 6, 3689, 3671, 3644, 3672, 3722, 3696, 0, 1, 12006, -89.900, 0.000, -17.300, 0.000, 0.100, -2.900, 0.0, , , , , , 97, , , 29, 29, 29
37.2566331, -119.3807724, 19.800, 12:46:36.951, 10, 0.10, 0.56, 98, -1.600, -0.200, -16.200, 753, 100, 99, 13, 22091, -21712, 5325, 5434, 14, 14, 1529264796.951, 61, 0, 1024, 1024, 1024, 1024, 0, 6, 3689, 3671, 3644, 3672, 3722, 3696, 0, 1, 12106, -89.900, 0.000, -17.300, 0.000, 0.100, -3.000, 0.0, , , , , , 97, , , 29, 29, 29
37.2566331, -119.3807724, 20.100, 12:46:37.051, 10, 0.00, 0.55, 98, -1.700, -0.100, -16.200, 753, 100, 99, 13, 22091, -21712, 5325, 5434, 14, 14, 1529264797.051, 61, 0, 1024, 1024, 1024, 1024, 0, 6, 3689, 3671, 3644, 3672, 3722, 3696, 0, 1, 12206, -89.900, 0.000, -17.300, 0.000, 0.000, -3.000, 0.0, , , , , , 97, , , 29, 29, 29
37.2566331, -119.3807723, 20.400, 12:46:37.151, 10, 0.00, 0.55, 98, -1.300, 0.000, -16.200, 753, 100, 99, 13, 22091, -21712, 5325, 5434, 14, 14, 1529264797.152, 56, 0, 1024, 1024, 1024, 1024, 0, 6, 3689, 3671, 3644, 3672, 3722, 3696, 0, 1, 12306, -89.900, 0.000, -17.300, 0.000, 0.000, -2.900, 0.0, , , , , , 97, , , 29, 29, 29
37.2566331, -119.3807722, 20.700, 12:46:37.251, 10, 0.00, 0.55, 98, -0.700, 0.200, -16.100, 753, 100, 99, 14, 22084, -21137, 5270, 5434, 14, 14, 1529264797.252, 24, 0, 1024, 1024, 1024, 1024, 0, 6, 3689, 3669, 3642, 3673, 3723, 3685, 0, 1, 12407, -89.900, 0.000, -17.300, 0.000, 0.000, -2.900, 0.0, , , , , , 97, , , 29, 29, 29
37.2566330, -119.3807721, 21.000, 12:46:37.351, 10, 0.00, 0.55, 98, -0.500, 0.200, -15.900, 753, 100, 98, 14, 22084, -21137, 5270, 5434, 14, 14, 1529264797.352, 50, 0, 1024, 1024, 1024, 1024, 0, 6, 3689, 3669, 3642, 3673, 3723, 3685, 0, 1, 12507, -89.900, 0.000, -17.300, 0.000, 0.000, -2.900, 0.0, , , , , , 97, , , 29, 29, 29
37.2566330, -119.3807721, 21.300, 12:46:37.451, 10, 0.00, 0.54, 98, -0.600, 0.300, -15.800, 753, 100, 98, 14, 22084, -21137, 5270, 5434, 14, 14, 1529264797.452, 43, 0, 1024, 1024, 1024, 1024, 0, 6, 3689, 3669, 3642, 3673, 3723, 3685, 0, 1, 12606, -89.900, 0.000, -17.300, 0.000, 0.000, -2.900, 0.0, , , , , , 97, , , 29, 29, 29
37.2566330, -119.3807720, 21.600, 12:46:37.551, 10, 0.00, 0.54, 98, -0.600, 0.200, -15.700, 753, 100, 98, 14, 22084, -21137, 5270, 5434, 14, 14, 1529264797.552, 30, 0, 1024, 1024, 1024, 1024, 0, 6, 3689, 3669, 3642, 3673, 3723, 3685, 0, 1, 12706, -89.900, 0.000, -17.300, 0.000, 0.000, -3.000, 0.0, , , , , , 97, , , 29, 29, 29
37.2566330, -119.3807720, 21.900, 12:46:37.651, 11, 0.00, 0.54, 98, -0.400, -0.200, -15.600, 753, 100, 98, 14, 22084, -21137, 5270, 5434, 14, 14, 1529264797.652, 36, 0, 1024, 1024, 1024, 1024, 0, 6, 3689, 3669, 3642, 3673, 3723, 3685, 0, 1, 12807, -89.900, 0.000, -17.300, 0.000, 0.000, -2.900, 0.0, , , , , , 97, , , 29, 29, 29
37.2566328, -119.3807719, 22.200, 12:46:37.751, 11, 0.00, 0.55, 98, -0.300, -0.700, -15.700, 753, 100, 98, 14, 22084, -21137, 5270, 5434, 14, 14, 1529264797.752, 25, 0, 1024, 1024, 1024, 1024, 0, 6, 3689, 3669, 3642, 3673, 3723, 3685, 0, 1, 12907, -90.000, 0.000, -17.300, 0.000, 0.000, -2.900, 0.0, , , , , , 97, , , 29, 29, 29
37.2566328, -119.3807718, 22.400, 12:46:37.851, 10, 0.00, 0.55, 98, -0.100, -1.000, -15.900, 753, 100, 96, 14, 22084, -21137, 5270, 5434, 14, 14, 1529264797.852, 27, 0, 1024, 1024, 1024, 1024, 0, 6, 3689, 3669, 3642, 3673, 3723, 3685, 0, 1, 13006, -90.000, 0.000, -17.300, 0.000, 0.000, -2.900, 0.0, , , , , , 97, , , 29, 29, 29
37.2566328, -119.3807717, 22.700, 12:46:37.951, 10, 0.00, 0.54, 98, -0.100, -1.100, -16.100, 753, 100, 96, 14, 22084, -21137, 5270, 5434, 14, 14, 1529264797.952, 5, 0, 1024, 1024, 1024, 1024, 0, 6, 3689, 3669, 3642, 3673, 3723, 3685, 0, 1, 13106, -90.000, 0.000, -17.300, 0.000, 0.000, -3.000, 0.0, , , , , , 97, , , 29, 29, 29
37.2566327, -119.3807716, 23.000, 12:46:38.051, 11, 0.00, 0.54, 98, -0.400, -1.200, -16.400, 753, 100, 96, 14, 22084, -21137, 5270, 5434, 14, 14, 1529264798.052, 18, 0, 1024, 1024, 1024, 1024, 0, 6, 3689, 3669, 3642, 3673, 3723, 3685, 0, 1, 13207, -90.000, 0.000, -17.300, 0.000, 0.000, -3.000, 0.0, , , , , , 97, , , 29, 29, 29
37.2566327, -119.3807715, 23.300, 12:46:38.151, 11, 0.00, 0.54, 98, -0.800, -1.000, -16.600, 753, 100, 96, 14, 22084, -21137, 5270, 5434, 14, 14, 1529264798.151, 21, 0, 1024, 1024, 1024, 1024, 0, 6, 3689, 3669, 3642, 3673, 3723, 3685, 0, 1, 13306, -89.900, 0.000, -17.300, 0.000, 0.000, -3.000, 0.0, , , , , , 97, , , 29, 29, 29
37.2566327, -119.3807714, 23.600, 12:46:38.252, 12, 0.00, 0.54, 97, -1.000, -0.800, -16.700, 753, 100, 96, 14, 22095, -20948, 5270, 5434, 14, 14, 1529264798.252, 17, 0, 1024, 1024, 1024, 1024, 0, 6, 3692, 3661, 3647, 3679, 3715, 3691, 0, 1, 13407, -89.900, 0.000, -17.300, 0.000, 0.000, -3.000, 0.0, , , , , , 97, , , 29, 29, 29
37.2566327, -119.3807713, 24.000, 12:46:38.352, 12, 0.00, 0.53, 97, -1.200, -0.700, -16.700, 753, 100, 96, 14, 22095, -20948, 5270, 5434, 14, 14, 1529264798.352, 7, 0, 1024, 1024, 1024, 1024, 0, 6, 3692, 3661, 3647, 3679, 3715, 3691, 0, 1, 13507, -89.900, 0.000, -17.300, 0.000, 0.000, -3.000, 0.0, , , , , , 97, , , 29, 29, 29
37.2566326, -119.3807712, 24.300, 12:46:38.452, 11, 0.00, 0.53, 97, -1.400, -0.700, -16.600, 753, 100, 96, 14, 22095, -20948, 5270, 5434, 14, 14, 1529264798.452, 12, 0, 1024, 1024, 1024, 1024, 0, 6, 3692, 3661, 3647, 3679, 3715, 3691, 0, 1, 13607, -89.900, 0.000, -17.300, 0.000, 0.000, -3.000, 0.0, , , , , , 97, , , 29, 29, 29
37.2566326, -119.3807711, 24.500, 12:46:38.554, 11, 0.00, 0.53, 97, -1.600, -0.800, -16.600, 753, 100, 96, 14, 22095, -20948, 5270, 5434, 14, 14, 1529264798.555, 4, 0, 1024, 1024, 1024, 1024, 0, 6, 3692, 3661, 3647, 3679, 3715, 3691, 0, 1, 13710, -89.900, 0.000, -17.300, 0.000, 0.000, -3.000, 0.0, , , , , , 97, , , 29, 29, 29
37.2566326, -119.3807711, 24.500, 12:46:38.651, 11, 0.00, 0.53, 97, -1.600, -0.800, -16.600, 753, 100, 96, 14, 22095, -20948, 5270, 5434, 14, 14, 1529264798.651, 101, 0, 1024, 1024, 1024, 1024, 0, 6, 3692, 3661, 3647, 3679, 3715, 3691, 0, 1, 13806, -89.900, 0.000, -17.300, 0.000, 0.000, -3.000, 0.0, , , , , , 97, , , 29, 29, 29
37.2566326, -119.3807711, 24.900, 12:46:38.751, 12, 0.00, 0.53, 97, -1.900, -0.900, -16.600, 753, 100, 96, 14, 22095, -20948, 5270, 5434, 14, 14, 1529264798.752, 95, 0, 1024, 1024, 1024, 1024, 0, 6, 3692, 3661, 3647, 3679, 3715, 3691, 0, 1, 13907, -89.900, 0.000, -17.300, 0.000, 0.000, -3.000, 0.0, , , , , , 97, , , 29, 29, 29
37.2566325, -119.3807713, 25.500, 12:46:38.852, 12, 0.00, 0.54, 97, -1.000, -1.000, -16.500, 753, 100, 97, 14, 22095, -20948, 5270, 5434, 14, 14, 1529264798.852, 9, 0, 1024, 1024, 1024, 1024, 0, 6, 3692, 3661, 3647, 3679, 3715, 3691, 0, 1, 14007, -89.900, 0.000, -17.300, 0.000, 0.000, -3.000, 0.0, , , , , , 97, , , 29, 29, 29
37.2566325, -119.3807713, 25.500, 12:46:38.952, 12, 0.00, 0.54, 97, -1.000, -1.000, -16.500, 753, 100, 97, 14, 22095, -20948, 5270, 5434, 14, 14, 1529264798.952, 109, 0, 1024, 1024, 1024, 1024, 0, 6, 3692, 3661, 3647, 3679, 3715, 3691, 0, 1, 14107, -89.900, 0.000, -17.300, 0.000, 0.000, -3.000, 0.0, , , , , , 97, , , 29, 29, 29
37.2566325, -119.3807713, 25.800, 12:46:39.052, 12, 0.00, 0.55, 97, -0.400, -1.000, -16.400, 753, 100, 97, 14, 22095, -20948, 5270, 5434, 14, 14, 1529264799.052, 66, 0, 1024, 1024, 1024, 1024, 0, 6, 3692, 3661, 3647, 3679, 3715, 3691, 0, 1, 14207, -89.900, 0.000, -17.300, 0.000, 0.000, -3.000, 0.0, , , , , , 97, , , 29, 29, 29
37.2566325, -119.3807713, 26.100, 12:46:39.152, 12, 0.00, 0.55, 97, -0.300, -1.000, -16.300, 753, 100, 97, 14, 22095, -20948, 5270, 5434, 14, 14, 1529264799.152, 94, 0, 1024, 1024, 1024, 1024, 0, 6, 3692, 3661, 3647, 3679, 3715, 3691, 0, 1, 14307, -89.900, 0.000, -17.300, 0.000, 0.000, -3.000, 0.0, , , , , , 97, , , 29, 29, 29
37.2566326, -119.3807713, 26.400, 12:46:39.252, 12, 0.00, 0.54, 97, -0.700, -1.000, -16.200, 753, 100, 97, 14, 22095, -20948, 5270, 5434, 14, 14, 1529264799.252, 66, 0, 1024, 1024, 1024, 1024, 0, 6, 3692, 3661, 3647, 3679, 3715, 3691, 0, 1, 14407, -89.900, 0.000, -17.300, 0.000, 0.000, -3.000, 0.0, , , , , , 97, , , 29, 29, 29
37.2566326, -119.3807713, 26.700, 12:46:39.352, 12, 0.00, 0.54, 97, -1.000, -0.700, -16.200, 753, 100, 98, 14, 22059, -19705, 5270, 5434, 14, 14, 1529264799.352, 66, 0, 1024, 1024, 1024, 1024, 0, 6, 3700, 3676, 3646, 3669, 3723, 3697, 0, 1, 14507, -89.900, 0.000, -17.300, 0.000, 0.000, -3.000, 0.0, , , , , , 97, , , 29, 29, 29
37.2566326, -119.3807712, 27.000, 12:46:39.452, 12, 0.00, 0.53, 97, -1.100, -0.300, -16.200, 753, 100, 98, 14, 22059, -19705, 5270, 5434, 14, 14, 1529264799.452, 80, 0, 1024, 1024, 1024, 1024, 0, 6, 3700, 3676, 3646, 3669, 3723, 3697, 0, 1, 14607, -89.900, 0.000, -17.300, 0.000, 0.000, -2.900, 0.0, , , , , , 97, , , 29, 29, 29
37.2566327, -119.3807712, 27.300, 12:46:39.552, 13, 0.00, 0.52, 97, -1.100, -0.100, -16.200, 753, 100, 98, 14, 22059, -19705, 5270, 5434, 14, 14, 1529264799.552, 72, 0, 1024, 1024, 1024, 1024, 0, 6, 3700, 3676, 3646, 3669, 3723, 3697, 0, 1, 14707, -89.900, 0.000, -17.300, 0.000, 0.000, -2.900, 0.0, , , , , , 97, , , 29, 29, 29
37.2566328, -119.3807712, 27.900, 12:46:39.652, 12, 0.00, 0.52, 97, -1.000, 0.000, -16.300, 753, 100, 98, 14, 22059, -19705, 5270, 5434, 14, 14, 1529264799.652, 62, 0, 1024, 1024, 1024, 1024, 0, 6, 3700, 3676, 3646, 3669, 3723, 3697, 0, 1, 14807, -89.900, 0.000, -17.300, 0.000, 0.000, -2.800, 0.0, , , , , , 97, , , 29, 29, 29
37.2566328, -119.3807713, 28.200, 12:46:39.752, 12, 0.00, 0.52, 97, -1.100, 0.000, -16.500, 753, 100, 98, 14, 22059, -19705, 5270, 5434, 14, 14, 1529264799.752, 68, 0, 1024, 1024, 1024, 1024, 0, 6, 3700, 3676, 3646, 3669, 3723, 3697, 0, 1, 14907, -89.900, 0.000, -17.300, 0.000, 0.000, -2.900, 0.0, , , , , , 97, , , 29, 29, 29
37.2566329, -119.3807713, 28.500, 12:46:39.852, 12, 0.00, 0.51, 97, -0.900, 0.000, -16.700, 753, 100, 99, 14, 22059, -19705, 5270, 5434, 14, 14, 1529264799.852, 67, 0, 1024, 1024, 1024, 1024, 0, 6, 3700, 3676, 3646, 3669, 3723, 3697, 0, 1, 15007, -89.900, 0.000, -17.300, 0.000, 0.000, -2.900, 0.0, , , , , , 97, , , 29, 29, 29
37.2566329, -119.3807713, 28.500, 12:46:39.952, 12, 0.00, 0.51, 97, -0.900, 0.000, -16.700, 753, 100, 99, 14, 22059, -19705, 5270, 5434, 14, 14, 1529264799.952, 167, 0, 1024, 1024, 1024, 1024, 0, 6, 3700, 3676, 3646, 3669, 3723, 3697, 0, 1, 15107, -89.900, 0.000, -17.300, 0.000, 0.000, -2.900, 0.0, , , , , , 97, , , 29, 29, 29
37.2566329, -119.3807714, 29.100, 12:46:40.052, 12, 0.00, 0.51, 97, -0.200, 0.300, -16.700, 753, 100, 99, 14, 22059, -19705, 5270, 5434, 14, 14, 1529264800.052, 24, 0, 1024, 1024, 1024, 1024, 0, 6, 3700, 3676, 3646, 3669, 3723, 3697, 0, 1, 15207, -89.900, 0.000, -17.300, 0.000, 0.000, -2.900, 0.0, , , , , , 97, , , 29, 29, 29
37.2566329, -119.3807714, 29.400, 12:46:40.152, 12, 0.00, 0.51, 97, -0.100, 0.200, -16.600, 753, 100, 99, 14, 22059, -19705, 5270, 5434, 14, 14, 1529264800.152, 39, 0, 1024, 1024, 1024, 1024, 0, 6, 3700, 3676, 3646, 3669, 3723, 3697, 0, 1, 15307, -89.900, 0.000, -17.300, 0.000, 0.000, -3.000, 0.0, , , , , , 97, , , 29, 29, 29
37.2566330, -119.3807713, 29.700, 12:46:40.252, 12, 0.00, 0.50, 97, -0.600, 0.200, -16.500, 753, 100, 99, 14, 22121, -19756, 5270, 5434, 14, 14, 1529264800.252, 57, 0, 1024, 1024, 1024, 1024, 0, 6, 3700, 3676, 3646, 3669, 3723, 3697, 0, 1, 15407, -89.900, 0.000, -17.300, 0.000, 0.000, -2.900, 0.0, , , , , , 97, , , 29, 29, 29
37.2566331, -119.3807712, 30.000, 12:46:40.352, 12, 0.10, 0.49, 97, -1.100, 0.300, -16.400, 753, 100, 99, 14, 22121, -19756, 5270, 5434, 14, 14, 1529264800.352, 47, 0, 1024, 1024, 1024, 1024, 0, 6, 3700, 3676, 3646, 3669, 3723, 3697, 0, 1, 15507, -89.900, 0.000, -17.300, 0.100, 0.000, -2.900, 0.0, , , , , , 97, , , 29, 29, 29
37.2566331, -119.3807712, 30.300, 12:46:40.452, 12, 0.00, 0.49, 97, -1.600, 0.400, -16.200, 753, 100, 99, 14, 22121, -19756, 5270, 5434, 14, 14, 1529264800.452, 25, 0, 1024, 1024, 1024, 1024, 0, 6, 3700, 3676, 3646, 3669, 3723, 3697, 0, 1, 15607, -89.900, 0.000, -17.300, 0.000, 0.000, -2.900, 0.0, , , , , , 97, , , 29, 29, 29
37.2566331, -119.3807713, 30.600, 12:46:40.552, 12, 0.00, 0.49, 97, -1.700, 0.200, -16.200, 753, 100, 99, 14, 22121, -19756, 5270, 5434, 14, 14, 1529264800.552, 28, 0, 1024, 1024, 1024, 1024, 0, 6, 3700, 3676, 3646, 3669, 3723, 3697, 0, 1, 15707, -89.900, 0.000, -17.300, 0.000, 0.000, -3.000, 0.0, , , , , , 97, , , 29, 29, 29
37.2566331, -119.3807712, 30.800, 12:46:40.652, 12, 0.00, 0.49, 97, -1.700, 0.100, -16.100, 753, 100, 99, 14, 22121, -19756, 5270, 5434, 14, 14, 1529264800.652, 48, 0, 1024, 1024, 1024, 1024, 0, 6, 3700, 3676, 3646, 3669, 3723, 3697, 0, 1, 15807, -89.900, 0.000, -17.300, 0.000, 0.000, -2.900, 0.0, , , , , , 97, , , 29, 29, 29
37.2566332, -119.3807712, 31.200, 12:46:40.752, 12, 0.10, 0.48, 97, -1.600, 0.200, -16.100, 753, 100, 99, 14, 22121, -19756, 5270, 5434, 14, 14, 1529264800.752, 39, 0, 1024, 1024, 1024, 1024, 0, 6, 3695, 3672, 3646, 3679, 3729, 3713, 0, 1, 15907, -89.900, 0.000, -17.300, 0.100, 0.000, -3.000, 0.0, , , , , , 97, , , 29, 29, 29
37.2566332, -119.3807712, 31.500, 12:46:40.852, 13, 0.10, 0.48, 97, -1.800, 0.500, -16.200, 753, 100, 99, 14, 22121, -19756, 5270, 5434, 14, 14, 1529264800.852, 20, 0, 1024, 1024, 1024, 1024, 0, 6, 3695, 3672, 3646, 3679, 3729, 3713, 0, 1, 16007, -89.900, 0.000, -17.300, 0.100, 0.000, -3.000, 0.0, , , , , , 97, , , 29, 29, 29
37.2566332, -119.3807712, 31.800, 12:46:40.952, 13, 0.10, 0.47, 97, -2.100, 0.600, -16.300, 753, 100, 99, 14, 22121, -19756, 5270, 5434, 14, 14, 1529264800.952, 15, 0, 1024, 1024, 1024, 1024, 0, 6, 3695, 3672, 3646, 3679, 3729, 3713, 0, 1, 16107, -89.900, 0.000, -17.300, 0.100, 0.000, -3.000, 0.0, , , , , , 97, , , 29, 29, 29
37.2566333, -119.3807711, 32.100, 12:46:41.052, 13, 0.10, 0.46, 97, -2.200, 0.600, -16.400, 753, 100, 99, 14, 22121, -19756, 5270, 5434, 14, 14, 1529264801.052, 15, 0, 1024, 1024, 1024, 1024, 0, 6, 3695, 3672, 3646, 3679, 3729, 3713, 0, 1, 16207, -89.900, 0.000, -17.300, 0.100, 0.000, -3.000, 0.0, , , , , , 97, , , 29, 29, 29
37.2566333, -119.3807710, 32.400, 12:46:41.152, 13, 0.10, 0.46, 97, -2.300, 0.600, -16.600, 753, 100, 99, 14, 22121, -19756, 5270, 5434, 14, 14, 1529264801.152, 25, 0, 1024, 1024, 1024, 1024, 0, 6, 3695, 3672, 3646, 3679, 3729, 3713, 0, 1, 16307, -89.900, 0.000, -17.300, 0.100, 0.000, -3.000, 0.0, , , , , , 97, , , 29, 29, 29
37.2566334, -119.3807710, 32.600, 12:46:41.252, 13, 0.10, 0.45, 97, -2.400, 0.600, -16.700, 753, 100, 99, 14, 22121, -19756, 5270, 5434, 14, 14, 1529264801.253, 27, 0, 1024, 1024, 1024, 1024, 0, 6, 3695, 3672, 3646, 3679, 3729, 3713, 0, 1, 16407, -89.900, 0.000, -17.300, 0.100, 0.000, -2.900, 0.0, , , , , , 97, , , 29, 29, 29
37.2566334, -119.3807710, 32.900, 12:46:41.352, 13, 0.10, 0.45, 97, -2.400, 0.900, -16.800, 753, 100, 97, 14, 22121, -19756, 5270, 5434, 14, 14, 1529264801.353, 14, 0, 1024, 1024, 1024, 1024, 0, 6, 3695, 3672, 3646, 3679, 3729, 3713, 0, 1, 16508, -89.900, 0.000, -17.200, 0.100, 0.000, -2.900, 0.0, , , , , , 97, , , 29, 29, 29
37.2566335, -119.3807711, 33.200, 12:46:41.452, 13, 0.10, 0.45, 97, -2.500, 1.000, -16.800, 753, 100, 97, 14, 22121, -19756, 5270, 5434, 14, 14, 1529264801.452, 18, 0, 1024, 1024, 1024, 1024, 0, 6, 3695, 3672, 3646, 3679, 3729, 3713, 0, 1, 16607, -89.900, 0.000, -17.200, 0.100, 0.000, -2.800, 0.0, , , , , , 97, , , 29, 29, 29
37.2566335, -119.3807711, 33.500, 12:46:41.552, 13, 0.10, 0.44, 97, -2.500, 1.200, -16.700, 753, 100, 97, 14, 22121, -19756, 5270, 5434, 14, 14, 1529264801.553, 11, 0, 1024, 1024, 1024, 1024, 0, 6, 3695, 3672, 3646, 3679, 3729, 3713, 0, 1, 16707, -89.900, 0.000, -17.200, 0.100, 0.000, -2.800, 0.0, , , , , , 97, , , 29, 29, 29
37.2566335, -119.3807711, 33.500, 12:46:41.652, 13, 0.10, 0.44, 97, -2.500, 1.200, -16.700, 753, 100, 97, 14, 22121, -19756, 5270, 5434, 14, 14, 1529264801.653, 111, 0, 1024, 1024, 1024, 1024, 0, 6, 3695, 3672, 3646, 3679, 3729, 3713, 0, 1, 16808, -89.900, 0.000, -17.200, 0.100, 0.000, -2.800, 0.0, , , , , , 97, , , 29, 29, 29
37.2566336, -119.3807711, 33.700, 12:46:41.752, 13, 0.10, 0.44, 97, -2.200, 1.300, -16.500, 753, 100, 97, 14, 22121, -19756, 5270, 5434, 14, 14, 1529264801.753, 90, 0, 1024, 1024, 1024, 1024, 0, 6, 3695, 3672, 3646, 3679, 3729, 3713, 0, 1, 16907, -89.900, 0.000, -17.200, 0.100, 0.000, -2.800, 0.0, , , , , , 97, , , 29, 29, 29
37.2566336, -119.3807711, 33.700, 12:46:41.852, 13, 0.10, 0.44, 97, -2.200, 1.300, -16.500, 753, 100, 97, 14, 22121, -19756, 5270, 5434, 14, 14, 1529264801.853, 190, 0, 1024, 1024, 1024, 1024, 0, 6, 3695, 3672, 3646, 3679, 3729, 3713, 0, 1, 17007, -89.900, 0.000, -17.200, 0.100, 0.000, -2.800, 0.0, , , , , , 97, , , 29, 29, 29
37.2566338, -119.3807713, 34.300, 12:46:41.952, 14, 0.10, 0.43, 97, -1.100, 2.300, -16.400, 753, 100, 96, 14, 22121, -19756, 5270, 5434, 14, 14, 1529264801.953, 90, 0, 1024, 1024, 1024, 1024, 0, 6, 3695, 3672, 3646, 3679, 3729, 3713, 0, 1, 17108, -89.900, 0.000, -17.200, 0.100, 0.000, -2.800, 0.0, , , , , , 97, , , 29, 29, 29
37.2566338, -119.3807713, 34.600, 12:46:42.052, 14, 0.10, 0.43, 97, -1.600, 2.500, -16.400, 753, 100, 96, 14, 22121, -19756, 5270, 5434, 14, 14, 1529264802.053, 82, 0, 1024, 1024, 1024, 1024, 0, 6, 3695, 3672, 3646, 3679, 3729, 3713, 0, 1, 17208, -89.900, 0.000, -17.200, 0.100, 0.000, -2.900, 0.0, , , , , , 97, , , 29, 29, 29
37.2566340, -119.3807714, 34.800, 12:46:42.152, 14, 0.10, 0.43, 97, -2.100, 2.700, -16.400, 753, 100, 96, 14, 22121, -19756, 5270, 5434, 14, 14, 1529264802.153, 70, 0, 1024, 1024, 1024, 1024, 0, 6, 3695, 3672, 3646, 3679, 3729, 3713, 0, 1, 17308, -89.900, 0.000, -17.200, 0.100, 0.000, -2.900, 0.0, , , , , , 97, , , 29, 29, 29
37.2566341, -119.3807714, 35.100, 12:46:42.252, 14, 0.10, 0.43, 97, -2.200, 2.500, -16.500, 753, 100, 96, 14, 22121, -19756, 5270, 5434, 14, 14, 1529264802.253, 83, 0, 1024, 1024, 1024, 1024, 0, 6, 3695, 3672, 3646, 3679, 3729, 3713, 0, 1, 17408, -89.900, 0.000, -17.200, 0.100, 0.000, -2.900, 0.0, , , , , , 97, , , 29, 29, 29
37.2566341, -119.3807715, 35.400, 12:46:42.352, 14, 0.10, 0.43, 97, -2.100, 2.600, -16.600, 753, 100, 97, 14, 22123, -19376, 5270, 5434, 14, 14, 1529264802.353, 73, 0, 1024, 1024, 1024, 1024, 0, 6, 3693, 3671, 3657, 3681, 3734, 3698, 0, 1, 17508, -89.900, 0.000, -17.200, 0.100, 0.000, -2.900, 0.0, , , , , , 97, , , 29, 29, 29
37.2566342, -119.3807716, 35.800, 12:46:42.452, 14, 0.10, 0.43, 97, -1.700, 2.800, -16.700, 753, 100, 97, 14, 22123, -19376, 5270, 5434, 14, 14, 1529264802.453, 63, 0, 1024, 1024, 1024, 1024, 0, 6, 3693, 3671, 3657, 3681, 3734, 3698, 0, 1, 17608, -89.900, 0.000, -17.200, 0.100, 0.000, -3.000, 0.0, , , , , , 97, , , 29, 29, 29
37.2566343, -119.3807716, 36.100, 12:46:42.552, 14, 0.10, 0.42, 97, -0.800, 2.500, -16.800, 753, 100, 97, 14, 22123, -19376, 5270, 5434, 14, 14, 1529264802.553, 68, 0, 1024, 1024, 1024, 1024, 0, 6, 3693, 3671, 3657, 3681, 3734, 3698, 0, 1, 17708, -89.900, 0.000, -17.200, 0.100, 0.000, -3.000, 0.0, , , , , , 97, , , 29, 29, 29
37.2566346, -119.3807716, 36.800, 12:46:42.652, 14, 0.20, 0.40, 97, -0.100, 3.900, -17.500, 753, 100, 97, 14, 22123, -19376, 5270, 5434, 14, 14, 1529264802.653, 55, 0, 1024, 1024, 1024, 1024, 0, 6, 3693, 3671, 3657, 3681, 3734, 3698, 0, 1, 17808, -89.900, 0.000, -17.200, 0.200, 0.000, -3.400, 0.0, , , , , , 97, , , 29, 29, 29
37.2566348, -119.3807714, 37.200, 12:46:42.752, 14, 0.22, 0.38, 97, -2.300, 4.600, -17.600, 753, 100, 97, 14, 22123, -19376, 5270, 5434, 14, 14, 1529264802.753, 64, 0, 1024, 1024, 1024, 1024, 0, 6, 3693, 3671, 3657, 3681, 3734, 3698, 0, 1, 17908, -89.900, 0.000, -17.200, 0.200, 0.100, -3.500, 0.0, , , , , , 97, , , 29, 29, 29
37.2566349, -119.3807712, 37.600, 12:46:42.852, 14, 0.28, 0.35, 97, -4.900, 4.800, -17.500, 753, 100, 97, 14, 22021, -20603, 5270, 5434, 14, 14, 1529264802.853, 65, 0, 1024, 1024, 1024, 1024, 0, 6, 3667, 3635, 3620, 3652, 3689, 3684, 0, 1, 18007, -89.900, 0.000, -17.200, 0.200, 0.200, -3.300, 0.1, , , , , , 97, , , 29, 29, 29
37.2566351, -119.3807709, 37.900, 12:46:42.953, 14, 0.22, 0.32, 97, -6.300, 4.200, -17.000, 753, 100, 97, 14, 22021, -20603, 5270, 5434, 14, 14, 1529264802.953, 34, 0, 1024, 1024, 1024, 1024, 0, 6, 3667, 3635, 3620, 3652, 3689, 3684, 0, 1, 18108, -90.000, 0.000, -17.200, 0.100, 0.200, -2.900, 0.0, , , , , , 97, , , 29, 29, 29
37.2566353, -119.3807707, 38.100, 12:46:43.053, 14, 0.14, 0.29, 97, -6.500, 3.500, -16.600, 753, 100, 97, 14, 22021, -20603, 5270, 5434, 14, 14, 1529264803.053, 27, 0, 1024, 1024, 1024, 1024, 0, 6, 3667, 3635, 3620, 3652, 3689, 3684, 0, 1, 18208, -90.000, 0.000, -17.100, 0.100, 0.100, -2.800, 0.0, , , , , , 97, , , 29, 29, 29
37.2566354, -119.3807705, 38.400, 12:46:43.153, 14, 0.14, 0.27, 97, -5.800, 3.500, -16.200, 753, 100, 97, 14, 22021, -20603, 5270, 5434, 14, 14, 1529264803.153, 41, 0, 1024, 1024, 1024, 1024, 0, 6, 3667, 3635, 3620, 3652, 3689, 3684, 0, 1, 18308, -90.000, 0.000, -17.100, 0.100, 0.100, -2.800, 0.0, , , , , , 97, , , 29, 29, 29
37.2566355, -119.3807704, 38.600, 12:46:43.253, 14, 0.10, 0.26, 97, -5.400, 3.800, -16.000, 753, 100, 97, 14, 22021, -20603, 5270, 5434, 14, 14, 1529264803.253, 40, 0, 1024, 1024, 1024, 1024, 0, 6, 3667, 3635, 3620, 3652, 3689, 3684, 0, 1, 18408, -89.900, 0.000, -17.100, 0.100, 0.000, -2.800, 0.0, , , , , , 97, , , 29, 29, 29
37.2566356, -119.3807703, 38.900, 12:46:43.353, 14, 0.10, 0.25, 97, -5.000, 4.100, -15.900, 753, 100, 98, 14, 22021, -20603, 5270, 5434, 14, 14, 1529264803.353, 30, 0, 1024, 1024, 1024, 1024, 0, 6, 3667, 3635, 3620, 3652, 3689, 3684, 0, 1, 18508, -89.900, 0.000, -17.100, 0.100, 0.000, -2.800, 0.0, , , , , , 97, , , 29, 29, 29
37.2566356, -119.3807703, 39.100, 12:46:43.453, 14, 0.10, 0.24, 97, -4.400, 4.200, -15.800, 753, 100, 98, 14, 22021, -20603, 5270, 5434, 14, 14, 1529264803.453, 33, 0, 1024, 1024, 1024, 1024, 0, 6, 3667, 3635, 3620, 3652, 3689, 3684, 0, 1, 18608, -89.900, 0.000, -17.100, 0.100, 0.000, -2.700, 0.0, , , , , , 97, , , 29, 29, 29
37.2566357, -119.3807703, 39.400, 12:46:43.553, 14, 0.10, 0.24, 97, -3.900, 4.200, -15.700, 753, 100, 98, 14, 22021, -20603, 5270, 5434, 14, 14, 1529264803.553, 19, 0, 1024, 1024, 1024, 1024, 0, 6, 3667, 3635, 3620, 3652, 3689, 3684, 0, 1, 18708, -89.900, 0.000, -17.100, 0.100, 0.000, -2.700, 0.0, , , , , , 97, , , 29, 29, 29
37.2566358, -119.3807703, 39.700, 12:46:43.653, 14, 0.00, 0.24, 97, -3.500, 4.000, -15.700, 753, 100, 98, 14, 22021, -20603, 5270, 5434, 14, 14, 1529264803.653, 22, 0, 1024, 1024, 1024, 1024, 0, 6, 3667, 3635, 3620, 3652, 3689, 3684, 0, 1, 18808, -89.900, 0.000, -17.100, 0.000, 0.000, -2.800, 0.0, , , , , , 97, , , 29, 29, 29
37.2566358, -119.3807703, 39.900, 12:46:43.753, 14, 0.10, 0.24, 97, -3.200, 4.300, -15.900, 753, 100, 98, 14, 21955, -20891, 5270, 5434, 14, 14, 1529264803.753, 13, 0, 1024, 1024, 1024, 1024, 0, 6, 3678, 3662, 3639, 3667, 3754, 3681, 0, 1, 18908, -89.900, 0.000, -17.100, 0.100, 0.000, -2.900, 0.0, , , , , , 97, , , 29, 29, 29
37.2566359, -119.3807704, 40.200, 12:46:43.853, 14, 0.00, 0.24, 97, -3.100, 4.800, -16.000, 753, 100, 97, 14, 21955, -20891, 5270, 5434, 14, 14, 1529264803.853, 16, 0, 1024, 1024, 1024, 1024, 0, 6, 3678, 3662, 3639, 3667, 3754, 3681, 0, 1, 19008, -89.900, 0.000, -17.100, 0.000, 0.000, -2.900, 0.0, , , , , , 97, , , 29, 29, 29
37.2566359, -119.3807704, 40.200, 12:46:43.953, 14, 0.00, 0.24, 97, -3.100, 4.800, -16.000, 753, 100, 97, 14, 21955, -20891, 5270, 5434, 14, 14, 1529264803.953, 116, 0, 1024, 1024, 1024, 1024, 0, 6, 3678, 3662, 3639, 3667, 3754, 3681, 0, 1, 19108, -89.900, 0.000, -17.100, 0.000, 0.000, -2.900, 0.0, , , , , , 97, , , 29, 29, 29
37.2566360, -119.3807704, 40.500, 12:46:44.053, 14, 0.00, 0.24, 97, -2.700, 4.800, -16.200, 753, 100, 97, 14, 21955, -20891, 5270, 5434, 14, 14, 1529264804.053, 87, 0, 1024, 1024, 1024, 1024, 0, 6, 3678, 3662, 3639, 3667, 3754, 3681, 0, 1, 19208, -89.900, 0.000, -17.100, 0.000, 0.000, -3.000, 0.0, , , , , , 97, , , 29, 29, 29
37.2566360, -119.3807704, 40.700, 12:46:44.153, 14, 0.00, 0.24, 97, -2.400, 4.800, -16.400, 753, 100, 97, 14, 21955, -20891, 5270, 5434, 14, 14, 1529264804.153, 80, 0, 1024, 1024, 1024, 1024, 0, 6, 3678, 3662, 3639, 3667, 3754, 3681, 0, 1, 19308, -89.900, 0.000, -17.100, 0.000, 0.000, -2.900, 0.0, , , , , , 97, , , 29, 29, 29
37.2566361, -119.3807704, 41.100, 12:46:44.253, 14, 0.00, 0.24, 97, -2.600, 4.400, -16.500, 753, 100, 97, 14, 21955, -20891, 5270, 5434, 14, 14, 1529264804.253, 96, 0, 1024, 1024, 1024, 1024, 0, 6, 3678, 3662, 3639, 3667, 3754, 3681, 0, 1, 19408, -89.900, 0.000, -17.100, 0.000, 0.000, -3.100, 0.0, , , , , , 97, , , 29, 29, 29
37.2566362, -119.3807704, 41.400, 12:46:44.353, 14, 0.00, 0.24, 97, -3.100, 4.400, -16.700, 753, 100, 99, 14, 21955, -20891, 5270, 5434, 14, 14, 1529264804.353, 86, 0, 1024, 1024, 1024, 1024, 0, 6, 3678, 3662, 3639, 3667, 3754, 3681, 0, 1, 19508, -89.900, 0.000, -17.100, 0.000, 0.000, -3.100, 0.0, , , , , , 97, , , 29, 29, 29
37.2566362, -119.3807704, 41.700, 12:46:44.453, 14, 0.00, 0.24, 97, -3.500, 4.600, -16.700, 753, 100, 99, 14, 21955, -20891, 5270, 5434, 14, 14, 1529264804.453, 76, 0, 1024, 1024, 1024, 1024, 0, 6, 3678, 3662, 3639, 3667, 3754, 3681, 0, 1, 19608, -89.900, 0.000, -17.100, 0.000, 0.000, -3.200, 0.0, , , , , , 97, , , 29, 29, 29
37.2566362, -119.3807704, 42.000, 12:46:44.553, 14, 0.00, 0.23, 97, -4.000, 4.700, -16.700, 753, 100, 99, 14, 21955, -20891, 5270, 5434, 14, 14, 1529264804.553, 94, 0, 1024, 1024, 1024, 1024, 0, 6, 3678, 3662, 3639, 3667, 3754, 3681, 0, 1, 19708, -89.900, 0.000, -17.100, 0.000, 0.000, -3.100, 0.0, , , , , , 97, , , 29, 29, 29
37.2566362, -119.3807703, 42.300, 12:46:44.653, 14, 0.00, 0.23, 97, -4.000, 4.500, -16.600, 753, 100, 99, 14, 21955, -20891, 5270, 5434, 14, 14, 1529264804.653, 86, 0, 1024, 1024, 1024, 1024, 0, 6, 3678, 3662, 3639, 3667, 3754, 3681, 0, 1, 19808, -90.000, 0.000, -17.100, 0.000, 0.000, -3.200, 0.0, , , , , , 97, , , 29, 29, 29
37.2566362, -119.3807704, 42.600, 12:46:44.753, 14, 0.00, 0.23, 97, -3.600, 4.300, -16.500, 753, 100, 99, 14, 21955, -20891, 5270, 5434, 14, 14, 1529264804.753, 63, 0, 1024, 1024, 1024, 1024, 0, 6, 3678, 3662, 3639, 3667, 3754, 3681, 0, 1, 19908, -90.000, 0.000, -17.100, 0.000, 0.000, -3.100, 0.0, , , , , , 97, , , 29, 29, 29
37.2566361, -119.3807704, 42.900, 12:46:44.853, 14, 0.00, 0.24, 97, -3.100, 3.700, -16.500, 753, 100, 99, 14, 21796, -22378, 5270, 5434, 14, 14, 1529264804.853, 56, 0, 1024, 1024, 1024, 1024, 0, 6, 3634, 3605, 3588, 3614, 3672, 3640, 0, 1, 20008, -89.900, 0.000, -17.100, 0.000, 0.000, -3.100, 0.0, , , , , , 97, , , 29, 29, 29
37.2566361, -119.3807704, 43.200, 12:46:44.953, 14, 0.00, 0.24, 97, -3.000, 3.600, -16.400, 753, 100, 99, 14, 21796, -22378, 5270, 5434, 14, 14, 1529264804.953, 49, 0, 1024, 1024, 1024, 1024, 0, 6, 3634, 3605, 3588, 3614, 3672, 3640, 0, 1, 20108, -89.900, 0.000, -17.100, 0.000, 0.000, -3.100, 0.0, , , , , , 97, , , 29, 29, 29
37.2566360, -119.3807705, 43.600, 12:46:45.053, 14, 0.00, 0.25, 97, -2.800, 3.600, -16.300, 753, 100, 99, 14, 21796, -22378, 5270, 5434, 14, 14, 1529264805.053, 40, 0, 1024, 1024, 1024, 1024, 0, 6, 3634, 3605, 3588, 3614, 3672, 3640, 0, 1, 20208, -89.900, 0.000, -17.100, 0.000, 0.000, -3.100, 0.0, , , , , , 97, , , 29, 29, 29
37.2566358, -119.3807707, 44.200, 12:46:45.153, 14, 0.00, 0.27, 97, -2.600, 3.700, -16.300, 753, 100, 99, 14, 21796, -22378, 5270, 5434, 14, 14, 1529264805.153, 27, 0, 1024, 1024, 1024, 1024, 0, 6, 3634, 3605, 3588, 3614, 3672, 3640, 0, 1, 20308, -90.000, 0.000, -17.100, 0.000, 0.000, -3.100, 0.0, , , , , , 97, , , 29, 29, 29
37.2566358, -119.3807708, 44.500, 12:46:45.253, 14, 0.00, 0.28, 97, -2.500, 3.400, -16.300, 753, 100, 99, 14, 21796, -22378, 5270, 5434, 14, 14, 1529264805.253, 46, 0, 1024, 1024, 1024, 1024, 0, 6, 3634, 3605, 3588, 3614, 3672, 3640, 0, 1, 20408, -89.900, 0.000, -17.100, 0.000, 0.000, -3.100, 0.0, , , , , , 97, , , 29, 29, 29
37.2566357, -119.3807709, 44.800, 12:46:45.353, 14, 0.10, 0.30, 97, -1.600, 3.300, -16.200, 753, 100, 99, 14, 21796, -22378, 5270, 5434, 14, 14, 1529264805.353, 53, 0, 1024, 1024, 1024, 1024, 0, 6, 3634, 3605, 3588, 3614, 3672, 3640, 0, 1, 20508, -89.900, 0.000, -17.100, 0.000, -0.100, -3.200, 0.0, , , , , , 97, , , 29, 29, 29
37.2566356, -119.3807710, 45.200, 12:46:45.453, 14, 0.00, 0.31, 97, -1.000, 3.600, -16.200, 753, 100, 99, 14, 21796, -22378, 5270, 5434, 14, 14, 1529264805.453, 44, 0, 1024, 1024, 1024, 1024, 0, 6, 3634, 3605, 3588, 3614, 3672, 3640, 0, 1, 20608, -89.900, 0.000, -17.100, 0.000, 0.000, -3.100, 0.0, , , , , , 97, , , 29, 29, 29
37.2566355, -119.3807711, 45.500, 12:46:45.553, 14, 0.00, 0.32, 97, -1.600, 3.800, -16.200, 753, 100, 99, 14, 21796, -22378, 5270, 5434, 14, 14, 1529264805.553, 47, 0, 1024, 1024, 1024, 1024, 0, 6, 3634, 3605, 3588, 3614, 3672, 3640, 0, 1, 20708, -89.900, 0.000, -17.100, 0.000, 0.000, -3.100, 0.0, , , , , , 97, , , 29, 29, 29
37.2566355, -119.3807712, 45.800, 12:46:45.653, 14, 0.00, 0.33, 97, -2.300, 3.500, -16.000, 753, 100, 99, 14, 21796, -22378, 5270, 5434, 14, 14, 1529264805.653, 18, 0, 1024, 1024, 1024, 1024, 0, 6, 3634, 3605, 3588, 3614, 3672, 3640, 0, 1, 20808, -90.000, 0.000, -17.100, 0.000, 0.000, -3.100, 0.0, , , , , , 97, , , 29, 29, 29
37.2566354, -119.3807713, 46.100, 12:46:45.753, 14, 0.00, 0.34, 97, -2.500, 3.300, -15.600, 753, 100, 99, 14, 21841, -21536, 5270, 5434, 14, 14, 1529264805.753, 31, 0, 1024, 1024, 1024, 1024, 0, 6, 3634, 3605, 3588, 3614, 3672, 3640, 0, 1, 20908, -89.900, 0.000, -17.100, 0.000, 0.000, -3.100, 0.0, , , , , , 97, , , 29, 29, 29
37.2566355, -119.3807714, 46.400, 12:46:45.853, 14, 0.10, 0.34, 97, -2.300, 4.400, -15.500, 753, 100, 99, 14, 21841, -21536, 5270, 5434, 14, 14, 1529264805.853, 36, 0, 1024, 1024, 1024, 1024, 0, 6, 3634, 3605, 3588, 3614, 3672, 3640, 0, 1, 21008, -89.900, 0.000, -17.100, 0.100, 0.000, -3.000, 0.0, , , , , , 97, , , 29, 29, 29
