Latitude, Longitude, Altitude (m), Time, Sats, Speed (m/s), Range (m), Battery (%), Roll (deg), Pitch (deg), Yaw (deg), Images, HD Signal (%), RC Signal (%), Battery Temp (C), Battery Voltage (mV), Battery Current (mA), Battery Energy (mAh), Battery Capacity (mAh), Battery Discharges, flyState, timestamp (Unix), LastUpdate (ms), radioChannel, Rc_elevator, Rc_aileron, Rc_throttle, Rc_rudder, Rc_gyro, Dronetype, Battery_Cell1 (mV), Battery_Cell2 (mV), Battery_Cell3 (mV), Battery_Cell4 (mV), Battery_Cell5 (mV), Battery_Cell6 (mV), Video, isFlying, elapsedTime (ms), gimbalPitch (deg), gimbalRoll (deg), gimbalYaw (deg), VelocityX (m/s), VelocityY (m/s), VelocityZ (m/s), GroundSmear (cm), App Version, Aircraft Name, Aircraft Firmware, Aircraft Serial Number, Battery Serial Number, Battery Lifetime (%), App_Tip, App_Warning, CurrentFlightStartingIndex, CurrentFlightLastVisitedWaypoint, PreviousFlightEndingWaypointIndex
37.2566182, -119.3807539, 0.000, 12:29:47.272, 10, 0.20, 0.27, 96, -2.000, -2.100, -12.600, 391, 100, 100, 15, 24739, -3890, 4952, 5159, 15, 11, 1529263787.272, 54, 0, 1024, 1024, 1024, 1024, 0, 6, 4114, 4127, 4117, 4145, 4105, 4101, 0, 1, 3142, -90.000, 0.000, -13.400, 0.000, -0.200, -0.100, 0.1, MapPilot_2.8.1_04242018, Dendroctonus I, 1.3.1.00, 041DDC1887, 1058171200154, 97, DJI_0389.jpg, Starting Mission from Lat/Long: 37.25663/-119.38073 Camera: Zenmuse X3 - Overlap: 90/90 - Active Connection: No, 15, 15, 15
37.2566182, -119.3807539, 0.000, 12:29:47.330, 10, 0.20, 0.27, 96, -2.000, -2.100, -12.600, 391, 100, 100, 15, 24739, -3890, 4952, 5159, 15, 11, 1529263787.331, 112, 0, 1024, 1024, 1024, 1024, 0, 6, 4114, 4127, 4117, 4145, 4105, 4101, 0, 1, 3201, -90.000, 0.000, -13.400, 0.000, -0.200, -0.100, 0.1, , , , , , 97, , , 15, 15, 15
37.2566181, -119.3807547, 0.000, 12:29:47.431, 10, 0.30, 0.34, 96, 0.200, -0.600, -12.200, 391, 100, 100, 15, 24739, -3890, 4952, 5159, 15, 11, 1529263787.431, 5, 0, 1024, 1024, 1024, 1024, 0, 6, 4114, 4127, 4117, 4145, 4105, 4101, 0, 1, 3301, -89.900, 0.000, -13.400, 0.000, -0.300, -0.300, 0.1, , , , , , 97, , , 15, 15, 15
37.2566181, -119.3807552, 0.000, 12:29:47.534, 8, 0.30, 0.38, 96, 1.600, 0.000, -12.100, 391, 100, 100, 15, 24739, -3890, 4952, 5159, 15, 11, 1529263787.534, 3, 0, 1024, 1024, 1024, 1024, 0, 6, 4114, 4127, 4117, 4145, 4105, 4101, 0, 1, 3404, -89.900, 0.000, -13.400, 0.000, -0.300, -0.400, 0.0, , , , , , 97, , , 15, 15, 15
37.2566181, -119.3807552, 0.000, 12:29:47.631, 8, 0.30, 0.38, 96, 1.600, 0.000, -12.100, 391, 100, 100, 15, 24739, -3890, 4952, 5159, 15, 11, 1529263787.631, 100, 0, 1024, 1024, 1024, 1024, 0, 6, 4114, 4127, 4117, 4145, 4105, 4101, 0, 1, 3501, -89.900, 0.000, -13.400, 0.000, -0.300, -0.400, 0.0, , , , , , 97, , , 15, 15, 15
37.2566182, -119.3807557, 0.000, 12:29:47.730, 8, 0.30, 0.42, 96, 2.300, 0.200, -12.200, 391, 100, 100, 15, 24739, -3890, 4952, 5159, 15, 11, 1529263787.731, 79, 0, 1024, 1024, 1024, 1024, 0, 6, 4114, 4127, 4117, 4145, 4105, 4101, 0, 1, 3601, -89.900, 0.000, -13.400, 0.000, -0.300, -0.400, 0.0, , , , , , 97, , , 15, 15, 15
37.2566183, -119.3807561, 0.100, 12:29:47.830, 7, 0.30, 0.45, 96, 3.200, 0.700, -12.400, 391, 100, 100, 15, 24739, -3890, 4952, 5159, 15, 11, 1529263787.831, 80, 0, 1024, 1024, 1024, 1024, 0, 6, 4114, 4127, 4117, 4145, 4105, 4101, 0, 1, 3701, -89.900, 0.000, -13.400, 0.000, -0.300, -0.400, 0.0, , , , , , 97, , , 15, 15, 15
37.2566183, -119.3807564, 0.100, 12:29:47.930, 7, 0.20, 0.48, 96, 3.500, 1.100, -12.500, 391, 100, 100, 15, 24739, -3890, 4952, 5159, 15, 11, 1529263787.931, 67, 0, 1024, 1024, 1024, 1024, 0, 6, 4114, 4127, 4117, 4145, 4105, 4101, 0, 1, 3801, -89.900, 0.000, -13.400, 0.000, -0.200, -0.400, 0.0, , , , , , 97, , , 15, 15, 15
37.2566184, -119.3807567, 0.200, 12:29:48.030, 10, 0.20, 0.50, 96, 3.300, 1.600, -12.600, 391, 100, 100, 15, 24739, -3890, 4952, 5159, 15, 11, 1529263788.031, 68, 0, 1024, 1024, 1024, 1024, 0, 6, 4114, 4127, 4117, 4145, 4105, 4101, 0, 1, 3901, -90.000, 0.000, -13.400, 0.000, -0.200, -0.400, 0.0, , , , , , 97, , , 15, 15, 15
37.2566185, -119.3807570, 0.200, 12:29:48.131, 10, 0.14, 0.53, 96, 2.800, 1.900, -12.700, 391, 100, 100, 15, 24739, -3890, 4952, 5159, 15, 11, 1529263788.132, 72, 0, 1024, 1024, 1024, 1024, 0, 6, 4114, 4127, 4117, 4145, 4105, 4101, 0, 1, 4002, -89.900, 0.000, -13.400, 0.100, -0.100, -0.400, 0.0, , , , , , 97, , , 15, 15, 15
37.2566185, -119.3807573, 0.300, 12:29:48.230, 11, 0.14, 0.55, 96, 2.400, 1.800, -12.900, 391, 100, 100, 15, 23752, -9184, 4952, 5159, 15, 11, 1529263788.231, 71, 0, 1024, 1024, 1024, 1024, 0, 6, 3943, 3873, 3908, 3925, 3902, 3912, 0, 1, 4101, -90.000, 0.000, -13.400, 0.100, -0.100, -0.300, 0.0, , , , , , 97, , , 15, 15, 15
37.2566186, -119.3807575, 0.300, 12:29:48.330, 11, 0.10, 0.57, 96, 1.900, 1.700, -13.000, 391, 100, 100, 15, 23752, -9184, 4952, 5159, 15, 11, 1529263788.331, 59, 0, 1024, 1024, 1024, 1024, 0, 6, 3943, 3873, 3908, 3925, 3902, 3912, 0, 1, 4201, -89.900, 0.000, -13.400, 0.000, -0.100, -0.400, 0.0, , , , , , 97, , , 15, 15, 15
37.2566186, -119.3807577, 0.400, 12:29:48.430, 11, 0.10, 0.59, 96, 1.900, 1.700, -13.100, 391, 100, 100, 15, 23752, -9184, 4952, 5159, 15, 11, 1529263788.431, 62, 0, 1024, 1024, 1024, 1024, 0, 6, 3943, 3873, 3908, 3925, 3902, 3912, 0, 1, 4301, -89.900, 0.000, -13.400, 0.000, -0.100, -0.300, 0.0, , , , , , 97, , , 15, 15, 15
37.2566188, -119.3807579, 0.400, 12:29:48.530, 11, 0.00, 0.60, 96, 1.600, 1.700, -13.200, 391, 100, 100, 15, 23752, -9184, 4952, 5159, 15, 11, 1529263788.531, 67, 0, 1024, 1024, 1024, 1024, 0, 6, 3943, 3873, 3908, 3925, 3902, 3912, 0, 1, 4401, -89.900, 0.000, -13.400, 0.000, 0.000, -0.400, 0.0, , , , , , 97, , , 15, 15, 15
37.2566189, -119.3807580, 0.500, 12:29:48.630, 9, 0.00, 0.61, 96, 1.300, 1.500, -13.200, 391, 100, 100, 15, 23752, -9184, 4952, 5159, 15, 11, 1529263788.631, 38, 0, 1024, 1024, 1024, 1024, 0, 6, 3943, 3873, 3908, 3925, 3902, 3912, 0, 1, 4501, -89.900, 0.000, -13.400, 0.000, 0.000, -0.400, 0.0, , , , , , 97, , , 15, 15, 15
37.2566189, -119.3807582, 0.500, 12:29:48.730, 9, 0.00, 0.63, 96, 1.100, 1.600, -13.100, 391, 100, 100, 15, 23752, -9184, 4952, 5159, 15, 11, 1529263788.731, 42, 0, 1024, 1024, 1024, 1024, 0, 6, 3943, 3873, 3908, 3925, 3902, 3912, 0, 1, 4601, -89.900, 0.000, -13.400, 0.000, 0.000, -0.500, 0.0, , , , , , 97, , , 15, 15, 15
37.2566190, -119.3807584, 0.600, 12:29:48.830, 9, 0.00, 0.64, 96, 1.200, 1.600, -13.100, 391, 100, 100, 15, 23752, -9184, 4952, 5159, 15, 11, 1529263788.830, 31, 0, 1024, 1024, 1024, 1024, 0, 6, 3943, 3873, 3908, 3925, 3902, 3912, 0, 1, 4700, -89.900, 0.000, -13.400, 0.000, 0.000, -0.500, 0.0, , , , , , 97, , , 15, 15, 15
37.2566191, -119.3807586, 0.600, 12:29:48.930, 9, 0.00, 0.66, 96, 1.200, 1.600, -13.000, 391, 100, 100, 15, 23752, -9184, 4952, 5159, 15, 11, 1529263788.931, 36, 0, 1024, 1024, 1024, 1024, 0, 6, 3943, 3873, 3908, 3925, 3902, 3912, 0, 1, 4801, -89.900, 0.000, -13.400, 0.000, 0.000, -0.400, 0.0, , , , , , 97, , , 15, 15, 15
37.2566193, -119.3807588, 0.700, 12:29:49.030, 10, 0.00, 0.68, 96, 1.300, 1.700, -13.100, 391, 100, 100, 15, 23752, -9184, 4952, 5159, 15, 11, 1529263789.031, 39, 0, 1024, 1024, 1024, 1024, 0, 6, 3943, 3873, 3908, 3925, 3902, 3912, 0, 1, 4901, -89.900, 0.000, -13.400, 0.000, 0.000, -0.400, 0.0, , , , , , 97, , , 15, 15, 15
37.2566194, -119.3807589, 0.700, 12:29:49.130, 10, 0.00, 0.69, 96, 1.400, 2.000, -13.100, 391, 100, 100, 15, 23752, -9184, 4952, 5159, 15, 11, 1529263789.131, 15, 0, 1024, 1024, 1024, 1024, 0, 6, 3943, 3873, 3908, 3925, 3902, 3912, 0, 1, 5001, -89.900, 0.000, -13.400, 0.000, 0.000, -0.400, 0.0, , , , , , 97, , , 15, 15, 15
37.2566195, -119.3807590, 0.800, 12:29:49.230, 12, 0.00, 0.70, 96, 1.600, 2.300, -13.100, 391, 100, 100, 15, 22627, -17427, 4952, 5159, 15, 11, 1529263789.231, 21, 0, 1024, 1024, 1024, 1024, 0, 6, 3761, 3763, 3787, 3753, 3744, 3772, 0, 1, 5101, -89.900, 0.000, -13.400, 0.000, 0.000, -0.400, 0.0, , , , , , 97, , , 15, 15, 15
37.2566196, -119.3807591, 0.800, 12:29:49.330, 12, 0.00, 0.70, 96, 1.500, 2.500, -13.000, 391, 100, 100, 15, 22627, -17427, 4952, 5159, 15, 11, 1529263789.331, 13, 0, 1024, 1024, 1024, 1024, 0, 6, 3761, 3763, 3787, 3753, 3744, 3772, 0, 1, 5201, -89.900, 0.000, -13.400, 0.000, 0.000, -0.500, 0.0, , , , , , 97, , , 15, 15, 15
37.2566197, -119.3807592, 0.900, 12:29:49.430, 12, 0.00, 0.72, 96, 1.400, 2.600, -12.900, 391, 100, 100, 15, 22627, -17427, 4952, 5159, 15, 11, 1529263789.430, 18, 0, 1024, 1024, 1024, 1024, 0, 6, 3761, 3763, 3787, 3753, 3744, 3772, 0, 1, 5300, -89.900, 0.000, -13.400, 0.000, 0.000, -0.500, 0.0, , , , , , 97, , , 15, 15, 15
37.2566198, -119.3807594, 0.900, 12:29:49.530, 12, 0.00, 0.73, 96, 1.400, 2.600, -12.800, 391, 100, 100, 15, 22627, -17427, 4952, 5159, 15, 14, 1529263789.531, 5, 0, 1024, 1024, 1024, 1024, 0, 6, 3761, 3763, 3787, 3753, 3744, 3772, 0, 1, 5401, -89.900, 0.000, -13.400, 0.000, 0.000, -0.500, 0.0, , , , , , 97, , , 15, 15, 15
37.2566198, -119.3807594, 0.900, 12:29:49.630, 12, 0.00, 0.73, 96, 1.400, 2.600, -12.800, 391, 100, 100, 15, 22627, -17427, 4952, 5159, 15, 14, 1529263789.631, 105, 0, 1024, 1024, 1024, 1024, 0, 6, 3761, 3763, 3787, 3753, 3744, 3772, 0, 1, 5501, -89.900, 0.000, -13.400, 0.000, 0.000, -0.500, 0.0, , , , , , 97, , , 15, 15, 15
37.2566200, -119.3807596, 1.000, 12:29:49.730, 10, 0.00, 0.76, 96, 1.000, 1.700, -12.700, 391, 100, 100, 15, 22627, -17427, 4952, 5159, 15, 14, 1529263789.731, 5, 0, 1024, 1024, 1024, 1024, 0, 6, 3761, 3763, 3787, 3753, 3744, 3772, 0, 1, 5601, -90.000, 0.000, -13.400, 0.000, 0.000, -0.200, 0.0, , , , , , 97, , , 15, 15, 15
37.2566200, -119.3807596, 1.000, 12:29:49.830, 10, 0.00, 0.76, 96, 1.000, 1.700, -12.700, 391, 100, 100, 15, 22627, -17427, 4952, 5159, 15, 14, 1529263789.831, 105, 0, 1024, 1024, 1024, 1024, 0, 6, 3761, 3763, 3787, 3753, 3744, 3772, 0, 1, 5701, -90.000, 0.000, -13.400, 0.000, 0.000, -0.200, 0.0, , , , , , 97, , , 15, 15, 15
37.2566202, -119.3807601, 1.100, 12:29:49.934, 11, 0.00, 0.80, 96, 1.200, 1.700, -12.700, 391, 100, 100, 15, 22627, -17427, 4952, 5159, 15, 14, 1529263789.934, 1, 0, 1024, 1024, 1024, 1024, 0, 6, 3761, 3763, 3787, 3753, 3744, 3772, 0, 1, 5804, -90.000, 0.000, -13.400, 0.000, 0.000, -0.400, 0.0, , , , , , 97, , , 15, 15, 15
37.2566202, -119.3807601, 1.100, 12:29:50.030, 11, 0.00, 0.80, 96, 1.200, 1.700, -12.700, 391, 100, 100, 15, 22627, -17427, 4952, 5159, 15, 14, 1529263790.031, 98, 0, 1024, 1024, 1024, 1024, 0, 6, 3761, 3763, 3787, 3753, 3744, 3772, 0, 1, 5900, -90.000, 0.000, -13.400, 0.000, 0.000, -0.400, 0.0, , , , , , 97, , , 15, 15, 15
37.2566202, -119.3807603, 1.200, 12:29:50.129, 11, 0.00, 0.82, 96, 1.700, 1.700, -12.700, 391, 100, 100, 15, 22627, -17427, 4952, 5159, 15, 14, 1529263790.130, 79, 0, 1024, 1024, 1024, 1024, 0, 6, 3761, 3763, 3787, 3753, 3744, 3772, 0, 1, 6000, -89.900, 0.000, -13.400, 0.000, 0.000, -0.500, 0.0, , , , , , 97, , , 15, 15, 15
37.2566202, -119.3807604, 1.200, 12:29:50.229, 10, 0.00, 0.83, 96, 2.000, 1.700, -12.900, 391, 100, 100, 15, 22424, -17698, 4952, 5159, 15, 14, 1529263790.230, 90, 0, 1024, 1024, 1024, 1024, 0, 6, 3722, 3745, 3753, 3733, 3718, 3742, 0, 1, 6100, -90.000, 0.000, -13.400, 0.000, 0.000, -0.700, 0.0, , , , , , 97, , , 15, 15, 15
37.2566202, -119.3807606, 1.300, 12:29:50.329, 10, 0.00, 0.84, 96, 2.000, 1.600, -13.000, 391, 100, 100, 15, 22424, -17698, 4952, 5159, 15, 14, 1529263790.330, 97, 0, 1024, 1024, 1024, 1024, 0, 6, 3722, 3745, 3753, 3733, 3718, 3742, 0, 1, 6200, -90.000, 0.000, -13.400, 0.000, 0.000, -0.900, 0.0, , , , , , 97, , , 15, 15, 15
37.2566202, -119.3807607, 1.400, 12:29:50.429, 10, 0.00, 0.85, 96, 1.700, 1.500, -13.000, 391, 100, 100, 15, 22424, -17698, 4952, 5159, 15, 14, 1529263790.430, 64, 0, 1024, 1024, 1024, 1024, 0, 6, 3722, 3745, 3753, 3733, 3718, 3742, 0, 1, 6300, -90.000, 0.000, -13.400, 0.000, 0.000, -1.100, 0.0, , , , , , 97, , , 15, 15, 15
37.2566202, -119.3807607, 1.500, 12:29:50.529, 10, 0.00, 0.85, 96, 1.300, 1.500, -12.900, 391, 100, 100, 15, 22424, -17698, 4952, 5159, 15, 14, 1529263790.530, 71, 0, 1024, 1024, 1024, 1024, 0, 6, 3722, 3745, 3753, 3733, 3718, 3742, 0, 1, 6400, -90.000, 0.000, -13.400, 0.000, 0.000, -1.200, 0.0, , , , , , 97, , , 15, 15, 15
37.2566203, -119.3807607, 1.700, 12:29:50.629, 11, 0.00, 0.86, 96, 1.300, 1.500, -12.800, 391, 100, 100, 15, 22424, -17698, 4952, 5159, 15, 14, 1529263790.630, 58, 0, 1024, 1024, 1024, 1024, 0, 6, 3722, 3745, 3753, 3733, 3718, 3742, 0, 1, 6500, -90.000, 0.000, -13.400, 0.000, 0.000, -1.500, 0.0, , , , , , 97, , , 15, 15, 15
37.2566202, -119.3807608, 1.800, 12:29:50.729, 11, 0.00, 0.86, 96, 1.500, 1.400, -12.600, 391, 100, 100, 15, 22424, -17698, 4952, 5159, 15, 14, 1529263790.730, 53, 0, 1024, 1024, 1024, 1024, 0, 6, 3722, 3745, 3753, 3733, 3718, 3742, 0, 1, 6600, -90.000, 0.000, -13.400, 0.000, 0.000, -1.700, 0.0, , , , , , 97, , , 15, 15, 15
37.2566202, -119.3807607, 2.000, 12:29:50.829, 11, 0.00, 0.86, 96, 1.700, 1.200, -12.400, 391, 100, 100, 15, 22424, -17698, 4952, 5159, 15, 14, 1529263790.830, 68, 0, 1024, 1024, 1024, 1024, 0, 6, 3722, 3745, 3753, 3733, 3718, 3742, 0, 1, 6700, -90.000, 0.000, -13.400, 0.000, 0.000, -1.900, 0.0, , , , , , 97, , , 15, 15, 15
37.2566202, -119.3807606, 2.200, 12:29:50.929, 11, 0.00, 0.84, 96, 1.500, 1.300, -12.300, 391, 100, 100, 15, 22424, -17698, 4952, 5159, 15, 14, 1529263790.930, 63, 0, 1024, 1024, 1024, 1024, 0, 6, 3722, 3745, 3753, 3733, 3718, 3742, 0, 1, 6800, -90.000, 0.000, -13.400, 0.000, 0.000, -2.200, 0.0, , , , , , 97, , , 15, 15, 15
37.2566202, -119.3807603, 2.500, 12:29:51.029, 10, 0.00, 0.82, 96, 0.900, 1.300, -12.300, 391, 100, 100, 15, 22424, -17698, 4952, 5159, 15, 14, 1529263791.030, 59, 0, 1024, 1024, 1024, 1024, 0, 6, 3722, 3745, 3753, 3733, 3718, 3742, 0, 1, 6900, -89.900, 0.000, -13.400, 0.000, 0.000, -2.400, 0.0, , , , , , 97, , , 15, 15, 15
37.2566202, -119.3807601, 2.700, 12:29:51.130, 10, 0.10, 0.80, 96, 0.400, 1.300, -12.300, 391, 100, 100, 15, 22424, -17698, 4952, 5159, 15, 14, 1529263791.130, 29, 0, 1024, 1024, 1024, 1024, 0, 6, 3722, 3745, 3753, 3733, 3718, 3742, 0, 1, 7000, -90.000, 0.000, -13.400, 0.000, 0.100, -2.600, 0.0, , , , , , 97, , , 15, 15, 15
37.2566203, -119.3807598, 3.000, 12:29:51.229, 11, 0.00, 0.78, 96, -0.200, 1.400, -12.300, 391, 100, 100, 15, 22111, -18351, 4952, 5159, 15, 14, 1529263791.230, 34, 0, 1024, 1024, 1024, 1024, 0, 6, 3666, 3692, 3680, 3686, 3682, 3670, 0, 1, 7100, -90.000, 0.000, -13.400, 0.000, 0.000, -2.800, 0.0, , , , , , 97, , , 15, 15, 15
37.2566203, -119.3807596, 3.300, 12:29:51.330, 11, 0.00, 0.76, 96, -0.400, 1.400, -12.400, 391, 100, 100, 15, 22111, -18351, 4952, 5159, 15, 14, 1529263791.330, 37, 0, 1024, 1024, 1024, 1024, 0, 6, 3666, 3692, 3680, 3686, 3682, 3670, 0, 1, 7200, -90.000, 0.000, -13.400, 0.000, 0.000, -3.000, 0.0, , , , , , 97, , , 15, 15, 15
37.2566202, -119.3807594, 3.600, 12:29:51.429, 12, 0.00, 0.74, 96, 0.000, 1.200, -12.600, 391, 100, 100, 15, 22111, -18351, 4952, 5159, 15, 14, 1529263791.430, 38, 0, 1024, 1024, 1024, 1024, 0, 6, 3666, 3692, 3680, 3686, 3682, 3670, 0, 1, 7300, -90.000, 0.000, -13.400, 0.000, 0.000, -3.200, 0.0, , , , , , 97, , , 15, 15, 15
37.2566201, -119.3807591, 4.000, 12:29:51.529, 12, 0.00, 0.71, 96, 0.300, 0.400, -12.700, 391, 100, 100, 15, 22111, -18351, 4952, 5159, 15, 14, 1529263791.530, 32, 0, 1024, 1024, 1024, 1024, 0, 6, 3666, 3692, 3680, 3686, 3682, 3670, 0, 1, 7400, -90.000, 0.000, -13.400, 0.000, 0.000, -3.200, 0.0, , , , , , 97, , , 15, 15, 15
37.2566200, -119.3807590, 4.300, 12:29:51.629, 11, 0.00, 0.70, 96, -0.100, -0.100, -12.600, 391, 100, 100, 15, 22111, -18351, 4952, 5159, 15, 14, 1529263791.630, 32, 0, 1024, 1024, 1024, 1024, 0, 6, 3666, 3692, 3680, 3686, 3682, 3670, 0, 1, 7500, -90.000, 0.000, -13.400, 0.000, 0.000, -3.300, 0.0, , , , , , 97, , , 15, 15, 15
37.2566200, -119.3807588, 4.700, 12:29:51.729, 11, 0.00, 0.69, 96, -0.200, -0.400, -12.500, 391, 100, 100, 15, 22111, -18351, 4952, 5159, 15, 14, 1529263791.730, 33, 0, 1024, 1024, 1024, 1024, 0, 6, 3666, 3692, 3680, 3686, 3682, 3670, 0, 1, 7600, -90.000, 0.000, -13.400, 0.000, 0.000, -3.300, 0.0, , , , , , 97, , , 15, 15, 15
37.2566201, -119.3807587, 5.000, 12:29:51.829, 10, 0.00, 0.68, 96, 0.000, -0.400, -12.400, 391, 100, 100, 15, 22111, -18351, 4952, 5159, 15, 14, 1529263791.830, 37, 0, 1024, 1024, 1024, 1024, 0, 6, 3666, 3692, 3680, 3686, 3682, 3670, 0, 1, 7700, -89.900, 0.000, -13.400, 0.000, 0.000, -3.200, 0.0, , , , , , 97, , , 15, 15, 15
37.2566201, -119.3807587, 5.000, 12:29:51.929, 10, 0.00, 0.68, 96, 0.000, -0.400, -12.400, 391, 100, 100, 15, 22111, -18351, 4952, 5159, 15, 14, 1529263791.930, 137, 0, 1024, 1024, 1024, 1024, 0, 6, 3666, 3692, 3680, 3686, 3682, 3670, 0, 1, 7800, -89.900, 0.000, -13.400, 0.000, 0.000, -3.200, 0.0, , , , , , 97, , , 15, 15, 15
37.2566205, -119.3807584, 5.700, 12:29:52.030, 11, 0.10, 0.66, 96, -0.300, 1.500, -12.400, 391, 100, 100, 15, 22111, -18351, 4952, 5159, 15, 14, 1529263792.030, 11, 0, 1024, 1024, 1024, 1024, 0, 6, 3666, 3692, 3680, 3686, 3682, 3670, 0, 1, 7900, -89.900, 0.000, -13.400, 0.100, 0.000, -3.200, 0.0, , , , , , 97, , , 15, 15, 15
37.2566207, -119.3807582, 6.000, 12:29:52.130, 11, 0.10, 0.65, 96, -1.200, 2.600, -12.700, 391, 100, 100, 15, 22111, -18351, 4952, 5159, 15, 14, 1529263792.131, 24, 0, 1024, 1024, 1024, 1024, 0, 6, 3666, 3692, 3680, 3686, 3682, 3670, 0, 1, 8000, -89.900, 0.000, -13.400, 0.100, 0.000, -3.200, 0.0, , , , , , 97, , , 15, 15, 15
37.2566208, -119.3807580, 6.400, 12:29:52.230, 9, 0.00, 0.63, 96, -1.400, 3.200, -13.100, 391, 100, 100, 15, 21391, -26380, 4952, 5159, 15, 14, 1529263792.231, 3, 0, 1024, 1024, 1024, 1024, 0, 6, 3666, 3692, 3680, 3686, 3682, 3670, 0, 1, 8101, -89.900, 0.000, -13.400, 0.000, 0.000, -3.300, 0.0, , , , , , 97, , , 15, 15, 15
37.2566208, -119.3807580, 6.400, 12:29:52.330, 9, 0.00, 0.63, 96, -1.400, 3.200, -13.100, 391, 100, 100, 15, 21391, -26380, 4952, 5159, 15, 14, 1529263792.330, 103, 0, 1024, 1024, 1024, 1024, 0, 6, 3666, 3692, 3680, 3686, 3682, 3670, 0, 1, 8200, -89.900, 0.000, -13.400, 0.000, 0.000, -3.300, 0.0, , , , , , 97, , , 15, 15, 15
37.2566208, -119.3807581, 7.400, 12:29:52.445, 11, 0.00, 0.64, 96, 0.000, 2.200, -13.400, 391, 100, 100, 15, 21391, -26380, 4952, 5159, 15, 14, 1529263792.445, 1, 0, 1024, 1024, 1024, 1024, 0, 6, 3666, 3692, 3680, 3686, 3682, 3670, 0, 1, 8315, -90.000, 0.000, -13.400, 0.000, 0.000, -3.200, 0.0, , , , , , 97, , , 15, 15, 15
37.2566207, -119.3807584, 7.800, 12:29:52.530, 11, 0.00, 0.66, 96, 0.700, 1.900, -13.200, 391, 100, 100, 15, 21391, -26380, 4952, 5159, 15, 14, 1529263792.530, 4, 0, 1024, 1024, 1024, 1024, 0, 6, 3666, 3692, 3680, 3686, 3682, 3670, 0, 1, 8400, -90.000, 0.000, -13.400, 0.000, 0.000, -3.200, 0.0, , , , , , 97, , , 15, 15, 15
37.2566206, -119.3807587, 8.100, 12:29:52.630, 11, 0.10, 0.69, 96, 1.400, 1.700, -12.900, 391, 100, 100, 15, 21391, -26380, 4901, 5159, 15, 14, 1529263792.631, 5, 0, 1024, 1024, 1024, 1024, 0, 6, 3554, 3569, 3584, 3556, 3552, 3583, 0, 1, 8501, -90.000, 0.000, -13.400, 0.000, -0.100, -3.200, 0.0, , , , , , 97, , , 15, 15, 15
37.2566206, -119.3807587, 8.100, 12:29:52.730, 11, 0.10, 0.69, 96, 1.400, 1.700, -12.900, 391, 100, 100, 15, 21391, -26380, 4901, 5159, 15, 14, 1529263792.730, 105, 0, 1024, 1024, 1024, 1024, 0, 6, 3554, 3569, 3584, 3556, 3552, 3583, 0, 1, 8600, -90.000, 0.000, -13.400, 0.000, -0.100, -3.200, 0.0, , , , , , 97, , , 15, 15, 15
37.2566206, -119.3807590, 8.400, 12:29:52.831, 11, 0.10, 0.71, 96, 2.100, 1.900, -12.600, 391, 100, 100, 15, 21391, -26380, 4901, 5159, 15, 14, 1529263792.831, 88, 0, 1024, 1024, 1024, 1024, 0, 6, 3554, 3569, 3584, 3556, 3552, 3583, 0, 1, 8701, -89.900, 0.000, -13.400, 0.000, -0.100, -3.200, 0.0, , , , , , 97, , , 15, 15, 15
37.2566205, -119.3807592, 8.800, 12:29:52.930, 11, 0.00, 0.73, 96, 2.300, 2.100, -12.400, 391, 100, 100, 15, 21391, -26380, 4901, 5159, 15, 14, 1529263792.931, 93, 0, 1029, 1024, 1024, 1024, 0, 6, 3554, 3569, 3584, 3556, 3552, 3583, 0, 1, 8801, -89.900, 0.000, -13.400, 0.000, 0.000, -3.200, 0.0, , , , , , 97, , , 15, 15, 15
37.2566205, -119.3807595, 9.100, 12:29:53.030, 13, 0.00, 0.75, 96, 1.900, 1.900, -12.300, 391, 100, 100, 15, 21391, -26380, 4901, 5159, 15, 14, 1529263793.030, 63, 0, 1024, 1024, 1024, 1024, 0, 6, 3554, 3569, 3584, 3556, 3552, 3583, 0, 1, 8900, -90.000, 0.000, -13.400, 0.000, 0.000, -3.100, 0.0, , , , , , 97, , , 15, 15, 15
37.2566204, -119.3807599, 9.400, 12:29:53.130, 13, 0.00, 0.79, 96, 2.100, 1.900, -12.400, 391, 100, 100, 15, 21391, -26380, 4901, 5159, 15, 14, 1529263793.130, 62, 0, 1024, 1024, 1024, 1024, 0, 6, 3554, 3569, 3584, 3556, 3552, 3583, 0, 1, 9000, -89.900, 0.000, -13.400, 0.000, 0.000, -3.100, 0.0, , , , , , 97, , , 15, 15, 15
37.2566203, -119.3807603, 9.800, 12:29:53.230, 12, 0.00, 0.82, 95, 2.700, 2.100, -12.600, 391, 100, 100, 15, 21391, -26380, 4901, 5159, 15, 14, 1529263793.231, 77, 0, 1024, 1024, 1024, 1024, 0, 6, 3554, 3569, 3584, 3556, 3552, 3583, 0, 1, 9101, -90.000, 0.000, -13.400, 0.000, 0.000, -3.100, 0.0, , , , , , 97, , , 15, 15, 15
37.2566202, -119.3807606, 10.100, 12:29:53.339, 12, 0.00, 0.85, 95, 3.100, 1.400, -13.000, 391, 100, 100, 15, 21391, -26380, 4901, 5159, 15, 14, 1529263793.339, 78, 0, 1024, 1024, 1024, 1024, 0, 6, 3554, 3569, 3584, 3556, 3552, 3583, 0, 1, 9209, -90.000, 0.000, -13.400, 0.000, 0.000, -3.100, 0.0, , , , , , 97, , , 15, 15, 15
37.2566201, -119.3807610, 10.400, 12:29:53.430, 11, 0.00, 0.88, 95, 2.700, 0.500, -13.500, 391, 100, 100, 15, 21391, -26380, 4901, 5159, 15, 14, 1529263793.431, 61, 0, 1024, 1024, 1024, 1024, 0, 6, 3554, 3569, 3584, 3556, 3552, 3583, 0, 1, 9301, -90.000, 0.000, -13.400, 0.000, 0.000, -3.100, 0.0, , , , , , 97, , , 15, 15, 15
37.2566201, -119.3807613, 10.700, 12:29:53.530, 11, 0.00, 0.90, 95, 2.400, 0.300, -13.800, 391, 100, 100, 15, 21391, -26380, 4901, 5159, 15, 14, 1529263793.531, 54, 0, 1024, 1024, 1024, 1024, 0, 6, 3554, 3569, 3584, 3556, 3552, 3583, 0, 1, 9401, -90.000, 0.000, -13.400, 0.000, 0.000, -3.100, 0.0, , , , , , 97, , , 15, 15, 15
37.2566200, -119.3807615, 11.000, 12:29:53.631, 11, 0.00, 0.92, 95, 2.400, 0.600, -13.900, 391, 100, 100, 15, 21391, -26380, 4901, 5159, 15, 14, 1529263793.632, 44, 0, 1024, 1024, 1024, 1024, 0, 6, 3554, 3569, 3584, 3556, 3552, 3583, 0, 1, 9502, -89.900, 0.000, -13.400, 0.000, 0.000, -3.000, 0.0, , , , , , 97, , , 15, 15, 15
37.2566200, -119.3807617, 11.400, 12:29:53.739, 11, 0.00, 0.94, 95, 2.700, 1.000, -13.800, 391, 100, 100, 15, 21684, -22226, 4901, 5159, 15, 14, 1529263793.739, 51, 0, 1024, 1024, 1024, 1024, 0, 6, 3611, 3631, 3633, 3617, 3610, 3625, 0, 1, 9609, -89.900, 0.000, -13.400, 0.000, 0.000, -3.000, 0.0, , , , , , 97, , , 15, 15, 15
37.2566199, -119.3807620, 11.700, 12:29:53.831, 11, 0.00, 0.97, 95, 2.700, 1.000, -13.600, 391, 100, 100, 15, 21684, -22226, 4901, 5159, 15, 14, 1529263793.831, 11, 0, 1024, 1024, 1024, 1024, 0, 6, 3611, 3631, 3633, 3617, 3610, 3625, 0, 1, 9701, -89.900, 0.000, -13.400, 0.000, 0.000, -3.000, 0.0, , , , , , 97, , , 15, 15, 15
37.2566199, -119.3807624, 12.000, 12:29:53.930, 11, 0.00, 1.00, 95, 3.500, 1.200, -13.300, 391, 100, 100, 15, 21684, -22226, 4901, 5159, 15, 14, 1529263793.930, 37, 0, 1024, 1024, 1024, 1024, 0, 6, 3611, 3631, 3633, 3617, 3610, 3625, 0, 1, 9800, -89.900, 0.000, -13.400, 0.000, 0.000, -3.000, 0.0, , , , , , 97, , , 15, 15, 15
37.2566199, -119.3807627, 12.300, 12:29:54.030, 12, 0.00, 1.03, 95, 3.900, 1.400, -12.900, 391, 100, 100, 15, 21684, -22226, 4901, 5159, 15, 14, 1529263794.030, 28, 0, 1024, 1024, 1024, 1024, 0, 6, 3611, 3631, 3633, 3617, 3610, 3625, 0, 1, 9900, -89.900, 0.000, -13.400, 0.000, 0.000, -2.900, 0.0, , , , , , 97, , , 15, 15, 15
37.2566199, -119.3807630, 12.600, 12:29:54.129, 12, 0.00, 1.05, 95, 4.200, 1.600, -12.500, 391, 100, 100, 15, 21684, -22226, 4901, 5159, 15, 14, 1529263794.130, 20, 0, 1024, 1024, 1024, 1024, 0, 6, 3611, 3631, 3633, 3617, 3610, 3625, 0, 1, 10000, -89.900, 0.000, -13.400, 0.000, 0.000, -2.900, 0.0, , , , , , 97, , , 15, 15, 15
37.2566199, -119.3807633, 12.900, 12:29:54.229, 13, 0.00, 1.08, 95, 4.700, 1.800, -12.100, 391, 100, 100, 15, 21684, -22226, 4901, 5159, 15, 14, 1529263794.230, 10, 0, 1024, 1024, 1024, 1024, 0, 6, 3611, 3631, 3633, 3617, 3610, 3625, 0, 1, 10100, -89.900, 0.000, -13.400, 0.000, 0.000, -2.800, 0.0, , , , , , 97, , , 15, 15, 15
37.2566198, -119.3807636, 13.200, 12:29:54.329, 13, 0.00, 1.10, 95, 4.600, 1.700, -12.000, 391, 100, 100, 15, 21684, -22226, 4901, 5159, 15, 14, 1529263794.330, 12, 0, 1024, 1024, 1024, 1024, 0, 6, 3611, 3631, 3633, 3617, 3610, 3625, 0, 1, 10200, -89.900, 0.000, -13.400, 0.000, 0.000, -2.800, 0.0, , , , , , 97, , , 15, 15, 15
37.2566197, -119.3807638, 13.500, 12:29:54.429, 13, 0.00, 1.12, 95, 4.500, 1.600, -12.100, 391, 100, 100, 15, 21684, -22226, 4901, 5159, 15, 14, 1529263794.430, 14, 0, 1024, 1024, 1024, 1024, 0, 6, 3611, 3631, 3633, 3617, 3610, 3625, 0, 1, 10300, -90.000, 0.000, -13.400, 0.000, 0.000, -2.800, 0.0, , , , , , 97, , , 15, 15, 15
37.2566198, -119.3807639, 13.800, 12:29:54.529, 13, 0.00, 1.13, 95, 4.200, 1.400, -12.300, 391, 100, 100, 15, 21684, -22226, 4901, 5159, 15, 14, 1529263794.530, 7, 0, 1024, 1024, 1024, 1024, 0, 6, 3611, 3631, 3633, 3617, 3610, 3625, 0, 1, 10400, -90.000, 0.000, -13.400, 0.000, 0.000, -2.800, 0.0, , , , , , 97, , , 15, 15, 15
37.2566198, -119.3807639, 14.100, 12:29:54.629, 13, 0.10, 1.14, 95, 3.400, 1.200, -12.600, 391, 100, 100, 15, 21684, -22226, 4901, 5159, 15, 14, 1529263794.630, 20, 0, 1024, 1024, 1024, 1024, 0, 6, 3611, 3631, 3633, 3617, 3610, 3625, 0, 1, 10500, -90.000, 0.000, -13.400, 0.000, 0.100, -2.800, 0.0, , , , , , 97, , , 15, 15, 15
37.2566197, -119.3807639, 14.400, 12:29:54.729, 13, 0.10, 1.13, 95, 2.700, 1.200, -12.800, 391, 100, 100, 15, 21845, -20380, 4901, 5159, 15, 14, 1529263794.730, 10, 0, 1024, 1024, 1024, 1024, 0, 6, 3639, 3653, 3661, 3642, 3632, 3658, 0, 1, 10600, -90.000, 0.000, -13.400, 0.000, 0.100, -2.800, 0.0, , , , , , 97, , , 15, 15, 15
37.2566197, -119.3807639, 14.600, 12:29:54.829, 13, 0.10, 1.13, 95, 2.300, 1.400, -12.900, 391, 100, 100, 15, 21845, -20380, 4901, 5159, 15, 14, 1529263794.830, 13, 0, 1024, 1024, 1024, 1024, 0, 6, 3639, 3653, 3661, 3642, 3632, 3658, 0, 1, 10700, -90.000, 0.000, -13.400, 0.000, 0.100, -2.800, 0.0, , , , , , 97, , , 15, 15, 15
37.2566196, -119.3807639, 14.900, 12:29:54.929, 13, 0.20, 1.13, 95, 1.900, 1.300, -13.000, 391, 100, 100, 15, 21845, -20380, 4901, 5159, 15, 14, 1529263794.930, 9, 0, 1024, 1024, 1024, 1024, 0, 6, 3639, 3653, 3661, 3642, 3632, 3658, 0, 1, 10800, -90.000, 0.000, -13.400, 0.000, 0.200, -2.800, 0.1, , , , , , 97, , , 15, 15, 15
37.2566196, -119.3807639, 14.900, 12:29:55.029, 13, 0.20, 1.13, 95, 1.900, 1.300, -13.000, 391, 100, 100, 15, 21845, -20380, 4901, 5159, 15, 14, 1529263795.030, 109, 0, 1024, 1024, 1024, 1024, 0, 6, 3639, 3653, 3661, 3642, 3632, 3658, 0, 1, 10900, -90.000, 0.000, -13.400, 0.000, 0.200, -2.800, 0.1, , , , , , 97, , , 15, 15, 15
37.2566196, -119.3807638, 15.200, 12:29:55.129, 12, 0.20, 1.12, 95, 1.900, 1.200, -13.100, 391, 100, 100, 15, 21845, -20380, 4901, 5159, 15, 14, 1529263795.130, 74, 0, 1024, 1024, 1024, 1024, 0, 6, 3639, 3653, 3661, 3642, 3632, 3658, 0, 1, 11000, -90.000, 0.000, -13.400, 0.000, 0.200, -2.800, 0.1, , , , , , 97, , , 15, 15, 15
37.2566196, -119.3807636, 15.500, 12:29:55.229, 12, 0.20, 1.10, 95, 1.600, 0.800, -13.100, 391, 100, 100, 15, 21845, -20380, 4901, 5159, 15, 14, 1529263795.230, 90, 0, 1024, 1024, 1024, 1024, 0, 6, 3639, 3653, 3661, 3642, 3632, 3658, 0, 1, 11100, -90.000, 0.000, -13.400, 0.000, 0.200, -2.900, 0.1, , , , , , 97, , , 15, 15, 15
37.2566196, -119.3807634, 15.800, 12:29:55.329, 13, 0.20, 1.09, 95, 1.400, 0.800, -13.000, 391, 100, 100, 15, 21845, -20380, 4901, 5159, 15, 14, 1529263795.330, 94, 0, 1024, 1024, 1024, 1024, 0, 6, 3639, 3653, 3661, 3642, 3632, 3658, 0, 1, 11200, -89.900, 0.000, -13.400, 0.000, 0.200, -2.900, 0.1, , , , , , 97, , , 15, 15, 15
37.2566196, -119.3807632, 16.300, 12:29:55.430, 14, 0.20, 1.07, 95, 1.100, 1.200, -12.800, 391, 100, 100, 15, 21845, -20380, 4901, 5159, 15, 14, 1529263795.430, 82, 0, 1024, 1024, 1024, 1024, 0, 6, 3639, 3653, 3661, 3642, 3632, 3658, 0, 1, 11300, -89.900, 0.000, -13.400, 0.000, 0.200, -2.900, 0.1, , , , , , 97, , , 15, 15, 15
37.2566197, -119.3807630, 16.600, 12:29:55.529, 14, 0.20, 1.05, 95, 0.600, 1.500, -12.700, 391, 100, 100, 15, 21845, -20380, 4901, 5159, 15, 14, 1529263795.530, 74, 0, 1024, 1024, 1024, 1024, 0, 6, 3639, 3653, 3661, 3642, 3632, 3658, 0, 1, 11400, -89.900, 0.000, -13.400, 0.000, 0.200, -2.900, 0.1, , , , , , 97, , , 15, 15, 15
37.2566197, -119.3807628, 16.900, 12:29:55.629, 13, 0.20, 1.03, 95, 0.100, 1.600, -12.700, 391, 100, 100, 15, 21845, -20380, 4901, 5159, 15, 14, 1529263795.630, 81, 0, 1024, 1024, 1024, 1024, 0, 6, 3639, 3653, 3661, 3642, 3632, 3658, 0, 1, 11500, -89.900, 0.000, -13.400, 0.000, 0.200, -2.900, 0.1, , , , , , 97, , , 15, 15, 15
37.2566197, -119.3807625, 17.200, 12:29:55.729, 13, 0.20, 1.01, 95, -0.400, 1.400, -12.600, 391, 100, 100, 15, 21845, -20380, 4901, 5159, 15, 14, 1529263795.730, 71, 0, 1024, 1024, 1024, 1024, 0, 6, 3639, 3653, 3661, 3642, 3632, 3658, 0, 1, 11600, -90.000, 0.000, -13.400, 0.000, 0.200, -2.900, 0.1, , , , , , 97, , , 15, 15, 15
37.2566197, -119.3807623, 17.500, 12:29:55.829, 14, 0.20, 0.99, 95, -1.000, 0.600, -12.400, 391, 100, 100, 15, 21844, -19952, 4901, 5159, 15, 14, 1529263795.830, 36, 0, 1024, 1024, 1024, 1024, 0, 6, 3623, 3633, 3651, 3631, 3609, 3644, 0, 1, 11700, -90.000, 0.000, -13.400, 0.000, 0.200, -2.900, 0.1, , , , , , 97, , , 15, 15, 15
37.2566196, -119.3807622, 17.800, 12:29:55.930, 14, 0.20, 0.98, 95, -1.100, 0.300, -12.200, 391, 100, 100, 15, 21844, -19952, 4901, 5159, 15, 14, 1529263795.930, 87, 0, 1024, 1024, 1024, 1024, 0, 6, 3623, 3633, 3651, 3631, 3609, 3644, 0, 1, 11800, -90.000, 0.000, -13.400, 0.000, 0.200, -3.000, 0.1, , , , , , 97, , , 15, 15, 15
37.2566195, -119.3807621, 18.100, 12:29:56.029, 13, 0.20, 0.97, 95, -0.700, 0.300, -12.000, 391, 100, 100, 15, 21844, -19952, 4901, 5159, 15, 14, 1529263796.030, 66, 0, 1024, 1024, 1024, 1024, 0, 6, 3623, 3633, 3651, 3631, 3609, 3644, 0, 1, 11900, -90.000, 0.000, -13.400, 0.000, 0.200, -3.000, 0.1, , , , , , 97, , , 15, 15, 15
37.2566195, -119.3807619, 18.400, 12:29:56.130, 13, 0.20, 0.96, 95, -0.200, 0.200, -12.100, 391, 100, 100, 15, 21844, -19952, 4901, 5159, 15, 14, 1529263796.130, 62, 0, 1024, 1024, 1024, 1024, 0, 6, 3623, 3633, 3651, 3631, 3609, 3644, 0, 1, 12000, -90.000, 0.000, -13.400, 0.000, 0.200, -3.000, 0.1, , , , , , 97, , , 15, 15, 15
37.2566195, -119.3807618, 18.700, 12:29:56.229, 12, 0.20, 0.94, 95, 0.200, 0.300, -12.200, 391, 100, 100, 15, 21844, -19952, 4901, 5159, 15, 14, 1529263796.230, 53, 0, 1024, 1024, 1024, 1024, 0, 6, 3623, 3633, 3651, 3631, 3609, 3644, 0, 1, 12100, -89.900, 0.000, -13.400, 0.000, 0.200, -3.000, 0.1, , , , , , 97, , , 15, 15, 15
37.2566195, -119.3807615, 19.000, 12:29:56.329, 12, 0.20, 0.92, 95, 0.100, 0.600, -12.400, 391, 100, 100, 15, 21844, -19952, 4901, 5159, 15, 14, 1529263796.330, 57, 0, 1024, 1024, 1024, 1024, 0, 6, 3623, 3633, 3651, 3631, 3609, 3644, 0, 1, 12200, -90.000, 0.000, -13.400, 0.000, 0.200, -2.900, 0.1, , , , , , 97, , , 15, 15, 15
37.2566195, -119.3807614, 19.300, 12:29:56.429, 15, 0.20, 0.91, 95, -0.200, 0.800, -12.400, 391, 100, 100, 15, 21844, -19952, 4901, 5159, 15, 14, 1529263796.430, 62, 0, 1024, 1024, 1024, 1024, 0, 6, 3623, 3633, 3651, 3631, 3609, 3644, 0, 1, 12300, -89.900, 0.000, -13.400, 0.000, 0.200, -3.000, 0.1, , , , , , 97, , , 15, 15, 15
37.2566195, -119.3807613, 19.600, 12:29:56.529, 15, 0.10, 0.90, 95, -0.300, 1.000, -12.400, 391, 100, 100, 15, 21844, -19952, 4901, 5159, 15, 14, 1529263796.530, 37, 0, 1024, 1024, 1024, 1024, 0, 6, 3623, 3633, 3651, 3631, 3609, 3644, 0, 1, 12400, -89.900, 0.000, -13.400, 0.000, 0.100, -3.000, 0.0, , , , , , 97, , , 15, 15, 15
37.2566195, -119.3807612, 19.900, 12:29:56.629, 13, 0.10, 0.89, 95, -0.300, 1.000, -12.500, 391, 100, 100, 15, 21844, -19952, 4901, 5159, 15, 14, 1529263796.630, 52, 0, 1024, 1024, 1024, 1024, 0, 6, 3623, 3633, 3651, 3631, 3609, 3644, 0, 1, 12500, -89.900, 0.000, -13.400, 0.000, 0.100, -3.000, 0.0, , , , , , 97, , , 15, 15, 15
37.2566195, -119.3807610, 20.300, 12:29:56.729, 13, 0.10, 0.87, 95, -0.400, 1.000, -12.700, 391, 100, 100, 16, 21678, -21377, 4901, 5159, 15, 14, 1529263796.730, 52, 0, 1024, 1024, 1024, 1024, 0, 6, 3596, 3610, 3627, 3611, 3582, 3621, 0, 1, 12600, -89.900, 0.000, -13.400, 0.000, 0.100, -3.000, 0.0, , , , , , 97, , , 15, 15, 15
37.2566195, -119.3807608, 20.600, 12:29:56.829, 13, 0.10, 0.86, 95, -0.800, 0.700, -12.800, 391, 100, 100, 16, 21678, -21377, 4901, 5159, 15, 14, 1529263796.830, 31, 0, 1024, 1024, 1024, 1024, 0, 6, 3596, 3610, 3627, 3611, 3582, 3621, 0, 1, 12700, -90.000, 0.000, -13.400, 0.000, 0.100, -3.000, 0.0, , , , , , 97, , , 15, 15, 15
37.2566195, -119.3807607, 20.900, 12:29:56.929, 13, 0.10, 0.85, 95, -0.500, 0.600, -13.000, 391, 100, 100, 16, 21678, -21377, 4901, 5159, 15, 14, 1529263796.930, 30, 0, 1024, 1024, 1024, 1024, 0, 6, 3596, 3610, 3627, 3611, 3582, 3621, 0, 1, 12800, -90.000, 0.000, -13.400, 0.000, 0.100, -3.000, 0.0, , , , , , 97, , , 15, 15, 15
37.2566195, -119.3807606, 21.200, 12:29:57.029, 14, 0.10, 0.84, 95, -0.200, 0.700, -13.200, 391, 100, 100, 16, 21678, -21377, 4901, 5159, 15, 14, 1529263797.030, 22, 0, 1024, 1024, 1024, 1024, 0, 6, 3596, 3610, 3627, 3611, 3582, 3621, 0, 1, 12900, -89.900, 0.000, -13.400, 0.000, 0.100, -3.000, 0.0, , , , , , 97, , , 15, 15, 15
37.2566195, -119.3807606, 21.200, 12:29:57.129, 14, 0.10, 0.84, 95, -0.200, 0.700, -13.200, 391, 100, 100, 16, 21678, -21377, 4901, 5159, 15, 14, 1529263797.130, 122, 0, 1024, 1024, 1024, 1024, 0, 6, 3596, 3610, 3627, 3611, 3582, 3621, 0, 1, 13000, -89.900, 0.000, -13.400, 0.000, 0.100, -3.000, 0.0, , , , , , 97, , , 15, 15, 15
37.2566195, -119.3807604, 21.500, 12:29:57.229, 14, 0.10, 0.82, 95, -0.200, 0.600, -13.300, 391, 100, 100, 16, 21678, -21377, 4901, 5159, 15, 14, 1529263797.230, 92, 0, 1024, 1024, 1024, 1024, 0, 6, 3596, 3610, 3627, 3611, 3582, 3621, 0, 1, 13100, -90.000, 0.000, -13.400, 0.000, 0.100, -3.000, 0.0, , , , , , 97, , , 15, 15, 15
37.2566195, -119.3807601, 22.100, 12:29:57.330, 15, 0.10, 0.80, 95, -0.600, 0.300, -13.200, 391, 100, 98, 16, 21678, -21377, 4901, 5159, 15, 14, 1529263797.330, 1, 0, 1024, 1024, 1024, 1024, 0, 6, 3596, 3610, 3627, 3611, 3582, 3621, 0, 1, 13200, -90.000, 0.000, -13.400, 0.000, 0.100, -3.000, 0.0, , , , , , 97, , , 15, 15, 15
37.2566195, -119.3807601, 22.100, 12:29:57.429, 15, 0.10, 0.80, 95, -0.600, 0.300, -13.200, 391, 100, 98, 16, 21678, -21377, 4901, 5159, 15, 14, 1529263797.430, 100, 0, 1024, 1024, 1024, 1024, 0, 6, 3596, 3610, 3627, 3611, 3582, 3621, 0, 1, 13300, -90.000, 0.000, -13.400, 0.000, 0.100, -3.000, 0.0, , , , , , 97, , , 15, 15, 15
37.2566195, -119.3807599, 22.700, 12:29:57.529, 15, 0.10, 0.78, 95, -0.700, 0.100, -12.900, 391, 100, 98, 16, 21678, -21377, 4901, 5159, 15, 14, 1529263797.530, 78, 0, 1024, 1024, 1024, 1024, 0, 6, 3596, 3610, 3627, 3611, 3582, 3621, 0, 1, 13400, -90.000, 0.000, -13.400, 0.000, 0.100, -3.000, 0.0, , , , , , 97, , , 15, 15, 15
37.2566194, -119.3807599, 23.100, 12:29:57.629, 13, 0.10, 0.77, 95, -0.500, 0.300, -12.800, 391, 100, 98, 16, 21678, -21377, 4901, 5159, 15, 14, 1529263797.630, 95, 0, 1024, 1024, 1024, 1024, 0, 6, 3596, 3610, 3627, 3611, 3582, 3621, 0, 1, 13500, -90.000, 0.000, -13.400, 0.000, 0.100, -3.000, 0.0, , , , , , 97, , , 15, 15, 15
37.2566194, -119.3807598, 23.400, 12:29:57.729, 13, 0.00, 0.77, 95, -0.500, 0.400, -12.700, 391, 100, 98, 16, 21678, -21377, 4901, 5159, 15, 14, 1529263797.730, 78, 0, 1024, 1024, 1024, 1024, 0, 6, 3596, 3610, 3627, 3611, 3582, 3621, 0, 1, 13600, -90.000, 0.000, -13.400, 0.000, 0.000, -3.000, 0.0, , , , , , 97, , , 15, 15, 15
37.2566195, -119.3807597, 23.700, 12:29:57.830, 15, 0.00, 0.76, 95, -0.400, 0.600, -12.700, 391, 100, 98, 16, 21658, -20782, 4901, 5159, 15, 14, 1529263797.830, 79, 0, 1024, 1024, 1024, 1024, 0, 6, 3596, 3610, 3627, 3611, 3582, 3621, 0, 1, 13700, -89.900, 0.000, -13.400, 0.000, 0.000, -3.000, 0.0, , , , , , 97, , , 15, 15, 15
37.2566195, -119.3807597, 24.000, 12:29:57.929, 15, 0.00, 0.76, 95, -0.300, 0.800, -12.800, 391, 100, 98, 16, 21658, -20782, 4901, 5159, 15, 14, 1529263797.930, 72, 0, 1024, 1024, 1024, 1024, 0, 6, 3596, 3610, 3627, 3611, 3582, 3621, 0, 1, 13800, -89.900, 0.000, -13.400, 0.000, 0.000, -2.900, 0.0, , , , , , 97, , , 15, 15, 15
37.2566195, -119.3807596, 24.300, 12:29:58.029, 14, 0.00, 0.75, 95, -0.200, 0.900, -12.900, 391, 100, 98, 16, 21658, -20782, 4901, 5159, 15, 14, 1529263798.030, 58, 0, 1024, 1024, 1024, 1024, 0, 6, 3596, 3610, 3627, 3611, 3582, 3621, 0, 1, 13900, -89.900, 0.000, -13.400, 0.000, 0.000, -2.800, 0.0, , , , , , 97, , , 15, 15, 15
37.2566196, -119.3807596, 24.600, 12:29:58.129, 14, 0.00, 0.75, 95, -0.200, 1.000, -12.900, 391, 100, 98, 16, 21658, -20782, 4901, 5159, 15, 14, 1529263798.130, 51, 0, 1024, 1024, 1024, 1024, 0, 6, 3596, 3610, 3627, 3611, 3582, 3621, 0, 1, 14000, -89.900, 0.000, -13.400, 0.000, 0.000, -2.800, 0.0, , , , , , 97, , , 15, 15, 15
37.2566196, -119.3807596, 24.800, 12:29:58.229, 15, 0.00, 0.75, 95, -0.200, 1.300, -13.000, 391, 100, 98, 16, 21658, -20782, 4901, 5159, 15, 14, 1529263798.230, 56, 0, 1024, 1024, 1024, 1024, 0, 6, 3600, 3619, 3630, 3610, 3595, 3630, 0, 1, 14100, -89.900, 0.000, -13.400, 0.000, 0.000, -2.800, 0.0, , , , , , 97, , , 15, 15, 15
37.2566197, -119.3807594, 25.100, 12:29:58.329, 15, 0.00, 0.74, 95, -0.100, 1.600, -13.000, 391, 100, 97, 16, 21658, -20782, 4901, 5159, 15, 14, 1529263798.330, 56, 0, 1024, 1024, 1024, 1024, 0, 6, 3600, 3619, 3630, 3610, 3595, 3630, 0, 1, 14200, -89.900, 0.000, -13.400, 0.000, 0.000, -2.800, 0.0, , , , , , 97, , , 15, 15, 15
37.2566197, -119.3807594, 25.400, 12:29:58.429, 14, 0.00, 0.73, 95, -0.500, 1.300, -13.000, 391, 100, 97, 16, 21658, -20782, 4901, 5159, 15, 14, 1529263798.430, 48, 0, 1024, 1024, 1024, 1024, 0, 6, 3600, 3619, 3630, 3610, 3595, 3630, 0, 1, 14300, -90.000, 0.000, -13.400, 0.000, 0.000, -2.800, 0.0, , , , , , 97, , , 15, 15, 15
37.2566197, -119.3807594, 25.400, 12:29:58.529, 14, 0.00, 0.73, 95, -0.500, 1.300, -13.000, 391, 100, 97, 16, 21658, -20782, 4901, 5159, 15, 14, 1529263798.530, 148, 0, 1024, 1024, 1024, 1024, 0, 6, 3600, 3619, 3630, 3610, 3595, 3630, 0, 1, 14400, -90.000, 0.000, -13.400, 0.000, 0.000, -2.800, 0.0, , , , , , 97, , , 15, 15, 15
37.2566198, -119.3807594, 26.000, 12:29:58.629, 15, 0.00, 0.73, 95, -0.300, 0.000, -12.800, 391, 100, 97, 16, 21658, -20782, 4901, 5159, 15, 14, 1529263798.630, 15, 0, 1024, 1024, 1024, 1024, 0, 6, 3600, 3619, 3630, 3610, 3595, 3630, 0, 1, 14500, -90.000, 0.000, -13.400, 0.000, 0.000, -2.800, 0.0, , , , , , 97, , , 15, 15, 15
37.2566198, -119.3807594, 26.300, 12:29:58.729, 15, 0.00, 0.73, 95, 0.100, 0.700, -12.700, 391, 100, 97, 16, 21658, -20782, 4901, 5159, 15, 14, 1529263798.730, 25, 0, 1024, 1024, 1024, 1024, 0, 6, 3600, 3619, 3630, 3610, 3595, 3630, 0, 1, 14600, -89.900, 0.000, -13.400, 0.000, 0.000, -2.900, 0.0, , , , , , 97, , , 15, 15, 15
37.2566199, -119.3807594, 26.600, 12:29:58.829, 14, 0.10, 0.73, 95, -0.200, 1.300, -12.600, 391, 100, 97, 16, 21658, -20782, 4901, 5159, 15, 14, 1529263798.830, 28, 0, 1024, 1024, 1024, 1024, 0, 6, 3600, 3619, 3630, 3610, 3595, 3630, 0, 1, 14700, -89.900, 0.000, -13.400, 0.100, 0.000, -2.900, 0.1, , , , , , 97, , , 15, 15, 15
37.2566200, -119.3807594, 26.900, 12:29:58.929, 14, 0.10, 0.73, 95, 0.000, 2.200, -12.500, 391, 100, 97, 16, 21658, -20782, 4901, 5159, 15, 14, 1529263798.930, 19, 0, 1024, 1024, 1024, 1024, 0, 6, 3600, 3619, 3630, 3610, 3595, 3630, 0, 1, 14800, -89.900, 0.000, -13.400, 0.100, 0.000, -2.900, 0.1, , , , , , 97, , , 15, 15, 15
37.2566201, -119.3807593, 27.200, 12:29:59.029, 13, 0.10, 0.73, 95, 0.000, 2.800, -12.500, 391, 100, 97, 16, 21658, -20782, 4901, 5159, 15, 14, 1529263799.030, 25, 0, 1024, 1024, 1024, 1024, 0, 6, 3600, 3619, 3630, 3610, 3595, 3630, 0, 1, 14900, -89.900, 0.000, -13.400, 0.100, 0.000, -2.800, 0.1, , , , , , 97, , , 15, 15, 15
37.2566201, -119.3807593, 27.500, 12:29:59.133, 13, 0.00, 0.73, 95, 0.000, 3.000, -12.500, 391, 100, 97, 16, 21658, -20782, 4901, 5159, 15, 14, 1529263799.134, 3, 0, 1024, 1024, 1024, 1024, 0, 6, 3600, 3619, 3630, 3610, 3595, 3630, 0, 1, 15004, -89.900, 0.000, -13.400, 0.000, 0.000, -2.900, 0.0, , , , , , 97, , , 15, 15, 15
37.2566202, -119.3807593, 27.700, 12:29:59.233, 14, 0.00, 0.73, 95, -0.200, 2.900, -12.600, 391, 100, 97, 16, 21658, -20782, 4901, 5159, 15, 14, 1529263799.233, 3, 0, 1024, 1024, 1024, 1024, 0, 6, 3600, 3619, 3630, 3610, 3595, 3630, 0, 1, 15103, -89.900, 0.000, -13.400, 0.000, 0.000, -2.800, 0.0, , , , , , 97, , , 15, 15, 15
37.2566202, -119.3807592, 28.000, 12:29:59.329, 14, 0.00, 0.72, 95, -0.800, 2.800, -12.700, 391, 100, 97, 16, 21761, -19571, 4901, 5159, 15, 14, 1529263799.330, 15, 0, 1024, 1024, 1024, 1024, 0, 6, 3621, 3626, 3641, 3621, 3609, 3636, 0, 1, 15200, -90.000, 0.000, -13.400, 0.000, 0.000, -2.800, 0.0, , , , , , 97, , , 15, 15, 15
37.2566202, -119.3807592, 28.000, 12:29:59.429, 14, 0.00, 0.72, 95, -0.800, 2.800, -12.700, 391, 100, 97, 16, 21761, -19571, 4901, 5159, 15, 14, 1529263799.430, 115, 0, 1024, 1024, 1024, 1024, 0, 6, 3621, 3626, 3641, 3621, 3609, 3636, 0, 1, 15300, -90.000, 0.000, -13.400, 0.000, 0.000, -2.800, 0.0, , , , , , 97, , , 15, 15, 15
37.2566203, -119.3807591, 28.900, 12:29:59.536, 15, 0.10, 0.71, 95, -1.400, 1.400, -13.000, 391, 100, 97, 16, 21761, -19571, 4901, 5159, 15, 14, 1529263799.536, 2, 0, 1024, 1024, 1024, 1024, 0, 6, 3621, 3626, 3641, 3621, 3609, 3636, 0, 1, 15406, -90.000, 0.000, -13.400, 0.000, 0.100, -2.800, 0.1, , , , , , 97, , , 15, 15, 15
37.2566203, -119.3807591, 28.900, 12:29:59.630, 15, 0.10, 0.71, 95, -1.400, 1.400, -13.000, 391, 100, 97, 16, 21761, -19571, 4901, 5159, 15, 14, 1529263799.630, 95, 0, 1024, 1024, 1024, 1024, 0, 6, 3621, 3626, 3641, 3621, 3609, 3636, 0, 1, 15500, -90.000, 0.000, -13.400, 0.000, 0.100, -2.800, 0.1, , , , , , 97, , , 15, 15, 15
37.2566203, -119.3807590, 29.200, 12:29:59.729, 15, 0.10, 0.71, 95, -2.000, 1.600, -13.100, 391, 100, 97, 16, 21761, -19571, 4901, 5159, 15, 14, 1529263799.730, 97, 0, 1024, 1024, 1024, 1024, 0, 6, 3621, 3626, 3641, 3621, 3609, 3636, 0, 1, 15600, -90.000, 0.000, -13.400, 0.000, 0.100, -2.800, 0.1, , , , , , 97, , , 15, 15, 15
37.2566203, -119.3807590, 29.200, 12:29:59.829, 15, 0.10, 0.71, 95, -2.000, 1.600, -13.100, 391, 100, 94, 16, 21761, -19571, 4901, 5159, 15, 14, 1529263799.830, 197, 0, 1024, 1024, 1024, 1024, 0, 6, 3621, 3626, 3641, 3621, 3609, 3636, 0, 1, 15700, -90.000, 0.000, -13.400, 0.000, 0.100, -2.800, 0.1, , , , , , 97, , , 15, 15, 15
37.2566203, -119.3807589, 29.800, 12:29:59.929, 14, 0.10, 0.70, 95, -2.400, 1.500, -13.200, 391, 100, 94, 16, 21761, -19571, 4901, 5159, 15, 14, 1529263799.930, 67, 0, 1024, 1024, 1024, 1024, 0, 6, 3621, 3626, 3641, 3621, 3609, 3636, 0, 1, 15800, -89.900, 0.000, -13.400, 0.000, 0.100, -2.900, 0.1, , , , , , 97, , , 15, 15, 15
37.2566203, -119.3807589, 30.100, 12:30:00.029, 14, 0.10, 0.69, 95, -2.300, 1.700, -13.100, 391, 100, 94, 16, 21761, -19571, 4901, 5159, 15, 14, 1529263800.030, 72, 0, 1024, 1024, 1024, 1024, 0, 6, 3621, 3626, 3641, 3621, 3609, 3636, 0, 1, 15900, -90.000, 0.000, -13.400, 0.000, 0.100, -2.900, 0.1, , , , , , 97, , , 15, 15, 15
37.2566203, -119.3807588, 30.400, 12:30:00.129, 14, 0.00, 0.69, 95, -2.100, 1.800, -13.000, 391, 100, 94, 16, 21761, -19571, 4901, 5159, 15, 14, 1529263800.130, 62, 0, 1024, 1024, 1024, 1024, 0, 6, 3621, 3626, 3641, 3621, 3609, 3636, 0, 1, 16000, -89.900, 0.000, -13.400, 0.000, 0.000, -2.800, 0.0, , , , , , 97, , , 15, 15, 15
37.2566202, -119.3807588, 30.700, 12:30:00.229, 15, 0.00, 0.69, 95, -1.900, 1.700, -13.000, 391, 100, 94, 16, 21549, -21980, 4901, 5159, 15, 14, 1529263800.230, 54, 0, 1024, 1024, 1024, 1024, 0, 6, 3587, 3600, 3611, 3568, 3566, 3588, 0, 1, 16100, -90.000, 0.000, -13.400, 0.000, 0.000, -2.800, 0.0, , , , , , 97, , , 15, 15, 15
37.2566203, -119.3807588, 31.000, 12:30:00.329, 15, 0.00, 0.68, 95, -1.800, 1.500, -13.100, 391, 100, 95, 16, 21549, -21980, 4901, 5159, 15, 14, 1529263800.330, 47, 0, 1024, 1024, 1024, 1024, 0, 6, 3587, 3600, 3611, 3568, 3566, 3588, 0, 1, 16200, -90.000, 0.000, -13.400, 0.000, 0.000, -2.900, 0.0, , , , , , 97, , , 15, 15, 15
37.2566203, -119.3807587, 31.300, 12:30:00.429, 15, 0.00, 0.68, 95, -2.000, 1.400, -13.100, 391, 100, 95, 16, 21549, -21980, 4901, 5159, 15, 14, 1529263800.430, 61, 0, 1024, 1024, 1024, 1024, 0, 6, 3587, 3600, 3611, 3568, 3566, 3588, 0, 1, 16300, -90.000, 0.000, -13.400, 0.000, 0.000, -2.900, 0.0, , , , , , 97, , , 15, 15, 15
37.2566203, -119.3807587, 31.600, 12:30:00.529, 15, 0.00, 0.68, 95, -2.000, 1.500, -13.000, 391, 100, 95, 16, 21549, -21980, 4901, 5159, 15, 14, 1529263800.530, 48, 0, 1024, 1024, 1024, 1024, 0, 6, 3587, 3600, 3611, 3568, 3566, 3588, 0, 1, 16400, -89.900, 0.000, -13.400, 0.000, 0.000, -3.000, 0.0, , , , , , 97, , , 15, 15, 15
37.2566203, -119.3807587, 31.900, 12:30:00.629, 14, 0.00, 0.68, 95, -2.000, 1.600, -13.100, 391, 100, 95, 16, 21549, -21980, 4901, 5159, 15, 14, 1529263800.630, 39, 0, 1024, 1024, 1024, 1024, 0, 6, 3587, 3600, 3611, 3568, 3566, 3588, 0, 1, 16500, -90.000, 0.000, -13.400, 0.000, 0.000, -3.000, 0.0, , , , , , 97, , , 15, 15, 15
37.2566203, -119.3807587, 32.200, 12:30:00.729, 14, 0.00, 0.68, 95, -1.700, 1.700, -13.000, 391, 100, 95, 16, 21549, -21980, 4901, 5159, 15, 14, 1529263800.730, 26, 0, 1024, 1024, 1024, 1024, 0, 6, 3587, 3600, 3611, 3568, 3566, 3588, 0, 1, 16600, -89.900, 0.000, -13.400, 0.000, 0.000, -3.000, 0.0, , , , , , 97, , , 15, 15, 15
37.2566203, -119.3807587, 32.500, 12:30:00.829, 14, 0.00, 0.68, 95, -1.200, 1.700, -12.900, 391, 100, 95, 16, 21549, -21980, 4901, 5159, 15, 14, 1529263800.830, 17, 0, 1024, 1024, 1024, 1024, 0, 6, 3587, 3600, 3611, 3568, 3566, 3588, 0, 1, 16700, -89.900, 0.000, -13.400, 0.000, 0.000, -3.000, 0.0, , , , , , 97, , , 15, 15, 15
37.2566203, -119.3807588, 32.800, 12:30:00.929, 14, 0.00, 0.68, 95, -0.700, 1.500, -12.700, 391, 100, 95, 16, 21549, -21980, 4901, 5159, 15, 14, 1529263800.930, 23, 0, 1024, 1024, 1024, 1024, 0, 6, 3587, 3600, 3611, 3568, 3566, 3588, 0, 1, 16800, -90.000, 0.000, -13.400, 0.000, 0.000, -3.000, 0.0, , , , , , 97, , , 15, 15, 15
37.2566202, -119.3807588, 33.100, 12:30:01.029, 15, 0.00, 0.68, 95, -1.000, 1.400, -12.300, 391, 100, 95, 16, 21549, -21980, 4901, 5159, 15, 14, 1529263801.030, 27, 0, 1024, 1024, 1024, 1024, 0, 6, 3587, 3600, 3611, 3568, 3566, 3588, 0, 1, 16900, -90.000, 0.000, -13.400, 0.000, 0.000, -2.900, 0.0, , , , , , 97, , , 15, 15, 15
37.2566202, -119.3807587, 33.400, 12:30:01.129, 15, 0.00, 0.68, 95, -1.500, 0.900, -12.000, 391, 100, 95, 16, 21549, -21980, 4901, 5159, 15, 14, 1529263801.130, 28, 0, 1024, 1024, 1024, 1024, 0, 6, 3587, 3600, 3611, 3568, 3566, 3588, 0, 1, 17000, -90.000, 0.000, -13.400, 0.000, 0.000, -3.000, 0.0, , , , , , 97, , , 15, 15, 15
37.2566201, -119.3807587, 33.700, 12:30:01.229, 15, 0.00, 0.68, 95, -1.800, 0.500, -11.800, 391, 100, 100, 16, 21277, -24039, 4849, 5159, 15, 14, 1529263801.230, 5, 0, 1024, 1024, 1024, 1024, 0, 6, 3535, 3555, 3571, 3533, 3529, 3547, 0, 1, 17100, -90.000, 0.000, -13.400, 0.000, 0.000, -3.000, 0.0, , , , , , 97, , , 15, 15, 15
37.2566201, -119.3807587, 33.700, 12:30:01.329, 15, 0.00, 0.68, 95, -1.800, 0.500, -11.800, 391, 100, 100, 16, 21277, -24039, 4849, 5159, 15, 14, 1529263801.330, 105, 0, 1024, 1024, 1024, 1024, 0, 6, 3535, 3555, 3571, 3533, 3529, 3547, 0, 1, 17200, -90.000, 0.000, -13.400, 0.000, 0.000, -3.000, 0.0, , , , , , 97, , , 15, 15, 15
37.2566201, -119.3807588, 34.300, 12:30:01.429, 15, 0.00, 0.69, 95, -1.300, 0.600, -12.100, 391, 100, 100, 16, 21277, -24039, 4849, 5159, 15, 14, 1529263801.430, 12, 0, 1024, 1024, 1024, 1024, 0, 6, 3535, 3555, 3571, 3533, 3529, 3547, 0, 1, 17300, -90.000, 0.000, -13.400, 0.000, 0.000, -3.000, 0.0, , , , , , 97, , , 15, 15, 15
37.2566201, -119.3807589, 34.600, 12:30:01.532, 15, 0.00, 0.69, 95, -1.100, 1.000, -12.300, 391, 100, 100, 16, 21277, -24039, 4849, 5159, 15, 14, 1529263801.532, 4, 0, 1024, 1024, 1024, 1024, 0, 6, 3535, 3555, 3571, 3533, 3529, 3547, 0, 1, 17402, -89.900, 0.000, -13.400, 0.000, 0.000, -2.900, 0.0, , , , , , 97, , , 15, 15, 15
37.2566201, -119.3807590, 34.900, 12:30:01.638, 15, 0.00, 0.70, 95, -1.000, 1.500, -12.400, 391, 100, 100, 16, 21277, -24039, 4849, 5159, 15, 14, 1529263801.638, 1, 0, 1024, 1024, 1024, 1024, 0, 6, 3535, 3555, 3571, 3533, 3529, 3547, 0, 1, 17508, -89.900, 0.000, -13.400, 0.000, 0.000, -3.000, 0.0, , , , , , 97, , , 15, 15, 15
37.2566202, -119.3807590, 35.500, 12:30:01.729, 15, 0.00, 0.70, 95, -1.600, 1.900, -12.900, 391, 100, 99, 16, 21277, -24039, 4849, 5159, 15, 14, 1529263801.730, 6, 0, 1024, 1024, 1024, 1024, 0, 6, 3535, 3555, 3571, 3533, 3529, 3547, 0, 1, 17600, -89.900, 0.000, -13.400, 0.000, 0.000, -3.000, 0.0, , , , , , 97, , , 15, 15, 15
37.2566202, -119.3807590, 35.500, 12:30:01.829, 15, 0.00, 0.70, 95, -1.600, 1.900, -12.900, 391, 100, 99, 16, 21277, -24039, 4849, 5159, 15, 14, 1529263801.830, 107, 0, 1024, 1024, 1024, 1024, 0, 6, 3535, 3555, 3571, 3533, 3529, 3547, 0, 1, 17700, -89.900, 0.000, -13.400, 0.000, 0.000, -3.000, 0.0, , , , , , 97, , , 15, 15, 15
37.2566202, -119.3807590, 35.900, 12:30:01.929, 15, 0.00, 0.70, 95, -1.700, 2.300, -13.200, 391, 100, 99, 16, 21277, -24039, 4849, 5159, 15, 14, 1529263801.930, 89, 0, 1024, 1024, 1024, 1024, 0, 6, 3535, 3555, 3571, 3533, 3529, 3547, 0, 1, 17800, -89.900, 0.000, -13.400, 0.000, 0.000, -3.100, 0.0, , , , , , 97, , , 15, 15, 15
37.2566202, -119.3807590, 36.200, 12:30:02.029, 15, 0.00, 0.70, 95, -1.700, 2.400, -13.400, 391, 100, 99, 16, 21277, -24039, 4849, 5159, 15, 14, 1529263802.030, 94, 0, 1024, 1024, 1024, 1024, 0, 6, 3535, 3555, 3571, 3533, 3529, 3547, 0, 1, 17900, -89.900, 0.000, -13.400, 0.000, 0.000, -3.100, 0.0, , , , , , 97, , , 15, 15, 15
37.2566202, -119.3807589, 36.500, 12:30:02.129, 15, 0.10, 0.70, 95, -1.800, 2.000, -13.600, 391, 100, 99, 16, 21277, -24039, 4849, 5159, 15, 14, 1529263802.130, 85, 0, 1024, 1024, 1024, 1024, 0, 6, 3535, 3555, 3571, 3533, 3529, 3547, 0, 1, 18000, -89.900, 0.000, -13.400, 0.000, 0.100, -3.100, 0.1, , , , , , 97, , , 15, 15, 15
37.2566202, -119.3807589, 36.800, 12:30:02.229, 15, 0.10, 0.69, 94, -2.000, 1.600, -13.700, 391, 100, 99, 16, 21222, -23925, 4849, 5159, 15, 14, 1529263802.230, 77, 0, 1024, 1024, 1024, 1024, 0, 6, 3533, 3545, 3560, 3525, 3517, 3549, 0, 1, 18100, -90.000, 0.000, -13.400, 0.000, 0.100, -3.000, 0.1, , , , , , 97, , , 15, 15, 15
37.2566202, -119.3807588, 37.100, 12:30:02.329, 15, 0.10, 0.68, 94, -2.200, 1.200, -13.800, 391, 100, 98, 16, 21222, -23925, 4849, 5159, 15, 14, 1529263802.330, 48, 0, 1024, 1024, 1024, 1024, 0, 6, 3533, 3545, 3560, 3525, 3517, 3549, 0, 1, 18200, -90.000, 0.000, -13.400, 0.000, 0.100, -2.900, 0.1, , , , , , 97, , , 15, 15, 15
37.2566201, -119.3807587, 37.400, 12:30:02.429, 15, 0.10, 0.68, 94, -2.400, 1.100, -13.800, 391, 100, 98, 16, 21222, -23925, 4849, 5159, 15, 14, 1529263802.430, 65, 0, 1024, 1024, 1024, 1024, 0, 6, 3533, 3545, 3560, 3525, 3517, 3549, 0, 1, 18300, -90.000, 0.000, -13.400, 0.000, 0.100, -2.900, 0.1, , , , , , 97, , , 15, 15, 15
37.2566201, -119.3807587, 37.700, 12:30:02.529, 15, 0.10, 0.68, 94, -2.600, 1.300, -13.800, 391, 100, 98, 16, 21222, -23925, 4849, 5159, 15, 14, 1529263802.530, 41, 0, 1024, 1024, 1024, 1024, 0, 6, 3533, 3545, 3560, 3525, 3517, 3549, 0, 1, 18400, -90.000, 0.000, -13.400, 0.000, 0.100, -2.800, 0.1, , , , , , 97, , , 15, 15, 15
37.2566201, -119.3807587, 38.000, 12:30:02.629, 15, 0.10, 0.67, 94, -2.500, 1.400, -13.600, 391, 100, 98, 16, 21222, -23925, 4849, 5159, 15, 14, 1529263802.630, 51, 0, 1024, 1024, 1024, 1024, 0, 6, 3533, 3545, 3560, 3525, 3517, 3549, 0, 1, 18500, -89.900, 0.000, -13.400, 0.000, 0.100, -2.900, 0.1, , , , , , 97, , , 15, 15, 15
37.2566201, -119.3807586, 38.300, 12:30:02.729, 15, 0.10, 0.67, 94, -2.800, 1.400, -13.500, 391, 100, 98, 16, 21222, -23925, 4849, 5159, 15, 14, 1529263802.730, 46, 0, 1024, 1024, 1024, 1024, 0, 6, 3533, 3545, 3560, 3525, 3517, 3549, 0, 1, 18600, -90.000, 0.000, -13.400, 0.000, 0.100, -3.000, 0.1, , , , , , 97, , , 15, 15, 15
37.2566201, -119.3807586, 38.300, 12:30:02.829, 15, 0.10, 0.67, 94, -2.800, 1.400, -13.500, 391, 100, 98, 16, 21222, -23925, 4849, 5159, 15, 14, 1529263802.830, 146, 0, 1024, 1024, 1024, 1024, 0, 6, 3533, 3545, 3560, 3525, 3517, 3549, 0, 1, 18700, -90.000, 0.000, -13.400, 0.000, 0.100, -3.000, 0.1, , , , , , 97, , , 15, 15, 15
37.2566201, -119.3807586, 38.900, 12:30:02.929, 15, 0.10, 0.66, 94, -3.500, 1.500, -13.200, 391, 100, 98, 16, 21222, -23925, 4849, 5159, 15, 14, 1529263802.930, 28, 0, 1024, 1024, 1024, 1024, 0, 6, 3533, 3545, 3560, 3525, 3517, 3549, 0, 1, 18800, -90.000, 0.000, -13.400, 0.000, 0.100, -2.900, 0.1, , , , , , 97, , , 15, 15, 15
37.2566201, -119.3807586, 39.200, 12:30:03.029, 15, 0.00, 0.66, 94, -3.000, 1.600, -13.100, 391, 100, 98, 16, 21222, -23925, 4849, 5159, 15, 14, 1529263803.030, 16, 0, 1024, 1024, 1024, 1024, 0, 6, 3533, 3545, 3560, 3525, 3517, 3549, 0, 1, 18900, -90.000, 0.000, -13.400, 0.000, 0.000, -2.800, 0.0, , , , , , 97, , , 15, 15, 15
37.2566200, -119.3807586, 39.500, 12:30:03.129, 15, 0.00, 0.66, 94, -2.500, 1.500, -12.900, 391, 100, 98, 16, 21222, -23925, 4849, 5159, 15, 14, 1529263803.130, 13, 0, 1024, 1024, 1024, 1024, 0, 6, 3533, 3545, 3560, 3525, 3517, 3549, 0, 1, 19000, -89.900, 0.000, -13.400, 0.000, 0.000, -2.800, 0.0, , , , , , 97, , , 15, 15, 15
37.2566200, -119.3807585, 39.800, 12:30:03.229, 15, 0.00, 0.66, 94, -2.000, 1.200, -12.700, 391, 100, 96, 16, 21289, -22896, 4849, 5159, 15, 14, 1529263803.230, 20, 0, 1024, 1024, 1024, 1024, 0, 6, 3533, 3545, 3560, 3525, 3517, 3549, 0, 1, 19100, -90.000, 0.000, -13.400, 0.000, 0.000, -2.800, 0.0, , , , , , 97, , , 15, 15, 15
37.2566200, -119.3807585, 40.100, 12:30:03.333, 15, 0.10, 0.66, 94, -1.900, 0.900, -12.500, 391, 100, 96, 16, 21289, -22896, 4849, 5159, 15, 14, 1529263803.333, 5, 0, 1024, 1024, 1024, 1024, 0, 6, 3533, 3545, 3560, 3525, 3517, 3549, 0, 1, 19203, -90.000, 0.000, -13.400, 0.000, 0.100, -2.800, 0.1, , , , , , 97, , , 15, 15, 15
37.2566199, -119.3807584, 40.400, 12:30:03.429, 15, 0.10, 0.65, 94, -2.700, 0.600, -12.400, 391, 100, 96, 16, 21289, -22896, 4849, 5159, 15, 14, 1529263803.430, 17, 0, 1024, 1024, 1024, 1024, 0, 6, 3533, 3545, 3560, 3525, 3517, 3549, 0, 1, 19300, -90.000, 0.000, -13.400, 0.000, 0.100, -2.800, 0.1, , , , , , 97, , , 15, 15, 15
37.2566199, -119.3807583, 40.700, 12:30:03.529, 15, 0.10, 0.64, 94, -3.400, 0.500, -12.500, 391, 100, 96, 16, 21289, -22896, 4849, 5159, 15, 14, 1529263803.530, 8, 0, 1024, 1024, 1024, 1024, 0, 6, 3533, 3545, 3560, 3525, 3517, 3549, 0, 1, 19400, -90.000, 0.000, -13.400, 0.000, 0.100, -2.800, 0.1, , , , , , 97, , , 15, 15, 15
37.2566198, -119.3807582, 41.000, 12:30:03.629, 15, 0.10, 0.63, 94, -3.800, 0.700, -12.500, 391, 100, 96, 16, 21289, -22896, 4849, 5159, 15, 14, 1529263803.630, 11, 0, 1024, 1024, 1024, 1024, 0, 6, 3533, 3545, 3560, 3525, 3517, 3549, 0, 1, 19500, -90.000, 0.000, -13.400, 0.000, 0.100, -2.800, 0.1, , , , , , 97, , , 15, 15, 15
37.2566198, -119.3807582, 41.000, 12:30:03.729, 15, 0.10, 0.63, 94, -3.800, 0.700, -12.500, 391, 100, 96, 16, 21289, -22896, 4849, 5159, 15, 14, 1529263803.730, 111, 0, 1024, 1024, 1024, 1024, 0, 6, 3533, 3545, 3560, 3525, 3517, 3549, 0, 1, 19600, -90.000, 0.000, -13.400, 0.000, 0.100, -2.800, 0.1, , , , , , 97, , , 15, 15, 15
37.2566198, -119.3807581, 41.600, 12:30:03.829, 15, 0.00, 0.62, 94, -3.900, 0.700, -12.300, 391, 100, 96, 16, 21289, -22896, 4849, 5159, 15, 14, 1529263803.830, 76, 0, 1024, 1024, 1024, 1024, 0, 6, 3544, 3555, 3569, 3544, 3515, 3544, 0, 1, 19700, -90.000, 0.000, -13.400, 0.000, 0.000, -2.700, 0.0, , , , , , 97, , , 15, 15, 15
37.2566198, -119.3807581, 41.800, 12:30:03.929, 15, 0.00, 0.62, 94, -3.800, 0.600, -12.500, 391, 100, 96, 16, 21289, -22896, 4849, 5159, 15, 14, 1529263803.930, 90, 0, 1024, 1024, 1024, 1024, 0, 6, 3544, 3555, 3569, 3544, 3515, 3544, 0, 1, 19800, -90.000, 0.000, -13.400, 0.000, 0.000, -2.700, 0.0, , , , , , 97, , , 15, 15, 15
37.2566197, -119.3807582, 42.100, 12:30:04.029, 15, 0.00, 0.63, 94, -3.200, 0.700, -12.500, 391, 100, 96, 16, 21289, -22896, 4849, 5159, 15, 14, 1529263804.030, 70, 0, 1024, 1024, 1024, 1024, 0, 6, 3544, 3555, 3569, 3544, 3515, 3544, 0, 1, 19900, -90.000, 0.000, -13.400, 0.000, 0.000, -2.800, 0.0, , , , , , 97, , , 15, 15, 15
37.2566197, -119.3807582, 42.400, 12:30:04.129, 15, 0.00, 0.63, 94, -2.400, 0.800, -12.600, 391, 100, 96, 16, 21289, -22896, 4849, 5159, 15, 14, 1529263804.130, 86, 0, 1024, 1024, 1024, 1024, 0, 6, 3544, 3555, 3569, 3544, 3515, 3544, 0, 1, 20000, -90.000, 0.000, -13.400, 0.000, 0.000, -2.800, 0.0, , , , , , 97, , , 15, 15, 15
37.2566196, -119.3807582, 42.700, 12:30:04.229, 15, 0.00, 0.63, 94, -1.500, 0.800, -12.600, 391, 100, 96, 16, 21289, -22896, 4849, 5159, 15, 14, 1529263804.230, 64, 0, 1024, 1024, 1024, 1024, 0, 6, 3544, 3555, 3569, 3544, 3515, 3544, 0, 1, 20100, -90.000, 0.000, -13.400, 0.000, 0.000, -2.800, 0.0, , , , , , 97, , , 15, 15, 15
37.2566196, -119.3807581, 43.000, 12:30:04.329, 15, 0.10, 0.62, 94, -2.100, 0.800, -12.700, 391, 100, 97, 16, 21289, -22896, 4849, 5159, 15, 14, 1529263804.330, 80, 0, 1024, 1024, 1024, 1024, 0, 6, 3544, 3555, 3569, 3544, 3515, 3544, 0, 1, 20200, -90.000, 0.000, -13.400, 0.000, 0.100, -2.900, 0.1, , , , , , 97, , , 15, 15, 15
37.2566196, -119.3807580, 43.300, 12:30:04.429, 15, 0.10, 0.61, 94, -3.500, 0.900, -12.800, 391, 100, 97, 16, 21289, -22896, 4849, 5159, 15, 14, 1529263804.430, 80, 0, 1024, 1024, 1024, 1024, 0, 6, 3544, 3555, 3569, 3544, 3515, 3544, 0, 1, 20300, -90.000, 0.000, -13.400, 0.000, 0.100, -3.000, 0.1, , , , , , 97, , , 15, 15, 15
37.2566196, -119.3807579, 43.600, 12:30:04.529, 15, 0.10, 0.60, 94, -4.000, 0.700, -12.800, 391, 100, 97, 16, 21289, -22896, 4849, 5159, 15, 14, 1529263804.530, 73, 0, 1024, 1024, 1024, 1024, 0, 6, 3544, 3555, 3569, 3544, 3515, 3544, 0, 1, 20400, -90.000, 0.000, -13.400, 0.000, 0.100, -2.900, 0.1, , , , , , 97, , , 15, 15, 15
37.2566196, -119.3807578, 43.900, 12:30:04.629, 15, 0.10, 0.59, 94, -4.600, 0.400, -12.900, 391, 100, 97, 16, 21289, -22896, 4849, 5159, 15, 14, 1529263804.630, 49, 0, 1024, 1024, 1024, 1024, 0, 6, 3544, 3555, 3569, 3544, 3515, 3544, 0, 1, 20500, -90.000, 0.000, -13.400, 0.000, 0.100, -2.900, 0.1, , , , , , 97, , , 15, 15, 15
37.2566196, -119.3807578, 43.900, 12:30:04.729, 15, 0.10, 0.59, 94, -4.600, 0.400, -12.900, 391, 100, 97, 16, 21213, -23247, 4849, 5159, 15, 14, 1529263804.730, 149, 0, 1024, 1024, 1024, 1024, 0, 6, 3544, 3555, 3569, 3544, 3515, 3544, 0, 1, 20600, -90.000, 0.000, -13.400, 0.000, 0.100, -2.900, 0.1, , , , , , 97, , , 15, 15, 15
37.2566197, -119.3807576, 44.500, 12:30:04.829, 15, 0.10, 0.57, 94, -4.600, 0.400, -13.000, 391, 100, 98, 16, 21213, -23247, 4849, 5159, 15, 14, 1529263804.830, 45, 0, 1024, 1024, 1024, 1024, 0, 6, 3522, 3534, 3548, 3519, 3495, 3530, 0, 1, 20700, -89.900, 0.000, -13.400, 0.000, 0.100, -2.800, 0.1, , , , , , 97, , , 15, 15, 15
37.2566197, -119.3807575, 44.800, 12:30:04.929, 15, 0.10, 0.57, 94, -4.900, 1.000, -13.100, 391, 100, 98, 16, 21213, -23247, 4849, 5159, 15, 14, 1529263804.930, 47, 0, 1024, 1024, 1024, 1024, 0, 6, 3522, 3534, 3548, 3519, 3495, 3530, 0, 1, 20800, -89.900, 0.000, -13.400, 0.000, 0.100, -2.800, 0.1, , , , , , 97, , , 15, 15, 15
37.2566197, -119.3807574, 45.100, 12:30:05.029, 15, 0.10, 0.56, 94, -5.100, 1.300, -13.100, 391, 100, 98, 16, 21213, -23247, 4849, 5159, 15, 14, 1529263805.030, 49, 0, 1024, 1024, 1024, 1024, 0, 6, 3522, 3534, 3548, 3519, 3495, 3530, 0, 1, 20900, -89.900, 0.000, -13.400, 0.000, 0.100, -2.800, 0.1, , , , , , 97, , , 15, 15, 15
