Latitude, Longitude, Altitude (m), Time, Sats, Speed (m/s), Range (m), Battery (%), Roll (deg), Pitch (deg), Yaw (deg), Images, HD Signal (%), RC Signal (%), Battery Temp (C), Battery Voltage (mV), Battery Current (mA), Battery Energy (mAh), Battery Capacity (mAh), Battery Discharges, flyState, timestamp (Unix), LastUpdate (ms), radioChannel, Rc_elevator, Rc_aileron, Rc_throttle, Rc_rudder, Rc_gyro, Dronetype, Battery_Cell1 (mV), Battery_Cell2 (mV), Battery_Cell3 (mV), Battery_Cell4 (mV), Battery_Cell5 (mV), Battery_Cell6 (mV), Video, isFlying, elapsedTime (ms), gimbalPitch (deg), gimbalRoll (deg), gimbalYaw (deg), VelocityX (m/s), VelocityY (m/s), VelocityZ (m/s), GroundSmear (cm), App Version, Aircraft Name, Aircraft Firmware, Aircraft Serial Number, Battery Serial Number, Battery Lifetime (%), App_Tip, App_Warning, CurrentFlightStartingIndex, CurrentFlightLastVisitedWaypoint, PreviousFlightEndingWaypointIndex
37.2566375, -119.3807895, 0.000, 13:24:31.015, 9, 0.00, 0.10, 98, -0.200, -0.900, -10.900, 1520, 100, 100, 15, 24511, -6926, 5232, 5339, 19, 11, 1529267071.016, 22, 0, 1024, 1024, 1024, 1024, 0, 6, 4228, 4213, 4207, 4249, 4281, 4267, 0, 1, 3117, -90.000, 0.000, -11.700, 0.000, 0.000, -0.100, 0.0, MapPilot_2.8.1_04242018, Dendroctonus I, 1.3.1.00, 041DDC1887, 1058163200505, 96, DJI_0525.jpg, Starting Mission from Lat/Long: 37.25664/-119.38079 Camera: Zenmuse X3 - Overlap: 90/90 - Active Connection: No, 57, 57, 57
37.2566375, -119.3807895, 0.000, 13:24:31.099, 9, 0.00, 0.10, 98, -0.200, -0.900, -10.900, 1520, 100, 100, 15, 24511, -6926, 5232, 5339, 19, 11, 1529267071.099, 106, 0, 1024, 1024, 1024, 1024, 0, 6, 4228, 4213, 4207, 4249, 4281, 4267, 0, 1, 3201, -90.000, 0.000, -11.700, 0.000, 0.000, -0.100, 0.0, , , , , , 96, , , 57, 57, 57
37.2566375, -119.3807896, 0.000, 13:24:31.198, 9, 0.00, 0.10, 98, -0.300, -1.200, -10.700, 1520, 100, 100, 15, 24511, -6926, 5232, 5339, 19, 11, 1529267071.199, 83, 0, 1024, 1024, 1024, 1024, 0, 6, 4228, 4213, 4207, 4249, 4281, 4267, 0, 1, 3300, -90.000, 0.000, -11.700, 0.000, 0.000, -0.300, 0.0, , , , , , 96, , , 57, 57, 57
37.2566374, -119.3807896, 0.000, 13:24:31.299, 9, 0.00, 0.11, 98, 0.000, -0.900, -10.600, 1520, 100, 100, 15, 24511, -6926, 5232, 5339, 19, 11, 1529267071.299, 87, 0, 1024, 1024, 1024, 1024, 0, 6, 4228, 4213, 4207, 4249, 4281, 4267, 0, 1, 3401, -90.000, 0.000, -11.700, 0.000, 0.000, -0.400, 0.0, , , , , , 96, , , 57, 57, 57
37.2566375, -119.3807897, 0.000, 13:24:31.398, 9, 0.00, 0.11, 98, 0.100, -0.500, -10.600, 1520, 100, 100, 15, 24511, -6926, 5232, 5339, 19, 11, 1529267071.398, 74, 0, 1024, 1024, 1024, 1024, 0, 6, 4228, 4213, 4207, 4249, 4281, 4267, 0, 1, 3500, -89.900, 0.000, -11.700, 0.000, 0.000, -0.300, 0.0, , , , , , 96, , , 57, 57, 57
37.2566375, -119.3807899, 0.100, 13:24:31.499, 9, 0.00, 0.12, 98, 0.200, 0.000, -10.700, 1520, 100, 100, 15, 24511, -6926, 5232, 5339, 19, 11, 1529267071.499, 79, 0, 1024, 1024, 1024, 1024, 0, 6, 4013, 4000, 4022, 4047, 4036, 4022, 0, 1, 3600, -89.900, 0.000, -11.700, 0.000, 0.000, -0.300, 0.0, , , , , , 96, , , 57, 57, 57
37.2566375, -119.3807900, 0.100, 13:24:31.599, 9, 0.00, 0.13, 98, 0.400, 0.300, -10.800, 1520, 100, 100, 15, 24511, -6926, 5232, 5339, 19, 11, 1529267071.599, 82, 0, 1024, 1024, 1024, 1024, 0, 6, 4013, 4000, 4022, 4047, 4036, 4022, 0, 1, 3701, -89.900, 0.000, -11.700, 0.000, 0.000, -0.300, 0.0, , , , , , 96, , , 57, 57, 57
37.2566375, -119.3807902, 0.100, 13:24:31.698, 9, 0.10, 0.15, 98, 0.500, 0.500, -11.000, 1520, 100, 100, 15, 24511, -6926, 5232, 5339, 19, 11, 1529267071.699, 54, 0, 1024, 1024, 1024, 1024, 0, 6, 4013, 4000, 4022, 4047, 4036, 4022, 0, 1, 3800, -89.900, 0.000, -11.700, 0.000, -0.100, -0.300, 0.0, , , , , , 96, , , 57, 57, 57
37.2566375, -119.3807904, 0.200, 13:24:31.799, 9, 0.10, 0.16, 98, 0.500, 0.700, -11.200, 1520, 100, 100, 15, 24511, -6926, 5232, 5339, 19, 11, 1529267071.800, 80, 0, 1024, 1024, 1024, 1024, 0, 6, 4013, 4000, 4022, 4047, 4036, 4022, 0, 1, 3901, -89.900, 0.000, -11.700, 0.000, -0.100, -0.300, 0.0, , , , , , 96, , , 57, 57, 57
37.2566376, -119.3807906, 0.200, 13:24:31.899, 8, 0.10, 0.17, 98, 0.600, 0.700, -11.500, 1520, 100, 100, 15, 24511, -6926, 5232, 5339, 19, 11, 1529267071.899, 73, 0, 1024, 1024, 1024, 1024, 0, 6, 4013, 4000, 4022, 4047, 4036, 4022, 0, 1, 4001, -89.900, 0.000, -11.700, 0.000, -0.100, -0.400, 0.0, , , , , , 96, , , 57, 57, 57
37.2566377, -119.3807907, 0.300, 13:24:31.999, 8, 0.10, 0.18, 98, 1.000, 0.800, -11.700, 1520, 100, 100, 15, 24511, -6926, 5232, 5339, 19, 11, 1529267071.999, 59, 0, 1024, 1024, 1024, 1024, 0, 6, 4013, 4000, 4022, 4047, 4036, 4022, 0, 1, 4101, -89.900, 0.000, -11.700, 0.000, -0.100, -0.500, 0.0, , , , , , 96, , , 57, 57, 57
37.2566377, -119.3807908, 0.400, 13:24:32.099, 8, 0.00, 0.19, 98, 1.500, 0.900, -11.800, 1520, 100, 100, 15, 24511, -6926, 5232, 5339, 19, 11, 1529267072.099, 55, 0, 1024, 1024, 1024, 1024, 0, 6, 4013, 4000, 4022, 4047, 4036, 4022, 0, 1, 4201, -89.900, 0.000, -11.700, 0.000, 0.000, -0.500, 0.0, , , , , , 96, , , 57, 57, 57
37.2566378, -119.3807909, 0.400, 13:24:32.198, 8, 0.00, 0.20, 98, 1.600, 1.200, -11.900, 1520, 100, 100, 15, 24511, -6926, 5232, 5339, 19, 11, 1529267072.199, 57, 0, 1024, 1024, 1024, 1024, 0, 6, 4013, 4000, 4022, 4047, 4036, 4022, 0, 1, 4300, -89.900, 0.000, -11.700, 0.000, 0.000, -0.400, 0.0, , , , , , 96, , , 57, 57, 57
37.2566378, -119.3807909, 0.500, 13:24:32.299, 8, 0.00, 0.20, 98, 1.400, 1.400, -11.800, 1520, 100, 100, 15, 24511, -6926, 5232, 5339, 19, 11, 1529267072.299, 47, 0, 1024, 1024, 1024, 1024, 0, 6, 4013, 4000, 4022, 4047, 4036, 4022, 0, 1, 4401, -89.900, 0.000, -11.700, 0.000, 0.000, -0.500, 0.0, , , , , , 96, , , 57, 57, 57
37.2566379, -119.3807910, 0.500, 13:24:32.399, 8, 0.00, 0.21, 98, 1.200, 1.700, -11.700, 1520, 100, 100, 15, 24511, -6926, 5232, 5339, 19, 11, 1529267072.399, 53, 0, 1024, 1024, 1024, 1024, 0, 6, 4013, 4000, 4022, 4047, 4036, 4022, 0, 1, 4501, -89.900, 0.000, -11.700, 0.000, 0.000, -0.500, 0.0, , , , , , 96, , , 57, 57, 57
37.2566379, -119.3807910, 0.600, 13:24:32.499, 9, 0.00, 0.20, 98, 1.000, 1.800, -11.400, 1520, 100, 100, 15, 23336, -16023, 5232, 5339, 19, 11, 1529267072.499, 40, 0, 1024, 1024, 1024, 1024, 0, 6, 3854, 3854, 3852, 3905, 3898, 3859, 0, 1, 4601, -89.900, 0.000, -11.700, 0.000, 0.000, -0.400, 0.0, , , , , , 96, , , 57, 57, 57
37.2566380, -119.3807910, 0.600, 13:24:32.599, 9, 0.00, 0.20, 98, 0.800, 1.700, -11.100, 1520, 100, 100, 15, 23336, -16023, 5232, 5339, 19, 11, 1529267072.599, 44, 0, 1024, 1024, 1024, 1024, 0, 6, 3854, 3854, 3852, 3905, 3898, 3859, 0, 1, 4701, -89.900, 0.000, -11.700, 0.000, 0.000, -0.300, 0.0, , , , , , 96, , , 57, 57, 57
37.2566381, -119.3807909, 0.700, 13:24:32.698, 9, 0.00, 0.20, 98, 0.600, 1.600, -10.800, 1520, 100, 100, 15, 23336, -16023, 5232, 5339, 19, 11, 1529267072.699, 33, 0, 1024, 1024, 1024, 1024, 0, 6, 3854, 3854, 3852, 3905, 3898, 3859, 0, 1, 4800, -90.000, 0.000, -11.700, 0.000, 0.000, -0.300, 0.0, , , , , , 96, , , 57, 57, 57
37.2566383, -119.3807910, 0.800, 13:24:32.799, 8, 0.00, 0.20, 98, 0.700, 1.600, -10.400, 1520, 100, 100, 15, 23336, -16023, 5232, 5339, 19, 11, 1529267072.799, 21, 0, 1024, 1024, 1024, 1024, 0, 6, 3854, 3854, 3852, 3905, 3898, 3859, 0, 1, 4901, -89.900, 0.000, -11.700, 0.000, 0.000, -0.500, 0.0, , , , , , 96, , , 57, 57, 57
37.2566384, -119.3807910, 0.800, 13:24:32.899, 8, 0.00, 0.21, 98, 0.900, 1.900, -10.300, 1520, 100, 100, 15, 23336, -16023, 5232, 5339, 19, 11, 1529267072.899, 15, 0, 1024, 1024, 1024, 1024, 0, 6, 3854, 3854, 3852, 3905, 3898, 3859, 0, 1, 5001, -89.900, 0.000, -11.700, 0.000, 0.000, -0.500, 0.0, , , , , , 96, , , 57, 57, 57
37.2566385, -119.3807911, 0.900, 13:24:32.999, 10, 0.00, 0.22, 98, 1.100, 2.200, -10.300, 1520, 100, 100, 15, 23336, -16023, 5232, 5339, 19, 6, 1529267072.999, 21, 0, 1024, 1024, 1024, 1024, 0, 6, 3854, 3854, 3852, 3905, 3898, 3859, 0, 1, 5101, -89.900, 0.000, -11.700, 0.000, 0.000, -0.500, 0.0, , , , , , 96, , , 57, 57, 57
37.2566385, -119.3807911, 0.900, 13:24:33.099, 10, 0.00, 0.22, 98, 1.300, 2.400, -10.300, 1520, 100, 100, 15, 23336, -16023, 5232, 5339, 19, 14, 1529267073.100, 13, 0, 1024, 1024, 1024, 1024, 0, 6, 3854, 3854, 3852, 3905, 3898, 3859, 0, 1, 5201, -89.900, 0.000, -11.700, 0.000, 0.000, -0.400, 0.0, , , , , , 96, , , 57, 57, 57
37.2566386, -119.3807911, 1.000, 13:24:33.198, 10, 0.00, 0.22, 98, 0.600, 1.900, -10.300, 1520, 100, 100, 15, 23336, -16023, 5232, 5339, 19, 14, 1529267073.199, 16, 0, 1024, 1024, 1024, 1024, 0, 6, 3854, 3854, 3852, 3905, 3898, 3859, 0, 1, 5300, -90.000, 0.000, -11.600, 0.000, 0.000, -0.300, 0.0, , , , , , 96, , , 57, 57, 57
37.2566386, -119.3807911, 1.000, 13:24:33.299, 10, 0.00, 0.22, 98, 0.600, 1.900, -10.300, 1520, 100, 100, 15, 23336, -16023, 5232, 5339, 19, 14, 1529267073.299, 117, 0, 1024, 1024, 1024, 1024, 0, 6, 3854, 3854, 3852, 3905, 3898, 3859, 0, 1, 5401, -90.000, 0.000, -11.600, 0.000, 0.000, -0.300, 0.0, , , , , , 96, , , 57, 57, 57
37.2566387, -119.3807909, 1.000, 13:24:33.399, 10, 0.00, 0.21, 98, 0.000, 1.300, -10.100, 1520, 100, 100, 15, 23336, -16023, 5232, 5339, 19, 14, 1529267073.399, 96, 0, 1024, 1024, 1024, 1024, 0, 6, 3854, 3854, 3852, 3905, 3898, 3859, 0, 1, 5501, -90.000, 0.000, -11.600, 0.000, 0.000, -0.300, 0.0, , , , , , 96, , , 57, 57, 57
37.2566388, -119.3807908, 1.100, 13:24:33.499, 7, 0.00, 0.20, 98, -0.400, 1.200, -10.000, 1520, 100, 100, 15, 23336, -16023, 5232, 5339, 19, 14, 1529267073.499, 98, 0, 1024, 1024, 1024, 1024, 0, 6, 3854, 3854, 3852, 3905, 3898, 3859, 0, 1, 5601, -90.000, 0.000, -11.600, 0.000, 0.000, -0.200, 0.0, , , , , , 96, , , 57, 57, 57
37.2566389, -119.3807907, 1.100, 13:24:33.599, 7, 0.00, 0.20, 98, -0.600, 1.100, -9.800, 1520, 100, 100, 15, 23046, -16554, 5232, 5339, 19, 14, 1529267073.599, 79, 0, 1024, 1024, 1024, 1024, 0, 6, 3815, 3814, 3804, 3867, 3871, 3824, 0, 1, 5701, -90.000, 0.000, -11.600, 0.000, 0.000, -0.200, 0.0, , , , , , 96, , , 57, 57, 57
37.2566390, -119.3807906, 1.100, 13:24:33.698, 8, 0.00, 0.19, 98, -0.700, 1.200, -9.700, 1520, 100, 100, 15, 23046, -16554, 5232, 5339, 19, 14, 1529267073.698, 90, 0, 1024, 1024, 1024, 1024, 0, 6, 3815, 3814, 3804, 3867, 3871, 3824, 0, 1, 5800, -89.900, 0.000, -11.600, 0.000, 0.000, -0.400, 0.0, , , , , , 96, , , 57, 57, 57
37.2566391, -119.3807905, 1.200, 13:24:33.799, 8, 0.00, 0.20, 98, -0.800, 1.400, -9.700, 1520, 100, 100, 15, 23046, -16554, 5232, 5339, 19, 14, 1529267073.800, 71, 0, 1024, 1024, 1024, 1024, 0, 6, 3815, 3814, 3804, 3867, 3871, 3824, 0, 1, 5901, -89.900, 0.000, -11.600, 0.000, 0.000, -0.600, 0.0, , , , , , 96, , , 57, 57, 57
37.2566393, -119.3807904, 1.200, 13:24:33.899, 9, 0.00, 0.20, 98, -0.700, 1.600, -9.800, 1520, 100, 100, 15, 23046, -16554, 5232, 5339, 19, 14, 1529267073.899, 74, 0, 1024, 1024, 1024, 1024, 0, 6, 3815, 3814, 3804, 3867, 3871, 3824, 0, 1, 6001, -89.900, 0.000, -11.500, 0.000, 0.000, -0.700, 0.0, , , , , , 96, , , 57, 57, 57
37.2566394, -119.3807904, 1.300, 13:24:33.999, 9, 0.00, 0.21, 98, -0.500, 1.900, -9.900, 1520, 100, 100, 15, 23046, -16554, 5232, 5339, 19, 14, 1529267073.999, 61, 0, 1024, 1024, 1024, 1024, 0, 6, 3815, 3814, 3804, 3867, 3871, 3824, 0, 1, 6101, -89.900, 0.000, -11.500, 0.000, 0.000, -0.900, 0.0, , , , , , 96, , , 57, 57, 57
37.2566394, -119.3807906, 1.400, 13:24:34.099, 9, 0.00, 0.22, 98, 0.000, 2.000, -10.000, 1520, 100, 100, 15, 23046, -16554, 5232, 5339, 19, 14, 1529267074.099, 64, 0, 1024, 1024, 1024, 1024, 0, 6, 3815, 3814, 3804, 3867, 3871, 3824, 0, 1, 6200, -89.900, 0.000, -11.500, 0.000, 0.000, -1.100, 0.0, , , , , , 96, , , 57, 57, 57
37.2566395, -119.3807907, 1.500, 13:24:34.198, 9, 0.00, 0.24, 98, 0.200, 1.900, -10.200, 1520, 100, 100, 15, 23046, -16554, 5232, 5339, 19, 14, 1529267074.198, 52, 0, 1024, 1024, 1024, 1024, 0, 6, 3815, 3814, 3804, 3867, 3871, 3824, 0, 1, 6300, -89.900, 0.000, -11.500, 0.000, 0.000, -1.300, 0.0, , , , , , 96, , , 57, 57, 57
37.2566395, -119.3807909, 1.700, 13:24:34.299, 10, 0.00, 0.25, 98, 0.600, 1.600, -10.300, 1520, 100, 100, 15, 23046, -16554, 5232, 5339, 19, 14, 1529267074.299, 64, 0, 1024, 1024, 1024, 1024, 0, 6, 3815, 3814, 3804, 3867, 3871, 3824, 0, 1, 6400, -90.000, 0.000, -11.500, 0.000, 0.000, -1.600, 0.0, , , , , , 96, , , 57, 57, 57
37.2566395, -119.3807911, 1.900, 13:24:34.399, 10, 0.00, 0.26, 98, 1.100, 1.500, -10.400, 1520, 100, 100, 15, 23046, -16554, 5232, 5339, 19, 14, 1529267074.399, 66, 0, 1024, 1024, 1024, 1024, 0, 6, 3815, 3814, 3804, 3867, 3871, 3824, 0, 1, 6501, -90.000, 0.000, -11.500, 0.000, 0.000, -1.900, 0.0, , , , , , 96, , , 57, 57, 57
37.2566394, -119.3807912, 2.100, 13:24:34.499, 11, 0.00, 0.27, 98, 1.300, 1.500, -10.500, 1520, 100, 100, 15, 23165, -16325, 5178, 5339, 19, 14, 1529267074.499, 58, 0, 1024, 1024, 1024, 1024, 0, 6, 3818, 3792, 3753, 3850, 3825, 3840, 0, 1, 6600, -90.000, 0.000, -11.400, 0.000, 0.000, -2.100, 0.0, , , , , , 96, , , 57, 57, 57
37.2566394, -119.3807913, 2.300, 13:24:34.599, 11, 0.00, 0.27, 98, 1.300, 1.300, -10.600, 1520, 100, 100, 15, 23165, -16325, 5178, 5339, 19, 14, 1529267074.599, 37, 0, 1024, 1024, 1024, 1024, 0, 6, 3818, 3792, 3753, 3850, 3825, 3840, 0, 1, 6700, -90.000, 0.000, -11.400, 0.000, 0.000, -2.200, 0.0, , , , , , 96, , , 57, 57, 57
37.2566393, -119.3807913, 2.600, 13:24:34.698, 11, 0.00, 0.27, 98, 1.100, 1.000, -10.600, 1520, 100, 100, 15, 23165, -16325, 5178, 5339, 19, 14, 1529267074.698, 28, 0, 1024, 1024, 1024, 1024, 0, 6, 3818, 3792, 3753, 3850, 3825, 3840, 0, 1, 6799, -90.000, 0.000, -11.400, 0.000, 0.000, -2.500, 0.0, , , , , , 96, , , 57, 57, 57
37.2566393, -119.3807914, 2.900, 13:24:34.799, 11, 0.00, 0.28, 98, 0.700, 0.900, -10.600, 1520, 100, 100, 15, 23165, -16325, 5178, 5339, 19, 14, 1529267074.799, 30, 0, 1024, 1024, 1024, 1024, 0, 6, 3818, 3792, 3753, 3850, 3825, 3840, 0, 1, 6901, -90.000, 0.000, -11.400, 0.000, 0.000, -2.900, 0.0, , , , , , 96, , , 57, 57, 57
37.2566393, -119.3807915, 3.200, 13:24:34.899, 10, 0.00, 0.28, 98, 0.600, 1.000, -10.500, 1520, 100, 100, 15, 23165, -16325, 5178, 5339, 19, 14, 1529267074.899, 30, 0, 1024, 1024, 1024, 1024, 0, 6, 3818, 3792, 3753, 3850, 3825, 3840, 0, 1, 7000, -90.000, 0.000, -11.400, 0.000, 0.000, -3.000, 0.0, , , , , , 96, , , 57, 57, 57
37.2566391, -119.3807915, 3.800, 13:24:34.999, 10, 0.00, 0.27, 98, 0.800, 1.400, -10.300, 1520, 100, 100, 15, 23165, -16325, 5178, 5339, 19, 14, 1529267074.999, 33, 0, 1024, 1024, 1024, 1024, 0, 6, 3818, 3792, 3753, 3850, 3825, 3840, 0, 1, 7100, -89.900, 0.000, -11.400, 0.000, 0.000, -3.200, 0.0, , , , , , 96, , , 57, 57, 57
37.2566390, -119.3807914, 4.200, 13:24:35.099, 10, 0.00, 0.26, 98, 0.800, 1.200, -10.200, 1520, 100, 100, 15, 23165, -16325, 5178, 5339, 19, 14, 1529267075.099, 17, 0, 1024, 1024, 1024, 1024, 0, 6, 3818, 3792, 3753, 3850, 3825, 3840, 0, 1, 7201, -89.900, 0.000, -11.400, 0.000, 0.000, -3.300, 0.0, , , , , , 96, , , 57, 57, 57
37.2566388, -119.3807913, 4.500, 13:24:35.198, 10, 0.00, 0.25, 98, 0.500, 0.700, -10.200, 1520, 100, 100, 15, 23165, -16325, 5178, 5339, 19, 14, 1529267075.198, 33, 0, 1024, 1024, 1024, 1024, 0, 6, 3818, 3792, 3753, 3850, 3825, 3840, 0, 1, 7300, -90.000, 0.000, -11.300, 0.000, 0.000, -3.300, 0.0, , , , , , 96, , , 57, 57, 57
37.2566387, -119.3807912, 4.900, 13:24:35.299, 10, 0.00, 0.24, 98, 0.300, 0.400, -10.200, 1520, 100, 100, 15, 23165, -16325, 5178, 5339, 19, 14, 1529267075.299, 28, 0, 1024, 1024, 1024, 1024, 0, 6, 3818, 3792, 3753, 3850, 3825, 3840, 0, 1, 7400, -90.000, 0.000, -11.300, 0.000, 0.000, -3.300, 0.0, , , , , , 96, , , 57, 57, 57
37.2566386, -119.3807912, 5.200, 13:24:35.398, 11, 0.00, 0.23, 98, 0.100, 0.100, -10.100, 1520, 100, 100, 15, 23165, -16325, 5178, 5339, 19, 14, 1529267075.399, 5, 0, 1024, 1024, 1024, 1024, 0, 6, 3818, 3792, 3753, 3850, 3825, 3840, 0, 1, 7500, -90.000, 0.000, -11.300, 0.000, 0.000, -3.200, 0.0, , , , , , 96, , , 57, 57, 57
37.2566385, -119.3807912, 5.600, 13:24:35.499, 11, 0.00, 0.22, 97, 0.000, 0.000, -10.100, 1520, 100, 100, 15, 22126, -24996, 5178, 5339, 19, 14, 1529267075.500, 8, 0, 1024, 1024, 1024, 1024, 0, 6, 3644, 3657, 3623, 3716, 3707, 3655, 0, 1, 7601, -90.000, 0.000, -11.300, 0.000, 0.000, -3.200, 0.0, , , , , , 96, , , 57, 57, 57
37.2566385, -119.3807912, 5.600, 13:24:35.599, 11, 0.00, 0.22, 97, 0.000, 0.000, -10.100, 1520, 100, 100, 15, 22126, -24996, 5178, 5339, 19, 14, 1529267075.599, 108, 0, 1024, 1024, 1024, 1024, 0, 6, 3644, 3657, 3623, 3716, 3707, 3655, 0, 1, 7701, -90.000, 0.000, -11.300, 0.000, 0.000, -3.200, 0.0, , , , , , 96, , , 57, 57, 57
37.2566386, -119.3807910, 5.900, 13:24:35.698, 11, 0.00, 0.21, 97, 0.200, 0.200, -10.100, 1520, 100, 100, 15, 22126, -24996, 5178, 5339, 19, 14, 1529267075.698, 97, 0, 1024, 1024, 1024, 1024, 0, 6, 3644, 3657, 3623, 3716, 3707, 3655, 0, 1, 7800, -90.000, 0.000, -11.300, 0.000, 0.000, -3.300, 0.0, , , , , , 96, , , 57, 57, 57
37.2566386, -119.3807908, 6.300, 13:24:35.799, 11, 0.00, 0.20, 97, 0.000, 0.700, -10.200, 1520, 100, 100, 15, 22126, -24996, 5178, 5339, 19, 14, 1529267075.799, 89, 0, 1024, 1024, 1024, 1024, 0, 6, 3644, 3657, 3623, 3716, 3707, 3655, 0, 1, 7901, -89.900, 0.000, -11.300, 0.000, 0.000, -3.300, 0.0, , , , , , 96, , , 57, 57, 57
37.2566387, -119.3807909, 6.600, 13:24:35.898, 11, 0.00, 0.20, 97, -0.100, 1.400, -10.300, 1520, 100, 100, 15, 22126, -24996, 5178, 5339, 19, 14, 1529267075.899, 79, 0, 1024, 1024, 1024, 1024, 0, 6, 3644, 3657, 3623, 3716, 3707, 3655, 0, 1, 8000, -89.900, 0.000, -11.300, 0.000, 0.000, -3.300, 0.0, , , , , , 96, , , 57, 57, 57
37.2566387, -119.3807910, 6.900, 13:24:35.999, 11, 0.00, 0.21, 97, -0.100, 1.800, -10.300, 1520, 100, 100, 15, 22126, -24996, 5178, 5339, 19, 14, 1529267075.999, 83, 0, 1024, 1024, 1024, 1024, 0, 6, 3644, 3657, 3623, 3716, 3707, 3655, 0, 1, 8101, -89.900, 0.000, -11.300, 0.000, 0.000, -3.200, 0.0, , , , , , 96, , , 57, 57, 57
37.2566388, -119.3807910, 7.300, 13:24:36.099, 11, 0.00, 0.22, 97, 0.000, 1.900, -10.400, 1520, 100, 100, 15, 22126, -24996, 5178, 5339, 19, 14, 1529267076.099, 73, 0, 1024, 1024, 1024, 1024, 0, 6, 3644, 3657, 3623, 3716, 3707, 3655, 0, 1, 8200, -89.900, 0.000, -11.300, 0.000, 0.000, -3.200, 0.0, , , , , , 96, , , 57, 57, 57
37.2566389, -119.3807910, 7.600, 13:24:36.198, 11, 0.00, 0.23, 97, 0.000, 1.800, -10.400, 1520, 100, 100, 15, 22126, -24996, 5178, 5339, 19, 14, 1529267076.198, 66, 0, 1024, 1024, 1024, 1024, 0, 6, 3644, 3657, 3623, 3716, 3707, 3655, 0, 1, 8299, -89.900, 0.000, -11.300, 0.000, 0.000, -3.100, 0.0, , , , , , 96, , , 57, 57, 57
37.2566389, -119.3807911, 8.000, 13:24:36.299, 12, 0.00, 0.23, 97, 0.100, 1.600, -10.400, 1520, 100, 100, 15, 22126, -24996, 5178, 5339, 19, 14, 1529267076.299, 78, 0, 1024, 1024, 1024, 1024, 0, 6, 3644, 3657, 3623, 3716, 3707, 3655, 0, 1, 8400, -89.900, 0.000, -11.300, 0.000, 0.000, -3.100, 0.0, , , , , , 96, , , 57, 57, 57
37.2566389, -119.3807912, 8.300, 13:24:36.399, 12, 0.00, 0.24, 97, 0.400, 1.600, -10.300, 1520, 100, 100, 15, 22126, -24996, 5178, 5339, 19, 14, 1529267076.399, 58, 0, 1024, 1024, 1024, 1024, 0, 6, 3644, 3657, 3623, 3716, 3707, 3655, 0, 1, 8500, -89.900, 0.000, -11.300, 0.000, 0.000, -3.100, 0.0, , , , , , 96, , , 57, 57, 57
37.2566390, -119.3807912, 8.600, 13:24:36.499, 12, 0.00, 0.25, 97, 0.600, 1.500, -10.200, 1520, 100, 100, 15, 22239, -21584, 5178, 5339, 19, 14, 1529267076.499, 74, 0, 1024, 1024, 1024, 1024, 0, 6, 3644, 3657, 3623, 3716, 3707, 3655, 0, 1, 8600, -89.900, 0.000, -11.300, 0.000, 0.000, -3.000, 0.0, , , , , , 96, , , 57, 57, 57
37.2566391, -119.3807912, 8.900, 13:24:36.598, 12, 0.00, 0.25, 97, 0.600, 1.400, -10.200, 1520, 100, 100, 15, 22239, -21584, 5178, 5339, 19, 14, 1529267076.599, 44, 0, 1024, 1024, 1024, 1024, 0, 6, 3644, 3657, 3623, 3716, 3707, 3655, 0, 1, 8700, -89.900, 0.000, -11.300, 0.000, 0.000, -3.100, 0.0, , , , , , 96, , , 57, 57, 57
37.2566393, -119.3807913, 9.300, 13:24:36.698, 12, 0.00, 0.27, 97, 0.300, 1.600, -10.200, 1520, 100, 100, 15, 22239, -21584, 5178, 5339, 19, 14, 1529267076.698, 39, 0, 1024, 1024, 1024, 1024, 0, 6, 3644, 3657, 3623, 3716, 3707, 3655, 0, 1, 8800, -89.900, 0.000, -11.300, 0.000, 0.000, -3.000, 0.0, , , , , , 96, , , 57, 57, 57
37.2566395, -119.3807914, 9.600, 13:24:36.799, 12, 0.00, 0.28, 97, 0.200, 1.900, -10.200, 1520, 100, 100, 15, 22239, -21584, 5178, 5339, 19, 14, 1529267076.799, 42, 0, 1024, 1024, 1024, 1024, 0, 6, 3644, 3657, 3623, 3716, 3707, 3655, 0, 1, 8900, -89.900, 0.000, -11.300, 0.000, 0.000, -3.000, 0.0, , , , , , 96, , , 57, 57, 57
37.2566397, -119.3807914, 9.900, 13:24:36.899, 12, 0.00, 0.30, 97, 0.300, 2.400, -10.300, 1520, 100, 100, 15, 22239, -21584, 5178, 5339, 19, 14, 1529267076.899, 45, 0, 1024, 1024, 1024, 1024, 0, 6, 3644, 3657, 3623, 3716, 3707, 3655, 0, 1, 9001, -89.900, 0.000, -11.300, 0.000, 0.000, -3.000, 0.0, , , , , , 96, , , 57, 57, 57
37.2566399, -119.3807915, 10.200, 13:24:36.999, 12, 0.00, 0.32, 97, 0.500, 2.700, -10.300, 1520, 100, 100, 15, 22239, -21584, 5178, 5339, 19, 14, 1529267076.999, 37, 0, 1024, 1024, 1024, 1024, 0, 6, 3697, 3706, 3704, 3763, 3764, 3699, 0, 1, 9100, -89.900, 0.000, -11.300, 0.000, 0.000, -2.900, 0.0, , , , , , 96, , , 57, 57, 57
37.2566400, -119.3807916, 10.500, 13:24:37.099, 11, 0.00, 0.34, 97, 0.700, 3.100, -10.300, 1520, 100, 100, 15, 22239, -21584, 5178, 5339, 19, 14, 1529267077.099, 51, 0, 1024, 1024, 1024, 1024, 0, 6, 3697, 3706, 3704, 3763, 3764, 3699, 0, 1, 9200, -89.900, 0.000, -11.300, 0.000, 0.000, -3.000, 0.0, , , , , , 96, , , 57, 57, 57
37.2566402, -119.3807917, 10.800, 13:24:37.202, 11, 0.00, 0.35, 97, 0.900, 3.400, -10.200, 1520, 100, 100, 15, 22239, -21584, 5178, 5339, 19, 14, 1529267077.202, 2, 0, 1024, 1024, 1024, 1024, 0, 6, 3697, 3706, 3704, 3763, 3764, 3699, 0, 1, 9303, -89.900, 0.000, -11.300, 0.000, 0.000, -2.900, 0.0, , , , , , 96, , , 57, 57, 57
37.2566403, -119.3807917, 11.100, 13:24:37.299, 12, 0.00, 0.36, 97, 0.900, 3.300, -10.200, 1520, 100, 100, 15, 22239, -21584, 5178, 5339, 19, 14, 1529267077.299, 46, 0, 1024, 1024, 1024, 1024, 0, 6, 3697, 3706, 3704, 3763, 3764, 3699, 0, 1, 9400, -89.900, 0.000, -11.300, 0.000, 0.000, -3.000, 0.0, , , , , , 96, , , 57, 57, 57
37.2566405, -119.3807919, 11.700, 13:24:37.399, 11, 0.00, 0.39, 97, 0.900, 3.000, -10.200, 1520, 100, 100, 15, 22239, -21584, 5178, 5339, 19, 14, 1529267077.399, 30, 0, 1024, 1024, 1024, 1024, 0, 6, 3697, 3706, 3704, 3763, 3764, 3699, 0, 1, 9500, -90.000, 0.000, -11.300, 0.000, 0.000, -3.000, 0.0, , , , , , 96, , , 57, 57, 57
37.2566407, -119.3807920, 12.100, 13:24:37.499, 11, 0.00, 0.41, 97, 0.700, 3.100, -10.200, 1520, 100, 100, 15, 22239, -21584, 5178, 5339, 19, 14, 1529267077.499, 34, 0, 1024, 1024, 1024, 1024, 0, 6, 3697, 3706, 3704, 3763, 3764, 3699, 0, 1, 9600, -89.900, 0.000, -11.300, 0.000, 0.000, -3.000, 0.0, , , , , , 96, , , 57, 57, 57
37.2566407, -119.3807920, 12.400, 13:24:37.599, 11, 0.00, 0.42, 97, 0.600, 3.100, -10.300, 1520, 100, 99, 15, 22239, -21584, 5178, 5339, 19, 14, 1529267077.599, 11, 0, 1024, 1024, 1024, 1024, 0, 6, 3697, 3706, 3704, 3763, 3764, 3699, 0, 1, 9700, -89.900, 0.000, -11.300, 0.000, 0.000, -3.000, 0.0, , , , , , 96, , , 57, 57, 57
37.2566408, -119.3807919, 12.700, 13:24:37.698, 11, 0.00, 0.42, 97, 0.400, 3.000, -10.300, 1520, 100, 99, 15, 22239, -21584, 5178, 5339, 19, 14, 1529267077.699, 13, 0, 1024, 1024, 1024, 1024, 0, 6, 3697, 3706, 3704, 3763, 3764, 3699, 0, 1, 9800, -89.900, 0.000, -11.300, 0.000, 0.000, -2.900, 0.0, , , , , , 96, , , 57, 57, 57
37.2566408, -119.3807919, 12.700, 13:24:37.799, 11, 0.00, 0.42, 97, 0.400, 3.000, -10.300, 1520, 100, 99, 15, 22239, -21584, 5178, 5339, 19, 14, 1529267077.799, 113, 0, 1024, 1024, 1024, 1024, 0, 6, 3697, 3706, 3704, 3763, 3764, 3699, 0, 1, 9900, -89.900, 0.000, -11.300, 0.000, 0.000, -2.900, 0.0, , , , , , 96, , , 57, 57, 57
37.2566408, -119.3807918, 13.000, 13:24:37.899, 11, 0.00, 0.42, 97, 0.100, 2.900, -10.400, 1520, 100, 99, 15, 22239, -21584, 5178, 5339, 19, 14, 1529267077.899, 92, 0, 1024, 1024, 1024, 1024, 0, 6, 3697, 3706, 3704, 3763, 3764, 3699, 0, 1, 10000, -89.900, 0.000, -11.300, 0.000, 0.000, -2.900, 0.0, , , , , , 96, , , 57, 57, 57
37.2566408, -119.3807918, 13.600, 13:24:37.999, 12, 0.00, 0.41, 97, -0.100, 2.700, -10.600, 1520, 100, 99, 15, 22442, -19521, 5178, 5339, 19, 14, 1529267077.999, 8, 0, 1024, 1024, 1024, 1024, 0, 6, 3717, 3724, 3720, 3786, 3775, 3724, 0, 1, 10100, -90.000, 0.000, -11.300, 0.000, 0.000, -2.900, 0.0, , , , , , 96, , , 57, 57, 57
37.2566408, -119.3807918, 13.600, 13:24:38.099, 12, 0.00, 0.41, 97, -0.100, 2.700, -10.600, 1520, 100, 99, 15, 22442, -19521, 5178, 5339, 19, 14, 1529267078.099, 108, 0, 1024, 1024, 1024, 1024, 0, 6, 3717, 3724, 3720, 3786, 3775, 3724, 0, 1, 10200, -90.000, 0.000, -11.300, 0.000, 0.000, -2.900, 0.0, , , , , , 96, , , 57, 57, 57
37.2566408, -119.3807917, 13.900, 13:24:38.198, 12, 0.00, 0.41, 97, 0.000, 2.600, -10.600, 1520, 100, 99, 15, 22442, -19521, 5178, 5339, 19, 14, 1529267078.198, 80, 0, 1024, 1024, 1024, 1024, 0, 6, 3717, 3724, 3720, 3786, 3775, 3724, 0, 1, 10300, -90.000, 0.000, -11.300, 0.000, 0.000, -2.900, 0.0, , , , , , 96, , , 57, 57, 57
37.2566408, -119.3807917, 14.200, 13:24:38.299, 11, 0.10, 0.40, 97, -0.100, 2.500, -10.700, 1520, 100, 99, 15, 22442, -19521, 5178, 5339, 19, 14, 1529267078.299, 82, 0, 1024, 1024, 1024, 1024, 0, 6, 3717, 3724, 3720, 3786, 3775, 3724, 0, 1, 10400, -89.900, 0.000, -11.300, -0.100, 0.000, -2.900, 0.0, , , , , , 96, , , 57, 57, 57
37.2566407, -119.3807917, 14.500, 13:24:38.399, 11, 0.10, 0.40, 97, 0.000, 2.200, -10.600, 1520, 100, 99, 15, 22442, -19521, 5178, 5339, 19, 14, 1529267078.399, 83, 0, 1024, 1024, 1024, 1024, 0, 6, 3717, 3724, 3720, 3786, 3775, 3724, 0, 1, 10500, -89.900, 0.000, -11.300, -0.100, 0.000, -2.900, 0.0, , , , , , 96, , , 57, 57, 57
37.2566406, -119.3807917, 14.800, 13:24:38.499, 12, 0.10, 0.39, 97, 0.100, 1.900, -10.500, 1520, 100, 99, 15, 22442, -19521, 5178, 5339, 19, 14, 1529267078.499, 96, 0, 1024, 1024, 1024, 1024, 0, 6, 3717, 3724, 3720, 3786, 3775, 3724, 0, 1, 10600, -90.000, 0.000, -11.300, -0.100, 0.000, -2.900, 0.0, , , , , , 96, , , 57, 57, 57
37.2566406, -119.3807916, 15.100, 13:24:38.599, 12, 0.10, 0.37, 97, 0.100, 1.700, -10.400, 1520, 100, 100, 15, 22442, -19521, 5178, 5339, 19, 14, 1529267078.599, 85, 0, 1024, 1024, 1024, 1024, 0, 6, 3717, 3724, 3720, 3786, 3775, 3724, 0, 1, 10700, -90.000, 0.000, -11.300, -0.100, 0.000, -2.900, 0.0, , , , , , 96, , , 57, 57, 57
37.2566405, -119.3807916, 15.400, 13:24:38.698, 11, 0.10, 0.37, 97, 0.000, 1.500, -10.200, 1520, 100, 100, 15, 22442, -19521, 5178, 5339, 19, 14, 1529267078.698, 78, 0, 1024, 1024, 1024, 1024, 0, 6, 3717, 3724, 3720, 3786, 3775, 3724, 0, 1, 10799, -90.000, 0.000, -11.300, -0.100, 0.000, -2.900, 0.0, , , , , , 96, , , 57, 57, 57
37.2566404, -119.3807916, 15.700, 13:24:38.799, 11, 0.10, 0.37, 97, 0.000, 1.400, -10.100, 1520, 100, 100, 15, 22442, -19521, 5178, 5339, 19, 14, 1529267078.799, 49, 0, 1024, 1024, 1024, 1024, 0, 6, 3717, 3724, 3720, 3786, 3775, 3724, 0, 1, 10900, -90.000, 0.000, -11.300, -0.100, 0.000, -2.900, 0.0, , , , , , 96, , , 57, 57, 57
37.2566404, -119.3807915, 16.000, 13:24:38.899, 11, 0.10, 0.36, 97, 0.200, 1.400, -10.000, 1520, 100, 100, 15, 22442, -19521, 5178, 5339, 19, 14, 1529267078.899, 64, 0, 1024, 1024, 1024, 1024, 0, 6, 3717, 3724, 3720, 3786, 3775, 3724, 0, 1, 11000, -90.000, 0.000, -11.300, -0.100, 0.000, -2.900, 0.0, , , , , , 96, , , 57, 57, 57
37.2566403, -119.3807915, 16.300, 13:24:38.999, 11, 0.10, 0.35, 97, 0.200, 1.400, -9.900, 1520, 100, 100, 15, 22436, -19815, 5178, 5339, 19, 14, 1529267078.999, 57, 0, 1024, 1024, 1024, 1024, 0, 6, 3717, 3720, 3724, 3783, 3772, 3727, 0, 1, 11100, -89.900, 0.000, -11.300, -0.100, 0.000, -2.900, 0.0, , , , , , 96, , , 57, 57, 57
37.2566402, -119.3807914, 16.600, 13:24:39.099, 12, 0.10, 0.34, 97, 0.000, 1.400, -9.900, 1520, 100, 99, 15, 22436, -19815, 5178, 5339, 19, 14, 1529267079.099, 65, 0, 1024, 1024, 1024, 1024, 0, 6, 3717, 3720, 3724, 3783, 3772, 3727, 0, 1, 11200, -90.000, 0.000, -11.300, -0.100, 0.000, -2.900, 0.0, , , , , , 96, , , 57, 57, 57
37.2566401, -119.3807914, 16.900, 13:24:39.198, 12, 0.10, 0.33, 97, 0.100, 1.500, -9.900, 1520, 100, 99, 15, 22436, -19815, 5178, 5339, 19, 14, 1529267079.199, 45, 0, 1024, 1024, 1024, 1024, 0, 6, 3717, 3720, 3724, 3783, 3772, 3727, 0, 1, 11300, -90.000, 0.000, -11.300, -0.100, 0.000, -2.900, 0.0, , , , , , 96, , , 57, 57, 57
37.2566399, -119.3807915, 17.200, 13:24:39.299, 12, 0.10, 0.32, 97, 0.200, 1.400, -10.000, 1520, 100, 99, 15, 22436, -19815, 5178, 5339, 19, 14, 1529267079.299, 48, 0, 1024, 1024, 1024, 1024, 0, 6, 3717, 3720, 3724, 3783, 3772, 3727, 0, 1, 11400, -90.000, 0.000, -11.300, -0.100, 0.000, -2.900, 0.0, , , , , , 96, , , 57, 57, 57
37.2566397, -119.3807917, 17.500, 13:24:39.399, 12, 0.10, 0.32, 97, 0.600, 1.200, -10.100, 1520, 100, 99, 15, 22436, -19815, 5178, 5339, 19, 14, 1529267079.399, 39, 0, 1024, 1024, 1024, 1024, 0, 6, 3717, 3720, 3724, 3783, 3772, 3727, 0, 1, 11500, -90.000, 0.000, -11.300, -0.100, 0.000, -2.900, 0.0, , , , , , 96, , , 57, 57, 57
37.2566395, -119.3807917, 17.800, 13:24:39.499, 11, 0.10, 0.31, 97, 1.100, 1.000, -10.200, 1520, 100, 99, 15, 22436, -19815, 5178, 5339, 19, 14, 1529267079.499, 33, 0, 1024, 1024, 1024, 1024, 0, 6, 3717, 3720, 3724, 3783, 3772, 3727, 0, 1, 11600, -90.000, 0.000, -11.300, -0.100, 0.000, -2.900, 0.0, , , , , , 96, , , 57, 57, 57
37.2566394, -119.3807918, 18.100, 13:24:39.599, 11, 0.10, 0.31, 97, 1.300, 0.700, -10.400, 1520, 100, 99, 15, 22436, -19815, 5178, 5339, 19, 14, 1529267079.599, 27, 0, 1024, 1024, 1024, 1024, 0, 6, 3717, 3720, 3724, 3783, 3772, 3727, 0, 1, 11700, -90.000, 0.000, -11.300, -0.100, 0.000, -2.900, 0.0, , , , , , 96, , , 57, 57, 57
37.2566393, -119.3807918, 18.400, 13:24:39.698, 11, 0.10, 0.30, 97, 1.200, 0.600, -10.500, 1520, 100, 99, 15, 22436, -19815, 5178, 5339, 19, 14, 1529267079.698, 40, 0, 1024, 1024, 1024, 1024, 0, 6, 3717, 3720, 3724, 3783, 3772, 3727, 0, 1, 11799, -90.000, 0.000, -11.300, -0.100, 0.000, -2.900, 0.0, , , , , , 96, , , 57, 57, 57
37.2566391, -119.3807917, 19.000, 13:24:39.798, 12, 0.00, 0.29, 97, 0.400, 0.500, -10.700, 1520, 100, 99, 15, 22436, -19815, 5178, 5339, 19, 14, 1529267079.798, 39, 0, 1024, 1024, 1024, 1024, 0, 6, 3717, 3720, 3724, 3783, 3772, 3727, 0, 1, 11899, -90.000, 0.000, -11.300, 0.000, 0.000, -2.900, 0.0, , , , , , 96, , , 57, 57, 57
37.2566390, -119.3807916, 19.300, 13:24:39.898, 12, 0.00, 0.28, 97, 0.100, 0.500, -10.800, 1520, 100, 99, 15, 22436, -19815, 5178, 5339, 19, 14, 1529267079.899, 12, 0, 1024, 1024, 1024, 1024, 0, 6, 3717, 3720, 3724, 3783, 3772, 3727, 0, 1, 12000, -90.000, 0.000, -11.300, 0.000, 0.000, -2.900, 0.0, , , , , , 96, , , 57, 57, 57
37.2566389, -119.3807915, 19.600, 13:24:40.001, 12, 0.00, 0.27, 97, 0.000, 0.700, -10.700, 1520, 100, 99, 15, 22381, -19641, 5178, 5339, 19, 14, 1529267080.001, 4, 0, 1024, 1024, 1024, 1024, 0, 6, 3708, 3716, 3711, 3776, 3771, 3718, 0, 1, 12102, -90.000, 0.000, -11.300, 0.000, 0.000, -2.900, 0.0, , , , , , 96, , , 57, 57, 57
37.2566388, -119.3807915, 19.900, 13:24:40.099, 12, 0.00, 0.26, 97, 0.000, 0.800, -10.700, 1520, 100, 99, 15, 22381, -19641, 5178, 5339, 19, 14, 1529267080.099, 5, 0, 1024, 1024, 1024, 1024, 0, 6, 3708, 3716, 3711, 3776, 3771, 3718, 0, 1, 12200, -90.000, 0.000, -11.300, 0.000, 0.000, -2.900, 0.0, , , , , , 96, , , 57, 57, 57
37.2566388, -119.3807915, 19.900, 13:24:40.198, 12, 0.00, 0.26, 97, 0.000, 0.800, -10.700, 1520, 100, 99, 15, 22381, -19641, 5178, 5339, 19, 14, 1529267080.198, 104, 0, 1024, 1024, 1024, 1024, 0, 6, 3708, 3716, 3711, 3776, 3771, 3718, 0, 1, 12299, -90.000, 0.000, -11.300, 0.000, 0.000, -2.900, 0.0, , , , , , 96, , , 57, 57, 57
37.2566387, -119.3807915, 20.200, 13:24:40.299, 10, 0.00, 0.25, 97, 0.100, 0.700, -10.600, 1520, 100, 99, 15, 22381, -19641, 5178, 5339, 19, 14, 1529267080.299, 97, 0, 1024, 1024, 1024, 1024, 0, 6, 3708, 3716, 3711, 3776, 3771, 3718, 0, 1, 12400, -90.000, 0.000, -11.300, 0.000, 0.000, -2.900, 0.0, , , , , , 96, , , 57, 57, 57
37.2566387, -119.3807915, 20.200, 13:24:40.399, 10, 0.00, 0.25, 97, 0.100, 0.700, -10.600, 1520, 100, 99, 15, 22381, -19641, 5178, 5339, 19, 14, 1529267080.399, 197, 0, 1024, 1024, 1024, 1024, 0, 6, 3708, 3716, 3711, 3776, 3771, 3718, 0, 1, 12500, -90.000, 0.000, -11.300, 0.000, 0.000, -2.900, 0.0, , , , , , 96, , , 57, 57, 57
37.2566385, -119.3807912, 20.800, 13:24:40.499, 11, 0.00, 0.23, 97, 0.000, 0.700, -10.400, 1520, 100, 99, 15, 22381, -19641, 5178, 5339, 19, 14, 1529267080.499, 85, 0, 1024, 1024, 1024, 1024, 0, 6, 3708, 3716, 3711, 3776, 3771, 3718, 0, 1, 12600, -90.000, 0.000, -11.300, 0.000, 0.000, -2.900, 0.0, , , , , , 96, , , 57, 57, 57
37.2566385, -119.3807910, 21.100, 13:24:40.599, 11, 0.00, 0.21, 97, -0.100, 0.700, -10.300, 1520, 100, 99, 15, 22381, -19641, 5178, 5339, 19, 14, 1529267080.599, 87, 0, 1024, 1024, 1024, 1024, 0, 6, 3708, 3716, 3711, 3776, 3771, 3718, 0, 1, 12700, -90.000, 0.000, -11.300, 0.000, 0.000, -2.900, 0.0, , , , , , 96, , , 57, 57, 57
37.2566385, -119.3807909, 21.400, 13:24:40.698, 11, 0.00, 0.20, 97, -0.300, 0.800, -10.200, 1520, 100, 99, 15, 22381, -19641, 5178, 5339, 19, 14, 1529267080.698, 93, 0, 1024, 1024, 1024, 1024, 0, 6, 3708, 3716, 3711, 3776, 3771, 3718, 0, 1, 12799, -90.000, 0.000, -11.300, 0.000, 0.000, -2.900, 0.0, , , , , , 96, , , 57, 57, 57
37.2566384, -119.3807909, 21.700, 13:24:40.799, 11, 0.00, 0.20, 97, -0.300, 0.900, -10.100, 1520, 100, 99, 15, 22381, -19641, 5178, 5339, 19, 14, 1529267080.799, 99, 0, 1024, 1024, 1024, 1024, 0, 6, 3708, 3716, 3711, 3776, 3771, 3718, 0, 1, 12900, -89.900, 0.000, -11.300, 0.000, 0.000, -2.900, 0.0, , , , , , 96, , , 57, 57, 57
37.2566384, -119.3807908, 22.000, 13:24:40.899, 12, 0.00, 0.19, 97, -0.200, 1.000, -10.100, 1520, 100, 99, 15, 22381, -19641, 5178, 5339, 19, 14, 1529267080.899, 70, 0, 1024, 1024, 1024, 1024, 0, 6, 3708, 3716, 3711, 3776, 3771, 3718, 0, 1, 13000, -90.000, 0.000, -11.300, 0.000, 0.000, -2.900, 0.0, , , , , , 96, , , 57, 57, 57
37.2566384, -119.3807907, 22.300, 13:24:40.999, 12, 0.00, 0.18, 97, -0.300, 1.100, -10.200, 1520, 100, 99, 15, 22412, -19168, 5178, 5339, 19, 14, 1529267080.999, 76, 0, 1024, 1024, 1024, 1024, 0, 6, 3714, 3719, 3711, 3770, 3766, 3713, 0, 1, 13100, -90.000, 0.000, -11.300, 0.000, 0.000, -2.900, 0.0, , , , , , 96, , , 57, 57, 57
37.2566384, -119.3807906, 22.600, 13:24:41.099, 12, 0.00, 0.17, 97, -0.400, 1.000, -10.200, 1520, 100, 98, 15, 22412, -19168, 5178, 5339, 19, 14, 1529267081.099, 70, 0, 1024, 1024, 1024, 1024, 0, 6, 3714, 3719, 3711, 3770, 3766, 3713, 0, 1, 13200, -90.000, 0.000, -11.300, 0.000, 0.000, -2.900, 0.0, , , , , , 96, , , 57, 57, 57
37.2566384, -119.3807905, 22.900, 13:24:41.198, 12, 0.00, 0.16, 97, -0.400, 1.100, -10.300, 1520, 100, 98, 15, 22412, -19168, 5178, 5339, 19, 14, 1529267081.198, 72, 0, 1024, 1024, 1024, 1024, 0, 6, 3714, 3719, 3711, 3770, 3766, 3713, 0, 1, 13299, -90.000, 0.000, -11.300, 0.000, 0.000, -2.900, 0.0, , , , , , 96, , , 57, 57, 57
37.2566383, -119.3807904, 23.200, 13:24:41.299, 11, 0.00, 0.16, 97, -0.400, 1.200, -10.400, 1520, 100, 98, 15, 22412, -19168, 5178, 5339, 19, 14, 1529267081.299, 68, 0, 1024, 1024, 1024, 1024, 0, 6, 3714, 3719, 3711, 3770, 3766, 3713, 0, 1, 13400, -90.000, 0.000, -11.300, 0.000, 0.000, -2.900, 0.0, , , , , , 96, , , 57, 57, 57
37.2566383, -119.3807904, 23.500, 13:24:41.399, 11, 0.00, 0.16, 97, -0.300, 1.300, -10.500, 1520, 100, 98, 15, 22412, -19168, 5178, 5339, 19, 14, 1529267081.399, 59, 0, 1024, 1024, 1024, 1024, 0, 6, 3714, 3719, 3711, 3770, 3766, 3713, 0, 1, 13500, -90.000, 0.000, -11.300, 0.000, 0.000, -3.000, 0.0, , , , , , 96, , , 57, 57, 57
37.2566383, -119.3807904, 23.800, 13:24:41.499, 10, 0.00, 0.15, 97, -0.200, 1.300, -10.500, 1520, 100, 98, 15, 22412, -19168, 5178, 5339, 19, 14, 1529267081.499, 70, 0, 1024, 1024, 1024, 1024, 0, 6, 3714, 3719, 3711, 3770, 3766, 3713, 0, 1, 13600, -90.000, 0.000, -11.300, 0.000, 0.000, -2.900, 0.0, , , , , , 96, , , 57, 57, 57
37.2566383, -119.3807903, 24.100, 13:24:41.599, 10, 0.00, 0.15, 97, -0.100, 1.300, -10.500, 1520, 100, 97, 15, 22412, -19168, 5178, 5339, 19, 14, 1529267081.599, 71, 0, 1024, 1024, 1024, 1024, 0, 6, 3714, 3719, 3711, 3770, 3766, 3713, 0, 1, 13700, -90.000, 0.000, -11.300, 0.000, 0.000, -2.900, 0.0, , , , , , 96, , , 57, 57, 57
37.2566382, -119.3807903, 24.400, 13:24:41.698, 11, 0.00, 0.14, 97, -0.200, 1.200, -10.400, 1520, 100, 97, 15, 22412, -19168, 5178, 5339, 19, 14, 1529267081.698, 64, 0, 1024, 1024, 1024, 1024, 0, 6, 3714, 3719, 3711, 3770, 3766, 3713, 0, 1, 13799, -90.000, 0.000, -11.300, 0.000, 0.000, -2.800, 0.0, , , , , , 96, , , 57, 57, 57
37.2566382, -119.3807903, 24.700, 13:24:41.799, 11, 0.00, 0.14, 97, 0.000, 1.000, -10.400, 1520, 100, 97, 15, 22412, -19168, 5178, 5339, 19, 14, 1529267081.799, 57, 0, 1024, 1024, 1024, 1024, 0, 6, 3714, 3719, 3711, 3770, 3766, 3713, 0, 1, 13900, -90.000, 0.000, -11.300, 0.000, 0.000, -2.800, 0.0, , , , , , 96, , , 57, 57, 57
37.2566382, -119.3807902, 24.900, 13:24:41.899, 12, 0.00, 0.14, 97, 0.000, 0.900, -10.400, 1520, 100, 97, 15, 22412, -19168, 5178, 5339, 19, 14, 1529267081.899, 62, 0, 1024, 1024, 1024, 1024, 0, 6, 3714, 3719, 3711, 3770, 3766, 3713, 0, 1, 14000, -90.000, 0.000, -11.300, 0.000, 0.000, -2.800, 0.0, , , , , , 96, , , 57, 57, 57
37.2566382, -119.3807902, 25.200, 13:24:41.999, 12, 0.00, 0.13, 97, 0.000, 0.800, -10.300, 1520, 100, 97, 15, 22412, -19128, 5178, 5339, 19, 14, 1529267081.999, 40, 0, 1024, 1024, 1024, 1024, 0, 6, 3714, 3719, 3711, 3770, 3766, 3713, 0, 1, 14100, -90.000, 0.000, -11.300, 0.000, 0.000, -2.700, 0.0, , , , , , 96, , , 57, 57, 57
37.2566382, -119.3807902, 25.500, 13:24:42.099, 12, 0.00, 0.13, 97, -0.200, 0.900, -10.200, 1520, 100, 98, 15, 22412, -19128, 5178, 5339, 19, 14, 1529267082.099, 48, 0, 1024, 1024, 1024, 1024, 0, 6, 3714, 3719, 3711, 3770, 3766, 3713, 0, 1, 14200, -90.000, 0.000, -11.300, 0.000, 0.000, -2.800, 0.0, , , , , , 96, , , 57, 57, 57
37.2566382, -119.3807902, 25.500, 13:24:42.198, 12, 0.00, 0.13, 97, -0.200, 0.900, -10.200, 1520, 100, 98, 15, 22412, -19128, 5178, 5339, 19, 14, 1529267082.198, 147, 0, 1024, 1024, 1024, 1024, 0, 6, 3714, 3719, 3711, 3770, 3766, 3713, 0, 1, 14299, -89.900, 0.000, -11.300, 0.000, 0.000, -2.800, 0.0, , , , , , 96, , , 57, 57, 57
37.2566383, -119.3807902, 26.100, 13:24:42.299, 12, 0.00, 0.13, 97, -0.700, 1.500, -10.300, 1520, 100, 98, 15, 22412, -19128, 5178, 5339, 19, 14, 1529267082.299, 26, 0, 1024, 1024, 1024, 1024, 0, 6, 3714, 3719, 3711, 3770, 3766, 3713, 0, 1, 14400, -89.900, 0.000, -11.300, 0.000, 0.000, -2.800, 0.0, , , , , , 96, , , 57, 57, 57
37.2566384, -119.3807903, 26.700, 13:24:42.399, 12, 0.00, 0.15, 97, -0.400, 1.800, -10.400, 1520, 100, 98, 15, 22412, -19128, 5178, 5339, 19, 14, 1529267082.400, 12, 0, 1024, 1024, 1024, 1024, 0, 6, 3714, 3719, 3711, 3770, 3766, 3713, 0, 1, 14501, -89.900, 0.000, -11.300, 0.000, 0.000, -2.900, 0.0, , , , , , 96, , , 57, 57, 57
37.2566384, -119.3807903, 26.700, 13:24:42.498, 12, 0.00, 0.15, 97, -0.400, 1.800, -10.400, 1520, 100, 98, 15, 22412, -19128, 5178, 5339, 19, 14, 1529267082.498, 111, 0, 1024, 1024, 1024, 1024, 0, 6, 3714, 3719, 3711, 3770, 3766, 3713, 0, 1, 14600, -90.000, 0.000, -11.300, 0.000, 0.000, -2.900, 0.0, , , , , , 96, , , 57, 57, 57
37.2566385, -119.3807904, 27.200, 13:24:42.599, 12, 0.00, 0.16, 97, -0.100, 1.700, -10.400, 1520, 100, 97, 15, 22412, -19128, 5178, 5339, 19, 14, 1529267082.599, 27, 0, 1024, 1024, 1024, 1024, 0, 6, 3706, 3711, 3705, 3778, 3767, 3712, 0, 1, 14700, -89.900, 0.000, -11.300, 0.000, 0.000, -2.900, 0.0, , , , , , 96, , , 57, 57, 57
37.2566385, -119.3807903, 27.500, 13:24:42.698, 12, 0.00, 0.15, 97, -0.300, 1.900, -10.400, 1520, 100, 97, 15, 22412, -19128, 5178, 5339, 19, 14, 1529267082.698, 15, 0, 1024, 1024, 1024, 1024, 0, 6, 3706, 3711, 3705, 3778, 3767, 3712, 0, 1, 14799, -89.900, 0.000, -11.300, 0.000, 0.000, -2.900, 0.0, , , , , , 96, , , 57, 57, 57
37.2566386, -119.3807903, 27.800, 13:24:42.798, 12, 0.00, 0.16, 97, -0.400, 1.900, -10.200, 1520, 100, 97, 15, 22412, -19128, 5178, 5339, 19, 14, 1529267082.798, 21, 0, 1024, 1024, 1024, 1024, 0, 6, 3706, 3711, 3705, 3778, 3767, 3712, 0, 1, 14899, -89.900, 0.000, -11.300, 0.000, 0.000, -2.900, 0.0, , , , , , 96, , , 57, 57, 57
37.2566386, -119.3807904, 28.100, 13:24:42.899, 12, 0.00, 0.16, 97, -0.400, 1.600, -10.000, 1520, 100, 97, 15, 22412, -19128, 5178, 5339, 19, 14, 1529267082.899, 11, 0, 1024, 1024, 1024, 1024, 0, 6, 3706, 3711, 3705, 3778, 3767, 3712, 0, 1, 15000, -89.900, 0.000, -11.300, 0.000, 0.000, -3.000, 0.0, , , , , , 96, , , 57, 57, 57
37.2566386, -119.3807904, 28.100, 13:24:42.999, 12, 0.00, 0.16, 97, -0.400, 1.600, -10.000, 1520, 100, 97, 15, 22412, -19128, 5178, 5339, 19, 14, 1529267082.999, 111, 0, 1024, 1024, 1024, 1024, 0, 6, 3706, 3711, 3705, 3778, 3767, 3712, 0, 1, 15100, -89.900, 0.000, -11.300, 0.000, 0.000, -3.000, 0.0, , , , , , 96, , , 57, 57, 57
37.2566387, -119.3807903, 28.400, 13:24:43.099, 12, 0.00, 0.16, 97, -0.400, 1.700, -9.900, 1520, 100, 97, 15, 22412, -19128, 5178, 5339, 19, 14, 1529267083.099, 90, 0, 1024, 1024, 1024, 1024, 0, 6, 3706, 3711, 3705, 3778, 3767, 3712, 0, 1, 15200, -90.000, 0.000, -11.300, 0.000, 0.000, -3.000, 0.0, , , , , , 96, , , 57, 57, 57
37.2566388, -119.3807903, 28.700, 13:24:43.198, 12, 0.00, 0.16, 97, -0.700, 1.800, -10.000, 1520, 100, 97, 15, 22412, -19128, 5178, 5339, 19, 14, 1529267083.198, 91, 0, 1024, 1024, 1024, 1024, 0, 6, 3706, 3711, 3705, 3778, 3767, 3712, 0, 1, 15299, -89.900, 0.000, -11.300, 0.000, 0.000, -3.000, 0.0, , , , , , 96, , , 57, 57, 57
37.2566389, -119.3807902, 29.000, 13:24:43.299, 13, 0.00, 0.16, 97, -1.000, 1.800, -10.200, 1520, 100, 97, 15, 22412, -19128, 5178, 5339, 19, 14, 1529267083.299, 97, 0, 1024, 1024, 1024, 1024, 0, 6, 3706, 3711, 3705, 3778, 3767, 3712, 0, 1, 15400, -89.900, 0.000, -11.300, 0.000, 0.000, -3.000, 0.0, , , , , , 96, , , 57, 57, 57
37.2566390, -119.3807902, 29.400, 13:24:43.399, 13, 0.00, 0.16, 97, -1.100, 2.000, -10.300, 1520, 100, 97, 15, 22412, -19128, 5178, 5339, 19, 14, 1529267083.399, 76, 0, 1024, 1024, 1024, 1024, 0, 6, 3706, 3711, 3705, 3778, 3767, 3712, 0, 1, 15500, -89.900, 0.000, -11.300, 0.000, 0.000, -3.000, 0.0, , , , , , 96, , , 57, 57, 57
37.2566390, -119.3807902, 29.700, 13:24:43.499, 13, 0.00, 0.17, 97, -1.100, 2.400, -10.300, 1520, 100, 97, 15, 22087, -21607, 5178, 5339, 19, 14, 1529267083.499, 89, 0, 1024, 1024, 1024, 1024, 0, 6, 3661, 3660, 3656, 3722, 3765, 3692, 0, 1, 15600, -89.900, 0.000, -11.300, 0.000, 0.000, -3.000, 0.0, , , , , , 96, , , 57, 57, 57
37.2566391, -119.3807902, 30.000, 13:24:43.599, 13, 0.00, 0.17, 97, -1.100, 2.700, -10.300, 1520, 100, 94, 15, 22087, -21607, 5178, 5339, 19, 14, 1529267083.599, 77, 0, 1024, 1024, 1024, 1024, 0, 6, 3661, 3660, 3656, 3722, 3765, 3692, 0, 1, 15700, -89.900, 0.000, -11.300, 0.000, 0.000, -3.000, 0.0, , , , , , 96, , , 57, 57, 57
37.2566392, -119.3807901, 30.200, 13:24:43.698, 13, 0.00, 0.18, 97, -0.900, 2.600, -10.300, 1520, 100, 94, 15, 22087, -21607, 5178, 5339, 19, 14, 1529267083.698, 64, 0, 1024, 1024, 1024, 1024, 0, 6, 3661, 3660, 3656, 3722, 3765, 3692, 0, 1, 15799, -89.900, 0.000, -11.300, 0.000, 0.000, -2.900, 0.0, , , , , , 96, , , 57, 57, 57
37.2566393, -119.3807901, 30.500, 13:24:43.799, 13, 0.00, 0.18, 97, -0.600, 2.500, -10.300, 1520, 100, 94, 15, 22087, -21607, 5178, 5339, 19, 14, 1529267083.799, 69, 0, 1024, 1024, 1024, 1024, 0, 6, 3661, 3660, 3656, 3722, 3765, 3692, 0, 1, 15900, -89.900, 0.000, -11.300, 0.000, 0.000, -3.000, 0.0, , , , , , 96, , , 57, 57, 57
37.2566393, -119.3807900, 30.800, 13:24:43.899, 12, 0.00, 0.18, 97, -0.700, 2.600, -10.200, 1520, 100, 94, 15, 22087, -21607, 5178, 5339, 19, 14, 1529267083.899, 75, 0, 1024, 1024, 1024, 1024, 0, 6, 3661, 3660, 3656, 3722, 3765, 3692, 0, 1, 16000, -89.900, 0.000, -11.300, 0.000, 0.000, -3.000, 0.0, , , , , , 96, , , 57, 57, 57
37.2566394, -119.3807899, 31.200, 13:24:43.999, 12, 0.00, 0.18, 97, -0.800, 2.800, -10.200, 1520, 100, 94, 15, 22087, -21607, 5178, 5339, 19, 14, 1529267083.999, 47, 0, 1024, 1024, 1024, 1024, 0, 6, 3661, 3660, 3656, 3722, 3765, 3692, 0, 1, 16100, -89.900, 0.000, -11.300, 0.000, 0.000, -3.000, 0.0, , , , , , 96, , , 57, 57, 57
37.2566394, -119.3807899, 31.500, 13:24:44.099, 13, 0.00, 0.18, 97, -1.200, 2.700, -10.300, 1520, 100, 96, 15, 22087, -21607, 5178, 5339, 19, 14, 1529267084.099, 48, 0, 1024, 1024, 1024, 1024, 0, 6, 3661, 3660, 3656, 3722, 3765, 3692, 0, 1, 16200, -89.900, 0.000, -11.300, 0.000, 0.000, -3.000, 0.0, , , , , , 96, , , 57, 57, 57
37.2566395, -119.3807898, 31.800, 13:24:44.198, 13, 0.00, 0.18, 97, -1.400, 2.400, -10.500, 1520, 100, 96, 15, 22087, -21607, 5178, 5339, 19, 14, 1529267084.198, 50, 0, 1024, 1024, 1024, 1024, 0, 6, 3661, 3660, 3656, 3722, 3765, 3692, 0, 1, 16299, -90.000, 0.000, -11.300, 0.000, 0.000, -3.000, 0.0, , , , , , 96, , , 57, 57, 57
37.2566395, -119.3807897, 32.100, 13:24:44.299, 13, 0.00, 0.18, 97, -1.500, 2.000, -10.700, 1520, 100, 96, 15, 22087, -21607, 5178, 5339, 19, 14, 1529267084.299, 52, 0, 1024, 1024, 1024, 1024, 0, 6, 3661, 3660, 3656, 3722, 3765, 3692, 0, 1, 16400, -90.000, 0.000, -11.300, 0.000, 0.000, -3.000, 0.0, , , , , , 96, , , 57, 57, 57
37.2566395, -119.3807897, 32.400, 13:24:44.399, 13, 0.00, 0.18, 97, -1.900, 2.000, -11.000, 1520, 100, 96, 15, 22087, -21607, 5178, 5339, 19, 14, 1529267084.399, 12, 0, 1024, 1024, 1024, 1024, 0, 6, 3661, 3660, 3656, 3722, 3765, 3692, 0, 1, 16500, -90.000, 0.000, -11.300, 0.000, 0.000, -3.000, 0.0, , , , , , 96, , , 57, 57, 57
37.2566395, -119.3807896, 32.700, 13:24:44.499, 13, 0.00, 0.18, 97, -2.100, 2.000, -11.200, 1520, 100, 96, 15, 22124, -20799, 5125, 5339, 19, 14, 1529267084.499, 35, 0, 1024, 1024, 1024, 1024, 0, 6, 3660, 3671, 3666, 3728, 3730, 3664, 0, 1, 16600, -90.000, 0.000, -11.300, 0.000, 0.000, -3.000, 0.0, , , , , , 96, , , 57, 57, 57
37.2566394, -119.3807896, 33.300, 13:24:44.599, 13, 0.00, 0.17, 97, -1.400, 1.800, -11.300, 1520, 100, 94, 15, 22124, -20799, 5125, 5339, 19, 14, 1529267084.599, 25, 0, 1024, 1024, 1024, 1024, 0, 6, 3660, 3671, 3666, 3728, 3730, 3664, 0, 1, 16700, -90.000, 0.000, -11.300, 0.000, 0.000, -3.000, 0.0, , , , , , 96, , , 57, 57, 57
37.2566394, -119.3807895, 33.600, 13:24:44.698, 13, 0.00, 0.17, 97, -1.000, 1.200, -10.900, 1520, 100, 94, 15, 22124, -20799, 5125, 5339, 19, 14, 1529267084.698, 30, 0, 1024, 1024, 1024, 1024, 0, 6, 3660, 3671, 3666, 3728, 3730, 3664, 0, 1, 16799, -90.000, 0.000, -11.300, 0.000, 0.000, -3.000, 0.0, , , , , , 96, , , 57, 57, 57
37.2566394, -119.3807895, 33.900, 13:24:44.799, 13, 0.00, 0.16, 97, -1.100, 1.100, -10.500, 1520, 100, 94, 15, 22124, -20799, 5125, 5339, 19, 14, 1529267084.799, 19, 0, 1024, 1024, 1024, 1024, 0, 6, 3660, 3671, 3666, 3728, 3730, 3664, 0, 1, 16900, -90.000, 0.000, -11.300, 0.000, 0.000, -3.000, 0.0, , , , , , 96, , , 57, 57, 57
37.2566394, -119.3807895, 33.900, 13:24:44.899, 13, 0.00, 0.16, 97, -1.100, 1.100, -10.500, 1520, 100, 94, 15, 22124, -20799, 5125, 5339, 19, 14, 1529267084.899, 119, 0, 1024, 1024, 1024, 1024, 0, 6, 3660, 3671, 3666, 3728, 3730, 3664, 0, 1, 17000, -90.000, 0.000, -11.300, 0.000, 0.000, -3.000, 0.0, , , , , , 96, , , 57, 57, 57
37.2566393, -119.3807896, 34.500, 13:24:44.999, 13, 0.00, 0.16, 97, -1.200, 0.900, -9.800, 1520, 100, 94, 15, 22124, -20799, 5125, 5339, 19, 14, 1529267084.999, 13, 0, 1024, 1024, 1024, 1024, 0, 6, 3660, 3671, 3666, 3728, 3730, 3664, 0, 1, 17100, -90.000, 0.000, -11.300, 0.000, 0.000, -3.000, 0.0, , , , , , 96, , , 57, 57, 57
37.2566393, -119.3807896, 34.800, 13:24:45.101, 13, 0.00, 0.16, 97, -1.000, 1.100, -9.700, 1520, 100, 97, 15, 22124, -20799, 5125, 5339, 19, 14, 1529267085.101, 2, 0, 1024, 1024, 1024, 1024, 0, 6, 3660, 3671, 3666, 3728, 3730, 3664, 0, 1, 17202, -90.000, 0.000, -11.300, 0.000, 0.000, -3.000, 0.0, , , , , , 96, , , 57, 57, 57
37.2566393, -119.3807897, 35.100, 13:24:45.201, 13, 0.00, 0.16, 97, -0.700, 1.500, -9.800, 1520, 100, 97, 15, 22124, -20799, 5125, 5339, 19, 14, 1529267085.201, 6, 0, 1024, 1024, 1024, 1024, 0, 6, 3660, 3671, 3666, 3728, 3730, 3664, 0, 1, 17303, -89.900, 0.000, -11.300, 0.000, 0.000, -3.000, 0.0, , , , , , 96, , , 57, 57, 57
37.2566393, -119.3807897, 35.400, 13:24:45.314, 13, 0.00, 0.16, 97, -0.400, 1.900, -10.200, 1520, 100, 97, 15, 22124, -20799, 5125, 5339, 19, 14, 1529267085.315, 2, 0, 1024, 1024, 1024, 1024, 0, 6, 3660, 3671, 3666, 3728, 3730, 3664, 0, 1, 17416, -89.900, 0.000, -11.300, 0.000, 0.000, -3.000, 0.0, , , , , , 96, , , 57, 57, 57
37.2566393, -119.3807897, 35.400, 13:24:45.399, 13, 0.00, 0.16, 97, -0.400, 1.900, -10.200, 1520, 100, 97, 15, 22124, -20799, 5125, 5339, 19, 14, 1529267085.399, 86, 0, 1024, 1024, 1024, 1024, 0, 6, 3660, 3671, 3666, 3728, 3730, 3664, 0, 1, 17500, -89.900, 0.000, -11.300, 0.000, 0.000, -3.000, 0.0, , , , , , 96, , , 57, 57, 57
37.2566393, -119.3807897, 35.700, 13:24:45.499, 13, 0.00, 0.16, 97, -0.800, 1.800, -10.600, 1520, 100, 97, 15, 22124, -20799, 5125, 5339, 19, 14, 1529267085.499, 79, 0, 1024, 1024, 1024, 1024, 0, 6, 3660, 3671, 3666, 3728, 3730, 3664, 0, 1, 17600, -90.000, 0.000, -11.300, 0.000, 0.000, -3.000, 0.0, , , , , , 96, , , 57, 57, 57
37.2566393, -119.3807897, 36.000, 13:24:45.599, 13, 0.00, 0.16, 96, -1.300, 1.500, -11.100, 1520, 100, 96, 15, 22164, -20123, 5125, 5339, 19, 14, 1529267085.599, 82, 0, 1024, 1024, 1024, 1024, 0, 6, 3672, 3672, 3674, 3733, 3736, 3672, 0, 1, 17700, -90.000, 0.000, -11.300, 0.000, 0.000, -3.000, 0.0, , , , , , 96, , , 57, 57, 57
37.2566393, -119.3807896, 36.300, 13:24:45.698, 13, 0.00, 0.16, 96, -1.900, 1.300, -11.700, 1520, 100, 96, 15, 22164, -20123, 5125, 5339, 19, 14, 1529267085.698, 85, 0, 1024, 1024, 1024, 1024, 0, 6, 3672, 3672, 3674, 3733, 3736, 3672, 0, 1, 17799, -90.000, 0.000, -11.300, 0.000, 0.000, -3.000, 0.0, , , , , , 96, , , 57, 57, 57
37.2566392, -119.3807896, 36.600, 13:24:45.799, 13, 0.00, 0.15, 96, -1.900, 1.100, -12.000, 1520, 100, 96, 15, 22164, -20123, 5125, 5339, 19, 14, 1529267085.799, 86, 0, 1024, 1024, 1024, 1024, 0, 6, 3672, 3672, 3674, 3733, 3736, 3672, 0, 1, 17900, -90.000, 0.000, -11.300, 0.000, 0.000, -3.000, 0.0, , , , , , 96, , , 57, 57, 57
37.2566392, -119.3807896, 37.000, 13:24:45.899, 13, 0.00, 0.15, 96, -1.600, 1.100, -11.800, 1520, 100, 96, 15, 22164, -20123, 5125, 5339, 19, 14, 1529267085.899, 59, 0, 1024, 1024, 1024, 1024, 0, 6, 3672, 3672, 3674, 3733, 3736, 3672, 0, 1, 18000, -90.000, 0.000, -11.300, 0.000, 0.000, -3.100, 0.0, , , , , , 96, , , 57, 57, 57
37.2566392, -119.3807896, 37.300, 13:24:45.999, 13, 0.00, 0.15, 96, -1.400, 1.000, -11.200, 1520, 100, 96, 15, 22164, -20123, 5125, 5339, 19, 14, 1529267085.999, 66, 0, 1024, 1024, 1024, 1024, 0, 6, 3672, 3672, 3674, 3733, 3736, 3672, 0, 1, 18100, -90.000, 0.000, -11.300, 0.000, 0.000, -3.000, 0.0, , , , , , 96, , , 57, 57, 57
37.2566392, -119.3807895, 37.600, 13:24:46.099, 13, 0.00, 0.15, 96, -1.300, 1.100, -10.400, 1520, 100, 98, 15, 22164, -20123, 5125, 5339, 19, 14, 1529267086.099, 72, 0, 1024, 1024, 1024, 1024, 0, 6, 3672, 3672, 3674, 3733, 3736, 3672, 0, 1, 18200, -90.000, 0.000, -11.300, 0.000, 0.000, -2.900, 0.0, , , , , , 96, , , 57, 57, 57
37.2566392, -119.3807895, 37.900, 13:24:46.198, 13, 0.00, 0.15, 96, -1.600, 1.100, -9.600, 1520, 100, 98, 15, 22164, -20123, 5125, 5339, 19, 14, 1529267086.198, 50, 0, 1024, 1024, 1024, 1024, 0, 6, 3672, 3672, 3674, 3733, 3736, 3672, 0, 1, 18299, -90.000, 0.000, -11.300, 0.000, 0.000, -2.900, 0.0, , , , , , 96, , , 57, 57, 57
37.2566392, -119.3807894, 38.200, 13:24:46.299, 13, 0.00, 0.15, 96, -1.700, 1.400, -8.900, 1520, 100, 98, 15, 22164, -20123, 5125, 5339, 19, 14, 1529267086.299, 41, 0, 1024, 1024, 1024, 1024, 0, 6, 3672, 3672, 3674, 3733, 3736, 3672, 0, 1, 18400, -89.900, 0.000, -11.300, 0.000, 0.000, -2.900, 0.0, , , , , , 96, , , 57, 57, 57
37.2566393, -119.3807894, 38.500, 13:24:46.399, 13, 0.00, 0.15, 96, -1.800, 1.600, -8.600, 1520, 100, 98, 15, 22164, -20123, 5125, 5339, 19, 14, 1529267086.399, 32, 0, 1024, 1024, 1024, 1024, 0, 6, 3672, 3672, 3674, 3733, 3736, 3672, 0, 1, 18500, -89.900, 0.000, -11.300, 0.000, 0.000, -2.900, 0.0, , , , , , 96, , , 57, 57, 57
37.2566393, -119.3807894, 38.700, 13:24:46.499, 13, 0.00, 0.15, 96, -1.900, 1.800, -8.600, 1520, 100, 98, 15, 22234, -19264, 5125, 5339, 19, 14, 1529267086.499, 60, 0, 1024, 1024, 1024, 1024, 0, 6, 3689, 3692, 3685, 3746, 3749, 3681, 0, 1, 18600, -89.900, 0.000, -11.300, 0.000, 0.000, -2.900, 0.0, , , , , , 96, , , 57, 57, 57
37.2566393, -119.3807894, 39.000, 13:24:46.599, 13, 0.00, 0.15, 96, -2.300, 1.900, -8.900, 1520, 100, 99, 15, 22234, -19264, 5125, 5339, 19, 14, 1529267086.599, 26, 0, 1024, 1024, 1024, 1024, 0, 6, 3689, 3692, 3685, 3746, 3749, 3681, 0, 1, 18700, -89.900, 0.000, -11.300, 0.000, 0.000, -2.900, 0.0, , , , , , 96, , , 57, 57, 57
37.2566393, -119.3807894, 39.300, 13:24:46.698, 13, 0.00, 0.16, 96, -2.300, 2.200, -9.300, 1520, 100, 99, 15, 22234, -19264, 5125, 5339, 19, 14, 1529267086.698, 37, 0, 1024, 1024, 1024, 1024, 0, 6, 3689, 3692, 3685, 3746, 3749, 3681, 0, 1, 18799, -89.900, 0.000, -11.300, 0.000, 0.000, -2.900, 0.0, , , , , , 96, , , 57, 57, 57
37.2566394, -119.3807895, 39.600, 13:24:46.799, 13, 0.00, 0.16, 96, -1.600, 2.100, -9.700, 1520, 100, 99, 15, 22234, -19264, 5125, 5339, 19, 14, 1529267086.799, 32, 0, 1024, 1024, 1024, 1024, 0, 6, 3689, 3692, 3685, 3746, 3749, 3681, 0, 1, 18900, -89.900, 0.000, -11.300, 0.000, 0.000, -2.900, 0.0, , , , , , 96, , , 57, 57, 57
37.2566394, -119.3807895, 39.900, 13:24:46.899, 13, 0.00, 0.17, 96, -1.300, 2.200, -10.200, 1520, 100, 99, 15, 22234, -19264, 5125, 5339, 19, 14, 1529267086.899, 35, 0, 1024, 1024, 1024, 1024, 0, 6, 3689, 3692, 3685, 3746, 3749, 3681, 0, 1, 19000, -89.900, 0.000, -11.300, 0.000, 0.000, -2.900, 0.0, , , , , , 96, , , 57, 57, 57
37.2566394, -119.3807896, 40.200, 13:24:46.999, 13, 0.00, 0.17, 96, -1.300, 2.400, -10.500, 1520, 100, 99, 15, 22234, -19264, 5125, 5339, 19, 14, 1529267086.999, 39, 0, 1024, 1024, 1024, 1024, 0, 6, 3689, 3692, 3685, 3746, 3749, 3681, 0, 1, 19100, -89.900, 0.000, -11.300, 0.000, 0.000, -2.900, 0.0, , , , , , 96, , , 57, 57, 57
37.2566395, -119.3807894, 40.800, 13:24:47.099, 13, 0.00, 0.17, 96, -1.600, 2.300, -10.900, 1520, 100, 98, 15, 22234, -19264, 5125, 5339, 19, 14, 1529267087.099, 25, 0, 1024, 1024, 1024, 1024, 0, 6, 3689, 3692, 3685, 3746, 3749, 3681, 0, 1, 19200, -89.900, 0.000, -11.300, 0.000, 0.000, -2.800, 0.0, , , , , , 96, , , 57, 57, 57
37.2566395, -119.3807894, 41.100, 13:24:47.198, 13, 0.00, 0.17, 96, -2.100, 2.100, -10.900, 1520, 100, 98, 15, 22234, -19264, 5125, 5339, 19, 14, 1529267087.198, 33, 0, 1024, 1024, 1024, 1024, 0, 6, 3689, 3692, 3685, 3746, 3749, 3681, 0, 1, 19299, -89.900, 0.000, -11.300, 0.000, 0.000, -2.800, 0.0, , , , , , 96, , , 57, 57, 57
37.2566395, -119.3807893, 41.300, 13:24:47.298, 13, 0.00, 0.17, 96, -2.500, 1.900, -10.800, 1520, 100, 98, 15, 22234, -19264, 5125, 5339, 19, 14, 1529267087.299, 17, 0, 1024, 1024, 1024, 1024, 0, 6, 3689, 3692, 3685, 3746, 3749, 3681, 0, 1, 19400, -90.000, 0.000, -11.300, 0.000, 0.000, -2.800, 0.0, , , , , , 96, , , 57, 57, 57
37.2566396, -119.3807893, 41.600, 13:24:47.399, 13, 0.00, 0.17, 96, -2.600, 1.900, -10.600, 1520, 100, 98, 15, 22234, -19264, 5125, 5339, 19, 14, 1529267087.399, 7, 0, 1024, 1024, 1024, 1024, 0, 6, 3689, 3692, 3685, 3746, 3749, 3681, 0, 1, 19500, -90.000, 0.000, -11.300, 0.000, 0.000, -2.800, 0.0, , , , , , 96, , , 57, 57, 57
37.2566396, -119.3807892, 41.900, 13:24:47.499, 13, 0.00, 0.17, 96, -2.600, 2.000, -10.500, 1520, 100, 97, 15, 22243, -19088, 5125, 5339, 19, 14, 1529267087.499, 20, 0, 1024, 1024, 1024, 1024, 0, 6, 3689, 3692, 3685, 3746, 3749, 3681, 0, 1, 19600, -89.900, 0.000, -11.300, 0.000, 0.000, -2.800, 0.0, , , , , , 96, , , 57, 57, 57
37.2566396, -119.3807892, 41.900, 13:24:47.599, 13, 0.00, 0.17, 96, -2.600, 2.000, -10.500, 1520, 100, 97, 15, 22243, -19088, 5125, 5339, 19, 14, 1529267087.599, 119, 0, 1024, 1024, 1024, 1024, 0, 6, 3689, 3692, 3685, 3746, 3749, 3681, 0, 1, 19700, -89.900, 0.000, -11.300, 0.000, 0.000, -2.800, 0.0, , , , , , 96, , , 57, 57, 57
37.2566396, -119.3807892, 42.500, 13:24:47.699, 13, 0.00, 0.17, 96, -2.400, 2.200, -10.200, 1520, 100, 97, 15, 22243, -19088, 5125, 5339, 19, 14, 1529267087.699, 2, 0, 1024, 1024, 1024, 1024, 0, 6, 3689, 3692, 3685, 3746, 3749, 3681, 0, 1, 19800, -89.900, 0.000, -11.300, 0.000, 0.000, -2.900, 0.0, , , , , , 96, , , 57, 57, 57
37.2566396, -119.3807892, 42.800, 13:24:47.799, 13, 0.00, 0.18, 96, -2.400, 2.200, -10.100, 1520, 100, 97, 15, 22243, -19088, 5125, 5339, 19, 14, 1529267087.799, 2, 0, 1024, 1024, 1024, 1024, 0, 6, 3689, 3692, 3685, 3746, 3749, 3681, 0, 1, 19900, -89.900, 0.000, -11.300, 0.000, 0.000, -2.900, 0.0, , , , , , 96, , , 57, 57, 57
37.2566396, -119.3807892, 42.800, 13:24:47.899, 13, 0.00, 0.18, 96, -2.400, 2.200, -10.100, 1520, 100, 97, 15, 22243, -19088, 5125, 5339, 19, 14, 1529267087.899, 102, 0, 1024, 1024, 1024, 1024, 0, 6, 3689, 3692, 3685, 3746, 3749, 3681, 0, 1, 20000, -89.900, 0.000, -11.300, 0.000, 0.000, -2.900, 0.0, , , , , , 96, , , 57, 57, 57
37.2566397, -119.3807892, 43.100, 13:24:47.999, 13, 0.00, 0.18, 96, -2.200, 2.400, -10.100, 1520, 100, 97, 15, 22243, -19088, 5125, 5339, 19, 14, 1529267087.999, 82, 0, 1024, 1024, 1024, 1024, 0, 6, 3689, 3692, 3685, 3746, 3749, 3681, 0, 1, 20100, -89.900, 0.000, -11.300, 0.000, 0.000, -3.000, 0.0, , , , , , 96, , , 57, 57, 57
37.2566397, -119.3807892, 43.400, 13:24:48.099, 13, 0.00, 0.19, 96, -1.900, 2.600, -10.200, 1520, 100, 97, 15, 22243, -19088, 5125, 5339, 19, 14, 1529267088.099, 72, 0, 1024, 1024, 1024, 1024, 0, 6, 3686, 3676, 3681, 3733, 3742, 3674, 0, 1, 20200, -89.900, 0.000, -11.300, 0.000, 0.000, -3.000, 0.0, , , , , , 96, , , 57, 57, 57
37.2566397, -119.3807892, 43.700, 13:24:48.198, 13, 0.00, 0.19, 96, -1.800, 2.700, -10.300, 1520, 100, 97, 15, 22243, -19088, 5125, 5339, 19, 14, 1529267088.198, 74, 0, 1024, 1024, 1024, 1024, 0, 6, 3686, 3676, 3681, 3733, 3742, 3674, 0, 1, 20300, -89.900, 0.000, -11.300, 0.000, 0.000, -3.000, 0.0, , , , , , 96, , , 57, 57, 57
37.2566397, -119.3807892, 44.000, 13:24:48.299, 13, 0.00, 0.19, 96, -2.100, 2.700, -10.400, 1520, 100, 97, 15, 22243, -19088, 5125, 5339, 19, 14, 1529267088.299, 66, 0, 1024, 1024, 1024, 1024, 0, 6, 3686, 3676, 3681, 3733, 3742, 3674, 0, 1, 20400, -89.900, 0.000, -11.300, 0.000, 0.000, -3.000, 0.0, , , , , , 96, , , 57, 57, 57
37.2566397, -119.3807892, 44.000, 13:24:48.399, 13, 0.00, 0.19, 96, -2.100, 2.700, -10.400, 1520, 100, 97, 15, 22243, -19088, 5125, 5339, 19, 14, 1529267088.399, 167, 0, 1024, 1024, 1024, 1024, 0, 6, 3686, 3676, 3681, 3733, 3742, 3674, 0, 1, 20500, -89.900, 0.000, -11.200, 0.000, 0.000, -3.000, 0.0, , , , , , 96, , , 57, 57, 57
37.2566398, -119.3807891, 44.600, 13:24:48.499, 13, 0.00, 0.19, 96, -2.700, 2.500, -10.600, 1520, 100, 97, 16, 22243, -19088, 5125, 5339, 19, 14, 1529267088.499, 67, 0, 1024, 1024, 1024, 1024, 0, 6, 3686, 3676, 3681, 3733, 3742, 3674, 0, 1, 20600, -89.900, 0.000, -11.200, 0.000, 0.000, -3.000, 0.0, , , , , , 96, , , 57, 57, 57
37.2566398, -119.3807891, 44.800, 13:24:48.599, 13, 0.00, 0.19, 96, -2.800, 2.400, -10.600, 1520, 100, 97, 16, 22243, -19088, 5125, 5339, 19, 14, 1529267088.599, 68, 0, 1024, 1024, 1024, 1024, 0, 6, 3686, 3676, 3681, 3733, 3742, 3674, 0, 1, 20700, -89.900, 0.000, -11.300, 0.000, 0.000, -3.000, 0.0, , , , , , 96, , , 57, 57, 57
37.2566398, -119.3807891, 45.100, 13:24:48.698, 13, 0.00, 0.19, 96, -2.600, 2.400, -10.500, 1520, 100, 97, 16, 22243, -19088, 5125, 5339, 19, 14, 1529267088.699, 57, 0, 1024, 1024, 1024, 1024, 0, 6, 3686, 3676, 3681, 3733, 3742, 3674, 0, 1, 20800, -89.900, 0.000, -11.300, 0.000, 0.000, -3.000, 0.0, , , , , , 96, , , 57, 57, 57
37.2566398, -119.3807891, 45.400, 13:24:48.799, 13, 0.00, 0.19, 96, -2.500, 2.400, -10.400, 1520, 100, 97, 16, 22243, -19088, 5125, 5339, 19, 14, 1529267088.799, 62, 0, 1024, 1024, 1024, 1024, 0, 6, 3686, 3676, 3681, 3733, 3742, 3674, 0, 1, 20900, -89.900, 0.000, -11.300, 0.000, 0.000, -3.000, 0.0, , , , , , 96, , , 57, 57, 57
