Latitude, Longitude, Altitude (m), Time, Sats, Speed (m/s), Range (m), Battery (%), Roll (deg), Pitch (deg), Yaw (deg), Images, HD Signal (%), RC Signal (%), Battery Temp (C), Battery Voltage (mV), Battery Current (mA), Battery Energy (mAh), Battery Capacity (mAh), Battery Discharges, flyState, timestamp (Unix), LastUpdate (ms), radioChannel, Rc_elevator, Rc_aileron, Rc_throttle, Rc_rudder, Rc_gyro, Dronetype, Battery_Cell1 (mV), Battery_Cell2 (mV), Battery_Cell3 (mV), Battery_Cell4 (mV), Battery_Cell5 (mV), Battery_Cell6 (mV), Video, isFlying, elapsedTime (ms), gimbalPitch (deg), gimbalRoll (deg), gimbalYaw (deg), VelocityX (m/s), VelocityY (m/s), VelocityZ (m/s), GroundSmear (cm), App Version, Aircraft Name, Aircraft Firmware, Aircraft Serial Number, Battery Serial Number, Battery Lifetime (%), App_Tip, App_Warning, CurrentFlightStartingIndex, CurrentFlightLastVisitedWaypoint, PreviousFlightEndingWaypointIndex
37.7783113, -120.1185151, 0.000, 11:33:00.682, 18, 0.10, 0.09, 98, 1.100, 1.000, -92.800, 405, 100, 100, 29, 25627, -3675, 5343, 5453, 13, 11, 1526322780.683, 75, 0, 1024, 1024, 1024, 1024, 0, 6, 4308, 4173, 4308, 4291, 4219, 4267, 0, 1, 2678, -89.900, 0.000, -93.100, 0.100, 0.000, -0.300, 0.0, MapPilot_2.8.1_04242018, Dendroctonus I, 1.3.1.00, 041DDC1887, 1058163200627, 97, Photo, Starting Mission from Lat/Long: 37.77831/-120.11851 Camera: Zenmuse X3 - Overlap: 90/90 - Active Connection: No, 17, 17, 17
37.7783113, -120.1185151, 0.000, 11:33:00.705, 18, 0.10, 0.09, 98, 1.100, 1.000, -92.800, 405, 100, 100, 29, 25627, -3675, 5343, 5453, 13, 11, 1526322780.706, 98, 0, 1024, 1024, 1024, 1024, 0, 6, 4308, 4173, 4308, 4291, 4219, 4267, 0, 1, 2701, -90.000, 0.000, -93.200, 0.100, 0.000, -0.300, 0.0, , , , , , 97, , , 17, 17, 17
37.7783113, -120.1185151, 0.000, 11:33:00.805, 18, 0.10, 0.09, 98, 1.100, 1.000, -92.800, 405, 100, 100, 29, 25627, -3675, 5343, 5453, 13, 11, 1526322780.806, 198, 0, 1024, 1024, 1024, 1024, 0, 6, 4308, 4173, 4308, 4291, 4219, 4267, 0, 1, 2801, -90.000, 0.000, -93.200, 0.100, 0.000, -0.300, 0.0, , , , , , 97, , , 17, 17, 17
37.7783115, -120.1185150, 0.000, 11:33:00.905, 18, 0.10, 0.10, 98, 0.400, 0.300, -92.800, 405, 100, 100, 29, 25627, -3675, 5343, 5453, 13, 11, 1526322780.906, 91, 0, 1024, 1024, 1024, 1024, 0, 6, 4308, 4173, 4308, 4291, 4219, 4267, 0, 1, 2901, -90.000, 0.000, -93.100, 0.100, 0.000, -0.300, 0.0, , , , , , 97, , , 17, 17, 17
37.7783116, -120.1185149, 0.000, 11:33:01.005, 18, 0.10, 0.12, 98, -0.200, -0.100, -92.900, 405, 100, 100, 29, 25627, -3675, 5343, 5453, 13, 11, 1526322781.006, 89, 0, 1024, 1024, 1024, 1024, 0, 6, 4308, 4173, 4308, 4291, 4219, 4267, 0, 1, 3001, -90.000, 0.000, -93.100, 0.100, 0.000, -0.300, 0.0, , , , , , 97, , , 17, 17, 17
37.7783120, -120.1185147, 0.100, 11:33:01.108, 18, 0.10, 0.16, 98, -1.200, -0.900, -93.200, 405, 100, 100, 29, 25627, -3675, 5343, 5453, 13, 11, 1526322781.108, 17, 0, 1024, 1024, 1024, 1024, 0, 6, 4308, 4173, 4308, 4291, 4219, 4267, 0, 1, 3103, -90.000, 0.000, -93.200, 0.100, 0.000, -0.400, 0.0, , , , , , 97, , , 17, 17, 17
37.7783120, -120.1185147, 0.100, 11:33:01.206, 18, 0.10, 0.16, 98, -1.200, -0.900, -93.200, 405, 100, 100, 29, 25627, -3675, 5343, 5453, 13, 11, 1526322781.206, 115, 0, 1024, 1024, 1024, 1024, 0, 6, 4308, 4173, 4308, 4291, 4219, 4267, 0, 1, 3201, -90.000, 0.000, -93.100, 0.100, 0.000, -0.400, 0.0, , , , , , 97, , , 17, 17, 17
37.7783121, -120.1185146, 0.200, 11:33:01.306, 19, 0.10, 0.18, 98, -1.300, -0.900, -93.400, 405, 100, 100, 29, 25615, -4347, 5343, 5453, 13, 11, 1526322781.307, 74, 0, 1024, 1024, 1024, 1024, 0, 6, 4308, 4173, 4308, 4291, 4219, 4267, 0, 1, 3301, -89.900, 0.000, -93.100, 0.100, 0.000, -0.400, 0.0, , , , , , 97, , , 17, 17, 17
37.7783125, -120.1185146, 0.300, 11:33:01.419, 18, 0.10, 0.23, 98, -1.100, -0.300, -93.600, 405, 100, 100, 29, 25615, -4347, 5343, 5453, 13, 11, 1526322781.420, 25, 0, 1024, 1024, 1024, 1024, 0, 6, 4243, 4241, 4229, 4250, 4243, 4241, 0, 1, 3415, -89.900, 0.000, -93.100, 0.100, 0.000, -0.400, 0.0, , , , , , 97, , , 17, 17, 17
37.7783125, -120.1185146, 0.300, 11:33:01.506, 18, 0.10, 0.23, 98, -1.100, -0.300, -93.600, 405, 100, 100, 29, 25615, -4347, 5343, 5453, 13, 11, 1526322781.507, 111, 0, 1024, 1024, 1024, 1024, 0, 6, 4243, 4241, 4229, 4250, 4243, 4241, 0, 1, 3502, -89.900, 0.000, -93.200, 0.100, 0.000, -0.400, 0.0, , , , , , 97, , , 17, 17, 17
37.7783126, -120.1185146, 0.300, 11:33:01.606, 19, 0.00, 0.24, 98, -1.300, -0.200, -93.600, 405, 100, 100, 29, 25615, -4347, 5343, 5453, 13, 11, 1526322781.606, 66, 0, 1024, 1024, 1024, 1024, 0, 6, 4243, 4241, 4229, 4250, 4243, 4241, 0, 1, 3601, -89.900, 0.000, -93.200, 0.000, 0.000, -0.400, 0.0, , , , , , 97, , , 17, 17, 17
37.7783128, -120.1185145, 0.400, 11:33:01.706, 20, 0.00, 0.26, 98, -1.400, -0.300, -93.600, 405, 100, 100, 29, 25615, -4347, 5343, 5453, 13, 11, 1526322781.707, 33, 0, 1024, 1024, 1024, 1024, 0, 6, 4243, 4241, 4229, 4250, 4243, 4241, 0, 1, 3702, -89.900, 0.000, -93.100, 0.000, 0.000, -0.400, 0.0, , , , , , 97, , , 17, 17, 17
37.7783129, -120.1185145, 0.500, 11:33:01.806, 20, 0.00, 0.27, 98, -1.300, -0.500, -93.600, 405, 100, 100, 29, 25615, -4347, 5343, 5453, 13, 11, 1526322781.806, 42, 0, 1024, 1024, 1024, 1024, 0, 6, 4243, 4241, 4229, 4250, 4243, 4241, 0, 1, 3801, -90.000, 0.000, -93.200, 0.000, 0.000, -0.400, 0.0, , , , , , 97, , , 17, 17, 17
37.7783129, -120.1185145, 0.500, 11:33:01.906, 20, 0.00, 0.27, 98, -1.300, -0.600, -93.600, 405, 100, 100, 29, 25615, -4347, 5343, 5453, 13, 11, 1526322781.907, 31, 0, 1024, 1024, 1024, 1024, 0, 6, 4243, 4241, 4229, 4250, 4243, 4241, 0, 1, 3902, -89.900, 0.000, -93.100, 0.000, 0.000, -0.500, 0.0, , , , , , 97, , , 17, 17, 17
37.7783129, -120.1185145, 0.500, 11:33:02.006, 20, 0.00, 0.27, 98, -1.300, -0.600, -93.600, 405, 100, 100, 29, 25615, -4347, 5343, 5453, 13, 11, 1526322782.006, 130, 0, 1024, 1024, 1024, 1024, 0, 6, 4243, 4241, 4229, 4250, 4243, 4241, 0, 1, 4001, -89.900, 0.000, -93.100, 0.000, 0.000, -0.500, 0.0, , , , , , 97, , , 17, 17, 17
37.7783129, -120.1185145, 0.500, 11:33:02.106, 20, 0.00, 0.27, 98, -1.300, -0.600, -93.600, 405, 100, 100, 29, 25615, -4347, 5343, 5453, 13, 11, 1526322782.107, 231, 0, 1024, 1024, 1024, 1024, 0, 6, 4243, 4241, 4229, 4250, 4243, 4241, 0, 1, 4102, -89.900, 0.000, -93.100, 0.000, 0.000, -0.500, 0.0, , , , , , 97, , , 17, 17, 17
37.7783130, -120.1185145, 0.600, 11:33:02.206, 20, 0.00, 0.28, 98, -1.100, -0.400, -93.400, 405, 100, 100, 29, 24690, -14739, 5343, 5453, 13, 11, 1526322782.206, 49, 0, 1024, 1024, 1024, 1024, 0, 6, 4243, 4241, 4229, 4250, 4243, 4241, 0, 1, 4201, -89.900, 0.000, -93.100, 0.000, 0.000, -0.500, 0.0, , , , , , 97, , , 17, 17, 17
37.7783130, -120.1185144, 0.700, 11:33:02.309, 20, 0.00, 0.28, 98, -1.000, -0.300, -93.300, 405, 100, 100, 29, 24690, -14739, 5343, 5453, 13, 11, 1526322782.311, 21, 0, 1024, 1024, 1024, 1024, 0, 6, 4095, 4105, 4107, 4114, 4116, 4107, 0, 1, 4306, -89.900, 0.000, -93.100, 0.000, 0.000, -0.500, 0.0, , , , , , 97, , , 17, 17, 17
37.7783130, -120.1185144, 0.700, 11:33:02.405, 20, 0.00, 0.28, 98, -0.900, -0.200, -93.100, 405, 100, 100, 29, 24690, -14739, 5343, 5453, 13, 11, 1526322782.406, 13, 0, 1024, 1024, 1024, 1024, 0, 6, 4095, 4105, 4107, 4114, 4116, 4107, 0, 1, 4400, -89.900, 0.000, -93.100, 0.000, 0.000, -0.500, 0.0, , , , , , 97, , , 17, 17, 17
37.7783130, -120.1185144, 0.700, 11:33:02.506, 20, 0.00, 0.28, 98, -0.900, -0.200, -93.100, 405, 100, 100, 29, 24690, -14739, 5343, 5453, 13, 11, 1526322782.506, 114, 0, 1024, 1024, 1024, 1024, 0, 6, 4095, 4105, 4107, 4114, 4116, 4107, 0, 1, 4501, -89.900, 0.000, -93.100, 0.000, 0.000, -0.500, 0.0, , , , , , 97, , , 17, 17, 17
37.7783130, -120.1185144, 0.900, 11:33:02.606, 20, 0.00, 0.28, 98, -0.400, -0.600, -92.900, 405, 100, 100, 29, 24690, -14739, 5343, 5453, 13, 14, 1526322782.606, 28, 0, 1024, 1024, 1024, 1024, 0, 6, 4095, 4105, 4107, 4114, 4116, 4107, 0, 1, 4601, -89.900, 0.000, -93.100, 0.000, 0.000, -0.500, 0.0, , , , , , 97, , , 17, 17, 17
37.7783129, -120.1185143, 0.900, 11:33:02.739, 20, 0.00, 0.27, 98, 0.000, -0.700, -92.900, 405, 100, 100, 29, 24690, -14739, 5343, 5453, 13, 14, 1526322782.740, 8, 0, 1024, 1024, 1024, 1024, 0, 6, 4095, 4105, 4107, 4114, 4116, 4107, 0, 1, 4735, -89.900, 0.000, -93.100, 0.000, 0.000, -0.300, 0.0, , , , , , 97, , , 17, 17, 17
37.7783129, -120.1185143, 0.900, 11:33:02.806, 20, 0.00, 0.27, 98, 0.000, -0.700, -92.900, 405, 100, 100, 29, 24690, -14739, 5343, 5453, 13, 14, 1526322782.807, 75, 0, 1024, 1024, 1024, 1024, 0, 6, 4095, 4105, 4107, 4114, 4116, 4107, 0, 1, 4802, -89.900, 0.000, -93.100, 0.000, 0.000, -0.300, 0.0, , , , , , 97, , , 17, 17, 17
37.7783128, -120.1185143, 1.000, 11:33:02.906, 20, 0.00, 0.26, 98, 0.800, -0.600, -92.900, 405, 100, 100, 29, 24690, -14739, 5343, 5453, 13, 14, 1526322782.906, 81, 0, 1024, 1024, 1024, 1024, 0, 6, 4095, 4105, 4107, 4114, 4116, 4107, 0, 1, 4901, -89.900, 0.000, -93.100, 0.000, 0.000, -0.200, 0.0, , , , , , 97, , , 17, 17, 17
37.7783128, -120.1185142, 1.000, 11:33:03.005, 20, 0.00, 0.26, 98, 1.100, -0.400, -92.900, 405, 100, 100, 29, 24690, -14739, 5343, 5453, 13, 14, 1526322783.006, 39, 0, 1024, 1024, 1024, 1024, 0, 6, 4095, 4105, 4107, 4114, 4116, 4107, 0, 1, 5001, -89.900, 0.000, -93.100, 0.000, 0.000, -0.200, 0.0, , , , , , 97, , , 17, 17, 17
37.7783128, -120.1185142, 1.000, 11:33:03.106, 20, 0.00, 0.26, 98, 1.100, -0.400, -92.900, 405, 100, 100, 29, 24690, -14739, 5343, 5453, 13, 14, 1526322783.107, 140, 0, 1024, 1024, 1024, 1024, 0, 6, 4095, 4105, 4107, 4114, 4116, 4107, 0, 1, 5102, -89.900, 0.000, -93.100, 0.000, 0.000, -0.200, 0.0, , , , , , 97, , , 17, 17, 17
37.7783128, -120.1185142, 1.000, 11:33:03.206, 20, 0.00, 0.26, 98, 1.000, -0.400, -92.900, 405, 100, 100, 29, 24690, -14739, 5343, 5453, 13, 14, 1526322783.207, 16, 0, 1024, 1024, 1024, 1024, 0, 6, 4095, 4105, 4107, 4114, 4116, 4107, 0, 1, 5201, -89.900, 0.000, -93.100, 0.000, 0.000, -0.300, 0.0, , , , , , 97, , , 17, 17, 17
37.7783127, -120.1185143, 1.100, 11:33:03.306, 20, 0.00, 0.26, 98, 0.800, -0.400, -93.000, 405, 100, 100, 29, 24412, -16496, 5343, 5453, 13, 14, 1526322783.307, 51, 0, 1024, 1024, 1024, 1024, 0, 6, 4053, 4062, 4072, 4078, 4089, 4060, 0, 1, 5301, -89.900, 0.000, -93.100, 0.000, 0.000, -0.400, 0.0, , , , , , 97, , , 17, 17, 17
37.7783127, -120.1185143, 1.100, 11:33:03.406, 20, 0.00, 0.26, 98, 0.600, -0.400, -93.100, 405, 100, 100, 29, 24412, -16496, 5343, 5453, 13, 14, 1526322783.406, 46, 0, 1024, 1024, 1024, 1024, 0, 6, 4053, 4062, 4072, 4078, 4089, 4060, 0, 1, 5401, -89.900, 0.000, -93.100, 0.000, 0.000, -0.600, 0.0, , , , , , 97, , , 17, 17, 17
37.7783127, -120.1185143, 1.200, 11:33:03.506, 20, 0.00, 0.26, 98, 0.400, -0.300, -93.100, 405, 100, 100, 29, 24412, -16496, 5343, 5453, 13, 14, 1526322783.507, 93, 0, 1024, 1024, 1024, 1024, 0, 6, 4053, 4062, 4072, 4078, 4089, 4060, 0, 1, 5501, -89.900, 0.000, -93.100, 0.000, 0.000, -0.800, 0.0, , , , , , 97, , , 17, 17, 17
37.7783128, -120.1185143, 1.400, 11:33:03.606, 20, 0.00, 0.26, 98, 0.100, -0.400, -93.200, 405, 100, 100, 29, 24412, -16496, 5343, 5453, 13, 14, 1526322783.607, 30, 0, 1024, 1024, 1024, 1024, 0, 6, 4053, 4062, 4072, 4078, 4089, 4060, 0, 1, 5601, -89.900, 0.000, -93.100, 0.000, 0.000, -1.100, 0.0, , , , , , 97, , , 17, 17, 17
37.7783128, -120.1185143, 1.500, 11:33:03.705, 20, 0.00, 0.26, 98, 0.100, -0.300, -93.300, 405, 100, 100, 29, 24412, -16496, 5343, 5453, 13, 14, 1526322783.706, 71, 0, 1024, 1024, 1024, 1024, 0, 6, 4053, 4062, 4072, 4078, 4089, 4060, 0, 1, 5701, -89.900, 0.000, -93.100, 0.000, 0.000, -1.400, 0.0, , , , , , 97, , , 17, 17, 17
37.7783128, -120.1185143, 1.500, 11:33:03.806, 20, 0.00, 0.26, 98, 0.100, -0.300, -93.300, 405, 100, 100, 29, 24412, -16496, 5343, 5453, 13, 14, 1526322783.807, 172, 0, 1024, 1024, 1024, 1024, 0, 6, 4053, 4062, 4072, 4078, 4089, 4060, 0, 1, 5802, -89.900, 0.000, -93.100, 0.000, 0.000, -1.400, 0.0, , , , , , 97, , , 17, 17, 17
37.7783128, -120.1185143, 1.900, 11:33:03.906, 20, 0.00, 0.26, 98, 0.100, -0.100, -93.100, 405, 100, 100, 29, 24412, -16496, 5343, 5453, 13, 14, 1526322783.906, 67, 0, 1024, 1024, 1024, 1024, 0, 6, 4053, 4062, 4072, 4078, 4089, 4060, 0, 1, 5901, -89.900, 0.000, -93.100, 0.000, 0.000, -1.900, 0.0, , , , , , 97, , , 17, 17, 17
37.7783128, -120.1185143, 1.900, 11:33:04.006, 20, 0.00, 0.26, 98, 0.100, -0.100, -93.100, 405, 100, 100, 29, 24412, -16496, 5343, 5453, 13, 14, 1526322784.007, 167, 0, 1024, 1024, 1024, 1024, 0, 6, 4053, 4062, 4072, 4078, 4089, 4060, 0, 1, 6001, -89.900, 0.000, -93.100, 0.000, 0.000, -1.900, 0.0, , , , , , 97, , , 17, 17, 17
37.7783128, -120.1185143, 1.900, 11:33:04.106, 20, 0.00, 0.26, 98, 0.100, -0.100, -93.100, 405, 100, 100, 29, 24412, -16496, 5343, 5453, 13, 14, 1526322784.106, 267, 0, 1024, 1024, 1024, 1024, 0, 6, 4053, 4062, 4072, 4078, 4089, 4060, 0, 1, 6101, -89.900, 0.000, -93.100, 0.000, 0.000, -1.900, 0.0, , , , , , 97, , , 17, 17, 17
37.7783129, -120.1185144, 2.300, 11:33:04.218, 20, 0.00, 0.27, 98, 0.100, -0.100, -92.800, 405, 100, 100, 29, 24412, -16496, 5343, 5453, 13, 14, 1526322784.224, 21, 0, 1024, 1024, 1024, 1024, 0, 6, 4053, 4062, 4072, 4078, 4089, 4060, 0, 1, 6219, -89.900, 0.000, -93.100, 0.000, 0.000, -2.300, 0.0, , , , , , 97, , , 17, 17, 17
37.7783129, -120.1185144, 2.300, 11:33:04.306, 20, 0.00, 0.27, 98, 0.100, -0.100, -92.800, 405, 100, 100, 29, 24412, -16496, 5343, 5453, 13, 14, 1526322784.306, 103, 0, 1024, 1024, 1024, 1024, 0, 6, 4053, 4062, 4072, 4078, 4089, 4060, 0, 1, 6301, -89.900, 0.000, -93.100, 0.000, 0.000, -2.300, 0.0, , , , , , 97, , , 17, 17, 17
37.7783129, -120.1185143, 2.900, 11:33:04.423, 20, 0.00, 0.28, 98, 0.000, 0.100, -92.500, 405, 100, 98, 29, 24581, -15458, 5343, 5453, 13, 14, 1526322784.425, 24, 0, 1024, 1024, 1024, 1024, 0, 6, 4068, 4070, 4028, 4090, 4097, 4018, 0, 1, 6419, -89.900, 0.000, -93.100, 0.000, 0.000, -2.700, 0.0, , , , , , 97, , , 17, 17, 17
37.7783129, -120.1185143, 2.900, 11:33:04.506, 20, 0.00, 0.28, 98, 0.000, 0.100, -92.500, 405, 100, 98, 29, 24581, -15458, 5343, 5453, 13, 14, 1526322784.506, 105, 0, 1024, 1024, 1024, 1024, 0, 6, 4068, 4070, 4028, 4090, 4097, 4018, 0, 1, 6501, -89.900, 0.000, -93.100, 0.000, 0.000, -2.700, 0.0, , , , , , 97, , , 17, 17, 17
37.7783129, -120.1185143, 2.900, 11:33:04.606, 20, 0.00, 0.28, 98, 0.000, 0.100, -92.500, 405, 100, 98, 29, 24581, -15458, 5343, 5453, 13, 14, 1526322784.607, 205, 0, 1024, 1024, 1024, 1024, 0, 6, 4068, 4070, 4028, 4090, 4097, 4018, 0, 1, 6601, -89.900, 0.000, -93.100, 0.000, 0.000, -2.700, 0.0, , , , , , 97, , , 17, 17, 17
37.7783129, -120.1185144, 3.500, 11:33:04.727, 21, 0.00, 0.27, 98, 0.100, -0.200, -92.500, 405, 100, 98, 29, 24581, -15458, 5343, 5453, 13, 14, 1526322784.728, 8, 0, 1024, 1024, 1024, 1024, 0, 6, 4068, 4070, 4028, 4090, 4097, 4018, 0, 1, 6722, -89.900, 0.000, -93.100, 0.000, 0.000, -2.900, 0.0, , , , , , 97, , , 17, 17, 17
37.7783129, -120.1185144, 3.800, 11:33:04.806, 21, 0.00, 0.27, 98, 0.200, -0.100, -92.600, 405, 100, 98, 29, 24581, -15458, 5343, 5453, 13, 14, 1526322784.807, 24, 0, 1024, 1024, 1024, 1024, 0, 6, 4068, 4070, 4028, 4090, 4097, 4018, 0, 1, 6802, -89.900, 0.000, -93.100, 0.000, 0.000, -3.100, 0.0, , , , , , 97, , , 17, 17, 17
37.7783129, -120.1185144, 3.800, 11:33:04.906, 21, 0.00, 0.27, 98, 0.200, -0.100, -92.600, 405, 100, 98, 29, 24581, -15458, 5343, 5453, 13, 14, 1526322784.907, 124, 0, 1024, 1024, 1024, 1024, 0, 6, 4068, 4070, 4028, 4090, 4097, 4018, 0, 1, 6902, -89.900, 0.000, -93.100, 0.000, 0.000, -3.100, 0.0, , , , , , 97, , , 17, 17, 17
37.7783129, -120.1185144, 3.800, 11:33:05.006, 21, 0.00, 0.27, 98, 0.200, -0.100, -92.600, 405, 100, 98, 29, 24581, -15458, 5343, 5453, 13, 14, 1526322785.006, 223, 0, 1024, 1024, 1024, 1024, 0, 6, 4068, 4070, 4028, 4090, 4097, 4018, 0, 1, 7001, -89.900, 0.000, -93.100, 0.000, 0.000, -3.100, 0.0, , , , , , 97, , , 17, 17, 17
37.7783129, -120.1185144, 3.800, 11:33:05.106, 21, 0.00, 0.27, 98, 0.200, -0.100, -92.600, 405, 100, 98, 29, 24581, -15458, 5343, 5453, 13, 14, 1526322785.107, 323, 0, 1024, 1024, 1024, 1024, 0, 6, 4068, 4070, 4028, 4090, 4097, 4018, 0, 1, 7101, -89.900, 0.000, -93.100, 0.000, 0.000, -3.100, 0.0, , , , , , 97, , , 17, 17, 17
37.7783129, -120.1185144, 3.800, 11:33:05.206, 21, 0.00, 0.27, 98, 0.200, -0.100, -92.600, 405, 100, 98, 29, 24581, -15458, 5343, 5453, 13, 14, 1526322785.206, 423, 0, 1024, 1024, 1024, 1024, 0, 6, 4068, 4070, 4028, 4090, 4097, 4018, 0, 1, 7201, -89.900, 0.000, -93.100, 0.000, 0.000, -3.100, 0.0, , , , , , 97, , , 17, 17, 17
37.7783128, -120.1185144, 5.100, 11:33:05.321, 20, 0.00, 0.26, 98, 0.700, 0.000, -92.800, 405, 100, 98, 29, 24581, -15458, 5343, 5453, 13, 14, 1526322785.323, 32, 0, 1024, 1024, 1024, 1024, 0, 6, 4068, 4070, 4028, 4090, 4097, 4018, 0, 1, 7317, -89.900, 0.000, -93.100, 0.000, 0.000, -3.200, 0.0, , , , , , 97, , , 17, 17, 17
37.7783128, -120.1185144, 5.100, 11:33:05.406, 20, 0.00, 0.26, 98, 0.700, 0.000, -92.800, 405, 100, 98, 29, 24581, -15458, 5343, 5453, 13, 14, 1526322785.407, 117, 0, 1024, 1024, 1024, 1024, 0, 6, 4068, 4070, 4028, 4090, 4097, 4018, 0, 1, 7402, -89.900, 0.000, -93.100, 0.000, 0.000, -3.200, 0.0, , , , , , 97, , , 17, 17, 17
37.7783127, -120.1185144, 5.800, 11:33:05.506, 19, 0.00, 0.25, 98, 0.800, 0.000, -92.800, 405, 100, 98, 29, 23852, -22887, 5343, 5453, 13, 14, 1526322785.507, 52, 0, 1024, 1024, 1024, 1024, 0, 6, 4068, 4070, 4028, 4090, 4097, 4018, 0, 1, 7502, -89.900, 0.000, -93.100, 0.000, 0.000, -3.200, 0.0, , , , , , 97, , , 17, 17, 17
37.7783126, -120.1185144, 6.500, 11:33:05.622, 20, 0.00, 0.24, 98, 0.900, -0.100, -93.000, 405, 100, 98, 29, 23852, -22887, 5343, 5453, 13, 14, 1526322785.623, 36, 0, 1024, 1024, 1024, 1024, 0, 6, 4068, 4070, 4028, 4090, 4097, 4018, 0, 1, 7618, -89.900, 0.000, -93.100, 0.000, 0.000, -3.200, 0.0, , , , , , 97, , , 17, 17, 17
37.7783126, -120.1185144, 6.500, 11:33:05.706, 20, 0.00, 0.24, 98, 0.900, -0.100, -93.000, 405, 100, 98, 29, 23852, -22887, 5343, 5453, 13, 14, 1526322785.707, 119, 0, 1024, 1024, 1024, 1024, 0, 6, 4068, 4070, 4028, 4090, 4097, 4018, 0, 1, 7702, -89.900, 0.000, -93.100, 0.000, 0.000, -3.200, 0.0, , , , , , 97, , , 17, 17, 17
37.7783126, -120.1185144, 6.500, 11:33:05.806, 20, 0.00, 0.24, 98, 0.900, -0.100, -93.000, 405, 100, 98, 29, 23852, -22887, 5343, 5453, 13, 14, 1526322785.806, 219, 0, 1024, 1024, 1024, 1024, 0, 6, 4068, 4070, 4028, 4090, 4097, 4018, 0, 1, 7801, -89.900, 0.000, -93.100, 0.000, 0.000, -3.200, 0.0, , , , , , 97, , , 17, 17, 17
37.7783125, -120.1185145, 7.400, 11:33:05.906, 21, 0.00, 0.23, 98, 0.600, -0.500, -92.900, 405, 100, 98, 29, 23852, -22887, 5289, 5453, 13, 14, 1526322785.907, 49, 0, 1024, 1024, 1024, 1024, 0, 6, 4068, 4070, 4028, 4090, 4097, 4018, 0, 1, 7901, -90.000, 0.000, -93.200, 0.000, 0.000, -3.100, 0.0, , , , , , 97, , , 17, 17, 17
37.7783125, -120.1185145, 7.400, 11:33:06.006, 21, 0.00, 0.23, 98, 0.600, -0.500, -92.900, 405, 100, 98, 29, 23852, -22887, 5289, 5453, 13, 14, 1526322786.007, 149, 0, 1024, 1024, 1024, 1024, 0, 6, 3956, 3959, 3961, 3968, 3977, 3949, 0, 1, 8001, -90.000, 0.000, -93.200, 0.000, 0.000, -3.100, 0.0, , , , , , 97, , , 17, 17, 17
37.7783125, -120.1185145, 7.400, 11:33:06.105, 21, 0.00, 0.23, 98, 0.600, -0.500, -92.900, 405, 100, 98, 29, 23852, -22887, 5289, 5453, 13, 14, 1526322786.106, 248, 0, 1024, 1024, 1024, 1024, 0, 6, 3956, 3959, 3961, 3968, 3977, 3949, 0, 1, 8101, -90.000, 0.000, -93.200, 0.000, 0.000, -3.100, 0.0, , , , , , 97, , , 17, 17, 17
37.7783125, -120.1185145, 7.400, 11:33:06.206, 21, 0.00, 0.23, 98, 0.600, -0.500, -92.900, 405, 100, 98, 29, 23852, -22887, 5289, 5453, 13, 14, 1526322786.207, 349, 0, 1024, 1024, 1024, 1024, 0, 6, 3956, 3959, 3961, 3968, 3977, 3949, 0, 1, 8201, -90.000, 0.000, -93.200, 0.000, 0.000, -3.100, 0.0, , , , , , 97, , , 17, 17, 17
37.7783125, -120.1185145, 7.400, 11:33:06.305, 21, 0.00, 0.23, 98, 0.600, -0.500, -92.900, 405, 100, 98, 29, 23852, -22887, 5289, 5453, 13, 14, 1526322786.306, 449, 0, 1024, 1024, 1024, 1024, 0, 6, 3956, 3959, 3961, 3968, 3977, 3949, 0, 1, 8301, -90.000, 0.000, -93.200, 0.000, 0.000, -3.100, 0.0, , , , , , 97, , , 17, 17, 17
37.7783123, -120.1185145, 8.800, 11:33:06.407, 22, 0.00, 0.21, 98, 0.100, -0.300, -92.100, 405, 100, 98, 29, 23852, -22887, 5289, 5453, 13, 14, 1526322786.407, 37, 0, 1024, 1024, 1024, 1024, 0, 6, 3956, 3959, 3961, 3968, 3977, 3949, 0, 1, 8402, -90.000, 0.000, -93.200, 0.000, 0.000, -3.100, 0.0, , , , , , 97, , , 17, 17, 17
37.7783123, -120.1185145, 9.400, 11:33:06.522, 22, 0.00, 0.21, 98, 0.600, -0.200, -92.500, 405, 100, 100, 29, 23852, -22887, 5289, 5453, 13, 14, 1526322786.522, 22, 0, 1024, 1024, 1024, 1024, 0, 6, 3956, 3959, 3961, 3968, 3977, 3949, 0, 1, 8517, -89.900, 0.000, -93.100, 0.000, 0.000, -3.100, 0.0, , , , , , 97, , , 17, 17, 17
37.7783123, -120.1185145, 9.400, 11:33:06.606, 22, 0.00, 0.21, 98, 0.600, -0.200, -92.500, 405, 100, 100, 29, 23852, -22887, 5289, 5453, 13, 14, 1526322786.606, 106, 0, 1024, 1024, 1024, 1024, 0, 6, 3956, 3959, 3961, 3968, 3977, 3949, 0, 1, 8601, -89.900, 0.000, -93.100, 0.000, 0.000, -3.100, 0.0, , , , , , 97, , , 17, 17, 17
37.7783123, -120.1185146, 9.700, 11:33:06.706, 22, 0.00, 0.20, 98, 0.700, -0.100, -92.800, 405, 100, 100, 29, 23852, -22887, 5289, 5453, 13, 14, 1526322786.707, 69, 0, 1024, 1024, 1024, 1024, 0, 6, 3956, 3959, 3961, 3968, 3977, 3949, 0, 1, 8702, -89.900, 0.000, -93.100, 0.000, 0.000, -3.000, 0.0, , , , , , 97, , , 17, 17, 17
37.7783123, -120.1185146, 9.700, 11:33:06.806, 22, 0.00, 0.20, 98, 0.700, -0.100, -92.800, 405, 100, 100, 29, 23852, -22887, 5289, 5453, 13, 14, 1526322786.807, 169, 0, 1024, 1024, 1024, 1024, 0, 6, 3956, 3959, 3961, 3968, 3977, 3949, 0, 1, 8802, -89.900, 0.000, -93.100, 0.000, 0.000, -3.000, 0.0, , , , , , 97, , , 17, 17, 17
37.7783123, -120.1185146, 9.700, 11:33:06.906, 22, 0.00, 0.20, 98, 0.700, -0.100, -92.800, 405, 100, 100, 29, 23852, -22887, 5289, 5453, 13, 14, 1526322786.906, 268, 0, 1024, 1024, 1024, 1024, 0, 6, 3956, 3959, 3961, 3968, 3977, 3949, 0, 1, 8901, -89.900, 0.000, -93.100, 0.000, 0.000, -3.000, 0.0, , , , , , 97, , , 17, 17, 17
37.7783122, -120.1185147, 10.700, 11:33:07.006, 22, 0.00, 0.18, 97, 1.000, 0.000, -93.500, 405, 100, 100, 29, 23942, -20053, 5289, 5453, 13, 14, 1526322787.007, 23, 0, 1024, 1024, 1024, 1024, 0, 6, 3967, 3992, 4009, 4006, 4021, 3983, 0, 1, 9002, -89.900, 0.000, -93.200, 0.000, 0.000, -3.000, 0.0, , , , , , 97, , , 17, 17, 17
37.7783121, -120.1185147, 11.000, 11:33:07.133, 22, 0.00, 0.18, 97, 0.900, 0.000, -93.500, 405, 100, 100, 29, 23942, -20053, 5289, 5453, 13, 14, 1526322787.134, 33, 0, 1024, 1024, 1024, 1024, 0, 6, 3967, 3992, 4009, 4006, 4021, 3983, 0, 1, 9129, -89.900, 0.000, -93.100, 0.000, 0.000, -3.000, 0.0, , , , , , 97, , , 17, 17, 17
37.7783121, -120.1185147, 11.000, 11:33:07.206, 22, 0.00, 0.18, 97, 0.900, 0.000, -93.500, 405, 100, 100, 29, 23942, -20053, 5289, 5453, 13, 14, 1526322787.207, 106, 0, 1024, 1024, 1024, 1024, 0, 6, 3967, 3992, 4009, 4006, 4021, 3983, 0, 1, 9201, -89.900, 0.000, -93.100, 0.000, 0.000, -3.000, 0.0, , , , , , 97, , , 17, 17, 17
37.7783121, -120.1185147, 11.300, 11:33:07.306, 22, 0.00, 0.18, 97, 0.700, 0.000, -93.400, 405, 100, 100, 29, 23942, -20053, 5289, 5453, 13, 14, 1526322787.307, 84, 0, 1024, 1024, 1024, 1024, 0, 6, 3967, 3992, 4009, 4006, 4021, 3983, 0, 1, 9301, -89.900, 0.000, -93.100, 0.000, 0.000, -3.000, 0.0, , , , , , 97, , , 17, 17, 17
37.7783121, -120.1185147, 11.300, 11:33:07.406, 22, 0.00, 0.18, 97, 0.700, 0.000, -93.400, 405, 100, 100, 29, 23942, -20053, 5289, 5453, 13, 14, 1526322787.407, 184, 0, 1024, 1024, 1024, 1024, 0, 6, 3967, 3992, 4009, 4006, 4021, 3983, 0, 1, 9401, -89.900, 0.000, -93.100, 0.000, 0.000, -3.000, 0.0, , , , , , 97, , , 17, 17, 17
37.7783121, -120.1185147, 11.300, 11:33:07.506, 22, 0.00, 0.18, 97, 0.700, 0.000, -93.400, 405, 100, 100, 29, 23942, -20053, 5289, 5453, 13, 14, 1526322787.507, 284, 0, 1024, 1024, 1024, 1024, 0, 6, 3967, 3992, 4009, 4006, 4021, 3983, 0, 1, 9501, -89.900, 0.000, -93.100, 0.000, 0.000, -3.000, 0.0, , , , , , 97, , , 17, 17, 17
37.7783122, -120.1185149, 12.200, 11:33:07.618, 22, 0.00, 0.19, 97, 0.300, 0.000, -93.200, 405, 100, 100, 29, 23942, -20053, 5289, 5453, 13, 14, 1526322787.620, 31, 0, 1024, 1024, 1024, 1024, 0, 6, 3967, 3992, 4009, 4006, 4021, 3983, 0, 1, 9615, -89.900, 0.000, -93.100, 0.000, 0.000, -3.000, 0.0, , , , , , 97, , , 17, 17, 17
37.7783122, -120.1185149, 12.200, 11:33:07.706, 22, 0.00, 0.19, 97, 0.300, 0.000, -93.200, 405, 100, 100, 29, 23942, -20053, 5289, 5453, 13, 14, 1526322787.707, 117, 0, 1024, 1024, 1024, 1024, 0, 6, 3967, 3992, 4009, 4006, 4021, 3983, 0, 1, 9701, -89.900, 0.000, -93.100, 0.000, 0.000, -3.000, 0.0, , , , , , 97, , , 17, 17, 17
37.7783122, -120.1185149, 12.200, 11:33:07.806, 22, 0.00, 0.19, 97, 0.300, 0.000, -93.200, 405, 100, 100, 29, 23942, -20053, 5289, 5453, 13, 14, 1526322787.807, 218, 0, 1024, 1024, 1024, 1024, 0, 6, 3967, 3992, 4009, 4006, 4021, 3983, 0, 1, 9802, -89.900, 0.000, -93.100, 0.000, 0.000, -3.000, 0.0, , , , , , 97, , , 17, 17, 17
37.7783122, -120.1185149, 12.200, 11:33:07.905, 22, 0.00, 0.19, 97, 0.300, 0.000, -93.200, 405, 100, 100, 29, 23942, -20053, 5289, 5453, 13, 14, 1526322787.906, 317, 0, 1024, 1024, 1024, 1024, 0, 6, 3967, 3992, 4009, 4006, 4021, 3983, 0, 1, 9901, -89.900, 0.000, -93.100, 0.000, 0.000, -3.000, 0.0, , , , , , 97, , , 17, 17, 17
37.7783122, -120.1185149, 12.200, 11:33:08.006, 22, 0.00, 0.19, 97, 0.300, 0.000, -93.200, 405, 100, 100, 29, 23942, -20053, 5289, 5453, 13, 14, 1526322788.007, 418, 0, 1024, 1024, 1024, 1024, 0, 6, 3967, 3992, 4009, 4006, 4021, 3983, 0, 1, 10002, -89.900, 0.000, -93.100, 0.000, 0.000, -3.000, 0.0, , , , , , 97, , , 17, 17, 17
37.7783122, -120.1185149, 12.200, 11:33:08.106, 22, 0.00, 0.19, 97, 0.300, 0.000, -93.200, 405, 100, 100, 29, 23942, -20053, 5289, 5453, 13, 14, 1526322788.107, 518, 0, 1024, 1024, 1024, 1024, 0, 6, 3967, 3992, 4009, 4006, 4021, 3983, 0, 1, 10102, -89.900, 0.000, -93.100, 0.000, 0.000, -3.000, 0.0, , , , , , 97, , , 17, 17, 17
37.7783122, -120.1185149, 12.200, 11:33:08.206, 22, 0.00, 0.19, 97, 0.300, 0.000, -93.200, 405, 100, 100, 29, 23942, -20053, 5289, 5453, 13, 14, 1526322788.207, 617, 0, 1024, 1024, 1024, 1024, 0, 6, 3967, 3992, 4009, 4006, 4021, 3983, 0, 1, 10201, -89.900, 0.000, -93.100, 0.000, 0.000, -3.000, 0.0, , , , , , 97, , , 17, 17, 17
37.7783122, -120.1185149, 12.200, 11:33:08.306, 22, 0.00, 0.19, 97, 0.300, 0.000, -93.200, 405, 100, 100, 29, 23942, -20053, 5289, 5453, 13, 14, 1526322788.307, 717, 0, 1024, 1024, 1024, 1024, 0, 6, 3967, 3992, 4009, 4006, 4021, 3983, 0, 1, 10301, -89.900, 0.000, -93.100, 0.000, 0.000, -3.000, 0.0, , , , , , 97, , , 17, 17, 17
37.7783125, -120.1185148, 14.900, 11:33:08.414, 22, 0.00, 0.22, 97, 0.100, -0.600, -93.000, 405, 100, 100, 29, 23942, -20053, 5289, 5453, 13, 14, 1526322788.422, 21, 0, 1024, 1024, 1024, 1024, 0, 6, 3967, 3992, 4009, 4006, 4021, 3983, 0, 1, 10417, -90.000, 0.000, -93.200, 0.000, 0.000, -2.900, 0.0, , , , , , 97, , , 17, 17, 17
37.7783125, -120.1185148, 14.900, 11:33:08.506, 22, 0.00, 0.22, 97, 0.100, -0.600, -93.000, 405, 100, 100, 29, 23942, -20053, 5289, 5453, 13, 14, 1526322788.507, 106, 0, 1024, 1024, 1024, 1024, 0, 6, 3967, 3992, 4009, 4006, 4021, 3983, 0, 1, 10502, -90.000, 0.000, -93.200, 0.000, 0.000, -2.900, 0.0, , , , , , 97, , , 17, 17, 17
37.7783125, -120.1185148, 15.200, 11:33:08.606, 22, 0.00, 0.22, 97, 0.200, -0.500, -92.900, 405, 100, 100, 29, 24084, -17863, 5289, 5453, 13, 14, 1526322788.607, 71, 0, 1024, 1024, 1024, 1024, 0, 6, 3967, 3992, 4009, 4006, 4021, 3983, 0, 1, 10601, -89.900, 0.000, -93.100, 0.000, 0.000, -3.000, 0.0, , , , , , 97, , , 17, 17, 17
37.7783125, -120.1185148, 15.500, 11:33:08.709, 22, 0.00, 0.22, 97, 0.300, -0.300, -92.800, 405, 100, 100, 29, 24084, -17863, 5289, 5453, 13, 14, 1526322788.709, 31, 0, 1024, 1024, 1024, 1024, 0, 6, 3990, 4010, 4023, 4022, 4039, 4003, 0, 1, 10704, -89.900, 0.000, -93.100, 0.000, 0.000, -2.900, 0.0, , , , , , 97, , , 17, 17, 17
37.7783125, -120.1185148, 15.500, 11:33:08.806, 22, 0.00, 0.22, 97, 0.300, -0.300, -92.800, 405, 100, 100, 29, 24084, -17863, 5289, 5453, 13, 14, 1526322788.807, 128, 0, 1024, 1024, 1024, 1024, 0, 6, 3990, 4010, 4023, 4022, 4039, 4003, 0, 1, 10802, -89.900, 0.000, -93.100, 0.000, 0.000, -2.900, 0.0, , , , , , 97, , , 17, 17, 17
37.7783125, -120.1185148, 15.500, 11:33:08.906, 22, 0.00, 0.22, 97, 0.300, -0.300, -92.800, 405, 100, 100, 29, 24084, -17863, 5289, 5453, 13, 14, 1526322788.906, 228, 0, 1024, 1024, 1024, 1024, 0, 6, 3990, 4010, 4023, 4022, 4039, 4003, 0, 1, 10901, -89.900, 0.000, -93.100, 0.000, 0.000, -2.900, 0.0, , , , , , 97, , , 17, 17, 17
37.7783129, -120.1185146, 17.100, 11:33:09.005, 22, 0.00, 0.27, 97, -0.700, -0.600, -93.100, 405, 100, 100, 29, 24084, -17863, 5289, 5453, 13, 14, 1526322789.006, 15, 0, 1024, 1024, 1024, 1024, 0, 6, 3990, 4010, 4023, 4022, 4039, 4003, 0, 1, 11001, -90.000, 0.000, -93.200, 0.000, 0.000, -2.900, 0.0, , , , , , 97, , , 17, 17, 17
37.7783130, -120.1185145, 17.400, 11:33:09.105, 22, 0.00, 0.28, 97, -0.600, -0.800, -93.100, 405, 100, 100, 29, 24084, -17863, 5289, 5453, 13, 14, 1526322789.106, 20, 0, 1024, 1024, 1024, 1024, 0, 6, 3990, 4010, 4023, 4022, 4039, 4003, 0, 1, 11101, -90.000, 0.000, -93.100, 0.000, 0.000, -2.900, 0.0, , , , , , 97, , , 17, 17, 17
37.7783130, -120.1185145, 17.400, 11:33:09.206, 22, 0.00, 0.28, 97, -0.600, -0.800, -93.100, 405, 100, 100, 29, 24084, -17863, 5289, 5453, 13, 14, 1526322789.207, 121, 0, 1024, 1024, 1024, 1024, 0, 6, 3990, 4010, 4023, 4022, 4039, 4003, 0, 1, 11202, -90.000, 0.000, -93.100, 0.000, 0.000, -2.900, 0.0, , , , , , 97, , , 17, 17, 17
37.7783130, -120.1185145, 17.400, 11:33:09.306, 22, 0.00, 0.28, 97, -0.600, -0.800, -93.100, 405, 100, 100, 29, 24084, -17863, 5289, 5453, 13, 14, 1526322789.307, 221, 0, 1024, 1024, 1024, 1024, 0, 6, 3990, 4010, 4023, 4022, 4039, 4003, 0, 1, 11302, -90.000, 0.000, -93.100, 0.000, 0.000, -2.900, 0.0, , , , , , 97, , , 17, 17, 17
37.7783130, -120.1185143, 18.300, 11:33:09.407, 22, 0.00, 0.29, 97, 0.000, -1.000, -92.900, 405, 100, 100, 29, 24058, -18006, 5289, 5453, 13, 14, 1526322789.409, 33, 0, 1024, 1024, 1024, 1024, 0, 6, 3991, 4005, 4019, 4011, 4028, 3996, 0, 1, 11404, -89.900, 0.000, -93.100, 0.000, 0.000, -2.900, 0.0, , , , , , 97, , , 17, 17, 17
37.7783130, -120.1185143, 18.600, 11:33:09.534, 22, 0.00, 0.29, 97, 0.000, -0.900, -92.700, 405, 100, 99, 29, 24058, -18006, 5289, 5453, 13, 14, 1526322789.535, 30, 0, 1024, 1024, 1024, 1024, 0, 6, 3991, 4005, 4019, 4011, 4028, 3996, 0, 1, 11529, -90.000, 0.000, -93.100, 0.000, 0.000, -2.900, 0.0, , , , , , 97, , , 17, 17, 17
37.7783130, -120.1185143, 18.600, 11:33:09.606, 22, 0.00, 0.29, 97, 0.000, -0.900, -92.700, 405, 100, 99, 29, 24058, -18006, 5289, 5453, 13, 14, 1526322789.606, 101, 0, 1024, 1024, 1024, 1024, 0, 6, 3991, 4005, 4019, 4011, 4028, 3996, 0, 1, 11601, -90.000, 0.000, -93.100, 0.000, 0.000, -2.900, 0.0, , , , , , 97, , , 17, 17, 17
37.7783130, -120.1185143, 18.600, 11:33:09.706, 22, 0.00, 0.29, 97, 0.000, -0.900, -92.700, 405, 100, 99, 29, 24058, -18006, 5289, 5453, 13, 14, 1526322789.707, 202, 0, 1024, 1024, 1024, 1024, 0, 6, 3991, 4005, 4019, 4011, 4028, 3996, 0, 1, 11702, -90.000, 0.000, -93.100, 0.000, 0.000, -2.900, 0.0, , , , , , 97, , , 17, 17, 17
37.7783132, -120.1185141, 19.700, 11:33:09.819, 22, 0.00, 0.31, 97, -0.200, -0.800, -92.500, 405, 100, 99, 29, 24042, -17674, 5289, 5453, 13, 14, 1526322789.820, 16, 0, 1024, 1024, 1024, 1024, 0, 6, 3991, 4005, 4019, 4011, 4028, 3996, 0, 1, 11815, -90.000, 0.000, -93.100, 0.000, 0.000, -2.900, 0.0, , , , , , 97, , , 17, 17, 17
37.7783132, -120.1185141, 19.700, 11:33:09.905, 22, 0.00, 0.31, 97, -0.200, -0.800, -92.500, 405, 100, 99, 29, 24042, -17674, 5289, 5453, 13, 14, 1526322789.906, 102, 0, 1024, 1024, 1024, 1024, 0, 6, 3991, 4005, 4019, 4011, 4028, 3996, 0, 1, 11901, -90.000, 0.000, -93.100, 0.000, 0.000, -2.900, 0.0, , , , , , 97, , , 17, 17, 17
37.7783132, -120.1185141, 19.700, 11:33:10.006, 22, 0.00, 0.31, 97, -0.200, -0.800, -92.500, 405, 100, 99, 29, 24042, -17674, 5289, 5453, 13, 14, 1526322790.007, 202, 0, 1024, 1024, 1024, 1024, 0, 6, 3991, 4005, 4019, 4011, 4028, 3996, 0, 1, 12001, -90.000, 0.000, -93.100, 0.000, 0.000, -2.900, 0.0, , , , , , 97, , , 17, 17, 17
37.7783133, -120.1185140, 20.000, 11:33:10.106, 22, 0.00, 0.32, 97, -0.600, -0.800, -92.600, 405, 100, 99, 29, 24042, -17674, 5289, 5453, 13, 14, 1526322790.106, 48, 0, 1024, 1024, 1024, 1024, 0, 6, 3993, 4004, 4020, 4015, 4032, 4004, 0, 1, 12101, -89.900, 0.000, -93.100, 0.000, 0.000, -2.900, 0.0, , , , , , 97, , , 17, 17, 17
37.7783133, -120.1185140, 20.000, 11:33:10.206, 22, 0.00, 0.32, 97, -0.600, -0.800, -92.600, 405, 100, 99, 29, 24042, -17674, 5289, 5453, 13, 14, 1526322790.207, 148, 0, 1024, 1024, 1024, 1024, 0, 6, 3993, 4004, 4020, 4015, 4032, 4004, 0, 1, 12201, -89.900, 0.000, -93.100, 0.000, 0.000, -2.900, 0.0, , , , , , 97, , , 17, 17, 17
37.7783133, -120.1185140, 20.000, 11:33:10.306, 22, 0.00, 0.32, 97, -0.600, -0.800, -92.600, 405, 100, 99, 29, 24042, -17674, 5289, 5453, 13, 14, 1526322790.307, 248, 0, 1024, 1024, 1024, 1024, 0, 6, 3993, 4004, 4020, 4015, 4032, 4004, 0, 1, 12301, -89.900, 0.000, -93.100, 0.000, 0.000, -2.900, 0.0, , , , , , 97, , , 17, 17, 17
37.7783133, -120.1185140, 20.000, 11:33:10.406, 22, 0.00, 0.32, 97, -0.600, -0.800, -92.600, 405, 100, 99, 29, 24042, -17674, 5289, 5453, 13, 14, 1526322790.408, 349, 0, 1024, 1024, 1024, 1024, 0, 6, 3993, 4004, 4020, 4015, 4032, 4004, 0, 1, 12402, -89.900, 0.000, -93.100, 0.000, 0.000, -2.900, 0.0, , , , , , 97, , , 17, 17, 17
37.7783135, -120.1185138, 20.900, 11:33:10.506, 22, 0.00, 0.35, 97, -0.800, -1.100, -92.900, 405, 100, 99, 29, 24042, -17674, 5289, 5453, 13, 14, 1526322790.507, 56, 0, 1024, 1024, 1024, 1024, 0, 6, 3993, 4004, 4020, 4015, 4032, 4004, 0, 1, 12502, -89.900, 0.000, -93.100, 0.000, 0.000, -2.900, 0.0, , , , , , 97, , , 17, 17, 17
37.7783135, -120.1185138, 20.900, 11:33:10.606, 22, 0.00, 0.35, 97, -0.800, -1.100, -92.900, 405, 100, 99, 29, 24042, -17674, 5289, 5453, 13, 14, 1526322790.607, 156, 0, 1024, 1024, 1024, 1024, 0, 6, 3993, 4004, 4020, 4015, 4032, 4004, 0, 1, 12601, -89.900, 0.000, -93.100, 0.000, 0.000, -2.900, 0.0, , , , , , 97, , , 17, 17, 17
37.7783136, -120.1185137, 21.500, 11:33:10.706, 22, 0.00, 0.36, 97, -0.700, -1.100, -92.900, 405, 100, 99, 29, 24042, -17674, 5289, 5453, 13, 14, 1526322790.707, 52, 0, 1024, 1024, 1024, 1024, 0, 6, 3993, 4004, 4020, 4015, 4032, 4004, 0, 1, 12702, -90.000, 0.000, -93.100, 0.000, 0.000, -2.900, 0.0, , , , , , 97, , , 17, 17, 17
37.7783136, -120.1185137, 21.500, 11:33:10.805, 22, 0.00, 0.36, 97, -0.700, -1.100, -92.900, 405, 100, 99, 29, 24042, -17674, 5289, 5453, 13, 14, 1526322790.806, 151, 0, 1024, 1024, 1024, 1024, 0, 6, 3993, 4004, 4020, 4015, 4032, 4004, 0, 1, 12801, -90.000, 0.000, -93.100, 0.000, 0.000, -2.900, 0.0, , , , , , 97, , , 17, 17, 17
37.7783138, -120.1185134, 23.600, 11:33:11.027, 22, 0.00, 0.39, 97, -0.700, -1.100, -92.700, 405, 100, 99, 29, 24042, -17674, 5289, 5453, 13, 14, 1526322791.032, 25, 0, 1024, 1024, 1024, 1024, 0, 6, 3993, 4004, 4020, 4015, 4032, 4004, 0, 1, 13027, -90.000, 0.000, -93.100, 0.000, 0.000, -2.900, 0.0, , , , , , 97, , , 17, 17, 17
37.7783138, -120.1185133, 24.200, 11:33:11.106, 22, 0.00, 0.40, 97, -0.600, -1.600, -92.800, 405, 100, 99, 30, 24057, -17405, 5289, 5453, 13, 14, 1526322791.107, 68, 0, 1024, 1024, 1024, 1024, 0, 6, 3993, 4004, 4020, 4015, 4032, 4004, 0, 1, 13102, -90.000, 0.000, -93.200, 0.000, 0.000, -2.900, 0.0, , , , , , 97, , , 17, 17, 17
37.7783138, -120.1185133, 24.200, 11:33:11.207, 22, 0.00, 0.40, 97, -0.600, -1.600, -92.800, 405, 100, 99, 30, 24057, -17405, 5289, 5453, 13, 14, 1526322791.207, 168, 0, 1024, 1024, 1024, 1024, 0, 6, 3993, 4004, 4020, 4015, 4032, 4004, 0, 1, 13202, -90.000, 0.000, -93.200, 0.000, 0.000, -2.900, 0.0, , , , , , 97, , , 17, 17, 17
37.7783138, -120.1185133, 24.200, 11:33:11.306, 22, 0.00, 0.40, 97, -0.600, -1.600, -92.800, 405, 100, 99, 30, 24057, -17405, 5289, 5453, 13, 14, 1526322791.308, 269, 0, 1024, 1024, 1024, 1024, 0, 6, 3990, 4002, 4011, 4017, 4034, 3991, 0, 1, 13303, -90.000, 0.000, -93.200, 0.000, 0.000, -2.900, 0.0, , , , , , 97, , , 17, 17, 17
37.7783138, -120.1185132, 24.800, 11:33:11.406, 22, 0.00, 0.40, 97, -0.200, -1.800, -92.900, 405, 100, 99, 30, 24057, -17405, 5289, 5453, 13, 14, 1526322791.407, 56, 0, 1024, 1024, 1024, 1024, 0, 6, 3990, 4002, 4011, 4017, 4034, 3991, 0, 1, 13402, -89.900, 0.000, -93.200, 0.000, 0.000, -2.900, 0.0, , , , , , 97, , , 17, 17, 17
37.7783138, -120.1185131, 25.100, 11:33:11.510, 22, 0.00, 0.40, 97, -0.100, -2.100, -92.800, 405, 100, 99, 30, 24057, -17405, 5289, 5453, 13, 14, 1526322791.511, 11, 0, 1024, 1024, 1024, 1024, 0, 6, 3990, 4002, 4011, 4017, 4034, 3991, 0, 1, 13506, -90.000, 0.000, -93.200, 0.000, 0.000, -2.900, 0.0, , , , , , 97, , , 17, 17, 17
37.7783138, -120.1185131, 25.100, 11:33:11.606, 22, 0.00, 0.40, 97, -0.100, -2.100, -92.800, 405, 100, 99, 30, 24057, -17405, 5289, 5453, 13, 14, 1526322791.608, 108, 0, 1024, 1024, 1024, 1024, 0, 6, 3990, 4002, 4011, 4017, 4034, 3991, 0, 1, 13603, -90.000, 0.000, -93.200, 0.000, 0.000, -2.900, 0.0, , , , , , 97, , , 17, 17, 17
37.7783138, -120.1185130, 25.700, 11:33:11.706, 22, 0.00, 0.41, 97, -0.100, -1.900, -92.700, 405, 100, 99, 30, 23993, -17405, 5289, 5453, 13, 14, 1526322791.707, 63, 0, 1024, 1024, 1024, 1024, 0, 6, 3990, 4002, 4011, 4017, 4034, 3991, 0, 1, 13702, -89.900, 0.000, -93.100, 0.000, 0.000, -2.900, 0.0, , , , , , 97, , , 17, 17, 17
37.7783139, -120.1185130, 26.000, 11:33:11.806, 22, 0.00, 0.41, 97, -0.400, -1.800, -92.700, 405, 100, 100, 30, 23993, -17405, 5289, 5453, 13, 14, 1526322791.807, 44, 0, 1024, 1024, 1024, 1024, 0, 6, 3990, 4002, 4011, 4017, 4034, 3991, 0, 1, 13801, -89.900, 0.000, -93.100, 0.000, 0.000, -2.900, 0.0, , , , , , 97, , , 17, 17, 17
37.7783139, -120.1185129, 26.300, 11:33:11.917, 22, 0.00, 0.42, 97, -0.800, -1.500, -92.700, 405, 100, 100, 30, 23993, -17405, 5289, 5453, 13, 14, 1526322791.918, 11, 0, 1024, 1024, 1024, 1024, 0, 6, 3990, 4002, 4011, 4017, 4034, 3991, 0, 1, 13913, -89.900, 0.000, -93.200, 0.000, 0.000, -2.900, 0.0, , , , , , 97, , , 17, 17, 17
37.7783139, -120.1185129, 26.300, 11:33:12.006, 22, 0.00, 0.42, 97, -0.800, -1.500, -92.700, 405, 100, 100, 30, 23993, -17405, 5289, 5453, 13, 14, 1526322792.007, 100, 0, 1024, 1024, 1024, 1024, 0, 6, 3990, 4002, 4011, 4017, 4034, 3991, 0, 1, 14001, -89.900, 0.000, -93.200, 0.000, 0.000, -2.900, 0.0, , , , , , 97, , , 17, 17, 17
37.7783139, -120.1185129, 26.600, 11:33:12.106, 22, 0.00, 0.42, 97, -0.900, -1.500, -92.700, 405, 100, 100, 30, 23993, -17405, 5289, 5453, 13, 14, 1526322792.106, 44, 0, 1024, 1024, 1024, 1024, 0, 6, 3990, 4002, 4011, 4017, 4034, 3991, 0, 1, 14101, -89.900, 0.000, -93.100, 0.000, 0.000, -2.900, 0.0, , , , , , 97, , , 17, 17, 17
37.7783139, -120.1185129, 26.600, 11:33:12.206, 22, 0.00, 0.42, 97, -0.900, -1.500, -92.700, 405, 100, 100, 30, 23993, -17405, 5289, 5453, 13, 14, 1526322792.207, 145, 0, 1024, 1024, 1024, 1024, 0, 6, 3990, 4002, 4011, 4017, 4034, 3991, 0, 1, 14201, -89.900, 0.000, -93.100, 0.000, 0.000, -2.900, 0.0, , , , , , 97, , , 17, 17, 17
37.7783139, -120.1185129, 26.600, 11:33:12.306, 22, 0.00, 0.42, 97, -0.900, -1.500, -92.700, 405, 100, 100, 30, 23993, -17405, 5289, 5453, 13, 14, 1526322792.307, 245, 0, 1024, 1024, 1024, 1024, 0, 6, 3990, 4002, 4011, 4017, 4034, 3991, 0, 1, 14302, -89.900, 0.000, -93.100, 0.000, 0.000, -2.900, 0.0, , , , , , 97, , , 17, 17, 17
37.7783139, -120.1185129, 27.000, 11:33:12.406, 22, 0.00, 0.43, 97, -1.000, -1.900, -92.700, 405, 100, 100, 30, 23993, -17405, 5289, 5453, 13, 14, 1526322792.407, 14, 0, 1024, 1024, 1024, 1024, 0, 6, 3990, 4002, 4011, 4017, 4034, 3991, 0, 1, 14402, -90.000, 0.000, -93.100, 0.000, 0.000, -2.900, 0.0, , , , , , 97, , , 17, 17, 17
37.7783139, -120.1185129, 27.000, 11:33:12.507, 22, 0.00, 0.43, 97, -1.000, -1.900, -92.700, 405, 100, 100, 30, 23993, -17405, 5289, 5453, 13, 14, 1526322792.507, 114, 0, 1024, 1024, 1024, 1024, 0, 6, 3990, 4002, 4011, 4017, 4034, 3991, 0, 1, 14502, -90.000, 0.000, -93.100, 0.000, 0.000, -2.900, 0.0, , , , , , 97, , , 17, 17, 17
37.7783140, -120.1185128, 27.300, 11:33:12.606, 22, 0.00, 0.43, 97, -1.100, -2.500, -92.600, 405, 100, 100, 30, 23993, -17757, 5289, 5453, 13, 14, 1526322792.606, 67, 0, 1024, 1024, 1024, 1024, 0, 6, 3990, 4002, 4011, 4017, 4034, 3991, 0, 1, 14601, -89.900, 0.000, -93.200, 0.000, 0.000, -2.900, 0.0, , , , , , 97, , , 17, 17, 17
37.7783140, -120.1185128, 27.300, 11:33:12.706, 22, 0.00, 0.43, 97, -1.100, -2.500, -92.600, 405, 100, 100, 30, 23993, -17757, 5289, 5453, 13, 14, 1526322792.707, 167, 0, 1024, 1024, 1024, 1024, 0, 6, 3985, 3992, 4004, 4012, 4022, 3988, 0, 1, 14701, -89.900, 0.000, -93.200, 0.000, 0.000, -2.900, 0.0, , , , , , 97, , , 17, 17, 17
37.7783140, -120.1185128, 27.300, 11:33:12.806, 22, 0.00, 0.43, 97, -1.100, -2.500, -92.600, 405, 100, 100, 30, 23993, -17757, 5289, 5453, 13, 14, 1526322792.806, 267, 0, 1024, 1024, 1024, 1024, 0, 6, 3985, 3992, 4004, 4012, 4022, 3988, 0, 1, 14801, -89.900, 0.000, -93.200, 0.000, 0.000, -2.900, 0.0, , , , , , 97, , , 17, 17, 17
37.7783140, -120.1185126, 27.900, 11:33:12.906, 22, 0.00, 0.45, 97, -1.800, -3.200, -92.800, 405, 100, 100, 30, 23993, -17757, 5289, 5453, 13, 14, 1526322792.908, 81, 0, 1024, 1024, 1024, 1024, 0, 6, 3985, 3992, 4004, 4012, 4022, 3988, 0, 1, 14903, -90.000, 0.000, -93.200, 0.000, 0.000, -2.900, 0.0, , , , , , 97, , , 17, 17, 17
37.7783140, -120.1185126, 27.900, 11:33:13.006, 22, 0.00, 0.45, 97, -1.800, -3.200, -92.800, 405, 100, 100, 30, 23993, -17757, 5289, 5453, 13, 14, 1526322793.007, 180, 0, 1024, 1024, 1024, 1024, 0, 6, 3985, 3992, 4004, 4012, 4022, 3988, 0, 1, 15002, -90.000, 0.000, -93.200, 0.000, 0.000, -2.900, 0.0, , , , , , 97, , , 17, 17, 17
37.7783140, -120.1185123, 29.400, 11:33:13.107, 22, 0.00, 0.46, 97, -0.800, -3.600, -93.200, 405, 100, 100, 30, 23993, -17757, 5289, 5453, 13, 14, 1526322793.108, 56, 0, 1024, 1024, 1024, 1024, 0, 6, 3985, 3992, 4004, 4012, 4022, 3988, 0, 1, 15102, -89.900, 0.000, -93.200, 0.000, 0.000, -2.900, 0.0, , , , , , 97, , , 17, 17, 17
37.7783141, -120.1185123, 29.700, 11:33:13.217, 22, 0.00, 0.46, 97, -0.900, -3.700, -93.100, 405, 100, 100, 30, 23993, -17757, 5289, 5453, 13, 14, 1526322793.218, 28, 0, 1024, 1024, 1024, 1024, 0, 6, 3985, 3992, 4004, 4012, 4022, 3988, 0, 1, 15213, -89.900, 0.000, -93.200, 0.000, 0.000, -2.800, 0.0, , , , , , 97, , , 17, 17, 17
37.7783141, -120.1185123, 30.000, 11:33:13.311, 22, 0.00, 0.46, 97, -1.100, -3.700, -93.000, 405, 100, 100, 30, 23993, -17757, 5289, 5453, 13, 14, 1526322793.312, 8, 0, 1024, 1024, 1024, 1024, 0, 6, 3985, 3992, 4004, 4012, 4022, 3988, 0, 1, 15307, -89.900, 0.000, -93.200, 0.000, 0.000, -2.900, 0.0, , , , , , 97, , , 17, 17, 17
37.7783141, -120.1185123, 30.000, 11:33:13.406, 22, 0.00, 0.46, 97, -1.100, -3.700, -93.000, 405, 100, 100, 30, 23993, -17757, 5289, 5453, 13, 14, 1526322793.407, 103, 0, 1024, 1024, 1024, 1024, 0, 6, 3985, 3992, 4004, 4012, 4022, 3988, 0, 1, 15402, -89.900, 0.000, -93.200, 0.000, 0.000, -2.900, 0.0, , , , , , 97, , , 17, 17, 17
37.7783141, -120.1185123, 30.600, 11:33:13.524, 22, 0.00, 0.47, 97, -1.300, -3.300, -92.700, 405, 100, 100, 30, 23993, -17757, 5289, 5453, 13, 14, 1526322793.525, 19, 0, 1024, 1024, 1024, 1024, 0, 6, 3985, 3992, 4004, 4012, 4022, 3988, 0, 1, 15520, -89.900, 0.000, -93.100, 0.000, 0.000, -2.900, 0.0, , , , , , 97, , , 17, 17, 17
37.7783141, -120.1185123, 30.600, 11:33:13.605, 22, 0.00, 0.47, 97, -1.300, -3.300, -92.700, 405, 100, 100, 30, 23993, -17757, 5289, 5453, 13, 14, 1526322793.606, 101, 0, 1024, 1024, 1024, 1024, 0, 6, 3985, 3992, 4004, 4012, 4022, 3988, 0, 1, 15601, -89.900, 0.000, -93.100, 0.000, 0.000, -2.900, 0.0, , , , , , 97, , , 17, 17, 17
37.7783141, -120.1185123, 30.900, 11:33:13.706, 22, 0.00, 0.47, 97, -1.500, -2.900, -92.500, 405, 100, 100, 30, 23993, -17757, 5289, 5453, 13, 14, 1526322793.706, 64, 0, 1024, 1024, 1024, 1024, 0, 6, 3985, 3992, 4004, 4012, 4022, 3988, 0, 1, 15701, -89.900, 0.000, -93.100, 0.000, 0.000, -2.800, 0.0, , , , , , 97, , , 17, 17, 17
37.7783143, -120.1185126, 32.100, 11:33:13.839, 22, 0.00, 0.47, 97, -2.300, -2.100, -92.400, 405, 100, 98, 30, 23977, -17548, 5289, 5453, 13, 14, 1526322793.839, 21, 0, 1024, 1024, 1024, 1024, 0, 6, 3985, 3992, 4004, 4012, 4022, 3988, 0, 1, 15834, -89.900, 0.000, -93.100, 0.000, 0.000, -2.800, 0.0, , , , , , 97, , , 17, 17, 17
37.7783143, -120.1185126, 32.100, 11:33:13.906, 22, 0.00, 0.47, 97, -2.300, -2.100, -92.400, 405, 100, 98, 30, 23977, -17548, 5289, 5453, 13, 14, 1526322793.907, 88, 0, 1024, 1024, 1024, 1024, 0, 6, 3970, 3987, 3999, 4003, 4013, 3985, 0, 1, 15902, -89.900, 0.000, -93.100, 0.000, 0.000, -2.800, 0.0, , , , , , 97, , , 17, 17, 17
37.7783143, -120.1185126, 32.300, 11:33:14.008, 22, 0.00, 0.47, 97, -2.000, -2.200, -92.400, 405, 100, 98, 30, 23977, -17548, 5289, 5453, 13, 14, 1526322794.009, 22, 0, 1024, 1024, 1024, 1024, 0, 6, 3970, 3987, 3999, 4003, 4013, 3985, 0, 1, 16003, -89.900, 0.000, -93.200, 0.000, 0.000, -2.700, 0.0, , , , , , 97, , , 17, 17, 17
37.7783143, -120.1185126, 32.600, 11:33:14.106, 22, 0.00, 0.47, 97, -1.900, -2.300, -92.500, 405, 100, 98, 30, 23977, -17548, 5289, 5453, 13, 14, 1526322794.110, 39, 0, 1024, 1024, 1024, 1024, 0, 6, 3970, 3987, 3999, 4003, 4013, 3985, 0, 1, 16104, -89.900, 0.000, -93.200, 0.000, 0.000, -2.800, 0.0, , , , , , 97, , , 17, 17, 17
37.7783143, -120.1185126, 32.600, 11:33:14.206, 22, 0.00, 0.47, 97, -1.900, -2.300, -92.500, 405, 100, 98, 30, 23977, -17548, 5289, 5453, 13, 14, 1526322794.207, 136, 0, 1024, 1024, 1024, 1024, 0, 6, 3970, 3987, 3999, 4003, 4013, 3985, 0, 1, 16202, -89.900, 0.000, -93.200, 0.000, 0.000, -2.800, 0.0, , , , , , 97, , , 17, 17, 17
37.7783143, -120.1185126, 32.600, 11:33:14.306, 22, 0.00, 0.47, 97, -1.900, -2.300, -92.500, 405, 100, 98, 30, 23977, -17548, 5289, 5453, 13, 14, 1526322794.307, 236, 0, 1024, 1024, 1024, 1024, 0, 6, 3970, 3987, 3999, 4003, 4013, 3985, 0, 1, 16302, -89.900, 0.000, -93.200, 0.000, 0.000, -2.800, 0.0, , , , , , 97, , , 17, 17, 17
37.7783143, -120.1185126, 32.600, 11:33:14.406, 22, 0.00, 0.47, 97, -1.900, -2.300, -92.500, 405, 100, 98, 30, 23977, -17548, 5289, 5453, 13, 14, 1526322794.407, 336, 0, 1024, 1024, 1024, 1024, 0, 6, 3970, 3987, 3999, 4003, 4013, 3985, 0, 1, 16401, -89.900, 0.000, -93.200, 0.000, 0.000, -2.800, 0.0, , , , , , 97, , , 17, 17, 17
37.7783144, -120.1185127, 33.200, 11:33:14.506, 22, 0.00, 0.48, 97, -2.400, -2.700, -93.000, 405, 100, 98, 30, 23922, -18411, 5289, 5453, 13, 14, 1526322794.507, 61, 0, 1024, 1024, 1024, 1024, 0, 6, 3970, 3987, 3999, 4003, 4013, 3985, 0, 1, 16502, -89.900, 0.000, -93.200, 0.000, 0.000, -2.900, 0.0, , , , , , 97, , , 17, 17, 17
37.7783144, -120.1185127, 33.500, 11:33:14.605, 22, 0.00, 0.48, 97, -2.600, -2.600, -93.000, 405, 100, 100, 30, 23922, -18411, 5289, 5453, 13, 14, 1526322794.606, 64, 0, 1024, 1024, 1024, 1024, 0, 6, 3970, 3987, 3999, 4003, 4013, 3985, 0, 1, 16601, -89.900, 0.000, -93.200, 0.000, 0.000, -2.900, 0.0, , , , , , 97, , , 17, 17, 17
37.7783144, -120.1185127, 33.500, 11:33:14.712, 22, 0.00, 0.48, 97, -2.600, -2.600, -93.000, 405, 100, 100, 30, 23922, -18411, 5289, 5453, 13, 14, 1526322794.713, 170, 0, 1024, 1024, 1024, 1024, 0, 6, 3970, 3987, 3999, 4003, 4013, 3985, 0, 1, 16707, -89.900, 0.000, -93.200, 0.000, 0.000, -2.900, 0.0, , , , , , 97, , , 17, 17, 17
37.7783144, -120.1185128, 34.700, 11:33:14.856, 22, 0.00, 0.48, 97, -2.300, -2.600, -92.800, 405, 100, 100, 30, 23922, -18411, 5289, 5453, 13, 14, 1526322794.857, 16, 0, 1024, 1024, 1024, 1024, 0, 6, 3968, 3976, 3981, 3978, 4013, 3964, 0, 1, 16852, -89.900, 0.000, -93.200, 0.000, 0.000, -2.900, 0.0, , , , , , 97, , , 17, 17, 17
37.7783144, -120.1185129, 35.300, 11:33:14.922, 22, 0.00, 0.48, 97, -2.200, -2.600, -92.800, 405, 100, 100, 30, 23922, -18411, 5289, 5453, 13, 14, 1526322794.923, 16, 0, 1024, 1024, 1024, 1024, 0, 6, 3968, 3976, 3981, 3978, 4013, 3964, 0, 1, 16918, -89.900, 0.000, -93.100, 0.000, 0.000, -2.900, 0.0, , , , , , 97, , , 17, 17, 17
37.7783144, -120.1185129, 35.300, 11:33:15.006, 22, 0.00, 0.48, 97, -2.200, -2.600, -92.800, 405, 100, 100, 30, 23922, -18411, 5289, 5453, 13, 14, 1526322795.007, 101, 0, 1024, 1024, 1024, 1024, 0, 6, 3968, 3976, 3981, 3978, 4013, 3964, 0, 1, 17002, -89.900, 0.000, -93.100, 0.000, 0.000, -2.900, 0.0, , , , , , 97, , , 17, 17, 17
37.7783145, -120.1185128, 36.200, 11:33:15.135, 22, 0.00, 0.48, 97, -2.200, -2.900, -92.900, 405, 100, 100, 30, 23723, -20228, 5289, 5453, 13, 14, 1526322795.136, 26, 0, 1024, 1024, 1024, 1024, 0, 6, 3968, 3976, 3981, 3978, 4013, 3964, 0, 1, 17131, -89.900, 0.000, -93.200, 0.000, 0.000, -2.900, 0.0, , , , , , 97, , , 17, 17, 17
37.7783145, -120.1185128, 36.200, 11:33:15.206, 22, 0.00, 0.48, 97, -2.200, -2.900, -92.900, 405, 100, 100, 30, 23723, -20228, 5289, 5453, 13, 14, 1526322795.207, 98, 0, 1024, 1024, 1024, 1024, 0, 6, 3925, 3935, 3970, 3961, 3989, 3935, 0, 1, 17202, -89.900, 0.000, -93.200, 0.000, 0.000, -2.900, 0.0, , , , , , 97, , , 17, 17, 17
37.7783145, -120.1185128, 36.200, 11:33:15.306, 22, 0.00, 0.48, 97, -2.200, -2.900, -92.900, 405, 100, 100, 30, 23723, -20228, 5289, 5453, 13, 14, 1526322795.307, 198, 0, 1024, 1024, 1024, 1024, 0, 6, 3925, 3935, 3970, 3961, 3989, 3935, 0, 1, 17302, -89.900, 0.000, -93.200, 0.000, 0.000, -2.900, 0.0, , , , , , 97, , , 17, 17, 17
37.7783145, -120.1185128, 36.500, 11:33:15.406, 22, 0.00, 0.49, 97, -2.300, -3.000, -92.900, 405, 100, 99, 30, 23723, -20228, 5289, 5453, 13, 14, 1526322795.407, 67, 0, 1024, 1024, 1024, 1024, 0, 6, 3925, 3935, 3970, 3961, 3989, 3935, 0, 1, 17402, -89.900, 0.000, -93.200, 0.000, 0.000, -2.900, 0.0, , , , , , 97, , , 17, 17, 17
37.7783145, -120.1185128, 36.800, 11:33:15.506, 22, 0.00, 0.49, 97, -2.700, -3.100, -93.000, 405, 100, 99, 30, 23723, -20228, 5289, 5453, 13, 14, 1526322795.506, 70, 0, 1024, 1024, 1024, 1024, 0, 6, 3925, 3935, 3970, 3961, 3989, 3935, 0, 1, 17501, -90.000, 0.000, -93.200, 0.000, 0.000, -2.900, 0.0, , , , , , 97, , , 17, 17, 17
37.7783146, -120.1185129, 37.400, 11:33:15.624, 22, 0.00, 0.49, 97, -3.100, -3.000, -93.000, 405, 100, 99, 30, 23723, -20228, 5289, 5453, 13, 14, 1526322795.625, 20, 0, 1024, 1024, 1024, 1024, 0, 6, 3925, 3935, 3970, 3961, 3989, 3935, 0, 1, 17619, -89.900, 0.000, -93.200, 0.000, 0.000, -2.900, 0.0, , , , , , 97, , , 17, 17, 17
37.7783146, -120.1185129, 37.700, 11:33:15.707, 22, 0.00, 0.49, 97, -3.000, -2.500, -93.000, 405, 100, 99, 30, 23723, -20228, 5289, 5453, 13, 14, 1526322795.708, 5, 0, 1024, 1024, 1024, 1024, 0, 6, 3925, 3935, 3970, 3961, 3989, 3935, 0, 1, 17702, -89.900, 0.000, -93.200, 0.000, 0.000, -2.900, 0.0, , , , , , 97, , , 17, 17, 17
37.7783146, -120.1185129, 38.000, 11:33:15.806, 22, 0.00, 0.49, 97, -2.500, -2.200, -93.000, 405, 100, 99, 30, 23723, -20228, 5289, 5453, 13, 14, 1526322795.807, 21, 0, 1024, 1024, 1024, 1024, 0, 6, 3925, 3935, 3970, 3961, 3989, 3935, 0, 1, 17802, -89.900, 0.000, -93.200, 0.000, 0.000, -2.900, 0.0, , , , , , 97, , , 17, 17, 17
37.7783145, -120.1185129, 38.300, 11:33:15.924, 22, 0.00, 0.48, 97, -2.000, -2.200, -93.000, 405, 100, 99, 30, 23723, -20228, 5289, 5453, 13, 14, 1526322795.925, 16, 0, 1024, 1024, 1024, 1024, 0, 6, 3925, 3935, 3970, 3961, 3989, 3935, 0, 1, 17919, -89.900, 0.000, -93.100, 0.000, 0.000, -2.900, 0.0, , , , , , 97, , , 17, 17, 17
37.7783145, -120.1185129, 38.300, 11:33:16.006, 22, 0.00, 0.48, 97, -2.000, -2.200, -93.000, 405, 100, 99, 30, 23723, -20228, 5289, 5453, 13, 14, 1526322796.007, 98, 0, 1024, 1024, 1024, 1024, 0, 6, 3925, 3935, 3970, 3961, 3989, 3935, 0, 1, 18002, -89.900, 0.000, -93.100, 0.000, 0.000, -2.900, 0.0, , , , , , 97, , , 17, 17, 17
37.7783145, -120.1185129, 38.300, 11:33:16.106, 22, 0.00, 0.48, 97, -2.000, -2.200, -93.000, 405, 100, 99, 30, 23723, -20228, 5289, 5453, 13, 14, 1526322796.106, 197, 0, 1024, 1024, 1024, 1024, 0, 6, 3925, 3935, 3970, 3961, 3989, 3935, 0, 1, 18101, -89.900, 0.000, -93.100, 0.000, 0.000, -2.900, 0.0, , , , , , 97, , , 17, 17, 17
37.7783145, -120.1185129, 38.300, 11:33:16.206, 22, 0.00, 0.48, 97, -2.000, -2.200, -93.000, 405, 100, 99, 30, 23723, -20228, 5289, 5453, 13, 14, 1526322796.207, 298, 0, 1024, 1024, 1024, 1024, 0, 6, 3925, 3935, 3970, 3961, 3989, 3935, 0, 1, 18202, -89.900, 0.000, -93.100, 0.000, 0.000, -2.900, 0.0, , , , , , 97, , , 17, 17, 17
37.7783145, -120.1185129, 38.300, 11:33:16.306, 22, 0.00, 0.48, 97, -2.000, -2.200, -93.000, 405, 100, 99, 30, 23723, -20228, 5289, 5453, 13, 14, 1526322796.307, 398, 0, 1024, 1024, 1024, 1024, 0, 6, 3925, 3935, 3970, 3961, 3989, 3935, 0, 1, 18301, -89.900, 0.000, -93.100, 0.000, 0.000, -2.900, 0.0, , , , , , 97, , , 17, 17, 17
37.7783145, -120.1185129, 38.300, 11:33:16.406, 22, 0.00, 0.48, 97, -2.000, -2.200, -93.000, 405, 100, 99, 30, 23723, -20228, 5289, 5453, 13, 14, 1526322796.407, 498, 0, 1024, 1024, 1024, 1024, 0, 6, 3925, 3935, 3970, 3961, 3989, 3935, 0, 1, 18401, -89.900, 0.000, -93.100, 0.000, 0.000, -2.900, 0.0, , , , , , 97, , , 17, 17, 17
37.7783145, -120.1185129, 38.300, 11:33:16.506, 22, 0.00, 0.48, 97, -2.000, -2.200, -93.000, 405, 100, 99, 30, 23723, -20228, 5289, 5453, 13, 14, 1526322796.507, 598, 0, 1024, 1024, 1024, 1024, 0, 6, 3925, 3935, 3970, 3961, 3989, 3935, 0, 1, 18501, -89.900, 0.000, -93.100, 0.000, 0.000, -2.900, 0.0, , , , , , 97, , , 17, 17, 17
37.7783145, -120.1185130, 39.200, 11:33:16.606, 22, 0.00, 0.47, 97, -1.700, -2.200, -92.400, 405, 100, 100, 30, 23676, -20389, 5234, 5453, 13, 14, 1526322796.610, 67, 0, 1024, 1024, 1024, 1024, 0, 6, 3925, 3935, 3970, 3961, 3989, 3935, 0, 1, 18605, -89.900, 0.000, -93.200, 0.000, 0.000, -3.100, 0.0, , , , , , 97, , , 17, 17, 17
37.7783145, -120.1185130, 39.500, 11:33:16.732, 22, 0.00, 0.47, 97, -2.300, -2.200, -92.500, 405, 100, 100, 30, 23676, -20389, 5234, 5453, 13, 14, 1526322796.732, 27, 0, 1024, 1024, 1024, 1024, 0, 6, 3925, 3935, 3970, 3961, 3989, 3935, 0, 1, 18727, -89.900, 0.000, -93.200, 0.000, 0.000, -3.000, 0.0, , , , , , 97, , , 17, 17, 17
37.7783145, -120.1185130, 39.500, 11:33:16.806, 22, 0.00, 0.47, 97, -2.300, -2.200, -92.500, 405, 100, 100, 30, 23676, -20389, 5234, 5453, 13, 14, 1526322796.807, 101, 0, 1024, 1024, 1024, 1024, 0, 6, 3925, 3935, 3970, 3961, 3989, 3935, 0, 1, 18801, -89.900, 0.000, -93.200, 0.000, 0.000, -3.000, 0.0, , , , , , 97, , , 17, 17, 17
37.7783145, -120.1185131, 39.800, 11:33:16.906, 22, 0.00, 0.48, 97, -2.900, -2.100, -92.800, 405, 100, 100, 30, 23676, -20389, 5234, 5453, 13, 14, 1526322796.907, 37, 0, 1024, 1024, 1024, 1024, 0, 6, 3925, 3935, 3970, 3961, 3989, 3935, 0, 1, 18901, -89.900, 0.000, -93.200, 0.000, 0.000, -3.000, 0.0, , , , , , 97, , , 17, 17, 17
37.7783145, -120.1185131, 39.800, 11:33:17.006, 22, 0.00, 0.48, 97, -2.900, -2.100, -92.800, 405, 100, 100, 30, 23676, -20389, 5234, 5453, 13, 14, 1526322797.007, 138, 0, 1024, 1024, 1024, 1024, 0, 6, 3925, 3935, 3970, 3961, 3989, 3935, 0, 1, 19002, -89.900, 0.000, -93.200, 0.000, 0.000, -3.000, 0.0, , , , , , 97, , , 17, 17, 17
37.7783145, -120.1185131, 39.800, 11:33:17.105, 22, 0.00, 0.48, 97, -2.900, -2.100, -92.800, 405, 100, 100, 30, 23676, -20389, 5234, 5453, 13, 14, 1526322797.106, 237, 0, 1024, 1024, 1024, 1024, 0, 6, 3925, 3935, 3970, 3961, 3989, 3935, 0, 1, 19101, -89.900, 0.000, -93.200, 0.000, 0.000, -3.000, 0.0, , , , , , 97, , , 17, 17, 17
37.7783147, -120.1185132, 41.300, 11:33:17.218, 22, 0.00, 0.50, 97, -3.400, -2.200, -94.500, 405, 100, 100, 30, 23676, -20389, 5234, 5453, 13, 14, 1526322797.219, 15, 0, 1024, 1024, 1024, 1024, 0, 6, 3925, 3935, 3970, 3961, 3989, 3935, 0, 1, 19213, -89.900, 0.000, -93.200, 0.000, 0.000, -2.800, 0.0, , , , , , 97, , , 17, 17, 17
37.7783147, -120.1185132, 41.300, 11:33:17.306, 22, 0.00, 0.50, 97, -3.400, -2.200, -94.500, 405, 100, 100, 30, 23676, -20389, 5234, 5453, 13, 14, 1526322797.307, 103, 0, 1024, 1024, 1024, 1024, 0, 6, 3925, 3935, 3970, 3961, 3989, 3935, 0, 1, 19302, -89.900, 0.000, -93.200, 0.000, 0.000, -2.800, 0.0, , , , , , 97, , , 17, 17, 17
37.7783147, -120.1185132, 41.300, 11:33:17.406, 22, 0.00, 0.50, 97, -3.400, -2.200, -94.500, 405, 100, 100, 30, 23676, -20389, 5234, 5453, 13, 14, 1526322797.407, 203, 0, 1024, 1024, 1024, 1024, 0, 6, 3925, 3935, 3970, 3961, 3989, 3935, 0, 1, 19401, -89.900, 0.000, -93.200, 0.000, 0.000, -2.800, 0.0, , , , , , 97, , , 17, 17, 17
37.7783143, -120.1185131, 42.100, 11:33:17.506, 22, 0.10, 0.45, 96, -0.200, -2.700, -93.600, 405, 100, 100, 30, 23644, -20389, 5234, 5453, 13, 14, 1526322797.507, 84, 0, 1024, 1024, 1024, 1024, 0, 6, 3925, 3935, 3970, 3961, 3989, 3935, 0, 1, 19501, -90.000, 0.000, -93.200, -0.100, 0.000, -2.800, 0.0, , , , , , 97, , , 17, 17, 17
37.7783139, -120.1185130, 42.600, 11:33:17.650, 22, 0.10, 0.42, 96, 0.500, -2.800, -92.700, 405, 100, 100, 30, 23644, -20389, 5234, 5453, 13, 14, 1526322797.651, 24, 0, 1024, 1024, 1024, 1024, 0, 6, 3928, 3943, 3953, 3952, 3967, 3932, 0, 1, 19646, -89.900, 0.000, -93.100, -0.100, 0.000, -2.900, 0.0, , , , , , 97, , , 17, 17, 17
37.7783139, -120.1185130, 42.600, 11:33:17.706, 22, 0.10, 0.42, 96, 0.500, -2.800, -92.700, 405, 100, 100, 30, 23644, -20389, 5234, 5453, 13, 14, 1526322797.707, 80, 0, 1024, 1024, 1024, 1024, 0, 6, 3928, 3943, 3953, 3952, 3967, 3932, 0, 1, 19702, -89.900, 0.000, -93.100, -0.100, 0.000, -2.900, 0.0, , , , , , 97, , , 17, 17, 17
37.7783136, -120.1185130, 43.200, 11:33:17.805, 22, 0.10, 0.39, 96, 0.600, -2.800, -92.400, 405, 100, 100, 30, 23644, -20389, 5234, 5453, 13, 14, 1526322797.806, 62, 0, 1024, 1024, 1024, 1024, 0, 6, 3928, 3943, 3953, 3952, 3967, 3932, 0, 1, 19801, -89.900, 0.000, -93.100, -0.100, 0.000, -3.000, 0.0, , , , , , 97, , , 17, 17, 17
37.7783135, -120.1185130, 43.500, 11:33:17.906, 22, 0.10, 0.37, 96, 0.300, -2.800, -92.400, 405, 100, 100, 30, 23644, -20207, 5234, 5453, 13, 14, 1526322797.907, 65, 0, 1024, 1024, 1024, 1024, 0, 6, 3928, 3943, 3953, 3952, 3967, 3932, 0, 1, 19902, -89.900, 0.000, -93.100, -0.100, 0.000, -3.000, 0.0, , , , , , 97, , , 17, 17, 17
37.7783135, -120.1185130, 43.500, 11:33:18.005, 22, 0.10, 0.37, 96, 0.300, -2.800, -92.400, 405, 100, 100, 30, 23644, -20207, 5234, 5453, 13, 14, 1526322798.006, 164, 0, 1024, 1024, 1024, 1024, 0, 6, 3939, 3926, 3954, 3957, 3976, 3942, 0, 1, 20001, -89.900, 0.000, -93.100, -0.100, 0.000, -3.000, 0.0, , , , , , 97, , , 17, 17, 17
37.7783127, -120.1185128, 45.600, 11:33:18.393, 22, 0.00, 0.31, 96, 0.500, -2.800, -92.900, 405, 100, 100, 30, 23644, -20207, 5234, 5453, 13, 14, 1526322798.398, 39, 0, 1024, 1024, 1024, 1024, 0, 6, 3939, 3926, 3954, 3957, 3976, 3942, 0, 1, 20393, -89.900, 0.000, -93.200, 0.000, 0.000, -3.100, 0.0, , , , , , 97, , , 17, 17, 17
37.7783127, -120.1185128, 45.600, 11:33:18.409, 22, 0.00, 0.31, 96, 0.500, -2.800, -92.900, 405, 100, 100, 30, 23644, -20207, 5234, 5453, 13, 14, 1526322798.417, 58, 0, 1024, 1024, 1024, 1024, 0, 6, 3939, 3926, 3954, 3957, 3976, 3942, 0, 1, 20412, -89.900, 0.000, -93.200, 0.000, 0.000, -3.100, 0.0, , , , , , 97, , , 17, 17, 17
37.7783127, -120.1185128, 45.600, 11:33:18.506, 22, 0.00, 0.31, 96, 0.500, -2.800, -92.900, 405, 100, 100, 30, 23644, -20207, 5234, 5453, 13, 14, 1526322798.507, 148, 0, 1024, 1024, 1024, 1024, 0, 6, 3939, 3926, 3954, 3957, 3976, 3942, 0, 1, 20502, -89.900, 0.000, -93.200, 0.000, 0.000, -3.100, 0.0, , , , , , 97, , , 17, 17, 17
37.7783125, -120.1185128, 46.200, 11:33:18.606, 22, 0.00, 0.29, 96, 1.000, -3.000, -92.900, 405, 100, 100, 30, 23644, -20207, 5234, 5453, 13, 14, 1526322798.606, 47, 0, 1024, 1024, 1024, 1024, 0, 6, 3939, 3926, 3954, 3957, 3976, 3942, 0, 1, 20601, -90.000, 0.000, -93.100, 0.000, 0.000, -3.100, 0.0, , , , , , 97, , , 17, 17, 17
37.7783124, -120.1185128, 46.500, 11:33:18.707, 22, 0.00, 0.29, 96, 1.000, -2.900, -93.000, 405, 100, 100, 30, 23655, -19927, 5234, 5453, 13, 14, 1526322798.708, 45, 0, 1024, 1024, 1024, 1024, 0, 6, 3927, 3936, 3947, 3952, 3961, 3931, 0, 1, 20702, -89.900, 0.000, -93.200, 0.000, 0.000, -3.100, 0.0, , , , , , 97, , , 17, 17, 17
