latitude,longitude,altitude(feet),ascent(feet),speed(mph),distance(feet),time(millisecond),datetime(utc),satellites,gpslevel,voltage(v),max_altitude(feet),max_ascent(feet),max_speed(mph),max_distance(feet), xSpeed(mph), ySpeed(mph), zSpeed(mph), compass_heading(degrees), pitch(degrees), roll(degrees),isPhoto,isVideo,rc_elevator,rc_aileron,rc_throttle,rc_rudder,gimbal_heading(degrees),gimbal_pitch(degrees),battery_percent,voltageCell1,voltageCell2,voltageCell3,voltageCell4,voltageCell5,voltageCell6,current(A),battery_temperature(f),flycStateRaw,flycState,message
37.7783113,-120.1185151,3631.8578406289,0,0.223694,0,2680,2018-05-14 18:33:01,18,0,0,3631.8578406289,0,0.223694,0,0,0,0,267.2, 1, 1.1,1,0,1024,1024,1024,1024,266.9,-89.9,98,4.308,4.173,4.308,4.291,4.219,4.267,0,84.2,11,AutoTakeoff,Photo Starting Mission from Lat/Long: 37.77831/-120.11851 Camera: Zenmuse X3 - Overlap: 90/90 - Active Connection: No
37.7783113,-120.1185151,3631.8578406289,0,0.223694,0,2700,2018-05-14 18:33:01,18,0,0,3631.8578406289,0,0.223694,0,0,0,0,267.2, 1, 1.1,0,0,1024,1024,1024,1024,266.8,-90,98,4.308,4.173,4.308,4.291,4.219,4.267,0,84.2,11,AutoTakeoff,
37.7783115,-120.118515,3631.8578406289,0,0.223694,0.0784612886,2900,2018-05-14 18:33:01,18,0,0,3631.8578406289,0,0.223694,0.0784612886,0,0,0,267.2, 0.3, 0.4,0,0,1024,1024,1024,1024,266.9,-90,98,4.308,4.173,4.308,4.291,4.219,4.267,0,84.2,11,AutoTakeoff,
37.7783116,-120.1185149,3631.8578406289,0,0.223694,0.123720148316,3000,2018-05-14 18:33:01,18,0,25.627,3631.8578406289,0,0.223694,0.123720148316,0,0,0,267.1, -0.1, -0.2,0,0,1024,1024,1024,1024,266.9,-90,98,4.308,4.173,4.308,4.291,4.219,4.267,3.675,84.2,11,AutoTakeoff,
37.778312,-120.1185147,3632.1859246289,0.328084,0.223694,0.280235245188,3100,2018-05-14 18:33:01,18,0,25.627,3632.1859246289,0.328084,0.223694,0.280235245188,0,0,0,266.8, -0.9, -1.2,0,0,1024,1024,1024,1024,266.8,-90,98,4.308,4.173,4.308,4.291,4.219,4.267,3.675,84.2,11,AutoTakeoff,
37.7783121,-120.1185146,3632.5140086289,0.656168,0.223694,0.325550863436,3300,2018-05-14 18:33:01,19,0,25.627,3632.5140086289,0.656168,0.223694,0.325550863436,0,0,0,266.6, -0.9, -1.3,0,0,1024,1024,1024,1024,266.9,-89.9,98,4.308,4.173,4.308,4.291,4.219,4.267,3.675,84.2,11,AutoTakeoff,
37.7783125,-120.1185146,3632.8420926289,0.984252,0.223694,0.46095145832,3420,2018-05-14 18:33:01,18,0,25.627,3632.8420926289,0.984252,0.223694,0.46095145832,0,0,0,266.4, -0.3, -1.1,0,0,1024,1024,1024,1024,266.9,-89.9,98,4.308,4.173,4.308,4.291,4.219,4.267,3.675,84.2,11,AutoTakeoff,
37.7783126,-120.1185146,3632.8420926289,0.984252,0,0.495734924,3600,2018-05-14 18:33:02,19,0,25.627,3632.8420926289,0.984252,0.223694,0.495734924,0,0,0,266.4, -0.2, -1.3,0,0,1024,1024,1024,1024,266.8,-89.9,98,4.308,4.173,4.308,4.291,4.219,4.267,3.675,84.2,11,AutoTakeoff,
37.7783128,-120.1185145,3633.1701766289,1.312336,0,0.57397311548,3700,2018-05-14 18:33:02,20,0,25.627,3633.1701766289,1.312336,0.223694,0.57397311548,0,0,0,266.4, -0.3, -1.4,0,0,1024,1024,1024,1024,266.9,-89.9,98,4.308,4.173,4.308,4.291,4.219,4.267,3.675,84.2,11,AutoTakeoff,
37.7783129,-120.1185145,3633.4982606289,1.64042,0,0.60886156804,3800,2018-05-14 18:33:02,20,0,25.627,3633.4982606289,1.64042,0.223694,0.60886156804,0,0,0,266.4, -0.5, -1.3,0,0,1024,1024,1024,1024,266.8,-90,98,4.308,4.173,4.308,4.291,4.219,4.267,3.675,84.2,11,AutoTakeoff,
37.7783129,-120.1185145,3633.4982606289,1.64042,0,0.60886156804,3900,2018-05-14 18:33:02,20,0,25.627,3633.4982606289,1.64042,0.223694,0.60886156804,0,0,-0.223694,266.4, -0.6, -1.3,0,0,1024,1024,1024,1024,266.9,-89.9,98,4.308,4.173,4.308,4.291,4.219,4.267,3.675,84.2,11,AutoTakeoff,
37.778313,-120.1185145,3633.8263446289,1.968504,0,0.64392390512,4200,2018-05-14 18:33:02,20,0,25.627,3633.8263446289,1.968504,0.223694,0.64392390512,0,0,-0.223694,266.6, -0.4, -1.1,0,0,1024,1024,1024,1024,266.9,-89.9,98,4.308,4.173,4.308,4.291,4.219,4.267,3.675,84.2,11,AutoTakeoff,
37.778313,-120.1185144,3634.1544286289,2.296588,0,0.65226708124,4310,2018-05-14 18:33:02,20,0,25.627,3634.1544286289,2.296588,0.223694,0.65226708124,0,0,-0.223694,266.7, -0.3, -1,0,0,1024,1024,1024,1024,266.9,-89.9,98,4.308,4.173,4.308,4.291,4.219,4.267,3.675,84.2,11,AutoTakeoff,
37.778313,-120.1185144,3634.1544286289,2.296588,0,0.65226708124,4400,2018-05-14 18:33:02,20,0,25.627,3634.1544286289,2.296588,0.223694,0.65226708124,0,0,-0.223694,266.9, -0.2, -0.9,0,0,1024,1024,1024,1024,266.9,-89.9,98,4.308,4.173,4.308,4.291,4.219,4.267,3.675,84.2,11,AutoTakeoff,
37.778313,-120.1185144,3634.8105966289,2.952756,0,0.65226708124,4600,2018-05-14 18:33:03,20,0,25.627,3634.8105966289,2.952756,0.223694,0.65226708124,0,0,-0.223694,267.1, -0.6, -0.4,0,0,1024,1024,1024,1024,266.9,-89.9,98,4.308,4.173,4.308,4.291,4.219,4.267,3.675,84.2,14,Waypoint,
37.7783129,-120.1185143,3634.8105966289,2.952756,0,0.6276903088,4740,2018-05-14 18:33:03,20,0,25.627,3634.8105966289,2.952756,0.223694,0.65226708124,0,0,0,267.1, -0.7, 0,0,0,1024,1024,1024,1024,266.9,-89.9,98,4.308,4.173,4.308,4.291,4.219,4.267,3.675,84.2,14,Waypoint,
37.7783129,-120.1185143,3634.8105966289,2.952756,0,0.6276903088,4800,2018-05-14 18:33:03,20,0,25.627,3634.8105966289,2.952756,0.223694,0.65226708124,0,0,0,267.1, -0.7, 0,0,0,1024,1024,1024,1024,266.9,-89.9,98,4.308,4.173,4.308,4.291,4.219,4.267,3.675,84.2,14,Waypoint,
37.7783128,-120.1185143,3635.1386806289,3.28084,0,0.59391078016,4900,2018-05-14 18:33:03,20,0,25.627,3635.1386806289,3.28084,0.223694,0.65226708124,0,0,0,267.1, -0.6, 0.8,0,0,1024,1024,1024,1024,266.9,-89.9,98,4.308,4.173,4.308,4.291,4.219,4.267,3.675,84.2,14,Waypoint,
37.7783128,-120.1185142,3635.1386806289,3.28084,0,0.60569555744,5000,2018-05-14 18:33:03,20,0,24.69,3635.1386806289,3.28084,0.223694,0.65226708124,0,0,0,267.1, -0.4, 1.1,0,0,1024,1024,1024,1024,266.9,-89.9,98,4.095,4.105,4.107,4.114,4.116,4.107,14.739,84.2,14,Waypoint,
37.7783128,-120.1185142,3635.1386806289,3.28084,0,0.60569555744,5200,2018-05-14 18:33:03,20,0,24.69,3635.1386806289,3.28084,0.223694,0.65226708124,0,0,0,267.1, -0.4, 1,0,0,1024,1024,1024,1024,266.9,-89.9,98,4.095,4.105,4.107,4.114,4.116,4.107,14.739,84.2,14,Waypoint,
37.7783127,-120.1185143,3635.4667646289,3.608924,0,0.56046917804,5300,2018-05-14 18:33:03,20,0,24.69,3635.4667646289,3.608924,0.223694,0.65226708124,0,0,0,267, -0.4, 0.8,0,0,1024,1024,1024,1024,266.9,-89.9,98,4.095,4.105,4.107,4.114,4.116,4.107,14.739,84.2,14,Waypoint,
37.7783127,-120.1185143,3635.4667646289,3.608924,0,0.56046917804,5400,2018-05-14 18:33:03,20,0,24.69,3635.4667646289,3.608924,0.223694,0.65226708124,0,0,-0.223694,266.9, -0.4, 0.6,0,0,1024,1024,1024,1024,266.9,-89.9,98,4.095,4.105,4.107,4.114,4.116,4.107,14.739,84.2,14,Waypoint,
37.7783127,-120.1185143,3635.7948486289,3.937008,0,0.56046917804,5500,2018-05-14 18:33:04,20,0,24.69,3635.7948486289,3.937008,0.223694,0.65226708124,0,0,-0.223694,266.9, -0.3, 0.4,0,0,1024,1024,1024,1024,266.9,-89.9,98,4.095,4.105,4.107,4.114,4.116,4.107,14.739,84.2,14,Waypoint,
37.7783128,-120.1185143,3636.4510166289,4.593176,0,0.59391078016,5600,2018-05-14 18:33:04,20,0,24.69,3636.4510166289,4.593176,0.223694,0.65226708124,0,0,-0.223694,266.8, -0.4, 0.1,0,0,1024,1024,1024,1024,266.9,-89.9,98,4.095,4.105,4.107,4.114,4.116,4.107,14.739,84.2,14,Waypoint,
37.7783128,-120.1185143,3636.7791006289,4.92126,0,0.59391078016,5700,2018-05-14 18:33:04,20,0,24.69,3636.7791006289,4.92126,0.223694,0.65226708124,0,0,-0.223694,266.7, -0.3, 0.1,0,0,1024,1024,1024,1024,266.9,-89.9,98,4.095,4.105,4.107,4.114,4.116,4.107,14.739,84.2,14,Waypoint,
37.7783128,-120.1185143,3638.0914366289,6.233596,0,0.59391078016,5900,2018-05-14 18:33:04,20,0,24.69,3638.0914366289,6.233596,0.223694,0.65226708124,0,0,-0.447388,266.9, -0.1, 0.1,0,0,1024,1024,1024,1024,266.9,-89.9,98,4.095,4.105,4.107,4.114,4.116,4.107,14.739,84.2,14,Waypoint,
37.7783129,-120.1185144,3639.4037726289,7.545932,0,0.61767390428,6220,2018-05-14 18:33:04,20,0,24.69,3639.4037726289,7.545932,0.223694,0.65226708124,0,0,-0.447388,267.2, -0.1, 0.1,0,0,1024,1024,1024,1024,266.9,-89.9,98,4.095,4.105,4.107,4.114,4.116,4.107,14.739,84.2,14,Waypoint,
37.7783129,-120.1185143,3641.3722766289,9.514436,0,0.6276903088,6420,2018-05-14 18:33:04,20,0,24.69,3641.3722766289,9.514436,0.223694,0.65226708124,0,0,-0.671082,267.5, 0.1, 0,0,0,1024,1024,1024,1024,266.9,-89.9,98,4.095,4.105,4.107,4.114,4.116,4.107,14.739,84.2,14,Waypoint,
37.7783129,-120.1185144,3643.3407806289,11.48294,0,0.61767390428,6720,2018-05-14 18:33:05,21,0,24.69,3643.3407806289,11.48294,0.223694,0.65226708124,0,0,-0.671082,267.5, -0.2, 0.1,0,0,1024,1024,1024,1024,266.9,-89.9,98,4.095,4.105,4.107,4.114,4.116,4.107,14.739,84.2,14,Waypoint,
37.7783129,-120.1185144,3644.3250326289,12.467192,0,0.61767390428,6800,2018-05-14 18:33:05,21,0,24.69,3644.3250326289,12.467192,0.223694,0.65226708124,0,0,-0.671082,267.4, -0.1, 0.2,0,0,1024,1024,1024,1024,266.9,-89.9,98,4.095,4.105,4.107,4.114,4.116,4.107,14.739,84.2,14,Waypoint,
37.7783128,-120.1185144,3648.5901246289,16.732284,0,0.58331366696,7320,2018-05-14 18:33:05,20,0,24.69,3648.5901246289,16.732284,0.223694,0.65226708124,0,0,-0.671082,267.2, 0, 0.7,0,0,1024,1024,1024,1024,266.9,-89.9,98,4.095,4.105,4.107,4.114,4.116,4.107,14.739,84.2,14,Waypoint,
37.7783127,-120.1185144,3650.8867126289,19.028872,0,0.5492290202,7500,2018-05-14 18:33:06,19,0,24.69,3650.8867126289,19.028872,0.223694,0.65226708124,0,0,-0.671082,267.2, 0, 0.8,0,0,1024,1024,1024,1024,266.9,-89.9,98,4.095,4.105,4.107,4.114,4.116,4.107,14.739,84.2,14,Waypoint,
37.7783126,-120.1185144,3653.1833006289,21.32546,0,0.51547245744,7620,2018-05-14 18:33:06,20,0,24.69,3653.1833006289,21.32546,0.223694,0.65226708124,0,0,-0.671082,267, -0.1, 0.9,0,0,1024,1024,1024,1024,266.9,-89.9,98,4.095,4.105,4.107,4.114,4.116,4.107,14.739,84.2,14,Waypoint,
37.7783125,-120.1185145,3656.1360566289,24.278216,0,0.4707677316,7900,2018-05-14 18:33:06,21,0,24.69,3656.1360566289,24.278216,0.223694,0.65226708124,0,0,-0.671082,267.1, -0.5, 0.6,0,0,1024,1024,1024,1024,266.8,-90,98,4.095,4.105,4.107,4.114,4.116,4.107,14.739,84.2,14,Waypoint,
37.7783123,-120.1185145,3660.7292326289,28.871392,0,0.40379594468,8400,2018-05-14 18:33:06,22,0,24.69,3660.7292326289,28.871392,0.223694,0.65226708124,0,0,-0.671082,267.9, -0.3, 0.1,0,0,1024,1024,1024,1024,266.8,-90,98,4.095,4.105,4.107,4.114,4.116,4.107,14.739,84.2,14,Waypoint,
37.7783123,-120.1185145,3662.6977366289,30.839896,0,0.40379594468,8520,2018-05-14 18:33:07,22,0,24.69,3662.6977366289,30.839896,0.223694,0.65226708124,0,0,-0.671082,267.5, -0.2, 0.6,0,0,1024,1024,1024,1024,266.9,-89.9,98,4.095,4.105,4.107,4.114,4.116,4.107,14.739,84.2,14,Waypoint,
37.7783123,-120.1185146,3663.6819886289,31.824148,0,0.392306443,8700,2018-05-14 18:33:07,22,0,24.69,3663.6819886289,31.824148,0.223694,0.65226708124,0,0,-0.671082,267.2, -0.1, 0.7,0,0,1024,1024,1024,1024,266.9,-89.9,98,4.095,4.105,4.107,4.114,4.116,4.107,14.739,84.2,14,Waypoint,
37.7783122,-120.1185147,3666.9628286289,35.104988,0,0.34803478804,9000,2018-05-14 18:33:07,22,0,23.942,3666.9628286289,35.104988,0.223694,0.65226708124,0,0,-0.671082,266.5, 0, 1,0,0,1024,1024,1024,1024,266.8,-89.9,97,3.967,3.992,4.009,4.006,4.021,3.983,20.053,84.2,14,Waypoint,
37.7783121,-120.1185147,3667.9470806289,36.08924,0,0.313845482484,9130,2018-05-14 18:33:07,22,0,23.942,3667.9470806289,36.08924,0.223694,0.65226708124,0,0,-0.671082,266.5, 0, 0.9,0,0,1024,1024,1024,1024,266.9,-89.9,97,3.967,3.992,4.009,4.006,4.021,3.983,20.053,84.2,14,Waypoint,
37.7783121,-120.1185147,3668.9313326289,37.073492,0,0.313845482484,9300,2018-05-14 18:33:07,22,0,23.942,3668.9313326289,37.073492,0.223694,0.65226708124,0,0,-0.671082,266.6, 0, 0.7,0,0,1024,1024,1024,1024,266.9,-89.9,97,3.967,3.992,4.009,4.006,4.021,3.983,20.053,84.2,14,Waypoint,
37.7783122,-120.1185149,3671.8840886289,40.026248,0,0.33339239912,9620,2018-05-14 18:33:08,22,0,23.942,3671.8840886289,40.026248,0.223694,0.65226708124,0,0,-0.671082,266.8, 0, 0.3,0,0,1024,1024,1024,1024,266.9,-89.9,97,3.967,3.992,4.009,4.006,4.021,3.983,20.053,84.2,14,Waypoint,
37.7783125,-120.1185148,3680.7423566289,48.884516,0,0.44628610352,10420,2018-05-14 18:33:08,22,0,23.942,3680.7423566289,48.884516,0.223694,0.65226708124,0,0,-0.671082,267, -0.6, 0.1,0,0,1024,1024,1024,1024,266.8,-90,97,3.967,3.992,4.009,4.006,4.021,3.983,20.053,84.2,14,Waypoint,
37.7783125,-120.1185148,3681.7266086289,49.868768,0,0.44628610352,10600,2018-05-14 18:33:09,22,0,23.942,3681.7266086289,49.868768,0.223694,0.65226708124,0,0,-0.671082,267.1, -0.5, 0.2,0,0,1024,1024,1024,1024,266.9,-89.9,97,3.967,3.992,4.009,4.006,4.021,3.983,20.053,84.2,14,Waypoint,
37.7783125,-120.1185148,3682.7108606289,50.85302,0,0.44628610352,10700,2018-05-14 18:33:09,22,0,23.942,3682.7108606289,50.85302,0.223694,0.65226708124,0,0,-0.671082,267.2, -0.3, 0.3,0,0,1024,1024,1024,1024,266.9,-89.9,97,3.967,3.992,4.009,4.006,4.021,3.983,20.053,84.2,14,Waypoint,
37.7783129,-120.1185146,3687.9602046289,56.102364,0,0.60130251268,11000,2018-05-14 18:33:09,22,0,24.084,3687.9602046289,56.102364,0.223694,0.65226708124,0,0,-0.671082,266.9, -0.6, -0.7,0,0,1024,1024,1024,1024,266.8,-90,97,3.99,4.01,4.023,4.022,4.039,4.003,17.863,84.2,14,Waypoint,
37.778313,-120.1185145,3688.9444566289,57.086616,0,0.64392390512,11100,2018-05-14 18:33:09,22,0,24.084,3688.9444566289,57.086616,0.223694,0.65226708124,0,0,-0.671082,266.9, -0.8, -0.6,0,0,1024,1024,1024,1024,266.9,-90,97,3.99,4.01,4.023,4.022,4.039,4.003,17.863,84.2,14,Waypoint,
37.778313,-120.1185143,3691.8972126289,60.039372,0,0.66175855136,11400,2018-05-14 18:33:09,22,0,24.084,3691.8972126289,60.039372,0.223694,0.66175855136,0,0,-0.671082,267.1, -1, 0,0,0,1024,1024,1024,1024,266.9,-89.9,97,3.99,4.01,4.023,4.022,4.039,4.003,17.863,84.2,14,Waypoint,
37.778313,-120.1185143,3692.8814646289,61.023624,0,0.66175855136,11530,2018-05-14 18:33:10,22,0,24.084,3692.8814646289,61.023624,0.223694,0.66175855136,0,0,-0.671082,267.3, -0.9, 0,0,0,1024,1024,1024,1024,266.9,-90,97,3.99,4.01,4.023,4.022,4.039,4.003,17.863,84.2,14,Waypoint,
37.7783132,-120.1185141,3696.4903886289,64.632548,0,0.7508038298,11810,2018-05-14 18:33:10,22,0,24.084,3696.4903886289,64.632548,0.223694,0.7508038298,0,0,-0.671082,267.5, -0.8, -0.2,0,0,1024,1024,1024,1024,266.9,-90,97,3.99,4.01,4.023,4.022,4.039,4.003,17.863,84.2,14,Waypoint,
37.7783133,-120.118514,3697.4746406289,65.6168,0,0.79566603596,12100,2018-05-14 18:33:10,22,0,24.084,3697.4746406289,65.6168,0.223694,0.79566603596,0,0,-0.671082,267.4, -0.8, -0.6,0,0,1024,1024,1024,1024,266.9,-89.9,97,3.99,4.01,4.023,4.022,4.039,4.003,17.863,84.2,14,Waypoint,
37.7783135,-120.1185138,3700.4273966289,68.569556,0,0.88589897848,12500,2018-05-14 18:33:11,22,0,24.084,3700.4273966289,68.569556,0.223694,0.88589897848,0,0,-0.671082,267.1, -1.1, -0.8,0,0,1024,1024,1024,1024,266.9,-89.9,97,3.99,4.01,4.023,4.022,4.039,4.003,17.863,84.2,14,Waypoint,
37.7783136,-120.1185137,3702.3959006289,70.53806,0,0.93122050224,12700,2018-05-14 18:33:11,22,0,24.084,3702.3959006289,70.53806,0.223694,0.93122050224,0,0,-0.671082,267.1, -1.1, -0.7,0,0,1024,1024,1024,1024,266.9,-90,97,3.99,4.01,4.023,4.022,4.039,4.003,17.863,84.2,14,Waypoint,
37.7783138,-120.1185134,3709.2856646289,77.427824,0,1.03551840584,13030,2018-05-14 18:33:11,22,0,24.042,3709.2856646289,77.427824,0.223694,1.03551840584,0,0,-0.671082,267.3, -1.1, -0.7,0,0,1024,1024,1024,1024,266.9,-90,97,3.993,4.004,4.02,4.015,4.032,4.004,17.674,84.2,14,Waypoint,
37.7783138,-120.1185133,3711.2541686289,79.396328,0,1.04947838004,13100,2018-05-14 18:33:11,22,0,24.042,3711.2541686289,79.396328,0.223694,1.04947838004,0,0,-0.671082,267.2, -1.6, -0.6,0,0,1024,1024,1024,1024,266.8,-90,97,3.993,4.004,4.02,4.015,4.032,4.004,17.674,84.2,14,Waypoint,
37.7783138,-120.1185132,3713.2226726289,81.364832,0,1.06403546712,13400,2018-05-14 18:33:11,22,0,24.042,3713.2226726289,81.364832,0.223694,1.06403546712,0,0,-0.671082,267.1, -1.8, -0.2,0,0,1024,1024,1024,1024,266.8,-89.9,97,3.993,4.004,4.02,4.015,4.032,4.004,17.674,84.2,14,Waypoint,
37.7783138,-120.1185131,3714.2069246289,82.349084,0,1.0791667012,13510,2018-05-14 18:33:12,22,0,24.042,3714.2069246289,82.349084,0.223694,1.0791667012,0,0,-0.671082,267.2, -2.1, -0.1,0,0,1024,1024,1024,1024,266.8,-90,97,3.993,4.004,4.02,4.015,4.032,4.004,17.674,84.2,14,Waypoint,
37.7783138,-120.118513,3716.1754286289,84.317588,0,1.09485239724,13700,2018-05-14 18:33:12,22,0,24.042,3716.1754286289,84.317588,0.223694,1.09485239724,0,0,-0.671082,267.3, -1.9, -0.1,0,0,1024,1024,1024,1024,266.9,-89.9,97,3.993,4.004,4.02,4.015,4.032,4.004,17.674,84.2,14,Waypoint,
37.7783139,-120.118513,3717.1596806289,85.30184,0,1.1254265452,13800,2018-05-14 18:33:12,22,0,24.042,3717.1596806289,85.30184,0.223694,1.1254265452,0,0,-0.671082,267.3, -1.8, -0.4,0,0,1024,1024,1024,1024,266.9,-89.9,97,3.993,4.004,4.02,4.015,4.032,4.004,17.674,84.2,14,Waypoint,
37.7783139,-120.1185129,3718.1439326289,86.286092,0,1.14120410476,13910,2018-05-14 18:33:12,22,0,24.042,3718.1439326289,86.286092,0.223694,1.14120410476,0,0,-0.671082,267.3, -1.5, -0.8,0,0,1024,1024,1024,1024,266.8,-89.9,97,3.993,4.004,4.02,4.015,4.032,4.004,17.674,84.2,14,Waypoint,
37.7783139,-120.1185129,3719.1281846289,87.270344,0,1.14120410476,14100,2018-05-14 18:33:12,22,0,24.042,3719.1281846289,87.270344,0.223694,1.14120410476,0,0,-0.671082,267.3, -1.5, -0.9,0,0,1024,1024,1024,1024,266.9,-89.9,97,3.993,4.004,4.02,4.015,4.032,4.004,17.674,84.2,14,Waypoint,
37.7783139,-120.1185129,3720.4405206289,88.58268,0,1.14120410476,14400,2018-05-14 18:33:12,22,0,24.042,3720.4405206289,88.58268,0.223694,1.14120410476,0,0,-0.671082,267.3, -1.9, -1,0,0,1024,1024,1024,1024,266.9,-90,97,3.993,4.004,4.02,4.015,4.032,4.004,17.674,84.2,14,Waypoint,
37.778314,-120.1185128,3721.4247726289,89.566932,0,1.18756893564,14600,2018-05-14 18:33:13,22,0,24.042,3721.4247726289,89.566932,0.223694,1.18756893564,0,0,-0.671082,267.4, -2.5, -1.1,0,0,1024,1024,1024,1024,266.8,-89.9,97,3.993,4.004,4.02,4.015,4.032,4.004,17.674,84.2,14,Waypoint,
37.778314,-120.1185126,3723.3932766289,91.535436,0,1.220718543,14900,2018-05-14 18:33:13,22,0,24.042,3723.3932766289,91.535436,0.223694,1.220718543,0,0,-0.671082,267.2, -3.2, -1.8,0,0,1024,1024,1024,1024,266.8,-90,97,3.993,4.004,4.02,4.015,4.032,4.004,17.674,84.2,14,Waypoint,
37.778314,-120.1185123,3728.3145366289,96.456696,0,1.27372379404,15100,2018-05-14 18:33:13,22,0,24.042,3728.3145366289,96.456696,0.223694,1.27372379404,0,0,-0.671082,266.8, -3.6, -0.8,0,0,1024,1024,1024,1024,266.8,-89.9,97,3.993,4.004,4.02,4.015,4.032,4.004,17.674,84.2,14,Waypoint,
37.7783141,-120.1185123,3729.2987886289,97.440948,0,1.30214571096,15210,2018-05-14 18:33:13,22,0,24.042,3729.2987886289,97.440948,0.223694,1.30214571096,0,0,-0.671082,266.9, -3.7, -0.9,0,0,1024,1024,1024,1024,266.8,-89.9,97,3.993,4.004,4.02,4.015,4.032,4.004,17.674,84.2,14,Waypoint,
37.7783141,-120.1185123,3730.2830406289,98.4252,0,1.30214571096,15310,2018-05-14 18:33:13,22,0,24.042,3730.2830406289,98.4252,0.223694,1.30214571096,0,0,-0.671082,267, -3.7, -1.1,0,0,1024,1024,1024,1024,266.8,-89.9,97,3.993,4.004,4.02,4.015,4.032,4.004,17.674,84.2,14,Waypoint,
37.7783141,-120.1185123,3732.2515446289,100.393704,0,1.30214571096,15520,2018-05-14 18:33:14,22,0,24.042,3732.2515446289,100.393704,0.223694,1.30214571096,0,0,-0.671082,267.3, -3.3, -1.3,0,0,1024,1024,1024,1024,266.9,-89.9,97,3.993,4.004,4.02,4.015,4.032,4.004,17.674,84.2,14,Waypoint,
37.7783141,-120.1185123,3733.2357966289,101.377956,0,1.30214571096,15700,2018-05-14 18:33:14,22,0,24.042,3733.2357966289,101.377956,0.223694,1.30214571096,0,0,-0.671082,267.5, -2.9, -1.5,0,0,1024,1024,1024,1024,266.9,-89.9,97,3.993,4.004,4.02,4.015,4.032,4.004,17.674,84.2,14,Waypoint,
37.7783143,-120.1185126,3737.1728046289,105.314964,0,1.31063980572,15830,2018-05-14 18:33:14,22,0,24.042,3737.1728046289,105.314964,0.223694,1.31063980572,0,0,-0.671082,267.6, -2.1, -2.3,0,0,1024,1024,1024,1024,266.9,-89.9,97,3.993,4.004,4.02,4.015,4.032,4.004,17.674,84.2,14,Waypoint,
37.7783143,-120.1185126,3737.1728046289,105.314964,0,1.31063980572,15900,2018-05-14 18:33:14,22,0,24.042,3737.1728046289,105.314964,0.223694,1.31063980572,0,0,-0.671082,267.6, -2.1, -2.3,0,0,1024,1024,1024,1024,266.9,-89.9,97,3.993,4.004,4.02,4.015,4.032,4.004,17.674,84.2,14,Waypoint,
37.7783143,-120.1185126,3737.8289726289,105.971132,0,1.31063980572,16000,2018-05-14 18:33:14,22,0,23.977,3737.8289726289,105.971132,0.223694,1.31063980572,0,0,-0.671082,267.6, -2.2, -2,0,0,1024,1024,1024,1024,266.8,-89.9,97,3.97,3.987,3.999,4.003,4.013,3.985,17.548,86,14,Waypoint,
37.7783143,-120.1185126,3738.8132246289,106.955384,0,1.31063980572,16100,2018-05-14 18:33:14,22,0,23.977,3738.8132246289,106.955384,0.223694,1.31063980572,0,0,-0.671082,267.5, -2.3, -1.9,0,0,1024,1024,1024,1024,266.8,-89.9,97,3.97,3.987,3.999,4.003,4.013,3.985,17.548,86,14,Waypoint,
37.7783144,-120.1185127,3740.7817286289,108.923888,0,1.32598101356,16500,2018-05-14 18:33:15,22,0,23.977,3740.7817286289,108.923888,0.223694,1.32598101356,0,0,-0.671082,267, -2.7, -2.4,0,0,1024,1024,1024,1024,266.8,-89.9,97,3.97,3.987,3.999,4.003,4.013,3.985,17.548,86,14,Waypoint,
37.7783144,-120.1185127,3741.7659806289,109.90814,0,1.32598101356,16600,2018-05-14 18:33:15,22,0,23.977,3741.7659806289,109.90814,0.223694,1.32598101356,0,0,-0.671082,267, -2.6, -2.6,0,0,1024,1024,1024,1024,266.8,-89.9,97,3.97,3.987,3.999,4.003,4.013,3.985,17.548,86,14,Waypoint,
37.7783144,-120.1185128,3745.7029886289,113.845148,0,1.31116145928,16850,2018-05-14 18:33:15,22,0,23.977,3745.7029886289,113.845148,0.223694,1.32598101356,0,0,-0.671082,267.2, -2.6, -2.3,0,0,1024,1024,1024,1024,266.8,-89.9,97,3.97,3.987,3.999,4.003,4.013,3.985,17.548,86,14,Waypoint,
37.7783144,-120.1185129,3747.6714926289,115.813652,0,1.29681434596,16920,2018-05-14 18:33:15,22,0,23.977,3747.6714926289,115.813652,0.223694,1.32598101356,0,0,-0.671082,267.2, -2.6, -2.2,0,0,1024,1024,1024,1024,266.9,-89.9,97,3.97,3.987,3.999,4.003,4.013,3.985,17.548,86,14,Waypoint,
37.7783145,-120.1185128,3750.6242486289,118.766408,0,1.34276251016,17130,2018-05-14 18:33:15,22,0,23.977,3750.6242486289,118.766408,0.223694,1.34276251016,0,0,-0.671082,267.1, -2.9, -2.2,0,0,1024,1024,1024,1024,266.8,-89.9,97,3.97,3.987,3.999,4.003,4.013,3.985,17.548,86,14,Waypoint,
37.7783145,-120.1185128,3750.6242486289,118.766408,0,1.34276251016,17200,2018-05-14 18:33:15,22,0,23.977,3750.6242486289,118.766408,0.223694,1.34276251016,0,0,-0.671082,267.1, -2.9, -2.2,0,0,1024,1024,1024,1024,266.8,-89.9,97,3.97,3.987,3.999,4.003,4.013,3.985,17.548,86,14,Waypoint,
37.7783145,-120.1185128,3751.6085006289,119.75066,0,1.34276251016,17400,2018-05-14 18:33:15,22,0,23.977,3751.6085006289,119.75066,0.223694,1.34276251016,0,0,-0.671082,267.1, -3, -2.3,0,0,1024,1024,1024,1024,266.8,-89.9,97,3.97,3.987,3.999,4.003,4.013,3.985,17.548,86,14,Waypoint,
37.7783145,-120.1185128,3752.5927526289,120.734912,0,1.34276251016,17500,2018-05-14 18:33:16,22,0,23.977,3752.5927526289,120.734912,0.223694,1.34276251016,0,0,-0.671082,267, -3.1, -2.7,0,0,1024,1024,1024,1024,266.8,-90,97,3.97,3.987,3.999,4.003,4.013,3.985,17.548,86,14,Waypoint,
37.7783146,-120.1185129,3754.5612566289,122.703416,0,1.36092195956,17620,2018-05-14 18:33:16,22,0,23.977,3754.5612566289,122.703416,0.223694,1.36092195956,0,0,-0.671082,267, -3, -3.1,0,0,1024,1024,1024,1024,266.8,-89.9,97,3.97,3.987,3.999,4.003,4.013,3.985,17.548,86,14,Waypoint,
37.7783146,-120.1185129,3755.5455086289,123.687668,0,1.36092195956,17700,2018-05-14 18:33:16,22,0,23.977,3755.5455086289,123.687668,0.223694,1.36092195956,0,0,-0.671082,267, -2.5, -3,0,0,1024,1024,1024,1024,266.8,-89.9,97,3.97,3.987,3.999,4.003,4.013,3.985,17.548,86,14,Waypoint,
37.7783146,-120.1185129,3756.5297606289,124.67192,0,1.36092195956,17800,2018-05-14 18:33:16,22,0,23.977,3756.5297606289,124.67192,0.223694,1.36092195956,0,0,-0.671082,267, -2.2, -2.5,0,0,1024,1024,1024,1024,266.8,-89.9,97,3.97,3.987,3.999,4.003,4.013,3.985,17.548,86,14,Waypoint,
37.7783145,-120.1185129,3757.5140126289,125.656172,0,1.32875332336,17920,2018-05-14 18:33:16,22,0,23.977,3757.5140126289,125.656172,0.223694,1.36092195956,0,0,-0.671082,267, -2.2, -2,0,0,1024,1024,1024,1024,266.9,-89.9,97,3.97,3.987,3.999,4.003,4.013,3.985,17.548,86,14,Waypoint,
37.7783145,-120.1185129,3757.5140126289,125.656172,0,1.32875332336,18000,2018-05-14 18:33:16,22,0,23.723,3757.5140126289,125.656172,0.223694,1.36092195956,0,0,-0.671082,267, -2.2, -2,0,0,1024,1024,1024,1024,266.9,-89.9,97,3.925,3.935,3.97,3.961,3.989,3.935,20.228,86,14,Waypoint,
37.7783145,-120.118513,3760.4667686289,128.608928,0,1.31522970088,18610,2018-05-14 18:33:17,22,0,23.723,3760.4667686289,128.608928,0.223694,1.36092195956,0,0,-0.671082,267.6, -2.2, -1.7,0,0,1024,1024,1024,1024,266.8,-89.9,97,3.925,3.935,3.97,3.961,3.989,3.935,20.228,86,14,Waypoint,
37.7783145,-120.118513,3761.4510206289,129.59318,0,1.31522970088,18730,2018-05-14 18:33:17,22,0,23.723,3761.4510206289,129.59318,0.223694,1.36092195956,0,0,-0.671082,267.5, -2.2, -2.3,0,0,1024,1024,1024,1024,266.8,-89.9,97,3.925,3.935,3.97,3.961,3.989,3.935,20.228,86,14,Waypoint,
37.7783145,-120.1185131,3762.4352726289,130.577432,0,1.30220148524,18900,2018-05-14 18:33:17,22,0,23.723,3762.4352726289,130.577432,0.223694,1.36092195956,0,0,-0.671082,267.2, -2.1, -2.9,0,0,1024,1024,1024,1024,266.8,-89.9,97,3.925,3.935,3.97,3.961,3.989,3.935,20.228,86,14,Waypoint,
37.7783147,-120.1185132,3767.3565326289,135.498692,0,1.3561024056,19210,2018-05-14 18:33:17,22,0,23.723,3767.3565326289,135.498692,0.223694,1.36092195956,0,0,-0.671082,265.5, -2.2, -3.4,0,0,1024,1024,1024,1024,266.8,-89.9,97,3.925,3.935,3.97,3.961,3.989,3.935,20.228,86,14,Waypoint,
37.7783143,-120.1185131,3769.9812046289,138.123364,0.223694,1.23720148316,19500,2018-05-14 18:33:18,22,0,23.723,3769.9812046289,138.123364,0.223694,1.36092195956,0,0,-0.671082,266.4, -2.7, -0.2,0,0,1024,1024,1024,1024,266.8,-90,97,3.925,3.935,3.97,3.961,3.989,3.935,20.228,86,14,Waypoint,
37.7783139,-120.118513,3771.6216246289,139.763784,0.223694,1.1254265452,19650,2018-05-14 18:33:18,22,0,23.723,3771.6216246289,139.763784,0.223694,1.36092195956,0,0,-0.671082,267.3, -2.8, 0.5,0,0,1024,1024,1024,1024,266.9,-89.9,97,3.925,3.935,3.97,3.961,3.989,3.935,20.228,86,14,Waypoint,
37.7783139,-120.118513,3771.6216246289,139.763784,0.223694,1.1254265452,19700,2018-05-14 18:33:18,22,0,23.723,3771.6216246289,139.763784,0.223694,1.36092195956,0,0,-0.671082,267.3, -2.8, 0.5,0,0,1024,1024,1024,1024,266.9,-89.9,97,3.925,3.935,3.97,3.961,3.989,3.935,20.228,86,14,Waypoint,
37.7783136,-120.118513,3773.5901286289,141.732288,0.223694,1.03484583364,19800,2018-05-14 18:33:18,22,0,23.723,3773.5901286289,141.732288,0.223694,1.36092195956,0,0,-0.671082,267.6, -2.8, 0.6,0,0,1024,1024,1024,1024,266.9,-89.9,97,3.925,3.935,3.97,3.961,3.989,3.935,20.228,86,14,Waypoint,
37.7783135,-120.118513,3774.5743806289,142.71654,0.223694,1.00548887732,19900,2018-05-14 18:33:18,22,0,23.723,3774.5743806289,142.71654,0.223694,1.36092195956,0,0,-0.671082,267.6, -2.8, 0.3,0,0,1024,1024,1024,1024,266.9,-89.9,97,3.925,3.935,3.97,3.961,3.989,3.935,20.228,86,14,Waypoint,
37.7783127,-120.1185128,3781.4641446289,149.606304,0,0.83714569608,20390,2018-05-14 18:33:18,22,0,23.723,3781.4641446289,149.606304,0.223694,1.36092195956,0,0,-0.671082,267.1, -2.8, 0.5,0,0,1024,1024,1024,1024,266.8,-89.9,97,3.925,3.935,3.97,3.961,3.989,3.935,20.228,86,14,Waypoint,
37.7783127,-120.1185128,3781.4641446289,149.606304,0,0.83714569608,20410,2018-05-14 18:33:18,22,0,23.723,3781.4641446289,149.606304,0.223694,1.36092195956,0,0,-0.671082,267.1, -2.8, 0.5,0,0,1024,1024,1024,1024,266.8,-89.9,97,3.925,3.935,3.97,3.961,3.989,3.935,20.228,86,14,Waypoint,
37.7783125,-120.1185128,3783.4326486289,151.574808,0,0.79472771572,20600,2018-05-14 18:33:19,22,0,23.723,3783.4326486289,151.574808,0.223694,1.36092195956,0,0,-0.671082,267.1, -3, 1,0,0,1024,1024,1024,1024,266.9,-90,97,3.925,3.935,3.97,3.961,3.989,3.935,20.228,86,14,Waypoint,
37.7783124,-120.1185128,3784.4169006289,152.55906,0,0.77522640276,20700,2018-05-14 18:33:19,22,0,23.723,3784.4169006289,152.55906,0.223694,1.36092195956,0,0,-0.671082,267, -2.9, 1,0,0,1024,1024,1024,1024,266.8,-89.9,97,3.925,3.935,3.97,3.961,3.989,3.935,20.228,86,14,Waypoint,
37.7783122,-120.1185128,3786.3854046289,154.527564,0,0.74008860636,20920,2018-05-14 18:33:19,22,0,23.723,3786.3854046289,154.527564,0.223694,1.36092195956,0,0,-0.671082,267.2, -2.7, 1,0,0,1024,1024,1024,1024,266.8,-89.9,97,3.925,3.935,3.97,3.961,3.989,3.935,20.228,86,14,Waypoint,
37.7783122,-120.1185128,3786.3854046289,154.527564,0,0.74008860636,21000,2018-05-14 18:33:19,22,0,23.655,3786.3854046289,154.527564,0.223694,1.36092195956,0,0,-0.671082,267.2, -2.7, 1,0,0,1024,1024,1024,1024,266.8,-89.9,96,3.927,3.936,3.947,3.952,3.961,3.931,19.927,86,14,Waypoint,
37.778312,-120.1185128,3788.3539086289,156.496068,0,0.7107283692,21310,2018-05-14 18:33:19,22,0,23.655,3788.3539086289,156.496068,0.223694,1.36092195956,0,0,-0.671082,267.3, -2.8, 0.9,0,0,1024,1024,1024,1024,266.8,-89.9,96,3.927,3.936,3.947,3.952,3.961,3.931,19.927,86,14,Waypoint,
37.7783119,-120.1185129,3789.3381606289,157.48032,0,0.67112534956,21420,2018-05-14 18:33:19,22,0,23.655,3789.3381606289,157.48032,0.223694,1.36092195956,0,0,-0.671082,267.4, -2.8, 1,0,0,1024,1024,1024,1024,266.9,-89.9,96,3.927,3.936,3.947,3.952,3.961,3.931,19.927,86,14,Waypoint,
37.7783117,-120.118513,3793.2751686289,161.417328,0,0.62291996744,21700,2018-05-14 18:33:20,22,0,23.655,3793.2751686289,161.417328,0.223694,1.36092195956,0,0,-0.671082,267.2, -2.3, 1.1,0,0,1024,1024,1024,1024,266.9,-89.9,96,3.927,3.936,3.947,3.952,3.961,3.931,19.927,86,14,Waypoint,
37.7783117,-120.1185131,3794.2594206289,162.40158,0,0.59492127888,21800,2018-05-14 18:33:20,22,0,23.655,3794.2594206289,162.40158,0.223694,1.36092195956,0,0,-0.671082,267.3, -2.4, 0.5,0,0,1024,1024,1024,1024,266.8,-89.9,96,3.927,3.936,3.947,3.952,3.961,3.931,19.927,86,14,Waypoint,
37.7783118,-120.1185131,3796.2279246289,164.370084,0,0.60490815584,21900,2018-05-14 18:33:20,22,0,23.655,3796.2279246289,164.370084,0.223694,1.36092195956,0,0,-0.671082,267.2, -2.8, -0.3,0,0,1024,1024,1024,1024,266.8,-89.9,96,3.927,3.936,3.947,3.952,3.961,3.931,19.927,86,14,Waypoint,
37.7783118,-120.1185132,3797.2121766289,165.354336,0,0.5774770526,22000,2018-05-14 18:33:20,22,0,23.713,3797.2121766289,165.354336,0.223694,1.36092195956,0,0,-0.671082,267.1, -2.9, -0.2,0,0,1024,1024,1024,1024,266.8,-90,96,3.935,3.945,3.955,3.964,3.975,3.94,19.461,86,14,Waypoint,
37.7783119,-120.1185132,3799.5087646289,167.650924,0,0.59001970392,22330,2018-05-14 18:33:20,22,0,23.713,3799.5087646289,167.650924,0.223694,1.36092195956,0,0,-0.671082,267.1, -2.7, 0,0,0,1024,1024,1024,1024,266.9,-89.9,96,3.935,3.945,3.955,3.964,3.975,3.94,19.461,86,14,Waypoint,
37.7783119,-120.1185132,3799.5087646289,167.650924,0,0.59001970392,22400,2018-05-14 18:33:20,22,0,23.713,3799.5087646289,167.650924,0.223694,1.36092195956,0,0,-0.671082,267.1, -2.7, 0,0,0,1024,1024,1024,1024,266.9,-89.9,96,3.935,3.945,3.955,3.964,3.975,3.94,19.461,86,14,Waypoint,
37.778312,-120.1185132,3803.4457726289,171.587932,0,0.60450789336,22700,2018-05-14 18:33:21,22,0,23.713,3803.4457726289,171.587932,0.223694,1.36092195956,0,0,-0.671082,267.2, -2.5, -0.8,0,0,1024,1024,1024,1024,266.8,-89.9,96,3.935,3.945,3.955,3.964,3.975,3.94,19.461,86,14,Waypoint,
37.7783121,-120.1185132,3805.4142766289,173.556436,0,0.62080382564,22800,2018-05-14 18:33:21,22,0,23.713,3805.4142766289,173.556436,0.223694,1.36092195956,0,0,-0.671082,267.1, -3.1, -0.1,0,0,1024,1024,1024,1024,266.8,-89.9,96,3.935,3.945,3.955,3.964,3.975,3.94,19.461,86,14,Waypoint,
37.7783121,-120.1185132,3806.3985286289,174.540688,0,0.62080382564,22900,2018-05-14 18:33:21,22,0,23.713,3806.3985286289,174.540688,0.223694,1.36092195956,0,0,-0.671082,267.1, -2.8, 0.5,0,0,1024,1024,1024,1024,266.9,-89.9,96,3.935,3.945,3.955,3.964,3.975,3.94,19.461,86,14,Waypoint,
37.7783121,-120.1185132,3807.3827806289,175.52494,0,0.62080382564,23000,2018-05-14 18:33:21,22,0,23.713,3807.3827806289,175.52494,0.223694,1.36092195956,0,0,-0.671082,267.1, -2.9, 0.5,0,0,1024,1024,1024,1024,266.8,-90,96,3.935,3.945,3.955,3.964,3.975,3.94,19.461,86,14,Waypoint,
37.7783122,-120.1185131,3808.3670326289,176.509192,0,0.66366800024,23100,2018-05-14 18:33:21,22,0,23.713,3808.3670326289,176.509192,0.223694,1.36092195956,0,0,-0.671082,267.1, -2.9, 0,0,0,1024,1024,1024,1024,266.8,-89.9,96,3.935,3.945,3.955,3.964,3.975,3.94,19.461,86,14,Waypoint,
37.7783123,-120.1185131,3809.3512846289,177.493444,0,0.68245737092,23220,2018-05-14 18:33:21,22,0,23.713,3809.3512846289,177.493444,0.223694,1.36092195956,0,0,-0.671082,267.2, -3.2, -0.6,0,0,1024,1024,1024,1024,266.8,-90,96,3.935,3.945,3.955,3.964,3.975,3.94,19.461,86,14,Waypoint,
37.7783125,-120.118513,3813.2882926289,181.430452,0,0.74727036512,23500,2018-05-14 18:33:22,22,0,23.713,3813.2882926289,181.430452,0.223694,1.36092195956,0,0,-0.671082,267.2, -3.4, -1.2,0,0,1024,1024,1024,1024,266.8,-90,96,3.935,3.945,3.955,3.964,3.975,3.94,19.461,86,14,Waypoint,
37.7783126,-120.1185129,3814.2725446289,182.414704,0,0.79211944792,23600,2018-05-14 18:33:22,22,0,23.713,3814.2725446289,182.414704,0.223694,1.36092195956,0,0,-0.671082,267.1, -3.4, -1.4,0,0,1024,1024,1024,1024,266.9,-89.9,96,3.935,3.945,3.955,3.964,3.975,3.94,19.461,86,14,Waypoint,
37.7783126,-120.1185129,3815.5848806289,183.72704,0,0.79211944792,23800,2018-05-14 18:33:22,22,0,23.713,3815.5848806289,183.72704,0.223694,1.36092195956,0,0,-0.671082,267, -3.4, -1.4,0,0,1024,1024,1024,1024,266.9,-89.9,96,3.935,3.945,3.955,3.964,3.975,3.94,19.461,86,14,Waypoint,
37.7783127,-120.1185129,3817.5533846289,185.695544,0,0.81448821504,24000,2018-05-14 18:33:22,22,0,23.594,3817.5533846289,185.695544,0.223694,1.36092195956,0,0,-0.671082,266.9, -3.3, -0.3,0,0,1024,1024,1024,1024,266.9,-89.9,96,3.91,3.928,3.937,3.939,3.952,3.921,20.087,86,14,Waypoint,
37.7783128,-120.1185129,3818.5376366289,186.679796,0,0.83785107668,24100,2018-05-14 18:33:22,22,0,23.594,3818.5376366289,186.679796,0.223694,1.36092195956,0,0,-0.671082,267.1, -3.1, -0.1,0,0,1024,1024,1024,1024,266.9,-89.9,96,3.91,3.928,3.937,3.939,3.952,3.921,20.087,86,14,Waypoint,
37.7783129,-120.1185129,3821.4903926289,189.632552,0,0.86212601184,24300,2018-05-14 18:33:22,22,0,23.594,3821.4903926289,189.632552,0.223694,1.36092195956,0,0,-0.671082,267.5, -3.3, -0.9,0,0,1024,1024,1024,1024,266.8,-89.9,96,3.91,3.928,3.937,3.939,3.952,3.921,20.087,86,14,Waypoint,
37.7783131,-120.1185129,3823.4588966289,191.601056,0,0.91311682712,24400,2018-05-14 18:33:22,22,0,23.594,3823.4588966289,191.601056,0.223694,1.36092195956,0,0,-0.671082,267.4, -3.2, -1.1,0,0,1024,1024,1024,1024,266.9,-89.9,96,3.91,3.928,3.937,3.939,3.952,3.921,20.087,86,14,Waypoint,
37.7783131,-120.1185129,3824.4431486289,192.585308,0,0.91311682712,24600,2018-05-14 18:33:23,22,0,23.594,3824.4431486289,192.585308,0.223694,1.36092195956,0,0,-0.671082,267.4, -3.3, -1.2,0,0,1024,1024,1024,1024,266.8,-89.9,96,3.91,3.928,3.937,3.939,3.952,3.921,20.087,86,14,Waypoint,
37.7783132,-120.1185129,3825.4274006289,193.56956,0,0.9396981928,24700,2018-05-14 18:33:23,22,0,23.594,3825.4274006289,193.56956,0.223694,1.36092195956,0,0,-0.671082,267.3, -3.2, -1.5,0,0,1024,1024,1024,1024,266.8,-89.9,96,3.91,3.928,3.937,3.939,3.952,3.921,20.087,86,14,Waypoint,
37.7783133,-120.1185129,3826.4116526289,194.553812,0,0.96692588396,24800,2018-05-14 18:33:23,22,0,23.594,3826.4116526289,194.553812,0.223694,1.36092195956,0,0,-0.671082,267.4, -3.2, -1.7,0,0,1024,1024,1024,1024,266.8,-89.9,96,3.91,3.928,3.937,3.939,3.952,3.921,20.087,86,14,Waypoint,
37.7783133,-120.1185129,3827.3959046289,195.538064,0,0.96692588396,24910,2018-05-14 18:33:23,22,0,23.594,3827.3959046289,195.538064,0.223694,1.36092195956,0,0,-0.671082,267.3, -3.3, -1.4,0,0,1024,1024,1024,1024,266.9,-89.9,96,3.91,3.928,3.937,3.939,3.952,3.921,20.087,86,14,Waypoint,
37.7783133,-120.1185129,3828.3801566289,196.522316,0,0.96692588396,25000,2018-05-14 18:33:23,22,0,23.584,3828.3801566289,196.522316,0.223694,1.36092195956,0,0,-0.671082,267.2, -3.1, -0.9,0,0,1024,1024,1024,1024,266.9,-89.9,96,3.905,3.929,3.939,3.937,3.96,3.922,20.087,86,14,Waypoint,
37.7783132,-120.1185129,3829.3644086289,197.506568,0,0.9396981928,25100,2018-05-14 18:33:23,22,0,23.584,3829.3644086289,197.506568,0.223694,1.36092195956,0,0,-0.671082,267, -2.8, -0.2,0,0,1024,1024,1024,1024,266.9,-89.9,96,3.905,3.929,3.939,3.937,3.96,3.922,20.087,86,14,Waypoint,
37.7783132,-120.118513,3830.3486606289,198.49082,0,0.92047575124,25300,2018-05-14 18:33:23,22,0,23.584,3830.3486606289,198.49082,0.223694,1.36092195956,0,0,-0.671082,266.8, -2.5, -0.3,0,0,1024,1024,1024,1024,266.9,-89.9,96,3.905,3.929,3.939,3.937,3.96,3.922,20.087,86,14,Waypoint,
37.7783132,-120.118513,3831.3329126289,199.475072,0,0.92047575124,25400,2018-05-14 18:33:23,22,0,23.584,3831.3329126289,199.475072,0.223694,1.36092195956,0,0,-0.671082,266.8, -2.6, -0.2,0,0,1024,1024,1024,1024,266.8,-89.9,96,3.905,3.929,3.939,3.937,3.96,3.922,20.087,86,14,Waypoint,
37.7783131,-120.1185131,3832.3171646289,200.459324,0,0.87402889936,25500,2018-05-14 18:33:24,22,0,23.584,3832.3171646289,200.459324,0.223694,1.36092195956,0,0,-0.671082,266.7, -2.9, 0,0,0,1024,1024,1024,1024,266.8,-89.9,96,3.905,3.929,3.939,3.937,3.96,3.922,20.087,86,14,Waypoint,
37.7783131,-120.1185131,3832.9733326289,201.115492,0,0.87402889936,25600,2018-05-14 18:33:24,22,0,23.584,3832.9733326289,201.115492,0.223694,1.36092195956,0,0,-0.671082,266.6, -3, 0.2,0,0,1024,1024,1024,1024,266.8,-89.9,96,3.905,3.929,3.939,3.937,3.96,3.922,20.087,86,14,Waypoint,
37.778313,-120.1185131,3833.9575846289,202.099744,0,0.84695868852,25700,2018-05-14 18:33:24,22,0,23.584,3833.9575846289,202.099744,0.223694,1.36092195956,0,0,-0.671082,266.6, -2.9, 0,0,0,1024,1024,1024,1024,266.9,-89.9,96,3.905,3.929,3.939,3.937,3.96,3.922,20.087,86,14,Waypoint,
37.778313,-120.1185132,3835.9260886289,204.068248,0,0.82758860916,25900,2018-05-14 18:33:24,22,0,23.584,3835.9260886289,204.068248,0.223694,1.36092195956,0,0,-0.671082,266.8, -2.5, -0.5,0,0,1024,1024,1024,1024,266.9,-89.9,96,3.905,3.929,3.939,3.937,3.96,3.922,20.087,86,14,Waypoint,
37.778313,-120.1185134,3838.8788446289,207.021004,0,0.79058729564,26120,2018-05-14 18:33:24,22,0,23.584,3838.8788446289,207.021004,0.223694,1.36092195956,0,0,-0.671082,266.9, -2.7, -0.1,0,0,1024,1024,1024,1024,266.8,-89.9,96,3.905,3.929,3.939,3.937,3.96,3.922,20.087,86,14,Waypoint,
37.778313,-120.1185134,3840.8473486289,208.989508,0,0.79058729564,26400,2018-05-14 18:33:24,22,0,23.584,3840.8473486289,208.989508,0.223694,1.36092195956,0,0,-0.671082,267.1, -2.6, 0,0,0,1024,1024,1024,1024,266.9,-89.9,96,3.905,3.929,3.939,3.937,3.96,3.922,20.087,86,14,Waypoint,
37.7783131,-120.1185134,3842.8158526289,210.958012,0,0.81952430444,26500,2018-05-14 18:33:25,22,0,23.584,3842.8158526289,210.958012,0.223694,1.36092195956,0,0,-0.671082,267.3, -2.9, 0,0,0,1024,1024,1024,1024,266.9,-89.9,96,3.905,3.929,3.939,3.937,3.96,3.922,20.087,86,14,Waypoint,
37.7783131,-120.1185134,3843.8001046289,211.942264,0,0.81952430444,26600,2018-05-14 18:33:25,22,0,23.584,3843.8001046289,211.942264,0.223694,1.36092195956,0,0,-0.671082,267.4, -3, -0.2,0,0,1024,1024,1024,1024,266.9,-89.9,96,3.905,3.929,3.939,3.937,3.96,3.922,20.087,86,14,Waypoint,
37.7783131,-120.1185134,3844.7843566289,212.926516,0,0.81952430444,26800,2018-05-14 18:33:25,22,0,23.584,3844.7843566289,212.926516,0.223694,1.36092195956,0,0,-0.671082,267.4, -3.3, -0.5,0,0,1024,1024,1024,1024,266.9,-90,96,3.905,3.929,3.939,3.937,3.96,3.922,20.087,86,14,Waypoint,
37.7783132,-120.1185133,3845.7686086289,213.910768,0,0.86601380724,26900,2018-05-14 18:33:25,22,0,23.584,3845.7686086289,213.910768,0.223694,1.36092195956,0,0,-0.671082,267.1, -3.4, -0.4,0,0,1024,1024,1024,1024,266.8,-90,96,3.905,3.929,3.939,3.937,3.96,3.922,20.087,86,14,Waypoint,
37.7783132,-120.1185133,3846.7528606289,214.89502,0,0.86601380724,27000,2018-05-14 18:33:25,22,0,23.466,3846.7528606289,214.89502,0.223694,1.36092195956,0,0,-0.671082,267, -3.7, 0,0,0,1024,1024,1024,1024,266.9,-90,96,3.895,3.899,3.911,3.906,3.937,3.892,21.429,86,14,Waypoint,
37.7783132,-120.118513,3849.3775326289,217.519692,0,0.92047575124,27300,2018-05-14 18:33:25,22,0,23.466,3849.3775326289,217.519692,0.223694,1.36092195956,0,0,-0.671082,267.2, -4.3, 0,0,0,1024,1024,1024,1024,266.8,-90,96,3.895,3.899,3.911,3.906,3.937,3.892,21.429,86,14,Waypoint,
37.7783132,-120.1185128,3851.3460366289,219.488196,0,0.95940291784,27510,2018-05-14 18:33:26,22,0,23.466,3851.3460366289,219.488196,0.223694,1.36092195956,0,0,-0.671082,267.4, -4.9, 0,0,0,1024,1024,1024,1024,266.8,-90,96,3.895,3.899,3.911,3.906,3.937,3.892,21.429,86,14,Waypoint,
37.7783132,-120.1185127,3852.6583726289,220.800532,0,0.9795603988,27600,2018-05-14 18:33:26,22,0,23.466,3852.6583726289,220.800532,0.223694,1.36092195956,0,0,-0.671082,267.4, -5.4, 0.3,0,0,1024,1024,1024,1024,266.9,-90,96,3.895,3.899,3.911,3.906,3.937,3.892,21.429,86,14,Waypoint,
37.7783133,-120.1185125,3853.6426246289,221.784784,0,1.04623691012,27700,2018-05-14 18:33:26,22,0,23.466,3853.6426246289,221.784784,0.223694,1.36092195956,0,0,-0.671082,267.4, -5.5, 0.7,0,0,1024,1024,1024,1024,266.9,-90,96,3.895,3.899,3.911,3.906,3.937,3.892,21.429,86,14,Waypoint,
37.7783134,-120.1185124,3855.2830446289,223.425204,0,1.09236552052,27800,2018-05-14 18:33:26,22,0,23.466,3855.2830446289,223.425204,0.223694,1.36092195956,0,0,-0.671082,266.7, -5.1, -0.3,0,0,1024,1024,1024,1024,266.8,-89.9,96,3.895,3.899,3.911,3.906,3.937,3.892,21.429,86,14,Waypoint,
37.7783134,-120.1185124,3856.2672966289,224.409456,0,1.09236552052,28000,2018-05-14 18:33:26,22,0,23.322,3856.2672966289,224.409456,0.223694,1.36092195956,0,0,-0.671082,266.2, -4.6, -0.2,0,0,1024,1024,1024,1024,266.8,-89.9,96,3.868,3.882,3.889,3.908,3.909,3.882,23.458,86,14,Waypoint,
37.7783134,-120.1185124,3857.2515486289,225.393708,0,1.09236552052,28100,2018-05-14 18:33:26,22,0,23.322,3857.2515486289,225.393708,0.223694,1.36092195956,0,0,-0.671082,265.8, -4.2, 0.1,0,0,1024,1024,1024,1024,266.8,-89.9,96,3.868,3.882,3.889,3.908,3.909,3.882,23.458,86,14,Waypoint,
37.7783133,-120.1185125,3860.2043046289,228.346464,0,1.04623691012,28410,2018-05-14 18:33:26,22,0,23.322,3860.2043046289,228.346464,0.223694,1.36092195956,0,0,-0.671082,266.5, -4.2, 0.4,0,0,1024,1024,1024,1024,266.9,-89.9,96,3.868,3.882,3.889,3.908,3.909,3.882,23.458,86,14,Waypoint,
37.7783133,-120.1185124,3862.1728086289,230.314968,0,1.06709321,28600,2018-05-14 18:33:27,22,0,23.322,3862.1728086289,230.314968,0.223694,1.36092195956,0,0,-0.671082,267.3, -4.5, 0.3,0,0,1024,1024,1024,1024,266.9,-89.9,96,3.868,3.882,3.889,3.908,3.909,3.882,23.458,86,14,Waypoint,
37.7783133,-120.1185124,3863.1570606289,231.29922,0,1.06709321,28700,2018-05-14 18:33:27,22,0,23.322,3863.1570606289,231.29922,0.223694,1.36092195956,0,0,-0.671082,267.5, -4.6, 0.1,0,0,1024,1024,1024,1024,266.8,-90,96,3.868,3.882,3.889,3.908,3.909,3.882,23.458,86,14,Waypoint,
37.7783133,-120.1185124,3865.1255646289,233.267724,0,1.06709321,28920,2018-05-14 18:33:27,22,0,23.322,3865.1255646289,233.267724,0.223694,1.36092195956,0,0,-0.671082,267.7, -4.5, -0.1,0,0,1024,1024,1024,1024,266.8,-89.9,96,3.868,3.882,3.889,3.908,3.909,3.882,23.458,86,14,Waypoint,
37.7783133,-120.1185124,3865.1255646289,233.267724,0,1.06709321,29000,2018-05-14 18:33:27,22,0,23.373,3865.1255646289,233.267724,0.223694,1.36092195956,0,0,-0.671082,267.7, -4.5, -0.1,0,0,1024,1024,1024,1024,266.8,-89.9,96,3.868,3.886,3.91,3.905,3.928,3.873,21.677,87.8,14,Waypoint,
37.7783133,-120.1185124,3866.1098166289,234.251976,0,1.06709321,29100,2018-05-14 18:33:27,22,0,23.373,3866.1098166289,234.251976,0.223694,1.36092195956,0,0,-0.671082,267.7, -4.5, -0.2,0,0,1024,1024,1024,1024,266.8,-89.9,96,3.868,3.886,3.91,3.905,3.928,3.873,21.677,87.8,14,Waypoint,
37.7783134,-120.1185124,3868.4064046289,236.548564,0,1.09236552052,29200,2018-05-14 18:33:27,22,0,23.373,3868.4064046289,236.548564,0.223694,1.36092195956,0,0,-0.671082,267.6, -4.2, -0.6,0,0,1024,1024,1024,1024,266.8,-89.9,96,3.868,3.886,3.91,3.905,3.928,3.873,21.677,87.8,14,Waypoint,
37.7783135,-120.1185124,3871.3591606289,239.50132,0,1.1182579098,29400,2018-05-14 18:33:27,22,0,23.373,3871.3591606289,239.50132,0.223694,1.36092195956,0,0,-0.671082,267.1, -4.3, -1.5,0,0,1024,1024,1024,1024,266.8,-90,96,3.868,3.886,3.91,3.905,3.928,3.873,21.677,87.8,14,Waypoint,
37.7783135,-120.1185124,3874.6400006289,242.78216,0,1.1182579098,29600,2018-05-14 18:33:28,22,0,23.373,3874.6400006289,242.78216,0.223694,1.36092195956,0,0,-0.671082,266.8, -4.7, -1.1,0,0,1024,1024,1024,1024,266.8,-90,96,3.868,3.886,3.91,3.905,3.928,3.873,21.677,87.8,14,Waypoint,
37.7783135,-120.1185124,3875.6242526289,243.766412,0,1.1182579098,29800,2018-05-14 18:33:28,22,0,23.373,3875.6242526289,243.766412,0.223694,1.36092195956,0,0,-0.671082,266.9, -4.8, -0.9,0,0,1024,1024,1024,1024,266.8,-90,96,3.868,3.886,3.91,3.905,3.928,3.873,21.677,87.8,14,Waypoint,
37.7783135,-120.1185124,3876.6085046289,244.750664,0,1.1182579098,30000,2018-05-14 18:33:28,22,0,23.523,3876.6085046289,244.750664,0.223694,1.36092195956,0,0,-0.671082,267.1, -5, -0.6,0,0,1024,1024,1024,1024,266.9,-90,96,3.89,3.922,3.928,3.921,3.961,3.919,20.791,87.8,14,Waypoint,
37.7783134,-120.1185123,3878.5770086289,246.719168,0,1.11310371016,30100,2018-05-14 18:33:28,22,0,23.523,3878.5770086289,246.719168,0.223694,1.36092195956,0,0,-0.671082,267.2, -5.2, 0.1,0,0,1024,1024,1024,1024,266.8,-90,96,3.89,3.922,3.928,3.921,3.961,3.919,20.791,87.8,14,Waypoint,
37.7783133,-120.1185123,3880.5455126289,248.687672,0,1.08831368312,30400,2018-05-14 18:33:28,22,0,23.523,3880.5455126289,248.687672,0.223694,1.36092195956,0,0,-0.671082,267.3, -4.7, 0,0,0,1024,1024,1024,1024,266.8,-90,96,3.89,3.922,3.928,3.921,3.961,3.919,20.791,87.8,14,Waypoint,
37.7783134,-120.1185123,3882.8421006289,250.98426,0,1.11310371016,30500,2018-05-14 18:33:29,22,0,23.523,3882.8421006289,250.98426,0.223694,1.36092195956,0,0,-0.671082,267.1, -5, -1.3,0,0,1024,1024,1024,1024,266.8,-90,96,3.89,3.922,3.928,3.921,3.961,3.919,20.791,87.8,14,Waypoint,
37.7783134,-120.1185124,3883.8263526289,251.968512,0,1.09236552052,30600,2018-05-14 18:33:29,22,0,23.523,3883.8263526289,251.968512,0.223694,1.36092195956,0,0,-0.671082,267.1, -5.3, -1.2,0,0,1024,1024,1024,1024,266.8,-90,96,3.89,3.922,3.928,3.921,3.961,3.919,20.791,87.8,14,Waypoint,
37.7783133,-120.1185124,3884.8106046289,252.952764,0,1.06709321,30700,2018-05-14 18:33:29,22,0,23.523,3884.8106046289,252.952764,0.223694,1.36092195956,0,0,-0.671082,267.1, -5.2, -0.9,0,0,1024,1024,1024,1024,266.8,-89.9,96,3.89,3.922,3.928,3.921,3.961,3.919,20.791,87.8,14,Waypoint,
37.7783133,-120.1185124,3885.7948566289,253.937016,0,1.06709321,30800,2018-05-14 18:33:29,22,0,23.523,3885.7948566289,253.937016,0.223694,1.36092195956,0,0,-0.671082,267.2, -5, -0.9,0,0,1024,1024,1024,1024,266.8,-89.9,96,3.89,3.922,3.928,3.921,3.961,3.919,20.791,87.8,14,Waypoint,
37.7783133,-120.1185124,3886.7791086289,254.921268,0,1.06709321,30910,2018-05-14 18:33:29,22,0,23.523,3886.7791086289,254.921268,0.223694,1.36092195956,0,0,-0.671082,267.3, -5.2, -1.1,0,0,1024,1024,1024,1024,266.8,-90,96,3.89,3.922,3.928,3.921,3.961,3.919,20.791,87.8,14,Waypoint,
37.7783133,-120.1185123,3887.7633606289,255.90552,0,1.08831368312,31100,2018-05-14 18:33:29,22,0,23.523,3887.7633606289,255.90552,0.223694,1.36092195956,0,0,-0.671082,267.4, -5.2, -0.8,0,0,1024,1024,1024,1024,266.8,-90,96,3.89,3.922,3.928,3.921,3.961,3.919,20.791,87.8,14,Waypoint,
37.7783133,-120.1185123,3888.4195286289,256.561688,0,1.08831368312,31500,2018-05-14 18:33:30,22,0,23.523,3888.4195286289,256.561688,0.223694,1.36092195956,0,0,-0.671082,267.5, -5.3, -0.6,0,0,1024,1024,1024,1024,266.8,-90,96,3.89,3.922,3.928,3.921,3.961,3.919,20.791,87.8,14,Waypoint,
37.7783133,-120.1185123,3889.4037806289,257.54594,0,1.08831368312,31600,2018-05-14 18:33:30,22,0,23.523,3889.4037806289,257.54594,0.223694,1.36092195956,0,0,-0.671082,267.7, -5.3, -0.6,0,0,1024,1024,1024,1024,266.8,-89.9,96,3.89,3.922,3.928,3.921,3.961,3.919,20.791,87.8,14,Waypoint,
37.7783133,-120.1185123,3890.3880326289,258.530192,0,1.08831368312,31730,2018-05-14 18:33:30,22,0,23.523,3890.3880326289,258.530192,0.223694,1.36092195956,0,0,-0.671082,268, -5, -0.9,0,0,1024,1024,1024,1024,266.8,-89.9,96,3.89,3.922,3.928,3.921,3.961,3.919,20.791,87.8,14,Waypoint,
37.7783133,-120.1185123,3890.3880326289,258.530192,0,1.08831368312,31800,2018-05-14 18:33:30,22,0,23.523,3890.3880326289,258.530192,0.223694,1.36092195956,0,0,-0.671082,268, -5, -0.9,0,0,1024,1024,1024,1024,266.8,-89.9,96,3.89,3.922,3.928,3.921,3.961,3.919,20.791,87.8,14,Waypoint,
37.7783134,-120.1185128,3895.3092926289,263.451452,0.223694,1.01338257836,32300,2018-05-14 18:33:30,22,0,23.523,3895.3092926289,263.451452,0.223694,1.36092195956,0,0,-0.671082,267.9, -3.4, -1.5,0,0,1024,1024,1024,1024,266.9,-89.9,96,3.89,3.922,3.928,3.921,3.961,3.919,20.791,87.8,14,Waypoint,
37.7783134,-120.118513,3897.2777966289,265.419956,0.223694,0.97661092364,32500,2018-05-14 18:33:31,22,0,23.523,3897.2777966289,265.419956,0.223694,1.36092195956,0,0,-0.671082,267.8, -2.6, -1.4,0,0,1024,1024,1024,1024,266.8,-89.9,96,3.89,3.922,3.928,3.921,3.961,3.919,20.791,87.8,14,Waypoint,
37.7783134,-120.1185131,3898.2620486289,266.404208,0.223694,0.95899609368,32600,2018-05-14 18:33:31,22,0,23.523,3898.2620486289,266.404208,0.223694,1.36092195956,0,0,-0.671082,267.8, -2.4, -1.1,0,0,1024,1024,1024,1024,266.8,-89.9,96,3.89,3.922,3.928,3.921,3.961,3.919,20.791,87.8,14,Waypoint,
37.7783133,-120.1185133,3899.2463006289,267.38846,0.223694,0.89548559296,32710,2018-05-14 18:33:31,22,0,23.523,3899.2463006289,267.38846,0.223694,1.36092195956,0,0,-0.671082,267.6, -2.5, -0.6,0,0,1024,1024,1024,1024,266.8,-89.9,96,3.89,3.922,3.928,3.921,3.961,3.919,20.791,87.8,14,Waypoint,
37.7783133,-120.1185135,3901.2148046289,269.356964,0.223694,0.86333336096,32900,2018-05-14 18:33:31,22,0,23.523,3901.2148046289,269.356964,0.223694,1.36092195956,0,0,-0.671082,266.8, -2.3, 0,0,0,1024,1024,1024,1024,266.8,-89.9,96,3.89,3.922,3.928,3.921,3.961,3.919,20.791,87.8,14,Waypoint,
37.7783133,-120.118514,3903.8394766289,271.981636,0.223694,0.79566603596,33000,2018-05-14 18:33:31,22,0,23.705,3903.8394766289,271.981636,0.223694,1.36092195956,0,0,-0.671082,265.7, -1.3, -0.8,0,0,1024,1024,1024,1024,266.8,-89.9,95,3.941,3.956,3.964,3.964,3.985,3.942,17.252,87.8,14,Waypoint,
37.7783133,-120.1185141,3904.8237286289,272.965888,0.223694,0.784612886,33300,2018-05-14 18:33:31,22,0,23.705,3904.8237286289,272.965888,0.223694,1.36092195956,0,0,-0.671082,265.7, -1.3, -1.1,0,0,1024,1024,1024,1024,266.8,-89.9,95,3.941,3.956,3.964,3.964,3.985,3.942,17.252,87.8,14,Waypoint,
37.7783133,-120.1185144,3906.7922326289,274.934392,0,0.75710632344,33400,2018-05-14 18:33:31,22,0,23.705,3906.7922326289,274.934392,0.223694,1.36092195956,0,0,-0.671082,266.3, -1.5, -0.7,0,0,1024,1024,1024,1024,266.8,-89.9,95,3.941,3.956,3.964,3.964,3.985,3.942,17.252,87.8,14,Waypoint,
37.7783132,-120.1185146,3909.7449886289,277.887148,0,0.70805120376,33500,2018-05-14 18:33:32,22,0,23.705,3909.7449886289,277.887148,0.223694,1.36092195956,0,0,-0.671082,267.1, -2, -0.2,0,0,1024,1024,1024,1024,266.8,-89.9,95,3.941,3.956,3.964,3.964,3.985,3.942,17.252,87.8,14,Waypoint,
37.7783133,-120.1185146,3914.9943326289,283.136492,0,0.74380907892,33800,2018-05-14 18:33:32,22,0,23.705,3914.9943326289,283.136492,0.223694,1.36092195956,0,0,-0.671082,266.9, -3.2, -1,0,0,1024,1024,1024,1024,266.9,-90,95,3.941,3.956,3.964,3.964,3.985,3.942,17.252,87.8,14,Waypoint,
37.7783134,-120.1185145,3917.2909206289,285.43308,0,0.78547574692,33900,2018-05-14 18:33:32,22,0,23.705,3917.2909206289,285.43308,0.223694,1.36092195956,0,0,-0.671082,266.9, -3.7, -1.2,0,0,1024,1024,1024,1024,266.9,-90,95,3.941,3.956,3.964,3.964,3.985,3.942,17.252,87.8,14,Waypoint,
37.7783134,-120.1185145,3918.2751726289,286.417332,0,0.78547574692,34000,2018-05-14 18:33:32,22,0,23.532,3918.2751726289,286.417332,0.223694,1.36092195956,0,0,-0.671082,266.8, -3.9, -1.3,0,0,1024,1024,1024,1024,266.8,-90,95,3.902,3.909,3.922,3.927,3.943,3.904,20.282,87.8,14,Waypoint,
37.7783134,-120.1185145,3921.5560126289,289.698172,0,0.78547574692,34400,2018-05-14 18:33:32,22,0,23.532,3921.5560126289,289.698172,0.223694,1.36092195956,0,0,-0.671082,266.6, -3.8, -1.1,0,0,1024,1024,1024,1024,266.8,-89.9,95,3.902,3.909,3.922,3.927,3.943,3.904,20.282,87.8,14,Waypoint,
37.7783132,-120.1185146,3923.5245166289,291.666676,0,0.70805120376,34600,2018-05-14 18:33:33,22,0,23.532,3923.5245166289,291.666676,0.223694,1.36092195956,0,0,-0.671082,266.3, -2.8, -0.2,0,0,1024,1024,1024,1024,266.8,-89.9,95,3.902,3.909,3.922,3.927,3.943,3.904,20.282,87.8,14,Waypoint,
37.778313,-120.1185146,3925.1649366289,293.307096,0.223694,0.63678151644,34900,2018-05-14 18:33:33,22,0,23.532,3925.1649366289,293.307096,0.223694,1.36092195956,0,0,-0.671082,266.5, -2.4, 1.1,0,0,1024,1024,1024,1024,266.9,-89.9,95,3.902,3.909,3.922,3.927,3.943,3.904,20.282,87.8,14,Waypoint,
37.7783129,-120.1185146,3926.1491886289,294.291348,0.223694,0.60130251268,35000,2018-05-14 18:33:33,22,0,23.626,3926.1491886289,294.291348,0.223694,1.36092195956,0,0,-0.671082,266.7, -2.6, 1.5,0,0,1024,1024,1024,1024,266.8,-89.9,95,3.902,3.909,3.922,3.927,3.943,3.904,18.573,87.8,14,Waypoint,
37.7783127,-120.1185145,3928.1176926289,296.259852,0,0.53929791752,35330,2018-05-14 18:33:33,22,0,23.626,3928.1176926289,296.259852,0.223694,1.36092195956,0,0,-0.671082,267.3, -3.7, 1.5,0,0,1024,1024,1024,1024,266.9,-90,95,3.902,3.909,3.922,3.927,3.943,3.904,18.573,87.8,14,Waypoint,
37.7783126,-120.1185144,3929.1019446289,297.244104,0,0.51547245744,35500,2018-05-14 18:33:34,22,0,23.626,3929.1019446289,297.244104,0.223694,1.36092195956,0,0,-0.671082,267.5, -3.6, 1.5,0,0,1024,1024,1024,1024,266.9,-89.9,95,3.902,3.909,3.922,3.927,3.943,3.904,18.573,87.8,14,Waypoint,
37.7783126,-120.1185144,3930.0861966289,298.228356,0,0.51547245744,35700,2018-05-14 18:33:34,22,0,23.626,3930.0861966289,298.228356,0.223694,1.36092195956,0,0,-0.671082,267.5, -3.3, 1,0,0,1024,1024,1024,1024,266.8,-89.9,95,3.902,3.909,3.922,3.927,3.943,3.904,18.573,87.8,14,Waypoint,
37.7783126,-120.1185143,3934.6793726289,302.821532,0,0.52743440008,36120,2018-05-14 18:33:34,22,0,23.626,3934.6793726289,302.821532,0.223694,1.36092195956,0,0,-0.671082,267.4, -2.9, 0.4,0,0,1024,1024,1024,1024,266.8,-89.9,95,3.902,3.909,3.922,3.927,3.943,3.904,18.573,87.8,14,Waypoint,
37.7783126,-120.1185143,3935.6636246289,303.805784,0,0.52743440008,36400,2018-05-14 18:33:34,22,0,23.626,3935.6636246289,303.805784,0.223694,1.36092195956,0,0,-0.671082,267.3, -2.8, 0.3,0,0,1024,1024,1024,1024,266.8,-89.9,95,3.902,3.909,3.922,3.927,3.943,3.904,18.573,87.8,14,Waypoint,
37.7783126,-120.1185141,3942.5533886289,310.695548,0,0.55508860044,36910,2018-05-14 18:33:35,22,0,23.626,3942.5533886289,310.695548,0.223694,1.36092195956,0,0,-0.671082,267.1, -3, -0.8,0,0,1024,1024,1024,1024,266.8,-89.9,95,3.902,3.909,3.922,3.927,3.943,3.904,18.573,87.8,14,Waypoint,
37.7783127,-120.1185141,3943.5376406289,311.6798,0,0.58656826024,37100,2018-05-14 18:33:35,22,0,23.626,3943.5376406289,311.6798,0.223694,1.36092195956,0,0,-0.671082,267.2, -2.8, -0.8,0,0,1024,1024,1024,1024,266.9,-89.9,95,3.902,3.909,3.922,3.927,3.943,3.904,18.573,87.8,14,Waypoint,
37.7783127,-120.1185141,3944.5218926289,312.664052,0,0.58656826024,37200,2018-05-14 18:33:35,22,0,23.626,3944.5218926289,312.664052,0.223694,1.36092195956,0,0,-0.671082,267.3, -2.9, -0.9,0,0,1024,1024,1024,1024,266.9,-90,95,3.902,3.909,3.922,3.927,3.943,3.904,18.573,87.8,14,Waypoint,
37.7783128,-120.1185141,3945.5061446289,313.648304,0,0.618602382,37300,2018-05-14 18:33:35,22,0,23.626,3945.5061446289,313.648304,0.223694,1.36092195956,0,0,-0.671082,267.5, -3.1, -0.9,0,0,1024,1024,1024,1024,266.9,-90,95,3.902,3.909,3.922,3.927,3.943,3.904,18.573,87.8,14,Waypoint,
37.7783128,-120.1185141,3946.4903966289,314.632556,0,0.618602382,37400,2018-05-14 18:33:35,22,0,23.626,3946.4903966289,314.632556,0.223694,1.36092195956,0,0,-0.671082,267.6, -3.3, -0.8,0,0,1024,1024,1024,1024,266.9,-90,95,3.902,3.909,3.922,3.927,3.943,3.904,18.573,87.8,14,Waypoint,
37.7783131,-120.1185141,3951.7397406289,319.8819,0,0.71725395996,37510,2018-05-14 18:33:36,22,0,23.626,3951.7397406289,319.8819,0.223694,1.36092195956,0,0,-0.671082,266.9, -3.2, -1.4,0,0,1024,1024,1024,1024,266.8,-89.9,95,3.902,3.909,3.922,3.927,3.943,3.904,18.573,87.8,14,Waypoint,
37.7783131,-120.1185141,3952.7239926289,320.866152,0,0.71725395996,37600,2018-05-14 18:33:36,22,0,23.626,3952.7239926289,320.866152,0.223694,1.36092195956,0,0,-0.671082,266.9, -2.8, -1.1,0,0,1024,1024,1024,1024,266.8,-89.9,95,3.902,3.909,3.922,3.927,3.943,3.904,18.573,87.8,14,Waypoint,
37.7783131,-120.1185141,3954.6924966289,322.834656,0,0.71725395996,37700,2018-05-14 18:33:36,22,0,23.626,3954.6924966289,322.834656,0.223694,1.36092195956,0,0,-0.671082,267.2, -3.1, -0.4,0,0,1024,1024,1024,1024,266.8,-89.9,95,3.902,3.909,3.922,3.927,3.943,3.904,18.573,87.8,14,Waypoint,
37.7783131,-120.1185141,3955.6767486289,323.818908,0,0.71725395996,37800,2018-05-14 18:33:36,22,0,23.626,3955.6767486289,323.818908,0.223694,1.36092195956,0,0,-0.671082,267.1, -3.5, -0.8,0,0,1024,1024,1024,1024,266.9,-90,95,3.902,3.909,3.922,3.927,3.943,3.904,18.573,87.8,14,Waypoint,
37.7783132,-120.118514,3957.6452526289,325.787412,0,0.76234254408,37910,2018-05-14 18:33:36,22,0,23.626,3957.6452526289,325.787412,0.223694,1.36092195956,0,0,-0.671082,266.8, -3.9, -1.4,0,0,1024,1024,1024,1024,266.8,-90,95,3.902,3.909,3.922,3.927,3.943,3.904,18.573,87.8,14,Waypoint,
37.7783133,-120.1185139,3958.6295046289,326.771664,0,0.8075951702,38000,2018-05-14 18:33:36,22,0,23.71,3958.6295046289,326.771664,0.223694,1.36092195956,0,0,-0.671082,266.7, -4.1, -1.7,0,0,1024,1024,1024,1024,266.8,-90,95,3.936,3.945,3.957,3.957,3.98,3.946,17.119,89.6,14,Waypoint,
37.7783134,-120.1185138,3959.6137566289,327.755916,0,0.85297902992,38100,2018-05-14 18:33:36,22,0,23.71,3959.6137566289,327.755916,0.223694,1.36092195956,0,0,-0.671082,266.7, -4.4, -2.1,0,0,1024,1024,1024,1024,266.8,-90,95,3.936,3.945,3.957,3.957,3.98,3.946,17.119,89.6,14,Waypoint,
37.7783134,-120.1185137,3960.5980086289,328.740168,0,0.8660433348,38400,2018-05-14 18:33:36,22,0,23.71,3960.5980086289,328.740168,0.223694,1.36092195956,0,0,-0.671082,266.6, -4.5, -2.6,0,0,1024,1024,1024,1024,266.8,-90,95,3.936,3.945,3.957,3.957,3.98,3.946,17.119,89.6,14,Waypoint,
37.7783135,-120.1185137,3961.5822606289,329.72442,0,0.89848099988,38700,2018-05-14 18:33:37,22,0,23.71,3961.5822606289,329.72442,0.223694,1.36092195956,0,0,-0.671082,266.6, -4.4, -2.3,0,0,1024,1024,1024,1024,266.8,-90,95,3.936,3.945,3.957,3.957,3.98,3.946,17.119,89.6,14,Waypoint,
37.7783135,-120.1185136,3962.5665126289,330.708672,0,0.91180121028,38810,2018-05-14 18:33:37,22,0,23.71,3962.5665126289,330.708672,0.223694,1.36092195956,0,0,-0.671082,266.6, -4.1, -1.7,0,0,1024,1024,1024,1024,266.8,-90,95,3.936,3.945,3.957,3.957,3.98,3.946,17.119,89.6,14,Waypoint,
37.7783135,-120.1185136,3962.5665126289,330.708672,0,0.91180121028,38900,2018-05-14 18:33:37,22,0,23.71,3962.5665126289,330.708672,0.223694,1.36092195956,0,0,-0.671082,266.6, -4.1, -1.7,0,0,1024,1024,1024,1024,266.8,-90,95,3.936,3.945,3.957,3.957,3.98,3.946,17.119,89.6,14,Waypoint,
37.7783135,-120.1185135,3964.5350166289,332.677176,0,0.92583008212,39310,2018-05-14 18:33:37,22,0,23.71,3964.5350166289,332.677176,0.223694,1.36092195956,0,0,-0.671082,266.7, -4.8, -1.7,0,0,1024,1024,1024,1024,266.8,-90,95,3.936,3.945,3.957,3.957,3.98,3.946,17.119,89.6,14,Waypoint,
37.7783135,-120.1185134,3965.5192686289,333.661428,0,0.940534807,39400,2018-05-14 18:33:37,22,0,23.71,3965.5192686289,333.661428,0.223694,1.36092195956,0,0,-0.671082,266.8, -5.2, -1.2,0,0,1024,1024,1024,1024,266.8,-90,95,3.936,3.945,3.957,3.957,3.98,3.946,17.119,89.6,14,Waypoint,
37.7783135,-120.1185131,3968.1439406289,336.2861,0,0.98838913924,39800,2018-05-14 18:33:38,22,0,23.71,3968.1439406289,336.2861,0.223694,1.36092195956,0,0,-0.671082,267.3, -5.3, -0.8,0,0,1024,1024,1024,1024,266.9,-90,95,3.936,3.945,3.957,3.957,3.98,3.946,17.119,89.6,14,Waypoint,
