latitude,longitude,altitude(feet),ascent(feet),speed(mph),distance(feet),time(millisecond),datetime(utc),satellites,gpslevel,voltage(v),max_altitude(feet),max_ascent(feet),max_speed(mph),max_distance(feet), xSpeed(mph), ySpeed(mph), zSpeed(mph), compass_heading(degrees), pitch(degrees), roll(degrees),isPhoto,isVideo,rc_elevator,rc_aileron,rc_throttle,rc_rudder,gimbal_heading(degrees),gimbal_pitch(degrees),battery_percent,voltageCell1,voltageCell2,voltageCell3,voltageCell4,voltageCell5,voltageCell6,current(A),battery_temperature(f),flycStateRaw,flycState,message
37.7783114,-120.1185218,3631.3855791308,-0.328084,0,0,3110,2018-05-14 18:54:17,19,0,0,3631.3855791308,0,0,0,0,0,0,266.6, 2.5, 0.9,1,0,1024,1024,1024,1024,266.5,-89.9,100,4.258,4.27,4.308,4.254,4.273,4.251,0,75.2,11,AutoTakeoff,DJI_0566.jpg Starting Mission from Lat/Long: 37.77832/-120.11852 Camera: Zenmuse X3 - Overlap: 90/90 - Active Connection: No
37.7783114,-120.1185217,3631.3855791308,-0.328084,0,0.0288372056472,3210,2018-05-14 18:54:17,19,0,0,3631.3855791308,0,0,0.0288372056472,0,0,0,266.9, 2.2, 0.8,0,0,1024,1024,1024,1024,266.5,-89.9,100,4.258,4.27,4.308,4.254,4.273,4.251,0,75.2,11,AutoTakeoff,
37.7783114,-120.1185216,3631.3855791308,-0.328084,0.223694,0.057674542528,3300,2018-05-14 18:54:18,19,0,0,3631.3855791308,0,0.223694,0.057674542528,0,0,0,267.1, 1.2, 0.6,0,0,1024,1024,1024,1024,266.5,-90,100,4.258,4.27,4.308,4.254,4.273,4.251,0,75.2,11,AutoTakeoff,
37.7783115,-120.1185214,3631.3855791308,-0.328084,0.223694,0.120981631168,3420,2018-05-14 18:54:18,19,0,0,3631.3855791308,0,0.223694,0.120981631168,0,0,0,267.1, 0.4, 0.4,0,0,1024,1024,1024,1024,266.5,-90,100,4.258,4.27,4.308,4.254,4.273,4.251,0,75.2,11,AutoTakeoff,
37.7783115,-120.1185211,3631.7136631308,0,0.223694,0.20513124016,3510,2018-05-14 18:54:18,19,0,0,3631.7136631308,0,0.223694,0.20513124016,0,0,0,267.1, -0.4, 0.2,0,0,1024,1024,1024,1024,266.5,-90,100,4.258,4.27,4.308,4.254,4.273,4.251,0,75.2,11,AutoTakeoff,
37.7783116,-120.118521,3631.7136631308,0,0,0.241962934252,3600,2018-05-14 18:54:18,19,0,0,3631.7136631308,0,0.223694,0.241962934252,0,0,0,266.9, -0.7, 0,0,0,1024,1024,1024,1024,266.5,-90,100,4.258,4.27,4.308,4.254,4.273,4.251,0,75.2,11,AutoTakeoff,
37.7783116,-120.1185209,3631.7136631308,0,0,0.269597777656,3710,2018-05-14 18:54:18,19,0,0,3631.7136631308,0,0.223694,0.269597777656,0,0,0,266.9, -0.8, 0.1,0,0,1024,1024,1024,1024,266.5,-90,100,4.258,4.27,4.308,4.254,4.273,4.251,0,75.2,11,AutoTakeoff,
37.7783116,-120.1185208,3632.0417471308,0.328084,0,0.297461295608,3800,2018-05-14 18:54:18,19,0,0,3632.0417471308,0.328084,0.223694,0.297461295608,0,0,0,266.8, -1, 0,0,0,1024,1024,1024,1024,266.5,-90,100,4.258,4.27,4.308,4.254,4.273,4.251,0,75.2,11,AutoTakeoff,
37.7783116,-120.1185207,3632.0417471308,0.328084,0,0.325494104904,4000,2018-05-14 18:54:18,19,0,25.671,3632.0417471308,0.328084,0.223694,0.325494104904,0,0,0,266.7, -1, -0.1,0,0,1024,1024,1024,1024,266.5,-90,100,4.258,4.27,4.308,4.254,4.273,4.251,3.051,75.2,11,AutoTakeoff,
37.7783116,-120.1185207,3632.3698311308,0.656168,0,0.325494104904,4100,2018-05-14 18:54:18,19,0,25.671,3632.3698311308,0.656168,0.223694,0.325494104904,0,0,0,266.7, -0.7, -0.2,0,0,1024,1024,1024,1024,266.5,-89.9,100,4.258,4.27,4.308,4.254,4.273,4.251,3.051,75.2,11,AutoTakeoff,
37.7783117,-120.1185207,3632.6979151308,0.984252,0,0.33556103436,4200,2018-05-14 18:54:18,19,0,25.671,3632.6979151308,0.984252,0.223694,0.33556103436,0,0,0,266.7, -0.5, -0.4,0,0,1024,1024,1024,1024,266.5,-89.9,100,4.258,4.27,4.308,4.254,4.273,4.251,3.051,75.2,11,AutoTakeoff,
37.7783117,-120.1185209,3632.6979151308,0.984252,0,0.281671268856,4300,2018-05-14 18:54:19,19,0,25.671,3632.6979151308,0.984252,0.223694,0.33556103436,0,0,0,266.7, -0.2, -0.4,0,0,1024,1024,1024,1024,266.5,-89.9,100,4.258,4.27,4.308,4.254,4.273,4.251,3.051,75.2,11,AutoTakeoff,
37.7783117,-120.1185209,3633.0259991308,1.312336,0,0.281671268856,4400,2018-05-14 18:54:19,19,0,25.671,3633.0259991308,1.312336,0.223694,0.33556103436,0,0,0,266.6, 0, -0.3,0,0,1024,1024,1024,1024,266.5,-89.9,100,4.258,4.27,4.308,4.254,4.273,4.251,3.051,75.2,11,AutoTakeoff,
37.7783117,-120.118521,3633.0259991308,1.312336,0,0.255346464864,4500,2018-05-14 18:54:19,19,0,25.671,3633.0259991308,1.312336,0.223694,0.33556103436,0,0,0,266.6, 0.2, -0.3,0,0,1024,1024,1024,1024,266.5,-89.9,100,4.258,4.27,4.308,4.254,4.273,4.251,3.051,75.2,11,AutoTakeoff,
37.7783117,-120.1185211,3633.3540831308,1.64042,0,0.2296259916,4610,2018-05-14 18:54:19,19,0,25.671,3633.3540831308,1.64042,0.223694,0.33556103436,0,0,0,266.5, 0.4, -0.2,0,0,1024,1024,1024,1024,266.5,-89.9,100,4.258,4.27,4.308,4.254,4.273,4.251,3.051,75.2,11,AutoTakeoff,
37.7783116,-120.1185212,3633.3540831308,1.64042,0,0.187780845904,4700,2018-05-14 18:54:19,19,0,25.671,3633.3540831308,1.64042,0.223694,0.33556103436,0,0,0,266.5, 0.5, -0.1,0,0,1024,1024,1024,1024,266.5,-89.9,100,4.258,4.27,4.308,4.254,4.273,4.251,3.051,75.2,11,AutoTakeoff,
37.7783116,-120.1185212,3633.6821671308,1.968504,0,0.187780845904,4800,2018-05-14 18:54:19,19,0,25.671,3633.6821671308,1.968504,0.223694,0.33556103436,0,0,0,266.5, 0.5, 0,0,0,1024,1024,1024,1024,266.5,-89.9,100,4.258,4.27,4.308,4.254,4.273,4.251,3.051,75.2,11,AutoTakeoff,
37.7783115,-120.1185213,3633.6821671308,1.968504,0,0.148730647804,4900,2018-05-14 18:54:19,19,0,25.671,3633.6821671308,1.968504,0.223694,0.33556103436,0,0,0,266.5, 0.6, 0,0,0,1024,1024,1024,1024,266.5,-89.9,100,4.258,4.27,4.308,4.254,4.273,4.251,3.051,75.2,11,AutoTakeoff,
37.7783115,-120.1185213,3634.0102511308,2.296588,0,0.148730647804,5100,2018-05-14 18:54:19,19,0,25.671,3634.0102511308,2.296588,0.223694,0.33556103436,0,0,-0.223694,266.4, 0.5, 0,0,0,1024,1024,1024,1024,266.5,-89.9,100,4.258,4.27,4.308,4.254,4.273,4.251,3.051,75.2,11,AutoTakeoff,
37.7783115,-120.1185214,3634.0102511308,2.296588,0,0.120981631168,5200,2018-05-14 18:54:19,19,0,25.671,3634.0102511308,2.296588,0.223694,0.33556103436,0,0,-0.223694,266.4, 0.5, 0,0,0,1024,1024,1024,1024,266.5,-89.9,100,4.258,4.27,4.308,4.254,4.273,4.251,3.051,75.2,11,AutoTakeoff,
37.7783115,-120.1185215,3634.3383351308,2.624672,0,0.093890422952,5300,2018-05-14 18:54:20,19,0,25.671,3634.3383351308,2.624672,0.223694,0.33556103436,0,0,-0.223694,266.3, 0.5, 0,0,0,1024,1024,1024,1024,266.5,-89.9,100,4.258,4.27,4.308,4.254,4.273,4.251,3.051,75.2,11,AutoTakeoff,
37.7783113,-120.1185217,3634.6664191308,2.952756,0,0.046505250832,5420,2018-05-14 18:54:20,19,0,25.671,3634.6664191308,2.952756,0.223694,0.33556103436,0,0,0,266.3, 0.5, -0.1,0,0,1024,1024,1024,1024,266.5,-89.9,100,4.258,4.27,4.308,4.254,4.273,4.251,3.051,75.2,14,Waypoint,
37.7783111,-120.1185218,3634.9945031308,3.28084,0,0.109454727912,5610,2018-05-14 18:54:20,19,0,25.671,3634.9945031308,3.28084,0.223694,0.33556103436,0,0,0,266.2, 1.1, 0.3,0,0,1024,1024,1024,1024,266.5,-89.9,100,4.258,4.27,4.308,4.254,4.273,4.251,3.051,75.2,14,Waypoint,
37.7783111,-120.1185218,3634.9945031308,3.28084,0,0.109454727912,5700,2018-05-14 18:54:20,19,0,25.671,3634.9945031308,3.28084,0.223694,0.33556103436,0,0,0,266.2, 1.1, 0.3,0,0,1024,1024,1024,1024,266.5,-89.9,100,4.258,4.27,4.308,4.254,4.273,4.251,3.051,75.2,14,Waypoint,
37.778311,-120.1185218,3634.9945031308,3.28084,0,0.145939637216,5800,2018-05-14 18:54:20,19,0,25.671,3634.9945031308,3.28084,0.223694,0.33556103436,0,0,0,266.2, 1.3, 0.6,0,0,1024,1024,1024,1024,266.5,-89.9,100,4.258,4.27,4.308,4.254,4.273,4.251,3.051,75.2,14,Waypoint,
37.7783109,-120.1185219,3635.3225871308,3.608924,0,0.18468996654,5900,2018-05-14 18:54:20,18,0,25.671,3635.3225871308,3.608924,0.223694,0.33556103436,0,0,0,266.1, 1.2, 0.9,0,0,1024,1024,1024,1024,266.5,-89.9,100,4.258,4.27,4.308,4.254,4.273,4.251,3.051,75.2,14,Waypoint,
37.7783108,-120.1185221,3635.6506711308,3.937008,0,0.235384193884,6020,2018-05-14 18:54:20,18,0,24.407,3635.6506711308,3.937008,0.223694,0.33556103436,0,0,-0.223694,266, 1, 0.8,0,0,1024,1024,1024,1024,266.5,-89.9,98,4.036,4.036,4.084,4.064,4.085,4.05,15.824,75.2,14,Waypoint,
37.7783108,-120.1185221,3635.6506711308,3.937008,0,0.235384193884,6100,2018-05-14 18:54:20,18,0,24.407,3635.6506711308,3.937008,0.223694,0.33556103436,0,0,-0.223694,266, 1, 0.8,0,0,1024,1024,1024,1024,266.5,-89.9,98,4.036,4.036,4.084,4.064,4.085,4.05,15.824,75.2,14,Waypoint,
37.7783107,-120.1185222,3635.9787551308,4.265092,0,0.280235245188,6200,2018-05-14 18:54:20,19,0,24.407,3635.9787551308,4.265092,0.223694,0.33556103436,0,0,-0.223694,266, 1.1, 0.6,0,0,1024,1024,1024,1024,266.5,-89.9,98,4.036,4.036,4.084,4.064,4.085,4.05,15.824,75.2,14,Waypoint,
37.7783107,-120.1185222,3636.3068391308,4.593176,0,0.280235245188,6300,2018-05-14 18:54:21,19,0,24.407,3636.3068391308,4.593176,0.223694,0.33556103436,0,0,-0.223694,266, 1.1, 0.5,0,0,1024,1024,1024,1024,266.5,-89.9,98,4.036,4.036,4.084,4.064,4.085,4.05,15.824,75.2,14,Waypoint,
37.7783107,-120.1185222,3636.9630071308,5.249344,0,0.280235245188,6410,2018-05-14 18:54:21,19,0,24.407,3636.9630071308,5.249344,0.223694,0.33556103436,0,0,-0.223694,266.1, 1, 0.4,0,0,1024,1024,1024,1024,266.5,-89.9,98,4.036,4.036,4.084,4.064,4.085,4.05,15.824,75.2,14,Waypoint,
37.7783107,-120.1185221,3637.2910911308,5.577428,0,0.269649286844,6610,2018-05-14 18:54:21,19,0,24.407,3637.2910911308,5.577428,0.223694,0.33556103436,0,0,-0.447388,266.1, 0.6, 0.5,0,0,1024,1024,1024,1024,266.5,-90,98,4.036,4.036,4.084,4.064,4.085,4.05,15.824,75.2,14,Waypoint,
37.7783107,-120.1185221,3637.9472591308,6.233596,0,0.269649286844,6700,2018-05-14 18:54:21,19,0,24.407,3637.9472591308,6.233596,0.223694,0.33556103436,0,0,-0.447388,266.2, 0.5, 0.5,0,0,1024,1024,1024,1024,266.5,-89.9,98,4.036,4.036,4.084,4.064,4.085,4.05,15.824,75.2,14,Waypoint,
37.7783107,-120.118522,3638.6034271308,6.889764,0,0.26182579578,6800,2018-05-14 18:54:21,19,0,24.407,3638.6034271308,6.889764,0.223694,0.33556103436,0,0,-0.447388,266.3, 0.5, 0.3,0,0,1024,1024,1024,1024,266.5,-90,98,4.036,4.036,4.084,4.064,4.085,4.05,15.824,75.2,14,Waypoint,
37.7783106,-120.118522,3639.2595951308,7.545932,0,0.2975229754,6900,2018-05-14 18:54:21,18,0,24.407,3639.2595951308,7.545932,0.223694,0.33556103436,0,0,-0.447388,266.4, 0.2, 0.4,0,0,1024,1024,1024,1024,266.5,-90,98,4.036,4.036,4.084,4.064,4.085,4.05,15.824,75.2,14,Waypoint,
37.7783106,-120.118522,3640.2438471308,8.530184,0,0.2975229754,7030,2018-05-14 18:54:21,18,0,24.291,3640.2438471308,8.530184,0.223694,0.33556103436,0,0,-0.447388,266.5, 0, 0.6,0,0,1024,1024,1024,1024,266.5,-90,98,4.038,4.022,4.065,4.119,4.062,4.068,16.165,75.2,14,Waypoint,
37.7783106,-120.118522,3640.2438471308,8.530184,0,0.2975229754,7100,2018-05-14 18:54:21,18,0,24.291,3640.2438471308,8.530184,0.223694,0.33556103436,0,0,-0.447388,266.5, 0, 0.6,0,0,1024,1024,1024,1024,266.5,-90,98,4.038,4.022,4.065,4.119,4.062,4.068,16.165,75.2,14,Waypoint,
37.7783106,-120.1185219,3640.9000151308,9.186352,0,0.29330053432,7200,2018-05-14 18:54:21,19,0,24.291,3640.9000151308,9.186352,0.223694,0.33556103436,0,0,-0.671082,266.7, 0, 0.8,0,0,1024,1024,1024,1024,266.5,-90,98,4.038,4.022,4.065,4.119,4.062,4.068,16.165,75.2,14,Waypoint,
37.7783106,-120.1185219,3641.8842671308,10.170604,0,0.29330053432,7300,2018-05-14 18:54:22,19,0,24.291,3641.8842671308,10.170604,0.223694,0.33556103436,0,0,-0.671082,266.8, 0.2, 0.8,0,0,1024,1024,1024,1024,266.5,-89.9,98,4.038,4.022,4.065,4.119,4.062,4.068,16.165,75.2,14,Waypoint,
37.7783106,-120.1185219,3642.8685191308,11.154856,0,0.29330053432,7400,2018-05-14 18:54:22,19,0,24.291,3642.8685191308,11.154856,0.223694,0.33556103436,0,0,-0.671082,266.9, 0.2, 0.4,0,0,1024,1024,1024,1024,266.5,-90,98,4.038,4.022,4.065,4.119,4.062,4.068,16.165,75.2,14,Waypoint,
37.7783106,-120.1185218,3645.1651071308,13.451444,0,0.291879602516,8100,2018-05-14 18:54:22,19,0,24.291,3645.1651071308,13.451444,0.223694,0.33556103436,0,0,-0.671082,266.7, 0.1, 0.3,0,0,1024,1024,1024,1024,266.5,-90,98,4.038,4.022,4.065,4.119,4.062,4.068,16.165,75.2,14,Waypoint,
37.7783105,-120.1185218,3650.7425351308,19.028872,0,0.3283628714,8210,2018-05-14 18:54:22,19,0,24.291,3650.7425351308,19.028872,0.223694,0.33556103436,0,0,-0.671082,266.1, 0, 0.1,0,0,1024,1024,1024,1024,266.5,-89.9,98,4.038,4.022,4.065,4.119,4.062,4.068,16.165,75.2,14,Waypoint,
37.7783105,-120.118522,3653.6952911308,21.981628,0,0.33339239912,8320,2018-05-14 18:54:23,20,0,24.291,3653.6952911308,21.981628,0.223694,0.33556103436,0,0,-0.671082,266, 0.2, 0.4,0,0,1024,1024,1024,1024,266.5,-89.9,98,4.038,4.022,4.065,4.119,4.062,4.068,16.165,75.2,14,Waypoint,
37.7783105,-120.118522,3653.6952911308,21.981628,0,0.33339239912,8400,2018-05-14 18:54:23,20,0,24.291,3653.6952911308,21.981628,0.223694,0.33556103436,0,0,-0.671082,266, 0.2, 0.4,0,0,1024,1024,1024,1024,266.5,-89.9,98,4.038,4.022,4.065,4.119,4.062,4.068,16.165,75.2,14,Waypoint,
37.7783104,-120.118522,3655.9918791308,24.278216,0,0.36937993308,8600,2018-05-14 18:54:23,20,0,24.291,3655.9918791308,24.278216,0.223694,0.36937993308,0,0,-0.671082,266.1, 0.4, 1.1,0,0,1024,1024,1024,1024,266.5,-89.9,98,4.038,4.022,4.065,4.119,4.062,4.068,16.165,75.2,14,Waypoint,
37.7783103,-120.1185221,3659.2727191308,27.559056,0,0.41055119424,8800,2018-05-14 18:54:23,20,0,24.291,3659.2727191308,27.559056,0.223694,0.41055119424,0,0,-0.671082,266.3, 0.4, 1.1,0,0,1024,1024,1024,1024,266.5,-89.9,98,4.038,4.022,4.065,4.119,4.062,4.068,16.165,75.2,14,Waypoint,
37.7783104,-120.1185221,3660.2569711308,28.543308,0,0.3749672036,8900,2018-05-14 18:54:23,20,0,24.291,3660.2569711308,28.543308,0.223694,0.41055119424,0,0,-0.671082,266.4, 0.2, 0.6,0,0,1024,1024,1024,1024,266.5,-89.9,98,4.038,4.022,4.065,4.119,4.062,4.068,16.165,75.2,14,Waypoint,
37.7783104,-120.1185221,3661.2412231308,29.52756,0,0.3749672036,9100,2018-05-14 18:54:23,20,0,24.291,3661.2412231308,29.52756,0.223694,0.41055119424,0,0,-0.671082,266.4, 0.1, 0.3,0,0,1024,1024,1024,1024,266.5,-90,98,4.038,4.022,4.065,4.119,4.062,4.068,16.165,75.2,14,Waypoint,
37.7783105,-120.1185221,3662.2254751308,30.511812,0,0.33957022084,9300,2018-05-14 18:54:24,20,0,24.291,3662.2254751308,30.511812,0.223694,0.41055119424,0,0,-0.671082,266.4, 0, 0.1,0,0,1024,1024,1024,1024,266.5,-90,98,4.038,4.022,4.065,4.119,4.062,4.068,16.165,75.2,14,Waypoint,
37.7783105,-120.1185221,3663.5378111308,31.824148,0,0.33957022084,9400,2018-05-14 18:54:24,20,0,24.291,3663.5378111308,31.824148,0.223694,0.41055119424,0,0,-0.671082,266.4, 0.1, 0,0,0,1024,1024,1024,1024,266.5,-89.9,98,4.038,4.022,4.065,4.119,4.062,4.068,16.165,75.2,14,Waypoint,
37.7783105,-120.1185221,3664.5220631308,32.8084,0,0.33957022084,9500,2018-05-14 18:54:24,20,0,24.291,3664.5220631308,32.8084,0.223694,0.41055119424,0,0,-0.671082,266.3, 0.2, 0,0,0,1024,1024,1024,1024,266.5,-89.9,98,4.038,4.022,4.065,4.119,4.062,4.068,16.165,75.2,14,Waypoint,
37.7783106,-120.1185221,3666.4905671308,34.776904,0,0.304430455936,9600,2018-05-14 18:54:24,20,0,24.291,3666.4905671308,34.776904,0.223694,0.41055119424,0,0,-0.671082,266.1, 0.3, 0,0,0,1024,1024,1024,1024,266.5,-89.9,98,4.038,4.022,4.065,4.119,4.062,4.068,16.165,75.2,14,Waypoint,
37.7783107,-120.1185222,3667.4748191308,35.761156,0,0.280235245188,9700,2018-05-14 18:54:24,20,0,24.291,3667.4748191308,35.761156,0.223694,0.41055119424,0,0,-0.671082,266.1, 0.3, 0,0,0,1024,1024,1024,1024,266.5,-89.9,98,4.038,4.022,4.065,4.119,4.062,4.068,16.165,75.2,14,Waypoint,
37.7783108,-120.1185221,3670.7556591308,39.041996,0,0.235384193884,10000,2018-05-14 18:54:24,20,0,23.586,3670.7556591308,39.041996,0.223694,0.41055119424,0,0,-0.671082,266.4, 0.3, -0.3,0,0,1024,1024,1024,1024,266.5,-89.9,98,3.95,3.954,3.984,3.963,3.971,3.96,19.242,75.2,14,Waypoint,
37.7783109,-120.1185221,3672.7241631308,41.0105,0,0.201898628508,10110,2018-05-14 18:54:24,20,0,23.586,3672.7241631308,41.0105,0.223694,0.41055119424,0,0,-0.671082,266.5, 0.3, -0.5,0,0,1024,1024,1024,1024,266.5,-89.9,98,3.95,3.954,3.984,3.963,3.971,3.96,19.242,75.2,14,Waypoint,
37.778311,-120.1185221,3674.6926671308,42.979004,0,0.169654532988,10200,2018-05-14 18:54:24,20,0,23.586,3674.6926671308,42.979004,0.223694,0.41055119424,0,0,-0.671082,266.5, 0.5, -0.5,0,0,1024,1024,1024,1024,266.5,-89.9,98,3.95,3.954,3.984,3.963,3.971,3.96,19.242,75.2,14,Waypoint,
37.778311,-120.1185221,3675.6769191308,43.963256,0,0.169654532988,10300,2018-05-14 18:54:25,20,0,23.586,3675.6769191308,43.963256,0.223694,0.41055119424,0,0,-0.671082,266.5, 0.5, -0.5,0,0,1024,1024,1024,1024,266.5,-89.9,98,3.95,3.954,3.984,3.963,3.971,3.96,19.242,75.2,14,Waypoint,
37.778311,-120.118522,3677.6454231308,45.93176,0,0.156922905284,10400,2018-05-14 18:54:25,20,0,23.586,3677.6454231308,45.93176,0.223694,0.41055119424,0,0,-0.671082,266.5, 0.1, -0.2,0,0,1024,1024,1024,1024,266.5,-90,98,3.95,3.954,3.984,3.963,3.971,3.96,19.242,75.2,14,Waypoint,
37.7783111,-120.1185219,3678.6296751308,46.916012,0,0.113189964252,10500,2018-05-14 18:54:25,20,0,23.586,3678.6296751308,46.916012,0.223694,0.41055119424,0,0,-0.671082,266.4, 0, -0.1,0,0,1024,1024,1024,1024,266.5,-90,98,3.95,3.954,3.984,3.963,3.971,3.96,19.242,75.2,14,Waypoint,
37.7783111,-120.1185219,3679.6139271308,47.900264,0,0.113189964252,10600,2018-05-14 18:54:25,20,0,23.586,3679.6139271308,47.900264,0.223694,0.41055119424,0,0,-0.671082,266.2, -0.2, -0.1,0,0,1024,1024,1024,1024,266.5,-90,98,3.95,3.954,3.984,3.963,3.971,3.96,19.242,75.2,14,Waypoint,
37.7783111,-120.1185217,3681.5824311308,49.868768,0,0.113189964252,10700,2018-05-14 18:54:25,20,0,23.586,3681.5824311308,49.868768,0.223694,0.41055119424,0,0,-0.671082,266.1, -0.6, -0.1,0,0,1024,1024,1024,1024,266.5,-90,98,3.95,3.954,3.984,3.963,3.971,3.96,19.242,75.2,14,Waypoint,
37.7783112,-120.1185215,3683.5509351308,51.837272,0,0.113176184724,10910,2018-05-14 18:54:25,20,0,23.586,3683.5509351308,51.837272,0.223694,0.41055119424,0,0,-0.671082,266, -0.7, -0.2,0,0,1024,1024,1024,1024,266.5,-90,98,3.95,3.954,3.984,3.963,3.971,3.96,19.242,75.2,14,Waypoint,
37.7783112,-120.1185214,3684.5351871308,52.821524,0,0.136491802268,11000,2018-05-14 18:54:25,20,0,23.904,3684.5351871308,52.821524,0.223694,0.41055119424,0,0,-0.671082,266.1, -0.7, -0.2,0,0,1024,1024,1024,1024,266.5,-90,98,3.961,3.956,3.997,3.982,3.997,3.979,18.235,75.2,14,Waypoint,
37.7783112,-120.1185212,3686.5036911308,54.790028,0,0.187780845904,11210,2018-05-14 18:54:25,20,0,23.904,3686.5036911308,54.790028,0.223694,0.41055119424,0,0,-0.671082,266.3, -0.8, -0.2,0,0,1024,1024,1024,1024,266.5,-90,98,3.961,3.956,3.997,3.982,3.997,3.979,18.235,75.2,14,Waypoint,
37.7783112,-120.1185212,3687.1598591308,55.446196,0,0.187780845904,11300,2018-05-14 18:54:26,20,0,23.904,3687.1598591308,55.446196,0.223694,0.41055119424,0,0,-0.671082,266.4, -1, -0.3,0,0,1024,1024,1024,1024,266.5,-90,98,3.961,3.956,3.997,3.982,3.997,3.979,18.235,75.2,14,Waypoint,
37.7783113,-120.1185211,3688.1441111308,56.430448,0,0.20513124016,11500,2018-05-14 18:54:26,20,0,23.904,3688.1441111308,56.430448,0.223694,0.41055119424,0,0,-0.671082,266.5, -1.1, -0.5,0,0,1024,1024,1024,1024,266.5,-90,98,3.961,3.956,3.997,3.982,3.997,3.979,18.235,75.2,14,Waypoint,
37.7783113,-120.118521,3689.1283631308,57.4147,0,0.233564968104,11600,2018-05-14 18:54:26,20,0,23.904,3689.1283631308,57.4147,0.223694,0.41055119424,0,0,-0.671082,266.5, -1.1, -0.6,0,0,1024,1024,1024,1024,266.5,-90,98,3.961,3.956,3.997,3.982,3.997,3.979,18.235,75.2,14,Waypoint,
37.7783113,-120.1185209,3690.1126151308,58.398952,0,0.262086950644,11700,2018-05-14 18:54:26,20,0,23.904,3690.1126151308,58.398952,0.223694,0.41055119424,0,0,-0.671082,266.5, -1.1, -0.6,0,0,1024,1024,1024,1024,266.5,-90,98,3.961,3.956,3.997,3.982,3.997,3.979,18.235,75.2,14,Waypoint,
37.7783113,-120.1185208,3691.4249511308,59.711288,0,0.29067094106,11800,2018-05-14 18:54:26,20,0,23.904,3691.4249511308,59.711288,0.223694,0.41055119424,0,0,-0.671082,266.4, -1.1, -0.4,0,0,1024,1024,1024,1024,266.5,-90,98,3.961,3.956,3.997,3.982,3.997,3.979,18.235,75.2,14,Waypoint,
37.7783113,-120.1185208,3692.4092031308,60.69554,0,0.29067094106,11900,2018-05-14 18:54:26,20,0,23.904,3692.4092031308,60.69554,0.223694,0.41055119424,0,0,-0.671082,266.3, -0.9, -0.4,0,0,1024,1024,1024,1024,266.5,-90,98,3.961,3.956,3.997,3.982,3.997,3.979,18.235,75.2,14,Waypoint,
37.7783113,-120.1185207,3693.0653711308,61.351708,0,0.319300863236,12000,2018-05-14 18:54:26,20,0,23.887,3693.0653711308,61.351708,0.223694,0.41055119424,0,0,-0.671082,266.2, -0.9, -0.3,0,0,1024,1024,1024,1024,266.5,-90,98,3.966,3.961,3.996,3.978,3.995,3.989,18.172,75.2,14,Waypoint,
37.7783113,-120.1185207,3694.3777071308,62.664044,0,0.319300863236,12100,2018-05-14 18:54:26,20,0,23.887,3694.3777071308,62.664044,0.223694,0.41055119424,0,0,-0.671082,266.1, -0.9, -0.2,0,0,1024,1024,1024,1024,266.5,-90,98,3.966,3.961,3.996,3.978,3.995,3.989,18.172,75.2,14,Waypoint,
37.7783113,-120.1185206,3695.3619591308,63.648296,0,0.3479658904,12200,2018-05-14 18:54:26,20,0,23.887,3695.3619591308,63.648296,0.223694,0.41055119424,0,0,-0.671082,266, -0.9, -0.2,0,0,1024,1024,1024,1024,266.5,-90,98,3.966,3.961,3.996,3.978,3.995,3.989,18.172,75.2,14,Waypoint,
37.7783113,-120.1185206,3696.3462111308,64.632548,0,0.3479658904,12300,2018-05-14 18:54:27,20,0,23.887,3696.3462111308,64.632548,0.223694,0.41055119424,0,0,-0.671082,266.1, -1, -0.4,0,0,1024,1024,1024,1024,266.5,-90,98,3.966,3.961,3.996,3.978,3.995,3.989,18.172,75.2,14,Waypoint,
37.7783113,-120.1185206,3697.3304631308,65.6168,0,0.3479658904,12400,2018-05-14 18:54:27,20,0,23.887,3697.3304631308,65.6168,0.223694,0.41055119424,0,0,-0.671082,266.1, -1.1, -0.6,0,0,1024,1024,1024,1024,266.5,-90,98,3.966,3.961,3.996,3.978,3.995,3.989,18.172,75.2,14,Waypoint,
37.7783113,-120.1185205,3698.3147151308,66.601052,0,0.37665355536,12500,2018-05-14 18:54:27,20,0,23.887,3698.3147151308,66.601052,0.223694,0.41055119424,0,0,-0.671082,266.2, -1, -0.4,0,0,1024,1024,1024,1024,266.5,-90,98,3.966,3.961,3.996,3.978,3.995,3.989,18.172,75.2,14,Waypoint,
37.7783113,-120.1185205,3699.2989671308,67.585304,0,0.37665355536,12600,2018-05-14 18:54:27,20,0,23.887,3699.2989671308,67.585304,0.223694,0.41055119424,0,0,-0.671082,266.2, -0.7, -0.2,0,0,1024,1024,1024,1024,266.5,-89.9,98,3.966,3.961,3.996,3.978,3.995,3.989,18.172,75.2,14,Waypoint,
37.7783113,-120.1185205,3700.2832191308,68.569556,0,0.37665355536,12700,2018-05-14 18:54:27,20,0,23.887,3700.2832191308,68.569556,0.223694,0.41055119424,0,0,-0.671082,266.2, -0.6, -0.2,0,0,1024,1024,1024,1024,266.5,-89.9,98,3.966,3.961,3.996,3.978,3.995,3.989,18.172,75.2,14,Waypoint,
37.7783113,-120.1185206,3701.9236391308,70.209976,0,0.3479658904,12800,2018-05-14 18:54:27,20,0,23.887,3701.9236391308,70.209976,0.223694,0.41055119424,0,0,-0.671082,266.2, -0.6, -0.1,0,0,1024,1024,1024,1024,266.5,-90,98,3.966,3.961,3.996,3.978,3.995,3.989,18.172,75.2,14,Waypoint,
37.7783112,-120.1185206,3702.9078911308,71.194228,0,0.35365486696,12900,2018-05-14 18:54:27,20,0,23.887,3702.9078911308,71.194228,0.223694,0.41055119424,0,0,-0.671082,266.2, -0.6, 0,0,0,1024,1024,1024,1024,266.5,-90,98,3.966,3.961,3.996,3.978,3.995,3.989,18.172,75.2,14,Waypoint,
37.7783112,-120.1185206,3703.8921431308,72.17848,0,0.35365486696,13010,2018-05-14 18:54:27,20,0,23.862,3703.8921431308,72.17848,0.223694,0.41055119424,0,0,-0.671082,266.2, -0.6, 0.1,0,0,1024,1024,1024,1024,266.5,-90,98,3.966,3.961,3.996,3.978,3.995,3.989,18.127,75.2,14,Waypoint,
37.7783112,-120.1185206,3703.8921431308,72.17848,0,0.35365486696,13100,2018-05-14 18:54:27,20,0,23.862,3703.8921431308,72.17848,0.223694,0.41055119424,0,0,-0.671082,266.2, -0.6, 0.1,0,0,1024,1024,1024,1024,266.5,-90,98,3.966,3.961,3.996,3.978,3.995,3.989,18.127,75.2,14,Waypoint,
37.7783112,-120.1185205,3704.8763951308,73.162732,0,0.38191930356,13200,2018-05-14 18:54:27,20,0,23.862,3704.8763951308,73.162732,0.223694,0.41055119424,0,0,-0.671082,266.2, -0.6, 0.1,0,0,1024,1024,1024,1024,266.5,-89.9,98,3.966,3.961,3.996,3.978,3.995,3.989,18.127,75.2,14,Waypoint,
37.7783112,-120.1185205,3706.8448991308,75.131236,0,0.38191930356,13320,2018-05-14 18:54:28,20,0,23.862,3706.8448991308,75.131236,0.223694,0.41055119424,0,0,-0.671082,266.3, -0.8, -0.1,0,0,1024,1024,1024,1024,266.5,-90,98,3.966,3.961,3.996,3.978,3.995,3.989,18.127,75.2,14,Waypoint,
37.7783112,-120.1185205,3706.8448991308,75.131236,0,0.38191930356,13400,2018-05-14 18:54:28,20,0,23.862,3706.8448991308,75.131236,0.223694,0.41055119424,0,0,-0.671082,266.3, -0.8, -0.1,0,0,1024,1024,1024,1024,266.5,-90,98,3.966,3.961,3.996,3.978,3.995,3.989,18.127,75.2,14,Waypoint,
37.7783112,-120.1185205,3707.8291511308,76.115488,0,0.38191930356,13500,2018-05-14 18:54:28,20,0,23.862,3707.8291511308,76.115488,0.223694,0.41055119424,0,0,-0.671082,266.3, -0.9, -0.3,0,0,1024,1024,1024,1024,266.5,-90,98,3.966,3.961,3.996,3.978,3.995,3.989,18.127,75.2,14,Waypoint,
37.7783113,-120.1185205,3709.7976551308,78.083992,0,0.37665355536,13700,2018-05-14 18:54:28,20,0,23.862,3709.7976551308,78.083992,0.223694,0.41055119424,0,0,-0.671082,266.3, -0.8, -0.9,0,0,1024,1024,1024,1024,266.5,-89.9,98,3.966,3.961,3.996,3.978,3.995,3.989,18.127,75.2,14,Waypoint,
37.7783114,-120.1185205,3710.7819071308,79.068244,0,0.3748851826,13800,2018-05-14 18:54:28,20,0,23.862,3710.7819071308,79.068244,0.223694,0.41055119424,0,0,-0.671082,266.3, -0.7, -1.1,0,0,1024,1024,1024,1024,266.5,-89.9,98,3.966,3.961,3.996,3.978,3.995,3.989,18.127,75.2,14,Waypoint,
37.7783114,-120.1185206,3711.7661591308,80.052496,0,0.346046599,13900,2018-05-14 18:54:28,20,0,23.862,3711.7661591308,80.052496,0.223694,0.41055119424,0,0,-0.671082,266.2, -0.6, -1.2,0,0,1024,1024,1024,1024,266.5,-89.9,98,3.966,3.961,3.996,3.978,3.995,3.989,18.127,75.2,14,Waypoint,
37.7783114,-120.1185206,3713.0784951308,81.364832,0,0.346046599,14010,2018-05-14 18:54:28,20,0,23.862,3713.0784951308,81.364832,0.223694,0.41055119424,0,0,-0.671082,266.2, -0.7, -1.2,0,0,1024,1024,1024,1024,266.5,-90,98,3.958,3.952,3.991,3.978,3.992,3.97,18.127,75.2,14,Waypoint,
37.7783114,-120.1185206,3713.0784951308,81.364832,0,0.346046599,14100,2018-05-14 18:54:28,20,0,23.862,3713.0784951308,81.364832,0.223694,0.41055119424,0,0,-0.671082,266.2, -0.7, -1.2,0,0,1024,1024,1024,1024,266.5,-90,98,3.958,3.952,3.991,3.978,3.992,3.97,18.127,75.2,14,Waypoint,
37.7783114,-120.1185206,3714.0627471308,82.349084,0,0.346046599,14210,2018-05-14 18:54:28,20,0,23.862,3714.0627471308,82.349084,0.223694,0.41055119424,0,0,-0.671082,266.2, -0.7, -1.1,0,0,1024,1024,1024,1024,266.5,-90,98,3.958,3.952,3.991,3.978,3.992,3.97,18.127,75.2,14,Waypoint,
37.7783115,-120.1185206,3715.0469991308,83.333336,0,0.3479658904,14300,2018-05-14 18:54:29,20,0,23.862,3715.0469991308,83.333336,0.223694,0.41055119424,0,0,-0.671082,266.2, -0.7, -1,0,0,1024,1024,1024,1024,266.5,-89.9,98,3.958,3.952,3.991,3.978,3.992,3.97,18.127,75.2,14,Waypoint,
37.7783115,-120.1185205,3716.0312511308,84.317588,0,0.37665355536,14400,2018-05-14 18:54:29,20,0,23.862,3716.0312511308,84.317588,0.223694,0.41055119424,0,0,-0.671082,266.2, -0.8, -1,0,0,1024,1024,1024,1024,266.5,-90,98,3.958,3.952,3.991,3.978,3.992,3.97,18.127,75.2,14,Waypoint,
37.7783115,-120.1185205,3717.6716711308,85.958008,0,0.37665355536,14700,2018-05-14 18:54:29,20,0,23.862,3717.6716711308,85.958008,0.223694,0.41055119424,0,0,-0.671082,266.2, -0.9, -1.1,0,0,1024,1024,1024,1024,266.5,-89.9,98,3.958,3.952,3.991,3.978,3.992,3.97,18.127,75.2,14,Waypoint,
37.7783116,-120.1185205,3718.9840071308,87.270344,0,0.38191930356,14800,2018-05-14 18:54:29,20,0,23.862,3718.9840071308,87.270344,0.223694,0.41055119424,0,0,-0.671082,266.2, -0.8, -1,0,0,1024,1024,1024,1024,266.5,-89.9,98,3.958,3.952,3.991,3.978,3.992,3.97,18.127,75.2,14,Waypoint,
37.7783116,-120.1185205,3719.9682591308,88.254596,0,0.38191930356,14900,2018-05-14 18:54:29,20,0,23.862,3719.9682591308,88.254596,0.223694,0.41055119424,0,0,-0.671082,266.1, -0.8, -1.1,0,0,1024,1024,1024,1024,266.5,-89.9,98,3.958,3.952,3.991,3.978,3.992,3.97,18.127,75.2,14,Waypoint,
37.7783117,-120.1185206,3722.5929311308,90.879268,0,0.362942925,15100,2018-05-14 18:54:29,20,0,23.862,3722.5929311308,90.879268,0.223694,0.41055119424,0,0,-0.671082,266, -0.8, -1.3,0,0,1024,1024,1024,1024,266.5,-89.9,98,3.958,3.952,3.991,3.978,3.992,3.97,18.127,75.2,14,Waypoint,
37.7783117,-120.1185206,3723.5771831308,91.86352,0,0.362942925,15200,2018-05-14 18:54:29,20,0,23.862,3723.5771831308,91.86352,0.223694,0.41055119424,0,0,-0.671082,266, -0.5, -1.3,0,0,1024,1024,1024,1024,266.5,-89.9,98,3.958,3.952,3.991,3.978,3.992,3.97,18.127,75.2,14,Waypoint,
37.7783117,-120.1185206,3725.5456871308,93.832024,0,0.362942925,15300,2018-05-14 18:54:30,20,0,23.862,3725.5456871308,93.832024,0.223694,0.41055119424,0,0,-0.671082,266, -0.4, -1.5,0,0,1024,1024,1024,1024,266.5,-89.9,98,3.958,3.952,3.991,3.978,3.992,3.97,18.127,75.2,14,Waypoint,
37.7783117,-120.1185207,3726.5299391308,94.816276,0,0.33556103436,15400,2018-05-14 18:54:30,20,0,23.862,3726.5299391308,94.816276,0.223694,0.41055119424,0,0,-0.671082,265.9, -0.3, -1.8,0,0,1024,1024,1024,1024,266.5,-90,98,3.958,3.952,3.991,3.978,3.992,3.97,18.127,75.2,14,Waypoint,
37.7783117,-120.1185206,3727.5141911308,95.800528,0,0.362942925,15500,2018-05-14 18:54:30,20,0,23.862,3727.5141911308,95.800528,0.223694,0.41055119424,0,0,-0.671082,265.9, -0.5, -1.6,0,0,1024,1024,1024,1024,266.5,-90,98,3.958,3.952,3.991,3.978,3.992,3.97,18.127,75.2,14,Waypoint,
37.7783117,-120.1185206,3728.4984431308,96.78478,0,0.362942925,15600,2018-05-14 18:54:30,20,0,23.862,3728.4984431308,96.78478,0.223694,0.41055119424,0,0,-0.671082,266.1, -1, -1.1,0,0,1024,1024,1024,1024,266.5,-90,98,3.958,3.952,3.991,3.978,3.992,3.97,18.127,75.2,14,Waypoint,
37.7783117,-120.1185206,3729.4826951308,97.769032,0,0.362942925,15700,2018-05-14 18:54:30,20,0,23.862,3729.4826951308,97.769032,0.223694,0.41055119424,0,0,-0.671082,266.3, -1.4, -0.7,0,0,1024,1024,1024,1024,266.5,-90,98,3.958,3.952,3.991,3.978,3.992,3.97,18.127,75.2,14,Waypoint,
37.7783117,-120.1185205,3730.4669471308,98.753284,0,0.3905347894,15800,2018-05-14 18:54:30,20,0,23.862,3730.4669471308,98.753284,0.223694,0.41055119424,0,0,-0.671082,266.5, -1.6, -0.6,0,0,1024,1024,1024,1024,266.5,-90,98,3.958,3.952,3.991,3.978,3.992,3.97,18.127,75.2,14,Waypoint,
37.7783117,-120.1185205,3731.7792831308,100.06562,0,0.3905347894,15900,2018-05-14 18:54:30,20,0,23.862,3731.7792831308,100.06562,0.223694,0.41055119424,0,0,-0.671082,266.6, -1.7, -0.6,0,0,1024,1024,1024,1024,266.5,-90,98,3.958,3.952,3.991,3.978,3.992,3.97,18.127,75.2,14,Waypoint,
37.7783118,-120.1185205,3732.7635351308,101.049872,0,0.40229003912,16000,2018-05-14 18:54:30,20,0,23.861,3732.7635351308,101.049872,0.223694,0.41055119424,0,0,-0.671082,266.6, -1.5, -0.6,0,0,1024,1024,1024,1024,266.5,-90,97,3.961,3.958,3.989,3.979,3.993,3.978,17.554,75.2,14,Waypoint,
37.7783118,-120.1185205,3733.7477871308,102.034124,0,0.40229003912,16100,2018-05-14 18:54:30,20,0,23.861,3733.7477871308,102.034124,0.223694,0.41055119424,0,0,-0.671082,266.7, -1.3, -0.8,0,0,1024,1024,1024,1024,266.5,-89.9,97,3.961,3.958,3.989,3.979,3.993,3.978,17.554,75.2,14,Waypoint,
37.7783118,-120.1185204,3734.7320391308,103.018376,0,0.42928807148,16200,2018-05-14 18:54:30,20,0,23.861,3734.7320391308,103.018376,0.223694,0.42928807148,0,0,-0.671082,266.7, -1.2, -1.2,0,0,1024,1024,1024,1024,266.5,-89.9,97,3.961,3.958,3.989,3.979,3.993,3.978,17.554,75.2,14,Waypoint,
37.778312,-120.1185204,3736.7005431308,104.98688,0,0.4592519832,16400,2018-05-14 18:54:31,20,0,23.861,3736.7005431308,104.98688,0.223694,0.4592519832,0,0,-0.671082,266.6, -1.2, -1.8,0,0,1024,1024,1024,1024,266.5,-89.9,97,3.961,3.958,3.989,3.979,3.993,3.978,17.554,75.2,14,Waypoint,
37.778312,-120.1185204,3737.6847951308,105.971132,0,0.4592519832,16500,2018-05-14 18:54:31,20,0,23.861,3737.6847951308,105.971132,0.223694,0.4592519832,0,0,-0.671082,266.5, -1.3, -2,0,0,1024,1024,1024,1024,266.5,-89.9,97,3.961,3.958,3.989,3.979,3.993,3.978,17.554,75.2,14,Waypoint,
37.7783121,-120.1185204,3738.6690471308,106.955384,0,0.47771983156,16610,2018-05-14 18:54:31,20,0,23.861,3738.6690471308,106.955384,0.223694,0.47771983156,0,0,-0.671082,266.5, -1.3, -2.4,0,0,1024,1024,1024,1024,266.5,-90,97,3.961,3.958,3.989,3.979,3.993,3.978,17.554,75.2,14,Waypoint,
37.7783123,-120.1185203,3740.6375511308,108.923888,0,0.54307416436,16800,2018-05-14 18:54:31,20,0,23.861,3740.6375511308,108.923888,0.223694,0.54307416436,0,0,-0.671082,266.4, -1.4, -2.8,0,0,1024,1024,1024,1024,266.5,-90,97,3.961,3.958,3.989,3.979,3.993,3.978,17.554,75.2,14,Waypoint,
37.7783124,-120.1185203,3742.2779711308,110.564308,0,0.56588256404,17000,2018-05-14 18:54:31,20,0,23.807,3742.2779711308,110.564308,0.223694,0.56588256404,0,0,-0.671082,266.4, -1.6, -2.8,0,0,1024,1024,1024,1024,266.5,-90,97,3.951,3.946,3.986,3.973,3.984,3.97,17.545,75.2,14,Waypoint,
37.7783126,-120.1185201,3744.2464751308,112.532812,0,0.65727692392,17300,2018-05-14 18:54:32,20,0,23.807,3744.2464751308,112.532812,0.223694,0.65727692392,0,0,-0.671082,266.4, -2.2, -3,0,0,1024,1024,1024,1024,266.5,-90,97,3.951,3.946,3.986,3.973,3.984,3.97,17.545,75.2,14,Waypoint,
37.7783126,-120.1185201,3745.2307271308,113.517064,0,0.65727692392,17400,2018-05-14 18:54:32,20,0,23.807,3745.2307271308,113.517064,0.223694,0.65727692392,0,0,-0.671082,266.3, -2.2, -3,0,0,1024,1024,1024,1024,266.5,-89.9,97,3.951,3.946,3.986,3.973,3.984,3.97,17.545,75.2,14,Waypoint,
37.7783126,-120.11852,3746.2149791308,114.501316,0,0.67905842068,17610,2018-05-14 18:54:32,20,0,23.807,3746.2149791308,114.501316,0.223694,0.67905842068,0,0,-0.671082,266.3, -2.2, -2.7,0,0,1024,1024,1024,1024,266.5,-90,97,3.951,3.946,3.986,3.973,3.984,3.97,17.545,75.2,14,Waypoint,
37.7783127,-120.11852,3747.1992311308,115.485568,0,0.7031332246,17700,2018-05-14 18:54:32,20,0,23.807,3747.1992311308,115.485568,0.223694,0.7031332246,0,0,-0.671082,266.2, -2.1, -2.3,0,0,1024,1024,1024,1024,266.5,-89.9,97,3.951,3.946,3.986,3.973,3.984,3.97,17.545,75.2,14,Waypoint,
37.7783128,-120.11852,3749.1677351308,117.454072,0,0.72824477396,17800,2018-05-14 18:54:32,20,0,23.807,3749.1677351308,117.454072,0.223694,0.72824477396,0,0,-0.671082,266, -1.8, -2.5,0,0,1024,1024,1024,1024,266.5,-89.9,97,3.951,3.946,3.986,3.973,3.984,3.97,17.545,75.2,14,Waypoint,
37.7783128,-120.11852,3750.1519871308,118.438324,0,0.72824477396,18000,2018-05-14 18:54:32,20,0,23.75,3750.1519871308,118.438324,0.223694,0.72824477396,0,0,-0.671082,266, -1.7, -2.5,0,0,1024,1024,1024,1024,266.5,-89.9,97,3.936,3.934,3.981,3.964,3.979,3.955,17.952,75.2,14,Waypoint,
37.7783128,-120.11852,3751.1362391308,119.422576,0,0.72824477396,18110,2018-05-14 18:54:32,20,0,23.75,3751.1362391308,119.422576,0.223694,0.72824477396,0,0,-0.671082,266.1, -1.6, -2.5,0,0,1024,1024,1024,1024,266.5,-89.9,97,3.936,3.934,3.981,3.964,3.979,3.955,17.952,75.2,14,Waypoint,
37.7783128,-120.11852,3752.1204911308,120.406828,0,0.72824477396,18200,2018-05-14 18:54:32,20,0,23.75,3752.1204911308,120.406828,0.223694,0.72824477396,0,0,-0.671082,266.1, -1.4, -2.4,0,0,1024,1024,1024,1024,266.5,-89.9,97,3.936,3.934,3.981,3.964,3.979,3.955,17.952,75.2,14,Waypoint,
37.7783128,-120.1185201,3753.1047431308,121.39108,0,0.70797902528,18300,2018-05-14 18:54:33,20,0,23.75,3753.1047431308,121.39108,0.223694,0.72824477396,0,0,-0.671082,266.2, -1.3, -2.2,0,0,1024,1024,1024,1024,266.5,-89.9,97,3.936,3.934,3.981,3.964,3.979,3.955,17.952,75.2,14,Waypoint,
37.7783128,-120.1185201,3753.7609111308,122.047248,0,0.70797902528,18410,2018-05-14 18:54:33,20,0,23.75,3753.7609111308,122.047248,0.223694,0.72824477396,0,0,-0.671082,266.3, -1.1, -2.2,0,0,1024,1024,1024,1024,266.5,-89.9,97,3.936,3.934,3.981,3.964,3.979,3.955,17.952,75.2,14,Waypoint,
37.7783128,-120.1185201,3754.7451631308,123.0315,0,0.70797902528,18500,2018-05-14 18:54:33,20,0,23.75,3754.7451631308,123.0315,0.223694,0.72824477396,0,0,-0.671082,266.4, -0.9, -2.1,0,0,1024,1024,1024,1024,266.5,-89.9,97,3.936,3.934,3.981,3.964,3.979,3.955,17.952,75.2,14,Waypoint,
37.7783128,-120.1185202,3755.7294151308,124.015752,0,0.68832351284,18610,2018-05-14 18:54:33,20,0,23.75,3755.7294151308,124.015752,0.223694,0.72824477396,0,0,-0.671082,266.5, -0.8, -1.8,0,0,1024,1024,1024,1024,266.5,-89.9,97,3.936,3.934,3.981,3.964,3.979,3.955,17.952,75.2,14,Waypoint,
37.7783128,-120.1185202,3756.7136671308,125.000004,0,0.68832351284,18700,2018-05-14 18:54:33,20,0,23.75,3756.7136671308,125.000004,0.223694,0.72824477396,0,0,-0.671082,266.5, -0.8, -1.9,0,0,1024,1024,1024,1024,266.5,-89.9,97,3.936,3.934,3.981,3.964,3.979,3.955,17.952,75.2,14,Waypoint,
37.7783128,-120.1185202,3757.6979191308,125.984256,0,0.68832351284,18800,2018-05-14 18:54:33,20,0,23.75,3757.6979191308,125.984256,0.223694,0.72824477396,0,0,-0.671082,266.5, -0.7, -2,0,0,1024,1024,1024,1024,266.5,-89.9,97,3.936,3.934,3.981,3.964,3.979,3.955,17.952,75.2,14,Waypoint,
37.7783128,-120.1185203,3758.6821711308,126.968508,0,0.66933729176,19000,2018-05-14 18:54:33,20,0,23.739,3758.6821711308,126.968508,0.223694,0.72824477396,0,0,-0.671082,266.6, -1, -2.2,0,0,1024,1024,1024,1024,266.5,-89.9,97,3.936,3.934,3.981,3.964,3.979,3.955,18.07,75.2,14,Waypoint,
37.7783128,-120.1185203,3759.6664231308,127.95276,0,0.66933729176,19100,2018-05-14 18:54:33,20,0,23.739,3759.6664231308,127.95276,0.223694,0.72824477396,0,0,-0.671082,266.6, -1.3, -2.5,0,0,1024,1024,1024,1024,266.5,-89.9,97,3.936,3.934,3.981,3.964,3.979,3.955,18.07,75.2,14,Waypoint,
37.7783129,-120.1185204,3762.9472631308,131.2336,0,0.68007220024,19400,2018-05-14 18:54:34,20,0,23.739,3762.9472631308,131.2336,0.223694,0.72824477396,0,0,-0.671082,266.3, -1.3, -3.3,0,0,1024,1024,1024,1024,266.5,-89.9,97,3.936,3.934,3.981,3.964,3.979,3.955,18.07,75.2,14,Waypoint,
37.7783129,-120.1185204,3763.9315151308,132.217852,0,0.68007220024,19500,2018-05-14 18:54:34,20,0,23.739,3763.9315151308,132.217852,0.223694,0.72824477396,0,0,-0.671082,266, -1.2, -3.4,0,0,1024,1024,1024,1024,266.5,-89.9,97,3.936,3.934,3.981,3.964,3.979,3.955,18.07,75.2,14,Waypoint,
37.7783129,-120.1185206,3765.9000191308,134.186356,0,0.64750002072,19610,2018-05-14 18:54:34,20,0,23.739,3765.9000191308,134.186356,0.223694,0.72824477396,0,0,-0.671082,265.8, -0.4, -2.6,0,0,1024,1024,1024,1024,266.5,-89.9,97,3.936,3.934,3.981,3.964,3.979,3.955,18.07,75.2,14,Waypoint,
37.7783129,-120.1185206,3766.5561871308,134.842524,0,0.64750002072,19710,2018-05-14 18:54:34,20,0,23.739,3766.5561871308,134.842524,0.223694,0.72824477396,0,0,-0.671082,266, -0.1, -2.1,0,0,1024,1024,1024,1024,266.5,-89.9,97,3.936,3.934,3.981,3.964,3.979,3.955,18.07,75.2,14,Waypoint,
37.7783129,-120.1185207,3768.5246911308,136.811028,0,0.63255907536,19800,2018-05-14 18:54:34,20,0,23.739,3768.5246911308,136.811028,0.223694,0.72824477396,0,0,-0.671082,266.3, -0.4, -2.2,0,0,1024,1024,1024,1024,266.5,-89.9,97,3.936,3.934,3.981,3.964,3.979,3.955,18.07,75.2,14,Waypoint,
37.7783129,-120.1185208,3769.5089431308,137.79528,0,0.618602382,19900,2018-05-14 18:54:34,20,0,23.739,3769.5089431308,137.79528,0.223694,0.72824477396,0,0,-0.671082,266.4, -0.5, -2.5,0,0,1024,1024,1024,1024,266.5,-89.9,97,3.936,3.934,3.981,3.964,3.979,3.955,18.07,75.2,14,Waypoint,
37.7783129,-120.1185208,3770.4931951308,138.779532,0,0.618602382,20100,2018-05-14 18:54:34,20,0,23.739,3770.4931951308,138.779532,0.223694,0.72824477396,0,0,-0.671082,266.4, -0.6, -2.9,0,0,1024,1024,1024,1024,266.5,-89.9,97,3.936,3.934,3.981,3.964,3.979,3.955,18.07,75.2,14,Waypoint,
37.7783128,-120.1185209,3773.4459511308,141.732288,0,0.57294293172,20410,2018-05-14 18:54:35,20,0,23.739,3773.4459511308,141.732288,0.223694,0.72824477396,0,0,-0.671082,266.3, -0.6, -2.6,0,0,1024,1024,1024,1024,266.5,-89.9,97,3.936,3.934,3.981,3.964,3.979,3.955,18.07,75.2,14,Waypoint,
37.7783127,-120.1185209,3774.4302031308,142.71654,0,0.54066930864,20500,2018-05-14 18:54:35,20,0,23.739,3774.4302031308,142.71654,0.223694,0.72824477396,0,0,-0.671082,266.3, -0.3, -2.2,0,0,1024,1024,1024,1024,266.5,-89.9,97,3.936,3.934,3.981,3.964,3.979,3.955,18.07,75.2,14,Waypoint,
37.7783127,-120.1185209,3775.4144551308,143.700792,0,0.54066930864,20600,2018-05-14 18:54:35,20,0,23.739,3775.4144551308,143.700792,0.223694,0.72824477396,0,0,-0.671082,266.4, -0.3, -1.9,0,0,1024,1024,1024,1024,266.5,-89.9,97,3.936,3.934,3.981,3.964,3.979,3.955,18.07,75.2,14,Waypoint,
37.7783127,-120.1185209,3776.7267911308,145.013128,0,0.54066930864,20710,2018-05-14 18:54:35,20,0,23.739,3776.7267911308,145.013128,0.223694,0.72824477396,0,0,-0.671082,266.4, -0.5, -2,0,0,1024,1024,1024,1024,266.5,-89.9,97,3.936,3.934,3.981,3.964,3.979,3.955,18.07,75.2,14,Waypoint,
37.7783127,-120.1185209,3777.7110431308,145.99738,0,0.54066930864,20800,2018-05-14 18:54:35,20,0,23.739,3777.7110431308,145.99738,0.223694,0.72824477396,0,0,-0.671082,266.5, -0.9, -2.4,0,0,1024,1024,1024,1024,266.5,-89.9,97,3.936,3.934,3.981,3.964,3.979,3.955,18.07,75.2,14,Waypoint,
37.7783127,-120.118521,3779.6795471308,147.965884,0,0.52743440008,21000,2018-05-14 18:54:35,20,0,23.653,3779.6795471308,147.965884,0.223694,0.72824477396,0,0,-0.671082,266.4, -0.7, -3,0,0,1024,1024,1024,1024,266.5,-89.9,97,3.915,3.907,3.955,3.927,3.945,3.931,18.621,75.2,14,Waypoint,
37.7783128,-120.118521,3781.6480511308,149.934388,0,0.56046917804,21230,2018-05-14 18:54:35,20,0,23.653,3781.6480511308,149.934388,0.223694,0.72824477396,0,0,-0.671082,266.3, -0.5, -3.6,0,0,1024,1024,1024,1024,266.5,-89.9,97,3.915,3.907,3.955,3.927,3.945,3.931,18.621,75.2,14,Waypoint,
37.7783128,-120.118521,3781.6480511308,149.934388,0,0.56046917804,21300,2018-05-14 18:54:36,20,0,23.653,3781.6480511308,149.934388,0.223694,0.72824477396,0,0,-0.671082,266.3, -0.5, -3.6,0,0,1024,1024,1024,1024,266.5,-89.9,97,3.915,3.907,3.955,3.927,3.945,3.931,18.621,75.2,14,Waypoint,
37.7783129,-120.118521,3783.6165551308,151.902892,0,0.59391078016,21500,2018-05-14 18:54:36,20,0,23.653,3783.6165551308,151.902892,0.223694,0.72824477396,0,0,-0.671082,266.3, -0.7, -3.7,0,0,1024,1024,1024,1024,266.5,-89.9,97,3.915,3.907,3.955,3.927,3.945,3.931,18.621,75.2,14,Waypoint,
37.7783129,-120.118521,3784.6008071308,152.887144,0,0.59391078016,21610,2018-05-14 18:54:36,20,0,23.653,3784.6008071308,152.887144,0.223694,0.72824477396,0,0,-0.671082,266.3, -0.9, -3.7,0,0,1024,1024,1024,1024,266.5,-89.9,97,3.915,3.907,3.955,3.927,3.945,3.931,18.621,75.2,14,Waypoint,
37.7783129,-120.1185211,3785.5850591308,153.871396,0,0.58331366696,21710,2018-05-14 18:54:36,20,0,23.653,3785.5850591308,153.871396,0.223694,0.72824477396,0,0,-0.671082,266.2, -0.9, -3.7,0,0,1024,1024,1024,1024,266.5,-89.9,97,3.915,3.907,3.955,3.927,3.945,3.931,18.621,75.2,14,Waypoint,
37.7783128,-120.1185211,3786.5693111308,154.855648,0,0.5492290202,21810,2018-05-14 18:54:36,20,0,23.653,3786.5693111308,154.855648,0.223694,0.72824477396,0,0,-0.671082,266.1, -0.6, -3.3,0,0,1024,1024,1024,1024,266.5,-89.9,97,3.915,3.907,3.955,3.927,3.945,3.931,18.621,75.2,14,Waypoint,
37.7783127,-120.1185212,3788.5378151308,156.824152,0,0.50487862508,22000,2018-05-14 18:54:36,20,0,23.653,3788.5378151308,156.824152,0.223694,0.72824477396,0,0,-0.671082,265.7, 0.2, -2.5,0,0,1024,1024,1024,1024,266.5,-89.9,97,3.921,3.901,3.953,3.943,3.955,3.938,18.621,75.2,14,Waypoint,
37.7783126,-120.1185212,3789.5220671308,157.808404,0,0.4707677316,22100,2018-05-14 18:54:36,20,0,23.653,3789.5220671308,157.808404,0.223694,0.72824477396,0,0,-0.671082,265.5, 0.2, -2.5,0,0,1024,1024,1024,1024,266.5,-89.9,97,3.921,3.901,3.953,3.943,3.955,3.938,18.621,75.2,14,Waypoint,
37.7783126,-120.1185212,3790.5063191308,158.792656,0,0.4707677316,22200,2018-05-14 18:54:36,20,0,23.653,3790.5063191308,158.792656,0.223694,0.72824477396,0,0,-0.671082,265.5, -0.3, -2.5,0,0,1024,1024,1024,1024,266.5,-89.9,97,3.921,3.901,3.953,3.943,3.955,3.938,18.621,75.2,14,Waypoint,
37.7783124,-120.1185211,3792.4748231308,160.76116,0,0.41696851728,22310,2018-05-14 18:54:37,20,0,23.653,3792.4748231308,160.76116,0.223694,0.72824477396,0,0,-0.671082,265.6, -1.1, -2.6,0,0,1024,1024,1024,1024,266.5,-90,97,3.921,3.901,3.953,3.943,3.955,3.938,18.621,75.2,14,Waypoint,
37.7783123,-120.118521,3794.4433271308,162.729664,0,0.40130250628,22500,2018-05-14 18:54:37,20,0,23.653,3794.4433271308,162.729664,0.223694,0.72824477396,0,0,-0.671082,265.6, -1.6, -2.4,0,0,1024,1024,1024,1024,266.5,-90,97,3.921,3.901,3.953,3.943,3.955,3.938,18.621,75.2,14,Waypoint,
37.7783122,-120.118521,3795.4275791308,163.713916,0,0.37204069432,22610,2018-05-14 18:54:37,20,0,23.653,3795.4275791308,163.713916,0.223694,0.72824477396,0,0,-0.671082,265.7, -1.8, -2,0,0,1024,1024,1024,1024,266.5,-90,97,3.921,3.901,3.953,3.943,3.955,3.938,18.621,75.2,14,Waypoint,
37.7783121,-120.1185209,3796.4118311308,164.698168,0,0.36412074656,22700,2018-05-14 18:54:37,20,0,23.653,3796.4118311308,164.698168,0.223694,0.72824477396,0,0,-0.671082,265.8, -1.9, -1.4,0,0,1024,1024,1024,1024,266.5,-90,97,3.921,3.901,3.953,3.943,3.955,3.938,18.621,75.2,14,Waypoint,
37.7783119,-120.1185207,3798.3803351308,166.666672,0,0.36592520856,22810,2018-05-14 18:54:37,20,0,23.653,3798.3803351308,166.666672,0.223694,0.72824477396,0,0,-0.671082,266.4, -2.7, -0.9,0,0,1024,1024,1024,1024,266.5,-90,97,3.921,3.901,3.953,3.943,3.955,3.938,18.621,75.2,14,Waypoint,
37.7783118,-120.1185204,3801.3330911308,169.619428,0,0.42928807148,23060,2018-05-14 18:54:37,20,0,23.653,3801.3330911308,169.619428,0.223694,0.72824477396,0,0,-0.671082,266.8, -3.1, -1.3,0,0,1024,1024,1024,1024,266.5,-90,97,3.921,3.901,3.953,3.943,3.955,3.938,18.621,75.2,14,Waypoint,
37.7783118,-120.1185204,3801.3330911308,169.619428,0,0.42928807148,23110,2018-05-14 18:54:37,20,0,23.653,3801.3330911308,169.619428,0.223694,0.72824477396,0,0,-0.671082,266.8, -3.1, -1.3,0,0,1024,1024,1024,1024,266.5,-89.9,97,3.921,3.901,3.953,3.943,3.955,3.938,18.621,75.2,14,Waypoint,
37.7783118,-120.1185202,3802.9735111308,171.259848,0,0.48392718084,23200,2018-05-14 18:54:37,20,0,23.653,3802.9735111308,171.259848,0.223694,0.72824477396,0,0,-0.671082,266.8, -3.2, -1.7,0,0,1024,1024,1024,1024,266.5,-89.9,97,3.921,3.901,3.953,3.943,3.955,3.938,18.621,75.2,14,Waypoint,
37.7783118,-120.1185202,3803.9577631308,172.2441,0,0.48392718084,23300,2018-05-14 18:54:38,20,0,23.653,3803.9577631308,172.2441,0.223694,0.72824477396,0,0,-0.671082,266.8, -2.7, -1.9,0,0,1024,1024,1024,1024,266.5,-89.9,97,3.921,3.901,3.953,3.943,3.955,3.938,18.621,75.2,14,Waypoint,
37.7783118,-120.1185202,3804.9420151308,173.228352,0,0.48392718084,23410,2018-05-14 18:54:38,20,0,23.653,3804.9420151308,173.228352,0.223694,0.72824477396,0,0,-0.671082,266.9, -2.1, -2.3,0,0,1024,1024,1024,1024,266.5,-89.9,97,3.921,3.901,3.953,3.943,3.955,3.938,18.621,75.2,14,Waypoint,
37.7783118,-120.1185202,3805.9262671308,174.212604,0,0.48392718084,23500,2018-05-14 18:54:38,20,0,23.653,3805.9262671308,174.212604,0.223694,0.72824477396,0,0,-0.671082,267.1, -2, -1.9,0,0,1024,1024,1024,1024,266.5,-90,97,3.921,3.901,3.953,3.943,3.955,3.938,18.621,75.2,14,Waypoint,
37.7783117,-120.1185202,3806.9105191308,175.196856,0,0.47419949024,23600,2018-05-14 18:54:38,20,0,23.653,3806.9105191308,175.196856,0.223694,0.72824477396,0,0,-0.671082,267, -2.2, -1.2,0,0,1024,1024,1024,1024,266.5,-90,97,3.921,3.901,3.953,3.943,3.955,3.938,18.621,75.2,14,Waypoint,
37.7783116,-120.1185202,3808.5509391308,176.837276,0,0.46712928004,23710,2018-05-14 18:54:38,20,0,23.653,3808.5509391308,176.837276,0.223694,0.72824477396,0,0,-0.671082,266.4, -2.7, -0.2,0,0,1024,1024,1024,1024,266.5,-90,97,3.921,3.901,3.953,3.943,3.955,3.938,18.621,75.2,14,Waypoint,
37.7783115,-120.1185203,3810.5194431308,178.80578,0,0.43409450208,24000,2018-05-14 18:54:38,20,0,23.558,3810.5194431308,178.80578,0.223694,0.72824477396,0,0,-0.671082,265.6, -1.6, 0.2,0,0,1024,1024,1024,1024,266.5,-89.9,97,3.918,3.906,3.963,3.926,3.949,3.908,18.737,77,14,Waypoint,
37.7783114,-120.1185204,3811.5036951308,179.790032,0,0.40372048536,24100,2018-05-14 18:54:38,20,0,23.558,3811.5036951308,179.790032,0.223694,0.72824477396,0,0,-0.671082,265.3, -1.2, 0.2,0,0,1024,1024,1024,1024,266.5,-89.9,97,3.918,3.906,3.963,3.926,3.949,3.908,18.737,77,14,Waypoint,
37.7783114,-120.1185206,3812.4879471308,180.774284,0,0.346046599,24200,2018-05-14 18:54:38,20,0,23.558,3812.4879471308,180.774284,0.223694,0.72824477396,0,0,-0.671082,265.3, -1.1, 0.1,0,0,1024,1024,1024,1024,266.5,-89.9,97,3.918,3.906,3.963,3.926,3.949,3.908,18.737,77,14,Waypoint,
37.7783113,-120.1185207,3814.4564511308,182.742788,0,0.319300863236,24300,2018-05-14 18:54:39,20,0,23.558,3814.4564511308,182.742788,0.223694,0.72824477396,0,0,-0.671082,265.6, -0.9, 0.1,0,0,1024,1024,1024,1024,266.5,-89.9,97,3.918,3.906,3.963,3.926,3.949,3.908,18.737,77,14,Waypoint,
37.7783112,-120.1185207,3815.4407031308,183.72704,0,0.325494104904,24500,2018-05-14 18:54:39,20,0,23.558,3815.4407031308,183.72704,0.223694,0.72824477396,0,0,-0.671082,265.9, -0.9, 0,0,0,1024,1024,1024,1024,266.5,-89.9,97,3.918,3.906,3.963,3.926,3.949,3.908,18.737,77,14,Waypoint,
37.7783112,-120.1185208,3816.4249551308,184.711292,0,0.297461295608,24600,2018-05-14 18:54:39,20,0,23.558,3816.4249551308,184.711292,0.223694,0.72824477396,0,0,-0.671082,266.2, -0.9, -0.1,0,0,1024,1024,1024,1024,266.5,-89.9,97,3.918,3.906,3.963,3.926,3.949,3.908,18.737,77,14,Waypoint,
37.7783111,-120.1185208,3817.4092071308,185.695544,0,0.308445876012,24700,2018-05-14 18:54:39,20,0,23.558,3817.4092071308,185.695544,0.223694,0.72824477396,0,0,-0.671082,266.4, -0.9, -0.2,0,0,1024,1024,1024,1024,266.5,-89.9,97,3.918,3.906,3.963,3.926,3.949,3.908,18.737,77,14,Waypoint,
37.7783111,-120.1185208,3818.3934591308,186.679796,0,0.308445876012,24800,2018-05-14 18:54:39,20,0,23.558,3818.3934591308,186.679796,0.223694,0.72824477396,0,0,-0.671082,266.5, -1, 0.1,0,0,1024,1024,1024,1024,266.5,-89.9,97,3.918,3.906,3.963,3.926,3.949,3.908,18.737,77,14,Waypoint,
37.7783111,-120.1185209,3821.6742991308,189.960636,0,0.281671268856,25100,2018-05-14 18:54:39,20,0,23.558,3821.6742991308,189.960636,0.223694,0.72824477396,0,0,-0.671082,266.6, -1.5, -0.3,0,0,1024,1024,1024,1024,266.5,-89.9,97,3.918,3.906,3.963,3.926,3.949,3.908,18.737,77,14,Waypoint,
37.7783112,-120.1185209,3822.6585511308,190.944888,0,0.269597777656,25200,2018-05-14 18:54:39,20,0,23.558,3822.6585511308,190.944888,0.223694,0.72824477396,0,0,-0.671082,266.5, -1.4, -0.8,0,0,1024,1024,1024,1024,266.5,-89.9,97,3.918,3.906,3.963,3.926,3.949,3.908,18.737,77,14,Waypoint,
37.7783112,-120.1185209,3823.6428031308,191.92914,0,0.269597777656,25300,2018-05-14 18:54:40,20,0,23.558,3823.6428031308,191.92914,0.223694,0.72824477396,0,0,-0.671082,266.4, -1.5, -1.1,0,0,1024,1024,1024,1024,266.5,-90,97,3.918,3.906,3.963,3.926,3.949,3.908,18.737,77,14,Waypoint,
37.7783112,-120.1185209,3824.6270551308,192.913392,0,0.269597777656,25400,2018-05-14 18:54:40,20,0,23.558,3824.6270551308,192.913392,0.223694,0.72824477396,0,0,-0.671082,266.3, -1.6, -0.9,0,0,1024,1024,1024,1024,266.5,-90,97,3.918,3.906,3.963,3.926,3.949,3.908,18.737,77,14,Waypoint,
37.7783112,-120.118521,3825.6113071308,193.897644,0,0.241962934252,25500,2018-05-14 18:54:40,20,0,23.558,3825.6113071308,193.897644,0.223694,0.72824477396,0,0,-0.671082,266.2, -1.6, -0.7,0,0,1024,1024,1024,1024,266.5,-89.9,97,3.918,3.906,3.963,3.926,3.949,3.908,18.737,77,14,Waypoint,
37.7783112,-120.118521,3826.5955591308,194.881896,0,0.241962934252,25600,2018-05-14 18:54:40,20,0,23.558,3826.5955591308,194.881896,0.223694,0.72824477396,0,0,-0.671082,266.1, -1.6, -0.7,0,0,1024,1024,1024,1024,266.5,-89.9,97,3.918,3.906,3.963,3.926,3.949,3.908,18.737,77,14,Waypoint,
37.7783112,-120.1185211,3827.5798111308,195.866148,0,0.214644691908,25700,2018-05-14 18:54:40,20,0,23.558,3827.5798111308,195.866148,0.223694,0.72824477396,0,0,-0.671082,266.1, -1.5, -0.5,0,0,1024,1024,1024,1024,266.5,-89.9,97,3.918,3.906,3.963,3.926,3.949,3.908,18.737,77,14,Waypoint,
37.7783112,-120.1185211,3828.5640631308,196.8504,0,0.214644691908,25800,2018-05-14 18:54:40,20,0,23.558,3828.5640631308,196.8504,0.223694,0.72824477396,0,0,-0.671082,266.1, -1.2, -0.3,0,0,1024,1024,1024,1024,266.5,-89.9,97,3.918,3.906,3.963,3.926,3.949,3.908,18.737,77,14,Waypoint,
37.7783112,-120.1185211,3829.5483151308,197.834652,0,0.214644691908,25900,2018-05-14 18:54:40,20,0,23.558,3829.5483151308,197.834652,0.223694,0.72824477396,0,0,-0.671082,266.1, -1.2, -0.3,0,0,1024,1024,1024,1024,266.5,-89.9,97,3.918,3.906,3.963,3.926,3.949,3.908,18.737,77,14,Waypoint,
37.7783112,-120.1185211,3830.5325671308,198.818904,0,0.214644691908,26000,2018-05-14 18:54:40,20,0,23.407,3830.5325671308,198.818904,0.223694,0.72824477396,0,0,-0.671082,266.2, -1.1, 0,0,0,1024,1024,1024,1024,266.5,-89.9,96,3.889,3.882,3.944,3.906,3.923,3.904,20.224,77,14,Waypoint,
37.7783112,-120.1185211,3831.5168191308,199.803156,0,0.214644691908,26100,2018-05-14 18:54:40,20,0,23.407,3831.5168191308,199.803156,0.223694,0.72824477396,0,0,-0.671082,266.2, -1.3, 0,0,0,1024,1024,1024,1024,266.5,-90,96,3.889,3.882,3.944,3.906,3.923,3.904,20.224,77,14,Waypoint,
37.7783112,-120.1185212,3834.7976591308,203.083996,0,0.187780845904,26400,2018-05-14 18:54:41,20,0,23.407,3834.7976591308,203.083996,0.223694,0.72824477396,0,0,-0.671082,266.5, -1.4, -0.3,0,0,1024,1024,1024,1024,266.5,-89.9,96,3.889,3.882,3.944,3.906,3.923,3.904,20.224,77,14,Waypoint,
37.7783112,-120.1185212,3836.7661631308,205.0525,0,0.187780845904,26510,2018-05-14 18:54:41,20,0,23.407,3836.7661631308,205.0525,0.223694,0.72824477396,0,0,-0.671082,266.4, -1.4, 0.2,0,0,1024,1024,1024,1024,266.5,-89.9,96,3.889,3.882,3.944,3.906,3.923,3.904,20.224,77,14,Waypoint,
37.7783112,-120.1185212,3837.7504151308,206.036752,0,0.187780845904,26710,2018-05-14 18:54:41,20,0,23.407,3837.7504151308,206.036752,0.223694,0.72824477396,0,0,-0.671082,266.4, -1.4, 0.2,0,0,1024,1024,1024,1024,266.5,-89.9,96,3.889,3.882,3.944,3.906,3.923,3.904,20.224,77,14,Waypoint,
37.7783112,-120.1185212,3838.7346671308,207.021004,0,0.187780845904,26800,2018-05-14 18:54:41,20,0,23.407,3838.7346671308,207.021004,0.223694,0.72824477396,0,0,-0.671082,266.3, -1.3, 0.2,0,0,1024,1024,1024,1024,266.5,-89.9,96,3.889,3.882,3.944,3.906,3.923,3.904,20.224,77,14,Waypoint,
37.7783112,-120.1185212,3839.7189191308,208.005256,0,0.187780845904,26900,2018-05-14 18:54:41,20,0,23.407,3839.7189191308,208.005256,0.223694,0.72824477396,0,0,-0.671082,266.2, -1.6, 0.2,0,0,1024,1024,1024,1024,266.5,-90,96,3.889,3.882,3.944,3.906,3.923,3.904,20.224,77,14,Waypoint,
37.7783112,-120.1185212,3840.7031711308,208.989508,0,0.187780845904,27000,2018-05-14 18:54:41,20,0,23.457,3840.7031711308,208.989508,0.223694,0.72824477396,0,0,-0.671082,266.1, -1.4, 0,0,0,1024,1024,1024,1024,266.5,-89.9,96,3.891,3.878,3.939,3.91,3.926,3.905,19.258,77,14,Waypoint,
37.7783112,-120.1185213,3841.6874231308,209.97376,0,0.161599086536,27100,2018-05-14 18:54:41,20,0,23.457,3841.6874231308,209.97376,0.223694,0.72824477396,0,0,-0.671082,266, -1.1, -0.1,0,0,1024,1024,1024,1024,266.5,-89.9,96,3.891,3.878,3.939,3.91,3.926,3.905,19.258,77,14,Waypoint,
37.7783113,-120.1185213,3842.6716751308,210.958012,0,0.148730647804,27200,2018-05-14 18:54:41,20,0,23.457,3842.6716751308,210.958012,0.223694,0.72824477396,0,0,-0.671082,265.8, -0.9, 0,0,0,1024,1024,1024,1024,266.5,-89.9,96,3.891,3.878,3.939,3.91,3.926,3.905,19.258,77,14,Waypoint,
37.7783113,-120.1185213,3843.6559271308,211.942264,0,0.148730647804,27300,2018-05-14 18:54:42,20,0,23.457,3843.6559271308,211.942264,0.223694,0.72824477396,0,0,-0.671082,265.7, -0.9, -0.1,0,0,1024,1024,1024,1024,266.5,-89.9,96,3.891,3.878,3.939,3.91,3.926,3.905,19.258,77,14,Waypoint,
37.7783113,-120.1185215,3845.6244311308,213.910768,0,0.093890422952,27500,2018-05-14 18:54:42,20,0,23.457,3845.6244311308,213.910768,0.223694,0.72824477396,0,0,-0.671082,266, -0.5, -0.8,0,0,1024,1024,1024,1024,266.5,-89.9,96,3.891,3.878,3.939,3.91,3.926,3.905,19.258,77,14,Waypoint,
37.7783113,-120.1185215,3846.6086831308,214.89502,0,0.093890422952,27600,2018-05-14 18:54:42,20,0,23.457,3846.6086831308,214.89502,0.223694,0.72824477396,0,0,-0.671082,266.3, -0.4, -0.8,0,0,1024,1024,1024,1024,266.5,-89.9,96,3.891,3.878,3.939,3.91,3.926,3.905,19.258,77,14,Waypoint,
37.7783113,-120.1185216,3847.5929351308,215.879272,0,0.068245737092,27700,2018-05-14 18:54:42,20,0,23.457,3847.5929351308,215.879272,0.223694,0.72824477396,0,0,-0.671082,266.4, -0.6, -0.6,0,0,1024,1024,1024,1024,266.5,-89.9,96,3.891,3.878,3.939,3.91,3.926,3.905,19.258,77,14,Waypoint,
37.7783114,-120.1185216,3848.5771871308,216.863524,0,0.057674542528,27800,2018-05-14 18:54:42,20,0,23.457,3848.5771871308,216.863524,0.223694,0.72824477396,0,0,-0.671082,266.4, -0.5, -0.6,0,0,1024,1024,1024,1024,266.5,-89.9,96,3.891,3.878,3.939,3.91,3.926,3.905,19.258,77,14,Waypoint,
37.7783114,-120.1185217,3849.5614391308,217.847776,0,0.0288372056472,27900,2018-05-14 18:54:42,20,0,23.457,3849.5614391308,217.847776,0.223694,0.72824477396,0,0,-0.671082,266.3, -0.2, -0.6,0,0,1024,1024,1024,1024,266.5,-89.9,96,3.891,3.878,3.939,3.91,3.926,3.905,19.258,77,14,Waypoint,
37.7783114,-120.1185217,3850.5456911308,218.832028,0,0.0288372056472,28000,2018-05-14 18:54:42,20,0,23.399,3850.5456911308,218.832028,0.223694,0.72824477396,0,0,-0.671082,266.2, -0.3, -0.7,0,0,1024,1024,1024,1024,266.5,-89.9,96,3.871,3.861,3.926,3.891,3.902,3.885,20.286,77,14,Waypoint,
37.7783114,-120.1185217,3851.5299431308,219.81628,0,0.0288372056472,28100,2018-05-14 18:54:42,20,0,23.399,3851.5299431308,219.81628,0.223694,0.72824477396,0,0,-0.671082,266.1, -0.5, -0.7,0,0,1024,1024,1024,1024,266.5,-89.9,96,3.871,3.861,3.926,3.891,3.902,3.885,20.286,77,14,Waypoint,
37.7783114,-120.1185217,3852.5141951308,220.800532,0,0.0288372056472,28200,2018-05-14 18:54:42,20,0,23.399,3852.5141951308,220.800532,0.223694,0.72824477396,0,0,-0.671082,266, -0.7, -0.7,0,0,1024,1024,1024,1024,266.5,-89.9,96,3.871,3.861,3.926,3.891,3.902,3.885,20.286,77,14,Waypoint,
37.7783114,-120.1185217,3853.4984471308,221.784784,0,0.0288372056472,28300,2018-05-14 18:54:43,20,0,23.399,3853.4984471308,221.784784,0.223694,0.72824477396,0,0,-0.671082,266, -1, -0.4,0,0,1024,1024,1024,1024,266.5,-89.9,96,3.871,3.861,3.926,3.891,3.902,3.885,20.286,77,14,Waypoint,
37.7783113,-120.1185216,3854.4826991308,222.769036,0,0.068245737092,28400,2018-05-14 18:54:43,20,0,23.399,3854.4826991308,222.769036,0.223694,0.72824477396,0,0,-0.671082,266, -1.2, 0,0,0,1024,1024,1024,1024,266.5,-90,96,3.871,3.861,3.926,3.891,3.902,3.885,20.286,77,14,Waypoint,
37.7783112,-120.1185216,3857.4354551308,225.721792,0,0.093010501664,28600,2018-05-14 18:54:43,20,0,23.399,3857.4354551308,225.721792,0.223694,0.72824477396,0,0,-0.671082,266.3, -0.9, 0.1,0,0,1024,1024,1024,1024,266.5,-89.9,96,3.871,3.861,3.926,3.891,3.902,3.885,20.286,77,14,Waypoint,
37.7783112,-120.1185216,3858.4197071308,226.706044,0,0.093010501664,28710,2018-05-14 18:54:43,20,0,23.399,3858.4197071308,226.706044,0.223694,0.72824477396,0,0,-0.671082,266.4, -0.9, 0.2,0,0,1024,1024,1024,1024,266.5,-89.9,96,3.871,3.861,3.926,3.891,3.902,3.885,20.286,77,14,Waypoint,
37.7783112,-120.1185216,3859.4039591308,227.690296,0,0.093010501664,28820,2018-05-14 18:54:43,20,0,23.399,3859.4039591308,227.690296,0.223694,0.72824477396,0,0,-0.671082,266.3, -1.1, 0.2,0,0,1024,1024,1024,1024,266.5,-89.9,96,3.871,3.861,3.926,3.891,3.902,3.885,20.286,77,14,Waypoint,
37.7783112,-120.1185216,3859.4039591308,227.690296,0,0.093010501664,28900,2018-05-14 18:54:43,20,0,23.399,3859.4039591308,227.690296,0.223694,0.72824477396,0,0,-0.671082,266.3, -1.1, 0.2,0,0,1024,1024,1024,1024,266.5,-89.9,96,3.871,3.861,3.926,3.891,3.902,3.885,20.286,77,14,Waypoint,
37.7783111,-120.1185215,3861.3724631308,229.6588,0,0.139515752496,29000,2018-05-14 18:54:43,20,0,23.267,3861.3724631308,229.6588,0.223694,0.72824477396,0,0,-0.671082,266.2, -1, 0.5,0,0,1024,1024,1024,1024,266.5,-89.9,96,3.859,3.867,3.905,3.879,3.892,3.877,21.404,77,14,Waypoint,
37.778311,-120.1185215,3862.3567151308,230.643052,0,0.169654532988,29110,2018-05-14 18:54:43,20,0,23.267,3862.3567151308,230.643052,0.223694,0.72824477396,0,0,-0.671082,266.2, -0.9, 0.7,0,0,1024,1024,1024,1024,266.5,-89.9,96,3.859,3.867,3.905,3.879,3.892,3.877,21.404,77,14,Waypoint,
37.778311,-120.1185215,3863.3409671308,231.627304,0,0.169654532988,29300,2018-05-14 18:54:44,20,0,23.267,3863.3409671308,231.627304,0.223694,0.72824477396,0,0,-0.671082,266.1, -1.1, 0.6,0,0,1024,1024,1024,1024,266.5,-89.9,96,3.859,3.867,3.905,3.879,3.892,3.877,21.404,77,14,Waypoint,
37.7783109,-120.1185214,3864.3252191308,232.611556,0,0.215833668324,29400,2018-05-14 18:54:44,20,0,23.267,3864.3252191308,232.611556,0.223694,0.72824477396,0,0,-0.671082,266, -1.2, 0.5,0,0,1024,1024,1024,1024,266.5,-89.9,96,3.859,3.867,3.905,3.879,3.892,3.877,21.404,77,14,Waypoint,
