latitude,longitude,altitude(feet),ascent(feet),speed(mph),distance(feet),time(millisecond),datetime(utc),satellites,gpslevel,voltage(v),max_altitude(feet),max_ascent(feet),max_speed(mph),max_distance(feet), xSpeed(mph), ySpeed(mph), zSpeed(mph), compass_heading(degrees), pitch(degrees), roll(degrees),isPhoto,isVideo,rc_elevator,rc_aileron,rc_throttle,rc_rudder,gimbal_heading(degrees),gimbal_pitch(degrees),battery_percent,voltageCell1,voltageCell2,voltageCell3,voltageCell4,voltageCell5,voltageCell6,current(A),battery_temperature(f),flycStateRaw,flycState,message
35.7013533,-118.5808974,6505.0601989756,-0.328084,0,0,3030,2018-07-05 17:08:38,11,0,25.602,6505.0601989756,0,0,0,0,0,0,292.8, 0.9, -0.1,1,0,1024,1024,1024,1024,291.5,-89.9,97,4.274,4.289,4.244,4.242,4.252,4.252,3.74,68,11,AutoTakeoff,DJI_0237.jpg Starting Mission from Lat/Long: 35.70136/-118.58091 Camera: Zenmuse X3 - Overlap: 90/90 - Active Connection: No
35.7013533,-118.5808974,6505.3882829756,0,0,0,3100,2018-07-05 17:08:38,11,0,25.602,6505.3882829756,0,0,0,0,0,0,292.9, 0.9, 0,0,0,1024,1024,1024,1024,291.5,-89.9,97,4.274,4.289,4.244,4.242,4.252,4.252,3.74,68,11,AutoTakeoff,
35.7013533,-118.5808974,6505.3882829756,0,0,0,3300,2018-07-05 17:08:38,11,0,25.602,6505.3882829756,0,0,0,0,0,-0.223694,293, 0.3, 0.3,0,0,1024,1024,1024,1024,291.6,-89.9,97,4.274,4.289,4.244,4.242,4.252,4.252,3.74,68,11,AutoTakeoff,
35.7013532,-118.5808973,6505.3882829756,0,0,0.047000001504,3400,2018-07-05 17:08:38,11,0,25.602,6505.3882829756,0,0,0.047000001504,0,0,-0.223694,293, 0.3, 0.4,0,0,1024,1024,1024,1024,291.6,-89.9,97,4.274,4.289,4.244,4.242,4.252,4.252,3.74,68,11,AutoTakeoff,
35.7013532,-118.5808973,6505.3882829756,0,0,0.047000001504,3500,2018-07-05 17:08:38,11,0,25.602,6505.3882829756,0,0,0.047000001504,0,0,-0.223694,293, 0.2, 0.2,0,0,1024,1024,1024,1024,291.6,-89.9,97,4.274,4.289,4.244,4.242,4.252,4.252,3.74,68,11,AutoTakeoff,
35.7013532,-118.5808972,6505.7163669756,0.328084,0,0.069587928736,3600,2018-07-05 17:08:39,11,0,25.602,6505.7163669756,0.328084,0,0.069587928736,0,0,-0.223694,293.1, 0, 0.4,0,0,1024,1024,1024,1024,291.6,-89.9,97,4.274,4.289,4.244,4.242,4.252,4.252,3.74,68,11,AutoTakeoff,
35.7013532,-118.5808972,6506.0444509756,0.656168,0,0.069587928736,3700,2018-07-05 17:08:39,11,0,25.602,6506.0444509756,0.656168,0,0.069587928736,0,0,-0.223694,293.1, -0.2, 0.2,0,0,1024,1024,1024,1024,291.6,-89.9,97,4.274,4.289,4.244,4.242,4.252,4.252,3.74,68,11,AutoTakeoff,
35.7013531,-118.5808971,6506.0444509756,0.656168,0,0.115000659848,3800,2018-07-05 17:08:39,11,0,25.602,6506.0444509756,0.656168,0,0.115000659848,0,0,-0.223694,293, -0.2, -0.1,0,0,1024,1024,1024,1024,291.6,-90,97,4.274,4.289,4.244,4.242,4.252,4.252,3.74,68,11,AutoTakeoff,
35.7013531,-118.5808971,6506.3725349756,0.984252,0,0.115000659848,3900,2018-07-05 17:08:39,11,0,25.602,6506.3725349756,0.984252,0,0.115000659848,0,0,-0.223694,292.9, -0.2, 0,0,0,1024,1024,1024,1024,291.6,-90,97,4.274,4.289,4.244,4.242,4.252,4.252,3.74,68,11,AutoTakeoff,
35.7013531,-118.5808971,6506.3725349756,0.984252,0,0.115000659848,4000,2018-07-05 17:08:39,11,0,25.602,6506.3725349756,0.984252,0,0.115000659848,0,0,0,292.7, 0, 0.1,0,0,1024,1024,1024,1024,291.7,-90,97,4.274,4.289,4.244,4.242,4.252,4.252,3.74,68,11,AutoTakeoff,
35.7013531,-118.5808971,6506.7006189756,1.312336,0,0.115000659848,4100,2018-07-05 17:08:39,11,0,25.602,6506.7006189756,1.312336,0,0.115000659848,0,0,-0.223694,292.6, -0.4, 0.3,0,0,1024,1024,1024,1024,291.7,-90,97,4.274,4.289,4.244,4.242,4.252,4.252,3.74,68,11,AutoTakeoff,
35.701353,-118.5808971,6507.0287029756,1.64042,0,0.140999676428,4200,2018-07-05 17:08:39,11,0,25.602,6507.0287029756,1.64042,0,0.140999676428,0,0,0,292.6, -0.5, 0.4,0,0,1024,1024,1024,1024,291.7,-90,97,4.274,4.289,4.244,4.242,4.252,4.252,3.74,68,11,AutoTakeoff,
35.701353,-118.5808971,6507.0287029756,1.64042,0,0.140999676428,4300,2018-07-05 17:08:39,11,0,25.602,6507.0287029756,1.64042,0,0.140999676428,0,0,0,292.6, -0.5, 0.4,0,0,1024,1024,1024,1024,291.7,-89.9,97,4.274,4.289,4.244,4.242,4.252,4.252,3.74,68,11,AutoTakeoff,
35.701353,-118.5808971,6507.3567869756,1.968504,0,0.140999676428,4400,2018-07-05 17:08:39,11,0,25.602,6507.3567869756,1.968504,0,0.140999676428,0,0,-0.223694,292.7, 0, 0.3,0,0,1024,1024,1024,1024,291.7,-89.9,97,4.274,4.289,4.244,4.242,4.252,4.252,3.74,68,11,AutoTakeoff,
35.7013529,-118.5808972,6507.3567869756,1.968504,0,0.157511159896,4500,2018-07-05 17:08:39,11,0,25.602,6507.3567869756,1.968504,0,0.157511159896,0,0,0,292.7, 0, 0.3,0,0,1024,1024,1024,1024,291.7,-89.9,97,4.274,4.289,4.244,4.242,4.252,4.252,3.74,68,11,AutoTakeoff,
35.7013529,-118.5808972,6507.6848709756,2.296588,0,0.157511159896,4600,2018-07-05 17:08:40,11,0,25.602,6507.6848709756,2.296588,0,0.157511159896,0,0,0,292.8, 0.1, 0.4,0,0,1024,1024,1024,1024,291.7,-89.9,97,4.274,4.289,4.244,4.242,4.252,4.252,3.74,68,11,AutoTakeoff,
35.7013529,-118.5808973,6507.6848709756,2.296588,0,0.148916999516,4700,2018-07-05 17:08:40,10,0,25.602,6507.6848709756,2.296588,0,0.157511159896,0,0,0,292.9, 0.2, 0.5,0,0,1024,1024,1024,1024,291.7,-89.9,97,4.274,4.289,4.244,4.242,4.252,4.252,3.74,68,11,AutoTakeoff,
35.7013529,-118.5808973,6508.0129549756,2.624672,0,0.148916999516,4800,2018-07-05 17:08:40,10,0,25.602,6508.0129549756,2.624672,0,0.157511159896,0,0,0,293, 0.4, 0.8,0,0,1024,1024,1024,1024,291.7,-89.9,97,4.274,4.289,4.244,4.242,4.252,4.252,3.74,68,11,AutoTakeoff,
35.7013528,-118.5808974,6508.0129549756,2.624672,0,0.18242454652,4900,2018-07-05 17:08:40,9,0,25.602,6508.0129549756,2.624672,0,0.18242454652,0,0,-0.223694,293, 0.4, 1.2,0,0,1024,1024,1024,1024,291.7,-89.9,97,4.274,4.289,4.244,4.242,4.252,4.252,3.74,68,11,AutoTakeoff,
35.7013528,-118.5808974,6508.3410389756,2.952756,0,0.18242454652,5000,2018-07-05 17:08:40,9,0,23.936,6508.3410389756,2.952756,0,0.18242454652,0,0,0,293.1, 0.3, 1.1,0,0,1024,1024,1024,1024,291.7,-89.9,97,3.978,3.972,3.994,3.994,3.964,3.984,16.462,68,11,AutoTakeoff,
35.7013527,-118.5808974,6508.3410389756,2.952756,0,0.218909783908,5200,2018-07-05 17:08:40,9,0,23.936,6508.3410389756,2.952756,0,0.218909783908,0,0,0,293, 0.3, 1,0,0,1024,1024,1024,1024,291.7,-89.9,97,3.978,3.972,3.994,3.994,3.964,3.984,16.462,68,14,Waypoint,
35.7013526,-118.5808974,6508.3410389756,2.952756,0,0.255394693212,5300,2018-07-05 17:08:40,9,0,23.936,6508.3410389756,2.952756,0,0.255394693212,0,0,0,293, 0.1, 0.9,0,0,1024,1024,1024,1024,291.7,-89.9,97,3.978,3.972,3.994,3.994,3.964,3.984,16.462,68,14,Waypoint,
35.7013526,-118.5808975,6508.3410389756,2.952756,0,0.257107291692,5400,2018-07-05 17:08:40,10,0,23.936,6508.3410389756,2.952756,0,0.257107291692,0,0,0,293.1, 0, 0.8,0,0,1024,1024,1024,1024,291.8,-89.9,97,3.978,3.972,3.994,3.994,3.964,3.984,16.462,68,14,Waypoint,
35.7013525,-118.5808975,6508.6691229756,3.28084,0,0.29337927448,5500,2018-07-05 17:08:40,11,0,23.936,6508.6691229756,3.28084,0,0.29337927448,0,0,0,293.2, 0, 0.9,0,0,1024,1024,1024,1024,291.8,-90,97,3.978,3.972,3.994,3.994,3.964,3.984,16.462,68,14,Waypoint,
35.7013525,-118.5808976,6508.9972069756,3.608924,0,0.297833999032,5600,2018-07-05 17:08:41,11,0,23.936,6508.9972069756,3.608924,0,0.297833999032,0,0,-0.223694,293.3, 0.2, 1,0,0,1024,1024,1024,1024,291.8,-89.9,97,3.978,3.972,3.994,3.994,3.964,3.984,16.462,68,14,Waypoint,
35.7013525,-118.5808977,6508.9972069756,3.608924,0,0.305113526824,5800,2018-07-05 17:08:41,11,0,23.936,6508.9972069756,3.608924,0,0.305113526824,0,0,-0.223694,293.3, 0.4, 0.9,0,0,1024,1024,1024,1024,291.8,-89.9,97,3.978,3.972,3.994,3.994,3.964,3.984,16.462,68,14,Waypoint,
35.7013525,-118.5808977,6509.3252909756,3.937008,0,0.305113526824,5900,2018-07-05 17:08:41,11,0,23.936,6509.3252909756,3.937008,0,0.305113526824,0,0,-0.223694,293.2, 0.6, 0.6,0,0,1024,1024,1024,1024,291.9,-89.9,97,3.978,3.972,3.994,3.994,3.964,3.984,16.462,68,14,Waypoint,
35.7013525,-118.5808978,6509.6533749756,4.265092,0,0.315022319792,6000,2018-07-05 17:08:41,11,0,23.936,6509.6533749756,4.265092,0,0.315022319792,0,0,-0.223694,293.1, 0.7, 0.4,0,0,1024,1024,1024,1024,291.9,-89.9,97,3.978,3.972,3.994,3.994,3.964,3.984,16.462,68,14,Waypoint,
35.7013526,-118.5808978,6509.9814589756,4.593176,0,0.281552502448,6100,2018-07-05 17:08:41,11,0,23.936,6509.9814589756,4.593176,0,0.315022319792,0,0,-0.223694,293.1, 0.7, 0.4,0,0,1024,1024,1024,1024,291.9,-89.9,97,3.978,3.972,3.994,3.994,3.964,3.984,16.462,68,14,Waypoint,
35.7013526,-118.5808977,6510.3095429756,4.92126,0,0.27041995616,6200,2018-07-05 17:08:41,11,0,23.936,6510.3095429756,4.92126,0,0.315022319792,0,0,-0.223694,293, 0.6, 0.5,0,0,1024,1024,1024,1024,291.9,-89.9,97,3.978,3.972,3.994,3.994,3.964,3.984,16.462,68,14,Waypoint,
35.7013526,-118.5808977,6510.6376269756,5.249344,0,0.27041995616,6300,2018-07-05 17:08:41,11,0,23.936,6510.6376269756,5.249344,0,0.315022319792,0,0,-0.447388,293, 0.3, 0.7,0,0,1024,1024,1024,1024,291.9,-89.9,97,3.978,3.972,3.994,3.994,3.964,3.984,16.462,68,14,Waypoint,
35.7013526,-118.5808976,6511.2937949756,5.905512,0,0.262178814164,6400,2018-07-05 17:08:41,11,0,23.936,6511.2937949756,5.905512,0,0.315022319792,0,0,-0.447388,292.9, 0, 0.6,0,0,1024,1024,1024,1024,291.9,-90,97,3.978,3.972,3.994,3.994,3.964,3.984,16.462,68,14,Waypoint,
35.7013526,-118.5808975,6511.9499629756,6.56168,0,0.257107291692,6500,2018-07-05 17:08:41,11,0,23.936,6511.9499629756,6.56168,0,0.315022319792,0,0,-0.447388,292.9, -0.1, 0.3,0,0,1024,1024,1024,1024,291.9,-90,97,3.978,3.972,3.994,3.994,3.964,3.984,16.462,68,14,Waypoint,
35.7013527,-118.5808975,6512.9342149756,7.545932,0,0.22090551888,6600,2018-07-05 17:08:42,11,0,23.936,6512.9342149756,7.545932,0,0.315022319792,0,0,-0.671082,292.9, -0.2, 0.2,0,0,1024,1024,1024,1024,292,-90,97,3.978,3.972,3.994,3.994,3.964,3.984,16.462,68,14,Waypoint,
35.7013527,-118.5808974,6513.5903829756,8.2021,0,0.218909783908,6700,2018-07-05 17:08:42,12,0,23.936,6513.5903829756,8.2021,0,0.315022319792,0,0,-0.671082,292.8, -0.2, 0.1,0,0,1024,1024,1024,1024,292,-90,97,3.978,3.972,3.994,3.994,3.964,3.984,16.462,68,14,Waypoint,
35.7013528,-118.5808973,6514.5746349756,9.186352,0,0.184814966544,6800,2018-07-05 17:08:42,12,0,23.936,6514.5746349756,9.186352,0,0.315022319792,0,0,-0.671082,292.8, -0.1, -0.1,0,0,1024,1024,1024,1024,292,-90,97,3.978,3.972,3.994,3.994,3.964,3.984,16.462,68,14,Waypoint,
35.7013528,-118.5808972,6515.8869709756,10.498688,0,0.191807420836,6900,2018-07-05 17:08:42,11,0,23.936,6515.8869709756,10.498688,0,0.315022319792,0,0,-0.671082,292.9, 0, -0.4,0,0,1024,1024,1024,1024,292,-90,97,3.978,3.972,3.994,3.994,3.964,3.984,16.462,68,14,Waypoint,
35.7013528,-118.5808973,6518.1835589756,12.795276,0,0.184814966544,7100,2018-07-05 17:08:42,10,0,23.936,6518.1835589756,12.795276,0,0.315022319792,0,0,-0.671082,292.9, 0, 0,0,0,1024,1024,1024,1024,292,-89.9,97,3.978,3.972,3.994,3.994,3.964,3.984,16.462,68,14,Waypoint,
35.7013529,-118.5808973,6519.1678109756,13.779528,0,0.148916999516,7200,2018-07-05 17:08:42,10,0,23.936,6519.1678109756,13.779528,0,0.315022319792,0,0,-0.671082,292.9, 0.2, 0.3,0,0,1024,1024,1024,1024,292,-89.9,97,3.978,3.972,3.994,3.994,3.964,3.984,16.462,68,14,Waypoint,
35.701353,-118.5808975,6520.4801469756,15.091864,0,0.1133940325,7300,2018-07-05 17:08:42,9,0,23.936,6520.4801469756,15.091864,0,0.315022319792,0,0,-0.671082,292.9, 0.6, 0.3,0,0,1024,1024,1024,1024,292,-89.9,97,3.978,3.972,3.994,3.994,3.964,3.984,16.462,68,14,Waypoint,
35.701353,-118.5808977,6521.4643989756,16.076116,0,0.140999676428,7400,2018-07-05 17:08:42,9,0,23.936,6521.4643989756,16.076116,0,0.315022319792,0,0,-0.671082,292.9, 1, 0.4,0,0,1024,1024,1024,1024,292,-89.9,97,3.978,3.972,3.994,3.994,3.964,3.984,16.462,68,14,Waypoint,
35.7013529,-118.5808978,6522.7767349756,17.388452,0,0.187999349848,7500,2018-07-05 17:08:42,10,0,23.936,6522.7767349756,17.388452,0,0.315022319792,0,0,-0.671082,293, 1.4, 0.6,0,0,1024,1024,1024,1024,292,-89.9,97,3.978,3.972,3.994,3.994,3.964,3.984,16.462,68,14,Waypoint,
35.7013528,-118.5808979,6523.7609869756,18.372704,0,0.234999351352,7700,2018-07-05 17:08:43,10,0,23.936,6523.7609869756,18.372704,0,0.315022319792,0,0,-0.671082,293, 1.2, 0.6,0,0,1024,1024,1024,1024,292,-89.9,97,3.978,3.972,3.994,3.994,3.964,3.984,16.462,68,14,Waypoint,
35.7013528,-118.5808979,6524.7452389756,19.356956,0,0.234999351352,7800,2018-07-05 17:08:43,11,0,23.936,6524.7452389756,19.356956,0,0.315022319792,0,0,-0.671082,293.1, 0.7, 0.9,0,0,1024,1024,1024,1024,292,-90,97,3.978,3.972,3.994,3.994,3.964,3.984,16.462,68,14,Waypoint,
35.7013528,-118.5808977,6527.0418269756,21.653544,0,0.202926843764,7900,2018-07-05 17:08:43,11,0,23.936,6527.0418269756,21.653544,0,0.315022319792,0,0,-0.671082,293.1, 0, 0.7,0,0,1024,1024,1024,1024,292,-90,97,3.978,3.972,3.994,3.994,3.964,3.984,16.462,68,14,Waypoint,
35.7013528,-118.5808977,6528.3541629756,22.96588,0,0.202926843764,8000,2018-07-05 17:08:43,11,0,23.423,6528.3541629756,22.96588,0,0.315022319792,0,0,-0.671082,293.1, -0.1, 0.5,0,0,1024,1024,1024,1024,292,-90,97,3.828,3.861,3.877,3.923,3.878,3.876,17.17,68,14,Waypoint,
35.7013528,-118.5808976,6529.3384149756,23.950132,0,0.191807420836,8100,2018-07-05 17:08:43,11,0,23.423,6529.3384149756,23.950132,0,0.315022319792,0,0,-0.671082,293.2, -0.1, 0.3,0,0,1024,1024,1024,1024,292,-90,97,3.828,3.861,3.877,3.923,3.878,3.876,17.17,68,14,Waypoint,
35.7013528,-118.5808975,6530.3226669756,24.934384,0,0.184814966544,8200,2018-07-05 17:08:43,11,0,23.423,6530.3226669756,24.934384,0,0.315022319792,0,0,-0.671082,293.2, 0, 0.3,0,0,1024,1024,1024,1024,292,-90,97,3.828,3.861,3.877,3.923,3.878,3.876,17.17,68,14,Waypoint,
35.7013528,-118.5808975,6531.3069189756,25.918636,0,0.184814966544,8300,2018-07-05 17:08:43,10,0,23.423,6531.3069189756,25.918636,0,0.315022319792,0,0,-0.671082,293.2, 0, 0.4,0,0,1024,1024,1024,1024,292,-90,97,3.828,3.861,3.877,3.923,3.878,3.876,17.17,68,14,Waypoint,
35.7013527,-118.5808976,6532.6192549756,27.230972,0,0.226788065,8400,2018-07-05 17:08:43,10,0,23.423,6532.6192549756,27.230972,0,0.315022319792,0,0,-0.671082,293.2, 0, 0.4,0,0,1024,1024,1024,1024,292,-90,97,3.828,3.861,3.877,3.923,3.878,3.876,17.17,68,14,Waypoint,
35.7013527,-118.5808976,6533.6035069756,28.215224,0,0.226788065,8500,2018-07-05 17:08:43,12,0,23.423,6533.6035069756,28.215224,0,0.315022319792,0,0,-0.671082,293.2, 0, 0.5,0,0,1024,1024,1024,1024,292,-90,97,3.828,3.861,3.877,3.923,3.878,3.876,17.17,68,14,Waypoint,
35.7013528,-118.5808976,6534.5877589756,29.199476,0,0.191807420836,8600,2018-07-05 17:08:44,12,0,23.423,6534.5877589756,29.199476,0,0.315022319792,0,0,-0.671082,293.2, 0, 0.4,0,0,1024,1024,1024,1024,292,-90,97,3.828,3.861,3.877,3.923,3.878,3.876,17.17,68,14,Waypoint,
35.7013528,-118.5808976,6535.5720109756,30.183728,0,0.191807420836,8700,2018-07-05 17:08:44,14,0,23.423,6535.5720109756,30.183728,0,0.315022319792,0,0,-0.671082,293.1, 0, 0.5,0,0,1024,1024,1024,1024,292,-90,97,3.828,3.861,3.877,3.923,3.878,3.876,17.17,68,14,Waypoint,
35.7013527,-118.5808976,6536.8843469756,31.496064,0,0.226788065,8800,2018-07-05 17:08:44,14,0,23.423,6536.8843469756,31.496064,0,0.315022319792,0,0,-0.671082,293, 0, 0.7,0,0,1024,1024,1024,1024,292,-89.9,97,3.828,3.861,3.877,3.923,3.878,3.876,17.17,68,14,Waypoint,
35.7013527,-118.5808976,6537.8685989756,32.480316,0,0.226788065,8900,2018-07-05 17:08:44,14,0,23.423,6537.8685989756,32.480316,0,0.315022319792,0,0,-0.671082,292.9, 0, 0.7,0,0,1024,1024,1024,1024,292,-89.9,97,3.828,3.861,3.877,3.923,3.878,3.876,17.17,68,14,Waypoint,
35.7013526,-118.5808976,6538.8528509756,33.464568,0,0.262178814164,9000,2018-07-05 17:08:44,14,0,22.748,6538.8528509756,33.464568,0,0.315022319792,0,0,-0.671082,293, 0, 0.5,0,0,1024,1024,1024,1024,292,-90,96,3.823,3.836,3.831,3.839,3.791,3.845,20.957,68,14,Waypoint,
35.7013526,-118.5808975,6539.8371029756,34.44882,0,0.257107291692,9100,2018-07-05 17:08:44,14,0,22.748,6539.8371029756,34.44882,0,0.315022319792,0,0,-0.671082,293.1, 0, 0.2,0,0,1024,1024,1024,1024,292,-90,96,3.823,3.836,3.831,3.839,3.791,3.845,20.957,68,14,Waypoint,
35.7013526,-118.5808976,6540.8213549756,35.433072,0,0.262178814164,9200,2018-07-05 17:08:44,14,0,22.748,6540.8213549756,35.433072,0,0.315022319792,0,0,-0.671082,293.2, -0.2, 0.2,0,0,1024,1024,1024,1024,292,-90,96,3.823,3.836,3.831,3.839,3.791,3.845,20.957,68,14,Waypoint,
35.7013526,-118.5808976,6541.8056069756,36.417324,0,0.262178814164,9300,2018-07-05 17:08:44,14,0,22.748,6541.8056069756,36.417324,0,0.315022319792,0,0,-0.671082,293.3, -0.2, 0.2,0,0,1024,1024,1024,1024,292,-90,96,3.823,3.836,3.831,3.839,3.791,3.845,20.957,68,14,Waypoint,
35.7013525,-118.5808976,6542.7898589756,37.401576,0,0.297833999032,9400,2018-07-05 17:08:44,14,0,22.748,6542.7898589756,37.401576,0,0.315022319792,0,0,-0.671082,293.3, -0.2, 0.3,0,0,1024,1024,1024,1024,292,-89.9,96,3.823,3.836,3.831,3.839,3.791,3.845,20.957,68,14,Waypoint,
35.7013525,-118.5808976,6543.7741109756,38.385828,0,0.297833999032,9500,2018-07-05 17:08:44,14,0,22.748,6543.7741109756,38.385828,0,0.315022319792,0,0,-0.671082,293.3, -0.1, 0.5,0,0,1024,1024,1024,1024,292,-90,96,3.823,3.836,3.831,3.839,3.791,3.845,20.957,68,14,Waypoint,
35.7013524,-118.5808976,6546.0706989756,40.682416,0,0.33366798968,9700,2018-07-05 17:08:45,15,0,22.748,6546.0706989756,40.682416,0,0.33366798968,0,0,-0.671082,293.2, 0.1, 0.9,0,0,1024,1024,1024,1024,292,-89.9,96,3.823,3.836,3.831,3.839,3.791,3.845,20.957,68,14,Waypoint,
35.7013524,-118.5808976,6547.0549509756,41.666668,0,0.33366798968,9900,2018-07-05 17:08:45,15,0,22.748,6547.0549509756,41.666668,0,0.33366798968,0,0,-0.671082,293.1, 0.4, 0.9,0,0,1024,1024,1024,1024,292,-89.9,96,3.823,3.836,3.831,3.839,3.791,3.845,20.957,68,14,Waypoint,
35.7013524,-118.5808975,6549.0234549756,43.635172,0,0.32969817328,10000,2018-07-05 17:08:45,13,0,23.077,6549.0234549756,43.635172,0,0.33366798968,0,0,-0.671082,292.8, 0.3, 0.6,0,0,1024,1024,1024,1024,292,-89.9,96,3.826,3.839,3.862,3.887,3.833,3.854,20.682,68,14,Waypoint,
35.7013524,-118.5808975,6550.0077069756,44.619424,0,0.32969817328,10100,2018-07-05 17:08:45,14,0,23.077,6550.0077069756,44.619424,0,0.33366798968,0,0,-0.671082,292.7, 0.1, 0.5,0,0,1024,1024,1024,1024,292,-89.9,96,3.826,3.839,3.862,3.887,3.833,3.854,20.682,68,14,Waypoint,
35.7013525,-118.5808974,6550.9919589756,45.603676,0,0.291879602516,10200,2018-07-05 17:08:45,14,0,23.077,6550.9919589756,45.603676,0,0.33366798968,0,0,-0.671082,292.6, 0, 0.1,0,0,1024,1024,1024,1024,292,-90,96,3.826,3.839,3.862,3.887,3.833,3.854,20.682,68,14,Waypoint,
35.7013526,-118.5808973,6551.9762109756,46.587928,0,0.257107291692,10300,2018-07-05 17:08:45,15,0,23.077,6551.9762109756,46.587928,0,0.33366798968,0,0,-0.671082,292.7, -0.2, -0.3,0,0,1024,1024,1024,1024,292,-90,96,3.826,3.839,3.862,3.887,3.833,3.854,20.682,68,14,Waypoint,
35.7013527,-118.5808971,6552.9604629756,47.57218,0,0.236266739844,10400,2018-07-05 17:08:45,15,0,23.077,6552.9604629756,47.57218,0,0.33366798968,0,0,-0.671082,292.7, -0.2, -0.9,0,0,1024,1024,1024,1024,292,-90,96,3.826,3.839,3.862,3.887,3.833,3.854,20.682,68,14,Waypoint,
35.7013529,-118.580897,6554.2727989756,48.884516,0,0.187999349848,10500,2018-07-05 17:08:45,15,0,23.077,6554.2727989756,48.884516,0,0.33366798968,0,0,-0.671082,292.8, -0.1, -1.3,0,0,1024,1024,1024,1024,292,-89.9,96,3.826,3.839,3.862,3.887,3.833,3.854,20.682,68,14,Waypoint,
35.7013529,-118.580897,6555.2570509756,49.868768,0,0.187999349848,10600,2018-07-05 17:08:46,15,0,23.077,6555.2570509756,49.868768,0,0.33366798968,0,0,-0.671082,292.9, -0.1, -1.5,0,0,1024,1024,1024,1024,292,-89.9,96,3.826,3.839,3.862,3.887,3.833,3.854,20.682,68,14,Waypoint,
35.7013529,-118.5808969,6556.2413029756,50.85302,0,0.20795276256,10700,2018-07-05 17:08:46,15,0,23.077,6556.2413029756,50.85302,0,0.33366798968,0,0,-0.671082,293, -0.1, -1.2,0,0,1024,1024,1024,1024,292,-89.9,96,3.826,3.839,3.862,3.887,3.833,3.854,20.682,68,14,Waypoint,
35.7013528,-118.5808969,6557.2255549756,51.837272,0,0.234999351352,10800,2018-07-05 17:08:46,15,0,23.077,6557.2255549756,51.837272,0,0.33366798968,0,0,-0.671082,293, -0.1, -0.8,0,0,1024,1024,1024,1024,292,-90,96,3.826,3.839,3.862,3.887,3.833,3.854,20.682,68,14,Waypoint,
35.7013528,-118.5808969,6558.2098069756,52.821524,0,0.234999351352,10900,2018-07-05 17:08:46,16,0,23.077,6558.2098069756,52.821524,0,0.33366798968,0,0,-0.671082,293, -0.1, -0.5,0,0,1024,1024,1024,1024,292,-90,96,3.826,3.839,3.862,3.887,3.833,3.854,20.682,68,14,Waypoint,
35.7013528,-118.5808969,6559.1940589756,53.805776,0,0.234999351352,11000,2018-07-05 17:08:46,16,0,23.109,6559.1940589756,53.805776,0,0.33366798968,0,0,-0.671082,293, -0.1, -0.2,0,0,1024,1024,1024,1024,292,-89.9,96,3.83,3.845,3.866,3.89,3.833,3.863,20.145,68,14,Waypoint,
35.7013528,-118.5808969,6560.1783109756,54.790028,0,0.234999351352,11100,2018-07-05 17:08:46,15,0,23.109,6560.1783109756,54.790028,0,0.33366798968,0,0,-0.671082,292.9, 0, -0.1,0,0,1024,1024,1024,1024,292,-89.9,96,3.83,3.845,3.866,3.89,3.833,3.863,20.145,68,14,Waypoint,
35.7013528,-118.5808969,6561.1625629756,55.77428,0,0.234999351352,11200,2018-07-05 17:08:46,15,0,23.109,6561.1625629756,55.77428,0,0.33366798968,0,0,-0.671082,292.9, 0.2, 0,0,0,1024,1024,1024,1024,292,-89.9,96,3.83,3.845,3.866,3.89,3.833,3.863,20.145,68,14,Waypoint,
35.7013528,-118.5808969,6562.1468149756,56.758532,0,0.234999351352,11300,2018-07-05 17:08:46,15,0,23.109,6562.1468149756,56.758532,0,0.33366798968,0,0,-0.671082,292.9, 0.2, -0.2,0,0,1024,1024,1024,1024,292,-89.9,96,3.83,3.845,3.866,3.89,3.833,3.863,20.145,68,14,Waypoint,
35.7013529,-118.5808969,6564.1153189756,58.727036,0,0.20795276256,11500,2018-07-05 17:08:46,16,0,23.109,6564.1153189756,58.727036,0,0.33366798968,0,0,-0.671082,292.9, 0.4, -0.1,0,0,1024,1024,1024,1024,292,-89.9,96,3.83,3.845,3.866,3.89,3.833,3.863,20.145,68,14,Waypoint,
35.7013529,-118.5808969,6565.0995709756,59.711288,0,0.20795276256,11600,2018-07-05 17:08:47,16,0,23.109,6565.0995709756,59.711288,0,0.33366798968,0,0,-0.671082,292.9, 0.5, -0.2,0,0,1024,1024,1024,1024,292,-89.9,96,3.83,3.845,3.866,3.89,3.833,3.863,20.145,68,14,Waypoint,
35.7013529,-118.5808968,6566.0838229756,60.69554,0,0.230001319696,11700,2018-07-05 17:08:47,16,0,23.109,6566.0838229756,60.69554,0,0.33366798968,0,0,-0.671082,293, 0.4, -0.4,0,0,1024,1024,1024,1024,292,-89.9,96,3.83,3.845,3.866,3.89,3.833,3.863,20.145,68,14,Waypoint,
35.701353,-118.5808968,6568.0523269756,62.664044,0,0.208764114292,11900,2018-07-05 17:08:47,15,0,23.109,6568.0523269756,62.664044,0,0.33366798968,0,0,-0.671082,293.2, 0, -0.9,0,0,1024,1024,1024,1024,292,-90,96,3.83,3.845,3.866,3.89,3.833,3.863,20.145,68,14,Waypoint,
35.701353,-118.5808968,6569.0365789756,63.648296,0,0.208764114292,12000,2018-07-05 17:08:47,15,0,23.148,6569.0365789756,63.648296,0,0.33366798968,0,0,-0.671082,293.3, 0, -1,0,0,1024,1024,1024,1024,292,-90,96,3.834,3.847,3.853,3.881,3.821,3.864,19.735,68,14,Waypoint,
35.701353,-118.5808967,6570.0208309756,64.632548,0,0.234508865772,12100,2018-07-05 17:08:47,15,0,23.148,6570.0208309756,64.632548,0,0.33366798968,0,0,-0.671082,293.3, 0.1, -0.8,0,0,1024,1024,1024,1024,292,-90,96,3.834,3.847,3.853,3.881,3.821,3.864,19.735,68,14,Waypoint,
35.701353,-118.5808967,6571.0050829756,65.6168,0,0.234508865772,12200,2018-07-05 17:08:47,15,0,23.148,6571.0050829756,65.6168,0,0.33366798968,0,0,-0.671082,293.3, 0, -0.7,0,0,1024,1024,1024,1024,292,-90,96,3.834,3.847,3.853,3.881,3.821,3.864,19.735,68,14,Waypoint,
35.7013529,-118.5808967,6572.9735869756,67.585304,0,0.25359908948,12310,2018-07-05 17:08:47,16,0,23.148,6572.9735869756,67.585304,0,0.33366798968,0,0,-0.671082,293.2, -0.4, -0.2,0,0,1024,1024,1024,1024,292,-90,96,3.834,3.847,3.853,3.881,3.821,3.864,19.735,68,14,Waypoint,
35.7013529,-118.5808967,6572.9735869756,67.585304,0,0.25359908948,12400,2018-07-05 17:08:47,16,0,23.148,6572.9735869756,67.585304,0,0.33366798968,0,0,-0.671082,293.2, -0.4, -0.2,0,0,1024,1024,1024,1024,292,-90,96,3.834,3.847,3.853,3.881,3.821,3.864,19.735,68,14,Waypoint,
35.7013529,-118.5808967,6573.9578389756,68.569556,0,0.25359908948,12500,2018-07-05 17:08:47,16,0,23.148,6573.9578389756,68.569556,0,0.33366798968,0,0,-0.671082,293.1, 0, -0.1,0,0,1024,1024,1024,1024,292,-89.9,96,3.834,3.847,3.853,3.881,3.821,3.864,19.735,68,14,Waypoint,
35.7013528,-118.5808967,6574.9420909756,69.553808,0,0.276211623012,12600,2018-07-05 17:08:48,16,0,23.148,6574.9420909756,69.553808,0,0.33366798968,0,0,-0.671082,293, 0, -0.1,0,0,1024,1024,1024,1024,292,-89.9,96,3.834,3.847,3.853,3.881,3.821,3.864,19.735,68,14,Waypoint,
35.7013528,-118.5808966,6575.9263429756,70.53806,0,0.299099090936,12700,2018-07-05 17:08:48,16,0,23.148,6575.9263429756,70.53806,0,0.33366798968,0,0,-0.671082,292.8, -0.4, -0.3,0,0,1024,1024,1024,1024,292,-90,96,3.834,3.847,3.853,3.881,3.821,3.864,19.735,68,14,Waypoint,
35.7013528,-118.5808966,6576.9105949756,71.522312,0,0.299099090936,12800,2018-07-05 17:08:48,16,0,23.148,6576.9105949756,71.522312,0,0.33366798968,0,0,-0.671082,292.8, -0.8, -0.1,0,0,1024,1024,1024,1024,292,-90,96,3.834,3.847,3.853,3.881,3.821,3.864,19.735,68,14,Waypoint,
35.7013527,-118.5808965,6578.5510149756,73.162732,0,0.34500329188,13000,2018-07-05 17:08:48,16,0,23.098,6578.5510149756,73.162732,0,0.34500329188,0,0,-0.671082,293.2, -1, 0.4,0,0,1024,1024,1024,1024,292,-90,96,3.834,3.847,3.853,3.881,3.821,3.864,19.58,68,14,Waypoint,
35.7013526,-118.5808965,6579.5352669756,74.146984,0,0.36922901444,13100,2018-07-05 17:08:48,16,0,23.098,6579.5352669756,74.146984,0,0.36922901444,0,0,-0.671082,293.7, -0.9, 0.4,0,0,1024,1024,1024,1024,292,-90,96,3.834,3.847,3.853,3.881,3.821,3.864,19.58,68,14,Waypoint,
35.7013526,-118.5808964,6580.5195189756,75.131236,0,0.39116471068,13200,2018-07-05 17:08:48,16,0,23.098,6580.5195189756,75.131236,0,0.39116471068,0,0,-0.671082,294.2, -1, 0.3,0,0,1024,1024,1024,1024,292,-90,96,3.834,3.847,3.853,3.881,3.821,3.864,19.58,68,14,Waypoint,
35.7013526,-118.5808964,6581.5037709756,76.115488,0,0.39116471068,13300,2018-07-05 17:08:48,16,0,23.098,6581.5037709756,76.115488,0,0.39116471068,0,0,-0.671082,294.4, -1.1, 0.1,0,0,1024,1024,1024,1024,292,-90,96,3.834,3.847,3.853,3.881,3.821,3.864,19.58,68,14,Waypoint,
35.7013525,-118.5808964,6582.8161069756,77.427824,0,0.41590552512,13400,2018-07-05 17:08:48,16,0,23.098,6582.8161069756,77.427824,0,0.41590552512,0,0,-0.671082,294.5, -1.1, 0.1,0,0,1024,1024,1024,1024,292,-90,96,3.834,3.847,3.853,3.881,3.821,3.864,19.58,68,14,Waypoint,
35.7013525,-118.5808964,6583.8003589756,78.412076,0,0.41590552512,13500,2018-07-05 17:08:48,16,0,23.098,6583.8003589756,78.412076,0,0.41590552512,0,0,-0.671082,294.3, -1.2, 0.1,0,0,1024,1024,1024,1024,292,-90,96,3.834,3.847,3.853,3.881,3.821,3.864,19.58,68,14,Waypoint,
35.7013525,-118.5808963,6584.7846109756,79.396328,0,0.43750657568,13600,2018-07-05 17:08:49,16,0,23.098,6584.7846109756,79.396328,0,0.43750657568,0,0,-0.671082,293.9, -1.1, 0,0,0,1024,1024,1024,1024,292,-90,96,3.834,3.847,3.853,3.881,3.821,3.864,19.58,68,14,Waypoint,
35.7013525,-118.5808963,6585.7688629756,80.38058,0,0.43750657568,13700,2018-07-05 17:08:49,17,0,23.098,6585.7688629756,80.38058,0,0.43750657568,0,0,-0.671082,293.5, -1, -0.2,0,0,1024,1024,1024,1024,292,-90,96,3.834,3.847,3.853,3.881,3.821,3.864,19.58,68,14,Waypoint,
35.7013525,-118.5808962,6586.4250309756,81.036748,0,0.46000329556,13800,2018-07-05 17:08:49,17,0,23.098,6586.4250309756,81.036748,0,0.46000329556,0,0,-0.671082,293, -0.9, -0.3,0,0,1024,1024,1024,1024,292,-90,96,3.834,3.847,3.853,3.881,3.821,3.864,19.58,68,14,Waypoint,
35.7013526,-118.5808962,6587.4092829756,82.021,0,0.4377624812,13900,2018-07-05 17:08:49,17,0,23.098,6587.4092829756,82.021,0,0.46000329556,0,0,-0.671082,292.6, -1.2, -0.4,0,0,1024,1024,1024,1024,292,-90,96,3.834,3.847,3.853,3.881,3.821,3.864,19.58,68,14,Waypoint,
35.7013525,-118.5808961,6588.3935349756,83.005252,0,0.483267732,14000,2018-07-05 17:08:49,17,0,23.051,6588.3935349756,83.005252,0,0.483267732,0,0,-0.671082,292.1, -1.4, -0.2,0,0,1024,1024,1024,1024,292,-90,96,3.83,3.842,3.856,3.885,3.826,3.859,19.989,68,14,Waypoint,
35.7013525,-118.5808961,6589.3777869756,83.989504,0,0.483267732,14100,2018-07-05 17:08:49,17,0,23.051,6589.3777869756,83.989504,0,0.483267732,0,0,-0.671082,291.7, -1.2, -0.1,0,0,1024,1024,1024,1024,292,-90,96,3.83,3.842,3.856,3.885,3.826,3.859,19.989,68,14,Waypoint,
35.7013525,-118.5808961,6590.3620389756,84.973756,0,0.483267732,14200,2018-07-05 17:08:49,17,0,23.051,6590.3620389756,84.973756,0,0.483267732,0,0,-0.671082,291.5, -1, -0.1,0,0,1024,1024,1024,1024,292,-89.9,96,3.83,3.842,3.856,3.885,3.826,3.859,19.989,68,14,Waypoint,
35.7013524,-118.5808962,6592.3305429756,86.94226,0,0.48397639344,14500,2018-07-05 17:08:49,17,0,23.051,6592.3305429756,86.94226,0,0.48397639344,0,0,-0.671082,291.7, -0.8, 0.1,0,0,1024,1024,1024,1024,292,-90,96,3.83,3.842,3.856,3.885,3.826,3.859,19.989,68,14,Waypoint,
35.7013523,-118.5808962,6594.2990469756,88.910764,0,0.50943571184,14600,2018-07-05 17:08:50,17,0,23.051,6594.2990469756,88.910764,0,0.50943571184,0,0,-0.671082,292.3, -1.3, 0.8,0,0,1024,1024,1024,1024,292,-90,96,3.83,3.842,3.856,3.885,3.826,3.859,19.989,68,14,Waypoint,
35.7013523,-118.5808962,6595.2832989756,89.895016,0,0.50943571184,14700,2018-07-05 17:08:50,17,0,23.051,6595.2832989756,89.895016,0,0.50943571184,0,0,-0.671082,292.7, -1.3, 0.7,0,0,1024,1024,1024,1024,292,-90,96,3.83,3.842,3.856,3.885,3.826,3.859,19.989,68,14,Waypoint,
35.7013523,-118.5808963,6597.2518029756,91.86352,0,0.48921589492,14900,2018-07-05 17:08:50,17,0,23.051,6597.2518029756,91.86352,0,0.50943571184,0,0,-0.671082,293.2, -0.6, 0.4,0,0,1024,1024,1024,1024,292,-89.9,96,3.83,3.842,3.856,3.885,3.826,3.859,19.989,68,14,Waypoint,
35.7013523,-118.5808963,6598.2360549756,92.847772,0,0.48921589492,15000,2018-07-05 17:08:50,17,0,23.051,6598.2360549756,92.847772,0,0.50943571184,0,0,-0.671082,293.4, -0.4, 0.3,0,0,1024,1024,1024,1024,292,-89.9,96,3.82,3.835,3.846,3.872,3.812,3.852,19.989,68,14,Waypoint,
35.7013523,-118.5808963,6599.2203069756,93.832024,0,0.48921589492,15100,2018-07-05 17:08:50,17,0,23.051,6599.2203069756,93.832024,0,0.50943571184,0,0,-0.671082,293.5, -0.3, 0.2,0,0,1024,1024,1024,1024,292,-89.9,96,3.82,3.835,3.846,3.872,3.812,3.852,19.989,68,14,Waypoint,
35.7013524,-118.5808963,6600.2045589756,94.816276,0,0.4626476526,15200,2018-07-05 17:08:50,17,0,23.051,6600.2045589756,94.816276,0,0.50943571184,0,0,-0.671082,293.4, -0.3, 0.2,0,0,1024,1024,1024,1024,292,-89.9,96,3.82,3.835,3.846,3.872,3.812,3.852,19.989,68,14,Waypoint,
35.7013524,-118.5808963,6601.5168949756,96.128612,0,0.4626476526,15300,2018-07-05 17:08:50,17,0,23.051,6601.5168949756,96.128612,0,0.50943571184,0,0,-0.671082,293.3, -0.5, 0.1,0,0,1024,1024,1024,1024,292,-89.9,96,3.82,3.835,3.846,3.872,3.812,3.852,19.989,68,14,Waypoint,
35.7013524,-118.5808963,6602.1730629756,96.78478,0,0.4626476526,15400,2018-07-05 17:08:50,17,0,23.051,6602.1730629756,96.78478,0,0.50943571184,0,0,-0.671082,293.2, -0.7, 0,0,0,1024,1024,1024,1024,292,-90,96,3.82,3.835,3.846,3.872,3.812,3.852,19.989,68,14,Waypoint,
35.7013523,-118.5808963,6603.1573149756,97.769032,0,0.48921589492,15500,2018-07-05 17:08:50,17,0,23.051,6603.1573149756,97.769032,0,0.50943571184,0,0,-0.671082,293.1, -0.7, 0,0,0,1024,1024,1024,1024,292,-90,96,3.82,3.835,3.846,3.872,3.812,3.852,19.989,68,14,Waypoint,
35.7013523,-118.5808964,6604.1415669756,98.753284,0,0.47000001504,15600,2018-07-05 17:08:51,17,0,23.051,6604.1415669756,98.753284,0,0.50943571184,0,0,-0.671082,293.1, -0.6, 0.2,0,0,1024,1024,1024,1024,292,-89.9,96,3.82,3.835,3.846,3.872,3.812,3.852,19.989,68,14,Waypoint,
35.7013523,-118.5808964,6605.1258189756,99.737536,0,0.47000001504,15700,2018-07-05 17:08:51,17,0,23.051,6605.1258189756,99.737536,0,0.50943571184,0,0,-0.671082,293.1, -0.6, 0.6,0,0,1024,1024,1024,1024,292,-90,96,3.82,3.835,3.846,3.872,3.812,3.852,19.989,68,14,Waypoint,
35.7013523,-118.5808964,6606.1100709756,100.721788,0,0.47000001504,15800,2018-07-05 17:08:51,17,0,23.051,6606.1100709756,100.721788,0,0.50943571184,0,0,-0.671082,293, -0.7, 0.8,0,0,1024,1024,1024,1024,292,-90,96,3.82,3.835,3.846,3.872,3.812,3.852,19.989,68,14,Waypoint,
35.7013523,-118.5808965,6607.0943229756,101.70604,0,0.45190618244,15900,2018-07-05 17:08:51,17,0,23.051,6607.0943229756,101.70604,0,0.50943571184,0,0,-0.671082,293, -0.7, 0.7,0,0,1024,1024,1024,1024,292,-90,96,3.82,3.835,3.846,3.872,3.812,3.852,19.989,68,14,Waypoint,
35.7013522,-118.5808965,6608.0785749756,102.690292,0,0.48184384744,16000,2018-07-05 17:08:51,17,0,22.964,6608.0785749756,102.690292,0,0.50943571184,0,0,-0.671082,293, -0.6, 0.6,0,0,1024,1024,1024,1024,292,-89.9,96,3.8,3.819,3.828,3.866,3.8,3.825,20.083,68,14,Waypoint,
35.7013522,-118.5808966,6609.0628269756,103.674544,0,0.46610237712,16100,2018-07-05 17:08:51,17,0,22.964,6609.0628269756,103.674544,0,0.50943571184,0,0,-0.671082,292.9, -0.5, 0.5,0,0,1024,1024,1024,1024,292,-89.9,96,3.8,3.819,3.828,3.866,3.8,3.825,20.083,68,14,Waypoint,
35.7013523,-118.5808966,6610.0470789756,104.658796,0,0.43508203492,16200,2018-07-05 17:08:51,17,0,22.964,6610.0470789756,104.658796,0,0.50943571184,0,0,-0.671082,292.9, -0.4, 0.4,0,0,1024,1024,1024,1024,292,-89.9,96,3.8,3.819,3.828,3.866,3.8,3.825,20.083,68,14,Waypoint,
35.7013523,-118.5808967,6611.3594149756,105.971132,0,0.41967849112,16300,2018-07-05 17:08:51,17,0,22.964,6611.3594149756,105.971132,0,0.50943571184,0,0,-0.671082,292.8, -0.4, 0.4,0,0,1024,1024,1024,1024,292,-90,96,3.8,3.819,3.828,3.866,3.8,3.825,20.083,68,14,Waypoint,
35.7013523,-118.5808967,6612.3436669756,106.955384,0,0.41967849112,16400,2018-07-05 17:08:51,17,0,22.964,6612.3436669756,106.955384,0,0.50943571184,0,0,-0.671082,292.8, -0.5, 0.4,0,0,1024,1024,1024,1024,292,-89.9,96,3.8,3.819,3.828,3.866,3.8,3.825,20.083,68,14,Waypoint,
35.7013523,-118.5808967,6613.3279189756,107.939636,0,0.41967849112,16500,2018-07-05 17:08:51,17,0,22.964,6613.3279189756,107.939636,0,0.50943571184,0,0,-0.671082,292.8, -0.4, 0.5,0,0,1024,1024,1024,1024,292,-89.9,96,3.8,3.819,3.828,3.866,3.8,3.825,20.083,68,14,Waypoint,
35.7013523,-118.5808968,6614.3121709756,108.923888,0,0.40585303136,16600,2018-07-05 17:08:52,17,0,22.964,6614.3121709756,108.923888,0,0.50943571184,0,0,-0.671082,292.8, -0.4, 0.5,0,0,1024,1024,1024,1024,292,-89.9,96,3.8,3.819,3.828,3.866,3.8,3.825,20.083,68,14,Waypoint,
35.7013523,-118.5808968,6615.2964229756,109.90814,0,0.40585303136,16700,2018-07-05 17:08:52,17,0,22.964,6615.2964229756,109.90814,0,0.50943571184,0,0,-0.671082,292.9, -0.4, 0.5,0,0,1024,1024,1024,1024,292,-89.9,96,3.8,3.819,3.828,3.866,3.8,3.825,20.083,68,14,Waypoint,
35.7013523,-118.5808968,6616.2806749756,110.892392,0,0.40585303136,16900,2018-07-05 17:08:52,17,0,22.964,6616.2806749756,110.892392,0,0.50943571184,0,0,-0.671082,293, -0.3, 0.5,0,0,1024,1024,1024,1024,292,-89.9,96,3.8,3.819,3.828,3.866,3.8,3.825,20.083,68,14,Waypoint,
35.7013523,-118.5808969,6618.9053469756,113.517064,0,0.39377625932,17000,2018-07-05 17:08:52,17,0,22.854,6618.9053469756,113.517064,0,0.50943571184,0,0,-0.671082,293, -0.2, 0.6,0,0,1024,1024,1024,1024,292,-89.9,96,3.786,3.806,3.811,3.839,3.78,3.829,20.983,69.8,14,Waypoint,
35.7013523,-118.5808969,6620.8738509756,115.485568,0,0.39377625932,17200,2018-07-05 17:08:52,17,0,22.854,6620.8738509756,115.485568,0,0.50943571184,0,0,-0.671082,292.9, -0.3, 0.3,0,0,1024,1024,1024,1024,292,-89.9,96,3.786,3.806,3.811,3.839,3.78,3.829,20.983,69.8,14,Waypoint,
35.7013523,-118.5808969,6620.8738509756,115.485568,0,0.39377625932,17300,2018-07-05 17:08:52,17,0,22.854,6620.8738509756,115.485568,0,0.50943571184,0,0,-0.671082,292.9, -0.3, 0.3,0,0,1024,1024,1024,1024,292,-89.9,96,3.786,3.806,3.811,3.839,3.78,3.829,20.983,69.8,14,Waypoint,
35.7013524,-118.5808968,6621.8581029756,116.46982,0,0.37339568124,17400,2018-07-05 17:08:52,17,0,22.854,6621.8581029756,116.46982,0,0.50943571184,0,0,-0.671082,292.9, -0.5, 0.2,0,0,1024,1024,1024,1024,292,-89.9,96,3.786,3.806,3.811,3.839,3.78,3.829,20.983,69.8,14,Waypoint,
35.7013524,-118.5808968,6622.8423549756,117.454072,0,0.37339568124,17500,2018-07-05 17:08:52,17,0,22.854,6622.8423549756,117.454072,0,0.50943571184,0,0,-0.671082,292.9, -0.5, 0.2,0,0,1024,1024,1024,1024,292,-90,96,3.786,3.806,3.811,3.839,3.78,3.829,20.983,69.8,14,Waypoint,
35.7013524,-118.5808968,6623.8266069756,118.438324,0,0.37339568124,17600,2018-07-05 17:08:53,17,0,22.854,6623.8266069756,118.438324,0,0.50943571184,0,0,-0.671082,293, -0.5, 0.2,0,0,1024,1024,1024,1024,292,-89.9,96,3.786,3.806,3.811,3.839,3.78,3.829,20.983,69.8,14,Waypoint,
35.7013524,-118.5808968,6624.8108589756,119.422576,0,0.37339568124,17700,2018-07-05 17:08:53,17,0,22.854,6624.8108589756,119.422576,0,0.50943571184,0,0,-0.671082,293, -0.6, 0.2,0,0,1024,1024,1024,1024,292,-89.9,96,3.786,3.806,3.811,3.839,3.78,3.829,20.983,69.8,14,Waypoint,
35.7013524,-118.5808968,6626.1231949756,120.734912,0,0.37339568124,17800,2018-07-05 17:08:53,17,0,22.854,6626.1231949756,120.734912,0,0.50943571184,0,0,-0.671082,293.1, -0.5, 0.1,0,0,1024,1024,1024,1024,292,-89.9,96,3.786,3.806,3.811,3.839,3.78,3.829,20.983,69.8,14,Waypoint,
35.7013525,-118.5808968,6627.1074469756,121.719164,0,0.34175526028,17900,2018-07-05 17:08:53,17,0,22.854,6627.1074469756,121.719164,0,0.50943571184,0,0,-0.671082,293.1, -0.5, 0.1,0,0,1024,1024,1024,1024,292,-89.9,96,3.786,3.806,3.811,3.839,3.78,3.829,20.983,69.8,14,Waypoint,
35.7013525,-118.5808968,6628.0916989756,122.703416,0,0.34175526028,18000,2018-07-05 17:08:53,17,0,22.854,6628.0916989756,122.703416,0,0.50943571184,0,0,-0.671082,293.2, -0.5, 0,0,0,1024,1024,1024,1024,292,-89.9,96,3.786,3.806,3.811,3.839,3.78,3.829,20.983,69.8,14,Waypoint,
35.7013525,-118.5808968,6629.0759509756,123.687668,0,0.34175526028,18100,2018-07-05 17:08:53,17,0,22.854,6629.0759509756,123.687668,0,0.50943571184,0,0,-0.671082,293.2, -0.4, 0,0,0,1024,1024,1024,1024,292,-89.9,96,3.786,3.806,3.811,3.839,3.78,3.829,20.983,69.8,14,Waypoint,
35.7013525,-118.5808969,6630.0602029756,124.67192,0,0.327321860868,18200,2018-07-05 17:08:53,17,0,22.854,6630.0602029756,124.67192,0,0.50943571184,0,0,-0.671082,293.2, -0.4, 0,0,0,1024,1024,1024,1024,292,-90,96,3.786,3.806,3.811,3.839,3.78,3.829,20.983,69.8,14,Waypoint,
35.7013525,-118.5808969,6631.0444549756,125.656172,0,0.327321860868,18300,2018-07-05 17:08:53,17,0,22.854,6631.0444549756,125.656172,0,0.50943571184,0,0,-0.671082,293.2, -0.3, 0,0,0,1024,1024,1024,1024,292,-90,96,3.786,3.806,3.811,3.839,3.78,3.829,20.983,69.8,14,Waypoint,
35.7013525,-118.5808969,6632.0287069756,126.640424,0,0.327321860868,18400,2018-07-05 17:08:53,17,0,22.854,6632.0287069756,126.640424,0,0.50943571184,0,0,-0.671082,293.2, -0.3, 0,0,0,1024,1024,1024,1024,292,-89.9,96,3.786,3.806,3.811,3.839,3.78,3.829,20.983,69.8,14,Waypoint,
35.7013525,-118.5808969,6633.0129589756,127.624676,0,0.327321860868,18500,2018-07-05 17:08:53,17,0,22.854,6633.0129589756,127.624676,0,0.50943571184,0,0,-0.671082,293.1, -0.4, 0,0,0,1024,1024,1024,1024,292,-89.9,96,3.786,3.806,3.811,3.839,3.78,3.829,20.983,69.8,14,Waypoint,
35.7013525,-118.5808969,6633.9972109756,128.608928,0,0.327321860868,18600,2018-07-05 17:08:54,17,0,22.854,6633.9972109756,128.608928,0,0.50943571184,0,0,-0.671082,293, -0.3, 0.1,0,0,1024,1024,1024,1024,292,-89.9,96,3.786,3.806,3.811,3.839,3.78,3.829,20.983,69.8,14,Waypoint,
35.7013525,-118.5808969,6634.9814629756,129.59318,0,0.327321860868,18700,2018-07-05 17:08:54,17,0,22.854,6634.9814629756,129.59318,0,0.50943571184,0,0,-0.671082,292.9, -0.3, 0.3,0,0,1024,1024,1024,1024,292,-89.9,96,3.786,3.806,3.811,3.839,3.78,3.829,20.983,69.8,14,Waypoint,
35.7013525,-118.5808969,6635.9657149756,130.577432,0,0.327321860868,18800,2018-07-05 17:08:54,17,0,22.854,6635.9657149756,130.577432,0,0.50943571184,0,0,-0.671082,292.9, -0.3, 0.4,0,0,1024,1024,1024,1024,292,-89.9,96,3.786,3.806,3.811,3.839,3.78,3.829,20.983,69.8,14,Waypoint,
35.7013525,-118.5808969,6636.9499669756,131.561684,0,0.327321860868,18900,2018-07-05 17:08:54,17,0,22.854,6636.9499669756,131.561684,0,0.50943571184,0,0,-0.671082,292.9, -0.3, 0.6,0,0,1024,1024,1024,1024,292,-90,96,3.786,3.806,3.811,3.839,3.78,3.829,20.983,69.8,14,Waypoint,
35.7013525,-118.5808969,6637.9342189756,132.545936,0,0.327321860868,19000,2018-07-05 17:08:54,17,0,22.913,6637.9342189756,132.545936,0,0.50943571184,0,0,-0.671082,292.9, -0.2, 0.6,0,0,1024,1024,1024,1024,292,-89.9,96,3.797,3.814,3.828,3.845,3.789,3.825,19.929,69.8,14,Waypoint,
35.7013525,-118.5808969,6638.9184709756,133.530188,0,0.327321860868,19100,2018-07-05 17:08:54,17,0,22.913,6638.9184709756,133.530188,0,0.50943571184,0,0,-0.671082,292.9, -0.2, 0.5,0,0,1024,1024,1024,1024,292,-89.9,96,3.797,3.814,3.828,3.845,3.789,3.825,19.929,69.8,14,Waypoint,
35.7013525,-118.5808969,6639.9027229756,134.51444,0,0.327321860868,19200,2018-07-05 17:08:54,17,0,22.913,6639.9027229756,134.51444,0,0.50943571184,0,0,-0.671082,292.9, -0.2, 0.5,0,0,1024,1024,1024,1024,292,-89.9,96,3.797,3.814,3.828,3.845,3.789,3.825,19.929,69.8,14,Waypoint,
35.7013524,-118.5808969,6641.8712269756,136.482944,0,0.360236232,19300,2018-07-05 17:08:54,17,0,22.913,6641.8712269756,136.482944,0,0.50943571184,0,0,-0.671082,293, -0.3, 0.5,0,0,1024,1024,1024,1024,292,-89.9,96,3.797,3.814,3.828,3.845,3.789,3.825,19.929,69.8,14,Waypoint,
35.7013524,-118.5808969,6642.8554789756,137.467196,0,0.360236232,19500,2018-07-05 17:08:54,17,0,22.913,6642.8554789756,137.467196,0,0.50943571184,0,0,-0.671082,293.1, -0.6, 0.6,0,0,1024,1024,1024,1024,292,-90,96,3.797,3.814,3.828,3.845,3.789,3.825,19.929,69.8,14,Waypoint,
35.7013524,-118.5808968,6643.8397309756,138.451448,0,0.37339568124,19600,2018-07-05 17:08:55,17,0,22.913,6643.8397309756,138.451448,0,0.50943571184,0,0,-0.671082,293.1, -0.8, 0.6,0,0,1024,1024,1024,1024,292,-90,96,3.797,3.814,3.828,3.845,3.789,3.825,19.929,69.8,14,Waypoint,
35.7013524,-118.5808968,6644.8239829756,139.4357,0,0.37339568124,19700,2018-07-05 17:08:55,17,0,22.913,6644.8239829756,139.4357,0,0.50943571184,0,0,-0.671082,293.1, -0.9, 0.5,0,0,1024,1024,1024,1024,292,-90,96,3.797,3.814,3.828,3.845,3.789,3.825,19.929,69.8,14,Waypoint,
35.7013524,-118.5808968,6645.8082349756,140.419952,0,0.37339568124,19800,2018-07-05 17:08:55,17,0,22.913,6645.8082349756,140.419952,0,0.50943571184,0,0,-0.671082,293, -1, 0.3,0,0,1024,1024,1024,1024,292,-90,96,3.797,3.814,3.828,3.845,3.789,3.825,19.929,69.8,14,Waypoint,
35.7013524,-118.5808968,6646.7924869756,141.404204,0,0.37339568124,19900,2018-07-05 17:08:55,17,0,22.913,6646.7924869756,141.404204,0,0.50943571184,0,0,-0.671082,293, -1, 0.3,0,0,1024,1024,1024,1024,292,-90,96,3.797,3.814,3.828,3.845,3.789,3.825,19.929,69.8,14,Waypoint,
35.7013524,-118.5808968,6647.7767389756,142.388456,0,0.37339568124,20000,2018-07-05 17:08:55,17,0,22.925,6647.7767389756,142.388456,0,0.50943571184,0,0,-0.671082,293.1, -0.6, 0.4,0,0,1024,1024,1024,1024,292,-89.9,95,3.794,3.818,3.829,3.854,3.791,3.833,19.571,69.8,14,Waypoint,
35.7013524,-118.5808968,6648.7609909756,143.372708,0,0.37339568124,20100,2018-07-05 17:08:55,17,0,22.925,6648.7609909756,143.372708,0,0.50943571184,0,0,-0.671082,293.1, -0.1, 0.6,0,0,1024,1024,1024,1024,292,-89.9,95,3.794,3.818,3.829,3.854,3.791,3.833,19.571,69.8,14,Waypoint,
35.7013524,-118.5808969,6649.7452429756,144.35696,0,0.360236232,20200,2018-07-05 17:08:55,17,0,22.925,6649.7452429756,144.35696,0,0.50943571184,0,0,-0.671082,293.1, 0, 0.6,0,0,1024,1024,1024,1024,292,-89.9,95,3.794,3.818,3.829,3.854,3.791,3.833,19.571,69.8,14,Waypoint,
35.7013523,-118.5808969,6650.7294949756,145.341212,0,0.39377625932,20300,2018-07-05 17:08:55,17,0,22.925,6650.7294949756,145.341212,0,0.50943571184,0,0,-0.671082,293.1, 0, 0.6,0,0,1024,1024,1024,1024,292,-89.9,95,3.794,3.818,3.829,3.854,3.791,3.833,19.571,69.8,14,Waypoint,
35.7013523,-118.5808969,6651.7137469756,146.325464,0,0.39377625932,20400,2018-07-05 17:08:55,17,0,22.925,6651.7137469756,146.325464,0,0.50943571184,0,0,-0.671082,293.1, -0.1, 0.6,0,0,1024,1024,1024,1024,292,-89.9,95,3.794,3.818,3.829,3.854,3.791,3.833,19.571,69.8,14,Waypoint,
35.7013523,-118.5808968,6652.6979989756,147.309716,0,0.40585303136,20500,2018-07-05 17:08:55,17,0,22.925,6652.6979989756,147.309716,0,0.50943571184,0,0,-0.671082,293.1, -0.3, 0.5,0,0,1024,1024,1024,1024,292,-90,95,3.794,3.818,3.829,3.854,3.791,3.833,19.571,69.8,14,Waypoint,
35.7013523,-118.5808968,6653.6822509756,148.293968,0,0.40585303136,20600,2018-07-05 17:08:56,17,0,22.925,6653.6822509756,148.293968,0,0.50943571184,0,0,-0.671082,293.2, -0.5, 0.4,0,0,1024,1024,1024,1024,292,-90,95,3.794,3.818,3.829,3.854,3.791,3.833,19.571,69.8,14,Waypoint,
35.7013523,-118.5808968,6654.3384189756,148.950136,0,0.40585303136,20700,2018-07-05 17:08:56,17,0,22.925,6654.3384189756,148.950136,0,0.50943571184,0,0,-0.671082,293.2, -0.6, 0.3,0,0,1024,1024,1024,1024,292,-90,95,3.794,3.818,3.829,3.854,3.791,3.833,19.571,69.8,14,Waypoint,
35.7013523,-118.5808968,6655.3226709756,149.934388,0,0.40585303136,20800,2018-07-05 17:08:56,17,0,22.925,6655.3226709756,149.934388,0,0.50943571184,0,0,-0.671082,293.1, -0.6, 0.3,0,0,1024,1024,1024,1024,292,-90,95,3.794,3.818,3.829,3.854,3.791,3.833,19.571,69.8,14,Waypoint,
35.7013523,-118.5808967,6656.3069229756,150.91864,0,0.41967849112,20900,2018-07-05 17:08:56,17,0,22.925,6656.3069229756,150.91864,0,0.50943571184,0,0,-0.671082,293.1, -0.7, 0.3,0,0,1024,1024,1024,1024,292,-90,95,3.794,3.818,3.829,3.854,3.791,3.833,19.571,69.8,14,Waypoint,
35.7013523,-118.5808967,6657.2911749756,151.902892,0,0.41967849112,21000,2018-07-05 17:08:56,17,0,22.877,6657.2911749756,151.902892,0,0.50943571184,0,0,-0.671082,293.1, -0.8, 0.3,0,0,1024,1024,1024,1024,292,-90,95,3.783,3.803,3.826,3.849,3.792,3.828,19.78,69.8,14,Waypoint,
35.7013523,-118.5808967,6658.2754269756,152.887144,0,0.41967849112,21100,2018-07-05 17:08:56,16,0,22.877,6658.2754269756,152.887144,0,0.50943571184,0,0,-0.671082,293.1, -0.7, 0.3,0,0,1024,1024,1024,1024,292,-89.9,95,3.783,3.803,3.826,3.849,3.792,3.828,19.78,69.8,14,Waypoint,
35.7013523,-118.5808967,6659.2596789756,153.871396,0,0.41967849112,21200,2018-07-05 17:08:56,16,0,22.877,6659.2596789756,153.871396,0,0.50943571184,0,0,-0.671082,293, -0.7, 0.2,0,0,1024,1024,1024,1024,292,-90,95,3.783,3.803,3.826,3.849,3.792,3.828,19.78,69.8,14,Waypoint,
35.7013523,-118.5808967,6661.2281829756,155.8399,0,0.41967849112,21300,2018-07-05 17:08:56,17,0,22.877,6661.2281829756,155.8399,0,0.50943571184,0,0,-0.671082,292.9, -0.5, 0.4,0,0,1024,1024,1024,1024,292,-90,95,3.783,3.803,3.826,3.849,3.792,3.828,19.78,69.8,14,Waypoint,
35.7013523,-118.5808968,6664.1809389756,158.792656,0,0.40585303136,21610,2018-07-05 17:08:57,16,0,22.877,6664.1809389756,158.792656,0,0.50943571184,0,0,-0.671082,293.1, -0.4, 0.6,0,0,1024,1024,1024,1024,292,-90,95,3.783,3.803,3.826,3.849,3.792,3.828,19.78,69.8,14,Waypoint,
35.7013523,-118.5808968,6664.1809389756,158.792656,0,0.40585303136,21700,2018-07-05 17:08:57,16,0,22.877,6664.1809389756,158.792656,0,0.50943571184,0,0,-0.671082,293.1, -0.4, 0.6,0,0,1024,1024,1024,1024,292,-90,95,3.783,3.803,3.826,3.849,3.792,3.828,19.78,69.8,14,Waypoint,
35.7013523,-118.5808968,6665.1651909756,159.776908,0,0.40585303136,21800,2018-07-05 17:08:57,16,0,22.877,6665.1651909756,159.776908,0,0.50943571184,0,0,-0.671082,293.2, -0.5, 0.7,0,0,1024,1024,1024,1024,292,-89.9,95,3.783,3.803,3.826,3.849,3.792,3.828,19.78,69.8,14,Waypoint,
35.7013523,-118.5808968,6666.1494429756,160.76116,0,0.40585303136,21900,2018-07-05 17:08:57,16,0,22.877,6666.1494429756,160.76116,0,0.50943571184,0,0,-0.671082,293.2, -0.5, 0.7,0,0,1024,1024,1024,1024,292,-89.9,95,3.783,3.803,3.826,3.849,3.792,3.828,19.78,69.8,14,Waypoint,
35.7013523,-118.5808968,6667.1336949756,161.745412,0,0.40585303136,22000,2018-07-05 17:08:57,16,0,22.848,6667.1336949756,161.745412,0,0.50943571184,0,0,-0.671082,293.2, -0.6, 0.5,0,0,1024,1024,1024,1024,292,-90,95,3.75,3.778,3.821,3.838,3.775,3.811,21.349,69.8,14,Waypoint,
35.7013523,-118.5808968,6668.1179469756,162.729664,0,0.40585303136,22100,2018-07-05 17:08:57,16,0,22.848,6668.1179469756,162.729664,0,0.50943571184,0,0,-0.671082,293.2, -0.7, 0.4,0,0,1024,1024,1024,1024,292,-90,95,3.75,3.778,3.821,3.838,3.775,3.811,21.349,69.8,14,Waypoint,
35.7013523,-118.5808968,6669.1021989756,163.713916,0,0.40585303136,22200,2018-07-05 17:08:57,16,0,22.848,6669.1021989756,163.713916,0,0.50943571184,0,0,-0.671082,293.2, -0.6, 0.4,0,0,1024,1024,1024,1024,292,-90,95,3.75,3.778,3.821,3.838,3.775,3.811,21.349,69.8,14,Waypoint,
35.7013523,-118.5808968,6670.0864509756,164.698168,0,0.40585303136,22300,2018-07-05 17:08:57,16,0,22.848,6670.0864509756,164.698168,0,0.50943571184,0,0,-0.671082,293.1, -0.5, 0.3,0,0,1024,1024,1024,1024,292,-89.9,95,3.75,3.778,3.821,3.838,3.775,3.811,21.349,69.8,14,Waypoint,
35.7013524,-118.5808968,6672.0549549756,166.666672,0,0.37339568124,22500,2018-07-05 17:08:57,16,0,22.848,6672.0549549756,166.666672,0,0.50943571184,0,0,-0.671082,293, -0.5, 0.3,0,0,1024,1024,1024,1024,292,-89.9,95,3.75,3.778,3.821,3.838,3.775,3.811,21.349,69.8,14,Waypoint,
35.7013524,-118.5808968,6673.0392069756,167.650924,0,0.37339568124,22600,2018-07-05 17:08:58,16,0,22.848,6673.0392069756,167.650924,0,0.50943571184,0,0,-0.671082,292.9, -0.3, 0.4,0,0,1024,1024,1024,1024,292,-89.9,95,3.75,3.778,3.821,3.838,3.775,3.811,21.349,69.8,14,Waypoint,
35.7013524,-118.5808968,6674.0234589756,168.635176,0,0.37339568124,22700,2018-07-05 17:08:58,17,0,22.848,6674.0234589756,168.635176,0,0.50943571184,0,0,-0.671082,293, -0.2, 0.2,0,0,1024,1024,1024,1024,292,-89.9,95,3.75,3.778,3.821,3.838,3.775,3.811,21.349,69.8,14,Waypoint,
35.7013525,-118.5808968,6675.3357949756,169.947512,0,0.34175526028,22800,2018-07-05 17:08:58,17,0,22.848,6675.3357949756,169.947512,0,0.50943571184,0,0,-0.671082,293, -0.3, 0,0,0,1024,1024,1024,1024,292,-90,95,3.75,3.778,3.821,3.838,3.775,3.811,21.349,69.8,14,Waypoint,
35.7013525,-118.5808967,6676.3200469756,170.931764,0,0.35806103508,22900,2018-07-05 17:08:58,17,0,22.848,6676.3200469756,170.931764,0,0.50943571184,0,0,-0.671082,293.1, -0.4, 0,0,0,1024,1024,1024,1024,292,-90,95,3.75,3.778,3.821,3.838,3.775,3.811,21.349,69.8,14,Waypoint,
35.7013525,-118.5808967,6676.9762149756,171.587932,0,0.35806103508,23000,2018-07-05 17:08:58,17,0,22.685,6676.9762149756,171.587932,0,0.50943571184,0,0,-0.671082,293.1, -0.5, 0,0,0,1024,1024,1024,1024,292,-90,95,3.742,3.772,3.782,3.823,3.743,3.806,21.172,69.8,14,Waypoint,
35.7013525,-118.5808967,6678.2885509756,172.900268,0,0.35806103508,23100,2018-07-05 17:08:58,17,0,22.685,6678.2885509756,172.900268,0,0.50943571184,0,0,-0.671082,293.1, -0.6, -0.2,0,0,1024,1024,1024,1024,292,-90,95,3.742,3.772,3.782,3.823,3.743,3.806,21.172,69.8,14,Waypoint,
35.7013525,-118.5808967,6679.2728029756,173.88452,0,0.35806103508,23200,2018-07-05 17:08:58,17,0,22.685,6679.2728029756,173.88452,0,0.50943571184,0,0,-0.671082,293, -0.6, -0.1,0,0,1024,1024,1024,1024,292,-90,95,3.742,3.772,3.782,3.823,3.743,3.806,21.172,69.8,14,Waypoint,
35.7013525,-118.5808967,6680.2570549756,174.868772,0,0.35806103508,23300,2018-07-05 17:08:58,17,0,22.685,6680.2570549756,174.868772,0,0.50943571184,0,0,-0.671082,292.9, -0.6, 0,0,0,1024,1024,1024,1024,292,-89.9,95,3.742,3.772,3.782,3.823,3.743,3.806,21.172,69.8,14,Waypoint,
35.7013525,-118.5808967,6681.2413069756,175.853024,0,0.35806103508,23400,2018-07-05 17:08:58,17,0,22.685,6681.2413069756,175.853024,0,0.50943571184,0,0,-0.671082,292.9, -0.5, 0.2,0,0,1024,1024,1024,1024,292,-89.9,95,3.742,3.772,3.782,3.823,3.743,3.806,21.172,69.8,14,Waypoint,
35.7013525,-118.5808967,6683.8659789756,178.477696,0,0.35806103508,23700,2018-07-05 17:08:59,17,0,22.685,6683.8659789756,178.477696,0,0.50943571184,0,0,-0.671082,292.8, -0.5, 0.3,0,0,1024,1024,1024,1024,292,-90,95,3.742,3.772,3.782,3.823,3.743,3.806,21.172,69.8,14,Waypoint,
35.7013525,-118.5808967,6684.8502309756,179.461948,0,0.35806103508,23800,2018-07-05 17:08:59,17,0,22.685,6684.8502309756,179.461948,0,0.50943571184,0,0,-0.671082,292.8, -0.6, 0.4,0,0,1024,1024,1024,1024,292,-90,95,3.742,3.772,3.782,3.823,3.743,3.806,21.172,69.8,14,Waypoint,
35.7013525,-118.5808967,6685.8344829756,180.4462,0,0.35806103508,23900,2018-07-05 17:08:59,17,0,22.685,6685.8344829756,180.4462,0,0.50943571184,0,0,-0.671082,292.9, -0.7, 0.4,0,0,1024,1024,1024,1024,292,-90,95,3.742,3.772,3.782,3.823,3.743,3.806,21.172,69.8,14,Waypoint,
35.7013525,-118.5808968,6687.1468189756,181.758536,0,0.34175526028,24000,2018-07-05 17:08:59,17,0,22.663,6687.1468189756,181.758536,0,0.50943571184,0,0,-0.671082,293, -0.8, 0.3,0,0,1024,1024,1024,1024,292,-90,95,3.742,3.772,3.782,3.823,3.743,3.806,21.256,69.8,14,Waypoint,
35.7013524,-118.5808968,6688.1310709756,182.742788,0,0.37339568124,24100,2018-07-05 17:08:59,17,0,22.663,6688.1310709756,182.742788,0,0.50943571184,0,0,-0.671082,293.1, -0.7, 0.2,0,0,1024,1024,1024,1024,292,-90,95,3.742,3.772,3.782,3.823,3.743,3.806,21.256,69.8,14,Waypoint,
35.7013524,-118.5808968,6688.7872389756,183.398956,0,0.37339568124,24200,2018-07-05 17:08:59,17,0,22.663,6688.7872389756,183.398956,0,0.50943571184,0,0,-0.671082,293.2, -0.7, 0.3,0,0,1024,1024,1024,1024,292,-89.9,95,3.742,3.772,3.782,3.823,3.743,3.806,21.256,69.8,14,Waypoint,
35.7013524,-118.5808968,6689.7714909756,184.383208,0,0.37339568124,24300,2018-07-05 17:08:59,17,0,22.663,6689.7714909756,184.383208,0,0.50943571184,0,0,-0.671082,293.4, -0.5, 0.2,0,0,1024,1024,1024,1024,292,-89.9,95,3.742,3.772,3.782,3.823,3.743,3.806,21.256,69.8,14,Waypoint,
35.7013524,-118.5808968,6690.7557429756,185.36746,0,0.37339568124,24400,2018-07-05 17:08:59,17,0,22.663,6690.7557429756,185.36746,0,0.50943571184,0,0,-0.671082,293.5, -0.3, 0,0,0,1024,1024,1024,1024,292,-89.9,95,3.742,3.772,3.782,3.823,3.743,3.806,21.256,69.8,14,Waypoint,
35.7013524,-118.5808969,6692.0680789756,186.679796,0,0.360236232,24500,2018-07-05 17:08:59,17,0,22.663,6692.0680789756,186.679796,0,0.50943571184,0,0,-0.671082,293.5, -0.2, 0.2,0,0,1024,1024,1024,1024,292,-89.9,95,3.742,3.772,3.782,3.823,3.743,3.806,21.256,69.8,14,Waypoint,
35.7013524,-118.5808969,6693.0523309756,187.664048,0,0.360236232,24600,2018-07-05 17:09:00,17,0,22.663,6693.0523309756,187.664048,0,0.50943571184,0,0,-0.671082,293.4, -0.2, 0.3,0,0,1024,1024,1024,1024,292,-89.9,95,3.742,3.772,3.782,3.823,3.743,3.806,21.256,69.8,14,Waypoint,
35.7013524,-118.5808969,6693.7084989756,188.320216,0,0.360236232,24700,2018-07-05 17:09:00,17,0,22.663,6693.7084989756,188.320216,0,0.50943571184,0,0,-0.671082,293.3, -0.3, 0.3,0,0,1024,1024,1024,1024,292,-89.9,95,3.742,3.772,3.782,3.823,3.743,3.806,21.256,69.8,14,Waypoint,
35.7013524,-118.5808969,6694.6927509756,189.304468,0,0.360236232,24800,2018-07-05 17:09:00,17,0,22.663,6694.6927509756,189.304468,0,0.50943571184,0,0,-0.671082,293.3, -0.3, 0.3,0,0,1024,1024,1024,1024,292,-89.9,95,3.742,3.772,3.782,3.823,3.743,3.806,21.256,69.8,14,Waypoint,
35.7013525,-118.5808969,6695.6770029756,190.28872,0,0.327321860868,24900,2018-07-05 17:09:00,17,0,22.663,6695.6770029756,190.28872,0,0.50943571184,0,0,-0.671082,293.2, -0.4, 0.2,0,0,1024,1024,1024,1024,292,-90,95,3.742,3.772,3.782,3.823,3.743,3.806,21.256,69.8,14,Waypoint,
35.7013525,-118.5808969,6696.9893389756,191.601056,0,0.327321860868,25000,2018-07-05 17:09:00,17,0,22.615,6696.9893389756,191.601056,0,0.50943571184,0,0,-0.671082,293.1, -0.6, 0.1,0,0,1024,1024,1024,1024,292,-89.9,95,3.742,3.763,3.777,3.815,3.726,3.787,21.486,69.8,14,Waypoint,
35.7013525,-118.5808969,6698.9578429756,193.56956,0,0.327321860868,25200,2018-07-05 17:09:00,17,0,22.615,6698.9578429756,193.56956,0,0.50943571184,0,0,-0.671082,293, -0.4, 0.1,0,0,1024,1024,1024,1024,292,-89.9,95,3.742,3.763,3.777,3.815,3.726,3.787,21.486,69.8,14,Waypoint,
35.7013525,-118.5808969,6699.9420949756,194.553812,0,0.327321860868,25300,2018-07-05 17:09:00,17,0,22.615,6699.9420949756,194.553812,0,0.50943571184,0,0,-0.671082,292.9, -0.4, 0.1,0,0,1024,1024,1024,1024,292,-89.9,95,3.742,3.763,3.777,3.815,3.726,3.787,21.486,69.8,14,Waypoint,
35.7013525,-118.580897,6701.9105989756,196.522316,0,0.315022319792,25500,2018-07-05 17:09:00,17,0,22.615,6701.9105989756,196.522316,0,0.50943571184,0,0,-0.671082,292.9, -0.4, 0.1,0,0,1024,1024,1024,1024,292,-90,95,3.742,3.763,3.777,3.815,3.726,3.787,21.486,69.8,14,Waypoint,
35.7013525,-118.580897,6702.8948509756,197.506568,0,0.315022319792,25600,2018-07-05 17:09:01,17,0,22.615,6702.8948509756,197.506568,0,0.50943571184,0,0,-0.671082,292.9, -0.4, 0.1,0,0,1024,1024,1024,1024,292,-89.9,95,3.742,3.763,3.777,3.815,3.726,3.787,21.486,69.8,14,Waypoint,
35.7013525,-118.580897,6703.8791029756,198.49082,0,0.315022319792,25700,2018-07-05 17:09:01,17,0,22.615,6703.8791029756,198.49082,0,0.50943571184,0,0,-0.671082,293, -0.3, 0.1,0,0,1024,1024,1024,1024,292,-89.9,95,3.742,3.763,3.777,3.815,3.726,3.787,21.486,69.8,14,Waypoint,
35.7013526,-118.580897,6705.8476069756,200.459324,0,0.281552502448,25800,2018-07-05 17:09:01,17,0,22.615,6705.8476069756,200.459324,0,0.50943571184,0,0,-0.671082,293.1, -0.2, 0.2,0,0,1024,1024,1024,1024,292,-89.9,95,3.742,3.763,3.777,3.815,3.726,3.787,21.486,69.8,14,Waypoint,
35.7013526,-118.580897,6706.5037749756,201.115492,0,0.281552502448,25900,2018-07-05 17:09:01,17,0,22.615,6706.5037749756,201.115492,0,0.50943571184,0,0,-0.671082,293.2, -0.4, 0.1,0,0,1024,1024,1024,1024,292,-89.9,95,3.742,3.763,3.777,3.815,3.726,3.787,21.486,69.8,14,Waypoint,
35.7013526,-118.580897,6708.8003629756,203.41208,0,0.281552502448,26200,2018-07-05 17:09:01,17,0,22.615,6708.8003629756,203.41208,0,0.50943571184,0,0,-0.671082,293, -0.5, 0,0,0,1024,1024,1024,1024,292,-90,95,3.742,3.763,3.777,3.815,3.726,3.787,21.486,69.8,14,Waypoint,
35.7013526,-118.580897,6709.7846149756,204.396332,0,0.281552502448,26300,2018-07-05 17:09:01,17,0,22.615,6709.7846149756,204.396332,0,0.50943571184,0,0,-0.671082,292.9, -0.4, -0.1,0,0,1024,1024,1024,1024,292,-90,95,3.742,3.763,3.777,3.815,3.726,3.787,21.486,69.8,14,Waypoint,
35.7013526,-118.580897,6710.4407829756,205.0525,0,0.281552502448,26400,2018-07-05 17:09:01,17,0,22.615,6710.4407829756,205.0525,0,0.50943571184,0,0,-0.671082,292.9, -0.3, -0.1,0,0,1024,1024,1024,1024,292,-89.9,95,3.742,3.763,3.777,3.815,3.726,3.787,21.486,69.8,14,Waypoint,
35.7013526,-118.580897,6712.4092869756,207.021004,0,0.281552502448,26600,2018-07-05 17:09:02,17,0,22.615,6712.4092869756,207.021004,0,0.50943571184,0,0,-0.671082,292.8, -0.2, 0,0,0,1024,1024,1024,1024,292,-89.9,95,3.742,3.763,3.777,3.815,3.726,3.787,21.486,69.8,14,Waypoint,
35.7013526,-118.580897,6713.3935389756,208.005256,0,0.281552502448,26700,2018-07-05 17:09:02,16,0,22.615,6713.3935389756,208.005256,0,0.50943571184,0,0,-0.671082,292.7, -0.2, 0,0,0,1024,1024,1024,1024,292,-89.9,95,3.742,3.763,3.777,3.815,3.726,3.787,21.486,69.8,14,Waypoint,
35.7013526,-118.5808971,6714.7058749756,209.317592,0,0.27041995616,26800,2018-07-05 17:09:02,16,0,22.615,6714.7058749756,209.317592,0,0.50943571184,0,0,-0.671082,292.7, -0.2, 0.1,0,0,1024,1024,1024,1024,292,-89.9,95,3.742,3.763,3.777,3.815,3.726,3.787,21.486,69.8,14,Waypoint,
35.7013526,-118.5808971,6715.6901269756,210.301844,0,0.27041995616,26900,2018-07-05 17:09:02,16,0,22.615,6715.6901269756,210.301844,0,0.50943571184,0,0,-0.671082,292.8, -0.3, 0.2,0,0,1024,1024,1024,1024,292,-89.9,95,3.742,3.763,3.777,3.815,3.726,3.787,21.486,69.8,14,Waypoint,
35.7013526,-118.5808971,6716.6743789756,211.286096,0,0.27041995616,27000,2018-07-05 17:09:02,16,0,22.603,6716.6743789756,211.286096,0,0.50943571184,0,0,-0.671082,292.9, -0.3, 0.3,0,0,1024,1024,1024,1024,292,-89.9,95,3.73,3.759,3.775,3.812,3.728,3.787,21.091,69.8,14,Waypoint,
35.7013526,-118.5808971,6717.6586309756,212.270348,0,0.27041995616,27100,2018-07-05 17:09:02,16,0,22.603,6717.6586309756,212.270348,0,0.50943571184,0,0,-0.671082,293, -0.3, 0.3,0,0,1024,1024,1024,1024,292,-89.9,95,3.73,3.759,3.775,3.812,3.728,3.787,21.091,69.8,14,Waypoint,
35.7013526,-118.5808971,6718.6428829756,213.2546,0,0.27041995616,27200,2018-07-05 17:09:02,16,0,22.603,6718.6428829756,213.2546,0,0.50943571184,0,0,-0.671082,293, -0.4, 0.3,0,0,1024,1024,1024,1024,292,-89.9,95,3.73,3.759,3.775,3.812,3.728,3.787,21.091,69.8,14,Waypoint,
35.7013526,-118.5808971,6719.6271349756,214.238852,0,0.27041995616,27300,2018-07-05 17:09:02,16,0,22.603,6719.6271349756,214.238852,0,0.50943571184,0,0,-0.671082,293.1, -0.3, 0.4,0,0,1024,1024,1024,1024,292,-89.9,95,3.73,3.759,3.775,3.812,3.728,3.787,21.091,69.8,14,Waypoint,
