Latitude, Longitude, Altitude (m), Time, Sats, Speed (m/s), Range (m), Battery (%), Roll (deg), Pitch (deg), Yaw (deg), Images, HD Signal (%), RC Signal (%), Battery Temp (C), Battery Voltage (mV), Battery Current (mA), Battery Energy (mAh), Battery Capacity (mAh), Battery Discharges, flyState, timestamp (Unix), LastUpdate (ms), radioChannel, Rc_elevator, Rc_aileron, Rc_throttle, Rc_rudder, Rc_gyro, Dronetype, Battery_Cell1 (mV), Battery_Cell2 (mV), Battery_Cell3 (mV), Battery_Cell4 (mV), Battery_Cell5 (mV), Battery_Cell6 (mV), Video, isFlying, elapsedTime (ms), gimbalPitch (deg), gimbalRoll (deg), gimbalYaw (deg), VelocityX (m/s), VelocityY (m/s), VelocityZ (m/s), GroundSmear (cm), App Version, Aircraft Name, Aircraft Firmware, Aircraft Serial Number, Battery Serial Number, Battery Lifetime (%), App_Tip, App_Warning, CurrentFlightStartingIndex, CurrentFlightLastVisitedWaypoint, PreviousFlightEndingWaypointIndex
35.7013533, -118.5808974, -0.100, 10:08:37.951, 11, 0.00, 0.05, 97, -0.100, 0.900, -67.200, 238, 100, 100, 20, 25602, -3740, 5105, 5263, 23, 11, 1530810517.951, 33, 0, 1024, 1024, 1024, 1024, 0, 6, 4274, 4289, 4244, 4242, 4252, 4252, 0, 1, 3033, -89.900, 0.000, -68.500, 0.000, 0.000, -0.100, 0.0, MapPilot_2.8.1_04242018, Dendroctonus I, 1.3.1.00, 041DDC1887, 1058171200140, 95, DJI_0237.jpg, Starting Mission from Lat/Long: 35.70136/-118.58091 Camera: Zenmuse X3 - Overlap: 90/90 - Active Connection: No, 13, 13, 13
35.7013533, -118.5808974, 0.000, 10:08:38.018, 11, 0.00, 0.05, 97, 0.000, 0.900, -67.100, 238, 100, 100, 20, 25602, -3740, 5105, 5263, 23, 11, 1530810518.018, 2, 0, 1024, 1024, 1024, 1024, 0, 6, 4274, 4289, 4244, 4242, 4252, 4252, 0, 1, 3100, -89.900, 0.000, -68.500, 0.000, 0.000, -0.400, 0.0, , , , , , 95, , , 13, 13, 13
35.7013533, -118.5808974, 0.000, 10:08:38.119, 11, 0.00, 0.05, 97, 0.000, 0.900, -67.100, 238, 100, 100, 20, 25602, -3740, 5105, 5263, 23, 11, 1530810518.119, 104, 0, 1024, 1024, 1024, 1024, 0, 6, 4274, 4289, 4244, 4242, 4252, 4252, 0, 1, 3201, -89.900, 0.000, -68.500, 0.000, 0.000, -0.400, 0.0, , , , , , 95, , , 13, 13, 13
35.7013533, -118.5808974, 0.000, 10:08:38.219, 11, 0.00, 0.06, 97, 0.300, 0.300, -67.000, 238, 100, 100, 20, 25602, -3740, 5105, 5263, 23, 11, 1530810518.219, 94, 0, 1024, 1024, 1024, 1024, 0, 6, 4274, 4289, 4244, 4242, 4252, 4252, 0, 1, 3301, -89.900, 0.000, -68.400, 0.000, 0.000, -0.600, 0.0, , , , , , 95, , , 13, 13, 13
35.7013532, -118.5808973, 0.000, 10:08:38.318, 11, 0.00, 0.06, 97, 0.400, 0.300, -67.000, 238, 100, 100, 20, 25602, -3740, 5105, 5263, 23, 11, 1530810518.319, 96, 0, 1024, 1024, 1024, 1024, 0, 6, 4274, 4289, 4244, 4242, 4252, 4252, 0, 1, 3401, -89.900, 0.000, -68.400, 0.000, 0.000, -0.600, 0.0, , , , , , 95, , , 13, 13, 13
35.7013532, -118.5808973, 0.000, 10:08:38.419, 11, 0.00, 0.07, 97, 0.200, 0.200, -67.000, 238, 100, 100, 20, 25602, -3740, 5105, 5263, 23, 11, 1530810518.419, 95, 0, 1024, 1024, 1024, 1024, 0, 6, 4274, 4289, 4244, 4242, 4252, 4252, 0, 1, 3501, -89.900, 0.000, -68.400, 0.000, 0.000, -0.600, 0.0, , , , , , 95, , , 13, 13, 13
35.7013532, -118.5808972, 0.100, 10:08:38.519, 11, 0.00, 0.07, 97, 0.400, 0.000, -66.900, 238, 100, 100, 20, 25602, -3740, 5105, 5263, 23, 11, 1530810518.519, 85, 0, 1024, 1024, 1024, 1024, 0, 6, 4274, 4289, 4244, 4242, 4252, 4252, 0, 1, 3601, -89.900, 0.000, -68.400, 0.000, 0.000, -0.500, 0.0, , , , , , 95, , , 13, 13, 13
35.7013532, -118.5808972, 0.200, 10:08:38.619, 11, 0.00, 0.08, 97, 0.200, -0.200, -66.900, 238, 100, 100, 20, 25602, -3740, 5105, 5263, 23, 11, 1530810518.619, 87, 0, 1024, 1024, 1024, 1024, 0, 6, 4274, 4289, 4244, 4242, 4252, 4252, 0, 1, 3701, -89.900, 0.000, -68.400, 0.000, 0.000, -0.500, 0.0, , , , , , 95, , , 13, 13, 13
35.7013531, -118.5808971, 0.200, 10:08:38.719, 11, 0.00, 0.09, 97, -0.100, -0.200, -67.000, 238, 100, 100, 20, 25602, -3740, 5105, 5263, 23, 11, 1530810518.719, 64, 0, 1024, 1024, 1024, 1024, 0, 6, 4274, 4289, 4244, 4242, 4252, 4252, 0, 1, 3801, -90.000, 0.000, -68.400, 0.000, 0.000, -0.500, 0.0, , , , , , 95, , , 13, 13, 13
35.7013531, -118.5808971, 0.300, 10:08:38.819, 11, 0.00, 0.09, 97, 0.000, -0.200, -67.100, 238, 100, 100, 20, 25602, -3740, 5105, 5263, 23, 11, 1530810518.819, 70, 0, 1024, 1024, 1024, 1024, 0, 6, 4274, 4289, 4244, 4242, 4252, 4252, 0, 1, 3901, -90.000, 0.000, -68.400, 0.000, 0.000, -0.500, 0.0, , , , , , 95, , , 13, 13, 13
35.7013531, -118.5808971, 0.300, 10:08:38.919, 11, 0.00, 0.09, 97, 0.100, 0.000, -67.300, 238, 100, 100, 20, 25602, -3740, 5105, 5263, 23, 11, 1530810518.919, 63, 0, 1024, 1024, 1024, 1024, 0, 6, 4274, 4289, 4244, 4242, 4252, 4252, 0, 1, 4001, -90.000, 0.000, -68.300, 0.000, 0.000, -0.400, 0.0, , , , , , 95, , , 13, 13, 13
35.7013531, -118.5808971, 0.400, 10:08:39.019, 11, 0.00, 0.09, 97, 0.300, -0.400, -67.400, 238, 100, 100, 20, 24703, -9806, 5105, 5263, 23, 11, 1530810519.019, 70, 0, 1024, 1024, 1024, 1024, 0, 6, 4099, 4040, 4069, 4100, 4062, 4050, 0, 1, 4101, -90.000, 0.000, -68.300, 0.000, 0.000, -0.500, 0.0, , , , , , 95, , , 13, 13, 13
35.7013530, -118.5808971, 0.500, 10:08:39.119, 11, 0.00, 0.09, 97, 0.400, -0.500, -67.400, 238, 100, 100, 20, 24703, -9806, 5105, 5263, 23, 11, 1530810519.119, 49, 0, 1024, 1024, 1024, 1024, 0, 6, 4099, 4040, 4069, 4100, 4062, 4050, 0, 1, 4201, -90.000, 0.000, -68.300, 0.000, 0.000, -0.400, 0.0, , , , , , 95, , , 13, 13, 13
35.7013530, -118.5808971, 0.500, 10:08:39.219, 11, 0.00, 0.10, 97, 0.400, -0.500, -67.400, 238, 100, 100, 20, 24703, -9806, 5105, 5263, 23, 11, 1530810519.219, 54, 0, 1024, 1024, 1024, 1024, 0, 6, 4099, 4040, 4069, 4100, 4062, 4050, 0, 1, 4301, -89.900, 0.000, -68.300, 0.000, 0.000, -0.400, 0.0, , , , , , 95, , , 13, 13, 13
35.7013530, -118.5808971, 0.600, 10:08:39.319, 11, 0.00, 0.09, 97, 0.300, 0.000, -67.300, 238, 100, 100, 20, 24703, -9806, 5105, 5263, 23, 11, 1530810519.319, 45, 0, 1024, 1024, 1024, 1024, 0, 6, 4099, 4040, 4069, 4100, 4062, 4050, 0, 1, 4401, -89.900, 0.000, -68.300, 0.000, 0.000, -0.500, 0.0, , , , , , 95, , , 13, 13, 13
35.7013529, -118.5808972, 0.600, 10:08:39.418, 11, 0.00, 0.09, 97, 0.300, 0.000, -67.300, 238, 100, 100, 20, 24703, -9806, 5105, 5263, 23, 11, 1530810519.418, 38, 0, 1024, 1024, 1024, 1024, 0, 6, 4099, 4040, 4069, 4100, 4062, 4050, 0, 1, 4500, -89.900, 0.000, -68.300, 0.000, 0.000, -0.400, 0.0, , , , , , 95, , , 13, 13, 13
35.7013529, -118.5808972, 0.700, 10:08:39.519, 11, 0.00, 0.09, 97, 0.400, 0.100, -67.200, 238, 100, 100, 20, 24703, -9806, 5105, 5263, 23, 11, 1530810519.519, 28, 0, 1024, 1024, 1024, 1024, 0, 6, 4099, 4040, 4069, 4100, 4062, 4050, 0, 1, 4601, -89.900, 0.000, -68.300, 0.000, 0.000, -0.400, 0.0, , , , , , 95, , , 13, 13, 13
35.7013529, -118.5808973, 0.700, 10:08:39.619, 10, 0.00, 0.09, 97, 0.500, 0.200, -67.100, 238, 100, 100, 20, 24703, -9806, 5105, 5263, 23, 11, 1530810519.619, 32, 0, 1024, 1024, 1024, 1024, 0, 6, 4099, 4040, 4069, 4100, 4062, 4050, 0, 1, 4701, -89.900, 0.000, -68.300, 0.000, 0.000, -0.400, 0.0, , , , , , 95, , , 13, 13, 13
35.7013529, -118.5808973, 0.800, 10:08:39.718, 10, 0.00, 0.09, 97, 0.800, 0.400, -67.000, 238, 100, 100, 20, 24703, -9806, 5105, 5263, 23, 11, 1530810519.719, 26, 0, 1024, 1024, 1024, 1024, 0, 6, 4099, 4040, 4069, 4100, 4062, 4050, 0, 1, 4801, -89.900, 0.000, -68.300, 0.000, 0.000, -0.400, 0.0, , , , , , 95, , , 13, 13, 13
35.7013528, -118.5808974, 0.800, 10:08:39.819, 9, 0.00, 0.09, 97, 1.200, 0.400, -67.000, 238, 100, 100, 20, 24703, -9806, 5105, 5263, 23, 11, 1530810519.819, 21, 0, 1024, 1024, 1024, 1024, 0, 6, 4099, 4040, 4069, 4100, 4062, 4050, 0, 1, 4901, -89.900, 0.000, -68.300, 0.000, 0.000, -0.500, 0.0, , , , , , 95, , , 13, 13, 13
35.7013528, -118.5808974, 0.900, 10:08:39.919, 9, 0.00, 0.09, 97, 1.100, 0.300, -66.900, 238, 100, 100, 20, 23936, -16462, 5105, 5263, 23, 11, 1530810519.919, 28, 0, 1024, 1024, 1024, 1024, 0, 6, 3978, 3972, 3994, 3994, 3964, 3984, 0, 1, 5001, -89.900, 0.000, -68.300, 0.000, 0.000, -0.400, 0.0, , , , , , 95, , , 13, 13, 13
35.7013528, -118.5808974, 0.900, 10:08:40.019, 9, 0.00, 0.09, 97, 1.100, 0.300, -66.900, 238, 100, 100, 20, 23936, -16462, 5105, 5263, 23, 11, 1530810520.019, 128, 0, 1024, 1024, 1024, 1024, 0, 6, 3978, 3972, 3994, 3994, 3964, 3984, 0, 1, 5101, -89.900, 0.000, -68.300, 0.000, 0.000, -0.400, 0.0, , , , , , 95, , , 13, 13, 13
35.7013527, -118.5808974, 0.900, 10:08:40.118, 9, 0.00, 0.10, 97, 1.000, 0.300, -67.000, 238, 100, 100, 20, 23936, -16462, 5105, 5263, 23, 14, 1530810520.118, 96, 0, 1024, 1024, 1024, 1024, 0, 6, 3978, 3972, 3994, 3994, 3964, 3984, 0, 1, 5200, -89.900, 0.000, -68.300, 0.000, 0.000, -0.400, 0.0, , , , , , 95, , , 13, 13, 13
35.7013526, -118.5808974, 0.900, 10:08:40.218, 9, 0.00, 0.10, 97, 0.900, 0.100, -67.000, 238, 100, 100, 20, 23936, -16462, 5105, 5263, 23, 14, 1530810520.218, 81, 0, 1024, 1024, 1024, 1024, 0, 6, 3978, 3972, 3994, 3994, 3964, 3984, 0, 1, 5300, -89.900, 0.000, -68.300, 0.000, 0.000, -0.300, 0.0, , , , , , 95, , , 13, 13, 13
35.7013526, -118.5808975, 0.900, 10:08:40.318, 10, 0.00, 0.10, 97, 0.800, 0.000, -66.900, 238, 100, 100, 20, 23936, -16462, 5105, 5263, 23, 14, 1530810520.318, 89, 0, 1024, 1024, 1024, 1024, 0, 6, 3978, 3972, 3994, 3994, 3964, 3984, 0, 1, 5400, -89.900, 0.000, -68.200, 0.000, 0.000, -0.100, 0.0, , , , , , 95, , , 13, 13, 13
35.7013525, -118.5808975, 1.000, 10:08:40.418, 11, 0.00, 0.11, 97, 0.900, 0.000, -66.800, 238, 100, 100, 20, 23936, -16462, 5105, 5263, 23, 14, 1530810520.418, 88, 0, 1024, 1024, 1024, 1024, 0, 6, 3978, 3972, 3994, 3994, 3964, 3984, 0, 1, 5500, -90.000, 0.000, -68.200, 0.000, 0.000, -0.300, 0.0, , , , , , 95, , , 13, 13, 13
35.7013525, -118.5808976, 1.100, 10:08:40.518, 11, 0.00, 0.11, 97, 1.000, 0.200, -66.700, 238, 100, 100, 20, 23936, -16462, 5105, 5263, 23, 14, 1530810520.518, 4, 0, 1024, 1024, 1024, 1024, 0, 6, 3978, 3972, 3994, 3994, 3964, 3984, 0, 1, 5600, -89.900, 0.000, -68.200, 0.000, 0.000, -0.600, 0.0, , , , , , 95, , , 13, 13, 13
35.7013525, -118.5808976, 1.100, 10:08:40.618, 11, 0.00, 0.11, 97, 1.000, 0.200, -66.700, 238, 100, 100, 20, 23936, -16462, 5105, 5263, 23, 14, 1530810520.618, 104, 0, 1024, 1024, 1024, 1024, 0, 6, 3978, 3972, 3994, 3994, 3964, 3984, 0, 1, 5700, -89.900, 0.000, -68.200, 0.000, 0.000, -0.600, 0.0, , , , , , 95, , , 13, 13, 13
35.7013525, -118.5808977, 1.100, 10:08:40.718, 11, 0.00, 0.11, 97, 0.900, 0.400, -66.700, 238, 100, 100, 20, 23936, -16462, 5105, 5263, 23, 14, 1530810520.718, 74, 0, 1024, 1024, 1024, 1024, 0, 6, 3978, 3972, 3994, 3994, 3964, 3984, 0, 1, 5800, -89.900, 0.000, -68.200, 0.000, 0.000, -0.800, 0.0, , , , , , 95, , , 13, 13, 13
35.7013525, -118.5808977, 1.200, 10:08:40.818, 11, 0.00, 0.11, 97, 0.600, 0.600, -66.800, 238, 100, 100, 20, 23936, -16462, 5105, 5263, 23, 14, 1530810520.818, 74, 0, 1024, 1024, 1024, 1024, 0, 6, 3978, 3972, 3994, 3994, 3964, 3984, 0, 1, 5900, -89.900, 0.000, -68.100, 0.000, 0.000, -0.900, 0.0, , , , , , 95, , , 13, 13, 13
35.7013525, -118.5808978, 1.300, 10:08:40.918, 11, 0.00, 0.10, 97, 0.400, 0.700, -66.900, 238, 100, 100, 20, 23936, -16462, 5105, 5263, 23, 14, 1530810520.918, 52, 0, 1024, 1024, 1024, 1024, 0, 6, 3978, 3972, 3994, 3994, 3964, 3984, 0, 1, 6000, -89.900, 0.000, -68.100, 0.000, 0.000, -1.100, 0.0, , , , , , 95, , , 13, 13, 13
35.7013526, -118.5808978, 1.400, 10:08:41.018, 11, 0.00, 0.10, 97, 0.400, 0.700, -66.900, 238, 100, 100, 20, 23669, -17170, 5105, 5263, 23, 14, 1530810521.018, 74, 0, 1024, 1024, 1024, 1024, 0, 6, 3921, 3940, 3950, 3967, 3936, 4016, 0, 1, 6100, -89.900, 0.000, -68.100, 0.000, 0.000, -1.200, 0.0, , , , , , 95, , , 13, 13, 13
35.7013526, -118.5808977, 1.500, 10:08:41.118, 11, 0.00, 0.10, 97, 0.500, 0.600, -67.000, 238, 100, 100, 20, 23669, -17170, 5105, 5263, 23, 14, 1530810521.118, 65, 0, 1024, 1024, 1024, 1024, 0, 6, 3921, 3940, 3950, 3967, 3936, 4016, 0, 1, 6200, -89.900, 0.000, -68.100, 0.000, 0.000, -1.400, 0.0, , , , , , 95, , , 13, 13, 13
35.7013526, -118.5808977, 1.600, 10:08:41.218, 11, 0.00, 0.10, 97, 0.700, 0.300, -67.000, 238, 100, 100, 20, 23669, -17170, 5105, 5263, 23, 14, 1530810521.218, 67, 0, 1024, 1024, 1024, 1024, 0, 6, 3921, 3940, 3950, 3967, 3936, 4016, 0, 1, 6300, -89.900, 0.000, -68.100, 0.000, 0.000, -1.800, 0.0, , , , , , 95, , , 13, 13, 13
35.7013526, -118.5808976, 1.800, 10:08:41.318, 11, 0.00, 0.10, 97, 0.600, 0.000, -67.100, 238, 100, 100, 20, 23669, -17170, 5105, 5263, 23, 14, 1530810521.318, 43, 0, 1024, 1024, 1024, 1024, 0, 6, 3921, 3940, 3950, 3967, 3936, 4016, 0, 1, 6400, -90.000, 0.000, -68.100, 0.000, 0.000, -2.000, 0.0, , , , , , 95, , , 13, 13, 13
35.7013526, -118.5808975, 2.000, 10:08:41.418, 11, 0.00, 0.10, 97, 0.300, -0.100, -67.100, 238, 100, 100, 20, 23669, -17170, 5105, 5263, 23, 14, 1530810521.418, 44, 0, 1024, 1024, 1024, 1024, 0, 6, 3921, 3940, 3950, 3967, 3936, 4016, 0, 1, 6500, -90.000, 0.000, -68.100, 0.000, 0.000, -2.400, 0.0, , , , , , 95, , , 13, 13, 13
35.7013527, -118.5808975, 2.300, 10:08:41.518, 11, 0.00, 0.10, 97, 0.200, -0.200, -67.100, 238, 100, 100, 20, 23669, -17170, 5105, 5263, 23, 14, 1530810521.518, 48, 0, 1024, 1024, 1024, 1024, 0, 6, 3921, 3940, 3950, 3967, 3936, 4016, 0, 1, 6600, -90.000, 0.000, -68.000, 0.000, 0.000, -2.500, 0.0, , , , , , 95, , , 13, 13, 13
35.7013527, -118.5808974, 2.500, 10:08:41.618, 12, 0.00, 0.10, 97, 0.100, -0.200, -67.200, 238, 100, 100, 20, 23669, -17170, 5105, 5263, 23, 14, 1530810521.618, 62, 0, 1024, 1024, 1024, 1024, 0, 6, 3921, 3940, 3950, 3967, 3936, 4016, 0, 1, 6700, -90.000, 0.000, -68.000, 0.000, 0.000, -2.800, 0.0, , , , , , 95, , , 13, 13, 13
35.7013528, -118.5808973, 2.800, 10:08:41.718, 12, 0.00, 0.10, 97, -0.100, -0.100, -67.200, 238, 100, 100, 20, 23669, -17170, 5105, 5263, 23, 14, 1530810521.718, 39, 0, 1024, 1024, 1024, 1024, 0, 6, 3921, 3940, 3950, 3967, 3936, 4016, 0, 1, 6800, -90.000, 0.000, -68.000, 0.000, 0.000, -3.100, 0.0, , , , , , 95, , , 13, 13, 13
35.7013528, -118.5808972, 3.200, 10:08:41.818, 11, 0.00, 0.10, 97, -0.400, 0.000, -67.100, 238, 100, 100, 20, 23669, -17170, 5105, 5263, 23, 14, 1530810521.818, 31, 0, 1024, 1024, 1024, 1024, 0, 6, 3921, 3940, 3950, 3967, 3936, 4016, 0, 1, 6900, -90.000, 0.000, -68.000, 0.000, 0.000, -3.200, 0.0, , , , , , 95, , , 13, 13, 13
35.7013528, -118.5808972, 3.200, 10:08:41.918, 11, 0.00, 0.10, 97, -0.400, 0.000, -67.100, 238, 100, 100, 20, 23669, -17170, 5105, 5263, 23, 14, 1530810521.918, 131, 0, 1024, 1024, 1024, 1024, 0, 6, 3921, 3940, 3950, 3967, 3936, 4016, 0, 1, 7000, -90.000, 0.000, -68.000, 0.000, 0.000, -3.200, 0.0, , , , , , 95, , , 13, 13, 13
35.7013528, -118.5808973, 3.900, 10:08:42.018, 10, 0.00, 0.10, 97, 0.000, 0.000, -67.100, 238, 100, 100, 20, 23423, -17170, 5105, 5263, 23, 14, 1530810522.018, 26, 0, 1024, 1024, 1024, 1024, 0, 6, 3921, 3940, 3950, 3967, 3936, 4016, 0, 1, 7100, -89.900, 0.000, -68.000, 0.000, 0.000, -3.300, 0.0, , , , , , 95, , , 13, 13, 13
35.7013529, -118.5808973, 4.200, 10:08:42.118, 10, 0.00, 0.08, 97, 0.300, 0.200, -67.100, 238, 100, 100, 20, 23423, -17170, 5105, 5263, 23, 14, 1530810522.118, 10, 0, 1024, 1024, 1024, 1024, 0, 6, 3921, 3940, 3950, 3967, 3936, 4016, 0, 1, 7200, -89.900, 0.000, -68.000, 0.000, 0.000, -3.400, 0.0, , , , , , 95, , , 13, 13, 13
35.7013530, -118.5808975, 4.600, 10:08:42.218, 9, 0.00, 0.07, 97, 0.300, 0.600, -67.100, 238, 100, 100, 20, 23423, -17170, 5105, 5263, 23, 14, 1530810522.218, 10, 0, 1024, 1024, 1024, 1024, 0, 6, 3921, 3940, 3950, 3967, 3936, 4016, 0, 1, 7300, -89.900, 0.000, -68.000, 0.000, 0.000, -3.400, 0.0, , , , , , 95, , , 13, 13, 13
35.7013530, -118.5808977, 4.900, 10:08:42.318, 9, 0.00, 0.06, 97, 0.400, 1.000, -67.100, 238, 100, 100, 20, 23423, -17170, 5105, 5263, 23, 14, 1530810522.318, 13, 0, 1024, 1024, 1024, 1024, 0, 6, 3921, 3940, 3950, 3967, 3936, 4016, 0, 1, 7400, -89.900, 0.000, -68.000, 0.000, 0.000, -3.300, 0.0, , , , , , 95, , , 13, 13, 13
35.7013529, -118.5808978, 5.300, 10:08:42.417, 10, 0.00, 0.06, 97, 0.600, 1.400, -67.000, 238, 100, 100, 20, 23423, -17170, 5105, 5263, 23, 14, 1530810522.418, 4, 0, 1024, 1024, 1024, 1024, 0, 6, 3828, 3861, 3877, 3923, 3878, 3876, 0, 1, 7500, -89.900, 0.000, -68.000, 0.000, 0.000, -3.300, 0.0, , , , , , 95, , , 13, 13, 13
35.7013529, -118.5808978, 5.300, 10:08:42.518, 10, 0.00, 0.06, 97, 0.600, 1.400, -67.000, 238, 100, 100, 20, 23423, -17170, 5105, 5263, 23, 14, 1530810522.518, 104, 0, 1024, 1024, 1024, 1024, 0, 6, 3828, 3861, 3877, 3923, 3878, 3876, 0, 1, 7600, -89.900, 0.000, -68.000, 0.000, 0.000, -3.300, 0.0, , , , , , 95, , , 13, 13, 13
35.7013528, -118.5808979, 5.600, 10:08:42.618, 10, 0.00, 0.07, 97, 0.600, 1.200, -67.000, 238, 100, 100, 20, 23423, -17170, 5105, 5263, 23, 14, 1530810522.618, 98, 0, 1024, 1024, 1024, 1024, 0, 6, 3828, 3861, 3877, 3923, 3878, 3876, 0, 1, 7700, -89.900, 0.000, -68.000, 0.000, 0.000, -3.200, 0.0, , , , , , 95, , , 13, 13, 13
35.7013528, -118.5808979, 5.900, 10:08:42.718, 11, 0.00, 0.08, 97, 0.900, 0.700, -66.900, 238, 100, 100, 20, 23423, -17170, 5105, 5263, 23, 14, 1530810522.718, 82, 0, 1024, 1024, 1024, 1024, 0, 6, 3828, 3861, 3877, 3923, 3878, 3876, 0, 1, 7800, -90.000, 0.000, -68.000, 0.000, 0.000, -3.300, 0.0, , , , , , 95, , , 13, 13, 13
35.7013528, -118.5808977, 6.600, 10:08:42.818, 11, 0.00, 0.08, 97, 0.700, 0.000, -66.900, 238, 100, 100, 20, 23423, -17170, 5105, 5263, 23, 14, 1530810522.818, 85, 0, 1024, 1024, 1024, 1024, 0, 6, 3828, 3861, 3877, 3923, 3878, 3876, 0, 1, 7900, -90.000, 0.000, -68.000, 0.000, 0.000, -3.300, 0.0, , , , , , 95, , , 13, 13, 13
35.7013528, -118.5808977, 7.000, 10:08:42.918, 11, 0.00, 0.08, 97, 0.500, -0.100, -66.900, 238, 100, 100, 20, 23423, -17170, 5105, 5263, 23, 14, 1530810522.918, 78, 0, 1024, 1024, 1024, 1024, 0, 6, 3828, 3861, 3877, 3923, 3878, 3876, 0, 1, 8000, -90.000, 0.000, -68.000, 0.000, 0.000, -3.200, 0.0, , , , , , 95, , , 13, 13, 13
35.7013528, -118.5808976, 7.300, 10:08:43.018, 11, 0.00, 0.08, 97, 0.300, -0.100, -66.800, 238, 100, 100, 20, 23423, -17170, 5105, 5263, 23, 14, 1530810523.018, 47, 0, 1024, 1024, 1024, 1024, 0, 6, 3828, 3861, 3877, 3923, 3878, 3876, 0, 1, 8100, -90.000, 0.000, -68.000, 0.000, 0.000, -3.200, 0.0, , , , , , 95, , , 13, 13, 13
35.7013528, -118.5808975, 7.600, 10:08:43.118, 11, 0.00, 0.08, 97, 0.300, 0.000, -66.800, 238, 100, 100, 20, 23423, -17170, 5105, 5263, 23, 14, 1530810523.118, 77, 0, 1024, 1024, 1024, 1024, 0, 6, 3828, 3861, 3877, 3923, 3878, 3876, 0, 1, 8200, -90.000, 0.000, -68.000, 0.000, 0.000, -3.200, 0.0, , , , , , 95, , , 13, 13, 13
35.7013528, -118.5808975, 7.900, 10:08:43.218, 10, 0.00, 0.08, 97, 0.400, 0.000, -66.800, 238, 100, 100, 20, 23423, -17170, 5105, 5263, 23, 14, 1530810523.218, 55, 0, 1024, 1024, 1024, 1024, 0, 6, 3828, 3861, 3877, 3923, 3878, 3876, 0, 1, 8300, -90.000, 0.000, -68.000, 0.000, 0.000, -3.200, 0.0, , , , , , 95, , , 13, 13, 13
35.7013527, -118.5808976, 8.300, 10:08:43.318, 10, 0.00, 0.09, 97, 0.400, 0.000, -66.800, 238, 100, 100, 20, 23423, -17170, 5105, 5263, 23, 14, 1530810523.318, 59, 0, 1024, 1024, 1024, 1024, 0, 6, 3828, 3861, 3877, 3923, 3878, 3876, 0, 1, 8400, -90.000, 0.000, -68.000, 0.000, 0.000, -3.200, 0.0, , , , , , 95, , , 13, 13, 13
35.7013527, -118.5808976, 8.600, 10:08:43.417, 12, 0.00, 0.09, 97, 0.500, 0.000, -66.800, 238, 100, 100, 20, 23423, -17170, 5105, 5263, 23, 14, 1530810523.418, 51, 0, 1024, 1024, 1024, 1024, 0, 6, 3828, 3861, 3877, 3923, 3878, 3876, 0, 1, 8500, -90.000, 0.000, -68.000, 0.000, 0.000, -3.100, 0.0, , , , , , 95, , , 13, 13, 13
35.7013528, -118.5808976, 8.900, 10:08:43.518, 12, 0.00, 0.08, 96, 0.400, 0.000, -66.800, 238, 100, 100, 20, 22748, -20957, 5052, 5263, 23, 14, 1530810523.518, 54, 0, 1024, 1024, 1024, 1024, 0, 6, 3823, 3836, 3831, 3839, 3791, 3845, 0, 1, 8600, -90.000, 0.000, -68.000, 0.000, 0.000, -3.200, 0.0, , , , , , 95, , , 13, 13, 13
35.7013528, -118.5808976, 9.200, 10:08:43.618, 14, 0.00, 0.08, 96, 0.500, 0.000, -66.900, 238, 100, 100, 20, 22748, -20957, 5052, 5263, 23, 14, 1530810523.618, 58, 0, 1024, 1024, 1024, 1024, 0, 6, 3823, 3836, 3831, 3839, 3791, 3845, 0, 1, 8700, -90.000, 0.000, -68.000, 0.000, 0.000, -3.200, 0.0, , , , , , 95, , , 13, 13, 13
35.7013527, -118.5808976, 9.600, 10:08:43.718, 14, 0.00, 0.08, 96, 0.700, 0.000, -67.000, 238, 100, 100, 20, 22748, -20957, 5052, 5263, 23, 14, 1530810523.718, 52, 0, 1024, 1024, 1024, 1024, 0, 6, 3823, 3836, 3831, 3839, 3791, 3845, 0, 1, 8800, -89.900, 0.000, -68.000, 0.000, 0.000, -3.100, 0.0, , , , , , 95, , , 13, 13, 13
35.7013527, -118.5808976, 9.900, 10:08:43.818, 14, 0.00, 0.09, 96, 0.700, 0.000, -67.100, 238, 100, 100, 20, 22748, -20957, 5052, 5263, 23, 14, 1530810523.818, 54, 0, 1024, 1024, 1024, 1024, 0, 6, 3823, 3836, 3831, 3839, 3791, 3845, 0, 1, 8900, -89.900, 0.000, -68.000, 0.000, 0.000, -3.000, 0.0, , , , , , 95, , , 13, 13, 13
35.7013526, -118.5808976, 10.200, 10:08:43.918, 14, 0.00, 0.10, 96, 0.500, 0.000, -67.000, 238, 100, 100, 20, 22748, -20957, 5052, 5263, 23, 14, 1530810523.918, 24, 0, 1024, 1024, 1024, 1024, 0, 6, 3823, 3836, 3831, 3839, 3791, 3845, 0, 1, 9000, -90.000, 0.000, -68.000, 0.000, 0.000, -3.100, 0.0, , , , , , 95, , , 13, 13, 13
35.7013526, -118.5808975, 10.500, 10:08:44.018, 14, 0.00, 0.10, 96, 0.200, 0.000, -66.900, 238, 100, 100, 20, 22748, -20957, 5052, 5263, 23, 14, 1530810524.018, 18, 0, 1024, 1024, 1024, 1024, 0, 6, 3823, 3836, 3831, 3839, 3791, 3845, 0, 1, 9100, -90.000, 0.000, -68.000, 0.000, 0.000, -3.100, 0.0, , , , , , 95, , , 13, 13, 13
35.7013526, -118.5808976, 10.800, 10:08:44.119, 14, 0.00, 0.10, 96, 0.200, -0.200, -66.800, 238, 100, 100, 20, 22748, -20957, 5052, 5263, 23, 14, 1530810524.119, 26, 0, 1024, 1024, 1024, 1024, 0, 6, 3823, 3836, 3831, 3839, 3791, 3845, 0, 1, 9201, -90.000, 0.000, -68.000, 0.000, 0.000, -3.100, 0.0, , , , , , 95, , , 13, 13, 13
35.7013526, -118.5808976, 11.100, 10:08:44.219, 14, 0.00, 0.10, 96, 0.200, -0.200, -66.700, 238, 100, 100, 20, 22748, -20957, 5052, 5263, 23, 14, 1530810524.219, 27, 0, 1024, 1024, 1024, 1024, 0, 6, 3823, 3836, 3831, 3839, 3791, 3845, 0, 1, 9301, -90.000, 0.000, -68.000, 0.000, 0.000, -3.100, 0.0, , , , , , 95, , , 13, 13, 13
35.7013525, -118.5808976, 11.400, 10:08:44.319, 14, 0.00, 0.11, 96, 0.300, -0.200, -66.700, 238, 100, 100, 20, 22748, -20957, 5052, 5263, 23, 14, 1530810524.319, 3, 0, 1024, 1024, 1024, 1024, 0, 6, 3823, 3836, 3831, 3839, 3791, 3845, 0, 1, 9401, -89.900, 0.000, -68.000, 0.000, 0.000, -3.100, 0.0, , , , , , 95, , , 13, 13, 13
35.7013525, -118.5808976, 11.700, 10:08:44.417, 14, 0.00, 0.11, 96, 0.500, -0.100, -66.700, 238, 100, 100, 20, 23077, -20682, 5052, 5263, 23, 14, 1530810524.417, 16, 0, 1024, 1024, 1024, 1024, 0, 6, 3826, 3839, 3862, 3887, 3833, 3854, 0, 1, 9500, -90.000, 0.000, -68.000, 0.000, 0.000, -3.000, 0.0, , , , , , 95, , , 13, 13, 13
35.7013525, -118.5808976, 11.700, 10:08:44.518, 14, 0.00, 0.11, 96, 0.500, -0.100, -66.700, 238, 100, 100, 20, 23077, -20682, 5052, 5263, 23, 14, 1530810524.519, 117, 0, 1024, 1024, 1024, 1024, 0, 6, 3826, 3839, 3862, 3887, 3833, 3854, 0, 1, 9601, -90.000, 0.000, -68.000, 0.000, 0.000, -3.000, 0.0, , , , , , 95, , , 13, 13, 13
35.7013524, -118.5808976, 12.400, 10:08:44.619, 15, 0.00, 0.12, 96, 0.900, 0.100, -66.800, 238, 100, 100, 20, 23077, -20682, 5052, 5263, 23, 14, 1530810524.619, 93, 0, 1024, 1024, 1024, 1024, 0, 6, 3826, 3839, 3862, 3887, 3833, 3854, 0, 1, 9701, -89.900, 0.000, -68.000, 0.000, 0.000, -3.100, 0.0, , , , , , 95, , , 13, 13, 13
35.7013524, -118.5808976, 12.400, 10:08:44.719, 15, 0.00, 0.12, 96, 0.900, 0.100, -66.800, 238, 100, 100, 20, 23077, -20682, 5052, 5263, 23, 14, 1530810524.719, 193, 0, 1024, 1024, 1024, 1024, 0, 6, 3826, 3839, 3862, 3887, 3833, 3854, 0, 1, 9801, -89.900, 0.000, -68.000, 0.000, 0.000, -3.100, 0.0, , , , , , 95, , , 13, 13, 13
35.7013524, -118.5808976, 12.700, 10:08:44.819, 15, 0.00, 0.12, 96, 0.900, 0.400, -66.900, 238, 100, 100, 20, 23077, -20682, 5052, 5263, 23, 14, 1530810524.819, 86, 0, 1024, 1024, 1024, 1024, 0, 6, 3826, 3839, 3862, 3887, 3833, 3854, 0, 1, 9901, -89.900, 0.000, -68.000, 0.000, 0.000, -3.000, 0.0, , , , , , 95, , , 13, 13, 13
35.7013524, -118.5808975, 13.300, 10:08:44.917, 13, 0.00, 0.12, 96, 0.600, 0.300, -67.200, 238, 100, 100, 20, 23077, -20682, 5052, 5263, 23, 14, 1530810524.918, 85, 0, 1024, 1024, 1024, 1024, 0, 6, 3826, 3839, 3862, 3887, 3833, 3854, 0, 1, 10000, -89.900, 0.000, -68.000, 0.000, 0.000, -3.000, 0.0, , , , , , 95, , , 13, 13, 13
35.7013524, -118.5808975, 13.600, 10:08:45.019, 14, 0.00, 0.12, 96, 0.500, 0.100, -67.300, 238, 100, 100, 20, 23077, -20682, 5052, 5263, 23, 14, 1530810525.019, 78, 0, 1024, 1024, 1024, 1024, 0, 6, 3826, 3839, 3862, 3887, 3833, 3854, 0, 1, 10101, -89.900, 0.000, -68.000, 0.000, 0.000, -3.000, 0.0, , , , , , 95, , , 13, 13, 13
35.7013525, -118.5808974, 13.900, 10:08:45.119, 14, 0.00, 0.12, 96, 0.100, 0.000, -67.400, 238, 100, 100, 20, 23077, -20682, 5052, 5263, 23, 14, 1530810525.119, 79, 0, 1024, 1024, 1024, 1024, 0, 6, 3826, 3839, 3862, 3887, 3833, 3854, 0, 1, 10201, -90.000, 0.000, -68.000, 0.000, 0.000, -3.000, 0.0, , , , , , 95, , , 13, 13, 13
35.7013526, -118.5808973, 14.200, 10:08:45.219, 15, 0.00, 0.12, 96, -0.300, -0.200, -67.300, 238, 100, 100, 20, 23077, -20682, 5052, 5263, 23, 14, 1530810525.219, 87, 0, 1024, 1024, 1024, 1024, 0, 6, 3826, 3839, 3862, 3887, 3833, 3854, 0, 1, 10301, -90.000, 0.000, -68.000, 0.000, 0.000, -3.000, 0.0, , , , , , 95, , , 13, 13, 13
35.7013527, -118.5808971, 14.500, 10:08:45.319, 15, 0.00, 0.11, 96, -0.900, -0.200, -67.300, 238, 100, 100, 20, 23077, -20682, 5052, 5263, 23, 14, 1530810525.319, 79, 0, 1024, 1024, 1024, 1024, 0, 6, 3826, 3839, 3862, 3887, 3833, 3854, 0, 1, 10401, -90.000, 0.000, -68.000, 0.000, 0.000, -3.000, 0.0, , , , , , 95, , , 13, 13, 13
35.7013529, -118.5808970, 14.900, 10:08:45.417, 15, 0.00, 0.11, 96, -1.300, -0.100, -67.200, 238, 100, 100, 20, 23077, -20682, 5052, 5263, 23, 14, 1530810525.417, 52, 0, 1024, 1024, 1024, 1024, 0, 6, 3826, 3839, 3862, 3887, 3833, 3854, 0, 1, 10500, -89.900, 0.000, -68.000, 0.000, 0.000, -3.100, 0.0, , , , , , 95, , , 13, 13, 13
35.7013529, -118.5808970, 15.200, 10:08:45.519, 15, 0.00, 0.11, 96, -1.500, -0.100, -67.100, 238, 100, 100, 20, 23109, -20145, 5052, 5263, 23, 14, 1530810525.519, 60, 0, 1024, 1024, 1024, 1024, 0, 6, 3830, 3845, 3866, 3890, 3833, 3863, 0, 1, 10601, -89.900, 0.000, -68.000, 0.000, 0.000, -3.000, 0.0, , , , , , 95, , , 13, 13, 13
35.7013529, -118.5808969, 15.500, 10:08:45.619, 15, 0.00, 0.12, 96, -1.200, -0.100, -67.000, 238, 100, 99, 20, 23109, -20145, 5052, 5263, 23, 14, 1530810525.619, 61, 0, 1024, 1024, 1024, 1024, 0, 6, 3830, 3845, 3866, 3890, 3833, 3863, 0, 1, 10701, -89.900, 0.000, -68.000, 0.000, 0.000, -2.900, 0.0, , , , , , 95, , , 13, 13, 13
35.7013528, -118.5808969, 15.800, 10:08:45.719, 15, 0.00, 0.12, 96, -0.800, -0.100, -67.000, 238, 100, 99, 20, 23109, -20145, 5052, 5263, 23, 14, 1530810525.719, 36, 0, 1024, 1024, 1024, 1024, 0, 6, 3830, 3845, 3866, 3890, 3833, 3863, 0, 1, 10801, -90.000, 0.000, -68.000, 0.000, 0.000, -2.900, 0.0, , , , , , 95, , , 13, 13, 13
35.7013528, -118.5808969, 16.100, 10:08:45.819, 16, 0.00, 0.12, 96, -0.500, -0.100, -67.000, 238, 100, 99, 20, 23109, -20145, 5052, 5263, 23, 14, 1530810525.819, 54, 0, 1024, 1024, 1024, 1024, 0, 6, 3830, 3845, 3866, 3890, 3833, 3863, 0, 1, 10901, -90.000, 0.000, -68.000, 0.000, 0.000, -3.000, 0.0, , , , , , 95, , , 13, 13, 13
35.7013528, -118.5808969, 16.400, 10:08:45.919, 16, 0.00, 0.12, 96, -0.200, -0.100, -67.000, 238, 100, 99, 20, 23109, -20145, 5052, 5263, 23, 14, 1530810525.919, 55, 0, 1024, 1024, 1024, 1024, 0, 6, 3830, 3845, 3866, 3890, 3833, 3863, 0, 1, 11001, -89.900, 0.000, -68.000, 0.000, 0.000, -3.000, 0.0, , , , , , 95, , , 13, 13, 13
35.7013528, -118.5808969, 16.700, 10:08:46.019, 15, 0.00, 0.12, 96, -0.100, 0.000, -67.100, 238, 100, 99, 20, 23109, -20145, 5052, 5263, 23, 14, 1530810526.019, 45, 0, 1024, 1024, 1024, 1024, 0, 6, 3830, 3845, 3866, 3890, 3833, 3863, 0, 1, 11101, -89.900, 0.000, -68.000, 0.000, 0.000, -3.000, 0.0, , , , , , 95, , , 13, 13, 13
35.7013528, -118.5808969, 17.000, 10:08:46.118, 15, 0.00, 0.12, 96, 0.000, 0.200, -67.100, 238, 100, 99, 20, 23109, -20145, 5052, 5263, 23, 14, 1530810526.118, 40, 0, 1024, 1024, 1024, 1024, 0, 6, 3830, 3845, 3866, 3890, 3833, 3863, 0, 1, 11200, -89.900, 0.000, -68.000, 0.000, 0.000, -3.000, 0.0, , , , , , 95, , , 13, 13, 13
35.7013528, -118.5808969, 17.300, 10:08:46.218, 15, 0.00, 0.12, 96, -0.200, 0.200, -67.100, 238, 100, 99, 20, 23109, -20145, 5052, 5263, 23, 14, 1530810526.218, 26, 0, 1024, 1024, 1024, 1024, 0, 6, 3830, 3845, 3866, 3890, 3833, 3863, 0, 1, 11300, -89.900, 0.000, -68.000, 0.000, 0.000, -3.000, 0.0, , , , , , 95, , , 13, 13, 13
35.7013528, -118.5808969, 17.300, 10:08:46.318, 15, 0.00, 0.12, 96, -0.200, 0.200, -67.100, 238, 100, 99, 20, 23109, -20145, 5052, 5263, 23, 14, 1530810526.318, 126, 0, 1024, 1024, 1024, 1024, 0, 6, 3830, 3845, 3866, 3890, 3833, 3863, 0, 1, 11400, -89.900, 0.000, -68.000, 0.000, 0.000, -3.000, 0.0, , , , , , 95, , , 13, 13, 13
35.7013529, -118.5808969, 17.900, 10:08:46.417, 16, 0.00, 0.12, 96, -0.100, 0.400, -67.100, 238, 100, 99, 20, 23148, -19735, 5052, 5263, 23, 14, 1530810526.417, 44, 0, 1024, 1024, 1024, 1024, 0, 6, 3834, 3847, 3853, 3881, 3821, 3864, 0, 1, 11500, -89.900, 0.000, -68.000, 0.000, 0.000, -2.900, 0.0, , , , , , 95, , , 13, 13, 13
35.7013529, -118.5808969, 18.200, 10:08:46.518, 16, 0.00, 0.12, 96, -0.200, 0.500, -67.100, 238, 100, 99, 20, 23148, -19735, 5052, 5263, 23, 14, 1530810526.518, 25, 0, 1024, 1024, 1024, 1024, 0, 6, 3834, 3847, 3853, 3881, 3821, 3864, 0, 1, 11600, -89.900, 0.000, -68.000, 0.000, 0.000, -3.000, 0.0, , , , , , 95, , , 13, 13, 13
35.7013529, -118.5808968, 18.500, 10:08:46.618, 16, 0.00, 0.12, 96, -0.400, 0.400, -67.000, 238, 100, 99, 20, 23148, -19735, 5052, 5263, 23, 14, 1530810526.618, 28, 0, 1024, 1024, 1024, 1024, 0, 6, 3834, 3847, 3853, 3881, 3821, 3864, 0, 1, 11700, -89.900, 0.000, -68.000, 0.000, 0.000, -3.000, 0.0, , , , , , 95, , , 13, 13, 13
35.7013529, -118.5808968, 18.500, 10:08:46.718, 16, 0.00, 0.12, 96, -0.400, 0.400, -67.000, 238, 100, 99, 20, 23148, -19735, 5052, 5263, 23, 14, 1530810526.718, 128, 0, 1024, 1024, 1024, 1024, 0, 6, 3834, 3847, 3853, 3881, 3821, 3864, 0, 1, 11800, -90.000, 0.000, -68.000, 0.000, 0.000, -3.000, 0.0, , , , , , 95, , , 13, 13, 13
35.7013530, -118.5808968, 19.100, 10:08:46.821, 15, 0.00, 0.12, 96, -0.900, 0.000, -66.800, 238, 100, 99, 20, 23148, -19735, 5052, 5263, 23, 14, 1530810526.821, 2, 0, 1024, 1024, 1024, 1024, 0, 6, 3834, 3847, 3853, 3881, 3821, 3864, 0, 1, 11903, -90.000, 0.000, -68.000, 0.000, 0.000, -2.900, 0.0, , , , , , 95, , , 13, 13, 13
35.7013530, -118.5808968, 19.400, 10:08:46.918, 15, 0.00, 0.12, 96, -1.000, 0.000, -66.700, 238, 100, 99, 20, 23148, -19735, 5052, 5263, 23, 14, 1530810526.918, 2, 0, 1024, 1024, 1024, 1024, 0, 6, 3834, 3847, 3853, 3881, 3821, 3864, 0, 1, 12000, -90.000, 0.000, -68.000, 0.000, 0.000, -2.900, 0.0, , , , , , 95, , , 13, 13, 13
35.7013530, -118.5808967, 19.700, 10:08:47.018, 15, 0.00, 0.12, 96, -0.800, 0.100, -66.700, 238, 100, 94, 20, 23148, -19735, 5052, 5263, 23, 14, 1530810527.018, 6, 0, 1024, 1024, 1024, 1024, 0, 6, 3834, 3847, 3853, 3881, 3821, 3864, 0, 1, 12100, -90.000, 0.000, -68.000, 0.000, 0.000, -2.900, 0.0, , , , , , 95, , , 13, 13, 13
35.7013530, -118.5808967, 20.000, 10:08:47.118, 15, 0.00, 0.13, 96, -0.700, 0.000, -66.700, 238, 100, 94, 20, 23148, -19735, 5052, 5263, 23, 14, 1530810527.118, 7, 0, 1024, 1024, 1024, 1024, 0, 6, 3834, 3847, 3853, 3881, 3821, 3864, 0, 1, 12200, -90.000, 0.000, -68.000, 0.000, 0.000, -2.900, 0.0, , , , , , 95, , , 13, 13, 13
35.7013529, -118.5808967, 20.600, 10:08:47.227, 16, 0.00, 0.13, 96, -0.200, -0.400, -66.800, 238, 100, 94, 20, 23148, -19735, 5052, 5263, 23, 14, 1530810527.227, 1, 0, 1024, 1024, 1024, 1024, 0, 6, 3834, 3847, 3853, 3881, 3821, 3864, 0, 1, 12309, -90.000, 0.000, -68.000, 0.000, 0.000, -2.900, 0.0, , , , , , 95, , , 13, 13, 13
35.7013529, -118.5808967, 20.600, 10:08:47.317, 16, 0.00, 0.13, 96, -0.200, -0.400, -66.800, 238, 100, 94, 20, 23148, -19735, 5052, 5263, 23, 14, 1530810527.318, 92, 0, 1024, 1024, 1024, 1024, 0, 6, 3834, 3847, 3853, 3881, 3821, 3864, 0, 1, 12400, -90.000, 0.000, -68.000, 0.000, 0.000, -2.900, 0.0, , , , , , 95, , , 13, 13, 13
35.7013529, -118.5808967, 20.900, 10:08:47.417, 16, 0.00, 0.13, 96, -0.100, 0.000, -66.900, 238, 100, 94, 20, 23148, -19735, 5052, 5263, 23, 14, 1530810527.417, 98, 0, 1024, 1024, 1024, 1024, 0, 6, 3834, 3847, 3853, 3881, 3821, 3864, 0, 1, 12500, -89.900, 0.000, -68.000, 0.000, 0.000, -3.000, 0.0, , , , , , 95, , , 13, 13, 13
35.7013528, -118.5808967, 21.200, 10:08:47.517, 16, 0.00, 0.13, 96, -0.100, 0.000, -67.000, 238, 100, 94, 20, 23098, -19580, 5052, 5263, 23, 14, 1530810527.517, 87, 0, 1024, 1024, 1024, 1024, 0, 6, 3834, 3847, 3853, 3881, 3821, 3864, 0, 1, 12599, -89.900, 0.000, -68.000, 0.000, 0.000, -3.000, 0.0, , , , , , 95, , , 13, 13, 13
35.7013528, -118.5808966, 21.500, 10:08:47.617, 16, 0.00, 0.14, 96, -0.300, -0.400, -67.200, 238, 100, 94, 20, 23098, -19580, 5052, 5263, 23, 14, 1530810527.618, 77, 0, 1024, 1024, 1024, 1024, 0, 6, 3834, 3847, 3853, 3881, 3821, 3864, 0, 1, 12700, -90.000, 0.000, -68.000, 0.000, 0.000, -2.900, 0.0, , , , , , 95, , , 13, 13, 13
35.7013528, -118.5808966, 21.800, 10:08:47.717, 16, 0.00, 0.14, 96, -0.100, -0.800, -67.200, 238, 100, 94, 20, 23098, -19580, 5052, 5263, 23, 14, 1530810527.718, 80, 0, 1024, 1024, 1024, 1024, 0, 6, 3834, 3847, 3853, 3881, 3821, 3864, 0, 1, 12800, -90.000, 0.000, -68.000, 0.000, 0.000, -2.900, 0.0, , , , , , 95, , , 13, 13, 13
35.7013528, -118.5808966, 21.800, 10:08:47.818, 16, 0.00, 0.14, 96, -0.100, -0.800, -67.200, 238, 100, 94, 20, 23098, -19580, 5052, 5263, 23, 14, 1530810527.818, 180, 0, 1024, 1024, 1024, 1024, 0, 6, 3834, 3847, 3853, 3881, 3821, 3864, 0, 1, 12900, -90.000, 0.000, -68.000, 0.000, 0.000, -2.900, 0.0, , , , , , 95, , , 13, 13, 13
35.7013527, -118.5808965, 22.300, 10:08:47.917, 16, 0.00, 0.16, 96, 0.400, -1.000, -66.800, 238, 100, 94, 20, 23098, -19580, 5052, 5263, 23, 14, 1530810527.918, 61, 0, 1024, 1024, 1024, 1024, 0, 6, 3834, 3847, 3853, 3881, 3821, 3864, 0, 1, 13000, -90.000, 0.000, -68.000, 0.000, 0.000, -2.900, 0.0, , , , , , 95, , , 13, 13, 13
35.7013526, -118.5808965, 22.600, 10:08:48.017, 16, 0.00, 0.16, 96, 0.400, -0.900, -66.300, 238, 100, 94, 20, 23098, -19580, 5052, 5263, 23, 14, 1530810528.018, 49, 0, 1024, 1024, 1024, 1024, 0, 6, 3830, 3842, 3856, 3885, 3826, 3859, 0, 1, 13100, -90.000, 0.000, -68.000, 0.000, 0.000, -2.900, 0.0, , , , , , 95, , , 13, 13, 13
35.7013526, -118.5808964, 22.900, 10:08:48.117, 16, 0.00, 0.17, 96, 0.300, -1.000, -65.800, 238, 100, 97, 20, 23098, -19580, 5052, 5263, 23, 14, 1530810528.118, 67, 0, 1024, 1024, 1024, 1024, 0, 6, 3830, 3842, 3856, 3885, 3826, 3859, 0, 1, 13200, -90.000, 0.000, -68.000, 0.000, 0.000, -2.900, 0.0, , , , , , 95, , , 13, 13, 13
35.7013526, -118.5808964, 23.200, 10:08:48.217, 16, 0.00, 0.17, 96, 0.100, -1.100, -65.600, 238, 100, 97, 20, 23098, -19580, 5052, 5263, 23, 14, 1530810528.217, 56, 0, 1024, 1024, 1024, 1024, 0, 6, 3830, 3842, 3856, 3885, 3826, 3859, 0, 1, 13300, -90.000, 0.000, -68.000, 0.000, 0.000, -3.000, 0.0, , , , , , 95, , , 13, 13, 13
35.7013525, -118.5808964, 23.600, 10:08:48.317, 16, 0.00, 0.17, 96, 0.100, -1.100, -65.500, 238, 100, 97, 20, 23098, -19580, 5052, 5263, 23, 14, 1530810528.318, 48, 0, 1024, 1024, 1024, 1024, 0, 6, 3830, 3842, 3856, 3885, 3826, 3859, 0, 1, 13400, -90.000, 0.000, -68.000, 0.000, 0.000, -3.000, 0.0, , , , , , 95, , , 13, 13, 13
35.7013525, -118.5808964, 23.900, 10:08:48.417, 16, 0.00, 0.18, 96, 0.100, -1.200, -65.700, 238, 100, 97, 20, 23098, -19580, 5052, 5263, 23, 14, 1530810528.417, 53, 0, 1024, 1024, 1024, 1024, 0, 6, 3830, 3842, 3856, 3885, 3826, 3859, 0, 1, 13499, -90.000, 0.000, -68.000, 0.000, 0.000, -3.000, 0.0, , , , , , 95, , , 13, 13, 13
35.7013525, -118.5808963, 24.200, 10:08:48.517, 16, 0.00, 0.18, 96, 0.000, -1.100, -66.100, 238, 100, 96, 20, 23098, -19580, 5052, 5263, 23, 14, 1530810528.518, 42, 0, 1024, 1024, 1024, 1024, 0, 6, 3830, 3842, 3856, 3885, 3826, 3859, 0, 1, 13600, -90.000, 0.000, -68.000, 0.000, 0.000, -2.900, 0.0, , , , , , 95, , , 13, 13, 13
35.7013525, -118.5808963, 24.500, 10:08:48.617, 17, 0.00, 0.19, 96, -0.200, -1.000, -66.500, 238, 100, 96, 20, 23098, -19580, 5052, 5263, 23, 14, 1530810528.618, 45, 0, 1024, 1024, 1024, 1024, 0, 6, 3830, 3842, 3856, 3885, 3826, 3859, 0, 1, 13700, -90.000, 0.000, -68.000, 0.000, 0.000, -2.900, 0.0, , , , , , 95, , , 13, 13, 13
35.7013525, -118.5808962, 24.700, 10:08:48.717, 17, 0.00, 0.19, 96, -0.300, -0.900, -67.000, 238, 100, 96, 20, 23098, -19580, 5052, 5263, 23, 14, 1530810528.717, 24, 0, 1024, 1024, 1024, 1024, 0, 6, 3830, 3842, 3856, 3885, 3826, 3859, 0, 1, 13800, -90.000, 0.000, -68.000, 0.000, 0.000, -2.900, 0.0, , , , , , 95, , , 13, 13, 13
35.7013526, -118.5808962, 25.000, 10:08:48.817, 17, 0.00, 0.19, 96, -0.400, -1.200, -67.400, 238, 100, 96, 20, 23098, -19580, 5052, 5263, 23, 14, 1530810528.818, 10, 0, 1024, 1024, 1024, 1024, 0, 6, 3830, 3842, 3856, 3885, 3826, 3859, 0, 1, 13900, -90.000, 0.000, -68.000, 0.000, 0.000, -3.000, 0.0, , , , , , 95, , , 13, 13, 13
35.7013525, -118.5808961, 25.300, 10:08:48.917, 17, 0.00, 0.20, 96, -0.200, -1.400, -67.900, 238, 100, 96, 20, 23051, -19989, 5052, 5263, 23, 14, 1530810528.918, 14, 0, 1024, 1024, 1024, 1024, 0, 6, 3830, 3842, 3856, 3885, 3826, 3859, 0, 1, 14000, -90.000, 0.000, -68.000, 0.000, 0.000, -3.000, 0.0, , , , , , 95, , , 13, 13, 13
35.7013525, -118.5808961, 25.600, 10:08:49.017, 17, 0.00, 0.20, 96, -0.100, -1.200, -68.300, 238, 100, 96, 20, 23051, -19989, 5052, 5263, 23, 14, 1530810529.018, 15, 0, 1024, 1024, 1024, 1024, 0, 6, 3820, 3835, 3846, 3872, 3812, 3852, 0, 1, 14100, -90.000, 0.000, -68.000, 0.000, 0.000, -2.900, 0.0, , , , , , 95, , , 13, 13, 13
35.7013525, -118.5808961, 25.900, 10:08:49.117, 17, 0.00, 0.20, 96, -0.100, -1.000, -68.500, 238, 100, 96, 20, 23051, -19989, 5052, 5263, 23, 14, 1530810529.118, 10, 0, 1024, 1024, 1024, 1024, 0, 6, 3820, 3835, 3846, 3872, 3812, 3852, 0, 1, 14200, -89.900, 0.000, -68.000, 0.000, 0.000, -2.800, 0.0, , , , , , 95, , , 13, 13, 13
35.7013525, -118.5808961, 25.900, 10:08:49.217, 17, 0.00, 0.20, 96, -0.100, -1.000, -68.500, 238, 100, 96, 20, 23051, -19989, 5052, 5263, 23, 14, 1530810529.218, 110, 0, 1024, 1024, 1024, 1024, 0, 6, 3820, 3835, 3846, 3872, 3812, 3852, 0, 1, 14300, -89.900, 0.000, -68.000, 0.000, 0.000, -2.800, 0.0, , , , , , 95, , , 13, 13, 13
35.7013525, -118.5808961, 25.900, 10:08:49.317, 17, 0.00, 0.20, 96, -0.100, -1.000, -68.500, 238, 100, 96, 20, 23051, -19989, 5052, 5263, 23, 14, 1530810529.317, 210, 0, 1024, 1024, 1024, 1024, 0, 6, 3820, 3835, 3846, 3872, 3812, 3852, 0, 1, 14400, -89.900, 0.000, -68.000, 0.000, 0.000, -2.800, 0.0, , , , , , 95, , , 13, 13, 13
35.7013524, -118.5808962, 26.500, 10:08:49.417, 17, 0.00, 0.20, 96, 0.100, -0.800, -68.300, 238, 100, 96, 20, 23051, -19989, 5052, 5263, 23, 14, 1530810529.417, 79, 0, 1024, 1024, 1024, 1024, 0, 6, 3820, 3835, 3846, 3872, 3812, 3852, 0, 1, 14499, -90.000, 0.000, -68.000, 0.000, 0.000, -2.900, 0.0, , , , , , 95, , , 13, 13, 13
35.7013523, -118.5808962, 27.100, 10:08:49.517, 17, 0.00, 0.20, 96, 0.800, -1.300, -67.700, 238, 100, 96, 20, 23051, -19989, 5052, 5263, 23, 14, 1530810529.517, 78, 0, 1024, 1024, 1024, 1024, 0, 6, 3820, 3835, 3846, 3872, 3812, 3852, 0, 1, 14600, -90.000, 0.000, -68.000, 0.000, 0.000, -3.000, 0.0, , , , , , 95, , , 13, 13, 13
35.7013523, -118.5808962, 27.400, 10:08:49.617, 17, 0.00, 0.20, 96, 0.700, -1.300, -67.300, 238, 100, 96, 20, 23051, -19989, 5052, 5263, 23, 14, 1530810529.618, 98, 0, 1024, 1024, 1024, 1024, 0, 6, 3820, 3835, 3846, 3872, 3812, 3852, 0, 1, 14700, -90.000, 0.000, -68.000, 0.000, 0.000, -3.000, 0.0, , , , , , 95, , , 13, 13, 13
35.7013523, -118.5808962, 27.400, 10:08:49.717, 17, 0.00, 0.20, 96, 0.700, -1.300, -67.300, 238, 100, 96, 20, 23051, -19989, 5052, 5263, 23, 14, 1530810529.718, 198, 0, 1024, 1024, 1024, 1024, 0, 6, 3820, 3835, 3846, 3872, 3812, 3852, 0, 1, 14800, -90.000, 0.000, -68.000, 0.000, 0.000, -3.000, 0.0, , , , , , 95, , , 13, 13, 13
35.7013523, -118.5808963, 28.000, 10:08:49.817, 17, 0.00, 0.20, 96, 0.400, -0.600, -66.800, 238, 100, 96, 20, 23051, -19989, 5052, 5263, 23, 14, 1530810529.818, 77, 0, 1024, 1024, 1024, 1024, 0, 6, 3820, 3835, 3846, 3872, 3812, 3852, 0, 1, 14900, -89.900, 0.000, -68.000, 0.000, 0.000, -2.900, 0.0, , , , , , 95, , , 13, 13, 13
35.7013523, -118.5808963, 28.300, 10:08:49.917, 17, 0.00, 0.20, 96, 0.300, -0.400, -66.600, 238, 100, 96, 20, 23051, -19989, 5052, 5263, 23, 14, 1530810529.917, 77, 0, 1024, 1024, 1024, 1024, 0, 6, 3820, 3835, 3846, 3872, 3812, 3852, 0, 1, 15000, -89.900, 0.000, -68.000, 0.000, 0.000, -2.900, 0.0, , , , , , 95, , , 13, 13, 13
35.7013523, -118.5808963, 28.600, 10:08:50.017, 17, 0.00, 0.20, 96, 0.200, -0.300, -66.500, 238, 100, 96, 20, 23031, -20068, 5052, 5263, 23, 14, 1530810530.017, 69, 0, 1024, 1024, 1024, 1024, 0, 6, 3812, 3825, 3835, 3863, 3804, 3843, 0, 1, 15099, -89.900, 0.000, -68.000, 0.000, 0.000, -2.900, 0.0, , , , , , 95, , , 13, 13, 13
35.7013524, -118.5808963, 28.900, 10:08:50.117, 17, 0.00, 0.19, 96, 0.200, -0.300, -66.600, 238, 100, 97, 20, 23031, -20068, 5052, 5263, 23, 14, 1530810530.118, 64, 0, 1024, 1024, 1024, 1024, 0, 6, 3812, 3825, 3835, 3863, 3804, 3843, 0, 1, 15200, -89.900, 0.000, -68.000, 0.000, 0.000, -3.000, 0.0, , , , , , 95, , , 13, 13, 13
35.7013524, -118.5808963, 29.300, 10:08:50.217, 17, 0.00, 0.19, 96, 0.100, -0.500, -66.700, 238, 100, 97, 20, 23031, -20068, 5052, 5263, 23, 14, 1530810530.218, 69, 0, 1024, 1024, 1024, 1024, 0, 6, 3812, 3825, 3835, 3863, 3804, 3843, 0, 1, 15300, -89.900, 0.000, -68.000, 0.000, 0.000, -2.900, 0.0, , , , , , 95, , , 13, 13, 13
35.7013524, -118.5808963, 29.500, 10:08:50.317, 17, 0.00, 0.19, 96, 0.000, -0.700, -66.800, 238, 100, 97, 20, 23031, -20068, 5052, 5263, 23, 14, 1530810530.318, 64, 0, 1024, 1024, 1024, 1024, 0, 6, 3812, 3825, 3835, 3863, 3804, 3843, 0, 1, 15400, -90.000, 0.000, -68.000, 0.000, 0.000, -2.900, 0.0, , , , , , 95, , , 13, 13, 13
35.7013523, -118.5808963, 29.800, 10:08:50.417, 17, 0.00, 0.19, 96, 0.000, -0.700, -66.900, 238, 100, 97, 20, 23031, -20068, 5052, 5263, 23, 14, 1530810530.417, 77, 0, 1024, 1024, 1024, 1024, 0, 6, 3812, 3825, 3835, 3863, 3804, 3843, 0, 1, 15499, -90.000, 0.000, -68.000, 0.000, 0.000, -2.900, 0.0, , , , , , 95, , , 13, 13, 13
35.7013523, -118.5808964, 30.100, 10:08:50.517, 17, 0.00, 0.19, 96, 0.200, -0.600, -66.900, 238, 100, 97, 20, 23031, -20068, 5052, 5263, 23, 14, 1530810530.518, 44, 0, 1024, 1024, 1024, 1024, 0, 6, 3812, 3825, 3835, 3863, 3804, 3843, 0, 1, 15600, -89.900, 0.000, -68.000, 0.000, 0.000, -2.900, 0.0, , , , , , 95, , , 13, 13, 13
35.7013523, -118.5808964, 30.400, 10:08:50.617, 17, 0.00, 0.19, 96, 0.600, -0.600, -66.900, 238, 100, 95, 20, 23031, -20068, 5052, 5263, 23, 14, 1530810530.617, 51, 0, 1024, 1024, 1024, 1024, 0, 6, 3812, 3825, 3835, 3863, 3804, 3843, 0, 1, 15699, -90.000, 0.000, -68.000, 0.000, 0.000, -2.900, 0.0, , , , , , 95, , , 13, 13, 13
35.7013523, -118.5808964, 30.700, 10:08:50.717, 17, 0.00, 0.19, 96, 0.800, -0.700, -67.000, 238, 100, 95, 20, 23031, -20068, 5052, 5263, 23, 14, 1530810530.718, 42, 0, 1024, 1024, 1024, 1024, 0, 6, 3812, 3825, 3835, 3863, 3804, 3843, 0, 1, 15800, -90.000, 0.000, -68.000, 0.000, 0.000, -2.900, 0.0, , , , , , 95, , , 13, 13, 13
35.7013523, -118.5808965, 31.000, 10:08:50.817, 17, 0.00, 0.19, 96, 0.700, -0.700, -67.000, 238, 100, 95, 20, 23031, -20068, 5052, 5263, 23, 14, 1530810530.817, 55, 0, 1024, 1024, 1024, 1024, 0, 6, 3812, 3825, 3835, 3863, 3804, 3843, 0, 1, 15900, -90.000, 0.000, -68.000, 0.000, 0.000, -3.000, 0.0, , , , , , 95, , , 13, 13, 13
35.7013522, -118.5808965, 31.300, 10:08:50.917, 17, 0.00, 0.19, 96, 0.600, -0.600, -67.000, 238, 100, 95, 20, 22964, -20083, 5052, 5263, 23, 14, 1530810530.918, 47, 0, 1024, 1024, 1024, 1024, 0, 6, 3800, 3819, 3828, 3866, 3800, 3825, 0, 1, 16000, -89.900, 0.000, -68.000, 0.000, 0.000, -2.900, 0.0, , , , , , 95, , , 13, 13, 13
35.7013522, -118.5808966, 31.600, 10:08:51.016, 17, 0.00, 0.18, 96, 0.500, -0.500, -67.100, 238, 100, 95, 20, 22964, -20083, 5052, 5263, 23, 14, 1530810531.017, 23, 0, 1024, 1024, 1024, 1024, 0, 6, 3800, 3819, 3828, 3866, 3800, 3825, 0, 1, 16099, -89.900, 0.000, -68.000, 0.000, 0.000, -3.000, 0.0, , , , , , 95, , , 13, 13, 13
35.7013523, -118.5808966, 31.900, 10:08:51.117, 17, 0.00, 0.18, 96, 0.400, -0.400, -67.100, 238, 100, 95, 20, 22964, -20083, 5052, 5263, 23, 14, 1530810531.118, 43, 0, 1024, 1024, 1024, 1024, 0, 6, 3800, 3819, 3828, 3866, 3800, 3825, 0, 1, 16200, -89.900, 0.000, -68.000, 0.000, 0.000, -3.000, 0.0, , , , , , 95, , , 13, 13, 13
35.7013523, -118.5808967, 32.300, 10:08:51.217, 17, 0.00, 0.18, 96, 0.400, -0.400, -67.200, 238, 100, 95, 20, 22964, -20083, 5052, 5263, 23, 14, 1530810531.218, 45, 0, 1024, 1024, 1024, 1024, 0, 6, 3800, 3819, 3828, 3866, 3800, 3825, 0, 1, 16300, -90.000, 0.000, -68.000, 0.000, 0.000, -3.100, 0.0, , , , , , 95, , , 13, 13, 13
35.7013523, -118.5808967, 32.600, 10:08:51.317, 17, 0.00, 0.17, 96, 0.400, -0.500, -67.200, 238, 100, 95, 20, 22964, -20083, 5052, 5263, 23, 14, 1530810531.317, 7, 0, 1024, 1024, 1024, 1024, 0, 6, 3800, 3819, 3828, 3866, 3800, 3825, 0, 1, 16399, -89.900, 0.000, -68.000, 0.000, 0.000, -3.000, 0.0, , , , , , 95, , , 13, 13, 13
35.7013523, -118.5808967, 32.900, 10:08:51.417, 17, 0.00, 0.17, 96, 0.500, -0.400, -67.200, 238, 100, 95, 20, 22964, -20083, 5052, 5263, 23, 14, 1530810531.417, 26, 0, 1024, 1024, 1024, 1024, 0, 6, 3800, 3819, 3828, 3866, 3800, 3825, 0, 1, 16500, -89.900, 0.000, -68.000, 0.000, 0.000, -3.000, 0.0, , , , , , 95, , , 13, 13, 13
35.7013523, -118.5808968, 33.200, 10:08:51.517, 17, 0.00, 0.17, 96, 0.500, -0.400, -67.200, 238, 100, 97, 20, 22964, -20083, 5052, 5263, 23, 14, 1530810531.518, 28, 0, 1024, 1024, 1024, 1024, 0, 6, 3800, 3819, 3828, 3866, 3800, 3825, 0, 1, 16600, -89.900, 0.000, -68.000, 0.000, 0.000, -3.000, 0.0, , , , , , 95, , , 13, 13, 13
35.7013523, -118.5808968, 33.500, 10:08:51.618, 17, 0.00, 0.17, 96, 0.500, -0.400, -67.100, 238, 100, 97, 20, 22964, -20083, 5052, 5263, 23, 14, 1530810531.619, 5, 0, 1024, 1024, 1024, 1024, 0, 6, 3800, 3819, 3828, 3866, 3800, 3825, 0, 1, 16701, -89.900, 0.000, -68.000, 0.000, 0.000, -3.000, 0.0, , , , , , 95, , , 13, 13, 13
35.7013523, -118.5808968, 33.500, 10:08:51.717, 17, 0.00, 0.17, 96, 0.500, -0.400, -67.100, 238, 100, 97, 20, 22964, -20083, 5052, 5263, 23, 14, 1530810531.718, 103, 0, 1024, 1024, 1024, 1024, 0, 6, 3800, 3819, 3828, 3866, 3800, 3825, 0, 1, 16800, -89.900, 0.000, -68.000, 0.000, 0.000, -3.000, 0.0, , , , , , 95, , , 13, 13, 13
35.7013523, -118.5808968, 33.800, 10:08:51.817, 17, 0.00, 0.16, 96, 0.500, -0.300, -67.000, 238, 100, 97, 20, 22964, -20083, 5052, 5263, 23, 14, 1530810531.818, 92, 0, 1024, 1024, 1024, 1024, 0, 6, 3800, 3819, 3828, 3866, 3800, 3825, 0, 1, 16900, -89.900, 0.000, -68.000, 0.000, 0.000, -3.000, 0.0, , , , , , 95, , , 13, 13, 13
35.7013523, -118.5808969, 34.600, 10:08:51.916, 17, 0.00, 0.16, 96, 0.600, -0.200, -67.000, 238, 100, 97, 21, 22854, -20983, 5052, 5263, 23, 14, 1530810531.917, 6, 0, 1024, 1024, 1024, 1024, 0, 6, 3786, 3806, 3811, 3839, 3780, 3829, 0, 1, 16999, -89.900, 0.000, -68.000, 0.000, 0.000, -2.900, 0.0, , , , , , 95, , , 13, 13, 13
35.7013523, -118.5808969, 34.600, 10:08:52.018, 17, 0.00, 0.16, 96, 0.600, -0.200, -67.000, 238, 100, 98, 21, 22854, -20983, 5052, 5263, 23, 14, 1530810532.018, 107, 0, 1024, 1024, 1024, 1024, 0, 6, 3786, 3806, 3811, 3839, 3780, 3829, 0, 1, 17100, -89.900, 0.000, -68.000, 0.000, 0.000, -2.900, 0.0, , , , , , 95, , , 13, 13, 13
35.7013523, -118.5808969, 35.200, 10:08:52.120, 17, 0.00, 0.16, 96, 0.300, -0.300, -67.100, 238, 100, 98, 21, 22854, -20983, 5052, 5263, 23, 14, 1530810532.120, 2, 0, 1024, 1024, 1024, 1024, 0, 6, 3786, 3806, 3811, 3839, 3780, 3829, 0, 1, 17202, -89.900, 0.000, -68.000, 0.000, 0.000, -2.900, 0.0, , , , , , 95, , , 13, 13, 13
35.7013523, -118.5808969, 35.200, 10:08:52.217, 17, 0.00, 0.16, 96, 0.300, -0.300, -67.100, 238, 100, 98, 21, 22854, -20983, 5052, 5263, 23, 14, 1530810532.217, 99, 0, 1024, 1024, 1024, 1024, 0, 6, 3786, 3806, 3811, 3839, 3780, 3829, 0, 1, 17300, -89.900, 0.000, -68.000, 0.000, 0.000, -2.900, 0.0, , , , , , 95, , , 13, 13, 13
35.7013524, -118.5808968, 35.500, 10:08:52.317, 17, 0.00, 0.16, 96, 0.200, -0.500, -67.100, 238, 100, 98, 21, 22854, -20983, 5052, 5263, 23, 14, 1530810532.317, 90, 0, 1024, 1024, 1024, 1024, 0, 6, 3786, 3806, 3811, 3839, 3780, 3829, 0, 1, 17400, -89.900, 0.000, -68.000, 0.000, 0.000, -3.000, 0.0, , , , , , 95, , , 13, 13, 13
35.7013524, -118.5808968, 35.800, 10:08:52.416, 17, 0.00, 0.16, 96, 0.200, -0.500, -67.100, 238, 100, 98, 21, 22854, -20983, 5052, 5263, 23, 14, 1530810532.417, 80, 0, 1024, 1024, 1024, 1024, 0, 6, 3786, 3806, 3811, 3839, 3780, 3829, 0, 1, 17499, -90.000, 0.000, -68.000, 0.000, 0.000, -3.000, 0.0, , , , , , 95, , , 13, 13, 13
35.7013524, -118.5808968, 36.100, 10:08:52.517, 17, 0.00, 0.16, 96, 0.200, -0.500, -67.000, 238, 100, 98, 21, 22854, -20983, 5052, 5263, 23, 14, 1530810532.517, 61, 0, 1024, 1024, 1024, 1024, 0, 6, 3786, 3806, 3811, 3839, 3780, 3829, 0, 1, 17600, -89.900, 0.000, -68.000, 0.000, 0.000, -3.000, 0.0, , , , , , 95, , , 13, 13, 13
35.7013524, -118.5808968, 36.400, 10:08:52.617, 17, 0.00, 0.15, 96, 0.200, -0.600, -67.000, 238, 100, 99, 21, 22854, -20983, 5052, 5263, 23, 14, 1530810532.617, 69, 0, 1024, 1024, 1024, 1024, 0, 6, 3786, 3806, 3811, 3839, 3780, 3829, 0, 1, 17700, -89.900, 0.000, -68.000, 0.000, 0.000, -3.000, 0.0, , , , , , 95, , , 13, 13, 13
35.7013524, -118.5808968, 36.800, 10:08:52.717, 17, 0.00, 0.15, 96, 0.100, -0.500, -66.900, 238, 100, 99, 21, 22854, -20983, 5052, 5263, 23, 14, 1530810532.717, 61, 0, 1024, 1024, 1024, 1024, 0, 6, 3786, 3806, 3811, 3839, 3780, 3829, 0, 1, 17800, -89.900, 0.000, -68.000, 0.000, 0.000, -3.000, 0.0, , , , , , 95, , , 13, 13, 13
35.7013525, -118.5808968, 37.100, 10:08:52.817, 17, 0.00, 0.15, 96, 0.100, -0.500, -66.900, 238, 100, 99, 21, 22854, -20983, 5052, 5263, 23, 14, 1530810532.817, 64, 0, 1024, 1024, 1024, 1024, 0, 6, 3786, 3806, 3811, 3839, 3780, 3829, 0, 1, 17899, -89.900, 0.000, -68.000, 0.000, 0.000, -3.000, 0.0, , , , , , 95, , , 13, 13, 13
35.7013525, -118.5808968, 37.400, 10:08:52.916, 17, 0.00, 0.15, 96, 0.000, -0.500, -66.800, 238, 100, 99, 21, 22854, -20983, 5052, 5263, 23, 14, 1530810532.916, 57, 0, 1024, 1024, 1024, 1024, 0, 6, 3786, 3806, 3811, 3839, 3780, 3829, 0, 1, 17999, -89.900, 0.000, -68.000, 0.000, 0.000, -3.000, 0.0, , , , , , 95, , , 13, 13, 13
35.7013525, -118.5808968, 37.700, 10:08:53.016, 17, 0.00, 0.15, 96, 0.000, -0.400, -66.800, 238, 100, 99, 21, 22913, -19929, 5052, 5263, 23, 14, 1530810533.017, 49, 0, 1024, 1024, 1024, 1024, 0, 6, 3786, 3806, 3811, 3839, 3780, 3829, 0, 1, 18099, -89.900, 0.000, -68.000, 0.000, 0.000, -3.000, 0.0, , , , , , 95, , , 13, 13, 13
35.7013525, -118.5808969, 38.000, 10:08:53.117, 17, 0.00, 0.15, 96, 0.000, -0.400, -66.800, 238, 100, 99, 21, 22913, -19929, 5052, 5263, 23, 14, 1530810533.117, 52, 0, 1024, 1024, 1024, 1024, 0, 6, 3786, 3806, 3811, 3839, 3780, 3829, 0, 1, 18200, -90.000, 0.000, -68.000, 0.000, 0.000, -3.000, 0.0, , , , , , 95, , , 13, 13, 13
35.7013525, -118.5808969, 38.300, 10:08:53.217, 17, 0.00, 0.14, 96, 0.000, -0.300, -66.800, 238, 100, 99, 21, 22913, -19929, 5052, 5263, 23, 14, 1530810533.217, 47, 0, 1024, 1024, 1024, 1024, 0, 6, 3786, 3806, 3811, 3839, 3780, 3829, 0, 1, 18300, -90.000, 0.000, -68.000, 0.000, 0.000, -3.000, 0.0, , , , , , 95, , , 13, 13, 13
35.7013525, -118.5808969, 38.600, 10:08:53.317, 17, 0.00, 0.14, 96, 0.000, -0.300, -66.800, 238, 100, 99, 21, 22913, -19929, 5052, 5263, 23, 14, 1530810533.317, 32, 0, 1024, 1024, 1024, 1024, 0, 6, 3786, 3806, 3811, 3839, 3780, 3829, 0, 1, 18400, -89.900, 0.000, -68.000, 0.000, 0.000, -2.900, 0.0, , , , , , 95, , , 13, 13, 13
35.7013525, -118.5808969, 38.900, 10:08:53.417, 17, 0.00, 0.14, 96, 0.000, -0.400, -66.900, 238, 100, 99, 21, 22913, -19929, 5052, 5263, 23, 14, 1530810533.417, 37, 0, 1024, 1024, 1024, 1024, 0, 6, 3797, 3814, 3828, 3845, 3789, 3825, 0, 1, 18499, -89.900, 0.000, -68.000, 0.000, 0.000, -2.900, 0.0, , , , , , 95, , , 13, 13, 13
35.7013525, -118.5808969, 39.200, 10:08:53.517, 17, 0.00, 0.14, 96, 0.100, -0.300, -67.000, 238, 100, 99, 21, 22913, -19929, 5052, 5263, 23, 14, 1530810533.517, 6, 0, 1024, 1024, 1024, 1024, 0, 6, 3797, 3814, 3828, 3845, 3789, 3825, 0, 1, 18600, -89.900, 0.000, -68.000, 0.000, 0.000, -2.900, 0.0, , , , , , 95, , , 13, 13, 13
35.7013525, -118.5808969, 39.500, 10:08:53.617, 17, 0.00, 0.14, 96, 0.300, -0.300, -67.100, 238, 100, 99, 21, 22913, -19929, 5052, 5263, 23, 14, 1530810533.617, 3, 0, 1024, 1024, 1024, 1024, 0, 6, 3797, 3814, 3828, 3845, 3789, 3825, 0, 1, 18700, -89.900, 0.000, -68.000, 0.000, 0.000, -2.900, 0.0, , , , , , 95, , , 13, 13, 13
35.7013525, -118.5808969, 39.800, 10:08:53.717, 17, 0.00, 0.14, 96, 0.400, -0.300, -67.100, 238, 100, 99, 21, 22913, -19929, 5052, 5263, 23, 14, 1530810533.717, 7, 0, 1024, 1024, 1024, 1024, 0, 6, 3797, 3814, 3828, 3845, 3789, 3825, 0, 1, 18800, -89.900, 0.000, -68.000, 0.000, 0.000, -2.900, 0.0, , , , , , 95, , , 13, 13, 13
35.7013525, -118.5808969, 40.100, 10:08:53.817, 17, 0.00, 0.14, 96, 0.600, -0.300, -67.100, 238, 100, 99, 21, 22913, -19929, 5052, 5263, 23, 14, 1530810533.817, 12, 0, 1024, 1024, 1024, 1024, 0, 6, 3797, 3814, 3828, 3845, 3789, 3825, 0, 1, 18900, -90.000, 0.000, -68.000, 0.000, 0.000, -2.900, 0.0, , , , , , 95, , , 13, 13, 13
35.7013525, -118.5808969, 40.400, 10:08:53.917, 17, 0.00, 0.14, 96, 0.600, -0.200, -67.100, 238, 100, 99, 21, 22913, -19929, 5052, 5263, 23, 14, 1530810533.917, 4, 0, 1024, 1024, 1024, 1024, 0, 6, 3797, 3814, 3828, 3845, 3789, 3825, 0, 1, 18999, -89.900, 0.000, -68.000, 0.000, 0.000, -2.900, 0.0, , , , , , 95, , , 13, 13, 13
35.7013525, -118.5808969, 40.700, 10:08:54.017, 17, 0.00, 0.14, 96, 0.500, -0.200, -67.100, 238, 100, 97, 21, 22913, -19929, 5052, 5263, 23, 14, 1530810534.017, 6, 0, 1024, 1024, 1024, 1024, 0, 6, 3797, 3814, 3828, 3845, 3789, 3825, 0, 1, 19100, -89.900, 0.000, -68.000, 0.000, 0.000, -3.000, 0.0, , , , , , 95, , , 13, 13, 13
35.7013525, -118.5808969, 41.000, 10:08:54.119, 17, 0.00, 0.15, 96, 0.500, -0.200, -67.100, 238, 100, 97, 21, 22913, -19929, 5052, 5263, 23, 14, 1530810534.119, 1, 0, 1024, 1024, 1024, 1024, 0, 6, 3797, 3814, 3828, 3845, 3789, 3825, 0, 1, 19201, -89.900, 0.000, -68.000, 0.000, 0.000, -2.900, 0.0, , , , , , 95, , , 13, 13, 13
35.7013524, -118.5808969, 41.600, 10:08:54.218, 17, 0.00, 0.15, 96, 0.500, -0.300, -67.000, 238, 100, 97, 21, 22913, -19929, 5052, 5263, 23, 14, 1530810534.219, 1, 0, 1024, 1024, 1024, 1024, 0, 6, 3797, 3814, 3828, 3845, 3789, 3825, 0, 1, 19301, -89.900, 0.000, -68.000, 0.000, 0.000, -2.900, 0.0, , , , , , 95, , , 13, 13, 13
35.7013524, -118.5808969, 41.600, 10:08:54.317, 17, 0.00, 0.15, 96, 0.500, -0.300, -67.000, 238, 100, 97, 21, 22913, -19929, 5052, 5263, 23, 14, 1530810534.317, 100, 0, 1024, 1024, 1024, 1024, 0, 6, 3797, 3814, 3828, 3845, 3789, 3825, 0, 1, 19400, -89.900, 0.000, -68.000, 0.000, 0.000, -2.900, 0.0, , , , , , 95, , , 13, 13, 13
35.7013524, -118.5808969, 41.900, 10:08:54.417, 17, 0.00, 0.15, 96, 0.600, -0.600, -66.900, 238, 100, 97, 21, 22913, -19929, 5052, 5263, 23, 14, 1530810534.417, 83, 0, 1024, 1024, 1024, 1024, 0, 6, 3797, 3814, 3828, 3845, 3789, 3825, 0, 1, 19499, -90.000, 0.000, -68.000, 0.000, 0.000, -2.900, 0.0, , , , , , 95, , , 13, 13, 13
35.7013524, -118.5808968, 42.200, 10:08:54.517, 17, 0.00, 0.16, 95, 0.600, -0.800, -66.900, 238, 100, 97, 21, 22925, -19571, 4999, 5263, 23, 14, 1530810534.517, 89, 0, 1024, 1024, 1024, 1024, 0, 6, 3794, 3818, 3829, 3854, 3791, 3833, 0, 1, 19600, -90.000, 0.000, -68.000, 0.000, 0.000, -3.000, 0.0, , , , , , 95, , , 13, 13, 13
35.7013524, -118.5808968, 42.500, 10:08:54.617, 17, 0.00, 0.16, 95, 0.500, -0.900, -66.900, 238, 100, 97, 21, 22925, -19571, 4999, 5263, 23, 14, 1530810534.617, 74, 0, 1024, 1024, 1024, 1024, 0, 6, 3794, 3818, 3829, 3854, 3791, 3833, 0, 1, 19700, -90.000, 0.000, -68.000, 0.000, 0.000, -3.000, 0.0, , , , , , 95, , , 13, 13, 13
35.7013524, -118.5808968, 42.800, 10:08:54.717, 17, 0.00, 0.16, 95, 0.300, -1.000, -67.000, 238, 100, 97, 21, 22925, -19571, 4999, 5263, 23, 14, 1530810534.717, 76, 0, 1024, 1024, 1024, 1024, 0, 6, 3794, 3818, 3829, 3854, 3791, 3833, 0, 1, 19800, -90.000, 0.000, -68.000, 0.000, 0.000, -2.900, 0.0, , , , , , 95, , , 13, 13, 13
35.7013524, -118.5808968, 43.100, 10:08:54.817, 17, 0.00, 0.16, 95, 0.300, -1.000, -67.000, 238, 100, 97, 21, 22925, -19571, 4999, 5263, 23, 14, 1530810534.817, 68, 0, 1024, 1024, 1024, 1024, 0, 6, 3794, 3818, 3829, 3854, 3791, 3833, 0, 1, 19900, -90.000, 0.000, -68.000, 0.000, 0.000, -3.000, 0.0, , , , , , 95, , , 13, 13, 13
35.7013524, -118.5808968, 43.400, 10:08:54.916, 17, 0.00, 0.16, 95, 0.400, -0.600, -66.900, 238, 100, 97, 21, 22925, -19571, 4999, 5263, 23, 14, 1530810534.916, 72, 0, 1024, 1024, 1024, 1024, 0, 6, 3794, 3818, 3829, 3854, 3791, 3833, 0, 1, 19999, -89.900, 0.000, -68.000, 0.000, 0.000, -2.900, 0.0, , , , , , 95, , , 13, 13, 13
35.7013524, -118.5808968, 43.700, 10:08:55.017, 17, 0.00, 0.16, 95, 0.600, -0.100, -66.900, 238, 100, 97, 21, 22925, -19571, 4999, 5263, 23, 14, 1530810535.017, 64, 0, 1024, 1024, 1024, 1024, 0, 6, 3794, 3818, 3829, 3854, 3791, 3833, 0, 1, 20100, -89.900, 0.000, -68.000, 0.000, 0.000, -2.900, 0.0, , , , , , 95, , , 13, 13, 13
35.7013524, -118.5808969, 44.000, 10:08:55.116, 17, 0.00, 0.16, 95, 0.600, 0.000, -66.900, 238, 100, 100, 21, 22925, -19571, 4999, 5263, 23, 14, 1530810535.116, 42, 0, 1024, 1024, 1024, 1024, 0, 6, 3794, 3818, 3829, 3854, 3791, 3833, 0, 1, 20199, -89.900, 0.000, -68.000, 0.000, 0.000, -2.900, 0.0, , , , , , 95, , , 13, 13, 13
35.7013523, -118.5808969, 44.300, 10:08:55.217, 17, 0.00, 0.16, 95, 0.600, 0.000, -66.900, 238, 100, 100, 21, 22925, -19571, 4999, 5263, 23, 14, 1530810535.217, 47, 0, 1024, 1024, 1024, 1024, 0, 6, 3794, 3818, 3829, 3854, 3791, 3833, 0, 1, 20299, -89.900, 0.000, -68.000, 0.000, 0.000, -2.900, 0.0, , , , , , 95, , , 13, 13, 13
35.7013523, -118.5808969, 44.600, 10:08:55.317, 17, 0.00, 0.16, 95, 0.600, -0.100, -66.900, 238, 100, 100, 21, 22925, -19571, 4999, 5263, 23, 14, 1530810535.317, 39, 0, 1024, 1024, 1024, 1024, 0, 6, 3794, 3818, 3829, 3854, 3791, 3833, 0, 1, 20399, -89.900, 0.000, -68.000, 0.000, 0.000, -2.800, 0.0, , , , , , 95, , , 13, 13, 13
35.7013523, -118.5808968, 44.900, 10:08:55.417, 17, 0.00, 0.16, 95, 0.500, -0.300, -66.900, 238, 100, 100, 21, 22925, -19571, 4999, 5263, 23, 14, 1530810535.417, 41, 0, 1024, 1024, 1024, 1024, 0, 6, 3794, 3818, 3829, 3854, 3791, 3833, 0, 1, 20499, -90.000, 0.000, -68.000, 0.000, 0.000, -2.900, 0.0, , , , , , 95, , , 13, 13, 13
35.7013523, -118.5808968, 45.200, 10:08:55.517, 17, 0.00, 0.16, 95, 0.400, -0.500, -66.800, 238, 100, 100, 21, 22877, -19780, 4999, 5263, 23, 14, 1530810535.517, 31, 0, 1024, 1024, 1024, 1024, 0, 6, 3783, 3803, 3826, 3849, 3792, 3828, 0, 1, 20599, -90.000, 0.000, -68.000, 0.000, 0.000, -2.800, 0.0, , , , , , 95, , , 13, 13, 13
35.7013523, -118.5808968, 45.400, 10:08:55.616, 17, 0.00, 0.16, 95, 0.300, -0.600, -66.800, 238, 100, 100, 21, 22877, -19780, 4999, 5263, 23, 14, 1530810535.616, 27, 0, 1024, 1024, 1024, 1024, 0, 6, 3783, 3803, 3826, 3849, 3792, 3828, 0, 1, 20699, -90.000, 0.000, -68.000, 0.000, 0.000, -2.800, 0.0, , , , , , 95, , , 13, 13, 13
35.7013523, -118.5808968, 45.700, 10:08:55.717, 17, 0.00, 0.17, 95, 0.300, -0.600, -66.900, 238, 100, 100, 21, 22877, -19780, 4999, 5263, 23, 14, 1530810535.717, 45, 0, 1024, 1024, 1024, 1024, 0, 6, 3783, 3803, 3826, 3849, 3792, 3828, 0, 1, 20800, -90.000, 0.000, -68.000, 0.000, 0.000, -2.800, 0.0, , , , , , 95, , , 13, 13, 13
