Latitude, Longitude, Altitude (m), Time, Sats, Speed (m/s), Range (m), Battery (%), Roll (deg), Pitch (deg), Yaw (deg), Images, HD Signal (%), RC Signal (%), Battery Temp (C), Battery Voltage (mV), Battery Current (mA), Battery Energy (mAh), Battery Capacity (mAh), Battery Discharges, flyState, timestamp (Unix), LastUpdate (ms), radioChannel, Rc_elevator, Rc_aileron, Rc_throttle, Rc_rudder, Rc_gyro, Dronetype, Battery_Cell1 (mV), Battery_Cell2 (mV), Battery_Cell3 (mV), Battery_Cell4 (mV), Battery_Cell5 (mV), Battery_Cell6 (mV), Video, isFlying, elapsedTime (ms), gimbalPitch (deg), gimbalRoll (deg), gimbalYaw (deg), VelocityX (m/s), VelocityY (m/s), VelocityZ (m/s), GroundSmear (cm), App Version, Aircraft Name, Aircraft Firmware, Aircraft Serial Number, Battery Serial Number, Battery Lifetime (%), App_Tip, App_Warning, CurrentFlightStartingIndex, CurrentFlightLastVisitedWaypoint, PreviousFlightEndingWaypointIndex
35.7013460, -118.5808831, 0.000, 10:28:04.384, 13, 0.00, 0.14, 100, 0.800, 1.900, -66.200, 599, 100, 94, 21, 25291, -4493, 5139, 5244, 24, 11, 1530811684.384, 23, 0, 1024, 1024, 1024, 1024, 0, 6, 4143, 4203, 4165, 4171, 4199, 4186, 0, 1, 3118, -89.900, 0.000, -65.900, 0.000, 0.000, -0.200, 0.0, MapPilot_2.8.1_04242018, Dendroctonus I, 1.3.1.00, 041DDC1887, 1058171200162, 94, DJI_0610.jpg, Starting Mission from Lat/Long: 35.70134/-118.58088 Camera: Zenmuse X3 - Overlap: 90/90 - Active Connection: No, 33, 33, 33
35.7013461, -118.5808830, 0.000, 10:28:04.466, 13, 0.00, 0.14, 100, 0.500, 1.000, -66.200, 599, 100, 94, 21, 25291, -4493, 5139, 5244, 24, 11, 1530811684.466, 6, 0, 1024, 1024, 1024, 1024, 0, 6, 4143, 4203, 4165, 4171, 4199, 4186, 0, 1, 3200, -89.900, 0.000, -65.900, 0.000, 0.000, -0.400, 0.0, , , , , , 94, , , 33, 33, 33
35.7013461, -118.5808829, 0.000, 10:28:04.567, 13, 0.00, 0.15, 100, 0.000, 0.400, -66.100, 599, 100, 94, 21, 25291, -4493, 5139, 5244, 24, 11, 1530811684.567, 10, 0, 1024, 1024, 1024, 1024, 0, 6, 4143, 4203, 4165, 4171, 4199, 4186, 0, 1, 3301, -89.900, 0.000, -65.900, 0.000, 0.000, -0.500, 0.0, , , , , , 94, , , 33, 33, 33
35.7013461, -118.5808828, 0.000, 10:28:04.668, 13, 0.00, 0.16, 100, 0.200, 0.000, -66.000, 599, 100, 94, 21, 25291, -4493, 5139, 5244, 24, 11, 1530811684.668, 1, 0, 1024, 1024, 1024, 1024, 0, 6, 4143, 4203, 4165, 4171, 4199, 4186, 0, 1, 3401, -89.900, 0.000, -65.900, 0.000, 0.000, -0.500, 0.0, , , , , , 94, , , 33, 33, 33
35.7013461, -118.5808828, 0.000, 10:28:04.767, 13, 0.00, 0.16, 100, 0.200, 0.000, -66.000, 599, 100, 94, 21, 25291, -4493, 5139, 5244, 24, 11, 1530811684.767, 100, 0, 1024, 1024, 1024, 1024, 0, 6, 4143, 4203, 4165, 4171, 4199, 4186, 0, 1, 3501, -89.900, 0.000, -65.900, 0.000, 0.000, -0.500, 0.0, , , , , , 94, , , 33, 33, 33
35.7013462, -118.5808827, 0.100, 10:28:04.867, 13, 0.00, 0.16, 100, 0.300, 0.100, -65.900, 599, 100, 94, 21, 25291, -4493, 5139, 5244, 24, 11, 1530811684.867, 89, 0, 1024, 1024, 1024, 1024, 0, 6, 4143, 4203, 4165, 4171, 4199, 4186, 0, 1, 3601, -89.900, 0.000, -65.900, 0.000, 0.000, -0.500, 0.0, , , , , , 94, , , 33, 33, 33
35.7013462, -118.5808826, 0.100, 10:28:04.967, 13, 0.00, 0.18, 100, 0.300, 0.000, -65.700, 599, 100, 94, 21, 25291, -4493, 5139, 5244, 24, 11, 1530811684.967, 83, 0, 1024, 1024, 1024, 1024, 0, 6, 4143, 4203, 4165, 4171, 4199, 4186, 0, 1, 3701, -89.900, 0.000, -65.900, 0.000, 0.000, -0.500, 0.0, , , , , , 94, , , 33, 33, 33
35.7013463, -118.5808825, 0.200, 10:28:05.067, 12, 0.00, 0.19, 100, 0.000, 0.000, -65.800, 599, 100, 94, 21, 25291, -4493, 5139, 5244, 24, 11, 1530811685.067, 74, 0, 1024, 1024, 1024, 1024, 0, 6, 4143, 4203, 4165, 4171, 4199, 4186, 0, 1, 3801, -90.000, 0.000, -65.900, 0.000, 0.000, -0.400, 0.0, , , , , , 94, , , 33, 33, 33
35.7013464, -118.5808825, 0.300, 10:28:05.167, 12, 0.00, 0.19, 98, -0.200, -0.200, -65.800, 599, 100, 94, 21, 24096, -15093, 5139, 5244, 24, 11, 1530811685.167, 83, 0, 1024, 1024, 1024, 1024, 0, 6, 3976, 3986, 4010, 4014, 3992, 4002, 0, 1, 3901, -90.000, 0.000, -65.900, 0.000, 0.000, -0.400, 0.0, , , , , , 94, , , 33, 33, 33
35.7013464, -118.5808826, 0.300, 10:28:05.267, 13, 0.00, 0.20, 98, -0.500, -0.100, -66.000, 599, 100, 96, 21, 24096, -15093, 5139, 5244, 24, 11, 1530811685.267, 73, 0, 1024, 1024, 1024, 1024, 0, 6, 3976, 3986, 4010, 4014, 3992, 4002, 0, 1, 4001, -89.900, 0.000, -65.900, 0.000, 0.000, -0.300, 0.0, , , , , , 94, , , 33, 33, 33
35.7013465, -118.5808825, 0.300, 10:28:05.367, 13, 0.00, 0.21, 98, -0.500, -0.100, -66.200, 599, 100, 96, 21, 24096, -15093, 5139, 5244, 24, 11, 1530811685.367, 62, 0, 1024, 1024, 1024, 1024, 0, 6, 3976, 3986, 4010, 4014, 3992, 4002, 0, 1, 4101, -90.000, 0.000, -65.900, 0.000, 0.000, -0.300, 0.0, , , , , , 94, , , 33, 33, 33
35.7013466, -118.5808825, 0.400, 10:28:05.467, 12, 0.00, 0.22, 98, -0.500, -0.100, -66.400, 599, 100, 96, 21, 24096, -15093, 5139, 5244, 24, 11, 1530811685.467, 65, 0, 1024, 1024, 1024, 1024, 0, 6, 3976, 3986, 4010, 4014, 3992, 4002, 0, 1, 4200, -90.000, 0.000, -65.900, 0.000, 0.000, -0.400, 0.0, , , , , , 94, , , 33, 33, 33
35.7013466, -118.5808825, 0.400, 10:28:05.567, 12, 0.00, 0.21, 98, -0.700, 0.000, -66.700, 599, 100, 96, 21, 24096, -15093, 5139, 5244, 24, 11, 1530811685.567, 56, 0, 1024, 1024, 1024, 1024, 0, 6, 3976, 3986, 4010, 4014, 3992, 4002, 0, 1, 4300, -89.900, 0.000, -65.900, 0.000, 0.000, -0.500, 0.0, , , , , , 94, , , 33, 33, 33
35.7013466, -118.5808826, 0.500, 10:28:05.666, 12, 0.00, 0.21, 98, -0.400, 0.100, -66.800, 599, 100, 96, 21, 24096, -15093, 5139, 5244, 24, 11, 1530811685.666, 57, 0, 1024, 1024, 1024, 1024, 0, 6, 3976, 3986, 4010, 4014, 3992, 4002, 0, 1, 4400, -89.900, 0.000, -65.900, 0.000, 0.000, -0.500, 0.0, , , , , , 94, , , 33, 33, 33
35.7013466, -118.5808828, 0.600, 10:28:05.767, 11, 0.10, 0.21, 98, 0.000, 0.700, -66.600, 599, 100, 100, 21, 24096, -15093, 5139, 5244, 24, 11, 1530811685.767, 45, 0, 1024, 1024, 1024, 1024, 0, 6, 3976, 3986, 4010, 4014, 3992, 4002, 0, 1, 4501, -89.900, 0.000, -65.900, 0.000, -0.100, -0.500, 0.0, , , , , , 94, , , 33, 33, 33
35.7013466, -118.5808828, 0.600, 10:28:05.867, 11, 0.10, 0.21, 98, 0.000, 0.700, -66.600, 599, 100, 100, 21, 24096, -15093, 5139, 5244, 24, 11, 1530811685.867, 145, 0, 1024, 1024, 1024, 1024, 0, 6, 3976, 3986, 4010, 4014, 3992, 4002, 0, 1, 4601, -89.900, 0.000, -65.900, 0.000, -0.100, -0.500, 0.0, , , , , , 94, , , 33, 33, 33
35.7013467, -118.5808829, 0.800, 10:28:05.967, 11, 0.10, 0.22, 98, 0.400, 0.800, -66.300, 599, 100, 100, 21, 24096, -15093, 5139, 5244, 24, 11, 1530811685.967, 54, 0, 1024, 1024, 1024, 1024, 0, 6, 3976, 3986, 4010, 4014, 3992, 4002, 0, 1, 4701, -89.900, 0.000, -65.900, 0.000, -0.100, -0.400, 0.0, , , , , , 94, , , 33, 33, 33
35.7013468, -118.5808830, 0.800, 10:28:06.067, 11, 0.10, 0.22, 98, 0.400, 0.700, -66.000, 599, 100, 100, 21, 24096, -15093, 5139, 5244, 24, 11, 1530811686.067, 52, 0, 1024, 1024, 1024, 1024, 0, 6, 3976, 3986, 4010, 4014, 3992, 4002, 0, 1, 4800, -89.900, 0.000, -65.900, 0.000, -0.100, -0.400, 0.0, , , , , , 94, , , 33, 33, 33
35.7013468, -118.5808831, 0.900, 10:28:06.167, 11, 0.10, 0.22, 98, 0.300, 0.500, -65.900, 599, 100, 100, 21, 23802, -16248, 5139, 5244, 24, 11, 1530811686.167, 44, 0, 1024, 1024, 1024, 1024, 0, 6, 3976, 3986, 4010, 4014, 3992, 4002, 0, 1, 4900, -89.900, 0.000, -65.900, 0.000, -0.100, -0.400, 0.0, , , , , , 94, , , 33, 33, 33
35.7013468, -118.5808832, 0.900, 10:28:06.267, 11, 0.10, 0.22, 98, 0.400, 0.900, -65.800, 599, 100, 100, 21, 23802, -16248, 5139, 5244, 24, 14, 1530811686.267, 23, 0, 1024, 1024, 1024, 1024, 0, 6, 3976, 3986, 4010, 4014, 3992, 4002, 0, 1, 5000, -89.900, 0.000, -65.900, 0.000, -0.100, -0.400, 0.0, , , , , , 94, , , 33, 33, 33
35.7013469, -118.5808833, 0.900, 10:28:06.367, 11, 0.10, 0.22, 98, 0.300, 1.100, -65.800, 599, 100, 100, 21, 23802, -16248, 5139, 5244, 24, 14, 1530811686.367, 38, 0, 1024, 1024, 1024, 1024, 0, 6, 3976, 3986, 4010, 4014, 3992, 4002, 0, 1, 5100, -89.900, 0.000, -65.900, 0.000, -0.100, -0.300, 0.0, , , , , , 94, , , 33, 33, 33
35.7013469, -118.5808834, 1.000, 10:28:06.467, 11, 0.10, 0.23, 98, 0.600, 1.400, -65.900, 599, 100, 100, 21, 23802, -16248, 5139, 5244, 24, 14, 1530811686.467, 40, 0, 1024, 1024, 1024, 1024, 0, 6, 3976, 3986, 4010, 4014, 3992, 4002, 0, 1, 5200, -89.900, 0.000, -65.900, 0.000, -0.100, -0.200, 0.0, , , , , , 94, , , 33, 33, 33
35.7013470, -118.5808834, 1.000, 10:28:06.567, 10, 0.00, 0.24, 98, 0.500, 1.600, -66.200, 599, 100, 100, 21, 23802, -16248, 5139, 5244, 24, 14, 1530811686.567, 31, 0, 1024, 1024, 1024, 1024, 0, 6, 3940, 3973, 3963, 3965, 3959, 3962, 0, 1, 5300, -89.900, 0.000, -65.900, 0.000, 0.000, -0.200, 0.0, , , , , , 94, , , 33, 33, 33
35.7013471, -118.5808835, 1.000, 10:28:06.666, 10, 0.00, 0.24, 98, 0.300, 1.600, -66.600, 599, 100, 100, 21, 23802, -16248, 5139, 5244, 24, 14, 1530811686.666, 2, 0, 1024, 1024, 1024, 1024, 0, 6, 3940, 3973, 3963, 3965, 3959, 3962, 0, 1, 5400, -89.900, 0.000, -65.900, 0.000, 0.000, -0.300, 0.0, , , , , , 94, , , 33, 33, 33
35.7013471, -118.5808836, 1.100, 10:28:06.767, 10, 0.00, 0.25, 98, 0.100, 1.600, -67.000, 599, 100, 100, 21, 23802, -16248, 5139, 5244, 24, 14, 1530811686.767, 20, 0, 1024, 1024, 1024, 1024, 0, 6, 3940, 3973, 3963, 3965, 3959, 3962, 0, 1, 5500, -89.900, 0.000, -65.900, 0.000, 0.000, -0.400, 0.0, , , , , , 94, , , 33, 33, 33
35.7013471, -118.5808836, 1.100, 10:28:06.867, 10, 0.00, 0.25, 98, 0.100, 1.600, -67.000, 599, 100, 100, 21, 23802, -16248, 5139, 5244, 24, 14, 1530811686.867, 120, 0, 1024, 1024, 1024, 1024, 0, 6, 3940, 3973, 3963, 3965, 3959, 3962, 0, 1, 5600, -89.900, 0.000, -65.900, 0.000, 0.000, -0.400, 0.0, , , , , , 94, , , 33, 33, 33
35.7013472, -118.5808837, 1.100, 10:28:06.967, 10, 0.00, 0.26, 98, 0.100, 1.600, -67.300, 599, 100, 100, 21, 23802, -16248, 5139, 5244, 24, 14, 1530811686.967, 98, 0, 1024, 1024, 1024, 1024, 0, 6, 3940, 3973, 3963, 3965, 3959, 3962, 0, 1, 5700, -89.900, 0.000, -65.900, 0.000, 0.000, -0.500, 0.0, , , , , , 94, , , 33, 33, 33
35.7013473, -118.5808837, 1.200, 10:28:07.067, 11, 0.00, 0.26, 98, 0.000, 1.600, -67.500, 599, 100, 100, 21, 23802, -16248, 5139, 5244, 24, 14, 1530811687.067, 92, 0, 1024, 1024, 1024, 1024, 0, 6, 3940, 3973, 3963, 3965, 3959, 3962, 0, 1, 5800, -89.900, 0.000, -66.000, 0.000, 0.000, -0.800, 0.0, , , , , , 94, , , 33, 33, 33
35.7013474, -118.5808839, 1.400, 10:28:07.167, 11, 0.00, 0.28, 98, -0.300, 1.400, -67.500, 599, 100, 100, 21, 23802, -16248, 5139, 5244, 24, 14, 1530811687.167, 10, 0, 1024, 1024, 1024, 1024, 0, 6, 3940, 3973, 3963, 3965, 3959, 3962, 0, 1, 5900, -89.900, 0.000, -66.000, 0.000, 0.000, -1.200, 0.0, , , , , , 94, , , 33, 33, 33
35.7013474, -118.5808840, 1.500, 10:28:07.266, 11, 0.00, 0.28, 98, -0.100, 1.500, -67.400, 599, 100, 100, 21, 23802, -16248, 5139, 5244, 24, 14, 1530811687.267, 1, 0, 1024, 1024, 1024, 1024, 0, 6, 3940, 3973, 3963, 3965, 3959, 3962, 0, 1, 6000, -89.900, 0.000, -66.000, 0.000, 0.000, -1.300, 0.0, , , , , , 94, , , 33, 33, 33
35.7013474, -118.5808840, 1.500, 10:28:07.367, 11, 0.00, 0.28, 98, -0.100, 1.500, -67.400, 599, 100, 100, 21, 23802, -16248, 5139, 5244, 24, 14, 1530811687.367, 102, 0, 1024, 1024, 1024, 1024, 0, 6, 3940, 3973, 3963, 3965, 3959, 3962, 0, 1, 6100, -89.900, 0.000, -66.000, 0.000, 0.000, -1.300, 0.0, , , , , , 94, , , 33, 33, 33
35.7013475, -118.5808840, 1.600, 10:28:07.467, 9, 0.00, 0.29, 98, 0.200, 1.500, -67.200, 599, 100, 100, 21, 23802, -16248, 5139, 5244, 24, 14, 1530811687.467, 93, 0, 1024, 1024, 1024, 1024, 0, 6, 3940, 3973, 3963, 3965, 3959, 3962, 0, 1, 6200, -89.900, 0.000, -66.100, 0.000, 0.000, -1.600, 0.0, , , , , , 94, , , 33, 33, 33
35.7013476, -118.5808840, 1.800, 10:28:07.567, 9, 0.00, 0.30, 98, 0.300, 1.700, -67.100, 599, 100, 100, 21, 23802, -16248, 5139, 5244, 24, 14, 1530811687.567, 70, 0, 1024, 1024, 1024, 1024, 0, 6, 3940, 3973, 3963, 3965, 3959, 3962, 0, 1, 6300, -89.900, 0.000, -66.100, 0.000, 0.000, -1.900, 0.0, , , , , , 94, , , 33, 33, 33
35.7013477, -118.5808840, 2.000, 10:28:07.667, 9, 0.00, 0.32, 98, 0.200, 1.600, -67.200, 599, 100, 100, 21, 23814, -16633, 5139, 5244, 24, 14, 1530811687.667, 64, 0, 1024, 1024, 1024, 1024, 0, 6, 3947, 3948, 3969, 3969, 3970, 3927, 0, 1, 6400, -89.900, 0.000, -66.100, 0.000, 0.000, -2.100, 0.0, , , , , , 94, , , 33, 33, 33
35.7013479, -118.5808839, 2.300, 10:28:07.767, 9, 0.00, 0.33, 98, -0.100, 1.500, -67.300, 599, 100, 100, 21, 23814, -16633, 5139, 5244, 24, 14, 1530811687.767, 49, 0, 1024, 1024, 1024, 1024, 0, 6, 3947, 3948, 3969, 3969, 3970, 3927, 0, 1, 6500, -89.900, 0.000, -66.100, 0.000, 0.000, -2.300, 0.0, , , , , , 94, , , 33, 33, 33
35.7013480, -118.5808838, 2.500, 10:28:07.867, 9, 0.00, 0.35, 98, -0.400, 1.400, -67.500, 599, 100, 100, 21, 23814, -16633, 5139, 5244, 24, 14, 1530811687.867, 59, 0, 1024, 1024, 1024, 1024, 0, 6, 3947, 3948, 3969, 3969, 3970, 3927, 0, 1, 6600, -90.000, 0.000, -66.200, 0.000, 0.000, -2.400, 0.0, , , , , , 94, , , 33, 33, 33
35.7013481, -118.5808838, 2.800, 10:28:07.967, 9, 0.00, 0.35, 98, -0.700, 1.300, -67.600, 599, 100, 100, 21, 23814, -16633, 5139, 5244, 24, 14, 1530811687.967, 58, 0, 1024, 1024, 1024, 1024, 0, 6, 3947, 3948, 3969, 3969, 3970, 3927, 0, 1, 6700, -89.900, 0.000, -66.200, 0.000, 0.000, -2.600, 0.0, , , , , , 94, , , 33, 33, 33
35.7013481, -118.5808837, 3.000, 10:28:08.067, 9, 0.00, 0.35, 98, -0.600, 1.300, -67.800, 599, 100, 100, 21, 23814, -16633, 5139, 5244, 24, 14, 1530811688.067, 53, 0, 1024, 1024, 1024, 1024, 0, 6, 3947, 3948, 3969, 3969, 3970, 3927, 0, 1, 6800, -90.000, 0.000, -66.200, 0.000, 0.000, -2.800, 0.0, , , , , , 94, , , 33, 33, 33
35.7013481, -118.5808837, 3.700, 10:28:08.167, 10, 0.00, 0.36, 98, 0.000, 1.100, -67.900, 599, 100, 100, 21, 23814, -16633, 5139, 5244, 24, 14, 1530811688.167, 39, 0, 1024, 1024, 1024, 1024, 0, 6, 3947, 3948, 3969, 3969, 3970, 3927, 0, 1, 6900, -90.000, 0.000, -66.200, 0.000, 0.000, -3.100, 0.0, , , , , , 94, , , 33, 33, 33
35.7013481, -118.5808838, 4.000, 10:28:08.267, 10, 0.10, 0.35, 98, 0.300, 1.300, -67.700, 599, 100, 100, 21, 23814, -16633, 5139, 5244, 24, 14, 1530811688.267, 51, 0, 1024, 1024, 1024, 1024, 0, 6, 3947, 3948, 3969, 3969, 3970, 3927, 0, 1, 7000, -89.900, 0.000, -66.200, -0.100, 0.000, -3.200, 0.0, , , , , , 94, , , 33, 33, 33
35.7013480, -118.5808838, 4.300, 10:28:08.367, 8, 0.10, 0.35, 98, 0.600, 1.200, -67.500, 599, 100, 100, 21, 23814, -16633, 5139, 5244, 24, 14, 1530811688.367, 42, 0, 1024, 1024, 1024, 1024, 0, 6, 3947, 3948, 3969, 3969, 3970, 3927, 0, 1, 7100, -89.900, 0.000, -66.200, -0.100, 0.000, -3.200, 0.0, , , , , , 94, , , 33, 33, 33
35.7013480, -118.5808839, 4.600, 10:28:08.467, 8, 0.10, 0.34, 98, 0.900, 1.300, -67.300, 599, 100, 100, 21, 23814, -16633, 5139, 5244, 24, 14, 1530811688.467, 48, 0, 1024, 1024, 1024, 1024, 0, 6, 3947, 3948, 3969, 3969, 3970, 3927, 0, 1, 7200, -89.900, 0.000, -66.300, -0.100, 0.000, -3.200, 0.0, , , , , , 94, , , 33, 33, 33
35.7013479, -118.5808840, 5.000, 10:28:08.567, 9, 0.10, 0.34, 98, 1.200, 1.400, -67.000, 599, 100, 100, 21, 23092, -21912, 5139, 5244, 24, 14, 1530811688.567, 39, 0, 1024, 1024, 1024, 1024, 0, 6, 3802, 3846, 3829, 3826, 3826, 3837, 0, 1, 7300, -89.900, 0.000, -66.300, -0.100, 0.000, -3.200, 0.0, , , , , , 94, , , 33, 33, 33
35.7013479, -118.5808841, 5.300, 10:28:08.667, 9, 0.10, 0.34, 98, 1.300, 1.500, -66.800, 599, 100, 100, 21, 23092, -21912, 5139, 5244, 24, 14, 1530811688.667, 33, 0, 1024, 1024, 1024, 1024, 0, 6, 3802, 3846, 3829, 3826, 3826, 3837, 0, 1, 7400, -89.900, 0.000, -66.300, -0.100, 0.000, -3.200, 0.0, , , , , , 94, , , 33, 33, 33
35.7013479, -118.5808841, 5.600, 10:28:08.767, 9, 0.00, 0.33, 98, 1.200, 1.300, -66.800, 599, 100, 100, 21, 23092, -21912, 5139, 5244, 24, 14, 1530811688.767, 34, 0, 1024, 1024, 1024, 1024, 0, 6, 3802, 3846, 3829, 3826, 3826, 3837, 0, 1, 7500, -89.900, 0.000, -66.300, 0.000, 0.000, -3.300, 0.0, , , , , , 94, , , 33, 33, 33
35.7013477, -118.5808842, 6.000, 10:28:08.866, 9, 0.10, 0.32, 98, 1.000, 1.200, -66.800, 599, 100, 100, 21, 23092, -21912, 5139, 5244, 24, 14, 1530811688.867, 11, 0, 1024, 1024, 1024, 1024, 0, 6, 3802, 3846, 3829, 3826, 3826, 3837, 0, 1, 7600, -90.000, 0.000, -66.300, -0.100, 0.000, -3.300, 0.0, , , , , , 94, , , 33, 33, 33
35.7013476, -118.5808842, 6.300, 10:28:08.967, 9, 0.10, 0.31, 98, 1.100, 0.900, -66.800, 599, 100, 100, 21, 23092, -21912, 5139, 5244, 24, 14, 1530811688.967, 2, 0, 1024, 1024, 1024, 1024, 0, 6, 3802, 3846, 3829, 3826, 3826, 3837, 0, 1, 7700, -90.000, 0.000, -66.300, -0.100, 0.000, -3.300, 0.0, , , , , , 94, , , 33, 33, 33
35.7013474, -118.5808842, 6.700, 10:28:09.067, 9, 0.10, 0.28, 98, 1.300, 0.700, -66.800, 599, 100, 100, 21, 23092, -21912, 5139, 5244, 24, 14, 1530811689.067, 18, 0, 1024, 1024, 1024, 1024, 0, 6, 3802, 3846, 3829, 3826, 3826, 3837, 0, 1, 7800, -90.000, 0.000, -66.400, -0.100, 0.000, -3.200, 0.0, , , , , , 94, , , 33, 33, 33
35.7013472, -118.5808842, 7.000, 10:28:09.167, 10, 0.10, 0.26, 98, 1.500, 0.400, -66.900, 599, 100, 100, 21, 23092, -21912, 5139, 5244, 24, 14, 1530811689.167, 18, 0, 1024, 1024, 1024, 1024, 0, 6, 3802, 3846, 3829, 3826, 3826, 3837, 0, 1, 7900, -90.000, 0.000, -66.400, -0.100, 0.000, -3.200, 0.0, , , , , , 94, , , 33, 33, 33
35.7013471, -118.5808841, 7.400, 10:28:09.267, 10, 0.10, 0.25, 98, 1.700, 0.300, -67.000, 599, 100, 100, 21, 23092, -21912, 5139, 5244, 24, 14, 1530811689.267, 19, 0, 1024, 1024, 1024, 1024, 0, 6, 3802, 3846, 3829, 3826, 3826, 3837, 0, 1, 8000, -90.000, 0.000, -66.400, -0.100, 0.000, -3.200, 0.0, , , , , , 94, , , 33, 33, 33
35.7013470, -118.5808841, 7.700, 10:28:09.366, 10, 0.10, 0.24, 98, 1.800, 0.200, -67.000, 599, 100, 100, 21, 23092, -21912, 5139, 5244, 24, 14, 1530811689.367, 7, 0, 1024, 1024, 1024, 1024, 0, 6, 3802, 3846, 3829, 3826, 3826, 3837, 0, 1, 8100, -90.000, 0.000, -66.400, -0.100, 0.000, -3.200, 0.0, , , , , , 94, , , 33, 33, 33
35.7013469, -118.5808840, 8.000, 10:28:09.467, 10, 0.00, 0.22, 98, 1.700, 0.100, -67.100, 599, 100, 100, 21, 23092, -21912, 5139, 5244, 24, 14, 1530811689.467, 7, 0, 1024, 1024, 1024, 1024, 0, 6, 3802, 3846, 3829, 3826, 3826, 3837, 0, 1, 8200, -90.000, 0.000, -66.400, 0.000, 0.000, -3.200, 0.0, , , , , , 94, , , 33, 33, 33
35.7013469, -118.5808840, 8.000, 10:28:09.567, 10, 0.00, 0.22, 98, 1.700, 0.100, -67.100, 599, 100, 100, 21, 23092, -21912, 5139, 5244, 24, 14, 1530811689.567, 107, 0, 1024, 1024, 1024, 1024, 0, 6, 3802, 3846, 3829, 3826, 3826, 3837, 0, 1, 8300, -90.000, 0.000, -66.400, 0.000, 0.000, -3.200, 0.0, , , , , , 94, , , 33, 33, 33
35.7013467, -118.5808840, 8.700, 10:28:09.677, 9, 0.00, 0.20, 98, 1.500, 0.100, -67.200, 599, 100, 100, 21, 22928, -23756, 5139, 5244, 24, 14, 1530811689.677, 3, 0, 1024, 1024, 1024, 1024, 0, 6, 3814, 3863, 3846, 3834, 3841, 3842, 0, 1, 8410, -90.000, 0.000, -66.400, 0.000, 0.000, -3.100, 0.0, , , , , , 94, , , 33, 33, 33
35.7013467, -118.5808840, 8.700, 10:28:09.767, 9, 0.00, 0.20, 98, 1.500, 0.100, -67.200, 599, 100, 100, 21, 22928, -23756, 5139, 5244, 24, 14, 1530811689.767, 93, 0, 1024, 1024, 1024, 1024, 0, 6, 3814, 3863, 3846, 3834, 3841, 3842, 0, 1, 8500, -90.000, 0.000, -66.400, 0.000, 0.000, -3.100, 0.0, , , , , , 94, , , 33, 33, 33
35.7013465, -118.5808841, 9.000, 10:28:09.866, 11, 0.00, 0.19, 98, 1.500, 0.000, -67.300, 599, 100, 100, 21, 22928, -23756, 5139, 5244, 24, 14, 1530811689.866, 94, 0, 1024, 1024, 1024, 1024, 0, 6, 3814, 3863, 3846, 3834, 3841, 3842, 0, 1, 8600, -90.000, 0.000, -66.500, 0.000, 0.000, -3.100, 0.0, , , , , , 94, , , 33, 33, 33
35.7013465, -118.5808841, 9.300, 10:28:09.967, 11, 0.00, 0.18, 98, 1.700, 0.100, -67.300, 599, 100, 100, 21, 22928, -23756, 5139, 5244, 24, 14, 1530811689.967, 92, 0, 1024, 1024, 1024, 1024, 0, 6, 3814, 3863, 3846, 3834, 3841, 3842, 0, 1, 8700, -90.000, 0.000, -66.500, 0.000, 0.000, -3.000, 0.0, , , , , , 94, , , 33, 33, 33
35.7013464, -118.5808842, 9.600, 10:28:10.067, 11, 0.00, 0.17, 98, 1.600, 0.300, -67.400, 599, 100, 100, 21, 22928, -23756, 5139, 5244, 24, 14, 1530811690.067, 65, 0, 1024, 1024, 1024, 1024, 0, 6, 3814, 3863, 3846, 3834, 3841, 3842, 0, 1, 8800, -90.000, 0.000, -66.500, 0.000, 0.000, -3.000, 0.0, , , , , , 94, , , 33, 33, 33
35.7013463, -118.5808842, 9.900, 10:28:10.167, 11, 0.00, 0.17, 98, 1.600, 0.600, -67.400, 599, 100, 100, 21, 22928, -23756, 5139, 5244, 24, 14, 1530811690.167, 68, 0, 1024, 1024, 1024, 1024, 0, 6, 3814, 3863, 3846, 3834, 3841, 3842, 0, 1, 8900, -89.900, 0.000, -66.500, 0.000, 0.000, -3.000, 0.0, , , , , , 94, , , 33, 33, 33
35.7013463, -118.5808842, 10.200, 10:28:10.267, 12, 0.00, 0.17, 98, 1.500, 0.800, -67.500, 599, 100, 100, 21, 22928, -23756, 5139, 5244, 24, 14, 1530811690.267, 69, 0, 1024, 1024, 1024, 1024, 0, 6, 3814, 3863, 3846, 3834, 3841, 3842, 0, 1, 9000, -89.900, 0.000, -66.500, 0.000, 0.000, -3.000, 0.0, , , , , , 94, , , 33, 33, 33
35.7013463, -118.5808843, 10.600, 10:28:10.367, 12, 0.00, 0.17, 98, 1.400, 0.800, -67.600, 599, 100, 100, 21, 22928, -23756, 5139, 5244, 24, 14, 1530811690.367, 61, 0, 1024, 1024, 1024, 1024, 0, 6, 3814, 3863, 3846, 3834, 3841, 3842, 0, 1, 9100, -89.900, 0.000, -66.500, 0.000, 0.000, -3.100, 0.0, , , , , , 94, , , 33, 33, 33
35.7013463, -118.5808843, 10.900, 10:28:10.467, 13, 0.00, 0.17, 98, 1.400, 0.900, -67.600, 599, 100, 100, 21, 22928, -23756, 5139, 5244, 24, 14, 1530811690.467, 52, 0, 1024, 1024, 1024, 1024, 0, 6, 3814, 3863, 3846, 3834, 3841, 3842, 0, 1, 9200, -90.000, 0.000, -66.500, 0.000, 0.000, -3.000, 0.0, , , , , , 94, , , 33, 33, 33
35.7013463, -118.5808844, 11.500, 10:28:10.569, 13, 0.00, 0.17, 98, 1.100, 0.800, -67.700, 599, 100, 100, 21, 22928, -23756, 5139, 5244, 24, 14, 1530811690.569, 53, 0, 1024, 1024, 1024, 1024, 0, 6, 3814, 3863, 3846, 3834, 3841, 3842, 0, 1, 9302, -89.900, 0.000, -66.500, 0.000, 0.000, -3.000, 0.0, , , , , , 94, , , 33, 33, 33
35.7013463, -118.5808844, 11.800, 10:28:10.667, 13, 0.00, 0.17, 98, 1.200, 0.700, -67.700, 599, 100, 100, 21, 23228, -19531, 5139, 5244, 24, 14, 1530811690.667, 60, 0, 1024, 1024, 1024, 1024, 0, 6, 3853, 3890, 3872, 3879, 3869, 3865, 0, 1, 9400, -89.900, 0.000, -66.500, 0.000, 0.000, -3.000, 0.0, , , , , , 94, , , 33, 33, 33
35.7013463, -118.5808844, 12.100, 10:28:10.767, 14, 0.00, 0.17, 98, 1.200, 0.600, -67.700, 599, 100, 100, 21, 23228, -19531, 5139, 5244, 24, 14, 1530811690.767, 59, 0, 1024, 1024, 1024, 1024, 0, 6, 3853, 3890, 3872, 3879, 3869, 3865, 0, 1, 9500, -90.000, 0.000, -66.500, 0.000, 0.000, -2.900, 0.0, , , , , , 94, , , 33, 33, 33
35.7013463, -118.5808844, 12.400, 10:28:10.867, 14, 0.00, 0.17, 98, 1.100, 0.600, -67.600, 599, 100, 100, 21, 23228, -19531, 5139, 5244, 24, 14, 1530811690.867, 51, 0, 1024, 1024, 1024, 1024, 0, 6, 3853, 3890, 3872, 3879, 3869, 3865, 0, 1, 9600, -90.000, 0.000, -66.500, 0.000, 0.000, -2.900, 0.0, , , , , , 94, , , 33, 33, 33
35.7013463, -118.5808844, 12.700, 10:28:10.966, 14, 0.00, 0.17, 98, 1.000, 0.600, -67.500, 599, 100, 100, 21, 23228, -19531, 5139, 5244, 24, 14, 1530811690.967, 18, 0, 1024, 1024, 1024, 1024, 0, 6, 3853, 3890, 3872, 3879, 3869, 3865, 0, 1, 9700, -90.000, 0.000, -66.500, 0.000, 0.000, -2.900, 0.0, , , , , , 94, , , 33, 33, 33
35.7013463, -118.5808845, 13.000, 10:28:11.066, 14, 0.00, 0.17, 98, 1.100, 0.700, -67.400, 599, 100, 100, 21, 23228, -19531, 5139, 5244, 24, 14, 1530811691.067, 23, 0, 1024, 1024, 1024, 1024, 0, 6, 3853, 3890, 3872, 3879, 3869, 3865, 0, 1, 9800, -89.900, 0.000, -66.500, 0.000, 0.000, -2.900, 0.0, , , , , , 94, , , 33, 33, 33
35.7013462, -118.5808845, 13.300, 10:28:11.167, 14, 0.00, 0.17, 98, 1.200, 0.800, -67.200, 599, 100, 100, 21, 23228, -19531, 5139, 5244, 24, 14, 1530811691.167, 22, 0, 1024, 1024, 1024, 1024, 0, 6, 3853, 3890, 3872, 3879, 3869, 3865, 0, 1, 9900, -89.900, 0.000, -66.500, 0.000, 0.000, -2.900, 0.0, , , , , , 94, , , 33, 33, 33
35.7013463, -118.5808845, 13.600, 10:28:11.267, 14, 0.00, 0.17, 98, 1.400, 0.900, -67.100, 599, 100, 100, 21, 23228, -19531, 5139, 5244, 24, 14, 1530811691.267, 14, 0, 1024, 1024, 1024, 1024, 0, 6, 3853, 3890, 3872, 3879, 3869, 3865, 0, 1, 10000, -89.900, 0.000, -66.500, 0.000, 0.000, -2.900, 0.0, , , , , , 94, , , 33, 33, 33
35.7013463, -118.5808845, 13.900, 10:28:11.367, 13, 0.00, 0.17, 98, 1.300, 1.000, -67.100, 599, 100, 100, 21, 23228, -19531, 5139, 5244, 24, 14, 1530811691.367, 20, 0, 1024, 1024, 1024, 1024, 0, 6, 3853, 3890, 3872, 3879, 3869, 3865, 0, 1, 10100, -89.900, 0.000, -66.500, 0.000, 0.000, -3.000, 0.0, , , , , , 94, , , 33, 33, 33
35.7013463, -118.5808845, 14.200, 10:28:11.467, 13, 0.00, 0.18, 98, 1.100, 1.100, -67.100, 599, 100, 100, 21, 23228, -19531, 5139, 5244, 24, 14, 1530811691.467, 9, 0, 1024, 1024, 1024, 1024, 0, 6, 3853, 3890, 3872, 3879, 3869, 3865, 0, 1, 10200, -89.900, 0.000, -66.500, 0.000, 0.000, -3.000, 0.0, , , , , , 94, , , 33, 33, 33
35.7013463, -118.5808845, 14.500, 10:28:11.566, 14, 0.00, 0.18, 98, 1.000, 1.100, -67.200, 599, 100, 100, 21, 23169, -19840, 5139, 5244, 24, 14, 1530811691.566, 2, 0, 1024, 1024, 1024, 1024, 0, 6, 3853, 3890, 3872, 3879, 3869, 3865, 0, 1, 10300, -89.900, 0.000, -66.500, 0.000, 0.000, -3.000, 0.0, , , , , , 94, , , 33, 33, 33
35.7013464, -118.5808845, 14.800, 10:28:11.666, 14, 0.00, 0.18, 98, 1.000, 1.200, -67.300, 599, 100, 99, 21, 23169, -19840, 5139, 5244, 24, 14, 1530811691.666, 5, 0, 1024, 1024, 1024, 1024, 0, 6, 3853, 3890, 3872, 3879, 3869, 3865, 0, 1, 10400, -89.900, 0.000, -66.500, 0.000, 0.000, -3.100, 0.0, , , , , , 94, , , 33, 33, 33
35.7013464, -118.5808844, 15.100, 10:28:11.767, 14, 0.00, 0.19, 98, 0.900, 1.100, -67.500, 599, 100, 99, 21, 23169, -19840, 5139, 5244, 24, 14, 1530811691.767, 7, 0, 1024, 1024, 1024, 1024, 0, 6, 3853, 3890, 3872, 3879, 3869, 3865, 0, 1, 10500, -89.900, 0.000, -66.500, 0.000, 0.000, -3.100, 0.0, , , , , , 94, , , 33, 33, 33
35.7013464, -118.5808844, 15.100, 10:28:11.867, 14, 0.00, 0.19, 98, 0.900, 1.100, -67.500, 599, 100, 99, 21, 23169, -19840, 5139, 5244, 24, 14, 1530811691.867, 107, 0, 1024, 1024, 1024, 1024, 0, 6, 3853, 3890, 3872, 3879, 3869, 3865, 0, 1, 10600, -89.900, 0.000, -66.500, 0.000, 0.000, -3.100, 0.0, , , , , , 94, , , 33, 33, 33
35.7013465, -118.5808844, 15.400, 10:28:11.967, 14, 0.00, 0.19, 98, 0.900, 0.900, -67.600, 599, 100, 99, 21, 23169, -19840, 5139, 5244, 24, 14, 1530811691.967, 92, 0, 1024, 1024, 1024, 1024, 0, 6, 3853, 3890, 3872, 3879, 3869, 3865, 0, 1, 10700, -90.000, 0.000, -66.500, 0.000, 0.000, -3.000, 0.0, , , , , , 94, , , 33, 33, 33
35.7013465, -118.5808843, 15.700, 10:28:12.067, 15, 0.00, 0.19, 98, 0.800, 0.700, -67.700, 599, 100, 99, 21, 23169, -19840, 5139, 5244, 24, 14, 1530811692.067, 95, 0, 1024, 1024, 1024, 1024, 0, 6, 3853, 3890, 3872, 3879, 3869, 3865, 0, 1, 10800, -90.000, 0.000, -66.500, 0.000, 0.000, -3.000, 0.0, , , , , , 94, , , 33, 33, 33
35.7013466, -118.5808843, 16.000, 10:28:12.166, 15, 0.00, 0.20, 98, 0.400, 0.700, -67.800, 599, 100, 99, 21, 23169, -19840, 5139, 5244, 24, 14, 1530811692.166, 96, 0, 1024, 1024, 1024, 1024, 0, 6, 3843, 3871, 3869, 3867, 3861, 3860, 0, 1, 10899, -90.000, 0.000, -66.500, 0.000, 0.000, -3.000, 0.0, , , , , , 94, , , 33, 33, 33
35.7013466, -118.5808842, 16.300, 10:28:12.267, 15, 0.00, 0.20, 98, 0.400, 0.800, -67.800, 599, 100, 99, 21, 23169, -19840, 5139, 5244, 24, 14, 1530811692.267, 99, 0, 1024, 1024, 1024, 1024, 0, 6, 3843, 3871, 3869, 3867, 3861, 3860, 0, 1, 11000, -89.900, 0.000, -66.500, 0.000, 0.000, -3.000, 0.0, , , , , , 94, , , 33, 33, 33
35.7013466, -118.5808842, 16.600, 10:28:12.367, 15, 0.00, 0.20, 98, 0.700, 0.800, -67.700, 599, 100, 99, 21, 23169, -19840, 5139, 5244, 24, 14, 1530811692.367, 77, 0, 1024, 1024, 1024, 1024, 0, 6, 3843, 3871, 3869, 3867, 3861, 3860, 0, 1, 11100, -90.000, 0.000, -66.500, 0.000, 0.000, -3.000, 0.0, , , , , , 94, , , 33, 33, 33
35.7013466, -118.5808842, 17.000, 10:28:12.467, 15, 0.00, 0.20, 98, 0.900, 0.800, -67.600, 599, 100, 99, 21, 23169, -19840, 5139, 5244, 24, 14, 1530811692.467, 81, 0, 1024, 1024, 1024, 1024, 0, 6, 3843, 3871, 3869, 3867, 3861, 3860, 0, 1, 11200, -89.900, 0.000, -66.500, 0.000, 0.000, -3.000, 0.0, , , , , , 94, , , 33, 33, 33
35.7013467, -118.5808842, 17.200, 10:28:12.566, 15, 0.00, 0.20, 98, 0.900, 0.700, -67.600, 599, 100, 99, 21, 23169, -19840, 5139, 5244, 24, 14, 1530811692.566, 61, 0, 1024, 1024, 1024, 1024, 0, 6, 3843, 3871, 3869, 3867, 3861, 3860, 0, 1, 11299, -89.900, 0.000, -66.500, 0.000, 0.000, -3.000, 0.0, , , , , , 94, , , 33, 33, 33
35.7013467, -118.5808841, 17.600, 10:28:12.667, 15, 0.00, 0.21, 98, 0.800, 0.700, -67.500, 599, 100, 99, 21, 23169, -19840, 5139, 5244, 24, 14, 1530811692.667, 76, 0, 1024, 1024, 1024, 1024, 0, 6, 3843, 3871, 3869, 3867, 3861, 3860, 0, 1, 11400, -90.000, 0.000, -66.500, 0.000, 0.000, -3.000, 0.0, , , , , , 94, , , 33, 33, 33
35.7013468, -118.5808841, 17.900, 10:28:12.767, 15, 0.00, 0.21, 98, 0.600, 0.700, -67.600, 599, 100, 99, 21, 23169, -19840, 5139, 5244, 24, 14, 1530811692.767, 34, 0, 1024, 1024, 1024, 1024, 0, 6, 3843, 3871, 3869, 3867, 3861, 3860, 0, 1, 11500, -89.900, 0.000, -66.500, 0.000, 0.000, -3.000, 0.0, , , , , , 94, , , 33, 33, 33
35.7013468, -118.5808840, 18.200, 10:28:12.867, 17, 0.00, 0.21, 98, 0.600, 0.700, -67.600, 599, 100, 99, 21, 23169, -19840, 5139, 5244, 24, 14, 1530811692.867, 70, 0, 1024, 1024, 1024, 1024, 0, 6, 3843, 3871, 3869, 3867, 3861, 3860, 0, 1, 11600, -90.000, 0.000, -66.500, 0.000, 0.000, -3.000, 0.0, , , , , , 94, , , 33, 33, 33
35.7013468, -118.5808840, 18.500, 10:28:12.967, 17, 0.00, 0.22, 98, 0.700, 0.600, -67.600, 599, 100, 99, 21, 23169, -19840, 5139, 5244, 24, 14, 1530811692.967, 75, 0, 1024, 1024, 1024, 1024, 0, 6, 3843, 3871, 3869, 3867, 3861, 3860, 0, 1, 11700, -90.000, 0.000, -66.500, 0.000, 0.000, -2.900, 0.0, , , , , , 94, , , 33, 33, 33
35.7013469, -118.5808839, 18.800, 10:28:13.067, 17, 0.00, 0.22, 98, 0.600, 0.700, -67.600, 599, 100, 99, 21, 23169, -19840, 5139, 5244, 24, 14, 1530811693.067, 53, 0, 1024, 1024, 1024, 1024, 0, 6, 3843, 3871, 3869, 3867, 3861, 3860, 0, 1, 11800, -90.000, 0.000, -66.500, 0.000, 0.000, -3.000, 0.0, , , , , , 94, , , 33, 33, 33
35.7013469, -118.5808839, 19.400, 10:28:13.167, 17, 0.00, 0.22, 98, 0.400, 0.600, -67.700, 599, 100, 99, 21, 23104, -20193, 5139, 5244, 24, 14, 1530811693.167, 43, 0, 1024, 1024, 1024, 1024, 0, 6, 3827, 3869, 3853, 3854, 3858, 3845, 0, 1, 11900, -90.000, 0.000, -66.500, 0.000, 0.000, -3.000, 0.0, , , , , , 94, , , 33, 33, 33
35.7013469, -118.5808838, 19.700, 10:28:13.267, 17, 0.00, 0.23, 98, 0.500, 0.600, -67.700, 599, 100, 98, 21, 23104, -20193, 5139, 5244, 24, 14, 1530811693.267, 46, 0, 1024, 1024, 1024, 1024, 0, 6, 3827, 3869, 3853, 3854, 3858, 3845, 0, 1, 12000, -89.900, 0.000, -66.500, 0.000, 0.000, -3.000, 0.0, , , , , , 94, , , 33, 33, 33
35.7013470, -118.5808837, 20.000, 10:28:13.366, 16, 0.00, 0.23, 98, 0.700, 0.600, -67.700, 599, 100, 98, 21, 23104, -20193, 5139, 5244, 24, 14, 1530811693.367, 44, 0, 1024, 1024, 1024, 1024, 0, 6, 3827, 3869, 3853, 3854, 3858, 3845, 0, 1, 12100, -89.900, 0.000, -66.500, 0.000, 0.000, -3.100, 0.0, , , , , , 94, , , 33, 33, 33
35.7013469, -118.5808837, 20.300, 10:28:13.467, 16, 0.00, 0.23, 98, 0.700, 0.500, -67.600, 599, 100, 98, 21, 23104, -20193, 5139, 5244, 24, 14, 1530811693.467, 48, 0, 1024, 1024, 1024, 1024, 0, 6, 3827, 3869, 3853, 3854, 3858, 3845, 0, 1, 12200, -89.900, 0.000, -66.500, 0.000, 0.000, -3.000, 0.0, , , , , , 94, , , 33, 33, 33
35.7013469, -118.5808837, 20.600, 10:28:13.567, 17, 0.00, 0.23, 98, 0.900, 0.500, -67.600, 599, 100, 98, 21, 23104, -20193, 5139, 5244, 24, 14, 1530811693.567, 39, 0, 1024, 1024, 1024, 1024, 0, 6, 3827, 3869, 3853, 3854, 3858, 3845, 0, 1, 12300, -90.000, 0.000, -66.500, 0.000, 0.000, -3.000, 0.0, , , , , , 94, , , 33, 33, 33
35.7013469, -118.5808837, 20.900, 10:28:13.666, 17, 0.00, 0.23, 98, 1.100, 0.500, -67.500, 599, 100, 98, 21, 23104, -20193, 5139, 5244, 24, 14, 1530811693.666, 26, 0, 1024, 1024, 1024, 1024, 0, 6, 3827, 3869, 3853, 3854, 3858, 3845, 0, 1, 12399, -89.900, 0.000, -66.500, 0.000, 0.000, -3.000, 0.0, , , , , , 94, , , 33, 33, 33
35.7013469, -118.5808837, 21.200, 10:28:13.767, 17, 0.00, 0.23, 98, 1.100, 0.600, -67.500, 599, 100, 98, 21, 23104, -20193, 5139, 5244, 24, 14, 1530811693.767, 39, 0, 1024, 1024, 1024, 1024, 0, 6, 3827, 3869, 3853, 3854, 3858, 3845, 0, 1, 12500, -89.900, 0.000, -66.500, 0.000, 0.000, -2.900, 0.0, , , , , , 94, , , 33, 33, 33
35.7013469, -118.5808837, 21.500, 10:28:13.867, 17, 0.00, 0.23, 98, 1.100, 0.700, -67.400, 599, 100, 98, 21, 23104, -20193, 5139, 5244, 24, 14, 1530811693.867, 32, 0, 1024, 1024, 1024, 1024, 0, 6, 3827, 3869, 3853, 3854, 3858, 3845, 0, 1, 12600, -89.900, 0.000, -66.500, 0.000, 0.000, -3.000, 0.0, , , , , , 94, , , 33, 33, 33
35.7013469, -118.5808836, 21.800, 10:28:13.967, 17, 0.00, 0.23, 98, 0.900, 0.700, -67.400, 599, 100, 98, 21, 23104, -20193, 5139, 5244, 24, 14, 1530811693.967, 14, 0, 1024, 1024, 1024, 1024, 0, 6, 3827, 3869, 3853, 3854, 3858, 3845, 0, 1, 12700, -89.900, 0.000, -66.500, 0.000, 0.000, -2.900, 0.0, , , , , , 94, , , 33, 33, 33
35.7013469, -118.5808836, 22.200, 10:28:14.066, 17, 0.00, 0.23, 98, 0.800, 0.600, -67.400, 599, 100, 98, 22, 23134, -19484, 5139, 5244, 24, 14, 1530811694.066, 16, 0, 1024, 1024, 1024, 1024, 0, 6, 3837, 3871, 3858, 3863, 3853, 3853, 0, 1, 12799, -90.000, 0.000, -66.500, 0.000, 0.000, -2.900, 0.0, , , , , , 94, , , 33, 33, 33
35.7013470, -118.5808836, 22.500, 10:28:14.171, 17, 0.00, 0.23, 98, 0.700, 0.500, -67.500, 599, 100, 97, 22, 23134, -19484, 5139, 5244, 24, 14, 1530811694.171, 4, 0, 1024, 1024, 1024, 1024, 0, 6, 3837, 3871, 3858, 3863, 3853, 3853, 0, 1, 12904, -90.000, 0.000, -66.500, 0.000, 0.000, -3.000, 0.0, , , , , , 94, , , 33, 33, 33
35.7013470, -118.5808836, 22.500, 10:28:14.267, 17, 0.00, 0.23, 98, 0.700, 0.500, -67.500, 599, 100, 97, 22, 23134, -19484, 5139, 5244, 24, 14, 1530811694.267, 100, 0, 1024, 1024, 1024, 1024, 0, 6, 3837, 3871, 3858, 3863, 3853, 3853, 0, 1, 13000, -90.000, 0.000, -66.500, 0.000, 0.000, -3.000, 0.0, , , , , , 94, , , 33, 33, 33
35.7013470, -118.5808835, 23.000, 10:28:14.366, 17, 0.00, 0.23, 98, 0.800, 0.400, -67.500, 599, 100, 97, 22, 23134, -19484, 5139, 5244, 24, 14, 1530811694.366, 2, 0, 1024, 1024, 1024, 1024, 0, 6, 3837, 3871, 3858, 3863, 3853, 3853, 0, 1, 13100, -90.000, 0.000, -66.500, 0.000, 0.000, -2.900, 0.0, , , , , , 94, , , 33, 33, 33
35.7013470, -118.5808835, 23.000, 10:28:14.467, 17, 0.00, 0.23, 98, 0.800, 0.400, -67.500, 599, 100, 97, 22, 23134, -19484, 5139, 5244, 24, 14, 1530811694.467, 103, 0, 1024, 1024, 1024, 1024, 0, 6, 3837, 3871, 3858, 3863, 3853, 3853, 0, 1, 13200, -90.000, 0.000, -66.500, 0.000, 0.000, -2.900, 0.0, , , , , , 94, , , 33, 33, 33
35.7013470, -118.5808835, 23.300, 10:28:14.567, 17, 0.00, 0.23, 98, 0.800, 0.400, -67.500, 599, 100, 97, 22, 23134, -19484, 5139, 5244, 24, 14, 1530811694.567, 97, 0, 1024, 1024, 1024, 1024, 0, 6, 3837, 3871, 3858, 3863, 3853, 3853, 0, 1, 13300, -90.000, 0.000, -66.500, 0.000, 0.000, -2.900, 0.0, , , , , , 94, , , 33, 33, 33
35.7013470, -118.5808835, 23.600, 10:28:14.667, 17, 0.00, 0.23, 98, 0.700, 0.400, -67.500, 599, 100, 97, 22, 23134, -19484, 5139, 5244, 24, 14, 1530811694.667, 96, 0, 1024, 1024, 1024, 1024, 0, 6, 3837, 3871, 3858, 3863, 3853, 3853, 0, 1, 13400, -90.000, 0.000, -66.500, 0.000, 0.000, -2.900, 0.0, , , , , , 94, , , 33, 33, 33
35.7013470, -118.5808835, 23.900, 10:28:14.767, 17, 0.00, 0.23, 98, 0.500, 0.600, -67.500, 599, 100, 99, 22, 23134, -19484, 5139, 5244, 24, 14, 1530811694.767, 63, 0, 1024, 1024, 1024, 1024, 0, 6, 3837, 3871, 3858, 3863, 3853, 3853, 0, 1, 13500, -89.900, 0.000, -66.500, 0.000, 0.000, -2.900, 0.0, , , , , , 94, , , 33, 33, 33
35.7013469, -118.5808834, 24.200, 10:28:14.867, 17, 0.00, 0.23, 98, 0.500, 0.600, -67.500, 599, 100, 99, 22, 23134, -19484, 5139, 5244, 24, 14, 1530811694.867, 77, 0, 1024, 1024, 1024, 1024, 0, 6, 3837, 3871, 3858, 3863, 3853, 3853, 0, 1, 13600, -89.900, 0.000, -66.500, 0.000, 0.000, -2.800, 0.0, , , , , , 94, , , 33, 33, 33
35.7013469, -118.5808834, 24.500, 10:28:14.967, 17, 0.00, 0.23, 98, 0.700, 0.600, -67.600, 599, 100, 99, 22, 23134, -19484, 5139, 5244, 24, 14, 1530811694.967, 68, 0, 1024, 1024, 1024, 1024, 0, 6, 3837, 3871, 3858, 3863, 3853, 3853, 0, 1, 13700, -90.000, 0.000, -66.500, 0.000, 0.000, -2.800, 0.0, , , , , , 94, , , 33, 33, 33
35.7013469, -118.5808834, 24.800, 10:28:15.067, 17, 0.00, 0.23, 98, 0.900, 0.500, -67.600, 599, 100, 99, 22, 23134, -19484, 5139, 5244, 24, 14, 1530811695.067, 63, 0, 1024, 1024, 1024, 1024, 0, 6, 3837, 3871, 3858, 3863, 3853, 3853, 0, 1, 13800, -90.000, 0.000, -66.500, 0.000, 0.000, -2.900, 0.0, , , , , , 94, , , 33, 33, 33
35.7013469, -118.5808834, 25.100, 10:28:15.167, 17, 0.00, 0.22, 98, 1.000, 0.500, -67.600, 599, 100, 99, 22, 23154, -18926, 5139, 5244, 24, 14, 1530811695.167, 66, 0, 1024, 1024, 1024, 1024, 0, 6, 3841, 3866, 3867, 3859, 3846, 3857, 0, 1, 13900, -90.000, 0.000, -66.500, 0.000, 0.000, -2.900, 0.0, , , , , , 94, , , 33, 33, 33
35.7013468, -118.5808834, 25.400, 10:28:15.267, 17, 0.00, 0.22, 98, 1.000, 0.400, -67.500, 599, 100, 99, 22, 23154, -18926, 5139, 5244, 24, 14, 1530811695.267, 70, 0, 1024, 1024, 1024, 1024, 0, 6, 3841, 3866, 3867, 3859, 3846, 3857, 0, 1, 14000, -90.000, 0.000, -66.500, 0.000, 0.000, -3.000, 0.0, , , , , , 94, , , 33, 33, 33
35.7013468, -118.5808833, 25.700, 10:28:15.367, 17, 0.00, 0.22, 98, 1.100, 0.300, -67.500, 599, 100, 99, 22, 23154, -18926, 5139, 5244, 24, 14, 1530811695.367, 26, 0, 1024, 1024, 1024, 1024, 0, 6, 3841, 3866, 3867, 3859, 3846, 3857, 0, 1, 14100, -90.000, 0.000, -66.500, 0.000, 0.000, -3.000, 0.0, , , , , , 94, , , 33, 33, 33
35.7013468, -118.5808833, 26.300, 10:28:15.467, 17, 0.00, 0.21, 98, 1.000, 0.100, -67.500, 599, 100, 99, 22, 23154, -18926, 5139, 5244, 24, 14, 1530811695.467, 55, 0, 1024, 1024, 1024, 1024, 0, 6, 3841, 3866, 3867, 3859, 3846, 3857, 0, 1, 14200, -90.000, 0.000, -66.500, 0.000, 0.000, -3.000, 0.0, , , , , , 94, , , 33, 33, 33
35.7013468, -118.5808833, 26.600, 10:28:15.567, 17, 0.00, 0.21, 98, 1.000, 0.000, -67.500, 599, 100, 99, 22, 23154, -18926, 5139, 5244, 24, 14, 1530811695.567, 47, 0, 1024, 1024, 1024, 1024, 0, 6, 3841, 3866, 3867, 3859, 3846, 3857, 0, 1, 14300, -90.000, 0.000, -66.500, 0.000, 0.000, -3.000, 0.0, , , , , , 94, , , 33, 33, 33
35.7013467, -118.5808832, 26.900, 10:28:15.667, 17, 0.00, 0.21, 98, 1.000, 0.000, -67.500, 599, 100, 99, 22, 23154, -18926, 5139, 5244, 24, 14, 1530811695.667, 40, 0, 1024, 1024, 1024, 1024, 0, 6, 3841, 3866, 3867, 3859, 3846, 3857, 0, 1, 14400, -90.000, 0.000, -66.500, 0.000, 0.000, -3.000, 0.0, , , , , , 94, , , 33, 33, 33
35.7013467, -118.5808832, 27.200, 10:28:15.767, 17, 0.00, 0.20, 98, 1.000, -0.100, -67.400, 599, 100, 99, 22, 23154, -18926, 5139, 5244, 24, 14, 1530811695.767, 41, 0, 1024, 1024, 1024, 1024, 0, 6, 3841, 3866, 3867, 3859, 3846, 3857, 0, 1, 14500, -90.000, 0.000, -66.500, 0.000, 0.000, -2.900, 0.0, , , , , , 94, , , 33, 33, 33
35.7013466, -118.5808832, 27.500, 10:28:15.867, 17, 0.00, 0.20, 98, 1.200, 0.000, -67.400, 599, 100, 99, 22, 23154, -18926, 5139, 5244, 24, 14, 1530811695.867, 46, 0, 1024, 1024, 1024, 1024, 0, 6, 3841, 3866, 3867, 3859, 3846, 3857, 0, 1, 14600, -90.000, 0.000, -66.500, 0.000, 0.000, -3.000, 0.0, , , , , , 94, , , 33, 33, 33
35.7013466, -118.5808832, 27.800, 10:28:15.967, 17, 0.00, 0.19, 98, 1.300, -0.100, -67.400, 599, 100, 99, 22, 23154, -18926, 5139, 5244, 24, 14, 1530811695.967, 29, 0, 1024, 1024, 1024, 1024, 0, 6, 3841, 3866, 3867, 3859, 3846, 3857, 0, 1, 14700, -90.000, 0.000, -66.500, 0.000, 0.000, -2.900, 0.0, , , , , , 94, , , 33, 33, 33
35.7013466, -118.5808833, 28.100, 10:28:16.067, 17, 0.00, 0.19, 98, 1.400, 0.000, -67.400, 599, 100, 99, 22, 23069, -19466, 5086, 5244, 24, 14, 1530811696.067, 32, 0, 1024, 1024, 1024, 1024, 0, 6, 3832, 3857, 3848, 3844, 3828, 3839, 0, 1, 14800, -90.000, 0.000, -66.500, 0.000, 0.000, -2.900, 0.0, , , , , , 94, , , 33, 33, 33
35.7013465, -118.5808833, 28.400, 10:28:16.166, 17, 0.00, 0.19, 98, 1.400, 0.100, -67.400, 599, 100, 99, 22, 23069, -19466, 5086, 5244, 24, 14, 1530811696.167, 9, 0, 1024, 1024, 1024, 1024, 0, 6, 3832, 3857, 3848, 3844, 3828, 3839, 0, 1, 14900, -89.900, 0.000, -66.500, 0.000, 0.000, -2.900, 0.0, , , , , , 94, , , 33, 33, 33
35.7013465, -118.5808833, 28.700, 10:28:16.266, 17, 0.00, 0.18, 98, 1.300, 0.200, -67.400, 599, 100, 99, 22, 23069, -19466, 5086, 5244, 24, 14, 1530811696.267, 37, 0, 1024, 1024, 1024, 1024, 0, 6, 3832, 3857, 3848, 3844, 3828, 3839, 0, 1, 15000, -89.900, 0.000, -66.500, 0.000, 0.000, -2.900, 0.0, , , , , , 94, , , 33, 33, 33
35.7013465, -118.5808834, 29.000, 10:28:16.367, 17, 0.00, 0.18, 98, 1.300, 0.200, -67.400, 599, 100, 99, 22, 23069, -19466, 5086, 5244, 24, 14, 1530811696.367, 7, 0, 1024, 1024, 1024, 1024, 0, 6, 3832, 3857, 3848, 3844, 3828, 3839, 0, 1, 15100, -89.900, 0.000, -66.500, 0.000, 0.000, -2.900, 0.0, , , , , , 94, , , 33, 33, 33
35.7013465, -118.5808834, 29.300, 10:28:16.467, 17, 0.00, 0.18, 98, 1.200, 0.200, -67.500, 599, 100, 99, 22, 23069, -19466, 5086, 5244, 24, 14, 1530811696.467, 12, 0, 1024, 1024, 1024, 1024, 0, 6, 3832, 3857, 3848, 3844, 3828, 3839, 0, 1, 15200, -89.900, 0.000, -66.500, 0.000, 0.000, -2.900, 0.0, , , , , , 94, , , 33, 33, 33
35.7013465, -118.5808834, 29.600, 10:28:16.569, 17, 0.00, 0.18, 98, 1.100, 0.300, -67.500, 599, 100, 99, 22, 23069, -19466, 5086, 5244, 24, 14, 1530811696.569, 2, 0, 1024, 1024, 1024, 1024, 0, 6, 3832, 3857, 3848, 3844, 3828, 3839, 0, 1, 15302, -89.900, 0.000, -66.500, 0.000, 0.000, -2.900, 0.0, , , , , , 94, , , 33, 33, 33
35.7013465, -118.5808834, 29.900, 10:28:16.666, 17, 0.00, 0.18, 98, 1.000, 0.500, -67.500, 599, 100, 100, 22, 23069, -19466, 5086, 5244, 24, 14, 1530811696.666, 4, 0, 1024, 1024, 1024, 1024, 0, 6, 3832, 3857, 3848, 3844, 3828, 3839, 0, 1, 15399, -89.900, 0.000, -66.500, 0.000, 0.000, -2.900, 0.0, , , , , , 94, , , 33, 33, 33
35.7013465, -118.5808834, 30.200, 10:28:16.766, 17, 0.00, 0.18, 98, 0.900, 0.400, -67.600, 599, 100, 100, 22, 23069, -19466, 5086, 5244, 24, 14, 1530811696.767, 6, 0, 1024, 1024, 1024, 1024, 0, 6, 3832, 3857, 3848, 3844, 3828, 3839, 0, 1, 15500, -89.900, 0.000, -66.500, 0.000, 0.000, -2.900, 0.0, , , , , , 94, , , 33, 33, 33
35.7013465, -118.5808834, 30.200, 10:28:16.866, 17, 0.00, 0.18, 98, 0.900, 0.400, -67.600, 599, 100, 100, 22, 23069, -19466, 5086, 5244, 24, 14, 1530811696.867, 106, 0, 1024, 1024, 1024, 1024, 0, 6, 3832, 3857, 3848, 3844, 3828, 3839, 0, 1, 15600, -89.900, 0.000, -66.500, 0.000, 0.000, -2.900, 0.0, , , , , , 94, , , 33, 33, 33
35.7013465, -118.5808835, 30.500, 10:28:16.966, 17, 0.00, 0.18, 98, 0.900, 0.300, -67.700, 599, 100, 100, 22, 23069, -19466, 5086, 5244, 24, 14, 1530811696.966, 78, 0, 1024, 1024, 1024, 1024, 0, 6, 3832, 3857, 3848, 3844, 3828, 3839, 0, 1, 15699, -90.000, 0.000, -66.500, 0.000, 0.000, -3.000, 0.0, , , , , , 94, , , 33, 33, 33
35.7013465, -118.5808835, 30.500, 10:28:17.067, 17, 0.00, 0.18, 98, 0.900, 0.300, -67.700, 599, 100, 100, 22, 23069, -19466, 5086, 5244, 24, 14, 1530811697.067, 180, 0, 1024, 1024, 1024, 1024, 0, 6, 3832, 3857, 3848, 3844, 3828, 3839, 0, 1, 15800, -90.000, 0.000, -66.500, 0.000, 0.000, -3.000, 0.0, , , , , , 94, , , 33, 33, 33
35.7013465, -118.5808835, 31.100, 10:28:17.166, 17, 0.00, 0.18, 97, 1.000, 0.100, -67.700, 599, 100, 100, 22, 23035, -19355, 5086, 5244, 24, 14, 1530811697.166, 71, 0, 1024, 1024, 1024, 1024, 0, 6, 3832, 3857, 3848, 3844, 3828, 3839, 0, 1, 15900, -90.000, 0.000, -66.500, 0.000, 0.000, -2.900, 0.0, , , , , , 94, , , 33, 33, 33
35.7013465, -118.5808835, 31.400, 10:28:17.266, 17, 0.00, 0.18, 97, 1.000, 0.200, -67.600, 599, 100, 98, 22, 23035, -19355, 5086, 5244, 24, 14, 1530811697.267, 90, 0, 1024, 1024, 1024, 1024, 0, 6, 3832, 3857, 3848, 3844, 3828, 3839, 0, 1, 16000, -90.000, 0.000, -66.500, 0.000, 0.000, -2.900, 0.0, , , , , , 94, , , 33, 33, 33
35.7013464, -118.5808835, 31.700, 10:28:17.366, 17, 0.00, 0.17, 97, 1.000, 0.300, -67.600, 599, 100, 98, 22, 23035, -19355, 5086, 5244, 24, 14, 1530811697.367, 93, 0, 1024, 1024, 1024, 1024, 0, 6, 3832, 3857, 3848, 3844, 3828, 3839, 0, 1, 16100, -90.000, 0.000, -66.500, 0.000, 0.000, -2.900, 0.0, , , , , , 94, , , 33, 33, 33
35.7013464, -118.5808835, 31.700, 10:28:17.467, 17, 0.00, 0.17, 97, 1.000, 0.300, -67.600, 599, 100, 98, 22, 23035, -19355, 5086, 5244, 24, 14, 1530811697.467, 193, 0, 1024, 1024, 1024, 1024, 0, 6, 3832, 3857, 3848, 3844, 3828, 3839, 0, 1, 16200, -89.900, 0.000, -66.500, 0.000, 0.000, -2.900, 0.0, , , , , , 94, , , 33, 33, 33
35.7013464, -118.5808835, 31.700, 10:28:17.566, 17, 0.00, 0.17, 97, 1.000, 0.300, -67.600, 599, 100, 98, 22, 23035, -19355, 5086, 5244, 24, 14, 1530811697.567, 293, 0, 1024, 1024, 1024, 1024, 0, 6, 3832, 3857, 3848, 3844, 3828, 3839, 0, 1, 16300, -90.000, 0.000, -66.500, 0.000, 0.000, -2.900, 0.0, , , , , , 94, , , 33, 33, 33
35.7013464, -118.5808835, 31.700, 10:28:17.666, 17, 0.00, 0.17, 97, 1.000, 0.300, -67.600, 599, 100, 98, 22, 23035, -19355, 5086, 5244, 24, 14, 1530811697.667, 393, 0, 1024, 1024, 1024, 1024, 0, 6, 3832, 3857, 3848, 3844, 3828, 3839, 0, 1, 16400, -90.000, 0.000, -66.500, 0.000, 0.000, -2.900, 0.0, , , , , , 94, , , 33, 33, 33
35.7013464, -118.5808835, 32.900, 10:28:17.766, 17, 0.00, 0.16, 97, 1.100, 0.000, -67.700, 599, 100, 98, 22, 23035, -19355, 5086, 5244, 24, 14, 1530811697.767, 29, 0, 1024, 1024, 1024, 1024, 0, 6, 3813, 3855, 3835, 3842, 3823, 3842, 0, 1, 16500, -90.000, 0.000, -66.500, 0.000, 0.000, -3.000, 0.0, , , , , , 94, , , 33, 33, 33
35.7013463, -118.5808835, 33.500, 10:28:17.866, 17, 0.00, 0.16, 97, 1.300, -0.100, -67.800, 599, 100, 98, 22, 23035, -19355, 5086, 5244, 24, 14, 1530811697.867, 67, 0, 1024, 1024, 1024, 1024, 0, 6, 3813, 3855, 3835, 3842, 3823, 3842, 0, 1, 16600, -90.000, 0.000, -66.500, 0.000, 0.000, -2.900, 0.0, , , , , , 94, , , 33, 33, 33
35.7013463, -118.5808835, 33.800, 10:28:17.966, 17, 0.00, 0.16, 97, 1.400, -0.100, -67.800, 599, 100, 98, 22, 23035, -19355, 5086, 5244, 24, 14, 1530811697.967, 59, 0, 1024, 1024, 1024, 1024, 0, 6, 3813, 3855, 3835, 3842, 3823, 3842, 0, 1, 16700, -90.000, 0.000, -66.500, 0.000, 0.000, -2.900, 0.0, , , , , , 94, , , 33, 33, 33
35.7013463, -118.5808835, 34.100, 10:28:18.066, 17, 0.00, 0.15, 97, 1.300, 0.100, -67.800, 599, 100, 98, 22, 23035, -19355, 5086, 5244, 24, 14, 1530811698.067, 51, 0, 1024, 1024, 1024, 1024, 0, 6, 3813, 3855, 3835, 3842, 3823, 3842, 0, 1, 16800, -90.000, 0.000, -66.500, 0.000, 0.000, -2.900, 0.0, , , , , , 94, , , 33, 33, 33
35.7013463, -118.5808835, 34.400, 10:28:18.166, 17, 0.00, 0.15, 97, 1.200, 0.200, -67.800, 599, 100, 97, 22, 23035, -19355, 5086, 5244, 24, 14, 1530811698.167, 35, 0, 1024, 1024, 1024, 1024, 0, 6, 3813, 3855, 3835, 3842, 3823, 3842, 0, 1, 16900, -90.000, 0.000, -66.500, 0.000, 0.000, -2.900, 0.0, , , , , , 94, , , 33, 33, 33
35.7013462, -118.5808835, 34.700, 10:28:18.266, 17, 0.00, 0.15, 97, 1.100, 0.100, -67.700, 599, 100, 97, 22, 23035, -19355, 5086, 5244, 24, 14, 1530811698.267, 39, 0, 1024, 1024, 1024, 1024, 0, 6, 3813, 3855, 3835, 3842, 3823, 3842, 0, 1, 17000, -90.000, 0.000, -66.500, 0.000, 0.000, -2.900, 0.0, , , , , , 94, , , 33, 33, 33
35.7013462, -118.5808836, 35.000, 10:28:18.366, 17, 0.00, 0.15, 97, 1.200, 0.000, -67.500, 599, 100, 97, 22, 23035, -19355, 5086, 5244, 24, 14, 1530811698.366, 41, 0, 1024, 1024, 1024, 1024, 0, 6, 3813, 3855, 3835, 3842, 3823, 3842, 0, 1, 17100, -90.000, 0.000, -66.500, 0.000, 0.000, -3.000, 0.0, , , , , , 94, , , 33, 33, 33
35.7013462, -118.5808835, 35.300, 10:28:18.466, 17, 0.00, 0.14, 97, 1.300, 0.000, -67.300, 599, 100, 97, 22, 23035, -19355, 5086, 5244, 24, 14, 1530811698.467, 45, 0, 1024, 1024, 1024, 1024, 0, 6, 3813, 3855, 3835, 3842, 3823, 3842, 0, 1, 17200, -89.900, 0.000, -66.500, 0.000, 0.000, -3.000, 0.0, , , , , , 94, , , 33, 33, 33
35.7013462, -118.5808835, 35.600, 10:28:18.566, 17, 0.00, 0.14, 97, 1.400, 0.000, -67.000, 599, 100, 97, 22, 22962, -19313, 5086, 5244, 24, 14, 1530811698.566, 26, 0, 1024, 1024, 1024, 1024, 0, 6, 3809, 3847, 3840, 3833, 3828, 3827, 0, 1, 17299, -90.000, 0.000, -66.500, 0.000, 0.000, -3.000, 0.0, , , , , , 94, , , 33, 33, 33
35.7013461, -118.5808835, 35.900, 10:28:18.666, 17, 0.00, 0.14, 97, 1.300, -0.100, -66.800, 599, 100, 99, 22, 22962, -19313, 5086, 5244, 24, 14, 1530811698.667, 26, 0, 1024, 1024, 1024, 1024, 0, 6, 3809, 3847, 3840, 3833, 3828, 3827, 0, 1, 17400, -89.900, 0.000, -66.500, 0.000, 0.000, -3.000, 0.0, , , , , , 94, , , 33, 33, 33
35.7013461, -118.5808835, 36.200, 10:28:18.766, 17, 0.00, 0.14, 97, 1.200, 0.000, -66.700, 599, 100, 99, 22, 22962, -19313, 5086, 5244, 24, 14, 1530811698.767, 16, 0, 1024, 1024, 1024, 1024, 0, 6, 3809, 3847, 3840, 3833, 3828, 3827, 0, 1, 17500, -89.900, 0.000, -66.500, 0.000, 0.000, -3.000, 0.0, , , , , , 94, , , 33, 33, 33
35.7013461, -118.5808835, 36.500, 10:28:18.866, 17, 0.00, 0.14, 97, 1.100, 0.000, -66.700, 599, 100, 99, 22, 22962, -19313, 5086, 5244, 24, 14, 1530811698.866, 7, 0, 1024, 1024, 1024, 1024, 0, 6, 3809, 3847, 3840, 3833, 3828, 3827, 0, 1, 17600, -89.900, 0.000, -66.500, 0.000, 0.000, -3.000, 0.0, , , , , , 94, , , 33, 33, 33
35.7013461, -118.5808835, 36.500, 10:28:18.966, 17, 0.00, 0.14, 97, 1.100, 0.000, -66.700, 599, 100, 99, 22, 22962, -19313, 5086, 5244, 24, 14, 1530811698.967, 107, 0, 1024, 1024, 1024, 1024, 0, 6, 3809, 3847, 3840, 3833, 3828, 3827, 0, 1, 17700, -89.900, 0.000, -66.500, 0.000, 0.000, -3.000, 0.0, , , , , , 94, , , 33, 33, 33
35.7013461, -118.5808835, 37.100, 10:28:19.066, 17, 0.00, 0.14, 97, 1.100, 0.000, -66.900, 599, 100, 99, 22, 22962, -19313, 5086, 5244, 24, 14, 1530811699.067, 11, 0, 1024, 1024, 1024, 1024, 0, 6, 3809, 3847, 3840, 3833, 3828, 3827, 0, 1, 17800, -90.000, 0.000, -66.500, 0.000, 0.000, -2.900, 0.0, , , , , , 94, , , 33, 33, 33
35.7013461, -118.5808835, 37.100, 10:28:19.166, 17, 0.00, 0.14, 97, 1.100, 0.000, -66.900, 599, 100, 99, 22, 22962, -19313, 5086, 5244, 24, 14, 1530811699.166, 111, 0, 1024, 1024, 1024, 1024, 0, 6, 3809, 3847, 3840, 3833, 3828, 3827, 0, 1, 17900, -90.000, 0.000, -66.500, 0.000, 0.000, -2.900, 0.0, , , , , , 94, , , 33, 33, 33
35.7013461, -118.5808834, 37.400, 10:28:19.266, 17, 0.00, 0.14, 97, 1.100, 0.000, -67.100, 599, 100, 95, 22, 22962, -19313, 5086, 5244, 24, 14, 1530811699.267, 92, 0, 1024, 1024, 1024, 1024, 0, 6, 3809, 3847, 3840, 3833, 3828, 3827, 0, 1, 18000, -90.000, 0.000, -66.500, 0.000, 0.000, -2.900, 0.0, , , , , , 94, , , 33, 33, 33
35.7013461, -118.5808834, 37.400, 10:28:19.366, 17, 0.00, 0.14, 97, 1.100, 0.000, -67.100, 599, 100, 95, 22, 22962, -19313, 5086, 5244, 24, 14, 1530811699.367, 192, 0, 1024, 1024, 1024, 1024, 0, 6, 3809, 3847, 3840, 3833, 3828, 3827, 0, 1, 18100, -89.900, 0.000, -66.500, 0.000, 0.000, -2.900, 0.0, , , , , , 94, , , 33, 33, 33
35.7013461, -118.5808834, 38.000, 10:28:19.466, 17, 0.00, 0.14, 97, 1.000, -0.100, -67.300, 599, 100, 95, 22, 22962, -19313, 5086, 5244, 24, 14, 1530811699.466, 81, 0, 1024, 1024, 1024, 1024, 0, 6, 3809, 3847, 3840, 3833, 3828, 3827, 0, 1, 18199, -90.000, 0.000, -66.500, 0.000, 0.000, -3.000, 0.0, , , , , , 94, , , 33, 33, 33
35.7013461, -118.5808833, 38.300, 10:28:19.566, 17, 0.00, 0.14, 97, 0.900, -0.200, -67.400, 599, 100, 95, 22, 22962, -19313, 5086, 5244, 24, 14, 1530811699.566, 85, 0, 1024, 1024, 1024, 1024, 0, 6, 3809, 3847, 3840, 3833, 3828, 3827, 0, 1, 18299, -90.000, 0.000, -66.500, 0.000, 0.000, -2.900, 0.0, , , , , , 94, , , 33, 33, 33
35.7013462, -118.5808833, 38.600, 10:28:19.666, 17, 0.00, 0.15, 97, 0.900, -0.400, -67.500, 599, 100, 95, 22, 22973, -19086, 5086, 5244, 24, 14, 1530811699.667, 81, 0, 1024, 1024, 1024, 1024, 0, 6, 3809, 3845, 3840, 3832, 3826, 3828, 0, 1, 18400, -90.000, 0.000, -66.500, 0.000, 0.000, -3.000, 0.0, , , , , , 94, , , 33, 33, 33
35.7013462, -118.5808832, 38.900, 10:28:19.766, 17, 0.00, 0.15, 97, 0.700, -0.400, -67.500, 599, 100, 95, 22, 22973, -19086, 5086, 5244, 24, 14, 1530811699.766, 84, 0, 1024, 1024, 1024, 1024, 0, 6, 3809, 3845, 3840, 3832, 3826, 3828, 0, 1, 18499, -90.000, 0.000, -66.500, 0.000, 0.000, -2.900, 0.0, , , , , , 94, , , 33, 33, 33
35.7013461, -118.5808832, 39.200, 10:28:19.866, 17, 0.00, 0.15, 97, 0.700, -0.400, -67.500, 599, 100, 95, 22, 22973, -19086, 5086, 5244, 24, 14, 1530811699.866, 53, 0, 1024, 1024, 1024, 1024, 0, 6, 3809, 3845, 3840, 3832, 3826, 3828, 0, 1, 18600, -90.000, 0.000, -66.500, 0.000, 0.000, -2.900, 0.0, , , , , , 94, , , 33, 33, 33
35.7013461, -118.5808832, 39.500, 10:28:19.966, 17, 0.00, 0.15, 97, 0.800, -0.300, -67.600, 599, 100, 95, 22, 22973, -19086, 5086, 5244, 24, 14, 1530811699.967, 58, 0, 1024, 1024, 1024, 1024, 0, 6, 3809, 3845, 3840, 3832, 3826, 3828, 0, 1, 18700, -90.000, 0.000, -66.500, 0.000, 0.000, -2.900, 0.0, , , , , , 94, , , 33, 33, 33
35.7013461, -118.5808832, 39.800, 10:28:20.066, 17, 0.00, 0.15, 97, 0.900, -0.300, -67.600, 599, 100, 95, 22, 22973, -19086, 5086, 5244, 24, 14, 1530811700.066, 44, 0, 1024, 1024, 1024, 1024, 0, 6, 3809, 3845, 3840, 3832, 3826, 3828, 0, 1, 18799, -90.000, 0.000, -66.500, 0.000, 0.000, -3.000, 0.0, , , , , , 94, , , 33, 33, 33
35.7013461, -118.5808832, 40.400, 10:28:20.166, 17, 0.00, 0.14, 97, 1.000, -0.300, -67.800, 599, 100, 95, 22, 22973, -19086, 5086, 5244, 24, 14, 1530811700.166, 50, 0, 1024, 1024, 1024, 1024, 0, 6, 3809, 3845, 3840, 3832, 3826, 3828, 0, 1, 18899, -90.000, 0.000, -66.500, 0.000, 0.000, -3.000, 0.0, , , , , , 94, , , 33, 33, 33
35.7013461, -118.5808832, 40.700, 10:28:20.266, 17, 0.00, 0.14, 97, 1.000, -0.200, -67.900, 599, 100, 93, 22, 22973, -19086, 5086, 5244, 24, 14, 1530811700.266, 60, 0, 1024, 1024, 1024, 1024, 0, 6, 3809, 3845, 3840, 3832, 3826, 3828, 0, 1, 18999, -90.000, 0.000, -66.500, 0.000, 0.000, -2.900, 0.0, , , , , , 94, , , 33, 33, 33
35.7013461, -118.5808832, 40.700, 10:28:20.366, 17, 0.00, 0.14, 97, 1.000, -0.200, -67.900, 599, 100, 93, 22, 22973, -19086, 5086, 5244, 24, 14, 1530811700.366, 161, 0, 1024, 1024, 1024, 1024, 0, 6, 3809, 3845, 3840, 3832, 3826, 3828, 0, 1, 19100, -90.000, 0.000, -66.500, 0.000, 0.000, -2.900, 0.0, , , , , , 94, , , 33, 33, 33
35.7013461, -118.5808832, 41.300, 10:28:20.466, 17, 0.00, 0.15, 97, 1.000, -0.300, -68.100, 599, 100, 93, 22, 22973, -19086, 5086, 5244, 24, 14, 1530811700.467, 24, 0, 1024, 1024, 1024, 1024, 0, 6, 3809, 3845, 3840, 3832, 3826, 3828, 0, 1, 19200, -90.000, 0.000, -66.500, 0.000, 0.000, -2.900, 0.0, , , , , , 94, , , 33, 33, 33
35.7013461, -118.5808832, 41.600, 10:28:20.566, 17, 0.00, 0.15, 97, 0.900, -0.400, -68.000, 599, 100, 93, 22, 22973, -19086, 5086, 5244, 24, 14, 1530811700.566, 30, 0, 1024, 1024, 1024, 1024, 0, 6, 3809, 3845, 3840, 3832, 3826, 3828, 0, 1, 19299, -90.000, 0.000, -66.500, 0.000, 0.000, -2.900, 0.0, , , , , , 94, , , 33, 33, 33
35.7013461, -118.5808832, 41.600, 10:28:20.666, 17, 0.00, 0.15, 97, 0.900, -0.400, -68.000, 599, 100, 96, 22, 22973, -19086, 5086, 5244, 24, 14, 1530811700.666, 130, 0, 1024, 1024, 1024, 1024, 0, 6, 3809, 3845, 3840, 3832, 3826, 3828, 0, 1, 19400, -90.000, 0.000, -66.500, 0.000, 0.000, -2.900, 0.0, , , , , , 94, , , 33, 33, 33
35.7013461, -118.5808832, 42.200, 10:28:20.766, 17, 0.00, 0.14, 97, 1.200, -0.100, -67.800, 599, 100, 96, 22, 22973, -19086, 5086, 5244, 24, 14, 1530811700.766, 28, 0, 1024, 1024, 1024, 1024, 0, 6, 3809, 3845, 3840, 3832, 3826, 3828, 0, 1, 19500, -89.900, 0.000, -66.500, 0.000, 0.000, -2.900, 0.0, , , , , , 94, , , 33, 33, 33
35.7013461, -118.5808833, 42.500, 10:28:20.866, 17, 0.00, 0.14, 97, 1.200, 0.000, -67.800, 599, 100, 96, 22, 22973, -19086, 5086, 5244, 24, 14, 1530811700.866, 28, 0, 1024, 1024, 1024, 1024, 0, 6, 3809, 3845, 3840, 3832, 3826, 3828, 0, 1, 19600, -89.900, 0.000, -66.500, 0.000, 0.000, -3.000, 0.0, , , , , , 94, , , 33, 33, 33
35.7013461, -118.5808833, 42.500, 10:28:20.966, 17, 0.00, 0.14, 97, 1.200, 0.000, -67.800, 599, 100, 96, 22, 22973, -19086, 5086, 5244, 24, 14, 1530811700.966, 128, 0, 1024, 1024, 1024, 1024, 0, 6, 3809, 3845, 3840, 3832, 3826, 3828, 0, 1, 19700, -89.900, 0.000, -66.500, 0.000, 0.000, -3.000, 0.0, , , , , , 94, , , 33, 33, 33
35.7013461, -118.5808833, 43.000, 10:28:21.066, 17, 0.00, 0.14, 97, 1.400, 0.100, -67.700, 599, 100, 96, 22, 22966, -18790, 5086, 5244, 24, 14, 1530811701.067, 12, 0, 1024, 1024, 1024, 1024, 0, 6, 3791, 3853, 3833, 3837, 3833, 3817, 0, 1, 19800, -89.900, 0.000, -66.500, 0.000, 0.000, -2.900, 0.0, , , , , , 94, , , 33, 33, 33
35.7013461, -118.5808834, 43.300, 10:28:21.166, 17, 0.00, 0.13, 97, 1.500, 0.100, -67.700, 599, 100, 96, 22, 22966, -18790, 5086, 5244, 24, 14, 1530811701.166, 34, 0, 1024, 1024, 1024, 1024, 0, 6, 3791, 3853, 3833, 3837, 3833, 3817, 0, 1, 19899, -89.900, 0.000, -66.500, 0.000, 0.000, -2.900, 0.0, , , , , , 94, , , 33, 33, 33
35.7013461, -118.5808834, 43.600, 10:28:21.266, 17, 0.00, 0.13, 97, 1.600, 0.200, -67.600, 599, 100, 96, 22, 22966, -18790, 5086, 5244, 24, 14, 1530811701.266, 11, 0, 1024, 1024, 1024, 1024, 0, 6, 3791, 3853, 3833, 3837, 3833, 3817, 0, 1, 20000, -89.900, 0.000, -66.500, 0.000, 0.000, -2.900, 0.0, , , , , , 94, , , 33, 33, 33
35.7013461, -118.5808834, 43.900, 10:28:21.366, 17, 0.00, 0.13, 97, 1.600, 0.100, -67.500, 599, 100, 96, 22, 22966, -18790, 5086, 5244, 24, 14, 1530811701.366, 25, 0, 1024, 1024, 1024, 1024, 0, 6, 3791, 3853, 3833, 3837, 3833, 3817, 0, 1, 20100, -89.900, 0.000, -66.500, 0.000, 0.000, -3.000, 0.0, , , , , , 94, , , 33, 33, 33
35.7013461, -118.5808834, 43.900, 10:28:21.466, 17, 0.00, 0.13, 97, 1.600, 0.100, -67.500, 599, 100, 96, 22, 22966, -18790, 5086, 5244, 24, 14, 1530811701.466, 125, 0, 1024, 1024, 1024, 1024, 0, 6, 3791, 3853, 3833, 3837, 3833, 3817, 0, 1, 20200, -89.900, 0.000, -66.500, 0.000, 0.000, -3.000, 0.0, , , , , , 94, , , 33, 33, 33
35.7013460, -118.5808835, 44.600, 10:28:21.575, 17, 0.00, 0.13, 97, 1.600, 0.100, -67.100, 599, 100, 96, 22, 22966, -18790, 5086, 5244, 24, 14, 1530811701.575, 1, 0, 1024, 1024, 1024, 1024, 0, 6, 3791, 3853, 3833, 3837, 3833, 3817, 0, 1, 20308, -89.900, 0.000, -66.500, 0.000, 0.000, -3.000, 0.0, , , , , , 94, , , 33, 33, 33
35.7013460, -118.5808836, 44.900, 10:28:21.666, 17, 0.00, 0.13, 97, 1.600, 0.100, -67.000, 599, 100, 99, 22, 22966, -18790, 5086, 5244, 24, 14, 1530811701.666, 4, 0, 1024, 1024, 1024, 1024, 0, 6, 3791, 3853, 3833, 3837, 3833, 3817, 0, 1, 20400, -89.900, 0.000, -66.500, 0.000, 0.000, -3.100, 0.0, , , , , , 94, , , 33, 33, 33
35.7013460, -118.5808836, 44.900, 10:28:21.766, 17, 0.00, 0.13, 97, 1.600, 0.100, -67.000, 599, 100, 99, 22, 22966, -18790, 5086, 5244, 24, 14, 1530811701.766, 103, 0, 1024, 1024, 1024, 1024, 0, 6, 3791, 3853, 3833, 3837, 3833, 3817, 0, 1, 20500, -89.900, 0.000, -66.500, 0.000, 0.000, -3.100, 0.0, , , , , , 94, , , 33, 33, 33
35.7013460, -118.5808836, 45.200, 10:28:21.866, 17, 0.00, 0.13, 97, 1.700, 0.200, -66.900, 599, 100, 99, 22, 22966, -18790, 5086, 5244, 24, 14, 1530811701.866, 94, 0, 1024, 1024, 1024, 1024, 0, 6, 3791, 3853, 3833, 3837, 3833, 3817, 0, 1, 20599, -89.900, 0.000, -66.500, 0.000, 0.000, -3.000, 0.0, , , , , , 94, , , 33, 33, 33
35.7013460, -118.5808836, 45.200, 10:28:21.966, 17, 0.00, 0.13, 97, 1.700, 0.200, -66.900, 599, 100, 99, 22, 22966, -18790, 5086, 5244, 24, 14, 1530811701.966, 195, 0, 1024, 1024, 1024, 1024, 0, 6, 3791, 3853, 3833, 3837, 3833, 3817, 0, 1, 20700, -89.900, 0.000, -66.500, 0.000, 0.000, -3.000, 0.0, , , , , , 94, , , 33, 33, 33
35.7013460, -118.5808836, 45.800, 10:28:22.066, 17, 0.00, 0.12, 97, 1.700, 0.200, -67.000, 599, 100, 99, 22, 22966, -18790, 5086, 5244, 24, 14, 1530811702.066, 80, 0, 1024, 1024, 1024, 1024, 0, 6, 3791, 3853, 3833, 3837, 3833, 3817, 0, 1, 20799, -90.000, 0.000, -66.500, 0.000, 0.000, -2.900, 0.0, , , , , , 94, , , 33, 33, 33
35.7013460, -118.5808837, 46.000, 10:28:22.166, 17, 0.00, 0.12, 97, 1.600, 0.100, -67.100, 599, 100, 99, 22, 22979, -18589, 5086, 5244, 24, 14, 1530811702.166, 76, 0, 1024, 1024, 1024, 1024, 0, 6, 3797, 3847, 3835, 3832, 3830, 3827, 0, 1, 20900, -90.000, 0.000, -66.500, 0.000, 0.000, -2.900, 0.0, , , , , , 94, , , 33, 33, 33
35.7013460, -118.5808837, 46.300, 10:28:22.266, 17, 0.00, 0.12, 97, 1.500, 0.100, -67.300, 599, 100, 100, 22, 22979, -18589, 5086, 5244, 24, 14, 1530811702.266, 79, 0, 1024, 1024, 1024, 1024, 0, 6, 3797, 3847, 3835, 3832, 3830, 3827, 0, 1, 20999, -90.000, 0.000, -66.500, 0.000, 0.000, -3.000, 0.0, , , , , , 94, , , 33, 33, 33
