latitude,longitude,altitude(feet),ascent(feet),speed(mph),distance(feet),time(millisecond),datetime(utc),satellites,gpslevel,voltage(v),max_altitude(feet),max_ascent(feet),max_speed(mph),max_distance(feet), xSpeed(mph), ySpeed(mph), zSpeed(mph), compass_heading(degrees), pitch(degrees), roll(degrees),isPhoto,isVideo,rc_elevator,rc_aileron,rc_throttle,rc_rudder,gimbal_heading(degrees),gimbal_pitch(degrees),battery_percent,voltageCell1,voltageCell2,voltageCell3,voltageCell4,voltageCell5,voltageCell6,current(A),battery_temperature(f),flycStateRaw,flycState,message
35.7013547,-118.5808856,6504.8439325644,-0.328084,0,0,3200,2018-07-05 16:55:49,9,0,0,6504.8439325644,0,0,0,0,0,0,292.3, 1.6, -0.3,1,0,1024,1024,1024,1024,291.7,-89.9,70,4.018,4.01,4.008,4.015,4.019,4.006,0,95,11,AutoTakeoff,DJI_0002.jpg Starting Mission from Lat/Long: 35.70134/-118.58088 Camera: Zenmuse X3 - Overlap: 90/90 - Active Connection: No
35.7013547,-118.5808856,6504.8439325644,-0.328084,0,0,3300,2018-07-05 16:55:49,9,0,0,6504.8439325644,0,0,0,0,0,0,292.2, 1.8, 0,0,0,1024,1024,1024,1024,291.7,-89.9,70,4.018,4.01,4.008,4.015,4.019,4.006,0,95,11,AutoTakeoff,
35.7013547,-118.5808855,6505.1720165644,0,0,0.0296283145964,3400,2018-07-05 16:55:50,9,0,0,6505.1720165644,0,0,0.0296283145964,0,0,-0.223694,292.2, 1.1, 0.4,0,0,1024,1024,1024,1024,291.7,-90,70,4.018,4.01,4.008,4.015,4.019,4.006,0,95,11,AutoTakeoff,
35.7013547,-118.5808855,6505.1720165644,0,0,0.0296283145964,3500,2018-07-05 16:55:50,9,0,0,6505.1720165644,0,0,0.0296283145964,0,0,-0.223694,292.2, 0.5, 0.4,0,0,1024,1024,1024,1024,291.7,-89.9,70,4.018,4.01,4.008,4.015,4.019,4.006,0,95,11,AutoTakeoff,
35.7013547,-118.5808854,6505.1720165644,0,0,0.059256563576,3600,2018-07-05 16:55:50,9,0,0,6505.1720165644,0,0,0.059256563576,0,0,-0.223694,292.2, 0, 0.2,0,0,1024,1024,1024,1024,291.7,-89.9,70,4.018,4.01,4.008,4.015,4.019,4.006,0,95,11,AutoTakeoff,
35.7013546,-118.5808854,6505.5001005644,0.328084,0,0.069587928736,3700,2018-07-05 16:55:50,9,0,0,6505.5001005644,0.328084,0,0.069587928736,0,0,-0.223694,292.2, 0, 0.1,0,0,1024,1024,1024,1024,291.7,-90,70,4.018,4.01,4.008,4.015,4.019,4.006,0,95,11,AutoTakeoff,
35.7013545,-118.5808853,6505.5001005644,0.328084,0.223694,0.115000659848,3800,2018-07-05 16:55:50,9,0,0,6505.5001005644,0.328084,0.223694,0.115000659848,0,0,0,292.3, 0, 0.2,0,0,1024,1024,1024,1024,291.7,-89.9,70,4.018,4.01,4.008,4.015,4.019,4.006,0,95,11,AutoTakeoff,
35.7013545,-118.5808853,6505.8281845644,0.656168,0.223694,0.115000659848,3900,2018-07-05 16:55:50,9,0,0,6505.8281845644,0.656168,0.223694,0.115000659848,0,0,0,292.4, -0.1, 0.4,0,0,1024,1024,1024,1024,291.7,-89.9,70,4.018,4.01,4.008,4.015,4.019,4.006,0,95,11,AutoTakeoff,
35.7013544,-118.5808853,6505.8281845644,0.656168,0.223694,0.140999676428,4000,2018-07-05 16:55:50,9,0,24.146,6505.8281845644,0.656168,0.223694,0.140999676428,0,0,0,292.3, -0.4, 0.6,0,0,1024,1024,1024,1024,291.7,-90,70,4.018,4.01,4.008,4.015,4.019,4.006,3.333,95,11,AutoTakeoff,
35.7013544,-118.5808853,6506.1562685644,0.984252,0.223694,0.140999676428,4100,2018-07-05 16:55:50,9,0,24.146,6506.1562685644,0.984252,0.223694,0.140999676428,0,0,0,292.3, -0.5, 0.6,0,0,1024,1024,1024,1024,291.7,-89.9,70,4.018,4.01,4.008,4.015,4.019,4.006,3.333,95,11,AutoTakeoff,
35.7013544,-118.5808853,6506.1562685644,0.984252,0.223694,0.140999676428,4200,2018-07-05 16:55:50,9,0,24.146,6506.1562685644,0.984252,0.223694,0.140999676428,0,0,0,292.2, -0.3, 0.6,0,0,1024,1024,1024,1024,291.7,-89.9,70,4.018,4.01,4.008,4.015,4.019,4.006,3.333,95,11,AutoTakeoff,
35.7013543,-118.5808854,6506.4843525644,1.312336,0,0.157511159896,4300,2018-07-05 16:55:50,10,0,24.146,6506.4843525644,1.312336,0.223694,0.157511159896,0,0,0,292.2, -0.4, 0.4,0,0,1024,1024,1024,1024,291.7,-89.9,70,4.018,4.01,4.008,4.015,4.019,4.006,3.333,95,11,AutoTakeoff,
35.7013543,-118.5808855,6506.8124365644,1.64042,0,0.148916999516,4400,2018-07-05 16:55:51,10,0,24.146,6506.8124365644,1.64042,0.223694,0.157511159896,0,0,0,292.3, 0, 0.6,0,0,1024,1024,1024,1024,291.7,-89.9,70,4.018,4.01,4.008,4.015,4.019,4.006,3.333,95,11,AutoTakeoff,
35.7013542,-118.5808855,6506.8124365644,1.64042,0,0.184814966544,4500,2018-07-05 16:55:51,10,0,24.146,6506.8124365644,1.64042,0.223694,0.184814966544,0,0,0,292.4, 0.3, 1.1,0,0,1024,1024,1024,1024,291.7,-89.9,70,4.018,4.01,4.008,4.015,4.019,4.006,3.333,95,11,AutoTakeoff,
35.7013542,-118.5808856,6506.8124365644,1.64042,0,0.18242454652,4600,2018-07-05 16:55:51,10,0,24.146,6506.8124365644,1.64042,0.223694,0.184814966544,0,0,0,292.5, 0.1, 1.3,0,0,1024,1024,1024,1024,291.7,-89.9,70,4.018,4.01,4.008,4.015,4.019,4.006,3.333,95,11,AutoTakeoff,
35.7013542,-118.5808857,6507.1405205644,1.968504,0,0.184814966544,4700,2018-07-05 16:55:51,10,0,24.146,6507.1405205644,1.968504,0.223694,0.184814966544,0,0,0,292.5, 0, 1.2,0,0,1024,1024,1024,1024,291.7,-89.9,70,4.018,4.01,4.008,4.015,4.019,4.006,3.333,95,11,AutoTakeoff,
35.7013542,-118.5808857,6507.1405205644,1.968504,0,0.184814966544,4800,2018-07-05 16:55:51,10,0,24.146,6507.1405205644,1.968504,0.223694,0.184814966544,0,0,0,292.6, 0, 1,0,0,1024,1024,1024,1024,291.7,-89.9,70,4.018,4.01,4.008,4.015,4.019,4.006,3.333,95,11,AutoTakeoff,
35.7013542,-118.5808857,6507.4686045644,2.296588,0,0.184814966544,4900,2018-07-05 16:55:51,10,0,24.146,6507.4686045644,2.296588,0.223694,0.184814966544,0,0,0,292.7, 0, 1.3,0,0,1024,1024,1024,1024,291.7,-89.9,70,4.018,4.01,4.008,4.015,4.019,4.006,3.333,95,11,AutoTakeoff,
35.7013543,-118.5808858,6507.4686045644,2.296588,0,0.157511159896,5100,2018-07-05 16:55:51,10,0,24.146,6507.4686045644,2.296588,0.223694,0.184814966544,0,0,-0.223694,292.6, -0.1, 1.3,0,0,1024,1024,1024,1024,291.7,-89.9,70,4.018,4.01,4.008,4.015,4.019,4.006,3.333,95,11,AutoTakeoff,
35.7013543,-118.580886,6507.7966885644,2.624672,0,0.187999349848,5200,2018-07-05 16:55:51,10,0,24.146,6507.7966885644,2.624672,0.223694,0.187999349848,0,0,-0.223694,292.6, 0.2, 1.1,0,0,1024,1024,1024,1024,291.7,-89.9,70,4.018,4.01,4.008,4.015,4.019,4.006,3.333,95,11,AutoTakeoff,
35.7013544,-118.5808863,6508.1247725644,2.952756,0,0.234508865772,5400,2018-07-05 16:55:52,11,0,24.146,6508.1247725644,2.952756,0.223694,0.234508865772,0,0,0,292.4, 0.5, 0.8,0,0,1024,1024,1024,1024,291.7,-89.9,70,4.018,4.01,4.008,4.015,4.019,4.006,3.333,95,14,Waypoint,
35.7013545,-118.5808863,6508.1247725644,2.952756,0,0.21986057134,5600,2018-07-05 16:55:52,11,0,24.146,6508.1247725644,2.952756,0.223694,0.234508865772,0,0,0,292.4, 0.8, 0.6,0,0,1024,1024,1024,1024,291.7,-89.9,70,4.018,4.01,4.008,4.015,4.019,4.006,3.333,95,14,Waypoint,
35.7013546,-118.5808864,6508.4528565644,3.28084,0,0.239818249144,5700,2018-07-05 16:55:52,11,0,24.146,6508.4528565644,3.28084,0.223694,0.239818249144,0,0,0,292.3, 0.9, 0.5,0,0,1024,1024,1024,1024,291.7,-89.9,70,4.018,4.01,4.008,4.015,4.019,4.006,3.333,95,14,Waypoint,
35.7013547,-118.5808865,6508.4528565644,3.28084,0,0.266654864176,5800,2018-07-05 16:55:52,11,0,24.146,6508.4528565644,3.28084,0.223694,0.266654864176,0,0,0,292.3, 0.9, 0.2,0,0,1024,1024,1024,1024,291.7,-89.9,70,4.018,4.01,4.008,4.015,4.019,4.006,3.333,95,14,Waypoint,
35.7013548,-118.5808865,6508.4528565644,3.28084,0,0.269139444308,5900,2018-07-05 16:55:52,11,0,24.146,6508.4528565644,3.28084,0.223694,0.269139444308,0,0,0,292.3, 1, 0.1,0,0,1024,1024,1024,1024,291.7,-89.9,70,4.018,4.01,4.008,4.015,4.019,4.006,3.333,95,14,Waypoint,
35.7013549,-118.5808866,6508.4528565644,3.28084,0,0.305136492704,6000,2018-07-05 16:55:52,11,0,23.229,6508.4528565644,3.28084,0.223694,0.305136492704,0,0,-0.223694,292.3, 0.9, 0,0,0,1024,1024,1024,1024,291.7,-89.9,70,3.857,3.872,3.859,3.88,3.89,3.853,16.774,95,14,Waypoint,
35.701355,-118.5808866,6508.7809405644,3.608924,0,0.3158546689,6100,2018-07-05 16:55:52,11,0,23.229,6508.7809405644,3.608924,0.223694,0.3158546689,0,0,-0.223694,292.4, 0.8, 0,0,0,1024,1024,1024,1024,291.7,-89.9,70,3.857,3.872,3.859,3.88,3.89,3.853,16.774,95,14,Waypoint,
35.701355,-118.5808867,6508.7809405644,3.608924,0,0.3437992236,6200,2018-07-05 16:55:52,11,0,23.229,6508.7809405644,3.608924,0.223694,0.3437992236,0,0,-0.223694,292.5, 0.8, 0.2,0,0,1024,1024,1024,1024,291.7,-89.9,70,3.857,3.872,3.859,3.88,3.89,3.853,16.774,95,14,Waypoint,
35.701355,-118.5808867,6509.1090245644,3.937008,0,0.3437992236,6300,2018-07-05 16:55:52,11,0,23.229,6509.1090245644,3.937008,0.223694,0.3437992236,0,0,-0.223694,292.5, 1, 0.4,0,0,1024,1024,1024,1024,291.7,-89.9,70,3.857,3.872,3.859,3.88,3.89,3.853,16.774,95,14,Waypoint,
35.7013551,-118.5808868,6509.4371085644,4.265092,0,0.38432744012,6400,2018-07-05 16:55:53,11,0,23.229,6509.4371085644,4.265092,0.223694,0.38432744012,0,0,-0.223694,292.5, 1.2, 0.5,0,0,1024,1024,1024,1024,291.7,-89.9,70,3.857,3.872,3.859,3.88,3.89,3.853,16.774,95,14,Waypoint,
35.7013551,-118.5808868,6509.7651925644,4.593176,0,0.38432744012,6500,2018-07-05 16:55:53,10,0,23.229,6509.7651925644,4.593176,0.223694,0.38432744012,0,0,-0.447388,292.6, 1.3, 0.5,0,0,1024,1024,1024,1024,291.7,-89.9,70,3.857,3.872,3.859,3.88,3.89,3.853,16.774,95,14,Waypoint,
35.7013551,-118.5808867,6510.4213605644,5.249344,0,0.35709318728,6600,2018-07-05 16:55:53,10,0,23.229,6510.4213605644,5.249344,0.223694,0.38432744012,0,0,-0.447388,292.7, 1, 0.2,0,0,1024,1024,1024,1024,291.7,-89.9,70,3.857,3.872,3.859,3.88,3.89,3.853,16.774,95,14,Waypoint,
35.701355,-118.5808867,6511.4056125644,6.233596,0,0.3437992236,6700,2018-07-05 16:55:53,11,0,23.229,6511.4056125644,6.233596,0.223694,0.38432744012,0,0,-0.447388,292.8, 0.6, 0,0,0,1024,1024,1024,1024,291.7,-90,70,3.857,3.872,3.859,3.88,3.89,3.853,16.774,95,14,Waypoint,
35.701355,-118.5808867,6512.3898645644,7.217848,0,0.3437992236,6800,2018-07-05 16:55:53,10,0,23.229,6512.3898645644,7.217848,0.223694,0.38432744012,0,0,-0.671082,292.8, 0.5, 0.1,0,0,1024,1024,1024,1024,291.7,-90,70,3.857,3.872,3.859,3.88,3.89,3.853,16.774,95,14,Waypoint,
35.701355,-118.5808866,6513.0460325644,7.874016,0,0.3158546689,6900,2018-07-05 16:55:53,10,0,23.229,6513.0460325644,7.874016,0.223694,0.38432744012,0,0,-0.671082,292.7, 0.4, 0.4,0,0,1024,1024,1024,1024,291.7,-90,70,3.857,3.872,3.859,3.88,3.89,3.853,16.774,95,14,Waypoint,
35.701355,-118.5808865,6514.0302845644,8.858268,0,0.288245087964,7000,2018-07-05 16:55:53,10,0,23.227,6514.0302845644,8.858268,0.223694,0.38432744012,0,0,-0.671082,292.6, 0.1, 0.3,0,0,1024,1024,1024,1024,291.7,-90,70,3.878,3.86,3.877,3.869,3.88,3.834,16.986,95,14,Waypoint,
35.7013549,-118.5808863,6515.3426205644,10.170604,0,0.21986057134,7100,2018-07-05 16:55:53,10,0,23.227,6515.3426205644,10.170604,0.223694,0.38432744012,0,0,-0.671082,292.5, -0.1, 0.1,0,0,1024,1024,1024,1024,291.7,-90,70,3.878,3.86,3.877,3.869,3.88,3.834,16.986,95,14,Waypoint,
35.7013549,-118.5808862,6516.3268725644,11.154856,0,0.192163391976,7200,2018-07-05 16:55:53,10,0,23.227,6516.3268725644,11.154856,0.223694,0.38432744012,0,0,-0.671082,292.5, -0.6, 0.1,0,0,1024,1024,1024,1024,291.7,-90,70,3.878,3.86,3.877,3.869,3.88,3.834,16.986,95,14,Waypoint,
35.7013549,-118.5808862,6517.3111245644,12.139108,0,0.192163391976,7300,2018-07-05 16:55:53,10,0,23.227,6517.3111245644,12.139108,0.223694,0.38432744012,0,0,-0.671082,292.5, -0.7, 0.2,0,0,1024,1024,1024,1024,291.7,-90,70,3.878,3.86,3.877,3.869,3.88,3.834,16.986,95,14,Waypoint,
35.7013549,-118.5808862,6518.6234605644,13.451444,0,0.192163391976,7410,2018-07-05 16:55:54,10,0,23.227,6518.6234605644,13.451444,0.223694,0.38432744012,0,0,-0.671082,292.5, -0.4, 0.3,0,0,1024,1024,1024,1024,291.7,-89.9,70,3.878,3.86,3.877,3.869,3.88,3.834,16.986,95,14,Waypoint,
35.7013549,-118.5808861,6519.6077125644,14.435696,0,0.16513780056,7500,2018-07-05 16:55:54,10,0,23.227,6519.6077125644,14.435696,0.223694,0.38432744012,0,0,-0.671082,292.5, -0.1, 0.3,0,0,1024,1024,1024,1024,291.7,-89.9,70,3.878,3.86,3.877,3.869,3.88,3.834,16.986,95,14,Waypoint,
35.7013549,-118.580886,6520.9200485644,15.748032,0,0.139176185556,7700,2018-07-05 16:55:54,10,0,23.227,6520.9200485644,15.748032,0.223694,0.38432744012,0,0,-0.671082,292.5, 0, 0.3,0,0,1024,1024,1024,1024,291.7,-89.9,70,3.878,3.86,3.877,3.869,3.88,3.834,16.986,95,14,Waypoint,
35.7013548,-118.580886,6521.9043005644,16.732284,0,0.124002300556,7800,2018-07-05 16:55:54,10,0,23.227,6521.9043005644,16.732284,0.223694,0.38432744012,0,0,-0.671082,292.5, 0, 0.4,0,0,1024,1024,1024,1024,291.7,-89.9,70,3.878,3.86,3.877,3.869,3.88,3.834,16.986,95,14,Waypoint,
35.7013549,-118.580886,6522.8885525644,17.716536,0,0.139176185556,7900,2018-07-05 16:55:54,10,0,23.227,6522.8885525644,17.716536,0.223694,0.38432744012,0,0,-0.671082,292.5, 0, 0.4,0,0,1024,1024,1024,1024,291.7,-89.9,70,3.878,3.86,3.877,3.869,3.88,3.834,16.986,95,14,Waypoint,
35.7013549,-118.5808861,6524.2008885644,19.028872,0,0.16513780056,8000,2018-07-05 16:55:54,10,0,22.699,6524.2008885644,19.028872,0.223694,0.38432744012,0,0,-0.671082,292.5, 0, 0.3,0,0,1024,1024,1024,1024,291.7,-89.9,69,3.759,3.786,3.765,3.816,3.799,3.75,22.383,95,14,Waypoint,
35.7013549,-118.5808862,6525.1851405644,20.013124,0,0.192163391976,8100,2018-07-05 16:55:54,9,0,22.699,6525.1851405644,20.013124,0.223694,0.38432744012,0,0,-0.671082,292.5, 0.1, 0.2,0,0,1024,1024,1024,1024,291.7,-89.9,69,3.759,3.786,3.765,3.816,3.799,3.75,22.383,95,14,Waypoint,
35.701355,-118.5808862,6526.1693925644,20.997376,0,0.208764114292,8200,2018-07-05 16:55:54,9,0,22.699,6526.1693925644,20.997376,0.223694,0.38432744012,0,0,-0.671082,292.5, 0.4, 0,0,0,1024,1024,1024,1024,291.7,-89.9,69,3.759,3.786,3.765,3.816,3.799,3.75,22.383,95,14,Waypoint,
35.7013551,-118.5808863,6527.4817285644,22.309712,0,0.25359908948,8300,2018-07-05 16:55:54,10,0,22.699,6527.4817285644,22.309712,0.223694,0.38432744012,0,0,-0.671082,292.6, 0.6, -0.1,0,0,1024,1024,1024,1024,291.7,-89.9,69,3.759,3.786,3.765,3.816,3.799,3.75,22.383,95,14,Waypoint,
35.7013552,-118.5808864,6528.4659805644,23.293964,0,0.299099090936,8400,2018-07-05 16:55:55,10,0,22.699,6528.4659805644,23.293964,0.223694,0.38432744012,0,0,-0.671082,292.7, 0.8, 0,0,0,1024,1024,1024,1024,291.7,-89.9,69,3.759,3.786,3.765,3.816,3.799,3.75,22.383,95,14,Waypoint,
35.7013552,-118.5808865,6529.4502325644,24.278216,0,0.323084327924,8500,2018-07-05 16:55:55,13,0,22.699,6529.4502325644,24.278216,0.223694,0.38432744012,0,0,-0.671082,292.7, 1, 0.1,0,0,1024,1024,1024,1024,291.7,-89.9,69,3.759,3.786,3.765,3.816,3.799,3.75,22.383,95,14,Waypoint,
35.7013553,-118.5808866,6530.7625685644,25.590552,0,0.36838255772,8600,2018-07-05 16:55:55,13,0,22.699,6530.7625685644,25.590552,0.223694,0.38432744012,0,0,-0.671082,292.6, 1.1, 0.2,0,0,1024,1024,1024,1024,291.7,-89.9,69,3.759,3.786,3.765,3.816,3.799,3.75,22.383,95,14,Waypoint,
35.7013554,-118.5808867,6531.7468205644,26.574804,0,0.4140584122,8700,2018-07-05 16:55:55,11,0,22.699,6531.7468205644,26.574804,0.223694,0.4140584122,0,0,-0.671082,292.5, 1.2, 0.2,0,0,1024,1024,1024,1024,291.7,-89.9,69,3.759,3.786,3.765,3.816,3.799,3.75,22.383,95,14,Waypoint,
35.7013555,-118.5808868,6532.7310725644,27.559056,0,0.46000329556,8800,2018-07-05 16:55:55,11,0,22.699,6532.7310725644,27.559056,0.223694,0.46000329556,0,0,-0.671082,292.4, 1.3, 0,0,0,1024,1024,1024,1024,291.7,-89.9,69,3.759,3.786,3.765,3.816,3.799,3.75,22.383,95,14,Waypoint,
35.7013555,-118.5808869,6534.0434085644,28.871392,0,0.483267732,8900,2018-07-05 16:55:55,13,0,22.699,6534.0434085644,28.871392,0.223694,0.483267732,0,0,-0.671082,292.4, 1.3, -0.1,0,0,1024,1024,1024,1024,291.7,-89.9,69,3.759,3.786,3.765,3.816,3.799,3.75,22.383,95,14,Waypoint,
35.7013556,-118.5808871,6535.0276605644,29.855644,0,0.55257219616,9000,2018-07-05 16:55:55,13,0,22.669,6535.0276605644,29.855644,0.223694,0.55257219616,0,0,-0.671082,292.3, 1.3, -0.1,0,0,1024,1024,1024,1024,291.7,-89.9,69,3.772,3.788,3.781,3.807,3.802,3.778,23.482,95,14,Waypoint,
35.7013556,-118.5808872,6536.0119125644,30.839896,0,0.57666996596,9100,2018-07-05 16:55:55,12,0,22.669,6536.0119125644,30.839896,0.223694,0.57666996596,0,0,-0.671082,292.3, 1.3, 0,0,0,1024,1024,1024,1024,291.7,-89.9,69,3.772,3.788,3.781,3.807,3.802,3.778,23.482,95,14,Waypoint,
35.7013557,-118.5808873,6536.9961645644,31.824148,0,0.62193899628,9200,2018-07-05 16:55:55,12,0,22.669,6536.9961645644,31.824148,0.223694,0.62193899628,0,0,-0.671082,292.2, 1.4, 0,0,0,1024,1024,1024,1024,291.7,-89.9,69,3.772,3.788,3.781,3.807,3.802,3.778,23.482,95,14,Waypoint,
35.7013557,-118.5808875,6538.3085005644,33.136484,0,0.67083007396,9300,2018-07-05 16:55:55,12,0,22.669,6538.3085005644,33.136484,0.223694,0.67083007396,0,0,-0.671082,292.2, 1.5, 0.1,0,0,1024,1024,1024,1024,291.7,-89.9,69,3.772,3.788,3.781,3.807,3.802,3.778,23.482,95,14,Waypoint,
35.7013557,-118.5808876,6539.2927525644,34.120736,0,0.69587928736,9400,2018-07-05 16:55:56,12,0,22.669,6539.2927525644,34.120736,0.223694,0.69587928736,0,0,-0.671082,292.3, 1.6, 0.2,0,0,1024,1024,1024,1024,291.7,-89.9,69,3.772,3.788,3.781,3.807,3.802,3.778,23.482,95,14,Waypoint,
35.7013556,-118.5808878,6540.2770045644,35.104988,0,0.72985894724,9500,2018-07-05 16:55:56,13,0,22.669,6540.2770045644,35.104988,0.223694,0.72985894724,0,0,-0.671082,292.3, 1.7, 0.3,0,0,1024,1024,1024,1024,291.7,-89.9,69,3.772,3.788,3.781,3.807,3.802,3.778,23.482,95,14,Waypoint,
35.7013557,-118.5808878,6541.2612565644,36.08924,0,0.74698493204,9600,2018-07-05 16:55:56,13,0,22.669,6541.2612565644,36.08924,0.223694,0.74698493204,0,0,-0.671082,292.4, 1.7, 0.4,0,0,1024,1024,1024,1024,291.7,-89.9,69,3.772,3.788,3.781,3.807,3.802,3.778,23.482,95,14,Waypoint,
35.7013557,-118.5808879,6543.2297605644,38.057744,0,0.77297574652,9700,2018-07-05 16:55:56,13,0,22.669,6543.2297605644,38.057744,0.223694,0.77297574652,0,0,-0.671082,292.4, 1.4, 0.3,0,0,1024,1024,1024,1024,291.7,-89.9,69,3.772,3.788,3.781,3.807,3.802,3.778,23.482,95,14,Waypoint,
35.7013557,-118.580888,6544.2140125644,39.041996,0,0.79921918568,9800,2018-07-05 16:55:56,13,0,22.669,6544.2140125644,39.041996,0.223694,0.79921918568,0,0,-0.671082,292.5, 1.3, 0.2,0,0,1024,1024,1024,1024,291.7,-89.9,69,3.772,3.788,3.781,3.807,3.802,3.778,23.482,95,14,Waypoint,
35.7013557,-118.5808881,6545.1982645644,40.026248,0,0.8256890028,9900,2018-07-05 16:55:56,13,0,22.669,6545.1982645644,40.026248,0.223694,0.8256890028,0,0,-0.671082,292.5, 1.2, 0.1,0,0,1024,1024,1024,1024,291.7,-89.9,69,3.772,3.788,3.781,3.807,3.802,3.778,23.482,95,14,Waypoint,
35.7013557,-118.5808881,6546.1825165644,41.0105,0,0.8256890028,10000,2018-07-05 16:55:56,13,0,22.779,6546.1825165644,41.0105,0.223694,0.8256890028,0,0,-0.671082,292.5, 1.2, 0.2,0,0,1024,1024,1024,1024,291.7,-89.9,69,3.772,3.788,3.781,3.807,3.802,3.778,20.327,95,14,Waypoint,
35.7013557,-118.5808881,6547.1667685644,41.994752,0,0.8256890028,10100,2018-07-05 16:55:56,13,0,22.779,6547.1667685644,41.994752,0.223694,0.8256890028,0,0,-0.671082,292.5, 1.3, 0.3,0,0,1024,1024,1024,1024,291.7,-89.9,69,3.772,3.788,3.781,3.807,3.802,3.778,20.327,95,14,Waypoint,
35.7013557,-118.5808881,6548.1510205644,42.979004,0,0.8256890028,10200,2018-07-05 16:55:56,13,0,22.779,6548.1510205644,42.979004,0.223694,0.8256890028,0,0,-0.671082,292.5, 1.3, 0.3,0,0,1024,1024,1024,1024,291.7,-89.9,69,3.772,3.788,3.781,3.807,3.802,3.778,20.327,95,14,Waypoint,
35.7013557,-118.5808881,6549.1352725644,43.963256,0,0.8256890028,10300,2018-07-05 16:55:56,13,0,22.779,6549.1352725644,43.963256,0.223694,0.8256890028,0,0,-0.671082,292.6, 1.1, 0.5,0,0,1024,1024,1024,1024,291.7,-89.9,69,3.772,3.788,3.781,3.807,3.802,3.778,20.327,95,14,Waypoint,
35.7013557,-118.5808881,6550.1195245644,44.947508,0,0.8256890028,10400,2018-07-05 16:55:57,14,0,22.779,6550.1195245644,44.947508,0.223694,0.8256890028,0,0,-0.671082,292.6, 1.1, 0.6,0,0,1024,1024,1024,1024,291.7,-89.9,69,3.772,3.788,3.781,3.807,3.802,3.778,20.327,95,14,Waypoint,
35.7013556,-118.5808881,6551.1037765644,45.93176,0,0.81022968472,10500,2018-07-05 16:55:57,14,0,22.779,6551.1037765644,45.93176,0.223694,0.8256890028,0,0,-0.671082,292.6, 1, 0.5,0,0,1024,1024,1024,1024,291.7,-89.9,69,3.772,3.788,3.781,3.807,3.802,3.778,20.327,95,14,Waypoint,
35.7013556,-118.5808881,6552.0880285644,46.916012,0,0.81022968472,10700,2018-07-05 16:55:57,14,0,22.779,6552.0880285644,46.916012,0.223694,0.8256890028,0,0,-0.671082,292.5, 0.9, 0.3,0,0,1024,1024,1024,1024,291.7,-89.9,69,3.772,3.788,3.781,3.807,3.802,3.778,20.327,95,14,Waypoint,
35.7013556,-118.580888,6553.0722805644,47.900264,0,0.7832349332,10800,2018-07-05 16:55:57,14,0,22.779,6553.0722805644,47.900264,0.223694,0.8256890028,0,0,-0.671082,292.5, 0.9, 0.3,0,0,1024,1024,1024,1024,291.7,-89.9,69,3.772,3.788,3.781,3.807,3.802,3.778,20.327,95,14,Waypoint,
35.7013556,-118.580888,6554.3846165644,49.2126,0,0.7832349332,10900,2018-07-05 16:55:57,15,0,22.779,6554.3846165644,49.2126,0.223694,0.8256890028,0,0,-0.671082,292.5, 0.8, 0.3,0,0,1024,1024,1024,1024,291.7,-89.9,69,3.772,3.788,3.781,3.807,3.802,3.778,20.327,95,14,Waypoint,
35.7013555,-118.5808879,6555.3688685644,50.196852,0,0.74132876388,11000,2018-07-05 16:55:57,15,0,22.779,6555.3688685644,50.196852,0.223694,0.8256890028,0,0,-0.671082,292.4, 0.7, 0.4,0,0,1024,1024,1024,1024,291.7,-89.9,69,3.788,3.801,3.79,3.824,3.822,3.788,20.327,95,14,Waypoint,
35.7013555,-118.5808879,6556.3531205644,51.181104,0.223694,0.74132876388,11100,2018-07-05 16:55:57,15,0,22.779,6556.3531205644,51.181104,0.223694,0.8256890028,0,0,-0.671082,292.4, 0.6, 0.5,0,0,1024,1024,1024,1024,291.7,-89.9,69,3.788,3.801,3.79,3.824,3.822,3.788,20.327,95,14,Waypoint,
35.7013554,-118.5808878,6557.3373725644,52.165356,0.223694,0.70007220088,11200,2018-07-05 16:55:57,15,0,22.779,6557.3373725644,52.165356,0.223694,0.8256890028,0,0,-0.671082,292.3, 0.4, 0.4,0,0,1024,1024,1024,1024,291.7,-89.9,69,3.788,3.801,3.79,3.824,3.822,3.788,20.327,95,14,Waypoint,
35.7013554,-118.5808878,6558.3216245644,53.149608,0.223694,0.70007220088,11300,2018-07-05 16:55:57,16,0,22.779,6558.3216245644,53.149608,0.223694,0.8256890028,0,0,-0.671082,292.3, 0.3, 0.2,0,0,1024,1024,1024,1024,291.7,-89.9,69,3.788,3.801,3.79,3.824,3.822,3.788,20.327,95,14,Waypoint,
35.7013554,-118.5808877,6559.3058765644,54.13386,0.223694,0.6725722,11400,2018-07-05 16:55:58,16,0,22.779,6559.3058765644,54.13386,0.223694,0.8256890028,0,0,-0.671082,292.3, 0.2, 0.1,0,0,1024,1024,1024,1024,291.7,-89.9,69,3.788,3.801,3.79,3.824,3.822,3.788,20.327,95,14,Waypoint,
35.7013553,-118.5808876,6560.2901285644,55.118112,0.223694,0.6317093378,11500,2018-07-05 16:55:58,17,0,22.779,6560.2901285644,55.118112,0.223694,0.8256890028,0,0,-0.671082,292.4, 0.2, 0,0,0,1024,1024,1024,1024,291.7,-89.9,69,3.788,3.801,3.79,3.824,3.822,3.788,20.327,95,14,Waypoint,
35.7013552,-118.5808875,6561.2743805644,56.102364,0.223694,0.59175854912,11600,2018-07-05 16:55:58,17,0,22.779,6561.2743805644,56.102364,0.223694,0.8256890028,0,0,-0.671082,292.4, 0.2, 0.2,0,0,1024,1024,1024,1024,291.7,-89.9,69,3.788,3.801,3.79,3.824,3.822,3.788,20.327,95,14,Waypoint,
35.7013551,-118.5808874,6563.2428845644,58.070868,0.223694,0.55291668436,11700,2018-07-05 16:55:58,17,0,22.779,6563.2428845644,58.070868,0.223694,0.8256890028,0,0,-0.671082,292.4, 0.1, 0.9,0,0,1024,1024,1024,1024,291.7,-89.9,69,3.788,3.801,3.79,3.824,3.822,3.788,20.327,95,14,Waypoint,
35.701355,-118.5808873,6565.2113885644,60.039372,0,0.5154363682,11900,2018-07-05 16:55:58,17,0,22.779,6565.2113885644,60.039372,0.223694,0.8256890028,0,0,-0.671082,292.5, 0.3, 1.2,0,0,1024,1024,1024,1024,291.7,-89.9,69,3.788,3.801,3.79,3.824,3.822,3.788,20.327,95,14,Waypoint,
35.7013549,-118.5808873,6567.1798925644,62.007876,0,0.508940305,12100,2018-07-05 16:55:58,17,0,22.779,6567.1798925644,62.007876,0.223694,0.8256890028,0,0,-0.671082,292.6, 0.4, 0.9,0,0,1024,1024,1024,1024,291.7,-89.9,69,3.788,3.801,3.79,3.824,3.822,3.788,20.327,95,14,Waypoint,
35.7013548,-118.5808873,6568.1641445644,62.992128,0,0.50500001616,12200,2018-07-05 16:55:58,17,0,22.779,6568.1641445644,62.992128,0.223694,0.8256890028,0,0,-0.671082,292.6, 0.3, 0.9,0,0,1024,1024,1024,1024,291.7,-89.9,69,3.788,3.801,3.79,3.824,3.822,3.788,20.327,95,14,Waypoint,
35.7013547,-118.5808872,6570.1326485644,64.960632,0,0.47405185244,12400,2018-07-05 16:55:59,17,0,22.779,6570.1326485644,64.960632,0.223694,0.8256890028,0,0,-0.671082,292.7, 0.3, 0.7,0,0,1024,1024,1024,1024,291.7,-89.9,69,3.788,3.801,3.79,3.824,3.822,3.788,20.327,95,14,Waypoint,
35.7013547,-118.5808871,6571.1169005644,65.944884,0,0.44442586724,12500,2018-07-05 16:55:59,17,0,22.779,6571.1169005644,65.944884,0.223694,0.8256890028,0,0,-0.671082,292.6, 0.2, 0.9,0,0,1024,1024,1024,1024,291.7,-89.9,69,3.788,3.801,3.79,3.824,3.822,3.788,20.327,95,14,Waypoint,
35.7013547,-118.580887,6572.1011525644,66.929136,0,0.4147966012,12600,2018-07-05 16:55:59,17,0,22.779,6572.1011525644,66.929136,0.223694,0.8256890028,0,0,-0.671082,292.6, 0, 1,0,0,1024,1024,1024,1024,291.7,-89.9,69,3.788,3.801,3.79,3.824,3.822,3.788,20.327,95,14,Waypoint,
35.7013546,-118.580887,6573.0854045644,67.913388,0,0.41639765112,12800,2018-07-05 16:55:59,17,0,22.779,6573.0854045644,67.913388,0.223694,0.8256890028,0,0,-0.671082,292.4, -0.1, 1.2,0,0,1024,1024,1024,1024,291.7,-90,69,3.788,3.801,3.79,3.824,3.822,3.788,20.327,95,14,Waypoint,
35.7013546,-118.5808869,6574.0696565644,68.89764,0,0.386893057,12900,2018-07-05 16:55:59,17,0,22.779,6574.0696565644,68.89764,0.223694,0.8256890028,0,0,-0.671082,292.3, -0.2, 1.3,0,0,1024,1024,1024,1024,291.7,-90,69,3.788,3.801,3.79,3.824,3.822,3.788,20.327,95,14,Waypoint,
35.7013545,-118.5808869,6575.0539085644,69.881892,0,0.39201772908,13000,2018-07-05 16:55:59,17,0,22.703,6575.0539085644,69.881892,0.223694,0.8256890028,0,0,-0.671082,292.3, -0.1, 1.3,0,0,1024,1024,1024,1024,291.7,-89.9,69,3.762,3.776,3.779,3.798,3.808,3.772,20.396,96.8,14,Waypoint,
35.7013545,-118.5808868,6576.0381605644,70.866144,0,0.36294948668,13100,2018-07-05 16:55:59,17,0,22.703,6576.0381605644,70.866144,0.223694,0.8256890028,0,0,-0.671082,292.2, 0, 1.1,0,0,1024,1024,1024,1024,291.7,-89.9,69,3.762,3.776,3.779,3.798,3.808,3.772,20.396,96.8,14,Waypoint,
35.7013545,-118.5808868,6577.0224125644,71.850396,0,0.36294948668,13200,2018-07-05 16:55:59,17,0,22.703,6577.0224125644,71.850396,0.223694,0.8256890028,0,0,-0.671082,292.1, 0, 1.1,0,0,1024,1024,1024,1024,291.7,-89.9,69,3.762,3.776,3.779,3.798,3.808,3.772,20.396,96.8,14,Waypoint,
35.7013545,-118.5808867,6577.6785805644,72.506564,0,0.33397966948,13300,2018-07-05 16:55:59,17,0,22.703,6577.6785805644,72.506564,0.223694,0.8256890028,0,0,-0.671082,292.1, 0, 1,0,0,1024,1024,1024,1024,291.7,-89.9,69,3.762,3.776,3.779,3.798,3.808,3.772,20.396,96.8,14,Waypoint,
35.7013545,-118.5808867,6578.6628325644,73.490816,0,0.33397966948,13400,2018-07-05 16:56:00,17,0,22.703,6578.6628325644,73.490816,0.223694,0.8256890028,0,0,-0.671082,292.1, 0, 0.8,0,0,1024,1024,1024,1024,291.7,-89.9,69,3.762,3.776,3.779,3.798,3.808,3.772,20.396,96.8,14,Waypoint,
35.7013545,-118.5808866,6579.6470845644,74.475068,0,0.305136492704,13500,2018-07-05 16:56:00,18,0,22.703,6579.6470845644,74.475068,0.223694,0.8256890028,0,0,-0.671082,292.2, 0.1, 0.7,0,0,1024,1024,1024,1024,291.7,-89.9,69,3.762,3.776,3.779,3.798,3.808,3.772,20.396,96.8,14,Waypoint,
35.7013544,-118.5808866,6580.6313365644,75.45932,0,0.3158546689,13600,2018-07-05 16:56:00,18,0,22.703,6580.6313365644,75.45932,0.223694,0.8256890028,0,0,-0.671082,292.3, 0.2, 0.5,0,0,1024,1024,1024,1024,291.7,-89.9,69,3.762,3.776,3.779,3.798,3.808,3.772,20.396,96.8,14,Waypoint,
35.7013544,-118.5808866,6581.6155885644,76.443572,0,0.3158546689,13700,2018-07-05 16:56:00,18,0,22.703,6581.6155885644,76.443572,0.223694,0.8256890028,0,0,-0.671082,292.3, 0.2, 0.5,0,0,1024,1024,1024,1024,291.7,-89.9,69,3.762,3.776,3.779,3.798,3.808,3.772,20.396,96.8,14,Waypoint,
35.7013544,-118.5808866,6582.5998405644,77.427824,0,0.3158546689,13800,2018-07-05 16:56:00,18,0,22.703,6582.5998405644,77.427824,0.223694,0.8256890028,0,0,-0.671082,292.3, 0.2, 0.7,0,0,1024,1024,1024,1024,291.7,-89.9,69,3.762,3.776,3.779,3.798,3.808,3.772,20.396,96.8,14,Waypoint,
35.7013544,-118.5808866,6583.9121765644,78.74016,0,0.3158546689,13900,2018-07-05 16:56:00,18,0,22.703,6583.9121765644,78.74016,0.223694,0.8256890028,0,0,-0.671082,292.4, 0.2, 0.9,0,0,1024,1024,1024,1024,291.7,-89.9,69,3.762,3.776,3.779,3.798,3.808,3.772,20.396,96.8,14,Waypoint,
35.7013544,-118.5808866,6584.8964285644,79.724412,0,0.3158546689,14000,2018-07-05 16:56:00,18,0,22.607,6584.8964285644,79.724412,0.223694,0.8256890028,0,0,-0.671082,292.4, 0.2, 1.1,0,0,1024,1024,1024,1024,291.7,-89.9,69,3.746,3.765,3.772,3.781,3.784,3.749,21.168,96.8,14,Waypoint,
35.7013545,-118.5808865,6586.8649325644,81.692916,0,0.276458670264,14100,2018-07-05 16:56:00,18,0,22.607,6586.8649325644,81.692916,0.223694,0.8256890028,0,0,-0.671082,292.4, 0.3, 0.9,0,0,1024,1024,1024,1024,291.7,-89.9,69,3.746,3.765,3.772,3.781,3.784,3.749,21.168,96.8,14,Waypoint,
35.7013545,-118.5808865,6588.8334365644,83.66142,0,0.276458670264,14300,2018-07-05 16:56:00,18,0,22.607,6588.8334365644,83.66142,0.223694,0.8256890028,0,0,-0.671082,292.5, 0.4, 0.3,0,0,1024,1024,1024,1024,291.7,-89.9,69,3.746,3.765,3.772,3.781,3.784,3.749,21.168,96.8,14,Waypoint,
35.7013545,-118.5808866,6589.8176885644,84.645672,0,0.305136492704,14400,2018-07-05 16:56:01,18,0,22.607,6589.8176885644,84.645672,0.223694,0.8256890028,0,0,-0.671082,292.5, 0.3, 0.4,0,0,1024,1024,1024,1024,291.7,-89.9,69,3.746,3.765,3.772,3.781,3.784,3.749,21.168,96.8,14,Waypoint,
35.7013546,-118.5808866,6590.8019405644,85.629924,0,0.298521006928,14500,2018-07-05 16:56:01,18,0,22.607,6590.8019405644,85.629924,0.223694,0.8256890028,0,0,-0.671082,292.5, 0.3, 0.5,0,0,1024,1024,1024,1024,291.7,-89.9,69,3.746,3.765,3.772,3.781,3.784,3.749,21.168,96.8,14,Waypoint,
35.7013546,-118.5808866,6591.7861925644,86.614176,0,0.298521006928,14600,2018-07-05 16:56:01,18,0,22.607,6591.7861925644,86.614176,0.223694,0.8256890028,0,0,-0.671082,292.6, 0.3, 0.5,0,0,1024,1024,1024,1024,291.7,-89.9,69,3.746,3.765,3.772,3.781,3.784,3.749,21.168,96.8,14,Waypoint,
35.7013546,-118.5808866,6592.7704445644,87.598428,0,0.298521006928,14800,2018-07-05 16:56:01,18,0,22.607,6592.7704445644,87.598428,0.223694,0.8256890028,0,0,-0.671082,292.6, 0.4, 0.7,0,0,1024,1024,1024,1024,291.7,-89.9,69,3.746,3.765,3.772,3.781,3.784,3.749,21.168,96.8,14,Waypoint,
35.7013546,-118.5808865,6594.7389485644,89.566932,0,0.269139444308,14900,2018-07-05 16:56:01,18,0,22.607,6594.7389485644,89.566932,0.223694,0.8256890028,0,0,-0.671082,292.5, 0.3, 0.6,0,0,1024,1024,1024,1024,291.7,-89.9,69,3.746,3.765,3.772,3.781,3.784,3.749,21.168,96.8,14,Waypoint,
35.7013546,-118.5808865,6595.7232005644,90.551184,0,0.269139444308,15100,2018-07-05 16:56:01,18,0,22.607,6595.7232005644,90.551184,0.223694,0.8256890028,0,0,-0.671082,292.4, 0.2, 0.5,0,0,1024,1024,1024,1024,291.7,-89.9,69,3.746,3.765,3.772,3.781,3.784,3.749,21.168,96.8,14,Waypoint,
35.7013546,-118.5808866,6596.7074525644,91.535436,0,0.298521006928,15200,2018-07-05 16:56:01,18,0,22.607,6596.7074525644,91.535436,0.223694,0.8256890028,0,0,-0.671082,292.4, 0.3, 0.6,0,0,1024,1024,1024,1024,291.7,-89.9,69,3.746,3.765,3.772,3.781,3.784,3.749,21.168,96.8,14,Waypoint,
35.7013546,-118.5808866,6598.6759565644,93.50394,0,0.298521006928,15400,2018-07-05 16:56:02,18,0,22.607,6598.6759565644,93.50394,0.223694,0.8256890028,0,0,-0.671082,292.3, 0.5, 0.7,0,0,1024,1024,1024,1024,291.7,-89.9,69,3.746,3.765,3.772,3.781,3.784,3.749,21.168,96.8,14,Waypoint,
35.7013546,-118.5808866,6599.6602085644,94.488192,0,0.298521006928,15500,2018-07-05 16:56:02,18,0,22.607,6599.6602085644,94.488192,0.223694,0.8256890028,0,0,-0.671082,292.3, 0.5, 0.6,0,0,1024,1024,1024,1024,291.7,-89.9,69,3.746,3.765,3.772,3.781,3.784,3.749,21.168,96.8,14,Waypoint,
35.7013546,-118.5808866,6600.6444605644,95.472444,0,0.298521006928,15600,2018-07-05 16:56:02,18,0,22.607,6600.6444605644,95.472444,0.223694,0.8256890028,0,0,-0.671082,292.4, 0.5, 0.8,0,0,1024,1024,1024,1024,291.7,-89.9,69,3.746,3.765,3.772,3.781,3.784,3.749,21.168,96.8,14,Waypoint,
35.7013546,-118.5808866,6601.6287125644,96.456696,0,0.298521006928,15700,2018-07-05 16:56:02,18,0,22.607,6601.6287125644,96.456696,0.223694,0.8256890028,0,0,-0.671082,292.4, 0.5, 0.8,0,0,1024,1024,1024,1024,291.7,-89.9,69,3.746,3.765,3.772,3.781,3.784,3.749,21.168,96.8,14,Waypoint,
35.7013546,-118.5808866,6602.6129645644,97.440948,0,0.298521006928,15800,2018-07-05 16:56:02,18,0,22.607,6602.6129645644,97.440948,0.223694,0.8256890028,0,0,-0.671082,292.5, 0.3, 0.9,0,0,1024,1024,1024,1024,291.7,-90,69,3.746,3.765,3.772,3.781,3.784,3.749,21.168,96.8,14,Waypoint,
35.7013546,-118.5808866,6603.5972165644,98.4252,0,0.298521006928,15900,2018-07-05 16:56:02,18,0,22.607,6603.5972165644,98.4252,0.223694,0.8256890028,0,0,-0.671082,292.5, 0.1, 1,0,0,1024,1024,1024,1024,291.7,-90,69,3.746,3.765,3.772,3.781,3.784,3.749,21.168,96.8,14,Waypoint,
35.7013545,-118.5808866,6604.5814685644,99.409452,0,0.305136492704,16000,2018-07-05 16:56:02,18,0,22.575,6604.5814685644,99.409452,0.223694,0.8256890028,0,0,-0.671082,292.5, 0, 1,0,0,1024,1024,1024,1024,291.7,-89.9,68,3.741,3.763,3.754,3.784,3.781,3.746,20.918,96.8,14,Waypoint,
35.7013545,-118.5808866,6605.5657205644,100.393704,0,0.305136492704,16100,2018-07-05 16:56:02,18,0,22.575,6605.5657205644,100.393704,0.223694,0.8256890028,0,0,-0.671082,292.4, 0, 0.9,0,0,1024,1024,1024,1024,291.7,-89.9,68,3.741,3.763,3.754,3.784,3.781,3.746,20.918,96.8,14,Waypoint,
35.7013545,-118.5808866,6606.5499725644,101.377956,0,0.305136492704,16200,2018-07-05 16:56:02,18,0,22.575,6606.5499725644,101.377956,0.223694,0.8256890028,0,0,-0.671082,292.4, 0, 1,0,0,1024,1024,1024,1024,291.7,-89.9,68,3.741,3.763,3.754,3.784,3.781,3.746,20.918,96.8,14,Waypoint,
35.7013545,-118.5808866,6607.5342245644,102.362208,0,0.305136492704,16300,2018-07-05 16:56:02,18,0,22.575,6607.5342245644,102.362208,0.223694,0.8256890028,0,0,-0.671082,292.4, 0, 0.9,0,0,1024,1024,1024,1024,291.7,-89.9,68,3.741,3.763,3.754,3.784,3.781,3.746,20.918,96.8,14,Waypoint,
35.7013545,-118.5808867,6608.5184765644,103.34646,0,0.33397966948,16400,2018-07-05 16:56:03,18,0,22.575,6608.5184765644,103.34646,0.223694,0.8256890028,0,0,-0.671082,292.4, 0.1, 0.9,0,0,1024,1024,1024,1024,291.7,-89.9,68,3.741,3.763,3.754,3.784,3.781,3.746,20.918,96.8,14,Waypoint,
35.7013545,-118.5808867,6609.5027285644,104.330712,0,0.33397966948,16500,2018-07-05 16:56:03,18,0,22.575,6609.5027285644,104.330712,0.223694,0.8256890028,0,0,-0.671082,292.5, 0.3, 0.9,0,0,1024,1024,1024,1024,291.7,-89.9,68,3.741,3.763,3.754,3.784,3.781,3.746,20.918,96.8,14,Waypoint,
35.7013544,-118.5808868,6611.4712325644,106.299216,0,0.37200788592,16600,2018-07-05 16:56:03,18,0,22.575,6611.4712325644,106.299216,0.223694,0.8256890028,0,0,-0.671082,292.5, 0.5, 1.1,0,0,1024,1024,1024,1024,291.7,-89.9,68,3.741,3.763,3.754,3.784,3.781,3.746,20.918,96.8,14,Waypoint,
35.7013544,-118.5808868,6612.4554845644,107.283468,0,0.37200788592,16700,2018-07-05 16:56:03,18,0,22.575,6612.4554845644,107.283468,0.223694,0.8256890028,0,0,-0.671082,292.6, 0.6, 1,0,0,1024,1024,1024,1024,291.7,-89.9,68,3.741,3.763,3.754,3.784,3.781,3.746,20.918,96.8,14,Waypoint,
35.7013544,-118.5808869,6614.4239885644,109.251972,0,0.40041667948,16900,2018-07-05 16:56:03,18,0,22.575,6614.4239885644,109.251972,0.223694,0.8256890028,0,0,-0.671082,292.5, 0.5, 1.2,0,0,1024,1024,1024,1024,291.7,-89.9,68,3.741,3.763,3.754,3.784,3.781,3.746,20.918,96.8,14,Waypoint,
35.7013544,-118.5808869,6615.7363245644,110.564308,0,0.40041667948,17100,2018-07-05 16:56:03,18,0,22.575,6615.7363245644,110.564308,0.223694,0.8256890028,0,0,-0.671082,292.5, 0.3, 1.3,0,0,1024,1024,1024,1024,291.7,-89.9,68,3.741,3.763,3.754,3.784,3.781,3.746,20.918,96.8,14,Waypoint,
35.7013543,-118.580887,6617.3767445644,112.204728,0,0.43972114268,17200,2018-07-05 16:56:03,18,0,22.575,6617.3767445644,112.204728,0.223694,0.8256890028,0,0,-0.671082,292.4, 0.6, 1.3,0,0,1024,1024,1024,1024,291.7,-89.9,68,3.741,3.763,3.754,3.784,3.781,3.746,20.918,96.8,14,Waypoint,
35.7013543,-118.5808871,6618.3609965644,113.18898,0,0.46777232468,17300,2018-07-05 16:56:03,18,0,22.575,6618.3609965644,113.18898,0.223694,0.8256890028,0,0,-0.671082,292.4, 0.6, 1.4,0,0,1024,1024,1024,1024,291.7,-89.9,68,3.741,3.763,3.754,3.784,3.781,3.746,20.918,96.8,14,Waypoint,
35.7013542,-118.5808871,6620.3295005644,115.157484,0,0.48040683952,17600,2018-07-05 16:56:04,18,0,22.575,6620.3295005644,115.157484,0.223694,0.8256890028,0,0,-0.671082,292.3, 0.6, 1.3,0,0,1024,1024,1024,1024,291.7,-89.9,68,3.741,3.763,3.754,3.784,3.781,3.746,20.918,96.8,14,Waypoint,
35.7013542,-118.5808871,6621.3137525644,116.141736,0,0.48040683952,17700,2018-07-05 16:56:04,18,0,22.575,6621.3137525644,116.141736,0.223694,0.8256890028,0,0,-0.671082,292.3, 0.5, 1.2,0,0,1024,1024,1024,1024,291.7,-89.9,68,3.741,3.763,3.754,3.784,3.781,3.746,20.918,96.8,14,Waypoint,
35.7013542,-118.5808871,6622.2980045644,117.125988,0,0.48040683952,17800,2018-07-05 16:56:04,18,0,22.575,6622.2980045644,117.125988,0.223694,0.8256890028,0,0,-0.671082,292.3, 0.3, 1.1,0,0,1024,1024,1024,1024,291.7,-89.9,68,3.741,3.763,3.754,3.784,3.781,3.746,20.918,96.8,14,Waypoint,
35.7013542,-118.5808872,6623.2822565644,118.11024,0,0.50794292964,17900,2018-07-05 16:56:04,18,0,22.575,6623.2822565644,118.11024,0.223694,0.8256890028,0,0,-0.671082,292.3, 0.2, 1.1,0,0,1024,1024,1024,1024,291.7,-89.9,68,3.741,3.763,3.754,3.784,3.781,3.746,20.918,96.8,14,Waypoint,
35.7013541,-118.5808872,6624.2665085644,119.094492,0,0.52215552852,18000,2018-07-05 16:56:04,18,0,22.536,6624.2665085644,119.094492,0.223694,0.8256890028,0,0,-0.671082,292.3, 0.2, 1.2,0,0,1024,1024,1024,1024,291.7,-89.9,68,3.732,3.743,3.754,3.764,3.78,3.74,20.878,96.8,14,Waypoint,
35.7013541,-118.5808873,6626.5630965644,121.39108,0,0.5491962118,18200,2018-07-05 16:56:04,19,0,22.536,6626.5630965644,121.39108,0.223694,0.8256890028,0,0,-0.671082,292.5, 0.4, 1.5,0,0,1024,1024,1024,1024,291.7,-89.9,68,3.732,3.743,3.754,3.764,3.78,3.74,20.878,96.8,14,Waypoint,
35.701354,-118.5808873,6628.5316005644,123.359584,0,0.5647309892,18400,2018-07-05 16:56:05,19,0,22.536,6628.5316005644,123.359584,0.223694,0.8256890028,0,0,-0.671082,292.6, 0.7, 1.8,0,0,1024,1024,1024,1024,291.7,-89.9,68,3.732,3.743,3.754,3.764,3.78,3.74,20.878,96.8,14,Waypoint,
35.701354,-118.5808874,6629.5158525644,124.343836,0,0.59130907404,18500,2018-07-05 16:56:05,19,0,22.536,6629.5158525644,124.343836,0.223694,0.8256890028,0,0,-0.671082,292.6, 0.7, 1.7,0,0,1024,1024,1024,1024,291.7,-89.9,68,3.732,3.743,3.754,3.764,3.78,3.74,20.878,96.8,14,Waypoint,
35.701354,-118.5808874,6630.5001045644,125.328088,0,0.59130907404,18600,2018-07-05 16:56:05,19,0,22.536,6630.5001045644,125.328088,0.223694,0.8256890028,0,0,-0.671082,292.6, 0.9, 1.5,0,0,1024,1024,1024,1024,291.7,-89.9,68,3.732,3.743,3.754,3.764,3.78,3.74,20.878,96.8,14,Waypoint,
35.701354,-118.5808874,6631.4843565644,126.31234,0,0.59130907404,18700,2018-07-05 16:56:05,19,0,22.536,6631.4843565644,126.31234,0.223694,0.8256890028,0,0,-0.671082,292.5, 0.8, 1.2,0,0,1024,1024,1024,1024,291.7,-89.9,68,3.732,3.743,3.754,3.764,3.78,3.74,20.878,96.8,14,Waypoint,
35.701354,-118.5808874,6632.4686085644,127.296592,0,0.59130907404,18800,2018-07-05 16:56:05,19,0,22.536,6632.4686085644,127.296592,0.223694,0.8256890028,0,0,-0.671082,292.4, 0.7, 1.1,0,0,1024,1024,1024,1024,291.7,-89.9,68,3.732,3.743,3.754,3.764,3.78,3.74,20.878,96.8,14,Waypoint,
35.7013539,-118.5808874,6633.4528605644,128.280844,0,0.60795933704,18900,2018-07-05 16:56:05,19,0,22.536,6633.4528605644,128.280844,0.223694,0.8256890028,0,0,-0.671082,292.3, 0.4, 1.2,0,0,1024,1024,1024,1024,291.7,-90,68,3.732,3.743,3.754,3.764,3.78,3.74,20.878,96.8,14,Waypoint,
35.7013538,-118.5808874,6635.4213645644,130.249348,0,0.62629267096,19000,2018-07-05 16:56:05,19,0,22.536,6635.4213645644,130.249348,0.223694,0.8256890028,0,0,-0.671082,292.4, 0, 1.9,0,0,1024,1024,1024,1024,291.7,-90,68,3.732,3.743,3.754,3.764,3.78,3.74,20.878,96.8,14,Waypoint,
35.7013537,-118.5808873,6637.3898685644,132.217852,0,0.62193899628,19200,2018-07-05 16:56:05,19,0,22.536,6637.3898685644,132.217852,0.223694,0.8256890028,0,0,-0.671082,292.6, -0.1, 1.9,0,0,1024,1024,1024,1024,291.7,-89.9,68,3.732,3.743,3.754,3.764,3.78,3.74,20.878,96.8,14,Waypoint,
35.7013537,-118.5808873,6639.3583725644,134.186356,0,0.62193899628,19400,2018-07-05 16:56:06,19,0,22.536,6639.3583725644,134.186356,0.223694,0.8256890028,0,0,-0.671082,292.5, 0, 1.8,0,0,1024,1024,1024,1024,291.7,-89.9,68,3.732,3.743,3.754,3.764,3.78,3.74,20.878,96.8,14,Waypoint,
35.7013536,-118.5808873,6640.3426245644,135.170608,0,0.64402233032,19500,2018-07-05 16:56:06,19,0,22.536,6640.3426245644,135.170608,0.223694,0.8256890028,0,0,-0.671082,292.3, 0, 1.8,0,0,1024,1024,1024,1024,291.7,-89.9,68,3.732,3.743,3.754,3.764,3.78,3.74,20.878,96.8,14,Waypoint,
35.7013536,-118.5808873,6641.3268765644,136.15486,0,0.64402233032,19700,2018-07-05 16:56:06,19,0,22.536,6641.3268765644,136.15486,0.223694,0.8256890028,0,0,-0.671082,292.2, 0, 1.8,0,0,1024,1024,1024,1024,291.7,-89.9,68,3.732,3.743,3.754,3.764,3.78,3.74,20.878,96.8,14,Waypoint,
35.7013536,-118.5808873,6642.3111285644,137.139112,0,0.64402233032,19800,2018-07-05 16:56:06,19,0,22.536,6642.3111285644,137.139112,0.223694,0.8256890028,0,0,-0.671082,292.2, 0.1, 1.8,0,0,1024,1024,1024,1024,291.7,-89.9,68,3.732,3.743,3.754,3.764,3.78,3.74,20.878,96.8,14,Waypoint,
35.7013536,-118.5808873,6643.2953805644,138.123364,0,0.64402233032,19900,2018-07-05 16:56:06,19,0,22.536,6643.2953805644,138.123364,0.223694,0.8256890028,0,0,-0.671082,292.2, 0.2, 1.8,0,0,1024,1024,1024,1024,291.7,-89.9,68,3.732,3.743,3.754,3.764,3.78,3.74,20.878,96.8,14,Waypoint,
35.7013537,-118.5808872,6645.2638845644,140.091868,0,0.59819883804,20010,2018-07-05 16:56:06,19,0,22.504,6645.2638845644,140.091868,0.223694,0.8256890028,0,0,-0.671082,292.2, 0.2, 1.5,0,0,1024,1024,1024,1024,291.7,-89.9,68,3.729,3.745,3.747,3.772,3.779,3.732,20.799,96.8,14,Waypoint,
35.7013537,-118.5808872,6645.2638845644,140.091868,0,0.59819883804,20100,2018-07-05 16:56:06,19,0,22.504,6645.2638845644,140.091868,0.223694,0.8256890028,0,0,-0.671082,292.2, 0.2, 1.5,0,0,1024,1024,1024,1024,291.7,-89.9,68,3.729,3.745,3.747,3.772,3.779,3.732,20.799,96.8,14,Waypoint,
35.7013537,-118.5808872,6646.2481365644,141.07612,0,0.59819883804,20200,2018-07-05 16:56:06,19,0,22.504,6646.2481365644,141.07612,0.223694,0.8256890028,0,0,-0.671082,292.3, 0.3, 1.5,0,0,1024,1024,1024,1024,291.7,-89.9,68,3.729,3.745,3.747,3.772,3.779,3.732,20.799,96.8,14,Waypoint,
35.7013537,-118.5808872,6647.2323885644,142.060372,0,0.59819883804,20300,2018-07-05 16:56:06,19,0,22.504,6647.2323885644,142.060372,0.223694,0.8256890028,0,0,-0.671082,292.4, 0.4, 1.5,0,0,1024,1024,1024,1024,291.7,-89.9,68,3.729,3.745,3.747,3.772,3.779,3.732,20.799,96.8,14,Waypoint,
35.7013537,-118.5808872,6648.2166405644,143.044624,0,0.59819883804,20400,2018-07-05 16:56:07,19,0,22.504,6648.2166405644,143.044624,0.223694,0.8256890028,0,0,-0.671082,292.4, 0.5, 1.5,0,0,1024,1024,1024,1024,291.7,-89.9,68,3.729,3.745,3.747,3.772,3.779,3.732,20.799,96.8,14,Waypoint,
35.7013537,-118.5808872,6649.2008925644,144.028876,0,0.59819883804,20500,2018-07-05 16:56:07,19,0,22.504,6649.2008925644,144.028876,0.223694,0.8256890028,0,0,-0.671082,292.4, 0.5, 1.6,0,0,1024,1024,1024,1024,291.7,-89.9,68,3.729,3.745,3.747,3.772,3.779,3.732,20.799,96.8,14,Waypoint,
35.7013536,-118.5808872,6651.1693965644,145.99738,0,0.62112534796,20700,2018-07-05 16:56:07,19,0,22.504,6651.1693965644,145.99738,0.223694,0.8256890028,0,0,-0.671082,292.3, 0.1, 1.6,0,0,1024,1024,1024,1024,291.7,-90,68,3.729,3.745,3.747,3.772,3.779,3.732,20.799,96.8,14,Waypoint,
35.7013537,-118.5808872,6652.1536485644,146.981632,0,0.59819883804,20800,2018-07-05 16:56:07,19,0,22.504,6652.1536485644,146.981632,0.223694,0.8256890028,0,0,-0.671082,292.3, 0, 1.5,0,0,1024,1024,1024,1024,291.7,-90,68,3.729,3.745,3.747,3.772,3.779,3.732,20.799,96.8,14,Waypoint,
35.7013537,-118.5808872,6652.8098165644,147.6378,0,0.59819883804,20900,2018-07-05 16:56:07,19,0,22.504,6652.8098165644,147.6378,0.223694,0.8256890028,0,0,-0.671082,292.3, 0, 1.4,0,0,1024,1024,1024,1024,291.7,-89.9,68,3.729,3.745,3.747,3.772,3.779,3.732,20.799,96.8,14,Waypoint,
35.7013537,-118.5808871,6653.7940685644,148.622052,0,0.57500329924,21000,2018-07-05 16:56:07,19,0,22.553,6653.7940685644,148.622052,0.223694,0.8256890028,0,0,-0.671082,292.3, 0, 1.4,0,0,1024,1024,1024,1024,291.7,-90,68,3.734,3.756,3.742,3.782,3.781,3.745,19.894,96.8,14,Waypoint,
35.7013537,-118.5808871,6654.7783205644,149.606304,0,0.57500329924,21100,2018-07-05 16:56:07,19,0,22.553,6654.7783205644,149.606304,0.223694,0.8256890028,0,0,-0.671082,292.4, -0.3, 1.4,0,0,1024,1024,1024,1024,291.7,-90,68,3.734,3.756,3.742,3.782,3.781,3.745,19.894,96.8,14,Waypoint,
35.7013537,-118.5808871,6655.7625725644,150.590556,0,0.57500329924,21200,2018-07-05 16:56:07,19,0,22.553,6655.7625725644,150.590556,0.223694,0.8256890028,0,0,-0.671082,292.6, -0.4, 1.5,0,0,1024,1024,1024,1024,291.7,-89.9,68,3.734,3.756,3.742,3.782,3.781,3.745,19.894,96.8,14,Waypoint,
35.7013537,-118.5808871,6657.7310765644,152.55906,0,0.57500329924,21300,2018-07-05 16:56:07,19,0,22.553,6657.7310765644,152.55906,0.223694,0.8256890028,0,0,-0.671082,292.8, 0.1, 1.7,0,0,1024,1024,1024,1024,291.7,-89.9,68,3.734,3.756,3.742,3.782,3.781,3.745,19.894,96.8,14,Waypoint,
35.7013537,-118.5808871,6659.6995805644,154.527564,0,0.57500329924,21500,2018-07-05 16:56:08,19,0,22.553,6659.6995805644,154.527564,0.223694,0.8256890028,0,0,-0.671082,292.7, 0.5, 1.8,0,0,1024,1024,1024,1024,291.7,-89.9,68,3.734,3.756,3.742,3.782,3.781,3.745,19.894,96.8,14,Waypoint,
35.7013537,-118.5808871,6660.6838325644,155.511816,0,0.57500329924,21600,2018-07-05 16:56:08,19,0,22.553,6660.6838325644,155.511816,0.223694,0.8256890028,0,0,-0.671082,292.6, 0.5, 1.6,0,0,1024,1024,1024,1024,291.7,-89.9,68,3.734,3.756,3.742,3.782,3.781,3.745,19.894,96.8,14,Waypoint,
35.7013537,-118.580887,6661.6680845644,156.496068,0,0.55242455836,21700,2018-07-05 16:56:08,19,0,22.553,6661.6680845644,156.496068,0.223694,0.8256890028,0,0,-0.671082,292.5, 0.4, 1.4,0,0,1024,1024,1024,1024,291.7,-89.9,68,3.734,3.756,3.742,3.782,3.781,3.745,19.894,96.8,14,Waypoint,
35.7013538,-118.580887,6663.6365885644,158.464572,0,0.52903545,21900,2018-07-05 16:56:08,19,0,22.553,6663.6365885644,158.464572,0.223694,0.8256890028,0,0,-0.671082,292.3, 0, 1.2,0,0,1024,1024,1024,1024,291.7,-89.9,68,3.734,3.756,3.742,3.782,3.781,3.745,19.894,96.8,14,Waypoint,
35.7013538,-118.580887,6664.6208405644,159.448824,0,0.52903545,22000,2018-07-05 16:56:08,19,0,22.553,6664.6208405644,159.448824,0.223694,0.8256890028,0,0,-0.671082,292.3, 0, 1,0,0,1024,1024,1024,1024,291.7,-89.9,68,3.74,3.755,3.756,3.775,3.786,3.743,19.894,96.8,14,Waypoint,
35.7013539,-118.5808869,6665.6050925644,160.433076,0,0.483267732,22210,2018-07-05 16:56:08,19,0,22.553,6665.6050925644,160.433076,0.223694,0.8256890028,0,0,-0.671082,292.4, 0, 1,0,0,1024,1024,1024,1024,291.7,-89.9,68,3.74,3.755,3.756,3.775,3.786,3.743,19.894,96.8,14,Waypoint,
35.7013539,-118.5808869,6665.6050925644,160.433076,0,0.483267732,22300,2018-07-05 16:56:08,19,0,22.553,6665.6050925644,160.433076,0.223694,0.8256890028,0,0,-0.671082,292.4, 0, 1,0,0,1024,1024,1024,1024,291.7,-89.9,68,3.74,3.755,3.756,3.775,3.786,3.743,19.894,96.8,14,Waypoint,
35.7013539,-118.5808869,6667.5735965644,162.40158,0,0.483267732,22400,2018-07-05 16:56:09,19,0,22.553,6667.5735965644,162.40158,0.223694,0.8256890028,0,0,-0.671082,292.5, 0.4, 0.9,0,0,1024,1024,1024,1024,291.7,-89.9,68,3.74,3.755,3.756,3.775,3.786,3.743,19.894,96.8,14,Waypoint,
35.7013539,-118.5808869,6668.5578485644,163.385832,0,0.483267732,22500,2018-07-05 16:56:09,19,0,22.553,6668.5578485644,163.385832,0.223694,0.8256890028,0,0,-0.671082,292.5, 0.4, 0.9,0,0,1024,1024,1024,1024,291.7,-89.9,68,3.74,3.755,3.756,3.775,3.786,3.743,19.894,96.8,14,Waypoint,
35.7013539,-118.5808869,6670.5263525644,165.354336,0,0.483267732,22700,2018-07-05 16:56:09,19,0,22.553,6670.5263525644,165.354336,0.223694,0.8256890028,0,0,-0.671082,292.5, 0.3, 1,0,0,1024,1024,1024,1024,291.7,-89.9,68,3.74,3.755,3.756,3.775,3.786,3.743,19.894,96.8,14,Waypoint,
35.7013539,-118.5808869,6671.5106045644,166.338588,0,0.483267732,22800,2018-07-05 16:56:09,19,0,22.553,6671.5106045644,166.338588,0.223694,0.8256890028,0,0,-0.671082,292.5, 0.2, 1,0,0,1024,1024,1024,1024,291.7,-89.9,68,3.74,3.755,3.756,3.775,3.786,3.743,19.894,96.8,14,Waypoint,
35.7013539,-118.5808869,6672.4948565644,167.32284,0,0.483267732,22900,2018-07-05 16:56:09,19,0,22.553,6672.4948565644,167.32284,0.223694,0.8256890028,0,0,-0.671082,292.5, 0.1, 1.1,0,0,1024,1024,1024,1024,291.7,-89.9,68,3.74,3.755,3.756,3.775,3.786,3.743,19.894,96.8,14,Waypoint,
35.7013539,-118.5808869,6673.4791085644,168.307092,0,0.483267732,23000,2018-07-05 16:56:09,19,0,22.518,6673.4791085644,168.307092,0.223694,0.8256890028,0,0,-0.671082,292.5, 0, 1,0,0,1024,1024,1024,1024,291.7,-89.9,68,3.74,3.746,3.753,3.764,3.775,3.734,20.013,96.8,14,Waypoint,
35.7013539,-118.580887,6674.4633605644,169.291344,0,0.50719817896,23100,2018-07-05 16:56:09,19,0,22.518,6674.4633605644,169.291344,0.223694,0.8256890028,0,0,-0.671082,292.5, 0.1, 1,0,0,1024,1024,1024,1024,291.7,-89.9,68,3.74,3.746,3.753,3.764,3.775,3.734,20.013,96.8,14,Waypoint,
35.7013539,-118.580887,6675.4476125644,170.275596,0,0.50719817896,23200,2018-07-05 16:56:09,19,0,22.518,6675.4476125644,170.275596,0.223694,0.8256890028,0,0,-0.671082,292.5, 0.2, 1.1,0,0,1024,1024,1024,1024,291.7,-89.9,68,3.74,3.746,3.753,3.764,3.775,3.734,20.013,96.8,14,Waypoint,
35.7013539,-118.580887,6676.4318645644,171.259848,0,0.50719817896,23300,2018-07-05 16:56:09,19,0,22.518,6676.4318645644,171.259848,0.223694,0.8256890028,0,0,-0.671082,292.5, 0.3, 1.2,0,0,1024,1024,1024,1024,291.7,-89.9,68,3.74,3.746,3.753,3.764,3.775,3.734,20.013,96.8,14,Waypoint,
35.7013539,-118.580887,6677.4161165644,172.2441,0,0.50719817896,23400,2018-07-05 16:56:10,19,0,22.518,6677.4161165644,172.2441,0.223694,0.8256890028,0,0,-0.671082,292.5, 0.4, 1.3,0,0,1024,1024,1024,1024,291.7,-89.9,68,3.74,3.746,3.753,3.764,3.775,3.734,20.013,96.8,14,Waypoint,
35.7013539,-118.5808871,6678.4003685644,173.228352,0,0.53170277292,23500,2018-07-05 16:56:10,19,0,22.518,6678.4003685644,173.228352,0.223694,0.8256890028,0,0,-0.671082,292.5, 0.5, 1.2,0,0,1024,1024,1024,1024,291.7,-89.9,68,3.74,3.746,3.753,3.764,3.775,3.734,20.013,96.8,14,Waypoint,
35.7013539,-118.5808871,6679.3846205644,174.212604,0,0.53170277292,23600,2018-07-05 16:56:10,19,0,22.518,6679.3846205644,174.212604,0.223694,0.8256890028,0,0,-0.671082,292.5, 0.7, 1.2,0,0,1024,1024,1024,1024,291.7,-89.9,68,3.74,3.746,3.753,3.764,3.775,3.734,20.013,96.8,14,Waypoint,
35.7013539,-118.5808871,6680.3688725644,175.196856,0,0.53170277292,23700,2018-07-05 16:56:10,19,0,22.518,6680.3688725644,175.196856,0.223694,0.8256890028,0,0,-0.671082,292.5, 0.7, 1.1,0,0,1024,1024,1024,1024,291.7,-89.9,68,3.74,3.746,3.753,3.764,3.775,3.734,20.013,96.8,14,Waypoint,
35.7013539,-118.5808871,6682.3373765644,177.16536,0,0.53170277292,23900,2018-07-05 16:56:10,19,0,22.518,6682.3373765644,177.16536,0.223694,0.8256890028,0,0,-0.671082,292.4, 0.7, 1.2,0,0,1024,1024,1024,1024,291.7,-89.9,68,3.74,3.746,3.753,3.764,3.775,3.734,20.013,96.8,14,Waypoint,
35.7013539,-118.5808871,6683.3216285644,178.149612,0,0.53170277292,24000,2018-07-05 16:56:10,19,0,22.53,6683.3216285644,178.149612,0.223694,0.8256890028,0,0,-0.671082,292.4, 0.6, 1.5,0,0,1024,1024,1024,1024,291.7,-89.9,68,3.74,3.753,3.748,3.772,3.775,3.741,19.711,96.8,14,Waypoint,
35.7013539,-118.5808872,6685.2901325644,180.118116,0,0.55670605456,24100,2018-07-05 16:56:10,19,0,22.53,6685.2901325644,180.118116,0.223694,0.8256890028,0,0,-0.671082,292.4, 0.5, 1.6,0,0,1024,1024,1024,1024,291.7,-89.9,68,3.74,3.753,3.748,3.772,3.775,3.741,19.711,96.8,14,Waypoint,
35.7013539,-118.5808872,6686.6024685644,181.430452,0,0.55670605456,24200,2018-07-05 16:56:10,19,0,22.53,6686.6024685644,181.430452,0.223694,0.8256890028,0,0,-0.671082,292.3, 0.5, 1.7,0,0,1024,1024,1024,1024,291.7,-89.9,68,3.74,3.753,3.748,3.772,3.775,3.741,19.711,96.8,14,Waypoint,
35.7013539,-118.5808872,6687.5867205644,182.414704,0,0.55670605456,24300,2018-07-05 16:56:10,19,0,22.53,6687.5867205644,182.414704,0.223694,0.8256890028,0,0,-0.671082,292.3, 0.6, 1.5,0,0,1024,1024,1024,1024,291.7,-89.9,68,3.74,3.753,3.748,3.772,3.775,3.741,19.711,96.8,14,Waypoint,
35.7013539,-118.5808873,6688.5709725644,183.398956,0,0.58214240708,24500,2018-07-05 16:56:11,19,0,22.53,6688.5709725644,183.398956,0.223694,0.8256890028,0,0,-0.671082,292.3, 0.7, 1.2,0,0,1024,1024,1024,1024,291.7,-89.9,68,3.74,3.753,3.748,3.772,3.775,3.741,19.711,96.8,14,Waypoint,
35.7013539,-118.5808873,6690.5394765644,185.36746,0,0.58214240708,24600,2018-07-05 16:56:11,19,0,22.53,6690.5394765644,185.36746,0.223694,0.8256890028,0,0,-0.671082,292.4, 0.8, 1.2,0,0,1024,1024,1024,1024,291.7,-89.9,68,3.74,3.753,3.748,3.772,3.775,3.741,19.711,96.8,14,Waypoint,
35.7013539,-118.5808873,6691.5237285644,186.351712,0,0.58214240708,24700,2018-07-05 16:56:11,19,0,22.53,6691.5237285644,186.351712,0.223694,0.8256890028,0,0,-0.671082,292.5, 0.7, 1.4,0,0,1024,1024,1024,1024,291.7,-89.9,68,3.74,3.753,3.748,3.772,3.775,3.741,19.711,96.8,14,Waypoint,
35.7013539,-118.5808873,6692.5079805644,187.335964,0,0.58214240708,24800,2018-07-05 16:56:11,19,0,22.53,6692.5079805644,187.335964,0.223694,0.8256890028,0,0,-0.671082,292.6, 0.6, 1.5,0,0,1024,1024,1024,1024,291.7,-89.9,68,3.74,3.753,3.748,3.772,3.775,3.741,19.711,96.8,14,Waypoint,
35.7013538,-118.5808873,6693.4922325644,188.320216,0,0.6012631426,24900,2018-07-05 16:56:11,19,0,22.53,6693.4922325644,188.320216,0.223694,0.8256890028,0,0,-0.671082,292.7, 0.5, 1.8,0,0,1024,1024,1024,1024,291.7,-89.9,68,3.74,3.753,3.748,3.772,3.775,3.741,19.711,96.8,14,Waypoint,
35.7013538,-118.5808873,6694.4764845644,189.304468,0,0.6012631426,25100,2018-07-05 16:56:11,19,0,22.53,6694.4764845644,189.304468,0.223694,0.8256890028,0,0,-0.671082,292.7, 0.5, 2,0,0,1024,1024,1024,1024,291.7,-89.9,68,3.74,3.753,3.748,3.772,3.775,3.741,19.711,96.8,14,Waypoint,
35.7013538,-118.5808873,6695.4607365644,190.28872,0,0.6012631426,25200,2018-07-05 16:56:11,19,0,22.53,6695.4607365644,190.28872,0.223694,0.8256890028,0,0,-0.671082,292.6, 0.5, 2,0,0,1024,1024,1024,1024,291.7,-89.9,68,3.74,3.753,3.748,3.772,3.775,3.741,19.711,96.8,14,Waypoint,
35.7013538,-118.5808873,6696.4449885644,191.272972,0,0.6012631426,25300,2018-07-05 16:56:11,19,0,22.53,6696.4449885644,191.272972,0.223694,0.8256890028,0,0,-0.671082,292.6, 0.5, 1.8,0,0,1024,1024,1024,1024,291.7,-89.9,68,3.74,3.753,3.748,3.772,3.775,3.741,19.711,96.8,14,Waypoint,
35.7013538,-118.5808873,6697.4292405644,192.257224,0,0.6012631426,25400,2018-07-05 16:56:12,19,0,22.53,6697.4292405644,192.257224,0.223694,0.8256890028,0,0,-0.671082,292.5, 0.7, 1.7,0,0,1024,1024,1024,1024,291.7,-89.9,68,3.74,3.753,3.748,3.772,3.775,3.741,19.711,96.8,14,Waypoint,
35.7013538,-118.5808873,6698.0854085644,192.913392,0,0.6012631426,25500,2018-07-05 16:56:12,19,0,22.53,6698.0854085644,192.913392,0.223694,0.8256890028,0,0,-0.671082,292.4, 0.8, 1.4,0,0,1024,1024,1024,1024,291.7,-89.9,68,3.74,3.753,3.748,3.772,3.775,3.741,19.711,96.8,14,Waypoint,
35.7013538,-118.5808873,6699.0696605644,193.897644,0,0.6012631426,25600,2018-07-05 16:56:12,19,0,22.53,6699.0696605644,193.897644,0.223694,0.8256890028,0,0,-0.671082,292.3, 0.9, 1.3,0,0,1024,1024,1024,1024,291.7,-89.9,68,3.74,3.753,3.748,3.772,3.775,3.741,19.711,96.8,14,Waypoint,
35.7013538,-118.5808873,6700.0539125644,194.881896,0,0.6012631426,25700,2018-07-05 16:56:12,19,0,22.53,6700.0539125644,194.881896,0.223694,0.8256890028,0,0,-0.671082,292.2, 0.8, 1.2,0,0,1024,1024,1024,1024,291.7,-89.9,68,3.74,3.753,3.748,3.772,3.775,3.741,19.711,96.8,14,Waypoint,
35.7013538,-118.5808873,6701.0381645644,195.866148,0,0.6012631426,25800,2018-07-05 16:56:12,19,0,22.53,6701.0381645644,195.866148,0.223694,0.8256890028,0,0,-0.671082,292.1, 0.8, 1.1,0,0,1024,1024,1024,1024,291.7,-89.9,68,3.74,3.753,3.748,3.772,3.775,3.741,19.711,96.8,14,Waypoint,
35.7013538,-118.5808872,6702.0224165644,196.8504,0,0.57666996596,25900,2018-07-05 16:56:12,19,0,22.53,6702.0224165644,196.8504,0.223694,0.8256890028,0,0,-0.671082,292.1, 0.6, 1.2,0,0,1024,1024,1024,1024,291.7,-89.9,68,3.74,3.753,3.748,3.772,3.775,3.741,19.711,96.8,14,Waypoint,
35.7013538,-118.5808872,6703.0066685644,197.834652,0,0.57666996596,26000,2018-07-05 16:56:12,19,0,22.475,6703.0066685644,197.834652,0.223694,0.8256890028,0,0,-0.671082,292.1, 0.4, 1.3,0,0,1024,1024,1024,1024,291.7,-90,67,3.723,3.741,3.74,3.768,3.771,3.726,20.278,96.8,14,Waypoint,
35.7013537,-118.5808872,6703.9909205644,198.818904,0,0.59819883804,26100,2018-07-05 16:56:12,19,0,22.475,6703.9909205644,198.818904,0.223694,0.8256890028,0,0,-0.671082,292.1, 0.2, 1.4,0,0,1024,1024,1024,1024,291.7,-89.9,67,3.723,3.741,3.74,3.768,3.771,3.726,20.278,96.8,14,Waypoint,
35.7013537,-118.5808871,6704.9751725644,199.803156,0,0.57500329924,26200,2018-07-05 16:56:12,19,0,22.475,6704.9751725644,199.803156,0.223694,0.8256890028,0,0,-0.671082,292.2, 0.2, 1.6,0,0,1024,1024,1024,1024,291.7,-89.9,67,3.723,3.741,3.74,3.768,3.771,3.726,20.278,96.8,14,Waypoint,
35.7013537,-118.5808871,6705.9594245644,200.787408,0,0.57500329924,26300,2018-07-05 16:56:12,19,0,22.475,6705.9594245644,200.787408,0.223694,0.8256890028,0,0,-0.671082,292.3, 0.3, 1.7,0,0,1024,1024,1024,1024,291.7,-89.9,67,3.723,3.741,3.74,3.768,3.771,3.726,20.278,96.8,14,Waypoint,
35.7013537,-118.5808871,6706.9436765644,201.77166,0,0.57500329924,26400,2018-07-05 16:56:13,19,0,22.475,6706.9436765644,201.77166,0.223694,0.8256890028,0,0,-0.671082,292.4, 0.4, 1.6,0,0,1024,1024,1024,1024,291.7,-89.9,67,3.723,3.741,3.74,3.768,3.771,3.726,20.278,96.8,14,Waypoint,
35.7013537,-118.5808871,6708.9121805644,203.740164,0,0.57500329924,26500,2018-07-05 16:56:13,19,0,22.475,6708.9121805644,203.740164,0.223694,0.8256890028,0,0,-0.671082,292.5, 0.4, 1.4,0,0,1024,1024,1024,1024,291.7,-89.9,67,3.723,3.741,3.74,3.768,3.771,3.726,20.278,96.8,14,Waypoint,
35.7013537,-118.580887,6709.8964325644,204.724416,0,0.55242455836,26600,2018-07-05 16:56:13,19,0,22.475,6709.8964325644,204.724416,0.223694,0.8256890028,0,0,-0.671082,292.5, 0.4, 1.2,0,0,1024,1024,1024,1024,291.7,-89.9,67,3.723,3.741,3.74,3.768,3.771,3.726,20.278,96.8,14,Waypoint,
35.7013537,-118.580887,6712.1930205644,207.021004,0,0.55242455836,26800,2018-07-05 16:56:13,19,0,22.475,6712.1930205644,207.021004,0.223694,0.8256890028,0,0,-0.671082,292.6, 0.4, 1.1,0,0,1024,1024,1024,1024,291.7,-89.9,67,3.723,3.741,3.74,3.768,3.771,3.726,20.278,96.8,14,Waypoint,
35.7013537,-118.580887,6713.1772725644,208.005256,0,0.55242455836,26900,2018-07-05 16:56:13,19,0,22.475,6713.1772725644,208.005256,0.223694,0.8256890028,0,0,-0.671082,292.6, 0.3, 1.1,0,0,1024,1024,1024,1024,291.7,-89.9,67,3.723,3.741,3.74,3.768,3.771,3.726,20.278,96.8,14,Waypoint,
35.7013537,-118.5808869,6714.1615245644,208.989508,0,0.53053807472,27000,2018-07-05 16:56:13,19,0,22.464,6714.1615245644,208.989508,0.223694,0.8256890028,0,0,-0.671082,292.6, 0.2, 1.2,0,0,1024,1024,1024,1024,291.7,-89.9,67,3.723,3.737,3.74,3.764,3.767,3.724,20.131,96.8,14,Waypoint,
35.7013537,-118.5808869,6716.1300285644,210.958012,0,0.53053807472,27200,2018-07-05 16:56:13,19,0,22.464,6716.1300285644,210.958012,0.223694,0.8256890028,0,0,-0.671082,292.5, 0.1, 1.2,0,0,1024,1024,1024,1024,291.7,-89.9,67,3.723,3.737,3.74,3.764,3.767,3.724,20.131,96.8,14,Waypoint,
35.7013537,-118.5808869,6717.1142805644,211.942264,0,0.53053807472,27300,2018-07-05 16:56:13,19,0,22.464,6717.1142805644,211.942264,0.223694,0.8256890028,0,0,-0.671082,292.4, 0, 1.1,0,0,1024,1024,1024,1024,291.7,-89.9,67,3.723,3.737,3.74,3.764,3.767,3.724,20.131,96.8,14,Waypoint,
35.7013537,-118.5808868,6718.0985325644,212.926516,0,0.50943571184,27400,2018-07-05 16:56:14,19,0,22.464,6718.0985325644,212.926516,0.223694,0.8256890028,0,0,-0.671082,292.4, 0.1, 1,0,0,1024,1024,1024,1024,291.7,-89.9,67,3.723,3.737,3.74,3.764,3.767,3.724,20.131,96.8,14,Waypoint,
35.7013537,-118.5808868,6719.0827845644,213.910768,0,0.50943571184,27600,2018-07-05 16:56:14,19,0,22.464,6719.0827845644,213.910768,0.223694,0.8256890028,0,0,-0.671082,292.4, 0.3, 1,0,0,1024,1024,1024,1024,291.7,-89.9,67,3.723,3.737,3.74,3.764,3.767,3.724,20.131,96.8,14,Waypoint,
35.7013537,-118.5808868,6720.0670365644,214.89502,0,0.50943571184,27700,2018-07-05 16:56:14,19,0,22.464,6720.0670365644,214.89502,0.223694,0.8256890028,0,0,-0.671082,292.4, 0.4, 1.1,0,0,1024,1024,1024,1024,291.7,-89.9,67,3.723,3.737,3.74,3.764,3.767,3.724,20.131,96.8,14,Waypoint,
