latitude,longitude,altitude(feet),ascent(feet),speed(mph),distance(feet),time(millisecond),datetime(utc),satellites,gpslevel,voltage(v),max_altitude(feet),max_ascent(feet),max_speed(mph),max_distance(feet), xSpeed(mph), ySpeed(mph), zSpeed(mph), compass_heading(degrees), pitch(degrees), roll(degrees),isPhoto,isVideo,rc_elevator,rc_aileron,rc_throttle,rc_rudder,gimbal_heading(degrees),gimbal_pitch(degrees),battery_percent,voltageCell1,voltageCell2,voltageCell3,voltageCell4,voltageCell5,voltageCell6,current(A),battery_temperature(f),flycStateRaw,flycState,message
36.7915899,-118.9555416,6416.5236557881,0,0.223694,0,3100,2018-06-14 20:57:02,12,0,0,6416.5236557881,0,0.223694,0,0,0,0,357.6, -0.6, 1.3,1,0,1024,1024,1024,1024,356.8,-89.9,100,4.136,4.131,4.137,4.115,4.104,4.119,0,73.4,11,AutoTakeoff,DJI_0740.jpg Starting Mission from Lat/Long: 36.79159/-118.95554 Camera: Zenmuse X3 - Overlap: 90/90 - Active Connection: No
36.7915901,-118.9555417,6416.5236557881,0,0.223694,0.078602036636,3200,2018-06-14 20:57:02,12,0,0,6416.5236557881,0,0.223694,0.078602036636,0,0,0,357.6, -0.2, 0.6,0,0,1024,1024,1024,1024,356.8,-89.9,100,4.136,4.131,4.137,4.115,4.104,4.119,0,73.4,11,AutoTakeoff,
36.7915903,-118.9555417,6416.5236557881,0,0.223694,0.148835962768,3300,2018-06-14 20:57:02,12,0,0,6416.5236557881,0,0.223694,0.148835962768,0,0,0,357.7, 0.5, 0.3,0,0,1024,1024,1024,1024,356.7,-89.9,100,4.136,4.131,4.137,4.115,4.104,4.119,0,73.4,11,AutoTakeoff,
36.7915905,-118.9555418,6416.5236557881,0,0.223694,0.2265748104,3400,2018-06-14 20:57:02,12,0,0,6416.5236557881,0,0.223694,0.2265748104,0,0,0,357.7, 1.1, 0.2,0,0,1024,1024,1024,1024,356.8,-89.9,100,4.136,4.131,4.137,4.115,4.104,4.119,0,73.4,11,AutoTakeoff,
36.7915907,-118.955542,6416.5236557881,0,0.3131716,0.314408146544,3500,2018-06-14 20:57:02,12,0,0,6416.5236557881,0,0.3131716,0.314408146544,0,0,0,357.8, 1.5, 0.3,0,0,1024,1024,1024,1024,356.8,-89.9,100,4.136,4.131,4.137,4.115,4.104,4.119,0,73.4,11,AutoTakeoff,
36.7915909,-118.9555421,6416.8517397881,0.328084,0.3131716,0.3930118236,3600,2018-06-14 20:57:02,12,0,0,6416.8517397881,0.328084,0.3131716,0.3930118236,0,0,0,357.9, 2, 0.7,0,0,1024,1024,1024,1024,356.8,-89.9,100,4.136,4.131,4.137,4.115,4.104,4.119,0,73.4,11,AutoTakeoff,
36.7915911,-118.9555423,6416.8517397881,0.328084,0.3131716,0.4832349236,3700,2018-06-14 20:57:02,12,0,0,6416.8517397881,0.328084,0.3131716,0.4832349236,0,0,0,358.1, 2, 1.5,0,0,1024,1024,1024,1024,356.8,-89.9,100,4.136,4.131,4.137,4.115,4.104,4.119,0,73.4,11,AutoTakeoff,
36.7915912,-118.9555425,6417.1798237881,0.656168,0.3131716,0.542322852,3800,2018-06-14 20:57:02,12,0,0,6417.1798237881,0.656168,0.3131716,0.542322852,0,0,0,358.2, 1.7, 1.7,0,0,1024,1024,1024,1024,356.8,-89.9,100,4.136,4.131,4.137,4.115,4.104,4.119,0,73.4,11,AutoTakeoff,
36.7915913,-118.9555426,6417.1798237881,0.656168,0.3131716,0.5884514624,3900,2018-06-14 20:57:02,12,0,0,6417.1798237881,0.656168,0.3131716,0.5884514624,0,0,0,358.2, 1.4, 1.8,0,0,1024,1024,1024,1024,356.7,-89.9,100,4.136,4.131,4.137,4.115,4.104,4.119,0,73.4,11,AutoTakeoff,
36.7915915,-118.9555428,6417.5079077881,0.984252,0.223694,0.68095802704,4000,2018-06-14 20:57:03,12,0,24.893,6417.5079077881,0.984252,0.3131716,0.68095802704,0,0,0,358.3, 1.1, 1.8,0,0,1024,1024,1024,1024,356.8,-89.9,100,4.136,4.131,4.137,4.115,4.104,4.119,11.996,73.4,11,AutoTakeoff,
36.7915916,-118.955543,6417.5079077881,0.984252,0.223694,0.74298230724,4100,2018-06-14 20:57:03,12,0,24.893,6417.5079077881,0.984252,0.3131716,0.74298230724,0,0,0,358.3, 1, 1.7,0,0,1024,1024,1024,1024,356.7,-89.9,100,4.136,4.131,4.137,4.115,4.104,4.119,11.996,73.4,11,AutoTakeoff,
36.7915917,-118.9555432,6417.5079077881,0.984252,0.223694,0.80612535388,4200,2018-06-14 20:57:03,12,0,24.893,6417.5079077881,0.984252,0.3131716,0.80612535388,0,0,0,358.3, 1, 1.9,0,0,1024,1024,1024,1024,356.8,-89.9,100,4.136,4.131,4.137,4.115,4.104,4.119,11.996,73.4,11,AutoTakeoff,
36.7915918,-118.9555433,6417.8359917881,1.312336,0.223694,0.85279530288,4300,2018-06-14 20:57:03,12,0,24.893,6417.8359917881,1.312336,0.3131716,0.85279530288,0,0,0,358.2, 1, 2,0,0,1024,1024,1024,1024,356.8,-89.9,100,4.136,4.131,4.137,4.115,4.104,4.119,11.996,73.4,11,AutoTakeoff,
36.7915919,-118.9555434,6417.8359917881,1.312336,0.223694,0.8994750944,4400,2018-06-14 20:57:03,12,0,24.893,6417.8359917881,1.312336,0.3131716,0.8994750944,0,0,0,358, 0.9, 1.8,0,0,1024,1024,1024,1024,356.7,-89.9,100,4.136,4.131,4.137,4.115,4.104,4.119,11.996,73.4,11,AutoTakeoff,
36.791592,-118.9555435,6418.1640757881,1.64042,0.223694,0.94615816676,4500,2018-06-14 20:57:03,12,0,24.893,6418.1640757881,1.64042,0.3131716,0.94615816676,0,0,0,357.9, 0.8, 1.7,0,0,1024,1024,1024,1024,356.7,-89.9,100,4.136,4.131,4.137,4.115,4.104,4.119,11.996,73.4,11,AutoTakeoff,
36.7915921,-118.9555438,6418.4921597881,1.968504,0,1.02832680456,4700,2018-06-14 20:57:03,12,0,24.893,6418.4921597881,1.968504,0.3131716,1.02832680456,0,0,-0.223694,357.6, 0.9, 1.6,0,0,1024,1024,1024,1024,356.7,-89.9,100,4.136,4.131,4.137,4.115,4.104,4.119,11.996,73.4,11,AutoTakeoff,
36.7915923,-118.9555441,6418.8202437881,2.296588,0.223694,1.1403051546,4900,2018-06-14 20:57:03,12,0,24.893,6418.8202437881,2.296588,0.3131716,1.1403051546,0,0,-0.223694,357.2, 1.1, 1.4,0,0,1024,1024,1024,1024,356.8,-89.9,100,4.136,4.131,4.137,4.115,4.104,4.119,11.996,73.4,11,AutoTakeoff,
36.7915923,-118.9555441,6418.8202437881,2.296588,0.223694,1.1403051546,5000,2018-06-14 20:57:04,12,0,24.893,6418.8202437881,2.296588,0.3131716,1.1403051546,0,0,-0.223694,357.2, 1.1, 1.4,0,0,1024,1024,1024,1024,356.8,-89.9,100,4.136,4.131,4.137,4.115,4.104,4.119,11.996,73.4,11,AutoTakeoff,
36.7915924,-118.9555443,6419.1483277881,2.624672,0.223694,1.20594492048,5100,2018-06-14 20:57:04,12,0,24.893,6419.1483277881,2.624672,0.3131716,1.20594492048,0,0,-0.223694,357.2, 1, 1.5,0,0,1024,1024,1024,1024,356.8,-89.9,100,4.136,4.131,4.137,4.115,4.104,4.119,11.996,73.4,11,AutoTakeoff,
36.7915925,-118.9555444,6419.4764117881,2.952756,0,1.25265423956,5200,2018-06-14 20:57:04,12,0,24.893,6419.4764117881,2.952756,0.3131716,1.25265423956,0,0,-0.223694,357.3, 1.2, 1.6,0,0,1024,1024,1024,1024,356.8,-89.9,100,4.136,4.131,4.137,4.115,4.104,4.119,11.996,73.4,11,AutoTakeoff,
36.7915926,-118.9555446,6419.8044957881,3.28084,0,1.31860568524,5300,2018-06-14 20:57:04,12,0,24.893,6419.8044957881,3.28084,0.3131716,1.31860568524,0,0,0,357.3, 2.1, 1.8,0,0,1024,1024,1024,1024,356.8,-89.9,100,4.136,4.131,4.137,4.115,4.104,4.119,11.996,73.4,14,Waypoint,
36.7915927,-118.9555448,6419.8044957881,3.28084,0,1.384842564,5400,2018-06-14 20:57:04,12,0,24.893,6419.8044957881,3.28084,0.3131716,1.384842564,0,0,0,357.1, 1.6, 1.8,0,0,1024,1024,1024,1024,356.7,-89.9,100,4.136,4.131,4.137,4.115,4.104,4.119,11.996,73.4,14,Waypoint,
36.7915927,-118.9555449,6420.1325797881,3.608924,0,1.40473429692,5500,2018-06-14 20:57:04,12,0,24.893,6420.1325797881,3.608924,0.3131716,1.40473429692,0,0,0,356.8, 1.2, 2,0,0,1024,1024,1024,1024,356.7,-90,100,4.136,4.131,4.137,4.115,4.104,4.119,11.996,73.4,14,Waypoint,
36.7915928,-118.9555451,6420.1325797881,3.608924,0,1.47148298672,5600,2018-06-14 20:57:04,12,0,24.893,6420.1325797881,3.608924,0.3131716,1.47148298672,0,0,0,356.4, 1, 2.2,0,0,1024,1024,1024,1024,356.7,-90,100,4.136,4.131,4.137,4.115,4.104,4.119,11.996,73.4,14,Waypoint,
36.7915928,-118.9555452,6420.1325797881,3.608924,0,1.49193574328,5700,2018-06-14 20:57:04,12,0,24.893,6420.1325797881,3.608924,0.3131716,1.49193574328,0,0,0,356.1, 1, 2.2,0,0,1024,1024,1024,1024,356.7,-90,100,4.136,4.131,4.137,4.115,4.104,4.119,11.996,73.4,14,Waypoint,
36.7915929,-118.9555453,6420.4606637881,3.937008,0,1.5384186844,5800,2018-06-14 20:57:04,12,0,24.893,6420.4606637881,3.937008,0.3131716,1.5384186844,0,0,-0.223694,355.7, 1, 1.9,0,0,1024,1024,1024,1024,356.8,-90,100,4.136,4.131,4.137,4.115,4.104,4.119,11.996,73.4,14,Waypoint,
36.7915929,-118.9555454,6420.7887477881,4.265092,0,1.5590879764,5900,2018-06-14 20:57:04,12,0,24.893,6420.7887477881,4.265092,0.3131716,1.5590879764,0,0,-0.223694,355.4, 1, 1.4,0,0,1024,1024,1024,1024,356.7,-90,100,4.136,4.131,4.137,4.115,4.104,4.119,11.996,73.4,14,Waypoint,
36.7915929,-118.9555454,6421.1168317881,4.593176,0,1.5590879764,6000,2018-06-14 20:57:05,12,0,24.406,6421.1168317881,4.593176,0.3131716,1.5590879764,0,0,-0.223694,355.2, 1.1, 1.1,0,0,1024,1024,1024,1024,356.7,-89.9,100,4.049,4.047,4.037,4.063,4.061,4.06,17.096,73.4,14,Waypoint,
36.7915929,-118.9555454,6421.1168317881,4.593176,0,1.5590879764,6100,2018-06-14 20:57:05,12,0,24.406,6421.1168317881,4.593176,0.3131716,1.5590879764,0,0,-0.223694,355, 1.1, 0.9,0,0,1024,1024,1024,1024,356.7,-89.9,100,4.049,4.047,4.037,4.063,4.061,4.06,17.096,73.4,14,Waypoint,
36.7915929,-118.9555455,6421.7729997881,5.249344,0,1.58002629728,6200,2018-06-14 20:57:05,11,0,24.406,6421.7729997881,5.249344,0.3131716,1.58002629728,0,0,-0.223694,355, 1.2, 0.9,0,0,1024,1024,1024,1024,356.7,-90,100,4.049,4.047,4.037,4.063,4.061,4.06,17.096,73.4,14,Waypoint,
36.7915929,-118.9555455,6422.1010837881,5.577428,0,1.58002629728,6300,2018-06-14 20:57:05,11,0,24.406,6422.1010837881,5.577428,0.3131716,1.58002629728,0,0,-0.447388,355.1, 1.2, 0.7,0,0,1024,1024,1024,1024,356.6,-90,100,4.049,4.047,4.037,4.063,4.061,4.06,17.096,73.4,14,Waypoint,
36.7915929,-118.9555456,6422.7572517881,6.233596,0,1.60122708536,6400,2018-06-14 20:57:05,12,0,24.406,6422.7572517881,6.233596,0.3131716,1.60122708536,0,0,-0.447388,355.2, 1, 0.6,0,0,1024,1024,1024,1024,356.6,-90,100,4.049,4.047,4.037,4.063,4.061,4.06,17.096,73.4,14,Waypoint,
36.7915928,-118.9555457,6423.4134197881,6.889764,0,1.59829073356,6500,2018-06-14 20:57:05,12,0,24.406,6423.4134197881,6.889764,0.3131716,1.60122708536,0,0,-0.447388,355.1, 0.8, 0.9,0,0,1024,1024,1024,1024,356.6,-90,100,4.049,4.047,4.037,4.063,4.061,4.06,17.096,73.4,14,Waypoint,
36.7915927,-118.9555458,6424.0695877881,7.545932,0,1.59672249204,6600,2018-06-14 20:57:05,11,0,24.406,6424.0695877881,7.545932,0.3131716,1.60122708536,0,0,-0.447388,355, 0.6, 1.3,0,0,1024,1024,1024,1024,356.6,-90,100,4.049,4.047,4.037,4.063,4.061,4.06,17.096,73.4,14,Waypoint,
36.7915927,-118.955546,6424.7257557881,8.2021,0,1.64205713916,6700,2018-06-14 20:57:05,11,0,24.406,6424.7257557881,8.2021,0.3131716,1.64205713916,0,0,-0.447388,355, 0.5, 1.5,0,0,1024,1024,1024,1024,356.5,-90,100,4.049,4.047,4.037,4.063,4.061,4.06,17.096,73.4,14,Waypoint,
36.7915926,-118.9555461,6425.7100077881,9.186352,0,1.6428970342,6800,2018-06-14 20:57:05,12,0,24.406,6425.7100077881,9.186352,0.3131716,1.6428970342,0,0,-0.671082,355, 0.4, 1.7,0,0,1024,1024,1024,1024,356.5,-90,100,4.049,4.047,4.037,4.063,4.061,4.06,17.096,73.4,14,Waypoint,
36.7915925,-118.9555462,6426.6942597881,10.170604,0,1.64506895028,6900,2018-06-14 20:57:05,12,0,24.406,6426.6942597881,10.170604,0.3131716,1.64506895028,0,0,-0.671082,355, 0.4, 2,0,0,1024,1024,1024,1024,356.5,-90,100,4.049,4.047,4.037,4.063,4.061,4.06,17.096,73.4,14,Waypoint,
36.7915924,-118.9555462,6427.6785117881,11.154856,0,1.62430451392,7000,2018-06-14 20:57:06,11,0,24.225,6427.6785117881,11.154856,0.3131716,1.64506895028,0,0,-0.671082,355, 0.4, 2,0,0,1024,1024,1024,1024,356.5,-90,100,3.994,3.992,4.015,4.042,4.037,4.035,17.67,73.4,14,Waypoint,
36.7915922,-118.9555464,6428.6627637881,12.139108,0,1.63433732264,7100,2018-06-14 20:57:06,11,0,24.225,6428.6627637881,12.139108,0.3131716,1.64506895028,0,0,-0.671082,355.2, 0.4, 1.9,0,0,1024,1024,1024,1024,356.4,-90,100,3.994,3.992,4.015,4.042,4.037,4.035,17.67,73.4,14,Waypoint,
36.7915921,-118.9555465,6429.9750997881,13.451444,0,1.64133207352,7200,2018-06-14 20:57:06,12,0,24.225,6429.9750997881,13.451444,0.3131716,1.64506895028,0,0,-0.671082,355.4, 0.5, 1.8,0,0,1024,1024,1024,1024,356.4,-89.9,100,3.994,3.992,4.015,4.042,4.037,4.035,17.67,73.4,14,Waypoint,
36.791592,-118.9555466,6430.9593517881,14.435696,0,1.64961947536,7400,2018-06-14 20:57:06,12,0,24.225,6430.9593517881,14.435696,0.3131716,1.64961947536,0,0,-0.671082,355.6, 0.5, 1.8,0,0,1024,1024,1024,1024,356.4,-89.9,100,3.994,3.992,4.015,4.042,4.037,4.035,17.67,73.4,14,Waypoint,
36.7915918,-118.9555468,6432.2716877881,15.748032,0,1.67000005344,7500,2018-06-14 20:57:06,11,0,24.225,6432.2716877881,15.748032,0.3131716,1.67000005344,0,0,-0.671082,355.8, 0.5, 1.8,0,0,1024,1024,1024,1024,356.4,-90,100,3.994,3.992,4.015,4.042,4.037,4.035,17.67,73.4,14,Waypoint,
36.7915916,-118.9555468,6434.5682757881,18.04462,0,1.64105320212,7600,2018-06-14 20:57:06,11,0,24.225,6434.5682757881,18.04462,0.3131716,1.67000005344,0,0,-0.671082,355.8, -0.4, 1.6,0,0,1024,1024,1024,1024,356.3,-90,100,3.994,3.992,4.015,4.042,4.037,4.035,17.67,73.4,14,Waypoint,
36.7915915,-118.9555466,6436.8648637881,20.341208,0,1.57320871176,7800,2018-06-14 20:57:06,12,0,24.225,6436.8648637881,20.341208,0.3131716,1.67000005344,0,0,-0.671082,355.7, -1.1, 1.5,0,0,1024,1024,1024,1024,356.3,-89.9,100,3.994,3.992,4.015,4.042,4.037,4.035,17.67,73.4,14,Waypoint,
36.7915914,-118.9555466,6438.1771997881,21.653544,0,1.56003613916,7900,2018-06-14 20:57:06,12,0,24.225,6438.1771997881,21.653544,0.3131716,1.67000005344,0,0,-0.671082,355.6, -0.9, 1.9,0,0,1024,1024,1024,1024,356.3,-89.9,100,3.994,3.992,4.015,4.042,4.037,4.035,17.67,73.4,14,Waypoint,
36.7915914,-118.9555466,6439.1614517881,22.637796,0,1.56003613916,8000,2018-06-14 20:57:07,12,0,23.405,6439.1614517881,22.637796,0.3131716,1.67000005344,0,0,-0.671082,355.5, -0.6, 2.3,0,0,1024,1024,1024,1024,356.3,-89.9,100,3.884,3.888,3.896,3.904,3.9,3.97,25.854,73.4,14,Waypoint,
36.7915915,-118.9555465,6440.1457037881,23.622048,0,1.5461122542,8100,2018-06-14 20:57:07,12,0,23.405,6440.1457037881,23.622048,0.3131716,1.67000005344,0,0,-0.671082,355.4, -0.5, 2.4,0,0,1024,1024,1024,1024,356.3,-89.9,100,3.884,3.888,3.896,3.904,3.9,3.97,25.854,73.4,14,Waypoint,
36.7915915,-118.9555464,6441.4580397881,24.934384,0.223694,1.51909781764,8200,2018-06-14 20:57:07,12,0,23.405,6441.4580397881,24.934384,0.3131716,1.67000005344,0,0,-0.671082,355.4, -0.2, 2.2,0,0,1024,1024,1024,1024,356.2,-89.9,100,3.884,3.888,3.896,3.904,3.9,3.97,25.854,73.4,14,Waypoint,
36.7915916,-118.9555463,6442.4422917881,25.918636,0.3131716,1.50681435268,8300,2018-06-14 20:57:07,12,0,23.405,6442.4422917881,25.918636,0.3131716,1.67000005344,0,0,-0.671082,355.5, 0.5, 1.7,0,0,1024,1024,1024,1024,356.2,-89.9,100,3.884,3.888,3.896,3.904,3.9,3.97,25.854,73.4,14,Waypoint,
36.7915918,-118.9555462,6443.4265437881,26.902888,0.223694,1.51226382792,8400,2018-06-14 20:57:07,12,0,23.405,6443.4265437881,26.902888,0.3131716,1.67000005344,0,0,-0.671082,355.6, 1.8, 1.5,0,0,1024,1024,1024,1024,356.2,-89.9,100,3.884,3.888,3.896,3.904,3.9,3.97,25.854,73.4,14,Waypoint,
36.7915919,-118.9555461,6444.4107957881,27.88714,0.223694,1.50371723972,8510,2018-06-14 20:57:07,12,0,23.405,6444.4107957881,27.88714,0.3131716,1.67000005344,0,0,-0.671082,355.6, 1.7, 1,0,0,1024,1024,1024,1024,356.2,-89.9,100,3.884,3.888,3.896,3.904,3.9,3.97,25.854,73.4,14,Waypoint,
36.791592,-118.955546,6445.7231317881,29.199476,0.223694,1.49658469356,8600,2018-06-14 20:57:07,12,0,23.405,6445.7231317881,29.199476,0.3131716,1.67000005344,0,0,-0.671082,355.5, 0.9, 0.2,0,0,1024,1024,1024,1024,356.2,-89.9,100,3.884,3.888,3.896,3.904,3.9,3.97,25.854,73.4,14,Waypoint,
36.7915921,-118.9555458,6446.7073837881,30.183728,0.223694,1.46634519128,8700,2018-06-14 20:57:07,12,0,23.405,6446.7073837881,30.183728,0.3131716,1.67000005344,0,0,-0.671082,355.3, 0.4, -0.4,0,0,1024,1024,1024,1024,356.2,-90,100,3.884,3.888,3.896,3.904,3.9,3.97,25.854,73.4,14,Waypoint,
36.7915921,-118.9555457,6447.6916357881,31.16798,0.223694,1.44198495428,8900,2018-06-14 20:57:07,12,0,23.405,6447.6916357881,31.16798,0.3131716,1.67000005344,0,0,-0.671082,355.1, 0.8, -0.5,0,0,1024,1024,1024,1024,356.2,-89.9,100,3.884,3.888,3.896,3.904,3.9,3.97,25.854,73.4,14,Waypoint,
36.7915922,-118.9555456,6448.6758877881,32.152232,0.223694,1.43877301192,9000,2018-06-14 20:57:08,12,0,23.79,6448.6758877881,32.152232,0.3131716,1.67000005344,0,0,-0.671082,354.9, 0.6, -0.5,0,0,1024,1024,1024,1024,356.1,-89.9,98,3.969,3.976,3.959,3.985,3.987,3.978,20.279,73.4,14,Waypoint,
36.7915923,-118.9555455,6449.6601397881,33.136484,0.223694,1.43707681764,9100,2018-06-14 20:57:08,12,0,23.79,6449.6601397881,33.136484,0.3131716,1.67000005344,0,0,-0.671082,354.6, 0.4, -0.2,0,0,1024,1024,1024,1024,356.1,-89.9,98,3.969,3.976,3.959,3.985,3.987,3.978,20.279,73.4,14,Waypoint,
36.7915924,-118.9555454,6450.6443917881,34.120736,0.223694,1.43690293312,9200,2018-06-14 20:57:08,12,0,23.79,6450.6443917881,34.120736,0.3131716,1.67000005344,0,0,-0.671082,354.4, 0.6, 0,0,0,1024,1024,1024,1024,356.1,-89.9,98,3.969,3.976,3.959,3.985,3.987,3.978,20.279,73.4,14,Waypoint,
36.7915924,-118.9555454,6451.9567277881,35.433072,0.223694,1.43690293312,9300,2018-06-14 20:57:08,12,0,23.79,6451.9567277881,35.433072,0.3131716,1.67000005344,0,0,-0.671082,354.3, 0.7, 0.1,0,0,1024,1024,1024,1024,356.1,-89.9,98,3.969,3.976,3.959,3.985,3.987,3.978,20.279,73.4,14,Waypoint,
36.7915925,-118.9555453,6452.9409797881,36.417324,0.223694,1.43824479668,9400,2018-06-14 20:57:08,12,0,23.79,6452.9409797881,36.417324,0.3131716,1.67000005344,0,0,-0.671082,354.4, 0.7, 0,0,0,1024,1024,1024,1024,356.1,-89.9,98,3.969,3.976,3.959,3.985,3.987,3.978,20.279,73.4,14,Waypoint,
36.7915925,-118.9555452,6453.9252317881,37.401576,0.223694,1.41641408732,9500,2018-06-14 20:57:08,12,0,23.79,6453.9252317881,37.401576,0.3131716,1.67000005344,0,0,-0.671082,354.6, 0.4, -0.2,0,0,1024,1024,1024,1024,356.1,-89.9,98,3.969,3.976,3.959,3.985,3.987,3.978,20.279,73.4,14,Waypoint,
36.7915925,-118.9555452,6455.2375677881,38.713912,0.223694,1.41641408732,9600,2018-06-14 20:57:08,12,0,23.79,6455.2375677881,38.713912,0.3131716,1.67000005344,0,0,-0.671082,354.8, 0, -0.1,0,0,1024,1024,1024,1024,356.1,-89.9,98,3.969,3.976,3.959,3.985,3.987,3.978,20.279,73.4,14,Waypoint,
36.7915925,-118.9555451,6457.2060717881,40.682416,0.223694,1.39485568768,9700,2018-06-14 20:57:08,13,0,23.79,6457.2060717881,40.682416,0.3131716,1.67000005344,0,0,-0.671082,355.4, -0.1, -0.2,0,0,1024,1024,1024,1024,356.1,-89.9,98,3.969,3.976,3.959,3.985,3.987,3.978,20.279,73.4,14,Waypoint,
36.7915925,-118.9555451,6458.1903237881,41.666668,0.223694,1.39485568768,9800,2018-06-14 20:57:08,12,0,23.79,6458.1903237881,41.666668,0.3131716,1.67000005344,0,0,-0.671082,355.6, -0.4, -0.3,0,0,1024,1024,1024,1024,356.1,-89.9,98,3.969,3.976,3.959,3.985,3.987,3.978,20.279,73.4,14,Waypoint,
36.7915925,-118.955545,6459.5026597881,42.979004,0.223694,1.37357615944,9900,2018-06-14 20:57:08,12,0,23.79,6459.5026597881,42.979004,0.3131716,1.67000005344,0,0,-0.671082,355.7, -0.3, 0,0,0,1024,1024,1024,1024,356.1,-89.9,98,3.969,3.976,3.959,3.985,3.987,3.978,20.279,73.4,14,Waypoint,
36.7915925,-118.9555449,6460.4869117881,43.963256,0.223694,1.35259518764,10000,2018-06-14 20:57:09,13,0,23.829,6460.4869117881,43.963256,0.3131716,1.67000005344,0,0,-0.671082,355.6, -0.1, -0.5,0,0,1024,1024,1024,1024,356.1,-89.9,98,3.954,3.968,3.941,3.978,3.97,3.963,19.042,73.4,14,Waypoint,
36.7915925,-118.9555447,6461.4711637881,44.947508,0.447388,1.3115814068,10100,2018-06-14 20:57:09,13,0,23.829,6461.4711637881,44.947508,0.447388,1.67000005344,0,0,-0.671082,355.6, 0.3, -1.5,0,0,1024,1024,1024,1024,356.1,-89.9,98,3.954,3.968,3.941,3.978,3.97,3.963,19.042,73.4,14,Waypoint,
36.7915926,-118.9555445,6462.4554157881,45.93176,0.447388,1.29936683948,10200,2018-06-14 20:57:09,13,0,23.829,6462.4554157881,45.93176,0.447388,1.67000005344,0,0,-0.671082,355.6, 0.7, -2.9,0,0,1024,1024,1024,1024,356.1,-89.9,98,3.954,3.968,3.941,3.978,3.97,3.963,19.042,73.4,14,Waypoint,
36.7915926,-118.9555443,6463.4396677881,46.916012,0.447388,1.2620407228,10300,2018-06-14 20:57:09,13,0,23.829,6463.4396677881,46.916012,0.447388,1.67000005344,0,0,-0.671082,355.5, 0.6, -3.7,0,0,1024,1024,1024,1024,356.1,-89.9,98,3.954,3.968,3.941,3.978,3.97,3.963,19.042,73.4,14,Waypoint,
36.7915926,-118.9555442,6464.4239197881,47.900264,0.223694,1.24398626028,10400,2018-06-14 20:57:09,12,0,23.829,6464.4239197881,47.900264,0.447388,1.67000005344,0,0,-0.671082,355.3, -0.4, -3.6,0,0,1024,1024,1024,1024,356.1,-90,98,3.954,3.968,3.941,3.978,3.97,3.963,19.042,73.4,14,Waypoint,
36.7915926,-118.9555441,6465.0800877881,48.556432,0.223694,1.2263615878,10500,2018-06-14 20:57:09,12,0,23.829,6465.0800877881,48.556432,0.447388,1.67000005344,0,0,-0.671082,355.1, -0.9, -3.1,0,0,1024,1024,1024,1024,356.1,-89.9,98,3.954,3.968,3.941,3.978,3.97,3.963,19.042,73.4,14,Waypoint,
36.7915926,-118.955544,6466.0643397881,49.540684,0.223694,1.2091863904,10600,2018-06-14 20:57:09,13,0,23.829,6466.0643397881,49.540684,0.447388,1.67000005344,0,0,-0.671082,354.8, -0.4, -2.5,0,0,1024,1024,1024,1024,356.1,-89.9,98,3.954,3.968,3.941,3.978,3.97,3.963,19.042,73.4,14,Waypoint,
36.7915926,-118.9555439,6467.0485917881,50.524936,0.223694,1.19248035312,10700,2018-06-14 20:57:09,13,0,23.829,6467.0485917881,50.524936,0.447388,1.67000005344,0,0,-0.671082,354.5, 0, -1.9,0,0,1024,1024,1024,1024,356.1,-89.9,98,3.954,3.968,3.941,3.978,3.97,3.963,19.042,73.4,14,Waypoint,
36.7915926,-118.9555438,6467.7047597881,51.181104,0.223694,1.176263161,10800,2018-06-14 20:57:09,13,0,23.829,6467.7047597881,51.181104,0.447388,1.67000005344,0,0,-0.671082,354.2, 0.1, -1.6,0,0,1024,1024,1024,1024,356.1,-89.9,98,3.954,3.968,3.941,3.978,3.97,3.963,19.042,73.4,14,Waypoint,
36.7915926,-118.9555437,6468.6890117881,52.165356,0.223694,1.16055121824,10900,2018-06-14 20:57:09,13,0,23.829,6468.6890117881,52.165356,0.447388,1.67000005344,0,0,-0.671082,354, 0.3, -2.2,0,0,1024,1024,1024,1024,356.1,-89.9,98,3.954,3.968,3.941,3.978,3.97,3.963,19.042,73.4,14,Waypoint,
36.7915927,-118.9555436,6469.6732637881,53.149608,0.223694,1.17689964396,11000,2018-06-14 20:57:10,13,0,23.828,6469.6732637881,53.149608,0.447388,1.67000005344,0,0,-0.671082,354.1, 0.5, -2.5,0,0,1024,1024,1024,1024,356.1,-89.9,98,3.972,3.97,3.956,3.977,3.978,3.971,19.074,73.4,14,Waypoint,
36.7915927,-118.9555435,6470.6575157881,54.13386,0.223694,1.16267064088,11100,2018-06-14 20:57:10,13,0,23.828,6470.6575157881,54.13386,0.447388,1.67000005344,0,0,-0.671082,354.3, 0.7, -3,0,0,1024,1024,1024,1024,356.1,-89.9,98,3.972,3.97,3.956,3.977,3.978,3.971,19.074,73.4,14,Waypoint,
36.7915926,-118.9555434,6471.3136837881,54.790028,0.223694,1.11669294912,11200,2018-06-14 20:57:10,13,0,23.828,6471.3136837881,54.790028,0.447388,1.67000005344,0,0,-0.671082,354.5, 0.6, -2.9,0,0,1024,1024,1024,1024,356.1,-89.9,98,3.972,3.97,3.956,3.977,3.978,3.971,19.074,73.4,14,Waypoint,
36.7915926,-118.9555433,6472.2979357881,55.77428,0.223694,1.1032316626,11300,2018-06-14 20:57:10,13,0,23.828,6472.2979357881,55.77428,0.447388,1.67000005344,0,0,-0.671082,354.8, 0.4, -2.7,0,0,1024,1024,1024,1024,356.1,-89.9,98,3.972,3.97,3.956,3.977,3.978,3.971,19.074,73.4,14,Waypoint,
36.7915926,-118.9555433,6473.2821877881,56.758532,0,1.1032316626,11400,2018-06-14 20:57:10,13,0,23.828,6473.2821877881,56.758532,0.447388,1.67000005344,0,0,-0.671082,355, 0, -2.9,0,0,1024,1024,1024,1024,356.1,-90,98,3.972,3.97,3.956,3.977,3.978,3.971,19.074,73.4,14,Waypoint,
36.7915925,-118.9555433,6474.2664397881,57.742784,0,1.07078087416,11510,2018-06-14 20:57:10,13,0,23.828,6474.2664397881,57.742784,0.447388,1.67000005344,0,0,-0.671082,355, -0.1, -3.2,0,0,1024,1024,1024,1024,356.1,-89.9,98,3.972,3.97,3.956,3.977,3.978,3.971,19.074,73.4,14,Waypoint,
36.7915925,-118.9555433,6475.2506917881,58.727036,0,1.07078087416,11600,2018-06-14 20:57:10,13,0,23.828,6475.2506917881,58.727036,0.447388,1.67000005344,0,0,-0.671082,355, -0.1, -3.1,0,0,1024,1024,1024,1024,356,-90,98,3.972,3.97,3.956,3.977,3.978,3.971,19.074,73.4,14,Waypoint,
36.7915923,-118.9555431,6476.8911117881,60.367456,0,0.97919294472,11700,2018-06-14 20:57:10,13,0,23.828,6476.8911117881,60.367456,0.447388,1.67000005344,0,0,-0.671082,355.3, -0.6, -2.3,0,0,1024,1024,1024,1024,356,-90,98,3.972,3.97,3.956,3.977,3.978,3.971,19.074,73.4,14,Waypoint,
36.7915921,-118.9555431,6478.8596157881,62.33596,0,0.91452430748,12000,2018-06-14 20:57:11,13,0,23.828,6478.8596157881,62.33596,0.447388,1.67000005344,0,0,-0.671082,355.7, -1.1, -1.9,0,0,1024,1024,1024,1024,356,-90,98,3.972,3.97,3.956,3.977,3.978,3.971,19.074,73.4,14,Waypoint,
36.7915921,-118.955543,6479.8438677881,63.320212,0.223694,0.90088913644,12100,2018-06-14 20:57:11,13,0,23.828,6479.8438677881,63.320212,0.447388,1.67000005344,0,0,-0.671082,355.8, -1.4, -2.4,0,0,1024,1024,1024,1024,356,-90,98,3.972,3.97,3.956,3.977,3.978,3.971,19.074,73.4,14,Waypoint,
36.791592,-118.9555429,6480.8281197881,64.304464,0.223694,0.8551673502,12200,2018-06-14 20:57:11,13,0,23.828,6480.8281197881,64.304464,0.447388,1.67000005344,0,0,-0.671082,355.8, -1.6, -3,0,0,1024,1024,1024,1024,356,-89.9,98,3.972,3.97,3.956,3.977,3.978,3.971,19.074,73.4,14,Waypoint,
36.7915919,-118.9555428,6481.8123717881,65.288716,0.223694,0.80956039336,12300,2018-06-14 20:57:11,13,0,23.828,6481.8123717881,65.288716,0.447388,1.67000005344,0,0,-0.671082,355.7, -1.7, -3.3,0,0,1024,1024,1024,1024,356,-89.9,98,3.972,3.97,3.956,3.977,3.978,3.971,19.074,73.4,14,Waypoint,
36.7915919,-118.9555427,6482.7966237881,66.272968,0,0.7973425452,12400,2018-06-14 20:57:11,13,0,23.828,6482.7966237881,66.272968,0.447388,1.67000005344,0,0,-0.671082,355.5, -1.8, -3.4,0,0,1024,1024,1024,1024,356,-89.9,98,3.972,3.97,3.956,3.977,3.978,3.971,19.074,73.4,14,Waypoint,
36.7915918,-118.9555426,6483.7808757881,67.25722,0,0.75227364612,12500,2018-06-14 20:57:11,13,0,23.828,6483.7808757881,67.25722,0.447388,1.67000005344,0,0,-0.671082,355.4, -1.6, -3.2,0,0,1024,1024,1024,1024,356,-89.9,98,3.972,3.97,3.956,3.977,3.978,3.971,19.074,73.4,14,Waypoint,
36.7915918,-118.9555426,6484.7651277881,68.241472,0,0.75227364612,12600,2018-06-14 20:57:11,13,0,23.828,6484.7651277881,68.241472,0.447388,1.67000005344,0,0,-0.671082,355.3, -1.6, -3.1,0,0,1024,1024,1024,1024,356,-89.9,98,3.972,3.97,3.956,3.977,3.978,3.971,19.074,73.4,14,Waypoint,
36.7915918,-118.9555427,6485.7493797881,69.225724,0,0.76409451264,12700,2018-06-14 20:57:11,13,0,23.828,6485.7493797881,69.225724,0.447388,1.67000005344,0,0,-0.671082,355.1, -1.5, -2.9,0,0,1024,1024,1024,1024,356,-89.9,98,3.972,3.97,3.956,3.977,3.978,3.971,19.074,73.4,14,Waypoint,
36.7915918,-118.9555427,6486.4055477881,69.881892,0,0.76409451264,12800,2018-06-14 20:57:11,13,0,23.828,6486.4055477881,69.881892,0.447388,1.67000005344,0,0,-0.671082,355, -1.7, -3,0,0,1024,1024,1024,1024,356,-89.9,98,3.972,3.97,3.956,3.977,3.978,3.971,19.074,73.4,14,Waypoint,
36.7915918,-118.9555427,6487.3897997881,70.866144,0,0.76409451264,12900,2018-06-14 20:57:11,13,0,23.828,6487.3897997881,70.866144,0.447388,1.67000005344,0,0,-0.671082,354.9, -1.7, -2.6,0,0,1024,1024,1024,1024,356,-89.9,98,3.972,3.97,3.956,3.977,3.978,3.971,19.074,73.4,14,Waypoint,
36.7915917,-118.9555428,6488.3740517881,71.850396,0,0.74446196608,13000,2018-06-14 20:57:12,13,0,23.738,6488.3740517881,71.850396,0.447388,1.67000005344,0,0,-0.671082,354.7, -1.3, -2.4,0,0,1024,1024,1024,1024,356,-89.9,98,3.957,3.943,3.929,3.95,3.953,3.942,19.29,73.4,14,Waypoint,
36.7915918,-118.9555429,6489.3583037881,72.834648,0,0.7904527812,13100,2018-06-14 20:57:12,13,0,23.738,6489.3583037881,72.834648,0.447388,1.67000005344,0,0,-0.671082,354.6, -1.1, -2.1,0,0,1024,1024,1024,1024,356,-89.9,98,3.957,3.943,3.929,3.95,3.953,3.942,19.29,73.4,14,Waypoint,
36.7915918,-118.955543,6490.3425557881,73.8189,0,0.80490160056,13200,2018-06-14 20:57:12,13,0,23.738,6490.3425557881,73.8189,0.447388,1.67000005344,0,0,-0.671082,354.6, -0.8, -1.4,0,0,1024,1024,1024,1024,356,-89.9,98,3.957,3.943,3.929,3.95,3.953,3.942,19.29,73.4,14,Waypoint,
36.7915918,-118.9555431,6490.9987237881,74.475068,0,0.82013782152,13300,2018-06-14 20:57:12,13,0,23.738,6490.9987237881,74.475068,0.447388,1.67000005344,0,0,-0.671082,354.7, -0.4, -0.7,0,0,1024,1024,1024,1024,356,-89.9,98,3.957,3.943,3.929,3.95,3.953,3.942,19.29,73.4,14,Waypoint,
36.7915919,-118.9555432,6491.9829757881,75.45932,0,0.86660435844,13400,2018-06-14 20:57:12,13,0,23.738,6491.9829757881,75.45932,0.447388,1.67000005344,0,0,-0.671082,354.7, -0.1, -0.4,0,0,1024,1024,1024,1024,356,-89.9,98,3.957,3.943,3.929,3.95,3.953,3.942,19.29,73.4,14,Waypoint,
36.7915919,-118.9555433,6492.9672277881,76.443572,0,0.882710002,13500,2018-06-14 20:57:12,13,0,23.738,6492.9672277881,76.443572,0.447388,1.67000005344,0,0,-0.671082,354.8, -0.4, -0.5,0,0,1024,1024,1024,1024,356,-89.9,98,3.957,3.943,3.929,3.95,3.953,3.942,19.29,73.4,14,Waypoint,
36.7915919,-118.9555433,6493.9514797881,77.427824,0,0.882710002,13600,2018-06-14 20:57:12,13,0,23.738,6493.9514797881,77.427824,0.447388,1.67000005344,0,0,-0.671082,355, -0.7, -0.7,0,0,1024,1024,1024,1024,356,-89.9,98,3.957,3.943,3.929,3.95,3.953,3.942,19.29,73.4,14,Waypoint,
36.7915919,-118.9555433,6494.9357317881,78.412076,0,0.882710002,13700,2018-06-14 20:57:12,13,0,23.738,6494.9357317881,78.412076,0.447388,1.67000005344,0,0,-0.671082,355.1, -0.7, -1.1,0,0,1024,1024,1024,1024,356,-89.9,98,3.957,3.943,3.929,3.95,3.953,3.942,19.29,73.4,14,Waypoint,
36.7915919,-118.9555434,6495.9199837881,79.396328,0,0.8994750944,13800,2018-06-14 20:57:12,13,0,23.738,6495.9199837881,79.396328,0.447388,1.67000005344,0,0,-0.671082,355.3, -0.9, -1.3,0,0,1024,1024,1024,1024,356,-89.9,98,3.957,3.943,3.929,3.95,3.953,3.942,19.29,73.4,14,Waypoint,
36.791592,-118.9555435,6498.2165717881,81.692916,0,0.94615816676,14000,2018-06-14 20:57:13,13,0,23.719,6498.2165717881,81.692916,0.447388,1.67000005344,0,0,-0.671082,355.5, -1.2, -1.4,0,0,1024,1024,1024,1024,356,-89.9,98,3.957,3.943,3.929,3.95,3.953,3.942,18.927,73.4,14,Waypoint,
36.791592,-118.9555435,6499.2008237881,82.677168,0,0.94615816676,14100,2018-06-14 20:57:13,13,0,23.719,6499.2008237881,82.677168,0.447388,1.67000005344,0,0,-0.671082,355.5, -0.8, -1.3,0,0,1024,1024,1024,1024,356,-89.9,98,3.957,3.943,3.929,3.95,3.953,3.942,18.927,73.4,14,Waypoint,
36.7915921,-118.9555436,6501.1693277881,84.645672,0,0.99285108164,14300,2018-06-14 20:57:13,13,0,23.719,6501.1693277881,84.645672,0.447388,1.67000005344,0,0,-0.671082,355.4, -0.1, -1.2,0,0,1024,1024,1024,1024,356,-89.9,98,3.957,3.943,3.929,3.95,3.953,3.942,18.927,73.4,14,Waypoint,
36.7915922,-118.9555436,6503.1378317881,86.614176,0,1.0225722112,14500,2018-06-14 20:57:13,13,0,23.719,6503.1378317881,86.614176,0.447388,1.67000005344,0,0,-0.671082,355.2, 0.1, -1.4,0,0,1024,1024,1024,1024,356,-89.9,98,3.957,3.943,3.929,3.95,3.953,3.942,18.927,73.4,14,Waypoint,
36.7915923,-118.9555436,6504.1220837881,87.598428,0,1.05271984996,14600,2018-06-14 20:57:13,13,0,23.719,6504.1220837881,87.598428,0.447388,1.67000005344,0,0,-0.671082,355.1, 0.1, -1.7,0,0,1024,1024,1024,1024,356,-89.9,98,3.957,3.943,3.929,3.95,3.953,3.942,18.927,73.4,14,Waypoint,
36.7915923,-118.9555436,6505.1063357881,88.58268,0,1.05271984996,14700,2018-06-14 20:57:13,13,0,23.719,6505.1063357881,88.58268,0.447388,1.67000005344,0,0,-0.671082,355.2, -0.1, -2.2,0,0,1024,1024,1024,1024,356,-89.9,98,3.957,3.943,3.929,3.95,3.953,3.942,18.927,73.4,14,Waypoint,
36.7915924,-118.9555436,6506.0905877881,89.566932,0,1.08325462784,14800,2018-06-14 20:57:13,13,0,23.719,6506.0905877881,89.566932,0.447388,1.67000005344,0,0,-0.671082,355.2, -0.4, -2.7,0,0,1024,1024,1024,1024,356,-89.9,98,3.957,3.943,3.929,3.95,3.953,3.942,18.927,73.4,14,Waypoint,
36.7915924,-118.9555436,6507.0748397881,90.551184,0,1.08325462784,14900,2018-06-14 20:57:13,13,0,23.719,6507.0748397881,90.551184,0.447388,1.67000005344,0,0,-0.671082,355.2, -0.3, -2.5,0,0,1024,1024,1024,1024,356,-89.9,98,3.957,3.943,3.929,3.95,3.953,3.942,18.927,73.4,14,Waypoint,
36.7915925,-118.9555436,6508.3871757881,91.86352,0,1.11415029812,15000,2018-06-14 20:57:14,13,0,23.719,6508.3871757881,91.86352,0.447388,1.67000005344,0,0,-0.671082,355.2, -0.2, -2.3,0,0,1024,1024,1024,1024,356,-89.9,98,3.952,3.939,3.927,3.944,3.957,3.932,18.927,73.4,14,Waypoint,
36.7915926,-118.9555436,6509.3714277881,92.847772,0,1.1453740524,15100,2018-06-14 20:57:14,13,0,23.719,6509.3714277881,92.847772,0.447388,1.67000005344,0,0,-0.671082,355, 0, -2.3,0,0,1024,1024,1024,1024,356,-89.9,98,3.952,3.939,3.927,3.944,3.957,3.932,18.927,73.4,14,Waypoint,
36.7915927,-118.9555437,6510.3556797881,93.832024,0,1.19167654732,15200,2018-06-14 20:57:14,13,0,23.719,6510.3556797881,93.832024,0.447388,1.67000005344,0,0,-0.671082,354.9, 0.1, -2.7,0,0,1024,1024,1024,1024,356,-89.9,98,3.952,3.939,3.927,3.944,3.957,3.932,18.927,73.4,14,Waypoint,
36.7915928,-118.9555436,6511.3399317881,94.816276,0,1.20870738776,15300,2018-06-14 20:57:14,13,0,23.719,6511.3399317881,94.816276,0.447388,1.67000005344,0,0,-0.671082,354.8, 0.4, -2.4,0,0,1024,1024,1024,1024,356,-89.9,98,3.952,3.939,3.927,3.944,3.957,3.932,18.927,73.4,14,Waypoint,
36.7915929,-118.9555437,6513.6365197881,97.112864,0,1.25479334724,15500,2018-06-14 20:57:14,13,0,23.719,6513.6365197881,97.112864,0.447388,1.67000005344,0,0,-0.671082,354.7, 0.6, -2,0,0,1024,1024,1024,1024,356,-89.9,98,3.952,3.939,3.927,3.944,3.957,3.932,18.927,73.4,14,Waypoint,
36.7915929,-118.9555437,6514.6207717881,98.097116,0,1.25479334724,15600,2018-06-14 20:57:14,13,0,23.719,6514.6207717881,98.097116,0.447388,1.67000005344,0,0,-0.671082,354.9, 0, -2.4,0,0,1024,1024,1024,1024,356,-89.9,98,3.952,3.939,3.927,3.944,3.957,3.932,18.927,73.4,14,Waypoint,
36.791593,-118.9555437,6515.6050237881,99.081368,0,1.286745448,15700,2018-06-14 20:57:14,13,0,23.719,6515.6050237881,99.081368,0.447388,1.67000005344,0,0,-0.671082,355, -0.4, -2.6,0,0,1024,1024,1024,1024,356,-89.9,98,3.952,3.939,3.927,3.944,3.957,3.932,18.927,73.4,14,Waypoint,
36.791593,-118.9555437,6516.5892757881,100.06562,0,1.286745448,15800,2018-06-14 20:57:14,13,0,23.719,6516.5892757881,100.06562,0.447388,1.67000005344,0,0,-0.671082,355, -0.2, -2.7,0,0,1024,1024,1024,1024,356,-89.9,98,3.952,3.939,3.927,3.944,3.957,3.932,18.927,73.4,14,Waypoint,
36.7915933,-118.955544,6519.5420317881,103.018376,0,1.4249672372,16100,2018-06-14 20:57:15,13,0,23.719,6519.5420317881,103.018376,0.447388,1.67000005344,0,0,-0.671082,355, 0.6, -1.6,0,0,1024,1024,1024,1024,356,-89.9,98,3.952,3.939,3.927,3.944,3.957,3.932,18.927,73.4,14,Waypoint,
36.7915933,-118.9555441,6520.5262837881,104.002628,0,1.43957025604,16300,2018-06-14 20:57:15,13,0,23.719,6520.5262837881,104.002628,0.447388,1.67000005344,0,0,-0.671082,354.9, 0.8, -1.8,0,0,1024,1024,1024,1024,356,-89.9,98,3.952,3.939,3.927,3.944,3.957,3.932,18.927,73.4,14,Waypoint,
36.7915934,-118.9555441,6521.5105357881,104.98688,0,1.47112537516,16400,2018-06-14 20:57:15,13,0,23.719,6521.5105357881,104.98688,0.447388,1.67000005344,0,0,-0.671082,354.8, 1.1, -1.5,0,0,1024,1024,1024,1024,356,-89.9,98,3.952,3.939,3.927,3.944,3.957,3.932,18.927,73.4,14,Waypoint,
36.7915935,-118.9555442,6522.4947877881,105.971132,0,1.51731960236,16500,2018-06-14 20:57:15,13,0,23.719,6522.4947877881,105.971132,0.447388,1.67000005344,0,0,-0.671082,354.8, 1.1, -1.6,0,0,1024,1024,1024,1024,356,-89.9,98,3.952,3.939,3.927,3.944,3.957,3.932,18.927,73.4,14,Waypoint,
36.7915935,-118.9555443,6523.4790397881,106.955384,0,1.53215884168,16600,2018-06-14 20:57:15,13,0,23.719,6523.4790397881,106.955384,0.447388,1.67000005344,0,0,-0.671082,354.8, 0.9, -1.9,0,0,1024,1024,1024,1024,356,-89.9,98,3.952,3.939,3.927,3.944,3.957,3.932,18.927,73.4,14,Waypoint,
36.7915936,-118.9555444,6525.4475437881,108.923888,0,1.57849086416,16700,2018-06-14 20:57:15,13,0,23.719,6525.4475437881,108.923888,0.447388,1.67000005344,0,0,-0.671082,354.8, 0.6, -2.1,0,0,1024,1024,1024,1024,356,-89.9,98,3.952,3.939,3.927,3.944,3.957,3.932,18.927,73.4,14,Waypoint,
36.7915936,-118.9555445,6526.4317957881,109.90814,0,1.59382879116,16800,2018-06-14 20:57:15,13,0,23.719,6526.4317957881,109.90814,0.447388,1.67000005344,0,0,-0.671082,355, 0.6, -2.4,0,0,1024,1024,1024,1024,356,-89.9,98,3.952,3.939,3.927,3.944,3.957,3.932,18.927,73.4,14,Waypoint,
36.7915937,-118.9555445,6527.4160477881,110.892392,0,1.62484585252,16900,2018-06-14 20:57:15,13,0,23.719,6527.4160477881,110.892392,0.447388,1.67000005344,0,0,-0.671082,355.2, 0.5, -2.5,0,0,1024,1024,1024,1024,356,-89.9,98,3.952,3.939,3.927,3.944,3.957,3.932,18.927,73.4,14,Waypoint,
36.7915937,-118.9555446,6528.4002997881,111.876644,0,1.6402723622,17000,2018-06-14 20:57:16,13,0,23.534,6528.4002997881,111.876644,0.447388,1.67000005344,0,0,-0.671082,355.3, 0.4, -2.2,0,0,1024,1024,1024,1024,356,-89.9,98,3.921,3.916,3.898,3.931,3.94,3.928,20.132,73.4,14,Waypoint,
36.7915937,-118.9555446,6529.3845517881,112.860896,0,1.6402723622,17100,2018-06-14 20:57:16,13,0,23.534,6529.3845517881,112.860896,0.447388,1.67000005344,0,0,-0.671082,355.3, 0.4, -1.9,0,0,1024,1024,1024,1024,356,-89.9,98,3.921,3.916,3.898,3.931,3.94,3.928,20.132,73.4,14,Waypoint,
36.7915937,-118.9555447,6530.3688037881,113.845148,0,1.6560696068,17200,2018-06-14 20:57:16,13,0,23.534,6530.3688037881,113.845148,0.447388,1.67000005344,0,0,-0.671082,355.2, 0.6, -1.7,0,0,1024,1024,1024,1024,356,-89.9,98,3.921,3.916,3.898,3.931,3.94,3.928,20.132,73.4,14,Waypoint,
36.7915937,-118.9555447,6531.0249717881,114.501316,0,1.6560696068,17300,2018-06-14 20:57:16,13,0,23.534,6531.0249717881,114.501316,0.447388,1.67000005344,0,0,-0.671082,355.1, 0.7, -1.8,0,0,1024,1024,1024,1024,356,-89.9,98,3.921,3.916,3.898,3.931,3.94,3.928,20.132,73.4,14,Waypoint,
36.7915937,-118.9555447,6532.3373077881,115.813652,0,1.6560696068,17400,2018-06-14 20:57:16,13,0,23.534,6532.3373077881,115.813652,0.447388,1.67000005344,0,0,-0.671082,354.9, 0.7, -1.8,0,0,1024,1024,1024,1024,356,-89.9,98,3.921,3.916,3.898,3.931,3.94,3.928,20.132,73.4,14,Waypoint,
36.7915937,-118.9555447,6533.3215597881,116.797904,0,1.6560696068,17500,2018-06-14 20:57:16,13,0,23.534,6533.3215597881,116.797904,0.447388,1.67000005344,0,0,-0.671082,354.8, 0.6, -2,0,0,1024,1024,1024,1024,356,-89.9,98,3.921,3.916,3.898,3.931,3.94,3.928,20.132,73.4,14,Waypoint,
36.7915937,-118.9555447,6534.3058117881,117.782156,0,1.6560696068,17600,2018-06-14 20:57:16,13,0,23.534,6534.3058117881,117.782156,0.447388,1.67000005344,0,0,-0.671082,354.7, 0.7, -2.3,0,0,1024,1024,1024,1024,356,-89.9,98,3.921,3.916,3.898,3.931,3.94,3.928,20.132,73.4,14,Waypoint,
36.7915937,-118.9555446,6535.2900637881,118.766408,0,1.6402723622,17700,2018-06-14 20:57:16,13,0,23.534,6535.2900637881,118.766408,0.447388,1.67000005344,0,0,-0.671082,354.8, 0.7, -2.5,0,0,1024,1024,1024,1024,356,-89.9,98,3.921,3.916,3.898,3.931,3.94,3.928,20.132,73.4,14,Waypoint,
36.7915937,-118.9555446,6536.2743157881,119.75066,0,1.6402723622,17800,2018-06-14 20:57:16,13,0,23.534,6536.2743157881,119.75066,0.447388,1.67000005344,0,0,-0.671082,354.9, 0.7, -2.6,0,0,1024,1024,1024,1024,356,-89.9,98,3.921,3.916,3.898,3.931,3.94,3.928,20.132,73.4,14,Waypoint,
36.7915937,-118.9555446,6537.2585677881,120.734912,0.223694,1.6402723622,17900,2018-06-14 20:57:16,13,0,23.534,6537.2585677881,120.734912,0.447388,1.67000005344,0,0,-0.671082,354.9, 0.6, -2.7,0,0,1024,1024,1024,1024,356,-89.9,98,3.921,3.916,3.898,3.931,3.94,3.928,20.132,73.4,14,Waypoint,
36.7915937,-118.9555445,6538.2428197881,121.719164,0.223694,1.62484585252,18000,2018-06-14 20:57:17,13,0,23.35,6538.2428197881,121.719164,0.447388,1.67000005344,0,0,-0.671082,354.9, 0.7, -2.8,0,0,1024,1024,1024,1024,356,-89.9,98,3.88,3.896,3.864,3.908,3.906,3.881,21.565,73.4,14,Waypoint,
36.7915937,-118.9555445,6539.2270717881,122.703416,0.223694,1.62484585252,18100,2018-06-14 20:57:17,13,0,23.35,6539.2270717881,122.703416,0.447388,1.67000005344,0,0,-0.671082,355, 0.5, -3.1,0,0,1024,1024,1024,1024,356,-89.9,98,3.88,3.896,3.864,3.908,3.906,3.881,21.565,73.4,14,Waypoint,
36.7915937,-118.9555444,6540.2113237881,123.687668,0.223694,1.60980320112,18200,2018-06-14 20:57:17,13,0,23.35,6540.2113237881,123.687668,0.447388,1.67000005344,0,0,-0.671082,355, 0.4, -3.4,0,0,1024,1024,1024,1024,356,-89.9,98,3.88,3.896,3.864,3.908,3.906,3.881,21.565,73.4,14,Waypoint,
36.7915937,-118.9555443,6541.1955757881,124.67192,0.223694,1.59515425052,18300,2018-06-14 20:57:17,13,0,23.35,6541.1955757881,124.67192,0.447388,1.67000005344,0,0,-0.671082,354.9, 0.6, -3.6,0,0,1024,1024,1024,1024,356,-89.9,98,3.88,3.896,3.864,3.908,3.906,3.881,21.565,73.4,14,Waypoint,
36.7915937,-118.9555443,6542.1798277881,125.656172,0.223694,1.59515425052,18400,2018-06-14 20:57:17,13,0,23.35,6542.1798277881,125.656172,0.447388,1.67000005344,0,0,-0.671082,354.8, 0.6, -3.6,0,0,1024,1024,1024,1024,356,-89.9,98,3.88,3.896,3.864,3.908,3.906,3.881,21.565,73.4,14,Waypoint,
36.7915937,-118.9555442,6543.1640797881,126.640424,0.223694,1.58090884324,18500,2018-06-14 20:57:17,13,0,23.35,6543.1640797881,126.640424,0.447388,1.67000005344,0,0,-0.671082,354.7, 0.6, -3.6,0,0,1024,1024,1024,1024,356,-89.9,98,3.88,3.896,3.864,3.908,3.906,3.881,21.565,73.4,14,Waypoint,
36.7915937,-118.955544,6544.1483317881,127.624676,0.223694,1.5536745904,18700,2018-06-14 20:57:17,13,0,23.35,6544.1483317881,127.624676,0.447388,1.67000005344,0,0,-0.671082,354.6, 0.9, -3.8,0,0,1024,1024,1024,1024,356,-89.9,98,3.88,3.896,3.864,3.908,3.906,3.881,21.565,73.4,14,Waypoint,
36.7915937,-118.9555439,6545.1325837881,128.608928,0.223694,1.54070871072,18800,2018-06-14 20:57:17,13,0,23.35,6545.1325837881,128.608928,0.447388,1.67000005344,0,0,-0.671082,354.5, 1, -3.9,0,0,1024,1024,1024,1024,356,-89.9,98,3.88,3.896,3.864,3.908,3.906,3.881,21.565,73.4,14,Waypoint,
36.7915937,-118.9555438,6547.1010877881,130.577432,0.223694,1.52818902528,18900,2018-06-14 20:57:17,13,0,23.35,6547.1010877881,130.577432,0.447388,1.67000005344,0,0,-0.671082,354.5, 1.1, -3.9,0,0,1024,1024,1024,1024,356,-89.9,98,3.88,3.896,3.864,3.908,3.906,3.881,21.565,73.4,14,Waypoint,
36.7915937,-118.9555437,6547.7572557881,131.2336,0.223694,1.51613193828,19000,2018-06-14 20:57:18,13,0,23.302,6547.7572557881,131.2336,0.447388,1.67000005344,0,0,-0.671082,354.6, 1.2, -4.1,0,0,1024,1024,1024,1024,356,-89.9,98,3.871,3.893,3.854,3.89,3.888,3.879,21.565,75.2,14,Waypoint,
36.7915937,-118.9555437,6548.7415077881,132.217852,0,1.51613193828,19100,2018-06-14 20:57:18,13,0,23.302,6548.7415077881,132.217852,0.447388,1.67000005344,0,0,-0.671082,354.9, 1.4, -4.2,0,0,1024,1024,1024,1024,356,-89.9,98,3.871,3.893,3.854,3.89,3.888,3.879,21.565,75.2,14,Waypoint,
36.7915937,-118.9555437,6549.7257597881,133.202104,0,1.51613193828,19200,2018-06-14 20:57:18,13,0,23.302,6549.7257597881,133.202104,0.447388,1.67000005344,0,0,-0.671082,355.1, 1.2, -4.4,0,0,1024,1024,1024,1024,356,-89.9,98,3.871,3.893,3.854,3.89,3.888,3.879,21.565,75.2,14,Waypoint,
36.7915937,-118.9555437,6550.7100117881,134.186356,0,1.51613193828,19300,2018-06-14 20:57:18,13,0,23.302,6550.7100117881,134.186356,0.447388,1.67000005344,0,0,-0.671082,355.3, 0.7, -3.7,0,0,1024,1024,1024,1024,356,-89.9,98,3.871,3.893,3.854,3.89,3.888,3.879,21.565,75.2,14,Waypoint,
36.7915936,-118.9555437,6551.6942637881,135.170608,0,1.4828412548,19400,2018-06-14 20:57:18,13,0,23.302,6551.6942637881,135.170608,0.447388,1.67000005344,0,0,-0.671082,355.4, 0.5, -2.9,0,0,1024,1024,1024,1024,356,-90,98,3.871,3.893,3.854,3.89,3.888,3.879,21.565,75.2,14,Waypoint,
36.7915936,-118.9555438,6553.6627677881,137.139112,0,1.49516737068,19600,2018-06-14 20:57:18,13,0,23.302,6553.6627677881,137.139112,0.447388,1.67000005344,0,0,-0.671082,355.2, 0.6, -2.4,0,0,1024,1024,1024,1024,356,-89.9,98,3.871,3.893,3.854,3.89,3.888,3.879,21.565,75.2,14,Waypoint,
36.7915935,-118.9555437,6554.6470197881,138.123364,0,1.4497047708,19700,2018-06-14 20:57:18,13,0,23.302,6554.6470197881,138.123364,0.447388,1.67000005344,0,0,-0.671082,355.1, 0.6, -2.3,0,0,1024,1024,1024,1024,356,-89.9,98,3.871,3.893,3.854,3.89,3.888,3.879,21.565,75.2,14,Waypoint,
36.7915935,-118.9555437,6555.6312717881,139.107616,0,1.4497047708,19800,2018-06-14 20:57:18,13,0,23.302,6555.6312717881,139.107616,0.447388,1.67000005344,0,0,-0.671082,354.9, 0.6, -2.5,0,0,1024,1024,1024,1024,356,-89.9,98,3.871,3.893,3.854,3.89,3.888,3.879,21.565,75.2,14,Waypoint,
36.7915935,-118.9555437,6556.2874397881,139.763784,0,1.4497047708,19900,2018-06-14 20:57:18,13,0,23.302,6556.2874397881,139.763784,0.447388,1.67000005344,0,0,-0.671082,354.8, 0.8, -2.9,0,0,1024,1024,1024,1024,356,-89.9,98,3.871,3.893,3.854,3.89,3.888,3.879,21.565,75.2,14,Waypoint,
36.7915935,-118.9555436,6557.2716917881,140.748036,0,1.437582067,20000,2018-06-14 20:57:19,13,0,23.274,6557.2716917881,140.748036,0.447388,1.67000005344,0,0,-0.671082,354.7, 0.9, -3,0,0,1024,1024,1024,1024,356,-89.9,97,3.849,3.862,3.841,3.893,3.898,3.862,22.511,75.2,14,Waypoint,
36.7915935,-118.9555436,6558.2559437881,141.732288,0,1.437582067,20100,2018-06-14 20:57:19,13,0,23.274,6558.2559437881,141.732288,0.447388,1.67000005344,0,0,-0.671082,354.7, 1, -3.2,0,0,1024,1024,1024,1024,356,-89.9,97,3.849,3.862,3.841,3.893,3.898,3.862,22.511,75.2,14,Waypoint,
36.7915935,-118.9555435,6559.2401957881,142.71654,0,1.42595477004,20200,2018-06-14 20:57:19,13,0,23.274,6559.2401957881,142.71654,0.447388,1.67000005344,0,0,-0.671082,354.7, 1, -3.3,0,0,1024,1024,1024,1024,356,-89.9,97,3.849,3.862,3.841,3.893,3.898,3.862,22.511,75.2,14,Waypoint,
36.7915935,-118.9555434,6561.2086997881,144.685044,0,1.41483600328,20400,2018-06-14 20:57:19,13,0,23.274,6561.2086997881,144.685044,0.447388,1.67000005344,0,0,-0.671082,355, 0.9, -3.1,0,0,1024,1024,1024,1024,356,-89.9,97,3.849,3.862,3.841,3.893,3.898,3.862,22.511,75.2,14,Waypoint,
36.7915935,-118.9555434,6562.1929517881,145.669296,0,1.41483600328,20500,2018-06-14 20:57:19,13,0,23.274,6562.1929517881,145.669296,0.447388,1.67000005344,0,0,-0.671082,355, 0.6, -2.8,0,0,1024,1024,1024,1024,356,-89.9,97,3.849,3.862,3.841,3.893,3.898,3.862,22.511,75.2,14,Waypoint,
36.7915935,-118.9555434,6563.1772037881,146.653548,0,1.41483600328,20600,2018-06-14 20:57:19,13,0,23.274,6563.1772037881,146.653548,0.447388,1.67000005344,0,0,-0.671082,355, 0.9, -3,0,0,1024,1024,1024,1024,356,-89.9,97,3.849,3.862,3.841,3.893,3.898,3.862,22.511,75.2,14,Waypoint,
36.7915935,-118.9555432,6565.4737917881,148.950136,0,1.39416999212,20900,2018-06-14 20:57:19,13,0,23.274,6565.4737917881,148.950136,0.447388,1.67000005344,0,0,-0.671082,355.1, 1.2, -4.1,0,0,1024,1024,1024,1024,356,-89.9,97,3.849,3.862,3.841,3.893,3.898,3.862,22.511,75.2,14,Waypoint,
36.7915936,-118.9555431,6566.4580437881,149.934388,0,1.41930450736,21000,2018-06-14 20:57:20,13,0,23.104,6566.4580437881,149.934388,0.447388,1.67000005344,0,0,-0.671082,355.1, 1.2, -4.2,0,0,1024,1024,1024,1024,356,-89.9,97,3.829,3.836,3.823,3.854,3.859,3.862,23.601,75.2,14,Waypoint,
36.7915936,-118.9555431,6567.4422957881,150.91864,0,1.41930450736,21100,2018-06-14 20:57:20,13,0,23.104,6567.4422957881,150.91864,0.447388,1.67000005344,0,0,-0.671082,355.1, 1, -4.4,0,0,1024,1024,1024,1024,356,-89.9,97,3.829,3.836,3.823,3.854,3.859,3.862,23.601,75.2,14,Waypoint,
36.7915936,-118.955543,6569.4107997881,152.887144,0,1.41055450708,21200,2018-06-14 20:57:20,13,0,23.104,6569.4107997881,152.887144,0.447388,1.67000005344,0,0,-0.671082,355.2, 1.2, -4,0,0,1024,1024,1024,1024,356,-89.9,97,3.829,3.836,3.823,3.854,3.859,3.862,23.601,75.2,14,Waypoint,
36.7915936,-118.9555429,6570.3950517881,153.871396,0,1.4023622496,21300,2018-06-14 20:57:20,13,0,23.104,6570.3950517881,153.871396,0.447388,1.67000005344,0,0,-0.671082,355.1, 1.2, -4.3,0,0,1024,1024,1024,1024,356,-89.9,97,3.829,3.836,3.823,3.854,3.859,3.862,23.601,75.2,14,Waypoint,
36.7915936,-118.9555428,6571.3793037881,154.855648,0,1.39473101576,21400,2018-06-14 20:57:20,13,0,23.104,6571.3793037881,154.855648,0.447388,1.67000005344,0,0,-0.671082,355.1, 1.3, -4.2,0,0,1024,1024,1024,1024,356,-89.9,97,3.829,3.836,3.823,3.854,3.859,3.862,23.601,75.2,14,Waypoint,
36.7915936,-118.9555428,6572.3635557881,155.8399,0,1.39473101576,21500,2018-06-14 20:57:20,13,0,23.104,6572.3635557881,155.8399,0.447388,1.67000005344,0,0,-0.671082,355.1, 1.3, -4.3,0,0,1024,1024,1024,1024,356,-89.9,97,3.829,3.836,3.823,3.854,3.859,3.862,23.601,75.2,14,Waypoint,
36.7915936,-118.9555428,6573.6758917881,157.152236,0,1.39473101576,21600,2018-06-14 20:57:20,13,0,23.104,6573.6758917881,157.152236,0.447388,1.67000005344,0,0,-0.671082,355, 1.1, -4.3,0,0,1024,1024,1024,1024,356,-89.9,97,3.829,3.836,3.823,3.854,3.859,3.862,23.601,75.2,14,Waypoint,
36.7915937,-118.9555428,6574.6601437881,158.136488,0,1.43007550508,21700,2018-06-14 20:57:20,13,0,23.104,6574.6601437881,158.136488,0.447388,1.67000005344,0,0,-0.671082,355, 1.1, -4.4,0,0,1024,1024,1024,1024,356,-89.9,97,3.829,3.836,3.823,3.854,3.859,3.862,23.601,75.2,14,Waypoint,
36.7915937,-118.9555427,6575.6443957881,159.12074,0,1.42319230276,21800,2018-06-14 20:57:20,13,0,23.104,6575.6443957881,159.12074,0.447388,1.67000005344,0,0,-0.671082,355.1, 1.3, -4.4,0,0,1024,1024,1024,1024,356,-89.9,97,3.829,3.836,3.823,3.854,3.859,3.862,23.601,75.2,14,Waypoint,
36.7915937,-118.9555428,6576.6286477881,160.104992,0,1.43007550508,21900,2018-06-14 20:57:20,13,0,23.104,6576.6286477881,160.104992,0.447388,1.67000005344,0,0,-0.671082,355.2, 1.1, -4.6,0,0,1024,1024,1024,1024,356,-89.9,97,3.829,3.836,3.823,3.854,3.859,3.862,23.601,75.2,14,Waypoint,
36.7915937,-118.9555428,6577.6128997881,161.089244,0,1.43007550508,22000,2018-06-14 20:57:21,13,0,23.155,6577.6128997881,161.089244,0.447388,1.67000005344,0,0,-0.671082,355.4, 0.8, -4.5,0,0,1024,1024,1024,1024,356,-89.9,97,3.829,3.836,3.823,3.854,3.859,3.862,22.392,75.2,14,Waypoint,
36.7915937,-118.9555429,6578.5971517881,162.073496,0,1.4375164502,22100,2018-06-14 20:57:21,13,0,23.155,6578.5971517881,162.073496,0.447388,1.67000005344,0,0,-0.671082,355.5, 1, -3.8,0,0,1024,1024,1024,1024,356,-89.9,97,3.829,3.836,3.823,3.854,3.859,3.862,22.392,75.2,14,Waypoint,
36.7915938,-118.955543,6579.2533197881,162.729664,0,1.48054138596,22200,2018-06-14 20:57:21,13,0,23.155,6579.2533197881,162.729664,0.447388,1.67000005344,0,0,-0.671082,355.4, 1.5, -3.1,0,0,1024,1024,1024,1024,356,-89.9,97,3.829,3.836,3.823,3.854,3.859,3.862,22.392,75.2,14,Waypoint,
36.7915938,-118.9555431,6580.2375717881,163.713916,0,1.4888780004,22300,2018-06-14 20:57:21,13,0,23.155,6580.2375717881,163.713916,0.447388,1.67000005344,0,0,-0.671082,355.3, 2, -2.5,0,0,1024,1024,1024,1024,356,-89.9,97,3.829,3.836,3.823,3.854,3.859,3.862,22.392,75.2,14,Waypoint,
36.7915938,-118.9555431,6581.2218237881,164.698168,0,1.4888780004,22400,2018-06-14 20:57:21,13,0,23.155,6581.2218237881,164.698168,0.447388,1.67000005344,0,0,-0.671082,355.1, 2.2, -2.1,0,0,1024,1024,1024,1024,356,-89.9,97,3.829,3.836,3.823,3.854,3.859,3.862,22.392,75.2,14,Waypoint,
36.7915938,-118.9555432,6582.2060757881,165.68242,0,1.49773954924,22500,2018-06-14 20:57:21,13,0,23.155,6582.2060757881,165.68242,0.447388,1.67000005344,0,0,-0.671082,354.9, 2.1, -2.3,0,0,1024,1024,1024,1024,356,-89.9,97,3.829,3.836,3.823,3.854,3.859,3.862,22.392,75.2,14,Waypoint,
36.7915938,-118.9555432,6583.1903277881,166.666672,0,1.49773954924,22600,2018-06-14 20:57:21,13,0,23.155,6583.1903277881,166.666672,0.447388,1.67000005344,0,0,-0.671082,354.8, 1.7, -3,0,0,1024,1024,1024,1024,356,-89.9,97,3.829,3.836,3.823,3.854,3.859,3.862,22.392,75.2,14,Waypoint,
36.7915938,-118.9555432,6584.1745797881,167.650924,0,1.49773954924,22700,2018-06-14 20:57:21,13,0,23.155,6584.1745797881,167.650924,0.447388,1.67000005344,0,0,-0.671082,354.8, 1.3, -3.5,0,0,1024,1024,1024,1024,356,-89.9,97,3.829,3.836,3.823,3.854,3.859,3.862,22.392,75.2,14,Waypoint,
36.7915937,-118.9555432,6585.4869157881,168.96326,0,1.46312012556,22800,2018-06-14 20:57:21,13,0,23.155,6585.4869157881,168.96326,0.447388,1.67000005344,0,0,-0.671082,354.8, 0.9, -3.8,0,0,1024,1024,1024,1024,356,-90,97,3.829,3.836,3.823,3.854,3.859,3.862,22.392,75.2,14,Waypoint,
36.7915937,-118.9555432,6586.1430837881,169.619428,0,1.46312012556,23000,2018-06-14 20:57:22,13,0,23.155,6586.1430837881,169.619428,0.447388,1.67000005344,0,0,-0.671082,354.8, 0.8, -3.9,0,0,1024,1024,1024,1024,356,-90,97,3.829,3.836,3.823,3.854,3.859,3.862,22.392,75.2,14,Waypoint,
36.7915937,-118.9555432,6588.1115877881,171.587932,0,1.46312012556,23100,2018-06-14 20:57:22,13,0,23.155,6588.1115877881,171.587932,0.447388,1.67000005344,0,0,-0.671082,354.9, 0.9, -3.7,0,0,1024,1024,1024,1024,356,-89.9,97,3.829,3.836,3.823,3.854,3.859,3.862,22.392,75.2,14,Waypoint,
36.7915937,-118.9555433,6589.0958397881,172.572184,0,1.47271658256,23200,2018-06-14 20:57:22,13,0,23.155,6589.0958397881,172.572184,0.447388,1.67000005344,0,0,-0.671082,355, 1, -3.5,0,0,1024,1024,1024,1024,356,-89.9,97,3.829,3.836,3.823,3.854,3.859,3.862,22.392,75.2,14,Waypoint,
36.7915936,-118.9555433,6591.0643437881,174.540688,0,1.43842196204,23500,2018-06-14 20:57:22,13,0,23.155,6591.0643437881,174.540688,0.447388,1.67000005344,0,0,-0.671082,355.3, 0.9, -3.6,0,0,1024,1024,1024,1024,356,-89.9,97,3.829,3.836,3.823,3.854,3.859,3.862,22.392,75.2,14,Waypoint,
36.7915936,-118.9555434,6593.0328477881,176.509192,0,1.44877301224,23600,2018-06-14 20:57:22,13,0,23.155,6593.0328477881,176.509192,0.447388,1.67000005344,0,0,-0.671082,355.5, 1, -3,0,0,1024,1024,1024,1024,356,-89.9,97,3.829,3.836,3.823,3.854,3.859,3.862,22.392,75.2,14,Waypoint,
36.7915936,-118.9555435,6594.0170997881,177.493444,0,1.45963259264,23700,2018-06-14 20:57:22,13,0,23.155,6594.0170997881,177.493444,0.447388,1.67000005344,0,0,-0.671082,355.4, 1.1, -2.8,0,0,1024,1024,1024,1024,356,-89.9,97,3.829,3.836,3.823,3.854,3.859,3.862,22.392,75.2,14,Waypoint,
36.7915935,-118.9555436,6595.0013517881,178.477696,0,1.437582067,23800,2018-06-14 20:57:22,13,0,23.155,6595.0013517881,178.477696,0.447388,1.67000005344,0,0,-0.671082,355.3, 1.1, -3,0,0,1024,1024,1024,1024,356,-89.9,97,3.829,3.836,3.823,3.854,3.859,3.862,22.392,75.2,14,Waypoint,
36.7915934,-118.9555437,6599.2664437881,182.742788,0,1.4167323288,24200,2018-06-14 20:57:23,13,0,23.155,6599.2664437881,182.742788,0.447388,1.67000005344,0,0,-0.671082,355, 1.1, -3.3,0,0,1024,1024,1024,1024,356,-89.9,97,3.829,3.836,3.823,3.854,3.859,3.862,22.392,75.2,14,Waypoint,
36.7915934,-118.9555438,6600.2506957881,183.72704,0,1.42962931084,24300,2018-06-14 20:57:23,13,0,23.155,6600.2506957881,183.72704,0.447388,1.67000005344,0,0,-0.671082,355.1, 0.9, -3.1,0,0,1024,1024,1024,1024,356,-89.9,97,3.829,3.836,3.823,3.854,3.859,3.862,22.392,75.2,14,Waypoint,
36.7915934,-118.9555438,6601.2349477881,184.711292,0,1.42962931084,24400,2018-06-14 20:57:23,13,0,23.155,6601.2349477881,184.711292,0.447388,1.67000005344,0,0,-0.671082,355.1, 0.6, -3,0,0,1024,1024,1024,1024,356,-90,97,3.829,3.836,3.823,3.854,3.859,3.862,22.392,75.2,14,Waypoint,
36.7915933,-118.9555438,6602.2191997881,185.695544,0,1.39713587148,24500,2018-06-14 20:57:23,13,0,23.155,6602.2191997881,185.695544,0.447388,1.67000005344,0,0,-0.671082,355.2, 0.3, -2.8,0,0,1024,1024,1024,1024,356,-90,97,3.829,3.836,3.823,3.854,3.859,3.862,22.392,75.2,14,Waypoint,
36.7915933,-118.9555439,6603.2034517881,186.679796,0,1.41081697428,24600,2018-06-14 20:57:23,13,0,23.155,6603.2034517881,186.679796,0.447388,1.67000005344,0,0,-0.671082,355.2, 0.1, -2.9,0,0,1024,1024,1024,1024,356,-90,97,3.829,3.836,3.823,3.854,3.859,3.862,22.392,75.2,14,Waypoint,
36.7915933,-118.9555439,6604.1877037881,187.664048,0,1.41081697428,24700,2018-06-14 20:57:23,13,0,23.155,6604.1877037881,187.664048,0.447388,1.67000005344,0,0,-0.671082,355.1, 0.6, -3.3,0,0,1024,1024,1024,1024,356,-89.9,97,3.829,3.836,3.823,3.854,3.859,3.862,22.392,75.2,14,Waypoint,
36.7915933,-118.9555439,6605.1719557881,188.6483,0,1.41081697428,24800,2018-06-14 20:57:23,13,0,23.155,6605.1719557881,188.6483,0.447388,1.67000005344,0,0,-0.671082,355.1, 1, -3.5,0,0,1024,1024,1024,1024,356,-89.9,97,3.829,3.836,3.823,3.854,3.859,3.862,22.392,75.2,14,Waypoint,
36.7915933,-118.9555439,6606.1562077881,189.632552,0,1.41081697428,24900,2018-06-14 20:57:23,13,0,23.155,6606.1562077881,189.632552,0.447388,1.67000005344,0,0,-0.671082,355, 1.1, -3.5,0,0,1024,1024,1024,1024,356,-89.9,97,3.829,3.836,3.823,3.854,3.859,3.862,22.392,75.2,14,Waypoint,
36.7915933,-118.9555439,6607.4685437881,190.944888,0,1.41081697428,25000,2018-06-14 20:57:24,13,0,22.974,6607.4685437881,190.944888,0.447388,1.67000005344,0,0,-0.671082,354.8, 1.2, -3.6,0,0,1024,1024,1024,1024,356,-89.9,97,3.791,3.817,3.78,3.841,3.827,3.823,24.707,75.2,14,Waypoint,
36.7915933,-118.955544,6608.4527957881,191.92914,0,1.4249672372,25100,2018-06-14 20:57:24,13,0,22.974,6608.4527957881,191.92914,0.447388,1.67000005344,0,0,-0.671082,354.8, 1.3, -3.8,0,0,1024,1024,1024,1024,356,-89.9,97,3.791,3.817,3.78,3.841,3.827,3.823,24.707,75.2,14,Waypoint,
36.7915933,-118.955544,6609.4370477881,192.913392,0,1.4249672372,25200,2018-06-14 20:57:24,13,0,22.974,6609.4370477881,192.913392,0.447388,1.67000005344,0,0,-0.671082,354.9, 1.2, -3.6,0,0,1024,1024,1024,1024,356,-89.9,97,3.791,3.817,3.78,3.841,3.827,3.823,24.707,75.2,14,Waypoint,
36.7915933,-118.955544,6610.4212997881,193.897644,0,1.4249672372,25300,2018-06-14 20:57:24,13,0,22.974,6610.4212997881,193.897644,0.447388,1.67000005344,0,0,-0.671082,355, 1.2, -3.6,0,0,1024,1024,1024,1024,356,-89.9,97,3.791,3.817,3.78,3.841,3.827,3.823,24.707,75.2,14,Waypoint,
36.7915933,-118.955544,6611.4055517881,194.881896,0,1.4249672372,25400,2018-06-14 20:57:24,13,0,22.974,6611.4055517881,194.881896,0.447388,1.67000005344,0,0,-0.671082,355, 1.2, -3.6,0,0,1024,1024,1024,1024,356,-89.9,97,3.791,3.817,3.78,3.841,3.827,3.823,24.707,75.2,14,Waypoint,
36.7915933,-118.955544,6612.3898037881,195.866148,0,1.4249672372,25500,2018-06-14 20:57:24,13,0,22.974,6612.3898037881,195.866148,0.447388,1.67000005344,0,0,-0.671082,355, 0.9, -3.5,0,0,1024,1024,1024,1024,356,-89.9,97,3.791,3.817,3.78,3.841,3.827,3.823,24.707,75.2,14,Waypoint,
36.7915932,-118.955544,6614.3583077881,197.834652,0,1.39332025456,25700,2018-06-14 20:57:24,13,0,22.974,6614.3583077881,197.834652,0.447388,1.67000005344,0,0,-0.671082,355, 0.8, -3.5,0,0,1024,1024,1024,1024,356,-89.9,97,3.791,3.817,3.78,3.841,3.827,3.823,24.707,75.2,14,Waypoint,
36.7915931,-118.955544,6615.3425597881,198.818904,0,1.36191605408,25800,2018-06-14 20:57:24,13,0,22.974,6615.3425597881,198.818904,0.447388,1.67000005344,0,0,-0.671082,355, 0.8, -3.4,0,0,1024,1024,1024,1024,356,-89.9,97,3.791,3.817,3.78,3.841,3.827,3.823,24.707,75.2,14,Waypoint,
36.7915931,-118.955544,6616.3268117881,199.803156,0,1.36191605408,25900,2018-06-14 20:57:24,13,0,22.974,6616.3268117881,199.803156,0.447388,1.67000005344,0,0,-0.671082,354.9, 0.6, -3.6,0,0,1024,1024,1024,1024,356,-89.9,97,3.791,3.817,3.78,3.841,3.827,3.823,24.707,75.2,14,Waypoint,
36.7915931,-118.955544,6617.3110637881,200.787408,0,1.36191605408,26000,2018-06-14 20:57:25,13,0,22.814,6617.3110637881,200.787408,0.447388,1.67000005344,0,0,-0.671082,354.9, 0.6, -3.6,0,0,1024,1024,1024,1024,356,-90,97,3.791,3.791,3.783,3.832,3.818,3.815,25.091,75.2,14,Waypoint,
36.7915931,-118.955544,6618.2953157881,201.77166,0,1.36191605408,26200,2018-06-14 20:57:25,13,0,22.814,6618.2953157881,201.77166,0.447388,1.67000005344,0,0,-0.671082,355, 0.7, -3.6,0,0,1024,1024,1024,1024,356,-89.9,97,3.791,3.791,3.783,3.832,3.818,3.815,25.091,75.2,14,Waypoint,
36.791593,-118.9555439,6620.2638197881,203.740164,0,1.31561027832,26300,2018-06-14 20:57:25,13,0,22.814,6620.2638197881,203.740164,0.447388,1.67000005344,0,0,-0.671082,355.1, 0.6, -3.5,0,0,1024,1024,1024,1024,356,-89.9,97,3.791,3.791,3.783,3.832,3.818,3.815,25.091,75.2,14,Waypoint,
36.791593,-118.9555439,6621.2480717881,204.724416,0,1.31561027832,26400,2018-06-14 20:57:25,13,0,22.814,6621.2480717881,204.724416,0.447388,1.67000005344,0,0,-0.671082,355.1, 0.6, -3.6,0,0,1024,1024,1024,1024,356,-89.9,97,3.791,3.791,3.783,3.832,3.818,3.815,25.091,75.2,14,Waypoint,
36.791593,-118.9555439,6622.2323237881,205.708668,0,1.31561027832,26500,2018-06-14 20:57:25,13,0,22.814,6622.2323237881,205.708668,0.447388,1.67000005344,0,0,-0.671082,355.1, 0.4, -3.6,0,0,1024,1024,1024,1024,356,-90,97,3.791,3.791,3.783,3.832,3.818,3.815,25.091,75.2,14,Waypoint,
36.7915929,-118.9555438,6622.8884917881,206.364836,0,1.26933731096,26600,2018-06-14 20:57:25,13,0,22.814,6622.8884917881,206.364836,0.447388,1.67000005344,0,0,-0.671082,355, 0.4, -3.8,0,0,1024,1024,1024,1024,356,-90,97,3.791,3.791,3.783,3.832,3.818,3.815,25.091,75.2,14,Waypoint,
36.7915929,-118.9555438,6623.8727437881,207.349088,0,1.26933731096,26700,2018-06-14 20:57:25,13,0,22.814,6623.8727437881,207.349088,0.447388,1.67000005344,0,0,-0.671082,355, 0.6, -3.8,0,0,1024,1024,1024,1024,356,-89.9,97,3.791,3.791,3.783,3.832,3.818,3.815,25.091,75.2,14,Waypoint,
