latitude,longitude,altitude(feet),ascent(feet),speed(mph),distance(feet),time(millisecond),datetime(utc),satellites,gpslevel,voltage(v),max_altitude(feet),max_ascent(feet),max_speed(mph),max_distance(feet), xSpeed(mph), ySpeed(mph), zSpeed(mph), compass_heading(degrees), pitch(degrees), roll(degrees),isPhoto,isVideo,rc_elevator,rc_aileron,rc_throttle,rc_rudder,gimbal_heading(degrees),gimbal_pitch(degrees),battery_percent,voltageCell1,voltageCell2,voltageCell3,voltageCell4,voltageCell5,voltageCell6,current(A),battery_temperature(f),flycStateRaw,flycState,message
36.7915865,-118.9555495,6417.1868723447,0,0.223694,0,3100,2018-06-14 20:40:25,13,0,0,6417.1868723447,0,0.223694,0,0,0,0,2.6, -0.8, 0.6,1,0,1024,1024,1024,1024,1.4,-89.9,98,4.233,4.234,4.21,4.243,4.242,4.167,0,75.2,11,AutoTakeoff,DJI_0375.jpg Starting Mission from Lat/Long: 36.79158/-118.95555 Camera: Zenmuse X3 - Overlap: 90/90 - Active Connection: No
36.7915867,-118.9555495,6417.1868723447,0,0.223694,0.072969818608,3200,2018-06-14 20:40:25,13,0,0,6417.1868723447,0,0.223694,0.072969818608,0,0,0,2.7, 0, 0.6,0,0,1024,1024,1024,1024,1.4,-89.9,98,4.233,4.234,4.21,4.243,4.242,4.167,0,75.2,11,AutoTakeoff,
36.7915869,-118.9555494,6417.1868723447,0,0.447388,0.148835962768,3300,2018-06-14 20:40:25,13,0,0,6417.1868723447,0,0.447388,0.148835962768,0,0,0,2.7, 0.5, 0.5,0,0,1024,1024,1024,1024,1.5,-89.9,98,4.233,4.234,4.21,4.243,4.242,4.167,0,75.2,11,AutoTakeoff,
36.7915871,-118.9555493,6417.1868723447,0,0.4921268,0.2265748104,3400,2018-06-14 20:40:25,13,0,0,6417.1868723447,0,0.4921268,0.2265748104,0,0,0,2.7, 0.8, 0.6,0,0,1024,1024,1024,1024,1.5,-89.9,98,4.233,4.234,4.21,4.243,4.242,4.167,0,75.2,11,AutoTakeoff,
36.7915873,-118.9555492,6417.1868723447,0,0.3131716,0.304756899516,3500,2018-06-14 20:40:25,13,0,0,6417.1868723447,0,0.4921268,0.304756899516,0,0,0,2.7, 1.5, 0.3,0,0,1024,1024,1024,1024,1.5,-89.9,98,4.233,4.234,4.21,4.243,4.242,4.167,0,75.2,11,AutoTakeoff,
36.7915875,-118.9555492,6417.1868723447,0,0.3131716,0.3752296708,3600,2018-06-14 20:40:25,13,0,0,6417.1868723447,0,0.4921268,0.3752296708,0,0,0,2.8, 1.8, -0.2,0,0,1024,1024,1024,1024,1.5,-89.9,98,4.233,4.234,4.21,4.243,4.242,4.167,0,75.2,11,AutoTakeoff,
36.7915878,-118.955549,6417.5149563447,0.328084,0.223694,0.4962926668,3700,2018-06-14 20:40:25,13,0,0,6417.5149563447,0.328084,0.4921268,0.4962926668,0,0,0,2.9, 1.7, -1,0,0,1024,1024,1024,1024,1.5,-90,98,4.233,4.234,4.21,4.243,4.242,4.167,0,75.2,11,AutoTakeoff,
36.7915879,-118.9555489,6417.5149563447,0.328084,0.223694,0.54003610652,3800,2018-06-14 20:40:25,13,0,0,6417.5149563447,0.328084,0.4921268,0.54003610652,0,0,0,3, 1.5, -1.1,0,0,1024,1024,1024,1024,1.5,-89.9,98,4.233,4.234,4.21,4.243,4.242,4.167,0,75.2,11,AutoTakeoff,
36.791588,-118.9555488,6417.8430403447,0.656168,0.223694,0.58424214468,3900,2018-06-14 20:40:25,13,0,0,6417.8430403447,0.656168,0.4921268,0.58424214468,0,0,0,3.1, 1, -0.9,0,0,1024,1024,1024,1024,1.6,-90,98,4.233,4.234,4.21,4.243,4.242,4.167,0,75.2,11,AutoTakeoff,
36.7915882,-118.9555488,6417.8430403447,0.656168,0.223694,0.65309385292,4000,2018-06-14 20:40:26,13,0,25.371,6417.8430403447,0.656168,0.4921268,0.65309385292,0,0,0,3.1, 0.9, -0.8,0,0,1024,1024,1024,1024,1.6,-89.9,98,4.233,4.234,4.21,4.243,4.242,4.167,4.92,75.2,11,AutoTakeoff,
36.7915883,-118.9555488,6418.1711243447,0.984252,0.223694,0.68784122936,4100,2018-06-14 20:40:26,13,0,25.371,6418.1711243447,0.984252,0.4921268,0.68784122936,0,0,0,3, 1, -0.7,0,0,1024,1024,1024,1024,1.6,-89.9,98,4.233,4.234,4.21,4.243,4.242,4.167,4.92,75.2,11,AutoTakeoff,
36.7915884,-118.9555488,6418.1711243447,0.984252,0.223694,0.72275592864,4200,2018-06-14 20:40:26,13,0,25.371,6418.1711243447,0.984252,0.4921268,0.72275592864,0,0,-0.223694,3.1, 1.1, -0.5,0,0,1024,1024,1024,1024,1.6,-89.9,98,4.233,4.234,4.21,4.243,4.242,4.167,4.92,75.2,11,AutoTakeoff,
36.7915886,-118.9555488,6418.4992083447,1.312336,0.223694,0.7930118364,4300,2018-06-14 20:40:26,13,0,25.371,6418.4992083447,1.312336,0.4921268,0.7930118364,0,0,-0.223694,3.2, 1.3, -0.4,0,0,1024,1024,1024,1024,1.6,-89.9,98,4.233,4.234,4.21,4.243,4.242,4.167,4.92,75.2,11,AutoTakeoff,
36.7915888,-118.9555489,6418.4992083447,1.312336,0.223694,0.85727036864,4400,2018-06-14 20:40:26,13,0,25.371,6418.4992083447,1.312336,0.4921268,0.85727036864,0,0,0,3.3, 1.5, -0.2,0,0,1024,1024,1024,1024,1.6,-89.9,98,4.233,4.234,4.21,4.243,4.242,4.167,4.92,75.2,11,AutoTakeoff,
36.791589,-118.9555489,6418.8272923447,1.64042,0.223694,0.92881892736,4500,2018-06-14 20:40:26,13,0,25.371,6418.8272923447,1.64042,0.4921268,0.92881892736,0,0,0,3.5, 1.8, -0.1,0,0,1024,1024,1024,1024,1.6,-89.9,98,4.233,4.234,4.21,4.243,4.242,4.167,4.92,75.2,11,AutoTakeoff,
36.7915891,-118.955549,6418.8272923447,1.64042,0.223694,0.95979005696,4600,2018-06-14 20:40:26,13,0,25.371,6418.8272923447,1.64042,0.4921268,0.95979005696,0,0,-0.223694,3.5, 2.2, 0,0,0,1024,1024,1024,1024,1.6,-89.9,98,4.233,4.234,4.21,4.243,4.242,4.167,4.92,75.2,11,AutoTakeoff,
36.7915892,-118.955549,6419.1553763447,1.968504,0.223694,0.9958661736,4700,2018-06-14 20:40:26,13,0,25.371,6419.1553763447,1.968504,0.4921268,0.9958661736,0,0,0,3.4, 2.6, 0.2,0,0,1024,1024,1024,1024,1.6,-89.9,98,4.233,4.234,4.21,4.243,4.242,4.167,4.92,75.2,11,AutoTakeoff,
36.7915894,-118.955549,6419.1553763447,1.968504,0,1.06810042788,4800,2018-06-14 20:40:26,12,0,25.371,6419.1553763447,1.968504,0.4921268,1.06810042788,0,0,-0.223694,3.1, 2.8, 0.4,0,0,1024,1024,1024,1024,1.6,-89.9,98,4.233,4.234,4.21,4.243,4.242,4.167,4.92,75.2,11,AutoTakeoff,
36.7915894,-118.955549,6419.4834603447,2.296588,0,1.06810042788,4900,2018-06-14 20:40:26,12,0,25.371,6419.4834603447,2.296588,0.4921268,1.06810042788,0,0,-0.223694,2.8, 2.9, 0.4,0,0,1024,1024,1024,1024,1.6,-90,98,4.233,4.234,4.21,4.243,4.242,4.167,4.92,75.2,11,AutoTakeoff,
36.7915895,-118.955549,6419.4834603447,2.296588,0,1.10425528468,5000,2018-06-14 20:40:27,13,0,24.418,6419.4834603447,2.296588,0.4921268,1.10425528468,0,0,-0.223694,2.5, 2.9, 0.3,0,0,1024,1024,1024,1024,1.6,-89.9,98,4.045,4.1,4.065,4.055,4.081,4.063,13.771,75.2,11,AutoTakeoff,
36.7915897,-118.9555491,6419.8115443447,2.624672,0,1.17335305592,5100,2018-06-14 20:40:27,13,0,24.418,6419.8115443447,2.624672,0.4921268,1.17335305592,0,0,0,2.2, 2.9, 0.1,0,0,1024,1024,1024,1024,1.6,-90,98,4.045,4.1,4.065,4.055,4.081,4.063,13.771,75.2,11,AutoTakeoff,
36.7915898,-118.9555491,6419.8115443447,2.624672,0,1.2096621122,5200,2018-06-14 20:40:27,13,0,24.418,6419.8115443447,2.624672,0.4921268,1.2096621122,0,0,0,1.9, 3, 0,0,0,1024,1024,1024,1024,1.6,-89.9,98,4.045,4.1,4.065,4.055,4.081,4.063,13.771,75.2,11,AutoTakeoff,
36.7915898,-118.9555491,6420.1396283447,2.952756,0,1.2096621122,5300,2018-06-14 20:40:27,13,0,24.418,6420.1396283447,2.952756,0.4921268,1.2096621122,0,0,0,1.8, 3, 0.1,0,0,1024,1024,1024,1024,1.6,-89.9,98,4.045,4.1,4.065,4.055,4.081,4.063,13.771,75.2,14,Waypoint,
36.7915898,-118.9555492,6420.1396283447,2.952756,0,1.20718835884,5410,2018-06-14 20:40:27,13,0,24.418,6420.1396283447,2.952756,0.4921268,1.2096621122,0,0,0,1.6, 2.8, 0.3,0,0,1024,1024,1024,1024,1.6,-90,98,4.045,4.1,4.065,4.055,4.081,4.063,13.771,75.2,14,Waypoint,
36.7915898,-118.9555492,6420.4677123447,3.28084,0,1.20718835884,5600,2018-06-14 20:40:27,13,0,24.418,6420.4677123447,3.28084,0.4921268,1.2096621122,0,0,0,1.3, 1.1, 0.2,0,0,1024,1024,1024,1024,1.6,-90,98,4.045,4.1,4.065,4.055,4.081,4.063,13.771,75.2,14,Waypoint,
36.7915897,-118.9555492,6420.4677123447,3.28084,0,1.17080384324,5700,2018-06-14 20:40:27,13,0,24.418,6420.4677123447,3.28084,0.4921268,1.2096621122,0,0,0,1.2, 0.1, 0,0,0,1024,1024,1024,1024,1.6,-90,98,4.045,4.1,4.065,4.055,4.081,4.063,13.771,75.2,14,Waypoint,
36.7915896,-118.9555492,6420.4677123447,3.28084,0,1.13442588932,5800,2018-06-14 20:40:27,13,0,24.418,6420.4677123447,3.28084,0.4921268,1.2096621122,0,0,0,1.1, -0.1, -0.1,0,0,1024,1024,1024,1024,1.6,-90,98,4.045,4.1,4.065,4.055,4.081,4.063,13.771,75.2,14,Waypoint,
36.7915897,-118.9555492,6420.7957963447,3.608924,0,1.17080384324,5900,2018-06-14 20:40:27,12,0,24.418,6420.7957963447,3.608924,0.4921268,1.2096621122,0,0,-0.223694,1, 0.5, -0.4,0,0,1024,1024,1024,1024,1.6,-90,98,4.045,4.1,4.065,4.055,4.081,4.063,13.771,75.2,14,Waypoint,
36.7915899,-118.9555493,6421.4519643447,4.265092,0,1.2418635568,6100,2018-06-14 20:40:28,13,0,24.418,6421.4519643447,4.265092,0.4921268,1.2418635568,0,0,-0.223694,0.9, 1.6, -0.6,0,0,1024,1024,1024,1024,1.6,-89.9,98,4.045,4.1,4.065,4.055,4.081,4.063,13.771,75.2,14,Waypoint,
36.7915899,-118.9555493,6421.7800483447,4.593176,0,1.2418635568,6200,2018-06-14 20:40:28,13,0,24.418,6421.7800483447,4.593176,0.4921268,1.2418635568,0,0,-0.223694,0.9, 1.8, -0.3,0,0,1024,1024,1024,1024,1.6,-89.9,98,4.045,4.1,4.065,4.055,4.081,4.063,13.771,75.2,14,Waypoint,
36.79159,-118.9555494,6422.1081323447,4.92126,0,1.27730647132,6300,2018-06-14 20:40:28,13,0,24.418,6422.1081323447,4.92126,0.4921268,1.27730647132,0,0,-0.223694,0.8, 1.9, 0,0,0,1024,1024,1024,1024,1.6,-89.9,98,4.045,4.1,4.065,4.055,4.081,4.063,13.771,75.2,14,Waypoint,
36.79159,-118.9555495,6422.4362163447,5.249344,0,1.27697182564,6400,2018-06-14 20:40:28,12,0,24.418,6422.4362163447,5.249344,0.4921268,1.27730647132,0,0,-0.447388,0.7, 1.9, -0.1,0,0,1024,1024,1024,1024,1.6,-89.9,98,4.045,4.1,4.065,4.055,4.081,4.063,13.771,75.2,14,Waypoint,
36.79159,-118.9555495,6423.0923843447,5.905512,0,1.27697182564,6500,2018-06-14 20:40:28,12,0,24.418,6423.0923843447,5.905512,0.4921268,1.27730647132,0,0,-0.447388,0.8, 1.7, -0.4,0,0,1024,1024,1024,1024,1.6,-90,98,4.045,4.1,4.065,4.055,4.081,4.063,13.771,75.2,14,Waypoint,
36.79159,-118.9555495,6423.7485523447,6.56168,0,1.27697182564,6600,2018-06-14 20:40:28,13,0,24.418,6423.7485523447,6.56168,0.4921268,1.27730647132,0,0,-0.447388,0.9, 1.4, -0.4,0,0,1024,1024,1024,1024,1.6,-90,98,4.045,4.1,4.065,4.055,4.081,4.063,13.771,75.2,14,Waypoint,
36.7915899,-118.9555496,6424.4047203447,7.217848,0,1.24083337304,6700,2018-06-14 20:40:28,13,0,24.418,6424.4047203447,7.217848,0.4921268,1.27730647132,0,0,-0.447388,1.1, 1.1, -0.3,0,0,1024,1024,1024,1024,1.6,-90,98,4.045,4.1,4.065,4.055,4.081,4.063,13.771,75.2,14,Waypoint,
36.7915898,-118.9555496,6425.0608883447,7.874016,0,1.20435699392,6800,2018-06-14 20:40:28,12,0,24.418,6425.0608883447,7.874016,0.4921268,1.27730647132,0,0,-0.671082,1.3, 0.8, -0.3,0,0,1024,1024,1024,1024,1.6,-90,98,4.045,4.1,4.065,4.055,4.081,4.063,13.771,75.2,14,Waypoint,
36.7915897,-118.9555495,6426.0451403447,8.858268,0,1.1675197224,6900,2018-06-14 20:40:28,12,0,24.418,6426.0451403447,8.858268,0.4921268,1.27730647132,0,0,-0.671082,1.3, 0.6, -0.6,0,0,1024,1024,1024,1024,1.6,-90,98,4.045,4.1,4.065,4.055,4.081,4.063,13.771,75.2,14,Waypoint,
36.7915896,-118.9555494,6427.0293923447,9.84252,0,1.13141079736,7000,2018-06-14 20:40:29,12,0,24.144,6427.0293923447,9.84252,0.4921268,1.27730647132,0,0,-0.671082,1.3, 0.5, -1.1,0,0,1024,1024,1024,1024,1.6,-90,98,4,4.056,4.049,4.082,4.036,4.06,16.998,75.2,14,Waypoint,
36.7915896,-118.9555495,6428.0136443447,10.826772,0,1.13103350076,7100,2018-06-14 20:40:29,12,0,24.144,6428.0136443447,10.826772,0.4921268,1.27730647132,0,0,-0.671082,1.3, 0.4, -0.8,0,0,1024,1024,1024,1024,1.6,-90,98,4,4.056,4.049,4.082,4.036,4.06,16.998,75.2,14,Waypoint,
36.7915895,-118.9555495,6428.9978963447,11.811024,0,1.09454727912,7200,2018-06-14 20:40:29,13,0,24.144,6428.9978963447,11.811024,0.4921268,1.27730647132,0,0,-0.671082,1.3, 0.2, -0.4,0,0,1024,1024,1024,1024,1.6,-90,98,4,4.056,4.049,4.082,4.036,4.06,16.998,75.2,14,Waypoint,
36.7915893,-118.9555496,6431.2944843447,14.107612,0,1.02199478336,7400,2018-06-14 20:40:29,13,0,24.144,6431.2944843447,14.107612,0.4921268,1.27730647132,0,0,-0.671082,1.5, 0.4, 0.1,0,0,1024,1024,1024,1024,1.6,-90,98,4,4.056,4.049,4.082,4.036,4.06,16.998,75.2,14,Waypoint,
36.7915892,-118.9555497,6432.2787363447,15.091864,0,0.98682417856,7600,2018-06-14 20:40:29,13,0,24.144,6432.2787363447,15.091864,0.4921268,1.27730647132,0,0,-0.671082,1.6, 0.4, 0.3,0,0,1024,1024,1024,1024,1.6,-90,98,4,4.056,4.049,4.082,4.036,4.06,16.998,75.2,14,Waypoint,
36.7915891,-118.9555497,6433.2629883447,16.076116,0,0.95040685456,7700,2018-06-14 20:40:29,13,0,24.144,6433.2629883447,16.076116,0.4921268,1.27730647132,0,0,-0.671082,1.6, 0.3, 0.4,0,0,1024,1024,1024,1024,1.6,-90,98,4,4.056,4.049,4.082,4.036,4.06,16.998,75.2,14,Waypoint,
36.791589,-118.9555496,6434.2472403447,17.060368,0,0.91259189272,7800,2018-06-14 20:40:29,13,0,24.144,6434.2472403447,17.060368,0.4921268,1.27730647132,0,0,-0.671082,1.7, 0.3, 0.1,0,0,1024,1024,1024,1024,1.6,-90,98,4,4.056,4.049,4.082,4.036,4.06,16.998,75.2,14,Waypoint,
36.7915889,-118.9555496,6435.5595763447,18.372704,0,0.87612535612,7900,2018-06-14 20:40:29,13,0,24.144,6435.5595763447,18.372704,0.4921268,1.27730647132,0,0,-0.671082,1.9, 0.2, -0.1,0,0,1024,1024,1024,1024,1.6,-90,98,4,4.056,4.049,4.082,4.036,4.06,16.998,75.2,14,Waypoint,
36.7915889,-118.9555495,6436.5438283447,19.356956,0,0.8756397918,8000,2018-06-14 20:40:30,13,0,23.612,6436.5438283447,19.356956,0.4921268,1.27730647132,0,0,-0.671082,1.9, 0, -0.3,0,0,1024,1024,1024,1024,1.6,-90,98,3.916,3.941,3.947,3.909,3.909,3.911,23.129,75.2,14,Waypoint,
36.7915888,-118.9555494,6437.8561643447,20.669292,0,0.83966210036,8100,2018-06-14 20:40:30,13,0,23.612,6437.8561643447,20.669292,0.4921268,1.27730647132,0,0,-0.671082,1.9, -0.1, -0.5,0,0,1024,1024,1024,1024,1.6,-90,98,3.916,3.941,3.947,3.909,3.909,3.911,23.129,75.2,14,Waypoint,
36.7915888,-118.9555494,6438.8404163447,21.653544,0,0.83966210036,8200,2018-06-14 20:40:30,13,0,23.612,6438.8404163447,21.653544,0.4921268,1.27730647132,0,0,-0.671082,1.8, -0.2, -0.5,0,0,1024,1024,1024,1024,1.6,-90,98,3.916,3.941,3.947,3.909,3.909,3.911,23.129,75.2,14,Waypoint,
36.7915888,-118.9555495,6441.1370043447,23.950132,0,0.83915357016,8300,2018-06-14 20:40:30,13,0,23.612,6441.1370043447,23.950132,0.4921268,1.27730647132,0,0,-0.671082,1.5, 0, -0.1,0,0,1024,1024,1024,1024,1.6,-90,98,3.916,3.941,3.947,3.909,3.909,3.911,23.129,75.2,14,Waypoint,
36.7915889,-118.9555495,6442.1212563447,24.934384,0,0.8756397918,8400,2018-06-14 20:40:30,13,0,23.612,6442.1212563447,24.934384,0.4921268,1.27730647132,0,0,-0.671082,1.4, 0.2, 0.2,0,0,1024,1024,1024,1024,1.6,-90,98,3.916,3.941,3.947,3.909,3.909,3.911,23.129,75.2,14,Waypoint,
36.7915889,-118.9555495,6443.4335923447,26.24672,0,0.8756397918,8500,2018-06-14 20:40:30,13,0,23.612,6443.4335923447,26.24672,0.4921268,1.27730647132,0,0,-0.671082,1.4, 0.4, 0.3,0,0,1024,1024,1024,1024,1.6,-90,98,3.916,3.941,3.947,3.909,3.909,3.911,23.129,75.2,14,Waypoint,
36.791589,-118.9555495,6444.4178443447,27.230972,0,0.9121227326,8600,2018-06-14 20:40:30,13,0,23.612,6444.4178443447,27.230972,0.4921268,1.27730647132,0,0,-0.671082,1.4, 0.4, 0.3,0,0,1024,1024,1024,1024,1.6,-90,98,3.916,3.941,3.947,3.909,3.909,3.911,23.129,75.2,14,Waypoint,
36.7915891,-118.9555496,6445.4020963447,28.215224,0,0.94905842932,8700,2018-06-14 20:40:30,13,0,23.612,6445.4020963447,28.215224,0.4921268,1.27730647132,0,0,-0.671082,1.4, 0.3, 0.1,0,0,1024,1024,1024,1024,1.6,-90,98,3.916,3.941,3.947,3.909,3.909,3.911,23.129,75.2,14,Waypoint,
36.7915891,-118.9555497,6446.7144323447,29.52756,0,0.95040685456,8800,2018-06-14 20:40:30,13,0,23.612,6446.7144323447,29.52756,0.4921268,1.27730647132,0,0,-0.671082,1.4, 0.4, 0.2,0,0,1024,1024,1024,1024,1.6,-90,98,3.916,3.941,3.947,3.909,3.909,3.911,23.129,75.2,14,Waypoint,
36.7915892,-118.95555,6447.6986843447,30.511812,0,0.9958661736,8900,2018-06-14 20:40:30,13,0,23.612,6447.6986843447,30.511812,0.4921268,1.27730647132,0,0,-0.671082,1.3, 0.6, 0.5,0,0,1024,1024,1024,1024,1.6,-90,98,3.916,3.941,3.947,3.909,3.909,3.911,23.129,75.2,14,Waypoint,
36.7915893,-118.9555502,6448.6829363447,31.496064,0,1.04185042704,9000,2018-06-14 20:40:31,13,0,23.488,6448.6829363447,31.496064,0.4921268,1.27730647132,0,0,-0.671082,1.2, 0.9, 0.8,0,0,1024,1024,1024,1024,1.6,-90,98,3.916,3.941,3.947,3.909,3.909,3.911,23.957,75.2,14,Waypoint,
36.7915894,-118.9555502,6449.9952723447,32.8084,0,1.07765095312,9100,2018-06-14 20:40:31,13,0,23.488,6449.9952723447,32.8084,0.4921268,1.27730647132,0,0,-0.671082,1.1, 1.1, 0.9,0,0,1024,1024,1024,1024,1.6,-89.9,98,3.916,3.941,3.947,3.909,3.909,3.911,23.957,75.2,14,Waypoint,
36.7915895,-118.9555503,6450.9795243447,33.792652,0,1.11922903844,9200,2018-06-14 20:40:31,12,0,23.488,6450.9795243447,33.792652,0.4921268,1.27730647132,0,0,-0.671082,1.1, 1, 1.1,0,0,1024,1024,1024,1024,1.6,-90,98,3.916,3.941,3.947,3.909,3.909,3.911,23.957,75.2,14,Waypoint,
36.7915896,-118.9555504,6451.9637763447,34.776904,0,1.16120082456,9400,2018-06-14 20:40:31,12,0,23.488,6451.9637763447,34.776904,0.4921268,1.27730647132,0,0,-0.671082,1.1, 0.9, 1,0,0,1024,1024,1024,1024,1.6,-90,98,3.916,3.941,3.947,3.909,3.909,3.911,23.957,75.2,14,Waypoint,
36.7915898,-118.9555504,6452.9480283447,35.761156,0,1.23238521004,9500,2018-06-14 20:40:31,13,0,23.488,6452.9480283447,35.761156,0.4921268,1.27730647132,0,0,-0.671082,1.2, 1, 1,0,0,1024,1024,1024,1024,1.6,-89.9,98,3.916,3.941,3.947,3.909,3.909,3.911,23.957,75.2,14,Waypoint,
36.7915899,-118.9555505,6453.9322803447,36.745408,0,1.27443245548,9600,2018-06-14 20:40:31,13,0,23.488,6453.9322803447,36.745408,0.4921268,1.27730647132,0,0,-0.671082,1.3, 1.2, 0.8,0,0,1024,1024,1024,1024,1.6,-89.9,98,3.916,3.941,3.947,3.909,3.909,3.911,23.957,75.2,14,Waypoint,
36.79159,-118.9555505,6455.2446163447,38.057744,0,1.3099737952,9700,2018-06-14 20:40:31,12,0,23.488,6455.2446163447,38.057744,0.4921268,1.3099737952,0,0,-0.671082,1.3, 1.2, 0.6,0,0,1024,1024,1024,1024,1.6,-89.9,98,3.916,3.941,3.947,3.909,3.909,3.911,23.957,75.2,14,Waypoint,
36.7915901,-118.9555505,6456.2288683447,39.041996,0,1.34556434752,9800,2018-06-14 20:40:31,12,0,23.488,6456.2288683447,39.041996,0.4921268,1.34556434752,0,0,-0.671082,1.3, 1.3, 0.3,0,0,1024,1024,1024,1024,1.6,-89.9,98,3.916,3.941,3.947,3.909,3.909,3.911,23.957,75.2,14,Waypoint,
36.7915901,-118.9555504,6457.2131203447,40.026248,0,1.33952104024,9900,2018-06-14 20:40:31,13,0,23.488,6457.2131203447,40.026248,0.4921268,1.34556434752,0,0,-0.671082,1.3, 1.3, 0.1,0,0,1024,1024,1024,1024,1.6,-89.9,98,3.916,3.941,3.947,3.909,3.909,3.911,23.957,75.2,14,Waypoint,
36.7915902,-118.9555503,6458.1973723447,41.0105,0,1.3700295714,10000,2018-06-14 20:40:32,13,0,23.488,6458.1973723447,41.0105,0.4921268,1.3700295714,0,0,-0.671082,1.3, 1.3, -0.1,0,0,1024,1024,1024,1024,1.6,-89.9,98,3.889,3.941,3.943,3.923,3.931,3.941,23.957,75.2,14,Waypoint,
36.7915903,-118.9555502,6459.1816243447,41.994752,0.223694,1.40143377188,10100,2018-06-14 20:40:32,13,0,23.488,6459.1816243447,41.994752,0.4921268,1.40143377188,0,0,-0.671082,1.3, 1.5, -0.5,0,0,1024,1024,1024,1024,1.6,-89.9,98,3.889,3.941,3.943,3.923,3.931,3.941,23.957,75.2,14,Waypoint,
36.7915903,-118.9555502,6460.1658763447,42.979004,0,1.40143377188,10200,2018-06-14 20:40:32,13,0,23.488,6460.1658763447,42.979004,0.4921268,1.40143377188,0,0,-0.671082,1.3, 1.6, -0.8,0,0,1024,1024,1024,1024,1.6,-89.9,98,3.889,3.941,3.943,3.923,3.931,3.941,23.957,75.2,14,Waypoint,
36.7915903,-118.9555501,6462.1343803447,44.947508,0,1.39746723632,10300,2018-06-14 20:40:32,13,0,23.488,6462.1343803447,44.947508,0.4921268,1.40143377188,0,0,-0.671082,1.3, 1.1, -0.4,0,0,1024,1024,1024,1024,1.6,-90,98,3.889,3.941,3.943,3.923,3.931,3.941,23.957,75.2,14,Waypoint,
36.7915904,-118.95555,6463.1186323447,45.93176,0.223694,1.43039374656,10400,2018-06-14 20:40:32,12,0,23.488,6463.1186323447,45.93176,0.4921268,1.43039374656,0,0,-0.671082,1.3, 1, -0.3,0,0,1024,1024,1024,1024,1.6,-90,98,3.889,3.941,3.943,3.923,3.931,3.941,23.957,75.2,14,Waypoint,
36.7915904,-118.9555499,6464.1028843447,46.916012,0.223694,1.42770345776,10500,2018-06-14 20:40:32,12,0,23.488,6464.1028843447,46.916012,0.4921268,1.43039374656,0,0,-0.671082,1.3, 0.9, -0.6,0,0,1024,1024,1024,1024,1.6,-90,98,3.889,3.941,3.943,3.923,3.931,3.941,23.957,75.2,14,Waypoint,
36.7915904,-118.9555499,6465.0871363447,47.900264,0,1.42770345776,10600,2018-06-14 20:40:32,12,0,23.488,6465.0871363447,47.900264,0.4921268,1.43039374656,0,0,-0.671082,1.4, 1.1, -0.9,0,0,1024,1024,1024,1024,1.6,-89.9,98,3.889,3.941,3.943,3.923,3.931,3.941,23.957,75.2,14,Waypoint,
36.7915905,-118.9555498,6466.0713883447,48.884516,0,1.46202760584,10700,2018-06-14 20:40:32,12,0,23.488,6466.0713883447,48.884516,0.4921268,1.46202760584,0,0,-0.671082,1.5, 1.3, -1.1,0,0,1024,1024,1024,1024,1.6,-89.9,98,3.889,3.941,3.943,3.923,3.931,3.941,23.957,75.2,14,Waypoint,
36.7915905,-118.9555497,6467.0556403447,49.868768,0,1.46056763204,10800,2018-06-14 20:40:32,12,0,23.488,6467.0556403447,49.868768,0.4921268,1.46202760584,0,0,-0.671082,1.7, 1.4, -1.1,0,0,1024,1024,1024,1024,1.6,-89.9,98,3.889,3.941,3.943,3.923,3.931,3.941,23.957,75.2,14,Waypoint,
36.7915906,-118.9555497,6468.0398923447,50.85302,0,1.49702432612,10900,2018-06-14 20:40:32,12,0,23.488,6468.0398923447,50.85302,0.4921268,1.49702432612,0,0,-0.671082,1.7, 1.5, -1.2,0,0,1024,1024,1024,1024,1.6,-89.9,98,3.889,3.941,3.943,3.923,3.931,3.941,23.957,75.2,14,Waypoint,
36.7915907,-118.9555497,6469.0241443447,51.837272,0,1.5334810202,11000,2018-06-14 20:40:33,12,0,23.826,6469.0241443447,51.837272,0.4921268,1.5334810202,0,0,-0.671082,1.7, 1.9, -0.9,0,0,1024,1024,1024,1024,1.6,-89.9,98,3.954,3.993,3.978,3.979,3.976,3.967,18.288,75.2,14,Waypoint,
36.7915907,-118.9555496,6470.0083963447,52.821524,0,1.53264768684,11100,2018-06-14 20:40:33,12,0,23.826,6470.0083963447,52.821524,0.4921268,1.5334810202,0,0,-0.671082,1.6, 2.1, -0.4,0,0,1024,1024,1024,1024,1.6,-89.9,98,3.954,3.993,3.978,3.979,3.976,3.967,18.288,75.2,14,Waypoint,
36.7915907,-118.9555496,6470.9926483447,53.805776,0,1.53264768684,11200,2018-06-14 20:40:33,12,0,23.826,6470.9926483447,53.805776,0.4921268,1.5334810202,0,0,-0.671082,1.6, 2.3, -0.2,0,0,1024,1024,1024,1024,1.6,-89.9,98,3.954,3.993,3.978,3.979,3.976,3.967,18.288,75.2,14,Waypoint,
36.7915908,-118.9555496,6471.9769003447,54.790028,0,1.56912406596,11300,2018-06-14 20:40:33,12,0,23.826,6471.9769003447,54.790028,0.4921268,1.56912406596,0,0,-0.671082,1.6, 2, 0,0,0,1024,1024,1024,1024,1.6,-89.9,98,3.954,3.993,3.978,3.979,3.976,3.967,18.288,75.2,14,Waypoint,
36.7915908,-118.9555496,6472.9611523447,55.77428,0,1.56912406596,11400,2018-06-14 20:40:33,12,0,23.826,6472.9611523447,55.77428,0.4921268,1.56912406596,0,0,-0.671082,1.5, 1.8, 0.2,0,0,1024,1024,1024,1024,1.6,-89.9,98,3.954,3.993,3.978,3.979,3.976,3.967,18.288,75.2,14,Waypoint,
36.7915907,-118.9555496,6473.9454043447,56.758532,0,1.53264768684,11500,2018-06-14 20:40:33,12,0,23.826,6473.9454043447,56.758532,0.4921268,1.56912406596,0,0,-0.671082,1.5, 1.3, 0.3,0,0,1024,1024,1024,1024,1.6,-89.9,98,3.954,3.993,3.978,3.979,3.976,3.967,18.288,75.2,14,Waypoint,
36.7915907,-118.9555495,6474.6015723447,57.4147,0,1.53236881544,11600,2018-06-14 20:40:33,12,0,23.826,6474.6015723447,57.4147,0.4921268,1.56912406596,0,0,-0.671082,1.5, 0.8, 0.4,0,0,1024,1024,1024,1024,1.6,-90,98,3.954,3.993,3.978,3.979,3.976,3.967,18.288,75.2,14,Waypoint,
36.7915907,-118.9555495,6475.5858243447,58.398952,0,1.53236881544,11700,2018-06-14 20:40:33,12,0,23.826,6475.5858243447,58.398952,0.4921268,1.56912406596,0,0,-0.671082,1.5, 0.6, 0.3,0,0,1024,1024,1024,1024,1.6,-90,98,3.954,3.993,3.978,3.979,3.976,3.967,18.288,75.2,14,Waypoint,
36.7915907,-118.9555495,6476.5700763447,59.383204,0,1.53236881544,11800,2018-06-14 20:40:33,13,0,23.826,6476.5700763447,59.383204,0.4921268,1.56912406596,0,0,-0.671082,1.4, 1.1, 0.4,0,0,1024,1024,1024,1024,1.6,-89.9,98,3.954,3.993,3.978,3.979,3.976,3.967,18.288,75.2,14,Waypoint,
36.7915907,-118.9555496,6477.5543283447,60.367456,0,1.53264768684,11900,2018-06-14 20:40:33,13,0,23.826,6477.5543283447,60.367456,0.4921268,1.56912406596,0,0,-0.671082,1.1, 1.6, 0.6,0,0,1024,1024,1024,1024,1.6,-89.9,98,3.954,3.993,3.978,3.979,3.976,3.967,18.288,75.2,14,Waypoint,
36.7915907,-118.9555496,6478.5385803447,61.351708,0,1.53264768684,12000,2018-06-14 20:40:34,12,0,23.763,6478.5385803447,61.351708,0.4921268,1.56912406596,0,0,-0.671082,1, 1.7, 0.6,0,0,1024,1024,1024,1024,1.6,-89.9,98,3.931,3.979,3.949,3.965,3.966,3.976,19.11,75.2,14,Waypoint,
36.7915907,-118.9555496,6479.1947483447,62.007876,0,1.53264768684,12100,2018-06-14 20:40:34,12,0,23.763,6479.1947483447,62.007876,0.4921268,1.56912406596,0,0,-0.671082,0.9, 1.5, 0.6,0,0,1024,1024,1024,1024,1.6,-89.9,98,3.931,3.979,3.949,3.965,3.966,3.976,19.11,75.2,14,Waypoint,
36.7915908,-118.9555496,6480.1790003447,62.992128,0,1.56912406596,12300,2018-06-14 20:40:34,13,0,23.763,6480.1790003447,62.992128,0.4921268,1.56912406596,0,0,-0.671082,1, 1.5, 0.4,0,0,1024,1024,1024,1024,1.6,-90,98,3.931,3.979,3.949,3.965,3.966,3.976,19.11,75.2,14,Waypoint,
36.7915908,-118.9555496,6481.1632523447,63.97638,0,1.56912406596,12400,2018-06-14 20:40:34,13,0,23.763,6481.1632523447,63.97638,0.4921268,1.56912406596,0,0,-0.671082,1.2, 1.7, 0.2,0,0,1024,1024,1024,1024,1.6,-89.9,98,3.931,3.979,3.949,3.965,3.966,3.976,19.11,75.2,14,Waypoint,
36.7915909,-118.9555496,6483.1317563447,65.944884,0,1.60560372592,12500,2018-06-14 20:40:34,12,0,23.763,6483.1317563447,65.944884,0.4921268,1.60560372592,0,0,-0.671082,1.7, 2.4, 0,0,0,1024,1024,1024,1024,1.6,-89.9,98,3.931,3.979,3.949,3.965,3.966,3.976,19.11,75.2,14,Waypoint,
36.7915909,-118.9555497,6484.1160083447,66.929136,0,1.60640097004,12700,2018-06-14 20:40:34,12,0,23.763,6484.1160083447,66.929136,0.4921268,1.60640097004,0,0,-0.671082,1.8, 2.6, 0.3,0,0,1024,1024,1024,1024,1.6,-89.9,98,3.931,3.979,3.949,3.965,3.966,3.976,19.11,75.2,14,Waypoint,
36.7915909,-118.9555498,6486.0845123447,68.89764,0,1.60772971024,12800,2018-06-14 20:40:34,12,0,23.763,6486.0845123447,68.89764,0.4921268,1.60772971024,0,0,-0.671082,1.8, 2.2, 0.8,0,0,1024,1024,1024,1024,1.6,-89.9,98,3.931,3.979,3.949,3.965,3.966,3.976,19.11,75.2,14,Waypoint,
36.791591,-118.9555499,6487.0687643447,69.881892,0,1.64597774296,12900,2018-06-14 20:40:34,12,0,23.763,6487.0687643447,69.881892,0.4921268,1.64597774296,0,0,-0.671082,1.8, 2.5, 1.1,0,0,1024,1024,1024,1024,1.6,-89.9,98,3.931,3.979,3.949,3.965,3.966,3.976,19.11,75.2,14,Waypoint,
36.7915911,-118.95555,6488.0530163447,70.866144,0,1.68465228488,13000,2018-06-14 20:40:35,12,0,23.718,6488.0530163447,70.866144,0.4921268,1.68465228488,0,0,-0.671082,1.7, 2.7, 1.1,0,0,1024,1024,1024,1024,1.6,-89.9,98,3.914,3.954,3.946,3.939,3.949,3.938,19.086,75.2,14,Waypoint,
36.7915911,-118.95555,6489.0372683447,71.850396,0,1.68465228488,13100,2018-06-14 20:40:35,12,0,23.718,6489.0372683447,71.850396,0.4921268,1.68465228488,0,0,-0.671082,1.6, 3, 1.3,0,0,1024,1024,1024,1024,1.6,-89.9,98,3.914,3.954,3.946,3.939,3.949,3.938,19.086,75.2,14,Waypoint,
36.7915912,-118.9555501,6490.3496043447,73.162732,0,1.72373037012,13200,2018-06-14 20:40:35,12,0,23.718,6490.3496043447,73.162732,0.4921268,1.72373037012,0,0,-0.671082,1.4, 3.1, 1.2,0,0,1024,1024,1024,1024,1.6,-89.9,98,3.914,3.954,3.946,3.939,3.949,3.938,19.086,75.2,14,Waypoint,
36.7915912,-118.9555503,6491.3338563447,74.146984,0,1.73064966168,13300,2018-06-14 20:40:35,12,0,23.718,6491.3338563447,74.146984,0.4921268,1.73064966168,0,0,-0.671082,1.1, 3.3, 1.3,0,0,1024,1024,1024,1024,1.6,-89.9,98,3.914,3.954,3.946,3.939,3.949,3.938,19.086,75.2,14,Waypoint,
36.7915912,-118.9555504,6492.3181083447,75.131236,0,1.73483601352,13400,2018-06-14 20:40:35,12,0,23.718,6492.3181083447,75.131236,0.4921268,1.73483601352,0,0,-0.671082,1, 3.3, 1.9,0,0,1024,1024,1024,1024,1.6,-89.9,98,3.914,3.954,3.946,3.939,3.949,3.938,19.086,75.2,14,Waypoint,
36.7915912,-118.9555505,6493.6304443447,76.443572,0,1.73950464884,13500,2018-06-14 20:40:35,12,0,23.718,6493.6304443447,76.443572,0.4921268,1.73950464884,0,0,-0.671082,1, 3.1, 2.4,0,0,1024,1024,1024,1024,1.6,-90,98,3.914,3.954,3.946,3.939,3.949,3.938,19.086,75.2,14,Waypoint,
36.7915912,-118.9555505,6494.6146963447,77.427824,0,1.73950464884,13600,2018-06-14 20:40:35,12,0,23.718,6494.6146963447,77.427824,0.4921268,1.73950464884,0,0,-0.671082,1, 2.7, 2.2,0,0,1024,1024,1024,1024,1.6,-90,98,3.914,3.954,3.946,3.939,3.949,3.938,19.086,75.2,14,Waypoint,
36.7915911,-118.9555506,6495.5989483447,78.412076,0,1.70880254812,13700,2018-06-14 20:40:35,12,0,23.718,6495.5989483447,78.412076,0.4921268,1.73950464884,0,0,-0.671082,1.1, 1.9, 2,0,0,1024,1024,1024,1024,1.6,-90,98,3.914,3.954,3.946,3.939,3.949,3.938,19.086,75.2,14,Waypoint,
36.791591,-118.9555506,6496.2551163447,79.068244,0,1.67298561784,13800,2018-06-14 20:40:35,12,0,23.718,6496.2551163447,79.068244,0.4921268,1.73950464884,0,0,-0.671082,1.3, 1.5, 2.5,0,0,1024,1024,1024,1024,1.6,-90,98,3.914,3.954,3.946,3.939,3.949,3.938,19.086,75.2,14,Waypoint,
36.7915909,-118.9555506,6498.2236203447,81.036748,0,1.63719493428,14000,2018-06-14 20:40:36,13,0,23.453,6498.2236203447,81.036748,0.4921268,1.73950464884,0,0,-0.671082,1.5, 0.9, 1.6,0,0,1024,1024,1024,1024,1.6,-90,97,3.893,3.931,3.929,3.913,3.91,3.906,21.775,75.2,14,Waypoint,
36.7915909,-118.9555505,6499.8640403447,82.677168,0,1.6317093698,14200,2018-06-14 20:40:36,13,0,23.453,6499.8640403447,82.677168,0.4921268,1.73950464884,0,0,-0.671082,1.3, 2, 0.4,0,0,1024,1024,1024,1024,1.6,-89.9,97,3.893,3.931,3.929,3.913,3.91,3.906,21.775,75.2,14,Waypoint,
36.7915909,-118.9555504,6500.8482923447,83.66142,0,1.62673233552,14300,2018-06-14 20:40:36,13,0,23.453,6500.8482923447,83.66142,0.4921268,1.73950464884,0,0,-0.671082,1.2, 2.2, 0.2,0,0,1024,1024,1024,1024,1.6,-89.9,97,3.893,3.931,3.929,3.913,3.91,3.906,21.775,75.2,14,Waypoint,
36.7915909,-118.9555504,6501.8325443447,84.645672,0,1.62673233552,14410,2018-06-14 20:40:36,13,0,23.453,6501.8325443447,84.645672,0.4921268,1.73950464884,0,0,-0.671082,1, 2.5, 0.6,0,0,1024,1024,1024,1024,1.6,-89.9,97,3.893,3.931,3.929,3.913,3.91,3.906,21.775,75.2,14,Waypoint,
36.7915909,-118.9555502,6503.8010483447,86.614176,0.223694,1.61831370008,14600,2018-06-14 20:40:36,13,0,23.453,6503.8010483447,86.614176,0.4921268,1.73950464884,0,0,-0.671082,0.7, 2.2, 0.1,0,0,1024,1024,1024,1024,1.6,-90,97,3.893,3.931,3.929,3.913,3.91,3.906,21.775,75.2,14,Waypoint,
36.7915909,-118.9555501,6504.7853003447,87.598428,0.223694,1.61488194144,14800,2018-06-14 20:40:36,13,0,23.453,6504.7853003447,87.598428,0.4921268,1.73950464884,0,0,-0.671082,0.9, 2, -0.5,0,0,1024,1024,1024,1024,1.6,-90,97,3.893,3.931,3.929,3.913,3.91,3.906,21.775,75.2,14,Waypoint,
36.7915908,-118.95555,6505.4414683447,88.254596,0.223694,1.5756398142,14900,2018-06-14 20:40:36,13,0,23.453,6505.4414683447,88.254596,0.4921268,1.73950464884,0,0,-0.671082,1.1, 2.2, -1,0,0,1024,1024,1024,1024,1.6,-90,97,3.893,3.931,3.929,3.913,3.91,3.906,21.775,75.2,14,Waypoint,
36.7915908,-118.9555498,6506.4257203447,89.238848,0.223694,1.57129926288,15000,2018-06-14 20:40:37,13,0,23.618,6506.4257203447,89.238848,0.4921268,1.73950464884,0,0,-0.671082,1.3, 1.7, -1.1,0,0,1024,1024,1024,1024,1.6,-90,97,3.905,3.955,3.938,3.96,3.943,3.929,19.556,75.2,14,Waypoint,
36.7915907,-118.9555495,6508.3942243447,91.207352,0.223694,1.53236881544,15100,2018-06-14 20:40:37,13,0,23.618,6508.3942243447,91.207352,0.4921268,1.73950464884,0,0,-0.671082,1.3, 1.2, -1.6,0,0,1024,1024,1024,1024,1.6,-90,97,3.905,3.955,3.938,3.96,3.943,3.929,19.556,75.2,14,Waypoint,
36.7915907,-118.9555492,6510.6908123447,93.50394,0.223694,1.53487209636,15300,2018-06-14 20:40:37,13,0,23.618,6510.6908123447,93.50394,0.4921268,1.73950464884,0,0,-0.671082,0.9, 1.8, -3,0,0,1024,1024,1024,1024,1.6,-89.9,97,3.905,3.955,3.938,3.96,3.943,3.929,19.556,75.2,14,Waypoint,
36.7915908,-118.9555491,6511.6750643447,94.488192,0,1.57319886924,15400,2018-06-14 20:40:37,13,0,23.618,6511.6750643447,94.488192,0.4921268,1.73950464884,0,0,-0.671082,0.8, 2.3, -2.6,0,0,1024,1024,1024,1024,1.6,-89.9,97,3.905,3.955,3.938,3.96,3.943,3.929,19.556,75.2,14,Waypoint,
36.7915908,-118.955549,6512.6593163447,95.472444,0,1.5756398142,15500,2018-06-14 20:40:37,13,0,23.618,6512.6593163447,95.472444,0.4921268,1.73950464884,0,0,-0.671082,0.8, 2.9, -1.5,0,0,1024,1024,1024,1024,1.6,-89.9,97,3.905,3.955,3.938,3.96,3.943,3.929,19.556,75.2,14,Waypoint,
36.7915908,-118.9555488,6513.6435683447,96.456696,0.223694,1.58212931572,15600,2018-06-14 20:40:37,13,0,23.618,6513.6435683447,96.456696,0.4921268,1.73950464884,0,0,-0.671082,0.8, 2.8, -1.4,0,0,1024,1024,1024,1024,1.6,-89.9,97,3.905,3.955,3.938,3.96,3.943,3.929,19.556,75.2,14,Waypoint,
36.7915909,-118.9555487,6514.6278203447,97.440948,0.3131716,1.62226383144,15700,2018-06-14 20:40:37,13,0,23.618,6514.6278203447,97.440948,0.4921268,1.73950464884,0,0,-0.671082,0.9, 3, -1.5,0,0,1024,1024,1024,1024,1.6,-89.9,97,3.905,3.955,3.938,3.96,3.943,3.929,19.556,75.2,14,Waypoint,
36.791591,-118.9555486,6515.6120723447,98.4252,0.3131716,1.6627461162,15800,2018-06-14 20:40:37,13,0,23.618,6515.6120723447,98.4252,0.4921268,1.73950464884,0,0,-0.671082,0.8, 3.9, -2,0,0,1024,1024,1024,1024,1.6,-89.9,97,3.905,3.955,3.938,3.96,3.943,3.929,19.556,75.2,14,Waypoint,
36.7915912,-118.9555485,6516.5963243447,99.409452,0.3131716,1.73950464884,15900,2018-06-14 20:40:37,13,0,23.618,6516.5963243447,99.409452,0.4921268,1.73950464884,0,0,-0.671082,0.8, 4.6, -2.1,0,0,1024,1024,1024,1024,1.6,-90,97,3.905,3.955,3.938,3.96,3.943,3.929,19.556,75.2,14,Waypoint,
36.7915913,-118.9555484,6517.5805763447,100.393704,0.223694,1.78052499136,16000,2018-06-14 20:40:38,13,0,23.345,6517.5805763447,100.393704,0.4921268,1.78052499136,0,0,-0.671082,1, 4.6, -2.6,0,0,1024,1024,1024,1024,1.6,-89.9,97,3.854,3.886,3.892,3.871,3.882,3.88,22.883,75.2,14,Waypoint,
36.7915914,-118.9555482,6518.5648283447,101.377956,0.223694,1.82766738132,16100,2018-06-14 20:40:38,13,0,23.345,6518.5648283447,101.377956,0.4921268,1.82766738132,0,0,-0.671082,1.2, 4.5, -2.5,0,0,1024,1024,1024,1024,1.6,-90,97,3.854,3.886,3.892,3.871,3.882,3.88,22.883,75.2,14,Waypoint,
36.7915915,-118.955548,6520.5333323447,103.34646,0,1.87615491568,16300,2018-06-14 20:40:38,14,0,23.345,6520.5333323447,103.34646,0.4921268,1.87615491568,0,0,-0.671082,1.4, 4.4, -2.6,0,0,1024,1024,1024,1024,1.6,-90,97,3.854,3.886,3.892,3.871,3.882,3.88,22.883,75.2,14,Waypoint,
36.7915916,-118.9555479,6521.5175843447,104.330712,0,1.91855977268,16400,2018-06-14 20:40:38,14,0,23.345,6521.5175843447,104.330712,0.4921268,1.91855977268,0,0,-0.671082,1.5, 4.1, -2.4,0,0,1024,1024,1024,1024,1.6,-90,97,3.854,3.886,3.892,3.871,3.882,3.88,22.883,75.2,14,Waypoint,
36.7915916,-118.9555479,6522.5018363447,105.314964,0,1.91855977268,16500,2018-06-14 20:40:38,14,0,23.345,6522.5018363447,105.314964,0.4921268,1.91855977268,0,0,-0.671082,1.5, 4, -1.9,0,0,1024,1024,1024,1024,1.6,-89.9,97,3.854,3.886,3.892,3.871,3.882,3.88,22.883,75.2,14,Waypoint,
36.7915916,-118.9555478,6523.4860883447,106.299216,0,1.9258858884,16700,2018-06-14 20:40:38,14,0,23.345,6523.4860883447,106.299216,0.4921268,1.9258858884,0,0,-0.671082,1.5, 4.2, -2.1,0,0,1024,1024,1024,1024,1.6,-89.9,97,3.854,3.886,3.892,3.871,3.882,3.88,22.883,75.2,14,Waypoint,
36.7915917,-118.9555478,6524.4703403447,107.283468,0,1.96115819924,16800,2018-06-14 20:40:38,14,0,23.345,6524.4703403447,107.283468,0.4921268,1.96115819924,0,0,-0.671082,1.5, 4.1, -2.5,0,0,1024,1024,1024,1024,1.6,-89.9,97,3.854,3.886,3.892,3.871,3.882,3.88,22.883,75.2,14,Waypoint,
36.7915917,-118.9555477,6525.4545923447,108.26772,0,1.96876318636,16910,2018-06-14 20:40:38,14,0,23.345,6525.4545923447,108.26772,0.4921268,1.96876318636,0,0,-0.671082,1.5, 4.1, -2.5,0,0,1024,1024,1024,1024,1.6,-90,97,3.854,3.886,3.892,3.871,3.882,3.88,22.883,75.2,14,Waypoint,
36.7915918,-118.9555477,6526.4388443447,109.251972,0,2.00394363368,17000,2018-06-14 20:40:39,14,0,23.192,6526.4388443447,109.251972,0.4921268,2.00394363368,0,0,-0.671082,1.3, 4.1, -2.5,0,0,1024,1024,1024,1024,1.6,-90,97,3.82,3.891,3.854,3.867,3.856,3.872,23.772,77,14,Waypoint,
36.7915919,-118.9555476,6528.4073483447,111.220476,0,2.04690295264,17100,2018-06-14 20:40:39,14,0,23.192,6528.4073483447,111.220476,0.4921268,2.04690295264,0,0,-0.671082,1.2, 3.9, -2.8,0,0,1024,1024,1024,1024,1.6,-90,97,3.82,3.891,3.854,3.867,3.856,3.872,23.772,77,14,Waypoint,
36.7915919,-118.9555475,6530.3758523447,113.18898,0,2.0550197508,17300,2018-06-14 20:40:39,14,0,23.192,6530.3758523447,113.18898,0.4921268,2.0550197508,0,0,-0.671082,1.1, 4.1, -2.4,0,0,1024,1024,1024,1024,1.6,-89.9,97,3.82,3.891,3.854,3.867,3.856,3.872,23.772,77,14,Waypoint,
36.791592,-118.9555475,6532.3443563447,115.157484,0,2.0900263136,17500,2018-06-14 20:40:39,14,0,23.192,6532.3443563447,115.157484,0.4921268,2.0900263136,0,0,-0.671082,1, 4.5, -1.9,0,0,1024,1024,1024,1024,1.6,-89.9,97,3.82,3.891,3.854,3.867,3.856,3.872,23.772,77,14,Waypoint,
36.791592,-118.9555474,6533.3286083447,116.141736,0,2.09838261308,17600,2018-06-14 20:40:39,14,0,23.192,6533.3286083447,116.141736,0.4921268,2.09838261308,0,0,-0.671082,1, 4.5, -2.2,0,0,1024,1024,1024,1024,1.6,-89.9,97,3.82,3.891,3.854,3.867,3.856,3.872,23.772,77,14,Waypoint,
36.791592,-118.9555474,6534.3128603447,117.125988,0,2.09838261308,17700,2018-06-14 20:40:39,14,0,23.192,6534.3128603447,117.125988,0.4921268,2.09838261308,0,0,-0.671082,1, 4.2, -2.5,0,0,1024,1024,1024,1024,1.6,-90,97,3.82,3.891,3.854,3.867,3.856,3.872,23.772,77,14,Waypoint,
36.791592,-118.9555473,6535.2971123447,118.11024,0,2.10710964748,17800,2018-06-14 20:40:39,14,0,23.192,6535.2971123447,118.11024,0.4921268,2.10710964748,0,0,-0.671082,1.1, 4.1, -2.6,0,0,1024,1024,1024,1024,1.6,-90,97,3.82,3.891,3.854,3.867,3.856,3.872,23.772,77,14,Waypoint,
36.791592,-118.9555473,6536.2813643447,119.094492,0,2.10710964748,17910,2018-06-14 20:40:39,14,0,23.192,6536.2813643447,119.094492,0.4921268,2.10710964748,0,0,-0.671082,1.3, 4, -2.6,0,0,1024,1024,1024,1024,1.6,-90,97,3.82,3.891,3.854,3.867,3.856,3.872,23.772,77,14,Waypoint,
36.791592,-118.9555473,6537.2656163447,120.078744,0,2.10710964748,18000,2018-06-14 20:40:40,14,0,23.031,6537.2656163447,120.078744,0.4921268,2.10710964748,0,0,-0.671082,1.4, 3.7, -2.5,0,0,1024,1024,1024,1024,1.6,-90,97,3.807,3.85,3.842,3.832,3.83,3.829,25.388,77,14,Waypoint,
36.791592,-118.9555473,6538.2498683447,121.062996,0,2.10710964748,18110,2018-06-14 20:40:40,14,0,23.031,6538.2498683447,121.062996,0.4921268,2.10710964748,0,0,-0.671082,1.5, 3.8, -2.4,0,0,1024,1024,1024,1024,1.6,-89.9,97,3.807,3.85,3.842,3.832,3.83,3.829,25.388,77,14,Waypoint,
36.791592,-118.9555473,6539.2341203447,122.047248,0,2.10710964748,18200,2018-06-14 20:40:40,14,0,23.031,6539.2341203447,122.047248,0.4921268,2.10710964748,0,0,-0.671082,1.5, 3.9, -2.1,0,0,1024,1024,1024,1024,1.6,-90,97,3.807,3.85,3.842,3.832,3.83,3.829,25.388,77,14,Waypoint,
36.791592,-118.9555473,6540.2183723447,123.0315,0,2.10710964748,18300,2018-06-14 20:40:40,14,0,23.031,6540.2183723447,123.0315,0.4921268,2.10710964748,0,0,-0.671082,1.5, 4, -1.9,0,0,1024,1024,1024,1024,1.6,-90,97,3.807,3.85,3.842,3.832,3.83,3.829,25.388,77,14,Waypoint,
36.791592,-118.9555474,6541.2026243447,124.015752,0,2.09838261308,18410,2018-06-14 20:40:40,14,0,23.031,6541.2026243447,124.015752,0.4921268,2.10710964748,0,0,-0.671082,1.3, 4.1, -1.9,0,0,1024,1024,1024,1024,1.6,-89.9,97,3.807,3.85,3.842,3.832,3.83,3.829,25.388,77,14,Waypoint,
36.791592,-118.9555474,6542.1868763447,125.000004,0,2.09838261308,18500,2018-06-14 20:40:40,14,0,23.031,6542.1868763447,125.000004,0.4921268,2.10710964748,0,0,-0.671082,1.2, 4.3, -2,0,0,1024,1024,1024,1024,1.6,-89.9,97,3.807,3.85,3.842,3.832,3.83,3.829,25.388,77,14,Waypoint,
36.791592,-118.9555473,6543.1711283447,125.984256,0,2.10710964748,18610,2018-06-14 20:40:40,14,0,23.031,6543.1711283447,125.984256,0.4921268,2.10710964748,0,0,-0.671082,1.1, 4.4, -2.2,0,0,1024,1024,1024,1024,1.6,-89.9,97,3.807,3.85,3.842,3.832,3.83,3.829,25.388,77,14,Waypoint,
36.791592,-118.9555474,6544.1553803447,126.968508,0,2.09838261308,18700,2018-06-14 20:40:40,14,0,23.031,6544.1553803447,126.968508,0.4921268,2.10710964748,0,0,-0.671082,1, 4.8, -2.4,0,0,1024,1024,1024,1024,1.6,-89.9,97,3.807,3.85,3.842,3.832,3.83,3.829,25.388,77,14,Waypoint,
36.791592,-118.9555473,6546.4519683447,129.265096,0,2.10710964748,18910,2018-06-14 20:40:40,14,0,23.031,6546.4519683447,129.265096,0.4921268,2.10710964748,0,0,-0.671082,1, 4.6, -2.4,0,0,1024,1024,1024,1024,1.6,-89.9,97,3.807,3.85,3.842,3.832,3.83,3.829,25.388,77,14,Waypoint,
36.791592,-118.9555473,6547.4362203447,130.249348,0,2.10710964748,19110,2018-06-14 20:40:41,14,0,23.031,6547.4362203447,130.249348,0.4921268,2.10710964748,0,0,-0.671082,1, 4.7, -2.8,0,0,1024,1024,1024,1024,1.6,-89.9,97,3.807,3.85,3.842,3.832,3.83,3.829,25.388,77,14,Waypoint,
36.7915921,-118.9555472,6548.4204723447,131.2336,0,2.15083340216,19200,2018-06-14 20:40:41,14,0,23.031,6548.4204723447,131.2336,0.4921268,2.15083340216,0,0,-0.671082,0.8, 4.9, -3.4,0,0,1024,1024,1024,1024,1.6,-89.9,97,3.807,3.85,3.842,3.832,3.83,3.829,25.388,77,14,Waypoint,
36.7915921,-118.9555472,6549.4047243447,132.217852,0,2.15083340216,19300,2018-06-14 20:40:41,14,0,23.031,6549.4047243447,132.217852,0.4921268,2.15083340216,0,0,-0.671082,0.8, 4.5, -3.5,0,0,1024,1024,1024,1024,1.6,-89.9,97,3.807,3.85,3.842,3.832,3.83,3.829,25.388,77,14,Waypoint,
36.7915921,-118.9555471,6550.3889763447,133.202104,0,2.16014114524,19410,2018-06-14 20:40:41,14,0,23.031,6550.3889763447,133.202104,0.4921268,2.16014114524,0,0,-0.671082,0.7, 4.7, -3.7,0,0,1024,1024,1024,1024,1.6,-89.9,97,3.807,3.85,3.842,3.832,3.83,3.829,25.388,77,14,Waypoint,
36.791592,-118.955547,6552.3574803447,135.170608,0,2.1354823518,19500,2018-06-14 20:40:41,14,0,23.031,6552.3574803447,135.170608,0.4921268,2.16014114524,0,0,-0.671082,0.7, 4.6, -3.5,0,0,1024,1024,1024,1024,1.6,-90,97,3.807,3.85,3.842,3.832,3.83,3.829,25.388,77,14,Waypoint,
36.7915919,-118.9555469,6553.3417323447,136.15486,0.223694,2.11156830904,19610,2018-06-14 20:40:41,14,0,23.031,6553.3417323447,136.15486,0.4921268,2.16014114524,0,0,-0.671082,0.8, 4.4, -3.4,0,0,1024,1024,1024,1024,1.6,-90,97,3.807,3.85,3.842,3.832,3.83,3.829,25.388,77,14,Waypoint,
36.7915916,-118.9555469,6555.3102363447,138.123364,0.223694,2.00982946064,19800,2018-06-14 20:40:41,14,0,23.031,6555.3102363447,138.123364,0.4921268,2.16014114524,0,0,-0.671082,1.1, 2.6, -3.6,0,0,1024,1024,1024,1024,1.6,-90,97,3.807,3.85,3.842,3.832,3.83,3.829,25.388,77,14,Waypoint,
36.7915914,-118.9555469,6556.2944883447,139.107616,0.223694,1.94246725376,19910,2018-06-14 20:40:41,14,0,23.031,6556.2944883447,139.107616,0.4921268,2.16014114524,0,0,-0.671082,1.2, 1.8, -3.9,0,0,1024,1024,1024,1024,1.6,-90,97,3.807,3.85,3.842,3.832,3.83,3.829,25.388,77,14,Waypoint,
36.7915913,-118.9555469,6557.2787403447,140.091868,0.223694,1.90894363064,20000,2018-06-14 20:40:42,14,0,22.764,6557.2787403447,140.091868,0.4921268,2.16014114524,0,0,-0.671082,1.4, 1.4, -4,0,0,1024,1024,1024,1024,1.6,-90,97,3.788,3.833,3.816,3.813,3.807,3.809,26.734,77,14,Waypoint,
36.7915912,-118.9555469,6558.2629923447,141.07612,0,1.87552827524,20110,2018-06-14 20:40:42,14,0,22.764,6558.2629923447,141.07612,0.4921268,2.16014114524,0,0,-0.671082,1.4, 1.7, -4,0,0,1024,1024,1024,1024,1.6,-90,97,3.788,3.833,3.816,3.813,3.807,3.809,26.734,77,14,Waypoint,
36.7915911,-118.9555469,6559.2472443447,142.060372,0,1.84222774924,20200,2018-06-14 20:40:42,14,0,22.764,6559.2472443447,142.060372,0.4921268,2.16014114524,0,0,-0.671082,1.5, 2.3, -3.6,0,0,1024,1024,1024,1024,1.6,-89.9,97,3.788,3.833,3.816,3.813,3.807,3.809,26.734,77,14,Waypoint,
36.7915911,-118.955547,6559.9034123447,142.71654,0,1.83037407432,20300,2018-06-14 20:40:42,14,0,22.764,6559.9034123447,142.71654,0.4921268,2.16014114524,0,0,-0.671082,1.5, 2.9, -2.9,0,0,1024,1024,1024,1024,1.6,-89.9,97,3.788,3.833,3.816,3.813,3.807,3.809,26.734,77,14,Waypoint,
36.7915911,-118.9555471,6560.8876643447,143.700792,0,1.81891081936,20410,2018-06-14 20:40:42,14,0,22.764,6560.8876643447,143.700792,0.4921268,2.16014114524,0,0,-0.671082,1.6, 3.4, -2.4,0,0,1024,1024,1024,1024,1.6,-89.9,97,3.788,3.833,3.816,3.813,3.807,3.809,26.734,77,14,Waypoint,
36.7915911,-118.9555471,6561.8719163447,144.685044,0,1.81891081936,20500,2018-06-14 20:40:42,14,0,22.764,6561.8719163447,144.685044,0.4921268,2.16014114524,0,0,-0.671082,1.6, 3.6, -1.8,0,0,1024,1024,1024,1024,1.6,-89.9,97,3.788,3.833,3.816,3.813,3.807,3.809,26.734,77,14,Waypoint,
36.7915911,-118.9555472,6562.8561683447,145.669296,0,1.80784782688,20610,2018-06-14 20:40:42,14,0,22.764,6562.8561683447,145.669296,0.4921268,2.16014114524,0,0,-0.671082,1.3, 3.9, -1.5,0,0,1024,1024,1024,1024,1.6,-89.9,97,3.788,3.833,3.816,3.813,3.807,3.809,26.734,77,14,Waypoint,
36.7915911,-118.9555471,6563.8404203447,146.653548,0,1.81891081936,20710,2018-06-14 20:40:42,14,0,22.764,6563.8404203447,146.653548,0.4921268,2.16014114524,0,0,-0.671082,1.1, 4.3, -2.4,0,0,1024,1024,1024,1024,1.6,-89.9,97,3.788,3.833,3.816,3.813,3.807,3.809,26.734,77,14,Waypoint,
36.7915911,-118.9555471,6563.8404203447,146.653548,0,1.81891081936,20800,2018-06-14 20:40:42,14,0,22.764,6563.8404203447,146.653548,0.4921268,2.16014114524,0,0,-0.671082,1.1, 4.3, -2.4,0,0,1024,1024,1024,1024,1.6,-89.9,97,3.788,3.833,3.816,3.813,3.807,3.809,26.734,77,14,Waypoint,
36.7915911,-118.9555469,6566.1370083447,148.950136,0,1.84222774924,20920,2018-06-14 20:40:43,14,0,22.764,6566.1370083447,148.950136,0.4921268,2.16014114524,0,0,-0.671082,0.9, 4.8, -3.7,0,0,1024,1024,1024,1024,1.6,-89.9,97,3.788,3.833,3.816,3.813,3.807,3.809,26.734,77,14,Waypoint,
36.7915911,-118.9555469,6566.1370083447,148.950136,0,1.84222774924,21000,2018-06-14 20:40:43,14,0,22.764,6566.1370083447,148.950136,0.4921268,2.16014114524,0,0,-0.671082,0.9, 4.8, -3.7,0,0,1024,1024,1024,1024,1.6,-89.9,97,3.766,3.822,3.799,3.8,3.79,3.798,26.734,77,14,Waypoint,
36.7915912,-118.9555467,6568.1055123447,150.91864,0.223694,1.89994756736,21110,2018-06-14 20:40:43,14,0,22.764,6568.1055123447,150.91864,0.4921268,2.16014114524,0,0,-0.671082,0.7, 4.8, -5,0,0,1024,1024,1024,1024,1.6,-89.9,97,3.766,3.822,3.799,3.8,3.79,3.798,26.734,77,14,Waypoint,
36.7915912,-118.9555465,6569.0897643447,151.902892,0.223694,1.92583011412,21300,2018-06-14 20:40:43,14,0,22.764,6569.0897643447,151.902892,0.4921268,2.16014114524,0,0,-0.671082,0.7, 4.5, -6.4,0,0,1024,1024,1024,1024,1.6,-89.9,97,3.766,3.822,3.799,3.8,3.79,3.798,26.734,77,14,Waypoint,
36.7915912,-118.9555463,6570.0740163447,152.887144,0.223694,1.95312014124,21410,2018-06-14 20:40:43,14,0,22.764,6570.0740163447,152.887144,0.4921268,2.16014114524,0,0,-0.671082,0.8, 3.8, -7.1,0,0,1024,1024,1024,1024,1.6,-90,97,3.766,3.822,3.799,3.8,3.79,3.798,26.734,77,14,Waypoint,
36.7915912,-118.9555461,6571.0582683447,153.871396,0,1.9817585936,21500,2018-06-14 20:40:43,14,0,22.764,6571.0582683447,153.871396,0.4921268,2.16014114524,0,0,-0.671082,1, 3.6, -6.8,0,0,1024,1024,1024,1024,1.6,-89.9,97,3.766,3.822,3.799,3.8,3.79,3.798,26.734,77,14,Waypoint,
36.7915912,-118.955546,6571.7144363447,154.527564,0,1.99656502452,21610,2018-06-14 20:40:43,14,0,22.764,6571.7144363447,154.527564,0.4921268,2.16014114524,0,0,-0.671082,1.2, 4, -5.9,0,0,1024,1024,1024,1024,1.6,-89.9,97,3.766,3.822,3.799,3.8,3.79,3.798,26.734,77,14,Waypoint,
36.7915913,-118.955546,6573.3548563447,156.167984,0,2.02798891004,21700,2018-06-14 20:40:43,14,0,22.764,6573.3548563447,156.167984,0.4921268,2.16014114524,0,0,-0.671082,1.5, 5, -4.1,0,0,1024,1024,1024,1024,1.6,-89.9,97,3.766,3.822,3.799,3.8,3.79,3.798,26.734,77,14,Waypoint,
36.7915914,-118.9555461,6574.3391083447,157.152236,0,2.0452264434,21800,2018-06-14 20:40:43,14,0,22.764,6574.3391083447,157.152236,0.4921268,2.16014114524,0,0,-0.671082,1.6, 5.2, -3.5,0,0,1024,1024,1024,1024,1.6,-89.9,97,3.766,3.822,3.799,3.8,3.79,3.798,26.734,77,14,Waypoint,
36.7915914,-118.9555461,6575.3233603447,158.136488,0,2.0452264434,21910,2018-06-14 20:40:43,14,0,22.764,6575.3233603447,158.136488,0.4921268,2.16014114524,0,0,-0.671082,1.5, 5.3, -3.4,0,0,1024,1024,1024,1024,1.6,-89.9,97,3.766,3.822,3.799,3.8,3.79,3.798,26.734,77,14,Waypoint,
36.7915914,-118.9555462,6576.3076123447,159.12074,0,2.03119429072,22000,2018-06-14 20:40:44,14,0,22.803,6576.3076123447,159.12074,0.4921268,2.16014114524,0,0,-0.671082,1.3, 5.2, -3.4,0,0,1024,1024,1024,1024,1.6,-90,97,3.752,3.827,3.81,3.803,3.803,3.81,26.095,77,14,Waypoint,
36.7915915,-118.9555462,6577.2918643447,160.104992,0,2.06337933112,22110,2018-06-14 20:40:44,14,0,22.803,6577.2918643447,160.104992,0.4921268,2.16014114524,0,0,-0.671082,1.1, 4.8, -3.6,0,0,1024,1024,1024,1024,1.6,-90,97,3.752,3.827,3.81,3.803,3.803,3.81,26.095,77,14,Waypoint,
36.7915915,-118.9555463,6578.2761163447,161.089244,0,2.04988851704,22200,2018-06-14 20:40:44,14,0,22.803,6578.2761163447,161.089244,0.4921268,2.16014114524,0,0,-0.671082,1, 4.5, -3.7,0,0,1024,1024,1024,1024,1.6,-90,97,3.752,3.827,3.81,3.803,3.803,3.81,26.095,77,14,Waypoint,
36.7915915,-118.9555464,6578.9322843447,161.745412,0,2.0367290678,22300,2018-06-14 20:40:44,14,0,22.803,6578.9322843447,161.745412,0.4921268,2.16014114524,0,0,-0.671082,1, 4.5, -3.6,0,0,1024,1024,1024,1024,1.6,-89.9,97,3.752,3.827,3.81,3.803,3.803,3.81,26.095,77,14,Waypoint,
36.7915915,-118.9555465,6579.9165363447,162.729664,0,2.02390426424,22410,2018-06-14 20:40:44,14,0,22.803,6579.9165363447,162.729664,0.4921268,2.16014114524,0,0,-0.671082,1, 4.7, -3.5,0,0,1024,1024,1024,1024,1.6,-89.9,97,3.752,3.827,3.81,3.803,3.803,3.81,26.095,77,14,Waypoint,
36.7915915,-118.9555466,6580.9007883447,163.713916,0,2.01142394888,22500,2018-06-14 20:40:44,14,0,22.803,6580.9007883447,163.713916,0.4921268,2.16014114524,0,0,-0.671082,1, 4.8, -3.2,0,0,1024,1024,1024,1024,1.6,-89.9,97,3.752,3.827,3.81,3.803,3.803,3.81,26.095,77,14,Waypoint,
36.7915915,-118.9555467,6581.8850403447,164.698168,0,1.99929140256,22610,2018-06-14 20:40:44,14,0,22.803,6581.8850403447,164.698168,0.4921268,2.16014114524,0,0,-0.671082,1, 4.8, -2.8,0,0,1024,1024,1024,1024,1.6,-89.9,97,3.752,3.827,3.81,3.803,3.803,3.81,26.095,77,14,Waypoint,
36.7915915,-118.9555468,6582.8692923447,165.68242,0,1.98751318696,22700,2018-06-14 20:40:44,14,0,22.803,6582.8692923447,165.68242,0.4921268,2.16014114524,0,0,-0.671082,1, 4.8, -2.6,0,0,1024,1024,1024,1024,1.6,-89.9,97,3.752,3.827,3.81,3.803,3.803,3.81,26.095,77,14,Waypoint,
36.7915915,-118.9555469,6583.8535443447,166.666672,0,1.9760991446,22800,2018-06-14 20:40:44,14,0,22.803,6583.8535443447,166.666672,0.4921268,2.16014114524,0,0,-0.671082,1, 4.7, -2.8,0,0,1024,1024,1024,1024,1.6,-89.9,97,3.752,3.827,3.81,3.803,3.803,3.81,26.095,77,14,Waypoint,
36.7915915,-118.955547,6585.1658803447,167.979008,0,1.96505255632,22910,2018-06-14 20:40:44,14,0,22.803,6585.1658803447,167.979008,0.4921268,2.16014114524,0,0,-0.671082,1, 4.5, -2.9,0,0,1024,1024,1024,1024,1.6,-89.9,97,3.752,3.827,3.81,3.803,3.803,3.81,26.095,77,14,Waypoint,
36.7915915,-118.9555471,6586.1501323447,168.96326,0,1.9543799838,23000,2018-06-14 20:40:45,14,0,22.674,6586.1501323447,168.96326,0.4921268,2.16014114524,0,0,-0.671082,1.1, 4.3, -3,0,0,1024,1024,1024,1024,1.6,-90,96,3.75,3.809,3.799,3.796,3.792,3.807,26.93,77,14,Waypoint,
36.7915914,-118.9555472,6587.1343843447,169.947512,0,1.9098917934,23200,2018-06-14 20:40:45,14,0,22.674,6587.1343843447,169.947512,0.4921268,2.16014114524,0,0,-0.671082,1.2, 4.1, -3.1,0,0,1024,1024,1024,1024,1.6,-90,96,3.75,3.809,3.799,3.796,3.792,3.807,26.93,77,14,Waypoint,
36.7915914,-118.9555473,6588.1186363447,170.931764,0,1.89980977208,23300,2018-06-14 20:40:45,14,0,22.674,6588.1186363447,170.931764,0.4921268,2.16014114524,0,0,-0.671082,1.2, 3.9, -3.3,0,0,1024,1024,1024,1024,1.6,-90,96,3.75,3.809,3.799,3.796,3.792,3.807,26.93,77,14,Waypoint,
36.7915914,-118.9555474,6589.1028883447,171.916016,0,1.8901247324,23410,2018-06-14 20:40:45,14,0,22.674,6589.1028883447,171.916016,0.4921268,2.16014114524,0,0,-0.671082,1.2, 3.8, -3.2,0,0,1024,1024,1024,1024,1.6,-90,96,3.75,3.809,3.799,3.796,3.792,3.807,26.93,77,14,Waypoint,
36.7915914,-118.9555475,6590.0871403447,172.900268,0,1.88084323604,23510,2018-06-14 20:40:45,14,0,22.674,6590.0871403447,172.900268,0.4921268,2.16014114524,0,0,-0.671082,1.2, 4, -3,0,0,1024,1024,1024,1024,1.6,-89.9,96,3.75,3.809,3.799,3.796,3.792,3.807,26.93,77,14,Waypoint,
36.7915914,-118.9555476,6591.0713923447,173.88452,0,1.87197184468,23610,2018-06-14 20:40:45,14,0,22.674,6591.0713923447,173.88452,0.4921268,2.16014114524,0,0,-0.671082,1.3, 4.3, -2.6,0,0,1024,1024,1024,1024,1.6,-90,96,3.75,3.809,3.799,3.796,3.792,3.807,26.93,77,14,Waypoint,
36.7915914,-118.9555477,6592.0556443447,174.868772,0,1.86351383916,23700,2018-06-14 20:40:45,14,0,22.674,6592.0556443447,174.868772,0.4921268,2.16014114524,0,0,-0.671082,1.3, 4.3, -2.5,0,0,1024,1024,1024,1024,1.6,-89.9,96,3.75,3.809,3.799,3.796,3.792,3.807,26.93,77,14,Waypoint,
36.7915914,-118.9555479,6593.0398963447,175.853024,0,1.84787407488,23800,2018-06-14 20:40:45,14,0,22.674,6593.0398963447,175.853024,0.4921268,2.16014114524,0,0,-0.671082,1.4, 4.3, -2.2,0,0,1024,1024,1024,1024,1.6,-89.9,96,3.75,3.809,3.799,3.796,3.792,3.807,26.93,77,14,Waypoint,
36.7915914,-118.955548,6594.0241483447,176.837276,0,1.8406988778,23910,2018-06-14 20:40:45,14,0,22.674,6594.0241483447,176.837276,0.4921268,2.16014114524,0,0,-0.671082,1.5, 4.3, -2.2,0,0,1024,1024,1024,1024,1.6,-89.9,96,3.75,3.809,3.799,3.796,3.792,3.807,26.93,77,14,Waypoint,
36.7915914,-118.9555481,6595.0084003447,177.821528,0,1.83396003244,24000,2018-06-14 20:40:46,14,0,22.711,6595.0084003447,177.821528,0.4921268,2.16014114524,0,0,-0.671082,1.5, 4.3, -2.2,0,0,1024,1024,1024,1024,1.6,-89.9,96,3.709,3.778,3.768,3.77,3.759,3.771,28.324,77,14,Waypoint,
36.7915915,-118.9555484,6597.3049883447,180.118116,0,1.85234257896,24110,2018-06-14 20:40:46,14,0,22.711,6597.3049883447,180.118116,0.4921268,2.16014114524,0,0,-0.671082,1.4, 4.5, -1.8,0,0,1024,1024,1024,1024,1.6,-90,96,3.709,3.778,3.768,3.77,3.759,3.771,28.324,77,14,Waypoint,
36.7915915,-118.9555486,6598.2892403447,181.102368,0,1.84310373352,24200,2018-06-14 20:40:46,14,0,22.711,6598.2892403447,181.102368,0.4921268,2.16014114524,0,0,-0.671082,1.4, 4.4, -1.5,0,0,1024,1024,1024,1024,1.6,-89.9,96,3.709,3.778,3.768,3.77,3.759,3.771,28.324,77,14,Waypoint,
36.7915915,-118.9555487,6599.2734923447,182.08662,0,1.83916016384,24300,2018-06-14 20:40:46,14,0,22.711,6599.2734923447,182.08662,0.4921268,2.16014114524,0,0,-0.671082,1.4, 4.3, -1.1,0,0,1024,1024,1024,1024,1.6,-89.9,96,3.709,3.778,3.768,3.77,3.759,3.771,28.324,77,14,Waypoint,
36.7915914,-118.9555489,6600.2577443447,183.070872,0,1.79633535932,24410,2018-06-14 20:40:46,14,0,22.711,6600.2577443447,183.070872,0.4921268,2.16014114524,0,0,-0.671082,1.4, 4.3, -0.6,0,0,1024,1024,1024,1024,1.6,-90,96,3.709,3.778,3.768,3.77,3.759,3.771,28.324,77,14,Waypoint,
36.7915914,-118.955549,6601.2419963447,184.055124,0,1.79372052984,24500,2018-06-14 20:40:46,14,0,22.711,6601.2419963447,184.055124,0.4921268,2.16014114524,0,0,-0.671082,1.4, 4.2, -1.1,0,0,1024,1024,1024,1024,1.6,-90,96,3.709,3.778,3.768,3.77,3.759,3.771,28.324,77,14,Waypoint,
36.7915914,-118.9555491,6602.5543323447,185.36746,0,1.79157814132,24610,2018-06-14 20:40:46,14,0,22.711,6602.5543323447,185.36746,0.4921268,2.16014114524,0,0,-0.671082,1.3, 4, -1.7,0,0,1024,1024,1024,1024,1.6,-90,96,3.709,3.778,3.768,3.77,3.759,3.771,28.324,77,14,Waypoint,
36.7915914,-118.9555491,6603.5385843447,186.351712,0,1.79157814132,24700,2018-06-14 20:40:46,14,0,22.711,6603.5385843447,186.351712,0.4921268,2.16014114524,0,0,-0.671082,1.3, 3.9, -2.6,0,0,1024,1024,1024,1024,1.6,-89.9,96,3.709,3.778,3.768,3.77,3.759,3.771,28.324,77,14,Waypoint,
36.7915914,-118.9555491,6604.5228363447,187.335964,0,1.79157814132,24800,2018-06-14 20:40:46,14,0,22.711,6604.5228363447,187.335964,0.4921268,2.16014114524,0,0,-0.671082,1.3, 4, -3.2,0,0,1024,1024,1024,1024,1.6,-90,96,3.709,3.778,3.768,3.77,3.759,3.771,28.324,77,14,Waypoint,
36.7915914,-118.9555491,6605.5070883447,188.320216,0,1.79157814132,24910,2018-06-14 20:40:46,14,0,22.711,6605.5070883447,188.320216,0.4921268,2.16014114524,0,0,-0.671082,1.2, 4.3, -3.7,0,0,1024,1024,1024,1024,1.6,-89.9,96,3.709,3.778,3.768,3.77,3.759,3.771,28.324,77,14,Waypoint,
36.7915915,-118.9555491,6606.4913403447,189.304468,0,1.8279856228,25000,2018-06-14 20:40:47,14,0,22.509,6606.4913403447,189.304468,0.4921268,2.16014114524,0,0,-0.671082,1.1, 4.6, -3.7,0,0,1024,1024,1024,1024,1.6,-89.9,96,3.706,3.788,3.764,3.749,3.754,3.746,27.009,77,14,Waypoint,
36.7915915,-118.9555491,6607.4755923447,190.28872,0,1.8279856228,25110,2018-06-14 20:40:47,14,0,22.509,6607.4755923447,190.28872,0.4921268,2.16014114524,0,0,-0.671082,1, 4.9, -3.3,0,0,1024,1024,1024,1024,1.6,-89.9,96,3.706,3.788,3.764,3.749,3.754,3.746,27.009,77,14,Waypoint,
36.7915915,-118.9555491,6608.4598443447,191.272972,0,1.8279856228,25200,2018-06-14 20:40:47,14,0,22.509,6608.4598443447,191.272972,0.4921268,2.16014114524,0,0,-0.671082,0.9, 5.1, -2.9,0,0,1024,1024,1024,1024,1.6,-89.9,96,3.706,3.788,3.764,3.749,3.754,3.746,27.009,77,14,Waypoint,
36.7915915,-118.9555492,6609.4440963447,192.257224,0,1.82635176448,25300,2018-06-14 20:40:47,14,0,22.509,6609.4440963447,192.257224,0.4921268,2.16014114524,0,0,-0.671082,0.8, 4.9, -2.6,0,0,1024,1024,1024,1024,1.6,-89.9,96,3.706,3.788,3.764,3.749,3.754,3.746,27.009,77,14,Waypoint,
36.7915915,-118.9555493,6610.4283483447,193.241476,0,1.82518378544,25410,2018-06-14 20:40:47,14,0,22.509,6610.4283483447,193.241476,0.4921268,2.16014114524,0,0,-0.671082,0.9, 4.6, -2.5,0,0,1024,1024,1024,1024,1.6,-89.9,96,3.706,3.788,3.764,3.749,3.754,3.746,27.009,77,14,Waypoint,
36.7915915,-118.9555494,6611.7406843447,194.553812,0,1.82448168568,25500,2018-06-14 20:40:47,14,0,22.509,6611.7406843447,194.553812,0.4921268,2.16014114524,0,0,-0.671082,1, 4.5, -2.3,0,0,1024,1024,1024,1024,1.6,-90,96,3.706,3.788,3.764,3.749,3.754,3.746,27.009,77,14,Waypoint,
36.7915914,-118.9555494,6612.7249363447,195.538064,0,1.78800202572,25610,2018-06-14 20:40:47,14,0,22.509,6612.7249363447,195.538064,0.4921268,2.16014114524,0,0,-0.671082,1.1, 4.4, -2.2,0,0,1024,1024,1024,1024,1.6,-89.9,96,3.706,3.788,3.764,3.749,3.754,3.746,27.009,77,14,Waypoint,
36.7915914,-118.9555495,6613.7091883447,196.522316,0,1.7877625244,25700,2018-06-14 20:40:47,14,0,22.509,6613.7091883447,196.522316,0.4921268,2.16014114524,0,0,-0.671082,1.2, 4.2, -2.2,0,0,1024,1024,1024,1024,1.6,-90,96,3.706,3.788,3.764,3.749,3.754,3.746,27.009,77,14,Waypoint,
36.7915913,-118.9555495,6614.6934403447,197.506568,0,1.75127630276,25800,2018-06-14 20:40:47,14,0,22.509,6614.6934403447,197.506568,0.4921268,2.16014114524,0,0,-0.671082,1.3, 4.1, -2.5,0,0,1024,1024,1024,1024,1.6,-90,96,3.706,3.788,3.764,3.749,3.754,3.746,27.009,77,14,Waypoint,
36.7915913,-118.9555495,6615.6776923447,198.49082,0,1.75127630276,25910,2018-06-14 20:40:47,14,0,22.509,6615.6776923447,198.49082,0.4921268,2.16014114524,0,0,-0.671082,1.4, 4, -2.8,0,0,1024,1024,1024,1024,1.6,-90,96,3.706,3.788,3.764,3.749,3.754,3.746,27.009,77,14,Waypoint,
36.7915912,-118.9555495,6616.6619443447,199.475072,0,1.71479336196,26000,2018-06-14 20:40:48,14,0,22.604,6616.6619443447,199.475072,0.4921268,2.16014114524,0,0,-0.671082,1.5, 3.7, -3.2,0,0,1024,1024,1024,1024,1.6,-90,96,3.73,3.815,3.79,3.785,3.778,3.787,25.132,78.8,14,Waypoint,
36.7915911,-118.9555495,6617.6461963447,200.459324,0,1.67830714032,26110,2018-06-14 20:40:48,14,0,22.604,6617.6461963447,200.459324,0.4921268,2.16014114524,0,0,-0.671082,1.5, 3.5, -3,0,0,1024,1024,1024,1024,1.6,-90,96,3.73,3.815,3.79,3.785,3.778,3.787,25.132,78.8,14,Waypoint,
36.7915911,-118.9555495,6618.6304483447,201.443576,0,1.67830714032,26300,2018-06-14 20:40:48,14,0,22.604,6618.6304483447,201.443576,0.4921268,2.16014114524,0,0,-0.671082,1.4, 3.4, -2.8,0,0,1024,1024,1024,1024,1.6,-89.9,96,3.73,3.815,3.79,3.785,3.778,3.787,25.132,78.8,14,Waypoint,
36.791591,-118.9555495,6619.6147003447,202.427828,0,1.64182091868,26400,2018-06-14 20:40:48,14,0,22.604,6619.6147003447,202.427828,0.4921268,2.16014114524,0,0,-0.671082,1.4, 3.5, -2.6,0,0,1024,1024,1024,1024,1.6,-90,96,3.73,3.815,3.79,3.785,3.778,3.787,25.132,78.8,14,Waypoint,
36.791591,-118.9555495,6620.5989523447,203.41208,0,1.64182091868,26500,2018-06-14 20:40:48,14,0,22.604,6620.5989523447,203.41208,0.4921268,2.16014114524,0,0,-0.671082,1.3, 3.5, -2.6,0,0,1024,1024,1024,1024,1.6,-90,96,3.73,3.815,3.79,3.785,3.778,3.787,25.132,78.8,14,Waypoint,
36.7915909,-118.9555495,6621.5832043447,204.396332,0,1.60533797788,26610,2018-06-14 20:40:48,14,0,22.604,6621.5832043447,204.396332,0.4921268,2.16014114524,0,0,-0.671082,1.2, 3.5, -2.4,0,0,1024,1024,1024,1024,1.6,-89.9,96,3.73,3.815,3.79,3.785,3.778,3.787,25.132,78.8,14,Waypoint,
