Latitude, Longitude, Altitude (m), Time, Sats, Speed (m/s), Range (m), Battery (%), Roll (deg), Pitch (deg), Yaw (deg), Images, HD Signal (%), RC Signal (%), Battery Temp (C), Battery Voltage (mV), Battery Current (mA), Battery Energy (mAh), Battery Capacity (mAh), Battery Discharges, flyState, timestamp (Unix), LastUpdate (ms), radioChannel, Rc_elevator, Rc_aileron, Rc_throttle, Rc_rudder, Rc_gyro, Dronetype, Battery_Cell1 (mV), Battery_Cell2 (mV), Battery_Cell3 (mV), Battery_Cell4 (mV), Battery_Cell5 (mV), Battery_Cell6 (mV), Video, isFlying, elapsedTime (ms), gimbalPitch (deg), gimbalRoll (deg), gimbalYaw (deg), VelocityX (m/s), VelocityY (m/s), VelocityZ (m/s), GroundSmear (cm), App Version, Aircraft Name, Aircraft Firmware, Aircraft Serial Number, Battery Serial Number, Battery Lifetime (%), App_Tip, App_Warning, CurrentFlightStartingIndex, CurrentFlightLastVisitedWaypoint, PreviousFlightEndingWaypointIndex
36.7915865, -118.9555495, 0.000, 13:40:24.686, 13, 0.10, 0.10, 98, 0.600, -0.800, 2.600, 377, 100, 100, 24, 25624, -3792, 5232, 5339, 19, 11, 1529008824.686, 78, 0, 1024, 1024, 1024, 1024, 0, 6, 4292, 4213, 4277, 4279, 4306, 4282, 0, 1, 3101, -89.900, 0.000, 1.400, 0.100, 0.000, 0.000, 0.0, MapPilot_2.8.1_04242018, Dendroctonus I, 1.3.1.00, 041DDC1887, 1058171200162, 96, DJI_0375.jpg, Starting Mission from Lat/Long: 36.79158/-118.95555 Camera: Zenmuse X3 - Overlap: 90/90 - Active Connection: No, 11, 11, 11
36.7915867, -118.9555495, 0.000, 13:40:24.786, 13, 0.10, 0.12, 98, 0.600, 0.000, 2.700, 377, 100, 100, 24, 25371, -4920, 5232, 5339, 19, 11, 1529008824.787, 82, 0, 1024, 1024, 1024, 1024, 0, 6, 4292, 4213, 4277, 4279, 4306, 4282, 0, 1, 3202, -89.900, 0.000, 1.400, 0.100, 0.000, -0.100, 0.0, , , , , , 96, , , 11, 11, 11
36.7915869, -118.9555494, 0.000, 13:40:24.886, 13, 0.20, 0.14, 98, 0.500, 0.500, 2.700, 377, 100, 100, 24, 25371, -4920, 5232, 5339, 19, 11, 1529008824.887, 85, 0, 1024, 1024, 1024, 1024, 0, 6, 4292, 4213, 4277, 4279, 4306, 4282, 0, 1, 3302, -89.900, 0.000, 1.500, 0.200, 0.000, -0.200, 0.0, , , , , , 96, , , 11, 11, 11
36.7915871, -118.9555493, 0.000, 13:40:24.986, 13, 0.22, 0.16, 98, 0.600, 0.800, 2.700, 377, 100, 100, 24, 25371, -4920, 5232, 5339, 19, 11, 1529008824.986, 78, 0, 1024, 1024, 1024, 1024, 0, 6, 4292, 4213, 4277, 4279, 4306, 4282, 0, 1, 3402, -89.900, 0.000, 1.500, 0.200, 0.100, -0.300, 0.0, , , , , , 96, , , 11, 11, 11
36.7915873, -118.9555492, 0.000, 13:40:25.086, 13, 0.14, 0.18, 98, 0.300, 1.500, 2.700, 377, 100, 100, 24, 25371, -4920, 5232, 5339, 19, 11, 1529008825.087, 78, 0, 1024, 1024, 1024, 1024, 0, 6, 4292, 4213, 4277, 4279, 4306, 4282, 0, 1, 3502, -89.900, 0.000, 1.500, 0.100, 0.100, -0.400, 0.0, , , , , , 96, , , 11, 11, 11
36.7915875, -118.9555492, 0.000, 13:40:25.187, 13, 0.14, 0.20, 98, -0.200, 1.800, 2.800, 377, 100, 100, 24, 25371, -4920, 5232, 5339, 19, 11, 1529008825.187, 81, 0, 1024, 1024, 1024, 1024, 0, 6, 4292, 4213, 4277, 4279, 4306, 4282, 0, 1, 3602, -89.900, 0.000, 1.500, 0.100, 0.100, -0.400, 0.0, , , , , , 96, , , 11, 11, 11
36.7915878, -118.9555490, 0.100, 13:40:25.287, 13, 0.10, 0.23, 98, -1.000, 1.700, 2.900, 377, 100, 100, 24, 25371, -4920, 5232, 5339, 19, 11, 1529008825.287, 85, 0, 1024, 1024, 1024, 1024, 0, 6, 4233, 4234, 4210, 4243, 4242, 4167, 0, 1, 3702, -90.000, 0.000, 1.500, 0.100, 0.000, -0.300, 0.0, , , , , , 96, , , 11, 11, 11
36.7915879, -118.9555489, 0.100, 13:40:25.387, 13, 0.10, 0.25, 98, -1.100, 1.500, 3.000, 377, 100, 100, 24, 25371, -4920, 5232, 5339, 19, 11, 1529008825.387, 74, 0, 1024, 1024, 1024, 1024, 0, 6, 4233, 4234, 4210, 4243, 4242, 4167, 0, 1, 3802, -89.900, 0.000, 1.500, 0.100, 0.000, -0.300, 0.0, , , , , , 96, , , 11, 11, 11
36.7915880, -118.9555488, 0.200, 13:40:25.487, 13, 0.10, 0.26, 98, -0.900, 1.000, 3.100, 377, 100, 100, 24, 25371, -4920, 5232, 5339, 19, 11, 1529008825.487, 52, 0, 1024, 1024, 1024, 1024, 0, 6, 4233, 4234, 4210, 4243, 4242, 4167, 0, 1, 3902, -90.000, 0.000, 1.600, 0.100, 0.000, -0.300, 0.0, , , , , , 96, , , 11, 11, 11
36.7915882, -118.9555488, 0.200, 13:40:25.587, 13, 0.10, 0.28, 98, -0.800, 0.900, 3.100, 377, 100, 100, 24, 25371, -4920, 5232, 5339, 19, 11, 1529008825.587, 27, 0, 1024, 1024, 1024, 1024, 0, 6, 4233, 4234, 4210, 4243, 4242, 4167, 0, 1, 4002, -89.900, 0.000, 1.600, 0.100, 0.000, -0.400, 0.0, , , , , , 96, , , 11, 11, 11
36.7915883, -118.9555488, 0.300, 13:40:25.687, 13, 0.10, 0.29, 98, -0.700, 1.000, 3.000, 377, 100, 100, 24, 25371, -4920, 5232, 5339, 19, 11, 1529008825.687, 65, 0, 1024, 1024, 1024, 1024, 0, 6, 4233, 4234, 4210, 4243, 4242, 4167, 0, 1, 4102, -89.900, 0.000, 1.600, 0.100, 0.000, -0.400, 0.0, , , , , , 96, , , 11, 11, 11
36.7915884, -118.9555488, 0.300, 13:40:25.787, 13, 0.10, 0.30, 98, -0.500, 1.100, 3.100, 377, 100, 100, 24, 25371, -4920, 5232, 5339, 19, 11, 1529008825.787, 64, 0, 1024, 1024, 1024, 1024, 0, 6, 4233, 4234, 4210, 4243, 4242, 4167, 0, 1, 4202, -89.900, 0.000, 1.600, 0.100, 0.000, -0.500, 0.0, , , , , , 96, , , 11, 11, 11
36.7915886, -118.9555488, 0.400, 13:40:25.887, 13, 0.10, 0.32, 98, -0.400, 1.300, 3.200, 377, 100, 100, 24, 25371, -4920, 5232, 5339, 19, 11, 1529008825.887, 32, 0, 1024, 1024, 1024, 1024, 0, 6, 4233, 4234, 4210, 4243, 4242, 4167, 0, 1, 4302, -89.900, 0.000, 1.600, 0.100, 0.000, -0.500, 0.0, , , , , , 96, , , 11, 11, 11
36.7915888, -118.9555489, 0.400, 13:40:25.987, 13, 0.10, 0.34, 98, -0.200, 1.500, 3.300, 377, 100, 100, 24, 25371, -4920, 5232, 5339, 19, 11, 1529008825.987, 48, 0, 1024, 1024, 1024, 1024, 0, 6, 4233, 4234, 4210, 4243, 4242, 4167, 0, 1, 4402, -89.900, 0.000, 1.600, 0.100, 0.000, -0.400, 0.0, , , , , , 96, , , 11, 11, 11
36.7915890, -118.9555489, 0.500, 13:40:26.087, 13, 0.10, 0.36, 98, -0.100, 1.800, 3.500, 377, 100, 100, 24, 25371, -4920, 5232, 5339, 19, 11, 1529008826.087, 40, 0, 1024, 1024, 1024, 1024, 0, 6, 4233, 4234, 4210, 4243, 4242, 4167, 0, 1, 4502, -89.900, 0.000, 1.600, 0.100, 0.000, -0.400, 0.0, , , , , , 96, , , 11, 11, 11
36.7915891, -118.9555490, 0.500, 13:40:26.187, 13, 0.10, 0.38, 98, 0.000, 2.200, 3.500, 377, 100, 100, 24, 24418, -13771, 5232, 5339, 19, 11, 1529008826.187, 30, 0, 1024, 1024, 1024, 1024, 0, 6, 4045, 4100, 4065, 4055, 4081, 4063, 0, 1, 4602, -89.900, 0.000, 1.600, 0.100, 0.000, -0.500, 0.0, , , , , , 96, , , 11, 11, 11
36.7915892, -118.9555490, 0.600, 13:40:26.287, 13, 0.10, 0.39, 98, 0.200, 2.600, 3.400, 377, 100, 100, 24, 24418, -13771, 5232, 5339, 19, 11, 1529008826.287, 45, 0, 1024, 1024, 1024, 1024, 0, 6, 4045, 4100, 4065, 4055, 4081, 4063, 0, 1, 4702, -89.900, 0.000, 1.600, 0.100, 0.000, -0.400, 0.0, , , , , , 96, , , 11, 11, 11
36.7915894, -118.9555490, 0.600, 13:40:26.387, 12, 0.00, 0.41, 98, 0.400, 2.800, 3.100, 377, 100, 100, 24, 24418, -13771, 5232, 5339, 19, 11, 1529008826.388, 12, 0, 1024, 1024, 1024, 1024, 0, 6, 4045, 4100, 4065, 4055, 4081, 4063, 0, 1, 4803, -89.900, 0.000, 1.600, 0.000, 0.000, -0.500, 0.0, , , , , , 96, , , 11, 11, 11
36.7915894, -118.9555490, 0.700, 13:40:26.487, 12, 0.00, 0.42, 98, 0.400, 2.900, 2.800, 377, 100, 100, 24, 24418, -13771, 5232, 5339, 19, 11, 1529008826.487, 23, 0, 1024, 1024, 1024, 1024, 0, 6, 4045, 4100, 4065, 4055, 4081, 4063, 0, 1, 4902, -90.000, 0.000, 1.600, 0.000, 0.000, -0.500, 0.0, , , , , , 96, , , 11, 11, 11
36.7915895, -118.9555490, 0.700, 13:40:26.587, 13, 0.00, 0.43, 98, 0.300, 2.900, 2.500, 377, 100, 100, 24, 24418, -13771, 5232, 5339, 19, 11, 1529008826.587, 12, 0, 1024, 1024, 1024, 1024, 0, 6, 4045, 4100, 4065, 4055, 4081, 4063, 0, 1, 5002, -89.900, 0.000, 1.600, 0.000, 0.000, -0.500, 0.0, , , , , , 96, , , 11, 11, 11
36.7915897, -118.9555491, 0.800, 13:40:26.687, 13, 0.00, 0.44, 98, 0.100, 2.900, 2.200, 377, 100, 100, 24, 24418, -13771, 5232, 5339, 19, 11, 1529008826.687, 17, 0, 1024, 1024, 1024, 1024, 0, 6, 4045, 4100, 4065, 4055, 4081, 4063, 0, 1, 5102, -90.000, 0.000, 1.600, 0.000, 0.000, -0.400, 0.0, , , , , , 96, , , 11, 11, 11
36.7915898, -118.9555491, 0.800, 13:40:26.787, 13, 0.00, 0.45, 98, 0.000, 3.000, 1.900, 377, 100, 100, 24, 24418, -13771, 5232, 5339, 19, 11, 1529008826.787, 7, 0, 1024, 1024, 1024, 1024, 0, 6, 4045, 4100, 4065, 4055, 4081, 4063, 0, 1, 5202, -89.900, 0.000, 1.600, 0.000, 0.000, -0.400, 0.0, , , , , , 96, , , 11, 11, 11
36.7915898, -118.9555491, 0.900, 13:40:26.887, 13, 0.00, 0.46, 98, 0.100, 3.000, 1.800, 377, 100, 100, 24, 24418, -13771, 5232, 5339, 19, 14, 1529008826.887, 12, 0, 1024, 1024, 1024, 1024, 0, 6, 4045, 4100, 4065, 4055, 4081, 4063, 0, 1, 5302, -89.900, 0.000, 1.600, 0.000, 0.000, -0.400, 0.0, , , , , , 96, , , 11, 11, 11
36.7915898, -118.9555492, 0.900, 13:40:26.990, 13, 0.00, 0.46, 98, 0.300, 2.800, 1.600, 377, 100, 100, 24, 24418, -13771, 5232, 5339, 19, 14, 1529008826.990, 2, 0, 1024, 1024, 1024, 1024, 0, 6, 4045, 4100, 4065, 4055, 4081, 4063, 0, 1, 5405, -90.000, 0.000, 1.600, 0.000, 0.000, -0.300, 0.0, , , , , , 96, , , 11, 11, 11
36.7915898, -118.9555492, 0.900, 13:40:27.087, 13, 0.00, 0.46, 98, 0.300, 2.800, 1.600, 377, 100, 100, 24, 24418, -13771, 5232, 5339, 19, 14, 1529008827.087, 100, 0, 1024, 1024, 1024, 1024, 0, 6, 4045, 4100, 4065, 4055, 4081, 4063, 0, 1, 5502, -90.000, 0.000, 1.600, 0.000, 0.000, -0.300, 0.0, , , , , , 96, , , 11, 11, 11
36.7915898, -118.9555492, 1.000, 13:40:27.187, 13, 0.00, 0.45, 98, 0.200, 1.100, 1.300, 377, 100, 100, 24, 24418, -13771, 5232, 5339, 19, 14, 1529008827.187, 87, 0, 1024, 1024, 1024, 1024, 0, 6, 4045, 4100, 4065, 4055, 4081, 4063, 0, 1, 5603, -90.000, 0.000, 1.600, 0.000, 0.000, -0.300, 0.0, , , , , , 96, , , 11, 11, 11
36.7915897, -118.9555492, 1.000, 13:40:27.287, 13, 0.00, 0.45, 98, 0.000, 0.100, 1.200, 377, 100, 100, 24, 24232, -16876, 5232, 5339, 19, 14, 1529008827.287, 88, 0, 1024, 1024, 1024, 1024, 0, 6, 4020, 4049, 4036, 4039, 4036, 4035, 0, 1, 5702, -90.000, 0.000, 1.600, 0.000, 0.000, -0.200, 0.0, , , , , , 96, , , 11, 11, 11
36.7915896, -118.9555492, 1.000, 13:40:27.387, 13, 0.00, 0.44, 98, -0.100, -0.100, 1.100, 377, 100, 100, 24, 24232, -16876, 5232, 5339, 19, 14, 1529008827.387, 69, 0, 1024, 1024, 1024, 1024, 0, 6, 4020, 4049, 4036, 4039, 4036, 4035, 0, 1, 5803, -90.000, 0.000, 1.600, 0.000, 0.000, -0.300, 0.0, , , , , , 96, , , 11, 11, 11
36.7915897, -118.9555492, 1.100, 13:40:27.487, 12, 0.00, 0.45, 98, -0.400, 0.500, 1.000, 377, 100, 100, 24, 24232, -16876, 5232, 5339, 19, 14, 1529008827.487, 81, 0, 1024, 1024, 1024, 1024, 0, 6, 4020, 4049, 4036, 4039, 4036, 4035, 0, 1, 5903, -90.000, 0.000, 1.600, 0.000, 0.000, -0.600, 0.0, , , , , , 96, , , 11, 11, 11
36.7915897, -118.9555492, 1.100, 13:40:27.586, 12, 0.00, 0.45, 98, -0.400, 0.500, 1.000, 377, 100, 100, 24, 24232, -16876, 5232, 5339, 19, 14, 1529008827.587, 180, 0, 1024, 1024, 1024, 1024, 0, 6, 4020, 4049, 4036, 4039, 4036, 4035, 0, 1, 6002, -90.000, 0.000, 1.600, 0.000, 0.000, -0.600, 0.0, , , , , , 96, , , 11, 11, 11
36.7915899, -118.9555493, 1.300, 13:40:27.687, 13, 0.00, 0.47, 98, -0.600, 1.600, 0.900, 377, 100, 100, 24, 24232, -16876, 5232, 5339, 19, 14, 1529008827.688, 23, 0, 1024, 1024, 1024, 1024, 0, 6, 4020, 4049, 4036, 4039, 4036, 4035, 0, 1, 6103, -89.900, 0.000, 1.600, 0.000, 0.000, -0.800, 0.0, , , , , , 96, , , 11, 11, 11
36.7915899, -118.9555493, 1.400, 13:40:27.787, 13, 0.00, 0.47, 98, -0.300, 1.800, 0.900, 377, 100, 100, 24, 24232, -16876, 5232, 5339, 19, 14, 1529008827.787, 64, 0, 1024, 1024, 1024, 1024, 0, 6, 4020, 4049, 4036, 4039, 4036, 4035, 0, 1, 6203, -89.900, 0.000, 1.600, 0.000, 0.000, -1.100, 0.0, , , , , , 96, , , 11, 11, 11
36.7915900, -118.9555494, 1.500, 13:40:27.887, 13, 0.00, 0.48, 98, 0.000, 1.900, 0.800, 377, 100, 100, 24, 24232, -16876, 5232, 5339, 19, 14, 1529008827.888, 42, 0, 1024, 1024, 1024, 1024, 0, 6, 4020, 4049, 4036, 4039, 4036, 4035, 0, 1, 6303, -89.900, 0.000, 1.600, 0.000, 0.000, -1.300, 0.0, , , , , , 96, , , 11, 11, 11
36.7915900, -118.9555495, 1.600, 13:40:27.987, 12, 0.00, 0.48, 98, -0.100, 1.900, 0.700, 377, 100, 100, 24, 24232, -16876, 5232, 5339, 19, 14, 1529008827.988, 54, 0, 1024, 1024, 1024, 1024, 0, 6, 4020, 4049, 4036, 4039, 4036, 4035, 0, 1, 6403, -89.900, 0.000, 1.600, 0.000, 0.000, -1.500, 0.0, , , , , , 96, , , 11, 11, 11
36.7915900, -118.9555495, 1.800, 13:40:28.087, 12, 0.00, 0.48, 98, -0.400, 1.700, 0.800, 377, 100, 100, 24, 24232, -16876, 5232, 5339, 19, 14, 1529008828.087, 55, 0, 1024, 1024, 1024, 1024, 0, 6, 4020, 4049, 4036, 4039, 4036, 4035, 0, 1, 6503, -90.000, 0.000, 1.600, 0.000, 0.000, -1.600, 0.0, , , , , , 96, , , 11, 11, 11
36.7915900, -118.9555495, 2.000, 13:40:28.187, 13, 0.00, 0.48, 98, -0.400, 1.400, 0.900, 377, 100, 100, 24, 24232, -16876, 5232, 5339, 19, 14, 1529008828.188, 49, 0, 1024, 1024, 1024, 1024, 0, 6, 4020, 4049, 4036, 4039, 4036, 4035, 0, 1, 6603, -90.000, 0.000, 1.600, 0.000, 0.000, -1.800, 0.0, , , , , , 96, , , 11, 11, 11
36.7915899, -118.9555496, 2.200, 13:40:28.287, 13, 0.00, 0.47, 98, -0.300, 1.100, 1.100, 377, 100, 100, 24, 24144, -16998, 5232, 5339, 19, 14, 1529008828.288, 21, 0, 1024, 1024, 1024, 1024, 0, 6, 4000, 4056, 4049, 4082, 4036, 4060, 0, 1, 6703, -90.000, 0.000, 1.600, 0.000, 0.000, -2.200, 0.0, , , , , , 96, , , 11, 11, 11
36.7915898, -118.9555496, 2.400, 13:40:28.387, 12, 0.00, 0.46, 98, -0.300, 0.800, 1.300, 377, 100, 100, 24, 24144, -16998, 5232, 5339, 19, 14, 1529008828.388, 20, 0, 1024, 1024, 1024, 1024, 0, 6, 4000, 4056, 4049, 4082, 4036, 4060, 0, 1, 6803, -90.000, 0.000, 1.600, 0.000, 0.000, -2.500, 0.0, , , , , , 96, , , 11, 11, 11
36.7915897, -118.9555495, 2.700, 13:40:28.487, 12, 0.00, 0.45, 98, -0.600, 0.600, 1.300, 377, 100, 100, 24, 24144, -16998, 5232, 5339, 19, 14, 1529008828.488, 33, 0, 1024, 1024, 1024, 1024, 0, 6, 4000, 4056, 4049, 4082, 4036, 4060, 0, 1, 6903, -90.000, 0.000, 1.600, 0.000, 0.000, -2.600, 0.0, , , , , , 96, , , 11, 11, 11
36.7915896, -118.9555494, 3.000, 13:40:28.587, 12, 0.00, 0.44, 98, -1.100, 0.500, 1.300, 377, 100, 100, 24, 24144, -16998, 5232, 5339, 19, 14, 1529008828.588, 33, 0, 1024, 1024, 1024, 1024, 0, 6, 4000, 4056, 4049, 4082, 4036, 4060, 0, 1, 7003, -90.000, 0.000, 1.600, 0.000, 0.000, -2.900, 0.0, , , , , , 96, , , 11, 11, 11
36.7915896, -118.9555495, 3.300, 13:40:28.687, 12, 0.00, 0.43, 98, -0.800, 0.400, 1.300, 377, 100, 100, 24, 24144, -16998, 5232, 5339, 19, 14, 1529008828.688, 20, 0, 1024, 1024, 1024, 1024, 0, 6, 4000, 4056, 4049, 4082, 4036, 4060, 0, 1, 7103, -90.000, 0.000, 1.600, 0.000, 0.000, -3.000, 0.0, , , , , , 96, , , 11, 11, 11
36.7915895, -118.9555495, 3.600, 13:40:28.787, 13, 0.00, 0.42, 98, -0.400, 0.200, 1.300, 377, 100, 100, 24, 24144, -16998, 5232, 5339, 19, 14, 1529008828.788, 23, 0, 1024, 1024, 1024, 1024, 0, 6, 4000, 4056, 4049, 4082, 4036, 4060, 0, 1, 7203, -90.000, 0.000, 1.600, 0.000, 0.000, -3.000, 0.0, , , , , , 96, , , 11, 11, 11
36.7915895, -118.9555495, 3.600, 13:40:28.887, 13, 0.00, 0.42, 98, -0.400, 0.200, 1.300, 377, 100, 100, 24, 24144, -16998, 5232, 5339, 19, 14, 1529008828.888, 123, 0, 1024, 1024, 1024, 1024, 0, 6, 4000, 4056, 4049, 4082, 4036, 4060, 0, 1, 7303, -90.000, 0.000, 1.600, 0.000, 0.000, -3.000, 0.0, , , , , , 96, , , 11, 11, 11
36.7915893, -118.9555496, 4.300, 13:40:28.988, 13, 0.00, 0.40, 98, 0.100, 0.400, 1.500, 377, 100, 100, 24, 24144, -16998, 5232, 5339, 19, 14, 1529008828.988, 7, 0, 1024, 1024, 1024, 1024, 0, 6, 4000, 4056, 4049, 4082, 4036, 4060, 0, 1, 7403, -90.000, 0.000, 1.600, 0.000, 0.000, -3.100, 0.0, , , , , , 96, , , 11, 11, 11
36.7915893, -118.9555496, 4.300, 13:40:29.087, 13, 0.00, 0.40, 98, 0.100, 0.400, 1.500, 377, 100, 100, 24, 24144, -16998, 5232, 5339, 19, 14, 1529008829.088, 107, 0, 1024, 1024, 1024, 1024, 0, 6, 4000, 4056, 4049, 4082, 4036, 4060, 0, 1, 7503, -90.000, 0.000, 1.600, 0.000, 0.000, -3.100, 0.0, , , , , , 96, , , 11, 11, 11
36.7915892, -118.9555497, 4.600, 13:40:29.188, 13, 0.00, 0.39, 98, 0.300, 0.400, 1.600, 377, 100, 100, 24, 24144, -16998, 5232, 5339, 19, 14, 1529008829.188, 90, 0, 1024, 1024, 1024, 1024, 0, 6, 4000, 4056, 4049, 4082, 4036, 4060, 0, 1, 7603, -90.000, 0.000, 1.600, 0.000, 0.000, -3.100, 0.0, , , , , , 96, , , 11, 11, 11
36.7915891, -118.9555497, 4.900, 13:40:29.288, 13, 0.00, 0.38, 98, 0.400, 0.300, 1.600, 377, 100, 100, 24, 23612, -23129, 5232, 5339, 19, 14, 1529008829.288, 95, 0, 1024, 1024, 1024, 1024, 0, 6, 3916, 3941, 3947, 3909, 3909, 3911, 0, 1, 7703, -90.000, 0.000, 1.600, 0.000, 0.000, -3.200, 0.0, , , , , , 96, , , 11, 11, 11
36.7915890, -118.9555496, 5.200, 13:40:29.388, 13, 0.00, 0.37, 98, 0.100, 0.300, 1.700, 377, 100, 100, 24, 23612, -23129, 5232, 5339, 19, 14, 1529008829.388, 88, 0, 1024, 1024, 1024, 1024, 0, 6, 3916, 3941, 3947, 3909, 3909, 3911, 0, 1, 7803, -90.000, 0.000, 1.600, 0.000, 0.000, -3.100, 0.0, , , , , , 96, , , 11, 11, 11
36.7915889, -118.9555496, 5.600, 13:40:29.488, 13, 0.00, 0.36, 98, -0.100, 0.200, 1.900, 377, 100, 100, 24, 23612, -23129, 5232, 5339, 19, 14, 1529008829.488, 78, 0, 1024, 1024, 1024, 1024, 0, 6, 3916, 3941, 3947, 3909, 3909, 3911, 0, 1, 7903, -90.000, 0.000, 1.600, 0.000, 0.000, -3.200, 0.0, , , , , , 96, , , 11, 11, 11
36.7915889, -118.9555495, 5.900, 13:40:29.588, 13, 0.00, 0.35, 98, -0.300, 0.000, 1.900, 377, 100, 100, 24, 23612, -23129, 5232, 5339, 19, 14, 1529008829.588, 81, 0, 1024, 1024, 1024, 1024, 0, 6, 3916, 3941, 3947, 3909, 3909, 3911, 0, 1, 8003, -90.000, 0.000, 1.600, 0.000, 0.000, -3.300, 0.0, , , , , , 96, , , 11, 11, 11
36.7915888, -118.9555494, 6.300, 13:40:29.688, 13, 0.00, 0.35, 98, -0.500, -0.100, 1.900, 377, 100, 100, 24, 23612, -23129, 5232, 5339, 19, 14, 1529008829.688, 73, 0, 1024, 1024, 1024, 1024, 0, 6, 3916, 3941, 3947, 3909, 3909, 3911, 0, 1, 8103, -90.000, 0.000, 1.600, 0.000, 0.000, -3.300, 0.0, , , , , , 96, , , 11, 11, 11
36.7915888, -118.9555494, 6.600, 13:40:29.788, 13, 0.00, 0.35, 98, -0.500, -0.200, 1.800, 377, 100, 100, 24, 23612, -23129, 5232, 5339, 19, 14, 1529008829.788, 61, 0, 1024, 1024, 1024, 1024, 0, 6, 3916, 3941, 3947, 3909, 3909, 3911, 0, 1, 8203, -90.000, 0.000, 1.600, 0.000, 0.000, -3.300, 0.0, , , , , , 96, , , 11, 11, 11
36.7915888, -118.9555495, 7.300, 13:40:29.888, 13, 0.00, 0.35, 98, -0.100, 0.000, 1.500, 377, 100, 100, 24, 23612, -23129, 5232, 5339, 19, 14, 1529008829.888, 62, 0, 1024, 1024, 1024, 1024, 0, 6, 3916, 3941, 3947, 3909, 3909, 3911, 0, 1, 8303, -90.000, 0.000, 1.600, 0.000, 0.000, -3.300, 0.0, , , , , , 96, , , 11, 11, 11
36.7915889, -118.9555495, 7.600, 13:40:29.988, 13, 0.00, 0.36, 98, 0.200, 0.200, 1.400, 377, 100, 100, 24, 23612, -23129, 5232, 5339, 19, 14, 1529008829.988, 67, 0, 1024, 1024, 1024, 1024, 0, 6, 3916, 3941, 3947, 3909, 3909, 3911, 0, 1, 8403, -90.000, 0.000, 1.600, 0.000, 0.000, -3.200, 0.0, , , , , , 96, , , 11, 11, 11
36.7915889, -118.9555495, 8.000, 13:40:30.088, 13, 0.00, 0.36, 98, 0.300, 0.400, 1.400, 377, 100, 100, 24, 23612, -23129, 5232, 5339, 19, 14, 1529008830.088, 57, 0, 1024, 1024, 1024, 1024, 0, 6, 3916, 3941, 3947, 3909, 3909, 3911, 0, 1, 8503, -90.000, 0.000, 1.600, 0.000, 0.000, -3.100, 0.0, , , , , , 96, , , 11, 11, 11
36.7915890, -118.9555495, 8.300, 13:40:30.188, 13, 0.00, 0.37, 98, 0.300, 0.400, 1.400, 377, 100, 100, 24, 23612, -23129, 5232, 5339, 19, 14, 1529008830.188, 63, 0, 1024, 1024, 1024, 1024, 0, 6, 3916, 3941, 3947, 3909, 3909, 3911, 0, 1, 8603, -90.000, 0.000, 1.600, 0.000, 0.000, -3.100, 0.0, , , , , , 96, , , 11, 11, 11
36.7915891, -118.9555496, 8.600, 13:40:30.288, 13, 0.00, 0.38, 98, 0.100, 0.300, 1.400, 377, 100, 100, 24, 23488, -23957, 5232, 5339, 19, 14, 1529008830.288, 31, 0, 1024, 1024, 1024, 1024, 0, 6, 3916, 3941, 3947, 3909, 3909, 3911, 0, 1, 8703, -90.000, 0.000, 1.600, 0.000, 0.000, -3.100, 0.0, , , , , , 96, , , 11, 11, 11
36.7915891, -118.9555497, 9.000, 13:40:30.388, 13, 0.00, 0.39, 98, 0.200, 0.400, 1.400, 377, 100, 100, 24, 23488, -23957, 5232, 5339, 19, 14, 1529008830.388, 33, 0, 1024, 1024, 1024, 1024, 0, 6, 3916, 3941, 3947, 3909, 3909, 3911, 0, 1, 8803, -90.000, 0.000, 1.600, 0.000, 0.000, -3.200, 0.0, , , , , , 96, , , 11, 11, 11
36.7915892, -118.9555500, 9.300, 13:40:30.488, 13, 0.00, 0.40, 98, 0.500, 0.600, 1.300, 377, 100, 100, 24, 23488, -23957, 5232, 5339, 19, 14, 1529008830.488, 28, 0, 1024, 1024, 1024, 1024, 0, 6, 3916, 3941, 3947, 3909, 3909, 3911, 0, 1, 8903, -90.000, 0.000, 1.600, 0.000, 0.000, -3.100, 0.0, , , , , , 96, , , 11, 11, 11
36.7915893, -118.9555502, 9.600, 13:40:30.588, 13, 0.00, 0.41, 98, 0.800, 0.900, 1.200, 377, 100, 100, 24, 23488, -23957, 5232, 5339, 19, 14, 1529008830.588, 30, 0, 1024, 1024, 1024, 1024, 0, 6, 3916, 3941, 3947, 3909, 3909, 3911, 0, 1, 9003, -90.000, 0.000, 1.600, 0.000, 0.000, -3.100, 0.0, , , , , , 96, , , 11, 11, 11
36.7915894, -118.9555502, 10.000, 13:40:30.688, 13, 0.00, 0.42, 98, 0.900, 1.100, 1.100, 377, 100, 100, 24, 23488, -23957, 5232, 5339, 19, 14, 1529008830.688, 23, 0, 1024, 1024, 1024, 1024, 0, 6, 3889, 3941, 3943, 3923, 3931, 3941, 0, 1, 9103, -89.900, 0.000, 1.600, 0.000, 0.000, -3.100, 0.0, , , , , , 96, , , 11, 11, 11
36.7915895, -118.9555503, 10.300, 13:40:30.788, 12, 0.00, 0.44, 98, 1.100, 1.000, 1.100, 377, 100, 100, 24, 23488, -23957, 5232, 5339, 19, 14, 1529008830.788, 15, 0, 1024, 1024, 1024, 1024, 0, 6, 3889, 3941, 3943, 3923, 3931, 3941, 0, 1, 9203, -90.000, 0.000, 1.600, 0.000, 0.000, -3.100, 0.0, , , , , , 96, , , 11, 11, 11
36.7915895, -118.9555503, 10.300, 13:40:30.888, 12, 0.00, 0.44, 98, 1.100, 1.000, 1.100, 377, 100, 100, 24, 23488, -23957, 5232, 5339, 19, 14, 1529008830.888, 115, 0, 1024, 1024, 1024, 1024, 0, 6, 3889, 3941, 3943, 3923, 3931, 3941, 0, 1, 9303, -90.000, 0.000, 1.600, 0.000, 0.000, -3.100, 0.0, , , , , , 96, , , 11, 11, 11
36.7915896, -118.9555504, 10.600, 13:40:30.988, 12, 0.00, 0.45, 98, 1.000, 0.900, 1.100, 377, 100, 100, 24, 23488, -23957, 5232, 5339, 19, 14, 1529008830.988, 96, 0, 1024, 1024, 1024, 1024, 0, 6, 3889, 3941, 3943, 3923, 3931, 3941, 0, 1, 9403, -90.000, 0.000, 1.600, 0.000, 0.000, -3.000, 0.0, , , , , , 96, , , 11, 11, 11
36.7915898, -118.9555504, 10.900, 13:40:31.088, 13, 0.00, 0.47, 98, 1.000, 1.000, 1.200, 377, 100, 100, 24, 23488, -23957, 5232, 5339, 19, 14, 1529008831.088, 84, 0, 1024, 1024, 1024, 1024, 0, 6, 3889, 3941, 3943, 3923, 3931, 3941, 0, 1, 9503, -89.900, 0.000, 1.600, 0.000, 0.000, -3.000, 0.0, , , , , , 96, , , 11, 11, 11
36.7915899, -118.9555505, 11.200, 13:40:31.188, 13, 0.00, 0.48, 98, 0.800, 1.200, 1.300, 377, 100, 100, 24, 23488, -23957, 5232, 5339, 19, 14, 1529008831.188, 90, 0, 1024, 1024, 1024, 1024, 0, 6, 3889, 3941, 3943, 3923, 3931, 3941, 0, 1, 9603, -89.900, 0.000, 1.600, 0.000, 0.000, -2.900, 0.0, , , , , , 96, , , 11, 11, 11
36.7915900, -118.9555505, 11.600, 13:40:31.288, 12, 0.00, 0.49, 98, 0.600, 1.200, 1.300, 377, 100, 100, 24, 23488, -23957, 5232, 5339, 19, 14, 1529008831.288, 78, 0, 1024, 1024, 1024, 1024, 0, 6, 3889, 3941, 3943, 3923, 3931, 3941, 0, 1, 9703, -89.900, 0.000, 1.600, 0.000, 0.000, -2.900, 0.0, , , , , , 96, , , 11, 11, 11
36.7915901, -118.9555505, 11.900, 13:40:31.388, 12, 0.00, 0.50, 98, 0.300, 1.300, 1.300, 377, 100, 100, 24, 23488, -23957, 5232, 5339, 19, 14, 1529008831.388, 85, 0, 1024, 1024, 1024, 1024, 0, 6, 3889, 3941, 3943, 3923, 3931, 3941, 0, 1, 9803, -89.900, 0.000, 1.600, 0.000, 0.000, -2.900, 0.0, , , , , , 96, , , 11, 11, 11
36.7915901, -118.9555504, 12.200, 13:40:31.488, 13, 0.00, 0.51, 98, 0.100, 1.300, 1.300, 377, 100, 100, 24, 23488, -23957, 5232, 5339, 19, 14, 1529008831.488, 86, 0, 1024, 1024, 1024, 1024, 0, 6, 3889, 3941, 3943, 3923, 3931, 3941, 0, 1, 9903, -89.900, 0.000, 1.600, 0.000, 0.000, -2.900, 0.0, , , , , , 96, , , 11, 11, 11
36.7915902, -118.9555503, 12.500, 13:40:31.588, 13, 0.00, 0.51, 98, -0.100, 1.300, 1.300, 377, 100, 100, 24, 23488, -23957, 5232, 5339, 19, 14, 1529008831.588, 67, 0, 1024, 1024, 1024, 1024, 0, 6, 3889, 3941, 3943, 3923, 3931, 3941, 0, 1, 10003, -89.900, 0.000, 1.600, 0.000, 0.000, -2.900, 0.0, , , , , , 96, , , 11, 11, 11
36.7915903, -118.9555502, 12.800, 13:40:31.688, 13, 0.10, 0.52, 98, -0.500, 1.500, 1.300, 377, 100, 100, 24, 23488, -23957, 5232, 5339, 19, 14, 1529008831.688, 82, 0, 1024, 1024, 1024, 1024, 0, 6, 3889, 3941, 3943, 3923, 3931, 3941, 0, 1, 10104, -89.900, 0.000, 1.600, 0.000, 0.100, -2.900, 0.0, , , , , , 96, , , 11, 11, 11
36.7915903, -118.9555502, 13.100, 13:40:31.788, 13, 0.00, 0.52, 98, -0.800, 1.600, 1.300, 377, 100, 100, 24, 23826, -18288, 5232, 5339, 19, 14, 1529008831.788, 41, 0, 1024, 1024, 1024, 1024, 0, 6, 3954, 3993, 3978, 3979, 3976, 3967, 0, 1, 10203, -89.900, 0.000, 1.600, 0.000, 0.000, -2.900, 0.0, , , , , , 96, , , 11, 11, 11
36.7915903, -118.9555501, 13.700, 13:40:31.888, 13, 0.00, 0.52, 98, -0.400, 1.100, 1.300, 377, 100, 100, 24, 23826, -18288, 5232, 5339, 19, 14, 1529008831.888, 53, 0, 1024, 1024, 1024, 1024, 0, 6, 3954, 3993, 3978, 3979, 3976, 3967, 0, 1, 10304, -90.000, 0.000, 1.600, 0.000, 0.000, -2.800, 0.0, , , , , , 96, , , 11, 11, 11
36.7915904, -118.9555500, 14.000, 13:40:31.988, 12, 0.10, 0.52, 98, -0.300, 1.000, 1.300, 377, 100, 100, 24, 23826, -18288, 5232, 5339, 19, 14, 1529008831.988, 58, 0, 1024, 1024, 1024, 1024, 0, 6, 3954, 3993, 3978, 3979, 3976, 3967, 0, 1, 10403, -90.000, 0.000, 1.600, 0.000, 0.100, -2.800, 0.0, , , , , , 96, , , 11, 11, 11
36.7915904, -118.9555499, 14.300, 13:40:32.088, 12, 0.10, 0.53, 98, -0.600, 0.900, 1.300, 377, 100, 100, 24, 23826, -18288, 5232, 5339, 19, 14, 1529008832.088, 74, 0, 1024, 1024, 1024, 1024, 0, 6, 3954, 3993, 3978, 3979, 3976, 3967, 0, 1, 10503, -90.000, 0.000, 1.600, 0.000, 0.100, -2.900, 0.0, , , , , , 96, , , 11, 11, 11
36.7915904, -118.9555499, 14.600, 13:40:32.188, 12, 0.00, 0.53, 98, -0.900, 1.100, 1.400, 377, 100, 100, 24, 23826, -18288, 5232, 5339, 19, 14, 1529008832.188, 53, 0, 1024, 1024, 1024, 1024, 0, 6, 3954, 3993, 3978, 3979, 3976, 3967, 0, 1, 10604, -89.900, 0.000, 1.600, 0.000, 0.000, -2.900, 0.0, , , , , , 96, , , 11, 11, 11
36.7915905, -118.9555498, 14.900, 13:40:32.288, 12, 0.00, 0.54, 98, -1.100, 1.300, 1.500, 377, 100, 100, 24, 23826, -18288, 5232, 5339, 19, 14, 1529008832.288, 22, 0, 1024, 1024, 1024, 1024, 0, 6, 3954, 3993, 3978, 3979, 3976, 3967, 0, 1, 10704, -89.900, 0.000, 1.600, 0.000, 0.000, -3.000, 0.0, , , , , , 96, , , 11, 11, 11
36.7915905, -118.9555497, 15.200, 13:40:32.388, 12, 0.00, 0.54, 98, -1.100, 1.400, 1.700, 377, 100, 100, 24, 23826, -18288, 5232, 5339, 19, 14, 1529008832.388, 45, 0, 1024, 1024, 1024, 1024, 0, 6, 3954, 3993, 3978, 3979, 3976, 3967, 0, 1, 10804, -89.900, 0.000, 1.600, 0.000, 0.000, -2.900, 0.0, , , , , , 96, , , 11, 11, 11
36.7915906, -118.9555497, 15.500, 13:40:32.488, 12, 0.00, 0.55, 98, -1.200, 1.500, 1.700, 377, 100, 100, 24, 23826, -18288, 5232, 5339, 19, 14, 1529008832.488, 33, 0, 1024, 1024, 1024, 1024, 0, 6, 3954, 3993, 3978, 3979, 3976, 3967, 0, 1, 10904, -89.900, 0.000, 1.600, 0.000, 0.000, -2.900, 0.0, , , , , , 96, , , 11, 11, 11
36.7915907, -118.9555497, 15.800, 13:40:32.588, 12, 0.00, 0.55, 98, -0.900, 1.900, 1.700, 377, 100, 100, 24, 23826, -18288, 5232, 5339, 19, 14, 1529008832.588, 45, 0, 1024, 1024, 1024, 1024, 0, 6, 3954, 3993, 3978, 3979, 3976, 3967, 0, 1, 11004, -89.900, 0.000, 1.600, 0.000, 0.000, -2.900, 0.0, , , , , , 96, , , 11, 11, 11
36.7915907, -118.9555496, 16.100, 13:40:32.688, 12, 0.00, 0.56, 98, -0.400, 2.100, 1.600, 377, 100, 100, 24, 23763, -19110, 5232, 5339, 19, 14, 1529008832.689, 38, 0, 1024, 1024, 1024, 1024, 0, 6, 3931, 3979, 3949, 3965, 3966, 3976, 0, 1, 11104, -89.900, 0.000, 1.600, 0.000, 0.000, -2.900, 0.0, , , , , , 96, , , 11, 11, 11
36.7915907, -118.9555496, 16.400, 13:40:32.788, 12, 0.00, 0.56, 98, -0.200, 2.300, 1.600, 377, 100, 99, 24, 23763, -19110, 5232, 5339, 19, 14, 1529008832.788, 43, 0, 1024, 1024, 1024, 1024, 0, 6, 3931, 3979, 3949, 3965, 3966, 3976, 0, 1, 11204, -89.900, 0.000, 1.600, 0.000, 0.000, -2.900, 0.0, , , , , , 96, , , 11, 11, 11
36.7915908, -118.9555496, 16.700, 13:40:32.888, 12, 0.00, 0.56, 98, 0.000, 2.000, 1.600, 377, 100, 99, 24, 23763, -19110, 5232, 5339, 19, 14, 1529008832.888, 36, 0, 1024, 1024, 1024, 1024, 0, 6, 3931, 3979, 3949, 3965, 3966, 3976, 0, 1, 11304, -89.900, 0.000, 1.600, 0.000, 0.000, -2.900, 0.0, , , , , , 96, , , 11, 11, 11
36.7915908, -118.9555496, 17.000, 13:40:32.988, 12, 0.00, 0.56, 98, 0.200, 1.800, 1.500, 377, 100, 99, 24, 23763, -19110, 5232, 5339, 19, 14, 1529008832.989, 15, 0, 1024, 1024, 1024, 1024, 0, 6, 3931, 3979, 3949, 3965, 3966, 3976, 0, 1, 11404, -89.900, 0.000, 1.600, 0.000, 0.000, -2.800, 0.0, , , , , , 96, , , 11, 11, 11
36.7915907, -118.9555496, 17.300, 13:40:33.088, 12, 0.00, 0.56, 98, 0.300, 1.300, 1.500, 377, 100, 99, 24, 23763, -19110, 5232, 5339, 19, 14, 1529008833.088, 20, 0, 1024, 1024, 1024, 1024, 0, 6, 3931, 3979, 3949, 3965, 3966, 3976, 0, 1, 11504, -89.900, 0.000, 1.600, 0.000, 0.000, -2.800, 0.0, , , , , , 96, , , 11, 11, 11
36.7915907, -118.9555495, 17.500, 13:40:33.188, 12, 0.00, 0.55, 98, 0.400, 0.800, 1.500, 377, 100, 99, 24, 23763, -19110, 5232, 5339, 19, 14, 1529008833.188, 19, 0, 1024, 1024, 1024, 1024, 0, 6, 3931, 3979, 3949, 3965, 3966, 3976, 0, 1, 11604, -90.000, 0.000, 1.600, 0.000, 0.000, -2.700, 0.0, , , , , , 96, , , 11, 11, 11
36.7915907, -118.9555495, 17.800, 13:40:33.288, 12, 0.00, 0.55, 98, 0.300, 0.600, 1.500, 377, 100, 99, 24, 23763, -19110, 5232, 5339, 19, 14, 1529008833.288, 10, 0, 1024, 1024, 1024, 1024, 0, 6, 3931, 3979, 3949, 3965, 3966, 3976, 0, 1, 11704, -90.000, 0.000, 1.600, 0.000, 0.000, -2.800, 0.0, , , , , , 96, , , 11, 11, 11
36.7915907, -118.9555495, 18.100, 13:40:33.388, 13, 0.00, 0.55, 98, 0.400, 1.100, 1.400, 377, 100, 99, 24, 23763, -19110, 5232, 5339, 19, 14, 1529008833.389, 10, 0, 1024, 1024, 1024, 1024, 0, 6, 3931, 3979, 3949, 3965, 3966, 3976, 0, 1, 11804, -89.900, 0.000, 1.600, 0.000, 0.000, -2.800, 0.0, , , , , , 96, , , 11, 11, 11
36.7915907, -118.9555496, 18.400, 13:40:33.488, 13, 0.00, 0.56, 98, 0.600, 1.600, 1.100, 377, 100, 99, 24, 23763, -19110, 5232, 5339, 19, 14, 1529008833.488, 25, 0, 1024, 1024, 1024, 1024, 0, 6, 3931, 3979, 3949, 3965, 3966, 3976, 0, 1, 11904, -89.900, 0.000, 1.600, 0.000, 0.000, -2.800, 0.0, , , , , , 96, , , 11, 11, 11
36.7915907, -118.9555496, 18.700, 13:40:33.588, 12, 0.00, 0.56, 98, 0.600, 1.700, 1.000, 377, 100, 99, 24, 23763, -19110, 5232, 5339, 19, 14, 1529008833.588, 2, 0, 1024, 1024, 1024, 1024, 0, 6, 3931, 3979, 3949, 3965, 3966, 3976, 0, 1, 12003, -89.900, 0.000, 1.600, 0.000, 0.000, -2.700, 0.0, , , , , , 96, , , 11, 11, 11
36.7915907, -118.9555496, 18.900, 13:40:33.688, 12, 0.00, 0.56, 98, 0.600, 1.500, 0.900, 377, 100, 99, 24, 23718, -19086, 5232, 5339, 19, 14, 1529008833.688, 3, 0, 1024, 1024, 1024, 1024, 0, 6, 3914, 3954, 3946, 3939, 3949, 3938, 0, 1, 12104, -89.900, 0.000, 1.600, 0.000, 0.000, -2.700, 0.0, , , , , , 96, , , 11, 11, 11
36.7915907, -118.9555496, 18.900, 13:40:33.788, 12, 0.00, 0.56, 98, 0.600, 1.500, 0.900, 377, 100, 99, 24, 23718, -19086, 5232, 5339, 19, 14, 1529008833.789, 103, 0, 1024, 1024, 1024, 1024, 0, 6, 3914, 3954, 3946, 3939, 3949, 3938, 0, 1, 12204, -89.900, 0.000, 1.600, 0.000, 0.000, -2.700, 0.0, , , , , , 96, , , 11, 11, 11
36.7915908, -118.9555496, 19.200, 13:40:33.888, 13, 0.00, 0.56, 98, 0.400, 1.500, 1.000, 377, 100, 99, 24, 23718, -19086, 5232, 5339, 19, 14, 1529008833.889, 65, 0, 1024, 1024, 1024, 1024, 0, 6, 3914, 3954, 3946, 3939, 3949, 3938, 0, 1, 12304, -90.000, 0.000, 1.600, 0.000, 0.000, -2.800, 0.0, , , , , , 96, , , 11, 11, 11
36.7915908, -118.9555496, 19.500, 13:40:33.988, 13, 0.00, 0.57, 98, 0.200, 1.700, 1.200, 377, 100, 99, 24, 23718, -19086, 5232, 5339, 19, 14, 1529008833.988, 64, 0, 1024, 1024, 1024, 1024, 0, 6, 3914, 3954, 3946, 3939, 3949, 3938, 0, 1, 12403, -89.900, 0.000, 1.600, 0.000, 0.000, -2.800, 0.0, , , , , , 96, , , 11, 11, 11
36.7915909, -118.9555496, 20.100, 13:40:34.088, 12, 0.00, 0.58, 98, 0.000, 2.400, 1.700, 377, 100, 99, 24, 23718, -19086, 5232, 5339, 19, 14, 1529008834.088, 67, 0, 1024, 1024, 1024, 1024, 0, 6, 3914, 3954, 3946, 3939, 3949, 3938, 0, 1, 12503, -89.900, 0.000, 1.600, 0.000, 0.000, -2.900, 0.0, , , , , , 96, , , 11, 11, 11
36.7915909, -118.9555496, 20.100, 13:40:34.188, 12, 0.00, 0.58, 98, 0.000, 2.400, 1.700, 377, 100, 99, 24, 23718, -19086, 5232, 5339, 19, 14, 1529008834.188, 167, 0, 1024, 1024, 1024, 1024, 0, 6, 3914, 3954, 3946, 3939, 3949, 3938, 0, 1, 12603, -89.900, 0.000, 1.600, 0.000, 0.000, -2.900, 0.0, , , , , , 96, , , 11, 11, 11
36.7915909, -118.9555497, 20.400, 13:40:34.288, 12, 0.00, 0.58, 98, 0.300, 2.600, 1.800, 377, 100, 99, 24, 23718, -19086, 5232, 5339, 19, 14, 1529008834.288, 74, 0, 1024, 1024, 1024, 1024, 0, 6, 3914, 3954, 3946, 3939, 3949, 3938, 0, 1, 12703, -89.900, 0.000, 1.600, 0.000, 0.000, -2.800, 0.0, , , , , , 96, , , 11, 11, 11
36.7915909, -118.9555498, 21.000, 13:40:34.388, 12, 0.00, 0.59, 98, 0.800, 2.200, 1.800, 377, 100, 100, 24, 23718, -19086, 5232, 5339, 19, 14, 1529008834.388, 53, 0, 1024, 1024, 1024, 1024, 0, 6, 3914, 3954, 3946, 3939, 3949, 3938, 0, 1, 12803, -89.900, 0.000, 1.600, 0.000, 0.000, -2.900, 0.0, , , , , , 96, , , 11, 11, 11
36.7915910, -118.9555499, 21.300, 13:40:34.488, 12, 0.00, 0.59, 98, 1.100, 2.500, 1.800, 377, 100, 100, 24, 23718, -19086, 5232, 5339, 19, 14, 1529008834.488, 73, 0, 1024, 1024, 1024, 1024, 0, 6, 3914, 3954, 3946, 3939, 3949, 3938, 0, 1, 12903, -89.900, 0.000, 1.600, 0.000, 0.000, -3.000, 0.0, , , , , , 96, , , 11, 11, 11
36.7915911, -118.9555500, 21.600, 13:40:34.588, 12, 0.00, 0.60, 98, 1.100, 2.700, 1.700, 377, 100, 100, 24, 23718, -19086, 5232, 5339, 19, 14, 1529008834.588, 63, 0, 1024, 1024, 1024, 1024, 0, 6, 3914, 3954, 3946, 3939, 3949, 3938, 0, 1, 13003, -89.900, 0.000, 1.600, 0.000, 0.000, -3.100, 0.0, , , , , , 96, , , 11, 11, 11
36.7915911, -118.9555500, 21.900, 13:40:34.688, 12, 0.00, 0.61, 98, 1.300, 3.000, 1.600, 377, 100, 100, 24, 23718, -19086, 5232, 5339, 19, 14, 1529008834.688, 45, 0, 1024, 1024, 1024, 1024, 0, 6, 3914, 3954, 3946, 3939, 3949, 3938, 0, 1, 13103, -89.900, 0.000, 1.600, 0.000, 0.000, -3.200, 0.0, , , , , , 96, , , 11, 11, 11
36.7915912, -118.9555501, 22.300, 13:40:34.788, 12, 0.00, 0.61, 98, 1.200, 3.100, 1.400, 377, 100, 100, 24, 23453, -21775, 5178, 5339, 19, 14, 1529008834.788, 33, 0, 1024, 1024, 1024, 1024, 0, 6, 3893, 3931, 3929, 3913, 3910, 3906, 0, 1, 13204, -89.900, 0.000, 1.600, 0.000, 0.000, -3.100, 0.0, , , , , , 96, , , 11, 11, 11
36.7915912, -118.9555503, 22.600, 13:40:34.889, 12, 0.00, 0.62, 98, 1.300, 3.300, 1.100, 377, 100, 100, 24, 23453, -21775, 5178, 5339, 19, 14, 1529008834.889, 48, 0, 1024, 1024, 1024, 1024, 0, 6, 3893, 3931, 3929, 3913, 3910, 3906, 0, 1, 13304, -89.900, 0.000, 1.600, 0.000, 0.000, -3.100, 0.0, , , , , , 96, , , 11, 11, 11
36.7915912, -118.9555504, 22.900, 13:40:34.988, 12, 0.00, 0.62, 98, 1.900, 3.300, 1.000, 377, 100, 100, 24, 23453, -21775, 5178, 5339, 19, 14, 1529008834.988, 40, 0, 1024, 1024, 1024, 1024, 0, 6, 3893, 3931, 3929, 3913, 3910, 3906, 0, 1, 13404, -89.900, 0.000, 1.600, 0.000, 0.000, -3.100, 0.0, , , , , , 96, , , 11, 11, 11
36.7915912, -118.9555505, 23.300, 13:40:35.088, 12, 0.00, 0.62, 98, 2.400, 3.100, 1.000, 377, 100, 100, 24, 23453, -21775, 5178, 5339, 19, 14, 1529008835.089, 37, 0, 1024, 1024, 1024, 1024, 0, 6, 3893, 3931, 3929, 3913, 3910, 3906, 0, 1, 13504, -90.000, 0.000, 1.600, 0.000, 0.000, -3.000, 0.0, , , , , , 96, , , 11, 11, 11
36.7915912, -118.9555505, 23.600, 13:40:35.188, 12, 0.00, 0.62, 97, 2.200, 2.700, 1.000, 377, 100, 100, 24, 23453, -21775, 5178, 5339, 19, 14, 1529008835.188, 26, 0, 1024, 1024, 1024, 1024, 0, 6, 3893, 3931, 3929, 3913, 3910, 3906, 0, 1, 13604, -90.000, 0.000, 1.600, 0.000, 0.000, -2.900, 0.0, , , , , , 96, , , 11, 11, 11
36.7915911, -118.9555506, 23.900, 13:40:35.288, 12, 0.00, 0.61, 97, 2.000, 1.900, 1.100, 377, 100, 99, 24, 23453, -21775, 5178, 5339, 19, 14, 1529008835.288, 20, 0, 1024, 1024, 1024, 1024, 0, 6, 3893, 3931, 3929, 3913, 3910, 3906, 0, 1, 13703, -90.000, 0.000, 1.600, 0.000, 0.000, -2.800, 0.0, , , , , , 96, , , 11, 11, 11
36.7915910, -118.9555506, 24.100, 13:40:35.388, 12, 0.00, 0.60, 97, 2.500, 1.500, 1.300, 377, 100, 99, 24, 23453, -21775, 5178, 5339, 19, 14, 1529008835.388, 2, 0, 1024, 1024, 1024, 1024, 0, 6, 3893, 3931, 3929, 3913, 3910, 3906, 0, 1, 13804, -90.000, 0.000, 1.600, 0.000, 0.000, -2.700, 0.0, , , , , , 96, , , 11, 11, 11
36.7915910, -118.9555506, 24.100, 13:40:35.488, 12, 0.00, 0.60, 97, 2.500, 1.500, 1.300, 377, 100, 99, 24, 23453, -21775, 5178, 5339, 19, 14, 1529008835.488, 102, 0, 1024, 1024, 1024, 1024, 0, 6, 3893, 3931, 3929, 3913, 3910, 3906, 0, 1, 13904, -90.000, 0.000, 1.600, 0.000, 0.000, -2.700, 0.0, , , , , , 96, , , 11, 11, 11
36.7915909, -118.9555506, 24.700, 13:40:35.588, 13, 0.00, 0.59, 97, 1.600, 0.900, 1.500, 377, 100, 99, 24, 23453, -21775, 5178, 5339, 19, 14, 1529008835.589, 8, 0, 1024, 1024, 1024, 1024, 0, 6, 3893, 3931, 3929, 3913, 3910, 3906, 0, 1, 14004, -90.000, 0.000, 1.600, 0.000, 0.000, -2.700, 0.0, , , , , , 96, , , 11, 11, 11
36.7915909, -118.9555506, 24.700, 13:40:35.688, 13, 0.00, 0.59, 97, 1.600, 0.900, 1.500, 377, 100, 99, 24, 23453, -21775, 5178, 5339, 19, 14, 1529008835.688, 107, 0, 1024, 1024, 1024, 1024, 0, 6, 3893, 3931, 3929, 3913, 3910, 3906, 0, 1, 14104, -90.000, 0.000, 1.600, 0.000, 0.000, -2.700, 0.0, , , , , , 96, , , 11, 11, 11
36.7915909, -118.9555505, 25.200, 13:40:35.788, 13, 0.00, 0.59, 97, 0.400, 2.000, 1.300, 377, 100, 98, 24, 23618, -19556, 5178, 5339, 19, 14, 1529008835.789, 12, 0, 1024, 1024, 1024, 1024, 0, 6, 3893, 3931, 3929, 3913, 3910, 3906, 0, 1, 14204, -89.900, 0.000, 1.600, 0.000, 0.000, -2.800, 0.0, , , , , , 96, , , 11, 11, 11
36.7915909, -118.9555504, 25.500, 13:40:35.888, 13, 0.00, 0.59, 97, 0.200, 2.200, 1.200, 377, 100, 98, 24, 23618, -19556, 5178, 5339, 19, 14, 1529008835.888, 12, 0, 1024, 1024, 1024, 1024, 0, 6, 3893, 3931, 3929, 3913, 3910, 3906, 0, 1, 14304, -89.900, 0.000, 1.600, 0.000, 0.000, -2.800, 0.0, , , , , , 96, , , 11, 11, 11
36.7915909, -118.9555504, 25.800, 13:40:35.990, 13, 0.00, 0.59, 97, 0.600, 2.500, 1.000, 377, 100, 98, 24, 23618, -19556, 5178, 5339, 19, 14, 1529008835.991, 4, 0, 1024, 1024, 1024, 1024, 0, 6, 3893, 3931, 3929, 3913, 3910, 3906, 0, 1, 14406, -89.900, 0.000, 1.600, 0.000, 0.000, -2.900, 0.0, , , , , , 96, , , 11, 11, 11
36.7915909, -118.9555504, 25.800, 13:40:36.088, 13, 0.00, 0.59, 97, 0.600, 2.500, 1.000, 377, 100, 98, 24, 23618, -19556, 5178, 5339, 19, 14, 1529008836.088, 101, 0, 1024, 1024, 1024, 1024, 0, 6, 3893, 3931, 3929, 3913, 3910, 3906, 0, 1, 14503, -89.900, 0.000, 1.600, 0.000, 0.000, -2.900, 0.0, , , , , , 96, , , 11, 11, 11
36.7915909, -118.9555502, 26.400, 13:40:36.188, 13, 0.10, 0.59, 97, 0.100, 2.200, 0.700, 377, 100, 98, 24, 23618, -19556, 5178, 5339, 19, 14, 1529008836.189, 2, 0, 1024, 1024, 1024, 1024, 0, 6, 3905, 3955, 3938, 3960, 3943, 3929, 0, 1, 14604, -90.000, 0.000, 1.600, 0.000, 0.100, -2.900, 0.0, , , , , , 96, , , 11, 11, 11
36.7915909, -118.9555502, 26.400, 13:40:36.288, 13, 0.10, 0.59, 97, 0.100, 2.200, 0.700, 377, 100, 98, 24, 23618, -19556, 5178, 5339, 19, 14, 1529008836.288, 102, 0, 1024, 1024, 1024, 1024, 0, 6, 3905, 3955, 3938, 3960, 3943, 3929, 0, 1, 14704, -90.000, 0.000, 1.600, 0.000, 0.100, -2.900, 0.0, , , , , , 96, , , 11, 11, 11
36.7915909, -118.9555501, 26.700, 13:40:36.388, 13, 0.10, 0.58, 97, -0.500, 2.000, 0.900, 377, 100, 98, 24, 23618, -19556, 5178, 5339, 19, 14, 1529008836.388, 95, 0, 1024, 1024, 1024, 1024, 0, 6, 3905, 3955, 3938, 3960, 3943, 3929, 0, 1, 14804, -90.000, 0.000, 1.600, 0.000, 0.100, -2.800, 0.0, , , , , , 96, , , 11, 11, 11
36.7915908, -118.9555500, 26.900, 13:40:36.488, 13, 0.10, 0.58, 97, -1.000, 2.200, 1.100, 377, 100, 98, 24, 23618, -19556, 5178, 5339, 19, 14, 1529008836.488, 52, 0, 1024, 1024, 1024, 1024, 0, 6, 3905, 3955, 3938, 3960, 3943, 3929, 0, 1, 14904, -90.000, 0.000, 1.600, 0.000, 0.100, -2.900, 0.0, , , , , , 96, , , 11, 11, 11
36.7915908, -118.9555498, 27.200, 13:40:36.588, 13, 0.10, 0.57, 97, -1.100, 1.700, 1.300, 377, 100, 98, 24, 23618, -19556, 5178, 5339, 19, 14, 1529008836.588, 70, 0, 1024, 1024, 1024, 1024, 0, 6, 3905, 3955, 3938, 3960, 3943, 3929, 0, 1, 15004, -90.000, 0.000, 1.600, 0.000, 0.100, -2.900, 0.0, , , , , , 96, , , 11, 11, 11
36.7915907, -118.9555495, 27.800, 13:40:36.688, 13, 0.10, 0.56, 97, -1.600, 1.200, 1.300, 377, 100, 98, 24, 23618, -19556, 5178, 5339, 19, 14, 1529008836.689, 71, 0, 1024, 1024, 1024, 1024, 0, 6, 3905, 3955, 3938, 3960, 3943, 3929, 0, 1, 15104, -90.000, 0.000, 1.600, 0.000, 0.100, -3.000, 0.0, , , , , , 96, , , 11, 11, 11
36.7915907, -118.9555495, 27.800, 13:40:36.788, 13, 0.10, 0.56, 97, -1.600, 1.200, 1.300, 377, 100, 98, 24, 23618, -19556, 5178, 5339, 19, 14, 1529008836.789, 171, 0, 1024, 1024, 1024, 1024, 0, 6, 3905, 3955, 3938, 3960, 3943, 3929, 0, 1, 15204, -90.000, 0.000, 1.600, 0.000, 0.100, -3.000, 0.0, , , , , , 96, , , 11, 11, 11
36.7915907, -118.9555492, 28.500, 13:40:36.888, 13, 0.10, 0.56, 97, -3.000, 1.800, 0.900, 377, 100, 98, 24, 23618, -19556, 5178, 5339, 19, 14, 1529008836.889, 70, 0, 1024, 1024, 1024, 1024, 0, 6, 3905, 3955, 3938, 3960, 3943, 3929, 0, 1, 15304, -89.900, 0.000, 1.600, 0.000, 0.100, -3.000, 0.0, , , , , , 96, , , 11, 11, 11
36.7915908, -118.9555491, 28.800, 13:40:36.988, 13, 0.00, 0.56, 97, -2.600, 2.300, 0.800, 377, 100, 98, 24, 23618, -19556, 5178, 5339, 19, 14, 1529008836.988, 61, 0, 1024, 1024, 1024, 1024, 0, 6, 3905, 3955, 3938, 3960, 3943, 3929, 0, 1, 15404, -89.900, 0.000, 1.600, 0.000, 0.000, -2.900, 0.0, , , , , , 96, , , 11, 11, 11
36.7915908, -118.9555490, 29.100, 13:40:37.088, 13, 0.00, 0.57, 97, -1.500, 2.900, 0.800, 377, 100, 98, 24, 23618, -19556, 5178, 5339, 19, 14, 1529008837.089, 65, 0, 1024, 1024, 1024, 1024, 0, 6, 3905, 3955, 3938, 3960, 3943, 3929, 0, 1, 15504, -89.900, 0.000, 1.600, 0.000, 0.000, -2.900, 0.0, , , , , , 96, , , 11, 11, 11
36.7915908, -118.9555488, 29.400, 13:40:37.188, 13, 0.10, 0.57, 97, -1.400, 2.800, 0.800, 377, 100, 98, 24, 23618, -19556, 5178, 5339, 19, 14, 1529008837.189, 55, 0, 1024, 1024, 1024, 1024, 0, 6, 3905, 3955, 3938, 3960, 3943, 3929, 0, 1, 15604, -89.900, 0.000, 1.600, 0.000, 0.100, -2.900, 0.0, , , , , , 96, , , 11, 11, 11
36.7915909, -118.9555487, 29.700, 13:40:37.288, 13, 0.14, 0.58, 97, -1.500, 3.000, 0.900, 377, 100, 98, 24, 23345, -22883, 5178, 5339, 19, 14, 1529008837.289, 48, 0, 1024, 1024, 1024, 1024, 0, 6, 3854, 3886, 3892, 3871, 3882, 3880, 0, 1, 15704, -89.900, 0.000, 1.600, 0.100, 0.100, -2.900, 0.0, , , , , , 96, , , 11, 11, 11
36.7915910, -118.9555486, 30.000, 13:40:37.388, 13, 0.14, 0.60, 97, -2.000, 3.900, 0.800, 377, 100, 96, 24, 23345, -22883, 5178, 5339, 19, 14, 1529008837.389, 41, 0, 1024, 1024, 1024, 1024, 0, 6, 3854, 3886, 3892, 3871, 3882, 3880, 0, 1, 15804, -89.900, 0.000, 1.600, 0.100, 0.100, -3.000, 0.0, , , , , , 96, , , 11, 11, 11
36.7915912, -118.9555485, 30.300, 13:40:37.488, 13, 0.14, 0.61, 97, -2.100, 4.600, 0.800, 377, 100, 96, 24, 23345, -22883, 5178, 5339, 19, 14, 1529008837.489, 20, 0, 1024, 1024, 1024, 1024, 0, 6, 3854, 3886, 3892, 3871, 3882, 3880, 0, 1, 15904, -90.000, 0.000, 1.600, 0.100, 0.100, -3.000, 0.0, , , , , , 96, , , 11, 11, 11
36.7915913, -118.9555484, 30.600, 13:40:37.589, 13, 0.10, 0.62, 97, -2.600, 4.600, 1.000, 377, 100, 96, 24, 23345, -22883, 5178, 5339, 19, 14, 1529008837.589, 16, 0, 1024, 1024, 1024, 1024, 0, 6, 3854, 3886, 3892, 3871, 3882, 3880, 0, 1, 16004, -89.900, 0.000, 1.600, 0.000, 0.100, -2.900, 0.0, , , , , , 96, , , 11, 11, 11
36.7915914, -118.9555482, 30.900, 13:40:37.689, 13, 0.10, 0.63, 97, -2.500, 4.500, 1.200, 377, 100, 96, 24, 23345, -22883, 5178, 5339, 19, 14, 1529008837.689, 7, 0, 1024, 1024, 1024, 1024, 0, 6, 3854, 3886, 3892, 3871, 3882, 3880, 0, 1, 16104, -90.000, 0.000, 1.600, 0.000, 0.100, -2.900, 0.0, , , , , , 96, , , 11, 11, 11
36.7915914, -118.9555482, 30.900, 13:40:37.789, 13, 0.10, 0.63, 97, -2.500, 4.500, 1.200, 377, 100, 96, 24, 23345, -22883, 5178, 5339, 19, 14, 1529008837.789, 106, 0, 1024, 1024, 1024, 1024, 0, 6, 3854, 3886, 3892, 3871, 3882, 3880, 0, 1, 16204, -90.000, 0.000, 1.600, 0.000, 0.100, -2.900, 0.0, , , , , , 96, , , 11, 11, 11
36.7915915, -118.9555480, 31.500, 13:40:37.888, 14, 0.00, 0.65, 97, -2.600, 4.400, 1.400, 377, 100, 95, 24, 23345, -22883, 5178, 5339, 19, 14, 1529008837.889, 28, 0, 1024, 1024, 1024, 1024, 0, 6, 3854, 3886, 3892, 3871, 3882, 3880, 0, 1, 16304, -90.000, 0.000, 1.600, 0.000, 0.000, -2.800, 0.0, , , , , , 96, , , 11, 11, 11
36.7915916, -118.9555479, 31.800, 13:40:37.989, 14, 0.00, 0.66, 97, -2.400, 4.100, 1.500, 377, 100, 95, 24, 23345, -22883, 5178, 5339, 19, 14, 1529008837.989, 18, 0, 1024, 1024, 1024, 1024, 0, 6, 3854, 3886, 3892, 3871, 3882, 3880, 0, 1, 16404, -90.000, 0.000, 1.600, 0.000, 0.000, -2.900, 0.0, , , , , , 96, , , 11, 11, 11
36.7915916, -118.9555479, 32.100, 13:40:38.089, 14, 0.00, 0.66, 97, -1.900, 4.000, 1.500, 377, 100, 95, 24, 23345, -22883, 5178, 5339, 19, 14, 1529008838.089, 13, 0, 1024, 1024, 1024, 1024, 0, 6, 3854, 3886, 3892, 3871, 3882, 3880, 0, 1, 16504, -89.900, 0.000, 1.600, 0.000, 0.000, -3.000, 0.0, , , , , , 96, , , 11, 11, 11
36.7915916, -118.9555479, 32.100, 13:40:38.189, 14, 0.00, 0.66, 97, -1.900, 4.000, 1.500, 377, 100, 95, 24, 23345, -22883, 5178, 5339, 19, 14, 1529008838.189, 113, 0, 1024, 1024, 1024, 1024, 0, 6, 3854, 3886, 3892, 3871, 3882, 3880, 0, 1, 16604, -89.900, 0.000, 1.600, 0.000, 0.000, -3.000, 0.0, , , , , , 96, , , 11, 11, 11
36.7915916, -118.9555478, 32.400, 13:40:38.289, 14, 0.00, 0.67, 97, -2.100, 4.200, 1.500, 377, 100, 95, 25, 23192, -23772, 5178, 5339, 19, 14, 1529008838.289, 93, 0, 1024, 1024, 1024, 1024, 0, 6, 3820, 3891, 3854, 3867, 3856, 3872, 0, 1, 16704, -89.900, 0.000, 1.600, 0.000, 0.000, -3.100, 0.0, , , , , , 96, , , 11, 11, 11
36.7915917, -118.9555478, 32.700, 13:40:38.389, 14, 0.00, 0.68, 97, -2.500, 4.100, 1.500, 377, 100, 94, 25, 23192, -23772, 5178, 5339, 19, 14, 1529008838.389, 96, 0, 1024, 1024, 1024, 1024, 0, 6, 3820, 3891, 3854, 3867, 3856, 3872, 0, 1, 16804, -89.900, 0.000, 1.600, 0.000, 0.000, -3.000, 0.0, , , , , , 96, , , 11, 11, 11
36.7915917, -118.9555477, 33.000, 13:40:38.489, 14, 0.00, 0.68, 97, -2.500, 4.100, 1.500, 377, 100, 94, 25, 23192, -23772, 5178, 5339, 19, 14, 1529008838.489, 74, 0, 1024, 1024, 1024, 1024, 0, 6, 3820, 3891, 3854, 3867, 3856, 3872, 0, 1, 16905, -90.000, 0.000, 1.600, 0.000, 0.000, -2.900, 0.0, , , , , , 96, , , 11, 11, 11
36.7915918, -118.9555477, 33.300, 13:40:38.589, 14, 0.00, 0.69, 97, -2.500, 4.100, 1.300, 377, 100, 94, 25, 23192, -23772, 5178, 5339, 19, 14, 1529008838.589, 73, 0, 1024, 1024, 1024, 1024, 0, 6, 3820, 3891, 3854, 3867, 3856, 3872, 0, 1, 17004, -90.000, 0.000, 1.600, 0.000, 0.000, -2.900, 0.0, , , , , , 96, , , 11, 11, 11
36.7915919, -118.9555476, 33.900, 13:40:38.688, 14, 0.00, 0.70, 97, -2.800, 3.900, 1.200, 377, 100, 94, 25, 23192, -23772, 5178, 5339, 19, 14, 1529008838.689, 71, 0, 1024, 1024, 1024, 1024, 0, 6, 3820, 3891, 3854, 3867, 3856, 3872, 0, 1, 17104, -90.000, 0.000, 1.600, 0.000, 0.000, -2.900, 0.0, , , , , , 96, , , 11, 11, 11
36.7915919, -118.9555476, 33.900, 13:40:38.789, 14, 0.00, 0.70, 97, -2.800, 3.900, 1.200, 377, 100, 94, 25, 23192, -23772, 5178, 5339, 19, 14, 1529008838.789, 171, 0, 1024, 1024, 1024, 1024, 0, 6, 3820, 3891, 3854, 3867, 3856, 3872, 0, 1, 17205, -90.000, 0.000, 1.600, 0.000, 0.000, -2.900, 0.0, , , , , , 96, , , 11, 11, 11
36.7915919, -118.9555475, 34.500, 13:40:38.889, 14, 0.00, 0.71, 97, -2.400, 4.100, 1.100, 377, 100, 96, 25, 23192, -23772, 5178, 5339, 19, 14, 1529008838.890, 75, 0, 1024, 1024, 1024, 1024, 0, 6, 3820, 3891, 3854, 3867, 3856, 3872, 0, 1, 17305, -89.900, 0.000, 1.600, 0.000, 0.000, -2.900, 0.0, , , , , , 96, , , 11, 11, 11
36.7915919, -118.9555475, 34.500, 13:40:38.989, 14, 0.00, 0.71, 97, -2.400, 4.100, 1.100, 377, 100, 96, 25, 23192, -23772, 5178, 5339, 19, 14, 1529008838.989, 174, 0, 1024, 1024, 1024, 1024, 0, 6, 3820, 3891, 3854, 3867, 3856, 3872, 0, 1, 17404, -89.900, 0.000, 1.600, 0.000, 0.000, -2.900, 0.0, , , , , , 96, , , 11, 11, 11
36.7915920, -118.9555475, 35.100, 13:40:39.089, 14, 0.00, 0.71, 97, -1.900, 4.500, 1.000, 377, 100, 96, 25, 23192, -23772, 5178, 5339, 19, 14, 1529008839.089, 57, 0, 1024, 1024, 1024, 1024, 0, 6, 3820, 3891, 3854, 3867, 3856, 3872, 0, 1, 17504, -89.900, 0.000, 1.600, 0.000, 0.000, -2.900, 0.0, , , , , , 96, , , 11, 11, 11
36.7915920, -118.9555474, 35.400, 13:40:39.189, 14, 0.00, 0.72, 97, -2.200, 4.500, 1.000, 377, 100, 96, 25, 23192, -23772, 5178, 5339, 19, 14, 1529008839.189, 65, 0, 1024, 1024, 1024, 1024, 0, 6, 3820, 3891, 3854, 3867, 3856, 3872, 0, 1, 17604, -89.900, 0.000, 1.600, 0.000, 0.000, -3.000, 0.0, , , , , , 96, , , 11, 11, 11
36.7915920, -118.9555474, 35.700, 13:40:39.289, 14, 0.00, 0.72, 97, -2.500, 4.200, 1.000, 377, 100, 97, 25, 23031, -25388, 5178, 5339, 19, 14, 1529008839.290, 45, 0, 1024, 1024, 1024, 1024, 0, 6, 3807, 3850, 3842, 3832, 3830, 3829, 0, 1, 17705, -90.000, 0.000, 1.600, 0.000, 0.000, -3.000, 0.0, , , , , , 96, , , 11, 11, 11
36.7915920, -118.9555473, 36.000, 13:40:39.388, 14, 0.00, 0.72, 97, -2.600, 4.100, 1.100, 377, 100, 97, 25, 23031, -25388, 5178, 5339, 19, 14, 1529008839.389, 34, 0, 1024, 1024, 1024, 1024, 0, 6, 3807, 3850, 3842, 3832, 3830, 3829, 0, 1, 17804, -90.000, 0.000, 1.600, 0.000, 0.000, -2.900, 0.0, , , , , , 96, , , 11, 11, 11
36.7915920, -118.9555473, 36.300, 13:40:39.489, 14, 0.00, 0.72, 97, -2.600, 4.000, 1.300, 377, 100, 97, 25, 23031, -25388, 5178, 5339, 19, 14, 1529008839.490, 37, 0, 1024, 1024, 1024, 1024, 0, 6, 3807, 3850, 3842, 3832, 3830, 3829, 0, 1, 17905, -90.000, 0.000, 1.600, 0.000, 0.000, -2.900, 0.0, , , , , , 96, , , 11, 11, 11
36.7915920, -118.9555473, 36.600, 13:40:39.589, 14, 0.00, 0.72, 97, -2.500, 3.700, 1.400, 377, 100, 97, 25, 23031, -25388, 5178, 5339, 19, 14, 1529008839.589, 28, 0, 1024, 1024, 1024, 1024, 0, 6, 3807, 3850, 3842, 3832, 3830, 3829, 0, 1, 18004, -90.000, 0.000, 1.600, 0.000, 0.000, -3.000, 0.0, , , , , , 96, , , 11, 11, 11
36.7915920, -118.9555473, 36.900, 13:40:39.689, 14, 0.00, 0.72, 97, -2.400, 3.800, 1.500, 377, 100, 97, 25, 23031, -25388, 5178, 5339, 19, 14, 1529008839.689, 30, 0, 1024, 1024, 1024, 1024, 0, 6, 3807, 3850, 3842, 3832, 3830, 3829, 0, 1, 18105, -89.900, 0.000, 1.600, 0.000, 0.000, -3.000, 0.0, , , , , , 96, , , 11, 11, 11
36.7915920, -118.9555473, 37.200, 13:40:39.789, 14, 0.00, 0.71, 97, -2.100, 3.900, 1.500, 377, 100, 97, 25, 23031, -25388, 5178, 5339, 19, 14, 1529008839.789, 33, 0, 1024, 1024, 1024, 1024, 0, 6, 3807, 3850, 3842, 3832, 3830, 3829, 0, 1, 18205, -90.000, 0.000, 1.600, 0.000, 0.000, -3.000, 0.0, , , , , , 96, , , 11, 11, 11
36.7915920, -118.9555473, 37.500, 13:40:39.889, 14, 0.00, 0.72, 97, -1.900, 4.000, 1.500, 377, 100, 97, 25, 23031, -25388, 5178, 5339, 19, 14, 1529008839.890, 15, 0, 1024, 1024, 1024, 1024, 0, 6, 3807, 3850, 3842, 3832, 3830, 3829, 0, 1, 18305, -90.000, 0.000, 1.600, 0.000, 0.000, -2.900, 0.0, , , , , , 96, , , 11, 11, 11
36.7915920, -118.9555474, 37.800, 13:40:39.989, 14, 0.00, 0.72, 97, -1.900, 4.100, 1.300, 377, 100, 97, 25, 23031, -25388, 5178, 5339, 19, 14, 1529008839.990, 26, 0, 1024, 1024, 1024, 1024, 0, 6, 3807, 3850, 3842, 3832, 3830, 3829, 0, 1, 18405, -89.900, 0.000, 1.600, 0.000, 0.000, -2.900, 0.0, , , , , , 96, , , 11, 11, 11
36.7915920, -118.9555474, 38.100, 13:40:40.089, 14, 0.00, 0.72, 97, -2.000, 4.300, 1.200, 377, 100, 97, 25, 23031, -25388, 5178, 5339, 19, 14, 1529008840.089, 6, 0, 1024, 1024, 1024, 1024, 0, 6, 3807, 3850, 3842, 3832, 3830, 3829, 0, 1, 18505, -89.900, 0.000, 1.600, 0.000, 0.000, -2.900, 0.0, , , , , , 96, , , 11, 11, 11
36.7915920, -118.9555473, 38.400, 13:40:40.189, 14, 0.00, 0.72, 97, -2.200, 4.400, 1.100, 377, 100, 97, 25, 22870, -26289, 5178, 5339, 19, 14, 1529008840.189, 12, 0, 1024, 1024, 1024, 1024, 0, 6, 3788, 3833, 3816, 3813, 3807, 3809, 0, 1, 18605, -89.900, 0.000, 1.600, 0.000, 0.000, -3.000, 0.0, , , , , , 96, , , 11, 11, 11
36.7915920, -118.9555474, 38.700, 13:40:40.288, 14, 0.00, 0.72, 97, -2.400, 4.800, 1.000, 377, 100, 97, 25, 22870, -26289, 5178, 5339, 19, 14, 1529008840.289, 12, 0, 1024, 1024, 1024, 1024, 0, 6, 3788, 3833, 3816, 3813, 3807, 3809, 0, 1, 18704, -89.900, 0.000, 1.600, 0.000, 0.000, -3.000, 0.0, , , , , , 96, , , 11, 11, 11
36.7915920, -118.9555474, 38.700, 13:40:40.389, 14, 0.00, 0.72, 97, -2.400, 4.800, 1.000, 377, 100, 97, 25, 22870, -26289, 5178, 5339, 19, 14, 1529008840.389, 113, 0, 1024, 1024, 1024, 1024, 0, 6, 3788, 3833, 3816, 3813, 3807, 3809, 0, 1, 18805, -89.900, 0.000, 1.600, 0.000, 0.000, -3.000, 0.0, , , , , , 96, , , 11, 11, 11
36.7915920, -118.9555473, 39.400, 13:40:40.489, 14, 0.00, 0.72, 97, -2.400, 4.600, 1.000, 377, 100, 97, 25, 22870, -26289, 5178, 5339, 19, 14, 1529008840.489, 8, 0, 1024, 1024, 1024, 1024, 0, 6, 3788, 3833, 3816, 3813, 3807, 3809, 0, 1, 18905, -89.900, 0.000, 1.600, 0.000, 0.000, -3.000, 0.0, , , , , , 96, , , 11, 11, 11
36.7915920, -118.9555473, 39.400, 13:40:40.589, 14, 0.00, 0.72, 97, -2.400, 4.600, 1.000, 377, 100, 97, 25, 22870, -26289, 5178, 5339, 19, 14, 1529008840.589, 108, 0, 1024, 1024, 1024, 1024, 0, 6, 3788, 3833, 3816, 3813, 3807, 3809, 0, 1, 19004, -89.900, 0.000, 1.600, 0.000, 0.000, -3.000, 0.0, , , , , , 96, , , 11, 11, 11
36.7915920, -118.9555473, 39.700, 13:40:40.689, 14, 0.00, 0.72, 97, -2.800, 4.700, 1.000, 377, 100, 97, 25, 22870, -26289, 5178, 5339, 19, 14, 1529008840.690, 87, 0, 1024, 1024, 1024, 1024, 0, 6, 3788, 3833, 3816, 3813, 3807, 3809, 0, 1, 19105, -89.900, 0.000, 1.600, 0.000, 0.000, -3.000, 0.0, , , , , , 96, , , 11, 11, 11
36.7915921, -118.9555472, 40.000, 13:40:40.788, 14, 0.00, 0.73, 97, -3.400, 4.900, 0.800, 377, 100, 97, 25, 22870, -26289, 5178, 5339, 19, 14, 1529008840.789, 87, 0, 1024, 1024, 1024, 1024, 0, 6, 3788, 3833, 3816, 3813, 3807, 3809, 0, 1, 19204, -89.900, 0.000, 1.600, 0.000, 0.000, -3.000, 0.0, , , , , , 96, , , 11, 11, 11
36.7915921, -118.9555472, 40.300, 13:40:40.889, 14, 0.00, 0.73, 97, -3.500, 4.500, 0.800, 377, 100, 98, 25, 22870, -26289, 5178, 5339, 19, 14, 1529008840.890, 78, 0, 1024, 1024, 1024, 1024, 0, 6, 3788, 3833, 3816, 3813, 3807, 3809, 0, 1, 19305, -89.900, 0.000, 1.600, 0.000, 0.000, -2.900, 0.0, , , , , , 96, , , 11, 11, 11
36.7915921, -118.9555471, 40.600, 13:40:40.989, 14, 0.00, 0.73, 97, -3.700, 4.700, 0.700, 377, 100, 98, 25, 22870, -26289, 5178, 5339, 19, 14, 1529008840.990, 83, 0, 1024, 1024, 1024, 1024, 0, 6, 3788, 3833, 3816, 3813, 3807, 3809, 0, 1, 19405, -89.900, 0.000, 1.600, 0.000, 0.000, -3.000, 0.0, , , , , , 96, , , 11, 11, 11
36.7915920, -118.9555470, 41.200, 13:40:41.089, 14, 0.00, 0.72, 97, -3.500, 4.600, 0.700, 377, 100, 98, 25, 22870, -26289, 5178, 5339, 19, 14, 1529008841.090, 67, 0, 1024, 1024, 1024, 1024, 0, 6, 3788, 3833, 3816, 3813, 3807, 3809, 0, 1, 19505, -90.000, 0.000, 1.600, 0.000, 0.000, -2.900, 0.0, , , , , , 96, , , 11, 11, 11
36.7915919, -118.9555469, 41.500, 13:40:41.189, 14, 0.10, 0.71, 97, -3.400, 4.400, 0.800, 377, 100, 98, 25, 22870, -26289, 5178, 5339, 19, 14, 1529008841.190, 54, 0, 1024, 1024, 1024, 1024, 0, 6, 3788, 3833, 3816, 3813, 3807, 3809, 0, 1, 19605, -90.000, 0.000, 1.600, -0.100, 0.000, -3.000, 0.0, , , , , , 96, , , 11, 11, 11
36.7915919, -118.9555469, 41.500, 13:40:41.288, 14, 0.10, 0.71, 97, -3.400, 4.400, 0.800, 377, 100, 98, 25, 22764, -26734, 5178, 5339, 19, 14, 1529008841.289, 154, 0, 1024, 1024, 1024, 1024, 0, 6, 3788, 3833, 3816, 3813, 3807, 3809, 0, 1, 19704, -90.000, 0.000, 1.600, -0.100, 0.000, -3.000, 0.0, , , , , , 96, , , 11, 11, 11
36.7915916, -118.9555469, 42.100, 13:40:41.389, 14, 0.10, 0.68, 97, -3.600, 2.600, 1.100, 377, 100, 99, 25, 22764, -26734, 5178, 5339, 19, 14, 1529008841.390, 65, 0, 1024, 1024, 1024, 1024, 0, 6, 3788, 3833, 3816, 3813, 3807, 3809, 0, 1, 19805, -90.000, 0.000, 1.600, -0.100, 0.000, -2.900, 0.0, , , , , , 96, , , 11, 11, 11
36.7915914, -118.9555469, 42.400, 13:40:41.489, 14, 0.10, 0.67, 97, -3.900, 1.800, 1.200, 377, 100, 99, 25, 22764, -26734, 5178, 5339, 19, 14, 1529008841.490, 55, 0, 1024, 1024, 1024, 1024, 0, 6, 3788, 3833, 3816, 3813, 3807, 3809, 0, 1, 19905, -90.000, 0.000, 1.600, -0.100, 0.000, -3.000, 0.0, , , , , , 96, , , 11, 11, 11
36.7915913, -118.9555469, 42.700, 13:40:41.589, 14, 0.10, 0.65, 97, -4.000, 1.400, 1.400, 377, 100, 99, 25, 22764, -26734, 5178, 5339, 19, 14, 1529008841.589, 54, 0, 1024, 1024, 1024, 1024, 0, 6, 3788, 3833, 3816, 3813, 3807, 3809, 0, 1, 20005, -90.000, 0.000, 1.600, -0.100, 0.000, -2.900, 0.0, , , , , , 96, , , 11, 11, 11
36.7915912, -118.9555469, 43.000, 13:40:41.689, 14, 0.00, 0.64, 97, -4.000, 1.700, 1.400, 377, 100, 99, 25, 22764, -26734, 5178, 5339, 19, 14, 1529008841.690, 57, 0, 1024, 1024, 1024, 1024, 0, 6, 3788, 3833, 3816, 3813, 3807, 3809, 0, 1, 20105, -90.000, 0.000, 1.600, 0.000, 0.000, -2.800, 0.0, , , , , , 96, , , 11, 11, 11
36.7915911, -118.9555469, 43.300, 13:40:41.789, 14, 0.00, 0.63, 97, -3.600, 2.300, 1.500, 377, 100, 99, 25, 22764, -26734, 5178, 5339, 19, 14, 1529008841.790, 48, 0, 1024, 1024, 1024, 1024, 0, 6, 3766, 3822, 3799, 3800, 3790, 3798, 0, 1, 20205, -89.900, 0.000, 1.600, 0.000, 0.000, -2.800, 0.0, , , , , , 96, , , 11, 11, 11
36.7915911, -118.9555470, 43.500, 13:40:41.889, 14, 0.00, 0.63, 97, -2.900, 2.900, 1.500, 377, 100, 99, 25, 22764, -26734, 5178, 5339, 19, 14, 1529008841.890, 27, 0, 1024, 1024, 1024, 1024, 0, 6, 3766, 3822, 3799, 3800, 3790, 3798, 0, 1, 20305, -89.900, 0.000, 1.600, 0.000, 0.000, -2.800, 0.0, , , , , , 96, , , 11, 11, 11
36.7915911, -118.9555471, 43.800, 13:40:41.989, 14, 0.00, 0.63, 97, -2.400, 3.400, 1.600, 377, 100, 99, 25, 22764, -26734, 5178, 5339, 19, 14, 1529008841.989, 31, 0, 1024, 1024, 1024, 1024, 0, 6, 3766, 3822, 3799, 3800, 3790, 3798, 0, 1, 20405, -89.900, 0.000, 1.600, 0.000, 0.000, -2.800, 0.0, , , , , , 96, , , 11, 11, 11
36.7915911, -118.9555471, 44.100, 13:40:42.089, 14, 0.00, 0.63, 97, -1.800, 3.600, 1.600, 377, 100, 99, 25, 22764, -26734, 5178, 5339, 19, 14, 1529008842.090, 23, 0, 1024, 1024, 1024, 1024, 0, 6, 3766, 3822, 3799, 3800, 3790, 3798, 0, 1, 20505, -89.900, 0.000, 1.600, 0.000, 0.000, -2.900, 0.0, , , , , , 96, , , 11, 11, 11
36.7915911, -118.9555472, 44.400, 13:40:42.189, 14, 0.00, 0.63, 97, -1.500, 3.900, 1.300, 377, 100, 99, 25, 22764, -26734, 5178, 5339, 19, 14, 1529008842.190, 23, 0, 1024, 1024, 1024, 1024, 0, 6, 3766, 3822, 3799, 3800, 3790, 3798, 0, 1, 20605, -89.900, 0.000, 1.600, 0.000, 0.000, -3.000, 0.0, , , , , , 96, , , 11, 11, 11
36.7915911, -118.9555471, 44.700, 13:40:42.292, 14, 0.00, 0.63, 97, -2.400, 4.300, 1.100, 377, 100, 98, 25, 22764, -26734, 5178, 5339, 19, 14, 1529008842.292, 2, 0, 1024, 1024, 1024, 1024, 0, 6, 3766, 3822, 3799, 3800, 3790, 3798, 0, 1, 20708, -89.900, 0.000, 1.600, 0.000, 0.000, -3.100, 0.0, , , , , , 96, , , 11, 11, 11
36.7915911, -118.9555471, 44.700, 13:40:42.389, 14, 0.00, 0.63, 97, -2.400, 4.300, 1.100, 377, 100, 98, 25, 22764, -26734, 5178, 5339, 19, 14, 1529008842.389, 99, 0, 1024, 1024, 1024, 1024, 0, 6, 3766, 3822, 3799, 3800, 3790, 3798, 0, 1, 20805, -89.900, 0.000, 1.600, 0.000, 0.000, -3.100, 0.0, , , , , , 96, , , 11, 11, 11
36.7915911, -118.9555469, 45.400, 13:40:42.500, 14, 0.00, 0.64, 97, -3.700, 4.800, 0.900, 377, 100, 98, 25, 22764, -26734, 5178, 5339, 19, 14, 1529008842.500, 2, 0, 1024, 1024, 1024, 1024, 0, 6, 3766, 3822, 3799, 3800, 3790, 3798, 0, 1, 20916, -89.900, 0.000, 1.600, 0.000, 0.000, -3.100, 0.0, , , , , , 96, , , 11, 11, 11
36.7915911, -118.9555469, 45.400, 13:40:42.589, 14, 0.00, 0.64, 97, -3.700, 4.800, 0.900, 377, 100, 98, 25, 22764, -26734, 5178, 5339, 19, 14, 1529008842.590, 91, 0, 1024, 1024, 1024, 1024, 0, 6, 3766, 3822, 3799, 3800, 3790, 3798, 0, 1, 21005, -89.900, 0.000, 1.600, 0.000, 0.000, -3.100, 0.0, , , , , , 96, , , 11, 11, 11
36.7915912, -118.9555467, 46.000, 13:40:42.689, 14, 0.10, 0.65, 97, -5.000, 4.800, 0.700, 377, 100, 98, 25, 22803, -26095, 5178, 5339, 19, 14, 1529008842.690, 10, 0, 1024, 1024, 1024, 1024, 0, 6, 3752, 3827, 3810, 3803, 3803, 3810, 0, 1, 21105, -89.900, 0.000, 1.600, 0.000, 0.100, -3.000, 0.0, , , , , , 96, , , 11, 11, 11
36.7915912, -118.9555467, 46.000, 13:40:42.789, 14, 0.10, 0.65, 97, -5.000, 4.800, 0.700, 377, 100, 98, 25, 22803, -26095, 5178, 5339, 19, 14, 1529008842.789, 110, 0, 1024, 1024, 1024, 1024, 0, 6, 3752, 3827, 3810, 3803, 3803, 3810, 0, 1, 21205, -89.900, 0.000, 1.600, 0.000, 0.100, -3.000, 0.0, , , , , , 96, , , 11, 11, 11
