Latitude, Longitude, Altitude (m), Time, Sats, Speed (m/s), Range (m), Battery (%), Roll (deg), Pitch (deg), Yaw (deg), Images, HD Signal (%), RC Signal (%), Battery Temp (C), Battery Voltage (mV), Battery Current (mA), Battery Energy (mAh), Battery Capacity (mAh), Battery Discharges, flyState, timestamp (Unix), LastUpdate (ms), radioChannel, Rc_elevator, Rc_aileron, Rc_throttle, Rc_rudder, Rc_gyro, Dronetype, Battery_Cell1 (mV), Battery_Cell2 (mV), Battery_Cell3 (mV), Battery_Cell4 (mV), Battery_Cell5 (mV), Battery_Cell6 (mV), Video, isFlying, elapsedTime (ms), gimbalPitch (deg), gimbalRoll (deg), gimbalYaw (deg), VelocityX (m/s), VelocityY (m/s), VelocityZ (m/s), GroundSmear (cm), App Version, Aircraft Name, Aircraft Firmware, Aircraft Serial Number, Battery Serial Number, Battery Lifetime (%), App_Tip, App_Warning, CurrentFlightStartingIndex, CurrentFlightLastVisitedWaypoint, PreviousFlightEndingWaypointIndex
36.7916208, -118.9555796, -0.100, 13:21:22.346, 12, 0.10, 0.13, 98, 0.700, -1.100, 2.200, 2, 100, 100, 23, 25417, -2930, 5250, 5358, 18, 11, 1529007682.347, 54, 0, 1024, 1024, 1024, 1024, 0, 6, 4222, 4263, 4283, 4234, 4287, 4199, 0, 1, 3151, -89.900, 0.000, 0.900, 0.100, 0.000, 0.000, 0.0, MapPilot_2.8.1_04242018, Dendroctonus I, 1.3.1.00, 041DDC1887, 1058163200505, 96, DJI_0001.jpg, Starting Mission from Lat/Long: 36.79165/-118.95553 Camera: Zenmuse X3 - Overlap: 90/90 - Active Connection: No, 0, 0, 0
36.7916208, -118.9555796, -0.100, 13:21:22.396, 12, 0.10, 0.13, 98, 0.700, -1.100, 2.200, 2, 100, 100, 23, 25417, -2930, 5250, 5358, 18, 11, 1529007682.396, 103, 0, 1024, 1024, 1024, 1024, 0, 6, 4222, 4263, 4283, 4234, 4287, 4199, 0, 1, 3200, -89.900, 0.000, 0.900, 0.100, 0.000, 0.000, 0.0, , , , , , 96, , , 0, 0, 0
36.7916211, -118.9555796, -0.100, 13:21:22.496, 12, 0.10, 0.16, 98, 0.400, 0.400, 2.500, 2, 100, 100, 23, 25434, -5007, 5250, 5358, 18, 11, 1529007682.496, 78, 0, 1024, 1024, 1024, 1024, 0, 6, 4201, 4212, 4181, 4234, 4233, 4176, 0, 1, 3300, -89.900, 0.000, 0.900, 0.100, 0.000, -0.400, 0.0, , , , , , 96, , , 0, 0, 0
36.7916213, -118.9555796, 0.000, 13:21:22.596, 12, 0.10, 0.17, 98, 0.100, 0.700, 2.600, 2, 100, 100, 23, 25434, -5007, 5250, 5358, 18, 11, 1529007682.596, 93, 0, 1024, 1024, 1024, 1024, 0, 6, 4201, 4212, 4181, 4234, 4233, 4176, 0, 1, 3400, -89.900, 0.000, 1.000, 0.100, 0.000, -0.500, 0.0, , , , , , 96, , , 0, 0, 0
36.7916215, -118.9555796, 0.000, 13:21:22.696, 12, 0.10, 0.19, 98, 0.000, 0.600, 2.600, 2, 100, 100, 23, 25434, -5007, 5250, 5358, 18, 11, 1529007682.696, 94, 0, 1024, 1024, 1024, 1024, 0, 6, 4201, 4212, 4181, 4234, 4233, 4176, 0, 1, 3500, -89.900, 0.000, 1.000, 0.100, 0.000, -0.500, 0.0, , , , , , 96, , , 0, 0, 0
36.7916216, -118.9555796, 0.000, 13:21:22.796, 12, 0.10, 0.21, 98, 0.000, 0.900, 2.600, 2, 100, 100, 23, 25434, -5007, 5250, 5358, 18, 11, 1529007682.796, 87, 0, 1024, 1024, 1024, 1024, 0, 6, 4201, 4212, 4181, 4234, 4233, 4176, 0, 1, 3600, -89.900, 0.000, 1.000, 0.100, 0.000, -0.500, 0.0, , , , , , 96, , , 0, 0, 0
36.7916218, -118.9555797, 0.000, 13:21:22.896, 12, 0.10, 0.23, 98, 0.200, 1.100, 2.600, 2, 100, 100, 23, 25434, -5007, 5250, 5358, 18, 11, 1529007682.896, 88, 0, 1024, 1024, 1024, 1024, 0, 6, 4201, 4212, 4181, 4234, 4233, 4176, 0, 1, 3700, -89.900, 0.000, 1.000, 0.100, 0.000, -0.400, 0.0, , , , , , 96, , , 0, 0, 0
36.7916219, -118.9555797, 0.100, 13:21:22.996, 12, 0.10, 0.24, 98, 0.300, 1.000, 2.500, 2, 100, 100, 23, 25434, -5007, 5250, 5358, 18, 11, 1529007682.996, 82, 0, 1024, 1024, 1024, 1024, 0, 6, 4201, 4212, 4181, 4234, 4233, 4176, 0, 1, 3800, -89.900, 0.000, 1.000, 0.100, 0.000, -0.400, 0.0, , , , , , 96, , , 0, 0, 0
36.7916220, -118.9555798, 0.100, 13:21:23.096, 12, 0.10, 0.26, 98, 0.500, 1.400, 2.300, 2, 100, 100, 23, 25434, -5007, 5250, 5358, 18, 11, 1529007683.096, 86, 0, 1024, 1024, 1024, 1024, 0, 6, 4201, 4212, 4181, 4234, 4233, 4176, 0, 1, 3900, -89.900, 0.000, 1.000, 0.100, 0.000, -0.400, 0.0, , , , , , 96, , , 0, 0, 0
36.7916221, -118.9555798, 0.200, 13:21:23.196, 12, 0.00, 0.27, 98, 0.900, 1.700, 2.000, 2, 100, 100, 23, 25434, -5007, 5250, 5358, 18, 11, 1529007683.196, 79, 0, 1024, 1024, 1024, 1024, 0, 6, 4201, 4212, 4181, 4234, 4233, 4176, 0, 1, 4000, -89.900, 0.000, 1.000, 0.000, 0.000, -0.400, 0.0, , , , , , 96, , , 0, 0, 0
36.7916222, -118.9555798, 0.200, 13:21:23.296, 12, 0.00, 0.27, 98, 0.700, 1.900, 1.700, 2, 100, 100, 23, 25434, -5007, 5250, 5358, 18, 11, 1529007683.296, 38, 0, 1024, 1024, 1024, 1024, 0, 6, 4201, 4212, 4181, 4234, 4233, 4176, 0, 1, 4100, -89.900, 0.000, 1.100, 0.000, 0.000, -0.300, 0.0, , , , , , 96, , , 0, 0, 0
36.7916222, -118.9555799, 0.300, 13:21:23.396, 12, 0.00, 0.28, 98, 0.500, 1.600, 1.600, 2, 100, 100, 23, 25434, -5007, 5250, 5358, 18, 11, 1529007683.396, 27, 0, 1024, 1024, 1024, 1024, 0, 6, 4201, 4212, 4181, 4234, 4233, 4176, 0, 1, 4200, -89.900, 0.000, 1.100, 0.000, 0.000, -0.400, 0.0, , , , , , 96, , , 0, 0, 0
36.7916223, -118.9555799, 0.300, 13:21:23.496, 12, 0.00, 0.28, 98, 0.300, 1.200, 1.600, 2, 100, 100, 23, 24390, -14836, 5250, 5358, 18, 11, 1529007683.496, 59, 0, 1024, 1024, 1024, 1024, 0, 6, 4201, 4212, 4181, 4234, 4233, 4176, 0, 1, 4300, -89.900, 0.000, 1.100, 0.000, 0.000, -0.300, 0.0, , , , , , 96, , , 0, 0, 0
36.7916223, -118.9555799, 0.300, 13:21:23.596, 12, 0.00, 0.29, 98, 0.300, 0.900, 1.800, 2, 100, 100, 23, 24390, -14836, 5250, 5358, 18, 11, 1529007683.596, 51, 0, 1024, 1024, 1024, 1024, 0, 6, 4201, 4212, 4181, 4234, 4233, 4176, 0, 1, 4400, -89.900, 0.000, 1.100, 0.000, 0.000, -0.400, 0.0, , , , , , 96, , , 0, 0, 0
36.7916223, -118.9555800, 0.400, 13:21:23.696, 12, 0.00, 0.29, 98, 0.400, 0.600, 2.100, 2, 100, 100, 23, 24390, -14836, 5250, 5358, 18, 11, 1529007683.696, 44, 0, 1024, 1024, 1024, 1024, 0, 6, 4201, 4212, 4181, 4234, 4233, 4176, 0, 1, 4500, -89.900, 0.000, 1.100, 0.000, 0.000, -0.400, 0.0, , , , , , 96, , , 0, 0, 0
36.7916223, -118.9555801, 0.400, 13:21:23.795, 12, 0.00, 0.30, 98, 0.600, 0.300, 2.500, 2, 100, 100, 23, 24390, -14836, 5250, 5358, 18, 11, 1529007683.796, 45, 0, 1024, 1024, 1024, 1024, 0, 6, 4201, 4212, 4181, 4234, 4233, 4176, 0, 1, 4600, -89.900, 0.000, 1.100, 0.000, 0.000, -0.400, 0.0, , , , , , 96, , , 0, 0, 0
36.7916224, -118.9555802, 0.400, 13:21:23.895, 12, 0.00, 0.31, 98, 0.500, 0.300, 2.800, 2, 100, 100, 23, 24390, -14836, 5250, 5358, 18, 11, 1529007683.895, 6, 0, 1024, 1024, 1024, 1024, 0, 6, 4201, 4212, 4181, 4234, 4233, 4176, 0, 1, 4700, -89.900, 0.000, 1.100, 0.000, 0.000, -0.400, 0.0, , , , , , 96, , , 0, 0, 0
36.7916224, -118.9555803, 0.500, 13:21:23.996, 12, 0.00, 0.31, 98, 0.600, 0.100, 3.000, 2, 100, 100, 23, 24390, -14836, 5250, 5358, 18, 11, 1529007683.996, 29, 0, 1024, 1024, 1024, 1024, 0, 6, 4047, 4016, 4040, 4059, 4053, 4044, 0, 1, 4801, -89.900, 0.000, 1.200, 0.000, 0.000, -0.400, 0.0, , , , , , 96, , , 0, 0, 0
36.7916224, -118.9555805, 0.500, 13:21:24.095, 12, 0.00, 0.32, 98, 1.000, 0.100, 3.100, 2, 100, 100, 23, 24390, -14836, 5250, 5358, 18, 11, 1529007684.095, 29, 0, 1024, 1024, 1024, 1024, 0, 6, 4047, 4016, 4040, 4059, 4053, 4044, 0, 1, 4900, -89.900, 0.000, 1.200, 0.000, 0.000, -0.500, 0.0, , , , , , 96, , , 0, 0, 0
36.7916224, -118.9555806, 0.600, 13:21:24.196, 12, 0.00, 0.32, 98, 1.400, 0.000, 3.100, 2, 100, 100, 23, 24390, -14836, 5250, 5358, 18, 11, 1529007684.196, 30, 0, 1024, 1024, 1024, 1024, 0, 6, 4047, 4016, 4040, 4059, 4053, 4044, 0, 1, 5000, -89.900, 0.000, 1.200, 0.000, 0.000, -0.500, 0.0, , , , , , 96, , , 0, 0, 0
36.7916223, -118.9555807, 0.600, 13:21:24.296, 12, 0.00, 0.32, 98, 1.600, 0.200, 3.100, 2, 100, 100, 23, 24390, -14836, 5250, 5358, 18, 11, 1529007684.296, 17, 0, 1024, 1024, 1024, 1024, 0, 6, 4047, 4016, 4040, 4059, 4053, 4044, 0, 1, 5100, -89.900, 0.000, 1.100, 0.000, 0.000, -0.400, 0.0, , , , , , 96, , , 0, 0, 0
36.7916223, -118.9555807, 0.600, 13:21:24.396, 12, 0.00, 0.32, 98, 1.600, 0.200, 3.100, 2, 100, 100, 23, 24390, -14836, 5250, 5358, 18, 11, 1529007684.396, 117, 0, 1024, 1024, 1024, 1024, 0, 6, 4047, 4016, 4040, 4059, 4053, 4044, 0, 1, 5200, -89.900, 0.000, 1.100, 0.000, 0.000, -0.400, 0.0, , , , , , 96, , , 0, 0, 0
36.7916222, -118.9555809, 0.700, 13:21:24.496, 12, 0.00, 0.33, 98, 1.900, 0.400, 2.900, 2, 100, 100, 23, 24390, -14836, 5250, 5358, 18, 11, 1529007684.496, 3, 0, 1024, 1024, 1024, 1024, 0, 6, 4047, 4016, 4040, 4059, 4053, 4044, 0, 1, 5301, -89.900, 0.000, 1.200, 0.000, 0.000, -0.400, 0.0, , , , , , 96, , , 0, 0, 0
36.7916222, -118.9555809, 0.700, 13:21:24.596, 12, 0.00, 0.33, 98, 1.900, 0.400, 2.900, 2, 100, 100, 23, 24390, -14836, 5250, 5358, 18, 11, 1529007684.596, 103, 0, 1024, 1024, 1024, 1024, 0, 6, 4047, 4016, 4040, 4059, 4053, 4044, 0, 1, 5400, -89.900, 0.000, 1.200, 0.000, 0.000, -0.400, 0.0, , , , , , 96, , , 0, 0, 0
36.7916221, -118.9555810, 0.700, 13:21:24.696, 12, 0.00, 0.33, 98, 2.200, 0.400, 2.700, 2, 100, 100, 23, 24390, -14836, 5250, 5358, 18, 11, 1529007684.696, 81, 0, 1024, 1024, 1024, 1024, 0, 6, 4047, 4016, 4040, 4059, 4053, 4044, 0, 1, 5501, -89.900, 0.000, 1.200, 0.000, 0.000, -0.400, 0.0, , , , , , 96, , , 0, 0, 0
36.7916219, -118.9555810, 0.800, 13:21:24.796, 12, 0.00, 0.31, 98, 1.600, -0.200, 2.200, 2, 100, 100, 23, 24390, -14836, 5250, 5358, 18, 11, 1529007684.796, 89, 0, 1024, 1024, 1024, 1024, 0, 6, 4047, 4016, 4040, 4059, 4053, 4044, 0, 1, 5600, -89.900, 0.000, 1.200, 0.000, 0.000, -0.400, 0.0, , , , , , 96, , , 0, 0, 0
36.7916219, -118.9555810, 0.800, 13:21:24.896, 12, 0.00, 0.31, 98, 1.600, -0.200, 2.200, 2, 100, 100, 23, 24390, -14836, 5250, 5358, 18, 11, 1529007684.896, 189, 0, 1024, 1024, 1024, 1024, 0, 6, 4047, 4016, 4040, 4059, 4053, 4044, 0, 1, 5700, -90.000, 0.000, 1.200, 0.000, 0.000, -0.400, 0.0, , , , , , 96, , , 0, 0, 0
36.7916218, -118.9555809, 0.900, 13:21:24.995, 12, 0.00, 0.29, 98, 1.000, -0.400, 1.900, 2, 100, 100, 23, 24050, -16552, 5250, 5358, 18, 14, 1529007684.996, 85, 0, 1024, 1024, 1024, 1024, 0, 6, 3984, 3995, 3983, 4026, 4027, 3992, 0, 1, 5801, -89.900, 0.000, 1.200, 0.000, 0.000, -0.300, 0.0, , , , , , 96, , , 0, 0, 0
36.7916217, -118.9555809, 0.900, 13:21:25.095, 12, 0.00, 0.28, 98, 0.800, -0.700, 1.800, 2, 100, 100, 23, 24050, -16552, 5250, 5358, 18, 14, 1529007685.096, 64, 0, 1024, 1024, 1024, 1024, 0, 6, 3984, 3995, 3983, 4026, 4027, 3992, 0, 1, 5900, -89.900, 0.000, 1.200, 0.000, 0.000, -0.300, 0.0, , , , , , 96, , , 0, 0, 0
36.7916216, -118.9555809, 0.900, 13:21:25.195, 12, 0.00, 0.28, 98, 0.000, -1.000, 1.700, 2, 100, 100, 23, 24050, -16552, 5250, 5358, 18, 14, 1529007685.196, 79, 0, 1024, 1024, 1024, 1024, 0, 6, 3984, 3995, 3983, 4026, 4027, 3992, 0, 1, 6000, -89.900, 0.000, 1.200, 0.000, 0.000, -0.200, 0.0, , , , , , 96, , , 0, 0, 0
36.7916215, -118.9555809, 0.900, 13:21:25.295, 12, 0.00, 0.27, 98, -0.200, -1.100, 1.600, 2, 100, 100, 23, 24050, -16552, 5250, 5358, 18, 14, 1529007685.295, 84, 0, 1024, 1024, 1024, 1024, 0, 6, 3984, 3995, 3983, 4026, 4027, 3992, 0, 1, 6100, -89.900, 0.000, 1.200, 0.000, 0.000, -0.200, 0.0, , , , , , 96, , , 0, 0, 0
36.7916214, -118.9555810, 0.900, 13:21:25.395, 12, 0.00, 0.26, 98, 0.100, -1.100, 1.600, 2, 100, 100, 23, 24050, -16552, 5250, 5358, 18, 14, 1529007685.396, 73, 0, 1024, 1024, 1024, 1024, 0, 6, 3984, 3995, 3983, 4026, 4027, 3992, 0, 1, 6200, -89.900, 0.000, 1.200, 0.000, 0.000, -0.200, 0.0, , , , , , 96, , , 0, 0, 0
36.7916213, -118.9555810, 0.900, 13:21:25.496, 12, 0.00, 0.26, 98, 0.200, -1.100, 1.600, 2, 100, 100, 23, 24050, -16552, 5250, 5358, 18, 14, 1529007685.496, 54, 0, 1024, 1024, 1024, 1024, 0, 6, 3984, 3995, 3983, 4026, 4027, 3992, 0, 1, 6300, -89.900, 0.000, 1.200, 0.000, 0.000, -0.300, 0.0, , , , , , 96, , , 0, 0, 0
36.7916212, -118.9555810, 1.000, 13:21:25.595, 12, 0.00, 0.26, 98, 0.300, -0.900, 1.600, 2, 100, 100, 23, 24050, -16552, 5250, 5358, 18, 14, 1529007685.596, 45, 0, 1024, 1024, 1024, 1024, 0, 6, 3984, 3995, 3983, 4026, 4027, 3992, 0, 1, 6400, -89.900, 0.000, 1.200, 0.000, 0.000, -0.500, 0.0, , , , , , 96, , , 0, 0, 0
36.7916211, -118.9555810, 1.000, 13:21:25.695, 12, 0.00, 0.25, 98, 0.200, -0.700, 1.500, 2, 100, 100, 23, 24050, -16552, 5250, 5358, 18, 14, 1529007685.696, 56, 0, 1024, 1024, 1024, 1024, 0, 6, 3984, 3995, 3983, 4026, 4027, 3992, 0, 1, 6500, -89.900, 0.000, 1.200, 0.000, 0.000, -0.700, 0.0, , , , , , 96, , , 0, 0, 0
36.7916210, -118.9555810, 1.100, 13:21:25.795, 12, 0.00, 0.25, 98, 0.300, -0.500, 1.600, 2, 100, 100, 23, 24050, -16552, 5250, 5358, 18, 14, 1529007685.796, 59, 0, 1024, 1024, 1024, 1024, 0, 6, 3984, 3995, 3983, 4026, 4027, 3992, 0, 1, 6601, -89.900, 0.000, 1.200, 0.000, 0.000, -0.800, 0.0, , , , , , 96, , , 0, 0, 0
36.7916210, -118.9555811, 1.100, 13:21:25.896, 12, 0.00, 0.25, 98, 0.400, -0.500, 1.700, 2, 100, 100, 23, 24050, -16552, 5250, 5358, 18, 14, 1529007685.896, 63, 0, 1024, 1024, 1024, 1024, 0, 6, 3984, 3995, 3983, 4026, 4027, 3992, 0, 1, 6701, -89.900, 0.000, 1.200, 0.000, 0.000, -1.000, 0.0, , , , , , 96, , , 0, 0, 0
36.7916209, -118.9555811, 1.200, 13:21:25.995, 12, 0.00, 0.25, 98, 0.200, -0.500, 1.800, 2, 100, 100, 23, 23956, -16895, 5250, 5358, 18, 14, 1529007685.995, 38, 0, 1024, 1024, 1024, 1024, 0, 6, 3977, 3969, 3959, 4017, 4014, 3977, 0, 1, 6800, -89.900, 0.000, 1.200, 0.000, 0.000, -1.200, 0.0, , , , , , 96, , , 0, 0, 0
36.7916208, -118.9555810, 1.400, 13:21:26.095, 12, 0.00, 0.24, 98, 0.200, -0.400, 1.900, 2, 100, 100, 23, 23956, -16895, 5250, 5358, 18, 14, 1529007686.096, 47, 0, 1024, 1024, 1024, 1024, 0, 6, 3977, 3969, 3959, 4017, 4014, 3977, 0, 1, 6900, -89.900, 0.000, 1.200, 0.000, 0.000, -1.600, 0.0, , , , , , 96, , , 0, 0, 0
36.7916208, -118.9555810, 1.500, 13:21:26.196, 12, 0.00, 0.24, 98, 0.100, -0.500, 1.800, 2, 100, 100, 23, 23956, -16895, 5250, 5358, 18, 14, 1529007686.196, 50, 0, 1024, 1024, 1024, 1024, 0, 6, 3977, 3969, 3959, 4017, 4014, 3977, 0, 1, 7000, -89.900, 0.000, 1.200, 0.000, 0.000, -1.900, 0.0, , , , , , 96, , , 0, 0, 0
36.7916207, -118.9555811, 1.700, 13:21:26.295, 12, 0.00, 0.24, 98, 0.200, -0.600, 1.700, 2, 100, 100, 23, 23956, -16895, 5250, 5358, 18, 14, 1529007686.296, 26, 0, 1024, 1024, 1024, 1024, 0, 6, 3977, 3969, 3959, 4017, 4014, 3977, 0, 1, 7100, -89.900, 0.000, 1.200, 0.000, 0.000, -2.100, 0.0, , , , , , 96, , , 0, 0, 0
36.7916207, -118.9555812, 2.000, 13:21:26.396, 12, 0.00, 0.25, 98, 0.200, -0.600, 1.700, 2, 100, 100, 23, 23956, -16895, 5250, 5358, 18, 14, 1529007686.396, 29, 0, 1024, 1024, 1024, 1024, 0, 6, 3977, 3969, 3959, 4017, 4014, 3977, 0, 1, 7200, -90.000, 0.000, 1.200, 0.000, 0.000, -2.300, 0.0, , , , , , 96, , , 0, 0, 0
36.7916205, -118.9555811, 2.200, 13:21:26.495, 12, 0.00, 0.24, 98, 0.300, -0.900, 1.700, 2, 100, 100, 23, 23956, -16895, 5250, 5358, 18, 14, 1529007686.496, 37, 0, 1024, 1024, 1024, 1024, 0, 6, 3977, 3969, 3959, 4017, 4014, 3977, 0, 1, 7300, -90.000, 0.000, 1.200, 0.000, 0.000, -2.700, 0.0, , , , , , 96, , , 0, 0, 0
36.7916204, -118.9555811, 2.500, 13:21:26.595, 12, 0.00, 0.23, 98, 0.200, -1.000, 1.600, 2, 100, 100, 23, 23956, -16895, 5250, 5358, 18, 14, 1529007686.596, 12, 0, 1024, 1024, 1024, 1024, 0, 6, 3977, 3969, 3959, 4017, 4014, 3977, 0, 1, 7400, -89.900, 0.000, 1.200, 0.000, 0.000, -2.800, 0.0, , , , , , 96, , , 0, 0, 0
36.7916202, -118.9555810, 2.800, 13:21:26.695, 12, 0.00, 0.22, 98, 0.100, -1.100, 1.600, 2, 100, 100, 23, 23956, -16895, 5250, 5358, 18, 14, 1529007686.696, 16, 0, 1024, 1024, 1024, 1024, 0, 6, 3977, 3969, 3959, 4017, 4014, 3977, 0, 1, 7500, -90.000, 0.000, 1.200, 0.000, 0.000, -3.000, 0.0, , , , , , 96, , , 0, 0, 0
36.7916201, -118.9555810, 3.100, 13:21:26.795, 12, 0.00, 0.22, 98, 0.100, -1.200, 1.600, 2, 100, 100, 23, 23956, -16895, 5250, 5358, 18, 14, 1529007686.796, 16, 0, 1024, 1024, 1024, 1024, 0, 6, 3977, 3969, 3959, 4017, 4014, 3977, 0, 1, 7600, -90.000, 0.000, 1.200, 0.000, 0.000, -3.000, 0.0, , , , , , 96, , , 0, 0, 0
36.7916199, -118.9555809, 3.400, 13:21:26.895, 12, 0.00, 0.21, 98, 0.000, -1.400, 1.700, 2, 100, 100, 23, 23956, -16895, 5250, 5358, 18, 14, 1529007686.896, 20, 0, 1024, 1024, 1024, 1024, 0, 6, 3977, 3969, 3959, 4017, 4014, 3977, 0, 1, 7700, -89.900, 0.000, 1.200, 0.000, 0.000, -3.100, 0.0, , , , , , 96, , , 0, 0, 0
36.7916198, -118.9555808, 3.700, 13:21:26.995, 12, 0.00, 0.20, 98, -0.100, -1.400, 1.700, 2, 100, 100, 23, 23445, -20664, 5250, 5358, 18, 14, 1529007686.996, 20, 0, 1024, 1024, 1024, 1024, 0, 6, 3879, 3883, 3914, 3901, 3902, 3866, 0, 1, 7800, -90.000, 0.000, 1.200, 0.000, 0.000, -3.200, 0.0, , , , , , 96, , , 0, 0, 0
36.7916198, -118.9555806, 4.000, 13:21:27.095, 12, 0.00, 0.18, 98, -0.500, -1.400, 1.700, 2, 100, 100, 23, 23445, -20664, 5250, 5358, 18, 14, 1529007687.095, 3, 0, 1024, 1024, 1024, 1024, 0, 6, 3879, 3883, 3914, 3901, 3902, 3866, 0, 1, 7900, -89.900, 0.000, 1.200, 0.000, 0.000, -3.200, 0.0, , , , , , 96, , , 0, 0, 0
36.7916197, -118.9555804, 4.400, 13:21:27.195, 12, 0.00, 0.17, 98, -1.000, -1.300, 1.600, 2, 100, 100, 23, 23445, -20664, 5250, 5358, 18, 14, 1529007687.196, 15, 0, 1024, 1024, 1024, 1024, 0, 6, 3879, 3883, 3914, 3901, 3902, 3866, 0, 1, 8000, -89.900, 0.000, 1.200, 0.000, 0.000, -3.300, 0.0, , , , , , 96, , , 0, 0, 0
36.7916196, -118.9555805, 4.700, 13:21:27.295, 12, 0.00, 0.17, 98, -1.200, -1.000, 1.500, 2, 100, 100, 23, 23445, -20664, 5250, 5358, 18, 14, 1529007687.295, 6, 0, 1024, 1024, 1024, 1024, 0, 6, 3879, 3883, 3914, 3901, 3902, 3866, 0, 1, 8100, -89.900, 0.000, 1.200, 0.000, 0.000, -3.400, 0.0, , , , , , 96, , , 0, 0, 0
36.7916194, -118.9555806, 5.400, 13:21:27.395, 12, 0.00, 0.18, 98, 0.100, -0.800, 1.600, 2, 100, 100, 23, 23445, -20664, 5250, 5358, 18, 14, 1529007687.396, 11, 0, 1024, 1024, 1024, 1024, 0, 6, 3879, 3883, 3914, 3901, 3902, 3866, 0, 1, 8200, -89.900, 0.000, 1.200, 0.000, 0.000, -3.300, 0.0, , , , , , 96, , , 0, 0, 0
36.7916194, -118.9555806, 5.700, 13:21:27.495, 12, 0.00, 0.19, 98, 0.700, -0.900, 1.700, 2, 100, 100, 23, 23445, -20664, 5250, 5358, 18, 14, 1529007687.496, 4, 0, 1024, 1024, 1024, 1024, 0, 6, 3879, 3883, 3914, 3901, 3902, 3866, 0, 1, 8300, -90.000, 0.000, 1.200, 0.000, 0.000, -3.300, 0.0, , , , , , 96, , , 0, 0, 0
36.7916194, -118.9555806, 5.700, 13:21:27.595, 12, 0.00, 0.19, 98, 0.700, -0.900, 1.700, 2, 100, 100, 23, 23445, -20664, 5250, 5358, 18, 14, 1529007687.596, 104, 0, 1024, 1024, 1024, 1024, 0, 6, 3879, 3883, 3914, 3901, 3902, 3866, 0, 1, 8400, -90.000, 0.000, 1.200, 0.000, 0.000, -3.300, 0.0, , , , , , 96, , , 0, 0, 0
36.7916194, -118.9555806, 5.700, 13:21:27.695, 12, 0.00, 0.19, 98, 0.700, -0.900, 1.700, 2, 100, 100, 23, 23445, -20664, 5250, 5358, 18, 14, 1529007687.696, 204, 0, 1024, 1024, 1024, 1024, 0, 6, 3879, 3883, 3914, 3901, 3902, 3866, 0, 1, 8500, -89.900, 0.000, 1.200, 0.000, 0.000, -3.300, 0.0, , , , , , 96, , , 0, 0, 0
36.7916194, -118.9555808, 6.400, 13:21:27.795, 12, 0.10, 0.20, 98, 0.800, -0.600, 1.800, 2, 100, 100, 23, 23445, -20664, 5250, 5358, 18, 14, 1529007687.796, 85, 0, 1024, 1024, 1024, 1024, 0, 6, 3879, 3883, 3914, 3901, 3902, 3866, 0, 1, 8600, -89.900, 0.000, 1.200, 0.100, 0.000, -3.300, 0.0, , , , , , 96, , , 0, 0, 0
36.7916195, -118.9555808, 6.800, 13:21:27.895, 12, 0.10, 0.21, 98, 0.700, -0.500, 1.800, 2, 100, 100, 23, 23445, -20664, 5250, 5358, 18, 14, 1529007687.896, 75, 0, 1024, 1024, 1024, 1024, 0, 6, 3879, 3883, 3914, 3901, 3902, 3866, 0, 1, 8700, -89.900, 0.000, 1.200, 0.100, 0.000, -3.300, 0.0, , , , , , 96, , , 0, 0, 0
36.7916195, -118.9555809, 7.100, 13:21:27.995, 12, 0.10, 0.21, 98, 0.700, -0.400, 1.700, 2, 100, 100, 23, 23156, -24436, 5250, 5358, 18, 14, 1529007687.995, 95, 0, 1024, 1024, 1024, 1024, 0, 6, 3836, 3858, 3851, 3911, 3908, 3851, 0, 1, 8800, -89.900, 0.000, 1.200, 0.100, 0.000, -3.300, 0.0, , , , , , 96, , , 0, 0, 0
36.7916196, -118.9555810, 7.400, 13:21:28.095, 12, 0.10, 0.22, 98, 0.700, -0.300, 1.700, 2, 100, 100, 23, 23156, -24436, 5250, 5358, 18, 14, 1529007688.095, 67, 0, 1024, 1024, 1024, 1024, 0, 6, 3836, 3858, 3851, 3911, 3908, 3851, 0, 1, 8900, -89.900, 0.000, 1.200, 0.100, 0.000, -3.200, 0.0, , , , , , 96, , , 0, 0, 0
36.7916197, -118.9555810, 7.800, 13:21:28.195, 12, 0.10, 0.22, 98, 0.700, -0.200, 1.800, 2, 100, 100, 23, 23156, -24436, 5250, 5358, 18, 14, 1529007688.196, 67, 0, 1024, 1024, 1024, 1024, 0, 6, 3836, 3858, 3851, 3911, 3908, 3851, 0, 1, 9000, -89.900, 0.000, 1.200, 0.100, 0.000, -3.100, 0.0, , , , , , 96, , , 0, 0, 0
36.7916198, -118.9555811, 8.100, 13:21:28.295, 12, 0.10, 0.23, 98, 0.700, -0.200, 1.800, 2, 100, 100, 23, 23156, -24436, 5250, 5358, 18, 14, 1529007688.295, 61, 0, 1024, 1024, 1024, 1024, 0, 6, 3836, 3858, 3851, 3911, 3908, 3851, 0, 1, 9100, -89.900, 0.000, 1.200, 0.100, 0.000, -3.200, 0.0, , , , , , 96, , , 0, 0, 0
36.7916198, -118.9555812, 8.400, 13:21:28.395, 12, 0.10, 0.24, 98, 0.500, -0.500, 1.900, 2, 100, 100, 23, 23156, -24436, 5250, 5358, 18, 14, 1529007688.395, 64, 0, 1024, 1024, 1024, 1024, 0, 6, 3836, 3858, 3851, 3911, 3908, 3851, 0, 1, 9200, -90.000, 0.000, 1.200, 0.100, 0.000, -3.200, 0.0, , , , , , 96, , , 0, 0, 0
36.7916199, -118.9555814, 8.700, 13:21:28.495, 12, 0.10, 0.25, 98, 0.500, -0.700, 1.900, 2, 100, 100, 23, 23156, -24436, 5250, 5358, 18, 14, 1529007688.495, 56, 0, 1024, 1024, 1024, 1024, 0, 6, 3836, 3858, 3851, 3911, 3908, 3851, 0, 1, 9300, -90.000, 0.000, 1.200, 0.100, 0.000, -3.200, 0.0, , , , , , 96, , , 0, 0, 0
36.7916200, -118.9555815, 9.000, 13:21:28.595, 12, 0.10, 0.26, 98, 0.700, -0.600, 1.800, 2, 100, 100, 23, 23156, -24436, 5250, 5358, 18, 14, 1529007688.595, 62, 0, 1024, 1024, 1024, 1024, 0, 6, 3836, 3858, 3851, 3911, 3908, 3851, 0, 1, 9400, -89.900, 0.000, 1.200, 0.100, 0.000, -3.100, 0.0, , , , , , 96, , , 0, 0, 0
36.7916202, -118.9555817, 9.400, 13:21:28.695, 12, 0.10, 0.28, 98, 1.000, -0.400, 1.800, 2, 100, 100, 23, 23156, -24436, 5250, 5358, 18, 14, 1529007688.696, 31, 0, 1024, 1024, 1024, 1024, 0, 6, 3836, 3858, 3851, 3911, 3908, 3851, 0, 1, 9500, -89.900, 0.000, 1.200, 0.100, 0.000, -3.200, 0.0, , , , , , 96, , , 0, 0, 0
36.7916203, -118.9555818, 9.700, 13:21:28.795, 12, 0.10, 0.29, 98, 1.400, 0.000, 1.800, 2, 100, 100, 23, 23156, -24436, 5250, 5358, 18, 14, 1529007688.795, 32, 0, 1024, 1024, 1024, 1024, 0, 6, 3836, 3858, 3851, 3911, 3908, 3851, 0, 1, 9600, -89.900, 0.000, 1.200, 0.100, 0.000, -3.100, 0.0, , , , , , 96, , , 0, 0, 0
36.7916205, -118.9555819, 10.000, 13:21:28.895, 12, 0.10, 0.30, 98, 1.800, 0.400, 1.800, 2, 100, 100, 23, 23156, -24436, 5250, 5358, 18, 14, 1529007688.895, 35, 0, 1024, 1024, 1024, 1024, 0, 6, 3836, 3858, 3851, 3911, 3908, 3851, 0, 1, 9700, -89.900, 0.000, 1.200, 0.100, 0.000, -3.100, 0.0, , , , , , 96, , , 0, 0, 0
36.7916207, -118.9555820, 10.300, 13:21:28.995, 12, 0.10, 0.31, 98, 1.400, 0.800, 1.700, 2, 100, 100, 23, 23455, -20193, 5250, 5358, 18, 14, 1529007688.995, 30, 0, 1024, 1024, 1024, 1024, 0, 6, 3836, 3858, 3851, 3911, 3908, 3851, 0, 1, 9800, -89.900, 0.000, 1.200, 0.100, 0.000, -3.100, 0.0, , , , , , 96, , , 0, 0, 0
36.7916209, -118.9555820, 10.600, 13:21:29.095, 12, 0.10, 0.33, 98, 1.200, 1.100, 1.700, 2, 100, 100, 23, 23455, -20193, 5250, 5358, 18, 14, 1529007689.095, 29, 0, 1024, 1024, 1024, 1024, 0, 6, 3836, 3858, 3851, 3911, 3908, 3851, 0, 1, 9900, -89.900, 0.000, 1.100, 0.100, 0.000, -3.200, 0.0, , , , , , 96, , , 0, 0, 0
36.7916210, -118.9555821, 10.900, 13:21:29.195, 12, 0.10, 0.34, 98, 1.100, 1.400, 1.700, 2, 100, 100, 23, 23455, -20193, 5250, 5358, 18, 14, 1529007689.196, 28, 0, 1024, 1024, 1024, 1024, 0, 6, 3836, 3858, 3851, 3911, 3908, 3851, 0, 1, 10000, -89.900, 0.000, 1.200, 0.100, 0.000, -3.100, 0.0, , , , , , 96, , , 0, 0, 0
36.7916212, -118.9555821, 11.200, 13:21:29.295, 12, 0.10, 0.35, 98, 1.300, 1.500, 1.700, 2, 100, 100, 23, 23455, -20193, 5250, 5358, 18, 14, 1529007689.295, 5, 0, 1024, 1024, 1024, 1024, 0, 6, 3836, 3858, 3851, 3911, 3908, 3851, 0, 1, 10100, -89.900, 0.000, 1.200, 0.100, 0.000, -3.100, 0.0, , , , , , 96, , , 0, 0, 0
36.7916214, -118.9555822, 11.600, 13:21:29.395, 12, 0.10, 0.36, 98, 1.200, 1.500, 1.700, 2, 100, 100, 23, 23455, -20193, 5250, 5358, 18, 14, 1529007689.396, 11, 0, 1024, 1024, 1024, 1024, 0, 6, 3887, 3897, 3899, 3941, 3936, 3895, 0, 1, 10200, -89.900, 0.000, 1.200, 0.100, 0.000, -3.100, 0.0, , , , , , 96, , , 0, 0, 0
36.7916215, -118.9555822, 11.900, 13:21:29.497, 12, 0.10, 0.37, 98, 1.100, 1.400, 1.700, 2, 100, 100, 23, 23455, -20193, 5250, 5358, 18, 14, 1529007689.497, 2, 0, 1024, 1024, 1024, 1024, 0, 6, 3887, 3897, 3899, 3941, 3936, 3895, 0, 1, 10301, -89.900, 0.000, 1.200, 0.100, 0.000, -3.100, 0.0, , , , , , 96, , , 0, 0, 0
36.7916215, -118.9555822, 11.900, 13:21:29.595, 12, 0.10, 0.37, 98, 1.100, 1.400, 1.700, 2, 100, 100, 23, 23455, -20193, 5250, 5358, 18, 14, 1529007689.595, 100, 0, 1024, 1024, 1024, 1024, 0, 6, 3887, 3897, 3899, 3941, 3936, 3895, 0, 1, 10400, -89.900, 0.000, 1.200, 0.100, 0.000, -3.100, 0.0, , , , , , 96, , , 0, 0, 0
36.7916217, -118.9555824, 12.500, 13:21:29.695, 12, 0.00, 0.39, 98, 0.900, 1.200, 1.600, 2, 100, 100, 23, 23455, -20193, 5250, 5358, 18, 14, 1529007689.695, 10, 0, 1024, 1024, 1024, 1024, 0, 6, 3887, 3897, 3899, 3941, 3936, 3895, 0, 1, 10500, -89.900, 0.000, 1.200, 0.000, 0.000, -3.100, 0.0, , , , , , 96, , , 0, 0, 0
36.7916217, -118.9555824, 12.500, 13:21:29.795, 12, 0.00, 0.39, 98, 0.900, 1.200, 1.600, 2, 100, 100, 23, 23455, -20193, 5250, 5358, 18, 14, 1529007689.795, 110, 0, 1024, 1024, 1024, 1024, 0, 6, 3887, 3897, 3899, 3941, 3936, 3895, 0, 1, 10600, -89.900, 0.000, 1.200, 0.000, 0.000, -3.100, 0.0, , , , , , 96, , , 0, 0, 0
36.7916218, -118.9555825, 12.900, 13:21:29.895, 12, 0.00, 0.40, 98, 1.000, 1.100, 1.600, 2, 100, 100, 23, 23455, -20193, 5250, 5358, 18, 14, 1529007689.895, 87, 0, 1024, 1024, 1024, 1024, 0, 6, 3887, 3897, 3899, 3941, 3936, 3895, 0, 1, 10700, -89.900, 0.000, 1.200, 0.000, 0.000, -3.100, 0.0, , , , , , 96, , , 0, 0, 0
36.7916219, -118.9555826, 13.500, 13:21:29.995, 12, 0.00, 0.42, 98, 1.000, 0.900, 1.800, 2, 100, 100, 23, 23455, -20193, 5250, 5358, 18, 14, 1529007689.995, 77, 0, 1024, 1024, 1024, 1024, 0, 6, 3887, 3897, 3899, 3941, 3936, 3895, 0, 1, 10800, -89.900, 0.000, 1.200, 0.000, 0.000, -3.000, 0.0, , , , , , 96, , , 0, 0, 0
36.7916220, -118.9555826, 13.800, 13:21:30.095, 12, 0.00, 0.43, 98, 0.900, 0.900, 1.800, 2, 100, 100, 23, 23455, -20193, 5250, 5358, 18, 14, 1529007690.095, 84, 0, 1024, 1024, 1024, 1024, 0, 6, 3887, 3897, 3899, 3941, 3936, 3895, 0, 1, 10900, -89.900, 0.000, 1.200, 0.000, 0.000, -2.900, 0.0, , , , , , 96, , , 0, 0, 0
36.7916220, -118.9555827, 14.000, 13:21:30.195, 12, 0.00, 0.43, 98, 0.900, 0.900, 1.700, 2, 100, 100, 23, 23455, -20193, 5250, 5358, 18, 14, 1529007690.196, 84, 0, 1024, 1024, 1024, 1024, 0, 6, 3887, 3897, 3899, 3941, 3936, 3895, 0, 1, 11000, -89.900, 0.000, 1.200, 0.000, 0.000, -2.900, 0.0, , , , , , 96, , , 0, 0, 0
36.7916221, -118.9555827, 14.300, 13:21:30.295, 12, 0.00, 0.44, 98, 1.000, 0.800, 1.700, 2, 100, 100, 23, 23455, -20193, 5250, 5358, 18, 14, 1529007690.295, 60, 0, 1024, 1024, 1024, 1024, 0, 6, 3887, 3897, 3899, 3941, 3936, 3895, 0, 1, 11100, -89.900, 0.000, 1.200, 0.000, 0.000, -3.000, 0.0, , , , , , 96, , , 0, 0, 0
36.7916222, -118.9555827, 14.600, 13:21:30.395, 12, 0.00, 0.44, 98, 0.900, 0.900, 1.700, 2, 100, 100, 23, 23455, -20193, 5250, 5358, 18, 14, 1529007690.395, 60, 0, 1024, 1024, 1024, 1024, 0, 6, 3887, 3897, 3899, 3941, 3936, 3895, 0, 1, 11200, -89.900, 0.000, 1.200, 0.000, 0.000, -3.000, 0.0, , , , , , 96, , , 0, 0, 0
36.7916222, -118.9555828, 14.900, 13:21:30.495, 12, 0.00, 0.45, 98, 1.000, 1.300, 1.700, 2, 100, 100, 23, 23463, -19671, 5250, 5358, 18, 14, 1529007690.495, 64, 0, 1024, 1024, 1024, 1024, 0, 6, 3892, 3897, 3893, 3943, 3948, 3900, 0, 1, 11300, -89.900, 0.000, 1.200, 0.000, 0.000, -3.000, 0.0, , , , , , 96, , , 0, 0, 0
36.7916223, -118.9555828, 15.200, 13:21:30.595, 12, 0.00, 0.46, 98, 1.000, 1.500, 1.800, 2, 100, 100, 23, 23463, -19671, 5250, 5358, 18, 14, 1529007690.595, 68, 0, 1024, 1024, 1024, 1024, 0, 6, 3892, 3897, 3893, 3943, 3948, 3900, 0, 1, 11400, -89.900, 0.000, 1.200, 0.000, 0.000, -3.000, 0.0, , , , , , 96, , , 0, 0, 0
36.7916223, -118.9555828, 15.600, 13:21:30.695, 12, 0.00, 0.46, 98, 1.200, 1.600, 1.900, 2, 100, 100, 23, 23463, -19671, 5250, 5358, 18, 14, 1529007690.695, 71, 0, 1024, 1024, 1024, 1024, 0, 6, 3892, 3897, 3893, 3943, 3948, 3900, 0, 1, 11500, -89.900, 0.000, 1.200, 0.000, 0.000, -3.100, 0.0, , , , , , 96, , , 0, 0, 0
36.7916223, -118.9555828, 15.900, 13:21:30.795, 12, 0.00, 0.46, 98, 1.200, 1.200, 2.100, 2, 100, 100, 23, 23463, -19671, 5250, 5358, 18, 14, 1529007690.795, 67, 0, 1024, 1024, 1024, 1024, 0, 6, 3892, 3897, 3893, 3943, 3948, 3900, 0, 1, 11600, -89.900, 0.000, 1.200, 0.000, 0.000, -3.000, 0.0, , , , , , 96, , , 0, 0, 0
36.7916223, -118.9555828, 16.200, 13:21:30.895, 12, 0.00, 0.46, 98, 1.500, 0.700, 2.100, 2, 100, 100, 23, 23463, -19671, 5250, 5358, 18, 14, 1529007690.895, 37, 0, 1024, 1024, 1024, 1024, 0, 6, 3892, 3897, 3893, 3943, 3948, 3900, 0, 1, 11700, -89.900, 0.000, 1.200, 0.000, 0.000, -2.900, 0.0, , , , , , 96, , , 0, 0, 0
36.7916223, -118.9555827, 16.500, 13:21:30.995, 12, 0.10, 0.45, 98, 1.200, 0.400, 2.100, 2, 100, 100, 23, 23463, -19671, 5250, 5358, 18, 14, 1529007690.995, 37, 0, 1024, 1024, 1024, 1024, 0, 6, 3892, 3897, 3893, 3943, 3948, 3900, 0, 1, 11800, -89.900, 0.000, 1.200, 0.000, 0.100, -2.900, 0.0, , , , , , 96, , , 0, 0, 0
36.7916223, -118.9555826, 16.700, 13:21:31.095, 12, 0.10, 0.45, 98, 0.600, 0.400, 2.000, 2, 100, 100, 23, 23463, -19671, 5250, 5358, 18, 14, 1529007691.095, 42, 0, 1024, 1024, 1024, 1024, 0, 6, 3892, 3897, 3893, 3943, 3948, 3900, 0, 1, 11900, -90.000, 0.000, 1.200, 0.000, 0.100, -2.900, 0.0, , , , , , 96, , , 0, 0, 0
36.7916223, -118.9555826, 17.000, 13:21:31.195, 12, 0.10, 0.44, 98, -0.100, 0.500, 1.800, 2, 100, 100, 23, 23463, -19671, 5250, 5358, 18, 14, 1529007691.195, 46, 0, 1024, 1024, 1024, 1024, 0, 6, 3892, 3897, 3893, 3943, 3948, 3900, 0, 1, 12000, -89.900, 0.000, 1.200, 0.000, 0.100, -3.000, 0.0, , , , , , 96, , , 0, 0, 0
36.7916223, -118.9555825, 17.300, 13:21:31.295, 12, 0.10, 0.43, 98, -0.300, 0.600, 1.600, 2, 100, 100, 23, 23463, -19671, 5250, 5358, 18, 14, 1529007691.295, 47, 0, 1024, 1024, 1024, 1024, 0, 6, 3892, 3897, 3893, 3943, 3948, 3900, 0, 1, 12100, -89.900, 0.000, 1.200, 0.000, 0.100, -2.900, 0.0, , , , , , 96, , , 0, 0, 0
36.7916223, -118.9555824, 17.600, 13:21:31.395, 12, 0.10, 0.43, 98, -0.300, 0.900, 1.600, 2, 100, 100, 23, 23463, -19671, 5250, 5358, 18, 14, 1529007691.395, 40, 0, 1024, 1024, 1024, 1024, 0, 6, 3892, 3897, 3893, 3943, 3948, 3900, 0, 1, 12200, -89.900, 0.000, 1.200, 0.000, 0.100, -2.800, 0.0, , , , , , 96, , , 0, 0, 0
36.7916223, -118.9555823, 17.900, 13:21:31.495, 12, 0.10, 0.42, 98, -0.100, 1.100, 1.600, 2, 100, 100, 23, 23451, -19642, 5250, 5358, 18, 14, 1529007691.495, 43, 0, 1024, 1024, 1024, 1024, 0, 6, 3882, 3892, 3880, 3936, 3930, 3888, 0, 1, 12300, -89.900, 0.000, 1.200, 0.000, 0.100, -3.000, 0.0, , , , , , 96, , , 0, 0, 0
36.7916223, -118.9555822, 18.200, 13:21:31.595, 12, 0.10, 0.42, 98, -0.500, 1.100, 1.700, 2, 100, 100, 23, 23451, -19642, 5250, 5358, 18, 14, 1529007691.595, 45, 0, 1024, 1024, 1024, 1024, 0, 6, 3882, 3892, 3880, 3936, 3930, 3888, 0, 1, 12400, -89.900, 0.000, 1.200, 0.000, 0.100, -3.100, 0.0, , , , , , 96, , , 0, 0, 0
36.7916223, -118.9555821, 18.600, 13:21:31.695, 12, 0.10, 0.41, 98, -0.800, 0.900, 1.900, 2, 100, 100, 23, 23451, -19642, 5250, 5358, 18, 14, 1529007691.695, 27, 0, 1024, 1024, 1024, 1024, 0, 6, 3882, 3892, 3880, 3936, 3930, 3888, 0, 1, 12500, -89.900, 0.000, 1.200, 0.000, 0.100, -3.000, 0.0, , , , , , 96, , , 0, 0, 0
36.7916223, -118.9555820, 18.900, 13:21:31.795, 12, 0.10, 0.40, 98, -0.300, 0.800, 2.100, 2, 100, 100, 23, 23451, -19642, 5250, 5358, 18, 14, 1529007691.795, 30, 0, 1024, 1024, 1024, 1024, 0, 6, 3882, 3892, 3880, 3936, 3930, 3888, 0, 1, 12600, -89.900, 0.000, 1.200, 0.000, 0.100, -3.000, 0.0, , , , , , 96, , , 0, 0, 0
36.7916222, -118.9555819, 19.200, 13:21:31.895, 12, 0.00, 0.39, 98, 0.000, 0.900, 2.300, 2, 100, 100, 23, 23451, -19642, 5250, 5358, 18, 14, 1529007691.896, 36, 0, 1024, 1024, 1024, 1024, 0, 6, 3882, 3892, 3880, 3936, 3930, 3888, 0, 1, 12700, -89.900, 0.000, 1.200, 0.000, 0.000, -3.000, 0.0, , , , , , 96, , , 0, 0, 0
36.7916222, -118.9555818, 19.500, 13:21:31.995, 12, 0.00, 0.38, 98, -0.100, 1.100, 2.400, 2, 100, 100, 23, 23451, -19642, 5250, 5358, 18, 14, 1529007691.995, 24, 0, 1024, 1024, 1024, 1024, 0, 6, 3882, 3892, 3880, 3936, 3930, 3888, 0, 1, 12800, -89.900, 0.000, 1.100, 0.000, 0.000, -3.000, 0.0, , , , , , 96, , , 0, 0, 0
36.7916222, -118.9555817, 19.800, 13:21:32.095, 12, 0.00, 0.38, 98, -0.300, 1.400, 2.300, 2, 100, 100, 23, 23451, -19642, 5250, 5358, 18, 14, 1529007692.095, 4, 0, 1024, 1024, 1024, 1024, 0, 6, 3882, 3892, 3880, 3936, 3930, 3888, 0, 1, 12899, -89.900, 0.000, 1.200, 0.000, 0.000, -3.000, 0.0, , , , , , 96, , , 0, 0, 0
36.7916222, -118.9555817, 19.800, 13:21:32.195, 12, 0.00, 0.38, 98, -0.300, 1.400, 2.300, 2, 100, 100, 23, 23451, -19642, 5250, 5358, 18, 14, 1529007692.195, 105, 0, 1024, 1024, 1024, 1024, 0, 6, 3882, 3892, 3880, 3936, 3930, 3888, 0, 1, 13000, -89.900, 0.000, 1.200, 0.000, 0.000, -3.000, 0.0, , , , , , 96, , , 0, 0, 0
36.7916221, -118.9555816, 20.300, 13:21:32.295, 12, 0.00, 0.36, 98, 0.000, 1.000, 1.800, 2, 100, 100, 23, 23451, -19642, 5250, 5358, 18, 14, 1529007692.295, 5, 0, 1024, 1024, 1024, 1024, 0, 6, 3882, 3892, 3880, 3936, 3930, 3888, 0, 1, 13099, -90.000, 0.000, 1.200, 0.000, 0.000, -2.900, 0.0, , , , , , 96, , , 0, 0, 0
36.7916221, -118.9555816, 20.300, 13:21:32.395, 12, 0.00, 0.36, 98, 0.000, 1.000, 1.800, 2, 100, 100, 23, 23451, -19642, 5250, 5358, 18, 14, 1529007692.395, 105, 0, 1024, 1024, 1024, 1024, 0, 6, 3882, 3892, 3880, 3936, 3930, 3888, 0, 1, 13200, -90.000, 0.000, 1.200, 0.000, 0.000, -2.900, 0.0, , , , , , 96, , , 0, 0, 0
36.7916221, -118.9555815, 21.000, 13:21:32.495, 12, 0.00, 0.36, 98, -0.300, 0.300, 1.600, 2, 100, 100, 23, 23340, -20594, 5197, 5358, 18, 14, 1529007692.495, 82, 0, 1024, 1024, 1024, 1024, 0, 6, 3871, 3859, 3865, 3908, 3919, 3868, 0, 1, 13300, -89.900, 0.000, 1.200, 0.000, 0.000, -3.000, 0.0, , , , , , 96, , , 0, 0, 0
36.7916221, -118.9555815, 21.000, 13:21:32.595, 12, 0.00, 0.36, 98, -0.300, 0.300, 1.600, 2, 100, 100, 23, 23340, -20594, 5197, 5358, 18, 14, 1529007692.595, 182, 0, 1024, 1024, 1024, 1024, 0, 6, 3871, 3859, 3865, 3908, 3919, 3868, 0, 1, 13400, -89.900, 0.000, 1.200, 0.000, 0.000, -3.000, 0.0, , , , , , 96, , , 0, 0, 0
36.7916221, -118.9555814, 21.600, 13:21:32.695, 12, 0.00, 0.35, 98, 0.000, 0.900, 1.500, 2, 100, 100, 23, 23340, -20594, 5197, 5358, 18, 14, 1529007692.695, 82, 0, 1024, 1024, 1024, 1024, 0, 6, 3871, 3859, 3865, 3908, 3919, 3868, 0, 1, 13500, -89.900, 0.000, 1.200, 0.000, 0.000, -3.000, 0.0, , , , , , 96, , , 0, 0, 0
36.7916221, -118.9555814, 21.900, 13:21:32.795, 12, 0.00, 0.35, 98, 0.000, 1.300, 1.400, 2, 100, 100, 23, 23340, -20594, 5197, 5358, 18, 14, 1529007692.795, 95, 0, 1024, 1024, 1024, 1024, 0, 6, 3871, 3859, 3865, 3908, 3919, 3868, 0, 1, 13600, -89.900, 0.000, 1.200, 0.000, 0.000, -2.900, 0.0, , , , , , 96, , , 0, 0, 0
36.7916221, -118.9555814, 22.200, 13:21:32.895, 12, 0.00, 0.34, 98, 0.000, 1.300, 1.500, 2, 100, 100, 23, 23340, -20594, 5197, 5358, 18, 14, 1529007692.895, 94, 0, 1024, 1024, 1024, 1024, 0, 6, 3871, 3859, 3865, 3908, 3919, 3868, 0, 1, 13700, -89.900, 0.000, 1.200, 0.000, 0.000, -2.900, 0.0, , , , , , 96, , , 0, 0, 0
36.7916221, -118.9555813, 22.500, 13:21:32.995, 12, 0.00, 0.34, 97, 0.100, 1.100, 1.700, 2, 100, 100, 23, 23340, -20594, 5197, 5358, 18, 14, 1529007692.995, 61, 0, 1024, 1024, 1024, 1024, 0, 6, 3871, 3859, 3865, 3908, 3919, 3868, 0, 1, 13800, -89.900, 0.000, 1.200, 0.000, 0.000, -3.000, 0.0, , , , , , 96, , , 0, 0, 0
36.7916221, -118.9555813, 22.800, 13:21:33.095, 12, 0.00, 0.34, 97, 0.200, 1.200, 1.900, 2, 100, 99, 23, 23340, -20594, 5197, 5358, 18, 14, 1529007693.095, 54, 0, 1024, 1024, 1024, 1024, 0, 6, 3871, 3859, 3865, 3908, 3919, 3868, 0, 1, 13900, -89.900, 0.000, 1.200, 0.000, 0.000, -3.000, 0.0, , , , , , 96, , , 0, 0, 0
36.7916221, -118.9555812, 23.100, 13:21:33.195, 12, 0.00, 0.33, 97, 0.300, 1.400, 2.000, 2, 100, 99, 23, 23340, -20594, 5197, 5358, 18, 14, 1529007693.195, 68, 0, 1024, 1024, 1024, 1024, 0, 6, 3871, 3859, 3865, 3908, 3919, 3868, 0, 1, 14000, -89.900, 0.000, 1.200, 0.000, 0.000, -3.100, 0.0, , , , , , 96, , , 0, 0, 0
36.7916220, -118.9555812, 23.400, 13:21:33.295, 12, 0.00, 0.33, 97, 0.100, 1.600, 2.000, 2, 100, 99, 23, 23340, -20594, 5197, 5358, 18, 14, 1529007693.295, 57, 0, 1024, 1024, 1024, 1024, 0, 6, 3871, 3859, 3865, 3908, 3919, 3868, 0, 1, 14100, -89.900, 0.000, 1.200, 0.000, 0.000, -3.000, 0.0, , , , , , 96, , , 0, 0, 0
36.7916220, -118.9555811, 23.700, 13:21:33.395, 12, 0.00, 0.32, 97, -0.200, 1.700, 1.900, 2, 100, 99, 23, 23340, -20594, 5197, 5358, 18, 14, 1529007693.395, 60, 0, 1024, 1024, 1024, 1024, 0, 6, 3871, 3859, 3865, 3908, 3919, 3868, 0, 1, 14200, -89.900, 0.000, 1.200, 0.000, 0.000, -3.000, 0.0, , , , , , 96, , , 0, 0, 0
36.7916220, -118.9555811, 24.000, 13:21:33.495, 12, 0.00, 0.32, 97, -0.400, 1.400, 1.900, 2, 100, 99, 24, 23176, -21777, 5197, 5358, 18, 14, 1529007693.496, 49, 0, 1024, 1024, 1024, 1024, 0, 6, 3838, 3854, 3836, 3891, 3901, 3833, 0, 1, 14300, -89.900, 0.000, 1.200, 0.000, 0.000, -3.000, 0.0, , , , , , 96, , , 0, 0, 0
36.7916219, -118.9555811, 24.300, 13:21:33.595, 12, 0.00, 0.31, 97, -0.200, 0.900, 1.700, 2, 100, 99, 24, 23176, -21777, 5197, 5358, 18, 14, 1529007693.595, 55, 0, 1024, 1024, 1024, 1024, 0, 6, 3838, 3854, 3836, 3891, 3901, 3833, 0, 1, 14400, -89.900, 0.000, 1.200, 0.000, 0.000, -3.000, 0.0, , , , , , 96, , , 0, 0, 0
36.7916219, -118.9555810, 24.600, 13:21:33.695, 12, 0.00, 0.31, 97, -0.100, 0.800, 1.600, 2, 100, 99, 24, 23176, -21777, 5197, 5358, 18, 14, 1529007693.695, 45, 0, 1024, 1024, 1024, 1024, 0, 6, 3838, 3854, 3836, 3891, 3901, 3833, 0, 1, 14500, -89.900, 0.000, 1.200, 0.000, 0.000, -3.000, 0.0, , , , , , 96, , , 0, 0, 0
36.7916218, -118.9555810, 25.000, 13:21:33.795, 12, 0.00, 0.30, 97, 0.000, 0.600, 1.600, 2, 100, 99, 24, 23176, -21777, 5197, 5358, 18, 14, 1529007693.795, 44, 0, 1024, 1024, 1024, 1024, 0, 6, 3838, 3854, 3836, 3891, 3901, 3833, 0, 1, 14600, -90.000, 0.000, 1.200, 0.000, 0.000, -3.000, 0.0, , , , , , 96, , , 0, 0, 0
36.7916218, -118.9555810, 25.300, 13:21:33.895, 12, 0.00, 0.30, 97, 0.000, 0.400, 1.600, 2, 100, 99, 24, 23176, -21777, 5197, 5358, 18, 14, 1529007693.895, 48, 0, 1024, 1024, 1024, 1024, 0, 6, 3838, 3854, 3836, 3891, 3901, 3833, 0, 1, 14700, -90.000, 0.000, 1.200, 0.000, 0.000, -3.000, 0.0, , , , , , 96, , , 0, 0, 0
36.7916218, -118.9555809, 25.600, 13:21:33.995, 12, 0.00, 0.29, 97, 0.000, 0.400, 1.700, 2, 100, 97, 24, 23176, -21777, 5197, 5358, 18, 14, 1529007693.995, 44, 0, 1024, 1024, 1024, 1024, 0, 6, 3838, 3854, 3836, 3891, 3901, 3833, 0, 1, 14800, -89.900, 0.000, 1.200, 0.000, 0.000, -3.000, 0.0, , , , , , 96, , , 0, 0, 0
36.7916217, -118.9555809, 25.900, 13:21:34.095, 12, 0.00, 0.29, 97, 0.100, 0.600, 1.700, 2, 100, 97, 24, 23176, -21777, 5197, 5358, 18, 14, 1529007694.095, 17, 0, 1024, 1024, 1024, 1024, 0, 6, 3838, 3854, 3836, 3891, 3901, 3833, 0, 1, 14900, -89.900, 0.000, 1.200, 0.000, 0.000, -3.000, 0.0, , , , , , 96, , , 0, 0, 0
36.7916217, -118.9555808, 26.200, 13:21:34.195, 12, 0.00, 0.28, 97, 0.000, 0.200, 1.800, 2, 100, 97, 24, 23176, -21777, 5197, 5358, 18, 14, 1529007694.195, 30, 0, 1024, 1024, 1024, 1024, 0, 6, 3838, 3854, 3836, 3891, 3901, 3833, 0, 1, 15000, -89.900, 0.000, 1.200, 0.000, 0.000, -2.900, 0.0, , , , , , 96, , , 0, 0, 0
36.7916218, -118.9555808, 26.500, 13:21:34.295, 12, 0.00, 0.28, 97, -0.200, 0.600, 1.800, 2, 100, 97, 24, 23176, -21777, 5197, 5358, 18, 14, 1529007694.295, 11, 0, 1024, 1024, 1024, 1024, 0, 6, 3838, 3854, 3836, 3891, 3901, 3833, 0, 1, 15100, -89.900, 0.000, 1.200, 0.000, 0.000, -2.900, 0.0, , , , , , 96, , , 0, 0, 0
36.7916218, -118.9555807, 26.800, 13:21:34.395, 12, 0.10, 0.28, 97, -0.600, 1.600, 1.800, 2, 100, 97, 24, 23176, -21777, 5197, 5358, 18, 14, 1529007694.395, 29, 0, 1024, 1024, 1024, 1024, 0, 6, 3838, 3854, 3836, 3891, 3901, 3833, 0, 1, 15200, -89.900, 0.000, 1.200, 0.100, 0.000, -2.900, 0.0, , , , , , 96, , , 0, 0, 0
36.7916218, -118.9555807, 26.800, 13:21:34.495, 12, 0.10, 0.28, 97, -0.600, 1.600, 1.800, 2, 100, 97, 24, 23176, -21777, 5197, 5358, 18, 14, 1529007694.495, 129, 0, 1024, 1024, 1024, 1024, 0, 6, 3838, 3854, 3836, 3891, 3901, 3833, 0, 1, 15300, -89.900, 0.000, 1.200, 0.100, 0.000, -2.900, 0.0, , , , , , 96, , , 0, 0, 0
36.7916220, -118.9555805, 27.400, 13:21:34.595, 12, 0.00, 0.28, 97, -0.800, 2.300, 1.700, 2, 100, 98, 24, 23206, -20954, 5197, 5358, 18, 14, 1529007694.595, 3, 0, 1024, 1024, 1024, 1024, 0, 6, 3838, 3854, 3836, 3891, 3901, 3833, 0, 1, 15400, -89.900, 0.000, 1.200, 0.000, 0.000, -2.900, 0.0, , , , , , 96, , , 0, 0, 0
36.7916220, -118.9555805, 27.400, 13:21:34.695, 12, 0.00, 0.28, 97, -0.800, 2.300, 1.700, 2, 100, 98, 24, 23206, -20954, 5197, 5358, 18, 14, 1529007694.695, 103, 0, 1024, 1024, 1024, 1024, 0, 6, 3838, 3854, 3836, 3891, 3901, 3833, 0, 1, 15500, -89.900, 0.000, 1.200, 0.000, 0.000, -2.900, 0.0, , , , , , 96, , , 0, 0, 0
36.7916220, -118.9555805, 27.700, 13:21:34.795, 12, 0.00, 0.28, 97, -1.000, 2.500, 1.700, 2, 100, 98, 24, 23206, -20954, 5197, 5358, 18, 14, 1529007694.795, 96, 0, 1024, 1024, 1024, 1024, 0, 6, 3838, 3854, 3836, 3891, 3901, 3833, 0, 1, 15600, -89.900, 0.000, 1.200, 0.000, 0.000, -2.800, 0.0, , , , , , 96, , , 0, 0, 0
36.7916220, -118.9555804, 28.000, 13:21:34.895, 12, 0.00, 0.29, 97, -0.900, 2.700, 1.700, 2, 100, 98, 24, 23206, -20954, 5197, 5358, 18, 14, 1529007694.895, 85, 0, 1024, 1024, 1024, 1024, 0, 6, 3838, 3854, 3836, 3891, 3901, 3833, 0, 1, 15700, -89.900, 0.000, 1.200, 0.000, 0.000, -2.700, 0.0, , , , , , 96, , , 0, 0, 0
36.7916221, -118.9555804, 28.200, 13:21:34.995, 12, 0.00, 0.29, 97, -0.800, 2.400, 1.700, 2, 100, 98, 24, 23206, -20954, 5197, 5358, 18, 14, 1529007694.995, 90, 0, 1024, 1024, 1024, 1024, 0, 6, 3844, 3860, 3850, 3907, 3902, 3855, 0, 1, 15800, -89.900, 0.000, 1.200, 0.000, 0.000, -2.700, 0.0, , , , , , 96, , , 0, 0, 0
36.7916221, -118.9555804, 28.800, 13:21:35.095, 12, 0.00, 0.29, 97, 0.000, 1.900, 1.700, 2, 100, 98, 24, 23206, -20954, 5197, 5358, 18, 14, 1529007695.095, 79, 0, 1024, 1024, 1024, 1024, 0, 6, 3844, 3860, 3850, 3907, 3902, 3855, 0, 1, 15900, -89.900, 0.000, 1.200, 0.000, 0.000, -2.900, 0.0, , , , , , 96, , , 0, 0, 0
36.7916222, -118.9555803, 29.200, 13:21:35.195, 12, 0.00, 0.29, 97, -0.200, 1.500, 1.600, 2, 100, 98, 24, 23206, -20954, 5197, 5358, 18, 14, 1529007695.195, 96, 0, 1024, 1024, 1024, 1024, 0, 6, 3844, 3860, 3850, 3907, 3902, 3855, 0, 1, 16000, -90.000, 0.000, 1.200, 0.000, 0.000, -3.000, 0.0, , , , , , 96, , , 0, 0, 0
36.7916222, -118.9555803, 29.200, 13:21:35.295, 12, 0.00, 0.29, 97, -0.200, 1.500, 1.600, 2, 100, 98, 24, 23206, -20954, 5197, 5358, 18, 14, 1529007695.295, 196, 0, 1024, 1024, 1024, 1024, 0, 6, 3844, 3860, 3850, 3907, 3902, 3855, 0, 1, 16100, -90.000, 0.000, 1.200, 0.000, 0.000, -3.000, 0.0, , , , , , 96, , , 0, 0, 0
36.7916222, -118.9555804, 29.700, 13:21:35.395, 12, 0.00, 0.30, 97, -0.400, 1.100, 1.900, 2, 100, 98, 24, 23206, -20954, 5197, 5358, 18, 14, 1529007695.395, 89, 0, 1024, 1024, 1024, 1024, 0, 6, 3844, 3860, 3850, 3907, 3902, 3855, 0, 1, 16200, -90.000, 0.000, 1.200, 0.000, 0.000, -2.700, 0.0, , , , , , 96, , , 0, 0, 0
36.7916222, -118.9555804, 30.000, 13:21:35.495, 12, 0.00, 0.29, 97, -0.500, 0.900, 2.000, 2, 100, 98, 24, 23206, -20954, 5197, 5358, 18, 14, 1529007695.495, 89, 0, 1024, 1024, 1024, 1024, 0, 6, 3844, 3860, 3850, 3907, 3902, 3855, 0, 1, 16300, -89.900, 0.000, 1.200, 0.000, 0.000, -2.900, 0.0, , , , , , 96, , , 0, 0, 0
36.7916222, -118.9555804, 30.000, 13:21:35.595, 12, 0.00, 0.29, 97, -0.500, 0.900, 2.000, 2, 100, 99, 24, 23206, -20954, 5197, 5358, 18, 14, 1529007695.595, 189, 0, 1024, 1024, 1024, 1024, 0, 6, 3844, 3860, 3850, 3907, 3902, 3855, 0, 1, 16400, -89.900, 0.000, 1.200, 0.000, 0.000, -2.900, 0.0, , , , , , 96, , , 0, 0, 0
36.7916222, -118.9555803, 30.600, 13:21:35.695, 12, 0.00, 0.29, 97, -0.200, 1.700, 2.100, 2, 100, 99, 24, 23206, -20954, 5197, 5358, 18, 14, 1529007695.695, 62, 0, 1024, 1024, 1024, 1024, 0, 6, 3844, 3860, 3850, 3907, 3902, 3855, 0, 1, 16500, -89.900, 0.000, 1.200, 0.000, 0.000, -3.000, 0.0, , , , , , 96, , , 0, 0, 0
36.7916222, -118.9555803, 30.900, 13:21:35.795, 12, 0.00, 0.29, 97, -0.200, 1.900, 2.000, 2, 100, 99, 24, 23206, -20954, 5197, 5358, 18, 14, 1529007695.795, 61, 0, 1024, 1024, 1024, 1024, 0, 6, 3844, 3860, 3850, 3907, 3902, 3855, 0, 1, 16600, -89.900, 0.000, 1.200, 0.000, 0.000, -3.000, 0.0, , , , , , 96, , , 0, 0, 0
36.7916222, -118.9555802, 31.200, 13:21:35.895, 12, 0.00, 0.29, 97, -0.100, 1.800, 1.900, 2, 100, 99, 24, 23206, -20954, 5197, 5358, 18, 14, 1529007695.895, 62, 0, 1024, 1024, 1024, 1024, 0, 6, 3844, 3860, 3850, 3907, 3902, 3855, 0, 1, 16700, -89.900, 0.000, 1.200, 0.000, 0.000, -2.900, 0.0, , , , , , 96, , , 0, 0, 0
36.7916222, -118.9555802, 31.500, 13:21:35.995, 12, 0.00, 0.29, 97, -0.400, 1.600, 1.800, 2, 100, 99, 24, 23121, -21520, 5197, 5358, 18, 14, 1529007695.995, 68, 0, 1024, 1024, 1024, 1024, 0, 6, 3829, 3826, 3834, 3880, 3883, 3828, 0, 1, 16800, -89.900, 0.000, 1.200, 0.000, 0.000, -3.000, 0.0, , , , , , 96, , , 0, 0, 0
36.7916222, -118.9555802, 31.900, 13:21:36.095, 12, 0.00, 0.29, 97, -0.400, 1.200, 1.700, 2, 100, 98, 24, 23121, -21520, 5197, 5358, 18, 14, 1529007696.095, 55, 0, 1024, 1024, 1024, 1024, 0, 6, 3829, 3826, 3834, 3880, 3883, 3828, 0, 1, 16899, -90.000, 0.000, 1.200, 0.000, 0.000, -3.100, 0.0, , , , , , 96, , , 0, 0, 0
36.7916221, -118.9555801, 32.200, 13:21:36.195, 12, 0.00, 0.28, 97, -0.200, 1.000, 1.600, 2, 100, 98, 24, 23121, -21520, 5197, 5358, 18, 14, 1529007696.195, 47, 0, 1024, 1024, 1024, 1024, 0, 6, 3829, 3826, 3834, 3880, 3883, 3828, 0, 1, 17000, -89.900, 0.000, 1.200, 0.000, 0.000, -3.000, 0.0, , , , , , 96, , , 0, 0, 0
36.7916221, -118.9555801, 32.500, 13:21:36.295, 12, 0.00, 0.28, 97, -0.300, 1.100, 1.600, 2, 100, 98, 24, 23121, -21520, 5197, 5358, 18, 14, 1529007696.295, 39, 0, 1024, 1024, 1024, 1024, 0, 6, 3829, 3826, 3834, 3880, 3883, 3828, 0, 1, 17100, -90.000, 0.000, 1.200, 0.000, 0.000, -3.000, 0.0, , , , , , 96, , , 0, 0, 0
36.7916221, -118.9555801, 32.800, 13:21:36.395, 12, 0.00, 0.28, 97, -0.500, 1.100, 1.600, 2, 100, 98, 24, 23121, -21520, 5197, 5358, 18, 14, 1529007696.395, 38, 0, 1024, 1024, 1024, 1024, 0, 6, 3829, 3826, 3834, 3880, 3883, 3828, 0, 1, 17200, -89.900, 0.000, 1.200, 0.000, 0.000, -2.900, 0.0, , , , , , 96, , , 0, 0, 0
36.7916222, -118.9555801, 33.100, 13:21:36.495, 12, 0.00, 0.28, 97, -0.600, 1.100, 1.700, 2, 100, 98, 24, 23121, -21520, 5197, 5358, 18, 14, 1529007696.496, 38, 0, 1024, 1024, 1024, 1024, 0, 6, 3829, 3826, 3834, 3880, 3883, 3828, 0, 1, 17301, -89.900, 0.000, 1.200, 0.000, 0.000, -2.900, 0.0, , , , , , 96, , , 0, 0, 0
36.7916222, -118.9555800, 33.300, 13:21:36.595, 12, 0.00, 0.28, 97, -0.700, 1.300, 1.800, 2, 100, 98, 24, 23121, -21520, 5197, 5358, 18, 14, 1529007696.595, 40, 0, 1024, 1024, 1024, 1024, 0, 6, 3829, 3826, 3834, 3880, 3883, 3828, 0, 1, 17400, -89.900, 0.000, 1.200, 0.000, 0.000, -2.800, 0.0, , , , , , 96, , , 0, 0, 0
36.7916222, -118.9555800, 33.600, 13:21:36.695, 12, 0.00, 0.28, 97, -0.800, 1.400, 1.800, 2, 100, 98, 24, 23121, -21520, 5197, 5358, 18, 14, 1529007696.695, 31, 0, 1024, 1024, 1024, 1024, 0, 6, 3829, 3826, 3834, 3880, 3883, 3828, 0, 1, 17500, -89.900, 0.000, 1.200, 0.000, 0.000, -2.800, 0.0, , , , , , 96, , , 0, 0, 0
36.7916222, -118.9555799, 33.900, 13:21:36.795, 12, 0.00, 0.28, 97, -1.000, 1.400, 1.700, 2, 100, 98, 24, 23121, -21520, 5197, 5358, 18, 14, 1529007696.795, 42, 0, 1024, 1024, 1024, 1024, 0, 6, 3829, 3826, 3834, 3880, 3883, 3828, 0, 1, 17599, -89.900, 0.000, 1.200, 0.000, 0.000, -3.100, 0.0, , , , , , 96, , , 0, 0, 0
36.7916223, -118.9555799, 34.300, 13:21:36.895, 12, 0.00, 0.28, 97, -1.200, 1.600, 1.500, 2, 100, 98, 24, 23121, -21520, 5197, 5358, 18, 14, 1529007696.895, 19, 0, 1024, 1024, 1024, 1024, 0, 6, 3829, 3826, 3834, 3880, 3883, 3828, 0, 1, 17700, -89.900, 0.000, 1.200, 0.000, 0.000, -3.000, 0.0, , , , , , 96, , , 0, 0, 0
36.7916223, -118.9555798, 34.600, 13:21:36.995, 12, 0.00, 0.28, 97, -1.000, 1.800, 1.500, 2, 100, 99, 24, 22909, -23696, 5197, 5358, 18, 14, 1529007696.995, 12, 0, 1024, 1024, 1024, 1024, 0, 6, 3786, 3800, 3808, 3861, 3870, 3798, 0, 1, 17800, -89.900, 0.000, 1.200, 0.000, 0.000, -3.100, 0.0, , , , , , 96, , , 0, 0, 0
36.7916223, -118.9555798, 34.900, 13:21:37.095, 12, 0.00, 0.28, 97, -1.200, 1.800, 1.500, 2, 100, 99, 24, 22909, -23696, 5197, 5358, 18, 14, 1529007697.095, 28, 0, 1024, 1024, 1024, 1024, 0, 6, 3786, 3800, 3808, 3861, 3870, 3798, 0, 1, 17900, -89.900, 0.000, 1.200, 0.000, 0.000, -3.000, 0.0, , , , , , 96, , , 0, 0, 0
36.7916223, -118.9555798, 34.900, 13:21:37.195, 12, 0.00, 0.28, 97, -1.200, 1.800, 1.500, 2, 100, 99, 24, 22909, -23696, 5197, 5358, 18, 14, 1529007697.195, 128, 0, 1024, 1024, 1024, 1024, 0, 6, 3786, 3800, 3808, 3861, 3870, 3798, 0, 1, 18000, -89.900, 0.000, 1.200, 0.000, 0.000, -3.000, 0.0, , , , , , 96, , , 0, 0, 0
36.7916223, -118.9555798, 35.500, 13:21:37.306, 12, 0.00, 0.29, 97, -1.100, 2.400, 1.800, 2, 100, 99, 24, 22909, -23696, 5197, 5358, 18, 14, 1529007697.306, 3, 0, 1024, 1024, 1024, 1024, 0, 6, 3786, 3800, 3808, 3861, 3870, 3798, 0, 1, 18111, -89.900, 0.000, 1.200, 0.000, 0.000, -3.000, 0.0, , , , , , 96, , , 0, 0, 0
36.7916224, -118.9555798, 35.900, 13:21:37.396, 12, 0.00, 0.29, 97, -1.100, 2.600, 2.100, 2, 100, 99, 24, 22909, -23696, 5197, 5358, 18, 14, 1529007697.396, 3, 0, 1024, 1024, 1024, 1024, 0, 6, 3786, 3800, 3808, 3861, 3870, 3798, 0, 1, 18200, -89.900, 0.000, 1.200, 0.000, 0.000, -3.000, 0.0, , , , , , 96, , , 0, 0, 0
36.7916223, -118.9555798, 36.200, 13:21:37.495, 12, 0.00, 0.29, 97, -1.600, 2.300, 2.500, 2, 100, 98, 24, 22909, -23696, 5197, 5358, 18, 14, 1529007697.495, 3, 0, 1024, 1024, 1024, 1024, 0, 6, 3786, 3800, 3808, 3861, 3870, 3798, 0, 1, 18299, -90.000, 0.000, 1.200, 0.000, 0.000, -3.000, 0.0, , , , , , 96, , , 0, 0, 0
36.7916223, -118.9555798, 36.500, 13:21:37.595, 12, 0.00, 0.28, 97, -1.900, 1.600, 2.800, 2, 100, 98, 24, 22909, -23696, 5197, 5358, 18, 14, 1529007697.595, 6, 0, 1024, 1024, 1024, 1024, 0, 6, 3786, 3800, 3808, 3861, 3870, 3798, 0, 1, 18400, -90.000, 0.000, 1.200, 0.000, 0.000, -3.000, 0.0, , , , , , 96, , , 0, 0, 0
36.7916223, -118.9555798, 36.500, 13:21:37.695, 12, 0.00, 0.28, 97, -1.900, 1.600, 2.800, 2, 100, 98, 24, 22909, -23696, 5197, 5358, 18, 14, 1529007697.695, 106, 0, 1024, 1024, 1024, 1024, 0, 6, 3786, 3800, 3808, 3861, 3870, 3798, 0, 1, 18499, -90.000, 0.000, 1.200, 0.000, 0.000, -3.000, 0.0, , , , , , 96, , , 0, 0, 0
36.7916223, -118.9555798, 36.800, 13:21:37.795, 12, 0.00, 0.28, 97, -1.900, 0.900, 2.900, 2, 100, 98, 24, 22909, -23696, 5197, 5358, 18, 14, 1529007697.795, 97, 0, 1024, 1024, 1024, 1024, 0, 6, 3786, 3800, 3808, 3861, 3870, 3798, 0, 1, 18600, -90.000, 0.000, 1.200, 0.000, 0.000, -2.900, 0.0, , , , , , 96, , , 0, 0, 0
36.7916223, -118.9555802, 37.700, 13:21:37.897, 12, 0.10, 0.30, 97, 1.300, 1.000, 2.400, 2, 100, 98, 24, 22907, -22867, 5197, 5358, 18, 14, 1529007697.897, 4, 0, 1024, 1024, 1024, 1024, 0, 6, 3796, 3796, 3805, 3850, 3869, 3821, 0, 1, 18702, -89.900, 0.000, 1.200, 0.000, -0.100, -2.800, 0.0, , , , , , 96, , , 0, 0, 0
36.7916223, -118.9555802, 37.700, 13:21:37.995, 12, 0.10, 0.30, 97, 1.300, 1.000, 2.400, 2, 100, 98, 24, 22907, -22867, 5197, 5358, 18, 14, 1529007697.995, 102, 0, 1024, 1024, 1024, 1024, 0, 6, 3796, 3796, 3805, 3850, 3869, 3821, 0, 1, 18799, -89.900, 0.000, 1.200, 0.000, -0.100, -2.800, 0.0, , , , , , 96, , , 0, 0, 0
36.7916223, -118.9555803, 38.000, 13:21:38.095, 12, 0.00, 0.31, 97, 1.700, 1.400, 1.900, 2, 100, 98, 24, 22907, -22867, 5197, 5358, 18, 14, 1529007698.095, 69, 0, 1024, 1024, 1024, 1024, 0, 6, 3796, 3796, 3805, 3850, 3869, 3821, 0, 1, 18900, -89.900, 0.000, 1.200, 0.000, 0.000, -2.700, 0.0, , , , , , 96, , , 0, 0, 0
36.7916223, -118.9555804, 38.200, 13:21:38.195, 12, 0.00, 0.31, 97, 2.000, 1.800, 1.300, 2, 100, 98, 24, 22907, -22867, 5197, 5358, 18, 14, 1529007698.195, 76, 0, 1024, 1024, 1024, 1024, 0, 6, 3796, 3796, 3805, 3850, 3869, 3821, 0, 1, 19000, -89.900, 0.000, 1.200, 0.000, 0.000, -2.600, 0.0, , , , , , 96, , , 0, 0, 0
36.7916224, -118.9555805, 38.500, 13:21:38.295, 12, 0.00, 0.33, 97, 1.700, 2.100, 1.100, 2, 100, 98, 24, 22907, -22867, 5197, 5358, 18, 14, 1529007698.295, 46, 0, 1024, 1024, 1024, 1024, 0, 6, 3796, 3796, 3805, 3850, 3869, 3821, 0, 1, 19099, -89.900, 0.000, 1.200, 0.000, 0.000, -2.600, 0.0, , , , , , 96, , , 0, 0, 0
36.7916225, -118.9555806, 38.700, 13:21:38.395, 12, 0.00, 0.33, 97, 1.000, 2.400, 0.900, 2, 100, 98, 24, 22907, -22867, 5197, 5358, 18, 14, 1529007698.395, 81, 0, 1024, 1024, 1024, 1024, 0, 6, 3796, 3796, 3805, 3850, 3869, 3821, 0, 1, 19200, -89.900, 0.000, 1.200, 0.000, 0.000, -2.800, 0.0, , , , , , 96, , , 0, 0, 0
36.7916226, -118.9555806, 39.000, 13:21:38.495, 12, 0.00, 0.34, 97, 0.400, 2.500, 0.800, 2, 100, 98, 24, 22907, -22867, 5197, 5358, 18, 14, 1529007698.495, 46, 0, 1024, 1024, 1024, 1024, 0, 6, 3796, 3796, 3805, 3850, 3869, 3821, 0, 1, 19300, -89.900, 0.000, 1.200, 0.000, 0.000, -2.800, 0.0, , , , , , 96, , , 0, 0, 0
36.7916226, -118.9555805, 39.300, 13:21:38.595, 12, 0.00, 0.34, 97, -0.100, 2.500, 0.600, 2, 100, 99, 24, 22907, -22867, 5197, 5358, 18, 14, 1529007698.595, 64, 0, 1024, 1024, 1024, 1024, 0, 6, 3796, 3796, 3805, 3850, 3869, 3821, 0, 1, 19400, -89.900, 0.000, 1.200, 0.000, 0.000, -3.000, 0.0, , , , , , 96, , , 0, 0, 0
36.7916227, -118.9555805, 39.600, 13:21:38.695, 12, 0.00, 0.35, 97, -0.800, 2.300, 0.700, 2, 100, 99, 24, 22907, -22867, 5197, 5358, 18, 14, 1529007698.695, 69, 0, 1024, 1024, 1024, 1024, 0, 6, 3796, 3796, 3805, 3850, 3869, 3821, 0, 1, 19499, -89.900, 0.000, 1.200, 0.000, 0.000, -3.000, 0.0, , , , , , 96, , , 0, 0, 0
36.7916228, -118.9555804, 39.900, 13:21:38.795, 12, 0.00, 0.35, 97, -1.000, 2.500, 1.000, 2, 100, 99, 24, 22907, -22867, 5197, 5358, 18, 14, 1529007698.795, 52, 0, 1024, 1024, 1024, 1024, 0, 6, 3796, 3796, 3805, 3850, 3869, 3821, 0, 1, 19600, -89.900, 0.000, 1.200, 0.000, 0.000, -3.000, 0.0, , , , , , 96, , , 0, 0, 0
36.7916228, -118.9555804, 40.200, 13:21:38.895, 12, 0.00, 0.36, 97, -0.900, 2.700, 1.300, 2, 100, 99, 24, 22907, -22867, 5197, 5358, 18, 14, 1529007698.895, 54, 0, 1024, 1024, 1024, 1024, 0, 6, 3796, 3796, 3805, 3850, 3869, 3821, 0, 1, 19699, -89.900, 0.000, 1.200, 0.000, 0.000, -3.000, 0.0, , , , , , 96, , , 0, 0, 0
36.7916229, -118.9555804, 40.600, 13:21:38.995, 12, 0.00, 0.37, 97, -0.600, 3.000, 1.700, 2, 100, 99, 24, 23088, -20786, 5197, 5358, 18, 14, 1529007698.995, 57, 0, 1024, 1024, 1024, 1024, 0, 6, 3830, 3832, 3826, 3876, 3881, 3827, 0, 1, 19800, -89.900, 0.000, 1.200, 0.000, 0.000, -3.000, 0.0, , , , , , 96, , , 0, 0, 0
36.7916230, -118.9555804, 40.800, 13:21:39.095, 12, 0.00, 0.37, 97, -0.300, 3.300, 1.800, 2, 100, 99, 24, 23088, -20786, 5197, 5358, 18, 14, 1529007699.095, 51, 0, 1024, 1024, 1024, 1024, 0, 6, 3830, 3832, 3826, 3876, 3881, 3827, 0, 1, 19899, -89.900, 0.000, 1.200, 0.000, 0.000, -3.000, 0.0, , , , , , 96, , , 0, 0, 0
36.7916230, -118.9555804, 41.100, 13:21:39.195, 12, 0.00, 0.38, 97, -0.300, 3.600, 1.800, 2, 100, 99, 24, 23088, -20786, 5197, 5358, 18, 14, 1529007699.195, 44, 0, 1024, 1024, 1024, 1024, 0, 6, 3830, 3832, 3826, 3876, 3881, 3827, 0, 1, 20000, -89.900, 0.000, 1.200, 0.000, 0.000, -2.900, 0.0, , , , , , 96, , , 0, 0, 0
36.7916231, -118.9555803, 41.500, 13:21:39.295, 12, 0.00, 0.38, 97, -0.600, 3.700, 1.800, 2, 100, 99, 24, 23088, -20786, 5197, 5358, 18, 14, 1529007699.295, 37, 0, 1024, 1024, 1024, 1024, 0, 6, 3830, 3832, 3826, 3876, 3881, 3827, 0, 1, 20100, -89.900, 0.000, 1.200, 0.000, 0.000, -3.000, 0.0, , , , , , 96, , , 0, 0, 0
36.7916231, -118.9555803, 41.800, 13:21:39.395, 12, 0.00, 0.38, 97, -0.600, 3.100, 1.900, 2, 100, 99, 24, 23088, -20786, 5197, 5358, 18, 14, 1529007699.395, 21, 0, 1024, 1024, 1024, 1024, 0, 6, 3830, 3832, 3826, 3876, 3881, 3827, 0, 1, 20200, -89.900, 0.000, 1.200, 0.000, 0.000, -3.000, 0.0, , , , , , 96, , , 0, 0, 0
36.7916232, -118.9555802, 42.100, 13:21:39.495, 12, 0.00, 0.39, 97, -0.300, 2.800, 2.000, 2, 100, 99, 24, 23088, -20786, 5197, 5358, 18, 14, 1529007699.495, 21, 0, 1024, 1024, 1024, 1024, 0, 6, 3830, 3832, 3826, 3876, 3881, 3827, 0, 1, 20299, -89.900, 0.000, 1.200, 0.000, 0.000, -3.000, 0.0, , , , , , 96, , , 0, 0, 0
36.7916232, -118.9555801, 42.400, 13:21:39.595, 12, 0.00, 0.39, 97, -0.500, 3.100, 1.900, 2, 100, 99, 24, 23088, -20786, 5197, 5358, 18, 14, 1529007699.595, 27, 0, 1024, 1024, 1024, 1024, 0, 6, 3830, 3832, 3826, 3876, 3881, 3827, 0, 1, 20399, -89.900, 0.000, 1.200, 0.000, 0.000, -3.000, 0.0, , , , , , 96, , , 0, 0, 0
36.7916232, -118.9555801, 42.700, 13:21:39.695, 12, 0.00, 0.39, 97, -0.600, 3.400, 1.800, 2, 100, 99, 24, 23088, -20786, 5197, 5358, 18, 14, 1529007699.695, 20, 0, 1024, 1024, 1024, 1024, 0, 6, 3830, 3832, 3826, 3876, 3881, 3827, 0, 1, 20500, -89.900, 0.000, 1.200, 0.000, 0.000, -2.900, 0.0, , , , , , 96, , , 0, 0, 0
36.7916233, -118.9555801, 43.000, 13:21:39.801, 12, 0.00, 0.39, 97, -0.600, 3.700, 1.600, 2, 100, 99, 24, 23088, -20786, 5197, 5358, 18, 14, 1529007699.801, 7, 0, 1024, 1024, 1024, 1024, 0, 6, 3830, 3832, 3826, 3876, 3881, 3827, 0, 1, 20606, -89.900, 0.000, 1.200, 0.000, 0.000, -2.900, 0.0, , , , , , 96, , , 0, 0, 0
36.7916233, -118.9555800, 43.200, 13:21:39.897, 12, 0.00, 0.40, 97, -0.700, 3.800, 1.600, 2, 100, 99, 24, 23014, -22748, 5197, 5358, 18, 14, 1529007699.898, 4, 0, 1024, 1024, 1024, 1024, 0, 6, 3830, 3832, 3826, 3876, 3881, 3827, 0, 1, 20702, -89.900, 0.000, 1.200, 0.000, 0.000, -2.800, 0.0, , , , , , 96, , , 0, 0, 0
36.7916234, -118.9555800, 43.600, 13:21:39.995, 12, 0.00, 0.40, 97, -0.900, 3.800, 1.600, 2, 100, 99, 24, 23014, -22748, 5197, 5358, 18, 14, 1529007699.995, 5, 0, 1024, 1024, 1024, 1024, 0, 6, 3830, 3832, 3826, 3876, 3881, 3827, 0, 1, 20799, -89.900, 0.000, 1.200, 0.000, 0.000, -3.000, 0.0, , , , , , 96, , , 0, 0, 0
36.7916234, -118.9555800, 43.600, 13:21:40.095, 12, 0.00, 0.40, 97, -0.900, 3.800, 1.600, 2, 100, 99, 24, 23014, -22748, 5197, 5358, 18, 14, 1529007700.095, 105, 0, 1024, 1024, 1024, 1024, 0, 6, 3830, 3832, 3826, 3876, 3881, 3827, 0, 1, 20900, -89.900, 0.000, 1.200, 0.000, 0.000, -3.000, 0.0, , , , , , 96, , , 0, 0, 0
36.7916234, -118.9555800, 44.200, 13:21:40.195, 12, 0.00, 0.40, 97, -1.200, 3.700, 1.500, 2, 100, 99, 24, 23014, -22748, 5197, 5358, 18, 14, 1529007700.195, 94, 0, 1024, 1024, 1024, 1024, 0, 6, 3830, 3832, 3826, 3876, 3881, 3827, 0, 1, 20999, -89.900, 0.000, 1.200, 0.000, 0.000, -3.000, 0.0, , , , , , 96, , , 0, 0, 0
36.7916234, -118.9555800, 44.200, 13:21:40.295, 12, 0.00, 0.40, 97, -1.200, 3.700, 1.500, 2, 100, 99, 24, 23014, -22748, 5197, 5358, 18, 14, 1529007700.295, 194, 0, 1024, 1024, 1024, 1024, 0, 6, 3830, 3832, 3826, 3876, 3881, 3827, 0, 1, 21100, -89.900, 0.000, 1.200, 0.000, 0.000, -3.000, 0.0, , , , , , 96, , , 0, 0, 0
36.7916234, -118.9555799, 44.800, 13:21:40.395, 12, 0.00, 0.40, 97, -1.000, 3.400, 1.500, 2, 100, 99, 24, 23014, -22748, 5197, 5358, 18, 14, 1529007700.395, 67, 0, 1024, 1024, 1024, 1024, 0, 6, 3830, 3832, 3826, 3876, 3881, 3827, 0, 1, 21200, -89.900, 0.000, 1.200, 0.000, 0.000, -3.000, 0.0, , , , , , 96, , , 0, 0, 0
36.7916234, -118.9555800, 45.100, 13:21:40.495, 12, 0.00, 0.40, 97, -1.000, 3.600, 1.400, 2, 100, 99, 24, 23014, -22748, 5197, 5358, 18, 14, 1529007700.495, 81, 0, 1024, 1024, 1024, 1024, 0, 6, 3809, 3823, 3815, 3873, 3873, 3812, 0, 1, 21300, -89.900, 0.000, 1.200, 0.000, 0.000, -2.900, 0.0, , , , , , 96, , , 0, 0, 0
36.7916234, -118.9555800, 45.400, 13:21:40.595, 12, 0.00, 0.40, 97, -1.000, 3.700, 1.500, 2, 100, 99, 24, 23014, -22748, 5197, 5358, 18, 14, 1529007700.595, 80, 0, 1024, 1024, 1024, 1024, 0, 6, 3809, 3823, 3815, 3873, 3873, 3812, 0, 1, 21399, -89.900, 0.000, 1.200, 0.000, 0.000, -2.900, 0.0, , , , , , 96, , , 0, 0, 0
