Latitude, Longitude, Altitude (m), Time, Sats, Speed (m/s), Range (m), Battery (%), Roll (deg), Pitch (deg), Yaw (deg), Images, HD Signal (%), RC Signal (%), Battery Temp (C), Battery Voltage (mV), Battery Current (mA), Battery Energy (mAh), Battery Capacity (mAh), Battery Discharges, flyState, timestamp (Unix), LastUpdate (ms), radioChannel, Rc_elevator, Rc_aileron, Rc_throttle, Rc_rudder, Rc_gyro, Dronetype, Battery_Cell1 (mV), Battery_Cell2 (mV), Battery_Cell3 (mV), Battery_Cell4 (mV), Battery_Cell5 (mV), Battery_Cell6 (mV), Video, isFlying, elapsedTime (ms), gimbalPitch (deg), gimbalRoll (deg), gimbalYaw (deg), VelocityX (m/s), VelocityY (m/s), VelocityZ (m/s), GroundSmear (cm), App Version, Aircraft Name, Aircraft Firmware, Aircraft Serial Number, Battery Serial Number, Battery Lifetime (%), App_Tip, App_Warning, CurrentFlightStartingIndex, CurrentFlightLastVisitedWaypoint, PreviousFlightEndingWaypointIndex
38.6884361, -120.4165674, 0.000, 10:36:16.604, 13, 0.10, 0.20, 98, -0.400, -0.100, 52.600, 1154, 100, 100, 17, 25739, -2848, 5269, 5377, 17, 11, 1528392976.605, 83, 0, 1024, 1024, 1024, 1024, 0, 6, 4273, 4221, 4267, 4294, 4283, 4254, 0, 1, 3124, -90.000, 0.000, 52.100, 0.100, 0.000, -0.100, 0.0, MapPilot_2.8.1_04242018, Dendroctonus I, 1.3.1.00, 041DDC1887, 1058171200140, 96, DJI_0151.jpg, Starting Mission from Lat/Long: 38.68842/-120.41656 Camera: Zenmuse X3 - Overlap: 90/90 - Active Connection: No, 47, 47, 47
38.6884365, -120.4165676, 0.000, 10:36:16.682, 13, 0.10, 0.24, 98, -0.200, 0.000, 53.200, 1154, 100, 100, 17, 25739, -2848, 5269, 5377, 17, 11, 1528392976.682, 38, 0, 1024, 1024, 1024, 1024, 0, 6, 4273, 4221, 4267, 4294, 4283, 4254, 0, 1, 3202, -89.900, 0.000, 52.200, 0.100, 0.000, -0.300, 0.0, , , , , , 96, , , 47, 47, 47
38.6884367, -120.4165677, 0.000, 10:36:16.781, 13, 0.10, 0.27, 98, 0.200, 0.000, 53.200, 1154, 100, 100, 17, 25739, -2848, 5269, 5377, 17, 11, 1528392976.781, 46, 0, 1024, 1024, 1024, 1024, 0, 6, 4273, 4221, 4267, 4294, 4283, 4254, 0, 1, 3301, -89.900, 0.000, 52.100, 0.100, 0.000, -0.300, 0.0, , , , , , 96, , , 47, 47, 47
38.6884369, -120.4165678, 0.000, 10:36:16.881, 13, 0.20, 0.29, 98, 0.700, 0.200, 53.100, 1154, 100, 100, 17, 25507, -3113, 5269, 5377, 17, 11, 1528392976.882, 34, 0, 1024, 1024, 1024, 1024, 0, 6, 4273, 4221, 4267, 4294, 4283, 4254, 0, 1, 3401, -89.900, 0.000, 52.200, 0.200, 0.000, -0.400, 0.0, , , , , , 96, , , 47, 47, 47
38.6884371, -120.4165678, 0.100, 10:36:16.981, 14, 0.20, 0.32, 98, 1.100, 0.400, 53.000, 1154, 100, 100, 17, 25507, -3113, 5269, 5377, 17, 11, 1528392976.981, 27, 0, 1024, 1024, 1024, 1024, 0, 6, 4273, 4221, 4267, 4294, 4283, 4254, 0, 1, 3501, -89.900, 0.000, 52.100, 0.200, 0.000, -0.400, 0.0, , , , , , 96, , , 47, 47, 47
38.6884374, -120.4165679, 0.100, 10:36:17.082, 14, 0.20, 0.35, 98, 1.500, 0.600, 52.800, 1154, 100, 100, 17, 25507, -3113, 5269, 5377, 17, 11, 1528392977.082, 40, 0, 1024, 1024, 1024, 1024, 0, 6, 4273, 4221, 4267, 4294, 4283, 4254, 0, 1, 3602, -89.900, 0.000, 52.200, 0.200, 0.000, -0.300, 0.0, , , , , , 96, , , 47, 47, 47
38.6884376, -120.4165680, 0.200, 10:36:17.182, 13, 0.20, 0.38, 98, 1.900, 0.900, 52.700, 1154, 100, 100, 17, 25507, -3113, 5269, 5377, 17, 11, 1528392977.183, 24, 0, 1024, 1024, 1024, 1024, 0, 6, 4202, 4237, 4225, 4243, 4237, 4239, 0, 1, 3702, -89.900, 0.000, 52.100, 0.200, 0.000, -0.300, 0.0, , , , , , 96, , , 47, 47, 47
38.6884378, -120.4165680, 0.200, 10:36:17.282, 13, 0.10, 0.40, 98, 2.000, 1.100, 52.600, 1154, 100, 100, 17, 25507, -3113, 5269, 5377, 17, 11, 1528392977.282, 31, 0, 1024, 1024, 1024, 1024, 0, 6, 4202, 4237, 4225, 4243, 4237, 4239, 0, 1, 3802, -89.900, 0.000, 52.100, 0.100, 0.000, -0.400, 0.0, , , , , , 96, , , 47, 47, 47
38.6884379, -120.4165681, 0.300, 10:36:17.382, 14, 0.10, 0.41, 98, 2.000, 1.200, 52.600, 1154, 100, 100, 17, 25507, -3113, 5269, 5377, 17, 11, 1528392977.383, 14, 0, 1024, 1024, 1024, 1024, 0, 6, 4202, 4237, 4225, 4243, 4237, 4239, 0, 1, 3902, -89.900, 0.000, 52.100, 0.100, 0.000, -0.400, 0.0, , , , , , 96, , , 47, 47, 47
38.6884381, -120.4165681, 0.300, 10:36:17.482, 14, 0.10, 0.43, 98, 1.900, 1.200, 52.600, 1154, 100, 100, 17, 25507, -3113, 5269, 5377, 17, 11, 1528392977.484, 14, 0, 1024, 1024, 1024, 1024, 0, 6, 4202, 4237, 4225, 4243, 4237, 4239, 0, 1, 4003, -89.900, 0.000, 52.100, 0.100, 0.000, -0.400, 0.0, , , , , , 96, , , 47, 47, 47
38.6884383, -120.4165682, 0.300, 10:36:17.582, 13, 0.10, 0.45, 98, 1.800, 1.100, 52.600, 1154, 100, 100, 17, 25507, -3113, 5269, 5377, 17, 11, 1528392977.584, 15, 0, 1024, 1024, 1024, 1024, 0, 6, 4202, 4237, 4225, 4243, 4237, 4239, 0, 1, 4103, -89.900, 0.000, 52.100, 0.100, 0.000, -0.400, 0.0, , , , , , 96, , , 47, 47, 47
38.6884383, -120.4165682, 0.300, 10:36:17.685, 13, 0.10, 0.45, 98, 1.800, 1.100, 52.600, 1154, 100, 100, 17, 25507, -3113, 5269, 5377, 17, 11, 1528392977.685, 116, 0, 1024, 1024, 1024, 1024, 0, 6, 4202, 4237, 4225, 4243, 4237, 4239, 0, 1, 4205, -89.900, 0.000, 52.100, 0.100, 0.000, -0.400, 0.0, , , , , , 96, , , 47, 47, 47
38.6884384, -120.4165681, 0.400, 10:36:17.782, 13, 0.10, 0.47, 98, 1.500, 0.900, 52.500, 1154, 100, 100, 17, 25507, -3113, 5269, 5377, 17, 11, 1528392977.783, 95, 0, 1024, 1024, 1024, 1024, 0, 6, 4202, 4237, 4225, 4243, 4237, 4239, 0, 1, 4302, -89.900, 0.000, 52.100, 0.100, 0.000, -0.400, 0.0, , , , , , 96, , , 47, 47, 47
38.6884386, -120.4165681, 0.400, 10:36:17.881, 13, 0.10, 0.48, 98, 1.200, 0.900, 52.500, 1154, 100, 100, 17, 24142, -14305, 5269, 5377, 17, 11, 1528392977.882, 94, 0, 1024, 1024, 1024, 1024, 0, 6, 3962, 3971, 3984, 4010, 3960, 3996, 0, 1, 4401, -89.900, 0.000, 52.100, 0.100, 0.000, -0.400, 0.0, , , , , , 96, , , 47, 47, 47
38.6884388, -120.4165682, 0.500, 10:36:17.982, 13, 0.00, 0.50, 98, 1.300, 1.100, 52.400, 1154, 100, 100, 17, 24142, -14305, 5269, 5377, 17, 11, 1528392977.984, 15, 0, 1024, 1024, 1024, 1024, 0, 6, 3962, 3971, 3984, 4010, 3960, 3996, 0, 1, 4503, -89.900, 0.000, 52.100, 0.000, 0.000, -0.400, 0.0, , , , , , 96, , , 47, 47, 47
38.6884388, -120.4165682, 0.500, 10:36:18.082, 13, 0.00, 0.50, 98, 1.300, 1.100, 52.400, 1154, 100, 100, 17, 24142, -14305, 5269, 5377, 17, 11, 1528392978.084, 115, 0, 1024, 1024, 1024, 1024, 0, 6, 3962, 3971, 3984, 4010, 3960, 3996, 0, 1, 4604, -89.900, 0.000, 52.100, 0.000, 0.000, -0.400, 0.0, , , , , , 96, , , 47, 47, 47
38.6884389, -120.4165682, 0.600, 10:36:18.182, 13, 0.00, 0.52, 98, 1.400, 1.100, 52.400, 1154, 100, 100, 17, 24142, -14305, 5269, 5377, 17, 11, 1528392978.184, 32, 0, 1024, 1024, 1024, 1024, 0, 6, 3962, 3971, 3984, 4010, 3960, 3996, 0, 1, 4703, -89.900, 0.000, 52.100, 0.000, 0.000, -0.400, 0.0, , , , , , 96, , , 47, 47, 47
38.6884390, -120.4165682, 0.600, 10:36:18.281, 14, 0.00, 0.53, 98, 1.500, 1.200, 52.300, 1154, 100, 100, 17, 24142, -14305, 5269, 5377, 17, 11, 1528392978.284, 83, 0, 1024, 1024, 1024, 1024, 0, 6, 3962, 3971, 3984, 4010, 3960, 3996, 0, 1, 4803, -89.900, 0.000, 52.100, 0.000, 0.000, -0.500, 0.0, , , , , , 96, , , 47, 47, 47
38.6884392, -120.4165683, 0.700, 10:36:18.383, 14, 0.00, 0.55, 98, 1.600, 1.300, 52.300, 1154, 100, 100, 17, 24142, -14305, 5269, 5377, 17, 11, 1528392978.384, 66, 0, 1024, 1024, 1024, 1024, 0, 6, 3962, 3971, 3984, 4010, 3960, 3996, 0, 1, 4904, -89.900, 0.000, 52.100, 0.000, 0.000, -0.500, 0.0, , , , , , 96, , , 47, 47, 47
38.6884393, -120.4165683, 0.700, 10:36:18.482, 14, 0.00, 0.56, 98, 1.600, 1.400, 52.400, 1154, 100, 100, 17, 24142, -14305, 5269, 5377, 17, 11, 1528392978.484, 65, 0, 1024, 1024, 1024, 1024, 0, 6, 3962, 3971, 3984, 4010, 3960, 3996, 0, 1, 5003, -89.900, 0.000, 52.100, 0.000, 0.000, -0.500, 0.0, , , , , , 96, , , 47, 47, 47
38.6884393, -120.4165683, 0.800, 10:36:18.582, 14, 0.00, 0.57, 98, 1.700, 1.400, 52.400, 1154, 100, 100, 17, 24142, -14305, 5269, 5377, 17, 11, 1528392978.582, 68, 0, 1024, 1024, 1024, 1024, 0, 6, 3962, 3971, 3984, 4010, 3960, 3996, 0, 1, 5101, -89.900, 0.000, 52.100, 0.000, 0.000, -0.500, 0.0, , , , , , 96, , , 47, 47, 47
38.6884394, -120.4165683, 0.800, 10:36:18.681, 14, 0.00, 0.57, 98, 1.800, 1.400, 52.500, 1154, 100, 100, 17, 24142, -14305, 5269, 5377, 17, 11, 1528392978.682, 66, 0, 1024, 1024, 1024, 1024, 0, 6, 3962, 3971, 3984, 4010, 3960, 3996, 0, 1, 5201, -89.900, 0.000, 52.100, 0.000, 0.000, -0.500, 0.0, , , , , , 96, , , 47, 47, 47
38.6884395, -120.4165683, 0.900, 10:36:18.782, 14, 0.00, 0.58, 98, 1.800, 1.300, 52.500, 1154, 100, 100, 17, 24142, -14305, 5269, 5377, 17, 6, 1528392978.784, 65, 0, 1024, 1024, 1024, 1024, 0, 6, 3962, 3971, 3984, 4010, 3960, 3996, 0, 1, 5303, -89.900, 0.000, 52.100, 0.000, 0.000, -0.500, 0.0, , , , , , 96, , , 47, 47, 47
38.6884395, -120.4165682, 0.900, 10:36:18.882, 13, 0.00, 0.59, 98, 1.900, 1.400, 52.500, 1154, 100, 100, 17, 23688, -17051, 5269, 5377, 17, 14, 1528392978.885, 67, 0, 1024, 1024, 1024, 1024, 0, 6, 3962, 3971, 3984, 4010, 3960, 3996, 0, 1, 5404, -89.900, 0.000, 52.100, 0.000, 0.000, -0.400, 0.0, , , , , , 96, , , 47, 47, 47
38.6884396, -120.4165683, 1.000, 10:36:18.982, 13, 0.00, 0.59, 98, 1.100, 1.200, 52.500, 1154, 100, 100, 17, 23688, -17051, 5269, 5377, 17, 14, 1528392978.982, 46, 0, 1024, 1024, 1024, 1024, 0, 6, 3918, 3926, 3943, 3955, 3911, 3941, 0, 1, 5502, -90.000, 0.000, 52.100, 0.000, 0.000, -0.300, 0.0, , , , , , 96, , , 47, 47, 47
38.6884396, -120.4165683, 1.000, 10:36:19.082, 13, 0.00, 0.60, 98, 0.400, 0.900, 52.500, 1154, 100, 100, 17, 23688, -17051, 5269, 5377, 17, 14, 1528392979.084, 49, 0, 1024, 1024, 1024, 1024, 0, 6, 3918, 3926, 3943, 3955, 3911, 3941, 0, 1, 5604, -90.000, 0.000, 52.100, 0.000, 0.000, -0.200, 0.0, , , , , , 96, , , 47, 47, 47
38.6884397, -120.4165683, 1.000, 10:36:19.189, 13, 0.00, 0.60, 98, 0.300, 0.700, 52.500, 1154, 100, 100, 17, 23688, -17051, 5269, 5377, 17, 14, 1528392979.189, 5, 0, 1024, 1024, 1024, 1024, 0, 6, 3918, 3926, 3943, 3955, 3911, 3941, 0, 1, 5708, -90.000, 0.000, 52.100, 0.000, 0.000, -0.200, 0.0, , , , , , 96, , , 47, 47, 47
38.6884398, -120.4165683, 1.100, 10:36:19.282, 14, 0.00, 0.61, 98, 0.400, 0.600, 52.600, 1154, 100, 100, 17, 23688, -17051, 5269, 5377, 17, 14, 1528392979.284, 30, 0, 1024, 1024, 1024, 1024, 0, 6, 3918, 3926, 3943, 3955, 3911, 3941, 0, 1, 5803, -90.000, 0.000, 52.100, 0.000, 0.000, -0.400, 0.0, , , , , , 96, , , 47, 47, 47
38.6884399, -120.4165684, 1.200, 10:36:19.382, 14, 0.00, 0.63, 98, 0.700, 0.600, 52.700, 1154, 100, 100, 17, 23688, -17051, 5269, 5377, 17, 14, 1528392979.383, 26, 0, 1024, 1024, 1024, 1024, 0, 6, 3918, 3926, 3943, 3955, 3911, 3941, 0, 1, 5902, -90.000, 0.000, 52.100, 0.000, 0.000, -0.600, 0.0, , , , , , 96, , , 47, 47, 47
38.6884400, -120.4165685, 1.300, 10:36:19.481, 14, 0.00, 0.64, 98, 0.900, 0.700, 52.800, 1154, 100, 100, 17, 23688, -17051, 5269, 5377, 17, 14, 1528392979.483, 43, 0, 1024, 1024, 1024, 1024, 0, 6, 3918, 3926, 3943, 3955, 3911, 3941, 0, 1, 6002, -89.900, 0.000, 52.100, 0.000, 0.000, -0.900, 0.0, , , , , , 96, , , 47, 47, 47
38.6884400, -120.4165685, 1.400, 10:36:19.583, 12, 0.00, 0.65, 98, 1.100, 0.900, 52.800, 1154, 100, 100, 17, 23688, -17051, 5269, 5377, 17, 14, 1528392979.584, 41, 0, 1024, 1024, 1024, 1024, 0, 6, 3918, 3926, 3943, 3955, 3911, 3941, 0, 1, 6104, -89.900, 0.000, 52.100, 0.000, 0.000, -1.100, 0.0, , , , , , 96, , , 47, 47, 47
38.6884401, -120.4165684, 1.500, 10:36:19.682, 12, 0.00, 0.65, 98, 1.200, 1.000, 52.700, 1154, 100, 100, 17, 23688, -17051, 5269, 5377, 17, 14, 1528392979.683, 44, 0, 1024, 1024, 1024, 1024, 0, 6, 3918, 3926, 3943, 3955, 3911, 3941, 0, 1, 6203, -89.900, 0.000, 52.100, 0.000, 0.000, -1.200, 0.0, , , , , , 96, , , 47, 47, 47
38.6884401, -120.4165684, 1.600, 10:36:19.782, 12, 0.00, 0.65, 98, 1.100, 1.100, 52.700, 1154, 100, 100, 17, 23480, -18144, 5269, 5377, 17, 14, 1528392979.785, 46, 0, 1024, 1024, 1024, 1024, 0, 6, 3918, 3926, 3943, 3955, 3911, 3941, 0, 1, 6304, -89.900, 0.000, 52.100, 0.000, 0.000, -1.400, 0.0, , , , , , 96, , , 47, 47, 47
38.6884402, -120.4165685, 1.800, 10:36:19.882, 12, 0.00, 0.66, 98, 1.100, 1.100, 52.500, 1154, 100, 100, 17, 23480, -18144, 5269, 5377, 17, 14, 1528392979.884, 27, 0, 1024, 1024, 1024, 1024, 0, 6, 3918, 3926, 3943, 3955, 3911, 3941, 0, 1, 6404, -89.900, 0.000, 52.100, 0.000, 0.000, -1.600, 0.0, , , , , , 96, , , 47, 47, 47
38.6884403, -120.4165685, 2.000, 10:36:19.982, 13, 0.00, 0.68, 98, 1.200, 1.000, 52.400, 1154, 100, 100, 17, 23480, -18144, 5269, 5377, 17, 14, 1528392979.982, 9, 0, 1024, 1024, 1024, 1024, 0, 6, 3918, 3926, 3943, 3955, 3911, 3941, 0, 1, 6501, -89.900, 0.000, 52.100, 0.000, 0.000, -1.900, 0.0, , , , , , 96, , , 47, 47, 47
38.6884403, -120.4165685, 2.000, 10:36:20.082, 13, 0.00, 0.68, 98, 1.200, 1.000, 52.400, 1154, 100, 100, 17, 23480, -18144, 5269, 5377, 17, 14, 1528392980.082, 109, 0, 1024, 1024, 1024, 1024, 0, 6, 3918, 3926, 3943, 3955, 3911, 3941, 0, 1, 6602, -89.900, 0.000, 52.100, 0.000, 0.000, -1.900, 0.0, , , , , , 96, , , 47, 47, 47
38.6884404, -120.4165686, 2.100, 10:36:20.181, 13, 0.00, 0.68, 98, 1.300, 0.900, 52.300, 1154, 100, 100, 17, 23480, -18144, 5269, 5377, 17, 14, 1528392980.182, 96, 0, 1024, 1024, 1024, 1024, 0, 6, 3845, 3860, 3924, 3932, 3887, 3933, 0, 1, 6701, -90.000, 0.000, 52.100, 0.000, 0.000, -2.000, 0.0, , , , , , 96, , , 47, 47, 47
38.6884405, -120.4165686, 2.700, 10:36:20.281, 15, 0.00, 0.69, 98, 1.300, 0.800, 52.300, 1154, 100, 100, 17, 23480, -18144, 5269, 5377, 17, 14, 1528392980.282, 12, 0, 1024, 1024, 1024, 1024, 0, 6, 3845, 3860, 3924, 3932, 3887, 3933, 0, 1, 6801, -89.900, 0.000, 52.100, 0.000, 0.000, -2.600, 0.0, , , , , , 96, , , 47, 47, 47
38.6884405, -120.4165686, 2.700, 10:36:20.381, 15, 0.00, 0.69, 98, 1.300, 0.800, 52.300, 1154, 100, 100, 17, 23480, -18144, 5269, 5377, 17, 14, 1528392980.382, 113, 0, 1024, 1024, 1024, 1024, 0, 6, 3845, 3860, 3924, 3932, 3887, 3933, 0, 1, 6902, -89.900, 0.000, 52.100, 0.000, 0.000, -2.600, 0.0, , , , , , 96, , , 47, 47, 47
38.6884405, -120.4165687, 3.200, 10:36:20.486, 14, 0.00, 0.70, 98, 1.100, 0.800, 52.400, 1154, 100, 100, 17, 23480, -18144, 5269, 5377, 17, 14, 1528392980.486, 7, 0, 1024, 1024, 1024, 1024, 0, 6, 3845, 3860, 3924, 3932, 3887, 3933, 0, 1, 7005, -89.900, 0.000, 52.100, 0.000, 0.000, -2.900, 0.0, , , , , , 96, , , 47, 47, 47
38.6884405, -120.4165687, 3.200, 10:36:20.581, 14, 0.00, 0.70, 98, 1.100, 0.800, 52.400, 1154, 100, 100, 17, 23480, -18144, 5269, 5377, 17, 14, 1528392980.582, 103, 0, 1024, 1024, 1024, 1024, 0, 6, 3845, 3860, 3924, 3932, 3887, 3933, 0, 1, 7101, -89.900, 0.000, 52.100, 0.000, 0.000, -2.900, 0.0, , , , , , 96, , , 47, 47, 47
38.6884405, -120.4165688, 3.800, 10:36:20.686, 14, 0.00, 0.70, 98, 1.000, 0.700, 52.600, 1154, 100, 100, 17, 23480, -18144, 5269, 5377, 17, 14, 1528392980.686, 5, 0, 1024, 1024, 1024, 1024, 0, 6, 3845, 3860, 3924, 3932, 3887, 3933, 0, 1, 7206, -89.900, 0.000, 52.200, 0.000, 0.000, -3.100, 0.0, , , , , , 96, , , 47, 47, 47
38.6884405, -120.4165688, 3.800, 10:36:20.782, 14, 0.00, 0.70, 98, 1.000, 0.700, 52.600, 1154, 100, 100, 17, 23480, -18144, 5269, 5377, 17, 14, 1528392980.782, 101, 0, 1024, 1024, 1024, 1024, 0, 6, 3845, 3860, 3924, 3932, 3887, 3933, 0, 1, 7302, -89.900, 0.000, 52.200, 0.000, 0.000, -3.100, 0.0, , , , , , 96, , , 47, 47, 47
38.6884405, -120.4165687, 4.200, 10:36:20.881, 15, 0.00, 0.70, 98, 0.900, 0.700, 52.600, 1154, 100, 100, 17, 22573, -25098, 5269, 5377, 17, 14, 1528392980.882, 79, 0, 1024, 1024, 1024, 1024, 0, 6, 3845, 3860, 3924, 3932, 3887, 3933, 0, 1, 7401, -89.900, 0.000, 52.200, 0.000, 0.000, -3.200, 0.0, , , , , , 96, , , 47, 47, 47
38.6884405, -120.4165688, 4.500, 10:36:20.981, 15, 0.00, 0.70, 98, 0.900, 0.800, 52.700, 1154, 100, 100, 17, 22573, -25098, 5269, 5377, 17, 14, 1528392980.982, 82, 0, 1024, 1024, 1024, 1024, 0, 6, 3845, 3860, 3924, 3932, 3887, 3933, 0, 1, 7501, -89.900, 0.000, 52.200, 0.000, 0.000, -3.300, 0.0, , , , , , 96, , , 47, 47, 47
38.6884405, -120.4165688, 4.900, 10:36:21.081, 15, 0.00, 0.70, 98, 1.100, 1.100, 52.700, 1154, 100, 100, 17, 22573, -25098, 5269, 5377, 17, 14, 1528392981.082, 72, 0, 1024, 1024, 1024, 1024, 0, 6, 3845, 3860, 3924, 3932, 3887, 3933, 0, 1, 7601, -89.900, 0.000, 52.100, 0.000, 0.000, -3.300, 0.0, , , , , , 96, , , 47, 47, 47
38.6884404, -120.4165688, 5.200, 10:36:21.183, 15, 0.00, 0.69, 98, 1.000, 1.100, 52.600, 1154, 100, 100, 17, 22573, -25098, 5269, 5377, 17, 14, 1528392981.183, 71, 0, 1024, 1024, 1024, 1024, 0, 6, 3845, 3860, 3924, 3932, 3887, 3933, 0, 1, 7703, -89.900, 0.000, 52.200, 0.000, 0.000, -3.300, 0.0, , , , , , 96, , , 47, 47, 47
38.6884402, -120.4165689, 5.600, 10:36:21.282, 15, 0.00, 0.67, 98, 0.700, 0.700, 52.600, 1154, 100, 100, 17, 22573, -25098, 5269, 5377, 17, 14, 1528392981.283, 69, 0, 1024, 1024, 1024, 1024, 0, 6, 3845, 3860, 3924, 3932, 3887, 3933, 0, 1, 7802, -89.900, 0.000, 52.100, 0.000, 0.000, -3.300, 0.0, , , , , , 96, , , 47, 47, 47
38.6884402, -120.4165689, 5.900, 10:36:21.381, 15, 0.00, 0.67, 98, 0.500, 0.300, 52.500, 1154, 100, 100, 17, 22573, -25098, 5269, 5377, 17, 14, 1528392981.382, 21, 0, 1024, 1024, 1024, 1024, 0, 6, 3845, 3860, 3924, 3932, 3887, 3933, 0, 1, 7901, -90.000, 0.000, 52.100, 0.000, 0.000, -3.300, 0.0, , , , , , 96, , , 47, 47, 47
38.6884401, -120.4165689, 6.300, 10:36:21.483, 15, 0.00, 0.66, 98, 0.300, 0.000, 52.400, 1154, 100, 100, 17, 22573, -25098, 5269, 5377, 17, 14, 1528392981.484, 17, 0, 1024, 1024, 1024, 1024, 0, 6, 3845, 3860, 3924, 3932, 3887, 3933, 0, 1, 8003, -90.000, 0.000, 52.100, 0.000, 0.000, -3.300, 0.0, , , , , , 96, , , 47, 47, 47
38.6884401, -120.4165689, 6.900, 10:36:21.583, 17, 0.00, 0.66, 98, 0.300, 0.100, 52.300, 1154, 100, 100, 17, 22573, -25098, 5269, 5377, 17, 14, 1528392981.583, 25, 0, 1024, 1024, 1024, 1024, 0, 6, 3845, 3860, 3924, 3932, 3887, 3933, 0, 1, 8103, -90.000, 0.000, 52.100, 0.000, 0.000, -3.200, 0.0, , , , , , 96, , , 47, 47, 47
38.6884400, -120.4165689, 7.300, 10:36:21.682, 17, 0.00, 0.65, 98, 0.200, 0.100, 52.200, 1154, 100, 100, 17, 22573, -25098, 5269, 5377, 17, 14, 1528392981.682, 45, 0, 1024, 1024, 1024, 1024, 0, 6, 3743, 3753, 3774, 3786, 3745, 3848, 0, 1, 8202, -90.000, 0.000, 52.100, 0.000, 0.000, -3.200, 0.0, , , , , , 96, , , 47, 47, 47
38.6884400, -120.4165688, 7.600, 10:36:21.781, 17, 0.00, 0.65, 98, 0.300, 0.100, 52.200, 1154, 100, 100, 17, 22573, -25098, 5269, 5377, 17, 14, 1528392981.783, 18, 0, 1024, 1024, 1024, 1024, 0, 6, 3743, 3753, 3774, 3786, 3745, 3848, 0, 1, 8302, -90.000, 0.000, 52.100, 0.000, 0.000, -3.100, 0.0, , , , , , 96, , , 47, 47, 47
38.6884400, -120.4165688, 7.900, 10:36:21.888, 17, 0.00, 0.65, 98, 0.200, 0.200, 52.200, 1154, 100, 100, 17, 22573, -25098, 5269, 5377, 17, 14, 1528392981.889, 4, 0, 1024, 1024, 1024, 1024, 0, 6, 3743, 3753, 3774, 3786, 3745, 3848, 0, 1, 8408, -90.000, 0.000, 52.100, 0.000, 0.000, -3.100, 0.0, , , , , , 96, , , 47, 47, 47
38.6884400, -120.4165687, 8.200, 10:36:21.982, 17, 0.00, 0.65, 98, 0.200, 0.300, 52.300, 1154, 100, 98, 17, 22573, -25098, 5269, 5377, 17, 14, 1528392981.983, 12, 0, 1024, 1024, 1024, 1024, 0, 6, 3743, 3753, 3774, 3786, 3745, 3848, 0, 1, 8502, -89.900, 0.000, 52.100, 0.000, 0.000, -3.100, 0.0, , , , , , 96, , , 47, 47, 47
38.6884400, -120.4165687, 8.200, 10:36:22.081, 17, 0.00, 0.65, 98, 0.200, 0.300, 52.300, 1154, 100, 98, 17, 22573, -25098, 5269, 5377, 17, 14, 1528392982.082, 111, 0, 1024, 1024, 1024, 1024, 0, 6, 3743, 3753, 3774, 3786, 3745, 3848, 0, 1, 8601, -89.900, 0.000, 52.100, 0.000, 0.000, -3.100, 0.0, , , , , , 96, , , 47, 47, 47
38.6884400, -120.4165687, 8.600, 10:36:22.183, 17, 0.00, 0.65, 98, 0.300, 0.600, 52.300, 1154, 100, 98, 17, 22573, -25098, 5269, 5377, 17, 14, 1528392982.184, 96, 0, 1024, 1024, 1024, 1024, 0, 6, 3743, 3753, 3774, 3786, 3745, 3848, 0, 1, 8703, -89.900, 0.000, 52.100, 0.000, 0.000, -3.100, 0.0, , , , , , 96, , , 47, 47, 47
38.6884401, -120.4165687, 8.900, 10:36:22.282, 17, 0.00, 0.65, 98, 0.400, 0.800, 52.200, 1154, 100, 98, 17, 22573, -25098, 5269, 5377, 17, 14, 1528392982.283, 82, 0, 1024, 1024, 1024, 1024, 0, 6, 3743, 3753, 3774, 3786, 3745, 3848, 0, 1, 8802, -89.900, 0.000, 52.100, 0.000, 0.000, -3.100, 0.0, , , , , , 96, , , 47, 47, 47
38.6884401, -120.4165687, 9.200, 10:36:22.382, 17, 0.00, 0.66, 98, 0.400, 0.800, 52.300, 1154, 100, 98, 17, 22573, -25098, 5269, 5377, 17, 14, 1528392982.384, 97, 0, 1024, 1024, 1024, 1024, 0, 6, 3743, 3753, 3774, 3786, 3745, 3848, 0, 1, 8903, -89.900, 0.000, 52.100, 0.000, 0.000, -3.100, 0.0, , , , , , 96, , , 47, 47, 47
38.6884402, -120.4165687, 9.500, 10:36:22.482, 17, 0.00, 0.67, 98, 0.400, 1.000, 52.300, 1154, 100, 97, 17, 22573, -25098, 5269, 5377, 17, 14, 1528392982.484, 24, 0, 1024, 1024, 1024, 1024, 0, 6, 3743, 3753, 3774, 3786, 3745, 3848, 0, 1, 9003, -89.900, 0.000, 52.100, 0.000, 0.000, -3.100, 0.0, , , , , , 96, , , 47, 47, 47
38.6884402, -120.4165687, 9.900, 10:36:22.582, 17, 0.00, 0.67, 98, 0.500, 1.200, 52.200, 1154, 100, 97, 17, 22573, -25098, 5269, 5377, 17, 14, 1528392982.585, 54, 0, 1024, 1024, 1024, 1024, 0, 6, 3743, 3753, 3774, 3786, 3745, 3848, 0, 1, 9104, -89.900, 0.000, 52.100, 0.000, 0.000, -3.000, 0.0, , , , , , 96, , , 47, 47, 47
38.6884402, -120.4165687, 9.900, 10:36:22.681, 17, 0.00, 0.67, 98, 0.500, 1.200, 52.200, 1154, 100, 97, 17, 22573, -25098, 5269, 5377, 17, 14, 1528392982.682, 152, 0, 1024, 1024, 1024, 1024, 0, 6, 3743, 3753, 3774, 3786, 3745, 3848, 0, 1, 9201, -89.900, 0.000, 52.100, 0.000, 0.000, -3.000, 0.0, , , , , , 96, , , 47, 47, 47
38.6884402, -120.4165687, 10.500, 10:36:22.788, 17, 0.00, 0.66, 98, 0.700, 0.900, 52.200, 1154, 100, 97, 17, 22573, -25098, 5269, 5377, 17, 14, 1528392982.788, 5, 0, 1024, 1024, 1024, 1024, 0, 6, 3743, 3753, 3774, 3786, 3745, 3848, 0, 1, 9308, -89.900, 0.000, 52.100, 0.000, 0.000, -3.000, 0.0, , , , , , 96, , , 47, 47, 47
38.6884402, -120.4165688, 10.800, 10:36:22.883, 16, 0.00, 0.67, 98, 0.700, 0.500, 52.200, 1154, 100, 97, 17, 22966, -20676, 5269, 5377, 17, 14, 1528392982.884, 26, 0, 1024, 1024, 1024, 1024, 0, 6, 3805, 3822, 3840, 3849, 3813, 3847, 0, 1, 9403, -90.000, 0.000, 52.100, 0.000, 0.000, -3.000, 0.0, , , , , , 96, , , 47, 47, 47
38.6884402, -120.4165688, 10.800, 10:36:22.982, 16, 0.00, 0.67, 98, 0.700, 0.500, 52.200, 1154, 100, 97, 17, 22966, -20676, 5269, 5377, 17, 14, 1528392982.984, 126, 0, 1024, 1024, 1024, 1024, 0, 6, 3805, 3822, 3840, 3849, 3813, 3847, 0, 1, 9504, -90.000, 0.000, 52.100, 0.000, 0.000, -3.000, 0.0, , , , , , 96, , , 47, 47, 47
38.6884402, -120.4165688, 11.100, 10:36:23.082, 16, 0.00, 0.67, 98, 0.700, 0.200, 52.300, 1154, 100, 96, 17, 22966, -20676, 5269, 5377, 17, 14, 1528392983.083, 46, 0, 1024, 1024, 1024, 1024, 0, 6, 3805, 3822, 3840, 3849, 3813, 3847, 0, 1, 9602, -90.000, 0.000, 52.100, 0.000, 0.000, -2.900, 0.0, , , , , , 96, , , 47, 47, 47
38.6884402, -120.4165688, 11.100, 10:36:23.181, 16, 0.00, 0.67, 98, 0.700, 0.200, 52.300, 1154, 100, 96, 17, 22966, -20676, 5269, 5377, 17, 14, 1528392983.182, 145, 0, 1024, 1024, 1024, 1024, 0, 6, 3805, 3822, 3840, 3849, 3813, 3847, 0, 1, 9701, -90.000, 0.000, 52.100, 0.000, 0.000, -2.900, 0.0, , , , , , 96, , , 47, 47, 47
38.6884403, -120.4165689, 11.700, 10:36:23.281, 16, 0.00, 0.68, 98, 1.200, 0.200, 52.400, 1154, 100, 96, 17, 22966, -20676, 5269, 5377, 17, 14, 1528392983.282, 46, 0, 1024, 1024, 1024, 1024, 0, 6, 3805, 3822, 3840, 3849, 3813, 3847, 0, 1, 9802, -89.900, 0.000, 52.200, 0.000, 0.000, -3.000, 0.0, , , , , , 96, , , 47, 47, 47
38.6884403, -120.4165689, 11.700, 10:36:23.382, 16, 0.00, 0.68, 98, 1.200, 0.200, 52.400, 1154, 100, 96, 17, 22966, -20676, 5269, 5377, 17, 14, 1528392983.382, 146, 0, 1024, 1024, 1024, 1024, 0, 6, 3805, 3822, 3840, 3849, 3813, 3847, 0, 1, 9901, -89.900, 0.000, 52.100, 0.000, 0.000, -3.000, 0.0, , , , , , 96, , , 47, 47, 47
38.6884404, -120.4165691, 12.300, 10:36:23.482, 17, 0.00, 0.70, 98, 1.700, 0.600, 52.400, 1154, 100, 96, 17, 23059, -19010, 5269, 5377, 17, 14, 1528392983.482, 60, 0, 1024, 1024, 1024, 1024, 0, 6, 3805, 3822, 3840, 3849, 3813, 3847, 0, 1, 10001, -89.900, 0.000, 52.100, 0.000, 0.000, -3.000, 0.0, , , , , , 96, , , 47, 47, 47
38.6884405, -120.4165692, 12.900, 10:36:23.587, 17, 0.00, 0.71, 98, 2.000, 0.900, 52.200, 1154, 100, 97, 17, 23059, -19010, 5269, 5377, 17, 14, 1528392983.588, 4, 0, 1024, 1024, 1024, 1024, 0, 6, 3824, 3835, 3850, 3868, 3822, 3857, 0, 1, 10107, -89.900, 0.000, 52.100, 0.000, 0.000, -3.000, 0.0, , , , , , 96, , , 47, 47, 47
38.6884406, -120.4165694, 13.500, 10:36:23.696, 17, 0.00, 0.73, 98, 1.900, 0.500, 52.200, 1154, 100, 97, 17, 23059, -19010, 5269, 5377, 17, 14, 1528392983.697, 12, 0, 1024, 1024, 1024, 1024, 0, 6, 3824, 3835, 3850, 3868, 3822, 3857, 0, 1, 10216, -89.900, 0.000, 52.100, 0.000, 0.000, -3.000, 0.0, , , , , , 96, , , 47, 47, 47
38.6884406, -120.4165694, 13.800, 10:36:23.782, 16, 0.00, 0.73, 98, 1.900, 0.300, 52.300, 1154, 100, 97, 17, 23059, -19010, 5269, 5377, 17, 14, 1528392983.782, 30, 0, 1024, 1024, 1024, 1024, 0, 6, 3824, 3835, 3850, 3868, 3822, 3857, 0, 1, 10301, -89.900, 0.000, 52.100, 0.000, 0.000, -3.000, 0.0, , , , , , 96, , , 47, 47, 47
38.6884407, -120.4165695, 14.100, 10:36:23.882, 16, 0.00, 0.74, 98, 1.700, 0.500, 52.400, 1154, 100, 97, 17, 23059, -19010, 5269, 5377, 17, 14, 1528392983.882, 50, 0, 1024, 1024, 1024, 1024, 0, 6, 3824, 3835, 3850, 3868, 3822, 3857, 0, 1, 10401, -89.900, 0.000, 52.100, 0.000, 0.000, -3.000, 0.0, , , , , , 96, , , 47, 47, 47
38.6884408, -120.4165695, 14.500, 10:36:23.982, 17, 0.00, 0.75, 98, 1.800, 0.600, 52.600, 1154, 100, 97, 17, 23059, -19010, 5269, 5377, 17, 14, 1528392983.983, 20, 0, 1024, 1024, 1024, 1024, 0, 6, 3824, 3835, 3850, 3868, 3822, 3857, 0, 1, 10502, -89.900, 0.000, 52.100, 0.000, 0.000, -3.000, 0.0, , , , , , 96, , , 47, 47, 47
38.6884408, -120.4165696, 14.800, 10:36:24.082, 17, 0.00, 0.75, 98, 1.900, 0.600, 52.800, 1154, 100, 97, 17, 23059, -19010, 5269, 5377, 17, 14, 1528392984.082, 32, 0, 1024, 1024, 1024, 1024, 0, 6, 3824, 3835, 3850, 3868, 3822, 3857, 0, 1, 10601, -89.900, 0.000, 52.100, 0.000, 0.000, -3.000, 0.0, , , , , , 96, , , 47, 47, 47
38.6884408, -120.4165697, 15.100, 10:36:24.183, 17, 0.00, 0.76, 98, 2.000, 0.400, 52.900, 1154, 100, 97, 17, 23059, -19010, 5269, 5377, 17, 14, 1528392984.183, 24, 0, 1024, 1024, 1024, 1024, 0, 6, 3824, 3835, 3850, 3868, 3822, 3857, 0, 1, 10702, -89.900, 0.000, 52.100, 0.000, 0.000, -3.000, 0.0, , , , , , 96, , , 47, 47, 47
38.6884409, -120.4165697, 15.400, 10:36:24.282, 17, 0.00, 0.77, 98, 2.300, 0.400, 52.900, 1154, 100, 97, 17, 23020, -19123, 5215, 5377, 17, 14, 1528392984.282, 17, 0, 1024, 1024, 1024, 1024, 0, 6, 3824, 3835, 3850, 3868, 3822, 3857, 0, 1, 10802, -89.900, 0.000, 52.100, 0.000, 0.000, -3.000, 0.0, , , , , , 96, , , 47, 47, 47
38.6884410, -120.4165698, 15.700, 10:36:24.382, 17, 0.00, 0.78, 98, 2.500, 0.400, 52.800, 1154, 100, 97, 17, 23020, -19123, 5215, 5377, 17, 14, 1528392984.382, 22, 0, 1024, 1024, 1024, 1024, 0, 6, 3822, 3832, 3840, 3860, 3812, 3847, 0, 1, 10901, -89.900, 0.000, 52.100, 0.000, 0.000, -2.900, 0.0, , , , , , 96, , , 47, 47, 47
38.6884411, -120.4165699, 16.000, 10:36:24.486, 17, 0.00, 0.79, 98, 2.500, 0.500, 52.700, 1154, 100, 97, 17, 23020, -19123, 5215, 5377, 17, 14, 1528392984.487, 5, 0, 1024, 1024, 1024, 1024, 0, 6, 3822, 3832, 3840, 3860, 3812, 3847, 0, 1, 11006, -89.900, 0.000, 52.100, 0.000, 0.000, -2.900, 0.0, , , , , , 96, , , 47, 47, 47
38.6884412, -120.4165699, 16.300, 10:36:24.587, 18, 0.00, 0.80, 98, 2.500, 0.600, 52.700, 1154, 100, 97, 17, 23020, -19123, 5215, 5377, 17, 14, 1528392984.587, 15, 0, 1024, 1024, 1024, 1024, 0, 6, 3822, 3832, 3840, 3860, 3812, 3847, 0, 1, 11107, -89.900, 0.000, 52.100, 0.000, 0.000, -2.900, 0.0, , , , , , 96, , , 47, 47, 47
38.6884412, -120.4165699, 16.300, 10:36:24.682, 18, 0.00, 0.80, 98, 2.500, 0.600, 52.700, 1154, 100, 97, 17, 23020, -19123, 5215, 5377, 17, 14, 1528392984.682, 110, 0, 1024, 1024, 1024, 1024, 0, 6, 3822, 3832, 3840, 3860, 3812, 3847, 0, 1, 11201, -89.900, 0.000, 52.100, 0.000, 0.000, -2.900, 0.0, , , , , , 96, , , 47, 47, 47
38.6884412, -120.4165700, 16.900, 10:36:24.781, 18, 0.00, 0.81, 97, 2.900, 0.800, 52.800, 1154, 100, 97, 17, 23020, -19123, 5215, 5377, 17, 14, 1528392984.782, 11, 0, 1024, 1024, 1024, 1024, 0, 6, 3822, 3832, 3840, 3860, 3812, 3847, 0, 1, 11301, -89.900, 0.000, 52.100, 0.000, 0.000, -2.900, 0.0, , , , , , 96, , , 47, 47, 47
38.6884412, -120.4165700, 16.900, 10:36:24.882, 18, 0.00, 0.81, 97, 2.900, 0.800, 52.800, 1154, 100, 97, 17, 23020, -19123, 5215, 5377, 17, 14, 1528392984.882, 111, 0, 1024, 1024, 1024, 1024, 0, 6, 3822, 3832, 3840, 3860, 3812, 3847, 0, 1, 11401, -89.900, 0.000, 52.100, 0.000, 0.000, -2.900, 0.0, , , , , , 96, , , 47, 47, 47
38.6884412, -120.4165700, 16.900, 10:36:24.981, 18, 0.00, 0.81, 97, 2.900, 0.800, 52.800, 1154, 100, 97, 17, 23020, -19123, 5215, 5377, 17, 14, 1528392984.981, 211, 0, 1024, 1024, 1024, 1024, 0, 6, 3822, 3832, 3840, 3860, 3812, 3847, 0, 1, 11501, -89.900, 0.000, 52.100, 0.000, 0.000, -2.900, 0.0, , , , , , 96, , , 47, 47, 47
38.6884414, -120.4165700, 17.400, 10:36:25.082, 18, 0.00, 0.83, 97, 2.700, 0.900, 52.900, 1154, 100, 97, 17, 23020, -19123, 5215, 5377, 17, 14, 1528392985.082, 89, 0, 1024, 1024, 1024, 1024, 0, 6, 3822, 3832, 3840, 3860, 3812, 3847, 0, 1, 11601, -89.900, 0.000, 52.100, 0.000, 0.000, -2.900, 0.0, , , , , , 96, , , 47, 47, 47
38.6884414, -120.4165700, 17.700, 10:36:25.182, 18, 0.00, 0.83, 97, 2.400, 1.100, 52.900, 1154, 100, 97, 17, 23020, -19123, 5215, 5377, 17, 14, 1528392985.182, 82, 0, 1024, 1024, 1024, 1024, 0, 6, 3822, 3832, 3840, 3860, 3812, 3847, 0, 1, 11702, -89.900, 0.000, 52.100, 0.000, 0.000, -2.900, 0.0, , , , , , 96, , , 47, 47, 47
38.6884415, -120.4165700, 18.000, 10:36:25.282, 18, 0.00, 0.84, 97, 2.100, 1.300, 52.800, 1154, 100, 97, 17, 23020, -19123, 5215, 5377, 17, 14, 1528392985.283, 82, 0, 1024, 1024, 1024, 1024, 0, 6, 3822, 3832, 3840, 3860, 3812, 3847, 0, 1, 11803, -89.900, 0.000, 52.200, 0.000, 0.000, -2.800, 0.0, , , , , , 96, , , 47, 47, 47
38.6884415, -120.4165699, 18.300, 10:36:25.382, 18, 0.00, 0.84, 97, 1.700, 1.400, 52.600, 1154, 100, 97, 17, 23085, -18046, 5215, 5377, 17, 14, 1528392985.383, 85, 0, 1024, 1024, 1024, 1024, 0, 6, 3822, 3832, 3840, 3860, 3812, 3847, 0, 1, 11902, -89.900, 0.000, 52.100, 0.000, 0.000, -2.800, 0.0, , , , , , 96, , , 47, 47, 47
38.6884415, -120.4165699, 18.600, 10:36:25.482, 18, 0.00, 0.84, 97, 1.500, 1.500, 52.500, 1154, 100, 95, 17, 23085, -18046, 5215, 5377, 17, 14, 1528392985.482, 82, 0, 1024, 1024, 1024, 1024, 0, 6, 3831, 3840, 3856, 3877, 3813, 3862, 0, 1, 12002, -89.900, 0.000, 52.100, 0.000, 0.000, -2.800, 0.0, , , , , , 96, , , 47, 47, 47
38.6884415, -120.4165699, 18.900, 10:36:25.582, 18, 0.10, 0.84, 97, 1.300, 1.500, 52.300, 1154, 100, 95, 17, 23085, -18046, 5215, 5377, 17, 14, 1528392985.582, 55, 0, 1024, 1024, 1024, 1024, 0, 6, 3831, 3840, 3856, 3877, 3813, 3862, 0, 1, 12101, -89.900, 0.000, 52.100, -0.100, 0.000, -2.900, 0.0, , , , , , 96, , , 47, 47, 47
38.6884415, -120.4165699, 19.100, 10:36:25.682, 18, 0.10, 0.84, 97, 1.300, 1.200, 52.200, 1154, 100, 95, 17, 23085, -18046, 5215, 5377, 17, 14, 1528392985.682, 37, 0, 1024, 1024, 1024, 1024, 0, 6, 3831, 3840, 3856, 3877, 3813, 3862, 0, 1, 12202, -90.000, 0.000, 52.100, -0.100, 0.000, -2.900, 0.0, , , , , , 96, , , 47, 47, 47
38.6884415, -120.4165699, 19.400, 10:36:25.781, 18, 0.10, 0.83, 97, 1.500, 1.000, 52.200, 1154, 100, 95, 17, 23085, -18046, 5215, 5377, 17, 14, 1528392985.782, 49, 0, 1024, 1024, 1024, 1024, 0, 6, 3831, 3840, 3856, 3877, 3813, 3862, 0, 1, 12301, -89.900, 0.000, 52.100, -0.100, 0.000, -3.000, 0.0, , , , , , 96, , , 47, 47, 47
38.6884414, -120.4165699, 19.800, 10:36:25.883, 18, 0.10, 0.83, 97, 1.700, 0.800, 52.200, 1154, 100, 95, 17, 23085, -18046, 5215, 5377, 17, 14, 1528392985.884, 51, 0, 1024, 1024, 1024, 1024, 0, 6, 3831, 3840, 3856, 3877, 3813, 3862, 0, 1, 12403, -90.000, 0.000, 52.100, -0.100, 0.000, -3.000, 0.0, , , , , , 96, , , 47, 47, 47
38.6884414, -120.4165699, 20.100, 10:36:25.982, 18, 0.10, 0.83, 97, 1.600, 0.600, 52.200, 1154, 100, 93, 17, 23085, -18046, 5215, 5377, 17, 14, 1528392985.983, 31, 0, 1024, 1024, 1024, 1024, 0, 6, 3831, 3840, 3856, 3877, 3813, 3862, 0, 1, 12502, -90.000, 0.000, 52.100, -0.100, 0.000, -3.000, 0.0, , , , , , 96, , , 47, 47, 47
38.6884414, -120.4165699, 20.100, 10:36:26.082, 18, 0.10, 0.83, 97, 1.600, 0.600, 52.200, 1154, 100, 93, 17, 23085, -18046, 5215, 5377, 17, 14, 1528392986.083, 131, 0, 1024, 1024, 1024, 1024, 0, 6, 3831, 3840, 3856, 3877, 3813, 3862, 0, 1, 12602, -90.000, 0.000, 52.100, -0.100, 0.000, -3.000, 0.0, , , , , , 96, , , 47, 47, 47
38.6884415, -120.4165700, 20.700, 10:36:26.190, 18, 0.00, 0.84, 97, 2.100, 0.100, 52.200, 1154, 100, 93, 17, 23085, -18046, 5215, 5377, 17, 14, 1528392986.191, 14, 0, 1024, 1024, 1024, 1024, 0, 6, 3831, 3840, 3856, 3877, 3813, 3862, 0, 1, 12710, -90.000, 0.000, 52.100, 0.000, 0.000, -3.000, 0.0, , , , , , 96, , , 47, 47, 47
38.6884416, -120.4165702, 21.300, 10:36:26.283, 18, 0.00, 0.85, 97, 2.900, 0.200, 52.200, 1154, 100, 93, 17, 23085, -18046, 5215, 5377, 17, 14, 1528392986.284, 51, 0, 1024, 1024, 1024, 1024, 0, 6, 3831, 3840, 3856, 3877, 3813, 3862, 0, 1, 12803, -90.000, 0.000, 52.100, 0.000, 0.000, -3.100, 0.0, , , , , , 96, , , 47, 47, 47
38.6884416, -120.4165702, 21.600, 10:36:26.383, 18, 0.00, 0.85, 97, 3.000, 0.300, 52.200, 1154, 100, 93, 17, 23085, -18046, 5215, 5377, 17, 14, 1528392986.384, 42, 0, 1024, 1024, 1024, 1024, 0, 6, 3831, 3840, 3856, 3877, 3813, 3862, 0, 1, 12903, -90.000, 0.000, 52.100, 0.000, 0.000, -3.000, 0.0, , , , , , 96, , , 47, 47, 47
38.6884416, -120.4165702, 21.900, 10:36:26.483, 18, 0.00, 0.86, 97, 3.100, 0.500, 52.300, 1154, 100, 93, 17, 23085, -18046, 5215, 5377, 17, 14, 1528392986.483, 43, 0, 1024, 1024, 1024, 1024, 0, 6, 3831, 3840, 3856, 3877, 3813, 3862, 0, 1, 13003, -90.000, 0.000, 52.100, 0.000, 0.000, -3.000, 0.0, , , , , , 96, , , 47, 47, 47
38.6884416, -120.4165702, 21.900, 10:36:26.583, 18, 0.00, 0.86, 97, 3.100, 0.500, 52.300, 1154, 100, 93, 17, 23085, -18046, 5215, 5377, 17, 14, 1528392986.583, 143, 0, 1024, 1024, 1024, 1024, 0, 6, 3831, 3840, 3856, 3877, 3813, 3862, 0, 1, 13103, -90.000, 0.000, 52.100, 0.000, 0.000, -3.000, 0.0, , , , , , 96, , , 47, 47, 47
38.6884416, -120.4165702, 22.500, 10:36:26.719, 18, 0.00, 0.86, 97, 2.800, 0.700, 52.400, 1154, 100, 93, 17, 23085, -18046, 5215, 5377, 17, 14, 1528392986.720, 16, 0, 1024, 1024, 1024, 1024, 0, 6, 3831, 3840, 3856, 3877, 3813, 3862, 0, 1, 13239, -89.900, 0.000, 52.100, 0.000, 0.000, -2.900, 0.0, , , , , , 96, , , 47, 47, 47
38.6884416, -120.4165701, 22.800, 10:36:26.788, 18, 0.00, 0.86, 97, 2.600, 0.800, 52.500, 1154, 100, 93, 17, 22974, -19064, 5215, 5377, 17, 14, 1528392986.789, 13, 0, 1024, 1024, 1024, 1024, 0, 6, 3831, 3840, 3856, 3877, 3813, 3862, 0, 1, 13308, -89.900, 0.000, 52.100, 0.000, 0.000, -2.900, 0.0, , , , , , 96, , , 47, 47, 47
38.6884416, -120.4165701, 23.100, 10:36:26.883, 18, 0.00, 0.86, 97, 2.400, 0.800, 52.600, 1154, 100, 93, 17, 22974, -19064, 5215, 5377, 17, 14, 1528392986.884, 15, 0, 1024, 1024, 1024, 1024, 0, 6, 3831, 3840, 3856, 3877, 3813, 3862, 0, 1, 13403, -90.000, 0.000, 52.100, 0.000, 0.000, -2.900, 0.0, , , , , , 96, , , 47, 47, 47
38.6884416, -120.4165701, 23.100, 10:36:26.982, 18, 0.00, 0.86, 97, 2.400, 0.800, 52.600, 1154, 100, 93, 17, 22974, -19064, 5215, 5377, 17, 14, 1528392986.983, 114, 0, 1024, 1024, 1024, 1024, 0, 6, 3816, 3816, 3838, 3854, 3793, 3843, 0, 1, 13502, -90.000, 0.000, 52.100, 0.000, 0.000, -2.900, 0.0, , , , , , 96, , , 47, 47, 47
38.6884416, -120.4165701, 23.400, 10:36:27.081, 18, 0.00, 0.86, 97, 2.400, 0.700, 52.600, 1154, 100, 93, 17, 22974, -19064, 5215, 5377, 17, 14, 1528392987.082, 94, 0, 1024, 1024, 1024, 1024, 0, 6, 3816, 3816, 3838, 3854, 3793, 3843, 0, 1, 13601, -90.000, 0.000, 52.100, 0.000, 0.000, -2.900, 0.0, , , , , , 96, , , 47, 47, 47
38.6884416, -120.4165701, 23.700, 10:36:27.181, 18, 0.00, 0.86, 97, 2.300, 0.700, 52.700, 1154, 100, 93, 17, 22974, -19064, 5215, 5377, 17, 14, 1528392987.182, 83, 0, 1024, 1024, 1024, 1024, 0, 6, 3816, 3816, 3838, 3854, 3793, 3843, 0, 1, 13701, -90.000, 0.000, 52.100, 0.000, 0.000, -2.900, 0.0, , , , , , 96, , , 47, 47, 47
38.6884416, -120.4165700, 24.000, 10:36:27.282, 18, 0.00, 0.85, 97, 2.300, 0.800, 52.700, 1154, 100, 93, 17, 22974, -19064, 5215, 5377, 17, 14, 1528392987.282, 79, 0, 1024, 1024, 1024, 1024, 0, 6, 3816, 3816, 3838, 3854, 3793, 3843, 0, 1, 13801, -89.900, 0.000, 52.200, 0.000, 0.000, -2.900, 0.0, , , , , , 96, , , 47, 47, 47
38.6884416, -120.4165700, 24.300, 10:36:27.382, 18, 0.00, 0.85, 97, 2.500, 1.000, 52.700, 1154, 100, 93, 17, 22974, -19064, 5215, 5377, 17, 14, 1528392987.382, 87, 0, 1024, 1024, 1024, 1024, 0, 6, 3816, 3816, 3838, 3854, 3793, 3843, 0, 1, 13901, -89.900, 0.000, 52.100, 0.000, 0.000, -2.900, 0.0, , , , , , 96, , , 47, 47, 47
38.6884416, -120.4165700, 24.600, 10:36:27.482, 18, 0.10, 0.85, 97, 2.600, 0.900, 52.500, 1154, 100, 98, 17, 22974, -19064, 5215, 5377, 17, 14, 1528392987.482, 86, 0, 1024, 1024, 1024, 1024, 0, 6, 3816, 3816, 3838, 3854, 3793, 3843, 0, 1, 14002, -89.900, 0.000, 52.100, -0.100, 0.000, -2.900, 0.0, , , , , , 96, , , 47, 47, 47
38.6884416, -120.4165699, 24.900, 10:36:27.582, 18, 0.14, 0.85, 97, 2.300, 0.900, 52.400, 1154, 100, 98, 17, 22974, -19064, 5215, 5377, 17, 14, 1528392987.582, 77, 0, 1024, 1024, 1024, 1024, 0, 6, 3816, 3816, 3838, 3854, 3793, 3843, 0, 1, 14102, -90.000, 0.000, 52.100, -0.100, 0.100, -2.800, 0.0, , , , , , 96, , , 47, 47, 47
38.6884416, -120.4165699, 25.100, 10:36:27.682, 18, 0.14, 0.84, 97, 2.000, 0.900, 52.300, 1154, 100, 98, 17, 22974, -19064, 5215, 5377, 17, 14, 1528392987.682, 69, 0, 1024, 1024, 1024, 1024, 0, 6, 3816, 3816, 3838, 3854, 3793, 3843, 0, 1, 14201, -89.900, 0.000, 52.100, -0.100, 0.100, -2.900, 0.0, , , , , , 96, , , 47, 47, 47
38.6884415, -120.4165698, 25.400, 10:36:27.782, 18, 0.14, 0.84, 97, 1.700, 1.000, 52.300, 1154, 100, 98, 17, 22974, -19064, 5215, 5377, 17, 14, 1528392987.782, 59, 0, 1024, 1024, 1024, 1024, 0, 6, 3816, 3816, 3838, 3854, 3793, 3843, 0, 1, 14301, -89.900, 0.000, 52.100, -0.100, 0.100, -2.900, 0.0, , , , , , 96, , , 47, 47, 47
38.6884414, -120.4165698, 25.700, 10:36:27.882, 18, 0.14, 0.83, 97, 1.300, 1.100, 52.400, 1154, 100, 98, 17, 23008, -18456, 5215, 5377, 17, 14, 1528392987.882, 55, 0, 1024, 1024, 1024, 1024, 0, 6, 3812, 3829, 3837, 3866, 3807, 3844, 0, 1, 14401, -89.900, 0.000, 52.100, -0.100, 0.100, -2.900, 0.0, , , , , , 96, , , 47, 47, 47
38.6884414, -120.4165696, 26.000, 10:36:27.982, 18, 0.14, 0.81, 97, 1.000, 1.300, 52.600, 1154, 100, 98, 17, 23008, -18456, 5215, 5377, 17, 14, 1528392987.982, 69, 0, 1024, 1024, 1024, 1024, 0, 6, 3812, 3829, 3837, 3866, 3807, 3844, 0, 1, 14502, -89.900, 0.000, 52.100, -0.100, 0.100, -2.900, 0.0, , , , , , 96, , , 47, 47, 47
38.6884413, -120.4165695, 26.300, 10:36:28.082, 18, 0.14, 0.80, 97, 0.800, 1.500, 52.700, 1154, 100, 98, 17, 23008, -18456, 5215, 5377, 17, 14, 1528392988.082, 49, 0, 1024, 1024, 1024, 1024, 0, 6, 3812, 3829, 3837, 3866, 3807, 3844, 0, 1, 14601, -89.900, 0.000, 52.100, -0.100, 0.100, -2.900, 0.0, , , , , , 96, , , 47, 47, 47
38.6884412, -120.4165694, 26.600, 10:36:28.181, 18, 0.14, 0.79, 97, 0.600, 1.600, 52.800, 1154, 100, 98, 17, 23008, -18456, 5215, 5377, 17, 14, 1528392988.181, 46, 0, 1024, 1024, 1024, 1024, 0, 6, 3812, 3829, 3837, 3866, 3807, 3844, 0, 1, 14701, -89.900, 0.000, 52.100, -0.100, 0.100, -3.000, 0.0, , , , , , 96, , , 47, 47, 47
38.6884410, -120.4165692, 27.200, 10:36:28.282, 18, 0.14, 0.77, 97, 0.100, 1.200, 52.800, 1154, 100, 98, 17, 23008, -18456, 5215, 5377, 17, 14, 1528392988.283, 44, 0, 1024, 1024, 1024, 1024, 0, 6, 3812, 3829, 3837, 3866, 3807, 3844, 0, 1, 14802, -89.900, 0.000, 52.100, -0.100, 0.100, -3.100, 0.0, , , , , , 96, , , 47, 47, 47
38.6884410, -120.4165692, 27.200, 10:36:28.382, 18, 0.14, 0.77, 97, 0.100, 1.200, 52.800, 1154, 100, 98, 17, 23008, -18456, 5215, 5377, 17, 14, 1528392988.382, 143, 0, 1024, 1024, 1024, 1024, 0, 6, 3812, 3829, 3837, 3866, 3807, 3844, 0, 1, 14901, -90.000, 0.000, 52.100, -0.100, 0.100, -3.100, 0.0, , , , , , 96, , , 47, 47, 47
38.6884409, -120.4165691, 27.800, 10:36:28.481, 18, 0.14, 0.75, 97, 0.200, 1.200, 52.800, 1154, 100, 97, 17, 23008, -18456, 5215, 5377, 17, 14, 1528392988.482, 51, 0, 1024, 1024, 1024, 1024, 0, 6, 3812, 3829, 3837, 3866, 3807, 3844, 0, 1, 15001, -89.900, 0.000, 52.100, -0.100, 0.100, -3.100, 0.0, , , , , , 96, , , 47, 47, 47
38.6884408, -120.4165690, 28.100, 10:36:28.582, 18, 0.00, 0.74, 97, 0.600, 1.400, 52.900, 1154, 100, 97, 17, 23008, -18456, 5215, 5377, 17, 14, 1528392988.582, 50, 0, 1024, 1024, 1024, 1024, 0, 6, 3812, 3829, 3837, 3866, 3807, 3844, 0, 1, 15102, -89.900, 0.000, 52.100, 0.000, 0.000, -3.000, 0.0, , , , , , 96, , , 47, 47, 47
38.6884408, -120.4165690, 28.400, 10:36:28.682, 18, 0.00, 0.74, 97, 0.800, 1.600, 53.300, 1154, 100, 97, 17, 23008, -18456, 5215, 5377, 17, 14, 1528392988.682, 36, 0, 1024, 1024, 1024, 1024, 0, 6, 3812, 3829, 3837, 3866, 3807, 3844, 0, 1, 15202, -89.900, 0.000, 52.200, 0.000, 0.000, -3.000, 0.0, , , , , , 96, , , 47, 47, 47
38.6884408, -120.4165689, 28.700, 10:36:28.782, 18, 0.00, 0.73, 97, 0.600, 1.600, 53.700, 1154, 100, 97, 17, 22966, -18678, 5215, 5377, 17, 14, 1528392988.782, 44, 0, 1024, 1024, 1024, 1024, 0, 6, 3805, 3808, 3831, 3855, 3790, 3841, 0, 1, 15301, -89.900, 0.000, 52.100, 0.000, 0.000, -3.000, 0.0, , , , , , 96, , , 47, 47, 47
38.6884408, -120.4165689, 29.100, 10:36:28.882, 18, 0.00, 0.73, 97, 0.400, 1.600, 54.000, 1154, 100, 97, 17, 22966, -18678, 5215, 5377, 17, 14, 1528392988.883, 19, 0, 1024, 1024, 1024, 1024, 0, 6, 3805, 3808, 3831, 3855, 3790, 3841, 0, 1, 15402, -89.900, 0.000, 52.200, 0.000, 0.000, -3.000, 0.0, , , , , , 96, , , 47, 47, 47
38.6884408, -120.4165688, 29.400, 10:36:28.982, 18, 0.00, 0.73, 97, 0.500, 1.600, 54.200, 1154, 100, 97, 17, 22966, -18678, 5215, 5377, 17, 14, 1528392988.983, 19, 0, 1024, 1024, 1024, 1024, 0, 6, 3805, 3808, 3831, 3855, 3790, 3841, 0, 1, 15502, -89.900, 0.000, 52.100, 0.000, 0.000, -3.100, 0.0, , , , , , 96, , , 47, 47, 47
38.6884408, -120.4165688, 29.700, 10:36:29.082, 18, 0.00, 0.74, 97, 1.100, 1.900, 54.000, 1154, 100, 97, 17, 22966, -18678, 5215, 5377, 17, 14, 1528392989.083, 22, 0, 1024, 1024, 1024, 1024, 0, 6, 3805, 3808, 3831, 3855, 3790, 3841, 0, 1, 15602, -89.900, 0.000, 52.100, 0.000, 0.000, -3.200, 0.0, , , , , , 96, , , 47, 47, 47
38.6884409, -120.4165688, 30.100, 10:36:29.190, 18, 0.00, 0.74, 97, 1.800, 2.200, 53.600, 1154, 100, 97, 17, 22966, -18678, 5215, 5377, 17, 14, 1528392989.190, 4, 0, 1024, 1024, 1024, 1024, 0, 6, 3805, 3808, 3831, 3855, 3790, 3841, 0, 1, 15710, -89.900, 0.000, 52.100, 0.000, 0.000, -3.000, 0.0, , , , , , 96, , , 47, 47, 47
38.6884410, -120.4165688, 30.400, 10:36:29.288, 18, 0.00, 0.75, 97, 2.100, 2.100, 53.200, 1154, 100, 97, 17, 22966, -18678, 5215, 5377, 17, 14, 1528392989.289, 4, 0, 1024, 1024, 1024, 1024, 0, 6, 3805, 3808, 3831, 3855, 3790, 3841, 0, 1, 15808, -89.900, 0.000, 52.100, 0.000, 0.000, -3.000, 0.0, , , , , , 96, , , 47, 47, 47
38.6884410, -120.4165688, 30.400, 10:36:29.382, 18, 0.00, 0.75, 97, 2.100, 2.100, 53.200, 1154, 100, 97, 17, 22966, -18678, 5215, 5377, 17, 14, 1528392989.383, 98, 0, 1024, 1024, 1024, 1024, 0, 6, 3805, 3808, 3831, 3855, 3790, 3841, 0, 1, 15902, -89.900, 0.000, 52.100, 0.000, 0.000, -3.000, 0.0, , , , , , 96, , , 47, 47, 47
38.6884411, -120.4165689, 31.000, 10:36:29.490, 18, 0.00, 0.77, 97, 2.400, 1.700, 52.600, 1154, 100, 97, 17, 22966, -18678, 5215, 5377, 17, 14, 1528392989.490, 5, 0, 1024, 1024, 1024, 1024, 0, 6, 3805, 3808, 3831, 3855, 3790, 3841, 0, 1, 16010, -89.900, 0.000, 52.200, 0.000, 0.000, -2.900, 0.0, , , , , , 96, , , 47, 47, 47
38.6884411, -120.4165689, 31.000, 10:36:29.583, 18, 0.00, 0.77, 97, 2.400, 1.700, 52.600, 1154, 100, 97, 17, 22966, -18678, 5215, 5377, 17, 14, 1528392989.584, 99, 0, 1024, 1024, 1024, 1024, 0, 6, 3805, 3808, 3831, 3855, 3790, 3841, 0, 1, 16103, -89.900, 0.000, 52.200, 0.000, 0.000, -2.900, 0.0, , , , , , 96, , , 47, 47, 47
38.6884411, -120.4165689, 31.000, 10:36:29.683, 18, 0.00, 0.77, 97, 2.400, 1.700, 52.600, 1154, 100, 97, 17, 22966, -18678, 5215, 5377, 17, 14, 1528392989.684, 199, 0, 1024, 1024, 1024, 1024, 0, 6, 3805, 3808, 3831, 3855, 3790, 3841, 0, 1, 16204, -89.900, 0.000, 52.100, 0.000, 0.000, -2.900, 0.0, , , , , , 96, , , 47, 47, 47
38.6884412, -120.4165689, 31.600, 10:36:29.782, 18, 0.00, 0.78, 97, 3.100, 1.700, 52.300, 1154, 100, 97, 17, 22966, -18678, 5215, 5377, 17, 14, 1528392989.784, 47, 0, 1024, 1024, 1024, 1024, 0, 6, 3805, 3808, 3831, 3855, 3790, 3841, 0, 1, 16303, -89.900, 0.000, 52.100, 0.000, 0.000, -3.000, 0.0, , , , , , 96, , , 47, 47, 47
38.6884413, -120.4165689, 31.900, 10:36:29.885, 18, 0.00, 0.79, 97, 3.000, 1.600, 52.300, 1154, 100, 97, 17, 22847, -19592, 5215, 5377, 17, 14, 1528392989.886, 21, 0, 1024, 1024, 1024, 1024, 0, 6, 3805, 3808, 3831, 3855, 3790, 3841, 0, 1, 16405, -89.900, 0.000, 52.100, 0.000, 0.000, -2.900, 0.0, , , , , , 96, , , 47, 47, 47
38.6884414, -120.4165690, 32.200, 10:36:29.983, 18, 0.00, 0.80, 97, 2.900, 1.800, 52.300, 1154, 100, 96, 17, 22847, -19592, 5215, 5377, 17, 14, 1528392989.984, 29, 0, 1024, 1024, 1024, 1024, 0, 6, 3786, 3804, 3820, 3838, 3781, 3837, 0, 1, 16503, -89.900, 0.000, 52.100, 0.000, 0.000, -2.900, 0.0, , , , , , 96, , , 47, 47, 47
38.6884414, -120.4165690, 32.500, 10:36:30.084, 18, 0.00, 0.80, 97, 2.900, 2.000, 52.300, 1154, 100, 96, 17, 22847, -19592, 5215, 5377, 17, 14, 1528392990.085, 21, 0, 1024, 1024, 1024, 1024, 0, 6, 3786, 3804, 3820, 3838, 3781, 3837, 0, 1, 16604, -89.900, 0.000, 52.100, 0.000, 0.000, -2.800, 0.0, , , , , , 96, , , 47, 47, 47
38.6884414, -120.4165690, 32.500, 10:36:30.184, 18, 0.00, 0.80, 97, 2.900, 2.000, 52.300, 1154, 100, 96, 17, 22847, -19592, 5215, 5377, 17, 14, 1528392990.185, 121, 0, 1024, 1024, 1024, 1024, 0, 6, 3786, 3804, 3820, 3838, 3781, 3837, 0, 1, 16704, -89.900, 0.000, 52.100, 0.000, 0.000, -2.800, 0.0, , , , , , 96, , , 47, 47, 47
38.6884414, -120.4165690, 32.800, 10:36:30.283, 18, 0.00, 0.81, 97, 3.200, 1.900, 52.300, 1154, 100, 96, 17, 22847, -19592, 5215, 5377, 17, 14, 1528392990.284, 39, 0, 1024, 1024, 1024, 1024, 0, 6, 3786, 3804, 3820, 3838, 3781, 3837, 0, 1, 16803, -89.900, 0.000, 52.100, 0.000, 0.000, -2.800, 0.0, , , , , , 96, , , 47, 47, 47
38.6884415, -120.4165691, 33.100, 10:36:30.382, 18, 0.00, 0.81, 97, 3.200, 1.600, 52.300, 1154, 100, 96, 17, 22847, -19592, 5215, 5377, 17, 14, 1528392990.383, 65, 0, 1024, 1024, 1024, 1024, 0, 6, 3786, 3804, 3820, 3838, 3781, 3837, 0, 1, 16903, -90.000, 0.000, 52.100, 0.000, 0.000, -2.800, 0.0, , , , , , 96, , , 47, 47, 47
38.6884415, -120.4165691, 33.400, 10:36:30.489, 18, 0.00, 0.81, 97, 2.800, 1.300, 52.400, 1154, 100, 96, 17, 22847, -19592, 5215, 5377, 17, 14, 1528392990.489, 4, 0, 1024, 1024, 1024, 1024, 0, 6, 3786, 3804, 3820, 3838, 3781, 3837, 0, 1, 17008, -90.000, 0.000, 52.100, 0.000, 0.000, -2.800, 0.0, , , , , , 96, , , 47, 47, 47
38.6884414, -120.4165691, 33.700, 10:36:30.581, 18, 0.10, 0.81, 97, 2.500, 1.200, 52.500, 1154, 100, 95, 17, 22847, -19592, 5215, 5377, 17, 14, 1528392990.582, 17, 0, 1024, 1024, 1024, 1024, 0, 6, 3786, 3804, 3820, 3838, 3781, 3837, 0, 1, 17101, -90.000, 0.000, 52.100, -0.100, 0.000, -2.900, 0.0, , , , , , 96, , , 47, 47, 47
38.6884414, -120.4165691, 33.700, 10:36:30.682, 18, 0.10, 0.81, 97, 2.500, 1.200, 52.500, 1154, 100, 95, 17, 22847, -19592, 5215, 5377, 17, 14, 1528392990.683, 117, 0, 1024, 1024, 1024, 1024, 0, 6, 3786, 3804, 3820, 3838, 3781, 3837, 0, 1, 17202, -90.000, 0.000, 52.100, -0.100, 0.000, -2.900, 0.0, , , , , , 96, , , 47, 47, 47
38.6884414, -120.4165691, 34.000, 10:36:30.785, 18, 0.10, 0.81, 97, 2.300, 1.100, 52.400, 1154, 100, 95, 17, 22847, -19592, 5215, 5377, 17, 14, 1528392990.786, 91, 0, 1024, 1024, 1024, 1024, 0, 6, 3786, 3804, 3820, 3838, 3781, 3837, 0, 1, 17305, -90.000, 0.000, 52.100, -0.100, 0.000, -2.900, 0.0, , , , , , 96, , , 47, 47, 47
38.6884414, -120.4165691, 34.500, 10:36:30.884, 18, 0.00, 0.80, 97, 1.200, 0.700, 52.500, 1154, 100, 95, 17, 22847, -19592, 5215, 5377, 17, 14, 1528392990.884, 61, 0, 1024, 1024, 1024, 1024, 0, 6, 3786, 3804, 3820, 3838, 3781, 3837, 0, 1, 17404, -90.000, 0.000, 52.100, 0.000, 0.000, -2.900, 0.0, , , , , , 96, , , 47, 47, 47
38.6884414, -120.4165692, 34.900, 10:36:30.983, 18, 0.00, 0.80, 97, 1.400, 0.800, 52.600, 1154, 100, 95, 17, 22847, -19592, 5215, 5377, 17, 14, 1528392990.984, 48, 0, 1024, 1024, 1024, 1024, 0, 6, 3786, 3804, 3820, 3838, 3781, 3837, 0, 1, 17503, -90.000, 0.000, 52.100, 0.000, 0.000, -3.000, 0.0, , , , , , 96, , , 47, 47, 47
38.6884414, -120.4165692, 34.900, 10:36:31.084, 18, 0.00, 0.80, 97, 1.400, 0.800, 52.600, 1154, 100, 95, 17, 22938, -18159, 5215, 5377, 17, 14, 1528392991.085, 149, 0, 1024, 1024, 1024, 1024, 0, 6, 3786, 3804, 3820, 3838, 3781, 3837, 0, 1, 17604, -90.000, 0.000, 52.100, 0.000, 0.000, -3.000, 0.0, , , , , , 96, , , 47, 47, 47
38.6884414, -120.4165692, 34.900, 10:36:31.181, 18, 0.00, 0.80, 97, 1.400, 0.800, 52.600, 1154, 100, 95, 17, 22938, -18159, 5215, 5377, 17, 14, 1528392991.182, 246, 0, 1024, 1024, 1024, 1024, 0, 6, 3786, 3804, 3820, 3838, 3781, 3837, 0, 1, 17701, -90.000, 0.000, 52.100, 0.000, 0.000, -3.000, 0.0, , , , , , 96, , , 47, 47, 47
38.6884416, -120.4165693, 35.800, 10:36:31.281, 18, 0.00, 0.83, 97, 3.500, 1.400, 52.000, 1154, 100, 96, 17, 22938, -18159, 5215, 5377, 17, 14, 1528392991.282, 6, 0, 1024, 1024, 1024, 1024, 0, 6, 3802, 3813, 3834, 3855, 3790, 3842, 0, 1, 17801, -89.900, 0.000, 52.100, 0.000, 0.000, -2.900, 0.0, , , , , , 96, , , 47, 47, 47
38.6884416, -120.4165694, 36.100, 10:36:31.382, 18, 0.00, 0.84, 97, 3.800, 1.200, 51.800, 1154, 100, 96, 17, 22938, -18159, 5215, 5377, 17, 14, 1528392991.382, 46, 0, 1024, 1024, 1024, 1024, 0, 6, 3802, 3813, 3834, 3855, 3790, 3842, 0, 1, 17901, -90.000, 0.000, 52.100, 0.000, 0.000, -2.900, 0.0, , , , , , 96, , , 47, 47, 47
38.6884416, -120.4165694, 36.100, 10:36:31.481, 18, 0.00, 0.84, 97, 3.800, 1.200, 51.800, 1154, 100, 96, 17, 22938, -18159, 5215, 5377, 17, 14, 1528392991.482, 146, 0, 1024, 1024, 1024, 1024, 0, 6, 3802, 3813, 3834, 3855, 3790, 3842, 0, 1, 18001, -90.000, 0.000, 52.100, 0.000, 0.000, -2.900, 0.0, , , , , , 96, , , 47, 47, 47
38.6884417, -120.4165695, 36.600, 10:36:31.582, 18, 0.00, 0.85, 97, 3.300, 0.800, 52.000, 1154, 100, 96, 17, 22938, -18159, 5215, 5377, 17, 14, 1528392991.582, 69, 0, 1024, 1024, 1024, 1024, 0, 6, 3802, 3813, 3834, 3855, 3790, 3842, 0, 1, 18101, -89.900, 0.000, 52.100, 0.000, 0.000, -2.800, 0.0, , , , , , 96, , , 47, 47, 47
38.6884418, -120.4165695, 37.200, 10:36:31.682, 18, 0.00, 0.85, 97, 2.800, 1.200, 52.400, 1154, 100, 96, 17, 22938, -18159, 5215, 5377, 17, 14, 1528392991.682, 84, 0, 1024, 1024, 1024, 1024, 0, 6, 3802, 3813, 3834, 3855, 3790, 3842, 0, 1, 18202, -89.900, 0.000, 52.100, 0.000, 0.000, -2.800, 0.0, , , , , , 96, , , 47, 47, 47
38.6884418, -120.4165696, 37.400, 10:36:31.782, 18, 0.00, 0.86, 97, 2.900, 1.400, 52.600, 1154, 100, 96, 17, 22938, -18159, 5215, 5377, 17, 14, 1528392991.782, 56, 0, 1024, 1024, 1024, 1024, 0, 6, 3802, 3813, 3834, 3855, 3790, 3842, 0, 1, 18301, -89.900, 0.000, 52.100, 0.000, 0.000, -2.800, 0.0, , , , , , 96, , , 47, 47, 47
38.6884418, -120.4165696, 37.700, 10:36:31.882, 18, 0.00, 0.86, 97, 2.900, 1.600, 52.800, 1154, 100, 96, 17, 22815, -19023, 5215, 5377, 17, 14, 1528392991.882, 82, 0, 1024, 1024, 1024, 1024, 0, 6, 3802, 3813, 3834, 3855, 3790, 3842, 0, 1, 18402, -89.900, 0.000, 52.100, 0.000, 0.000, -2.800, 0.0, , , , , , 96, , , 47, 47, 47
38.6884418, -120.4165696, 38.000, 10:36:31.981, 18, 0.00, 0.86, 97, 2.600, 1.700, 52.800, 1154, 100, 93, 17, 22815, -19023, 5215, 5377, 17, 14, 1528392991.982, 85, 0, 1024, 1024, 1024, 1024, 0, 6, 3802, 3813, 3834, 3855, 3790, 3842, 0, 1, 18501, -89.900, 0.000, 52.100, 0.000, 0.000, -2.900, 0.0, , , , , , 96, , , 47, 47, 47
38.6884418, -120.4165696, 38.000, 10:36:32.082, 18, 0.00, 0.86, 97, 2.600, 1.700, 52.800, 1154, 100, 93, 17, 22815, -19023, 5215, 5377, 17, 14, 1528392992.082, 185, 0, 1024, 1024, 1024, 1024, 0, 6, 3802, 3813, 3834, 3855, 3790, 3842, 0, 1, 18601, -89.900, 0.000, 52.100, 0.000, 0.000, -2.900, 0.0, , , , , , 96, , , 47, 47, 47
38.6884418, -120.4165696, 38.600, 10:36:32.182, 18, 0.00, 0.86, 97, 2.800, 1.700, 52.500, 1154, 100, 93, 17, 22815, -19023, 5215, 5377, 17, 14, 1528392992.183, 59, 0, 1024, 1024, 1024, 1024, 0, 6, 3802, 3813, 3834, 3855, 3790, 3842, 0, 1, 18702, -89.900, 0.000, 52.200, 0.000, 0.000, -3.000, 0.0, , , , , , 96, , , 47, 47, 47
38.6884418, -120.4165696, 38.900, 10:36:32.282, 18, 0.00, 0.86, 97, 2.900, 1.800, 52.400, 1154, 100, 93, 17, 22815, -19023, 5215, 5377, 17, 14, 1528392992.283, 72, 0, 1024, 1024, 1024, 1024, 0, 6, 3802, 3813, 3834, 3855, 3790, 3842, 0, 1, 18802, -89.900, 0.000, 52.100, 0.000, 0.000, -3.000, 0.0, , , , , , 96, , , 47, 47, 47
38.6884418, -120.4165696, 39.200, 10:36:32.382, 18, 0.00, 0.86, 97, 2.900, 1.600, 52.300, 1154, 100, 93, 17, 22815, -19023, 5215, 5377, 17, 14, 1528392992.383, 65, 0, 1024, 1024, 1024, 1024, 0, 6, 3774, 3793, 3808, 3825, 3770, 3810, 0, 1, 18903, -89.900, 0.000, 52.100, 0.000, 0.000, -3.000, 0.0, , , , , , 96, , , 47, 47, 47
38.6884418, -120.4165697, 39.500, 10:36:32.482, 18, 0.00, 0.86, 97, 2.900, 1.300, 52.300, 1154, 100, 92, 17, 22815, -19023, 5215, 5377, 17, 14, 1528392992.482, 52, 0, 1024, 1024, 1024, 1024, 0, 6, 3774, 3793, 3808, 3825, 3770, 3810, 0, 1, 19002, -90.000, 0.000, 52.100, 0.000, 0.000, -3.000, 0.0, , , , , , 96, , , 47, 47, 47
38.6884418, -120.4165697, 39.800, 10:36:32.582, 18, 0.00, 0.86, 97, 2.900, 1.100, 52.300, 1154, 100, 92, 17, 22815, -19023, 5215, 5377, 17, 14, 1528392992.582, 51, 0, 1024, 1024, 1024, 1024, 0, 6, 3774, 3793, 3808, 3825, 3770, 3810, 0, 1, 19102, -90.000, 0.000, 52.200, 0.000, 0.000, -3.000, 0.0, , , , , , 96, , , 47, 47, 47
38.6884418, -120.4165698, 40.100, 10:36:32.682, 18, 0.00, 0.87, 97, 3.000, 1.000, 52.400, 1154, 100, 92, 17, 22815, -19023, 5215, 5377, 17, 14, 1528392992.682, 41, 0, 1024, 1024, 1024, 1024, 0, 6, 3774, 3793, 3808, 3825, 3770, 3810, 0, 1, 19202, -90.000, 0.000, 52.100, 0.000, 0.000, -2.900, 0.0, , , , , , 96, , , 47, 47, 47
38.6884418, -120.4165699, 40.400, 10:36:32.781, 18, 0.00, 0.87, 97, 3.100, 0.900, 52.400, 1154, 100, 92, 17, 22815, -19023, 5215, 5377, 17, 14, 1528392992.782, 42, 0, 1024, 1024, 1024, 1024, 0, 6, 3774, 3793, 3808, 3825, 3770, 3810, 0, 1, 19301, -89.900, 0.000, 52.100, 0.000, 0.000, -2.900, 0.0, , , , , , 96, , , 47, 47, 47
38.6884418, -120.4165700, 40.900, 10:36:32.882, 18, 0.00, 0.87, 97, 3.200, 1.100, 52.600, 1154, 100, 92, 17, 22815, -19023, 5215, 5377, 17, 14, 1528392992.883, 26, 0, 1024, 1024, 1024, 1024, 0, 6, 3774, 3793, 3808, 3825, 3770, 3810, 0, 1, 19402, -90.000, 0.000, 52.100, 0.000, 0.000, -2.900, 0.0, , , , , , 96, , , 47, 47, 47
38.6884418, -120.4165700, 41.200, 10:36:32.982, 18, 0.10, 0.87, 97, 3.100, 1.100, 52.600, 1154, 100, 94, 17, 22815, -19023, 5215, 5377, 17, 14, 1528392992.982, 31, 0, 1024, 1024, 1024, 1024, 0, 6, 3774, 3793, 3808, 3825, 3770, 3810, 0, 1, 19502, -90.000, 0.000, 52.100, -0.100, 0.000, -3.000, 0.0, , , , , , 96, , , 47, 47, 47
38.6884418, -120.4165700, 41.500, 10:36:33.082, 18, 0.10, 0.87, 97, 2.900, 1.100, 52.600, 1154, 100, 94, 17, 22815, -19023, 5215, 5377, 17, 14, 1528392993.082, 21, 0, 1024, 1024, 1024, 1024, 0, 6, 3774, 3793, 3808, 3825, 3770, 3810, 0, 1, 19601, -90.000, 0.000, 52.200, -0.100, 0.000, -3.000, 0.0, , , , , , 96, , , 47, 47, 47
38.6884418, -120.4165700, 41.800, 10:36:33.181, 18, 0.10, 0.87, 97, 2.800, 1.000, 52.600, 1154, 100, 94, 17, 22815, -19023, 5215, 5377, 17, 14, 1528392993.181, 23, 0, 1024, 1024, 1024, 1024, 0, 6, 3774, 3793, 3808, 3825, 3770, 3810, 0, 1, 19700, -90.000, 0.000, 52.100, -0.100, 0.000, -3.100, 0.0, , , , , , 96, , , 47, 47, 47
38.6884417, -120.4165701, 42.100, 10:36:33.281, 18, 0.10, 0.87, 97, 2.900, 1.000, 52.500, 1154, 100, 94, 17, 22757, -20853, 5161, 5377, 17, 14, 1528392993.282, 25, 0, 1024, 1024, 1024, 1024, 0, 6, 3774, 3793, 3808, 3825, 3770, 3810, 0, 1, 19802, -90.000, 0.000, 52.100, -0.100, 0.000, -3.000, 0.0, , , , , , 96, , , 47, 47, 47
38.6884417, -120.4165701, 42.100, 10:36:33.382, 18, 0.10, 0.87, 97, 2.900, 1.000, 52.500, 1154, 100, 96, 17, 22757, -20853, 5161, 5377, 17, 14, 1528392993.383, 126, 0, 1024, 1024, 1024, 1024, 0, 6, 3756, 3762, 3784, 3804, 3735, 3795, 0, 1, 19902, -90.000, 0.000, 52.100, -0.100, 0.000, -3.000, 0.0, , , , , , 96, , , 47, 47, 47
38.6884417, -120.4165701, 42.800, 10:36:33.481, 18, 0.10, 0.86, 97, 3.000, 0.800, 52.500, 1154, 100, 96, 17, 22757, -20853, 5161, 5377, 17, 14, 1528392993.481, 9, 0, 1024, 1024, 1024, 1024, 0, 6, 3756, 3762, 3784, 3804, 3735, 3795, 0, 1, 20001, -90.000, 0.000, 52.100, -0.100, 0.000, -3.100, 0.0, , , , , , 96, , , 47, 47, 47
38.6884417, -120.4165701, 43.100, 10:36:33.591, 18, 0.10, 0.86, 97, 3.000, 0.900, 52.500, 1154, 100, 96, 17, 22757, -20853, 5161, 5377, 17, 14, 1528392993.592, 12, 0, 1024, 1024, 1024, 1024, 0, 6, 3756, 3762, 3784, 3804, 3735, 3795, 0, 1, 20111, -90.000, 0.000, 52.100, -0.100, 0.000, -3.100, 0.0, , , , , , 96, , , 47, 47, 47
38.6884417, -120.4165701, 43.400, 10:36:33.681, 18, 0.10, 0.86, 97, 2.900, 1.100, 52.500, 1154, 100, 96, 17, 22757, -20853, 5161, 5377, 17, 14, 1528392993.681, 7, 0, 1024, 1024, 1024, 1024, 0, 6, 3756, 3762, 3784, 3804, 3735, 3795, 0, 1, 20200, -89.900, 0.000, 52.100, -0.100, 0.000, -3.100, 0.0, , , , , , 96, , , 47, 47, 47
38.6884416, -120.4165701, 43.700, 10:36:33.782, 18, 0.10, 0.86, 96, 2.800, 1.100, 52.500, 1154, 100, 96, 17, 22757, -20853, 5161, 5377, 17, 14, 1528392993.782, 18, 0, 1024, 1024, 1024, 1024, 0, 6, 3756, 3762, 3784, 3804, 3735, 3795, 0, 1, 20301, -89.900, 0.000, 52.100, -0.100, 0.000, -3.000, 0.0, , , , , , 96, , , 47, 47, 47
38.6884416, -120.4165701, 43.700, 10:36:33.882, 18, 0.10, 0.86, 96, 2.800, 1.100, 52.500, 1154, 100, 96, 17, 22757, -20853, 5161, 5377, 17, 14, 1528392993.882, 118, 0, 1024, 1024, 1024, 1024, 0, 6, 3756, 3762, 3784, 3804, 3735, 3795, 0, 1, 20402, -89.900, 0.000, 52.100, -0.100, 0.000, -3.000, 0.0, , , , , , 96, , , 47, 47, 47
38.6884416, -120.4165701, 44.000, 10:36:33.981, 18, 0.10, 0.85, 96, 2.600, 0.900, 52.600, 1154, 100, 92, 17, 22757, -20853, 5161, 5377, 17, 14, 1528392993.982, 75, 0, 1024, 1024, 1024, 1024, 0, 6, 3756, 3762, 3784, 3804, 3735, 3795, 0, 1, 20501, -90.000, 0.000, 52.200, -0.100, 0.000, -3.100, 0.0, , , , , , 96, , , 47, 47, 47
38.6884416, -120.4165700, 44.400, 10:36:34.082, 18, 0.10, 0.85, 96, 2.500, 1.000, 52.600, 1154, 100, 92, 17, 22757, -20853, 5161, 5377, 17, 14, 1528392994.082, 91, 0, 1024, 1024, 1024, 1024, 0, 6, 3756, 3762, 3784, 3804, 3735, 3795, 0, 1, 20601, -89.900, 0.000, 52.100, -0.100, 0.000, -3.100, 0.0, , , , , , 96, , , 47, 47, 47
38.6884415, -120.4165700, 44.700, 10:36:34.181, 18, 0.10, 0.84, 96, 2.400, 1.100, 52.700, 1154, 100, 92, 17, 22757, -20853, 5161, 5377, 17, 14, 1528392994.182, 90, 0, 1024, 1024, 1024, 1024, 0, 6, 3756, 3762, 3784, 3804, 3735, 3795, 0, 1, 20701, -89.900, 0.000, 52.200, -0.100, 0.000, -3.000, 0.0, , , , , , 96, , , 47, 47, 47
38.6884415, -120.4165699, 45.000, 10:36:34.282, 18, 0.10, 0.84, 96, 2.200, 1.100, 52.700, 1154, 100, 92, 17, 22757, -20853, 5161, 5377, 17, 14, 1528392994.282, 65, 0, 1024, 1024, 1024, 1024, 0, 6, 3756, 3762, 3784, 3804, 3735, 3795, 0, 1, 20801, -89.900, 0.000, 52.100, -0.100, 0.000, -3.000, 0.0, , , , , , 96, , , 47, 47, 47
38.6884414, -120.4165699, 45.300, 10:36:34.382, 18, 0.00, 0.83, 96, 2.200, 1.200, 52.700, 1154, 100, 92, 17, 22568, -20870, 5161, 5377, 17, 14, 1528392994.382, 58, 0, 1024, 1024, 1024, 1024, 0, 6, 3734, 3754, 3774, 3796, 3738, 3792, 0, 1, 20901, -89.900, 0.000, 52.100, 0.000, 0.000, -3.100, 0.0, , , , , , 96, , , 47, 47, 47
38.6884414, -120.4165698, 45.600, 10:36:34.481, 18, 0.00, 0.83, 96, 2.400, 1.400, 52.600, 1154, 100, 90, 17, 22568, -20870, 5161, 5377, 17, 14, 1528392994.481, 58, 0, 1024, 1024, 1024, 1024, 0, 6, 3734, 3754, 3774, 3796, 3738, 3792, 0, 1, 21001, -89.900, 0.000, 52.100, 0.000, 0.000, -2.900, 0.0, , , , , , 96, , , 47, 47, 47
