latitude,longitude,altitude(feet),ascent(feet),speed(mph),distance(feet),time(millisecond),datetime(utc),satellites,gpslevel,voltage(v),max_altitude(feet),max_ascent(feet),max_speed(mph),max_distance(feet), xSpeed(mph), ySpeed(mph), zSpeed(mph), compass_heading(degrees), pitch(degrees), roll(degrees),isPhoto,isVideo,rc_elevator,rc_aileron,rc_throttle,rc_rudder,gimbal_heading(degrees),gimbal_pitch(degrees),battery_percent,voltageCell1,voltageCell2,voltageCell3,voltageCell4,voltageCell5,voltageCell6,current(A),battery_temperature(f),flycStateRaw,flycState,message
38.6884555,-120.4165661,5212.999245228,0,0.223694,0,3130,2018-06-07 17:56:29,14,0,0,5212.999245228,0,0.223694,0,0,0,0,49.4, -0.9, -1.4,1,0,1024,1024,1024,1024,49.2,-90,98,3.837,3.824,3.856,3.858,3.867,3.856,0,60.8,11,AutoTakeoff,DJI_0525.jpg Starting Mission from Lat/Long: 38.68845/-120.41656 Camera: Zenmuse X3 - Overlap: 90/90 - Active Connection: No
38.6884556,-120.4165662,5212.999245228,0,0.223694,0.046283794132,3200,2018-06-07 17:56:29,14,0,0,5212.999245228,0,0.223694,0.046283794132,0,0,0,49.8, -1.3, -1.2,0,0,1024,1024,1024,1024,49.2,-90,98,3.837,3.824,3.856,3.858,3.867,3.856,0,60.8,11,AutoTakeoff,
38.6884558,-120.4165663,5212.999245228,0,0.447388,0.12338747114,3300,2018-06-07 17:56:29,14,0,0,5212.999245228,0,0.447388,0.12338747114,0,0,0,49.9, -0.9, -0.4,0,0,1024,1024,1024,1024,49.2,-89.9,98,3.837,3.824,3.856,3.858,3.867,3.856,0,60.8,11,AutoTakeoff,
38.688456,-120.4165664,5212.999245228,0,0.447388,0.201439967076,3400,2018-06-07 17:56:29,13,0,0,5212.999245228,0,0.447388,0.201439967076,0,0,0,50, -0.1, 0.3,0,0,1024,1024,1024,1024,49.2,-89.9,98,3.837,3.824,3.856,3.858,3.867,3.856,0,60.8,11,AutoTakeoff,
38.6884562,-120.4165665,5212.999245228,0,0.447388,0.279647646744,3500,2018-06-07 17:56:29,13,0,0,5212.999245228,0,0.447388,0.279647646744,0,0,0,50, 0.6, 0.9,0,0,1024,1024,1024,1024,49.2,-89.9,98,3.837,3.824,3.856,3.858,3.867,3.856,0,60.8,11,AutoTakeoff,
38.6884565,-120.4165665,5212.999245228,0,0.447388,0.38221786,3600,2018-06-07 17:56:29,11,0,0,5212.999245228,0,0.447388,0.38221786,0,0,0,49.9, 1.2, 1.4,0,0,1024,1024,1024,1024,49.2,-89.9,98,3.837,3.824,3.856,3.858,3.867,3.856,0,60.8,11,AutoTakeoff,
38.6884567,-120.4165666,5213.327329228,0.328084,0.447388,0.46039371552,3710,2018-06-07 17:56:29,11,0,0,5213.327329228,0.328084,0.447388,0.46039371552,0,0,0,49.8, 1.7, 1.8,0,0,1024,1024,1024,1024,49.2,-89.9,98,3.837,3.824,3.856,3.858,3.867,3.856,0,60.8,11,AutoTakeoff,
38.6884569,-120.4165667,5213.327329228,0.328084,0.447388,0.53861222196,3800,2018-06-07 17:56:29,12,0,0,5213.327329228,0.328084,0.447388,0.53861222196,0,0,0,49.7, 1.6, 1.7,0,0,1024,1024,1024,1024,49.2,-89.9,98,3.837,3.824,3.856,3.858,3.867,3.856,0,60.8,11,AutoTakeoff,
38.6884571,-120.4165667,5213.655413228,0.656168,0.223694,0.6082513318,3900,2018-06-07 17:56:29,12,0,0,5213.655413228,0.656168,0.447388,0.6082513318,0,0,0,49.6, 1.4, 1.6,0,0,1024,1024,1024,1024,49.2,-89.9,98,3.837,3.824,3.856,3.858,3.867,3.856,0,60.8,11,AutoTakeoff,
38.6884574,-120.4165668,5213.655413228,0.656168,0.223694,0.7213090782,4100,2018-06-07 17:56:30,14,0,0,5213.655413228,0.656168,0.447388,0.7213090782,0,0,0,49.5, 1.1, 1.3,0,0,1024,1024,1024,1024,49.2,-90,98,3.837,3.824,3.856,3.858,3.867,3.856,0,60.8,11,AutoTakeoff,
38.6884576,-120.4165669,5213.983497228,0.984252,0.223694,0.79934057676,4300,2018-06-07 17:56:30,13,0,0,5213.983497228,0.984252,0.447388,0.79934057676,0,0,0,49.4, 1.2, 1.5,0,0,1024,1024,1024,1024,49.2,-89.9,98,3.837,3.824,3.856,3.858,3.867,3.856,0,60.8,11,AutoTakeoff,
38.6884577,-120.4165669,5214.311581228,1.312336,0.223694,0.83437666712,4500,2018-06-07 17:56:30,13,0,0,5214.311581228,1.312336,0.447388,0.83437666712,0,0,0,49.3, 1.1, 1.4,0,0,1024,1024,1024,1024,49.2,-89.9,98,3.837,3.824,3.856,3.858,3.867,3.856,0,60.8,11,AutoTakeoff,
38.6884578,-120.416567,5214.311581228,1.312336,0.223694,0.87742456876,4600,2018-06-07 17:56:30,13,0,0,5214.311581228,1.312336,0.447388,0.87742456876,0,0,0,49.3, 1, 1.3,0,0,1024,1024,1024,1024,49.2,-90,98,3.837,3.824,3.856,3.858,3.867,3.856,0,60.8,11,AutoTakeoff,
38.688458,-120.416567,5214.639665228,1.64042,0.223694,0.94745081772,4700,2018-06-07 17:56:30,13,0,0,5214.639665228,1.64042,0.447388,0.94745081772,0,0,0,49.2, 0.9, 1.3,0,0,1024,1024,1024,1024,49.2,-90,98,3.837,3.824,3.856,3.858,3.867,3.856,0,60.8,11,AutoTakeoff,
38.688458,-120.4165671,5214.639665228,1.64042,0,0.95554793084,4800,2018-06-07 17:56:30,13,0,0,5214.639665228,1.64042,0.447388,0.95554793084,0,0,0,49.2, 0.9, 1.3,0,0,1024,1024,1024,1024,49.2,-89.9,98,3.837,3.824,3.856,3.858,3.867,3.856,0,60.8,11,AutoTakeoff,
38.6884581,-120.4165671,5214.967749228,1.968504,0,0.99043310256,4900,2018-06-07 17:56:30,15,0,0,5214.967749228,1.968504,0.447388,0.99043310256,0,0,-0.223694,49.1, 0.9, 1.3,0,0,1024,1024,1024,1024,49.2,-89.9,98,3.837,3.824,3.856,3.858,3.867,3.856,0,60.8,11,AutoTakeoff,
38.6884584,-120.4165673,5215.295833228,2.296588,0,1.11188323768,5000,2018-06-07 17:56:31,16,0,23.197,5215.295833228,2.296588,0.447388,1.11188323768,0,0,0,49.1, 1.1, 1.5,0,0,1024,1024,1024,1024,49.2,-90,98,3.837,3.824,3.856,3.858,3.867,3.856,16.531,60.8,11,AutoTakeoff,
38.6884584,-120.4165672,5215.623917228,2.624672,0,1.10346460224,5100,2018-06-07 17:56:31,16,0,23.197,5215.623917228,2.624672,0.447388,1.11188323768,0,0,-0.223694,49.2, 1.3, 1.5,0,0,1024,1024,1024,1024,49.2,-89.9,98,3.837,3.824,3.856,3.858,3.867,3.856,16.531,60.8,11,AutoTakeoff,
38.6884585,-120.4165672,5215.623917228,2.624672,0,1.13849413092,5200,2018-06-07 17:56:31,14,0,23.197,5215.623917228,2.624672,0.447388,1.13849413092,0,0,-0.223694,49.3, 1.4, 1.4,0,0,1024,1024,1024,1024,49.2,-89.9,98,3.837,3.824,3.856,3.858,3.867,3.856,16.531,60.8,11,AutoTakeoff,
38.6884586,-120.4165673,5215.952001228,2.952756,0,1.18153547088,5300,2018-06-07 17:56:31,14,0,23.197,5215.952001228,2.952756,0.447388,1.18153547088,0,0,0,49.4, 1.4, 1.3,0,0,1024,1024,1024,1024,49.2,-89.9,98,3.837,3.824,3.856,3.858,3.867,3.856,16.531,60.8,6,P-GPS,
38.6884586,-120.4165674,5215.952001228,2.952756,0,1.19008533992,5400,2018-06-07 17:56:31,15,0,23.197,5215.952001228,2.952756,0.447388,1.19008533992,0,0,0,49.4, 1.5, 1.4,0,0,1024,1024,1024,1024,49.2,-89.9,98,3.837,3.824,3.856,3.858,3.867,3.856,16.531,60.8,14,Waypoint,
38.6884587,-120.4165673,5216.280085228,3.28084,0,1.21650594444,5500,2018-06-07 17:56:31,15,0,23.197,5216.280085228,3.28084,0.447388,1.21650594444,0,0,0,49.4, 1.6, 1.1,0,0,1024,1024,1024,1024,49.2,-89.9,98,3.837,3.824,3.856,3.858,3.867,3.856,16.531,60.8,14,Waypoint,
38.6884588,-120.4165673,5216.280085228,3.28084,0,1.25156500068,5600,2018-06-07 17:56:31,15,0,23.197,5216.280085228,3.28084,0.447388,1.25156500068,0,0,0,49.5, 1.6, 0.8,0,0,1024,1024,1024,1024,49.2,-89.9,98,3.837,3.824,3.856,3.858,3.867,3.856,16.531,60.8,14,Waypoint,
38.6884588,-120.4165674,5216.280085228,3.28084,0,1.25963914792,5700,2018-06-07 17:56:31,15,0,23.197,5216.280085228,3.28084,0.447388,1.25963914792,0,0,0,49.5, 1.5, 0.6,0,0,1024,1024,1024,1024,49.2,-89.9,98,3.837,3.824,3.856,3.858,3.867,3.856,16.531,60.8,14,Waypoint,
38.6884589,-120.4165674,5216.280085228,3.28084,0,1.29455712804,5800,2018-06-07 17:56:31,14,0,23.197,5216.280085228,3.28084,0.447388,1.29455712804,0,0,0,49.6, 1.4, 0.5,0,0,1024,1024,1024,1024,49.2,-89.9,98,3.837,3.824,3.856,3.858,3.867,3.856,16.531,60.8,14,Waypoint,
38.688459,-120.4165675,5216.608169228,3.608924,0,1.33776579084,5900,2018-06-07 17:56:31,14,0,23.197,5216.608169228,3.608924,0.447388,1.33776579084,0,0,0,49.7, 1.3, 0.6,0,0,1024,1024,1024,1024,49.2,-89.9,98,3.837,3.824,3.856,3.858,3.867,3.856,16.531,60.8,14,Waypoint,
38.688459,-120.4165676,5216.608169228,3.608924,0,1.34652891448,6000,2018-06-07 17:56:32,15,0,22.863,5216.608169228,3.608924,0.447388,1.34652891448,0,0,-0.223694,49.7, 1.3, 0.7,0,0,1024,1024,1024,1024,49.2,-90,98,3.837,3.824,3.856,3.858,3.867,3.856,17.665,60.8,14,Waypoint,
38.6884592,-120.4165676,5217.264337228,4.265092,0,1.41591868048,6210,2018-06-07 17:56:32,15,0,22.863,5217.264337228,4.265092,0.447388,1.41591868048,0,0,-0.223694,49.7, 1.3, 1.1,0,0,1024,1024,1024,1024,49.2,-89.9,98,3.837,3.824,3.856,3.858,3.867,3.856,17.665,60.8,14,Waypoint,
38.6884592,-120.4165677,5217.592421228,4.593176,0,1.4247703868,6300,2018-06-07 17:56:32,15,0,22.863,5217.592421228,4.593176,0.447388,1.4247703868,0,0,-0.223694,49.7, 1.5, 1.2,0,0,1024,1024,1024,1024,49.2,-89.9,98,3.837,3.824,3.856,3.858,3.867,3.856,17.665,60.8,14,Waypoint,
38.6884591,-120.4165678,5217.920505228,4.92126,0,1.39984256448,6500,2018-06-07 17:56:32,14,0,22.863,5217.920505228,4.92126,0.447388,1.4247703868,0,0,-0.223694,49.6, 1.4, 1.1,0,0,1024,1024,1024,1024,49.2,-90,98,3.837,3.824,3.856,3.858,3.867,3.856,17.665,60.8,14,Waypoint,
38.6884591,-120.4165678,5218.576673228,5.577428,0,1.39984256448,6600,2018-06-07 17:56:32,14,0,22.863,5218.576673228,5.577428,0.447388,1.4247703868,0,0,-0.447388,49.5, 1.2, 1,0,0,1024,1024,1024,1024,49.2,-90,98,3.837,3.824,3.856,3.858,3.867,3.856,17.665,60.8,14,Waypoint,
38.6884591,-120.4165678,5218.904757228,5.905512,0,1.39984256448,6700,2018-06-07 17:56:32,13,0,22.863,5218.904757228,5.905512,0.447388,1.4247703868,0,0,-0.447388,49.4, 1, 1,0,0,1024,1024,1024,1024,49.2,-90,98,3.837,3.824,3.856,3.858,3.867,3.856,17.665,60.8,14,Waypoint,
38.688459,-120.4165679,5219.560925228,6.56168,0,1.37602038524,6800,2018-06-07 17:56:32,13,0,22.863,5219.560925228,6.56168,0.447388,1.4247703868,0,0,-0.447388,49.3, 0.9, 0.9,0,0,1024,1024,1024,1024,49.2,-90,98,3.837,3.824,3.856,3.858,3.867,3.856,17.665,60.8,14,Waypoint,
38.6884589,-120.416568,5220.217093228,7.217848,0,1.3533629042,6900,2018-06-07 17:56:32,12,0,22.863,5220.217093228,7.217848,0.447388,1.4247703868,0,0,-0.447388,49.4, 0.7, 0.8,0,0,1024,1024,1024,1024,49.2,-90,98,3.837,3.824,3.856,3.858,3.867,3.856,17.665,60.8,14,Waypoint,
38.6884588,-120.416568,5221.201345228,8.2021,0,1.32000332308,7000,2018-06-07 17:56:33,12,0,22.762,5221.201345228,8.2021,0.447388,1.4247703868,0,0,-0.671082,49.4, 0.5, 0.6,0,0,1024,1024,1024,1024,49.2,-90,98,3.792,3.787,3.807,3.815,3.831,3.807,18.05,60.8,14,Waypoint,
38.6884586,-120.416568,5222.185597228,9.186352,0,1.25380253356,7100,2018-06-07 17:56:33,13,0,22.762,5222.185597228,9.186352,0.447388,1.4247703868,0,0,-0.671082,49.5, 0.5, 0.3,0,0,1024,1024,1024,1024,49.2,-90,98,3.792,3.787,3.807,3.815,3.831,3.807,18.05,60.8,14,Waypoint,
38.6884582,-120.4165681,5223.826017228,10.826772,0,1.13790029888,7200,2018-06-07 17:56:33,13,0,22.762,5223.826017228,10.826772,0.447388,1.4247703868,0,0,-0.671082,49.7, 0.4, -0.2,0,0,1024,1024,1024,1024,49.2,-90,98,3.792,3.787,3.807,3.815,3.831,3.807,18.05,60.8,14,Waypoint,
38.6884579,-120.4165682,5225.138353228,12.139108,0,1.06038061136,7300,2018-06-07 17:56:33,13,0,22.762,5225.138353228,12.139108,0.447388,1.4247703868,0,0,-0.671082,49.8, 0.2, -0.4,0,0,1024,1024,1024,1024,49.2,-90,98,3.792,3.787,3.807,3.815,3.831,3.807,18.05,60.8,14,Waypoint,
38.6884577,-120.4165683,5226.122605228,13.12336,0,1.0182415024,7400,2018-06-07 17:56:33,13,0,22.762,5226.122605228,13.12336,0.447388,1.4247703868,0,0,-0.671082,49.8, 0, -0.4,0,0,1024,1024,1024,1024,49.2,-90,98,3.792,3.787,3.807,3.815,3.831,3.807,18.05,60.8,14,Waypoint,
38.6884575,-120.4165683,5227.106857228,14.107612,0,0.96176840348,7500,2018-06-07 17:56:33,13,0,22.762,5227.106857228,14.107612,0.447388,1.4247703868,0,0,-0.671082,49.8, -0.1, -0.4,0,0,1024,1024,1024,1024,49.2,-90,98,3.792,3.787,3.807,3.815,3.831,3.807,18.05,60.8,14,Waypoint,
38.6884574,-120.4165684,5228.419193228,15.419948,0,0.95371722212,7610,2018-06-07 17:56:33,15,0,22.762,5228.419193228,15.419948,0.447388,1.4247703868,0,0,-0.671082,49.7, -0.3, -0.4,0,0,1024,1024,1024,1024,49.2,-90,98,3.792,3.787,3.807,3.815,3.831,3.807,18.05,60.8,14,Waypoint,
38.6884575,-120.4165687,5229.403445228,16.4042,0,1.03957352408,7700,2018-06-07 17:56:33,15,0,22.762,5229.403445228,16.4042,0.447388,1.4247703868,0,0,-0.671082,49.6, -0.3, -0.2,0,0,1024,1024,1024,1024,49.2,-90,98,3.792,3.787,3.807,3.815,3.831,3.807,18.05,60.8,14,Waypoint,
38.6884576,-120.4165689,5230.715781228,17.716536,0,1.1058399304,7900,2018-06-07 17:56:33,15,0,22.762,5230.715781228,17.716536,0.447388,1.4247703868,0,0,-0.671082,49.6, -0.3, 0.4,0,0,1024,1024,1024,1024,49.2,-90,98,3.792,3.787,3.807,3.815,3.831,3.807,18.05,60.8,14,Waypoint,
38.6884575,-120.416569,5231.700033228,18.700788,0,1.10206040272,8000,2018-06-07 17:56:34,15,0,21.908,5231.700033228,18.700788,0.447388,1.4247703868,0,0,-0.671082,49.5, -0.2, 1,0,0,1024,1024,1024,1024,49.2,-90,98,3.791,3.765,3.792,3.754,3.798,3.753,25.878,60.8,14,Waypoint,
38.6884574,-120.416569,5233.012369228,20.013124,0,1.078248066,8100,2018-06-07 17:56:34,14,0,21.908,5233.012369228,20.013124,0.447388,1.4247703868,0,0,-0.671082,49.4, -0.1, 1.2,0,0,1024,1024,1024,1024,49.2,-90,98,3.791,3.765,3.792,3.754,3.798,3.753,25.878,60.8,14,Waypoint,
38.6884574,-120.416569,5233.996621228,20.997376,0,1.078248066,8200,2018-06-07 17:56:34,14,0,21.908,5233.996621228,20.997376,0.447388,1.4247703868,0,0,-0.671082,49.3, 0, 0.9,0,0,1024,1024,1024,1024,49.2,-90,98,3.791,3.765,3.792,3.754,3.798,3.753,25.878,60.8,14,Waypoint,
38.6884574,-120.416569,5235.308957228,22.309712,0,1.078248066,8320,2018-06-07 17:56:34,15,0,21.908,5235.308957228,22.309712,0.447388,1.4247703868,0,0,-0.671082,49.3, 0, 0.5,0,0,1024,1024,1024,1024,49.2,-90,98,3.791,3.765,3.792,3.754,3.798,3.753,25.878,60.8,14,Waypoint,
38.6884574,-120.416569,5236.621293228,23.622048,0,1.078248066,8400,2018-06-07 17:56:34,15,0,21.908,5236.621293228,23.622048,0.447388,1.4247703868,0,0,-0.671082,49.3, 0.1, 0.2,0,0,1024,1024,1024,1024,49.2,-90,98,3.791,3.765,3.792,3.754,3.798,3.753,25.878,60.8,14,Waypoint,
38.6884575,-120.416569,5237.605545228,24.6063,0,1.10206040272,8600,2018-06-07 17:56:34,15,0,21.908,5237.605545228,24.6063,0.447388,1.4247703868,0,0,-0.671082,49.3, 0.2, 0.2,0,0,1024,1024,1024,1024,49.2,-90,98,3.791,3.765,3.792,3.754,3.798,3.753,25.878,60.8,14,Waypoint,
38.6884576,-120.4165689,5238.917881228,25.918636,0,1.1058399304,8700,2018-06-07 17:56:34,15,0,21.908,5238.917881228,25.918636,0.447388,1.4247703868,0,0,-0.671082,49.3, 0.2, 0.3,0,0,1024,1024,1024,1024,49.2,-90,98,3.791,3.765,3.792,3.754,3.798,3.753,25.878,60.8,14,Waypoint,
38.6884577,-120.4165689,5239.902133228,26.902888,0,1.13142392072,8800,2018-06-07 17:56:34,15,0,21.908,5239.902133228,26.902888,0.447388,1.4247703868,0,0,-0.671082,49.4, 0.3, 0.4,0,0,1024,1024,1024,1024,49.2,-90,98,3.791,3.765,3.792,3.754,3.798,3.753,25.878,60.8,14,Waypoint,
38.6884579,-120.4165688,5240.886385228,27.88714,0.3131716,1.16532484044,9000,2018-06-07 17:56:35,15,0,21.908,5240.886385228,27.88714,0.447388,1.4247703868,0,0,-0.671082,49.4, 0.7, 0.6,0,0,1024,1024,1024,1024,49.2,-89.9,98,3.631,3.627,3.65,3.645,3.657,3.63,25.878,60.8,14,Waypoint,
38.6884581,-120.4165687,5242.198721228,29.199476,0.3131716,1.20337602276,9200,2018-06-07 17:56:35,14,0,21.908,5242.198721228,29.199476,0.447388,1.4247703868,0,0,-0.671082,49.4, 1.1, 0.8,0,0,1024,1024,1024,1024,49.2,-89.9,98,3.631,3.627,3.65,3.645,3.657,3.63,25.878,60.8,14,Waypoint,
38.6884583,-120.4165686,5243.182973228,30.183728,0.3131716,1.24519689024,9300,2018-06-07 17:56:35,14,0,21.908,5243.182973228,30.183728,0.447388,1.4247703868,0,0,-0.671082,49.4, 1.5, 0.9,0,0,1024,1024,1024,1024,49.2,-89.9,98,3.631,3.627,3.65,3.645,3.657,3.63,25.878,60.8,14,Waypoint,
38.6884585,-120.4165684,5244.167225228,31.16798,0.3131716,1.27556762612,9400,2018-06-07 17:56:35,15,0,21.908,5244.167225228,31.16798,0.447388,1.4247703868,0,0,-0.671082,49.3, 1.9, 1,0,0,1024,1024,1024,1024,49.2,-89.9,98,3.631,3.627,3.65,3.645,3.657,3.63,25.878,60.8,14,Waypoint,
38.6884587,-120.4165683,5245.151477228,32.152232,0.223694,1.32500332324,9500,2018-06-07 17:56:35,15,0,21.908,5245.151477228,32.152232,0.447388,1.4247703868,0,0,-0.671082,49.2, 2.2, 1,0,0,1024,1024,1024,1024,49.2,-89.9,98,3.631,3.627,3.65,3.645,3.657,3.63,25.878,60.8,14,Waypoint,
38.6884591,-120.4165681,5247.448065228,34.44882,0.223694,1.43163718492,9620,2018-06-07 17:56:35,16,0,21.908,5247.448065228,34.44882,0.447388,1.43163718492,0,0,-0.671082,49, 2.5, 0.9,0,0,1024,1024,1024,1024,49.2,-89.9,98,3.631,3.627,3.65,3.645,3.657,3.63,25.878,60.8,14,Waypoint,
38.6884596,-120.416568,5249.416569228,36.417324,0,1.59073823988,9700,2018-06-07 17:56:35,17,0,21.908,5249.416569228,36.417324,0.447388,1.59073823988,0,0,-0.671082,49.1, 2.4, 1,0,0,1024,1024,1024,1024,49.2,-89.9,98,3.631,3.627,3.65,3.645,3.657,3.63,25.878,60.8,14,Waypoint,
38.6884599,-120.416568,5251.385073228,38.385828,0,1.69407485736,9800,2018-06-07 17:56:35,16,0,21.908,5251.385073228,38.385828,0.447388,1.69407485736,0,0,-0.671082,49.2, 2.2, 1.4,0,0,1024,1024,1024,1024,49.2,-89.9,98,3.631,3.627,3.65,3.645,3.657,3.63,25.878,60.8,14,Waypoint,
38.6884601,-120.416568,5252.369325228,39.37008,0,1.76337604068,9900,2018-06-07 17:56:35,15,0,21.908,5252.369325228,39.37008,0.447388,1.76337604068,0,0,-0.671082,49.4, 2.1, 1.5,0,0,1024,1024,1024,1024,49.2,-89.9,98,3.631,3.627,3.65,3.645,3.657,3.63,25.878,60.8,14,Waypoint,
38.6884603,-120.4165681,5253.353577228,40.354332,0,1.84157158124,10000,2018-06-07 17:56:36,15,0,22.231,5253.353577228,40.354332,0.447388,1.84157158124,0,0,-0.671082,49.5, 2, 1.7,0,0,1024,1024,1024,1024,49.2,-89.9,98,3.694,3.691,3.707,3.714,3.739,3.704,21.969,60.8,14,Waypoint,
38.6884605,-120.4165682,5255.322081228,42.322836,0,1.91977696432,10100,2018-06-07 17:56:36,16,0,22.231,5255.322081228,42.322836,0.447388,1.91977696432,0,0,-0.671082,49.8, 1.7, 2,0,0,1024,1024,1024,1024,49.2,-89.9,98,3.694,3.691,3.707,3.714,3.739,3.704,21.969,60.8,14,Waypoint,
38.6884605,-120.4165682,5256.306333228,43.307088,0,1.91977696432,10200,2018-06-07 17:56:36,16,0,22.231,5256.306333228,43.307088,0.447388,1.91977696432,0,0,-0.671082,49.9, 1.5, 1.9,0,0,1024,1024,1024,1024,49.2,-89.9,98,3.694,3.691,3.707,3.714,3.739,3.704,21.969,60.8,14,Waypoint,
38.6884605,-120.4165683,5257.290585228,44.29134,0,1.9288386444,10300,2018-06-07 17:56:36,16,0,22.231,5257.290585228,44.29134,0.447388,1.9288386444,0,0,-0.671082,49.9, 1.5, 1.7,0,0,1024,1024,1024,1024,49.2,-89.9,98,3.694,3.691,3.707,3.714,3.739,3.704,21.969,60.8,14,Waypoint,
38.6884606,-120.4165683,5258.274837228,45.275592,0,1.96337932792,10400,2018-06-07 17:56:36,17,0,22.231,5258.274837228,45.275592,0.447388,1.96337932792,0,0,-0.671082,49.8, 1.4, 1.6,0,0,1024,1024,1024,1024,49.2,-90,98,3.694,3.691,3.707,3.714,3.739,3.704,21.969,60.8,14,Waypoint,
38.6884606,-120.4165684,5259.259089228,46.259844,0,1.97265098176,10500,2018-06-07 17:56:36,17,0,22.231,5259.259089228,46.259844,0.447388,1.97265098176,0,0,-0.671082,49.7, 1.3, 1.4,0,0,1024,1024,1024,1024,49.2,-90,98,3.694,3.691,3.707,3.714,3.739,3.704,21.969,60.8,14,Waypoint,
38.6884606,-120.4165684,5260.243341228,47.244096,0,1.97265098176,10700,2018-06-07 17:56:36,17,0,22.231,5260.243341228,47.244096,0.447388,1.97265098176,0,0,-0.671082,49.5, 1.2, 1.3,0,0,1024,1024,1024,1024,49.2,-90,98,3.694,3.691,3.707,3.714,3.739,3.704,21.969,60.8,14,Waypoint,
38.6884605,-120.4165684,5260.899509228,47.900264,0,1.93827434024,10800,2018-06-07 17:56:36,17,0,22.231,5260.899509228,47.900264,0.447388,1.97265098176,0,0,-0.671082,49.3, 1.1, 1.2,0,0,1024,1024,1024,1024,49.2,-90,98,3.694,3.691,3.707,3.714,3.739,3.704,21.969,60.8,14,Waypoint,
38.6884604,-120.4165684,5261.883761228,48.884516,0.223694,1.90397643888,10900,2018-06-07 17:56:36,18,0,22.231,5261.883761228,48.884516,0.447388,1.97265098176,0,0,-0.671082,49.2, 1, 1.1,0,0,1024,1024,1024,1024,49.2,-90,98,3.694,3.691,3.707,3.714,3.739,3.704,21.969,60.8,14,Waypoint,
38.6884604,-120.4165685,5262.868013228,49.868768,0,1.913960035,11000,2018-06-07 17:56:37,18,0,22.395,5262.868013228,49.868768,0.447388,1.97265098176,0,0,-0.671082,49.2, 1, 1,0,0,1024,1024,1024,1024,49.2,-90,98,3.718,3.714,3.738,3.741,3.767,3.726,18.968,60.8,14,Waypoint,
38.6884604,-120.4165685,5263.852265228,50.85302,0,1.913960035,11100,2018-06-07 17:56:37,17,0,22.395,5263.852265228,50.85302,0.447388,1.97265098176,0,0,-0.671082,49.2, 1.1, 0.9,0,0,1024,1024,1024,1024,49.2,-89.9,98,3.718,3.714,3.738,3.741,3.767,3.726,18.968,60.8,14,Waypoint,
38.6884603,-120.4165685,5264.836517228,51.837272,0.223694,1.87992788168,11200,2018-06-07 17:56:37,17,0,22.395,5264.836517228,51.837272,0.447388,1.97265098176,0,0,-0.671082,49.2, 1, 0.9,0,0,1024,1024,1024,1024,49.2,-90,98,3.718,3.714,3.738,3.741,3.767,3.726,18.968,60.8,14,Waypoint,
38.6884602,-120.4165686,5265.820769228,52.821524,0.223694,1.85671921952,11300,2018-06-07 17:56:37,17,0,22.395,5265.820769228,52.821524,0.447388,1.97265098176,0,0,-0.671082,49.3, 0.9, 0.8,0,0,1024,1024,1024,1024,49.2,-90,98,3.718,3.714,3.738,3.741,3.767,3.726,18.968,60.8,14,Waypoint,
38.6884601,-120.4165686,5266.805021228,53.805776,0.223694,1.82307748616,11400,2018-06-07 17:56:37,17,0,22.395,5266.805021228,53.805776,0.447388,1.97265098176,0,0,-0.671082,49.4, 0.8, 0.8,0,0,1024,1024,1024,1024,49.2,-90,98,3.718,3.714,3.738,3.741,3.767,3.726,18.968,60.8,14,Waypoint,
38.6884601,-120.4165686,5267.789273228,54.790028,0.223694,1.82307748616,11500,2018-06-07 17:56:37,17,0,22.395,5267.789273228,54.790028,0.447388,1.97265098176,0,0,-0.671082,49.4, 0.8, 0.8,0,0,1024,1024,1024,1024,49.2,-90,98,3.718,3.714,3.738,3.741,3.767,3.726,18.968,60.8,14,Waypoint,
38.6884598,-120.4165688,5269.757777228,56.758532,0,1.74715228688,11600,2018-06-07 17:56:37,17,0,22.395,5269.757777228,56.758532,0.447388,1.97265098176,0,0,-0.671082,49.6, 0.4, 1,0,0,1024,1024,1024,1024,49.2,-90,98,3.718,3.714,3.738,3.741,3.767,3.726,18.968,60.8,14,Waypoint,
38.6884598,-120.4165689,5270.742029228,57.742784,0,1.75986882272,11700,2018-06-07 17:56:37,17,0,22.395,5270.742029228,57.742784,0.447388,1.97265098176,0,0,-0.671082,49.6, 0.3, 1,0,0,1024,1024,1024,1024,49.2,-90,98,3.718,3.714,3.738,3.741,3.767,3.726,18.968,60.8,14,Waypoint,
38.6884597,-120.4165689,5271.726281228,58.727036,0,1.72742459596,11800,2018-06-07 17:56:37,18,0,22.395,5271.726281228,58.727036,0.447388,1.97265098176,0,0,-0.671082,49.6, 0.3, 0.9,0,0,1024,1024,1024,1024,49.2,-90,98,3.718,3.714,3.738,3.741,3.767,3.726,18.968,60.8,14,Waypoint,
38.6884596,-120.4165689,5272.710533228,59.711288,0,1.6951444112,11900,2018-06-07 17:56:37,18,0,22.395,5272.710533228,59.711288,0.447388,1.97265098176,0,0,-0.671082,49.7, 0.4, 0.8,0,0,1024,1024,1024,1024,49.2,-90,98,3.718,3.714,3.738,3.741,3.767,3.726,18.968,60.8,14,Waypoint,
38.6884595,-120.416569,5273.694785228,60.69554,0,1.67687669408,12000,2018-06-07 17:56:38,17,0,22.307,5273.694785228,60.69554,0.447388,1.97265098176,0,0,-0.671082,49.7, 0.4, 0.7,0,0,1024,1024,1024,1024,49.2,-90,98,3.695,3.697,3.713,3.725,3.741,3.71,20.335,60.8,14,Waypoint,
38.6884594,-120.416569,5274.679037228,61.679792,0,1.64522314976,12100,2018-06-07 17:56:38,17,0,22.307,5274.679037228,61.679792,0.447388,1.97265098176,0,0,-0.671082,49.7, 0.4, 0.6,0,0,1024,1024,1024,1024,49.2,-90,98,3.695,3.697,3.713,3.725,3.741,3.71,20.335,60.8,14,Waypoint,
38.6884594,-120.416569,5275.663289228,62.664044,0,1.64522314976,12200,2018-06-07 17:56:38,16,0,22.307,5275.663289228,62.664044,0.447388,1.97265098176,0,0,-0.671082,49.6, 0.4, 0.5,0,0,1024,1024,1024,1024,49.2,-90,98,3.695,3.697,3.713,3.725,3.741,3.71,20.335,60.8,14,Waypoint,
38.6884593,-120.4165691,5276.647541228,63.648296,0,1.62853023584,12300,2018-06-07 17:56:38,16,0,22.307,5276.647541228,63.648296,0.447388,1.97265098176,0,0,-0.671082,49.5, 0.3, 0.7,0,0,1024,1024,1024,1024,49.2,-90,98,3.695,3.697,3.713,3.725,3.741,3.71,20.335,60.8,14,Waypoint,
38.6884592,-120.4165692,5277.631793228,64.632548,0,1.6129921776,12400,2018-06-07 17:56:38,17,0,22.307,5277.631793228,64.632548,0.447388,1.97265098176,0,0,-0.671082,49.4, 0.1, 0.9,0,0,1024,1024,1024,1024,49.2,-90,98,3.695,3.697,3.713,3.725,3.741,3.71,20.335,60.8,14,Waypoint,
38.6884591,-120.4165692,5278.944129228,65.944884,0,1.58258207164,12510,2018-06-07 17:56:38,17,0,22.307,5278.944129228,65.944884,0.447388,1.97265098176,0,0,-0.671082,49.2, 0, 1,0,0,1024,1024,1024,1024,49.2,-90,98,3.695,3.697,3.713,3.725,3.741,3.71,20.335,60.8,14,Waypoint,
38.688459,-120.4165693,5280.912633228,67.913388,0,1.56880582448,12700,2018-06-07 17:56:38,18,0,22.307,5280.912633228,67.913388,0.447388,1.97265098176,0,0,-0.671082,49.1, 0, 0.8,0,0,1024,1024,1024,1024,49.2,-90,98,3.695,3.697,3.713,3.725,3.741,3.71,20.335,60.8,14,Waypoint,
38.6884589,-120.4165692,5282.881137228,69.881892,0,1.52256566552,12910,2018-06-07 17:56:38,18,0,22.307,5282.881137228,69.881892,0.447388,1.97265098176,0,0,-0.671082,49.3, 0.2, 1,0,0,1024,1024,1024,1024,49.2,-90,98,3.695,3.697,3.713,3.725,3.741,3.71,20.335,60.8,14,Waypoint,
38.6884589,-120.4165692,5283.865389228,70.866144,0,1.52256566552,13000,2018-06-07 17:56:39,17,0,22.238,5283.865389228,70.866144,0.447388,1.97265098176,0,0,-0.671082,49.4, 0.2, 1.2,0,0,1024,1024,1024,1024,49.2,-90,98,3.691,3.691,3.702,3.709,3.739,3.695,20.026,60.8,14,Waypoint,
38.6884589,-120.4165692,5285.833893228,72.834648,0,1.52256566552,13210,2018-06-07 17:56:39,17,0,22.238,5285.833893228,72.834648,0.447388,1.97265098176,0,0,-0.671082,49.6, 0.2, 1.4,0,0,1024,1024,1024,1024,49.2,-90,98,3.691,3.691,3.702,3.709,3.739,3.695,20.026,60.8,14,Waypoint,
38.6884589,-120.4165693,5286.818145228,73.8189,0,1.5392552986,13400,2018-06-07 17:56:39,17,0,22.238,5286.818145228,73.8189,0.447388,1.97265098176,0,0,-0.671082,49.6, 0.4, 1.7,0,0,1024,1024,1024,1024,49.2,-90,98,3.691,3.691,3.702,3.709,3.739,3.695,20.026,60.8,14,Waypoint,
38.6884589,-120.4165693,5287.802397228,74.803152,0,1.5392552986,13500,2018-06-07 17:56:39,17,0,22.238,5287.802397228,74.803152,0.447388,1.97265098176,0,0,-0.671082,49.6, 0.4, 1.7,0,0,1024,1024,1024,1024,49.2,-89.9,98,3.691,3.691,3.702,3.709,3.739,3.695,20.026,60.8,14,Waypoint,
38.6884589,-120.4165693,5288.786649228,75.787404,0,1.5392552986,13600,2018-06-07 17:56:39,17,0,22.238,5288.786649228,75.787404,0.447388,1.97265098176,0,0,-0.671082,49.6, 0.4, 1.6,0,0,1024,1024,1024,1024,49.2,-90,98,3.691,3.691,3.702,3.709,3.739,3.695,20.026,60.8,14,Waypoint,
38.6884589,-120.4165693,5289.770901228,76.771656,0,1.5392552986,13700,2018-06-07 17:56:39,17,0,22.238,5289.770901228,76.771656,0.447388,1.97265098176,0,0,-0.671082,49.5, 0.3, 1.5,0,0,1024,1024,1024,1024,49.2,-90,98,3.691,3.691,3.702,3.709,3.739,3.695,20.026,60.8,14,Waypoint,
38.6884589,-120.4165693,5290.755153228,77.755908,0,1.5392552986,13800,2018-06-07 17:56:39,17,0,22.238,5290.755153228,77.755908,0.447388,1.97265098176,0,0,-0.671082,49.4, 0.4, 1.5,0,0,1024,1024,1024,1024,49.2,-90,98,3.691,3.691,3.702,3.709,3.739,3.695,20.026,60.8,14,Waypoint,
38.6884588,-120.4165693,5291.739405228,78.74016,0,1.51000661,13900,2018-06-07 17:56:39,18,0,22.238,5291.739405228,78.74016,0.447388,1.97265098176,0,0,-0.671082,49.3, 0.4, 1.5,0,0,1024,1024,1024,1024,49.2,-90,98,3.691,3.691,3.702,3.709,3.739,3.695,20.026,60.8,14,Waypoint,
38.6884588,-120.4165692,5292.723657228,79.724412,0,1.49299217376,14000,2018-06-07 17:56:40,18,0,22.272,5292.723657228,79.724412,0.447388,1.97265098176,0,0,-0.671082,49.3, 0.3, 1.3,0,0,1024,1024,1024,1024,49.2,-90,98,3.691,3.691,3.702,3.709,3.739,3.695,19.494,60.8,14,Waypoint,
38.6884588,-120.4165692,5293.707909228,80.708664,0.223694,1.49299217376,14100,2018-06-07 17:56:40,18,0,22.272,5293.707909228,80.708664,0.447388,1.97265098176,0,0,-0.671082,49.2, 0.3, 1.1,0,0,1024,1024,1024,1024,49.2,-90,98,3.691,3.691,3.702,3.709,3.739,3.695,19.494,60.8,14,Waypoint,
38.6884589,-120.416569,5295.676413228,82.677168,0.223694,1.49026251488,14200,2018-06-07 17:56:40,18,0,22.272,5295.676413228,82.677168,0.447388,1.97265098176,0,0,-0.671082,49.2, 0.8, 1,0,0,1024,1024,1024,1024,49.2,-90,98,3.691,3.691,3.702,3.709,3.739,3.695,19.494,60.8,14,Waypoint,
38.6884589,-120.416569,5296.660665228,83.66142,0.223694,1.49026251488,14300,2018-06-07 17:56:40,18,0,22.272,5296.660665228,83.66142,0.447388,1.97265098176,0,0,-0.671082,49.2, 0.9, 1.1,0,0,1024,1024,1024,1024,49.2,-89.9,98,3.691,3.691,3.702,3.709,3.739,3.695,19.494,60.8,14,Waypoint,
38.6884589,-120.4165689,5297.644917228,84.645672,0.223694,1.4746719632,14400,2018-06-07 17:56:40,18,0,22.272,5297.644917228,84.645672,0.447388,1.97265098176,0,0,-0.671082,49.4, 0.9, 1.1,0,0,1024,1024,1024,1024,49.2,-89.9,98,3.691,3.691,3.702,3.709,3.739,3.695,19.494,60.8,14,Waypoint,
38.6884589,-120.4165688,5298.629169228,85.629924,0.223694,1.45946855064,14500,2018-06-07 17:56:40,18,0,22.272,5298.629169228,85.629924,0.447388,1.97265098176,0,0,-0.671082,49.5, 1, 0.9,0,0,1024,1024,1024,1024,49.2,-89.9,98,3.691,3.691,3.702,3.709,3.739,3.695,19.494,60.8,14,Waypoint,
38.6884589,-120.4165687,5300.597673228,87.598428,0.223694,1.4446686814,14700,2018-06-07 17:56:40,18,0,22.272,5300.597673228,87.598428,0.447388,1.97265098176,0,0,-0.671082,49.8, 1, 0.9,0,0,1024,1024,1024,1024,49.2,-89.9,98,3.691,3.691,3.702,3.709,3.739,3.695,19.494,60.8,14,Waypoint,
38.6884589,-120.4165687,5301.581925228,88.58268,0.223694,1.4446686814,14800,2018-06-07 17:56:40,18,0,22.272,5301.581925228,88.58268,0.447388,1.97265098176,0,0,-0.671082,49.8, 1, 0.9,0,0,1024,1024,1024,1024,49.2,-90,98,3.691,3.691,3.702,3.709,3.739,3.695,19.494,60.8,14,Waypoint,
38.6884589,-120.4165686,5302.566177228,89.566932,0,1.430282198,14900,2018-06-07 17:56:40,18,0,22.272,5302.566177228,89.566932,0.447388,1.97265098176,0,0,-0.671082,49.8, 1, 0.8,0,0,1024,1024,1024,1024,49.2,-89.9,98,3.691,3.691,3.702,3.709,3.739,3.695,19.494,60.8,14,Waypoint,
38.688459,-120.4165686,5303.550429228,90.551184,0,1.46203744836,15000,2018-06-07 17:56:41,18,0,22.296,5303.550429228,90.551184,0.447388,1.97265098176,0,0,-0.671082,49.8, 1, 0.7,0,0,1024,1024,1024,1024,49.2,-89.9,97,3.703,3.695,3.719,3.721,3.747,3.703,19.016,60.8,14,Waypoint,
38.688459,-120.4165686,5304.534681228,91.535436,0,1.46203744836,15100,2018-06-07 17:56:41,18,0,22.296,5304.534681228,91.535436,0.447388,1.97265098176,0,0,-0.671082,49.7, 1, 0.7,0,0,1024,1024,1024,1024,49.2,-89.9,97,3.703,3.695,3.719,3.721,3.747,3.703,19.016,60.8,14,Waypoint,
38.688459,-120.4165685,5305.518933228,92.519688,0,1.44838259228,15200,2018-06-07 17:56:41,18,0,22.296,5305.518933228,92.519688,0.447388,1.97265098176,0,0,-0.671082,49.6, 1.2, 0.8,0,0,1024,1024,1024,1024,49.2,-89.9,97,3.703,3.695,3.719,3.721,3.747,3.703,19.016,60.8,14,Waypoint,
38.688459,-120.4165685,5306.503185228,93.50394,0,1.44838259228,15300,2018-06-07 17:56:41,18,0,22.296,5306.503185228,93.50394,0.447388,1.97265098176,0,0,-0.671082,49.5, 1.3, 0.7,0,0,1024,1024,1024,1024,49.2,-89.9,97,3.703,3.695,3.719,3.721,3.747,3.703,19.016,60.8,14,Waypoint,
38.688459,-120.4165685,5307.487437228,94.488192,0,1.44838259228,15400,2018-06-07 17:56:41,18,0,22.296,5307.487437228,94.488192,0.447388,1.97265098176,0,0,-0.671082,49.3, 1.3, 0.8,0,0,1024,1024,1024,1024,49.2,-89.9,97,3.703,3.695,3.719,3.721,3.747,3.703,19.016,60.8,14,Waypoint,
38.688459,-120.4165684,5308.471689228,95.472444,0,1.43516408792,15600,2018-06-07 17:56:41,18,0,22.296,5308.471689228,95.472444,0.447388,1.97265098176,0,0,-0.671082,49.1, 1.4, 0.7,0,0,1024,1024,1024,1024,49.2,-89.9,97,3.703,3.695,3.719,3.721,3.747,3.703,19.016,60.8,14,Waypoint,
38.688459,-120.4165684,5309.455941228,96.456696,0,1.43516408792,15700,2018-06-07 17:56:41,18,0,22.296,5309.455941228,96.456696,0.447388,1.97265098176,0,0,-0.671082,48.9, 1.4, 0.7,0,0,1024,1024,1024,1024,49.2,-89.9,97,3.703,3.695,3.719,3.721,3.747,3.703,19.016,60.8,14,Waypoint,
38.688459,-120.4165684,5310.440193228,97.440948,0,1.43516408792,15800,2018-06-07 17:56:41,18,0,22.296,5310.440193228,97.440948,0.447388,1.97265098176,0,0,-0.671082,48.9, 1.2, 0.7,0,0,1024,1024,1024,1024,49.2,-90,97,3.703,3.695,3.719,3.721,3.747,3.703,19.016,60.8,14,Waypoint,
38.688459,-120.4165684,5311.424445228,98.4252,0,1.43516408792,15900,2018-06-07 17:56:41,18,0,22.296,5311.424445228,98.4252,0.447388,1.97265098176,0,0,-0.671082,48.8, 1, 0.7,0,0,1024,1024,1024,1024,49.2,-90,97,3.703,3.695,3.719,3.721,3.747,3.703,19.016,60.8,14,Waypoint,
38.688459,-120.4165685,5312.408697228,99.409452,0,1.44838259228,16000,2018-06-07 17:56:42,18,0,22.166,5312.408697228,99.409452,0.447388,1.97265098176,0,0,-0.671082,48.9, 0.7, 0.8,0,0,1024,1024,1024,1024,49.2,-90,97,3.671,3.671,3.688,3.702,3.717,3.685,19.688,60.8,14,Waypoint,
38.688459,-120.4165685,5313.392949228,100.393704,0,1.44838259228,16100,2018-06-07 17:56:42,18,0,22.166,5313.392949228,100.393704,0.447388,1.97265098176,0,0,-0.671082,48.9, 0.6, 0.7,0,0,1024,1024,1024,1024,49.2,-90,97,3.671,3.671,3.688,3.702,3.717,3.685,19.688,60.8,14,Waypoint,
38.6884591,-120.4165685,5314.377201228,101.377956,0,1.48064965368,16300,2018-06-07 17:56:42,18,0,22.166,5314.377201228,101.377956,0.447388,1.97265098176,0,0,-0.671082,49, 0.4, 0.5,0,0,1024,1024,1024,1024,49.2,-90,97,3.671,3.671,3.688,3.702,3.717,3.685,19.688,60.8,14,Waypoint,
38.6884591,-120.4165686,5315.361453228,102.362208,0,1.49400923416,16400,2018-06-07 17:56:42,18,0,22.166,5315.361453228,102.362208,0.447388,1.97265098176,0,0,-0.671082,49.2, 0.5, 0.9,0,0,1024,1024,1024,1024,49.2,-89.9,97,3.671,3.671,3.688,3.702,3.717,3.685,19.688,60.8,14,Waypoint,
38.6884592,-120.4165688,5317.329957228,104.330712,0,1.55357288436,16500,2018-06-07 17:56:42,18,0,22.166,5317.329957228,104.330712,0.447388,1.97265098176,0,0,-0.671082,49.4, 0.9, 1.8,0,0,1024,1024,1024,1024,49.2,-89.9,97,3.671,3.671,3.688,3.702,3.717,3.685,19.688,60.8,14,Waypoint,
38.6884593,-120.4165688,5318.314209228,105.314964,0,1.58537734732,16620,2018-06-07 17:56:42,18,0,22.166,5318.314209228,105.314964,0.447388,1.97265098176,0,0,-0.671082,49.5, 0.9, 2.1,0,0,1024,1024,1024,1024,49.2,-89.9,97,3.671,3.671,3.688,3.702,3.717,3.685,19.688,60.8,14,Waypoint,
38.6884593,-120.4165688,5318.314209228,105.314964,0,1.58537734732,16700,2018-06-07 17:56:42,18,0,22.166,5318.314209228,105.314964,0.447388,1.97265098176,0,0,-0.671082,49.5, 0.9, 2.1,0,0,1024,1024,1024,1024,49.2,-89.9,97,3.671,3.671,3.688,3.702,3.717,3.685,19.688,60.8,14,Waypoint,
38.6884594,-120.4165689,5319.626545228,106.6273,0,1.63111225692,16800,2018-06-07 17:56:42,18,0,22.166,5319.626545228,106.6273,0.447388,1.97265098176,0,0,-0.671082,49.6, 0.8, 2.2,0,0,1024,1024,1024,1024,49.2,-90,97,3.671,3.671,3.688,3.702,3.717,3.685,19.688,60.8,14,Waypoint,
38.6884594,-120.416569,5320.610797228,107.611552,0,1.64522314976,16900,2018-06-07 17:56:42,18,0,22.166,5320.610797228,107.611552,0.447388,1.97265098176,0,0,-0.671082,49.6, 0.7, 2.3,0,0,1024,1024,1024,1024,49.2,-90,97,3.671,3.671,3.688,3.702,3.717,3.685,19.688,60.8,14,Waypoint,
38.6884595,-120.4165691,5321.595049228,108.595804,0,1.69108601212,17000,2018-06-07 17:56:43,18,0,22.166,5321.595049228,108.595804,0.447388,1.97265098176,0,0,-0.671082,49.6, 0.6, 2.6,0,0,1024,1024,1024,1024,49.2,-90,97,3.671,3.671,3.688,3.702,3.717,3.685,19.688,60.8,14,Waypoint,
38.6884596,-120.4165691,5322.251217228,109.251972,0,1.7226706588,17100,2018-06-07 17:56:43,18,0,22.166,5322.251217228,109.251972,0.447388,1.97265098176,0,0,-0.671082,49.5, 0.6, 2.9,0,0,1024,1024,1024,1024,49.2,-90,97,3.671,3.671,3.688,3.702,3.717,3.685,19.688,60.8,14,Waypoint,
38.6884596,-120.4165692,5323.235469228,110.236224,0,1.73696855952,17200,2018-06-07 17:56:43,19,0,22.166,5323.235469228,110.236224,0.447388,1.97265098176,0,0,-0.671082,49.3, 0.6, 3,0,0,1024,1024,1024,1024,49.2,-90,97,3.671,3.671,3.688,3.702,3.717,3.685,19.688,60.8,14,Waypoint,
38.6884598,-120.4165693,5325.203973228,112.204728,0,1.81433076672,17400,2018-06-07 17:56:43,19,0,22.166,5325.203973228,112.204728,0.447388,1.97265098176,0,0,-0.671082,49.4, 0.3, 2.4,0,0,1024,1024,1024,1024,49.2,-90,97,3.671,3.671,3.688,3.702,3.717,3.685,19.688,60.8,14,Waypoint,
38.6884598,-120.4165693,5326.188225228,113.18898,0,1.81433076672,17600,2018-06-07 17:56:43,19,0,22.166,5326.188225228,113.18898,0.447388,1.97265098176,0,0,-0.671082,49.6, 0.5, 2.5,0,0,1024,1024,1024,1024,49.2,-89.9,97,3.671,3.671,3.688,3.702,3.717,3.685,19.688,60.8,14,Waypoint,
38.6884599,-120.4165694,5327.172477228,114.173232,0,1.86019362908,17700,2018-06-07 17:56:43,19,0,22.166,5327.172477228,114.173232,0.447388,1.97265098176,0,0,-0.671082,49.8, 0.8, 2.8,0,0,1024,1024,1024,1024,49.2,-89.9,97,3.671,3.671,3.688,3.702,3.717,3.685,19.688,60.8,14,Waypoint,
38.68846,-120.4165695,5329.140981228,116.141736,0,1.90607617648,17800,2018-06-07 17:56:43,19,0,22.166,5329.140981228,116.141736,0.447388,1.97265098176,0,0,-0.671082,50.2, 1, 3.5,0,0,1024,1024,1024,1024,49.2,-89.9,97,3.671,3.671,3.688,3.702,3.717,3.685,19.688,60.8,14,Waypoint,
38.68846,-120.4165695,5330.125233228,117.125988,0,1.90607617648,17900,2018-06-07 17:56:43,19,0,22.166,5330.125233228,117.125988,0.447388,1.97265098176,0,0,-0.671082,50.2, 0.9, 3.4,0,0,1024,1024,1024,1024,49.2,-89.9,97,3.671,3.671,3.688,3.702,3.717,3.685,19.688,60.8,14,Waypoint,
38.68846,-120.4165694,5332.093737228,119.094492,0,1.89176843324,18010,2018-06-07 17:56:44,19,0,22.238,5332.093737228,119.094492,0.447388,1.97265098176,0,0,-0.671082,50, 0.9, 2.4,0,0,1024,1024,1024,1024,49.2,-89.9,97,3.679,3.673,3.687,3.694,3.71,3.689,18.978,60.8,14,Waypoint,
38.6884599,-120.4165694,5333.077989228,120.078744,0,1.86019362908,18100,2018-06-07 17:56:44,19,0,22.238,5333.077989228,120.078744,0.447388,1.97265098176,0,0,-0.671082,50, 0.8, 1.9,0,0,1024,1024,1024,1024,49.2,-89.9,97,3.679,3.673,3.687,3.694,3.71,3.689,18.978,60.8,14,Waypoint,
38.6884599,-120.4165694,5333.734157228,120.734912,0,1.86019362908,18200,2018-06-07 17:56:44,19,0,22.238,5333.734157228,120.734912,0.447388,1.97265098176,0,0,-0.671082,49.9, 0.4, 1.7,0,0,1024,1024,1024,1024,49.2,-90,97,3.679,3.673,3.687,3.694,3.71,3.689,18.978,60.8,14,Waypoint,
38.6884599,-120.4165694,5334.718409228,121.719164,0,1.86019362908,18300,2018-06-07 17:56:44,18,0,22.238,5334.718409228,121.719164,0.447388,1.97265098176,0,0,-0.671082,49.8, 0.4, 1.5,0,0,1024,1024,1024,1024,49.2,-90,97,3.679,3.673,3.687,3.694,3.71,3.689,18.978,60.8,14,Waypoint,
38.6884598,-120.4165694,5335.702661228,122.703416,0,1.82879927112,18400,2018-06-07 17:56:44,18,0,22.238,5335.702661228,122.703416,0.447388,1.97265098176,0,0,-0.671082,49.7, 0.5, 1.5,0,0,1024,1024,1024,1024,49.2,-90,97,3.679,3.673,3.687,3.694,3.71,3.689,18.978,60.8,14,Waypoint,
38.6884598,-120.4165694,5336.686913228,123.687668,0,1.82879927112,18500,2018-06-07 17:56:44,19,0,22.238,5336.686913228,123.687668,0.447388,1.97265098176,0,0,-0.671082,49.5, 0.5, 1.4,0,0,1024,1024,1024,1024,49.2,-90,97,3.679,3.673,3.687,3.694,3.71,3.689,18.978,60.8,14,Waypoint,
38.6884598,-120.4165694,5337.671165228,124.67192,0,1.82879927112,18600,2018-06-07 17:56:44,19,0,22.238,5337.671165228,124.67192,0.447388,1.97265098176,0,0,-0.671082,49.3, 0.5, 1.7,0,0,1024,1024,1024,1024,49.2,-90,97,3.679,3.673,3.687,3.694,3.71,3.689,18.978,60.8,14,Waypoint,
38.6884597,-120.4165693,5338.655417228,125.656172,0,1.7828740728,18700,2018-06-07 17:56:44,19,0,22.238,5338.655417228,125.656172,0.447388,1.97265098176,0,0,-0.671082,49.2, 0.5, 1.8,0,0,1024,1024,1024,1024,49.2,-90,97,3.679,3.673,3.687,3.694,3.71,3.689,18.978,60.8,14,Waypoint,
38.6884597,-120.4165693,5339.639669228,126.640424,0,1.7828740728,18800,2018-06-07 17:56:44,19,0,22.238,5339.639669228,126.640424,0.447388,1.97265098176,0,0,-0.671082,49, 0.5, 1.8,0,0,1024,1024,1024,1024,49.2,-90,97,3.679,3.673,3.687,3.694,3.71,3.689,18.978,60.8,14,Waypoint,
38.6884597,-120.4165693,5340.623921228,127.624676,0,1.7828740728,18900,2018-06-07 17:56:44,19,0,22.238,5340.623921228,127.624676,0.447388,1.97265098176,0,0,-0.671082,49, 0.5, 1.8,0,0,1024,1024,1024,1024,49.2,-90,97,3.679,3.673,3.687,3.694,3.71,3.689,18.978,60.8,14,Waypoint,
38.6884597,-120.4165692,5342.592425228,129.59318,0,1.7684875894,19000,2018-06-07 17:56:45,19,0,22.14,5342.592425228,129.59318,0.447388,1.97265098176,0,0,-0.671082,49.1, 0.6, 1.8,0,0,1024,1024,1024,1024,49.2,-89.9,97,3.69,3.684,3.699,3.709,3.722,3.696,19.436,60.8,14,Waypoint,
38.6884597,-120.4165692,5343.576677228,130.577432,0,1.7684875894,19100,2018-06-07 17:56:45,19,0,22.14,5343.576677228,130.577432,0.447388,1.97265098176,0,0,-0.671082,49.2, 0.8, 1.8,0,0,1024,1024,1024,1024,49.2,-89.9,97,3.69,3.684,3.699,3.709,3.722,3.696,19.436,60.8,14,Waypoint,
38.6884597,-120.4165692,5344.560929228,131.561684,0,1.7684875894,19200,2018-06-07 17:56:45,18,0,22.14,5344.560929228,131.561684,0.447388,1.97265098176,0,0,-0.671082,49.3, 1, 1.8,0,0,1024,1024,1024,1024,49.2,-89.9,97,3.69,3.684,3.699,3.709,3.722,3.696,19.436,60.8,14,Waypoint,
38.6884597,-120.4165691,5345.545181228,132.545936,0,1.7544455942,19300,2018-06-07 17:56:45,18,0,22.14,5345.545181228,132.545936,0.447388,1.97265098176,0,0,-0.671082,49.3, 1, 1.9,0,0,1024,1024,1024,1024,49.2,-89.9,97,3.69,3.684,3.699,3.709,3.722,3.696,19.436,60.8,14,Waypoint,
38.6884598,-120.4165691,5346.529433228,133.530188,0,1.7864009758,19400,2018-06-07 17:56:45,18,0,22.14,5346.529433228,133.530188,0.447388,1.97265098176,0,0,-0.671082,49.3, 0.9, 2,0,0,1024,1024,1024,1024,49.2,-90,97,3.69,3.684,3.699,3.709,3.722,3.696,19.436,60.8,14,Waypoint,
38.6884598,-120.4165691,5347.513685228,134.51444,0,1.7864009758,19500,2018-06-07 17:56:45,18,0,22.14,5347.513685228,134.51444,0.447388,1.97265098176,0,0,-0.671082,49.3, 0.8, 1.9,0,0,1024,1024,1024,1024,49.2,-90,97,3.69,3.684,3.699,3.709,3.722,3.696,19.436,60.8,14,Waypoint,
38.6884597,-120.4165691,5348.497937228,135.498692,0,1.7544455942,19600,2018-06-07 17:56:45,18,0,22.14,5348.497937228,135.498692,0.447388,1.97265098176,0,0,-0.671082,49.3, 0.7, 1.9,0,0,1024,1024,1024,1024,49.2,-90,97,3.69,3.684,3.699,3.709,3.722,3.696,19.436,60.8,14,Waypoint,
38.6884597,-120.4165691,5349.482189228,136.482944,0,1.7544455942,19700,2018-06-07 17:56:45,18,0,22.14,5349.482189228,136.482944,0.447388,1.97265098176,0,0,-0.671082,49.3, 0.5, 2,0,0,1024,1024,1024,1024,49.2,-90,97,3.69,3.684,3.699,3.709,3.722,3.696,19.436,60.8,14,Waypoint,
38.6884597,-120.4165691,5350.466441228,137.467196,0,1.7544455942,19800,2018-06-07 17:56:45,18,0,22.14,5350.466441228,137.467196,0.447388,1.97265098176,0,0,-0.671082,49.3, 0.3, 2.1,0,0,1024,1024,1024,1024,49.2,-90,97,3.69,3.684,3.699,3.709,3.722,3.696,19.436,60.8,14,Waypoint,
38.6884597,-120.416569,5351.450693228,138.451448,0,1.74075464888,19900,2018-06-07 17:56:45,18,0,22.14,5351.450693228,138.451448,0.447388,1.97265098176,0,0,-0.671082,49.4, 0.1, 2,0,0,1024,1024,1024,1024,49.2,-90,97,3.69,3.684,3.699,3.709,3.722,3.696,19.436,60.8,14,Waypoint,
38.6884597,-120.416569,5352.763029228,139.763784,0,1.74075464888,20000,2018-06-07 17:56:46,18,0,22.14,5352.763029228,139.763784,0.447388,1.97265098176,0,0,-0.671082,49.5, 0.2, 2.1,0,0,1024,1024,1024,1024,49.2,-90,97,3.665,3.67,3.693,3.694,3.714,3.676,19.436,62.6,14,Waypoint,
38.6884597,-120.416569,5353.747281228,140.748036,0,1.74075464888,20200,2018-06-07 17:56:46,18,0,22.14,5353.747281228,140.748036,0.447388,1.97265098176,0,0,-0.671082,49.5, 0.4, 2,0,0,1024,1024,1024,1024,49.2,-89.9,97,3.665,3.67,3.693,3.694,3.714,3.676,19.436,62.6,14,Waypoint,
38.6884597,-120.4165689,5354.731533228,141.732288,0,1.72742459596,20300,2018-06-07 17:56:46,19,0,22.14,5354.731533228,141.732288,0.447388,1.97265098176,0,0,-0.671082,49.6, 0.6, 2,0,0,1024,1024,1024,1024,49.2,-89.9,97,3.665,3.67,3.693,3.694,3.714,3.676,19.436,62.6,14,Waypoint,
38.6884597,-120.4165688,5355.715785228,142.71654,0,1.71446527796,20400,2018-06-07 17:56:46,19,0,22.14,5355.715785228,142.71654,0.447388,1.97265098176,0,0,-0.671082,49.6, 0.9, 1.8,0,0,1024,1024,1024,1024,49.2,-89.9,97,3.665,3.67,3.693,3.694,3.714,3.676,19.436,62.6,14,Waypoint,
38.6884597,-120.4165687,5357.684289228,144.685044,0,1.70188325656,20530,2018-06-07 17:56:46,19,0,22.14,5357.684289228,144.685044,0.447388,1.97265098176,0,0,-0.671082,49.5, 1.3, 1.8,0,0,1024,1024,1024,1024,49.2,-89.9,97,3.665,3.67,3.693,3.694,3.714,3.676,19.436,62.6,14,Waypoint,
38.6884597,-120.4165687,5357.684289228,144.685044,0,1.70188325656,20600,2018-06-07 17:56:46,19,0,22.14,5357.684289228,144.685044,0.447388,1.97265098176,0,0,-0.671082,49.5, 1.3, 1.8,0,0,1024,1024,1024,1024,49.2,-89.9,97,3.665,3.67,3.693,3.694,3.714,3.676,19.436,62.6,14,Waypoint,
38.6884597,-120.4165686,5358.668541228,145.669296,0,1.68968837428,20700,2018-06-07 17:56:46,19,0,22.14,5358.668541228,145.669296,0.447388,1.97265098176,0,0,-0.671082,49.4, 1.2, 1.8,0,0,1024,1024,1024,1024,49.2,-89.9,97,3.665,3.67,3.693,3.694,3.714,3.676,19.436,62.6,14,Waypoint,
38.6884597,-120.4165686,5359.652793228,146.653548,0,1.68968837428,20800,2018-06-07 17:56:46,19,0,22.14,5359.652793228,146.653548,0.447388,1.97265098176,0,0,-0.671082,49.2, 1.2, 1.7,0,0,1024,1024,1024,1024,49.2,-89.9,97,3.665,3.67,3.693,3.694,3.714,3.676,19.436,62.6,14,Waypoint,
38.6884597,-120.4165684,5361.621297228,148.622052,0.223694,1.66648955464,21000,2018-06-07 17:56:47,19,0,22.182,5361.621297228,148.622052,0.447388,1.97265098176,0,0,-0.671082,49, 1.3, 1.5,0,0,1024,1024,1024,1024,49.2,-89.9,97,3.683,3.677,3.701,3.708,3.722,3.688,19.312,62.6,14,Waypoint,
38.6884598,-120.4165683,5362.605549228,149.606304,0.223694,1.68933076272,21100,2018-06-07 17:56:47,19,0,22.182,5362.605549228,149.606304,0.447388,1.97265098176,0,0,-0.671082,49, 1.3, 1.2,0,0,1024,1024,1024,1024,49.2,-89.9,97,3.683,3.677,3.701,3.708,3.722,3.688,19.312,62.6,14,Waypoint,
38.6884598,-120.4165682,5363.589801228,150.590556,0.223694,1.67897643168,21200,2018-06-07 17:56:47,19,0,22.182,5363.589801228,150.590556,0.447388,1.97265098176,0,0,-0.671082,49.1, 1.7, 1.2,0,0,1024,1024,1024,1024,49.2,-89.9,97,3.683,3.677,3.701,3.708,3.722,3.688,19.312,62.6,14,Waypoint,
38.6884598,-120.4165681,5365.558305228,152.55906,0,1.669045329,21300,2018-06-07 17:56:47,18,0,22.182,5365.558305228,152.55906,0.447388,1.97265098176,0,0,-0.671082,49.4, 2.1, 1,0,0,1024,1024,1024,1024,49.2,-89.9,97,3.683,3.677,3.701,3.708,3.722,3.688,19.312,62.6,14,Waypoint,
38.6884598,-120.416568,5366.542557228,153.543312,0,1.65954073552,21400,2018-06-07 17:56:47,19,0,22.182,5366.542557228,153.543312,0.447388,1.97265098176,0,0,-0.671082,49.4, 2.1, 0.9,0,0,1024,1024,1024,1024,49.2,-89.9,97,3.683,3.677,3.701,3.708,3.722,3.688,19.312,62.6,14,Waypoint,
38.6884599,-120.416568,5367.526809228,154.527564,0,1.69407485736,21500,2018-06-07 17:56:47,19,0,22.182,5367.526809228,154.527564,0.447388,1.97265098176,0,0,-0.671082,49.5, 2, 1.1,0,0,1024,1024,1024,1024,49.2,-89.9,97,3.683,3.677,3.701,3.708,3.722,3.688,19.312,62.6,14,Waypoint,
38.6884599,-120.416568,5368.511061228,155.511816,0,1.69407485736,21600,2018-06-07 17:56:47,19,0,22.182,5368.511061228,155.511816,0.447388,1.97265098176,0,0,-0.671082,49.6, 1.9, 1.4,0,0,1024,1024,1024,1024,49.2,-89.9,97,3.683,3.677,3.701,3.708,3.722,3.688,19.312,62.6,14,Waypoint,
38.6884599,-120.416568,5369.167229228,156.167984,0,1.69407485736,21700,2018-06-07 17:56:47,19,0,22.182,5369.167229228,156.167984,0.447388,1.97265098176,0,0,-0.671082,49.6, 1.8, 1.8,0,0,1024,1024,1024,1024,49.2,-90,97,3.683,3.677,3.701,3.708,3.722,3.688,19.312,62.6,14,Waypoint,
38.6884599,-120.416568,5370.479565228,157.48032,0,1.69407485736,21800,2018-06-07 17:56:47,19,0,22.182,5370.479565228,157.48032,0.447388,1.97265098176,0,0,-0.671082,49.7, 1.5, 2,0,0,1024,1024,1024,1024,49.2,-89.9,97,3.683,3.677,3.701,3.708,3.722,3.688,19.312,62.6,14,Waypoint,
38.6884599,-120.4165679,5371.135733228,158.136488,0,1.68519362348,21900,2018-06-07 17:56:47,19,0,22.182,5371.135733228,158.136488,0.447388,1.97265098176,0,0,-0.671082,49.7, 1.4, 2,0,0,1024,1024,1024,1024,49.2,-89.9,97,3.683,3.677,3.701,3.708,3.722,3.688,19.312,62.6,14,Waypoint,
38.68846,-120.4165679,5372.119985228,159.12074,0,1.71998693168,22000,2018-06-07 17:56:48,19,0,22.173,5372.119985228,159.12074,0.447388,1.97265098176,0,0,-0.671082,49.7, 1.5, 2,0,0,1024,1024,1024,1024,49.2,-89.9,97,3.685,3.681,3.691,3.701,3.729,3.692,18.862,62.6,14,Waypoint,
38.68846,-120.4165679,5373.104237228,160.104992,0,1.71998693168,22100,2018-06-07 17:56:48,19,0,22.173,5373.104237228,160.104992,0.447388,1.97265098176,0,0,-0.671082,49.7, 1.5, 1.9,0,0,1024,1024,1024,1024,49.2,-89.9,97,3.685,3.681,3.691,3.701,3.729,3.692,18.862,62.6,14,Waypoint,
38.68846,-120.4165678,5374.088489228,161.089244,0,1.71171593404,22200,2018-06-07 17:56:48,19,0,22.173,5374.088489228,161.089244,0.447388,1.97265098176,0,0,-0.671082,49.7, 1.6, 1.7,0,0,1024,1024,1024,1024,49.2,-89.9,97,3.685,3.681,3.691,3.701,3.729,3.692,18.862,62.6,14,Waypoint,
38.68846,-120.4165678,5375.072741228,162.073496,0,1.71171593404,22300,2018-06-07 17:56:48,19,0,22.173,5375.072741228,162.073496,0.447388,1.97265098176,0,0,-0.671082,49.7, 1.5, 1.4,0,0,1024,1024,1024,1024,49.2,-89.9,97,3.685,3.681,3.691,3.701,3.729,3.692,18.862,62.6,14,Waypoint,
38.6884599,-120.4165677,5376.056993228,163.057748,0,1.6687500534,22410,2018-06-07 17:56:48,19,0,22.173,5376.056993228,163.057748,0.447388,1.97265098176,0,0,-0.671082,49.7, 1.6, 1.1,0,0,1024,1024,1024,1024,49.2,-89.9,97,3.685,3.681,3.691,3.701,3.729,3.692,18.862,62.6,14,Waypoint,
38.6884599,-120.4165677,5377.041245228,164.042,0,1.6687500534,22500,2018-06-07 17:56:48,19,0,22.173,5377.041245228,164.042,0.447388,1.97265098176,0,0,-0.671082,49.6, 1.7, 0.9,0,0,1024,1024,1024,1024,49.2,-89.9,97,3.685,3.681,3.691,3.701,3.729,3.692,18.862,62.6,14,Waypoint,
38.6884599,-120.4165676,5378.025497228,165.026252,0,1.66120084056,22620,2018-06-07 17:56:48,19,0,22.173,5378.025497228,165.026252,0.447388,1.97265098176,0,0,-0.671082,49.6, 1.8, 1,0,0,1024,1024,1024,1024,49.2,-89.9,97,3.685,3.681,3.691,3.701,3.729,3.692,18.862,62.6,14,Waypoint,
38.6884599,-120.4165676,5379.009749228,166.010504,0,1.66120084056,22710,2018-06-07 17:56:48,19,0,22.173,5379.009749228,166.010504,0.447388,1.97265098176,0,0,-0.671082,49.5, 1.8, 1.1,0,0,1024,1024,1024,1024,49.2,-89.9,97,3.685,3.681,3.691,3.701,3.729,3.692,18.862,62.6,14,Waypoint,
38.6884599,-120.4165676,5379.994001228,166.994756,0,1.66120084056,22800,2018-06-07 17:56:48,19,0,22.173,5379.994001228,166.994756,0.447388,1.97265098176,0,0,-0.671082,49.5, 1.8, 1.1,0,0,1024,1024,1024,1024,49.2,-89.9,97,3.685,3.681,3.691,3.701,3.729,3.692,18.862,62.6,14,Waypoint,
38.6884599,-120.4165676,5380.978253228,167.979008,0,1.66120084056,23000,2018-06-07 17:56:49,19,0,22.153,5380.978253228,167.979008,0.447388,1.97265098176,0,0,-0.671082,49.4, 1.7, 1.1,0,0,1024,1024,1024,1024,49.2,-89.9,97,3.676,3.677,3.698,3.709,3.722,3.688,18.85,62.6,14,Waypoint,
38.6884599,-120.4165675,5381.962505228,168.96326,0,1.65410766448,23100,2018-06-07 17:56:49,19,0,22.153,5381.962505228,168.96326,0.447388,1.97265098176,0,0,-0.671082,49.3, 1.7, 1.1,0,0,1024,1024,1024,1024,49.2,-89.9,97,3.676,3.677,3.698,3.709,3.722,3.688,18.85,62.6,14,Waypoint,
38.6884599,-120.4165675,5382.946757228,169.947512,0,1.65410766448,23200,2018-06-07 17:56:49,19,0,22.153,5382.946757228,169.947512,0.447388,1.97265098176,0,0,-0.671082,49.2, 1.6, 1.1,0,0,1024,1024,1024,1024,49.2,-89.9,97,3.676,3.677,3.698,3.709,3.722,3.688,18.85,62.6,14,Waypoint,
38.6884599,-120.4165675,5383.931009228,170.931764,0,1.65410766448,23300,2018-06-07 17:56:49,19,0,22.153,5383.931009228,170.931764,0.447388,1.97265098176,0,0,-0.671082,49.1, 1.6, 1.2,0,0,1024,1024,1024,1024,49.2,-89.9,97,3.676,3.677,3.698,3.709,3.722,3.688,18.85,62.6,14,Waypoint,
38.6884598,-120.4165675,5384.915261228,171.916016,0,1.61872052424,23400,2018-06-07 17:56:49,19,0,22.153,5384.915261228,171.916016,0.447388,1.97265098176,0,0,-0.671082,49.1, 1.5, 1.3,0,0,1024,1024,1024,1024,49.2,-90,97,3.676,3.677,3.698,3.709,3.722,3.688,18.85,62.6,14,Waypoint,
38.6884598,-120.4165676,5385.899513228,172.900268,0,1.62597118064,23500,2018-06-07 17:56:49,19,0,22.153,5385.899513228,172.900268,0.447388,1.97265098176,0,0,-0.671082,49.2, 1.4, 1.4,0,0,1024,1024,1024,1024,49.2,-89.9,97,3.676,3.677,3.698,3.709,3.722,3.688,18.85,62.6,14,Waypoint,
38.6884598,-120.4165676,5386.883765228,173.88452,0,1.62597118064,23600,2018-06-07 17:56:49,19,0,22.153,5386.883765228,173.88452,0.447388,1.97265098176,0,0,-0.671082,49.3, 1.3, 1.5,0,0,1024,1024,1024,1024,49.2,-89.9,97,3.676,3.677,3.698,3.709,3.722,3.688,18.85,62.6,14,Waypoint,
38.6884598,-120.4165676,5387.868017228,174.868772,0,1.62597118064,23700,2018-06-07 17:56:49,19,0,22.153,5387.868017228,174.868772,0.447388,1.97265098176,0,0,-0.671082,49.4, 1.4, 1.5,0,0,1024,1024,1024,1024,49.2,-90,97,3.676,3.677,3.698,3.709,3.722,3.688,18.85,62.6,14,Waypoint,
38.6884598,-120.4165676,5388.852269228,175.853024,0,1.62597118064,23800,2018-06-07 17:56:49,19,0,22.153,5388.852269228,175.853024,0.447388,1.97265098176,0,0,-0.671082,49.5, 1.4, 1.4,0,0,1024,1024,1024,1024,49.2,-90,97,3.676,3.677,3.698,3.709,3.722,3.688,18.85,62.6,14,Waypoint,
38.6884597,-120.4165676,5390.820773228,177.821528,0,1.590797295,23900,2018-06-07 17:56:49,19,0,22.153,5390.820773228,177.821528,0.447388,1.97265098176,0,0,-0.671082,49.5, 1.3, 1.3,0,0,1024,1024,1024,1024,49.2,-89.9,97,3.676,3.677,3.698,3.709,3.722,3.688,18.85,62.6,14,Waypoint,
38.6884597,-120.4165675,5391.805025228,178.80578,0,1.58338587744,24000,2018-06-07 17:56:50,19,0,22.155,5391.805025228,178.80578,0.447388,1.97265098176,0,0,-0.671082,49.5, 1.3, 1.2,0,0,1024,1024,1024,1024,49.2,-90,97,3.675,3.671,3.696,3.71,3.716,3.682,18.978,62.6,14,Waypoint,
38.6884597,-120.4165675,5392.789277228,179.790032,0,1.58338587744,24100,2018-06-07 17:56:50,19,0,22.155,5392.789277228,179.790032,0.447388,1.97265098176,0,0,-0.671082,49.5, 1.5, 1.3,0,0,1024,1024,1024,1024,49.2,-90,97,3.675,3.671,3.696,3.71,3.716,3.682,18.978,62.6,14,Waypoint,
38.6884597,-120.4165675,5393.773529228,180.774284,0,1.58338587744,24200,2018-06-07 17:56:50,19,0,22.155,5393.773529228,180.774284,0.447388,1.97265098176,0,0,-0.671082,49.5, 1.7, 1.3,0,0,1024,1024,1024,1024,49.2,-89.9,97,3.675,3.671,3.696,3.71,3.716,3.682,18.978,62.6,14,Waypoint,
38.6884597,-120.4165675,5394.757781228,181.758536,0,1.58338587744,24300,2018-06-07 17:56:50,19,0,22.155,5394.757781228,181.758536,0.447388,1.97265098176,0,0,-0.671082,49.6, 1.9, 1.2,0,0,1024,1024,1024,1024,49.2,-89.9,97,3.675,3.671,3.696,3.71,3.716,3.682,18.978,62.6,14,Waypoint,
38.6884597,-120.4165675,5395.742033228,182.742788,0,1.58338587744,24400,2018-06-07 17:56:50,19,0,22.155,5395.742033228,182.742788,0.447388,1.97265098176,0,0,-0.671082,49.6, 1.9, 1.1,0,0,1024,1024,1024,1024,49.2,-89.9,97,3.675,3.671,3.696,3.71,3.716,3.682,18.978,62.6,14,Waypoint,
38.6884597,-120.4165674,5396.726285228,183.72704,0,1.57645674336,24500,2018-06-07 17:56:50,19,0,22.155,5396.726285228,183.72704,0.447388,1.97265098176,0,0,-0.671082,49.6, 1.7, 1,0,0,1024,1024,1024,1024,49.2,-89.9,97,3.675,3.671,3.696,3.71,3.716,3.682,18.978,62.6,14,Waypoint,
38.6884597,-120.4165674,5397.710537228,184.711292,0,1.57645674336,24600,2018-06-07 17:56:50,19,0,22.155,5397.710537228,184.711292,0.447388,1.97265098176,0,0,-0.671082,49.6, 1.7, 0.9,0,0,1024,1024,1024,1024,49.2,-89.9,97,3.675,3.671,3.696,3.71,3.716,3.682,18.978,62.6,14,Waypoint,
38.6884597,-120.4165674,5398.694789228,185.695544,0,1.57645674336,24700,2018-06-07 17:56:50,19,0,22.155,5398.694789228,185.695544,0.447388,1.97265098176,0,0,-0.671082,49.6, 1.7, 0.9,0,0,1024,1024,1024,1024,49.2,-90,97,3.675,3.671,3.696,3.71,3.716,3.682,18.978,62.6,14,Waypoint,
38.6884597,-120.4165674,5399.679041228,186.679796,0,1.57645674336,24800,2018-06-07 17:56:50,19,0,22.155,5399.679041228,186.679796,0.447388,1.97265098176,0,0,-0.671082,49.6, 1.7, 1,0,0,1024,1024,1024,1024,49.2,-90,97,3.675,3.671,3.696,3.71,3.716,3.682,18.978,62.6,14,Waypoint,
38.6884597,-120.4165674,5400.991377228,187.992132,0,1.57645674336,24900,2018-06-07 17:56:50,19,0,22.155,5400.991377228,187.992132,0.447388,1.97265098176,0,0,-0.671082,49.6, 1.7, 1,0,0,1024,1024,1024,1024,49.2,-89.9,97,3.675,3.671,3.696,3.71,3.716,3.682,18.978,62.6,14,Waypoint,
38.6884597,-120.4165674,5401.647545228,188.6483,0,1.57645674336,25000,2018-06-07 17:56:51,19,0,22.113,5401.647545228,188.6483,0.447388,1.97265098176,0,0,-0.671082,49.5, 1.7, 1,0,0,1024,1024,1024,1024,49.2,-89.9,97,3.684,3.68,3.696,3.701,3.72,3.686,18.335,62.6,14,Waypoint,
38.6884597,-120.4165673,5402.631797228,189.632552,0,1.5700131736,25200,2018-06-07 17:56:51,19,0,22.113,5402.631797228,189.632552,0.447388,1.97265098176,0,0,-0.671082,49.5, 1.8, 1,0,0,1024,1024,1024,1024,49.2,-89.9,97,3.684,3.68,3.696,3.701,3.72,3.686,18.335,62.6,14,Waypoint,
38.6884597,-120.4165673,5403.616049228,190.616804,0,1.5700131736,25300,2018-06-07 17:56:51,19,0,22.113,5403.616049228,190.616804,0.447388,1.97265098176,0,0,-0.671082,49.5, 1.9, 1.1,0,0,1024,1024,1024,1024,49.2,-89.9,97,3.684,3.68,3.696,3.701,3.72,3.686,18.335,62.6,14,Waypoint,
38.6884597,-120.4165673,5404.600301228,191.601056,0,1.5700131736,25400,2018-06-07 17:56:51,19,0,22.113,5404.600301228,191.601056,0.447388,1.97265098176,0,0,-0.671082,49.5, 1.9, 1.1,0,0,1024,1024,1024,1024,49.2,-89.9,97,3.684,3.68,3.696,3.701,3.72,3.686,18.335,62.6,14,Waypoint,
38.6884597,-120.4165673,5405.912637228,192.913392,0,1.5700131736,25500,2018-06-07 17:56:51,19,0,22.113,5405.912637228,192.913392,0.447388,1.97265098176,0,0,-0.671082,49.4, 2, 1.1,0,0,1024,1024,1024,1024,49.2,-89.9,97,3.684,3.68,3.696,3.701,3.72,3.686,18.335,62.6,14,Waypoint,
38.6884597,-120.4165673,5406.568805228,193.56956,0,1.5700131736,25600,2018-06-07 17:56:51,19,0,22.113,5406.568805228,193.56956,0.447388,1.97265098176,0,0,-0.671082,49.4, 2, 1.1,0,0,1024,1024,1024,1024,49.2,-89.9,97,3.684,3.68,3.696,3.701,3.72,3.686,18.335,62.6,14,Waypoint,
38.6884597,-120.4165672,5408.537309228,195.538064,0,1.56406172984,25700,2018-06-07 17:56:51,19,0,22.113,5408.537309228,195.538064,0.447388,1.97265098176,0,0,-0.671082,49.7, 2, 0.9,0,0,1024,1024,1024,1024,49.2,-89.9,97,3.684,3.68,3.696,3.701,3.72,3.686,18.335,62.6,14,Waypoint,
38.6884597,-120.4165672,5409.521561228,196.522316,0,1.56406172984,25900,2018-06-07 17:56:51,19,0,22.113,5409.521561228,196.522316,0.447388,1.97265098176,0,0,-0.671082,49.9, 1.9, 0.8,0,0,1024,1024,1024,1024,49.2,-90,97,3.684,3.68,3.696,3.701,3.72,3.686,18.335,62.6,14,Waypoint,
38.6884597,-120.4165673,5412.474317228,199.475072,0,1.5700131736,26100,2018-06-07 17:56:52,19,0,22.113,5412.474317228,199.475072,0.447388,1.97265098176,0,0,-0.671082,49.9, 2, 1.9,0,0,1024,1024,1024,1024,49.2,-89.9,97,3.684,3.68,3.696,3.701,3.72,3.686,18.335,62.6,14,Waypoint,
38.6884598,-120.4165673,5413.458569228,200.459324,0,1.605643096,26200,2018-06-07 17:56:52,19,0,22.113,5413.458569228,200.459324,0.447388,1.97265098176,0,0,-0.671082,49.7, 1.9, 2.1,0,0,1024,1024,1024,1024,49.2,-90,97,3.684,3.68,3.696,3.701,3.72,3.686,18.335,62.6,14,Waypoint,
38.6884598,-120.4165674,5414.442821228,201.443576,0,1.6119423088,26300,2018-06-07 17:56:52,19,0,22.113,5414.442821228,201.443576,0.447388,1.97265098176,0,0,-0.671082,49.5, 1.9, 2.2,0,0,1024,1024,1024,1024,49.2,-89.9,97,3.684,3.68,3.696,3.701,3.72,3.686,18.335,62.6,14,Waypoint,
38.6884599,-120.4165673,5415.427073228,202.427828,0,1.64130910764,26400,2018-06-07 17:56:52,19,0,22.113,5415.427073228,202.427828,0.447388,1.97265098176,0,0,-0.671082,49.4, 2.1, 2.1,0,0,1024,1024,1024,1024,49.2,-89.9,97,3.684,3.68,3.696,3.701,3.72,3.686,18.335,62.6,14,Waypoint,
38.6884599,-120.4165673,5416.411325228,203.41208,0,1.64130910764,26500,2018-06-07 17:56:52,19,0,22.113,5416.411325228,203.41208,0.447388,1.97265098176,0,0,-0.671082,49.2, 2.3, 2,0,0,1024,1024,1024,1024,49.2,-89.9,97,3.684,3.68,3.696,3.701,3.72,3.686,18.335,62.6,14,Waypoint,
38.68846,-120.4165673,5417.395577228,204.396332,0,1.67701120852,26600,2018-06-07 17:56:52,19,0,22.113,5417.395577228,204.396332,0.447388,1.97265098176,0,0,-0.671082,49.1, 2.6, 1.9,0,0,1024,1024,1024,1024,49.2,-89.9,97,3.684,3.68,3.696,3.701,3.72,3.686,18.335,62.6,14,Waypoint,
38.68846,-120.4165672,5418.707913228,205.708668,0,1.6714403422,26700,2018-06-07 17:56:52,19,0,22.113,5418.707913228,205.708668,0.447388,1.97265098176,0,0,-0.671082,48.8, 2.9, 1.8,0,0,1024,1024,1024,1024,49.2,-89.9,97,3.684,3.68,3.696,3.701,3.72,3.686,18.335,62.6,14,Waypoint,
38.68846,-120.4165672,5419.692165228,206.69292,0,1.6714403422,26800,2018-06-07 17:56:52,19,0,22.113,5419.692165228,206.69292,0.447388,1.97265098176,0,0,-0.671082,48.4, 3.2, 2,0,0,1024,1024,1024,1024,49.2,-90,97,3.684,3.68,3.696,3.701,3.72,3.686,18.335,62.6,14,Waypoint,
38.68846,-120.4165672,5420.676417228,207.677172,0,1.6714403422,26900,2018-06-07 17:56:52,19,0,22.113,5420.676417228,207.677172,0.447388,1.97265098176,0,0,-0.671082,48.1, 3, 1.9,0,0,1024,1024,1024,1024,49.2,-90,97,3.684,3.68,3.696,3.701,3.72,3.686,18.335,62.6,14,Waypoint,
38.6884599,-120.4165672,5421.660669228,208.661424,0.223694,1.63561685024,27000,2018-06-07 17:56:53,19,0,22.144,5421.660669228,208.661424,0.447388,1.97265098176,0,0,-0.671082,47.9, 2.6, 1.5,0,0,1024,1024,1024,1024,49.2,-90,96,3.666,3.673,3.697,3.693,3.722,3.677,18.571,62.6,14,Waypoint,
