latitude,longitude,altitude(feet),ascent(feet),speed(mph),distance(feet),time(millisecond),datetime(utc),satellites,gpslevel,voltage(v),max_altitude(feet),max_ascent(feet),max_speed(mph),max_distance(feet), xSpeed(mph), ySpeed(mph), zSpeed(mph), compass_heading(degrees), pitch(degrees), roll(degrees),isPhoto,isVideo,rc_elevator,rc_aileron,rc_throttle,rc_rudder,gimbal_heading(degrees),gimbal_pitch(degrees),battery_percent,voltageCell1,voltageCell2,voltageCell3,voltageCell4,voltageCell5,voltageCell6,current(A),battery_temperature(f),flycStateRaw,flycState,message
38.6884547,-120.4165579,5213.0973662942,0,0,0,3250,2018-06-07 16:53:14,13,0,0,5213.0973662942,0,0,0,0,0,0,49.7, 0.4, 0.3,1,0,1024,1024,1024,1024,50,-90,97,4.202,4.19,4.155,4.193,4.187,4.135,0,66.2,11,AutoTakeoff,DJI_0395.jpg Starting Mission from Lat/Long: 38.68845/-120.41655 Camera: Zenmuse X3 - Overlap: 90/90 - Active Connection: No
38.6884547,-120.4165579,5213.0973662942,0,0,0,3300,2018-06-07 16:53:14,13,0,0,5213.0973662942,0,0,0,0,0,0,49.7, 0.4, 0.3,0,0,1024,1024,1024,1024,50,-90,97,4.202,4.19,4.155,4.193,4.187,4.135,0,66.2,11,AutoTakeoff,
38.6884547,-120.416558,5213.0973662942,0,0,0.0284785442184,3400,2018-06-07 16:53:14,13,0,0,5213.0973662942,0,0,0.0284785442184,0,0,0,49.6, 0, 0.2,0,0,1024,1024,1024,1024,50,-89.9,97,4.202,4.19,4.155,4.193,4.187,4.135,0,66.2,11,AutoTakeoff,
38.688455,-120.4165582,5213.4254502942,0.328084,0,0.138851054312,3500,2018-06-07 16:53:14,12,0,0,5213.4254502942,0.328084,0,0.138851054312,0,0,0,49.4, 0, 0.1,0,0,1024,1024,1024,1024,50,-89.9,97,4.202,4.19,4.155,4.193,4.187,4.135,0,66.2,11,AutoTakeoff,
38.6884551,-120.4165582,5213.4254502942,0.328084,0.223694,0.169108601212,3600,2018-06-07 16:53:14,13,0,0,5213.4254502942,0.328084,0.223694,0.169108601212,0,0,0,49.3, 0.2, 0.4,0,0,1024,1024,1024,1024,50,-89.9,97,4.202,4.19,4.155,4.193,4.187,4.135,0,66.2,11,AutoTakeoff,
38.6884553,-120.4165583,5213.7535342942,0.656168,0.223694,0.24677494228,3700,2018-06-07 16:53:15,13,0,0,5213.7535342942,0.656168,0.223694,0.24677494228,0,0,0,49.3, 0.4, 0.4,0,0,1024,1024,1024,1024,50,-89.9,97,4.202,4.19,4.155,4.193,4.187,4.135,0,66.2,11,AutoTakeoff,
38.6884555,-120.4165583,5213.7535342942,0.656168,0.223694,0.313321204252,3800,2018-06-07 16:53:15,13,0,0,5213.7535342942,0.656168,0.223694,0.313321204252,0,0,0,49.2, 0.5, 0.5,0,0,1024,1024,1024,1024,50,-89.9,97,4.202,4.19,4.155,4.193,4.187,4.135,0,66.2,11,AutoTakeoff,
38.6884557,-120.4165584,5214.0816182942,0.984252,0.223694,0.391650275,3900,2018-06-07 16:53:15,13,0,0,5214.0816182942,0.984252,0.223694,0.391650275,0,0,0,49.3, 0.5, 1.2,0,0,1024,1024,1024,1024,50,-89.9,97,4.202,4.19,4.155,4.193,4.187,4.135,0,66.2,11,AutoTakeoff,
38.6884558,-120.4165585,5214.0816182942,0.984252,0.223694,0.43619423968,4000,2018-06-07 16:53:15,12,0,24.013,5214.0816182942,0.984252,0.223694,0.43619423968,0,0,0,49.3, 0.5, 1.7,0,0,1024,1024,1024,1024,50,-89.9,97,4.202,4.19,4.155,4.193,4.187,4.135,14.506,66.2,11,AutoTakeoff,
38.688456,-120.4165586,5214.4097022942,1.312336,0.223694,0.51449476712,4100,2018-06-07 16:53:15,12,0,24.013,5214.4097022942,1.312336,0.223694,0.51449476712,0,0,0,49.4, 0.5, 2,0,0,1024,1024,1024,1024,50,-89.9,97,4.202,4.19,4.155,4.193,4.187,4.135,14.506,66.2,11,AutoTakeoff,
38.6884562,-120.4165587,5214.4097022942,1.312336,0.223694,0.59280185624,4200,2018-06-07 16:53:15,12,0,24.013,5214.4097022942,1.312336,0.223694,0.59280185624,0,0,0,49.4, 0.7, 2.4,0,0,1024,1024,1024,1024,50,-89.9,97,4.202,4.19,4.155,4.193,4.187,4.135,14.506,66.2,11,AutoTakeoff,
38.6884564,-120.4165587,5214.7377862942,1.64042,0,0.66076445684,4310,2018-06-07 16:53:15,12,0,24.013,5214.7377862942,1.64042,0.223694,0.66076445684,0,0,-0.223694,49.4, 0.9, 2.6,0,0,1024,1024,1024,1024,50,-89.9,97,4.202,4.19,4.155,4.193,4.187,4.135,14.506,66.2,11,AutoTakeoff,
38.6884565,-120.4165587,5214.7377862942,1.64042,0,0.69512469416,4400,2018-06-07 16:53:15,13,0,24.013,5214.7377862942,1.64042,0.223694,0.69512469416,0,0,0,49.4, 1, 2.7,0,0,1024,1024,1024,1024,50,-89.9,97,4.202,4.19,4.155,4.193,4.187,4.135,14.506,66.2,11,AutoTakeoff,
38.6884566,-120.4165587,5215.0658702942,1.968504,0,0.7296916244,4510,2018-06-07 16:53:15,14,0,24.013,5215.0658702942,1.968504,0.223694,0.7296916244,0,0,-0.223694,49.5, 1.3, 2.5,0,0,1024,1024,1024,1024,50,-89.9,97,4.202,4.19,4.155,4.193,4.187,4.135,14.506,66.2,11,AutoTakeoff,
38.6884566,-120.4165587,5215.0658702942,1.968504,0,0.7296916244,4600,2018-06-07 16:53:15,14,0,24.013,5215.0658702942,1.968504,0.223694,0.7296916244,0,0,-0.223694,49.5, 1.3, 2.5,0,0,1024,1024,1024,1024,50,-89.9,97,4.202,4.19,4.155,4.193,4.187,4.135,14.506,66.2,11,AutoTakeoff,
38.6884567,-120.4165586,5215.3939542942,2.296588,0,0.75644031292,4710,2018-06-07 16:53:16,13,0,24.013,5215.3939542942,2.296588,0.223694,0.75644031292,0,0,-0.223694,49.7, 1.6, 2.1,0,0,1024,1024,1024,1024,50,-89.9,97,4.202,4.19,4.155,4.193,4.187,4.135,14.506,66.2,11,AutoTakeoff,
38.6884568,-120.4165585,5215.7220382942,2.624672,0,0.7850065868,4800,2018-06-07 16:53:16,13,0,24.013,5215.7220382942,2.624672,0.223694,0.7850065868,0,0,-0.223694,49.7, 1.7, 2,0,0,1024,1024,1024,1024,50,-89.9,97,4.202,4.19,4.155,4.193,4.187,4.135,14.506,66.2,11,AutoTakeoff,
38.6884568,-120.4165585,5215.7220382942,2.624672,0,0.7850065868,5000,2018-06-07 16:53:16,13,0,23.657,5215.7220382942,2.624672,0.223694,0.7850065868,0,0,-0.223694,49.8, 1.7, 1.8,0,0,1024,1024,1024,1024,50,-89.9,97,3.988,3.977,3.975,3.982,3.998,3.959,16.482,66.2,11,AutoTakeoff,
38.6884567,-120.4165584,5216.0501222942,2.952756,0,0.74346130988,5100,2018-06-07 16:53:16,13,0,23.657,5216.0501222942,2.952756,0.223694,0.7850065868,0,0,0,49.8, 1.6, 1.7,0,0,1024,1024,1024,1024,50,-89.9,97,3.988,3.977,3.975,3.982,3.998,3.959,16.482,66.2,14,Waypoint,
38.6884567,-120.4165583,5216.0501222942,2.952756,0.223694,0.73853676904,5200,2018-06-07 16:53:16,15,0,23.657,5216.0501222942,2.952756,0.223694,0.7850065868,0,0,0,49.8, 1.7, 1.4,0,0,1024,1024,1024,1024,50,-89.9,97,3.988,3.977,3.975,3.982,3.998,3.959,16.482,66.2,14,Waypoint,
38.6884566,-120.4165582,5216.3782062942,3.28084,0.223694,0.6984580276,5300,2018-06-07 16:53:16,15,0,23.657,5216.3782062942,3.28084,0.223694,0.7850065868,0,0,0,49.8, 0.8, -0.4,0,0,1024,1024,1024,1024,50,-90,97,3.988,3.977,3.975,3.982,3.998,3.959,16.482,66.2,14,Waypoint,
38.6884566,-120.4165581,5216.3782062942,3.28084,0,0.69555120336,5400,2018-06-07 16:53:16,14,0,23.657,5216.3782062942,3.28084,0.223694,0.7850065868,0,0,0,50, 0.4, -1.3,0,0,1024,1024,1024,1024,50,-90,97,3.988,3.977,3.975,3.982,3.998,3.959,16.482,66.2,14,Waypoint,
38.6884565,-120.416558,5216.3782062942,3.28084,0,0.65734582156,5500,2018-06-07 16:53:16,14,0,23.657,5216.3782062942,3.28084,0.223694,0.7850065868,0,0,0,50.1, 0.2, -1.4,0,0,1024,1024,1024,1024,50,-90,97,3.988,3.977,3.975,3.982,3.998,3.959,16.482,66.2,14,Waypoint,
38.6884565,-120.416558,5216.7062902942,3.608924,0,0.65734582156,5600,2018-06-07 16:53:16,14,0,23.657,5216.7062902942,3.608924,0.223694,0.7850065868,0,0,0,50.2, 0.3, -1.1,0,0,1024,1024,1024,1024,50,-90,97,3.988,3.977,3.975,3.982,3.998,3.959,16.482,66.2,14,Waypoint,
38.6884565,-120.416558,5216.7062902942,3.608924,0,0.65734582156,5800,2018-06-07 16:53:17,14,0,23.657,5216.7062902942,3.608924,0.223694,0.7850065868,0,0,-0.223694,50.2, 0.4, -0.6,0,0,1024,1024,1024,1024,50,-89.9,97,3.988,3.977,3.975,3.982,3.998,3.959,16.482,66.2,14,Waypoint,
38.6884566,-120.416558,5217.3624582942,4.265092,0,0.6937992348,5900,2018-06-07 16:53:17,14,0,23.657,5217.3624582942,4.265092,0.223694,0.7850065868,0,0,-0.223694,50.1, 0.7, 0.2,0,0,1024,1024,1024,1024,50,-89.9,97,3.988,3.977,3.975,3.982,3.998,3.959,16.482,66.2,14,Waypoint,
38.6884566,-120.416558,5217.6905422942,4.593176,0,0.6937992348,6000,2018-06-07 16:53:17,15,0,23.657,5217.6905422942,4.593176,0.223694,0.7850065868,0,0,-0.223694,50, 0.9, 0.4,0,0,1024,1024,1024,1024,50,-89.9,97,3.941,3.932,3.917,3.944,3.942,3.932,16.482,66.2,14,Waypoint,
38.6884567,-120.416558,5218.0186262942,4.92126,0,0.73025592888,6100,2018-06-07 16:53:17,15,0,23.657,5218.0186262942,4.92126,0.223694,0.7850065868,0,0,-0.223694,49.8, 1.1, 0.6,0,0,1024,1024,1024,1024,50,-89.9,97,3.941,3.932,3.917,3.944,3.942,3.932,16.482,66.2,14,Waypoint,
38.6884569,-120.4165579,5218.3467102942,5.249344,0,0.80266734852,6200,2018-06-07 16:53:17,14,0,23.657,5218.3467102942,5.249344,0.223694,0.80266734852,0,0,-0.223694,49.7, 1.2, 0.7,0,0,1024,1024,1024,1024,50,-89.9,97,3.941,3.932,3.917,3.944,3.942,3.932,16.482,66.2,14,Waypoint,
38.688457,-120.4165579,5219.0028782942,5.905512,0,0.83915357016,6300,2018-06-07 16:53:17,14,0,23.657,5219.0028782942,5.905512,0.223694,0.83915357016,0,0,-0.447388,49.6, 1.3, 0.8,0,0,1024,1024,1024,1024,50,-89.9,97,3.941,3.932,3.917,3.944,3.942,3.932,16.482,66.2,14,Waypoint,
38.6884571,-120.4165578,5219.3309622942,6.233596,0,0.87610239024,6400,2018-06-07 16:53:17,16,0,23.657,5219.3309622942,6.233596,0.223694,0.87610239024,0,0,-0.447388,49.6, 1.4, 0.8,0,0,1024,1024,1024,1024,50,-89.9,97,3.941,3.932,3.917,3.944,3.942,3.932,16.482,66.2,14,Waypoint,
38.6884572,-120.4165577,5219.9871302942,6.889764,0,0.91390094788,6500,2018-06-07 16:53:17,16,0,23.657,5219.9871302942,6.889764,0.223694,0.91390094788,0,0,-0.447388,49.7, 1.5, 0.8,0,0,1024,1024,1024,1024,50,-89.9,97,3.941,3.932,3.917,3.944,3.942,3.932,16.482,66.2,14,Waypoint,
38.6884574,-120.4165577,5220.9713822942,7.874016,0,0.98673887672,6600,2018-06-07 16:53:17,16,0,23.657,5220.9713822942,7.874016,0.223694,0.98673887672,0,0,-0.447388,49.8, 1.5, 0.7,0,0,1024,1024,1024,1024,50,-89.9,97,3.941,3.932,3.917,3.944,3.942,3.932,16.482,66.2,14,Waypoint,
38.6884576,-120.4165579,5221.6275502942,8.530184,0,1.05806433832,6700,2018-06-07 16:53:18,16,0,23.657,5221.6275502942,8.530184,0.223694,1.05806433832,0,0,-0.671082,49.9, 1.5, 0.8,0,0,1024,1024,1024,1024,50,-89.9,97,3.941,3.932,3.917,3.944,3.942,3.932,16.482,66.2,14,Waypoint,
38.6884578,-120.4165581,5222.6118022942,9.514436,0,1.13246722784,6800,2018-06-07 16:53:18,15,0,23.657,5222.6118022942,9.514436,0.223694,1.13246722784,0,0,-0.671082,50, 1.4, 1.2,0,0,1024,1024,1024,1024,50,-89.9,97,3.941,3.932,3.917,3.944,3.942,3.932,16.482,66.2,14,Waypoint,
38.6884583,-120.4165583,5224.5803062942,11.48294,0,1.3183891498,7000,2018-06-07 16:53:18,15,0,23.55,5224.5803062942,11.48294,0.223694,1.3183891498,0,0,-0.671082,50, 1.3, 1.9,0,0,1024,1024,1024,1024,50,-89.9,97,3.923,3.92,3.976,4.01,3.958,3.932,16.224,66.2,14,Waypoint,
38.6884585,-120.4165584,5225.5645582942,12.467192,0,1.39372051704,7100,2018-06-07 16:53:18,15,0,23.55,5225.5645582942,12.467192,0.223694,1.39372051704,0,0,-0.671082,50, 1.5, 2.2,0,0,1024,1024,1024,1024,50,-89.9,97,3.923,3.92,3.976,4.01,3.958,3.932,16.224,66.2,14,Waypoint,
38.6884587,-120.4165585,5226.8768942942,13.779528,0,1.46936684492,7210,2018-06-07 16:53:18,15,0,23.55,5226.8768942942,13.779528,0.223694,1.46936684492,0,0,-0.671082,49.9, 1.8, 2.5,0,0,1024,1024,1024,1024,50,-89.9,97,3.923,3.92,3.976,4.01,3.958,3.932,16.224,66.2,14,Waypoint,
38.688459,-120.4165586,5227.8611462942,14.76378,0,1.58146658604,7400,2018-06-07 16:53:18,15,0,23.55,5227.8611462942,14.76378,0.223694,1.58146658604,0,0,-0.671082,49.7, 2.1, 2.7,0,0,1024,1024,1024,1024,50,-89.9,97,3.923,3.92,3.976,4.01,3.958,3.932,16.224,66.2,14,Waypoint,
38.6884592,-120.4165586,5229.1734822942,16.076116,0,1.65388128652,7500,2018-06-07 16:53:18,15,0,23.55,5229.1734822942,16.076116,0.223694,1.65388128652,0,0,-0.671082,49.6, 2.2, 2.8,0,0,1024,1024,1024,1024,50,-89.9,97,3.923,3.92,3.976,4.01,3.958,3.932,16.224,66.2,14,Waypoint,
38.6884594,-120.4165587,5230.1577342942,17.060368,0,1.72986226008,7600,2018-06-07 16:53:18,15,0,23.55,5230.1577342942,17.060368,0.223694,1.72986226008,0,0,-0.671082,49.6, 2.3, 2.7,0,0,1024,1024,1024,1024,50,-89.9,97,3.923,3.92,3.976,4.01,3.958,3.932,16.224,66.2,14,Waypoint,
38.6884594,-120.4165588,5231.4700702942,18.372704,0,1.733841919,7760,2018-06-07 16:53:19,15,0,23.55,5231.4700702942,18.372704,0.223694,1.733841919,0,0,-0.671082,49.6, 2.2, 2.7,0,0,1024,1024,1024,1024,50,-89.9,97,3.923,3.92,3.976,4.01,3.958,3.932,16.224,66.2,14,Waypoint,
38.6884594,-120.4165588,5231.4700702942,18.372704,0,1.733841919,7800,2018-06-07 16:53:19,15,0,23.55,5231.4700702942,18.372704,0.223694,1.733841919,0,0,-0.671082,49.6, 2.2, 2.7,0,0,1024,1024,1024,1024,50,-89.9,97,3.923,3.92,3.976,4.01,3.958,3.932,16.224,66.2,14,Waypoint,
38.6884594,-120.4165588,5232.4543222942,19.356956,0,1.733841919,7900,2018-06-07 16:53:19,15,0,23.55,5232.4543222942,19.356956,0.223694,1.733841919,0,0,-0.671082,49.6, 2, 2.6,0,0,1024,1024,1024,1024,50,-89.9,97,3.923,3.92,3.976,4.01,3.958,3.932,16.224,66.2,14,Waypoint,
38.6884593,-120.4165589,5233.7666582942,20.669292,0,1.7022966424,8100,2018-06-07 16:53:19,15,0,23.55,5233.7666582942,20.669292,0.223694,1.733841919,0,0,-0.671082,49.7, 1.7, 2.2,0,0,1024,1024,1024,1024,50,-90,97,3.923,3.92,3.976,4.01,3.958,3.932,16.224,66.2,14,Waypoint,
38.6884593,-120.4165588,5236.0632462942,22.96588,0.223694,1.69776580236,8320,2018-06-07 16:53:19,15,0,23.55,5236.0632462942,22.96588,0.223694,1.733841919,0,0,-0.671082,49.7, 1.3, 1.5,0,0,1024,1024,1024,1024,50,-89.9,97,3.923,3.92,3.976,4.01,3.958,3.932,16.224,66.2,14,Waypoint,
38.6884591,-120.4165587,5237.0474982942,23.950132,0.223694,1.6214239364,8400,2018-06-07 16:53:19,15,0,23.55,5237.0474982942,23.950132,0.223694,1.733841919,0,0,-0.671082,49.8, 1.4, 1.4,0,0,1024,1024,1024,1024,50,-89.9,97,3.923,3.92,3.976,4.01,3.958,3.932,16.224,66.2,14,Waypoint,
38.6884579,-120.4165583,5241.3125902942,28.215224,0.447388,1.17306106116,8600,2018-06-07 16:53:19,15,0,23.55,5241.3125902942,28.215224,0.447388,1.733841919,0,0,-0.671082,49.8, 0.7, -0.4,0,0,1024,1024,1024,1024,50,-90,97,3.923,3.92,3.976,4.01,3.958,3.932,16.224,66.2,14,Waypoint,
38.6884569,-120.4165582,5243.6091782942,30.511812,0.447388,0.8072014694,8710,2018-06-07 16:53:20,15,0,23.55,5243.6091782942,30.511812,0.447388,1.733841919,0,0,-0.671082,49.8, 0, -1.2,0,0,1024,1024,1024,1024,50,-90,97,3.923,3.92,3.976,4.01,3.958,3.932,16.224,66.2,14,Waypoint,
38.6884565,-120.4165581,5244.5934302942,31.496064,0.447388,0.65919293448,8800,2018-06-07 16:53:20,16,0,23.55,5244.5934302942,31.496064,0.447388,1.733841919,0,0,-0.671082,49.8, -0.5, -1.9,0,0,1024,1024,1024,1024,50,-90,97,3.923,3.92,3.976,4.01,3.958,3.932,16.224,66.2,14,Waypoint,
38.6884562,-120.416558,5245.5776822942,32.480316,0.223694,0.5480151094,8910,2018-06-07 16:53:20,16,0,23.55,5245.5776822942,32.480316,0.447388,1.733841919,0,0,-0.671082,49.8, -0.8, -2,0,0,1024,1024,1024,1024,50,-90,97,3.923,3.92,3.976,4.01,3.958,3.932,16.224,66.2,14,Waypoint,
38.688456,-120.4165579,5246.5619342942,33.464568,0.223694,0.47430447712,9000,2018-06-07 16:53:20,16,0,22.709,5246.5619342942,33.464568,0.447388,1.733841919,0,0,-0.671082,49.8, -0.7, -2,0,0,1024,1024,1024,1024,50,-90,97,3.806,3.812,3.785,3.823,3.821,3.807,24.545,66.2,14,Waypoint,
38.6884557,-120.4165577,5248.8585222942,35.761156,0,0.36926838452,9110,2018-06-07 16:53:20,16,0,22.709,5248.8585222942,35.761156,0.447388,1.733841919,0,0,-0.671082,49.7, 0, -1.6,0,0,1024,1024,1024,1024,50,-89.9,97,3.806,3.812,3.785,3.823,3.821,3.807,24.545,66.2,14,Waypoint,
38.6884556,-120.4165576,5249.8427742942,36.745408,0,0.33929791112,9210,2018-06-07 16:53:20,16,0,22.709,5249.8427742942,36.745408,0.447388,1.733841919,0,0,-0.671082,49.7, 0.4, -1.3,0,0,1024,1024,1024,1024,50,-89.9,97,3.806,3.812,3.785,3.823,3.821,3.807,24.545,66.2,14,Waypoint,
38.6884556,-120.4165576,5250.8270262942,37.72966,0,0.33929791112,9310,2018-06-07 16:53:20,15,0,22.709,5250.8270262942,37.72966,0.447388,1.733841919,0,0,-0.671082,49.8, 0.6, -1.1,0,0,1024,1024,1024,1024,50,-89.9,97,3.806,3.812,3.785,3.823,3.821,3.807,24.545,66.2,14,Waypoint,
38.6884554,-120.4165575,5251.8112782942,38.713912,0,0.279647646744,9400,2018-06-07 16:53:20,15,0,22.709,5251.8112782942,38.713912,0.447388,1.733841919,0,0,-0.671082,49.8, 0.6, -0.9,0,0,1024,1024,1024,1024,50,-89.9,97,3.806,3.812,3.785,3.823,3.821,3.807,24.545,66.2,14,Waypoint,
38.6884552,-120.4165574,5252.7955302942,39.698164,0,0.231418314492,9510,2018-06-07 16:53:20,14,0,22.709,5252.7955302942,39.698164,0.447388,1.733841919,0,0,-0.671082,49.8, 0.5, -1.1,0,0,1024,1024,1024,1024,50,-89.9,97,3.806,3.812,3.785,3.823,3.821,3.807,24.545,66.2,14,Waypoint,
38.6884551,-120.4165574,5254.1078662942,41.0105,0,0.203897316236,9610,2018-06-07 16:53:20,14,0,22.709,5254.1078662942,41.0105,0.447388,1.733841919,0,0,-0.671082,49.9, 0.3, -1.3,0,0,1024,1024,1024,1024,50,-90,97,3.806,3.812,3.785,3.823,3.821,3.807,24.545,66.2,14,Waypoint,
38.6884551,-120.4165574,5254.1078662942,41.0105,0,0.203897316236,9700,2018-06-07 16:53:21,14,0,22.709,5254.1078662942,41.0105,0.447388,1.733841919,0,0,-0.671082,49.9, 0.3, -1.3,0,0,1024,1024,1024,1024,50,-90,97,3.806,3.812,3.785,3.823,3.821,3.807,24.545,66.2,14,Waypoint,
38.688455,-120.4165573,5255.0921182942,41.994752,0,0.202921922504,9800,2018-06-07 16:53:21,15,0,22.709,5255.0921182942,41.994752,0.447388,1.733841919,0,0,-0.671082,49.9, 0, -1.4,0,0,1024,1024,1024,1024,50,-90,97,3.806,3.812,3.785,3.823,3.821,3.807,24.545,66.2,14,Waypoint,
38.688455,-120.4165573,5256.0763702942,42.979004,0,0.202921922504,9900,2018-06-07 16:53:21,15,0,22.709,5256.0763702942,42.979004,0.447388,1.733841919,0,0,-0.671082,49.9, 0, -1.4,0,0,1024,1024,1024,1024,50,-89.9,97,3.806,3.812,3.785,3.823,3.821,3.807,24.545,66.2,14,Waypoint,
38.688455,-120.4165573,5257.0606222942,43.963256,0,0.202921922504,10000,2018-06-07 16:53:21,14,0,23.157,5257.0606222942,43.963256,0.447388,1.733841919,0,0,-0.671082,49.9, 0, -1.2,0,0,1024,1024,1024,1024,50,-89.9,97,3.859,3.854,3.839,3.87,3.866,3.858,18.682,66.2,14,Waypoint,
38.688455,-120.4165573,5258.0448742942,44.947508,0,0.202921922504,10100,2018-06-07 16:53:21,14,0,23.157,5258.0448742942,44.947508,0.447388,1.733841919,0,0,-0.671082,49.9, 0, -1,0,0,1024,1024,1024,1024,50,-90,97,3.859,3.854,3.839,3.87,3.866,3.858,18.682,66.2,14,Waypoint,
38.6884549,-120.4165573,5259.0291262942,45.93176,0,0.185799874712,10200,2018-06-07 16:53:21,15,0,23.157,5259.0291262942,45.93176,0.447388,1.733841919,0,0,-0.671082,50, 0.1, -0.9,0,0,1024,1024,1024,1024,50,-89.9,97,3.859,3.854,3.839,3.87,3.866,3.858,18.682,66.2,14,Waypoint,
38.6884549,-120.4165573,5260.0133782942,46.916012,0,0.185799874712,10300,2018-06-07 16:53:21,15,0,23.157,5260.0133782942,46.916012,0.447388,1.733841919,0,0,-0.671082,50, 0.2, -0.8,0,0,1024,1024,1024,1024,50,-90,97,3.859,3.854,3.839,3.87,3.866,3.858,18.682,66.2,14,Waypoint,
38.6884549,-120.4165574,5260.9976302942,47.900264,0,0.160000989372,10400,2018-06-07 16:53:21,15,0,23.157,5260.9976302942,47.900264,0.447388,1.733841919,0,0,-0.671082,50.1, 0.2, -0.7,0,0,1024,1024,1024,1024,50,-89.9,97,3.859,3.854,3.839,3.87,3.866,3.858,18.682,66.2,14,Waypoint,
38.688455,-120.4165574,5261.6537982942,48.556432,0,0.17959974328,10500,2018-06-07 16:53:21,15,0,23.157,5261.6537982942,48.556432,0.447388,1.733841919,0,0,-0.671082,50, 0.4, -0.5,0,0,1024,1024,1024,1024,50,-89.9,97,3.859,3.854,3.839,3.87,3.866,3.858,18.682,66.2,14,Waypoint,
38.6884551,-120.4165573,5263.6223022942,50.524936,0.223694,0.224711949448,10600,2018-06-07 16:53:21,15,0,23.157,5263.6223022942,50.524936,0.447388,1.733841919,0,0,-0.671082,49.9, 0.7, -0.3,0,0,1024,1024,1024,1024,50,-89.9,97,3.859,3.854,3.839,3.87,3.866,3.858,18.682,66.2,14,Waypoint,
38.6884552,-120.4165573,5264.6065542942,51.509188,0.223694,0.249951451568,10700,2018-06-07 16:53:22,17,0,23.157,5264.6065542942,51.509188,0.447388,1.733841919,0,0,-0.671082,49.8, 0.9, -0.3,0,0,1024,1024,1024,1024,50,-89.9,97,3.859,3.854,3.839,3.87,3.866,3.858,18.682,66.2,14,Waypoint,
38.6884552,-120.4165574,5265.5908062942,52.49344,0.223694,0.231418314492,10800,2018-06-07 16:53:22,17,0,23.157,5265.5908062942,52.49344,0.447388,1.733841919,0,0,-0.671082,49.8, 1, -0.2,0,0,1024,1024,1024,1024,50,-89.9,97,3.859,3.854,3.839,3.87,3.866,3.858,18.682,66.2,14,Waypoint,
38.6884553,-120.4165574,5266.5750582942,53.477692,0.223694,0.261145677648,10900,2018-06-07 16:53:22,17,0,23.157,5266.5750582942,53.477692,0.447388,1.733841919,0,0,-0.671082,49.8, 1, -0.2,0,0,1024,1024,1024,1024,50,-89.9,97,3.859,3.854,3.839,3.87,3.866,3.858,18.682,66.2,14,Waypoint,
38.6884554,-120.4165575,5267.5593102942,54.461944,0.223694,0.279647646744,11000,2018-06-07 16:53:22,17,0,23.173,5267.5593102942,54.461944,0.447388,1.733841919,0,0,-0.671082,49.7, 0.9, -0.1,0,0,1024,1024,1024,1024,50,-89.9,97,3.858,3.858,3.843,3.874,3.88,3.86,18.682,66.2,14,Waypoint,
38.6884556,-120.4165575,5268.5435622942,55.446196,0.223694,0.34756234708,11100,2018-06-07 16:53:22,15,0,23.173,5268.5435622942,55.446196,0.447388,1.733841919,0,0,-0.671082,49.7, 0.9, 0,0,0,1024,1024,1024,1024,50,-89.9,97,3.858,3.858,3.843,3.874,3.88,3.86,18.682,66.2,14,Waypoint,
38.6884557,-120.4165576,5269.5278142942,56.430448,0.223694,0.37471785976,11200,2018-06-07 16:53:22,15,0,23.173,5269.5278142942,56.430448,0.447388,1.733841919,0,0,-0.671082,49.7, 1, 0.3,0,0,1024,1024,1024,1024,50,-90,97,3.858,3.858,3.843,3.874,3.88,3.86,18.682,66.2,14,Waypoint,
38.688456,-120.4165576,5271.4963182942,58.398952,0.223694,0.4819389918,11410,2018-06-07 16:53:22,16,0,23.173,5271.4963182942,58.398952,0.447388,1.733841919,0,0,-0.671082,49.7, 1.2, 0.5,0,0,1024,1024,1024,1024,50,-89.9,97,3.858,3.858,3.843,3.874,3.88,3.86,18.682,66.2,14,Waypoint,
38.6884562,-120.4165577,5272.4805702942,59.383204,0,0.5502296764,11510,2018-06-07 16:53:22,17,0,23.173,5272.4805702942,59.383204,0.447388,1.733841919,0,0,-0.671082,49.7, 1.2, 0.5,0,0,1024,1024,1024,1024,50,-89.9,97,3.858,3.858,3.843,3.874,3.88,3.86,18.682,66.2,14,Waypoint,
38.6884564,-120.4165578,5274.4490742942,61.351708,0,0.62089897,11720,2018-06-07 16:53:23,18,0,23.173,5274.4490742942,61.351708,0.447388,1.733841919,0,0,-0.671082,49.6, 1.3, 0.6,0,0,1024,1024,1024,1024,50,-89.9,97,3.858,3.858,3.843,3.874,3.88,3.86,18.682,66.2,14,Waypoint,
38.6884564,-120.4165578,5274.4490742942,61.351708,0,0.62089897,11800,2018-06-07 16:53:23,18,0,23.173,5274.4490742942,61.351708,0.447388,1.733841919,0,0,-0.671082,49.6, 1.3, 0.6,0,0,1024,1024,1024,1024,50,-89.9,97,3.858,3.858,3.843,3.874,3.88,3.86,18.682,66.2,14,Waypoint,
38.6884566,-120.4165579,5275.4333262942,62.33596,0,0.69321524528,11900,2018-06-07 16:53:23,18,0,23.173,5275.4333262942,62.33596,0.447388,1.733841919,0,0,-0.671082,49.6, 1.2, 0.6,0,0,1024,1024,1024,1024,50,-89.9,97,3.858,3.858,3.843,3.874,3.88,3.86,18.682,66.2,14,Waypoint,
38.6884567,-120.4165579,5276.4175782942,63.320212,0,0.72969818608,12000,2018-06-07 16:53:23,18,0,23.162,5276.4175782942,63.320212,0.447388,1.733841919,0,0,-0.671082,49.6, 1.2, 0.6,0,0,1024,1024,1024,1024,50,-89.9,97,3.842,3.832,3.826,3.858,3.854,3.842,19.345,66.2,14,Waypoint,
38.6884569,-120.416558,5277.4018302942,64.304464,0,0.80317259788,12100,2018-06-07 16:53:23,18,0,23.162,5277.4018302942,64.304464,0.447388,1.733841919,0,0,-0.671082,49.7, 1.2, 0.7,0,0,1024,1024,1024,1024,50,-89.9,97,3.842,3.832,3.826,3.858,3.854,3.842,19.345,66.2,14,Waypoint,
38.6884571,-120.416558,5278.3860822942,65.288716,0,0.87610239024,12200,2018-06-07 16:53:23,18,0,23.162,5278.3860822942,65.288716,0.447388,1.733841919,0,0,-0.671082,49.8, 1.2, 1.1,0,0,1024,1024,1024,1024,50,-89.9,97,3.842,3.832,3.826,3.858,3.854,3.842,19.345,66.2,14,Waypoint,
38.6884576,-120.4165582,5281.3388382942,68.241472,0,1.06150593948,12400,2018-06-07 16:53:23,18,0,23.162,5281.3388382942,68.241472,0.447388,1.733841919,0,0,-0.671082,50, 1.3, 1.3,0,0,1024,1024,1024,1024,50,-89.9,97,3.842,3.832,3.826,3.858,3.854,3.842,19.345,66.2,14,Waypoint,
38.6884579,-120.4165583,5283.3073422942,70.209976,0,1.17306106116,12600,2018-06-07 16:53:23,18,0,23.162,5283.3073422942,70.209976,0.447388,1.733841919,0,0,-0.671082,50.1, 1.2, 1.1,0,0,1024,1024,1024,1024,50,-89.9,97,3.842,3.832,3.826,3.858,3.854,3.842,19.345,66.2,14,Waypoint,
38.6884581,-120.4165585,5285.2758462942,72.17848,0,1.25220148364,12800,2018-06-07 16:53:24,18,0,23.162,5285.2758462942,72.17848,0.447388,1.733841919,0,0,-0.671082,50.2, 1.3, 1.3,0,0,1024,1024,1024,1024,50,-89.9,97,3.842,3.832,3.826,3.858,3.854,3.842,19.345,66.2,14,Waypoint,
38.6884582,-120.4165585,5286.2600982942,73.162732,0,1.2883530596,12900,2018-06-07 16:53:24,18,0,23.162,5286.2600982942,73.162732,0.447388,1.733841919,0,0,-0.671082,50.1, 1.3, 1.2,0,0,1024,1024,1024,1024,50,-89.9,97,3.842,3.832,3.826,3.858,3.854,3.842,19.345,66.2,14,Waypoint,
38.6884583,-120.4165586,5287.2443502942,74.146984,0,1.32850069868,13000,2018-06-07 16:53:24,18,0,22.977,5287.2443502942,74.146984,0.447388,1.733841919,0,0,-0.671082,50, 1.4, 1.2,0,0,1024,1024,1024,1024,50,-89.9,96,3.826,3.827,3.816,3.843,3.838,3.838,19.273,66.2,14,Waypoint,
38.6884584,-120.4165586,5288.2286022942,75.131236,0,1.364583377,13100,2018-06-07 16:53:24,19,0,22.977,5288.2286022942,75.131236,0.447388,1.733841919,0,0,-0.671082,49.9, 1.5, 1.3,0,0,1024,1024,1024,1024,50,-89.9,96,3.826,3.827,3.816,3.843,3.838,3.838,19.273,66.2,14,Waypoint,
38.6884585,-120.4165586,5289.2128542942,76.115488,0,1.40068574036,13200,2018-06-07 16:53:24,19,0,22.977,5289.2128542942,76.115488,0.447388,1.733841919,0,0,-0.671082,49.8, 1.5, 1.4,0,0,1024,1024,1024,1024,50,-89.9,96,3.826,3.827,3.816,3.843,3.838,3.838,19.273,66.2,14,Waypoint,
38.6884586,-120.4165587,5290.1971062942,77.09974,0,1.44103679152,13300,2018-06-07 16:53:24,20,0,22.977,5290.1971062942,77.09974,0.447388,1.733841919,0,0,-0.671082,49.7, 1.4, 1.4,0,0,1024,1024,1024,1024,50,-89.9,96,3.826,3.827,3.816,3.843,3.838,3.838,19.273,66.2,14,Waypoint,
38.6884586,-120.4165587,5291.1813582942,78.083992,0,1.44103679152,13400,2018-06-07 16:53:24,20,0,22.977,5291.1813582942,78.083992,0.447388,1.733841919,0,0,-0.671082,49.6, 1.3, 1.4,0,0,1024,1024,1024,1024,50,-89.9,96,3.826,3.827,3.816,3.843,3.838,3.838,19.273,66.2,14,Waypoint,
38.6884587,-120.4165587,5292.1656102942,79.068244,0,1.47707353808,13500,2018-06-07 16:53:24,19,0,22.977,5292.1656102942,79.068244,0.447388,1.733841919,0,0,-0.671082,49.6, 1.3, 1.4,0,0,1024,1024,1024,1024,50,-89.9,96,3.826,3.827,3.816,3.843,3.838,3.838,19.273,66.2,14,Waypoint,
38.6884588,-120.4165587,5293.1498622942,80.052496,0,1.51313325052,13600,2018-06-07 16:53:24,19,0,22.977,5293.1498622942,80.052496,0.447388,1.733841919,0,0,-0.671082,49.6, 1.4, 1.4,0,0,1024,1024,1024,1024,50,-89.9,96,3.826,3.827,3.816,3.843,3.838,3.838,19.273,66.2,14,Waypoint,
38.6884588,-120.4165588,5294.1341142942,81.036748,0,1.51768049476,13700,2018-06-07 16:53:25,19,0,22.977,5294.1341142942,81.036748,0.447388,1.733841919,0,0,-0.671082,49.6, 1.4, 1.3,0,0,1024,1024,1024,1024,50,-89.9,96,3.826,3.827,3.816,3.843,3.838,3.838,19.273,66.2,14,Waypoint,
38.6884588,-120.4165588,5295.1183662942,82.021,0,1.51768049476,13800,2018-06-07 16:53:25,19,0,22.977,5295.1183662942,82.021,0.447388,1.733841919,0,0,-0.671082,49.7, 1.4, 1.2,0,0,1024,1024,1024,1024,50,-89.9,96,3.826,3.827,3.816,3.843,3.838,3.838,19.273,66.2,14,Waypoint,
38.6884588,-120.4165588,5296.1026182942,83.005252,0,1.51768049476,13900,2018-06-07 16:53:25,19,0,22.977,5296.1026182942,83.005252,0.447388,1.733841919,0,0,-0.671082,49.7, 1.3, 1,0,0,1024,1024,1024,1024,50,-89.9,96,3.826,3.827,3.816,3.843,3.838,3.838,19.273,66.2,14,Waypoint,
38.6884588,-120.4165589,5297.0868702942,83.989504,0,1.52274939256,14000,2018-06-07 16:53:25,19,0,22.977,5297.0868702942,83.989504,0.447388,1.733841919,0,0,-0.671082,49.8, 1.2, 1,0,0,1024,1024,1024,1024,50,-89.9,96,3.832,3.83,3.812,3.836,3.837,3.826,19.089,66.2,14,Waypoint,
38.6884588,-120.4165589,5298.0711222942,84.973756,0,1.52274939256,14110,2018-06-07 16:53:25,20,0,22.977,5298.0711222942,84.973756,0.447388,1.733841919,0,0,-0.671082,49.8, 1.1, 1,0,0,1024,1024,1024,1024,50,-89.9,96,3.832,3.83,3.812,3.836,3.837,3.826,19.089,66.2,14,Waypoint,
38.6884588,-120.4165589,5299.0553742942,85.958008,0,1.52274939256,14300,2018-06-07 16:53:25,20,0,22.977,5299.0553742942,85.958008,0.447388,1.733841919,0,0,-0.671082,49.8, 1, 1,0,0,1024,1024,1024,1024,50,-90,96,3.832,3.83,3.812,3.836,3.837,3.826,19.089,66.2,14,Waypoint,
38.6884588,-120.4165589,5299.7115422942,86.614176,0.223694,1.52274939256,14400,2018-06-07 16:53:25,20,0,22.977,5299.7115422942,86.614176,0.447388,1.733841919,0,0,-0.671082,49.9, 1, 1,0,0,1024,1024,1024,1024,50,-89.9,96,3.832,3.83,3.812,3.836,3.837,3.826,19.089,66.2,14,Waypoint,
38.6884587,-120.416559,5300.6957942942,87.598428,0.223694,1.49264112388,14500,2018-06-07 16:53:25,20,0,22.977,5300.6957942942,87.598428,0.447388,1.733841919,0,0,-0.671082,49.9, 1, 1.1,0,0,1024,1024,1024,1024,50,-89.9,96,3.832,3.83,3.812,3.836,3.837,3.826,19.089,66.2,14,Waypoint,
38.6884587,-120.416559,5301.6800462942,88.58268,0.223694,1.49264112388,14600,2018-06-07 16:53:25,20,0,22.977,5301.6800462942,88.58268,0.447388,1.733841919,0,0,-0.671082,49.8, 1, 1,0,0,1024,1024,1024,1024,50,-89.9,96,3.832,3.83,3.812,3.836,3.837,3.826,19.089,66.2,14,Waypoint,
38.6884586,-120.416559,5302.6642982942,89.566932,0.223694,1.4569882356,14700,2018-06-07 16:53:26,20,0,22.977,5302.6642982942,89.566932,0.447388,1.733841919,0,0,-0.671082,49.8, 0.9, 0.9,0,0,1024,1024,1024,1024,50,-90,96,3.832,3.83,3.812,3.836,3.837,3.826,19.089,66.2,14,Waypoint,
38.6884586,-120.416559,5303.9766342942,90.879268,0.223694,1.4569882356,14800,2018-06-07 16:53:26,19,0,22.977,5303.9766342942,90.879268,0.447388,1.733841919,0,0,-0.671082,49.7, 0.8, 0.7,0,0,1024,1024,1024,1024,50,-89.9,96,3.832,3.83,3.812,3.836,3.837,3.826,19.089,66.2,14,Waypoint,
38.6884585,-120.416559,5304.9608862942,91.86352,0.223694,1.42137799824,14900,2018-06-07 16:53:26,19,0,22.977,5304.9608862942,91.86352,0.447388,1.733841919,0,0,-0.671082,49.7, 0.7, 0.3,0,0,1024,1024,1024,1024,50,-90,96,3.832,3.83,3.812,3.836,3.837,3.826,19.089,66.2,14,Waypoint,
38.6884585,-120.4165589,5305.9451382942,92.847772,0.223694,1.41537406104,15000,2018-06-07 16:53:26,20,0,22.911,5305.9451382942,92.847772,0.447388,1.733841919,0,0,-0.671082,49.7, 0.8, 0.3,0,0,1024,1024,1024,1024,50,-89.9,96,3.811,3.822,3.798,3.834,3.824,3.817,19.121,66.2,14,Waypoint,
38.6884584,-120.4165589,5306.9293902942,93.832024,0.223694,1.37965555596,15100,2018-06-07 16:53:26,20,0,22.911,5306.9293902942,93.832024,0.447388,1.733841919,0,0,-0.671082,49.8, 0.9, 0.1,0,0,1024,1024,1024,1024,50,-89.9,96,3.811,3.822,3.798,3.834,3.824,3.817,19.121,66.2,14,Waypoint,
38.6884584,-120.4165589,5307.9136422942,94.816276,0.223694,1.37965555596,15200,2018-06-07 16:53:26,21,0,22.911,5307.9136422942,94.816276,0.447388,1.733841919,0,0,-0.671082,49.9, 1.1, 0,0,0,1024,1024,1024,1024,50,-89.9,96,3.811,3.822,3.798,3.834,3.824,3.817,19.121,66.2,14,Waypoint,
38.6884582,-120.4165589,5309.8821462942,96.78478,0.223694,1.30834321772,15400,2018-06-07 16:53:26,21,0,22.911,5309.8821462942,96.78478,0.447388,1.733841919,0,0,-0.671082,50.1, 1, 0.1,0,0,1024,1024,1024,1024,50,-90,96,3.811,3.822,3.798,3.834,3.824,3.817,19.121,66.2,14,Waypoint,
38.688458,-120.4165589,5311.8506502942,98.753284,0.223694,1.23722444904,15500,2018-06-07 16:53:26,21,0,22.911,5311.8506502942,98.753284,0.447388,1.733841919,0,0,-0.671082,50.1, 0.8, 0.2,0,0,1024,1024,1024,1024,50,-90,96,3.811,3.822,3.798,3.834,3.824,3.817,19.121,66.2,14,Waypoint,
38.6884579,-120.4165589,5313.4910702942,100.393704,0,1.20174872612,15700,2018-06-07 16:53:27,21,0,22.911,5313.4910702942,100.393704,0.447388,1.733841919,0,0,-0.671082,49.9, 0.7, 0.1,0,0,1024,1024,1024,1024,50,-89.9,96,3.811,3.822,3.798,3.834,3.824,3.817,19.121,66.2,14,Waypoint,
38.6884579,-120.4165589,5314.4753222942,101.377956,0,1.20174872612,15800,2018-06-07 16:53:27,21,0,22.911,5314.4753222942,101.377956,0.447388,1.733841919,0,0,-0.671082,49.8, 1, 0.3,0,0,1024,1024,1024,1024,50,-89.9,96,3.811,3.822,3.798,3.834,3.824,3.817,19.121,66.2,14,Waypoint,
38.6884578,-120.4165589,5315.4595742942,102.362208,0,1.16633533916,15900,2018-06-07 16:53:27,21,0,22.911,5315.4595742942,102.362208,0.447388,1.733841919,0,0,-0.671082,49.6, 1.2, 0.3,0,0,1024,1024,1024,1024,50,-89.9,96,3.811,3.822,3.798,3.834,3.824,3.817,19.121,66.2,14,Waypoint,
38.6884578,-120.4165588,5316.4438262942,103.34646,0,1.1597113232,16000,2018-06-07 16:53:27,21,0,22.911,5316.4438262942,103.34646,0.447388,1.733841919,0,0,-0.671082,49.6, 1.2, 0.2,0,0,1024,1024,1024,1024,50,-89.9,96,3.811,3.822,3.798,3.834,3.824,3.817,19.121,66.2,14,Waypoint,
38.6884577,-120.4165588,5317.7561622942,104.658796,0,1.12415686012,16100,2018-06-07 16:53:27,21,0,22.911,5317.7561622942,104.658796,0.447388,1.733841919,0,0,-0.671082,49.6, 1, 0.2,0,0,1024,1024,1024,1024,50,-89.9,96,3.811,3.822,3.798,3.834,3.824,3.817,19.121,66.2,14,Waypoint,
38.6884576,-120.4165588,5319.7246662942,106.6273,0,1.088664733,16300,2018-06-07 16:53:27,21,0,22.911,5319.7246662942,106.6273,0.447388,1.733841919,0,0,-0.671082,49.5, 0.9, 0.2,0,0,1024,1024,1024,1024,50,-89.9,96,3.811,3.822,3.798,3.834,3.824,3.817,19.121,66.2,14,Waypoint,
38.6884575,-120.4165589,5320.7089182942,107.611552,0,1.06053153,16400,2018-06-07 16:53:27,21,0,22.911,5320.7089182942,107.611552,0.447388,1.733841919,0,0,-0.671082,49.4, 0.8, 0.2,0,0,1024,1024,1024,1024,50,-90,96,3.811,3.822,3.798,3.834,3.824,3.817,19.121,66.2,14,Waypoint,
38.6884575,-120.4165589,5321.6931702942,108.595804,0,1.06053153,16500,2018-06-07 16:53:27,21,0,22.911,5321.6931702942,108.595804,0.447388,1.733841919,0,0,-0.671082,49.4, 0.6, 0,0,0,1024,1024,1024,1024,50,-90,96,3.811,3.822,3.798,3.834,3.824,3.817,19.121,66.2,14,Waypoint,
38.6884574,-120.4165589,5322.6774222942,109.580056,0,1.02543310368,16700,2018-06-07 16:53:28,21,0,22.911,5322.6774222942,109.580056,0.447388,1.733841919,0,0,-0.671082,49.5, 0.6, 0,0,0,1024,1024,1024,1024,50,-90,96,3.811,3.822,3.798,3.834,3.824,3.817,19.121,66.2,14,Waypoint,
38.6884573,-120.4165589,5324.6459262942,111.54856,0,0.99043310256,16800,2018-06-07 16:53:28,21,0,22.911,5324.6459262942,111.54856,0.447388,1.733841919,0,0,-0.671082,49.7, 0.3, 0.2,0,0,1024,1024,1024,1024,50,-90,96,3.811,3.822,3.798,3.834,3.824,3.817,19.121,66.2,14,Waypoint,
38.6884573,-120.416559,5325.6301782942,112.532812,0,0.99899609496,17000,2018-06-07 16:53:28,21,0,22.893,5325.6301782942,112.532812,0.447388,1.733841919,0,0,-0.671082,49.8, 0.3, 0.5,0,0,1024,1024,1024,1024,50,-90,96,3.815,3.816,3.793,3.83,3.816,3.813,19.313,66.2,14,Waypoint,
38.6884573,-120.416559,5326.6144302942,113.517064,0,0.99899609496,17100,2018-06-07 16:53:28,21,0,22.893,5326.6144302942,113.517064,0.447388,1.733841919,0,0,-0.671082,49.9, 0.4, 0.7,0,0,1024,1024,1024,1024,50,-89.9,96,3.815,3.816,3.793,3.83,3.816,3.813,19.313,66.2,14,Waypoint,
38.6884573,-120.416559,5327.5986822942,114.501316,0,0.99899609496,17200,2018-06-07 16:53:28,21,0,22.893,5327.5986822942,114.501316,0.447388,1.733841919,0,0,-0.671082,50.1, 0.6, 0.8,0,0,1024,1024,1024,1024,50,-89.9,96,3.815,3.816,3.793,3.83,3.816,3.813,19.313,66.2,14,Waypoint,
38.6884573,-120.416559,5328.5829342942,115.485568,0,0.99899609496,17300,2018-06-07 16:53:28,21,0,22.893,5328.5829342942,115.485568,0.447388,1.733841919,0,0,-0.671082,50.2, 0.7, 0.8,0,0,1024,1024,1024,1024,50,-89.9,96,3.815,3.816,3.793,3.83,3.816,3.813,19.313,66.2,14,Waypoint,
38.6884573,-120.4165591,5329.5671862942,116.46982,0,1.00828743384,17400,2018-06-07 16:53:28,21,0,22.893,5329.5671862942,116.46982,0.447388,1.733841919,0,0,-0.671082,50.3, 0.7, 0.9,0,0,1024,1024,1024,1024,50,-89.9,96,3.815,3.816,3.793,3.83,3.816,3.813,19.313,66.2,14,Waypoint,
38.6884573,-120.4165591,5332.5199422942,119.422576,0,1.00828743384,17700,2018-06-07 16:53:29,21,0,22.893,5332.5199422942,119.422576,0.447388,1.733841919,0,0,-0.671082,50.1, 0.8, 1.2,0,0,1024,1024,1024,1024,50,-90,96,3.815,3.816,3.793,3.83,3.816,3.813,19.313,66.2,14,Waypoint,
38.6884573,-120.416559,5334.4884462942,121.39108,0,0.99899609496,17800,2018-06-07 16:53:29,21,0,22.893,5334.4884462942,121.39108,0.447388,1.733841919,0,0,-0.671082,49.7, 0.9, 0.7,0,0,1024,1024,1024,1024,50,-89.9,96,3.815,3.816,3.793,3.83,3.816,3.813,19.313,66.2,14,Waypoint,
38.6884573,-120.416559,5335.4726982942,122.375332,0,0.99899609496,17900,2018-06-07 16:53:29,21,0,22.893,5335.4726982942,122.375332,0.447388,1.733841919,0,0,-0.671082,49.6, 0.9, 0.8,0,0,1024,1024,1024,1024,50,-89.9,96,3.815,3.816,3.793,3.83,3.816,3.813,19.313,66.2,14,Waypoint,
38.6884573,-120.416559,5336.1288662942,123.0315,0,0.99899609496,18000,2018-06-07 16:53:29,21,0,22.85,5336.1288662942,123.0315,0.447388,1.733841919,0,0,-0.671082,49.5, 1, 1,0,0,1024,1024,1024,1024,50,-89.9,96,3.808,3.813,3.784,3.822,3.823,3.808,19.394,66.2,14,Waypoint,
38.6884573,-120.416559,5337.1131182942,124.015752,0,0.99899609496,18100,2018-06-07 16:53:29,21,0,22.85,5337.1131182942,124.015752,0.447388,1.733841919,0,0,-0.671082,49.5, 1.1, 1,0,0,1024,1024,1024,1024,50,-89.9,96,3.808,3.813,3.784,3.822,3.823,3.808,19.394,66.2,14,Waypoint,
38.6884573,-120.4165589,5338.0973702942,125.000004,0,0.99043310256,18200,2018-06-07 16:53:29,21,0,22.85,5338.0973702942,125.000004,0.447388,1.733841919,0,0,-0.671082,49.5, 1.2, 0.9,0,0,1024,1024,1024,1024,50,-89.9,96,3.808,3.813,3.784,3.822,3.823,3.808,19.394,66.2,14,Waypoint,
38.6884573,-120.4165589,5339.0816222942,125.984256,0,0.99043310256,18300,2018-06-07 16:53:29,21,0,22.85,5339.0816222942,125.984256,0.447388,1.733841919,0,0,-0.671082,49.6, 1.2, 0.8,0,0,1024,1024,1024,1024,50,-89.9,96,3.808,3.813,3.784,3.822,3.823,3.808,19.394,66.2,14,Waypoint,
38.6884573,-120.4165589,5341.0501262942,127.95276,0,0.99043310256,18500,2018-06-07 16:53:29,21,0,22.85,5341.0501262942,127.95276,0.447388,1.733841919,0,0,-0.671082,49.8, 0.9, 0.7,0,0,1024,1024,1024,1024,50,-90,96,3.808,3.813,3.784,3.822,3.823,3.808,19.394,66.2,14,Waypoint,
38.6884573,-120.4165589,5343.0186302942,129.921264,0,0.99043310256,18700,2018-06-07 16:53:30,21,0,22.85,5343.0186302942,129.921264,0.447388,1.733841919,0,0,-0.671082,50, 0.9, 0.9,0,0,1024,1024,1024,1024,50,-89.9,96,3.808,3.813,3.784,3.822,3.823,3.808,19.394,66.2,14,Waypoint,
38.6884574,-120.4165588,5344.0028822942,130.905516,0,1.01789045252,18800,2018-06-07 16:53:30,21,0,22.85,5344.0028822942,130.905516,0.447388,1.733841919,0,0,-0.671082,50, 0.9, 1,0,0,1024,1024,1024,1024,50,-89.9,96,3.808,3.813,3.784,3.822,3.823,3.808,19.394,66.2,14,Waypoint,
38.6884574,-120.4165588,5345.9713862942,132.87402,0,1.01789045252,19000,2018-06-07 16:53:30,21,0,22.95,5345.9713862942,132.87402,0.447388,1.733841919,0,0,-0.671082,49.8, 1, 0.7,0,0,1024,1024,1024,1024,50,-89.9,96,3.828,3.816,3.799,3.846,3.838,3.818,18.279,68,14,Waypoint,
38.6884574,-120.4165588,5346.9556382942,133.858272,0,1.01789045252,19110,2018-06-07 16:53:30,21,0,22.95,5346.9556382942,133.858272,0.447388,1.733841919,0,0,-0.671082,49.7, 1.1, 0.7,0,0,1024,1024,1024,1024,50,-89.9,96,3.828,3.816,3.799,3.846,3.838,3.818,18.279,68,14,Waypoint,
38.6884574,-120.4165587,5347.9398902942,134.842524,0,1.01109583288,19300,2018-06-07 16:53:30,21,0,22.95,5347.9398902942,134.842524,0.447388,1.733841919,0,0,-0.671082,49.6, 1.1, 0.7,0,0,1024,1024,1024,1024,50,-89.9,96,3.828,3.816,3.799,3.846,3.838,3.818,18.279,68,14,Waypoint,
38.6884575,-120.4165587,5348.9241422942,135.826776,0,1.04667326184,19400,2018-06-07 16:53:30,21,0,22.95,5348.9241422942,135.826776,0.447388,1.733841919,0,0,-0.671082,49.5, 1.4, 0.8,0,0,1024,1024,1024,1024,50,-89.9,96,3.828,3.816,3.799,3.846,3.838,3.818,18.279,68,14,Waypoint,
38.6884575,-120.4165587,5349.9083942942,136.811028,0,1.04667326184,19500,2018-06-07 16:53:30,21,0,22.95,5349.9083942942,136.811028,0.447388,1.733841919,0,0,-0.671082,49.5, 1.6, 0.8,0,0,1024,1024,1024,1024,50,-89.9,96,3.828,3.816,3.799,3.846,3.838,3.818,18.279,68,14,Waypoint,
38.6884575,-120.4165586,5350.8926462942,137.79528,0,1.04084649,19600,2018-06-07 16:53:30,21,0,22.95,5350.8926462942,137.79528,0.447388,1.733841919,0,0,-0.671082,49.6, 1.7, 0.8,0,0,1024,1024,1024,1024,50,-89.9,96,3.828,3.816,3.799,3.846,3.838,3.818,18.279,68,14,Waypoint,
38.6884575,-120.4165585,5351.8768982942,138.779532,0,1.03577103052,19700,2018-06-07 16:53:31,21,0,22.95,5351.8768982942,138.779532,0.447388,1.733841919,0,0,-0.671082,49.8, 1.6, 0.7,0,0,1024,1024,1024,1024,50,-89.9,96,3.828,3.816,3.799,3.846,3.838,3.818,18.279,68,14,Waypoint,
38.6884575,-120.4165585,5352.8611502942,139.763784,0,1.03577103052,19800,2018-06-07 16:53:31,22,0,22.95,5352.8611502942,139.763784,0.447388,1.733841919,0,0,-0.671082,50, 1.7, 0.4,0,0,1024,1024,1024,1024,50,-89.9,96,3.828,3.816,3.799,3.846,3.838,3.818,18.279,68,14,Waypoint,
38.6884576,-120.4165584,5353.8454022942,140.748036,0,1.0676017402,19900,2018-06-07 16:53:31,22,0,22.95,5353.8454022942,140.748036,0.447388,1.733841919,0,0,-0.671082,50.2, 1.9, 0.5,0,0,1024,1024,1024,1024,50,-89.9,96,3.828,3.816,3.799,3.846,3.838,3.818,18.279,68,14,Waypoint,
38.6884576,-120.4165584,5354.8296542942,141.732288,0,1.0676017402,20000,2018-06-07 16:53:31,22,0,22.877,5354.8296542942,141.732288,0.447388,1.733841919,0,0,-0.671082,50.4, 1.9, 0.7,0,0,1024,1024,1024,1024,50,-89.9,96,3.807,3.809,3.796,3.838,3.833,3.817,18.601,68,14,Waypoint,
38.6884578,-120.4165583,5357.7824102942,144.685044,0,1.13675528572,20200,2018-06-07 16:53:31,22,0,22.877,5357.7824102942,144.685044,0.447388,1.733841919,0,0,-0.671082,50.6, 1.6, 0.7,0,0,1024,1024,1024,1024,50,-89.9,96,3.807,3.809,3.796,3.838,3.833,3.817,18.601,68,14,Waypoint,
38.6884578,-120.4165583,5358.7666622942,145.669296,0,1.13675528572,20300,2018-06-07 16:53:31,22,0,22.877,5358.7666622942,145.669296,0.447388,1.733841919,0,0,-0.671082,50.4, 1.6, 1,0,0,1024,1024,1024,1024,50,-89.9,96,3.807,3.809,3.796,3.838,3.833,3.817,18.601,68,14,Waypoint,
38.6884579,-120.4165583,5359.7509142942,146.653548,0,1.17306106116,20400,2018-06-07 16:53:31,22,0,22.877,5359.7509142942,146.653548,0.447388,1.733841919,0,0,-0.671082,50.1, 1.9, 1.2,0,0,1024,1024,1024,1024,50,-89.9,96,3.807,3.809,3.796,3.838,3.833,3.817,18.601,68,14,Waypoint,
38.6884579,-120.4165583,5360.7351662942,147.6378,0,1.17306106116,20500,2018-06-07 16:53:31,22,0,22.877,5360.7351662942,147.6378,0.447388,1.733841919,0,0,-0.671082,49.9, 2.2, 1.4,0,0,1024,1024,1024,1024,50,-89.9,96,3.807,3.809,3.796,3.838,3.833,3.817,18.601,68,14,Waypoint,
38.6884579,-120.4165582,5361.7194182942,148.622052,0,1.17063980124,20600,2018-06-07 16:53:31,22,0,22.877,5361.7194182942,148.622052,0.447388,1.733841919,0,0,-0.671082,49.7, 2.3, 1.2,0,0,1024,1024,1024,1024,50,-89.9,96,3.807,3.809,3.796,3.838,3.833,3.817,18.601,68,14,Waypoint,
38.688458,-120.4165582,5363.6879222942,150.590556,0,1.20703087852,20800,2018-06-07 16:53:32,22,0,22.877,5363.6879222942,150.590556,0.447388,1.733841919,0,0,-0.671082,49.4, 2.4, 1,0,0,1024,1024,1024,1024,50,-89.9,96,3.807,3.809,3.796,3.838,3.833,3.817,18.601,68,14,Waypoint,
38.688458,-120.4165582,5364.6721742942,151.574808,0,1.20703087852,20900,2018-06-07 16:53:32,22,0,22.877,5364.6721742942,151.574808,0.447388,1.733841919,0,0,-0.671082,49.4, 2.4, 1.1,0,0,1024,1024,1024,1024,50,-89.9,96,3.807,3.809,3.796,3.838,3.833,3.817,18.601,68,14,Waypoint,
38.688458,-120.4165582,5365.6564262942,152.55906,0,1.20703087852,21000,2018-06-07 16:53:32,22,0,22.907,5365.6564262942,152.55906,0.447388,1.733841919,0,0,-0.671082,49.4, 2.4, 1.2,0,0,1024,1024,1024,1024,50,-89.9,96,3.811,3.809,3.792,3.829,3.824,3.815,18.303,68,14,Waypoint,
38.6884581,-120.4165582,5366.6406782942,153.543312,0,1.24342523664,21200,2018-06-07 16:53:32,22,0,22.907,5366.6406782942,153.543312,0.447388,1.733841919,0,0,-0.671082,49.5, 2.4, 1.3,0,0,1024,1024,1024,1024,50,-89.9,96,3.811,3.809,3.792,3.829,3.824,3.815,18.303,68,14,Waypoint,
38.6884581,-120.4165582,5368.6091822942,155.511816,0,1.24342523664,21400,2018-06-07 16:53:32,22,0,22.907,5368.6091822942,155.511816,0.447388,1.733841919,0,0,-0.671082,49.6, 2.3, 1.4,0,0,1024,1024,1024,1024,50,-89.9,96,3.811,3.809,3.792,3.829,3.824,3.815,18.303,68,14,Waypoint,
38.6884581,-120.4165582,5369.5934342942,156.496068,0,1.24342523664,21500,2018-06-07 16:53:32,22,0,22.907,5369.5934342942,156.496068,0.447388,1.733841919,0,0,-0.671082,49.5, 2.1, 1.2,0,0,1024,1024,1024,1024,50,-90,96,3.811,3.809,3.792,3.829,3.824,3.815,18.303,68,14,Waypoint,
38.688458,-120.4165582,5370.5776862942,157.48032,0,1.20703087852,21600,2018-06-07 16:53:32,22,0,22.907,5370.5776862942,157.48032,0.447388,1.733841919,0,0,-0.671082,49.5, 2, 1.1,0,0,1024,1024,1024,1024,50,-89.9,96,3.811,3.809,3.792,3.829,3.824,3.815,18.303,68,14,Waypoint,
38.688458,-120.4165582,5371.8900222942,158.792656,0,1.20703087852,21700,2018-06-07 16:53:33,22,0,22.907,5371.8900222942,158.792656,0.447388,1.733841919,0,0,-0.671082,49.5, 2.2, 1,0,0,1024,1024,1024,1024,50,-89.9,96,3.811,3.809,3.792,3.829,3.824,3.815,18.303,68,14,Waypoint,
38.688458,-120.4165582,5372.5461902942,159.448824,0,1.20703087852,21800,2018-06-07 16:53:33,22,0,22.907,5372.5461902942,159.448824,0.447388,1.733841919,0,0,-0.671082,49.7, 2.3, 1,0,0,1024,1024,1024,1024,50,-89.9,96,3.811,3.809,3.792,3.829,3.824,3.815,18.303,68,14,Waypoint,
38.688458,-120.4165581,5373.5304422942,160.433076,0,1.20535108844,21900,2018-06-07 16:53:33,22,0,22.907,5373.5304422942,160.433076,0.447388,1.733841919,0,0,-0.671082,49.8, 2.5, 0.8,0,0,1024,1024,1024,1024,50,-89.9,96,3.811,3.809,3.792,3.829,3.824,3.815,18.303,68,14,Waypoint,
38.688458,-120.4165581,5375.4989462942,162.40158,0,1.20535108844,22100,2018-06-07 16:53:33,22,0,22.907,5375.4989462942,162.40158,0.447388,1.733841919,0,0,-0.671082,50, 2.2, 0.7,0,0,1024,1024,1024,1024,50,-89.9,96,3.811,3.809,3.792,3.829,3.824,3.815,18.303,68,14,Waypoint,
38.688458,-120.4165581,5377.4674502942,164.370084,0,1.20535108844,22200,2018-06-07 16:53:33,22,0,22.907,5377.4674502942,164.370084,0.447388,1.733841919,0,0,-0.671082,50.2, 2.1, 0.7,0,0,1024,1024,1024,1024,50,-90,96,3.811,3.809,3.792,3.829,3.824,3.815,18.303,68,14,Waypoint,
38.688458,-120.416558,5379.4359542942,166.338588,0,1.20434058972,22400,2018-06-07 16:53:33,22,0,22.907,5379.4359542942,166.338588,0.447388,1.733841919,0,0,-0.671082,50.3, 2.7, 1,0,0,1024,1024,1024,1024,50,-89.9,96,3.811,3.809,3.792,3.829,3.824,3.815,18.303,68,14,Waypoint,
38.688458,-120.416558,5381.7325422942,168.635176,0,1.20434058972,22600,2018-06-07 16:53:33,22,0,22.907,5381.7325422942,168.635176,0.447388,1.733841919,0,0,-0.671082,50.3, 2.9, 1,0,0,1024,1024,1024,1024,50,-89.9,96,3.811,3.809,3.792,3.829,3.824,3.815,18.303,68,14,Waypoint,
38.688458,-120.416558,5383.7010462942,170.60368,0,1.20434058972,22800,2018-06-07 16:53:34,22,0,22.907,5383.7010462942,170.60368,0.447388,1.733841919,0,0,-0.671082,50.2, 2.8, 1.1,0,0,1024,1024,1024,1024,50,-89.9,96,3.811,3.809,3.792,3.829,3.824,3.815,18.303,68,14,Waypoint,
38.688458,-120.416558,5384.6852982942,171.587932,0,1.20434058972,22900,2018-06-07 16:53:34,22,0,22.907,5384.6852982942,171.587932,0.447388,1.733841919,0,0,-0.671082,50, 2.7, 1.1,0,0,1024,1024,1024,1024,50,-89.9,96,3.811,3.809,3.792,3.829,3.824,3.815,18.303,68,14,Waypoint,
38.6884579,-120.416558,5385.3414662942,172.2441,0,1.1678642106,23000,2018-06-07 16:53:34,22,0,22.838,5385.3414662942,172.2441,0.447388,1.733841919,0,0,-0.671082,49.9, 2.5, 1.2,0,0,1024,1024,1024,1024,50,-89.9,95,3.799,3.803,3.777,3.824,3.822,3.81,18.13,68,14,Waypoint,
38.6884579,-120.416558,5386.3257182942,173.228352,0,1.1678642106,23100,2018-06-07 16:53:34,22,0,22.838,5386.3257182942,173.228352,0.447388,1.733841919,0,0,-0.671082,49.7, 2.4, 1.4,0,0,1024,1024,1024,1024,50,-89.9,95,3.799,3.803,3.777,3.824,3.822,3.81,18.13,68,14,Waypoint,
38.6884579,-120.4165581,5387.3099702942,174.212604,0,1.16890751772,23200,2018-06-07 16:53:34,22,0,22.838,5387.3099702942,174.212604,0.447388,1.733841919,0,0,-0.671082,49.6, 2.3, 1.2,0,0,1024,1024,1024,1024,50,-90,95,3.799,3.803,3.777,3.824,3.822,3.81,18.13,68,14,Waypoint,
38.6884579,-120.4165581,5388.2942222942,175.196856,0,1.16890751772,23300,2018-06-07 16:53:34,22,0,22.838,5388.2942222942,175.196856,0.447388,1.733841919,0,0,-0.671082,49.5, 2.2, 1.2,0,0,1024,1024,1024,1024,50,-90,95,3.799,3.803,3.777,3.824,3.822,3.81,18.13,68,14,Waypoint,
38.6884579,-120.4165581,5389.2784742942,176.181108,0,1.16890751772,23400,2018-06-07 16:53:34,22,0,22.838,5389.2784742942,176.181108,0.447388,1.733841919,0,0,-0.671082,49.5, 2.1, 1.2,0,0,1024,1024,1024,1024,50,-90,95,3.799,3.803,3.777,3.824,3.822,3.81,18.13,68,14,Waypoint,
38.6884578,-120.4165581,5390.2627262942,177.16536,0,1.13246722784,23500,2018-06-07 16:53:34,22,0,22.838,5390.2627262942,177.16536,0.447388,1.733841919,0,0,-0.671082,49.6, 2, 1.2,0,0,1024,1024,1024,1024,50,-90,95,3.799,3.803,3.777,3.824,3.822,3.81,18.13,68,14,Waypoint,
38.6884578,-120.4165581,5391.2469782942,178.149612,0,1.13246722784,23600,2018-06-07 16:53:34,22,0,22.838,5391.2469782942,178.149612,0.447388,1.733841919,0,0,-0.671082,49.7, 2.1, 1.2,0,0,1024,1024,1024,1024,50,-90,95,3.799,3.803,3.777,3.824,3.822,3.81,18.13,68,14,Waypoint,
38.6884578,-120.4165581,5393.2154822942,180.118116,0,1.13246722784,23810,2018-06-07 16:53:35,22,0,22.838,5393.2154822942,180.118116,0.447388,1.733841919,0,0,-0.671082,49.8, 2.2, 1,0,0,1024,1024,1024,1024,50,-89.9,95,3.799,3.803,3.777,3.824,3.822,3.81,18.13,68,14,Waypoint,
38.6884577,-120.4165581,5394.1997342942,181.102368,0,1.0960302188,23910,2018-06-07 16:53:35,22,0,22.838,5394.1997342942,181.102368,0.447388,1.733841919,0,0,-0.671082,49.9, 2.3, 0.8,0,0,1024,1024,1024,1024,50,-89.9,95,3.799,3.803,3.777,3.824,3.822,3.81,18.13,68,14,Waypoint,
38.6884577,-120.4165581,5395.1839862942,182.08662,0,1.0960302188,24100,2018-06-07 16:53:35,22,0,22.838,5395.1839862942,182.08662,0.447388,1.733841919,0,0,-0.671082,49.8, 2.3, 0.8,0,0,1024,1024,1024,1024,50,-89.9,95,3.799,3.803,3.777,3.824,3.822,3.81,18.13,68,14,Waypoint,
38.6884577,-120.4165581,5396.1682382942,183.070872,0,1.0960302188,24200,2018-06-07 16:53:35,22,0,22.838,5396.1682382942,183.070872,0.447388,1.733841919,0,0,-0.671082,49.8, 2.3, 0.8,0,0,1024,1024,1024,1024,50,-89.9,95,3.799,3.803,3.777,3.824,3.822,3.81,18.13,68,14,Waypoint,
38.6884577,-120.4165581,5397.1524902942,184.055124,0,1.0960302188,24300,2018-06-07 16:53:35,22,0,22.838,5397.1524902942,184.055124,0.447388,1.733841919,0,0,-0.671082,49.8, 2.3, 0.6,0,0,1024,1024,1024,1024,50,-89.9,95,3.799,3.803,3.777,3.824,3.822,3.81,18.13,68,14,Waypoint,
38.6884576,-120.4165581,5398.1367422942,185.039376,0,1.0595964906,24400,2018-06-07 16:53:35,22,0,22.838,5398.1367422942,185.039376,0.447388,1.733841919,0,0,-0.671082,49.7, 2.2, 0.5,0,0,1024,1024,1024,1024,50,-89.9,95,3.799,3.803,3.777,3.824,3.822,3.81,18.13,68,14,Waypoint,
38.6884576,-120.4165581,5399.1209942942,186.023628,0,1.0595964906,24500,2018-06-07 16:53:35,22,0,22.838,5399.1209942942,186.023628,0.447388,1.733841919,0,0,-0.671082,49.7, 2.2, 0.6,0,0,1024,1024,1024,1024,50,-89.9,95,3.799,3.803,3.777,3.824,3.822,3.81,18.13,68,14,Waypoint,
38.6884576,-120.4165581,5400.1052462942,187.00788,0,1.0595964906,24600,2018-06-07 16:53:35,22,0,22.838,5400.1052462942,187.00788,0.447388,1.733841919,0,0,-0.671082,49.7, 2.2, 0.7,0,0,1024,1024,1024,1024,50,-89.9,95,3.799,3.803,3.777,3.824,3.822,3.81,18.13,68,14,Waypoint,
38.6884575,-120.4165581,5401.0894982942,187.992132,0,1.02316604324,24700,2018-06-07 16:53:36,22,0,22.838,5401.0894982942,187.992132,0.447388,1.733841919,0,0,-0.671082,49.7, 2.2, 0.9,0,0,1024,1024,1024,1024,50,-89.9,95,3.799,3.803,3.777,3.824,3.822,3.81,18.13,68,14,Waypoint,
38.6884574,-120.416558,5403.0580022942,189.960636,0,0.98550528088,24800,2018-06-07 16:53:36,22,0,22.838,5403.0580022942,189.960636,0.447388,1.733841919,0,0,-0.671082,49.7, 2.3, 0.7,0,0,1024,1024,1024,1024,50,-89.9,95,3.799,3.803,3.777,3.824,3.822,3.81,18.13,68,14,Waypoint,
38.6884574,-120.416558,5404.0422542942,190.944888,0,0.98550528088,24900,2018-06-07 16:53:36,22,0,22.838,5404.0422542942,190.944888,0.447388,1.733841919,0,0,-0.671082,49.8, 2.3, 0.5,0,0,1024,1024,1024,1024,50,-89.9,95,3.799,3.803,3.777,3.824,3.822,3.81,18.13,68,14,Waypoint,
38.6884573,-120.416558,5405.3545902942,192.257224,0,0.94903546344,25000,2018-06-07 16:53:36,22,0,22.721,5405.3545902942,192.257224,0.447388,1.733841919,0,0,-0.671082,49.8, 2.1, 0.2,0,0,1024,1024,1024,1024,50,-90,95,3.801,3.796,3.784,3.824,3.817,3.802,19.17,68,14,Waypoint,
38.6884573,-120.416558,5406.0107582942,192.913392,0,0.94903546344,25100,2018-06-07 16:53:36,22,0,22.721,5406.0107582942,192.913392,0.447388,1.733841919,0,0,-0.671082,49.9, 2, 0,0,0,1024,1024,1024,1024,50,-90,95,3.801,3.796,3.784,3.824,3.817,3.802,19.17,68,14,Waypoint,
38.6884572,-120.416558,5406.9950102942,193.897644,0,0.91256892684,25200,2018-06-07 16:53:36,22,0,22.721,5406.9950102942,193.897644,0.447388,1.733841919,0,0,-0.671082,49.8, 1.9, 0,0,0,1024,1024,1024,1024,50,-90,95,3.801,3.796,3.784,3.824,3.817,3.802,19.17,68,14,Waypoint,
38.6884571,-120.416558,5407.9792622942,194.881896,0,0.87610239024,25300,2018-06-07 16:53:36,22,0,22.721,5407.9792622942,194.881896,0.447388,1.733841919,0,0,-0.671082,49.8, 1.9, 0.1,0,0,1024,1024,1024,1024,50,-90,95,3.801,3.796,3.784,3.824,3.817,3.802,19.17,68,14,Waypoint,
38.6884571,-120.416558,5408.9635142942,195.866148,0,0.87610239024,25400,2018-06-07 16:53:36,22,0,22.721,5408.9635142942,195.866148,0.447388,1.733841919,0,0,-0.671082,49.8, 1.9, 0.2,0,0,1024,1024,1024,1024,50,-90,95,3.801,3.796,3.784,3.824,3.817,3.802,19.17,68,14,Waypoint,
38.6884571,-120.416558,5409.9477662942,196.8504,0,0.87610239024,25500,2018-06-07 16:53:36,22,0,22.721,5409.9477662942,196.8504,0.447388,1.733841919,0,0,-0.671082,49.8, 2.1, 0.3,0,0,1024,1024,1024,1024,50,-89.9,95,3.801,3.796,3.784,3.824,3.817,3.802,19.17,68,14,Waypoint,
38.688457,-120.4165579,5410.9320182942,197.834652,0,0.83915357016,25600,2018-06-07 16:53:36,22,0,22.721,5410.9320182942,197.834652,0.447388,1.733841919,0,0,-0.671082,49.9, 2.1, 0.2,0,0,1024,1024,1024,1024,50,-89.9,95,3.801,3.796,3.784,3.824,3.817,3.802,19.17,68,14,Waypoint,
38.688457,-120.4165579,5412.9005222942,199.803156,0,0.83915357016,25800,2018-06-07 16:53:37,22,0,22.721,5412.9005222942,199.803156,0.447388,1.733841919,0,0,-0.671082,49.9, 2.2, 0.4,0,0,1024,1024,1024,1024,50,-89.9,95,3.801,3.796,3.784,3.824,3.817,3.802,19.17,68,14,Waypoint,
38.6884569,-120.416558,5415.8532782942,202.755912,0,0.80317259788,26200,2018-06-07 16:53:37,22,0,22.721,5415.8532782942,202.755912,0.447388,1.733841919,0,0,-0.671082,49.8, 1.9, 0.7,0,0,1024,1024,1024,1024,50,-90,95,3.801,3.796,3.784,3.824,3.817,3.802,19.17,68,14,Waypoint,
38.6884569,-120.416558,5416.8375302942,203.740164,0,0.80317259788,26300,2018-06-07 16:53:37,22,0,22.721,5416.8375302942,203.740164,0.447388,1.733841919,0,0,-0.671082,49.8, 1.9, 0.7,0,0,1024,1024,1024,1024,50,-90,95,3.801,3.796,3.784,3.824,3.817,3.802,19.17,68,14,Waypoint,
38.6884569,-120.416558,5417.8217822942,204.724416,0,0.80317259788,26400,2018-06-07 16:53:37,22,0,22.721,5417.8217822942,204.724416,0.447388,1.733841919,0,0,-0.671082,49.8, 1.9, 0.6,0,0,1024,1024,1024,1024,50,-89.9,95,3.801,3.796,3.784,3.824,3.817,3.802,19.17,68,14,Waypoint,
38.6884568,-120.416558,5418.8060342942,205.708668,0,0.76671262296,26500,2018-06-07 16:53:37,22,0,22.721,5418.8060342942,205.708668,0.447388,1.733841919,0,0,-0.671082,49.8, 1.9, 0.6,0,0,1024,1024,1024,1024,50,-90,95,3.801,3.796,3.784,3.824,3.817,3.802,19.17,68,14,Waypoint,
38.6884568,-120.416558,5420.7745382942,207.677172,0,0.76671262296,26600,2018-06-07 16:53:37,22,0,22.721,5420.7745382942,207.677172,0.447388,1.733841919,0,0,-0.671082,49.9, 2.2, 0.6,0,0,1024,1024,1024,1024,50,-89.9,95,3.801,3.796,3.784,3.824,3.817,3.802,19.17,68,14,Waypoint,
38.6884568,-120.416558,5422.7430422942,209.645676,0,0.76671262296,26800,2018-06-07 16:53:38,22,0,22.721,5422.7430422942,209.645676,0.447388,1.733841919,0,0,-0.671082,49.9, 2.2, 0.7,0,0,1024,1024,1024,1024,50,-89.9,95,3.801,3.796,3.784,3.824,3.817,3.802,19.17,68,14,Waypoint,
38.6884567,-120.416558,5423.7272942942,210.629928,0,0.73025592888,26900,2018-06-07 16:53:38,22,0,22.721,5423.7272942942,210.629928,0.447388,1.733841919,0,0,-0.671082,49.8, 2.1, 0.5,0,0,1024,1024,1024,1024,50,-89.9,95,3.801,3.796,3.784,3.824,3.817,3.802,19.17,68,14,Waypoint,
38.6884567,-120.416558,5424.7115462942,211.61418,0,0.73025592888,27000,2018-06-07 16:53:38,22,0,22.682,5424.7115462942,211.61418,0.447388,1.733841919,0,0,-0.671082,49.8, 2, 0.5,0,0,1024,1024,1024,1024,50,-89.9,95,3.782,3.787,3.761,3.805,3.799,3.792,18.942,68,14,Waypoint,
38.6884567,-120.416558,5425.6957982942,212.598432,0,0.73025592888,27100,2018-06-07 16:53:38,22,0,22.682,5425.6957982942,212.598432,0.447388,1.733841919,0,0,-0.671082,49.7, 1.9, 0.4,0,0,1024,1024,1024,1024,50,-90,95,3.782,3.787,3.761,3.805,3.799,3.792,18.942,68,14,Waypoint,
38.6884567,-120.416558,5426.6800502942,213.582684,0,0.73025592888,27200,2018-06-07 16:53:38,22,0,22.682,5426.6800502942,213.582684,0.447388,1.733841919,0,0,-0.671082,49.6, 1.9, 0.5,0,0,1024,1024,1024,1024,50,-89.9,95,3.782,3.787,3.761,3.805,3.799,3.792,18.942,68,14,Waypoint,
38.6884567,-120.416558,5427.6643022942,214.566936,0,0.73025592888,27300,2018-06-07 16:53:38,22,0,22.682,5427.6643022942,214.566936,0.447388,1.733841919,0,0,-0.671082,49.5, 2, 0.7,0,0,1024,1024,1024,1024,50,-89.9,95,3.782,3.787,3.761,3.805,3.799,3.792,18.942,68,14,Waypoint,
38.6884567,-120.4165581,5428.6485542942,215.551188,0,0.73191931476,27420,2018-06-07 16:53:38,22,0,22.682,5428.6485542942,215.551188,0.447388,1.733841919,0,0,-0.671082,49.5, 2.2, 0.8,0,0,1024,1024,1024,1024,50,-89.9,95,3.782,3.787,3.761,3.805,3.799,3.792,18.942,68,14,Waypoint,
38.6884567,-120.4165581,5428.6485542942,215.551188,0,0.73191931476,27500,2018-06-07 16:53:38,22,0,22.682,5428.6485542942,215.551188,0.447388,1.733841919,0,0,-0.671082,49.5, 2.2, 0.8,0,0,1024,1024,1024,1024,50,-89.9,95,3.782,3.787,3.761,3.805,3.799,3.792,18.942,68,14,Waypoint,
38.6884568,-120.4165581,5430.6170582942,217.519692,0,0.76829726868,27600,2018-06-07 16:53:38,22,0,22.682,5430.6170582942,217.519692,0.447388,1.733841919,0,0,-0.671082,49.7, 2.4, 1.2,0,0,1024,1024,1024,1024,50,-89.9,95,3.782,3.787,3.761,3.805,3.799,3.792,18.942,68,14,Waypoint,
38.6884568,-120.4165582,5432.5855622942,219.488196,0,0.7709317832,27810,2018-06-07 16:53:39,22,0,22.682,5432.5855622942,219.488196,0.447388,1.733841919,0,0,-0.671082,50.1, 2, 1,0,0,1024,1024,1024,1024,50,-90,95,3.782,3.787,3.761,3.805,3.799,3.792,18.942,68,14,Waypoint,
38.6884568,-120.4165582,5433.8978982942,220.800532,0,0.7709317832,28000,2018-06-07 16:53:39,22,0,22.682,5433.8978982942,220.800532,0.447388,1.733841919,0,0,-0.671082,50.2, 2, 1,0,0,1024,1024,1024,1024,50,-89.9,95,3.775,3.778,3.76,3.801,3.787,3.781,18.942,69.8,14,Waypoint,
38.6884568,-120.4165582,5434.8821502942,221.784784,0,0.7709317832,28100,2018-06-07 16:53:39,22,0,22.682,5434.8821502942,221.784784,0.447388,1.733841919,0,0,-0.671082,50.3, 2.1, 1.1,0,0,1024,1024,1024,1024,50,-89.9,95,3.775,3.778,3.76,3.801,3.787,3.781,18.942,69.8,14,Waypoint,
38.6884569,-120.4165583,5435.8664022942,222.769036,0,0.8107119682,28200,2018-06-07 16:53:39,22,0,22.682,5435.8664022942,222.769036,0.447388,1.733841919,0,0,-0.671082,50.3, 2.2, 1.3,0,0,1024,1024,1024,1024,50,-89.9,95,3.775,3.778,3.76,3.801,3.787,3.781,18.942,69.8,14,Waypoint,
38.6884569,-120.4165583,5436.8506542942,223.753288,0,0.8107119682,28300,2018-06-07 16:53:39,22,0,22.682,5436.8506542942,223.753288,0.447388,1.733841919,0,0,-0.671082,50.3, 2.3, 1.4,0,0,1024,1024,1024,1024,50,-89.9,95,3.775,3.778,3.76,3.801,3.787,3.781,18.942,69.8,14,Waypoint,
38.6884569,-120.4165583,5437.8349062942,224.73754,0,0.8107119682,28400,2018-06-07 16:53:39,22,0,22.682,5437.8349062942,224.73754,0.447388,1.733841919,0,0,-0.671082,50.3, 2.3, 1.5,0,0,1024,1024,1024,1024,50,-89.9,95,3.775,3.778,3.76,3.801,3.787,3.781,18.942,69.8,14,Waypoint,
38.688457,-120.4165583,5438.8191582942,225.721792,0,0.8468504208,28500,2018-06-07 16:53:39,22,0,22.682,5438.8191582942,225.721792,0.447388,1.733841919,0,0,-0.671082,50.2, 2.4, 1.5,0,0,1024,1024,1024,1024,50,-89.9,95,3.775,3.778,3.76,3.801,3.787,3.781,18.942,69.8,14,Waypoint,
38.688457,-120.4165584,5439.8034102942,226.706044,0,0.8511483212,28610,2018-06-07 16:53:39,22,0,22.682,5439.8034102942,226.706044,0.447388,1.733841919,0,0,-0.671082,50.1, 2.5, 1.6,0,0,1024,1024,1024,1024,50,-89.9,95,3.775,3.778,3.76,3.801,3.787,3.781,18.942,69.8,14,Waypoint,
38.6884571,-120.4165584,5441.7719142942,228.674548,0,0.887139136,28700,2018-06-07 16:53:40,22,0,22.682,5441.7719142942,228.674548,0.447388,1.733841919,0,0,-0.671082,50.1, 2.5, 1.5,0,0,1024,1024,1024,1024,50,-89.9,95,3.775,3.778,3.76,3.801,3.787,3.781,18.942,69.8,14,Waypoint,
38.6884571,-120.4165585,5442.7561662942,229.6588,0,0.89215554036,28800,2018-06-07 16:53:40,22,0,22.682,5442.7561662942,229.6588,0.447388,1.733841919,0,0,-0.671082,50.1, 2.5, 1.4,0,0,1024,1024,1024,1024,50,-89.9,95,3.775,3.778,3.76,3.801,3.787,3.781,18.942,69.8,14,Waypoint,
