latitude,longitude,altitude(feet),ascent(feet),speed(mph),distance(feet),time(millisecond),datetime(utc),satellites,gpslevel,voltage(v),max_altitude(feet),max_ascent(feet),max_speed(mph),max_distance(feet), xSpeed(mph), ySpeed(mph), zSpeed(mph), compass_heading(degrees), pitch(degrees), roll(degrees),isPhoto,isVideo,rc_elevator,rc_aileron,rc_throttle,rc_rudder,gimbal_heading(degrees),gimbal_pitch(degrees),battery_percent,voltageCell1,voltageCell2,voltageCell3,voltageCell4,voltageCell5,voltageCell6,current(A),battery_temperature(f),flycStateRaw,flycState,message
38.5387368,-120.5236241,3705.1569003892,0,0,0,3140,2018-06-20 17:32:35,14,0,0,3705.1569003892,0,0,0,0,0,0,27.6, 1.5, 2.1,1,0,1024,1024,1024,1024,26.8,-89.9,98,4.166,4.159,4.184,4.216,4.215,4.109,0,68,11,AutoTakeoff,DJI_0396.jpg Starting Mission from Lat/Long: 38.53874/-120.52362 Camera: Zenmuse X3 - Overlap: 90/90 - Active Connection: No
38.5387366,-120.5236239,3705.4849843892,0.328084,0.223694,0.092640750996,3300,2018-06-20 17:32:35,14,0,0,3705.4849843892,0.328084,0.223694,0.092640750996,0,0,0,28, 0.6, 0.9,0,0,1024,1024,1024,1024,26.8,-89.9,98,4.166,4.159,4.184,4.216,4.215,4.109,0,68,11,AutoTakeoff,
38.5387366,-120.5236237,3705.4849843892,0.328084,0.223694,0.135481959716,3400,2018-06-20 17:32:35,14,0,0,3705.4849843892,0.328084,0.223694,0.135481959716,0,0,0,28, 0.3, -0.1,0,0,1024,1024,1024,1024,26.8,-89.9,98,4.166,4.159,4.184,4.216,4.215,4.109,0,68,11,AutoTakeoff,
38.5387365,-120.5236235,3705.4849843892,0.328084,0.223694,0.203222775532,3600,2018-06-20 17:32:35,13,0,0,3705.4849843892,0.328084,0.223694,0.203222775532,0,0,0,28, 0, -1.1,0,0,1024,1024,1024,1024,26.8,-90,98,4.166,4.159,4.184,4.216,4.215,4.109,0,68,11,AutoTakeoff,
38.5387364,-120.5236234,3705.8130683892,0.656168,0.223694,0.247396333376,3700,2018-06-20 17:32:35,13,0,0,3705.8130683892,0.656168,0.223694,0.247396333376,0,0,0,27.8, 0, -1.7,0,0,1024,1024,1024,1024,26.8,-90,98,4.166,4.159,4.184,4.216,4.215,4.109,0,68,11,AutoTakeoff,
38.5387363,-120.5236232,3705.8130683892,0.656168,0.223694,0.315034786984,3800,2018-06-20 17:32:35,12,0,0,3705.8130683892,0.656168,0.223694,0.315034786984,0,0,0,27.5, 0.2, -1.9,0,0,1024,1024,1024,1024,26.8,-89.9,98,4.166,4.159,4.184,4.216,4.215,4.109,0,68,11,AutoTakeoff,
38.5387363,-120.5236231,3706.1411523892,0.984252,0.223694,0.33870407908,3900,2018-06-20 17:32:36,12,0,0,3706.1411523892,0.984252,0.223694,0.33870407908,0,0,0,27.2, 0.2, -1.5,0,0,1024,1024,1024,1024,26.8,-89.9,98,4.166,4.159,4.184,4.216,4.215,4.109,0,68,11,AutoTakeoff,
38.5387362,-120.523623,3706.1411523892,0.984252,0.223694,0.382709986,4000,2018-06-20 17:32:36,14,0,25.353,3706.1411523892,0.984252,0.223694,0.382709986,0,0,0,27.1, 0.3, -1.3,0,0,1024,1024,1024,1024,26.8,-89.9,98,4.166,4.159,4.184,4.216,4.215,4.109,4.334,68,11,AutoTakeoff,
38.5387363,-120.5236229,3706.4692363892,1.312336,0.223694,0.38801510428,4100,2018-06-20 17:32:36,14,0,25.353,3706.4692363892,1.312336,0.223694,0.38801510428,0,0,0,27, 0.5, -1.3,0,0,1024,1024,1024,1024,26.8,-89.9,98,4.166,4.159,4.184,4.216,4.215,4.109,4.334,68,11,AutoTakeoff,
38.5387363,-120.5236228,3706.4692363892,1.312336,0.223694,0.4134186484,4200,2018-06-20 17:32:36,13,0,25.353,3706.4692363892,1.312336,0.223694,0.4134186484,0,0,0,27, 0.7, -1.1,0,0,1024,1024,1024,1024,26.8,-89.9,98,4.166,4.159,4.184,4.216,4.215,4.109,4.334,68,11,AutoTakeoff,
38.5387364,-120.5236227,3706.7973203892,1.64042,0,0.42535106348,4300,2018-06-20 17:32:36,13,0,25.353,3706.7973203892,1.64042,0.223694,0.42535106348,0,0,-0.223694,27, 0.8, -1.1,0,0,1024,1024,1024,1024,26.8,-89.9,98,4.166,4.159,4.184,4.216,4.215,4.109,4.334,68,11,AutoTakeoff,
38.5387364,-120.5236226,3706.7973203892,1.64042,0,0.452263794,4400,2018-06-20 17:32:36,12,0,25.353,3706.7973203892,1.64042,0.223694,0.452263794,0,0,-0.223694,27, 1, -1.1,0,0,1024,1024,1024,1024,26.8,-89.9,98,4.166,4.159,4.184,4.216,4.215,4.109,4.334,68,11,AutoTakeoff,
38.5387364,-120.5236225,3707.1254043892,1.968504,0,0.4793635324,4500,2018-06-20 17:32:36,12,0,25.353,3707.1254043892,1.968504,0.223694,0.4793635324,0,0,-0.223694,27.1, 1.1, -1,0,0,1024,1024,1024,1024,26.8,-89.9,98,4.166,4.159,4.184,4.216,4.215,4.109,4.334,68,11,AutoTakeoff,
38.5387364,-120.5236224,3707.1254043892,1.968504,0,0.50662075112,4600,2018-06-20 17:32:36,13,0,25.353,3707.1254043892,1.968504,0.223694,0.50662075112,0,0,-0.223694,27.1, 1.2, -1,0,0,1024,1024,1024,1024,26.8,-89.9,98,4.166,4.159,4.184,4.216,4.215,4.109,4.334,68,11,AutoTakeoff,
38.5387364,-120.5236224,3707.4534883892,2.296588,0,0.50662075112,4700,2018-06-20 17:32:36,13,0,25.353,3707.4534883892,2.296588,0.223694,0.50662075112,0,0,-0.223694,27.2, 1.2, -1,0,0,1024,1024,1024,1024,26.8,-89.9,98,4.166,4.159,4.184,4.216,4.215,4.109,4.334,68,11,AutoTakeoff,
38.5387365,-120.5236223,3707.7815723892,2.624672,0,0.52521655224,4800,2018-06-20 17:32:36,13,0,25.353,3707.7815723892,2.624672,0.223694,0.52521655224,0,0,-0.223694,27.2, 1.3, -1,0,0,1024,1024,1024,1024,26.8,-89.9,98,4.166,4.159,4.184,4.216,4.215,4.109,4.334,68,11,AutoTakeoff,
38.5387365,-120.5236222,3707.7815723892,2.624672,0,0.55315946652,4900,2018-06-20 17:32:37,13,0,25.353,3707.7815723892,2.624672,0.223694,0.55315946652,0,0,-0.223694,27.3, 1.3, -1,0,0,1024,1024,1024,1024,26.8,-89.9,98,4.166,4.159,4.184,4.216,4.215,4.109,4.334,68,11,AutoTakeoff,
38.5387365,-120.523622,3708.1096563892,2.952756,0,0.60921261792,5000,2018-06-20 17:32:37,14,0,24.125,3708.1096563892,2.952756,0.223694,0.60921261792,0,0,0,27.4, 1.6, -1.1,0,0,1024,1024,1024,1024,26.8,-89.9,98,3.936,3.97,3.951,4.016,4.002,3.962,14.108,68,14,Waypoint,
38.5387366,-120.5236219,3708.4377403892,3.28084,0,0.63206366852,5100,2018-06-20 17:32:37,14,0,24.125,3708.4377403892,3.28084,0.223694,0.63206366852,0,0,0,27.4, 1.7, -0.7,0,0,1024,1024,1024,1024,26.8,-89.9,98,3.936,3.97,3.951,4.016,4.002,3.962,14.108,68,14,Waypoint,
38.5387367,-120.5236219,3708.7658243892,3.608924,0,0.62889765792,5300,2018-06-20 17:32:37,14,0,24.125,3708.7658243892,3.608924,0.223694,0.63206366852,0,0,0,27.5, 1.6, -0.2,0,0,1024,1024,1024,1024,26.8,-89.9,98,3.936,3.97,3.951,4.016,4.002,3.962,14.108,68,14,Waypoint,
38.5387368,-120.5236219,3708.7658243892,3.608924,0,0.6278379466,5400,2018-06-20 17:32:37,14,0,24.125,3708.7658243892,3.608924,0.223694,0.63206366852,0,0,0,27.6, 1.5, -0.1,0,0,1024,1024,1024,1024,26.8,-89.9,98,3.936,3.97,3.951,4.016,4.002,3.962,14.108,68,14,Waypoint,
38.5387369,-120.5236218,3709.0939083892,3.937008,0,0.65738847248,5500,2018-06-20 17:32:37,14,0,24.125,3709.0939083892,3.937008,0.223694,0.65738847248,0,0,-0.223694,27.6, 1.5, 0,0,0,1024,1024,1024,1024,26.8,-89.9,98,3.936,3.97,3.951,4.016,4.002,3.962,14.108,68,14,Waypoint,
38.5387369,-120.5236218,3709.0939083892,3.937008,0,0.65738847248,5600,2018-06-20 17:32:37,14,0,24.125,3709.0939083892,3.937008,0.223694,0.65738847248,0,0,-0.223694,27.6, 1.5, -0.2,0,0,1024,1024,1024,1024,26.8,-89.9,98,3.936,3.97,3.951,4.016,4.002,3.962,14.108,68,14,Waypoint,
38.538737,-120.5236217,3709.4219923892,4.265092,0,0.68878939212,5700,2018-06-20 17:32:37,14,0,24.125,3709.4219923892,4.265092,0.223694,0.68878939212,0,0,-0.223694,27.6, 1.5, -0.3,0,0,1024,1024,1024,1024,26.8,-89.9,98,3.936,3.97,3.951,4.016,4.002,3.962,14.108,68,14,Waypoint,
38.538737,-120.5236217,3709.7500763892,4.593176,0,0.68878939212,5800,2018-06-20 17:32:37,14,0,24.125,3709.7500763892,4.593176,0.223694,0.68878939212,0,0,-0.223694,27.7, 1.5, -0.4,0,0,1024,1024,1024,1024,26.8,-89.9,98,3.936,3.97,3.951,4.016,4.002,3.962,14.108,68,14,Waypoint,
38.538737,-120.5236216,3710.4062443892,5.249344,0,0.71717193896,5900,2018-06-20 17:32:38,15,0,24.125,3710.4062443892,5.249344,0.223694,0.71717193896,0,0,-0.223694,27.7, 1.4, -0.5,0,0,1024,1024,1024,1024,26.8,-89.9,98,3.936,3.97,3.951,4.016,4.002,3.962,14.108,68,14,Waypoint,
38.538737,-120.5236217,3710.7343283892,5.577428,0,0.68878939212,6000,2018-06-20 17:32:38,15,0,23.625,3710.7343283892,5.577428,0.223694,0.71717193896,0,0,-0.447388,27.7, 1.3, -0.5,0,0,1024,1024,1024,1024,26.8,-89.9,98,3.923,3.92,3.925,3.972,3.97,3.928,17.05,68,14,Waypoint,
38.538737,-120.5236217,3711.3904963892,6.233596,0,0.68878939212,6200,2018-06-20 17:32:38,14,0,23.625,3711.3904963892,6.233596,0.223694,0.71717193896,0,0,-0.447388,27.7, 1.2, -0.4,0,0,1024,1024,1024,1024,26.8,-90,98,3.923,3.92,3.925,3.972,3.97,3.928,17.05,68,14,Waypoint,
38.538737,-120.5236217,3711.7185803892,6.56168,0,0.68878939212,6300,2018-06-20 17:32:38,14,0,23.625,3711.7185803892,6.56168,0.223694,0.71717193896,0,0,-0.447388,27.8, 1.1, -0.3,0,0,1024,1024,1024,1024,26.8,-90,98,3.923,3.92,3.925,3.972,3.97,3.928,17.05,68,14,Waypoint,
38.5387369,-120.5236218,3712.3747483892,7.217848,0,0.65738847248,6400,2018-06-20 17:32:38,13,0,23.625,3712.3747483892,7.217848,0.223694,0.71717193896,0,0,-0.447388,27.9, 0.8, -0.3,0,0,1024,1024,1024,1024,26.8,-90,98,3.923,3.92,3.925,3.972,3.97,3.928,17.05,68,14,Waypoint,
38.5387368,-120.5236218,3713.3590003892,8.2021,0,0.65637469292,6500,2018-06-20 17:32:38,13,0,23.625,3713.3590003892,8.2021,0.223694,0.71717193896,0,0,-0.447388,27.9, 0.6, -0.1,0,0,1024,1024,1024,1024,26.8,-90,98,3.923,3.92,3.925,3.972,3.97,3.928,17.05,68,14,Waypoint,
38.5387367,-120.5236219,3714.0151683892,8.858268,0,0.62889765792,6600,2018-06-20 17:32:38,16,0,23.625,3714.0151683892,8.858268,0.223694,0.71717193896,0,0,-0.671082,27.9, 0.5, -0.1,0,0,1024,1024,1024,1024,26.8,-90,98,3.923,3.92,3.925,3.972,3.97,3.928,17.05,68,14,Waypoint,
38.5387366,-120.523622,3714.9994203892,9.84252,0,0.6037237726,6700,2018-06-20 17:32:38,16,0,23.625,3714.9994203892,9.84252,0.223694,0.71717193896,0,0,-0.671082,27.7, 0.3, 0,0,0,1024,1024,1024,1024,26.8,-90,98,3.923,3.92,3.925,3.972,3.97,3.928,17.05,68,14,Waypoint,
38.5387365,-120.5236221,3715.9836723892,10.826772,0,0.58116143592,6800,2018-06-20 17:32:38,14,0,23.625,3715.9836723892,10.826772,0.223694,0.71717193896,0,0,-0.671082,27.5, 0, 0,0,0,1024,1024,1024,1024,26.8,-90,98,3.923,3.92,3.925,3.972,3.97,3.928,17.05,68,14,Waypoint,
38.5387364,-120.5236222,3716.9679243892,11.811024,0,0.56151904684,6900,2018-06-20 17:32:39,14,0,23.625,3716.9679243892,11.811024,0.223694,0.71717193896,0,0,-0.671082,27.3, 0, 0.2,0,0,1024,1024,1024,1024,26.8,-90,98,3.923,3.92,3.925,3.972,3.97,3.928,17.05,68,14,Waypoint,
38.5387363,-120.5236222,3718.2802603892,13.12336,0,0.57208663248,7000,2018-06-20 17:32:39,13,0,23.58,3718.2802603892,13.12336,0.223694,0.71717193896,0,0,-0.671082,27.2, 0, 0.2,0,0,1024,1024,1024,1024,26.8,-90,98,3.896,3.881,3.884,3.923,3.906,3.883,16.219,68,14,Waypoint,
38.5387362,-120.5236222,3719.2645123892,14.107612,0,0.5847441132,7100,2018-06-20 17:32:39,13,0,23.58,3719.2645123892,14.107612,0.223694,0.71717193896,0,0,-0.671082,27.2, -0.1, 0.1,0,0,1024,1024,1024,1024,26.8,-90,98,3.896,3.881,3.884,3.923,3.906,3.883,16.219,68,14,Waypoint,
38.538736,-120.5236223,3721.5611003892,16.4042,0,0.59081694804,7200,2018-06-20 17:32:39,15,0,23.58,3721.5611003892,16.4042,0.223694,0.71717193896,0,0,-0.671082,27.1, -0.5, 0,0,0,1024,1024,1024,1024,26.8,-90,98,3.896,3.881,3.884,3.923,3.906,3.883,16.219,68,14,Waypoint,
38.5387359,-120.5236223,3722.5453523892,17.388452,0,0.60966865468,7300,2018-06-20 17:32:39,15,0,23.58,3722.5453523892,17.388452,0.223694,0.71717193896,0,0,-0.671082,27, -0.3, -0.1,0,0,1024,1024,1024,1024,26.8,-89.9,98,3.896,3.881,3.884,3.923,3.906,3.883,16.219,68,14,Waypoint,
38.538736,-120.5236223,3723.5296043892,18.372704,0,0.59081694804,7400,2018-06-20 17:32:39,15,0,23.58,3723.5296043892,18.372704,0.223694,0.71717193896,0,0,-0.671082,27.1, 0, -0.4,0,0,1024,1024,1024,1024,26.8,-89.9,98,3.896,3.881,3.884,3.923,3.906,3.883,16.219,68,14,Waypoint,
38.5387361,-120.5236223,3724.5138563892,19.356956,0,0.5736712782,7500,2018-06-20 17:32:39,15,0,23.58,3724.5138563892,19.356956,0.223694,0.71717193896,0,0,-0.671082,27.3, 0.4, -0.4,0,0,1024,1024,1024,1024,26.8,-89.9,98,3.896,3.881,3.884,3.923,3.906,3.883,16.219,68,14,Waypoint,
38.5387362,-120.5236222,3725.4981083892,20.341208,0,0.5847441132,7600,2018-06-20 17:32:39,15,0,23.58,3725.4981083892,20.341208,0.223694,0.71717193896,0,0,-0.671082,27.5, 0.9, -0.2,0,0,1024,1024,1024,1024,26.8,-89.9,98,3.896,3.881,3.884,3.923,3.906,3.883,16.219,68,14,Waypoint,
38.5387364,-120.5236222,3726.8104443892,21.653544,0.223694,0.56151904684,7700,2018-06-20 17:32:39,15,0,23.58,3726.8104443892,21.653544,0.223694,0.71717193896,0,0,-0.671082,27.7, 1.3, 0,0,0,1024,1024,1024,1024,26.8,-89.9,98,3.896,3.881,3.884,3.923,3.906,3.883,16.219,68,14,Waypoint,
38.5387365,-120.5236222,3727.7946963892,22.637796,0.223694,0.55315946652,7800,2018-06-20 17:32:39,15,0,23.58,3727.7946963892,22.637796,0.223694,0.71717193896,0,0,-0.671082,27.8, 1.7, 0.2,0,0,1024,1024,1024,1024,26.8,-89.9,98,3.896,3.881,3.884,3.923,3.906,3.883,16.219,68,14,Waypoint,
38.5387367,-120.5236222,3728.7789483892,23.622048,0.223694,0.54344818012,8000,2018-06-20 17:32:40,15,0,22.765,3728.7789483892,23.622048,0.223694,0.71717193896,0,0,-0.671082,27.8, 2, 0.4,0,0,1024,1024,1024,1024,26.8,-89.9,98,3.775,3.773,3.78,3.844,3.828,3.787,25.052,68,14,Waypoint,
38.5387369,-120.5236222,3730.0912843892,24.934384,0.223694,0.54344818012,8100,2018-06-20 17:32:40,15,0,22.765,3730.0912843892,24.934384,0.223694,0.71717193896,0,0,-0.671082,27.8, 2.1, 0.5,0,0,1024,1024,1024,1024,26.8,-89.9,98,3.775,3.773,3.78,3.844,3.828,3.787,25.052,68,14,Waypoint,
38.5387371,-120.5236222,3731.0755363892,25.918636,0.223694,0.55315946652,8200,2018-06-20 17:32:40,16,0,22.765,3731.0755363892,25.918636,0.223694,0.71717193896,0,0,-0.671082,27.7, 2, 0.6,0,0,1024,1024,1024,1024,26.8,-89.9,98,3.775,3.773,3.78,3.844,3.828,3.787,25.052,68,14,Waypoint,
38.5387372,-120.5236221,3732.0597883892,26.902888,0,0.5891240346,8300,2018-06-20 17:32:40,16,0,22.765,3732.0597883892,26.902888,0.223694,0.71717193896,0,0,-0.671082,27.6, 2, 0.8,0,0,1024,1024,1024,1024,26.8,-89.9,98,3.775,3.773,3.78,3.844,3.828,3.787,25.052,68,14,Waypoint,
38.5387374,-120.5236221,3733.0440403892,27.88714,0,0.611302513,8400,2018-06-20 17:32:40,16,0,22.765,3733.0440403892,27.88714,0.223694,0.71717193896,0,0,-0.671082,27.6, 2, 1,0,0,1024,1024,1024,1024,26.8,-89.9,98,3.775,3.773,3.78,3.844,3.828,3.787,25.052,68,14,Waypoint,
38.5387376,-120.5236221,3734.3563763892,29.199476,0,0.64106301264,8500,2018-06-20 17:32:40,16,0,22.765,3734.3563763892,29.199476,0.223694,0.71717193896,0,0,-0.671082,27.6, 1.9, 1.1,0,0,1024,1024,1024,1024,26.8,-89.9,98,3.775,3.773,3.78,3.844,3.828,3.787,25.052,68,14,Waypoint,
38.5387378,-120.5236221,3735.3406283892,30.183728,0,0.67740815816,8600,2018-06-20 17:32:40,16,0,22.765,3735.3406283892,30.183728,0.223694,0.71717193896,0,0,-0.671082,27.5, 2, 1.2,0,0,1024,1024,1024,1024,26.8,-89.9,98,3.775,3.773,3.78,3.844,3.828,3.787,25.052,68,14,Waypoint,
38.538738,-120.5236221,3736.6529643892,31.496064,0,0.71934385504,8700,2018-06-20 17:32:40,16,0,22.765,3736.6529643892,31.496064,0.223694,0.71934385504,0,0,-0.671082,27.4, 2.2, 1.2,0,0,1024,1024,1024,1024,26.8,-89.9,98,3.775,3.773,3.78,3.844,3.828,3.787,25.052,68,14,Waypoint,
38.5387382,-120.5236221,3737.6372163892,32.480316,0,0.7659449064,8800,2018-06-20 17:32:40,16,0,22.765,3737.6372163892,32.480316,0.223694,0.7659449064,0,0,-0.671082,27.4, 2.4, 1.2,0,0,1024,1024,1024,1024,26.8,-89.9,98,3.775,3.773,3.78,3.844,3.828,3.787,25.052,68,14,Waypoint,
38.5387384,-120.5236221,3738.6214683892,33.464568,0,0.8164206298,8900,2018-06-20 17:32:41,16,0,22.765,3738.6214683892,33.464568,0.223694,0.8164206298,0,0,-0.671082,27.3, 2.6, 1.2,0,0,1024,1024,1024,1024,26.8,-89.9,98,3.775,3.773,3.78,3.844,3.828,3.787,25.052,68,14,Waypoint,
38.5387387,-120.5236221,3740.5899723892,35.433072,0,0.8979495038,9000,2018-06-20 17:32:41,16,0,22.916,3740.5899723892,35.433072,0.223694,0.8979495038,0,0,-0.671082,27.3, 2.7, 1.2,0,0,1024,1024,1024,1024,26.8,-89.9,98,3.775,3.773,3.78,3.844,3.828,3.787,21.856,68,14,Waypoint,
38.5387389,-120.523622,3741.5742243892,36.417324,0,0.97272640908,9100,2018-06-20 17:32:41,15,0,22.916,3741.5742243892,36.417324,0.223694,0.97272640908,0,0,-0.671082,27.3, 2.8, 1.1,0,0,1024,1024,1024,1024,26.8,-89.9,98,3.775,3.773,3.78,3.844,3.828,3.787,21.856,68,14,Waypoint,
38.538739,-120.523622,3742.5584763892,37.401576,0,1.00171591132,9200,2018-06-20 17:32:41,15,0,22.916,3742.5584763892,37.401576,0.223694,1.00171591132,0,0,-0.671082,27.4, 2.9, 0.9,0,0,1024,1024,1024,1024,26.8,-89.9,98,3.775,3.773,3.78,3.844,3.828,3.787,21.856,68,14,Waypoint,
38.5387391,-120.523622,3743.8708123892,38.713912,0,1.0311844162,9300,2018-06-20 17:32:41,16,0,22.916,3743.8708123892,38.713912,0.223694,1.0311844162,0,0,-0.671082,27.4, 2.8, 0.9,0,0,1024,1024,1024,1024,26.8,-89.9,98,3.775,3.773,3.78,3.844,3.828,3.787,21.856,68,14,Waypoint,
38.5387392,-120.523622,3744.8550643892,39.698164,0,1.06108599196,9400,2018-06-20 17:32:41,16,0,22.916,3744.8550643892,39.698164,0.223694,1.06108599196,0,0,-0.671082,27.4, 2.7, 0.8,0,0,1024,1024,1024,1024,26.8,-89.9,98,3.775,3.773,3.78,3.844,3.828,3.787,21.856,68,14,Waypoint,
38.5387393,-120.523622,3745.5112323892,40.354332,0,1.0913878302,9500,2018-06-20 17:32:41,16,0,22.916,3745.5112323892,40.354332,0.223694,1.0913878302,0,0,-0.671082,27.5, 2.5, 1,0,0,1024,1024,1024,1024,26.8,-89.9,98,3.775,3.773,3.78,3.844,3.828,3.787,21.856,68,14,Waypoint,
38.5387394,-120.5236221,3746.4954843892,41.338584,0,1.10708008792,9600,2018-06-20 17:32:41,16,0,22.916,3746.4954843892,41.338584,0.223694,1.10708008792,0,0,-0.671082,27.5, 2.4, 1.1,0,0,1024,1024,1024,1024,26.8,-89.9,98,3.775,3.773,3.78,3.844,3.828,3.787,21.856,68,14,Waypoint,
38.5387394,-120.5236221,3747.4797363892,42.322836,0,1.10708008792,9700,2018-06-20 17:32:41,16,0,22.916,3747.4797363892,42.322836,0.223694,1.10708008792,0,0,-0.671082,27.5, 2.4, 1.1,0,0,1024,1024,1024,1024,26.8,-89.9,98,3.775,3.773,3.78,3.844,3.828,3.787,21.856,68,14,Waypoint,
38.5387395,-120.5236221,3748.4639883892,43.307088,0,1.13849741176,9800,2018-06-20 17:32:41,16,0,22.916,3748.4639883892,43.307088,0.223694,1.13849741176,0,0,-0.671082,27.5, 2.5, 1.3,0,0,1024,1024,1024,1024,26.8,-89.9,98,3.775,3.773,3.78,3.844,3.828,3.787,21.856,68,14,Waypoint,
38.5387395,-120.523622,3749.7763243892,44.619424,0,1.1530676222,9900,2018-06-20 17:32:42,16,0,22.916,3749.7763243892,44.619424,0.223694,1.1530676222,0,0,-0.671082,27.5, 2.5, 1.3,0,0,1024,1024,1024,1024,26.8,-89.9,98,3.775,3.773,3.78,3.844,3.828,3.787,21.856,68,14,Waypoint,
38.5387394,-120.523622,3750.7605763892,45.603676,0,1.12206040336,10100,2018-06-20 17:32:42,16,0,22.916,3750.7605763892,45.603676,0.223694,1.1530676222,0,0,-0.671082,27.5, 2.5, 1.1,0,0,1024,1024,1024,1024,26.8,-89.9,98,3.775,3.773,3.78,3.844,3.828,3.787,21.856,68,14,Waypoint,
38.5387394,-120.523622,3751.7448283892,46.587928,0.223694,1.12206040336,10200,2018-06-20 17:32:42,17,0,22.916,3751.7448283892,46.587928,0.223694,1.1530676222,0,0,-0.671082,27.4, 2.3, 0.9,0,0,1024,1024,1024,1024,26.8,-89.9,98,3.775,3.773,3.78,3.844,3.828,3.787,21.856,68,14,Waypoint,
38.5387394,-120.5236221,3752.7290803892,47.57218,0.223694,1.10708008792,10300,2018-06-20 17:32:42,17,0,22.916,3752.7290803892,47.57218,0.223694,1.1530676222,0,0,-0.671082,27.4, 2.1, 0.7,0,0,1024,1024,1024,1024,26.8,-89.9,98,3.775,3.773,3.78,3.844,3.828,3.787,21.856,68,14,Waypoint,
38.5387393,-120.5236222,3753.7133323892,48.556432,0.223694,1.06111880036,10400,2018-06-20 17:32:42,17,0,22.916,3753.7133323892,48.556432,0.223694,1.1530676222,0,0,-0.671082,27.4, 1.8, 0.7,0,0,1024,1024,1024,1024,26.8,-89.9,98,3.775,3.773,3.78,3.844,3.828,3.787,21.856,68,14,Waypoint,
38.5387392,-120.5236222,3754.6975843892,49.540684,0.223694,1.02992785448,10500,2018-06-20 17:32:42,17,0,22.916,3754.6975843892,49.540684,0.223694,1.1530676222,0,0,-0.671082,27.4, 1.7, 0.7,0,0,1024,1024,1024,1024,26.8,-89.9,98,3.775,3.773,3.78,3.844,3.828,3.787,21.856,68,14,Waypoint,
38.5387392,-120.5236222,3755.6818363892,50.524936,0.223694,1.02992785448,10600,2018-06-20 17:32:42,18,0,22.916,3755.6818363892,50.524936,0.223694,1.1530676222,0,0,-0.671082,27.4, 1.6, 0.8,0,0,1024,1024,1024,1024,26.8,-89.9,98,3.775,3.773,3.78,3.844,3.828,3.787,21.856,68,14,Waypoint,
38.5387391,-120.5236222,3756.6660883892,51.509188,0.223694,0.99909123932,10700,2018-06-20 17:32:42,18,0,22.916,3756.6660883892,51.509188,0.223694,1.1530676222,0,0,-0.671082,27.4, 1.5, 0.8,0,0,1024,1024,1024,1024,26.8,-89.9,98,3.775,3.773,3.78,3.844,3.828,3.787,21.856,68,14,Waypoint,
38.538739,-120.5236223,3757.6503403892,52.49344,0.223694,0.9529691906,10800,2018-06-20 17:32:42,18,0,22.916,3757.6503403892,52.49344,0.223694,1.1530676222,0,0,-0.671082,27.4, 1.4, 0.8,0,0,1024,1024,1024,1024,26.8,-90,98,3.775,3.773,3.78,3.844,3.828,3.787,21.856,68,14,Waypoint,
38.5387389,-120.5236223,3758.6345923892,53.477692,0.223694,0.92244753608,10900,2018-06-20 17:32:43,18,0,22.916,3758.6345923892,53.477692,0.223694,1.1530676222,0,0,-0.671082,27.4, 1.3, 0.8,0,0,1024,1024,1024,1024,26.8,-89.9,98,3.775,3.773,3.78,3.844,3.828,3.787,21.856,68,14,Waypoint,
38.5387388,-120.5236224,3759.6188443892,54.461944,0.223694,0.87625658972,11000,2018-06-20 17:32:43,18,0,22.938,3759.6188443892,54.461944,0.223694,1.1530676222,0,0,-0.671082,27.4, 1.2, 0.8,0,0,1024,1024,1024,1024,26.8,-90,98,3.802,3.805,3.802,3.86,3.853,3.811,21.363,68,14,Waypoint,
38.5387387,-120.5236224,3761.9154323892,56.758532,0.223694,0.84611551264,11100,2018-06-20 17:32:43,18,0,22.938,3761.9154323892,56.758532,0.223694,1.1530676222,0,0,-0.671082,27.4, 1.4, 0.8,0,0,1024,1024,1024,1024,26.8,-89.9,98,3.802,3.805,3.802,3.86,3.853,3.811,21.363,68,14,Waypoint,
38.5387386,-120.5236225,3762.8996843892,57.742784,0.223694,0.79986551116,11200,2018-06-20 17:32:43,18,0,22.938,3762.8996843892,57.742784,0.223694,1.1530676222,0,0,-0.671082,27.4, 1.6, 0.7,0,0,1024,1024,1024,1024,26.8,-89.9,98,3.802,3.805,3.802,3.86,3.853,3.811,21.363,68,14,Waypoint,
38.5387385,-120.5236225,3763.8839363892,58.727036,0.223694,0.77019031336,11300,2018-06-20 17:32:43,18,0,22.938,3763.8839363892,58.727036,0.223694,1.1530676222,0,0,-0.671082,27.4, 1.5, 0.7,0,0,1024,1024,1024,1024,26.8,-89.9,98,3.802,3.805,3.802,3.86,3.853,3.811,21.363,68,14,Waypoint,
38.5387384,-120.5236225,3764.8681883892,59.711288,0.223694,0.7411253518,11400,2018-06-20 17:32:43,18,0,22.938,3764.8681883892,59.711288,0.223694,1.1530676222,0,0,-0.671082,27.3, 1.3, 0.7,0,0,1024,1024,1024,1024,26.8,-89.9,98,3.802,3.805,3.802,3.86,3.853,3.811,21.363,68,14,Waypoint,
38.5387383,-120.5236225,3765.8524403892,60.69554,0,0.71274280496,11500,2018-06-20 17:32:43,18,0,22.938,3765.8524403892,60.69554,0.223694,1.1530676222,0,0,-0.671082,27.3, 1.2, 0.9,0,0,1024,1024,1024,1024,26.8,-89.9,98,3.802,3.805,3.802,3.86,3.853,3.811,21.363,68,14,Waypoint,
38.5387382,-120.5236226,3766.8366923892,61.679792,0,0.66644687172,11600,2018-06-20 17:32:43,18,0,22.938,3766.8366923892,61.679792,0.223694,1.1530676222,0,0,-0.671082,27.4, 1.2, 1.1,0,0,1024,1024,1024,1024,26.8,-89.9,98,3.802,3.805,3.802,3.86,3.853,3.811,21.363,68,14,Waypoint,
38.5387381,-120.5236226,3767.8209443892,62.664044,0,0.63891406244,11700,2018-06-20 17:32:43,18,0,22.938,3767.8209443892,62.664044,0.223694,1.1530676222,0,0,-0.671082,27.3, 1.1, 1.3,0,0,1024,1024,1024,1024,26.8,-89.9,98,3.802,3.805,3.802,3.86,3.853,3.811,21.363,68,14,Waypoint,
38.538738,-120.5236227,3768.8051963892,63.648296,0.223694,0.5927165544,11800,2018-06-20 17:32:43,18,0,22.938,3768.8051963892,63.648296,0.223694,1.1530676222,0,0,-0.671082,27.3, 1, 1.3,0,0,1024,1024,1024,1024,26.8,-90,98,3.802,3.805,3.802,3.86,3.853,3.811,21.363,68,14,Waypoint,
38.5387377,-120.5236227,3770.7737003892,65.6168,0,0.51715552836,12000,2018-06-20 17:32:44,18,0,22.85,3770.7737003892,65.6168,0.223694,1.1530676222,0,0,-0.671082,27.2, 0.6, 1.1,0,0,1024,1024,1024,1024,26.8,-90,97,3.787,3.797,3.793,3.844,3.837,3.79,22.156,68,14,Waypoint,
38.5387376,-120.5236227,3771.7579523892,66.601052,0,0.49479332292,12200,2018-06-20 17:32:44,18,0,22.85,3771.7579523892,66.601052,0.223694,1.1530676222,0,0,-0.671082,27.2, 0.5, 0.9,0,0,1024,1024,1024,1024,26.8,-90,97,3.787,3.797,3.793,3.844,3.837,3.79,22.156,68,14,Waypoint,
38.5387375,-120.5236227,3772.7422043892,67.585304,0,0.47418636688,12300,2018-06-20 17:32:44,18,0,22.85,3772.7422043892,67.585304,0.223694,1.1530676222,0,0,-0.671082,27.3, 0.6, 0.6,0,0,1024,1024,1024,1024,26.8,-90,97,3.787,3.797,3.793,3.844,3.837,3.79,22.156,68,14,Waypoint,
38.5387374,-120.5236226,3773.7264563892,68.569556,0,0.48079725948,12400,2018-06-20 17:32:44,18,0,22.85,3773.7264563892,68.569556,0.223694,1.1530676222,0,0,-0.671082,27.3, 0.7, 0.4,0,0,1024,1024,1024,1024,26.8,-89.9,97,3.787,3.797,3.793,3.844,3.837,3.79,22.156,68,14,Waypoint,
38.5387373,-120.5236226,3774.7107083892,69.553808,0,0.4653215372,12500,2018-06-20 17:32:44,18,0,22.85,3774.7107083892,69.553808,0.223694,1.1530676222,0,0,-0.671082,27.3, 0.8, 0.3,0,0,1024,1024,1024,1024,26.8,-89.9,97,3.787,3.797,3.793,3.844,3.837,3.79,22.156,68,14,Waypoint,
38.5387372,-120.5236226,3775.6949603892,70.53806,0,0.452263794,12600,2018-06-20 17:32:44,18,0,22.85,3775.6949603892,70.53806,0.223694,1.1530676222,0,0,-0.671082,27.3, 0.8, 0.3,0,0,1024,1024,1024,1024,26.8,-89.9,97,3.787,3.797,3.793,3.844,3.837,3.79,22.156,68,14,Waypoint,
38.5387371,-120.5236226,3776.6792123892,71.522312,0,0.44184384616,12700,2018-06-20 17:32:44,18,0,22.85,3776.6792123892,71.522312,0.223694,1.1530676222,0,0,-0.671082,27.4, 0.8, 0.4,0,0,1024,1024,1024,1024,26.8,-90,97,3.787,3.797,3.793,3.844,3.837,3.79,22.156,68,14,Waypoint,
38.538737,-120.5236226,3777.3353803892,72.17848,0,0.43424542072,12800,2018-06-20 17:32:44,18,0,22.85,3777.3353803892,72.17848,0.223694,1.1530676222,0,0,-0.671082,27.4, 0.8, 0.4,0,0,1024,1024,1024,1024,26.8,-89.9,97,3.787,3.797,3.793,3.844,3.837,3.79,22.156,68,14,Waypoint,
38.5387369,-120.5236225,3778.6477163892,73.490816,0,0.45806431912,12900,2018-06-20 17:32:45,18,0,22.85,3778.6477163892,73.490816,0.223694,1.1530676222,0,0,-0.671082,27.5, 0.7, 0.4,0,0,1024,1024,1024,1024,26.8,-90,97,3.787,3.797,3.793,3.844,3.837,3.79,22.156,68,14,Waypoint,
38.5387368,-120.5236225,3779.6319683892,74.475068,0,0.45660762616,13000,2018-06-20 17:32:45,18,0,22.858,3779.6319683892,74.475068,0.223694,1.1530676222,0,0,-0.671082,27.5, 0.7, 0.4,0,0,1024,1024,1024,1024,26.8,-90,97,3.789,3.795,3.788,3.848,3.843,3.808,21.614,69.8,14,Waypoint,
38.5387366,-120.5236225,3781.6004723892,76.443572,0,0.4624015896,13100,2018-06-20 17:32:45,18,0,22.858,3781.6004723892,76.443572,0.223694,1.1530676222,0,0,-0.671082,27.5, 0.6, 0.4,0,0,1024,1024,1024,1024,26.8,-89.9,97,3.789,3.795,3.788,3.848,3.843,3.808,21.614,69.8,14,Waypoint,
38.5387366,-120.5236225,3782.5847243892,77.427824,0,0.4624015896,13200,2018-06-20 17:32:45,18,0,22.858,3782.5847243892,77.427824,0.223694,1.1530676222,0,0,-0.671082,27.5, 0.7, 0.4,0,0,1024,1024,1024,1024,26.8,-89.9,97,3.789,3.795,3.788,3.848,3.843,3.808,21.614,69.8,14,Waypoint,
38.5387366,-120.5236225,3783.2408923892,78.083992,0,0.4624015896,13300,2018-06-20 17:32:45,18,0,22.858,3783.2408923892,78.083992,0.223694,1.1530676222,0,0,-0.671082,27.4, 0.7, 0.4,0,0,1024,1024,1024,1024,26.8,-89.9,97,3.789,3.795,3.788,3.848,3.843,3.808,21.614,69.8,14,Waypoint,
38.5387365,-120.5236225,3784.2251443892,79.068244,0,0.46954397828,13400,2018-06-20 17:32:45,18,0,22.858,3784.2251443892,79.068244,0.223694,1.1530676222,0,0,-0.671082,27.4, 0.8, 0.5,0,0,1024,1024,1024,1024,26.8,-90,97,3.789,3.795,3.788,3.848,3.843,3.808,21.614,69.8,14,Waypoint,
38.5387365,-120.5236225,3785.2093963892,80.052496,0,0.46954397828,13500,2018-06-20 17:32:45,18,0,22.858,3785.2093963892,80.052496,0.223694,1.1530676222,0,0,-0.671082,27.4, 0.7, 0.7,0,0,1024,1024,1024,1024,26.8,-90,97,3.789,3.795,3.788,3.848,3.843,3.808,21.614,69.8,14,Waypoint,
38.5387364,-120.5236224,3786.1936483892,81.036748,0,0.50662075112,13600,2018-06-20 17:32:45,18,0,22.858,3786.1936483892,81.036748,0.223694,1.1530676222,0,0,-0.671082,27.4, 0.8, 0.8,0,0,1024,1024,1024,1024,26.8,-90,97,3.789,3.795,3.788,3.848,3.843,3.808,21.614,69.8,14,Waypoint,
38.5387364,-120.5236224,3787.1779003892,82.021,0,0.50662075112,13800,2018-06-20 17:32:45,18,0,22.858,3787.1779003892,82.021,0.223694,1.1530676222,0,0,-0.671082,27.4, 0.9, 0.7,0,0,1024,1024,1024,1024,26.8,-90,97,3.789,3.795,3.788,3.848,3.843,3.808,21.614,69.8,14,Waypoint,
38.5387363,-120.5236223,3789.1464043892,83.989504,0,0.54511484684,13900,2018-06-20 17:32:46,18,0,22.858,3789.1464043892,83.989504,0.223694,1.1530676222,0,0,-0.671082,27.4, 0.9, 0.6,0,0,1024,1024,1024,1024,26.8,-90,97,3.789,3.795,3.788,3.848,3.843,3.808,21.614,69.8,14,Waypoint,
38.5387363,-120.5236223,3791.1149083892,85.958008,0,0.54511484684,14100,2018-06-20 17:32:46,18,0,22.858,3791.1149083892,85.958008,0.223694,1.1530676222,0,0,-0.671082,27.4, 0.9, 0.4,0,0,1024,1024,1024,1024,26.8,-89.9,97,3.789,3.795,3.788,3.848,3.843,3.808,21.614,69.8,14,Waypoint,
38.5387363,-120.5236222,3792.0991603892,86.94226,0,0.57208663248,14210,2018-06-20 17:32:46,18,0,22.858,3792.0991603892,86.94226,0.223694,1.1530676222,0,0,-0.671082,27.4, 1, 0.4,0,0,1024,1024,1024,1024,26.8,-89.9,97,3.789,3.795,3.788,3.848,3.843,3.808,21.614,69.8,14,Waypoint,
38.5387363,-120.5236221,3793.0834123892,87.926512,0,0.59920605592,14300,2018-06-20 17:32:46,18,0,22.858,3793.0834123892,87.926512,0.223694,1.1530676222,0,0,-0.671082,27.4, 1, 0.4,0,0,1024,1024,1024,1024,26.8,-89.9,97,3.789,3.795,3.788,3.848,3.843,3.808,21.614,69.8,14,Waypoint,
38.5387363,-120.5236221,3794.0676643892,88.910764,0,0.59920605592,14400,2018-06-20 17:32:46,18,0,22.858,3794.0676643892,88.910764,0.223694,1.1530676222,0,0,-0.671082,27.4, 1, 0.4,0,0,1024,1024,1024,1024,26.8,-89.9,97,3.789,3.795,3.788,3.848,3.843,3.808,21.614,69.8,14,Waypoint,
38.5387363,-120.5236221,3795.0519163892,89.895016,0,0.59920605592,14600,2018-06-20 17:32:46,18,0,22.858,3795.0519163892,89.895016,0.223694,1.1530676222,0,0,-0.671082,27.4, 1.1, 0.5,0,0,1024,1024,1024,1024,26.8,-89.9,97,3.789,3.795,3.788,3.848,3.843,3.808,21.614,69.8,14,Waypoint,
38.5387363,-120.5236221,3796.0361683892,90.879268,0,0.59920605592,14700,2018-06-20 17:32:46,18,0,22.858,3796.0361683892,90.879268,0.223694,1.1530676222,0,0,-0.671082,27.4, 1.1, 0.6,0,0,1024,1024,1024,1024,26.8,-89.9,97,3.789,3.795,3.788,3.848,3.843,3.808,21.614,69.8,14,Waypoint,
38.5387363,-120.5236221,3797.0204203892,91.86352,0,0.59920605592,14800,2018-06-20 17:32:46,18,0,22.858,3797.0204203892,91.86352,0.223694,1.1530676222,0,0,-0.671082,27.4, 1, 0.7,0,0,1024,1024,1024,1024,26.8,-90,97,3.789,3.795,3.788,3.848,3.843,3.808,21.614,69.8,14,Waypoint,
38.5387363,-120.523622,3798.0046723892,92.847772,0,0.62645015128,14900,2018-06-20 17:32:47,18,0,22.858,3798.0046723892,92.847772,0.223694,1.1530676222,0,0,-0.671082,27.4, 1, 0.6,0,0,1024,1024,1024,1024,26.8,-90,97,3.789,3.795,3.788,3.848,3.843,3.808,21.614,69.8,14,Waypoint,
38.5387363,-120.523622,3798.9889243892,93.832024,0,0.62645015128,15000,2018-06-20 17:32:47,18,0,22.88,3798.9889243892,93.832024,0.223694,1.1530676222,0,0,-0.671082,27.4, 1, 0.5,0,0,1024,1024,1024,1024,26.8,-90,97,3.792,3.796,3.791,3.851,3.844,3.795,20.806,69.8,14,Waypoint,
38.5387363,-120.523622,3799.9731763892,94.816276,0,0.62645015128,15100,2018-06-20 17:32:47,18,0,22.88,3799.9731763892,94.816276,0.223694,1.1530676222,0,0,-0.671082,27.4, 0.9, 0.4,0,0,1024,1024,1024,1024,26.8,-90,97,3.792,3.796,3.791,3.851,3.844,3.795,20.806,69.8,14,Waypoint,
38.5387363,-120.5236219,3800.9574283892,95.800528,0,0.65380251436,15200,2018-06-20 17:32:47,18,0,22.88,3800.9574283892,95.800528,0.223694,1.1530676222,0,0,-0.671082,27.4, 0.9, 0.4,0,0,1024,1024,1024,1024,26.8,-89.9,97,3.792,3.796,3.791,3.851,3.844,3.795,20.806,69.8,14,Waypoint,
38.5387363,-120.5236219,3801.9416803892,96.78478,0,0.65380251436,15300,2018-06-20 17:32:47,18,0,22.88,3801.9416803892,96.78478,0.223694,1.1530676222,0,0,-0.671082,27.4, 1.1, 0.4,0,0,1024,1024,1024,1024,26.8,-89.9,97,3.792,3.796,3.791,3.851,3.844,3.795,20.806,69.8,14,Waypoint,
38.5387363,-120.5236218,3802.9259323892,97.769032,0,0.68125330264,15400,2018-06-20 17:32:47,18,0,22.88,3802.9259323892,97.769032,0.223694,1.1530676222,0,0,-0.671082,27.4, 1.3, 0.3,0,0,1024,1024,1024,1024,26.8,-89.9,97,3.792,3.796,3.791,3.851,3.844,3.795,20.806,69.8,14,Waypoint,
38.5387364,-120.5236218,3804.8944363892,99.737536,0,0.67240487716,15500,2018-06-20 17:32:47,18,0,22.88,3804.8944363892,99.737536,0.223694,1.1530676222,0,0,-0.671082,27.5, 1.3, 0.4,0,0,1024,1024,1024,1024,26.8,-89.9,97,3.792,3.796,3.791,3.851,3.844,3.795,20.806,69.8,14,Waypoint,
38.5387364,-120.5236218,3805.8786883892,100.721788,0,0.67240487716,15600,2018-06-20 17:32:47,18,0,22.88,3805.8786883892,100.721788,0.223694,1.1530676222,0,0,-0.671082,27.5, 1.4, 0.5,0,0,1024,1024,1024,1024,26.8,-89.9,97,3.792,3.796,3.791,3.851,3.844,3.795,20.806,69.8,14,Waypoint,
38.5387365,-120.5236218,3806.8629403892,101.70604,0,0.66543965384,15700,2018-06-20 17:32:47,18,0,22.88,3806.8629403892,101.70604,0.223694,1.1530676222,0,0,-0.671082,27.5, 1.5, 0.6,0,0,1024,1024,1024,1024,26.8,-89.9,97,3.792,3.796,3.791,3.851,3.844,3.795,20.806,69.8,14,Waypoint,
38.5387365,-120.5236218,3807.5191083892,102.362208,0,0.66543965384,15800,2018-06-20 17:32:47,18,0,22.88,3807.5191083892,102.362208,0.223694,1.1530676222,0,0,-0.671082,27.5, 1.5, 0.7,0,0,1024,1024,1024,1024,26.8,-89.9,97,3.792,3.796,3.791,3.851,3.844,3.795,20.806,69.8,14,Waypoint,
38.5387365,-120.5236217,3808.8314443892,103.674544,0,0.6936023844,15900,2018-06-20 17:32:48,18,0,22.88,3808.8314443892,103.674544,0.223694,1.1530676222,0,0,-0.671082,27.5, 1.5, 0.8,0,0,1024,1024,1024,1024,26.8,-89.9,97,3.792,3.796,3.791,3.851,3.844,3.795,20.806,69.8,14,Waypoint,
38.5387366,-120.5236218,3809.8156963892,104.658796,0,0.66041996864,16000,2018-06-20 17:32:48,18,0,22.814,3809.8156963892,104.658796,0.223694,1.1530676222,0,0,-0.671082,27.5, 1.4, 1,0,0,1024,1024,1024,1024,26.8,-89.9,97,3.781,3.779,3.786,3.845,3.841,3.792,20.973,69.8,14,Waypoint,
38.5387366,-120.5236218,3810.7999483892,105.643048,0,0.66041996864,16100,2018-06-20 17:32:48,18,0,22.814,3810.7999483892,105.643048,0.223694,1.1530676222,0,0,-0.671082,27.4, 1.4, 1,0,0,1024,1024,1024,1024,26.8,-89.9,97,3.781,3.779,3.786,3.845,3.841,3.792,20.973,69.8,14,Waypoint,
38.5387366,-120.5236218,3811.7842003892,106.6273,0,0.66041996864,16200,2018-06-20 17:32:48,18,0,22.814,3811.7842003892,106.6273,0.223694,1.1530676222,0,0,-0.671082,27.4, 1.3, 0.9,0,0,1024,1024,1024,1024,26.8,-89.9,97,3.781,3.779,3.786,3.845,3.841,3.792,20.973,69.8,14,Waypoint,
38.5387366,-120.5236217,3812.7684523892,107.611552,0,0.68878939212,16300,2018-06-20 17:32:48,18,0,22.814,3812.7684523892,107.611552,0.223694,1.1530676222,0,0,-0.671082,27.4, 1.3, 0.8,0,0,1024,1024,1024,1024,26.8,-89.9,97,3.781,3.779,3.786,3.845,3.841,3.792,20.973,69.8,14,Waypoint,
38.5387367,-120.5236217,3813.7527043892,108.595804,0,0.68588584872,16500,2018-06-20 17:32:48,18,0,22.814,3813.7527043892,108.595804,0.223694,1.1530676222,0,0,-0.671082,27.4, 1.3, 0.7,0,0,1024,1024,1024,1024,26.8,-89.9,97,3.781,3.779,3.786,3.845,3.841,3.792,20.973,69.8,14,Waypoint,
38.5387367,-120.5236217,3815.7212083892,110.564308,0,0.68588584872,16700,2018-06-20 17:32:48,18,0,22.814,3815.7212083892,110.564308,0.223694,1.1530676222,0,0,-0.671082,27.4, 1.4, 0.6,0,0,1024,1024,1024,1024,26.8,-89.9,97,3.781,3.779,3.786,3.845,3.841,3.792,20.973,69.8,14,Waypoint,
38.5387367,-120.5236217,3816.7054603892,111.54856,0,0.68588584872,16800,2018-06-20 17:32:48,18,0,22.814,3816.7054603892,111.54856,0.223694,1.1530676222,0,0,-0.671082,27.4, 1.5, 0.6,0,0,1024,1024,1024,1024,26.8,-89.9,97,3.781,3.779,3.786,3.845,3.841,3.792,20.973,69.8,14,Waypoint,
38.5387368,-120.5236217,3817.6897123892,112.532812,0,0.68491472008,16900,2018-06-20 17:32:49,18,0,22.814,3817.6897123892,112.532812,0.223694,1.1530676222,0,0,-0.671082,27.4, 1.5, 0.7,0,0,1024,1024,1024,1024,26.8,-89.9,97,3.781,3.779,3.786,3.845,3.841,3.792,20.973,69.8,14,Waypoint,
38.5387368,-120.5236218,3818.6739643892,113.517064,0,0.65637469292,17000,2018-06-20 17:32:49,18,0,22.798,3818.6739643892,113.517064,0.223694,1.1530676222,0,0,-0.671082,27.4, 1.4, 0.8,0,0,1024,1024,1024,1024,26.8,-89.9,97,3.778,3.772,3.778,3.837,3.832,3.782,20.975,69.8,14,Waypoint,
38.5387368,-120.5236218,3819.6582163892,114.501316,0,0.65637469292,17100,2018-06-20 17:32:49,18,0,22.798,3819.6582163892,114.501316,0.223694,1.1530676222,0,0,-0.671082,27.4, 1.3, 0.8,0,0,1024,1024,1024,1024,26.8,-90,97,3.778,3.772,3.778,3.837,3.832,3.782,20.975,69.8,14,Waypoint,
38.5387368,-120.5236218,3820.6424683892,115.485568,0,0.65637469292,17200,2018-06-20 17:32:49,18,0,22.798,3820.6424683892,115.485568,0.223694,1.1530676222,0,0,-0.671082,27.4, 1.3, 0.8,0,0,1024,1024,1024,1024,26.8,-89.9,97,3.778,3.772,3.778,3.837,3.832,3.782,20.975,69.8,14,Waypoint,
38.5387368,-120.5236218,3821.6267203892,116.46982,0,0.65637469292,17300,2018-06-20 17:32:49,18,0,22.798,3821.6267203892,116.46982,0.223694,1.1530676222,0,0,-0.671082,27.4, 1.3, 0.7,0,0,1024,1024,1024,1024,26.8,-89.9,97,3.778,3.772,3.778,3.837,3.832,3.782,20.975,69.8,14,Waypoint,
38.5387368,-120.5236218,3822.6109723892,117.454072,0,0.65637469292,17400,2018-06-20 17:32:49,18,0,22.798,3822.6109723892,117.454072,0.223694,1.1530676222,0,0,-0.671082,27.4, 1.2, 0.7,0,0,1024,1024,1024,1024,26.8,-89.9,97,3.778,3.772,3.778,3.837,3.832,3.782,20.975,69.8,14,Waypoint,
38.5387368,-120.5236219,3823.5952243892,118.438324,0,0.6278379466,17500,2018-06-20 17:32:49,18,0,22.798,3823.5952243892,118.438324,0.223694,1.1530676222,0,0,-0.671082,27.3, 1.1, 0.8,0,0,1024,1024,1024,1024,26.8,-89.9,97,3.778,3.772,3.778,3.837,3.832,3.782,20.975,69.8,14,Waypoint,
38.5387368,-120.5236219,3824.5794763892,119.422576,0,0.6278379466,17600,2018-06-20 17:32:49,18,0,22.798,3824.5794763892,119.422576,0.223694,1.1530676222,0,0,-0.671082,27.3, 1.2, 0.9,0,0,1024,1024,1024,1024,26.8,-89.9,97,3.778,3.772,3.778,3.837,3.832,3.782,20.975,69.8,14,Waypoint,
38.5387368,-120.5236219,3825.5637283892,120.406828,0,0.6278379466,17700,2018-06-20 17:32:49,18,0,22.798,3825.5637283892,120.406828,0.223694,1.1530676222,0,0,-0.671082,27.4, 1.4, 1,0,0,1024,1024,1024,1024,26.8,-89.9,97,3.778,3.772,3.778,3.837,3.832,3.782,20.975,69.8,14,Waypoint,
38.5387368,-120.5236219,3827.5322323892,122.375332,0,0.6278379466,17800,2018-06-20 17:32:49,18,0,22.798,3827.5322323892,122.375332,0.223694,1.1530676222,0,0,-0.671082,27.5, 1.5, 1,0,0,1024,1024,1024,1024,26.8,-89.9,97,3.778,3.772,3.778,3.837,3.832,3.782,20.975,69.8,14,Waypoint,
38.5387368,-120.5236219,3828.5164843892,123.359584,0,0.6278379466,17900,2018-06-20 17:32:50,18,0,22.798,3828.5164843892,123.359584,0.223694,1.1530676222,0,0,-0.671082,27.5, 1.4, 1.1,0,0,1024,1024,1024,1024,26.8,-89.9,97,3.778,3.772,3.778,3.837,3.832,3.782,20.975,69.8,14,Waypoint,
38.5387367,-120.5236219,3829.5007363892,124.343836,0,0.62889765792,18000,2018-06-20 17:32:50,18,0,22.741,3829.5007363892,124.343836,0.223694,1.1530676222,0,0,-0.671082,27.4, 1.2, 0.9,0,0,1024,1024,1024,1024,26.8,-90,97,3.77,3.774,3.775,3.834,3.826,3.776,21.189,69.8,14,Waypoint,
38.5387367,-120.5236219,3830.4849883892,125.328088,0,0.62889765792,18100,2018-06-20 17:32:50,18,0,22.741,3830.4849883892,125.328088,0.223694,1.1530676222,0,0,-0.671082,27.4, 1, 0.7,0,0,1024,1024,1024,1024,26.8,-90,97,3.77,3.774,3.775,3.834,3.826,3.776,21.189,69.8,14,Waypoint,
38.5387367,-120.523622,3831.4692403892,126.31234,0,0.6004101242,18200,2018-06-20 17:32:50,18,0,22.741,3831.4692403892,126.31234,0.223694,1.1530676222,0,0,-0.671082,27.4, 0.9, 0.6,0,0,1024,1024,1024,1024,26.8,-89.9,97,3.77,3.774,3.775,3.834,3.826,3.776,21.189,69.8,14,Waypoint,
38.5387366,-120.523622,3832.4534923892,127.296592,0,0.6037237726,18300,2018-06-20 17:32:50,18,0,22.741,3832.4534923892,127.296592,0.223694,1.1530676222,0,0,-0.671082,27.4, 0.9, 0.7,0,0,1024,1024,1024,1024,26.8,-89.9,97,3.77,3.774,3.775,3.834,3.826,3.776,21.189,69.8,14,Waypoint,
38.5387366,-120.523622,3833.4377443892,128.280844,0,0.6037237726,18400,2018-06-20 17:32:50,18,0,22.741,3833.4377443892,128.280844,0.223694,1.1530676222,0,0,-0.671082,27.4, 1, 0.8,0,0,1024,1024,1024,1024,26.8,-90,97,3.77,3.774,3.775,3.834,3.826,3.776,21.189,69.8,14,Waypoint,
38.5387366,-120.5236221,3834.4219963892,129.265096,0,0.57540684256,18500,2018-06-20 17:32:50,18,0,22.741,3834.4219963892,129.265096,0.223694,1.1530676222,0,0,-0.671082,27.4, 1, 0.9,0,0,1024,1024,1024,1024,26.8,-89.9,97,3.77,3.774,3.775,3.834,3.826,3.776,21.189,69.8,14,Waypoint,
38.5387365,-120.5236221,3835.4062483892,130.249348,0,0.58116143592,18600,2018-06-20 17:32:50,18,0,22.741,3835.4062483892,130.249348,0.223694,1.1530676222,0,0,-0.671082,27.4, 0.9, 0.9,0,0,1024,1024,1024,1024,26.8,-89.9,97,3.77,3.774,3.775,3.834,3.826,3.776,21.189,69.8,14,Waypoint,
38.5387365,-120.5236221,3836.3905003892,131.2336,0,0.58116143592,18700,2018-06-20 17:32:50,18,0,22.741,3836.3905003892,131.2336,0.223694,1.1530676222,0,0,-0.671082,27.5, 0.9, 0.9,0,0,1024,1024,1024,1024,26.8,-90,97,3.77,3.774,3.775,3.834,3.826,3.776,21.189,69.8,14,Waypoint,
38.5387365,-120.5236221,3837.3747523892,132.217852,0,0.58116143592,18900,2018-06-20 17:32:51,18,0,22.741,3837.3747523892,132.217852,0.223694,1.1530676222,0,0,-0.671082,27.5, 0.8, 0.9,0,0,1024,1024,1024,1024,26.8,-90,97,3.77,3.774,3.775,3.834,3.826,3.776,21.189,69.8,14,Waypoint,
38.5387365,-120.5236222,3838.3590043892,133.202104,0,0.55315946652,19000,2018-06-20 17:32:51,18,0,22.739,3838.3590043892,133.202104,0.223694,1.1530676222,0,0,-0.671082,27.4, 0.8, 0.8,0,0,1024,1024,1024,1024,26.8,-90,97,3.766,3.764,3.765,3.833,3.819,3.769,21.032,69.8,14,Waypoint,
38.5387364,-120.5236222,3839.3432563892,134.186356,0,0.56151904684,19100,2018-06-20 17:32:51,18,0,22.739,3839.3432563892,134.186356,0.223694,1.1530676222,0,0,-0.671082,27.4, 0.8, 1,0,0,1024,1024,1024,1024,26.8,-89.9,97,3.766,3.764,3.765,3.833,3.819,3.769,21.032,69.8,14,Waypoint,
38.5387364,-120.5236222,3840.3275083892,135.170608,0,0.56151904684,19200,2018-06-20 17:32:51,18,0,22.739,3840.3275083892,135.170608,0.223694,1.1530676222,0,0,-0.671082,27.4, 0.8, 1,0,0,1024,1024,1024,1024,26.8,-89.9,97,3.766,3.764,3.765,3.833,3.819,3.769,21.032,69.8,14,Waypoint,
38.5387364,-120.5236223,3841.3117603892,136.15486,0,0.53401248428,19300,2018-06-20 17:32:51,18,0,22.739,3841.3117603892,136.15486,0.223694,1.1530676222,0,0,-0.671082,27.4, 0.8, 0.9,0,0,1024,1024,1024,1024,26.8,-90,97,3.766,3.764,3.765,3.833,3.819,3.769,21.032,69.8,14,Waypoint,
38.5387363,-120.5236223,3842.2960123892,137.139112,0,0.54511484684,19400,2018-06-20 17:32:51,18,0,22.739,3842.2960123892,137.139112,0.223694,1.1530676222,0,0,-0.671082,27.4, 0.8, 0.9,0,0,1024,1024,1024,1024,26.8,-90,97,3.766,3.764,3.765,3.833,3.819,3.769,21.032,69.8,14,Waypoint,
38.5387363,-120.5236223,3843.2802643892,138.123364,0,0.54511484684,19500,2018-06-20 17:32:51,18,0,22.739,3843.2802643892,138.123364,0.223694,1.1530676222,0,0,-0.671082,27.4, 0.7, 0.9,0,0,1024,1024,1024,1024,26.8,-89.9,97,3.766,3.764,3.765,3.833,3.819,3.769,21.032,69.8,14,Waypoint,
38.5387363,-120.5236223,3844.2645163892,139.107616,0,0.54511484684,19600,2018-06-20 17:32:51,18,0,22.739,3844.2645163892,139.107616,0.223694,1.1530676222,0,0,-0.671082,27.4, 0.7, 0.8,0,0,1024,1024,1024,1024,26.8,-89.9,97,3.766,3.764,3.765,3.833,3.819,3.769,21.032,69.8,14,Waypoint,
38.5387363,-120.5236223,3845.2487683892,140.091868,0,0.54511484684,19700,2018-06-20 17:32:51,18,0,22.739,3845.2487683892,140.091868,0.223694,1.1530676222,0,0,-0.671082,27.4, 0.8, 0.7,0,0,1024,1024,1024,1024,26.8,-89.9,97,3.766,3.764,3.765,3.833,3.819,3.769,21.032,69.8,14,Waypoint,
38.5387362,-120.5236223,3846.2330203892,141.07612,0,0.55838584464,19800,2018-06-20 17:32:51,18,0,22.739,3846.2330203892,141.07612,0.223694,1.1530676222,0,0,-0.671082,27.3, 0.8, 0.7,0,0,1024,1024,1024,1024,26.8,-89.9,97,3.766,3.764,3.765,3.833,3.819,3.769,21.032,69.8,14,Waypoint,
38.5387362,-120.5236222,3848.2015243892,143.044624,0,0.5847441132,19900,2018-06-20 17:32:52,18,0,22.739,3848.2015243892,143.044624,0.223694,1.1530676222,0,0,-0.671082,27.4, 0.9, 0.5,0,0,1024,1024,1024,1024,26.8,-89.9,97,3.766,3.764,3.765,3.833,3.819,3.769,21.032,69.8,14,Waypoint,
38.5387361,-120.5236222,3849.1857763892,144.028876,0,0.5993602554,20100,2018-06-20 17:32:52,18,0,22.739,3849.1857763892,144.028876,0.223694,1.1530676222,0,0,-0.671082,27.4, 0.8, 0.6,0,0,1024,1024,1024,1024,26.8,-90,97,3.766,3.764,3.765,3.833,3.819,3.769,21.032,69.8,14,Waypoint,
38.5387361,-120.5236223,3851.1542803892,145.99738,0,0.5736712782,20200,2018-06-20 17:32:52,18,0,22.739,3851.1542803892,145.99738,0.223694,1.1530676222,0,0,-0.671082,27.4, 0.9, 0.9,0,0,1024,1024,1024,1024,26.8,-90,97,3.766,3.764,3.765,3.833,3.819,3.769,21.032,69.8,14,Waypoint,
38.5387361,-120.5236223,3852.1385323892,146.981632,0,0.5736712782,20300,2018-06-20 17:32:52,18,0,22.739,3852.1385323892,146.981632,0.223694,1.1530676222,0,0,-0.671082,27.4, 0.7, 1.1,0,0,1024,1024,1024,1024,26.8,-90,97,3.766,3.764,3.765,3.833,3.819,3.769,21.032,69.8,14,Waypoint,
38.538736,-120.5236223,3853.1227843892,147.965884,0,0.59081694804,20400,2018-06-20 17:32:52,18,0,22.739,3853.1227843892,147.965884,0.223694,1.1530676222,0,0,-0.671082,27.3, 0.5, 1.4,0,0,1024,1024,1024,1024,26.8,-90,97,3.766,3.764,3.765,3.833,3.819,3.769,21.032,69.8,14,Waypoint,
38.538736,-120.5236223,3854.1070363892,148.950136,0,0.59081694804,20500,2018-06-20 17:32:52,18,0,22.739,3854.1070363892,148.950136,0.223694,1.1530676222,0,0,-0.671082,27.2, 0.2, 1.2,0,0,1024,1024,1024,1024,26.8,-90,97,3.766,3.764,3.765,3.833,3.819,3.769,21.032,69.8,14,Waypoint,
38.538736,-120.5236223,3855.0912883892,149.934388,0,0.59081694804,20600,2018-06-20 17:32:52,18,0,22.739,3855.0912883892,149.934388,0.223694,1.1530676222,0,0,-0.671082,27.1, 0.2, 1,0,0,1024,1024,1024,1024,26.8,-90,97,3.766,3.764,3.765,3.833,3.819,3.769,21.032,69.8,14,Waypoint,
38.538736,-120.5236222,3856.0755403892,150.91864,0,0.61579070212,20700,2018-06-20 17:32:52,18,0,22.739,3856.0755403892,150.91864,0.223694,1.1530676222,0,0,-0.671082,27.1, 0.4, 0.6,0,0,1024,1024,1024,1024,26.8,-89.9,97,3.766,3.764,3.765,3.833,3.819,3.769,21.032,69.8,14,Waypoint,
38.538736,-120.5236222,3857.0597923892,151.902892,0,0.61579070212,20800,2018-06-20 17:32:52,18,0,22.739,3857.0597923892,151.902892,0.223694,1.1530676222,0,0,-0.671082,27.2, 0.8, 0.3,0,0,1024,1024,1024,1024,26.8,-89.9,97,3.766,3.764,3.765,3.833,3.819,3.769,21.032,69.8,14,Waypoint,
38.5387359,-120.5236221,3859.0282963892,153.871396,0,0.65847771136,21000,2018-06-20 17:32:53,19,0,22.732,3859.0282963892,153.871396,0.223694,1.1530676222,0,0,-0.671082,27.3, 0.9, 0.1,0,0,1024,1024,1024,1024,26.8,-89.9,97,3.772,3.759,3.771,3.833,3.818,3.771,20.869,69.8,14,Waypoint,
38.5387359,-120.523622,3860.0125483892,154.855648,0,0.68336288276,21100,2018-06-20 17:32:53,19,0,22.732,3860.0125483892,154.855648,0.223694,1.1530676222,0,0,-0.671082,27.4, 0.9, 0,0,0,1024,1024,1024,1024,26.8,-89.9,97,3.772,3.759,3.771,3.833,3.818,3.771,20.869,69.8,14,Waypoint,
38.5387359,-120.523622,3860.9968003892,155.8399,0,0.68336288276,21200,2018-06-20 17:32:53,19,0,22.732,3860.9968003892,155.8399,0.223694,1.1530676222,0,0,-0.671082,27.4, 1, 0,0,0,1024,1024,1024,1024,26.8,-89.9,97,3.772,3.759,3.771,3.833,3.818,3.771,20.869,69.8,14,Waypoint,
38.5387358,-120.523622,3861.9810523892,156.824152,0,0.7016240382,21300,2018-06-20 17:32:53,19,0,22.732,3861.9810523892,156.824152,0.223694,1.1530676222,0,0,-0.671082,27.5, 1, 0,0,0,1024,1024,1024,1024,26.8,-89.9,97,3.772,3.759,3.771,3.833,3.818,3.771,20.869,69.8,14,Waypoint,
38.5387358,-120.523622,3861.9810523892,156.824152,0,0.7016240382,21400,2018-06-20 17:32:53,19,0,22.732,3861.9810523892,156.824152,0.223694,1.1530676222,0,0,-0.671082,27.5, 1, 0,0,0,1024,1024,1024,1024,26.8,-89.9,97,3.772,3.759,3.771,3.833,3.818,3.771,20.869,69.8,14,Waypoint,
38.5387358,-120.5236219,3863.9495563892,158.792656,0,0.72615159804,21600,2018-06-20 17:32:53,20,0,22.732,3863.9495563892,158.792656,0.223694,1.1530676222,0,0,-0.671082,27.5, 0.8, 0.2,0,0,1024,1024,1024,1024,26.8,-89.9,97,3.772,3.759,3.771,3.833,3.818,3.771,20.869,69.8,14,Waypoint,
38.5387358,-120.5236219,3864.9338083892,159.776908,0,0.72615159804,21700,2018-06-20 17:32:53,20,0,22.732,3864.9338083892,159.776908,0.223694,1.1530676222,0,0,-0.671082,27.5, 0.8, 0.2,0,0,1024,1024,1024,1024,26.8,-89.9,97,3.772,3.759,3.771,3.833,3.818,3.771,20.869,69.8,14,Waypoint,
38.5387358,-120.5236218,3866.9023123892,161.745412,0,0.75096131012,21900,2018-06-20 17:32:54,20,0,22.732,3866.9023123892,161.745412,0.223694,1.1530676222,0,0,-0.671082,27.4, 0.8, 0.1,0,0,1024,1024,1024,1024,26.8,-89.9,97,3.772,3.759,3.771,3.833,3.818,3.771,20.869,69.8,14,Waypoint,
38.5387358,-120.5236218,3867.8865643892,162.729664,0,0.75096131012,22000,2018-06-20 17:32:54,20,0,22.697,3867.8865643892,162.729664,0.223694,1.1530676222,0,0,-0.671082,27.4, 0.8, 0,0,0,1024,1024,1024,1024,26.8,-89.9,96,3.758,3.765,3.767,3.823,3.816,3.773,20.897,69.8,14,Waypoint,
38.5387358,-120.5236217,3868.8708163892,163.713916,0,0.77603020856,22100,2018-06-20 17:32:54,20,0,22.697,3868.8708163892,163.713916,0.223694,1.1530676222,0,0,-0.671082,27.4, 0.9, 0,0,0,1024,1024,1024,1024,26.8,-89.9,96,3.758,3.765,3.767,3.823,3.816,3.773,20.897,69.8,14,Waypoint,
38.5387358,-120.5236217,3869.8550683892,164.698168,0,0.77603020856,22200,2018-06-20 17:32:54,20,0,22.697,3869.8550683892,164.698168,0.223694,1.1530676222,0,0,-0.671082,27.4, 1, 0.1,0,0,1024,1024,1024,1024,26.8,-89.9,96,3.758,3.765,3.767,3.823,3.816,3.773,20.897,69.8,14,Waypoint,
38.5387358,-120.5236217,3871.8235723892,166.666672,0,0.77603020856,22300,2018-06-20 17:32:54,20,0,22.697,3871.8235723892,166.666672,0.223694,1.1530676222,0,0,-0.671082,27.4, 0.8, 0.1,0,0,1024,1024,1024,1024,26.8,-89.9,96,3.758,3.765,3.767,3.823,3.816,3.773,20.897,69.8,14,Waypoint,
38.5387358,-120.5236217,3872.8078243892,167.650924,0,0.77603020856,22400,2018-06-20 17:32:54,20,0,22.697,3872.8078243892,167.650924,0.223694,1.1530676222,0,0,-0.671082,27.4, 0.7, 0.1,0,0,1024,1024,1024,1024,26.8,-89.9,96,3.758,3.765,3.767,3.823,3.816,3.773,20.897,69.8,14,Waypoint,
38.5387358,-120.5236216,3873.7920763892,168.635176,0,0.8013287658,22500,2018-06-20 17:32:54,20,0,22.697,3873.7920763892,168.635176,0.223694,1.1530676222,0,0,-0.671082,27.4, 0.7, 0.1,0,0,1024,1024,1024,1024,26.8,-89.9,96,3.758,3.765,3.767,3.823,3.816,3.773,20.897,69.8,14,Waypoint,
38.5387358,-120.5236216,3874.7763283892,169.619428,0,0.8013287658,22600,2018-06-20 17:32:54,20,0,22.697,3874.7763283892,169.619428,0.223694,1.1530676222,0,0,-0.671082,27.3, 0.8, 0.1,0,0,1024,1024,1024,1024,26.8,-89.9,96,3.758,3.765,3.767,3.823,3.816,3.773,20.897,69.8,14,Waypoint,
38.5387358,-120.5236216,3875.7605803892,170.60368,0,0.8013287658,22700,2018-06-20 17:32:54,20,0,22.697,3875.7605803892,170.60368,0.223694,1.1530676222,0,0,-0.671082,27.4, 0.9, 0,0,0,1024,1024,1024,1024,26.8,-89.9,96,3.758,3.765,3.767,3.823,3.816,3.773,20.897,69.8,14,Waypoint,
38.5387358,-120.5236216,3876.7448323892,171.587932,0,0.8013287658,22800,2018-06-20 17:32:54,20,0,22.697,3876.7448323892,171.587932,0.223694,1.1530676222,0,0,-0.671082,27.4, 0.9, 0,0,0,1024,1024,1024,1024,26.8,-89.9,96,3.758,3.765,3.767,3.823,3.816,3.773,20.897,69.8,14,Waypoint,
38.5387358,-120.5236215,3877.7290843892,172.572184,0,0.82684057764,22900,2018-06-20 17:32:55,20,0,22.697,3877.7290843892,172.572184,0.223694,1.1530676222,0,0,-0.671082,27.4, 1, 0,0,0,1024,1024,1024,1024,26.8,-89.9,96,3.758,3.765,3.767,3.823,3.816,3.773,20.897,69.8,14,Waypoint,
38.5387358,-120.5236215,3878.7133363892,173.556436,0,0.82684057764,23000,2018-06-20 17:32:55,20,0,22.705,3878.7133363892,173.556436,0.223694,1.1530676222,0,0,-0.671082,27.5, 1, 0.1,0,0,1024,1024,1024,1024,26.8,-89.9,96,3.763,3.758,3.768,3.831,3.818,3.767,20.59,71.6,14,Waypoint,
38.5387359,-120.5236215,3879.6975883892,174.540688,0,0.8114009446,23200,2018-06-20 17:32:55,20,0,22.705,3879.6975883892,174.540688,0.223694,1.1530676222,0,0,-0.671082,27.5, 1, 0.2,0,0,1024,1024,1024,1024,26.8,-89.9,96,3.763,3.758,3.768,3.831,3.818,3.767,20.59,71.6,14,Waypoint,
38.5387359,-120.5236215,3880.6818403892,175.52494,0,0.8114009446,23300,2018-06-20 17:32:55,20,0,22.705,3880.6818403892,175.52494,0.223694,1.1530676222,0,0,-0.671082,27.5, 1.1, 0.1,0,0,1024,1024,1024,1024,26.8,-89.9,96,3.763,3.758,3.768,3.831,3.818,3.767,20.59,71.6,14,Waypoint,
38.5387359,-120.5236214,3882.6503443892,177.493444,0,0.83757876696,23400,2018-06-20 17:32:55,20,0,22.705,3882.6503443892,177.493444,0.223694,1.1530676222,0,0,-0.671082,27.4, 1.2, -0.2,0,0,1024,1024,1024,1024,26.8,-89.9,96,3.763,3.758,3.768,3.831,3.818,3.767,20.59,71.6,14,Waypoint,
38.538736,-120.5236213,3883.6345963892,178.477696,0,0.8507054078,23600,2018-06-20 17:32:55,20,0,22.705,3883.6345963892,178.477696,0.223694,1.1530676222,0,0,-0.671082,27.4, 1.3, -0.2,0,0,1024,1024,1024,1024,26.8,-89.9,96,3.763,3.758,3.768,3.831,3.818,3.767,20.59,71.6,14,Waypoint,
38.538736,-120.5236213,3884.6188483892,179.461948,0,0.8507054078,23700,2018-06-20 17:32:55,20,0,22.705,3884.6188483892,179.461948,0.223694,1.1530676222,0,0,-0.671082,27.4, 1.3, 0,0,0,1024,1024,1024,1024,26.8,-89.9,96,3.763,3.758,3.768,3.831,3.818,3.767,20.59,71.6,14,Waypoint,
38.538736,-120.5236213,3885.6031003892,180.4462,0,0.8507054078,23800,2018-06-20 17:32:55,20,0,22.705,3885.6031003892,180.4462,0.223694,1.1530676222,0,0,-0.671082,27.4, 1.3, 0,0,0,1024,1024,1024,1024,26.8,-89.9,96,3.763,3.758,3.768,3.831,3.818,3.767,20.59,71.6,14,Waypoint,
38.538736,-120.5236213,3886.5873523892,181.430452,0,0.8507054078,23900,2018-06-20 17:32:56,20,0,22.705,3886.5873523892,181.430452,0.223694,1.1530676222,0,0,-0.671082,27.4, 1.3, 0,0,0,1024,1024,1024,1024,26.8,-89.9,96,3.763,3.758,3.768,3.831,3.818,3.767,20.59,71.6,14,Waypoint,
38.5387361,-120.5236213,3887.5716043892,182.414704,0,0.83888782212,24000,2018-06-20 17:32:56,20,0,22.712,3887.5716043892,182.414704,0.223694,1.1530676222,0,0,-0.671082,27.3, 1.2, 0,0,0,1024,1024,1024,1024,26.8,-89.9,96,3.775,3.772,3.766,3.836,3.827,3.773,20.458,71.6,14,Waypoint,
38.5387361,-120.5236213,3888.5558563892,183.398956,0,0.83888782212,24100,2018-06-20 17:32:56,20,0,22.712,3888.5558563892,183.398956,0.223694,1.1530676222,0,0,-0.671082,27.3, 1.3, 0.1,0,0,1024,1024,1024,1024,26.8,-89.9,96,3.775,3.772,3.766,3.836,3.827,3.773,20.458,71.6,14,Waypoint,
38.5387361,-120.5236212,3889.5401083892,184.383208,0,0.86611551328,24200,2018-06-20 17:32:56,20,0,22.712,3889.5401083892,184.383208,0.223694,1.1530676222,0,0,-0.671082,27.3, 1.3, 0.2,0,0,1024,1024,1024,1024,26.8,-89.9,96,3.775,3.772,3.766,3.836,3.827,3.773,20.458,71.6,14,Waypoint,
38.5387361,-120.5236212,3890.5243603892,185.36746,0,0.86611551328,24300,2018-06-20 17:32:56,20,0,22.712,3890.5243603892,185.36746,0.223694,1.1530676222,0,0,-0.671082,27.3, 1.3, 0.1,0,0,1024,1024,1024,1024,26.8,-89.9,96,3.775,3.772,3.766,3.836,3.827,3.773,20.458,71.6,14,Waypoint,
38.5387361,-120.5236212,3891.5086123892,186.351712,0,0.86611551328,24400,2018-06-20 17:32:56,20,0,22.712,3891.5086123892,186.351712,0.223694,1.1530676222,0,0,-0.671082,27.4, 1.2, 0,0,0,1024,1024,1024,1024,26.8,-89.9,96,3.775,3.772,3.766,3.836,3.827,3.773,20.458,71.6,14,Waypoint,
38.5387362,-120.5236212,3892.4928643892,187.335964,0,0.85606630036,24500,2018-06-20 17:32:56,20,0,22.712,3892.4928643892,187.335964,0.223694,1.1530676222,0,0,-0.671082,27.4, 1.3, 0,0,0,1024,1024,1024,1024,26.8,-89.9,96,3.775,3.772,3.766,3.836,3.827,3.773,20.458,71.6,14,Waypoint,
38.5387362,-120.5236211,3893.4771163892,188.320216,0,0.88368441148,24600,2018-06-20 17:32:56,20,0,22.712,3893.4771163892,188.320216,0.223694,1.1530676222,0,0,-0.671082,27.5, 1.4, -0.2,0,0,1024,1024,1024,1024,26.8,-89.9,96,3.775,3.772,3.766,3.836,3.827,3.773,20.458,71.6,14,Waypoint,
38.5387362,-120.5236211,3894.4613683892,189.304468,0,0.88368441148,24700,2018-06-20 17:32:56,20,0,22.712,3894.4613683892,189.304468,0.223694,1.1530676222,0,0,-0.671082,27.5, 1.4, -0.3,0,0,1024,1024,1024,1024,26.8,-89.9,96,3.775,3.772,3.766,3.836,3.827,3.773,20.458,71.6,14,Waypoint,
38.5387362,-120.5236211,3896.4298723892,191.272972,0,0.88368441148,24800,2018-06-20 17:32:56,20,0,22.712,3896.4298723892,191.272972,0.223694,1.1530676222,0,0,-0.671082,27.4, 1.4, -0.2,0,0,1024,1024,1024,1024,26.8,-89.9,96,3.775,3.772,3.766,3.836,3.827,3.773,20.458,71.6,14,Waypoint,
38.5387363,-120.5236211,3897.4141243892,192.257224,0,0.8753609204,24900,2018-06-20 17:32:57,20,0,22.712,3897.4141243892,192.257224,0.223694,1.1530676222,0,0,-0.671082,27.3, 1.3, -0.1,0,0,1024,1024,1024,1024,26.8,-89.9,96,3.775,3.772,3.766,3.836,3.827,3.773,20.458,71.6,14,Waypoint,
38.5387362,-120.5236212,3898.3983763892,193.241476,0,0.85606630036,25000,2018-06-20 17:32:57,20,0,22.771,3898.3983763892,193.241476,0.223694,1.1530676222,0,0,-0.671082,27.3, 1.2, 0.1,0,0,1024,1024,1024,1024,26.8,-89.9,96,3.778,3.772,3.777,3.837,3.828,3.781,19.73,71.6,14,Waypoint,
38.5387362,-120.5236212,3899.3826283892,194.225728,0,0.85606630036,25100,2018-06-20 17:32:57,20,0,22.771,3899.3826283892,194.225728,0.223694,1.1530676222,0,0,-0.671082,27.2, 1.2, 0.1,0,0,1024,1024,1024,1024,26.8,-89.9,96,3.778,3.772,3.777,3.837,3.828,3.781,19.73,71.6,14,Waypoint,
38.5387363,-120.5236212,3901.3511323892,196.194232,0,0.84747049956,25300,2018-06-20 17:32:57,20,0,22.771,3901.3511323892,196.194232,0.223694,1.1530676222,0,0,-0.671082,27.3, 1.3, 0.1,0,0,1024,1024,1024,1024,26.8,-89.9,96,3.778,3.772,3.777,3.837,3.828,3.781,19.73,71.6,14,Waypoint,
38.5387363,-120.5236213,3902.3353843892,197.178484,0,0.81962601048,25400,2018-06-20 17:32:57,20,0,22.771,3902.3353843892,197.178484,0.223694,1.1530676222,0,0,-0.671082,27.3, 1.3, 0,0,0,1024,1024,1024,1024,26.8,-89.9,96,3.778,3.772,3.777,3.837,3.828,3.781,19.73,71.6,14,Waypoint,
38.5387363,-120.5236213,3903.3196363892,198.162736,0,0.81962601048,25500,2018-06-20 17:32:57,20,0,22.771,3903.3196363892,198.162736,0.223694,1.1530676222,0,0,-0.671082,27.4, 1.2, 0,0,0,1024,1024,1024,1024,26.8,-89.9,96,3.778,3.772,3.777,3.837,3.828,3.781,19.73,71.6,14,Waypoint,
38.5387363,-120.5236213,3904.3038883892,199.146988,0,0.81962601048,25600,2018-06-20 17:32:57,20,0,22.771,3904.3038883892,199.146988,0.223694,1.1530676222,0,0,-0.671082,27.4, 1.1, 0.1,0,0,1024,1024,1024,1024,26.8,-89.9,96,3.778,3.772,3.777,3.837,3.828,3.781,19.73,71.6,14,Waypoint,
38.5387362,-120.5236214,3905.2881403892,200.13124,0,0.80102036684,25700,2018-06-20 17:32:57,20,0,22.771,3905.2881403892,200.13124,0.223694,1.1530676222,0,0,-0.671082,27.5, 1.2, 0.2,0,0,1024,1024,1024,1024,26.8,-89.9,96,3.778,3.772,3.777,3.837,3.828,3.781,19.73,71.6,14,Waypoint,
38.5387362,-120.5236214,3906.2723923892,201.115492,0,0.80102036684,25800,2018-06-20 17:32:57,20,0,22.771,3906.2723923892,201.115492,0.223694,1.1530676222,0,0,-0.671082,27.5, 1.1, 0.1,0,0,1024,1024,1024,1024,26.8,-89.9,96,3.778,3.772,3.777,3.837,3.828,3.781,19.73,71.6,14,Waypoint,
38.5387362,-120.5236213,3907.2566443892,202.099744,0,0.8285105252,26000,2018-06-20 17:32:58,20,0,22.779,3907.2566443892,202.099744,0.223694,1.1530676222,0,0,-0.671082,27.4, 1.1, 0.1,0,0,1024,1024,1024,1024,26.8,-89.9,96,3.785,3.783,3.785,3.836,3.83,3.788,19.444,71.6,14,Waypoint,
38.5387362,-120.5236214,3908.2408963892,203.083996,0,0.80102036684,26100,2018-06-20 17:32:58,20,0,22.779,3908.2408963892,203.083996,0.223694,1.1530676222,0,0,-0.671082,27.4, 1.1, 0.1,0,0,1024,1024,1024,1024,26.8,-89.9,96,3.785,3.783,3.785,3.836,3.83,3.788,19.444,71.6,14,Waypoint,
38.5387362,-120.5236214,3909.2251483892,204.068248,0,0.80102036684,26200,2018-06-20 17:32:58,20,0,22.779,3909.2251483892,204.068248,0.223694,1.1530676222,0,0,-0.671082,27.4, 1.1, 0.1,0,0,1024,1024,1024,1024,26.8,-89.9,96,3.785,3.783,3.785,3.836,3.83,3.788,19.444,71.6,14,Waypoint,
38.5387362,-120.5236214,3910.2094003892,205.0525,0,0.80102036684,26300,2018-06-20 17:32:58,20,0,22.779,3910.2094003892,205.0525,0.223694,1.1530676222,0,0,-0.671082,27.4, 1, 0,0,0,1024,1024,1024,1024,26.8,-90,96,3.785,3.783,3.785,3.836,3.83,3.788,19.444,71.6,14,Waypoint,
38.5387361,-120.5236213,3911.1936523892,206.036752,0,0.83888782212,26400,2018-06-20 17:32:58,20,0,22.779,3911.1936523892,206.036752,0.223694,1.1530676222,0,0,-0.671082,27.4, 1, -0.1,0,0,1024,1024,1024,1024,26.8,-89.9,96,3.785,3.783,3.785,3.836,3.83,3.788,19.444,71.6,14,Waypoint,
38.5387361,-120.5236213,3912.1779043892,207.021004,0,0.83888782212,26500,2018-06-20 17:32:58,20,0,22.779,3912.1779043892,207.021004,0.223694,1.1530676222,0,0,-0.671082,27.3, 1.2, -0.2,0,0,1024,1024,1024,1024,26.8,-89.9,96,3.785,3.783,3.785,3.836,3.83,3.788,19.444,71.6,14,Waypoint,
