latitude,longitude,altitude(feet),ascent(feet),speed(mph),distance(feet),time(millisecond),datetime(utc),satellites,gpslevel,voltage(v),max_altitude(feet),max_ascent(feet),max_speed(mph),max_distance(feet), xSpeed(mph), ySpeed(mph), zSpeed(mph), compass_heading(degrees), pitch(degrees), roll(degrees),isPhoto,isVideo,rc_elevator,rc_aileron,rc_throttle,rc_rudder,gimbal_heading(degrees),gimbal_pitch(degrees),battery_percent,voltageCell1,voltageCell2,voltageCell3,voltageCell4,voltageCell5,voltageCell6,current(A),battery_temperature(f),flycStateRaw,flycState,message
38.5386927,-120.523591,3703.1055745361,0,0,0,3200,2018-06-20 18:08:51,11,0,0,3703.1055745361,0,0,0,0,0,0,30.1, 1.2, -0.5,1,0,1024,1024,1024,1024,30.4,-89.9,100,4.019,4.007,4.045,4.023,4.057,3.967,0,68,11,AutoTakeoff,DJI_0171.jpg Starting Mission from Lat/Long: 38.53869/-120.52359 Camera: Zenmuse X3 - Overlap: 90/90 - Active Connection: No
38.5386927,-120.5235912,3703.1055745361,0,0.223694,0.057076117312,3300,2018-06-20 18:08:51,11,0,0,3703.1055745361,0,0.223694,0.057076117312,0,0,0,30.1, 0.7, 0,0,0,1024,1024,1024,1024,30.4,-89.9,100,4.019,4.007,4.045,4.023,4.057,3.967,0,68,11,AutoTakeoff,
38.5386928,-120.5235916,3703.4336585361,0.328084,0.223694,0.17507218408,3500,2018-06-20 18:08:52,11,0,0,3703.4336585361,0.328084,0.223694,0.17507218408,0,0,0,30, 0, 0.8,0,0,1024,1024,1024,1024,30.4,-90,100,4.019,4.007,4.045,4.023,4.057,3.967,0,68,11,AutoTakeoff,
38.5386928,-120.5235918,3703.4336585361,0.328084,0.223694,0.231201450968,3600,2018-06-20 18:08:52,11,0,0,3703.4336585361,0.328084,0.223694,0.231201450968,0,0,0,30, -0.1, 1,0,0,1024,1024,1024,1024,30.4,-89.9,100,4.019,4.007,4.045,4.023,4.057,3.967,0,68,11,AutoTakeoff,
38.5386929,-120.5235919,3703.4336585361,0.328084,0.223694,0.267006898308,3700,2018-06-20 18:08:52,11,0,0,3703.4336585361,0.328084,0.223694,0.267006898308,0,0,0,30, -0.1, 1.2,0,0,1024,1024,1024,1024,30.4,-90,100,4.019,4.007,4.045,4.023,4.057,3.967,0,68,11,AutoTakeoff,
38.5386929,-120.523592,3703.7617425361,0.656168,0.223694,0.2945620173,3800,2018-06-20 18:08:52,11,0,0,3703.7617425361,0.656168,0.223694,0.2945620173,0,0,0,30, -0.1, 1.1,0,0,1024,1024,1024,1024,30.4,-89.9,100,4.019,4.007,4.045,4.023,4.057,3.967,0,68,11,AutoTakeoff,
38.538693,-120.5235921,3703.7617425361,0.656168,0.223694,0.33245407888,3900,2018-06-20 18:08:52,12,0,0,3703.7617425361,0.656168,0.223694,0.33245407888,0,0,0,30, 0, 1,0,0,1024,1024,1024,1024,30.4,-89.9,100,4.019,4.007,4.045,4.023,4.057,3.967,0,68,11,AutoTakeoff,
38.5386931,-120.5235922,3704.0898265361,0.984252,0.223694,0.37225722976,4000,2018-06-20 18:08:52,12,0,24.563,3704.0898265361,0.984252,0.223694,0.37225722976,0,0,0,30, 0.1, 1.2,0,0,1024,1024,1024,1024,30.4,-89.9,100,4.019,4.007,4.045,4.023,4.057,3.967,8.747,68,11,AutoTakeoff,
38.5386932,-120.5235923,3704.0898265361,0.984252,0.223694,0.4134186484,4100,2018-06-20 18:08:52,12,0,24.563,3704.0898265361,0.984252,0.223694,0.4134186484,0,0,0,30, 0.5, 1.6,0,0,1024,1024,1024,1024,30.4,-89.9,100,4.019,4.007,4.045,4.023,4.057,3.967,8.747,68,11,AutoTakeoff,
38.5386934,-120.5235925,3704.4179105361,1.312336,0.223694,0.49846786372,4200,2018-06-20 18:08:52,12,0,24.563,3704.4179105361,1.312336,0.223694,0.49846786372,0,0,0,30, 0.7, 1.9,0,0,1024,1024,1024,1024,30.4,-89.9,100,4.019,4.007,4.045,4.023,4.057,3.967,8.747,68,11,AutoTakeoff,
38.5386935,-120.5235925,3704.4179105361,1.312336,0.223694,0.5181102528,4300,2018-06-20 18:08:52,11,0,24.563,3704.4179105361,1.312336,0.223694,0.5181102528,0,0,0,30, 0.7, 2,0,0,1024,1024,1024,1024,30.4,-89.9,100,4.019,4.007,4.045,4.023,4.057,3.967,8.747,68,11,AutoTakeoff,
38.5386936,-120.5235925,3704.7459945361,1.64042,0.223694,0.53950789128,4400,2018-06-20 18:08:53,11,0,24.563,3704.7459945361,1.64042,0.223694,0.53950789128,0,0,0,30.2, 0.8, 2.1,0,0,1024,1024,1024,1024,30.4,-89.9,100,4.019,4.007,4.045,4.023,4.057,3.967,8.747,68,11,AutoTakeoff,
38.5386936,-120.5235925,3704.7459945361,1.64042,0,0.53950789128,4500,2018-06-20 18:08:53,11,0,24.563,3704.7459945361,1.64042,0.223694,0.53950789128,0,0,-0.223694,30.3, 0.9, 2.1,0,0,1024,1024,1024,1024,30.4,-89.9,100,4.019,4.007,4.045,4.023,4.057,3.967,8.747,68,11,AutoTakeoff,
38.5386937,-120.5235925,3705.0740785361,1.968504,0,0.56245736708,4600,2018-06-20 18:08:53,11,0,24.563,3705.0740785361,1.968504,0.223694,0.56245736708,0,0,-0.223694,30.5, 0.8, 2.1,0,0,1024,1024,1024,1024,30.4,-89.9,100,4.019,4.007,4.045,4.023,4.057,3.967,8.747,68,11,AutoTakeoff,
38.5386937,-120.5235925,3705.0740785361,1.968504,0,0.56245736708,4700,2018-06-20 18:08:53,11,0,24.563,3705.0740785361,1.968504,0.223694,0.56245736708,0,0,-0.223694,30.6, 0.9, 2.1,0,0,1024,1024,1024,1024,30.4,-89.9,100,4.019,4.007,4.045,4.023,4.057,3.967,8.747,68,11,AutoTakeoff,
38.5386938,-120.5235925,3705.4021625361,2.296588,0,0.58678151484,4800,2018-06-20 18:08:53,11,0,24.563,3705.4021625361,2.296588,0.223694,0.58678151484,0,0,-0.223694,30.7, 1, 2,0,0,1024,1024,1024,1024,30.4,-89.9,100,4.019,4.007,4.045,4.023,4.057,3.967,8.747,68,11,AutoTakeoff,
38.5386938,-120.5235926,3705.7302465361,2.624672,0,0.60791668612,4900,2018-06-20 18:08:53,10,0,24.563,3705.7302465361,2.624672,0.223694,0.60791668612,0,0,-0.223694,30.7, 1.1, 1.9,0,0,1024,1024,1024,1024,30.4,-89.9,100,4.019,4.007,4.045,4.023,4.057,3.967,8.747,68,11,AutoTakeoff,
38.5386939,-120.5235926,3705.7302465361,2.624672,0,0.6325951646,5000,2018-06-20 18:08:53,10,0,23.559,3705.7302465361,2.624672,0.223694,0.6325951646,0,0,-0.223694,30.7, 1.2, 2,0,0,1024,1024,1024,1024,30.4,-89.9,100,3.914,3.912,3.932,3.93,3.947,3.905,16.766,68,11,AutoTakeoff,
38.5386939,-120.5235927,3706.0583305361,2.952756,0,0.6534941154,5100,2018-06-20 18:08:53,10,0,23.559,3706.0583305361,2.952756,0.223694,0.6534941154,0,0,-0.223694,30.6, 1.2, 2,0,0,1024,1024,1024,1024,30.4,-89.9,100,3.914,3.912,3.932,3.93,3.947,3.905,16.766,68,6,P-GPS,
38.538694,-120.5235927,3706.0583305361,2.952756,0,0.678477712,5200,2018-06-20 18:08:53,10,0,23.559,3706.0583305361,2.952756,0.223694,0.678477712,0,0,0,30.4, 1.3, 2.2,0,0,1024,1024,1024,1024,30.4,-89.9,100,3.914,3.912,3.932,3.93,3.947,3.905,16.766,68,14,Waypoint,
38.538694,-120.5235927,3706.3864145361,3.28084,0,0.678477712,5300,2018-06-20 18:08:53,11,0,23.559,3706.3864145361,3.28084,0.223694,0.678477712,0,0,0,30.3, 1.2, 1.2,0,0,1024,1024,1024,1024,30.4,-89.9,100,3.914,3.912,3.932,3.93,3.947,3.905,16.766,68,14,Waypoint,
38.538694,-120.5235927,3706.7144985361,3.608924,0,0.678477712,5400,2018-06-20 18:08:54,13,0,23.559,3706.7144985361,3.608924,0.223694,0.678477712,0,0,0,30.1, 0.8, 0.4,0,0,1024,1024,1024,1024,30.4,-89.9,100,3.914,3.912,3.932,3.93,3.947,3.905,16.766,68,14,Waypoint,
38.5386941,-120.5235928,3706.7144985361,3.608924,0,0.72441603368,5600,2018-06-20 18:08:54,11,0,23.559,3706.7144985361,3.608924,0.223694,0.72441603368,0,0,0,30.2, 0.7, 0.9,0,0,1024,1024,1024,1024,30.4,-89.9,100,3.914,3.912,3.932,3.93,3.947,3.905,16.766,68,14,Waypoint,
38.5386941,-120.5235929,3707.0425825361,3.937008,0,0.74492456452,5800,2018-06-20 18:08:54,11,0,23.559,3707.0425825361,3.937008,0.223694,0.74492456452,0,0,-0.223694,30.4, 0.6, 1.2,0,0,1024,1024,1024,1024,30.4,-89.9,100,3.914,3.912,3.932,3.93,3.947,3.905,16.766,68,14,Waypoint,
38.5386942,-120.523593,3707.3706665361,4.265092,0,0.79074477596,5900,2018-06-20 18:08:54,11,0,23.559,3707.3706665361,4.265092,0.223694,0.79074477596,0,0,-0.223694,30.5, 0.6, 1.5,0,0,1024,1024,1024,1024,30.4,-89.9,100,3.914,3.912,3.932,3.93,3.947,3.905,16.766,68,14,Waypoint,
38.5386943,-120.5235931,3707.6987505361,4.593176,0,0.83662076168,6000,2018-06-20 18:08:54,11,0,23.44,3707.6987505361,4.593176,0.223694,0.83662076168,0,0,-0.223694,30.6, 0.6, 1.8,0,0,1024,1024,1024,1024,30.4,-89.9,100,3.892,3.891,3.913,3.912,3.927,3.902,16.989,68,14,Waypoint,
38.5386944,-120.5235932,3708.0268345361,4.92126,0,0.88254267916,6100,2018-06-20 18:08:54,12,0,23.44,3708.0268345361,4.92126,0.223694,0.88254267916,0,0,-0.223694,30.6, 0.6, 1.9,0,0,1024,1024,1024,1024,30.4,-89.9,100,3.892,3.891,3.913,3.912,3.927,3.902,16.989,68,14,Waypoint,
38.5386944,-120.5235932,3708.6830025361,5.577428,0,0.88254267916,6200,2018-06-20 18:08:54,12,0,23.44,3708.6830025361,5.577428,0.223694,0.88254267916,0,0,-0.447388,30.6, 0.7, 1.8,0,0,1024,1024,1024,1024,30.4,-89.9,100,3.892,3.891,3.913,3.912,3.927,3.902,16.989,68,14,Waypoint,
38.5386945,-120.5235932,3709.0110865361,5.905512,0,0.90855645952,6300,2018-06-20 18:08:54,12,0,23.44,3709.0110865361,5.905512,0.223694,0.90855645952,0,0,-0.447388,30.5, 0.8, 1.6,0,0,1024,1024,1024,1024,30.4,-89.9,100,3.892,3.891,3.913,3.912,3.927,3.902,16.989,68,14,Waypoint,
38.5386946,-120.5235933,3709.6672545361,6.56168,0,0.9546588232,6400,2018-06-20 18:08:55,12,0,23.44,3709.6672545361,6.56168,0.223694,0.9546588232,0,0,-0.447388,30.3, 0.9, 1.6,0,0,1024,1024,1024,1024,30.4,-89.9,100,3.892,3.891,3.913,3.912,3.927,3.902,16.989,68,14,Waypoint,
38.5386946,-120.5235933,3710.3234225361,7.217848,0,0.9546588232,6500,2018-06-20 18:08:55,12,0,23.44,3710.3234225361,7.217848,0.223694,0.9546588232,0,0,-0.447388,30.2, 0.9, 1.7,0,0,1024,1024,1024,1024,30.4,-89.9,100,3.892,3.891,3.913,3.912,3.927,3.902,16.989,68,14,Waypoint,
38.5386947,-120.5235933,3710.9795905361,7.874016,0,0.98147312852,6600,2018-06-20 18:08:55,12,0,23.44,3710.9795905361,7.874016,0.223694,0.98147312852,0,0,-0.447388,30.1, 1, 1.7,0,0,1024,1024,1024,1024,30.4,-89.9,100,3.892,3.891,3.913,3.912,3.927,3.902,16.989,68,14,Waypoint,
38.5386947,-120.5235932,3711.9638425361,8.858268,0,0.96262142188,6700,2018-06-20 18:08:55,11,0,23.44,3711.9638425361,8.858268,0.223694,0.98147312852,0,0,-0.447388,30, 1.1, 1.6,0,0,1024,1024,1024,1024,30.4,-89.9,100,3.892,3.891,3.913,3.912,3.927,3.902,16.989,68,14,Waypoint,
38.5386948,-120.5235931,3712.6200105361,9.514436,0,0.97272640908,6800,2018-06-20 18:08:55,11,0,23.44,3712.6200105361,9.514436,0.223694,0.98147312852,0,0,-0.671082,30, 1.1, 1.3,0,0,1024,1024,1024,1024,30.4,-89.9,100,3.892,3.891,3.913,3.912,3.927,3.902,16.989,68,14,Waypoint,
38.5386948,-120.523593,3713.6042625361,10.498688,0,0.95541013556,6900,2018-06-20 18:08:55,13,0,23.44,3713.6042625361,10.498688,0.223694,0.98147312852,0,0,-0.671082,30, 1.1, 1.1,0,0,1024,1024,1024,1024,30.4,-89.9,100,3.892,3.891,3.913,3.912,3.927,3.902,16.989,68,14,Waypoint,
38.5386948,-120.523593,3714.5885145361,11.48294,0,0.95541013556,7000,2018-06-20 18:08:55,13,0,23.035,3714.5885145361,11.48294,0.223694,0.98147312852,0,0,-0.671082,30.1, 1.2, 1,0,0,1024,1024,1024,1024,30.4,-89.9,98,3.812,3.816,3.848,3.848,3.832,3.83,17.901,68,14,Waypoint,
38.5386947,-120.5235929,3715.9008505361,12.795276,0,0.90910107896,7100,2018-06-20 18:08:55,11,0,23.035,3715.9008505361,12.795276,0.223694,0.98147312852,0,0,-0.671082,30.1, 1.2, 0.9,0,0,1024,1024,1024,1024,30.4,-89.9,98,3.812,3.816,3.848,3.848,3.832,3.83,17.901,68,14,Waypoint,
38.5386946,-120.5235928,3716.8851025361,13.779528,0,0.8627953032,7200,2018-06-20 18:08:55,11,0,23.035,3716.8851025361,13.779528,0.223694,0.98147312852,0,0,-0.671082,30.1, 1.1, 0.7,0,0,1024,1024,1024,1024,30.4,-90,98,3.812,3.816,3.848,3.848,3.832,3.83,17.901,68,14,Waypoint,
38.5386945,-120.5235927,3717.8693545361,14.76378,0,0.81649280828,7300,2018-06-20 18:08:55,10,0,23.035,3717.8693545361,14.76378,0.223694,0.98147312852,0,0,-0.671082,30.1, 0.7, 0.6,0,0,1024,1024,1024,1024,30.4,-90,98,3.812,3.816,3.848,3.848,3.832,3.83,17.901,68,14,Waypoint,
38.5386944,-120.5235925,3719.1816905361,16.076116,0,0.75362207136,7400,2018-06-20 18:08:56,10,0,23.035,3719.1816905361,16.076116,0.223694,0.98147312852,0,0,-0.671082,30.2, 0.5, 0.3,0,0,1024,1024,1024,1024,30.4,-90,98,3.812,3.816,3.848,3.848,3.832,3.83,17.901,68,14,Waypoint,
38.5386944,-120.5235924,3720.1659425361,17.060368,0,0.73778545668,7500,2018-06-20 18:08:56,12,0,23.035,3720.1659425361,17.060368,0.223694,0.98147312852,0,0,-0.671082,30.2, 0.4, 0,0,0,1024,1024,1024,1024,30.4,-89.9,98,3.812,3.816,3.848,3.848,3.832,3.83,17.901,68,14,Waypoint,
38.5386946,-120.5235925,3722.4625305361,19.356956,0,0.81473427804,7610,2018-06-20 18:08:56,12,0,23.035,3722.4625305361,19.356956,0.223694,0.98147312852,0,0,-0.671082,30.4, 0.6, 0.6,0,0,1024,1024,1024,1024,30.4,-89.9,98,3.812,3.816,3.848,3.848,3.832,3.83,17.901,68,14,Waypoint,
38.5386946,-120.5235925,3722.4625305361,19.356956,0,0.81473427804,7700,2018-06-20 18:08:56,12,0,23.035,3722.4625305361,19.356956,0.223694,0.98147312852,0,0,-0.671082,30.4, 0.6, 0.6,0,0,1024,1024,1024,1024,30.4,-89.9,98,3.812,3.816,3.848,3.848,3.832,3.83,17.901,68,14,Waypoint,
38.5386947,-120.5235926,3723.7748665361,20.669292,0,0.86078742912,7800,2018-06-20 18:08:56,12,0,23.035,3723.7748665361,20.669292,0.223694,0.98147312852,0,0,-0.671082,30.5, 0.9, 1.1,0,0,1024,1024,1024,1024,30.4,-89.9,98,3.812,3.816,3.848,3.848,3.832,3.83,17.901,68,14,Waypoint,
38.5386947,-120.5235926,3724.7591185361,21.653544,0,0.86078742912,8000,2018-06-20 18:08:56,13,0,23.035,3724.7591185361,21.653544,0.223694,0.98147312852,0,0,-0.671082,30.5, 1, 1.4,0,0,1024,1024,1024,1024,30.4,-89.9,98,3.812,3.816,3.848,3.848,3.832,3.83,17.901,68,14,Waypoint,
38.5386949,-120.5235927,3727.0557065361,23.950132,0,0.9378937308,8100,2018-06-20 18:08:56,16,0,23.035,3727.0557065361,23.950132,0.223694,0.98147312852,0,0,-0.671082,30.3, 1.2, 1.4,0,0,1024,1024,1024,1024,30.4,-89.9,98,3.812,3.816,3.848,3.848,3.832,3.83,17.901,68,14,Waypoint,
38.5386949,-120.5235928,3728.0399585361,24.934384,0,0.9529691906,8200,2018-06-20 18:08:56,16,0,23.035,3728.0399585361,24.934384,0.223694,0.98147312852,0,0,-0.671082,30.3, 1.1, 1.4,0,0,1024,1024,1024,1024,30.4,-89.9,98,3.812,3.816,3.848,3.848,3.832,3.83,17.901,68,14,Waypoint,
38.538695,-120.523593,3729.3522945361,26.24672,0,1.0148622372,8300,2018-06-20 18:08:56,14,0,23.035,3729.3522945361,26.24672,0.223694,1.0148622372,0,0,-0.671082,30.2, 0.7, 1.6,0,0,1024,1024,1024,1024,30.4,-90,98,3.812,3.816,3.848,3.848,3.832,3.83,17.901,68,14,Waypoint,
38.5386951,-120.5235931,3730.3365465361,27.230972,0,1.06108599196,8400,2018-06-20 18:08:57,14,0,23.035,3730.3365465361,27.230972,0.223694,1.06108599196,0,0,-0.671082,30.2, 0.4, 1.8,0,0,1024,1024,1024,1024,30.4,-90,98,3.812,3.816,3.848,3.848,3.832,3.83,17.901,68,14,Waypoint,
38.5386952,-120.5235931,3731.3207985361,28.215224,0,1.0913878302,8500,2018-06-20 18:08:57,15,0,23.035,3731.3207985361,28.215224,0.223694,1.0913878302,0,0,-0.671082,30.2, 0.6, 1.9,0,0,1024,1024,1024,1024,30.4,-89.9,98,3.812,3.816,3.848,3.848,3.832,3.83,17.901,68,14,Waypoint,
38.5386952,-120.5235931,3732.3050505361,29.199476,0,1.0913878302,8600,2018-06-20 18:08:57,15,0,23.035,3732.3050505361,29.199476,0.223694,1.0913878302,0,0,-0.671082,30.2, 0.9, 1.7,0,0,1024,1024,1024,1024,30.4,-89.9,98,3.812,3.816,3.848,3.848,3.832,3.83,17.901,68,14,Waypoint,
38.5386952,-120.5235931,3733.2893025361,30.183728,0,1.0913878302,8700,2018-06-20 18:08:57,15,0,23.035,3733.2893025361,30.183728,0.223694,1.0913878302,0,0,-0.671082,30.1, 1.1, 1.4,0,0,1024,1024,1024,1024,30.4,-89.9,98,3.812,3.816,3.848,3.848,3.832,3.83,17.901,68,14,Waypoint,
38.5386953,-120.5235931,3734.2735545361,31.16798,0,1.12206040336,8800,2018-06-20 18:08:57,15,0,23.035,3734.2735545361,31.16798,0.223694,1.12206040336,0,0,-0.671082,30.1, 1.1, 1.2,0,0,1024,1024,1024,1024,30.4,-89.9,98,3.812,3.816,3.848,3.848,3.832,3.83,17.901,68,14,Waypoint,
38.5386953,-120.5235932,3735.2578065361,32.152232,0,1.13755909152,8900,2018-06-20 18:08:57,14,0,23.035,3735.2578065361,32.152232,0.223694,1.13755909152,0,0,-0.671082,30.1, 1.2, 1.2,0,0,1024,1024,1024,1024,30.4,-89.9,98,3.812,3.816,3.848,3.848,3.832,3.83,17.901,68,14,Waypoint,
38.5386952,-120.5235932,3736.5701425361,33.464568,0,1.1073163084,9000,2018-06-20 18:08:57,14,0,22.59,3736.5701425361,33.464568,0.223694,1.13755909152,0,0,-0.671082,30, 1, 1.2,0,0,1024,1024,1024,1024,30.4,-89.9,98,3.778,3.773,3.784,3.779,3.805,3.754,24.554,68,14,Waypoint,
38.5386952,-120.5235932,3737.5543945361,34.44882,0,1.1073163084,9100,2018-06-20 18:08:57,15,0,22.59,3737.5543945361,34.44882,0.223694,1.13755909152,0,0,-0.671082,30.1, 0.7, 1.2,0,0,1024,1024,1024,1024,30.4,-90,98,3.778,3.773,3.784,3.779,3.805,3.754,24.554,68,14,Waypoint,
38.5386952,-120.5235933,3738.5386465361,35.433072,0,1.12374347428,9200,2018-06-20 18:08:57,15,0,22.59,3738.5386465361,35.433072,0.223694,1.13755909152,0,0,-0.671082,30.1, 0.5, 1.3,0,0,1024,1024,1024,1024,30.4,-90,98,3.778,3.773,3.784,3.779,3.805,3.754,24.554,68,14,Waypoint,
38.5386952,-120.5235933,3739.5228985361,36.417324,0,1.12374347428,9300,2018-06-20 18:08:57,16,0,22.59,3739.5228985361,36.417324,0.223694,1.13755909152,0,0,-0.671082,30.1, 0.3, 1.4,0,0,1024,1024,1024,1024,30.4,-90,98,3.778,3.773,3.784,3.779,3.805,3.754,24.554,68,14,Waypoint,
38.5386951,-120.5235934,3740.5071505361,37.401576,0,1.11168638728,9400,2018-06-20 18:08:58,16,0,22.59,3740.5071505361,37.401576,0.223694,1.13755909152,0,0,-0.671082,30.2, 0.2, 1.4,0,0,1024,1024,1024,1024,30.4,-89.9,98,3.778,3.773,3.784,3.779,3.805,3.754,24.554,68,14,Waypoint,
38.5386951,-120.5235934,3741.4914025361,38.385828,0,1.11168638728,9500,2018-06-20 18:08:58,15,0,22.59,3741.4914025361,38.385828,0.223694,1.13755909152,0,0,-0.671082,30.3, 0.2, 1.3,0,0,1024,1024,1024,1024,30.4,-89.9,98,3.778,3.773,3.784,3.779,3.805,3.754,24.554,68,14,Waypoint,
38.538695,-120.5235934,3742.4756545361,39.37008,0,1.08318244936,9600,2018-06-20 18:08:58,15,0,22.59,3742.4756545361,39.37008,0.223694,1.13755909152,0,0,-0.671082,30.4, 0.3, 1.1,0,0,1024,1024,1024,1024,30.4,-90,98,3.778,3.773,3.784,3.779,3.805,3.754,24.554,68,14,Waypoint,
38.538695,-120.5235934,3743.4599065361,40.354332,0,1.08318244936,9700,2018-06-20 18:08:58,15,0,22.59,3743.4599065361,40.354332,0.223694,1.13755909152,0,0,-0.671082,30.5, 0.3, 0.8,0,0,1024,1024,1024,1024,30.4,-90,98,3.778,3.773,3.784,3.779,3.805,3.754,24.554,68,14,Waypoint,
38.5386949,-120.5235933,3744.4441585361,41.338584,0,1.03687339276,9800,2018-06-20 18:08:58,15,0,22.59,3744.4441585361,41.338584,0.223694,1.13755909152,0,0,-0.671082,30.5, 0.3, 0.7,0,0,1024,1024,1024,1024,30.4,-90,98,3.778,3.773,3.784,3.779,3.805,3.754,24.554,68,14,Waypoint,
38.5386949,-120.5235933,3745.4284105361,42.322836,0,1.03687339276,9900,2018-06-20 18:08:58,16,0,22.59,3745.4284105361,42.322836,0.223694,1.13755909152,0,0,-0.671082,30.4, 0.4, 0.7,0,0,1024,1024,1024,1024,30.4,-89.9,98,3.778,3.773,3.784,3.779,3.805,3.754,24.554,68,14,Waypoint,
38.5386949,-120.5235933,3746.4126625361,43.307088,0,1.03687339276,10100,2018-06-20 18:08:58,16,0,22.59,3746.4126625361,43.307088,0.223694,1.13755909152,0,0,-0.671082,30.4, 0.4, 0.7,0,0,1024,1024,1024,1024,30.4,-89.9,98,3.778,3.773,3.784,3.779,3.805,3.754,24.554,68,14,Waypoint,
38.5386949,-120.5235934,3747.3969145361,44.29134,0,1.05517063744,10200,2018-06-20 18:08:58,16,0,22.59,3747.3969145361,44.29134,0.223694,1.13755909152,0,0,-0.671082,30.4, 0.4, 0.8,0,0,1024,1024,1024,1024,30.4,-89.9,98,3.778,3.773,3.784,3.779,3.805,3.754,24.554,68,14,Waypoint,
38.5386948,-120.5235934,3749.3654185361,46.259844,0,1.0276903216,10300,2018-06-20 18:08:58,16,0,22.59,3749.3654185361,46.259844,0.223694,1.13755909152,0,0,-0.671082,30.3, 0.4, 0.9,0,0,1024,1024,1024,1024,30.4,-89.9,98,3.778,3.773,3.784,3.779,3.805,3.754,24.554,68,14,Waypoint,
38.5386947,-120.5235934,3750.3496705361,47.244096,0,1.00078415276,10400,2018-06-20 18:08:59,16,0,22.59,3750.3496705361,47.244096,0.223694,1.13755909152,0,0,-0.671082,30.2, 0.3, 1,0,0,1024,1024,1024,1024,30.4,-90,98,3.778,3.773,3.784,3.779,3.805,3.754,24.554,68,14,Waypoint,
38.5386947,-120.5235933,3751.3339225361,48.228348,0,0.98147312852,10500,2018-06-20 18:08:59,16,0,22.59,3751.3339225361,48.228348,0.223694,1.13755909152,0,0,-0.671082,30.3, 0.2, 0.9,0,0,1024,1024,1024,1024,30.4,-90,98,3.778,3.773,3.784,3.779,3.805,3.754,24.554,68,14,Waypoint,
38.5386946,-120.5235933,3752.3181745361,49.2126,0,0.9546588232,10600,2018-06-20 18:08:59,16,0,22.59,3752.3181745361,49.2126,0.223694,1.13755909152,0,0,-0.671082,30.3, 0.2, 0.8,0,0,1024,1024,1024,1024,30.4,-89.9,98,3.778,3.773,3.784,3.779,3.805,3.754,24.554,68,14,Waypoint,
38.5386945,-120.5235933,3753.3024265361,50.196852,0,0.92850396672,10700,2018-06-20 18:08:59,16,0,22.59,3753.3024265361,50.196852,0.223694,1.13755909152,0,0,-0.671082,30.4, 0.2, 0.8,0,0,1024,1024,1024,1024,30.4,-89.9,98,3.778,3.773,3.784,3.779,3.805,3.754,24.554,68,14,Waypoint,
38.5386945,-120.5235933,3754.2866785361,51.181104,0,0.92850396672,10800,2018-06-20 18:08:59,16,0,22.59,3754.2866785361,51.181104,0.223694,1.13755909152,0,0,-0.671082,30.4, 0.2, 0.7,0,0,1024,1024,1024,1024,30.4,-89.9,98,3.778,3.773,3.784,3.779,3.805,3.754,24.554,68,14,Waypoint,
38.5386945,-120.5235933,3755.2709305361,52.165356,0,0.92850396672,10900,2018-06-20 18:08:59,16,0,22.59,3755.2709305361,52.165356,0.223694,1.13755909152,0,0,-0.671082,30.4, 0.1, 0.6,0,0,1024,1024,1024,1024,30.4,-90,98,3.778,3.773,3.784,3.779,3.805,3.754,24.554,68,14,Waypoint,
38.5386945,-120.5235933,3756.2551825361,53.149608,0,0.92850396672,11000,2018-06-20 18:08:59,16,0,22.968,3756.2551825361,53.149608,0.223694,1.13755909152,0,0,-0.671082,30.4, 0.1, 0.7,0,0,1024,1024,1024,1024,30.4,-89.9,98,3.811,3.804,3.83,3.836,3.85,3.814,19.28,68,14,Waypoint,
38.5386944,-120.5235934,3757.2394345361,54.13386,0,0.92401905844,11100,2018-06-20 18:08:59,16,0,22.968,3757.2394345361,54.13386,0.223694,1.13755909152,0,0,-0.671082,30.4, 0.3, 0.7,0,0,1024,1024,1024,1024,30.4,-89.9,98,3.811,3.804,3.83,3.836,3.85,3.814,19.28,68,14,Waypoint,
38.5386944,-120.5235934,3758.5517705361,55.446196,0,0.92401905844,11200,2018-06-20 18:08:59,16,0,22.968,3758.5517705361,55.446196,0.223694,1.13755909152,0,0,-0.671082,30.5, 0.3, 0.9,0,0,1024,1024,1024,1024,30.4,-89.9,98,3.811,3.804,3.83,3.836,3.85,3.814,19.28,68,14,Waypoint,
38.5386943,-120.5235933,3759.5360225361,56.430448,0,0.87840882076,11300,2018-06-20 18:08:59,16,0,22.968,3759.5360225361,56.430448,0.223694,1.13755909152,0,0,-0.671082,30.5, 0.3, 1,0,0,1024,1024,1024,1024,30.4,-89.9,98,3.811,3.804,3.83,3.836,3.85,3.814,19.28,68,14,Waypoint,
38.5386943,-120.5235933,3760.5202745361,57.4147,0,0.87840882076,11400,2018-06-20 18:09:00,16,0,22.968,3760.5202745361,57.4147,0.223694,1.13755909152,0,0,-0.671082,30.5, 0.1, 1.1,0,0,1024,1024,1024,1024,30.4,-89.9,98,3.811,3.804,3.83,3.836,3.85,3.814,19.28,68,14,Waypoint,
38.5386943,-120.5235933,3761.5045265361,58.398952,0,0.87840882076,11500,2018-06-20 18:09:00,16,0,22.968,3761.5045265361,58.398952,0.223694,1.13755909152,0,0,-0.671082,30.5, 0, 0.9,0,0,1024,1024,1024,1024,30.4,-89.9,98,3.811,3.804,3.83,3.836,3.85,3.814,19.28,68,14,Waypoint,
38.5386943,-120.5235933,3762.4887785361,59.383204,0,0.87840882076,11600,2018-06-20 18:09:00,16,0,22.968,3762.4887785361,59.383204,0.223694,1.13755909152,0,0,-0.671082,30.4, 0, 0.7,0,0,1024,1024,1024,1024,30.4,-89.9,98,3.811,3.804,3.83,3.836,3.85,3.814,19.28,68,14,Waypoint,
38.5386942,-120.5235933,3763.4730305361,60.367456,0,0.85459648404,11700,2018-06-20 18:09:00,16,0,22.968,3763.4730305361,60.367456,0.223694,1.13755909152,0,0,-0.671082,30.4, 0, 0.6,0,0,1024,1024,1024,1024,30.4,-89.9,98,3.811,3.804,3.83,3.836,3.85,3.814,19.28,68,14,Waypoint,
38.5386942,-120.5235932,3764.4572825361,61.351708,0,0.83288060408,11800,2018-06-20 18:09:00,16,0,22.968,3764.4572825361,61.351708,0.223694,1.13755909152,0,0,-0.671082,30.4, 0.2, 0.5,0,0,1024,1024,1024,1024,30.4,-89.9,98,3.811,3.804,3.83,3.836,3.85,3.814,19.28,68,14,Waypoint,
38.5386942,-120.5235931,3765.4415345361,62.33596,0,0.81158467164,11900,2018-06-20 18:09:00,16,0,22.968,3765.4415345361,62.33596,0.223694,1.13755909152,0,0,-0.671082,30.4, 0.5, 0.6,0,0,1024,1024,1024,1024,30.4,-89.9,98,3.811,3.804,3.83,3.836,3.85,3.814,19.28,68,14,Waypoint,
38.5386943,-120.5235931,3766.4257865361,63.320212,0,0.83662076168,12100,2018-06-20 18:09:00,16,0,22.968,3766.4257865361,63.320212,0.223694,1.13755909152,0,0,-0.671082,30.3, 0.7, 1,0,0,1024,1024,1024,1024,30.4,-89.9,98,3.811,3.804,3.83,3.836,3.85,3.814,19.28,68,14,Waypoint,
38.5386944,-120.5235931,3768.0662065361,64.960632,0,0.86247378088,12200,2018-06-20 18:09:00,16,0,22.968,3768.0662065361,64.960632,0.223694,1.13755909152,0,0,-0.671082,30.3, 1.4, 1.4,0,0,1024,1024,1024,1024,30.4,-89.9,98,3.811,3.804,3.83,3.836,3.85,3.814,19.28,68,14,Waypoint,
38.5386944,-120.523593,3771.3470465361,68.241472,0,0.84289372776,12500,2018-06-20 18:09:01,16,0,22.968,3771.3470465361,68.241472,0.223694,1.13755909152,0,0,-0.671082,30.3, 1.7, 1.1,0,0,1024,1024,1024,1024,30.4,-89.9,98,3.811,3.804,3.83,3.836,3.85,3.814,19.28,68,14,Waypoint,
38.5386944,-120.523593,3773.3155505361,70.209976,0,0.84289372776,12700,2018-06-20 18:09:01,16,0,22.968,3773.3155505361,70.209976,0.223694,1.13755909152,0,0,-0.671082,30.4, 0.7, 0.9,0,0,1024,1024,1024,1024,30.4,-89.9,98,3.811,3.804,3.83,3.836,3.85,3.814,19.28,68,14,Waypoint,
38.5386943,-120.523593,3774.2998025361,71.194228,0,0.8164206298,12800,2018-06-20 18:09:01,16,0,22.968,3774.2998025361,71.194228,0.223694,1.13755909152,0,0,-0.671082,30.4, 0.4, 0.6,0,0,1024,1024,1024,1024,30.4,-90,98,3.811,3.804,3.83,3.836,3.85,3.814,19.28,68,14,Waypoint,
38.5386943,-120.523593,3775.2840545361,72.17848,0,0.8164206298,12900,2018-06-20 18:09:01,16,0,22.968,3775.2840545361,72.17848,0.223694,1.13755909152,0,0,-0.671082,30.4, 0.1, 0.6,0,0,1024,1024,1024,1024,30.4,-90,98,3.811,3.804,3.83,3.836,3.85,3.814,19.28,68,14,Waypoint,
38.5386942,-120.5235931,3776.2683065361,73.162732,0,0.81158467164,13000,2018-06-20 18:09:01,16,0,22.905,3776.2683065361,73.162732,0.223694,1.13755909152,0,0,-0.671082,30.2, -0.1, 0.7,0,0,1024,1024,1024,1024,30.4,-90,98,3.802,3.805,3.818,3.825,3.845,3.801,19.144,68,14,Waypoint,
38.5386942,-120.5235931,3777.2525585361,74.146984,0,0.81158467164,13100,2018-06-20 18:09:01,16,0,22.905,3777.2525585361,74.146984,0.223694,1.13755909152,0,0,-0.671082,30.1, -0.1, 0.8,0,0,1024,1024,1024,1024,30.4,-89.9,98,3.802,3.805,3.818,3.825,3.845,3.801,19.144,68,14,Waypoint,
38.5386942,-120.5235931,3778.2368105361,75.131236,0,0.81158467164,13200,2018-06-20 18:09:01,16,0,22.905,3778.2368105361,75.131236,0.223694,1.13755909152,0,0,-0.671082,30, -0.1, 1,0,0,1024,1024,1024,1024,30.4,-90,98,3.802,3.805,3.818,3.825,3.845,3.801,19.144,68,14,Waypoint,
38.5386942,-120.523593,3779.2210625361,76.115488,0,0.79074477596,13300,2018-06-20 18:09:01,16,0,22.905,3779.2210625361,76.115488,0.223694,1.13755909152,0,0,-0.671082,30.1, -0.1, 1,0,0,1024,1024,1024,1024,30.4,-89.9,98,3.802,3.805,3.818,3.825,3.845,3.801,19.144,68,14,Waypoint,
38.5386942,-120.523593,3780.2053145361,77.09974,0,0.79074477596,13400,2018-06-20 18:09:02,16,0,22.905,3780.2053145361,77.09974,0.223694,1.13755909152,0,0,-0.671082,30.2, 0, 0.9,0,0,1024,1024,1024,1024,30.4,-90,98,3.802,3.805,3.818,3.825,3.845,3.801,19.144,68,14,Waypoint,
38.5386942,-120.523593,3781.1895665361,78.083992,0,0.79074477596,13500,2018-06-20 18:09:02,16,0,22.905,3781.1895665361,78.083992,0.223694,1.13755909152,0,0,-0.671082,30.5, 0.3, 0.8,0,0,1024,1024,1024,1024,30.4,-89.9,98,3.802,3.805,3.818,3.825,3.845,3.801,19.144,68,14,Waypoint,
38.5386942,-120.5235931,3781.8457345361,78.74016,0,0.81158467164,13600,2018-06-20 18:09:02,16,0,22.905,3781.8457345361,78.74016,0.223694,1.13755909152,0,0,-0.671082,30.7, 0.4, 0.7,0,0,1024,1024,1024,1024,30.4,-89.9,98,3.802,3.805,3.818,3.825,3.845,3.801,19.144,68,14,Waypoint,
38.5386942,-120.5235931,3782.8299865361,79.724412,0,0.81158467164,13700,2018-06-20 18:09:02,16,0,22.905,3782.8299865361,79.724412,0.223694,1.13755909152,0,0,-0.671082,31, 0.3, 0.7,0,0,1024,1024,1024,1024,30.4,-89.9,98,3.802,3.805,3.818,3.825,3.845,3.801,19.144,68,14,Waypoint,
38.5386942,-120.523593,3783.8142385361,80.708664,0,0.79074477596,13800,2018-06-20 18:09:02,16,0,22.905,3783.8142385361,80.708664,0.223694,1.13755909152,0,0,-0.671082,31.1, 0.3, 0.7,0,0,1024,1024,1024,1024,30.4,-89.9,98,3.802,3.805,3.818,3.825,3.845,3.801,19.144,68,14,Waypoint,
38.5386942,-120.523593,3784.7984905361,81.692916,0,0.79074477596,13900,2018-06-20 18:09:02,16,0,22.905,3784.7984905361,81.692916,0.223694,1.13755909152,0,0,-0.671082,31.1, 0.3, 0.6,0,0,1024,1024,1024,1024,30.4,-89.9,98,3.802,3.805,3.818,3.825,3.845,3.801,19.144,68,14,Waypoint,
38.5386942,-120.523593,3786.1108265361,83.005252,0,0.79074477596,14000,2018-06-20 18:09:02,16,0,22.826,3786.1108265361,83.005252,0.223694,1.13755909152,0,0,-0.671082,30.9, 0.4, 0.7,0,0,1024,1024,1024,1024,30.4,-89.9,98,3.785,3.791,3.799,3.809,3.827,3.79,19.839,68,14,Waypoint,
38.5386942,-120.5235931,3788.0793305361,84.973756,0,0.81158467164,14210,2018-06-20 18:09:02,16,0,22.826,3788.0793305361,84.973756,0.223694,1.13755909152,0,0,-0.671082,30.4, 0.4, 0.8,0,0,1024,1024,1024,1024,30.4,-89.9,98,3.785,3.791,3.799,3.809,3.827,3.79,19.839,68,14,Waypoint,
38.5386942,-120.5235931,3789.0635825361,85.958008,0,0.81158467164,14300,2018-06-20 18:09:02,16,0,22.826,3789.0635825361,85.958008,0.223694,1.13755909152,0,0,-0.671082,30.2, 0.2, 0.9,0,0,1024,1024,1024,1024,30.4,-89.9,98,3.785,3.791,3.799,3.809,3.827,3.79,19.839,68,14,Waypoint,
38.5386943,-120.5235932,3790.7040025361,87.598428,0,0.85729333452,14500,2018-06-20 18:09:03,16,0,22.826,3790.7040025361,87.598428,0.223694,1.13755909152,0,0,-0.671082,30.1, 0.2, 1.3,0,0,1024,1024,1024,1024,30.4,-89.9,98,3.785,3.791,3.799,3.809,3.827,3.79,19.839,68,14,Waypoint,
38.5386944,-120.5235933,3792.6725065361,89.566932,0,0.9030676142,14600,2018-06-20 18:09:03,16,0,22.826,3792.6725065361,89.566932,0.223694,1.13755909152,0,0,-0.671082,30.4, 0.4, 1.4,0,0,1024,1024,1024,1024,30.4,-89.9,98,3.785,3.791,3.799,3.809,3.827,3.79,19.839,68,14,Waypoint,
38.5386946,-120.5235933,3795.9533465361,92.847772,0,0.9546588232,14900,2018-06-20 18:09:03,16,0,22.826,3795.9533465361,92.847772,0.223694,1.13755909152,0,0,-0.671082,30.4, 1.5, 1.9,0,0,1024,1024,1024,1024,30.4,-89.9,98,3.785,3.791,3.799,3.809,3.827,3.79,19.839,68,14,Waypoint,
38.5386946,-120.5235933,3795.9533465361,92.847772,0,0.9546588232,15000,2018-06-20 18:09:03,16,0,22.826,3795.9533465361,92.847772,0.223694,1.13755909152,0,0,-0.671082,30.4, 1.5, 1.9,0,0,1024,1024,1024,1024,30.4,-89.9,98,3.785,3.791,3.799,3.809,3.827,3.79,19.839,68,14,Waypoint,
38.5386946,-120.5235933,3796.9375985361,93.832024,0,0.9546588232,15100,2018-06-20 18:09:03,16,0,22.826,3796.9375985361,93.832024,0.223694,1.13755909152,0,0,-0.671082,30.3, 1.7, 2,0,0,1024,1024,1024,1024,30.4,-89.9,98,3.785,3.791,3.799,3.809,3.827,3.79,19.839,68,14,Waypoint,
38.5386947,-120.5235933,3797.9218505361,94.816276,0,0.98147312852,15200,2018-06-20 18:09:03,16,0,22.826,3797.9218505361,94.816276,0.223694,1.13755909152,0,0,-0.671082,30.3, 1.6, 1.8,0,0,1024,1024,1024,1024,30.4,-89.9,98,3.785,3.791,3.799,3.809,3.827,3.79,19.839,68,14,Waypoint,
38.5386947,-120.5235934,3798.9061025361,95.800528,0,1.00078415276,15300,2018-06-20 18:09:03,16,0,22.826,3798.9061025361,95.800528,0.223694,1.13755909152,0,0,-0.671082,30.2, 1.3, 1.8,0,0,1024,1024,1024,1024,30.4,-89.9,98,3.785,3.791,3.799,3.809,3.827,3.79,19.839,68,14,Waypoint,
38.5386947,-120.5235934,3799.8903545361,96.78478,0,1.00078415276,15400,2018-06-20 18:09:04,16,0,22.826,3799.8903545361,96.78478,0.223694,1.13755909152,0,0,-0.671082,30.2, 1, 1.9,0,0,1024,1024,1024,1024,30.4,-89.9,98,3.785,3.791,3.799,3.809,3.827,3.79,19.839,68,14,Waypoint,
38.5386947,-120.5235935,3800.8746065361,97.769032,0,1.02052496704,15500,2018-06-20 18:09:04,16,0,22.826,3800.8746065361,97.769032,0.223694,1.13755909152,0,0,-0.671082,30.1, 0.7, 2.1,0,0,1024,1024,1024,1024,30.4,-89.9,98,3.785,3.791,3.799,3.809,3.827,3.79,19.839,68,14,Waypoint,
38.5386947,-120.5235935,3801.8588585361,98.753284,0,1.02052496704,15600,2018-06-20 18:09:04,16,0,22.826,3801.8588585361,98.753284,0.223694,1.13755909152,0,0,-0.671082,30, 0.6, 2.1,0,0,1024,1024,1024,1024,30.4,-89.9,98,3.785,3.791,3.799,3.809,3.827,3.79,19.839,68,14,Waypoint,
38.5386948,-120.5235936,3802.8431105361,99.737536,0,1.06657811812,15700,2018-06-20 18:09:04,16,0,22.826,3802.8431105361,99.737536,0.223694,1.13755909152,0,0,-0.671082,30, 0.6, 2.2,0,0,1024,1024,1024,1024,30.4,-89.9,98,3.785,3.791,3.799,3.809,3.827,3.79,19.839,68,14,Waypoint,
38.5386948,-120.5235936,3803.4992785361,100.393704,0,1.06657811812,15800,2018-06-20 18:09:04,16,0,22.826,3803.4992785361,100.393704,0.223694,1.13755909152,0,0,-0.671082,30, 0.8, 2.2,0,0,1024,1024,1024,1024,30.4,-89.9,98,3.785,3.791,3.799,3.809,3.827,3.79,19.839,68,14,Waypoint,
38.5386948,-120.5235936,3804.4835305361,101.377956,0,1.06657811812,15900,2018-06-20 18:09:04,16,0,22.826,3804.4835305361,101.377956,0.223694,1.13755909152,0,0,-0.671082,29.9, 1, 2.2,0,0,1024,1024,1024,1024,30.4,-89.9,98,3.785,3.791,3.799,3.809,3.827,3.79,19.839,68,14,Waypoint,
38.5386948,-120.5235937,3805.4677825361,102.362208,0,1.08662405052,16000,2018-06-20 18:09:04,16,0,22.912,3805.4677825361,102.362208,0.223694,1.13755909152,0,0,-0.671082,29.9, 1.1, 2.2,0,0,1024,1024,1024,1024,30.4,-89.9,98,3.804,3.808,3.828,3.828,3.826,3.804,17.919,68,14,Waypoint,
38.5386949,-120.5235937,3806.4520345361,103.34646,0,1.11265095424,16100,2018-06-20 18:09:04,16,0,22.912,3806.4520345361,103.34646,0.223694,1.13755909152,0,0,-0.671082,29.9, 1.2, 2.4,0,0,1024,1024,1024,1024,30.4,-89.9,98,3.804,3.808,3.828,3.828,3.826,3.804,17.919,68,14,Waypoint,
38.5386949,-120.5235938,3807.4362865361,104.330712,0,1.13260174228,16200,2018-06-20 18:09:04,16,0,22.912,3807.4362865361,104.330712,0.223694,1.13755909152,0,0,-0.671082,29.9, 1.1, 2.5,0,0,1024,1024,1024,1024,30.4,-89.9,98,3.804,3.808,3.828,3.828,3.826,3.804,17.919,68,14,Waypoint,
38.5386949,-120.5235938,3808.4205385361,105.314964,0,1.13260174228,16300,2018-06-20 18:09:04,16,0,22.912,3808.4205385361,105.314964,0.223694,1.13755909152,0,0,-0.671082,29.9, 0.9, 2.4,0,0,1024,1024,1024,1024,30.4,-89.9,98,3.804,3.808,3.828,3.828,3.826,3.804,17.919,68,14,Waypoint,
38.5386949,-120.5235938,3809.4047905361,106.299216,0,1.13260174228,16400,2018-06-20 18:09:05,16,0,22.912,3809.4047905361,106.299216,0.223694,1.13755909152,0,0,-0.671082,29.9, 0.6, 2.3,0,0,1024,1024,1024,1024,30.4,-90,98,3.804,3.808,3.828,3.828,3.826,3.804,17.919,68,14,Waypoint,
38.5386949,-120.5235938,3810.3890425361,107.283468,0,1.13260174228,16600,2018-06-20 18:09:05,16,0,22.912,3810.3890425361,107.283468,0.223694,1.13755909152,0,0,-0.671082,29.9, 0.5, 2.1,0,0,1024,1024,1024,1024,30.4,-89.9,98,3.804,3.808,3.828,3.828,3.826,3.804,17.919,68,14,Waypoint,
38.5386949,-120.5235939,3812.3575465361,109.251972,0,1.15291014188,16700,2018-06-20 18:09:05,17,0,22.912,3812.3575465361,109.251972,0.223694,1.15291014188,0,0,-0.671082,30.1, 0.7, 2.4,0,0,1024,1024,1024,1024,30.4,-89.9,98,3.804,3.808,3.828,3.828,3.826,3.804,17.919,68,14,Waypoint,
38.5386949,-120.5235939,3813.3417985361,110.236224,0,1.15291014188,16800,2018-06-20 18:09:05,17,0,22.912,3813.3417985361,110.236224,0.223694,1.15291014188,0,0,-0.671082,30.2, 0.9, 2.4,0,0,1024,1024,1024,1024,30.4,-89.9,98,3.804,3.808,3.828,3.828,3.826,3.804,17.919,68,14,Waypoint,
38.5386949,-120.5235939,3814.3260505361,111.220476,0,1.15291014188,16900,2018-06-20 18:09:05,17,0,22.912,3814.3260505361,111.220476,0.223694,1.15291014188,0,0,-0.671082,30.4, 0.9, 2.5,0,0,1024,1024,1024,1024,30.4,-89.9,98,3.804,3.808,3.828,3.828,3.826,3.804,17.919,68,14,Waypoint,
38.5386949,-120.523594,3816.2945545361,113.18898,0,1.17356631052,17100,2018-06-20 18:09:05,17,0,22.912,3816.2945545361,113.18898,0.223694,1.17356631052,0,0,-0.671082,30.5, 0.8, 2.2,0,0,1024,1024,1024,1024,30.4,-89.9,98,3.804,3.808,3.828,3.828,3.826,3.804,17.919,68,14,Waypoint,
38.5386949,-120.523594,3818.2630585361,115.157484,0,1.17356631052,17300,2018-06-20 18:09:05,17,0,22.912,3818.2630585361,115.157484,0.223694,1.17356631052,0,0,-0.671082,30.5, 0.8, 2.1,0,0,1024,1024,1024,1024,30.4,-89.9,98,3.804,3.808,3.828,3.828,3.826,3.804,17.919,68,14,Waypoint,
38.5386949,-120.5235941,3819.2473105361,116.141736,0,1.19454400148,17500,2018-06-20 18:09:06,17,0,22.912,3819.2473105361,116.141736,0.223694,1.19454400148,0,0,-0.671082,30.4, 0.9, 2.4,0,0,1024,1024,1024,1024,30.4,-89.9,98,3.804,3.808,3.828,3.828,3.826,3.804,17.919,68,14,Waypoint,
38.538695,-120.5235941,3821.2158145361,118.11024,0,1.21936027524,17600,2018-06-20 18:09:06,17,0,22.912,3821.2158145361,118.11024,0.223694,1.21936027524,0,0,-0.671082,30.3, 0.9, 3.1,0,0,1024,1024,1024,1024,30.4,-89.9,98,3.804,3.808,3.828,3.828,3.826,3.804,17.919,68,14,Waypoint,
38.538695,-120.5235942,3822.2000665361,119.094492,0,1.24021985596,17700,2018-06-20 18:09:06,17,0,22.912,3822.2000665361,119.094492,0.223694,1.24021985596,0,0,-0.671082,30.3, 1.2, 3.5,0,0,1024,1024,1024,1024,30.4,-89.9,98,3.804,3.808,3.828,3.828,3.826,3.804,17.919,68,14,Waypoint,
38.5386951,-120.5235943,3823.1843185361,120.078744,0,1.2859416422,17800,2018-06-20 18:09:06,17,0,22.912,3823.1843185361,120.078744,0.223694,1.2859416422,0,0,-0.671082,30.3, 1.2, 3.5,0,0,1024,1024,1024,1024,30.4,-89.9,98,3.804,3.808,3.828,3.828,3.826,3.804,17.919,68,14,Waypoint,
38.5386951,-120.5235943,3824.1685705361,121.062996,0,1.2859416422,17900,2018-06-20 18:09:06,17,0,22.912,3824.1685705361,121.062996,0.223694,1.2859416422,0,0,-0.671082,30.4, 1.3, 3.3,0,0,1024,1024,1024,1024,30.4,-89.9,98,3.804,3.808,3.828,3.828,3.826,3.804,17.919,68,14,Waypoint,
38.5386952,-120.5235943,3825.1528225361,122.047248,0,1.31105975324,18000,2018-06-20 18:09:06,17,0,22.86,3825.1528225361,122.047248,0.223694,1.31105975324,0,0,-0.671082,30.6, 1.5, 3,0,0,1024,1024,1024,1024,30.4,-89.9,97,3.806,3.808,3.818,3.829,3.832,3.813,18.138,69.8,14,Waypoint,
38.5386952,-120.5235943,3826.1370745361,123.0315,0,1.31105975324,18100,2018-06-20 18:09:06,17,0,22.86,3826.1370745361,123.0315,0.223694,1.31105975324,0,0,-0.671082,30.6, 1.5, 2.9,0,0,1024,1024,1024,1024,30.4,-89.9,97,3.806,3.808,3.818,3.829,3.832,3.813,18.138,69.8,14,Waypoint,
38.5386952,-120.5235943,3827.1213265361,124.015752,0,1.31105975324,18200,2018-06-20 18:09:06,17,0,22.86,3827.1213265361,124.015752,0.223694,1.31105975324,0,0,-0.671082,30.7, 1.5, 2.9,0,0,1024,1024,1024,1024,30.4,-89.9,97,3.806,3.808,3.818,3.829,3.832,3.813,18.138,69.8,14,Waypoint,
38.5386952,-120.5235943,3828.1055785361,125.000004,0,1.31105975324,18300,2018-06-20 18:09:06,17,0,22.86,3828.1055785361,125.000004,0.223694,1.31105975324,0,0,-0.671082,30.6, 1.3, 3.2,0,0,1024,1024,1024,1024,30.4,-89.9,97,3.806,3.808,3.818,3.829,3.832,3.813,18.138,69.8,14,Waypoint,
38.5386952,-120.5235944,3829.0898305361,125.984256,0,1.33170607936,18400,2018-06-20 18:09:07,17,0,22.86,3829.0898305361,125.984256,0.223694,1.33170607936,0,0,-0.671082,30.4, 1.2, 3.6,0,0,1024,1024,1024,1024,30.4,-89.9,97,3.806,3.808,3.818,3.829,3.832,3.813,18.138,69.8,14,Waypoint,
38.5386952,-120.5235944,3830.0740825361,126.968508,0,1.33170607936,18500,2018-06-20 18:09:07,17,0,22.86,3830.0740825361,126.968508,0.223694,1.33170607936,0,0,-0.671082,30.3, 1, 3.4,0,0,1024,1024,1024,1024,30.4,-89.9,97,3.806,3.808,3.818,3.829,3.832,3.813,18.138,69.8,14,Waypoint,
38.5386953,-120.5235945,3831.0583345361,127.95276,0,1.37750660576,18600,2018-06-20 18:09:07,17,0,22.86,3831.0583345361,127.95276,0.223694,1.37750660576,0,0,-0.671082,30.1, 1, 3.2,0,0,1024,1024,1024,1024,30.4,-89.9,97,3.806,3.808,3.818,3.829,3.832,3.813,18.138,69.8,14,Waypoint,
38.5386953,-120.5235945,3832.0425865361,128.937012,0,1.37750660576,18700,2018-06-20 18:09:07,17,0,22.86,3832.0425865361,128.937012,0.223694,1.37750660576,0,0,-0.671082,30.1, 1.2, 3.1,0,0,1024,1024,1024,1024,30.4,-89.9,97,3.806,3.808,3.818,3.829,3.832,3.813,18.138,69.8,14,Waypoint,
38.5386953,-120.5235945,3833.0268385361,129.921264,0,1.37750660576,18800,2018-06-20 18:09:07,17,0,22.86,3833.0268385361,129.921264,0.223694,1.37750660576,0,0,-0.671082,30.1, 1.5, 2.6,0,0,1024,1024,1024,1024,30.4,-89.9,97,3.806,3.808,3.818,3.829,3.832,3.813,18.138,69.8,14,Waypoint,
38.5386953,-120.5235944,3834.0110905361,130.905516,0,1.356955424,18900,2018-06-20 18:09:07,17,0,22.86,3834.0110905361,130.905516,0.223694,1.37750660576,0,0,-0.671082,30.2, 1.5, 2.3,0,0,1024,1024,1024,1024,30.4,-89.9,97,3.806,3.808,3.818,3.829,3.832,3.813,18.138,69.8,14,Waypoint,
38.5386954,-120.5235945,3835.6515105361,132.545936,0,1.40288062232,19100,2018-06-20 18:09:07,17,0,22.86,3835.6515105361,132.545936,0.223694,1.40288062232,0,0,-0.671082,30.3, 1.9, 2.9,0,0,1024,1024,1024,1024,30.4,-89.9,97,3.806,3.808,3.818,3.829,3.832,3.813,18.138,69.8,14,Waypoint,
38.5386955,-120.5235945,3837.6200145361,134.51444,0,1.42873692236,19300,2018-06-20 18:09:07,17,0,22.86,3837.6200145361,134.51444,0.223694,1.42873692236,0,0,-0.671082,30.5, 2.1, 3.2,0,0,1024,1024,1024,1024,30.4,-89.9,97,3.806,3.808,3.818,3.829,3.832,3.813,18.138,69.8,14,Waypoint,
38.5386955,-120.5235947,3839.5885185361,136.482944,0,1.46920608376,19600,2018-06-20 18:09:08,17,0,22.86,3839.5885185361,136.482944,0.223694,1.46920608376,0,0,-0.671082,30.6, 1.7, 3.2,0,0,1024,1024,1024,1024,30.4,-89.9,97,3.806,3.808,3.818,3.829,3.832,3.813,18.138,69.8,14,Waypoint,
38.5386955,-120.5235947,3841.5570225361,138.451448,0,1.46920608376,19700,2018-06-20 18:09:08,17,0,22.86,3841.5570225361,138.451448,0.223694,1.46920608376,0,0,-0.671082,30.6, 1.5, 3.1,0,0,1024,1024,1024,1024,30.4,-89.9,97,3.806,3.808,3.818,3.829,3.832,3.813,18.138,69.8,14,Waypoint,
38.5386955,-120.5235948,3842.5412745361,139.4357,0,1.48984912904,19800,2018-06-20 18:09:08,17,0,22.86,3842.5412745361,139.4357,0.223694,1.48984912904,0,0,-0.671082,30.6, 1.4, 2.8,0,0,1024,1024,1024,1024,30.4,-90,97,3.806,3.808,3.818,3.829,3.832,3.813,18.138,69.8,14,Waypoint,
38.5386955,-120.5235948,3843.5255265361,140.419952,0,1.48984912904,19900,2018-06-20 18:09:08,17,0,22.86,3843.5255265361,140.419952,0.223694,1.48984912904,0,0,-0.671082,30.5, 1.3, 3.1,0,0,1024,1024,1024,1024,30.4,-90,97,3.806,3.808,3.818,3.829,3.832,3.813,18.138,69.8,14,Waypoint,
38.5386954,-120.5235948,3844.5097785361,141.404204,0,1.46507222536,20000,2018-06-20 18:09:08,17,0,22.882,3844.5097785361,141.404204,0.223694,1.48984912904,0,0,-0.671082,30.3, 1.1, 3.1,0,0,1024,1024,1024,1024,30.4,-89.9,97,3.804,3.807,3.808,3.828,3.832,3.808,17.701,69.8,14,Waypoint,
38.5386954,-120.5235948,3845.4940305361,142.388456,0,1.46507222536,20100,2018-06-20 18:09:08,17,0,22.882,3845.4940305361,142.388456,0.223694,1.48984912904,0,0,-0.671082,30.3, 1.2, 2.9,0,0,1024,1024,1024,1024,30.4,-89.9,97,3.804,3.807,3.808,3.828,3.832,3.808,17.701,69.8,14,Waypoint,
38.5386954,-120.5235948,3846.4782825361,143.372708,0,1.46507222536,20200,2018-06-20 18:09:08,17,0,22.882,3846.4782825361,143.372708,0.223694,1.48984912904,0,0,-0.671082,30.3, 1.3, 2.7,0,0,1024,1024,1024,1024,30.4,-89.9,97,3.804,3.807,3.808,3.828,3.832,3.808,17.701,69.8,14,Waypoint,
38.5386954,-120.5235947,3847.4625345361,144.35696,0,1.44407484936,20300,2018-06-20 18:09:08,17,0,22.882,3847.4625345361,144.35696,0.223694,1.48984912904,0,0,-0.671082,30.3, 1.3, 2.4,0,0,1024,1024,1024,1024,30.4,-89.9,97,3.804,3.807,3.808,3.828,3.832,3.808,17.701,69.8,14,Waypoint,
38.5386953,-120.5235947,3848.7748705361,145.669296,0,1.41943574096,20400,2018-06-20 18:09:09,17,0,22.882,3848.7748705361,145.669296,0.223694,1.48984912904,0,0,-0.671082,30.4, 1.2, 2.2,0,0,1024,1024,1024,1024,30.4,-89.9,97,3.804,3.807,3.808,3.828,3.832,3.808,17.701,69.8,14,Waypoint,
38.5386953,-120.5235947,3849.7591225361,146.653548,0,1.41943574096,20500,2018-06-20 18:09:09,17,0,22.882,3849.7591225361,146.653548,0.223694,1.48984912904,0,0,-0.671082,30.4, 1.1, 2.4,0,0,1024,1024,1024,1024,30.4,-89.9,97,3.804,3.807,3.808,3.828,3.832,3.808,17.701,69.8,14,Waypoint,
38.5386953,-120.5235947,3850.7433745361,147.6378,0,1.41943574096,20600,2018-06-20 18:09:09,17,0,22.882,3850.7433745361,147.6378,0.223694,1.48984912904,0,0,-0.671082,30.4, 1, 2.4,0,0,1024,1024,1024,1024,30.4,-90,97,3.804,3.807,3.808,3.828,3.832,3.808,17.701,69.8,14,Waypoint,
38.5386953,-120.5235946,3851.7276265361,148.622052,0,1.39833665892,20700,2018-06-20 18:09:09,17,0,22.882,3851.7276265361,148.622052,0.223694,1.48984912904,0,0,-0.671082,30.5, 1, 2.3,0,0,1024,1024,1024,1024,30.4,-89.9,97,3.804,3.807,3.808,3.828,3.832,3.808,17.701,69.8,14,Waypoint,
38.5386953,-120.5235946,3852.7118785361,149.606304,0,1.39833665892,20800,2018-06-20 18:09:09,17,0,22.882,3852.7118785361,149.606304,0.223694,1.48984912904,0,0,-0.671082,30.5, 1, 2.4,0,0,1024,1024,1024,1024,30.4,-89.9,97,3.804,3.807,3.808,3.828,3.832,3.808,17.701,69.8,14,Waypoint,
38.5386952,-120.5235946,3853.6961305361,150.590556,0,1.37384846916,20900,2018-06-20 18:09:09,17,0,22.882,3853.6961305361,150.590556,0.223694,1.48984912904,0,0,-0.671082,30.4, 1.1, 2.7,0,0,1024,1024,1024,1024,30.4,-89.9,97,3.804,3.807,3.808,3.828,3.832,3.808,17.701,69.8,14,Waypoint,
38.5386952,-120.5235946,3854.6803825361,151.574808,0,1.37384846916,21000,2018-06-20 18:09:09,17,0,22.765,3854.6803825361,151.574808,0.223694,1.48984912904,0,0,-0.671082,30.3, 1.2, 2.9,0,0,1024,1024,1024,1024,30.4,-89.9,97,3.768,3.768,3.786,3.785,3.808,3.778,18.911,69.8,14,Waypoint,
38.5386952,-120.5235945,3855.6646345361,152.55906,0,1.3526411194,21100,2018-06-20 18:09:09,17,0,22.765,3855.6646345361,152.55906,0.223694,1.48984912904,0,0,-0.671082,30.2, 1.6, 2.9,0,0,1024,1024,1024,1024,30.4,-89.9,97,3.768,3.768,3.786,3.785,3.808,3.778,18.911,69.8,14,Waypoint,
38.5386952,-120.5235945,3856.6488865361,153.543312,0,1.3526411194,21200,2018-06-20 18:09:09,17,0,22.765,3856.6488865361,153.543312,0.223694,1.48984912904,0,0,-0.671082,30, 1.7, 2.9,0,0,1024,1024,1024,1024,30.4,-89.9,97,3.768,3.768,3.786,3.785,3.808,3.778,18.911,69.8,14,Waypoint,
38.5386952,-120.5235945,3857.6331385361,154.527564,0,1.3526411194,21400,2018-06-20 18:09:10,17,0,22.765,3857.6331385361,154.527564,0.223694,1.48984912904,0,0,-0.671082,29.9, 1.7, 2.9,0,0,1024,1024,1024,1024,30.4,-89.9,97,3.768,3.768,3.786,3.785,3.808,3.778,18.911,69.8,14,Waypoint,
38.5386952,-120.5235944,3858.6173905361,155.511816,0,1.33170607936,21500,2018-06-20 18:09:10,17,0,22.765,3858.6173905361,155.511816,0.223694,1.48984912904,0,0,-0.671082,30, 1.8, 2.7,0,0,1024,1024,1024,1024,30.4,-89.9,97,3.768,3.768,3.786,3.785,3.808,3.778,18.911,69.8,14,Waypoint,
38.5386952,-120.5235943,3859.6016425361,156.496068,0,1.31105975324,21600,2018-06-20 18:09:10,17,0,22.765,3859.6016425361,156.496068,0.223694,1.48984912904,0,0,-0.671082,30, 1.6, 2.4,0,0,1024,1024,1024,1024,30.4,-89.9,97,3.768,3.768,3.786,3.785,3.808,3.778,18.911,69.8,14,Waypoint,
38.5386951,-120.5235942,3860.5858945361,157.48032,0,1.2651903292,21700,2018-06-20 18:09:10,17,0,22.765,3860.5858945361,157.48032,0.223694,1.48984912904,0,0,-0.671082,30.1, 1.3, 2.3,0,0,1024,1024,1024,1024,30.4,-89.9,97,3.768,3.768,3.786,3.785,3.808,3.778,18.911,69.8,14,Waypoint,
38.5386951,-120.5235941,3862.5543985361,159.448824,0,1.244750696,21800,2018-06-20 18:09:10,18,0,22.765,3862.5543985361,159.448824,0.223694,1.48984912904,0,0,-0.671082,30.3, 1.6, 2.4,0,0,1024,1024,1024,1024,30.4,-89.9,97,3.768,3.768,3.786,3.785,3.808,3.778,18.911,69.8,14,Waypoint,
38.538695,-120.523594,3863.5386505361,160.433076,0,1.19881565516,21900,2018-06-20 18:09:10,18,0,22.765,3863.5386505361,160.433076,0.223694,1.48984912904,0,0,-0.671082,30.5, 1.6, 2.5,0,0,1024,1024,1024,1024,30.4,-89.9,97,3.768,3.768,3.786,3.785,3.808,3.778,18.911,69.8,14,Waypoint,
38.538695,-120.523594,3864.5229025361,161.417328,0,1.19881565516,22000,2018-06-20 18:09:10,18,0,22.707,3864.5229025361,161.417328,0.223694,1.48984912904,0,0,-0.671082,30.6, 1.6, 2.5,0,0,1024,1024,1024,1024,30.4,-89.9,97,3.761,3.763,3.779,3.787,3.799,3.766,19.486,69.8,14,Waypoint,
38.538695,-120.5235939,3865.5071545361,162.40158,0,1.17860239992,22100,2018-06-20 18:09:10,18,0,22.707,3865.5071545361,162.40158,0.223694,1.48984912904,0,0,-0.671082,30.7, 1.7, 2.3,0,0,1024,1024,1024,1024,30.4,-89.9,97,3.761,3.763,3.779,3.787,3.799,3.766,19.486,69.8,14,Waypoint,
38.538695,-120.5235938,3866.4914065361,163.385832,0,1.1587434754,22200,2018-06-20 18:09:10,18,0,22.707,3866.4914065361,163.385832,0.223694,1.48984912904,0,0,-0.671082,30.7, 2, 2,0,0,1024,1024,1024,1024,30.4,-89.9,97,3.761,3.763,3.779,3.787,3.799,3.766,19.486,69.8,14,Waypoint,
38.5386949,-120.5235936,3867.4756585361,164.370084,0,1.09308074364,22300,2018-06-20 18:09:10,18,0,22.707,3867.4756585361,164.370084,0.223694,1.48984912904,0,0,-0.671082,30.7, 2, 1.9,0,0,1024,1024,1024,1024,30.4,-89.9,97,3.761,3.763,3.779,3.787,3.799,3.766,19.486,69.8,14,Waypoint,
38.5386949,-120.5235936,3868.4599105361,165.354336,0,1.09308074364,22400,2018-06-20 18:09:11,18,0,22.707,3868.4599105361,165.354336,0.223694,1.48984912904,0,0,-0.671082,30.6, 1.9, 1.8,0,0,1024,1024,1024,1024,30.4,-89.9,97,3.761,3.763,3.779,3.787,3.799,3.766,19.486,69.8,14,Waypoint,
38.5386949,-120.5235935,3869.4441625361,166.338588,0,1.07391407636,22500,2018-06-20 18:09:11,18,0,22.707,3869.4441625361,166.338588,0.223694,1.48984912904,0,0,-0.671082,30.4, 1.7, 1.9,0,0,1024,1024,1024,1024,30.4,-89.9,97,3.761,3.763,3.779,3.787,3.799,3.766,19.486,69.8,14,Waypoint,
38.5386948,-120.5235934,3870.4284145361,167.32284,0,1.0276903216,22600,2018-06-20 18:09:11,18,0,22.707,3870.4284145361,167.32284,0.223694,1.48984912904,0,0,-0.671082,30.3, 1.7, 1.7,0,0,1024,1024,1024,1024,30.4,-89.9,97,3.761,3.763,3.779,3.787,3.799,3.766,19.486,69.8,14,Waypoint,
38.5386948,-120.5235933,3871.4126665361,168.307092,0,1.00889438924,22700,2018-06-20 18:09:11,18,0,22.707,3871.4126665361,168.307092,0.223694,1.48984912904,0,0,-0.671082,30.2, 1.7, 1.4,0,0,1024,1024,1024,1024,30.4,-89.9,97,3.761,3.763,3.779,3.787,3.799,3.766,19.486,69.8,14,Waypoint,
38.5386947,-120.5235932,3872.3969185361,169.291344,0,0.96262142188,22800,2018-06-20 18:09:11,18,0,22.707,3872.3969185361,169.291344,0.223694,1.48984912904,0,0,-0.671082,30.1, 1.7, 1.1,0,0,1024,1024,1024,1024,30.4,-89.9,97,3.761,3.763,3.779,3.787,3.799,3.766,19.486,69.8,14,Waypoint,
38.5386947,-120.5235931,3873.3811705361,170.275596,0,0.94425527956,22900,2018-06-20 18:09:11,18,0,22.707,3873.3811705361,170.275596,0.223694,1.48984912904,0,0,-0.671082,30.1, 1.6, 1,0,0,1024,1024,1024,1024,30.4,-89.9,97,3.761,3.763,3.779,3.787,3.799,3.766,19.486,69.8,14,Waypoint,
38.5386947,-120.5235931,3874.6935065361,171.587932,0,0.94425527956,23000,2018-06-20 18:09:11,18,0,22.658,3874.6935065361,171.587932,0.223694,1.48984912904,0,0,-0.671082,30.1, 1.5, 1.1,0,0,1024,1024,1024,1024,30.4,-89.9,97,3.763,3.762,3.781,3.786,3.801,3.764,19.703,69.8,14,Waypoint,
38.5386946,-120.5235931,3875.6777585361,172.572184,0,0.9163550162,23100,2018-06-20 18:09:11,18,0,22.658,3875.6777585361,172.572184,0.223694,1.48984912904,0,0,-0.671082,30.2, 1.3, 1.5,0,0,1024,1024,1024,1024,30.4,-89.9,97,3.763,3.762,3.781,3.786,3.801,3.764,19.703,69.8,14,Waypoint,
38.5386946,-120.5235931,3876.6620105361,173.556436,0,0.9163550162,23200,2018-06-20 18:09:11,18,0,22.658,3876.6620105361,173.556436,0.223694,1.48984912904,0,0,-0.671082,30.2, 1.2, 1.9,0,0,1024,1024,1024,1024,30.4,-90,97,3.763,3.762,3.781,3.786,3.801,3.764,19.703,69.8,14,Waypoint,
38.5386946,-120.5235932,3877.6462625361,174.540688,0,0.9352690588,23300,2018-06-20 18:09:11,18,0,22.658,3877.6462625361,174.540688,0.223694,1.48984912904,0,0,-0.671082,30.2, 1.3, 2,0,0,1024,1024,1024,1024,30.4,-89.9,97,3.763,3.762,3.781,3.786,3.801,3.764,19.703,69.8,14,Waypoint,
38.5386946,-120.5235932,3878.6305145361,175.52494,0,0.9352690588,23400,2018-06-20 18:09:12,18,0,22.658,3878.6305145361,175.52494,0.223694,1.48984912904,0,0,-0.671082,30.3, 1.3, 2.1,0,0,1024,1024,1024,1024,30.4,-89.9,97,3.763,3.762,3.781,3.786,3.801,3.764,19.703,69.8,14,Waypoint,
38.5386946,-120.5235932,3879.6147665361,176.509192,0,0.9352690588,23510,2018-06-20 18:09:12,18,0,22.658,3879.6147665361,176.509192,0.223694,1.48984912904,0,0,-0.671082,30.3, 1.3, 2.2,0,0,1024,1024,1024,1024,30.4,-89.9,97,3.763,3.762,3.781,3.786,3.801,3.764,19.703,69.8,14,Waypoint,
38.5386946,-120.5235932,3880.5990185361,177.493444,0,0.9352690588,23600,2018-06-20 18:09:12,18,0,22.658,3880.5990185361,177.493444,0.223694,1.48984912904,0,0,-0.671082,30.3, 1.3, 2,0,0,1024,1024,1024,1024,30.4,-89.9,97,3.763,3.762,3.781,3.786,3.801,3.764,19.703,69.8,14,Waypoint,
38.5386946,-120.5235931,3881.5832705361,178.477696,0,0.9163550162,23700,2018-06-20 18:09:12,18,0,22.658,3881.5832705361,178.477696,0.223694,1.48984912904,0,0,-0.671082,30.3, 1.3, 1.8,0,0,1024,1024,1024,1024,30.4,-89.9,97,3.763,3.762,3.781,3.786,3.801,3.764,19.703,69.8,14,Waypoint,
38.5386945,-120.5235931,3882.5675225361,179.461948,0,0.8890748316,23800,2018-06-20 18:09:12,18,0,22.658,3882.5675225361,179.461948,0.223694,1.48984912904,0,0,-0.671082,30.3, 1.3, 1.8,0,0,1024,1024,1024,1024,30.4,-89.9,97,3.763,3.762,3.781,3.786,3.801,3.764,19.703,69.8,14,Waypoint,
38.5386945,-120.5235931,3883.5517745361,180.4462,0,0.8890748316,23900,2018-06-20 18:09:12,18,0,22.658,3883.5517745361,180.4462,0.223694,1.48984912904,0,0,-0.671082,30.3, 1.3, 1.8,0,0,1024,1024,1024,1024,30.4,-89.9,97,3.763,3.762,3.781,3.786,3.801,3.764,19.703,69.8,14,Waypoint,
38.5386945,-120.5235931,3884.5360265361,181.430452,0,0.8890748316,24000,2018-06-20 18:09:12,18,0,22.625,3884.5360265361,181.430452,0.223694,1.48984912904,0,0,-0.671082,30.3, 1.3, 1.9,0,0,1024,1024,1024,1024,30.4,-89.9,97,3.751,3.753,3.779,3.783,3.795,3.764,19.637,69.8,14,Waypoint,
38.5386945,-120.5235931,3885.5202785361,182.414704,0,0.8890748316,24200,2018-06-20 18:09:12,18,0,22.625,3885.5202785361,182.414704,0.223694,1.48984912904,0,0,-0.671082,30.4, 1.2, 1.8,0,0,1024,1024,1024,1024,30.4,-89.9,97,3.751,3.753,3.779,3.783,3.795,3.764,19.637,69.8,14,Waypoint,
38.5386945,-120.5235932,3887.4887825361,184.383208,0,0.90855645952,24300,2018-06-20 18:09:12,18,0,22.625,3887.4887825361,184.383208,0.223694,1.48984912904,0,0,-0.671082,30.4, 1.5, 1.7,0,0,1024,1024,1024,1024,30.4,-89.9,97,3.751,3.753,3.779,3.783,3.795,3.764,19.637,69.8,14,Waypoint,
38.5386945,-120.5235932,3888.4730345361,185.36746,0,0.90855645952,24500,2018-06-20 18:09:13,18,0,22.625,3888.4730345361,185.36746,0.223694,1.48984912904,0,0,-0.671082,30.3, 1.5, 1.7,0,0,1024,1024,1024,1024,30.4,-89.9,97,3.751,3.753,3.779,3.783,3.795,3.764,19.637,69.8,14,Waypoint,
38.5386946,-120.5235932,3890.4415385361,187.335964,0,0.9352690588,24600,2018-06-20 18:09:13,18,0,22.625,3890.4415385361,187.335964,0.223694,1.48984912904,0,0,-0.671082,30.1, 1.4, 1.9,0,0,1024,1024,1024,1024,30.4,-89.9,97,3.751,3.753,3.779,3.783,3.795,3.764,19.637,69.8,14,Waypoint,
38.5386946,-120.5235933,3891.4257905361,188.320216,0,0.9546588232,24700,2018-06-20 18:09:13,18,0,22.625,3891.4257905361,188.320216,0.223694,1.48984912904,0,0,-0.671082,30.2, 1.4, 2.2,0,0,1024,1024,1024,1024,30.4,-89.9,97,3.751,3.753,3.779,3.783,3.795,3.764,19.637,69.8,14,Waypoint,
38.5386946,-120.5235933,3892.4100425361,189.304468,0,0.9546588232,24800,2018-06-20 18:09:13,18,0,22.625,3892.4100425361,189.304468,0.223694,1.48984912904,0,0,-0.671082,30.3, 1.4, 2.3,0,0,1024,1024,1024,1024,30.4,-89.9,97,3.751,3.753,3.779,3.783,3.795,3.764,19.637,69.8,14,Waypoint,
38.5386946,-120.5235933,3893.3942945361,190.28872,0,0.9546588232,24900,2018-06-20 18:09:13,18,0,22.625,3893.3942945361,190.28872,0.223694,1.48984912904,0,0,-0.671082,30.4, 1.5, 2.1,0,0,1024,1024,1024,1024,30.4,-89.9,97,3.751,3.753,3.779,3.783,3.795,3.764,19.637,69.8,14,Waypoint,
38.5386946,-120.5235933,3894.3785465361,191.272972,0,0.9546588232,25000,2018-06-20 18:09:13,18,0,22.625,3894.3785465361,191.272972,0.223694,1.48984912904,0,0,-0.671082,30.4, 1.7, 2,0,0,1024,1024,1024,1024,30.4,-89.9,97,3.751,3.753,3.779,3.783,3.795,3.764,19.637,69.8,14,Waypoint,
38.5386946,-120.5235933,3895.3627985361,192.257224,0,0.9546588232,25100,2018-06-20 18:09:13,18,0,22.625,3895.3627985361,192.257224,0.223694,1.48984912904,0,0,-0.671082,30.4, 1.8, 1.8,0,0,1024,1024,1024,1024,30.4,-89.9,97,3.751,3.753,3.779,3.783,3.795,3.764,19.637,69.8,14,Waypoint,
38.5386946,-120.5235933,3896.3470505361,193.241476,0,0.9546588232,25200,2018-06-20 18:09:13,18,0,22.625,3896.3470505361,193.241476,0.223694,1.48984912904,0,0,-0.671082,30.4, 1.8, 1.5,0,0,1024,1024,1024,1024,30.4,-89.9,97,3.751,3.753,3.779,3.783,3.795,3.764,19.637,69.8,14,Waypoint,
38.5386945,-120.5235933,3897.3313025361,194.225728,0,0.92850396672,25300,2018-06-20 18:09:13,18,0,22.625,3897.3313025361,194.225728,0.223694,1.48984912904,0,0,-0.671082,30.3, 1.5, 1.4,0,0,1024,1024,1024,1024,30.4,-89.9,97,3.751,3.753,3.779,3.783,3.795,3.764,19.637,69.8,14,Waypoint,
38.5386945,-120.5235933,3898.3155545361,195.20998,0,0.92850396672,25400,2018-06-20 18:09:14,18,0,22.625,3898.3155545361,195.20998,0.223694,1.48984912904,0,0,-0.671082,30.2, 1.1, 1.4,0,0,1024,1024,1024,1024,30.4,-90,97,3.751,3.753,3.779,3.783,3.795,3.764,19.637,69.8,14,Waypoint,
38.5386944,-120.5235933,3899.2998065361,196.194232,0,0.9030676142,25500,2018-06-20 18:09:14,18,0,22.625,3899.2998065361,196.194232,0.223694,1.48984912904,0,0,-0.671082,30.2, 0.8, 1.3,0,0,1024,1024,1024,1024,30.4,-90,97,3.751,3.753,3.779,3.783,3.795,3.764,19.637,69.8,14,Waypoint,
38.5386944,-120.5235934,3899.9559745361,196.8504,0,0.92401905844,25600,2018-06-20 18:09:14,18,0,22.625,3899.9559745361,196.8504,0.223694,1.48984912904,0,0,-0.671082,30.2, 0.6, 1.2,0,0,1024,1024,1024,1024,30.4,-90,97,3.751,3.753,3.779,3.783,3.795,3.764,19.637,69.8,14,Waypoint,
38.5386943,-120.5235934,3900.9402265361,197.834652,0,0.899934412,25700,2018-06-20 18:09:14,18,0,22.625,3900.9402265361,197.834652,0.223694,1.48984912904,0,0,-0.671082,30.2, 0.5, 1.3,0,0,1024,1024,1024,1024,30.4,-90,97,3.751,3.753,3.779,3.783,3.795,3.764,19.637,69.8,14,Waypoint,
38.5386943,-120.5235935,3901.9244785361,198.818904,0,0.92184058068,25800,2018-06-20 18:09:14,18,0,22.625,3901.9244785361,198.818904,0.223694,1.48984912904,0,0,-0.671082,30.3, 0.4, 1.4,0,0,1024,1024,1024,1024,30.4,-90,97,3.751,3.753,3.779,3.783,3.795,3.764,19.637,69.8,14,Waypoint,
38.5386942,-120.5235935,3902.9087305361,199.803156,0,0.8991798188,25900,2018-06-20 18:09:14,18,0,22.625,3902.9087305361,199.803156,0.223694,1.48984912904,0,0,-0.671082,30.3, 0.3, 1.5,0,0,1024,1024,1024,1024,30.4,-90,97,3.751,3.753,3.779,3.783,3.795,3.764,19.637,69.8,14,Waypoint,
38.5386942,-120.5235935,3903.8929825361,200.787408,0,0.8991798188,26000,2018-06-20 18:09:14,18,0,22.603,3903.8929825361,200.787408,0.223694,1.48984912904,0,0,-0.671082,30.2, 0.3, 1.5,0,0,1024,1024,1024,1024,30.4,-90,97,3.753,3.746,3.774,3.766,3.786,3.755,19.562,71.6,14,Waypoint,
38.5386941,-120.5235935,3904.8772345361,201.77166,0,0.87745081548,26100,2018-06-20 18:09:14,18,0,22.603,3904.8772345361,201.77166,0.223694,1.48984912904,0,0,-0.671082,30.2, 0.4, 1.4,0,0,1024,1024,1024,1024,30.4,-90,97,3.753,3.746,3.774,3.766,3.786,3.755,19.562,71.6,14,Waypoint,
38.5386941,-120.5235936,3905.8614865361,202.755912,0,0.90080711544,26200,2018-06-20 18:09:14,18,0,22.603,3905.8614865361,202.755912,0.223694,1.48984912904,0,0,-0.671082,30.1, 0.5, 1.3,0,0,1024,1024,1024,1024,30.4,-90,97,3.753,3.746,3.774,3.766,3.786,3.755,19.562,71.6,14,Waypoint,
38.5386941,-120.5235936,3906.8457385361,203.740164,0,0.90080711544,26300,2018-06-20 18:09:14,18,0,22.603,3906.8457385361,203.740164,0.223694,1.48984912904,0,0,-0.671082,30.1, 0.6, 1.3,0,0,1024,1024,1024,1024,30.4,-89.9,97,3.753,3.746,3.774,3.766,3.786,3.755,19.562,71.6,14,Waypoint,
38.5386941,-120.5235936,3907.8299905361,204.724416,0,0.90080711544,26400,2018-06-20 18:09:15,18,0,22.603,3907.8299905361,204.724416,0.223694,1.48984912904,0,0,-0.671082,30.1, 0.8, 1.4,0,0,1024,1024,1024,1024,30.4,-89.9,97,3.753,3.746,3.774,3.766,3.786,3.755,19.562,71.6,14,Waypoint,
38.5386941,-120.5235936,3908.8142425361,205.708668,0,0.90080711544,26500,2018-06-20 18:09:15,18,0,22.603,3908.8142425361,205.708668,0.223694,1.48984912904,0,0,-0.671082,30.1, 1, 1.5,0,0,1024,1024,1024,1024,30.4,-89.9,97,3.753,3.746,3.774,3.766,3.786,3.755,19.562,71.6,14,Waypoint,
38.5386941,-120.5235936,3909.7984945361,206.69292,0,0.90080711544,26700,2018-06-20 18:09:15,18,0,22.603,3909.7984945361,206.69292,0.223694,1.48984912904,0,0,-0.671082,30.2, 1.2, 1.6,0,0,1024,1024,1024,1024,30.4,-89.9,97,3.753,3.746,3.774,3.766,3.786,3.755,19.562,71.6,14,Waypoint,
38.5386941,-120.5235936,3910.7827465361,207.677172,0,0.90080711544,26800,2018-06-20 18:09:15,18,0,22.603,3910.7827465361,207.677172,0.223694,1.48984912904,0,0,-0.671082,30.2, 1.2, 1.6,0,0,1024,1024,1024,1024,30.4,-89.9,97,3.753,3.746,3.774,3.766,3.786,3.755,19.562,71.6,14,Waypoint,
38.5386941,-120.5235936,3913.0793345361,209.97376,0,0.90080711544,26900,2018-06-20 18:09:15,18,0,22.603,3913.0793345361,209.97376,0.223694,1.48984912904,0,0,-0.671082,30.3, 1.3, 1.6,0,0,1024,1024,1024,1024,30.4,-89.9,97,3.753,3.746,3.774,3.766,3.786,3.755,19.562,71.6,14,Waypoint,
38.5386941,-120.5235935,3914.0635865361,210.958012,0,0.87745081548,27000,2018-06-20 18:09:15,18,0,22.603,3914.0635865361,210.958012,0.223694,1.48984912904,0,0,-0.671082,30.3, 1.2, 1.6,0,0,1024,1024,1024,1024,30.4,-89.9,97,3.753,3.746,3.774,3.766,3.786,3.755,19.562,71.6,14,Waypoint,
