Latitude, Longitude, Altitude (m), Time, Sats, Speed (m/s), Range (m), Battery (%), Roll (deg), Pitch (deg), Yaw (deg), Images, HD Signal (%), RC Signal (%), Battery Temp (C), Battery Voltage (mV), Battery Current (mA), Battery Energy (mAh), Battery Capacity (mAh), Battery Discharges, flyState, timestamp (Unix), LastUpdate (ms), radioChannel, Rc_elevator, Rc_aileron, Rc_throttle, Rc_rudder, Rc_gyro, Dronetype, Battery_Cell1 (mV), Battery_Cell2 (mV), Battery_Cell3 (mV), Battery_Cell4 (mV), Battery_Cell5 (mV), Battery_Cell6 (mV), Video, isFlying, elapsedTime (ms), gimbalPitch (deg), gimbalRoll (deg), gimbalYaw (deg), VelocityX (m/s), VelocityY (m/s), VelocityZ (m/s), GroundSmear (cm), App Version, Aircraft Name, Aircraft Firmware, Aircraft Serial Number, Battery Serial Number, Battery Lifetime (%), App_Tip, App_Warning, CurrentFlightStartingIndex, CurrentFlightLastVisitedWaypoint, PreviousFlightEndingWaypointIndex
38.5386956, -120.5235800, 0.000, 11:26:46.961, 13, 0.00, 0.06, 100, 1.200, 1.100, 28.400, 1577, 100, 100, 21, 25575, -3552, 5282, 5282, 22, 11, 1529519206.961, 94, 0, 1024, 1024, 1024, 1024, 0, 6, 4317, 4234, 4222, 4259, 4295, 4305, 0, 1, 3101, -89.900, 0.000, 28.300, 0.000, 0.000, -0.100, 0.0, MapPilot_2.8.1_04242018, Dendroctonus I, 1.3.1.00, 041DDC1887, 1058171200140, 95, DJI_0574.jpg, Starting Mission from Lat/Long: 38.53869/-120.52358 Camera: Zenmuse X3 - Overlap: 90/90 - Active Connection: No, 55, 55, 55
38.5386956, -120.5235800, 0.000, 11:26:47.061, 13, 0.00, 0.06, 100, 0.900, 0.900, 28.500, 1577, 100, 100, 21, 25671, -4144, 5282, 5282, 22, 11, 1529519207.061, 86, 0, 1024, 1024, 1024, 1024, 0, 6, 4317, 4234, 4222, 4259, 4295, 4305, 0, 1, 3201, -89.900, 0.000, 28.300, 0.000, 0.000, -0.200, 0.0, , , , , , 95, , , 55, 55, 55
38.5386956, -120.5235801, 0.000, 11:26:47.160, 13, 0.00, 0.06, 100, 0.100, 0.500, 28.600, 1577, 100, 100, 21, 25671, -4144, 5282, 5282, 22, 11, 1529519207.160, 84, 0, 1024, 1024, 1024, 1024, 0, 6, 4317, 4234, 4222, 4259, 4295, 4305, 0, 1, 3300, -89.900, 0.000, 28.300, 0.000, 0.000, -0.300, 0.0, , , , , , 95, , , 55, 55, 55
38.5386956, -120.5235801, 0.000, 11:26:47.261, 13, 0.00, 0.06, 100, 0.000, 0.200, 28.700, 1577, 100, 100, 21, 25671, -4144, 5282, 5282, 22, 11, 1529519207.261, 83, 0, 1024, 1024, 1024, 1024, 0, 6, 4317, 4234, 4222, 4259, 4295, 4305, 0, 1, 3401, -89.900, 0.000, 28.300, 0.000, 0.000, -0.300, 0.0, , , , , , 95, , , 55, 55, 55
38.5386956, -120.5235802, 0.000, 11:26:47.361, 13, 0.00, 0.06, 100, 0.100, -0.100, 28.800, 1577, 100, 100, 21, 25671, -4144, 5282, 5282, 22, 11, 1529519207.361, 87, 0, 1024, 1024, 1024, 1024, 0, 6, 4317, 4234, 4222, 4259, 4295, 4305, 0, 1, 3501, -90.000, 0.000, 28.300, 0.000, 0.000, -0.300, 0.0, , , , , , 95, , , 55, 55, 55
38.5386956, -120.5235803, 0.100, 11:26:47.461, 12, 0.00, 0.06, 100, 0.100, -0.200, 28.700, 1577, 100, 100, 21, 25671, -4144, 5282, 5282, 22, 11, 1529519207.461, 78, 0, 1024, 1024, 1024, 1024, 0, 6, 4317, 4234, 4222, 4259, 4295, 4305, 0, 1, 3601, -89.900, 0.000, 28.300, 0.000, 0.000, -0.300, 0.0, , , , , , 95, , , 55, 55, 55
38.5386956, -120.5235803, 0.100, 11:26:47.561, 12, 0.00, 0.07, 100, 0.200, -0.200, 28.600, 1577, 100, 100, 21, 25671, -4144, 5282, 5282, 22, 11, 1529519207.561, 73, 0, 1024, 1024, 1024, 1024, 0, 6, 4252, 4245, 4227, 4254, 4238, 4259, 0, 1, 3701, -89.900, 0.000, 28.300, 0.000, 0.000, -0.300, 0.0, , , , , , 95, , , 55, 55, 55
38.5386957, -120.5235804, 0.200, 11:26:47.661, 12, 0.00, 0.08, 100, 0.400, -0.200, 28.600, 1577, 100, 100, 21, 25671, -4144, 5282, 5282, 22, 11, 1529519207.661, 53, 0, 1024, 1024, 1024, 1024, 0, 6, 4252, 4245, 4227, 4254, 4238, 4259, 0, 1, 3801, -89.900, 0.000, 28.300, 0.000, 0.000, -0.400, 0.0, , , , , , 95, , , 55, 55, 55
38.5386957, -120.5235805, 0.200, 11:26:47.761, 12, 0.00, 0.09, 100, 0.600, -0.100, 28.500, 1577, 100, 100, 21, 25671, -4144, 5282, 5282, 22, 11, 1529519207.761, 54, 0, 1024, 1024, 1024, 1024, 0, 6, 4252, 4245, 4227, 4254, 4238, 4259, 0, 1, 3901, -89.900, 0.000, 28.300, 0.000, 0.000, -0.400, 0.0, , , , , , 95, , , 55, 55, 55
38.5386958, -120.5235805, 0.300, 11:26:47.861, 13, 0.00, 0.10, 100, 0.800, -0.100, 28.400, 1577, 100, 100, 21, 25671, -4144, 5282, 5282, 22, 11, 1529519207.861, 56, 0, 1024, 1024, 1024, 1024, 0, 6, 4252, 4245, 4227, 4254, 4238, 4259, 0, 1, 4001, -89.900, 0.000, 28.300, 0.000, 0.000, -0.400, 0.0, , , , , , 95, , , 55, 55, 55
38.5386959, -120.5235806, 0.300, 11:26:47.961, 13, 0.00, 0.10, 100, 0.800, 0.000, 28.400, 1577, 100, 100, 21, 25671, -4144, 5282, 5282, 22, 11, 1529519207.961, 49, 0, 1024, 1024, 1024, 1024, 0, 6, 4252, 4245, 4227, 4254, 4238, 4259, 0, 1, 4101, -89.900, 0.000, 28.300, 0.000, 0.000, -0.400, 0.0, , , , , , 95, , , 55, 55, 55
38.5386959, -120.5235806, 0.300, 11:26:48.060, 13, 0.00, 0.11, 100, 0.800, 0.100, 28.300, 1577, 100, 100, 21, 25671, -4144, 5282, 5282, 22, 11, 1529519208.060, 39, 0, 1024, 1024, 1024, 1024, 0, 6, 4252, 4245, 4227, 4254, 4238, 4259, 0, 1, 4200, -89.900, 0.000, 28.300, 0.000, 0.000, -0.400, 0.0, , , , , , 95, , , 55, 55, 55
38.5386960, -120.5235807, 0.400, 11:26:48.160, 13, 0.00, 0.12, 100, 0.900, 0.400, 28.300, 1577, 100, 100, 21, 25671, -4144, 5282, 5282, 22, 11, 1529519208.160, 42, 0, 1024, 1024, 1024, 1024, 0, 6, 4252, 4245, 4227, 4254, 4238, 4259, 0, 1, 4300, -89.900, 0.000, 28.300, 0.000, 0.000, -0.500, 0.0, , , , , , 95, , , 55, 55, 55
38.5386961, -120.5235807, 0.500, 11:26:48.261, 13, 0.00, 0.13, 100, 0.900, 0.500, 28.300, 1577, 100, 100, 21, 25671, -4144, 5282, 5282, 22, 11, 1529519208.261, 47, 0, 1024, 1024, 1024, 1024, 0, 6, 4252, 4245, 4227, 4254, 4238, 4259, 0, 1, 4400, -89.900, 0.000, 28.300, 0.000, 0.000, -0.500, 0.0, , , , , , 95, , , 55, 55, 55
38.5386962, -120.5235807, 0.500, 11:26:48.361, 13, 0.00, 0.14, 100, 0.900, 0.600, 28.300, 1577, 100, 100, 21, 25671, -4144, 5282, 5282, 22, 11, 1529519208.361, 28, 0, 1024, 1024, 1024, 1024, 0, 6, 4252, 4245, 4227, 4254, 4238, 4259, 0, 1, 4500, -89.900, 0.000, 28.300, 0.000, 0.000, -0.500, 0.0, , , , , , 95, , , 55, 55, 55
38.5386963, -120.5235806, 0.600, 11:26:48.461, 13, 0.00, 0.14, 100, 0.600, 0.700, 28.200, 1577, 100, 100, 21, 24366, -15961, 5282, 5282, 22, 11, 1529519208.461, 31, 0, 1024, 1024, 1024, 1024, 0, 6, 4042, 4042, 4069, 4080, 4046, 4058, 0, 1, 4601, -89.900, 0.000, 28.300, 0.000, 0.000, -0.500, 0.0, , , , , , 95, , , 55, 55, 55
38.5386963, -120.5235805, 0.700, 11:26:48.561, 13, 0.00, 0.15, 100, 0.500, 0.700, 28.200, 1577, 100, 100, 21, 24366, -15961, 5282, 5282, 22, 11, 1529519208.561, 24, 0, 1024, 1024, 1024, 1024, 0, 6, 4042, 4042, 4069, 4080, 4046, 4058, 0, 1, 4700, -89.900, 0.000, 28.300, 0.000, 0.000, -0.500, 0.0, , , , , , 95, , , 55, 55, 55
38.5386964, -120.5235805, 0.700, 11:26:48.661, 13, 0.00, 0.15, 100, 0.500, 0.800, 28.200, 1577, 100, 100, 21, 24366, -15961, 5282, 5282, 22, 11, 1529519208.661, 25, 0, 1024, 1024, 1024, 1024, 0, 6, 4042, 4042, 4069, 4080, 4046, 4058, 0, 1, 4800, -89.900, 0.000, 28.300, 0.000, 0.000, -0.500, 0.0, , , , , , 95, , , 55, 55, 55
38.5386964, -120.5235805, 0.800, 11:26:48.761, 12, 0.00, 0.15, 100, 0.600, 0.900, 28.100, 1577, 100, 100, 21, 24366, -15961, 5282, 5282, 22, 11, 1529519208.761, 21, 0, 1024, 1024, 1024, 1024, 0, 6, 4042, 4042, 4069, 4080, 4046, 4058, 0, 1, 4901, -89.900, 0.000, 28.300, 0.000, 0.000, -0.500, 0.0, , , , , , 95, , , 55, 55, 55
38.5386964, -120.5235806, 0.900, 11:26:48.861, 12, 0.00, 0.15, 100, 0.700, 0.900, 28.100, 1577, 100, 100, 21, 24366, -15961, 5282, 5282, 22, 11, 1529519208.862, 1, 0, 1024, 1024, 1024, 1024, 0, 6, 4042, 4042, 4069, 4080, 4046, 4058, 0, 1, 5001, -89.900, 0.000, 28.300, 0.000, 0.000, -0.400, 0.0, , , , , , 95, , , 55, 55, 55
38.5386964, -120.5235806, 0.900, 11:26:48.961, 12, 0.00, 0.16, 100, 0.700, 0.900, 28.100, 1577, 100, 100, 21, 24366, -15961, 5282, 5282, 22, 14, 1529519208.961, 2, 0, 1024, 1024, 1024, 1024, 0, 6, 4042, 4042, 4069, 4080, 4046, 4058, 0, 1, 5100, -89.900, 0.000, 28.300, 0.000, 0.000, -0.400, 0.0, , , , , , 95, , , 55, 55, 55
38.5386964, -120.5235806, 1.000, 11:26:49.061, 12, 0.00, 0.16, 100, 0.500, 0.800, 28.000, 1577, 100, 100, 21, 24366, -15961, 5282, 5282, 22, 14, 1529519209.061, 2, 0, 1024, 1024, 1024, 1024, 0, 6, 4042, 4042, 4069, 4080, 4046, 4058, 0, 1, 5201, -89.900, 0.000, 28.300, 0.000, 0.000, -0.300, 0.0, , , , , , 95, , , 55, 55, 55
38.5386964, -120.5235806, 1.000, 11:26:49.161, 13, 0.00, 0.16, 100, 0.200, 0.700, 27.900, 1577, 100, 100, 21, 24366, -15961, 5282, 5282, 22, 14, 1529519209.161, 4, 0, 1024, 1024, 1024, 1024, 0, 6, 4042, 4042, 4069, 4080, 4046, 4058, 0, 1, 5300, -89.900, 0.000, 28.300, 0.000, 0.000, -0.200, 0.0, , , , , , 95, , , 55, 55, 55
38.5386964, -120.5235806, 1.000, 11:26:49.261, 13, 0.00, 0.16, 100, 0.200, 0.700, 27.900, 1577, 100, 100, 21, 24366, -15961, 5282, 5282, 22, 14, 1529519209.261, 104, 0, 1024, 1024, 1024, 1024, 0, 6, 4042, 4042, 4069, 4080, 4046, 4058, 0, 1, 5400, -89.900, 0.000, 28.300, 0.000, 0.000, -0.200, 0.0, , , , , , 95, , , 55, 55, 55
38.5386964, -120.5235806, 1.000, 11:26:49.361, 13, 0.00, 0.16, 100, 0.100, 0.600, 27.800, 1577, 100, 100, 21, 24366, -15961, 5282, 5282, 22, 14, 1529519209.361, 95, 0, 1024, 1024, 1024, 1024, 0, 6, 4042, 4042, 4069, 4080, 4046, 4058, 0, 1, 5500, -90.000, 0.000, 28.300, 0.000, 0.000, -0.300, 0.0, , , , , , 95, , , 55, 55, 55
38.5386964, -120.5235806, 1.100, 11:26:49.461, 12, 0.00, 0.16, 100, 0.200, 0.400, 27.800, 1577, 100, 100, 21, 24366, -15961, 5282, 5282, 22, 14, 1529519209.461, 70, 0, 1024, 1024, 1024, 1024, 0, 6, 4042, 4042, 4069, 4080, 4046, 4058, 0, 1, 5601, -90.000, 0.000, 28.300, 0.000, 0.000, -0.300, 0.0, , , , , , 95, , , 55, 55, 55
38.5386964, -120.5235806, 1.100, 11:26:49.561, 12, 0.00, 0.15, 100, 0.300, 0.200, 27.800, 1577, 100, 100, 21, 24170, -16262, 5282, 5282, 22, 14, 1529519209.561, 65, 0, 1024, 1024, 1024, 1024, 0, 6, 4015, 4023, 4037, 4050, 4014, 4038, 0, 1, 5700, -90.000, 0.000, 28.300, 0.000, 0.000, -0.500, 0.0, , , , , , 95, , , 55, 55, 55
38.5386963, -120.5235807, 1.200, 11:26:49.661, 12, 0.00, 0.15, 100, 0.200, 0.100, 27.900, 1577, 100, 100, 21, 24170, -16262, 5282, 5282, 22, 14, 1529519209.661, 74, 0, 1024, 1024, 1024, 1024, 0, 6, 4015, 4023, 4037, 4050, 4014, 4038, 0, 1, 5800, -90.000, 0.000, 28.300, 0.000, 0.000, -0.600, 0.0, , , , , , 95, , , 55, 55, 55
38.5386963, -120.5235807, 1.200, 11:26:49.761, 12, 0.00, 0.15, 100, 0.100, 0.000, 27.900, 1577, 100, 100, 21, 24170, -16262, 5282, 5282, 22, 14, 1529519209.761, 65, 0, 1024, 1024, 1024, 1024, 0, 6, 4015, 4023, 4037, 4050, 4014, 4038, 0, 1, 5900, -90.000, 0.000, 28.300, 0.000, 0.000, -0.700, 0.0, , , , , , 95, , , 55, 55, 55
38.5386963, -120.5235808, 1.300, 11:26:49.861, 12, 0.00, 0.15, 100, 0.100, 0.000, 27.900, 1577, 100, 100, 21, 24170, -16262, 5282, 5282, 22, 14, 1529519209.861, 55, 0, 1024, 1024, 1024, 1024, 0, 6, 4015, 4023, 4037, 4050, 4014, 4038, 0, 1, 6001, -90.000, 0.000, 28.300, 0.000, 0.000, -0.900, 0.0, , , , , , 95, , , 55, 55, 55
38.5386963, -120.5235808, 1.400, 11:26:49.961, 12, 0.00, 0.16, 100, 0.300, 0.100, 27.900, 1577, 100, 100, 21, 24170, -16262, 5282, 5282, 22, 14, 1529519209.961, 70, 0, 1024, 1024, 1024, 1024, 0, 6, 4015, 4023, 4037, 4050, 4014, 4038, 0, 1, 6101, -89.900, 0.000, 28.300, 0.000, 0.000, -1.100, 0.0, , , , , , 95, , , 55, 55, 55
38.5386963, -120.5235809, 1.600, 11:26:50.061, 12, 0.00, 0.16, 100, 0.400, 0.000, 27.900, 1577, 100, 100, 21, 24170, -16262, 5282, 5282, 22, 14, 1529519210.061, 62, 0, 1024, 1024, 1024, 1024, 0, 6, 4015, 4023, 4037, 4050, 4014, 4038, 0, 1, 6200, -90.000, 0.000, 28.300, 0.000, 0.000, -1.400, 0.0, , , , , , 95, , , 55, 55, 55
38.5386964, -120.5235809, 1.700, 11:26:50.160, 12, 0.00, 0.17, 100, 0.600, 0.100, 28.000, 1577, 100, 100, 21, 24170, -16262, 5282, 5282, 22, 14, 1529519210.160, 53, 0, 1024, 1024, 1024, 1024, 0, 6, 4015, 4023, 4037, 4050, 4014, 4038, 0, 1, 6300, -89.900, 0.000, 28.300, 0.000, 0.000, -1.600, 0.0, , , , , , 95, , , 55, 55, 55
38.5386965, -120.5235809, 1.900, 11:26:50.261, 13, 0.00, 0.18, 100, 0.700, 0.200, 28.000, 1577, 100, 100, 21, 24170, -16262, 5282, 5282, 22, 14, 1529519210.261, 59, 0, 1024, 1024, 1024, 1024, 0, 6, 4015, 4023, 4037, 4050, 4014, 4038, 0, 1, 6401, -89.900, 0.000, 28.300, 0.000, 0.000, -1.800, 0.0, , , , , , 95, , , 55, 55, 55
38.5386965, -120.5235809, 2.100, 11:26:50.360, 13, 0.00, 0.18, 100, 0.700, 0.400, 28.100, 1577, 100, 100, 21, 24170, -16262, 5282, 5282, 22, 14, 1529519210.360, 18, 0, 1024, 1024, 1024, 1024, 0, 6, 4015, 4023, 4037, 4050, 4014, 4038, 0, 1, 6500, -89.900, 0.000, 28.300, 0.000, 0.000, -2.000, 0.0, , , , , , 95, , , 55, 55, 55
38.5386966, -120.5235808, 2.600, 11:26:50.461, 13, 0.00, 0.18, 100, 0.400, 0.600, 28.200, 1577, 100, 100, 21, 24170, -16262, 5282, 5282, 22, 14, 1529519210.461, 13, 0, 1024, 1024, 1024, 1024, 0, 6, 4015, 4023, 4037, 4050, 4014, 4038, 0, 1, 6601, -89.900, 0.000, 28.300, 0.000, 0.000, -2.500, 0.0, , , , , , 95, , , 55, 55, 55
38.5386966, -120.5235808, 2.600, 11:26:50.561, 13, 0.00, 0.18, 100, 0.400, 0.600, 28.200, 1577, 100, 100, 21, 24030, -16417, 5282, 5282, 22, 14, 1529519210.561, 113, 0, 1024, 1024, 1024, 1024, 0, 6, 4015, 4023, 4037, 4050, 4014, 4038, 0, 1, 6701, -89.900, 0.000, 28.300, 0.000, 0.000, -2.500, 0.0, , , , , , 95, , , 55, 55, 55
38.5386966, -120.5235808, 2.600, 11:26:50.661, 13, 0.00, 0.18, 100, 0.400, 0.600, 28.200, 1577, 100, 100, 21, 24030, -16417, 5282, 5282, 22, 14, 1529519210.661, 213, 0, 1024, 1024, 1024, 1024, 0, 6, 4015, 4023, 4037, 4050, 4014, 4038, 0, 1, 6800, -89.900, 0.000, 28.300, 0.000, 0.000, -2.500, 0.0, , , , , , 95, , , 55, 55, 55
38.5386967, -120.5235807, 3.500, 11:26:50.761, 13, 0.00, 0.19, 100, 0.400, 0.400, 28.200, 1577, 100, 100, 21, 24030, -16417, 5282, 5282, 22, 14, 1529519210.761, 14, 0, 1024, 1024, 1024, 1024, 0, 6, 3982, 3993, 4016, 4010, 4021, 3982, 0, 1, 6901, -89.900, 0.000, 28.300, 0.000, 0.000, -3.000, 0.0, , , , , , 95, , , 55, 55, 55
38.5386968, -120.5235806, 3.900, 11:26:50.863, 13, 0.00, 0.19, 100, 0.400, 0.400, 28.200, 1577, 100, 100, 21, 24030, -16417, 5282, 5282, 22, 14, 1529519210.863, 4, 0, 1024, 1024, 1024, 1024, 0, 6, 3982, 3993, 4016, 4010, 4021, 3982, 0, 1, 7003, -89.900, 0.000, 28.300, 0.000, 0.000, -3.000, 0.0, , , , , , 95, , , 55, 55, 55
38.5386968, -120.5235805, 4.200, 11:26:50.961, 12, 0.00, 0.19, 100, 0.300, 0.500, 28.100, 1577, 100, 100, 21, 24030, -16417, 5282, 5282, 22, 14, 1529519210.961, 16, 0, 1024, 1024, 1024, 1024, 0, 6, 3982, 3993, 4016, 4010, 4021, 3982, 0, 1, 7101, -89.900, 0.000, 28.300, 0.000, 0.000, -3.100, 0.0, , , , , , 95, , , 55, 55, 55
38.5386968, -120.5235805, 4.500, 11:26:51.060, 12, 0.00, 0.19, 100, 0.200, 0.500, 28.100, 1577, 100, 100, 21, 24030, -16417, 5282, 5282, 22, 14, 1529519211.061, 19, 0, 1024, 1024, 1024, 1024, 0, 6, 3982, 3993, 4016, 4010, 4021, 3982, 0, 1, 7200, -89.900, 0.000, 28.300, 0.000, 0.000, -3.200, 0.0, , , , , , 95, , , 55, 55, 55
38.5386968, -120.5235805, 4.900, 11:26:51.159, 13, 0.00, 0.20, 100, 0.200, 0.300, 28.100, 1577, 100, 100, 21, 24030, -16417, 5282, 5282, 22, 14, 1529519211.160, 11, 0, 1024, 1024, 1024, 1024, 0, 6, 3982, 3993, 4016, 4010, 4021, 3982, 0, 1, 7300, -89.900, 0.000, 28.300, 0.000, 0.000, -3.100, 0.0, , , , , , 95, , , 55, 55, 55
38.5386970, -120.5235805, 5.200, 11:26:51.261, 13, 0.00, 0.22, 100, 0.200, 0.300, 28.000, 1577, 100, 100, 21, 24030, -16417, 5282, 5282, 22, 14, 1529519211.261, 5, 0, 1024, 1024, 1024, 1024, 0, 6, 3982, 3993, 4016, 4010, 4021, 3982, 0, 1, 7401, -89.900, 0.000, 28.300, 0.000, 0.000, -3.100, 0.0, , , , , , 95, , , 55, 55, 55
38.5386970, -120.5235805, 5.200, 11:26:51.360, 13, 0.00, 0.22, 100, 0.200, 0.300, 28.000, 1577, 100, 100, 21, 24030, -16417, 5282, 5282, 22, 14, 1529519211.361, 104, 0, 1024, 1024, 1024, 1024, 0, 6, 3982, 3993, 4016, 4010, 4021, 3982, 0, 1, 7501, -89.900, 0.000, 28.300, 0.000, 0.000, -3.100, 0.0, , , , , , 95, , , 55, 55, 55
38.5386971, -120.5235806, 5.500, 11:26:51.460, 13, 0.00, 0.23, 100, 0.300, 0.600, 28.000, 1577, 100, 100, 21, 24030, -16417, 5282, 5282, 22, 14, 1529519211.461, 92, 0, 1024, 1024, 1024, 1024, 0, 6, 3982, 3993, 4016, 4010, 4021, 3982, 0, 1, 7601, -89.900, 0.000, 28.300, 0.000, 0.000, -3.100, 0.0, , , , , , 95, , , 55, 55, 55
38.5386972, -120.5235806, 5.900, 11:26:51.561, 13, 0.00, 0.24, 100, 0.500, 0.700, 28.000, 1577, 100, 100, 21, 23550, -23017, 5282, 5282, 22, 14, 1529519211.561, 75, 0, 1024, 1024, 1024, 1024, 0, 6, 3907, 3916, 3937, 3931, 3887, 3911, 0, 1, 7701, -89.900, 0.000, 28.300, 0.000, 0.000, -3.100, 0.0, , , , , , 95, , , 55, 55, 55
38.5386972, -120.5235806, 6.200, 11:26:51.660, 13, 0.00, 0.24, 100, 0.600, 0.800, 28.000, 1577, 100, 100, 21, 23550, -23017, 5282, 5282, 22, 14, 1529519211.661, 74, 0, 1024, 1024, 1024, 1024, 0, 6, 3907, 3916, 3937, 3931, 3887, 3911, 0, 1, 7801, -89.900, 0.000, 28.300, 0.000, 0.000, -3.100, 0.0, , , , , , 95, , , 55, 55, 55
38.5386972, -120.5235806, 6.500, 11:26:51.760, 13, 0.00, 0.24, 100, 0.700, 0.600, 28.000, 1577, 100, 100, 21, 23550, -23017, 5282, 5282, 22, 14, 1529519211.761, 63, 0, 1024, 1024, 1024, 1024, 0, 6, 3907, 3916, 3937, 3931, 3887, 3911, 0, 1, 7901, -89.900, 0.000, 28.300, 0.000, 0.000, -3.100, 0.0, , , , , , 95, , , 55, 55, 55
38.5386972, -120.5235806, 6.800, 11:26:51.860, 13, 0.00, 0.24, 100, 0.800, 0.600, 28.100, 1577, 100, 100, 21, 23550, -23017, 5282, 5282, 22, 14, 1529519211.861, 77, 0, 1024, 1024, 1024, 1024, 0, 6, 3907, 3916, 3937, 3931, 3887, 3911, 0, 1, 8001, -89.900, 0.000, 28.300, 0.000, 0.000, -3.100, 0.0, , , , , , 95, , , 55, 55, 55
38.5386973, -120.5235806, 7.200, 11:26:51.960, 13, 0.00, 0.25, 100, 0.800, 0.600, 28.100, 1577, 100, 100, 21, 23550, -23017, 5282, 5282, 22, 14, 1529519211.961, 79, 0, 1024, 1024, 1024, 1024, 0, 6, 3907, 3916, 3937, 3931, 3887, 3911, 0, 1, 8101, -89.900, 0.000, 28.300, 0.000, 0.000, -3.100, 0.0, , , , , , 95, , , 55, 55, 55
38.5386973, -120.5235806, 7.500, 11:26:52.060, 14, 0.00, 0.25, 100, 0.700, 0.700, 28.100, 1577, 100, 100, 21, 23550, -23017, 5282, 5282, 22, 14, 1529519212.061, 46, 0, 1024, 1024, 1024, 1024, 0, 6, 3907, 3916, 3937, 3931, 3887, 3911, 0, 1, 8201, -89.900, 0.000, 28.300, 0.000, 0.000, -3.100, 0.0, , , , , , 95, , , 55, 55, 55
38.5386973, -120.5235807, 7.800, 11:26:52.159, 14, 0.00, 0.25, 100, 0.600, 0.600, 28.200, 1577, 100, 100, 21, 23550, -23017, 5282, 5282, 22, 14, 1529519212.160, 63, 0, 1024, 1024, 1024, 1024, 0, 6, 3907, 3916, 3937, 3931, 3887, 3911, 0, 1, 8300, -89.900, 0.000, 28.300, 0.000, 0.000, -3.000, 0.0, , , , , , 95, , , 55, 55, 55
38.5386972, -120.5235807, 8.100, 11:26:52.260, 13, 0.00, 0.25, 100, 0.700, 0.500, 28.200, 1577, 100, 100, 21, 23550, -23017, 5282, 5282, 22, 14, 1529519212.261, 63, 0, 1024, 1024, 1024, 1024, 0, 6, 3907, 3916, 3937, 3931, 3887, 3911, 0, 1, 8400, -89.900, 0.000, 28.300, 0.000, 0.000, -3.100, 0.0, , , , , , 95, , , 55, 55, 55
38.5386972, -120.5235808, 8.500, 11:26:52.360, 13, 0.00, 0.25, 100, 0.600, 0.500, 28.300, 1577, 100, 100, 21, 23550, -23017, 5282, 5282, 22, 14, 1529519212.361, 66, 0, 1024, 1024, 1024, 1024, 0, 6, 3907, 3916, 3937, 3931, 3887, 3911, 0, 1, 8500, -89.900, 0.000, 28.300, 0.000, 0.000, -3.100, 0.0, , , , , , 95, , , 55, 55, 55
38.5386972, -120.5235808, 8.800, 11:26:52.460, 12, 0.00, 0.25, 100, 0.600, 0.500, 28.200, 1577, 100, 100, 21, 23550, -23017, 5282, 5282, 22, 14, 1529519212.461, 53, 0, 1024, 1024, 1024, 1024, 0, 6, 3907, 3916, 3937, 3931, 3887, 3911, 0, 1, 8600, -89.900, 0.000, 28.300, 0.000, 0.000, -3.100, 0.0, , , , , , 95, , , 55, 55, 55
38.5386972, -120.5235808, 9.100, 11:26:52.560, 12, 0.00, 0.24, 100, 0.500, 0.500, 28.200, 1577, 100, 100, 21, 23529, -18848, 5282, 5282, 22, 14, 1529519212.561, 21, 0, 1024, 1024, 1024, 1024, 0, 6, 3907, 3916, 3937, 3931, 3887, 3911, 0, 1, 8700, -89.900, 0.000, 28.300, 0.000, 0.000, -3.000, 0.0, , , , , , 95, , , 55, 55, 55
38.5386972, -120.5235809, 9.400, 11:26:52.660, 13, 0.00, 0.24, 100, 0.300, 0.500, 28.100, 1577, 100, 100, 21, 23529, -18848, 5282, 5282, 22, 14, 1529519212.661, 21, 0, 1024, 1024, 1024, 1024, 0, 6, 3907, 3916, 3937, 3931, 3887, 3911, 0, 1, 8801, -89.900, 0.000, 28.300, 0.000, 0.000, -3.000, 0.0, , , , , , 95, , , 55, 55, 55
38.5386971, -120.5235809, 9.700, 11:26:52.760, 13, 0.00, 0.24, 100, 0.300, 0.300, 28.000, 1577, 100, 100, 21, 23529, -18848, 5282, 5282, 22, 14, 1529519212.761, 23, 0, 1024, 1024, 1024, 1024, 0, 6, 3907, 3916, 3937, 3931, 3887, 3911, 0, 1, 8901, -89.900, 0.000, 28.300, 0.000, 0.000, -3.000, 0.0, , , , , , 95, , , 55, 55, 55
38.5386972, -120.5235812, 10.300, 11:26:52.860, 13, 0.00, 0.26, 100, 0.600, 0.300, 27.800, 1577, 100, 100, 21, 23529, -18848, 5282, 5282, 22, 14, 1529519212.861, 23, 0, 1024, 1024, 1024, 1024, 0, 6, 3907, 3916, 3937, 3931, 3887, 3911, 0, 1, 9000, -89.900, 0.000, 28.300, 0.000, 0.000, -3.000, 0.0, , , , , , 95, , , 55, 55, 55
38.5386972, -120.5235814, 10.700, 11:26:52.960, 13, 0.00, 0.26, 98, 0.800, 0.200, 27.700, 1577, 100, 100, 21, 23529, -18848, 5176, 5282, 22, 14, 1529519212.961, 20, 0, 1024, 1024, 1024, 1024, 0, 6, 3930, 3948, 3945, 3958, 3917, 3953, 0, 1, 9100, -90.000, 0.000, 28.300, 0.000, 0.000, -3.000, 0.0, , , , , , 95, , , 55, 55, 55
38.5386971, -120.5235814, 11.000, 11:26:53.060, 13, 0.00, 0.26, 98, 1.000, 0.100, 27.700, 1577, 100, 100, 21, 23529, -18848, 5176, 5282, 22, 14, 1529519213.061, 22, 0, 1024, 1024, 1024, 1024, 0, 6, 3930, 3948, 3945, 3958, 3917, 3953, 0, 1, 9200, -90.000, 0.000, 28.300, 0.000, 0.000, -3.000, 0.0, , , , , , 95, , , 55, 55, 55
38.5386971, -120.5235815, 11.300, 11:26:53.160, 14, 0.00, 0.26, 98, 1.100, 0.000, 27.700, 1577, 100, 100, 21, 23529, -18848, 5176, 5282, 22, 14, 1529519213.160, 22, 0, 1024, 1024, 1024, 1024, 0, 6, 3930, 3948, 3945, 3958, 3917, 3953, 0, 1, 9300, -89.900, 0.000, 28.300, 0.000, 0.000, -3.000, 0.0, , , , , , 95, , , 55, 55, 55
38.5386970, -120.5235815, 11.600, 11:26:53.260, 14, 0.00, 0.25, 98, 1.000, 0.000, 27.700, 1577, 100, 100, 21, 23529, -18848, 5176, 5282, 22, 14, 1529519213.261, 16, 0, 1024, 1024, 1024, 1024, 0, 6, 3930, 3948, 3945, 3958, 3917, 3953, 0, 1, 9400, -89.900, 0.000, 28.300, 0.000, 0.000, -3.000, 0.0, , , , , , 95, , , 55, 55, 55
38.5386970, -120.5235815, 11.600, 11:26:53.360, 14, 0.00, 0.25, 98, 1.000, 0.000, 27.700, 1577, 100, 100, 21, 23529, -18848, 5176, 5282, 22, 14, 1529519213.360, 115, 0, 1024, 1024, 1024, 1024, 0, 6, 3930, 3948, 3945, 3958, 3917, 3953, 0, 1, 9500, -89.900, 0.000, 28.300, 0.000, 0.000, -3.000, 0.0, , , , , , 95, , , 55, 55, 55
38.5386968, -120.5235815, 12.200, 11:26:53.461, 14, 0.00, 0.24, 98, 0.500, -0.300, 27.800, 1577, 100, 100, 21, 23529, -18848, 5176, 5282, 22, 14, 1529519213.461, 1, 0, 1024, 1024, 1024, 1024, 0, 6, 3930, 3948, 3945, 3958, 3917, 3953, 0, 1, 9600, -90.000, 0.000, 28.300, 0.000, 0.000, -2.900, 0.0, , , , , , 95, , , 55, 55, 55
38.5386968, -120.5235815, 12.200, 11:26:53.560, 14, 0.00, 0.24, 98, 0.500, -0.300, 27.800, 1577, 100, 100, 21, 23529, -18848, 5176, 5282, 22, 14, 1529519213.561, 101, 0, 1024, 1024, 1024, 1024, 0, 6, 3930, 3948, 3945, 3958, 3917, 3953, 0, 1, 9700, -90.000, 0.000, 28.300, 0.000, 0.000, -2.900, 0.0, , , , , , 95, , , 55, 55, 55
38.5386967, -120.5235816, 12.500, 11:26:53.660, 15, 0.00, 0.23, 98, 0.400, -0.600, 27.900, 1577, 100, 100, 21, 23529, -18848, 5176, 5282, 22, 14, 1529519213.661, 77, 0, 1024, 1024, 1024, 1024, 0, 6, 3930, 3948, 3945, 3958, 3917, 3953, 0, 1, 9800, -90.000, 0.000, 28.300, 0.000, 0.000, -3.000, 0.0, , , , , , 95, , , 55, 55, 55
38.5386966, -120.5235816, 12.800, 11:26:53.760, 15, 0.00, 0.22, 98, 0.400, -0.700, 27.900, 1577, 100, 100, 21, 23529, -18848, 5176, 5282, 22, 14, 1529519213.761, 92, 0, 1024, 1024, 1024, 1024, 0, 6, 3930, 3948, 3945, 3958, 3917, 3953, 0, 1, 9900, -90.000, 0.000, 28.300, 0.000, 0.000, -3.000, 0.0, , , , , , 95, , , 55, 55, 55
38.5386966, -120.5235816, 13.100, 11:26:53.860, 15, 0.00, 0.22, 98, 0.400, -0.600, 28.000, 1577, 100, 100, 21, 23529, -18848, 5176, 5282, 22, 14, 1529519213.861, 72, 0, 1024, 1024, 1024, 1024, 0, 6, 3930, 3948, 3945, 3958, 3917, 3953, 0, 1, 10000, -89.900, 0.000, 28.300, 0.000, 0.000, -2.900, 0.0, , , , , , 95, , , 55, 55, 55
38.5386965, -120.5235816, 13.400, 11:26:53.960, 15, 0.00, 0.22, 98, 0.300, -0.500, 28.000, 1577, 100, 100, 21, 23529, -18848, 5176, 5282, 22, 14, 1529519213.961, 74, 0, 1024, 1024, 1024, 1024, 0, 6, 3930, 3948, 3945, 3958, 3917, 3953, 0, 1, 10100, -89.900, 0.000, 28.300, 0.000, 0.000, -2.900, 0.0, , , , , , 95, , , 55, 55, 55
38.5386965, -120.5235816, 13.700, 11:26:54.060, 15, 0.00, 0.21, 98, 0.200, -0.300, 28.000, 1577, 100, 100, 21, 23682, -18927, 5176, 5282, 22, 14, 1529519214.061, 78, 0, 1024, 1024, 1024, 1024, 0, 6, 3924, 3938, 3961, 3972, 3933, 3956, 0, 1, 10200, -89.900, 0.000, 28.300, 0.000, 0.000, -2.900, 0.0, , , , , , 95, , , 55, 55, 55
38.5386965, -120.5235816, 14.000, 11:26:54.160, 15, 0.00, 0.21, 98, 0.100, 0.000, 27.900, 1577, 100, 100, 21, 23682, -18927, 5176, 5282, 22, 14, 1529519214.160, 69, 0, 1024, 1024, 1024, 1024, 0, 6, 3924, 3938, 3961, 3972, 3933, 3956, 0, 1, 10300, -89.900, 0.000, 28.300, 0.000, 0.000, -2.900, 0.0, , , , , , 95, , , 55, 55, 55
38.5386965, -120.5235815, 14.300, 11:26:54.260, 16, 0.00, 0.21, 98, 0.100, 0.200, 27.900, 1577, 100, 100, 21, 23682, -18927, 5176, 5282, 22, 14, 1529519214.260, 74, 0, 1024, 1024, 1024, 1024, 0, 6, 3924, 3938, 3961, 3972, 3933, 3956, 0, 1, 10400, -89.900, 0.000, 28.300, 0.000, 0.000, -3.000, 0.0, , , , , , 95, , , 55, 55, 55
38.5386965, -120.5235815, 14.700, 11:26:54.360, 16, 0.00, 0.21, 98, 0.200, 0.400, 27.900, 1577, 100, 100, 21, 23682, -18927, 5176, 5282, 22, 14, 1529519214.360, 50, 0, 1024, 1024, 1024, 1024, 0, 6, 3924, 3938, 3961, 3972, 3933, 3956, 0, 1, 10500, -89.900, 0.000, 28.300, 0.000, 0.000, -3.000, 0.0, , , , , , 95, , , 55, 55, 55
38.5386965, -120.5235814, 15.000, 11:26:54.460, 16, 0.00, 0.20, 98, 0.100, 0.500, 27.900, 1577, 100, 100, 21, 23682, -18927, 5176, 5282, 22, 14, 1529519214.460, 33, 0, 1024, 1024, 1024, 1024, 0, 6, 3924, 3938, 3961, 3972, 3933, 3956, 0, 1, 10600, -89.900, 0.000, 28.300, 0.000, 0.000, -2.900, 0.0, , , , , , 95, , , 55, 55, 55
38.5386965, -120.5235814, 15.300, 11:26:54.560, 16, 0.00, 0.20, 98, 0.000, 0.500, 27.900, 1577, 100, 100, 21, 23682, -18927, 5176, 5282, 22, 14, 1529519214.561, 49, 0, 1024, 1024, 1024, 1024, 0, 6, 3924, 3938, 3961, 3972, 3933, 3956, 0, 1, 10700, -89.900, 0.000, 28.300, 0.000, 0.000, -3.000, 0.0, , , , , , 95, , , 55, 55, 55
38.5386965, -120.5235814, 15.600, 11:26:54.660, 16, 0.00, 0.20, 98, 0.100, 0.300, 27.900, 1577, 100, 100, 21, 23682, -18927, 5176, 5282, 22, 14, 1529519214.661, 60, 0, 1024, 1024, 1024, 1024, 0, 6, 3924, 3938, 3961, 3972, 3933, 3956, 0, 1, 10800, -89.900, 0.000, 28.300, 0.000, 0.000, -2.900, 0.0, , , , , , 95, , , 55, 55, 55
38.5386964, -120.5235814, 15.900, 11:26:54.760, 16, 0.00, 0.20, 98, 0.200, 0.200, 28.000, 1577, 100, 100, 21, 23682, -18927, 5176, 5282, 22, 14, 1529519214.761, 50, 0, 1024, 1024, 1024, 1024, 0, 6, 3924, 3938, 3961, 3972, 3933, 3956, 0, 1, 10900, -89.900, 0.000, 28.300, 0.000, 0.000, -2.900, 0.0, , , , , , 95, , , 55, 55, 55
38.5386964, -120.5235814, 16.200, 11:26:54.860, 16, 0.00, 0.20, 98, 0.400, 0.100, 28.100, 1577, 100, 100, 21, 23682, -18927, 5176, 5282, 22, 14, 1529519214.860, 53, 0, 1024, 1024, 1024, 1024, 0, 6, 3924, 3938, 3961, 3972, 3933, 3956, 0, 1, 11000, -89.900, 0.000, 28.300, 0.000, 0.000, -2.900, 0.0, , , , , , 95, , , 55, 55, 55
38.5386965, -120.5235814, 16.500, 11:26:54.960, 16, 0.00, 0.20, 98, 0.400, 0.200, 28.100, 1577, 100, 100, 21, 23682, -18927, 5176, 5282, 22, 14, 1529519214.961, 18, 0, 1024, 1024, 1024, 1024, 0, 6, 3924, 3938, 3961, 3972, 3933, 3956, 0, 1, 11101, -89.900, 0.000, 28.300, 0.000, 0.000, -2.900, 0.0, , , , , , 95, , , 55, 55, 55
38.5386965, -120.5235814, 16.800, 11:26:55.060, 16, 0.00, 0.21, 98, 0.400, 0.400, 28.200, 1577, 100, 100, 21, 23644, -18639, 5176, 5282, 22, 14, 1529519215.061, 33, 0, 1024, 1024, 1024, 1024, 0, 6, 3909, 3930, 3961, 3972, 3941, 3941, 0, 1, 11200, -89.900, 0.000, 28.300, 0.000, 0.000, -2.900, 0.0, , , , , , 95, , , 55, 55, 55
38.5386965, -120.5235814, 17.400, 11:26:55.160, 16, 0.00, 0.20, 98, 0.300, 0.500, 28.200, 1577, 100, 100, 21, 23644, -18639, 5176, 5282, 22, 14, 1529519215.160, 31, 0, 1024, 1024, 1024, 1024, 0, 6, 3909, 3930, 3961, 3972, 3941, 3941, 0, 1, 11300, -89.900, 0.000, 28.300, 0.000, 0.000, -2.900, 0.0, , , , , , 95, , , 55, 55, 55
38.5386965, -120.5235813, 17.700, 11:26:55.260, 16, 0.00, 0.20, 98, 0.300, 0.300, 28.200, 1577, 100, 100, 21, 23644, -18639, 5176, 5282, 22, 14, 1529519215.261, 16, 0, 1024, 1024, 1024, 1024, 0, 6, 3909, 3930, 3961, 3972, 3941, 3941, 0, 1, 11400, -89.900, 0.000, 28.300, 0.000, 0.000, -2.900, 0.0, , , , , , 95, , , 55, 55, 55
38.5386965, -120.5235813, 18.000, 11:26:55.360, 16, 0.00, 0.20, 98, 0.300, 0.100, 28.200, 1577, 100, 100, 21, 23644, -18639, 5176, 5282, 22, 14, 1529519215.360, 35, 0, 1024, 1024, 1024, 1024, 0, 6, 3909, 3930, 3961, 3972, 3941, 3941, 0, 1, 11500, -89.900, 0.000, 28.300, 0.000, 0.000, -2.900, 0.0, , , , , , 95, , , 55, 55, 55
38.5386965, -120.5235813, 18.300, 11:26:55.460, 16, 0.00, 0.20, 98, 0.200, 0.200, 28.100, 1577, 100, 100, 21, 23644, -18639, 5176, 5282, 22, 14, 1529519215.461, 20, 0, 1024, 1024, 1024, 1024, 0, 6, 3909, 3930, 3961, 3972, 3941, 3941, 0, 1, 11600, -89.900, 0.000, 28.300, 0.000, 0.000, -2.800, 0.0, , , , , , 95, , , 55, 55, 55
38.5386965, -120.5235812, 18.600, 11:26:55.560, 16, 0.00, 0.20, 98, 0.100, 0.100, 28.000, 1577, 100, 100, 21, 23644, -18639, 5176, 5282, 22, 14, 1529519215.561, 33, 0, 1024, 1024, 1024, 1024, 0, 6, 3909, 3930, 3961, 3972, 3941, 3941, 0, 1, 11700, -89.900, 0.000, 28.300, 0.000, 0.000, -2.900, 0.0, , , , , , 95, , , 55, 55, 55
38.5386965, -120.5235812, 18.900, 11:26:55.660, 16, 0.00, 0.19, 98, 0.200, 0.000, 27.900, 1577, 100, 100, 21, 23644, -18639, 5176, 5282, 22, 14, 1529519215.661, 8, 0, 1024, 1024, 1024, 1024, 0, 6, 3909, 3930, 3961, 3972, 3941, 3941, 0, 1, 11800, -90.000, 0.000, 28.300, 0.000, 0.000, -2.800, 0.0, , , , , , 95, , , 55, 55, 55
38.5386965, -120.5235812, 19.200, 11:26:55.760, 16, 0.00, 0.19, 98, 0.200, 0.000, 27.800, 1577, 100, 100, 21, 23644, -18639, 5176, 5282, 22, 14, 1529519215.761, 13, 0, 1024, 1024, 1024, 1024, 0, 6, 3909, 3930, 3961, 3972, 3941, 3941, 0, 1, 11900, -89.900, 0.000, 28.300, 0.000, 0.000, -2.800, 0.0, , , , , , 95, , , 55, 55, 55
38.5386965, -120.5235812, 19.500, 11:26:55.860, 16, 0.00, 0.19, 98, 0.200, 0.000, 27.700, 1577, 100, 100, 21, 23644, -18639, 5176, 5282, 22, 14, 1529519215.861, 12, 0, 1024, 1024, 1024, 1024, 0, 6, 3909, 3930, 3961, 3972, 3941, 3941, 0, 1, 12000, -90.000, 0.000, 28.300, 0.000, 0.000, -2.900, 0.0, , , , , , 95, , , 55, 55, 55
38.5386965, -120.5235812, 19.500, 11:26:55.960, 16, 0.00, 0.19, 98, 0.200, 0.000, 27.700, 1577, 100, 100, 21, 23644, -18639, 5176, 5282, 22, 14, 1529519215.960, 112, 0, 1024, 1024, 1024, 1024, 0, 6, 3909, 3930, 3961, 3972, 3941, 3941, 0, 1, 12100, -90.000, 0.000, 28.300, 0.000, 0.000, -2.900, 0.0, , , , , , 95, , , 55, 55, 55
38.5386965, -120.5235812, 19.800, 11:26:56.061, 16, 0.00, 0.19, 98, 0.300, 0.000, 27.700, 1577, 100, 100, 21, 23645, -18552, 5176, 5282, 22, 14, 1529519216.061, 98, 0, 1024, 1024, 1024, 1024, 0, 6, 3916, 3934, 3949, 3967, 3928, 3946, 0, 1, 12201, -89.900, 0.000, 28.300, 0.000, 0.000, -2.900, 0.0, , , , , , 95, , , 55, 55, 55
38.5386965, -120.5235811, 20.100, 11:26:56.160, 16, 0.00, 0.19, 98, 0.300, 0.200, 27.700, 1577, 100, 98, 21, 23645, -18552, 5176, 5282, 22, 14, 1529519216.160, 97, 0, 1024, 1024, 1024, 1024, 0, 6, 3916, 3934, 3949, 3967, 3928, 3946, 0, 1, 12300, -89.900, 0.000, 28.300, 0.000, 0.000, -2.900, 0.0, , , , , , 95, , , 55, 55, 55
38.5386966, -120.5235811, 20.400, 11:26:56.260, 16, 0.00, 0.19, 98, 0.300, 0.300, 27.800, 1577, 100, 98, 21, 23645, -18552, 5176, 5282, 22, 14, 1529519216.260, 89, 0, 1024, 1024, 1024, 1024, 0, 6, 3916, 3934, 3949, 3967, 3928, 3946, 0, 1, 12400, -89.900, 0.000, 28.300, 0.000, 0.000, -2.900, 0.0, , , , , , 95, , , 55, 55, 55
38.5386966, -120.5235810, 20.700, 11:26:56.360, 16, 0.00, 0.20, 98, 0.200, 0.500, 27.800, 1577, 100, 98, 21, 23645, -18552, 5176, 5282, 22, 14, 1529519216.360, 81, 0, 1024, 1024, 1024, 1024, 0, 6, 3916, 3934, 3949, 3967, 3928, 3946, 0, 1, 12500, -89.900, 0.000, 28.300, 0.000, 0.000, -2.900, 0.0, , , , , , 95, , , 55, 55, 55
38.5386967, -120.5235810, 21.000, 11:26:56.460, 16, 0.00, 0.20, 98, 0.000, 0.700, 27.900, 1577, 100, 98, 21, 23645, -18552, 5176, 5282, 22, 14, 1529519216.461, 71, 0, 1024, 1024, 1024, 1024, 0, 6, 3916, 3934, 3949, 3967, 3928, 3946, 0, 1, 12600, -89.900, 0.000, 28.300, 0.000, 0.000, -2.900, 0.0, , , , , , 95, , , 55, 55, 55
38.5386967, -120.5235810, 21.300, 11:26:56.560, 16, 0.00, 0.21, 98, 0.100, 0.800, 28.000, 1577, 100, 98, 21, 23645, -18552, 5176, 5282, 22, 14, 1529519216.561, 66, 0, 1024, 1024, 1024, 1024, 0, 6, 3916, 3934, 3949, 3967, 3928, 3946, 0, 1, 12700, -89.900, 0.000, 28.300, 0.000, 0.000, -2.900, 0.0, , , , , , 95, , , 55, 55, 55
38.5386968, -120.5235809, 21.600, 11:26:56.660, 16, 0.00, 0.21, 98, 0.300, 0.900, 28.000, 1577, 100, 98, 21, 23645, -18552, 5176, 5282, 22, 14, 1529519216.660, 81, 0, 1024, 1024, 1024, 1024, 0, 6, 3916, 3934, 3949, 3967, 3928, 3946, 0, 1, 12800, -89.900, 0.000, 28.300, 0.000, 0.000, -2.800, 0.0, , , , , , 95, , , 55, 55, 55
38.5386968, -120.5235809, 21.900, 11:26:56.760, 16, 0.00, 0.21, 98, 0.300, 1.000, 28.000, 1577, 100, 98, 21, 23645, -18552, 5176, 5282, 22, 14, 1529519216.761, 35, 0, 1024, 1024, 1024, 1024, 0, 6, 3916, 3934, 3949, 3967, 3928, 3946, 0, 1, 12900, -89.900, 0.000, 28.300, 0.000, 0.000, -2.900, 0.0, , , , , , 95, , , 55, 55, 55
38.5386969, -120.5235808, 22.200, 11:26:56.860, 16, 0.00, 0.21, 98, 0.200, 0.800, 27.900, 1577, 100, 98, 21, 23645, -18552, 5176, 5282, 22, 14, 1529519216.861, 53, 0, 1024, 1024, 1024, 1024, 0, 6, 3916, 3934, 3949, 3967, 3928, 3946, 0, 1, 13000, -89.900, 0.000, 28.300, 0.000, 0.000, -2.900, 0.0, , , , , , 95, , , 55, 55, 55
38.5386969, -120.5235808, 22.500, 11:26:56.960, 16, 0.00, 0.21, 98, 0.200, 0.700, 27.900, 1577, 100, 98, 21, 23645, -18552, 5176, 5282, 22, 14, 1529519216.961, 60, 0, 1024, 1024, 1024, 1024, 0, 6, 3916, 3934, 3949, 3967, 3928, 3946, 0, 1, 13100, -89.900, 0.000, 28.300, 0.000, 0.000, -2.900, 0.0, , , , , , 95, , , 55, 55, 55
38.5386969, -120.5235807, 22.800, 11:26:57.060, 16, 0.00, 0.21, 98, 0.000, 0.600, 27.900, 1577, 100, 98, 21, 23626, -18597, 5176, 5282, 22, 14, 1529519217.060, 43, 0, 1024, 1024, 1024, 1024, 0, 6, 3920, 3939, 3944, 3968, 3916, 3954, 0, 1, 13200, -89.900, 0.000, 28.300, 0.000, 0.000, -2.900, 0.0, , , , , , 95, , , 55, 55, 55
38.5386969, -120.5235808, 23.100, 11:26:57.160, 16, 0.00, 0.22, 98, 0.000, 0.600, 27.900, 1577, 100, 98, 21, 23626, -18597, 5176, 5282, 22, 14, 1529519217.160, 34, 0, 1024, 1024, 1024, 1024, 0, 6, 3920, 3939, 3944, 3968, 3916, 3954, 0, 1, 13300, -89.900, 0.000, 28.300, 0.000, 0.000, -2.900, 0.0, , , , , , 95, , , 55, 55, 55
38.5386970, -120.5235808, 23.700, 11:26:57.260, 16, 0.00, 0.23, 98, 0.500, 0.800, 27.900, 1577, 100, 98, 21, 23626, -18597, 5176, 5282, 22, 14, 1529519217.260, 36, 0, 1024, 1024, 1024, 1024, 0, 6, 3920, 3939, 3944, 3968, 3916, 3954, 0, 1, 13400, -89.900, 0.000, 28.300, 0.000, 0.000, -2.800, 0.0, , , , , , 95, , , 55, 55, 55
38.5386971, -120.5235808, 24.000, 11:26:57.360, 16, 0.00, 0.23, 98, 0.600, 0.800, 27.800, 1577, 100, 98, 21, 23626, -18597, 5176, 5282, 22, 14, 1529519217.360, 30, 0, 1024, 1024, 1024, 1024, 0, 6, 3920, 3939, 3944, 3968, 3916, 3954, 0, 1, 13500, -89.900, 0.000, 28.300, 0.000, 0.000, -2.900, 0.0, , , , , , 95, , , 55, 55, 55
38.5386971, -120.5235808, 24.300, 11:26:57.460, 16, 0.00, 0.24, 98, 0.600, 0.800, 27.800, 1577, 100, 98, 21, 23626, -18597, 5176, 5282, 22, 14, 1529519217.460, 13, 0, 1024, 1024, 1024, 1024, 0, 6, 3920, 3939, 3944, 3968, 3916, 3954, 0, 1, 13600, -89.900, 0.000, 28.300, 0.000, 0.000, -2.800, 0.0, , , , , , 95, , , 55, 55, 55
38.5386972, -120.5235808, 24.500, 11:26:57.560, 16, 0.00, 0.24, 98, 0.700, 0.900, 27.800, 1577, 100, 98, 21, 23626, -18597, 5176, 5282, 22, 14, 1529519217.560, 24, 0, 1024, 1024, 1024, 1024, 0, 6, 3920, 3939, 3944, 3968, 3916, 3954, 0, 1, 13700, -89.900, 0.000, 28.300, 0.000, 0.000, -2.900, 0.0, , , , , , 95, , , 55, 55, 55
38.5386972, -120.5235808, 24.800, 11:26:57.660, 16, 0.00, 0.24, 98, 0.800, 0.900, 27.800, 1577, 100, 98, 21, 23626, -18597, 5176, 5282, 22, 14, 1529519217.660, 21, 0, 1024, 1024, 1024, 1024, 0, 6, 3920, 3939, 3944, 3968, 3916, 3954, 0, 1, 13800, -89.900, 0.000, 28.300, 0.000, 0.000, -2.900, 0.0, , , , , , 95, , , 55, 55, 55
38.5386972, -120.5235808, 24.800, 11:26:57.760, 16, 0.00, 0.24, 98, 0.800, 0.900, 27.800, 1577, 100, 98, 21, 23626, -18597, 5176, 5282, 22, 14, 1529519217.760, 121, 0, 1024, 1024, 1024, 1024, 0, 6, 3920, 3939, 3944, 3968, 3916, 3954, 0, 1, 13900, -89.900, 0.000, 28.300, 0.000, 0.000, -2.900, 0.0, , , , , , 95, , , 55, 55, 55
38.5386972, -120.5235808, 25.500, 11:26:57.860, 17, 0.00, 0.24, 98, 0.200, 0.600, 28.100, 1577, 100, 98, 21, 23626, -18597, 5176, 5282, 22, 14, 1529519217.860, 13, 0, 1024, 1024, 1024, 1024, 0, 6, 3920, 3939, 3944, 3968, 3916, 3954, 0, 1, 14000, -89.900, 0.000, 28.300, 0.000, 0.000, -2.900, 0.0, , , , , , 95, , , 55, 55, 55
38.5386972, -120.5235808, 25.800, 11:26:57.960, 17, 0.00, 0.24, 98, 0.000, 0.400, 28.200, 1577, 100, 98, 21, 23624, -18539, 5176, 5282, 22, 14, 1529519217.960, 3, 0, 1024, 1024, 1024, 1024, 0, 6, 3920, 3939, 3944, 3968, 3916, 3954, 0, 1, 14100, -89.900, 0.000, 28.300, 0.000, 0.000, -2.900, 0.0, , , , , , 95, , , 55, 55, 55
38.5386972, -120.5235808, 25.800, 11:26:58.060, 17, 0.00, 0.24, 98, 0.000, 0.400, 28.200, 1577, 100, 98, 21, 23624, -18539, 5176, 5282, 22, 14, 1529519218.060, 103, 0, 1024, 1024, 1024, 1024, 0, 6, 3920, 3939, 3944, 3968, 3916, 3954, 0, 1, 14200, -89.900, 0.000, 28.300, 0.000, 0.000, -2.900, 0.0, , , , , , 95, , , 55, 55, 55
38.5386972, -120.5235808, 26.100, 11:26:58.160, 17, 0.00, 0.24, 98, 0.000, 0.300, 28.200, 1577, 100, 96, 21, 23624, -18539, 5176, 5282, 22, 14, 1529519218.160, 93, 0, 1024, 1024, 1024, 1024, 0, 6, 3920, 3939, 3944, 3968, 3916, 3954, 0, 1, 14300, -89.900, 0.000, 28.300, 0.000, 0.000, -2.900, 0.0, , , , , , 95, , , 55, 55, 55
38.5386972, -120.5235808, 26.400, 11:26:58.260, 17, 0.00, 0.24, 98, 0.000, 0.300, 28.200, 1577, 100, 96, 21, 23624, -18539, 5176, 5282, 22, 14, 1529519218.261, 93, 0, 1024, 1024, 1024, 1024, 0, 6, 3920, 3939, 3944, 3968, 3916, 3954, 0, 1, 14400, -89.900, 0.000, 28.300, 0.000, 0.000, -2.900, 0.0, , , , , , 95, , , 55, 55, 55
38.5386972, -120.5235809, 26.600, 11:26:58.360, 17, 0.00, 0.24, 98, 0.200, 0.400, 28.100, 1577, 100, 96, 21, 23624, -18539, 5176, 5282, 22, 14, 1529519218.361, 93, 0, 1024, 1024, 1024, 1024, 0, 6, 3920, 3939, 3944, 3968, 3916, 3954, 0, 1, 14500, -89.900, 0.000, 28.300, 0.000, 0.000, -2.900, 0.0, , , , , , 95, , , 55, 55, 55
38.5386972, -120.5235809, 26.900, 11:26:58.460, 17, 0.00, 0.24, 98, 0.500, 0.500, 28.100, 1577, 100, 96, 21, 23624, -18539, 5176, 5282, 22, 14, 1529519218.460, 70, 0, 1024, 1024, 1024, 1024, 0, 6, 3920, 3939, 3944, 3968, 3916, 3954, 0, 1, 14600, -89.900, 0.000, 28.300, 0.000, 0.000, -2.900, 0.0, , , , , , 95, , , 55, 55, 55
38.5386972, -120.5235810, 27.200, 11:26:58.560, 17, 0.00, 0.25, 98, 0.700, 0.400, 28.100, 1577, 100, 96, 21, 23624, -18539, 5176, 5282, 22, 14, 1529519218.560, 48, 0, 1024, 1024, 1024, 1024, 0, 6, 3912, 3927, 3941, 3963, 3909, 3938, 0, 1, 14700, -89.900, 0.000, 28.300, 0.000, 0.000, -2.900, 0.0, , , , , , 95, , , 55, 55, 55
38.5386971, -120.5235810, 27.500, 11:26:58.660, 17, 0.00, 0.25, 98, 0.800, 0.300, 28.100, 1577, 100, 96, 21, 23624, -18539, 5176, 5282, 22, 14, 1529519218.660, 63, 0, 1024, 1024, 1024, 1024, 0, 6, 3912, 3927, 3941, 3963, 3909, 3938, 0, 1, 14800, -89.900, 0.000, 28.300, 0.000, 0.000, -2.900, 0.0, , , , , , 95, , , 55, 55, 55
38.5386971, -120.5235810, 27.800, 11:26:58.760, 17, 0.00, 0.25, 98, 0.800, 0.300, 28.100, 1577, 100, 96, 21, 23624, -18539, 5176, 5282, 22, 14, 1529519218.760, 80, 0, 1024, 1024, 1024, 1024, 0, 6, 3912, 3927, 3941, 3963, 3909, 3938, 0, 1, 14900, -89.900, 0.000, 28.300, 0.000, 0.000, -2.900, 0.0, , , , , , 95, , , 55, 55, 55
38.5386971, -120.5235811, 28.100, 11:26:58.860, 17, 0.00, 0.24, 98, 0.700, 0.200, 28.100, 1577, 100, 96, 21, 23624, -18539, 5176, 5282, 22, 14, 1529519218.861, 65, 0, 1024, 1024, 1024, 1024, 0, 6, 3912, 3927, 3941, 3963, 3909, 3938, 0, 1, 15000, -89.900, 0.000, 28.300, 0.000, 0.000, -3.000, 0.0, , , , , , 95, , , 55, 55, 55
38.5386971, -120.5235811, 28.500, 11:26:58.960, 17, 0.00, 0.24, 98, 0.600, 0.300, 28.100, 1577, 100, 96, 21, 23624, -18539, 5176, 5282, 22, 14, 1529519218.960, 65, 0, 1024, 1024, 1024, 1024, 0, 6, 3912, 3927, 3941, 3963, 3909, 3938, 0, 1, 15100, -90.000, 0.000, 28.300, 0.000, 0.000, -3.000, 0.0, , , , , , 95, , , 55, 55, 55
38.5386970, -120.5235811, 28.800, 11:26:59.060, 17, 0.00, 0.24, 98, 0.300, 0.100, 28.000, 1577, 100, 96, 22, 23624, -18539, 5176, 5282, 22, 14, 1529519219.060, 59, 0, 1024, 1024, 1024, 1024, 0, 6, 3912, 3927, 3941, 3963, 3909, 3938, 0, 1, 15200, -89.900, 0.000, 28.300, 0.000, 0.000, -2.900, 0.0, , , , , , 95, , , 55, 55, 55
38.5386970, -120.5235811, 29.100, 11:26:59.159, 17, 0.00, 0.24, 98, 0.200, 0.000, 27.900, 1577, 100, 97, 22, 23624, -18539, 5176, 5282, 22, 14, 1529519219.160, 34, 0, 1024, 1024, 1024, 1024, 0, 6, 3912, 3927, 3941, 3963, 3909, 3938, 0, 1, 15299, -90.000, 0.000, 28.300, 0.000, 0.000, -2.900, 0.0, , , , , , 95, , , 55, 55, 55
38.5386969, -120.5235811, 29.400, 11:26:59.260, 17, 0.00, 0.23, 98, 0.100, 0.000, 27.800, 1577, 100, 97, 22, 23624, -18539, 5176, 5282, 22, 14, 1529519219.260, 43, 0, 1024, 1024, 1024, 1024, 0, 6, 3912, 3927, 3941, 3963, 3909, 3938, 0, 1, 15400, -90.000, 0.000, 28.300, 0.000, 0.000, -2.900, 0.0, , , , , , 95, , , 55, 55, 55
38.5386969, -120.5235812, 29.700, 11:26:59.359, 17, 0.00, 0.23, 98, 0.200, 0.000, 27.800, 1577, 100, 97, 22, 23624, -18539, 5176, 5282, 22, 14, 1529519219.360, 34, 0, 1024, 1024, 1024, 1024, 0, 6, 3912, 3927, 3941, 3963, 3909, 3938, 0, 1, 15499, -90.000, 0.000, 28.300, 0.000, 0.000, -2.900, 0.0, , , , , , 95, , , 55, 55, 55
38.5386969, -120.5235812, 30.200, 11:26:59.460, 17, 0.00, 0.23, 98, 0.300, 0.000, 27.700, 1577, 100, 97, 22, 23608, -18286, 5176, 5282, 22, 14, 1529519219.460, 29, 0, 1024, 1024, 1024, 1024, 0, 6, 3915, 3925, 3942, 3957, 3910, 3942, 0, 1, 15600, -90.000, 0.000, 28.300, 0.000, 0.000, -2.900, 0.0, , , , , , 95, , , 55, 55, 55
38.5386969, -120.5235812, 30.500, 11:26:59.560, 17, 0.00, 0.23, 98, 0.300, 0.000, 27.700, 1577, 100, 99, 22, 23608, -18286, 5176, 5282, 22, 14, 1529519219.560, 32, 0, 1024, 1024, 1024, 1024, 0, 6, 3915, 3925, 3942, 3957, 3910, 3942, 0, 1, 15700, -89.900, 0.000, 28.300, 0.000, 0.000, -2.900, 0.0, , , , , , 95, , , 55, 55, 55
38.5386968, -120.5235812, 30.800, 11:26:59.660, 17, 0.00, 0.23, 98, 0.300, 0.200, 27.700, 1577, 100, 99, 22, 23608, -18286, 5176, 5282, 22, 14, 1529519219.661, 15, 0, 1024, 1024, 1024, 1024, 0, 6, 3915, 3925, 3942, 3957, 3910, 3942, 0, 1, 15800, -89.900, 0.000, 28.300, 0.000, 0.000, -2.900, 0.0, , , , , , 95, , , 55, 55, 55
38.5386968, -120.5235812, 30.800, 11:26:59.760, 17, 0.00, 0.23, 98, 0.300, 0.200, 27.700, 1577, 100, 99, 22, 23608, -18286, 5176, 5282, 22, 14, 1529519219.760, 114, 0, 1024, 1024, 1024, 1024, 0, 6, 3915, 3925, 3942, 3957, 3910, 3942, 0, 1, 15900, -89.900, 0.000, 28.300, 0.000, 0.000, -2.900, 0.0, , , , , , 95, , , 55, 55, 55
38.5386968, -120.5235812, 30.800, 11:26:59.860, 17, 0.00, 0.23, 98, 0.300, 0.200, 27.700, 1577, 100, 99, 22, 23608, -18286, 5176, 5282, 22, 14, 1529519219.860, 214, 0, 1024, 1024, 1024, 1024, 0, 6, 3915, 3925, 3942, 3957, 3910, 3942, 0, 1, 16000, -89.900, 0.000, 28.300, 0.000, 0.000, -2.900, 0.0, , , , , , 95, , , 55, 55, 55
38.5386969, -120.5235812, 31.700, 11:26:59.960, 17, 0.00, 0.23, 98, 0.000, 0.600, 27.900, 1577, 100, 99, 22, 23608, -18286, 5176, 5282, 22, 14, 1529519219.960, 13, 0, 1024, 1024, 1024, 1024, 0, 6, 3915, 3925, 3942, 3957, 3910, 3942, 0, 1, 16100, -89.900, 0.000, 28.300, 0.000, 0.000, -2.900, 0.0, , , , , , 95, , , 55, 55, 55
38.5386969, -120.5235812, 32.000, 11:27:00.060, 17, 0.00, 0.23, 98, 0.100, 0.800, 28.100, 1577, 100, 92, 22, 23608, -18286, 5176, 5282, 22, 14, 1529519220.060, 10, 0, 1024, 1024, 1024, 1024, 0, 6, 3915, 3925, 3942, 3957, 3910, 3942, 0, 1, 16200, -89.900, 0.000, 28.300, 0.000, 0.000, -2.900, 0.0, , , , , , 95, , , 55, 55, 55
38.5386969, -120.5235812, 32.300, 11:27:00.160, 17, 0.00, 0.23, 98, 0.200, 0.800, 28.200, 1577, 100, 92, 22, 23608, -18286, 5176, 5282, 22, 14, 1529519220.160, 2, 0, 1024, 1024, 1024, 1024, 0, 6, 3915, 3925, 3942, 3957, 3910, 3942, 0, 1, 16299, -89.900, 0.000, 28.300, 0.000, 0.000, -2.900, 0.0, , , , , , 95, , , 55, 55, 55
38.5386969, -120.5235812, 32.600, 11:27:00.260, 17, 0.00, 0.23, 98, 0.100, 0.700, 28.300, 1577, 100, 92, 22, 23608, -18286, 5176, 5282, 22, 14, 1529519220.260, 7, 0, 1024, 1024, 1024, 1024, 0, 6, 3915, 3925, 3942, 3957, 3910, 3942, 0, 1, 16400, -89.900, 0.000, 28.300, 0.000, 0.000, -2.900, 0.0, , , , , , 95, , , 55, 55, 55
38.5386969, -120.5235812, 32.600, 11:27:00.360, 17, 0.00, 0.23, 98, 0.100, 0.700, 28.300, 1577, 100, 92, 22, 23608, -18286, 5176, 5282, 22, 14, 1529519220.360, 107, 0, 1024, 1024, 1024, 1024, 0, 6, 3915, 3925, 3942, 3957, 3910, 3942, 0, 1, 16500, -89.900, 0.000, 28.300, 0.000, 0.000, -2.900, 0.0, , , , , , 95, , , 55, 55, 55
38.5386969, -120.5235813, 32.900, 11:27:00.460, 17, 0.00, 0.23, 98, 0.100, 0.500, 28.500, 1577, 100, 92, 22, 23608, -18286, 5176, 5282, 22, 14, 1529519220.460, 95, 0, 1024, 1024, 1024, 1024, 0, 6, 3915, 3925, 3942, 3957, 3910, 3942, 0, 1, 16600, -89.900, 0.000, 28.300, 0.000, 0.000, -2.900, 0.0, , , , , , 95, , , 55, 55, 55
38.5386968, -120.5235813, 33.200, 11:27:00.560, 17, 0.00, 0.23, 98, 0.000, 0.400, 28.600, 1577, 100, 92, 22, 23603, -18072, 5176, 5282, 22, 14, 1529519220.560, 87, 0, 1024, 1024, 1024, 1024, 0, 6, 3908, 3931, 3941, 3963, 3909, 3944, 0, 1, 16700, -89.900, 0.000, 28.300, 0.000, 0.000, -2.900, 0.0, , , , , , 95, , , 55, 55, 55
38.5386968, -120.5235813, 33.500, 11:27:00.660, 17, 0.00, 0.23, 98, 0.000, 0.400, 28.700, 1577, 100, 93, 22, 23603, -18072, 5176, 5282, 22, 14, 1529519220.660, 61, 0, 1024, 1024, 1024, 1024, 0, 6, 3908, 3931, 3941, 3963, 3909, 3944, 0, 1, 16800, -89.900, 0.000, 28.300, 0.000, 0.000, -3.000, 0.0, , , , , , 95, , , 55, 55, 55
38.5386968, -120.5235813, 33.800, 11:27:00.759, 17, 0.00, 0.23, 98, 0.100, 0.300, 28.700, 1577, 100, 93, 22, 23603, -18072, 5176, 5282, 22, 14, 1529519220.759, 93, 0, 1024, 1024, 1024, 1024, 0, 6, 3908, 3931, 3941, 3963, 3909, 3944, 0, 1, 16899, -89.900, 0.000, 28.300, 0.000, 0.000, -3.000, 0.0, , , , , , 95, , , 55, 55, 55
38.5386968, -120.5235813, 34.100, 11:27:00.860, 17, 0.00, 0.23, 98, 0.500, 0.300, 28.600, 1577, 100, 93, 22, 23603, -18072, 5176, 5282, 22, 14, 1529519220.860, 98, 0, 1024, 1024, 1024, 1024, 0, 6, 3908, 3931, 3941, 3963, 3909, 3944, 0, 1, 17000, -89.900, 0.000, 28.300, 0.000, 0.000, -2.900, 0.0, , , , , , 95, , , 55, 55, 55
38.5386968, -120.5235813, 34.400, 11:27:00.960, 17, 0.00, 0.23, 98, 0.700, 0.300, 28.400, 1577, 100, 93, 22, 23603, -18072, 5176, 5282, 22, 14, 1529519220.960, 78, 0, 1024, 1024, 1024, 1024, 0, 6, 3908, 3931, 3941, 3963, 3909, 3944, 0, 1, 17100, -89.900, 0.000, 28.300, 0.000, 0.000, -2.900, 0.0, , , , , , 95, , , 55, 55, 55
38.5386968, -120.5235813, 34.700, 11:27:01.060, 17, 0.00, 0.23, 98, 0.700, 0.500, 28.300, 1577, 100, 93, 22, 23603, -18072, 5176, 5282, 22, 14, 1529519221.060, 56, 0, 1024, 1024, 1024, 1024, 0, 6, 3908, 3931, 3941, 3963, 3909, 3944, 0, 1, 17200, -89.900, 0.000, 28.300, 0.000, 0.000, -2.900, 0.0, , , , , , 95, , , 55, 55, 55
38.5386968, -120.5235813, 35.000, 11:27:01.160, 17, 0.00, 0.23, 98, 0.600, 0.700, 28.100, 1577, 100, 93, 22, 23603, -18072, 5176, 5282, 22, 14, 1529519221.160, 73, 0, 1024, 1024, 1024, 1024, 0, 6, 3908, 3931, 3941, 3963, 3909, 3944, 0, 1, 17300, -89.900, 0.000, 28.300, 0.000, 0.000, -2.900, 0.0, , , , , , 95, , , 55, 55, 55
38.5386969, -120.5235813, 35.300, 11:27:01.260, 17, 0.00, 0.23, 98, 0.500, 0.900, 28.000, 1577, 100, 93, 22, 23603, -18072, 5176, 5282, 22, 14, 1529519221.260, 66, 0, 1024, 1024, 1024, 1024, 0, 6, 3908, 3931, 3941, 3963, 3909, 3944, 0, 1, 17400, -89.900, 0.000, 28.300, 0.000, 0.000, -2.900, 0.0, , , , , , 95, , , 55, 55, 55
38.5386969, -120.5235813, 35.600, 11:27:01.360, 17, 0.00, 0.23, 98, 0.400, 1.100, 27.900, 1577, 100, 93, 22, 23603, -18072, 5176, 5282, 22, 14, 1529519221.360, 59, 0, 1024, 1024, 1024, 1024, 0, 6, 3908, 3931, 3941, 3963, 3909, 3944, 0, 1, 17500, -89.900, 0.000, 28.300, 0.000, 0.000, -2.900, 0.0, , , , , , 95, , , 55, 55, 55
38.5386969, -120.5235813, 35.900, 11:27:01.460, 17, 0.00, 0.24, 98, 0.400, 1.100, 27.900, 1577, 100, 93, 22, 23603, -18072, 5176, 5282, 22, 14, 1529519221.460, 53, 0, 1024, 1024, 1024, 1024, 0, 6, 3908, 3931, 3941, 3963, 3909, 3944, 0, 1, 17600, -89.900, 0.000, 28.300, 0.000, 0.000, -2.900, 0.0, , , , , , 95, , , 55, 55, 55
38.5386969, -120.5235813, 36.200, 11:27:01.560, 17, 0.00, 0.24, 98, 0.400, 1.000, 27.900, 1577, 100, 93, 22, 23549, -18326, 5123, 5282, 22, 14, 1529519221.560, 53, 0, 1024, 1024, 1024, 1024, 0, 6, 3896, 3920, 3934, 3958, 3904, 3937, 0, 1, 17700, -89.900, 0.000, 28.300, 0.000, 0.000, -2.900, 0.0, , , , , , 95, , , 55, 55, 55
38.5386969, -120.5235813, 36.500, 11:27:01.660, 17, 0.00, 0.24, 98, 0.500, 0.800, 27.900, 1577, 100, 100, 22, 23549, -18326, 5123, 5282, 22, 14, 1529519221.660, 32, 0, 1024, 1024, 1024, 1024, 0, 6, 3896, 3920, 3934, 3958, 3904, 3937, 0, 1, 17800, -89.900, 0.000, 28.300, 0.000, 0.000, -2.900, 0.0, , , , , , 95, , , 55, 55, 55
38.5386969, -120.5235813, 36.800, 11:27:01.760, 17, 0.00, 0.24, 98, 0.500, 0.600, 27.900, 1577, 100, 100, 22, 23549, -18326, 5123, 5282, 22, 14, 1529519221.760, 43, 0, 1024, 1024, 1024, 1024, 0, 6, 3896, 3920, 3934, 3958, 3904, 3937, 0, 1, 17900, -89.900, 0.000, 28.300, 0.000, 0.000, -2.900, 0.0, , , , , , 95, , , 55, 55, 55
38.5386969, -120.5235813, 37.100, 11:27:01.860, 17, 0.00, 0.24, 98, 0.500, 0.600, 28.000, 1577, 100, 100, 22, 23549, -18326, 5123, 5282, 22, 14, 1529519221.860, 45, 0, 1024, 1024, 1024, 1024, 0, 6, 3896, 3920, 3934, 3958, 3904, 3937, 0, 1, 18000, -89.900, 0.000, 28.300, 0.000, 0.000, -3.000, 0.0, , , , , , 95, , , 55, 55, 55
38.5386969, -120.5235813, 37.400, 11:27:01.959, 17, 0.00, 0.24, 98, 0.500, 0.500, 28.000, 1577, 100, 100, 22, 23549, -18326, 5123, 5282, 22, 14, 1529519221.960, 29, 0, 1024, 1024, 1024, 1024, 0, 6, 3896, 3920, 3934, 3958, 3904, 3937, 0, 1, 18099, -89.900, 0.000, 28.300, 0.000, 0.000, -2.900, 0.0, , , , , , 95, , , 55, 55, 55
38.5386969, -120.5235813, 37.700, 11:27:02.060, 17, 0.00, 0.24, 97, 0.500, 0.600, 27.900, 1577, 100, 100, 22, 23549, -18326, 5123, 5282, 22, 14, 1529519222.060, 34, 0, 1024, 1024, 1024, 1024, 0, 6, 3896, 3920, 3934, 3958, 3904, 3937, 0, 1, 18200, -89.900, 0.000, 28.300, 0.000, 0.000, -2.900, 0.0, , , , , , 95, , , 55, 55, 55
38.5386969, -120.5235814, 38.000, 11:27:02.159, 17, 0.00, 0.24, 97, 0.500, 0.700, 27.800, 1577, 100, 100, 22, 23549, -18326, 5123, 5282, 22, 14, 1529519222.160, 40, 0, 1024, 1024, 1024, 1024, 0, 6, 3896, 3920, 3934, 3958, 3904, 3937, 0, 1, 18299, -89.900, 0.000, 28.300, 0.000, 0.000, -2.900, 0.0, , , , , , 95, , , 55, 55, 55
38.5386969, -120.5235814, 38.600, 11:27:02.260, 17, 0.00, 0.24, 97, 0.600, 0.800, 27.700, 1577, 100, 100, 22, 23549, -18326, 5123, 5282, 22, 14, 1529519222.260, 45, 0, 1024, 1024, 1024, 1024, 0, 6, 3896, 3920, 3934, 3958, 3904, 3937, 0, 1, 18400, -89.900, 0.000, 28.300, 0.000, 0.000, -2.900, 0.0, , , , , , 95, , , 55, 55, 55
38.5386969, -120.5235814, 38.600, 11:27:02.359, 17, 0.00, 0.24, 97, 0.600, 0.800, 27.700, 1577, 100, 100, 22, 23549, -18326, 5123, 5282, 22, 14, 1529519222.359, 145, 0, 1024, 1024, 1024, 1024, 0, 6, 3896, 3920, 3934, 3958, 3904, 3937, 0, 1, 18499, -89.900, 0.000, 28.300, 0.000, 0.000, -2.900, 0.0, , , , , , 95, , , 55, 55, 55
38.5386969, -120.5235814, 39.200, 11:27:02.460, 17, 0.00, 0.24, 97, 0.700, 0.900, 27.600, 1577, 100, 100, 22, 23508, -18266, 5123, 5282, 22, 14, 1529519222.460, 15, 0, 1024, 1024, 1024, 1024, 0, 6, 3893, 3910, 3930, 3949, 3897, 3928, 0, 1, 18600, -89.900, 0.000, 28.300, 0.000, 0.000, -2.900, 0.0, , , , , , 95, , , 55, 55, 55
38.5386970, -120.5235813, 39.500, 11:27:02.560, 17, 0.00, 0.24, 97, 0.600, 1.000, 27.700, 1577, 100, 98, 22, 23508, -18266, 5123, 5282, 22, 14, 1529519222.560, 11, 0, 1024, 1024, 1024, 1024, 0, 6, 3893, 3910, 3930, 3949, 3897, 3928, 0, 1, 18700, -89.900, 0.000, 28.300, 0.000, 0.000, -2.900, 0.0, , , , , , 95, , , 55, 55, 55
38.5386969, -120.5235813, 39.800, 11:27:02.660, 17, 0.00, 0.24, 97, 0.600, 1.100, 27.800, 1577, 100, 98, 22, 23508, -18266, 5123, 5282, 22, 14, 1529519222.660, 3, 0, 1024, 1024, 1024, 1024, 0, 6, 3893, 3910, 3930, 3949, 3897, 3928, 0, 1, 18800, -89.900, 0.000, 28.300, 0.000, 0.000, -2.900, 0.0, , , , , , 95, , , 55, 55, 55
38.5386969, -120.5235813, 40.100, 11:27:02.760, 17, 0.00, 0.24, 97, 0.400, 1.100, 27.900, 1577, 100, 98, 22, 23508, -18266, 5123, 5282, 22, 14, 1529519222.760, 15, 0, 1024, 1024, 1024, 1024, 0, 6, 3893, 3910, 3930, 3949, 3897, 3928, 0, 1, 18900, -89.900, 0.000, 28.300, 0.000, 0.000, -2.900, 0.0, , , , , , 95, , , 55, 55, 55
38.5386969, -120.5235813, 40.400, 11:27:02.860, 17, 0.00, 0.24, 97, 0.300, 1.000, 28.000, 1577, 100, 98, 22, 23508, -18266, 5123, 5282, 22, 14, 1529519222.860, 18, 0, 1024, 1024, 1024, 1024, 0, 6, 3893, 3910, 3930, 3949, 3897, 3928, 0, 1, 19000, -89.900, 0.000, 28.300, 0.000, 0.000, -2.900, 0.0, , , , , , 95, , , 55, 55, 55
38.5386969, -120.5235813, 40.700, 11:27:02.960, 17, 0.00, 0.24, 97, 0.300, 0.800, 28.100, 1577, 100, 98, 22, 23508, -18266, 5123, 5282, 22, 14, 1529519222.960, 20, 0, 1024, 1024, 1024, 1024, 0, 6, 3893, 3910, 3930, 3949, 3897, 3928, 0, 1, 19100, -89.900, 0.000, 28.300, 0.000, 0.000, -2.900, 0.0, , , , , , 95, , , 55, 55, 55
38.5386969, -120.5235813, 40.700, 11:27:03.060, 17, 0.00, 0.24, 97, 0.300, 0.800, 28.100, 1577, 100, 98, 22, 23508, -18266, 5123, 5282, 22, 14, 1529519223.060, 120, 0, 1024, 1024, 1024, 1024, 0, 6, 3893, 3910, 3930, 3949, 3897, 3928, 0, 1, 19200, -89.900, 0.000, 28.300, 0.000, 0.000, -2.900, 0.0, , , , , , 95, , , 55, 55, 55
38.5386969, -120.5235813, 41.000, 11:27:03.159, 17, 0.00, 0.24, 97, 0.300, 0.700, 28.100, 1577, 100, 98, 22, 23508, -18266, 5123, 5282, 22, 14, 1529519223.159, 85, 0, 1024, 1024, 1024, 1024, 0, 6, 3893, 3910, 3930, 3949, 3897, 3928, 0, 1, 19299, -89.900, 0.000, 28.300, 0.000, 0.000, -2.900, 0.0, , , , , , 95, , , 55, 55, 55
38.5386969, -120.5235813, 41.300, 11:27:03.260, 17, 0.00, 0.23, 97, 0.300, 0.700, 28.200, 1577, 100, 98, 22, 23508, -18266, 5123, 5282, 22, 14, 1529519223.260, 91, 0, 1024, 1024, 1024, 1024, 0, 6, 3893, 3910, 3930, 3949, 3897, 3928, 0, 1, 19400, -90.000, 0.000, 28.300, 0.000, 0.000, -2.900, 0.0, , , , , , 95, , , 55, 55, 55
38.5386969, -120.5235813, 41.600, 11:27:03.360, 17, 0.00, 0.23, 97, 0.400, 0.700, 28.200, 1577, 100, 98, 22, 23508, -18266, 5123, 5282, 22, 14, 1529519223.360, 92, 0, 1024, 1024, 1024, 1024, 0, 6, 3893, 3910, 3930, 3949, 3897, 3928, 0, 1, 19500, -89.900, 0.000, 28.300, 0.000, 0.000, -2.900, 0.0, , , , , , 95, , , 55, 55, 55
38.5386969, -120.5235813, 41.900, 11:27:03.460, 17, 0.00, 0.23, 97, 0.500, 0.700, 28.200, 1577, 100, 98, 22, 23508, -18266, 5123, 5282, 22, 14, 1529519223.460, 70, 0, 1024, 1024, 1024, 1024, 0, 6, 3893, 3910, 3930, 3949, 3897, 3928, 0, 1, 19600, -89.900, 0.000, 28.300, 0.000, 0.000, -2.900, 0.0, , , , , , 95, , , 55, 55, 55
38.5386969, -120.5235812, 42.200, 11:27:03.560, 17, 0.00, 0.23, 97, 0.500, 0.700, 28.100, 1577, 100, 98, 22, 23539, -17970, 5123, 5282, 22, 14, 1529519223.560, 86, 0, 1024, 1024, 1024, 1024, 0, 6, 3893, 3910, 3930, 3949, 3897, 3928, 0, 1, 19700, -89.900, 0.000, 28.300, 0.000, 0.000, -2.900, 0.0, , , , , , 95, , , 55, 55, 55
38.5386969, -120.5235812, 42.500, 11:27:03.660, 17, 0.00, 0.23, 97, 0.600, 0.800, 28.000, 1577, 100, 98, 22, 23539, -17970, 5123, 5282, 22, 14, 1529519223.660, 90, 0, 1024, 1024, 1024, 1024, 0, 6, 3893, 3910, 3930, 3949, 3897, 3928, 0, 1, 19800, -89.900, 0.000, 28.300, 0.000, 0.000, -2.900, 0.0, , , , , , 95, , , 55, 55, 55
38.5386969, -120.5235812, 42.800, 11:27:03.760, 17, 0.00, 0.23, 97, 0.700, 0.900, 28.000, 1577, 100, 98, 22, 23539, -17970, 5123, 5282, 22, 14, 1529519223.760, 75, 0, 1024, 1024, 1024, 1024, 0, 6, 3893, 3910, 3930, 3949, 3897, 3928, 0, 1, 19900, -89.900, 0.000, 28.300, 0.000, 0.000, -3.000, 0.0, , , , , , 95, , , 55, 55, 55
38.5386969, -120.5235812, 43.100, 11:27:03.860, 17, 0.00, 0.23, 97, 0.400, 1.000, 28.000, 1577, 100, 98, 22, 23539, -17970, 5123, 5282, 22, 14, 1529519223.860, 85, 0, 1024, 1024, 1024, 1024, 0, 6, 3893, 3910, 3930, 3949, 3897, 3928, 0, 1, 20000, -89.900, 0.000, 28.300, 0.000, 0.000, -2.900, 0.0, , , , , , 95, , , 55, 55, 55
38.5386969, -120.5235812, 43.400, 11:27:03.959, 17, 0.00, 0.23, 97, 0.100, 0.800, 28.000, 1577, 100, 98, 22, 23539, -17970, 5123, 5282, 22, 14, 1529519223.959, 74, 0, 1024, 1024, 1024, 1024, 0, 6, 3893, 3910, 3930, 3949, 3897, 3928, 0, 1, 20099, -90.000, 0.000, 28.300, 0.000, 0.000, -2.900, 0.0, , , , , , 95, , , 55, 55, 55
38.5386969, -120.5235811, 43.700, 11:27:04.059, 17, 0.00, 0.23, 97, 0.000, 0.500, 27.900, 1577, 100, 98, 22, 23539, -17970, 5123, 5282, 22, 14, 1529519224.059, 54, 0, 1024, 1024, 1024, 1024, 0, 6, 3893, 3913, 3929, 3957, 3902, 3929, 0, 1, 20199, -90.000, 0.000, 28.300, 0.000, 0.000, -2.900, 0.0, , , , , , 95, , , 55, 55, 55
38.5386969, -120.5235811, 44.000, 11:27:04.159, 17, 0.00, 0.23, 97, 0.000, 0.500, 27.800, 1577, 100, 99, 22, 23539, -17970, 5123, 5282, 22, 14, 1529519224.159, 47, 0, 1024, 1024, 1024, 1024, 0, 6, 3893, 3913, 3929, 3957, 3902, 3929, 0, 1, 20299, -90.000, 0.000, 28.300, 0.000, 0.000, -2.900, 0.0, , , , , , 95, , , 55, 55, 55
38.5386969, -120.5235812, 44.300, 11:27:04.260, 17, 0.00, 0.23, 97, 0.100, 0.700, 27.700, 1577, 100, 99, 22, 23539, -17970, 5123, 5282, 22, 14, 1529519224.260, 52, 0, 1024, 1024, 1024, 1024, 0, 6, 3893, 3913, 3929, 3957, 3902, 3929, 0, 1, 20400, -89.900, 0.000, 28.300, 0.000, 0.000, -3.000, 0.0, , , , , , 95, , , 55, 55, 55
38.5386971, -120.5235812, 45.000, 11:27:04.360, 17, 0.00, 0.25, 97, 0.700, 1.100, 27.700, 1577, 100, 99, 22, 23539, -17970, 5123, 5282, 22, 14, 1529519224.360, 40, 0, 1024, 1024, 1024, 1024, 0, 6, 3893, 3913, 3929, 3957, 3902, 3929, 0, 1, 20500, -89.900, 0.000, 28.300, 0.000, 0.000, -2.900, 0.0, , , , , , 95, , , 55, 55, 55
38.5386971, -120.5235812, 45.000, 11:27:04.460, 17, 0.00, 0.25, 97, 0.700, 1.100, 27.700, 1577, 100, 99, 22, 23539, -17970, 5123, 5282, 22, 14, 1529519224.460, 140, 0, 1024, 1024, 1024, 1024, 0, 6, 3893, 3913, 3929, 3957, 3902, 3929, 0, 1, 20600, -89.900, 0.000, 28.300, 0.000, 0.000, -2.900, 0.0, , , , , , 95, , , 55, 55, 55
38.5386971, -120.5235813, 45.300, 11:27:04.560, 17, 0.00, 0.26, 97, 1.100, 1.400, 27.800, 1577, 100, 98, 22, 23539, -17970, 5123, 5282, 22, 14, 1529519224.560, 33, 0, 1024, 1024, 1024, 1024, 0, 6, 3893, 3913, 3929, 3957, 3902, 3929, 0, 1, 20700, -89.900, 0.000, 28.300, 0.000, 0.000, -2.900, 0.0, , , , , , 95, , , 55, 55, 55
38.5386973, -120.5235814, 45.800, 11:27:04.664, 17, 0.00, 0.28, 97, 1.500, 1.800, 28.000, 1577, 100, 98, 22, 23539, -17970, 5123, 5282, 22, 14, 1529519224.664, 3, 0, 1024, 1024, 1024, 1024, 0, 6, 3893, 3913, 3929, 3957, 3902, 3929, 0, 1, 20804, -89.900, 0.000, 28.300, 0.000, 0.000, -2.900, 0.0, , , , , , 95, , , 55, 55, 55
38.5386974, -120.5235814, 46.100, 11:27:04.759, 17, 0.00, 0.28, 97, 1.600, 1.900, 28.100, 1577, 100, 98, 22, 23539, -17970, 5123, 5282, 22, 14, 1529519224.760, 26, 0, 1024, 1024, 1024, 1024, 0, 6, 3893, 3913, 3929, 3957, 3902, 3929, 0, 1, 20899, -89.900, 0.000, 28.300, 0.000, 0.000, -2.900, 0.0, , , , , , 95, , , 55, 55, 55
38.5386974, -120.5235814, 46.400, 11:27:04.860, 17, 0.00, 0.29, 97, 1.500, 1.900, 28.100, 1577, 100, 98, 22, 23539, -17970, 5123, 5282, 22, 14, 1529519224.860, 17, 0, 1024, 1024, 1024, 1024, 0, 6, 3893, 3913, 3929, 3957, 3902, 3929, 0, 1, 21000, -89.900, 0.000, 28.300, 0.000, 0.000, -2.900, 0.0, , , , , , 95, , , 55, 55, 55
