Latitude, Longitude, Altitude (m), Time, Sats, Speed (m/s), Range (m), Battery (%), Roll (deg), Pitch (deg), Yaw (deg), Images, HD Signal (%), RC Signal (%), Battery Temp (C), Battery Voltage (mV), Battery Current (mA), Battery Energy (mAh), Battery Capacity (mAh), Battery Discharges, flyState, timestamp (Unix), LastUpdate (ms), radioChannel, Rc_elevator, Rc_aileron, Rc_throttle, Rc_rudder, Rc_gyro, Dronetype, Battery_Cell1 (mV), Battery_Cell2 (mV), Battery_Cell3 (mV), Battery_Cell4 (mV), Battery_Cell5 (mV), Battery_Cell6 (mV), Video, isFlying, elapsedTime (ms), gimbalPitch (deg), gimbalRoll (deg), gimbalYaw (deg), VelocityX (m/s), VelocityY (m/s), VelocityZ (m/s), GroundSmear (cm), App Version, Aircraft Name, Aircraft Firmware, Aircraft Serial Number, Battery Serial Number, Battery Lifetime (%), App_Tip, App_Warning, CurrentFlightStartingIndex, CurrentFlightLastVisitedWaypoint, PreviousFlightEndingWaypointIndex
38.5387368, -120.5236241, 0.000, 10:32:34.767, 14, 0.00, 0.00, 98, 2.100, 1.500, 27.600, 398, 100, 100, 20, 25353, -4334, 5176, 5282, 22, 11, 1529515954.767, 47, 0, 1024, 1024, 1024, 1024, 0, 6, 4271, 4243, 4252, 4233, 4273, 4242, 0, 1, 3141, -89.900, 0.000, 26.800, 0.000, 0.000, -0.200, 0.0, MapPilot_2.8.1_04242018, Dendroctonus I, 1.3.1.00, 041DDC1887, 1058163200505, 95, DJI_0396.jpg, Starting Mission from Lat/Long: 38.53874/-120.52362 Camera: Zenmuse X3 - Overlap: 90/90 - Active Connection: No, 14, 14, 14
38.5387368, -120.5236241, 0.000, 10:32:34.826, 14, 0.00, 0.00, 98, 2.100, 1.500, 27.600, 398, 100, 100, 20, 25353, -4334, 5176, 5282, 22, 11, 1529515954.827, 107, 0, 1024, 1024, 1024, 1024, 0, 6, 4271, 4243, 4252, 4233, 4273, 4242, 0, 1, 3201, -89.900, 0.000, 26.800, 0.000, 0.000, -0.200, 0.0, , , , , , 95, , , 14, 14, 14
38.5387366, -120.5236239, 0.100, 10:32:34.928, 14, 0.10, 0.02, 98, 0.900, 0.600, 28.000, 398, 100, 100, 20, 25353, -4334, 5176, 5282, 22, 11, 1529515954.928, 2, 0, 1024, 1024, 1024, 1024, 0, 6, 4271, 4243, 4252, 4233, 4273, 4242, 0, 1, 3302, -89.900, 0.000, 26.800, 0.000, 0.100, -0.400, 0.0, , , , , , 95, , , 14, 14, 14
38.5387366, -120.5236237, 0.100, 10:32:35.026, 14, 0.10, 0.04, 98, -0.100, 0.300, 28.000, 398, 100, 100, 20, 25353, -4334, 5176, 5282, 22, 11, 1529515955.027, 7, 0, 1024, 1024, 1024, 1024, 0, 6, 4271, 4243, 4252, 4233, 4273, 4242, 0, 1, 3401, -89.900, 0.000, 26.800, 0.000, 0.100, -0.400, 0.0, , , , , , 95, , , 14, 14, 14
38.5387366, -120.5236237, 0.100, 10:32:35.126, 14, 0.10, 0.04, 98, -0.100, 0.300, 28.000, 398, 100, 100, 20, 25353, -4334, 5176, 5282, 22, 11, 1529515955.127, 108, 0, 1024, 1024, 1024, 1024, 0, 6, 4271, 4243, 4252, 4233, 4273, 4242, 0, 1, 3501, -89.900, 0.000, 26.800, 0.000, 0.100, -0.400, 0.0, , , , , , 95, , , 14, 14, 14
38.5387365, -120.5236235, 0.100, 10:32:35.226, 13, 0.10, 0.06, 98, -1.100, 0.000, 28.000, 398, 100, 100, 20, 25353, -4334, 5176, 5282, 22, 11, 1529515955.227, 90, 0, 1024, 1024, 1024, 1024, 0, 6, 4271, 4243, 4252, 4233, 4273, 4242, 0, 1, 3601, -90.000, 0.000, 26.800, 0.000, 0.100, -0.400, 0.0, , , , , , 95, , , 14, 14, 14
38.5387364, -120.5236234, 0.200, 10:32:35.326, 13, 0.10, 0.07, 98, -1.700, 0.000, 27.800, 398, 100, 100, 20, 25353, -4334, 5176, 5282, 22, 11, 1529515955.327, 82, 0, 1024, 1024, 1024, 1024, 0, 6, 4166, 4159, 4184, 4216, 4215, 4109, 0, 1, 3701, -90.000, 0.000, 26.800, 0.000, 0.100, -0.400, 0.0, , , , , , 95, , , 14, 14, 14
38.5387363, -120.5236232, 0.200, 10:32:35.426, 12, 0.10, 0.09, 98, -1.900, 0.200, 27.500, 398, 100, 100, 20, 25353, -4334, 5176, 5282, 22, 11, 1529515955.427, 82, 0, 1024, 1024, 1024, 1024, 0, 6, 4166, 4159, 4184, 4216, 4215, 4109, 0, 1, 3801, -89.900, 0.000, 26.800, 0.000, 0.100, -0.400, 0.0, , , , , , 95, , , 14, 14, 14
38.5387363, -120.5236231, 0.300, 10:32:35.526, 12, 0.10, 0.10, 98, -1.500, 0.200, 27.200, 398, 100, 100, 20, 25353, -4334, 5176, 5282, 22, 11, 1529515955.527, 75, 0, 1024, 1024, 1024, 1024, 0, 6, 4166, 4159, 4184, 4216, 4215, 4109, 0, 1, 3901, -89.900, 0.000, 26.800, 0.000, 0.100, -0.400, 0.0, , , , , , 95, , , 14, 14, 14
38.5387362, -120.5236230, 0.300, 10:32:35.626, 14, 0.10, 0.11, 98, -1.300, 0.300, 27.100, 398, 100, 100, 20, 25353, -4334, 5176, 5282, 22, 11, 1529515955.627, 89, 0, 1024, 1024, 1024, 1024, 0, 6, 4166, 4159, 4184, 4216, 4215, 4109, 0, 1, 4001, -89.900, 0.000, 26.800, 0.000, 0.100, -0.400, 0.0, , , , , , 95, , , 14, 14, 14
38.5387363, -120.5236229, 0.400, 10:32:35.726, 14, 0.10, 0.12, 98, -1.300, 0.500, 27.000, 398, 100, 100, 20, 25353, -4334, 5176, 5282, 22, 11, 1529515955.727, 87, 0, 1024, 1024, 1024, 1024, 0, 6, 4166, 4159, 4184, 4216, 4215, 4109, 0, 1, 4101, -89.900, 0.000, 26.800, 0.000, 0.100, -0.400, 0.0, , , , , , 95, , , 14, 14, 14
38.5387363, -120.5236228, 0.400, 10:32:35.826, 13, 0.10, 0.12, 98, -1.100, 0.700, 27.000, 398, 100, 100, 20, 25353, -4334, 5176, 5282, 22, 11, 1529515955.826, 80, 0, 1024, 1024, 1024, 1024, 0, 6, 4166, 4159, 4184, 4216, 4215, 4109, 0, 1, 4200, -89.900, 0.000, 26.800, 0.000, 0.100, -0.400, 0.0, , , , , , 95, , , 14, 14, 14
38.5387364, -120.5236227, 0.500, 10:32:35.926, 13, 0.00, 0.13, 98, -1.100, 0.800, 27.000, 398, 100, 100, 20, 25353, -4334, 5176, 5282, 22, 11, 1529515955.927, 86, 0, 1024, 1024, 1024, 1024, 0, 6, 4166, 4159, 4184, 4216, 4215, 4109, 0, 1, 4301, -89.900, 0.000, 26.800, 0.000, 0.000, -0.500, 0.0, , , , , , 95, , , 14, 14, 14
38.5387364, -120.5236226, 0.500, 10:32:36.026, 12, 0.00, 0.13, 98, -1.100, 1.000, 27.000, 398, 100, 100, 20, 25353, -4334, 5176, 5282, 22, 11, 1529515956.027, 75, 0, 1024, 1024, 1024, 1024, 0, 6, 4166, 4159, 4184, 4216, 4215, 4109, 0, 1, 4401, -89.900, 0.000, 26.800, 0.000, 0.000, -0.500, 0.0, , , , , , 95, , , 14, 14, 14
38.5387364, -120.5236225, 0.600, 10:32:36.126, 12, 0.00, 0.14, 98, -1.000, 1.100, 27.100, 398, 100, 100, 20, 25353, -4334, 5176, 5282, 22, 11, 1529515956.127, 52, 0, 1024, 1024, 1024, 1024, 0, 6, 4166, 4159, 4184, 4216, 4215, 4109, 0, 1, 4501, -89.900, 0.000, 26.800, 0.000, 0.000, -0.500, 0.0, , , , , , 95, , , 14, 14, 14
38.5387364, -120.5236224, 0.600, 10:32:36.226, 13, 0.00, 0.15, 98, -1.000, 1.200, 27.100, 398, 100, 100, 20, 25353, -4334, 5176, 5282, 22, 11, 1529515956.227, 71, 0, 1024, 1024, 1024, 1024, 0, 6, 4166, 4159, 4184, 4216, 4215, 4109, 0, 1, 4600, -89.900, 0.000, 26.800, 0.000, 0.000, -0.500, 0.0, , , , , , 95, , , 14, 14, 14
38.5387364, -120.5236224, 0.700, 10:32:36.326, 13, 0.00, 0.15, 98, -1.000, 1.200, 27.200, 398, 100, 100, 20, 24125, -14108, 5176, 5282, 22, 11, 1529515956.326, 60, 0, 1024, 1024, 1024, 1024, 0, 6, 3936, 3970, 3951, 4016, 4002, 3962, 0, 1, 4700, -89.900, 0.000, 26.800, 0.000, 0.000, -0.500, 0.0, , , , , , 95, , , 14, 14, 14
38.5387365, -120.5236223, 0.800, 10:32:36.426, 13, 0.00, 0.16, 98, -1.000, 1.300, 27.200, 398, 100, 100, 20, 24125, -14108, 5176, 5282, 22, 11, 1529515956.427, 62, 0, 1024, 1024, 1024, 1024, 0, 6, 3936, 3970, 3951, 4016, 4002, 3962, 0, 1, 4801, -89.900, 0.000, 26.800, 0.000, 0.000, -0.500, 0.0, , , , , , 95, , , 14, 14, 14
38.5387365, -120.5236222, 0.800, 10:32:36.526, 13, 0.00, 0.16, 98, -1.000, 1.300, 27.300, 398, 100, 100, 20, 24125, -14108, 5176, 5282, 22, 11, 1529515956.526, 32, 0, 1024, 1024, 1024, 1024, 0, 6, 3936, 3970, 3951, 4016, 4002, 3962, 0, 1, 4900, -89.900, 0.000, 26.800, 0.000, 0.000, -0.500, 0.0, , , , , , 95, , , 14, 14, 14
38.5387365, -120.5236220, 0.900, 10:32:36.626, 14, 0.00, 0.18, 98, -1.100, 1.600, 27.400, 398, 100, 100, 20, 24125, -14108, 5176, 5282, 22, 14, 1529515956.626, 43, 0, 1024, 1024, 1024, 1024, 0, 6, 3936, 3970, 3951, 4016, 4002, 3962, 0, 1, 5000, -89.900, 0.000, 26.800, 0.000, 0.000, -0.400, 0.0, , , , , , 95, , , 14, 14, 14
38.5387366, -120.5236219, 1.000, 10:32:36.725, 14, 0.00, 0.19, 98, -0.700, 1.700, 27.400, 398, 100, 100, 20, 24125, -14108, 5176, 5282, 22, 14, 1529515956.726, 25, 0, 1024, 1024, 1024, 1024, 0, 6, 3936, 3970, 3951, 4016, 4002, 3962, 0, 1, 5100, -89.900, 0.000, 26.800, 0.000, 0.000, -0.300, 0.0, , , , , , 95, , , 14, 14, 14
38.5387366, -120.5236219, 1.000, 10:32:36.826, 14, 0.00, 0.19, 98, -0.700, 1.700, 27.400, 398, 100, 100, 20, 24125, -14108, 5176, 5282, 22, 14, 1529515956.827, 126, 0, 1024, 1024, 1024, 1024, 0, 6, 3936, 3970, 3951, 4016, 4002, 3962, 0, 1, 5200, -89.900, 0.000, 26.800, 0.000, 0.000, -0.300, 0.0, , , , , , 95, , , 14, 14, 14
38.5387367, -120.5236219, 1.100, 10:32:36.926, 14, 0.00, 0.19, 98, -0.200, 1.600, 27.500, 398, 100, 100, 20, 24125, -14108, 5176, 5282, 22, 14, 1529515956.927, 20, 0, 1024, 1024, 1024, 1024, 0, 6, 3936, 3970, 3951, 4016, 4002, 3962, 0, 1, 5301, -89.900, 0.000, 26.800, 0.000, 0.000, -0.300, 0.0, , , , , , 95, , , 14, 14, 14
38.5387368, -120.5236219, 1.100, 10:32:37.026, 14, 0.00, 0.19, 98, -0.100, 1.500, 27.600, 398, 100, 100, 20, 24125, -14108, 5176, 5282, 22, 14, 1529515957.026, 32, 0, 1024, 1024, 1024, 1024, 0, 6, 3936, 3970, 3951, 4016, 4002, 3962, 0, 1, 5400, -89.900, 0.000, 26.800, 0.000, 0.000, -0.300, 0.0, , , , , , 95, , , 14, 14, 14
38.5387369, -120.5236218, 1.200, 10:32:37.126, 14, 0.00, 0.20, 98, 0.000, 1.500, 27.600, 398, 100, 100, 20, 24125, -14108, 5176, 5282, 22, 14, 1529515957.127, 25, 0, 1024, 1024, 1024, 1024, 0, 6, 3936, 3970, 3951, 4016, 4002, 3962, 0, 1, 5501, -89.900, 0.000, 26.800, 0.000, 0.000, -0.500, 0.0, , , , , , 95, , , 14, 14, 14
38.5387369, -120.5236218, 1.200, 10:32:37.226, 14, 0.00, 0.20, 98, -0.200, 1.500, 27.600, 398, 100, 100, 20, 23625, -17050, 5176, 5282, 22, 14, 1529515957.227, 14, 0, 1024, 1024, 1024, 1024, 0, 6, 3923, 3920, 3925, 3972, 3970, 3928, 0, 1, 5601, -89.900, 0.000, 26.800, 0.000, 0.000, -0.700, 0.0, , , , , , 95, , , 14, 14, 14
38.5387370, -120.5236217, 1.300, 10:32:37.330, 14, 0.00, 0.20, 98, -0.300, 1.500, 27.600, 398, 100, 100, 20, 23625, -17050, 5176, 5282, 22, 14, 1529515957.330, 3, 0, 1024, 1024, 1024, 1024, 0, 6, 3923, 3920, 3925, 3972, 3970, 3928, 0, 1, 5704, -89.900, 0.000, 26.800, 0.000, 0.000, -0.800, 0.0, , , , , , 95, , , 14, 14, 14
38.5387370, -120.5236217, 1.400, 10:32:37.426, 14, 0.00, 0.21, 98, -0.400, 1.500, 27.700, 398, 100, 100, 20, 23625, -17050, 5176, 5282, 22, 14, 1529515957.426, 3, 0, 1024, 1024, 1024, 1024, 0, 6, 3923, 3920, 3925, 3972, 3970, 3928, 0, 1, 5800, -89.900, 0.000, 26.800, 0.000, 0.000, -1.100, 0.0, , , , , , 95, , , 14, 14, 14
38.5387370, -120.5236216, 1.600, 10:32:37.526, 15, 0.00, 0.21, 98, -0.500, 1.400, 27.700, 398, 100, 100, 20, 23625, -17050, 5176, 5282, 22, 14, 1529515957.527, 6, 0, 1024, 1024, 1024, 1024, 0, 6, 3923, 3920, 3925, 3972, 3970, 3928, 0, 1, 5901, -89.900, 0.000, 26.800, 0.000, 0.000, -1.200, 0.0, , , , , , 95, , , 14, 14, 14
38.5387370, -120.5236217, 1.700, 10:32:37.626, 15, 0.00, 0.21, 98, -0.500, 1.300, 27.700, 398, 100, 100, 20, 23625, -17050, 5176, 5282, 22, 14, 1529515957.627, 6, 0, 1024, 1024, 1024, 1024, 0, 6, 3923, 3920, 3925, 3972, 3970, 3928, 0, 1, 6001, -89.900, 0.000, 26.800, 0.000, 0.000, -1.500, 0.0, , , , , , 95, , , 14, 14, 14
38.5387370, -120.5236217, 1.700, 10:32:37.726, 15, 0.00, 0.21, 98, -0.500, 1.300, 27.700, 398, 100, 100, 20, 23625, -17050, 5176, 5282, 22, 14, 1529515957.727, 106, 0, 1024, 1024, 1024, 1024, 0, 6, 3923, 3920, 3925, 3972, 3970, 3928, 0, 1, 6101, -89.900, 0.000, 26.800, 0.000, 0.000, -1.500, 0.0, , , , , , 95, , , 14, 14, 14
38.5387370, -120.5236217, 1.900, 10:32:37.826, 14, 0.00, 0.21, 98, -0.400, 1.200, 27.700, 398, 100, 100, 20, 23625, -17050, 5176, 5282, 22, 14, 1529515957.827, 85, 0, 1024, 1024, 1024, 1024, 0, 6, 3923, 3920, 3925, 3972, 3970, 3928, 0, 1, 6201, -90.000, 0.000, 26.800, 0.000, 0.000, -1.600, 0.0, , , , , , 95, , , 14, 14, 14
38.5387370, -120.5236217, 2.000, 10:32:37.926, 14, 0.00, 0.20, 98, -0.300, 1.100, 27.800, 398, 100, 100, 20, 23625, -17050, 5176, 5282, 22, 14, 1529515957.927, 80, 0, 1024, 1024, 1024, 1024, 0, 6, 3923, 3920, 3925, 3972, 3970, 3928, 0, 1, 6301, -90.000, 0.000, 26.800, 0.000, 0.000, -1.800, 0.0, , , , , , 95, , , 14, 14, 14
38.5387369, -120.5236218, 2.200, 10:32:38.026, 13, 0.00, 0.20, 98, -0.300, 0.800, 27.900, 398, 100, 100, 20, 23625, -17050, 5176, 5282, 22, 14, 1529515958.027, 76, 0, 1024, 1024, 1024, 1024, 0, 6, 3923, 3920, 3925, 3972, 3970, 3928, 0, 1, 6401, -90.000, 0.000, 26.800, 0.000, 0.000, -2.100, 0.0, , , , , , 95, , , 14, 14, 14
38.5387368, -120.5236218, 2.500, 10:32:38.126, 13, 0.00, 0.19, 98, -0.100, 0.600, 27.900, 398, 100, 100, 20, 23625, -17050, 5176, 5282, 22, 14, 1529515958.127, 79, 0, 1024, 1024, 1024, 1024, 0, 6, 3923, 3920, 3925, 3972, 3970, 3928, 0, 1, 6501, -90.000, 0.000, 26.800, 0.000, 0.000, -2.300, 0.0, , , , , , 95, , , 14, 14, 14
38.5387367, -120.5236219, 2.700, 10:32:38.226, 16, 0.00, 0.19, 98, -0.100, 0.500, 27.900, 398, 100, 100, 20, 23625, -17050, 5176, 5282, 22, 14, 1529515958.227, 82, 0, 1024, 1024, 1024, 1024, 0, 6, 3923, 3920, 3925, 3972, 3970, 3928, 0, 1, 6601, -90.000, 0.000, 26.800, 0.000, 0.000, -2.500, 0.0, , , , , , 95, , , 14, 14, 14
38.5387366, -120.5236220, 3.000, 10:32:38.326, 16, 0.00, 0.18, 98, 0.000, 0.300, 27.700, 398, 100, 100, 20, 23580, -16219, 5176, 5282, 22, 14, 1529515958.327, 57, 0, 1024, 1024, 1024, 1024, 0, 6, 3896, 3881, 3884, 3923, 3906, 3883, 0, 1, 6700, -90.000, 0.000, 26.800, 0.000, 0.000, -2.700, 0.0, , , , , , 95, , , 14, 14, 14
38.5387365, -120.5236221, 3.300, 10:32:38.426, 14, 0.00, 0.17, 98, 0.000, 0.000, 27.500, 398, 100, 100, 20, 23580, -16219, 5176, 5282, 22, 14, 1529515958.426, 69, 0, 1024, 1024, 1024, 1024, 0, 6, 3896, 3881, 3884, 3923, 3906, 3883, 0, 1, 6800, -90.000, 0.000, 26.800, 0.000, 0.000, -2.900, 0.0, , , , , , 95, , , 14, 14, 14
38.5387364, -120.5236222, 3.600, 10:32:38.526, 14, 0.00, 0.17, 98, 0.200, 0.000, 27.300, 398, 100, 100, 20, 23580, -16219, 5176, 5282, 22, 14, 1529515958.527, 61, 0, 1024, 1024, 1024, 1024, 0, 6, 3896, 3881, 3884, 3923, 3906, 3883, 0, 1, 6901, -90.000, 0.000, 26.800, 0.000, 0.000, -3.000, 0.0, , , , , , 95, , , 14, 14, 14
38.5387363, -120.5236222, 4.000, 10:32:38.626, 13, 0.00, 0.16, 98, 0.200, 0.000, 27.200, 398, 100, 100, 20, 23580, -16219, 5176, 5282, 22, 14, 1529515958.627, 62, 0, 1024, 1024, 1024, 1024, 0, 6, 3896, 3881, 3884, 3923, 3906, 3883, 0, 1, 7001, -90.000, 0.000, 26.800, 0.000, 0.000, -3.100, 0.0, , , , , , 95, , , 14, 14, 14
38.5387362, -120.5236222, 4.300, 10:32:38.726, 13, 0.00, 0.17, 98, 0.100, -0.100, 27.200, 398, 100, 100, 20, 23580, -16219, 5176, 5282, 22, 14, 1529515958.727, 56, 0, 1024, 1024, 1024, 1024, 0, 6, 3896, 3881, 3884, 3923, 3906, 3883, 0, 1, 7101, -90.000, 0.000, 26.800, 0.000, 0.000, -3.200, 0.0, , , , , , 95, , , 14, 14, 14
38.5387360, -120.5236223, 5.000, 10:32:38.826, 15, 0.00, 0.18, 98, 0.000, -0.500, 27.100, 398, 100, 100, 20, 23580, -16219, 5176, 5282, 22, 14, 1529515958.826, 27, 0, 1024, 1024, 1024, 1024, 0, 6, 3896, 3881, 3884, 3923, 3906, 3883, 0, 1, 7200, -90.000, 0.000, 26.800, 0.000, 0.000, -3.100, 0.0, , , , , , 95, , , 14, 14, 14
38.5387359, -120.5236223, 5.300, 10:32:38.926, 15, 0.00, 0.18, 98, -0.100, -0.300, 27.000, 398, 100, 100, 20, 23580, -16219, 5176, 5282, 22, 14, 1529515958.927, 26, 0, 1024, 1024, 1024, 1024, 0, 6, 3896, 3881, 3884, 3923, 3906, 3883, 0, 1, 7301, -89.900, 0.000, 26.800, 0.000, 0.000, -3.100, 0.0, , , , , , 95, , , 14, 14, 14
38.5387360, -120.5236223, 5.600, 10:32:39.026, 15, 0.00, 0.17, 98, -0.400, 0.000, 27.100, 398, 100, 100, 20, 23580, -16219, 5176, 5282, 22, 14, 1529515959.026, 31, 0, 1024, 1024, 1024, 1024, 0, 6, 3896, 3881, 3884, 3923, 3906, 3883, 0, 1, 7400, -89.900, 0.000, 26.800, 0.000, 0.000, -3.100, 0.0, , , , , , 95, , , 14, 14, 14
38.5387361, -120.5236223, 5.900, 10:32:39.125, 15, 0.00, 0.17, 98, -0.400, 0.400, 27.300, 398, 100, 100, 20, 23580, -16219, 5176, 5282, 22, 14, 1529515959.126, 34, 0, 1024, 1024, 1024, 1024, 0, 6, 3896, 3881, 3884, 3923, 3906, 3883, 0, 1, 7500, -89.900, 0.000, 26.800, 0.000, 0.000, -3.100, 0.0, , , , , , 95, , , 14, 14, 14
38.5387362, -120.5236222, 6.200, 10:32:39.226, 15, 0.00, 0.17, 98, -0.200, 0.900, 27.500, 398, 100, 100, 20, 23580, -16219, 5176, 5282, 22, 14, 1529515959.227, 35, 0, 1024, 1024, 1024, 1024, 0, 6, 3896, 3881, 3884, 3923, 3906, 3883, 0, 1, 7601, -89.900, 0.000, 26.800, 0.000, 0.000, -3.100, 0.0, , , , , , 95, , , 14, 14, 14
38.5387364, -120.5236222, 6.600, 10:32:39.326, 15, 0.10, 0.17, 98, 0.000, 1.300, 27.700, 398, 100, 100, 20, 22765, -25052, 5176, 5282, 22, 14, 1529515959.327, 11, 0, 1024, 1024, 1024, 1024, 0, 6, 3775, 3773, 3780, 3844, 3828, 3787, 0, 1, 7701, -89.900, 0.000, 26.800, 0.100, 0.000, -3.100, 0.0, , , , , , 95, , , 14, 14, 14
38.5387365, -120.5236222, 6.900, 10:32:39.426, 15, 0.10, 0.17, 98, 0.200, 1.700, 27.800, 398, 100, 100, 20, 22765, -25052, 5176, 5282, 22, 14, 1529515959.427, 14, 0, 1024, 1024, 1024, 1024, 0, 6, 3775, 3773, 3780, 3844, 3828, 3787, 0, 1, 7801, -89.900, 0.000, 26.800, 0.100, 0.000, -3.100, 0.0, , , , , , 95, , , 14, 14, 14
38.5387365, -120.5236222, 6.900, 10:32:39.526, 15, 0.10, 0.17, 98, 0.200, 1.700, 27.800, 398, 100, 100, 20, 22765, -25052, 5176, 5282, 22, 14, 1529515959.527, 114, 0, 1024, 1024, 1024, 1024, 0, 6, 3775, 3773, 3780, 3844, 3828, 3787, 0, 1, 7901, -89.900, 0.000, 26.800, 0.100, 0.000, -3.100, 0.0, , , , , , 95, , , 14, 14, 14
38.5387367, -120.5236222, 7.200, 10:32:39.626, 15, 0.10, 0.16, 98, 0.400, 2.000, 27.800, 398, 100, 100, 20, 22765, -25052, 5176, 5282, 22, 14, 1529515959.627, 94, 0, 1024, 1024, 1024, 1024, 0, 6, 3775, 3773, 3780, 3844, 3828, 3787, 0, 1, 8001, -89.900, 0.000, 26.800, 0.100, 0.000, -3.100, 0.0, , , , , , 95, , , 14, 14, 14
38.5387369, -120.5236222, 7.600, 10:32:39.726, 15, 0.10, 0.17, 98, 0.500, 2.100, 27.800, 398, 100, 100, 20, 22765, -25052, 5176, 5282, 22, 14, 1529515959.727, 95, 0, 1024, 1024, 1024, 1024, 0, 6, 3775, 3773, 3780, 3844, 3828, 3787, 0, 1, 8101, -89.900, 0.000, 26.800, 0.100, 0.000, -3.200, 0.0, , , , , , 95, , , 14, 14, 14
38.5387371, -120.5236222, 7.900, 10:32:39.826, 16, 0.10, 0.17, 98, 0.600, 2.000, 27.700, 398, 100, 100, 20, 22765, -25052, 5176, 5282, 22, 14, 1529515959.827, 98, 0, 1024, 1024, 1024, 1024, 0, 6, 3775, 3773, 3780, 3844, 3828, 3787, 0, 1, 8201, -89.900, 0.000, 26.800, 0.100, 0.000, -3.200, 0.0, , , , , , 95, , , 14, 14, 14
38.5387372, -120.5236221, 8.200, 10:32:39.926, 16, 0.00, 0.17, 98, 0.800, 2.000, 27.600, 398, 100, 100, 20, 22765, -25052, 5176, 5282, 22, 14, 1529515959.927, 61, 0, 1024, 1024, 1024, 1024, 0, 6, 3775, 3773, 3780, 3844, 3828, 3787, 0, 1, 8301, -89.900, 0.000, 26.800, 0.000, 0.000, -3.100, 0.0, , , , , , 95, , , 14, 14, 14
38.5387374, -120.5236221, 8.500, 10:32:40.026, 16, 0.00, 0.18, 98, 1.000, 2.000, 27.600, 398, 100, 100, 20, 22765, -25052, 5176, 5282, 22, 14, 1529515960.027, 84, 0, 1024, 1024, 1024, 1024, 0, 6, 3775, 3773, 3780, 3844, 3828, 3787, 0, 1, 8401, -89.900, 0.000, 26.800, 0.000, 0.000, -3.100, 0.0, , , , , , 95, , , 14, 14, 14
38.5387376, -120.5236221, 8.900, 10:32:40.126, 16, 0.00, 0.19, 98, 1.100, 1.900, 27.600, 398, 100, 100, 20, 22765, -25052, 5176, 5282, 22, 14, 1529515960.127, 92, 0, 1024, 1024, 1024, 1024, 0, 6, 3775, 3773, 3780, 3844, 3828, 3787, 0, 1, 8501, -89.900, 0.000, 26.800, 0.000, 0.000, -3.100, 0.0, , , , , , 95, , , 14, 14, 14
38.5387378, -120.5236221, 9.200, 10:32:40.226, 16, 0.00, 0.21, 98, 1.200, 2.000, 27.500, 398, 100, 100, 20, 22765, -25052, 5176, 5282, 22, 14, 1529515960.227, 60, 0, 1024, 1024, 1024, 1024, 0, 6, 3775, 3773, 3780, 3844, 3828, 3787, 0, 1, 8601, -89.900, 0.000, 26.800, 0.000, 0.000, -3.100, 0.0, , , , , , 95, , , 14, 14, 14
38.5387380, -120.5236221, 9.600, 10:32:40.326, 16, 0.00, 0.22, 98, 1.200, 2.200, 27.400, 398, 100, 100, 20, 22916, -21856, 5176, 5282, 22, 14, 1529515960.327, 76, 0, 1024, 1024, 1024, 1024, 0, 6, 3775, 3773, 3780, 3844, 3828, 3787, 0, 1, 8701, -89.900, 0.000, 26.800, 0.000, 0.000, -3.100, 0.0, , , , , , 95, , , 14, 14, 14
38.5387382, -120.5236221, 9.900, 10:32:40.426, 16, 0.00, 0.23, 98, 1.200, 2.400, 27.400, 398, 100, 100, 20, 22916, -21856, 5176, 5282, 22, 14, 1529515960.427, 67, 0, 1024, 1024, 1024, 1024, 0, 6, 3775, 3773, 3780, 3844, 3828, 3787, 0, 1, 8801, -89.900, 0.000, 26.800, 0.000, 0.000, -3.000, 0.0, , , , , , 95, , , 14, 14, 14
38.5387384, -120.5236221, 10.200, 10:32:40.526, 16, 0.00, 0.25, 98, 1.200, 2.600, 27.300, 398, 100, 100, 20, 22916, -21856, 5176, 5282, 22, 14, 1529515960.527, 74, 0, 1024, 1024, 1024, 1024, 0, 6, 3775, 3773, 3780, 3844, 3828, 3787, 0, 1, 8901, -89.900, 0.000, 26.800, 0.000, 0.000, -3.000, 0.0, , , , , , 95, , , 14, 14, 14
38.5387387, -120.5236221, 10.800, 10:32:40.626, 16, 0.00, 0.28, 98, 1.200, 2.700, 27.300, 398, 100, 100, 20, 22916, -21856, 5176, 5282, 22, 14, 1529515960.626, 37, 0, 1024, 1024, 1024, 1024, 0, 6, 3775, 3773, 3780, 3844, 3828, 3787, 0, 1, 9000, -89.900, 0.000, 26.800, 0.000, 0.000, -3.000, 0.0, , , , , , 95, , , 14, 14, 14
38.5387389, -120.5236220, 11.100, 10:32:40.726, 15, 0.00, 0.30, 98, 1.100, 2.800, 27.300, 398, 100, 100, 20, 22916, -21856, 5176, 5282, 22, 14, 1529515960.727, 42, 0, 1024, 1024, 1024, 1024, 0, 6, 3799, 3801, 3802, 3854, 3852, 3809, 0, 1, 9101, -89.900, 0.000, 26.800, 0.000, 0.000, -2.900, 0.0, , , , , , 95, , , 14, 14, 14
38.5387390, -120.5236220, 11.400, 10:32:40.826, 15, 0.00, 0.31, 98, 0.900, 2.900, 27.400, 398, 100, 100, 20, 22916, -21856, 5176, 5282, 22, 14, 1529515960.827, 33, 0, 1024, 1024, 1024, 1024, 0, 6, 3799, 3801, 3802, 3854, 3852, 3809, 0, 1, 9201, -89.900, 0.000, 26.800, 0.000, 0.000, -3.000, 0.0, , , , , , 95, , , 14, 14, 14
38.5387391, -120.5236220, 11.800, 10:32:40.926, 16, 0.00, 0.32, 98, 0.900, 2.800, 27.400, 398, 100, 100, 20, 22916, -21856, 5176, 5282, 22, 14, 1529515960.927, 21, 0, 1024, 1024, 1024, 1024, 0, 6, 3799, 3801, 3802, 3854, 3852, 3809, 0, 1, 9301, -89.900, 0.000, 26.800, 0.000, 0.000, -3.000, 0.0, , , , , , 95, , , 14, 14, 14
38.5387392, -120.5236220, 12.100, 10:32:41.025, 16, 0.00, 0.33, 98, 0.800, 2.700, 27.400, 398, 100, 100, 20, 22916, -21856, 5176, 5282, 22, 14, 1529515961.026, 23, 0, 1024, 1024, 1024, 1024, 0, 6, 3799, 3801, 3802, 3854, 3852, 3809, 0, 1, 9400, -89.900, 0.000, 26.800, 0.000, 0.000, -2.900, 0.0, , , , , , 95, , , 14, 14, 14
38.5387393, -120.5236220, 12.300, 10:32:41.126, 16, 0.00, 0.33, 98, 1.000, 2.500, 27.500, 398, 100, 100, 20, 22916, -21856, 5176, 5282, 22, 14, 1529515961.127, 27, 0, 1024, 1024, 1024, 1024, 0, 6, 3799, 3801, 3802, 3854, 3852, 3809, 0, 1, 9501, -89.900, 0.000, 26.800, 0.000, 0.000, -2.800, 0.0, , , , , , 95, , , 14, 14, 14
38.5387394, -120.5236221, 12.600, 10:32:41.226, 16, 0.00, 0.34, 98, 1.100, 2.400, 27.500, 398, 100, 100, 20, 22916, -21856, 5176, 5282, 22, 14, 1529515961.226, 6, 0, 1024, 1024, 1024, 1024, 0, 6, 3799, 3801, 3802, 3854, 3852, 3809, 0, 1, 9600, -89.900, 0.000, 26.800, 0.000, 0.000, -2.900, 0.0, , , , , , 95, , , 14, 14, 14
38.5387394, -120.5236221, 12.900, 10:32:41.326, 16, 0.00, 0.34, 98, 1.100, 2.400, 27.500, 398, 100, 100, 20, 22916, -21856, 5176, 5282, 22, 14, 1529515961.326, 8, 0, 1024, 1024, 1024, 1024, 0, 6, 3799, 3801, 3802, 3854, 3852, 3809, 0, 1, 9700, -89.900, 0.000, 26.800, 0.000, 0.000, -3.000, 0.0, , , , , , 95, , , 14, 14, 14
38.5387395, -120.5236221, 13.200, 10:32:41.426, 16, 0.00, 0.35, 98, 1.300, 2.500, 27.500, 398, 100, 100, 20, 22916, -21856, 5176, 5282, 22, 14, 1529515961.426, 16, 0, 1024, 1024, 1024, 1024, 0, 6, 3799, 3801, 3802, 3854, 3852, 3809, 0, 1, 9800, -89.900, 0.000, 26.800, 0.000, 0.000, -2.900, 0.0, , , , , , 95, , , 14, 14, 14
38.5387395, -120.5236220, 13.600, 10:32:41.526, 16, 0.00, 0.35, 98, 1.300, 2.500, 27.500, 398, 100, 100, 20, 22916, -21856, 5176, 5282, 22, 14, 1529515961.526, 11, 0, 1024, 1024, 1024, 1024, 0, 6, 3799, 3801, 3802, 3854, 3852, 3809, 0, 1, 9900, -89.900, 0.000, 26.800, 0.000, 0.000, -3.000, 0.0, , , , , , 95, , , 14, 14, 14
38.5387395, -120.5236220, 13.600, 10:32:41.626, 16, 0.00, 0.35, 98, 1.300, 2.500, 27.500, 398, 100, 100, 20, 22916, -21856, 5176, 5282, 22, 14, 1529515961.626, 110, 0, 1024, 1024, 1024, 1024, 0, 6, 3799, 3801, 3802, 3854, 3852, 3809, 0, 1, 10000, -89.900, 0.000, 26.800, 0.000, 0.000, -3.000, 0.0, , , , , , 95, , , 14, 14, 14
38.5387394, -120.5236220, 13.900, 10:32:41.726, 16, 0.00, 0.35, 98, 1.100, 2.500, 27.500, 398, 100, 100, 20, 22916, -21856, 5176, 5282, 22, 14, 1529515961.727, 98, 0, 1024, 1024, 1024, 1024, 0, 6, 3799, 3801, 3802, 3854, 3852, 3809, 0, 1, 10101, -89.900, 0.000, 26.800, 0.000, 0.000, -3.000, 0.0, , , , , , 95, , , 14, 14, 14
38.5387394, -120.5236220, 14.200, 10:32:41.826, 17, 0.10, 0.34, 98, 0.900, 2.300, 27.400, 398, 100, 100, 20, 22938, -21363, 5176, 5282, 22, 14, 1529515961.826, 98, 0, 1024, 1024, 1024, 1024, 0, 6, 3802, 3805, 3802, 3860, 3853, 3811, 0, 1, 10200, -89.900, 0.000, 26.800, -0.100, 0.000, -2.900, 0.0, , , , , , 95, , , 14, 14, 14
38.5387394, -120.5236221, 14.500, 10:32:41.926, 17, 0.10, 0.34, 98, 0.700, 2.100, 27.400, 398, 100, 100, 20, 22938, -21363, 5176, 5282, 22, 14, 1529515961.926, 89, 0, 1024, 1024, 1024, 1024, 0, 6, 3802, 3805, 3802, 3860, 3853, 3811, 0, 1, 10300, -89.900, 0.000, 26.800, -0.100, 0.000, -2.900, 0.0, , , , , , 95, , , 14, 14, 14
38.5387393, -120.5236222, 14.800, 10:32:42.025, 17, 0.10, 0.33, 98, 0.700, 1.800, 27.400, 398, 100, 100, 20, 22938, -21363, 5176, 5282, 22, 14, 1529515962.026, 77, 0, 1024, 1024, 1024, 1024, 0, 6, 3802, 3805, 3802, 3860, 3853, 3811, 0, 1, 10400, -89.900, 0.000, 26.800, -0.100, 0.000, -3.000, 0.0, , , , , , 95, , , 14, 14, 14
38.5387392, -120.5236222, 15.100, 10:32:42.126, 17, 0.10, 0.32, 98, 0.700, 1.700, 27.400, 398, 100, 100, 20, 22938, -21363, 5176, 5282, 22, 14, 1529515962.126, 81, 0, 1024, 1024, 1024, 1024, 0, 6, 3802, 3805, 3802, 3860, 3853, 3811, 0, 1, 10500, -89.900, 0.000, 26.800, -0.100, 0.000, -3.000, 0.0, , , , , , 95, , , 14, 14, 14
38.5387392, -120.5236222, 15.400, 10:32:42.226, 18, 0.10, 0.31, 98, 0.800, 1.600, 27.400, 398, 100, 100, 20, 22938, -21363, 5176, 5282, 22, 14, 1529515962.226, 55, 0, 1024, 1024, 1024, 1024, 0, 6, 3802, 3805, 3802, 3860, 3853, 3811, 0, 1, 10600, -89.900, 0.000, 26.800, -0.100, 0.000, -3.000, 0.0, , , , , , 95, , , 14, 14, 14
38.5387391, -120.5236222, 15.700, 10:32:42.326, 18, 0.10, 0.30, 98, 0.800, 1.500, 27.400, 398, 100, 100, 20, 22938, -21363, 5176, 5282, 22, 14, 1529515962.327, 61, 0, 1024, 1024, 1024, 1024, 0, 6, 3802, 3805, 3802, 3860, 3853, 3811, 0, 1, 10701, -89.900, 0.000, 26.800, -0.100, 0.000, -3.000, 0.0, , , , , , 95, , , 14, 14, 14
38.5387390, -120.5236223, 16.000, 10:32:42.426, 18, 0.10, 0.29, 98, 0.800, 1.400, 27.400, 398, 100, 99, 20, 22938, -21363, 5176, 5282, 22, 14, 1529515962.427, 17, 0, 1024, 1024, 1024, 1024, 0, 6, 3802, 3805, 3802, 3860, 3853, 3811, 0, 1, 10801, -90.000, 0.000, 26.800, -0.100, 0.000, -3.000, 0.0, , , , , , 95, , , 14, 14, 14
38.5387389, -120.5236223, 16.300, 10:32:42.526, 18, 0.10, 0.28, 98, 0.800, 1.300, 27.400, 398, 100, 99, 20, 22938, -21363, 5176, 5282, 22, 14, 1529515962.526, 45, 0, 1024, 1024, 1024, 1024, 0, 6, 3802, 3805, 3802, 3860, 3853, 3811, 0, 1, 10900, -89.900, 0.000, 26.800, -0.100, 0.000, -3.000, 0.0, , , , , , 95, , , 14, 14, 14
38.5387388, -120.5236224, 16.600, 10:32:42.626, 18, 0.10, 0.27, 98, 0.800, 1.200, 27.400, 398, 100, 99, 20, 22938, -21363, 5176, 5282, 22, 14, 1529515962.627, 37, 0, 1024, 1024, 1024, 1024, 0, 6, 3802, 3805, 3802, 3860, 3853, 3811, 0, 1, 11001, -90.000, 0.000, 26.800, -0.100, 0.000, -3.000, 0.0, , , , , , 95, , , 14, 14, 14
38.5387387, -120.5236224, 17.300, 10:32:42.726, 18, 0.10, 0.26, 98, 0.800, 1.400, 27.400, 398, 100, 99, 20, 22938, -21363, 5176, 5282, 22, 14, 1529515962.726, 44, 0, 1024, 1024, 1024, 1024, 0, 6, 3802, 3805, 3802, 3860, 3853, 3811, 0, 1, 11100, -89.900, 0.000, 26.800, -0.100, 0.000, -3.000, 0.0, , , , , , 95, , , 14, 14, 14
38.5387386, -120.5236225, 17.600, 10:32:42.826, 18, 0.10, 0.25, 98, 0.700, 1.600, 27.400, 398, 100, 99, 20, 22850, -22156, 5123, 5282, 22, 14, 1529515962.827, 30, 0, 1024, 1024, 1024, 1024, 0, 6, 3787, 3797, 3793, 3844, 3837, 3790, 0, 1, 11201, -89.900, 0.000, 26.800, -0.100, 0.000, -3.000, 0.0, , , , , , 95, , , 14, 14, 14
38.5387385, -120.5236225, 17.900, 10:32:42.926, 18, 0.10, 0.24, 98, 0.700, 1.500, 27.400, 398, 100, 98, 20, 22850, -22156, 5123, 5282, 22, 14, 1529515962.927, 42, 0, 1024, 1024, 1024, 1024, 0, 6, 3787, 3797, 3793, 3844, 3837, 3790, 0, 1, 11301, -89.900, 0.000, 26.800, -0.100, 0.000, -2.900, 0.0, , , , , , 95, , , 14, 14, 14
38.5387384, -120.5236225, 18.200, 10:32:43.025, 18, 0.10, 0.23, 98, 0.700, 1.300, 27.300, 398, 100, 98, 20, 22850, -22156, 5123, 5282, 22, 14, 1529515963.026, 44, 0, 1024, 1024, 1024, 1024, 0, 6, 3787, 3797, 3793, 3844, 3837, 3790, 0, 1, 11400, -89.900, 0.000, 26.800, -0.100, 0.000, -2.900, 0.0, , , , , , 95, , , 14, 14, 14
38.5387383, -120.5236225, 18.500, 10:32:43.126, 18, 0.00, 0.22, 98, 0.900, 1.200, 27.300, 398, 100, 98, 20, 22850, -22156, 5123, 5282, 22, 14, 1529515963.126, 39, 0, 1024, 1024, 1024, 1024, 0, 6, 3787, 3797, 3793, 3844, 3837, 3790, 0, 1, 11500, -89.900, 0.000, 26.800, 0.000, 0.000, -2.900, 0.0, , , , , , 95, , , 14, 14, 14
38.5387382, -120.5236226, 18.800, 10:32:43.226, 18, 0.00, 0.21, 98, 1.100, 1.200, 27.400, 398, 100, 98, 20, 22850, -22156, 5123, 5282, 22, 14, 1529515963.226, 29, 0, 1024, 1024, 1024, 1024, 0, 6, 3787, 3797, 3793, 3844, 3837, 3790, 0, 1, 11600, -89.900, 0.000, 26.800, 0.000, 0.000, -2.900, 0.0, , , , , , 95, , , 14, 14, 14
38.5387381, -120.5236226, 19.100, 10:32:43.326, 18, 0.00, 0.19, 97, 1.300, 1.100, 27.300, 398, 100, 98, 20, 22850, -22156, 5123, 5282, 22, 14, 1529515963.326, 17, 0, 1024, 1024, 1024, 1024, 0, 6, 3787, 3797, 3793, 3844, 3837, 3790, 0, 1, 11700, -89.900, 0.000, 26.800, 0.000, 0.000, -3.000, 0.0, , , , , , 95, , , 14, 14, 14
38.5387380, -120.5236227, 19.400, 10:32:43.426, 18, 0.10, 0.18, 97, 1.300, 1.000, 27.300, 398, 100, 98, 20, 22850, -22156, 5123, 5282, 22, 14, 1529515963.426, 17, 0, 1024, 1024, 1024, 1024, 0, 6, 3787, 3797, 3793, 3844, 3837, 3790, 0, 1, 11800, -90.000, 0.000, 26.800, -0.100, 0.000, -2.900, 0.0, , , , , , 95, , , 14, 14, 14
38.5387380, -120.5236227, 19.400, 10:32:43.526, 18, 0.10, 0.18, 97, 1.300, 1.000, 27.300, 398, 100, 98, 20, 22850, -22156, 5123, 5282, 22, 14, 1529515963.526, 117, 0, 1024, 1024, 1024, 1024, 0, 6, 3787, 3797, 3793, 3844, 3837, 3790, 0, 1, 11900, -90.000, 0.000, 26.800, -0.100, 0.000, -2.900, 0.0, , , , , , 95, , , 14, 14, 14
38.5387377, -120.5236227, 20.000, 10:32:43.626, 18, 0.00, 0.16, 97, 1.100, 0.600, 27.200, 398, 100, 98, 20, 22850, -22156, 5123, 5282, 22, 14, 1529515963.626, 14, 0, 1024, 1024, 1024, 1024, 0, 6, 3787, 3797, 3793, 3844, 3837, 3790, 0, 1, 12000, -90.000, 0.000, 26.800, 0.000, 0.000, -2.900, 0.0, , , , , , 95, , , 14, 14, 14
38.5387377, -120.5236227, 20.000, 10:32:43.726, 18, 0.00, 0.16, 97, 1.100, 0.600, 27.200, 398, 100, 98, 20, 22850, -22156, 5123, 5282, 22, 14, 1529515963.726, 114, 0, 1024, 1024, 1024, 1024, 0, 6, 3787, 3797, 3793, 3844, 3837, 3790, 0, 1, 12100, -90.000, 0.000, 26.800, 0.000, 0.000, -2.900, 0.0, , , , , , 95, , , 14, 14, 14
38.5387376, -120.5236227, 20.300, 10:32:43.826, 18, 0.00, 0.15, 97, 0.900, 0.500, 27.200, 398, 100, 98, 21, 22858, -21614, 5123, 5282, 22, 14, 1529515963.826, 98, 0, 1024, 1024, 1024, 1024, 0, 6, 3787, 3797, 3793, 3844, 3837, 3790, 0, 1, 12200, -90.000, 0.000, 26.800, 0.000, 0.000, -2.800, 0.0, , , , , , 95, , , 14, 14, 14
38.5387375, -120.5236227, 20.600, 10:32:43.925, 18, 0.00, 0.15, 97, 0.600, 0.600, 27.300, 398, 100, 99, 21, 22858, -21614, 5123, 5282, 22, 14, 1529515963.926, 77, 0, 1024, 1024, 1024, 1024, 0, 6, 3789, 3795, 3788, 3848, 3843, 3808, 0, 1, 12300, -90.000, 0.000, 26.800, 0.000, 0.000, -2.800, 0.0, , , , , , 95, , , 14, 14, 14
38.5387374, -120.5236226, 20.900, 10:32:44.026, 18, 0.00, 0.14, 97, 0.400, 0.700, 27.300, 398, 100, 99, 21, 22858, -21614, 5123, 5282, 22, 14, 1529515964.026, 87, 0, 1024, 1024, 1024, 1024, 0, 6, 3789, 3795, 3788, 3848, 3843, 3808, 0, 1, 12400, -89.900, 0.000, 26.800, 0.000, 0.000, -2.900, 0.0, , , , , , 95, , , 14, 14, 14
38.5387373, -120.5236226, 21.200, 10:32:44.126, 18, 0.00, 0.14, 97, 0.300, 0.800, 27.300, 398, 100, 99, 21, 22858, -21614, 5123, 5282, 22, 14, 1529515964.126, 78, 0, 1024, 1024, 1024, 1024, 0, 6, 3789, 3795, 3788, 3848, 3843, 3808, 0, 1, 12500, -89.900, 0.000, 26.800, 0.000, 0.000, -2.900, 0.0, , , , , , 95, , , 14, 14, 14
38.5387372, -120.5236226, 21.500, 10:32:44.226, 18, 0.00, 0.13, 97, 0.300, 0.800, 27.300, 398, 100, 99, 21, 22858, -21614, 5123, 5282, 22, 14, 1529515964.226, 81, 0, 1024, 1024, 1024, 1024, 0, 6, 3789, 3795, 3788, 3848, 3843, 3808, 0, 1, 12600, -89.900, 0.000, 26.800, 0.000, 0.000, -2.900, 0.0, , , , , , 95, , , 14, 14, 14
38.5387371, -120.5236226, 21.800, 10:32:44.326, 18, 0.00, 0.13, 97, 0.400, 0.800, 27.400, 398, 100, 99, 21, 22858, -21614, 5123, 5282, 22, 14, 1529515964.326, 73, 0, 1024, 1024, 1024, 1024, 0, 6, 3789, 3795, 3788, 3848, 3843, 3808, 0, 1, 12700, -90.000, 0.000, 26.800, 0.000, 0.000, -2.900, 0.0, , , , , , 95, , , 14, 14, 14
38.5387370, -120.5236226, 22.000, 10:32:44.426, 18, 0.00, 0.13, 97, 0.400, 0.800, 27.400, 398, 100, 100, 21, 22858, -21614, 5123, 5282, 22, 14, 1529515964.426, 75, 0, 1024, 1024, 1024, 1024, 0, 6, 3789, 3795, 3788, 3848, 3843, 3808, 0, 1, 12800, -89.900, 0.000, 26.800, 0.000, 0.000, -2.900, 0.0, , , , , , 95, , , 14, 14, 14
38.5387369, -120.5236225, 22.400, 10:32:44.526, 18, 0.00, 0.13, 97, 0.400, 0.700, 27.500, 398, 100, 100, 21, 22858, -21614, 5123, 5282, 22, 14, 1529515964.526, 42, 0, 1024, 1024, 1024, 1024, 0, 6, 3789, 3795, 3788, 3848, 3843, 3808, 0, 1, 12900, -90.000, 0.000, 26.800, 0.000, 0.000, -2.900, 0.0, , , , , , 95, , , 14, 14, 14
38.5387368, -120.5236225, 22.700, 10:32:44.626, 18, 0.00, 0.13, 97, 0.400, 0.700, 27.500, 398, 100, 100, 21, 22858, -21614, 5123, 5282, 22, 14, 1529515964.626, 50, 0, 1024, 1024, 1024, 1024, 0, 6, 3789, 3795, 3788, 3848, 3843, 3808, 0, 1, 13000, -90.000, 0.000, 26.800, 0.000, 0.000, -2.900, 0.0, , , , , , 95, , , 14, 14, 14
38.5387366, -120.5236225, 23.300, 10:32:44.726, 18, 0.00, 0.14, 97, 0.400, 0.600, 27.500, 398, 100, 100, 21, 22858, -21614, 5123, 5282, 22, 14, 1529515964.726, 52, 0, 1024, 1024, 1024, 1024, 0, 6, 3789, 3795, 3788, 3848, 3843, 3808, 0, 1, 13100, -89.900, 0.000, 26.800, 0.000, 0.000, -2.900, 0.0, , , , , , 95, , , 14, 14, 14
38.5387366, -120.5236225, 23.600, 10:32:44.826, 18, 0.00, 0.14, 97, 0.400, 0.700, 27.500, 398, 100, 100, 21, 22903, -20678, 5123, 5282, 22, 14, 1529515964.826, 16, 0, 1024, 1024, 1024, 1024, 0, 6, 3792, 3799, 3799, 3862, 3847, 3808, 0, 1, 13200, -89.900, 0.000, 26.800, 0.000, 0.000, -2.900, 0.0, , , , , , 95, , , 14, 14, 14
38.5387366, -120.5236225, 23.800, 10:32:44.926, 18, 0.00, 0.14, 97, 0.400, 0.700, 27.400, 398, 100, 100, 21, 22903, -20678, 5123, 5282, 22, 14, 1529515964.926, 28, 0, 1024, 1024, 1024, 1024, 0, 6, 3792, 3799, 3799, 3862, 3847, 3808, 0, 1, 13300, -89.900, 0.000, 26.800, 0.000, 0.000, -2.800, 0.0, , , , , , 95, , , 14, 14, 14
38.5387365, -120.5236225, 24.100, 10:32:45.026, 18, 0.00, 0.14, 97, 0.500, 0.800, 27.400, 398, 100, 100, 21, 22903, -20678, 5123, 5282, 22, 14, 1529515965.026, 22, 0, 1024, 1024, 1024, 1024, 0, 6, 3792, 3799, 3799, 3862, 3847, 3808, 0, 1, 13400, -90.000, 0.000, 26.800, 0.000, 0.000, -2.800, 0.0, , , , , , 95, , , 14, 14, 14
38.5387365, -120.5236225, 24.400, 10:32:45.126, 18, 0.00, 0.14, 97, 0.700, 0.700, 27.400, 398, 100, 100, 21, 22903, -20678, 5123, 5282, 22, 14, 1529515965.126, 28, 0, 1024, 1024, 1024, 1024, 0, 6, 3792, 3799, 3799, 3862, 3847, 3808, 0, 1, 13500, -90.000, 0.000, 26.800, 0.000, 0.000, -2.900, 0.0, , , , , , 95, , , 14, 14, 14
38.5387364, -120.5236224, 24.700, 10:32:45.226, 18, 0.00, 0.14, 97, 0.800, 0.800, 27.400, 398, 100, 100, 21, 22903, -20678, 5123, 5282, 22, 14, 1529515965.226, 29, 0, 1024, 1024, 1024, 1024, 0, 6, 3792, 3799, 3799, 3862, 3847, 3808, 0, 1, 13600, -90.000, 0.000, 26.800, 0.000, 0.000, -2.900, 0.0, , , , , , 95, , , 14, 14, 14
38.5387364, -120.5236224, 24.700, 10:32:45.326, 18, 0.00, 0.14, 97, 0.800, 0.800, 27.400, 398, 100, 100, 21, 22903, -20678, 5123, 5282, 22, 14, 1529515965.326, 129, 0, 1024, 1024, 1024, 1024, 0, 6, 3792, 3799, 3799, 3862, 3847, 3808, 0, 1, 13700, -90.000, 0.000, 26.800, 0.000, 0.000, -2.900, 0.0, , , , , , 95, , , 14, 14, 14
38.5387364, -120.5236224, 25.000, 10:32:45.426, 18, 0.00, 0.15, 97, 0.700, 0.900, 27.400, 398, 100, 100, 21, 22903, -20678, 5123, 5282, 22, 14, 1529515965.426, 97, 0, 1024, 1024, 1024, 1024, 0, 6, 3792, 3799, 3799, 3862, 3847, 3808, 0, 1, 13800, -90.000, 0.000, 26.800, 0.000, 0.000, -2.900, 0.0, , , , , , 95, , , 14, 14, 14
38.5387363, -120.5236223, 25.600, 10:32:45.525, 18, 0.00, 0.16, 97, 0.600, 0.900, 27.400, 398, 100, 100, 21, 22903, -20678, 5123, 5282, 22, 14, 1529515965.525, 10, 0, 1024, 1024, 1024, 1024, 0, 6, 3792, 3799, 3799, 3862, 3847, 3808, 0, 1, 13899, -90.000, 0.000, 26.800, 0.000, 0.000, -2.900, 0.0, , , , , , 95, , , 14, 14, 14
38.5387363, -120.5236223, 25.600, 10:32:45.626, 18, 0.00, 0.16, 97, 0.600, 0.900, 27.400, 398, 100, 100, 21, 22903, -20678, 5123, 5282, 22, 14, 1529515965.626, 111, 0, 1024, 1024, 1024, 1024, 0, 6, 3792, 3799, 3799, 3862, 3847, 3808, 0, 1, 14000, -90.000, 0.000, 26.800, 0.000, 0.000, -2.900, 0.0, , , , , , 95, , , 14, 14, 14
38.5387363, -120.5236223, 26.200, 10:32:45.726, 18, 0.00, 0.16, 97, 0.400, 0.900, 27.400, 398, 100, 100, 21, 22880, -20806, 5123, 5282, 22, 14, 1529515965.726, 13, 0, 1024, 1024, 1024, 1024, 0, 6, 3792, 3799, 3799, 3862, 3847, 3808, 0, 1, 14100, -89.900, 0.000, 26.800, 0.000, 0.000, -2.900, 0.0, , , , , , 95, , , 14, 14, 14
38.5387363, -120.5236222, 26.500, 10:32:45.838, 18, 0.00, 0.17, 97, 0.400, 1.000, 27.400, 398, 100, 100, 21, 22880, -20806, 5123, 5282, 22, 14, 1529515965.838, 5, 0, 1024, 1024, 1024, 1024, 0, 6, 3792, 3799, 3799, 3862, 3847, 3808, 0, 1, 14212, -89.900, 0.000, 26.800, 0.000, 0.000, -3.000, 0.0, , , , , , 95, , , 14, 14, 14
38.5387363, -120.5236221, 26.800, 10:32:45.926, 18, 0.00, 0.17, 97, 0.400, 1.000, 27.400, 398, 100, 100, 21, 22880, -20806, 5123, 5282, 22, 14, 1529515965.926, 4, 0, 1024, 1024, 1024, 1024, 0, 6, 3792, 3799, 3799, 3862, 3847, 3808, 0, 1, 14300, -89.900, 0.000, 26.800, 0.000, 0.000, -3.000, 0.0, , , , , , 95, , , 14, 14, 14
38.5387363, -120.5236221, 27.100, 10:32:46.026, 18, 0.00, 0.18, 97, 0.400, 1.000, 27.400, 398, 100, 100, 21, 22880, -20806, 5123, 5282, 22, 14, 1529515966.026, 5, 0, 1024, 1024, 1024, 1024, 0, 6, 3792, 3799, 3799, 3862, 3847, 3808, 0, 1, 14400, -89.900, 0.000, 26.800, 0.000, 0.000, -2.900, 0.0, , , , , , 95, , , 14, 14, 14
38.5387363, -120.5236221, 27.100, 10:32:46.126, 18, 0.00, 0.18, 97, 0.400, 1.000, 27.400, 398, 100, 100, 21, 22880, -20806, 5123, 5282, 22, 14, 1529515966.126, 105, 0, 1024, 1024, 1024, 1024, 0, 6, 3792, 3799, 3799, 3862, 3847, 3808, 0, 1, 14500, -89.900, 0.000, 26.800, 0.000, 0.000, -2.900, 0.0, , , , , , 95, , , 14, 14, 14
38.5387363, -120.5236221, 27.400, 10:32:46.226, 18, 0.00, 0.18, 97, 0.500, 1.100, 27.400, 398, 100, 100, 21, 22880, -20806, 5123, 5282, 22, 14, 1529515966.226, 73, 0, 1024, 1024, 1024, 1024, 0, 6, 3792, 3799, 3799, 3862, 3847, 3808, 0, 1, 14600, -89.900, 0.000, 26.800, 0.000, 0.000, -3.000, 0.0, , , , , , 95, , , 14, 14, 14
38.5387363, -120.5236221, 27.700, 10:32:46.326, 18, 0.00, 0.18, 97, 0.600, 1.100, 27.400, 398, 100, 100, 21, 22880, -20806, 5123, 5282, 22, 14, 1529515966.326, 90, 0, 1024, 1024, 1024, 1024, 0, 6, 3792, 3796, 3791, 3851, 3844, 3795, 0, 1, 14700, -89.900, 0.000, 26.800, 0.000, 0.000, -2.900, 0.0, , , , , , 95, , , 14, 14, 14
38.5387363, -120.5236221, 28.000, 10:32:46.426, 18, 0.00, 0.18, 97, 0.700, 1.000, 27.400, 398, 100, 100, 21, 22880, -20806, 5123, 5282, 22, 14, 1529515966.426, 70, 0, 1024, 1024, 1024, 1024, 0, 6, 3792, 3796, 3791, 3851, 3844, 3795, 0, 1, 14800, -90.000, 0.000, 26.800, 0.000, 0.000, -2.900, 0.0, , , , , , 95, , , 14, 14, 14
38.5387363, -120.5236220, 28.300, 10:32:46.526, 18, 0.00, 0.18, 97, 0.600, 1.000, 27.400, 398, 100, 100, 21, 22880, -20806, 5123, 5282, 22, 14, 1529515966.526, 73, 0, 1024, 1024, 1024, 1024, 0, 6, 3792, 3796, 3791, 3851, 3844, 3795, 0, 1, 14900, -90.000, 0.000, 26.800, 0.000, 0.000, -2.900, 0.0, , , , , , 95, , , 14, 14, 14
38.5387363, -120.5236220, 28.600, 10:32:46.626, 18, 0.00, 0.18, 97, 0.500, 1.000, 27.400, 398, 100, 100, 21, 22880, -20806, 5123, 5282, 22, 14, 1529515966.626, 66, 0, 1024, 1024, 1024, 1024, 0, 6, 3792, 3796, 3791, 3851, 3844, 3795, 0, 1, 15000, -90.000, 0.000, 26.800, 0.000, 0.000, -2.900, 0.0, , , , , , 95, , , 14, 14, 14
38.5387363, -120.5236220, 28.900, 10:32:46.726, 18, 0.00, 0.19, 97, 0.400, 0.900, 27.400, 398, 100, 100, 21, 22880, -20806, 5123, 5282, 22, 14, 1529515966.726, 67, 0, 1024, 1024, 1024, 1024, 0, 6, 3792, 3796, 3791, 3851, 3844, 3795, 0, 1, 15100, -90.000, 0.000, 26.800, 0.000, 0.000, -2.900, 0.0, , , , , , 95, , , 14, 14, 14
38.5387363, -120.5236219, 29.200, 10:32:46.826, 18, 0.00, 0.19, 97, 0.400, 0.900, 27.400, 398, 100, 100, 21, 22880, -20806, 5123, 5282, 22, 14, 1529515966.826, 69, 0, 1024, 1024, 1024, 1024, 0, 6, 3792, 3796, 3791, 3851, 3844, 3795, 0, 1, 15200, -89.900, 0.000, 26.800, 0.000, 0.000, -2.900, 0.0, , , , , , 95, , , 14, 14, 14
38.5387363, -120.5236219, 29.500, 10:32:46.926, 18, 0.00, 0.19, 97, 0.400, 1.100, 27.400, 398, 100, 100, 21, 22880, -20806, 5123, 5282, 22, 14, 1529515966.926, 41, 0, 1024, 1024, 1024, 1024, 0, 6, 3792, 3796, 3791, 3851, 3844, 3795, 0, 1, 15300, -89.900, 0.000, 26.800, 0.000, 0.000, -2.900, 0.0, , , , , , 95, , , 14, 14, 14
38.5387363, -120.5236218, 29.800, 10:32:47.026, 18, 0.00, 0.20, 97, 0.300, 1.300, 27.400, 398, 100, 100, 21, 22880, -20806, 5123, 5282, 22, 14, 1529515967.026, 43, 0, 1024, 1024, 1024, 1024, 0, 6, 3792, 3796, 3791, 3851, 3844, 3795, 0, 1, 15400, -89.900, 0.000, 26.800, 0.000, 0.000, -2.900, 0.0, , , , , , 95, , , 14, 14, 14
38.5387364, -120.5236218, 30.400, 10:32:47.125, 18, 0.00, 0.20, 97, 0.400, 1.300, 27.500, 398, 100, 100, 21, 22880, -20806, 5123, 5282, 22, 14, 1529515967.125, 50, 0, 1024, 1024, 1024, 1024, 0, 6, 3792, 3796, 3791, 3851, 3844, 3795, 0, 1, 15499, -89.900, 0.000, 26.800, 0.000, 0.000, -2.900, 0.0, , , , , , 95, , , 14, 14, 14
38.5387364, -120.5236218, 30.700, 10:32:47.226, 18, 0.00, 0.20, 97, 0.500, 1.400, 27.500, 398, 100, 100, 21, 22880, -20806, 5123, 5282, 22, 14, 1529515967.226, 48, 0, 1024, 1024, 1024, 1024, 0, 6, 3792, 3796, 3791, 3851, 3844, 3795, 0, 1, 15600, -89.900, 0.000, 26.800, 0.000, 0.000, -2.900, 0.0, , , , , , 95, , , 14, 14, 14
38.5387365, -120.5236218, 31.000, 10:32:47.326, 18, 0.00, 0.20, 97, 0.600, 1.500, 27.500, 398, 100, 100, 21, 22814, -20973, 5123, 5282, 22, 14, 1529515967.326, 15, 0, 1024, 1024, 1024, 1024, 0, 6, 3781, 3779, 3786, 3845, 3841, 3792, 0, 1, 15700, -89.900, 0.000, 26.800, 0.000, 0.000, -2.800, 0.0, , , , , , 95, , , 14, 14, 14
38.5387365, -120.5236218, 31.200, 10:32:47.426, 18, 0.00, 0.20, 97, 0.700, 1.500, 27.500, 398, 100, 100, 21, 22814, -20973, 5123, 5282, 22, 14, 1529515967.426, 16, 0, 1024, 1024, 1024, 1024, 0, 6, 3781, 3779, 3786, 3845, 3841, 3792, 0, 1, 15800, -89.900, 0.000, 26.800, 0.000, 0.000, -2.900, 0.0, , , , , , 95, , , 14, 14, 14
38.5387365, -120.5236217, 31.600, 10:32:47.526, 18, 0.00, 0.20, 97, 0.800, 1.500, 27.500, 398, 100, 100, 21, 22814, -20973, 5123, 5282, 22, 14, 1529515967.526, 33, 0, 1024, 1024, 1024, 1024, 0, 6, 3781, 3779, 3786, 3845, 3841, 3792, 0, 1, 15900, -89.900, 0.000, 26.800, 0.000, 0.000, -3.000, 0.0, , , , , , 95, , , 14, 14, 14
38.5387366, -120.5236218, 31.900, 10:32:47.626, 18, 0.00, 0.20, 97, 1.000, 1.400, 27.500, 398, 100, 100, 21, 22814, -20973, 5123, 5282, 22, 14, 1529515967.626, 22, 0, 1024, 1024, 1024, 1024, 0, 6, 3781, 3779, 3786, 3845, 3841, 3792, 0, 1, 16000, -89.900, 0.000, 26.800, 0.000, 0.000, -3.000, 0.0, , , , , , 95, , , 14, 14, 14
38.5387366, -120.5236218, 32.200, 10:32:47.726, 18, 0.00, 0.20, 97, 1.000, 1.400, 27.400, 398, 100, 100, 21, 22814, -20973, 5123, 5282, 22, 14, 1529515967.726, 15, 0, 1024, 1024, 1024, 1024, 0, 6, 3781, 3779, 3786, 3845, 3841, 3792, 0, 1, 16100, -89.900, 0.000, 26.800, 0.000, 0.000, -2.900, 0.0, , , , , , 95, , , 14, 14, 14
38.5387366, -120.5236218, 32.500, 10:32:47.826, 18, 0.00, 0.20, 97, 0.900, 1.300, 27.400, 398, 100, 100, 21, 22814, -20973, 5123, 5282, 22, 14, 1529515967.826, 12, 0, 1024, 1024, 1024, 1024, 0, 6, 3781, 3779, 3786, 3845, 3841, 3792, 0, 1, 16200, -89.900, 0.000, 26.800, 0.000, 0.000, -2.900, 0.0, , , , , , 95, , , 14, 14, 14
38.5387366, -120.5236217, 32.800, 10:32:47.926, 18, 0.00, 0.20, 97, 0.800, 1.300, 27.400, 398, 100, 100, 21, 22814, -20973, 5123, 5282, 22, 14, 1529515967.926, 3, 0, 1024, 1024, 1024, 1024, 0, 6, 3781, 3779, 3786, 3845, 3841, 3792, 0, 1, 16300, -89.900, 0.000, 26.800, 0.000, 0.000, -2.900, 0.0, , , , , , 95, , , 14, 14, 14
38.5387366, -120.5236217, 32.800, 10:32:48.026, 18, 0.00, 0.20, 97, 0.800, 1.300, 27.400, 398, 100, 100, 21, 22814, -20973, 5123, 5282, 22, 14, 1529515968.026, 103, 0, 1024, 1024, 1024, 1024, 0, 6, 3781, 3779, 3786, 3845, 3841, 3792, 0, 1, 16400, -89.900, 0.000, 26.800, 0.000, 0.000, -2.900, 0.0, , , , , , 95, , , 14, 14, 14
38.5387367, -120.5236217, 33.100, 10:32:48.126, 18, 0.00, 0.20, 97, 0.700, 1.300, 27.400, 398, 100, 100, 21, 22814, -20973, 5123, 5282, 22, 14, 1529515968.126, 95, 0, 1024, 1024, 1024, 1024, 0, 6, 3781, 3779, 3786, 3845, 3841, 3792, 0, 1, 16500, -89.900, 0.000, 26.800, 0.000, 0.000, -2.900, 0.0, , , , , , 95, , , 14, 14, 14
38.5387367, -120.5236217, 33.100, 10:32:48.226, 18, 0.00, 0.20, 97, 0.700, 1.300, 27.400, 398, 100, 100, 21, 22814, -20973, 5123, 5282, 22, 14, 1529515968.226, 195, 0, 1024, 1024, 1024, 1024, 0, 6, 3781, 3779, 3786, 3845, 3841, 3792, 0, 1, 16600, -89.900, 0.000, 26.800, 0.000, 0.000, -2.900, 0.0, , , , , , 95, , , 14, 14, 14
38.5387367, -120.5236217, 33.700, 10:32:48.326, 18, 0.00, 0.20, 97, 0.600, 1.400, 27.400, 398, 100, 100, 21, 22798, -20975, 5123, 5282, 22, 14, 1529515968.326, 88, 0, 1024, 1024, 1024, 1024, 0, 6, 3778, 3772, 3778, 3837, 3832, 3782, 0, 1, 16700, -89.900, 0.000, 26.800, 0.000, 0.000, -3.000, 0.0, , , , , , 95, , , 14, 14, 14
38.5387367, -120.5236217, 34.000, 10:32:48.426, 18, 0.00, 0.20, 97, 0.600, 1.500, 27.400, 398, 100, 100, 21, 22798, -20975, 5123, 5282, 22, 14, 1529515968.426, 90, 0, 1024, 1024, 1024, 1024, 0, 6, 3778, 3772, 3778, 3837, 3832, 3782, 0, 1, 16800, -89.900, 0.000, 26.800, 0.000, 0.000, -3.000, 0.0, , , , , , 95, , , 14, 14, 14
38.5387368, -120.5236217, 34.300, 10:32:48.526, 18, 0.00, 0.20, 97, 0.700, 1.500, 27.400, 398, 100, 100, 21, 22798, -20975, 5123, 5282, 22, 14, 1529515968.526, 93, 0, 1024, 1024, 1024, 1024, 0, 6, 3778, 3772, 3778, 3837, 3832, 3782, 0, 1, 16900, -89.900, 0.000, 26.800, 0.000, 0.000, -3.000, 0.0, , , , , , 95, , , 14, 14, 14
38.5387368, -120.5236218, 34.600, 10:32:48.626, 18, 0.00, 0.20, 97, 0.800, 1.400, 27.400, 398, 100, 100, 21, 22798, -20975, 5123, 5282, 22, 14, 1529515968.626, 71, 0, 1024, 1024, 1024, 1024, 0, 6, 3778, 3772, 3778, 3837, 3832, 3782, 0, 1, 17000, -89.900, 0.000, 26.800, 0.000, 0.000, -2.900, 0.0, , , , , , 95, , , 14, 14, 14
38.5387368, -120.5236218, 34.900, 10:32:48.725, 18, 0.00, 0.20, 97, 0.800, 1.300, 27.400, 398, 100, 100, 21, 22798, -20975, 5123, 5282, 22, 14, 1529515968.726, 76, 0, 1024, 1024, 1024, 1024, 0, 6, 3778, 3772, 3778, 3837, 3832, 3782, 0, 1, 17099, -90.000, 0.000, 26.800, 0.000, 0.000, -2.900, 0.0, , , , , , 95, , , 14, 14, 14
38.5387368, -120.5236218, 35.200, 10:32:48.826, 18, 0.00, 0.20, 97, 0.800, 1.300, 27.400, 398, 100, 100, 21, 22798, -20975, 5123, 5282, 22, 14, 1529515968.826, 70, 0, 1024, 1024, 1024, 1024, 0, 6, 3778, 3772, 3778, 3837, 3832, 3782, 0, 1, 17200, -89.900, 0.000, 26.800, 0.000, 0.000, -3.000, 0.0, , , , , , 95, , , 14, 14, 14
38.5387368, -120.5236218, 35.500, 10:32:48.925, 18, 0.00, 0.19, 97, 0.700, 1.300, 27.400, 398, 100, 100, 21, 22798, -20975, 5123, 5282, 22, 14, 1529515968.926, 63, 0, 1024, 1024, 1024, 1024, 0, 6, 3778, 3772, 3778, 3837, 3832, 3782, 0, 1, 17300, -89.900, 0.000, 26.800, 0.000, 0.000, -3.000, 0.0, , , , , , 95, , , 14, 14, 14
38.5387368, -120.5236218, 35.800, 10:32:49.026, 18, 0.00, 0.19, 97, 0.700, 1.200, 27.400, 398, 100, 100, 21, 22798, -20975, 5123, 5282, 22, 14, 1529515969.026, 45, 0, 1024, 1024, 1024, 1024, 0, 6, 3778, 3772, 3778, 3837, 3832, 3782, 0, 1, 17400, -89.900, 0.000, 26.800, 0.000, 0.000, -2.900, 0.0, , , , , , 95, , , 14, 14, 14
38.5387368, -120.5236219, 36.100, 10:32:49.126, 18, 0.00, 0.19, 97, 0.800, 1.100, 27.300, 398, 100, 100, 21, 22798, -20975, 5123, 5282, 22, 14, 1529515969.126, 69, 0, 1024, 1024, 1024, 1024, 0, 6, 3778, 3772, 3778, 3837, 3832, 3782, 0, 1, 17500, -89.900, 0.000, 26.800, 0.000, 0.000, -2.900, 0.0, , , , , , 95, , , 14, 14, 14
38.5387368, -120.5236219, 36.400, 10:32:49.226, 18, 0.00, 0.19, 97, 0.900, 1.200, 27.300, 398, 100, 100, 21, 22798, -20975, 5123, 5282, 22, 14, 1529515969.226, 47, 0, 1024, 1024, 1024, 1024, 0, 6, 3778, 3772, 3778, 3837, 3832, 3782, 0, 1, 17600, -89.900, 0.000, 26.800, 0.000, 0.000, -2.900, 0.0, , , , , , 95, , , 14, 14, 14
38.5387368, -120.5236219, 36.700, 10:32:49.326, 18, 0.00, 0.18, 97, 1.000, 1.400, 27.400, 398, 100, 100, 21, 22741, -21189, 5123, 5282, 22, 14, 1529515969.326, 54, 0, 1024, 1024, 1024, 1024, 0, 6, 3770, 3774, 3775, 3834, 3826, 3776, 0, 1, 17700, -89.900, 0.000, 26.800, 0.000, 0.000, -2.800, 0.0, , , , , , 95, , , 14, 14, 14
38.5387368, -120.5236219, 37.300, 10:32:49.426, 18, 0.00, 0.18, 97, 1.000, 1.500, 27.500, 398, 100, 100, 21, 22741, -21189, 5123, 5282, 22, 14, 1529515969.426, 53, 0, 1024, 1024, 1024, 1024, 0, 6, 3770, 3774, 3775, 3834, 3826, 3776, 0, 1, 17800, -89.900, 0.000, 26.800, 0.000, 0.000, -3.000, 0.0, , , , , , 95, , , 14, 14, 14
38.5387368, -120.5236219, 37.600, 10:32:49.526, 18, 0.00, 0.18, 97, 1.100, 1.400, 27.500, 398, 100, 100, 21, 22741, -21189, 5123, 5282, 22, 14, 1529515969.526, 32, 0, 1024, 1024, 1024, 1024, 0, 6, 3770, 3774, 3775, 3834, 3826, 3776, 0, 1, 17900, -89.900, 0.000, 26.800, 0.000, 0.000, -2.900, 0.0, , , , , , 95, , , 14, 14, 14
38.5387367, -120.5236219, 37.900, 10:32:49.626, 18, 0.00, 0.18, 97, 0.900, 1.200, 27.400, 398, 100, 100, 21, 22741, -21189, 5123, 5282, 22, 14, 1529515969.626, 32, 0, 1024, 1024, 1024, 1024, 0, 6, 3770, 3774, 3775, 3834, 3826, 3776, 0, 1, 18000, -90.000, 0.000, 26.800, 0.000, 0.000, -3.000, 0.0, , , , , , 95, , , 14, 14, 14
38.5387367, -120.5236219, 38.200, 10:32:49.726, 18, 0.00, 0.18, 97, 0.700, 1.000, 27.400, 398, 100, 100, 21, 22741, -21189, 5123, 5282, 22, 14, 1529515969.726, 27, 0, 1024, 1024, 1024, 1024, 0, 6, 3770, 3774, 3775, 3834, 3826, 3776, 0, 1, 18100, -90.000, 0.000, 26.800, 0.000, 0.000, -3.000, 0.0, , , , , , 95, , , 14, 14, 14
38.5387367, -120.5236220, 38.500, 10:32:49.825, 18, 0.00, 0.18, 97, 0.600, 0.900, 27.400, 398, 100, 100, 21, 22741, -21189, 5123, 5282, 22, 14, 1529515969.825, 28, 0, 1024, 1024, 1024, 1024, 0, 6, 3770, 3774, 3775, 3834, 3826, 3776, 0, 1, 18199, -89.900, 0.000, 26.800, 0.000, 0.000, -2.900, 0.0, , , , , , 95, , , 14, 14, 14
38.5387366, -120.5236220, 38.800, 10:32:49.925, 18, 0.00, 0.18, 97, 0.700, 0.900, 27.400, 398, 100, 100, 21, 22741, -21189, 5123, 5282, 22, 14, 1529515969.926, 10, 0, 1024, 1024, 1024, 1024, 0, 6, 3770, 3774, 3775, 3834, 3826, 3776, 0, 1, 18300, -89.900, 0.000, 26.800, 0.000, 0.000, -2.900, 0.0, , , , , , 95, , , 14, 14, 14
38.5387366, -120.5236220, 39.100, 10:32:50.025, 18, 0.00, 0.18, 97, 0.800, 1.000, 27.400, 398, 100, 100, 21, 22741, -21189, 5123, 5282, 22, 14, 1529515970.026, 12, 0, 1024, 1024, 1024, 1024, 0, 6, 3770, 3774, 3775, 3834, 3826, 3776, 0, 1, 18399, -90.000, 0.000, 26.800, 0.000, 0.000, -2.900, 0.0, , , , , , 95, , , 14, 14, 14
38.5387366, -120.5236221, 39.400, 10:32:50.125, 18, 0.00, 0.17, 97, 0.900, 1.000, 27.400, 398, 100, 100, 21, 22741, -21189, 5123, 5282, 22, 14, 1529515970.126, 29, 0, 1024, 1024, 1024, 1024, 0, 6, 3770, 3774, 3775, 3834, 3826, 3776, 0, 1, 18500, -89.900, 0.000, 26.800, 0.000, 0.000, -2.900, 0.0, , , , , , 95, , , 14, 14, 14
38.5387365, -120.5236221, 39.700, 10:32:50.225, 18, 0.00, 0.17, 97, 0.900, 0.900, 27.400, 398, 100, 100, 21, 22741, -21189, 5123, 5282, 22, 14, 1529515970.226, 31, 0, 1024, 1024, 1024, 1024, 0, 6, 3770, 3774, 3775, 3834, 3826, 3776, 0, 1, 18600, -89.900, 0.000, 26.800, 0.000, 0.000, -2.900, 0.0, , , , , , 95, , , 14, 14, 14
38.5387365, -120.5236221, 40.000, 10:32:50.325, 18, 0.00, 0.17, 97, 0.900, 0.900, 27.500, 398, 100, 99, 21, 22739, -21032, 5123, 5282, 22, 14, 1529515970.326, 19, 0, 1024, 1024, 1024, 1024, 0, 6, 3766, 3764, 3765, 3833, 3819, 3769, 0, 1, 18700, -90.000, 0.000, 26.800, 0.000, 0.000, -2.900, 0.0, , , , , , 95, , , 14, 14, 14
38.5387365, -120.5236221, 40.000, 10:32:50.425, 18, 0.00, 0.17, 97, 0.900, 0.900, 27.500, 398, 100, 99, 21, 22739, -21032, 5123, 5282, 22, 14, 1529515970.425, 119, 0, 1024, 1024, 1024, 1024, 0, 6, 3766, 3764, 3765, 3833, 3819, 3769, 0, 1, 18799, -90.000, 0.000, 26.800, 0.000, 0.000, -2.900, 0.0, , , , , , 95, , , 14, 14, 14
38.5387365, -120.5236221, 40.300, 10:32:50.525, 18, 0.00, 0.17, 97, 0.900, 0.800, 27.500, 398, 100, 99, 21, 22739, -21032, 5123, 5282, 22, 14, 1529515970.526, 98, 0, 1024, 1024, 1024, 1024, 0, 6, 3766, 3764, 3765, 3833, 3819, 3769, 0, 1, 18900, -90.000, 0.000, 26.800, 0.000, 0.000, -2.900, 0.0, , , , , , 95, , , 14, 14, 14
38.5387365, -120.5236222, 40.600, 10:32:50.625, 18, 0.00, 0.17, 97, 0.800, 0.800, 27.400, 398, 100, 99, 21, 22739, -21032, 5123, 5282, 22, 14, 1529515970.626, 66, 0, 1024, 1024, 1024, 1024, 0, 6, 3766, 3764, 3765, 3833, 3819, 3769, 0, 1, 19000, -90.000, 0.000, 26.800, 0.000, 0.000, -2.900, 0.0, , , , , , 95, , , 14, 14, 14
38.5387364, -120.5236222, 40.900, 10:32:50.726, 18, 0.00, 0.16, 97, 1.000, 0.800, 27.400, 398, 100, 99, 21, 22739, -21032, 5123, 5282, 22, 14, 1529515970.726, 79, 0, 1024, 1024, 1024, 1024, 0, 6, 3766, 3764, 3765, 3833, 3819, 3769, 0, 1, 19100, -89.900, 0.000, 26.800, 0.000, 0.000, -2.900, 0.0, , , , , , 95, , , 14, 14, 14
38.5387364, -120.5236222, 41.200, 10:32:50.825, 18, 0.00, 0.16, 97, 1.000, 0.800, 27.400, 398, 100, 99, 21, 22739, -21032, 5123, 5282, 22, 14, 1529515970.826, 69, 0, 1024, 1024, 1024, 1024, 0, 6, 3766, 3764, 3765, 3833, 3819, 3769, 0, 1, 19200, -89.900, 0.000, 26.800, 0.000, 0.000, -2.900, 0.0, , , , , , 95, , , 14, 14, 14
38.5387364, -120.5236223, 41.500, 10:32:50.926, 18, 0.00, 0.16, 97, 0.900, 0.800, 27.400, 398, 100, 98, 21, 22739, -21032, 5123, 5282, 22, 14, 1529515970.926, 75, 0, 1024, 1024, 1024, 1024, 0, 6, 3766, 3764, 3765, 3833, 3819, 3769, 0, 1, 19300, -90.000, 0.000, 26.800, 0.000, 0.000, -3.000, 0.0, , , , , , 95, , , 14, 14, 14
38.5387363, -120.5236223, 41.800, 10:32:51.025, 18, 0.00, 0.16, 97, 0.900, 0.800, 27.400, 398, 100, 98, 21, 22739, -21032, 5123, 5282, 22, 14, 1529515971.026, 66, 0, 1024, 1024, 1024, 1024, 0, 6, 3766, 3764, 3765, 3833, 3819, 3769, 0, 1, 19400, -90.000, 0.000, 26.800, 0.000, 0.000, -2.900, 0.0, , , , , , 95, , , 14, 14, 14
38.5387363, -120.5236223, 42.100, 10:32:51.125, 18, 0.00, 0.16, 97, 0.900, 0.700, 27.400, 398, 100, 98, 21, 22739, -21032, 5123, 5282, 22, 14, 1529515971.126, 50, 0, 1024, 1024, 1024, 1024, 0, 6, 3766, 3764, 3765, 3833, 3819, 3769, 0, 1, 19500, -89.900, 0.000, 26.800, 0.000, 0.000, -3.000, 0.0, , , , , , 95, , , 14, 14, 14
38.5387363, -120.5236223, 42.400, 10:32:51.226, 18, 0.00, 0.16, 97, 0.800, 0.700, 27.400, 398, 100, 98, 21, 22739, -21032, 5123, 5282, 22, 14, 1529515971.226, 57, 0, 1024, 1024, 1024, 1024, 0, 6, 3766, 3764, 3765, 3833, 3819, 3769, 0, 1, 19600, -89.900, 0.000, 26.800, 0.000, 0.000, -3.000, 0.0, , , , , , 95, , , 14, 14, 14
38.5387363, -120.5236223, 42.700, 10:32:51.325, 18, 0.00, 0.16, 97, 0.700, 0.800, 27.400, 398, 100, 98, 21, 22732, -20869, 5123, 5282, 22, 14, 1529515971.326, 59, 0, 1024, 1024, 1024, 1024, 0, 6, 3766, 3764, 3765, 3833, 3819, 3769, 0, 1, 19700, -89.900, 0.000, 26.800, 0.000, 0.000, -3.000, 0.0, , , , , , 95, , , 14, 14, 14
38.5387362, -120.5236223, 43.000, 10:32:51.425, 18, 0.00, 0.17, 97, 0.700, 0.800, 27.300, 398, 100, 97, 21, 22732, -20869, 5123, 5282, 22, 14, 1529515971.426, 62, 0, 1024, 1024, 1024, 1024, 0, 6, 3766, 3764, 3765, 3833, 3819, 3769, 0, 1, 19800, -89.900, 0.000, 26.800, 0.000, 0.000, -3.000, 0.0, , , , , , 95, , , 14, 14, 14
38.5387362, -120.5236222, 43.600, 10:32:51.525, 18, 0.00, 0.17, 97, 0.500, 0.900, 27.400, 398, 100, 97, 21, 22732, -20869, 5123, 5282, 22, 14, 1529515971.526, 60, 0, 1024, 1024, 1024, 1024, 0, 6, 3766, 3764, 3765, 3833, 3819, 3769, 0, 1, 19900, -89.900, 0.000, 26.800, 0.000, 0.000, -2.900, 0.0, , , , , , 95, , , 14, 14, 14
38.5387362, -120.5236222, 43.600, 10:32:51.625, 18, 0.00, 0.17, 97, 0.500, 0.900, 27.400, 398, 100, 97, 21, 22732, -20869, 5123, 5282, 22, 14, 1529515971.626, 160, 0, 1024, 1024, 1024, 1024, 0, 6, 3766, 3764, 3765, 3833, 3819, 3769, 0, 1, 20000, -89.900, 0.000, 26.800, 0.000, 0.000, -2.900, 0.0, , , , , , 95, , , 14, 14, 14
38.5387361, -120.5236222, 43.900, 10:32:51.725, 18, 0.00, 0.17, 97, 0.600, 0.800, 27.400, 398, 100, 97, 21, 22732, -20869, 5123, 5282, 22, 14, 1529515971.726, 29, 0, 1024, 1024, 1024, 1024, 0, 6, 3766, 3764, 3765, 3833, 3819, 3769, 0, 1, 20100, -90.000, 0.000, 26.800, 0.000, 0.000, -2.900, 0.0, , , , , , 95, , , 14, 14, 14
38.5387361, -120.5236223, 44.500, 10:32:51.825, 18, 0.00, 0.17, 97, 0.900, 0.900, 27.400, 398, 100, 97, 21, 22732, -20869, 5123, 5282, 22, 14, 1529515971.825, 28, 0, 1024, 1024, 1024, 1024, 0, 6, 3772, 3759, 3771, 3833, 3818, 3771, 0, 1, 20199, -90.000, 0.000, 26.800, 0.000, 0.000, -3.000, 0.0, , , , , , 95, , , 14, 14, 14
38.5387361, -120.5236223, 44.800, 10:32:51.925, 18, 0.00, 0.17, 97, 1.100, 0.700, 27.400, 398, 100, 97, 21, 22732, -20869, 5123, 5282, 22, 14, 1529515971.926, 32, 0, 1024, 1024, 1024, 1024, 0, 6, 3772, 3759, 3771, 3833, 3818, 3771, 0, 1, 20300, -90.000, 0.000, 26.800, 0.000, 0.000, -3.000, 0.0, , , , , , 95, , , 14, 14, 14
38.5387360, -120.5236223, 45.100, 10:32:52.025, 18, 0.00, 0.17, 97, 1.400, 0.500, 27.300, 398, 100, 97, 21, 22732, -20869, 5123, 5282, 22, 14, 1529515972.026, 20, 0, 1024, 1024, 1024, 1024, 0, 6, 3772, 3759, 3771, 3833, 3818, 3771, 0, 1, 20400, -90.000, 0.000, 26.800, 0.000, 0.000, -3.000, 0.0, , , , , , 95, , , 14, 14, 14
38.5387360, -120.5236223, 45.400, 10:32:52.125, 18, 0.00, 0.17, 97, 1.200, 0.200, 27.200, 398, 100, 97, 21, 22732, -20869, 5123, 5282, 22, 14, 1529515972.126, 36, 0, 1024, 1024, 1024, 1024, 0, 6, 3772, 3759, 3771, 3833, 3818, 3771, 0, 1, 20500, -90.000, 0.000, 26.800, 0.000, 0.000, -2.900, 0.0, , , , , , 95, , , 14, 14, 14
38.5387360, -120.5236223, 45.700, 10:32:52.225, 18, 0.00, 0.17, 97, 1.000, 0.200, 27.100, 398, 100, 97, 21, 22732, -20869, 5123, 5282, 22, 14, 1529515972.226, 37, 0, 1024, 1024, 1024, 1024, 0, 6, 3772, 3759, 3771, 3833, 3818, 3771, 0, 1, 20600, -90.000, 0.000, 26.800, 0.000, 0.000, -2.900, 0.0, , , , , , 95, , , 14, 14, 14
38.5387360, -120.5236222, 46.000, 10:32:52.325, 18, 0.00, 0.18, 97, 0.600, 0.400, 27.100, 398, 100, 98, 21, 22732, -20869, 5123, 5282, 22, 14, 1529515972.326, 16, 0, 1024, 1024, 1024, 1024, 0, 6, 3772, 3759, 3771, 3833, 3818, 3771, 0, 1, 20700, -89.900, 0.000, 26.800, 0.000, 0.000, -2.900, 0.0, , , , , , 95, , , 14, 14, 14
38.5387360, -120.5236222, 46.300, 10:32:52.425, 18, 0.00, 0.18, 97, 0.300, 0.800, 27.200, 398, 100, 98, 21, 22732, -20869, 5123, 5282, 22, 14, 1529515972.426, 32, 0, 1024, 1024, 1024, 1024, 0, 6, 3772, 3759, 3771, 3833, 3818, 3771, 0, 1, 20800, -89.900, 0.000, 26.800, 0.000, 0.000, -2.900, 0.0, , , , , , 95, , , 14, 14, 14
38.5387360, -120.5236222, 46.300, 10:32:52.525, 18, 0.00, 0.18, 97, 0.300, 0.800, 27.200, 398, 100, 98, 21, 22732, -20869, 5123, 5282, 22, 14, 1529515972.526, 132, 0, 1024, 1024, 1024, 1024, 0, 6, 3772, 3759, 3771, 3833, 3818, 3771, 0, 1, 20900, -89.900, 0.000, 26.800, 0.000, 0.000, -2.900, 0.0, , , , , , 95, , , 14, 14, 14
38.5387359, -120.5236221, 46.900, 10:32:52.625, 19, 0.00, 0.19, 97, 0.100, 0.900, 27.300, 398, 100, 98, 21, 22732, -20869, 5123, 5282, 22, 14, 1529515972.626, 17, 0, 1024, 1024, 1024, 1024, 0, 6, 3772, 3759, 3771, 3833, 3818, 3771, 0, 1, 21000, -89.900, 0.000, 26.800, 0.000, 0.000, -2.900, 0.0, , , , , , 95, , , 14, 14, 14
38.5387359, -120.5236220, 47.200, 10:32:52.725, 19, 0.00, 0.20, 97, 0.000, 0.900, 27.400, 398, 100, 98, 21, 22697, -20897, 5070, 5282, 22, 14, 1529515972.726, 10, 0, 1024, 1024, 1024, 1024, 0, 6, 3758, 3765, 3767, 3823, 3816, 3773, 0, 1, 21100, -89.900, 0.000, 26.800, 0.000, 0.000, -2.900, 0.0, , , , , , 95, , , 14, 14, 14
