latitude,longitude,altitude(feet),ascent(feet),speed(mph),distance(feet),time(millisecond),datetime(utc),satellites,gpslevel,voltage(v),max_altitude(feet),max_ascent(feet),max_speed(mph),max_distance(feet), xSpeed(mph), ySpeed(mph), zSpeed(mph), compass_heading(degrees), pitch(degrees), roll(degrees),isPhoto,isVideo,rc_elevator,rc_aileron,rc_throttle,rc_rudder,gimbal_heading(degrees),gimbal_pitch(degrees),battery_percent,voltageCell1,voltageCell2,voltageCell3,voltageCell4,voltageCell5,voltageCell6,current(A),battery_temperature(f),flycStateRaw,flycState,message
38.5386956,-120.52358,3702.9766155425,0,0,0,3100,2018-06-20 18:26:47,13,0,0,3702.9766155425,0,0,0,0,0,0,28.4, 1.1, 1.2,1,0,1024,1024,1024,1024,28.3,-89.9,100,4.252,4.245,4.227,4.254,4.238,4.259,0,69.8,11,AutoTakeoff,DJI_0574.jpg Starting Mission from Lat/Long: 38.53869/-120.52358 Camera: Zenmuse X3 - Overlap: 90/90 - Active Connection: No
38.5386956,-120.52358,3702.9766155425,0,0,0,3200,2018-06-20 18:26:47,13,0,0,3702.9766155425,0,0,0,0,0,0,28.5, 0.9, 0.9,0,0,1024,1024,1024,1024,28.3,-89.9,100,4.252,4.245,4.227,4.254,4.238,4.259,0,69.8,11,AutoTakeoff,
38.5386956,-120.5235801,3702.9766155425,0,0,0.028538058656,3300,2018-06-20 18:26:47,13,0,0,3702.9766155425,0,0,0.028538058656,0,0,0,28.6, 0.5, 0.1,0,0,1024,1024,1024,1024,28.3,-89.9,100,4.252,4.245,4.227,4.254,4.238,4.259,0,69.8,11,AutoTakeoff,
38.5386956,-120.5235801,3702.9766155425,0,0,0.028538058656,3400,2018-06-20 18:26:47,13,0,0,3702.9766155425,0,0,0.028538058656,0,0,0,28.7, 0.2, 0,0,0,1024,1024,1024,1024,28.3,-89.9,100,4.252,4.245,4.227,4.254,4.238,4.259,0,69.8,11,AutoTakeoff,
38.5386956,-120.5235802,3702.9766155425,0,0,0.057076117312,3500,2018-06-20 18:26:47,13,0,0,3702.9766155425,0,0,0.057076117312,0,0,0,28.8, -0.1, 0.1,0,0,1024,1024,1024,1024,28.3,-90,100,4.252,4.245,4.227,4.254,4.238,4.259,0,69.8,11,AutoTakeoff,
38.5386956,-120.5235803,3703.3046995425,0.328084,0,0.085614175968,3600,2018-06-20 18:26:47,12,0,0,3703.3046995425,0.328084,0,0.085614175968,0,0,0,28.7, -0.2, 0.1,0,0,1024,1024,1024,1024,28.3,-89.9,100,4.252,4.245,4.227,4.254,4.238,4.259,0,69.8,11,AutoTakeoff,
38.5386956,-120.5235803,3703.3046995425,0.328084,0,0.085614175968,3700,2018-06-20 18:26:48,12,0,0,3703.3046995425,0.328084,0,0.085614175968,0,0,0,28.6, -0.2, 0.2,0,0,1024,1024,1024,1024,28.3,-89.9,100,4.252,4.245,4.227,4.254,4.238,4.259,0,69.8,11,AutoTakeoff,
38.5386957,-120.5235804,3703.6327835425,0.656168,0,0.119841211184,3800,2018-06-20 18:26:48,12,0,0,3703.6327835425,0.656168,0,0.119841211184,0,0,0,28.6, -0.2, 0.4,0,0,1024,1024,1024,1024,28.3,-89.9,100,4.252,4.245,4.227,4.254,4.238,4.259,0,69.8,11,AutoTakeoff,
38.5386957,-120.5235805,3703.6327835425,0.656168,0,0.147280844608,3900,2018-06-20 18:26:48,12,0,0,3703.6327835425,0.656168,0,0.147280844608,0,0,0,28.5, -0.1, 0.6,0,0,1024,1024,1024,1024,28.3,-89.9,100,4.252,4.245,4.227,4.254,4.238,4.259,0,69.8,11,AutoTakeoff,
38.5386958,-120.5235805,3703.9608675425,0.984252,0,0.16026575316,4000,2018-06-20 18:26:48,13,0,25.671,3703.9608675425,0.984252,0,0.16026575316,0,0,0,28.4, -0.1, 0.8,0,0,1024,1024,1024,1024,28.3,-89.9,100,4.252,4.245,4.227,4.254,4.238,4.259,4.144,69.8,11,AutoTakeoff,
38.5386959,-120.5235806,3703.9608675425,0.984252,0,0.203222775532,4100,2018-06-20 18:26:48,13,0,25.671,3703.9608675425,0.984252,0,0.203222775532,0,0,0,28.4, 0, 0.8,0,0,1024,1024,1024,1024,28.3,-89.9,100,4.252,4.245,4.227,4.254,4.238,4.259,4.144,69.8,11,AutoTakeoff,
38.5386959,-120.5235806,3703.9608675425,0.984252,0,0.203222775532,4200,2018-06-20 18:26:48,13,0,25.671,3703.9608675425,0.984252,0,0.203222775532,0,0,0,28.3, 0.1, 0.8,0,0,1024,1024,1024,1024,28.3,-89.9,100,4.252,4.245,4.227,4.254,4.238,4.259,4.144,69.8,11,AutoTakeoff,
38.538696,-120.5235807,3704.2889515425,1.312336,0,0.24739666146,4300,2018-06-20 18:26:48,13,0,25.671,3704.2889515425,1.312336,0,0.24739666146,0,0,-0.223694,28.3, 0.4, 0.9,0,0,1024,1024,1024,1024,28.3,-89.9,100,4.252,4.245,4.227,4.254,4.238,4.259,4.144,69.8,11,AutoTakeoff,
38.5386961,-120.5235807,3704.6170355425,1.64042,0,0.270527895796,4400,2018-06-20 18:26:48,13,0,25.671,3704.6170355425,1.64042,0,0.270527895796,0,0,-0.223694,28.3, 0.5, 0.9,0,0,1024,1024,1024,1024,28.3,-89.9,100,4.252,4.245,4.227,4.254,4.238,4.259,4.144,69.8,11,AutoTakeoff,
38.5386962,-120.5235807,3704.6170355425,1.64042,0,0.296357949116,4500,2018-06-20 18:26:48,13,0,25.671,3704.6170355425,1.64042,0,0.296357949116,0,0,-0.223694,28.3, 0.6, 0.9,0,0,1024,1024,1024,1024,28.3,-89.9,100,4.252,4.245,4.227,4.254,4.238,4.259,4.144,69.8,11,AutoTakeoff,
38.5386963,-120.5235806,3704.9451195425,1.968504,0,0.307482621388,4600,2018-06-20 18:26:48,13,0,25.671,3704.9451195425,1.968504,0,0.307482621388,0,0,-0.223694,28.2, 0.7, 0.6,0,0,1024,1024,1024,1024,28.3,-89.9,100,4.252,4.245,4.227,4.254,4.238,4.259,4.144,69.8,11,AutoTakeoff,
38.5386963,-120.5235805,3705.2732035425,2.296588,0,0.2925525028,4700,2018-06-20 18:26:49,13,0,25.671,3705.2732035425,2.296588,0,0.307482621388,0,0,-0.223694,28.2, 0.7, 0.5,0,0,1024,1024,1024,1024,28.3,-89.9,100,4.252,4.245,4.227,4.254,4.238,4.259,4.144,69.8,11,AutoTakeoff,
38.5386964,-120.5235805,3705.2732035425,2.296588,0,0.324891086512,4800,2018-06-20 18:26:49,13,0,25.671,3705.2732035425,2.296588,0,0.324891086512,0,0,-0.223694,28.2, 0.8, 0.5,0,0,1024,1024,1024,1024,28.3,-89.9,100,4.252,4.245,4.227,4.254,4.238,4.259,4.144,69.8,11,AutoTakeoff,
38.5386964,-120.5235805,3705.6012875425,2.624672,0,0.324891086512,4900,2018-06-20 18:26:49,12,0,25.671,3705.6012875425,2.624672,0,0.324891086512,0,0,-0.223694,28.1, 0.9, 0.6,0,0,1024,1024,1024,1024,28.3,-89.9,100,4.252,4.245,4.227,4.254,4.238,4.259,4.144,69.8,11,AutoTakeoff,
38.5386964,-120.5235806,3705.9293715425,2.952756,0,0.33839896096,5000,2018-06-20 18:26:49,12,0,24.366,3705.9293715425,2.952756,0,0.33839896096,0,0,0,28.1, 0.9, 0.7,0,0,1024,1024,1024,1024,28.3,-89.9,100,4.042,4.042,4.069,4.08,4.046,4.058,15.961,69.8,11,AutoTakeoff,
38.5386964,-120.5235806,3705.9293715425,2.952756,0,0.33839896096,5100,2018-06-20 18:26:49,12,0,24.366,3705.9293715425,2.952756,0,0.33839896096,0,0,0,28.1, 0.9, 0.7,0,0,1024,1024,1024,1024,28.3,-89.9,100,4.042,4.042,4.069,4.08,4.046,4.058,15.961,69.8,14,Waypoint,
38.5386964,-120.5235806,3706.2574555425,3.28084,0,0.33839896096,5200,2018-06-20 18:26:49,12,0,24.366,3706.2574555425,3.28084,0,0.33839896096,0,0,0,28, 0.8, 0.5,0,0,1024,1024,1024,1024,28.3,-89.9,100,4.042,4.042,4.069,4.08,4.046,4.058,15.961,69.8,14,Waypoint,
38.5386964,-120.5235806,3706.2574555425,3.28084,0,0.33839896096,5300,2018-06-20 18:26:49,13,0,24.366,3706.2574555425,3.28084,0,0.33839896096,0,0,0,27.9, 0.7, 0.2,0,0,1024,1024,1024,1024,28.3,-89.9,100,4.042,4.042,4.069,4.08,4.046,4.058,15.961,69.8,14,Waypoint,
38.5386964,-120.5235806,3706.2574555425,3.28084,0,0.33839896096,5500,2018-06-20 18:26:49,13,0,24.366,3706.2574555425,3.28084,0,0.33839896096,0,0,0,27.8, 0.6, 0.1,0,0,1024,1024,1024,1024,28.3,-90,100,4.042,4.042,4.069,4.08,4.046,4.058,15.961,69.8,14,Waypoint,
38.5386964,-120.5235806,3706.5855395425,3.608924,0,0.33839896096,5600,2018-06-20 18:26:49,12,0,24.366,3706.5855395425,3.608924,0,0.33839896096,0,0,0,27.8, 0.4, 0.2,0,0,1024,1024,1024,1024,28.3,-90,100,4.042,4.042,4.069,4.08,4.046,4.058,15.961,69.8,14,Waypoint,
38.5386964,-120.5235806,3706.5855395425,3.608924,0,0.33839896096,5700,2018-06-20 18:26:50,12,0,24.366,3706.5855395425,3.608924,0,0.33839896096,0,0,-0.223694,27.8, 0.2, 0.3,0,0,1024,1024,1024,1024,28.3,-90,100,4.042,4.042,4.069,4.08,4.046,4.058,15.961,69.8,14,Waypoint,
38.5386963,-120.5235807,3706.9136235425,3.937008,0,0.32424213636,5800,2018-06-20 18:26:50,12,0,24.366,3706.9136235425,3.937008,0,0.33839896096,0,0,-0.223694,27.9, 0.1, 0.2,0,0,1024,1024,1024,1024,28.3,-90,100,4.042,4.042,4.069,4.08,4.046,4.058,15.961,69.8,14,Waypoint,
38.5386963,-120.5235807,3706.9136235425,3.937008,0,0.32424213636,5900,2018-06-20 18:26:50,12,0,24.366,3706.9136235425,3.937008,0,0.33839896096,0,0,-0.223694,27.9, 0, 0.1,0,0,1024,1024,1024,1024,28.3,-90,100,4.042,4.042,4.069,4.08,4.046,4.058,15.961,69.8,14,Waypoint,
38.5386963,-120.5235808,3707.2417075425,4.265092,0,0.34256234692,6000,2018-06-20 18:26:50,12,0,24.17,3707.2417075425,4.265092,0,0.34256234692,0,0,-0.223694,27.9, 0, 0.1,0,0,1024,1024,1024,1024,28.3,-90,100,4.015,4.023,4.037,4.05,4.014,4.038,16.262,69.8,14,Waypoint,
38.5386963,-120.5235808,3707.5697915425,4.593176,0,0.34256234692,6100,2018-06-20 18:26:50,12,0,24.17,3707.5697915425,4.593176,0,0.34256234692,0,0,-0.223694,27.9, 0.1, 0.3,0,0,1024,1024,1024,1024,28.3,-89.9,100,4.015,4.023,4.037,4.05,4.014,4.038,16.262,69.8,14,Waypoint,
38.5386963,-120.5235809,3708.2259595425,5.249344,0,0.36220801684,6200,2018-06-20 18:26:50,12,0,24.17,3708.2259595425,5.249344,0,0.36220801684,0,0,-0.223694,27.9, 0, 0.4,0,0,1024,1024,1024,1024,28.3,-90,100,4.015,4.023,4.037,4.05,4.014,4.038,16.262,69.8,14,Waypoint,
38.5386964,-120.5235809,3708.5540435425,5.577428,0,0.3887959442,6300,2018-06-20 18:26:50,12,0,24.17,3708.5540435425,5.577428,0,0.3887959442,0,0,-0.447388,28, 0.1, 0.6,0,0,1024,1024,1024,1024,28.3,-89.9,100,4.015,4.023,4.037,4.05,4.014,4.038,16.262,69.8,14,Waypoint,
38.5386965,-120.5235809,3709.2102115425,6.233596,0,0.41688321544,6400,2018-06-20 18:26:50,13,0,24.17,3709.2102115425,6.233596,0,0.41688321544,0,0,-0.447388,28, 0.2, 0.7,0,0,1024,1024,1024,1024,28.3,-89.9,100,4.015,4.023,4.037,4.05,4.014,4.038,16.262,69.8,14,Waypoint,
38.5386965,-120.5235809,3709.8663795425,6.889764,0,0.41688321544,6500,2018-06-20 18:26:50,13,0,24.17,3709.8663795425,6.889764,0,0.41688321544,0,0,-0.447388,28.1, 0.4, 0.7,0,0,1024,1024,1024,1024,28.3,-89.9,100,4.015,4.023,4.037,4.05,4.014,4.038,16.262,69.8,14,Waypoint,
38.5386966,-120.5235808,3711.5067995425,8.530184,0,0.43039371456,6600,2018-06-20 18:26:50,13,0,24.17,3711.5067995425,8.530184,0,0.43039371456,0,0,-0.671082,28.2, 0.6, 0.4,0,0,1024,1024,1024,1024,28.3,-89.9,100,4.015,4.023,4.037,4.05,4.014,4.038,16.262,69.8,14,Waypoint,
38.5386967,-120.5235807,3714.4595555425,11.48294,0,0.44830382012,6900,2018-06-20 18:26:51,13,0,24.17,3714.4595555425,11.48294,0,0.44830382012,0,0,-0.671082,28.2, 0.4, 0.4,0,0,1024,1024,1024,1024,28.3,-89.9,100,4.015,4.023,4.037,4.05,4.014,4.038,16.262,69.8,14,Waypoint,
38.5386968,-120.5235806,3715.7718915425,12.795276,0,0.4701115636,7000,2018-06-20 18:26:51,13,0,24.03,3715.7718915425,12.795276,0,0.4701115636,0,0,-0.671082,28.2, 0.4, 0.4,0,0,1024,1024,1024,1024,28.3,-89.9,100,3.982,3.993,4.016,4.01,4.021,3.982,16.417,69.8,14,Waypoint,
38.5386968,-120.5235805,3716.7561435425,13.779528,0,0.46048557904,7100,2018-06-20 18:26:51,12,0,24.03,3716.7561435425,13.779528,0,0.4701115636,0,0,-0.671082,28.1, 0.5, 0.3,0,0,1024,1024,1024,1024,28.3,-89.9,100,3.982,3.993,4.016,4.01,4.021,3.982,16.417,69.8,14,Waypoint,
38.5386968,-120.5235805,3717.7403955425,14.76378,0,0.46048557904,7200,2018-06-20 18:26:51,12,0,24.03,3717.7403955425,14.76378,0,0.4701115636,0,0,-0.671082,28.1, 0.5, 0.2,0,0,1024,1024,1024,1024,28.3,-89.9,100,3.982,3.993,4.016,4.01,4.021,3.982,16.417,69.8,14,Waypoint,
38.5386968,-120.5235805,3719.0527315425,16.076116,0,0.46048557904,7300,2018-06-20 18:26:51,13,0,24.03,3719.0527315425,16.076116,0,0.4701115636,0,0,-0.671082,28.1, 0.3, 0.2,0,0,1024,1024,1024,1024,28.3,-89.9,100,3.982,3.993,4.016,4.01,4.021,3.982,16.417,69.8,14,Waypoint,
38.538697,-120.5235805,3720.0369835425,17.060368,0,0.53034450516,7400,2018-06-20 18:26:51,13,0,24.03,3720.0369835425,17.060368,0,0.53034450516,0,0,-0.671082,28, 0.3, 0.2,0,0,1024,1024,1024,1024,28.3,-89.9,100,3.982,3.993,4.016,4.01,4.021,3.982,16.417,69.8,14,Waypoint,
38.5386971,-120.5235806,3721.0212355425,18.04462,0,0.57343505772,7600,2018-06-20 18:26:51,13,0,24.03,3721.0212355425,18.04462,0,0.57343505772,0,0,-0.671082,28, 0.6, 0.3,0,0,1024,1024,1024,1024,28.3,-89.9,100,3.982,3.993,4.016,4.01,4.021,3.982,16.417,69.8,14,Waypoint,
38.5386972,-120.5235806,3722.3335715425,19.356956,0,0.60835303784,7700,2018-06-20 18:26:52,13,0,24.03,3722.3335715425,19.356956,0,0.60835303784,0,0,-0.671082,28, 0.7, 0.5,0,0,1024,1024,1024,1024,28.3,-89.9,100,3.982,3.993,4.016,4.01,4.021,3.982,16.417,69.8,14,Waypoint,
38.5386972,-120.5235806,3723.3178235425,20.341208,0,0.60835303784,7800,2018-06-20 18:26:52,13,0,24.03,3723.3178235425,20.341208,0,0.60835303784,0,0,-0.671082,28, 0.8, 0.6,0,0,1024,1024,1024,1024,28.3,-89.9,100,3.982,3.993,4.016,4.01,4.021,3.982,16.417,69.8,14,Waypoint,
38.5386972,-120.5235806,3724.3020755425,21.32546,0,0.60835303784,7900,2018-06-20 18:26:52,13,0,24.03,3724.3020755425,21.32546,0,0.60835303784,0,0,-0.671082,28, 0.6, 0.7,0,0,1024,1024,1024,1024,28.3,-89.9,100,3.982,3.993,4.016,4.01,4.021,3.982,16.417,69.8,14,Waypoint,
38.5386972,-120.5235806,3725.2863275425,22.309712,0,0.60835303784,8000,2018-06-20 18:26:52,13,0,23.55,3725.2863275425,22.309712,0,0.60835303784,0,0,-0.671082,28.1, 0.6, 0.8,0,0,1024,1024,1024,1024,28.3,-89.9,100,3.907,3.916,3.937,3.931,3.887,3.911,23.017,69.8,14,Waypoint,
38.5386973,-120.5235806,3726.5986635425,23.622048,0,0.64344490248,8100,2018-06-20 18:26:52,13,0,23.55,3726.5986635425,23.622048,0,0.64344490248,0,0,-0.671082,28.1, 0.6, 0.8,0,0,1024,1024,1024,1024,28.3,-89.9,100,3.907,3.916,3.937,3.931,3.887,3.911,23.017,69.8,14,Waypoint,
38.5386973,-120.5235806,3727.5829155425,24.6063,0,0.64344490248,8200,2018-06-20 18:26:52,14,0,23.55,3727.5829155425,24.6063,0,0.64344490248,0,0,-0.671082,28.1, 0.7, 0.7,0,0,1024,1024,1024,1024,28.3,-89.9,100,3.907,3.916,3.937,3.931,3.887,3.911,23.017,69.8,14,Waypoint,
38.5386973,-120.5235807,3728.5671675425,25.590552,0,0.65162075576,8300,2018-06-20 18:26:52,14,0,23.55,3728.5671675425,25.590552,0,0.65162075576,0,0,-0.671082,28.2, 0.6, 0.6,0,0,1024,1024,1024,1024,28.3,-89.9,100,3.907,3.916,3.937,3.931,3.887,3.911,23.017,69.8,14,Waypoint,
38.5386972,-120.5235807,3729.5514195425,26.574804,0,0.6169947704,8400,2018-06-20 18:26:52,13,0,23.55,3729.5514195425,26.574804,0,0.65162075576,0,0,-0.671082,28.2, 0.5, 0.7,0,0,1024,1024,1024,1024,28.3,-89.9,100,3.907,3.916,3.937,3.931,3.887,3.911,23.017,69.8,14,Waypoint,
38.5386972,-120.5235808,3730.8637555425,27.88714,0,0.62681432452,8500,2018-06-20 18:26:52,13,0,23.55,3730.8637555425,27.88714,0,0.65162075576,0,0,-0.671082,28.3, 0.5, 0.6,0,0,1024,1024,1024,1024,28.3,-89.9,100,3.907,3.916,3.937,3.931,3.887,3.911,23.017,69.8,14,Waypoint,
38.5386972,-120.5235808,3731.8480075425,28.871392,0,0.62681432452,8600,2018-06-20 18:26:52,12,0,23.55,3731.8480075425,28.871392,0,0.65162075576,0,0,-0.671082,28.2, 0.5, 0.6,0,0,1024,1024,1024,1024,28.3,-89.9,100,3.907,3.916,3.937,3.931,3.887,3.911,23.017,69.8,14,Waypoint,
38.5386972,-120.5235808,3732.8322595425,29.855644,0,0.62681432452,8700,2018-06-20 18:26:53,12,0,23.55,3732.8322595425,29.855644,0,0.65162075576,0,0,-0.671082,28.2, 0.5, 0.5,0,0,1024,1024,1024,1024,28.3,-89.9,100,3.907,3.916,3.937,3.931,3.887,3.911,23.017,69.8,14,Waypoint,
38.5386972,-120.5235809,3733.8165115425,30.839896,0,0.6377624876,8800,2018-06-20 18:26:53,13,0,23.55,3733.8165115425,30.839896,0,0.65162075576,0,0,-0.671082,28.1, 0.5, 0.3,0,0,1024,1024,1024,1024,28.3,-89.9,100,3.907,3.916,3.937,3.931,3.887,3.911,23.017,69.8,14,Waypoint,
38.5386971,-120.5235809,3734.8007635425,31.824148,0,0.60454726344,8900,2018-06-20 18:26:53,13,0,23.55,3734.8007635425,31.824148,0,0.65162075576,0,0,-0.671082,28, 0.3, 0.3,0,0,1024,1024,1024,1024,28.3,-89.9,100,3.907,3.916,3.937,3.931,3.887,3.911,23.017,69.8,14,Waypoint,
38.5386972,-120.5235812,3736.7692675425,33.792652,0,0.67679464108,9000,2018-06-20 18:26:53,13,0,23.529,3736.7692675425,33.792652,0,0.67679464108,0,0,-0.671082,27.8, 0.3, 0.6,0,0,1024,1024,1024,1024,28.3,-89.9,100,3.907,3.916,3.937,3.931,3.887,3.911,18.848,69.8,14,Waypoint,
38.5386972,-120.5235814,3738.0816035425,35.104988,0,0.70739175492,9100,2018-06-20 18:26:53,13,0,23.529,3738.0816035425,35.104988,0,0.70739175492,0,0,-0.671082,27.7, 0.2, 0.8,0,0,1024,1024,1024,1024,28.3,-90,100,3.907,3.916,3.937,3.931,3.887,3.911,18.848,69.8,14,Waypoint,
38.5386971,-120.5235814,3739.0658555425,36.08924,0,0.67759516604,9200,2018-06-20 18:26:53,13,0,23.529,3739.0658555425,36.08924,0,0.70739175492,0,0,-0.671082,27.7, 0.1, 1,0,0,1024,1024,1024,1024,28.3,-90,100,3.907,3.916,3.937,3.931,3.887,3.911,18.848,69.8,14,Waypoint,
38.5386971,-120.5235815,3740.0501075425,37.073492,0,0.69480645268,9300,2018-06-20 18:26:53,14,0,23.529,3740.0501075425,37.073492,0,0.70739175492,0,0,-0.671082,27.7, 0, 1.1,0,0,1024,1024,1024,1024,28.3,-89.9,100,3.907,3.916,3.937,3.931,3.887,3.911,18.848,69.8,14,Waypoint,
38.538697,-120.5235815,3741.0343595425,38.057744,0,0.66644687172,9400,2018-06-20 18:26:53,14,0,23.529,3741.0343595425,38.057744,0,0.70739175492,0,0,-0.671082,27.7, 0, 1,0,0,1024,1024,1024,1024,28.3,-89.9,100,3.907,3.916,3.937,3.931,3.887,3.911,18.848,69.8,14,Waypoint,
38.5386968,-120.5235815,3743.0028635425,40.026248,0,0.61231629256,9600,2018-06-20 18:26:53,14,0,23.529,3743.0028635425,40.026248,0,0.70739175492,0,0,-0.671082,27.8, -0.3, 0.5,0,0,1024,1024,1024,1024,28.3,-90,100,3.907,3.916,3.937,3.931,3.887,3.911,18.848,69.8,14,Waypoint,
38.5386967,-120.5235816,3743.9871155425,41.0105,0,0.60791668612,9800,2018-06-20 18:26:54,15,0,23.529,3743.9871155425,41.0105,0,0.70739175492,0,0,-0.671082,27.9, -0.6, 0.4,0,0,1024,1024,1024,1024,28.3,-90,100,3.907,3.916,3.937,3.931,3.887,3.911,18.848,69.8,14,Waypoint,
38.5386966,-120.5235816,3744.9713675425,41.994752,0,0.58447180348,9900,2018-06-20 18:26:54,15,0,23.529,3744.9713675425,41.994752,0,0.70739175492,0,0,-0.671082,27.9, -0.7, 0.4,0,0,1024,1024,1024,1024,28.3,-90,100,3.907,3.916,3.937,3.931,3.887,3.911,18.848,69.8,14,Waypoint,
38.5386966,-120.5235816,3745.9556195425,42.979004,0,0.58447180348,10000,2018-06-20 18:26:54,15,0,23.529,3745.9556195425,42.979004,0,0.70739175492,0,0,-0.671082,28, -0.6, 0.4,0,0,1024,1024,1024,1024,28.3,-89.9,98,3.93,3.948,3.945,3.958,3.917,3.953,18.848,69.8,14,Waypoint,
38.5386965,-120.5235816,3746.9398715425,43.963256,0,0.562417997,10100,2018-06-20 18:26:54,15,0,23.529,3746.9398715425,43.963256,0,0.70739175492,0,0,-0.671082,28, -0.5, 0.3,0,0,1024,1024,1024,1024,28.3,-89.9,98,3.93,3.948,3.945,3.958,3.917,3.953,18.848,69.8,14,Waypoint,
38.5386965,-120.5235816,3747.9241235425,44.947508,0,0.562417997,10200,2018-06-20 18:26:54,15,0,23.529,3747.9241235425,44.947508,0,0.70739175492,0,0,-0.671082,28, -0.3, 0.2,0,0,1024,1024,1024,1024,28.3,-89.9,98,3.93,3.948,3.945,3.958,3.917,3.953,18.848,69.8,14,Waypoint,
38.5386965,-120.5235816,3748.9083755425,45.93176,0,0.562417997,10300,2018-06-20 18:26:54,15,0,23.529,3748.9083755425,45.93176,0,0.70739175492,0,0,-0.671082,27.9, 0, 0.1,0,0,1024,1024,1024,1024,28.3,-89.9,98,3.93,3.948,3.945,3.958,3.917,3.953,18.848,69.8,14,Waypoint,
38.5386965,-120.5235815,3749.8926275425,46.916012,0,0.53950789128,10400,2018-06-20 18:26:54,16,0,23.529,3749.8926275425,46.916012,0,0.70739175492,0,0,-0.671082,27.9, 0.2, 0.1,0,0,1024,1024,1024,1024,28.3,-89.9,98,3.93,3.948,3.945,3.958,3.917,3.953,18.848,69.8,14,Waypoint,
38.5386965,-120.5235815,3751.2049635425,48.228348,0,0.53950789128,10500,2018-06-20 18:26:54,16,0,23.529,3751.2049635425,48.228348,0,0.70739175492,0,0,-0.671082,27.9, 0.4, 0.2,0,0,1024,1024,1024,1024,28.3,-89.9,98,3.93,3.948,3.945,3.958,3.917,3.953,18.848,69.8,14,Waypoint,
38.5386965,-120.5235814,3752.1892155425,49.2126,0,0.51715552836,10600,2018-06-20 18:26:54,16,0,23.529,3752.1892155425,49.2126,0,0.70739175492,0,0,-0.671082,27.9, 0.5, 0.1,0,0,1024,1024,1024,1024,28.3,-89.9,98,3.93,3.948,3.945,3.958,3.917,3.953,18.848,69.8,14,Waypoint,
38.5386965,-120.5235814,3753.1734675425,50.196852,0,0.51715552836,10700,2018-06-20 18:26:55,16,0,23.529,3753.1734675425,50.196852,0,0.70739175492,0,0,-0.671082,27.9, 0.5, 0,0,0,1024,1024,1024,1024,28.3,-89.9,98,3.93,3.948,3.945,3.958,3.917,3.953,18.848,69.8,14,Waypoint,
38.5386965,-120.5235814,3754.1577195425,51.181104,0,0.51715552836,10800,2018-06-20 18:26:55,16,0,23.529,3754.1577195425,51.181104,0,0.70739175492,0,0,-0.671082,27.9, 0.3, 0.1,0,0,1024,1024,1024,1024,28.3,-89.9,98,3.93,3.948,3.945,3.958,3.917,3.953,18.848,69.8,14,Waypoint,
38.5386964,-120.5235814,3755.1419715425,52.165356,0,0.49479332292,10900,2018-06-20 18:26:55,16,0,23.529,3755.1419715425,52.165356,0,0.70739175492,0,0,-0.671082,28, 0.2, 0.2,0,0,1024,1024,1024,1024,28.3,-89.9,98,3.93,3.948,3.945,3.958,3.917,3.953,18.848,69.8,14,Waypoint,
38.5386964,-120.5235814,3756.1262235425,53.149608,0,0.49479332292,11000,2018-06-20 18:26:55,16,0,23.682,3756.1262235425,53.149608,0,0.70739175492,0,0,-0.671082,28.1, 0.1, 0.4,0,0,1024,1024,1024,1024,28.3,-89.9,98,3.924,3.938,3.961,3.972,3.933,3.956,18.927,69.8,14,Waypoint,
38.5386965,-120.5235814,3757.1104755425,54.13386,0,0.51715552836,11100,2018-06-20 18:26:55,16,0,23.682,3757.1104755425,54.13386,0,0.70739175492,0,0,-0.671082,28.1, 0.2, 0.4,0,0,1024,1024,1024,1024,28.3,-89.9,98,3.924,3.938,3.961,3.972,3.933,3.956,18.927,69.8,14,Waypoint,
38.5386965,-120.5235814,3758.0947275425,55.118112,0,0.51715552836,11200,2018-06-20 18:26:55,16,0,23.682,3758.0947275425,55.118112,0,0.70739175492,0,0,-0.671082,28.2, 0.4, 0.4,0,0,1024,1024,1024,1024,28.3,-89.9,98,3.924,3.938,3.961,3.972,3.933,3.956,18.927,69.8,14,Waypoint,
38.5386965,-120.5235814,3760.0632315425,57.086616,0,0.51715552836,11300,2018-06-20 18:26:55,16,0,23.682,3760.0632315425,57.086616,0,0.70739175492,0,0,-0.671082,28.2, 0.5, 0.3,0,0,1024,1024,1024,1024,28.3,-89.9,98,3.924,3.938,3.961,3.972,3.933,3.956,18.927,69.8,14,Waypoint,
38.5386965,-120.5235813,3761.0474835425,58.070868,0,0.4954396484,11400,2018-06-20 18:26:55,16,0,23.682,3761.0474835425,58.070868,0,0.70739175492,0,0,-0.671082,28.2, 0.3, 0.3,0,0,1024,1024,1024,1024,28.3,-89.9,98,3.924,3.938,3.961,3.972,3.933,3.956,18.927,69.8,14,Waypoint,
38.5386965,-120.5235813,3762.0317355425,59.05512,0,0.4954396484,11500,2018-06-20 18:26:55,16,0,23.682,3762.0317355425,59.05512,0,0.70739175492,0,0,-0.671082,28.2, 0.1, 0.3,0,0,1024,1024,1024,1024,28.3,-89.9,98,3.924,3.938,3.961,3.972,3.933,3.956,18.927,69.8,14,Waypoint,
38.5386965,-120.5235813,3763.0159875425,60.039372,0,0.4954396484,11600,2018-06-20 18:26:55,16,0,23.682,3763.0159875425,60.039372,0,0.70739175492,0,0,-0.671082,28.1, 0.2, 0.2,0,0,1024,1024,1024,1024,28.3,-89.9,98,3.924,3.938,3.961,3.972,3.933,3.956,18.927,69.8,14,Waypoint,
38.5386965,-120.5235812,3764.0002395425,61.023624,0,0.47444555324,11700,2018-06-20 18:26:56,16,0,23.682,3764.0002395425,61.023624,0,0.70739175492,0,0,-0.671082,28, 0.1, 0.1,0,0,1024,1024,1024,1024,28.3,-89.9,98,3.924,3.938,3.961,3.972,3.933,3.956,18.927,69.8,14,Waypoint,
38.5386965,-120.5235812,3764.9844915425,62.007876,0,0.47444555324,11800,2018-06-20 18:26:56,16,0,23.682,3764.9844915425,62.007876,0,0.70739175492,0,0,-0.671082,27.9, 0, 0.2,0,0,1024,1024,1024,1024,28.3,-90,98,3.924,3.938,3.961,3.972,3.933,3.956,18.927,69.8,14,Waypoint,
38.5386965,-120.5235812,3765.9687435425,62.992128,0,0.47444555324,11900,2018-06-20 18:26:56,16,0,23.682,3765.9687435425,62.992128,0,0.70739175492,0,0,-0.671082,27.8, 0, 0.2,0,0,1024,1024,1024,1024,28.3,-89.9,98,3.924,3.938,3.961,3.972,3.933,3.956,18.927,69.8,14,Waypoint,
38.5386965,-120.5235812,3766.9529955425,63.97638,0,0.47444555324,12000,2018-06-20 18:26:56,16,0,23.644,3766.9529955425,63.97638,0,0.70739175492,0,0,-0.671082,27.7, 0, 0.2,0,0,1024,1024,1024,1024,28.3,-90,98,3.909,3.93,3.961,3.972,3.941,3.941,18.639,69.8,14,Waypoint,
38.5386965,-120.5235812,3767.9372475425,64.960632,0,0.47444555324,12200,2018-06-20 18:26:56,16,0,23.644,3767.9372475425,64.960632,0,0.70739175492,0,0,-0.671082,27.7, 0, 0.3,0,0,1024,1024,1024,1024,28.3,-89.9,98,3.909,3.93,3.961,3.972,3.941,3.941,18.639,69.8,14,Waypoint,
38.5386965,-120.5235811,3768.9214995425,65.944884,0,0.45427822976,12300,2018-06-20 18:26:56,16,0,23.644,3768.9214995425,65.944884,0,0.70739175492,0,0,-0.671082,27.7, 0.2, 0.3,0,0,1024,1024,1024,1024,28.3,-89.9,98,3.909,3.93,3.961,3.972,3.941,3.941,18.639,69.8,14,Waypoint,
38.5386966,-120.5235811,3769.9057515425,66.929136,0,0.48131235136,12400,2018-06-20 18:26:56,16,0,23.644,3769.9057515425,66.929136,0,0.70739175492,0,0,-0.671082,27.8, 0.3, 0.3,0,0,1024,1024,1024,1024,28.3,-89.9,98,3.909,3.93,3.961,3.972,3.941,3.941,18.639,69.8,14,Waypoint,
38.5386966,-120.523581,3770.8900035425,67.913388,0,0.46320211456,12500,2018-06-20 18:26:56,16,0,23.644,3770.8900035425,67.913388,0,0.70739175492,0,0,-0.671082,27.8, 0.5, 0.2,0,0,1024,1024,1024,1024,28.3,-89.9,98,3.909,3.93,3.961,3.972,3.941,3.941,18.639,69.8,14,Waypoint,
38.5386967,-120.523581,3771.8742555425,68.89764,0,0.492454084,12600,2018-06-20 18:26:56,16,0,23.644,3771.8742555425,68.89764,0,0.70739175492,0,0,-0.671082,27.9, 0.7, 0,0,0,1024,1024,1024,1024,28.3,-89.9,98,3.909,3.93,3.961,3.972,3.941,3.941,18.639,69.8,14,Waypoint,
38.5386967,-120.523581,3772.8585075425,69.881892,0,0.492454084,12700,2018-06-20 18:26:57,16,0,23.644,3772.8585075425,69.881892,0,0.70739175492,0,0,-0.671082,28, 0.8, 0.1,0,0,1024,1024,1024,1024,28.3,-89.9,98,3.909,3.93,3.961,3.972,3.941,3.941,18.639,69.8,14,Waypoint,
38.5386968,-120.5235809,3773.8427595425,70.866144,0,0.5075951606,12800,2018-06-20 18:26:57,16,0,23.644,3773.8427595425,70.866144,0,0.70739175492,0,0,-0.671082,28, 0.9, 0.3,0,0,1024,1024,1024,1024,28.3,-89.9,98,3.909,3.93,3.961,3.972,3.941,3.941,18.639,69.8,14,Waypoint,
38.5386968,-120.5235809,3774.8270115425,71.850396,0,0.5075951606,12900,2018-06-20 18:26:57,16,0,23.644,3774.8270115425,71.850396,0,0.70739175492,0,0,-0.671082,28, 1, 0.3,0,0,1024,1024,1024,1024,28.3,-89.9,98,3.909,3.93,3.961,3.972,3.941,3.941,18.639,69.8,14,Waypoint,
38.5386969,-120.5235808,3775.8112635425,72.834648,0,0.52639109296,13000,2018-06-20 18:26:57,16,0,23.645,3775.8112635425,72.834648,0,0.70739175492,0,0,-0.671082,27.9, 0.8, 0.2,0,0,1024,1024,1024,1024,28.3,-89.9,98,3.916,3.934,3.949,3.967,3.928,3.946,18.552,69.8,14,Waypoint,
38.5386969,-120.5235808,3776.7955155425,73.8189,0,0.52639109296,13100,2018-06-20 18:26:57,16,0,23.645,3776.7955155425,73.8189,0,0.70739175492,0,0,-0.671082,27.9, 0.7, 0.2,0,0,1024,1024,1024,1024,28.3,-89.9,98,3.916,3.934,3.949,3.967,3.928,3.946,18.552,69.8,14,Waypoint,
38.5386969,-120.5235807,3777.7797675425,74.803152,0,0.51465552828,13200,2018-06-20 18:26:57,16,0,23.645,3777.7797675425,74.803152,0,0.70739175492,0,0,-0.671082,27.9, 0.6, 0,0,0,1024,1024,1024,1024,28.3,-89.9,98,3.916,3.934,3.949,3.967,3.928,3.946,18.552,69.8,14,Waypoint,
38.5386969,-120.5235808,3778.7640195425,75.787404,0,0.52639109296,13300,2018-06-20 18:26:57,16,0,23.645,3778.7640195425,75.787404,0,0.70739175492,0,0,-0.671082,27.9, 0.6, 0,0,0,1024,1024,1024,1024,28.3,-89.9,98,3.916,3.934,3.949,3.967,3.928,3.946,18.552,69.8,14,Waypoint,
38.538697,-120.5235808,3780.7325235425,77.755908,0,0.55948820688,13400,2018-06-20 18:26:57,16,0,23.645,3780.7325235425,77.755908,0,0.70739175492,0,0,-0.671082,27.9, 0.8, 0.5,0,0,1024,1024,1024,1024,28.3,-89.9,98,3.916,3.934,3.949,3.967,3.928,3.946,18.552,69.8,14,Waypoint,
38.5386971,-120.5235808,3781.7167755425,78.74016,0,0.59298558328,13500,2018-06-20 18:26:57,16,0,23.645,3781.7167755425,78.74016,0,0.70739175492,0,0,-0.671082,27.8, 0.8, 0.6,0,0,1024,1024,1024,1024,28.3,-89.9,98,3.916,3.934,3.949,3.967,3.928,3.946,18.552,69.8,14,Waypoint,
38.5386971,-120.5235808,3782.7010275425,79.724412,0,0.59298558328,13600,2018-06-20 18:26:57,16,0,23.645,3782.7010275425,79.724412,0,0.70739175492,0,0,-0.671082,27.8, 0.8, 0.6,0,0,1024,1024,1024,1024,28.3,-89.9,98,3.916,3.934,3.949,3.967,3.928,3.946,18.552,69.8,14,Waypoint,
38.5386972,-120.5235808,3783.3571955425,80.38058,0,0.62681432452,13700,2018-06-20 18:26:58,16,0,23.645,3783.3571955425,80.38058,0,0.70739175492,0,0,-0.671082,27.8, 0.9, 0.7,0,0,1024,1024,1024,1024,28.3,-89.9,98,3.916,3.934,3.949,3.967,3.928,3.946,18.552,69.8,14,Waypoint,
38.5386972,-120.5235808,3784.3414475425,81.364832,0,0.62681432452,13800,2018-06-20 18:26:58,16,0,23.645,3784.3414475425,81.364832,0,0.70739175492,0,0,-0.671082,27.8, 0.9, 0.8,0,0,1024,1024,1024,1024,28.3,-89.9,98,3.916,3.934,3.949,3.967,3.928,3.946,18.552,69.8,14,Waypoint,
38.5386972,-120.5235808,3786.6380355425,83.66142,0,0.62681432452,14000,2018-06-20 18:26:58,17,0,23.626,3786.6380355425,83.66142,0,0.70739175492,0,0,-0.671082,28.1, 0.6, 0.2,0,0,1024,1024,1024,1024,28.3,-89.9,98,3.92,3.939,3.944,3.968,3.916,3.954,18.597,69.8,14,Waypoint,
38.5386972,-120.5235808,3787.6222875425,84.645672,0,0.62681432452,14100,2018-06-20 18:26:58,17,0,23.626,3787.6222875425,84.645672,0,0.70739175492,0,0,-0.671082,28.2, 0.4, 0,0,0,1024,1024,1024,1024,28.3,-89.9,98,3.92,3.939,3.944,3.968,3.916,3.954,18.597,69.8,14,Waypoint,
38.5386972,-120.5235808,3788.6065395425,85.629924,0,0.62681432452,14300,2018-06-20 18:26:58,17,0,23.626,3788.6065395425,85.629924,0,0.70739175492,0,0,-0.671082,28.2, 0.3, 0,0,0,1024,1024,1024,1024,28.3,-89.9,98,3.92,3.939,3.944,3.968,3.916,3.954,18.597,69.8,14,Waypoint,
38.5386972,-120.5235808,3789.5907915425,86.614176,0,0.62681432452,14400,2018-06-20 18:26:58,17,0,23.626,3789.5907915425,86.614176,0,0.70739175492,0,0,-0.671082,28.2, 0.3, 0,0,0,1024,1024,1024,1024,28.3,-89.9,98,3.92,3.939,3.944,3.968,3.916,3.954,18.597,69.8,14,Waypoint,
38.5386972,-120.5235809,3790.2469595425,87.270344,0,0.6377624876,14500,2018-06-20 18:26:58,17,0,23.626,3790.2469595425,87.270344,0,0.70739175492,0,0,-0.671082,28.1, 0.4, 0.2,0,0,1024,1024,1024,1024,28.3,-89.9,98,3.92,3.939,3.944,3.968,3.916,3.954,18.597,69.8,14,Waypoint,
38.5386972,-120.5235809,3791.2312115425,88.254596,0,0.6377624876,14600,2018-06-20 18:26:58,17,0,23.626,3791.2312115425,88.254596,0,0.70739175492,0,0,-0.671082,28.1, 0.5, 0.5,0,0,1024,1024,1024,1024,28.3,-89.9,98,3.92,3.939,3.944,3.968,3.916,3.954,18.597,69.8,14,Waypoint,
38.5386972,-120.523581,3792.2154635425,89.238848,0,0.64978348536,14700,2018-06-20 18:26:59,17,0,23.626,3792.2154635425,89.238848,0,0.70739175492,0,0,-0.671082,28.1, 0.4, 0.7,0,0,1024,1024,1024,1024,28.3,-89.9,98,3.92,3.939,3.944,3.968,3.916,3.954,18.597,69.8,14,Waypoint,
38.5386971,-120.523581,3793.1997155425,90.2231,0,0.61721130584,14800,2018-06-20 18:26:59,17,0,23.626,3793.1997155425,90.2231,0,0.70739175492,0,0,-0.671082,28.1, 0.3, 0.8,0,0,1024,1024,1024,1024,28.3,-89.9,98,3.92,3.939,3.944,3.968,3.916,3.954,18.597,69.8,14,Waypoint,
38.5386971,-120.523581,3794.1839675425,91.207352,0,0.61721130584,14900,2018-06-20 18:26:59,17,0,23.626,3794.1839675425,91.207352,0,0.70739175492,0,0,-0.671082,28.1, 0.3, 0.8,0,0,1024,1024,1024,1024,28.3,-89.9,98,3.92,3.939,3.944,3.968,3.916,3.954,18.597,69.8,14,Waypoint,
38.5386971,-120.5235811,3795.1682195425,92.191604,0,0.63091537452,15000,2018-06-20 18:26:59,17,0,23.624,3795.1682195425,92.191604,0,0.70739175492,0,0,-0.671082,28.1, 0.2, 0.7,0,0,1024,1024,1024,1024,28.3,-89.9,98,3.912,3.927,3.941,3.963,3.909,3.938,18.539,69.8,14,Waypoint,
38.5386971,-120.5235811,3796.4805555425,93.50394,0,0.63091537452,15100,2018-06-20 18:26:59,17,0,23.624,3796.4805555425,93.50394,0,0.70739175492,0,0,-0.671082,28.1, 0.3, 0.6,0,0,1024,1024,1024,1024,28.3,-90,98,3.912,3.927,3.941,3.963,3.909,3.938,18.539,69.8,14,Waypoint,
38.538697,-120.5235811,3797.4648075425,94.488192,0,0.5995407016,15200,2018-06-20 18:26:59,17,0,23.624,3797.4648075425,94.488192,0,0.70739175492,0,0,-0.671082,28, 0.1, 0.3,0,0,1024,1024,1024,1024,28.3,-89.9,98,3.912,3.927,3.941,3.963,3.909,3.938,18.539,69.8,14,Waypoint,
38.538697,-120.5235811,3798.4490595425,95.472444,0,0.5995407016,15300,2018-06-20 18:26:59,17,0,23.624,3798.4490595425,95.472444,0,0.70739175492,0,0,-0.671082,27.9, 0, 0.2,0,0,1024,1024,1024,1024,28.3,-90,98,3.912,3.927,3.941,3.963,3.909,3.938,18.539,69.8,14,Waypoint,
38.5386969,-120.5235811,3799.4333115425,96.456696,0,0.56877954576,15400,2018-06-20 18:26:59,17,0,23.624,3799.4333115425,96.456696,0,0.70739175492,0,0,-0.671082,27.8, 0, 0.1,0,0,1024,1024,1024,1024,28.3,-90,98,3.912,3.927,3.941,3.963,3.909,3.938,18.539,69.8,14,Waypoint,
38.5386969,-120.5235812,3800.4175635425,97.440948,0,0.58501314208,15500,2018-06-20 18:26:59,17,0,23.624,3800.4175635425,97.440948,0,0.70739175492,0,0,-0.671082,27.8, 0, 0.2,0,0,1024,1024,1024,1024,28.3,-90,98,3.912,3.927,3.941,3.963,3.909,3.938,18.539,69.8,14,Waypoint,
38.5386969,-120.5235812,3802.0579835425,99.081368,0,0.58501314208,15600,2018-06-20 18:26:59,17,0,23.624,3802.0579835425,99.081368,0,0.70739175492,0,0,-0.671082,27.7, 0, 0.3,0,0,1024,1024,1024,1024,28.3,-90,98,3.912,3.927,3.941,3.963,3.909,3.938,18.539,69.8,14,Waypoint,
38.5386969,-120.5235812,3803.0422355425,100.06562,0,0.58501314208,15700,2018-06-20 18:27:00,17,0,23.624,3803.0422355425,100.06562,0,0.70739175492,0,0,-0.671082,27.7, 0, 0.3,0,0,1024,1024,1024,1024,28.3,-89.9,98,3.912,3.927,3.941,3.963,3.909,3.938,18.539,69.8,14,Waypoint,
38.5386968,-120.5235812,3804.0264875425,101.049872,0,0.55584319364,15800,2018-06-20 18:27:00,17,0,23.624,3804.0264875425,101.049872,0,0.70739175492,0,0,-0.671082,27.7, 0.2, 0.3,0,0,1024,1024,1024,1024,28.3,-89.9,98,3.912,3.927,3.941,3.963,3.909,3.938,18.539,69.8,14,Waypoint,
38.5386969,-120.5235812,3806.9792435425,104.002628,0,0.58501314208,16100,2018-06-20 18:27:00,17,0,23.624,3806.9792435425,104.002628,0,0.70739175492,0,0,-0.671082,27.9, 0.6, 0,0,0,1024,1024,1024,1024,28.3,-89.9,98,3.912,3.927,3.941,3.963,3.909,3.938,18.539,69.8,14,Waypoint,
38.5386969,-120.5235812,3807.9634955425,104.98688,0,0.58501314208,16200,2018-06-20 18:27:00,17,0,23.624,3807.9634955425,104.98688,0,0.70739175492,0,0,-0.671082,28.1, 0.8, 0.1,0,0,1024,1024,1024,1024,28.3,-89.9,98,3.912,3.927,3.941,3.963,3.909,3.938,18.539,69.8,14,Waypoint,
38.5386969,-120.5235812,3808.9477475425,105.971132,0,0.58501314208,16300,2018-06-20 18:27:00,17,0,23.624,3808.9477475425,105.971132,0,0.70739175492,0,0,-0.671082,28.2, 0.8, 0.2,0,0,1024,1024,1024,1024,28.3,-89.9,98,3.912,3.927,3.941,3.963,3.909,3.938,18.539,69.8,14,Waypoint,
38.5386969,-120.5235812,3809.9319995425,106.955384,0,0.58501314208,16400,2018-06-20 18:27:00,17,0,23.624,3809.9319995425,106.955384,0,0.70739175492,0,0,-0.671082,28.3, 0.7, 0.1,0,0,1024,1024,1024,1024,28.3,-89.9,98,3.912,3.927,3.941,3.963,3.909,3.938,18.539,69.8,14,Waypoint,
38.5386969,-120.5235813,3810.9162515425,107.939636,0,0.6021653736,16600,2018-06-20 18:27:00,17,0,23.624,3810.9162515425,107.939636,0,0.70739175492,0,0,-0.671082,28.5, 0.5, 0.1,0,0,1024,1024,1024,1024,28.3,-89.9,98,3.912,3.927,3.941,3.963,3.909,3.938,18.539,69.8,14,Waypoint,
38.5386968,-120.5235813,3811.9005035425,108.923888,0,0.5738681286,16700,2018-06-20 18:27:01,17,0,23.624,3811.9005035425,108.923888,0,0.70739175492,0,0,-0.671082,28.6, 0.4, 0,0,0,1024,1024,1024,1024,28.3,-89.9,98,3.912,3.927,3.941,3.963,3.909,3.938,18.539,69.8,14,Waypoint,
38.5386968,-120.5235813,3812.8847555425,109.90814,0,0.5738681286,16800,2018-06-20 18:27:01,17,0,23.624,3812.8847555425,109.90814,0,0.70739175492,0,0,-0.671082,28.7, 0.4, 0,0,0,1024,1024,1024,1024,28.3,-89.9,98,3.912,3.927,3.941,3.963,3.909,3.938,18.539,69.8,14,Waypoint,
38.5386968,-120.5235813,3813.8690075425,110.892392,0,0.5738681286,16900,2018-06-20 18:27:01,17,0,23.624,3813.8690075425,110.892392,0,0.70739175492,0,0,-0.671082,28.7, 0.3, 0.1,0,0,1024,1024,1024,1024,28.3,-89.9,98,3.912,3.927,3.941,3.963,3.909,3.938,18.539,69.8,14,Waypoint,
38.5386968,-120.5235813,3814.8532595425,111.876644,0,0.5738681286,17000,2018-06-20 18:27:01,17,0,23.603,3814.8532595425,111.876644,0,0.70739175492,0,0,-0.671082,28.6, 0.3, 0.5,0,0,1024,1024,1024,1024,28.3,-89.9,98,3.908,3.931,3.941,3.963,3.909,3.944,18.072,71.6,14,Waypoint,
38.5386968,-120.5235813,3815.8375115425,112.860896,0,0.5738681286,17100,2018-06-20 18:27:01,17,0,23.603,3815.8375115425,112.860896,0,0.70739175492,0,0,-0.671082,28.4, 0.3, 0.7,0,0,1024,1024,1024,1024,28.3,-89.9,98,3.908,3.931,3.941,3.963,3.909,3.944,18.072,71.6,14,Waypoint,
38.5386968,-120.5235813,3816.8217635425,113.845148,0,0.5738681286,17200,2018-06-20 18:27:01,17,0,23.603,3816.8217635425,113.845148,0,0.70739175492,0,0,-0.671082,28.3, 0.5, 0.7,0,0,1024,1024,1024,1024,28.3,-89.9,98,3.908,3.931,3.941,3.963,3.909,3.944,18.072,71.6,14,Waypoint,
38.5386968,-120.5235813,3817.8060155425,114.8294,0,0.5738681286,17300,2018-06-20 18:27:01,17,0,23.603,3817.8060155425,114.8294,0,0.70739175492,0,0,-0.671082,28.1, 0.7, 0.6,0,0,1024,1024,1024,1024,28.3,-89.9,98,3.908,3.931,3.941,3.963,3.909,3.944,18.072,71.6,14,Waypoint,
38.5386969,-120.5235813,3818.7902675425,115.813652,0,0.6021653736,17400,2018-06-20 18:27:01,17,0,23.603,3818.7902675425,115.813652,0,0.70739175492,0,0,-0.671082,28, 0.9, 0.5,0,0,1024,1024,1024,1024,28.3,-89.9,98,3.908,3.931,3.941,3.963,3.909,3.944,18.072,71.6,14,Waypoint,
38.5386969,-120.5235813,3819.7745195425,116.797904,0,0.6021653736,17500,2018-06-20 18:27:01,17,0,23.603,3819.7745195425,116.797904,0,0.70739175492,0,0,-0.671082,27.9, 1.1, 0.4,0,0,1024,1024,1024,1024,28.3,-89.9,98,3.908,3.931,3.941,3.963,3.909,3.944,18.072,71.6,14,Waypoint,
38.5386969,-120.5235813,3820.7587715425,117.782156,0,0.6021653736,17600,2018-06-20 18:27:01,17,0,23.603,3820.7587715425,117.782156,0,0.70739175492,0,0,-0.671082,27.9, 1.1, 0.4,0,0,1024,1024,1024,1024,28.3,-89.9,98,3.908,3.931,3.941,3.963,3.909,3.944,18.072,71.6,14,Waypoint,
38.5386969,-120.5235813,3821.7430235425,118.766408,0,0.6021653736,17700,2018-06-20 18:27:02,17,0,23.603,3821.7430235425,118.766408,0,0.70739175492,0,0,-0.671082,27.9, 1, 0.4,0,0,1024,1024,1024,1024,28.3,-89.9,98,3.908,3.931,3.941,3.963,3.909,3.944,18.072,71.6,14,Waypoint,
38.5386969,-120.5235813,3822.7272755425,119.75066,0,0.6021653736,17800,2018-06-20 18:27:02,17,0,23.603,3822.7272755425,119.75066,0,0.70739175492,0,0,-0.671082,27.9, 0.8, 0.5,0,0,1024,1024,1024,1024,28.3,-89.9,98,3.908,3.931,3.941,3.963,3.909,3.944,18.072,71.6,14,Waypoint,
38.5386969,-120.5235813,3823.7115275425,120.734912,0,0.6021653736,17900,2018-06-20 18:27:02,17,0,23.603,3823.7115275425,120.734912,0,0.70739175492,0,0,-0.671082,27.9, 0.6, 0.5,0,0,1024,1024,1024,1024,28.3,-89.9,98,3.908,3.931,3.941,3.963,3.909,3.944,18.072,71.6,14,Waypoint,
38.5386969,-120.5235813,3824.6957795425,121.719164,0,0.6021653736,18000,2018-06-20 18:27:02,17,0,23.549,3824.6957795425,121.719164,0,0.70739175492,0,0,-0.671082,28, 0.6, 0.5,0,0,1024,1024,1024,1024,28.3,-89.9,98,3.896,3.92,3.934,3.958,3.904,3.937,18.326,71.6,14,Waypoint,
38.5386969,-120.5235813,3825.6800315425,122.703416,0,0.6021653736,18100,2018-06-20 18:27:02,17,0,23.549,3825.6800315425,122.703416,0,0.70739175492,0,0,-0.671082,28, 0.5, 0.5,0,0,1024,1024,1024,1024,28.3,-89.9,98,3.896,3.92,3.934,3.958,3.904,3.937,18.326,71.6,14,Waypoint,
38.5386969,-120.5235813,3826.6642835425,123.687668,0,0.6021653736,18200,2018-06-20 18:27:02,17,0,23.549,3826.6642835425,123.687668,0,0.70739175492,0,0,-0.671082,27.9, 0.6, 0.5,0,0,1024,1024,1024,1024,28.3,-89.9,98,3.896,3.92,3.934,3.958,3.904,3.937,18.326,71.6,14,Waypoint,
38.5386969,-120.5235814,3827.6485355425,124.67192,0,0.62015421932,18300,2018-06-20 18:27:02,17,0,23.549,3827.6485355425,124.67192,0,0.70739175492,0,0,-0.671082,27.8, 0.7, 0.5,0,0,1024,1024,1024,1024,28.3,-89.9,98,3.896,3.92,3.934,3.958,3.904,3.937,18.326,71.6,14,Waypoint,
38.5386969,-120.5235814,3829.6170395425,126.640424,0,0.62015421932,18400,2018-06-20 18:27:02,17,0,23.549,3829.6170395425,126.640424,0,0.70739175492,0,0,-0.671082,27.7, 0.8, 0.6,0,0,1024,1024,1024,1024,28.3,-89.9,98,3.896,3.92,3.934,3.958,3.904,3.937,18.326,71.6,14,Waypoint,
38.5386969,-120.5235814,3831.5855435425,128.608928,0,0.62015421932,18600,2018-06-20 18:27:02,17,0,23.549,3831.5855435425,128.608928,0,0.70739175492,0,0,-0.671082,27.6, 0.9, 0.7,0,0,1024,1024,1024,1024,28.3,-89.9,98,3.896,3.92,3.934,3.958,3.904,3.937,18.326,71.6,14,Waypoint,
38.538697,-120.5235813,3832.5697955425,129.59318,0,0.63130251364,18700,2018-06-20 18:27:03,17,0,23.549,3832.5697955425,129.59318,0,0.70739175492,0,0,-0.671082,27.7, 1, 0.6,0,0,1024,1024,1024,1024,28.3,-89.9,98,3.896,3.92,3.934,3.958,3.904,3.937,18.326,71.6,14,Waypoint,
38.5386969,-120.5235813,3833.5540475425,130.577432,0,0.6021653736,18800,2018-06-20 18:27:03,17,0,23.549,3833.5540475425,130.577432,0,0.70739175492,0,0,-0.671082,27.8, 1.1, 0.6,0,0,1024,1024,1024,1024,28.3,-89.9,98,3.896,3.92,3.934,3.958,3.904,3.937,18.326,71.6,14,Waypoint,
38.5386969,-120.5235813,3834.5382995425,131.561684,0,0.6021653736,18900,2018-06-20 18:27:03,17,0,23.549,3834.5382995425,131.561684,0,0.70739175492,0,0,-0.671082,27.9, 1.1, 0.4,0,0,1024,1024,1024,1024,28.3,-89.9,98,3.896,3.92,3.934,3.958,3.904,3.937,18.326,71.6,14,Waypoint,
38.5386969,-120.5235813,3835.5225515425,132.545936,0,0.6021653736,19000,2018-06-20 18:27:03,17,0,23.508,3835.5225515425,132.545936,0,0.70739175492,0,0,-0.671082,28, 1, 0.3,0,0,1024,1024,1024,1024,28.3,-89.9,97,3.893,3.91,3.93,3.949,3.897,3.928,18.266,71.6,14,Waypoint,
38.5386969,-120.5235813,3836.5068035425,133.530188,0,0.6021653736,19100,2018-06-20 18:27:03,17,0,23.508,3836.5068035425,133.530188,0,0.70739175492,0,0,-0.671082,28.1, 0.8, 0.3,0,0,1024,1024,1024,1024,28.3,-89.9,97,3.893,3.91,3.93,3.949,3.897,3.928,18.266,71.6,14,Waypoint,
38.5386969,-120.5235813,3837.4910555425,134.51444,0,0.6021653736,19300,2018-06-20 18:27:03,17,0,23.508,3837.4910555425,134.51444,0,0.70739175492,0,0,-0.671082,28.1, 0.7, 0.3,0,0,1024,1024,1024,1024,28.3,-89.9,97,3.893,3.91,3.93,3.949,3.897,3.928,18.266,71.6,14,Waypoint,
38.5386969,-120.5235813,3838.4753075425,135.498692,0,0.6021653736,19400,2018-06-20 18:27:03,17,0,23.508,3838.4753075425,135.498692,0,0.70739175492,0,0,-0.671082,28.2, 0.7, 0.3,0,0,1024,1024,1024,1024,28.3,-90,97,3.893,3.91,3.93,3.949,3.897,3.928,18.266,71.6,14,Waypoint,
38.5386969,-120.5235813,3839.4595595425,136.482944,0,0.6021653736,19500,2018-06-20 18:27:03,17,0,23.508,3839.4595595425,136.482944,0,0.70739175492,0,0,-0.671082,28.2, 0.7, 0.4,0,0,1024,1024,1024,1024,28.3,-89.9,97,3.893,3.91,3.93,3.949,3.897,3.928,18.266,71.6,14,Waypoint,
38.5386969,-120.5235813,3840.4438115425,137.467196,0,0.6021653736,19600,2018-06-20 18:27:03,17,0,23.508,3840.4438115425,137.467196,0,0.70739175492,0,0,-0.671082,28.2, 0.7, 0.5,0,0,1024,1024,1024,1024,28.3,-89.9,97,3.893,3.91,3.93,3.949,3.897,3.928,18.266,71.6,14,Waypoint,
38.5386969,-120.5235812,3841.4280635425,138.451448,0,0.58501314208,19700,2018-06-20 18:27:04,17,0,23.508,3841.4280635425,138.451448,0,0.70739175492,0,0,-0.671082,28.1, 0.7, 0.5,0,0,1024,1024,1024,1024,28.3,-89.9,97,3.893,3.91,3.93,3.949,3.897,3.928,18.266,71.6,14,Waypoint,
38.5386969,-120.5235812,3842.4123155425,139.4357,0,0.58501314208,19800,2018-06-20 18:27:04,17,0,23.508,3842.4123155425,139.4357,0,0.70739175492,0,0,-0.671082,28, 0.8, 0.6,0,0,1024,1024,1024,1024,28.3,-89.9,97,3.893,3.91,3.93,3.949,3.897,3.928,18.266,71.6,14,Waypoint,
38.5386969,-120.5235812,3843.3965675425,140.419952,0,0.58501314208,19900,2018-06-20 18:27:04,17,0,23.508,3843.3965675425,140.419952,0,0.70739175492,0,0,-0.671082,28, 0.9, 0.7,0,0,1024,1024,1024,1024,28.3,-89.9,97,3.893,3.91,3.93,3.949,3.897,3.928,18.266,71.6,14,Waypoint,
38.5386969,-120.5235812,3844.3808195425,141.404204,0,0.58501314208,20000,2018-06-20 18:27:04,17,0,23.539,3844.3808195425,141.404204,0,0.70739175492,0,0,-0.671082,28, 1, 0.4,0,0,1024,1024,1024,1024,28.3,-89.9,97,3.893,3.91,3.93,3.949,3.897,3.928,17.97,71.6,14,Waypoint,
38.5386969,-120.5235812,3845.3650715425,142.388456,0,0.58501314208,20100,2018-06-20 18:27:04,17,0,23.539,3845.3650715425,142.388456,0,0.70739175492,0,0,-0.671082,28, 0.8, 0.1,0,0,1024,1024,1024,1024,28.3,-90,97,3.893,3.91,3.93,3.949,3.897,3.928,17.97,71.6,14,Waypoint,
38.5386969,-120.5235811,3846.3493235425,143.372708,0,0.56877954576,20200,2018-06-20 18:27:04,17,0,23.539,3846.3493235425,143.372708,0,0.70739175492,0,0,-0.671082,27.9, 0.5, 0,0,0,1024,1024,1024,1024,28.3,-90,97,3.893,3.91,3.93,3.949,3.897,3.928,17.97,71.6,14,Waypoint,
38.5386969,-120.5235811,3847.3335755425,144.35696,0,0.56877954576,20300,2018-06-20 18:27:04,17,0,23.539,3847.3335755425,144.35696,0,0.70739175492,0,0,-0.671082,27.8, 0.5, 0,0,0,1024,1024,1024,1024,28.3,-90,97,3.893,3.91,3.93,3.949,3.897,3.928,17.97,71.6,14,Waypoint,
38.5386969,-120.5235812,3848.3178275425,145.341212,0,0.58501314208,20400,2018-06-20 18:27:04,17,0,23.539,3848.3178275425,145.341212,0,0.70739175492,0,0,-0.671082,27.7, 0.7, 0.1,0,0,1024,1024,1024,1024,28.3,-89.9,97,3.893,3.91,3.93,3.949,3.897,3.928,17.97,71.6,14,Waypoint,
38.5386971,-120.5235812,3850.6144155425,147.6378,0,0.64559057184,20500,2018-06-20 18:27:04,17,0,23.539,3850.6144155425,147.6378,0,0.70739175492,0,0,-0.671082,27.7, 1.1, 0.7,0,0,1024,1024,1024,1024,28.3,-89.9,97,3.893,3.91,3.93,3.949,3.897,3.928,17.97,71.6,14,Waypoint,
38.5386971,-120.5235813,3851.5986675425,148.622052,0,0.661171281,20700,2018-06-20 18:27:05,17,0,23.539,3851.5986675425,148.622052,0,0.70739175492,0,0,-0.671082,27.8, 1.4, 1.1,0,0,1024,1024,1024,1024,28.3,-89.9,97,3.893,3.91,3.93,3.949,3.897,3.928,17.97,71.6,14,Waypoint,
38.5386973,-120.5235814,3853.2390875425,150.262472,0,0.73778545668,20800,2018-06-20 18:27:05,17,0,23.539,3853.2390875425,150.262472,0,0.73778545668,0,0,-0.671082,28, 1.8, 1.5,0,0,1024,1024,1024,1024,28.3,-89.9,97,3.893,3.91,3.93,3.949,3.897,3.928,17.97,71.6,14,Waypoint,
38.5386974,-120.5235814,3854.2233395425,151.246724,0,0.76871393536,20900,2018-06-20 18:27:05,17,0,23.539,3854.2233395425,151.246724,0,0.76871393536,0,0,-0.671082,28.1, 1.9, 1.6,0,0,1024,1024,1024,1024,28.3,-89.9,97,3.893,3.91,3.93,3.949,3.897,3.928,17.97,71.6,14,Waypoint,
38.5386974,-120.5235814,3855.2075915425,152.230976,0,0.76871393536,21000,2018-06-20 18:27:05,17,0,23.539,3855.2075915425,152.230976,0,0.76871393536,0,0,-0.671082,28.1, 1.9, 1.5,0,0,1024,1024,1024,1024,28.3,-89.9,97,3.893,3.913,3.929,3.957,3.902,3.929,17.97,71.6,14,Waypoint,
38.5386975,-120.5235815,3856.5199275425,153.543312,0,0.81473427804,21100,2018-06-20 18:27:05,17,0,23.539,3856.5199275425,153.543312,0,0.81473427804,0,0,-0.671082,28.2, 1.7, 1.5,0,0,1024,1024,1024,1024,28.3,-89.9,97,3.893,3.913,3.929,3.957,3.902,3.929,17.97,71.6,14,Waypoint,
38.5386975,-120.5235815,3857.5041795425,154.527564,0,0.81473427804,21300,2018-06-20 18:27:05,17,0,23.539,3857.5041795425,154.527564,0,0.81473427804,0,0,-0.671082,28.2, 1.7, 1.4,0,0,1024,1024,1024,1024,28.3,-89.9,97,3.893,3.913,3.929,3.957,3.902,3.929,17.97,71.6,14,Waypoint,
38.5386976,-120.5235815,3858.1603475425,155.183732,0,0.84599412156,21400,2018-06-20 18:27:05,17,0,23.539,3858.1603475425,155.183732,0,0.84599412156,0,0,-0.671082,28.2, 1.7, 1.3,0,0,1024,1024,1024,1024,28.3,-89.9,97,3.893,3.913,3.929,3.957,3.902,3.929,17.97,71.6,14,Waypoint,
38.5386976,-120.5235815,3859.1445995425,156.167984,0,0.84599412156,21500,2018-06-20 18:27:05,17,0,23.539,3859.1445995425,156.167984,0,0.84599412156,0,0,-0.671082,28.1, 1.5, 1.2,0,0,1024,1024,1024,1024,28.3,-89.9,97,3.893,3.913,3.929,3.957,3.902,3.929,17.97,71.6,14,Waypoint,
38.5386976,-120.5235815,3860.4569355425,157.48032,0,0.84599412156,21600,2018-06-20 18:27:05,17,0,23.539,3860.4569355425,157.48032,0,0.84599412156,0,0,-0.671082,28.1, 1.4, 1.2,0,0,1024,1024,1024,1024,28.3,-89.9,97,3.893,3.913,3.929,3.957,3.902,3.929,17.97,71.6,14,Waypoint,
38.5386977,-120.5235816,3862.4254395425,159.448824,0,0.89192588156,21800,2018-06-20 18:27:06,17,0,23.539,3862.4254395425,159.448824,0,0.89192588156,0,0,-0.671082,28.3, 1.4, 1.1,0,0,1024,1024,1024,1024,28.3,-89.9,97,3.893,3.913,3.929,3.957,3.902,3.929,17.97,71.6,14,Waypoint,
38.5386977,-120.5235816,3863.4096915425,160.433076,0,0.89192588156,21900,2018-06-20 18:27:06,17,0,23.539,3863.4096915425,160.433076,0,0.89192588156,0,0,-0.671082,28.3, 1.6, 1.4,0,0,1024,1024,1024,1024,28.3,-89.9,97,3.893,3.913,3.929,3.957,3.902,3.929,17.97,71.6,14,Waypoint,
38.5386977,-120.5235816,3864.3939435425,161.417328,0,0.89192588156,22000,2018-06-20 18:27:06,17,0,23.523,3864.3939435425,161.417328,0,0.89192588156,0,0,-0.671082,28.2, 1.8, 1.7,0,0,1024,1024,1024,1024,28.3,-89.9,97,3.899,3.914,3.932,3.951,3.892,3.927,18.081,71.6,14,Waypoint,
38.5386978,-120.5235817,3865.3781955425,162.40158,0,0.9378937308,22100,2018-06-20 18:27:06,17,0,23.523,3865.3781955425,162.40158,0,0.9378937308,0,0,-0.671082,28.1, 1.9, 1.7,0,0,1024,1024,1024,1024,28.3,-89.9,97,3.899,3.914,3.932,3.951,3.892,3.927,18.081,71.6,14,Waypoint,
38.5386978,-120.5235817,3866.3624475425,163.385832,0,0.9378937308,22200,2018-06-20 18:27:06,17,0,23.523,3866.3624475425,163.385832,0,0.9378937308,0,0,-0.671082,27.9, 1.9, 1.9,0,0,1024,1024,1024,1024,28.3,-89.9,97,3.899,3.914,3.932,3.951,3.892,3.927,18.081,71.6,14,Waypoint,
38.5386978,-120.5235817,3867.3466995425,164.370084,0,0.9378937308,22300,2018-06-20 18:27:06,17,0,23.523,3867.3466995425,164.370084,0,0.9378937308,0,0,-0.671082,27.8, 1.7, 1.8,0,0,1024,1024,1024,1024,28.3,-89.9,97,3.899,3.914,3.932,3.951,3.892,3.927,18.081,71.6,14,Waypoint,
38.5386978,-120.5235817,3868.3309515425,165.354336,0,0.9378937308,22400,2018-06-20 18:27:06,17,0,23.523,3868.3309515425,165.354336,0,0.9378937308,0,0,-0.671082,27.9, 1.8, 1.6,0,0,1024,1024,1024,1024,28.3,-89.9,97,3.899,3.914,3.932,3.951,3.892,3.927,18.081,71.6,14,Waypoint,
38.5386978,-120.5235817,3869.3152035425,166.338588,0,0.9378937308,22500,2018-06-20 18:27:06,17,0,23.523,3869.3152035425,166.338588,0,0.9378937308,0,0,-0.671082,27.9, 1.8, 1.5,0,0,1024,1024,1024,1024,28.3,-89.9,97,3.899,3.914,3.932,3.951,3.892,3.927,18.081,71.6,14,Waypoint,
38.5386979,-120.5235817,3871.2837075425,168.307092,0,0.96930121212,22600,2018-06-20 18:27:06,17,0,23.523,3871.2837075425,168.307092,0,0.96930121212,0,0,-0.671082,28, 2.1, 1.5,0,0,1024,1024,1024,1024,28.3,-89.9,97,3.899,3.914,3.932,3.951,3.892,3.927,18.081,71.6,14,Waypoint,
38.5386979,-120.5235818,3873.2522115425,170.275596,0,0.98389766928,22800,2018-06-20 18:27:07,17,0,23.523,3873.2522115425,170.275596,0,0.98389766928,0,0,-0.671082,28.1, 2.1, 1.6,0,0,1024,1024,1024,1024,28.3,-89.9,97,3.899,3.914,3.932,3.951,3.892,3.927,18.081,71.6,14,Waypoint,
38.5386979,-120.5235818,3875.2207155425,172.2441,0,0.98389766928,23000,2018-06-20 18:27:07,17,0,23.517,3875.2207155425,172.2441,0,0.98389766928,0,0,-0.671082,28.1, 1.7, 2,0,0,1024,1024,1024,1024,28.3,-89.9,97,3.898,3.912,3.922,3.951,3.893,3.934,17.637,71.6,14,Waypoint,
38.5386979,-120.5235819,3876.2049675425,173.228352,0,0.99909123932,23100,2018-06-20 18:27:07,17,0,23.517,3876.2049675425,173.228352,0,0.99909123932,0,0,-0.671082,28.1, 1.7, 1.9,0,0,1024,1024,1024,1024,28.3,-89.9,97,3.898,3.912,3.922,3.951,3.893,3.934,17.637,71.6,14,Waypoint,
38.5386979,-120.5235819,3876.8611355425,173.88452,0,0.99909123932,23200,2018-06-20 18:27:07,17,0,23.517,3876.8611355425,173.88452,0,0.99909123932,0,0,-0.671082,28.2, 1.9, 1.7,0,0,1024,1024,1024,1024,28.3,-89.9,97,3.898,3.912,3.922,3.951,3.893,3.934,17.637,71.6,14,Waypoint,
38.5386979,-120.5235819,3877.8453875425,174.868772,0,0.99909123932,23300,2018-06-20 18:27:07,17,0,23.517,3877.8453875425,174.868772,0,0.99909123932,0,0,-0.671082,28.2, 1.9, 1.6,0,0,1024,1024,1024,1024,28.3,-89.9,97,3.898,3.912,3.922,3.951,3.893,3.934,17.637,71.6,14,Waypoint,
38.5386979,-120.5235818,3878.8296395425,175.853024,0,0.98389766928,23400,2018-06-20 18:27:07,17,0,23.517,3878.8296395425,175.853024,0,0.99909123932,0,0,-0.671082,28.2, 2, 1.5,0,0,1024,1024,1024,1024,28.3,-89.9,97,3.898,3.912,3.922,3.951,3.893,3.934,17.637,71.6,14,Waypoint,
38.5386979,-120.5235818,3879.8138915425,176.837276,0,0.98389766928,23500,2018-06-20 18:27:07,17,0,23.517,3879.8138915425,176.837276,0,0.99909123932,0,0,-0.671082,28.2, 2.2, 1.5,0,0,1024,1024,1024,1024,28.3,-89.9,97,3.898,3.912,3.922,3.951,3.893,3.934,17.637,71.6,14,Waypoint,
38.5386979,-120.5235818,3880.7981435425,177.821528,0,0.98389766928,23700,2018-06-20 18:27:08,17,0,23.517,3880.7981435425,177.821528,0,0.99909123932,0,0,-0.671082,28.1, 2.4, 1.5,0,0,1024,1024,1024,1024,28.3,-89.9,97,3.898,3.912,3.922,3.951,3.893,3.934,17.637,71.6,14,Waypoint,
38.5386979,-120.5235817,3881.7823955425,178.80578,0,0.96930121212,23800,2018-06-20 18:27:08,17,0,23.517,3881.7823955425,178.80578,0,0.99909123932,0,0,-0.671082,28.1, 2.6, 1.5,0,0,1024,1024,1024,1024,28.3,-89.9,97,3.898,3.912,3.922,3.951,3.893,3.934,17.637,71.6,14,Waypoint,
38.5386979,-120.5235817,3882.7666475425,179.790032,0,0.96930121212,23900,2018-06-20 18:27:08,17,0,23.517,3882.7666475425,179.790032,0,0.99909123932,0,0,-0.671082,28, 2.8, 1.5,0,0,1024,1024,1024,1024,28.3,-89.9,97,3.898,3.912,3.922,3.951,3.893,3.934,17.637,71.6,14,Waypoint,
38.5386979,-120.5235816,3885.0632355425,182.08662,0,0.95533795708,24100,2018-06-20 18:27:08,17,0,23.517,3885.0632355425,182.08662,0,0.99909123932,0,0,-0.671082,28, 3.2, 1.6,0,0,1024,1024,1024,1024,28.3,-89.9,97,3.898,3.912,3.922,3.951,3.893,3.934,17.637,71.6,14,Waypoint,
38.5386979,-120.5235816,3885.7194035425,182.742788,0,0.95533795708,24200,2018-06-20 18:27:08,17,0,23.517,3885.7194035425,182.742788,0,0.99909123932,0,0,-0.671082,27.9, 3, 1.6,0,0,1024,1024,1024,1024,28.3,-89.9,97,3.898,3.912,3.922,3.951,3.893,3.934,17.637,71.6,14,Waypoint,
38.5386979,-120.5235816,3886.7036555425,183.72704,0,0.95533795708,24300,2018-06-20 18:27:08,17,0,23.517,3886.7036555425,183.72704,0,0.99909123932,0,0,-0.671082,27.8, 2.6, 1.3,0,0,1024,1024,1024,1024,28.3,-90,97,3.898,3.912,3.922,3.951,3.893,3.934,17.637,71.6,14,Waypoint,
38.5386978,-120.5235816,3887.6879075425,184.711292,0,0.92345475396,24400,2018-06-20 18:27:08,17,0,23.517,3887.6879075425,184.711292,0,0.99909123932,0,0,-0.671082,27.7, 2.1, 1.1,0,0,1024,1024,1024,1024,28.3,-90,97,3.898,3.912,3.922,3.951,3.893,3.934,17.637,71.6,14,Waypoint,
38.5386978,-120.5235815,3888.6721595425,185.695544,0,0.90968178764,24500,2018-06-20 18:27:08,17,0,23.517,3888.6721595425,185.695544,0,0.99909123932,0,0,-0.671082,27.6, 2.2, 1.1,0,0,1024,1024,1024,1024,28.3,-89.9,97,3.898,3.912,3.922,3.951,3.893,3.934,17.637,71.6,14,Waypoint,
38.5386978,-120.5235815,3889.6564115425,186.679796,0,0.90968178764,24600,2018-06-20 18:27:08,17,0,23.517,3889.6564115425,186.679796,0,0.99909123932,0,0,-0.671082,27.6, 2.6, 1.2,0,0,1024,1024,1024,1024,28.3,-89.9,97,3.898,3.912,3.922,3.951,3.893,3.934,17.637,71.6,14,Waypoint,
38.5386977,-120.5235815,3890.6406635425,187.664048,0,0.8776575084,24700,2018-06-20 18:27:09,17,0,23.517,3890.6406635425,187.664048,0,0.99909123932,0,0,-0.671082,27.8, 2.8, 1,0,0,1024,1024,1024,1024,28.3,-89.9,97,3.898,3.912,3.922,3.951,3.893,3.934,17.637,71.6,14,Waypoint,
38.5386977,-120.5235814,3891.6249155425,188.6483,0,0.86409779668,24800,2018-06-20 18:27:09,17,0,23.517,3891.6249155425,188.6483,0,0.99909123932,0,0,-0.671082,28.1, 2.8, 0.9,0,0,1024,1024,1024,1024,28.3,-89.9,97,3.898,3.912,3.922,3.951,3.893,3.934,17.637,71.6,14,Waypoint,
38.5386976,-120.5235814,3892.6091675425,189.632552,0,0.83191603712,24900,2018-06-20 18:27:09,17,0,23.517,3892.6091675425,189.632552,0,0.99909123932,0,0,-0.671082,28.3, 2.7, 0.7,0,0,1024,1024,1024,1024,28.3,-89.9,97,3.898,3.912,3.922,3.951,3.893,3.934,17.637,71.6,14,Waypoint,
38.5386976,-120.5235813,3893.5934195425,190.616804,0,0.81859582672,25000,2018-06-20 18:27:09,17,0,23.452,3893.5934195425,190.616804,0,0.99909123932,0,0,-0.671082,28.4, 2.6, 0.6,0,0,1024,1024,1024,1024,28.3,-89.9,97,3.883,3.903,3.915,3.948,3.886,3.927,18.142,71.6,14,Waypoint,
38.5386975,-120.5235813,3894.5776715425,191.601056,0,0.78624674432,25100,2018-06-20 18:27:09,17,0,23.452,3894.5776715425,191.601056,0,0.99909123932,0,0,-0.671082,28.4, 2.5, 0.5,0,0,1024,1024,1024,1024,28.3,-89.9,97,3.883,3.903,3.915,3.948,3.886,3.927,18.142,71.6,14,Waypoint,
38.5386975,-120.5235813,3895.5619235425,192.585308,0,0.78624674432,25200,2018-06-20 18:27:09,17,0,23.452,3895.5619235425,192.585308,0,0.99909123932,0,0,-0.671082,28.3, 2.4, 0.3,0,0,1024,1024,1024,1024,28.3,-89.9,97,3.883,3.903,3.915,3.948,3.886,3.927,18.142,71.6,14,Waypoint,
38.5386974,-120.5235812,3897.5304275425,194.553812,0,0.74065619168,25300,2018-06-20 18:27:09,17,0,23.452,3897.5304275425,194.553812,0,0.99909123932,0,0,-0.671082,28, 2.4, 0.4,0,0,1024,1024,1024,1024,28.3,-89.9,97,3.883,3.903,3.915,3.948,3.886,3.927,18.142,71.6,14,Waypoint,
38.5386974,-120.5235812,3898.5146795425,195.538064,0,0.74065619168,25400,2018-06-20 18:27:09,17,0,23.452,3898.5146795425,195.538064,0,0.99909123932,0,0,-0.671082,27.9, 2.3, 0.5,0,0,1024,1024,1024,1024,28.3,-89.9,97,3.883,3.903,3.915,3.948,3.886,3.927,18.142,71.6,14,Waypoint,
38.5386974,-120.5235812,3899.4989315425,196.522316,0,0.74065619168,25500,2018-06-20 18:27:09,17,0,23.452,3899.4989315425,196.522316,0,0.99909123932,0,0,-0.671082,27.9, 2.2, 0.7,0,0,1024,1024,1024,1024,28.3,-89.9,97,3.883,3.903,3.915,3.948,3.886,3.927,18.142,71.6,14,Waypoint,
38.5386974,-120.5235813,3900.4831835425,197.506568,0,0.75427495852,25600,2018-06-20 18:27:09,17,0,23.452,3900.4831835425,197.506568,0,0.99909123932,0,0,-0.671082,27.8, 2.4, 0.7,0,0,1024,1024,1024,1024,28.3,-89.9,97,3.883,3.903,3.915,3.948,3.886,3.927,18.142,71.6,14,Waypoint,
38.5386974,-120.5235813,3901.4674355425,198.49082,0,0.75427495852,25700,2018-06-20 18:27:10,17,0,23.452,3901.4674355425,198.49082,0,0.99909123932,0,0,-0.671082,27.8, 2.4, 0.8,0,0,1024,1024,1024,1024,28.3,-89.9,97,3.883,3.903,3.915,3.948,3.886,3.927,18.142,71.6,14,Waypoint,
38.5386974,-120.5235812,3903.4359395425,200.459324,0,0.74065619168,25900,2018-06-20 18:27:10,17,0,23.452,3903.4359395425,200.459324,0,0.99909123932,0,0,-0.671082,27.9, 2.5, 0.6,0,0,1024,1024,1024,1024,28.3,-89.9,97,3.883,3.903,3.915,3.948,3.886,3.927,18.142,71.6,14,Waypoint,
38.5386974,-120.5235812,3903.4359395425,200.459324,0,0.74065619168,26000,2018-06-20 18:27:10,17,0,23.385,3903.4359395425,200.459324,0,0.99909123932,0,0,-0.671082,27.9, 2.5, 0.6,0,0,1024,1024,1024,1024,28.3,-89.9,97,3.864,3.892,3.905,3.925,3.867,3.905,18.458,71.6,14,Waypoint,
38.5386974,-120.5235813,3905.4044435425,202.427828,0,0.75427495852,26100,2018-06-20 18:27:10,17,0,23.385,3905.4044435425,202.427828,0,0.99909123932,0,0,-0.671082,28.2, 2.4, 0.7,0,0,1024,1024,1024,1024,28.3,-89.9,97,3.864,3.892,3.905,3.925,3.867,3.905,18.458,71.6,14,Waypoint,
38.5386974,-120.5235813,3906.3886955425,203.41208,0,0.75427495852,26300,2018-06-20 18:27:10,17,0,23.385,3906.3886955425,203.41208,0,0.99909123932,0,0,-0.671082,28.3, 2.4, 0.9,0,0,1024,1024,1024,1024,28.3,-89.9,97,3.864,3.892,3.905,3.925,3.867,3.905,18.458,71.6,14,Waypoint,
38.5386974,-120.5235813,3907.3729475425,204.396332,0,0.75427495852,26400,2018-06-20 18:27:10,17,0,23.385,3907.3729475425,204.396332,0,0.99909123932,0,0,-0.671082,28.3, 2.4, 1.1,0,0,1024,1024,1024,1024,28.3,-89.9,97,3.864,3.892,3.905,3.925,3.867,3.905,18.458,71.6,14,Waypoint,
38.5386974,-120.5235813,3908.3571995425,205.380584,0,0.75427495852,26500,2018-06-20 18:27:10,17,0,23.385,3908.3571995425,205.380584,0,0.99909123932,0,0,-0.671082,28.3, 2.4, 1.1,0,0,1024,1024,1024,1024,28.3,-89.9,97,3.864,3.892,3.905,3.925,3.867,3.905,18.458,71.6,14,Waypoint,
38.5386974,-120.5235814,3909.6695355425,206.69292,0,0.76871393536,26600,2018-06-20 18:27:10,17,0,23.385,3909.6695355425,206.69292,0,0.99909123932,0,0,-0.671082,28.1, 2.5, 1.2,0,0,1024,1024,1024,1024,28.3,-89.9,97,3.864,3.892,3.905,3.925,3.867,3.905,18.458,71.6,14,Waypoint,
38.5386974,-120.5235814,3910.6537875425,207.677172,0,0.76871393536,26700,2018-06-20 18:27:11,17,0,23.385,3910.6537875425,207.677172,0,0.99909123932,0,0,-0.671082,28, 2.6, 1.3,0,0,1024,1024,1024,1024,28.3,-89.9,97,3.864,3.892,3.905,3.925,3.867,3.905,18.458,71.6,14,Waypoint,
38.5386974,-120.5235814,3911.6380395425,208.661424,0,0.76871393536,26800,2018-06-20 18:27:11,17,0,23.385,3911.6380395425,208.661424,0,0.99909123932,0,0,-0.671082,27.8, 2.6, 1.5,0,0,1024,1024,1024,1024,28.3,-89.9,97,3.864,3.892,3.905,3.925,3.867,3.905,18.458,71.6,14,Waypoint,
38.5386975,-120.5235815,3912.6222915425,209.645676,0,0.81473427804,26900,2018-06-20 18:27:11,17,0,23.385,3912.6222915425,209.645676,0,0.99909123932,0,0,-0.671082,27.9, 2.5, 1.7,0,0,1024,1024,1024,1024,28.3,-89.9,97,3.864,3.892,3.905,3.925,3.867,3.905,18.458,71.6,14,Waypoint,
38.5386975,-120.5235815,3913.6065435425,210.629928,0,0.81473427804,27000,2018-06-20 18:27:11,17,0,23.385,3913.6065435425,210.629928,0,0.99909123932,0,0,-0.671082,28, 2.3, 1.6,0,0,1024,1024,1024,1024,28.3,-89.9,97,3.862,3.887,3.914,3.931,3.871,3.902,18.769,71.6,14,Waypoint,
38.5386975,-120.5235815,3914.2627115425,211.286096,0,0.81473427804,27100,2018-06-20 18:27:11,17,0,23.385,3914.2627115425,211.286096,0,0.99909123932,0,0,-0.671082,28.2, 2.3, 1.6,0,0,1024,1024,1024,1024,28.3,-89.9,97,3.862,3.887,3.914,3.931,3.871,3.902,18.769,71.6,14,Waypoint,
