Latitude, Longitude, Altitude (m), Time, Sats, Speed (m/s), Range (m), Battery (%), Roll (deg), Pitch (deg), Yaw (deg), Images, HD Signal (%), RC Signal (%), Battery Temp (C), Battery Voltage (mV), Battery Current (mA), Battery Energy (mAh), Battery Capacity (mAh), Battery Discharges, flyState, timestamp (Unix), LastUpdate (ms), radioChannel, Rc_elevator, Rc_aileron, Rc_throttle, Rc_rudder, Rc_gyro, Dronetype, Battery_Cell1 (mV), Battery_Cell2 (mV), Battery_Cell3 (mV), Battery_Cell4 (mV), Battery_Cell5 (mV), Battery_Cell6 (mV), Video, isFlying, elapsedTime (ms), gimbalPitch (deg), gimbalRoll (deg), gimbalYaw (deg), VelocityX (m/s), VelocityY (m/s), VelocityZ (m/s), GroundSmear (cm), App Version, Aircraft Name, Aircraft Firmware, Aircraft Serial Number, Battery Serial Number, Battery Lifetime (%), App_Tip, App_Warning, CurrentFlightStartingIndex, CurrentFlightLastVisitedWaypoint, PreviousFlightEndingWaypointIndex
38.6884547, -120.4165579, 0.000, 09:53:14.127, 13, 0.00, 0.16, 97, 0.300, 0.400, 49.700, 397, 100, 100, 19, 25227, -4065, 5289, 5453, 13, 11, 1528390394.128, 33, 0, 1024, 1024, 1024, 1024, 0, 6, 4202, 4190, 4155, 4193, 4187, 4135, 0, 1, 3246, -90.000, 0.000, 50.000, 0.000, 0.000, -0.300, 0.0, MapPilot_2.8.1_04242018, Dendroctonus I, 1.3.1.00, 041DDC1887, 1058171200161, 97, DJI_0395.jpg, Starting Mission from Lat/Long: 38.68845/-120.41655 Camera: Zenmuse X3 - Overlap: 90/90 - Active Connection: No, 17, 17, 17
38.6884547, -120.4165579, 0.000, 09:53:14.182, 13, 0.00, 0.16, 97, 0.300, 0.400, 49.700, 397, 100, 100, 19, 25227, -4065, 5289, 5453, 13, 11, 1528390394.182, 88, 0, 1024, 1024, 1024, 1024, 0, 6, 4202, 4190, 4155, 4193, 4187, 4135, 0, 1, 3301, -90.000, 0.000, 50.000, 0.000, 0.000, -0.300, 0.0, , , , , , 97, , , 17, 17, 17
38.6884547, -120.4165580, 0.000, 09:53:14.282, 13, 0.00, 0.18, 97, 0.200, 0.000, 49.600, 397, 100, 100, 19, 25227, -4065, 5289, 5453, 13, 11, 1528390394.282, 58, 0, 1024, 1024, 1024, 1024, 0, 6, 4202, 4190, 4155, 4193, 4187, 4135, 0, 1, 3401, -89.900, 0.000, 50.000, 0.000, 0.000, -0.300, 0.0, , , , , , 97, , , 17, 17, 17
38.6884550, -120.4165582, 0.100, 09:53:14.382, 12, 0.00, 0.20, 97, 0.100, 0.000, 49.400, 397, 100, 100, 19, 25227, -4065, 5289, 5453, 13, 11, 1528390394.382, 21, 0, 1024, 1024, 1024, 1024, 0, 6, 4202, 4190, 4155, 4193, 4187, 4135, 0, 1, 3501, -89.900, 0.000, 50.000, 0.000, 0.000, -0.400, 0.0, , , , , , 97, , , 17, 17, 17
38.6884551, -120.4165582, 0.100, 09:53:14.481, 13, 0.10, 0.22, 97, 0.400, 0.200, 49.300, 397, 100, 100, 19, 25227, -4065, 5289, 5453, 13, 11, 1528390394.482, 19, 0, 1024, 1024, 1024, 1024, 0, 6, 4202, 4190, 4155, 4193, 4187, 4135, 0, 1, 3601, -89.900, 0.000, 50.000, 0.100, 0.000, -0.400, 0.0, , , , , , 97, , , 17, 17, 17
38.6884553, -120.4165583, 0.200, 09:53:14.582, 13, 0.10, 0.24, 97, 0.400, 0.400, 49.300, 397, 100, 100, 19, 25227, -4065, 5289, 5453, 13, 11, 1528390394.582, 6, 0, 1024, 1024, 1024, 1024, 0, 6, 4202, 4190, 4155, 4193, 4187, 4135, 0, 1, 3701, -89.900, 0.000, 50.000, 0.100, 0.000, -0.400, 0.0, , , , , , 97, , , 17, 17, 17
38.6884555, -120.4165583, 0.200, 09:53:14.683, 13, 0.10, 0.27, 97, 0.500, 0.500, 49.200, 397, 100, 100, 19, 25227, -4065, 5289, 5453, 13, 11, 1528390394.684, 3, 0, 1024, 1024, 1024, 1024, 0, 6, 4202, 4190, 4155, 4193, 4187, 4135, 0, 1, 3802, -89.900, 0.000, 50.000, 0.100, 0.000, -0.400, 0.0, , , , , , 97, , , 17, 17, 17
38.6884557, -120.4165584, 0.300, 09:53:14.782, 13, 0.10, 0.28, 97, 1.200, 0.500, 49.300, 397, 100, 100, 19, 25227, -4065, 5289, 5453, 13, 11, 1528390394.783, 16, 0, 1024, 1024, 1024, 1024, 0, 6, 4202, 4190, 4155, 4193, 4187, 4135, 0, 1, 3901, -89.900, 0.000, 50.000, 0.100, 0.000, -0.400, 0.0, , , , , , 97, , , 17, 17, 17
38.6884558, -120.4165585, 0.300, 09:53:14.882, 12, 0.10, 0.30, 97, 1.700, 0.500, 49.300, 397, 100, 100, 19, 24013, -14506, 5289, 5453, 13, 11, 1528390394.882, 7, 0, 1024, 1024, 1024, 1024, 0, 6, 4202, 4190, 4155, 4193, 4187, 4135, 0, 1, 4001, -89.900, 0.000, 50.000, 0.100, 0.000, -0.400, 0.0, , , , , , 97, , , 17, 17, 17
38.6884560, -120.4165586, 0.400, 09:53:14.982, 12, 0.10, 0.32, 97, 2.000, 0.500, 49.400, 397, 100, 100, 19, 24013, -14506, 5289, 5453, 13, 11, 1528390394.983, 24, 0, 1024, 1024, 1024, 1024, 0, 6, 3988, 3977, 3975, 3982, 3998, 3959, 0, 1, 4101, -89.900, 0.000, 50.000, 0.100, 0.000, -0.400, 0.0, , , , , , 97, , , 17, 17, 17
38.6884562, -120.4165587, 0.400, 09:53:15.081, 12, 0.10, 0.34, 97, 2.400, 0.700, 49.400, 397, 100, 100, 19, 24013, -14506, 5289, 5453, 13, 11, 1528390395.082, 37, 0, 1024, 1024, 1024, 1024, 0, 6, 3988, 3977, 3975, 3982, 3998, 3959, 0, 1, 4201, -89.900, 0.000, 50.000, 0.100, 0.000, -0.400, 0.0, , , , , , 97, , , 17, 17, 17
38.6884564, -120.4165587, 0.500, 09:53:15.186, 12, 0.00, 0.36, 97, 2.600, 0.900, 49.400, 397, 100, 100, 19, 24013, -14506, 5289, 5453, 13, 11, 1528390395.188, 8, 0, 1024, 1024, 1024, 1024, 0, 6, 3988, 3977, 3975, 3982, 3998, 3959, 0, 1, 4307, -89.900, 0.000, 50.000, 0.000, 0.000, -0.500, 0.0, , , , , , 97, , , 17, 17, 17
38.6884565, -120.4165587, 0.500, 09:53:15.282, 13, 0.00, 0.38, 97, 2.700, 1.000, 49.400, 397, 100, 100, 19, 24013, -14506, 5289, 5453, 13, 11, 1528390395.282, 39, 0, 1024, 1024, 1024, 1024, 0, 6, 3988, 3977, 3975, 3982, 3998, 3959, 0, 1, 4401, -89.900, 0.000, 50.000, 0.000, 0.000, -0.400, 0.0, , , , , , 97, , , 17, 17, 17
38.6884566, -120.4165587, 0.600, 09:53:15.389, 14, 0.00, 0.39, 97, 2.500, 1.300, 49.500, 397, 100, 100, 19, 24013, -14506, 5289, 5453, 13, 11, 1528390395.390, 7, 0, 1024, 1024, 1024, 1024, 0, 6, 3988, 3977, 3975, 3982, 3998, 3959, 0, 1, 4509, -89.900, 0.000, 50.000, 0.000, 0.000, -0.500, 0.0, , , , , , 97, , , 17, 17, 17
38.6884566, -120.4165587, 0.600, 09:53:15.481, 14, 0.00, 0.39, 97, 2.500, 1.300, 49.500, 397, 100, 100, 19, 24013, -14506, 5289, 5453, 13, 11, 1528390395.482, 99, 0, 1024, 1024, 1024, 1024, 0, 6, 3988, 3977, 3975, 3982, 3998, 3959, 0, 1, 4601, -89.900, 0.000, 50.000, 0.000, 0.000, -0.500, 0.0, , , , , , 97, , , 17, 17, 17
38.6884567, -120.4165586, 0.700, 09:53:15.585, 13, 0.00, 0.40, 97, 2.100, 1.600, 49.700, 397, 100, 100, 19, 24013, -14506, 5289, 5453, 13, 11, 1528390395.586, 11, 0, 1024, 1024, 1024, 1024, 0, 6, 3988, 3977, 3975, 3982, 3998, 3959, 0, 1, 4705, -89.900, 0.000, 50.000, 0.000, 0.000, -0.500, 0.0, , , , , , 97, , , 17, 17, 17
38.6884568, -120.4165585, 0.800, 09:53:15.681, 13, 0.00, 0.40, 97, 2.000, 1.700, 49.700, 397, 100, 100, 19, 24013, -14506, 5289, 5453, 13, 11, 1528390395.682, 6, 0, 1024, 1024, 1024, 1024, 0, 6, 3988, 3977, 3975, 3982, 3998, 3959, 0, 1, 4800, -89.900, 0.000, 50.000, 0.000, 0.000, -0.500, 0.0, , , , , , 97, , , 17, 17, 17
38.6884568, -120.4165585, 0.800, 09:53:15.782, 13, 0.00, 0.40, 97, 2.000, 1.700, 49.700, 397, 100, 100, 19, 24013, -14506, 5289, 5453, 13, 11, 1528390395.782, 106, 0, 1024, 1024, 1024, 1024, 0, 6, 3988, 3977, 3975, 3982, 3998, 3959, 0, 1, 4901, -89.900, 0.000, 50.000, 0.000, 0.000, -0.500, 0.0, , , , , , 97, , , 17, 17, 17
38.6884568, -120.4165585, 0.800, 09:53:15.882, 13, 0.00, 0.40, 97, 1.800, 1.700, 49.800, 397, 100, 100, 19, 23657, -16482, 5289, 5453, 13, 11, 1528390395.882, 69, 0, 1024, 1024, 1024, 1024, 0, 6, 3988, 3977, 3975, 3982, 3998, 3959, 0, 1, 5001, -89.900, 0.000, 50.000, 0.000, 0.000, -0.500, 0.0, , , , , , 97, , , 17, 17, 17
38.6884567, -120.4165584, 0.900, 09:53:15.982, 13, 0.00, 0.39, 97, 1.700, 1.600, 49.800, 397, 100, 100, 19, 23657, -16482, 5289, 5453, 13, 14, 1528390395.982, 70, 0, 1024, 1024, 1024, 1024, 0, 6, 3988, 3977, 3975, 3982, 3998, 3959, 0, 1, 5101, -89.900, 0.000, 50.000, 0.000, 0.000, -0.400, 0.0, , , , , , 97, , , 17, 17, 17
38.6884567, -120.4165583, 0.900, 09:53:16.081, 15, 0.10, 0.38, 97, 1.400, 1.700, 49.800, 397, 100, 100, 19, 23657, -16482, 5289, 5453, 13, 14, 1528390396.082, 73, 0, 1024, 1024, 1024, 1024, 0, 6, 3988, 3977, 3975, 3982, 3998, 3959, 0, 1, 5201, -89.900, 0.000, 50.000, -0.100, 0.000, -0.400, 0.0, , , , , , 97, , , 17, 17, 17
38.6884566, -120.4165582, 1.000, 09:53:16.182, 15, 0.10, 0.37, 97, -0.400, 0.800, 49.800, 397, 100, 100, 19, 23657, -16482, 5289, 5453, 13, 14, 1528390396.182, 21, 0, 1024, 1024, 1024, 1024, 0, 6, 3988, 3977, 3975, 3982, 3998, 3959, 0, 1, 5301, -90.000, 0.000, 50.000, -0.100, 0.000, -0.200, 0.0, , , , , , 97, , , 17, 17, 17
38.6884566, -120.4165581, 1.000, 09:53:16.282, 14, 0.00, 0.37, 97, -1.300, 0.400, 50.000, 397, 100, 100, 19, 23657, -16482, 5289, 5453, 13, 14, 1528390396.283, 58, 0, 1024, 1024, 1024, 1024, 0, 6, 3988, 3977, 3975, 3982, 3998, 3959, 0, 1, 5401, -90.000, 0.000, 50.000, 0.000, 0.000, -0.200, 0.0, , , , , , 97, , , 17, 17, 17
38.6884565, -120.4165580, 1.000, 09:53:16.381, 14, 0.00, 0.36, 97, -1.400, 0.200, 50.100, 397, 100, 100, 19, 23657, -16482, 5289, 5453, 13, 14, 1528390396.382, 27, 0, 1024, 1024, 1024, 1024, 0, 6, 3988, 3977, 3975, 3982, 3998, 3959, 0, 1, 5501, -90.000, 0.000, 50.000, 0.000, 0.000, -0.300, 0.0, , , , , , 97, , , 17, 17, 17
38.6884565, -120.4165580, 1.100, 09:53:16.482, 14, 0.00, 0.36, 97, -1.100, 0.300, 50.200, 397, 100, 100, 19, 23657, -16482, 5289, 5453, 13, 14, 1528390396.482, 20, 0, 1024, 1024, 1024, 1024, 0, 6, 3988, 3977, 3975, 3982, 3998, 3959, 0, 1, 5601, -90.000, 0.000, 50.000, 0.000, 0.000, -0.400, 0.0, , , , , , 97, , , 17, 17, 17
38.6884565, -120.4165580, 1.100, 09:53:16.582, 14, 0.00, 0.36, 97, -1.100, 0.300, 50.200, 397, 100, 100, 19, 23657, -16482, 5289, 5453, 13, 14, 1528390396.582, 120, 0, 1024, 1024, 1024, 1024, 0, 6, 3941, 3932, 3917, 3944, 3942, 3932, 0, 1, 5701, -90.000, 0.000, 50.000, 0.000, 0.000, -0.400, 0.0, , , , , , 97, , , 17, 17, 17
38.6884565, -120.4165580, 1.100, 09:53:16.681, 14, 0.00, 0.36, 97, -0.600, 0.400, 50.200, 397, 100, 100, 19, 23657, -16482, 5289, 5453, 13, 14, 1528390396.682, 83, 0, 1024, 1024, 1024, 1024, 0, 6, 3941, 3932, 3917, 3944, 3942, 3932, 0, 1, 5801, -89.900, 0.000, 50.000, 0.000, 0.000, -0.500, 0.0, , , , , , 97, , , 17, 17, 17
38.6884566, -120.4165580, 1.300, 09:53:16.782, 14, 0.00, 0.36, 97, 0.200, 0.700, 50.100, 397, 100, 100, 19, 23657, -16482, 5289, 5453, 13, 14, 1528390396.782, 84, 0, 1024, 1024, 1024, 1024, 0, 6, 3941, 3932, 3917, 3944, 3942, 3932, 0, 1, 5901, -89.900, 0.000, 50.000, 0.000, 0.000, -0.900, 0.0, , , , , , 97, , , 17, 17, 17
38.6884566, -120.4165580, 1.400, 09:53:16.882, 15, 0.00, 0.37, 97, 0.400, 0.900, 50.000, 397, 100, 100, 19, 23657, -16482, 5289, 5453, 13, 14, 1528390396.882, 88, 0, 1024, 1024, 1024, 1024, 0, 6, 3941, 3932, 3917, 3944, 3942, 3932, 0, 1, 6001, -89.900, 0.000, 50.000, 0.000, 0.000, -1.100, 0.0, , , , , , 97, , , 17, 17, 17
38.6884567, -120.4165580, 1.500, 09:53:16.982, 15, 0.00, 0.38, 97, 0.600, 1.100, 49.800, 397, 100, 100, 19, 23657, -16482, 5289, 5453, 13, 14, 1528390396.982, 97, 0, 1024, 1024, 1024, 1024, 0, 6, 3941, 3932, 3917, 3944, 3942, 3932, 0, 1, 6101, -89.900, 0.000, 50.000, 0.000, 0.000, -1.200, 0.0, , , , , , 97, , , 17, 17, 17
38.6884569, -120.4165579, 1.600, 09:53:17.081, 14, 0.00, 0.39, 97, 0.700, 1.200, 49.700, 397, 100, 100, 19, 23657, -16482, 5289, 5453, 13, 14, 1528390397.082, 68, 0, 1024, 1024, 1024, 1024, 0, 6, 3941, 3932, 3917, 3944, 3942, 3932, 0, 1, 6201, -89.900, 0.000, 50.000, 0.000, 0.000, -1.400, 0.0, , , , , , 97, , , 17, 17, 17
38.6884570, -120.4165579, 1.800, 09:53:17.182, 14, 0.00, 0.40, 97, 0.800, 1.300, 49.600, 397, 100, 100, 19, 23657, -16482, 5289, 5453, 13, 14, 1528390397.183, 9, 0, 1024, 1024, 1024, 1024, 0, 6, 3941, 3932, 3917, 3944, 3942, 3932, 0, 1, 6302, -89.900, 0.000, 50.000, 0.000, 0.000, -1.600, 0.0, , , , , , 97, , , 17, 17, 17
38.6884571, -120.4165578, 1.900, 09:53:17.282, 16, 0.00, 0.42, 97, 0.800, 1.400, 49.600, 397, 100, 100, 19, 23657, -16482, 5289, 5453, 13, 14, 1528390397.282, 23, 0, 1024, 1024, 1024, 1024, 0, 6, 3941, 3932, 3917, 3944, 3942, 3932, 0, 1, 6401, -89.900, 0.000, 50.000, 0.000, 0.000, -1.800, 0.0, , , , , , 97, , , 17, 17, 17
38.6884572, -120.4165577, 2.100, 09:53:17.382, 16, 0.00, 0.43, 97, 0.800, 1.500, 49.700, 397, 100, 100, 19, 23550, -16224, 5289, 5453, 13, 14, 1528390397.382, 30, 0, 1024, 1024, 1024, 1024, 0, 6, 3923, 3920, 3976, 4010, 3958, 3932, 0, 1, 6501, -89.900, 0.000, 50.000, 0.000, 0.000, -2.100, 0.0, , , , , , 97, , , 17, 17, 17
38.6884574, -120.4165577, 2.400, 09:53:17.482, 16, 0.00, 0.45, 97, 0.700, 1.500, 49.800, 397, 100, 100, 19, 23550, -16224, 5289, 5453, 13, 14, 1528390397.482, 21, 0, 1024, 1024, 1024, 1024, 0, 6, 3923, 3920, 3976, 4010, 3958, 3932, 0, 1, 6601, -89.900, 0.000, 50.000, 0.000, 0.000, -2.300, 0.0, , , , , , 97, , , 17, 17, 17
38.6884576, -120.4165579, 2.600, 09:53:17.582, 16, 0.00, 0.47, 97, 0.800, 1.500, 49.900, 397, 100, 100, 19, 23550, -16224, 5289, 5453, 13, 14, 1528390397.582, 6, 0, 1024, 1024, 1024, 1024, 0, 6, 3923, 3920, 3976, 4010, 3958, 3932, 0, 1, 6701, -89.900, 0.000, 50.000, 0.000, 0.000, -2.500, 0.0, , , , , , 97, , , 17, 17, 17
38.6884578, -120.4165581, 2.900, 09:53:17.681, 15, 0.00, 0.50, 97, 1.200, 1.400, 50.000, 397, 100, 100, 19, 23550, -16224, 5289, 5453, 13, 14, 1528390397.682, 38, 0, 1024, 1024, 1024, 1024, 0, 6, 3923, 3920, 3976, 4010, 3958, 3932, 0, 1, 6801, -89.900, 0.000, 50.000, 0.000, 0.000, -2.800, 0.0, , , , , , 97, , , 17, 17, 17
38.6884578, -120.4165581, 2.900, 09:53:17.782, 15, 0.00, 0.50, 97, 1.200, 1.400, 50.000, 397, 100, 100, 19, 23550, -16224, 5289, 5453, 13, 14, 1528390397.782, 138, 0, 1024, 1024, 1024, 1024, 0, 6, 3923, 3920, 3976, 4010, 3958, 3932, 0, 1, 6901, -89.900, 0.000, 50.000, 0.000, 0.000, -2.800, 0.0, , , , , , 97, , , 17, 17, 17
38.6884583, -120.4165583, 3.500, 09:53:17.882, 15, 0.00, 0.55, 97, 1.900, 1.300, 50.000, 397, 100, 100, 19, 23550, -16224, 5289, 5453, 13, 14, 1528390397.882, 28, 0, 1024, 1024, 1024, 1024, 0, 6, 3923, 3920, 3976, 4010, 3958, 3932, 0, 1, 7001, -89.900, 0.000, 50.000, 0.000, 0.000, -3.100, 0.0, , , , , , 97, , , 17, 17, 17
38.6884585, -120.4165584, 3.800, 09:53:17.981, 15, 0.00, 0.58, 97, 2.200, 1.500, 50.000, 397, 100, 100, 19, 23550, -16224, 5289, 5453, 13, 14, 1528390397.982, 18, 0, 1024, 1024, 1024, 1024, 0, 6, 3923, 3920, 3976, 4010, 3958, 3932, 0, 1, 7100, -89.900, 0.000, 50.000, 0.000, 0.000, -3.200, 0.0, , , , , , 97, , , 17, 17, 17
38.6884587, -120.4165585, 4.200, 09:53:18.091, 15, 0.00, 0.61, 97, 2.500, 1.800, 49.900, 397, 100, 100, 19, 23550, -16224, 5289, 5453, 13, 14, 1528390398.091, 13, 0, 1024, 1024, 1024, 1024, 0, 6, 3923, 3920, 3976, 4010, 3958, 3932, 0, 1, 7210, -89.900, 0.000, 50.000, 0.000, 0.000, -3.200, 0.0, , , , , , 97, , , 17, 17, 17
38.6884587, -120.4165585, 4.200, 09:53:18.182, 15, 0.00, 0.61, 97, 2.500, 1.800, 49.900, 397, 100, 100, 19, 23550, -16224, 5289, 5453, 13, 14, 1528390398.182, 104, 0, 1024, 1024, 1024, 1024, 0, 6, 3923, 3920, 3976, 4010, 3958, 3932, 0, 1, 7301, -89.900, 0.000, 50.000, 0.000, 0.000, -3.200, 0.0, , , , , , 97, , , 17, 17, 17
38.6884590, -120.4165586, 4.500, 09:53:18.282, 15, 0.00, 0.64, 97, 2.700, 2.100, 49.700, 397, 100, 100, 19, 23550, -16224, 5289, 5453, 13, 14, 1528390398.282, 36, 0, 1024, 1024, 1024, 1024, 0, 6, 3923, 3920, 3976, 4010, 3958, 3932, 0, 1, 7401, -89.900, 0.000, 50.000, 0.000, 0.000, -3.300, 0.0, , , , , , 97, , , 17, 17, 17
38.6884592, -120.4165586, 4.900, 09:53:18.382, 15, 0.00, 0.66, 97, 2.800, 2.200, 49.600, 397, 100, 100, 19, 23550, -16224, 5289, 5453, 13, 14, 1528390398.383, 48, 0, 1024, 1024, 1024, 1024, 0, 6, 3923, 3920, 3976, 4010, 3958, 3932, 0, 1, 7502, -89.900, 0.000, 50.000, 0.000, 0.000, -3.300, 0.0, , , , , , 97, , , 17, 17, 17
38.6884594, -120.4165587, 5.200, 09:53:18.482, 15, 0.00, 0.68, 97, 2.700, 2.300, 49.600, 397, 100, 100, 19, 23081, -21524, 5289, 5453, 13, 14, 1528390398.483, 78, 0, 1024, 1024, 1024, 1024, 0, 6, 3923, 3920, 3976, 4010, 3958, 3932, 0, 1, 7602, -89.900, 0.000, 50.000, 0.000, 0.000, -3.400, 0.0, , , , , , 97, , , 17, 17, 17
38.6884594, -120.4165588, 5.600, 09:53:18.643, 15, 0.00, 0.69, 97, 2.700, 2.200, 49.600, 397, 100, 100, 19, 23081, -21524, 5289, 5453, 13, 14, 1528390398.644, 13, 0, 1024, 1024, 1024, 1024, 0, 6, 3804, 3797, 3795, 3824, 3817, 3818, 0, 1, 7762, -89.900, 0.000, 50.000, 0.000, 0.000, -3.300, 0.0, , , , , , 97, , , 17, 17, 17
38.6884594, -120.4165588, 5.600, 09:53:18.682, 15, 0.00, 0.69, 97, 2.700, 2.200, 49.600, 397, 100, 100, 19, 23081, -21524, 5289, 5453, 13, 14, 1528390398.682, 51, 0, 1024, 1024, 1024, 1024, 0, 6, 3804, 3797, 3795, 3824, 3817, 3818, 0, 1, 7801, -89.900, 0.000, 50.000, 0.000, 0.000, -3.300, 0.0, , , , , , 97, , , 17, 17, 17
38.6884594, -120.4165588, 5.900, 09:53:18.781, 15, 0.00, 0.68, 97, 2.600, 2.000, 49.600, 397, 100, 100, 19, 23081, -21524, 5289, 5453, 13, 14, 1528390398.783, 64, 0, 1024, 1024, 1024, 1024, 0, 6, 3804, 3797, 3795, 3824, 3817, 3818, 0, 1, 7901, -89.900, 0.000, 50.000, 0.000, 0.000, -3.300, 0.0, , , , , , 97, , , 17, 17, 17
38.6884594, -120.4165588, 5.900, 09:53:18.882, 15, 0.00, 0.68, 97, 2.600, 2.000, 49.600, 397, 100, 100, 19, 23081, -21524, 5289, 5453, 13, 14, 1528390398.883, 165, 0, 1024, 1024, 1024, 1024, 0, 6, 3804, 3797, 3795, 3824, 3817, 3818, 0, 1, 8002, -89.900, 0.000, 50.000, 0.000, 0.000, -3.300, 0.0, , , , , , 97, , , 17, 17, 17
38.6884593, -120.4165589, 6.300, 09:53:18.982, 15, 0.00, 0.68, 97, 2.200, 1.700, 49.700, 397, 100, 100, 19, 23081, -21524, 5289, 5453, 13, 14, 1528390398.982, 36, 0, 1024, 1024, 1024, 1024, 0, 6, 3804, 3797, 3795, 3824, 3817, 3818, 0, 1, 8101, -90.000, 0.000, 50.000, 0.000, 0.000, -3.300, 0.0, , , , , , 97, , , 17, 17, 17
38.6884593, -120.4165589, 6.300, 09:53:19.081, 15, 0.00, 0.68, 97, 2.200, 1.700, 49.700, 397, 100, 100, 19, 23081, -21524, 5289, 5453, 13, 14, 1528390399.082, 136, 0, 1024, 1024, 1024, 1024, 0, 6, 3804, 3797, 3795, 3824, 3817, 3818, 0, 1, 8201, -90.000, 0.000, 50.000, 0.000, 0.000, -3.300, 0.0, , , , , , 97, , , 17, 17, 17
38.6884593, -120.4165588, 7.000, 09:53:19.198, 15, 0.10, 0.67, 97, 1.500, 1.300, 49.700, 397, 100, 100, 19, 23081, -21524, 5289, 5453, 13, 14, 1528390399.198, 15, 0, 1024, 1024, 1024, 1024, 0, 6, 3804, 3797, 3795, 3824, 3817, 3818, 0, 1, 8317, -89.900, 0.000, 50.000, -0.100, 0.000, -3.200, 0.0, , , , , , 97, , , 17, 17, 17
38.6884591, -120.4165587, 7.300, 09:53:19.282, 15, 0.10, 0.66, 97, 1.400, 1.400, 49.800, 397, 100, 98, 19, 23081, -21524, 5289, 5453, 13, 14, 1528390399.282, 48, 0, 1024, 1024, 1024, 1024, 0, 6, 3804, 3797, 3795, 3824, 3817, 3818, 0, 1, 8401, -89.900, 0.000, 50.000, -0.100, 0.000, -3.200, 0.0, , , , , , 97, , , 17, 17, 17
38.6884591, -120.4165587, 7.300, 09:53:19.381, 15, 0.10, 0.66, 97, 1.400, 1.400, 49.800, 397, 100, 98, 19, 23081, -21524, 5289, 5453, 13, 14, 1528390399.382, 147, 0, 1024, 1024, 1024, 1024, 0, 6, 3804, 3797, 3795, 3824, 3817, 3818, 0, 1, 8501, -89.900, 0.000, 50.000, -0.100, 0.000, -3.200, 0.0, , , , , , 97, , , 17, 17, 17
38.6884579, -120.4165583, 8.600, 09:53:19.482, 15, 0.20, 0.51, 97, -0.400, 0.700, 49.800, 397, 100, 98, 19, 23081, -21524, 5289, 5453, 13, 14, 1528390399.483, 53, 0, 1024, 1024, 1024, 1024, 0, 6, 3804, 3797, 3795, 3824, 3817, 3818, 0, 1, 8601, -90.000, 0.000, 50.000, -0.200, 0.000, -3.100, 0.0, , , , , , 97, , , 17, 17, 17
38.6884569, -120.4165582, 9.300, 09:53:19.595, 15, 0.20, 0.41, 97, -1.200, 0.000, 49.800, 397, 100, 98, 19, 22709, -24545, 5289, 5453, 13, 14, 1528390399.595, 6, 0, 1024, 1024, 1024, 1024, 0, 6, 3806, 3812, 3785, 3823, 3821, 3807, 0, 1, 8714, -90.000, 0.000, 50.000, -0.200, 0.000, -3.100, 0.0, , , , , , 97, , , 17, 17, 17
38.6884565, -120.4165581, 9.600, 09:53:19.682, 16, 0.20, 0.36, 97, -1.900, -0.500, 49.800, 397, 100, 98, 19, 22709, -24545, 5289, 5453, 13, 14, 1528390399.682, 52, 0, 1024, 1024, 1024, 1024, 0, 6, 3806, 3812, 3785, 3823, 3821, 3807, 0, 1, 8801, -90.000, 0.000, 50.000, -0.200, 0.000, -3.100, 0.0, , , , , , 97, , , 17, 17, 17
38.6884562, -120.4165580, 9.900, 09:53:19.786, 16, 0.10, 0.33, 97, -2.000, -0.800, 49.800, 397, 100, 98, 19, 22709, -24545, 5289, 5453, 13, 14, 1528390399.787, 4, 0, 1024, 1024, 1024, 1024, 0, 6, 3806, 3812, 3785, 3823, 3821, 3807, 0, 1, 8906, -90.000, 0.000, 50.000, -0.100, 0.000, -3.000, 0.0, , , , , , 97, , , 17, 17, 17
38.6884560, -120.4165579, 10.200, 09:53:19.881, 16, 0.10, 0.31, 97, -2.000, -0.700, 49.800, 397, 100, 98, 19, 22709, -24545, 5289, 5453, 13, 14, 1528390399.882, 47, 0, 1024, 1024, 1024, 1024, 0, 6, 3806, 3812, 3785, 3823, 3821, 3807, 0, 1, 9001, -90.000, 0.000, 50.000, -0.100, 0.000, -3.100, 0.0, , , , , , 97, , , 17, 17, 17
38.6884557, -120.4165577, 10.900, 09:53:19.991, 16, 0.00, 0.27, 97, -1.600, 0.000, 49.700, 397, 100, 98, 19, 22709, -24545, 5289, 5453, 13, 14, 1528390399.991, 9, 0, 1024, 1024, 1024, 1024, 0, 6, 3806, 3812, 3785, 3823, 3821, 3807, 0, 1, 9110, -89.900, 0.000, 50.000, 0.000, 0.000, -3.000, 0.0, , , , , , 97, , , 17, 17, 17
38.6884556, -120.4165576, 11.200, 09:53:20.085, 16, 0.00, 0.26, 97, -1.300, 0.400, 49.700, 397, 100, 98, 19, 22709, -24545, 5289, 5453, 13, 14, 1528390400.086, 6, 0, 1024, 1024, 1024, 1024, 0, 6, 3806, 3812, 3785, 3823, 3821, 3807, 0, 1, 9205, -89.900, 0.000, 50.000, 0.000, 0.000, -3.000, 0.0, , , , , , 97, , , 17, 17, 17
38.6884556, -120.4165576, 11.500, 09:53:20.188, 15, 0.00, 0.25, 97, -1.100, 0.600, 49.800, 397, 100, 98, 19, 22709, -24545, 5289, 5453, 13, 14, 1528390400.188, 8, 0, 1024, 1024, 1024, 1024, 0, 6, 3806, 3812, 3785, 3823, 3821, 3807, 0, 1, 9307, -89.900, 0.000, 50.000, 0.000, 0.000, -3.000, 0.0, , , , , , 97, , , 17, 17, 17
38.6884554, -120.4165575, 11.800, 09:53:20.282, 15, 0.00, 0.23, 97, -0.900, 0.600, 49.800, 397, 100, 98, 19, 23157, -18682, 5289, 5453, 13, 14, 1528390400.282, 5, 0, 1024, 1024, 1024, 1024, 0, 6, 3806, 3812, 3785, 3823, 3821, 3807, 0, 1, 9401, -89.900, 0.000, 50.000, 0.000, 0.000, -3.000, 0.0, , , , , , 97, , , 17, 17, 17
38.6884552, -120.4165574, 12.100, 09:53:20.386, 14, 0.00, 0.21, 97, -1.100, 0.500, 49.800, 397, 100, 100, 19, 23157, -18682, 5289, 5453, 13, 14, 1528390400.388, 12, 0, 1024, 1024, 1024, 1024, 0, 6, 3859, 3854, 3839, 3870, 3866, 3858, 0, 1, 9506, -89.900, 0.000, 50.000, 0.000, 0.000, -3.000, 0.0, , , , , , 97, , , 17, 17, 17
38.6884551, -120.4165574, 12.500, 09:53:20.494, 14, 0.00, 0.19, 97, -1.300, 0.300, 49.900, 397, 100, 100, 19, 23157, -18682, 5289, 5453, 13, 14, 1528390400.494, 4, 0, 1024, 1024, 1024, 1024, 0, 6, 3859, 3854, 3839, 3870, 3866, 3858, 0, 1, 9613, -90.000, 0.000, 50.000, 0.000, 0.000, -3.000, 0.0, , , , , , 97, , , 17, 17, 17
38.6884551, -120.4165574, 12.500, 09:53:20.582, 14, 0.00, 0.19, 97, -1.300, 0.300, 49.900, 397, 100, 100, 19, 23157, -18682, 5289, 5453, 13, 14, 1528390400.582, 92, 0, 1024, 1024, 1024, 1024, 0, 6, 3859, 3854, 3839, 3870, 3866, 3858, 0, 1, 9701, -90.000, 0.000, 50.000, 0.000, 0.000, -3.000, 0.0, , , , , , 97, , , 17, 17, 17
38.6884550, -120.4165573, 12.800, 09:53:20.682, 15, 0.00, 0.18, 97, -1.400, 0.000, 49.900, 397, 100, 100, 19, 23157, -18682, 5289, 5453, 13, 14, 1528390400.682, 84, 0, 1024, 1024, 1024, 1024, 0, 6, 3859, 3854, 3839, 3870, 3866, 3858, 0, 1, 9801, -90.000, 0.000, 50.000, 0.000, 0.000, -2.900, 0.0, , , , , , 97, , , 17, 17, 17
38.6884550, -120.4165573, 13.100, 09:53:20.782, 15, 0.00, 0.18, 97, -1.400, 0.000, 49.900, 397, 100, 100, 19, 23157, -18682, 5289, 5453, 13, 14, 1528390400.783, 77, 0, 1024, 1024, 1024, 1024, 0, 6, 3859, 3854, 3839, 3870, 3866, 3858, 0, 1, 9901, -89.900, 0.000, 50.000, 0.000, 0.000, -2.900, 0.0, , , , , , 97, , , 17, 17, 17
38.6884550, -120.4165573, 13.400, 09:53:20.882, 14, 0.00, 0.18, 97, -1.200, 0.000, 49.900, 397, 100, 100, 19, 23157, -18682, 5289, 5453, 13, 14, 1528390400.883, 83, 0, 1024, 1024, 1024, 1024, 0, 6, 3859, 3854, 3839, 3870, 3866, 3858, 0, 1, 10002, -89.900, 0.000, 50.000, 0.000, 0.000, -2.900, 0.0, , , , , , 97, , , 17, 17, 17
38.6884550, -120.4165573, 13.700, 09:53:20.982, 14, 0.00, 0.18, 97, -1.000, 0.000, 49.900, 397, 100, 99, 19, 23157, -18682, 5289, 5453, 13, 14, 1528390400.982, 80, 0, 1024, 1024, 1024, 1024, 0, 6, 3859, 3854, 3839, 3870, 3866, 3858, 0, 1, 10101, -90.000, 0.000, 50.000, 0.000, 0.000, -2.900, 0.0, , , , , , 97, , , 17, 17, 17
38.6884549, -120.4165573, 14.000, 09:53:21.082, 15, 0.00, 0.17, 97, -0.900, 0.100, 50.000, 397, 100, 99, 19, 23157, -18682, 5289, 5453, 13, 14, 1528390401.082, 69, 0, 1024, 1024, 1024, 1024, 0, 6, 3859, 3854, 3839, 3870, 3866, 3858, 0, 1, 10201, -89.900, 0.000, 50.000, 0.000, 0.000, -2.800, 0.0, , , , , , 97, , , 17, 17, 17
38.6884549, -120.4165573, 14.300, 09:53:21.182, 15, 0.00, 0.17, 97, -0.800, 0.200, 50.000, 397, 100, 99, 19, 23157, -18682, 5289, 5453, 13, 14, 1528390401.182, 54, 0, 1024, 1024, 1024, 1024, 0, 6, 3859, 3854, 3839, 3870, 3866, 3858, 0, 1, 10301, -90.000, 0.000, 50.000, 0.000, 0.000, -2.800, 0.0, , , , , , 97, , , 17, 17, 17
38.6884549, -120.4165574, 14.600, 09:53:21.282, 15, 0.00, 0.18, 97, -0.700, 0.200, 50.100, 397, 100, 99, 19, 23157, -18682, 5289, 5453, 13, 14, 1528390401.282, 69, 0, 1024, 1024, 1024, 1024, 0, 6, 3859, 3854, 3839, 3870, 3866, 3858, 0, 1, 10401, -89.900, 0.000, 50.000, 0.000, 0.000, -2.800, 0.0, , , , , , 97, , , 17, 17, 17
38.6884550, -120.4165574, 14.800, 09:53:21.382, 15, 0.00, 0.18, 97, -0.500, 0.400, 50.000, 397, 100, 99, 19, 23173, -18682, 5289, 5453, 13, 14, 1528390401.383, 50, 0, 1024, 1024, 1024, 1024, 0, 6, 3859, 3854, 3839, 3870, 3866, 3858, 0, 1, 10501, -89.900, 0.000, 50.000, 0.000, 0.000, -2.900, 0.0, , , , , , 97, , , 17, 17, 17
38.6884551, -120.4165573, 15.400, 09:53:21.482, 15, 0.10, 0.19, 97, -0.300, 0.700, 49.900, 397, 100, 99, 19, 23173, -18682, 5289, 5453, 13, 14, 1528390401.482, 26, 0, 1024, 1024, 1024, 1024, 0, 6, 3859, 3854, 3839, 3870, 3866, 3858, 0, 1, 10601, -89.900, 0.000, 50.000, 0.100, 0.000, -2.800, 0.0, , , , , , 97, , , 17, 17, 17
38.6884552, -120.4165573, 15.700, 09:53:21.582, 17, 0.10, 0.20, 97, -0.300, 0.900, 49.800, 397, 100, 99, 19, 23173, -18682, 5289, 5453, 13, 14, 1528390401.582, 31, 0, 1024, 1024, 1024, 1024, 0, 6, 3859, 3854, 3839, 3870, 3866, 3858, 0, 1, 10701, -89.900, 0.000, 50.000, 0.100, 0.000, -2.900, 0.0, , , , , , 97, , , 17, 17, 17
38.6884552, -120.4165574, 16.000, 09:53:21.682, 17, 0.10, 0.21, 97, -0.200, 1.000, 49.800, 397, 100, 99, 19, 23173, -18682, 5289, 5453, 13, 14, 1528390401.682, 35, 0, 1024, 1024, 1024, 1024, 0, 6, 3859, 3854, 3839, 3870, 3866, 3858, 0, 1, 10801, -89.900, 0.000, 50.000, 0.100, 0.000, -2.900, 0.0, , , , , , 97, , , 17, 17, 17
38.6884553, -120.4165574, 16.300, 09:53:21.782, 17, 0.10, 0.21, 97, -0.200, 1.000, 49.800, 397, 100, 99, 19, 23173, -18682, 5289, 5453, 13, 14, 1528390401.782, 37, 0, 1024, 1024, 1024, 1024, 0, 6, 3858, 3858, 3843, 3874, 3880, 3860, 0, 1, 10901, -89.900, 0.000, 50.000, 0.100, 0.000, -2.900, 0.0, , , , , , 97, , , 17, 17, 17
38.6884554, -120.4165575, 16.600, 09:53:21.882, 17, 0.10, 0.23, 97, -0.100, 0.900, 49.700, 397, 100, 99, 19, 23173, -18682, 5289, 5453, 13, 14, 1528390401.882, 20, 0, 1024, 1024, 1024, 1024, 0, 6, 3858, 3858, 3843, 3874, 3880, 3860, 0, 1, 11001, -89.900, 0.000, 50.000, 0.100, 0.000, -2.900, 0.0, , , , , , 97, , , 17, 17, 17
38.6884556, -120.4165575, 16.900, 09:53:21.982, 15, 0.10, 0.25, 97, 0.000, 0.900, 49.700, 397, 100, 99, 19, 23173, -18682, 5289, 5453, 13, 14, 1528390401.982, 33, 0, 1024, 1024, 1024, 1024, 0, 6, 3858, 3858, 3843, 3874, 3880, 3860, 0, 1, 11101, -89.900, 0.000, 50.000, 0.100, 0.000, -2.900, 0.0, , , , , , 97, , , 17, 17, 17
38.6884557, -120.4165576, 17.200, 09:53:22.081, 15, 0.10, 0.26, 97, 0.300, 1.000, 49.700, 397, 100, 99, 19, 23173, -18682, 5289, 5453, 13, 14, 1528390402.082, 16, 0, 1024, 1024, 1024, 1024, 0, 6, 3858, 3858, 3843, 3874, 3880, 3860, 0, 1, 11201, -90.000, 0.000, 50.000, 0.100, 0.000, -2.900, 0.0, , , , , , 97, , , 17, 17, 17
38.6884557, -120.4165576, 17.200, 09:53:22.182, 15, 0.10, 0.26, 97, 0.300, 1.000, 49.700, 397, 100, 99, 19, 23173, -18682, 5289, 5453, 13, 14, 1528390402.182, 116, 0, 1024, 1024, 1024, 1024, 0, 6, 3858, 3858, 3843, 3874, 3880, 3860, 0, 1, 11301, -90.000, 0.000, 50.000, 0.100, 0.000, -2.900, 0.0, , , , , , 97, , , 17, 17, 17
38.6884560, -120.4165576, 17.800, 09:53:22.287, 16, 0.10, 0.30, 97, 0.500, 1.200, 49.700, 397, 100, 99, 19, 23173, -18682, 5289, 5453, 13, 14, 1528390402.287, 6, 0, 1024, 1024, 1024, 1024, 0, 6, 3858, 3858, 3843, 3874, 3880, 3860, 0, 1, 11406, -89.900, 0.000, 50.000, 0.100, 0.000, -2.900, 0.0, , , , , , 97, , , 17, 17, 17
38.6884562, -120.4165577, 18.100, 09:53:22.386, 17, 0.00, 0.31, 97, 0.500, 1.200, 49.700, 397, 100, 98, 19, 23173, -18682, 5289, 5453, 13, 14, 1528390402.386, 7, 0, 1024, 1024, 1024, 1024, 0, 6, 3858, 3858, 3843, 3874, 3880, 3860, 0, 1, 11505, -89.900, 0.000, 50.000, 0.000, 0.000, -2.900, 0.0, , , , , , 97, , , 17, 17, 17
38.6884562, -120.4165577, 18.100, 09:53:22.482, 17, 0.00, 0.31, 97, 0.500, 1.200, 49.700, 397, 100, 98, 19, 23173, -18682, 5289, 5453, 13, 14, 1528390402.482, 103, 0, 1024, 1024, 1024, 1024, 0, 6, 3858, 3858, 3843, 3874, 3880, 3860, 0, 1, 11601, -89.900, 0.000, 50.000, 0.000, 0.000, -2.900, 0.0, , , , , , 97, , , 17, 17, 17
38.6884564, -120.4165578, 18.700, 09:53:22.600, 18, 0.00, 0.34, 97, 0.600, 1.300, 49.600, 397, 100, 98, 19, 23173, -18682, 5289, 5453, 13, 14, 1528390402.600, 6, 0, 1024, 1024, 1024, 1024, 0, 6, 3858, 3858, 3843, 3874, 3880, 3860, 0, 1, 11719, -89.900, 0.000, 50.000, 0.000, 0.000, -2.900, 0.0, , , , , , 97, , , 17, 17, 17
38.6884564, -120.4165578, 18.700, 09:53:22.682, 18, 0.00, 0.34, 97, 0.600, 1.300, 49.600, 397, 100, 98, 19, 23173, -18682, 5289, 5453, 13, 14, 1528390402.682, 88, 0, 1024, 1024, 1024, 1024, 0, 6, 3858, 3858, 3843, 3874, 3880, 3860, 0, 1, 11801, -89.900, 0.000, 50.000, 0.000, 0.000, -2.900, 0.0, , , , , , 97, , , 17, 17, 17
38.6884566, -120.4165579, 19.000, 09:53:22.782, 18, 0.00, 0.36, 97, 0.600, 1.200, 49.600, 397, 100, 98, 19, 23173, -18682, 5289, 5453, 13, 14, 1528390402.782, 81, 0, 1024, 1024, 1024, 1024, 0, 6, 3858, 3858, 3843, 3874, 3880, 3860, 0, 1, 11901, -89.900, 0.000, 50.000, 0.000, 0.000, -3.000, 0.0, , , , , , 97, , , 17, 17, 17
38.6884567, -120.4165579, 19.300, 09:53:22.882, 18, 0.00, 0.38, 97, 0.600, 1.200, 49.600, 397, 100, 98, 19, 23162, -19345, 5234, 5453, 13, 14, 1528390402.883, 90, 0, 1024, 1024, 1024, 1024, 0, 6, 3842, 3832, 3826, 3858, 3854, 3842, 0, 1, 12001, -89.900, 0.000, 50.000, 0.000, 0.000, -2.900, 0.0, , , , , , 97, , , 17, 17, 17
38.6884569, -120.4165580, 19.600, 09:53:22.982, 18, 0.00, 0.40, 97, 0.700, 1.200, 49.700, 397, 100, 98, 19, 23162, -19345, 5234, 5453, 13, 14, 1528390402.982, 77, 0, 1024, 1024, 1024, 1024, 0, 6, 3842, 3832, 3826, 3858, 3854, 3842, 0, 1, 12101, -89.900, 0.000, 50.000, 0.000, 0.000, -2.900, 0.0, , , , , , 97, , , 17, 17, 17
38.6884571, -120.4165580, 19.900, 09:53:23.082, 18, 0.00, 0.42, 97, 1.100, 1.200, 49.800, 397, 100, 98, 19, 23162, -19345, 5234, 5453, 13, 14, 1528390403.082, 71, 0, 1024, 1024, 1024, 1024, 0, 6, 3842, 3832, 3826, 3858, 3854, 3842, 0, 1, 12201, -89.900, 0.000, 50.000, 0.000, 0.000, -2.900, 0.0, , , , , , 97, , , 17, 17, 17
38.6884571, -120.4165580, 19.900, 09:53:23.182, 18, 0.00, 0.42, 97, 1.100, 1.200, 49.800, 397, 100, 98, 19, 23162, -19345, 5234, 5453, 13, 14, 1528390403.182, 171, 0, 1024, 1024, 1024, 1024, 0, 6, 3842, 3832, 3826, 3858, 3854, 3842, 0, 1, 12301, -89.900, 0.000, 50.000, 0.000, 0.000, -2.900, 0.0, , , , , , 97, , , 17, 17, 17
38.6884576, -120.4165582, 20.800, 09:53:23.282, 18, 0.00, 0.48, 97, 1.300, 1.300, 50.000, 397, 100, 98, 19, 23162, -19345, 5234, 5453, 13, 14, 1528390403.282, 50, 0, 1024, 1024, 1024, 1024, 0, 6, 3842, 3832, 3826, 3858, 3854, 3842, 0, 1, 12401, -89.900, 0.000, 50.000, 0.000, 0.000, -2.900, 0.0, , , , , , 97, , , 17, 17, 17
38.6884576, -120.4165582, 20.800, 09:53:23.382, 18, 0.00, 0.48, 96, 1.300, 1.300, 50.000, 397, 100, 98, 19, 23162, -19345, 5234, 5453, 13, 14, 1528390403.382, 150, 0, 1024, 1024, 1024, 1024, 0, 6, 3842, 3832, 3826, 3858, 3854, 3842, 0, 1, 12501, -89.900, 0.000, 50.000, 0.000, 0.000, -2.900, 0.0, , , , , , 97, , , 17, 17, 17
38.6884579, -120.4165583, 21.400, 09:53:23.482, 18, 0.00, 0.51, 96, 1.100, 1.200, 50.100, 397, 100, 96, 19, 23162, -19345, 5234, 5453, 13, 14, 1528390403.482, 51, 0, 1024, 1024, 1024, 1024, 0, 6, 3842, 3832, 3826, 3858, 3854, 3842, 0, 1, 12601, -89.900, 0.000, 50.000, 0.000, 0.000, -3.000, 0.0, , , , , , 97, , , 17, 17, 17
38.6884579, -120.4165583, 21.400, 09:53:23.582, 18, 0.00, 0.51, 96, 1.100, 1.200, 50.100, 397, 100, 96, 19, 23162, -19345, 5234, 5453, 13, 14, 1528390403.582, 151, 0, 1024, 1024, 1024, 1024, 0, 6, 3842, 3832, 3826, 3858, 3854, 3842, 0, 1, 12701, -89.900, 0.000, 50.000, 0.000, 0.000, -3.000, 0.0, , , , , , 97, , , 17, 17, 17
38.6884581, -120.4165585, 22.000, 09:53:23.682, 18, 0.00, 0.54, 96, 1.300, 1.300, 50.200, 397, 100, 96, 19, 23162, -19345, 5234, 5453, 13, 14, 1528390403.683, 25, 0, 1024, 1024, 1024, 1024, 0, 6, 3842, 3832, 3826, 3858, 3854, 3842, 0, 1, 12801, -89.900, 0.000, 50.000, 0.000, 0.000, -2.900, 0.0, , , , , , 97, , , 17, 17, 17
38.6884582, -120.4165585, 22.300, 09:53:23.782, 18, 0.00, 0.55, 96, 1.200, 1.300, 50.100, 397, 100, 96, 19, 23162, -19345, 5234, 5453, 13, 14, 1528390403.783, 44, 0, 1024, 1024, 1024, 1024, 0, 6, 3842, 3832, 3826, 3858, 3854, 3842, 0, 1, 12902, -89.900, 0.000, 50.000, 0.000, 0.000, -2.900, 0.0, , , , , , 97, , , 17, 17, 17
38.6884583, -120.4165586, 22.600, 09:53:23.882, 18, 0.00, 0.57, 96, 1.200, 1.400, 50.000, 397, 100, 97, 19, 22977, -19273, 5234, 5453, 13, 14, 1528390403.883, 35, 0, 1024, 1024, 1024, 1024, 0, 6, 3826, 3827, 3816, 3843, 3838, 3838, 0, 1, 13001, -89.900, 0.000, 50.000, 0.000, 0.000, -2.900, 0.0, , , , , , 97, , , 17, 17, 17
38.6884584, -120.4165586, 22.900, 09:53:23.982, 19, 0.00, 0.58, 96, 1.300, 1.500, 49.900, 397, 100, 97, 19, 22977, -19273, 5234, 5453, 13, 14, 1528390403.982, 48, 0, 1024, 1024, 1024, 1024, 0, 6, 3826, 3827, 3816, 3843, 3838, 3838, 0, 1, 13101, -89.900, 0.000, 50.000, 0.000, 0.000, -3.000, 0.0, , , , , , 97, , , 17, 17, 17
38.6884585, -120.4165586, 23.200, 09:53:24.082, 19, 0.00, 0.59, 96, 1.400, 1.500, 49.800, 397, 100, 97, 19, 22977, -19273, 5234, 5453, 13, 14, 1528390404.083, 25, 0, 1024, 1024, 1024, 1024, 0, 6, 3826, 3827, 3816, 3843, 3838, 3838, 0, 1, 13201, -89.900, 0.000, 50.000, 0.000, 0.000, -2.900, 0.0, , , , , , 97, , , 17, 17, 17
38.6884586, -120.4165587, 23.500, 09:53:24.182, 20, 0.00, 0.59, 96, 1.400, 1.400, 49.700, 397, 100, 97, 19, 22977, -19273, 5234, 5453, 13, 14, 1528390404.183, 39, 0, 1024, 1024, 1024, 1024, 0, 6, 3826, 3827, 3816, 3843, 3838, 3838, 0, 1, 13302, -89.900, 0.000, 50.000, 0.000, 0.000, -2.900, 0.0, , , , , , 97, , , 17, 17, 17
38.6884586, -120.4165587, 23.800, 09:53:24.282, 20, 0.00, 0.60, 96, 1.400, 1.300, 49.600, 397, 100, 97, 19, 22977, -19273, 5234, 5453, 13, 14, 1528390404.282, 36, 0, 1024, 1024, 1024, 1024, 0, 6, 3826, 3827, 3816, 3843, 3838, 3838, 0, 1, 13401, -89.900, 0.000, 50.000, 0.000, 0.000, -2.900, 0.0, , , , , , 97, , , 17, 17, 17
38.6884587, -120.4165587, 24.100, 09:53:24.382, 19, 0.00, 0.61, 96, 1.400, 1.300, 49.600, 397, 100, 98, 19, 22977, -19273, 5234, 5453, 13, 14, 1528390404.382, 13, 0, 1024, 1024, 1024, 1024, 0, 6, 3826, 3827, 3816, 3843, 3838, 3838, 0, 1, 13501, -89.900, 0.000, 50.000, 0.000, 0.000, -2.900, 0.0, , , , , , 97, , , 17, 17, 17
38.6884588, -120.4165587, 24.400, 09:53:24.482, 19, 0.00, 0.62, 96, 1.400, 1.400, 49.600, 397, 100, 98, 19, 22977, -19273, 5234, 5453, 13, 14, 1528390404.482, 28, 0, 1024, 1024, 1024, 1024, 0, 6, 3826, 3827, 3816, 3843, 3838, 3838, 0, 1, 13601, -89.900, 0.000, 50.000, 0.000, 0.000, -2.900, 0.0, , , , , , 97, , , 17, 17, 17
38.6884588, -120.4165588, 24.700, 09:53:24.582, 19, 0.00, 0.62, 96, 1.300, 1.400, 49.600, 397, 100, 98, 19, 22977, -19273, 5234, 5453, 13, 14, 1528390404.582, 30, 0, 1024, 1024, 1024, 1024, 0, 6, 3826, 3827, 3816, 3843, 3838, 3838, 0, 1, 13701, -89.900, 0.000, 50.000, 0.000, 0.000, -2.900, 0.0, , , , , , 97, , , 17, 17, 17
38.6884588, -120.4165588, 25.000, 09:53:24.681, 19, 0.00, 0.62, 96, 1.200, 1.400, 49.700, 397, 100, 98, 19, 22977, -19273, 5234, 5453, 13, 14, 1528390404.681, 5, 0, 1024, 1024, 1024, 1024, 0, 6, 3826, 3827, 3816, 3843, 3838, 3838, 0, 1, 13800, -89.900, 0.000, 50.000, 0.000, 0.000, -3.000, 0.0, , , , , , 97, , , 17, 17, 17
38.6884588, -120.4165588, 25.300, 09:53:24.781, 19, 0.00, 0.62, 96, 1.000, 1.300, 49.700, 397, 100, 98, 19, 22977, -19089, 5234, 5453, 13, 14, 1528390404.782, 10, 0, 1024, 1024, 1024, 1024, 0, 6, 3826, 3827, 3816, 3843, 3838, 3838, 0, 1, 13901, -89.900, 0.000, 50.000, 0.000, 0.000, -3.000, 0.0, , , , , , 97, , , 17, 17, 17
38.6884588, -120.4165589, 25.600, 09:53:24.882, 19, 0.00, 0.62, 96, 1.000, 1.200, 49.800, 397, 100, 99, 19, 22977, -19089, 5234, 5453, 13, 14, 1528390404.882, 14, 0, 1024, 1024, 1024, 1024, 0, 6, 3832, 3830, 3812, 3836, 3837, 3826, 0, 1, 14001, -89.900, 0.000, 50.000, 0.000, 0.000, -2.900, 0.0, , , , , , 97, , , 17, 17, 17
38.6884588, -120.4165589, 25.900, 09:53:24.990, 20, 0.00, 0.62, 96, 1.000, 1.100, 49.800, 397, 100, 99, 19, 22977, -19089, 5234, 5453, 13, 14, 1528390404.991, 12, 0, 1024, 1024, 1024, 1024, 0, 6, 3832, 3830, 3812, 3836, 3837, 3826, 0, 1, 14110, -89.900, 0.000, 50.000, 0.000, 0.000, -2.900, 0.0, , , , , , 97, , , 17, 17, 17
38.6884588, -120.4165589, 25.900, 09:53:25.082, 20, 0.00, 0.62, 96, 1.000, 1.100, 49.800, 397, 100, 99, 19, 22977, -19089, 5234, 5453, 13, 14, 1528390405.083, 104, 0, 1024, 1024, 1024, 1024, 0, 6, 3832, 3830, 3812, 3836, 3837, 3826, 0, 1, 14201, -89.900, 0.000, 50.000, 0.000, 0.000, -2.900, 0.0, , , , , , 97, , , 17, 17, 17
38.6884588, -120.4165589, 26.200, 09:53:25.182, 20, 0.00, 0.62, 96, 1.000, 1.000, 49.800, 397, 100, 99, 19, 22977, -19089, 5234, 5453, 13, 14, 1528390405.183, 41, 0, 1024, 1024, 1024, 1024, 0, 6, 3832, 3830, 3812, 3836, 3837, 3826, 0, 1, 14301, -90.000, 0.000, 50.000, 0.000, 0.000, -2.900, 0.0, , , , , , 97, , , 17, 17, 17
38.6884588, -120.4165589, 26.400, 09:53:25.282, 20, 0.10, 0.62, 96, 1.000, 1.000, 49.900, 397, 100, 99, 19, 22977, -19089, 5234, 5453, 13, 14, 1528390405.282, 90, 0, 1024, 1024, 1024, 1024, 0, 6, 3832, 3830, 3812, 3836, 3837, 3826, 0, 1, 14401, -89.900, 0.000, 50.000, -0.100, 0.000, -2.900, 0.0, , , , , , 97, , , 17, 17, 17
38.6884587, -120.4165590, 26.700, 09:53:25.382, 20, 0.10, 0.62, 96, 1.100, 1.000, 49.900, 397, 100, 99, 19, 22977, -19089, 5234, 5453, 13, 14, 1528390405.382, 95, 0, 1024, 1024, 1024, 1024, 0, 6, 3832, 3830, 3812, 3836, 3837, 3826, 0, 1, 14501, -89.900, 0.000, 50.000, -0.100, 0.000, -2.900, 0.0, , , , , , 97, , , 17, 17, 17
38.6884587, -120.4165590, 27.000, 09:53:25.482, 20, 0.10, 0.61, 96, 1.000, 1.000, 49.800, 397, 100, 99, 19, 22977, -19089, 5234, 5453, 13, 14, 1528390405.482, 97, 0, 1024, 1024, 1024, 1024, 0, 6, 3832, 3830, 3812, 3836, 3837, 3826, 0, 1, 14601, -89.900, 0.000, 50.000, -0.100, 0.000, -2.900, 0.0, , , , , , 97, , , 17, 17, 17
38.6884586, -120.4165590, 27.300, 09:53:25.582, 20, 0.10, 0.61, 96, 0.900, 0.900, 49.800, 397, 100, 99, 19, 22977, -19089, 5234, 5453, 13, 14, 1528390405.582, 88, 0, 1024, 1024, 1024, 1024, 0, 6, 3832, 3830, 3812, 3836, 3837, 3826, 0, 1, 14701, -90.000, 0.000, 50.000, -0.100, 0.000, -3.000, 0.0, , , , , , 97, , , 17, 17, 17
38.6884586, -120.4165590, 27.700, 09:53:25.682, 19, 0.10, 0.60, 96, 0.700, 0.800, 49.700, 397, 100, 99, 19, 22977, -19089, 5234, 5453, 13, 14, 1528390405.683, 82, 0, 1024, 1024, 1024, 1024, 0, 6, 3832, 3830, 3812, 3836, 3837, 3826, 0, 1, 14801, -89.900, 0.000, 50.000, -0.100, 0.000, -3.000, 0.0, , , , , , 97, , , 17, 17, 17
38.6884585, -120.4165590, 28.000, 09:53:25.782, 19, 0.10, 0.59, 96, 0.300, 0.700, 49.700, 397, 100, 99, 19, 22977, -19089, 5234, 5453, 13, 14, 1528390405.782, 47, 0, 1024, 1024, 1024, 1024, 0, 6, 3832, 3830, 3812, 3836, 3837, 3826, 0, 1, 14901, -90.000, 0.000, 50.000, -0.100, 0.000, -3.000, 0.0, , , , , , 97, , , 17, 17, 17
38.6884585, -120.4165589, 28.300, 09:53:25.882, 20, 0.10, 0.59, 96, 0.300, 0.800, 49.700, 397, 100, 99, 19, 22911, -19121, 5234, 5453, 13, 14, 1528390405.882, 67, 0, 1024, 1024, 1024, 1024, 0, 6, 3811, 3822, 3798, 3834, 3824, 3817, 0, 1, 15001, -89.900, 0.000, 50.000, -0.100, 0.000, -3.000, 0.0, , , , , , 97, , , 17, 17, 17
38.6884584, -120.4165589, 28.600, 09:53:25.982, 20, 0.10, 0.58, 96, 0.100, 0.900, 49.800, 397, 100, 99, 19, 22911, -19121, 5234, 5453, 13, 14, 1528390405.982, 71, 0, 1024, 1024, 1024, 1024, 0, 6, 3811, 3822, 3798, 3834, 3824, 3817, 0, 1, 15101, -89.900, 0.000, 50.000, -0.100, 0.000, -2.900, 0.0, , , , , , 97, , , 17, 17, 17
38.6884584, -120.4165589, 28.900, 09:53:26.081, 21, 0.10, 0.58, 96, 0.000, 1.100, 49.900, 397, 100, 99, 19, 22911, -19121, 5234, 5453, 13, 14, 1528390406.082, 83, 0, 1024, 1024, 1024, 1024, 0, 6, 3811, 3822, 3798, 3834, 3824, 3817, 0, 1, 15201, -89.900, 0.000, 50.000, -0.100, 0.000, -2.900, 0.0, , , , , , 97, , , 17, 17, 17
38.6884584, -120.4165589, 28.900, 09:53:26.182, 21, 0.10, 0.58, 96, 0.000, 1.100, 49.900, 397, 100, 99, 19, 22911, -19121, 5234, 5453, 13, 14, 1528390406.182, 183, 0, 1024, 1024, 1024, 1024, 0, 6, 3811, 3822, 3798, 3834, 3824, 3817, 0, 1, 15301, -89.900, 0.000, 50.000, -0.100, 0.000, -2.900, 0.0, , , , , , 97, , , 17, 17, 17
38.6884582, -120.4165589, 29.500, 09:53:26.282, 21, 0.10, 0.56, 96, 0.100, 1.000, 50.100, 397, 100, 99, 19, 22911, -19121, 5234, 5453, 13, 14, 1528390406.282, 68, 0, 1024, 1024, 1024, 1024, 0, 6, 3811, 3822, 3798, 3834, 3824, 3817, 0, 1, 15401, -90.000, 0.000, 50.000, -0.100, 0.000, -2.900, 0.0, , , , , , 97, , , 17, 17, 17
38.6884580, -120.4165589, 30.100, 09:53:26.381, 21, 0.10, 0.54, 96, 0.200, 0.800, 50.100, 397, 100, 97, 19, 22911, -19121, 5234, 5453, 13, 14, 1528390406.382, 8, 0, 1024, 1024, 1024, 1024, 0, 6, 3811, 3822, 3798, 3834, 3824, 3817, 0, 1, 15501, -90.000, 0.000, 50.000, -0.100, 0.000, -2.900, 0.0, , , , , , 97, , , 17, 17, 17
38.6884580, -120.4165589, 30.100, 09:53:26.481, 21, 0.10, 0.54, 96, 0.200, 0.800, 50.100, 397, 100, 97, 19, 22911, -19121, 5234, 5453, 13, 14, 1528390406.482, 108, 0, 1024, 1024, 1024, 1024, 0, 6, 3811, 3822, 3798, 3834, 3824, 3817, 0, 1, 15600, -90.000, 0.000, 50.000, -0.100, 0.000, -2.900, 0.0, , , , , , 97, , , 17, 17, 17
38.6884579, -120.4165589, 30.600, 09:53:26.582, 21, 0.00, 0.53, 96, 0.100, 0.700, 49.900, 397, 100, 97, 19, 22911, -19121, 5234, 5453, 13, 14, 1528390406.582, 17, 0, 1024, 1024, 1024, 1024, 0, 6, 3811, 3822, 3798, 3834, 3824, 3817, 0, 1, 15701, -89.900, 0.000, 50.000, 0.000, 0.000, -2.900, 0.0, , , , , , 97, , , 17, 17, 17
38.6884579, -120.4165589, 30.900, 09:53:26.682, 21, 0.00, 0.53, 96, 0.300, 1.000, 49.800, 397, 100, 97, 19, 22911, -19121, 5234, 5453, 13, 14, 1528390406.683, 45, 0, 1024, 1024, 1024, 1024, 0, 6, 3811, 3822, 3798, 3834, 3824, 3817, 0, 1, 15802, -89.900, 0.000, 50.000, 0.000, 0.000, -3.000, 0.0, , , , , , 97, , , 17, 17, 17
38.6884578, -120.4165589, 31.200, 09:53:26.781, 21, 0.00, 0.52, 96, 0.300, 1.200, 49.600, 397, 100, 97, 19, 22911, -19121, 5234, 5453, 13, 14, 1528390406.782, 7, 0, 1024, 1024, 1024, 1024, 0, 6, 3811, 3822, 3798, 3834, 3824, 3817, 0, 1, 15901, -89.900, 0.000, 50.000, 0.000, 0.000, -2.900, 0.0, , , , , , 97, , , 17, 17, 17
38.6884578, -120.4165588, 31.500, 09:53:26.882, 21, 0.00, 0.51, 96, 0.200, 1.200, 49.600, 397, 100, 93, 19, 22911, -19121, 5234, 5453, 13, 14, 1528390406.882, 17, 0, 1024, 1024, 1024, 1024, 0, 6, 3811, 3822, 3798, 3834, 3824, 3817, 0, 1, 16001, -89.900, 0.000, 50.000, 0.000, 0.000, -3.000, 0.0, , , , , , 97, , , 17, 17, 17
38.6884577, -120.4165588, 31.900, 09:53:26.982, 21, 0.00, 0.51, 96, 0.200, 1.000, 49.600, 397, 100, 93, 19, 22911, -19121, 5234, 5453, 13, 14, 1528390406.983, 41, 0, 1024, 1024, 1024, 1024, 0, 6, 3811, 3822, 3798, 3834, 3824, 3817, 0, 1, 16101, -89.900, 0.000, 50.000, 0.000, 0.000, -3.000, 0.0, , , , , , 97, , , 17, 17, 17
38.6884577, -120.4165588, 31.900, 09:53:27.083, 21, 0.00, 0.51, 96, 0.200, 1.000, 49.600, 397, 100, 93, 19, 22911, -19121, 5234, 5453, 13, 14, 1528390407.083, 141, 0, 1024, 1024, 1024, 1024, 0, 6, 3811, 3822, 3798, 3834, 3824, 3817, 0, 1, 16202, -89.900, 0.000, 50.000, 0.000, 0.000, -3.000, 0.0, , , , , , 97, , , 17, 17, 17
38.6884576, -120.4165588, 32.500, 09:53:27.182, 21, 0.00, 0.50, 96, 0.200, 0.900, 49.500, 397, 100, 93, 19, 22911, -19121, 5234, 5453, 13, 14, 1528390407.182, 20, 0, 1024, 1024, 1024, 1024, 0, 6, 3811, 3822, 3798, 3834, 3824, 3817, 0, 1, 16301, -89.900, 0.000, 50.000, 0.000, 0.000, -3.000, 0.0, , , , , , 97, , , 17, 17, 17
38.6884575, -120.4165589, 32.800, 09:53:27.282, 21, 0.00, 0.49, 96, 0.200, 0.800, 49.400, 397, 100, 93, 19, 22893, -19313, 5234, 5453, 13, 14, 1528390407.283, 14, 0, 1024, 1024, 1024, 1024, 0, 6, 3811, 3822, 3798, 3834, 3824, 3817, 0, 1, 16401, -90.000, 0.000, 50.000, 0.000, 0.000, -3.000, 0.0, , , , , , 97, , , 17, 17, 17
38.6884575, -120.4165589, 33.100, 09:53:27.381, 21, 0.00, 0.48, 96, 0.000, 0.600, 49.400, 397, 100, 89, 19, 22893, -19313, 5234, 5453, 13, 14, 1528390407.382, 16, 0, 1024, 1024, 1024, 1024, 0, 6, 3815, 3816, 3793, 3830, 3816, 3813, 0, 1, 16501, -90.000, 0.000, 50.000, 0.000, 0.000, -2.900, 0.0, , , , , , 97, , , 17, 17, 17
38.6884575, -120.4165589, 33.100, 09:53:27.482, 21, 0.00, 0.48, 96, 0.000, 0.600, 49.400, 397, 100, 89, 19, 22893, -19313, 5234, 5453, 13, 14, 1528390407.483, 117, 0, 1024, 1024, 1024, 1024, 0, 6, 3815, 3816, 3793, 3830, 3816, 3813, 0, 1, 16601, -90.000, 0.000, 50.000, 0.000, 0.000, -2.900, 0.0, , , , , , 97, , , 17, 17, 17
38.6884574, -120.4165589, 33.400, 09:53:27.582, 21, 0.00, 0.48, 96, 0.000, 0.600, 49.500, 397, 100, 89, 19, 22893, -19313, 5234, 5453, 13, 14, 1528390407.582, 87, 0, 1024, 1024, 1024, 1024, 0, 6, 3815, 3816, 3793, 3830, 3816, 3813, 0, 1, 16701, -90.000, 0.000, 50.000, 0.000, 0.000, -2.900, 0.0, , , , , , 97, , , 17, 17, 17
38.6884573, -120.4165589, 34.000, 09:53:27.686, 21, 0.00, 0.47, 96, 0.200, 0.300, 49.700, 397, 100, 89, 19, 22893, -19313, 5234, 5453, 13, 14, 1528390407.686, 6, 0, 1024, 1024, 1024, 1024, 0, 6, 3815, 3816, 3793, 3830, 3816, 3813, 0, 1, 16805, -90.000, 0.000, 50.000, 0.000, 0.000, -3.000, 0.0, , , , , , 97, , , 17, 17, 17
38.6884573, -120.4165589, 34.000, 09:53:27.782, 21, 0.00, 0.47, 96, 0.200, 0.300, 49.700, 397, 100, 89, 19, 22893, -19313, 5234, 5453, 13, 14, 1528390407.782, 102, 0, 1024, 1024, 1024, 1024, 0, 6, 3815, 3816, 3793, 3830, 3816, 3813, 0, 1, 16901, -90.000, 0.000, 50.000, 0.000, 0.000, -3.000, 0.0, , , , , , 97, , , 17, 17, 17
38.6884573, -120.4165590, 34.300, 09:53:27.882, 21, 0.00, 0.47, 96, 0.500, 0.300, 49.800, 397, 100, 89, 19, 22893, -19313, 5234, 5453, 13, 14, 1528390407.882, 80, 0, 1024, 1024, 1024, 1024, 0, 6, 3815, 3816, 3793, 3830, 3816, 3813, 0, 1, 17001, -90.000, 0.000, 50.000, 0.000, 0.000, -3.000, 0.0, , , , , , 97, , , 17, 17, 17
38.6884573, -120.4165590, 34.600, 09:53:27.982, 21, 0.00, 0.47, 96, 0.700, 0.400, 49.900, 397, 100, 89, 19, 22893, -19313, 5234, 5453, 13, 14, 1528390407.982, 59, 0, 1024, 1024, 1024, 1024, 0, 6, 3815, 3816, 3793, 3830, 3816, 3813, 0, 1, 17101, -89.900, 0.000, 50.000, 0.000, 0.000, -3.000, 0.0, , , , , , 97, , , 17, 17, 17
38.6884573, -120.4165590, 34.900, 09:53:28.082, 21, 0.00, 0.47, 96, 0.800, 0.600, 50.100, 397, 100, 89, 19, 22893, -19313, 5234, 5453, 13, 14, 1528390408.082, 71, 0, 1024, 1024, 1024, 1024, 0, 6, 3815, 3816, 3793, 3830, 3816, 3813, 0, 1, 17201, -89.900, 0.000, 50.000, 0.000, 0.000, -3.000, 0.0, , , , , , 97, , , 17, 17, 17
38.6884573, -120.4165590, 35.200, 09:53:28.182, 21, 0.00, 0.47, 96, 0.800, 0.700, 50.200, 397, 100, 89, 19, 22893, -19313, 5234, 5453, 13, 14, 1528390408.182, 72, 0, 1024, 1024, 1024, 1024, 0, 6, 3815, 3816, 3793, 3830, 3816, 3813, 0, 1, 17301, -89.900, 0.000, 50.000, 0.000, 0.000, -3.000, 0.0, , , , , , 97, , , 17, 17, 17
38.6884573, -120.4165591, 35.500, 09:53:28.282, 21, 0.00, 0.47, 96, 0.900, 0.700, 50.300, 397, 100, 89, 19, 22893, -19313, 5234, 5453, 13, 14, 1528390408.282, 86, 0, 1024, 1024, 1024, 1024, 0, 6, 3815, 3816, 3793, 3830, 3816, 3813, 0, 1, 17401, -89.900, 0.000, 50.000, 0.000, 0.000, -2.900, 0.0, , , , , , 97, , , 17, 17, 17
38.6884573, -120.4165591, 35.500, 09:53:28.382, 21, 0.00, 0.47, 96, 0.900, 0.700, 50.300, 397, 100, 89, 19, 22893, -19313, 5234, 5453, 13, 14, 1528390408.382, 186, 0, 1024, 1024, 1024, 1024, 0, 6, 3815, 3816, 3793, 3830, 3816, 3813, 0, 1, 17501, -89.900, 0.000, 50.000, 0.000, 0.000, -2.900, 0.0, , , , , , 97, , , 17, 17, 17
38.6884573, -120.4165591, 35.500, 09:53:28.482, 21, 0.00, 0.47, 96, 0.900, 0.700, 50.300, 397, 100, 89, 19, 22893, -19313, 5234, 5453, 13, 14, 1528390408.482, 286, 0, 1024, 1024, 1024, 1024, 0, 6, 3815, 3816, 3793, 3830, 3816, 3813, 0, 1, 17601, -90.000, 0.000, 50.000, 0.000, 0.000, -2.900, 0.0, , , , , , 97, , , 17, 17, 17
38.6884573, -120.4165591, 36.400, 09:53:28.582, 21, 0.00, 0.47, 96, 1.200, 0.800, 50.100, 397, 100, 89, 19, 22893, -19313, 5234, 5453, 13, 14, 1528390408.582, 73, 0, 1024, 1024, 1024, 1024, 0, 6, 3815, 3816, 3793, 3830, 3816, 3813, 0, 1, 17701, -90.000, 0.000, 50.000, 0.000, 0.000, -2.900, 0.0, , , , , , 97, , , 17, 17, 17
38.6884573, -120.4165590, 37.000, 09:53:28.682, 21, 0.00, 0.47, 96, 0.700, 0.900, 49.700, 397, 100, 89, 19, 22893, -19313, 5234, 5453, 13, 14, 1528390408.682, 55, 0, 1024, 1024, 1024, 1024, 0, 6, 3815, 3816, 3793, 3830, 3816, 3813, 0, 1, 17801, -89.900, 0.000, 50.000, 0.000, 0.000, -2.900, 0.0, , , , , , 97, , , 17, 17, 17
38.6884573, -120.4165590, 37.300, 09:53:28.782, 21, 0.00, 0.47, 96, 0.800, 0.900, 49.600, 397, 100, 89, 19, 22893, -19313, 5234, 5453, 13, 14, 1528390408.783, 26, 0, 1024, 1024, 1024, 1024, 0, 6, 3815, 3816, 3793, 3830, 3816, 3813, 0, 1, 17901, -89.900, 0.000, 50.000, 0.000, 0.000, -2.900, 0.0, , , , , , 97, , , 17, 17, 17
38.6884573, -120.4165590, 37.500, 09:53:28.882, 21, 0.00, 0.47, 96, 1.000, 1.000, 49.500, 397, 100, 90, 19, 22850, -19394, 5234, 5453, 13, 14, 1528390408.882, 39, 0, 1024, 1024, 1024, 1024, 0, 6, 3808, 3813, 3784, 3822, 3823, 3808, 0, 1, 18001, -89.900, 0.000, 50.000, 0.000, 0.000, -2.900, 0.0, , , , , , 97, , , 17, 17, 17
38.6884573, -120.4165590, 37.800, 09:53:28.982, 21, 0.00, 0.47, 96, 1.000, 1.100, 49.500, 397, 100, 90, 19, 22850, -19394, 5234, 5453, 13, 14, 1528390408.982, 21, 0, 1024, 1024, 1024, 1024, 0, 6, 3808, 3813, 3784, 3822, 3823, 3808, 0, 1, 18101, -89.900, 0.000, 50.000, 0.000, 0.000, -2.900, 0.0, , , , , , 97, , , 17, 17, 17
38.6884573, -120.4165589, 38.100, 09:53:29.082, 21, 0.00, 0.47, 96, 0.900, 1.200, 49.500, 397, 100, 90, 19, 22850, -19394, 5234, 5453, 13, 14, 1528390409.082, 30, 0, 1024, 1024, 1024, 1024, 0, 6, 3808, 3813, 3784, 3822, 3823, 3808, 0, 1, 18201, -89.900, 0.000, 50.000, 0.000, 0.000, -2.900, 0.0, , , , , , 97, , , 17, 17, 17
38.6884573, -120.4165589, 38.400, 09:53:29.182, 21, 0.00, 0.47, 96, 0.800, 1.200, 49.600, 397, 100, 90, 19, 22850, -19394, 5234, 5453, 13, 14, 1528390409.182, 18, 0, 1024, 1024, 1024, 1024, 0, 6, 3808, 3813, 3784, 3822, 3823, 3808, 0, 1, 18301, -89.900, 0.000, 50.000, 0.000, 0.000, -3.000, 0.0, , , , , , 97, , , 17, 17, 17
38.6884573, -120.4165589, 38.400, 09:53:29.282, 21, 0.00, 0.47, 96, 0.800, 1.200, 49.600, 397, 100, 90, 20, 22950, -18279, 5234, 5453, 13, 14, 1528390409.283, 118, 0, 1024, 1024, 1024, 1024, 0, 6, 3808, 3813, 3784, 3822, 3823, 3808, 0, 1, 18402, -89.900, 0.000, 50.000, 0.000, 0.000, -3.000, 0.0, , , , , , 97, , , 17, 17, 17
38.6884573, -120.4165589, 39.000, 09:53:29.382, 21, 0.00, 0.47, 96, 0.700, 0.900, 49.800, 397, 100, 90, 20, 22950, -18279, 5234, 5453, 13, 14, 1528390409.383, 36, 0, 1024, 1024, 1024, 1024, 0, 6, 3828, 3816, 3799, 3846, 3838, 3818, 0, 1, 18502, -90.000, 0.000, 50.000, 0.000, 0.000, -3.000, 0.0, , , , , , 97, , , 17, 17, 17
38.6884573, -120.4165589, 39.000, 09:53:29.482, 21, 0.00, 0.47, 96, 0.700, 0.900, 49.800, 397, 100, 90, 20, 22950, -18279, 5234, 5453, 13, 14, 1528390409.482, 135, 0, 1024, 1024, 1024, 1024, 0, 6, 3828, 3816, 3799, 3846, 3838, 3818, 0, 1, 18601, -90.000, 0.000, 50.000, 0.000, 0.000, -3.000, 0.0, , , , , , 97, , , 17, 17, 17
38.6884573, -120.4165589, 39.600, 09:53:29.582, 21, 0.00, 0.47, 96, 0.900, 0.900, 50.000, 397, 100, 90, 20, 22950, -18279, 5234, 5453, 13, 14, 1528390409.582, 21, 0, 1024, 1024, 1024, 1024, 0, 6, 3828, 3816, 3799, 3846, 3838, 3818, 0, 1, 18701, -89.900, 0.000, 50.000, 0.000, 0.000, -2.900, 0.0, , , , , , 97, , , 17, 17, 17
38.6884574, -120.4165588, 39.900, 09:53:29.682, 21, 0.00, 0.47, 96, 1.000, 0.900, 50.000, 397, 100, 90, 20, 22950, -18279, 5234, 5453, 13, 14, 1528390409.683, 23, 0, 1024, 1024, 1024, 1024, 0, 6, 3828, 3816, 3799, 3846, 3838, 3818, 0, 1, 18801, -89.900, 0.000, 50.000, 0.000, 0.000, -2.900, 0.0, , , , , , 97, , , 17, 17, 17
38.6884574, -120.4165588, 39.900, 09:53:29.782, 21, 0.00, 0.47, 96, 1.000, 0.900, 50.000, 397, 100, 90, 20, 22950, -18279, 5234, 5453, 13, 14, 1528390409.785, 125, 0, 1024, 1024, 1024, 1024, 0, 6, 3828, 3816, 3799, 3846, 3838, 3818, 0, 1, 18904, -89.900, 0.000, 50.000, 0.000, 0.000, -2.900, 0.0, , , , , , 97, , , 17, 17, 17
38.6884574, -120.4165588, 40.500, 09:53:29.881, 21, 0.00, 0.47, 96, 0.700, 1.000, 49.800, 397, 100, 96, 20, 22950, -18279, 5234, 5453, 13, 14, 1528390409.882, 10, 0, 1024, 1024, 1024, 1024, 0, 6, 3828, 3816, 3799, 3846, 3838, 3818, 0, 1, 19001, -89.900, 0.000, 50.000, 0.000, 0.000, -3.000, 0.0, , , , , , 97, , , 17, 17, 17
38.6884574, -120.4165588, 40.800, 09:53:29.995, 21, 0.00, 0.47, 96, 0.700, 1.100, 49.700, 397, 100, 96, 20, 22950, -18279, 5234, 5453, 13, 14, 1528390409.995, 13, 0, 1024, 1024, 1024, 1024, 0, 6, 3828, 3816, 3799, 3846, 3838, 3818, 0, 1, 19114, -89.900, 0.000, 50.000, 0.000, 0.000, -2.900, 0.0, , , , , , 97, , , 17, 17, 17
38.6884574, -120.4165588, 40.800, 09:53:30.082, 21, 0.00, 0.47, 96, 0.700, 1.100, 49.700, 397, 100, 96, 20, 22950, -18279, 5234, 5453, 13, 14, 1528390410.082, 100, 0, 1024, 1024, 1024, 1024, 0, 6, 3828, 3816, 3799, 3846, 3838, 3818, 0, 1, 19201, -89.900, 0.000, 50.000, 0.000, 0.000, -2.900, 0.0, , , , , , 97, , , 17, 17, 17
38.6884574, -120.4165587, 41.100, 09:53:30.182, 21, 0.00, 0.48, 96, 0.700, 1.100, 49.600, 397, 100, 96, 20, 22950, -18279, 5234, 5453, 13, 14, 1528390410.183, 66, 0, 1024, 1024, 1024, 1024, 0, 6, 3828, 3816, 3799, 3846, 3838, 3818, 0, 1, 19301, -89.900, 0.000, 50.000, 0.000, 0.000, -2.900, 0.0, , , , , , 97, , , 17, 17, 17
38.6884575, -120.4165587, 41.400, 09:53:30.282, 21, 0.00, 0.48, 96, 0.800, 1.400, 49.500, 397, 100, 96, 20, 22950, -18279, 5234, 5453, 13, 14, 1528390410.283, 84, 0, 1024, 1024, 1024, 1024, 0, 6, 3828, 3816, 3799, 3846, 3838, 3818, 0, 1, 19401, -89.900, 0.000, 50.000, 0.000, 0.000, -2.900, 0.0, , , , , , 97, , , 17, 17, 17
38.6884575, -120.4165587, 41.700, 09:53:30.382, 21, 0.00, 0.48, 96, 0.800, 1.600, 49.500, 397, 100, 96, 20, 22877, -18601, 5234, 5453, 13, 14, 1528390410.382, 72, 0, 1024, 1024, 1024, 1024, 0, 6, 3807, 3809, 3796, 3838, 3833, 3817, 0, 1, 19501, -89.900, 0.000, 50.000, 0.000, 0.000, -2.900, 0.0, , , , , , 97, , , 17, 17, 17
38.6884575, -120.4165586, 42.000, 09:53:30.482, 21, 0.00, 0.48, 96, 0.800, 1.700, 49.600, 397, 100, 97, 20, 22877, -18601, 5234, 5453, 13, 14, 1528390410.483, 73, 0, 1024, 1024, 1024, 1024, 0, 6, 3807, 3809, 3796, 3838, 3833, 3817, 0, 1, 19602, -89.900, 0.000, 50.000, 0.000, 0.000, -3.000, 0.0, , , , , , 97, , , 17, 17, 17
38.6884575, -120.4165585, 42.300, 09:53:30.582, 21, 0.00, 0.48, 96, 0.700, 1.600, 49.800, 397, 100, 97, 20, 22877, -18601, 5234, 5453, 13, 14, 1528390410.582, 89, 0, 1024, 1024, 1024, 1024, 0, 6, 3807, 3809, 3796, 3838, 3833, 3817, 0, 1, 19701, -89.900, 0.000, 50.000, 0.000, 0.000, -3.000, 0.0, , , , , , 97, , , 17, 17, 17
38.6884575, -120.4165585, 42.600, 09:53:30.682, 22, 0.00, 0.48, 96, 0.400, 1.700, 50.000, 397, 100, 97, 20, 22877, -18601, 5234, 5453, 13, 14, 1528390410.682, 83, 0, 1024, 1024, 1024, 1024, 0, 6, 3807, 3809, 3796, 3838, 3833, 3817, 0, 1, 19801, -89.900, 0.000, 50.000, 0.000, 0.000, -2.900, 0.0, , , , , , 97, , , 17, 17, 17
38.6884576, -120.4165584, 42.900, 09:53:30.782, 22, 0.00, 0.48, 96, 0.500, 1.900, 50.200, 397, 100, 97, 20, 22877, -18601, 5234, 5453, 13, 14, 1528390410.782, 58, 0, 1024, 1024, 1024, 1024, 0, 6, 3807, 3809, 3796, 3838, 3833, 3817, 0, 1, 19901, -89.900, 0.000, 50.000, 0.000, 0.000, -2.900, 0.0, , , , , , 97, , , 17, 17, 17
38.6884576, -120.4165584, 43.200, 09:53:30.882, 22, 0.00, 0.49, 96, 0.700, 1.900, 50.400, 397, 100, 97, 20, 22877, -18601, 5234, 5453, 13, 14, 1528390410.882, 48, 0, 1024, 1024, 1024, 1024, 0, 6, 3807, 3809, 3796, 3838, 3833, 3817, 0, 1, 20001, -89.900, 0.000, 50.000, 0.000, 0.000, -2.900, 0.0, , , , , , 97, , , 17, 17, 17
38.6884576, -120.4165584, 43.200, 09:53:30.982, 22, 0.00, 0.49, 96, 0.700, 1.900, 50.400, 397, 100, 96, 20, 22877, -18601, 5234, 5453, 13, 14, 1528390410.982, 148, 0, 1024, 1024, 1024, 1024, 0, 6, 3807, 3809, 3796, 3838, 3833, 3817, 0, 1, 20101, -89.900, 0.000, 50.000, 0.000, 0.000, -2.900, 0.0, , , , , , 97, , , 17, 17, 17
38.6884578, -120.4165583, 44.100, 09:53:31.082, 22, 0.00, 0.50, 96, 0.700, 1.600, 50.600, 397, 100, 96, 20, 22877, -18601, 5234, 5453, 13, 14, 1528390411.082, 20, 0, 1024, 1024, 1024, 1024, 0, 6, 3807, 3809, 3796, 3838, 3833, 3817, 0, 1, 20201, -89.900, 0.000, 50.000, 0.000, 0.000, -2.900, 0.0, , , , , , 97, , , 17, 17, 17
38.6884578, -120.4165583, 44.400, 09:53:31.182, 22, 0.00, 0.51, 96, 1.000, 1.600, 50.400, 397, 100, 96, 20, 22877, -18601, 5234, 5453, 13, 14, 1528390411.183, 51, 0, 1024, 1024, 1024, 1024, 0, 6, 3807, 3809, 3796, 3838, 3833, 3817, 0, 1, 20301, -89.900, 0.000, 50.000, 0.000, 0.000, -2.900, 0.0, , , , , , 97, , , 17, 17, 17
38.6884579, -120.4165583, 44.700, 09:53:31.282, 22, 0.00, 0.51, 96, 1.200, 1.900, 50.100, 397, 100, 96, 20, 22877, -18601, 5234, 5453, 13, 14, 1528390411.283, 40, 0, 1024, 1024, 1024, 1024, 0, 6, 3807, 3809, 3796, 3838, 3833, 3817, 0, 1, 20401, -89.900, 0.000, 50.000, 0.000, 0.000, -3.000, 0.0, , , , , , 97, , , 17, 17, 17
38.6884579, -120.4165583, 45.000, 09:53:31.382, 22, 0.00, 0.51, 96, 1.400, 2.200, 49.900, 397, 100, 97, 20, 22907, -18303, 5234, 5453, 13, 14, 1528390411.382, 28, 0, 1024, 1024, 1024, 1024, 0, 6, 3811, 3809, 3792, 3829, 3824, 3815, 0, 1, 20501, -89.900, 0.000, 50.000, 0.000, 0.000, -3.000, 0.0, , , , , , 97, , , 17, 17, 17
38.6884579, -120.4165582, 45.300, 09:53:31.482, 22, 0.00, 0.51, 96, 1.200, 2.300, 49.700, 397, 100, 97, 20, 22907, -18303, 5234, 5453, 13, 14, 1528390411.482, 31, 0, 1024, 1024, 1024, 1024, 0, 6, 3811, 3809, 3792, 3829, 3824, 3815, 0, 1, 20601, -89.900, 0.000, 50.000, 0.000, 0.000, -3.000, 0.0, , , , , , 97, , , 17, 17, 17
38.6884579, -120.4165582, 45.300, 09:53:31.581, 22, 0.00, 0.51, 96, 1.200, 2.300, 49.700, 397, 100, 97, 20, 22907, -18303, 5234, 5453, 13, 14, 1528390411.582, 130, 0, 1024, 1024, 1024, 1024, 0, 6, 3811, 3809, 3792, 3829, 3824, 3815, 0, 1, 20700, -89.900, 0.000, 50.000, 0.000, 0.000, -3.000, 0.0, , , , , , 97, , , 17, 17, 17
38.6884580, -120.4165582, 45.900, 09:53:31.682, 22, 0.00, 0.52, 96, 1.000, 2.400, 49.400, 397, 100, 97, 20, 22907, -18303, 5234, 5453, 13, 14, 1528390411.682, 20, 0, 1024, 1024, 1024, 1024, 0, 6, 3811, 3809, 3792, 3829, 3824, 3815, 0, 1, 20801, -89.900, 0.000, 50.000, 0.000, 0.000, -3.000, 0.0, , , , , , 97, , , 17, 17, 17
38.6884580, -120.4165582, 46.200, 09:53:31.781, 22, 0.00, 0.52, 96, 1.100, 2.400, 49.400, 397, 100, 97, 20, 22907, -18303, 5234, 5453, 13, 14, 1528390411.782, 22, 0, 1024, 1024, 1024, 1024, 0, 6, 3811, 3809, 3792, 3829, 3824, 3815, 0, 1, 20900, -89.900, 0.000, 50.000, 0.000, 0.000, -3.000, 0.0, , , , , , 97, , , 17, 17, 17
38.6884580, -120.4165582, 46.500, 09:53:31.881, 22, 0.00, 0.52, 96, 1.200, 2.400, 49.400, 397, 100, 96, 20, 22907, -18303, 5234, 5453, 13, 14, 1528390411.882, 12, 0, 1024, 1024, 1024, 1024, 0, 6, 3811, 3809, 3792, 3829, 3824, 3815, 0, 1, 21001, -89.900, 0.000, 50.000, 0.000, 0.000, -2.900, 0.0, , , , , , 97, , , 17, 17, 17
38.6884580, -120.4165582, 46.500, 09:53:31.982, 22, 0.00, 0.52, 96, 1.200, 2.400, 49.400, 397, 100, 96, 20, 22907, -18303, 5234, 5453, 13, 14, 1528390411.983, 113, 0, 1024, 1024, 1024, 1024, 0, 6, 3811, 3809, 3792, 3829, 3824, 3815, 0, 1, 21101, -89.900, 0.000, 50.000, 0.000, 0.000, -2.900, 0.0, , , , , , 97, , , 17, 17, 17
38.6884581, -120.4165582, 46.800, 09:53:32.082, 22, 0.00, 0.53, 96, 1.300, 2.400, 49.500, 397, 100, 96, 20, 22907, -18303, 5234, 5453, 13, 14, 1528390412.082, 95, 0, 1024, 1024, 1024, 1024, 0, 6, 3811, 3809, 3792, 3829, 3824, 3815, 0, 1, 21201, -89.900, 0.000, 50.000, 0.000, 0.000, -3.000, 0.0, , , , , , 97, , , 17, 17, 17
