latitude,longitude,altitude(feet),ascent(feet),speed(mph),distance(feet),time(millisecond),datetime(utc),satellites,gpslevel,voltage(v),max_altitude(feet),max_ascent(feet),max_speed(mph),max_distance(feet), xSpeed(mph), ySpeed(mph), zSpeed(mph), compass_heading(degrees), pitch(degrees), roll(degrees),isPhoto,isVideo,rc_elevator,rc_aileron,rc_throttle,rc_rudder,gimbal_heading(degrees),gimbal_pitch(degrees),battery_percent,voltageCell1,voltageCell2,voltageCell3,voltageCell4,voltageCell5,voltageCell6,current(A),battery_temperature(f),flycStateRaw,flycState,message
38.7448364,-120.4088177,4219.144620905,0,0,0,3130,2018-06-07 21:01:30,8,0,0,4219.144620905,0,0,0,0,0,0,324.3, -0.4, 0.1,1,0,1024,1024,1024,1024,321.3,-89.9,97,4.169,4.208,4.188,4.228,4.218,4.175,0,77,11,AutoTakeoff,
38.7448363,-120.4088178,4219.144620905,0,0,0.046270014604,3200,2018-06-07 21:01:30,8,0,0,4219.144620905,0,0,0.046270014604,0,0,0,324.4, -0.3, 0,0,0,1024,1024,1024,1024,321.4,-89.9,97,4.169,4.208,4.188,4.228,4.218,4.175,0,77,11,AutoTakeoff,
38.7448362,-120.4088179,4219.144620905,0,0,0.092539701124,3300,2018-06-07 21:01:31,8,0,0,4219.144620905,0,0,0.092539701124,0,0,0,324.3, -0.4, 0.4,0,0,1024,1024,1024,1024,321.5,-90,97,4.169,4.208,4.188,4.228,4.218,4.175,0,77,11,AutoTakeoff,
38.7448362,-120.408818,4219.472704905,0.328084,0,0.11230479362,3400,2018-06-07 21:01:31,9,0,0,4219.472704905,0.328084,0,0.11230479362,0,0,0,324.2, -0.2, 0.7,0,0,1024,1024,1024,1024,321.5,-89.9,97,4.169,4.208,4.188,4.228,4.218,4.175,0,77,11,AutoTakeoff,
38.7448361,-120.4088181,4219.472704905,0.328084,0,0.157912406628,3500,2018-06-07 21:01:31,9,0,0,4219.472704905,0.328084,0,0.157912406628,0,0,0,324, 0, 0.7,0,0,1024,1024,1024,1024,321.6,-89.9,97,4.169,4.208,4.188,4.228,4.218,4.175,0,77,11,AutoTakeoff,
38.744836,-120.4088182,4219.800788905,0.656168,0,0.20381890416,3600,2018-06-07 21:01:31,9,0,0,4219.800788905,0.656168,0,0.20381890416,0,0,0,323.8, 0.1, 0.7,0,0,1024,1024,1024,1024,321.6,-89.9,97,4.169,4.208,4.188,4.228,4.218,4.175,0,77,11,AutoTakeoff,
38.7448359,-120.4088183,4219.800788905,0.656168,0,0.249859588048,3700,2018-06-07 21:01:31,9,0,0,4219.800788905,0.656168,0,0.249859588048,0,0,0,323.5, 0, 0.7,0,0,1024,1024,1024,1024,321.7,-89.9,97,4.169,4.208,4.188,4.228,4.218,4.175,0,77,11,AutoTakeoff,
38.7448358,-120.4088184,4220.128872905,0.984252,0,0.295971466164,3900,2018-06-07 21:01:31,9,0,0,4220.128872905,0.984252,0,0.295971466164,0,0,0,323.3, 0.1, 0.9,0,0,1024,1024,1024,1024,321.7,-89.9,97,4.169,4.208,4.188,4.228,4.218,4.175,0,77,11,AutoTakeoff,
38.7448356,-120.4088186,4220.456956905,1.312336,0,0.38830709904,4010,2018-06-07 21:01:31,9,0,25.393,4220.456956905,1.312336,0,0.38830709904,0,0,-0.223694,323.4, -0.1, 1.7,0,0,1024,1024,1024,1024,321.8,-89.9,97,4.169,4.208,4.188,4.228,4.218,4.175,4.334,77,11,AutoTakeoff,
38.7448356,-120.4088186,4220.785040905,1.64042,0,0.38830709904,4100,2018-06-07 21:01:31,9,0,25.393,4220.785040905,1.64042,0,0.38830709904,0,0,-0.223694,323.5, -0.1, 1.6,0,0,1024,1024,1024,1024,321.8,-89.9,97,4.169,4.208,4.188,4.228,4.218,4.175,4.334,77,11,AutoTakeoff,
38.7448355,-120.4088185,4221.113124905,1.968504,0,0.3995570994,4300,2018-06-07 21:01:32,9,0,25.393,4221.113124905,1.968504,0,0.3995570994,0,0,-0.223694,323.5, -0.1, 1.5,0,0,1024,1024,1024,1024,321.9,-89.9,97,4.169,4.208,4.188,4.228,4.218,4.175,4.334,77,11,AutoTakeoff,
38.7448354,-120.4088186,4221.113124905,1.968504,0,0.44576444996,4400,2018-06-07 21:01:32,9,0,25.393,4221.113124905,1.968504,0,0.44576444996,0,0,0,323.5, -0.2, 1.2,0,0,1024,1024,1024,1024,321.9,-89.9,97,4.169,4.208,4.188,4.228,4.218,4.175,4.334,77,11,AutoTakeoff,
38.7448354,-120.4088186,4221.441208905,2.296588,0,0.44576444996,4500,2018-06-07 21:01:32,9,0,25.393,4221.441208905,2.296588,0,0.44576444996,0,0,0,323.6, -0.2, 0.9,0,0,1024,1024,1024,1024,322,-89.9,97,4.169,4.208,4.188,4.228,4.218,4.175,4.334,77,11,AutoTakeoff,
38.7448354,-120.4088186,4221.441208905,2.296588,0,0.44576444996,4600,2018-06-07 21:01:32,8,0,25.393,4221.441208905,2.296588,0,0.44576444996,0,0,-0.223694,323.6, -0.2, 1,0,0,1024,1024,1024,1024,322,-89.9,97,4.169,4.208,4.188,4.228,4.218,4.175,4.334,77,11,AutoTakeoff,
38.7448353,-120.4088184,4221.769292905,2.624672,0,0.4480479146,4700,2018-06-07 21:01:32,8,0,25.393,4221.769292905,2.624672,0,0.4480479146,0,0,0,323.7, -0.1, 1,0,0,1024,1024,1024,1024,322,-89.9,97,4.169,4.208,4.188,4.228,4.218,4.175,4.334,77,11,AutoTakeoff,
38.7448353,-120.4088184,4221.769292905,2.624672,0,0.4480479146,4800,2018-06-07 21:01:32,8,0,25.393,4221.769292905,2.624672,0,0.4480479146,0,0,-0.223694,323.8, -0.2, 0.9,0,0,1024,1024,1024,1024,322.1,-89.9,97,4.169,4.208,4.188,4.228,4.218,4.175,4.334,77,11,AutoTakeoff,
38.7448353,-120.4088185,4222.097376905,2.952756,0,0.46140421424,4900,2018-06-07 21:01:32,8,0,25.393,4222.097376905,2.952756,0,0.46140421424,0,0,-0.223694,323.8, -0.2, 0.8,0,0,1024,1024,1024,1024,322.1,-89.9,97,4.169,4.208,4.188,4.228,4.218,4.175,4.334,77,6,P-GPS,
38.7448353,-120.4088185,4222.097376905,2.952756,0,0.46140421424,5000,2018-06-07 21:01:32,7,0,24.155,4222.097376905,2.952756,0,0.46140421424,0,0,0,323.8, -0.3, 0.8,0,0,1024,1024,1024,1024,322.1,-89.9,97,3.998,3.995,4,4.034,4.031,4.006,15.567,77,14,Waypoint,
38.7448353,-120.4088184,4222.097376905,2.952756,0,0.4480479146,5100,2018-06-07 21:01:32,7,0,24.155,4222.097376905,2.952756,0,0.46140421424,0,0,0,323.8, 0, 0.2,0,0,1024,1024,1024,1024,322.2,-89.9,97,3.998,3.995,4,4.034,4.031,4.006,15.567,77,14,Waypoint,
38.7448353,-120.4088183,4222.425460905,3.28084,0,0.43614174624,5200,2018-06-07 21:01:32,8,0,24.155,4222.425460905,3.28084,0,0.46140421424,0,0,0,323.8, 0, -0.3,0,0,1024,1024,1024,1024,322.2,-89.9,97,3.998,3.995,4,4.034,4.031,4.006,15.567,77,14,Waypoint,
38.7448353,-120.4088181,4222.425460905,3.28084,0,0.41716208684,5300,2018-06-07 21:01:33,8,0,24.155,4222.425460905,3.28084,0,0.46140421424,0,0,0,323.9, 0, -0.7,0,0,1024,1024,1024,1024,322.2,-89.9,97,3.998,3.995,4,4.034,4.031,4.006,15.567,77,14,Waypoint,
38.7448353,-120.4088181,4222.425460905,3.28084,0,0.41716208684,5400,2018-06-07 21:01:33,9,0,24.155,4222.425460905,3.28084,0,0.46140421424,0,0,0,323.9, -0.1, -1,0,0,1024,1024,1024,1024,322.2,-90,97,3.998,3.995,4,4.034,4.031,4.006,15.567,77,14,Waypoint,
38.7448353,-120.4088181,4222.753544905,3.608924,0,0.41716208684,5500,2018-06-07 21:01:33,9,0,24.155,4222.753544905,3.608924,0,0.46140421424,0,0,-0.223694,323.9, -0.2, -0.9,0,0,1024,1024,1024,1024,322.3,-90,97,3.998,3.995,4,4.034,4.031,4.006,15.567,77,14,Waypoint,
38.7448352,-120.4088181,4223.081628905,3.937008,0,0.45237206172,5600,2018-06-07 21:01:33,8,0,24.155,4223.081628905,3.937008,0,0.46140421424,0,0,-0.223694,324, -0.3, -0.5,0,0,1024,1024,1024,1024,322.3,-90,97,3.998,3.995,4,4.034,4.031,4.006,15.567,77,14,Waypoint,
38.7448351,-120.4088182,4223.081628905,3.937008,0,0.49518374288,5700,2018-06-07 21:01:33,8,0,24.155,4223.081628905,3.937008,0,0.49518374288,0,0,-0.223694,324.1, -0.4, 0.1,0,0,1024,1024,1024,1024,322.3,-89.9,97,3.998,3.995,4,4.034,4.031,4.006,15.567,77,14,Waypoint,
38.744835,-120.4088183,4223.409712905,4.265092,0,0.53856957104,5800,2018-06-07 21:01:33,9,0,24.155,4223.409712905,4.265092,0,0.53856957104,0,0,-0.223694,324.2, -0.4, 0.6,0,0,1024,1024,1024,1024,322.3,-89.9,97,3.998,3.995,4,4.034,4.031,4.006,15.567,77,14,Waypoint,
38.7448349,-120.4088184,4224.065880905,4.92126,0,0.5823983126,5900,2018-06-07 21:01:33,9,0,24.155,4224.065880905,4.92126,0,0.5823983126,0,0,-0.223694,324.3, -0.3, 0.8,0,0,1024,1024,1024,1024,322.4,-89.9,97,3.998,3.995,4,4.034,4.031,4.006,15.567,77,14,Waypoint,
38.744835,-120.4088185,4224.393964905,5.249344,0,0.55922245884,6000,2018-06-07 21:01:33,8,0,23.913,4224.393964905,5.249344,0,0.5823983126,0,0,-0.447388,324.3, -0.2, 0.7,0,0,1024,1024,1024,1024,322.4,-89.9,97,3.964,3.968,3.966,4.011,4.007,3.97,16.422,77,14,Waypoint,
38.7448352,-120.4088184,4224.722048905,5.577428,0,0.4810039524,6100,2018-06-07 21:01:33,8,0,23.913,4224.722048905,5.577428,0,0.5823983126,0,0,-0.447388,324.3, 0, 0.3,0,0,1024,1024,1024,1024,322.4,-89.9,97,3.964,3.968,3.966,4.011,4.007,3.97,16.422,77,14,Waypoint,
38.7448354,-120.4088184,4225.378216905,6.233596,0,0.415682428,6200,2018-06-07 21:01:33,9,0,23.913,4225.378216905,6.233596,0,0.5823983126,0,0,-0.447388,324.3, 0, -0.1,0,0,1024,1024,1024,1024,322.4,-89.9,97,3.964,3.968,3.966,4.011,4.007,3.97,16.422,77,14,Waypoint,
38.7448357,-120.4088183,4226.034384905,6.889764,0,0.307208999332,6300,2018-06-07 21:01:34,9,0,23.913,4226.034384905,6.889764,0,0.5823983126,0,0,-0.447388,324.3, 0.3, -0.5,0,0,1024,1024,1024,1024,322.5,-89.9,97,3.964,3.968,3.966,4.011,4.007,3.97,16.422,77,14,Waypoint,
38.7448358,-120.4088183,4227.674804905,8.530184,0,0.277619103372,6410,2018-06-07 21:01:34,9,0,23.913,4227.674804905,8.530184,0,0.5823983126,0,0,-0.671082,323.9, 0.9, -0.4,0,0,1024,1024,1024,1024,322.5,-89.9,97,3.964,3.968,3.966,4.011,4.007,3.97,16.422,77,14,Waypoint,
38.7448358,-120.4088182,4228.659056905,9.514436,0,0.261084654024,6600,2018-06-07 21:01:34,9,0,23.913,4228.659056905,9.514436,0,0.5823983126,0,0,-0.671082,323.6, 0.9, 0,0,0,1024,1024,1024,1024,322.5,-89.9,97,3.964,3.968,3.966,4.011,4.007,3.97,16.422,77,14,Waypoint,
38.7448357,-120.4088177,4230.627560905,11.48294,0,0.255394693212,6800,2018-06-07 21:01:34,10,0,23.913,4230.627560905,11.48294,0,0.5823983126,0,0,-0.671082,323.2, 0, 0.1,0,0,1024,1024,1024,1024,322.5,-90,97,3.964,3.968,3.966,4.011,4.007,3.97,16.422,77,14,Waypoint,
38.7448355,-120.4088177,4231.611812905,12.467192,0,0.3283628714,6900,2018-06-07 21:01:34,10,0,23.913,4231.611812905,12.467192,0,0.5823983126,0,0,-0.671082,323.1, -0.4, 0.2,0,0,1024,1024,1024,1024,322.6,-90,97,3.964,3.968,3.966,4.011,4.007,3.97,16.422,77,14,Waypoint,
38.7448355,-120.4088174,4232.924148905,13.779528,0,0.33928150692,7000,2018-06-07 21:01:34,10,0,23.823,4232.924148905,13.779528,0,0.5823983126,0,0,-0.671082,323.2, -0.6, 0.4,0,0,1024,1024,1024,1024,322.6,-90,97,3.975,3.955,3.907,3.964,3.963,3.935,17.124,77,14,Waypoint,
38.7448354,-120.4088171,4233.908400905,14.76378,0,0.4028215352,7100,2018-06-07 21:01:34,10,0,23.823,4233.908400905,14.76378,0,0.5823983126,0,0,-0.671082,323.4, -0.7, 0.2,0,0,1024,1024,1024,1024,322.6,-90,97,3.975,3.955,3.907,3.964,3.963,3.935,17.124,77,14,Waypoint,
38.7448353,-120.4088169,4234.892652905,15.748032,0,0.46140421424,7200,2018-06-07 21:01:34,10,0,23.823,4234.892652905,15.748032,0,0.5823983126,0,0,-0.671082,323.6, -0.7, 0,0,0,1024,1024,1024,1024,322.6,-90,97,3.975,3.955,3.907,3.964,3.963,3.935,17.124,77,14,Waypoint,
38.7448351,-120.4088166,4236.204988905,17.060368,0,0.56828085808,7300,2018-06-07 21:01:35,10,0,23.823,4236.204988905,17.060368,0,0.5823983126,0,0,-0.671082,323.7, -1, -0.1,0,0,1024,1024,1024,1024,322.6,-90,97,3.975,3.955,3.907,3.964,3.963,3.935,17.124,77,14,Waypoint,
38.744835,-120.4088165,4237.189240905,18.04462,0,0.614419311,7400,2018-06-07 21:01:35,11,0,23.823,4237.189240905,18.04462,0,0.614419311,0,0,-0.671082,323.9, -1.4, -0.2,0,0,1024,1024,1024,1024,322.6,-89.9,97,3.975,3.955,3.907,3.964,3.963,3.935,17.124,77,14,Waypoint,
38.7448349,-120.4088163,4238.501576905,19.356956,0,0.676919313,7500,2018-06-07 21:01:35,11,0,23.823,4238.501576905,19.356956,0,0.676919313,0,0,-0.671082,323.9, -1.8, -0.5,0,0,1024,1024,1024,1024,322.6,-89.9,97,3.975,3.955,3.907,3.964,3.963,3.935,17.124,77,14,Waypoint,
38.7448348,-120.4088162,4239.485828905,20.341208,0,0.72316603364,7600,2018-06-07 21:01:35,11,0,23.823,4239.485828905,20.341208,0,0.72316603364,0,0,-0.671082,324, -1.8, -0.8,0,0,1024,1024,1024,1024,322.7,-89.9,97,3.975,3.955,3.907,3.964,3.963,3.935,17.124,77,14,Waypoint,
38.7448347,-120.408816,4240.470080905,21.32546,0,0.78658795168,7700,2018-06-07 21:01:35,11,0,23.823,4240.470080905,21.32546,0,0.78658795168,0,0,-0.671082,323.9, -1.9, -0.8,0,0,1024,1024,1024,1024,322.7,-89.9,97,3.975,3.955,3.907,3.964,3.963,3.935,17.124,77,14,Waypoint,
38.7448347,-120.408816,4241.782416905,22.637796,0,0.78658795168,7800,2018-06-07 21:01:35,11,0,23.823,4241.782416905,22.637796,0,0.78658795168,0,0,-0.671082,323.8, -2, -0.6,0,0,1024,1024,1024,1024,322.7,-89.9,97,3.975,3.955,3.907,3.964,3.963,3.935,17.124,77,14,Waypoint,
38.7448346,-120.4088161,4242.766668905,23.622048,0,0.79911747964,7900,2018-06-07 21:01:35,11,0,23.823,4242.766668905,23.622048,0,0.79911747964,0,0,-0.671082,323.7, -1.8, -0.3,0,0,1024,1024,1024,1024,322.7,-89.9,97,3.975,3.955,3.907,3.964,3.963,3.935,17.124,77,14,Waypoint,
38.7448345,-120.4088161,4243.750920905,24.6063,0,0.8293635436,8000,2018-06-07 21:01:35,11,0,23.157,4243.750920905,24.6063,0,0.8293635436,0,0,-0.671082,323.6, -1.4, -0.3,0,0,1024,1024,1024,1024,322.7,-89.9,97,3.975,3.955,3.907,3.964,3.963,3.935,23.921,77,14,Waypoint,
38.7448343,-120.4088161,4244.735172905,25.590552,0,0.89125330936,8100,2018-06-07 21:01:35,11,0,23.157,4244.735172905,25.590552,0,0.89125330936,0,0,-0.671082,323.6, -1.3, -0.1,0,0,1024,1024,1024,1024,322.7,-89.9,97,3.975,3.955,3.907,3.964,3.963,3.935,23.921,77,14,Waypoint,
38.7448342,-120.4088162,4246.047508905,26.902888,0.223694,0.9091043598,8200,2018-06-07 21:01:35,10,0,23.157,4246.047508905,26.902888,0.223694,0.9091043598,0,0,-0.671082,323.6, -1.4, 0.1,0,0,1024,1024,1024,1024,322.7,-89.9,97,3.975,3.955,3.907,3.964,3.963,3.935,23.921,77,14,Waypoint,
38.7448341,-120.4088164,4247.031760905,27.88714,0.223694,0.91707352016,8300,2018-06-07 21:01:36,10,0,23.157,4247.031760905,27.88714,0.223694,0.91707352016,0,0,-0.671082,323.7, -1.3, 0.5,0,0,1024,1024,1024,1024,322.7,-89.9,97,3.975,3.955,3.907,3.964,3.963,3.935,23.921,77,14,Waypoint,
38.7448341,-120.4088166,4248.016012905,28.871392,0.223694,0.89563323076,8400,2018-06-07 21:01:36,11,0,23.157,4248.016012905,28.871392,0.223694,0.91707352016,0,0,-0.671082,323.8, -1.1, 0.9,0,0,1024,1024,1024,1024,322.8,-89.9,97,3.975,3.955,3.907,3.964,3.963,3.935,23.921,77,14,Waypoint,
38.7448341,-120.4088169,4249.000264905,29.855644,0.223694,0.86948493596,8500,2018-06-07 21:01:36,11,0,23.157,4249.000264905,29.855644,0.223694,0.91707352016,0,0,-0.671082,323.8, -0.9, 1.2,0,0,1024,1024,1024,1024,322.8,-89.9,97,3.975,3.955,3.907,3.964,3.963,3.935,23.921,77,14,Waypoint,
38.7448343,-120.4088172,4249.984516905,30.839896,0.223694,0.779281521,8600,2018-06-07 21:01:36,11,0,23.157,4249.984516905,30.839896,0.223694,0.91707352016,0,0,-0.671082,323.8, -0.6, 1.2,0,0,1024,1024,1024,1024,322.8,-89.9,97,3.975,3.955,3.907,3.964,3.963,3.935,23.921,77,14,Waypoint,
38.7448346,-120.4088176,4250.968768905,31.824148,0.3131716,0.65734582156,8700,2018-06-07 21:01:36,11,0,23.157,4250.968768905,31.824148,0.3131716,0.91707352016,0,0,-0.671082,323.8, 0.2, 1,0,0,1024,1024,1024,1024,322.8,-89.9,97,3.975,3.955,3.907,3.964,3.963,3.935,23.921,77,14,Waypoint,
38.7448348,-120.4088179,4252.281104905,33.136484,0.3131716,0.58652560932,8800,2018-06-07 21:01:36,11,0,23.157,4252.281104905,33.136484,0.3131716,0.91707352016,0,0,-0.671082,323.8, 1.2, 0.6,0,0,1024,1024,1024,1024,322.8,-89.9,97,3.975,3.955,3.907,3.964,3.963,3.935,23.921,77,14,Waypoint,
38.7448349,-120.4088182,4253.265356905,34.120736,0.3131716,0.56546589736,8910,2018-06-07 21:01:36,11,0,23.157,4253.265356905,34.120736,0.3131716,0.91707352016,0,0,-0.671082,323.8, 1.9, 0.4,0,0,1024,1024,1024,1024,322.8,-89.9,97,3.975,3.955,3.907,3.964,3.963,3.935,23.921,77,14,Waypoint,
38.744835,-120.4088184,4254.249608905,35.104988,0.3131716,0.54825461072,9010,2018-06-07 21:01:36,11,0,23.157,4254.249608905,35.104988,0.3131716,0.91707352016,0,0,-0.671082,323.8, 2, 0.5,0,0,1024,1024,1024,1024,322.8,-89.9,97,3.835,3.823,3.832,3.873,3.893,3.831,23.921,77,14,Waypoint,
38.7448352,-120.4088186,4255.233860905,36.08924,0.3131716,0.50722442568,9100,2018-06-07 21:01:36,11,0,23.157,4255.233860905,36.08924,0.3131716,0.91707352016,0,0,-0.671082,323.7, 2, 0.6,0,0,1024,1024,1024,1024,322.8,-89.9,97,3.835,3.823,3.832,3.873,3.893,3.831,23.921,77,14,Waypoint,
38.7448353,-120.4088189,4256.218112905,37.073492,0.223694,0.52694555492,9210,2018-06-07 21:01:36,11,0,23.157,4256.218112905,37.073492,0.3131716,0.91707352016,0,0,-0.671082,323.7, 2.2, 0.4,0,0,1024,1024,1024,1024,322.8,-89.9,97,3.835,3.823,3.832,3.873,3.893,3.831,23.921,77,14,Waypoint,
38.7448353,-120.4088191,4257.202364905,38.057744,0,0.56549214408,9310,2018-06-07 21:01:37,11,0,23.157,4257.202364905,38.057744,0.3131716,0.91707352016,0,0,-0.671082,323.7, 2.1, 0.3,0,0,1024,1024,1024,1024,322.8,-89.9,97,3.835,3.823,3.832,3.873,3.893,3.831,23.921,77,14,Waypoint,
38.7448353,-120.4088192,4258.186616905,39.041996,0,0.58588584552,9400,2018-06-07 21:01:37,11,0,23.157,4258.186616905,39.041996,0.3131716,0.91707352016,0,0,-0.671082,323.8, 1.8, 0.3,0,0,1024,1024,1024,1024,322.8,-89.9,97,3.835,3.823,3.832,3.873,3.893,3.831,23.921,77,14,Waypoint,
38.7448353,-120.4088193,4259.170868905,40.026248,0,0.60693243412,9500,2018-06-07 21:01:37,11,0,23.157,4259.170868905,40.026248,0.3131716,0.91707352016,0,0,-0.671082,323.8, 1.3, 0.5,0,0,1024,1024,1024,1024,322.8,-89.9,97,3.835,3.823,3.832,3.873,3.893,3.831,23.921,77,14,Waypoint,
38.7448354,-120.4088197,4261.467456905,42.322836,0,0.67603020536,9600,2018-06-07 21:01:37,11,0,23.157,4261.467456905,42.322836,0.3131716,0.91707352016,0,0,-0.671082,323.8, 1.2, 0.5,0,0,1024,1024,1024,1024,322.8,-89.9,97,3.835,3.823,3.832,3.873,3.893,3.831,23.921,77,14,Waypoint,
38.7448354,-120.4088198,4262.451708905,43.307088,0,0.70015422188,9800,2018-06-07 21:01:37,11,0,23.157,4262.451708905,43.307088,0.3131716,0.91707352016,0,0,-0.671082,323.8, 1.4, 0.5,0,0,1024,1024,1024,1024,322.8,-89.9,97,3.835,3.823,3.832,3.873,3.893,3.831,23.921,77,14,Waypoint,
38.7448354,-120.4088198,4263.435960905,44.29134,0,0.70015422188,9900,2018-06-07 21:01:37,11,0,23.157,4263.435960905,44.29134,0.3131716,0.91707352016,0,0,-0.671082,323.9, 1.3, 0.5,0,0,1024,1024,1024,1024,322.8,-89.9,97,3.835,3.823,3.832,3.873,3.893,3.831,23.921,77,14,Waypoint,
38.7448354,-120.4088199,4264.420212905,45.275592,0,0.72459319904,10000,2018-06-07 21:01:37,11,0,23.423,4264.420212905,45.275592,0.3131716,0.91707352016,0,0,-0.671082,323.9, 1, 0.6,0,0,1024,1024,1024,1024,322.8,-89.9,97,3.886,3.89,3.885,3.951,3.936,3.898,19.249,77,14,Waypoint,
38.7448355,-120.40882,4265.404464905,46.259844,0,0.73224411792,10100,2018-06-07 21:01:37,11,0,23.423,4265.404464905,46.259844,0.3131716,0.91707352016,0,0,-0.671082,323.9, 0.7, 0.7,0,0,1024,1024,1024,1024,322.8,-89.9,97,3.886,3.89,3.885,3.951,3.936,3.898,19.249,77,14,Waypoint,
38.7448355,-120.4088201,4266.388716905,47.244096,0,0.75778545732,10200,2018-06-07 21:01:37,11,0,23.423,4266.388716905,47.244096,0.3131716,0.91707352016,0,0,-0.671082,323.9, 0.6, 0.6,0,0,1024,1024,1024,1024,322.8,-89.9,97,3.886,3.89,3.885,3.951,3.936,3.898,19.249,77,14,Waypoint,
38.7448354,-120.4088201,4267.372968905,48.228348,0,0.7742946442,10300,2018-06-07 21:01:38,11,0,23.423,4267.372968905,48.228348,0.3131716,0.91707352016,0,0,-0.671082,323.9, 0.5, 0.6,0,0,1024,1024,1024,1024,322.8,-89.9,97,3.886,3.89,3.885,3.951,3.936,3.898,19.249,77,14,Waypoint,
38.7448354,-120.4088201,4268.357220905,49.2126,0,0.7742946442,10400,2018-06-07 21:01:38,11,0,23.423,4268.357220905,49.2126,0.3131716,0.91707352016,0,0,-0.671082,323.9, 0.4, 0.4,0,0,1024,1024,1024,1024,322.8,-89.9,97,3.886,3.89,3.885,3.951,3.936,3.898,19.249,77,14,Waypoint,
38.7448354,-120.4088201,4269.341472905,50.196852,0,0.7742946442,10500,2018-06-07 21:01:38,11,0,23.423,4269.341472905,50.196852,0.3131716,0.91707352016,0,0,-0.671082,323.9, 0.3, 0.3,0,0,1024,1024,1024,1024,322.8,-90,97,3.886,3.89,3.885,3.951,3.936,3.898,19.249,77,14,Waypoint,
38.7448354,-120.4088201,4270.325724905,51.181104,0,0.7742946442,10600,2018-06-07 21:01:38,11,0,23.423,4270.325724905,51.181104,0.3131716,0.91707352016,0,0,-0.671082,323.9, 0.2, 0,0,0,1024,1024,1024,1024,322.8,-89.9,97,3.886,3.89,3.885,3.951,3.936,3.898,19.249,77,14,Waypoint,
38.7448353,-120.4088201,4271.309976905,52.165356,0,0.79213913296,10700,2018-06-07 21:01:38,11,0,23.423,4271.309976905,52.165356,0.3131716,0.91707352016,0,0,-0.671082,323.9, 0.2, 0,0,0,1024,1024,1024,1024,322.8,-89.9,97,3.886,3.89,3.885,3.951,3.936,3.898,19.249,77,14,Waypoint,
38.7448354,-120.4088201,4272.294228905,53.149608,0,0.7742946442,10800,2018-06-07 21:01:38,11,0,23.423,4272.294228905,53.149608,0.3131716,0.91707352016,0,0,-0.671082,323.8, 0.5, 0.1,0,0,1024,1024,1024,1024,322.8,-89.9,97,3.886,3.89,3.885,3.951,3.936,3.898,19.249,77,14,Waypoint,
38.7448354,-120.4088201,4273.278480905,54.13386,0,0.7742946442,10900,2018-06-07 21:01:38,11,0,23.423,4273.278480905,54.13386,0.3131716,0.91707352016,0,0,-0.671082,323.8, 0.8, 0.3,0,0,1024,1024,1024,1024,322.8,-89.9,97,3.886,3.89,3.885,3.951,3.936,3.898,19.249,77,14,Waypoint,
38.7448354,-120.4088201,4274.262732905,55.118112,0,0.7742946442,11000,2018-06-07 21:01:38,11,0,23.393,4274.262732905,55.118112,0.3131716,0.91707352016,0,0,-0.671082,323.7, 1, 0.4,0,0,1024,1024,1024,1024,322.8,-89.9,97,3.888,3.886,3.884,3.94,3.934,3.898,19.126,77,14,Waypoint,
38.7448354,-120.40882,4275.246984905,56.102364,0,0.74931432844,11100,2018-06-07 21:01:38,11,0,23.393,4275.246984905,56.102364,0.3131716,0.91707352016,0,0,-0.671082,323.7, 1, 0.3,0,0,1024,1024,1024,1024,322.8,-89.9,97,3.888,3.886,3.884,3.94,3.934,3.898,19.126,77,14,Waypoint,
38.7448353,-120.4088199,4276.231236905,57.086616,0,0.74363191356,11200,2018-06-07 21:01:38,11,0,23.393,4276.231236905,57.086616,0.3131716,0.91707352016,0,0,-0.671082,323.8, 0.8, 0.1,0,0,1024,1024,1024,1024,322.8,-89.9,97,3.888,3.886,3.884,3.94,3.934,3.898,19.126,77,14,Waypoint,
38.7448353,-120.4088198,4276.887404905,57.742784,0,0.71983926188,11300,2018-06-07 21:01:39,11,0,23.393,4276.887404905,57.742784,0.3131716,0.91707352016,0,0,-0.671082,323.8, 0.5, 0,0,0,1024,1024,1024,1024,322.8,-89.9,97,3.888,3.886,3.884,3.94,3.934,3.898,19.126,77,14,Waypoint,
38.7448352,-120.4088197,4277.871656905,58.727036,0,0.71804136156,11400,2018-06-07 21:01:39,11,0,23.393,4277.871656905,58.727036,0.3131716,0.91707352016,0,0,-0.671082,323.8, 0.2, 0,0,0,1024,1024,1024,1024,322.8,-90,97,3.888,3.886,3.884,3.94,3.934,3.898,19.126,77,14,Waypoint,
38.7448351,-120.4088195,4278.855908905,59.711288,0,0.69808401184,11510,2018-06-07 21:01:39,11,0,23.393,4278.855908905,59.711288,0.3131716,0.91707352016,0,0,-0.671082,323.8, 0.1, 0.1,0,0,1024,1024,1024,1024,322.8,-90,97,3.888,3.886,3.884,3.94,3.934,3.898,19.126,77,14,Waypoint,
38.7448351,-120.4088193,4279.840160905,60.69554,0,0.6574639318,11600,2018-06-07 21:01:39,11,0,23.393,4279.840160905,60.69554,0.3131716,0.91707352016,0,0,-0.671082,323.8, -0.2, 0.1,0,0,1024,1024,1024,1024,322.8,-90,97,3.888,3.886,3.884,3.94,3.934,3.898,19.126,77,14,Waypoint,
38.7448351,-120.4088191,4280.824412905,61.679792,0,0.61941603032,11800,2018-06-07 21:01:39,11,0,23.393,4280.824412905,61.679792,0.3131716,0.91707352016,0,0,-0.671082,323.7, -0.4, 0,0,0,1024,1024,1024,1024,322.8,-90,97,3.888,3.886,3.884,3.94,3.934,3.898,19.126,77,14,Waypoint,
38.744835,-120.4088189,4283.777168905,64.632548,0,0.614419311,12000,2018-06-07 21:01:39,12,0,23.393,4283.777168905,64.632548,0.3131716,0.91707352016,0,0,-0.671082,323.5, -0.7, -0.4,0,0,1024,1024,1024,1024,322.8,-90,96,3.882,3.884,3.883,3.93,3.926,3.889,19.126,77,14,Waypoint,
38.744835,-120.4088188,4284.761420905,65.6168,0,0.59907154148,12100,2018-06-07 21:01:39,12,0,23.393,4284.761420905,65.6168,0.3131716,0.91707352016,0,0,-0.671082,323.5, -0.5, -0.1,0,0,1024,1024,1024,1024,322.8,-90,96,3.882,3.884,3.883,3.93,3.926,3.889,19.126,77,14,Waypoint,
38.7448349,-120.4088186,4286.729924905,67.585304,0,0.6042323028,12210,2018-06-07 21:01:39,12,0,23.393,4286.729924905,67.585304,0.3131716,0.91707352016,0,0,-0.671082,323.5, -0.3, 0,0,0,1024,1024,1024,1024,322.8,-90,96,3.882,3.884,3.883,3.93,3.926,3.889,19.126,77,14,Waypoint,
38.7448348,-120.4088185,4287.714176905,68.569556,0,0.62657810404,12400,2018-06-07 21:01:40,12,0,23.393,4287.714176905,68.569556,0.3131716,0.91707352016,0,0,-0.671082,323.5, -0.2, 0,0,0,1024,1024,1024,1024,322.8,-89.9,96,3.882,3.884,3.883,3.93,3.926,3.889,19.126,77,14,Waypoint,
38.7448347,-120.4088185,4288.698428905,69.553808,0,0.66070212088,12500,2018-06-07 21:01:40,12,0,23.393,4288.698428905,69.553808,0.3131716,0.91707352016,0,0,-0.671082,323.6, -0.3, 0,0,0,1024,1024,1024,1024,322.8,-89.9,96,3.882,3.884,3.883,3.93,3.926,3.889,19.126,77,14,Waypoint,
38.7448347,-120.4088184,4289.682680905,70.53806,0,0.6514435904,12600,2018-06-07 21:01:40,12,0,23.393,4289.682680905,70.53806,0.3131716,0.91707352016,0,0,-0.671082,323.7, -0.4, -0.1,0,0,1024,1024,1024,1024,322.8,-90,96,3.882,3.884,3.883,3.93,3.926,3.889,19.126,77,14,Waypoint,
38.7448347,-120.4088182,4290.666932905,71.522312,0,0.63635500724,12700,2018-06-07 21:01:40,12,0,23.393,4290.666932905,71.522312,0.3131716,0.91707352016,0,0,-0.671082,323.7, -0.5, -0.2,0,0,1024,1024,1024,1024,322.8,-90,96,3.882,3.884,3.883,3.93,3.926,3.889,19.126,77,14,Waypoint,
38.7448347,-120.4088181,4291.651184905,72.506564,0,0.63060041388,12800,2018-06-07 21:01:40,12,0,23.393,4291.651184905,72.506564,0.3131716,0.91707352016,0,0,-0.671082,323.8, -0.5, -0.3,0,0,1024,1024,1024,1024,322.8,-89.9,96,3.882,3.884,3.883,3.93,3.926,3.889,19.126,77,14,Waypoint,
38.7448347,-120.4088181,4292.635436905,73.490816,0,0.63060041388,12900,2018-06-07 21:01:40,12,0,23.393,4292.635436905,73.490816,0.3131716,0.91707352016,0,0,-0.671082,323.8, -0.4, -0.4,0,0,1024,1024,1024,1024,322.8,-90,96,3.882,3.884,3.883,3.93,3.926,3.889,19.126,77,14,Waypoint,
38.7448347,-120.408818,4293.619688905,74.475068,0,0.62609253972,13000,2018-06-07 21:01:40,12,0,23.339,4293.619688905,74.475068,0.3131716,0.91707352016,0,0,-0.671082,323.9, -0.6, -0.3,0,0,1024,1024,1024,1024,322.8,-90,96,3.872,3.872,3.879,3.922,3.919,3.875,19.487,78.8,14,Waypoint,
38.7448348,-120.4088178,4294.603940905,75.45932,0,0.58445211844,13100,2018-06-07 21:01:40,12,0,23.339,4294.603940905,75.45932,0.3131716,0.91707352016,0,0,-0.671082,324, -0.8, -0.6,0,0,1024,1024,1024,1024,322.8,-90,96,3.872,3.872,3.879,3.922,3.919,3.875,19.487,78.8,14,Waypoint,
38.7448348,-120.4088177,4295.588192905,76.443572,0,0.5837598612,13200,2018-06-07 21:01:40,12,0,23.339,4295.588192905,76.443572,0.3131716,0.91707352016,0,0,-0.671082,324.1, -0.7, -0.8,0,0,1024,1024,1024,1024,322.8,-89.9,96,3.872,3.872,3.879,3.922,3.919,3.875,19.487,78.8,14,Waypoint,
38.7448347,-120.4088176,4296.900528905,77.755908,0,0.62089568916,13300,2018-06-07 21:01:41,12,0,23.339,4296.900528905,77.755908,0.3131716,0.91707352016,0,0,-0.671082,324.2, -0.4, -0.8,0,0,1024,1024,1024,1024,322.8,-90,96,3.872,3.872,3.879,3.922,3.919,3.875,19.487,78.8,14,Waypoint,
38.7448347,-120.4088176,4297.884780905,78.74016,0,0.62089568916,13400,2018-06-07 21:01:41,12,0,23.339,4297.884780905,78.74016,0.3131716,0.91707352016,0,0,-0.671082,324.1, -0.6, -0.8,0,0,1024,1024,1024,1024,322.8,-90,96,3.872,3.872,3.879,3.922,3.919,3.875,19.487,78.8,14,Waypoint,
38.7448347,-120.4088175,4298.869032905,79.724412,0,0.6228510698,13500,2018-06-07 21:01:41,12,0,23.339,4298.869032905,79.724412,0.3131716,0.91707352016,0,0,-0.671082,324.1, -0.8, -0.9,0,0,1024,1024,1024,1024,322.8,-89.9,96,3.872,3.872,3.879,3.922,3.919,3.875,19.487,78.8,14,Waypoint,
38.7448348,-120.4088173,4300.837536905,81.692916,0,0.59475395604,13700,2018-06-07 21:01:41,12,0,23.339,4300.837536905,81.692916,0.3131716,0.91707352016,0,0,-0.671082,323.9, -0.2, -1.4,0,0,1024,1024,1024,1024,322.8,-89.9,96,3.872,3.872,3.879,3.922,3.919,3.875,19.487,78.8,14,Waypoint,
38.7448348,-120.4088172,4301.821788905,82.677168,0,0.60084647592,13800,2018-06-07 21:01:41,12,0,23.339,4301.821788905,82.677168,0.3131716,0.91707352016,0,0,-0.671082,323.7, 0, -1.8,0,0,1024,1024,1024,1024,322.8,-89.9,96,3.872,3.872,3.879,3.922,3.919,3.875,19.487,78.8,14,Waypoint,
38.7448349,-120.4088171,4302.806040905,83.66142,0,0.57328741992,13900,2018-06-07 21:01:41,12,0,23.339,4302.806040905,83.66142,0.3131716,0.91707352016,0,0,-0.671082,323.6, 0.1, -2,0,0,1024,1024,1024,1024,322.8,-89.9,96,3.872,3.872,3.879,3.922,3.919,3.875,19.487,78.8,14,Waypoint,
38.7448349,-120.408817,4303.790292905,84.645672,0,0.5823983126,14000,2018-06-07 21:01:41,12,0,23.342,4303.790292905,84.645672,0.3131716,0.91707352016,0,0,-0.671082,323.6, 0, -1.7,0,0,1024,1024,1024,1024,322.8,-89.9,96,3.864,3.868,3.869,3.925,3.919,3.873,19.022,78.8,14,Waypoint,
38.7448349,-120.4088169,4304.774544905,85.629924,0,0.5927329586,14110,2018-06-07 21:01:41,12,0,23.342,4304.774544905,85.629924,0.3131716,0.91707352016,0,0,-0.671082,323.5, -0.1, -1.3,0,0,1024,1024,1024,1024,322.8,-89.9,96,3.864,3.868,3.869,3.925,3.919,3.873,19.022,78.8,14,Waypoint,
38.7448349,-120.4088165,4309.039636905,89.895016,0,0.64506891828,14500,2018-06-07 21:01:42,12,0,23.342,4309.039636905,89.895016,0.3131716,0.91707352016,0,0,-0.671082,323.8, -1.8, -1.7,0,0,1024,1024,1024,1024,322.8,-89.9,96,3.864,3.868,3.869,3.925,3.919,3.873,19.022,78.8,14,Waypoint,
38.7448349,-120.4088165,4309.695804905,90.551184,0,0.64506891828,14600,2018-06-07 21:01:42,12,0,23.342,4309.695804905,90.551184,0.3131716,0.91707352016,0,0,-0.671082,323.8, -1.9, -1.1,0,0,1024,1024,1024,1024,322.8,-89.9,96,3.864,3.868,3.869,3.925,3.919,3.873,19.022,78.8,14,Waypoint,
38.7448348,-120.4088165,4310.680056905,91.535436,0,0.67629923424,14700,2018-06-07 21:01:42,12,0,23.342,4310.680056905,91.535436,0.3131716,0.91707352016,0,0,-0.671082,323.7, -1.8, -0.7,0,0,1024,1024,1024,1024,322.8,-89.9,96,3.864,3.868,3.869,3.925,3.919,3.873,19.022,78.8,14,Waypoint,
38.7448348,-120.4088165,4311.664308905,92.519688,0,0.67629923424,14800,2018-06-07 21:01:42,12,0,23.342,4311.664308905,92.519688,0.3131716,0.91707352016,0,0,-0.671082,323.5, -1.5, -0.6,0,0,1024,1024,1024,1024,322.8,-89.9,96,3.864,3.868,3.869,3.925,3.919,3.873,19.022,78.8,14,Waypoint,
38.7448348,-120.4088164,4312.648560905,93.50394,0,0.69110238432,14900,2018-06-07 21:01:42,12,0,23.342,4312.648560905,93.50394,0.3131716,0.91707352016,0,0,-0.671082,323.2, -1.5, -0.7,0,0,1024,1024,1024,1024,322.8,-89.9,96,3.864,3.868,3.869,3.925,3.919,3.873,19.022,78.8,14,Waypoint,
38.7448347,-120.4088164,4313.632812905,94.488192,0,0.72218506248,15000,2018-06-07 21:01:42,12,0,23.284,4313.632812905,94.488192,0.3131716,0.91707352016,0,0,-0.671082,322.9, -1.5, -1.4,0,0,1024,1024,1024,1024,322.8,-89.9,96,3.854,3.862,3.856,3.911,3.899,3.867,19.548,78.8,14,Waypoint,
38.7448347,-120.4088163,4314.617064905,95.472444,0,0.73716537792,15100,2018-06-07 21:01:42,12,0,23.284,4314.617064905,95.472444,0.3131716,0.91707352016,0,0,-0.671082,322.8, -1.4, -1.5,0,0,1024,1024,1024,1024,322.8,-89.9,96,3.854,3.862,3.856,3.911,3.899,3.867,19.548,78.8,14,Waypoint,
38.7448347,-120.4088162,4315.601316905,96.456696,0,0.75292653328,15200,2018-06-07 21:01:42,12,0,23.284,4315.601316905,96.456696,0.3131716,0.91707352016,0,0,-0.671082,322.9, -1.3, -1.8,0,0,1024,1024,1024,1024,322.8,-89.9,96,3.854,3.862,3.856,3.911,3.899,3.867,19.548,78.8,14,Waypoint,
38.7448347,-120.4088162,4316.585568905,97.440948,0,0.75292653328,15300,2018-06-07 21:01:43,12,0,23.284,4316.585568905,97.440948,0.3131716,0.91707352016,0,0,-0.671082,323.3, -1.5, -2,0,0,1024,1024,1024,1024,322.8,-89.9,96,3.854,3.862,3.856,3.911,3.899,3.867,19.548,78.8,14,Waypoint,
38.7448347,-120.4088162,4317.569820905,98.4252,0,0.75292653328,15400,2018-06-07 21:01:43,12,0,23.284,4317.569820905,98.4252,0.3131716,0.91707352016,0,0,-0.671082,323.7, -2, -1.9,0,0,1024,1024,1024,1024,322.8,-90,96,3.854,3.862,3.856,3.911,3.899,3.867,19.548,78.8,14,Waypoint,
38.7448347,-120.4088162,4318.554072905,99.409452,0,0.75292653328,15500,2018-06-07 21:01:43,12,0,23.284,4318.554072905,99.409452,0.3131716,0.91707352016,0,0,-0.671082,324.3, -2.3, -2,0,0,1024,1024,1024,1024,322.8,-89.9,96,3.854,3.862,3.856,3.911,3.899,3.867,19.548,78.8,14,Waypoint,
38.7448346,-120.4088161,4319.538324905,100.393704,0,0.79911747964,15600,2018-06-07 21:01:43,12,0,23.284,4319.538324905,100.393704,0.3131716,0.91707352016,0,0,-0.671082,324.8, -2.3, -1.8,0,0,1024,1024,1024,1024,322.8,-89.9,96,3.854,3.862,3.856,3.911,3.899,3.867,19.548,78.8,14,Waypoint,
38.7448346,-120.4088161,4320.194492905,101.049872,0,0.79911747964,15700,2018-06-07 21:01:43,12,0,23.284,4320.194492905,101.049872,0.3131716,0.91707352016,0,0,-0.671082,325.1, -1.9, -1.7,0,0,1024,1024,1024,1024,322.8,-89.9,96,3.854,3.862,3.856,3.911,3.899,3.867,19.548,78.8,14,Waypoint,
38.7448347,-120.4088161,4321.178744905,102.034124,0,0.76941275428,15800,2018-06-07 21:01:43,12,0,23.284,4321.178744905,102.034124,0.3131716,0.91707352016,0,0,-0.671082,325.2, -1.6, -2.1,0,0,1024,1024,1024,1024,322.8,-89.9,96,3.854,3.862,3.856,3.911,3.899,3.867,19.548,78.8,14,Waypoint,
38.7448347,-120.4088162,4322.162996905,103.018376,0,0.75292653328,15900,2018-06-07 21:01:43,12,0,23.284,4322.162996905,103.018376,0.3131716,0.91707352016,0,0,-0.671082,325, -1.4, -2.3,0,0,1024,1024,1024,1024,322.8,-89.9,96,3.854,3.862,3.856,3.911,3.899,3.867,19.548,78.8,14,Waypoint,
38.7448347,-120.4088162,4323.147248905,104.002628,0,0.75292653328,16000,2018-06-07 21:01:43,12,0,23.222,4323.147248905,104.002628,0.3131716,0.91707352016,0,0,-0.671082,324.7, -1, -2.1,0,0,1024,1024,1024,1024,322.8,-89.9,96,3.846,3.851,3.857,3.905,3.906,3.857,19.669,78.8,14,Waypoint,
38.7448347,-120.4088162,4324.131500905,104.98688,0,0.75292653328,16100,2018-06-07 21:01:43,12,0,23.222,4324.131500905,104.98688,0.3131716,0.91707352016,0,0,-0.671082,324.4, -0.6, -2,0,0,1024,1024,1024,1024,322.8,-89.9,96,3.846,3.851,3.857,3.905,3.906,3.857,19.669,78.8,14,Waypoint,
38.7448347,-120.4088163,4325.115752905,105.971132,0,0.73716537792,16200,2018-06-07 21:01:43,12,0,23.222,4325.115752905,105.971132,0.3131716,0.91707352016,0,0,-0.671082,324.1, -0.6, -2,0,0,1024,1024,1024,1024,322.8,-89.9,96,3.846,3.851,3.857,3.905,3.906,3.857,19.669,78.8,14,Waypoint,
38.7448347,-120.4088163,4326.100004905,106.955384,0,0.73716537792,16300,2018-06-07 21:01:44,12,0,23.222,4326.100004905,106.955384,0.3131716,0.91707352016,0,0,-0.671082,323.9, -0.7, -1.9,0,0,1024,1024,1024,1024,322.8,-89.9,96,3.846,3.851,3.857,3.905,3.906,3.857,19.669,78.8,14,Waypoint,
38.7448347,-120.4088163,4327.084256905,107.939636,0,0.73716537792,16400,2018-06-07 21:01:44,12,0,23.222,4327.084256905,107.939636,0.3131716,0.91707352016,0,0,-0.671082,323.8, -0.9, -1.7,0,0,1024,1024,1024,1024,322.8,-89.9,96,3.846,3.851,3.857,3.905,3.906,3.857,19.669,78.8,14,Waypoint,
38.7448347,-120.4088163,4328.068508905,108.923888,0,0.73716537792,16500,2018-06-07 21:01:44,12,0,23.222,4328.068508905,108.923888,0.3131716,0.91707352016,0,0,-0.671082,323.7, -1, -1.7,0,0,1024,1024,1024,1024,322.8,-89.9,96,3.846,3.851,3.857,3.905,3.906,3.857,19.669,78.8,14,Waypoint,
38.7448347,-120.4088164,4329.052760905,109.90814,0,0.72218506248,16600,2018-06-07 21:01:44,12,0,23.222,4329.052760905,109.90814,0.3131716,0.91707352016,0,0,-0.671082,323.5, -1.2, -1.8,0,0,1024,1024,1024,1024,322.8,-89.9,96,3.846,3.851,3.857,3.905,3.906,3.857,19.669,78.8,14,Waypoint,
38.7448347,-120.4088164,4329.708928905,110.564308,0,0.72218506248,16800,2018-06-07 21:01:44,12,0,23.222,4329.708928905,110.564308,0.3131716,0.91707352016,0,0,-0.671082,323.5, -1.2, -1.7,0,0,1024,1024,1024,1024,322.8,-89.9,96,3.846,3.851,3.857,3.905,3.906,3.857,19.669,78.8,14,Waypoint,
38.7448347,-120.4088165,4330.693180905,111.54856,0,0.70803151872,16900,2018-06-07 21:01:44,12,0,23.222,4330.693180905,111.54856,0.3131716,0.91707352016,0,0,-0.671082,323.5, -1.2, -1.6,0,0,1024,1024,1024,1024,322.8,-89.9,96,3.846,3.851,3.857,3.905,3.906,3.857,19.669,78.8,14,Waypoint,
38.7448347,-120.4088166,4333.645936905,114.501316,0,0.69475395924,17010,2018-06-07 21:01:44,12,0,23.103,4333.645936905,114.501316,0.3131716,0.91707352016,0,0,-0.671082,323.8, -0.7, -1.3,0,0,1024,1024,1024,1024,322.8,-89.9,96,3.827,3.818,3.831,3.882,3.883,3.834,21.011,78.8,14,Waypoint,
38.7448347,-120.4088167,4334.958272905,115.813652,0,0.68240487748,17200,2018-06-07 21:01:44,12,0,23.103,4334.958272905,115.813652,0.3131716,0.91707352016,0,0,-0.671082,323.9, -0.8, -1.2,0,0,1024,1024,1024,1024,322.8,-89.9,96,3.827,3.818,3.831,3.882,3.883,3.834,21.011,78.8,14,Waypoint,
38.7448346,-120.4088168,4335.942524905,116.797904,0,0.70489831652,17300,2018-06-07 21:01:45,12,0,23.103,4335.942524905,116.797904,0.3131716,0.91707352016,0,0,-0.671082,323.9, -0.9, -1.1,0,0,1024,1024,1024,1024,322.8,-89.9,96,3.827,3.818,3.831,3.882,3.883,3.834,21.011,78.8,14,Waypoint,
38.7448346,-120.4088168,4336.926776905,117.782156,0,0.70489831652,17400,2018-06-07 21:01:45,12,0,23.103,4336.926776905,117.782156,0.3131716,0.91707352016,0,0,-0.671082,323.9, -1, -1.1,0,0,1024,1024,1024,1024,322.8,-89.9,96,3.827,3.818,3.831,3.882,3.883,3.834,21.011,78.8,14,Waypoint,
38.7448346,-120.4088169,4337.582944905,118.438324,0,0.69506563904,17500,2018-06-07 21:01:45,12,0,23.103,4337.582944905,118.438324,0.3131716,0.91707352016,0,0,-0.671082,323.9, -1, -1,0,0,1024,1024,1024,1024,322.8,-89.9,96,3.827,3.818,3.831,3.882,3.883,3.834,21.011,78.8,14,Waypoint,
38.7448346,-120.4088169,4338.567196905,119.422576,0,0.69506563904,17600,2018-06-07 21:01:45,12,0,23.103,4338.567196905,119.422576,0.3131716,0.91707352016,0,0,-0.671082,323.9, -1, -0.9,0,0,1024,1024,1024,1024,322.8,-89.9,96,3.827,3.818,3.831,3.882,3.883,3.834,21.011,78.8,14,Waypoint,
38.7448346,-120.408817,4339.551448905,120.406828,0,0.68627298784,17700,2018-06-07 21:01:45,12,0,23.103,4339.551448905,120.406828,0.3131716,0.91707352016,0,0,-0.671082,323.9, -0.9, -0.7,0,0,1024,1024,1024,1024,322.8,-89.9,96,3.827,3.818,3.831,3.882,3.883,3.834,21.011,78.8,14,Waypoint,
38.7448346,-120.408817,4340.535700905,121.39108,0,0.68627298784,17800,2018-06-07 21:01:45,12,0,23.103,4340.535700905,121.39108,0.3131716,0.91707352016,0,0,-0.671082,323.8, -0.9, -0.7,0,0,1024,1024,1024,1024,322.8,-89.9,96,3.827,3.818,3.831,3.882,3.883,3.834,21.011,78.8,14,Waypoint,
38.7448345,-120.408817,4341.519952905,122.375332,0,0.72126642728,17900,2018-06-07 21:01:45,12,0,23.103,4341.519952905,122.375332,0.3131716,0.91707352016,0,0,-0.671082,323.8, -0.9, -1,0,0,1024,1024,1024,1024,322.8,-89.9,96,3.827,3.818,3.831,3.882,3.883,3.834,21.011,78.8,14,Waypoint,
38.7448345,-120.4088171,4342.504204905,123.359584,0,0.71393046904,18000,2018-06-07 21:01:45,12,0,22.949,4342.504204905,123.359584,0.3131716,0.91707352016,0,0,-0.671082,323.8, -1, -1.2,0,0,1024,1024,1024,1024,322.8,-89.9,96,3.805,3.805,3.804,3.857,3.857,3.81,22.256,78.8,14,Waypoint,
38.7448345,-120.4088172,4343.816540905,124.67192,0,0.70766406464,18100,2018-06-07 21:01:45,12,0,22.949,4343.816540905,124.67192,0.3131716,0.91707352016,0,0,-0.671082,323.9, -1.1, -1.3,0,0,1024,1024,1024,1024,322.8,-89.9,96,3.805,3.805,3.804,3.857,3.857,3.81,22.256,78.8,14,Waypoint,
38.7448345,-120.4088172,4344.800792905,125.656172,0,0.70766406464,18200,2018-06-07 21:01:45,12,0,22.949,4344.800792905,125.656172,0.3131716,0.91707352016,0,0,-0.671082,323.9, -1, -1.3,0,0,1024,1024,1024,1024,322.8,-89.9,96,3.805,3.805,3.804,3.857,3.857,3.81,22.256,78.8,14,Waypoint,
38.7448345,-120.4088173,4345.456960905,126.31234,0,0.70249674164,18300,2018-06-07 21:01:46,12,0,22.949,4345.456960905,126.31234,0.3131716,0.91707352016,0,0,-0.671082,323.9, -0.6, -1.3,0,0,1024,1024,1024,1024,322.8,-89.9,96,3.805,3.805,3.804,3.857,3.857,3.81,22.256,78.8,14,Waypoint,
38.7448346,-120.4088173,4346.769296905,127.624676,0,0.6665190502,18400,2018-06-07 21:01:46,12,0,22.949,4346.769296905,127.624676,0.3131716,0.91707352016,0,0,-0.671082,323.9, 0, -1.4,0,0,1024,1024,1024,1024,322.8,-89.9,96,3.805,3.805,3.804,3.857,3.857,3.81,22.256,78.8,14,Waypoint,
38.7448346,-120.4088174,4347.753548905,128.608928,0,0.6622539582,18500,2018-06-07 21:01:46,12,0,22.949,4347.753548905,128.608928,0.3131716,0.91707352016,0,0,-0.671082,323.9, 0.4, -1.6,0,0,1024,1024,1024,1024,322.8,-89.9,96,3.805,3.805,3.804,3.857,3.857,3.81,22.256,78.8,14,Waypoint,
38.7448345,-120.4088174,4348.737800905,129.59318,0,0.69845146592,18600,2018-06-07 21:01:46,12,0,22.949,4348.737800905,129.59318,0.3131716,0.91707352016,0,0,-0.671082,323.9, 0.1, -1.1,0,0,1024,1024,1024,1024,322.8,-89.9,96,3.805,3.805,3.804,3.857,3.857,3.81,22.256,78.8,14,Waypoint,
38.7448345,-120.4088174,4349.393968905,130.249348,0,0.69845146592,18700,2018-06-07 21:01:46,12,0,22.949,4349.393968905,130.249348,0.3131716,0.91707352016,0,0,-0.671082,323.8, -0.5, -0.8,0,0,1024,1024,1024,1024,322.8,-90,96,3.805,3.805,3.804,3.857,3.857,3.81,22.256,78.8,14,Waypoint,
38.7448344,-120.4088174,4350.378220905,131.2336,0,0.73467522036,18800,2018-06-07 21:01:46,12,0,22.949,4350.378220905,131.2336,0.3131716,0.91707352016,0,0,-0.671082,323.8, -1.2, -0.7,0,0,1024,1024,1024,1024,322.8,-90,96,3.805,3.805,3.804,3.857,3.857,3.81,22.256,78.8,14,Waypoint,
38.7448344,-120.4088174,4352.346724905,133.202104,0,0.73467522036,19000,2018-06-07 21:01:46,12,0,22.93,4352.346724905,133.202104,0.3131716,0.91707352016,0,0,-0.671082,323.7, -1.4, -0.6,0,0,1024,1024,1024,1024,322.8,-90,96,3.805,3.805,3.804,3.857,3.857,3.81,22.267,78.8,14,Waypoint,
38.7448343,-120.4088175,4353.330976905,134.186356,0,0.76829398784,19100,2018-06-07 21:01:46,12,0,22.93,4353.330976905,134.186356,0.3131716,0.91707352016,0,0,-0.671082,323.7, -1.3, -0.5,0,0,1024,1024,1024,1024,322.8,-90,96,3.805,3.805,3.804,3.857,3.857,3.81,22.267,78.8,14,Waypoint,
38.7448343,-120.4088175,4354.315228905,135.170608,0,0.76829398784,19200,2018-06-07 21:01:46,12,0,22.93,4354.315228905,135.170608,0.3131716,0.91707352016,0,0,-0.671082,323.7, -1.3, -0.4,0,0,1024,1024,1024,1024,322.8,-90,96,3.805,3.805,3.804,3.857,3.857,3.81,22.267,78.8,14,Waypoint,
38.7448342,-120.4088175,4356.283732905,137.139112,0,0.80468506512,19300,2018-06-07 21:01:47,12,0,22.93,4356.283732905,137.139112,0.3131716,0.91707352016,0,0,-0.671082,323.6, -1.1, -0.5,0,0,1024,1024,1024,1024,322.8,-89.9,96,3.805,3.805,3.804,3.857,3.857,3.81,22.267,78.8,14,Waypoint,
38.7448342,-120.4088175,4357.267984905,138.123364,0,0.80468506512,19500,2018-06-07 21:01:47,12,0,22.93,4357.267984905,138.123364,0.3131716,0.91707352016,0,0,-0.671082,323.7, -1, -0.6,0,0,1024,1024,1024,1024,322.8,-89.9,96,3.805,3.805,3.804,3.857,3.857,3.81,22.267,78.8,14,Waypoint,
38.7448342,-120.4088175,4359.236488905,140.091868,0,0.80468506512,19700,2018-06-07 21:01:47,12,0,22.93,4359.236488905,140.091868,0.3131716,0.91707352016,0,0,-0.671082,323.7, -1.1, -0.6,0,0,1024,1024,1024,1024,322.8,-89.9,96,3.805,3.805,3.804,3.857,3.857,3.81,22.267,78.8,14,Waypoint,
38.7448341,-120.4088175,4360.220740905,141.07612,0,0.84108270408,19800,2018-06-07 21:01:47,12,0,22.93,4360.220740905,141.07612,0.3131716,0.91707352016,0,0,-0.671082,323.7, -1, -0.6,0,0,1024,1024,1024,1024,322.8,-89.9,96,3.805,3.805,3.804,3.857,3.857,3.81,22.267,78.8,14,Waypoint,
38.7448341,-120.4088175,4361.204992905,142.060372,0,0.84108270408,19900,2018-06-07 21:01:47,12,0,22.93,4361.204992905,142.060372,0.3131716,0.91707352016,0,0,-0.671082,323.7, -1.1, -0.6,0,0,1024,1024,1024,1024,322.8,-89.9,96,3.805,3.805,3.804,3.857,3.857,3.81,22.267,78.8,14,Waypoint,
38.744834,-120.4088176,4366.126252905,146.981632,0,0.87610239024,20400,2018-06-07 21:01:48,12,0,22.93,4366.126252905,146.981632,0.3131716,0.91707352016,0,0,-0.671082,323.8, -0.7, -0.3,0,0,1024,1024,1024,1024,322.8,-89.9,96,3.805,3.805,3.804,3.857,3.857,3.81,22.267,78.8,14,Waypoint,
38.744834,-120.4088176,4367.110504905,147.965884,0,0.87610239024,20500,2018-06-07 21:01:48,12,0,22.93,4367.110504905,147.965884,0.3131716,0.91707352016,0,0,-0.671082,323.8, -0.8, -0.5,0,0,1024,1024,1024,1024,322.7,-89.9,96,3.805,3.805,3.804,3.857,3.857,3.81,22.267,78.8,14,Waypoint,
38.744834,-120.4088176,4368.094756905,148.950136,0,0.87610239024,20700,2018-06-07 21:01:48,12,0,22.93,4368.094756905,148.950136,0.3131716,0.91707352016,0,0,-0.671082,323.8, -1.1, -0.5,0,0,1024,1024,1024,1024,322.8,-90,96,3.805,3.805,3.804,3.857,3.857,3.81,22.267,78.8,14,Waypoint,
38.7448339,-120.4088176,4370.391344905,151.246724,0,0.912565646,20800,2018-06-07 21:01:48,12,0,22.93,4370.391344905,151.246724,0.3131716,0.91707352016,0,0,-0.671082,323.8, -1.5, -0.7,0,0,1024,1024,1024,1024,322.8,-89.9,96,3.805,3.805,3.804,3.857,3.857,3.81,22.267,78.8,14,Waypoint,
38.7448339,-120.4088176,4372.359848905,153.215228,0,0.912565646,21000,2018-06-07 21:01:48,12,0,22.909,4372.359848905,153.215228,0.3131716,0.91707352016,0,0,-0.671082,323.8, -1.6, -0.7,0,0,1024,1024,1024,1024,322.8,-90,96,3.806,3.811,3.803,3.852,3.85,3.799,21.734,78.8,14,Waypoint,
38.7448339,-120.4088177,4373.344100905,154.19948,0,0.9121227326,21110,2018-06-07 21:01:48,12,0,22.909,4373.344100905,154.19948,0.3131716,0.91707352016,0,0,-0.671082,323.8, -1.6, -0.6,0,0,1024,1024,1024,1024,322.8,-89.9,96,3.806,3.811,3.803,3.852,3.85,3.799,21.734,78.8,14,Waypoint,
38.7448339,-120.4088177,4374.328352905,155.183732,0,0.9121227326,21200,2018-06-07 21:01:48,12,0,22.909,4374.328352905,155.183732,0.3131716,0.91707352016,0,0,-0.671082,323.8, -1.4, -0.4,0,0,1024,1024,1024,1024,322.8,-89.9,96,3.806,3.811,3.803,3.852,3.85,3.799,21.734,78.8,14,Waypoint,
38.744834,-120.4088178,4376.296856905,157.152236,0,0.87610239024,21400,2018-06-07 21:01:49,12,0,22.909,4376.296856905,157.152236,0.3131716,0.91707352016,0,0,-0.671082,323.8, -0.8, -0.2,0,0,1024,1024,1024,1024,322.8,-89.9,96,3.806,3.811,3.803,3.852,3.85,3.799,21.734,78.8,14,Waypoint,
38.744834,-120.4088178,4377.281108905,158.136488,0.223694,0.87610239024,21600,2018-06-07 21:01:49,12,0,22.909,4377.281108905,158.136488,0.3131716,0.91707352016,0,0,-0.671082,323.9, -0.8, -0.4,0,0,1024,1024,1024,1024,322.8,-89.9,96,3.806,3.811,3.803,3.852,3.85,3.799,21.734,78.8,14,Waypoint,
38.7448341,-120.4088179,4379.577696905,160.433076,0.223694,0.84108270408,21700,2018-06-07 21:01:49,12,0,22.909,4379.577696905,160.433076,0.3131716,0.91707352016,0,0,-0.671082,324, -0.5, -0.8,0,0,1024,1024,1024,1024,322.8,-89.9,96,3.806,3.811,3.803,3.852,3.85,3.799,21.734,78.8,14,Waypoint,
38.7448342,-120.4088179,4380.561948905,161.417328,0.223694,0.80468506512,21800,2018-06-07 21:01:49,12,0,22.909,4380.561948905,161.417328,0.3131716,0.91707352016,0,0,-0.671082,323.9, -0.6, -0.8,0,0,1024,1024,1024,1024,322.8,-89.9,96,3.806,3.811,3.803,3.852,3.85,3.799,21.734,78.8,14,Waypoint,
38.7448342,-120.4088179,4381.546200905,162.40158,0.223694,0.80468506512,21900,2018-06-07 21:01:49,12,0,22.909,4381.546200905,162.40158,0.3131716,0.91707352016,0,0,-0.671082,323.8, -0.5, -1,0,0,1024,1024,1024,1024,322.8,-89.9,96,3.806,3.811,3.803,3.852,3.85,3.799,21.734,78.8,14,Waypoint,
38.7448343,-120.4088179,4382.530452905,163.385832,0.223694,0.76829398784,22000,2018-06-07 21:01:49,12,0,22.95,4382.530452905,163.385832,0.3131716,0.91707352016,0,0,-0.671082,323.7, -0.3, -1.4,0,0,1024,1024,1024,1024,322.8,-89.9,95,3.796,3.796,3.804,3.851,3.851,3.801,20.956,78.8,14,Waypoint,
38.7448344,-120.408818,4384.498956905,165.354336,0.223694,0.73467522036,22200,2018-06-07 21:01:49,12,0,22.95,4384.498956905,165.354336,0.3131716,0.91707352016,0,0,-0.671082,323.8, 0, -1.4,0,0,1024,1024,1024,1024,322.8,-89.9,95,3.796,3.796,3.804,3.851,3.851,3.801,20.956,78.8,14,Waypoint,
38.7448345,-120.408818,4385.483208905,166.338588,0.223694,0.69845146592,22300,2018-06-07 21:01:50,12,0,22.95,4385.483208905,166.338588,0.3131716,0.91707352016,0,0,-0.671082,323.7, 0, -1.5,0,0,1024,1024,1024,1024,322.8,-89.9,95,3.796,3.796,3.804,3.851,3.851,3.801,20.956,78.8,14,Waypoint,
38.7448346,-120.408818,4386.467460905,167.32284,0.223694,0.6622539582,22400,2018-06-07 21:01:50,12,0,22.95,4386.467460905,167.32284,0.3131716,0.91707352016,0,0,-0.671082,323.7, 0, -1.3,0,0,1024,1024,1024,1024,322.8,-89.9,95,3.796,3.796,3.804,3.851,3.851,3.801,20.956,78.8,14,Waypoint,
38.7448346,-120.408818,4387.451712905,168.307092,0.223694,0.6622539582,22500,2018-06-07 21:01:50,12,0,22.95,4387.451712905,168.307092,0.3131716,0.91707352016,0,0,-0.671082,323.6, 0, -1.4,0,0,1024,1024,1024,1024,322.8,-89.9,95,3.796,3.796,3.804,3.851,3.851,3.801,20.956,78.8,14,Waypoint,
38.7448346,-120.408818,4388.435964905,169.291344,0,0.6622539582,22600,2018-06-07 21:01:50,12,0,22.95,4388.435964905,169.291344,0.3131716,0.91707352016,0,0,-0.671082,323.6, 0, -1.4,0,0,1024,1024,1024,1024,322.8,-89.9,95,3.796,3.796,3.804,3.851,3.851,3.801,20.956,78.8,14,Waypoint,
38.7448347,-120.408818,4389.420216905,170.275596,0,0.62609253972,22700,2018-06-07 21:01:50,12,0,22.95,4389.420216905,170.275596,0.3131716,0.91707352016,0,0,-0.671082,323.6, -0.2, -1.7,0,0,1024,1024,1024,1024,322.8,-90,95,3.796,3.796,3.804,3.851,3.851,3.801,20.956,78.8,14,Waypoint,
38.7448347,-120.4088179,4390.404468905,171.259848,0,0.6228510698,22800,2018-06-07 21:01:50,12,0,22.95,4390.404468905,171.259848,0.3131716,0.91707352016,0,0,-0.671082,323.6, -0.5, -1.6,0,0,1024,1024,1024,1024,322.8,-89.9,95,3.796,3.796,3.804,3.851,3.851,3.801,20.956,78.8,14,Waypoint,
38.7448347,-120.4088179,4391.388720905,172.2441,0,0.6228510698,23000,2018-06-07 21:01:50,12,0,22.936,4391.388720905,172.2441,0.3131716,0.91707352016,0,0,-0.671082,323.7, -0.3, -1.5,0,0,1024,1024,1024,1024,322.8,-89.9,95,3.811,3.81,3.811,3.865,3.861,3.81,20.997,80.6,14,Waypoint,
38.7448348,-120.4088178,4393.357224905,174.212604,0,0.58445211844,23100,2018-06-07 21:01:50,12,0,22.936,4393.357224905,174.212604,0.3131716,0.91707352016,0,0,-0.671082,324, -0.3, -1.6,0,0,1024,1024,1024,1024,322.8,-89.9,95,3.811,3.81,3.811,3.865,3.861,3.81,20.997,80.6,14,Waypoint,
38.7448348,-120.4088178,4394.341476905,175.196856,0,0.58445211844,23200,2018-06-07 21:01:50,12,0,22.936,4394.341476905,175.196856,0.3131716,0.91707352016,0,0,-0.671082,324, -0.4, -2,0,0,1024,1024,1024,1024,322.8,-89.9,95,3.811,3.81,3.811,3.865,3.861,3.81,20.997,80.6,14,Waypoint,
38.7448348,-120.4088178,4395.325728905,176.181108,0,0.58445211844,23300,2018-06-07 21:01:51,12,0,22.936,4395.325728905,176.181108,0.3131716,0.91707352016,0,0,-0.671082,324, -0.4, -2.2,0,0,1024,1024,1024,1024,322.8,-89.9,95,3.811,3.81,3.811,3.865,3.861,3.81,20.997,80.6,14,Waypoint,
38.7448348,-120.4088177,4396.309980905,177.16536,0,0.5837598612,23400,2018-06-07 21:01:51,12,0,22.936,4396.309980905,177.16536,0.3131716,0.91707352016,0,0,-0.671082,324, -0.5, -2.2,0,0,1024,1024,1024,1024,322.8,-89.9,95,3.811,3.81,3.811,3.865,3.861,3.81,20.997,80.6,14,Waypoint,
38.7448348,-120.4088177,4397.294232905,178.149612,0,0.5837598612,23500,2018-06-07 21:01:51,12,0,22.936,4397.294232905,178.149612,0.3131716,0.91707352016,0,0,-0.671082,323.9, -0.5, -1.8,0,0,1024,1024,1024,1024,322.8,-89.9,95,3.811,3.81,3.811,3.865,3.861,3.81,20.997,80.6,14,Waypoint,
38.7448348,-120.4088178,4398.934652905,179.790032,0,0.58445211844,23600,2018-06-07 21:01:51,12,0,22.936,4398.934652905,179.790032,0.3131716,0.91707352016,0,0,-0.671082,323.8, -0.8, -1.3,0,0,1024,1024,1024,1024,322.8,-89.9,95,3.811,3.81,3.811,3.865,3.861,3.81,20.997,80.6,14,Waypoint,
38.7448348,-120.4088177,4400.903156905,181.758536,0,0.5837598612,23900,2018-06-07 21:01:51,12,0,22.936,4400.903156905,181.758536,0.3131716,0.91707352016,0,0,-0.671082,323.7, -0.7, -0.9,0,0,1024,1024,1024,1024,322.8,-89.9,95,3.811,3.81,3.811,3.865,3.861,3.81,20.997,80.6,14,Waypoint,
38.7448347,-120.4088177,4402.871660905,183.72704,0,0.620242802,24020,2018-06-07 21:01:51,12,0,22.884,4402.871660905,183.72704,0.3131716,0.91707352016,0,0,-0.671082,323.8, -0.6, -1.2,0,0,1024,1024,1024,1024,322.8,-89.9,95,3.798,3.798,3.8,3.857,3.851,3.805,21.646,80.6,14,Waypoint,
38.7448347,-120.4088177,4403.855912905,184.711292,0,0.620242802,24200,2018-06-07 21:01:51,12,0,22.884,4403.855912905,184.711292,0.3131716,0.91707352016,0,0,-0.671082,323.7, -0.6, -1.5,0,0,1024,1024,1024,1024,322.8,-89.9,95,3.798,3.798,3.8,3.857,3.851,3.805,21.646,80.6,14,Waypoint,
38.7448347,-120.4088176,4404.840164905,185.695544,0,0.62089568916,24300,2018-06-07 21:01:52,12,0,22.884,4404.840164905,185.695544,0.3131716,0.91707352016,0,0,-0.671082,323.7, -0.6, -1.7,0,0,1024,1024,1024,1024,322.8,-89.9,95,3.798,3.798,3.8,3.857,3.851,3.805,21.646,80.6,14,Waypoint,
38.7448346,-120.4088176,4405.824416905,186.679796,0,0.65734582156,24400,2018-06-07 21:01:52,12,0,22.884,4405.824416905,186.679796,0.3131716,0.91707352016,0,0,-0.671082,323.7, -0.7, -1.8,0,0,1024,1024,1024,1024,322.8,-89.9,95,3.798,3.798,3.8,3.857,3.851,3.805,21.646,80.6,14,Waypoint,
38.7448346,-120.4088176,4406.808668905,187.664048,0,0.65734582156,24500,2018-06-07 21:01:52,12,0,22.884,4406.808668905,187.664048,0.3131716,0.91707352016,0,0,-0.671082,323.7, -0.8, -1.9,0,0,1024,1024,1024,1024,322.8,-89.9,95,3.798,3.798,3.8,3.857,3.851,3.805,21.646,80.6,14,Waypoint,
38.7448346,-120.4088175,4407.792920905,188.6483,0,0.65918965364,24600,2018-06-07 21:01:52,12,0,22.884,4407.792920905,188.6483,0.3131716,0.91707352016,0,0,-0.671082,323.7, -1, -2.1,0,0,1024,1024,1024,1024,322.8,-90,95,3.798,3.798,3.8,3.857,3.851,3.805,21.646,80.6,14,Waypoint,
38.7448346,-120.4088175,4408.777172905,189.632552,0,0.65918965364,24700,2018-06-07 21:01:52,12,0,22.884,4408.777172905,189.632552,0.3131716,0.91707352016,0,0,-0.671082,323.8, -1.1, -2.1,0,0,1024,1024,1024,1024,322.8,-89.9,95,3.798,3.798,3.8,3.857,3.851,3.805,21.646,80.6,14,Waypoint,
38.7448346,-120.4088174,4409.761424905,190.616804,0,0.6622539582,24800,2018-06-07 21:01:52,12,0,22.884,4409.761424905,190.616804,0.3131716,0.91707352016,0,0,-0.671082,323.8, -1.1, -2.1,0,0,1024,1024,1024,1024,322.8,-89.9,95,3.798,3.798,3.8,3.857,3.851,3.805,21.646,80.6,14,Waypoint,
38.7448346,-120.4088174,4410.745676905,191.601056,0,0.6622539582,24900,2018-06-07 21:01:52,12,0,22.884,4410.745676905,191.601056,0.3131716,0.91707352016,0,0,-0.671082,323.8, -0.9, -1.9,0,0,1024,1024,1024,1024,322.8,-89.9,95,3.798,3.798,3.8,3.857,3.851,3.805,21.646,80.6,14,Waypoint,
38.7448345,-120.4088175,4411.729928905,192.585308,0,0.69554464168,25000,2018-06-07 21:01:52,12,0,22.884,4411.729928905,192.585308,0.3131716,0.91707352016,0,0,-0.671082,323.8, -0.7, -1.9,0,0,1024,1024,1024,1024,322.8,-89.9,95,3.795,3.798,3.79,3.844,3.848,3.795,21.646,80.6,14,Waypoint,
38.7448345,-120.4088175,4412.714180905,193.56956,0,0.69554464168,25100,2018-06-07 21:01:52,12,0,22.884,4412.714180905,193.56956,0.3131716,0.91707352016,0,0,-0.671082,323.7, -0.7, -1.9,0,0,1024,1024,1024,1024,322.8,-89.9,95,3.795,3.798,3.79,3.844,3.848,3.795,21.646,80.6,14,Waypoint,
38.7448345,-120.4088175,4413.698432905,194.553812,0,0.69554464168,25200,2018-06-07 21:01:52,12,0,22.884,4413.698432905,194.553812,0.3131716,0.91707352016,0,0,-0.671082,323.6, -0.6, -1.8,0,0,1024,1024,1024,1024,322.8,-89.9,95,3.795,3.798,3.79,3.844,3.848,3.795,21.646,80.6,14,Waypoint,
38.7448345,-120.4088175,4414.682684905,195.538064,0,0.69554464168,25300,2018-06-07 21:01:53,12,0,22.884,4414.682684905,195.538064,0.3131716,0.91707352016,0,0,-0.671082,323.6, -0.4, -1.6,0,0,1024,1024,1024,1024,322.8,-89.9,95,3.795,3.798,3.79,3.844,3.848,3.795,21.646,80.6,14,Waypoint,
38.7448345,-120.4088176,4415.666936905,196.522316,0,0.6937992348,25400,2018-06-07 21:01:53,12,0,22.884,4415.666936905,196.522316,0.3131716,0.91707352016,0,0,-0.671082,323.7, -0.2, -1.5,0,0,1024,1024,1024,1024,322.8,-89.9,95,3.795,3.798,3.79,3.844,3.848,3.795,21.646,80.6,14,Waypoint,
38.7448345,-120.4088176,4416.651188905,197.506568,0,0.6937992348,25500,2018-06-07 21:01:53,12,0,22.884,4416.651188905,197.506568,0.3131716,0.91707352016,0,0,-0.671082,323.8, -0.3, -1.3,0,0,1024,1024,1024,1024,322.8,-89.9,95,3.795,3.798,3.79,3.844,3.848,3.795,21.646,80.6,14,Waypoint,
38.7448345,-120.4088176,4417.635440905,198.49082,0,0.6937992348,25600,2018-06-07 21:01:53,12,0,22.884,4417.635440905,198.49082,0.3131716,0.91707352016,0,0,-0.671082,323.9, -0.4, -1.2,0,0,1024,1024,1024,1024,322.8,-89.9,95,3.795,3.798,3.79,3.844,3.848,3.795,21.646,80.6,14,Waypoint,
38.7448345,-120.4088175,4418.619692905,199.475072,0,0.69554464168,25700,2018-06-07 21:01:53,12,0,22.884,4418.619692905,199.475072,0.3131716,0.91707352016,0,0,-0.671082,323.9, -0.5, -1.3,0,0,1024,1024,1024,1024,322.8,-89.9,95,3.795,3.798,3.79,3.844,3.848,3.795,21.646,80.6,14,Waypoint,
38.7448344,-120.4088175,4419.603944905,200.459324,0,0.73191603392,25800,2018-06-07 21:01:53,12,0,22.884,4419.603944905,200.459324,0.3131716,0.91707352016,0,0,-0.671082,324, -0.5, -1.4,0,0,1024,1024,1024,1024,322.8,-89.9,95,3.795,3.798,3.79,3.844,3.848,3.795,21.646,80.6,14,Waypoint,
38.7448344,-120.4088176,4420.588196905,201.443576,0,0.73025264804,26000,2018-06-07 21:01:53,12,0,22.841,4420.588196905,201.443576,0.3131716,0.91707352016,0,0,-0.671082,324, -0.6, -1.4,0,0,1024,1024,1024,1024,322.8,-90,95,3.78,3.786,3.788,3.841,3.834,3.792,21.618,80.6,14,Waypoint,
38.7448344,-120.4088176,4421.572448905,202.427828,0,0.73025264804,26100,2018-06-07 21:01:53,12,0,22.841,4421.572448905,202.427828,0.3131716,0.91707352016,0,0,-0.671082,324, -0.7, -1.4,0,0,1024,1024,1024,1024,322.8,-89.9,95,3.78,3.786,3.788,3.841,3.834,3.792,21.618,80.6,14,Waypoint,
38.7448344,-120.4088175,4423.540952905,204.396332,0,0.73191603392,26200,2018-06-07 21:01:53,12,0,22.841,4423.540952905,204.396332,0.3131716,0.91707352016,0,0,-0.671082,323.7, -0.8, -1.9,0,0,1024,1024,1024,1024,322.8,-90,95,3.78,3.786,3.788,3.841,3.834,3.792,21.618,80.6,14,Waypoint,
38.7448344,-120.4088175,4424.525204905,205.380584,0,0.73191603392,26400,2018-06-07 21:01:54,12,0,22.841,4424.525204905,205.380584,0.3131716,0.91707352016,0,0,-0.671082,323.6, -0.7, -2,0,0,1024,1024,1024,1024,322.8,-89.9,95,3.78,3.786,3.788,3.841,3.834,3.792,21.618,80.6,14,Waypoint,
38.7448344,-120.4088176,4426.493708905,207.349088,0,0.73025264804,26700,2018-06-07 21:01:54,12,0,22.841,4426.493708905,207.349088,0.3131716,0.91707352016,0,0,-0.671082,323.6, -0.3, -1.8,0,0,1024,1024,1024,1024,322.8,-89.9,95,3.78,3.786,3.788,3.841,3.834,3.792,21.618,80.6,14,Waypoint,
38.7448344,-120.4088176,4427.477960905,208.33334,0,0.73025264804,26920,2018-06-07 21:01:54,12,0,22.841,4427.477960905,208.33334,0.3131716,0.91707352016,0,0,-0.671082,323.7, -0.3, -1.6,0,0,1024,1024,1024,1024,322.8,-89.9,95,3.78,3.786,3.788,3.841,3.834,3.792,21.618,80.6,14,Waypoint,
38.7448344,-120.4088176,4427.477960905,208.33334,0,0.73025264804,27000,2018-06-07 21:01:54,12,0,22.852,4427.477960905,208.33334,0.3131716,0.91707352016,0,0,-0.671082,323.7, -0.3, -1.6,0,0,1024,1024,1024,1024,322.8,-89.9,95,3.795,3.788,3.789,3.842,3.842,3.784,21.465,80.6,14,Waypoint,
38.7448344,-120.4088177,4428.462212905,209.317592,0,0.72969818608,27110,2018-06-07 21:01:54,12,0,22.852,4428.462212905,209.317592,0.3131716,0.91707352016,0,0,-0.671082,323.7, -0.3, -1.4,0,0,1024,1024,1024,1024,322.8,-89.9,95,3.795,3.788,3.789,3.842,3.842,3.784,21.465,80.6,14,Waypoint,
38.7448344,-120.4088177,4429.446464905,210.301844,0,0.72969818608,27300,2018-06-07 21:01:55,12,0,22.852,4429.446464905,210.301844,0.3131716,0.91707352016,0,0,-0.671082,323.8, -0.3, -1.5,0,0,1024,1024,1024,1024,322.8,-89.9,95,3.795,3.788,3.789,3.842,3.842,3.784,21.465,80.6,14,Waypoint,
38.7448344,-120.4088177,4430.430716905,211.286096,0,0.72969818608,27400,2018-06-07 21:01:55,12,0,22.852,4430.430716905,211.286096,0.3131716,0.91707352016,0,0,-0.671082,323.7, -0.3, -1.6,0,0,1024,1024,1024,1024,322.8,-89.9,95,3.795,3.788,3.789,3.842,3.842,3.784,21.465,80.6,14,Waypoint,
38.7448344,-120.4088179,4434.367724905,215.223104,0,0.73191603392,27700,2018-06-07 21:01:55,12,0,22.852,4434.367724905,215.223104,0.3131716,0.91707352016,0,0,-0.671082,323.8, -0.4, -1.1,0,0,1024,1024,1024,1024,322.8,-89.9,95,3.795,3.788,3.789,3.842,3.842,3.784,21.465,80.6,14,Waypoint,
38.7448344,-120.4088179,4435.351976905,216.207356,0,0.73191603392,27800,2018-06-07 21:01:55,12,0,22.852,4435.351976905,216.207356,0.3131716,0.91707352016,0,0,-0.671082,323.8, -0.5, -1.1,0,0,1024,1024,1024,1024,322.8,-89.9,95,3.795,3.788,3.789,3.842,3.842,3.784,21.465,80.6,14,Waypoint,
38.7448344,-120.4088179,4436.336228905,217.191608,0,0.73191603392,27900,2018-06-07 21:01:55,12,0,22.852,4436.336228905,217.191608,0.3131716,0.91707352016,0,0,-0.671082,323.8, -0.5, -1.2,0,0,1024,1024,1024,1024,322.8,-89.9,95,3.795,3.788,3.789,3.842,3.842,3.784,21.465,80.6,14,Waypoint,
38.7448344,-120.4088179,4438.304732905,219.160112,0,0.73191603392,28000,2018-06-07 21:01:55,12,0,22.792,4438.304732905,219.160112,0.3131716,0.91707352016,0,0,-0.671082,323.6, -0.4, -1.5,0,0,1024,1024,1024,1024,322.8,-90,95,3.778,3.777,3.781,3.835,3.831,3.785,22.095,80.6,14,Waypoint,
38.7448343,-120.4088179,4441.257488905,222.112868,0,0.76829398784,28200,2018-06-07 21:01:55,12,0,22.792,4441.257488905,222.112868,0.3131716,0.91707352016,0,0,-0.671082,323.8, -0.4, -1.2,0,0,1024,1024,1024,1024,322.8,-90,95,3.778,3.777,3.781,3.835,3.831,3.785,22.095,80.6,14,Waypoint,
