latitude,longitude,altitude(feet),ascent(feet),speed(mph),distance(feet),time(millisecond),datetime(utc),satellites,gpslevel,voltage(v),max_altitude(feet),max_ascent(feet),max_speed(mph),max_distance(feet), xSpeed(mph), ySpeed(mph), zSpeed(mph), compass_heading(degrees), pitch(degrees), roll(degrees),isPhoto,isVideo,rc_elevator,rc_aileron,rc_throttle,rc_rudder,gimbal_heading(degrees),gimbal_pitch(degrees),battery_percent,voltageCell1,voltageCell2,voltageCell3,voltageCell4,voltageCell5,voltageCell6,current(A),battery_temperature(f),flycStateRaw,flycState,message
38.7448523,-120.4088436,4219.6412321414,0,0.3131716,0,2870,2018-06-07 21:57:28,11,0,0,4219.6412321414,0,0.3131716,0,0,0,0,324.7, -0.1, -1.4,1,0,1024,1024,1024,1024,323.5,-90,98,4.167,4.176,4.181,4.17,4.171,4.188,0,77,11,AutoTakeoff,Photo Starting Mission from Lat/Long: 38.74485/-120.40884 Camera: Zenmuse X3 - Overlap: 90/90 - Active Connection: No
38.7448522,-120.4088438,4219.6412321414,0,0.3131716,0.067603020536,3020,2018-06-07 21:57:28,11,0,25.158,4219.6412321414,0,0.3131716,0.067603020536,0,0,0,325, -0.5, 0,0,0,1024,1024,1024,1024,323.5,-90,98,4.167,4.176,4.181,4.17,4.171,4.188,3.986,77,11,AutoTakeoff,
38.744852,-120.408844,4219.6412321414,0,0.3131716,0.157912406628,3110,2018-06-07 21:57:28,11,0,25.158,4219.6412321414,0,0.3131716,0.157912406628,0,0,0,325.1, -0.6, 1.2,0,0,1024,1024,1024,1024,323.5,-90,98,4.167,4.176,4.181,4.17,4.171,4.188,3.986,77,11,AutoTakeoff,
38.744852,-120.4088441,4219.6412321414,0,0.223694,0.179510832516,3200,2018-06-07 21:57:28,10,0,25.158,4219.6412321414,0,0.3131716,0.179510832516,0,0,0,325.1, -0.2, 1.5,0,0,1024,1024,1024,1024,323.5,-90,98,4.167,4.176,4.181,4.17,4.171,4.188,3.986,77,11,AutoTakeoff,
38.7448519,-120.4088442,4219.9693161414,0.328084,0.223694,0.224609259156,3400,2018-06-07 21:57:28,10,0,25.158,4219.9693161414,0.328084,0.3131716,0.224609259156,0,0,0,324.8, 0.1, 1.3,0,0,1024,1024,1024,1024,323.5,-90,98,4.167,4.176,4.181,4.17,4.171,4.188,3.986,77,11,AutoTakeoff,
38.7448519,-120.4088444,4219.9693161414,0.328084,0,0.270411425976,3500,2018-06-07 21:57:28,10,0,25.158,4219.9693161414,0.328084,0.3131716,0.270411425976,0,0,0,324.5, 0.2, 0.7,0,0,1024,1024,1024,1024,323.5,-89.9,98,4.167,4.176,4.181,4.17,4.171,4.188,3.986,77,11,AutoTakeoff,
38.7448519,-120.4088445,4220.2974001414,0.656168,0,0.294767725968,3600,2018-06-07 21:57:28,10,0,25.158,4220.2974001414,0.656168,0.3131716,0.294767725968,0,0,0,324.2, 0.2, 0.6,0,0,1024,1024,1024,1024,323.5,-89.9,98,4.167,4.176,4.181,4.17,4.171,4.188,3.986,77,11,AutoTakeoff,
38.7448518,-120.4088449,4220.6254841414,0.984252,0,0.41246392396,3800,2018-06-07 21:57:29,10,0,25.158,4220.6254841414,0.984252,0.3131716,0.41246392396,0,0,0,323.8, 0.3, 0.3,0,0,1024,1024,1024,1024,323.5,-90,98,4.167,4.176,4.181,4.17,4.171,4.188,3.986,77,11,AutoTakeoff,
38.7448518,-120.408845,4220.6254841414,0.984252,0,0.43816602452,3900,2018-06-07 21:57:29,10,0,25.158,4220.6254841414,0.984252,0.3131716,0.43816602452,0,0,0,324.1, 0.2, 0.3,0,0,1024,1024,1024,1024,323.5,-90,98,4.167,4.176,4.181,4.17,4.171,4.188,3.986,77,11,AutoTakeoff,
38.7448518,-120.408845,4220.9535681414,1.312336,0,0.43816602452,4000,2018-06-07 21:57:29,10,0,24.089,4220.9535681414,1.312336,0.3131716,0.43816602452,0,0,0,324.3, 0.4, 0.5,0,0,1024,1024,1024,1024,323.5,-89.9,98,4.167,4.176,4.181,4.17,4.171,4.188,13.151,77,11,AutoTakeoff,
38.7448517,-120.4088453,4221.6097361414,1.968504,0,0.53097770728,4210,2018-06-07 21:57:29,9,0,24.089,4221.6097361414,1.968504,0.3131716,0.53097770728,0,0,-0.223694,324.7, 0.7, 0.8,0,0,1024,1024,1024,1024,323.5,-89.9,98,4.167,4.176,4.181,4.17,4.171,4.188,13.151,77,11,AutoTakeoff,
38.7448517,-120.4088454,4221.6097361414,1.968504,0,0.55702757688,4400,2018-06-07 21:57:29,10,0,24.089,4221.6097361414,1.968504,0.3131716,0.55702757688,0,0,0,324.6, 0.5, 1,0,0,1024,1024,1024,1024,323.5,-90,98,4.167,4.176,4.181,4.17,4.171,4.188,13.151,77,11,AutoTakeoff,
38.7448517,-120.4088455,4221.9378201414,2.296588,0,0.5833005436,4500,2018-06-07 21:57:29,10,0,24.089,4221.9378201414,2.296588,0.3131716,0.5833005436,0,0,0,324.5, 0.4, 1,0,0,1024,1024,1024,1024,323.5,-90,98,4.167,4.176,4.181,4.17,4.171,4.188,13.151,77,11,AutoTakeoff,
38.7448517,-120.4088454,4221.9378201414,2.296588,0,0.55702757688,4600,2018-06-07 21:57:29,10,0,24.089,4221.9378201414,2.296588,0.3131716,0.5833005436,0,0,0,324.5, 0.4, 1.1,0,0,1024,1024,1024,1024,323.5,-90,98,4.167,4.176,4.181,4.17,4.171,4.188,13.151,77,11,AutoTakeoff,
38.744852,-120.4088454,4222.5939881414,2.952756,0,0.52377298264,4810,2018-06-07 21:57:30,10,0,24.089,4222.5939881414,2.952756,0.3131716,0.5833005436,0,0,-0.223694,324.6, 0.7, 0.3,0,0,1024,1024,1024,1024,323.5,-89.9,98,4.167,4.176,4.181,4.17,4.171,4.188,13.151,77,6,P-GPS,
38.744852,-120.4088453,4222.5939881414,2.952756,0,0.495980987,4920,2018-06-07 21:57:30,11,0,24.089,4222.5939881414,2.952756,0.3131716,0.5833005436,0,0,0,324.7, 0.9, 0,0,0,1024,1024,1024,1024,323.5,-89.9,98,4.167,4.176,4.181,4.17,4.171,4.188,13.151,77,14,Waypoint,
38.744852,-120.4088452,4222.9220721414,3.28084,0,0.46826773152,5100,2018-06-07 21:57:30,11,0,24.089,4222.9220721414,3.28084,0.3131716,0.5833005436,0,0,0,324.9, 0.9, -0.7,0,0,1024,1024,1024,1024,323.5,-89.9,98,4.167,4.176,4.181,4.17,4.171,4.188,13.151,77,14,Waypoint,
38.7448521,-120.4088451,4222.9220721414,3.28084,0,0.43303479076,5200,2018-06-07 21:57:30,11,0,24.089,4222.9220721414,3.28084,0.3131716,0.5833005436,0,0,0,325, 0.7, -1.3,0,0,1024,1024,1024,1024,323.6,-90,98,4.167,4.176,4.181,4.17,4.171,4.188,13.151,77,14,Waypoint,
38.7448521,-120.4088452,4222.9220721414,3.28084,0,0.46110893864,5300,2018-06-07 21:57:30,11,0,24.089,4222.9220721414,3.28084,0.3131716,0.5833005436,0,0,0,325.1, 0.6, -1.2,0,0,1024,1024,1024,1024,323.6,-90,98,4.167,4.176,4.181,4.17,4.171,4.188,13.151,77,14,Waypoint,
38.7448521,-120.4088451,4223.2501561414,3.608924,0,0.43303479076,5400,2018-06-07 21:57:30,11,0,24.089,4223.2501561414,3.608924,0.3131716,0.5833005436,0,0,0,325.1, 0.6, -1,0,0,1024,1024,1024,1024,323.6,-90,98,4.167,4.176,4.181,4.17,4.171,4.188,13.151,77,14,Waypoint,
38.7448521,-120.4088451,4223.5782401414,3.937008,0,0.43303479076,5500,2018-06-07 21:57:30,11,0,24.089,4223.5782401414,3.937008,0.3131716,0.5833005436,0,0,-0.223694,324.8, 0.4, -0.4,0,0,1024,1024,1024,1024,323.6,-90,98,4.167,4.176,4.181,4.17,4.171,4.188,13.151,77,14,Waypoint,
38.7448522,-120.408845,4224.2344081414,4.593176,0,0.40005250624,5600,2018-06-07 21:57:30,10,0,24.089,4224.2344081414,4.593176,0.3131716,0.5833005436,0,0,-0.223694,324.4, 0.6, -0.2,0,0,1024,1024,1024,1024,323.6,-90,98,4.167,4.176,4.181,4.17,4.171,4.188,13.151,77,14,Waypoint,
38.7448522,-120.408845,4224.5624921414,4.92126,0,0.40005250624,5700,2018-06-07 21:57:31,10,0,24.089,4224.5624921414,4.92126,0.3131716,0.5833005436,0,0,-0.223694,324.1, 0.7, -0.3,0,0,1024,1024,1024,1024,323.6,-89.9,98,4.167,4.176,4.181,4.17,4.171,4.188,13.151,77,14,Waypoint,
38.7448524,-120.408845,4225.2186601414,5.577428,0,0.40005250624,5800,2018-06-07 21:57:31,11,0,24.089,4225.2186601414,5.577428,0.3131716,0.5833005436,0,0,-0.223694,324, 0.8, -0.4,0,0,1024,1024,1024,1024,323.6,-90,98,4.167,4.176,4.181,4.17,4.171,4.188,13.151,77,14,Waypoint,
38.7448525,-120.408845,4225.5467441414,5.905512,0,0.40501313632,5900,2018-06-07 21:57:31,11,0,24.089,4225.5467441414,5.905512,0.3131716,0.5833005436,0,0,-0.447388,324.1, 0.8, -0.7,0,0,1024,1024,1024,1024,323.6,-89.9,98,4.167,4.176,4.181,4.17,4.171,4.188,13.151,77,14,Waypoint,
38.7448526,-120.4088449,4226.2029121414,6.56168,0,0.38578085224,6100,2018-06-07 21:57:31,11,0,24.089,4226.2029121414,6.56168,0.3131716,0.5833005436,0,0,-0.447388,324.1, 0.8, -1,0,0,1024,1024,1024,1024,323.6,-90,98,4.167,4.176,4.181,4.17,4.171,4.188,13.151,77,14,Waypoint,
38.7448527,-120.4088448,4226.8590801414,7.217848,0,0.37135171792,6200,2018-06-07 21:57:31,11,0,24.089,4226.8590801414,7.217848,0.3131716,0.5833005436,0,0,-0.447388,324.3, 0.7, -1.3,0,0,1024,1024,1024,1024,323.6,-90,98,4.167,4.176,4.181,4.17,4.171,4.188,13.151,77,14,Waypoint,
38.7448527,-120.4088447,4227.8433321414,8.2021,0,0.34536746512,6400,2018-06-07 21:57:31,11,0,24.089,4227.8433321414,8.2021,0.3131716,0.5833005436,0,0,-0.447388,324.4, 0.7, -1.5,0,0,1024,1024,1024,1024,323.6,-90,98,4.167,4.176,4.181,4.17,4.171,4.188,13.151,77,14,Waypoint,
38.7448528,-120.4088446,4228.4995001414,8.858268,0,0.33801510268,6540,2018-06-07 21:57:31,11,0,24.089,4228.4995001414,8.858268,0.3131716,0.5833005436,0,0,-0.447388,324.5, 0.7, -1.7,0,0,1024,1024,1024,1024,323.6,-90,98,4.167,4.176,4.181,4.17,4.171,4.188,13.151,77,14,Waypoint,
38.7448528,-120.4088446,4228.4995001414,8.858268,0,0.33801510268,6600,2018-06-07 21:57:31,11,0,24.089,4228.4995001414,8.858268,0.3131716,0.5833005436,0,0,-0.447388,324.5, 0.7, -1.7,0,0,1024,1024,1024,1024,323.6,-90,98,4.167,4.176,4.181,4.17,4.171,4.188,13.151,77,14,Waypoint,
38.7448524,-120.4088447,4231.4522561414,11.811024,0,0.31513616494,6700,2018-06-07 21:57:32,11,0,24.089,4231.4522561414,11.811024,0.3131716,0.5833005436,0,0,-0.671082,324.8, 0.2, -0.4,0,0,1024,1024,1024,1024,323.6,-90,98,4.167,4.176,4.181,4.17,4.171,4.188,13.151,77,14,Waypoint,
38.7448523,-120.4088447,4232.4365081414,12.795276,0,0.313017070384,6900,2018-06-07 21:57:32,11,0,24.089,4232.4365081414,12.795276,0.3131716,0.5833005436,0,0,-0.671082,324.8, 0, 0,0,0,1024,1024,1024,1024,323.6,-90,98,4.167,4.176,4.181,4.17,4.171,4.188,13.151,77,14,Waypoint,
38.7448521,-120.4088449,4233.4207601414,13.779528,0,0.37705709868,7000,2018-06-07 21:57:32,10,0,23.609,4233.4207601414,13.779528,0.3131716,0.5833005436,0,0,-0.671082,324.7, 0, 0.4,0,0,1024,1024,1024,1024,323.6,-90,97,3.979,3.923,3.917,3.907,3.953,3.928,16.485,77,14,Waypoint,
38.7448518,-120.408845,4234.4050121414,14.76378,0,0.43816602452,7100,2018-06-07 21:57:32,10,0,23.609,4234.4050121414,14.76378,0.3131716,0.5833005436,0,0,-0.671082,324.5, -0.2, 0.7,0,0,1024,1024,1024,1024,323.6,-90,97,3.979,3.923,3.917,3.907,3.953,3.928,16.485,77,14,Waypoint,
38.7448521,-120.4088453,4236.7016001414,17.060368,0,0.48922573744,7300,2018-06-07 21:57:32,11,0,23.609,4236.7016001414,17.060368,0.3131716,0.5833005436,0,0,-0.671082,324.2, 0, 0.8,0,0,1024,1024,1024,1024,323.6,-89.9,97,3.979,3.923,3.917,3.907,3.953,3.928,16.485,77,14,Waypoint,
38.7448523,-120.4088456,4239.9824401414,20.341208,0,0.56912075312,7500,2018-06-07 21:57:32,11,0,23.609,4239.9824401414,20.341208,0.3131716,0.5833005436,0,0,-0.671082,324.1, 1.2, 0.3,0,0,1024,1024,1024,1024,323.6,-89.9,97,3.979,3.923,3.917,3.907,3.953,3.928,16.485,77,14,Waypoint,
38.7448524,-120.4088454,4244.5756161414,24.934384,0,0.51350723428,7840,2018-06-07 21:57:33,10,0,23.609,4244.5756161414,24.934384,0.3131716,0.5833005436,0,0,-0.671082,324.1, 1, -0.1,0,0,1024,1024,1024,1024,323.6,-89.9,97,3.979,3.923,3.917,3.907,3.953,3.928,16.485,77,14,Waypoint,
38.7448524,-120.4088454,4244.5756161414,24.934384,0,0.51350723428,7900,2018-06-07 21:57:33,10,0,23.609,4244.5756161414,24.934384,0.3131716,0.5833005436,0,0,-0.671082,324.1, 1, -0.1,0,0,1024,1024,1024,1024,323.6,-89.9,97,3.979,3.923,3.917,3.907,3.953,3.928,16.485,77,14,Waypoint,
38.7448524,-120.4088451,4246.5441201414,26.902888,0,0.42839896384,8100,2018-06-07 21:57:33,11,0,23.609,4246.5441201414,26.902888,0.3131716,0.5833005436,0,0,-0.671082,324.1, 0.4, -0.2,0,0,1024,1024,1024,1024,323.6,-90,97,3.979,3.923,3.917,3.907,3.953,3.928,16.485,77,14,Waypoint,
38.7448523,-120.4088449,4247.8564561414,28.215224,0,0.36992783336,8200,2018-06-07 21:57:33,11,0,23.609,4247.8564561414,28.215224,0.3131716,0.5833005436,0,0,-0.671082,324, 0.1, -0.4,0,0,1024,1024,1024,1024,323.6,-90,97,3.979,3.923,3.917,3.907,3.953,3.928,16.485,77,14,Waypoint,
38.7448523,-120.4088448,4248.8407081414,29.199476,0,0.34147310804,8300,2018-06-07 21:57:33,11,0,23.609,4248.8407081414,29.199476,0.3131716,0.5833005436,0,0,-0.671082,324, 0, -0.4,0,0,1024,1024,1024,1024,323.6,-90,97,3.979,3.923,3.917,3.907,3.953,3.928,16.485,77,14,Waypoint,
38.7448524,-120.4088446,4249.8249601414,30.183728,0,0.286890429128,8400,2018-06-07 21:57:33,11,0,23.609,4249.8249601414,30.183728,0.3131716,0.5833005436,0,0,-0.671082,324, 0, -0.5,0,0,1024,1024,1024,1024,323.6,-90,97,3.979,3.923,3.917,3.907,3.953,3.928,16.485,77,14,Waypoint,
38.7448525,-120.4088445,4250.8092121414,31.16798,0,0.266297252616,8510,2018-06-07 21:57:33,11,0,23.609,4250.8092121414,31.16798,0.3131716,0.5833005436,0,0,-0.671082,324, 0.3, -0.6,0,0,1024,1024,1024,1024,323.6,-90,97,3.979,3.923,3.917,3.907,3.953,3.928,16.485,77,14,Waypoint,
38.7448525,-120.4088443,4252.1215481414,32.480316,0,0.21213747398,8610,2018-06-07 21:57:33,11,0,23.609,4252.1215481414,32.480316,0.3131716,0.5833005436,0,0,-0.671082,324, 0.4, -0.8,0,0,1024,1024,1024,1024,323.6,-89.9,97,3.979,3.923,3.917,3.907,3.953,3.928,16.485,77,14,Waypoint,
38.7448526,-120.4088442,4253.1058001414,33.464568,0,0.202808733524,8700,2018-06-07 21:57:34,12,0,23.609,4253.1058001414,33.464568,0.3131716,0.5833005436,0,0,-0.671082,324, 0.6, -1,0,0,1024,1024,1024,1024,323.6,-89.9,97,3.979,3.923,3.917,3.907,3.953,3.928,16.485,77,14,Waypoint,
38.7448528,-120.4088438,4255.0743041414,35.433072,0,0.191096134724,8900,2018-06-07 21:57:34,11,0,23.609,4255.0743041414,35.433072,0.3131716,0.5833005436,0,0,-0.671082,324, 0.6, -1.2,0,0,1024,1024,1024,1024,323.6,-89.9,97,3.979,3.923,3.917,3.907,3.953,3.928,16.485,77,14,Waypoint,
38.744853,-120.4088437,4256.0585561414,36.417324,0,0.25697507384,9010,2018-06-07 21:57:34,11,0,23.077,4256.0585561414,36.417324,0.3131716,0.5833005436,0,0,-0.671082,324.1, 0.7, -1.5,0,0,1024,1024,1024,1024,323.6,-89.9,97,3.825,3.85,3.865,3.862,3.841,3.874,21.03,77,14,Waypoint,
38.7448531,-120.4088434,4257.3708921414,37.72966,0,0.297376321852,9200,2018-06-07 21:57:34,11,0,23.077,4257.3708921414,37.72966,0.3131716,0.5833005436,0,0,-0.671082,324.1, 0.8, -1.8,0,0,1024,1024,1024,1024,323.6,-89.9,97,3.825,3.85,3.865,3.862,3.841,3.874,21.03,77,14,Waypoint,
38.7448532,-120.4088432,4258.3551441414,38.713912,0,0.34753281952,9300,2018-06-07 21:57:34,11,0,23.077,4258.3551441414,38.713912,0.3131716,0.5833005436,0,0,-0.671082,324.1, 0.8, -2.2,0,0,1024,1024,1024,1024,323.6,-89.9,97,3.825,3.85,3.865,3.862,3.841,3.874,21.03,77,14,Waypoint,
38.7448533,-120.408843,4261.3079001414,41.666668,0,0.4028215352,9600,2018-06-07 21:57:34,11,0,23.077,4261.3079001414,41.666668,0.3131716,0.5833005436,0,0,-0.671082,324.1, 0.3, -1.8,0,0,1024,1024,1024,1024,323.6,-90,97,3.825,3.85,3.865,3.862,3.841,3.874,21.03,77,14,Waypoint,
38.7448533,-120.408843,4262.2921521414,42.65092,0,0.4028215352,9700,2018-06-07 21:57:35,11,0,23.077,4262.2921521414,42.65092,0.3131716,0.5833005436,0,0,-0.671082,324, 0.3, -1.7,0,0,1024,1024,1024,1024,323.6,-90,97,3.825,3.85,3.865,3.862,3.841,3.874,21.03,77,14,Waypoint,
38.7448533,-120.4088431,4263.2764041414,43.635172,0,0.39161090492,9800,2018-06-07 21:57:35,11,0,23.077,4263.2764041414,43.635172,0.3131716,0.5833005436,0,0,-0.671082,324.1, 0.4, -1.5,0,0,1024,1024,1024,1024,323.6,-89.9,97,3.825,3.85,3.865,3.862,3.841,3.874,21.03,77,14,Waypoint,
38.7448533,-120.4088432,4265.5729921414,45.93176,0,0.38219161328,10010,2018-06-07 21:57:35,12,0,23.215,4265.5729921414,45.93176,0.3131716,0.5833005436,0,0,-0.671082,324.2, 0.6, -1,0,0,1024,1024,1024,1024,323.6,-89.9,97,3.825,3.85,3.865,3.862,3.841,3.874,18.593,77,14,Waypoint,
38.7448532,-120.4088433,4266.5572441414,46.916012,0,0.33928150692,10100,2018-06-07 21:57:35,12,0,23.215,4266.5572441414,46.916012,0.3131716,0.5833005436,0,0,-0.671082,324.3, 0.6, -0.9,0,0,1024,1024,1024,1024,323.6,-90,97,3.825,3.85,3.865,3.862,3.841,3.874,18.593,77,14,Waypoint,
38.7448533,-120.4088435,4268.5257481414,48.884516,0.223694,0.36595801696,10300,2018-06-07 21:57:35,12,0,23.215,4268.5257481414,48.884516,0.3131716,0.5833005436,0,0,-0.671082,324.3, 0.7, -0.7,0,0,1024,1024,1024,1024,323.6,-89.9,97,3.825,3.85,3.865,3.862,3.841,3.874,18.593,77,14,Waypoint,
38.7448532,-120.4088435,4269.5100001414,49.868768,0.223694,0.32959646724,10500,2018-06-07 21:57:35,13,0,23.215,4269.5100001414,49.868768,0.3131716,0.5833005436,0,0,-0.671082,324.2, 0.9, -0.6,0,0,1024,1024,1024,1024,323.6,-89.9,97,3.825,3.85,3.865,3.862,3.841,3.874,18.593,77,14,Waypoint,
38.7448532,-120.4088436,4270.1661681414,50.524936,0,0.3283628714,10600,2018-06-07 21:57:35,13,0,23.215,4270.1661681414,50.524936,0.3131716,0.5833005436,0,0,-0.671082,324.2, 0.9, -0.5,0,0,1024,1024,1024,1024,323.6,-89.9,97,3.825,3.85,3.865,3.862,3.841,3.874,18.593,77,14,Waypoint,
38.7448532,-120.4088437,4271.1504201414,51.509188,0,0.32959646724,10700,2018-06-07 21:57:36,13,0,23.215,4271.1504201414,51.509188,0.3131716,0.5833005436,0,0,-0.671082,324.2, 0.9, -0.4,0,0,1024,1024,1024,1024,323.6,-89.9,97,3.825,3.85,3.865,3.862,3.841,3.874,18.593,77,14,Waypoint,
38.7448531,-120.4088439,4273.1189241414,53.477692,0,0.30410762128,10800,2018-06-07 21:57:36,12,0,23.215,4273.1189241414,53.477692,0.3131716,0.5833005436,0,0,-0.671082,324.2, 0.9, -0.5,0,0,1024,1024,1024,1024,323.6,-90,97,3.825,3.85,3.865,3.862,3.841,3.874,18.593,77,14,Waypoint,
38.7448529,-120.408844,4274.1031761414,54.461944,0,0.246733603696,10900,2018-06-07 21:57:36,12,0,23.215,4274.1031761414,54.461944,0.3131716,0.5833005436,0,0,-0.671082,324.2, 0.7, -0.5,0,0,1024,1024,1024,1024,323.6,-90,97,3.825,3.85,3.865,3.862,3.841,3.874,18.593,77,14,Waypoint,
38.7448528,-120.408844,4276.0716801414,56.430448,0,0.215022644676,11100,2018-06-07 21:57:36,12,0,23.215,4276.0716801414,56.430448,0.3131716,0.5833005436,0,0,-0.671082,324.1, 0.4, -0.4,0,0,1024,1024,1024,1024,323.6,-90,97,3.825,3.85,3.865,3.862,3.841,3.874,18.593,77,14,Waypoint,
38.7448527,-120.4088441,4277.0559321414,57.4147,0,0.20381890416,11200,2018-06-07 21:57:36,12,0,23.215,4277.0559321414,57.4147,0.3131716,0.5833005436,0,0,-0.671082,324.1, 0.3, -0.4,0,0,1024,1024,1024,1024,323.6,-90,97,3.825,3.85,3.865,3.862,3.841,3.874,18.593,77,14,Waypoint,
38.7448527,-120.4088443,4278.0401841414,58.398952,0,0.246933406852,11300,2018-06-07 21:57:36,12,0,23.215,4278.0401841414,58.398952,0.3131716,0.5833005436,0,0,-0.671082,324.1, 0.4, -0.3,0,0,1024,1024,1024,1024,323.6,-90,97,3.825,3.85,3.865,3.862,3.841,3.874,18.593,77,14,Waypoint,
38.7448528,-120.4088444,4280.3367721414,60.69554,0,0.291723762616,11600,2018-06-07 21:57:36,12,0,23.215,4280.3367721414,60.69554,0.3131716,0.5833005436,0,0,-0.671082,324.1, 0.6, -0.3,0,0,1024,1024,1024,1024,323.6,-89.9,97,3.825,3.85,3.865,3.862,3.841,3.874,18.593,77,14,Waypoint,
38.7448527,-120.4088445,4280.9929401414,61.351708,0,0.294767725968,11700,2018-06-07 21:57:37,13,0,23.215,4280.9929401414,61.351708,0.3131716,0.5833005436,0,0,-0.671082,324.2, 0.8, -0.6,0,0,1024,1024,1024,1024,323.6,-89.9,97,3.825,3.85,3.865,3.862,3.841,3.874,18.593,77,14,Waypoint,
38.7448527,-120.4088447,4282.9614441414,63.320212,0,0.34536746512,11800,2018-06-07 21:57:37,12,0,23.215,4282.9614441414,63.320212,0.3131716,0.5833005436,0,0,-0.671082,324.3, 0.9, -0.5,0,0,1024,1024,1024,1024,323.6,-89.9,97,3.825,3.85,3.865,3.862,3.841,3.874,18.593,77,14,Waypoint,
38.7448527,-120.4088448,4284.9299481414,65.288716,0,0.37135171792,12010,2018-06-07 21:57:37,12,0,23.215,4284.9299481414,65.288716,0.3131716,0.5833005436,0,0,-0.671082,324.5, 0.8, -0.9,0,0,1024,1024,1024,1024,323.6,-90,97,3.868,3.879,3.886,3.866,3.856,3.879,17.938,77,14,Waypoint,
38.7448526,-120.4088449,4285.9142001414,66.272968,0,0.38578085224,12100,2018-06-07 21:57:37,12,0,23.215,4285.9142001414,66.272968,0.3131716,0.5833005436,0,0,-0.671082,324.6, 0.8, -0.9,0,0,1024,1024,1024,1024,323.6,-89.9,97,3.868,3.879,3.886,3.866,3.856,3.879,17.938,77,14,Waypoint,
38.7448526,-120.4088452,4287.5546201414,67.913388,0,0.46826773152,12200,2018-06-07 21:57:37,12,0,23.215,4287.5546201414,67.913388,0.3131716,0.5833005436,0,0,-0.671082,324.7, 1.1, -0.2,0,0,1024,1024,1024,1024,323.6,-89.9,97,3.868,3.879,3.886,3.866,3.856,3.879,17.938,77,14,Waypoint,
38.7448526,-120.4088452,4288.5388721414,68.89764,0,0.46826773152,12420,2018-06-07 21:57:37,12,0,23.215,4288.5388721414,68.89764,0.3131716,0.5833005436,0,0,-0.671082,324.6, 1.4, 0,0,0,1024,1024,1024,1024,323.6,-89.9,97,3.868,3.879,3.886,3.866,3.856,3.879,17.938,77,14,Waypoint,
38.7448526,-120.4088452,4288.5388721414,68.89764,0,0.46826773152,12500,2018-06-07 21:57:37,12,0,23.215,4288.5388721414,68.89764,0.3131716,0.5833005436,0,0,-0.671082,324.6, 1.4, 0,0,0,1024,1024,1024,1024,323.6,-89.9,97,3.868,3.879,3.886,3.866,3.856,3.879,17.938,77,14,Waypoint,
38.7448526,-120.4088453,4289.5231241414,69.881892,0,0.495980987,12600,2018-06-07 21:57:37,12,0,23.215,4289.5231241414,69.881892,0.3131716,0.5833005436,0,0,-0.671082,324.5, 1.4, -0.1,0,0,1024,1024,1024,1024,323.6,-89.9,97,3.868,3.879,3.886,3.866,3.856,3.879,17.938,77,14,Waypoint,
38.7448526,-120.4088453,4291.4916281414,71.850396,0,0.495980987,12810,2018-06-07 21:57:38,12,0,23.215,4291.4916281414,71.850396,0.3131716,0.5833005436,0,0,-0.671082,324.1, 1.1, -0.6,0,0,1024,1024,1024,1024,323.6,-89.9,97,3.868,3.879,3.886,3.866,3.856,3.879,17.938,77,14,Waypoint,
38.7448525,-120.4088454,4297.3971401414,77.755908,0,0.51738190632,13400,2018-06-07 21:57:38,12,0,23.215,4297.3971401414,77.755908,0.3131716,0.5833005436,0,0,-0.671082,324.1, 1.3, -0.2,0,0,1024,1024,1024,1024,323.6,-89.9,97,3.868,3.879,3.886,3.866,3.856,3.879,17.938,77,14,Waypoint,
38.7448525,-120.4088454,4298.3813921414,78.74016,0,0.51738190632,13500,2018-06-07 21:57:38,14,0,23.215,4298.3813921414,78.74016,0.3131716,0.5833005436,0,0,-0.671082,324.3, 1, -0.4,0,0,1024,1024,1024,1024,323.6,-89.9,97,3.868,3.879,3.886,3.866,3.856,3.879,17.938,77,14,Waypoint,
38.7448524,-120.4088455,4300.3498961414,80.708664,0,0.5418963428,13710,2018-06-07 21:57:39,13,0,23.215,4300.3498961414,80.708664,0.3131716,0.5833005436,0,0,-0.671082,324.5, 0.7, -0.5,0,0,1024,1024,1024,1024,323.6,-90,97,3.868,3.879,3.886,3.866,3.856,3.879,17.938,77,14,Waypoint,
38.7448522,-120.4088455,4302.3184001414,82.677168,0,0.5418963428,13800,2018-06-07 21:57:39,13,0,23.215,4302.3184001414,82.677168,0.3131716,0.5833005436,0,0,-0.671082,324.1, 0.6, 0.2,0,0,1024,1024,1024,1024,323.6,-90,97,3.868,3.879,3.886,3.866,3.856,3.879,17.938,77,14,Waypoint,
38.7448521,-120.4088455,4303.3026521414,83.66142,0,0.54556760276,13900,2018-06-07 21:57:39,13,0,23.215,4303.3026521414,83.66142,0.3131716,0.5833005436,0,0,-0.671082,324, 0.5, 0.2,0,0,1024,1024,1024,1024,323.6,-90,97,3.868,3.879,3.886,3.866,3.856,3.879,17.938,77,14,Waypoint,
38.744852,-120.4088455,4305.2711561414,85.629924,0,0.55163387592,14100,2018-06-07 21:57:39,13,0,23.215,4305.2711561414,85.629924,0.3131716,0.5833005436,0,0,-0.671082,323.9, 0.4, 0.1,0,0,1024,1024,1024,1024,323.6,-90,97,3.868,3.879,3.886,3.866,3.856,3.879,17.938,77,14,Waypoint,
38.744852,-120.4088455,4306.2554081414,86.614176,0,0.55163387592,14200,2018-06-07 21:57:39,14,0,23.215,4306.2554081414,86.614176,0.3131716,0.5833005436,0,0,-0.671082,323.9, 0.5, 0,0,0,1024,1024,1024,1024,323.6,-90,97,3.868,3.879,3.886,3.866,3.856,3.879,17.938,77,14,Waypoint,
38.7448519,-120.4088454,4308.2239121414,88.58268,0,0.5325951614,14500,2018-06-07 21:57:39,14,0,23.215,4308.2239121414,88.58268,0.3131716,0.5833005436,0,0,-0.671082,323.9, 0.5, -0.3,0,0,1024,1024,1024,1024,323.6,-90,97,3.868,3.879,3.886,3.866,3.856,3.879,17.938,77,14,Waypoint,
38.7448518,-120.4088454,4309.2081641414,89.566932,0,0.54372705152,14600,2018-06-07 21:57:39,14,0,23.215,4309.2081641414,89.566932,0.3131716,0.5833005436,0,0,-0.671082,323.9, 0.5, -0.3,0,0,1024,1024,1024,1024,323.6,-90,97,3.868,3.879,3.886,3.866,3.856,3.879,17.938,77,14,Waypoint,
38.7448518,-120.4088453,4310.1924161414,90.551184,0,0.51700789056,14700,2018-06-07 21:57:40,13,0,23.215,4310.1924161414,90.551184,0.3131716,0.5833005436,0,0,-0.671082,324, 0.5, -0.5,0,0,1024,1024,1024,1024,323.6,-90,97,3.868,3.879,3.886,3.866,3.856,3.879,17.938,77,14,Waypoint,
38.7448518,-120.4088452,4312.1609201414,92.519688,0,0.49048558,14810,2018-06-07 21:57:40,15,0,23.215,4312.1609201414,92.519688,0.3131716,0.5833005436,0,0,-0.671082,324, 0.5, -0.9,0,0,1024,1024,1024,1024,323.6,-90,97,3.868,3.879,3.886,3.866,3.856,3.879,17.938,77,14,Waypoint,
38.7448518,-120.4088452,4313.1451721414,93.50394,0,0.49048558,14910,2018-06-07 21:57:40,15,0,23.215,4313.1451721414,93.50394,0.3131716,0.5833005436,0,0,-0.671082,324, 0.6, -0.9,0,0,1024,1024,1024,1024,323.6,-90,97,3.868,3.879,3.886,3.866,3.856,3.879,17.938,77,14,Waypoint,
38.7448518,-120.4088452,4314.1294241414,94.488192,0,0.49048558,15100,2018-06-07 21:57:40,15,0,23.215,4314.1294241414,94.488192,0.3131716,0.5833005436,0,0,-0.671082,324, 0.6, -0.8,0,0,1024,1024,1024,1024,323.6,-90,97,3.868,3.879,3.886,3.866,3.856,3.879,17.938,77,14,Waypoint,
38.7448518,-120.4088452,4315.1136761414,95.472444,0,0.49048558,15200,2018-06-07 21:57:40,15,0,23.215,4315.1136761414,95.472444,0.3131716,0.5833005436,0,0,-0.671082,324, 0.6, -0.6,0,0,1024,1024,1024,1024,323.6,-90,97,3.868,3.879,3.886,3.866,3.856,3.879,17.938,77,14,Waypoint,
38.7448517,-120.4088452,4317.0821801414,97.440948,0,0.50519030488,15500,2018-06-07 21:57:40,15,0,23.215,4317.0821801414,97.440948,0.3131716,0.5833005436,0,0,-0.671082,324.1, 0.4, -0.4,0,0,1024,1024,1024,1024,323.6,-90,97,3.868,3.879,3.886,3.866,3.856,3.879,17.938,77,14,Waypoint,
38.7448516,-120.408845,4319.0506841414,99.409452,0,0.47321851908,15700,2018-06-07 21:57:41,15,0,23.215,4319.0506841414,99.409452,0.3131716,0.5833005436,0,0,-0.671082,324, 0.3, -0.5,0,0,1024,1024,1024,1024,323.6,-90,97,3.868,3.879,3.886,3.866,3.856,3.879,17.938,77,14,Waypoint,
38.7448515,-120.4088448,4322.0034401414,102.362208,0,0.44921917448,15930,2018-06-07 21:57:41,15,0,23.215,4322.0034401414,102.362208,0.3131716,0.5833005436,0,0,-0.671082,324.2, 0.2, -0.7,0,0,1024,1024,1024,1024,323.6,-90,97,3.868,3.879,3.886,3.866,3.856,3.879,17.938,77,14,Waypoint,
38.7448515,-120.4088448,4322.0034401414,102.362208,0,0.44921917448,16000,2018-06-07 21:57:41,15,0,23.102,4322.0034401414,102.362208,0.3131716,0.5833005436,0,0,-0.671082,324.2, 0.2, -0.7,0,0,1024,1024,1024,1024,323.6,-90,97,3.831,3.848,3.857,3.851,3.828,3.854,18.586,77,14,Waypoint,
38.7448515,-120.4088448,4323.9719441414,104.330712,0,0.44921917448,16200,2018-06-07 21:57:41,15,0,23.102,4323.9719441414,104.330712,0.3131716,0.5833005436,0,0,-0.671082,324.4, 0.1, -0.6,0,0,1024,1024,1024,1024,323.6,-90,97,3.831,3.848,3.857,3.851,3.828,3.854,18.586,77,14,Waypoint,
38.7448515,-120.4088448,4324.9561961414,105.314964,0,0.44921917448,16300,2018-06-07 21:57:41,15,0,23.102,4324.9561961414,105.314964,0.3131716,0.5833005436,0,0,-0.671082,324.4, 0.3, -0.5,0,0,1024,1024,1024,1024,323.6,-90,97,3.831,3.848,3.857,3.851,3.828,3.854,18.586,77,14,Waypoint,
38.7448515,-120.4088447,4326.9247001414,107.283468,0,0.42798885884,16500,2018-06-07 21:57:41,15,0,23.102,4326.9247001414,107.283468,0.3131716,0.5833005436,0,0,-0.671082,324.4, 0.5, -0.7,0,0,1024,1024,1024,1024,323.6,-90,97,3.831,3.848,3.857,3.851,3.828,3.854,18.586,77,14,Waypoint,
38.7448515,-120.4088447,4327.9089521414,108.26772,0,0.42798885884,16600,2018-06-07 21:57:41,15,0,23.102,4327.9089521414,108.26772,0.3131716,0.5833005436,0,0,-0.671082,324.4, 0.4, -0.7,0,0,1024,1024,1024,1024,323.6,-90,97,3.831,3.848,3.857,3.851,3.828,3.854,18.586,77,14,Waypoint,
38.7448515,-120.4088446,4333.8144641414,114.173232,0,0.40763780832,17000,2018-06-07 21:57:42,15,0,23.073,4333.8144641414,114.173232,0.3131716,0.5833005436,0,0,-0.671082,324.1, 0.5, -0.7,0,0,1024,1024,1024,1024,323.6,-90,96,3.834,3.854,3.859,3.848,3.839,3.853,18.347,78.8,14,Waypoint,
38.7448515,-120.4088446,4334.7987161414,115.157484,0,0.40763780832,17100,2018-06-07 21:57:42,15,0,23.073,4334.7987161414,115.157484,0.3131716,0.5833005436,0,0,-0.671082,324.2, 0.5, -0.8,0,0,1024,1024,1024,1024,323.6,-90,96,3.834,3.854,3.859,3.848,3.839,3.853,18.347,78.8,14,Waypoint,
38.7448514,-120.4088445,4335.7829681414,116.141736,0,0.41642717868,17300,2018-06-07 21:57:42,15,0,23.073,4335.7829681414,116.141736,0.3131716,0.5833005436,0,0,-0.671082,324.2, 0.4, -0.7,0,0,1024,1024,1024,1024,323.6,-90,96,3.834,3.854,3.859,3.848,3.839,3.853,18.347,78.8,14,Waypoint,
38.7448514,-120.4088445,4336.7672201414,117.125988,0,0.41642717868,17510,2018-06-07 21:57:42,15,0,23.073,4336.7672201414,117.125988,0.3131716,0.5833005436,0,0,-0.671082,324.2, 0.2, -0.9,0,0,1024,1024,1024,1024,323.6,-90,96,3.834,3.854,3.859,3.848,3.839,3.853,18.347,78.8,14,Waypoint,
38.7448514,-120.4088444,4338.7357241414,119.094492,0,0.3995570994,17720,2018-06-07 21:57:43,15,0,23.073,4338.7357241414,119.094492,0.3131716,0.5833005436,0,0,-0.671082,324.2, 0.3, -0.9,0,0,1024,1024,1024,1024,323.6,-90,96,3.834,3.854,3.859,3.848,3.839,3.853,18.347,78.8,14,Waypoint,
38.7448513,-120.4088443,4345.6254881414,125.984256,0,0.415682428,18710,2018-06-07 21:57:44,15,0,23.073,4345.6254881414,125.984256,0.3131716,0.5833005436,0,0,-0.671082,324.1, 0.1, -0.9,0,0,1024,1024,1024,1024,323.6,-90,96,3.834,3.854,3.859,3.848,3.839,3.853,18.347,78.8,14,Waypoint,
38.7448513,-120.4088444,4346.6097401414,126.968508,0,0.43004594552,18800,2018-06-07 21:57:44,15,0,23.073,4346.6097401414,126.968508,0.3131716,0.5833005436,0,0,-0.671082,324.1, 0.1, -1,0,0,1024,1024,1024,1024,323.6,-90,96,3.834,3.854,3.859,3.848,3.839,3.853,18.347,78.8,14,Waypoint,
38.7448513,-120.4088444,4347.5939921414,127.95276,0,0.43004594552,19000,2018-06-07 21:57:44,15,0,22.987,4347.5939921414,127.95276,0.3131716,0.5833005436,0,0,-0.671082,324, 0.2, -0.8,0,0,1024,1024,1024,1024,323.6,-90,96,3.834,3.854,3.859,3.848,3.839,3.853,18.941,78.8,14,Waypoint,
38.7448512,-120.4088445,4353.1714201414,133.530188,0,0.47608597324,19100,2018-06-07 21:57:44,15,0,22.987,4353.1714201414,133.530188,0.3131716,0.5833005436,0,0,-0.671082,324.5, 0.6, -0.4,0,0,1024,1024,1024,1024,323.6,-90,96,3.834,3.854,3.859,3.848,3.839,3.853,18.941,78.8,14,Waypoint,
38.7448512,-120.4088445,4354.1556721414,134.51444,0,0.47608597324,19200,2018-06-07 21:57:44,15,0,22.987,4354.1556721414,134.51444,0.3131716,0.5833005436,0,0,-0.671082,324.6, 0.5, -0.4,0,0,1024,1024,1024,1024,323.6,-90,96,3.834,3.854,3.859,3.848,3.839,3.853,18.941,78.8,14,Waypoint,
38.7448512,-120.4088446,4355.1399241414,135.498692,0,0.4919783622,19310,2018-06-07 21:57:44,15,0,22.987,4355.1399241414,135.498692,0.3131716,0.5833005436,0,0,-0.671082,324.5, 0.5, -0.3,0,0,1024,1024,1024,1024,323.6,-90,96,3.834,3.854,3.859,3.848,3.839,3.853,18.941,78.8,14,Waypoint,
38.7448512,-120.4088446,4356.1241761414,136.482944,0,0.4919783622,19400,2018-06-07 21:57:44,15,0,22.987,4356.1241761414,136.482944,0.3131716,0.5833005436,0,0,-0.671082,324.3, 0.5, -0.1,0,0,1024,1024,1024,1024,323.6,-90,96,3.834,3.854,3.859,3.848,3.839,3.853,18.941,78.8,14,Waypoint,
38.7448512,-120.4088447,4357.1084281414,137.467196,0,0.50896983256,19510,2018-06-07 21:57:44,15,0,22.987,4357.1084281414,137.467196,0.3131716,0.5833005436,0,0,-0.671082,324.1, 0.5, -0.1,0,0,1024,1024,1024,1024,323.6,-90,96,3.834,3.854,3.859,3.848,3.839,3.853,18.941,78.8,14,Waypoint,
38.7448511,-120.4088447,4361.0454361414,141.404204,0,0.5382053978,19700,2018-06-07 21:57:45,15,0,22.987,4361.0454361414,141.404204,0.3131716,0.5833005436,0,0,-0.671082,323.6, 0.6, -0.2,0,0,1024,1024,1024,1024,323.6,-89.9,96,3.834,3.854,3.859,3.848,3.839,3.853,18.941,78.8,14,Waypoint,
38.7448511,-120.4088447,4363.0139401414,143.372708,0,0.5382053978,19800,2018-06-07 21:57:45,15,0,22.987,4363.0139401414,143.372708,0.3131716,0.5833005436,0,0,-0.671082,323.9, 0.4, -0.5,0,0,1024,1024,1024,1024,323.6,-90,96,3.834,3.854,3.859,3.848,3.839,3.853,18.941,78.8,14,Waypoint,
38.744851,-120.4088446,4363.9981921414,144.35696,0,0.5531168156,19920,2018-06-07 21:57:45,15,0,22.987,4363.9981921414,144.35696,0.3131716,0.5833005436,0,0,-0.671082,324.1, 0.2, -0.6,0,0,1024,1024,1024,1024,323.6,-90,96,3.834,3.854,3.859,3.848,3.839,3.853,18.941,78.8,14,Waypoint,
38.744851,-120.4088446,4364.9824441414,145.341212,0,0.5531168156,20000,2018-06-07 21:57:45,15,0,22.963,4364.9824441414,145.341212,0.3131716,0.5833005436,0,0,-0.671082,324.2, 0.1, -0.6,0,0,1024,1024,1024,1024,323.6,-90,96,3.817,3.828,3.845,3.82,3.802,3.84,18.653,78.8,14,Waypoint,
38.744851,-120.4088446,4365.9666961414,146.325464,0,0.5531168156,20100,2018-06-07 21:57:45,15,0,22.963,4365.9666961414,146.325464,0.3131716,0.5833005436,0,0,-0.671082,324.4, 0, -0.5,0,0,1024,1024,1024,1024,323.6,-90,96,3.817,3.828,3.845,3.82,3.802,3.84,18.653,78.8,14,Waypoint,
38.744851,-120.4088446,4366.9509481414,147.309716,0,0.5531168156,20400,2018-06-07 21:57:45,15,0,22.963,4366.9509481414,147.309716,0.3131716,0.5833005436,0,0,-0.671082,324.4, 0, -0.4,0,0,1024,1024,1024,1024,323.6,-90,96,3.817,3.828,3.845,3.82,3.802,3.84,18.653,78.8,14,Waypoint,
38.744851,-120.4088446,4368.2632841414,148.622052,0,0.5531168156,20600,2018-06-07 21:57:45,15,0,22.963,4368.2632841414,148.622052,0.3131716,0.5833005436,0,0,-0.671082,324.4, 0.1, -0.4,0,0,1024,1024,1024,1024,323.6,-90,96,3.817,3.828,3.845,3.82,3.802,3.84,18.653,78.8,14,Waypoint,
38.7448509,-120.4088445,4369.2475361414,149.606304,0,0.57139765608,20700,2018-06-07 21:57:46,15,0,22.963,4369.2475361414,149.606304,0.3131716,0.5833005436,0,0,-0.671082,324.4, 0.2, -0.3,0,0,1024,1024,1024,1024,323.6,-90,96,3.817,3.828,3.845,3.82,3.802,3.84,18.653,78.8,14,Waypoint,
38.7448509,-120.4088445,4371.2160401414,151.574808,0,0.57139765608,20900,2018-06-07 21:57:46,15,0,22.963,4371.2160401414,151.574808,0.3131716,0.5833005436,0,0,-0.671082,324.1, 0.1, -0.2,0,0,1024,1024,1024,1024,323.6,-90,96,3.817,3.828,3.845,3.82,3.802,3.84,18.653,78.8,14,Waypoint,
38.7448509,-120.4088444,4374.1687961414,154.527564,0,0.55922245884,21200,2018-06-07 21:57:46,15,0,22.963,4374.1687961414,154.527564,0.3131716,0.5833005436,0,0,-0.671082,323.9, 0.4, -0.4,0,0,1024,1024,1024,1024,323.6,-90,96,3.817,3.828,3.845,3.82,3.802,3.84,18.653,78.8,14,Waypoint,
38.7448509,-120.4088443,4377.1215521414,157.48032,0,0.54825461072,21500,2018-06-07 21:57:46,15,0,22.963,4377.1215521414,157.48032,0.3131716,0.5833005436,0,0,-0.671082,324.1, 0.2, -0.9,0,0,1024,1024,1024,1024,323.6,-90,96,3.817,3.828,3.845,3.82,3.802,3.84,18.653,78.8,14,Waypoint,
38.7448509,-120.4088442,4378.1058041414,158.464572,0,0.53856957104,21600,2018-06-07 21:57:46,15,0,22.963,4378.1058041414,158.464572,0.3131716,0.5833005436,0,0,-0.671082,324.2, 0, -1.2,0,0,1024,1024,1024,1024,323.6,-90,96,3.817,3.828,3.845,3.82,3.802,3.84,18.653,78.8,14,Waypoint,
38.7448509,-120.408844,4381.0585601414,161.417328,0,0.52331694588,21800,2018-06-07 21:57:47,15,0,22.963,4381.0585601414,161.417328,0.3131716,0.5833005436,0,0,-0.671082,324.3, -0.1, -1.7,0,0,1024,1024,1024,1024,323.6,-90,96,3.817,3.828,3.845,3.82,3.802,3.84,18.653,78.8,14,Waypoint,
38.7448509,-120.408844,4382.0428121414,162.40158,0,0.52331694588,21900,2018-06-07 21:57:47,15,0,22.963,4382.0428121414,162.40158,0.3131716,0.5833005436,0,0,-0.671082,324.3, -0.1, -1.8,0,0,1024,1024,1024,1024,323.6,-90,96,3.817,3.828,3.845,3.82,3.802,3.84,18.653,78.8,14,Waypoint,
38.7448508,-120.408844,4383.6832321414,164.042,0,0.55898623836,22000,2018-06-07 21:57:47,15,0,22.959,4383.6832321414,164.042,0.3131716,0.5833005436,0,0,-0.671082,324.4, 0, -0.8,0,0,1024,1024,1024,1024,323.6,-90,96,3.825,3.826,3.839,3.831,3.803,3.838,18.723,78.8,14,Waypoint,
38.7448508,-120.408844,4384.6674841414,165.026252,0,0.55898623836,22120,2018-06-07 21:57:47,15,0,22.959,4384.6674841414,165.026252,0.3131716,0.5833005436,0,0,-0.671082,324.3, -0.2, -0.5,0,0,1024,1024,1024,1024,323.6,-90,96,3.825,3.826,3.839,3.831,3.803,3.838,18.723,78.8,14,Waypoint,
38.7448508,-120.408844,4384.6674841414,165.026252,0,0.55898623836,22200,2018-06-07 21:57:47,15,0,22.959,4384.6674841414,165.026252,0.3131716,0.5833005436,0,0,-0.671082,324.3, -0.2, -0.5,0,0,1024,1024,1024,1024,323.6,-90,96,3.825,3.826,3.839,3.831,3.803,3.838,18.723,78.8,14,Waypoint,
38.7448508,-120.4088441,4386.6359881414,166.994756,0,0.56546589736,22400,2018-06-07 21:57:47,15,0,22.959,4386.6359881414,166.994756,0.3131716,0.5833005436,0,0,-0.671082,324.1, -0.2, -0.1,0,0,1024,1024,1024,1024,323.6,-90,96,3.825,3.826,3.839,3.831,3.803,3.838,18.723,78.8,14,Waypoint,
38.7448507,-120.4088441,4387.6202401414,167.979008,0,0.60084647592,22510,2018-06-07 21:57:47,15,0,22.959,4387.6202401414,167.979008,0.3131716,0.60084647592,0,0,-0.671082,324, -0.2, -0.1,0,0,1024,1024,1024,1024,323.6,-90,96,3.825,3.826,3.839,3.831,3.803,3.838,18.723,78.8,14,Waypoint,
38.7448507,-120.4088441,4387.6202401414,167.979008,0,0.60084647592,22600,2018-06-07 21:57:47,15,0,22.959,4387.6202401414,167.979008,0.3131716,0.60084647592,0,0,-0.671082,324, -0.2, -0.1,0,0,1024,1024,1024,1024,323.6,-90,96,3.825,3.826,3.839,3.831,3.803,3.838,18.723,78.8,14,Waypoint,
38.7448508,-120.4088443,4390.9010801414,171.259848,0.223694,0.5823983126,22700,2018-06-07 21:57:48,15,0,22.959,4390.9010801414,171.259848,0.3131716,0.60084647592,0,0,-0.671082,323.8, 0.4, -0.3,0,0,1024,1024,1024,1024,323.6,-89.9,96,3.825,3.826,3.839,3.831,3.803,3.838,18.723,78.8,14,Waypoint,
38.7448509,-120.4088444,4392.8695841414,173.228352,0,0.55922245884,22900,2018-06-07 21:57:48,15,0,22.959,4392.8695841414,173.228352,0.3131716,0.60084647592,0,0,-0.671082,323.9, 0.8, -0.9,0,0,1024,1024,1024,1024,323.6,-89.9,96,3.825,3.826,3.839,3.831,3.803,3.838,18.723,78.8,14,Waypoint,
38.744851,-120.4088444,4393.8538361414,174.212604,0,0.52610565988,23000,2018-06-07 21:57:48,15,0,22.95,4393.8538361414,174.212604,0.3131716,0.60084647592,0,0,-0.671082,324, 0.6, -0.9,0,0,1024,1024,1024,1024,323.6,-89.9,96,3.82,3.826,3.839,3.825,3.808,3.84,18.391,78.8,14,Waypoint,
38.744851,-120.4088444,4394.8380881414,175.196856,0,0.52610565988,23100,2018-06-07 21:57:48,15,0,22.95,4394.8380881414,175.196856,0.3131716,0.60084647592,0,0,-0.671082,324, 0.5, -0.8,0,0,1024,1024,1024,1024,323.6,-90,96,3.82,3.826,3.839,3.825,3.808,3.84,18.391,78.8,14,Waypoint,
38.744851,-120.4088444,4395.8223401414,176.181108,0,0.52610565988,23200,2018-06-07 21:57:48,15,0,22.95,4395.8223401414,176.181108,0.3131716,0.60084647592,0,0,-0.671082,324.1, 0.3, -0.8,0,0,1024,1024,1024,1024,323.6,-90,96,3.82,3.826,3.839,3.825,3.808,3.84,18.391,78.8,14,Waypoint,
38.744851,-120.4088444,4396.8065921414,177.16536,0,0.52610565988,23300,2018-06-07 21:57:48,15,0,22.95,4396.8065921414,177.16536,0.3131716,0.60084647592,0,0,-0.671082,324.1, 0.2, -0.7,0,0,1024,1024,1024,1024,323.6,-90,96,3.82,3.826,3.839,3.825,3.808,3.84,18.391,78.8,14,Waypoint,
38.744851,-120.4088444,4397.7908441414,178.149612,0,0.52610565988,23500,2018-06-07 21:57:48,15,0,22.95,4397.7908441414,178.149612,0.3131716,0.60084647592,0,0,-0.671082,324.2, 0.2, -0.8,0,0,1024,1024,1024,1024,323.6,-90,96,3.82,3.826,3.839,3.825,3.808,3.84,18.391,78.8,14,Waypoint,
38.744851,-120.4088444,4398.7750961414,179.133864,0.223694,0.52610565988,23600,2018-06-07 21:57:48,15,0,22.95,4398.7750961414,179.133864,0.3131716,0.60084647592,0,0,-0.671082,324.3, 0.2, -1,0,0,1024,1024,1024,1024,323.6,-90,96,3.82,3.826,3.839,3.825,3.808,3.84,18.391,78.8,14,Waypoint,
38.7448511,-120.4088443,4399.7593481414,180.118116,0.223694,0.4810039524,23700,2018-06-07 21:57:49,15,0,22.95,4399.7593481414,180.118116,0.3131716,0.60084647592,0,0,-0.671082,324.3, 0.3, -1.3,0,0,1024,1024,1024,1024,323.6,-90,96,3.82,3.826,3.839,3.825,3.808,3.84,18.391,78.8,14,Waypoint,
38.7448511,-120.4088443,4400.7436001414,181.102368,0.223694,0.4810039524,23800,2018-06-07 21:57:49,15,0,22.95,4400.7436001414,181.102368,0.3131716,0.60084647592,0,0,-0.671082,324.3, 0.4, -1.6,0,0,1024,1024,1024,1024,323.6,-89.9,96,3.82,3.826,3.839,3.825,3.808,3.84,18.391,78.8,14,Waypoint,
38.7448511,-120.4088443,4402.7121041414,183.070872,0,0.4810039524,23910,2018-06-07 21:57:49,15,0,22.95,4402.7121041414,183.070872,0.3131716,0.60084647592,0,0,-0.671082,324.3, 0.5, -1.8,0,0,1024,1024,1024,1024,323.6,-90,96,3.82,3.826,3.839,3.825,3.808,3.84,18.391,78.8,14,Waypoint,
38.7448512,-120.4088443,4403.6963561414,184.055124,0,0.4480479146,24030,2018-06-07 21:57:49,15,0,22.939,4403.6963561414,184.055124,0.3131716,0.60084647592,0,0,-0.671082,324.3, 0.4, -1.8,0,0,1024,1024,1024,1024,323.6,-90,96,3.827,3.836,3.842,3.822,3.807,3.836,18.233,78.8,14,Waypoint,
38.7448512,-120.4088443,4403.6963561414,184.055124,0,0.4480479146,24100,2018-06-07 21:57:49,15,0,22.939,4403.6963561414,184.055124,0.3131716,0.60084647592,0,0,-0.671082,324.3, 0.4, -1.8,0,0,1024,1024,1024,1024,323.6,-90,96,3.827,3.836,3.842,3.822,3.807,3.836,18.233,78.8,14,Waypoint,
38.7448512,-120.4088443,4404.6806081414,185.039376,0,0.4480479146,24200,2018-06-07 21:57:49,15,0,22.939,4404.6806081414,185.039376,0.3131716,0.60084647592,0,0,-0.671082,324.3, 0.3, -1.7,0,0,1024,1024,1024,1024,323.6,-90,96,3.827,3.836,3.842,3.822,3.807,3.836,18.233,78.8,14,Waypoint,
38.7448512,-120.4088442,4405.6648601414,186.023628,0,0.43614174624,24400,2018-06-07 21:57:49,15,0,22.939,4405.6648601414,186.023628,0.3131716,0.60084647592,0,0,-0.671082,324.2, 0.3, -1.5,0,0,1024,1024,1024,1024,323.6,-90,96,3.827,3.836,3.842,3.822,3.807,3.836,18.233,78.8,14,Waypoint,
38.7448512,-120.4088443,4406.6491121414,187.00788,0,0.4480479146,24500,2018-06-07 21:57:49,15,0,22.939,4406.6491121414,187.00788,0.3131716,0.60084647592,0,0,-0.671082,324.2, 0.4, -1.3,0,0,1024,1024,1024,1024,323.6,-90,96,3.827,3.836,3.842,3.822,3.807,3.836,18.233,78.8,14,Waypoint,
38.7448513,-120.4088444,4410.5861201414,190.944888,0,0.43004594552,24820,2018-06-07 21:57:50,15,0,22.939,4410.5861201414,190.944888,0.3131716,0.60084647592,0,0,-0.671082,324.1, 0.9, -1.2,0,0,1024,1024,1024,1024,323.6,-89.9,96,3.827,3.836,3.842,3.822,3.807,3.836,18.233,78.8,14,Waypoint,
38.7448513,-120.4088444,4410.5861201414,190.944888,0,0.43004594552,24900,2018-06-07 21:57:50,15,0,22.939,4410.5861201414,190.944888,0.3131716,0.60084647592,0,0,-0.671082,324.1, 0.9, -1.2,0,0,1024,1024,1024,1024,323.6,-89.9,96,3.827,3.836,3.842,3.822,3.807,3.836,18.233,78.8,14,Waypoint,
38.7448513,-120.4088445,4411.5703721414,191.92914,0,0.44576444996,25000,2018-06-07 21:57:50,15,0,23.005,4411.5703721414,191.92914,0.3131716,0.60084647592,0,0,-0.671082,324.1, 1, -1,0,0,1024,1024,1024,1024,323.6,-89.9,95,3.827,3.836,3.842,3.822,3.807,3.836,17.371,78.8,14,Waypoint,
38.7448513,-120.4088445,4412.5546241414,192.913392,0,0.44576444996,25100,2018-06-07 21:57:50,15,0,23.005,4412.5546241414,192.913392,0.3131716,0.60084647592,0,0,-0.671082,324.2, 0.9, -0.9,0,0,1024,1024,1024,1024,323.6,-89.9,95,3.827,3.836,3.842,3.822,3.807,3.836,17.371,78.8,14,Waypoint,
38.7448513,-120.4088445,4413.5388761414,193.897644,0,0.44576444996,25210,2018-06-07 21:57:50,15,0,23.005,4413.5388761414,193.897644,0.3131716,0.60084647592,0,0,-0.671082,324.2, 0.8, -1,0,0,1024,1024,1024,1024,323.6,-90,95,3.827,3.836,3.842,3.822,3.807,3.836,17.371,78.8,14,Waypoint,
38.7448513,-120.4088445,4413.5388761414,193.897644,0,0.44576444996,25300,2018-06-07 21:57:50,15,0,23.005,4413.5388761414,193.897644,0.3131716,0.60084647592,0,0,-0.671082,324.2, 0.8, -1,0,0,1024,1024,1024,1024,323.6,-90,95,3.827,3.836,3.842,3.822,3.807,3.836,17.371,78.8,14,Waypoint,
38.7448514,-120.4088445,4415.5073801414,195.866148,0,0.41642717868,25500,2018-06-07 21:57:50,15,0,23.005,4415.5073801414,195.866148,0.3131716,0.60084647592,0,0,-0.671082,324.2, 0.8, -1.1,0,0,1024,1024,1024,1024,323.6,-90,95,3.827,3.836,3.842,3.822,3.807,3.836,17.371,78.8,14,Waypoint,
38.7448514,-120.4088445,4417.4758841414,197.834652,0,0.41642717868,25600,2018-06-07 21:57:50,15,0,23.005,4417.4758841414,197.834652,0.3131716,0.60084647592,0,0,-0.671082,324.2, 0.9, -1.6,0,0,1024,1024,1024,1024,323.6,-89.9,95,3.827,3.836,3.842,3.822,3.807,3.836,17.371,78.8,14,Waypoint,
38.7448515,-120.4088442,4421.4128921414,201.77166,0,0.33814961712,26000,2018-06-07 21:57:51,15,0,22.953,4421.4128921414,201.77166,0.3131716,0.60084647592,0,0,-0.671082,324, 0.5, -2.4,0,0,1024,1024,1024,1024,323.6,-90,95,3.83,3.847,3.85,3.839,3.819,3.841,18.032,78.8,14,Waypoint,
38.7448515,-120.4088441,4423.3813961414,203.740164,0,0.32471129648,26300,2018-06-07 21:57:51,15,0,22.953,4423.3813961414,203.740164,0.3131716,0.60084647592,0,0,-0.671082,324.1, 0.3, -2.4,0,0,1024,1024,1024,1024,323.6,-90,95,3.83,3.847,3.85,3.839,3.819,3.841,18.032,78.8,14,Waypoint,
38.7448515,-120.408844,4425.3499001414,205.708668,0,0.313288395852,26500,2018-06-07 21:57:51,15,0,22.953,4425.3499001414,205.708668,0.3131716,0.60084647592,0,0,-0.671082,324.1, 0.5, -2.1,0,0,1024,1024,1024,1024,323.6,-90,95,3.83,3.847,3.85,3.839,3.819,3.841,18.032,78.8,14,Waypoint,
38.7448515,-120.408844,4427.3184041414,207.677172,0,0.313288395852,26600,2018-06-07 21:57:51,15,0,22.953,4427.3184041414,207.677172,0.3131716,0.60084647592,0,0,-0.671082,324.2, 0.5, -1.9,0,0,1024,1024,1024,1024,323.6,-90,95,3.83,3.847,3.85,3.839,3.819,3.841,18.032,78.8,14,Waypoint,
38.7448515,-120.4088439,4429.2869081414,209.645676,0,0.30410762128,26800,2018-06-07 21:57:52,15,0,22.953,4429.2869081414,209.645676,0.3131716,0.60084647592,0,0,-0.671082,324.3, 0.3, -1.6,0,0,1024,1024,1024,1024,323.6,-89.9,95,3.83,3.847,3.85,3.839,3.819,3.841,18.032,78.8,14,Waypoint,
38.7448515,-120.4088437,4432.2396641414,212.598432,0,0.293263460828,27000,2018-06-07 21:57:52,15,0,22.884,4432.2396641414,212.598432,0.3131716,0.60084647592,0,0,-0.671082,323.9, 0.5, -2.4,0,0,1024,1024,1024,1024,323.6,-90,95,3.815,3.828,3.839,3.827,3.806,3.832,18.552,78.8,14,Waypoint,
38.7448516,-120.4088436,4434.8643361414,215.223104,0,0.255394693212,27400,2018-06-07 21:57:52,15,0,22.884,4434.8643361414,215.223104,0.3131716,0.60084647592,0,0,-0.671082,324, 0.5, -2.2,0,0,1024,1024,1024,1024,323.6,-90,95,3.815,3.828,3.839,3.827,3.806,3.832,18.552,78.8,14,Waypoint,
38.7448516,-120.4088436,4435.8485881414,216.207356,0,0.255394693212,27500,2018-06-07 21:57:52,15,0,22.884,4435.8485881414,216.207356,0.3131716,0.60084647592,0,0,-0.671082,324.1, 0.5, -2.1,0,0,1024,1024,1024,1024,323.6,-89.9,95,3.815,3.828,3.839,3.827,3.806,3.832,18.552,78.8,14,Waypoint,
38.7448516,-120.4088436,4436.8328401414,217.191608,0,0.255394693212,27600,2018-06-07 21:57:52,15,0,22.884,4436.8328401414,217.191608,0.3131716,0.60084647592,0,0,-0.671082,324.2, 0.5, -2.3,0,0,1024,1024,1024,1024,323.6,-90,95,3.815,3.828,3.839,3.827,3.806,3.832,18.552,78.8,14,Waypoint,
38.7448516,-120.4088434,4439.7855961414,220.144364,0,0.261658801024,27800,2018-06-07 21:57:53,15,0,22.884,4439.7855961414,220.144364,0.3131716,0.60084647592,0,0,-0.671082,324.5, 0.4, -2.8,0,0,1024,1024,1024,1024,323.6,-90,95,3.815,3.828,3.839,3.827,3.806,3.832,18.552,78.8,14,Waypoint,
38.7448516,-120.4088434,4440.7698481414,221.128616,0,0.261658801024,27900,2018-06-07 21:57:53,15,0,22.884,4440.7698481414,221.128616,0.3131716,0.60084647592,0,0,-0.671082,324.5, 0.2, -2.9,0,0,1024,1024,1024,1024,323.6,-90,95,3.815,3.828,3.839,3.827,3.806,3.832,18.552,78.8,14,Waypoint,
38.7448516,-120.4088434,4441.7541001414,222.112868,0,0.261658801024,28000,2018-06-07 21:57:53,15,0,22.884,4441.7541001414,222.112868,0.3131716,0.60084647592,0,0,-0.671082,324.5, 0.1, -2.8,0,0,1024,1024,1024,1024,323.6,-90,95,3.802,3.822,3.822,3.813,3.785,3.825,18.552,78.8,14,Waypoint,
38.7448516,-120.4088434,4442.7383521414,223.09712,0,0.261658801024,28200,2018-06-07 21:57:53,15,0,22.884,4442.7383521414,223.09712,0.3131716,0.60084647592,0,0,-0.671082,324.4, 0.2, -2.6,0,0,1024,1024,1024,1024,323.6,-90,95,3.802,3.822,3.822,3.813,3.785,3.825,18.552,78.8,14,Waypoint,
38.7448515,-120.4088435,4443.7226041414,224.081372,0,0.293263460828,28300,2018-06-07 21:57:53,15,0,22.884,4443.7226041414,224.081372,0.3131716,0.60084647592,0,0,-0.671082,324.4, 0.3, -2,0,0,1024,1024,1024,1024,323.6,-90,95,3.802,3.822,3.822,3.813,3.785,3.825,18.552,78.8,14,Waypoint,
38.7448515,-120.4088436,4444.7068561414,225.065624,0.223694,0.291879602516,28400,2018-06-07 21:57:53,15,0,22.884,4444.7068561414,225.065624,0.3131716,0.60084647592,0,0,-0.671082,324.3, 0.4, -1.5,0,0,1024,1024,1024,1024,323.6,-90,95,3.802,3.822,3.822,3.813,3.785,3.825,18.552,78.8,14,Waypoint,
38.7448514,-120.4088437,4445.6911081414,226.049876,0.223694,0.32959646724,28500,2018-06-07 21:57:53,15,0,22.884,4445.6911081414,226.049876,0.3131716,0.60084647592,0,0,-0.671082,324.2, 0.4, -1.3,0,0,1024,1024,1024,1024,323.6,-89.9,95,3.802,3.822,3.822,3.813,3.785,3.825,18.552,78.8,14,Waypoint,
38.7448514,-120.4088437,4449.6281161414,229.986884,0,0.32959646724,28900,2018-06-07 21:57:54,15,0,22.884,4449.6281161414,229.986884,0.3131716,0.60084647592,0,0,-0.671082,324, 0.6, -1.6,0,0,1024,1024,1024,1024,323.6,-90,95,3.802,3.822,3.822,3.813,3.785,3.825,18.552,78.8,14,Waypoint,
38.7448514,-120.4088436,4450.6123681414,230.971136,0,0.3283628714,29000,2018-06-07 21:57:54,15,0,22.829,4450.6123681414,230.971136,0.3131716,0.60084647592,0,0,-0.671082,324.1, 0.5, -2.1,0,0,1024,1024,1024,1024,323.6,-90,95,3.804,3.815,3.81,3.801,3.782,3.81,19.136,78.8,14,Waypoint,
38.7448514,-120.4088435,4451.5966201414,231.955388,0,0.32959646724,29100,2018-06-07 21:57:54,15,0,22.829,4451.5966201414,231.955388,0.3131716,0.60084647592,0,0,-0.671082,324.2, 0.3, -2.5,0,0,1024,1024,1024,1024,323.6,-90,95,3.804,3.815,3.81,3.801,3.782,3.81,19.136,78.8,14,Waypoint,
38.7448513,-120.4088433,4453.5651241414,233.923892,0,0.3747047364,29330,2018-06-07 21:57:54,15,0,22.829,4453.5651241414,233.923892,0.3131716,0.60084647592,0,0,-0.671082,324.3, 0, -2.5,0,0,1024,1024,1024,1024,323.6,-90,95,3.804,3.815,3.81,3.801,3.782,3.81,19.136,78.8,14,Waypoint,
38.7448513,-120.4088433,4453.5651241414,233.923892,0,0.3747047364,29400,2018-06-07 21:57:54,15,0,22.829,4453.5651241414,233.923892,0.3131716,0.60084647592,0,0,-0.671082,324.3, 0, -2.5,0,0,1024,1024,1024,1024,323.6,-90,95,3.804,3.815,3.81,3.801,3.782,3.81,19.136,78.8,14,Waypoint,
38.7448513,-120.4088432,4454.5493761414,234.908144,0,0.38219161328,29500,2018-06-07 21:57:54,15,0,22.829,4454.5493761414,234.908144,0.3131716,0.60084647592,0,0,-0.671082,324.4, -0.2, -2.4,0,0,1024,1024,1024,1024,323.6,-90,95,3.804,3.815,3.81,3.801,3.782,3.81,19.136,78.8,14,Waypoint,
38.7448513,-120.4088432,4455.5336281414,235.892396,0,0.38219161328,29600,2018-06-07 21:57:54,15,0,22.829,4455.5336281414,235.892396,0.3131716,0.60084647592,0,0,-0.671082,324.4, -0.3, -2.5,0,0,1024,1024,1024,1024,323.6,-90,95,3.804,3.815,3.81,3.801,3.782,3.81,19.136,78.8,14,Waypoint,
38.7448514,-120.4088431,4461.4391401414,241.797908,0,0.35786418468,30000,2018-06-07 21:57:55,15,0,22.811,4461.4391401414,241.797908,0.3131716,0.60084647592,0,0,-0.671082,324.3, 0.3, -2.3,0,0,1024,1024,1024,1024,323.6,-90,95,3.805,3.817,3.809,3.8,3.776,3.808,19.1,78.8,14,Waypoint,
38.7448514,-120.4088431,4462.4233921414,242.78216,0,0.35786418468,30200,2018-06-07 21:57:55,15,0,22.811,4462.4233921414,242.78216,0.3131716,0.60084647592,0,0,-0.671082,324.4, 0.4, -2.4,0,0,1024,1024,1024,1024,323.6,-89.9,95,3.805,3.817,3.809,3.8,3.776,3.808,19.1,78.8,14,Waypoint,
38.7448514,-120.408843,4464.3918961414,244.750664,0,0.37010171788,30500,2018-06-07 21:57:55,15,0,22.811,4464.3918961414,244.750664,0.3131716,0.60084647592,0,0,-0.671082,324.5, 0.2, -3,0,0,1024,1024,1024,1024,323.6,-90,95,3.805,3.817,3.809,3.8,3.776,3.808,19.1,78.8,14,Waypoint,
38.7448514,-120.4088429,4466.3604001414,246.719168,0,0.38405841124,30600,2018-06-07 21:57:55,15,0,22.811,4466.3604001414,246.719168,0.3131716,0.60084647592,0,0,-0.671082,324.4, 0, -3.5,0,0,1024,1024,1024,1024,323.6,-90,95,3.805,3.817,3.809,3.8,3.776,3.808,19.1,78.8,14,Waypoint,
38.7448513,-120.4088429,4467.3446521414,247.70342,0,0.415682428,30700,2018-06-07 21:57:56,15,0,22.811,4467.3446521414,247.70342,0.3131716,0.60084647592,0,0,-0.671082,324.3, -0.1, -3.6,0,0,1024,1024,1024,1024,323.6,-90,95,3.805,3.817,3.809,3.8,3.776,3.808,19.1,78.8,14,Waypoint,
38.744851,-120.4088427,4470.2974081414,250.656176,0,0.53903216948,31000,2018-06-07 21:57:56,15,0,22.816,4470.2974081414,250.656176,0.3131716,0.60084647592,0,0,-0.671082,324.3, -1.9, -2.8,0,0,1024,1024,1024,1024,323.6,-90,95,3.798,3.807,3.821,3.8,3.784,3.806,18.946,80.6,14,Waypoint,
38.7448508,-120.4088425,4472.2659121414,252.62468,0,0.63046589944,31100,2018-06-07 21:57:56,15,0,22.816,4472.2659121414,252.62468,0.3131716,0.63046589944,0,0,-0.671082,324.3, -2.6, -2.7,0,0,1024,1024,1024,1024,323.6,-90,95,3.798,3.807,3.821,3.8,3.784,3.806,18.946,80.6,14,Waypoint,
38.7448507,-120.4088424,4474.2344161414,254.593184,0,0.67629923424,31300,2018-06-07 21:57:56,15,0,22.816,4474.2344161414,254.593184,0.3131716,0.67629923424,0,0,-0.671082,324.3, -2.4, -3.3,0,0,1024,1024,1024,1024,323.6,-89.9,95,3.798,3.807,3.821,3.8,3.784,3.806,18.946,80.6,14,Waypoint,
38.7448506,-120.4088424,4476.2029201414,256.561688,0,0.70803151872,31520,2018-06-07 21:57:56,15,0,22.816,4476.2029201414,256.561688,0.3131716,0.70803151872,0,0,-0.671082,324.3, -2.3, -3,0,0,1024,1024,1024,1024,323.6,-89.9,95,3.798,3.807,3.821,3.8,3.784,3.806,18.946,80.6,14,Waypoint,
38.7448506,-120.4088424,4476.2029201414,256.561688,0,0.70803151872,31600,2018-06-07 21:57:56,15,0,22.816,4476.2029201414,256.561688,0.3131716,0.70803151872,0,0,-0.671082,324.3, -2.3, -3,0,0,1024,1024,1024,1024,323.6,-89.9,95,3.798,3.807,3.821,3.8,3.784,3.806,18.946,80.6,14,Waypoint,
38.7448505,-120.4088424,4477.1871721414,257.54594,0,0.74020015492,31700,2018-06-07 21:57:57,15,0,22.816,4477.1871721414,257.54594,0.3131716,0.74020015492,0,0,-0.671082,324.4, -2.2, -2.7,0,0,1024,1024,1024,1024,323.6,-90,95,3.798,3.807,3.821,3.8,3.784,3.806,18.946,80.6,14,Waypoint,
38.7448504,-120.4088425,4479.1556761414,259.514444,0,0.76060697972,31800,2018-06-07 21:57:57,16,0,22.816,4479.1556761414,259.514444,0.3131716,0.76060697972,0,0,-0.671082,324.6, -1.8, -2.5,0,0,1024,1024,1024,1024,323.6,-89.9,95,3.798,3.807,3.821,3.8,3.784,3.806,18.946,80.6,14,Waypoint,
38.7448503,-120.4088425,4481.1241801414,261.482948,0.223694,0.79400265008,32000,2018-06-07 21:57:57,16,0,22.773,4481.1241801414,261.482948,0.3131716,0.79400265008,0,0,-0.671082,324.5, -1.5, -3,0,0,1024,1024,1024,1024,323.6,-89.9,95,3.794,3.796,3.815,3.806,3.784,3.806,19.207,80.6,14,Waypoint,
38.7448503,-120.4088426,4482.1084321414,262.4672,0.223694,0.78322180984,32100,2018-06-07 21:57:57,16,0,22.773,4482.1084321414,262.4672,0.3131716,0.79400265008,0,0,-0.671082,324.3, -1.2, -3.1,0,0,1024,1024,1024,1024,323.6,-89.9,95,3.794,3.796,3.815,3.806,3.784,3.806,19.207,80.6,14,Waypoint,
38.7448503,-120.4088427,4484.0769361414,264.435704,0.223694,0.77333663892,32300,2018-06-07 21:57:57,16,0,22.773,4484.0769361414,264.435704,0.3131716,0.79400265008,0,0,-0.671082,324.1, -1.1, -3.1,0,0,1024,1024,1024,1024,323.6,-89.9,95,3.794,3.796,3.815,3.806,3.784,3.806,19.207,80.6,14,Waypoint,
38.7448503,-120.4088427,4485.0611881414,265.419956,0,0.77333663892,32430,2018-06-07 21:57:57,16,0,22.773,4485.0611881414,265.419956,0.3131716,0.79400265008,0,0,-0.671082,324.1, -1.2, -3,0,0,1024,1024,1024,1024,323.6,-90,95,3.794,3.796,3.815,3.806,3.784,3.806,19.207,80.6,14,Waypoint,
38.7448503,-120.4088427,4485.0611881414,265.419956,0,0.77333663892,32500,2018-06-07 21:57:57,16,0,22.773,4485.0611881414,265.419956,0.3131716,0.79400265008,0,0,-0.671082,324.1, -1.2, -3,0,0,1024,1024,1024,1024,323.6,-90,95,3.794,3.796,3.815,3.806,3.784,3.806,19.207,80.6,14,Waypoint,
38.7448503,-120.4088428,4487.0296921414,267.38846,0,0.7643865074,32600,2018-06-07 21:57:57,16,0,22.773,4487.0296921414,267.38846,0.3131716,0.79400265008,0,0,-0.671082,324, -1.4, -2.8,0,0,1024,1024,1024,1024,323.6,-90,95,3.794,3.796,3.815,3.806,3.784,3.806,19.207,80.6,14,Waypoint,
38.7448502,-120.4088429,4488.9981961414,269.356964,0,0.79165356864,32800,2018-06-07 21:57:58,16,0,22.773,4488.9981961414,269.356964,0.3131716,0.79400265008,0,0,-0.671082,324, -1.6, -2.3,0,0,1024,1024,1024,1024,323.6,-90,95,3.794,3.796,3.815,3.806,3.784,3.806,19.207,80.6,14,Waypoint,
38.7448502,-120.4088429,4489.9824481414,270.341216,0,0.79165356864,32910,2018-06-07 21:57:58,16,0,22.773,4489.9824481414,270.341216,0.3131716,0.79400265008,0,0,-0.671082,324.1, -1.6, -2.2,0,0,1024,1024,1024,1024,323.6,-90,95,3.794,3.796,3.815,3.806,3.784,3.806,19.207,80.6,14,Waypoint,
38.7448502,-120.408843,4491.9509521414,272.30972,0,0.78497705924,33100,2018-06-07 21:57:58,16,0,22.773,4491.9509521414,272.30972,0.3131716,0.79400265008,0,0,-0.671082,324.1, -1.5, -2.3,0,0,1024,1024,1024,1024,323.6,-90,95,3.794,3.796,3.815,3.806,3.784,3.806,19.207,80.6,14,Waypoint,
38.7448502,-120.408843,4492.9352041414,273.293972,0,0.78497705924,33300,2018-06-07 21:57:58,16,0,22.773,4492.9352041414,273.293972,0.3131716,0.79400265008,0,0,-0.671082,324.1, -1.4, -2.3,0,0,1024,1024,1024,1024,323.6,-89.9,95,3.794,3.796,3.815,3.806,3.784,3.806,19.207,80.6,14,Waypoint,
38.7448502,-120.408843,4493.9194561414,274.278224,0,0.78497705924,33400,2018-06-07 21:57:58,16,0,22.773,4493.9194561414,274.278224,0.3131716,0.79400265008,0,0,-0.671082,324.1, -1.3, -2.4,0,0,1024,1024,1024,1024,323.6,-89.9,95,3.794,3.796,3.815,3.806,3.784,3.806,19.207,80.6,14,Waypoint,
38.7448502,-120.408843,4494.9037081414,275.262476,0,0.78497705924,33600,2018-06-07 21:57:58,16,0,22.773,4494.9037081414,275.262476,0.3131716,0.79400265008,0,0,-0.671082,324.1, -1.3, -2.6,0,0,1024,1024,1024,1024,323.6,-90,95,3.794,3.796,3.815,3.806,3.784,3.806,19.207,80.6,14,Waypoint,
38.7448503,-120.408843,4495.8879601414,276.246728,0,0.74940619196,33700,2018-06-07 21:57:59,16,0,22.773,4495.8879601414,276.246728,0.3131716,0.79400265008,0,0,-0.671082,324.2, -1.3, -2.8,0,0,1024,1024,1024,1024,323.6,-89.9,95,3.794,3.796,3.815,3.806,3.784,3.806,19.207,80.6,14,Waypoint,
38.7448503,-120.408843,4497.8564641414,278.215232,0,0.74940619196,33800,2018-06-07 21:57:59,16,0,22.773,4497.8564641414,278.215232,0.3131716,0.79400265008,0,0,-0.671082,324.4, -1.4, -2.6,0,0,1024,1024,1024,1024,323.6,-90,95,3.794,3.796,3.815,3.806,3.784,3.806,19.207,80.6,14,Waypoint,
38.7448503,-120.4088428,4503.7619761414,284.120744,0,0.7643865074,34410,2018-06-07 21:57:59,16,0,22.773,4503.7619761414,284.120744,0.3131716,0.79400265008,0,0,-0.671082,323.5, -2.4, -3.8,0,0,1024,1024,1024,1024,323.6,-90,95,3.794,3.796,3.815,3.806,3.784,3.806,19.207,80.6,14,Waypoint,
38.7448503,-120.4088428,4504.7462281414,285.104996,0,0.7643865074,34500,2018-06-07 21:57:59,16,0,22.773,4504.7462281414,285.104996,0.3131716,0.79400265008,0,0,-0.671082,323.6, -2.3, -3.7,0,0,1024,1024,1024,1024,323.6,-90,95,3.794,3.796,3.815,3.806,3.784,3.806,19.207,80.6,14,Waypoint,
38.7448503,-120.4088428,4505.7304801414,286.089248,0,0.7643865074,34700,2018-06-07 21:58:00,16,0,22.773,4505.7304801414,286.089248,0.3131716,0.79400265008,0,0,-0.671082,323.8, -2.4, -3.4,0,0,1024,1024,1024,1024,323.6,-90,95,3.794,3.796,3.815,3.806,3.784,3.806,19.207,80.6,14,Waypoint,
38.7448503,-120.4088428,4508.6832361414,289.042004,0,0.7643865074,34900,2018-06-07 21:58:00,16,0,22.773,4508.6832361414,289.042004,0.3131716,0.79400265008,0,0,-0.671082,324.5, -2.3, -2.7,0,0,1024,1024,1024,1024,323.6,-90,95,3.794,3.796,3.815,3.806,3.784,3.806,19.207,80.6,14,Waypoint,
38.7448503,-120.4088428,4509.6674881414,290.026256,0,0.7643865074,35000,2018-06-07 21:58:00,16,0,22.805,4509.6674881414,290.026256,0.3131716,0.79400265008,0,0,-0.671082,324.7, -2.2, -2.5,0,0,1024,1024,1024,1024,323.6,-89.9,94,3.792,3.796,3.811,3.798,3.782,3.802,18.423,80.6,14,Waypoint,
38.7448502,-120.4088429,4510.6517401414,291.010508,0,0.79165356864,35100,2018-06-07 21:58:00,16,0,22.805,4510.6517401414,291.010508,0.3131716,0.79400265008,0,0,-0.671082,324.7, -2.1, -2.2,0,0,1024,1024,1024,1024,323.6,-89.9,94,3.792,3.796,3.811,3.798,3.782,3.802,18.423,80.6,14,Waypoint,
38.7448502,-120.4088429,4511.6359921414,291.99476,0,0.79165356864,35200,2018-06-07 21:58:00,16,0,22.805,4511.6359921414,291.99476,0.3131716,0.79400265008,0,0,-0.671082,324.6, -2.1, -2.2,0,0,1024,1024,1024,1024,323.6,-89.9,94,3.792,3.796,3.811,3.798,3.782,3.802,18.423,80.6,14,Waypoint,
38.7448502,-120.4088429,4512.6202441414,292.979012,0,0.79165356864,35400,2018-06-07 21:58:00,16,0,22.805,4512.6202441414,292.979012,0.3131716,0.79400265008,0,0,-0.671082,324.5, -2.1, -2.3,0,0,1024,1024,1024,1024,323.6,-90,94,3.792,3.796,3.811,3.798,3.782,3.802,18.423,80.6,14,Waypoint,
38.7448502,-120.408843,4513.6044961414,293.963264,0,0.78497705924,35500,2018-06-07 21:58:00,16,0,22.805,4513.6044961414,293.963264,0.3131716,0.79400265008,0,0,-0.671082,324.4, -2.1, -2.2,0,0,1024,1024,1024,1024,323.6,-89.9,94,3.792,3.796,3.811,3.798,3.782,3.802,18.423,80.6,14,Waypoint,
38.7448502,-120.408843,4514.5887481414,294.947516,0,0.78497705924,35600,2018-06-07 21:58:00,16,0,22.805,4514.5887481414,294.947516,0.3131716,0.79400265008,0,0,-0.671082,324.3, -2.1, -2.1,0,0,1024,1024,1024,1024,323.6,-89.9,94,3.792,3.796,3.811,3.798,3.782,3.802,18.423,80.6,14,Waypoint,
