Latitude, Longitude, Altitude (m), Time, Sats, Speed (m/s), Range (m), Battery (%), Roll (deg), Pitch (deg), Yaw (deg), Images, HD Signal (%), RC Signal (%), Battery Temp (C), Battery Voltage (mV), Battery Current (mA), Battery Energy (mAh), Battery Capacity (mAh), Battery Discharges, flyState, timestamp (Unix), LastUpdate (ms), radioChannel, Rc_elevator, Rc_aileron, Rc_throttle, Rc_rudder, Rc_gyro, Dronetype, Battery_Cell1 (mV), Battery_Cell2 (mV), Battery_Cell3 (mV), Battery_Cell4 (mV), Battery_Cell5 (mV), Battery_Cell6 (mV), Video, isFlying, elapsedTime (ms), gimbalPitch (deg), gimbalRoll (deg), gimbalYaw (deg), VelocityX (m/s), VelocityY (m/s), VelocityZ (m/s), GroundSmear (cm), App Version, Aircraft Name, Aircraft Firmware, Aircraft Serial Number, Battery Serial Number, Battery Lifetime (%), App_Tip, App_Warning, CurrentFlightStartingIndex, CurrentFlightLastVisitedWaypoint, PreviousFlightEndingWaypointIndex
38.6884555, -120.4165661, 0.000, 10:56:28.714, 14, 0.10, 0.16, 100, -1.400, -0.900, 49.400, 1527, 100, 100, 15, 25274, -3726, 5434, 5434, 14, 11, 1528394188.714, 54, 0, 1024, 1024, 1024, 1024, 0, 6, 4232, 4187, 4238, 4200, 4239, 4234, 0, 1, 3129, -90.000, 0.000, 49.200, 0.100, 0.000, 0.000, 0.0, MapPilot_2.8.1_04242018, Dendroctonus I, 1.3.1.00, 041DDC1887, 1058163200627, 97, DJI_0525.jpg, Starting Mission from Lat/Long: 38.68845/-120.41656 Camera: Zenmuse X3 - Overlap: 90/90 - Active Connection: No, 63, 63, 63
38.6884556, -120.4165662, 0.000, 10:56:28.786, 14, 0.10, 0.17, 100, -1.200, -1.300, 49.800, 1527, 100, 100, 15, 25274, -3726, 5434, 5434, 14, 11, 1528394188.786, 21, 0, 1024, 1024, 1024, 1024, 0, 6, 4232, 4187, 4238, 4200, 4239, 4234, 0, 1, 3201, -90.000, 0.000, 49.200, 0.100, 0.000, -0.100, 0.0, , , , , , 97, , , 63, 63, 63
38.6884558, -120.4165663, 0.000, 10:56:28.886, 14, 0.20, 0.19, 100, -0.400, -0.900, 49.900, 1527, 100, 100, 15, 25274, -3726, 5434, 5434, 14, 11, 1528394188.886, 36, 0, 1024, 1024, 1024, 1024, 0, 6, 4232, 4187, 4238, 4200, 4239, 4234, 0, 1, 3301, -89.900, 0.000, 49.200, 0.200, 0.000, -0.300, 0.0, , , , , , 97, , , 63, 63, 63
38.6884560, -120.4165664, 0.000, 10:56:28.985, 13, 0.20, 0.21, 100, 0.300, -0.100, 50.000, 1527, 100, 100, 15, 25274, -3726, 5434, 5434, 14, 11, 1528394188.986, 39, 0, 1024, 1024, 1024, 1024, 0, 6, 4232, 4187, 4238, 4200, 4239, 4234, 0, 1, 3401, -89.900, 0.000, 49.200, 0.200, 0.000, -0.400, 0.0, , , , , , 97, , , 63, 63, 63
38.6884562, -120.4165665, 0.000, 10:56:29.085, 13, 0.20, 0.23, 100, 0.900, 0.600, 50.000, 1527, 100, 100, 15, 25274, -3726, 5434, 5434, 14, 11, 1528394189.086, 35, 0, 1024, 1024, 1024, 1024, 0, 6, 4232, 4187, 4238, 4200, 4239, 4234, 0, 1, 3501, -89.900, 0.000, 49.200, 0.200, 0.000, -0.400, 0.0, , , , , , 97, , , 63, 63, 63
38.6884565, -120.4165665, 0.000, 10:56:29.185, 11, 0.20, 0.25, 100, 1.400, 1.200, 49.900, 1527, 100, 100, 15, 25274, -3726, 5434, 5434, 14, 11, 1528394189.185, 11, 0, 1024, 1024, 1024, 1024, 0, 6, 4232, 4187, 4238, 4200, 4239, 4234, 0, 1, 3600, -89.900, 0.000, 49.200, 0.200, 0.000, -0.400, 0.0, , , , , , 97, , , 63, 63, 63
38.6884567, -120.4165666, 0.100, 10:56:29.289, 11, 0.20, 0.27, 100, 1.800, 1.700, 49.800, 1527, 100, 100, 15, 25274, -3726, 5434, 5434, 14, 11, 1528394189.290, 7, 0, 1024, 1024, 1024, 1024, 0, 6, 4232, 4187, 4238, 4200, 4239, 4234, 0, 1, 3705, -89.900, 0.000, 49.200, 0.200, 0.000, -0.300, 0.0, , , , , , 97, , , 63, 63, 63
38.6884569, -120.4165667, 0.100, 10:56:29.387, 12, 0.20, 0.30, 100, 1.700, 1.600, 49.700, 1527, 100, 100, 15, 25274, -3726, 5434, 5434, 14, 11, 1528394189.387, 7, 0, 1024, 1024, 1024, 1024, 0, 6, 4232, 4187, 4238, 4200, 4239, 4234, 0, 1, 3803, -89.900, 0.000, 49.200, 0.200, 0.000, -0.300, 0.0, , , , , , 97, , , 63, 63, 63
38.6884571, -120.4165667, 0.200, 10:56:29.486, 12, 0.10, 0.31, 100, 1.600, 1.400, 49.600, 1527, 100, 100, 15, 24362, -7710, 5434, 5434, 14, 11, 1528394189.487, 9, 0, 1024, 1024, 1024, 1024, 0, 6, 4232, 4187, 4238, 4200, 4239, 4234, 0, 1, 3902, -89.900, 0.000, 49.200, 0.100, 0.000, -0.300, 0.0, , , , , , 97, , , 63, 63, 63
38.6884571, -120.4165667, 0.200, 10:56:29.586, 12, 0.10, 0.31, 100, 1.600, 1.400, 49.600, 1527, 100, 100, 15, 24362, -7710, 5434, 5434, 14, 11, 1528394189.586, 108, 0, 1024, 1024, 1024, 1024, 0, 6, 3985, 3964, 4006, 3997, 4002, 4003, 0, 1, 4001, -89.900, 0.000, 49.200, 0.100, 0.000, -0.300, 0.0, , , , , , 97, , , 63, 63, 63
38.6884574, -120.4165668, 0.200, 10:56:29.688, 14, 0.10, 0.35, 100, 1.300, 1.100, 49.500, 1527, 100, 100, 15, 24362, -7710, 5434, 5434, 14, 11, 1528394189.688, 7, 0, 1024, 1024, 1024, 1024, 0, 6, 3985, 3964, 4006, 3997, 4002, 4003, 0, 1, 4103, -90.000, 0.000, 49.200, 0.100, 0.000, -0.300, 0.0, , , , , , 97, , , 63, 63, 63
38.6884574, -120.4165668, 0.200, 10:56:29.785, 14, 0.10, 0.35, 100, 1.300, 1.100, 49.500, 1527, 100, 100, 15, 24362, -7710, 5434, 5434, 14, 11, 1528394189.786, 105, 0, 1024, 1024, 1024, 1024, 0, 6, 3985, 3964, 4006, 3997, 4002, 4003, 0, 1, 4201, -90.000, 0.000, 49.200, 0.100, 0.000, -0.300, 0.0, , , , , , 97, , , 63, 63, 63
38.6884576, -120.4165669, 0.300, 10:56:29.889, 13, 0.10, 0.37, 100, 1.500, 1.200, 49.400, 1527, 100, 100, 15, 24362, -7710, 5434, 5434, 14, 11, 1528394189.889, 5, 0, 1024, 1024, 1024, 1024, 0, 6, 3985, 3964, 4006, 3997, 4002, 4003, 0, 1, 4304, -89.900, 0.000, 49.200, 0.100, 0.000, -0.400, 0.0, , , , , , 97, , , 63, 63, 63
38.6884576, -120.4165669, 0.300, 10:56:29.985, 13, 0.10, 0.37, 100, 1.500, 1.200, 49.400, 1527, 100, 100, 15, 24362, -7710, 5434, 5434, 14, 11, 1528394189.986, 102, 0, 1024, 1024, 1024, 1024, 0, 6, 3985, 3964, 4006, 3997, 4002, 4003, 0, 1, 4401, -89.900, 0.000, 49.200, 0.100, 0.000, -0.400, 0.0, , , , , , 97, , , 63, 63, 63
38.6884577, -120.4165669, 0.400, 10:56:30.086, 13, 0.10, 0.38, 100, 1.400, 1.100, 49.300, 1527, 100, 100, 15, 24362, -7710, 5434, 5434, 14, 11, 1528394190.086, 90, 0, 1024, 1024, 1024, 1024, 0, 6, 3985, 3964, 4006, 3997, 4002, 4003, 0, 1, 4501, -89.900, 0.000, 49.200, 0.100, 0.000, -0.400, 0.0, , , , , , 97, , , 63, 63, 63
38.6884578, -120.4165670, 0.400, 10:56:30.186, 13, 0.10, 0.39, 100, 1.300, 1.000, 49.300, 1527, 100, 100, 15, 24362, -7710, 5434, 5434, 14, 11, 1528394190.186, 57, 0, 1024, 1024, 1024, 1024, 0, 6, 3985, 3964, 4006, 3997, 4002, 4003, 0, 1, 4601, -90.000, 0.000, 49.200, 0.100, 0.000, -0.400, 0.0, , , , , , 97, , , 63, 63, 63
38.6884580, -120.4165670, 0.500, 10:56:30.286, 13, 0.10, 0.40, 100, 1.300, 0.900, 49.200, 1527, 100, 100, 15, 24362, -7710, 5434, 5434, 14, 11, 1528394190.286, 70, 0, 1024, 1024, 1024, 1024, 0, 6, 3985, 3964, 4006, 3997, 4002, 4003, 0, 1, 4701, -90.000, 0.000, 49.200, 0.100, 0.000, -0.400, 0.0, , , , , , 97, , , 63, 63, 63
38.6884580, -120.4165671, 0.500, 10:56:30.386, 13, 0.00, 0.41, 100, 1.300, 0.900, 49.200, 1527, 100, 100, 15, 24362, -7710, 5434, 5434, 14, 11, 1528394190.386, 71, 0, 1024, 1024, 1024, 1024, 0, 6, 3985, 3964, 4006, 3997, 4002, 4003, 0, 1, 4802, -89.900, 0.000, 49.200, 0.000, 0.000, -0.400, 0.0, , , , , , 97, , , 63, 63, 63
38.6884581, -120.4165671, 0.600, 10:56:30.485, 15, 0.00, 0.42, 98, 1.300, 0.900, 49.100, 1527, 100, 100, 16, 23197, -16531, 5325, 5434, 14, 11, 1528394190.486, 73, 0, 1024, 1024, 1024, 1024, 0, 6, 3837, 3824, 3856, 3858, 3867, 3856, 0, 1, 4901, -89.900, 0.000, 49.200, 0.000, 0.000, -0.500, 0.0, , , , , , 97, , , 63, 63, 63
38.6884584, -120.4165673, 0.700, 10:56:30.586, 16, 0.00, 0.46, 98, 1.500, 1.100, 49.100, 1527, 100, 100, 16, 23197, -16531, 5325, 5434, 14, 11, 1528394190.586, 63, 0, 1024, 1024, 1024, 1024, 0, 6, 3837, 3824, 3856, 3858, 3867, 3856, 0, 1, 5001, -90.000, 0.000, 49.200, 0.000, 0.000, -0.400, 0.0, , , , , , 97, , , 63, 63, 63
38.6884584, -120.4165672, 0.800, 10:56:30.686, 16, 0.00, 0.46, 98, 1.500, 1.300, 49.200, 1527, 100, 100, 16, 23197, -16531, 5325, 5434, 14, 11, 1528394190.686, 63, 0, 1024, 1024, 1024, 1024, 0, 6, 3837, 3824, 3856, 3858, 3867, 3856, 0, 1, 5101, -89.900, 0.000, 49.200, 0.000, 0.000, -0.500, 0.0, , , , , , 97, , , 63, 63, 63
38.6884585, -120.4165672, 0.800, 10:56:30.786, 14, 0.00, 0.46, 98, 1.400, 1.400, 49.300, 1527, 100, 100, 16, 23197, -16531, 5325, 5434, 14, 11, 1528394190.786, 55, 0, 1024, 1024, 1024, 1024, 0, 6, 3837, 3824, 3856, 3858, 3867, 3856, 0, 1, 5201, -89.900, 0.000, 49.200, 0.000, 0.000, -0.500, 0.0, , , , , , 97, , , 63, 63, 63
38.6884586, -120.4165673, 0.900, 10:56:30.886, 14, 0.00, 0.47, 98, 1.300, 1.400, 49.400, 1527, 100, 100, 16, 23197, -16531, 5325, 5434, 14, 6, 1528394190.886, 63, 0, 1024, 1024, 1024, 1024, 0, 6, 3837, 3824, 3856, 3858, 3867, 3856, 0, 1, 5301, -89.900, 0.000, 49.200, 0.000, 0.000, -0.400, 0.0, , , , , , 97, , , 63, 63, 63
38.6884586, -120.4165674, 0.900, 10:56:30.986, 15, 0.00, 0.48, 98, 1.400, 1.500, 49.400, 1527, 100, 100, 16, 23197, -16531, 5325, 5434, 14, 14, 1528394190.986, 65, 0, 1024, 1024, 1024, 1024, 0, 6, 3837, 3824, 3856, 3858, 3867, 3856, 0, 1, 5401, -89.900, 0.000, 49.200, 0.000, 0.000, -0.400, 0.0, , , , , , 97, , , 63, 63, 63
38.6884587, -120.4165673, 1.000, 10:56:31.085, 15, 0.00, 0.49, 98, 1.100, 1.600, 49.400, 1527, 100, 100, 16, 23197, -16531, 5325, 5434, 14, 14, 1528394191.086, 35, 0, 1024, 1024, 1024, 1024, 0, 6, 3837, 3824, 3856, 3858, 3867, 3856, 0, 1, 5501, -89.900, 0.000, 49.200, 0.000, 0.000, -0.300, 0.0, , , , , , 97, , , 63, 63, 63
38.6884588, -120.4165673, 1.000, 10:56:31.185, 15, 0.00, 0.49, 98, 0.800, 1.600, 49.500, 1527, 100, 100, 16, 23197, -16531, 5325, 5434, 14, 14, 1528394191.186, 17, 0, 1024, 1024, 1024, 1024, 0, 6, 3837, 3824, 3856, 3858, 3867, 3856, 0, 1, 5601, -89.900, 0.000, 49.200, 0.000, 0.000, -0.200, 0.0, , , , , , 97, , , 63, 63, 63
38.6884588, -120.4165674, 1.000, 10:56:31.285, 15, 0.00, 0.50, 98, 0.600, 1.500, 49.500, 1527, 100, 100, 16, 23197, -16531, 5325, 5434, 14, 14, 1528394191.286, 13, 0, 1024, 1024, 1024, 1024, 0, 6, 3837, 3824, 3856, 3858, 3867, 3856, 0, 1, 5701, -89.900, 0.000, 49.200, 0.000, 0.000, -0.200, 0.0, , , , , , 97, , , 63, 63, 63
38.6884589, -120.4165674, 1.000, 10:56:31.386, 14, 0.00, 0.51, 98, 0.500, 1.400, 49.600, 1527, 100, 100, 16, 23197, -16531, 5325, 5434, 14, 14, 1528394191.387, 23, 0, 1024, 1024, 1024, 1024, 0, 6, 3837, 3824, 3856, 3858, 3867, 3856, 0, 1, 5802, -89.900, 0.000, 49.200, 0.000, 0.000, -0.300, 0.0, , , , , , 97, , , 63, 63, 63
38.6884590, -120.4165675, 1.100, 10:56:31.485, 14, 0.00, 0.52, 98, 0.600, 1.300, 49.700, 1527, 100, 100, 16, 22863, -17665, 5325, 5434, 14, 14, 1528394191.486, 18, 0, 1024, 1024, 1024, 1024, 0, 6, 3837, 3824, 3856, 3858, 3867, 3856, 0, 1, 5901, -89.900, 0.000, 49.200, 0.000, 0.000, -0.400, 0.0, , , , , , 97, , , 63, 63, 63
38.6884590, -120.4165676, 1.100, 10:56:31.585, 15, 0.00, 0.53, 98, 0.700, 1.300, 49.700, 1527, 100, 100, 16, 22863, -17665, 5325, 5434, 14, 14, 1528394191.587, 23, 0, 1024, 1024, 1024, 1024, 0, 6, 3837, 3824, 3856, 3858, 3867, 3856, 0, 1, 6002, -90.000, 0.000, 49.200, 0.000, 0.000, -0.600, 0.0, , , , , , 97, , , 63, 63, 63
38.6884590, -120.4165676, 1.100, 10:56:31.685, 15, 0.00, 0.53, 98, 0.700, 1.300, 49.700, 1527, 100, 100, 16, 22863, -17665, 5325, 5434, 14, 14, 1528394191.686, 122, 0, 1024, 1024, 1024, 1024, 0, 6, 3792, 3787, 3807, 3815, 3831, 3807, 0, 1, 6101, -90.000, 0.000, 49.200, 0.000, 0.000, -0.600, 0.0, , , , , , 97, , , 63, 63, 63
38.6884592, -120.4165676, 1.300, 10:56:31.790, 15, 0.00, 0.55, 98, 1.100, 1.300, 49.700, 1527, 100, 100, 16, 22863, -17665, 5325, 5434, 14, 14, 1528394191.791, 12, 0, 1024, 1024, 1024, 1024, 0, 6, 3792, 3787, 3807, 3815, 3831, 3807, 0, 1, 6206, -89.900, 0.000, 49.200, 0.000, 0.000, -0.900, 0.0, , , , , , 97, , , 63, 63, 63
38.6884592, -120.4165677, 1.400, 10:56:31.885, 15, 0.00, 0.55, 98, 1.200, 1.500, 49.700, 1527, 100, 100, 16, 22863, -17665, 5325, 5434, 14, 14, 1528394191.885, 14, 0, 1024, 1024, 1024, 1024, 0, 6, 3792, 3787, 3807, 3815, 3831, 3807, 0, 1, 6301, -89.900, 0.000, 49.200, 0.000, 0.000, -1.100, 0.0, , , , , , 97, , , 63, 63, 63
38.6884592, -120.4165677, 1.400, 10:56:31.985, 15, 0.00, 0.55, 98, 1.200, 1.500, 49.700, 1527, 100, 100, 16, 22863, -17665, 5325, 5434, 14, 14, 1528394191.986, 114, 0, 1024, 1024, 1024, 1024, 0, 6, 3792, 3787, 3807, 3815, 3831, 3807, 0, 1, 6401, -89.900, 0.000, 49.200, 0.000, 0.000, -1.100, 0.0, , , , , , 97, , , 63, 63, 63
38.6884591, -120.4165678, 1.500, 10:56:32.085, 14, 0.00, 0.55, 98, 1.100, 1.400, 49.600, 1527, 100, 100, 16, 22863, -17665, 5325, 5434, 14, 14, 1528394192.086, 87, 0, 1024, 1024, 1024, 1024, 0, 6, 3792, 3787, 3807, 3815, 3831, 3807, 0, 1, 6501, -90.000, 0.000, 49.200, 0.000, 0.000, -1.300, 0.0, , , , , , 97, , , 63, 63, 63
38.6884591, -120.4165678, 1.700, 10:56:32.185, 14, 0.00, 0.55, 98, 1.000, 1.200, 49.500, 1527, 100, 100, 16, 22863, -17665, 5325, 5434, 14, 14, 1528394192.186, 84, 0, 1024, 1024, 1024, 1024, 0, 6, 3792, 3787, 3807, 3815, 3831, 3807, 0, 1, 6601, -90.000, 0.000, 49.200, 0.000, 0.000, -1.600, 0.0, , , , , , 97, , , 63, 63, 63
38.6884591, -120.4165678, 1.800, 10:56:32.285, 13, 0.00, 0.54, 98, 1.000, 1.000, 49.400, 1527, 100, 100, 16, 22863, -17665, 5325, 5434, 14, 14, 1528394192.286, 80, 0, 1024, 1024, 1024, 1024, 0, 6, 3792, 3787, 3807, 3815, 3831, 3807, 0, 1, 6701, -90.000, 0.000, 49.200, 0.000, 0.000, -1.700, 0.0, , , , , , 97, , , 63, 63, 63
38.6884590, -120.4165679, 2.000, 10:56:32.385, 13, 0.00, 0.54, 98, 0.900, 0.900, 49.300, 1527, 100, 100, 16, 22863, -17665, 5325, 5434, 14, 14, 1528394192.386, 89, 0, 1024, 1024, 1024, 1024, 0, 6, 3792, 3787, 3807, 3815, 3831, 3807, 0, 1, 6801, -90.000, 0.000, 49.200, 0.000, 0.000, -2.000, 0.0, , , , , , 97, , , 63, 63, 63
38.6884589, -120.4165680, 2.200, 10:56:32.485, 12, 0.00, 0.54, 98, 0.800, 0.700, 49.400, 1527, 100, 100, 16, 22762, -18050, 5325, 5434, 14, 14, 1528394192.486, 87, 0, 1024, 1024, 1024, 1024, 0, 6, 3792, 3787, 3807, 3815, 3831, 3807, 0, 1, 6901, -90.000, 0.000, 49.200, 0.000, 0.000, -2.200, 0.0, , , , , , 97, , , 63, 63, 63
38.6884588, -120.4165680, 2.500, 10:56:32.585, 12, 0.00, 0.53, 98, 0.600, 0.500, 49.400, 1527, 100, 99, 16, 22762, -18050, 5325, 5434, 14, 14, 1528394192.586, 74, 0, 1024, 1024, 1024, 1024, 0, 6, 3792, 3787, 3807, 3815, 3831, 3807, 0, 1, 7001, -90.000, 0.000, 49.200, 0.000, 0.000, -2.500, 0.0, , , , , , 97, , , 63, 63, 63
38.6884586, -120.4165680, 2.800, 10:56:32.685, 13, 0.00, 0.51, 98, 0.300, 0.500, 49.500, 1527, 100, 99, 16, 22762, -18050, 5325, 5434, 14, 14, 1528394192.686, 69, 0, 1024, 1024, 1024, 1024, 0, 6, 3791, 3765, 3792, 3754, 3798, 3753, 0, 1, 7101, -90.000, 0.000, 49.200, 0.000, 0.000, -2.800, 0.0, , , , , , 97, , , 63, 63, 63
38.6884582, -120.4165681, 3.300, 10:56:32.786, 13, 0.00, 0.48, 98, -0.200, 0.400, 49.700, 1527, 100, 99, 16, 22762, -18050, 5325, 5434, 14, 14, 1528394192.786, 27, 0, 1024, 1024, 1024, 1024, 0, 6, 3791, 3765, 3792, 3754, 3798, 3753, 0, 1, 7201, -90.000, 0.000, 49.200, 0.000, 0.000, -3.000, 0.0, , , , , , 97, , , 63, 63, 63
38.6884579, -120.4165682, 3.700, 10:56:32.885, 13, 0.00, 0.46, 98, -0.400, 0.200, 49.800, 1527, 100, 99, 16, 22762, -18050, 5325, 5434, 14, 14, 1528394192.886, 51, 0, 1024, 1024, 1024, 1024, 0, 6, 3791, 3765, 3792, 3754, 3798, 3753, 0, 1, 7301, -90.000, 0.000, 49.200, 0.000, 0.000, -3.100, 0.0, , , , , , 97, , , 63, 63, 63
38.6884577, -120.4165683, 4.000, 10:56:32.986, 13, 0.00, 0.45, 98, -0.400, 0.000, 49.800, 1527, 100, 99, 16, 22762, -18050, 5325, 5434, 14, 14, 1528394192.986, 49, 0, 1024, 1024, 1024, 1024, 0, 6, 3791, 3765, 3792, 3754, 3798, 3753, 0, 1, 7401, -90.000, 0.000, 49.200, 0.000, 0.000, -3.200, 0.0, , , , , , 97, , , 63, 63, 63
38.6884575, -120.4165683, 4.300, 10:56:33.085, 13, 0.00, 0.44, 98, -0.400, -0.100, 49.800, 1527, 100, 99, 16, 22762, -18050, 5325, 5434, 14, 14, 1528394193.086, 50, 0, 1024, 1024, 1024, 1024, 0, 6, 3791, 3765, 3792, 3754, 3798, 3753, 0, 1, 7501, -90.000, 0.000, 49.200, 0.000, 0.000, -3.300, 0.0, , , , , , 97, , , 63, 63, 63
38.6884574, -120.4165684, 4.700, 10:56:33.190, 15, 0.00, 0.44, 98, -0.400, -0.300, 49.700, 1527, 100, 99, 16, 22762, -18050, 5325, 5434, 14, 14, 1528394193.190, 6, 0, 1024, 1024, 1024, 1024, 0, 6, 3791, 3765, 3792, 3754, 3798, 3753, 0, 1, 7605, -90.000, 0.000, 49.200, 0.000, 0.000, -3.300, 0.0, , , , , , 97, , , 63, 63, 63
38.6884575, -120.4165687, 5.000, 10:56:33.285, 15, 0.00, 0.46, 98, -0.200, -0.300, 49.600, 1527, 100, 99, 16, 22762, -18050, 5325, 5434, 14, 14, 1528394193.286, 35, 0, 1024, 1024, 1024, 1024, 0, 6, 3791, 3765, 3792, 3754, 3798, 3753, 0, 1, 7701, -90.000, 0.000, 49.200, 0.000, 0.000, -3.300, 0.0, , , , , , 97, , , 63, 63, 63
38.6884575, -120.4165687, 5.000, 10:56:33.385, 15, 0.00, 0.46, 98, -0.200, -0.300, 49.600, 1527, 100, 99, 16, 22762, -18050, 5325, 5434, 14, 14, 1528394193.386, 135, 0, 1024, 1024, 1024, 1024, 0, 6, 3791, 3765, 3792, 3754, 3798, 3753, 0, 1, 7801, -90.000, 0.000, 49.200, 0.000, 0.000, -3.300, 0.0, , , , , , 97, , , 63, 63, 63
38.6884576, -120.4165689, 5.400, 10:56:33.485, 15, 0.00, 0.49, 98, 0.400, -0.300, 49.600, 1527, 100, 99, 16, 22762, -18050, 5325, 5434, 14, 14, 1528394193.486, 45, 0, 1024, 1024, 1024, 1024, 0, 6, 3791, 3765, 3792, 3754, 3798, 3753, 0, 1, 7901, -90.000, 0.000, 49.200, 0.000, 0.000, -3.400, 0.0, , , , , , 97, , , 63, 63, 63
38.6884575, -120.4165690, 5.700, 10:56:33.586, 15, 0.00, 0.49, 98, 1.000, -0.200, 49.500, 1527, 100, 99, 16, 21908, -25878, 5325, 5434, 14, 14, 1528394193.586, 35, 0, 1024, 1024, 1024, 1024, 0, 6, 3791, 3765, 3792, 3754, 3798, 3753, 0, 1, 8001, -90.000, 0.000, 49.200, 0.000, 0.000, -3.300, 0.0, , , , , , 97, , , 63, 63, 63
38.6884574, -120.4165690, 6.100, 10:56:33.685, 14, 0.00, 0.48, 98, 1.200, -0.100, 49.400, 1527, 100, 99, 16, 21908, -25878, 5325, 5434, 14, 14, 1528394193.686, 35, 0, 1024, 1024, 1024, 1024, 0, 6, 3791, 3765, 3792, 3754, 3798, 3753, 0, 1, 8101, -90.000, 0.000, 49.200, 0.000, 0.000, -3.300, 0.0, , , , , , 97, , , 63, 63, 63
38.6884574, -120.4165690, 6.400, 10:56:33.785, 14, 0.00, 0.48, 98, 0.900, 0.000, 49.300, 1527, 100, 99, 16, 21908, -25878, 5325, 5434, 14, 14, 1528394193.786, 50, 0, 1024, 1024, 1024, 1024, 0, 6, 3791, 3765, 3792, 3754, 3798, 3753, 0, 1, 8201, -90.000, 0.000, 49.200, 0.000, 0.000, -3.400, 0.0, , , , , , 97, , , 63, 63, 63
38.6884574, -120.4165690, 6.800, 10:56:33.906, 15, 0.00, 0.47, 98, 0.500, 0.000, 49.300, 1527, 100, 99, 16, 21908, -25878, 5325, 5434, 14, 14, 1528394193.906, 7, 0, 1024, 1024, 1024, 1024, 0, 6, 3791, 3765, 3792, 3754, 3798, 3753, 0, 1, 8322, -90.000, 0.000, 49.200, 0.000, 0.000, -3.400, 0.0, , , , , , 97, , , 63, 63, 63
38.6884574, -120.4165690, 7.200, 10:56:33.986, 15, 0.00, 0.48, 98, 0.200, 0.100, 49.300, 1527, 100, 99, 16, 21908, -25878, 5325, 5434, 14, 14, 1528394193.987, 18, 0, 1024, 1024, 1024, 1024, 0, 6, 3791, 3765, 3792, 3754, 3798, 3753, 0, 1, 8402, -90.000, 0.000, 49.200, 0.000, 0.000, -3.300, 0.0, , , , , , 97, , , 63, 63, 63
38.6884574, -120.4165690, 7.200, 10:56:34.087, 15, 0.00, 0.48, 98, 0.200, 0.100, 49.300, 1527, 100, 99, 16, 21908, -25878, 5325, 5434, 14, 14, 1528394194.088, 119, 0, 1024, 1024, 1024, 1024, 0, 6, 3791, 3765, 3792, 3754, 3798, 3753, 0, 1, 8503, -90.000, 0.000, 49.200, 0.000, 0.000, -3.300, 0.0, , , , , , 97, , , 63, 63, 63
38.6884575, -120.4165690, 7.500, 10:56:34.185, 15, 0.00, 0.48, 98, 0.200, 0.200, 49.300, 1527, 100, 96, 16, 21908, -25878, 5325, 5434, 14, 14, 1528394194.186, 95, 0, 1024, 1024, 1024, 1024, 0, 6, 3631, 3627, 3650, 3645, 3657, 3630, 0, 1, 8601, -90.000, 0.000, 49.200, 0.000, 0.000, -3.300, 0.0, , , , , , 97, , , 63, 63, 63
38.6884576, -120.4165689, 7.900, 10:56:34.285, 15, 0.00, 0.49, 98, 0.300, 0.200, 49.300, 1527, 100, 96, 16, 21908, -25878, 5325, 5434, 14, 14, 1528394194.286, 10, 0, 1024, 1024, 1024, 1024, 0, 6, 3631, 3627, 3650, 3645, 3657, 3630, 0, 1, 8701, -90.000, 0.000, 49.200, 0.000, 0.000, -3.200, 0.0, , , , , , 97, , , 63, 63, 63
38.6884577, -120.4165689, 8.200, 10:56:34.385, 15, 0.00, 0.49, 98, 0.400, 0.300, 49.400, 1527, 100, 96, 16, 21908, -25878, 5325, 5434, 14, 14, 1528394194.385, 15, 0, 1024, 1024, 1024, 1024, 0, 6, 3631, 3627, 3650, 3645, 3657, 3630, 0, 1, 8801, -90.000, 0.000, 49.200, 0.000, 0.000, -3.200, 0.0, , , , , , 97, , , 63, 63, 63
38.6884577, -120.4165689, 8.200, 10:56:34.485, 15, 0.00, 0.49, 98, 0.400, 0.300, 49.400, 1527, 100, 96, 16, 21908, -25878, 5325, 5434, 14, 14, 1528394194.486, 116, 0, 1024, 1024, 1024, 1024, 0, 6, 3631, 3627, 3650, 3645, 3657, 3630, 0, 1, 8901, -90.000, 0.000, 49.200, 0.000, 0.000, -3.200, 0.0, , , , , , 97, , , 63, 63, 63
38.6884579, -120.4165688, 8.500, 10:56:34.586, 15, 0.14, 0.50, 98, 0.600, 0.700, 49.400, 1527, 100, 96, 16, 21908, -25878, 5325, 5434, 14, 14, 1528394194.587, 41, 0, 1024, 1024, 1024, 1024, 0, 6, 3631, 3627, 3650, 3645, 3657, 3630, 0, 1, 9002, -89.900, 0.000, 49.200, 0.100, 0.100, -3.100, 0.0, , , , , , 97, , , 63, 63, 63
38.6884579, -120.4165688, 8.500, 10:56:34.685, 15, 0.14, 0.50, 98, 0.600, 0.700, 49.400, 1527, 100, 96, 16, 21908, -25878, 5325, 5434, 14, 14, 1528394194.686, 140, 0, 1024, 1024, 1024, 1024, 0, 6, 3631, 3627, 3650, 3645, 3657, 3630, 0, 1, 9101, -89.900, 0.000, 49.200, 0.100, 0.100, -3.100, 0.0, , , , , , 97, , , 63, 63, 63
38.6884581, -120.4165687, 8.900, 10:56:34.785, 14, 0.14, 0.51, 98, 0.800, 1.100, 49.400, 1527, 100, 96, 16, 21908, -25878, 5325, 5434, 14, 14, 1528394194.786, 90, 0, 1024, 1024, 1024, 1024, 0, 6, 3631, 3627, 3650, 3645, 3657, 3630, 0, 1, 9201, -89.900, 0.000, 49.200, 0.100, 0.100, -3.100, 0.0, , , , , , 97, , , 63, 63, 63
38.6884583, -120.4165686, 9.200, 10:56:34.885, 14, 0.14, 0.52, 98, 0.900, 1.500, 49.400, 1527, 100, 96, 16, 21908, -25878, 5325, 5434, 14, 14, 1528394194.886, 88, 0, 1024, 1024, 1024, 1024, 0, 6, 3631, 3627, 3650, 3645, 3657, 3630, 0, 1, 9301, -89.900, 0.000, 49.200, 0.100, 0.100, -3.100, 0.0, , , , , , 97, , , 63, 63, 63
38.6884585, -120.4165684, 9.500, 10:56:34.985, 15, 0.14, 0.52, 98, 1.000, 1.900, 49.300, 1527, 100, 96, 16, 21908, -25878, 5325, 5434, 14, 14, 1528394194.985, 70, 0, 1024, 1024, 1024, 1024, 0, 6, 3631, 3627, 3650, 3645, 3657, 3630, 0, 1, 9401, -89.900, 0.000, 49.200, 0.100, 0.100, -3.000, 0.0, , , , , , 97, , , 63, 63, 63
38.6884587, -120.4165683, 9.800, 10:56:35.086, 15, 0.10, 0.54, 98, 1.000, 2.200, 49.200, 1527, 100, 96, 16, 21908, -25878, 5325, 5434, 14, 14, 1528394195.086, 97, 0, 1024, 1024, 1024, 1024, 0, 6, 3631, 3627, 3650, 3645, 3657, 3630, 0, 1, 9502, -89.900, 0.000, 49.200, 0.000, 0.100, -3.000, 0.0, , , , , , 97, , , 63, 63, 63
38.6884591, -120.4165681, 10.500, 10:56:35.201, 16, 0.10, 0.57, 98, 0.900, 2.500, 49.000, 1527, 100, 96, 16, 22231, -21969, 5325, 5434, 14, 14, 1528394195.202, 6, 0, 1024, 1024, 1024, 1024, 0, 6, 3631, 3627, 3650, 3645, 3657, 3630, 0, 1, 9617, -89.900, 0.000, 49.200, 0.000, 0.100, -3.000, 0.0, , , , , , 97, , , 63, 63, 63
38.6884596, -120.4165680, 11.100, 10:56:35.286, 17, 0.00, 0.60, 98, 1.000, 2.400, 49.100, 1527, 100, 96, 16, 22231, -21969, 5325, 5434, 14, 14, 1528394195.286, 44, 0, 1024, 1024, 1024, 1024, 0, 6, 3694, 3691, 3707, 3714, 3739, 3704, 0, 1, 9701, -89.900, 0.000, 49.200, 0.000, 0.000, -2.900, 0.0, , , , , , 97, , , 63, 63, 63
38.6884599, -120.4165680, 11.700, 10:56:35.386, 16, 0.00, 0.64, 98, 1.400, 2.200, 49.200, 1527, 100, 96, 16, 22231, -21969, 5325, 5434, 14, 14, 1528394195.386, 20, 0, 1024, 1024, 1024, 1024, 0, 6, 3694, 3691, 3707, 3714, 3739, 3704, 0, 1, 9801, -89.900, 0.000, 49.200, 0.000, 0.000, -2.900, 0.0, , , , , , 97, , , 63, 63, 63
38.6884601, -120.4165680, 12.000, 10:56:35.486, 15, 0.00, 0.65, 98, 1.500, 2.100, 49.400, 1527, 100, 96, 16, 22231, -21969, 5325, 5434, 14, 14, 1528394195.486, 57, 0, 1024, 1024, 1024, 1024, 0, 6, 3694, 3691, 3707, 3714, 3739, 3704, 0, 1, 9901, -89.900, 0.000, 49.200, 0.000, 0.000, -2.900, 0.0, , , , , , 97, , , 63, 63, 63
38.6884603, -120.4165681, 12.300, 10:56:35.585, 15, 0.00, 0.67, 98, 1.700, 2.000, 49.500, 1527, 100, 96, 16, 22231, -21969, 5325, 5434, 14, 14, 1528394195.586, 84, 0, 1024, 1024, 1024, 1024, 0, 6, 3694, 3691, 3707, 3714, 3739, 3704, 0, 1, 10001, -89.900, 0.000, 49.200, 0.000, 0.000, -2.900, 0.0, , , , , , 97, , , 63, 63, 63
38.6884605, -120.4165682, 12.900, 10:56:35.686, 16, 0.00, 0.70, 98, 2.000, 1.700, 49.800, 1527, 100, 100, 16, 22231, -21969, 5325, 5434, 14, 14, 1528394195.686, 23, 0, 1024, 1024, 1024, 1024, 0, 6, 3694, 3691, 3707, 3714, 3739, 3704, 0, 1, 10101, -89.900, 0.000, 49.200, 0.000, 0.000, -2.900, 0.0, , , , , , 97, , , 63, 63, 63
38.6884605, -120.4165682, 13.200, 10:56:35.786, 16, 0.00, 0.70, 98, 1.900, 1.500, 49.900, 1527, 100, 100, 16, 22231, -21969, 5325, 5434, 14, 14, 1528394195.786, 39, 0, 1024, 1024, 1024, 1024, 0, 6, 3694, 3691, 3707, 3714, 3739, 3704, 0, 1, 10201, -89.900, 0.000, 49.200, 0.000, 0.000, -2.900, 0.0, , , , , , 97, , , 63, 63, 63
38.6884605, -120.4165683, 13.500, 10:56:35.885, 16, 0.00, 0.71, 98, 1.700, 1.500, 49.900, 1527, 100, 100, 16, 22231, -21969, 5325, 5434, 14, 14, 1528394195.885, 6, 0, 1024, 1024, 1024, 1024, 0, 6, 3694, 3691, 3707, 3714, 3739, 3704, 0, 1, 10300, -89.900, 0.000, 49.200, 0.000, 0.000, -2.900, 0.0, , , , , , 97, , , 63, 63, 63
38.6884606, -120.4165683, 13.800, 10:56:35.986, 17, 0.00, 0.71, 98, 1.600, 1.400, 49.800, 1527, 100, 100, 16, 22395, -18968, 5325, 5434, 14, 14, 1528394195.986, 21, 0, 1024, 1024, 1024, 1024, 0, 6, 3718, 3714, 3738, 3741, 3767, 3726, 0, 1, 10401, -90.000, 0.000, 49.200, 0.000, 0.000, -2.900, 0.0, , , , , , 97, , , 63, 63, 63
38.6884606, -120.4165684, 14.100, 10:56:36.086, 17, 0.00, 0.71, 98, 1.400, 1.300, 49.700, 1527, 100, 100, 16, 22395, -18968, 5325, 5434, 14, 14, 1528394196.086, 28, 0, 1024, 1024, 1024, 1024, 0, 6, 3718, 3714, 3738, 3741, 3767, 3726, 0, 1, 10501, -90.000, 0.000, 49.200, 0.000, 0.000, -3.000, 0.0, , , , , , 97, , , 63, 63, 63
38.6884606, -120.4165684, 14.100, 10:56:36.185, 17, 0.00, 0.71, 98, 1.400, 1.300, 49.700, 1527, 100, 100, 16, 22395, -18968, 5325, 5434, 14, 14, 1528394196.186, 128, 0, 1024, 1024, 1024, 1024, 0, 6, 3718, 3714, 3738, 3741, 3767, 3726, 0, 1, 10601, -90.000, 0.000, 49.200, 0.000, 0.000, -3.000, 0.0, , , , , , 97, , , 63, 63, 63
38.6884606, -120.4165684, 14.400, 10:56:36.285, 17, 0.00, 0.71, 98, 1.300, 1.200, 49.500, 1527, 100, 100, 16, 22395, -18968, 5325, 5434, 14, 14, 1528394196.286, 74, 0, 1024, 1024, 1024, 1024, 0, 6, 3718, 3714, 3738, 3741, 3767, 3726, 0, 1, 10701, -90.000, 0.000, 49.200, 0.000, 0.000, -2.900, 0.0, , , , , , 97, , , 63, 63, 63
38.6884605, -120.4165684, 14.600, 10:56:36.385, 17, 0.00, 0.71, 98, 1.200, 1.100, 49.300, 1527, 100, 100, 16, 22395, -18968, 5325, 5434, 14, 14, 1528394196.386, 84, 0, 1024, 1024, 1024, 1024, 0, 6, 3718, 3714, 3738, 3741, 3767, 3726, 0, 1, 10801, -90.000, 0.000, 49.200, 0.000, 0.000, -2.900, 0.0, , , , , , 97, , , 63, 63, 63
38.6884604, -120.4165684, 14.900, 10:56:36.485, 18, 0.10, 0.70, 98, 1.100, 1.000, 49.200, 1527, 100, 100, 16, 22395, -18968, 5325, 5434, 14, 14, 1528394196.486, 86, 0, 1024, 1024, 1024, 1024, 0, 6, 3718, 3714, 3738, 3741, 3767, 3726, 0, 1, 10901, -90.000, 0.000, 49.200, -0.100, 0.000, -2.900, 0.0, , , , , , 97, , , 63, 63, 63
38.6884604, -120.4165685, 15.200, 10:56:36.585, 18, 0.00, 0.70, 98, 1.000, 1.000, 49.200, 1527, 100, 99, 16, 22395, -18968, 5325, 5434, 14, 14, 1528394196.586, 87, 0, 1024, 1024, 1024, 1024, 0, 6, 3718, 3714, 3738, 3741, 3767, 3726, 0, 1, 11001, -90.000, 0.000, 49.200, 0.000, 0.000, -2.900, 0.0, , , , , , 97, , , 63, 63, 63
38.6884604, -120.4165685, 15.500, 10:56:36.685, 17, 0.00, 0.70, 98, 0.900, 1.100, 49.200, 1527, 100, 99, 16, 22395, -18968, 5325, 5434, 14, 14, 1528394196.686, 78, 0, 1024, 1024, 1024, 1024, 0, 6, 3718, 3714, 3738, 3741, 3767, 3726, 0, 1, 11101, -89.900, 0.000, 49.200, 0.000, 0.000, -2.900, 0.0, , , , , , 97, , , 63, 63, 63
38.6884603, -120.4165685, 15.800, 10:56:36.785, 17, 0.10, 0.69, 98, 0.900, 1.000, 49.200, 1527, 100, 99, 16, 22395, -18968, 5325, 5434, 14, 14, 1528394196.786, 86, 0, 1024, 1024, 1024, 1024, 0, 6, 3718, 3714, 3738, 3741, 3767, 3726, 0, 1, 11201, -90.000, 0.000, 49.200, -0.100, 0.000, -2.900, 0.0, , , , , , 97, , , 63, 63, 63
38.6884602, -120.4165686, 16.100, 10:56:36.885, 17, 0.10, 0.69, 98, 0.800, 0.900, 49.300, 1527, 100, 99, 16, 22395, -18968, 5325, 5434, 14, 14, 1528394196.886, 52, 0, 1024, 1024, 1024, 1024, 0, 6, 3718, 3714, 3738, 3741, 3767, 3726, 0, 1, 11301, -90.000, 0.000, 49.200, -0.100, 0.000, -2.900, 0.0, , , , , , 97, , , 63, 63, 63
38.6884601, -120.4165686, 16.400, 10:56:36.985, 17, 0.10, 0.68, 98, 0.800, 0.800, 49.400, 1527, 100, 99, 16, 22307, -20335, 5325, 5434, 14, 14, 1528394196.986, 22, 0, 1024, 1024, 1024, 1024, 0, 6, 3718, 3714, 3738, 3741, 3767, 3726, 0, 1, 11401, -90.000, 0.000, 49.200, -0.100, 0.000, -2.900, 0.0, , , , , , 97, , , 63, 63, 63
38.6884601, -120.4165686, 16.700, 10:56:37.085, 17, 0.10, 0.68, 98, 0.800, 0.800, 49.400, 1527, 100, 99, 16, 22307, -20335, 5325, 5434, 14, 14, 1528394197.086, 73, 0, 1024, 1024, 1024, 1024, 0, 6, 3718, 3714, 3738, 3741, 3767, 3726, 0, 1, 11501, -90.000, 0.000, 49.200, -0.100, 0.000, -2.900, 0.0, , , , , , 97, , , 63, 63, 63
38.6884598, -120.4165688, 17.300, 10:56:37.185, 17, 0.00, 0.67, 98, 1.000, 0.400, 49.600, 1527, 100, 99, 16, 22307, -20335, 5325, 5434, 14, 14, 1528394197.185, 16, 0, 1024, 1024, 1024, 1024, 0, 6, 3695, 3697, 3713, 3725, 3741, 3710, 0, 1, 11601, -90.000, 0.000, 49.200, 0.000, 0.000, -3.000, 0.0, , , , , , 97, , , 63, 63, 63
38.6884598, -120.4165689, 17.600, 10:56:37.285, 17, 0.00, 0.66, 98, 1.000, 0.300, 49.600, 1527, 100, 99, 16, 22307, -20335, 5325, 5434, 14, 14, 1528394197.286, 65, 0, 1024, 1024, 1024, 1024, 0, 6, 3695, 3697, 3713, 3725, 3741, 3710, 0, 1, 11701, -90.000, 0.000, 49.200, 0.000, 0.000, -3.000, 0.0, , , , , , 97, , , 63, 63, 63
38.6884597, -120.4165689, 17.900, 10:56:37.385, 18, 0.00, 0.65, 98, 0.900, 0.300, 49.600, 1527, 100, 99, 16, 22307, -20335, 5325, 5434, 14, 14, 1528394197.386, 39, 0, 1024, 1024, 1024, 1024, 0, 6, 3695, 3697, 3713, 3725, 3741, 3710, 0, 1, 11801, -90.000, 0.000, 49.200, 0.000, 0.000, -3.000, 0.0, , , , , , 97, , , 63, 63, 63
38.6884596, -120.4165689, 18.200, 10:56:37.485, 18, 0.00, 0.65, 98, 0.800, 0.400, 49.700, 1527, 100, 99, 16, 22307, -20335, 5325, 5434, 14, 14, 1528394197.486, 33, 0, 1024, 1024, 1024, 1024, 0, 6, 3695, 3697, 3713, 3725, 3741, 3710, 0, 1, 11901, -90.000, 0.000, 49.200, 0.000, 0.000, -2.900, 0.0, , , , , , 97, , , 63, 63, 63
38.6884595, -120.4165690, 18.500, 10:56:37.585, 17, 0.00, 0.64, 98, 0.700, 0.400, 49.700, 1527, 100, 97, 16, 22307, -20335, 5325, 5434, 14, 14, 1528394197.586, 18, 0, 1024, 1024, 1024, 1024, 0, 6, 3695, 3697, 3713, 3725, 3741, 3710, 0, 1, 12001, -90.000, 0.000, 49.200, 0.000, 0.000, -3.000, 0.0, , , , , , 97, , , 63, 63, 63
38.6884594, -120.4165690, 18.800, 10:56:37.685, 17, 0.00, 0.64, 98, 0.600, 0.400, 49.700, 1527, 100, 97, 16, 22307, -20335, 5325, 5434, 14, 14, 1528394197.686, 33, 0, 1024, 1024, 1024, 1024, 0, 6, 3695, 3697, 3713, 3725, 3741, 3710, 0, 1, 12101, -90.000, 0.000, 49.200, 0.000, 0.000, -3.000, 0.0, , , , , , 97, , , 63, 63, 63
38.6884594, -120.4165690, 19.100, 10:56:37.786, 16, 0.00, 0.63, 98, 0.500, 0.400, 49.600, 1527, 100, 97, 16, 22307, -20335, 5325, 5434, 14, 14, 1528394197.786, 40, 0, 1024, 1024, 1024, 1024, 0, 6, 3695, 3697, 3713, 3725, 3741, 3710, 0, 1, 12201, -90.000, 0.000, 49.200, 0.000, 0.000, -3.000, 0.0, , , , , , 97, , , 63, 63, 63
38.6884593, -120.4165691, 19.400, 10:56:37.885, 16, 0.00, 0.63, 98, 0.700, 0.300, 49.500, 1527, 100, 97, 16, 22307, -20335, 5325, 5434, 14, 14, 1528394197.886, 24, 0, 1024, 1024, 1024, 1024, 0, 6, 3695, 3697, 3713, 3725, 3741, 3710, 0, 1, 12301, -90.000, 0.000, 49.200, 0.000, 0.000, -3.000, 0.0, , , , , , 97, , , 63, 63, 63
38.6884592, -120.4165692, 19.700, 10:56:37.985, 17, 0.00, 0.63, 98, 0.900, 0.100, 49.400, 1527, 100, 97, 16, 22238, -20026, 5325, 5434, 14, 14, 1528394197.986, 21, 0, 1024, 1024, 1024, 1024, 0, 6, 3695, 3697, 3713, 3725, 3741, 3710, 0, 1, 12401, -90.000, 0.000, 49.200, 0.000, 0.000, -3.000, 0.0, , , , , , 97, , , 63, 63, 63
38.6884591, -120.4165692, 20.100, 10:56:38.097, 17, 0.00, 0.62, 98, 1.000, 0.000, 49.200, 1527, 100, 98, 16, 22238, -20026, 5325, 5434, 14, 14, 1528394198.099, 17, 0, 1024, 1024, 1024, 1024, 0, 6, 3691, 3691, 3702, 3709, 3739, 3695, 0, 1, 12514, -90.000, 0.000, 49.200, 0.000, 0.000, -3.000, 0.0, , , , , , 97, , , 63, 63, 63
38.6884591, -120.4165692, 20.100, 10:56:38.185, 17, 0.00, 0.62, 98, 1.000, 0.000, 49.200, 1527, 100, 98, 16, 22238, -20026, 5325, 5434, 14, 14, 1528394198.186, 104, 0, 1024, 1024, 1024, 1024, 0, 6, 3691, 3691, 3702, 3709, 3739, 3695, 0, 1, 12601, -90.000, 0.000, 49.200, 0.000, 0.000, -3.000, 0.0, , , , , , 97, , , 63, 63, 63
38.6884590, -120.4165693, 20.700, 10:56:38.288, 18, 0.00, 0.62, 98, 0.800, 0.000, 49.100, 1527, 100, 98, 16, 22238, -20026, 5325, 5434, 14, 14, 1528394198.288, 5, 0, 1024, 1024, 1024, 1024, 0, 6, 3691, 3691, 3702, 3709, 3739, 3695, 0, 1, 12703, -90.000, 0.000, 49.200, 0.000, 0.000, -3.000, 0.0, , , , , , 97, , , 63, 63, 63
38.6884590, -120.4165693, 20.700, 10:56:38.385, 18, 0.00, 0.62, 98, 0.800, 0.000, 49.100, 1527, 100, 98, 16, 22238, -20026, 5325, 5434, 14, 14, 1528394198.386, 103, 0, 1024, 1024, 1024, 1024, 0, 6, 3691, 3691, 3702, 3709, 3739, 3695, 0, 1, 12801, -90.000, 0.000, 49.200, 0.000, 0.000, -3.000, 0.0, , , , , , 97, , , 63, 63, 63
38.6884589, -120.4165692, 21.300, 10:56:38.492, 18, 0.00, 0.61, 98, 1.000, 0.200, 49.300, 1527, 100, 98, 16, 22238, -20026, 5325, 5434, 14, 14, 1528394198.494, 12, 0, 1024, 1024, 1024, 1024, 0, 6, 3691, 3691, 3702, 3709, 3739, 3695, 0, 1, 12909, -90.000, 0.000, 49.200, 0.000, 0.000, -2.900, 0.0, , , , , , 97, , , 63, 63, 63
38.6884589, -120.4165692, 21.600, 10:56:38.585, 17, 0.00, 0.60, 98, 1.200, 0.200, 49.400, 1527, 100, 99, 16, 22238, -20026, 5325, 5434, 14, 14, 1528394198.585, 10, 0, 1024, 1024, 1024, 1024, 0, 6, 3691, 3691, 3702, 3709, 3739, 3695, 0, 1, 13000, -90.000, 0.000, 49.200, 0.000, 0.000, -2.900, 0.0, , , , , , 97, , , 63, 63, 63
38.6884589, -120.4165692, 21.600, 10:56:38.685, 17, 0.00, 0.60, 98, 1.200, 0.200, 49.400, 1527, 100, 99, 16, 22238, -20026, 5325, 5434, 14, 14, 1528394198.686, 111, 0, 1024, 1024, 1024, 1024, 0, 6, 3691, 3691, 3702, 3709, 3739, 3695, 0, 1, 13101, -90.000, 0.000, 49.200, 0.000, 0.000, -2.900, 0.0, , , , , , 97, , , 63, 63, 63
38.6884589, -120.4165692, 22.200, 10:56:38.790, 17, 0.00, 0.60, 98, 1.400, 0.200, 49.600, 1527, 100, 99, 16, 22238, -20026, 5325, 5434, 14, 14, 1528394198.791, 6, 0, 1024, 1024, 1024, 1024, 0, 6, 3691, 3691, 3702, 3709, 3739, 3695, 0, 1, 13206, -90.000, 0.000, 49.200, 0.000, 0.000, -3.000, 0.0, , , , , , 97, , , 63, 63, 63
38.6884589, -120.4165692, 22.200, 10:56:38.885, 17, 0.00, 0.60, 98, 1.400, 0.200, 49.600, 1527, 100, 99, 16, 22238, -20026, 5325, 5434, 14, 14, 1528394198.886, 102, 0, 1024, 1024, 1024, 1024, 0, 6, 3691, 3691, 3702, 3709, 3739, 3695, 0, 1, 13301, -90.000, 0.000, 49.200, 0.000, 0.000, -3.000, 0.0, , , , , , 97, , , 63, 63, 63
38.6884589, -120.4165693, 22.500, 10:56:38.985, 17, 0.00, 0.61, 98, 1.700, 0.400, 49.600, 1527, 100, 99, 16, 22272, -19494, 5325, 5434, 14, 14, 1528394198.986, 96, 0, 1024, 1024, 1024, 1024, 0, 6, 3691, 3691, 3702, 3709, 3739, 3695, 0, 1, 13401, -90.000, 0.000, 49.200, 0.000, 0.000, -3.000, 0.0, , , , , , 97, , , 63, 63, 63
38.6884589, -120.4165693, 22.800, 10:56:39.085, 17, 0.00, 0.61, 98, 1.700, 0.400, 49.600, 1527, 100, 100, 16, 22272, -19494, 5325, 5434, 14, 14, 1528394199.086, 44, 0, 1024, 1024, 1024, 1024, 0, 6, 3691, 3691, 3702, 3709, 3739, 3695, 0, 1, 13501, -89.900, 0.000, 49.200, 0.000, 0.000, -3.000, 0.0, , , , , , 97, , , 63, 63, 63
38.6884589, -120.4165693, 23.100, 10:56:39.185, 17, 0.00, 0.61, 98, 1.600, 0.400, 49.600, 1527, 100, 100, 16, 22272, -19494, 5325, 5434, 14, 14, 1528394199.186, 35, 0, 1024, 1024, 1024, 1024, 0, 6, 3691, 3691, 3702, 3709, 3739, 3695, 0, 1, 13601, -90.000, 0.000, 49.200, 0.000, 0.000, -3.000, 0.0, , , , , , 97, , , 63, 63, 63
38.6884589, -120.4165693, 23.400, 10:56:39.285, 17, 0.00, 0.61, 98, 1.500, 0.300, 49.500, 1527, 100, 100, 16, 22272, -19494, 5325, 5434, 14, 14, 1528394199.286, 86, 0, 1024, 1024, 1024, 1024, 0, 6, 3691, 3691, 3702, 3709, 3739, 3695, 0, 1, 13701, -90.000, 0.000, 49.200, 0.000, 0.000, -2.900, 0.0, , , , , , 97, , , 63, 63, 63
38.6884589, -120.4165693, 23.700, 10:56:39.385, 17, 0.00, 0.61, 98, 1.500, 0.400, 49.400, 1527, 100, 100, 16, 22272, -19494, 5325, 5434, 14, 14, 1528394199.386, 73, 0, 1024, 1024, 1024, 1024, 0, 6, 3691, 3691, 3702, 3709, 3739, 3695, 0, 1, 13801, -90.000, 0.000, 49.200, 0.000, 0.000, -3.000, 0.0, , , , , , 97, , , 63, 63, 63
38.6884588, -120.4165693, 24.000, 10:56:39.485, 18, 0.00, 0.60, 98, 1.500, 0.400, 49.300, 1527, 100, 100, 16, 22272, -19494, 5325, 5434, 14, 14, 1528394199.486, 79, 0, 1024, 1024, 1024, 1024, 0, 6, 3691, 3691, 3702, 3709, 3739, 3695, 0, 1, 13901, -90.000, 0.000, 49.200, 0.000, 0.000, -2.900, 0.0, , , , , , 97, , , 63, 63, 63
38.6884588, -120.4165692, 24.300, 10:56:39.585, 18, 0.00, 0.60, 98, 1.300, 0.300, 49.300, 1527, 100, 99, 16, 22272, -19494, 5325, 5434, 14, 14, 1528394199.586, 69, 0, 1024, 1024, 1024, 1024, 0, 6, 3691, 3691, 3702, 3709, 3739, 3695, 0, 1, 14001, -90.000, 0.000, 49.200, 0.000, 0.000, -2.900, 0.0, , , , , , 97, , , 63, 63, 63
38.6884588, -120.4165692, 24.600, 10:56:39.685, 18, 0.10, 0.60, 98, 1.100, 0.300, 49.200, 1527, 100, 99, 16, 22272, -19494, 5325, 5434, 14, 14, 1528394199.686, 38, 0, 1024, 1024, 1024, 1024, 0, 6, 3704, 3687, 3712, 3719, 3743, 3692, 0, 1, 14101, -90.000, 0.000, 49.200, 0.000, 0.100, -2.900, 0.0, , , , , , 97, , , 63, 63, 63
38.6884589, -120.4165690, 25.200, 10:56:39.785, 18, 0.10, 0.59, 98, 1.000, 0.800, 49.200, 1527, 100, 99, 16, 22272, -19494, 5325, 5434, 14, 14, 1528394199.786, 45, 0, 1024, 1024, 1024, 1024, 0, 6, 3704, 3687, 3712, 3719, 3743, 3692, 0, 1, 14201, -90.000, 0.000, 49.200, 0.000, 0.100, -2.900, 0.0, , , , , , 97, , , 63, 63, 63
38.6884589, -120.4165690, 25.500, 10:56:39.885, 18, 0.10, 0.59, 98, 1.100, 0.900, 49.200, 1527, 100, 99, 16, 22272, -19494, 5325, 5434, 14, 14, 1528394199.886, 50, 0, 1024, 1024, 1024, 1024, 0, 6, 3704, 3687, 3712, 3719, 3743, 3692, 0, 1, 14301, -89.900, 0.000, 49.200, 0.000, 0.100, -2.900, 0.0, , , , , , 97, , , 63, 63, 63
38.6884589, -120.4165689, 25.800, 10:56:39.985, 18, 0.10, 0.58, 98, 1.100, 0.900, 49.400, 1527, 100, 99, 16, 22272, -19494, 5325, 5434, 14, 14, 1528394199.986, 16, 0, 1024, 1024, 1024, 1024, 0, 6, 3704, 3687, 3712, 3719, 3743, 3692, 0, 1, 14401, -89.900, 0.000, 49.200, 0.000, 0.100, -2.900, 0.0, , , , , , 97, , , 63, 63, 63
38.6884589, -120.4165688, 26.100, 10:56:40.085, 18, 0.10, 0.58, 98, 0.900, 1.000, 49.500, 1527, 100, 98, 16, 22272, -19494, 5325, 5434, 14, 14, 1528394200.086, 36, 0, 1024, 1024, 1024, 1024, 0, 6, 3704, 3687, 3712, 3719, 3743, 3692, 0, 1, 14501, -89.900, 0.000, 49.200, 0.000, 0.100, -2.900, 0.0, , , , , , 97, , , 63, 63, 63
38.6884589, -120.4165688, 26.100, 10:56:40.185, 18, 0.10, 0.58, 98, 0.900, 1.000, 49.500, 1527, 100, 98, 16, 22272, -19494, 5325, 5434, 14, 14, 1528394200.186, 136, 0, 1024, 1024, 1024, 1024, 0, 6, 3704, 3687, 3712, 3719, 3743, 3692, 0, 1, 14601, -89.900, 0.000, 49.200, 0.000, 0.100, -2.900, 0.0, , , , , , 97, , , 63, 63, 63
38.6884589, -120.4165687, 26.700, 10:56:40.285, 18, 0.10, 0.58, 98, 0.900, 1.000, 49.800, 1527, 100, 98, 16, 22272, -19494, 5325, 5434, 14, 14, 1528394200.286, 46, 0, 1024, 1024, 1024, 1024, 0, 6, 3704, 3687, 3712, 3719, 3743, 3692, 0, 1, 14701, -89.900, 0.000, 49.200, 0.000, 0.100, -2.800, 0.0, , , , , , 97, , , 63, 63, 63
38.6884589, -120.4165687, 27.000, 10:56:40.386, 18, 0.10, 0.58, 98, 0.900, 1.000, 49.800, 1527, 100, 98, 16, 22272, -19494, 5325, 5434, 14, 14, 1528394200.386, 22, 0, 1024, 1024, 1024, 1024, 0, 6, 3704, 3687, 3712, 3719, 3743, 3692, 0, 1, 14801, -90.000, 0.000, 49.200, 0.000, 0.100, -2.800, 0.0, , , , , , 97, , , 63, 63, 63
38.6884589, -120.4165686, 27.300, 10:56:40.487, 18, 0.00, 0.58, 97, 0.800, 1.000, 49.800, 1527, 100, 98, 16, 22296, -19016, 5270, 5434, 14, 14, 1528394200.487, 15, 0, 1024, 1024, 1024, 1024, 0, 6, 3704, 3687, 3712, 3719, 3743, 3692, 0, 1, 14903, -89.900, 0.000, 49.200, 0.000, 0.000, -2.900, 0.0, , , , , , 97, , , 63, 63, 63
38.6884590, -120.4165686, 27.600, 10:56:40.585, 18, 0.00, 0.58, 97, 0.700, 1.000, 49.800, 1527, 100, 95, 16, 22296, -19016, 5270, 5434, 14, 14, 1528394200.586, 21, 0, 1024, 1024, 1024, 1024, 0, 6, 3703, 3695, 3719, 3721, 3747, 3703, 0, 1, 15001, -89.900, 0.000, 49.200, 0.000, 0.000, -2.900, 0.0, , , , , , 97, , , 63, 63, 63
38.6884590, -120.4165686, 27.900, 10:56:40.686, 18, 0.00, 0.57, 97, 0.700, 1.000, 49.700, 1527, 100, 95, 16, 22296, -19016, 5270, 5434, 14, 14, 1528394200.686, 24, 0, 1024, 1024, 1024, 1024, 0, 6, 3703, 3695, 3719, 3721, 3747, 3703, 0, 1, 15101, -89.900, 0.000, 49.200, 0.000, 0.000, -2.900, 0.0, , , , , , 97, , , 63, 63, 63
38.6884590, -120.4165685, 28.200, 10:56:40.786, 18, 0.00, 0.57, 97, 0.800, 1.200, 49.600, 1527, 100, 95, 16, 22296, -19016, 5270, 5434, 14, 14, 1528394200.786, 19, 0, 1024, 1024, 1024, 1024, 0, 6, 3703, 3695, 3719, 3721, 3747, 3703, 0, 1, 15201, -89.900, 0.000, 49.200, 0.000, 0.000, -2.800, 0.0, , , , , , 97, , , 63, 63, 63
38.6884590, -120.4165685, 28.500, 10:56:40.886, 18, 0.00, 0.57, 97, 0.700, 1.300, 49.500, 1527, 100, 95, 16, 22296, -19016, 5270, 5434, 14, 14, 1528394200.886, 24, 0, 1024, 1024, 1024, 1024, 0, 6, 3703, 3695, 3719, 3721, 3747, 3703, 0, 1, 15301, -89.900, 0.000, 49.200, 0.000, 0.000, -2.900, 0.0, , , , , , 97, , , 63, 63, 63
38.6884590, -120.4165685, 28.800, 10:56:40.985, 18, 0.00, 0.57, 97, 0.800, 1.300, 49.300, 1527, 100, 93, 16, 22296, -19016, 5270, 5434, 14, 14, 1528394200.985, 10, 0, 1024, 1024, 1024, 1024, 0, 6, 3703, 3695, 3719, 3721, 3747, 3703, 0, 1, 15400, -89.900, 0.000, 49.200, 0.000, 0.000, -2.900, 0.0, , , , , , 97, , , 63, 63, 63
38.6884590, -120.4165685, 28.800, 10:56:41.086, 18, 0.00, 0.57, 97, 0.800, 1.300, 49.300, 1527, 100, 93, 16, 22296, -19016, 5270, 5434, 14, 14, 1528394201.086, 111, 0, 1024, 1024, 1024, 1024, 0, 6, 3703, 3695, 3719, 3721, 3747, 3703, 0, 1, 15501, -89.900, 0.000, 49.200, 0.000, 0.000, -2.900, 0.0, , , , , , 97, , , 63, 63, 63
38.6884590, -120.4165684, 29.100, 10:56:41.185, 18, 0.00, 0.57, 97, 0.700, 1.400, 49.100, 1527, 100, 93, 16, 22296, -19016, 5270, 5434, 14, 14, 1528394201.186, 37, 0, 1024, 1024, 1024, 1024, 0, 6, 3703, 3695, 3719, 3721, 3747, 3703, 0, 1, 15601, -89.900, 0.000, 49.200, 0.000, 0.000, -2.900, 0.0, , , , , , 97, , , 63, 63, 63
38.6884590, -120.4165684, 29.400, 10:56:41.285, 18, 0.00, 0.57, 97, 0.700, 1.400, 48.900, 1527, 100, 93, 16, 22296, -19016, 5270, 5434, 14, 14, 1528394201.286, 73, 0, 1024, 1024, 1024, 1024, 0, 6, 3703, 3695, 3719, 3721, 3747, 3703, 0, 1, 15701, -89.900, 0.000, 49.200, 0.000, 0.000, -3.000, 0.0, , , , , , 97, , , 63, 63, 63
38.6884590, -120.4165684, 29.700, 10:56:41.385, 18, 0.00, 0.57, 97, 0.700, 1.200, 48.900, 1527, 100, 93, 16, 22296, -19016, 5270, 5434, 14, 14, 1528394201.386, 35, 0, 1024, 1024, 1024, 1024, 0, 6, 3703, 3695, 3719, 3721, 3747, 3703, 0, 1, 15801, -90.000, 0.000, 49.200, 0.000, 0.000, -2.900, 0.0, , , , , , 97, , , 63, 63, 63
38.6884590, -120.4165684, 30.000, 10:56:41.485, 18, 0.00, 0.57, 97, 0.700, 1.000, 48.800, 1527, 100, 93, 16, 22166, -19688, 5270, 5434, 14, 14, 1528394201.485, 55, 0, 1024, 1024, 1024, 1024, 0, 6, 3703, 3695, 3719, 3721, 3747, 3703, 0, 1, 15901, -90.000, 0.000, 49.200, 0.000, 0.000, -3.000, 0.0, , , , , , 97, , , 63, 63, 63
38.6884590, -120.4165685, 30.300, 10:56:41.586, 18, 0.00, 0.57, 97, 0.800, 0.700, 48.900, 1527, 100, 93, 16, 22166, -19688, 5270, 5434, 14, 14, 1528394201.587, 18, 0, 1024, 1024, 1024, 1024, 0, 6, 3671, 3671, 3688, 3702, 3717, 3685, 0, 1, 16002, -90.000, 0.000, 49.200, 0.000, 0.000, -2.900, 0.0, , , , , , 97, , , 63, 63, 63
38.6884590, -120.4165685, 30.600, 10:56:41.685, 18, 0.00, 0.57, 97, 0.700, 0.600, 48.900, 1527, 100, 93, 16, 22166, -19688, 5270, 5434, 14, 14, 1528394201.686, 17, 0, 1024, 1024, 1024, 1024, 0, 6, 3671, 3671, 3688, 3702, 3717, 3685, 0, 1, 16101, -90.000, 0.000, 49.200, 0.000, 0.000, -2.900, 0.0, , , , , , 97, , , 63, 63, 63
38.6884590, -120.4165685, 30.600, 10:56:41.785, 18, 0.00, 0.57, 97, 0.700, 0.600, 48.900, 1527, 100, 93, 16, 22166, -19688, 5270, 5434, 14, 14, 1528394201.786, 117, 0, 1024, 1024, 1024, 1024, 0, 6, 3671, 3671, 3688, 3702, 3717, 3685, 0, 1, 16201, -90.000, 0.000, 49.200, 0.000, 0.000, -2.900, 0.0, , , , , , 97, , , 63, 63, 63
38.6884591, -120.4165685, 30.900, 10:56:41.885, 18, 0.00, 0.58, 97, 0.500, 0.400, 49.000, 1527, 100, 93, 16, 22166, -19688, 5270, 5434, 14, 14, 1528394201.886, 88, 0, 1024, 1024, 1024, 1024, 0, 6, 3671, 3671, 3688, 3702, 3717, 3685, 0, 1, 16301, -90.000, 0.000, 49.200, 0.000, 0.000, -3.000, 0.0, , , , , , 97, , , 63, 63, 63
38.6884591, -120.4165686, 31.200, 10:56:41.985, 18, 0.00, 0.59, 97, 0.900, 0.500, 49.200, 1527, 100, 93, 16, 22166, -19688, 5270, 5434, 14, 14, 1528394201.986, 58, 0, 1024, 1024, 1024, 1024, 0, 6, 3671, 3671, 3688, 3702, 3717, 3685, 0, 1, 16401, -89.900, 0.000, 49.200, 0.000, 0.000, -3.000, 0.0, , , , , , 97, , , 63, 63, 63
38.6884592, -120.4165688, 31.800, 10:56:42.085, 18, 0.00, 0.61, 97, 1.800, 0.900, 49.400, 1527, 100, 93, 16, 22166, -19688, 5270, 5434, 14, 14, 1528394202.085, 62, 0, 1024, 1024, 1024, 1024, 0, 6, 3671, 3671, 3688, 3702, 3717, 3685, 0, 1, 16501, -89.900, 0.000, 49.200, 0.000, 0.000, -3.000, 0.0, , , , , , 97, , , 63, 63, 63
38.6884593, -120.4165688, 32.100, 10:56:42.208, 18, 0.00, 0.62, 97, 2.100, 0.900, 49.500, 1527, 100, 96, 16, 22166, -19688, 5270, 5434, 14, 14, 1528394202.210, 6, 0, 1024, 1024, 1024, 1024, 0, 6, 3671, 3671, 3688, 3702, 3717, 3685, 0, 1, 16625, -89.900, 0.000, 49.200, 0.000, 0.000, -3.000, 0.0, , , , , , 97, , , 63, 63, 63
38.6884593, -120.4165688, 32.100, 10:56:42.285, 18, 0.00, 0.62, 97, 2.100, 0.900, 49.500, 1527, 100, 96, 16, 22166, -19688, 5270, 5434, 14, 14, 1528394202.286, 82, 0, 1024, 1024, 1024, 1024, 0, 6, 3671, 3671, 3688, 3702, 3717, 3685, 0, 1, 16701, -89.900, 0.000, 49.200, 0.000, 0.000, -3.000, 0.0, , , , , , 97, , , 63, 63, 63
38.6884594, -120.4165689, 32.500, 10:56:42.385, 18, 0.00, 0.63, 97, 2.200, 0.800, 49.600, 1527, 100, 96, 16, 22166, -19688, 5270, 5434, 14, 14, 1528394202.387, 35, 0, 1024, 1024, 1024, 1024, 0, 6, 3671, 3671, 3688, 3702, 3717, 3685, 0, 1, 16802, -90.000, 0.000, 49.200, 0.000, 0.000, -3.000, 0.0, , , , , , 97, , , 63, 63, 63
38.6884594, -120.4165690, 32.800, 10:56:42.485, 18, 0.00, 0.64, 97, 2.300, 0.700, 49.600, 1527, 100, 96, 16, 22166, -19688, 5270, 5434, 14, 14, 1528394202.486, 49, 0, 1024, 1024, 1024, 1024, 0, 6, 3671, 3671, 3688, 3702, 3717, 3685, 0, 1, 16901, -90.000, 0.000, 49.200, 0.000, 0.000, -2.900, 0.0, , , , , , 97, , , 63, 63, 63
38.6884595, -120.4165691, 33.100, 10:56:42.586, 18, 0.00, 0.65, 97, 2.600, 0.600, 49.600, 1527, 100, 96, 16, 22166, -19688, 5270, 5434, 14, 14, 1528394202.586, 83, 0, 1024, 1024, 1024, 1024, 0, 6, 3671, 3671, 3688, 3702, 3717, 3685, 0, 1, 17001, -90.000, 0.000, 49.200, 0.000, 0.000, -2.900, 0.0, , , , , , 97, , , 63, 63, 63
38.6884596, -120.4165691, 33.300, 10:56:42.685, 18, 0.00, 0.66, 97, 2.900, 0.600, 49.500, 1527, 100, 96, 16, 22113, -20349, 5270, 5434, 14, 14, 1528394202.686, 58, 0, 1024, 1024, 1024, 1024, 0, 6, 3679, 3673, 3687, 3694, 3710, 3689, 0, 1, 17101, -90.000, 0.000, 49.200, 0.000, 0.000, -2.900, 0.0, , , , , , 97, , , 63, 63, 63
38.6884596, -120.4165692, 33.600, 10:56:42.785, 19, 0.00, 0.67, 97, 3.000, 0.600, 49.300, 1527, 100, 99, 16, 22113, -20349, 5270, 5434, 14, 14, 1528394202.786, 46, 0, 1024, 1024, 1024, 1024, 0, 6, 3679, 3673, 3687, 3694, 3710, 3689, 0, 1, 17201, -90.000, 0.000, 49.200, 0.000, 0.000, -2.900, 0.0, , , , , , 97, , , 63, 63, 63
38.6884596, -120.4165692, 33.600, 10:56:42.885, 19, 0.00, 0.67, 97, 3.000, 0.600, 49.300, 1527, 100, 99, 16, 22113, -20349, 5270, 5434, 14, 14, 1528394202.886, 146, 0, 1024, 1024, 1024, 1024, 0, 6, 3679, 3673, 3687, 3694, 3710, 3689, 0, 1, 17301, -90.000, 0.000, 49.200, 0.000, 0.000, -2.900, 0.0, , , , , , 97, , , 63, 63, 63
38.6884598, -120.4165693, 34.200, 10:56:42.985, 19, 0.00, 0.68, 97, 2.400, 0.300, 49.400, 1527, 100, 99, 16, 22113, -20349, 5270, 5434, 14, 14, 1528394202.986, 18, 0, 1024, 1024, 1024, 1024, 0, 6, 3679, 3673, 3687, 3694, 3710, 3689, 0, 1, 17401, -90.000, 0.000, 49.200, 0.000, 0.000, -2.900, 0.0, , , , , , 97, , , 63, 63, 63
38.6884598, -120.4165693, 34.200, 10:56:43.085, 19, 0.00, 0.68, 97, 2.400, 0.300, 49.400, 1527, 100, 99, 16, 22113, -20349, 5270, 5434, 14, 14, 1528394203.086, 118, 0, 1024, 1024, 1024, 1024, 0, 6, 3679, 3673, 3687, 3694, 3710, 3689, 0, 1, 17501, -90.000, 0.000, 49.200, 0.000, 0.000, -2.900, 0.0, , , , , , 97, , , 63, 63, 63
38.6884598, -120.4165693, 34.500, 10:56:43.185, 19, 0.00, 0.69, 97, 2.500, 0.500, 49.600, 1527, 100, 99, 16, 22113, -20349, 5270, 5434, 14, 14, 1528394203.186, 58, 0, 1024, 1024, 1024, 1024, 0, 6, 3679, 3673, 3687, 3694, 3710, 3689, 0, 1, 17601, -89.900, 0.000, 49.200, 0.000, 0.000, -2.900, 0.0, , , , , , 97, , , 63, 63, 63
38.6884599, -120.4165694, 34.800, 10:56:43.286, 19, 0.00, 0.70, 97, 2.800, 0.800, 49.800, 1527, 100, 99, 16, 22113, -20349, 5270, 5434, 14, 14, 1528394203.286, 54, 0, 1024, 1024, 1024, 1024, 0, 6, 3679, 3673, 3687, 3694, 3710, 3689, 0, 1, 17701, -89.900, 0.000, 49.200, 0.000, 0.000, -2.900, 0.0, , , , , , 97, , , 63, 63, 63
38.6884600, -120.4165695, 35.400, 10:56:43.386, 19, 0.00, 0.71, 97, 3.500, 1.000, 50.200, 1527, 100, 99, 16, 22113, -20349, 5270, 5434, 14, 14, 1528394203.386, 17, 0, 1024, 1024, 1024, 1024, 0, 6, 3679, 3673, 3687, 3694, 3710, 3689, 0, 1, 17801, -89.900, 0.000, 49.200, 0.000, 0.000, -2.800, 0.0, , , , , , 97, , , 63, 63, 63
38.6884600, -120.4165695, 35.700, 10:56:43.486, 19, 0.00, 0.71, 97, 3.400, 0.900, 50.200, 1527, 100, 99, 16, 22113, -20349, 5270, 5434, 14, 14, 1528394203.486, 56, 0, 1024, 1024, 1024, 1024, 0, 6, 3679, 3673, 3687, 3694, 3710, 3689, 0, 1, 17901, -89.900, 0.000, 49.200, 0.000, 0.000, -2.900, 0.0, , , , , , 97, , , 63, 63, 63
38.6884600, -120.4165694, 36.300, 10:56:43.593, 19, 0.00, 0.71, 97, 2.400, 0.900, 50.000, 1527, 100, 99, 16, 22238, -18978, 5270, 5434, 14, 14, 1528394203.594, 11, 0, 1024, 1024, 1024, 1024, 0, 6, 3679, 3673, 3687, 3694, 3710, 3689, 0, 1, 18009, -89.900, 0.000, 49.200, 0.000, 0.000, -2.800, 0.0, , , , , , 97, , , 63, 63, 63
38.6884599, -120.4165694, 36.600, 10:56:43.686, 19, 0.00, 0.70, 97, 1.900, 0.800, 50.000, 1527, 100, 99, 16, 22238, -18978, 5270, 5434, 14, 14, 1528394203.686, 41, 0, 1024, 1024, 1024, 1024, 0, 6, 3679, 3673, 3687, 3694, 3710, 3689, 0, 1, 18101, -89.900, 0.000, 49.200, 0.000, 0.000, -2.800, 0.0, , , , , , 97, , , 63, 63, 63
38.6884599, -120.4165694, 36.800, 10:56:43.786, 19, 0.00, 0.70, 97, 1.700, 0.400, 49.900, 1527, 100, 99, 16, 22238, -18978, 5270, 5434, 14, 14, 1528394203.786, 71, 0, 1024, 1024, 1024, 1024, 0, 6, 3690, 3684, 3699, 3709, 3722, 3696, 0, 1, 18201, -90.000, 0.000, 49.200, 0.000, 0.000, -2.900, 0.0, , , , , , 97, , , 63, 63, 63
38.6884599, -120.4165694, 37.100, 10:56:43.886, 18, 0.00, 0.69, 97, 1.500, 0.400, 49.800, 1527, 100, 99, 16, 22238, -18978, 5270, 5434, 14, 14, 1528394203.886, 73, 0, 1024, 1024, 1024, 1024, 0, 6, 3690, 3684, 3699, 3709, 3722, 3696, 0, 1, 18301, -90.000, 0.000, 49.200, 0.000, 0.000, -2.900, 0.0, , , , , , 97, , , 63, 63, 63
38.6884598, -120.4165694, 37.400, 10:56:43.986, 18, 0.00, 0.69, 97, 1.500, 0.500, 49.700, 1527, 100, 99, 16, 22238, -18978, 5270, 5434, 14, 14, 1528394203.986, 76, 0, 1024, 1024, 1024, 1024, 0, 6, 3690, 3684, 3699, 3709, 3722, 3696, 0, 1, 18401, -90.000, 0.000, 49.200, 0.000, 0.000, -2.900, 0.0, , , , , , 97, , , 63, 63, 63
38.6884598, -120.4165694, 37.700, 10:56:44.086, 19, 0.00, 0.69, 97, 1.400, 0.500, 49.500, 1527, 100, 96, 16, 22238, -18978, 5270, 5434, 14, 14, 1528394204.086, 80, 0, 1024, 1024, 1024, 1024, 0, 6, 3690, 3684, 3699, 3709, 3722, 3696, 0, 1, 18501, -90.000, 0.000, 49.200, 0.000, 0.000, -3.000, 0.0, , , , , , 97, , , 63, 63, 63
38.6884598, -120.4165694, 38.000, 10:56:44.186, 19, 0.00, 0.69, 97, 1.700, 0.500, 49.300, 1527, 100, 96, 16, 22238, -18978, 5270, 5434, 14, 14, 1528394204.186, 41, 0, 1024, 1024, 1024, 1024, 0, 6, 3690, 3684, 3699, 3709, 3722, 3696, 0, 1, 18601, -90.000, 0.000, 49.200, 0.000, 0.000, -2.900, 0.0, , , , , , 97, , , 63, 63, 63
38.6884597, -120.4165693, 38.300, 10:56:44.286, 19, 0.00, 0.68, 97, 1.800, 0.500, 49.200, 1527, 100, 96, 16, 22238, -18978, 5270, 5434, 14, 14, 1528394204.286, 59, 0, 1024, 1024, 1024, 1024, 0, 6, 3690, 3684, 3699, 3709, 3722, 3696, 0, 1, 18701, -90.000, 0.000, 49.200, 0.000, 0.000, -3.000, 0.0, , , , , , 97, , , 63, 63, 63
38.6884597, -120.4165693, 38.600, 10:56:44.386, 19, 0.00, 0.68, 97, 1.800, 0.500, 49.000, 1527, 100, 96, 16, 22238, -18978, 5270, 5434, 14, 14, 1528394204.386, 45, 0, 1024, 1024, 1024, 1024, 0, 6, 3690, 3684, 3699, 3709, 3722, 3696, 0, 1, 18801, -90.000, 0.000, 49.200, 0.000, 0.000, -3.000, 0.0, , , , , , 97, , , 63, 63, 63
38.6884597, -120.4165693, 38.900, 10:56:44.486, 19, 0.00, 0.68, 97, 1.800, 0.500, 49.000, 1527, 100, 96, 16, 22140, -19436, 5270, 5434, 14, 14, 1528394204.486, 36, 0, 1024, 1024, 1024, 1024, 0, 6, 3690, 3684, 3699, 3709, 3722, 3696, 0, 1, 18901, -90.000, 0.000, 49.200, 0.000, 0.000, -3.000, 0.0, , , , , , 97, , , 63, 63, 63
38.6884597, -120.4165692, 39.500, 10:56:44.585, 19, 0.00, 0.68, 97, 1.800, 0.600, 49.100, 1527, 100, 95, 16, 22140, -19436, 5270, 5434, 14, 14, 1528394204.586, 25, 0, 1024, 1024, 1024, 1024, 0, 6, 3690, 3684, 3699, 3709, 3722, 3696, 0, 1, 19001, -89.900, 0.000, 49.200, 0.000, 0.000, -2.900, 0.0, , , , , , 97, , , 63, 63, 63
38.6884597, -120.4165692, 39.800, 10:56:44.686, 19, 0.00, 0.67, 97, 1.800, 0.800, 49.200, 1527, 100, 95, 16, 22140, -19436, 5270, 5434, 14, 14, 1528394204.686, 36, 0, 1024, 1024, 1024, 1024, 0, 6, 3690, 3684, 3699, 3709, 3722, 3696, 0, 1, 19101, -89.900, 0.000, 49.200, 0.000, 0.000, -3.000, 0.0, , , , , , 97, , , 63, 63, 63
38.6884597, -120.4165692, 40.100, 10:56:44.786, 18, 0.00, 0.67, 97, 1.800, 1.000, 49.300, 1527, 100, 95, 16, 22140, -19436, 5270, 5434, 14, 14, 1528394204.786, 39, 0, 1024, 1024, 1024, 1024, 0, 6, 3690, 3684, 3699, 3709, 3722, 3696, 0, 1, 19201, -89.900, 0.000, 49.200, 0.000, 0.000, -2.900, 0.0, , , , , , 97, , , 63, 63, 63
38.6884597, -120.4165691, 40.400, 10:56:44.886, 18, 0.00, 0.67, 97, 1.900, 1.000, 49.300, 1527, 100, 95, 16, 22140, -19436, 5270, 5434, 14, 14, 1528394204.887, 45, 0, 1024, 1024, 1024, 1024, 0, 6, 3690, 3684, 3699, 3709, 3722, 3696, 0, 1, 19302, -89.900, 0.000, 49.200, 0.000, 0.000, -2.900, 0.0, , , , , , 97, , , 63, 63, 63
38.6884598, -120.4165691, 40.700, 10:56:44.986, 18, 0.00, 0.67, 97, 2.000, 0.900, 49.300, 1527, 100, 95, 16, 22140, -19436, 5270, 5434, 14, 14, 1528394204.986, 22, 0, 1024, 1024, 1024, 1024, 0, 6, 3665, 3670, 3693, 3694, 3714, 3676, 0, 1, 19402, -90.000, 0.000, 49.200, 0.000, 0.000, -3.000, 0.0, , , , , , 97, , , 63, 63, 63
38.6884598, -120.4165691, 41.000, 10:56:45.090, 18, 0.00, 0.67, 97, 1.900, 0.800, 49.300, 1527, 100, 98, 16, 22140, -19436, 5270, 5434, 14, 14, 1528394205.090, 8, 0, 1024, 1024, 1024, 1024, 0, 6, 3665, 3670, 3693, 3694, 3714, 3676, 0, 1, 19505, -90.000, 0.000, 49.200, 0.000, 0.000, -2.900, 0.0, , , , , , 97, , , 63, 63, 63
38.6884597, -120.4165691, 41.300, 10:56:45.185, 18, 0.00, 0.67, 97, 1.900, 0.700, 49.300, 1527, 100, 98, 16, 22140, -19436, 5270, 5434, 14, 14, 1528394205.185, 11, 0, 1024, 1024, 1024, 1024, 0, 6, 3665, 3670, 3693, 3694, 3714, 3676, 0, 1, 19600, -90.000, 0.000, 49.200, 0.000, 0.000, -3.000, 0.0, , , , , , 97, , , 63, 63, 63
38.6884597, -120.4165691, 41.600, 10:56:45.286, 18, 0.00, 0.67, 97, 2.000, 0.500, 49.300, 1527, 100, 98, 16, 22140, -19436, 5270, 5434, 14, 14, 1528394205.286, 29, 0, 1024, 1024, 1024, 1024, 0, 6, 3665, 3670, 3693, 3694, 3714, 3676, 0, 1, 19701, -90.000, 0.000, 49.200, 0.000, 0.000, -3.000, 0.0, , , , , , 97, , , 63, 63, 63
38.6884597, -120.4165691, 41.900, 10:56:45.386, 18, 0.00, 0.67, 97, 2.100, 0.300, 49.300, 1527, 100, 98, 16, 22140, -19436, 5270, 5434, 14, 14, 1528394205.386, 28, 0, 1024, 1024, 1024, 1024, 0, 6, 3665, 3670, 3693, 3694, 3714, 3676, 0, 1, 19801, -90.000, 0.000, 49.200, 0.000, 0.000, -2.900, 0.0, , , , , , 97, , , 63, 63, 63
38.6884597, -120.4165690, 42.200, 10:56:45.486, 18, 0.00, 0.66, 97, 2.000, 0.100, 49.400, 1527, 100, 98, 17, 22140, -19436, 5270, 5434, 14, 14, 1528394205.486, 19, 0, 1024, 1024, 1024, 1024, 0, 6, 3665, 3670, 3693, 3694, 3714, 3676, 0, 1, 19902, -90.000, 0.000, 49.200, 0.000, 0.000, -3.000, 0.0, , , , , , 97, , , 63, 63, 63
38.6884597, -120.4165690, 42.600, 10:56:45.585, 18, 0.00, 0.66, 97, 2.100, 0.200, 49.500, 1527, 100, 98, 17, 22140, -19436, 5270, 5434, 14, 14, 1528394205.586, 12, 0, 1024, 1024, 1024, 1024, 0, 6, 3665, 3670, 3693, 3694, 3714, 3676, 0, 1, 20001, -90.000, 0.000, 49.200, 0.000, 0.000, -3.000, 0.0, , , , , , 97, , , 63, 63, 63
38.6884597, -120.4165690, 42.600, 10:56:45.686, 18, 0.00, 0.66, 97, 2.100, 0.200, 49.500, 1527, 100, 98, 17, 22140, -19436, 5270, 5434, 14, 14, 1528394205.686, 113, 0, 1024, 1024, 1024, 1024, 0, 6, 3665, 3670, 3693, 3694, 3714, 3676, 0, 1, 20102, -90.000, 0.000, 49.200, 0.000, 0.000, -3.000, 0.0, , , , , , 97, , , 63, 63, 63
38.6884597, -120.4165690, 42.900, 10:56:45.786, 18, 0.00, 0.66, 97, 2.000, 0.400, 49.500, 1527, 100, 98, 17, 22140, -19436, 5270, 5434, 14, 14, 1528394205.786, 93, 0, 1024, 1024, 1024, 1024, 0, 6, 3665, 3670, 3693, 3694, 3714, 3676, 0, 1, 20201, -89.900, 0.000, 49.200, 0.000, 0.000, -3.000, 0.0, , , , , , 97, , , 63, 63, 63
38.6884597, -120.4165689, 43.200, 10:56:45.886, 19, 0.00, 0.66, 97, 2.000, 0.600, 49.600, 1527, 100, 98, 17, 22140, -19436, 5270, 5434, 14, 14, 1528394205.886, 95, 0, 1024, 1024, 1024, 1024, 0, 6, 3665, 3670, 3693, 3694, 3714, 3676, 0, 1, 20301, -89.900, 0.000, 49.200, 0.000, 0.000, -2.900, 0.0, , , , , , 97, , , 63, 63, 63
38.6884597, -120.4165688, 43.500, 10:56:45.986, 19, 0.00, 0.65, 97, 1.800, 0.900, 49.600, 1527, 100, 98, 17, 22182, -19312, 5270, 5434, 14, 14, 1528394205.986, 96, 0, 1024, 1024, 1024, 1024, 0, 6, 3683, 3677, 3701, 3708, 3722, 3688, 0, 1, 20401, -89.900, 0.000, 49.200, 0.000, 0.000, -2.900, 0.0, , , , , , 97, , , 63, 63, 63
38.6884597, -120.4165687, 44.100, 10:56:46.114, 19, 0.00, 0.65, 97, 1.800, 1.300, 49.500, 1527, 100, 98, 17, 22182, -19312, 5270, 5434, 14, 14, 1528394206.115, 14, 0, 1024, 1024, 1024, 1024, 0, 6, 3683, 3677, 3701, 3708, 3722, 3688, 0, 1, 20530, -89.900, 0.000, 49.200, 0.000, 0.000, -2.900, 0.0, , , , , , 97, , , 63, 63, 63
38.6884597, -120.4165687, 44.100, 10:56:46.186, 19, 0.00, 0.65, 97, 1.800, 1.300, 49.500, 1527, 100, 98, 17, 22182, -19312, 5270, 5434, 14, 14, 1528394206.186, 86, 0, 1024, 1024, 1024, 1024, 0, 6, 3683, 3677, 3701, 3708, 3722, 3688, 0, 1, 20601, -89.900, 0.000, 49.200, 0.000, 0.000, -2.900, 0.0, , , , , , 97, , , 63, 63, 63
38.6884597, -120.4165686, 44.400, 10:56:46.286, 19, 0.00, 0.65, 97, 1.800, 1.200, 49.400, 1527, 100, 98, 17, 22182, -19312, 5270, 5434, 14, 14, 1528394206.287, 90, 0, 1024, 1024, 1024, 1024, 0, 6, 3683, 3677, 3701, 3708, 3722, 3688, 0, 1, 20702, -89.900, 0.000, 49.200, 0.000, 0.000, -2.900, 0.0, , , , , , 97, , , 63, 63, 63
38.6884597, -120.4165686, 44.700, 10:56:46.385, 19, 0.00, 0.64, 97, 1.700, 1.200, 49.200, 1527, 100, 98, 17, 22182, -19312, 5270, 5434, 14, 14, 1528394206.386, 86, 0, 1024, 1024, 1024, 1024, 0, 6, 3683, 3677, 3701, 3708, 3722, 3688, 0, 1, 20801, -89.900, 0.000, 49.200, 0.000, 0.000, -2.900, 0.0, , , , , , 97, , , 63, 63, 63
38.6884597, -120.4165686, 44.700, 10:56:46.486, 19, 0.00, 0.64, 97, 1.700, 1.200, 49.200, 1527, 100, 98, 17, 22182, -19312, 5270, 5434, 14, 14, 1528394206.486, 186, 0, 1024, 1024, 1024, 1024, 0, 6, 3683, 3677, 3701, 3708, 3722, 3688, 0, 1, 20901, -89.900, 0.000, 49.200, 0.000, 0.000, -2.900, 0.0, , , , , , 97, , , 63, 63, 63
38.6884597, -120.4165684, 45.300, 10:56:46.586, 19, 0.10, 0.64, 97, 1.500, 1.300, 49.000, 1527, 100, 98, 17, 22182, -19312, 5270, 5434, 14, 14, 1528394206.586, 72, 0, 1024, 1024, 1024, 1024, 0, 6, 3683, 3677, 3701, 3708, 3722, 3688, 0, 1, 21001, -89.900, 0.000, 49.200, 0.000, 0.100, -2.900, 0.0, , , , , , 97, , , 63, 63, 63
