Latitude, Longitude, Altitude (m), Time, Sats, Speed (m/s), Range (m), Battery (%), Roll (deg), Pitch (deg), Yaw (deg), Images, HD Signal (%), RC Signal (%), Battery Temp (C), Battery Voltage (mV), Battery Current (mA), Battery Energy (mAh), Battery Capacity (mAh), Battery Discharges, flyState, timestamp (Unix), LastUpdate (ms), radioChannel, Rc_elevator, Rc_aileron, Rc_throttle, Rc_rudder, Rc_gyro, Dronetype, Battery_Cell1 (mV), Battery_Cell2 (mV), Battery_Cell3 (mV), Battery_Cell4 (mV), Battery_Cell5 (mV), Battery_Cell6 (mV), Video, isFlying, elapsedTime (ms), gimbalPitch (deg), gimbalRoll (deg), gimbalYaw (deg), VelocityX (m/s), VelocityY (m/s), VelocityZ (m/s), GroundSmear (cm), App Version, Aircraft Name, Aircraft Firmware, Aircraft Serial Number, Battery Serial Number, Battery Lifetime (%), App_Tip, App_Warning, CurrentFlightStartingIndex, CurrentFlightLastVisitedWaypoint, PreviousFlightEndingWaypointIndex
38.7448358, -120.4088714, 0.000, 14:35:02.377, 10, 0.10, 0.08, 100, -0.400, -0.700, -36.800, 1293, 100, 100, 23, 25565, -3898, 5362, 5472, 12, 11, 1528407302.377, 72, 0, 1024, 1024, 1024, 1024, 0, 6, 4310, 4274, 4234, 4242, 4263, 4241, 0, 1, 3012, -90.000, 0.000, -38.800, 0.000, -0.100, -0.200, 0.0, MapPilot_2.8.1_04242018, Dendroctonus I, 1.3.1.00, 041DDC1887, 1058171200279, 97, DJI_0301.jpg, Starting Mission from Lat/Long: 38.74483/-120.40888 Camera: Zenmuse X3 - Overlap: 90/90 - Active Connection: No, 49, 49, 49
38.7448357, -120.4088716, 0.000, 14:35:02.465, 9, 0.10, 0.07, 100, 0.400, -0.300, -36.400, 1293, 100, 100, 23, 25565, -3898, 5362, 5472, 12, 11, 1528407302.466, 39, 0, 1024, 1024, 1024, 1024, 0, 6, 4310, 4274, 4234, 4242, 4263, 4241, 0, 1, 3101, -89.900, 0.000, -38.800, 0.000, -0.100, -0.300, 0.0, , , , , , 97, , , 49, 49, 49
38.7448357, -120.4088717, 0.000, 14:35:02.566, 9, 0.10, 0.06, 100, 0.500, 0.000, -36.500, 1293, 100, 100, 23, 25565, -3898, 5362, 5472, 12, 11, 1528407302.566, 41, 0, 1024, 1024, 1024, 1024, 0, 6, 4310, 4274, 4234, 4242, 4263, 4241, 0, 1, 3201, -89.900, 0.000, -38.700, 0.000, -0.100, -0.300, 0.0, , , , , , 97, , , 49, 49, 49
38.7448357, -120.4088718, 0.000, 14:35:02.666, 10, 0.10, 0.05, 100, 0.700, 0.200, -36.900, 1293, 100, 100, 23, 25565, -3898, 5362, 5472, 12, 11, 1528407302.667, 52, 0, 1024, 1024, 1024, 1024, 0, 6, 4310, 4274, 4234, 4242, 4263, 4241, 0, 1, 3302, -89.900, 0.000, -38.700, 0.000, -0.100, -0.300, 0.0, , , , , , 97, , , 49, 49, 49
38.7448357, -120.4088719, 0.100, 14:35:02.766, 10, 0.10, 0.04, 98, 0.700, 0.200, -37.300, 1293, 100, 100, 23, 25321, -6850, 5362, 5472, 12, 11, 1528407302.766, 49, 0, 1024, 1024, 1024, 1024, 0, 6, 4208, 4223, 4194, 4239, 4205, 4171, 0, 1, 3401, -89.900, 0.000, -38.700, 0.000, -0.100, -0.300, 0.0, , , , , , 97, , , 49, 49, 49
38.7448357, -120.4088720, 0.100, 14:35:02.866, 12, 0.10, 0.04, 98, 0.600, 0.500, -37.600, 1293, 100, 100, 23, 25321, -6850, 5362, 5472, 12, 11, 1528407302.867, 51, 0, 1024, 1024, 1024, 1024, 0, 6, 4208, 4223, 4194, 4239, 4205, 4171, 0, 1, 3502, -89.900, 0.000, -38.700, 0.000, -0.100, -0.300, 0.0, , , , , , 97, , , 49, 49, 49
38.7448357, -120.4088721, 0.200, 14:35:02.965, 12, 0.00, 0.03, 98, 0.100, 0.700, -37.800, 1293, 100, 100, 23, 25321, -6850, 5362, 5472, 12, 11, 1528407302.966, 34, 0, 1024, 1024, 1024, 1024, 0, 6, 4208, 4223, 4194, 4239, 4205, 4171, 0, 1, 3601, -89.900, 0.000, -38.700, 0.000, 0.000, -0.400, 0.0, , , , , , 97, , , 49, 49, 49
38.7448357, -120.4088722, 0.200, 14:35:03.065, 10, 0.00, 0.03, 98, 0.000, 0.700, -38.000, 1293, 100, 100, 23, 25321, -6850, 5362, 5472, 12, 11, 1528407303.066, 23, 0, 1024, 1024, 1024, 1024, 0, 6, 4208, 4223, 4194, 4239, 4205, 4171, 0, 1, 3701, -89.900, 0.000, -38.700, 0.000, 0.000, -0.400, 0.0, , , , , , 97, , , 49, 49, 49
38.7448357, -120.4088723, 0.200, 14:35:03.166, 10, 0.00, 0.02, 98, 0.000, 0.500, -38.100, 1293, 100, 100, 23, 25321, -6850, 5362, 5472, 12, 11, 1528407303.166, 23, 0, 1024, 1024, 1024, 1024, 0, 6, 4208, 4223, 4194, 4239, 4205, 4171, 0, 1, 3801, -89.900, 0.000, -38.600, 0.000, 0.000, -0.400, 0.0, , , , , , 97, , , 49, 49, 49
38.7448356, -120.4088723, 0.300, 14:35:03.266, 11, 0.00, 0.03, 98, 0.400, 0.500, -38.000, 1293, 100, 100, 23, 25321, -6850, 5362, 5472, 12, 11, 1528407303.266, 16, 0, 1024, 1024, 1024, 1024, 0, 6, 4208, 4223, 4194, 4239, 4205, 4171, 0, 1, 3901, -89.900, 0.000, -38.600, 0.000, 0.000, -0.400, 0.0, , , , , , 97, , , 49, 49, 49
38.7448355, -120.4088723, 0.300, 14:35:03.365, 11, 0.00, 0.04, 98, 0.700, 0.500, -37.900, 1293, 100, 100, 23, 25321, -6850, 5362, 5472, 12, 11, 1528407303.366, 10, 0, 1024, 1024, 1024, 1024, 0, 6, 4208, 4223, 4194, 4239, 4205, 4171, 0, 1, 4001, -89.900, 0.000, -38.600, 0.000, 0.000, -0.400, 0.0, , , , , , 97, , , 49, 49, 49
38.7448354, -120.4088723, 0.400, 14:35:03.466, 12, 0.00, 0.05, 98, 0.800, 0.300, -37.700, 1293, 100, 100, 23, 25321, -6850, 5362, 5472, 12, 11, 1528407303.467, 11, 0, 1024, 1024, 1024, 1024, 0, 6, 4208, 4223, 4194, 4239, 4205, 4171, 0, 1, 4102, -90.000, 0.000, -38.600, 0.000, 0.000, -0.400, 0.0, , , , , , 97, , , 49, 49, 49
38.7448354, -120.4088723, 0.400, 14:35:03.567, 12, 0.00, 0.06, 98, 0.800, 0.200, -37.500, 1293, 100, 100, 23, 25321, -6850, 5362, 5472, 12, 11, 1528407303.568, 4, 0, 1024, 1024, 1024, 1024, 0, 6, 4208, 4223, 4194, 4239, 4205, 4171, 0, 1, 4203, -90.000, 0.000, -38.600, 0.000, 0.000, -0.400, 0.0, , , , , , 97, , , 49, 49, 49
38.7448353, -120.4088723, 0.500, 14:35:03.665, 12, 0.00, 0.06, 98, 0.800, -0.100, -37.300, 1293, 100, 100, 23, 25321, -6850, 5362, 5472, 12, 11, 1528407303.666, 7, 0, 1024, 1024, 1024, 1024, 0, 6, 4208, 4223, 4194, 4239, 4205, 4171, 0, 1, 4301, -90.000, 0.000, -38.600, 0.000, 0.000, -0.400, 0.0, , , , , , 97, , , 49, 49, 49
38.7448353, -120.4088723, 0.500, 14:35:03.766, 12, 0.00, 0.06, 98, 0.800, -0.100, -37.300, 1293, 100, 100, 23, 25321, -6850, 5362, 5472, 12, 11, 1528407303.767, 107, 0, 1024, 1024, 1024, 1024, 0, 6, 4208, 4223, 4194, 4239, 4205, 4171, 0, 1, 4402, -90.000, 0.000, -38.600, 0.000, 0.000, -0.400, 0.0, , , , , , 97, , , 49, 49, 49
38.7448353, -120.4088722, 0.500, 14:35:03.866, 12, 0.00, 0.07, 98, 0.800, -0.200, -37.300, 1293, 100, 100, 23, 24309, -16055, 5362, 5472, 12, 11, 1528407303.867, 92, 0, 1024, 1024, 1024, 1024, 0, 6, 4055, 4063, 4039, 4032, 4054, 4053, 0, 1, 4502, -90.000, 0.000, -38.600, 0.000, 0.000, -0.400, 0.0, , , , , , 97, , , 49, 49, 49
38.7448353, -120.4088721, 0.600, 14:35:03.966, 11, 0.00, 0.07, 98, 0.800, -0.100, -37.300, 1293, 100, 100, 23, 24309, -16055, 5362, 5472, 12, 11, 1528407303.967, 96, 0, 1024, 1024, 1024, 1024, 0, 6, 4055, 4063, 4039, 4032, 4054, 4053, 0, 1, 4602, -90.000, 0.000, -38.500, 0.000, 0.000, -0.500, 0.0, , , , , , 97, , , 49, 49, 49
38.7448354, -120.4088720, 0.600, 14:35:04.065, 11, 0.00, 0.06, 98, 0.500, 0.000, -37.300, 1293, 100, 100, 23, 24309, -16055, 5362, 5472, 12, 11, 1528407304.065, 62, 0, 1024, 1024, 1024, 1024, 0, 6, 4055, 4063, 4039, 4032, 4054, 4053, 0, 1, 4700, -90.000, 0.000, -38.500, 0.000, 0.000, -0.500, 0.0, , , , , , 97, , , 49, 49, 49
38.7448354, -120.4088721, 0.700, 14:35:04.166, 10, 0.00, 0.06, 98, 0.000, 0.200, -37.400, 1293, 100, 100, 23, 24309, -16055, 5362, 5472, 12, 11, 1528407304.166, 41, 0, 1024, 1024, 1024, 1024, 0, 6, 4055, 4063, 4039, 4032, 4054, 4053, 0, 1, 4801, -89.900, 0.000, -38.500, 0.000, 0.000, -0.500, 0.0, , , , , , 97, , , 49, 49, 49
38.7448355, -120.4088721, 0.800, 14:35:04.266, 10, 0.00, 0.05, 98, -0.200, 0.600, -37.500, 1293, 100, 100, 23, 24309, -16055, 5362, 5472, 12, 11, 1528407304.267, 50, 0, 1024, 1024, 1024, 1024, 0, 6, 4055, 4063, 4039, 4032, 4054, 4053, 0, 1, 4902, -89.900, 0.000, -38.500, 0.000, 0.000, -0.500, 0.0, , , , , , 97, , , 49, 49, 49
38.7448355, -120.4088721, 0.800, 14:35:04.366, 10, 0.00, 0.05, 98, -0.200, 0.600, -37.500, 1293, 100, 100, 23, 24309, -16055, 5362, 5472, 12, 11, 1528407304.367, 150, 0, 1024, 1024, 1024, 1024, 0, 6, 4055, 4063, 4039, 4032, 4054, 4053, 0, 1, 5002, -89.900, 0.000, -38.500, 0.000, 0.000, -0.500, 0.0, , , , , , 97, , , 49, 49, 49
38.7448355, -120.4088718, 0.900, 14:35:04.466, 11, 0.00, 0.06, 98, -0.300, 0.500, -37.600, 1293, 100, 100, 23, 24309, -16055, 5362, 5472, 12, 14, 1528407304.466, 50, 0, 1024, 1024, 1024, 1024, 0, 6, 4055, 4063, 4039, 4032, 4054, 4053, 0, 1, 5101, -89.900, 0.000, -38.500, 0.000, 0.000, -0.500, 0.0, , , , , , 97, , , 49, 49, 49
38.7448356, -120.4088718, 1.000, 14:35:04.566, 11, 0.00, 0.06, 98, -0.500, 0.400, -37.700, 1293, 100, 100, 23, 24309, -16055, 5362, 5472, 12, 14, 1528407304.567, 31, 0, 1024, 1024, 1024, 1024, 0, 6, 4055, 4063, 4039, 4032, 4054, 4053, 0, 1, 5202, -89.900, 0.000, -38.500, 0.000, 0.000, -0.300, 0.0, , , , , , 97, , , 49, 49, 49
38.7448356, -120.4088716, 1.000, 14:35:04.666, 11, 0.00, 0.07, 98, -0.800, 0.500, -37.700, 1293, 100, 100, 23, 24309, -16055, 5362, 5472, 12, 14, 1528407304.666, 50, 0, 1024, 1024, 1024, 1024, 0, 6, 4055, 4063, 4039, 4032, 4054, 4053, 0, 1, 5301, -89.900, 0.000, -38.500, 0.000, 0.000, -0.200, 0.0, , , , , , 97, , , 49, 49, 49
38.7448357, -120.4088714, 1.000, 14:35:04.766, 11, 0.00, 0.09, 98, -1.000, 0.400, -37.800, 1293, 100, 100, 23, 24157, -16598, 5362, 5472, 12, 14, 1528407304.766, 50, 0, 1024, 1024, 1024, 1024, 0, 6, 4055, 4063, 4039, 4032, 4054, 4053, 0, 1, 5402, -90.000, 0.000, -38.500, 0.000, 0.000, -0.200, 0.0, , , , , , 97, , , 49, 49, 49
38.7448357, -120.4088714, 1.000, 14:35:04.866, 10, 0.00, 0.09, 98, -1.100, 0.200, -37.800, 1293, 100, 100, 23, 24157, -16598, 5362, 5472, 12, 14, 1528407304.867, 39, 0, 1024, 1024, 1024, 1024, 0, 6, 4055, 4063, 4039, 4032, 4054, 4053, 0, 1, 5502, -90.000, 0.000, -38.500, 0.000, 0.000, -0.300, 0.0, , , , , , 97, , , 49, 49, 49
38.7448358, -120.4088715, 1.100, 14:35:04.966, 10, 0.00, 0.08, 98, -1.000, 0.200, -37.800, 1293, 100, 100, 23, 24157, -16598, 5362, 5472, 12, 14, 1528407304.967, 14, 0, 1024, 1024, 1024, 1024, 0, 6, 4055, 4063, 4039, 4032, 4054, 4053, 0, 1, 5602, -89.900, 0.000, -38.500, 0.000, 0.000, -0.500, 0.0, , , , , , 97, , , 49, 49, 49
38.7448358, -120.4088714, 1.100, 14:35:05.073, 11, 0.00, 0.08, 98, -0.700, 0.300, -37.900, 1293, 100, 100, 23, 24157, -16598, 5362, 5472, 12, 14, 1528407305.073, 5, 0, 1024, 1024, 1024, 1024, 0, 6, 4055, 4063, 4039, 4032, 4054, 4053, 0, 1, 5708, -89.900, 0.000, -38.500, 0.000, 0.000, -0.600, 0.0, , , , , , 97, , , 49, 49, 49
38.7448357, -120.4088713, 1.200, 14:35:05.179, 11, 0.00, 0.09, 98, -0.500, 0.300, -38.000, 1293, 100, 100, 23, 24157, -16598, 5362, 5472, 12, 14, 1528407305.180, 13, 0, 1024, 1024, 1024, 1024, 0, 6, 4055, 4063, 4039, 4032, 4054, 4053, 0, 1, 5815, -90.000, 0.000, -38.500, 0.000, 0.000, -0.700, 0.0, , , , , , 97, , , 49, 49, 49
38.7448358, -120.4088712, 1.300, 14:35:05.272, 11, 0.00, 0.10, 98, -0.600, 0.200, -38.000, 1293, 100, 100, 23, 24157, -16598, 5362, 5472, 12, 14, 1528407305.273, 6, 0, 1024, 1024, 1024, 1024, 0, 6, 4055, 4063, 4039, 4032, 4054, 4053, 0, 1, 5908, -90.000, 0.000, -38.500, 0.000, 0.000, -0.900, 0.0, , , , , , 97, , , 49, 49, 49
38.7448358, -120.4088712, 1.400, 14:35:05.365, 11, 0.00, 0.10, 98, -0.700, 0.200, -38.000, 1293, 100, 97, 23, 24157, -16598, 5362, 5472, 12, 14, 1528407305.366, 12, 0, 1024, 1024, 1024, 1024, 0, 6, 4055, 4063, 4039, 4032, 4054, 4053, 0, 1, 6001, -90.000, 0.000, -38.500, 0.000, 0.000, -1.100, 0.0, , , , , , 97, , , 49, 49, 49
38.7448359, -120.4088712, 1.500, 14:35:05.466, 11, 0.00, 0.11, 98, -0.800, 0.300, -37.900, 1293, 100, 97, 23, 24157, -16598, 5362, 5472, 12, 14, 1528407305.466, 11, 0, 1024, 1024, 1024, 1024, 0, 6, 4036, 4005, 4008, 4016, 4034, 4036, 0, 1, 6101, -89.900, 0.000, -38.500, 0.000, 0.000, -1.300, 0.0, , , , , , 97, , , 49, 49, 49
38.7448361, -120.4088711, 1.700, 14:35:05.571, 11, 0.00, 0.11, 98, -0.900, 0.500, -37.800, 1293, 100, 97, 23, 24157, -16598, 5362, 5472, 12, 14, 1528407305.571, 19, 0, 1024, 1024, 1024, 1024, 0, 6, 4036, 4005, 4008, 4016, 4034, 4036, 0, 1, 6206, -89.900, 0.000, -38.500, 0.000, 0.000, -1.600, 0.0, , , , , , 97, , , 49, 49, 49
38.7448361, -120.4088711, 1.900, 14:35:05.665, 11, 0.00, 0.11, 98, -0.900, 0.700, -37.700, 1293, 100, 97, 23, 24157, -16598, 5362, 5472, 12, 14, 1528407305.666, 14, 0, 1024, 1024, 1024, 1024, 0, 6, 4036, 4005, 4008, 4016, 4034, 4036, 0, 1, 6301, -89.900, 0.000, -38.500, 0.000, 0.000, -1.800, 0.0, , , , , , 97, , , 49, 49, 49
38.7448361, -120.4088711, 1.900, 14:35:05.766, 11, 0.00, 0.11, 98, -0.900, 0.700, -37.700, 1293, 100, 97, 23, 24157, -16598, 5362, 5472, 12, 14, 1528407305.766, 115, 0, 1024, 1024, 1024, 1024, 0, 6, 4036, 4005, 4008, 4016, 4034, 4036, 0, 1, 6401, -89.900, 0.000, -38.500, 0.000, 0.000, -1.800, 0.0, , , , , , 97, , , 49, 49, 49
38.7448361, -120.4088710, 2.300, 14:35:05.865, 10, 0.00, 0.12, 98, -1.000, 0.700, -37.500, 1293, 100, 97, 23, 24157, -16598, 5362, 5472, 12, 14, 1528407305.866, 10, 0, 1024, 1024, 1024, 1024, 0, 6, 4036, 4005, 4008, 4016, 4034, 4036, 0, 1, 6501, -90.000, 0.000, -38.500, 0.000, 0.000, -2.300, 0.0, , , , , , 97, , , 49, 49, 49
38.7448360, -120.4088710, 2.500, 14:35:05.971, 10, 0.00, 0.12, 98, -0.800, 0.500, -37.500, 1293, 100, 97, 23, 24157, -16598, 5362, 5472, 12, 14, 1528407305.972, 5, 0, 1024, 1024, 1024, 1024, 0, 6, 4036, 4005, 4008, 4016, 4034, 4036, 0, 1, 6607, -90.000, 0.000, -38.500, 0.000, 0.000, -2.500, 0.0, , , , , , 97, , , 49, 49, 49
38.7448360, -120.4088710, 2.500, 14:35:06.065, 10, 0.00, 0.12, 98, -0.800, 0.500, -37.500, 1293, 100, 97, 23, 24157, -16598, 5362, 5472, 12, 14, 1528407306.066, 99, 0, 1024, 1024, 1024, 1024, 0, 6, 4036, 4005, 4008, 4016, 4034, 4036, 0, 1, 6701, -90.000, 0.000, -38.500, 0.000, 0.000, -2.500, 0.0, , , , , , 97, , , 49, 49, 49
38.7448360, -120.4088709, 2.800, 14:35:06.175, 11, 0.00, 0.13, 98, -0.700, 0.300, -37.500, 1293, 100, 97, 23, 24157, -16598, 5362, 5472, 12, 14, 1528407306.175, 12, 0, 1024, 1024, 1024, 1024, 0, 6, 4036, 4005, 4008, 4016, 4034, 4036, 0, 1, 6811, -90.000, 0.000, -38.500, 0.000, 0.000, -2.700, 0.0, , , , , , 97, , , 49, 49, 49
38.7448361, -120.4088709, 3.100, 14:35:06.266, 11, 0.00, 0.13, 98, -0.700, 0.100, -37.500, 1293, 100, 97, 23, 24157, -16598, 5362, 5472, 12, 14, 1528407306.268, 18, 0, 1024, 1024, 1024, 1024, 0, 6, 4036, 4005, 4008, 4016, 4034, 4036, 0, 1, 6903, -90.000, 0.000, -38.500, 0.000, 0.000, -2.900, 0.0, , , , , , 97, , , 49, 49, 49
38.7448361, -120.4088709, 3.100, 14:35:06.369, 11, 0.00, 0.13, 98, -0.700, 0.100, -37.500, 1293, 100, 97, 23, 24157, -16598, 5362, 5472, 12, 14, 1528407306.370, 120, 0, 1024, 1024, 1024, 1024, 0, 6, 4036, 4005, 4008, 4016, 4034, 4036, 0, 1, 7005, -90.000, 0.000, -38.500, 0.000, 0.000, -2.900, 0.0, , , , , , 97, , , 49, 49, 49
38.7448362, -120.4088709, 3.400, 14:35:06.466, 11, 0.00, 0.14, 98, -0.900, 0.200, -37.500, 1293, 100, 98, 23, 24347, -15792, 5362, 5472, 12, 14, 1528407306.468, 63, 0, 1024, 1024, 1024, 1024, 0, 6, 4033, 3965, 4025, 4011, 3996, 4002, 0, 1, 7103, -89.900, 0.000, -38.500, 0.000, 0.000, -3.000, 0.0, , , , , , 97, , , 49, 49, 49
38.7448363, -120.4088708, 4.100, 14:35:06.566, 11, 0.00, 0.14, 98, -1.100, 0.900, -37.400, 1293, 100, 98, 23, 24347, -15792, 5362, 5472, 12, 14, 1528407306.568, 48, 0, 1024, 1024, 1024, 1024, 0, 6, 4033, 3965, 4025, 4011, 3996, 4002, 0, 1, 7203, -89.900, 0.000, -38.500, 0.000, 0.000, -3.200, 0.0, , , , , , 97, , , 49, 49, 49
38.7448364, -120.4088707, 4.400, 14:35:06.666, 11, 0.00, 0.16, 98, -1.100, 1.000, -37.300, 1293, 100, 98, 23, 24347, -15792, 5362, 5472, 12, 14, 1528407306.667, 26, 0, 1024, 1024, 1024, 1024, 0, 6, 4033, 3965, 4025, 4011, 3996, 4002, 0, 1, 7302, -89.900, 0.000, -38.500, 0.000, 0.000, -3.200, 0.0, , , , , , 97, , , 49, 49, 49
38.7448363, -120.4088705, 4.700, 14:35:06.766, 11, 0.00, 0.17, 98, -1.200, 0.700, -37.200, 1293, 100, 98, 23, 24347, -15792, 5362, 5472, 12, 14, 1528407306.769, 30, 0, 1024, 1024, 1024, 1024, 0, 6, 4033, 3965, 4025, 4011, 3996, 4002, 0, 1, 7405, -89.900, 0.000, -38.500, 0.000, 0.000, -3.200, 0.0, , , , , , 97, , , 49, 49, 49
38.7448363, -120.4088705, 4.700, 14:35:06.865, 11, 0.00, 0.17, 98, -1.200, 0.700, -37.200, 1293, 100, 98, 23, 24347, -15792, 5362, 5472, 12, 14, 1528407306.867, 127, 0, 1024, 1024, 1024, 1024, 0, 6, 4033, 3965, 4025, 4011, 3996, 4002, 0, 1, 7502, -89.900, 0.000, -38.500, 0.000, 0.000, -3.200, 0.0, , , , , , 97, , , 49, 49, 49
38.7448362, -120.4088703, 5.100, 14:35:06.966, 11, 0.00, 0.18, 98, -1.200, 0.200, -37.200, 1293, 100, 98, 23, 24347, -15792, 5362, 5472, 12, 14, 1528407306.966, 57, 0, 1024, 1024, 1024, 1024, 0, 6, 4033, 3965, 4025, 4011, 3996, 4002, 0, 1, 7601, -90.000, 0.000, -38.500, 0.000, 0.000, -3.200, 0.0, , , , , , 97, , , 49, 49, 49
38.7448361, -120.4088702, 5.400, 14:35:07.066, 11, 0.00, 0.19, 98, -1.200, -0.300, -37.200, 1293, 100, 100, 23, 24347, -15792, 5362, 5472, 12, 14, 1528407307.066, 46, 0, 1024, 1024, 1024, 1024, 0, 6, 4033, 3965, 4025, 4011, 3996, 4002, 0, 1, 7701, -90.000, 0.000, -38.500, 0.000, 0.000, -3.300, 0.0, , , , , , 97, , , 49, 49, 49
38.7448361, -120.4088702, 5.400, 14:35:07.165, 11, 0.00, 0.19, 98, -1.200, -0.300, -37.200, 1293, 100, 100, 23, 24347, -15792, 5362, 5472, 12, 14, 1528407307.165, 145, 0, 1024, 1024, 1024, 1024, 0, 6, 4033, 3965, 4025, 4011, 3996, 4002, 0, 1, 7800, -90.000, 0.000, -38.500, 0.000, 0.000, -3.300, 0.0, , , , , , 97, , , 49, 49, 49
38.7448361, -120.4088702, 5.800, 14:35:07.266, 11, 0.00, 0.19, 98, -1.100, -0.500, -37.300, 1293, 100, 100, 23, 24347, -15792, 5362, 5472, 12, 14, 1528407307.266, 59, 0, 1024, 1024, 1024, 1024, 0, 6, 4033, 3965, 4025, 4011, 3996, 4002, 0, 1, 7901, -90.000, 0.000, -38.500, 0.000, 0.000, -3.200, 0.0, , , , , , 97, , , 49, 49, 49
38.7448360, -120.4088702, 6.100, 14:35:07.366, 11, 0.00, 0.19, 98, -0.800, -0.600, -37.400, 1293, 100, 100, 23, 24347, -15792, 5362, 5472, 12, 14, 1528407307.366, 29, 0, 1024, 1024, 1024, 1024, 0, 6, 4033, 3965, 4025, 4011, 3996, 4002, 0, 1, 8001, -90.000, 0.000, -38.500, 0.000, 0.000, -3.200, 0.0, , , , , , 97, , , 49, 49, 49
38.7448360, -120.4088702, 6.400, 14:35:07.466, 11, 0.00, 0.19, 98, -0.600, -0.500, -37.500, 1293, 100, 100, 23, 24347, -15792, 5362, 5472, 12, 14, 1528407307.466, 43, 0, 1024, 1024, 1024, 1024, 0, 6, 4033, 3965, 4025, 4011, 3996, 4002, 0, 1, 8102, -90.000, 0.000, -38.500, 0.000, 0.000, -3.100, 0.0, , , , , , 97, , , 49, 49, 49
38.7448360, -120.4088702, 6.800, 14:35:07.566, 10, 0.00, 0.19, 98, -0.400, -0.200, -37.700, 1293, 100, 100, 23, 23424, -23720, 5362, 5472, 12, 14, 1528407307.567, 46, 0, 1024, 1024, 1024, 1024, 0, 6, 3900, 3870, 3879, 3875, 3918, 3905, 0, 1, 8202, -90.000, 0.000, -38.500, 0.000, 0.000, -3.100, 0.0, , , , , , 97, , , 49, 49, 49
38.7448360, -120.4088702, 7.100, 14:35:07.666, 10, 0.00, 0.19, 98, -0.400, 0.000, -37.800, 1293, 100, 100, 23, 23424, -23720, 5362, 5472, 12, 14, 1528407307.667, 46, 0, 1024, 1024, 1024, 1024, 0, 6, 3900, 3870, 3879, 3875, 3918, 3905, 0, 1, 8302, -89.900, 0.000, -38.500, 0.000, 0.000, -3.200, 0.0, , , , , , 97, , , 49, 49, 49
38.7448361, -120.4088702, 7.400, 14:35:07.769, 11, 0.00, 0.19, 98, -0.500, 0.100, -37.800, 1293, 100, 100, 23, 23424, -23720, 5362, 5472, 12, 14, 1528407307.769, 78, 0, 1024, 1024, 1024, 1024, 0, 6, 3900, 3870, 3879, 3875, 3918, 3905, 0, 1, 8404, -89.900, 0.000, -38.500, 0.000, 0.000, -3.200, 0.0, , , , , , 97, , , 49, 49, 49
38.7448361, -120.4088702, 7.400, 14:35:07.866, 11, 0.00, 0.19, 98, -0.500, 0.100, -37.800, 1293, 100, 100, 23, 23424, -23720, 5362, 5472, 12, 14, 1528407307.867, 175, 0, 1024, 1024, 1024, 1024, 0, 6, 3900, 3870, 3879, 3875, 3918, 3905, 0, 1, 8502, -89.900, 0.000, -38.500, 0.000, 0.000, -3.200, 0.0, , , , , , 97, , , 49, 49, 49
38.7448361, -120.4088703, 8.100, 14:35:07.973, 11, 0.00, 0.18, 98, -0.700, 0.500, -37.800, 1293, 100, 100, 23, 23424, -23720, 5362, 5472, 12, 14, 1528407307.973, 12, 0, 1024, 1024, 1024, 1024, 0, 6, 3900, 3870, 3879, 3875, 3918, 3905, 0, 1, 8608, -89.900, 0.000, -38.500, 0.000, 0.000, -3.100, 0.0, , , , , , 97, , , 49, 49, 49
38.7448360, -120.4088704, 8.400, 14:35:08.066, 11, 0.00, 0.17, 98, -0.700, 0.700, -37.800, 1293, 100, 100, 23, 23424, -23720, 5362, 5472, 12, 14, 1528407308.066, 22, 0, 1024, 1024, 1024, 1024, 0, 6, 3900, 3870, 3879, 3875, 3918, 3905, 0, 1, 8701, -89.900, 0.000, -38.500, 0.000, 0.000, -3.100, 0.0, , , , , , 97, , , 49, 49, 49
38.7448360, -120.4088704, 8.400, 14:35:08.165, 11, 0.00, 0.17, 98, -0.700, 0.700, -37.800, 1293, 100, 100, 23, 23424, -23720, 5362, 5472, 12, 14, 1528407308.166, 121, 0, 1024, 1024, 1024, 1024, 0, 6, 3900, 3870, 3879, 3875, 3918, 3905, 0, 1, 8801, -89.900, 0.000, -38.500, 0.000, 0.000, -3.100, 0.0, , , , , , 97, , , 49, 49, 49
38.7448360, -120.4088705, 8.700, 14:35:08.266, 11, 0.00, 0.16, 98, -0.400, 0.700, -37.700, 1293, 100, 99, 23, 23424, -23720, 5362, 5472, 12, 14, 1528407308.266, 92, 0, 1024, 1024, 1024, 1024, 0, 6, 3900, 3870, 3879, 3875, 3918, 3905, 0, 1, 8901, -89.900, 0.000, -38.500, 0.000, 0.000, -3.100, 0.0, , , , , , 97, , , 49, 49, 49
38.7448361, -120.4088707, 9.700, 14:35:08.375, 11, 0.00, 0.15, 98, 0.000, 0.700, -37.700, 1293, 100, 99, 23, 23424, -23720, 5362, 5472, 12, 14, 1528407308.376, 5, 0, 1024, 1024, 1024, 1024, 0, 6, 3900, 3870, 3879, 3875, 3918, 3905, 0, 1, 9011, -89.900, 0.000, -38.500, 0.000, 0.000, -3.100, 0.0, , , , , , 97, , , 49, 49, 49
38.7448361, -120.4088707, 10.000, 14:35:08.466, 11, 0.00, 0.15, 98, -0.100, 0.700, -37.800, 1293, 100, 99, 23, 23653, -20179, 5362, 5472, 12, 14, 1528407308.466, 67, 0, 1024, 1024, 1024, 1024, 0, 6, 3967, 3933, 3943, 3939, 3965, 3968, 0, 1, 9101, -89.900, 0.000, -38.500, 0.000, 0.000, -3.100, 0.0, , , , , , 97, , , 49, 49, 49
38.7448361, -120.4088706, 10.600, 14:35:08.565, 11, 0.00, 0.15, 98, -0.400, 0.600, -37.900, 1293, 100, 99, 23, 23653, -20179, 5362, 5472, 12, 14, 1528407308.566, 9, 0, 1024, 1024, 1024, 1024, 0, 6, 3967, 3933, 3943, 3939, 3965, 3968, 0, 1, 9201, -89.900, 0.000, -38.500, 0.000, 0.000, -3.000, 0.0, , , , , , 97, , , 49, 49, 49
38.7448362, -120.4088706, 11.200, 14:35:08.666, 12, 0.00, 0.15, 98, -1.000, 0.700, -37.800, 1293, 100, 99, 23, 23653, -20179, 5362, 5472, 12, 14, 1528407308.666, 21, 0, 1024, 1024, 1024, 1024, 0, 6, 3967, 3933, 3943, 3939, 3965, 3968, 0, 1, 9301, -89.900, 0.000, -38.500, 0.000, 0.000, -3.000, 0.0, , , , , , 97, , , 49, 49, 49
38.7448361, -120.4088708, 11.500, 14:35:08.766, 12, 0.00, 0.14, 98, -0.900, 0.700, -37.800, 1293, 100, 99, 23, 23653, -20179, 5362, 5472, 12, 14, 1528407308.766, 52, 0, 1024, 1024, 1024, 1024, 0, 6, 3967, 3933, 3943, 3939, 3965, 3968, 0, 1, 9401, -89.900, 0.000, -38.500, 0.000, 0.000, -3.000, 0.0, , , , , , 97, , , 49, 49, 49
38.7448361, -120.4088709, 11.900, 14:35:08.866, 12, 0.00, 0.13, 98, -0.600, 0.600, -37.700, 1293, 100, 99, 23, 23653, -20179, 5362, 5472, 12, 14, 1528407308.867, 43, 0, 1024, 1024, 1024, 1024, 0, 6, 3967, 3933, 3943, 3939, 3965, 3968, 0, 1, 9502, -89.900, 0.000, -38.500, 0.000, 0.000, -3.000, 0.0, , , , , , 97, , , 49, 49, 49
38.7448360, -120.4088710, 12.200, 14:35:08.966, 12, 0.00, 0.12, 98, -0.300, 0.500, -37.600, 1293, 100, 99, 23, 23653, -20179, 5362, 5472, 12, 14, 1528407308.967, 48, 0, 1024, 1024, 1024, 1024, 0, 6, 3967, 3933, 3943, 3939, 3965, 3968, 0, 1, 9602, -89.900, 0.000, -38.500, 0.000, 0.000, -3.000, 0.0, , , , , , 97, , , 49, 49, 49
38.7448360, -120.4088711, 12.500, 14:35:09.066, 12, 0.00, 0.11, 98, -0.100, 0.500, -37.600, 1293, 100, 99, 23, 23653, -20179, 5362, 5472, 12, 14, 1528407309.067, 27, 0, 1024, 1024, 1024, 1024, 0, 6, 3967, 3933, 3943, 3939, 3965, 3968, 0, 1, 9702, -89.900, 0.000, -38.500, 0.000, 0.000, -3.000, 0.0, , , , , , 97, , , 49, 49, 49
38.7448360, -120.4088712, 12.800, 14:35:09.166, 12, 0.00, 0.11, 98, 0.000, 0.500, -37.600, 1293, 100, 99, 23, 23653, -20179, 5362, 5472, 12, 14, 1528407309.166, 28, 0, 1024, 1024, 1024, 1024, 0, 6, 3967, 3933, 3943, 3939, 3965, 3968, 0, 1, 9801, -89.900, 0.000, -38.500, 0.000, 0.000, -2.900, 0.0, , , , , , 97, , , 49, 49, 49
38.7448359, -120.4088711, 13.100, 14:35:09.266, 12, 0.00, 0.11, 98, 0.000, 0.600, -37.500, 1293, 100, 99, 23, 23770, -18504, 5362, 5472, 12, 14, 1528407309.266, 17, 0, 1024, 1024, 1024, 1024, 0, 6, 3967, 3933, 3943, 3939, 3965, 3968, 0, 1, 9901, -89.900, 0.000, -38.500, 0.000, 0.000, -2.900, 0.0, , , , , , 97, , , 49, 49, 49
38.7448359, -120.4088711, 13.400, 14:35:09.366, 12, 0.00, 0.11, 98, 0.000, 0.400, -37.500, 1293, 100, 100, 23, 23770, -18504, 5362, 5472, 12, 14, 1528407309.366, 38, 0, 1024, 1024, 1024, 1024, 0, 6, 3975, 3945, 3941, 3953, 3976, 3970, 0, 1, 10001, -89.900, 0.000, -38.500, 0.000, 0.000, -2.900, 0.0, , , , , , 97, , , 49, 49, 49
38.7448358, -120.4088710, 13.700, 14:35:09.466, 12, 0.00, 0.12, 98, 0.000, 0.200, -37.600, 1293, 100, 100, 23, 23770, -18504, 5362, 5472, 12, 14, 1528407309.466, 19, 0, 1024, 1024, 1024, 1024, 0, 6, 3975, 3945, 3941, 3953, 3976, 3970, 0, 1, 10101, -90.000, 0.000, -38.500, 0.000, 0.000, -2.900, 0.0, , , , , , 97, , , 49, 49, 49
38.7448358, -120.4088708, 14.000, 14:35:09.566, 12, 0.00, 0.13, 98, -0.300, 0.000, -37.600, 1293, 100, 100, 23, 23770, -18504, 5362, 5472, 12, 14, 1528407309.566, 8, 0, 1024, 1024, 1024, 1024, 0, 6, 3975, 3945, 3941, 3953, 3976, 3970, 0, 1, 10201, -90.000, 0.000, -38.500, 0.000, 0.000, -2.900, 0.0, , , , , , 97, , , 49, 49, 49
38.7448358, -120.4088708, 14.300, 14:35:09.665, 12, 0.00, 0.14, 98, -0.500, 0.000, -37.600, 1293, 100, 100, 23, 23770, -18504, 5362, 5472, 12, 14, 1528407309.666, 25, 0, 1024, 1024, 1024, 1024, 0, 6, 3975, 3945, 3941, 3953, 3976, 3970, 0, 1, 10301, -90.000, 0.000, -38.500, 0.000, 0.000, -3.000, 0.0, , , , , , 97, , , 49, 49, 49
38.7448359, -120.4088708, 14.600, 14:35:09.766, 12, 0.00, 0.14, 98, -0.800, 0.100, -37.600, 1293, 100, 100, 23, 23770, -18504, 5362, 5472, 12, 14, 1528407309.766, 16, 0, 1024, 1024, 1024, 1024, 0, 6, 3975, 3945, 3941, 3953, 3976, 3970, 0, 1, 10401, -90.000, 0.000, -38.500, 0.000, 0.000, -3.000, 0.0, , , , , , 97, , , 49, 49, 49
38.7448359, -120.4088707, 14.900, 14:35:09.870, 12, 0.00, 0.14, 98, -0.800, 0.300, -37.600, 1293, 100, 98, 23, 23770, -18504, 5362, 5472, 12, 14, 1528407309.871, 10, 0, 1024, 1024, 1024, 1024, 0, 6, 3975, 3945, 3941, 3953, 3976, 3970, 0, 1, 10506, -89.900, 0.000, -38.500, 0.000, 0.000, -3.000, 0.0, , , , , , 97, , , 49, 49, 49
38.7448359, -120.4088706, 15.200, 14:35:09.966, 12, 0.00, 0.15, 98, -0.800, 0.400, -37.600, 1293, 100, 98, 23, 23770, -18504, 5362, 5472, 12, 14, 1528407309.966, 6, 0, 1024, 1024, 1024, 1024, 0, 6, 3975, 3945, 3941, 3953, 3976, 3970, 0, 1, 10601, -89.900, 0.000, -38.500, 0.000, 0.000, -3.000, 0.0, , , , , , 97, , , 49, 49, 49
38.7448359, -120.4088706, 15.500, 14:35:10.081, 11, 0.00, 0.16, 98, -0.800, 0.400, -37.600, 1293, 100, 98, 23, 23770, -18504, 5362, 5472, 12, 14, 1528407310.082, 9, 0, 1024, 1024, 1024, 1024, 0, 6, 3975, 3945, 3941, 3953, 3976, 3970, 0, 1, 10717, -90.000, 0.000, -38.500, 0.000, 0.000, -2.900, 0.0, , , , , , 97, , , 49, 49, 49
38.7448359, -120.4088706, 15.800, 14:35:10.169, 11, 0.00, 0.16, 98, -0.700, 0.200, -37.600, 1293, 100, 98, 23, 23770, -18504, 5362, 5472, 12, 14, 1528407310.170, 7, 0, 1024, 1024, 1024, 1024, 0, 6, 3975, 3945, 3941, 3953, 3976, 3970, 0, 1, 10805, -90.000, 0.000, -38.500, 0.000, 0.000, -2.900, 0.0, , , , , , 97, , , 49, 49, 49
38.7448358, -120.4088706, 16.100, 14:35:10.265, 12, 0.00, 0.16, 98, -0.500, 0.000, -37.600, 1293, 100, 98, 23, 23724, -18283, 5362, 5472, 12, 14, 1528407310.266, 10, 0, 1024, 1024, 1024, 1024, 0, 6, 3975, 3945, 3941, 3953, 3976, 3970, 0, 1, 10901, -90.000, 0.000, -38.500, 0.000, 0.000, -2.900, 0.0, , , , , , 97, , , 49, 49, 49
38.7448358, -120.4088706, 16.100, 14:35:10.366, 12, 0.00, 0.16, 98, -0.500, 0.000, -37.600, 1293, 100, 98, 23, 23724, -18283, 5362, 5472, 12, 14, 1528407310.366, 111, 0, 1024, 1024, 1024, 1024, 0, 6, 3975, 3945, 3941, 3953, 3976, 3970, 0, 1, 11002, -90.000, 0.000, -38.500, 0.000, 0.000, -2.900, 0.0, , , , , , 97, , , 49, 49, 49
38.7448356, -120.4088706, 16.400, 14:35:10.466, 12, 0.00, 0.16, 98, -0.300, -0.100, -37.600, 1293, 100, 97, 23, 23724, -18283, 5362, 5472, 12, 14, 1528407310.466, 92, 0, 1024, 1024, 1024, 1024, 0, 6, 3975, 3945, 3941, 3953, 3976, 3970, 0, 1, 11101, -90.000, 0.000, -38.500, 0.000, 0.000, -2.900, 0.0, , , , , , 97, , , 49, 49, 49
38.7448356, -120.4088706, 16.700, 14:35:10.566, 12, 0.00, 0.16, 98, -0.100, -0.200, -37.700, 1293, 100, 97, 23, 23724, -18283, 5362, 5472, 12, 14, 1528407310.567, 94, 0, 1024, 1024, 1024, 1024, 0, 6, 3975, 3945, 3941, 3953, 3976, 3970, 0, 1, 11202, -90.000, 0.000, -38.500, 0.000, 0.000, -3.000, 0.0, , , , , , 97, , , 49, 49, 49
38.7448356, -120.4088706, 17.000, 14:35:10.665, 12, 0.00, 0.16, 98, -0.100, -0.100, -37.700, 1293, 100, 97, 23, 23724, -18283, 5362, 5472, 12, 14, 1528407310.666, 72, 0, 1024, 1024, 1024, 1024, 0, 6, 3975, 3945, 3941, 3953, 3976, 3970, 0, 1, 11301, -89.900, 0.000, -38.500, 0.000, 0.000, -2.900, 0.0, , , , , , 97, , , 49, 49, 49
38.7448356, -120.4088706, 17.300, 14:35:10.766, 12, 0.00, 0.16, 98, -0.200, 0.100, -37.700, 1293, 100, 97, 23, 23724, -18283, 5362, 5472, 12, 14, 1528407310.766, 67, 0, 1024, 1024, 1024, 1024, 0, 6, 3975, 3945, 3941, 3953, 3976, 3970, 0, 1, 11402, -89.900, 0.000, -38.500, 0.000, 0.000, -3.000, 0.0, , , , , , 97, , , 49, 49, 49
38.7448356, -120.4088706, 17.600, 14:35:10.865, 12, 0.00, 0.16, 98, -0.300, 0.200, -37.700, 1293, 100, 97, 23, 23724, -18283, 5362, 5472, 12, 14, 1528407310.866, 94, 0, 1024, 1024, 1024, 1024, 0, 6, 3969, 3927, 3934, 3934, 3965, 3962, 0, 1, 11501, -89.900, 0.000, -38.500, 0.000, 0.000, -2.900, 0.0, , , , , , 97, , , 49, 49, 49
38.7448357, -120.4088706, 18.200, 14:35:10.966, 12, 0.00, 0.16, 98, -0.300, 0.200, -37.700, 1293, 100, 96, 23, 23724, -18283, 5362, 5472, 12, 14, 1528407310.966, 43, 0, 1024, 1024, 1024, 1024, 0, 6, 3969, 3927, 3934, 3934, 3965, 3962, 0, 1, 11601, -89.900, 0.000, -38.500, 0.000, 0.000, -2.900, 0.0, , , , , , 97, , , 49, 49, 49
38.7448357, -120.4088705, 18.500, 14:35:11.066, 12, 0.00, 0.16, 98, -0.400, 0.300, -37.600, 1293, 100, 96, 23, 23724, -18283, 5362, 5472, 12, 14, 1528407311.067, 48, 0, 1024, 1024, 1024, 1024, 0, 6, 3969, 3927, 3934, 3934, 3965, 3962, 0, 1, 11702, -89.900, 0.000, -38.500, 0.000, 0.000, -2.900, 0.0, , , , , , 97, , , 49, 49, 49
38.7448357, -120.4088705, 18.500, 14:35:11.166, 12, 0.00, 0.16, 98, -0.400, 0.300, -37.600, 1293, 100, 96, 23, 23724, -18283, 5362, 5472, 12, 14, 1528407311.167, 148, 0, 1024, 1024, 1024, 1024, 0, 6, 3969, 3927, 3934, 3934, 3965, 3962, 0, 1, 11802, -89.900, 0.000, -38.500, 0.000, 0.000, -2.900, 0.0, , , , , , 97, , , 49, 49, 49
38.7448357, -120.4088705, 18.800, 14:35:11.266, 12, 0.00, 0.16, 98, -0.500, 0.400, -37.600, 1293, 100, 96, 23, 23724, -18283, 5362, 5472, 12, 14, 1528407311.267, 68, 0, 1024, 1024, 1024, 1024, 0, 6, 3969, 3927, 3934, 3934, 3965, 3962, 0, 1, 11902, -90.000, 0.000, -38.500, 0.000, 0.000, -3.000, 0.0, , , , , , 97, , , 49, 49, 49
38.7448356, -120.4088704, 19.400, 14:35:11.366, 12, 0.00, 0.17, 98, -0.700, 0.200, -37.600, 1293, 100, 98, 23, 23724, -18283, 5362, 5472, 12, 14, 1528407311.367, 48, 0, 1024, 1024, 1024, 1024, 0, 6, 3969, 3927, 3934, 3934, 3965, 3962, 0, 1, 12002, -90.000, 0.000, -38.500, 0.000, 0.000, -2.900, 0.0, , , , , , 97, , , 49, 49, 49
38.7448356, -120.4088704, 19.700, 14:35:11.466, 12, 0.00, 0.17, 98, -0.500, 0.100, -37.600, 1293, 100, 98, 23, 23724, -18283, 5362, 5472, 12, 14, 1528407311.466, 58, 0, 1024, 1024, 1024, 1024, 0, 6, 3969, 3927, 3934, 3934, 3965, 3962, 0, 1, 12101, -90.000, 0.000, -38.500, 0.000, 0.000, -2.900, 0.0, , , , , , 97, , , 49, 49, 49
38.7448356, -120.4088704, 19.700, 14:35:11.571, 12, 0.00, 0.17, 98, -0.500, 0.100, -37.600, 1293, 100, 98, 23, 23724, -18283, 5362, 5472, 12, 14, 1528407311.571, 163, 0, 1024, 1024, 1024, 1024, 0, 6, 3969, 3927, 3934, 3934, 3965, 3962, 0, 1, 12206, -89.900, 0.000, -38.500, 0.000, 0.000, -2.900, 0.0, , , , , , 97, , , 49, 49, 49
38.7448355, -120.4088705, 20.300, 14:35:11.666, 12, 0.00, 0.16, 98, -0.200, 0.300, -37.700, 1293, 100, 98, 23, 23724, -18283, 5362, 5472, 12, 14, 1528407311.666, 22, 0, 1024, 1024, 1024, 1024, 0, 6, 3969, 3927, 3934, 3934, 3965, 3962, 0, 1, 12302, -89.900, 0.000, -38.500, 0.000, 0.000, -3.000, 0.0, , , , , , 97, , , 49, 49, 49
38.7448354, -120.4088706, 20.600, 14:35:11.766, 12, 0.00, 0.16, 98, 0.000, 0.300, -37.700, 1293, 100, 98, 23, 23600, -19227, 5362, 5472, 12, 14, 1528407311.767, 26, 0, 1024, 1024, 1024, 1024, 0, 6, 3949, 3918, 3916, 3930, 3954, 3944, 0, 1, 12402, -89.900, 0.000, -38.500, 0.000, 0.000, -2.900, 0.0, , , , , , 97, , , 49, 49, 49
38.7448354, -120.4088706, 20.900, 14:35:11.866, 12, 0.00, 0.16, 98, 0.000, 0.200, -37.700, 1293, 100, 97, 23, 23600, -19227, 5362, 5472, 12, 14, 1528407311.867, 39, 0, 1024, 1024, 1024, 1024, 0, 6, 3949, 3918, 3916, 3930, 3954, 3944, 0, 1, 12502, -90.000, 0.000, -38.500, 0.000, 0.000, -2.900, 0.0, , , , , , 97, , , 49, 49, 49
38.7448355, -120.4088706, 21.200, 14:35:11.965, 12, 0.00, 0.16, 98, 0.000, 0.100, -37.700, 1293, 100, 97, 23, 23600, -19227, 5362, 5472, 12, 14, 1528407311.965, 29, 0, 1024, 1024, 1024, 1024, 0, 6, 3949, 3918, 3916, 3930, 3954, 3944, 0, 1, 12600, -90.000, 0.000, -38.500, 0.000, 0.000, -2.900, 0.0, , , , , , 97, , , 49, 49, 49
38.7448354, -120.4088706, 21.500, 14:35:12.068, 12, 0.00, 0.16, 98, -0.200, 0.100, -37.700, 1293, 100, 97, 23, 23600, -19227, 5362, 5472, 12, 14, 1528407312.069, 6, 0, 1024, 1024, 1024, 1024, 0, 6, 3949, 3918, 3916, 3930, 3954, 3944, 0, 1, 12704, -90.000, 0.000, -38.500, 0.000, 0.000, -2.900, 0.0, , , , , , 97, , , 49, 49, 49
38.7448354, -120.4088706, 21.800, 14:35:12.166, 12, 0.00, 0.16, 98, -0.200, 0.000, -37.700, 1293, 100, 97, 23, 23600, -19227, 5362, 5472, 12, 14, 1528407312.166, 18, 0, 1024, 1024, 1024, 1024, 0, 6, 3949, 3918, 3916, 3930, 3954, 3944, 0, 1, 12801, -90.000, 0.000, -38.500, 0.000, 0.000, -3.000, 0.0, , , , , , 97, , , 49, 49, 49
38.7448354, -120.4088706, 22.100, 14:35:12.265, 12, 0.00, 0.16, 98, -0.100, 0.000, -37.700, 1293, 100, 97, 23, 23600, -19227, 5362, 5472, 12, 14, 1528407312.266, 27, 0, 1024, 1024, 1024, 1024, 0, 6, 3949, 3918, 3916, 3930, 3954, 3944, 0, 1, 12901, -90.000, 0.000, -38.500, 0.000, 0.000, -2.900, 0.0, , , , , , 97, , , 49, 49, 49
38.7448353, -120.4088706, 22.400, 14:35:12.370, 12, 0.00, 0.17, 98, -0.100, -0.100, -37.700, 1293, 100, 99, 23, 23600, -19227, 5362, 5472, 12, 14, 1528407312.370, 6, 0, 1024, 1024, 1024, 1024, 0, 6, 3949, 3918, 3916, 3930, 3954, 3944, 0, 1, 13005, -90.000, 0.000, -38.500, 0.000, 0.000, -3.000, 0.0, , , , , , 97, , , 49, 49, 49
38.7448353, -120.4088706, 22.700, 14:35:12.468, 12, 0.00, 0.17, 98, 0.000, -0.200, -37.700, 1293, 100, 99, 23, 23600, -19227, 5362, 5472, 12, 14, 1528407312.469, 4, 0, 1024, 1024, 1024, 1024, 0, 6, 3949, 3918, 3916, 3930, 3954, 3944, 0, 1, 13104, -90.000, 0.000, -38.500, 0.000, 0.000, -3.000, 0.0, , , , , , 97, , , 49, 49, 49
38.7448353, -120.4088705, 23.000, 14:35:12.576, 12, 0.00, 0.17, 98, -0.100, -0.200, -37.700, 1293, 100, 99, 23, 23600, -19227, 5362, 5472, 12, 14, 1528407312.577, 15, 0, 1024, 1024, 1024, 1024, 0, 6, 3949, 3918, 3916, 3930, 3954, 3944, 0, 1, 13212, -90.000, 0.000, -38.500, 0.000, 0.000, -2.900, 0.0, , , , , , 97, , , 49, 49, 49
38.7448353, -120.4088705, 23.000, 14:35:12.666, 12, 0.00, 0.17, 98, -0.100, -0.200, -37.700, 1293, 100, 99, 23, 23600, -19227, 5362, 5472, 12, 14, 1528407312.667, 105, 0, 1024, 1024, 1024, 1024, 0, 6, 3949, 3918, 3916, 3930, 3954, 3944, 0, 1, 13302, -90.000, 0.000, -38.500, 0.000, 0.000, -2.900, 0.0, , , , , , 97, , , 49, 49, 49
38.7448353, -120.4088705, 23.300, 14:35:12.766, 12, 0.00, 0.18, 98, -0.200, -0.200, -37.700, 1293, 100, 99, 23, 23600, -19227, 5362, 5472, 12, 14, 1528407312.766, 97, 0, 1024, 1024, 1024, 1024, 0, 6, 3949, 3918, 3916, 3930, 3954, 3944, 0, 1, 13401, -90.000, 0.000, -38.500, 0.000, 0.000, -2.900, 0.0, , , , , , 97, , , 49, 49, 49
38.7448352, -120.4088705, 23.600, 14:35:12.866, 12, 0.00, 0.18, 98, -0.200, -0.200, -37.700, 1293, 100, 99, 24, 23581, -19199, 5362, 5472, 12, 14, 1528407312.867, 91, 0, 1024, 1024, 1024, 1024, 0, 6, 3939, 3912, 3913, 3921, 3950, 3936, 0, 1, 13502, -90.000, 0.000, -38.500, 0.000, 0.000, -2.900, 0.0, , , , , , 97, , , 49, 49, 49
38.7448352, -120.4088705, 23.900, 14:35:12.966, 12, 0.00, 0.18, 98, -0.100, -0.200, -37.700, 1293, 100, 98, 24, 23581, -19199, 5362, 5472, 12, 14, 1528407312.967, 96, 0, 1024, 1024, 1024, 1024, 0, 6, 3939, 3912, 3913, 3921, 3950, 3936, 0, 1, 13602, -90.000, 0.000, -38.500, 0.000, 0.000, -2.900, 0.0, , , , , , 97, , , 49, 49, 49
38.7448352, -120.4088706, 24.200, 14:35:13.066, 12, 0.00, 0.17, 98, 0.000, -0.100, -37.700, 1293, 100, 98, 24, 23581, -19199, 5362, 5472, 12, 14, 1528407313.067, 86, 0, 1024, 1024, 1024, 1024, 0, 6, 3939, 3912, 3913, 3921, 3950, 3936, 0, 1, 13702, -90.000, 0.000, -38.500, 0.000, 0.000, -2.900, 0.0, , , , , , 97, , , 49, 49, 49
38.7448352, -120.4088706, 24.500, 14:35:13.165, 12, 0.00, 0.17, 98, 0.000, 0.000, -37.700, 1293, 100, 98, 24, 23581, -19199, 5362, 5472, 12, 14, 1528407313.165, 70, 0, 1024, 1024, 1024, 1024, 0, 6, 3939, 3912, 3913, 3921, 3950, 3936, 0, 1, 13801, -90.000, 0.000, -38.500, 0.000, 0.000, -2.900, 0.0, , , , , , 97, , , 49, 49, 49
38.7448352, -120.4088706, 24.800, 14:35:13.266, 12, 0.00, 0.17, 98, 0.000, 0.000, -37.600, 1293, 100, 98, 24, 23581, -19199, 5362, 5472, 12, 14, 1528407313.266, 86, 0, 1024, 1024, 1024, 1024, 0, 6, 3939, 3912, 3913, 3921, 3950, 3936, 0, 1, 13902, -89.900, 0.000, -38.500, 0.000, 0.000, -2.900, 0.0, , , , , , 97, , , 49, 49, 49
38.7448352, -120.4088706, 25.100, 14:35:13.366, 12, 0.00, 0.17, 98, -0.100, 0.100, -37.600, 1293, 100, 98, 24, 23581, -19199, 5362, 5472, 12, 14, 1528407313.367, 68, 0, 1024, 1024, 1024, 1024, 0, 6, 3939, 3912, 3913, 3921, 3950, 3936, 0, 1, 14002, -90.000, 0.000, -38.500, 0.000, 0.000, -2.900, 0.0, , , , , , 97, , , 49, 49, 49
38.7448352, -120.4088706, 25.700, 14:35:13.466, 12, 0.00, 0.17, 98, -0.300, 0.100, -37.600, 1293, 100, 99, 24, 23581, -19199, 5362, 5472, 12, 14, 1528407313.467, 65, 0, 1024, 1024, 1024, 1024, 0, 6, 3939, 3912, 3913, 3921, 3950, 3936, 0, 1, 14102, -90.000, 0.000, -38.500, 0.000, 0.000, -2.900, 0.0, , , , , , 97, , , 49, 49, 49
38.7448352, -120.4088706, 26.000, 14:35:13.566, 12, 0.00, 0.17, 98, -0.300, 0.200, -37.600, 1293, 100, 99, 24, 23581, -19199, 5362, 5472, 12, 14, 1528407313.567, 60, 0, 1024, 1024, 1024, 1024, 0, 6, 3939, 3912, 3913, 3921, 3950, 3936, 0, 1, 14202, -89.900, 0.000, -38.500, 0.000, 0.000, -2.900, 0.0, , , , , , 97, , , 49, 49, 49
38.7448352, -120.4088707, 26.300, 14:35:13.666, 12, 0.00, 0.17, 98, -0.200, 0.200, -37.700, 1293, 100, 99, 24, 23581, -19199, 5362, 5472, 12, 14, 1528407313.667, 63, 0, 1024, 1024, 1024, 1024, 0, 6, 3939, 3912, 3913, 3921, 3950, 3936, 0, 1, 14302, -89.900, 0.000, -38.500, 0.000, 0.000, -3.000, 0.0, , , , , , 97, , , 49, 49, 49
38.7448352, -120.4088707, 26.600, 14:35:13.766, 12, 0.00, 0.16, 98, -0.100, 0.300, -37.700, 1293, 100, 99, 24, 23562, -19076, 5307, 5472, 12, 14, 1528407313.767, 47, 0, 1024, 1024, 1024, 1024, 0, 6, 3932, 3909, 3909, 3928, 3949, 3927, 0, 1, 14402, -89.900, 0.000, -38.500, 0.000, 0.000, -2.900, 0.0, , , , , , 97, , , 49, 49, 49
38.7448352, -120.4088707, 26.900, 14:35:13.866, 12, 0.00, 0.16, 98, -0.100, 0.400, -37.700, 1293, 100, 99, 24, 23562, -19076, 5307, 5472, 12, 14, 1528407313.867, 56, 0, 1024, 1024, 1024, 1024, 0, 6, 3932, 3909, 3909, 3928, 3949, 3927, 0, 1, 14502, -89.900, 0.000, -38.500, 0.000, 0.000, -2.900, 0.0, , , , , , 97, , , 49, 49, 49
38.7448352, -120.4088708, 27.200, 14:35:13.965, 12, 0.00, 0.16, 98, -0.100, 0.400, -37.700, 1293, 100, 99, 24, 23562, -19076, 5307, 5472, 12, 14, 1528407313.966, 25, 0, 1024, 1024, 1024, 1024, 0, 6, 3932, 3909, 3909, 3928, 3949, 3927, 0, 1, 14601, -89.900, 0.000, -38.500, 0.000, 0.000, -2.800, 0.0, , , , , , 97, , , 49, 49, 49
38.7448352, -120.4088707, 27.500, 14:35:14.066, 12, 0.00, 0.16, 98, 0.000, 0.400, -37.700, 1293, 100, 99, 24, 23562, -19076, 5307, 5472, 12, 14, 1528407314.067, 10, 0, 1024, 1024, 1024, 1024, 0, 6, 3932, 3909, 3909, 3928, 3949, 3927, 0, 1, 14702, -89.900, 0.000, -38.500, 0.000, 0.000, -2.900, 0.0, , , , , , 97, , , 49, 49, 49
38.7448353, -120.4088707, 27.800, 14:35:14.166, 12, 0.00, 0.16, 98, -0.100, 0.300, -37.600, 1293, 100, 99, 24, 23562, -19076, 5307, 5472, 12, 14, 1528407314.167, 48, 0, 1024, 1024, 1024, 1024, 0, 6, 3932, 3909, 3909, 3928, 3949, 3927, 0, 1, 14802, -89.900, 0.000, -38.500, 0.000, 0.000, -2.900, 0.0, , , , , , 97, , , 49, 49, 49
38.7448353, -120.4088707, 28.100, 14:35:14.266, 12, 0.00, 0.16, 98, -0.300, 0.200, -37.600, 1293, 100, 99, 24, 23562, -19076, 5307, 5472, 12, 14, 1528407314.266, 39, 0, 1024, 1024, 1024, 1024, 0, 6, 3932, 3909, 3909, 3928, 3949, 3927, 0, 1, 14901, -90.000, 0.000, -38.500, 0.000, 0.000, -3.000, 0.0, , , , , , 97, , , 49, 49, 49
38.7448353, -120.4088707, 28.400, 14:35:14.366, 12, 0.00, 0.16, 98, -0.300, 0.100, -37.700, 1293, 100, 100, 24, 23562, -19076, 5307, 5472, 12, 14, 1528407314.366, 26, 0, 1024, 1024, 1024, 1024, 0, 6, 3932, 3909, 3909, 3928, 3949, 3927, 0, 1, 15001, -90.000, 0.000, -38.500, 0.000, 0.000, -3.000, 0.0, , , , , , 97, , , 49, 49, 49
38.7448353, -120.4088707, 28.700, 14:35:14.467, 12, 0.00, 0.16, 98, -0.400, 0.100, -37.700, 1293, 100, 100, 24, 23562, -19076, 5307, 5472, 12, 14, 1528407314.468, 4, 0, 1024, 1024, 1024, 1024, 0, 6, 3932, 3909, 3909, 3928, 3949, 3927, 0, 1, 15103, -90.000, 0.000, -38.500, 0.000, 0.000, -3.000, 0.0, , , , , , 97, , , 49, 49, 49
38.7448353, -120.4088706, 29.000, 14:35:14.575, 12, 0.00, 0.16, 98, -0.300, 0.300, -37.800, 1293, 100, 100, 24, 23562, -19076, 5307, 5472, 12, 14, 1528407314.576, 11, 0, 1024, 1024, 1024, 1024, 0, 6, 3932, 3909, 3909, 3928, 3949, 3927, 0, 1, 15211, -89.900, 0.000, -38.500, 0.000, 0.000, -3.000, 0.0, , , , , , 97, , , 49, 49, 49
38.7448353, -120.4088706, 29.300, 14:35:14.665, 12, 0.00, 0.16, 98, -0.100, 0.300, -37.700, 1293, 100, 100, 24, 23562, -19076, 5307, 5472, 12, 14, 1528407314.667, 9, 0, 1024, 1024, 1024, 1024, 0, 6, 3932, 3909, 3909, 3928, 3949, 3927, 0, 1, 15302, -89.900, 0.000, -38.500, 0.000, 0.000, -3.000, 0.0, , , , , , 97, , , 49, 49, 49
38.7448353, -120.4088706, 29.600, 14:35:14.765, 12, 0.00, 0.17, 97, 0.000, 0.400, -37.700, 1293, 100, 100, 24, 23513, -19219, 5307, 5472, 12, 14, 1528407314.765, 10, 0, 1024, 1024, 1024, 1024, 0, 6, 3932, 3909, 3909, 3928, 3949, 3927, 0, 1, 15401, -89.900, 0.000, -38.500, 0.000, 0.000, -3.000, 0.0, , , , , , 97, , , 49, 49, 49
38.7448352, -120.4088706, 29.900, 14:35:14.874, 12, 0.00, 0.17, 97, 0.000, 0.300, -37.600, 1293, 100, 100, 24, 23513, -19219, 5307, 5472, 12, 14, 1528407314.875, 13, 0, 1024, 1024, 1024, 1024, 0, 6, 3927, 3900, 3899, 3913, 3950, 3929, 0, 1, 15510, -89.900, 0.000, -38.500, 0.000, 0.000, -3.000, 0.0, , , , , , 97, , , 49, 49, 49
38.7448352, -120.4088706, 30.300, 14:35:14.965, 12, 0.00, 0.17, 97, 0.000, 0.100, -37.500, 1293, 100, 100, 24, 23513, -19219, 5307, 5472, 12, 14, 1528407314.967, 10, 0, 1024, 1024, 1024, 1024, 0, 6, 3927, 3900, 3899, 3913, 3950, 3929, 0, 1, 15602, -90.000, 0.000, -38.500, 0.000, 0.000, -3.000, 0.0, , , , , , 97, , , 49, 49, 49
38.7448352, -120.4088706, 30.600, 14:35:15.083, 12, 0.00, 0.17, 97, -0.200, 0.000, -37.500, 1293, 100, 100, 24, 23513, -19219, 5307, 5472, 12, 14, 1528407315.083, 4, 0, 1024, 1024, 1024, 1024, 0, 6, 3927, 3900, 3899, 3913, 3950, 3929, 0, 1, 15718, -90.000, 0.000, -38.500, 0.000, 0.000, -3.000, 0.0, , , , , , 97, , , 49, 49, 49
38.7448353, -120.4088705, 30.900, 14:35:15.165, 12, 0.00, 0.18, 97, -0.500, 0.100, -37.600, 1293, 100, 100, 24, 23513, -19219, 5307, 5472, 12, 14, 1528407315.166, 6, 0, 1024, 1024, 1024, 1024, 0, 6, 3927, 3900, 3899, 3913, 3950, 3929, 0, 1, 15801, -90.000, 0.000, -38.500, 0.000, 0.000, -3.000, 0.0, , , , , , 97, , , 49, 49, 49
38.7448353, -120.4088705, 30.900, 14:35:15.266, 12, 0.00, 0.18, 97, -0.500, 0.100, -37.600, 1293, 100, 100, 24, 23513, -19219, 5307, 5472, 12, 14, 1528407315.267, 107, 0, 1024, 1024, 1024, 1024, 0, 6, 3927, 3900, 3899, 3913, 3950, 3929, 0, 1, 15902, -90.000, 0.000, -38.500, 0.000, 0.000, -3.000, 0.0, , , , , , 97, , , 49, 49, 49
38.7448352, -120.4088704, 31.200, 14:35:15.366, 12, 0.00, 0.18, 97, -0.700, 0.000, -37.700, 1293, 100, 100, 24, 23513, -19219, 5307, 5472, 12, 14, 1528407315.368, 87, 0, 1024, 1024, 1024, 1024, 0, 6, 3927, 3900, 3899, 3913, 3950, 3929, 0, 1, 16003, -90.000, 0.000, -38.500, 0.000, 0.000, -2.900, 0.0, , , , , , 97, , , 49, 49, 49
38.7448352, -120.4088703, 31.500, 14:35:15.466, 12, 0.00, 0.19, 97, -0.800, -0.200, -37.800, 1293, 100, 100, 24, 23513, -19219, 5307, 5472, 12, 14, 1528407315.467, 79, 0, 1024, 1024, 1024, 1024, 0, 6, 3927, 3900, 3899, 3913, 3950, 3929, 0, 1, 16102, -90.000, 0.000, -38.500, 0.000, 0.000, -2.800, 0.0, , , , , , 97, , , 49, 49, 49
38.7448352, -120.4088702, 31.800, 14:35:15.566, 12, 0.00, 0.20, 97, -0.900, -0.300, -37.900, 1293, 100, 100, 24, 23513, -19219, 5307, 5472, 12, 14, 1528407315.567, 80, 0, 1024, 1024, 1024, 1024, 0, 6, 3927, 3900, 3899, 3913, 3950, 3929, 0, 1, 16202, -90.000, 0.000, -38.500, 0.000, 0.000, -2.900, 0.0, , , , , , 97, , , 49, 49, 49
38.7448352, -120.4088701, 32.100, 14:35:15.666, 12, 0.00, 0.22, 97, -0.900, -0.400, -38.000, 1293, 100, 100, 24, 23513, -19219, 5307, 5472, 12, 14, 1528407315.666, 65, 0, 1024, 1024, 1024, 1024, 0, 6, 3927, 3900, 3899, 3913, 3950, 3929, 0, 1, 16302, -90.000, 0.000, -38.500, 0.000, 0.000, -2.800, 0.0, , , , , , 97, , , 49, 49, 49
38.7448351, -120.4088700, 32.400, 14:35:15.766, 12, 0.00, 0.22, 97, -1.000, -0.700, -37.900, 1293, 100, 100, 24, 23513, -19219, 5307, 5472, 12, 14, 1528407315.766, 79, 0, 1024, 1024, 1024, 1024, 0, 6, 3927, 3900, 3899, 3913, 3950, 3929, 0, 1, 16401, -90.000, 0.000, -38.500, 0.000, 0.000, -2.800, 0.0, , , , , , 97, , , 49, 49, 49
38.7448350, -120.4088699, 32.900, 14:35:15.866, 12, 0.00, 0.23, 97, -0.300, -1.200, -37.600, 1293, 100, 100, 24, 23477, -19260, 5307, 5472, 12, 14, 1528407315.867, 60, 0, 1024, 1024, 1024, 1024, 0, 6, 3927, 3900, 3899, 3913, 3950, 3929, 0, 1, 16502, -90.000, 0.000, -38.500, 0.000, 0.000, -2.900, 0.0, , , , , , 97, , , 49, 49, 49
38.7448350, -120.4088699, 33.200, 14:35:15.966, 12, 0.00, 0.24, 97, -0.200, -1.000, -37.500, 1293, 100, 100, 24, 23477, -19260, 5307, 5472, 12, 14, 1528407315.966, 49, 0, 1024, 1024, 1024, 1024, 0, 6, 3927, 3900, 3899, 3913, 3950, 3929, 0, 1, 16602, -90.000, 0.000, -38.500, 0.000, 0.000, -2.900, 0.0, , , , , , 97, , , 49, 49, 49
38.7448350, -120.4088698, 33.500, 14:35:16.066, 13, 0.00, 0.24, 97, -0.500, -0.700, -37.500, 1293, 100, 100, 24, 23477, -19260, 5307, 5472, 12, 14, 1528407316.067, 49, 0, 1024, 1024, 1024, 1024, 0, 6, 3927, 3900, 3899, 3913, 3950, 3929, 0, 1, 16702, -90.000, 0.000, -38.500, 0.000, 0.000, -2.900, 0.0, , , , , , 97, , , 49, 49, 49
38.7448350, -120.4088698, 33.800, 14:35:16.166, 13, 0.00, 0.25, 97, -0.700, -0.500, -37.500, 1293, 100, 100, 24, 23477, -19260, 5307, 5472, 12, 14, 1528407316.166, 63, 0, 1024, 1024, 1024, 1024, 0, 6, 3927, 3900, 3899, 3913, 3950, 3929, 0, 1, 16801, -89.900, 0.000, -38.500, 0.000, 0.000, -2.900, 0.0, , , , , , 97, , , 49, 49, 49
38.7448350, -120.4088698, 34.100, 14:35:16.266, 13, 0.00, 0.25, 97, -0.600, -0.300, -37.600, 1293, 100, 100, 24, 23477, -19260, 5307, 5472, 12, 14, 1528407316.267, 49, 0, 1024, 1024, 1024, 1024, 0, 6, 3941, 3899, 3896, 3905, 3939, 3924, 0, 1, 16902, -89.900, 0.000, -38.500, 0.000, 0.000, -2.900, 0.0, , , , , , 97, , , 49, 49, 49
38.7448349, -120.4088698, 34.500, 14:35:16.366, 13, 0.00, 0.25, 97, -0.500, -0.200, -37.700, 1293, 100, 100, 24, 23477, -19260, 5307, 5472, 12, 14, 1528407316.367, 39, 0, 1024, 1024, 1024, 1024, 0, 6, 3941, 3899, 3896, 3905, 3939, 3924, 0, 1, 17002, -90.000, 0.000, -38.500, 0.000, 0.000, -2.900, 0.0, , , , , , 97, , , 49, 49, 49
38.7448349, -120.4088697, 34.800, 14:35:16.466, 13, 0.00, 0.25, 97, -0.400, -0.300, -37.800, 1293, 100, 100, 24, 23477, -19260, 5307, 5472, 12, 14, 1528407316.466, 17, 0, 1024, 1024, 1024, 1024, 0, 6, 3941, 3899, 3896, 3905, 3939, 3924, 0, 1, 17101, -90.000, 0.000, -38.500, 0.000, 0.000, -2.900, 0.0, , , , , , 97, , , 49, 49, 49
38.7448349, -120.4088697, 35.000, 14:35:16.566, 13, 0.00, 0.25, 97, -0.600, -0.500, -37.800, 1293, 100, 100, 24, 23477, -19260, 5307, 5472, 12, 14, 1528407316.566, 43, 0, 1024, 1024, 1024, 1024, 0, 6, 3941, 3899, 3896, 3905, 3939, 3924, 0, 1, 17202, -90.000, 0.000, -38.500, 0.000, 0.000, -2.900, 0.0, , , , , , 97, , , 49, 49, 49
38.7448349, -120.4088697, 35.300, 14:35:16.665, 13, 0.00, 0.25, 97, -0.700, -0.700, -37.800, 1293, 100, 100, 24, 23477, -19260, 5307, 5472, 12, 14, 1528407316.665, 31, 0, 1024, 1024, 1024, 1024, 0, 6, 3941, 3899, 3896, 3905, 3939, 3924, 0, 1, 17300, -90.000, 0.000, -38.500, 0.000, 0.000, -2.900, 0.0, , , , , , 97, , , 49, 49, 49
38.7448349, -120.4088698, 35.600, 14:35:16.765, 13, 0.00, 0.25, 97, -0.500, -0.900, -37.800, 1293, 100, 100, 24, 23477, -19260, 5307, 5472, 12, 14, 1528407316.766, 10, 0, 1024, 1024, 1024, 1024, 0, 6, 3941, 3899, 3896, 3905, 3939, 3924, 0, 1, 17401, -90.000, 0.000, -38.500, 0.000, 0.000, -3.000, 0.0, , , , , , 97, , , 49, 49, 49
38.7448348, -120.4088698, 36.000, 14:35:16.866, 13, 0.00, 0.25, 97, -0.300, -1.000, -37.800, 1293, 100, 100, 24, 23477, -19260, 5307, 5472, 12, 14, 1528407316.866, 27, 0, 1024, 1024, 1024, 1024, 0, 6, 3941, 3899, 3896, 3905, 3939, 3924, 0, 1, 17501, -90.000, 0.000, -38.500, 0.000, 0.000, -2.900, 0.0, , , , , , 97, , , 49, 49, 49
38.7448348, -120.4088698, 36.200, 14:35:16.966, 13, 0.00, 0.25, 97, -0.200, -1.000, -37.700, 1293, 100, 100, 24, 23477, -19260, 5307, 5472, 12, 14, 1528407316.966, 25, 0, 1024, 1024, 1024, 1024, 0, 6, 3941, 3899, 3896, 3905, 3939, 3924, 0, 1, 17601, -90.000, 0.000, -38.500, 0.000, 0.000, -2.900, 0.0, , , , , , 97, , , 49, 49, 49
38.7448348, -120.4088698, 36.500, 14:35:17.066, 13, 0.00, 0.25, 97, -0.100, -0.900, -37.600, 1293, 100, 100, 24, 23477, -19260, 5307, 5472, 12, 14, 1528407317.067, 15, 0, 1024, 1024, 1024, 1024, 0, 6, 3941, 3899, 3896, 3905, 3939, 3924, 0, 1, 17702, -90.000, 0.000, -38.500, 0.000, 0.000, -2.900, 0.0, , , , , , 97, , , 49, 49, 49
38.7448348, -120.4088698, 36.800, 14:35:17.166, 13, 0.00, 0.25, 97, 0.000, -0.900, -37.600, 1293, 100, 100, 24, 23477, -19260, 5307, 5472, 12, 14, 1528407317.167, 15, 0, 1024, 1024, 1024, 1024, 0, 6, 3941, 3899, 3896, 3905, 3939, 3924, 0, 1, 17802, -90.000, 0.000, -38.500, 0.000, 0.000, -2.900, 0.0, , , , , , 97, , , 49, 49, 49
38.7448348, -120.4088698, 37.100, 14:35:17.266, 13, 0.00, 0.25, 97, -0.200, -0.900, -37.500, 1293, 100, 100, 24, 23446, -18974, 5307, 5472, 12, 14, 1528407317.267, 13, 0, 1024, 1024, 1024, 1024, 0, 6, 3941, 3899, 3896, 3905, 3939, 3924, 0, 1, 17902, -90.000, 0.000, -38.500, 0.000, 0.000, -2.900, 0.0, , , , , , 97, , , 49, 49, 49
38.7448348, -120.4088699, 37.400, 14:35:17.368, 13, 0.00, 0.25, 97, -0.100, -0.900, -37.500, 1293, 100, 100, 24, 23446, -18974, 5307, 5472, 12, 14, 1528407317.369, 14, 0, 1024, 1024, 1024, 1024, 0, 6, 3932, 3893, 3885, 3891, 3926, 3915, 0, 1, 18004, -90.000, 0.000, -38.500, 0.000, 0.000, -2.900, 0.0, , , , , , 97, , , 49, 49, 49
38.7448348, -120.4088699, 37.400, 14:35:17.466, 13, 0.00, 0.25, 97, -0.100, -0.900, -37.500, 1293, 100, 100, 24, 23446, -18974, 5307, 5472, 12, 14, 1528407317.466, 112, 0, 1024, 1024, 1024, 1024, 0, 6, 3932, 3893, 3885, 3891, 3926, 3915, 0, 1, 18101, -90.000, 0.000, -38.500, 0.000, 0.000, -2.900, 0.0, , , , , , 97, , , 49, 49, 49
38.7448347, -120.4088700, 38.000, 14:35:17.571, 13, 0.00, 0.25, 97, -0.100, -0.900, -37.600, 1293, 100, 100, 24, 23446, -18974, 5307, 5472, 12, 14, 1528407317.572, 8, 0, 1024, 1024, 1024, 1024, 0, 6, 3932, 3893, 3885, 3891, 3926, 3915, 0, 1, 18207, -90.000, 0.000, -38.500, 0.000, 0.000, -2.900, 0.0, , , , , , 97, , , 49, 49, 49
38.7448347, -120.4088700, 38.300, 14:35:17.669, 13, 0.00, 0.24, 97, -0.200, -0.600, -37.700, 1293, 100, 100, 24, 23446, -18974, 5307, 5472, 12, 14, 1528407317.670, 4, 0, 1024, 1024, 1024, 1024, 0, 6, 3932, 3893, 3885, 3891, 3926, 3915, 0, 1, 18305, -90.000, 0.000, -38.500, 0.000, 0.000, -2.900, 0.0, , , , , , 97, , , 49, 49, 49
38.7448347, -120.4088700, 38.300, 14:35:17.766, 13, 0.00, 0.24, 97, -0.200, -0.600, -37.700, 1293, 100, 100, 24, 23446, -18974, 5307, 5472, 12, 14, 1528407317.766, 101, 0, 1024, 1024, 1024, 1024, 0, 6, 3932, 3893, 3885, 3891, 3926, 3915, 0, 1, 18401, -90.000, 0.000, -38.500, 0.000, 0.000, -2.900, 0.0, , , , , , 97, , , 49, 49, 49
38.7448348, -120.4088700, 38.600, 14:35:17.866, 13, 0.00, 0.24, 97, -0.400, -0.500, -37.700, 1293, 100, 100, 24, 23446, -18974, 5307, 5472, 12, 14, 1528407317.866, 94, 0, 1024, 1024, 1024, 1024, 0, 6, 3932, 3893, 3885, 3891, 3926, 3915, 0, 1, 18501, -90.000, 0.000, -38.500, 0.000, 0.000, -2.900, 0.0, , , , , , 97, , , 49, 49, 49
38.7448348, -120.4088700, 39.000, 14:35:17.965, 13, 0.00, 0.24, 97, -0.500, -0.500, -37.700, 1293, 100, 99, 24, 23446, -18974, 5307, 5472, 12, 14, 1528407317.966, 73, 0, 1024, 1024, 1024, 1024, 0, 6, 3932, 3893, 3885, 3891, 3926, 3915, 0, 1, 18601, -90.000, 0.000, -38.500, 0.000, 0.000, -2.900, 0.0, , , , , , 97, , , 49, 49, 49
38.7448348, -120.4088700, 39.300, 14:35:18.066, 13, 0.00, 0.24, 97, -0.600, -0.500, -37.700, 1293, 100, 99, 24, 23446, -18974, 5307, 5472, 12, 14, 1528407318.067, 80, 0, 1024, 1024, 1024, 1024, 0, 6, 3932, 3893, 3885, 3891, 3926, 3915, 0, 1, 18702, -89.900, 0.000, -38.500, 0.000, 0.000, -3.000, 0.0, , , , , , 97, , , 49, 49, 49
38.7448348, -120.4088700, 39.600, 14:35:18.166, 13, 0.00, 0.24, 97, -0.800, -0.500, -37.700, 1293, 100, 99, 24, 23446, -18974, 5307, 5472, 12, 14, 1528407318.166, 64, 0, 1024, 1024, 1024, 1024, 0, 6, 3932, 3893, 3885, 3891, 3926, 3915, 0, 1, 18801, -89.900, 0.000, -38.500, 0.000, 0.000, -2.900, 0.0, , , , , , 97, , , 49, 49, 49
38.7448348, -120.4088700, 39.900, 14:35:18.266, 13, 0.00, 0.24, 97, -0.800, -0.500, -37.800, 1293, 100, 99, 24, 23446, -18974, 5307, 5472, 12, 14, 1528407318.266, 79, 0, 1024, 1024, 1024, 1024, 0, 6, 3932, 3893, 3885, 3891, 3926, 3915, 0, 1, 18901, -90.000, 0.000, -38.500, 0.000, 0.000, -2.900, 0.0, , , , , , 97, , , 49, 49, 49
38.7448348, -120.4088700, 40.200, 14:35:18.366, 13, 0.00, 0.24, 97, -0.700, -0.600, -37.800, 1293, 100, 99, 24, 23485, -18513, 5307, 5472, 12, 14, 1528407318.367, 36, 0, 1024, 1024, 1024, 1024, 0, 6, 3923, 3896, 3894, 3909, 3934, 3927, 0, 1, 19002, -89.900, 0.000, -38.500, 0.000, 0.000, -2.900, 0.0, , , , , , 97, , , 49, 49, 49
38.7448349, -120.4088700, 40.800, 14:35:18.466, 13, 0.00, 0.24, 97, -0.300, -0.600, -37.800, 1293, 100, 99, 24, 23485, -18513, 5307, 5472, 12, 14, 1528407318.467, 68, 0, 1024, 1024, 1024, 1024, 0, 6, 3923, 3896, 3894, 3909, 3934, 3927, 0, 1, 19102, -89.900, 0.000, -38.500, 0.000, 0.000, -2.900, 0.0, , , , , , 97, , , 49, 49, 49
38.7448349, -120.4088700, 41.100, 14:35:18.566, 13, 0.00, 0.23, 97, -0.200, -0.600, -37.800, 1293, 100, 99, 24, 23485, -18513, 5307, 5472, 12, 14, 1528407318.567, 55, 0, 1024, 1024, 1024, 1024, 0, 6, 3923, 3896, 3894, 3909, 3934, 3927, 0, 1, 19202, -89.900, 0.000, -38.500, 0.000, 0.000, -2.800, 0.0, , , , , , 97, , , 49, 49, 49
38.7448349, -120.4088700, 41.400, 14:35:18.666, 13, 0.00, 0.23, 97, -0.400, -0.400, -37.700, 1293, 100, 99, 24, 23485, -18513, 5307, 5472, 12, 14, 1528407318.666, 36, 0, 1024, 1024, 1024, 1024, 0, 6, 3923, 3896, 3894, 3909, 3934, 3927, 0, 1, 19301, -89.900, 0.000, -38.500, 0.000, 0.000, -2.800, 0.0, , , , , , 97, , , 49, 49, 49
38.7448350, -120.4088699, 41.700, 14:35:18.766, 13, 0.00, 0.24, 97, -0.800, -0.200, -37.600, 1293, 100, 99, 24, 23485, -18513, 5307, 5472, 12, 14, 1528407318.766, 49, 0, 1024, 1024, 1024, 1024, 0, 6, 3923, 3896, 3894, 3909, 3934, 3927, 0, 1, 19401, -89.900, 0.000, -38.500, 0.000, 0.000, -2.900, 0.0, , , , , , 97, , , 49, 49, 49
38.7448351, -120.4088698, 42.000, 14:35:18.866, 13, 0.00, 0.24, 97, -1.500, -0.200, -37.500, 1293, 100, 99, 24, 23485, -18513, 5307, 5472, 12, 14, 1528407318.866, 15, 0, 1024, 1024, 1024, 1024, 0, 6, 3923, 3896, 3894, 3909, 3934, 3927, 0, 1, 19501, -89.900, 0.000, -38.500, 0.000, 0.000, -2.900, 0.0, , , , , , 97, , , 49, 49, 49
38.7448351, -120.4088698, 42.300, 14:35:18.966, 13, 0.00, 0.24, 97, -1.800, -0.400, -37.500, 1293, 100, 99, 24, 23485, -18513, 5307, 5472, 12, 14, 1528407318.966, 20, 0, 1024, 1024, 1024, 1024, 0, 6, 3923, 3896, 3894, 3909, 3934, 3927, 0, 1, 19601, -89.900, 0.000, -38.500, 0.000, 0.000, -2.900, 0.0, , , , , , 97, , , 49, 49, 49
38.7448351, -120.4088697, 42.600, 14:35:19.066, 13, 0.00, 0.24, 97, -2.000, -0.400, -37.600, 1293, 100, 99, 24, 23485, -18513, 5307, 5472, 12, 14, 1528407319.066, 6, 0, 1024, 1024, 1024, 1024, 0, 6, 3923, 3896, 3894, 3909, 3934, 3927, 0, 1, 19702, -89.900, 0.000, -38.500, 0.000, 0.000, -2.900, 0.0, , , , , , 97, , , 49, 49, 49
38.7448352, -120.4088697, 42.900, 14:35:19.169, 13, 0.00, 0.25, 97, -1.800, -0.400, -37.600, 1293, 100, 99, 24, 23485, -18513, 5307, 5472, 12, 14, 1528407319.170, 13, 0, 1024, 1024, 1024, 1024, 0, 6, 3923, 3896, 3894, 3909, 3934, 3927, 0, 1, 19805, -89.900, 0.000, -38.500, 0.000, 0.000, -3.000, 0.0, , , , , , 97, , , 49, 49, 49
38.7448352, -120.4088697, 43.200, 14:35:19.266, 13, 0.00, 0.25, 97, -1.600, -0.400, -37.600, 1293, 100, 99, 24, 23440, -19099, 5307, 5472, 12, 14, 1528407319.266, 9, 0, 1024, 1024, 1024, 1024, 0, 6, 3923, 3896, 3894, 3909, 3934, 3927, 0, 1, 19901, -89.900, 0.000, -38.500, 0.000, 0.000, -2.900, 0.0, , , , , , 97, , , 49, 49, 49
38.7448352, -120.4088697, 43.500, 14:35:19.374, 13, 0.00, 0.24, 97, -1.200, -0.500, -37.600, 1293, 100, 100, 24, 23440, -19099, 5307, 5472, 12, 14, 1528407319.375, 27, 0, 1024, 1024, 1024, 1024, 0, 6, 3917, 3896, 3890, 3899, 3935, 3911, 0, 1, 20010, -90.000, 0.000, -38.500, 0.000, 0.000, -2.900, 0.0, , , , , , 97, , , 49, 49, 49
38.7448351, -120.4088697, 43.700, 14:35:19.477, 13, 0.00, 0.24, 97, -1.000, -0.600, -37.600, 1293, 100, 100, 24, 23440, -19099, 5307, 5472, 12, 14, 1528407319.478, 6, 0, 1024, 1024, 1024, 1024, 0, 6, 3917, 3896, 3890, 3899, 3935, 3911, 0, 1, 20113, -90.000, 0.000, -38.500, 0.000, 0.000, -2.800, 0.0, , , , , , 97, , , 49, 49, 49
38.7448351, -120.4088697, 43.700, 14:35:19.569, 13, 0.00, 0.24, 97, -1.000, -0.600, -37.600, 1293, 100, 100, 24, 23440, -19099, 5307, 5472, 12, 14, 1528407319.569, 97, 0, 1024, 1024, 1024, 1024, 0, 6, 3917, 3896, 3890, 3899, 3935, 3911, 0, 1, 20204, -90.000, 0.000, -38.500, 0.000, 0.000, -2.800, 0.0, , , , , , 97, , , 49, 49, 49
38.7448351, -120.4088698, 44.300, 14:35:19.677, 13, 0.00, 0.24, 97, -0.500, -0.800, -37.500, 1293, 100, 100, 24, 23440, -19099, 5307, 5472, 12, 14, 1528407319.677, 17, 0, 1024, 1024, 1024, 1024, 0, 6, 3917, 3896, 3890, 3899, 3935, 3911, 0, 1, 20313, -90.000, 0.000, -38.500, 0.000, 0.000, -2.900, 0.0, , , , , , 97, , , 49, 49, 49
38.7448351, -120.4088698, 44.300, 14:35:19.770, 13, 0.00, 0.24, 97, -0.500, -0.800, -37.500, 1293, 100, 100, 24, 23440, -19099, 5307, 5472, 12, 14, 1528407319.771, 110, 0, 1024, 1024, 1024, 1024, 0, 6, 3917, 3896, 3890, 3899, 3935, 3911, 0, 1, 20406, -90.000, 0.000, -38.500, 0.000, 0.000, -2.900, 0.0, , , , , , 97, , , 49, 49, 49
38.7448350, -120.4088698, 44.600, 14:35:19.871, 13, 0.10, 0.24, 97, -0.400, -0.900, -37.500, 1293, 100, 100, 24, 23440, -19099, 5307, 5472, 12, 14, 1528407319.872, 69, 0, 1024, 1024, 1024, 1024, 0, 6, 3917, 3896, 3890, 3899, 3935, 3911, 0, 1, 20507, -89.900, 0.000, -38.500, 0.000, -0.100, -2.900, 0.0, , , , , , 97, , , 49, 49, 49
38.7448350, -120.4088699, 44.900, 14:35:19.970, 13, 0.10, 0.24, 97, -0.300, -0.700, -37.600, 1293, 100, 98, 24, 23440, -19099, 5307, 5472, 12, 14, 1528407319.970, 76, 0, 1024, 1024, 1024, 1024, 0, 6, 3917, 3896, 3890, 3899, 3935, 3911, 0, 1, 20605, -89.900, 0.000, -38.500, 0.000, -0.100, -3.000, 0.0, , , , , , 97, , , 49, 49, 49
38.7448351, -120.4088699, 45.200, 14:35:20.070, 13, 0.10, 0.23, 97, -0.400, -0.500, -37.700, 1293, 100, 98, 24, 23440, -19099, 5307, 5472, 12, 14, 1528407320.071, 80, 0, 1024, 1024, 1024, 1024, 0, 6, 3917, 3896, 3890, 3899, 3935, 3911, 0, 1, 20706, -89.900, 0.000, -38.500, 0.000, -0.100, -3.000, 0.0, , , , , , 97, , , 49, 49, 49
38.7448351, -120.4088699, 45.500, 14:35:20.170, 13, 0.10, 0.23, 97, -0.500, -0.400, -37.800, 1293, 100, 98, 24, 23440, -19099, 5307, 5472, 12, 14, 1528407320.171, 90, 0, 1024, 1024, 1024, 1024, 0, 6, 3917, 3896, 3890, 3899, 3935, 3911, 0, 1, 20806, -89.900, 0.000, -38.500, 0.000, -0.100, -3.000, 0.0, , , , , , 97, , , 49, 49, 49
