latitude,longitude,altitude(feet),ascent(feet),speed(mph),distance(feet),time(millisecond),datetime(utc),satellites,gpslevel,voltage(v),max_altitude(feet),max_ascent(feet),max_speed(mph),max_distance(feet), xSpeed(mph), ySpeed(mph), zSpeed(mph), compass_heading(degrees), pitch(degrees), roll(degrees),isPhoto,isVideo,rc_elevator,rc_aileron,rc_throttle,rc_rudder,gimbal_heading(degrees),gimbal_pitch(degrees),battery_percent,voltageCell1,voltageCell2,voltageCell3,voltageCell4,voltageCell5,voltageCell6,current(A),battery_temperature(f),flycStateRaw,flycState,message
38.6884361,-120.4165674,5213.0032501494,0,0.223694,0,3120,2018-06-07 17:36:17,13,0,0,5213.0032501494,0,0.223694,0,0,0,0,52.6, -0.1, -0.4,1,0,1024,1024,1024,1024,52.1,-90,98,4.202,4.237,4.225,4.243,4.237,4.239,0,62.6,11,AutoTakeoff,DJI_0151.jpg Starting Mission from Lat/Long: 38.68842/-120.41656 Camera: Zenmuse X3 - Overlap: 90/90 - Active Connection: No
38.6884365,-120.4165676,5213.0032501494,0,0.223694,0.156660438084,3200,2018-06-07 17:36:17,13,0,0,5213.0032501494,0,0.223694,0.156660438084,0,0,0,53.2, 0, -0.2,0,0,1024,1024,1024,1024,52.2,-89.9,98,4.202,4.237,4.225,4.243,4.237,4.239,0,62.6,11,AutoTakeoff,
38.6884367,-120.4165677,5213.0032501494,0,0.223694,0.234990821168,3300,2018-06-07 17:36:17,13,0,0,5213.0032501494,0,0.223694,0.234990821168,0,0,0,53.2, 0, 0.2,0,0,1024,1024,1024,1024,52.1,-89.9,98,4.202,4.237,4.225,4.243,4.237,4.239,0,62.6,11,AutoTakeoff,
38.6884369,-120.4165678,5213.0032501494,0,0.447388,0.313321204252,3400,2018-06-07 17:36:17,13,0,0,5213.0032501494,0,0.447388,0.313321204252,0,0,0,53.1, 0.2, 0.7,0,0,1024,1024,1024,1024,52.2,-89.9,98,4.202,4.237,4.225,4.243,4.237,4.239,0,62.6,11,AutoTakeoff,
38.6884371,-120.4165678,5213.3313341494,0.328084,0.447388,0.38221786,3500,2018-06-07 17:36:17,14,0,0,5213.3313341494,0.328084,0.447388,0.38221786,0,0,0,53, 0.4, 1.1,0,0,1024,1024,1024,1024,52.1,-89.9,98,4.202,4.237,4.225,4.243,4.237,4.239,0,62.6,11,AutoTakeoff,
38.6884374,-120.4165679,5213.3313341494,0.328084,0.447388,0.49521655128,3600,2018-06-07 17:36:17,14,0,0,5213.3313341494,0.328084,0.447388,0.49521655128,0,0,0,52.8, 0.6, 1.5,0,0,1024,1024,1024,1024,52.2,-89.9,98,4.202,4.237,4.225,4.243,4.237,4.239,0,62.6,11,AutoTakeoff,
38.6884376,-120.416568,5213.6594181494,0.656168,0.447388,0.57333007084,3700,2018-06-07 17:36:17,13,0,0,5213.6594181494,0.656168,0.447388,0.57333007084,0,0,0,52.7, 0.9, 1.9,0,0,1024,1024,1024,1024,52.1,-89.9,98,4.202,4.237,4.225,4.243,4.237,4.239,0,62.6,11,AutoTakeoff,
38.6884378,-120.416568,5213.6594181494,0.656168,0.223694,0.64334975812,3800,2018-06-07 17:36:17,13,0,0,5213.6594181494,0.656168,0.447388,0.64334975812,0,0,0,52.6, 1.1, 2,0,0,1024,1024,1024,1024,52.1,-89.9,98,4.202,4.237,4.225,4.243,4.237,4.239,0,62.6,11,AutoTakeoff,
38.6884379,-120.4165681,5213.9875021494,0.984252,0.223694,0.6863189196,3900,2018-06-07 17:36:17,14,0,0,5213.9875021494,0.984252,0.447388,0.6863189196,0,0,0,52.6, 1.2, 2,0,0,1024,1024,1024,1024,52.1,-89.9,98,4.202,4.237,4.225,4.243,4.237,4.239,0,62.6,11,AutoTakeoff,
38.6884381,-120.4165681,5213.9875021494,0.984252,0.223694,0.75644031292,4000,2018-06-07 17:36:17,14,0,25.507,5213.9875021494,0.984252,0.447388,0.75644031292,0,0,0,52.6, 1.2, 1.9,0,0,1024,1024,1024,1024,52.1,-89.9,98,4.202,4.237,4.225,4.243,4.237,4.239,3.113,62.6,11,AutoTakeoff,
38.6884383,-120.4165682,5213.9875021494,0.984252,0.223694,0.83437666712,4100,2018-06-07 17:36:18,13,0,25.507,5213.9875021494,0.984252,0.447388,0.83437666712,0,0,0,52.6, 1.1, 1.8,0,0,1024,1024,1024,1024,52.1,-89.9,98,4.202,4.237,4.225,4.243,4.237,4.239,3.113,62.6,11,AutoTakeoff,
38.6884384,-120.4165681,5214.3155861494,1.312336,0.223694,0.86250658928,4300,2018-06-07 17:36:18,13,0,25.507,5214.3155861494,1.312336,0.447388,0.86250658928,0,0,0,52.5, 0.9, 1.5,0,0,1024,1024,1024,1024,52.1,-89.9,98,4.202,4.237,4.225,4.243,4.237,4.239,3.113,62.6,11,AutoTakeoff,
38.6884386,-120.4165681,5214.3155861494,1.312336,0.223694,0.93365488552,4400,2018-06-07 17:36:18,13,0,25.507,5214.3155861494,1.312336,0.447388,0.93365488552,0,0,0,52.5, 0.9, 1.2,0,0,1024,1024,1024,1024,52.1,-89.9,98,4.202,4.237,4.225,4.243,4.237,4.239,3.113,62.6,11,AutoTakeoff,
38.6884388,-120.4165682,5214.6436701494,1.64042,0,1.01109583288,4500,2018-06-07 17:36:18,13,0,25.507,5214.6436701494,1.64042,0.447388,1.01109583288,0,0,0,52.4, 1.1, 1.3,0,0,1024,1024,1024,1024,52.1,-89.9,98,4.202,4.237,4.225,4.243,4.237,4.239,3.113,62.6,11,AutoTakeoff,
38.6884389,-120.4165682,5214.9717541494,1.968504,0,1.04667326184,4700,2018-06-07 17:36:18,13,0,25.507,5214.9717541494,1.968504,0.447388,1.04667326184,0,0,0,52.4, 1.1, 1.4,0,0,1024,1024,1024,1024,52.1,-89.9,98,4.202,4.237,4.225,4.243,4.237,4.239,3.113,62.6,11,AutoTakeoff,
38.688439,-120.4165682,5214.9717541494,1.968504,0,1.08231302676,4800,2018-06-07 17:36:18,14,0,25.507,5214.9717541494,1.968504,0.447388,1.08231302676,0,0,-0.223694,52.3, 1.2, 1.5,0,0,1024,1024,1024,1024,52.1,-89.9,98,4.202,4.237,4.225,4.243,4.237,4.239,3.113,62.6,11,AutoTakeoff,
38.6884392,-120.4165683,5215.2998381494,2.296588,0,1.1597113232,4900,2018-06-07 17:36:18,14,0,25.507,5215.2998381494,2.296588,0.447388,1.1597113232,0,0,-0.223694,52.3, 1.3, 1.6,0,0,1024,1024,1024,1024,52.1,-89.9,98,4.202,4.237,4.225,4.243,4.237,4.239,3.113,62.6,11,AutoTakeoff,
38.6884393,-120.4165683,5215.2998381494,2.296588,0,1.19532156056,5000,2018-06-07 17:36:18,14,0,24.142,5215.2998381494,2.296588,0.447388,1.19532156056,0,0,-0.223694,52.4, 1.4, 1.6,0,0,1024,1024,1024,1024,52.1,-89.9,98,3.962,3.971,3.984,4.01,3.96,3.996,14.305,62.6,11,AutoTakeoff,
38.6884393,-120.4165683,5215.6279221494,2.624672,0,1.19532156056,5100,2018-06-07 17:36:19,14,0,24.142,5215.6279221494,2.624672,0.447388,1.19532156056,0,0,-0.223694,52.4, 1.4, 1.7,0,0,1024,1024,1024,1024,52.1,-89.9,98,3.962,3.971,3.984,4.01,3.96,3.996,14.305,62.6,11,AutoTakeoff,
38.6884394,-120.4165683,5215.6279221494,2.624672,0,1.23098101052,5200,2018-06-07 17:36:19,14,0,24.142,5215.6279221494,2.624672,0.447388,1.23098101052,0,0,-0.223694,52.5, 1.4, 1.8,0,0,1024,1024,1024,1024,52.1,-89.9,98,3.962,3.971,3.984,4.01,3.96,3.996,14.305,62.6,11,AutoTakeoff,
38.6884395,-120.4165683,5215.9560061494,2.952756,0,1.26668967308,5300,2018-06-07 17:36:19,14,0,24.142,5215.9560061494,2.952756,0.447388,1.26668967308,0,0,-0.223694,52.5, 1.3, 1.8,0,0,1024,1024,1024,1024,52.1,-89.9,98,3.962,3.971,3.984,4.01,3.96,3.996,14.305,62.6,6,P-GPS,
38.6884395,-120.4165682,5215.9560061494,2.952756,0,1.261236917,5400,2018-06-07 17:36:19,13,0,24.142,5215.9560061494,2.952756,0.447388,1.26668967308,0,0,0,52.5, 1.4, 1.9,0,0,1024,1024,1024,1024,52.1,-89.9,98,3.962,3.971,3.984,4.01,3.96,3.996,14.305,62.6,14,Waypoint,
38.6884396,-120.4165683,5216.2840901494,3.28084,0,1.30244098656,5500,2018-06-07 17:36:19,13,0,24.142,5216.2840901494,3.28084,0.447388,1.30244098656,0,0,0,52.5, 1.2, 1.1,0,0,1024,1024,1024,1024,52.1,-90,98,3.962,3.971,3.984,4.01,3.96,3.996,14.305,62.6,14,Waypoint,
38.6884396,-120.4165683,5216.2840901494,3.28084,0,1.30244098656,5600,2018-06-07 17:36:19,13,0,24.142,5216.2840901494,3.28084,0.447388,1.30244098656,0,0,0,52.5, 0.9, 0.4,0,0,1024,1024,1024,1024,52.1,-90,98,3.962,3.971,3.984,4.01,3.96,3.996,14.305,62.6,14,Waypoint,
38.6884397,-120.4165683,5216.2840901494,3.28084,0,1.33823167012,5710,2018-06-07 17:36:19,13,0,24.142,5216.2840901494,3.28084,0.447388,1.33823167012,0,0,0,52.5, 0.7, 0.3,0,0,1024,1024,1024,1024,52.1,-90,98,3.962,3.971,3.984,4.01,3.96,3.996,14.305,62.6,14,Waypoint,
38.6884398,-120.4165683,5216.6121741494,3.608924,0,1.37405844292,5800,2018-06-07 17:36:19,14,0,24.142,5216.6121741494,3.608924,0.447388,1.37405844292,0,0,0,52.6, 0.6, 0.4,0,0,1024,1024,1024,1024,52.1,-90,98,3.962,3.971,3.984,4.01,3.96,3.996,14.305,62.6,14,Waypoint,
38.6884399,-120.4165684,5216.9402581494,3.937008,0,1.41537406104,5900,2018-06-07 17:36:19,14,0,24.142,5216.9402581494,3.937008,0.447388,1.41537406104,0,0,-0.223694,52.7, 0.6, 0.7,0,0,1024,1024,1024,1024,52.1,-90,98,3.962,3.971,3.984,4.01,3.96,3.996,14.305,62.6,14,Waypoint,
38.68844,-120.4165685,5217.2683421494,4.265092,0,1.4569882356,6000,2018-06-07 17:36:19,14,0,23.688,5217.2683421494,4.265092,0.447388,1.4569882356,0,0,-0.223694,52.8, 0.7, 0.9,0,0,1024,1024,1024,1024,52.1,-89.9,98,3.918,3.926,3.943,3.955,3.911,3.941,17.051,62.6,14,Waypoint,
38.68844,-120.4165685,5217.5964261494,4.593176,0,1.4569882356,6100,2018-06-07 17:36:20,12,0,23.688,5217.5964261494,4.593176,0.447388,1.4569882356,0,0,-0.223694,52.8, 0.9, 1.1,0,0,1024,1024,1024,1024,52.1,-89.9,98,3.918,3.926,3.943,3.955,3.911,3.941,17.051,62.6,14,Waypoint,
38.6884401,-120.4165684,5217.9245101494,4.92126,0,1.4869259006,6200,2018-06-07 17:36:20,12,0,23.688,5217.9245101494,4.92126,0.447388,1.4869259006,0,0,-0.223694,52.7, 1, 1.2,0,0,1024,1024,1024,1024,52.1,-89.9,98,3.918,3.926,3.943,3.955,3.911,3.941,17.051,62.6,14,Waypoint,
38.6884401,-120.4165684,5218.2525941494,5.249344,0,1.4869259006,6300,2018-06-07 17:36:20,12,0,23.688,5218.2525941494,5.249344,0.447388,1.4869259006,0,0,-0.223694,52.7, 1.1, 1.1,0,0,1024,1024,1024,1024,52.1,-89.9,98,3.918,3.926,3.943,3.955,3.911,3.941,17.051,62.6,14,Waypoint,
38.6884402,-120.4165685,5218.9087621494,5.905512,0,1.52833338224,6400,2018-06-07 17:36:20,12,0,23.688,5218.9087621494,5.905512,0.447388,1.52833338224,0,0,-0.447388,52.5, 1.1, 1.1,0,0,1024,1024,1024,1024,52.1,-89.9,98,3.918,3.926,3.943,3.955,3.911,3.941,17.051,62.6,14,Waypoint,
38.6884403,-120.4165685,5219.5649301494,6.56168,0,1.56406172984,6500,2018-06-07 17:36:20,13,0,23.688,5219.5649301494,6.56168,0.447388,1.56406172984,0,0,-0.447388,52.4, 1, 1.2,0,0,1024,1024,1024,1024,52.1,-89.9,98,3.918,3.926,3.943,3.955,3.911,3.941,17.051,62.6,14,Waypoint,
38.6884404,-120.4165686,5219.8930141494,6.889764,0,1.605643096,6700,2018-06-07 17:36:20,13,0,23.688,5219.8930141494,6.889764,0.447388,1.605643096,0,0,-0.447388,52.3, 0.9, 1.3,0,0,1024,1024,1024,1024,52.1,-90,98,3.918,3.926,3.943,3.955,3.911,3.941,17.051,62.6,14,Waypoint,
38.6884405,-120.4165686,5221.8615181494,8.858268,0,1.64130910764,6800,2018-06-07 17:36:20,15,0,23.688,5221.8615181494,8.858268,0.447388,1.64130910764,0,0,-0.671082,52.3, 0.8, 1.3,0,0,1024,1024,1024,1024,52.1,-89.9,98,3.918,3.926,3.943,3.955,3.911,3.941,17.051,62.6,14,Waypoint,
38.6884405,-120.4165687,5223.5019381494,10.498688,0,1.647473806,7000,2018-06-07 17:36:20,14,0,23.48,5223.5019381494,10.498688,0.447388,1.647473806,0,0,-0.671082,52.4, 0.8, 1.1,0,0,1024,1024,1024,1024,52.1,-89.9,98,3.845,3.86,3.924,3.932,3.887,3.933,18.144,62.6,14,Waypoint,
38.6884405,-120.4165688,5225.4704421494,12.467192,0,1.65410766448,7210,2018-06-07 17:36:21,14,0,23.48,5225.4704421494,12.467192,0.447388,1.65410766448,0,0,-0.671082,52.6, 0.7, 1,0,0,1024,1024,1024,1024,52.2,-89.9,98,3.845,3.86,3.924,3.932,3.887,3.933,18.144,62.6,14,Waypoint,
38.6884405,-120.4165687,5226.7827781494,13.779528,0,1.647473806,7400,2018-06-07 17:36:21,15,0,23.48,5226.7827781494,13.779528,0.447388,1.65410766448,0,0,-0.671082,52.6, 0.7, 0.9,0,0,1024,1024,1024,1024,52.2,-89.9,98,3.845,3.86,3.924,3.932,3.887,3.933,18.144,62.6,14,Waypoint,
38.6884405,-120.4165688,5227.7670301494,14.76378,0,1.65410766448,7500,2018-06-07 17:36:21,15,0,23.48,5227.7670301494,14.76378,0.447388,1.65410766448,0,0,-0.671082,52.7, 0.8, 0.9,0,0,1024,1024,1024,1024,52.2,-89.9,98,3.845,3.86,3.924,3.932,3.887,3.933,18.144,62.6,14,Waypoint,
38.6884405,-120.4165688,5229.0793661494,16.076116,0,1.65410766448,7600,2018-06-07 17:36:21,15,0,23.48,5229.0793661494,16.076116,0.447388,1.65410766448,0,0,-0.671082,52.7, 1.1, 1.1,0,0,1024,1024,1024,1024,52.1,-89.9,98,3.845,3.86,3.924,3.932,3.887,3.933,18.144,62.6,14,Waypoint,
38.6884404,-120.4165688,5230.0636181494,17.060368,0,1.61872052424,7700,2018-06-07 17:36:21,15,0,23.48,5230.0636181494,17.060368,0.447388,1.65410766448,0,0,-0.671082,52.6, 1.1, 1,0,0,1024,1024,1024,1024,52.2,-89.9,98,3.845,3.86,3.924,3.932,3.887,3.933,18.144,62.6,14,Waypoint,
38.6884402,-120.4165689,5231.3759541494,18.372704,0,1.55568246448,7800,2018-06-07 17:36:21,15,0,23.48,5231.3759541494,18.372704,0.447388,1.65410766448,0,0,-0.671082,52.6, 0.7, 0.7,0,0,1024,1024,1024,1024,52.1,-89.9,98,3.845,3.86,3.924,3.932,3.887,3.933,18.144,62.6,14,Waypoint,
38.6884402,-120.4165689,5232.3602061494,19.356956,0,1.55568246448,7900,2018-06-07 17:36:21,15,0,23.48,5232.3602061494,19.356956,0.447388,1.65410766448,0,0,-0.671082,52.5, 0.3, 0.5,0,0,1024,1024,1024,1024,52.1,-90,98,3.845,3.86,3.924,3.932,3.887,3.933,18.144,62.6,14,Waypoint,
38.6884401,-120.4165689,5233.6725421494,20.669292,0,1.52063325076,8000,2018-06-07 17:36:21,15,0,22.573,5233.6725421494,20.669292,0.447388,1.65410766448,0,0,-0.671082,52.4, 0, 0.3,0,0,1024,1024,1024,1024,52.1,-90,98,3.845,3.86,3.924,3.932,3.887,3.933,25.098,62.6,14,Waypoint,
38.6884401,-120.4165689,5235.6410461494,22.637796,0,1.52063325076,8100,2018-06-07 17:36:22,17,0,22.573,5235.6410461494,22.637796,0.447388,1.65410766448,0,0,-0.671082,52.3, 0.1, 0.3,0,0,1024,1024,1024,1024,52.1,-90,98,3.845,3.86,3.924,3.932,3.887,3.933,25.098,62.6,14,Waypoint,
38.68844,-120.4165689,5236.9533821494,23.950132,0,1.48565293468,8200,2018-06-07 17:36:22,17,0,22.573,5236.9533821494,23.950132,0.447388,1.65410766448,0,0,-0.671082,52.2, 0.1, 0.2,0,0,1024,1024,1024,1024,52.1,-90,98,3.845,3.86,3.924,3.932,3.887,3.933,25.098,62.6,14,Waypoint,
38.68844,-120.4165688,5237.9376341494,24.934384,0,1.47771658272,8300,2018-06-07 17:36:22,17,0,22.573,5237.9376341494,24.934384,0.447388,1.65410766448,0,0,-0.671082,52.2, 0.1, 0.3,0,0,1024,1024,1024,1024,52.1,-90,98,3.845,3.86,3.924,3.932,3.887,3.933,25.098,62.6,14,Waypoint,
38.68844,-120.4165688,5238.9218861494,25.918636,0,1.47771658272,8410,2018-06-07 17:36:22,17,0,22.573,5238.9218861494,25.918636,0.447388,1.65410766448,0,0,-0.671082,52.2, 0.2, 0.2,0,0,1024,1024,1024,1024,52.1,-90,98,3.845,3.86,3.924,3.932,3.887,3.933,25.098,62.6,14,Waypoint,
38.68844,-120.4165687,5239.9061381494,26.902888,0,1.47028876096,8500,2018-06-07 17:36:22,17,0,22.573,5239.9061381494,26.902888,0.447388,1.65410766448,0,0,-0.671082,52.3, 0.3, 0.2,0,0,1024,1024,1024,1024,52.1,-89.9,98,3.845,3.86,3.924,3.932,3.887,3.933,25.098,62.6,14,Waypoint,
38.68844,-120.4165687,5241.2184741494,28.215224,0,1.47028876096,8700,2018-06-07 17:36:22,17,0,22.573,5241.2184741494,28.215224,0.447388,1.65410766448,0,0,-0.671082,52.3, 0.6, 0.3,0,0,1024,1024,1024,1024,52.1,-89.9,98,3.845,3.86,3.924,3.932,3.887,3.933,25.098,62.6,14,Waypoint,
38.6884401,-120.4165687,5242.2027261494,29.199476,0,1.50562340776,8800,2018-06-07 17:36:22,17,0,22.573,5242.2027261494,29.199476,0.447388,1.65410766448,0,0,-0.671082,52.2, 0.8, 0.4,0,0,1024,1024,1024,1024,52.1,-89.9,98,3.845,3.86,3.924,3.932,3.887,3.933,25.098,62.6,14,Waypoint,
38.6884401,-120.4165687,5243.1869781494,30.183728,0,1.50562340776,8900,2018-06-07 17:36:22,17,0,22.573,5243.1869781494,30.183728,0.447388,1.65410766448,0,0,-0.671082,52.3, 0.8, 0.4,0,0,1024,1024,1024,1024,52.1,-89.9,98,3.845,3.86,3.924,3.932,3.887,3.933,25.098,62.6,14,Waypoint,
38.6884402,-120.4165687,5244.1712301494,31.16798,0,1.54101382884,9000,2018-06-07 17:36:22,17,0,22.573,5244.1712301494,31.16798,0.447388,1.65410766448,0,0,-0.671082,52.3, 1, 0.4,0,0,1024,1024,1024,1024,52.1,-89.9,98,3.743,3.753,3.774,3.786,3.745,3.848,25.098,62.6,14,Waypoint,
38.6884402,-120.4165687,5245.4835661494,32.480316,0,1.54101382884,9100,2018-06-07 17:36:23,17,0,22.573,5245.4835661494,32.480316,0.447388,1.65410766448,0,0,-0.671082,52.2, 1.2, 0.5,0,0,1024,1024,1024,1024,52.1,-89.9,98,3.743,3.753,3.774,3.786,3.745,3.848,25.098,62.6,14,Waypoint,
38.6884402,-120.4165687,5247.4520701494,34.44882,0,1.54101382884,9310,2018-06-07 17:36:23,17,0,22.573,5247.4520701494,34.44882,0.447388,1.65410766448,0,0,-0.671082,52.2, 0.9, 0.7,0,0,1024,1024,1024,1024,52.1,-89.9,98,3.743,3.753,3.774,3.786,3.745,3.848,25.098,62.6,14,Waypoint,
38.6884402,-120.4165688,5248.4363221494,35.433072,0,1.54810372408,9400,2018-06-07 17:36:23,16,0,22.573,5248.4363221494,35.433072,0.447388,1.65410766448,0,0,-0.671082,52.2, 0.5, 0.7,0,0,1024,1024,1024,1024,52.1,-90,98,3.743,3.753,3.774,3.786,3.745,3.848,25.098,62.6,14,Waypoint,
38.6884402,-120.4165688,5249.4205741494,36.417324,0,1.54810372408,9600,2018-06-07 17:36:23,16,0,22.573,5249.4205741494,36.417324,0.447388,1.65410766448,0,0,-0.671082,52.3, 0.2, 0.7,0,0,1024,1024,1024,1024,52.1,-90,98,3.743,3.753,3.774,3.786,3.745,3.848,25.098,62.6,14,Waypoint,
38.6884403,-120.4165689,5251.3890781494,38.385828,0,1.590797295,9800,2018-06-07 17:36:23,16,0,22.573,5251.3890781494,38.385828,0.447388,1.65410766448,0,0,-0.671082,52.4, 0.2, 1.2,0,0,1024,1024,1024,1024,52.2,-89.9,98,3.743,3.753,3.774,3.786,3.745,3.848,25.098,62.6,14,Waypoint,
38.6884404,-120.4165691,5253.3575821494,40.354332,0,1.64185372708,10000,2018-06-07 17:36:23,17,0,23.059,5253.3575821494,40.354332,0.447388,1.65410766448,0,0,-0.671082,52.4, 0.6, 1.7,0,0,1024,1024,1024,1024,52.1,-89.9,98,3.805,3.822,3.84,3.849,3.813,3.847,19.01,62.6,14,Waypoint,
38.6884405,-120.4165692,5255.3260861494,42.322836,0,1.68519362348,10110,2018-06-07 17:36:24,17,0,23.059,5255.3260861494,42.322836,0.447388,1.68519362348,0,0,-0.671082,52.2, 0.9, 2,0,0,1024,1024,1024,1024,52.1,-89.9,98,3.805,3.822,3.84,3.849,3.813,3.847,19.01,62.6,14,Waypoint,
38.6884406,-120.4165694,5257.2945901494,44.29134,0,1.7378117354,10220,2018-06-07 17:36:24,17,0,23.059,5257.2945901494,44.29134,0.447388,1.7378117354,0,0,-0.671082,52.2, 0.5, 1.9,0,0,1024,1024,1024,1024,52.1,-89.9,98,3.805,3.822,3.84,3.849,3.813,3.847,19.01,62.6,14,Waypoint,
38.6884406,-120.4165694,5258.2788421494,45.275592,0,1.7378117354,10300,2018-06-07 17:36:24,16,0,23.059,5258.2788421494,45.275592,0.447388,1.7378117354,0,0,-0.671082,52.3, 0.3, 1.9,0,0,1024,1024,1024,1024,52.1,-89.9,98,3.805,3.822,3.84,3.849,3.813,3.847,19.01,62.6,14,Waypoint,
38.6884407,-120.4165695,5259.2630941494,46.259844,0,1.78167984704,10400,2018-06-07 17:36:24,16,0,23.059,5259.2630941494,46.259844,0.447388,1.78167984704,0,0,-0.671082,52.4, 0.5, 1.7,0,0,1024,1024,1024,1024,52.1,-89.9,98,3.805,3.822,3.84,3.849,3.813,3.847,19.01,62.6,14,Waypoint,
38.6884408,-120.4165695,5260.5754301494,47.57218,0,1.81608929696,10500,2018-06-07 17:36:24,17,0,23.059,5260.5754301494,47.57218,0.447388,1.81608929696,0,0,-0.671082,52.6, 0.6, 1.8,0,0,1024,1024,1024,1024,52.1,-89.9,98,3.805,3.822,3.84,3.849,3.813,3.847,19.01,62.6,14,Waypoint,
38.6884408,-120.4165696,5261.5596821494,48.556432,0,1.82566278808,10600,2018-06-07 17:36:24,17,0,23.059,5261.5596821494,48.556432,0.447388,1.82566278808,0,0,-0.671082,52.8, 0.6, 1.9,0,0,1024,1024,1024,1024,52.1,-89.9,98,3.805,3.822,3.84,3.849,3.813,3.847,19.01,62.6,14,Waypoint,
38.6884408,-120.4165697,5262.5439341494,49.540684,0,1.83563326084,10700,2018-06-07 17:36:24,17,0,23.059,5262.5439341494,49.540684,0.447388,1.83563326084,0,0,-0.671082,52.9, 0.4, 2,0,0,1024,1024,1024,1024,52.1,-89.9,98,3.805,3.822,3.84,3.849,3.813,3.847,19.01,62.6,14,Waypoint,
38.6884409,-120.4165697,5263.5281861494,50.524936,0,1.86976055852,10800,2018-06-07 17:36:24,17,0,23.059,5263.5281861494,50.524936,0.447388,1.86976055852,0,0,-0.671082,52.9, 0.4, 2.3,0,0,1024,1024,1024,1024,52.1,-89.9,98,3.805,3.822,3.84,3.849,3.813,3.847,19.01,62.6,14,Waypoint,
38.688441,-120.4165698,5264.5124381494,51.509188,0,1.913960035,10900,2018-06-07 17:36:24,17,0,23.059,5264.5124381494,51.509188,0.447388,1.913960035,0,0,-0.671082,52.8, 0.4, 2.5,0,0,1024,1024,1024,1024,52.1,-89.9,98,3.805,3.822,3.84,3.849,3.813,3.847,19.01,62.6,14,Waypoint,
38.6884411,-120.4165699,5265.4966901494,52.49344,0,1.95825793668,11010,2018-06-07 17:36:24,17,0,23.02,5265.4966901494,52.49344,0.447388,1.95825793668,0,0,-0.671082,52.7, 0.5, 2.5,0,0,1024,1024,1024,1024,52.1,-89.9,98,3.822,3.832,3.84,3.86,3.812,3.847,19.123,62.6,14,Waypoint,
38.6884412,-120.4165699,5266.4809421494,53.477692,0,1.99229009,11110,2018-06-07 17:36:25,18,0,23.02,5266.4809421494,53.477692,0.447388,1.99229009,0,0,-0.671082,52.7, 0.6, 2.5,0,0,1024,1024,1024,1024,52.1,-89.9,98,3.822,3.832,3.84,3.86,3.812,3.847,19.123,62.6,14,Waypoint,
38.6884412,-120.41657,5268.4494461494,55.446196,0,2.00264442104,11300,2018-06-07 17:36:25,18,0,23.02,5268.4494461494,55.446196,0.447388,2.00264442104,0,0,-0.671082,52.8, 0.8, 2.9,0,0,1024,1024,1024,1024,52.1,-89.9,98,3.822,3.832,3.84,3.86,3.812,3.847,19.123,62.6,14,Waypoint,
38.6884414,-120.41657,5270.0898661494,57.086616,0,2.07061686416,11600,2018-06-07 17:36:25,18,0,23.02,5270.0898661494,57.086616,0.447388,2.07061686416,0,0,-0.671082,52.9, 0.9, 2.7,0,0,1024,1024,1024,1024,52.1,-89.9,98,3.822,3.832,3.84,3.86,3.812,3.847,19.123,62.6,14,Waypoint,
38.6884414,-120.41657,5271.0741181494,58.070868,0,2.07061686416,11700,2018-06-07 17:36:25,18,0,23.02,5271.0741181494,58.070868,0.447388,2.07061686416,0,0,-0.671082,52.9, 1.1, 2.4,0,0,1024,1024,1024,1024,52.1,-89.9,98,3.822,3.832,3.84,3.86,3.812,3.847,19.123,62.6,14,Waypoint,
38.6884415,-120.41657,5272.0583701494,59.05512,0,2.10473103848,11800,2018-06-07 17:36:25,18,0,23.02,5272.0583701494,59.05512,0.447388,2.10473103848,0,0,-0.671082,52.8, 1.3, 2.1,0,0,1024,1024,1024,1024,52.2,-89.9,98,3.822,3.832,3.84,3.86,3.812,3.847,19.123,62.6,14,Waypoint,
38.6884415,-120.4165699,5273.0426221494,60.039372,0,2.0948819568,11900,2018-06-07 17:36:25,18,0,23.02,5273.0426221494,60.039372,0.447388,2.10473103848,0,0,-0.671082,52.6, 1.4, 1.7,0,0,1024,1024,1024,1024,52.1,-89.9,98,3.822,3.832,3.84,3.86,3.812,3.847,19.123,62.6,14,Waypoint,
38.6884415,-120.4165699,5274.0268741494,61.023624,0,2.0948819568,12000,2018-06-07 17:36:25,18,0,23.085,5274.0268741494,61.023624,0.447388,2.10473103848,0,0,-0.671082,52.5, 1.5, 1.5,0,0,1024,1024,1024,1024,52.1,-89.9,97,3.831,3.84,3.856,3.877,3.813,3.862,18.046,62.6,14,Waypoint,
38.6884415,-120.4165699,5275.0111261494,62.007876,0.223694,2.0948819568,12100,2018-06-07 17:36:26,18,0,23.085,5275.0111261494,62.007876,0.447388,2.10473103848,0,0,-0.671082,52.3, 1.5, 1.3,0,0,1024,1024,1024,1024,52.1,-89.9,97,3.831,3.84,3.856,3.877,3.813,3.862,18.046,62.6,14,Waypoint,
38.6884415,-120.4165699,5275.6672941494,62.664044,0.223694,2.0948819568,12200,2018-06-07 17:36:26,18,0,23.085,5275.6672941494,62.664044,0.447388,2.10473103848,0,0,-0.671082,52.2, 1.2, 1.3,0,0,1024,1024,1024,1024,52.1,-90,97,3.831,3.84,3.856,3.877,3.813,3.862,18.046,62.6,14,Waypoint,
38.6884415,-120.4165699,5276.6515461494,63.648296,0.223694,2.0948819568,12300,2018-06-07 17:36:26,18,0,23.085,5276.6515461494,63.648296,0.447388,2.10473103848,0,0,-0.671082,52.2, 1, 1.5,0,0,1024,1024,1024,1024,52.1,-89.9,97,3.831,3.84,3.856,3.877,3.813,3.862,18.046,62.6,14,Waypoint,
38.6884414,-120.4165699,5277.9638821494,64.960632,0.223694,2.06060702132,12400,2018-06-07 17:36:26,18,0,23.085,5277.9638821494,64.960632,0.447388,2.10473103848,0,0,-0.671082,52.2, 0.8, 1.7,0,0,1024,1024,1024,1024,52.1,-90,97,3.831,3.84,3.856,3.877,3.813,3.862,18.046,62.6,14,Waypoint,
38.6884414,-120.4165699,5278.9481341494,65.944884,0.223694,2.06060702132,12500,2018-06-07 17:36:26,18,0,23.085,5278.9481341494,65.944884,0.447388,2.10473103848,0,0,-0.671082,52.2, 0.6, 1.6,0,0,1024,1024,1024,1024,52.1,-90,97,3.831,3.84,3.856,3.877,3.813,3.862,18.046,62.6,14,Waypoint,
38.6884415,-120.41657,5280.9166381494,67.913388,0,2.10473103848,12710,2018-06-07 17:36:26,18,0,23.085,5280.9166381494,67.913388,0.447388,2.10473103848,0,0,-0.671082,52.2, 0.1, 2.1,0,0,1024,1024,1024,1024,52.1,-90,97,3.831,3.84,3.856,3.877,3.813,3.862,18.046,62.6,14,Waypoint,
38.6884416,-120.4165702,5282.8851421494,69.881892,0,2.1593012502,12800,2018-06-07 17:36:26,18,0,23.085,5282.8851421494,69.881892,0.447388,2.1593012502,0,0,-0.671082,52.2, 0.2, 2.9,0,0,1024,1024,1024,1024,52.1,-90,97,3.831,3.84,3.856,3.877,3.813,3.862,18.046,62.6,14,Waypoint,
38.6884416,-120.4165702,5283.8693941494,70.866144,0,2.1593012502,12900,2018-06-07 17:36:26,18,0,23.085,5283.8693941494,70.866144,0.447388,2.1593012502,0,0,-0.671082,52.2, 0.3, 3,0,0,1024,1024,1024,1024,52.1,-90,97,3.831,3.84,3.856,3.877,3.813,3.862,18.046,62.6,14,Waypoint,
38.6884416,-120.4165702,5284.8536461494,71.850396,0,2.1593012502,13000,2018-06-07 17:36:26,18,0,23.085,5284.8536461494,71.850396,0.447388,2.1593012502,0,0,-0.671082,52.3, 0.5, 3.1,0,0,1024,1024,1024,1024,52.1,-90,97,3.831,3.84,3.856,3.877,3.813,3.862,18.046,62.6,14,Waypoint,
38.6884416,-120.4165702,5286.8221501494,73.8189,0,2.1593012502,13240,2018-06-07 17:36:27,18,0,23.085,5286.8221501494,73.8189,0.447388,2.1593012502,0,0,-0.671082,52.4, 0.7, 2.8,0,0,1024,1024,1024,1024,52.1,-89.9,97,3.831,3.84,3.856,3.877,3.813,3.862,18.046,62.6,14,Waypoint,
38.6884416,-120.4165701,5287.8064021494,74.803152,0,2.14894691916,13310,2018-06-07 17:36:27,18,0,23.085,5287.8064021494,74.803152,0.447388,2.1593012502,0,0,-0.671082,52.5, 0.8, 2.6,0,0,1024,1024,1024,1024,52.1,-89.9,97,3.831,3.84,3.856,3.877,3.813,3.862,18.046,62.6,14,Waypoint,
38.6884416,-120.4165701,5288.7906541494,75.787404,0,2.14894691916,13400,2018-06-07 17:36:27,18,0,23.085,5288.7906541494,75.787404,0.447388,2.1593012502,0,0,-0.671082,52.6, 0.8, 2.4,0,0,1024,1024,1024,1024,52.1,-90,97,3.831,3.84,3.856,3.877,3.813,3.862,18.046,62.6,14,Waypoint,
38.6884416,-120.4165701,5289.7749061494,76.771656,0,2.14894691916,13600,2018-06-07 17:36:27,18,0,23.085,5289.7749061494,76.771656,0.447388,2.1593012502,0,0,-0.671082,52.6, 0.7, 2.4,0,0,1024,1024,1024,1024,52.1,-90,97,3.831,3.84,3.856,3.877,3.813,3.862,18.046,62.6,14,Waypoint,
38.6884416,-120.4165701,5290.7591581494,77.755908,0,2.14894691916,13700,2018-06-07 17:36:27,18,0,23.085,5290.7591581494,77.755908,0.447388,2.1593012502,0,0,-0.671082,52.7, 0.7, 2.3,0,0,1024,1024,1024,1024,52.1,-90,97,3.831,3.84,3.856,3.877,3.813,3.862,18.046,62.6,14,Waypoint,
38.6884416,-120.41657,5291.7434101494,78.74016,0,2.13892067212,13800,2018-06-07 17:36:27,18,0,23.085,5291.7434101494,78.74016,0.447388,2.1593012502,0,0,-0.671082,52.7, 0.8, 2.3,0,0,1024,1024,1024,1024,52.2,-89.9,97,3.831,3.84,3.856,3.877,3.813,3.862,18.046,62.6,14,Waypoint,
38.6884416,-120.41657,5292.7276621494,79.724412,0,2.13892067212,13900,2018-06-07 17:36:27,18,0,23.085,5292.7276621494,79.724412,0.447388,2.1593012502,0,0,-0.671082,52.7, 1, 2.5,0,0,1024,1024,1024,1024,52.1,-89.9,97,3.831,3.84,3.856,3.877,3.813,3.862,18.046,62.6,14,Waypoint,
38.6884416,-120.41657,5293.7119141494,80.708664,0.223694,2.13892067212,14000,2018-06-07 17:36:27,18,0,22.974,5293.7119141494,80.708664,0.447388,2.1593012502,0,0,-0.671082,52.5, 0.9, 2.6,0,0,1024,1024,1024,1024,52.1,-89.9,97,3.816,3.816,3.838,3.854,3.793,3.843,19.064,62.6,14,Waypoint,
38.6884416,-120.4165699,5294.6961661494,81.692916,0.3131716,2.1292323516,14100,2018-06-07 17:36:28,18,0,22.974,5294.6961661494,81.692916,0.447388,2.1593012502,0,0,-0.671082,52.4, 0.9, 2.3,0,0,1024,1024,1024,1024,52.1,-90,97,3.816,3.816,3.838,3.854,3.793,3.843,19.064,62.6,14,Waypoint,
38.6884416,-120.4165699,5295.3523341494,82.349084,0.3131716,2.1292323516,14200,2018-06-07 17:36:28,18,0,22.974,5295.3523341494,82.349084,0.447388,2.1593012502,0,0,-0.671082,52.3, 0.9, 2,0,0,1024,1024,1024,1024,52.1,-89.9,97,3.816,3.816,3.838,3.854,3.793,3.843,19.064,62.6,14,Waypoint,
38.6884415,-120.4165698,5296.3365861494,83.333336,0.3131716,2.08537408248,14300,2018-06-07 17:36:28,18,0,22.974,5296.3365861494,83.333336,0.447388,2.1593012502,0,0,-0.671082,52.3, 1, 1.7,0,0,1024,1024,1024,1024,52.1,-89.9,97,3.816,3.816,3.838,3.854,3.793,3.843,19.064,62.6,14,Waypoint,
38.6884414,-120.4165698,5297.3208381494,84.317588,0.3131716,2.05094166668,14400,2018-06-07 17:36:28,18,0,22.974,5297.3208381494,84.317588,0.447388,2.1593012502,0,0,-0.671082,52.4, 1.1, 1.3,0,0,1024,1024,1024,1024,52.1,-89.9,97,3.816,3.816,3.838,3.854,3.793,3.843,19.064,62.6,14,Waypoint,
38.6884414,-120.4165696,5298.3050901494,85.30184,0.3131716,2.03266738788,14500,2018-06-07 17:36:28,18,0,22.974,5298.3050901494,85.30184,0.447388,2.1593012502,0,0,-0.671082,52.6, 1.3, 1,0,0,1024,1024,1024,1024,52.1,-89.9,97,3.816,3.816,3.838,3.854,3.793,3.843,19.064,62.6,14,Waypoint,
38.6884413,-120.4165695,5299.2893421494,86.286092,0.3131716,1.98924547048,14600,2018-06-07 17:36:28,18,0,22.974,5299.2893421494,86.286092,0.447388,2.1593012502,0,0,-0.671082,52.7, 1.5, 0.8,0,0,1024,1024,1024,1024,52.1,-89.9,97,3.816,3.816,3.838,3.854,3.793,3.843,19.064,62.6,14,Waypoint,
38.6884412,-120.4165694,5300.2735941494,87.270344,0.3131716,1.94595478668,14700,2018-06-07 17:36:28,18,0,22.974,5300.2735941494,87.270344,0.447388,2.1593012502,0,0,-0.671082,52.8, 1.6, 0.6,0,0,1024,1024,1024,1024,52.1,-89.9,97,3.816,3.816,3.838,3.854,3.793,3.843,19.064,62.6,14,Waypoint,
38.688441,-120.4165692,5302.2420981494,89.238848,0.3131716,1.85980320912,14800,2018-06-07 17:36:28,18,0,22.974,5302.2420981494,89.238848,0.447388,2.1593012502,0,0,-0.671082,52.8, 1.2, 0.1,0,0,1024,1024,1024,1024,52.1,-89.9,97,3.816,3.816,3.838,3.854,3.793,3.843,19.064,62.6,14,Waypoint,
38.6884409,-120.4165691,5304.2106021494,91.207352,0.3131716,1.81696528124,15000,2018-06-07 17:36:28,18,0,23.008,5304.2106021494,91.207352,0.447388,2.1593012502,0,0,-0.671082,52.8, 1.2, 0.2,0,0,1024,1024,1024,1024,52.1,-89.9,97,3.812,3.829,3.837,3.866,3.807,3.844,18.456,62.6,14,Waypoint,
38.6884408,-120.416569,5305.1948541494,92.191604,0,1.77429795704,15100,2018-06-07 17:36:29,18,0,23.008,5305.1948541494,92.191604,0.447388,2.1593012502,0,0,-0.671082,52.9, 1.4, 0.6,0,0,1024,1024,1024,1024,52.1,-89.9,97,3.812,3.829,3.837,3.866,3.807,3.844,18.456,62.6,14,Waypoint,
38.6884408,-120.416569,5306.1791061494,93.175856,0,1.77429795704,15200,2018-06-07 17:36:29,18,0,23.008,5306.1791061494,93.175856,0.447388,2.1593012502,0,0,-0.671082,53.3, 1.6, 0.8,0,0,1024,1024,1024,1024,52.2,-89.9,97,3.812,3.829,3.837,3.866,3.807,3.844,18.456,62.6,14,Waypoint,
38.6884408,-120.4165689,5307.1633581494,94.160108,0,1.76719821928,15300,2018-06-07 17:36:29,18,0,23.008,5307.1633581494,94.160108,0.447388,2.1593012502,0,0,-0.671082,53.7, 1.6, 0.6,0,0,1024,1024,1024,1024,52.1,-89.9,97,3.812,3.829,3.837,3.866,3.807,3.844,18.456,62.6,14,Waypoint,
38.6884408,-120.4165689,5308.4756941494,95.472444,0,1.76719821928,15400,2018-06-07 17:36:29,18,0,23.008,5308.4756941494,95.472444,0.447388,2.1593012502,0,0,-0.671082,54, 1.6, 0.4,0,0,1024,1024,1024,1024,52.2,-89.9,97,3.812,3.829,3.837,3.866,3.807,3.844,18.456,62.6,14,Waypoint,
38.6884408,-120.4165688,5309.4599461494,96.456696,0,1.7605315524,15500,2018-06-07 17:36:29,18,0,23.008,5309.4599461494,96.456696,0.447388,2.1593012502,0,0,-0.671082,54.2, 1.6, 0.5,0,0,1024,1024,1024,1024,52.1,-89.9,97,3.812,3.829,3.837,3.866,3.807,3.844,18.456,62.6,14,Waypoint,
38.6884408,-120.4165688,5310.4441981494,97.440948,0,1.7605315524,15600,2018-06-07 17:36:29,18,0,23.008,5310.4441981494,97.440948,0.447388,2.1593012502,0,0,-0.671082,54, 1.9, 1.1,0,0,1024,1024,1024,1024,52.1,-89.9,97,3.812,3.829,3.837,3.866,3.807,3.844,18.456,62.6,14,Waypoint,
38.6884409,-120.4165688,5311.7565341494,98.753284,0,1.79608929632,15710,2018-06-07 17:36:29,18,0,23.008,5311.7565341494,98.753284,0.447388,2.1593012502,0,0,-0.671082,53.6, 2.2, 1.8,0,0,1024,1024,1024,1024,52.1,-89.9,97,3.812,3.829,3.837,3.866,3.807,3.844,18.456,62.6,14,Waypoint,
38.688441,-120.4165688,5312.7407861494,99.737536,0,1.83167984864,15810,2018-06-07 17:36:29,18,0,23.008,5312.7407861494,99.737536,0.447388,2.1593012502,0,0,-0.671082,53.2, 2.1, 2.1,0,0,1024,1024,1024,1024,52.1,-89.9,97,3.812,3.829,3.837,3.866,3.807,3.844,18.456,62.6,14,Waypoint,
38.688441,-120.4165688,5312.7407861494,99.737536,0,1.83167984864,15900,2018-06-07 17:36:29,18,0,23.008,5312.7407861494,99.737536,0.447388,2.1593012502,0,0,-0.671082,53.2, 2.1, 2.1,0,0,1024,1024,1024,1024,52.1,-89.9,97,3.812,3.829,3.837,3.866,3.807,3.844,18.456,62.6,14,Waypoint,
38.6884411,-120.4165689,5314.7092901494,101.70604,0,1.87359586048,16010,2018-06-07 17:36:29,18,0,22.966,5314.7092901494,101.70604,0.447388,2.1593012502,0,0,-0.671082,52.6, 1.7, 2.4,0,0,1024,1024,1024,1024,52.2,-89.9,97,3.805,3.808,3.831,3.855,3.79,3.841,18.678,62.6,14,Waypoint,
38.6884411,-120.4165689,5314.7092901494,101.70604,0,1.87359586048,16100,2018-06-07 17:36:30,18,0,22.966,5314.7092901494,101.70604,0.447388,2.1593012502,0,0,-0.671082,52.6, 1.7, 2.4,0,0,1024,1024,1024,1024,52.2,-89.9,97,3.805,3.808,3.831,3.855,3.79,3.841,18.678,62.6,14,Waypoint,
38.6884412,-120.4165689,5316.6777941494,103.674544,0,1.9091372002,16300,2018-06-07 17:36:30,18,0,22.966,5316.6777941494,103.674544,0.447388,2.1593012502,0,0,-0.671082,52.3, 1.7, 3.1,0,0,1024,1024,1024,1024,52.1,-89.9,97,3.805,3.808,3.831,3.855,3.79,3.841,18.678,62.6,14,Waypoint,
38.6884413,-120.4165689,5317.6620461494,104.658796,0,1.94471462916,16410,2018-06-07 17:36:30,18,0,22.966,5317.6620461494,104.658796,0.447388,2.1593012502,0,0,-0.671082,52.3, 1.6, 3,0,0,1024,1024,1024,1024,52.1,-89.9,97,3.805,3.808,3.831,3.855,3.79,3.841,18.678,62.6,14,Waypoint,
38.6884414,-120.416569,5318.6462981494,105.643048,0,1.9866634494,16500,2018-06-07 17:36:30,18,0,22.966,5318.6462981494,105.643048,0.447388,2.1593012502,0,0,-0.671082,52.3, 1.8, 2.9,0,0,1024,1024,1024,1024,52.1,-89.9,97,3.805,3.808,3.831,3.855,3.79,3.841,18.678,62.6,14,Waypoint,
38.6884414,-120.416569,5319.6305501494,106.6273,0,1.9866634494,16600,2018-06-07 17:36:30,18,0,22.966,5319.6305501494,106.6273,0.447388,2.1593012502,0,0,-0.671082,52.3, 2, 2.9,0,0,1024,1024,1024,1024,52.1,-89.9,97,3.805,3.808,3.831,3.855,3.79,3.841,18.678,62.6,14,Waypoint,
38.6884414,-120.416569,5320.6148021494,107.611552,0,1.9866634494,16800,2018-06-07 17:36:30,18,0,22.966,5320.6148021494,107.611552,0.447388,2.1593012502,0,0,-0.671082,52.3, 1.9, 3.2,0,0,1024,1024,1024,1024,52.1,-89.9,97,3.805,3.808,3.831,3.855,3.79,3.841,18.678,62.6,14,Waypoint,
38.6884415,-120.4165691,5321.5990541494,108.595804,0,2.02879927752,16900,2018-06-07 17:36:30,18,0,22.966,5321.5990541494,108.595804,0.447388,2.1593012502,0,0,-0.671082,52.3, 1.6, 3.2,0,0,1024,1024,1024,1024,52.1,-90,97,3.805,3.808,3.831,3.855,3.79,3.841,18.678,62.6,14,Waypoint,
38.6884415,-120.4165691,5322.5833061494,109.580056,0,2.02879927752,17010,2018-06-07 17:36:30,18,0,22.847,5322.5833061494,109.580056,0.447388,2.1593012502,0,0,-0.671082,52.4, 1.3, 2.8,0,0,1024,1024,1024,1024,52.1,-90,97,3.786,3.804,3.82,3.838,3.781,3.837,19.592,62.6,14,Waypoint,
38.6884414,-120.4165691,5323.5675581494,110.564308,0.223694,1.99338589056,17100,2018-06-07 17:36:31,18,0,22.847,5323.5675581494,110.564308,0.447388,2.1593012502,0,0,-0.671082,52.5, 1.2, 2.5,0,0,1024,1024,1024,1024,52.1,-90,97,3.786,3.804,3.82,3.838,3.781,3.837,19.592,62.6,14,Waypoint,
38.6884414,-120.4165691,5324.5518101494,111.54856,0.223694,1.99338589056,17300,2018-06-07 17:36:31,18,0,22.847,5324.5518101494,111.54856,0.447388,2.1593012502,0,0,-0.671082,52.4, 1.1, 2.3,0,0,1024,1024,1024,1024,52.1,-90,97,3.786,3.804,3.82,3.838,3.781,3.837,19.592,62.6,14,Waypoint,
38.6884414,-120.4165691,5326.1922301494,113.18898,0,1.99338589056,17400,2018-06-07 17:36:31,18,0,22.847,5326.1922301494,113.18898,0.447388,2.1593012502,0,0,-0.671082,52.5, 0.7, 1.2,0,0,1024,1024,1024,1024,52.1,-90,97,3.786,3.804,3.82,3.838,3.781,3.837,19.592,62.6,14,Waypoint,
38.6884414,-120.4165692,5327.5045661494,114.501316,0,2.00049547084,17500,2018-06-07 17:36:31,18,0,22.847,5327.5045661494,114.501316,0.447388,2.1593012502,0,0,-0.671082,52.6, 0.8, 1.4,0,0,1024,1024,1024,1024,52.1,-90,97,3.786,3.804,3.82,3.838,3.781,3.837,19.592,62.6,14,Waypoint,
38.6884416,-120.4165693,5330.4573221494,117.454072,0,2.07834324236,17800,2018-06-07 17:36:31,18,0,22.847,5330.4573221494,117.454072,0.447388,2.1593012502,0,0,-0.671082,52, 1.4, 3.5,0,0,1024,1024,1024,1024,52.1,-89.9,97,3.786,3.804,3.82,3.838,3.781,3.837,19.592,62.6,14,Waypoint,
38.6884416,-120.4165694,5331.4415741494,118.438324,0,2.08593838696,17900,2018-06-07 17:36:31,18,0,22.847,5331.4415741494,118.438324,0.447388,2.1593012502,0,0,-0.671082,51.8, 1.2, 3.8,0,0,1024,1024,1024,1024,52.1,-90,97,3.786,3.804,3.82,3.838,3.781,3.837,19.592,62.6,14,Waypoint,
38.6884417,-120.4165695,5333.0819941494,120.078744,0,2.12888458256,18100,2018-06-07 17:36:32,18,0,22.847,5333.0819941494,120.078744,0.447388,2.1593012502,0,0,-0.671082,52, 0.8, 3.3,0,0,1024,1024,1024,1024,52.1,-89.9,97,3.786,3.804,3.82,3.838,3.781,3.837,19.592,62.6,14,Waypoint,
38.6884418,-120.4165695,5335.0504981494,122.047248,0,2.16392395376,18200,2018-06-07 17:36:32,18,0,22.847,5335.0504981494,122.047248,0.447388,2.16392395376,0,0,-0.671082,52.4, 1.2, 2.8,0,0,1024,1024,1024,1024,52.1,-89.9,97,3.786,3.804,3.82,3.838,3.781,3.837,19.592,62.6,14,Waypoint,
38.6884418,-120.4165696,5335.7066661494,122.703416,0,2.17196857344,18300,2018-06-07 17:36:32,18,0,22.847,5335.7066661494,122.703416,0.447388,2.17196857344,0,0,-0.671082,52.6, 1.4, 2.9,0,0,1024,1024,1024,1024,52.1,-89.9,97,3.786,3.804,3.82,3.838,3.781,3.837,19.592,62.6,14,Waypoint,
38.6884418,-120.4165696,5336.6909181494,123.687668,0,2.17196857344,18400,2018-06-07 17:36:32,18,0,22.847,5336.6909181494,123.687668,0.447388,2.17196857344,0,0,-0.671082,52.8, 1.6, 2.9,0,0,1024,1024,1024,1024,52.1,-89.9,97,3.786,3.804,3.82,3.838,3.781,3.837,19.592,62.6,14,Waypoint,
38.6884418,-120.4165696,5337.6751701494,124.67192,0,2.17196857344,18500,2018-06-07 17:36:32,18,0,22.847,5337.6751701494,124.67192,0.447388,2.17196857344,0,0,-0.671082,52.8, 1.7, 2.6,0,0,1024,1024,1024,1024,52.1,-89.9,97,3.786,3.804,3.82,3.838,3.781,3.837,19.592,62.6,14,Waypoint,
38.6884418,-120.4165696,5339.6436741494,126.640424,0,2.17196857344,18700,2018-06-07 17:36:32,18,0,22.847,5339.6436741494,126.640424,0.447388,2.17196857344,0,0,-0.671082,52.5, 1.7, 2.8,0,0,1024,1024,1024,1024,52.2,-89.9,97,3.786,3.804,3.82,3.838,3.781,3.837,19.592,62.6,14,Waypoint,
38.6884418,-120.4165696,5340.6279261494,127.624676,0,2.17196857344,18800,2018-06-07 17:36:32,18,0,22.847,5340.6279261494,127.624676,0.447388,2.17196857344,0,0,-0.671082,52.4, 1.8, 2.9,0,0,1024,1024,1024,1024,52.1,-89.9,97,3.786,3.804,3.82,3.838,3.781,3.837,19.592,62.6,14,Waypoint,
38.6884418,-120.4165696,5341.6121781494,128.608928,0,2.17196857344,18900,2018-06-07 17:36:32,18,0,22.847,5341.6121781494,128.608928,0.447388,2.17196857344,0,0,-0.671082,52.3, 1.6, 2.9,0,0,1024,1024,1024,1024,52.1,-89.9,97,3.786,3.804,3.82,3.838,3.781,3.837,19.592,62.6,14,Waypoint,
38.6884418,-120.4165697,5342.5964301494,129.59318,0,2.18035440048,19000,2018-06-07 17:36:32,18,0,22.815,5342.5964301494,129.59318,0.447388,2.18035440048,0,0,-0.671082,52.3, 1.3, 2.9,0,0,1024,1024,1024,1024,52.1,-90,97,3.774,3.793,3.808,3.825,3.77,3.81,19.023,62.6,14,Waypoint,
38.6884418,-120.4165697,5343.5806821494,130.577432,0,2.18035440048,19100,2018-06-07 17:36:33,18,0,22.815,5343.5806821494,130.577432,0.447388,2.18035440048,0,0,-0.671082,52.3, 1.1, 2.9,0,0,1024,1024,1024,1024,52.2,-90,97,3.774,3.793,3.808,3.825,3.77,3.81,19.023,62.6,14,Waypoint,
38.6884418,-120.4165698,5344.5649341494,131.561684,0,2.18907815404,19200,2018-06-07 17:36:33,18,0,22.815,5344.5649341494,131.561684,0.447388,2.18907815404,0,0,-0.671082,52.4, 1, 3,0,0,1024,1024,1024,1024,52.1,-90,97,3.774,3.793,3.808,3.825,3.77,3.81,19.023,62.6,14,Waypoint,
38.6884418,-120.4165699,5345.5491861494,132.545936,0,2.19813655328,19300,2018-06-07 17:36:33,18,0,22.815,5345.5491861494,132.545936,0.447388,2.19813655328,0,0,-0.671082,52.4, 0.9, 3.1,0,0,1024,1024,1024,1024,52.1,-89.9,97,3.774,3.793,3.808,3.825,3.77,3.81,19.023,62.6,14,Waypoint,
38.6884418,-120.41657,5347.1896061494,134.186356,0,2.20752303652,19400,2018-06-07 17:36:33,18,0,22.815,5347.1896061494,134.186356,0.447388,2.20752303652,0,0,-0.671082,52.6, 1.1, 3.2,0,0,1024,1024,1024,1024,52.1,-90,97,3.774,3.793,3.808,3.825,3.77,3.81,19.023,62.6,14,Waypoint,
38.6884418,-120.41657,5348.1738581494,135.170608,0.223694,2.20752303652,19500,2018-06-07 17:36:33,18,0,22.815,5348.1738581494,135.170608,0.447388,2.20752303652,0,0,-0.671082,52.6, 1.1, 3.1,0,0,1024,1024,1024,1024,52.1,-90,97,3.774,3.793,3.808,3.825,3.77,3.81,19.023,62.6,14,Waypoint,
38.6884418,-120.41657,5349.1581101494,136.15486,0.223694,2.20752303652,19600,2018-06-07 17:36:33,18,0,22.815,5349.1581101494,136.15486,0.447388,2.20752303652,0,0,-0.671082,52.6, 1.1, 2.9,0,0,1024,1024,1024,1024,52.2,-90,97,3.774,3.793,3.808,3.825,3.77,3.81,19.023,62.6,14,Waypoint,
38.6884418,-120.41657,5350.1423621494,137.139112,0.223694,2.20752303652,19700,2018-06-07 17:36:33,18,0,22.815,5350.1423621494,137.139112,0.447388,2.20752303652,0,0,-0.671082,52.6, 1, 2.8,0,0,1024,1024,1024,1024,52.1,-90,97,3.774,3.793,3.808,3.825,3.77,3.81,19.023,62.6,14,Waypoint,
38.6884417,-120.4165701,5351.1266141494,138.123364,0.223694,2.1830545318,19800,2018-06-07 17:36:33,18,0,22.815,5351.1266141494,138.123364,0.447388,2.20752303652,0,0,-0.671082,52.5, 1, 2.9,0,0,1024,1024,1024,1024,52.1,-90,97,3.774,3.793,3.808,3.825,3.77,3.81,19.023,62.6,14,Waypoint,
38.6884417,-120.4165701,5353.4232021494,140.419952,0.223694,2.1830545318,20000,2018-06-07 17:36:33,18,0,22.757,5353.4232021494,140.419952,0.447388,2.20752303652,0,0,-0.671082,52.5, 0.8, 3,0,0,1024,1024,1024,1024,52.1,-90,97,3.756,3.762,3.784,3.804,3.735,3.795,20.853,62.6,14,Waypoint,
38.6884417,-120.4165701,5354.4074541494,141.404204,0.223694,2.1830545318,20110,2018-06-07 17:36:34,18,0,22.757,5354.4074541494,141.404204,0.447388,2.20752303652,0,0,-0.671082,52.5, 0.9, 3,0,0,1024,1024,1024,1024,52.1,-90,97,3.756,3.762,3.784,3.804,3.735,3.795,20.853,62.6,14,Waypoint,
38.6884417,-120.4165701,5355.3917061494,142.388456,0.223694,2.1830545318,20200,2018-06-07 17:36:34,18,0,22.757,5355.3917061494,142.388456,0.447388,2.20752303652,0,0,-0.671082,52.5, 1.1, 2.9,0,0,1024,1024,1024,1024,52.1,-89.9,97,3.756,3.762,3.784,3.804,3.735,3.795,20.853,62.6,14,Waypoint,
38.6884416,-120.4165701,5356.3759581494,143.372708,0.223694,2.14894691916,20300,2018-06-07 17:36:34,18,0,22.757,5356.3759581494,143.372708,0.447388,2.20752303652,0,0,-0.671082,52.5, 1.1, 2.8,0,0,1024,1024,1024,1024,52.1,-89.9,97,3.756,3.762,3.784,3.804,3.735,3.795,20.853,62.6,14,Waypoint,
38.6884416,-120.4165701,5357.3602101494,144.35696,0.223694,2.14894691916,20500,2018-06-07 17:36:34,18,0,22.757,5357.3602101494,144.35696,0.447388,2.20752303652,0,0,-0.671082,52.6, 0.9, 2.6,0,0,1024,1024,1024,1024,52.2,-90,97,3.756,3.762,3.784,3.804,3.735,3.795,20.853,62.6,14,Waypoint,
38.6884416,-120.41657,5358.6725461494,145.669296,0.223694,2.13892067212,20600,2018-06-07 17:36:34,18,0,22.757,5358.6725461494,145.669296,0.447388,2.20752303652,0,0,-0.671082,52.6, 1, 2.5,0,0,1024,1024,1024,1024,52.1,-89.9,97,3.756,3.762,3.784,3.804,3.735,3.795,20.853,62.6,14,Waypoint,
38.6884415,-120.41657,5359.6567981494,146.653548,0.223694,2.10473103848,20700,2018-06-07 17:36:34,18,0,22.757,5359.6567981494,146.653548,0.447388,2.20752303652,0,0,-0.671082,52.7, 1.1, 2.4,0,0,1024,1024,1024,1024,52.2,-89.9,97,3.756,3.762,3.784,3.804,3.735,3.795,20.853,62.6,14,Waypoint,
38.6884415,-120.4165699,5360.6410501494,147.6378,0.223694,2.0948819568,20800,2018-06-07 17:36:34,18,0,22.757,5360.6410501494,147.6378,0.447388,2.20752303652,0,0,-0.671082,52.7, 1.1, 2.2,0,0,1024,1024,1024,1024,52.1,-89.9,97,3.756,3.762,3.784,3.804,3.735,3.795,20.853,62.6,14,Waypoint,
38.6884414,-120.4165699,5361.6253021494,148.622052,0,2.06060702132,20900,2018-06-07 17:36:34,18,0,22.757,5361.6253021494,148.622052,0.447388,2.20752303652,0,0,-0.671082,52.7, 1.2, 2.2,0,0,1024,1024,1024,1024,52.1,-89.9,97,3.756,3.762,3.784,3.804,3.735,3.795,20.853,62.6,14,Waypoint,
38.6884414,-120.4165698,5362.6095541494,149.606304,0,2.05094166668,21000,2018-06-07 17:36:34,18,0,22.568,5362.6095541494,149.606304,0.447388,2.20752303652,0,0,-0.671082,52.6, 1.4, 2.4,0,0,1024,1024,1024,1024,52.1,-89.9,96,3.734,3.754,3.774,3.796,3.738,3.792,20.87,62.6,14,Waypoint,
38.6884414,-120.4165698,5363.5938061494,150.590556,0,2.05094166668,21100,2018-06-07 17:36:35,18,0,22.568,5363.5938061494,150.590556,0.447388,2.20752303652,0,0,-0.671082,52.6, 1.5, 2.5,0,0,1024,1024,1024,1024,52.1,-89.9,96,3.734,3.754,3.774,3.796,3.738,3.792,20.87,62.6,14,Waypoint,
38.6884414,-120.4165698,5364.5780581494,151.574808,0,2.05094166668,21200,2018-06-07 17:36:35,18,0,22.568,5364.5780581494,151.574808,0.447388,2.20752303652,0,0,-0.671082,52.6, 1.5, 2.6,0,0,1024,1024,1024,1024,52.1,-89.9,96,3.734,3.754,3.774,3.796,3.738,3.792,20.87,62.6,14,Waypoint,
38.6884414,-120.4165698,5365.5623101494,152.55906,0,2.05094166668,21300,2018-06-07 17:36:35,18,0,22.568,5365.5623101494,152.55906,0.447388,2.20752303652,0,0,-0.671082,52.6, 1.5, 2.9,0,0,1024,1024,1024,1024,52.1,-89.9,96,3.734,3.754,3.774,3.796,3.738,3.792,20.87,62.6,14,Waypoint,
38.6884415,-120.4165698,5366.5465621494,153.543312,0,2.08537408248,21400,2018-06-07 17:36:35,18,0,22.568,5366.5465621494,153.543312,0.447388,2.20752303652,0,0,-0.671082,52.5, 1.5, 3.2,0,0,1024,1024,1024,1024,52.1,-89.9,96,3.734,3.754,3.774,3.796,3.738,3.792,20.87,62.6,14,Waypoint,
38.6884415,-120.4165698,5367.5308141494,154.527564,0,2.08537408248,21500,2018-06-07 17:36:35,18,0,22.568,5367.5308141494,154.527564,0.447388,2.20752303652,0,0,-0.671082,52.5, 1.5, 3.1,0,0,1024,1024,1024,1024,52.1,-89.9,96,3.734,3.754,3.774,3.796,3.738,3.792,20.87,62.6,14,Waypoint,
38.6884415,-120.4165698,5369.8274021494,156.824152,0,2.08537408248,21600,2018-06-07 17:36:35,18,0,22.568,5369.8274021494,156.824152,0.447388,2.20752303652,0,0,-0.671082,52.2, 1.4, 3.4,0,0,1024,1024,1024,1024,52.1,-89.9,96,3.734,3.754,3.774,3.796,3.738,3.792,20.87,62.6,14,Waypoint,
38.6884415,-120.4165697,5371.7959061494,158.792656,0,2.0762139772,21800,2018-06-07 17:36:35,18,0,22.568,5371.7959061494,158.792656,0.447388,2.20752303652,0,0,-0.671082,52.3, 1.1, 3.5,0,0,1024,1024,1024,1024,52.1,-89.9,96,3.734,3.754,3.774,3.796,3.738,3.792,20.87,62.6,14,Waypoint,
38.6884416,-120.4165697,5372.7801581494,159.776908,0,2.11086949012,21900,2018-06-07 17:36:35,18,0,22.568,5372.7801581494,159.776908,0.447388,2.20752303652,0,0,-0.671082,52.3, 0.9, 3.5,0,0,1024,1024,1024,1024,52.1,-90,96,3.734,3.754,3.774,3.796,3.738,3.792,20.87,62.6,14,Waypoint,
38.6884415,-120.4165697,5373.7644101494,160.76116,0,2.0762139772,22000,2018-06-07 17:36:35,18,0,22.568,5373.7644101494,160.76116,0.447388,2.20752303652,0,0,-0.671082,52.5, 0.8, 3.4,0,0,1024,1024,1024,1024,52.1,-90,96,3.734,3.754,3.774,3.796,3.738,3.792,20.87,62.6,14,Waypoint,
38.6884415,-120.4165697,5374.4205781494,161.417328,0,2.0762139772,22100,2018-06-07 17:36:36,18,0,22.568,5374.4205781494,161.417328,0.447388,2.20752303652,0,0,-0.671082,52.7, 0.9, 3.4,0,0,1024,1024,1024,1024,52.1,-89.9,96,3.734,3.754,3.774,3.796,3.738,3.792,20.87,62.6,14,Waypoint,
38.6884415,-120.4165697,5375.4048301494,162.40158,0,2.0762139772,22200,2018-06-07 17:36:36,18,0,22.568,5375.4048301494,162.40158,0.447388,2.20752303652,0,0,-0.671082,52.8, 1.2, 3.5,0,0,1024,1024,1024,1024,52.1,-89.9,96,3.734,3.754,3.774,3.796,3.738,3.792,20.87,62.6,14,Waypoint,
38.6884416,-120.4165696,5376.3890821494,163.385832,0,2.10220479168,22310,2018-06-07 17:36:36,18,0,22.568,5376.3890821494,163.385832,0.447388,2.20752303652,0,0,-0.671082,52.8, 1.6, 3.3,0,0,1024,1024,1024,1024,52.1,-89.9,96,3.734,3.754,3.774,3.796,3.738,3.792,20.87,62.6,14,Waypoint,
38.6884416,-120.4165696,5377.3733341494,164.370084,0,2.10220479168,22400,2018-06-07 17:36:36,18,0,22.568,5377.3733341494,164.370084,0.447388,2.20752303652,0,0,-0.671082,52.8, 1.9, 3.1,0,0,1024,1024,1024,1024,52.1,-89.9,96,3.734,3.754,3.774,3.796,3.738,3.792,20.87,62.6,14,Waypoint,
38.6884416,-120.4165695,5378.3575861494,165.354336,0,2.09389442396,22600,2018-06-07 17:36:36,18,0,22.568,5378.3575861494,165.354336,0.447388,2.20752303652,0,0,-0.671082,52.8, 2.1, 3,0,0,1024,1024,1024,1024,52.1,-89.9,96,3.734,3.754,3.774,3.796,3.738,3.792,20.87,62.6,14,Waypoint,
38.6884414,-120.4165693,5381.3103421494,168.307092,0.223694,2.00797906688,22800,2018-06-07 17:36:36,18,0,22.568,5381.3103421494,168.307092,0.447388,2.20752303652,0,0,-0.671082,52.4, 1.9, 1.9,0,0,1024,1024,1024,1024,52.1,-89.9,96,3.734,3.754,3.774,3.796,3.738,3.792,20.87,62.6,14,Waypoint,
38.6884413,-120.4165692,5382.2945941494,169.291344,0.223694,1.96524940672,23000,2018-06-07 17:36:36,18,0,22.543,5382.2945941494,169.291344,0.447388,2.20752303652,0,0,-0.671082,52.3, 1.7, 2.1,0,0,1024,1024,1024,1024,52.1,-89.9,96,3.731,3.746,3.77,3.796,3.714,3.783,20.11,64.4,14,Waypoint,
38.6884413,-120.4165692,5383.2788461494,170.275596,0.223694,1.96524940672,23100,2018-06-07 17:36:37,18,0,22.543,5383.2788461494,170.275596,0.447388,2.20752303652,0,0,-0.671082,52.3, 1.7, 2.3,0,0,1024,1024,1024,1024,52.1,-89.9,96,3.731,3.746,3.77,3.796,3.714,3.783,20.11,64.4,14,Waypoint,
38.6884413,-120.4165692,5385.2473501494,172.2441,0,1.96524940672,23300,2018-06-07 17:36:37,18,0,22.543,5385.2473501494,172.2441,0.447388,2.20752303652,0,0,-0.671082,52.3, 1.5, 2.8,0,0,1024,1024,1024,1024,52.1,-89.9,96,3.731,3.746,3.77,3.796,3.714,3.783,20.11,64.4,14,Waypoint,
38.6884413,-120.4165693,5386.2316021494,173.228352,0,1.97287079804,23400,2018-06-07 17:36:37,18,0,22.543,5386.2316021494,173.228352,0.447388,2.20752303652,0,0,-0.671082,52.3, 1.3, 3.3,0,0,1024,1024,1024,1024,52.1,-90,96,3.731,3.746,3.77,3.796,3.714,3.783,20.11,64.4,14,Waypoint,
38.6884414,-120.4165694,5387.2158541494,174.212604,0,2.01583995952,23500,2018-06-07 17:36:37,18,0,22.543,5387.2158541494,174.212604,0.447388,2.20752303652,0,0,-0.671082,52.3, 1.2, 3.5,0,0,1024,1024,1024,1024,52.1,-89.9,96,3.731,3.746,3.77,3.796,3.714,3.783,20.11,64.4,14,Waypoint,
38.6884414,-120.4165695,5389.1843581494,176.181108,0,2.02407158708,23600,2018-06-07 17:36:37,18,0,22.543,5389.1843581494,176.181108,0.447388,2.20752303652,0,0,-0.671082,52.5, 1.4, 3.5,0,0,1024,1024,1024,1024,52.1,-89.9,96,3.731,3.746,3.77,3.796,3.714,3.783,20.11,64.4,14,Waypoint,
38.6884414,-120.4165696,5391.1528621494,178.149612,0,2.03266738788,23800,2018-06-07 17:36:37,18,0,22.543,5391.1528621494,178.149612,0.447388,2.20752303652,0,0,-0.671082,52.6, 1.4, 3.6,0,0,1024,1024,1024,1024,52.1,-89.9,96,3.731,3.746,3.77,3.796,3.714,3.783,20.11,64.4,14,Waypoint,
38.6884414,-120.4165696,5392.1371141494,179.133864,0,2.03266738788,23900,2018-06-07 17:36:37,18,0,22.543,5392.1371141494,179.133864,0.447388,2.20752303652,0,0,-0.671082,52.6, 1.2, 3.4,0,0,1024,1024,1024,1024,52.1,-90,96,3.731,3.746,3.77,3.796,3.714,3.783,20.11,64.4,14,Waypoint,
38.6884414,-120.4165696,5393.1213661494,180.118116,0,2.03266738788,24000,2018-06-07 17:36:37,18,0,22.53,5393.1213661494,180.118116,0.447388,2.20752303652,0,0,-0.671082,52.6, 1.1, 3.2,0,0,1024,1024,1024,1024,52.1,-90,96,3.731,3.746,3.77,3.796,3.714,3.783,20.74,64.4,14,Waypoint,
38.6884414,-120.4165697,5394.1056181494,181.102368,0,2.04162736192,24100,2018-06-07 17:36:38,18,0,22.53,5394.1056181494,181.102368,0.447388,2.20752303652,0,0,-0.671082,52.6, 1.1, 3.2,0,0,1024,1024,1024,1024,52.1,-90,96,3.731,3.746,3.77,3.796,3.714,3.783,20.74,64.4,14,Waypoint,
38.6884413,-120.4165697,5395.0898701494,182.08662,0,2.0071030826,24200,2018-06-07 17:36:38,18,0,22.53,5395.0898701494,182.08662,0.447388,2.20752303652,0,0,-0.671082,52.6, 1.2, 3.3,0,0,1024,1024,1024,1024,52.1,-90,96,3.731,3.746,3.77,3.796,3.714,3.783,20.74,64.4,14,Waypoint,
38.6884413,-120.4165697,5396.0741221494,183.070872,0,2.0071030826,24300,2018-06-07 17:36:38,18,0,22.53,5396.0741221494,183.070872,0.447388,2.20752303652,0,0,-0.671082,52.6, 1.1, 3.2,0,0,1024,1024,1024,1024,52.1,-90,96,3.731,3.746,3.77,3.796,3.714,3.783,20.74,64.4,14,Waypoint,
38.6884413,-120.4165698,5397.0583741494,184.055124,0,2.01657814852,24400,2018-06-07 17:36:38,18,0,22.53,5397.0583741494,184.055124,0.447388,2.20752303652,0,0,-0.671082,52.6, 1.1, 2.9,0,0,1024,1024,1024,1024,52.1,-90,96,3.731,3.746,3.77,3.796,3.714,3.783,20.74,64.4,14,Waypoint,
38.6884413,-120.41657,5400.0111301494,187.00788,0,2.03658799168,24700,2018-06-07 17:36:38,18,0,22.53,5400.0111301494,187.00788,0.447388,2.20752303652,0,0,-0.671082,52.7, 0.6, 3.9,0,0,1024,1024,1024,1024,52.1,-90,96,3.731,3.746,3.77,3.796,3.714,3.783,20.74,64.4,14,Waypoint,
38.6884413,-120.4165701,5400.9953821494,187.992132,0,2.0471129264,24800,2018-06-07 17:36:38,18,0,22.53,5400.9953821494,187.992132,0.447388,2.20752303652,0,0,-0.671082,52.6, 0.6, 4.4,0,0,1024,1024,1024,1024,52.1,-90,96,3.731,3.746,3.77,3.796,3.714,3.783,20.74,64.4,14,Waypoint,
38.6884414,-120.4165702,5402.3077181494,189.304468,0,2.09166017192,25000,2018-06-07 17:36:38,18,0,22.53,5402.3077181494,189.304468,0.447388,2.20752303652,0,0,-0.671082,52.6, 0.6, 4.4,0,0,1024,1024,1024,1024,52.1,-90,96,3.731,3.739,3.77,3.798,3.713,3.782,20.74,64.4,14,Waypoint,
38.6884414,-120.4165703,5403.2919701494,190.28872,0,2.10268379432,25100,2018-06-07 17:36:39,18,0,22.53,5403.2919701494,190.28872,0.447388,2.20752303652,0,0,-0.671082,52.5, 0.5, 4.4,0,0,1024,1024,1024,1024,52.1,-90,96,3.731,3.739,3.77,3.798,3.713,3.782,20.74,64.4,14,Waypoint,
38.6884414,-120.4165704,5404.2762221494,191.272972,0,2.11403221988,25200,2018-06-07 17:36:39,18,0,22.53,5404.2762221494,191.272972,0.447388,2.20752303652,0,0,-0.671082,52.4, 0.7, 4.7,0,0,1024,1024,1024,1024,52.1,-90,96,3.731,3.739,3.77,3.798,3.713,3.782,20.74,64.4,14,Waypoint,
38.6884414,-120.4165704,5405.2604741494,192.257224,0,2.11403221988,25300,2018-06-07 17:36:39,18,0,22.53,5405.2604741494,192.257224,0.447388,2.20752303652,0,0,-0.671082,52.3, 0.9, 4.6,0,0,1024,1024,1024,1024,52.1,-90,96,3.731,3.739,3.77,3.798,3.713,3.782,20.74,64.4,14,Waypoint,
38.6884414,-120.4165704,5405.9166421494,192.913392,0,2.11403221988,25400,2018-06-07 17:36:39,18,0,22.53,5405.9166421494,192.913392,0.447388,2.20752303652,0,0,-0.671082,52.2, 0.9, 4.5,0,0,1024,1024,1024,1024,52.1,-90,96,3.731,3.739,3.77,3.798,3.713,3.782,20.74,64.4,14,Waypoint,
38.6884414,-120.4165704,5406.9008941494,193.897644,0,2.11403221988,25500,2018-06-07 17:36:39,18,0,22.53,5406.9008941494,193.897644,0.447388,2.20752303652,0,0,-0.671082,52.1, 1, 4.4,0,0,1024,1024,1024,1024,52.1,-90,96,3.731,3.739,3.77,3.798,3.713,3.782,20.74,64.4,14,Waypoint,
38.6884414,-120.4165704,5407.8851461494,194.881896,0,2.11403221988,25600,2018-06-07 17:36:39,18,0,22.53,5407.8851461494,194.881896,0.447388,2.20752303652,0,0,-0.671082,52.1, 1, 4.1,0,0,1024,1024,1024,1024,52.1,-90,96,3.731,3.739,3.77,3.798,3.713,3.782,20.74,64.4,14,Waypoint,
38.6884413,-120.4165703,5409.8536501494,196.8504,0.223694,2.06917985624,25800,2018-06-07 17:36:39,18,0,22.53,5409.8536501494,196.8504,0.447388,2.20752303652,0,0,-0.671082,52.2, 1, 3.3,0,0,1024,1024,1024,1024,52.1,-89.9,96,3.731,3.739,3.77,3.798,3.713,3.782,20.74,64.4,14,Waypoint,
38.6884412,-120.4165702,5410.8379021494,197.834652,0.223694,2.0243931094,25900,2018-06-07 17:36:39,18,0,22.53,5410.8379021494,197.834652,0.447388,2.20752303652,0,0,-0.671082,52.2, 0.9, 3.1,0,0,1024,1024,1024,1024,52.1,-90,96,3.731,3.739,3.77,3.798,3.713,3.782,20.74,64.4,14,Waypoint,
38.6884411,-120.4165702,5411.8221541494,198.818904,0.3131716,1.99090885636,26000,2018-06-07 17:36:39,18,0,22.418,5411.8221541494,198.818904,0.447388,2.20752303652,0,0,-0.671082,52.4, 0.9, 2.8,0,0,1024,1024,1024,1024,52.1,-90,96,3.705,3.722,3.755,3.787,3.696,3.768,21.221,64.4,14,Waypoint,
38.688441,-120.4165701,5413.7906581494,200.787408,0,1.94610570532,26100,2018-06-07 17:36:40,18,0,22.418,5413.7906581494,200.787408,0.447388,2.20752303652,0,0,-0.671082,52.6, 0.6, 2.7,0,0,1024,1024,1024,1024,52.1,-90,96,3.705,3.722,3.755,3.787,3.696,3.768,21.221,64.4,14,Waypoint,
38.6884409,-120.41657,5414.7749101494,201.77166,0,1.90137473276,26200,2018-06-07 17:36:40,18,0,22.418,5414.7749101494,201.77166,0.447388,2.20752303652,0,0,-0.671082,52.7, 0.6, 3.2,0,0,1024,1024,1024,1024,52.1,-90,96,3.705,3.722,3.755,3.787,3.696,3.768,21.221,64.4,14,Waypoint,
38.6884409,-120.41657,5415.7591621494,202.755912,0,1.90137473276,26300,2018-06-07 17:36:40,18,0,22.418,5415.7591621494,202.755912,0.447388,2.20752303652,0,0,-0.671082,52.8, 0.7, 3.3,0,0,1024,1024,1024,1024,52.1,-90,96,3.705,3.722,3.755,3.787,3.696,3.768,21.221,64.4,14,Waypoint,
38.6884409,-120.41657,5416.7434141494,203.740164,0,1.90137473276,26500,2018-06-07 17:36:40,18,0,22.418,5416.7434141494,203.740164,0.447388,2.20752303652,0,0,-0.671082,52.7, 0.7, 3.3,0,0,1024,1024,1024,1024,52.1,-90,96,3.705,3.722,3.755,3.787,3.696,3.768,21.221,64.4,14,Waypoint,
38.6884409,-120.41657,5418.7119181494,205.708668,0,1.90137473276,26610,2018-06-07 17:36:40,18,0,22.418,5418.7119181494,205.708668,0.447388,2.20752303652,0,0,-0.671082,52.6, 0.9, 3.5,0,0,1024,1024,1024,1024,52.1,-90,96,3.705,3.722,3.755,3.787,3.696,3.768,21.221,64.4,14,Waypoint,
38.6884408,-120.4165699,5420.6804221494,207.677172,0,1.85671921952,26800,2018-06-07 17:36:40,18,0,22.418,5420.6804221494,207.677172,0.447388,2.20752303652,0,0,-0.671082,52.5, 1, 3.5,0,0,1024,1024,1024,1024,52.1,-89.9,96,3.705,3.722,3.755,3.787,3.696,3.768,21.221,64.4,14,Waypoint,
38.6884408,-120.4165699,5421.6646741494,208.661424,0,1.85671921952,26900,2018-06-07 17:36:40,18,0,22.418,5421.6646741494,208.661424,0.447388,2.20752303652,0,0,-0.671082,52.4, 1.2, 3.9,0,0,1024,1024,1024,1024,52.1,-89.9,96,3.705,3.722,3.755,3.787,3.696,3.768,21.221,64.4,14,Waypoint,
38.6884408,-120.4165698,5422.6489261494,209.645676,0,1.84598759188,27000,2018-06-07 17:36:40,18,0,22.45,5422.6489261494,209.645676,0.447388,2.20752303652,0,0,-0.671082,52.4, 1.2, 4.1,0,0,1024,1024,1024,1024,52.1,-89.9,96,3.708,3.734,3.755,3.778,3.696,3.771,20.605,64.4,14,Waypoint,
38.6884408,-120.4165698,5423.6331781494,210.629928,0,1.84598759188,27110,2018-06-07 17:36:41,18,0,22.45,5423.6331781494,210.629928,0.447388,2.20752303652,0,0,-0.671082,52.4, 1.3, 3.7,0,0,1024,1024,1024,1024,52.1,-89.9,96,3.708,3.734,3.755,3.778,3.696,3.771,20.605,64.4,14,Waypoint,
38.6884408,-120.4165697,5424.6174301494,211.61418,0,1.83563326084,27210,2018-06-07 17:36:41,18,0,22.45,5424.6174301494,211.61418,0.447388,2.20752303652,0,0,-0.671082,52.4, 1.3, 3.4,0,0,1024,1024,1024,1024,52.1,-90,96,3.708,3.734,3.755,3.778,3.696,3.771,20.605,64.4,14,Waypoint,
38.6884408,-120.4165696,5425.6016821494,212.598432,0,1.82566278808,27300,2018-06-07 17:36:41,18,0,22.45,5425.6016821494,212.598432,0.447388,2.20752303652,0,0,-0.671082,52.4, 1.2, 3.1,0,0,1024,1024,1024,1024,52.1,-90,96,3.708,3.734,3.755,3.778,3.696,3.771,20.605,64.4,14,Waypoint,
38.6884407,-120.4165696,5426.5859341494,213.582684,0,1.79144034604,27500,2018-06-07 17:36:41,18,0,22.45,5426.5859341494,213.582684,0.447388,2.20752303652,0,0,-0.671082,52.5, 1.2, 3,0,0,1024,1024,1024,1024,52.1,-89.9,96,3.708,3.734,3.755,3.778,3.696,3.771,20.605,64.4,14,Waypoint,
38.6884407,-120.4165695,5427.5701861494,214.566936,0,1.78167984704,27600,2018-06-07 17:36:41,18,0,22.45,5427.5701861494,214.566936,0.447388,2.20752303652,0,0,-0.671082,52.6, 1.2, 2.9,0,0,1024,1024,1024,1024,52.1,-90,96,3.708,3.734,3.755,3.778,3.696,3.771,20.605,64.4,14,Waypoint,
38.6884406,-120.4165695,5428.5544381494,215.551188,0,1.74735241812,27700,2018-06-07 17:36:41,18,0,22.45,5428.5544381494,215.551188,0.447388,2.20752303652,0,0,-0.671082,52.7, 1.1, 2.8,0,0,1024,1024,1024,1024,52.1,-90,96,3.708,3.734,3.755,3.778,3.696,3.771,20.605,64.4,14,Waypoint,
38.6884406,-120.4165694,5429.5386901494,216.53544,0,1.7378117354,27800,2018-06-07 17:36:41,18,0,22.45,5429.5386901494,216.53544,0.447388,2.20752303652,0,0,-0.671082,52.7, 0.9, 2.7,0,0,1024,1024,1024,1024,52.1,-90,96,3.708,3.734,3.755,3.778,3.696,3.771,20.605,64.4,14,Waypoint,
38.6884406,-120.4165694,5430.5229421494,217.519692,0,1.7378117354,27900,2018-06-07 17:36:41,18,0,22.45,5430.5229421494,217.519692,0.447388,2.20752303652,0,0,-0.671082,52.6, 0.9, 2.5,0,0,1024,1024,1024,1024,52.2,-90,96,3.708,3.734,3.755,3.778,3.696,3.771,20.605,64.4,14,Waypoint,
38.6884405,-120.4165694,5431.5071941494,218.503944,0,1.70338588128,28000,2018-06-07 17:36:41,18,0,22.384,5431.5071941494,218.503944,0.447388,2.20752303652,0,0,-0.671082,52.6, 0.9, 2.8,0,0,1024,1024,1024,1024,52.1,-89.9,96,3.702,3.713,3.748,3.787,3.697,3.77,21.354,64.4,14,Waypoint,
38.6884405,-120.4165694,5432.8195301494,219.81628,0,1.70338588128,28100,2018-06-07 17:36:42,18,0,22.384,5432.8195301494,219.81628,0.447388,2.20752303652,0,0,-0.671082,52.5, 1, 2.9,0,0,1024,1024,1024,1024,52.1,-90,96,3.702,3.713,3.748,3.787,3.697,3.77,21.354,64.4,14,Waypoint,
38.6884405,-120.4165694,5433.8037821494,220.800532,0,1.70338588128,28200,2018-06-07 17:36:42,18,0,22.384,5433.8037821494,220.800532,0.447388,2.20752303652,0,0,-0.671082,52.3, 0.9, 2.9,0,0,1024,1024,1024,1024,52.1,-90,96,3.702,3.713,3.748,3.787,3.697,3.77,21.354,64.4,14,Waypoint,
38.6884405,-120.4165694,5435.7722861494,222.769036,0,1.70338588128,28300,2018-06-07 17:36:42,18,0,22.384,5435.7722861494,222.769036,0.447388,2.20752303652,0,0,-0.671082,52.1, 1, 3.1,0,0,1024,1024,1024,1024,52.1,-90,96,3.702,3.713,3.748,3.787,3.697,3.77,21.354,64.4,14,Waypoint,
