latitude,longitude,altitude(feet),ascent(feet),speed(mph),distance(feet),time(millisecond),datetime(utc),satellites,gpslevel,voltage(v),max_altitude(feet),max_ascent(feet),max_speed(mph),max_distance(feet), xSpeed(mph), ySpeed(mph), zSpeed(mph), compass_heading(degrees), pitch(degrees), roll(degrees),isPhoto,isVideo,rc_elevator,rc_aileron,rc_throttle,rc_rudder,gimbal_heading(degrees),gimbal_pitch(degrees),battery_percent,voltageCell1,voltageCell2,voltageCell3,voltageCell4,voltageCell5,voltageCell6,current(A),battery_temperature(f),flycStateRaw,flycState,message
38.5374318,-120.3487149,5382.78712074,0,0,0,3000,2018-07-07 22:42:24,10,0,25.719,5382.78712074,0,0,0,0,0,0,90.4, 1.3, 0.2,1,0,1024,1024,1024,1024,91.6,-89.9,98,4.251,4.3,4.306,4.305,4.259,4.304,3.839,95,11,AutoTakeoff,DJI_0727.jpg Starting Mission from Lat/Long: 38.53743/-120.34872 Camera: Zenmuse X3 - Overlap: 90/90 - Active Connection: No
38.5374318,-120.3487149,5382.78712074,0,0,0,3100,2018-07-07 22:42:24,10,0,25.719,5382.78712074,0,0,0,0,0,0,90.3, 1.2, 0.1,0,0,1024,1024,1024,1024,91.6,-89.9,98,4.251,4.3,4.306,4.305,4.259,4.304,3.839,95,11,AutoTakeoff,
38.5374319,-120.348715,5382.78712074,0,0,0.04632053954,3200,2018-07-07 22:42:24,10,0,25.719,5382.78712074,0,0,0.04632053954,0,0,0,90.3, 0.6, 0,0,0,1024,1024,1024,1024,91.6,-90,98,4.251,4.3,4.306,4.305,4.259,4.304,3.839,95,11,AutoTakeoff,
38.5374319,-120.348715,5382.78712074,0,0,0.04632053954,3300,2018-07-07 22:42:25,10,0,25.719,5382.78712074,0,0,0.04632053954,0,0,0,90.3, 0.1, -0.1,0,0,1024,1024,1024,1024,91.5,-90,98,4.251,4.3,4.306,4.305,4.259,4.304,3.839,95,11,AutoTakeoff,
38.537432,-120.3487151,5383.11520474,0.328084,0,0.092641407164,3400,2018-07-07 22:42:25,10,0,25.719,5383.11520474,0.328084,0,0.092641407164,0,0,0,90.4, 0, 0.1,0,0,1024,1024,1024,1024,91.5,-90,98,4.251,4.3,4.306,4.305,4.259,4.304,3.839,95,11,AutoTakeoff,
38.5374321,-120.3487151,5383.11520474,0.328084,0,0.123442917336,3500,2018-07-07 22:42:25,10,0,25.719,5383.11520474,0.328084,0,0.123442917336,0,0,0,90.5, -0.1, 0.5,0,0,1024,1024,1024,1024,91.5,-90,98,4.251,4.3,4.306,4.305,4.259,4.304,3.839,95,11,AutoTakeoff,
38.5374323,-120.3487151,5383.44328874,0.656168,0,0.191145347324,3600,2018-07-07 22:42:25,10,0,25.719,5383.44328874,0.656168,0,0.191145347324,0,0,0,90.5, -0.1, 0.7,0,0,1024,1024,1024,1024,91.5,-89.9,98,4.251,4.3,4.306,4.305,4.259,4.304,3.839,95,11,AutoTakeoff,
38.5374325,-120.3487152,5383.44328874,0.656168,0.223694,0.269363197596,3700,2018-07-07 22:42:25,9,0,25.719,5383.44328874,0.656168,0.223694,0.269363197596,0,0,0,90.5, -0.1, 1,0,0,1024,1024,1024,1024,91.5,-90,98,4.251,4.3,4.306,4.305,4.259,4.304,3.839,95,11,AutoTakeoff,
38.5374328,-120.3487151,5383.77137274,0.984252,0.223694,0.36928806956,3800,2018-07-07 22:42:25,9,0,25.719,5383.77137274,0.984252,0.223694,0.36928806956,0,0,0,90.5, 0, 1.6,0,0,1024,1024,1024,1024,91.5,-89.9,98,4.251,4.3,4.306,4.305,4.259,4.304,3.839,95,11,AutoTakeoff,
38.537433,-120.348715,5383.77137274,0.984252,0.223694,0.43875001404,4000,2018-07-07 22:42:25,9,0,25.426,5383.77137274,0.984252,0.223694,0.43875001404,0,0,0,90.4, 0, 1.7,0,0,1024,1024,1024,1024,91.4,-89.9,98,4.21,4.226,4.236,4.262,4.225,4.202,5.49,95,11,AutoTakeoff,
38.5374331,-120.3487149,5384.09945674,1.312336,0.223694,0.47430447712,4100,2018-07-07 22:42:25,9,0,25.426,5384.09945674,1.312336,0.223694,0.47430447712,0,0,-0.223694,90.4, 0.3, 1.8,0,0,1024,1024,1024,1024,91.4,-89.9,98,4.21,4.226,4.236,4.262,4.225,4.202,5.49,95,11,AutoTakeoff,
38.5374333,-120.3487148,5384.42754074,1.64042,0,0.54801839024,4200,2018-07-07 22:42:25,10,0,25.426,5384.42754074,1.64042,0.223694,0.54801839024,0,0,-0.223694,90.4, 0.6, 2.4,0,0,1024,1024,1024,1024,91.4,-89.9,98,4.21,4.226,4.236,4.262,4.225,4.202,5.49,95,11,AutoTakeoff,
38.5374333,-120.3487147,5384.75562474,1.968504,0,0.55024279976,4300,2018-07-07 22:42:26,10,0,25.426,5384.75562474,1.968504,0.223694,0.55024279976,0,0,-0.223694,90.4, 0.7, 2.4,0,0,1024,1024,1024,1024,91.4,-89.9,98,4.21,4.226,4.236,4.262,4.225,4.202,5.49,95,11,AutoTakeoff,
38.5374334,-120.3487146,5384.75562474,1.968504,0,0.59000329972,4400,2018-07-07 22:42:26,10,0,25.426,5384.75562474,1.968504,0.223694,0.59000329972,0,0,-0.223694,90.4, 0.8, 2.3,0,0,1024,1024,1024,1024,91.4,-89.9,98,4.21,4.226,4.236,4.262,4.225,4.202,5.49,95,11,AutoTakeoff,
38.5374333,-120.3487145,5385.08370874,2.296588,0,0.55905185516,4500,2018-07-07 22:42:26,10,0,25.426,5385.08370874,2.296588,0.223694,0.59000329972,0,0,-0.223694,90.3, 0.8, 2.2,0,0,1024,1024,1024,1024,91.4,-89.9,98,4.21,4.226,4.236,4.262,4.225,4.202,5.49,95,11,AutoTakeoff,
38.5374333,-120.3487145,5385.08370874,2.296588,0,0.55905185516,4600,2018-07-07 22:42:26,11,0,25.426,5385.08370874,2.296588,0.223694,0.59000329972,0,0,-0.223694,90.3, 0.9, 2,0,0,1024,1024,1024,1024,91.4,-89.9,98,4.21,4.226,4.236,4.262,4.225,4.202,5.49,95,11,AutoTakeoff,
38.5374334,-120.3487145,5385.41179274,2.624672,0,0.594816292,4700,2018-07-07 22:42:26,11,0,25.426,5385.41179274,2.624672,0.223694,0.594816292,0,0,0,90.2, 0.9, 1.8,0,0,1024,1024,1024,1024,91.4,-89.9,98,4.21,4.226,4.236,4.262,4.225,4.202,5.49,95,11,AutoTakeoff,
38.5374334,-120.3487144,5385.41179274,2.624672,0,0.60094490112,4800,2018-07-07 22:42:26,10,0,25.426,5385.41179274,2.624672,0.223694,0.60094490112,0,0,0,90.2, 1, 1.8,0,0,1024,1024,1024,1024,91.4,-89.9,98,4.21,4.226,4.236,4.262,4.225,4.202,5.49,95,11,AutoTakeoff,
38.5374333,-120.3487143,5385.73987674,2.952756,0,0.57343505772,4900,2018-07-07 22:42:26,10,0,25.426,5385.73987674,2.952756,0.223694,0.60094490112,0,0,-0.223694,90.1, 1, 1.7,0,0,1024,1024,1024,1024,91.4,-89.9,98,4.21,4.226,4.236,4.262,4.225,4.202,5.49,95,14,Waypoint,
38.5374333,-120.3487143,5386.06796074,3.28084,0,0.57343505772,5000,2018-07-07 22:42:26,10,0,24.879,5386.06796074,3.28084,0.223694,0.60094490112,0,0,0,90.1, 1, 1.4,0,0,1024,1024,1024,1024,91.4,-89.9,98,4.115,4.143,4.141,4.146,4.141,4.139,16.53,95,14,Waypoint,
38.5374333,-120.3487143,5386.06796074,3.28084,0,0.57343505772,5100,2018-07-07 22:42:26,10,0,24.879,5386.06796074,3.28084,0.223694,0.60094490112,0,0,0,90, 0.7, 0.2,0,0,1024,1024,1024,1024,91.3,-90,98,4.115,4.143,4.141,4.146,4.141,4.139,16.53,95,14,Waypoint,
38.5374332,-120.3487143,5386.06796074,3.28084,0,0.53872705136,5200,2018-07-07 22:42:26,10,0,24.879,5386.06796074,3.28084,0.223694,0.60094490112,0,0,0,90, 0.6, -0.1,0,0,1024,1024,1024,1024,91.3,-90,98,4.115,4.143,4.141,4.146,4.141,4.139,16.53,95,14,Waypoint,
38.5374331,-120.3487142,5386.39604474,3.608924,0,0.51465880912,5300,2018-07-07 22:42:27,10,0,24.879,5386.39604474,3.608924,0.223694,0.60094490112,0,0,0,90, 0.6, -0.2,0,0,1024,1024,1024,1024,91.3,-89.9,98,4.115,4.143,4.141,4.146,4.141,4.139,16.53,95,14,Waypoint,
38.5374329,-120.3487142,5386.39604474,3.608924,0,0.44830382012,5400,2018-07-07 22:42:27,10,0,24.879,5386.39604474,3.608924,0.223694,0.60094490112,0,0,0,90, 0.7, -0.2,0,0,1024,1024,1024,1024,91.3,-90,98,4.115,4.143,4.141,4.146,4.141,4.139,16.53,95,14,Waypoint,
38.5374329,-120.3487142,5386.39604474,3.608924,0,0.44830382012,5600,2018-07-07 22:42:27,10,0,24.879,5386.39604474,3.608924,0.223694,0.60094490112,0,0,-0.223694,90, 0.6, -0.1,0,0,1024,1024,1024,1024,91.3,-90,98,4.115,4.143,4.141,4.146,4.141,4.139,16.53,95,14,Waypoint,
38.5374328,-120.3487143,5387.05221274,4.265092,0,0.40303150896,5700,2018-07-07 22:42:27,10,0,24.879,5387.05221274,4.265092,0.223694,0.60094490112,0,0,-0.223694,90, 0.5, 0.1,0,0,1024,1024,1024,1024,91.2,-90,98,4.115,4.143,4.141,4.146,4.141,4.139,16.53,95,14,Waypoint,
38.5374329,-120.3487144,5387.38029674,4.593176,0,0.42594817636,5900,2018-07-07 22:42:27,9,0,24.879,5387.38029674,4.593176,0.223694,0.60094490112,0,0,-0.223694,90, 0.4, 0.3,0,0,1024,1024,1024,1024,91.2,-90,98,4.115,4.143,4.141,4.146,4.141,4.139,16.53,95,14,Waypoint,
38.537433,-120.3487144,5387.70838074,4.92126,0,0.46048557904,6000,2018-07-07 22:42:27,9,0,24.768,5387.70838074,4.92126,0.223694,0.60094490112,0,0,-0.223694,90.1, 0.3, 0.6,0,0,1024,1024,1024,1024,91.2,-90,98,4.115,4.143,4.141,4.146,4.141,4.139,16.336,95,14,Waypoint,
38.5374332,-120.3487144,5388.36454874,5.577428,0,0.53034450516,6100,2018-07-07 22:42:27,10,0,24.768,5388.36454874,5.577428,0.223694,0.60094490112,0,0,-0.447388,90.2, 0.3, 1,0,0,1024,1024,1024,1024,91.2,-90,98,4.115,4.143,4.141,4.146,4.141,4.139,16.336,95,14,Waypoint,
38.5374334,-120.3487143,5388.69263274,5.905512,0,0.60835303784,6200,2018-07-07 22:42:27,10,0,24.768,5388.69263274,5.905512,0.223694,0.60835303784,0,0,-0.447388,90.2, 0.4, 1.3,0,0,1024,1024,1024,1024,91.2,-90,98,4.115,4.143,4.141,4.146,4.141,4.139,16.336,95,14,Waypoint,
38.5374337,-120.3487143,5389.34880074,6.56168,0.223694,0.71404857928,6300,2018-07-07 22:42:28,8,0,24.768,5389.34880074,6.56168,0.223694,0.71404857928,0,0,-0.447388,90.3, 0.4, 1.5,0,0,1024,1024,1024,1024,91.2,-89.9,98,4.115,4.143,4.141,4.146,4.141,4.139,16.336,95,14,Waypoint,
38.5374344,-120.3487142,5390.98922074,8.2021,0.223694,0.96941604152,6400,2018-07-07 22:42:28,10,0,24.768,5390.98922074,8.2021,0.223694,0.96941604152,0,0,-0.671082,90.5, 0.6, 2.4,0,0,1024,1024,1024,1024,91.1,-89.9,98,4.115,4.143,4.141,4.146,4.141,4.139,16.336,95,14,Waypoint,
38.5374347,-120.348714,5391.97347274,9.186352,0.223694,1.08879268576,6500,2018-07-07 22:42:28,10,0,24.768,5391.97347274,9.186352,0.223694,1.08879268576,0,0,-0.671082,90.5, 0.7, 2.8,0,0,1024,1024,1024,1024,91.1,-89.9,98,4.115,4.143,4.141,4.146,4.141,4.139,16.336,95,14,Waypoint,
38.5374351,-120.3487138,5392.95772474,10.170604,0.223694,1.24425528916,6600,2018-07-07 22:42:28,9,0,24.768,5392.95772474,10.170604,0.223694,1.24425528916,0,0,-0.671082,90.5, 0.9, 3.1,0,0,1024,1024,1024,1024,91.1,-89.9,98,4.115,4.143,4.141,4.146,4.141,4.139,16.336,95,14,Waypoint,
38.5374354,-120.3487136,5393.94197674,11.154856,0.223694,1.36484912504,6700,2018-07-07 22:42:28,9,0,24.768,5393.94197674,11.154856,0.223694,1.36484912504,0,0,-0.671082,90.4, 1.1, 3.6,0,0,1024,1024,1024,1024,91.1,-89.9,98,4.115,4.143,4.141,4.146,4.141,4.139,16.336,95,14,Waypoint,
38.5374358,-120.3487134,5394.92622874,12.139108,0.223694,1.52088587544,6800,2018-07-07 22:42:28,10,0,24.768,5394.92622874,12.139108,0.223694,1.52088587544,0,0,-0.671082,90.3, 1.4, 4,0,0,1024,1024,1024,1024,91.1,-89.9,98,4.115,4.143,4.141,4.146,4.141,4.139,16.336,95,14,Waypoint,
38.5374362,-120.3487131,5396.23856474,13.451444,0.223694,1.68552498832,6900,2018-07-07 22:42:28,10,0,24.768,5396.23856474,13.451444,0.223694,1.68552498832,0,0,-0.671082,90.2, 1.7, 4.3,0,0,1024,1024,1024,1024,91.1,-89.9,98,4.115,4.143,4.141,4.146,4.141,4.139,16.336,95,14,Waypoint,
38.5374365,-120.3487129,5397.22281674,14.435696,0,1.80729008408,7000,2018-07-07 22:42:28,10,0,24.768,5397.22281674,14.435696,0.223694,1.80729008408,0,0,-0.671082,90.2, 2, 4.6,0,0,1024,1024,1024,1024,91.1,-89.9,98,4.107,4.135,4.129,4.13,4.131,4.126,16.336,95,14,Waypoint,
38.5374367,-120.3487128,5398.20706874,15.419948,0,1.88554139892,7100,2018-07-07 22:42:28,10,0,24.768,5398.20706874,15.419948,0.223694,1.88554139892,0,0,-0.671082,90.2, 2.1, 4.7,0,0,1024,1024,1024,1024,91,-89.9,98,4.107,4.135,4.129,4.13,4.131,4.126,16.336,95,14,Waypoint,
38.5374367,-120.3487127,5399.51940474,16.732284,0,1.89480649108,7200,2018-07-07 22:42:28,11,0,24.768,5399.51940474,16.732284,0.223694,1.89480649108,0,0,-0.671082,90.2, 2.1, 4.3,0,0,1024,1024,1024,1024,91,-89.9,98,4.107,4.135,4.129,4.13,4.131,4.126,16.336,95,14,Waypoint,
38.5374366,-120.3487127,5400.50365674,17.716536,0,1.86042000704,7300,2018-07-07 22:42:29,11,0,24.768,5400.50365674,17.716536,0.223694,1.89480649108,0,0,-0.671082,90.2, 2, 3.8,0,0,1024,1024,1024,1024,91,-89.9,98,4.107,4.135,4.129,4.13,4.131,4.126,16.336,95,14,Waypoint,
38.5374363,-120.3487127,5401.48790874,18.700788,0.223694,1.7577756468,7400,2018-07-07 22:42:29,11,0,24.768,5401.48790874,18.700788,0.223694,1.89480649108,0,0,-0.671082,90.2, 1.8, 2.9,0,0,1024,1024,1024,1024,91,-89.9,98,4.107,4.135,4.129,4.13,4.131,4.126,16.336,95,14,Waypoint,
38.537436,-120.3487128,5402.47216074,19.68504,0.447388,1.64539375344,7500,2018-07-07 22:42:29,11,0,24.768,5402.47216074,19.68504,0.447388,1.89480649108,0,0,-0.671082,90.2, 1.4, 1.8,0,0,1024,1024,1024,1024,91,-89.9,98,4.107,4.135,4.129,4.13,4.131,4.126,16.336,95,14,Waypoint,
38.5374357,-120.3487129,5403.45641274,20.669292,0.447388,1.5331201278,7610,2018-07-07 22:42:29,11,0,24.768,5403.45641274,20.669292,0.447388,1.89480649108,0,0,-0.671082,90.2, 0.9, 1,0,0,1024,1024,1024,1024,91,-90,98,4.107,4.135,4.129,4.13,4.131,4.126,16.336,95,14,Waypoint,
38.5374353,-120.3487129,5404.44066474,21.653544,0.447388,1.39872707888,7700,2018-07-07 22:42:29,11,0,24.768,5404.44066474,21.653544,0.447388,1.89480649108,0,0,-0.671082,90.2, 0.8, 0.2,0,0,1024,1024,1024,1024,91,-90,98,4.107,4.135,4.129,4.13,4.131,4.126,16.336,95,14,Waypoint,
38.5374349,-120.3487129,5405.75300074,22.96588,0.447388,1.26689308516,7900,2018-07-07 22:42:29,12,0,24.768,5405.75300074,22.96588,0.447388,1.89480649108,0,0,-0.671082,90.3, 1, -0.2,0,0,1024,1024,1024,1024,91,-89.9,98,4.107,4.135,4.129,4.13,4.131,4.126,16.336,95,14,Waypoint,
38.5374344,-120.348713,5406.73725274,23.950132,0.447388,1.09264439192,8000,2018-07-07 22:42:29,12,0,24.529,5406.73725274,23.950132,0.447388,1.89480649108,0,0,-0.671082,90.3, 1.2, -0.8,0,0,1024,1024,1024,1024,91,-89.9,97,4.051,4.082,4.066,4.08,4.075,4.063,19.782,95,14,Waypoint,
38.537434,-120.3487132,5407.72150474,24.934384,0.447388,0.93789701164,8100,2018-07-07 22:42:29,12,0,24.529,5407.72150474,24.934384,0.447388,1.89480649108,0,0,-0.671082,90.3, 1.1, -1.5,0,0,1024,1024,1024,1024,91,-89.9,97,4.051,4.082,4.066,4.08,4.075,4.063,19.782,95,14,Waypoint,
38.5374337,-120.3487134,5408.70575674,25.918636,0.447388,0.81473755888,8200,2018-07-07 22:42:29,12,0,24.529,5408.70575674,25.918636,0.447388,1.89480649108,0,0,-0.671082,90.3, 0.8, -1.8,0,0,1024,1024,1024,1024,91,-90,97,4.051,4.082,4.066,4.08,4.075,4.063,19.782,95,14,Waypoint,
38.5374334,-120.3487136,5410.01809274,27.230972,0.223694,0.69167653132,8300,2018-07-07 22:42:30,13,0,24.529,5410.01809274,27.230972,0.447388,1.89480649108,0,0,-0.671082,90.3, 0.5, -1.8,0,0,1024,1024,1024,1024,91,-90,97,4.051,4.082,4.066,4.08,4.075,4.063,19.782,95,14,Waypoint,
38.5374331,-120.3487138,5411.00234474,28.215224,0.223694,0.5687828266,8400,2018-07-07 22:42:30,13,0,24.529,5411.00234474,28.215224,0.447388,1.89480649108,0,0,-0.671082,90.2, 0.2, -1.7,0,0,1024,1024,1024,1024,91,-90,97,4.051,4.082,4.066,4.08,4.075,4.063,19.782,95,14,Waypoint,
38.5374325,-120.3487143,5413.29893274,30.511812,0.223694,0.307484261808,8500,2018-07-07 22:42:30,12,0,24.529,5413.29893274,30.511812,0.447388,1.89480649108,0,0,-0.671082,89.9, -0.7, -1.6,0,0,1024,1024,1024,1024,91,-89.9,97,4.051,4.082,4.066,4.08,4.075,4.063,19.782,95,14,Waypoint,
38.5374322,-120.3487145,5414.28318474,31.496064,0,0.185282486244,8600,2018-07-07 22:42:30,12,0,24.529,5414.28318474,31.496064,0.447388,1.89480649108,0,0,-0.671082,89.8, -0.9, -1.5,0,0,1024,1024,1024,1024,91,-90,97,4.051,4.082,4.066,4.08,4.075,4.063,19.782,95,14,Waypoint,
38.5374319,-120.3487148,5415.26743674,32.480316,0,0.04632053954,8700,2018-07-07 22:42:30,12,0,24.529,5415.26743674,32.480316,0.447388,1.89480649108,0,0,-0.671082,89.8, -0.8, -1.4,0,0,1024,1024,1024,1024,91,-90,97,4.051,4.082,4.066,4.08,4.075,4.063,19.782,95,14,Waypoint,
38.5374316,-120.348715,5416.25168874,33.464568,0,0.078352036628,8800,2018-07-07 22:42:30,12,0,24.529,5416.25168874,33.464568,0.447388,1.89480649108,0,0,-0.671082,89.8, -0.7, -1.4,0,0,1024,1024,1024,1024,91,-90,97,4.051,4.082,4.066,4.08,4.075,4.063,19.782,95,14,Waypoint,
38.5374312,-120.3487152,5417.23594074,34.44882,0,0.235056437968,8900,2018-07-07 22:42:30,12,0,24.529,5417.23594074,34.44882,0.447388,1.89480649108,0,0,-0.671082,89.8, -0.6, -1.8,0,0,1024,1024,1024,1024,91,-90,97,4.051,4.082,4.066,4.08,4.075,4.063,19.782,95,14,Waypoint,
38.5374309,-120.3487153,5418.54827674,35.761156,0,0.34764108724,9000,2018-07-07 22:42:30,12,0,24.217,5418.54827674,35.761156,0.447388,1.89480649108,0,0,-0.671082,89.8, -0.4, -2.1,0,0,1024,1024,1024,1024,91,-90,97,4.001,4.045,4.044,4.03,4.037,4.057,23.579,95,14,Waypoint,
38.5374307,-120.3487155,5419.53252874,36.745408,0,0.4363353158,9100,2018-07-07 22:42:30,12,0,24.217,5419.53252874,36.745408,0.447388,1.89480649108,0,0,-0.671082,89.8, -0.4, -2.3,0,0,1024,1024,1024,1024,91,-90,97,4.001,4.045,4.044,4.03,4.037,4.057,23.579,95,14,Waypoint,
38.5374302,-120.3487156,5421.50103274,38.713912,0,0.6169947704,9300,2018-07-07 22:42:31,12,0,24.217,5421.50103274,38.713912,0.447388,1.89480649108,0,0,-0.671082,90, -0.4, -2.4,0,0,1024,1024,1024,1024,91,-90,97,4.001,4.045,4.044,4.03,4.037,4.057,23.579,95,14,Waypoint,
38.5374301,-120.3487158,5422.81336874,40.026248,0,0.67132219996,9400,2018-07-07 22:42:31,12,0,24.217,5422.81336874,40.026248,0.447388,1.89480649108,0,0,-0.671082,90.1, -0.4, -2.3,0,0,1024,1024,1024,1024,91,-90,97,4.001,4.045,4.044,4.03,4.037,4.057,23.579,95,14,Waypoint,
38.5374301,-120.348716,5423.79762074,41.0105,0,0.69516406424,9500,2018-07-07 22:42:31,12,0,24.217,5423.79762074,41.0105,0.447388,1.89480649108,0,0,-0.671082,90.1, -0.6, -2,0,0,1024,1024,1024,1024,91,-90,97,4.001,4.045,4.044,4.03,4.037,4.057,23.579,95,14,Waypoint,
38.5374301,-120.3487162,5424.78187274,41.994752,0.223694,0.72273296276,9610,2018-07-07 22:42:31,12,0,24.217,5424.78187274,41.994752,0.447388,1.89480649108,0,0,-0.671082,90.1, -1, -1.5,0,0,1024,1024,1024,1024,91,-90,97,4.001,4.045,4.044,4.03,4.037,4.057,23.579,95,14,Waypoint,
38.5374301,-120.3487163,5425.76612474,42.979004,0.223694,0.73779201836,9700,2018-07-07 22:42:31,12,0,24.217,5425.76612474,42.979004,0.447388,1.89480649108,0,0,-0.671082,90.1, -1.3, -1.1,0,0,1024,1024,1024,1024,91,-89.9,97,4.001,4.045,4.044,4.03,4.037,4.057,23.579,95,14,Waypoint,
38.53743,-120.3487164,5426.75037674,43.963256,0.223694,0.78392719044,9900,2018-07-07 22:42:31,12,0,24.217,5426.75037674,43.963256,0.447388,1.89480649108,0,0,-0.671082,90.1, -1.3, -0.8,0,0,1024,1024,1024,1024,91,-89.9,97,4.001,4.045,4.044,4.03,4.037,4.057,23.579,95,14,Waypoint,
38.53743,-120.3487165,5427.73462874,44.947508,0.223694,0.799868792,10000,2018-07-07 22:42:31,12,0,24.383,5427.73462874,44.947508,0.447388,1.89480649108,0,0,-0.671082,90, -1, -0.7,0,0,1024,1024,1024,1024,91,-89.9,97,4.047,4.084,4.065,4.06,4.073,4.066,18.766,95,14,Waypoint,
38.5374299,-120.3487165,5428.71888074,45.93176,0.223694,0.83008860924,10100,2018-07-07 22:42:31,12,0,24.383,5428.71888074,45.93176,0.447388,1.89480649108,0,0,-0.671082,89.9, -0.9, -0.7,0,0,1024,1024,1024,1024,91,-89.9,97,4.047,4.084,4.065,4.06,4.073,4.066,18.766,95,14,Waypoint,
38.5374299,-120.3487165,5429.70313274,46.916012,0.223694,0.83008860924,10200,2018-07-07 22:42:31,12,0,24.383,5429.70313274,46.916012,0.447388,1.89480649108,0,0,-0.671082,89.9, -0.7, -0.9,0,0,1024,1024,1024,1024,91,-89.9,97,4.047,4.084,4.065,4.06,4.073,4.066,18.766,95,14,Waypoint,
38.5374299,-120.3487165,5430.68738474,47.900264,0.223694,0.83008860924,10300,2018-07-07 22:42:32,12,0,24.383,5430.68738474,47.900264,0.447388,1.89480649108,0,0,-0.671082,89.8, -0.3, -1,0,0,1024,1024,1024,1024,91,-89.9,97,4.047,4.084,4.065,4.06,4.073,4.066,18.766,95,14,Waypoint,
38.53743,-120.3487164,5431.67163674,48.884516,0.3131716,0.78392719044,10400,2018-07-07 22:42:32,12,0,24.383,5431.67163674,48.884516,0.447388,1.89480649108,0,0,-0.671082,89.8, -0.1, -0.8,0,0,1024,1024,1024,1024,91,-89.9,97,4.047,4.084,4.065,4.06,4.073,4.066,18.766,95,14,Waypoint,
38.5374301,-120.3487163,5432.65588874,49.868768,0.4921268,0.73779201836,10500,2018-07-07 22:42:32,12,0,24.383,5432.65588874,49.868768,0.4921268,1.89480649108,0,0,-0.671082,89.8, 0.1, -0.6,0,0,1024,1024,1024,1024,91,-89.9,97,4.047,4.084,4.065,4.06,4.073,4.066,18.766,95,14,Waypoint,
38.5374304,-120.348716,5434.62439274,51.837272,0.4921268,0.59954398244,10600,2018-07-07 22:42:32,13,0,24.383,5434.62439274,51.837272,0.4921268,1.89480649108,0,0,-0.671082,89.8, 0.5, 0,0,0,1024,1024,1024,1024,91,-89.9,97,4.047,4.084,4.065,4.06,4.073,4.066,18.766,95,14,Waypoint,
38.5374306,-120.3487159,5435.60864474,52.821524,0.4921268,0.52261812696,10700,2018-07-07 22:42:32,13,0,24.383,5435.60864474,52.821524,0.4921268,1.89480649108,0,0,-0.671082,89.8, 0.7, 0.4,0,0,1024,1024,1024,1024,91,-89.9,97,4.047,4.084,4.065,4.06,4.073,4.066,18.766,95,14,Waypoint,
38.5374308,-120.3487158,5436.59289674,53.805776,0.4921268,0.44619095916,10800,2018-07-07 22:42:32,13,0,24.383,5436.59289674,53.805776,0.4921268,1.89480649108,0,0,-0.671082,89.8, 0.7, 0.8,0,0,1024,1024,1024,1024,91,-89.9,97,4.047,4.084,4.065,4.06,4.073,4.066,18.766,95,14,Waypoint,
38.537431,-120.3487157,5437.57714874,54.790028,0.4921268,0.37056431632,10900,2018-07-07 22:42:32,13,0,24.383,5437.57714874,54.790028,0.4921268,1.89480649108,0,0,-0.671082,89.8, 0.7, 1,0,0,1024,1024,1024,1024,91,-89.9,97,4.047,4.084,4.065,4.06,4.073,4.066,18.766,95,14,Waypoint,
38.5374312,-120.3487156,5438.56140074,55.77428,0.4921268,0.296360245704,11000,2018-07-07 22:42:32,13,0,24.421,5438.56140074,55.77428,0.4921268,1.89480649108,0,0,-0.671082,89.9, 0.8, 1.1,0,0,1024,1024,1024,1024,91,-89.9,97,4.05,4.083,4.071,4.071,4.066,4.068,18.305,95,14,Waypoint,
38.5374314,-120.3487155,5439.54565274,56.758532,0.4921268,0.224985899588,11100,2018-07-07 22:42:32,13,0,24.421,5439.54565274,56.758532,0.4921268,1.89480649108,0,0,-0.671082,90, 0.8, 1.3,0,0,1024,1024,1024,1024,91,-89.9,97,4.05,4.083,4.071,4.071,4.066,4.068,18.305,95,14,Waypoint,
38.5374316,-120.3487153,5440.52990474,57.742784,0.4921268,0.135483600136,11200,2018-07-07 22:42:32,13,0,24.421,5440.52990474,57.742784,0.4921268,1.89480649108,0,0,-0.671082,90.1, 0.8, 1.5,0,0,1024,1024,1024,1024,91,-89.9,97,4.05,4.083,4.071,4.071,4.066,4.068,18.305,95,14,Waypoint,
38.5374318,-120.3487152,5441.51415674,58.727036,0.4921268,0.085615816388,11300,2018-07-07 22:42:33,13,0,24.421,5441.51415674,58.727036,0.4921268,1.89480649108,0,0,-0.671082,90.2, 0.8, 1.6,0,0,1024,1024,1024,1024,91,-89.9,97,4.05,4.083,4.071,4.071,4.066,4.068,18.305,95,14,Waypoint,
38.537432,-120.3487151,5442.49840874,59.711288,0.4921268,0.092641407164,11400,2018-07-07 22:42:33,13,0,24.421,5442.49840874,59.711288,0.4921268,1.89480649108,0,0,-0.671082,90.3, 0.9, 1.6,0,0,1024,1024,1024,1024,91,-89.9,97,4.05,4.083,4.071,4.071,4.066,4.068,18.305,95,14,Waypoint,
38.5374322,-120.348715,5443.48266074,60.69554,0.447388,0.148704073,11500,2018-07-07 22:42:33,13,0,24.421,5443.48266074,60.69554,0.4921268,1.89480649108,0,0,-0.671082,90.3, 0.9, 1.7,0,0,1024,1024,1024,1024,91,-89.9,97,4.05,4.083,4.071,4.071,4.066,4.068,18.305,95,14,Waypoint,
38.5374324,-120.3487149,5444.46691274,61.679792,0.447388,0.218909783908,11600,2018-07-07 22:42:33,13,0,24.421,5444.46691274,61.679792,0.4921268,1.89480649108,0,0,-0.671082,90.3, 1, 1.9,0,0,1024,1024,1024,1024,91,-89.9,97,4.05,4.083,4.071,4.071,4.066,4.068,18.305,95,14,Waypoint,
38.5374326,-120.3487147,5445.45116474,62.664044,0.223694,0.297407817916,11700,2018-07-07 22:42:33,13,0,24.421,5445.45116474,62.664044,0.4921268,1.89480649108,0,0,-0.671082,90.3, 1, 2.1,0,0,1024,1024,1024,1024,91,-89.9,97,4.05,4.083,4.071,4.071,4.066,4.068,18.305,95,14,Waypoint,
38.5374328,-120.3487146,5446.43541674,63.648296,0.223694,0.37476051068,11900,2018-07-07 22:42:33,14,0,24.421,5446.43541674,63.648296,0.4921268,1.89480649108,0,0,-0.671082,90.3, 1, 2.2,0,0,1024,1024,1024,1024,91,-89.9,97,4.05,4.083,4.071,4.071,4.066,4.068,18.305,95,14,Waypoint,
38.537433,-120.3487145,5447.41966874,64.632548,0.223694,0.45245736356,12000,2018-07-07 22:42:33,14,0,24.367,5447.41966874,64.632548,0.4921268,1.89480649108,0,0,-0.671082,90.3, 1, 2.2,0,0,1024,1024,1024,1024,91,-89.9,97,4.044,4.074,4.066,4.061,4.071,4.057,18.726,95,14,Waypoint,
38.5374332,-120.3487144,5448.40392074,65.6168,0.223694,0.53034450516,12100,2018-07-07 22:42:33,14,0,24.367,5448.40392074,65.6168,0.4921268,1.89480649108,0,0,-0.671082,90.3, 1, 2.2,0,0,1024,1024,1024,1024,91,-89.9,97,4.044,4.074,4.066,4.061,4.071,4.057,18.726,95,14,Waypoint,
38.5374336,-120.3487143,5450.37242474,67.585304,0.223694,0.67868440492,12200,2018-07-07 22:42:33,14,0,24.367,5450.37242474,67.585304,0.4921268,1.89480649108,0,0,-0.671082,90.2, 1, 2.3,0,0,1024,1024,1024,1024,91,-89.9,97,4.044,4.074,4.066,4.061,4.071,4.057,18.726,95,14,Waypoint,
38.5374337,-120.3487142,5451.35667674,68.569556,0.223694,0.7214239076,12400,2018-07-07 22:42:34,14,0,24.367,5451.35667674,68.569556,0.4921268,1.89480649108,0,0,-0.671082,90.2, 1.2, 2.2,0,0,1024,1024,1024,1024,91,-89.9,97,4.044,4.074,4.066,4.061,4.071,4.057,18.726,95,14,Waypoint,
38.5374338,-120.3487141,5452.01284474,69.225724,0,0.76458007696,12500,2018-07-07 22:42:34,16,0,24.367,5452.01284474,69.225724,0.4921268,1.89480649108,0,0,-0.671082,90.2, 1.2, 2.1,0,0,1024,1024,1024,1024,91,-89.9,97,4.044,4.074,4.066,4.061,4.071,4.057,18.726,95,14,Waypoint,
38.5374339,-120.3487141,5452.99709674,70.209976,0,0.7994750912,12600,2018-07-07 22:42:34,16,0,24.367,5452.99709674,70.209976,0.4921268,1.89480649108,0,0,-0.671082,90.1, 1.2, 2.1,0,0,1024,1024,1024,1024,91,-89.9,97,4.044,4.074,4.066,4.061,4.071,4.057,18.726,95,14,Waypoint,
38.537434,-120.348714,5453.98134874,71.194228,0,0.84276249416,12700,2018-07-07 22:42:34,15,0,24.367,5453.98134874,71.194228,0.4921268,1.89480649108,0,0,-0.671082,90.1, 1.1, 2.1,0,0,1024,1024,1024,1024,91,-89.9,97,4.044,4.074,4.066,4.061,4.071,4.057,18.726,95,14,Waypoint,
38.5374342,-120.3487139,5455.94985274,73.162732,0,0.92097115808,12800,2018-07-07 22:42:34,16,0,24.367,5455.94985274,73.162732,0.4921268,1.89480649108,0,0,-0.671082,90.1, 1.1, 1.8,0,0,1024,1024,1024,1024,91,-89.9,97,4.044,4.074,4.066,4.061,4.071,4.057,18.726,95,14,Waypoint,
38.5374343,-120.3487139,5456.93410474,74.146984,0,0.95572837704,13000,2018-07-07 22:42:34,16,0,24.365,5456.93410474,74.146984,0.4921268,1.89480649108,0,0,-0.671082,90.2, 1.3, 1.7,0,0,1024,1024,1024,1024,91,-89.9,97,4.035,4.08,4.058,4.064,4.068,4.058,18.149,95,14,Waypoint,
38.5374345,-120.3487138,5458.90260874,76.115488,0,1.03390423256,13100,2018-07-07 22:42:34,15,0,24.365,5458.90260874,76.115488,0.4921268,1.89480649108,0,0,-0.671082,90.1, 1.2, 2,0,0,1024,1024,1024,1024,91,-89.9,97,4.035,4.08,4.058,4.064,4.068,4.058,18.149,95,14,Waypoint,
38.5374345,-120.3487138,5459.88686074,77.09974,0,1.03390423256,13200,2018-07-07 22:42:34,15,0,24.365,5459.88686074,77.09974,0.4921268,1.89480649108,0,0,-0.671082,90, 1.2, 2.1,0,0,1024,1024,1024,1024,91,-89.9,97,4.035,4.08,4.058,4.064,4.068,4.058,18.149,95,14,Waypoint,
38.5374346,-120.3487138,5460.87111274,78.083992,0,1.06872378748,13300,2018-07-07 22:42:35,15,0,24.365,5460.87111274,78.083992,0.4921268,1.89480649108,0,0,-0.671082,89.9, 1, 2.2,0,0,1024,1024,1024,1024,91,-90,97,4.035,4.08,4.058,4.064,4.068,4.058,18.149,95,14,Waypoint,
38.5374347,-120.3487138,5461.85536474,79.068244,0,1.10365161012,13400,2018-07-07 22:42:35,16,0,24.365,5461.85536474,79.068244,0.4921268,1.89480649108,0,0,-0.671082,89.9, 0.9, 2.2,0,0,1024,1024,1024,1024,91,-90,97,4.035,4.08,4.058,4.064,4.068,4.058,18.149,95,14,Waypoint,
38.5374347,-120.3487139,5462.83961674,80.052496,0,1.09587601932,13500,2018-07-07 22:42:35,16,0,24.365,5462.83961674,80.052496,0.4921268,1.89480649108,0,0,-0.671082,89.9, 0.7, 2.1,0,0,1024,1024,1024,1024,91,-89.9,97,4.035,4.08,4.058,4.064,4.068,4.058,18.149,95,14,Waypoint,
38.5374346,-120.348714,5463.82386874,81.036748,0,1.05337273712,13600,2018-07-07 22:42:35,16,0,24.365,5463.82386874,81.036748,0.4921268,1.89480649108,0,0,-0.671082,89.9, 0.6, 2,0,0,1024,1024,1024,1024,91,-89.9,97,4.035,4.08,4.058,4.064,4.068,4.058,18.149,95,14,Waypoint,
38.5374346,-120.348714,5464.80812074,82.021,0,1.05337273712,13700,2018-07-07 22:42:35,16,0,24.365,5464.80812074,82.021,0.4921268,1.89480649108,0,0,-0.671082,89.9, 0.5, 1.8,0,0,1024,1024,1024,1024,91,-89.9,97,4.035,4.08,4.058,4.064,4.068,4.058,18.149,95,14,Waypoint,
38.5374346,-120.3487141,5465.79237274,83.005252,0,1.04677824872,13800,2018-07-07 22:42:35,16,0,24.365,5465.79237274,83.005252,0.4921268,1.89480649108,0,0,-0.671082,90, 0.5, 1.6,0,0,1024,1024,1024,1024,91,-89.9,97,4.035,4.08,4.058,4.064,4.068,4.058,18.149,95,14,Waypoint,
38.5374345,-120.3487141,5466.77662474,83.989504,0,1.0112041006,13900,2018-07-07 22:42:35,16,0,24.365,5466.77662474,83.989504,0.4921268,1.89480649108,0,0,-0.671082,90.1, 0.4, 1.5,0,0,1024,1024,1024,1024,91,-89.9,97,4.035,4.08,4.058,4.064,4.068,4.058,18.149,95,14,Waypoint,
38.5374345,-120.3487142,5467.76087674,84.973756,0,1.00514438912,14000,2018-07-07 22:42:35,16,0,24.32,5467.76087674,84.973756,0.4921268,1.89480649108,0,0,-0.671082,90.1, 0.4, 1.4,0,0,1024,1024,1024,1024,91,-89.9,97,4.028,4.067,4.062,4.057,4.054,4.057,18.448,95,14,Waypoint,
38.5374344,-120.3487142,5468.74512874,85.958008,0,0.96941604152,14120,2018-07-07 22:42:35,16,0,24.32,5468.74512874,85.958008,0.4921268,1.89480649108,0,0,-0.671082,90.2, 0.5, 1.2,0,0,1024,1024,1024,1024,91,-89.9,97,4.028,4.067,4.062,4.057,4.054,4.057,18.448,95,14,Waypoint,
38.5374343,-120.3487142,5469.72938074,86.94226,0,0.9337434682,14200,2018-07-07 22:42:35,16,0,24.32,5469.72938074,86.94226,0.4921268,1.89480649108,0,0,-0.671082,90.2, 0.6, 1.2,0,0,1024,1024,1024,1024,91,-89.9,97,4.028,4.067,4.062,4.057,4.054,4.057,18.448,95,14,Waypoint,
38.5374343,-120.3487143,5470.71363274,87.926512,0,0.92805777248,14300,2018-07-07 22:42:36,16,0,24.32,5470.71363274,87.926512,0.4921268,1.89480649108,0,0,-0.671082,90.2, 0.7, 1.2,0,0,1024,1024,1024,1024,91,-89.9,97,4.028,4.067,4.062,4.057,4.054,4.057,18.448,95,14,Waypoint,
38.5374342,-120.3487143,5471.69788474,88.910764,0,0.892224438,14400,2018-07-07 22:42:36,16,0,24.32,5471.69788474,88.910764,0.4921268,1.89480649108,0,0,-0.671082,90.2, 0.7, 1,0,0,1024,1024,1024,1024,91,-89.9,97,4.028,4.067,4.062,4.057,4.054,4.057,18.448,95,14,Waypoint,
38.5374342,-120.3487144,5472.68213674,89.895016,0,0.8871883486,14500,2018-07-07 22:42:36,16,0,24.32,5472.68213674,89.895016,0.4921268,1.89480649108,0,0,-0.671082,90.2, 0.6, 1,0,0,1024,1024,1024,1024,91,-89.9,97,4.028,4.067,4.062,4.057,4.054,4.057,18.448,95,14,Waypoint,
38.5374341,-120.3487145,5473.66638874,90.879268,0,0.8468832292,14610,2018-07-07 22:42:36,16,0,24.32,5473.66638874,90.879268,0.4921268,1.89480649108,0,0,-0.671082,90.1, 0.5, 0.9,0,0,1024,1024,1024,1024,91,-89.9,97,4.028,4.067,4.062,4.057,4.054,4.057,18.448,95,14,Waypoint,
38.5374341,-120.3487145,5473.66638874,90.879268,0,0.8468832292,14700,2018-07-07 22:42:36,16,0,24.32,5473.66638874,90.879268,0.4921268,1.89480649108,0,0,-0.671082,90.1, 0.5, 0.9,0,0,1024,1024,1024,1024,91,-89.9,97,4.028,4.067,4.062,4.057,4.054,4.057,18.448,95,14,Waypoint,
38.537434,-120.3487145,5474.65064074,91.86352,0,0.8107447766,14800,2018-07-07 22:42:36,16,0,24.32,5474.65064074,91.86352,0.4921268,1.89480649108,0,0,-0.671082,90.1, 0.4, 0.9,0,0,1024,1024,1024,1024,91,-89.9,97,4.028,4.067,4.062,4.057,4.054,4.057,18.448,95,14,Waypoint,
38.5374338,-120.3487146,5476.61914474,93.832024,0,0.73470474792,14900,2018-07-07 22:42:36,16,0,24.32,5476.61914474,93.832024,0.4921268,1.89480649108,0,0,-0.671082,90.1, 0.2, 0.8,0,0,1024,1024,1024,1024,91,-90,97,4.028,4.067,4.062,4.057,4.054,4.057,18.448,95,14,Waypoint,
38.5374337,-120.3487147,5477.60339674,94.816276,0,0.69556104588,15100,2018-07-07 22:42:36,16,0,24.32,5477.60339674,94.816276,0.4921268,1.89480649108,0,0,-0.671082,90.2, 0.1, 0.7,0,0,1024,1024,1024,1024,91,-90,97,4.028,4.067,4.062,4.057,4.054,4.057,18.448,95,14,Waypoint,
38.5374336,-120.3487147,5478.58764874,95.800528,0,0.65920605784,15200,2018-07-07 22:42:36,16,0,24.32,5478.58764874,95.800528,0.4921268,1.89480649108,0,0,-0.671082,90.2, 0.1, 0.6,0,0,1024,1024,1024,1024,91,-90,97,4.028,4.067,4.062,4.057,4.054,4.057,18.448,95,14,Waypoint,
38.5374335,-120.3487148,5479.57190074,96.78478,0,0.62089897,15300,2018-07-07 22:42:37,16,0,24.32,5479.57190074,96.78478,0.4921268,1.89480649108,0,0,-0.671082,90.2, 0.1, 0.6,0,0,1024,1024,1024,1024,91,-89.9,97,4.028,4.067,4.062,4.057,4.054,4.057,18.448,95,14,Waypoint,
38.5374334,-120.3487149,5480.55615274,97.769032,0,0.5837598612,15400,2018-07-07 22:42:37,16,0,24.32,5480.55615274,97.769032,0.4921268,1.89480649108,0,0,-0.671082,90.2, 0.2, 0.6,0,0,1024,1024,1024,1024,91,-89.9,97,4.028,4.067,4.062,4.057,4.054,4.057,18.448,95,14,Waypoint,
38.5374333,-120.3487149,5481.54040474,98.753284,0,0.54727363956,15500,2018-07-07 22:42:37,16,0,24.32,5481.54040474,98.753284,0.4921268,1.89480649108,0,0,-0.671082,90.2, 0.3, 0.4,0,0,1024,1024,1024,1024,91,-89.9,97,4.028,4.067,4.062,4.057,4.054,4.057,18.448,95,14,Waypoint,
38.5374331,-120.348715,5483.83699274,101.049872,0,0.47516077636,15600,2018-07-07 22:42:37,16,0,24.32,5483.83699274,101.049872,0.4921268,1.89480649108,0,0,-0.671082,90.1, 0.4, 0.3,0,0,1024,1024,1024,1024,91,-89.9,97,4.028,4.067,4.062,4.057,4.054,4.057,18.448,95,14,Waypoint,
38.537433,-120.348715,5484.82124474,102.034124,0,0.43875001404,15700,2018-07-07 22:42:37,16,0,24.32,5484.82124474,102.034124,0.4921268,1.89480649108,0,0,-0.671082,90.1, 0.4, 0.3,0,0,1024,1024,1024,1024,91,-89.9,97,4.028,4.067,4.062,4.057,4.054,4.057,18.448,95,14,Waypoint,
38.5374329,-120.348715,5485.80549674,103.018376,0,0.40234909424,15800,2018-07-07 22:42:37,16,0,24.32,5485.80549674,103.018376,0.4921268,1.89480649108,0,0,-0.671082,90, 0.4, 0.3,0,0,1024,1024,1024,1024,91,-89.9,97,4.028,4.067,4.062,4.057,4.054,4.057,18.448,95,14,Waypoint,
38.5374328,-120.3487151,5486.78974874,104.002628,0,0.36928806956,15900,2018-07-07 22:42:37,16,0,24.32,5486.78974874,104.002628,0.4921268,1.89480649108,0,0,-0.671082,90, 0.4, 0.2,0,0,1024,1024,1024,1024,91,-89.9,97,4.028,4.067,4.062,4.057,4.054,4.057,18.448,95,14,Waypoint,
38.5374328,-120.3487151,5487.77400074,104.98688,0,0.36928806956,16000,2018-07-07 22:42:37,16,0,24.292,5487.77400074,104.98688,0.4921268,1.89480649108,0,0,-0.671082,90, 0.4, 0.2,0,0,1024,1024,1024,1024,91,-89.9,97,4.033,4.06,4.057,4.047,4.044,4.056,18.358,95,14,Waypoint,
38.5374327,-120.3487151,5488.75825274,105.971132,0,0.33328741224,16100,2018-07-07 22:42:37,16,0,24.292,5488.75825274,105.971132,0.4921268,1.89480649108,0,0,-0.671082,90, 0.2, 0.3,0,0,1024,1024,1024,1024,91,-89.9,97,4.033,4.06,4.057,4.047,4.044,4.056,18.358,95,14,Waypoint,
38.5374326,-120.3487152,5489.74250474,106.955384,0,0.304177175088,16200,2018-07-07 22:42:37,16,0,24.292,5489.74250474,106.955384,0.4921268,1.89480649108,0,0,-0.671082,90, 0.2, 0.2,0,0,1024,1024,1024,1024,91,-89.9,97,4.033,4.06,4.057,4.047,4.044,4.056,18.358,95,14,Waypoint,
38.5374325,-120.3487152,5490.72675674,107.939636,0,0.269363197596,16300,2018-07-07 22:42:38,16,0,24.292,5490.72675674,107.939636,0.4921268,1.89480649108,0,0,-0.671082,90, 0.2, 0.2,0,0,1024,1024,1024,1024,91,-89.9,97,4.033,4.06,4.057,4.047,4.044,4.056,18.358,95,14,Waypoint,
38.5374324,-120.3487152,5491.71100874,108.923888,0,0.235056437968,16400,2018-07-07 22:42:38,16,0,24.292,5491.71100874,108.923888,0.4921268,1.89480649108,0,0,-0.671082,90, 0.1, 0.1,0,0,1024,1024,1024,1024,91,-89.9,97,4.033,4.06,4.057,4.047,4.044,4.056,18.358,95,14,Waypoint,
38.5374324,-120.3487153,5492.69526074,109.90814,0,0.246885834672,16500,2018-07-07 22:42:38,16,0,24.292,5492.69526074,109.90814,0.4921268,1.89480649108,0,0,-0.671082,90, 0.2, 0.1,0,0,1024,1024,1024,1024,91,-89.9,97,4.033,4.06,4.057,4.047,4.044,4.056,18.358,95,14,Waypoint,
38.5374323,-120.3487153,5493.67951274,110.892392,0,0.215197513448,16600,2018-07-07 22:42:38,16,0,24.292,5493.67951274,110.892392,0.4921268,1.89480649108,0,0,-0.671082,90.1, 0.2, 0,0,0,1024,1024,1024,1024,91,-89.9,97,4.033,4.06,4.057,4.047,4.044,4.056,18.358,95,14,Waypoint,
38.5374322,-120.3487153,5495.64801674,112.860896,0,0.185282486244,16800,2018-07-07 22:42:38,16,0,24.292,5495.64801674,112.860896,0.4921268,1.89480649108,0,0,-0.671082,90.1, 0.3, 0.1,0,0,1024,1024,1024,1024,91,-89.9,97,4.033,4.06,4.057,4.047,4.044,4.056,18.358,95,14,Waypoint,
38.5374322,-120.3487153,5496.63226874,113.845148,0,0.185282486244,16900,2018-07-07 22:42:38,16,0,24.292,5496.63226874,113.845148,0.4921268,1.89480649108,0,0,-0.671082,90.1, 0.3, 0.3,0,0,1024,1024,1024,1024,91,-89.9,97,4.033,4.06,4.057,4.047,4.044,4.056,18.358,95,14,Waypoint,
38.5374322,-120.3487153,5497.61652074,114.8294,0,0.185282486244,17100,2018-07-07 22:42:38,16,0,24.292,5497.61652074,114.8294,0.4921268,1.89480649108,0,0,-0.671082,90.1, 0.3, 0.4,0,0,1024,1024,1024,1024,91,-89.9,97,4.033,4.06,4.057,4.047,4.044,4.056,18.358,95,14,Waypoint,
38.5374322,-120.3487153,5498.60077274,115.813652,0,0.185282486244,17200,2018-07-07 22:42:38,16,0,24.292,5498.60077274,115.813652,0.4921268,1.89480649108,0,0,-0.671082,90.1, 0.4, 0.4,0,0,1024,1024,1024,1024,91,-89.9,97,4.033,4.06,4.057,4.047,4.044,4.056,18.358,95,14,Waypoint,
38.5374322,-120.3487152,5499.25694074,116.46982,0,0.16919948048,17300,2018-07-07 22:42:39,16,0,24.292,5499.25694074,116.46982,0.4921268,1.89480649108,0,0,-0.671082,90, 0.6, 0.4,0,0,1024,1024,1024,1024,91,-89.9,97,4.033,4.06,4.057,4.047,4.044,4.056,18.358,95,14,Waypoint,
38.5374322,-120.3487152,5501.22544474,118.438324,0,0.16919948048,17500,2018-07-07 22:42:39,16,0,24.292,5501.22544474,118.438324,0.4921268,1.89480649108,0,0,-0.671082,90, 0.8, 0.5,0,0,1024,1024,1024,1024,91,-89.9,97,4.033,4.06,4.057,4.047,4.044,4.056,18.358,95,14,Waypoint,
38.5374322,-120.3487151,5503.19394874,120.406828,0,0.156704073256,17700,2018-07-07 22:42:39,16,0,24.292,5503.19394874,120.406828,0.4921268,1.89480649108,0,0,-0.671082,89.9, 0.8, 0.8,0,0,1024,1024,1024,1024,91,-89.9,97,4.033,4.06,4.057,4.047,4.044,4.056,18.358,95,14,Waypoint,
38.5374323,-120.348715,5505.16245274,122.375332,0,0.184643378612,17800,2018-07-07 22:42:39,16,0,24.292,5505.16245274,122.375332,0.4921268,1.89480649108,0,0,-0.671082,89.9, 1, 0.9,0,0,1024,1024,1024,1024,91,-89.9,97,4.033,4.06,4.057,4.047,4.044,4.056,18.358,95,14,Waypoint,
38.5374324,-120.348715,5507.13095674,124.343836,0,0.220762146172,18000,2018-07-07 22:42:39,16,0,24.298,5507.13095674,124.343836,0.4921268,1.89480649108,0,0,-0.671082,89.8, 1.1, 0.9,0,0,1024,1024,1024,1024,91,-89.9,97,4.022,4.065,4.061,4.05,4.056,4.046,17.85,95,14,Waypoint,
38.5374324,-120.3487149,5508.11520874,125.328088,0,0.218909783908,18100,2018-07-07 22:42:39,16,0,24.298,5508.11520874,125.328088,0.4921268,1.89480649108,0,0,-0.671082,89.9, 1.1, 0.9,0,0,1024,1024,1024,1024,91,-89.9,97,4.022,4.065,4.061,4.05,4.056,4.046,17.85,95,14,Waypoint,
38.5374324,-120.3487149,5509.09946074,126.31234,0,0.218909783908,18200,2018-07-07 22:42:39,16,0,24.298,5509.09946074,126.31234,0.4921268,1.89480649108,0,0,-0.671082,89.9, 1.1, 0.7,0,0,1024,1024,1024,1024,91,-89.9,97,4.022,4.065,4.061,4.05,4.056,4.046,17.85,95,14,Waypoint,
38.5374324,-120.3487149,5510.08371274,127.296592,0,0.218909783908,18300,2018-07-07 22:42:40,16,0,24.298,5510.08371274,127.296592,0.4921268,1.89480649108,0,0,-0.671082,90, 1, 0.7,0,0,1024,1024,1024,1024,91,-89.9,97,4.022,4.065,4.061,4.05,4.056,4.046,17.85,95,14,Waypoint,
38.5374324,-120.3487149,5511.06796474,128.280844,0,0.218909783908,18400,2018-07-07 22:42:40,17,0,24.298,5511.06796474,128.280844,0.4921268,1.89480649108,0,0,-0.671082,90, 0.9, 0.7,0,0,1024,1024,1024,1024,91,-89.9,97,4.022,4.065,4.061,4.05,4.056,4.046,17.85,95,14,Waypoint,
38.5374324,-120.3487149,5512.05221674,129.265096,0,0.218909783908,18500,2018-07-07 22:42:40,17,0,24.298,5512.05221674,129.265096,0.4921268,1.89480649108,0,0,-0.671082,90.1, 0.8, 0.7,0,0,1024,1024,1024,1024,91,-89.9,97,4.022,4.065,4.061,4.05,4.056,4.046,17.85,95,14,Waypoint,
38.5374324,-120.3487149,5513.03646874,130.249348,0,0.218909783908,18600,2018-07-07 22:42:40,16,0,24.298,5513.03646874,130.249348,0.4921268,1.89480649108,0,0,-0.671082,90.1, 0.8, 0.7,0,0,1024,1024,1024,1024,91,-89.9,97,4.022,4.065,4.061,4.05,4.056,4.046,17.85,95,14,Waypoint,
38.5374324,-120.3487149,5514.02072074,131.2336,0,0.218909783908,18700,2018-07-07 22:42:40,16,0,24.298,5514.02072074,131.2336,0.4921268,1.89480649108,0,0,-0.671082,90.1, 0.7, 0.8,0,0,1024,1024,1024,1024,91,-90,97,4.022,4.065,4.061,4.05,4.056,4.046,17.85,95,14,Waypoint,
38.5374325,-120.3487149,5515.00497274,132.217852,0,0.255394693212,18820,2018-07-07 22:42:40,16,0,24.298,5515.00497274,132.217852,0.4921268,1.89480649108,0,0,-0.671082,90.1, 0.6, 1,0,0,1024,1024,1024,1024,91,-90,97,4.022,4.065,4.061,4.05,4.056,4.046,17.85,95,14,Waypoint,
38.5374325,-120.348715,5515.98922474,133.202104,0,0.256984260192,18900,2018-07-07 22:42:40,16,0,24.298,5515.98922474,133.202104,0.4921268,1.89480649108,0,0,-0.671082,90.1, 0.5, 1.1,0,0,1024,1024,1024,1024,91,-90,97,4.022,4.065,4.061,4.05,4.056,4.046,17.85,95,14,Waypoint,
38.5374325,-120.348715,5516.97347674,134.186356,0,0.256984260192,19000,2018-07-07 22:42:40,17,0,24.271,5516.97347674,134.186356,0.4921268,1.89480649108,0,0,-0.671082,90.1, 0.5, 1.2,0,0,1024,1024,1024,1024,91,-90,97,4.025,4.066,4.052,4.046,4.044,4.043,18.049,95,14,Waypoint,
38.5374325,-120.348715,5517.95772874,135.170608,0,0.256984260192,19100,2018-07-07 22:42:40,17,0,24.271,5517.95772874,135.170608,0.4921268,1.89480649108,0,0,-0.671082,90.1, 0.5, 1.1,0,0,1024,1024,1024,1024,91,-89.9,97,4.025,4.066,4.052,4.046,4.044,4.043,18.049,95,14,Waypoint,
38.5374325,-120.348715,5518.94198074,136.15486,0,0.256984260192,19200,2018-07-07 22:42:40,17,0,24.271,5518.94198074,136.15486,0.4921268,1.89480649108,0,0,-0.671082,90, 0.6, 1,0,0,1024,1024,1024,1024,91,-89.9,97,4.025,4.066,4.052,4.046,4.044,4.043,18.049,95,14,Waypoint,
38.5374325,-120.348715,5519.92623274,137.139112,0,0.256984260192,19300,2018-07-07 22:42:41,17,0,24.271,5519.92623274,137.139112,0.4921268,1.89480649108,0,0,-0.671082,90, 0.7, 0.8,0,0,1024,1024,1024,1024,91,-89.9,97,4.025,4.066,4.052,4.046,4.044,4.043,18.049,95,14,Waypoint,
38.5374325,-120.348715,5520.91048474,138.123364,0,0.256984260192,19400,2018-07-07 22:42:41,17,0,24.271,5520.91048474,138.123364,0.4921268,1.89480649108,0,0,-0.671082,90, 0.6, 0.8,0,0,1024,1024,1024,1024,91,-89.9,97,4.025,4.066,4.052,4.046,4.044,4.043,18.049,95,14,Waypoint,
38.5374325,-120.348715,5521.89473674,139.107616,0,0.256984260192,19600,2018-07-07 22:42:41,17,0,24.271,5521.89473674,139.107616,0.4921268,1.89480649108,0,0,-0.671082,90, 0.7, 0.8,0,0,1024,1024,1024,1024,91,-89.9,97,4.025,4.066,4.052,4.046,4.044,4.043,18.049,95,14,Waypoint,
38.5374325,-120.348715,5523.86324074,141.07612,0,0.256984260192,19700,2018-07-07 22:42:41,17,0,24.271,5523.86324074,141.07612,0.4921268,1.89480649108,0,0,-0.671082,90.1, 0.7, 1,0,0,1024,1024,1024,1024,91,-89.9,97,4.025,4.066,4.052,4.046,4.044,4.043,18.049,95,14,Waypoint,
38.5374325,-120.348715,5524.84749274,142.060372,0,0.256984260192,19800,2018-07-07 22:42:41,17,0,24.271,5524.84749274,142.060372,0.4921268,1.89480649108,0,0,-0.671082,90.1, 0.7, 1.1,0,0,1024,1024,1024,1024,91,-89.9,97,4.025,4.066,4.052,4.046,4.044,4.043,18.049,95,14,Waypoint,
38.5374325,-120.348715,5525.83174474,143.044624,0,0.256984260192,19900,2018-07-07 22:42:41,17,0,24.271,5525.83174474,143.044624,0.4921268,1.89480649108,0,0,-0.671082,90.1, 0.6, 1,0,0,1024,1024,1024,1024,91,-89.9,97,4.025,4.066,4.052,4.046,4.044,4.043,18.049,95,14,Waypoint,
38.5374325,-120.348715,5526.81599674,144.028876,0,0.256984260192,20000,2018-07-07 22:42:41,17,0,24.267,5526.81599674,144.028876,0.4921268,1.89480649108,0,0,-0.671082,90.2, 0.6, 1,0,0,1024,1024,1024,1024,91,-89.9,96,4.02,4.064,4.042,4.045,4.043,4.048,17.923,96.8,14,Waypoint,
38.5374325,-120.348715,5527.80024874,145.013128,0,0.256984260192,20200,2018-07-07 22:42:41,17,0,24.267,5527.80024874,145.013128,0.4921268,1.89480649108,0,0,-0.671082,90.2, 0.6, 1,0,0,1024,1024,1024,1024,91,-89.9,96,4.02,4.064,4.042,4.045,4.043,4.048,17.923,96.8,14,Waypoint,
38.5374325,-120.348715,5528.78450074,145.99738,0,0.256984260192,20300,2018-07-07 22:42:42,17,0,24.267,5528.78450074,145.99738,0.4921268,1.89480649108,0,0,-0.671082,90.3, 0.6, 1,0,0,1024,1024,1024,1024,91,-89.9,96,4.02,4.064,4.042,4.045,4.043,4.048,17.923,96.8,14,Waypoint,
38.5374325,-120.348715,5529.76875274,146.981632,0,0.256984260192,20400,2018-07-07 22:42:42,17,0,24.267,5529.76875274,146.981632,0.4921268,1.89480649108,0,0,-0.671082,90.3, 0.6, 1.1,0,0,1024,1024,1024,1024,91,-89.9,96,4.02,4.064,4.042,4.045,4.043,4.048,17.923,96.8,14,Waypoint,
38.5374325,-120.348715,5530.75300474,147.965884,0,0.256984260192,20500,2018-07-07 22:42:42,17,0,24.267,5530.75300474,147.965884,0.4921268,1.89480649108,0,0,-0.671082,90.2, 0.7, 1,0,0,1024,1024,1024,1024,91,-89.9,96,4.02,4.064,4.042,4.045,4.043,4.048,17.923,96.8,14,Waypoint,
38.5374325,-120.348715,5531.73725674,148.950136,0,0.256984260192,20600,2018-07-07 22:42:42,17,0,24.267,5531.73725674,148.950136,0.4921268,1.89480649108,0,0,-0.671082,90.2, 0.6, 0.9,0,0,1024,1024,1024,1024,91,-89.9,96,4.02,4.064,4.042,4.045,4.043,4.048,17.923,96.8,14,Waypoint,
38.5374325,-120.348715,5532.72150874,149.934388,0,0.256984260192,20700,2018-07-07 22:42:42,17,0,24.267,5532.72150874,149.934388,0.4921268,1.89480649108,0,0,-0.671082,90.1, 0.7, 0.8,0,0,1024,1024,1024,1024,91,-89.9,96,4.02,4.064,4.042,4.045,4.043,4.048,17.923,96.8,14,Waypoint,
38.5374324,-120.3487151,5533.70576074,150.91864,0,0.226228353696,20800,2018-07-07 22:42:42,17,0,24.267,5533.70576074,150.91864,0.4921268,1.89480649108,0,0,-0.671082,90.1, 0.6, 0.7,0,0,1024,1024,1024,1024,91,-89.9,96,4.02,4.064,4.042,4.045,4.043,4.048,17.923,96.8,14,Waypoint,
38.5374324,-120.3487151,5534.69001274,151.902892,0,0.226228353696,20900,2018-07-07 22:42:42,17,0,24.267,5534.69001274,151.902892,0.4921268,1.89480649108,0,0,-0.671082,90.1, 0.7, 0.8,0,0,1024,1024,1024,1024,91,-89.9,96,4.02,4.064,4.042,4.045,4.043,4.048,17.923,96.8,14,Waypoint,
38.5374324,-120.3487151,5536.65851674,153.871396,0,0.226228353696,21000,2018-07-07 22:42:42,17,0,24.261,5536.65851674,153.871396,0.4921268,1.89480649108,0,0,-0.671082,90.1, 0.6, 0.9,0,0,1024,1024,1024,1024,91,-89.9,96,4.023,4.063,4.047,4.047,4.044,4.047,17.73,96.8,14,Waypoint,
38.5374324,-120.3487151,5538.62702074,155.8399,0,0.226228353696,21200,2018-07-07 22:42:42,17,0,24.261,5538.62702074,155.8399,0.4921268,1.89480649108,0,0,-0.671082,90.2, 0.7, 1.1,0,0,1024,1024,1024,1024,91,-89.9,96,4.023,4.063,4.047,4.047,4.044,4.047,17.73,96.8,14,Waypoint,
38.5374324,-120.3487151,5539.61127274,156.824152,0,0.226228353696,21400,2018-07-07 22:42:43,17,0,24.261,5539.61127274,156.824152,0.4921268,1.89480649108,0,0,-0.671082,90.2, 0.7, 1.2,0,0,1024,1024,1024,1024,91,-89.9,96,4.023,4.063,4.047,4.047,4.044,4.047,17.73,96.8,14,Waypoint,
38.5374324,-120.3487151,5541.57977674,158.792656,0,0.226228353696,21500,2018-07-07 22:42:43,17,0,24.261,5541.57977674,158.792656,0.4921268,1.89480649108,0,0,-0.671082,90.1, 0.5, 1.4,0,0,1024,1024,1024,1024,91,-90,96,4.023,4.063,4.047,4.047,4.044,4.047,17.73,96.8,14,Waypoint,
38.5374324,-120.3487152,5543.87636474,161.089244,0,0.235056437968,21700,2018-07-07 22:42:43,17,0,24.261,5543.87636474,161.089244,0.4921268,1.89480649108,0,0,-0.671082,90.1, 0.5, 1.4,0,0,1024,1024,1024,1024,91,-90,96,4.023,4.063,4.047,4.047,4.044,4.047,17.73,96.8,14,Waypoint,
38.5374324,-120.3487152,5544.86061674,162.073496,0,0.235056437968,21800,2018-07-07 22:42:43,17,0,24.261,5544.86061674,162.073496,0.4921268,1.89480649108,0,0,-0.671082,90, 0.5, 1.3,0,0,1024,1024,1024,1024,91,-89.9,96,4.023,4.063,4.047,4.047,4.044,4.047,17.73,96.8,14,Waypoint,
38.5374323,-120.3487152,5545.84486874,163.057748,0,0.201516410648,21900,2018-07-07 22:42:43,17,0,24.261,5545.84486874,163.057748,0.4921268,1.89480649108,0,0,-0.671082,89.9, 0.6, 1.1,0,0,1024,1024,1024,1024,91,-89.9,96,4.023,4.063,4.047,4.047,4.044,4.047,17.73,96.8,14,Waypoint,
38.5374323,-120.3487152,5546.82912074,164.042,0,0.201516410648,22000,2018-07-07 22:42:43,17,0,24.233,5546.82912074,164.042,0.4921268,1.89480649108,0,0,-0.671082,89.9, 0.7, 0.9,0,0,1024,1024,1024,1024,91,-89.9,96,4.015,4.054,4.046,4.04,4.047,4.037,17.64,96.8,14,Waypoint,
38.5374322,-120.3487152,5548.79762474,166.010504,0,0.16919948048,22200,2018-07-07 22:42:43,17,0,24.233,5548.79762474,166.010504,0.4921268,1.89480649108,0,0,-0.671082,89.8, 0.8, 0.4,0,0,1024,1024,1024,1024,91,-89.9,96,4.015,4.054,4.046,4.04,4.047,4.037,17.64,96.8,14,Waypoint,
38.5374321,-120.3487152,5549.78187674,166.994756,0,0.138961946704,22300,2018-07-07 22:42:44,17,0,24.233,5549.78187674,166.994756,0.4921268,1.89480649108,0,0,-0.671082,89.7, 0.8, 0.5,0,0,1024,1024,1024,1024,91,-89.9,96,4.015,4.054,4.046,4.04,4.047,4.037,17.64,96.8,14,Waypoint,
38.5374321,-120.3487152,5550.76612874,167.979008,0,0.138961946704,22400,2018-07-07 22:42:44,17,0,24.233,5550.76612874,167.979008,0.4921268,1.89480649108,0,0,-0.671082,89.7, 0.8, 0.6,0,0,1024,1024,1024,1024,91,-89.9,96,4.015,4.054,4.046,4.04,4.047,4.037,17.64,96.8,14,Waypoint,
38.5374321,-120.3487153,5551.75038074,168.96326,0,0.158150267528,22500,2018-07-07 22:42:44,17,0,24.233,5551.75038074,168.96326,0.4921268,1.89480649108,0,0,-0.671082,89.7, 0.8, 0.8,0,0,1024,1024,1024,1024,91,-90,96,4.015,4.054,4.046,4.04,4.047,4.037,17.64,96.8,14,Waypoint,
38.5374321,-120.3487153,5552.73463274,169.947512,0,0.158150267528,22600,2018-07-07 22:42:44,17,0,24.233,5552.73463274,169.947512,0.4921268,1.89480649108,0,0,-0.671082,89.8, 0.7, 0.9,0,0,1024,1024,1024,1024,91,-89.9,96,4.015,4.054,4.046,4.04,4.047,4.037,17.64,96.8,14,Waypoint,
38.537432,-120.3487153,5553.71888474,170.931764,0,0.135483600136,22700,2018-07-07 22:42:44,17,0,24.233,5553.71888474,170.931764,0.4921268,1.89480649108,0,0,-0.671082,89.9, 0.7, 0.9,0,0,1024,1024,1024,1024,91,-89.9,96,4.015,4.054,4.046,4.04,4.047,4.037,17.64,96.8,14,Waypoint,
38.537432,-120.3487154,5555.68738874,172.900268,0,0.160268049748,22900,2018-07-07 22:42:44,17,0,24.233,5555.68738874,172.900268,0.4921268,1.89480649108,0,0,-0.671082,90, 0.3, 1,0,0,1024,1024,1024,1024,91,-90,96,4.015,4.054,4.046,4.04,4.047,4.037,17.64,96.8,14,Waypoint,
38.537432,-120.3487154,5556.34355674,173.556436,0,0.160268049748,23000,2018-07-07 22:42:44,17,0,24.234,5556.34355674,173.556436,0.4921268,1.89480649108,0,0,-0.671082,90.1, 0.1, 1,0,0,1024,1024,1024,1024,91,-90,96,4.016,4.05,4.035,4.044,4.044,4.034,17.532,96.8,14,Waypoint,
38.537432,-120.3487155,5557.32780874,174.540688,0,0.186131239552,23100,2018-07-07 22:42:44,17,0,24.234,5557.32780874,174.540688,0.4921268,1.89480649108,0,0,-0.671082,90.2, 0.1, 0.7,0,0,1024,1024,1024,1024,91,-90,96,4.016,4.05,4.035,4.044,4.044,4.034,17.532,96.8,14,Waypoint,
38.537432,-120.3487155,5558.31206074,175.52494,0.223694,0.186131239552,23210,2018-07-07 22:42:44,17,0,24.234,5558.31206074,175.52494,0.4921268,1.89480649108,0,0,-0.671082,90.2, 0.1, 0.9,0,0,1024,1024,1024,1024,91,-89.9,96,4.016,4.05,4.035,4.044,4.044,4.034,17.532,96.8,14,Waypoint,
38.537432,-120.3487155,5559.29631274,176.509192,0.223694,0.186131239552,23300,2018-07-07 22:42:45,17,0,24.234,5559.29631274,176.509192,0.4921268,1.89480649108,0,0,-0.671082,90.2, 0.2, 1,0,0,1024,1024,1024,1024,91,-89.9,96,4.016,4.05,4.035,4.044,4.044,4.034,17.532,96.8,14,Waypoint,
38.5374321,-120.3487155,5560.28056474,177.493444,0.223694,0.203225400204,23400,2018-07-07 22:42:45,17,0,24.234,5560.28056474,177.493444,0.4921268,1.89480649108,0,0,-0.671082,90.2, 0.3, 1.1,0,0,1024,1024,1024,1024,91,-89.9,96,4.016,4.05,4.035,4.044,4.044,4.034,17.532,96.8,14,Waypoint,
38.5374321,-120.3487154,5561.26481674,178.477696,0.223694,0.17983760418,23500,2018-07-07 22:42:45,17,0,24.234,5561.26481674,178.477696,0.4921268,1.89480649108,0,0,-0.671082,90.2, 0.6, 1.3,0,0,1024,1024,1024,1024,91,-89.9,96,4.016,4.05,4.035,4.044,4.044,4.034,17.532,96.8,14,Waypoint,
38.5374321,-120.3487154,5562.57715274,179.790032,0.223694,0.17983760418,23600,2018-07-07 22:42:45,17,0,24.234,5562.57715274,179.790032,0.4921268,1.89480649108,0,0,-0.671082,90.1, 0.8, 1.5,0,0,1024,1024,1024,1024,91,-89.9,96,4.016,4.05,4.035,4.044,4.044,4.034,17.532,96.8,14,Waypoint,
38.5374322,-120.3487154,5563.56140474,180.774284,0.3131716,0.204106961912,23800,2018-07-07 22:42:45,17,0,24.234,5563.56140474,180.774284,0.4921268,1.89480649108,0,0,-0.671082,90, 1.1, 1.5,0,0,1024,1024,1024,1024,91,-89.9,96,4.016,4.05,4.035,4.044,4.044,4.034,17.532,96.8,14,Waypoint,
38.5374322,-120.3487153,5564.54565674,181.758536,0.223694,0.185282486244,23900,2018-07-07 22:42:45,17,0,24.234,5564.54565674,181.758536,0.4921268,1.89480649108,0,0,-0.671082,89.9, 1.2, 1.3,0,0,1024,1024,1024,1024,91,-89.9,96,4.016,4.05,4.035,4.044,4.044,4.034,17.532,96.8,14,Waypoint,
38.5374322,-120.3487153,5565.52990874,182.742788,0,0.185282486244,24000,2018-07-07 22:42:45,17,0,24.217,5565.52990874,182.742788,0.4921268,1.89480649108,0,0,-0.671082,89.9, 1.1, 0.9,0,0,1024,1024,1024,1024,91,-89.9,96,4.012,4.046,4.05,4.036,4.042,4.038,17.179,96.8,14,Waypoint,
38.5374322,-120.3487153,5566.51416074,183.72704,0,0.185282486244,24100,2018-07-07 22:42:45,17,0,24.217,5566.51416074,183.72704,0.4921268,1.89480649108,0,0,-0.671082,90, 1.1, 0.8,0,0,1024,1024,1024,1024,91,-89.9,96,4.012,4.046,4.05,4.036,4.042,4.038,17.179,96.8,14,Waypoint,
38.5374322,-120.3487153,5567.49841274,184.711292,0,0.185282486244,24200,2018-07-07 22:42:45,17,0,24.217,5567.49841274,184.711292,0.4921268,1.89480649108,0,0,-0.671082,90.1, 1.1, 0.8,0,0,1024,1024,1024,1024,91,-89.9,96,4.012,4.046,4.05,4.036,4.042,4.038,17.179,96.8,14,Waypoint,
38.5374322,-120.3487152,5568.48266474,185.695544,0.223694,0.16919948048,24300,2018-07-07 22:42:46,17,0,24.217,5568.48266474,185.695544,0.4921268,1.89480649108,0,0,-0.671082,90.2, 1.1, 1,0,0,1024,1024,1024,1024,91,-89.9,96,4.012,4.046,4.05,4.036,4.042,4.038,17.179,96.8,14,Waypoint,
38.5374322,-120.3487152,5569.46691674,186.679796,0.223694,0.16919948048,24400,2018-07-07 22:42:46,17,0,24.217,5569.46691674,186.679796,0.4921268,1.89480649108,0,0,-0.671082,90.3, 1.1, 1.2,0,0,1024,1024,1024,1024,91,-89.9,96,4.012,4.046,4.05,4.036,4.042,4.038,17.179,96.8,14,Waypoint,
38.5374323,-120.3487152,5570.45116874,187.664048,0.223694,0.201516410648,24500,2018-07-07 22:42:46,17,0,24.217,5570.45116874,187.664048,0.4921268,1.89480649108,0,0,-0.671082,90.3, 1.2, 1.3,0,0,1024,1024,1024,1024,91,-89.9,96,4.012,4.046,4.05,4.036,4.042,4.038,17.179,96.8,14,Waypoint,
38.5374324,-120.3487152,5572.41967274,189.632552,0.223694,0.235056437968,24600,2018-07-07 22:42:46,17,0,24.217,5572.41967274,189.632552,0.4921268,1.89480649108,0,0,-0.671082,90.3, 0.9, 1.6,0,0,1024,1024,1024,1024,91,-89.9,96,4.012,4.046,4.05,4.036,4.042,4.038,17.179,96.8,14,Waypoint,
38.5374324,-120.3487152,5573.40392474,190.616804,0.223694,0.235056437968,24700,2018-07-07 22:42:46,17,0,24.217,5573.40392474,190.616804,0.4921268,1.89480649108,0,0,-0.671082,90.2, 0.9, 1.7,0,0,1024,1024,1024,1024,91,-89.9,96,4.012,4.046,4.05,4.036,4.042,4.038,17.179,96.8,14,Waypoint,
38.5374325,-120.3487151,5575.37242874,192.585308,0.223694,0.261694890264,24900,2018-07-07 22:42:46,17,0,24.217,5575.37242874,192.585308,0.4921268,1.89480649108,0,0,-0.671082,90, 1.2, 2,0,0,1024,1024,1024,1024,91,-89.9,96,4.012,4.046,4.05,4.036,4.042,4.038,17.179,96.8,14,Waypoint,
38.5374326,-120.3487151,5576.35668074,193.56956,0.223694,0.297407817916,25000,2018-07-07 22:42:46,17,0,24.23,5576.35668074,193.56956,0.4921268,1.89480649108,0,0,-0.671082,90, 1.3, 2.1,0,0,1024,1024,1024,1024,91,-89.9,96,4.011,4.049,4.048,4.04,4.047,4.039,17.25,96.8,14,Waypoint,
38.5374326,-120.3487151,5577.34093274,194.553812,0.223694,0.297407817916,25100,2018-07-07 22:42:46,17,0,24.23,5577.34093274,194.553812,0.4921268,1.89480649108,0,0,-0.671082,89.9, 1.4, 2,0,0,1024,1024,1024,1024,91,-89.9,96,4.011,4.049,4.048,4.04,4.047,4.039,17.25,96.8,14,Waypoint,
38.5374327,-120.348715,5577.99710074,195.20998,0,0.32960302892,25200,2018-07-07 22:42:46,17,0,24.23,5577.99710074,195.20998,0.4921268,1.89480649108,0,0,-0.671082,90, 1.5, 1.9,0,0,1024,1024,1024,1024,91,-89.9,96,4.011,4.049,4.048,4.04,4.047,4.039,17.25,96.8,14,Waypoint,
38.5374327,-120.3487149,5579.30943674,196.522316,0,0.3283628714,25300,2018-07-07 22:42:47,17,0,24.23,5579.30943674,196.522316,0.4921268,1.89480649108,0,0,-0.671082,90, 1.6, 1.7,0,0,1024,1024,1024,1024,91,-89.9,96,4.011,4.049,4.048,4.04,4.047,4.039,17.25,96.8,14,Waypoint,
38.5374327,-120.3487149,5580.29368874,197.506568,0,0.3283628714,25400,2018-07-07 22:42:47,17,0,24.23,5580.29368874,197.506568,0.4921268,1.89480649108,0,0,-0.671082,90, 1.7, 1.6,0,0,1024,1024,1024,1024,91,-89.9,96,4.011,4.049,4.048,4.04,4.047,4.039,17.25,96.8,14,Waypoint,
38.5374327,-120.3487149,5581.27794074,198.49082,0,0.3283628714,25500,2018-07-07 22:42:47,17,0,24.23,5581.27794074,198.49082,0.4921268,1.89480649108,0,0,-0.671082,89.9, 1.5, 1.6,0,0,1024,1024,1024,1024,91,-89.9,96,4.011,4.049,4.048,4.04,4.047,4.039,17.25,96.8,14,Waypoint,
38.5374327,-120.3487149,5581.93410874,199.146988,0,0.3283628714,25600,2018-07-07 22:42:47,17,0,24.23,5581.93410874,199.146988,0.4921268,1.89480649108,0,0,-0.671082,89.9, 1.3, 1.5,0,0,1024,1024,1024,1024,91,-89.9,96,4.011,4.049,4.048,4.04,4.047,4.039,17.25,96.8,14,Waypoint,
38.5374327,-120.3487149,5582.91836074,200.13124,0,0.3283628714,25700,2018-07-07 22:42:47,17,0,24.23,5582.91836074,200.13124,0.4921268,1.89480649108,0,0,-0.671082,90, 1.1, 1.6,0,0,1024,1024,1024,1024,91,-89.9,96,4.011,4.049,4.048,4.04,4.047,4.039,17.25,96.8,14,Waypoint,
38.5374327,-120.3487149,5583.90261274,201.115492,0,0.3283628714,25800,2018-07-07 22:42:47,17,0,24.23,5583.90261274,201.115492,0.4921268,1.89480649108,0,0,-0.671082,90, 1, 1.5,0,0,1024,1024,1024,1024,91,-89.9,96,4.011,4.049,4.048,4.04,4.047,4.039,17.25,96.8,14,Waypoint,
38.5374327,-120.3487148,5584.88686474,202.099744,0,0.32960302892,25900,2018-07-07 22:42:47,17,0,24.23,5584.88686474,202.099744,0.4921268,1.89480649108,0,0,-0.671082,90, 1.2, 1.4,0,0,1024,1024,1024,1024,91,-89.9,96,4.011,4.049,4.048,4.04,4.047,4.039,17.25,96.8,14,Waypoint,
38.5374327,-120.3487148,5585.87111674,203.083996,0,0.32960302892,26000,2018-07-07 22:42:47,17,0,24.243,5585.87111674,203.083996,0.4921268,1.89480649108,0,0,-0.671082,90, 1.3, 1.4,0,0,1024,1024,1024,1024,91,-89.9,96,4.018,4.051,4.046,4.039,4.051,4.033,16.78,96.8,14,Waypoint,
38.5374327,-120.3487148,5586.85536874,204.068248,0,0.32960302892,26100,2018-07-07 22:42:47,17,0,24.243,5586.85536874,204.068248,0.4921268,1.89480649108,0,0,-0.671082,90, 1.5, 1.4,0,0,1024,1024,1024,1024,91,-89.9,96,4.018,4.051,4.046,4.039,4.051,4.033,16.78,96.8,14,Waypoint,
38.5374327,-120.3487147,5587.83962074,205.0525,0,0.33328741224,26200,2018-07-07 22:42:47,17,0,24.243,5587.83962074,205.0525,0.4921268,1.89480649108,0,0,-0.671082,90, 1.6, 1.3,0,0,1024,1024,1024,1024,91,-89.9,96,4.018,4.051,4.046,4.039,4.051,4.033,16.78,96.8,14,Waypoint,
38.5374327,-120.3487147,5588.82387274,206.036752,0,0.33328741224,26300,2018-07-07 22:42:48,17,0,24.243,5588.82387274,206.036752,0.4921268,1.89480649108,0,0,-0.671082,90.1, 1.5, 1.5,0,0,1024,1024,1024,1024,91,-89.9,96,4.018,4.051,4.046,4.039,4.051,4.033,16.78,96.8,14,Waypoint,
38.5374327,-120.3487147,5590.79237674,208.005256,0,0.33328741224,26500,2018-07-07 22:42:48,17,0,24.243,5590.79237674,208.005256,0.4921268,1.89480649108,0,0,-0.671082,90.2, 1.3, 1.6,0,0,1024,1024,1024,1024,91,-89.9,96,4.018,4.051,4.046,4.039,4.051,4.033,16.78,96.8,14,Waypoint,
38.5374327,-120.3487147,5591.77662874,208.989508,0,0.33328741224,26600,2018-07-07 22:42:48,17,0,24.243,5591.77662874,208.989508,0.4921268,1.89480649108,0,0,-0.671082,90.2, 1.4, 1.4,0,0,1024,1024,1024,1024,91,-89.9,96,4.018,4.051,4.046,4.039,4.051,4.033,16.78,96.8,14,Waypoint,
38.5374326,-120.3487147,5592.76088074,209.97376,0,0.297407817916,26700,2018-07-07 22:42:48,17,0,24.243,5592.76088074,209.97376,0.4921268,1.89480649108,0,0,-0.671082,90.2, 1.3, 1.3,0,0,1024,1024,1024,1024,91,-89.9,96,4.018,4.051,4.046,4.039,4.051,4.033,16.78,96.8,14,Waypoint,
38.5374326,-120.3487147,5593.74513274,210.958012,0,0.297407817916,26800,2018-07-07 22:42:48,17,0,24.243,5593.74513274,210.958012,0.4921268,1.89480649108,0,0,-0.671082,90.2, 1.2, 1.4,0,0,1024,1024,1024,1024,91,-89.9,96,4.018,4.051,4.046,4.039,4.051,4.033,16.78,96.8,14,Waypoint,
38.5374326,-120.3487147,5594.72938474,211.942264,0.223694,0.297407817916,26900,2018-07-07 22:42:48,17,0,24.243,5594.72938474,211.942264,0.4921268,1.89480649108,0,0,-0.671082,90.3, 1, 1.7,0,0,1024,1024,1024,1024,91,-90,96,4.018,4.051,4.046,4.039,4.051,4.033,16.78,96.8,14,Waypoint,
38.5374326,-120.3487148,5596.69788874,213.910768,0,0.293271334844,27100,2018-07-07 22:42:48,17,0,24.243,5596.69788874,213.910768,0.4921268,1.89480649108,0,0,-0.671082,90.4, 0.7, 2,0,0,1024,1024,1024,1024,91,-90,96,4.018,4.051,4.046,4.039,4.051,4.033,16.78,96.8,14,Waypoint,
38.5374326,-120.3487148,5597.68214074,214.89502,0,0.293271334844,27200,2018-07-07 22:42:48,17,0,24.243,5597.68214074,214.89502,0.4921268,1.89480649108,0,0,-0.671082,90.5, 0.8, 1.8,0,0,1024,1024,1024,1024,91,-90,96,4.018,4.051,4.046,4.039,4.051,4.033,16.78,96.8,14,Waypoint,
