Latitude, Longitude, Altitude (m), Time, Sats, Speed (m/s), Range (m), Battery (%), Roll (deg), Pitch (deg), Yaw (deg), Images, HD Signal (%), RC Signal (%), Battery Temp (C), Battery Voltage (mV), Battery Current (mA), Battery Energy (mAh), Battery Capacity (mAh), Battery Discharges, flyState, timestamp (Unix), LastUpdate (ms), radioChannel, Rc_elevator, Rc_aileron, Rc_throttle, Rc_rudder, Rc_gyro, Dronetype, Battery_Cell1 (mV), Battery_Cell2 (mV), Battery_Cell3 (mV), Battery_Cell4 (mV), Battery_Cell5 (mV), Battery_Cell6 (mV), Video, isFlying, elapsedTime (ms), gimbalPitch (deg), gimbalRoll (deg), gimbalYaw (deg), VelocityX (m/s), VelocityY (m/s), VelocityZ (m/s), GroundSmear (cm), App Version, Aircraft Name, Aircraft Firmware, Aircraft Serial Number, Battery Serial Number, Battery Lifetime (%), App_Tip, App_Warning, CurrentFlightStartingIndex, CurrentFlightLastVisitedWaypoint, PreviousFlightEndingWaypointIndex
38.5374381, -120.3487298, 0.000, 15:03:00.606, 9, 0.00, 0.05, 98, 0.200, 1.000, 98.000, 2, 100, 100, 32, 25754, -3934, 5139, 5244, 24, 11, 1531000980.606, 84, 0, 1024, 1024, 1024, 1024, 0, 6, 4282, 4285, 4302, 4300, 4317, 4279, 0, 1, 3100, -89.900, 0.000, 97.600, 0.000, 0.000, -0.100, 0.0, MapPilot_2.8.1_04242018, Dendroctonus I, 1.3.1.00, 041DDC1887, 1058163200505, 94, DJI_0001.jpg, Starting Mission from Lat/Long: 38.53746/-120.34876 Camera: Zenmuse X3 - Overlap: 90/90 - Active Connection: No, 0, 0, 0
38.5374381, -120.3487299, 0.000, 15:03:00.706, 9, 0.00, 0.06, 98, 0.000, 0.400, 98.100, 2, 100, 100, 32, 25754, -3934, 5139, 5244, 24, 11, 1531000980.706, 94, 0, 1024, 1024, 1024, 1024, 0, 6, 4282, 4285, 4302, 4300, 4317, 4279, 0, 1, 3200, -89.900, 0.000, 97.600, 0.000, 0.000, -0.300, 0.0, , , , , , 94, , , 0, 0, 0
38.5374381, -120.3487299, 0.000, 15:03:00.806, 9, 0.00, 0.06, 98, -0.100, 0.100, 98.200, 2, 100, 100, 32, 25754, -3934, 5139, 5244, 24, 11, 1531000980.806, 84, 0, 1024, 1024, 1024, 1024, 0, 6, 4282, 4285, 4302, 4300, 4317, 4279, 0, 1, 3300, -89.900, 0.000, 97.600, 0.000, 0.000, -0.300, 0.0, , , , , , 94, , , 0, 0, 0
38.5374382, -120.3487300, 0.000, 15:03:00.906, 9, 0.00, 0.06, 98, -0.300, 0.000, 98.300, 2, 100, 100, 32, 25754, -3934, 5139, 5244, 24, 11, 1531000980.906, 86, 0, 1024, 1024, 1024, 1024, 0, 6, 4282, 4285, 4302, 4300, 4317, 4279, 0, 1, 3400, -89.900, 0.000, 97.600, 0.000, 0.000, -0.400, 0.0, , , , , , 94, , , 0, 0, 0
38.5374383, -120.3487300, 0.100, 15:03:01.006, 9, 0.00, 0.06, 98, -0.100, 0.000, 98.300, 2, 100, 100, 32, 25754, -3934, 5139, 5244, 24, 11, 1531000981.007, 83, 0, 1024, 1024, 1024, 1024, 0, 6, 4282, 4285, 4302, 4300, 4317, 4279, 0, 1, 3501, -90.000, 0.000, 97.600, 0.000, 0.000, -0.400, 0.0, , , , , , 94, , , 0, 0, 0
38.5374384, -120.3487300, 0.100, 15:03:01.106, 9, 0.10, 0.06, 98, 0.300, 0.000, 98.300, 2, 100, 100, 32, 25754, -3934, 5139, 5244, 24, 11, 1531000981.106, 79, 0, 1024, 1024, 1024, 1024, 0, 6, 4282, 4285, 4302, 4300, 4317, 4279, 0, 1, 3601, -89.900, 0.000, 97.600, 0.100, 0.000, -0.300, 0.0, , , , , , 94, , , 0, 0, 0
38.5374385, -120.3487300, 0.100, 15:03:01.206, 9, 0.10, 0.06, 98, 0.800, 0.000, 98.200, 2, 100, 100, 32, 25754, -3934, 5139, 5244, 24, 11, 1531000981.206, 59, 0, 1024, 1024, 1024, 1024, 0, 6, 4282, 4285, 4302, 4300, 4317, 4279, 0, 1, 3700, -89.900, 0.000, 97.600, 0.100, 0.000, -0.300, 0.0, , , , , , 94, , , 0, 0, 0
38.5374386, -120.3487299, 0.200, 15:03:01.306, 10, 0.10, 0.06, 98, 1.000, 0.000, 98.100, 2, 100, 100, 32, 25754, -3934, 5139, 5244, 24, 11, 1531000981.306, 60, 0, 1024, 1024, 1024, 1024, 0, 6, 4282, 4285, 4302, 4300, 4317, 4279, 0, 1, 3801, -89.900, 0.000, 97.600, 0.100, 0.000, -0.400, 0.0, , , , , , 94, , , 0, 0, 0
38.5374387, -120.3487299, 0.200, 15:03:01.405, 10, 0.10, 0.06, 98, 1.400, 0.200, 98.100, 2, 100, 100, 32, 25070, -8525, 5139, 5244, 24, 11, 1531000981.406, 59, 0, 1024, 1024, 1024, 1024, 0, 6, 4161, 4160, 4175, 4213, 4208, 4112, 0, 1, 3900, -89.900, 0.000, 97.600, 0.100, 0.000, -0.400, 0.0, , , , , , 94, , , 0, 0, 0
38.5374388, -120.3487298, 0.300, 15:03:01.506, 9, 0.00, 0.06, 98, 1.700, 0.300, 98.000, 2, 100, 100, 32, 25070, -8525, 5139, 5244, 24, 11, 1531000981.506, 53, 0, 1024, 1024, 1024, 1024, 0, 6, 4161, 4160, 4175, 4213, 4208, 4112, 0, 1, 4000, -89.900, 0.000, 97.600, 0.000, 0.000, -0.400, 0.0, , , , , , 94, , , 0, 0, 0
38.5374388, -120.3487298, 0.300, 15:03:01.606, 9, 0.00, 0.06, 98, 1.600, 0.400, 98.000, 2, 100, 100, 32, 25070, -8525, 5139, 5244, 24, 11, 1531000981.606, 45, 0, 1024, 1024, 1024, 1024, 0, 6, 4161, 4160, 4175, 4213, 4208, 4112, 0, 1, 4101, -89.900, 0.000, 97.600, 0.000, 0.000, -0.400, 0.0, , , , , , 94, , , 0, 0, 0
38.5374388, -120.3487297, 0.400, 15:03:01.706, 11, 0.00, 0.05, 98, 1.600, 0.500, 98.000, 2, 100, 100, 32, 25070, -8525, 5139, 5244, 24, 11, 1531000981.706, 26, 0, 1024, 1024, 1024, 1024, 0, 6, 4161, 4160, 4175, 4213, 4208, 4112, 0, 1, 4200, -89.900, 0.000, 97.600, 0.000, 0.000, -0.400, 0.0, , , , , , 94, , , 0, 0, 0
38.5374388, -120.3487296, 0.400, 15:03:01.806, 11, 0.00, 0.05, 98, 1.500, 0.600, 98.000, 2, 100, 100, 32, 25070, -8525, 5139, 5244, 24, 11, 1531000981.806, 17, 0, 1024, 1024, 1024, 1024, 0, 6, 4161, 4160, 4175, 4213, 4208, 4112, 0, 1, 4300, -89.900, 0.000, 97.600, 0.000, 0.000, -0.400, 0.0, , , , , , 94, , , 0, 0, 0
38.5374388, -120.3487295, 0.500, 15:03:01.906, 11, 0.00, 0.05, 98, 1.300, 0.600, 98.000, 2, 100, 100, 32, 25070, -8525, 5139, 5244, 24, 11, 1531000981.906, 35, 0, 1024, 1024, 1024, 1024, 0, 6, 4161, 4160, 4175, 4213, 4208, 4112, 0, 1, 4400, -89.900, 0.000, 97.600, 0.000, 0.000, -0.400, 0.0, , , , , , 94, , , 0, 0, 0
38.5374388, -120.3487295, 0.500, 15:03:02.006, 11, 0.00, 0.05, 98, 1.000, 0.600, 98.000, 2, 100, 100, 32, 25070, -8525, 5139, 5244, 24, 11, 1531000982.006, 40, 0, 1024, 1024, 1024, 1024, 0, 6, 4161, 4160, 4175, 4213, 4208, 4112, 0, 1, 4500, -89.900, 0.000, 97.600, 0.000, 0.000, -0.400, 0.0, , , , , , 94, , , 0, 0, 0
38.5374388, -120.3487295, 0.600, 15:03:02.106, 10, 0.00, 0.05, 98, 1.000, 0.600, 98.000, 2, 100, 100, 32, 25070, -8525, 5139, 5244, 24, 11, 1531000982.106, 20, 0, 1024, 1024, 1024, 1024, 0, 6, 4161, 4160, 4175, 4213, 4208, 4112, 0, 1, 4600, -89.900, 0.000, 97.600, 0.000, 0.000, -0.500, 0.0, , , , , , 94, , , 0, 0, 0
38.5374389, -120.3487295, 0.700, 15:03:02.206, 9, 0.00, 0.06, 98, 1.100, 0.500, 98.100, 2, 100, 100, 32, 25070, -8525, 5139, 5244, 24, 11, 1531000982.206, 12, 0, 1024, 1024, 1024, 1024, 0, 6, 4161, 4160, 4175, 4213, 4208, 4112, 0, 1, 4700, -89.900, 0.000, 97.600, 0.000, 0.000, -0.500, 0.0, , , , , , 94, , , 0, 0, 0
38.5374389, -120.3487295, 0.700, 15:03:02.306, 9, 0.00, 0.06, 98, 1.100, 0.500, 98.100, 2, 100, 100, 32, 25070, -8525, 5139, 5244, 24, 11, 1531000982.306, 112, 0, 1024, 1024, 1024, 1024, 0, 6, 4161, 4160, 4175, 4213, 4208, 4112, 0, 1, 4800, -89.900, 0.000, 97.600, 0.000, 0.000, -0.500, 0.0, , , , , , 94, , , 0, 0, 0
38.5374388, -120.3487295, 0.700, 15:03:02.406, 9, 0.00, 0.05, 98, 1.100, 0.500, 98.100, 2, 100, 100, 32, 24637, -16626, 5139, 5244, 24, 11, 1531000982.406, 95, 0, 1024, 1024, 1024, 1024, 0, 6, 4161, 4160, 4175, 4213, 4208, 4112, 0, 1, 4900, -89.900, 0.000, 97.600, 0.000, 0.000, -0.500, 0.0, , , , , , 94, , , 0, 0, 0
38.5374388, -120.3487293, 0.800, 15:03:02.506, 9, 0.00, 0.05, 98, 0.900, 0.600, 98.200, 2, 100, 100, 32, 24637, -16626, 5139, 5244, 24, 11, 1531000982.506, 11, 0, 1024, 1024, 1024, 1024, 0, 6, 4161, 4160, 4175, 4213, 4208, 4112, 0, 1, 5001, -89.900, 0.000, 97.600, 0.000, 0.000, -0.500, 0.0, , , , , , 94, , , 0, 0, 0
38.5374388, -120.3487293, 0.800, 15:03:02.605, 9, 0.00, 0.05, 98, 0.900, 0.600, 98.200, 2, 100, 100, 32, 24637, -16626, 5139, 5244, 24, 11, 1531000982.606, 110, 0, 1024, 1024, 1024, 1024, 0, 6, 4161, 4160, 4175, 4213, 4208, 4112, 0, 1, 5100, -89.900, 0.000, 97.600, 0.000, 0.000, -0.500, 0.0, , , , , , 94, , , 0, 0, 0
38.5374388, -120.3487293, 0.900, 15:03:02.706, 9, 0.00, 0.05, 98, 0.800, 0.600, 98.200, 2, 100, 100, 32, 24637, -16626, 5139, 5244, 24, 14, 1531000982.706, 92, 0, 1024, 1024, 1024, 1024, 0, 6, 4161, 4160, 4175, 4213, 4208, 4112, 0, 1, 5200, -89.900, 0.000, 97.600, 0.000, 0.000, -0.500, 0.0, , , , , , 94, , , 0, 0, 0
38.5374388, -120.3487292, 0.900, 15:03:02.806, 9, 0.00, 0.05, 98, 0.900, 0.600, 98.100, 2, 100, 100, 32, 24637, -16626, 5139, 5244, 24, 14, 1531000982.806, 82, 0, 1024, 1024, 1024, 1024, 0, 6, 4161, 4160, 4175, 4213, 4208, 4112, 0, 1, 5300, -89.900, 0.000, 97.600, 0.000, 0.000, -0.300, 0.0, , , , , , 94, , , 0, 0, 0
38.5374389, -120.3487291, 1.000, 15:03:02.906, 9, 0.00, 0.06, 98, 0.700, 0.600, 98.100, 2, 100, 100, 32, 24637, -16626, 5139, 5244, 24, 14, 1531000982.906, 94, 0, 1024, 1024, 1024, 1024, 0, 6, 4088, 4099, 4098, 4129, 4117, 4084, 0, 1, 5401, -89.900, 0.000, 97.600, 0.000, 0.000, -0.200, 0.0, , , , , , 94, , , 0, 0, 0
38.5374389, -120.3487290, 1.000, 15:03:03.006, 9, 0.00, 0.06, 98, 0.700, 0.700, 98.100, 2, 100, 100, 32, 24637, -16626, 5139, 5244, 24, 14, 1531000983.006, 85, 0, 1024, 1024, 1024, 1024, 0, 6, 4088, 4099, 4098, 4129, 4117, 4084, 0, 1, 5500, -89.900, 0.000, 97.600, 0.000, 0.000, -0.200, 0.0, , , , , , 94, , , 0, 0, 0
38.5374389, -120.3487289, 1.000, 15:03:03.106, 9, 0.00, 0.07, 98, 0.800, 0.800, 98.200, 2, 100, 100, 32, 24637, -16626, 5139, 5244, 24, 14, 1531000983.106, 78, 0, 1024, 1024, 1024, 1024, 0, 6, 4088, 4099, 4098, 4129, 4117, 4084, 0, 1, 5600, -89.900, 0.000, 97.600, 0.000, 0.000, -0.300, 0.0, , , , , , 94, , , 0, 0, 0
38.5374389, -120.3487289, 1.100, 15:03:03.206, 9, 0.00, 0.07, 98, 0.900, 0.900, 98.200, 2, 100, 100, 32, 24637, -16626, 5139, 5244, 24, 14, 1531000983.206, 82, 0, 1024, 1024, 1024, 1024, 0, 6, 4088, 4099, 4098, 4129, 4117, 4084, 0, 1, 5700, -89.900, 0.000, 97.600, 0.000, 0.000, -0.400, 0.0, , , , , , 94, , , 0, 0, 0
38.5374389, -120.3487289, 1.100, 15:03:03.306, 10, 0.00, 0.07, 98, 0.800, 0.800, 98.200, 2, 100, 100, 32, 24637, -16626, 5139, 5244, 24, 14, 1531000983.306, 71, 0, 1024, 1024, 1024, 1024, 0, 6, 4088, 4099, 4098, 4129, 4117, 4084, 0, 1, 5801, -89.900, 0.000, 97.600, 0.000, 0.000, -0.600, 0.0, , , , , , 94, , , 0, 0, 0
38.5374390, -120.3487288, 1.200, 15:03:03.406, 10, 0.00, 0.08, 98, 0.800, 0.800, 98.200, 2, 100, 100, 32, 24637, -16626, 5139, 5244, 24, 14, 1531000983.406, 75, 0, 1024, 1024, 1024, 1024, 0, 6, 4088, 4099, 4098, 4129, 4117, 4084, 0, 1, 5900, -89.900, 0.000, 97.600, 0.000, 0.000, -0.700, 0.0, , , , , , 94, , , 0, 0, 0
38.5374390, -120.3487287, 1.300, 15:03:03.506, 10, 0.00, 0.09, 98, 0.900, 0.900, 98.200, 2, 100, 100, 32, 24637, -16626, 5139, 5244, 24, 14, 1531000983.506, 45, 0, 1024, 1024, 1024, 1024, 0, 6, 4088, 4099, 4098, 4129, 4117, 4084, 0, 1, 6000, -89.900, 0.000, 97.600, 0.000, 0.000, -0.900, 0.0, , , , , , 94, , , 0, 0, 0
38.5374390, -120.3487286, 1.400, 15:03:03.606, 10, 0.00, 0.09, 98, 1.000, 1.100, 98.200, 2, 100, 100, 32, 24637, -16626, 5139, 5244, 24, 14, 1531000983.606, 50, 0, 1024, 1024, 1024, 1024, 0, 6, 4088, 4099, 4098, 4129, 4117, 4084, 0, 1, 6100, -89.900, 0.000, 97.600, 0.000, 0.000, -1.100, 0.0, , , , , , 94, , , 0, 0, 0
38.5374389, -120.3487285, 1.500, 15:03:03.706, 10, 0.00, 0.09, 98, 1.000, 1.100, 98.200, 2, 100, 100, 32, 24637, -16626, 5139, 5244, 24, 14, 1531000983.706, 42, 0, 1024, 1024, 1024, 1024, 0, 6, 4088, 4099, 4098, 4129, 4117, 4084, 0, 1, 6200, -89.900, 0.000, 97.600, 0.000, 0.000, -1.200, 0.0, , , , , , 94, , , 0, 0, 0
38.5374391, -120.3487285, 1.600, 15:03:03.806, 10, 0.00, 0.11, 98, 1.000, 1.000, 98.200, 2, 100, 100, 32, 24637, -16626, 5139, 5244, 24, 14, 1531000983.806, 36, 0, 1024, 1024, 1024, 1024, 0, 6, 4088, 4099, 4098, 4129, 4117, 4084, 0, 1, 6300, -89.900, 0.000, 97.600, 0.000, 0.000, -1.400, 0.0, , , , , , 94, , , 0, 0, 0
38.5374392, -120.3487285, 1.800, 15:03:03.905, 10, 0.00, 0.12, 98, 1.300, 0.800, 98.200, 2, 100, 100, 32, 24550, -16564, 5139, 5244, 24, 14, 1531000983.905, 49, 0, 1024, 1024, 1024, 1024, 0, 6, 4071, 4089, 4074, 4108, 4109, 4084, 0, 1, 6399, -89.900, 0.000, 97.600, 0.000, 0.000, -1.600, 0.0, , , , , , 94, , , 0, 0, 0
38.5374392, -120.3487284, 2.000, 15:03:04.006, 10, 0.00, 0.12, 98, 1.700, 0.800, 98.200, 2, 100, 100, 32, 24550, -16564, 5139, 5244, 24, 14, 1531000984.006, 50, 0, 1024, 1024, 1024, 1024, 0, 6, 4071, 4089, 4074, 4108, 4109, 4084, 0, 1, 6500, -89.900, 0.000, 97.600, 0.000, 0.000, -1.900, 0.0, , , , , , 94, , , 0, 0, 0
38.5374392, -120.3487283, 2.200, 15:03:04.106, 11, 0.00, 0.12, 98, 1.600, 0.800, 98.200, 2, 100, 100, 32, 24550, -16564, 5139, 5244, 24, 14, 1531000984.106, 28, 0, 1024, 1024, 1024, 1024, 0, 6, 4071, 4089, 4074, 4108, 4109, 4084, 0, 1, 6600, -89.900, 0.000, 97.600, 0.000, 0.000, -2.200, 0.0, , , , , , 94, , , 0, 0, 0
38.5374391, -120.3487283, 2.400, 15:03:04.206, 11, 0.00, 0.12, 98, 1.400, 0.900, 98.100, 2, 100, 100, 32, 24550, -16564, 5139, 5244, 24, 14, 1531000984.206, 34, 0, 1024, 1024, 1024, 1024, 0, 6, 4071, 4089, 4074, 4108, 4109, 4084, 0, 1, 6700, -89.900, 0.000, 97.600, 0.000, 0.000, -2.400, 0.0, , , , , , 94, , , 0, 0, 0
38.5374390, -120.3487282, 2.700, 15:03:04.306, 10, 0.00, 0.12, 98, 1.000, 1.100, 98.100, 2, 100, 100, 32, 24550, -16564, 5139, 5244, 24, 14, 1531000984.306, 12, 0, 1024, 1024, 1024, 1024, 0, 6, 4071, 4089, 4074, 4108, 4109, 4084, 0, 1, 6800, -89.900, 0.000, 97.600, 0.000, 0.000, -2.600, 0.0, , , , , , 94, , , 0, 0, 0
38.5374389, -120.3487282, 3.000, 15:03:04.406, 10, 0.00, 0.11, 98, 0.700, 1.200, 98.000, 2, 100, 99, 32, 24550, -16564, 5139, 5244, 24, 14, 1531000984.406, 9, 0, 1024, 1024, 1024, 1024, 0, 6, 4071, 4089, 4074, 4108, 4109, 4084, 0, 1, 6900, -89.900, 0.000, 97.600, 0.000, 0.000, -2.900, 0.0, , , , , , 94, , , 0, 0, 0
38.5374389, -120.3487282, 3.000, 15:03:04.506, 10, 0.00, 0.11, 98, 0.700, 1.200, 98.000, 2, 100, 99, 32, 24550, -16564, 5139, 5244, 24, 14, 1531000984.506, 109, 0, 1024, 1024, 1024, 1024, 0, 6, 4071, 4089, 4074, 4108, 4109, 4084, 0, 1, 7000, -89.900, 0.000, 97.600, 0.000, 0.000, -2.900, 0.0, , , , , , 94, , , 0, 0, 0
38.5374387, -120.3487283, 3.600, 15:03:04.606, 10, 0.00, 0.10, 98, 0.000, 1.200, 97.900, 2, 100, 99, 32, 24550, -16564, 5139, 5244, 24, 14, 1531000984.606, 4, 0, 1024, 1024, 1024, 1024, 0, 6, 4071, 4089, 4074, 4108, 4109, 4084, 0, 1, 7100, -89.900, 0.000, 97.600, 0.000, 0.000, -3.100, 0.0, , , , , , 94, , , 0, 0, 0
38.5374387, -120.3487283, 3.600, 15:03:04.706, 10, 0.00, 0.10, 98, 0.000, 1.200, 97.900, 2, 100, 99, 32, 24550, -16564, 5139, 5244, 24, 14, 1531000984.706, 104, 0, 1024, 1024, 1024, 1024, 0, 6, 4071, 4089, 4074, 4108, 4109, 4084, 0, 1, 7200, -89.900, 0.000, 97.600, 0.000, 0.000, -3.100, 0.0, , , , , , 94, , , 0, 0, 0
38.5374384, -120.3487284, 4.300, 15:03:04.806, 10, 0.00, 0.08, 98, -0.100, 0.900, 98.000, 2, 100, 99, 32, 24550, -16564, 5139, 5244, 24, 14, 1531000984.806, 94, 0, 1024, 1024, 1024, 1024, 0, 6, 4071, 4089, 4074, 4108, 4109, 4084, 0, 1, 7300, -90.000, 0.000, 97.600, 0.000, 0.000, -3.200, 0.0, , , , , , 94, , , 0, 0, 0
38.5374382, -120.3487285, 4.900, 15:03:04.909, 10, 0.00, 0.08, 98, -0.200, 0.700, 98.000, 2, 100, 98, 32, 24312, -19202, 5139, 5244, 24, 14, 1531000984.909, 2, 0, 1024, 1024, 1024, 1024, 0, 6, 4006, 4027, 4013, 4061, 4058, 4021, 0, 1, 7403, -89.900, 0.000, 97.600, 0.000, 0.000, -3.200, 0.0, , , , , , 94, , , 0, 0, 0
38.5374382, -120.3487285, 4.900, 15:03:05.006, 10, 0.00, 0.08, 98, -0.200, 0.700, 98.000, 2, 100, 98, 32, 24312, -19202, 5139, 5244, 24, 14, 1531000985.006, 100, 0, 1024, 1024, 1024, 1024, 0, 6, 4006, 4027, 4013, 4061, 4058, 4021, 0, 1, 7500, -89.900, 0.000, 97.600, 0.000, 0.000, -3.200, 0.0, , , , , , 94, , , 0, 0, 0
38.5374382, -120.3487284, 5.300, 15:03:05.106, 10, 0.00, 0.08, 98, 0.000, 0.700, 97.900, 2, 100, 98, 32, 24312, -19202, 5139, 5244, 24, 14, 1531000985.106, 94, 0, 1024, 1024, 1024, 1024, 0, 6, 4006, 4027, 4013, 4061, 4058, 4021, 0, 1, 7600, -89.900, 0.000, 97.600, 0.000, 0.000, -3.200, 0.0, , , , , , 94, , , 0, 0, 0
38.5374384, -120.3487283, 5.600, 15:03:05.206, 10, 0.00, 0.09, 98, 0.100, 0.800, 97.800, 2, 100, 98, 32, 24312, -19202, 5139, 5244, 24, 14, 1531000985.206, 71, 0, 1024, 1024, 1024, 1024, 0, 6, 4006, 4027, 4013, 4061, 4058, 4021, 0, 1, 7700, -89.900, 0.000, 97.600, 0.000, 0.000, -3.200, 0.0, , , , , , 94, , , 0, 0, 0
38.5374385, -120.3487281, 6.000, 15:03:05.306, 11, 0.00, 0.11, 98, 0.700, 1.100, 97.700, 2, 100, 98, 32, 24312, -19202, 5139, 5244, 24, 14, 1531000985.306, 75, 0, 1024, 1024, 1024, 1024, 0, 6, 4006, 4027, 4013, 4061, 4058, 4021, 0, 1, 7800, -89.900, 0.000, 97.600, 0.000, 0.000, -3.200, 0.0, , , , , , 94, , , 0, 0, 0
38.5374386, -120.3487282, 6.300, 15:03:05.406, 11, 0.00, 0.10, 98, 1.100, 1.300, 97.700, 2, 100, 98, 32, 24312, -19202, 5139, 5244, 24, 14, 1531000985.406, 65, 0, 1024, 1024, 1024, 1024, 0, 6, 4006, 4027, 4013, 4061, 4058, 4021, 0, 1, 7900, -89.900, 0.000, 97.600, 0.000, 0.000, -3.200, 0.0, , , , , , 94, , , 0, 0, 0
38.5374386, -120.3487282, 6.600, 15:03:05.506, 10, 0.00, 0.10, 98, 1.200, 1.200, 97.700, 2, 100, 98, 32, 24312, -19202, 5139, 5244, 24, 14, 1531000985.506, 79, 0, 1024, 1024, 1024, 1024, 0, 6, 4006, 4027, 4013, 4061, 4058, 4021, 0, 1, 8000, -89.900, 0.000, 97.600, 0.000, 0.000, -3.200, 0.0, , , , , , 94, , , 0, 0, 0
38.5374387, -120.3487282, 6.900, 15:03:05.606, 10, 0.00, 0.10, 98, 1.200, 1.000, 97.800, 2, 100, 98, 32, 24312, -19202, 5139, 5244, 24, 14, 1531000985.606, 45, 0, 1024, 1024, 1024, 1024, 0, 6, 4006, 4027, 4013, 4061, 4058, 4021, 0, 1, 8100, -89.900, 0.000, 97.600, 0.000, 0.000, -3.200, 0.0, , , , , , 94, , , 0, 0, 0
38.5374387, -120.3487283, 7.300, 15:03:05.705, 10, 0.00, 0.10, 98, 1.100, 0.800, 97.900, 2, 100, 98, 32, 24312, -19202, 5139, 5244, 24, 14, 1531000985.706, 53, 0, 1024, 1024, 1024, 1024, 0, 6, 4006, 4027, 4013, 4061, 4058, 4021, 0, 1, 8200, -89.900, 0.000, 97.600, 0.000, 0.000, -3.200, 0.0, , , , , , 94, , , 0, 0, 0
38.5374388, -120.3487282, 7.600, 15:03:05.806, 10, 0.00, 0.11, 98, 1.200, 0.700, 98.100, 2, 100, 98, 32, 24312, -19202, 5139, 5244, 24, 14, 1531000985.806, 45, 0, 1024, 1024, 1024, 1024, 0, 6, 4006, 4027, 4013, 4061, 4058, 4021, 0, 1, 8300, -89.900, 0.000, 97.600, 0.000, 0.000, -3.200, 0.0, , , , , , 94, , , 0, 0, 0
38.5374389, -120.3487282, 7.900, 15:03:05.905, 10, 0.00, 0.11, 98, 1.300, 0.700, 98.300, 2, 100, 98, 32, 24007, -23128, 5139, 5244, 24, 14, 1531000985.906, 39, 0, 1024, 1024, 1024, 1024, 0, 6, 3993, 4018, 3990, 4043, 4032, 4004, 0, 1, 8400, -89.900, 0.000, 97.600, 0.000, 0.000, -3.100, 0.0, , , , , , 94, , , 0, 0, 0
38.5374391, -120.3487282, 8.300, 15:03:06.006, 10, 0.00, 0.13, 98, 1.600, 0.800, 98.500, 2, 100, 100, 32, 24007, -23128, 5139, 5244, 24, 14, 1531000986.006, 43, 0, 1024, 1024, 1024, 1024, 0, 6, 3993, 4018, 3990, 4043, 4032, 4004, 0, 1, 8500, -89.900, 0.000, 97.600, 0.000, 0.000, -3.100, 0.0, , , , , , 94, , , 0, 0, 0
38.5374393, -120.3487282, 8.600, 15:03:06.106, 10, 0.00, 0.14, 98, 1.800, 0.900, 98.500, 2, 100, 100, 32, 24007, -23128, 5139, 5244, 24, 14, 1531000986.106, 47, 0, 1024, 1024, 1024, 1024, 0, 6, 3993, 4018, 3990, 4043, 4032, 4004, 0, 1, 8600, -89.900, 0.000, 97.600, 0.000, 0.000, -3.100, 0.0, , , , , , 94, , , 0, 0, 0
38.5374393, -120.3487281, 8.900, 15:03:06.205, 10, 0.00, 0.14, 98, 1.800, 1.000, 98.500, 2, 100, 100, 32, 24007, -23128, 5139, 5244, 24, 14, 1531000986.206, 44, 0, 1024, 1024, 1024, 1024, 0, 6, 3993, 4018, 3990, 4043, 4032, 4004, 0, 1, 8700, -89.900, 0.000, 97.600, 0.000, 0.000, -3.000, 0.0, , , , , , 94, , , 0, 0, 0
38.5374393, -120.3487281, 9.200, 15:03:06.306, 10, 0.00, 0.15, 98, 1.600, 1.100, 98.400, 2, 100, 100, 32, 24007, -23128, 5139, 5244, 24, 14, 1531000986.306, 22, 0, 1024, 1024, 1024, 1024, 0, 6, 3993, 4018, 3990, 4043, 4032, 4004, 0, 1, 8800, -89.900, 0.000, 97.600, 0.000, 0.000, -3.000, 0.0, , , , , , 94, , , 0, 0, 0
38.5374393, -120.3487281, 9.500, 15:03:06.406, 10, 0.00, 0.15, 98, 1.400, 1.100, 98.400, 2, 100, 100, 32, 24007, -23128, 5139, 5244, 24, 14, 1531000986.406, 27, 0, 1024, 1024, 1024, 1024, 0, 6, 3993, 4018, 3990, 4043, 4032, 4004, 0, 1, 8900, -89.900, 0.000, 97.600, 0.000, 0.000, -3.100, 0.0, , , , , , 94, , , 0, 0, 0
38.5374394, -120.3487281, 9.900, 15:03:06.506, 10, 0.00, 0.16, 98, 1.200, 1.200, 98.300, 2, 100, 100, 32, 24007, -23128, 5139, 5244, 24, 14, 1531000986.506, 16, 0, 1024, 1024, 1024, 1024, 0, 6, 3993, 4018, 3990, 4043, 4032, 4004, 0, 1, 9000, -89.900, 0.000, 97.600, 0.000, 0.000, -3.100, 0.0, , , , , , 94, , , 0, 0, 0
38.5374394, -120.3487281, 9.900, 15:03:06.606, 10, 0.00, 0.16, 98, 1.200, 1.200, 98.300, 2, 100, 100, 32, 24007, -23128, 5139, 5244, 24, 14, 1531000986.606, 116, 0, 1024, 1024, 1024, 1024, 0, 6, 3993, 4018, 3990, 4043, 4032, 4004, 0, 1, 9100, -89.900, 0.000, 97.600, 0.000, 0.000, -3.100, 0.0, , , , , , 94, , , 0, 0, 0
38.5374395, -120.3487281, 10.500, 15:03:06.709, 11, 0.00, 0.16, 98, 1.300, 0.900, 98.200, 2, 100, 100, 32, 24007, -23128, 5139, 5244, 24, 14, 1531000986.709, 2, 0, 1024, 1024, 1024, 1024, 0, 6, 3993, 4018, 3990, 4043, 4032, 4004, 0, 1, 9203, -89.900, 0.000, 97.600, 0.000, 0.000, -3.000, 0.0, , , , , , 94, , , 0, 0, 0
38.5374395, -120.3487281, 10.800, 15:03:06.807, 11, 0.00, 0.17, 98, 1.500, 0.800, 98.200, 2, 100, 100, 32, 24007, -23128, 5139, 5244, 24, 14, 1531000986.807, 2, 0, 1024, 1024, 1024, 1024, 0, 6, 3993, 4018, 3990, 4043, 4032, 4004, 0, 1, 9301, -89.900, 0.000, 97.600, 0.000, 0.000, -3.000, 0.0, , , , , , 94, , , 0, 0, 0
38.5374396, -120.3487282, 11.100, 15:03:06.906, 11, 0.00, 0.17, 98, 1.500, 0.800, 98.100, 2, 100, 100, 32, 24007, -23128, 5139, 5244, 24, 14, 1531000986.906, 85, 0, 1024, 1024, 1024, 1024, 0, 6, 3993, 4018, 3990, 4043, 4032, 4004, 0, 1, 9400, -89.900, 0.000, 97.600, 0.000, 0.000, -3.000, 0.0, , , , , , 94, , , 0, 0, 0
38.5374397, -120.3487282, 11.400, 15:03:07.006, 11, 0.00, 0.17, 98, 1.500, 0.900, 98.200, 2, 100, 100, 32, 24183, -18933, 5139, 5244, 24, 14, 1531000987.006, 92, 0, 1024, 1024, 1024, 1024, 0, 6, 4022, 4026, 4020, 4060, 4059, 4018, 0, 1, 9500, -89.900, 0.000, 97.600, 0.000, 0.000, -3.100, 0.0, , , , , , 94, , , 0, 0, 0
38.5374397, -120.3487282, 11.700, 15:03:07.106, 11, 0.00, 0.18, 98, 1.400, 1.000, 98.200, 2, 100, 100, 32, 24183, -18933, 5139, 5244, 24, 14, 1531000987.106, 94, 0, 1024, 1024, 1024, 1024, 0, 6, 4022, 4026, 4020, 4060, 4059, 4018, 0, 1, 9600, -89.900, 0.000, 97.600, 0.000, 0.000, -3.000, 0.0, , , , , , 94, , , 0, 0, 0
38.5374397, -120.3487282, 12.000, 15:03:07.205, 11, 0.00, 0.18, 98, 1.200, 0.800, 98.200, 2, 100, 100, 32, 24183, -18933, 5139, 5244, 24, 14, 1531000987.206, 94, 0, 1024, 1024, 1024, 1024, 0, 6, 4022, 4026, 4020, 4060, 4059, 4018, 0, 1, 9700, -89.900, 0.000, 97.600, 0.000, 0.000, -3.000, 0.0, , , , , , 94, , , 0, 0, 0
38.5374397, -120.3487282, 12.300, 15:03:07.305, 11, 0.00, 0.18, 98, 1.200, 0.800, 98.200, 2, 100, 100, 32, 24183, -18933, 5139, 5244, 24, 14, 1531000987.305, 71, 0, 1024, 1024, 1024, 1024, 0, 6, 4022, 4026, 4020, 4060, 4059, 4018, 0, 1, 9799, -89.900, 0.000, 97.600, 0.000, 0.000, -3.000, 0.0, , , , , , 94, , , 0, 0, 0
38.5374397, -120.3487283, 12.600, 15:03:07.406, 11, 0.00, 0.17, 98, 1.100, 0.800, 98.300, 2, 100, 100, 32, 24183, -18933, 5139, 5244, 24, 14, 1531000987.406, 75, 0, 1024, 1024, 1024, 1024, 0, 6, 4022, 4026, 4020, 4060, 4059, 4018, 0, 1, 9900, -89.900, 0.000, 97.600, 0.000, 0.000, -3.000, 0.0, , , , , , 94, , , 0, 0, 0
38.5374396, -120.3487283, 13.000, 15:03:07.506, 11, 0.00, 0.17, 98, 1.000, 0.800, 98.300, 2, 100, 100, 32, 24183, -18933, 5139, 5244, 24, 14, 1531000987.506, 70, 0, 1024, 1024, 1024, 1024, 0, 6, 4022, 4026, 4020, 4060, 4059, 4018, 0, 1, 10000, -89.900, 0.000, 97.600, 0.000, 0.000, -3.000, 0.0, , , , , , 94, , , 0, 0, 0
38.5374397, -120.3487283, 13.300, 15:03:07.606, 11, 0.00, 0.17, 98, 0.700, 0.800, 98.300, 2, 100, 100, 32, 24183, -18933, 5139, 5244, 24, 14, 1531000987.606, 75, 0, 1024, 1024, 1024, 1024, 0, 6, 4022, 4026, 4020, 4060, 4059, 4018, 0, 1, 10100, -89.900, 0.000, 97.600, 0.000, 0.000, -3.000, 0.0, , , , , , 94, , , 0, 0, 0
38.5374397, -120.3487283, 13.600, 15:03:07.705, 11, 0.00, 0.17, 98, 0.800, 0.800, 98.300, 2, 100, 100, 32, 24183, -18933, 5139, 5244, 24, 14, 1531000987.706, 42, 0, 1024, 1024, 1024, 1024, 0, 6, 4022, 4026, 4020, 4060, 4059, 4018, 0, 1, 10200, -89.900, 0.000, 97.600, 0.000, 0.000, -2.900, 0.0, , , , , , 94, , , 0, 0, 0
38.5374397, -120.3487283, 13.900, 15:03:07.805, 11, 0.00, 0.17, 98, 1.000, 0.900, 98.200, 2, 100, 100, 32, 24183, -18933, 5139, 5244, 24, 14, 1531000987.805, 58, 0, 1024, 1024, 1024, 1024, 0, 6, 4022, 4026, 4020, 4060, 4059, 4018, 0, 1, 10299, -89.900, 0.000, 97.600, 0.000, 0.000, -2.900, 0.0, , , , , , 94, , , 0, 0, 0
38.5374396, -120.3487284, 14.200, 15:03:07.906, 11, 0.00, 0.16, 98, 1.100, 0.900, 98.100, 2, 100, 100, 32, 24159, -18976, 5139, 5244, 24, 14, 1531000987.906, 52, 0, 1024, 1024, 1024, 1024, 0, 6, 4022, 4026, 4020, 4060, 4059, 4018, 0, 1, 10400, -89.900, 0.000, 97.600, 0.000, 0.000, -3.000, 0.0, , , , , , 94, , , 0, 0, 0
38.5374397, -120.3487284, 14.500, 15:03:08.006, 11, 0.00, 0.16, 98, 1.100, 0.700, 98.100, 2, 100, 100, 32, 24159, -18976, 5139, 5244, 24, 14, 1531000988.006, 53, 0, 1024, 1024, 1024, 1024, 0, 6, 4022, 4026, 4020, 4060, 4059, 4018, 0, 1, 10500, -89.900, 0.000, 97.600, 0.000, 0.000, -2.900, 0.0, , , , , , 94, , , 0, 0, 0
38.5374397, -120.3487284, 14.800, 15:03:08.106, 11, 0.00, 0.16, 98, 1.100, 0.700, 98.100, 2, 100, 100, 32, 24159, -18976, 5139, 5244, 24, 14, 1531000988.106, 55, 0, 1024, 1024, 1024, 1024, 0, 6, 4022, 4026, 4020, 4060, 4059, 4018, 0, 1, 10600, -89.900, 0.000, 97.600, 0.000, 0.000, -2.900, 0.0, , , , , , 94, , , 0, 0, 0
38.5374396, -120.3487285, 15.100, 15:03:08.205, 11, 0.00, 0.16, 98, 1.200, 0.700, 98.100, 2, 100, 100, 32, 24159, -18976, 5139, 5244, 24, 14, 1531000988.205, 31, 0, 1024, 1024, 1024, 1024, 0, 6, 4022, 4026, 4020, 4060, 4059, 4018, 0, 1, 10699, -89.900, 0.000, 97.600, 0.000, 0.000, -2.900, 0.0, , , , , , 94, , , 0, 0, 0
38.5374396, -120.3487286, 15.400, 15:03:08.306, 11, 0.00, 0.15, 98, 1.200, 0.700, 98.000, 2, 100, 100, 32, 24159, -18976, 5139, 5244, 24, 14, 1531000988.306, 51, 0, 1024, 1024, 1024, 1024, 0, 6, 4022, 4026, 4020, 4060, 4059, 4018, 0, 1, 10800, -89.900, 0.000, 97.600, 0.000, 0.000, -2.900, 0.0, , , , , , 94, , , 0, 0, 0
38.5374396, -120.3487285, 15.700, 15:03:08.406, 11, 0.00, 0.16, 98, 1.200, 0.700, 98.000, 2, 100, 100, 32, 24159, -18976, 5086, 5244, 24, 14, 1531000988.406, 55, 0, 1024, 1024, 1024, 1024, 0, 6, 4009, 4029, 4014, 4055, 4055, 4015, 0, 1, 10900, -89.900, 0.000, 97.600, 0.000, 0.000, -2.900, 0.0, , , , , , 94, , , 0, 0, 0
38.5374396, -120.3487285, 15.700, 15:03:08.506, 11, 0.00, 0.16, 98, 1.200, 0.700, 98.000, 2, 100, 100, 32, 24159, -18976, 5086, 5244, 24, 14, 1531000988.506, 155, 0, 1024, 1024, 1024, 1024, 0, 6, 4009, 4029, 4014, 4055, 4055, 4015, 0, 1, 11000, -89.900, 0.000, 97.600, 0.000, 0.000, -2.900, 0.0, , , , , , 94, , , 0, 0, 0
38.5374397, -120.3487285, 16.300, 15:03:08.606, 11, 0.00, 0.16, 98, 1.600, 1.100, 98.000, 2, 100, 100, 32, 24159, -18976, 5086, 5244, 24, 14, 1531000988.606, 30, 0, 1024, 1024, 1024, 1024, 0, 6, 4009, 4029, 4014, 4055, 4055, 4015, 0, 1, 11100, -89.900, 0.000, 97.600, 0.000, 0.000, -3.000, 0.0, , , , , , 94, , , 0, 0, 0
38.5374396, -120.3487285, 16.600, 15:03:08.705, 11, 0.00, 0.16, 98, 1.800, 1.100, 98.100, 2, 100, 100, 32, 24159, -18976, 5086, 5244, 24, 14, 1531000988.705, 21, 0, 1024, 1024, 1024, 1024, 0, 6, 4009, 4029, 4014, 4055, 4055, 4015, 0, 1, 11199, -89.900, 0.000, 97.600, 0.000, 0.000, -3.000, 0.0, , , , , , 94, , , 0, 0, 0
38.5374396, -120.3487286, 16.900, 15:03:08.805, 11, 0.00, 0.16, 98, 1.800, 1.100, 98.100, 2, 100, 100, 32, 24159, -18976, 5086, 5244, 24, 14, 1531000988.805, 24, 0, 1024, 1024, 1024, 1024, 0, 6, 4009, 4029, 4014, 4055, 4055, 4015, 0, 1, 11299, -89.900, 0.000, 97.600, 0.000, 0.000, -2.900, 0.0, , , , , , 94, , , 0, 0, 0
38.5374396, -120.3487286, 17.200, 15:03:08.906, 11, 0.00, 0.16, 97, 1.700, 1.200, 98.100, 2, 100, 99, 33, 24159, -18976, 5086, 5244, 24, 14, 1531000988.906, 23, 0, 1024, 1024, 1024, 1024, 0, 6, 4009, 4029, 4014, 4055, 4055, 4015, 0, 1, 11400, -89.900, 0.000, 97.600, 0.000, 0.000, -2.900, 0.0, , , , , , 94, , , 0, 0, 0
38.5374395, -120.3487285, 17.800, 15:03:09.020, 11, 0.00, 0.15, 97, 1.500, 1.300, 98.300, 2, 100, 99, 33, 24159, -18976, 5086, 5244, 24, 14, 1531000989.020, 3, 0, 1024, 1024, 1024, 1024, 0, 6, 4009, 4029, 4014, 4055, 4055, 4015, 0, 1, 11514, -89.900, 0.000, 97.600, 0.000, 0.000, -3.000, 0.0, , , , , , 94, , , 0, 0, 0
38.5374395, -120.3487286, 18.100, 15:03:09.105, 11, 0.00, 0.14, 97, 1.300, 1.400, 98.300, 2, 100, 99, 33, 24159, -18976, 5086, 5244, 24, 14, 1531000989.105, 17, 0, 1024, 1024, 1024, 1024, 0, 6, 4009, 4029, 4014, 4055, 4055, 4015, 0, 1, 11599, -89.900, 0.000, 97.600, 0.000, 0.000, -3.000, 0.0, , , , , , 94, , , 0, 0, 0
38.5374395, -120.3487286, 18.100, 15:03:09.205, 11, 0.00, 0.14, 97, 1.300, 1.400, 98.300, 2, 100, 99, 33, 24159, -18976, 5086, 5244, 24, 14, 1531000989.205, 117, 0, 1024, 1024, 1024, 1024, 0, 6, 4009, 4029, 4014, 4055, 4055, 4015, 0, 1, 11700, -89.900, 0.000, 97.600, 0.000, 0.000, -3.000, 0.0, , , , , , 94, , , 0, 0, 0
38.5374394, -120.3487286, 18.400, 15:03:09.306, 11, 0.00, 0.13, 97, 1.200, 1.300, 98.400, 2, 100, 99, 33, 24159, -18976, 5086, 5244, 24, 14, 1531000989.306, 87, 0, 1024, 1024, 1024, 1024, 0, 6, 4009, 4029, 4014, 4055, 4055, 4015, 0, 1, 11800, -89.900, 0.000, 97.600, 0.000, 0.000, -2.900, 0.0, , , , , , 94, , , 0, 0, 0
38.5374393, -120.3487287, 18.700, 15:03:09.405, 11, 0.00, 0.12, 97, 1.200, 1.100, 98.300, 2, 100, 99, 33, 24134, -19033, 5086, 5244, 24, 14, 1531000989.405, 91, 0, 1024, 1024, 1024, 1024, 0, 6, 4007, 4012, 4009, 4050, 4049, 4010, 0, 1, 11899, -89.900, 0.000, 97.600, 0.000, 0.000, -2.900, 0.0, , , , , , 94, , , 0, 0, 0
38.5374393, -120.3487287, 18.700, 15:03:09.505, 11, 0.00, 0.12, 97, 1.200, 1.100, 98.300, 2, 100, 99, 33, 24134, -19033, 5086, 5244, 24, 14, 1531000989.505, 191, 0, 1024, 1024, 1024, 1024, 0, 6, 4007, 4012, 4009, 4050, 4049, 4010, 0, 1, 12000, -89.900, 0.000, 97.600, 0.000, 0.000, -2.900, 0.0, , , , , , 94, , , 0, 0, 0
38.5374391, -120.3487288, 19.300, 15:03:09.606, 11, 0.00, 0.10, 97, 0.700, 0.900, 98.200, 2, 100, 99, 33, 24134, -19033, 5086, 5244, 24, 14, 1531000989.606, 91, 0, 1024, 1024, 1024, 1024, 0, 6, 4007, 4012, 4009, 4050, 4049, 4010, 0, 1, 12100, -90.000, 0.000, 97.600, 0.000, 0.000, -2.900, 0.0, , , , , , 94, , , 0, 0, 0
38.5374390, -120.3487289, 19.600, 15:03:09.705, 11, 0.00, 0.08, 97, 0.600, 0.800, 98.100, 2, 100, 99, 33, 24134, -19033, 5086, 5244, 24, 14, 1531000989.705, 96, 0, 1024, 1024, 1024, 1024, 0, 6, 4007, 4012, 4009, 4050, 4049, 4010, 0, 1, 12199, -89.900, 0.000, 97.600, 0.000, 0.000, -2.900, 0.0, , , , , , 94, , , 0, 0, 0
38.5374390, -120.3487289, 20.000, 15:03:09.806, 11, 0.00, 0.07, 97, 0.500, 0.800, 98.100, 2, 100, 99, 33, 24134, -19033, 5086, 5244, 24, 14, 1531000989.806, 87, 0, 1024, 1024, 1024, 1024, 0, 6, 4007, 4012, 4009, 4050, 4049, 4010, 0, 1, 12300, -90.000, 0.000, 97.600, 0.000, 0.000, -2.900, 0.0, , , , , , 94, , , 0, 0, 0
38.5374389, -120.3487290, 20.300, 15:03:09.905, 11, 0.00, 0.07, 97, 0.500, 0.700, 98.100, 2, 100, 99, 33, 24134, -19033, 5086, 5244, 24, 14, 1531000989.906, 87, 0, 1024, 1024, 1024, 1024, 0, 6, 4007, 4012, 4009, 4050, 4049, 4010, 0, 1, 12400, -90.000, 0.000, 97.600, 0.000, 0.000, -2.900, 0.0, , , , , , 94, , , 0, 0, 0
38.5374388, -120.3487290, 20.500, 15:03:10.006, 11, 0.00, 0.05, 97, 0.500, 0.600, 98.100, 2, 100, 100, 33, 24134, -19033, 5086, 5244, 24, 14, 1531000990.006, 84, 0, 1024, 1024, 1024, 1024, 0, 6, 4007, 4012, 4009, 4050, 4049, 4010, 0, 1, 12500, -90.000, 0.000, 97.600, 0.000, 0.000, -2.900, 0.0, , , , , , 94, , , 0, 0, 0
38.5374387, -120.3487290, 20.900, 15:03:10.106, 11, 0.00, 0.04, 97, 0.400, 0.800, 98.100, 2, 100, 100, 33, 24134, -19033, 5086, 5244, 24, 14, 1531000990.106, 57, 0, 1024, 1024, 1024, 1024, 0, 6, 4007, 4012, 4009, 4050, 4049, 4010, 0, 1, 12600, -89.900, 0.000, 97.600, 0.000, 0.000, -2.900, 0.0, , , , , , 94, , , 0, 0, 0
38.5374386, -120.3487290, 21.200, 15:03:10.205, 11, 0.00, 0.04, 97, 0.400, 0.900, 98.100, 2, 100, 100, 33, 24134, -19033, 5086, 5244, 24, 14, 1531000990.205, 68, 0, 1024, 1024, 1024, 1024, 0, 6, 4007, 4012, 4009, 4050, 4049, 4010, 0, 1, 12700, -89.900, 0.000, 97.600, 0.000, 0.000, -2.900, 0.0, , , , , , 94, , , 0, 0, 0
38.5374386, -120.3487290, 21.500, 15:03:10.306, 11, 0.00, 0.04, 97, 0.400, 1.000, 98.100, 2, 100, 100, 33, 24134, -19033, 5086, 5244, 24, 14, 1531000990.306, 57, 0, 1024, 1024, 1024, 1024, 0, 6, 4007, 4012, 4009, 4050, 4049, 4010, 0, 1, 12800, -89.900, 0.000, 97.600, 0.000, 0.000, -2.900, 0.0, , , , , , 94, , , 0, 0, 0
38.5374386, -120.3487291, 21.800, 15:03:10.406, 11, 0.00, 0.03, 97, 0.500, 0.900, 98.100, 2, 100, 100, 33, 24138, -18632, 5086, 5244, 24, 14, 1531000990.406, 72, 0, 1024, 1024, 1024, 1024, 0, 6, 4007, 4014, 4017, 4048, 4058, 4008, 0, 1, 12900, -89.900, 0.000, 97.600, 0.000, 0.000, -2.900, 0.0, , , , , , 94, , , 0, 0, 0
38.5374385, -120.3487291, 22.100, 15:03:10.506, 11, 0.00, 0.03, 97, 0.700, 1.000, 98.100, 2, 100, 98, 33, 24138, -18632, 5086, 5244, 24, 14, 1531000990.506, 62, 0, 1024, 1024, 1024, 1024, 0, 6, 4007, 4014, 4017, 4048, 4058, 4008, 0, 1, 13000, -89.900, 0.000, 97.600, 0.000, 0.000, -2.900, 0.0, , , , , , 94, , , 0, 0, 0
38.5374385, -120.3487291, 22.400, 15:03:10.605, 11, 0.00, 0.02, 97, 0.800, 1.000, 98.100, 2, 100, 98, 33, 24138, -18632, 5086, 5244, 24, 14, 1531000990.605, 16, 0, 1024, 1024, 1024, 1024, 0, 6, 4007, 4014, 4017, 4048, 4058, 4008, 0, 1, 13100, -89.900, 0.000, 97.600, 0.000, 0.000, -2.900, 0.0, , , , , , 94, , , 0, 0, 0
38.5374384, -120.3487291, 22.700, 15:03:10.705, 11, 0.00, 0.02, 97, 0.800, 1.000, 98.100, 2, 100, 98, 33, 24138, -18632, 5086, 5244, 24, 14, 1531000990.705, 48, 0, 1024, 1024, 1024, 1024, 0, 6, 4007, 4014, 4017, 4048, 4058, 4008, 0, 1, 13199, -89.900, 0.000, 97.600, 0.000, 0.000, -2.900, 0.0, , , , , , 94, , , 0, 0, 0
38.5374384, -120.3487291, 23.000, 15:03:10.806, 11, 0.00, 0.02, 97, 0.800, 1.000, 98.100, 2, 100, 98, 33, 24138, -18632, 5086, 5244, 24, 14, 1531000990.806, 42, 0, 1024, 1024, 1024, 1024, 0, 6, 4007, 4014, 4017, 4048, 4058, 4008, 0, 1, 13300, -89.900, 0.000, 97.600, 0.000, 0.000, -2.900, 0.0, , , , , , 94, , , 0, 0, 0
38.5374384, -120.3487291, 23.300, 15:03:10.906, 11, 0.00, 0.02, 97, 0.900, 1.100, 98.100, 2, 100, 98, 33, 24138, -18632, 5086, 5244, 24, 14, 1531000990.906, 35, 0, 1024, 1024, 1024, 1024, 0, 6, 4007, 4014, 4017, 4048, 4058, 4008, 0, 1, 13400, -89.900, 0.000, 97.600, 0.000, 0.000, -2.900, 0.0, , , , , , 94, , , 0, 0, 0
38.5374384, -120.3487291, 23.600, 15:03:11.006, 11, 0.00, 0.02, 97, 0.900, 1.100, 98.100, 2, 100, 98, 33, 24138, -18632, 5086, 5244, 24, 14, 1531000991.006, 39, 0, 1024, 1024, 1024, 1024, 0, 6, 4007, 4014, 4017, 4048, 4058, 4008, 0, 1, 13500, -89.900, 0.000, 97.600, 0.000, 0.000, -2.900, 0.0, , , , , , 94, , , 0, 0, 0
38.5374383, -120.3487291, 23.900, 15:03:11.105, 11, 0.00, 0.02, 97, 0.900, 1.100, 98.000, 2, 100, 98, 33, 24138, -18632, 5086, 5244, 24, 14, 1531000991.105, 10, 0, 1024, 1024, 1024, 1024, 0, 6, 4007, 4014, 4017, 4048, 4058, 4008, 0, 1, 13599, -89.900, 0.000, 97.600, 0.000, 0.000, -2.900, 0.0, , , , , , 94, , , 0, 0, 0
38.5374382, -120.3487292, 24.200, 15:03:11.205, 11, 0.00, 0.02, 97, 0.800, 1.100, 97.900, 2, 100, 98, 33, 24138, -18632, 5086, 5244, 24, 14, 1531000991.205, 41, 0, 1024, 1024, 1024, 1024, 0, 6, 4007, 4014, 4017, 4048, 4058, 4008, 0, 1, 13699, -89.900, 0.000, 97.600, 0.000, 0.000, -3.000, 0.0, , , , , , 94, , , 0, 0, 0
38.5374381, -120.3487292, 24.500, 15:03:11.306, 11, 0.00, 0.03, 97, 0.700, 1.100, 97.800, 2, 100, 98, 33, 24138, -18632, 5086, 5244, 24, 14, 1531000991.306, 9, 0, 1024, 1024, 1024, 1024, 0, 6, 4007, 4014, 4017, 4048, 4058, 4008, 0, 1, 13800, -89.900, 0.000, 97.600, 0.000, 0.000, -2.900, 0.0, , , , , , 94, , , 0, 0, 0
38.5374381, -120.3487291, 24.800, 15:03:11.406, 11, 0.00, 0.03, 97, 0.600, 1.300, 97.800, 2, 100, 98, 33, 24115, -18787, 5086, 5244, 24, 14, 1531000991.406, 2, 0, 1024, 1024, 1024, 1024, 0, 6, 3997, 4010, 4007, 4046, 4044, 4005, 0, 1, 13900, -89.900, 0.000, 97.600, 0.000, 0.000, -2.900, 0.0, , , , , , 94, , , 0, 0, 0
38.5374381, -120.3487291, 25.100, 15:03:11.507, 11, 0.00, 0.04, 97, 0.600, 1.500, 97.800, 2, 100, 98, 33, 24115, -18787, 5086, 5244, 24, 14, 1531000991.507, 4, 0, 1024, 1024, 1024, 1024, 0, 6, 3997, 4010, 4007, 4046, 4044, 4005, 0, 1, 14001, -89.900, 0.000, 97.600, 0.000, 0.000, -2.900, 0.0, , , , , , 94, , , 0, 0, 0
38.5374380, -120.3487291, 25.400, 15:03:11.606, 11, 0.00, 0.05, 97, 0.400, 1.600, 97.900, 2, 100, 98, 33, 24115, -18787, 5086, 5244, 24, 14, 1531000991.606, 8, 0, 1024, 1024, 1024, 1024, 0, 6, 3997, 4010, 4007, 4046, 4044, 4005, 0, 1, 14100, -89.900, 0.000, 97.600, 0.000, 0.000, -2.900, 0.0, , , , , , 94, , , 0, 0, 0
38.5374379, -120.3487290, 25.700, 15:03:11.705, 11, 0.00, 0.05, 97, 0.300, 1.800, 98.000, 2, 100, 98, 33, 24115, -18787, 5086, 5244, 24, 14, 1531000991.705, 9, 0, 1024, 1024, 1024, 1024, 0, 6, 3997, 4010, 4007, 4046, 4044, 4005, 0, 1, 14199, -89.900, 0.000, 97.600, 0.000, 0.000, -2.900, 0.0, , , , , , 94, , , 0, 0, 0
38.5374379, -120.3487290, 26.300, 15:03:11.808, 11, 0.00, 0.06, 97, 0.300, 1.800, 98.400, 2, 100, 98, 33, 24115, -18787, 5086, 5244, 24, 14, 1531000991.809, 2, 0, 1024, 1024, 1024, 1024, 0, 6, 3997, 4010, 4007, 4046, 4044, 4005, 0, 1, 14303, -89.900, 0.000, 97.600, 0.000, 0.000, -3.000, 0.0, , , , , , 94, , , 0, 0, 0
38.5374379, -120.3487290, 26.300, 15:03:11.905, 11, 0.00, 0.06, 97, 0.300, 1.800, 98.400, 2, 100, 100, 33, 24115, -18787, 5086, 5244, 24, 14, 1531000991.905, 98, 0, 1024, 1024, 1024, 1024, 0, 6, 3997, 4010, 4007, 4046, 4044, 4005, 0, 1, 14399, -89.900, 0.000, 97.600, 0.000, 0.000, -3.000, 0.0, , , , , , 94, , , 0, 0, 0
38.5374379, -120.3487290, 26.300, 15:03:12.006, 11, 0.00, 0.06, 97, 0.300, 1.800, 98.400, 2, 100, 100, 33, 24115, -18787, 5086, 5244, 24, 14, 1531000992.006, 199, 0, 1024, 1024, 1024, 1024, 0, 6, 3997, 4010, 4007, 4046, 4044, 4005, 0, 1, 14500, -89.900, 0.000, 97.600, 0.000, 0.000, -3.000, 0.0, , , , , , 94, , , 0, 0, 0
38.5374379, -120.3487291, 27.200, 15:03:12.106, 11, 0.00, 0.06, 97, 0.700, 1.300, 98.500, 2, 100, 100, 33, 24115, -18787, 5086, 5244, 24, 14, 1531000992.106, 2, 0, 1024, 1024, 1024, 1024, 0, 6, 3997, 4010, 4007, 4046, 4044, 4005, 0, 1, 14600, -90.000, 0.000, 97.600, 0.000, 0.000, -2.900, 0.0, , , , , , 94, , , 0, 0, 0
38.5374379, -120.3487291, 27.200, 15:03:12.205, 11, 0.00, 0.06, 97, 0.700, 1.300, 98.500, 2, 100, 100, 33, 24115, -18787, 5086, 5244, 24, 14, 1531000992.205, 102, 0, 1024, 1024, 1024, 1024, 0, 6, 3997, 4010, 4007, 4046, 4044, 4005, 0, 1, 14699, -90.000, 0.000, 97.600, 0.000, 0.000, -2.900, 0.0, , , , , , 94, , , 0, 0, 0
38.5374378, -120.3487292, 27.500, 15:03:12.305, 11, 0.00, 0.06, 97, 0.700, 1.400, 98.400, 2, 100, 100, 33, 24115, -18787, 5086, 5244, 24, 14, 1531000992.305, 89, 0, 1024, 1024, 1024, 1024, 0, 6, 3997, 4010, 4007, 4046, 4044, 4005, 0, 1, 14799, -89.900, 0.000, 97.600, 0.000, 0.000, -2.800, 0.0, , , , , , 94, , , 0, 0, 0
38.5374379, -120.3487292, 27.800, 15:03:12.406, 11, 0.00, 0.06, 97, 1.000, 1.600, 98.200, 2, 100, 100, 33, 24088, -18645, 5086, 5244, 24, 14, 1531000992.406, 81, 0, 1024, 1024, 1024, 1024, 0, 6, 3987, 4012, 4002, 4042, 4043, 3998, 0, 1, 14900, -89.900, 0.000, 97.600, 0.000, 0.000, -2.800, 0.0, , , , , , 94, , , 0, 0, 0
38.5374379, -120.3487291, 28.000, 15:03:12.506, 11, 0.00, 0.06, 97, 1.100, 1.600, 98.100, 2, 100, 100, 33, 24088, -18645, 5086, 5244, 24, 14, 1531000992.506, 96, 0, 1024, 1024, 1024, 1024, 0, 6, 3987, 4012, 4002, 4042, 4043, 3998, 0, 1, 15000, -89.900, 0.000, 97.600, 0.000, 0.000, -2.800, 0.0, , , , , , 94, , , 0, 0, 0
38.5374379, -120.3487291, 28.300, 15:03:12.606, 11, 0.00, 0.06, 97, 1.000, 1.400, 98.100, 2, 100, 100, 33, 24088, -18645, 5086, 5244, 24, 14, 1531000992.606, 84, 0, 1024, 1024, 1024, 1024, 0, 6, 3987, 4012, 4002, 4042, 4043, 3998, 0, 1, 15100, -89.900, 0.000, 97.600, 0.000, 0.000, -2.800, 0.0, , , , , , 94, , , 0, 0, 0
38.5374379, -120.3487291, 28.600, 15:03:12.705, 11, 0.00, 0.06, 97, 1.000, 1.300, 98.100, 2, 100, 100, 33, 24088, -18645, 5086, 5244, 24, 14, 1531000992.705, 75, 0, 1024, 1024, 1024, 1024, 0, 6, 3987, 4012, 4002, 4042, 4043, 3998, 0, 1, 15199, -89.900, 0.000, 97.600, 0.000, 0.000, -2.800, 0.0, , , , , , 94, , , 0, 0, 0
38.5374379, -120.3487291, 28.900, 15:03:12.806, 11, 0.00, 0.05, 97, 1.100, 1.400, 98.100, 2, 100, 100, 33, 24088, -18645, 5086, 5244, 24, 14, 1531000992.806, 79, 0, 1024, 1024, 1024, 1024, 0, 6, 3987, 4012, 4002, 4042, 4043, 3998, 0, 1, 15300, -89.900, 0.000, 97.600, 0.000, 0.000, -2.900, 0.0, , , , , , 94, , , 0, 0, 0
38.5374379, -120.3487291, 29.200, 15:03:12.906, 11, 0.00, 0.05, 97, 1.200, 1.700, 98.200, 2, 100, 100, 33, 24088, -18645, 5086, 5244, 24, 14, 1531000992.906, 69, 0, 1024, 1024, 1024, 1024, 0, 6, 3987, 4012, 4002, 4042, 4043, 3998, 0, 1, 15400, -89.900, 0.000, 97.600, 0.000, 0.000, -2.900, 0.0, , , , , , 94, , , 0, 0, 0
38.5374380, -120.3487290, 29.500, 15:03:13.006, 11, 0.00, 0.05, 97, 1.300, 1.900, 98.200, 2, 100, 100, 33, 24088, -18645, 5086, 5244, 24, 14, 1531000993.006, 72, 0, 1024, 1024, 1024, 1024, 0, 6, 3987, 4012, 4002, 4042, 4043, 3998, 0, 1, 15500, -89.900, 0.000, 97.600, 0.000, 0.000, -2.900, 0.0, , , , , , 94, , , 0, 0, 0
38.5374380, -120.3487290, 29.800, 15:03:13.106, 11, 0.00, 0.05, 97, 1.300, 1.900, 98.200, 2, 100, 100, 33, 24088, -18645, 5086, 5244, 24, 14, 1531000993.106, 52, 0, 1024, 1024, 1024, 1024, 0, 6, 3987, 4012, 4002, 4042, 4043, 3998, 0, 1, 15600, -89.900, 0.000, 97.600, 0.000, 0.000, -2.800, 0.0, , , , , , 94, , , 0, 0, 0
38.5374381, -120.3487290, 30.100, 15:03:13.205, 11, 0.00, 0.05, 97, 1.300, 1.900, 98.200, 2, 100, 100, 33, 24088, -18645, 5086, 5244, 24, 14, 1531000993.205, 64, 0, 1024, 1024, 1024, 1024, 0, 6, 3987, 4012, 4002, 4042, 4043, 3998, 0, 1, 15699, -89.900, 0.000, 97.600, 0.000, 0.000, -2.900, 0.0, , , , , , 94, , , 0, 0, 0
38.5374381, -120.3487290, 30.400, 15:03:13.306, 11, 0.00, 0.04, 97, 1.400, 2.000, 98.300, 2, 100, 100, 33, 24088, -18645, 5086, 5244, 24, 14, 1531000993.306, 42, 0, 1024, 1024, 1024, 1024, 0, 6, 3987, 4012, 4002, 4042, 4043, 3998, 0, 1, 15800, -89.900, 0.000, 97.600, 0.000, 0.000, -3.000, 0.0, , , , , , 94, , , 0, 0, 0
38.5374381, -120.3487289, 30.700, 15:03:13.406, 11, 0.00, 0.04, 97, 1.500, 2.000, 98.300, 2, 100, 100, 33, 24054, -18668, 5086, 5244, 24, 14, 1531000993.406, 32, 0, 1024, 1024, 1024, 1024, 0, 6, 3987, 4012, 4002, 4042, 4043, 3998, 0, 1, 15900, -89.900, 0.000, 97.600, 0.000, 0.000, -3.000, 0.0, , , , , , 94, , , 0, 0, 0
38.5374382, -120.3487289, 31.000, 15:03:13.506, 11, 0.00, 0.04, 97, 1.600, 2.100, 98.300, 2, 100, 100, 33, 24054, -18668, 5086, 5244, 24, 14, 1531000993.506, 32, 0, 1024, 1024, 1024, 1024, 0, 6, 3987, 4012, 4002, 4042, 4043, 3998, 0, 1, 16000, -89.900, 0.000, 97.600, 0.000, 0.000, -3.000, 0.0, , , , , , 94, , , 0, 0, 0
38.5374382, -120.3487288, 31.300, 15:03:13.606, 11, 0.00, 0.05, 97, 1.500, 2.300, 98.300, 2, 100, 100, 33, 24054, -18668, 5086, 5244, 24, 14, 1531000993.606, 38, 0, 1024, 1024, 1024, 1024, 0, 6, 3987, 4012, 4002, 4042, 4043, 3998, 0, 1, 16100, -89.900, 0.000, 97.600, 0.000, 0.000, -2.900, 0.0, , , , , , 94, , , 0, 0, 0
38.5374382, -120.3487288, 31.600, 15:03:13.705, 11, 0.00, 0.05, 97, 1.500, 2.400, 98.300, 2, 100, 100, 33, 24054, -18668, 5086, 5244, 24, 14, 1531000993.705, 34, 0, 1024, 1024, 1024, 1024, 0, 6, 3987, 4012, 4002, 4042, 4043, 3998, 0, 1, 16199, -89.900, 0.000, 97.600, 0.000, 0.000, -2.900, 0.0, , , , , , 94, , , 0, 0, 0
38.5374381, -120.3487288, 31.900, 15:03:13.806, 11, 0.00, 0.06, 97, 1.400, 2.500, 98.300, 2, 100, 100, 33, 24054, -18668, 5086, 5244, 24, 14, 1531000993.806, 10, 0, 1024, 1024, 1024, 1024, 0, 6, 3987, 4012, 4002, 4042, 4043, 3998, 0, 1, 16300, -89.900, 0.000, 97.600, 0.000, 0.000, -2.900, 0.0, , , , , , 94, , , 0, 0, 0
38.5374381, -120.3487287, 32.200, 15:03:13.905, 11, 0.00, 0.06, 97, 1.400, 2.500, 98.200, 2, 100, 100, 33, 24054, -18668, 5086, 5244, 24, 14, 1531000993.906, 10, 0, 1024, 1024, 1024, 1024, 0, 6, 3989, 4007, 3993, 4031, 4040, 3985, 0, 1, 16400, -89.900, 0.000, 97.600, 0.000, 0.000, -2.900, 0.0, , , , , , 94, , , 0, 0, 0
38.5374381, -120.3487287, 32.500, 15:03:14.005, 11, 0.00, 0.06, 97, 1.200, 2.400, 98.200, 2, 100, 100, 33, 24054, -18668, 5086, 5244, 24, 14, 1531000994.005, 3, 0, 1024, 1024, 1024, 1024, 0, 6, 3989, 4007, 3993, 4031, 4040, 3985, 0, 1, 16499, -89.900, 0.000, 97.600, 0.000, 0.000, -2.900, 0.0, , , , , , 94, , , 0, 0, 0
38.5374381, -120.3487287, 32.800, 15:03:14.115, 11, 0.00, 0.06, 97, 1.100, 2.300, 98.100, 2, 100, 100, 33, 24054, -18668, 5086, 5244, 24, 14, 1531000994.115, 1, 0, 1024, 1024, 1024, 1024, 0, 6, 3989, 4007, 3993, 4031, 4040, 3985, 0, 1, 16609, -89.900, 0.000, 97.600, 0.000, 0.000, -2.800, 0.0, , , , , , 94, , , 0, 0, 0
38.5374382, -120.3487287, 33.400, 15:03:14.205, 11, 0.00, 0.06, 97, 1.300, 2.200, 98.100, 2, 100, 100, 33, 24054, -18668, 5086, 5244, 24, 14, 1531000994.205, 3, 0, 1024, 1024, 1024, 1024, 0, 6, 3989, 4007, 3993, 4031, 4040, 3985, 0, 1, 16699, -89.900, 0.000, 97.600, 0.000, 0.000, -2.900, 0.0, , , , , , 94, , , 0, 0, 0
38.5374382, -120.3487287, 33.400, 15:03:14.306, 11, 0.00, 0.06, 97, 1.300, 2.200, 98.100, 2, 100, 100, 33, 24054, -18668, 5086, 5244, 24, 14, 1531000994.306, 104, 0, 1024, 1024, 1024, 1024, 0, 6, 3989, 4007, 3993, 4031, 4040, 3985, 0, 1, 16800, -89.900, 0.000, 97.600, 0.000, 0.000, -2.900, 0.0, , , , , , 94, , , 0, 0, 0
38.5374382, -120.3487287, 33.700, 15:03:14.405, 11, 0.00, 0.06, 97, 1.500, 2.100, 98.200, 2, 100, 100, 33, 24054, -18668, 5086, 5244, 24, 14, 1531000994.405, 94, 0, 1024, 1024, 1024, 1024, 0, 6, 3989, 4007, 3993, 4031, 4040, 3985, 0, 1, 16899, -89.900, 0.000, 97.600, 0.000, 0.000, -2.800, 0.0, , , , , , 94, , , 0, 0, 0
38.5374382, -120.3487287, 34.000, 15:03:14.505, 11, 0.00, 0.05, 97, 1.700, 2.000, 98.300, 2, 100, 100, 33, 24054, -18668, 5086, 5244, 24, 14, 1531000994.505, 73, 0, 1024, 1024, 1024, 1024, 0, 6, 3989, 4007, 3993, 4031, 4040, 3985, 0, 1, 16999, -89.900, 0.000, 97.600, 0.000, 0.000, -2.900, 0.0, , , , , , 94, , , 0, 0, 0
38.5374383, -120.3487287, 34.300, 15:03:14.605, 11, 0.00, 0.05, 97, 2.000, 2.100, 98.300, 2, 100, 100, 33, 24054, -18668, 5086, 5244, 24, 14, 1531000994.606, 82, 0, 1024, 1024, 1024, 1024, 0, 6, 3989, 4007, 3993, 4031, 4040, 3985, 0, 1, 17100, -89.900, 0.000, 97.600, 0.000, 0.000, -2.900, 0.0, , , , , , 94, , , 0, 0, 0
38.5374383, -120.3487287, 34.600, 15:03:14.705, 11, 0.00, 0.05, 97, 2.200, 2.200, 98.300, 2, 100, 100, 33, 24054, -18668, 5086, 5244, 24, 14, 1531000994.705, 94, 0, 1024, 1024, 1024, 1024, 0, 6, 3989, 4007, 3993, 4031, 4040, 3985, 0, 1, 17199, -89.900, 0.000, 97.600, 0.000, 0.000, -2.900, 0.0, , , , , , 94, , , 0, 0, 0
38.5374384, -120.3487287, 34.900, 15:03:14.806, 11, 0.00, 0.05, 97, 2.200, 2.200, 98.200, 2, 100, 100, 33, 24054, -18668, 5086, 5244, 24, 14, 1531000994.806, 75, 0, 1024, 1024, 1024, 1024, 0, 6, 3989, 4007, 3993, 4031, 4040, 3985, 0, 1, 17300, -89.900, 0.000, 97.600, 0.000, 0.000, -2.900, 0.0, , , , , , 94, , , 0, 0, 0
38.5374384, -120.3487288, 35.200, 15:03:14.905, 11, 0.00, 0.05, 97, 2.100, 2.000, 98.100, 2, 100, 100, 33, 23974, -19669, 5086, 5244, 24, 14, 1531000994.905, 76, 0, 1024, 1024, 1024, 1024, 0, 6, 3974, 3988, 3985, 4023, 4018, 3983, 0, 1, 17399, -89.900, 0.000, 97.600, 0.000, 0.000, -3.000, 0.0, , , , , , 94, , , 0, 0, 0
38.5374384, -120.3487288, 35.500, 15:03:15.005, 11, 0.00, 0.05, 97, 2.000, 1.900, 98.100, 2, 100, 100, 33, 23974, -19669, 5086, 5244, 24, 14, 1531000995.006, 65, 0, 1024, 1024, 1024, 1024, 0, 6, 3974, 3988, 3985, 4023, 4018, 3983, 0, 1, 17500, -89.900, 0.000, 97.600, 0.000, 0.000, -2.900, 0.0, , , , , , 94, , , 0, 0, 0
38.5374384, -120.3487287, 35.800, 15:03:15.105, 11, 0.00, 0.05, 97, 1.900, 1.800, 98.100, 2, 100, 100, 33, 23974, -19669, 5086, 5244, 24, 14, 1531000995.106, 59, 0, 1024, 1024, 1024, 1024, 0, 6, 3974, 3988, 3985, 4023, 4018, 3983, 0, 1, 17600, -89.900, 0.000, 97.600, 0.000, 0.000, -2.900, 0.0, , , , , , 94, , , 0, 0, 0
38.5374384, -120.3487288, 36.100, 15:03:15.205, 11, 0.00, 0.05, 97, 1.700, 1.800, 98.100, 2, 100, 100, 33, 23974, -19669, 5086, 5244, 24, 14, 1531000995.205, 65, 0, 1024, 1024, 1024, 1024, 0, 6, 3974, 3988, 3985, 4023, 4018, 3983, 0, 1, 17699, -89.900, 0.000, 97.600, 0.000, 0.000, -2.800, 0.0, , , , , , 94, , , 0, 0, 0
38.5374384, -120.3487288, 36.400, 15:03:15.305, 11, 0.00, 0.05, 97, 1.600, 1.900, 98.300, 2, 100, 100, 33, 23974, -19669, 5086, 5244, 24, 14, 1531000995.306, 68, 0, 1024, 1024, 1024, 1024, 0, 6, 3974, 3988, 3985, 4023, 4018, 3983, 0, 1, 17800, -89.900, 0.000, 97.600, 0.000, 0.000, -2.900, 0.0, , , , , , 94, , , 0, 0, 0
38.5374384, -120.3487288, 36.700, 15:03:15.405, 11, 0.00, 0.05, 97, 1.600, 2.000, 98.300, 2, 100, 100, 33, 23974, -19669, 5086, 5244, 24, 14, 1531000995.406, 69, 0, 1024, 1024, 1024, 1024, 0, 6, 3974, 3988, 3985, 4023, 4018, 3983, 0, 1, 17900, -89.900, 0.000, 97.600, 0.000, 0.000, -2.900, 0.0, , , , , , 94, , , 0, 0, 0
38.5374384, -120.3487287, 37.000, 15:03:15.505, 11, 0.00, 0.05, 97, 1.700, 2.200, 98.300, 2, 100, 100, 33, 23974, -19669, 5086, 5244, 24, 14, 1531000995.506, 49, 0, 1024, 1024, 1024, 1024, 0, 6, 3974, 3988, 3985, 4023, 4018, 3983, 0, 1, 18000, -89.900, 0.000, 97.600, 0.000, 0.000, -3.000, 0.0, , , , , , 94, , , 0, 0, 0
38.5374383, -120.3487287, 37.300, 15:03:15.604, 11, 0.00, 0.06, 97, 1.600, 2.700, 98.300, 2, 100, 100, 33, 23974, -19669, 5086, 5244, 24, 14, 1531000995.605, 39, 0, 1024, 1024, 1024, 1024, 0, 6, 3974, 3988, 3985, 4023, 4018, 3983, 0, 1, 18099, -89.900, 0.000, 97.600, 0.000, 0.000, -3.000, 0.0, , , , , , 94, , , 0, 0, 0
38.5374383, -120.3487287, 37.300, 15:03:15.705, 11, 0.00, 0.06, 97, 1.600, 2.700, 98.300, 2, 100, 100, 33, 23974, -19669, 5086, 5244, 24, 14, 1531000995.705, 140, 0, 1024, 1024, 1024, 1024, 0, 6, 3974, 3988, 3985, 4023, 4018, 3983, 0, 1, 18199, -89.900, 0.000, 97.600, 0.000, 0.000, -3.000, 0.0, , , , , , 94, , , 0, 0, 0
38.5374383, -120.3487286, 37.900, 15:03:15.805, 11, 0.00, 0.07, 97, 1.500, 3.200, 98.400, 2, 100, 100, 33, 23974, -19669, 5086, 5244, 24, 14, 1531000995.806, 35, 0, 1024, 1024, 1024, 1024, 0, 6, 3974, 3988, 3985, 4023, 4018, 3983, 0, 1, 18300, -89.900, 0.000, 97.600, 0.000, 0.000, -3.000, 0.0, , , , , , 94, , , 0, 0, 0
38.5374383, -120.3487285, 38.200, 15:03:15.905, 11, 0.00, 0.07, 97, 1.600, 3.300, 98.400, 2, 100, 100, 33, 23932, -20180, 5086, 5244, 24, 14, 1531000995.905, 20, 0, 1024, 1024, 1024, 1024, 0, 6, 3974, 3980, 3979, 4022, 4021, 3967, 0, 1, 18399, -89.900, 0.000, 97.600, 0.000, 0.000, -3.000, 0.0, , , , , , 94, , , 0, 0, 0
38.5374383, -120.3487285, 38.500, 15:03:16.005, 11, 0.00, 0.07, 97, 1.600, 3.100, 98.400, 2, 100, 97, 33, 23932, -20180, 5086, 5244, 24, 14, 1531000996.006, 14, 0, 1024, 1024, 1024, 1024, 0, 6, 3974, 3980, 3979, 4022, 4021, 3967, 0, 1, 18500, -89.900, 0.000, 97.600, 0.000, 0.000, -3.000, 0.0, , , , , , 94, , , 0, 0, 0
38.5374383, -120.3487285, 38.800, 15:03:16.105, 11, 0.00, 0.08, 97, 1.800, 2.900, 98.300, 2, 100, 97, 33, 23932, -20180, 5086, 5244, 24, 14, 1531000996.106, 20, 0, 1024, 1024, 1024, 1024, 0, 6, 3974, 3980, 3979, 4022, 4021, 3967, 0, 1, 18600, -89.900, 0.000, 97.600, 0.000, 0.000, -2.900, 0.0, , , , , , 94, , , 0, 0, 0
38.5374383, -120.3487285, 39.100, 15:03:16.205, 11, 0.00, 0.07, 97, 2.200, 2.700, 98.300, 2, 100, 97, 33, 23932, -20180, 5086, 5244, 24, 14, 1531000996.205, 10, 0, 1024, 1024, 1024, 1024, 0, 6, 3974, 3980, 3979, 4022, 4021, 3967, 0, 1, 18699, -89.900, 0.000, 97.600, 0.000, 0.000, -2.900, 0.0, , , , , , 94, , , 0, 0, 0
38.5374384, -120.3487285, 39.400, 15:03:16.305, 11, 0.00, 0.07, 97, 2.100, 2.700, 98.200, 2, 100, 97, 33, 23932, -20180, 5086, 5244, 24, 14, 1531000996.306, 2, 0, 1024, 1024, 1024, 1024, 0, 6, 3974, 3980, 3979, 4022, 4021, 3967, 0, 1, 18800, -89.900, 0.000, 97.600, 0.000, 0.000, -2.900, 0.0, , , , , , 94, , , 0, 0, 0
38.5374384, -120.3487286, 39.700, 15:03:16.405, 11, 0.00, 0.07, 97, 2.000, 2.500, 98.100, 2, 100, 97, 33, 23932, -20180, 5086, 5244, 24, 14, 1531000996.406, 6, 0, 1024, 1024, 1024, 1024, 0, 6, 3974, 3980, 3979, 4022, 4021, 3967, 0, 1, 18900, -89.900, 0.000, 97.600, 0.000, 0.000, -2.900, 0.0, , , , , , 94, , , 0, 0, 0
38.5374384, -120.3487286, 39.700, 15:03:16.505, 11, 0.00, 0.07, 97, 2.000, 2.500, 98.100, 2, 100, 97, 33, 23932, -20180, 5086, 5244, 24, 14, 1531000996.506, 106, 0, 1024, 1024, 1024, 1024, 0, 6, 3974, 3980, 3979, 4022, 4021, 3967, 0, 1, 19000, -89.900, 0.000, 97.600, 0.000, 0.000, -2.900, 0.0, , , , , , 94, , , 0, 0, 0
38.5374384, -120.3487286, 40.300, 15:03:16.605, 11, 0.00, 0.06, 97, 1.800, 2.100, 98.400, 2, 100, 97, 33, 23932, -20180, 5086, 5244, 24, 14, 1531000996.606, 83, 0, 1024, 1024, 1024, 1024, 0, 6, 3974, 3980, 3979, 4022, 4021, 3967, 0, 1, 19100, -89.900, 0.000, 97.600, 0.000, 0.000, -3.000, 0.0, , , , , , 94, , , 0, 0, 0
38.5374384, -120.3487286, 40.600, 15:03:16.705, 11, 0.00, 0.06, 97, 2.000, 2.200, 98.500, 2, 100, 97, 33, 23932, -20180, 5086, 5244, 24, 14, 1531000996.705, 65, 0, 1024, 1024, 1024, 1024, 0, 6, 3974, 3980, 3979, 4022, 4021, 3967, 0, 1, 19199, -89.900, 0.000, 97.600, 0.000, 0.000, -2.900, 0.0, , , , , , 94, , , 0, 0, 0
38.5374384, -120.3487286, 40.900, 15:03:16.805, 11, 0.10, 0.06, 97, 2.300, 2.400, 98.600, 2, 100, 97, 33, 23932, -20180, 5086, 5244, 24, 14, 1531000996.806, 99, 0, 1024, 1024, 1024, 1024, 0, 6, 3974, 3980, 3979, 4022, 4021, 3967, 0, 1, 19300, -89.900, 0.000, 97.600, 0.100, 0.000, -2.900, 0.0, , , , , , 94, , , 0, 0, 0
38.5374385, -120.3487286, 41.200, 15:03:16.905, 11, 0.10, 0.07, 97, 2.600, 2.500, 98.400, 2, 100, 97, 33, 23941, -19361, 5086, 5244, 24, 14, 1531000996.905, 82, 0, 1024, 1024, 1024, 1024, 0, 6, 3968, 3979, 3980, 4012, 4013, 3969, 0, 1, 19399, -89.900, 0.000, 97.600, 0.100, 0.000, -2.900, 0.0, , , , , , 94, , , 0, 0, 0
38.5374385, -120.3487286, 41.500, 15:03:17.005, 11, 0.00, 0.07, 97, 2.700, 2.500, 98.200, 2, 100, 96, 33, 23941, -19361, 5086, 5244, 24, 14, 1531000997.006, 65, 0, 1024, 1024, 1024, 1024, 0, 6, 3968, 3979, 3980, 4012, 4013, 3969, 0, 1, 19500, -89.900, 0.000, 97.600, 0.000, 0.000, -2.900, 0.0, , , , , , 94, , , 0, 0, 0
38.5374385, -120.3487286, 41.800, 15:03:17.105, 11, 0.00, 0.07, 97, 2.600, 2.500, 98.000, 2, 100, 96, 33, 23941, -19361, 5086, 5244, 24, 14, 1531000997.106, 69, 0, 1024, 1024, 1024, 1024, 0, 6, 3968, 3979, 3980, 4012, 4013, 3969, 0, 1, 19600, -89.900, 0.000, 97.600, 0.000, 0.000, -2.900, 0.0, , , , , , 94, , , 0, 0, 0
38.5374385, -120.3487286, 42.100, 15:03:17.205, 11, 0.00, 0.07, 97, 2.400, 2.500, 97.700, 2, 100, 96, 33, 23941, -19361, 5086, 5244, 24, 14, 1531000997.205, 55, 0, 1024, 1024, 1024, 1024, 0, 6, 3968, 3979, 3980, 4012, 4013, 3969, 0, 1, 19699, -89.900, 0.000, 97.600, 0.000, 0.000, -2.900, 0.0, , , , , , 94, , , 0, 0, 0
38.5374384, -120.3487285, 42.400, 15:03:17.305, 11, 0.00, 0.07, 97, 2.100, 2.600, 97.600, 2, 100, 96, 33, 23941, -19361, 5086, 5244, 24, 14, 1531000997.305, 69, 0, 1024, 1024, 1024, 1024, 0, 6, 3968, 3979, 3980, 4012, 4013, 3969, 0, 1, 19799, -89.900, 0.000, 97.600, 0.000, 0.000, -3.000, 0.0, , , , , , 94, , , 0, 0, 0
38.5374384, -120.3487285, 42.700, 15:03:17.405, 11, 0.00, 0.07, 97, 2.000, 2.600, 97.500, 2, 100, 96, 33, 23941, -19361, 5086, 5244, 24, 14, 1531000997.405, 59, 0, 1024, 1024, 1024, 1024, 0, 6, 3968, 3979, 3980, 4012, 4013, 3969, 0, 1, 19900, -89.900, 0.000, 97.600, 0.000, 0.000, -3.000, 0.0, , , , , , 94, , , 0, 0, 0
38.5374383, -120.3487285, 43.000, 15:03:17.505, 11, 0.00, 0.07, 97, 1.900, 2.700, 97.600, 2, 100, 99, 33, 23941, -19361, 5086, 5244, 24, 14, 1531000997.505, 40, 0, 1024, 1024, 1024, 1024, 0, 6, 3968, 3979, 3980, 4012, 4013, 3969, 0, 1, 20000, -89.900, 0.000, 97.600, 0.000, 0.000, -2.900, 0.0, , , , , , 94, , , 0, 0, 0
38.5374383, -120.3487285, 43.300, 15:03:17.605, 11, 0.00, 0.07, 97, 1.900, 2.600, 97.800, 2, 100, 99, 33, 23941, -19361, 5086, 5244, 24, 14, 1531000997.605, 31, 0, 1024, 1024, 1024, 1024, 0, 6, 3968, 3979, 3980, 4012, 4013, 3969, 0, 1, 20100, -89.900, 0.000, 97.600, 0.000, 0.000, -3.000, 0.0, , , , , , 94, , , 0, 0, 0
38.5374382, -120.3487286, 43.600, 15:03:17.705, 11, 0.00, 0.07, 97, 1.800, 2.500, 98.000, 2, 100, 99, 33, 23941, -19361, 5086, 5244, 24, 14, 1531000997.705, 34, 0, 1024, 1024, 1024, 1024, 0, 6, 3968, 3979, 3980, 4012, 4013, 3969, 0, 1, 20199, -89.900, 0.000, 97.600, 0.000, 0.000, -2.900, 0.0, , , , , , 94, , , 0, 0, 0
38.5374381, -120.3487285, 43.900, 15:03:17.805, 11, 0.00, 0.07, 97, 1.600, 2.500, 98.200, 2, 100, 99, 33, 23941, -19361, 5086, 5244, 24, 14, 1531000997.805, 35, 0, 1024, 1024, 1024, 1024, 0, 6, 3968, 3979, 3980, 4012, 4013, 3969, 0, 1, 20299, -89.900, 0.000, 97.600, 0.000, 0.000, -2.900, 0.0, , , , , , 94, , , 0, 0, 0
38.5374381, -120.3487285, 44.200, 15:03:17.905, 11, 0.00, 0.08, 97, 1.200, 2.300, 98.400, 2, 100, 99, 33, 23884, -19650, 5034, 5244, 24, 14, 1531000997.905, 40, 0, 1024, 1024, 1024, 1024, 0, 6, 3957, 3968, 3977, 4008, 4006, 3976, 0, 1, 20400, -90.000, 0.000, 97.600, 0.000, 0.000, -3.000, 0.0, , , , , , 94, , , 0, 0, 0
38.5374380, -120.3487285, 44.500, 15:03:18.005, 11, 0.00, 0.08, 97, 1.000, 2.400, 98.600, 2, 100, 99, 33, 23884, -19650, 5034, 5244, 24, 14, 1531000998.005, 33, 0, 1024, 1024, 1024, 1024, 0, 6, 3957, 3968, 3977, 4008, 4006, 3976, 0, 1, 20500, -89.900, 0.000, 97.600, 0.000, 0.000, -3.000, 0.0, , , , , , 94, , , 0, 0, 0
38.5374379, -120.3487285, 44.800, 15:03:18.104, 11, 0.00, 0.09, 97, 1.000, 2.700, 98.800, 2, 100, 99, 33, 23884, -19650, 5034, 5244, 24, 14, 1531000998.105, 27, 0, 1024, 1024, 1024, 1024, 0, 6, 3957, 3968, 3977, 4008, 4006, 3976, 0, 1, 20599, -89.900, 0.000, 97.600, 0.000, 0.000, -3.000, 0.0, , , , , , 94, , , 0, 0, 0
38.5374379, -120.3487285, 45.100, 15:03:18.205, 11, 0.00, 0.09, 97, 1.200, 2.900, 98.900, 2, 100, 99, 33, 23884, -19650, 5034, 5244, 24, 14, 1531000998.205, 22, 0, 1024, 1024, 1024, 1024, 0, 6, 3957, 3968, 3977, 4008, 4006, 3976, 0, 1, 20699, -89.900, 0.000, 97.600, 0.000, 0.000, -3.000, 0.0, , , , , , 94, , , 0, 0, 0
38.5374378, -120.3487285, 45.400, 15:03:18.305, 11, 0.00, 0.09, 97, 1.400, 3.100, 98.900, 2, 100, 99, 33, 23884, -19650, 5034, 5244, 24, 14, 1531000998.305, 9, 0, 1024, 1024, 1024, 1024, 0, 6, 3957, 3968, 3977, 4008, 4006, 3976, 0, 1, 20799, -89.900, 0.000, 97.600, 0.000, 0.000, -3.100, 0.0, , , , , , 94, , , 0, 0, 0
38.5374378, -120.3487285, 45.700, 15:03:18.405, 11, 0.00, 0.10, 97, 1.600, 3.100, 98.900, 2, 100, 100, 33, 23884, -19650, 5034, 5244, 24, 14, 1531000998.405, 27, 0, 1024, 1024, 1024, 1024, 0, 6, 3957, 3968, 3977, 4008, 4006, 3976, 0, 1, 20900, -89.900, 0.000, 97.600, 0.000, 0.000, -3.000, 0.0, , , , , , 94, , , 0, 0, 0
38.5374378, -120.3487285, 45.700, 15:03:18.505, 11, 0.00, 0.10, 97, 1.600, 3.100, 98.900, 2, 100, 100, 33, 23884, -19650, 5034, 5244, 24, 14, 1531000998.505, 126, 0, 1024, 1024, 1024, 1024, 0, 6, 3957, 3968, 3977, 4008, 4006, 3976, 0, 1, 20999, -89.900, 0.000, 97.600, 0.000, 0.000, -3.000, 0.0, , , , , , 94, , , 0, 0, 0
38.5374378, -120.3487284, 46.400, 15:03:18.613, 11, 0.00, 0.10, 97, 2.100, 3.100, 98.500, 2, 100, 100, 33, 23884, -19650, 5034, 5244, 24, 14, 1531000998.613, 18, 0, 1024, 1024, 1024, 1024, 0, 6, 3957, 3968, 3977, 4008, 4006, 3976, 0, 1, 21108, -89.900, 0.000, 97.600, 0.000, 0.000, -3.000, 0.0, , , , , , 94, , , 0, 0, 0
38.5374378, -120.3487284, 47.000, 15:03:18.705, 11, 0.00, 0.10, 97, 2.200, 3.200, 98.100, 2, 100, 100, 33, 23884, -19650, 5034, 5244, 24, 14, 1531000998.705, 10, 0, 1024, 1024, 1024, 1024, 0, 6, 3957, 3968, 3977, 4008, 4006, 3976, 0, 1, 21199, -89.900, 0.000, 97.600, 0.000, 0.000, -3.000, 0.0, , , , , , 94, , , 0, 0, 0
38.5374378, -120.3487284, 47.300, 15:03:18.804, 11, 0.00, 0.10, 96, 1.900, 3.200, 98.000, 2, 100, 100, 33, 23927, -19296, 5034, 5244, 24, 14, 1531000998.805, 3, 0, 1024, 1024, 1024, 1024, 0, 6, 3957, 3968, 3977, 4008, 4006, 3976, 0, 1, 21299, -89.900, 0.000, 97.600, 0.000, 0.000, -2.900, 0.0, , , , , , 94, , , 0, 0, 0
38.5374378, -120.3487284, 47.600, 15:03:18.905, 11, 0.00, 0.10, 96, 1.800, 3.400, 97.900, 2, 100, 99, 33, 23927, -19296, 5034, 5244, 24, 14, 1531000998.905, 6, 0, 1024, 1024, 1024, 1024, 0, 6, 3957, 3968, 3977, 4008, 4006, 3976, 0, 1, 21399, -89.900, 0.000, 97.600, 0.000, 0.000, -2.900, 0.0, , , , , , 94, , , 0, 0, 0
