latitude,longitude,altitude(feet),ascent(feet),speed(mph),distance(feet),time(millisecond),datetime(utc),satellites,gpslevel,voltage(v),max_altitude(feet),max_ascent(feet),max_speed(mph),max_distance(feet), xSpeed(mph), ySpeed(mph), zSpeed(mph), compass_heading(degrees), pitch(degrees), roll(degrees),isPhoto,isVideo,rc_elevator,rc_aileron,rc_throttle,rc_rudder,gimbal_heading(degrees),gimbal_pitch(degrees),battery_percent,voltageCell1,voltageCell2,voltageCell3,voltageCell4,voltageCell5,voltageCell6,current(A),battery_temperature(f),flycStateRaw,flycState,message
38.5374689,-120.3487191,5387.7211966853,0,0,0,3030,2018-07-07 23:00:19,9,0,25.781,5387.7211966853,0,0,0,0,0,0,95.1, 2.5, 0.3,1,0,1024,1024,1024,1024,93.9,-89.9,100,4.326,4.272,4.31,4.254,4.314,4.328,2.912,87.8,11,AutoTakeoff,DJI_0125.jpg Starting Mission from Lat/Long: 38.53747/-120.34872 Camera: Zenmuse X3 - Overlap: 90/90 - Active Connection: No
38.5374689,-120.3487192,5387.7211966853,0,0.223694,0.028538550782,3200,2018-07-07 23:00:20,9,0,25.781,5387.7211966853,0,0.223694,0.028538550782,0,0,0,95.2, 1.8, 0.4,0,0,1024,1024,1024,1024,93.9,-90,100,4.326,4.272,4.31,4.254,4.314,4.328,2.912,87.8,11,AutoTakeoff,
38.5374689,-120.3487193,5387.7211966853,0,0.223694,0.057077101564,3300,2018-07-07 23:00:20,9,0,25.781,5387.7211966853,0,0.223694,0.057077101564,0,0,0,95.2, 0.8, 0.3,0,0,1024,1024,1024,1024,93.9,-90,100,4.326,4.272,4.31,4.254,4.314,4.328,2.912,87.8,11,AutoTakeoff,
38.537469,-120.3487195,5387.7211966853,0,0.223694,0.119842851604,3400,2018-07-07 23:00:20,8,0,25.781,5387.7211966853,0,0.223694,0.119842851604,0,0,0,95.3, -0.1, 0.1,0,0,1024,1024,1024,1024,94,-90,100,4.326,4.272,4.31,4.254,4.314,4.328,2.912,87.8,11,AutoTakeoff,
38.537469,-120.3487197,5388.0492806853,0.328084,0.223694,0.175075136836,3500,2018-07-07 23:00:20,8,0,25.781,5388.0492806853,0.328084,0.223694,0.175075136836,0,0,0,95.2, -0.7, 0,0,0,1024,1024,1024,1024,94,-90,100,4.326,4.272,4.31,4.254,4.314,4.328,2.912,87.8,11,AutoTakeoff,
38.5374691,-120.3487198,5388.0492806853,0.328084,0.223694,0.212679468748,3600,2018-07-07 23:00:20,9,0,25.781,5388.0492806853,0.328084,0.223694,0.212679468748,0,0,0,95.2, -1.2, 0.3,0,0,1024,1024,1024,1024,94,-90,100,4.326,4.272,4.31,4.254,4.314,4.328,2.912,87.8,11,AutoTakeoff,
38.5374692,-120.3487199,5388.3773646853,0.656168,0,0.253189968732,3700,2018-07-07 23:00:20,9,0,25.781,5388.3773646853,0.656168,0.223694,0.253189968732,0,0,0,95.1, -1.3, 0.4,0,0,1024,1024,1024,1024,94,-89.9,100,4.326,4.272,4.31,4.254,4.314,4.328,2.912,87.8,11,AutoTakeoff,
38.5374693,-120.34872,5388.3773646853,0.656168,0.223694,0.295413067196,3800,2018-07-07 23:00:20,10,0,25.781,5388.3773646853,0.656168,0.223694,0.295413067196,0,0,0,95, -1, 0.6,0,0,1024,1024,1024,1024,94,-90,100,4.326,4.272,4.31,4.254,4.314,4.328,2.912,87.8,11,AutoTakeoff,
38.5374694,-120.3487199,5388.7054486853,0.984252,0.223694,0.292238854496,3900,2018-07-07 23:00:20,10,0,25.781,5388.7054486853,0.984252,0.223694,0.295413067196,0,0,0,95, -0.6, 1,0,0,1024,1024,1024,1024,94,-89.9,100,4.326,4.272,4.31,4.254,4.314,4.328,2.912,87.8,11,AutoTakeoff,
38.5374694,-120.3487199,5388.7054486853,0.984252,0,0.292238854496,4000,2018-07-07 23:00:20,8,0,25.665,5388.7054486853,0.984252,0.223694,0.295413067196,0,0,0,95, -0.4, 1.2,0,0,1024,1024,1024,1024,94,-89.9,100,4.283,4.264,4.246,4.248,4.261,4.266,4.994,87.8,11,AutoTakeoff,
38.5374694,-120.34872,5389.0335326853,1.312336,0,0.315038395908,4100,2018-07-07 23:00:21,8,0,25.665,5389.0335326853,1.312336,0.223694,0.315038395908,0,0,-0.223694,95, -0.2, 1,0,0,1024,1024,1024,1024,94,-89.9,100,4.283,4.264,4.246,4.248,4.261,4.266,4.994,87.8,11,AutoTakeoff,
38.5374694,-120.3487201,5389.0335326853,1.312336,0,0.33870735992,4200,2018-07-07 23:00:21,8,0,25.665,5389.0335326853,1.312336,0.223694,0.33870735992,0,0,0,95, -0.1, 0.9,0,0,1024,1024,1024,1024,94,-90,100,4.283,4.264,4.246,4.248,4.261,4.266,4.994,87.8,11,AutoTakeoff,
38.5374693,-120.3487202,5389.3616166853,1.64042,0,0.34618767512,4300,2018-07-07 23:00:21,8,0,25.665,5389.3616166853,1.64042,0.223694,0.34618767512,0,0,0,95, -0.2, 0.8,0,0,1024,1024,1024,1024,94,-90,100,4.283,4.264,4.246,4.248,4.261,4.266,4.994,87.8,11,AutoTakeoff,
38.5374693,-120.3487202,5389.6897006853,1.968504,0,0.34618767512,4500,2018-07-07 23:00:21,8,0,25.665,5389.6897006853,1.968504,0.223694,0.34618767512,0,0,0,95.1, -0.3, 0.8,0,0,1024,1024,1024,1024,94,-89.9,100,4.283,4.264,4.246,4.248,4.261,4.266,4.994,87.8,11,AutoTakeoff,
38.5374695,-120.3487203,5390.0177846853,2.296588,0,0.40645014424,4600,2018-07-07 23:00:21,9,0,25.665,5390.0177846853,2.296588,0.223694,0.40645014424,0,0,-0.223694,95.1, -0.3, 0.7,0,0,1024,1024,1024,1024,94,-89.9,100,4.283,4.264,4.246,4.248,4.261,4.266,4.994,87.8,11,AutoTakeoff,
38.5374696,-120.3487202,5390.0177846853,2.296588,0,0.404691614,4700,2018-07-07 23:00:21,10,0,25.665,5390.0177846853,2.296588,0.223694,0.40645014424,0,0,0,95.1, -0.4, 0.9,0,0,1024,1024,1024,1024,94,-90,100,4.283,4.264,4.246,4.248,4.261,4.266,4.994,87.8,11,AutoTakeoff,
38.5374695,-120.3487202,5390.3458686853,2.624672,0,0.38271326684,4800,2018-07-07 23:00:21,10,0,25.665,5390.3458686853,2.624672,0.223694,0.40645014424,0,0,0,95.1, -0.3, 1,0,0,1024,1024,1024,1024,94,-90,100,4.283,4.264,4.246,4.248,4.261,4.266,4.994,87.8,11,AutoTakeoff,
38.5374695,-120.3487201,5390.3458686853,2.624672,0,0.35967520836,4900,2018-07-07 23:00:21,9,0,25.665,5390.3458686853,2.624672,0.223694,0.40645014424,0,0,0,95.2, -0.2, 0.8,0,0,1024,1024,1024,1024,94,-89.9,100,4.283,4.264,4.246,4.248,4.261,4.266,4.994,87.8,11,AutoTakeoff,
38.5374696,-120.3487201,5390.6739526853,2.952756,0,0.38297573404,5000,2018-07-07 23:00:21,9,0,24.984,5390.6739526853,2.952756,0.223694,0.40645014424,0,0,0,95.2, -0.1, 0.8,0,0,1024,1024,1024,1024,94,-89.9,100,4.175,4.164,4.154,4.144,4.179,4.164,15.25,87.8,14,Waypoint,
38.5374697,-120.3487201,5390.6739526853,2.952756,0,0.40821523616,5110,2018-07-07 23:00:22,9,0,24.984,5390.6739526853,2.952756,0.223694,0.40821523616,0,0,0,95.1, -0.2, 0.8,0,0,1024,1024,1024,1024,94,-89.9,100,4.175,4.164,4.154,4.144,4.179,4.164,15.25,87.8,14,Waypoint,
38.5374696,-120.3487199,5391.0020366853,3.28084,0,0.34256562776,5200,2018-07-07 23:00:22,9,0,24.984,5391.0020366853,3.28084,0.223694,0.40821523616,0,0,0,95.1, 0, 0.9,0,0,1024,1024,1024,1024,94.1,-89.9,100,4.175,4.164,4.154,4.144,4.179,4.164,15.25,87.8,14,Waypoint,
38.5374696,-120.3487199,5391.0020366853,3.28084,0,0.34256562776,5300,2018-07-07 23:00:22,9,0,24.984,5391.0020366853,3.28084,0.223694,0.40821523616,0,0,0,95.1, 0.3, 0.9,0,0,1024,1024,1024,1024,94.1,-89.9,100,4.175,4.164,4.154,4.144,4.179,4.164,15.25,87.8,14,Waypoint,
38.5374696,-120.34872,5391.0020366853,3.28084,0,0.36221129768,5500,2018-07-07 23:00:22,9,0,24.984,5391.0020366853,3.28084,0.223694,0.40821523616,0,0,0,95.1, 0.3, 0.9,0,0,1024,1024,1024,1024,94.1,-89.9,100,4.175,4.164,4.154,4.144,4.179,4.164,15.25,87.8,14,Waypoint,
38.5374693,-120.3487199,5391.3301206853,3.608924,0,0.270967200272,5600,2018-07-07 23:00:22,7,0,24.984,5391.3301206853,3.608924,0.223694,0.40821523616,0,0,-0.223694,95.1, 0.2, 0.4,0,0,1024,1024,1024,1024,94.1,-89.9,100,4.175,4.164,4.154,4.144,4.179,4.164,15.25,87.8,14,Waypoint,
38.5374691,-120.3487198,5391.6582046853,3.937008,0,0.212679468748,5800,2018-07-07 23:00:22,8,0,24.984,5391.6582046853,3.937008,0.223694,0.40821523616,0,0,-0.223694,95.1, 0.3, 0,0,0,1024,1024,1024,1024,94.1,-89.9,100,4.175,4.164,4.154,4.144,4.179,4.164,15.25,87.8,14,Waypoint,
38.537469,-120.3487198,5391.9862886853,4.265092,0,0.20307415348,5900,2018-07-07 23:00:22,8,0,24.984,5391.9862886853,4.265092,0.223694,0.40821523616,0,0,-0.223694,95.2, 0.4, -0.1,0,0,1024,1024,1024,1024,94.1,-89.9,100,4.175,4.164,4.154,4.144,4.179,4.164,15.25,87.8,14,Waypoint,
38.537469,-120.3487198,5392.3143726853,4.593176,0,0.20307415348,6000,2018-07-07 23:00:22,9,0,24.804,5392.3143726853,4.593176,0.223694,0.40821523616,0,0,-0.223694,95.2, 0.5, -0.1,0,0,1024,1024,1024,1024,94.1,-89.9,100,4.135,4.124,4.13,4.13,4.146,4.139,16.521,87.8,14,Waypoint,
38.5374691,-120.3487198,5392.6424566853,4.92126,0,0.212679468748,6100,2018-07-07 23:00:23,9,0,24.804,5392.6424566853,4.92126,0.223694,0.40821523616,0,0,-0.223694,95.2, 0.5, 0,0,0,1024,1024,1024,1024,94.1,-89.9,100,4.135,4.124,4.13,4.13,4.146,4.139,16.521,87.8,14,Waypoint,
38.5374692,-120.3487198,5393.2986246853,5.577428,0,0.227790033536,6200,2018-07-07 23:00:23,8,0,24.804,5393.2986246853,5.577428,0.223694,0.40821523616,0,0,-0.447388,95.2, 0.4, 0.3,0,0,1024,1024,1024,1024,94.1,-89.9,100,4.135,4.124,4.13,4.13,4.146,4.139,16.521,87.8,14,Waypoint,
38.5374694,-120.3487198,5393.9547926853,6.233596,0,0.270530520468,6300,2018-07-07 23:00:23,8,0,24.804,5393.9547926853,6.233596,0.223694,0.40821523616,0,0,-0.447388,95.2, 0.3, 0.8,0,0,1024,1024,1024,1024,94.1,-89.9,100,4.135,4.124,4.13,4.13,4.146,4.139,16.521,87.8,14,Waypoint,
38.5374696,-120.3487198,5394.2828766853,6.56168,0.223694,0.324244432948,6400,2018-07-07 23:00:23,10,0,24.804,5394.2828766853,6.56168,0.223694,0.40821523616,0,0,-0.447388,95.2, 0.3, 1.3,0,0,1024,1024,1024,1024,94.1,-90,100,4.135,4.124,4.13,4.13,4.146,4.139,16.521,87.8,14,Waypoint,
38.5374697,-120.3487199,5394.9390446853,7.217848,0.223694,0.37056431632,6500,2018-07-07 23:00:23,10,0,24.804,5394.9390446853,7.217848,0.223694,0.40821523616,0,0,-0.447388,95.2, 0.1, 1.8,0,0,1024,1024,1024,1024,94.1,-90,100,4.135,4.124,4.13,4.13,4.146,4.139,16.521,87.8,14,Waypoint,
38.5374699,-120.3487199,5395.9232966853,8.2021,0.223694,0.43039371456,6600,2018-07-07 23:00:23,8,0,24.804,5395.9232966853,8.2021,0.223694,0.43039371456,0,0,-0.447388,95.2, -0.2, 2.1,0,0,1024,1024,1024,1024,94.1,-90,100,4.135,4.124,4.13,4.13,4.146,4.139,16.521,87.8,14,Waypoint,
38.5374702,-120.3487198,5396.9075486853,9.186352,0,0.51465880912,6700,2018-07-07 23:00:23,8,0,24.804,5396.9075486853,9.186352,0.223694,0.51465880912,0,0,-0.671082,95.2, -0.3, 2.1,0,0,1024,1024,1024,1024,94.1,-89.9,100,4.135,4.124,4.13,4.13,4.146,4.139,16.521,87.8,14,Waypoint,
38.5374704,-120.3487198,5397.8918006853,10.170604,0,0.582595163,6800,2018-07-07 23:00:23,9,0,24.804,5397.8918006853,10.170604,0.223694,0.582595163,0,0,-0.671082,95.2, -0.1, 1.9,0,0,1024,1024,1024,1024,94.1,-89.9,100,4.135,4.124,4.13,4.13,4.146,4.139,16.521,87.8,14,Waypoint,
38.5374707,-120.3487201,5399.8603046853,12.139108,0,0.71605645336,6900,2018-07-07 23:00:23,9,0,24.804,5399.8603046853,12.139108,0.223694,0.71605645336,0,0,-0.671082,95.3, 0, 1.7,0,0,1024,1024,1024,1024,94.1,-89.9,100,4.135,4.124,4.13,4.13,4.146,4.139,16.521,87.8,14,Waypoint,
38.5374711,-120.3487204,5400.8445566853,13.12336,0.223694,0.88426183932,7000,2018-07-07 23:00:23,9,0,24.741,5400.8445566853,13.12336,0.223694,0.88426183932,0,0,-0.671082,95.3, -0.3, 2,0,0,1024,1024,1024,1024,94.2,-90,100,4.151,4.118,4.101,4.081,4.129,4.106,16.903,87.8,14,Waypoint,
38.5374715,-120.3487205,5401.8288086853,14.107612,0.223694,1.0293143374,7100,2018-07-07 23:00:24,9,0,24.741,5401.8288086853,14.107612,0.223694,1.0293143374,0,0,-0.671082,95.3, -0.8, 2.7,0,0,1024,1024,1024,1024,94.2,-90,100,4.151,4.118,4.101,4.081,4.129,4.106,16.903,87.8,14,Waypoint,
38.5374715,-120.3487204,5402.8130606853,15.091864,0,1.01857614808,7200,2018-07-07 23:00:24,9,0,24.741,5402.8130606853,15.091864,0.223694,1.0293143374,0,0,-0.671082,95.2, -0.9, 3.3,0,0,1024,1024,1024,1024,94.2,-90,100,4.151,4.118,4.101,4.081,4.129,4.106,16.903,87.8,14,Waypoint,
38.5374716,-120.3487204,5404.1253966853,16.4042,0,1.0526411098,7300,2018-07-07 23:00:24,10,0,24.741,5404.1253966853,16.4042,0.223694,1.0526411098,0,0,-0.671082,95.2, -0.7, 3.3,0,0,1024,1024,1024,1024,94.2,-89.9,100,4.151,4.118,4.101,4.081,4.129,4.106,16.903,87.8,14,Waypoint,
38.5374717,-120.3487205,5405.1096486853,17.388452,0,1.09692916896,7400,2018-07-07 23:00:24,10,0,24.741,5405.1096486853,17.388452,0.223694,1.09692916896,0,0,-0.671082,95.2, -0.4, 3,0,0,1024,1024,1024,1024,94.2,-90,100,4.151,4.118,4.101,4.081,4.129,4.106,16.903,87.8,14,Waypoint,
38.5374717,-120.3487205,5406.4219846853,18.700788,0,1.09692916896,7500,2018-07-07 23:00:24,12,0,24.741,5406.4219846853,18.700788,0.223694,1.09692916896,0,0,-0.671082,95.1, -0.6, 2.5,0,0,1024,1024,1024,1024,94.2,-90,100,4.151,4.118,4.101,4.081,4.129,4.106,16.903,87.8,14,Waypoint,
38.5374715,-120.3487204,5407.4062366853,19.68504,0,1.01857614808,7600,2018-07-07 23:00:24,12,0,24.741,5407.4062366853,19.68504,0.223694,1.09692916896,0,0,-0.671082,95.1, -0.5, 2.1,0,0,1024,1024,1024,1024,94.2,-89.9,100,4.151,4.118,4.101,4.081,4.129,4.106,16.903,87.8,14,Waypoint,
38.5374713,-120.3487203,5408.3904886853,20.669292,0,0.94022640804,7700,2018-07-07 23:00:24,12,0,24.741,5408.3904886853,20.669292,0.223694,1.09692916896,0,0,-0.671082,95.1, -0.3, 1.6,0,0,1024,1024,1024,1024,94.2,-89.9,100,4.151,4.118,4.101,4.081,4.129,4.106,16.903,87.8,14,Waypoint,
38.5374711,-120.3487202,5409.7028246853,21.981628,0.223694,0.86187338716,7900,2018-07-07 23:00:24,12,0,24.741,5409.7028246853,21.981628,0.223694,1.09692916896,0,0,-0.671082,95.2, 0, 1,0,0,1024,1024,1024,1024,94.2,-89.9,100,4.151,4.118,4.101,4.081,4.129,4.106,16.903,87.8,14,Waypoint,
38.5374705,-120.3487199,5411.6713286853,23.950132,0.223694,0.62681760536,8000,2018-07-07 23:00:24,12,0,24.276,5411.6713286853,23.950132,0.223694,1.09692916896,0,0,-0.671082,95.3, 0.6, -0.1,0,0,1024,1024,1024,1024,94.2,-89.9,100,4.039,4.042,4.017,4.019,4.052,4.048,23.384,87.8,14,Waypoint,
38.5374702,-120.3487199,5412.9836646853,25.262468,0.223694,0.52639109296,8200,2018-07-07 23:00:25,12,0,24.276,5412.9836646853,25.262468,0.223694,1.09692916896,0,0,-0.671082,95.3, 0.8, -0.5,0,0,1024,1024,1024,1024,94.2,-89.9,100,4.039,4.042,4.017,4.019,4.052,4.048,23.384,87.8,14,Waypoint,
38.5374699,-120.3487198,5413.9679166853,26.24672,0.223694,0.4159612994,8300,2018-07-07 23:00:25,12,0,24.276,5413.9679166853,26.24672,0.223694,1.09692916896,0,0,-0.671082,95.3, 0.9, -0.7,0,0,1024,1024,1024,1024,94.2,-89.9,100,4.039,4.042,4.017,4.019,4.052,4.048,23.384,87.8,14,Waypoint,
38.5374696,-120.3487198,5414.9521686853,27.230972,0.223694,0.324244432948,8400,2018-07-07 23:00:25,12,0,24.276,5414.9521686853,27.230972,0.223694,1.09692916896,0,0,-0.671082,95.2, 0.9, -0.9,0,0,1024,1024,1024,1024,94.2,-89.9,100,4.039,4.042,4.017,4.019,4.052,4.048,23.384,87.8,14,Waypoint,
38.5374694,-120.3487197,5415.9364206853,28.215224,0,0.250197842652,8500,2018-07-07 23:00:25,12,0,24.276,5415.9364206853,28.215224,0.223694,1.09692916896,0,0,-0.671082,95.1, 0.7, -1,0,0,1024,1024,1024,1024,94.2,-89.9,100,4.039,4.042,4.017,4.019,4.052,4.048,23.384,87.8,14,Waypoint,
38.5374692,-120.3487196,5417.2487566853,29.52756,0,0.17983760418,8600,2018-07-07 23:00:25,12,0,24.276,5417.2487566853,29.52756,0.223694,1.09692916896,0,0,-0.671082,95.1, 0.5, -0.9,0,0,1024,1024,1024,1024,94.2,-89.9,100,4.039,4.042,4.017,4.019,4.052,4.048,23.384,87.8,14,Waypoint,
38.5374689,-120.3487196,5418.2330086853,30.511812,0,0.142692917952,8700,2018-07-07 23:00:25,12,0,24.276,5418.2330086853,30.511812,0.223694,1.09692916896,0,0,-0.671082,95.1, 0.4, -0.9,0,0,1024,1024,1024,1024,94.2,-89.9,100,4.039,4.042,4.017,4.019,4.052,4.048,23.384,87.8,14,Waypoint,
38.5374685,-120.3487195,5419.2172606853,31.496064,0,0.185282486244,8800,2018-07-07 23:00:25,12,0,24.276,5419.2172606853,31.496064,0.223694,1.09692916896,0,0,-0.671082,95.1, 0.5, -0.8,0,0,1024,1024,1024,1024,94.2,-89.9,100,4.039,4.042,4.017,4.019,4.052,4.048,23.384,87.8,14,Waypoint,
38.5374682,-120.3487194,5420.2015126853,32.480316,0,0.269362869512,8900,2018-07-07 23:00:25,12,0,24.276,5420.2015126853,32.480316,0.223694,1.09692916896,0,0,-0.671082,95.1, 0.7, -1.1,0,0,1024,1024,1024,1024,94.2,-89.9,100,4.039,4.042,4.017,4.019,4.052,4.048,23.384,87.8,14,Waypoint,
38.5374678,-120.3487194,5421.1857646853,33.464568,0,0.41036418636,9000,2018-07-07 23:00:25,13,0,24.419,5421.1857646853,33.464568,0.223694,1.09692916896,0,0,-0.671082,95.1, 1, -1.4,0,0,1024,1024,1024,1024,94.2,-89.9,100,4.083,4.073,4.047,4.052,4.094,4.079,20.623,87.8,14,Waypoint,
38.5374674,-120.3487193,5422.1700166853,34.44882,0,0.55024279976,9100,2018-07-07 23:00:26,13,0,24.419,5422.1700166853,34.44882,0.223694,1.09692916896,0,0,-0.671082,95.1, 1.1, -1.9,0,0,1024,1024,1024,1024,94.2,-89.9,100,4.083,4.073,4.047,4.052,4.094,4.079,20.623,87.8,14,Waypoint,
38.537467,-120.3487193,5423.4823526853,35.761156,0,0.69556104588,9200,2018-07-07 23:00:26,13,0,24.419,5423.4823526853,35.761156,0.223694,1.09692916896,0,0,-0.671082,95.1, 1, -2.2,0,0,1024,1024,1024,1024,94.2,-89.9,100,4.083,4.073,4.047,4.052,4.094,4.079,20.623,87.8,14,Waypoint,
38.5374665,-120.3487192,5424.4666046853,36.745408,0,0.87610239024,9300,2018-07-07 23:00:26,13,0,24.419,5424.4666046853,36.745408,0.223694,1.09692916896,0,0,-0.671082,95.1, 0.9, -2.5,0,0,1024,1024,1024,1024,94.2,-89.9,100,4.083,4.073,4.047,4.052,4.094,4.079,20.623,87.8,14,Waypoint,
38.5374661,-120.3487191,5425.4508566853,37.72966,0,1.02157811668,9400,2018-07-07 23:00:26,15,0,24.419,5425.4508566853,37.72966,0.223694,1.09692916896,0,0,-0.671082,95.1, 0.9, -2.8,0,0,1024,1024,1024,1024,94.2,-89.9,100,4.083,4.073,4.047,4.052,4.094,4.079,20.623,87.8,14,Waypoint,
38.5374658,-120.348719,5426.4351086853,38.713912,0,1.13139439316,9500,2018-07-07 23:00:26,15,0,24.419,5426.4351086853,38.713912,0.223694,1.13139439316,0,0,-0.671082,95.2, 0.9, -2.9,0,0,1024,1024,1024,1024,94.2,-89.9,100,4.083,4.073,4.047,4.052,4.094,4.079,20.623,87.8,14,Waypoint,
38.5374655,-120.348719,5427.4193606853,39.698164,0,1.24081696884,9600,2018-07-07 23:00:26,15,0,24.419,5427.4193606853,39.698164,0.223694,1.24081696884,0,0,-0.671082,95.2, 1, -3.1,0,0,1024,1024,1024,1024,94.2,-89.9,100,4.083,4.073,4.047,4.052,4.094,4.079,20.623,87.8,14,Waypoint,
38.5374651,-120.348719,5429.3878646853,41.666668,0.223694,1.38672248532,9700,2018-07-07 23:00:26,15,0,24.419,5429.3878646853,41.666668,0.223694,1.38672248532,0,0,-0.671082,95.2, 0.9, -2.9,0,0,1024,1024,1024,1024,94.2,-89.9,100,4.083,4.073,4.047,4.052,4.094,4.079,20.623,87.8,14,Waypoint,
38.537465,-120.348719,5430.3721166853,42.65092,0.223694,1.42319886444,9800,2018-07-07 23:00:26,15,0,24.419,5430.3721166853,42.65092,0.223694,1.42319886444,0,0,-0.671082,95.2, 0.9, -2.5,0,0,1024,1024,1024,1024,94.2,-89.9,100,4.083,4.073,4.047,4.052,4.094,4.079,20.623,87.8,14,Waypoint,
38.537465,-120.3487191,5431.3563686853,43.635172,0.223694,1.42291343136,9900,2018-07-07 23:00:26,14,0,24.419,5431.3563686853,43.635172,0.223694,1.42319886444,0,0,-0.671082,95.2, 0.8, -2.1,0,0,1024,1024,1024,1024,94.2,-89.9,100,4.083,4.073,4.047,4.052,4.094,4.079,20.623,87.8,14,Waypoint,
38.537465,-120.348719,5432.3406206853,44.619424,0.447388,1.42319886444,10000,2018-07-07 23:00:26,14,0,24.466,5432.3406206853,44.619424,0.447388,1.42319886444,0,0,-0.671082,95.2, 0.6, -1.6,0,0,1024,1024,1024,1024,94.2,-89.9,98,4.089,4.067,4.061,4.065,4.09,4.075,18.6,87.8,14,Waypoint,
38.5374651,-120.3487191,5433.3248726853,45.603676,0.447388,1.38642720972,10100,2018-07-07 23:00:27,14,0,24.466,5433.3248726853,45.603676,0.447388,1.42319886444,0,0,-0.671082,95.1, 0.6, -1.1,0,0,1024,1024,1024,1024,94.2,-89.9,98,4.089,4.067,4.061,4.065,4.09,4.075,18.6,87.8,14,Waypoint,
38.5374651,-120.3487191,5434.3091246853,46.587928,0.447388,1.38642720972,10200,2018-07-07 23:00:27,14,0,24.466,5434.3091246853,46.587928,0.447388,1.42319886444,0,0,-0.671082,95.1, 0.5, -0.7,0,0,1024,1024,1024,1024,94.2,-89.9,98,4.089,4.067,4.061,4.065,4.09,4.075,18.6,87.8,14,Waypoint,
38.5374652,-120.3487192,5435.2933766853,47.57218,0.447388,1.35024282536,10300,2018-07-07 23:00:27,15,0,24.466,5435.2933766853,47.57218,0.447388,1.42319886444,0,0,-0.671082,95.2, 0.4, -0.6,0,0,1024,1024,1024,1024,94.2,-89.9,98,4.089,4.067,4.061,4.065,4.09,4.075,18.6,87.8,14,Waypoint,
38.5374653,-120.3487193,5436.2776286853,48.556432,0.447388,1.3146982048,10400,2018-07-07 23:00:27,15,0,24.466,5436.2776286853,48.556432,0.447388,1.42319886444,0,0,-0.671082,95.3, 0.3, -0.5,0,0,1024,1024,1024,1024,94.2,-89.9,98,4.089,4.067,4.061,4.065,4.09,4.075,18.6,87.8,14,Waypoint,
38.5374654,-120.3487193,5437.2618806853,49.540684,0.447388,1.2782480724,10500,2018-07-07 23:00:27,15,0,24.466,5437.2618806853,49.540684,0.447388,1.42319886444,0,0,-0.671082,95.4, 0.2, -0.3,0,0,1024,1024,1024,1024,94.2,-90,98,4.089,4.067,4.061,4.065,4.09,4.075,18.6,87.8,14,Waypoint,
38.5374656,-120.3487194,5438.2461326853,50.524936,0.671082,1.20704400188,10600,2018-07-07 23:00:27,15,0,24.466,5438.2461326853,50.524936,0.671082,1.42319886444,0,0,-0.671082,95.6, 0.1, -0.1,0,0,1024,1024,1024,1024,94.2,-89.9,98,4.089,4.067,4.061,4.065,4.09,4.075,18.6,87.8,14,Waypoint,
38.5374658,-120.3487194,5439.2303846853,51.509188,0.671082,1.134268409,10800,2018-07-07 23:00:27,15,0,24.466,5439.2303846853,51.509188,0.671082,1.42319886444,0,0,-0.671082,95.7, 0.1, 0.2,0,0,1024,1024,1024,1024,94.2,-89.9,98,4.089,4.067,4.061,4.065,4.09,4.075,18.6,87.8,14,Waypoint,
38.5374659,-120.3487195,5440.2146366853,52.49344,0.447388,1.10048559952,10900,2018-07-07 23:00:27,15,0,24.466,5440.2146366853,52.49344,0.671082,1.42319886444,0,0,-0.671082,95.8, 0.2, 0.4,0,0,1024,1024,1024,1024,94.2,-89.9,98,4.089,4.067,4.061,4.065,4.09,4.075,18.6,87.8,14,Waypoint,
38.537466,-120.3487195,5441.1988886853,53.477692,0.447388,1.06420278996,11000,2018-07-07 23:00:27,14,0,24.447,5441.1988886853,53.477692,0.671082,1.42319886444,0,0,-0.671082,95.7, 0.2, 0.3,0,0,1024,1024,1024,1024,94.2,-89.9,98,4.089,4.067,4.061,4.065,4.09,4.075,18.523,89.6,14,Waypoint,
38.5374662,-120.3487196,5442.5112246853,54.790028,0.671082,0.9953740476,11100,2018-07-07 23:00:28,14,0,24.447,5442.5112246853,54.790028,0.671082,1.42319886444,0,0,-0.671082,95.7, 0.2, 0.4,0,0,1024,1024,1024,1024,94.2,-90,98,4.089,4.067,4.061,4.065,4.09,4.075,18.523,89.6,14,Waypoint,
38.5374664,-120.3487197,5443.4954766853,55.77428,0.447388,0.92805777248,11200,2018-07-07 23:00:28,14,0,24.447,5443.4954766853,55.77428,0.671082,1.42319886444,0,0,-0.671082,95.5, 0.1, 0.6,0,0,1024,1024,1024,1024,94.2,-89.9,98,4.089,4.067,4.061,4.065,4.09,4.075,18.523,89.6,14,Waypoint,
38.5374666,-120.3487197,5444.1516446853,56.430448,0.447388,0.8564468778,11300,2018-07-07 23:00:28,14,0,24.447,5444.1516446853,56.430448,0.671082,1.42319886444,0,0,-0.671082,95.4, 0.1, 0.6,0,0,1024,1024,1024,1024,94.2,-89.9,98,4.089,4.067,4.061,4.065,4.09,4.075,18.523,89.6,14,Waypoint,
38.5374668,-120.3487198,5445.1358966853,57.4147,0.447388,0.7917979256,11400,2018-07-07 23:00:28,15,0,24.447,5445.1358966853,57.4147,0.671082,1.42319886444,0,0,-0.671082,95.2, 0.1, 0.8,0,0,1024,1024,1024,1024,94.2,-89.9,98,4.089,4.067,4.061,4.065,4.09,4.075,18.523,89.6,14,Waypoint,
38.5374669,-120.3487198,5446.1201486853,58.398952,0.447388,0.75655186148,11500,2018-07-07 23:00:28,15,0,24.447,5446.1201486853,58.398952,0.671082,1.42319886444,0,0,-0.671082,95, 0.2, 0.8,0,0,1024,1024,1024,1024,94.2,-89.9,98,4.089,4.067,4.061,4.065,4.09,4.075,18.523,89.6,14,Waypoint,
38.5374671,-120.3487199,5447.1044006853,59.383204,0.447388,0.69528217448,11600,2018-07-07 23:00:28,16,0,24.447,5447.1044006853,59.383204,0.671082,1.42319886444,0,0,-0.671082,94.9, 0.2, 0.8,0,0,1024,1024,1024,1024,94.2,-89.9,98,4.089,4.067,4.061,4.065,4.09,4.075,18.523,89.6,14,Waypoint,
38.5374673,-120.3487199,5448.0886526853,60.367456,0.447388,0.62681760536,11700,2018-07-07 23:00:28,16,0,24.447,5448.0886526853,60.367456,0.671082,1.42319886444,0,0,-0.671082,94.8, 0.2, 0.9,0,0,1024,1024,1024,1024,94.2,-89.9,98,4.089,4.067,4.061,4.065,4.09,4.075,18.523,89.6,14,Waypoint,
38.5374677,-120.34872,5450.0571566853,62.33596,0.447388,0.50759844144,11800,2018-07-07 23:00:28,15,0,24.447,5450.0571566853,62.33596,0.671082,1.42319886444,0,0,-0.671082,94.8, 0.1, 1.1,0,0,1024,1024,1024,1024,94.2,-89.9,98,4.089,4.067,4.061,4.065,4.09,4.075,18.523,89.6,14,Waypoint,
38.5374678,-120.34872,5451.0414086853,63.320212,0.447388,0.47648623572,11900,2018-07-07 23:00:28,17,0,24.447,5451.0414086853,63.320212,0.671082,1.42319886444,0,0,-0.671082,94.8, 0.2, 0.9,0,0,1024,1024,1024,1024,94.2,-89.9,98,4.089,4.067,4.061,4.065,4.09,4.075,18.523,89.6,14,Waypoint,
38.537468,-120.3487201,5452.3537446853,64.632548,0.447388,0.43504922652,12000,2018-07-07 23:00:28,17,0,24.447,5452.3537446853,64.632548,0.671082,1.42319886444,0,0,-0.671082,94.8, 0.1, 0.9,0,0,1024,1024,1024,1024,94.2,-90,98,4.077,4.069,4.054,4.065,4.094,4.072,18.523,89.6,14,Waypoint,
38.5374682,-120.3487201,5453.3379966853,65.6168,0.447388,0.38297573404,12100,2018-07-07 23:00:29,18,0,24.447,5453.3379966853,65.6168,0.671082,1.42319886444,0,0,-0.671082,94.8, 0, 1,0,0,1024,1024,1024,1024,94.2,-90,98,4.077,4.069,4.054,4.065,4.094,4.072,18.523,89.6,14,Waypoint,
38.5374683,-120.3487201,5454.3222486853,66.601052,0.447388,0.35967520836,12200,2018-07-07 23:00:29,18,0,24.447,5454.3222486853,66.601052,0.671082,1.42319886444,0,0,-0.671082,94.7, -0.1, 1.2,0,0,1024,1024,1024,1024,94.2,-90,98,4.077,4.069,4.054,4.065,4.094,4.072,18.523,89.6,14,Waypoint,
38.5374685,-120.3487202,5456.2907526853,68.569556,0.223694,0.34618767512,12400,2018-07-07 23:00:29,17,0,24.447,5456.2907526853,68.569556,0.671082,1.42319886444,0,0,-0.671082,94.6, 0, 1.5,0,0,1024,1024,1024,1024,94.2,-89.9,98,4.077,4.069,4.054,4.065,4.094,4.072,18.523,89.6,14,Waypoint,
38.5374686,-120.3487202,5457.2750046853,69.553808,0.223694,0.33245735972,12500,2018-07-07 23:00:29,18,0,24.447,5457.2750046853,69.553808,0.671082,1.42319886444,0,0,-0.671082,94.7, 0.1, 1.5,0,0,1024,1024,1024,1024,94.2,-89.9,98,4.077,4.069,4.054,4.065,4.094,4.072,18.523,89.6,14,Waypoint,
38.5374687,-120.3487202,5458.2592566853,70.53806,0.223694,0.3222933174,12600,2018-07-07 23:00:29,18,0,24.447,5458.2592566853,70.53806,0.671082,1.42319886444,0,0,-0.671082,94.8, 0.4, 1.2,0,0,1024,1024,1024,1024,94.2,-89.9,98,4.077,4.069,4.054,4.065,4.094,4.072,18.523,89.6,14,Waypoint,
38.5374687,-120.3487202,5459.2435086853,71.522312,0.223694,0.3222933174,12700,2018-07-07 23:00:29,18,0,24.447,5459.2435086853,71.522312,0.671082,1.42319886444,0,0,-0.671082,95, 0.5, 1.1,0,0,1024,1024,1024,1024,94.2,-89.9,98,4.077,4.069,4.054,4.065,4.094,4.072,18.523,89.6,14,Waypoint,
38.5374688,-120.3487202,5460.2277606853,72.506564,0.223694,0.316037083604,12900,2018-07-07 23:00:29,18,0,24.447,5460.2277606853,72.506564,0.671082,1.42319886444,0,0,-0.671082,95.2, 0.5, 0.8,0,0,1024,1024,1024,1024,94.2,-89.9,98,4.077,4.069,4.054,4.065,4.094,4.072,18.523,89.6,14,Waypoint,
38.5374688,-120.3487202,5461.2120126853,73.490816,0,0.316037083604,13000,2018-07-07 23:00:29,18,0,24.428,5461.2120126853,73.490816,0.671082,1.42319886444,0,0,-0.671082,95.3, 0.3, 0.6,0,0,1024,1024,1024,1024,94.2,-90,98,4.068,4.058,4.062,4.052,4.09,4.081,18.214,89.6,14,Waypoint,
38.5374688,-120.3487202,5462.1962646853,74.475068,0,0.316037083604,13100,2018-07-07 23:00:30,18,0,24.428,5462.1962646853,74.475068,0.671082,1.42319886444,0,0,-0.671082,95.3, 0.4, 0.5,0,0,1024,1024,1024,1024,94.2,-89.9,98,4.068,4.058,4.062,4.052,4.09,4.081,18.214,89.6,14,Waypoint,
38.5374689,-120.3487202,5463.1805166853,75.45932,0,0.313924222644,13200,2018-07-07 23:00:30,18,0,24.428,5463.1805166853,75.45932,0.671082,1.42319886444,0,0,-0.671082,95.3, 0.5, 0.5,0,0,1024,1024,1024,1024,94.2,-90,98,4.068,4.058,4.062,4.052,4.09,4.081,18.214,89.6,14,Waypoint,
38.5374689,-120.3487202,5464.1647686853,76.443572,0.223694,0.313924222644,13300,2018-07-07 23:00:30,18,0,24.428,5464.1647686853,76.443572,0.671082,1.42319886444,0,0,-0.671082,95.2, 0.6, 0.5,0,0,1024,1024,1024,1024,94.2,-89.9,98,4.068,4.058,4.062,4.052,4.09,4.081,18.214,89.6,14,Waypoint,
38.537469,-120.3487201,5465.1490206853,77.427824,0.223694,0.28770834254,13400,2018-07-07 23:00:30,18,0,24.428,5465.1490206853,77.427824,0.671082,1.42319886444,0,0,-0.671082,95.1, 0.8, 0.7,0,0,1024,1024,1024,1024,94.2,-89.9,98,4.068,4.058,4.062,4.052,4.09,4.081,18.214,89.6,14,Waypoint,
38.537469,-120.3487201,5466.1332726853,78.412076,0,0.28770834254,13500,2018-07-07 23:00:30,18,0,24.428,5466.1332726853,78.412076,0.671082,1.42319886444,0,0,-0.671082,95.1, 0.9, 0.7,0,0,1024,1024,1024,1024,94.2,-90,98,4.068,4.058,4.062,4.052,4.09,4.081,18.214,89.6,14,Waypoint,
38.537469,-120.3487201,5467.1175246853,79.396328,0,0.28770834254,13600,2018-07-07 23:00:30,18,0,24.428,5467.1175246853,79.396328,0.671082,1.42319886444,0,0,-0.671082,95.1, 1.1, 0.8,0,0,1024,1024,1024,1024,94.2,-89.9,98,4.068,4.058,4.062,4.052,4.09,4.081,18.214,89.6,14,Waypoint,
38.537469,-120.34872,5468.1017766853,80.38058,0,0.259425205152,13700,2018-07-07 23:00:30,18,0,24.428,5468.1017766853,80.38058,0.671082,1.42319886444,0,0,-0.671082,95.1, 1.2, 0.8,0,0,1024,1024,1024,1024,94.2,-89.9,98,4.068,4.058,4.062,4.052,4.09,4.081,18.214,89.6,14,Waypoint,
38.537469,-120.34872,5468.7579446853,81.036748,0,0.259425205152,13800,2018-07-07 23:00:30,18,0,24.428,5468.7579446853,81.036748,0.671082,1.42319886444,0,0,-0.671082,95.1, 1.3, 0.8,0,0,1024,1024,1024,1024,94.2,-89.9,98,4.068,4.058,4.062,4.052,4.09,4.081,18.214,89.6,14,Waypoint,
38.537469,-120.34872,5469.7421966853,82.021,0,0.259425205152,13900,2018-07-07 23:00:30,18,0,24.428,5469.7421966853,82.021,0.671082,1.42319886444,0,0,-0.671082,95.2, 1.3, 0.8,0,0,1024,1024,1024,1024,94.2,-89.9,98,4.068,4.058,4.062,4.052,4.09,4.081,18.214,89.6,14,Waypoint,
38.537469,-120.34872,5470.7264486853,83.005252,0,0.259425205152,14000,2018-07-07 23:00:30,18,0,24.416,5470.7264486853,83.005252,0.671082,1.42319886444,0,0,-0.671082,95.2, 1.3, 0.8,0,0,1024,1024,1024,1024,94.2,-89.9,98,4.084,4.062,4.063,4.056,4.092,4.082,17.907,89.6,14,Waypoint,
38.5374689,-120.34872,5472.6949526853,84.973756,0,0.25684712108,14100,2018-07-07 23:00:31,18,0,24.416,5472.6949526853,84.973756,0.671082,1.42319886444,0,0,-0.671082,95.1, 1.1, 0.9,0,0,1024,1024,1024,1024,94.2,-89.9,98,4.084,4.062,4.063,4.056,4.092,4.082,17.907,89.6,14,Waypoint,
38.5374689,-120.34872,5474.6634566853,86.94226,0,0.25684712108,14300,2018-07-07 23:00:31,18,0,24.416,5474.6634566853,86.94226,0.671082,1.42319886444,0,0,-0.671082,95.1, 1.1, 0.8,0,0,1024,1024,1024,1024,94.2,-89.9,98,4.084,4.062,4.063,4.056,4.092,4.082,17.907,89.6,14,Waypoint,
38.5374689,-120.34872,5475.6477086853,87.926512,0,0.25684712108,14400,2018-07-07 23:00:31,18,0,24.416,5475.6477086853,87.926512,0.671082,1.42319886444,0,0,-0.671082,95.1, 1.2, 0.8,0,0,1024,1024,1024,1024,94.2,-89.9,98,4.084,4.062,4.063,4.056,4.092,4.082,17.907,89.6,14,Waypoint,
38.5374689,-120.34872,5476.6319606853,88.910764,0,0.25684712108,14500,2018-07-07 23:00:31,18,0,24.416,5476.6319606853,88.910764,0.671082,1.42319886444,0,0,-0.671082,95.1, 1.2, 0.7,0,0,1024,1024,1024,1024,94.2,-89.9,98,4.084,4.062,4.063,4.056,4.092,4.082,17.907,89.6,14,Waypoint,
38.5374688,-120.34872,5477.6162126853,89.895016,0,0.259425205152,14600,2018-07-07 23:00:31,18,0,24.416,5477.6162126853,89.895016,0.671082,1.42319886444,0,0,-0.671082,95.1, 1.2, 0.5,0,0,1024,1024,1024,1024,94.2,-89.9,98,4.084,4.062,4.063,4.056,4.092,4.082,17.907,89.6,14,Waypoint,
38.5374687,-120.34872,5478.6004646853,90.879268,0,0.2670111634,14700,2018-07-07 23:00:31,18,0,24.416,5478.6004646853,90.879268,0.671082,1.42319886444,0,0,-0.671082,95.1, 1.2, 0.2,0,0,1024,1024,1024,1024,94.2,-89.9,98,4.084,4.062,4.063,4.056,4.092,4.082,17.907,89.6,14,Waypoint,
38.5374686,-120.34872,5479.5847166853,91.86352,0,0.279196531244,14800,2018-07-07 23:00:31,18,0,24.416,5479.5847166853,91.86352,0.671082,1.42319886444,0,0,-0.671082,95, 1.2, 0.2,0,0,1024,1024,1024,1024,94.2,-89.9,98,4.084,4.062,4.063,4.056,4.092,4.082,17.907,89.6,14,Waypoint,
38.5374686,-120.34872,5480.5689686853,92.847772,0,0.279196531244,14900,2018-07-07 23:00:31,18,0,24.416,5480.5689686853,92.847772,0.671082,1.42319886444,0,0,-0.671082,95, 1.2, 0.1,0,0,1024,1024,1024,1024,94.2,-89.9,98,4.084,4.062,4.063,4.056,4.092,4.082,17.907,89.6,14,Waypoint,
38.5374685,-120.3487199,5481.5532206853,93.832024,0,0.270967200272,15000,2018-07-07 23:00:31,18,0,24.411,5481.5532206853,93.832024,0.671082,1.42319886444,0,0,-0.671082,94.9, 1.2, 0.1,0,0,1024,1024,1024,1024,94.2,-89.9,98,4.081,4.059,4.049,4.059,4.081,4.074,17.751,89.6,14,Waypoint,
38.5374684,-120.3487199,5482.5374726853,94.816276,0,0.292238854496,15100,2018-07-07 23:00:32,18,0,24.411,5482.5374726853,94.816276,0.671082,1.42319886444,0,0,-0.671082,94.9, 1.4, 0,0,0,1024,1024,1024,1024,94.2,-89.9,98,4.081,4.059,4.049,4.059,4.081,4.074,17.751,89.6,14,Waypoint,
38.5374683,-120.3487199,5483.5217246853,95.800528,0,0.31630086314,15200,2018-07-07 23:00:32,18,0,24.411,5483.5217246853,95.800528,0.671082,1.42319886444,0,0,-0.671082,94.8, 1.5, 0,0,0,1024,1024,1024,1024,94.2,-89.9,98,4.081,4.059,4.049,4.059,4.081,4.074,17.751,89.6,14,Waypoint,
38.5374682,-120.3487199,5484.5059766853,96.78478,0,0.34256562776,15400,2018-07-07 23:00:32,18,0,24.411,5484.5059766853,96.78478,0.671082,1.42319886444,0,0,-0.671082,94.8, 1.5, 0,0,0,1024,1024,1024,1024,94.2,-89.9,98,4.081,4.059,4.049,4.059,4.081,4.074,17.751,89.6,14,Waypoint,
38.5374682,-120.3487199,5486.4744806853,98.753284,0.223694,0.34256562776,15500,2018-07-07 23:00:32,18,0,24.411,5486.4744806853,98.753284,0.671082,1.42319886444,0,0,-0.671082,94.9, 1.4, 0.4,0,0,1024,1024,1024,1024,94.2,-89.9,98,4.081,4.059,4.049,4.059,4.081,4.074,17.751,89.6,14,Waypoint,
38.5374681,-120.3487199,5487.4587326853,99.737536,0.223694,0.37056431632,15700,2018-07-07 23:00:32,18,0,24.411,5487.4587326853,99.737536,0.671082,1.42319886444,0,0,-0.671082,95, 1.5, 0.5,0,0,1024,1024,1024,1024,94.2,-89.9,98,4.081,4.059,4.049,4.059,4.081,4.074,17.751,89.6,14,Waypoint,
38.5374681,-120.3487199,5488.4429846853,100.721788,0.223694,0.37056431632,15800,2018-07-07 23:00:32,18,0,24.411,5488.4429846853,100.721788,0.671082,1.42319886444,0,0,-0.671082,95.1, 1.5, 0.6,0,0,1024,1024,1024,1024,94.2,-89.9,98,4.081,4.059,4.049,4.059,4.081,4.074,17.751,89.6,14,Waypoint,
38.537468,-120.3487199,5489.4272366853,101.70604,0.223694,0.399934396,15900,2018-07-07 23:00:32,18,0,24.411,5489.4272366853,101.70604,0.671082,1.42319886444,0,0,-0.671082,95.3, 1.5, 0.5,0,0,1024,1024,1024,1024,94.2,-90,98,4.081,4.059,4.049,4.059,4.081,4.074,17.751,89.6,14,Waypoint,
38.537468,-120.3487198,5490.4114886853,102.690292,0.223694,0.38435696768,16000,2018-07-07 23:00:32,18,0,24.399,5490.4114886853,102.690292,0.671082,1.42319886444,0,0,-0.671082,95.4, 1.6, 0.4,0,0,1024,1024,1024,1024,94.2,-90,98,4.08,4.065,4.055,4.059,4.081,4.084,17.69,89.6,14,Waypoint,
38.5374679,-120.3487198,5491.3957406853,103.674544,0.223694,0.4159612994,16100,2018-07-07 23:00:33,18,0,24.399,5491.3957406853,103.674544,0.671082,1.42319886444,0,0,-0.671082,95.5, 1.7, 0.5,0,0,1024,1024,1024,1024,94.2,-89.9,98,4.08,4.065,4.055,4.059,4.081,4.084,17.69,89.6,14,Waypoint,
38.5374679,-120.3487198,5492.3799926853,104.658796,0.223694,0.4159612994,16200,2018-07-07 23:00:33,18,0,24.399,5492.3799926853,104.658796,0.671082,1.42319886444,0,0,-0.671082,95.5, 1.7, 0.5,0,0,1024,1024,1024,1024,94.2,-89.9,98,4.08,4.065,4.055,4.059,4.081,4.084,17.69,89.6,14,Waypoint,
38.5374678,-120.3487198,5493.3642446853,105.643048,0.223694,0.44830382012,16300,2018-07-07 23:00:33,18,0,24.399,5493.3642446853,105.643048,0.671082,1.42319886444,0,0,-0.671082,95.5, 1.6, 0.4,0,0,1024,1024,1024,1024,94.2,-89.9,98,4.08,4.065,4.055,4.059,4.081,4.084,17.69,89.6,14,Waypoint,
38.5374678,-120.3487198,5494.3484966853,106.6273,0.223694,0.44830382012,16400,2018-07-07 23:00:33,18,0,24.399,5494.3484966853,106.6273,0.671082,1.42319886444,0,0,-0.671082,95.5, 1.6, 0.3,0,0,1024,1024,1024,1024,94.2,-89.9,98,4.08,4.065,4.055,4.059,4.081,4.084,17.69,89.6,14,Waypoint,
38.5374677,-120.3487199,5495.3327486853,107.611552,0.223694,0.49377298168,16500,2018-07-07 23:00:33,18,0,24.399,5495.3327486853,107.611552,0.671082,1.42319886444,0,0,-0.671082,95.4, 1.4, 0.3,0,0,1024,1024,1024,1024,94.2,-90,98,4.08,4.065,4.055,4.059,4.081,4.084,17.69,89.6,14,Waypoint,
38.5374676,-120.3487199,5496.3170006853,108.595804,0.223694,0.52639109296,16600,2018-07-07 23:00:33,18,0,24.399,5496.3170006853,108.595804,0.671082,1.42319886444,0,0,-0.671082,95.3, 1.3, 0.4,0,0,1024,1024,1024,1024,94.2,-90,98,4.08,4.065,4.055,4.059,4.081,4.084,17.69,89.6,14,Waypoint,
38.5374675,-120.3487198,5498.2855046853,110.564308,0.223694,0.54846458448,16700,2018-07-07 23:00:33,18,0,24.399,5498.2855046853,110.564308,0.671082,1.42319886444,0,0,-0.671082,95.2, 1.3, 0.2,0,0,1024,1024,1024,1024,94.2,-90,98,4.08,4.065,4.055,4.059,4.081,4.084,17.69,89.6,14,Waypoint,
38.5374675,-120.3487199,5499.2697566853,111.54856,0.223694,0.55949148772,16800,2018-07-07 23:00:33,18,0,24.399,5499.2697566853,111.54856,0.671082,1.42319886444,0,0,-0.671082,95.1, 1.4, 0,0,0,1024,1024,1024,1024,94.2,-89.9,98,4.08,4.065,4.055,4.059,4.081,4.084,17.69,89.6,14,Waypoint,
38.5374674,-120.3487199,5500.2540086853,112.532812,0.223694,0.59298558328,16900,2018-07-07 23:00:33,18,0,24.399,5500.2540086853,112.532812,0.671082,1.42319886444,0,0,-0.671082,95.1, 1.4, 0,0,0,1024,1024,1024,1024,94.2,-90,98,4.08,4.065,4.055,4.059,4.081,4.084,17.69,89.6,14,Waypoint,
38.5374673,-120.3487199,5501.2382606853,113.517064,0.223694,0.62681760536,17000,2018-07-07 23:00:33,18,0,24.407,5501.2382606853,113.517064,0.671082,1.42319886444,0,0,-0.671082,95.1, 1.3, 0,0,0,1024,1024,1024,1024,94.2,-90,98,4.078,4.063,4.048,4.052,4.086,4.069,17.481,89.6,14,Waypoint,
38.5374673,-120.3487199,5502.2225126853,114.501316,0.223694,0.62681760536,17100,2018-07-07 23:00:34,18,0,24.407,5502.2225126853,114.501316,0.671082,1.42319886444,0,0,-0.671082,95.1, 1.2, -0.1,0,0,1024,1024,1024,1024,94.2,-90,98,4.078,4.063,4.048,4.052,4.086,4.069,17.481,89.6,14,Waypoint,
38.5374672,-120.3487199,5503.2067646853,115.485568,0.223694,0.66092849884,17200,2018-07-07 23:00:34,18,0,24.407,5503.2067646853,115.485568,0.671082,1.42319886444,0,0,-0.671082,95.1, 1, -0.2,0,0,1024,1024,1024,1024,94.2,-90,98,4.078,4.063,4.048,4.052,4.086,4.069,17.481,89.6,14,Waypoint,
38.5374672,-120.3487199,5504.1910166853,116.46982,0.223694,0.66092849884,17300,2018-07-07 23:00:34,18,0,24.407,5504.1910166853,116.46982,0.671082,1.42319886444,0,0,-0.671082,95.2, 1, -0.4,0,0,1024,1024,1024,1024,94.2,-89.9,98,4.078,4.063,4.048,4.052,4.086,4.069,17.481,89.6,14,Waypoint,
38.5374671,-120.34872,5505.1752686853,117.454072,0.223694,0.7051673454,17400,2018-07-07 23:00:34,18,0,24.407,5505.1752686853,117.454072,0.671082,1.42319886444,0,0,-0.671082,95.2, 1.1, -0.4,0,0,1024,1024,1024,1024,94.2,-89.9,98,4.078,4.063,4.048,4.052,4.086,4.069,17.481,89.6,14,Waypoint,
38.537467,-120.3487199,5507.1437726853,119.422576,0.223694,0.72984254304,17600,2018-07-07 23:00:34,18,0,24.407,5507.1437726853,119.422576,0.671082,1.42319886444,0,0,-0.671082,95.3, 1.4, -0.3,0,0,1024,1024,1024,1024,94.2,-89.9,98,4.078,4.063,4.048,4.052,4.086,4.069,17.481,89.6,14,Waypoint,
38.537467,-120.3487199,5508.1280246853,120.406828,0.223694,0.72984254304,17800,2018-07-07 23:00:34,18,0,24.407,5508.1280246853,120.406828,0.671082,1.42319886444,0,0,-0.671082,95.4, 1.6, -0.3,0,0,1024,1024,1024,1024,94.2,-89.9,98,4.078,4.063,4.048,4.052,4.086,4.069,17.481,89.6,14,Waypoint,
38.537467,-120.3487199,5509.1122766853,121.39108,0.223694,0.72984254304,17900,2018-07-07 23:00:34,18,0,24.407,5509.1122766853,121.39108,0.671082,1.42319886444,0,0,-0.671082,95.4, 1.7, -0.3,0,0,1024,1024,1024,1024,94.2,-89.9,98,4.078,4.063,4.048,4.052,4.086,4.069,17.481,89.6,14,Waypoint,
38.5374669,-120.3487199,5510.0965286853,122.375332,0.223694,0.76458007696,18000,2018-07-07 23:00:34,18,0,24.333,5510.0965286853,122.375332,0.671082,1.42319886444,0,0,-0.671082,95.3, 1.6, -0.3,0,0,1024,1024,1024,1024,94.2,-89.9,98,4.062,4.049,4.055,4.046,4.076,4.058,17.874,89.6,14,Waypoint,
38.5374669,-120.3487199,5511.0807806853,123.359584,0.223694,0.76458007696,18100,2018-07-07 23:00:35,18,0,24.333,5511.0807806853,123.359584,0.671082,1.42319886444,0,0,-0.671082,95.1, 1.4, -0.2,0,0,1024,1024,1024,1024,94.2,-89.9,98,4.062,4.049,4.055,4.046,4.076,4.058,17.874,89.6,14,Waypoint,
38.5374669,-120.3487199,5512.0650326853,124.343836,0.223694,0.76458007696,18200,2018-07-07 23:00:35,18,0,24.333,5512.0650326853,124.343836,0.671082,1.42319886444,0,0,-0.671082,94.9, 1.3, -0.1,0,0,1024,1024,1024,1024,94.2,-89.9,98,4.062,4.049,4.055,4.046,4.076,4.058,17.874,89.6,14,Waypoint,
38.5374669,-120.3487199,5513.0492846853,125.328088,0.223694,0.76458007696,18300,2018-07-07 23:00:35,18,0,24.333,5513.0492846853,125.328088,0.671082,1.42319886444,0,0,-0.671082,94.8, 1.2, 0,0,0,1024,1024,1024,1024,94.2,-89.9,98,4.062,4.049,4.055,4.046,4.076,4.058,17.874,89.6,14,Waypoint,
38.5374669,-120.3487198,5514.0335366853,126.31234,0.223694,0.75655186148,18400,2018-07-07 23:00:35,18,0,24.333,5514.0335366853,126.31234,0.671082,1.42319886444,0,0,-0.671082,94.8, 1.4, 0,0,0,1024,1024,1024,1024,94.2,-89.9,98,4.062,4.049,4.055,4.046,4.076,4.058,17.874,89.6,14,Waypoint,
38.5374669,-120.3487198,5515.0177886853,127.296592,0.223694,0.75655186148,18500,2018-07-07 23:00:35,18,0,24.333,5515.0177886853,127.296592,0.671082,1.42319886444,0,0,-0.671082,94.8, 1.6, -0.1,0,0,1024,1024,1024,1024,94.2,-89.9,98,4.062,4.049,4.055,4.046,4.076,4.058,17.874,89.6,14,Waypoint,
38.5374669,-120.3487198,5516.3301246853,128.608928,0.223694,0.75655186148,18600,2018-07-07 23:00:35,18,0,24.333,5516.3301246853,128.608928,0.671082,1.42319886444,0,0,-0.671082,94.9, 1.6, -0.1,0,0,1024,1024,1024,1024,94.2,-89.9,98,4.062,4.049,4.055,4.046,4.076,4.058,17.874,89.6,14,Waypoint,
38.5374669,-120.3487198,5516.9862926853,129.265096,0.223694,0.75655186148,18700,2018-07-07 23:00:35,18,0,24.333,5516.9862926853,129.265096,0.671082,1.42319886444,0,0,-0.671082,95, 1.6, -0.2,0,0,1024,1024,1024,1024,94.2,-89.9,98,4.062,4.049,4.055,4.046,4.076,4.058,17.874,89.6,14,Waypoint,
38.5374669,-120.3487197,5517.9705446853,130.249348,0.223694,0.74952102136,18800,2018-07-07 23:00:35,18,0,24.333,5517.9705446853,130.249348,0.671082,1.42319886444,0,0,-0.671082,95.2, 1.6, 0,0,0,1024,1024,1024,1024,94.2,-89.9,98,4.062,4.049,4.055,4.046,4.076,4.058,17.874,89.6,14,Waypoint,
38.5374669,-120.3487197,5519.9390486853,132.217852,0.223694,0.74952102136,18900,2018-07-07 23:00:35,18,0,24.333,5519.9390486853,132.217852,0.671082,1.42319886444,0,0,-0.671082,95.3, 2, 0,0,0,1024,1024,1024,1024,94.2,-89.9,98,4.062,4.049,4.055,4.046,4.076,4.058,17.874,89.6,14,Waypoint,
38.5374669,-120.3487196,5520.9233006853,133.202104,0.223694,0.743520365,19000,2018-07-07 23:00:35,18,0,24.354,5520.9233006853,133.202104,0.671082,1.42319886444,0,0,-0.671082,95.3, 2.2, 0,0,0,1024,1024,1024,1024,94.2,-89.9,98,4.065,4.053,4.043,4.049,4.077,4.059,17.486,89.6,14,Waypoint,
38.5374669,-120.3487195,5522.8918046853,135.170608,0.223694,0.73857285828,19200,2018-07-07 23:00:36,18,0,24.354,5522.8918046853,135.170608,0.671082,1.42319886444,0,0,-0.671082,95.1, 2.5, 0,0,0,1024,1024,1024,1024,94.2,-89.9,98,4.065,4.053,4.043,4.049,4.077,4.059,17.486,89.6,14,Waypoint,
38.5374669,-120.3487195,5524.5322246853,136.811028,0.223694,0.73857285828,19400,2018-07-07 23:00:36,18,0,24.354,5524.5322246853,136.811028,0.671082,1.42319886444,0,0,-0.671082,95.1, 2.2, -0.1,0,0,1024,1024,1024,1024,94.2,-89.9,98,4.065,4.053,4.043,4.049,4.077,4.059,17.486,89.6,14,Waypoint,
38.537467,-120.3487195,5526.5007286853,138.779532,0.223694,0.70254923508,19700,2018-07-07 23:00:36,18,0,24.354,5526.5007286853,138.779532,0.671082,1.42319886444,0,0,-0.671082,95.2, 1.9, 0,0,0,1024,1024,1024,1024,94.2,-89.9,98,4.065,4.053,4.043,4.049,4.077,4.059,17.486,89.6,14,Waypoint,
38.5374671,-120.3487195,5528.4692326853,140.748036,0.447388,0.66657482448,19800,2018-07-07 23:00:36,18,0,24.354,5528.4692326853,140.748036,0.671082,1.42319886444,0,0,-0.671082,95.2, 2, 0.2,0,0,1024,1024,1024,1024,94.2,-89.9,98,4.065,4.053,4.043,4.049,4.077,4.059,17.486,89.6,14,Waypoint,
38.5374671,-120.3487195,5529.7815686853,142.060372,0.447388,0.66657482448,20000,2018-07-07 23:00:36,18,0,24.354,5529.7815686853,142.060372,0.671082,1.42319886444,0,0,-0.671082,95.2, 2.2, 0.3,0,0,1024,1024,1024,1024,94.2,-89.9,98,4.065,4.053,4.043,4.049,4.077,4.059,17.486,89.6,14,Waypoint,
38.5374672,-120.3487194,5530.4377366853,142.71654,0.447388,0.62612534812,20100,2018-07-07 23:00:37,18,0,24.354,5530.4377366853,142.71654,0.671082,1.42319886444,0,0,-0.671082,95.1, 2.3, 0.4,0,0,1024,1024,1024,1024,94.2,-89.9,98,4.065,4.053,4.043,4.049,4.077,4.059,17.486,89.6,14,Waypoint,
38.5374672,-120.3487194,5531.4219886853,143.700792,0.447388,0.62612534812,20200,2018-07-07 23:00:37,18,0,24.354,5531.4219886853,143.700792,0.671082,1.42319886444,0,0,-0.671082,95.1, 2.3, 0.6,0,0,1024,1024,1024,1024,94.2,-89.9,98,4.065,4.053,4.043,4.049,4.077,4.059,17.486,89.6,14,Waypoint,
38.5374673,-120.3487194,5532.4062406853,144.685044,0.223694,0.59000329972,20300,2018-07-07 23:00:37,18,0,24.354,5532.4062406853,144.685044,0.671082,1.42319886444,0,0,-0.671082,95.1, 2.2, 0.7,0,0,1024,1024,1024,1024,94.2,-89.9,98,4.065,4.053,4.043,4.049,4.077,4.059,17.486,89.6,14,Waypoint,
38.5374673,-120.3487194,5533.3904926853,145.669296,0.223694,0.59000329972,20400,2018-07-07 23:00:37,18,0,24.354,5533.3904926853,145.669296,0.671082,1.42319886444,0,0,-0.671082,95.1, 2, 0.7,0,0,1024,1024,1024,1024,94.2,-89.9,98,4.065,4.053,4.043,4.049,4.077,4.059,17.486,89.6,14,Waypoint,
38.5374673,-120.3487194,5534.3747446853,146.653548,0.223694,0.59000329972,20500,2018-07-07 23:00:37,18,0,24.354,5534.3747446853,146.653548,0.671082,1.42319886444,0,0,-0.671082,95.1, 2, 0.4,0,0,1024,1024,1024,1024,94.2,-89.9,98,4.065,4.053,4.043,4.049,4.077,4.059,17.486,89.6,14,Waypoint,
38.5374674,-120.3487194,5536.6713326853,148.950136,0.223694,0.55393046392,20700,2018-07-07 23:00:37,18,0,24.354,5536.6713326853,148.950136,0.671082,1.42319886444,0,0,-0.671082,95.1, 2.1, 0.5,0,0,1024,1024,1024,1024,94.2,-89.9,98,4.065,4.053,4.043,4.049,4.077,4.059,17.486,89.6,14,Waypoint,
38.5374674,-120.3487194,5537.6555846853,149.934388,0.223694,0.55393046392,20800,2018-07-07 23:00:37,18,0,24.354,5537.6555846853,149.934388,0.671082,1.42319886444,0,0,-0.671082,95.2, 2, 0.6,0,0,1024,1024,1024,1024,94.2,-89.9,98,4.065,4.053,4.043,4.049,4.077,4.059,17.486,89.6,14,Waypoint,
38.5374675,-120.3487195,5539.6240886853,151.902892,0.223694,0.52338912436,20900,2018-07-07 23:00:37,18,0,24.354,5539.6240886853,151.902892,0.671082,1.42319886444,0,0,-0.671082,95.3, 2, 0.8,0,0,1024,1024,1024,1024,94.2,-89.9,98,4.065,4.053,4.043,4.049,4.077,4.059,17.486,89.6,14,Waypoint,
38.5374675,-120.3487195,5540.6083406853,152.887144,0.223694,0.52338912436,21000,2018-07-07 23:00:37,18,0,24.25,5540.6083406853,152.887144,0.671082,1.42319886444,0,0,-0.671082,95.3, 1.9, 0.6,0,0,1024,1024,1024,1024,94.2,-89.9,97,4.048,4.035,4.022,4.035,4.061,4.039,18.832,89.6,14,Waypoint,
38.5374675,-120.3487195,5541.5925926853,153.871396,0.223694,0.52338912436,21100,2018-07-07 23:00:38,18,0,24.25,5541.5925926853,153.871396,0.671082,1.42319886444,0,0,-0.671082,95.3, 1.9, 0.5,0,0,1024,1024,1024,1024,94.2,-89.9,97,4.048,4.035,4.022,4.035,4.061,4.039,18.832,89.6,14,Waypoint,
38.5374675,-120.3487195,5543.5610966853,155.8399,0.223694,0.52338912436,21300,2018-07-07 23:00:38,18,0,24.25,5543.5610966853,155.8399,0.671082,1.42319886444,0,0,-0.671082,95.3, 2, 0.6,0,0,1024,1024,1024,1024,94.2,-89.9,97,4.048,4.035,4.022,4.035,4.061,4.039,18.832,89.6,14,Waypoint,
38.5374675,-120.3487195,5544.2172646853,156.496068,0.223694,0.52338912436,21400,2018-07-07 23:00:38,18,0,24.25,5544.2172646853,156.496068,0.671082,1.42319886444,0,0,-0.671082,95.3, 2, 0.6,0,0,1024,1024,1024,1024,94.2,-89.9,97,4.048,4.035,4.022,4.035,4.061,4.039,18.832,89.6,14,Waypoint,
38.5374675,-120.3487196,5545.2015166853,157.48032,0.223694,0.53034450516,21500,2018-07-07 23:00:38,18,0,24.25,5545.2015166853,157.48032,0.671082,1.42319886444,0,0,-0.671082,95.3, 2, 0.6,0,0,1024,1024,1024,1024,94.2,-89.9,97,4.048,4.035,4.022,4.035,4.061,4.039,18.832,89.6,14,Waypoint,
38.5374675,-120.3487196,5546.1857686853,158.464572,0.223694,0.53034450516,21600,2018-07-07 23:00:38,18,0,24.25,5546.1857686853,158.464572,0.671082,1.42319886444,0,0,-0.671082,95.3, 2.1, 0.5,0,0,1024,1024,1024,1024,94.2,-89.9,97,4.048,4.035,4.022,4.035,4.061,4.039,18.832,89.6,14,Waypoint,
38.5374675,-120.3487196,5547.1700206853,159.448824,0.223694,0.53034450516,21700,2018-07-07 23:00:38,18,0,24.25,5547.1700206853,159.448824,0.671082,1.42319886444,0,0,-0.671082,95.2, 2.3, 0.5,0,0,1024,1024,1024,1024,94.2,-89.9,97,4.048,4.035,4.022,4.035,4.061,4.039,18.832,89.6,14,Waypoint,
38.5374675,-120.3487196,5548.4823566853,160.76116,0.223694,0.53034450516,21900,2018-07-07 23:00:38,18,0,24.25,5548.4823566853,160.76116,0.671082,1.42319886444,0,0,-0.671082,95.2, 2.2, 0.7,0,0,1024,1024,1024,1024,94.2,-89.9,97,4.048,4.035,4.022,4.035,4.061,4.039,18.832,89.6,14,Waypoint,
38.5374675,-120.3487196,5549.1385246853,161.417328,0.223694,0.53034450516,22000,2018-07-07 23:00:38,18,0,24.233,5549.1385246853,161.417328,0.671082,1.42319886444,0,0,-0.671082,95.2, 2.3, 0.7,0,0,1024,1024,1024,1024,94.2,-89.9,97,4.048,4.035,4.022,4.035,4.061,4.039,18.258,89.6,14,Waypoint,
38.5374675,-120.3487195,5550.1227766853,162.40158,0.223694,0.52338912436,22100,2018-07-07 23:00:39,18,0,24.233,5550.1227766853,162.40158,0.671082,1.42319886444,0,0,-0.671082,95.2, 2.3, 0.8,0,0,1024,1024,1024,1024,94.2,-89.9,97,4.048,4.035,4.022,4.035,4.061,4.039,18.258,89.6,14,Waypoint,
38.5374675,-120.3487195,5551.1070286853,163.385832,0.223694,0.52338912436,22200,2018-07-07 23:00:39,18,0,24.233,5551.1070286853,163.385832,0.671082,1.42319886444,0,0,-0.671082,95.1, 2.4, 0.6,0,0,1024,1024,1024,1024,94.2,-89.9,97,4.048,4.035,4.022,4.035,4.061,4.039,18.258,89.6,14,Waypoint,
38.5374675,-120.3487195,5552.0912806853,164.370084,0.223694,0.52338912436,22300,2018-07-07 23:00:39,18,0,24.233,5552.0912806853,164.370084,0.671082,1.42319886444,0,0,-0.671082,95.2, 2.4, 0.5,0,0,1024,1024,1024,1024,94.2,-89.9,97,4.048,4.035,4.022,4.035,4.061,4.039,18.258,89.6,14,Waypoint,
38.5374675,-120.3487196,5553.0755326853,165.354336,0.223694,0.53034450516,22400,2018-07-07 23:00:39,18,0,24.233,5553.0755326853,165.354336,0.671082,1.42319886444,0,0,-0.671082,95.2, 2.3, 0.4,0,0,1024,1024,1024,1024,94.2,-89.9,97,4.048,4.035,4.022,4.035,4.061,4.039,18.258,89.6,14,Waypoint,
38.5374675,-120.3487196,5554.3878686853,166.666672,0.223694,0.53034450516,22500,2018-07-07 23:00:39,18,0,24.233,5554.3878686853,166.666672,0.671082,1.42319886444,0,0,-0.671082,95.2, 2.2, 0.4,0,0,1024,1024,1024,1024,94.2,-90,97,4.048,4.035,4.022,4.035,4.061,4.039,18.258,89.6,14,Waypoint,
38.5374675,-120.3487196,5555.3721206853,167.650924,0.223694,0.53034450516,22600,2018-07-07 23:00:39,18,0,24.233,5555.3721206853,167.650924,0.671082,1.42319886444,0,0,-0.671082,95.2, 2.1, 0.5,0,0,1024,1024,1024,1024,94.2,-90,97,4.048,4.035,4.022,4.035,4.061,4.039,18.258,89.6,14,Waypoint,
38.5374675,-120.3487196,5556.3563726853,168.635176,0.223694,0.53034450516,22700,2018-07-07 23:00:39,18,0,24.233,5556.3563726853,168.635176,0.671082,1.42319886444,0,0,-0.671082,95.2, 2.2, 0.6,0,0,1024,1024,1024,1024,94.2,-89.9,97,4.048,4.035,4.022,4.035,4.061,4.039,18.258,89.6,14,Waypoint,
38.5374675,-120.3487196,5557.3406246853,169.619428,0.223694,0.53034450516,22800,2018-07-07 23:00:39,18,0,24.233,5557.3406246853,169.619428,0.671082,1.42319886444,0,0,-0.671082,95.2, 2.5, 0.8,0,0,1024,1024,1024,1024,94.2,-89.9,97,4.048,4.035,4.022,4.035,4.061,4.039,18.258,89.6,14,Waypoint,
38.5374675,-120.3487196,5558.3248766853,170.60368,0.223694,0.53034450516,22900,2018-07-07 23:00:39,18,0,24.233,5558.3248766853,170.60368,0.671082,1.42319886444,0,0,-0.671082,95.2, 2.8, 0.9,0,0,1024,1024,1024,1024,94.2,-89.9,97,4.048,4.035,4.022,4.035,4.061,4.039,18.258,89.6,14,Waypoint,
38.5374676,-120.3487196,5560.2933806853,172.572184,0.223694,0.49530513396,23000,2018-07-07 23:00:39,18,0,24.233,5560.2933806853,172.572184,0.671082,1.42319886444,0,0,-0.671082,95.2, 2.7, 0.7,0,0,1024,1024,1024,1024,94.2,-89.9,97,4.051,4.03,4.029,4.021,4.062,4.042,18.258,89.6,14,Waypoint,
38.5374676,-120.3487196,5561.2776326853,173.556436,0.223694,0.49530513396,23100,2018-07-07 23:00:40,18,0,24.233,5561.2776326853,173.556436,0.671082,1.42319886444,0,0,-0.671082,95.2, 2.6, 0.8,0,0,1024,1024,1024,1024,94.2,-89.9,97,4.051,4.03,4.029,4.021,4.062,4.042,18.258,89.6,14,Waypoint,
38.5374676,-120.3487197,5562.2618846853,174.540688,0.223694,0.504265108,23200,2018-07-07 23:00:40,18,0,24.233,5562.2618846853,174.540688,0.671082,1.42319886444,0,0,-0.671082,95.2, 2.5, 0.9,0,0,1024,1024,1024,1024,94.2,-89.9,97,4.051,4.03,4.029,4.021,4.062,4.042,18.258,89.6,14,Waypoint,
38.5374676,-120.3487197,5563.2461366853,175.52494,0.223694,0.504265108,23300,2018-07-07 23:00:40,18,0,24.233,5563.2461366853,175.52494,0.671082,1.42319886444,0,0,-0.671082,95.3, 2.4, 1,0,0,1024,1024,1024,1024,94.2,-89.9,97,4.051,4.03,4.029,4.021,4.062,4.042,18.258,89.6,14,Waypoint,
38.5374676,-120.3487197,5564.2303886853,176.509192,0.223694,0.504265108,23400,2018-07-07 23:00:40,18,0,24.233,5564.2303886853,176.509192,0.671082,1.42319886444,0,0,-0.671082,95.3, 2.3, 1,0,0,1024,1024,1024,1024,94.2,-89.9,97,4.051,4.03,4.029,4.021,4.062,4.042,18.258,89.6,14,Waypoint,
38.5374676,-120.3487198,5565.2146406853,177.493444,0.223694,0.51465880912,23500,2018-07-07 23:00:40,18,0,24.233,5565.2146406853,177.493444,0.671082,1.42319886444,0,0,-0.671082,95.3, 2.2, 1,0,0,1024,1024,1024,1024,94.2,-89.9,97,4.051,4.03,4.029,4.021,4.062,4.042,18.258,89.6,14,Waypoint,
38.5374676,-120.3487198,5566.1988926853,178.477696,0.223694,0.51465880912,23600,2018-07-07 23:00:40,18,0,24.233,5566.1988926853,178.477696,0.671082,1.42319886444,0,0,-0.671082,95.3, 2.2, 0.9,0,0,1024,1024,1024,1024,94.2,-89.9,97,4.051,4.03,4.029,4.021,4.062,4.042,18.258,89.6,14,Waypoint,
38.5374676,-120.3487198,5567.1831446853,179.461948,0.223694,0.51465880912,23700,2018-07-07 23:00:40,18,0,24.233,5567.1831446853,179.461948,0.671082,1.42319886444,0,0,-0.671082,95.3, 2.3, 0.9,0,0,1024,1024,1024,1024,94.2,-89.9,97,4.051,4.03,4.029,4.021,4.062,4.042,18.258,89.6,14,Waypoint,
38.5374676,-120.3487198,5568.1673966853,180.4462,0.223694,0.51465880912,23800,2018-07-07 23:00:40,18,0,24.233,5568.1673966853,180.4462,0.671082,1.42319886444,0,0,-0.671082,95.2, 2.6, 0.9,0,0,1024,1024,1024,1024,94.2,-89.9,97,4.051,4.03,4.029,4.021,4.062,4.042,18.258,89.6,14,Waypoint,
38.5374676,-120.3487198,5569.1516486853,181.430452,0.223694,0.51465880912,23900,2018-07-07 23:00:40,18,0,24.233,5569.1516486853,181.430452,0.671082,1.42319886444,0,0,-0.671082,95.2, 2.8, 0.7,0,0,1024,1024,1024,1024,94.2,-89.9,97,4.051,4.03,4.029,4.021,4.062,4.042,18.258,89.6,14,Waypoint,
38.5374676,-120.3487198,5570.1359006853,182.414704,0.223694,0.51465880912,24100,2018-07-07 23:00:41,18,0,24.233,5570.1359006853,182.414704,0.671082,1.42319886444,0,0,-0.671082,95.2, 2.9, 0.7,0,0,1024,1024,1024,1024,94.2,-89.9,97,4.051,4.03,4.029,4.021,4.062,4.042,18.258,89.6,14,Waypoint,
38.5374676,-120.3487197,5572.1044046853,184.383208,0.223694,0.504265108,24200,2018-07-07 23:00:41,18,0,24.233,5572.1044046853,184.383208,0.671082,1.42319886444,0,0,-0.671082,95.3, 3, 0.7,0,0,1024,1024,1024,1024,94.2,-89.9,97,4.051,4.03,4.029,4.021,4.062,4.042,18.258,89.6,14,Waypoint,
38.5374675,-120.3487197,5573.0886566853,185.36746,0.223694,0.53872705136,24400,2018-07-07 23:00:41,18,0,24.233,5573.0886566853,185.36746,0.671082,1.42319886444,0,0,-0.671082,95.3, 3.1, 0.7,0,0,1024,1024,1024,1024,94.2,-89.9,97,4.051,4.03,4.029,4.021,4.062,4.042,18.258,89.6,14,Waypoint,
38.5374675,-120.3487196,5574.0729086853,186.351712,0.223694,0.53034450516,24500,2018-07-07 23:00:41,18,0,24.233,5574.0729086853,186.351712,0.671082,1.42319886444,0,0,-0.671082,95.3, 3.2, 0.7,0,0,1024,1024,1024,1024,94.2,-89.9,97,4.051,4.03,4.029,4.021,4.062,4.042,18.258,89.6,14,Waypoint,
38.5374675,-120.3487196,5575.0571606853,187.335964,0.223694,0.53034450516,24600,2018-07-07 23:00:41,18,0,24.233,5575.0571606853,187.335964,0.671082,1.42319886444,0,0,-0.671082,95.2, 3.3, 0.6,0,0,1024,1024,1024,1024,94.2,-89.9,97,4.051,4.03,4.029,4.021,4.062,4.042,18.258,89.6,14,Waypoint,
38.5374675,-120.3487196,5576.0414126853,188.320216,0.223694,0.53034450516,24700,2018-07-07 23:00:41,18,0,24.233,5576.0414126853,188.320216,0.671082,1.42319886444,0,0,-0.671082,95.2, 3.3, 0.7,0,0,1024,1024,1024,1024,94.2,-89.9,97,4.051,4.03,4.029,4.021,4.062,4.042,18.258,89.6,14,Waypoint,
38.5374675,-120.3487195,5577.0256646853,189.304468,0.223694,0.52338912436,24800,2018-07-07 23:00:41,18,0,24.233,5577.0256646853,189.304468,0.671082,1.42319886444,0,0,-0.671082,95.2, 3.3, 0.6,0,0,1024,1024,1024,1024,94.2,-89.9,97,4.051,4.03,4.029,4.021,4.062,4.042,18.258,89.6,14,Waypoint,
38.5374675,-120.3487195,5578.0099166853,190.28872,0.223694,0.52338912436,24900,2018-07-07 23:00:41,18,0,24.233,5578.0099166853,190.28872,0.671082,1.42319886444,0,0,-0.671082,95.1, 3.5, 0.6,0,0,1024,1024,1024,1024,94.2,-89.9,97,4.051,4.03,4.029,4.021,4.062,4.042,18.258,89.6,14,Waypoint,
38.5374675,-120.3487195,5578.9941686853,191.272972,0.223694,0.52338912436,25000,2018-07-07 23:00:41,18,0,24.212,5578.9941686853,191.272972,0.671082,1.42319886444,0,0,-0.671082,95.1, 3.6, 0.8,0,0,1024,1024,1024,1024,94.2,-89.9,97,4.047,4.029,4.025,4.03,4.062,4.035,18.145,89.6,14,Waypoint,
38.5374675,-120.3487194,5579.9784206853,192.257224,0.223694,0.5179134024,25100,2018-07-07 23:00:42,18,0,24.212,5579.9784206853,192.257224,0.671082,1.42319886444,0,0,-0.671082,95.1, 3.5, 0.9,0,0,1024,1024,1024,1024,94.2,-89.9,97,4.047,4.029,4.025,4.03,4.062,4.035,18.145,89.6,14,Waypoint,
38.5374675,-120.3487194,5580.9626726853,193.241476,0.223694,0.5179134024,25200,2018-07-07 23:00:42,18,0,24.212,5580.9626726853,193.241476,0.671082,1.42319886444,0,0,-0.671082,95.2, 3.3, 1,0,0,1024,1024,1024,1024,94.2,-89.9,97,4.047,4.029,4.025,4.03,4.062,4.035,18.145,89.6,14,Waypoint,
38.5374675,-120.3487194,5581.9469246853,194.225728,0.223694,0.5179134024,25300,2018-07-07 23:00:42,18,0,24.212,5581.9469246853,194.225728,0.671082,1.42319886444,0,0,-0.671082,95.2, 3.2, 1,0,0,1024,1024,1024,1024,94.2,-89.9,97,4.047,4.029,4.025,4.03,4.062,4.035,18.145,89.6,14,Waypoint,
38.5374675,-120.3487195,5582.9311766853,195.20998,0.223694,0.52338912436,25400,2018-07-07 23:00:42,18,0,24.212,5582.9311766853,195.20998,0.671082,1.42319886444,0,0,-0.671082,95.2, 3.1, 0.9,0,0,1024,1024,1024,1024,94.2,-89.9,97,4.047,4.029,4.025,4.03,4.062,4.035,18.145,89.6,14,Waypoint,
38.5374674,-120.3487195,5584.8996806853,197.178484,0.223694,0.55905185516,25600,2018-07-07 23:00:42,18,0,24.212,5584.8996806853,197.178484,0.671082,1.42319886444,0,0,-0.671082,95.3, 3, 0.6,0,0,1024,1024,1024,1024,94.2,-89.9,97,4.047,4.029,4.025,4.03,4.062,4.035,18.145,89.6,14,Waypoint,
38.5374674,-120.3487195,5586.8681846853,199.146988,0.223694,0.55905185516,25700,2018-07-07 23:00:42,18,0,24.212,5586.8681846853,199.146988,0.671082,1.42319886444,0,0,-0.671082,95.2, 3, 0.5,0,0,1024,1024,1024,1024,94.2,-89.9,97,4.047,4.029,4.025,4.03,4.062,4.035,18.145,89.6,14,Waypoint,
38.5374675,-120.3487195,5587.8524366853,200.13124,0.223694,0.52338912436,25800,2018-07-07 23:00:42,18,0,24.212,5587.8524366853,200.13124,0.671082,1.42319886444,0,0,-0.671082,95.2, 3.1, 0.7,0,0,1024,1024,1024,1024,94.2,-89.9,97,4.047,4.029,4.025,4.03,4.062,4.035,18.145,89.6,14,Waypoint,
38.5374675,-120.3487195,5588.8366886853,201.115492,0.223694,0.52338912436,26000,2018-07-07 23:00:42,18,0,24.209,5588.8366886853,201.115492,0.671082,1.42319886444,0,0,-0.671082,95.2, 3.1, 0.9,0,0,1024,1024,1024,1024,94.2,-89.9,97,4.046,4.023,4.023,4.022,4.062,4.038,18.085,89.6,14,Waypoint,
38.5374675,-120.3487195,5590.8051926853,203.083996,0.223694,0.52338912436,26100,2018-07-07 23:00:43,18,0,24.209,5590.8051926853,203.083996,0.671082,1.42319886444,0,0,-0.671082,95.2, 3.2, 1,0,0,1024,1024,1024,1024,94.2,-89.9,97,4.046,4.023,4.023,4.022,4.062,4.038,18.085,89.6,14,Waypoint,
38.5374675,-120.3487195,5591.7894446853,204.068248,0.223694,0.52338912436,26200,2018-07-07 23:00:43,18,0,24.209,5591.7894446853,204.068248,0.671082,1.42319886444,0,0,-0.671082,95.2, 3.3, 1.1,0,0,1024,1024,1024,1024,94.2,-89.9,97,4.046,4.023,4.023,4.022,4.062,4.038,18.085,89.6,14,Waypoint,
38.5374676,-120.3487195,5593.7579486853,206.036752,0.223694,0.48784778464,26400,2018-07-07 23:00:43,18,0,24.209,5593.7579486853,206.036752,0.671082,1.42319886444,0,0,-0.671082,95.2, 3, 1.3,0,0,1024,1024,1024,1024,94.2,-89.9,97,4.046,4.023,4.023,4.022,4.062,4.038,18.085,89.6,14,Waypoint,
38.5374676,-120.3487196,5594.7422006853,207.021004,0.223694,0.49530513396,26600,2018-07-07 23:00:43,18,0,24.209,5594.7422006853,207.021004,0.671082,1.42319886444,0,0,-0.671082,95.2, 2.8, 1.2,0,0,1024,1024,1024,1024,94.2,-89.9,97,4.046,4.023,4.023,4.022,4.062,4.038,18.085,89.6,14,Waypoint,
