Latitude, Longitude, Altitude (m), Time, Sats, Speed (m/s), Range (m), Battery (%), Roll (deg), Pitch (deg), Yaw (deg), Images, HD Signal (%), RC Signal (%), Battery Temp (C), Battery Voltage (mV), Battery Current (mA), Battery Energy (mAh), Battery Capacity (mAh), Battery Discharges, flyState, timestamp (Unix), LastUpdate (ms), radioChannel, Rc_elevator, Rc_aileron, Rc_throttle, Rc_rudder, Rc_gyro, Dronetype, Battery_Cell1 (mV), Battery_Cell2 (mV), Battery_Cell3 (mV), Battery_Cell4 (mV), Battery_Cell5 (mV), Battery_Cell6 (mV), Video, isFlying, elapsedTime (ms), gimbalPitch (deg), gimbalRoll (deg), gimbalYaw (deg), VelocityX (m/s), VelocityY (m/s), VelocityZ (m/s), GroundSmear (cm), App Version, Aircraft Name, Aircraft Firmware, Aircraft Serial Number, Battery Serial Number, Battery Lifetime (%), App_Tip, App_Warning, CurrentFlightStartingIndex, CurrentFlightLastVisitedWaypoint, PreviousFlightEndingWaypointIndex
38.5374486, -120.3487233, 0.000, 15:21:02.346, 11, 0.00, 0.24, 98, 0.100, 0.800, 95.500, 374, 100, 100, 32, 25765, -2867, 5139, 5244, 24, 11, 1531002062.347, 50, 0, 1024, 1024, 1024, 1024, 0, 6, 4297, 4321, 4260, 4271, 4303, 4300, 0, 1, 3030, -89.900, 0.000, 96.200, 0.000, 0.000, -0.200, 0.0, MapPilot_2.8.1_04242018, Dendroctonus I, 1.3.1.00, 041DDC1887, 1058171200140, 94, DJI_0374.jpg, Starting Mission from Lat/Long: 38.53746/-120.34872 Camera: Zenmuse X3 - Overlap: 90/90 - Active Connection: No, 13, 13, 13
38.5374486, -120.3487233, 0.000, 15:21:02.417, 11, 0.00, 0.25, 98, 0.100, 0.500, 95.600, 374, 100, 100, 32, 25765, -2867, 5139, 5244, 24, 11, 1531002062.418, 13, 0, 1024, 1024, 1024, 1024, 0, 6, 4297, 4321, 4260, 4271, 4303, 4300, 0, 1, 3101, -89.900, 0.000, 96.200, 0.000, 0.000, -0.300, 0.0, , , , , , 94, , , 13, 13, 13
38.5374486, -120.3487234, 0.000, 15:21:02.517, 11, 0.00, 0.25, 98, 0.000, 0.200, 95.700, 374, 100, 100, 32, 25654, -3793, 5139, 5244, 24, 11, 1531002062.517, 12, 0, 1024, 1024, 1024, 1024, 0, 6, 4264, 4275, 4277, 4282, 4241, 4260, 0, 1, 3201, -89.900, 0.000, 96.200, 0.000, 0.000, -0.300, 0.0, , , , , , 94, , , 13, 13, 13
38.5374486, -120.3487234, 0.000, 15:21:02.617, 11, 0.00, 0.25, 98, 0.000, 0.100, 95.700, 374, 100, 100, 32, 25654, -3793, 5139, 5244, 24, 11, 1531002062.617, 12, 0, 1024, 1024, 1024, 1024, 0, 6, 4264, 4275, 4277, 4282, 4241, 4260, 0, 1, 3300, -90.000, 0.000, 96.200, 0.000, 0.000, -0.300, 0.0, , , , , , 94, , , 13, 13, 13
38.5374486, -120.3487234, 0.000, 15:21:02.717, 11, 0.00, 0.25, 98, 0.000, 0.100, 95.700, 374, 100, 100, 32, 25654, -3793, 5139, 5244, 24, 11, 1531002062.717, 112, 0, 1024, 1024, 1024, 1024, 0, 6, 4264, 4275, 4277, 4282, 4241, 4260, 0, 1, 3400, -90.000, 0.000, 96.200, 0.000, 0.000, -0.300, 0.0, , , , , , 94, , , 13, 13, 13
38.5374487, -120.3487234, 0.100, 15:21:02.818, 9, 0.00, 0.24, 98, 0.400, 0.000, 95.700, 374, 100, 100, 32, 25654, -3793, 5139, 5244, 24, 11, 1531002062.818, 4, 0, 1024, 1024, 1024, 1024, 0, 6, 4264, 4275, 4277, 4282, 4241, 4260, 0, 1, 3502, -90.000, 0.000, 96.200, 0.000, 0.000, -0.400, 0.0, , , , , , 94, , , 13, 13, 13
38.5374487, -120.3487234, 0.100, 15:21:02.917, 9, 0.00, 0.24, 98, 0.400, 0.000, 95.700, 374, 100, 100, 32, 25654, -3793, 5139, 5244, 24, 11, 1531002062.917, 103, 0, 1024, 1024, 1024, 1024, 0, 6, 4264, 4275, 4277, 4282, 4241, 4260, 0, 1, 3601, -90.000, 0.000, 96.200, 0.000, 0.000, -0.400, 0.0, , , , , , 94, , , 13, 13, 13
38.5374487, -120.3487233, 0.200, 15:21:03.017, 9, 0.00, 0.23, 98, 0.700, -0.100, 95.700, 374, 100, 100, 32, 25654, -3793, 5139, 5244, 24, 11, 1531002063.017, 95, 0, 1024, 1024, 1024, 1024, 0, 6, 4264, 4275, 4277, 4282, 4241, 4260, 0, 1, 3700, -90.000, 0.000, 96.200, 0.000, 0.000, -0.400, 0.0, , , , , , 94, , , 13, 13, 13
38.5374488, -120.3487233, 0.200, 15:21:03.117, 9, 0.00, 0.23, 98, 0.900, 0.000, 95.600, 374, 100, 100, 32, 25654, -3793, 5139, 5244, 24, 11, 1531002063.117, 87, 0, 1024, 1024, 1024, 1024, 0, 6, 4264, 4275, 4277, 4282, 4241, 4260, 0, 1, 3801, -89.900, 0.000, 96.200, 0.000, 0.000, -0.400, 0.0, , , , , , 94, , , 13, 13, 13
38.5374488, -120.3487231, 0.200, 15:21:03.217, 9, 0.00, 0.22, 98, 1.000, 0.200, 95.600, 374, 100, 100, 32, 25654, -3793, 5139, 5244, 24, 11, 1531002063.217, 83, 0, 1024, 1024, 1024, 1024, 0, 6, 4264, 4275, 4277, 4282, 4241, 4260, 0, 1, 3901, -89.900, 0.000, 96.200, 0.000, 0.000, -0.400, 0.0, , , , , , 94, , , 13, 13, 13
38.5374489, -120.3487231, 0.300, 15:21:03.316, 9, 0.00, 0.22, 98, 1.200, 0.500, 95.600, 374, 100, 100, 32, 25654, -3793, 5139, 5244, 24, 11, 1531002063.317, 84, 0, 1024, 1024, 1024, 1024, 0, 6, 4264, 4275, 4277, 4282, 4241, 4260, 0, 1, 4000, -89.900, 0.000, 96.200, 0.000, 0.000, -0.400, 0.0, , , , , , 94, , , 13, 13, 13
38.5374489, -120.3487230, 0.300, 15:21:03.417, 9, 0.00, 0.22, 98, 1.200, 0.500, 95.600, 374, 100, 100, 32, 25654, -3793, 5139, 5244, 24, 11, 1531002063.417, 80, 0, 1024, 1024, 1024, 1024, 0, 6, 4264, 4275, 4277, 4282, 4241, 4260, 0, 1, 4101, -89.900, 0.000, 96.200, 0.000, 0.000, -0.400, 0.0, , , , , , 94, , , 13, 13, 13
38.5374489, -120.3487229, 0.400, 15:21:03.517, 10, 0.00, 0.22, 98, 0.900, 0.500, 95.600, 374, 100, 100, 32, 25654, -3793, 5139, 5244, 24, 11, 1531002063.517, 92, 0, 1024, 1024, 1024, 1024, 0, 6, 4264, 4275, 4277, 4282, 4241, 4260, 0, 1, 4201, -89.900, 0.000, 96.200, 0.000, 0.000, -0.400, 0.0, , , , , , 94, , , 13, 13, 13
38.5374488, -120.3487228, 0.400, 15:21:03.617, 10, 0.00, 0.22, 98, 0.900, 0.700, 95.600, 374, 100, 100, 32, 24975, -15189, 5139, 5244, 24, 11, 1531002063.617, 73, 0, 1024, 1024, 1024, 1024, 0, 6, 4148, 4157, 4175, 4183, 4149, 4144, 0, 1, 4300, -89.900, 0.000, 96.200, 0.000, 0.000, -0.500, 0.0, , , , , , 94, , , 13, 13, 13
38.5374488, -120.3487227, 0.500, 15:21:03.717, 10, 0.00, 0.23, 98, 0.900, 0.900, 95.600, 374, 100, 100, 32, 24975, -15189, 5139, 5244, 24, 11, 1531002063.718, 77, 0, 1024, 1024, 1024, 1024, 0, 6, 4148, 4157, 4175, 4183, 4149, 4144, 0, 1, 4401, -89.900, 0.000, 96.200, 0.000, 0.000, -0.500, 0.0, , , , , , 94, , , 13, 13, 13
38.5374488, -120.3487226, 0.500, 15:21:03.817, 10, 0.00, 0.23, 98, 1.000, 1.100, 95.600, 374, 100, 100, 32, 24975, -15189, 5139, 5244, 24, 11, 1531002063.817, 78, 0, 1024, 1024, 1024, 1024, 0, 6, 4148, 4157, 4175, 4183, 4149, 4144, 0, 1, 4500, -89.900, 0.000, 96.200, 0.000, 0.000, -0.500, 0.0, , , , , , 94, , , 13, 13, 13
38.5374487, -120.3487223, 0.700, 15:21:03.917, 9, 0.00, 0.24, 98, 0.900, 1.300, 95.600, 374, 100, 100, 32, 24975, -15189, 5139, 5244, 24, 11, 1531002063.918, 66, 0, 1024, 1024, 1024, 1024, 0, 6, 4148, 4157, 4175, 4183, 4149, 4144, 0, 1, 4601, -89.900, 0.000, 96.200, 0.000, 0.000, -0.400, 0.0, , , , , , 94, , , 13, 13, 13
38.5374487, -120.3487222, 0.700, 15:21:04.017, 10, 0.00, 0.25, 98, 0.800, 1.500, 95.600, 374, 100, 100, 32, 24975, -15189, 5139, 5244, 24, 11, 1531002064.017, 65, 0, 1024, 1024, 1024, 1024, 0, 6, 4148, 4157, 4175, 4183, 4149, 4144, 0, 1, 4700, -89.900, 0.000, 96.200, 0.000, 0.000, -0.400, 0.0, , , , , , 94, , , 13, 13, 13
38.5374486, -120.3487220, 0.700, 15:21:04.117, 10, 0.00, 0.26, 98, 0.800, 1.600, 95.600, 374, 100, 100, 32, 24975, -15189, 5139, 5244, 24, 11, 1531002064.117, 53, 0, 1024, 1024, 1024, 1024, 0, 6, 4148, 4157, 4175, 4183, 4149, 4144, 0, 1, 4800, -89.900, 0.000, 96.200, 0.000, 0.000, -0.400, 0.0, , , , , , 94, , , 13, 13, 13
38.5374485, -120.3487220, 0.800, 15:21:04.217, 10, 0.00, 0.27, 98, 0.700, 1.600, 95.700, 374, 100, 100, 32, 24975, -15189, 5139, 5244, 24, 11, 1531002064.217, 46, 0, 1024, 1024, 1024, 1024, 0, 6, 4148, 4157, 4175, 4183, 4149, 4144, 0, 1, 4900, -89.900, 0.000, 96.200, 0.000, 0.000, -0.500, 0.0, , , , , , 94, , , 13, 13, 13
38.5374484, -120.3487220, 0.800, 15:21:04.317, 10, 0.00, 0.28, 98, 0.600, 1.700, 95.700, 374, 100, 100, 32, 24975, -15189, 5139, 5244, 24, 11, 1531002064.317, 48, 0, 1024, 1024, 1024, 1024, 0, 6, 4148, 4157, 4175, 4183, 4149, 4144, 0, 1, 5000, -89.900, 0.000, 96.200, 0.000, 0.000, -0.500, 0.0, , , , , , 94, , , 13, 13, 13
38.5374484, -120.3487220, 0.900, 15:21:04.417, 10, 0.00, 0.28, 98, 0.500, 1.700, 95.600, 374, 100, 100, 32, 24975, -15189, 5139, 5244, 24, 14, 1531002064.417, 52, 0, 1024, 1024, 1024, 1024, 0, 6, 4148, 4157, 4175, 4183, 4149, 4144, 0, 1, 5100, -89.900, 0.000, 96.200, 0.000, 0.000, -0.500, 0.0, , , , , , 94, , , 13, 13, 13
38.5374485, -120.3487220, 1.000, 15:21:04.517, 10, 0.00, 0.28, 98, 0.500, 1.400, 95.600, 374, 100, 100, 32, 24779, -16245, 5139, 5244, 24, 14, 1531002064.517, 40, 0, 1024, 1024, 1024, 1024, 0, 6, 4112, 4134, 4136, 4143, 4122, 4135, 0, 1, 5200, -89.900, 0.000, 96.200, 0.000, 0.000, -0.300, 0.0, , , , , , 94, , , 13, 13, 13
38.5374484, -120.3487220, 1.000, 15:21:04.617, 9, 0.00, 0.29, 98, 0.800, 0.900, 95.700, 374, 100, 100, 32, 24779, -16245, 5139, 5244, 24, 14, 1531002064.617, 44, 0, 1024, 1024, 1024, 1024, 0, 6, 4112, 4134, 4136, 4143, 4122, 4135, 0, 1, 5300, -90.000, 0.000, 96.200, 0.000, 0.000, -0.200, 0.0, , , , , , 94, , , 13, 13, 13
38.5374483, -120.3487220, 1.000, 15:21:04.717, 9, 0.00, 0.30, 98, 0.700, 0.600, 95.700, 374, 100, 100, 32, 24779, -16245, 5139, 5244, 24, 14, 1531002064.718, 13, 0, 1024, 1024, 1024, 1024, 0, 6, 4112, 4134, 4136, 4143, 4122, 4135, 0, 1, 5401, -90.000, 0.000, 96.200, 0.000, 0.000, -0.300, 0.0, , , , , , 94, , , 13, 13, 13
38.5374481, -120.3487219, 1.000, 15:21:04.817, 9, 0.00, 0.32, 98, 0.400, 0.500, 95.800, 374, 100, 100, 32, 24779, -16245, 5139, 5244, 24, 14, 1531002064.817, 13, 0, 1024, 1024, 1024, 1024, 0, 6, 4112, 4134, 4136, 4143, 4122, 4135, 0, 1, 5500, -90.000, 0.000, 96.200, 0.000, 0.000, -0.300, 0.0, , , , , , 94, , , 13, 13, 13
38.5374479, -120.3487219, 1.100, 15:21:04.917, 9, 0.00, 0.34, 98, -0.100, 0.600, 95.800, 374, 100, 100, 32, 24779, -16245, 5139, 5244, 24, 14, 1531002064.918, 19, 0, 1024, 1024, 1024, 1024, 0, 6, 4112, 4134, 4136, 4143, 4122, 4135, 0, 1, 5601, -90.000, 0.000, 96.200, 0.000, 0.000, -0.400, 0.0, , , , , , 94, , , 13, 13, 13
38.5374477, -120.3487219, 1.100, 15:21:05.016, 9, 0.00, 0.36, 98, -0.400, 0.800, 95.700, 374, 100, 100, 32, 24779, -16245, 5139, 5244, 24, 14, 1531002065.017, 10, 0, 1024, 1024, 1024, 1024, 0, 6, 4112, 4134, 4136, 4143, 4122, 4135, 0, 1, 5700, -90.000, 0.000, 96.200, 0.000, 0.000, -0.500, 0.0, , , , , , 94, , , 13, 13, 13
38.5374477, -120.3487219, 1.100, 15:21:05.116, 9, 0.00, 0.36, 98, -0.400, 0.800, 95.700, 374, 100, 100, 32, 24779, -16245, 5139, 5244, 24, 14, 1531002065.116, 110, 0, 1024, 1024, 1024, 1024, 0, 6, 4112, 4134, 4136, 4143, 4122, 4135, 0, 1, 5800, -90.000, 0.000, 96.200, 0.000, 0.000, -0.500, 0.0, , , , , , 94, , , 13, 13, 13
38.5374476, -120.3487219, 1.200, 15:21:05.217, 9, 0.00, 0.38, 98, -0.400, 0.800, 95.700, 374, 100, 100, 32, 24779, -16245, 5139, 5244, 24, 14, 1531002065.217, 76, 0, 1024, 1024, 1024, 1024, 0, 6, 4112, 4134, 4136, 4143, 4122, 4135, 0, 1, 5900, -89.900, 0.000, 96.200, 0.000, 0.000, -0.700, 0.0, , , , , , 94, , , 13, 13, 13
38.5374475, -120.3487219, 1.300, 15:21:05.317, 10, 0.00, 0.39, 98, -0.300, 0.900, 95.700, 374, 100, 100, 32, 24779, -16245, 5139, 5244, 24, 14, 1531002065.317, 87, 0, 1024, 1024, 1024, 1024, 0, 6, 4112, 4134, 4136, 4143, 4122, 4135, 0, 1, 6000, -89.900, 0.000, 96.200, 0.000, 0.000, -0.900, 0.0, , , , , , 94, , , 13, 13, 13
38.5374474, -120.3487218, 1.400, 15:21:05.417, 10, 0.00, 0.40, 98, -0.200, 0.900, 95.600, 374, 100, 100, 32, 24779, -16245, 5139, 5244, 24, 14, 1531002065.417, 89, 0, 1024, 1024, 1024, 1024, 0, 6, 4112, 4134, 4136, 4143, 4122, 4135, 0, 1, 6100, -89.900, 0.000, 96.200, 0.000, 0.000, -1.100, 0.0, , , , , , 94, , , 13, 13, 13
38.5374474, -120.3487218, 1.500, 15:21:05.517, 7, 0.00, 0.40, 98, 0.000, 0.900, 95.600, 374, 100, 100, 32, 24779, -16245, 5139, 5244, 24, 14, 1531002065.517, 86, 0, 1024, 1024, 1024, 1024, 0, 6, 4112, 4134, 4136, 4143, 4122, 4135, 0, 1, 6200, -89.900, 0.000, 96.200, 0.000, 0.000, -1.300, 0.0, , , , , , 94, , , 13, 13, 13
38.5374474, -120.3487218, 1.600, 15:21:05.617, 7, 0.00, 0.39, 98, 0.200, 0.900, 95.600, 374, 100, 100, 32, 24802, -15761, 5139, 5244, 24, 14, 1531002065.617, 86, 0, 1024, 1024, 1024, 1024, 0, 6, 4112, 4134, 4136, 4143, 4122, 4135, 0, 1, 6300, -89.900, 0.000, 96.200, 0.000, 0.000, -1.500, 0.0, , , , , , 94, , , 13, 13, 13
38.5374474, -120.3487217, 1.800, 15:21:05.717, 8, 0.00, 0.39, 98, 0.400, 1.000, 95.700, 374, 100, 100, 32, 24802, -15761, 5139, 5244, 24, 14, 1531002065.717, 65, 0, 1024, 1024, 1024, 1024, 0, 6, 4112, 4134, 4136, 4143, 4122, 4135, 0, 1, 6400, -89.900, 0.000, 96.200, 0.000, 0.000, -1.800, 0.0, , , , , , 94, , , 13, 13, 13
38.5374474, -120.3487217, 2.000, 15:21:05.817, 8, 0.00, 0.39, 98, 0.400, 1.000, 95.700, 374, 100, 100, 32, 24802, -15761, 5139, 5244, 24, 14, 1531002065.817, 78, 0, 1024, 1024, 1024, 1024, 0, 6, 4112, 4134, 4136, 4143, 4122, 4135, 0, 1, 6500, -90.000, 0.000, 96.200, 0.000, 0.000, -2.100, 0.0, , , , , , 94, , , 13, 13, 13
38.5374475, -120.3487216, 2.200, 15:21:05.917, 12, 0.00, 0.39, 98, 0.500, 0.900, 95.700, 374, 100, 100, 32, 24802, -15761, 5139, 5244, 24, 14, 1531002065.917, 67, 0, 1024, 1024, 1024, 1024, 0, 6, 4112, 4134, 4136, 4143, 4122, 4135, 0, 1, 6600, -89.900, 0.000, 96.200, 0.000, 0.000, -2.300, 0.0, , , , , , 94, , , 13, 13, 13
38.5374477, -120.3487213, 2.700, 15:21:06.017, 12, 0.00, 0.38, 98, 0.800, 1.000, 95.600, 374, 100, 100, 32, 24802, -15761, 5139, 5244, 24, 14, 1531002066.017, 67, 0, 1024, 1024, 1024, 1024, 0, 6, 4112, 4134, 4136, 4143, 4122, 4135, 0, 1, 6700, -89.900, 0.000, 96.200, 0.000, 0.000, -2.700, 0.0, , , , , , 94, , , 13, 13, 13
38.5374478, -120.3487212, 3.000, 15:21:06.117, 12, 0.00, 0.38, 98, 0.800, 1.300, 95.600, 374, 100, 100, 32, 24802, -15761, 5139, 5244, 24, 14, 1531002066.117, 53, 0, 1024, 1024, 1024, 1024, 0, 6, 4104, 4192, 4127, 4111, 4095, 4109, 0, 1, 6801, -89.900, 0.000, 96.200, 0.000, 0.000, -2.900, 0.0, , , , , , 94, , , 13, 13, 13
38.5374478, -120.3487210, 3.300, 15:21:06.217, 10, 0.00, 0.38, 98, 0.800, 1.500, 95.500, 374, 100, 100, 32, 24802, -15761, 5139, 5244, 24, 14, 1531002066.217, 45, 0, 1024, 1024, 1024, 1024, 0, 6, 4104, 4192, 4127, 4111, 4095, 4109, 0, 1, 6900, -89.900, 0.000, 96.200, 0.000, 0.000, -3.000, 0.0, , , , , , 94, , , 13, 13, 13
38.5374478, -120.3487208, 3.600, 15:21:06.317, 10, 0.00, 0.39, 98, 0.900, 1.600, 95.500, 374, 100, 100, 32, 24802, -15761, 5139, 5244, 24, 14, 1531002066.317, 58, 0, 1024, 1024, 1024, 1024, 0, 6, 4104, 4192, 4127, 4111, 4095, 4109, 0, 1, 7000, -89.900, 0.000, 96.200, 0.000, 0.000, -3.100, 0.0, , , , , , 94, , , 13, 13, 13
38.5374478, -120.3487207, 4.000, 15:21:06.417, 12, 0.00, 0.39, 98, 1.100, 1.800, 95.500, 374, 100, 100, 32, 24802, -15761, 5139, 5244, 24, 14, 1531002066.417, 25, 0, 1024, 1024, 1024, 1024, 0, 6, 4104, 4192, 4127, 4111, 4095, 4109, 0, 1, 7100, -89.900, 0.000, 96.200, 0.000, 0.000, -3.200, 0.0, , , , , , 94, , , 13, 13, 13
38.5374479, -120.3487206, 4.300, 15:21:06.517, 12, 0.00, 0.39, 98, 1.000, 1.700, 95.500, 374, 100, 100, 32, 24802, -15761, 5139, 5244, 24, 14, 1531002066.517, 41, 0, 1024, 1024, 1024, 1024, 0, 6, 4104, 4192, 4127, 4111, 4095, 4109, 0, 1, 7201, -89.900, 0.000, 96.200, 0.000, 0.000, -3.200, 0.0, , , , , , 94, , , 13, 13, 13
38.5374478, -120.3487206, 4.600, 15:21:06.617, 11, 0.00, 0.40, 98, 1.000, 1.600, 95.600, 374, 100, 100, 32, 24802, -15761, 5139, 5244, 24, 14, 1531002066.617, 30, 0, 1024, 1024, 1024, 1024, 0, 6, 4104, 4192, 4127, 4111, 4095, 4109, 0, 1, 7300, -89.900, 0.000, 96.200, 0.000, 0.000, -3.200, 0.0, , , , , , 94, , , 13, 13, 13
38.5374477, -120.3487205, 5.000, 15:21:06.717, 11, 0.00, 0.41, 98, 0.800, 1.600, 95.600, 374, 100, 100, 32, 24802, -15761, 5139, 5244, 24, 14, 1531002066.718, 26, 0, 1024, 1024, 1024, 1024, 0, 6, 4104, 4192, 4127, 4111, 4095, 4109, 0, 1, 7401, -89.900, 0.000, 96.200, 0.000, 0.000, -3.200, 0.0, , , , , , 94, , , 13, 13, 13
38.5374476, -120.3487205, 5.300, 15:21:06.817, 12, 0.00, 0.42, 98, 0.400, 1.500, 95.600, 374, 100, 100, 32, 24802, -15761, 5139, 5244, 24, 14, 1531002066.818, 31, 0, 1024, 1024, 1024, 1024, 0, 6, 4104, 4192, 4127, 4111, 4095, 4109, 0, 1, 7501, -89.900, 0.000, 96.200, 0.000, 0.000, -3.200, 0.0, , , , , , 94, , , 13, 13, 13
38.5374475, -120.3487205, 5.600, 15:21:06.917, 12, 0.00, 0.43, 98, 0.100, 1.400, 95.600, 374, 100, 100, 32, 24802, -15761, 5139, 5244, 24, 14, 1531002066.917, 33, 0, 1024, 1024, 1024, 1024, 0, 6, 4104, 4192, 4127, 4111, 4095, 4109, 0, 1, 7600, -89.900, 0.000, 96.200, 0.000, 0.000, -3.200, 0.0, , , , , , 94, , , 13, 13, 13
38.5374477, -120.3487204, 6.000, 15:21:07.017, 12, 0.00, 0.42, 98, 0.000, 1.400, 95.600, 374, 100, 100, 32, 24275, -22885, 5139, 5244, 24, 14, 1531002067.017, 29, 0, 1024, 1024, 1024, 1024, 0, 6, 4016, 4042, 4038, 4049, 4032, 4031, 0, 1, 7700, -89.900, 0.000, 96.200, 0.000, 0.000, -3.200, 0.0, , , , , , 94, , , 13, 13, 13
38.5374478, -120.3487203, 6.300, 15:21:07.117, 12, 0.10, 0.41, 98, 0.400, 1.400, 95.600, 374, 100, 100, 32, 24275, -22885, 5139, 5244, 24, 14, 1531002067.117, 19, 0, 1024, 1024, 1024, 1024, 0, 6, 4016, 4042, 4038, 4049, 4032, 4031, 0, 1, 7800, -89.900, 0.000, 96.200, 0.100, 0.000, -3.300, 0.0, , , , , , 94, , , 13, 13, 13
38.5374478, -120.3487203, 6.600, 15:21:07.217, 11, 0.00, 0.41, 98, 1.000, 1.400, 95.600, 374, 100, 100, 32, 24275, -22885, 5139, 5244, 24, 14, 1531002067.217, 17, 0, 1024, 1024, 1024, 1024, 0, 6, 4016, 4042, 4038, 4049, 4032, 4031, 0, 1, 7900, -89.900, 0.000, 96.200, 0.000, 0.000, -3.200, 0.0, , , , , , 94, , , 13, 13, 13
38.5374477, -120.3487203, 7.000, 15:21:07.317, 11, 0.00, 0.42, 98, 1.200, 1.400, 95.700, 374, 100, 100, 32, 24275, -22885, 5139, 5244, 24, 14, 1531002067.317, 7, 0, 1024, 1024, 1024, 1024, 0, 6, 4016, 4042, 4038, 4049, 4032, 4031, 0, 1, 8001, -89.900, 0.000, 96.200, 0.000, 0.000, -3.200, 0.0, , , , , , 94, , , 13, 13, 13
38.5374477, -120.3487203, 7.300, 15:21:07.417, 11, 0.00, 0.42, 98, 1.000, 1.300, 95.700, 374, 100, 100, 32, 24275, -22885, 5139, 5244, 24, 14, 1531002067.418, 9, 0, 1024, 1024, 1024, 1024, 0, 6, 4016, 4042, 4038, 4049, 4032, 4031, 0, 1, 8101, -89.900, 0.000, 96.200, 0.000, 0.000, -3.200, 0.0, , , , , , 94, , , 13, 13, 13
38.5374478, -120.3487203, 7.600, 15:21:07.517, 11, 0.00, 0.42, 98, 0.900, 1.200, 95.700, 374, 100, 100, 32, 24275, -22885, 5139, 5244, 24, 14, 1531002067.517, 13, 0, 1024, 1024, 1024, 1024, 0, 6, 4016, 4042, 4038, 4049, 4032, 4031, 0, 1, 8200, -89.900, 0.000, 96.200, 0.000, 0.000, -3.200, 0.0, , , , , , 94, , , 13, 13, 13
38.5374477, -120.3487203, 8.000, 15:21:07.617, 12, 0.00, 0.42, 98, 0.700, 1.100, 95.700, 374, 100, 100, 32, 24275, -22885, 5139, 5244, 24, 14, 1531002067.617, 4, 0, 1024, 1024, 1024, 1024, 0, 6, 4016, 4042, 4038, 4049, 4032, 4031, 0, 1, 8300, -89.900, 0.000, 96.200, 0.000, 0.000, -3.200, 0.0, , , , , , 94, , , 13, 13, 13
38.5374477, -120.3487203, 8.000, 15:21:07.717, 12, 0.00, 0.42, 98, 0.700, 1.100, 95.700, 374, 100, 100, 32, 24275, -22885, 5139, 5244, 24, 14, 1531002067.717, 104, 0, 1024, 1024, 1024, 1024, 0, 6, 4016, 4042, 4038, 4049, 4032, 4031, 0, 1, 8401, -89.900, 0.000, 96.200, 0.000, 0.000, -3.200, 0.0, , , , , , 94, , , 13, 13, 13
38.5374475, -120.3487204, 8.300, 15:21:07.817, 12, 0.00, 0.43, 98, 0.400, 1.200, 95.700, 374, 100, 100, 32, 24275, -22885, 5139, 5244, 24, 14, 1531002067.817, 79, 0, 1024, 1024, 1024, 1024, 0, 6, 4016, 4042, 4038, 4049, 4032, 4031, 0, 1, 8501, -89.900, 0.000, 96.200, 0.000, 0.000, -3.100, 0.0, , , , , , 94, , , 13, 13, 13
38.5374474, -120.3487205, 8.600, 15:21:07.917, 13, 0.00, 0.44, 98, -0.100, 1.100, 95.600, 374, 100, 100, 32, 24275, -22885, 5139, 5244, 24, 14, 1531002067.917, 74, 0, 1024, 1024, 1024, 1024, 0, 6, 4016, 4042, 4038, 4049, 4032, 4031, 0, 1, 8601, -89.900, 0.000, 96.200, 0.000, 0.000, -3.100, 0.0, , , , , , 94, , , 13, 13, 13
38.5374472, -120.3487206, 8.900, 15:21:08.017, 13, 0.00, 0.46, 98, -0.700, 1.000, 95.500, 374, 100, 100, 32, 24275, -22885, 5139, 5244, 24, 14, 1531002068.017, 78, 0, 1024, 1024, 1024, 1024, 0, 6, 4016, 4042, 4038, 4049, 4032, 4031, 0, 1, 8701, -90.000, 0.000, 96.200, 0.000, 0.000, -3.100, 0.0, , , , , , 94, , , 13, 13, 13
38.5374470, -120.3487207, 9.300, 15:21:08.117, 13, 0.00, 0.47, 98, -1.000, 0.800, 95.400, 374, 100, 100, 32, 24273, -22145, 5139, 5244, 24, 14, 1531002068.117, 83, 0, 1024, 1024, 1024, 1024, 0, 6, 4031, 4061, 4056, 4069, 4048, 4062, 0, 1, 8800, -90.000, 0.000, 96.200, 0.000, 0.000, -3.100, 0.0, , , , , , 94, , , 13, 13, 13
38.5374469, -120.3487208, 9.600, 15:21:08.217, 13, 0.00, 0.48, 98, -1.100, 0.600, 95.400, 374, 100, 100, 32, 24273, -22145, 5139, 5244, 24, 14, 1531002068.217, 73, 0, 1024, 1024, 1024, 1024, 0, 6, 4031, 4061, 4056, 4069, 4048, 4062, 0, 1, 8900, -90.000, 0.000, 96.200, 0.000, 0.000, -3.100, 0.0, , , , , , 94, , , 13, 13, 13
38.5374468, -120.3487210, 9.900, 15:21:08.317, 14, 0.00, 0.48, 98, -1.000, 0.700, 95.500, 374, 100, 100, 32, 24273, -22145, 5139, 5244, 24, 14, 1531002068.317, 73, 0, 1024, 1024, 1024, 1024, 0, 6, 4031, 4061, 4056, 4069, 4048, 4062, 0, 1, 9000, -90.000, 0.000, 96.200, 0.000, 0.000, -3.100, 0.0, , , , , , 94, , , 13, 13, 13
38.5374467, -120.3487211, 10.200, 15:21:08.416, 14, 0.00, 0.49, 98, -0.900, 0.700, 95.500, 374, 100, 100, 32, 24273, -22145, 5139, 5244, 24, 14, 1531002068.416, 77, 0, 1024, 1024, 1024, 1024, 0, 6, 4031, 4061, 4056, 4069, 4048, 4062, 0, 1, 9099, -90.000, 0.000, 96.200, 0.000, 0.000, -3.100, 0.0, , , , , , 94, , , 13, 13, 13
38.5374466, -120.3487212, 10.500, 15:21:08.516, 14, 0.00, 0.50, 98, -0.600, 0.500, 95.600, 374, 100, 100, 32, 24273, -22145, 5139, 5244, 24, 14, 1531002068.516, 56, 0, 1024, 1024, 1024, 1024, 0, 6, 4031, 4061, 4056, 4069, 4048, 4062, 0, 1, 9199, -90.000, 0.000, 96.200, 0.000, 0.000, -3.000, 0.0, , , , , , 94, , , 13, 13, 13
38.5374465, -120.3487212, 10.800, 15:21:08.617, 14, 0.00, 0.51, 98, -0.400, 0.600, 95.700, 374, 100, 100, 32, 24273, -22145, 5139, 5244, 24, 14, 1531002068.617, 58, 0, 1024, 1024, 1024, 1024, 0, 6, 4031, 4061, 4056, 4069, 4048, 4062, 0, 1, 9300, -89.900, 0.000, 96.200, 0.000, 0.000, -3.000, 0.0, , , , , , 94, , , 13, 13, 13
38.5374464, -120.3487213, 11.100, 15:21:08.717, 14, 0.00, 0.52, 98, -0.200, 0.700, 95.700, 374, 100, 98, 32, 24273, -22145, 5139, 5244, 24, 14, 1531002068.717, 48, 0, 1024, 1024, 1024, 1024, 0, 6, 4031, 4061, 4056, 4069, 4048, 4062, 0, 1, 9400, -89.900, 0.000, 96.200, 0.000, 0.000, -3.000, 0.0, , , , , , 94, , , 13, 13, 13
38.5374462, -120.3487215, 11.800, 15:21:08.817, 14, 0.10, 0.53, 98, -0.400, 0.800, 95.800, 374, 100, 98, 32, 24273, -22145, 5139, 5244, 24, 14, 1531002068.817, 40, 0, 1024, 1024, 1024, 1024, 0, 6, 4031, 4061, 4056, 4069, 4048, 4062, 0, 1, 9500, -89.900, 0.000, 96.200, 0.100, 0.000, -3.100, 0.0, , , , , , 94, , , 13, 13, 13
38.5374461, -120.3487217, 12.100, 15:21:08.917, 14, 0.10, 0.53, 98, -0.500, 0.600, 95.800, 374, 100, 98, 32, 24273, -22145, 5139, 5244, 24, 14, 1531002068.917, 38, 0, 1024, 1024, 1024, 1024, 0, 6, 4031, 4061, 4056, 4069, 4048, 4062, 0, 1, 9600, -89.900, 0.000, 96.200, 0.100, 0.000, -3.100, 0.0, , , , , , 94, , , 13, 13, 13
38.5374461, -120.3487218, 12.400, 15:21:09.017, 14, 0.10, 0.54, 98, -0.600, 0.400, 95.800, 374, 100, 98, 32, 24410, -18658, 5139, 5244, 24, 14, 1531002069.017, 37, 0, 1024, 1024, 1024, 1024, 0, 6, 4051, 4068, 4069, 4080, 4068, 4070, 0, 1, 9700, -90.000, 0.000, 96.200, 0.100, 0.000, -3.100, 0.0, , , , , , 94, , , 13, 13, 13
38.5374461, -120.3487219, 12.700, 15:21:09.117, 14, 0.10, 0.53, 98, -0.500, 0.000, 95.800, 374, 100, 97, 32, 24410, -18658, 5139, 5244, 24, 14, 1531002069.117, 38, 0, 1024, 1024, 1024, 1024, 0, 6, 4051, 4068, 4069, 4080, 4068, 4070, 0, 1, 9800, -90.000, 0.000, 96.200, 0.100, 0.000, -3.000, 0.0, , , , , , 94, , , 13, 13, 13
38.5374461, -120.3487220, 13.000, 15:21:09.216, 14, 0.10, 0.53, 98, -0.200, 0.000, 95.700, 374, 100, 97, 32, 24410, -18658, 5139, 5244, 24, 14, 1531002069.217, 42, 0, 1024, 1024, 1024, 1024, 0, 6, 4051, 4068, 4069, 4080, 4068, 4070, 0, 1, 9900, -90.000, 0.000, 96.200, 0.100, 0.000, -3.000, 0.0, , , , , , 94, , , 13, 13, 13
38.5374461, -120.3487220, 13.400, 15:21:09.317, 14, 0.10, 0.53, 98, 0.000, 0.000, 95.700, 374, 100, 97, 32, 24410, -18658, 5139, 5244, 24, 14, 1531002069.317, 39, 0, 1024, 1024, 1024, 1024, 0, 6, 4051, 4068, 4069, 4080, 4068, 4070, 0, 1, 10000, -90.000, 0.000, 96.200, 0.100, 0.000, -3.000, 0.0, , , , , , 94, , , 13, 13, 13
38.5374461, -120.3487221, 13.700, 15:21:09.416, 13, 0.10, 0.53, 98, 0.100, 0.100, 95.600, 374, 100, 97, 32, 24410, -18658, 5139, 5244, 24, 14, 1531002069.417, 31, 0, 1024, 1024, 1024, 1024, 0, 6, 4051, 4068, 4069, 4080, 4068, 4070, 0, 1, 10100, -90.000, 0.000, 96.200, 0.100, 0.000, -2.900, 0.0, , , , , , 94, , , 13, 13, 13
38.5374460, -120.3487221, 14.000, 15:21:09.517, 13, 0.10, 0.54, 98, 0.100, 0.400, 95.600, 374, 100, 97, 32, 24410, -18658, 5139, 5244, 24, 14, 1531002069.517, 10, 0, 1024, 1024, 1024, 1024, 0, 6, 4051, 4068, 4069, 4080, 4068, 4070, 0, 1, 10200, -89.900, 0.000, 96.200, 0.100, 0.000, -2.900, 0.0, , , , , , 94, , , 13, 13, 13
38.5374460, -120.3487221, 14.200, 15:21:09.617, 14, 0.10, 0.55, 98, 0.000, 1.000, 95.500, 374, 100, 97, 32, 24410, -18658, 5139, 5244, 24, 14, 1531002069.618, 13, 0, 1024, 1024, 1024, 1024, 0, 6, 4051, 4068, 4069, 4080, 4068, 4070, 0, 1, 10301, -89.900, 0.000, 96.200, 0.100, 0.000, -2.900, 0.0, , , , , , 94, , , 13, 13, 13
38.5374459, -120.3487220, 14.500, 15:21:09.716, 14, 0.10, 0.55, 98, 0.000, 1.400, 95.600, 374, 100, 97, 32, 24410, -18658, 5139, 5244, 24, 14, 1531002069.716, 14, 0, 1024, 1024, 1024, 1024, 0, 6, 4051, 4068, 4069, 4080, 4068, 4070, 0, 1, 10399, -89.900, 0.000, 96.200, 0.100, 0.000, -2.900, 0.0, , , , , , 94, , , 13, 13, 13
38.5374459, -120.3487220, 14.800, 15:21:09.817, 13, 0.10, 0.55, 98, -0.100, 1.800, 95.700, 374, 100, 97, 32, 24410, -18658, 5139, 5244, 24, 14, 1531002069.817, 19, 0, 1024, 1024, 1024, 1024, 0, 6, 4051, 4068, 4069, 4080, 4068, 4070, 0, 1, 10501, -89.900, 0.000, 96.200, 0.100, 0.000, -2.900, 0.0, , , , , , 94, , , 13, 13, 13
38.5374459, -120.3487219, 15.100, 15:21:09.917, 13, 0.10, 0.55, 98, -0.200, 2.000, 95.700, 374, 100, 97, 32, 24410, -18658, 5139, 5244, 24, 14, 1531002069.918, 10, 0, 1024, 1024, 1024, 1024, 0, 6, 4051, 4068, 4069, 4080, 4068, 4070, 0, 1, 10601, -89.900, 0.000, 96.200, 0.100, 0.000, -2.900, 0.0, , , , , , 94, , , 13, 13, 13
38.5374459, -120.3487218, 15.400, 15:21:10.019, 13, 0.10, 0.55, 98, -0.100, 1.900, 95.800, 374, 100, 97, 32, 24404, -18708, 5139, 5244, 24, 14, 1531002070.019, 2, 0, 1024, 1024, 1024, 1024, 0, 6, 4051, 4068, 4069, 4080, 4068, 4070, 0, 1, 10703, -89.900, 0.000, 96.200, 0.100, 0.000, -2.900, 0.0, , , , , , 94, , , 13, 13, 13
38.5374459, -120.3487218, 15.400, 15:21:10.116, 13, 0.10, 0.55, 98, -0.100, 1.900, 95.800, 374, 100, 97, 32, 24404, -18708, 5139, 5244, 24, 14, 1531002070.117, 100, 0, 1024, 1024, 1024, 1024, 0, 6, 4042, 4060, 4072, 4083, 4054, 4071, 0, 1, 10800, -89.900, 0.000, 96.200, 0.100, 0.000, -2.900, 0.0, , , , , , 94, , , 13, 13, 13
38.5374460, -120.3487218, 15.700, 15:21:10.216, 13, 0.10, 0.55, 98, 0.100, 1.900, 95.900, 374, 100, 99, 32, 24404, -18708, 5139, 5244, 24, 14, 1531002070.217, 93, 0, 1024, 1024, 1024, 1024, 0, 6, 4042, 4060, 4072, 4083, 4054, 4071, 0, 1, 10900, -89.900, 0.000, 96.200, 0.100, 0.000, -2.900, 0.0, , , , , , 94, , , 13, 13, 13
38.5374460, -120.3487217, 16.000, 15:21:10.317, 13, 0.10, 0.54, 98, 0.400, 2.100, 95.900, 374, 100, 99, 32, 24404, -18708, 5139, 5244, 24, 14, 1531002070.317, 89, 0, 1024, 1024, 1024, 1024, 0, 6, 4042, 4060, 4072, 4083, 4054, 4071, 0, 1, 11000, -89.900, 0.000, 96.200, 0.100, 0.000, -2.900, 0.0, , , , , , 94, , , 13, 13, 13
38.5374461, -120.3487217, 16.300, 15:21:10.416, 13, 0.10, 0.53, 98, 0.400, 2.100, 95.800, 374, 100, 99, 32, 24404, -18708, 5139, 5244, 24, 14, 1531002070.417, 91, 0, 1024, 1024, 1024, 1024, 0, 6, 4042, 4060, 4072, 4083, 4054, 4071, 0, 1, 11100, -89.900, 0.000, 96.200, 0.100, 0.000, -3.000, 0.0, , , , , , 94, , , 13, 13, 13
38.5374462, -120.3487217, 16.600, 15:21:10.516, 14, 0.20, 0.53, 98, 0.300, 2.000, 95.800, 374, 100, 99, 32, 24404, -18708, 5139, 5244, 24, 14, 1531002070.517, 93, 0, 1024, 1024, 1024, 1024, 0, 6, 4042, 4060, 4072, 4083, 4054, 4071, 0, 1, 11200, -89.900, 0.000, 96.200, 0.200, 0.000, -2.900, 0.0, , , , , , 94, , , 13, 13, 13
38.5374462, -120.3487217, 16.600, 15:21:10.617, 14, 0.20, 0.53, 98, 0.300, 2.000, 95.800, 374, 100, 99, 32, 24404, -18708, 5139, 5244, 24, 14, 1531002070.617, 193, 0, 1024, 1024, 1024, 1024, 0, 6, 4042, 4060, 4072, 4083, 4054, 4071, 0, 1, 11300, -89.900, 0.000, 96.200, 0.200, 0.000, -2.900, 0.0, , , , , , 94, , , 13, 13, 13
38.5374463, -120.3487216, 17.200, 15:21:10.716, 13, 0.20, 0.52, 98, 0.600, 1.600, 95.600, 374, 100, 99, 32, 24404, -18708, 5139, 5244, 24, 14, 1531002070.717, 84, 0, 1024, 1024, 1024, 1024, 0, 6, 4042, 4060, 4072, 4083, 4054, 4071, 0, 1, 11400, -89.900, 0.000, 96.200, 0.200, 0.000, -3.000, 0.0, , , , , , 94, , , 13, 13, 13
38.5374464, -120.3487216, 17.500, 15:21:10.816, 13, 0.20, 0.51, 98, 0.700, 1.400, 95.300, 374, 100, 99, 32, 24404, -18708, 5139, 5244, 24, 14, 1531002070.816, 76, 0, 1024, 1024, 1024, 1024, 0, 6, 4042, 4060, 4072, 4083, 4054, 4071, 0, 1, 11500, -89.900, 0.000, 96.200, 0.200, 0.000, -3.000, 0.0, , , , , , 94, , , 13, 13, 13
38.5374464, -120.3487216, 17.900, 15:21:10.917, 14, 0.10, 0.51, 98, 0.700, 1.300, 95.100, 374, 100, 99, 32, 24404, -18708, 5139, 5244, 24, 14, 1531002070.917, 58, 0, 1024, 1024, 1024, 1024, 0, 6, 4042, 4060, 4072, 4083, 4054, 4071, 0, 1, 11600, -89.900, 0.000, 96.200, 0.100, 0.000, -3.000, 0.0, , , , , , 94, , , 13, 13, 13
38.5374465, -120.3487216, 18.500, 15:21:11.016, 14, 0.10, 0.50, 98, 0.600, 1.400, 95.100, 374, 100, 99, 32, 24404, -18708, 5139, 5244, 24, 14, 1531002071.017, 59, 0, 1024, 1024, 1024, 1024, 0, 6, 4042, 4060, 4072, 4083, 4054, 4071, 0, 1, 11700, -89.900, 0.000, 96.200, 0.100, 0.000, -3.000, 0.0, , , , , , 94, , , 13, 13, 13
38.5374465, -120.3487215, 18.800, 15:21:11.117, 14, 0.10, 0.50, 98, 0.600, 1.500, 95.300, 374, 100, 99, 32, 24353, -19138, 5139, 5244, 24, 14, 1531002071.117, 63, 0, 1024, 1024, 1024, 1024, 0, 6, 4042, 4060, 4072, 4083, 4054, 4071, 0, 1, 11800, -89.900, 0.000, 96.200, 0.100, 0.000, -2.900, 0.0, , , , , , 94, , , 13, 13, 13
38.5374466, -120.3487215, 19.100, 15:21:11.216, 14, 0.10, 0.49, 98, 0.700, 1.600, 95.400, 374, 100, 99, 32, 24353, -19138, 5139, 5244, 24, 14, 1531002071.217, 55, 0, 1024, 1024, 1024, 1024, 0, 6, 4042, 4060, 4072, 4083, 4054, 4071, 0, 1, 11900, -89.900, 0.000, 96.200, 0.100, 0.000, -2.900, 0.0, , , , , , 94, , , 13, 13, 13
38.5374467, -120.3487214, 19.400, 15:21:11.316, 14, 0.10, 0.48, 98, 0.900, 1.800, 95.500, 374, 100, 99, 32, 24353, -19138, 5139, 5244, 24, 14, 1531002071.316, 37, 0, 1024, 1024, 1024, 1024, 0, 6, 4042, 4060, 4072, 4083, 4054, 4071, 0, 1, 11999, -89.900, 0.000, 96.200, 0.100, 0.000, -2.900, 0.0, , , , , , 94, , , 13, 13, 13
38.5374467, -120.3487213, 19.700, 15:21:11.416, 14, 0.10, 0.48, 98, 1.100, 2.000, 95.600, 374, 100, 99, 32, 24353, -19138, 5139, 5244, 24, 14, 1531002071.417, 52, 0, 1024, 1024, 1024, 1024, 0, 6, 4042, 4060, 4072, 4083, 4054, 4071, 0, 1, 12100, -89.900, 0.000, 96.200, 0.100, 0.000, -2.900, 0.0, , , , , , 94, , , 13, 13, 13
38.5374467, -120.3487213, 20.000, 15:21:11.517, 14, 0.10, 0.48, 97, 1.200, 2.000, 95.700, 374, 100, 99, 32, 24353, -19138, 5086, 5244, 24, 14, 1531002071.517, 45, 0, 1024, 1024, 1024, 1024, 0, 6, 4037, 4055, 4068, 4076, 4037, 4065, 0, 1, 12200, -89.900, 0.000, 96.200, 0.100, 0.000, -2.900, 0.0, , , , , , 94, , , 13, 13, 13
38.5374468, -120.3487213, 20.300, 15:21:11.616, 14, 0.10, 0.47, 97, 1.300, 2.000, 95.800, 374, 100, 99, 32, 24353, -19138, 5086, 5244, 24, 14, 1531002071.617, 17, 0, 1024, 1024, 1024, 1024, 0, 6, 4037, 4055, 4068, 4076, 4037, 4065, 0, 1, 12300, -89.900, 0.000, 96.200, 0.100, 0.000, -2.900, 0.0, , , , , , 94, , , 13, 13, 13
38.5374469, -120.3487212, 20.600, 15:21:11.716, 14, 0.10, 0.47, 97, 1.300, 2.300, 96.000, 374, 100, 99, 32, 24353, -19138, 5086, 5244, 24, 14, 1531002071.717, 22, 0, 1024, 1024, 1024, 1024, 0, 6, 4037, 4055, 4068, 4076, 4037, 4065, 0, 1, 12400, -89.900, 0.000, 96.200, 0.100, 0.000, -2.900, 0.0, , , , , , 94, , , 13, 13, 13
38.5374469, -120.3487212, 20.900, 15:21:11.817, 14, 0.10, 0.46, 97, 1.300, 2.300, 96.100, 374, 100, 99, 32, 24353, -19138, 5086, 5244, 24, 14, 1531002071.817, 28, 0, 1024, 1024, 1024, 1024, 0, 6, 4037, 4055, 4068, 4076, 4037, 4065, 0, 1, 12500, -89.900, 0.000, 96.200, 0.100, 0.000, -2.900, 0.0, , , , , , 94, , , 13, 13, 13
38.5374470, -120.3487212, 21.200, 15:21:11.917, 14, 0.10, 0.46, 97, 1.300, 2.200, 96.100, 374, 100, 99, 32, 24353, -19138, 5086, 5244, 24, 14, 1531002071.917, 16, 0, 1024, 1024, 1024, 1024, 0, 6, 4037, 4055, 4068, 4076, 4037, 4065, 0, 1, 12601, -89.900, 0.000, 96.200, 0.100, 0.000, -2.900, 0.0, , , , , , 94, , , 13, 13, 13
38.5374470, -120.3487211, 21.500, 15:21:12.016, 14, 0.10, 0.46, 97, 1.100, 2.300, 96.000, 374, 100, 99, 32, 24353, -19138, 5086, 5244, 24, 14, 1531002072.017, 17, 0, 1024, 1024, 1024, 1024, 0, 6, 4037, 4055, 4068, 4076, 4037, 4065, 0, 1, 12700, -89.900, 0.000, 96.200, 0.100, 0.000, -2.900, 0.0, , , , , , 94, , , 13, 13, 13
38.5374471, -120.3487211, 21.800, 15:21:12.116, 14, 0.10, 0.45, 97, 1.100, 2.300, 95.900, 374, 100, 100, 32, 24353, -19138, 5086, 5244, 24, 14, 1531002072.117, 29, 0, 1024, 1024, 1024, 1024, 0, 6, 4037, 4055, 4068, 4076, 4037, 4065, 0, 1, 12800, -89.900, 0.000, 96.200, 0.100, 0.000, -3.000, 0.0, , , , , , 94, , , 13, 13, 13
38.5374471, -120.3487211, 21.800, 15:21:12.216, 14, 0.10, 0.45, 97, 1.100, 2.300, 95.900, 374, 100, 100, 32, 24353, -19138, 5086, 5244, 24, 14, 1531002072.217, 129, 0, 1024, 1024, 1024, 1024, 0, 6, 4037, 4055, 4068, 4076, 4037, 4065, 0, 1, 12900, -89.900, 0.000, 96.200, 0.100, 0.000, -3.000, 0.0, , , , , , 94, , , 13, 13, 13
38.5374472, -120.3487209, 22.400, 15:21:12.330, 14, 0.10, 0.44, 97, 1.700, 2.800, 95.800, 374, 100, 100, 32, 24353, -19138, 5086, 5244, 24, 14, 1531002072.330, 3, 0, 1024, 1024, 1024, 1024, 0, 6, 4037, 4055, 4068, 4076, 4037, 4065, 0, 1, 13013, -89.900, 0.000, 96.200, 0.100, 0.000, -2.900, 0.0, , , , , , 94, , , 13, 13, 13
38.5374473, -120.3487208, 22.700, 15:21:12.417, 14, 0.10, 0.44, 97, 1.900, 2.800, 95.800, 374, 100, 100, 32, 24353, -19138, 5086, 5244, 24, 14, 1531002072.417, 11, 0, 1024, 1024, 1024, 1024, 0, 6, 4037, 4055, 4068, 4076, 4037, 4065, 0, 1, 13100, -89.900, 0.000, 96.200, 0.100, 0.000, -2.900, 0.0, , , , , , 94, , , 13, 13, 13
38.5374473, -120.3487208, 22.700, 15:21:12.517, 14, 0.10, 0.44, 97, 1.900, 2.800, 95.800, 374, 100, 100, 32, 24353, -19138, 5086, 5244, 24, 14, 1531002072.517, 111, 0, 1024, 1024, 1024, 1024, 0, 6, 4037, 4055, 4068, 4076, 4037, 4065, 0, 1, 13200, -89.900, 0.000, 96.200, 0.100, 0.000, -2.900, 0.0, , , , , , 94, , , 13, 13, 13
38.5374473, -120.3487209, 23.000, 15:21:12.616, 14, 0.10, 0.44, 97, 2.100, 2.500, 95.700, 374, 100, 100, 32, 24353, -18439, 5086, 5244, 24, 14, 1531002072.617, 88, 0, 1024, 1024, 1024, 1024, 0, 6, 4030, 4048, 4062, 4073, 4045, 4072, 0, 1, 13300, -90.000, 0.000, 96.200, 0.100, 0.000, -2.900, 0.0, , , , , , 94, , , 13, 13, 13
38.5374473, -120.3487208, 23.300, 15:21:12.716, 14, 0.10, 0.43, 97, 2.100, 2.400, 95.500, 374, 100, 100, 32, 24353, -18439, 5086, 5244, 24, 14, 1531002072.717, 88, 0, 1024, 1024, 1024, 1024, 0, 6, 4030, 4048, 4062, 4073, 4045, 4072, 0, 1, 13400, -89.900, 0.000, 96.200, 0.100, 0.000, -2.900, 0.0, , , , , , 94, , , 13, 13, 13
38.5374473, -120.3487208, 23.600, 15:21:12.816, 14, 0.10, 0.43, 97, 2.000, 2.300, 95.500, 374, 100, 100, 32, 24353, -18439, 5086, 5244, 24, 14, 1531002072.817, 91, 0, 1024, 1024, 1024, 1024, 0, 6, 4030, 4048, 4062, 4073, 4045, 4072, 0, 1, 13500, -90.000, 0.000, 96.200, 0.100, 0.000, -2.900, 0.0, , , , , , 94, , , 13, 13, 13
38.5374474, -120.3487209, 23.900, 15:21:12.916, 14, 0.10, 0.43, 97, 1.700, 2.000, 95.400, 374, 100, 100, 32, 24353, -18439, 5086, 5244, 24, 14, 1531002072.917, 87, 0, 1024, 1024, 1024, 1024, 0, 6, 4030, 4048, 4062, 4073, 4045, 4072, 0, 1, 13600, -90.000, 0.000, 96.200, 0.100, 0.000, -2.900, 0.0, , , , , , 94, , , 13, 13, 13
38.5374473, -120.3487209, 24.200, 15:21:13.017, 14, 0.00, 0.43, 97, 1.300, 1.900, 95.400, 374, 100, 100, 32, 24353, -18439, 5086, 5244, 24, 14, 1531002073.017, 89, 0, 1024, 1024, 1024, 1024, 0, 6, 4030, 4048, 4062, 4073, 4045, 4072, 0, 1, 13700, -89.900, 0.000, 96.200, 0.000, 0.000, -2.900, 0.0, , , , , , 94, , , 13, 13, 13
38.5374473, -120.3487209, 24.500, 15:21:13.116, 15, 0.00, 0.43, 97, 0.800, 1.800, 95.400, 374, 100, 100, 32, 24353, -18439, 5086, 5244, 24, 14, 1531002073.117, 57, 0, 1024, 1024, 1024, 1024, 0, 6, 4030, 4048, 4062, 4073, 4045, 4072, 0, 1, 13800, -89.900, 0.000, 96.200, 0.000, 0.000, -2.900, 0.0, , , , , , 94, , , 13, 13, 13
38.5374473, -120.3487209, 25.100, 15:21:13.217, 14, 0.00, 0.43, 97, 0.700, 2.000, 95.500, 374, 100, 100, 32, 24353, -18439, 5086, 5244, 24, 14, 1531002073.217, 57, 0, 1024, 1024, 1024, 1024, 0, 6, 4030, 4048, 4062, 4073, 4045, 4072, 0, 1, 13901, -89.900, 0.000, 96.200, 0.000, 0.000, -2.900, 0.0, , , , , , 94, , , 13, 13, 13
38.5374473, -120.3487209, 25.100, 15:21:13.316, 14, 0.00, 0.43, 97, 0.700, 2.000, 95.500, 374, 100, 100, 32, 24353, -18439, 5086, 5244, 24, 14, 1531002073.317, 157, 0, 1024, 1024, 1024, 1024, 0, 6, 4030, 4048, 4062, 4073, 4045, 4072, 0, 1, 14000, -90.000, 0.000, 96.200, 0.000, 0.000, -2.900, 0.0, , , , , , 94, , , 13, 13, 13
38.5374473, -120.3487209, 25.700, 15:21:13.416, 15, 0.00, 0.44, 97, 0.300, 2.200, 95.600, 374, 100, 100, 32, 24353, -18439, 5086, 5244, 24, 14, 1531002073.416, 44, 0, 1024, 1024, 1024, 1024, 0, 6, 4030, 4048, 4062, 4073, 4045, 4072, 0, 1, 14100, -89.900, 0.000, 96.200, 0.000, 0.000, -2.900, 0.0, , , , , , 94, , , 13, 13, 13
38.5374472, -120.3487209, 26.000, 15:21:13.517, 15, 0.10, 0.44, 97, 0.600, 2.300, 95.700, 374, 100, 100, 32, 24271, -19023, 5086, 5244, 24, 14, 1531002073.517, 32, 0, 1024, 1024, 1024, 1024, 0, 6, 4025, 4048, 4058, 4071, 4038, 4059, 0, 1, 14200, -89.900, 0.000, 96.200, 0.100, 0.000, -2.900, 0.0, , , , , , 94, , , 13, 13, 13
38.5374472, -120.3487208, 26.400, 15:21:13.616, 15, 0.10, 0.44, 97, 1.000, 2.500, 95.800, 374, 100, 97, 32, 24271, -19023, 5086, 5244, 24, 14, 1531002073.616, 36, 0, 1024, 1024, 1024, 1024, 0, 6, 4025, 4048, 4058, 4071, 4038, 4059, 0, 1, 14300, -89.900, 0.000, 96.200, 0.100, 0.000, -2.900, 0.0, , , , , , 94, , , 13, 13, 13
38.5374472, -120.3487208, 26.600, 15:21:13.716, 15, 0.10, 0.45, 97, 1.100, 2.700, 95.900, 374, 100, 97, 32, 24271, -19023, 5086, 5244, 24, 14, 1531002073.717, 40, 0, 1024, 1024, 1024, 1024, 0, 6, 4025, 4048, 4058, 4071, 4038, 4059, 0, 1, 14400, -89.900, 0.000, 96.200, 0.100, 0.000, -2.900, 0.0, , , , , , 94, , , 13, 13, 13
38.5374472, -120.3487208, 26.900, 15:21:13.816, 15, 0.10, 0.45, 97, 1.100, 2.800, 96.000, 374, 100, 97, 32, 24271, -19023, 5086, 5244, 24, 14, 1531002073.816, 42, 0, 1024, 1024, 1024, 1024, 0, 6, 4025, 4048, 4058, 4071, 4038, 4059, 0, 1, 14500, -89.900, 0.000, 96.200, 0.100, 0.000, -2.800, 0.0, , , , , , 94, , , 13, 13, 13
38.5374472, -120.3487207, 27.200, 15:21:13.916, 15, 0.10, 0.45, 97, 1.200, 2.900, 96.100, 374, 100, 97, 32, 24271, -19023, 5086, 5244, 24, 14, 1531002073.917, 41, 0, 1024, 1024, 1024, 1024, 0, 6, 4025, 4048, 4058, 4071, 4038, 4059, 0, 1, 14600, -89.900, 0.000, 96.200, 0.100, 0.000, -2.900, 0.0, , , , , , 94, , , 13, 13, 13
38.5374472, -120.3487207, 27.500, 15:21:14.016, 15, 0.10, 0.45, 97, 1.100, 3.100, 96.100, 374, 100, 97, 32, 24271, -19023, 5086, 5244, 24, 14, 1531002074.017, 33, 0, 1024, 1024, 1024, 1024, 0, 6, 4025, 4048, 4058, 4071, 4038, 4059, 0, 1, 14700, -89.900, 0.000, 96.200, 0.100, 0.000, -2.900, 0.0, , , , , , 94, , , 13, 13, 13
38.5374472, -120.3487207, 27.800, 15:21:14.116, 15, 0.10, 0.45, 97, 1.100, 3.200, 96.000, 374, 100, 97, 32, 24271, -19023, 5086, 5244, 24, 14, 1531002074.116, 39, 0, 1024, 1024, 1024, 1024, 0, 6, 4025, 4048, 4058, 4071, 4038, 4059, 0, 1, 14799, -89.900, 0.000, 96.200, 0.100, 0.000, -2.900, 0.0, , , , , , 94, , , 13, 13, 13
38.5374472, -120.3487207, 28.100, 15:21:14.216, 15, 0.10, 0.45, 97, 1.300, 2.900, 95.900, 374, 100, 97, 32, 24271, -19023, 5086, 5244, 24, 14, 1531002074.217, 22, 0, 1024, 1024, 1024, 1024, 0, 6, 4025, 4048, 4058, 4071, 4038, 4059, 0, 1, 14900, -89.900, 0.000, 96.200, 0.100, 0.000, -2.900, 0.0, , , , , , 94, , , 13, 13, 13
38.5374472, -120.3487207, 28.400, 15:21:14.323, 15, 0.10, 0.45, 97, 1.400, 2.600, 95.900, 374, 100, 97, 32, 24271, -19023, 5086, 5244, 24, 14, 1531002074.323, 3, 0, 1024, 1024, 1024, 1024, 0, 6, 4025, 4048, 4058, 4071, 4038, 4059, 0, 1, 15006, -89.900, 0.000, 96.200, 0.100, 0.000, -2.900, 0.0, , , , , , 94, , , 13, 13, 13
38.5374472, -120.3487207, 28.700, 15:21:14.416, 15, 0.10, 0.45, 97, 1.500, 2.600, 95.900, 374, 100, 97, 32, 24271, -19023, 5086, 5244, 24, 14, 1531002074.417, 6, 0, 1024, 1024, 1024, 1024, 0, 6, 4025, 4048, 4058, 4071, 4038, 4059, 0, 1, 15100, -89.900, 0.000, 96.200, 0.100, 0.000, -2.900, 0.0, , , , , , 94, , , 13, 13, 13
38.5374472, -120.3487207, 28.700, 15:21:14.516, 15, 0.10, 0.45, 97, 1.500, 2.600, 95.900, 374, 100, 97, 32, 24271, -19023, 5086, 5244, 24, 14, 1531002074.516, 106, 0, 1024, 1024, 1024, 1024, 0, 6, 4025, 4048, 4058, 4071, 4038, 4059, 0, 1, 15200, -89.900, 0.000, 96.200, 0.100, 0.000, -2.900, 0.0, , , , , , 94, , , 13, 13, 13
38.5374472, -120.3487207, 29.000, 15:21:14.616, 15, 0.10, 0.45, 97, 1.700, 2.800, 95.900, 374, 100, 97, 32, 24308, -18232, 5086, 5244, 24, 14, 1531002074.616, 86, 0, 1024, 1024, 1024, 1024, 0, 6, 4026, 4052, 4053, 4070, 4040, 4052, 0, 1, 15300, -89.900, 0.000, 96.200, 0.100, 0.000, -2.800, 0.0, , , , , , 94, , , 13, 13, 13
38.5374472, -120.3487206, 29.300, 15:21:14.716, 15, 0.10, 0.45, 97, 1.700, 3.100, 95.800, 374, 100, 97, 32, 24308, -18232, 5086, 5244, 24, 14, 1531002074.716, 89, 0, 1024, 1024, 1024, 1024, 0, 6, 4026, 4052, 4053, 4070, 4040, 4052, 0, 1, 15400, -89.900, 0.000, 96.200, 0.100, 0.000, -2.900, 0.0, , , , , , 94, , , 13, 13, 13
38.5374473, -120.3487205, 29.600, 15:21:14.816, 15, 0.10, 0.45, 97, 2.000, 3.200, 95.800, 374, 100, 97, 32, 24308, -18232, 5086, 5244, 24, 14, 1531002074.817, 90, 0, 1024, 1024, 1024, 1024, 0, 6, 4026, 4052, 4053, 4070, 4040, 4052, 0, 1, 15500, -89.900, 0.000, 96.200, 0.100, 0.000, -2.900, 0.0, , , , , , 94, , , 13, 13, 13
38.5374473, -120.3487205, 29.900, 15:21:14.916, 15, 0.10, 0.45, 97, 2.200, 3.300, 95.800, 374, 100, 97, 32, 24308, -18232, 5086, 5244, 24, 14, 1531002074.916, 96, 0, 1024, 1024, 1024, 1024, 0, 6, 4026, 4052, 4053, 4070, 4040, 4052, 0, 1, 15600, -89.900, 0.000, 96.200, 0.100, 0.000, -2.900, 0.0, , , , , , 94, , , 13, 13, 13
38.5374473, -120.3487204, 30.200, 15:21:15.016, 15, 0.10, 0.45, 97, 2.300, 3.300, 95.800, 374, 100, 97, 32, 24308, -18232, 5086, 5244, 24, 14, 1531002075.016, 79, 0, 1024, 1024, 1024, 1024, 0, 6, 4026, 4052, 4053, 4070, 4040, 4052, 0, 1, 15700, -89.900, 0.000, 96.200, 0.100, 0.000, -2.900, 0.0, , , , , , 94, , , 13, 13, 13
38.5374473, -120.3487203, 30.500, 15:21:15.116, 15, 0.10, 0.46, 97, 2.100, 3.400, 95.800, 374, 100, 97, 32, 24308, -18232, 5086, 5244, 24, 14, 1531002075.116, 79, 0, 1024, 1024, 1024, 1024, 0, 6, 4026, 4052, 4053, 4070, 4040, 4052, 0, 1, 15800, -89.900, 0.000, 96.200, 0.100, 0.000, -2.900, 0.0, , , , , , 94, , , 13, 13, 13
38.5374473, -120.3487203, 30.800, 15:21:15.216, 15, 0.10, 0.46, 97, 1.900, 3.600, 95.800, 374, 100, 100, 32, 24308, -18232, 5086, 5244, 24, 14, 1531002075.217, 85, 0, 1024, 1024, 1024, 1024, 0, 6, 4026, 4052, 4053, 4070, 4040, 4052, 0, 1, 15900, -89.900, 0.000, 96.200, 0.100, 0.000, -2.900, 0.0, , , , , , 94, , , 13, 13, 13
38.5374472, -120.3487202, 31.100, 15:21:15.316, 15, 0.10, 0.47, 97, 1.700, 3.800, 95.800, 374, 100, 100, 32, 24308, -18232, 5086, 5244, 24, 14, 1531002075.316, 62, 0, 1024, 1024, 1024, 1024, 0, 6, 4026, 4052, 4053, 4070, 4040, 4052, 0, 1, 16000, -89.900, 0.000, 96.200, 0.100, 0.000, -2.900, 0.0, , , , , , 94, , , 13, 13, 13
38.5374472, -120.3487201, 31.400, 15:21:15.416, 15, 0.10, 0.48, 97, 1.600, 3.900, 95.700, 374, 100, 100, 32, 24308, -18232, 5086, 5244, 24, 14, 1531002075.417, 70, 0, 1024, 1024, 1024, 1024, 0, 6, 4026, 4052, 4053, 4070, 4040, 4052, 0, 1, 16100, -89.900, 0.000, 96.200, 0.100, 0.000, -2.900, 0.0, , , , , , 94, , , 13, 13, 13
38.5374471, -120.3487201, 31.700, 15:21:15.516, 15, 0.00, 0.49, 97, 1.500, 4.000, 95.700, 374, 100, 100, 32, 24308, -18232, 5086, 5244, 24, 14, 1531002075.516, 49, 0, 1024, 1024, 1024, 1024, 0, 6, 4026, 4052, 4053, 4070, 4040, 4052, 0, 1, 16200, -89.900, 0.000, 96.200, 0.000, 0.000, -2.900, 0.0, , , , , , 94, , , 13, 13, 13
38.5374470, -120.3487200, 32.200, 15:21:15.616, 15, 0.10, 0.50, 97, 1.200, 3.800, 95.600, 374, 100, 100, 32, 24250, -18831, 5086, 5244, 24, 14, 1531002075.616, 52, 0, 1024, 1024, 1024, 1024, 0, 6, 4019, 4042, 4042, 4064, 4029, 4040, 0, 1, 16300, -89.900, 0.000, 96.200, 0.100, 0.000, -2.900, 0.0, , , , , , 94, , , 13, 13, 13
38.5374469, -120.3487200, 32.500, 15:21:15.716, 15, 0.00, 0.51, 97, 1.100, 3.700, 95.600, 374, 100, 99, 32, 24250, -18831, 5086, 5244, 24, 14, 1531002075.716, 41, 0, 1024, 1024, 1024, 1024, 0, 6, 4019, 4042, 4042, 4064, 4029, 4040, 0, 1, 16400, -89.900, 0.000, 96.200, 0.000, 0.000, -2.900, 0.0, , , , , , 94, , , 13, 13, 13
38.5374469, -120.3487200, 32.800, 15:21:15.816, 15, 0.10, 0.51, 97, 1.100, 3.700, 95.700, 374, 100, 99, 32, 24250, -18831, 5086, 5244, 24, 14, 1531002075.816, 48, 0, 1024, 1024, 1024, 1024, 0, 6, 4019, 4042, 4042, 4064, 4029, 4040, 0, 1, 16500, -89.900, 0.000, 96.200, 0.100, 0.000, -2.900, 0.0, , , , , , 94, , , 13, 13, 13
38.5374469, -120.3487200, 33.100, 15:21:15.916, 15, 0.10, 0.51, 97, 1.300, 3.700, 95.800, 374, 100, 99, 32, 24250, -18831, 5086, 5244, 24, 14, 1531002075.916, 52, 0, 1024, 1024, 1024, 1024, 0, 6, 4019, 4042, 4042, 4064, 4029, 4040, 0, 1, 16600, -89.900, 0.000, 96.200, 0.100, 0.000, -2.900, 0.0, , , , , , 94, , , 13, 13, 13
38.5374469, -120.3487200, 33.400, 15:21:16.016, 15, 0.10, 0.51, 97, 1.400, 3.800, 95.900, 374, 100, 99, 32, 24250, -18831, 5086, 5244, 24, 14, 1531002076.017, 47, 0, 1024, 1024, 1024, 1024, 0, 6, 4019, 4042, 4042, 4064, 4029, 4040, 0, 1, 16700, -89.900, 0.000, 96.200, 0.100, 0.000, -2.900, 0.0, , , , , , 94, , , 13, 13, 13
38.5374469, -120.3487200, 33.700, 15:21:16.116, 15, 0.10, 0.51, 97, 1.400, 3.800, 95.900, 374, 100, 99, 32, 24250, -18831, 5086, 5244, 24, 14, 1531002076.116, 14, 0, 1024, 1024, 1024, 1024, 0, 6, 4019, 4042, 4042, 4064, 4029, 4040, 0, 1, 16800, -89.900, 0.000, 96.200, 0.100, 0.000, -3.000, 0.0, , , , , , 94, , , 13, 13, 13
38.5374469, -120.3487200, 34.000, 15:21:16.215, 15, 0.10, 0.52, 97, 1.400, 3.800, 95.900, 374, 100, 99, 32, 24250, -18831, 5086, 5244, 24, 14, 1531002076.216, 27, 0, 1024, 1024, 1024, 1024, 0, 6, 4019, 4042, 4042, 4064, 4029, 4040, 0, 1, 16899, -89.900, 0.000, 96.200, 0.100, 0.000, -2.900, 0.0, , , , , , 94, , , 13, 13, 13
38.5374469, -120.3487199, 34.300, 15:21:16.316, 15, 0.10, 0.52, 97, 1.500, 3.700, 95.800, 374, 100, 99, 32, 24250, -18831, 5086, 5244, 24, 14, 1531002076.316, 19, 0, 1024, 1024, 1024, 1024, 0, 6, 4019, 4042, 4042, 4064, 4029, 4040, 0, 1, 16999, -89.900, 0.000, 96.200, 0.100, 0.000, -3.000, 0.0, , , , , , 94, , , 13, 13, 13
38.5374469, -120.3487199, 34.600, 15:21:16.416, 15, 0.10, 0.52, 97, 1.500, 3.800, 95.800, 374, 100, 99, 32, 24250, -18831, 5086, 5244, 24, 14, 1531002076.417, 29, 0, 1024, 1024, 1024, 1024, 0, 6, 4019, 4042, 4042, 4064, 4029, 4040, 0, 1, 17100, -89.900, 0.000, 96.200, 0.100, 0.000, -2.900, 0.0, , , , , , 94, , , 13, 13, 13
38.5374469, -120.3487199, 34.600, 15:21:16.516, 15, 0.10, 0.52, 97, 1.500, 3.800, 95.800, 374, 100, 99, 32, 24250, -18831, 5086, 5244, 24, 14, 1531002076.516, 129, 0, 1024, 1024, 1024, 1024, 0, 6, 4019, 4042, 4042, 4064, 4029, 4040, 0, 1, 17200, -89.900, 0.000, 96.200, 0.100, 0.000, -2.900, 0.0, , , , , , 94, , , 13, 13, 13
38.5374469, -120.3487200, 35.200, 15:21:16.616, 15, 0.10, 0.52, 97, 1.700, 3.600, 95.600, 374, 100, 99, 32, 24200, -18923, 5086, 5244, 24, 14, 1531002076.616, 6, 0, 1024, 1024, 1024, 1024, 0, 6, 4019, 4042, 4042, 4064, 4029, 4040, 0, 1, 17300, -89.900, 0.000, 96.200, 0.100, 0.000, -2.900, 0.0, , , , , , 94, , , 13, 13, 13
38.5374469, -120.3487200, 35.200, 15:21:16.716, 15, 0.10, 0.52, 97, 1.700, 3.600, 95.600, 374, 100, 99, 32, 24200, -18923, 5086, 5244, 24, 14, 1531002076.717, 107, 0, 1024, 1024, 1024, 1024, 0, 6, 4019, 4042, 4042, 4064, 4029, 4040, 0, 1, 17400, -89.900, 0.000, 96.200, 0.100, 0.000, -2.900, 0.0, , , , , , 94, , , 13, 13, 13
38.5374469, -120.3487200, 35.500, 15:21:16.816, 15, 0.10, 0.51, 97, 2.100, 3.500, 95.500, 374, 100, 99, 32, 24200, -18923, 5086, 5244, 24, 14, 1531002076.816, 90, 0, 1024, 1024, 1024, 1024, 0, 6, 4019, 4042, 4042, 4064, 4029, 4040, 0, 1, 17499, -90.000, 0.000, 96.200, 0.100, 0.000, -3.000, 0.0, , , , , , 94, , , 13, 13, 13
38.5374469, -120.3487200, 35.800, 15:21:16.916, 15, 0.10, 0.51, 97, 2.100, 3.600, 95.500, 374, 100, 99, 32, 24200, -18923, 5086, 5244, 24, 14, 1531002076.916, 94, 0, 1024, 1024, 1024, 1024, 0, 6, 4019, 4042, 4042, 4064, 4029, 4040, 0, 1, 17600, -89.900, 0.000, 96.200, 0.100, 0.000, -3.000, 0.0, , , , , , 94, , , 13, 13, 13
38.5374469, -120.3487200, 36.100, 15:21:17.016, 15, 0.10, 0.51, 97, 2.000, 3.600, 95.500, 374, 100, 99, 32, 24200, -18923, 5086, 5244, 24, 14, 1531002077.016, 93, 0, 1024, 1024, 1024, 1024, 0, 6, 4019, 4042, 4042, 4064, 4029, 4040, 0, 1, 17700, -89.900, 0.000, 96.200, 0.100, 0.000, -2.900, 0.0, , , , , , 94, , , 13, 13, 13
38.5374469, -120.3487200, 36.400, 15:21:17.116, 15, 0.10, 0.51, 97, 1.800, 3.700, 95.600, 374, 100, 99, 32, 24200, -18923, 5086, 5244, 24, 14, 1531002077.116, 96, 0, 1024, 1024, 1024, 1024, 0, 6, 4003, 4036, 4035, 4050, 4023, 4037, 0, 1, 17800, -89.900, 0.000, 96.200, 0.100, 0.000, -3.000, 0.0, , , , , , 94, , , 13, 13, 13
38.5374469, -120.3487200, 36.700, 15:21:17.216, 15, 0.10, 0.51, 97, 1.800, 3.700, 95.600, 374, 100, 100, 32, 24200, -18923, 5086, 5244, 24, 14, 1531002077.216, 64, 0, 1024, 1024, 1024, 1024, 0, 6, 4003, 4036, 4035, 4050, 4023, 4037, 0, 1, 17900, -89.900, 0.000, 96.200, 0.100, 0.000, -3.000, 0.0, , , , , , 94, , , 13, 13, 13
38.5374468, -120.3487200, 37.000, 15:21:17.316, 15, 0.10, 0.52, 97, 1.600, 3.800, 95.700, 374, 100, 100, 32, 24200, -18923, 5086, 5244, 24, 14, 1531002077.316, 69, 0, 1024, 1024, 1024, 1024, 0, 6, 4003, 4036, 4035, 4050, 4023, 4037, 0, 1, 18000, -89.900, 0.000, 96.200, 0.100, 0.000, -3.000, 0.0, , , , , , 94, , , 13, 13, 13
38.5374468, -120.3487200, 37.300, 15:21:17.416, 15, 0.10, 0.52, 97, 1.600, 3.800, 95.800, 374, 100, 100, 32, 24200, -18923, 5086, 5244, 24, 14, 1531002077.416, 66, 0, 1024, 1024, 1024, 1024, 0, 6, 4003, 4036, 4035, 4050, 4023, 4037, 0, 1, 18100, -89.900, 0.000, 96.200, 0.100, 0.000, -2.900, 0.0, , , , , , 94, , , 13, 13, 13
38.5374468, -120.3487200, 37.600, 15:21:17.516, 15, 0.10, 0.52, 97, 1.500, 3.800, 95.800, 374, 100, 100, 32, 24200, -18923, 5086, 5244, 24, 14, 1531002077.516, 78, 0, 1024, 1024, 1024, 1024, 0, 6, 4003, 4036, 4035, 4050, 4023, 4037, 0, 1, 18199, -89.900, 0.000, 96.200, 0.100, 0.000, -3.000, 0.0, , , , , , 94, , , 13, 13, 13
38.5374467, -120.3487201, 38.200, 15:21:17.616, 15, 0.10, 0.53, 97, 1.300, 3.800, 95.800, 374, 100, 100, 32, 24200, -18923, 5086, 5244, 24, 14, 1531002077.617, 47, 0, 1024, 1024, 1024, 1024, 0, 6, 4003, 4036, 4035, 4050, 4023, 4037, 0, 1, 18300, -89.900, 0.000, 96.200, 0.100, 0.000, -2.900, 0.0, , , , , , 94, , , 13, 13, 13
38.5374467, -120.3487201, 38.200, 15:21:17.716, 15, 0.10, 0.53, 97, 1.300, 3.800, 95.800, 374, 100, 100, 32, 24200, -18923, 5086, 5244, 24, 14, 1531002077.716, 146, 0, 1024, 1024, 1024, 1024, 0, 6, 4003, 4036, 4035, 4050, 4023, 4037, 0, 1, 18399, -89.900, 0.000, 96.200, 0.100, 0.000, -2.900, 0.0, , , , , , 94, , , 13, 13, 13
38.5374466, -120.3487201, 38.800, 15:21:17.816, 15, 0.10, 0.54, 97, 1.100, 3.900, 95.700, 374, 100, 100, 32, 24200, -18923, 5086, 5244, 24, 14, 1531002077.816, 55, 0, 1024, 1024, 1024, 1024, 0, 6, 4003, 4036, 4035, 4050, 4023, 4037, 0, 1, 18499, -89.900, 0.000, 96.200, 0.100, 0.000, -3.000, 0.0, , , , , , 94, , , 13, 13, 13
38.5374465, -120.3487201, 39.100, 15:21:17.916, 15, 0.10, 0.54, 97, 1.200, 3.800, 95.700, 374, 100, 100, 32, 24200, -18923, 5086, 5244, 24, 14, 1531002077.916, 49, 0, 1024, 1024, 1024, 1024, 0, 6, 4003, 4036, 4035, 4050, 4023, 4037, 0, 1, 18599, -89.900, 0.000, 96.200, 0.100, 0.000, -3.000, 0.0, , , , , , 94, , , 13, 13, 13
38.5374465, -120.3487201, 39.400, 15:21:18.016, 15, 0.10, 0.54, 97, 1.400, 3.700, 95.700, 374, 100, 100, 32, 24200, -18923, 5086, 5244, 24, 14, 1531002078.016, 56, 0, 1024, 1024, 1024, 1024, 0, 6, 4003, 4036, 4035, 4050, 4023, 4037, 0, 1, 18700, -90.000, 0.000, 96.200, 0.100, 0.000, -2.900, 0.0, , , , , , 94, , , 13, 13, 13
38.5374466, -120.3487202, 39.700, 15:21:18.116, 15, 0.10, 0.54, 97, 1.600, 3.500, 95.700, 374, 100, 96, 32, 24180, -19366, 5086, 5244, 24, 14, 1531002078.116, 39, 0, 1024, 1024, 1024, 1024, 0, 6, 4004, 4021, 4049, 4051, 4007, 4043, 0, 1, 18799, -90.000, 0.000, 96.200, 0.100, 0.000, -3.000, 0.0, , , , , , 94, , , 13, 13, 13
38.5374466, -120.3487202, 40.000, 15:21:18.216, 15, 0.10, 0.53, 97, 1.500, 3.400, 95.600, 374, 100, 96, 32, 24180, -19366, 5086, 5244, 24, 14, 1531002078.216, 43, 0, 1024, 1024, 1024, 1024, 0, 6, 4004, 4021, 4049, 4051, 4007, 4043, 0, 1, 18899, -90.000, 0.000, 96.200, 0.100, 0.000, -2.900, 0.0, , , , , , 94, , , 13, 13, 13
38.5374466, -120.3487203, 40.300, 15:21:18.316, 15, 0.10, 0.53, 97, 1.700, 3.300, 95.600, 374, 100, 96, 32, 24180, -19366, 5086, 5244, 24, 14, 1531002078.316, 33, 0, 1024, 1024, 1024, 1024, 0, 6, 4004, 4021, 4049, 4051, 4007, 4043, 0, 1, 18999, -90.000, 0.000, 96.200, 0.100, 0.000, -3.000, 0.0, , , , , , 94, , , 13, 13, 13
38.5374466, -120.3487204, 40.600, 15:21:18.416, 15, 0.10, 0.52, 97, 2.000, 3.100, 95.600, 374, 100, 96, 32, 24180, -19366, 5086, 5244, 24, 14, 1531002078.416, 46, 0, 1024, 1024, 1024, 1024, 0, 6, 4004, 4021, 4049, 4051, 4007, 4043, 0, 1, 19100, -90.000, 0.000, 96.200, 0.100, 0.000, -3.000, 0.0, , , , , , 94, , , 13, 13, 13
38.5374466, -120.3487204, 40.900, 15:21:18.516, 15, 0.10, 0.52, 97, 2.100, 3.200, 95.600, 374, 100, 96, 32, 24180, -19366, 5086, 5244, 24, 14, 1531002078.516, 39, 0, 1024, 1024, 1024, 1024, 0, 6, 4004, 4021, 4049, 4051, 4007, 4043, 0, 1, 19199, -89.900, 0.000, 96.200, 0.100, 0.000, -2.900, 0.0, , , , , , 94, , , 13, 13, 13
38.5374467, -120.3487204, 41.200, 15:21:18.616, 15, 0.10, 0.51, 97, 2.100, 3.300, 95.600, 374, 100, 95, 32, 24180, -19366, 5086, 5244, 24, 14, 1531002078.616, 18, 0, 1024, 1024, 1024, 1024, 0, 6, 4004, 4021, 4049, 4051, 4007, 4043, 0, 1, 19300, -90.000, 0.000, 96.200, 0.100, 0.000, -3.000, 0.0, , , , , , 94, , , 13, 13, 13
38.5374467, -120.3487204, 41.200, 15:21:18.718, 15, 0.10, 0.51, 97, 2.100, 3.300, 95.600, 374, 100, 95, 32, 24180, -19366, 5086, 5244, 24, 14, 1531002078.719, 120, 0, 1024, 1024, 1024, 1024, 0, 6, 4004, 4021, 4049, 4051, 4007, 4043, 0, 1, 19402, -90.000, 0.000, 96.200, 0.100, 0.000, -3.000, 0.0, , , , , , 94, , , 13, 13, 13
38.5374467, -120.3487205, 41.800, 15:21:18.818, 15, 0.10, 0.50, 97, 2.300, 3.400, 95.500, 374, 100, 95, 32, 24180, -19366, 5086, 5244, 24, 14, 1531002078.818, 1, 0, 1024, 1024, 1024, 1024, 0, 6, 4004, 4021, 4049, 4051, 4007, 4043, 0, 1, 19501, -89.900, 0.000, 96.200, 0.100, 0.000, -3.000, 0.0, , , , , , 94, , , 13, 13, 13
38.5374467, -120.3487205, 42.100, 15:21:18.916, 15, 0.10, 0.51, 97, 2.200, 3.500, 95.500, 374, 100, 95, 32, 24180, -19366, 5086, 5244, 24, 14, 1531002078.916, 4, 0, 1024, 1024, 1024, 1024, 0, 6, 4004, 4021, 4049, 4051, 4007, 4043, 0, 1, 19600, -89.900, 0.000, 96.200, 0.100, 0.000, -3.000, 0.0, , , , , , 94, , , 13, 13, 13
38.5374467, -120.3487205, 42.100, 15:21:19.016, 15, 0.10, 0.51, 97, 2.200, 3.500, 95.500, 374, 100, 95, 32, 24180, -19366, 5086, 5244, 24, 14, 1531002079.016, 104, 0, 1024, 1024, 1024, 1024, 0, 6, 4004, 4021, 4049, 4051, 4007, 4043, 0, 1, 19700, -89.900, 0.000, 96.200, 0.100, 0.000, -3.000, 0.0, , , , , , 94, , , 13, 13, 13
38.5374467, -120.3487205, 42.400, 15:21:19.116, 15, 0.10, 0.51, 97, 2.000, 3.700, 95.600, 374, 100, 95, 33, 24129, -19191, 5086, 5244, 24, 14, 1531002079.116, 97, 0, 1024, 1024, 1024, 1024, 0, 6, 3988, 4025, 4032, 4041, 4012, 4028, 0, 1, 19800, -89.900, 0.000, 96.200, 0.100, 0.000, -3.000, 0.0, , , , , , 94, , , 13, 13, 13
38.5374467, -120.3487205, 43.000, 15:21:19.216, 15, 0.10, 0.51, 97, 1.700, 3.900, 95.600, 374, 100, 97, 33, 24129, -19191, 5086, 5244, 24, 14, 1531002079.216, 2, 0, 1024, 1024, 1024, 1024, 0, 6, 3988, 4025, 4032, 4041, 4012, 4028, 0, 1, 19899, -89.900, 0.000, 96.200, 0.100, 0.000, -2.900, 0.0, , , , , , 94, , , 13, 13, 13
38.5374467, -120.3487205, 43.000, 15:21:19.316, 15, 0.10, 0.51, 97, 1.700, 3.900, 95.600, 374, 100, 97, 33, 24129, -19191, 5086, 5244, 24, 14, 1531002079.316, 102, 0, 1024, 1024, 1024, 1024, 0, 6, 3988, 4025, 4032, 4041, 4012, 4028, 0, 1, 20000, -89.900, 0.000, 96.200, 0.100, 0.000, -2.900, 0.0, , , , , , 94, , , 13, 13, 13
38.5374467, -120.3487205, 43.300, 15:21:19.416, 15, 0.10, 0.51, 97, 1.600, 3.900, 95.600, 374, 100, 97, 33, 24129, -19191, 5086, 5244, 24, 14, 1531002079.416, 90, 0, 1024, 1024, 1024, 1024, 0, 6, 3988, 4025, 4032, 4041, 4012, 4028, 0, 1, 20099, -89.900, 0.000, 96.200, 0.100, 0.000, -2.900, 0.0, , , , , , 94, , , 13, 13, 13
38.5374467, -120.3487205, 43.600, 15:21:19.516, 15, 0.10, 0.51, 97, 1.700, 3.800, 95.700, 374, 100, 97, 33, 24129, -19191, 5086, 5244, 24, 14, 1531002079.516, 89, 0, 1024, 1024, 1024, 1024, 0, 6, 3988, 4025, 4032, 4041, 4012, 4028, 0, 1, 20199, -89.900, 0.000, 96.200, 0.100, 0.000, -2.900, 0.0, , , , , , 94, , , 13, 13, 13
38.5374467, -120.3487205, 43.900, 15:21:19.616, 15, 0.10, 0.50, 97, 1.900, 3.600, 95.800, 374, 100, 97, 33, 24129, -19191, 5086, 5244, 24, 14, 1531002079.616, 83, 0, 1024, 1024, 1024, 1024, 0, 6, 3988, 4025, 4032, 4041, 4012, 4028, 0, 1, 20299, -89.900, 0.000, 96.200, 0.100, 0.000, -3.000, 0.0, , , , , , 94, , , 13, 13, 13
38.5374468, -120.3487205, 44.200, 15:21:19.716, 15, 0.10, 0.50, 97, 2.100, 3.700, 95.800, 374, 100, 99, 33, 24129, -19191, 5086, 5244, 24, 14, 1531002079.716, 57, 0, 1024, 1024, 1024, 1024, 0, 6, 3988, 4025, 4032, 4041, 4012, 4028, 0, 1, 20399, -89.900, 0.000, 96.200, 0.100, 0.000, -2.900, 0.0, , , , , , 94, , , 13, 13, 13
38.5374468, -120.3487206, 44.500, 15:21:19.816, 15, 0.10, 0.50, 97, 2.300, 3.900, 95.900, 374, 100, 99, 33, 24129, -19191, 5086, 5244, 24, 14, 1531002079.816, 71, 0, 1024, 1024, 1024, 1024, 0, 6, 3988, 4025, 4032, 4041, 4012, 4028, 0, 1, 20500, -89.900, 0.000, 96.200, 0.100, 0.000, -3.000, 0.0, , , , , , 94, , , 13, 13, 13
38.5374468, -120.3487206, 44.800, 15:21:19.916, 15, 0.10, 0.50, 97, 2.200, 4.000, 95.800, 374, 100, 99, 33, 24129, -19191, 5086, 5244, 24, 14, 1531002079.916, 64, 0, 1024, 1024, 1024, 1024, 0, 6, 3988, 4025, 4032, 4041, 4012, 4028, 0, 1, 20599, -89.900, 0.000, 96.200, 0.100, 0.000, -3.000, 0.0, , , , , , 94, , , 13, 13, 13
38.5374468, -120.3487206, 45.400, 15:21:20.016, 16, 0.10, 0.49, 97, 2.300, 4.000, 95.800, 374, 100, 99, 33, 24173, -18887, 5086, 5244, 24, 14, 1531002080.016, 54, 0, 1024, 1024, 1024, 1024, 0, 6, 4004, 4035, 4039, 4054, 4023, 4039, 0, 1, 20700, -89.900, 0.000, 96.200, 0.100, 0.000, -2.900, 0.0, , , , , , 94, , , 13, 13, 13
38.5374469, -120.3487207, 45.700, 15:21:20.116, 16, 0.10, 0.49, 97, 2.300, 3.800, 95.800, 374, 100, 99, 33, 24173, -18887, 5086, 5244, 24, 14, 1531002080.116, 56, 0, 1024, 1024, 1024, 1024, 0, 6, 4004, 4035, 4039, 4054, 4023, 4039, 0, 1, 20799, -90.000, 0.000, 96.200, 0.100, 0.000, -2.900, 0.0, , , , , , 94, , , 13, 13, 13
38.5374469, -120.3487207, 46.000, 15:21:20.216, 16, 0.10, 0.48, 97, 2.400, 3.800, 95.700, 374, 100, 99, 33, 24173, -18887, 5086, 5244, 24, 14, 1531002080.216, 51, 0, 1024, 1024, 1024, 1024, 0, 6, 4004, 4035, 4039, 4054, 4023, 4039, 0, 1, 20899, -89.900, 0.000, 96.200, 0.100, 0.000, -2.900, 0.0, , , , , , 94, , , 13, 13, 13
38.5374469, -120.3487207, 46.300, 15:21:20.316, 16, 0.10, 0.48, 97, 2.600, 3.800, 95.700, 374, 100, 99, 33, 24173, -18887, 5086, 5244, 24, 14, 1531002080.316, 24, 0, 1024, 1024, 1024, 1024, 0, 6, 4004, 4035, 4039, 4054, 4023, 4039, 0, 1, 20999, -89.900, 0.000, 96.200, 0.100, 0.000, -2.900, 0.0, , , , , , 94, , , 13, 13, 13
