latitude,longitude,altitude(feet),ascent(feet),speed(mph),distance(feet),time(millisecond),datetime(utc),satellites,gpslevel,voltage(v),max_altitude(feet),max_ascent(feet),max_speed(mph),max_distance(feet), xSpeed(mph), ySpeed(mph), zSpeed(mph), compass_heading(degrees), pitch(degrees), roll(degrees),isPhoto,isVideo,rc_elevator,rc_aileron,rc_throttle,rc_rudder,gimbal_heading(degrees),gimbal_pitch(degrees),battery_percent,voltageCell1,voltageCell2,voltageCell3,voltageCell4,voltageCell5,voltageCell6,current(A),battery_temperature(f),flycStateRaw,flycState,message
38.5373954,-120.3487474,5377.4942032478,0,0,0,2920,2018-07-07 23:19:49,11,0,0,5377.4942032478,0,0,0,0,0,0,91.8, 0.9, 0,1,0,1024,1024,1024,1024,90.4,-90,98,4.288,4.287,4.299,4.3,4.306,4.304,0,87.8,11,AutoTakeoff,DJI_0513.jpg Starting Mission from Lat/Long: 38.53741/-120.34874 Camera: Zenmuse X3 - Overlap: 90/90 - Active Connection: No
38.5373955,-120.3487475,5377.4942032478,0,0.223694,0.04632053954,3100,2018-07-07 23:19:49,11,0,0,5377.4942032478,0,0.223694,0.04632053954,0,0,0,92.1, 0.5, 0.2,0,0,1024,1024,1024,1024,90.5,-90,98,4.288,4.287,4.299,4.3,4.306,4.304,0,87.8,11,AutoTakeoff,
38.5373955,-120.3487475,5377.4942032478,0,0.223694,0.04632053954,3200,2018-07-07 23:19:49,11,0,0,5377.4942032478,0,0.223694,0.04632053954,0,0,0,92.1, 0.5, 0.2,0,0,1024,1024,1024,1024,90.5,-90,98,4.288,4.287,4.299,4.3,4.306,4.304,0,87.8,11,AutoTakeoff,
38.5373956,-120.3487476,5377.4942032478,0,0.223694,0.092641407164,3300,2018-07-07 23:19:49,11,0,0,5377.4942032478,0,0.223694,0.092641407164,0,0,0,92.2, 0.1, 0.4,0,0,1024,1024,1024,1024,90.5,-90,98,4.288,4.287,4.299,4.3,4.306,4.304,0,87.8,11,AutoTakeoff,
38.5373957,-120.3487476,5377.8222872478,0.328084,0.223694,0.123442917336,3400,2018-07-07 23:19:50,10,0,0,5377.8222872478,0.328084,0.223694,0.123442917336,0,0,0,92.2, -0.1, 0.6,0,0,1024,1024,1024,1024,90.5,-90,98,4.288,4.287,4.299,4.3,4.306,4.304,0,87.8,11,AutoTakeoff,
38.5373959,-120.3487476,5377.8222872478,0.328084,0.223694,0.191145347324,3500,2018-07-07 23:19:50,10,0,0,5377.8222872478,0.328084,0.223694,0.191145347324,0,0,0,92.2, -0.2, 0.5,0,0,1024,1024,1024,1024,90.5,-90,98,4.288,4.287,4.299,4.3,4.306,4.304,0,87.8,11,AutoTakeoff,
38.537396,-120.3487476,5377.8222872478,0.328084,0.223694,0.226228353696,3600,2018-07-07 23:19:50,10,0,0,5377.8222872478,0.328084,0.223694,0.226228353696,0,0,0,92.2, -0.2, 0.7,0,0,1024,1024,1024,1024,90.5,-89.9,98,4.288,4.287,4.299,4.3,4.306,4.304,0,87.8,11,AutoTakeoff,
38.5373962,-120.3487476,5378.1503712478,0.656168,0.223694,0.297407817916,3700,2018-07-07 23:19:50,10,0,0,5378.1503712478,0.656168,0.223694,0.297407817916,0,0,0,92.1, -0.3, 1.1,0,0,1024,1024,1024,1024,90.6,-90,98,4.288,4.287,4.299,4.3,4.306,4.304,0,87.8,11,AutoTakeoff,
38.5373963,-120.3487475,5378.1503712478,0.656168,0.223694,0.32960302892,3800,2018-07-07 23:19:50,9,0,0,5378.1503712478,0.656168,0.223694,0.32960302892,0,0,0,92, -0.2, 1.4,0,0,1024,1024,1024,1024,90.6,-90,98,4.288,4.287,4.299,4.3,4.306,4.304,0,87.8,11,AutoTakeoff,
38.5373964,-120.3487474,5378.4784552478,0.984252,0.223694,0.36484909304,3900,2018-07-07 23:19:50,9,0,0,5378.4784552478,0.984252,0.223694,0.36484909304,0,0,0,91.9, 0, 1.7,0,0,1024,1024,1024,1024,90.6,-89.9,98,4.288,4.287,4.299,4.3,4.306,4.304,0,87.8,11,AutoTakeoff,
38.5373965,-120.3487473,5378.4784552478,0.984252,0.223694,0.40234909424,4000,2018-07-07 23:19:50,8,0,25.872,5378.4784552478,0.984252,0.223694,0.40234909424,0,0,0,91.9, 0.2, 2,0,0,1024,1024,1024,1024,90.6,-89.9,98,4.288,4.287,4.299,4.3,4.306,4.304,3.116,87.8,11,AutoTakeoff,
38.5373965,-120.3487472,5378.8065392478,1.312336,0,0.40537402872,4100,2018-07-07 23:19:50,8,0,25.872,5378.8065392478,1.312336,0.223694,0.40537402872,0,0,0,91.8, 0.3, 1.9,0,0,1024,1024,1024,1024,90.6,-89.9,98,4.288,4.287,4.299,4.3,4.306,4.304,3.116,87.8,11,AutoTakeoff,
38.5373965,-120.3487471,5378.8065392478,1.312336,0,0.41036418636,4200,2018-07-07 23:19:50,9,0,25.872,5378.8065392478,1.312336,0.223694,0.41036418636,0,0,-0.223694,91.7, 0.6, 1.9,0,0,1024,1024,1024,1024,90.6,-89.9,98,4.288,4.287,4.299,4.3,4.306,4.304,3.116,87.8,11,AutoTakeoff,
38.5373965,-120.348747,5379.1346232478,1.64042,0,0.41725395036,4300,2018-07-07 23:19:50,9,0,25.872,5379.1346232478,1.64042,0.223694,0.41725395036,0,0,0,91.6, 0.7, 1.8,0,0,1024,1024,1024,1024,90.7,-89.9,98,4.288,4.287,4.299,4.3,4.306,4.304,3.116,87.8,11,AutoTakeoff,
38.5373966,-120.3487469,5379.1346232478,1.64042,0,0.46048557904,4400,2018-07-07 23:19:51,11,0,25.872,5379.1346232478,1.64042,0.223694,0.46048557904,0,0,0,91.6, 0.9, 1.6,0,0,1024,1024,1024,1024,90.7,-89.9,98,4.288,4.287,4.299,4.3,4.306,4.304,3.116,87.8,11,AutoTakeoff,
38.5373966,-120.3487469,5379.4627072478,1.968504,0,0.46048557904,4500,2018-07-07 23:19:51,11,0,25.872,5379.4627072478,1.968504,0.223694,0.46048557904,0,0,-0.223694,91.6, 0.9, 1.4,0,0,1024,1024,1024,1024,90.7,-89.9,98,4.288,4.287,4.299,4.3,4.306,4.304,3.116,87.8,11,AutoTakeoff,
38.5373965,-120.3487469,5379.4627072478,1.968504,0,0.42594817636,4600,2018-07-07 23:19:51,12,0,25.872,5379.4627072478,1.968504,0.223694,0.46048557904,0,0,-0.223694,91.7, 0.9, 1.2,0,0,1024,1024,1024,1024,90.7,-89.9,98,4.288,4.287,4.299,4.3,4.306,4.304,3.116,87.8,11,AutoTakeoff,
38.5373965,-120.3487468,5379.7907912478,2.296588,0,0.4363353158,4700,2018-07-07 23:19:51,12,0,25.872,5379.7907912478,2.296588,0.223694,0.46048557904,0,0,0,91.7, 0.7, 1,0,0,1024,1024,1024,1024,90.7,-89.9,98,4.288,4.287,4.299,4.3,4.306,4.304,3.116,87.8,11,AutoTakeoff,
38.5373964,-120.3487468,5379.7907912478,2.296588,0,0.40303150896,4800,2018-07-07 23:19:51,13,0,25.872,5379.7907912478,2.296588,0.223694,0.46048557904,0,0,-0.223694,91.7, 0.7, 0.8,0,0,1024,1024,1024,1024,90.7,-89.9,98,4.288,4.287,4.299,4.3,4.306,4.304,3.116,87.8,11,AutoTakeoff,
38.5373964,-120.3487468,5380.1188752478,2.624672,0,0.40303150896,4900,2018-07-07 23:19:51,13,0,25.872,5380.1188752478,2.624672,0.223694,0.46048557904,0,0,-0.223694,91.7, 0.7, 0.6,0,0,1024,1024,1024,1024,90.7,-89.9,98,4.288,4.287,4.299,4.3,4.306,4.304,3.116,87.8,11,AutoTakeoff,
38.5373965,-120.3487467,5380.4469592478,2.952756,0,0.44830382012,5000,2018-07-07 23:19:51,12,0,25.024,5380.4469592478,2.952756,0.223694,0.46048557904,0,0,-0.223694,91.7, 0.8, 0.8,0,0,1024,1024,1024,1024,90.7,-89.9,98,4.128,4.183,4.163,4.164,4.171,4.162,14.41,87.8,11,AutoTakeoff,
38.5373965,-120.3487465,5380.7750432478,3.28084,0,0.47648623572,5110,2018-07-07 23:19:51,10,0,25.024,5380.7750432478,3.28084,0.223694,0.47648623572,0,0,0,91.7, 0.7, 0.9,0,0,1024,1024,1024,1024,90.7,-90,98,4.128,4.183,4.163,4.164,4.171,4.162,14.41,87.8,14,Waypoint,
38.5373964,-120.3487464,5380.7750432478,3.28084,0,0.4632053954,5200,2018-07-07 23:19:51,10,0,25.024,5380.7750432478,3.28084,0.223694,0.47648623572,0,0,0,91.7, 0.6, 0.5,0,0,1024,1024,1024,1024,90.7,-89.9,98,4.128,4.183,4.163,4.164,4.171,4.162,14.41,87.8,14,Waypoint,
38.5373964,-120.3487464,5380.7750432478,3.28084,0,0.4632053954,5400,2018-07-07 23:19:52,11,0,25.024,5380.7750432478,3.28084,0.223694,0.47648623572,0,0,0,91.7, 0.7, 0.2,0,0,1024,1024,1024,1024,90.7,-89.9,98,4.128,4.183,4.163,4.164,4.171,4.162,14.41,87.8,14,Waypoint,
38.5373964,-120.3487462,5381.1031272478,3.608924,0,0.50039699764,5500,2018-07-07 23:19:52,11,0,25.024,5381.1031272478,3.608924,0.223694,0.50039699764,0,0,0,91.8, 0.9, 0.2,0,0,1024,1024,1024,1024,90.7,-89.9,98,4.128,4.183,4.163,4.164,4.171,4.162,14.41,87.8,14,Waypoint,
38.5373964,-120.3487461,5381.1031272478,3.608924,0,0.52034450484,5600,2018-07-07 23:19:52,11,0,25.024,5381.1031272478,3.608924,0.223694,0.52034450484,0,0,0,91.8, 1, 0.4,0,0,1024,1024,1024,1024,90.7,-89.9,98,4.128,4.183,4.163,4.164,4.171,4.162,14.41,87.8,14,Waypoint,
38.5373964,-120.348746,5381.4312112478,3.937008,0,0.54106300944,5700,2018-07-07 23:19:52,11,0,25.024,5381.4312112478,3.937008,0.223694,0.54106300944,0,0,-0.223694,91.8, 1.2, 0.7,0,0,1024,1024,1024,1024,90.7,-89.9,98,4.128,4.183,4.163,4.164,4.171,4.162,14.41,87.8,14,Waypoint,
38.5373963,-120.348746,5381.4312112478,3.937008,0,0.51716209004,5800,2018-07-07 23:19:52,12,0,25.024,5381.4312112478,3.937008,0.223694,0.54106300944,0,0,-0.223694,91.7, 1.2, 0.7,0,0,1024,1024,1024,1024,90.7,-89.9,98,4.128,4.183,4.163,4.164,4.171,4.162,14.41,87.8,14,Waypoint,
38.5373964,-120.3487458,5381.7592952478,4.265092,0,0.58447836516,5900,2018-07-07 23:19:52,12,0,25.024,5381.7592952478,4.265092,0.223694,0.58447836516,0,0,-0.223694,91.7, 1.3, 0.6,0,0,1024,1024,1024,1024,90.7,-89.9,98,4.128,4.183,4.163,4.164,4.171,4.162,14.41,87.8,14,Waypoint,
38.5373964,-120.3487457,5382.0873792478,4.593176,0,0.60703414016,6000,2018-07-07 23:19:52,11,0,24.863,5382.0873792478,4.593176,0.223694,0.60703414016,0,0,-0.223694,91.6, 1.3, 0.7,0,0,1024,1024,1024,1024,90.7,-89.9,98,4.118,4.14,4.14,4.136,4.136,4.146,16.061,87.8,14,Waypoint,
38.5373965,-120.3487457,5382.7435472478,5.249344,0,0.62963912776,6100,2018-07-07 23:19:52,11,0,24.863,5382.7435472478,5.249344,0.223694,0.62963912776,0,0,-0.223694,91.6, 1.2, 0.8,0,0,1024,1024,1024,1024,90.7,-89.9,98,4.118,4.14,4.14,4.136,4.136,4.146,16.061,87.8,14,Waypoint,
38.5373967,-120.3487457,5383.0716312478,5.577428,0,0.67848427368,6200,2018-07-07 23:19:52,11,0,24.863,5383.0716312478,5.577428,0.223694,0.67848427368,0,0,-0.447388,91.6, 1.2, 1,0,0,1024,1024,1024,1024,90.7,-89.9,98,4.118,4.14,4.14,4.136,4.136,4.146,16.061,87.8,14,Waypoint,
38.5373969,-120.3487456,5383.7277992478,6.233596,0,0.75059385604,6300,2018-07-07 23:19:52,11,0,24.863,5383.7277992478,6.233596,0.223694,0.75059385604,0,0,-0.447388,91.6, 1, 1.2,0,0,1024,1024,1024,1024,90.7,-90,98,4.118,4.14,4.14,4.136,4.136,4.146,16.061,87.8,14,Waypoint,
38.5373971,-120.3487455,5384.3839672478,6.889764,0,0.82384517072,6400,2018-07-07 23:19:53,11,0,24.863,5384.3839672478,6.889764,0.223694,0.82384517072,0,0,-0.447388,91.6, 0.9, 1.6,0,0,1024,1024,1024,1024,90.7,-90,98,4.118,4.14,4.14,4.136,4.136,4.146,16.061,87.8,14,Waypoint,
38.5373972,-120.3487454,5385.3682192478,7.874016,0,0.87009845304,6500,2018-07-07 23:19:53,11,0,24.863,5385.3682192478,7.874016,0.223694,0.87009845304,0,0,-0.447388,91.6, 1, 1.9,0,0,1024,1024,1024,1024,90.7,-89.9,98,4.118,4.14,4.14,4.136,4.136,4.146,16.061,87.8,14,Waypoint,
38.5373973,-120.3487453,5386.0243872478,8.530184,0,0.91636157788,6600,2018-07-07 23:19:53,10,0,24.863,5386.0243872478,8.530184,0.223694,0.91636157788,0,0,-0.671082,91.6, 0.9, 2,0,0,1024,1024,1024,1024,90.7,-89.9,98,4.118,4.14,4.14,4.136,4.136,4.146,16.061,87.8,14,Waypoint,
38.5373974,-120.3487453,5387.0086392478,9.514436,0,0.94426184124,6700,2018-07-07 23:19:53,10,0,24.863,5387.0086392478,9.514436,0.223694,0.94426184124,0,0,-0.671082,91.6, 1.1, 1.9,0,0,1024,1024,1024,1024,90.7,-89.9,98,4.118,4.14,4.14,4.136,4.136,4.146,16.061,87.8,14,Waypoint,
38.5373975,-120.3487453,5387.9928912478,10.498688,0,0.97273297076,6800,2018-07-07 23:19:53,11,0,24.863,5387.9928912478,10.498688,0.223694,0.97273297076,0,0,-0.671082,91.6, 1.1, 2.1,0,0,1024,1024,1024,1024,90.7,-89.9,98,4.118,4.14,4.14,4.136,4.136,4.146,16.061,87.8,14,Waypoint,
38.5373976,-120.3487452,5388.9771432478,11.48294,0,1.01905515072,6900,2018-07-07 23:19:53,11,0,24.863,5388.9771432478,11.48294,0.223694,1.01905515072,0,0,-0.671082,91.7, 1.1, 2.2,0,0,1024,1024,1024,1024,90.7,-89.9,98,4.118,4.14,4.14,4.136,4.136,4.146,16.061,87.8,14,Waypoint,
38.5373978,-120.348745,5389.9613952478,12.467192,0,1.1116962298,7000,2018-07-07 23:19:53,11,0,24.76,5389.9613952478,12.467192,0.223694,1.1116962298,0,0,-0.671082,91.8, 1.2, 2.2,0,0,1024,1024,1024,1024,90.7,-89.9,98,4.051,4.078,4.133,4.098,4.183,4.125,19.446,87.8,14,Waypoint,
38.5373978,-120.348745,5391.9298992478,14.435696,0,1.1116962298,7100,2018-07-07 23:19:53,11,0,24.76,5391.9298992478,14.435696,0.223694,1.1116962298,0,0,-0.671082,91.8, 1.6, 2,0,0,1024,1024,1024,1024,90.7,-89.9,98,4.051,4.078,4.133,4.098,4.183,4.125,19.446,87.8,14,Waypoint,
38.5373978,-120.3487451,5393.2422352478,15.748032,0,1.09434386704,7200,2018-07-07 23:19:53,11,0,24.76,5393.2422352478,15.748032,0.223694,1.1116962298,0,0,-0.671082,91.7, 1.5, 1.8,0,0,1024,1024,1024,1024,90.7,-89.9,98,4.051,4.078,4.133,4.098,4.183,4.125,19.446,87.8,14,Waypoint,
38.5373978,-120.3487451,5394.2264872478,16.732284,0,1.09434386704,7300,2018-07-07 23:19:53,11,0,24.76,5394.2264872478,16.732284,0.223694,1.1116962298,0,0,-0.671082,91.7, 1.3, 1.7,0,0,1024,1024,1024,1024,90.7,-89.9,98,4.051,4.078,4.133,4.098,4.183,4.125,19.446,87.8,14,Waypoint,
38.5373976,-120.3487452,5395.2107392478,17.716536,0,1.01905515072,7400,2018-07-07 23:19:54,11,0,24.76,5395.2107392478,17.716536,0.223694,1.1116962298,0,0,-0.671082,91.6, 1, 1.4,0,0,1024,1024,1024,1024,90.7,-89.9,98,4.051,4.078,4.133,4.098,4.183,4.125,19.446,87.8,14,Waypoint,
38.5373975,-120.3487453,5396.5230752478,19.028872,0,0.97273297076,7600,2018-07-07 23:19:54,11,0,24.76,5396.5230752478,19.028872,0.223694,1.1116962298,0,0,-0.671082,91.6, 0.8, 1,0,0,1024,1024,1024,1024,90.7,-90,98,4.051,4.078,4.133,4.098,4.183,4.125,19.446,87.8,14,Waypoint,
38.5373973,-120.3487454,5397.5073272478,20.013124,0,0.89795606548,7700,2018-07-07 23:19:54,11,0,24.76,5397.5073272478,20.013124,0.223694,1.1116962298,0,0,-0.671082,91.7, 0.6, 0.6,0,0,1024,1024,1024,1024,90.7,-90,98,4.051,4.078,4.133,4.098,4.183,4.125,19.446,87.8,14,Waypoint,
38.5373972,-120.3487454,5398.4915792478,20.997376,0,0.87009845304,7800,2018-07-07 23:19:54,11,0,24.76,5398.4915792478,20.997376,0.223694,1.1116962298,0,0,-0.671082,91.7, 0.5, 0.3,0,0,1024,1024,1024,1024,90.7,-90,98,4.051,4.078,4.133,4.098,4.183,4.125,19.446,87.8,14,Waypoint,
38.5373969,-120.3487455,5399.4758312478,21.981628,0,0.7704068488,7900,2018-07-07 23:19:54,11,0,24.76,5399.4758312478,21.981628,0.223694,1.1116962298,0,0,-0.671082,91.8, 0.5, 0.2,0,0,1024,1024,1024,1024,90.7,-90,98,4.051,4.078,4.133,4.098,4.183,4.125,19.446,87.8,14,Waypoint,
38.5373966,-120.3487456,5400.4600832478,22.96588,0.223694,0.67495737068,8000,2018-07-07 23:19:54,12,0,24.186,5400.4600832478,22.96588,0.223694,1.1116962298,0,0,-0.671082,91.8, 0.6, -0.1,0,0,1024,1024,1024,1024,90.7,-89.9,98,4.021,4.057,4.046,4.033,4.058,4.085,23.435,87.8,14,Waypoint,
38.5373963,-120.3487457,5401.7724192478,24.278216,0.223694,0.58583335208,8100,2018-07-07 23:19:54,12,0,24.186,5401.7724192478,24.278216,0.223694,1.1116962298,0,0,-0.671082,91.7, 0.6, -0.7,0,0,1024,1024,1024,1024,90.7,-90,98,4.021,4.057,4.046,4.033,4.058,4.085,23.435,87.8,14,Waypoint,
38.5373961,-120.3487457,5402.7566712478,25.262468,0,0.54827101492,8200,2018-07-07 23:19:54,12,0,24.186,5402.7566712478,25.262468,0.223694,1.1116962298,0,0,-0.671082,91.7, 0.6, -1,0,0,1024,1024,1024,1024,90.7,-90,98,4.021,4.057,4.046,4.033,4.058,4.085,23.435,87.8,14,Waypoint,
38.537396,-120.3487459,5403.7409232478,26.24672,0,0.48080382116,8300,2018-07-07 23:19:54,12,0,24.186,5403.7409232478,26.24672,0.223694,1.1116962298,0,0,-0.671082,91.8, 0.5, -1,0,0,1024,1024,1024,1024,90.7,-90,98,4.021,4.057,4.046,4.033,4.058,4.085,23.435,87.8,14,Waypoint,
38.5373958,-120.3487461,5405.0532592478,27.559056,0,0.39867455344,8400,2018-07-07 23:19:55,14,0,24.186,5405.0532592478,27.559056,0.223694,1.1116962298,0,0,-0.671082,91.8, 0.3, -0.8,0,0,1024,1024,1024,1024,90.7,-90,98,4.021,4.057,4.046,4.033,4.058,4.085,23.435,87.8,14,Waypoint,
38.5373957,-120.3487461,5406.0375112478,28.543308,0,0.386811036,8500,2018-07-07 23:19:55,14,0,24.186,5406.0375112478,28.543308,0.223694,1.1116962298,0,0,-0.671082,91.9, 0.1, -0.6,0,0,1024,1024,1024,1024,90.7,-90,98,4.021,4.057,4.046,4.033,4.058,4.085,23.435,87.8,14,Waypoint,
38.5373956,-120.3487461,5407.0217632478,29.52756,0,0.37811024832,8600,2018-07-07 23:19:55,15,0,24.186,5407.0217632478,29.52756,0.223694,1.1116962298,0,0,-0.671082,91.9, 0, -0.4,0,0,1024,1024,1024,1024,90.7,-90,98,4.021,4.057,4.046,4.033,4.058,4.085,23.435,87.8,14,Waypoint,
38.5373955,-120.3487462,5408.0060152478,30.511812,0,0.34439961732,8700,2018-07-07 23:19:55,15,0,24.186,5408.0060152478,30.511812,0.223694,1.1116962298,0,0,-0.671082,91.9, 0, -0.2,0,0,1024,1024,1024,1024,90.7,-90,98,4.021,4.057,4.046,4.033,4.058,4.085,23.435,87.8,14,Waypoint,
38.5373955,-120.3487463,5409.3183512478,31.824148,0,0.316037411688,8800,2018-07-07 23:19:55,14,0,24.186,5409.3183512478,31.824148,0.223694,1.1116962298,0,0,-0.671082,91.9, 0.2, 0,0,0,1024,1024,1024,1024,90.7,-89.9,98,4.021,4.057,4.046,4.033,4.058,4.085,23.435,87.8,14,Waypoint,
38.5373954,-120.3487464,5410.3026032478,32.8084,0,0.285385835904,8900,2018-07-07 23:19:55,14,0,24.186,5410.3026032478,32.8084,0.223694,1.1116962298,0,0,-0.671082,91.8, 0.3, 0,0,0,1024,1024,1024,1024,90.7,-89.9,98,4.021,4.057,4.046,4.033,4.058,4.085,23.435,87.8,14,Waypoint,
38.5373953,-120.3487465,5411.2868552478,33.792652,0,0.259425533236,9000,2018-07-07 23:19:55,14,0,24.375,5411.2868552478,33.792652,0.223694,1.1116962298,0,0,-0.671082,91.7, 0.3, 0.1,0,0,1024,1024,1024,1024,90.7,-90,98,4.042,4.078,4.066,4.063,4.06,4.088,19.524,87.8,14,Waypoint,
38.5373952,-120.3487465,5412.2711072478,34.776904,0,0.267011491484,9100,2018-07-07 23:19:55,14,0,24.375,5412.2711072478,34.776904,0.223694,1.1116962298,0,0,-0.671082,91.6, 0.3, 0,0,0,1024,1024,1024,1024,90.7,-90,98,4.042,4.078,4.066,4.063,4.06,4.088,19.524,87.8,14,Waypoint,
38.5373952,-120.3487466,5413.2553592478,35.761156,0,0.239686031292,9200,2018-07-07 23:19:55,14,0,24.375,5413.2553592478,35.761156,0.223694,1.1116962298,0,0,-0.671082,91.6, 0, -0.1,0,0,1024,1024,1024,1024,90.7,-89.9,98,4.042,4.078,4.066,4.063,4.06,4.088,19.524,87.8,14,Waypoint,
38.5373952,-120.3487467,5414.5676952478,37.073492,0,0.212679796832,9300,2018-07-07 23:19:55,14,0,24.375,5414.5676952478,37.073492,0.223694,1.1116962298,0,0,-0.671082,91.7, 0, -0.1,0,0,1024,1024,1024,1024,90.7,-89.9,98,4.042,4.078,4.066,4.063,4.06,4.088,19.524,87.8,14,Waypoint,
38.5373951,-120.3487467,5416.5361992478,39.041996,0,0.22779036162,9400,2018-07-07 23:19:56,14,0,24.375,5416.5361992478,39.041996,0.223694,1.1116962298,0,0,-0.671082,92, 0.3, -0.1,0,0,1024,1024,1024,1024,90.7,-90,98,4.042,4.078,4.066,4.063,4.06,4.088,19.524,87.8,14,Waypoint,
38.5373951,-120.3487467,5417.5204512478,40.026248,0,0.22779036162,9500,2018-07-07 23:19:56,16,0,24.375,5417.5204512478,40.026248,0.223694,1.1116962298,0,0,-0.671082,92, 0.5, -0.1,0,0,1024,1024,1024,1024,90.7,-89.9,98,4.042,4.078,4.066,4.063,4.06,4.088,19.524,87.8,14,Waypoint,
38.537395,-120.3487468,5419.4889552478,41.994752,0,0.224985899588,9700,2018-07-07 23:19:56,16,0,24.375,5419.4889552478,41.994752,0.223694,1.1116962298,0,0,-0.671082,92, 0.6, -0.3,0,0,1024,1024,1024,1024,90.7,-89.9,98,4.042,4.078,4.066,4.063,4.06,4.088,19.524,87.8,14,Waypoint,
38.5373951,-120.3487468,5420.4732072478,42.979004,0,0.203225400204,9900,2018-07-07 23:19:56,16,0,24.375,5420.4732072478,42.979004,0.223694,1.1116962298,0,0,-0.671082,91.9, 0.5, -0.4,0,0,1024,1024,1024,1024,90.7,-89.9,98,4.042,4.078,4.066,4.063,4.06,4.088,19.524,87.8,14,Waypoint,
38.5373952,-120.3487468,5421.4574592478,43.963256,0.223694,0.186131239552,10000,2018-07-07 23:19:56,16,0,24.417,5421.4574592478,43.963256,0.223694,1.1116962298,0,0,-0.671082,91.8, 0.4, 0,0,0,1024,1024,1024,1024,90.7,-90,98,4.045,4.08,4.077,4.063,4.073,4.087,18.664,87.8,14,Waypoint,
38.5373952,-120.3487468,5422.4417112478,44.947508,0.223694,0.186131239552,10100,2018-07-07 23:19:56,16,0,24.417,5422.4417112478,44.947508,0.223694,1.1116962298,0,0,-0.671082,91.7, 0.3, 0.4,0,0,1024,1024,1024,1024,90.7,-89.9,98,4.045,4.08,4.077,4.063,4.073,4.087,18.664,87.8,14,Waypoint,
38.5373952,-120.3487468,5423.4259632478,45.93176,0,0.186131239552,10200,2018-07-07 23:19:56,16,0,24.417,5423.4259632478,45.93176,0.223694,1.1116962298,0,0,-0.671082,91.6, 0.5, 0.5,0,0,1024,1024,1024,1024,90.7,-89.9,98,4.045,4.08,4.077,4.063,4.073,4.087,18.664,87.8,14,Waypoint,
38.5373953,-120.3487467,5424.4102152478,46.916012,0.223694,0.203074481564,10300,2018-07-07 23:19:56,16,0,24.417,5424.4102152478,46.916012,0.223694,1.1116962298,0,0,-0.671082,91.5, 0.7, 0.5,0,0,1024,1024,1024,1024,90.7,-89.9,98,4.045,4.08,4.077,4.063,4.073,4.087,18.664,87.8,14,Waypoint,
38.5373954,-120.3487467,5425.3944672478,47.900264,0.223694,0.199770019516,10400,2018-07-07 23:19:57,16,0,24.417,5425.3944672478,47.900264,0.223694,1.1116962298,0,0,-0.671082,91.5, 1, 0.7,0,0,1024,1024,1024,1024,90.7,-89.9,98,4.045,4.08,4.077,4.063,4.073,4.087,18.664,87.8,14,Waypoint,
38.5373955,-120.3487467,5426.3787192478,48.884516,0.223694,0.203074481564,10500,2018-07-07 23:19:57,16,0,24.417,5426.3787192478,48.884516,0.223694,1.1116962298,0,0,-0.671082,91.5, 1, 0.7,0,0,1024,1024,1024,1024,90.7,-89.9,98,4.045,4.08,4.077,4.063,4.073,4.087,18.664,87.8,14,Waypoint,
38.5373956,-120.3487467,5427.3629712478,49.868768,0.223694,0.212679796832,10600,2018-07-07 23:19:57,15,0,24.417,5427.3629712478,49.868768,0.223694,1.1116962298,0,0,-0.671082,91.5, 0.9, 0.7,0,0,1024,1024,1024,1024,90.7,-89.9,98,4.045,4.08,4.077,4.063,4.073,4.087,18.664,87.8,14,Waypoint,
38.5373957,-120.3487466,5428.3472232478,50.85302,0.223694,0.253189968732,10700,2018-07-07 23:19:57,15,0,24.417,5428.3472232478,50.85302,0.223694,1.1116962298,0,0,-0.671082,91.5, 0.8, 1,0,0,1024,1024,1024,1024,90.7,-89.9,98,4.045,4.08,4.077,4.063,4.073,4.087,18.664,87.8,14,Waypoint,
38.5373959,-120.3487466,5429.3314752478,51.837272,0.223694,0.292238854496,10800,2018-07-07 23:19:57,15,0,24.417,5429.3314752478,51.837272,0.223694,1.1116962298,0,0,-0.671082,91.6, 0.8, 1.2,0,0,1024,1024,1024,1024,90.7,-89.9,98,4.045,4.08,4.077,4.063,4.073,4.087,18.664,87.8,14,Waypoint,
38.537396,-120.3487466,5430.3157272478,52.821524,0.223694,0.31630086314,10900,2018-07-07 23:19:57,15,0,24.417,5430.3157272478,52.821524,0.223694,1.1116962298,0,0,-0.671082,91.7, 0.9, 1.3,0,0,1024,1024,1024,1024,90.7,-89.9,98,4.045,4.08,4.077,4.063,4.073,4.087,18.664,87.8,14,Waypoint,
38.5373961,-120.3487465,5431.2999792478,53.805776,0,0.36221129768,11000,2018-07-07 23:19:57,16,0,24.374,5431.2999792478,53.805776,0.223694,1.1116962298,0,0,-0.671082,91.6, 1.1, 1.3,0,0,1024,1024,1024,1024,90.7,-89.9,98,4.032,4.068,4.067,4.049,4.063,4.076,18.76,87.8,14,Waypoint,
38.5373962,-120.3487465,5432.2842312478,54.790028,0,0.38879922504,11100,2018-07-07 23:19:57,16,0,24.374,5432.2842312478,54.790028,0.223694,1.1116962298,0,0,-0.671082,91.6, 1.2, 1.2,0,0,1024,1024,1024,1024,90.7,-89.9,98,4.032,4.068,4.067,4.049,4.063,4.076,18.76,87.8,14,Waypoint,
38.5373963,-120.3487464,5434.2527352478,56.758532,0,0.43504922652,11300,2018-07-07 23:19:57,16,0,24.374,5434.2527352478,56.758532,0.223694,1.1116962298,0,0,-0.671082,91.5, 1.1, 1.3,0,0,1024,1024,1024,1024,90.7,-89.9,98,4.032,4.068,4.067,4.049,4.063,4.076,18.76,87.8,14,Waypoint,
38.5373964,-120.3487463,5435.2369872478,57.742784,0,0.4813156322,11400,2018-07-07 23:19:58,16,0,24.374,5435.2369872478,57.742784,0.223694,1.1116962298,0,0,-0.671082,91.6, 1.1, 1.3,0,0,1024,1024,1024,1024,90.7,-89.9,98,4.032,4.068,4.067,4.049,4.063,4.076,18.76,87.8,14,Waypoint,
38.5373964,-120.3487464,5437.2054912478,59.711288,0,0.4632053954,11500,2018-07-07 23:19:58,16,0,24.374,5437.2054912478,59.711288,0.223694,1.1116962298,0,0,-0.671082,91.7, 0.7, 0.7,0,0,1024,1024,1024,1024,90.7,-90,98,4.032,4.068,4.067,4.049,4.063,4.076,18.76,87.8,14,Waypoint,
38.5373964,-120.3487464,5438.1897432478,60.69554,0,0.4632053954,11600,2018-07-07 23:19:58,16,0,24.374,5438.1897432478,60.69554,0.223694,1.1116962298,0,0,-0.671082,91.8, 0.5, 0.7,0,0,1024,1024,1024,1024,90.7,-90,98,4.032,4.068,4.067,4.049,4.063,4.076,18.76,87.8,14,Waypoint,
38.5373965,-120.3487464,5439.1739952478,61.679792,0,0.49245736484,11700,2018-07-07 23:19:58,16,0,24.374,5439.1739952478,61.679792,0.223694,1.1116962298,0,0,-0.671082,91.9, 0.5, 0.8,0,0,1024,1024,1024,1024,90.7,-89.9,98,4.032,4.068,4.067,4.049,4.063,4.076,18.76,87.8,14,Waypoint,
38.5373965,-120.3487464,5440.1582472478,62.664044,0,0.49245736484,11800,2018-07-07 23:19:58,16,0,24.374,5440.1582472478,62.664044,0.223694,1.1116962298,0,0,-0.671082,91.9, 0.5, 0.9,0,0,1024,1024,1024,1024,90.7,-89.9,98,4.032,4.068,4.067,4.049,4.063,4.076,18.76,87.8,14,Waypoint,
38.5373966,-120.3487463,5441.1424992478,63.648296,0,0.53873361304,12000,2018-07-07 23:19:58,16,0,24.365,5441.1424992478,63.648296,0.223694,1.1116962298,0,0,-0.671082,91.8, 0.6, 1.1,0,0,1024,1024,1024,1024,90.7,-89.9,98,4.032,4.068,4.067,4.049,4.063,4.076,18.734,87.8,14,Waypoint,
38.5373966,-120.3487463,5442.1267512478,64.632548,0,0.53873361304,12100,2018-07-07 23:19:58,16,0,24.365,5442.1267512478,64.632548,0.223694,1.1116962298,0,0,-0.671082,91.8, 0.7, 1.3,0,0,1024,1024,1024,1024,90.7,-89.9,98,4.032,4.068,4.067,4.049,4.063,4.076,18.734,87.8,14,Waypoint,
38.5373967,-120.3487462,5444.0952552478,66.601052,0,0.58501642292,12300,2018-07-07 23:19:58,16,0,24.365,5444.0952552478,66.601052,0.223694,1.1116962298,0,0,-0.671082,91.8, 0.9, 1,0,0,1024,1024,1024,1024,90.7,-89.9,98,4.032,4.068,4.067,4.049,4.063,4.076,18.734,87.8,14,Waypoint,
38.5373967,-120.3487461,5445.0795072478,67.585304,0,0.60216865444,12400,2018-07-07 23:19:59,16,0,24.365,5445.0795072478,67.585304,0.223694,1.1116962298,0,0,-0.671082,91.9, 1, 0.9,0,0,1024,1024,1024,1024,90.7,-89.9,98,4.032,4.068,4.067,4.049,4.063,4.076,18.734,87.8,14,Waypoint,
38.5373968,-120.3487461,5446.0637592478,68.569556,0,0.63130579448,12500,2018-07-07 23:19:59,16,0,24.365,5446.0637592478,68.569556,0.223694,1.1116962298,0,0,-0.671082,91.9, 0.9, 0.6,0,0,1024,1024,1024,1024,90.7,-89.9,98,4.032,4.068,4.067,4.049,4.063,4.076,18.734,87.8,14,Waypoint,
38.5373969,-120.348746,5448.0322632478,70.53806,0,0.67759844688,12700,2018-07-07 23:19:59,16,0,24.365,5448.0322632478,70.53806,0.223694,1.1116962298,0,0,-0.671082,92, 0.5, 0.6,0,0,1024,1024,1024,1024,90.7,-90,98,4.032,4.068,4.067,4.049,4.063,4.076,18.734,87.8,14,Waypoint,
38.5373969,-120.348746,5449.0165152478,71.522312,0,0.67759844688,12800,2018-07-07 23:19:59,16,0,24.365,5449.0165152478,71.522312,0.223694,1.1116962298,0,0,-0.671082,91.9, 0.7, 0.8,0,0,1024,1024,1024,1024,90.7,-89.9,98,4.032,4.068,4.067,4.049,4.063,4.076,18.734,87.8,14,Waypoint,
38.537397,-120.3487459,5450.0007672478,72.506564,0,0.72389766096,12900,2018-07-07 23:19:59,16,0,24.365,5450.0007672478,72.506564,0.223694,1.1116962298,0,0,-0.671082,92, 0.9, 1.3,0,0,1024,1024,1024,1024,90.7,-89.9,98,4.032,4.068,4.067,4.049,4.063,4.076,18.734,87.8,14,Waypoint,
38.5373971,-120.3487458,5450.9850192478,73.490816,0,0.77019687504,13000,2018-07-07 23:19:59,17,0,24.365,5450.9850192478,73.490816,0.223694,1.1116962298,0,0,-0.671082,92, 1.6, 1.6,0,0,1024,1024,1024,1024,90.7,-89.9,98,4.035,4.063,4.065,4.053,4.056,4.082,18.734,87.8,14,Waypoint,
38.5373971,-120.3487457,5451.9692712478,74.475068,0,0.7874508126,13100,2018-07-07 23:19:59,17,0,24.365,5451.9692712478,74.475068,0.223694,1.1116962298,0,0,-0.671082,91.9, 2.2, 1.8,0,0,1024,1024,1024,1024,90.7,-89.9,98,4.035,4.063,4.065,4.053,4.056,4.082,18.734,87.8,14,Waypoint,
38.5373972,-120.3487456,5452.9535232478,75.45932,0,0.83377299256,13200,2018-07-07 23:19:59,16,0,24.365,5452.9535232478,75.45932,0.223694,1.1116962298,0,0,-0.671082,91.8, 2.2, 1.6,0,0,1024,1024,1024,1024,90.7,-89.9,98,4.035,4.063,4.065,4.053,4.056,4.082,18.734,87.8,14,Waypoint,
38.5373972,-120.3487455,5453.9377752478,76.443572,0,0.85165028972,13300,2018-07-07 23:19:59,16,0,24.365,5453.9377752478,76.443572,0.223694,1.1116962298,0,0,-0.671082,91.5, 2, 1.1,0,0,1024,1024,1024,1024,90.7,-89.9,98,4.035,4.063,4.065,4.053,4.056,4.082,18.734,87.8,14,Waypoint,
38.5373971,-120.3487454,5454.9220272478,77.427824,0,0.84290028944,13400,2018-07-07 23:20:00,16,0,24.365,5454.9220272478,77.427824,0.223694,1.1116962298,0,0,-0.671082,91.3, 2, 0.6,0,0,1024,1024,1024,1024,90.7,-89.9,98,4.035,4.063,4.065,4.053,4.056,4.082,18.734,87.8,14,Waypoint,
38.5373972,-120.3487454,5455.9062792478,78.412076,0,0.87009845304,13500,2018-07-07 23:20:00,16,0,24.365,5455.9062792478,78.412076,0.223694,1.1116962298,0,0,-0.671082,91.1, 2, 0.6,0,0,1024,1024,1024,1024,90.7,-89.9,98,4.035,4.063,4.065,4.053,4.056,4.082,18.734,87.8,14,Waypoint,
38.5373972,-120.3487453,5456.8905312478,79.396328,0,0.88908139328,13600,2018-07-07 23:20:00,16,0,24.365,5456.8905312478,79.396328,0.223694,1.1116962298,0,0,-0.671082,91, 2, 0.5,0,0,1024,1024,1024,1024,90.7,-89.9,98,4.035,4.063,4.065,4.053,4.056,4.082,18.734,87.8,14,Waypoint,
38.5373972,-120.3487453,5457.8747832478,80.38058,0,0.88908139328,13700,2018-07-07 23:20:00,16,0,24.365,5457.8747832478,80.38058,0.223694,1.1116962298,0,0,-0.671082,91.1, 2, 0.6,0,0,1024,1024,1024,1024,90.7,-89.9,98,4.035,4.063,4.065,4.053,4.056,4.082,18.734,87.8,14,Waypoint,
38.5373971,-120.3487452,5458.8590352478,81.364832,0,0.88255252168,13800,2018-07-07 23:20:00,16,0,24.365,5458.8590352478,81.364832,0.223694,1.1116962298,0,0,-0.671082,91.1, 1.8, 0.7,0,0,1024,1024,1024,1024,90.7,-89.9,98,4.035,4.063,4.065,4.053,4.056,4.082,18.734,87.8,14,Waypoint,
38.5373971,-120.3487452,5459.8432872478,82.349084,0,0.88255252168,13900,2018-07-07 23:20:00,16,0,24.365,5459.8432872478,82.349084,0.223694,1.1116962298,0,0,-0.671082,91.2, 1.7, 0.8,0,0,1024,1024,1024,1024,90.7,-89.9,98,4.035,4.063,4.065,4.053,4.056,4.082,18.734,87.8,14,Waypoint,
38.537397,-120.3487451,5461.8117912478,84.317588,0,0.87841866328,14000,2018-07-07 23:20:00,16,0,24.349,5461.8117912478,84.317588,0.223694,1.1116962298,0,0,-0.671082,91.5, 1.9, 0.7,0,0,1024,1024,1024,1024,90.7,-89.9,98,4.023,4.055,4.071,4.056,4.063,4.073,18.622,87.8,14,Waypoint,
38.537397,-120.3487451,5462.7960432478,85.30184,0,0.87841866328,14100,2018-07-07 23:20:00,17,0,24.349,5462.7960432478,85.30184,0.223694,1.1116962298,0,0,-0.671082,91.6, 2.1, 0.4,0,0,1024,1024,1024,1024,90.7,-89.9,98,4.023,4.055,4.071,4.056,4.063,4.073,18.622,87.8,14,Waypoint,
38.537397,-120.3487451,5463.7802952478,86.286092,0,0.87841866328,14200,2018-07-07 23:20:00,17,0,24.349,5463.7802952478,86.286092,0.223694,1.1116962298,0,0,-0.671082,91.7, 2, -0.1,0,0,1024,1024,1024,1024,90.7,-89.9,98,4.023,4.055,4.071,4.056,4.063,4.073,18.622,87.8,14,Waypoint,
38.5373969,-120.3487451,5464.7645472478,87.270344,0,0.85460632656,14300,2018-07-07 23:20:00,17,0,24.349,5464.7645472478,87.270344,0.223694,1.1116962298,0,0,-0.671082,91.8, 1.9, -0.4,0,0,1024,1024,1024,1024,90.7,-89.9,98,4.023,4.055,4.071,4.056,4.063,4.073,18.622,87.8,14,Waypoint,
38.5373969,-120.3487451,5465.7487992478,88.254596,0,0.85460632656,14410,2018-07-07 23:20:01,17,0,24.349,5465.7487992478,88.254596,0.223694,1.1116962298,0,0,-0.671082,91.9, 1.8, -0.4,0,0,1024,1024,1024,1024,90.7,-89.9,98,4.023,4.055,4.071,4.056,4.063,4.073,18.622,87.8,14,Waypoint,
38.5373969,-120.3487451,5465.7487992478,88.254596,0,0.85460632656,14500,2018-07-07 23:20:01,17,0,24.349,5465.7487992478,88.254596,0.223694,1.1116962298,0,0,-0.671082,91.9, 1.8, -0.4,0,0,1024,1024,1024,1024,90.7,-89.9,98,4.023,4.055,4.071,4.056,4.063,4.073,18.622,87.8,14,Waypoint,
38.5373968,-120.3487451,5466.7330512478,89.238848,0,0.83171590588,14600,2018-07-07 23:20:01,17,0,24.349,5466.7330512478,89.238848,0.223694,1.1116962298,0,0,-0.671082,91.9, 1.5, -0.3,0,0,1024,1024,1024,1024,90.7,-90,98,4.023,4.055,4.071,4.056,4.063,4.073,18.622,87.8,14,Waypoint,
38.5373968,-120.3487451,5467.7173032478,90.2231,0,0.83171590588,14700,2018-07-07 23:20:01,17,0,24.349,5467.7173032478,90.2231,0.223694,1.1116962298,0,0,-0.671082,91.8, 1.5, 0.1,0,0,1024,1024,1024,1024,90.7,-89.9,98,4.023,4.055,4.071,4.056,4.063,4.073,18.622,87.8,14,Waypoint,
38.5373969,-120.3487451,5468.7015552478,91.207352,0,0.85460632656,14800,2018-07-07 23:20:01,17,0,24.349,5468.7015552478,91.207352,0.223694,1.1116962298,0,0,-0.671082,91.7, 1.4, 0.4,0,0,1024,1024,1024,1024,90.7,-90,98,4.023,4.055,4.071,4.056,4.063,4.073,18.622,87.8,14,Waypoint,
38.5373969,-120.3487452,5469.6858072478,92.191604,0,0.83288716576,14900,2018-07-07 23:20:01,17,0,24.349,5469.6858072478,92.191604,0.223694,1.1116962298,0,0,-0.671082,91.5, 1.4, 0.6,0,0,1024,1024,1024,1024,90.7,-89.9,98,4.023,4.055,4.071,4.056,4.063,4.073,18.622,87.8,14,Waypoint,
38.5373969,-120.3487453,5470.6700592478,93.175856,0,0.81159123332,15000,2018-07-07 23:20:01,17,0,24.312,5470.6700592478,93.175856,0.223694,1.1116962298,0,0,-0.671082,91.4, 1.3, 0.9,0,0,1024,1024,1024,1024,90.7,-89.9,97,4.028,4.065,4.064,4.045,4.054,4.077,18.798,89.6,14,Waypoint,
38.5373969,-120.3487453,5471.6543112478,94.160108,0,0.81159123332,15100,2018-07-07 23:20:01,17,0,24.312,5471.6543112478,94.160108,0.223694,1.1116962298,0,0,-0.671082,91.2, 1.1, 1.1,0,0,1024,1024,1024,1024,90.7,-90,97,4.028,4.065,4.064,4.045,4.054,4.077,18.798,89.6,14,Waypoint,
38.5373969,-120.3487453,5472.6385632478,95.14436,0,0.81159123332,15200,2018-07-07 23:20:01,17,0,24.312,5472.6385632478,95.14436,0.223694,1.1116962298,0,0,-0.671082,91, 1.1, 1,0,0,1024,1024,1024,1024,90.7,-90,97,4.028,4.065,4.064,4.045,4.054,4.077,18.798,89.6,14,Waypoint,
38.5373969,-120.3487453,5473.6228152478,96.128612,0,0.81159123332,15300,2018-07-07 23:20:01,17,0,24.312,5473.6228152478,96.128612,0.223694,1.1116962298,0,0,-0.671082,90.8, 1, 0.8,0,0,1024,1024,1024,1024,90.7,-90,97,4.028,4.065,4.064,4.045,4.054,4.077,18.798,89.6,14,Waypoint,
38.537397,-120.3487454,5474.6070672478,97.112864,0,0.81642719148,15400,2018-07-07 23:20:02,17,0,24.312,5474.6070672478,97.112864,0.223694,1.1116962298,0,0,-0.671082,90.8, 1, 1.1,0,0,1024,1024,1024,1024,90.7,-89.9,97,4.028,4.065,4.064,4.045,4.054,4.077,18.798,89.6,14,Waypoint,
38.537397,-120.3487454,5475.5913192478,98.097116,0,0.81642719148,15500,2018-07-07 23:20:02,17,0,24.312,5475.5913192478,98.097116,0.223694,1.1116962298,0,0,-0.671082,90.9, 1.1, 1.1,0,0,1024,1024,1024,1024,90.7,-89.9,97,4.028,4.065,4.064,4.045,4.054,4.077,18.798,89.6,14,Waypoint,
38.537397,-120.3487454,5476.5755712478,99.081368,0,0.81642719148,15600,2018-07-07 23:20:02,17,0,24.312,5476.5755712478,99.081368,0.223694,1.1116962298,0,0,-0.671082,91.2, 1.2, 0.9,0,0,1024,1024,1024,1024,90.7,-89.9,97,4.028,4.065,4.064,4.045,4.054,4.077,18.798,89.6,14,Waypoint,
38.537397,-120.3487454,5477.5598232478,100.06562,0,0.81642719148,15700,2018-07-07 23:20:02,17,0,24.312,5477.5598232478,100.06562,0.223694,1.1116962298,0,0,-0.671082,91.5, 1.2, 0.7,0,0,1024,1024,1024,1024,90.7,-89.9,97,4.028,4.065,4.064,4.045,4.054,4.077,18.798,89.6,14,Waypoint,
38.5373969,-120.3487454,5478.5440752478,101.049872,0,0.79075133764,15800,2018-07-07 23:20:02,17,0,24.312,5478.5440752478,101.049872,0.223694,1.1116962298,0,0,-0.671082,91.9, 1.2, 0.7,0,0,1024,1024,1024,1024,90.7,-89.9,97,4.028,4.065,4.064,4.045,4.054,4.077,18.798,89.6,14,Waypoint,
38.5373969,-120.3487454,5479.5283272478,102.034124,0,0.79075133764,15900,2018-07-07 23:20:02,17,0,24.312,5479.5283272478,102.034124,0.223694,1.1116962298,0,0,-0.671082,92.2, 1.2, 0.8,0,0,1024,1024,1024,1024,90.7,-89.9,97,4.028,4.065,4.064,4.045,4.054,4.077,18.798,89.6,14,Waypoint,
38.5373969,-120.3487454,5480.5125792478,103.018376,0,0.79075133764,16000,2018-07-07 23:20:02,17,0,24.258,5480.5125792478,103.018376,0.223694,1.1116962298,0,0,-0.671082,92.4, 1.4, 0.8,0,0,1024,1024,1024,1024,90.7,-89.9,97,4.02,4.052,4.051,4.04,4.04,4.063,19.345,89.6,14,Waypoint,
38.5373969,-120.3487454,5481.4968312478,104.002628,0,0.79075133764,16100,2018-07-07 23:20:02,17,0,24.258,5481.4968312478,104.002628,0.223694,1.1116962298,0,0,-0.671082,92.6, 1.7, 0.9,0,0,1024,1024,1024,1024,90.7,-89.9,97,4.02,4.052,4.051,4.04,4.04,4.063,19.345,89.6,14,Waypoint,
38.5373969,-120.3487454,5483.4653352478,105.971132,0,0.79075133764,16200,2018-07-07 23:20:02,17,0,24.258,5483.4653352478,105.971132,0.223694,1.1116962298,0,0,-0.671082,92.8, 1.9, 0.7,0,0,1024,1024,1024,1024,90.7,-89.9,97,4.02,4.052,4.051,4.04,4.04,4.063,19.345,89.6,14,Waypoint,
38.5373969,-120.3487454,5484.4495872478,106.955384,0,0.79075133764,16300,2018-07-07 23:20:02,18,0,24.258,5484.4495872478,106.955384,0.223694,1.1116962298,0,0,-0.671082,92.7, 1.8, 0.6,0,0,1024,1024,1024,1024,90.7,-89.9,97,4.02,4.052,4.051,4.04,4.04,4.063,19.345,89.6,14,Waypoint,
38.5373969,-120.3487453,5485.4338392478,107.939636,0,0.81159123332,16410,2018-07-07 23:20:03,18,0,24.258,5485.4338392478,107.939636,0.223694,1.1116962298,0,0,-0.671082,92.5, 1.6, 0.7,0,0,1024,1024,1024,1024,90.7,-89.9,97,4.02,4.052,4.051,4.04,4.04,4.063,19.345,89.6,14,Waypoint,
38.537397,-120.3487453,5486.4180912478,108.923888,0,0.83662732336,16500,2018-07-07 23:20:03,18,0,24.258,5486.4180912478,108.923888,0.223694,1.1116962298,0,0,-0.671082,92.2, 1.6, 1,0,0,1024,1024,1024,1024,90.7,-89.9,97,4.02,4.052,4.051,4.04,4.04,4.063,19.345,89.6,14,Waypoint,
38.537397,-120.3487453,5487.4023432478,109.90814,0,0.83662732336,16700,2018-07-07 23:20:03,18,0,24.258,5487.4023432478,109.90814,0.223694,1.1116962298,0,0,-0.671082,91.9, 1.8, 1.2,0,0,1024,1024,1024,1024,90.7,-89.9,97,4.02,4.052,4.051,4.04,4.04,4.063,19.345,89.6,14,Waypoint,
38.537397,-120.3487453,5488.3865952478,110.892392,0,0.83662732336,16800,2018-07-07 23:20:03,18,0,24.258,5488.3865952478,110.892392,0.223694,1.1116962298,0,0,-0.671082,91.8, 1.9, 1.2,0,0,1024,1024,1024,1024,90.7,-89.9,97,4.02,4.052,4.051,4.04,4.04,4.063,19.345,89.6,14,Waypoint,
38.5373971,-120.3487453,5489.3708472478,111.876644,0,0.8624836234,16900,2018-07-07 23:20:03,18,0,24.258,5489.3708472478,111.876644,0.223694,1.1116962298,0,0,-0.671082,91.8, 2.1, 1.5,0,0,1024,1024,1024,1024,90.7,-89.9,97,4.02,4.052,4.051,4.04,4.04,4.063,19.345,89.6,14,Waypoint,
38.5373972,-120.3487453,5490.3550992478,112.860896,0,0.88908139328,17000,2018-07-07 23:20:03,17,0,24.247,5490.3550992478,112.860896,0.223694,1.1116962298,0,0,-0.671082,91.9, 2.1, 1.9,0,0,1024,1024,1024,1024,90.7,-89.9,97,4.011,4.048,4.053,4.031,4.046,4.063,18.707,89.6,14,Waypoint,
38.5373972,-120.3487453,5491.3393512478,113.845148,0,0.88908139328,17100,2018-07-07 23:20:03,17,0,24.247,5491.3393512478,113.845148,0.223694,1.1116962298,0,0,-0.671082,91.9, 2, 2.2,0,0,1024,1024,1024,1024,90.7,-89.9,97,4.011,4.048,4.053,4.031,4.046,4.063,18.707,89.6,14,Waypoint,
38.5373973,-120.3487453,5492.3236032478,114.8294,0,0.91636157788,17200,2018-07-07 23:20:03,18,0,24.247,5492.3236032478,114.8294,0.223694,1.1116962298,0,0,-0.671082,91.9, 1.9, 2.4,0,0,1024,1024,1024,1024,90.7,-89.9,97,4.011,4.048,4.053,4.031,4.046,4.063,18.707,89.6,14,Waypoint,
38.5373974,-120.3487453,5493.3078552478,115.813652,0,0.94426184124,17300,2018-07-07 23:20:03,18,0,24.247,5493.3078552478,115.813652,0.223694,1.1116962298,0,0,-0.671082,92, 1.9, 2.5,0,0,1024,1024,1024,1024,90.7,-89.9,97,4.011,4.048,4.053,4.031,4.046,4.063,18.707,89.6,14,Waypoint,
38.5373975,-120.3487453,5494.2921072478,116.797904,0,0.97273297076,17400,2018-07-07 23:20:04,18,0,24.247,5494.2921072478,116.797904,0.223694,1.1116962298,0,0,-0.671082,92.1, 1.9, 2.7,0,0,1024,1024,1024,1024,90.7,-89.9,97,4.011,4.048,4.053,4.031,4.046,4.063,18.707,89.6,14,Waypoint,
38.5373976,-120.3487453,5495.2763592478,117.782156,0,1.001722473,17500,2018-07-07 23:20:04,18,0,24.247,5495.2763592478,117.782156,0.223694,1.1116962298,0,0,-0.671082,92.2, 1.9, 2.5,0,0,1024,1024,1024,1024,90.7,-89.9,97,4.011,4.048,4.053,4.031,4.046,4.063,18.707,89.6,14,Waypoint,
38.5373976,-120.3487453,5496.2606112478,118.766408,0,1.001722473,17600,2018-07-07 23:20:04,18,0,24.247,5496.2606112478,118.766408,0.223694,1.1116962298,0,0,-0.671082,92.2, 2.1, 2.5,0,0,1024,1024,1024,1024,90.7,-89.9,97,4.011,4.048,4.053,4.031,4.046,4.063,18.707,89.6,14,Waypoint,
38.5373976,-120.3487453,5497.2448632478,119.75066,0,1.001722473,17700,2018-07-07 23:20:04,18,0,24.247,5497.2448632478,119.75066,0.223694,1.1116962298,0,0,-0.671082,92.2, 2.1, 2.3,0,0,1024,1024,1024,1024,90.7,-89.9,97,4.011,4.048,4.053,4.031,4.046,4.063,18.707,89.6,14,Waypoint,
38.5373976,-120.3487452,5498.2291152478,120.734912,0,1.01905515072,17800,2018-07-07 23:20:04,18,0,24.247,5498.2291152478,120.734912,0.223694,1.1116962298,0,0,-0.671082,92.1, 2.2, 2.3,0,0,1024,1024,1024,1024,90.7,-89.9,97,4.011,4.048,4.053,4.031,4.046,4.063,18.707,89.6,14,Waypoint,
38.5373976,-120.3487452,5499.2133672478,121.719164,0,1.01905515072,17900,2018-07-07 23:20:04,18,0,24.247,5499.2133672478,121.719164,0.223694,1.1116962298,0,0,-0.671082,92.1, 2.2, 2.1,0,0,1024,1024,1024,1024,90.7,-89.9,97,4.011,4.048,4.053,4.031,4.046,4.063,18.707,89.6,14,Waypoint,
38.5373976,-120.3487452,5500.1976192478,122.703416,0,1.01905515072,18000,2018-07-07 23:20:04,18,0,24.32,5500.1976192478,122.703416,0.223694,1.1116962298,0,0,-0.671082,92, 2.2, 2,0,0,1024,1024,1024,1024,90.7,-89.9,97,4.026,4.056,4.06,4.042,4.047,4.064,18.046,89.6,14,Waypoint,
38.5373976,-120.3487452,5501.1818712478,123.687668,0,1.01905515072,18100,2018-07-07 23:20:04,18,0,24.32,5501.1818712478,123.687668,0.223694,1.1116962298,0,0,-0.671082,91.9, 2.3, 2.1,0,0,1024,1024,1024,1024,90.7,-89.9,97,4.026,4.056,4.06,4.042,4.047,4.064,18.046,89.6,14,Waypoint,
38.5373977,-120.3487452,5502.1661232478,124.67192,0,1.0480315296,18200,2018-07-07 23:20:04,18,0,24.32,5502.1661232478,124.67192,0.223694,1.1116962298,0,0,-0.671082,91.7, 2.5, 2.3,0,0,1024,1024,1024,1024,90.7,-89.9,97,4.026,4.056,4.06,4.042,4.047,4.064,18.046,89.6,14,Waypoint,
38.5373977,-120.3487451,5503.1503752478,125.656172,0,1.06537404984,18300,2018-07-07 23:20:04,18,0,24.32,5503.1503752478,125.656172,0.223694,1.1116962298,0,0,-0.671082,91.5, 2.7, 2.4,0,0,1024,1024,1024,1024,90.7,-89.9,97,4.026,4.056,4.06,4.042,4.047,4.064,18.046,89.6,14,Waypoint,
38.5373978,-120.3487451,5504.1346272478,126.640424,0,1.09434386704,18410,2018-07-07 23:20:05,18,0,24.32,5504.1346272478,126.640424,0.223694,1.1116962298,0,0,-0.671082,91.3, 2.6, 2.8,0,0,1024,1024,1024,1024,90.7,-89.9,97,4.026,4.056,4.06,4.042,4.047,4.064,18.046,89.6,14,Waypoint,
38.5373979,-120.348745,5506.1031312478,128.608928,0,1.14065620448,18520,2018-07-07 23:20:05,18,0,24.32,5506.1031312478,128.608928,0.223694,1.14065620448,0,0,-0.671082,91, 2.6, 2.7,0,0,1024,1024,1024,1024,90.7,-89.9,97,4.026,4.056,4.06,4.042,4.047,4.064,18.046,89.6,14,Waypoint,
38.5373979,-120.348745,5507.0873832478,129.59318,0,1.14065620448,18600,2018-07-07 23:20:05,18,0,24.32,5507.0873832478,129.59318,0.223694,1.14065620448,0,0,-0.671082,91, 2.9, 2.8,0,0,1024,1024,1024,1024,90.7,-89.9,97,4.026,4.056,4.06,4.042,4.047,4.064,18.046,89.6,14,Waypoint,
38.5373979,-120.3487449,5508.3997192478,130.905516,0,1.15801512892,18700,2018-07-07 23:20:05,18,0,24.32,5508.3997192478,130.905516,0.223694,1.15801512892,0,0,-0.671082,91.1, 3.2, 2.9,0,0,1024,1024,1024,1024,90.7,-89.9,97,4.026,4.056,4.06,4.042,4.047,4.064,18.046,89.6,14,Waypoint,
38.5373979,-120.3487449,5509.0558872478,131.561684,0,1.15801512892,18900,2018-07-07 23:20:05,18,0,24.32,5509.0558872478,131.561684,0.223694,1.15801512892,0,0,-0.671082,91.4, 3.4, 3,0,0,1024,1024,1024,1024,90.7,-89.9,97,4.026,4.056,4.06,4.042,4.047,4.064,18.046,89.6,14,Waypoint,
38.537398,-120.3487448,5511.0243912478,133.530188,0,1.20433730888,19100,2018-07-07 23:20:05,18,0,24.32,5511.0243912478,133.530188,0.223694,1.20433730888,0,0,-0.671082,92.2, 3.7, 2.8,0,0,1024,1024,1024,1024,90.7,-89.9,97,4.026,4.056,4.06,4.042,4.047,4.064,18.046,89.6,14,Waypoint,
38.537398,-120.3487447,5512.0086432478,134.51444,0,1.22212602336,19200,2018-07-07 23:20:05,18,0,24.32,5512.0086432478,134.51444,0.223694,1.22212602336,0,0,-0.671082,92.5, 3.7, 2.6,0,0,1024,1024,1024,1024,90.7,-89.9,97,4.026,4.056,4.06,4.042,4.047,4.064,18.046,89.6,14,Waypoint,
38.537398,-120.3487447,5512.9928952478,135.498692,0,1.22212602336,19300,2018-07-07 23:20:05,18,0,24.32,5512.9928952478,135.498692,0.223694,1.22212602336,0,0,-0.671082,92.6, 3.5, 2.7,0,0,1024,1024,1024,1024,90.7,-89.9,97,4.026,4.056,4.06,4.042,4.047,4.064,18.046,89.6,14,Waypoint,
38.537398,-120.3487447,5513.9771472478,136.482944,0,1.22212602336,19400,2018-07-07 23:20:06,18,0,24.32,5513.9771472478,136.482944,0.223694,1.22212602336,0,0,-0.671082,92.6, 3.2, 3,0,0,1024,1024,1024,1024,90.7,-90,97,4.026,4.056,4.06,4.042,4.047,4.064,18.046,89.6,14,Waypoint,
38.537398,-120.3487447,5514.6333152478,137.139112,0,1.22212602336,19500,2018-07-07 23:20:06,18,0,24.32,5514.6333152478,137.139112,0.223694,1.22212602336,0,0,-0.671082,92.5, 2.8, 2.9,0,0,1024,1024,1024,1024,90.7,-90,97,4.026,4.056,4.06,4.042,4.047,4.064,18.046,89.6,14,Waypoint,
38.5373981,-120.3487446,5515.6175672478,138.123364,0,1.2684383608,19600,2018-07-07 23:20:06,18,0,24.32,5515.6175672478,138.123364,0.223694,1.2684383608,0,0,-0.671082,92.3, 3.1, 2.8,0,0,1024,1024,1024,1024,90.7,-89.9,97,4.026,4.056,4.06,4.042,4.047,4.064,18.046,89.6,14,Waypoint,
38.5373982,-120.3487446,5516.6018192478,139.107616,0,1.29697838796,19700,2018-07-07 23:20:06,18,0,24.32,5516.6018192478,139.107616,0.223694,1.29697838796,0,0,-0.671082,92.2, 3.5, 3.2,0,0,1024,1024,1024,1024,90.7,-89.9,97,4.026,4.056,4.06,4.042,4.047,4.064,18.046,89.6,14,Waypoint,
38.5373983,-120.3487445,5517.5860712478,140.091868,0,1.34329728708,19800,2018-07-07 23:20:06,18,0,24.32,5517.5860712478,140.091868,0.223694,1.34329728708,0,0,-0.671082,92.1, 4.1, 3.6,0,0,1024,1024,1024,1024,90.7,-89.9,97,4.026,4.056,4.06,4.042,4.047,4.064,18.046,89.6,14,Waypoint,
38.5373983,-120.3487444,5518.5703232478,141.07612,0,1.36106631652,19900,2018-07-07 23:20:06,18,0,24.32,5518.5703232478,141.07612,0.223694,1.36106631652,0,0,-0.671082,92.1, 4.4, 4.4,0,0,1024,1024,1024,1024,90.7,-89.9,97,4.026,4.056,4.06,4.042,4.047,4.064,18.046,89.6,14,Waypoint,
38.5373984,-120.3487443,5519.5545752478,142.060372,0,1.4073819348,20000,2018-07-07 23:20:06,18,0,24.319,5519.5545752478,142.060372,0.223694,1.4073819348,0,0,-0.671082,92.2, 4.2, 4.9,0,0,1024,1024,1024,1024,90.7,-89.9,97,4.029,4.059,4.061,4.049,4.05,4.071,16.939,89.6,14,Waypoint,
38.5373985,-120.3487443,5520.5388272478,143.044624,0,1.43593836616,20100,2018-07-07 23:20:06,18,0,24.319,5520.5388272478,143.044624,0.223694,1.43593836616,0,0,-0.671082,92.3, 4, 4.5,0,0,1024,1024,1024,1024,90.7,-89.9,97,4.029,4.059,4.061,4.049,4.05,4.071,16.939,89.6,14,Waypoint,
38.5373986,-120.3487442,5521.5230792478,144.028876,0,1.48226054612,20200,2018-07-07 23:20:06,18,0,24.319,5521.5230792478,144.028876,0.223694,1.48226054612,0,0,-0.671082,92.4, 3.9, 4.1,0,0,1024,1024,1024,1024,90.7,-90,97,4.029,4.059,4.061,4.049,4.05,4.071,16.939,89.6,14,Waypoint,
38.5373987,-120.3487442,5522.5073312478,145.013128,0,1.51116474652,20300,2018-07-07 23:20:06,18,0,24.319,5522.5073312478,145.013128,0.223694,1.51116474652,0,0,-0.671082,92.3, 3.7, 4,0,0,1024,1024,1024,1024,90.7,-89.9,97,4.029,4.059,4.061,4.049,4.05,4.071,16.939,89.6,14,Waypoint,
38.5373988,-120.348744,5524.8039192478,147.309716,0,1.5749016252,20400,2018-07-07 23:20:07,18,0,24.319,5524.8039192478,147.309716,0.223694,1.5749016252,0,0,-0.671082,91.5, 4.5, 4.4,0,0,1024,1024,1024,1024,90.7,-89.9,97,4.029,4.059,4.061,4.049,4.05,4.071,16.939,89.6,14,Waypoint,
38.5373988,-120.3487439,5525.7881712478,148.293968,0,1.59264440792,20500,2018-07-07 23:20:07,18,0,24.319,5525.7881712478,148.293968,0.223694,1.59264440792,0,0,-0.671082,91.2, 4.9, 4.4,0,0,1024,1024,1024,1024,90.7,-89.9,97,4.029,4.059,4.061,4.049,4.05,4.071,16.939,89.6,14,Waypoint,
38.5373988,-120.3487437,5527.7566752478,150.262472,0,1.62904532772,20800,2018-07-07 23:20:07,18,0,24.319,5527.7566752478,150.262472,0.223694,1.62904532772,0,0,-0.671082,91, 5.5, 3.8,0,0,1024,1024,1024,1024,90.7,-89.9,97,4.029,4.059,4.061,4.049,4.05,4.071,16.939,89.6,14,Waypoint,
38.5373987,-120.3487435,5529.7251792478,152.230976,0,1.63963587924,20900,2018-07-07 23:20:07,18,0,24.319,5529.7251792478,152.230976,0.223694,1.63963587924,0,0,-0.671082,91, 5.6, 3.1,0,0,1024,1024,1024,1024,90.7,-89.9,97,4.029,4.059,4.061,4.049,4.05,4.071,16.939,89.6,14,Waypoint,
38.5373986,-120.3487434,5530.7094312478,153.215228,0.223694,1.6328576638,21000,2018-07-07 23:20:07,18,0,24.285,5530.7094312478,153.215228,0.223694,1.63963587924,0,0,-0.671082,91, 5.6, 2.6,0,0,1024,1024,1024,1024,90.7,-89.9,97,4.026,4.048,4.062,4.054,4.047,4.06,17.389,89.6,14,Waypoint,
38.5373986,-120.3487434,5530.7094312478,153.215228,0.223694,1.6328576638,21100,2018-07-07 23:20:07,18,0,24.285,5530.7094312478,153.215228,0.223694,1.63963587924,0,0,-0.671082,91, 5.6, 2.6,0,0,1024,1024,1024,1024,90.7,-89.9,97,4.026,4.048,4.062,4.054,4.047,4.06,17.389,89.6,14,Waypoint,
38.5373985,-120.3487433,5531.6936832478,154.19948,0.223694,1.62736881848,21200,2018-07-07 23:20:07,18,0,24.285,5531.6936832478,154.19948,0.223694,1.63963587924,0,0,-0.671082,91.1, 5.8, 2.7,0,0,1024,1024,1024,1024,90.7,-89.9,97,4.026,4.048,4.062,4.054,4.047,4.06,17.389,89.6,14,Waypoint,
38.5373983,-120.3487432,5533.6621872478,156.167984,0.223694,1.59880910628,21400,2018-07-07 23:20:08,18,0,24.285,5533.6621872478,156.167984,0.223694,1.63963587924,0,0,-0.671082,91.7, 6, 2.6,0,0,1024,1024,1024,1024,90.7,-89.9,97,4.026,4.048,4.062,4.054,4.047,4.06,17.389,89.6,14,Waypoint,
38.5373983,-120.3487431,5534.3183552478,156.824152,0.223694,1.62031501248,21500,2018-07-07 23:20:08,18,0,24.285,5534.3183552478,156.824152,0.223694,1.63963587924,0,0,-0.671082,91.9, 5.9, 2,0,0,1024,1024,1024,1024,90.7,-89.9,97,4.026,4.048,4.062,4.054,4.047,4.06,17.389,89.6,14,Waypoint,
38.5373982,-120.3487431,5535.3026072478,157.808404,0.223694,1.59672905372,21600,2018-07-07 23:20:08,18,0,24.285,5535.3026072478,157.808404,0.223694,1.63963587924,0,0,-0.671082,92.1, 5.7, 1.7,0,0,1024,1024,1024,1024,90.7,-90,97,4.026,4.048,4.062,4.054,4.047,4.06,17.389,89.6,14,Waypoint,
38.5373981,-120.3487431,5536.2868592478,158.792656,0.223694,1.57363522096,21700,2018-07-07 23:20:08,18,0,24.285,5536.2868592478,158.792656,0.223694,1.63963587924,0,0,-0.671082,92.1, 5.6, 1.5,0,0,1024,1024,1024,1024,90.7,-89.9,97,4.026,4.048,4.062,4.054,4.047,4.06,17.389,89.6,14,Waypoint,
38.537398,-120.3487431,5537.2711112478,159.776908,0,1.55105648008,21800,2018-07-07 23:20:08,18,0,24.285,5537.2711112478,159.776908,0.223694,1.63963587924,0,0,-0.671082,92.1, 5.7, 1.6,0,0,1024,1024,1024,1024,90.7,-90,97,4.026,4.048,4.062,4.054,4.047,4.06,17.389,89.6,14,Waypoint,
38.537398,-120.348743,5538.2553632478,160.76116,0,1.57373364616,21900,2018-07-07 23:20:08,18,0,24.285,5538.2553632478,160.76116,0.223694,1.63963587924,0,0,-0.671082,91.9, 5.6, 1.8,0,0,1024,1024,1024,1024,90.7,-89.9,97,4.026,4.048,4.062,4.054,4.047,4.06,17.389,89.6,14,Waypoint,
38.537398,-120.348743,5539.2396152478,161.745412,0,1.57373364616,22000,2018-07-07 23:20:08,18,0,24.336,5539.2396152478,161.745412,0.223694,1.63963587924,0,0,-0.671082,91.9, 5.7, 1.9,0,0,1024,1024,1024,1024,90.7,-89.9,97,4.036,4.058,4.058,4.049,4.052,4.076,16.091,89.6,14,Waypoint,
38.537398,-120.348743,5540.2238672478,162.729664,0,1.57373364616,22100,2018-07-07 23:20:08,18,0,24.336,5540.2238672478,162.729664,0.223694,1.63963587924,0,0,-0.671082,91.8, 5.8, 2.1,0,0,1024,1024,1024,1024,90.7,-89.9,97,4.036,4.058,4.058,4.049,4.052,4.076,16.091,89.6,14,Waypoint,
38.537398,-120.348743,5541.5362032478,164.042,0,1.57373364616,22200,2018-07-07 23:20:08,18,0,24.336,5541.5362032478,164.042,0.223694,1.63963587924,0,0,-0.671082,91.8, 5.9, 2.5,0,0,1024,1024,1024,1024,90.7,-89.9,97,4.036,4.058,4.058,4.049,4.052,4.076,16.091,89.6,14,Waypoint,
38.537398,-120.348743,5542.5204552478,165.026252,0,1.57373364616,22300,2018-07-07 23:20:08,18,0,24.336,5542.5204552478,165.026252,0.223694,1.63963587924,0,0,-0.671082,91.9, 5.7, 2.9,0,0,1024,1024,1024,1024,90.7,-89.9,97,4.036,4.058,4.058,4.049,4.052,4.076,16.091,89.6,14,Waypoint,
38.5373981,-120.348743,5543.5047072478,166.010504,0,1.59599086472,22400,2018-07-07 23:20:09,18,0,24.336,5543.5047072478,166.010504,0.223694,1.63963587924,0,0,-0.671082,91.9, 5.6, 3.2,0,0,1024,1024,1024,1024,90.7,-89.9,97,4.036,4.058,4.058,4.049,4.052,4.076,16.091,89.6,14,Waypoint,
38.5373981,-120.348743,5544.1608752478,166.666672,0,1.59599086472,22500,2018-07-07 23:20:09,18,0,24.336,5544.1608752478,166.666672,0.223694,1.63963587924,0,0,-0.671082,91.9, 5.5, 3.3,0,0,1024,1024,1024,1024,90.7,-89.9,97,4.036,4.058,4.058,4.049,4.052,4.076,16.091,89.6,14,Waypoint,
38.5373981,-120.3487431,5545.1451272478,167.650924,0,1.57363522096,22600,2018-07-07 23:20:09,18,0,24.336,5545.1451272478,167.650924,0.223694,1.63963587924,0,0,-0.671082,91.9, 5.5, 3.2,0,0,1024,1024,1024,1024,90.7,-89.9,97,4.036,4.058,4.058,4.049,4.052,4.076,16.091,89.6,14,Waypoint,
38.5373981,-120.3487431,5547.1136312478,169.619428,0,1.57363522096,22810,2018-07-07 23:20:09,18,0,24.336,5547.1136312478,169.619428,0.223694,1.63963587924,0,0,-0.671082,92.1, 5.5, 3,0,0,1024,1024,1024,1024,90.7,-90,97,4.036,4.058,4.058,4.049,4.052,4.076,16.091,89.6,14,Waypoint,
38.5373981,-120.3487433,5549.0821352478,171.587932,0,1.5295440122,22900,2018-07-07 23:20:09,18,0,24.336,5549.0821352478,171.587932,0.223694,1.63963587924,0,0,-0.671082,92.3, 5, 3.1,0,0,1024,1024,1024,1024,90.7,-90,97,4.036,4.058,4.058,4.049,4.052,4.076,16.091,89.6,14,Waypoint,
38.5373981,-120.3487434,5550.0663872478,172.572184,0,1.50782157056,23000,2018-07-07 23:20:09,18,0,24.296,5550.0663872478,172.572184,0.223694,1.63963587924,0,0,-0.671082,92.3, 4.7, 2.9,0,0,1024,1024,1024,1024,90.7,-90,97,4.036,4.058,4.058,4.049,4.052,4.076,17.588,89.6,14,Waypoint,
38.537398,-120.3487435,5552.0348912478,174.540688,0,1.46240818328,23200,2018-07-07 23:20:09,18,0,24.296,5552.0348912478,174.540688,0.223694,1.63963587924,0,0,-0.671082,92.1, 4.7, 2.4,0,0,1024,1024,1024,1024,90.7,-90,97,4.036,4.058,4.058,4.049,4.052,4.076,17.588,89.6,14,Waypoint,
38.5373979,-120.3487436,5553.0191432478,175.52494,0,1.41705057028,23400,2018-07-07 23:20:10,18,0,24.296,5553.0191432478,175.52494,0.223694,1.63963587924,0,0,-0.671082,92, 4.7, 2.2,0,0,1024,1024,1024,1024,90.7,-89.9,97,4.036,4.058,4.058,4.049,4.052,4.076,17.588,89.6,14,Waypoint,
38.5373979,-120.3487436,5554.0033952478,176.509192,0,1.41705057028,23500,2018-07-07 23:20:10,18,0,24.296,5554.0033952478,176.509192,0.223694,1.63963587924,0,0,-0.671082,91.8, 4.8, 2.3,0,0,1024,1024,1024,1024,90.7,-90,97,4.036,4.058,4.058,4.049,4.052,4.076,17.588,89.6,14,Waypoint,
38.5373979,-120.3487437,5554.9876472478,177.493444,0,1.39533140948,23600,2018-07-07 23:20:10,18,0,24.296,5554.9876472478,177.493444,0.223694,1.63963587924,0,0,-0.671082,91.7, 4.8, 2.5,0,0,1024,1024,1024,1024,90.7,-90,97,4.036,4.058,4.058,4.049,4.052,4.076,17.588,89.6,14,Waypoint,
38.5373979,-120.3487438,5555.9718992478,178.477696,0,1.37386159252,23700,2018-07-07 23:20:10,18,0,24.296,5555.9718992478,178.477696,0.223694,1.63963587924,0,0,-0.671082,91.7, 4.7, 2.7,0,0,1024,1024,1024,1024,90.7,-90,97,4.036,4.058,4.058,4.049,4.052,4.076,17.588,89.6,14,Waypoint,
38.5373979,-120.3487438,5556.9561512478,179.461948,0,1.37386159252,23800,2018-07-07 23:20:10,18,0,24.296,5556.9561512478,179.461948,0.223694,1.63963587924,0,0,-0.671082,91.7, 4.8, 2.7,0,0,1024,1024,1024,1024,90.7,-89.9,97,4.036,4.058,4.058,4.049,4.052,4.076,17.588,89.6,14,Waypoint,
38.537398,-120.3487439,5557.9404032478,180.4462,0,1.37751972912,23900,2018-07-07 23:20:10,18,0,24.296,5557.9404032478,180.4462,0.223694,1.63963587924,0,0,-0.671082,91.7, 4.9, 2.9,0,0,1024,1024,1024,1024,90.7,-89.9,97,4.036,4.058,4.058,4.049,4.052,4.076,17.588,89.6,14,Waypoint,
38.537398,-120.3487439,5558.9246552478,181.430452,0,1.37751972912,24000,2018-07-07 23:20:10,18,0,24.296,5558.9246552478,181.430452,0.223694,1.63963587924,0,0,-0.671082,91.8, 4.9, 3.2,0,0,1024,1024,1024,1024,90.7,-90,97,4.02,4.053,4.054,4.051,4.045,4.069,17.588,89.6,14,Waypoint,
38.537398,-120.3487439,5559.9089072478,182.414704,0,1.37751972912,24100,2018-07-07 23:20:10,18,0,24.296,5559.9089072478,182.414704,0.223694,1.63963587924,0,0,-0.671082,91.8, 5, 3.3,0,0,1024,1024,1024,1024,90.7,-89.9,97,4.02,4.053,4.054,4.051,4.045,4.069,17.588,89.6,14,Waypoint,
38.5373981,-120.3487439,5560.8931592478,183.398956,0,1.40289374568,24200,2018-07-07 23:20:10,18,0,24.296,5560.8931592478,183.398956,0.223694,1.63963587924,0,0,-0.671082,91.8, 5.1, 3.3,0,0,1024,1024,1024,1024,90.7,-89.9,97,4.02,4.053,4.054,4.051,4.045,4.069,17.588,89.6,14,Waypoint,
38.537398,-120.3487439,5561.8774112478,184.383208,0,1.37751972912,24300,2018-07-07 23:20:10,18,0,24.296,5561.8774112478,184.383208,0.223694,1.63963587924,0,0,-0.671082,91.8, 5.1, 3.3,0,0,1024,1024,1024,1024,90.7,-89.9,97,4.02,4.053,4.054,4.051,4.045,4.069,17.588,89.6,14,Waypoint,
38.537398,-120.348744,5564.1739992478,186.679796,0,1.35696854736,24500,2018-07-07 23:20:11,18,0,24.296,5564.1739992478,186.679796,0.223694,1.63963587924,0,0,-0.671082,91.9, 5.2, 3,0,0,1024,1024,1024,1024,90.7,-90,97,4.02,4.053,4.054,4.051,4.045,4.069,17.588,89.6,14,Waypoint,
38.537398,-120.3487441,5565.1582512478,187.664048,0,1.33670936036,24600,2018-07-07 23:20:11,18,0,24.296,5565.1582512478,187.664048,0.223694,1.63963587924,0,0,-0.671082,91.9, 5, 2.8,0,0,1024,1024,1024,1024,90.7,-90,97,4.02,4.053,4.054,4.051,4.045,4.069,17.588,89.6,14,Waypoint,
38.537398,-120.3487441,5566.1425032478,188.6483,0,1.33670936036,24700,2018-07-07 23:20:11,18,0,24.296,5566.1425032478,188.6483,0.223694,1.63963587924,0,0,-0.671082,91.9, 5, 2.6,0,0,1024,1024,1024,1024,90.7,-90,97,4.02,4.053,4.054,4.051,4.045,4.069,17.588,89.6,14,Waypoint,
38.5373979,-120.3487441,5566.7986712478,189.304468,0,1.31106959576,24800,2018-07-07 23:20:11,18,0,24.296,5566.7986712478,189.304468,0.223694,1.63963587924,0,0,-0.671082,91.9, 4.9, 2.5,0,0,1024,1024,1024,1024,90.7,-90,97,4.02,4.053,4.054,4.051,4.045,4.069,17.588,89.6,14,Waypoint,
38.5373979,-120.3487442,5568.1110072478,190.616804,0,1.29072182608,24900,2018-07-07 23:20:11,18,0,24.296,5568.1110072478,190.616804,0.223694,1.63963587924,0,0,-0.671082,91.9, 4.8, 2.7,0,0,1024,1024,1024,1024,90.7,-90,97,4.02,4.053,4.054,4.051,4.045,4.069,17.588,89.6,14,Waypoint,
38.5373979,-120.3487443,5569.0952592478,191.601056,0,1.27069229788,25000,2018-07-07 23:20:11,18,0,24.232,5569.0952592478,191.601056,0.223694,1.63963587924,0,0,-0.671082,91.8, 4.7, 2.8,0,0,1024,1024,1024,1024,90.7,-90,96,4.017,4.048,4.042,4.033,4.037,4.061,17.877,89.6,14,Waypoint,
38.5373979,-120.3487444,5571.0637632478,193.56956,0,1.25099085368,25200,2018-07-07 23:20:11,18,0,24.232,5571.0637632478,193.56956,0.223694,1.63963587924,0,0,-0.671082,91.7, 4.6, 2.9,0,0,1024,1024,1024,1024,90.7,-90,96,4.017,4.048,4.042,4.033,4.037,4.061,17.877,89.6,14,Waypoint,
38.5373979,-120.3487446,5573.0322672478,195.538064,0,1.21264111492,25300,2018-07-07 23:20:11,18,0,24.232,5573.0322672478,195.538064,0.223694,1.63963587924,0,0,-0.671082,91.7, 4.5, 2.9,0,0,1024,1024,1024,1024,90.7,-90,96,4.017,4.048,4.042,4.033,4.037,4.061,17.877,89.6,14,Waypoint,
38.5373979,-120.3487447,5575.0007712478,197.506568,0,1.1940289096,25600,2018-07-07 23:20:12,18,0,24.232,5575.0007712478,197.506568,0.223694,1.63963587924,0,0,-0.671082,91.8, 4.5, 2.8,0,0,1024,1024,1024,1024,90.7,-89.9,96,4.017,4.048,4.042,4.033,4.037,4.061,17.877,89.6,14,Waypoint,
38.5373979,-120.3487447,5576.9692752478,199.475072,0,1.1940289096,25700,2018-07-07 23:20:12,18,0,24.232,5576.9692752478,199.475072,0.223694,1.63963587924,0,0,-0.671082,91.8, 4.8, 2.9,0,0,1024,1024,1024,1024,90.7,-89.9,96,4.017,4.048,4.042,4.033,4.037,4.061,17.877,89.6,14,Waypoint,
38.5373979,-120.3487447,5576.9692752478,199.475072,0,1.1940289096,25800,2018-07-07 23:20:12,18,0,24.232,5576.9692752478,199.475072,0.223694,1.63963587924,0,0,-0.671082,91.8, 4.8, 2.9,0,0,1024,1024,1024,1024,90.7,-89.9,96,4.017,4.048,4.042,4.033,4.037,4.061,17.877,89.6,14,Waypoint,
38.5373979,-120.3487447,5577.9535272478,200.459324,0,1.1940289096,25900,2018-07-07 23:20:12,18,0,24.232,5577.9535272478,200.459324,0.223694,1.63963587924,0,0,-0.671082,91.8, 4.9, 2.8,0,0,1024,1024,1024,1024,90.7,-89.9,96,4.017,4.048,4.042,4.033,4.037,4.061,17.877,89.6,14,Waypoint,
38.5373978,-120.3487447,5578.9377792478,201.443576,0,1.16639439428,26000,2018-07-07 23:20:12,18,0,24.286,5578.9377792478,201.443576,0.223694,1.63963587924,0,0,-0.671082,91.7, 5, 2.8,0,0,1024,1024,1024,1024,90.7,-89.9,96,4.022,4.057,4.043,4.045,4.041,4.069,17.098,89.6,14,Waypoint,
38.5373978,-120.3487447,5579.9220312478,202.427828,0,1.16639439428,26100,2018-07-07 23:20:12,18,0,24.286,5579.9220312478,202.427828,0.223694,1.63963587924,0,0,-0.671082,91.7, 5.1, 2.8,0,0,1024,1024,1024,1024,90.7,-89.9,96,4.022,4.057,4.043,4.045,4.041,4.069,17.098,89.6,14,Waypoint,
38.5373978,-120.3487447,5580.9062832478,203.41208,0,1.16639439428,26200,2018-07-07 23:20:12,18,0,24.286,5580.9062832478,203.41208,0.223694,1.63963587924,0,0,-0.671082,91.7, 5.1, 2.7,0,0,1024,1024,1024,1024,90.7,-89.9,96,4.022,4.057,4.043,4.045,4.041,4.069,17.098,89.6,14,Waypoint,
38.5373977,-120.3487448,5582.8747872478,205.380584,0,1.12015423532,26400,2018-07-07 23:20:13,18,0,24.286,5582.8747872478,205.380584,0.223694,1.63963587924,0,0,-0.671082,91.8, 5.1, 2.4,0,0,1024,1024,1024,1024,90.7,-89.9,96,4.022,4.057,4.043,4.045,4.041,4.069,17.098,89.6,14,Waypoint,
