Latitude, Longitude, Altitude (m), Time, Sats, Speed (m/s), Range (m), Battery (%), Roll (deg), Pitch (deg), Yaw (deg), Images, HD Signal (%), RC Signal (%), Battery Temp (C), Battery Voltage (mV), Battery Current (mA), Battery Energy (mAh), Battery Capacity (mAh), Battery Discharges, flyState, timestamp (Unix), LastUpdate (ms), radioChannel, Rc_elevator, Rc_aileron, Rc_throttle, Rc_rudder, Rc_gyro, Dronetype, Battery_Cell1 (mV), Battery_Cell2 (mV), Battery_Cell3 (mV), Battery_Cell4 (mV), Battery_Cell5 (mV), Battery_Cell6 (mV), Video, isFlying, elapsedTime (ms), gimbalPitch (deg), gimbalRoll (deg), gimbalYaw (deg), VelocityX (m/s), VelocityY (m/s), VelocityZ (m/s), GroundSmear (cm), App Version, Aircraft Name, Aircraft Firmware, Aircraft Serial Number, Battery Serial Number, Battery Lifetime (%), App_Tip, App_Warning, CurrentFlightStartingIndex, CurrentFlightLastVisitedWaypoint, PreviousFlightEndingWaypointIndex
38.5374318, -120.3487149, 0.000, 15:42:24.201, 10, 0.00, 0.04, 98, 0.200, 1.300, 90.400, 726, 100, 100, 35, 25719, -3839, 5101, 5206, 26, 11, 1531003344.201, 91, 0, 1024, 1024, 1024, 1024, 0, 6, 4251, 4300, 4306, 4305, 4259, 4304, 0, 1, 3001, -89.900, 0.000, 91.600, 0.000, 0.000, -0.100, 0.0, MapPilot_2.8.1_04242018, Dendroctonus I, 1.3.1.00, 041DDC1887, 1058171200162, 94, DJI_0727.jpg, Starting Mission from Lat/Long: 38.53743/-120.34872 Camera: Zenmuse X3 - Overlap: 90/90 - Active Connection: No, 27, 27, 27
38.5374318, -120.3487149, 0.000, 15:42:24.301, 10, 0.00, 0.04, 98, 0.100, 1.200, 90.300, 726, 100, 100, 35, 25719, -3839, 5101, 5206, 26, 11, 1531003344.302, 69, 0, 1024, 1024, 1024, 1024, 0, 6, 4251, 4300, 4306, 4305, 4259, 4304, 0, 1, 3101, -89.900, 0.000, 91.600, 0.000, 0.000, -0.200, 0.0, , , , , , 94, , , 27, 27, 27
38.5374319, -120.3487150, 0.000, 15:42:24.401, 10, 0.00, 0.04, 98, 0.000, 0.600, 90.300, 726, 100, 100, 35, 25719, -3839, 5101, 5206, 26, 11, 1531003344.401, 86, 0, 1024, 1024, 1024, 1024, 0, 6, 4251, 4300, 4306, 4305, 4259, 4304, 0, 1, 3201, -90.000, 0.000, 91.600, 0.000, 0.000, -0.300, 0.0, , , , , , 94, , , 27, 27, 27
38.5374319, -120.3487150, 0.000, 15:42:24.501, 10, 0.00, 0.05, 98, -0.100, 0.100, 90.300, 726, 100, 100, 35, 25719, -3839, 5101, 5206, 26, 11, 1531003344.501, 93, 0, 1024, 1024, 1024, 1024, 0, 6, 4251, 4300, 4306, 4305, 4259, 4304, 0, 1, 3300, -90.000, 0.000, 91.500, 0.000, 0.000, -0.400, 0.0, , , , , , 94, , , 27, 27, 27
38.5374320, -120.3487151, 0.100, 15:42:24.601, 10, 0.00, 0.06, 98, 0.100, 0.000, 90.400, 726, 100, 100, 35, 25719, -3839, 5101, 5206, 26, 11, 1531003344.602, 86, 0, 1024, 1024, 1024, 1024, 0, 6, 4251, 4300, 4306, 4305, 4259, 4304, 0, 1, 3401, -90.000, 0.000, 91.500, 0.000, 0.000, -0.400, 0.0, , , , , , 94, , , 27, 27, 27
38.5374321, -120.3487151, 0.100, 15:42:24.701, 10, 0.00, 0.07, 98, 0.500, -0.100, 90.500, 726, 100, 100, 35, 25719, -3839, 5101, 5206, 26, 11, 1531003344.701, 88, 0, 1024, 1024, 1024, 1024, 0, 6, 4251, 4300, 4306, 4305, 4259, 4304, 0, 1, 3500, -90.000, 0.000, 91.500, 0.000, 0.000, -0.400, 0.0, , , , , , 94, , , 27, 27, 27
38.5374323, -120.3487151, 0.200, 15:42:24.801, 10, 0.00, 0.09, 98, 0.700, -0.100, 90.500, 726, 100, 100, 35, 25719, -3839, 5101, 5206, 26, 11, 1531003344.801, 88, 0, 1024, 1024, 1024, 1024, 0, 6, 4251, 4300, 4306, 4305, 4259, 4304, 0, 1, 3600, -89.900, 0.000, 91.500, 0.000, 0.000, -0.400, 0.0, , , , , , 94, , , 27, 27, 27
38.5374325, -120.3487152, 0.200, 15:42:24.901, 9, 0.10, 0.11, 98, 1.000, -0.100, 90.500, 726, 100, 100, 35, 25426, -5490, 5101, 5206, 26, 11, 1531003344.902, 75, 0, 1024, 1024, 1024, 1024, 0, 6, 4210, 4226, 4236, 4262, 4225, 4202, 0, 1, 3701, -90.000, 0.000, 91.500, 0.100, 0.000, -0.400, 0.0, , , , , , 94, , , 27, 27, 27
38.5374328, -120.3487151, 0.300, 15:42:25.001, 9, 0.10, 0.15, 98, 1.600, 0.000, 90.500, 726, 100, 100, 35, 25426, -5490, 5101, 5206, 26, 11, 1531003345.001, 69, 0, 1024, 1024, 1024, 1024, 0, 6, 4210, 4226, 4236, 4262, 4225, 4202, 0, 1, 3801, -89.900, 0.000, 91.500, 0.100, 0.000, -0.400, 0.0, , , , , , 94, , , 27, 27, 27
38.5374328, -120.3487151, 0.300, 15:42:25.101, 9, 0.10, 0.15, 98, 1.600, 0.000, 90.500, 726, 100, 100, 35, 25426, -5490, 5101, 5206, 26, 11, 1531003345.101, 169, 0, 1024, 1024, 1024, 1024, 0, 6, 4210, 4226, 4236, 4262, 4225, 4202, 0, 1, 3901, -89.900, 0.000, 91.400, 0.100, 0.000, -0.400, 0.0, , , , , , 94, , , 27, 27, 27
38.5374330, -120.3487150, 0.300, 15:42:25.201, 9, 0.10, 0.16, 98, 1.700, 0.000, 90.400, 726, 100, 100, 35, 25426, -5490, 5101, 5206, 26, 11, 1531003345.201, 60, 0, 1024, 1024, 1024, 1024, 0, 6, 4210, 4226, 4236, 4262, 4225, 4202, 0, 1, 4000, -89.900, 0.000, 91.400, 0.100, 0.000, -0.400, 0.0, , , , , , 94, , , 27, 27, 27
38.5374331, -120.3487149, 0.400, 15:42:25.301, 9, 0.10, 0.18, 98, 1.800, 0.300, 90.400, 726, 100, 100, 35, 25426, -5490, 5101, 5206, 26, 11, 1531003345.301, 50, 0, 1024, 1024, 1024, 1024, 0, 6, 4210, 4226, 4236, 4262, 4225, 4202, 0, 1, 4100, -89.900, 0.000, 91.400, 0.100, 0.000, -0.500, 0.0, , , , , , 94, , , 27, 27, 27
38.5374333, -120.3487148, 0.500, 15:42:25.401, 10, 0.00, 0.19, 98, 2.400, 0.600, 90.400, 726, 100, 100, 35, 25426, -5490, 5101, 5206, 26, 11, 1531003345.401, 57, 0, 1024, 1024, 1024, 1024, 0, 6, 4210, 4226, 4236, 4262, 4225, 4202, 0, 1, 4201, -89.900, 0.000, 91.400, 0.000, 0.000, -0.500, 0.0, , , , , , 94, , , 27, 27, 27
38.5374333, -120.3487147, 0.600, 15:42:25.501, 10, 0.00, 0.20, 98, 2.400, 0.700, 90.400, 726, 100, 100, 35, 25426, -5490, 5101, 5206, 26, 11, 1531003345.501, 43, 0, 1024, 1024, 1024, 1024, 0, 6, 4210, 4226, 4236, 4262, 4225, 4202, 0, 1, 4300, -89.900, 0.000, 91.400, 0.000, 0.000, -0.500, 0.0, , , , , , 94, , , 27, 27, 27
38.5374334, -120.3487146, 0.600, 15:42:25.601, 10, 0.00, 0.21, 98, 2.300, 0.800, 90.400, 726, 100, 100, 35, 25426, -5490, 5101, 5206, 26, 11, 1531003345.601, 45, 0, 1024, 1024, 1024, 1024, 0, 6, 4210, 4226, 4236, 4262, 4225, 4202, 0, 1, 4400, -89.900, 0.000, 91.400, 0.000, 0.000, -0.500, 0.0, , , , , , 94, , , 27, 27, 27
38.5374333, -120.3487145, 0.700, 15:42:25.701, 10, 0.00, 0.20, 98, 2.200, 0.800, 90.300, 726, 100, 100, 35, 25426, -5490, 5101, 5206, 26, 11, 1531003345.701, 35, 0, 1024, 1024, 1024, 1024, 0, 6, 4210, 4226, 4236, 4262, 4225, 4202, 0, 1, 4500, -89.900, 0.000, 91.400, 0.000, 0.000, -0.500, 0.0, , , , , , 94, , , 27, 27, 27
38.5374333, -120.3487145, 0.700, 15:42:25.801, 11, 0.00, 0.20, 98, 2.000, 0.900, 90.300, 726, 100, 100, 35, 24879, -16530, 5101, 5206, 26, 11, 1531003345.801, 24, 0, 1024, 1024, 1024, 1024, 0, 6, 4115, 4143, 4141, 4146, 4141, 4139, 0, 1, 4600, -89.900, 0.000, 91.400, 0.000, 0.000, -0.500, 0.0, , , , , , 94, , , 27, 27, 27
38.5374334, -120.3487145, 0.800, 15:42:25.901, 11, 0.00, 0.21, 98, 1.800, 0.900, 90.200, 726, 100, 100, 35, 24879, -16530, 5101, 5206, 26, 11, 1531003345.901, 26, 0, 1024, 1024, 1024, 1024, 0, 6, 4115, 4143, 4141, 4146, 4141, 4139, 0, 1, 4700, -89.900, 0.000, 91.400, 0.000, 0.000, -0.400, 0.0, , , , , , 94, , , 27, 27, 27
38.5374334, -120.3487144, 0.800, 15:42:26.001, 10, 0.00, 0.21, 98, 1.800, 1.000, 90.200, 726, 100, 100, 35, 24879, -16530, 5101, 5206, 26, 11, 1531003346.001, 16, 0, 1024, 1024, 1024, 1024, 0, 6, 4115, 4143, 4141, 4146, 4141, 4139, 0, 1, 4800, -89.900, 0.000, 91.400, 0.000, 0.000, -0.400, 0.0, , , , , , 94, , , 27, 27, 27
38.5374333, -120.3487143, 0.900, 15:42:26.101, 10, 0.00, 0.21, 98, 1.700, 1.000, 90.100, 726, 100, 100, 35, 24879, -16530, 5101, 5206, 26, 14, 1531003346.101, 19, 0, 1024, 1024, 1024, 1024, 0, 6, 4115, 4143, 4141, 4146, 4141, 4139, 0, 1, 4900, -89.900, 0.000, 91.400, 0.000, 0.000, -0.500, 0.0, , , , , , 94, , , 27, 27, 27
38.5374333, -120.3487143, 1.000, 15:42:26.201, 10, 0.00, 0.20, 98, 1.400, 1.000, 90.100, 726, 100, 100, 35, 24879, -16530, 5101, 5206, 26, 14, 1531003346.201, 20, 0, 1024, 1024, 1024, 1024, 0, 6, 4115, 4143, 4141, 4146, 4141, 4139, 0, 1, 5000, -89.900, 0.000, 91.400, 0.000, 0.000, -0.400, 0.0, , , , , , 94, , , 27, 27, 27
38.5374333, -120.3487143, 1.000, 15:42:26.301, 10, 0.00, 0.20, 98, 0.200, 0.700, 90.000, 726, 100, 100, 35, 24879, -16530, 5101, 5206, 26, 14, 1531003346.301, 14, 0, 1024, 1024, 1024, 1024, 0, 6, 4115, 4143, 4141, 4146, 4141, 4139, 0, 1, 5100, -90.000, 0.000, 91.300, 0.000, 0.000, -0.300, 0.0, , , , , , 94, , , 27, 27, 27
38.5374332, -120.3487143, 1.000, 15:42:26.401, 10, 0.00, 0.19, 98, -0.100, 0.600, 90.000, 726, 100, 100, 35, 24879, -16530, 5101, 5206, 26, 14, 1531003346.401, 4, 0, 1024, 1024, 1024, 1024, 0, 6, 4115, 4143, 4141, 4146, 4141, 4139, 0, 1, 5200, -90.000, 0.000, 91.300, 0.000, 0.000, -0.200, 0.0, , , , , , 94, , , 27, 27, 27
38.5374331, -120.3487142, 1.100, 15:42:26.500, 10, 0.00, 0.18, 98, -0.200, 0.600, 90.000, 726, 100, 100, 35, 24879, -16530, 5101, 5206, 26, 14, 1531003346.501, 6, 0, 1024, 1024, 1024, 1024, 0, 6, 4115, 4143, 4141, 4146, 4141, 4139, 0, 1, 5300, -89.900, 0.000, 91.300, 0.000, 0.000, -0.300, 0.0, , , , , , 94, , , 27, 27, 27
38.5374329, -120.3487142, 1.100, 15:42:26.602, 10, 0.00, 0.17, 98, -0.200, 0.700, 90.000, 726, 100, 100, 35, 24879, -16530, 5101, 5206, 26, 14, 1531003346.603, 1, 0, 1024, 1024, 1024, 1024, 0, 6, 4115, 4143, 4141, 4146, 4141, 4139, 0, 1, 5402, -90.000, 0.000, 91.300, 0.000, 0.000, -0.400, 0.0, , , , , , 94, , , 27, 27, 27
38.5374329, -120.3487142, 1.100, 15:42:26.701, 10, 0.00, 0.17, 98, -0.200, 0.700, 90.000, 726, 100, 100, 35, 24879, -16530, 5101, 5206, 26, 14, 1531003346.701, 100, 0, 1024, 1024, 1024, 1024, 0, 6, 4115, 4143, 4141, 4146, 4141, 4139, 0, 1, 5500, -90.000, 0.000, 91.300, 0.000, 0.000, -0.400, 0.0, , , , , , 94, , , 27, 27, 27
38.5374329, -120.3487142, 1.100, 15:42:26.801, 10, 0.00, 0.16, 98, -0.100, 0.600, 90.000, 726, 100, 100, 35, 24879, -16530, 5101, 5206, 26, 14, 1531003346.801, 95, 0, 1024, 1024, 1024, 1024, 0, 6, 4115, 4143, 4141, 4146, 4141, 4139, 0, 1, 5600, -90.000, 0.000, 91.300, 0.000, 0.000, -0.500, 0.0, , , , , , 94, , , 27, 27, 27
38.5374328, -120.3487143, 1.300, 15:42:26.903, 10, 0.00, 0.15, 98, 0.100, 0.500, 90.000, 726, 100, 100, 35, 24768, -16336, 5101, 5206, 26, 14, 1531003346.904, 4, 0, 1024, 1024, 1024, 1024, 0, 6, 4115, 4143, 4141, 4146, 4141, 4139, 0, 1, 5703, -90.000, 0.000, 91.200, 0.000, 0.000, -0.900, 0.0, , , , , , 94, , , 27, 27, 27
38.5374328, -120.3487143, 1.300, 15:42:27.001, 10, 0.00, 0.15, 98, 0.100, 0.500, 90.000, 726, 100, 100, 35, 24768, -16336, 5101, 5206, 26, 14, 1531003347.001, 101, 0, 1024, 1024, 1024, 1024, 0, 6, 4115, 4143, 4141, 4146, 4141, 4139, 0, 1, 5800, -90.000, 0.000, 91.200, 0.000, 0.000, -0.900, 0.0, , , , , , 94, , , 27, 27, 27
38.5374329, -120.3487144, 1.400, 15:42:27.101, 9, 0.00, 0.16, 98, 0.300, 0.400, 90.000, 726, 100, 100, 35, 24768, -16336, 5101, 5206, 26, 14, 1531003347.101, 81, 0, 1024, 1024, 1024, 1024, 0, 6, 4115, 4143, 4141, 4146, 4141, 4139, 0, 1, 5900, -90.000, 0.000, 91.200, 0.000, 0.000, -1.200, 0.0, , , , , , 94, , , 27, 27, 27
38.5374330, -120.3487144, 1.500, 15:42:27.201, 9, 0.00, 0.17, 98, 0.600, 0.300, 90.100, 726, 100, 100, 35, 24768, -16336, 5101, 5206, 26, 14, 1531003347.201, 76, 0, 1024, 1024, 1024, 1024, 0, 6, 4115, 4143, 4141, 4146, 4141, 4139, 0, 1, 6000, -90.000, 0.000, 91.200, 0.000, 0.000, -1.400, 0.0, , , , , , 94, , , 27, 27, 27
38.5374332, -120.3487144, 1.700, 15:42:27.301, 10, 0.00, 0.19, 98, 1.000, 0.300, 90.200, 726, 100, 100, 35, 24768, -16336, 5101, 5206, 26, 14, 1531003347.301, 78, 0, 1024, 1024, 1024, 1024, 0, 6, 4115, 4143, 4141, 4146, 4141, 4139, 0, 1, 6101, -90.000, 0.000, 91.200, 0.000, 0.000, -1.500, 0.0, , , , , , 94, , , 27, 27, 27
38.5374334, -120.3487143, 1.800, 15:42:27.401, 10, 0.00, 0.22, 98, 1.300, 0.400, 90.200, 726, 100, 100, 35, 24768, -16336, 5101, 5206, 26, 14, 1531003347.401, 60, 0, 1024, 1024, 1024, 1024, 0, 6, 4107, 4135, 4129, 4130, 4131, 4126, 0, 1, 6200, -90.000, 0.000, 91.200, 0.000, 0.000, -1.700, 0.0, , , , , , 94, , , 27, 27, 27
38.5374337, -120.3487143, 2.000, 15:42:27.501, 8, 0.10, 0.25, 98, 1.500, 0.400, 90.300, 726, 100, 100, 35, 24768, -16336, 5101, 5206, 26, 14, 1531003347.501, 67, 0, 1024, 1024, 1024, 1024, 0, 6, 4107, 4135, 4129, 4130, 4131, 4126, 0, 1, 6300, -89.900, 0.000, 91.200, 0.100, 0.000, -1.900, 0.0, , , , , , 94, , , 27, 27, 27
38.5374344, -120.3487142, 2.500, 15:42:27.601, 10, 0.10, 0.33, 98, 2.400, 0.600, 90.500, 726, 100, 100, 35, 24768, -16336, 5101, 5206, 26, 14, 1531003347.601, 67, 0, 1024, 1024, 1024, 1024, 0, 6, 4107, 4135, 4129, 4130, 4131, 4126, 0, 1, 6400, -89.900, 0.000, 91.100, 0.100, 0.000, -2.500, 0.0, , , , , , 94, , , 27, 27, 27
38.5374347, -120.3487140, 2.800, 15:42:27.701, 10, 0.10, 0.36, 98, 2.800, 0.700, 90.500, 726, 100, 100, 35, 24768, -16336, 5101, 5206, 26, 14, 1531003347.701, 46, 0, 1024, 1024, 1024, 1024, 0, 6, 4107, 4135, 4129, 4130, 4131, 4126, 0, 1, 6500, -89.900, 0.000, 91.100, 0.100, 0.000, -2.800, 0.0, , , , , , 94, , , 27, 27, 27
38.5374351, -120.3487138, 3.100, 15:42:27.801, 9, 0.10, 0.40, 98, 3.100, 0.900, 90.500, 726, 100, 100, 35, 24768, -16336, 5101, 5206, 26, 14, 1531003347.802, 27, 0, 1024, 1024, 1024, 1024, 0, 6, 4107, 4135, 4129, 4130, 4131, 4126, 0, 1, 6601, -89.900, 0.000, 91.100, 0.100, 0.000, -2.900, 0.0, , , , , , 94, , , 27, 27, 27
38.5374354, -120.3487136, 3.400, 15:42:27.901, 9, 0.10, 0.45, 98, 3.600, 1.100, 90.400, 726, 100, 100, 35, 24768, -16336, 5101, 5206, 26, 14, 1531003347.902, 29, 0, 1024, 1024, 1024, 1024, 0, 6, 4107, 4135, 4129, 4130, 4131, 4126, 0, 1, 6701, -89.900, 0.000, 91.100, 0.100, 0.000, -3.000, 0.0, , , , , , 94, , , 27, 27, 27
38.5374358, -120.3487134, 3.700, 15:42:28.001, 10, 0.10, 0.49, 98, 4.000, 1.400, 90.300, 726, 100, 100, 35, 24768, -16336, 5101, 5206, 26, 14, 1531003348.001, 31, 0, 1024, 1024, 1024, 1024, 0, 6, 4107, 4135, 4129, 4130, 4131, 4126, 0, 1, 6800, -89.900, 0.000, 91.100, 0.100, 0.000, -3.100, 0.0, , , , , , 94, , , 27, 27, 27
38.5374362, -120.3487131, 4.100, 15:42:28.101, 10, 0.10, 0.54, 98, 4.300, 1.700, 90.200, 726, 100, 100, 35, 24768, -16336, 5101, 5206, 26, 14, 1531003348.101, 23, 0, 1024, 1024, 1024, 1024, 0, 6, 4107, 4135, 4129, 4130, 4131, 4126, 0, 1, 6900, -89.900, 0.000, 91.100, 0.100, 0.000, -3.200, 0.0, , , , , , 94, , , 27, 27, 27
38.5374365, -120.3487129, 4.400, 15:42:28.201, 10, 0.00, 0.58, 98, 4.600, 2.000, 90.200, 726, 100, 100, 35, 24768, -16336, 5101, 5206, 26, 14, 1531003348.201, 26, 0, 1024, 1024, 1024, 1024, 0, 6, 4107, 4135, 4129, 4130, 4131, 4126, 0, 1, 7000, -89.900, 0.000, 91.100, 0.000, 0.000, -3.200, 0.0, , , , , , 94, , , 27, 27, 27
38.5374367, -120.3487128, 4.700, 15:42:28.301, 10, 0.00, 0.60, 98, 4.700, 2.100, 90.200, 726, 100, 100, 35, 24529, -19782, 5049, 5206, 26, 14, 1531003348.301, 16, 0, 1024, 1024, 1024, 1024, 0, 6, 4051, 4082, 4066, 4080, 4075, 4063, 0, 1, 7100, -89.900, 0.000, 91.000, 0.000, 0.000, -3.200, 0.0, , , , , , 94, , , 27, 27, 27
38.5374367, -120.3487127, 5.100, 15:42:28.400, 11, 0.00, 0.61, 98, 4.300, 2.100, 90.200, 726, 100, 100, 35, 24529, -19782, 5049, 5206, 26, 14, 1531003348.400, 10, 0, 1024, 1024, 1024, 1024, 0, 6, 4051, 4082, 4066, 4080, 4075, 4063, 0, 1, 7199, -89.900, 0.000, 91.000, 0.000, 0.000, -3.200, 0.0, , , , , , 94, , , 27, 27, 27
38.5374366, -120.3487127, 5.400, 15:42:28.501, 11, 0.00, 0.59, 98, 3.800, 2.000, 90.200, 726, 100, 100, 35, 24529, -19782, 5049, 5206, 26, 14, 1531003348.501, 13, 0, 1024, 1024, 1024, 1024, 0, 6, 4051, 4082, 4066, 4080, 4075, 4063, 0, 1, 7300, -89.900, 0.000, 91.000, 0.000, 0.000, -3.100, 0.0, , , , , , 94, , , 27, 27, 27
38.5374363, -120.3487127, 5.700, 15:42:28.601, 11, 0.10, 0.57, 98, 2.900, 1.800, 90.200, 726, 100, 100, 35, 24529, -19782, 5049, 5206, 26, 14, 1531003348.601, 4, 0, 1024, 1024, 1024, 1024, 0, 6, 4051, 4082, 4066, 4080, 4075, 4063, 0, 1, 7400, -89.900, 0.000, 91.000, -0.100, 0.000, -3.100, 0.0, , , , , , 94, , , 27, 27, 27
38.5374360, -120.3487128, 6.000, 15:42:28.701, 11, 0.20, 0.53, 98, 1.800, 1.400, 90.200, 726, 100, 100, 35, 24529, -19782, 5049, 5206, 26, 14, 1531003348.701, 7, 0, 1024, 1024, 1024, 1024, 0, 6, 4051, 4082, 4066, 4080, 4075, 4063, 0, 1, 7500, -89.900, 0.000, 91.000, -0.200, 0.000, -3.100, 0.0, , , , , , 94, , , 27, 27, 27
38.5374357, -120.3487129, 6.300, 15:42:28.810, 11, 0.20, 0.49, 97, 1.000, 0.900, 90.200, 726, 100, 100, 35, 24529, -19782, 5049, 5206, 26, 14, 1531003348.810, 1, 0, 1024, 1024, 1024, 1024, 0, 6, 4051, 4082, 4066, 4080, 4075, 4063, 0, 1, 7609, -90.000, 0.000, 91.000, -0.200, 0.000, -3.100, 0.0, , , , , , 94, , , 27, 27, 27
38.5374353, -120.3487129, 6.600, 15:42:28.901, 11, 0.20, 0.45, 97, 0.200, 0.800, 90.200, 726, 100, 100, 35, 24529, -19782, 5049, 5206, 26, 14, 1531003348.901, 6, 0, 1024, 1024, 1024, 1024, 0, 6, 4051, 4082, 4066, 4080, 4075, 4063, 0, 1, 7700, -90.000, 0.000, 91.000, -0.200, 0.000, -3.100, 0.0, , , , , , 94, , , 27, 27, 27
38.5374353, -120.3487129, 6.600, 15:42:29.001, 11, 0.20, 0.45, 97, 0.200, 0.800, 90.200, 726, 100, 100, 35, 24529, -19782, 5049, 5206, 26, 14, 1531003349.001, 106, 0, 1024, 1024, 1024, 1024, 0, 6, 4051, 4082, 4066, 4080, 4075, 4063, 0, 1, 7800, -90.000, 0.000, 91.000, -0.200, 0.000, -3.100, 0.0, , , , , , 94, , , 27, 27, 27
38.5374349, -120.3487129, 7.000, 15:42:29.101, 12, 0.20, 0.41, 97, -0.200, 1.000, 90.300, 726, 100, 100, 35, 24529, -19782, 5049, 5206, 26, 14, 1531003349.101, 90, 0, 1024, 1024, 1024, 1024, 0, 6, 4051, 4082, 4066, 4080, 4075, 4063, 0, 1, 7900, -89.900, 0.000, 91.000, -0.200, 0.000, -3.100, 0.0, , , , , , 94, , , 27, 27, 27
38.5374344, -120.3487130, 7.300, 15:42:29.201, 12, 0.20, 0.36, 97, -0.800, 1.200, 90.300, 726, 100, 100, 35, 24529, -19782, 5049, 5206, 26, 14, 1531003349.201, 83, 0, 1024, 1024, 1024, 1024, 0, 6, 4051, 4082, 4066, 4080, 4075, 4063, 0, 1, 8000, -89.900, 0.000, 91.000, -0.200, 0.000, -3.100, 0.0, , , , , , 94, , , 27, 27, 27
38.5374340, -120.3487132, 7.600, 15:42:29.301, 12, 0.20, 0.32, 97, -1.500, 1.100, 90.300, 726, 100, 100, 35, 24529, -19782, 5049, 5206, 26, 14, 1531003349.301, 75, 0, 1024, 1024, 1024, 1024, 0, 6, 4051, 4082, 4066, 4080, 4075, 4063, 0, 1, 8100, -89.900, 0.000, 91.000, -0.200, 0.000, -3.100, 0.0, , , , , , 94, , , 27, 27, 27
38.5374337, -120.3487134, 7.900, 15:42:29.401, 12, 0.20, 0.28, 97, -1.800, 0.800, 90.300, 726, 100, 100, 35, 24217, -23579, 5049, 5206, 26, 14, 1531003349.401, 67, 0, 1024, 1024, 1024, 1024, 0, 6, 4001, 4045, 4044, 4030, 4037, 4057, 0, 1, 8200, -90.000, 0.000, 91.000, -0.200, 0.000, -3.200, 0.0, , , , , , 94, , , 27, 27, 27
38.5374334, -120.3487136, 8.300, 15:42:29.501, 13, 0.10, 0.24, 97, -1.800, 0.500, 90.300, 726, 100, 100, 35, 24217, -23579, 5049, 5206, 26, 14, 1531003349.501, 63, 0, 1024, 1024, 1024, 1024, 0, 6, 4001, 4045, 4044, 4030, 4037, 4057, 0, 1, 8300, -90.000, 0.000, 91.000, -0.100, 0.000, -3.200, 0.0, , , , , , 94, , , 27, 27, 27
38.5374331, -120.3487138, 8.600, 15:42:29.601, 13, 0.10, 0.20, 97, -1.700, 0.200, 90.200, 726, 100, 100, 35, 24217, -23579, 5049, 5206, 26, 14, 1531003349.601, 67, 0, 1024, 1024, 1024, 1024, 0, 6, 4001, 4045, 4044, 4030, 4037, 4057, 0, 1, 8400, -90.000, 0.000, 91.000, -0.100, 0.000, -3.200, 0.0, , , , , , 94, , , 27, 27, 27
38.5374325, -120.3487143, 9.300, 15:42:29.701, 12, 0.10, 0.12, 97, -1.600, -0.700, 89.900, 726, 100, 100, 35, 24217, -23579, 5049, 5206, 26, 14, 1531003349.702, 40, 0, 1024, 1024, 1024, 1024, 0, 6, 4001, 4045, 4044, 4030, 4037, 4057, 0, 1, 8501, -89.900, 0.000, 91.000, -0.100, 0.000, -3.100, 0.0, , , , , , 94, , , 27, 27, 27
38.5374322, -120.3487145, 9.600, 15:42:29.801, 12, 0.00, 0.08, 97, -1.500, -0.900, 89.800, 726, 100, 100, 35, 24217, -23579, 5049, 5206, 26, 14, 1531003349.801, 39, 0, 1024, 1024, 1024, 1024, 0, 6, 4001, 4045, 4044, 4030, 4037, 4057, 0, 1, 8600, -90.000, 0.000, 91.000, 0.000, 0.000, -3.100, 0.0, , , , , , 94, , , 27, 27, 27
38.5374319, -120.3487148, 9.900, 15:42:29.901, 12, 0.00, 0.05, 97, -1.400, -0.800, 89.800, 726, 100, 100, 35, 24217, -23579, 5049, 5206, 26, 14, 1531003349.901, 55, 0, 1024, 1024, 1024, 1024, 0, 6, 4001, 4045, 4044, 4030, 4037, 4057, 0, 1, 8700, -90.000, 0.000, 91.000, 0.000, 0.000, -3.100, 0.0, , , , , , 94, , , 27, 27, 27
38.5374316, -120.3487150, 10.200, 15:42:30.001, 12, 0.00, 0.01, 97, -1.400, -0.700, 89.800, 726, 100, 100, 35, 24217, -23579, 5049, 5206, 26, 14, 1531003350.001, 34, 0, 1024, 1024, 1024, 1024, 0, 6, 4001, 4045, 4044, 4030, 4037, 4057, 0, 1, 8800, -90.000, 0.000, 91.000, 0.000, 0.000, -3.000, 0.0, , , , , , 94, , , 27, 27, 27
38.5374312, -120.3487152, 10.500, 15:42:30.100, 12, 0.00, 0.04, 97, -1.800, -0.600, 89.800, 726, 100, 100, 35, 24217, -23579, 5049, 5206, 26, 14, 1531003350.100, 51, 0, 1024, 1024, 1024, 1024, 0, 6, 4001, 4045, 4044, 4030, 4037, 4057, 0, 1, 8900, -90.000, 0.000, 91.000, 0.000, 0.000, -3.000, 0.0, , , , , , 94, , , 27, 27, 27
38.5374309, -120.3487153, 10.900, 15:42:30.201, 12, 0.00, 0.07, 97, -2.100, -0.400, 89.800, 726, 100, 100, 35, 24217, -23579, 5049, 5206, 26, 14, 1531003350.201, 42, 0, 1024, 1024, 1024, 1024, 0, 6, 4001, 4045, 4044, 4030, 4037, 4057, 0, 1, 9000, -90.000, 0.000, 91.000, 0.000, 0.000, -3.100, 0.0, , , , , , 94, , , 27, 27, 27
38.5374307, -120.3487155, 11.200, 15:42:30.301, 12, 0.00, 0.11, 97, -2.300, -0.400, 89.800, 726, 100, 100, 35, 24383, -18766, 5049, 5206, 26, 14, 1531003350.301, 33, 0, 1024, 1024, 1024, 1024, 0, 6, 4047, 4084, 4065, 4060, 4073, 4066, 0, 1, 9100, -90.000, 0.000, 91.000, 0.000, 0.000, -3.100, 0.0, , , , , , 94, , , 27, 27, 27
38.5374307, -120.3487155, 11.200, 15:42:30.401, 12, 0.00, 0.11, 97, -2.300, -0.400, 89.800, 726, 100, 100, 35, 24383, -18766, 5049, 5206, 26, 14, 1531003350.401, 133, 0, 1024, 1024, 1024, 1024, 0, 6, 4047, 4084, 4065, 4060, 4073, 4066, 0, 1, 9200, -90.000, 0.000, 91.000, 0.000, 0.000, -3.100, 0.0, , , , , , 94, , , 27, 27, 27
38.5374302, -120.3487156, 11.800, 15:42:30.503, 12, 0.00, 0.16, 97, -2.400, -0.400, 90.000, 726, 100, 100, 35, 24383, -18766, 5049, 5206, 26, 14, 1531003350.504, 2, 0, 1024, 1024, 1024, 1024, 0, 6, 4047, 4084, 4065, 4060, 4073, 4066, 0, 1, 9303, -90.000, 0.000, 91.000, 0.000, 0.000, -3.000, 0.0, , , , , , 94, , , 27, 27, 27
38.5374301, -120.3487158, 12.200, 15:42:30.600, 12, 0.00, 0.17, 97, -2.300, -0.400, 90.100, 726, 100, 100, 35, 24383, -18766, 5049, 5206, 26, 14, 1531003350.601, 16, 0, 1024, 1024, 1024, 1024, 0, 6, 4047, 4084, 4065, 4060, 4073, 4066, 0, 1, 9400, -90.000, 0.000, 91.000, 0.000, 0.000, -3.000, 0.0, , , , , , 94, , , 27, 27, 27
38.5374301, -120.3487160, 12.500, 15:42:30.701, 12, 0.00, 0.19, 97, -2.000, -0.600, 90.100, 726, 100, 100, 35, 24383, -18766, 5049, 5206, 26, 14, 1531003350.701, 16, 0, 1024, 1024, 1024, 1024, 0, 6, 4047, 4084, 4065, 4060, 4073, 4066, 0, 1, 9500, -90.000, 0.000, 91.000, 0.000, 0.000, -3.000, 0.0, , , , , , 94, , , 27, 27, 27
38.5374301, -120.3487162, 12.800, 15:42:30.808, 12, 0.10, 0.20, 97, -1.500, -1.000, 90.100, 726, 100, 100, 35, 24383, -18766, 5049, 5206, 26, 14, 1531003350.808, 2, 0, 1024, 1024, 1024, 1024, 0, 6, 4047, 4084, 4065, 4060, 4073, 4066, 0, 1, 9607, -90.000, 0.000, 91.000, 0.100, 0.000, -3.000, 0.0, , , , , , 94, , , 27, 27, 27
38.5374301, -120.3487163, 13.100, 15:42:30.901, 12, 0.10, 0.21, 97, -1.100, -1.300, 90.100, 726, 100, 100, 35, 24383, -18766, 5049, 5206, 26, 14, 1531003350.901, 8, 0, 1024, 1024, 1024, 1024, 0, 6, 4047, 4084, 4065, 4060, 4073, 4066, 0, 1, 9700, -89.900, 0.000, 91.000, 0.100, 0.000, -2.900, 0.0, , , , , , 94, , , 27, 27, 27
38.5374301, -120.3487163, 13.100, 15:42:31.001, 12, 0.10, 0.21, 97, -1.100, -1.300, 90.100, 726, 100, 100, 35, 24383, -18766, 5049, 5206, 26, 14, 1531003351.001, 108, 0, 1024, 1024, 1024, 1024, 0, 6, 4047, 4084, 4065, 4060, 4073, 4066, 0, 1, 9800, -89.900, 0.000, 91.000, 0.100, 0.000, -2.900, 0.0, , , , , , 94, , , 27, 27, 27
38.5374300, -120.3487164, 13.400, 15:42:31.101, 12, 0.10, 0.21, 97, -0.800, -1.300, 90.100, 726, 100, 100, 35, 24383, -18766, 5049, 5206, 26, 14, 1531003351.101, 86, 0, 1024, 1024, 1024, 1024, 0, 6, 4047, 4084, 4065, 4060, 4073, 4066, 0, 1, 9900, -89.900, 0.000, 91.000, 0.100, 0.000, -2.900, 0.0, , , , , , 94, , , 27, 27, 27
38.5374300, -120.3487165, 13.700, 15:42:31.201, 12, 0.10, 0.22, 97, -0.700, -1.000, 90.000, 726, 100, 100, 35, 24383, -18766, 5049, 5206, 26, 14, 1531003351.201, 86, 0, 1024, 1024, 1024, 1024, 0, 6, 4047, 4084, 4065, 4060, 4073, 4066, 0, 1, 10000, -89.900, 0.000, 91.000, 0.100, 0.000, -2.900, 0.0, , , , , , 94, , , 27, 27, 27
38.5374299, -120.3487165, 14.000, 15:42:31.300, 12, 0.10, 0.23, 97, -0.700, -0.900, 89.900, 726, 100, 100, 35, 24383, -18766, 5049, 5206, 26, 14, 1531003351.300, 76, 0, 1024, 1024, 1024, 1024, 0, 6, 4047, 4084, 4065, 4060, 4073, 4066, 0, 1, 10100, -89.900, 0.000, 91.000, 0.100, 0.000, -2.800, 0.0, , , , , , 94, , , 27, 27, 27
38.5374299, -120.3487165, 14.300, 15:42:31.400, 12, 0.10, 0.23, 97, -0.900, -0.700, 89.900, 726, 100, 100, 35, 24421, -18305, 5049, 5206, 26, 14, 1531003351.400, 82, 0, 1024, 1024, 1024, 1024, 0, 6, 4050, 4083, 4071, 4071, 4066, 4068, 0, 1, 10200, -89.900, 0.000, 91.000, 0.100, 0.000, -2.900, 0.0, , , , , , 94, , , 27, 27, 27
38.5374299, -120.3487165, 14.600, 15:42:31.501, 12, 0.10, 0.22, 97, -1.000, -0.300, 89.800, 726, 100, 100, 35, 24421, -18305, 5049, 5206, 26, 14, 1531003351.501, 87, 0, 1024, 1024, 1024, 1024, 0, 6, 4050, 4083, 4071, 4071, 4066, 4068, 0, 1, 10300, -89.900, 0.000, 91.000, 0.100, 0.000, -2.900, 0.0, , , , , , 94, , , 27, 27, 27
38.5374300, -120.3487164, 14.900, 15:42:31.601, 12, 0.14, 0.21, 97, -0.800, -0.100, 89.800, 726, 100, 100, 35, 24421, -18305, 5049, 5206, 26, 14, 1531003351.601, 78, 0, 1024, 1024, 1024, 1024, 0, 6, 4050, 4083, 4071, 4071, 4066, 4068, 0, 1, 10400, -89.900, 0.000, 91.000, 0.100, 0.100, -2.900, 0.0, , , , , , 94, , , 27, 27, 27
38.5374301, -120.3487163, 15.200, 15:42:31.700, 12, 0.22, 0.20, 97, -0.600, 0.100, 89.800, 726, 100, 100, 35, 24421, -18305, 5049, 5206, 26, 14, 1531003351.701, 55, 0, 1024, 1024, 1024, 1024, 0, 6, 4050, 4083, 4071, 4071, 4066, 4068, 0, 1, 10500, -89.900, 0.000, 91.000, 0.200, 0.100, -2.900, 0.0, , , , , , 94, , , 27, 27, 27
38.5374304, -120.3487160, 15.800, 15:42:31.801, 13, 0.22, 0.16, 97, 0.000, 0.500, 89.800, 726, 100, 100, 35, 24421, -18305, 5049, 5206, 26, 14, 1531003351.801, 50, 0, 1024, 1024, 1024, 1024, 0, 6, 4050, 4083, 4071, 4071, 4066, 4068, 0, 1, 10600, -89.900, 0.000, 91.000, 0.200, 0.100, -2.900, 0.0, , , , , , 94, , , 27, 27, 27
38.5374306, -120.3487159, 16.100, 15:42:31.901, 13, 0.22, 0.14, 97, 0.400, 0.700, 89.800, 726, 100, 100, 35, 24421, -18305, 5049, 5206, 26, 14, 1531003351.901, 50, 0, 1024, 1024, 1024, 1024, 0, 6, 4050, 4083, 4071, 4071, 4066, 4068, 0, 1, 10700, -89.900, 0.000, 91.000, 0.200, 0.100, -2.900, 0.0, , , , , , 94, , , 27, 27, 27
38.5374308, -120.3487158, 16.400, 15:42:32.001, 13, 0.22, 0.11, 97, 0.800, 0.700, 89.800, 726, 100, 99, 35, 24421, -18305, 5049, 5206, 26, 14, 1531003352.001, 43, 0, 1024, 1024, 1024, 1024, 0, 6, 4050, 4083, 4071, 4071, 4066, 4068, 0, 1, 10800, -89.900, 0.000, 91.000, 0.200, 0.100, -3.000, 0.0, , , , , , 94, , , 27, 27, 27
38.5374310, -120.3487157, 16.700, 15:42:32.101, 13, 0.22, 0.09, 97, 1.000, 0.700, 89.800, 726, 100, 99, 35, 24421, -18305, 5049, 5206, 26, 14, 1531003352.101, 33, 0, 1024, 1024, 1024, 1024, 0, 6, 4050, 4083, 4071, 4071, 4066, 4068, 0, 1, 10900, -89.900, 0.000, 91.000, 0.200, 0.100, -2.900, 0.0, , , , , , 94, , , 27, 27, 27
38.5374312, -120.3487156, 17.000, 15:42:32.201, 13, 0.22, 0.07, 97, 1.100, 0.800, 89.900, 726, 100, 99, 35, 24421, -18305, 5049, 5206, 26, 14, 1531003352.201, 35, 0, 1024, 1024, 1024, 1024, 0, 6, 4050, 4083, 4071, 4071, 4066, 4068, 0, 1, 11000, -89.900, 0.000, 91.000, 0.200, 0.100, -2.900, 0.0, , , , , , 94, , , 27, 27, 27
38.5374314, -120.3487155, 17.300, 15:42:32.301, 13, 0.22, 0.05, 97, 1.300, 0.800, 90.000, 726, 100, 99, 35, 24421, -18305, 5049, 5206, 26, 14, 1531003352.301, 50, 0, 1024, 1024, 1024, 1024, 0, 6, 4050, 4083, 4071, 4071, 4066, 4068, 0, 1, 11100, -89.900, 0.000, 91.000, 0.200, 0.100, -2.900, 0.0, , , , , , 94, , , 27, 27, 27
38.5374316, -120.3487153, 17.600, 15:42:32.401, 13, 0.22, 0.04, 97, 1.500, 0.800, 90.100, 726, 100, 99, 35, 24367, -18726, 5049, 5206, 26, 14, 1531003352.401, 30, 0, 1024, 1024, 1024, 1024, 0, 6, 4050, 4083, 4071, 4071, 4066, 4068, 0, 1, 11200, -89.900, 0.000, 91.000, 0.200, 0.100, -2.900, 0.0, , , , , , 94, , , 27, 27, 27
38.5374318, -120.3487152, 17.900, 15:42:32.501, 13, 0.22, 0.04, 97, 1.600, 0.800, 90.200, 726, 100, 99, 35, 24367, -18726, 5049, 5206, 26, 14, 1531003352.501, 20, 0, 1024, 1024, 1024, 1024, 0, 6, 4050, 4083, 4071, 4071, 4066, 4068, 0, 1, 11300, -89.900, 0.000, 91.000, 0.200, 0.100, -2.900, 0.0, , , , , , 94, , , 27, 27, 27
38.5374320, -120.3487151, 18.200, 15:42:32.603, 13, 0.22, 0.05, 97, 1.600, 0.900, 90.300, 726, 100, 99, 35, 24367, -18726, 5049, 5206, 26, 14, 1531003352.603, 3, 0, 1024, 1024, 1024, 1024, 0, 6, 4050, 4083, 4071, 4071, 4066, 4068, 0, 1, 11402, -89.900, 0.000, 91.000, 0.200, 0.100, -2.900, 0.0, , , , , , 94, , , 27, 27, 27
38.5374322, -120.3487150, 18.500, 15:42:32.701, 13, 0.20, 0.07, 97, 1.700, 0.900, 90.300, 726, 100, 99, 35, 24367, -18726, 5049, 5206, 26, 14, 1531003352.701, 4, 0, 1024, 1024, 1024, 1024, 0, 6, 4050, 4083, 4071, 4071, 4066, 4068, 0, 1, 11500, -89.900, 0.000, 91.000, 0.200, 0.000, -2.900, 0.0, , , , , , 94, , , 27, 27, 27
38.5374324, -120.3487149, 18.800, 15:42:32.801, 13, 0.20, 0.10, 97, 1.900, 1.000, 90.300, 726, 100, 99, 35, 24367, -18726, 5049, 5206, 26, 14, 1531003352.801, 13, 0, 1024, 1024, 1024, 1024, 0, 6, 4044, 4074, 4066, 4061, 4071, 4057, 0, 1, 11600, -89.900, 0.000, 91.000, 0.200, 0.000, -2.900, 0.0, , , , , , 94, , , 27, 27, 27
38.5374326, -120.3487147, 19.100, 15:42:32.901, 13, 0.10, 0.12, 97, 2.100, 1.000, 90.300, 726, 100, 100, 35, 24367, -18726, 5049, 5206, 26, 14, 1531003352.901, 6, 0, 1024, 1024, 1024, 1024, 0, 6, 4044, 4074, 4066, 4061, 4071, 4057, 0, 1, 11700, -89.900, 0.000, 91.000, 0.100, 0.000, -2.900, 0.0, , , , , , 94, , , 27, 27, 27
38.5374326, -120.3487147, 19.100, 15:42:33.001, 13, 0.10, 0.12, 97, 2.100, 1.000, 90.300, 726, 100, 100, 35, 24367, -18726, 5049, 5206, 26, 14, 1531003353.001, 106, 0, 1024, 1024, 1024, 1024, 0, 6, 4044, 4074, 4066, 4061, 4071, 4057, 0, 1, 11800, -89.900, 0.000, 91.000, 0.100, 0.000, -2.900, 0.0, , , , , , 94, , , 27, 27, 27
38.5374328, -120.3487146, 19.400, 15:42:33.101, 14, 0.10, 0.14, 97, 2.200, 1.000, 90.300, 726, 100, 100, 35, 24367, -18726, 5049, 5206, 26, 14, 1531003353.101, 91, 0, 1024, 1024, 1024, 1024, 0, 6, 4044, 4074, 4066, 4061, 4071, 4057, 0, 1, 11900, -89.900, 0.000, 91.000, 0.100, 0.000, -2.900, 0.0, , , , , , 94, , , 27, 27, 27
38.5374330, -120.3487145, 19.700, 15:42:33.201, 14, 0.10, 0.17, 97, 2.200, 1.000, 90.300, 726, 100, 100, 35, 24367, -18726, 5049, 5206, 26, 14, 1531003353.201, 96, 0, 1024, 1024, 1024, 1024, 0, 6, 4044, 4074, 4066, 4061, 4071, 4057, 0, 1, 12000, -89.900, 0.000, 91.000, 0.100, 0.000, -2.900, 0.0, , , , , , 94, , , 27, 27, 27
38.5374332, -120.3487144, 20.000, 15:42:33.300, 14, 0.10, 0.19, 97, 2.200, 1.000, 90.300, 726, 100, 100, 35, 24367, -18726, 5049, 5206, 26, 14, 1531003353.301, 89, 0, 1024, 1024, 1024, 1024, 0, 6, 4044, 4074, 4066, 4061, 4071, 4057, 0, 1, 12100, -89.900, 0.000, 91.000, 0.100, 0.000, -2.900, 0.0, , , , , , 94, , , 27, 27, 27
38.5374336, -120.3487143, 20.600, 15:42:33.401, 14, 0.10, 0.23, 97, 2.300, 1.000, 90.200, 726, 100, 100, 35, 24367, -18726, 5049, 5206, 26, 14, 1531003353.401, 1, 0, 1024, 1024, 1024, 1024, 0, 6, 4044, 4074, 4066, 4061, 4071, 4057, 0, 1, 12200, -89.900, 0.000, 91.000, 0.100, 0.000, -2.900, 0.0, , , , , , 94, , , 27, 27, 27
38.5374336, -120.3487143, 20.600, 15:42:33.501, 14, 0.10, 0.23, 97, 2.300, 1.000, 90.200, 726, 100, 100, 35, 24367, -18726, 5049, 5206, 26, 14, 1531003353.501, 101, 0, 1024, 1024, 1024, 1024, 0, 6, 4044, 4074, 4066, 4061, 4071, 4057, 0, 1, 12300, -89.900, 0.000, 91.000, 0.100, 0.000, -2.900, 0.0, , , , , , 94, , , 27, 27, 27
38.5374337, -120.3487142, 20.900, 15:42:33.601, 14, 0.10, 0.25, 97, 2.200, 1.200, 90.200, 726, 100, 100, 35, 24367, -18726, 5049, 5206, 26, 14, 1531003353.601, 94, 0, 1024, 1024, 1024, 1024, 0, 6, 4044, 4074, 4066, 4061, 4071, 4057, 0, 1, 12400, -89.900, 0.000, 91.000, 0.100, 0.000, -2.900, 0.0, , , , , , 94, , , 27, 27, 27
38.5374338, -120.3487141, 21.100, 15:42:33.701, 16, 0.00, 0.26, 97, 2.100, 1.200, 90.200, 726, 100, 100, 35, 24367, -18726, 5049, 5206, 26, 14, 1531003353.701, 79, 0, 1024, 1024, 1024, 1024, 0, 6, 4044, 4074, 4066, 4061, 4071, 4057, 0, 1, 12500, -89.900, 0.000, 91.000, 0.000, 0.000, -2.900, 0.0, , , , , , 94, , , 27, 27, 27
38.5374339, -120.3487141, 21.400, 15:42:33.800, 16, 0.00, 0.28, 97, 2.100, 1.200, 90.100, 726, 100, 100, 35, 24367, -18726, 5049, 5206, 26, 14, 1531003353.800, 84, 0, 1024, 1024, 1024, 1024, 0, 6, 4044, 4074, 4066, 4061, 4071, 4057, 0, 1, 12600, -89.900, 0.000, 91.000, 0.000, 0.000, -2.900, 0.0, , , , , , 94, , , 27, 27, 27
38.5374340, -120.3487140, 21.700, 15:42:33.901, 15, 0.00, 0.29, 97, 2.100, 1.100, 90.100, 726, 100, 100, 35, 24365, -18149, 5049, 5206, 26, 14, 1531003353.901, 67, 0, 1024, 1024, 1024, 1024, 0, 6, 4035, 4080, 4058, 4064, 4068, 4058, 0, 1, 12700, -89.900, 0.000, 91.000, 0.000, 0.000, -2.900, 0.0, , , , , , 94, , , 27, 27, 27
38.5374342, -120.3487139, 22.300, 15:42:34.001, 16, 0.00, 0.31, 97, 1.800, 1.100, 90.100, 726, 100, 100, 35, 24365, -18149, 5049, 5206, 26, 14, 1531003354.001, 71, 0, 1024, 1024, 1024, 1024, 0, 6, 4035, 4080, 4058, 4064, 4068, 4058, 0, 1, 12800, -89.900, 0.000, 91.000, 0.000, 0.000, -3.000, 0.0, , , , , , 94, , , 27, 27, 27
38.5374342, -120.3487139, 22.300, 15:42:34.101, 16, 0.00, 0.31, 97, 1.800, 1.100, 90.100, 726, 100, 100, 35, 24365, -18149, 5049, 5206, 26, 14, 1531003354.101, 171, 0, 1024, 1024, 1024, 1024, 0, 6, 4035, 4080, 4058, 4064, 4068, 4058, 0, 1, 12900, -89.900, 0.000, 91.000, 0.000, 0.000, -3.000, 0.0, , , , , , 94, , , 27, 27, 27
38.5374343, -120.3487139, 22.600, 15:42:34.201, 16, 0.00, 0.33, 97, 1.700, 1.300, 90.200, 726, 100, 100, 35, 24365, -18149, 5049, 5206, 26, 14, 1531003354.201, 66, 0, 1024, 1024, 1024, 1024, 0, 6, 4035, 4080, 4058, 4064, 4068, 4058, 0, 1, 13000, -89.900, 0.000, 91.000, 0.000, 0.000, -2.900, 0.0, , , , , , 94, , , 27, 27, 27
38.5374345, -120.3487138, 23.200, 15:42:34.301, 15, 0.00, 0.34, 97, 2.000, 1.200, 90.100, 726, 100, 100, 35, 24365, -18149, 5049, 5206, 26, 14, 1531003354.301, 42, 0, 1024, 1024, 1024, 1024, 0, 6, 4035, 4080, 4058, 4064, 4068, 4058, 0, 1, 13100, -89.900, 0.000, 91.000, 0.000, 0.000, -3.000, 0.0, , , , , , 94, , , 27, 27, 27
38.5374345, -120.3487138, 23.500, 15:42:34.401, 15, 0.00, 0.35, 97, 2.100, 1.200, 90.000, 726, 100, 100, 35, 24365, -18149, 5049, 5206, 26, 14, 1531003354.401, 42, 0, 1024, 1024, 1024, 1024, 0, 6, 4035, 4080, 4058, 4064, 4068, 4058, 0, 1, 13200, -89.900, 0.000, 91.000, 0.000, 0.000, -3.000, 0.0, , , , , , 94, , , 27, 27, 27
38.5374346, -120.3487138, 23.800, 15:42:34.501, 15, 0.00, 0.36, 97, 2.200, 1.000, 89.900, 726, 100, 100, 35, 24365, -18149, 5049, 5206, 26, 14, 1531003354.501, 33, 0, 1024, 1024, 1024, 1024, 0, 6, 4035, 4080, 4058, 4064, 4068, 4058, 0, 1, 13300, -90.000, 0.000, 91.000, 0.000, 0.000, -2.900, 0.0, , , , , , 94, , , 27, 27, 27
38.5374347, -120.3487138, 24.100, 15:42:34.600, 16, 0.00, 0.36, 97, 2.200, 0.900, 89.900, 726, 100, 100, 35, 24365, -18149, 5049, 5206, 26, 14, 1531003354.600, 8, 0, 1024, 1024, 1024, 1024, 0, 6, 4035, 4080, 4058, 4064, 4068, 4058, 0, 1, 13399, -90.000, 0.000, 91.000, 0.000, 0.000, -2.900, 0.0, , , , , , 94, , , 27, 27, 27
38.5374347, -120.3487139, 24.400, 15:42:34.701, 16, 0.00, 0.36, 97, 2.100, 0.700, 89.900, 726, 100, 100, 35, 24365, -18149, 5049, 5206, 26, 14, 1531003354.701, 34, 0, 1024, 1024, 1024, 1024, 0, 6, 4035, 4080, 4058, 4064, 4068, 4058, 0, 1, 13500, -89.900, 0.000, 91.000, 0.000, 0.000, -2.900, 0.0, , , , , , 94, , , 27, 27, 27
38.5374346, -120.3487140, 24.700, 15:42:34.801, 16, 0.00, 0.36, 97, 2.000, 0.600, 89.900, 726, 100, 100, 35, 24365, -18149, 5049, 5206, 26, 14, 1531003354.801, 40, 0, 1024, 1024, 1024, 1024, 0, 6, 4035, 4080, 4058, 4064, 4068, 4058, 0, 1, 13600, -89.900, 0.000, 91.000, 0.000, 0.000, -2.900, 0.0, , , , , , 94, , , 27, 27, 27
38.5374346, -120.3487140, 25.000, 15:42:34.901, 16, 0.00, 0.35, 97, 1.800, 0.500, 89.900, 726, 100, 100, 35, 24320, -18448, 5049, 5206, 26, 14, 1531003354.901, 29, 0, 1024, 1024, 1024, 1024, 0, 6, 4028, 4067, 4062, 4057, 4054, 4057, 0, 1, 13700, -89.900, 0.000, 91.000, 0.000, 0.000, -2.900, 0.0, , , , , , 94, , , 27, 27, 27
38.5374346, -120.3487141, 25.300, 15:42:35.001, 16, 0.00, 0.35, 97, 1.600, 0.500, 90.000, 726, 100, 96, 35, 24320, -18448, 5049, 5206, 26, 14, 1531003355.001, 29, 0, 1024, 1024, 1024, 1024, 0, 6, 4028, 4067, 4062, 4057, 4054, 4057, 0, 1, 13800, -89.900, 0.000, 91.000, 0.000, 0.000, -2.900, 0.0, , , , , , 94, , , 27, 27, 27
38.5374345, -120.3487141, 25.600, 15:42:35.100, 16, 0.00, 0.34, 97, 1.500, 0.400, 90.100, 726, 100, 96, 35, 24320, -18448, 5049, 5206, 26, 14, 1531003355.100, 22, 0, 1024, 1024, 1024, 1024, 0, 6, 4028, 4067, 4062, 4057, 4054, 4057, 0, 1, 13899, -89.900, 0.000, 91.000, 0.000, 0.000, -2.900, 0.0, , , , , , 94, , , 27, 27, 27
38.5374345, -120.3487142, 25.900, 15:42:35.200, 16, 0.00, 0.33, 97, 1.400, 0.400, 90.100, 726, 100, 96, 35, 24320, -18448, 5049, 5206, 26, 14, 1531003355.201, 24, 0, 1024, 1024, 1024, 1024, 0, 6, 4028, 4067, 4062, 4057, 4054, 4057, 0, 1, 14000, -89.900, 0.000, 91.000, 0.000, 0.000, -2.900, 0.0, , , , , , 94, , , 27, 27, 27
38.5374344, -120.3487142, 26.200, 15:42:35.316, 16, 0.00, 0.33, 97, 1.200, 0.500, 90.200, 726, 100, 96, 35, 24320, -18448, 5049, 5206, 26, 14, 1531003355.316, 3, 0, 1024, 1024, 1024, 1024, 0, 6, 4028, 4067, 4062, 4057, 4054, 4057, 0, 1, 14115, -89.900, 0.000, 91.000, 0.000, 0.000, -3.000, 0.0, , , , , , 94, , , 27, 27, 27
38.5374343, -120.3487142, 26.500, 15:42:35.401, 16, 0.00, 0.32, 97, 1.200, 0.600, 90.200, 726, 100, 96, 35, 24320, -18448, 5049, 5206, 26, 14, 1531003355.401, 9, 0, 1024, 1024, 1024, 1024, 0, 6, 4028, 4067, 4062, 4057, 4054, 4057, 0, 1, 14200, -89.900, 0.000, 91.000, 0.000, 0.000, -3.000, 0.0, , , , , , 94, , , 27, 27, 27
38.5374343, -120.3487143, 26.800, 15:42:35.500, 16, 0.00, 0.31, 97, 1.200, 0.700, 90.200, 726, 100, 96, 35, 24320, -18448, 5049, 5206, 26, 14, 1531003355.501, 8, 0, 1024, 1024, 1024, 1024, 0, 6, 4028, 4067, 4062, 4057, 4054, 4057, 0, 1, 14300, -89.900, 0.000, 91.000, 0.000, 0.000, -2.900, 0.0, , , , , , 94, , , 27, 27, 27
38.5374342, -120.3487143, 27.100, 15:42:35.601, 16, 0.00, 0.30, 97, 1.000, 0.700, 90.200, 726, 100, 96, 35, 24320, -18448, 5049, 5206, 26, 14, 1531003355.601, 23, 0, 1024, 1024, 1024, 1024, 0, 6, 4028, 4067, 4062, 4057, 4054, 4057, 0, 1, 14400, -89.900, 0.000, 91.000, 0.000, 0.000, -3.000, 0.0, , , , , , 94, , , 27, 27, 27
38.5374342, -120.3487144, 27.400, 15:42:35.701, 16, 0.00, 0.30, 97, 1.000, 0.600, 90.200, 726, 100, 96, 35, 24320, -18448, 5049, 5206, 26, 14, 1531003355.701, 10, 0, 1024, 1024, 1024, 1024, 0, 6, 4028, 4067, 4062, 4057, 4054, 4057, 0, 1, 14500, -89.900, 0.000, 91.000, 0.000, 0.000, -3.100, 0.0, , , , , , 94, , , 27, 27, 27
38.5374341, -120.3487145, 27.700, 15:42:35.810, 16, 0.00, 0.29, 97, 0.900, 0.500, 90.100, 726, 100, 96, 35, 24320, -18448, 5049, 5206, 26, 14, 1531003355.810, 1, 0, 1024, 1024, 1024, 1024, 0, 6, 4028, 4067, 4062, 4057, 4054, 4057, 0, 1, 14610, -89.900, 0.000, 91.000, 0.000, 0.000, -3.000, 0.0, , , , , , 94, , , 27, 27, 27
38.5374341, -120.3487145, 27.700, 15:42:35.900, 16, 0.00, 0.29, 97, 0.900, 0.500, 90.100, 726, 100, 96, 35, 24288, -18256, 5049, 5206, 26, 14, 1531003355.900, 91, 0, 1024, 1024, 1024, 1024, 0, 6, 4027, 4054, 4059, 4039, 4056, 4049, 0, 1, 14700, -89.900, 0.000, 91.000, 0.000, 0.000, -3.000, 0.0, , , , , , 94, , , 27, 27, 27
38.5374340, -120.3487145, 28.000, 15:42:36.001, 16, 0.00, 0.28, 97, 0.900, 0.400, 90.100, 726, 100, 96, 35, 24288, -18256, 5049, 5206, 26, 14, 1531003356.001, 83, 0, 1024, 1024, 1024, 1024, 0, 6, 4027, 4054, 4059, 4039, 4056, 4049, 0, 1, 14800, -89.900, 0.000, 91.000, 0.000, 0.000, -3.000, 0.0, , , , , , 94, , , 27, 27, 27
38.5374338, -120.3487146, 28.600, 15:42:36.101, 16, 0.00, 0.26, 97, 0.800, 0.200, 90.100, 726, 100, 96, 35, 24288, -18256, 5049, 5206, 26, 14, 1531003356.101, 1, 0, 1024, 1024, 1024, 1024, 0, 6, 4027, 4054, 4059, 4039, 4056, 4049, 0, 1, 14900, -90.000, 0.000, 91.000, 0.000, 0.000, -3.000, 0.0, , , , , , 94, , , 27, 27, 27
38.5374338, -120.3487146, 28.600, 15:42:36.201, 16, 0.00, 0.26, 97, 0.800, 0.200, 90.100, 726, 100, 96, 35, 24288, -18256, 5049, 5206, 26, 14, 1531003356.201, 101, 0, 1024, 1024, 1024, 1024, 0, 6, 4027, 4054, 4059, 4039, 4056, 4049, 0, 1, 15000, -90.000, 0.000, 91.000, 0.000, 0.000, -3.000, 0.0, , , , , , 94, , , 27, 27, 27
38.5374337, -120.3487147, 28.900, 15:42:36.301, 16, 0.00, 0.25, 97, 0.700, 0.100, 90.200, 726, 100, 96, 35, 24288, -18256, 5049, 5206, 26, 14, 1531003356.301, 65, 0, 1024, 1024, 1024, 1024, 0, 6, 4027, 4054, 4059, 4039, 4056, 4049, 0, 1, 15100, -90.000, 0.000, 91.000, 0.000, 0.000, -3.000, 0.0, , , , , , 94, , , 27, 27, 27
38.5374336, -120.3487147, 29.200, 15:42:36.401, 16, 0.00, 0.24, 97, 0.600, 0.100, 90.200, 726, 100, 96, 35, 24288, -18256, 5049, 5206, 26, 14, 1531003356.401, 81, 0, 1024, 1024, 1024, 1024, 0, 6, 4027, 4054, 4059, 4039, 4056, 4049, 0, 1, 15200, -90.000, 0.000, 91.000, 0.000, 0.000, -2.900, 0.0, , , , , , 94, , , 27, 27, 27
38.5374335, -120.3487148, 29.500, 15:42:36.501, 16, 0.00, 0.22, 97, 0.600, 0.100, 90.200, 726, 100, 99, 35, 24288, -18256, 5049, 5206, 26, 14, 1531003356.501, 72, 0, 1024, 1024, 1024, 1024, 0, 6, 4027, 4054, 4059, 4039, 4056, 4049, 0, 1, 15300, -89.900, 0.000, 91.000, 0.000, 0.000, -2.900, 0.0, , , , , , 94, , , 27, 27, 27
38.5374334, -120.3487149, 29.800, 15:42:36.600, 16, 0.00, 0.21, 97, 0.600, 0.200, 90.200, 726, 100, 99, 35, 24288, -18256, 5049, 5206, 26, 14, 1531003356.600, 50, 0, 1024, 1024, 1024, 1024, 0, 6, 4027, 4054, 4059, 4039, 4056, 4049, 0, 1, 15399, -89.900, 0.000, 91.000, 0.000, 0.000, -2.900, 0.0, , , , , , 94, , , 27, 27, 27
38.5374333, -120.3487149, 30.100, 15:42:36.701, 16, 0.00, 0.20, 97, 0.400, 0.300, 90.200, 726, 100, 99, 35, 24288, -18256, 5049, 5206, 26, 14, 1531003356.701, 42, 0, 1024, 1024, 1024, 1024, 0, 6, 4027, 4054, 4059, 4039, 4056, 4049, 0, 1, 15500, -89.900, 0.000, 91.000, 0.000, 0.000, -3.000, 0.0, , , , , , 94, , , 27, 27, 27
38.5374331, -120.3487150, 30.800, 15:42:36.801, 16, 0.00, 0.18, 97, 0.300, 0.400, 90.100, 726, 100, 99, 35, 24288, -18256, 5049, 5206, 26, 14, 1531003356.801, 50, 0, 1024, 1024, 1024, 1024, 0, 6, 4027, 4054, 4059, 4039, 4056, 4049, 0, 1, 15600, -89.900, 0.000, 91.000, 0.000, 0.000, -3.000, 0.0, , , , , , 94, , , 27, 27, 27
38.5374330, -120.3487150, 31.100, 15:42:36.901, 16, 0.00, 0.17, 97, 0.300, 0.400, 90.100, 726, 100, 99, 35, 24292, -18358, 5049, 5206, 26, 14, 1531003356.901, 66, 0, 1024, 1024, 1024, 1024, 0, 6, 4033, 4060, 4057, 4047, 4044, 4056, 0, 1, 15700, -89.900, 0.000, 91.000, 0.000, 0.000, -3.000, 0.0, , , , , , 94, , , 27, 27, 27
38.5374329, -120.3487150, 31.400, 15:42:37.000, 16, 0.00, 0.16, 97, 0.300, 0.400, 90.000, 726, 100, 99, 35, 24292, -18358, 5049, 5206, 26, 14, 1531003357.001, 59, 0, 1024, 1024, 1024, 1024, 0, 6, 4033, 4060, 4057, 4047, 4044, 4056, 0, 1, 15800, -89.900, 0.000, 91.000, 0.000, 0.000, -3.000, 0.0, , , , , , 94, , , 27, 27, 27
38.5374328, -120.3487151, 31.700, 15:42:37.100, 16, 0.00, 0.15, 97, 0.200, 0.400, 90.000, 726, 100, 99, 35, 24292, -18358, 5049, 5206, 26, 14, 1531003357.101, 48, 0, 1024, 1024, 1024, 1024, 0, 6, 4033, 4060, 4057, 4047, 4044, 4056, 0, 1, 15900, -89.900, 0.000, 91.000, 0.000, 0.000, -3.000, 0.0, , , , , , 94, , , 27, 27, 27
38.5374328, -120.3487151, 32.000, 15:42:37.200, 16, 0.00, 0.14, 97, 0.200, 0.400, 90.000, 726, 100, 99, 35, 24292, -18358, 5049, 5206, 26, 14, 1531003357.201, 51, 0, 1024, 1024, 1024, 1024, 0, 6, 4033, 4060, 4057, 4047, 4044, 4056, 0, 1, 16000, -89.900, 0.000, 91.000, 0.000, 0.000, -2.900, 0.0, , , , , , 94, , , 27, 27, 27
38.5374327, -120.3487151, 32.300, 15:42:37.301, 16, 0.00, 0.13, 97, 0.300, 0.200, 90.000, 726, 100, 99, 35, 24292, -18358, 5049, 5206, 26, 14, 1531003357.301, 54, 0, 1024, 1024, 1024, 1024, 0, 6, 4033, 4060, 4057, 4047, 4044, 4056, 0, 1, 16100, -89.900, 0.000, 91.000, 0.000, 0.000, -2.900, 0.0, , , , , , 94, , , 27, 27, 27
38.5374326, -120.3487152, 32.600, 15:42:37.400, 16, 0.00, 0.12, 97, 0.200, 0.200, 90.000, 726, 100, 99, 35, 24292, -18358, 5049, 5206, 26, 14, 1531003357.400, 23, 0, 1024, 1024, 1024, 1024, 0, 6, 4033, 4060, 4057, 4047, 4044, 4056, 0, 1, 16200, -89.900, 0.000, 91.000, 0.000, 0.000, -2.900, 0.0, , , , , , 94, , , 27, 27, 27
38.5374325, -120.3487152, 32.900, 15:42:37.500, 16, 0.00, 0.11, 97, 0.200, 0.200, 90.000, 726, 100, 98, 35, 24292, -18358, 5049, 5206, 26, 14, 1531003357.501, 38, 0, 1024, 1024, 1024, 1024, 0, 6, 4033, 4060, 4057, 4047, 4044, 4056, 0, 1, 16300, -89.900, 0.000, 91.000, 0.000, 0.000, -2.900, 0.0, , , , , , 94, , , 27, 27, 27
38.5374324, -120.3487152, 33.200, 15:42:37.600, 16, 0.00, 0.11, 97, 0.100, 0.100, 90.000, 726, 100, 98, 35, 24292, -18358, 5049, 5206, 26, 14, 1531003357.601, 33, 0, 1024, 1024, 1024, 1024, 0, 6, 4033, 4060, 4057, 4047, 4044, 4056, 0, 1, 16400, -89.900, 0.000, 91.000, 0.000, 0.000, -2.900, 0.0, , , , , , 94, , , 27, 27, 27
38.5374324, -120.3487153, 33.500, 15:42:37.701, 16, 0.00, 0.10, 97, 0.100, 0.200, 90.000, 726, 100, 98, 35, 24292, -18358, 5049, 5206, 26, 14, 1531003357.701, 26, 0, 1024, 1024, 1024, 1024, 0, 6, 4033, 4060, 4057, 4047, 4044, 4056, 0, 1, 16500, -89.900, 0.000, 91.000, 0.000, 0.000, -2.900, 0.0, , , , , , 94, , , 27, 27, 27
38.5374323, -120.3487153, 33.800, 15:42:37.800, 16, 0.00, 0.09, 97, 0.000, 0.200, 90.100, 726, 100, 98, 35, 24292, -18358, 5049, 5206, 26, 14, 1531003357.801, 20, 0, 1024, 1024, 1024, 1024, 0, 6, 4033, 4060, 4057, 4047, 4044, 4056, 0, 1, 16600, -89.900, 0.000, 91.000, 0.000, 0.000, -2.900, 0.0, , , , , , 94, , , 27, 27, 27
38.5374323, -120.3487153, 33.800, 15:42:37.901, 16, 0.00, 0.09, 97, 0.000, 0.200, 90.100, 726, 100, 98, 35, 24292, -18358, 5049, 5206, 26, 14, 1531003357.901, 121, 0, 1024, 1024, 1024, 1024, 0, 6, 4033, 4060, 4057, 4047, 4044, 4056, 0, 1, 16700, -89.900, 0.000, 91.000, 0.000, 0.000, -2.900, 0.0, , , , , , 94, , , 27, 27, 27
38.5374322, -120.3487153, 34.400, 15:42:38.000, 16, 0.00, 0.09, 97, 0.100, 0.300, 90.100, 726, 100, 98, 35, 24298, -17850, 5049, 5206, 26, 14, 1531003358.000, 9, 0, 1024, 1024, 1024, 1024, 0, 6, 4033, 4060, 4057, 4047, 4044, 4056, 0, 1, 16800, -89.900, 0.000, 91.000, 0.000, 0.000, -2.900, 0.0, , , , , , 94, , , 27, 27, 27
38.5374322, -120.3487153, 34.700, 15:42:38.100, 16, 0.00, 0.09, 97, 0.300, 0.300, 90.100, 726, 100, 98, 35, 24298, -17850, 5049, 5206, 26, 14, 1531003358.101, 9, 0, 1024, 1024, 1024, 1024, 0, 6, 4033, 4060, 4057, 4047, 4044, 4056, 0, 1, 16900, -89.900, 0.000, 91.000, 0.000, 0.000, -2.900, 0.0, , , , , , 94, , , 27, 27, 27
38.5374322, -120.3487153, 34.700, 15:42:38.200, 16, 0.00, 0.09, 97, 0.300, 0.300, 90.100, 726, 100, 98, 35, 24298, -17850, 5049, 5206, 26, 14, 1531003358.200, 108, 0, 1024, 1024, 1024, 1024, 0, 6, 4033, 4060, 4057, 4047, 4044, 4056, 0, 1, 16999, -89.900, 0.000, 91.000, 0.000, 0.000, -2.900, 0.0, , , , , , 94, , , 27, 27, 27
38.5374322, -120.3487153, 35.000, 15:42:38.300, 16, 0.00, 0.09, 97, 0.400, 0.300, 90.100, 726, 100, 98, 35, 24298, -17850, 5049, 5206, 26, 14, 1531003358.301, 97, 0, 1024, 1024, 1024, 1024, 0, 6, 4033, 4060, 4057, 4047, 4044, 4056, 0, 1, 17100, -89.900, 0.000, 91.000, 0.000, 0.000, -2.900, 0.0, , , , , , 94, , , 27, 27, 27
38.5374322, -120.3487153, 35.300, 15:42:38.400, 16, 0.00, 0.08, 97, 0.400, 0.400, 90.100, 726, 100, 98, 35, 24298, -17850, 4997, 5206, 26, 14, 1531003358.401, 76, 0, 1024, 1024, 1024, 1024, 0, 6, 4022, 4065, 4061, 4050, 4056, 4046, 0, 1, 17200, -89.900, 0.000, 91.000, 0.000, 0.000, -2.800, 0.0, , , , , , 94, , , 27, 27, 27
38.5374322, -120.3487152, 35.500, 15:42:38.500, 16, 0.00, 0.08, 97, 0.400, 0.600, 90.000, 726, 100, 98, 35, 24298, -17850, 4997, 5206, 26, 14, 1531003358.501, 93, 0, 1024, 1024, 1024, 1024, 0, 6, 4022, 4065, 4061, 4050, 4056, 4046, 0, 1, 17300, -89.900, 0.000, 91.000, 0.000, 0.000, -2.900, 0.0, , , , , , 94, , , 27, 27, 27
38.5374322, -120.3487152, 35.500, 15:42:38.600, 16, 0.00, 0.08, 97, 0.400, 0.600, 90.000, 726, 100, 98, 35, 24298, -17850, 4997, 5206, 26, 14, 1531003358.601, 193, 0, 1024, 1024, 1024, 1024, 0, 6, 4022, 4065, 4061, 4050, 4056, 4046, 0, 1, 17400, -89.900, 0.000, 91.000, 0.000, 0.000, -2.900, 0.0, , , , , , 94, , , 27, 27, 27
38.5374322, -120.3487152, 36.100, 15:42:38.700, 16, 0.00, 0.08, 97, 0.500, 0.800, 90.000, 726, 100, 98, 35, 24298, -17850, 4997, 5206, 26, 14, 1531003358.701, 63, 0, 1024, 1024, 1024, 1024, 0, 6, 4022, 4065, 4061, 4050, 4056, 4046, 0, 1, 17500, -89.900, 0.000, 91.000, 0.000, 0.000, -3.000, 0.0, , , , , , 94, , , 27, 27, 27
38.5374322, -120.3487152, 36.100, 15:42:38.800, 16, 0.00, 0.08, 97, 0.500, 0.800, 90.000, 726, 100, 98, 35, 24298, -17850, 4997, 5206, 26, 14, 1531003358.801, 163, 0, 1024, 1024, 1024, 1024, 0, 6, 4022, 4065, 4061, 4050, 4056, 4046, 0, 1, 17600, -89.900, 0.000, 91.000, 0.000, 0.000, -3.000, 0.0, , , , , , 94, , , 27, 27, 27
38.5374322, -120.3487151, 36.700, 15:42:38.900, 16, 0.00, 0.08, 97, 0.800, 0.800, 89.900, 726, 100, 98, 35, 24298, -17850, 4997, 5206, 26, 14, 1531003358.901, 71, 0, 1024, 1024, 1024, 1024, 0, 6, 4022, 4065, 4061, 4050, 4056, 4046, 0, 1, 17700, -89.900, 0.000, 91.000, 0.000, 0.000, -3.000, 0.0, , , , , , 94, , , 27, 27, 27
38.5374323, -120.3487150, 37.300, 15:42:39.000, 16, 0.00, 0.09, 97, 0.900, 1.000, 89.900, 726, 100, 96, 35, 24298, -17850, 4997, 5206, 26, 14, 1531003359.000, 53, 0, 1024, 1024, 1024, 1024, 0, 6, 4022, 4065, 4061, 4050, 4056, 4046, 0, 1, 17799, -89.900, 0.000, 91.000, 0.000, 0.000, -2.900, 0.0, , , , , , 94, , , 27, 27, 27
38.5374323, -120.3487150, 37.300, 15:42:39.100, 16, 0.00, 0.09, 97, 0.900, 1.000, 89.900, 726, 100, 96, 35, 24298, -17850, 4997, 5206, 26, 14, 1531003359.100, 153, 0, 1024, 1024, 1024, 1024, 0, 6, 4022, 4065, 4061, 4050, 4056, 4046, 0, 1, 17899, -89.900, 0.000, 91.000, 0.000, 0.000, -2.900, 0.0, , , , , , 94, , , 27, 27, 27
38.5374324, -120.3487150, 37.900, 15:42:39.200, 16, 0.00, 0.09, 97, 0.900, 1.100, 89.800, 726, 100, 96, 35, 24298, -17850, 4997, 5206, 26, 14, 1531003359.201, 50, 0, 1024, 1024, 1024, 1024, 0, 6, 4022, 4065, 4061, 4050, 4056, 4046, 0, 1, 18000, -89.900, 0.000, 91.000, 0.000, 0.000, -3.000, 0.0, , , , , , 94, , , 27, 27, 27
38.5374324, -120.3487149, 38.200, 15:42:39.300, 16, 0.00, 0.10, 97, 0.900, 1.100, 89.900, 726, 100, 96, 35, 24298, -17850, 4997, 5206, 26, 14, 1531003359.301, 54, 0, 1024, 1024, 1024, 1024, 0, 6, 4022, 4065, 4061, 4050, 4056, 4046, 0, 1, 18100, -89.900, 0.000, 91.000, 0.000, 0.000, -3.000, 0.0, , , , , , 94, , , 27, 27, 27
38.5374324, -120.3487149, 38.500, 15:42:39.400, 16, 0.00, 0.10, 97, 0.700, 1.100, 89.900, 726, 100, 96, 35, 24271, -18049, 4997, 5206, 26, 14, 1531003359.401, 48, 0, 1024, 1024, 1024, 1024, 0, 6, 4025, 4066, 4052, 4046, 4044, 4043, 0, 1, 18200, -89.900, 0.000, 91.000, 0.000, 0.000, -2.900, 0.0, , , , , , 94, , , 27, 27, 27
38.5374324, -120.3487149, 38.800, 15:42:39.500, 16, 0.00, 0.10, 97, 0.700, 1.000, 90.000, 726, 100, 97, 35, 24271, -18049, 4997, 5206, 26, 14, 1531003359.501, 51, 0, 1024, 1024, 1024, 1024, 0, 6, 4025, 4066, 4052, 4046, 4044, 4043, 0, 1, 18300, -89.900, 0.000, 91.000, 0.000, 0.000, -3.000, 0.0, , , , , , 94, , , 27, 27, 27
38.5374324, -120.3487149, 39.100, 15:42:39.600, 17, 0.00, 0.10, 97, 0.700, 0.900, 90.000, 726, 100, 97, 35, 24271, -18049, 4997, 5206, 26, 14, 1531003359.601, 43, 0, 1024, 1024, 1024, 1024, 0, 6, 4025, 4066, 4052, 4046, 4044, 4043, 0, 1, 18400, -89.900, 0.000, 91.000, 0.000, 0.000, -2.900, 0.0, , , , , , 94, , , 27, 27, 27
38.5374324, -120.3487149, 39.400, 15:42:39.700, 17, 0.00, 0.10, 97, 0.700, 0.800, 90.100, 726, 100, 97, 35, 24271, -18049, 4997, 5206, 26, 14, 1531003359.701, 46, 0, 1024, 1024, 1024, 1024, 0, 6, 4025, 4066, 4052, 4046, 4044, 4043, 0, 1, 18500, -89.900, 0.000, 91.000, 0.000, 0.000, -2.900, 0.0, , , , , , 94, , , 27, 27, 27
38.5374324, -120.3487149, 39.700, 15:42:39.800, 16, 0.00, 0.10, 97, 0.700, 0.800, 90.100, 726, 100, 97, 35, 24271, -18049, 4997, 5206, 26, 14, 1531003359.800, 35, 0, 1024, 1024, 1024, 1024, 0, 6, 4025, 4066, 4052, 4046, 4044, 4043, 0, 1, 18599, -89.900, 0.000, 91.000, 0.000, 0.000, -3.000, 0.0, , , , , , 94, , , 27, 27, 27
38.5374324, -120.3487149, 40.000, 15:42:39.900, 16, 0.00, 0.10, 97, 0.800, 0.700, 90.100, 726, 100, 98, 35, 24271, -18049, 4997, 5206, 26, 14, 1531003359.901, 36, 0, 1024, 1024, 1024, 1024, 0, 6, 4025, 4066, 4052, 4046, 4044, 4043, 0, 1, 18700, -90.000, 0.000, 91.000, 0.000, 0.000, -2.900, 0.0, , , , , , 94, , , 27, 27, 27
38.5374325, -120.3487149, 40.300, 15:42:40.019, 16, 0.00, 0.10, 97, 1.000, 0.600, 90.100, 726, 100, 98, 35, 24271, -18049, 4997, 5206, 26, 14, 1531003360.020, 3, 0, 1024, 1024, 1024, 1024, 0, 6, 4025, 4066, 4052, 4046, 4044, 4043, 0, 1, 18819, -90.000, 0.000, 91.000, 0.000, 0.000, -2.900, 0.0, , , , , , 94, , , 27, 27, 27
38.5374325, -120.3487150, 40.600, 15:42:40.100, 16, 0.00, 0.11, 97, 1.100, 0.500, 90.100, 726, 100, 98, 35, 24271, -18049, 4997, 5206, 26, 14, 1531003360.101, 25, 0, 1024, 1024, 1024, 1024, 0, 6, 4025, 4066, 4052, 4046, 4044, 4043, 0, 1, 18900, -90.000, 0.000, 91.000, 0.000, 0.000, -3.000, 0.0, , , , , , 94, , , 27, 27, 27
38.5374325, -120.3487150, 40.900, 15:42:40.200, 17, 0.00, 0.11, 97, 1.200, 0.500, 90.100, 726, 100, 98, 35, 24271, -18049, 4997, 5206, 26, 14, 1531003360.201, 27, 0, 1024, 1024, 1024, 1024, 0, 6, 4025, 4066, 4052, 4046, 4044, 4043, 0, 1, 19000, -90.000, 0.000, 91.000, 0.000, 0.000, -3.000, 0.0, , , , , , 94, , , 27, 27, 27
38.5374325, -120.3487150, 41.200, 15:42:40.300, 17, 0.00, 0.11, 96, 1.100, 0.500, 90.100, 726, 100, 98, 36, 24267, -17923, 4997, 5206, 26, 14, 1531003360.301, 16, 0, 1024, 1024, 1024, 1024, 0, 6, 4020, 4064, 4042, 4045, 4043, 4048, 0, 1, 19100, -89.900, 0.000, 91.000, 0.000, 0.000, -3.000, 0.0, , , , , , 94, , , 27, 27, 27
38.5374325, -120.3487150, 41.500, 15:42:40.400, 17, 0.00, 0.11, 96, 1.000, 0.600, 90.000, 726, 100, 98, 36, 24267, -17923, 4997, 5206, 26, 14, 1531003360.401, 8, 0, 1024, 1024, 1024, 1024, 0, 6, 4020, 4064, 4042, 4045, 4043, 4048, 0, 1, 19200, -89.900, 0.000, 91.000, 0.000, 0.000, -2.900, 0.0, , , , , , 94, , , 27, 27, 27
38.5374325, -120.3487150, 41.800, 15:42:40.500, 17, 0.00, 0.11, 96, 0.800, 0.700, 90.000, 726, 100, 98, 36, 24267, -17923, 4997, 5206, 26, 14, 1531003360.501, 22, 0, 1024, 1024, 1024, 1024, 0, 6, 4020, 4064, 4042, 4045, 4043, 4048, 0, 1, 19300, -89.900, 0.000, 91.000, 0.000, 0.000, -2.900, 0.0, , , , , , 94, , , 27, 27, 27
38.5374325, -120.3487150, 42.100, 15:42:40.600, 17, 0.00, 0.11, 96, 0.800, 0.600, 90.000, 726, 100, 98, 36, 24267, -17923, 4997, 5206, 26, 14, 1531003360.601, 16, 0, 1024, 1024, 1024, 1024, 0, 6, 4020, 4064, 4042, 4045, 4043, 4048, 0, 1, 19400, -89.900, 0.000, 91.000, 0.000, 0.000, -2.900, 0.0, , , , , , 94, , , 27, 27, 27
38.5374325, -120.3487150, 42.100, 15:42:40.700, 17, 0.00, 0.11, 96, 0.800, 0.600, 90.000, 726, 100, 98, 36, 24267, -17923, 4997, 5206, 26, 14, 1531003360.701, 116, 0, 1024, 1024, 1024, 1024, 0, 6, 4020, 4064, 4042, 4045, 4043, 4048, 0, 1, 19500, -89.900, 0.000, 91.000, 0.000, 0.000, -2.900, 0.0, , , , , , 94, , , 27, 27, 27
38.5374325, -120.3487150, 42.400, 15:42:40.800, 17, 0.00, 0.11, 96, 0.800, 0.700, 90.000, 726, 100, 98, 36, 24267, -17923, 4997, 5206, 26, 14, 1531003360.801, 94, 0, 1024, 1024, 1024, 1024, 0, 6, 4020, 4064, 4042, 4045, 4043, 4048, 0, 1, 19600, -89.900, 0.000, 91.000, 0.000, 0.000, -2.900, 0.0, , , , , , 94, , , 27, 27, 27
38.5374325, -120.3487150, 43.000, 15:42:40.900, 17, 0.00, 0.11, 96, 1.000, 0.700, 90.100, 726, 100, 95, 36, 24267, -17923, 4997, 5206, 26, 14, 1531003360.901, 3, 0, 1024, 1024, 1024, 1024, 0, 6, 4020, 4064, 4042, 4045, 4043, 4048, 0, 1, 19700, -89.900, 0.000, 91.000, 0.000, 0.000, -3.000, 0.0, , , , , , 94, , , 27, 27, 27
38.5374325, -120.3487150, 43.300, 15:42:41.004, 17, 0.00, 0.11, 96, 1.100, 0.700, 90.100, 726, 100, 95, 36, 24267, -17923, 4997, 5206, 26, 14, 1531003361.004, 2, 0, 1024, 1024, 1024, 1024, 0, 6, 4020, 4064, 4042, 4045, 4043, 4048, 0, 1, 19803, -89.900, 0.000, 91.000, 0.000, 0.000, -3.000, 0.0, , , , , , 94, , , 27, 27, 27
38.5374325, -120.3487150, 43.600, 15:42:41.100, 17, 0.00, 0.11, 96, 1.000, 0.600, 90.100, 726, 100, 95, 36, 24267, -17923, 4997, 5206, 26, 14, 1531003361.100, 4, 0, 1024, 1024, 1024, 1024, 0, 6, 4020, 4064, 4042, 4045, 4043, 4048, 0, 1, 19900, -89.900, 0.000, 91.000, 0.000, 0.000, -3.000, 0.0, , , , , , 94, , , 27, 27, 27
38.5374325, -120.3487150, 43.900, 15:42:41.200, 17, 0.00, 0.11, 96, 1.000, 0.600, 90.200, 726, 100, 95, 36, 24267, -17923, 4997, 5206, 26, 14, 1531003361.200, 5, 0, 1024, 1024, 1024, 1024, 0, 6, 4020, 4064, 4042, 4045, 4043, 4048, 0, 1, 19999, -89.900, 0.000, 91.000, 0.000, 0.000, -3.000, 0.0, , , , , , 94, , , 27, 27, 27
38.5374325, -120.3487150, 43.900, 15:42:41.300, 17, 0.00, 0.11, 96, 1.000, 0.600, 90.200, 726, 100, 95, 36, 24267, -17923, 4997, 5206, 26, 14, 1531003361.300, 105, 0, 1024, 1024, 1024, 1024, 0, 6, 4020, 4064, 4042, 4045, 4043, 4048, 0, 1, 20100, -89.900, 0.000, 91.000, 0.000, 0.000, -3.000, 0.0, , , , , , 94, , , 27, 27, 27
38.5374325, -120.3487150, 44.200, 15:42:41.400, 17, 0.00, 0.11, 96, 1.000, 0.600, 90.200, 726, 100, 95, 36, 24261, -17730, 4997, 5206, 26, 14, 1531003361.400, 82, 0, 1024, 1024, 1024, 1024, 0, 6, 4023, 4063, 4047, 4047, 4044, 4047, 0, 1, 20199, -89.900, 0.000, 91.000, 0.000, 0.000, -3.000, 0.0, , , , , , 94, , , 27, 27, 27
38.5374325, -120.3487150, 44.500, 15:42:41.500, 17, 0.00, 0.11, 96, 1.000, 0.600, 90.300, 726, 100, 95, 36, 24261, -17730, 4997, 5206, 26, 14, 1531003361.501, 85, 0, 1024, 1024, 1024, 1024, 0, 6, 4023, 4063, 4047, 4047, 4044, 4047, 0, 1, 20300, -89.900, 0.000, 91.000, 0.000, 0.000, -2.900, 0.0, , , , , , 94, , , 27, 27, 27
38.5374325, -120.3487150, 44.800, 15:42:41.600, 17, 0.00, 0.11, 96, 1.100, 0.600, 90.300, 726, 100, 95, 36, 24261, -17730, 4997, 5206, 26, 14, 1531003361.600, 86, 0, 1024, 1024, 1024, 1024, 0, 6, 4023, 4063, 4047, 4047, 4044, 4047, 0, 1, 20399, -89.900, 0.000, 91.000, 0.000, 0.000, -2.900, 0.0, , , , , , 94, , , 27, 27, 27
38.5374325, -120.3487150, 45.100, 15:42:41.700, 17, 0.00, 0.11, 96, 1.000, 0.700, 90.200, 726, 100, 95, 36, 24261, -17730, 4997, 5206, 26, 14, 1531003361.700, 88, 0, 1024, 1024, 1024, 1024, 0, 6, 4023, 4063, 4047, 4047, 4044, 4047, 0, 1, 20499, -89.900, 0.000, 91.000, 0.000, 0.000, -3.000, 0.0, , , , , , 94, , , 27, 27, 27
38.5374325, -120.3487150, 45.400, 15:42:41.800, 17, 0.00, 0.11, 96, 0.900, 0.600, 90.200, 726, 100, 95, 36, 24261, -17730, 4997, 5206, 26, 14, 1531003361.800, 79, 0, 1024, 1024, 1024, 1024, 0, 6, 4023, 4063, 4047, 4047, 4044, 4047, 0, 1, 20599, -89.900, 0.000, 91.000, 0.000, 0.000, -3.000, 0.0, , , , , , 94, , , 27, 27, 27
38.5374325, -120.3487150, 45.700, 15:42:41.900, 17, 0.00, 0.11, 96, 0.800, 0.700, 90.100, 726, 100, 95, 36, 24261, -17730, 4997, 5206, 26, 14, 1531003361.900, 78, 0, 1024, 1024, 1024, 1024, 0, 6, 4023, 4063, 4047, 4047, 4044, 4047, 0, 1, 20700, -89.900, 0.000, 91.000, 0.000, 0.000, -2.900, 0.0, , , , , , 94, , , 27, 27, 27
38.5374324, -120.3487151, 46.000, 15:42:42.000, 17, 0.00, 0.10, 96, 0.700, 0.600, 90.100, 726, 100, 94, 36, 24261, -17730, 4997, 5206, 26, 14, 1531003362.001, 79, 0, 1024, 1024, 1024, 1024, 0, 6, 4023, 4063, 4047, 4047, 4044, 4047, 0, 1, 20800, -89.900, 0.000, 91.000, 0.000, 0.000, -3.000, 0.0, , , , , , 94, , , 27, 27, 27
38.5374324, -120.3487151, 46.300, 15:42:42.100, 17, 0.00, 0.10, 96, 0.800, 0.700, 90.100, 726, 100, 94, 36, 24261, -17730, 4997, 5206, 26, 14, 1531003362.100, 71, 0, 1024, 1024, 1024, 1024, 0, 6, 4023, 4063, 4047, 4047, 4044, 4047, 0, 1, 20900, -89.900, 0.000, 91.000, 0.000, 0.000, -2.900, 0.0, , , , , , 94, , , 27, 27, 27
38.5374324, -120.3487151, 46.900, 15:42:42.200, 17, 0.00, 0.10, 96, 0.900, 0.600, 90.100, 726, 100, 94, 36, 24261, -17730, 4997, 5206, 26, 14, 1531003362.200, 69, 0, 1024, 1024, 1024, 1024, 0, 6, 4023, 4063, 4047, 4047, 4044, 4047, 0, 1, 20999, -89.900, 0.000, 91.000, 0.000, 0.000, -3.000, 0.0, , , , , , 94, , , 27, 27, 27
