latitude,longitude,altitude(feet),ascent(feet),speed(mph),distance(feet),time(millisecond),datetime(utc),satellites,gpslevel,voltage(v),max_altitude(feet),max_ascent(feet),max_speed(mph),max_distance(feet), xSpeed(mph), ySpeed(mph), zSpeed(mph), compass_heading(degrees), pitch(degrees), roll(degrees),isPhoto,isVideo,rc_elevator,rc_aileron,rc_throttle,rc_rudder,gimbal_heading(degrees),gimbal_pitch(degrees),battery_percent,voltageCell1,voltageCell2,voltageCell3,voltageCell4,voltageCell5,voltageCell6,current(A),battery_temperature(f),flycStateRaw,flycState,message
38.5374486,-120.3487233,5384.7311145686,0,0,0,3030,2018-07-07 22:21:02,11,0,25.765,5384.7311145686,0,0,0,0,0,0,95.5, 0.8, 0.1,1,0,1024,1024,1024,1024,96.2,-89.9,98,4.297,4.321,4.26,4.271,4.303,4.3,2.867,89.6,11,AutoTakeoff,DJI_0374.jpg Starting Mission from Lat/Long: 38.53746/-120.34872 Camera: Zenmuse X3 - Overlap: 90/90 - Active Connection: No
38.5374486,-120.3487233,5384.7311145686,0,0,0,3100,2018-07-07 22:21:02,11,0,25.765,5384.7311145686,0,0,0,0,0,0,95.6, 0.5, 0.1,0,0,1024,1024,1024,1024,96.2,-89.9,98,4.297,4.321,4.26,4.271,4.303,4.3,2.867,89.6,11,AutoTakeoff,
38.5374486,-120.3487234,5384.7311145686,0,0,0.028538550782,3200,2018-07-07 22:21:03,11,0,25.765,5384.7311145686,0,0,0.028538550782,0,0,0,95.7, 0.2, 0,0,0,1024,1024,1024,1024,96.2,-89.9,98,4.297,4.321,4.26,4.271,4.303,4.3,2.867,89.6,11,AutoTakeoff,
38.5374486,-120.3487234,5384.7311145686,0,0,0.028538550782,3300,2018-07-07 22:21:03,11,0,25.765,5384.7311145686,0,0,0.028538550782,0,0,0,95.7, 0.1, 0,0,0,1024,1024,1024,1024,96.2,-90,98,4.297,4.321,4.26,4.271,4.303,4.3,2.867,89.6,11,AutoTakeoff,
38.5374487,-120.3487234,5385.0591985686,0.328084,0,0.04632053954,3500,2018-07-07 22:21:03,9,0,25.765,5385.0591985686,0.328084,0,0.04632053954,0,0,0,95.7, 0, 0.4,0,0,1024,1024,1024,1024,96.2,-90,98,4.297,4.321,4.26,4.271,4.303,4.3,2.867,89.6,11,AutoTakeoff,
38.5374487,-120.3487233,5385.3872825686,0.656168,0,0.036484909304,3700,2018-07-07 22:21:03,9,0,25.765,5385.3872825686,0.656168,0,0.04632053954,0,0,0,95.7, -0.1, 0.7,0,0,1024,1024,1024,1024,96.2,-90,98,4.297,4.321,4.26,4.271,4.303,4.3,2.867,89.6,11,AutoTakeoff,
38.5374488,-120.3487233,5385.3872825686,0.656168,0,0.072969818608,3800,2018-07-07 22:21:03,9,0,25.765,5385.3872825686,0.656168,0,0.072969818608,0,0,0,95.6, 0, 0.9,0,0,1024,1024,1024,1024,96.2,-89.9,98,4.297,4.321,4.26,4.271,4.303,4.3,2.867,89.6,11,AutoTakeoff,
38.5374488,-120.3487231,5385.3872825686,0.656168,0,0.092641407164,3900,2018-07-07 22:21:03,9,0,25.765,5385.3872825686,0.656168,0,0.092641407164,0,0,0,95.6, 0.2, 1,0,0,1024,1024,1024,1024,96.2,-89.9,98,4.297,4.321,4.26,4.271,4.303,4.3,2.867,89.6,11,AutoTakeoff,
38.5374489,-120.3487231,5385.7153665686,0.984252,0,0.123442917336,4000,2018-07-07 22:21:03,9,0,25.654,5385.7153665686,0.984252,0,0.123442917336,0,0,0,95.6, 0.5, 1.2,0,0,1024,1024,1024,1024,96.2,-89.9,98,4.264,4.275,4.277,4.282,4.241,4.26,3.793,89.6,11,AutoTakeoff,
38.5374489,-120.348723,5385.7153665686,0.984252,0,0.138961946704,4100,2018-07-07 22:21:03,9,0,25.654,5385.7153665686,0.984252,0,0.138961946704,0,0,0,95.6, 0.5, 1.2,0,0,1024,1024,1024,1024,96.2,-89.9,98,4.264,4.275,4.277,4.282,4.241,4.26,3.793,89.6,11,AutoTakeoff,
38.5374489,-120.3487229,5386.0434505686,1.312336,0,0.158150267528,4200,2018-07-07 22:21:04,10,0,25.654,5386.0434505686,1.312336,0,0.158150267528,0,0,0,95.6, 0.5, 0.9,0,0,1024,1024,1024,1024,96.2,-89.9,98,4.264,4.275,4.277,4.282,4.241,4.26,3.793,89.6,11,AutoTakeoff,
38.5374488,-120.3487228,5386.0434505686,1.312336,0,0.160268049748,4300,2018-07-07 22:21:04,10,0,25.654,5386.0434505686,1.312336,0,0.160268049748,0,0,-0.223694,95.6, 0.7, 0.9,0,0,1024,1024,1024,1024,96.2,-89.9,98,4.264,4.275,4.277,4.282,4.241,4.26,3.793,89.6,11,AutoTakeoff,
38.5374488,-120.3487227,5386.3715345686,1.64042,0,0.186131239552,4400,2018-07-07 22:21:04,10,0,25.654,5386.3715345686,1.64042,0,0.186131239552,0,0,-0.223694,95.6, 0.9, 0.9,0,0,1024,1024,1024,1024,96.2,-89.9,98,4.264,4.275,4.277,4.282,4.241,4.26,3.793,89.6,11,AutoTakeoff,
38.5374488,-120.3487226,5386.3715345686,1.64042,0,0.212679796832,4500,2018-07-07 22:21:04,10,0,25.654,5386.3715345686,1.64042,0,0.212679796832,0,0,-0.223694,95.6, 1.1, 1,0,0,1024,1024,1024,1024,96.2,-89.9,98,4.264,4.275,4.277,4.282,4.241,4.26,3.793,89.6,11,AutoTakeoff,
38.5374487,-120.3487223,5387.0277025686,2.296588,0,0.28770834254,4600,2018-07-07 22:21:04,9,0,25.654,5387.0277025686,2.296588,0,0.28770834254,0,0,0,95.6, 1.3, 0.9,0,0,1024,1024,1024,1024,96.2,-89.9,98,4.264,4.275,4.277,4.282,4.241,4.26,3.793,89.6,11,AutoTakeoff,
38.5374487,-120.3487222,5387.0277025686,2.296588,0,0.316037083604,4700,2018-07-07 22:21:04,10,0,25.654,5387.0277025686,2.296588,0,0.316037083604,0,0,0,95.6, 1.5, 0.8,0,0,1024,1024,1024,1024,96.2,-89.9,98,4.264,4.275,4.277,4.282,4.241,4.26,3.793,89.6,11,AutoTakeoff,
38.5374486,-120.348722,5387.0277025686,2.296588,0,0.37100066804,4800,2018-07-07 22:21:04,10,0,25.654,5387.0277025686,2.296588,0,0.37100066804,0,0,0,95.6, 1.6, 0.8,0,0,1024,1024,1024,1024,96.2,-89.9,98,4.264,4.275,4.277,4.282,4.241,4.26,3.793,89.6,11,AutoTakeoff,
38.5374485,-120.348722,5387.3557865686,2.624672,0,0.37279200668,4900,2018-07-07 22:21:04,10,0,25.654,5387.3557865686,2.624672,0,0.37279200668,0,0,-0.223694,95.7, 1.6, 0.7,0,0,1024,1024,1024,1024,96.2,-89.9,98,4.264,4.275,4.277,4.282,4.241,4.26,3.793,89.6,11,AutoTakeoff,
38.5374484,-120.348722,5387.3557865686,2.624672,0,0.37811024832,5000,2018-07-07 22:21:04,10,0,24.975,5387.3557865686,2.624672,0,0.37811024832,0,0,-0.223694,95.7, 1.7, 0.6,0,0,1024,1024,1024,1024,96.2,-89.9,98,4.148,4.157,4.175,4.183,4.149,4.144,15.189,89.6,11,AutoTakeoff,
38.5374484,-120.348722,5387.6838705686,2.952756,0,0.37811024832,5100,2018-07-07 22:21:04,10,0,24.975,5387.6838705686,2.952756,0,0.37811024832,0,0,-0.223694,95.6, 1.7, 0.5,0,0,1024,1024,1024,1024,96.2,-89.9,98,4.148,4.157,4.175,4.183,4.149,4.144,15.189,89.6,14,Waypoint,
38.5374485,-120.348722,5388.0119545686,3.28084,0,0.37279200668,5200,2018-07-07 22:21:05,10,0,24.975,5388.0119545686,3.28084,0,0.37811024832,0,0,0,95.6, 1.4, 0.5,0,0,1024,1024,1024,1024,96.2,-89.9,98,4.148,4.157,4.175,4.183,4.149,4.144,15.189,89.6,14,Waypoint,
38.5374484,-120.348722,5388.0119545686,3.28084,0,0.37811024832,5300,2018-07-07 22:21:05,9,0,24.975,5388.0119545686,3.28084,0,0.37811024832,0,0,0,95.7, 0.9, 0.8,0,0,1024,1024,1024,1024,96.2,-90,98,4.148,4.157,4.175,4.183,4.149,4.144,15.189,89.6,14,Waypoint,
38.5374483,-120.348722,5388.0119545686,3.28084,0,0.386811036,5400,2018-07-07 22:21:05,9,0,24.975,5388.0119545686,3.28084,0,0.386811036,0,0,0,95.7, 0.6, 0.7,0,0,1024,1024,1024,1024,96.2,-90,98,4.148,4.157,4.175,4.183,4.149,4.144,15.189,89.6,14,Waypoint,
38.5374481,-120.3487219,5388.0119545686,3.28084,0,0.43921589332,5500,2018-07-07 22:21:05,9,0,24.975,5388.0119545686,3.28084,0,0.43921589332,0,0,0,95.8, 0.5, 0.4,0,0,1024,1024,1024,1024,96.2,-90,98,4.148,4.157,4.175,4.183,4.149,4.144,15.189,89.6,14,Waypoint,
38.5374479,-120.3487219,5388.3400385686,3.608924,0,0.47419292856,5600,2018-07-07 22:21:05,9,0,24.975,5388.3400385686,3.608924,0,0.47419292856,0,0,0,95.8, 0.6, -0.1,0,0,1024,1024,1024,1024,96.2,-90,98,4.148,4.157,4.175,4.183,4.149,4.144,15.189,89.6,14,Waypoint,
38.5374477,-120.3487219,5388.3400385686,3.608924,0,0.51716209004,5700,2018-07-07 22:21:05,9,0,24.975,5388.3400385686,3.608924,0,0.51716209004,0,0,-0.223694,95.7, 0.8, -0.4,0,0,1024,1024,1024,1024,96.2,-90,98,4.148,4.157,4.175,4.183,4.149,4.144,15.189,89.6,14,Waypoint,
38.5374476,-120.3487219,5388.6681225686,3.937008,0,0.5410597286,5900,2018-07-07 22:21:05,9,0,24.975,5388.6681225686,3.937008,0,0.5410597286,0,0,-0.223694,95.7, 0.8, -0.4,0,0,1024,1024,1024,1024,96.2,-89.9,98,4.148,4.157,4.175,4.183,4.149,4.144,15.189,89.6,14,Waypoint,
38.5374475,-120.3487219,5388.9962065686,4.265092,0,0.5663057924,6000,2018-07-07 22:21:05,10,0,24.779,5388.9962065686,4.265092,0,0.5663057924,0,0,-0.223694,95.7, 0.9, -0.3,0,0,1024,1024,1024,1024,96.2,-89.9,98,4.112,4.134,4.136,4.143,4.122,4.135,16.245,89.6,14,Waypoint,
38.5374474,-120.3487218,5389.3242905686,4.593176,0,0.6123195734,6100,2018-07-07 22:21:05,10,0,24.779,5389.3242905686,4.593176,0,0.6123195734,0,0,-0.223694,95.6, 0.9, -0.2,0,0,1024,1024,1024,1024,96.2,-89.9,98,4.112,4.134,4.136,4.143,4.122,4.135,16.245,89.6,14,Waypoint,
38.5374474,-120.3487218,5389.6523745686,4.92126,0,0.6123195734,6200,2018-07-07 22:21:06,7,0,24.779,5389.6523745686,4.92126,0,0.6123195734,0,0,-0.223694,95.6, 0.9, 0,0,0,1024,1024,1024,1024,96.2,-89.9,98,4.112,4.134,4.136,4.143,4.122,4.135,16.245,89.6,14,Waypoint,
38.5374474,-120.3487218,5389.9804585686,5.249344,0,0.6123195734,6300,2018-07-07 22:21:06,7,0,24.779,5389.9804585686,5.249344,0,0.6123195734,0,0,-0.447388,95.6, 0.9, 0.2,0,0,1024,1024,1024,1024,96.2,-89.9,98,4.112,4.134,4.136,4.143,4.122,4.135,16.245,89.6,14,Waypoint,
38.5374474,-120.3487217,5390.6366265686,5.905512,0,0.63260172628,6400,2018-07-07 22:21:06,8,0,24.779,5390.6366265686,5.905512,0,0.63260172628,0,0,-0.447388,95.7, 1, 0.4,0,0,1024,1024,1024,1024,96.2,-89.9,98,4.112,4.134,4.136,4.143,4.122,4.135,16.245,89.6,14,Waypoint,
38.5374474,-120.3487217,5391.2927945686,6.56168,0,0.63260172628,6500,2018-07-07 22:21:06,8,0,24.779,5391.2927945686,6.56168,0,0.63260172628,0,0,-0.447388,95.7, 1, 0.4,0,0,1024,1024,1024,1024,96.2,-90,98,4.112,4.134,4.136,4.143,4.122,4.135,16.245,89.6,14,Waypoint,
38.5374475,-120.3487216,5391.9489625686,7.217848,0,0.62963912776,6600,2018-07-07 22:21:06,12,0,24.779,5391.9489625686,7.217848,0,0.63260172628,0,0,-0.447388,95.7, 0.9, 0.5,0,0,1024,1024,1024,1024,96.2,-89.9,98,4.112,4.134,4.136,4.143,4.122,4.135,16.245,89.6,14,Waypoint,
38.5374477,-120.3487213,5393.5893825686,8.858268,0,0.65848427304,6700,2018-07-07 22:21:06,12,0,24.779,5393.5893825686,8.858268,0,0.65848427304,0,0,-0.671082,95.6, 1, 0.8,0,0,1024,1024,1024,1024,96.2,-89.9,98,4.112,4.134,4.136,4.143,4.122,4.135,16.245,89.6,14,Waypoint,
38.5374478,-120.3487212,5394.5736345686,9.84252,0,0.66660763288,6800,2018-07-07 22:21:06,12,0,24.779,5394.5736345686,9.84252,0,0.66660763288,0,0,-0.671082,95.6, 1.3, 0.8,0,0,1024,1024,1024,1024,96.2,-89.9,98,4.112,4.134,4.136,4.143,4.122,4.135,16.245,89.6,14,Waypoint,
38.5374478,-120.348721,5395.5578865686,10.826772,0,0.7183563222,6900,2018-07-07 22:21:06,10,0,24.779,5395.5578865686,10.826772,0,0.7183563222,0,0,-0.671082,95.5, 1.5, 0.8,0,0,1024,1024,1024,1024,96.2,-89.9,98,4.112,4.134,4.136,4.143,4.122,4.135,16.245,89.6,14,Waypoint,
38.5374478,-120.3487208,5396.5421385686,11.811024,0,0.77085960472,7000,2018-07-07 22:21:06,10,0,24.802,5396.5421385686,11.811024,0,0.77085960472,0,0,-0.671082,95.5, 1.6, 0.9,0,0,1024,1024,1024,1024,96.2,-89.9,98,4.104,4.192,4.127,4.111,4.095,4.109,15.761,89.6,14,Waypoint,
38.5374478,-120.3487207,5397.8544745686,13.12336,0,0.79734582604,7100,2018-07-07 22:21:06,12,0,24.802,5397.8544745686,13.12336,0,0.79734582604,0,0,-0.671082,95.5, 1.8, 1.1,0,0,1024,1024,1024,1024,96.2,-89.9,98,4.104,4.192,4.127,4.111,4.095,4.109,15.761,89.6,14,Waypoint,
38.5374479,-120.3487206,5398.8387265686,14.107612,0,0.81176511784,7200,2018-07-07 22:21:07,12,0,24.802,5398.8387265686,14.107612,0,0.81176511784,0,0,-0.671082,95.5, 1.7, 1,0,0,1024,1024,1024,1024,96.2,-89.9,98,4.104,4.192,4.127,4.111,4.095,4.109,15.761,89.6,14,Waypoint,
38.5374478,-120.3487206,5399.8229785686,15.091864,0,0.82396984264,7300,2018-07-07 22:21:07,11,0,24.802,5399.8229785686,15.091864,0,0.82396984264,0,0,-0.671082,95.6, 1.6, 1,0,0,1024,1024,1024,1024,96.2,-89.9,98,4.104,4.192,4.127,4.111,4.095,4.109,15.761,89.6,14,Waypoint,
38.5374477,-120.3487205,5401.1353145686,16.4042,0,0.86391735048,7400,2018-07-07 22:21:07,11,0,24.802,5401.1353145686,16.4042,0,0.86391735048,0,0,-0.671082,95.6, 1.6, 0.8,0,0,1024,1024,1024,1024,96.2,-89.9,98,4.104,4.192,4.127,4.111,4.095,4.109,15.761,89.6,14,Waypoint,
38.5374476,-120.3487205,5402.1195665686,17.388452,0,0.87843178664,7500,2018-07-07 22:21:07,12,0,24.802,5402.1195665686,17.388452,0,0.87843178664,0,0,-0.671082,95.6, 1.5, 0.4,0,0,1024,1024,1024,1024,96.2,-89.9,98,4.104,4.192,4.127,4.111,4.095,4.109,15.761,89.6,14,Waypoint,
38.5374475,-120.3487205,5403.1038185686,18.372704,0,0.89420278452,7600,2018-07-07 22:21:07,12,0,24.802,5403.1038185686,18.372704,0,0.89420278452,0,0,-0.671082,95.6, 1.4, 0.1,0,0,1024,1024,1024,1024,96.2,-89.9,98,4.104,4.192,4.127,4.111,4.095,4.109,15.761,89.6,14,Waypoint,
38.5374477,-120.3487204,5404.4161545686,19.68504,0,0.89038060592,7700,2018-07-07 22:21:07,12,0,24.802,5404.4161545686,19.68504,0,0.89420278452,0,0,-0.671082,95.6, 1.4, 0,0,0,1024,1024,1024,1024,96.2,-89.9,98,4.104,4.192,4.127,4.111,4.095,4.109,15.761,89.6,14,Waypoint,
38.5374478,-120.3487203,5405.4004065686,20.669292,0.223694,0.9045439922,7800,2018-07-07 22:21:07,12,0,24.802,5405.4004065686,20.669292,0.223694,0.9045439922,0,0,-0.671082,95.6, 1.4, 0.4,0,0,1024,1024,1024,1024,96.2,-89.9,98,4.104,4.192,4.127,4.111,4.095,4.109,15.761,89.6,14,Waypoint,
38.5374478,-120.3487203,5406.3846585686,21.653544,0,0.9045439922,7900,2018-07-07 22:21:07,11,0,24.802,5406.3846585686,21.653544,0.223694,0.9045439922,0,0,-0.671082,95.6, 1.4, 1,0,0,1024,1024,1024,1024,96.2,-89.9,98,4.104,4.192,4.127,4.111,4.095,4.109,15.761,89.6,14,Waypoint,
38.5374477,-120.3487203,5407.6969945686,22.96588,0,0.91696525244,8000,2018-07-07 22:21:07,11,0,24.275,5407.6969945686,22.96588,0.223694,0.91696525244,0,0,-0.671082,95.7, 1.4, 1.2,0,0,1024,1024,1024,1024,96.2,-89.9,98,4.016,4.042,4.038,4.049,4.032,4.031,22.885,89.6,14,Waypoint,
38.5374477,-120.3487203,5408.6812465686,23.950132,0,0.91696525244,8100,2018-07-07 22:21:07,11,0,24.275,5408.6812465686,23.950132,0.223694,0.91696525244,0,0,-0.671082,95.7, 1.3, 1,0,0,1024,1024,1024,1024,96.2,-89.9,98,4.016,4.042,4.038,4.049,4.032,4.031,22.885,89.6,14,Waypoint,
38.5374478,-120.3487203,5409.6654985686,24.934384,0,0.9045439922,8200,2018-07-07 22:21:08,11,0,24.275,5409.6654985686,24.934384,0.223694,0.91696525244,0,0,-0.671082,95.7, 1.2, 0.9,0,0,1024,1024,1024,1024,96.2,-89.9,98,4.016,4.042,4.038,4.049,4.032,4.031,22.885,89.6,14,Waypoint,
38.5374477,-120.3487203,5410.9778345686,26.24672,0,0.91696525244,8300,2018-07-07 22:21:08,12,0,24.275,5410.9778345686,26.24672,0.223694,0.91696525244,0,0,-0.671082,95.7, 1.1, 0.7,0,0,1024,1024,1024,1024,96.2,-89.9,98,4.016,4.042,4.038,4.049,4.032,4.031,22.885,89.6,14,Waypoint,
38.5374475,-120.3487204,5411.9620865686,27.230972,0,0.91979333652,8500,2018-07-07 22:21:08,12,0,24.275,5411.9620865686,27.230972,0.223694,0.91979333652,0,0,-0.671082,95.7, 1.2, 0.4,0,0,1024,1024,1024,1024,96.2,-89.9,98,4.016,4.042,4.038,4.049,4.032,4.031,22.885,89.6,14,Waypoint,
38.5374474,-120.3487205,5412.9463385686,28.215224,0,0.91116144648,8600,2018-07-07 22:21:08,13,0,24.275,5412.9463385686,28.215224,0.223694,0.91979333652,0,0,-0.671082,95.6, 1.1, -0.1,0,0,1024,1024,1024,1024,96.2,-89.9,98,4.016,4.042,4.038,4.049,4.032,4.031,22.885,89.6,14,Waypoint,
38.5374472,-120.3487206,5413.9305905686,29.199476,0,0.92446853352,8700,2018-07-07 22:21:08,13,0,24.275,5413.9305905686,29.199476,0.223694,0.92446853352,0,0,-0.671082,95.5, 1, -0.7,0,0,1024,1024,1024,1024,96.2,-90,98,4.016,4.042,4.038,4.049,4.032,4.031,22.885,89.6,14,Waypoint,
38.537447,-120.3487207,5415.2429265686,30.511812,0,0.9441109226,8800,2018-07-07 22:21:08,13,0,24.275,5415.2429265686,30.511812,0.223694,0.9441109226,0,0,-0.671082,95.4, 0.8, -1,0,0,1024,1024,1024,1024,96.2,-90,98,4.016,4.042,4.038,4.049,4.032,4.031,22.885,89.6,14,Waypoint,
38.5374469,-120.3487208,5416.2271785686,31.496064,0,0.945374046,8900,2018-07-07 22:21:08,13,0,24.275,5416.2271785686,31.496064,0.223694,0.945374046,0,0,-0.671082,95.4, 0.6, -1.1,0,0,1024,1024,1024,1024,96.2,-90,98,4.016,4.042,4.038,4.049,4.032,4.031,22.885,89.6,14,Waypoint,
38.5374468,-120.348721,5417.2114305686,32.480316,0,0.92851380924,9000,2018-07-07 22:21:08,14,0,24.273,5417.2114305686,32.480316,0.223694,0.945374046,0,0,-0.671082,95.5, 0.7, -1,0,0,1024,1024,1024,1024,96.2,-90,98,4.031,4.061,4.056,4.069,4.048,4.062,22.145,89.6,14,Waypoint,
38.5374467,-120.3487211,5418.1956825686,33.464568,0,0.93527562048,9100,2018-07-07 22:21:08,14,0,24.273,5418.1956825686,33.464568,0.223694,0.945374046,0,0,-0.671082,95.5, 0.7, -0.9,0,0,1024,1024,1024,1024,96.2,-90,98,4.031,4.061,4.056,4.069,4.048,4.062,22.145,89.6,14,Waypoint,
38.5374466,-120.3487212,5419.1799345686,34.44882,0,0.94426184124,9200,2018-07-07 22:21:09,14,0,24.273,5419.1799345686,34.44882,0.223694,0.945374046,0,0,-0.671082,95.6, 0.5, -0.6,0,0,1024,1024,1024,1024,96.2,-90,98,4.031,4.061,4.056,4.069,4.048,4.062,22.145,89.6,14,Waypoint,
38.5374465,-120.3487212,5420.1641865686,35.433072,0,0.97273297076,9300,2018-07-07 22:21:09,14,0,24.273,5420.1641865686,35.433072,0.223694,0.97273297076,0,0,-0.671082,95.7, 0.6, -0.4,0,0,1024,1024,1024,1024,96.2,-89.9,98,4.031,4.061,4.056,4.069,4.048,4.062,22.145,89.6,14,Waypoint,
38.5374464,-120.3487213,5421.1484385686,36.417324,0,0.98491472968,9400,2018-07-07 22:21:09,14,0,24.273,5421.1484385686,36.417324,0.223694,0.98491472968,0,0,-0.671082,95.7, 0.7, -0.2,0,0,1024,1024,1024,1024,96.2,-89.9,98,4.031,4.061,4.056,4.069,4.048,4.062,22.145,89.6,14,Waypoint,
38.5374462,-120.3487215,5423.4450265686,38.713912,0.223694,1.01519688288,9500,2018-07-07 22:21:09,14,0,24.273,5423.4450265686,38.713912,0.223694,1.01519688288,0,0,-0.671082,95.8, 0.8, -0.4,0,0,1024,1024,1024,1024,96.2,-89.9,98,4.031,4.061,4.056,4.069,4.048,4.062,22.145,89.6,14,Waypoint,
38.5374461,-120.3487217,5424.4292785686,39.698164,0.223694,1.02003284104,9600,2018-07-07 22:21:09,14,0,24.273,5424.4292785686,39.698164,0.223694,1.02003284104,0,0,-0.671082,95.8, 0.6, -0.5,0,0,1024,1024,1024,1024,96.2,-89.9,98,4.031,4.061,4.056,4.069,4.048,4.062,22.145,89.6,14,Waypoint,
38.5374461,-120.3487218,5425.4135305686,40.682416,0.223694,1.00758205324,9700,2018-07-07 22:21:09,14,0,24.273,5425.4135305686,40.682416,0.223694,1.02003284104,0,0,-0.671082,95.8, 0.4, -0.6,0,0,1024,1024,1024,1024,96.2,-90,98,4.031,4.061,4.056,4.069,4.048,4.062,22.145,89.6,14,Waypoint,
38.5374461,-120.3487219,5426.3977825686,41.666668,0.223694,0.99579071428,9800,2018-07-07 22:21:09,14,0,24.273,5426.3977825686,41.666668,0.223694,1.02003284104,0,0,-0.671082,95.8, 0, -0.5,0,0,1024,1024,1024,1024,96.2,-90,98,4.031,4.061,4.056,4.069,4.048,4.062,22.145,89.6,14,Waypoint,
38.5374461,-120.348722,5427.3820345686,42.65092,0.223694,0.98468835172,9900,2018-07-07 22:21:09,14,0,24.273,5427.3820345686,42.65092,0.223694,1.02003284104,0,0,-0.671082,95.7, 0, -0.2,0,0,1024,1024,1024,1024,96.2,-90,98,4.031,4.061,4.056,4.069,4.048,4.062,22.145,89.6,14,Waypoint,
38.5374461,-120.348722,5428.6943705686,43.963256,0.223694,0.98468835172,10000,2018-07-07 22:21:09,14,0,24.41,5428.6943705686,43.963256,0.223694,1.02003284104,0,0,-0.671082,95.7, 0, 0,0,0,1024,1024,1024,1024,96.2,-90,98,4.051,4.068,4.069,4.08,4.068,4.07,18.658,89.6,14,Waypoint,
38.5374461,-120.3487221,5429.6786225686,44.947508,0.223694,0.9742946506,10100,2018-07-07 22:21:09,13,0,24.41,5429.6786225686,44.947508,0.223694,1.02003284104,0,0,-0.671082,95.6, 0.1, 0.1,0,0,1024,1024,1024,1024,96.2,-90,98,4.051,4.068,4.069,4.08,4.068,4.07,18.658,89.6,14,Waypoint,
38.537446,-120.3487221,5430.6628745686,45.93176,0.223694,1.00853349684,10200,2018-07-07 22:21:10,13,0,24.41,5430.6628745686,45.93176,0.223694,1.02003284104,0,0,-0.671082,95.6, 0.4, 0.1,0,0,1024,1024,1024,1024,96.2,-89.9,98,4.051,4.068,4.069,4.08,4.068,4.07,18.658,89.6,14,Waypoint,
38.537446,-120.3487221,5431.3190425686,46.587928,0.223694,1.00853349684,10300,2018-07-07 22:21:10,14,0,24.41,5431.3190425686,46.587928,0.223694,1.02003284104,0,0,-0.671082,95.5, 1, 0,0,0,1024,1024,1024,1024,96.2,-89.9,98,4.051,4.068,4.069,4.08,4.068,4.07,18.658,89.6,14,Waypoint,
38.5374459,-120.348722,5432.3032945686,47.57218,0.223694,1.0526411098,10400,2018-07-07 22:21:10,14,0,24.41,5432.3032945686,47.57218,0.223694,1.0526411098,0,0,-0.671082,95.6, 1.4, 0,0,0,1024,1024,1024,1024,96.2,-89.9,98,4.051,4.068,4.069,4.08,4.068,4.07,18.658,89.6,14,Waypoint,
38.5374459,-120.348722,5433.2875465686,48.556432,0.223694,1.0526411098,10500,2018-07-07 22:21:10,13,0,24.41,5433.2875465686,48.556432,0.223694,1.0526411098,0,0,-0.671082,95.7, 1.8, -0.1,0,0,1024,1024,1024,1024,96.2,-89.9,98,4.051,4.068,4.069,4.08,4.068,4.07,18.658,89.6,14,Waypoint,
38.5374459,-120.3487219,5434.2717985686,49.540684,0.223694,1.06303481092,10600,2018-07-07 22:21:10,13,0,24.41,5434.2717985686,49.540684,0.223694,1.06303481092,0,0,-0.671082,95.7, 2, -0.2,0,0,1024,1024,1024,1024,96.2,-89.9,98,4.051,4.068,4.069,4.08,4.068,4.07,18.658,89.6,14,Waypoint,
38.5374459,-120.3487218,5435.2560505686,50.524936,0.223694,1.07408468004,10700,2018-07-07 22:21:10,13,0,24.41,5435.2560505686,50.524936,0.223694,1.07408468004,0,0,-0.671082,95.8, 1.9, -0.1,0,0,1024,1024,1024,1024,96.2,-89.9,98,4.051,4.068,4.069,4.08,4.068,4.07,18.658,89.6,14,Waypoint,
38.537446,-120.3487218,5436.2403025686,51.509188,0.223694,1.04072509892,10900,2018-07-07 22:21:10,13,0,24.41,5436.2403025686,51.509188,0.223694,1.07408468004,0,0,-0.671082,95.9, 1.9, 0.1,0,0,1024,1024,1024,1024,96.2,-89.9,98,4.051,4.068,4.069,4.08,4.068,4.07,18.658,89.6,14,Waypoint,
38.537446,-120.3487217,5437.2245545686,52.49344,0.223694,1.05278546676,11000,2018-07-07 22:21:10,13,0,24.404,5437.2245545686,52.49344,0.223694,1.07408468004,0,0,-0.671082,95.9, 2.1, 0.4,0,0,1024,1024,1024,1024,96.2,-89.9,98,4.042,4.06,4.072,4.083,4.054,4.071,18.708,89.6,14,Waypoint,
38.5374461,-120.3487217,5438.2088065686,53.477692,0.223694,1.02003284104,11100,2018-07-07 22:21:10,13,0,24.404,5438.2088065686,53.477692,0.223694,1.07408468004,0,0,-0.671082,95.8, 2.1, 0.4,0,0,1024,1024,1024,1024,96.2,-89.9,98,4.042,4.06,4.072,4.083,4.054,4.071,18.708,89.6,14,Waypoint,
38.5374462,-120.3487217,5439.1930585686,54.461944,0.447388,0.98754268252,11200,2018-07-07 22:21:11,14,0,24.404,5439.1930585686,54.461944,0.447388,1.07408468004,0,0,-0.671082,95.8, 2, 0.3,0,0,1024,1024,1024,1024,96.2,-89.9,98,4.042,4.06,4.072,4.083,4.054,4.071,18.708,89.6,14,Waypoint,
38.5374463,-120.3487216,5441.1615625686,56.430448,0.447388,0.9693077738,11400,2018-07-07 22:21:11,13,0,24.404,5441.1615625686,56.430448,0.447388,1.07408468004,0,0,-0.671082,95.6, 1.6, 0.6,0,0,1024,1024,1024,1024,96.2,-89.9,98,4.042,4.06,4.072,4.083,4.054,4.071,18.708,89.6,14,Waypoint,
38.5374464,-120.3487216,5442.1458145686,57.4147,0.447388,0.93789701164,11500,2018-07-07 22:21:11,13,0,24.404,5442.1458145686,57.4147,0.447388,1.07408468004,0,0,-0.671082,95.3, 1.4, 0.7,0,0,1024,1024,1024,1024,96.2,-89.9,98,4.042,4.06,4.072,4.083,4.054,4.071,18.708,89.6,14,Waypoint,
38.5374464,-120.3487216,5443.4581505686,58.727036,0.223694,0.93789701164,11600,2018-07-07 22:21:11,14,0,24.404,5443.4581505686,58.727036,0.447388,1.07408468004,0,0,-0.671082,95.1, 1.3, 0.7,0,0,1024,1024,1024,1024,96.2,-89.9,98,4.042,4.06,4.072,4.083,4.054,4.071,18.708,89.6,14,Waypoint,
38.5374465,-120.3487216,5445.4266545686,60.69554,0.223694,0.90687010776,11700,2018-07-07 22:21:11,14,0,24.404,5445.4266545686,60.69554,0.447388,1.07408468004,0,0,-0.671082,95.1, 1.4, 0.6,0,0,1024,1024,1024,1024,96.2,-89.9,98,4.042,4.06,4.072,4.083,4.054,4.071,18.708,89.6,14,Waypoint,
38.5374465,-120.3487215,5446.4109065686,61.679792,0.223694,0.92245409776,11800,2018-07-07 22:21:11,14,0,24.404,5446.4109065686,61.679792,0.447388,1.07408468004,0,0,-0.671082,95.3, 1.5, 0.6,0,0,1024,1024,1024,1024,96.2,-89.9,98,4.042,4.06,4.072,4.083,4.054,4.071,18.708,89.6,14,Waypoint,
38.5374466,-120.3487215,5447.3951585686,62.664044,0.223694,0.89237863748,11900,2018-07-07 22:21:11,14,0,24.404,5447.3951585686,62.664044,0.447388,1.07408468004,0,0,-0.671082,95.4, 1.6, 0.7,0,0,1024,1024,1024,1024,96.2,-89.9,98,4.042,4.06,4.072,4.083,4.054,4.071,18.708,89.6,14,Waypoint,
38.5374467,-120.3487214,5448.3794105686,63.648296,0.223694,0.88009189168,12000,2018-07-07 22:21:11,14,0,24.353,5448.3794105686,63.648296,0.447388,1.07408468004,0,0,-0.671082,95.5, 1.8, 0.9,0,0,1024,1024,1024,1024,96.2,-89.9,98,4.042,4.06,4.072,4.083,4.054,4.071,19.138,89.6,14,Waypoint,
38.5374467,-120.3487213,5449.3636625686,64.632548,0.223694,0.89795606548,12100,2018-07-07 22:21:11,14,0,24.353,5449.3636625686,64.632548,0.447388,1.07408468004,0,0,-0.671082,95.6, 2, 1.1,0,0,1024,1024,1024,1024,96.2,-89.9,98,4.042,4.06,4.072,4.083,4.054,4.071,19.138,89.6,14,Waypoint,
38.5374467,-120.3487213,5450.3479145686,65.6168,0.223694,0.89795606548,12200,2018-07-07 22:21:12,14,0,24.353,5450.3479145686,65.6168,0.447388,1.07408468004,0,0,-0.671082,95.7, 2, 1.2,0,0,1024,1024,1024,1024,96.2,-89.9,98,4.042,4.06,4.072,4.083,4.054,4.071,19.138,89.6,14,Waypoint,
38.5374468,-120.3487213,5451.3321665686,66.601052,0.223694,0.87009845304,12300,2018-07-07 22:21:12,14,0,24.353,5451.3321665686,66.601052,0.447388,1.07408468004,0,0,-0.671082,95.8, 2, 1.3,0,0,1024,1024,1024,1024,96.2,-89.9,98,4.042,4.06,4.072,4.083,4.054,4.071,19.138,89.6,14,Waypoint,
38.5374469,-120.3487212,5452.3164185686,67.585304,0.223694,0.86248034256,12400,2018-07-07 22:21:12,14,0,24.353,5452.3164185686,67.585304,0.447388,1.07408468004,0,0,-0.671082,96, 2.3, 1.3,0,0,1024,1024,1024,1024,96.2,-89.9,98,4.042,4.06,4.072,4.083,4.054,4.071,19.138,89.6,14,Waypoint,
38.5374469,-120.3487212,5453.3006705686,68.569556,0.223694,0.86248034256,12500,2018-07-07 22:21:12,14,0,24.353,5453.3006705686,68.569556,0.447388,1.07408468004,0,0,-0.671082,96.1, 2.3, 1.3,0,0,1024,1024,1024,1024,96.2,-89.9,98,4.042,4.06,4.072,4.083,4.054,4.071,19.138,89.6,14,Waypoint,
38.537447,-120.3487212,5454.2849225686,69.553808,0.223694,0.83662732336,12600,2018-07-07 22:21:12,14,0,24.353,5454.2849225686,69.553808,0.447388,1.07408468004,0,0,-0.671082,96.1, 2.2, 1.3,0,0,1024,1024,1024,1024,96.2,-89.9,98,4.042,4.06,4.072,4.083,4.054,4.071,19.138,89.6,14,Waypoint,
38.537447,-120.3487211,5455.2691745686,70.53806,0.223694,0.85730317704,12700,2018-07-07 22:21:12,14,0,24.353,5455.2691745686,70.53806,0.447388,1.07408468004,0,0,-0.671082,96, 2.3, 1.1,0,0,1024,1024,1024,1024,96.2,-89.9,98,4.042,4.06,4.072,4.083,4.054,4.071,19.138,89.6,14,Waypoint,
38.5374471,-120.3487211,5456.2534265686,71.522312,0.223694,0.83288716576,12800,2018-07-07 22:21:12,14,0,24.353,5456.2534265686,71.522312,0.447388,1.07408468004,0,0,-0.671082,95.9, 2.3, 1.1,0,0,1024,1024,1024,1024,96.2,-89.9,98,4.042,4.06,4.072,4.083,4.054,4.071,19.138,89.6,14,Waypoint,
38.5374472,-120.3487209,5458.2219305686,73.490816,0.223694,0.85441603784,13010,2018-07-07 22:21:12,14,0,24.353,5458.2219305686,73.490816,0.447388,1.07408468004,0,0,-0.671082,95.8, 2.8, 1.7,0,0,1024,1024,1024,1024,96.2,-89.9,97,4.037,4.055,4.068,4.076,4.037,4.065,19.138,89.6,14,Waypoint,
38.5374473,-120.3487208,5459.2061825686,74.475068,0.223694,0.85673559172,13100,2018-07-07 22:21:12,14,0,24.353,5459.2061825686,74.475068,0.447388,1.07408468004,0,0,-0.671082,95.8, 2.8, 1.9,0,0,1024,1024,1024,1024,96.2,-89.9,97,4.037,4.055,4.068,4.076,4.037,4.065,19.138,89.6,14,Waypoint,
38.5374473,-120.3487209,5460.1904345686,75.45932,0.223694,0.8331201054,13300,2018-07-07 22:21:13,14,0,24.353,5460.1904345686,75.45932,0.447388,1.07408468004,0,0,-0.671082,95.7, 2.5, 2.1,0,0,1024,1024,1024,1024,96.2,-90,97,4.037,4.055,4.068,4.076,4.037,4.065,19.138,89.6,14,Waypoint,
38.5374473,-120.3487208,5461.1746865686,76.443572,0.223694,0.85673559172,13400,2018-07-07 22:21:13,14,0,24.353,5461.1746865686,76.443572,0.447388,1.07408468004,0,0,-0.671082,95.5, 2.4, 2.1,0,0,1024,1024,1024,1024,96.2,-89.9,97,4.037,4.055,4.068,4.076,4.037,4.065,19.138,89.6,14,Waypoint,
38.5374473,-120.3487208,5462.1589385686,77.427824,0.223694,0.85673559172,13500,2018-07-07 22:21:13,14,0,24.353,5462.1589385686,77.427824,0.447388,1.07408468004,0,0,-0.671082,95.5, 2.3, 2,0,0,1024,1024,1024,1024,96.2,-90,97,4.037,4.055,4.068,4.076,4.037,4.065,19.138,89.6,14,Waypoint,
38.5374474,-120.3487209,5463.1431905686,78.412076,0.223694,0.81290028848,13600,2018-07-07 22:21:13,14,0,24.353,5463.1431905686,78.412076,0.447388,1.07408468004,0,0,-0.671082,95.4, 2, 1.7,0,0,1024,1024,1024,1024,96.2,-90,97,4.037,4.055,4.068,4.076,4.037,4.065,19.138,89.6,14,Waypoint,
38.5374473,-120.3487209,5464.1274425686,79.396328,0,0.8331201054,13700,2018-07-07 22:21:13,14,0,24.353,5464.1274425686,79.396328,0.447388,1.07408468004,0,0,-0.671082,95.4, 1.9, 1.3,0,0,1024,1024,1024,1024,96.2,-89.9,97,4.037,4.055,4.068,4.076,4.037,4.065,19.138,89.6,14,Waypoint,
38.5374473,-120.3487209,5465.1116945686,80.38058,0,0.8331201054,13800,2018-07-07 22:21:13,15,0,24.353,5465.1116945686,80.38058,0.447388,1.07408468004,0,0,-0.671082,95.4, 1.8, 0.8,0,0,1024,1024,1024,1024,96.2,-89.9,97,4.037,4.055,4.068,4.076,4.037,4.065,19.138,89.6,14,Waypoint,
38.5374473,-120.3487209,5467.0801985686,82.349084,0,0.8331201054,13900,2018-07-07 22:21:13,14,0,24.353,5467.0801985686,82.349084,0.447388,1.07408468004,0,0,-0.671082,95.5, 2, 0.7,0,0,1024,1024,1024,1024,96.2,-89.9,97,4.037,4.055,4.068,4.076,4.037,4.065,19.138,89.6,14,Waypoint,
38.5374473,-120.3487209,5469.0487025686,84.317588,0,0.8331201054,14100,2018-07-07 22:21:13,15,0,24.353,5469.0487025686,84.317588,0.447388,1.07408468004,0,0,-0.671082,95.6, 2.2, 0.3,0,0,1024,1024,1024,1024,96.2,-89.9,97,4.037,4.055,4.068,4.076,4.037,4.065,19.138,89.6,14,Waypoint,
38.5374472,-120.3487209,5470.0329545686,85.30184,0.223694,0.85441603784,14200,2018-07-07 22:21:14,15,0,24.353,5470.0329545686,85.30184,0.447388,1.07408468004,0,0,-0.671082,95.7, 2.3, 0.6,0,0,1024,1024,1024,1024,96.2,-89.9,97,4.037,4.055,4.068,4.076,4.037,4.065,19.138,89.6,14,Waypoint,
38.5374472,-120.3487208,5471.3452905686,86.614176,0.223694,0.877460658,14300,2018-07-07 22:21:14,15,0,24.353,5471.3452905686,86.614176,0.447388,1.07408468004,0,0,-0.671082,95.8, 2.5, 1,0,0,1024,1024,1024,1024,96.2,-89.9,97,4.037,4.055,4.068,4.076,4.037,4.065,19.138,89.6,14,Waypoint,
38.5374472,-120.3487208,5472.0014585686,87.270344,0.223694,0.877460658,14400,2018-07-07 22:21:14,15,0,24.353,5472.0014585686,87.270344,0.447388,1.07408468004,0,0,-0.671082,95.9, 2.7, 1.1,0,0,1024,1024,1024,1024,96.2,-89.9,97,4.037,4.055,4.068,4.076,4.037,4.065,19.138,89.6,14,Waypoint,
38.5374472,-120.3487208,5472.9857105686,88.254596,0.223694,0.877460658,14500,2018-07-07 22:21:14,15,0,24.353,5472.9857105686,88.254596,0.447388,1.07408468004,0,0,-0.671082,96, 2.8, 1.1,0,0,1024,1024,1024,1024,96.2,-89.9,97,4.037,4.055,4.068,4.076,4.037,4.065,19.138,89.6,14,Waypoint,
38.5374472,-120.3487207,5473.9699625686,89.238848,0.223694,0.90081695796,14600,2018-07-07 22:21:14,15,0,24.353,5473.9699625686,89.238848,0.447388,1.07408468004,0,0,-0.671082,96.1, 2.9, 1.2,0,0,1024,1024,1024,1024,96.2,-89.9,97,4.037,4.055,4.068,4.076,4.037,4.065,19.138,89.6,14,Waypoint,
38.5374472,-120.3487207,5474.9542145686,90.2231,0.223694,0.90081695796,14700,2018-07-07 22:21:14,15,0,24.353,5474.9542145686,90.2231,0.447388,1.07408468004,0,0,-0.671082,96.1, 3.1, 1.1,0,0,1024,1024,1024,1024,96.2,-89.9,97,4.037,4.055,4.068,4.076,4.037,4.065,19.138,89.6,14,Waypoint,
38.5374472,-120.3487207,5475.9384665686,91.207352,0.223694,0.90081695796,14800,2018-07-07 22:21:14,15,0,24.353,5475.9384665686,91.207352,0.447388,1.07408468004,0,0,-0.671082,96, 3.2, 1.1,0,0,1024,1024,1024,1024,96.2,-89.9,97,4.037,4.055,4.068,4.076,4.037,4.065,19.138,89.6,14,Waypoint,
38.5374472,-120.3487207,5476.9227185686,92.191604,0.223694,0.90081695796,14900,2018-07-07 22:21:14,15,0,24.353,5476.9227185686,92.191604,0.447388,1.07408468004,0,0,-0.671082,95.9, 2.9, 1.3,0,0,1024,1024,1024,1024,96.2,-89.9,97,4.037,4.055,4.068,4.076,4.037,4.065,19.138,89.6,14,Waypoint,
38.5374472,-120.3487207,5477.9069705686,93.175856,0.223694,0.90081695796,15010,2018-07-07 22:21:14,15,0,24.271,5477.9069705686,93.175856,0.447388,1.07408468004,0,0,-0.671082,95.9, 2.6, 1.4,0,0,1024,1024,1024,1024,96.2,-89.9,97,4.025,4.048,4.058,4.071,4.038,4.059,19.023,89.6,14,Waypoint,
38.5374472,-120.3487207,5478.8912225686,94.160108,0.223694,0.90081695796,15100,2018-07-07 22:21:14,15,0,24.271,5478.8912225686,94.160108,0.447388,1.07408468004,0,0,-0.671082,95.9, 2.6, 1.5,0,0,1024,1024,1024,1024,96.2,-89.9,97,4.025,4.048,4.058,4.071,4.038,4.059,19.023,89.6,14,Waypoint,
38.5374472,-120.3487207,5479.8754745686,95.14436,0.223694,0.90081695796,15300,2018-07-07 22:21:15,15,0,24.271,5479.8754745686,95.14436,0.447388,1.07408468004,0,0,-0.671082,95.9, 2.8, 1.7,0,0,1024,1024,1024,1024,96.2,-89.9,97,4.025,4.048,4.058,4.071,4.038,4.059,19.023,89.6,14,Waypoint,
38.5374472,-120.3487206,5480.8597265686,96.128612,0.223694,0.92446853352,15400,2018-07-07 22:21:15,15,0,24.271,5480.8597265686,96.128612,0.447388,1.07408468004,0,0,-0.671082,95.8, 3.1, 1.7,0,0,1024,1024,1024,1024,96.2,-89.9,97,4.025,4.048,4.058,4.071,4.038,4.059,19.023,89.6,14,Waypoint,
38.5374473,-120.3487205,5481.8439785686,97.112864,0.223694,0.92924215572,15500,2018-07-07 22:21:15,15,0,24.271,5481.8439785686,97.112864,0.447388,1.07408468004,0,0,-0.671082,95.8, 3.2, 2,0,0,1024,1024,1024,1024,96.2,-89.9,97,4.025,4.048,4.058,4.071,4.038,4.059,19.023,89.6,14,Waypoint,
38.5374473,-120.3487205,5482.8282305686,98.097116,0.223694,0.92924215572,15600,2018-07-07 22:21:15,15,0,24.271,5482.8282305686,98.097116,0.447388,1.07408468004,0,0,-0.671082,95.8, 3.3, 2.2,0,0,1024,1024,1024,1024,96.2,-89.9,97,4.025,4.048,4.058,4.071,4.038,4.059,19.023,89.6,14,Waypoint,
38.5374473,-120.3487204,5483.8124825686,99.081368,0.223694,0.95389438748,15700,2018-07-07 22:21:15,15,0,24.271,5483.8124825686,99.081368,0.447388,1.07408468004,0,0,-0.671082,95.8, 3.3, 2.3,0,0,1024,1024,1024,1024,96.2,-89.9,97,4.025,4.048,4.058,4.071,4.038,4.059,19.023,89.6,14,Waypoint,
38.5374473,-120.3487203,5484.7967345686,100.06562,0.223694,0.97875987384,15800,2018-07-07 22:21:15,15,0,24.271,5484.7967345686,100.06562,0.447388,1.07408468004,0,0,-0.671082,95.8, 3.4, 2.1,0,0,1024,1024,1024,1024,96.2,-89.9,97,4.025,4.048,4.058,4.071,4.038,4.059,19.023,89.6,14,Waypoint,
38.5374473,-120.3487203,5485.7809865686,101.049872,0.223694,0.97875987384,15900,2018-07-07 22:21:15,15,0,24.271,5485.7809865686,101.049872,0.447388,1.07408468004,0,0,-0.671082,95.8, 3.6, 1.9,0,0,1024,1024,1024,1024,96.2,-89.9,97,4.025,4.048,4.058,4.071,4.038,4.059,19.023,89.6,14,Waypoint,
38.5374472,-120.3487202,5486.7652385686,102.034124,0.223694,1.02156171248,16000,2018-07-07 22:21:15,15,0,24.308,5486.7652385686,102.034124,0.447388,1.07408468004,0,0,-0.671082,95.8, 3.8, 1.7,0,0,1024,1024,1024,1024,96.2,-89.9,97,4.026,4.052,4.053,4.07,4.04,4.052,18.232,89.6,14,Waypoint,
38.5374472,-120.3487201,5487.7494905686,103.018376,0.223694,1.0463747054,16100,2018-07-07 22:21:15,15,0,24.308,5487.7494905686,103.018376,0.447388,1.07408468004,0,0,-0.671082,95.7, 3.9, 1.6,0,0,1024,1024,1024,1024,96.2,-89.9,97,4.026,4.052,4.053,4.07,4.04,4.052,18.232,89.6,14,Waypoint,
38.5374471,-120.3487201,5488.7337425686,104.002628,0,1.06466210756,16200,2018-07-07 22:21:16,15,0,24.308,5488.7337425686,104.002628,0.447388,1.07408468004,0,0,-0.671082,95.7, 4, 1.5,0,0,1024,1024,1024,1024,96.2,-89.9,97,4.026,4.052,4.053,4.07,4.04,4.052,18.232,89.6,14,Waypoint,
38.537447,-120.34872,5490.3741625686,105.643048,0.223694,1.108021689,16300,2018-07-07 22:21:16,15,0,24.308,5490.3741625686,105.643048,0.447388,1.108021689,0,0,-0.671082,95.6, 3.8, 1.2,0,0,1024,1024,1024,1024,96.2,-89.9,97,4.026,4.052,4.053,4.07,4.04,4.052,18.232,89.6,14,Waypoint,
38.5374469,-120.34872,5491.3584145686,106.6273,0,1.12767063976,16400,2018-07-07 22:21:16,15,0,24.308,5491.3584145686,106.6273,0.447388,1.12767063976,0,0,-0.671082,95.6, 3.7, 1.1,0,0,1024,1024,1024,1024,96.2,-89.9,97,4.026,4.052,4.053,4.07,4.04,4.052,18.232,89.6,14,Waypoint,
38.5374469,-120.34872,5492.3426665686,107.611552,0.223694,1.12767063976,16500,2018-07-07 22:21:16,15,0,24.308,5492.3426665686,107.611552,0.447388,1.12767063976,0,0,-0.671082,95.7, 3.7, 1.1,0,0,1024,1024,1024,1024,96.2,-89.9,97,4.026,4.052,4.053,4.07,4.04,4.052,18.232,89.6,14,Waypoint,
38.5374469,-120.34872,5493.3269185686,108.595804,0.223694,1.12767063976,16600,2018-07-07 22:21:16,15,0,24.308,5493.3269185686,108.595804,0.447388,1.12767063976,0,0,-0.671082,95.8, 3.7, 1.3,0,0,1024,1024,1024,1024,96.2,-89.9,97,4.026,4.052,4.053,4.07,4.04,4.052,18.232,89.6,14,Waypoint,
38.5374469,-120.34872,5494.3111705686,109.580056,0.223694,1.12767063976,16700,2018-07-07 22:21:16,15,0,24.308,5494.3111705686,109.580056,0.447388,1.12767063976,0,0,-0.671082,95.9, 3.8, 1.4,0,0,1024,1024,1024,1024,96.2,-89.9,97,4.026,4.052,4.053,4.07,4.04,4.052,18.232,89.6,14,Waypoint,
38.5374469,-120.34872,5495.2954225686,110.564308,0.223694,1.12767063976,16800,2018-07-07 22:21:16,15,0,24.308,5495.2954225686,110.564308,0.447388,1.12767063976,0,0,-0.671082,95.9, 3.8, 1.4,0,0,1024,1024,1024,1024,96.2,-89.9,97,4.026,4.052,4.053,4.07,4.04,4.052,18.232,89.6,14,Waypoint,
38.5374469,-120.34872,5496.2796745686,111.54856,0.223694,1.12767063976,16900,2018-07-07 22:21:16,15,0,24.308,5496.2796745686,111.54856,0.447388,1.12767063976,0,0,-0.671082,95.9, 3.8, 1.4,0,0,1024,1024,1024,1024,96.2,-89.9,97,4.026,4.052,4.053,4.07,4.04,4.052,18.232,89.6,14,Waypoint,
38.5374469,-120.3487199,5497.2639265686,112.532812,0.223694,1.15161092924,17000,2018-07-07 22:21:16,15,0,24.25,5497.2639265686,112.532812,0.447388,1.15161092924,0,0,-0.671082,95.8, 3.7, 1.5,0,0,1024,1024,1024,1024,96.2,-89.9,97,4.019,4.042,4.042,4.064,4.029,4.04,18.831,89.6,14,Waypoint,
38.5374469,-120.3487199,5498.2481785686,113.517064,0.223694,1.15161092924,17100,2018-07-07 22:21:16,15,0,24.25,5498.2481785686,113.517064,0.447388,1.15161092924,0,0,-0.671082,95.8, 3.8, 1.5,0,0,1024,1024,1024,1024,96.2,-89.9,97,4.019,4.042,4.042,4.064,4.029,4.04,18.831,89.6,14,Waypoint,
38.5374469,-120.34872,5500.2166825686,115.485568,0.223694,1.12767063976,17300,2018-07-07 22:21:17,15,0,24.25,5500.2166825686,115.485568,0.447388,1.15161092924,0,0,-0.671082,95.6, 3.6, 1.7,0,0,1024,1024,1024,1024,96.2,-89.9,97,4.019,4.042,4.042,4.064,4.029,4.04,18.831,89.6,14,Waypoint,
38.5374469,-120.34872,5501.2009345686,116.46982,0.223694,1.12767063976,17500,2018-07-07 22:21:17,15,0,24.25,5501.2009345686,116.46982,0.447388,1.15161092924,0,0,-0.671082,95.5, 3.5, 2.1,0,0,1024,1024,1024,1024,96.2,-90,97,4.019,4.042,4.042,4.064,4.029,4.04,18.831,89.6,14,Waypoint,
38.5374469,-120.34872,5502.1851865686,117.454072,0.223694,1.12767063976,17600,2018-07-07 22:21:17,15,0,24.25,5502.1851865686,117.454072,0.447388,1.15161092924,0,0,-0.671082,95.5, 3.6, 2.1,0,0,1024,1024,1024,1024,96.2,-89.9,97,4.019,4.042,4.042,4.064,4.029,4.04,18.831,89.6,14,Waypoint,
38.5374469,-120.34872,5503.1694385686,118.438324,0.223694,1.12767063976,17700,2018-07-07 22:21:17,15,0,24.25,5503.1694385686,118.438324,0.447388,1.15161092924,0,0,-0.671082,95.5, 3.6, 2,0,0,1024,1024,1024,1024,96.2,-89.9,97,4.019,4.042,4.042,4.064,4.029,4.04,18.831,89.6,14,Waypoint,
38.5374469,-120.34872,5504.1536905686,119.422576,0.223694,1.12767063976,17800,2018-07-07 22:21:17,15,0,24.25,5504.1536905686,119.422576,0.447388,1.15161092924,0,0,-0.671082,95.6, 3.7, 1.8,0,0,1024,1024,1024,1024,96.2,-89.9,97,4.019,4.042,4.042,4.064,4.029,4.04,18.831,89.6,14,Waypoint,
38.5374469,-120.34872,5505.1379425686,120.406828,0.223694,1.12767063976,17900,2018-07-07 22:21:17,15,0,24.25,5505.1379425686,120.406828,0.447388,1.15161092924,0,0,-0.671082,95.6, 3.7, 1.8,0,0,1024,1024,1024,1024,96.2,-89.9,97,4.019,4.042,4.042,4.064,4.029,4.04,18.831,89.6,14,Waypoint,
38.5374468,-120.34872,5506.1221945686,121.39108,0.223694,1.14813980052,18000,2018-07-07 22:21:17,15,0,24.2,5506.1221945686,121.39108,0.447388,1.15161092924,0,0,-0.671082,95.7, 3.8, 1.6,0,0,1024,1024,1024,1024,96.2,-89.9,97,4.003,4.036,4.035,4.05,4.023,4.037,18.923,89.6,14,Waypoint,
38.5374468,-120.34872,5507.1064465686,122.375332,0.223694,1.14813980052,18100,2018-07-07 22:21:17,15,0,24.2,5507.1064465686,122.375332,0.447388,1.15161092924,0,0,-0.671082,95.8, 3.8, 1.6,0,0,1024,1024,1024,1024,96.2,-89.9,97,4.003,4.036,4.035,4.05,4.023,4.037,18.923,89.6,14,Waypoint,
38.5374468,-120.34872,5508.0906985686,123.359584,0.223694,1.14813980052,18200,2018-07-07 22:21:18,15,0,24.2,5508.0906985686,123.359584,0.447388,1.15161092924,0,0,-0.671082,95.8, 3.8, 1.5,0,0,1024,1024,1024,1024,96.2,-89.9,97,4.003,4.036,4.035,4.05,4.023,4.037,18.923,89.6,14,Waypoint,
38.5374467,-120.3487201,5510.0592025686,125.328088,0.223694,1.14653546976,18300,2018-07-07 22:21:18,15,0,24.2,5510.0592025686,125.328088,0.447388,1.15161092924,0,0,-0.671082,95.8, 3.8, 1.3,0,0,1024,1024,1024,1024,96.2,-89.9,97,4.003,4.036,4.035,4.05,4.023,4.037,18.923,89.6,14,Waypoint,
38.5374466,-120.3487201,5512.0277065686,127.296592,0.223694,1.16895673032,18500,2018-07-07 22:21:18,15,0,24.2,5512.0277065686,127.296592,0.447388,1.16895673032,0,0,-0.671082,95.7, 3.9, 1.1,0,0,1024,1024,1024,1024,96.2,-89.9,97,4.003,4.036,4.035,4.05,4.023,4.037,18.923,89.6,14,Waypoint,
38.5374465,-120.3487201,5513.0119585686,128.280844,0.223694,1.19207024812,18600,2018-07-07 22:21:18,15,0,24.2,5513.0119585686,128.280844,0.447388,1.19207024812,0,0,-0.671082,95.7, 3.8, 1.2,0,0,1024,1024,1024,1024,96.2,-89.9,97,4.003,4.036,4.035,4.05,4.023,4.037,18.923,89.6,14,Waypoint,
38.5374465,-120.3487201,5513.9962105686,129.265096,0.223694,1.19207024812,18700,2018-07-07 22:21:18,15,0,24.2,5513.9962105686,129.265096,0.447388,1.19207024812,0,0,-0.671082,95.7, 3.7, 1.4,0,0,1024,1024,1024,1024,96.2,-90,97,4.003,4.036,4.035,4.05,4.023,4.037,18.923,89.6,14,Waypoint,
38.5374466,-120.3487202,5514.9804625686,130.249348,0.223694,1.14679793696,18800,2018-07-07 22:21:18,15,0,24.2,5514.9804625686,130.249348,0.447388,1.19207024812,0,0,-0.671082,95.7, 3.5, 1.6,0,0,1024,1024,1024,1024,96.2,-90,97,4.003,4.036,4.035,4.05,4.023,4.037,18.923,89.6,14,Waypoint,
38.5374466,-120.3487202,5515.9647145686,131.2336,0.223694,1.14679793696,18900,2018-07-07 22:21:18,15,0,24.2,5515.9647145686,131.2336,0.447388,1.19207024812,0,0,-0.671082,95.6, 3.4, 1.5,0,0,1024,1024,1024,1024,96.2,-90,97,4.003,4.036,4.035,4.05,4.023,4.037,18.923,89.6,14,Waypoint,
38.5374466,-120.3487203,5516.9489665686,132.217852,0.223694,1.12492785752,19000,2018-07-07 22:21:18,15,0,24.18,5516.9489665686,132.217852,0.447388,1.19207024812,0,0,-0.671082,95.6, 3.3, 1.7,0,0,1024,1024,1024,1024,96.2,-90,97,4.004,4.021,4.049,4.051,4.007,4.043,19.366,89.6,14,Waypoint,
38.5374466,-120.3487204,5517.9332185686,133.202104,0.223694,1.1033628962,19100,2018-07-07 22:21:18,15,0,24.18,5517.9332185686,133.202104,0.447388,1.19207024812,0,0,-0.671082,95.6, 3.1, 2,0,0,1024,1024,1024,1024,96.2,-90,97,4.004,4.021,4.049,4.051,4.007,4.043,19.366,89.6,14,Waypoint,
38.5374466,-120.3487204,5518.9174705686,134.186356,0.223694,1.1033628962,19200,2018-07-07 22:21:19,15,0,24.18,5518.9174705686,134.186356,0.447388,1.19207024812,0,0,-0.671082,95.6, 3.2, 2.1,0,0,1024,1024,1024,1024,96.2,-89.9,97,4.004,4.021,4.049,4.051,4.007,4.043,19.366,89.6,14,Waypoint,
38.5374467,-120.3487204,5519.9017225686,135.170608,0.223694,1.07958336788,19300,2018-07-07 22:21:19,15,0,24.18,5519.9017225686,135.170608,0.447388,1.19207024812,0,0,-0.671082,95.6, 3.3, 2.1,0,0,1024,1024,1024,1024,96.2,-90,97,4.004,4.021,4.049,4.051,4.007,4.043,19.366,89.6,14,Waypoint,
38.5374467,-120.3487205,5521.8702265686,137.139112,0.223694,1.05786420708,19500,2018-07-07 22:21:19,15,0,24.18,5521.8702265686,137.139112,0.447388,1.19207024812,0,0,-0.671082,95.5, 3.4, 2.3,0,0,1024,1024,1024,1024,96.2,-89.9,97,4.004,4.021,4.049,4.051,4.007,4.043,19.366,89.6,14,Waypoint,
38.5374467,-120.3487205,5522.8544785686,138.123364,0.223694,1.05786420708,19600,2018-07-07 22:21:19,15,0,24.18,5522.8544785686,138.123364,0.447388,1.19207024812,0,0,-0.671082,95.5, 3.5, 2.2,0,0,1024,1024,1024,1024,96.2,-89.9,97,4.004,4.021,4.049,4.051,4.007,4.043,19.366,89.6,14,Waypoint,
38.5374467,-120.3487205,5523.8387305686,139.107616,0.223694,1.05786420708,19800,2018-07-07 22:21:19,15,0,24.18,5523.8387305686,139.107616,0.447388,1.19207024812,0,0,-0.671082,95.6, 3.7, 2,0,0,1024,1024,1024,1024,96.2,-89.9,97,4.004,4.021,4.049,4.051,4.007,4.043,19.366,89.6,14,Waypoint,
38.5374467,-120.3487205,5525.8072345686,141.07612,0.223694,1.05786420708,19900,2018-07-07 22:21:19,15,0,24.18,5525.8072345686,141.07612,0.447388,1.19207024812,0,0,-0.671082,95.6, 3.9, 1.7,0,0,1024,1024,1024,1024,96.2,-89.9,97,4.004,4.021,4.049,4.051,4.007,4.043,19.366,89.6,14,Waypoint,
38.5374467,-120.3487205,5526.7914865686,142.060372,0.223694,1.05786420708,20100,2018-07-07 22:21:19,15,0,24.18,5526.7914865686,142.060372,0.447388,1.19207024812,0,0,-0.671082,95.6, 3.9, 1.6,0,0,1024,1024,1024,1024,96.2,-89.9,97,4.004,4.021,4.049,4.051,4.007,4.043,19.366,89.6,14,Waypoint,
38.5374467,-120.3487205,5527.7757385686,143.044624,0.223694,1.05786420708,20200,2018-07-07 22:21:20,15,0,24.18,5527.7757385686,143.044624,0.447388,1.19207024812,0,0,-0.671082,95.7, 3.8, 1.7,0,0,1024,1024,1024,1024,96.2,-89.9,97,4.004,4.021,4.049,4.051,4.007,4.043,19.366,89.6,14,Waypoint,
38.5374467,-120.3487205,5528.7599905686,144.028876,0.223694,1.05786420708,20300,2018-07-07 22:21:20,15,0,24.18,5528.7599905686,144.028876,0.447388,1.19207024812,0,0,-0.671082,95.8, 3.6, 1.9,0,0,1024,1024,1024,1024,96.2,-89.9,97,4.004,4.021,4.049,4.051,4.007,4.043,19.366,89.6,14,Waypoint,
38.5374468,-120.3487205,5529.7442425686,145.013128,0.223694,1.03432089924,20400,2018-07-07 22:21:20,15,0,24.18,5529.7442425686,145.013128,0.447388,1.19207024812,0,0,-0.671082,95.8, 3.7, 2.1,0,0,1024,1024,1024,1024,96.2,-89.9,97,4.004,4.021,4.049,4.051,4.007,4.043,19.366,89.6,14,Waypoint,
38.5374468,-120.3487206,5530.7284945686,145.99738,0.223694,1.0124344156,20500,2018-07-07 22:21:20,15,0,24.18,5530.7284945686,145.99738,0.447388,1.19207024812,0,0,-0.671082,95.9, 3.9, 2.3,0,0,1024,1024,1024,1024,96.2,-89.9,97,4.004,4.021,4.049,4.051,4.007,4.043,19.366,89.6,14,Waypoint,
38.5374468,-120.3487206,5531.7127465686,146.981632,0.223694,1.0124344156,20600,2018-07-07 22:21:20,15,0,24.18,5531.7127465686,146.981632,0.447388,1.19207024812,0,0,-0.671082,95.8, 4, 2.2,0,0,1024,1024,1024,1024,96.2,-89.9,97,4.004,4.021,4.049,4.051,4.007,4.043,19.366,89.6,14,Waypoint,
38.5374468,-120.3487206,5533.6812505686,148.950136,0.223694,1.0124344156,20700,2018-07-07 22:21:20,16,0,24.18,5533.6812505686,148.950136,0.447388,1.19207024812,0,0,-0.671082,95.8, 4, 2.3,0,0,1024,1024,1024,1024,96.2,-89.9,97,4.004,4.021,4.049,4.051,4.007,4.043,19.366,89.6,14,Waypoint,
38.5374469,-120.3487207,5534.6655025686,149.934388,0.223694,0.9670932068,20800,2018-07-07 22:21:20,16,0,24.18,5534.6655025686,149.934388,0.447388,1.19207024812,0,0,-0.671082,95.8, 3.8, 2.3,0,0,1024,1024,1024,1024,96.2,-90,97,4.004,4.021,4.049,4.051,4.007,4.043,19.366,89.6,14,Waypoint,
38.5374469,-120.3487207,5535.6497545686,150.91864,0.223694,0.9670932068,20900,2018-07-07 22:21:20,16,0,24.18,5535.6497545686,150.91864,0.447388,1.19207024812,0,0,-0.671082,95.7, 3.8, 2.4,0,0,1024,1024,1024,1024,96.2,-89.9,97,4.004,4.021,4.049,4.051,4.007,4.043,19.366,89.6,14,Waypoint,
38.5374469,-120.3487207,5536.6340065686,151.902892,0.223694,0.9670932068,21000,2018-07-07 22:21:20,16,0,24.173,5536.6340065686,151.902892,0.447388,1.19207024812,0,0,-0.671082,95.7, 3.8, 2.6,0,0,1024,1024,1024,1024,96.2,-89.9,97,4.004,4.035,4.039,4.054,4.023,4.039,18.887,91.4,14,Waypoint,
38.537447,-120.3487207,5537.6182585686,152.887144,0.223694,0.9441109226,21100,2018-07-07 22:21:20,16,0,24.173,5537.6182585686,152.887144,0.447388,1.19207024812,0,0,-0.671082,95.7, 3.8, 2.9,0,0,1024,1024,1024,1024,96.2,-89.9,97,4.004,4.035,4.039,4.054,4.023,4.039,18.887,91.4,14,Waypoint,
38.537447,-120.3487207,5538.6025105686,153.871396,0.223694,0.9441109226,21200,2018-07-07 22:21:21,16,0,24.173,5538.6025105686,153.871396,0.447388,1.19207024812,0,0,-0.671082,95.8, 3.6, 3,0,0,1024,1024,1024,1024,96.2,-89.9,97,4.004,4.035,4.039,4.054,4.023,4.039,18.887,91.4,14,Waypoint,
38.537447,-120.3487207,5539.5867625686,154.855648,0.223694,0.9441109226,21300,2018-07-07 22:21:21,16,0,24.173,5539.5867625686,154.855648,0.447388,1.19207024812,0,0,-0.671082,95.8, 3.6, 3,0,0,1024,1024,1024,1024,96.2,-89.9,97,4.004,4.035,4.039,4.054,4.023,4.039,18.887,91.4,14,Waypoint,
38.537447,-120.3487207,5540.5710145686,155.8399,0.223694,0.9441109226,21400,2018-07-07 22:21:21,16,0,24.173,5540.5710145686,155.8399,0.447388,1.19207024812,0,0,-0.671082,95.9, 3.8, 2.8,0,0,1024,1024,1024,1024,96.2,-89.9,97,4.004,4.035,4.039,4.054,4.023,4.039,18.887,91.4,14,Waypoint,
38.537447,-120.3487207,5541.5552665686,156.824152,0.223694,0.9441109226,21500,2018-07-07 22:21:21,16,0,24.173,5541.5552665686,156.824152,0.447388,1.19207024812,0,0,-0.671082,95.9, 4.1, 2.3,0,0,1024,1024,1024,1024,96.2,-89.9,97,4.004,4.035,4.039,4.054,4.023,4.039,18.887,91.4,14,Waypoint,
38.5374469,-120.3487207,5542.5395185686,157.808404,0.223694,0.9670932068,21600,2018-07-07 22:21:21,16,0,24.173,5542.5395185686,157.808404,0.447388,1.19207024812,0,0,-0.671082,95.9, 4.1, 2.4,0,0,1024,1024,1024,1024,96.2,-90,97,4.004,4.035,4.039,4.054,4.023,4.039,18.887,91.4,14,Waypoint,
38.5374469,-120.3487207,5543.5237705686,158.792656,0.223694,0.9670932068,21700,2018-07-07 22:21:21,16,0,24.173,5543.5237705686,158.792656,0.447388,1.19207024812,0,0,-0.671082,95.9, 4, 2.2,0,0,1024,1024,1024,1024,96.2,-90,97,4.004,4.035,4.039,4.054,4.023,4.039,18.887,91.4,14,Waypoint,
38.5374469,-120.3487207,5544.5080225686,159.776908,0.223694,0.9670932068,21800,2018-07-07 22:21:21,16,0,24.173,5544.5080225686,159.776908,0.447388,1.19207024812,0,0,-0.671082,95.8, 3.8, 2.2,0,0,1024,1024,1024,1024,96.2,-90,97,4.004,4.035,4.039,4.054,4.023,4.039,18.887,91.4,14,Waypoint,
38.5374469,-120.3487207,5545.4922745686,160.76116,0.223694,0.9670932068,21900,2018-07-07 22:21:21,16,0,24.173,5545.4922745686,160.76116,0.447388,1.19207024812,0,0,-0.671082,95.7, 4, 2.2,0,0,1024,1024,1024,1024,96.2,-89.9,97,4.004,4.035,4.039,4.054,4.023,4.039,18.887,91.4,14,Waypoint,
38.5374468,-120.3487208,5547.4607785686,162.729664,0.223694,0.9697014746,22100,2018-07-07 22:21:21,16,0,24.173,5547.4607785686,162.729664,0.447388,1.19207024812,0,0,-0.671082,95.6, 4, 1.9,0,0,1024,1024,1024,1024,96.2,-89.9,97,4.004,4.035,4.039,4.054,4.023,4.039,18.887,91.4,14,Waypoint,
38.5374468,-120.3487207,5548.4450305686,163.713916,0.223694,0.99088913932,22300,2018-07-07 22:21:22,16,0,24.173,5548.4450305686,163.713916,0.447388,1.19207024812,0,0,-0.671082,95.6, 4, 1.7,0,0,1024,1024,1024,1024,96.1,-89.9,97,4.004,4.035,4.039,4.054,4.023,4.039,18.887,91.4,14,Waypoint,
38.5374468,-120.3487208,5549.4292825686,164.698168,0.223694,0.9697014746,22400,2018-07-07 22:21:22,16,0,24.173,5549.4292825686,164.698168,0.447388,1.19207024812,0,0,-0.671082,95.6, 4.2, 1.5,0,0,1024,1024,1024,1024,96.2,-89.9,97,4.004,4.035,4.039,4.054,4.023,4.039,18.887,91.4,14,Waypoint,
38.5374468,-120.3487208,5550.4135345686,165.68242,0.223694,0.9697014746,22500,2018-07-07 22:21:22,16,0,24.173,5550.4135345686,165.68242,0.447388,1.19207024812,0,0,-0.671082,95.6, 4.3, 1.4,0,0,1024,1024,1024,1024,96.2,-89.9,97,4.004,4.035,4.039,4.054,4.023,4.039,18.887,91.4,14,Waypoint,
38.5374468,-120.3487208,5551.3977865686,166.666672,0.223694,0.9697014746,22600,2018-07-07 22:21:22,16,0,24.173,5551.3977865686,166.666672,0.447388,1.19207024812,0,0,-0.671082,95.6, 4.4, 1.5,0,0,1024,1024,1024,1024,96.2,-89.9,97,4.004,4.035,4.039,4.054,4.023,4.039,18.887,91.4,14,Waypoint,
38.5374469,-120.3487208,5553.3662905686,168.635176,0.223694,0.945374046,22700,2018-07-07 22:21:22,16,0,24.173,5553.3662905686,168.635176,0.447388,1.19207024812,0,0,-0.671082,95.7, 4.1, 2.2,0,0,1024,1024,1024,1024,96.2,-90,97,4.004,4.035,4.039,4.054,4.023,4.039,18.887,91.4,14,Waypoint,
38.5374471,-120.3487209,5555.3347945686,170.60368,0.223694,0.87671590732,22900,2018-07-07 22:21:22,16,0,24.173,5555.3347945686,170.60368,0.447388,1.19207024812,0,0,-0.671082,95.8, 3.9, 2.6,0,0,1024,1024,1024,1024,96.2,-89.9,97,4.004,4.035,4.039,4.054,4.023,4.039,18.887,91.4,14,Waypoint,
38.5374471,-120.348721,5555.9909625686,171.259848,0.223694,0.85460632656,23000,2018-07-07 22:21:22,16,0,24.097,5555.9909625686,171.259848,0.447388,1.19207024812,0,0,-0.671082,95.8, 3.9, 2.8,0,0,1024,1024,1024,1024,96.2,-90,97,4,4.029,4.035,4.055,4.018,4.035,19.581,91.4,14,Waypoint,
38.5374472,-120.348721,5556.9752145686,172.2441,0.223694,0.83171590588,23100,2018-07-07 22:21:22,16,0,24.097,5556.9752145686,172.2441,0.447388,1.19207024812,0,0,-0.671082,95.8, 3.9, 2.8,0,0,1024,1024,1024,1024,96.2,-89.9,97,4,4.029,4.035,4.055,4.018,4.035,19.581,91.4,14,Waypoint,
38.5374473,-120.3487211,5557.9594665686,173.228352,0.223694,0.78686682308,23200,2018-07-07 22:21:23,16,0,24.097,5557.9594665686,173.228352,0.447388,1.19207024812,0,0,-0.671082,95.8, 3.8, 3.2,0,0,1024,1024,1024,1024,96.2,-90,97,4,4.029,4.035,4.055,4.018,4.035,19.581,91.4,14,Waypoint,
38.5374475,-120.3487211,5559.9279705686,175.196856,0.223694,0.745160785,23400,2018-07-07 22:21:23,17,0,24.097,5559.9279705686,175.196856,0.447388,1.19207024812,0,0,-0.671082,95.7, 3.8, 3.6,0,0,1024,1024,1024,1024,96.1,-89.9,97,4,4.029,4.035,4.055,4.018,4.035,19.581,91.4,14,Waypoint,
38.5374475,-120.3487211,5560.9122225686,176.181108,0.223694,0.745160785,23500,2018-07-07 22:21:23,17,0,24.097,5560.9122225686,176.181108,0.447388,1.19207024812,0,0,-0.671082,95.7, 3.8, 3.4,0,0,1024,1024,1024,1024,96.2,-89.9,97,4,4.029,4.035,4.055,4.018,4.035,19.581,91.4,14,Waypoint,
38.5374476,-120.3487212,5561.8964745686,177.16536,0.223694,0.70163059988,23600,2018-07-07 22:21:23,17,0,24.097,5561.8964745686,177.16536,0.447388,1.19207024812,0,0,-0.671082,95.7, 3.9, 3,0,0,1024,1024,1024,1024,96.2,-89.9,97,4,4.029,4.035,4.055,4.018,4.035,19.581,91.4,14,Waypoint,
38.5374476,-120.3487212,5563.2088105686,178.477696,0.223694,0.70163059988,23700,2018-07-07 22:21:23,17,0,24.097,5563.2088105686,178.477696,0.447388,1.19207024812,0,0,-0.671082,95.7, 3.7, 2.8,0,0,1024,1024,1024,1024,96.2,-89.9,97,4,4.029,4.035,4.055,4.018,4.035,19.581,91.4,14,Waypoint,
38.5374475,-120.3487213,5564.1930625686,179.461948,0.223694,0.69774608532,23800,2018-07-07 22:21:23,17,0,24.097,5564.1930625686,179.461948,0.447388,1.19207024812,0,0,-0.671082,95.7, 3.4, 2.7,0,0,1024,1024,1024,1024,96.2,-90,97,4,4.029,4.035,4.055,4.018,4.035,19.581,91.4,14,Waypoint,
38.5374475,-120.3487213,5565.1773145686,180.4462,0.223694,0.69774608532,24000,2018-07-07 22:21:23,17,0,24.097,5565.1773145686,180.4462,0.447388,1.19207024812,0,0,-0.671082,95.8, 3.3, 2.6,0,0,1024,1024,1024,1024,96.2,-90,97,3.986,4.012,4.033,4.036,3.993,4.023,19.581,91.4,14,Waypoint,
38.5374475,-120.3487214,5567.1458185686,182.414704,0,0.67459975912,24100,2018-07-07 22:21:23,17,0,24.097,5567.1458185686,182.414704,0.447388,1.19207024812,0,0,-0.671082,95.7, 3.6, 2.3,0,0,1024,1024,1024,1024,96.2,-89.9,97,3.986,4.012,4.033,4.036,3.993,4.023,19.581,91.4,14,Waypoint,
38.5374475,-120.3487214,5567.1458185686,182.414704,0,0.67459975912,24200,2018-07-07 22:21:24,17,0,24.097,5567.1458185686,182.414704,0.447388,1.19207024812,0,0,-0.671082,95.7, 3.6, 2.3,0,0,1024,1024,1024,1024,96.2,-89.9,97,3.986,4.012,4.033,4.036,3.993,4.023,19.581,91.4,14,Waypoint,
38.5374475,-120.3487214,5568.1300705686,183.398956,0,0.67459975912,24300,2018-07-07 22:21:24,17,0,24.097,5568.1300705686,183.398956,0.447388,1.19207024812,0,0,-0.671082,95.7, 3.9, 2,0,0,1024,1024,1024,1024,96.2,-89.9,97,3.986,4.012,4.033,4.036,3.993,4.023,19.581,91.4,14,Waypoint,
38.5374474,-120.3487214,5569.1143225686,184.383208,0,0.69692259448,24400,2018-07-07 22:21:24,17,0,24.097,5569.1143225686,184.383208,0.447388,1.19207024812,0,0,-0.671082,95.7, 4.1, 1.8,0,0,1024,1024,1024,1024,96.2,-89.9,97,3.986,4.012,4.033,4.036,3.993,4.023,19.581,91.4,14,Waypoint,
38.5374473,-120.3487214,5570.0985745686,185.36746,0,0.72040356636,24500,2018-07-07 22:21:24,17,0,24.097,5570.0985745686,185.36746,0.447388,1.19207024812,0,0,-0.671082,95.8, 4, 1.9,0,0,1024,1024,1024,1024,96.2,-89.9,97,3.986,4.012,4.033,4.036,3.993,4.023,19.581,91.4,14,Waypoint,
38.5374473,-120.3487214,5571.0828265686,186.351712,0,0.72040356636,24600,2018-07-07 22:21:24,17,0,24.097,5571.0828265686,186.351712,0.447388,1.19207024812,0,0,-0.671082,95.8, 4, 1.8,0,0,1024,1024,1024,1024,96.2,-89.9,97,3.986,4.012,4.033,4.036,3.993,4.023,19.581,91.4,14,Waypoint,
38.5374473,-120.3487214,5572.0670785686,187.335964,0,0.72040356636,24700,2018-07-07 22:21:24,17,0,24.097,5572.0670785686,187.335964,0.447388,1.19207024812,0,0,-0.671082,95.8, 4, 1.9,0,0,1024,1024,1024,1024,96.2,-89.9,97,3.986,4.012,4.033,4.036,3.993,4.023,19.581,91.4,14,Waypoint,
38.5374473,-120.3487214,5573.0513305686,188.320216,0.223694,0.72040356636,24800,2018-07-07 22:21:24,17,0,24.097,5573.0513305686,188.320216,0.447388,1.19207024812,0,0,-0.671082,95.8, 4, 2.2,0,0,1024,1024,1024,1024,96.2,-89.9,97,3.986,4.012,4.033,4.036,3.993,4.023,19.581,91.4,14,Waypoint,
38.5374473,-120.3487214,5574.0355825686,189.304468,0.223694,0.72040356636,24900,2018-07-07 22:21:24,17,0,24.097,5574.0355825686,189.304468,0.447388,1.19207024812,0,0,-0.671082,95.8, 4, 2.4,0,0,1024,1024,1024,1024,96.2,-89.9,97,3.986,4.012,4.033,4.036,3.993,4.023,19.581,91.4,14,Waypoint,
38.5374473,-120.3487214,5575.0198345686,190.28872,0.223694,0.72040356636,25000,2018-07-07 22:21:24,16,0,24.067,5575.0198345686,190.28872,0.447388,1.19207024812,0,0,-0.671082,95.7, 4.1, 2.6,0,0,1024,1024,1024,1024,96.2,-89.9,97,3.984,4.002,4.017,4.034,3.99,4.017,19.906,91.4,14,Waypoint,
38.5374473,-120.3487214,5576.9883385686,192.257224,0.223694,0.72040356636,25100,2018-07-07 22:21:24,16,0,24.067,5576.9883385686,192.257224,0.447388,1.19207024812,0,0,-0.671082,95.5, 3.8, 2.6,0,0,1024,1024,1024,1024,96.2,-90,97,3.984,4.002,4.017,4.034,3.99,4.017,19.906,91.4,14,Waypoint,
38.5374474,-120.3487214,5578.9568425686,194.225728,0.223694,0.69692259448,25300,2018-07-07 22:21:25,16,0,24.067,5578.9568425686,194.225728,0.447388,1.19207024812,0,0,-0.671082,95.3, 3.7, 2.8,0,0,1024,1024,1024,1024,96.2,-89.9,97,3.984,4.002,4.017,4.034,3.99,4.017,19.906,91.4,14,Waypoint,
38.5374474,-120.3487214,5579.9410945686,195.20998,0.223694,0.69692259448,25500,2018-07-07 22:21:25,16,0,24.067,5579.9410945686,195.20998,0.447388,1.19207024812,0,0,-0.671082,95.3, 3.7, 3.1,0,0,1024,1024,1024,1024,96.2,-89.9,97,3.984,4.002,4.017,4.034,3.99,4.017,19.906,91.4,14,Waypoint,
38.5374474,-120.3487214,5580.9253465686,196.194232,0.223694,0.69692259448,25600,2018-07-07 22:21:25,16,0,24.067,5580.9253465686,196.194232,0.447388,1.19207024812,0,0,-0.671082,95.4, 3.8, 3.6,0,0,1024,1024,1024,1024,96.2,-90,97,3.984,4.002,4.017,4.034,3.99,4.017,19.906,91.4,14,Waypoint,
38.5374474,-120.3487214,5583.2219345686,198.49082,0.223694,0.69692259448,25700,2018-07-07 22:21:25,16,0,24.067,5583.2219345686,198.49082,0.447388,1.19207024812,0,0,-0.671082,95.5, 4.1, 4,0,0,1024,1024,1024,1024,96.2,-89.9,97,3.984,4.002,4.017,4.034,3.99,4.017,19.906,91.4,14,Waypoint,
38.5374474,-120.3487214,5584.2061865686,199.475072,0.223694,0.69692259448,25800,2018-07-07 22:21:25,16,0,24.067,5584.2061865686,199.475072,0.447388,1.19207024812,0,0,-0.671082,95.5, 3.8, 3.7,0,0,1024,1024,1024,1024,96.2,-89.9,97,3.984,4.002,4.017,4.034,3.99,4.017,19.906,91.4,14,Waypoint,
38.5374473,-120.3487215,5585.1904385686,200.459324,0,0.69917653156,25900,2018-07-07 22:21:25,16,0,24.067,5585.1904385686,200.459324,0.447388,1.19207024812,0,0,-0.671082,95.6, 3.6, 3.2,0,0,1024,1024,1024,1024,96.2,-90,97,3.984,4.002,4.017,4.034,3.99,4.017,19.906,91.4,14,Waypoint,
38.5374472,-120.3487215,5586.1746905686,201.443576,0,0.72442259536,26000,2018-07-07 22:21:25,16,0,24.019,5586.1746905686,201.443576,0.447388,1.19207024812,0,0,-0.671082,95.6, 3.2, 2.7,0,0,1024,1024,1024,1024,96.2,-89.9,97,3.964,3.994,4.021,4.026,3.986,4.018,19.806,91.4,14,Waypoint,
38.5374471,-120.3487216,5587.1589425686,202.427828,0,0.73135829112,26100,2018-07-07 22:21:25,17,0,24.019,5587.1589425686,202.427828,0.447388,1.19207024812,0,0,-0.671082,95.5, 3.1, 2.3,0,0,1024,1024,1024,1024,96.2,-90,97,3.964,3.994,4.021,4.026,3.986,4.018,19.806,91.4,14,Waypoint,
38.5374469,-120.3487216,5588.7993625686,204.068248,0,0.7874508126,26300,2018-07-07 22:21:26,17,0,24.019,5588.7993625686,204.068248,0.447388,1.19207024812,0,0,-0.671082,95.8, 3.2, 1.4,0,0,1024,1024,1024,1024,96.2,-90,97,3.964,3.994,4.021,4.026,3.986,4.018,19.806,91.4,14,Waypoint,
38.5374468,-120.3487216,5589.7836145686,205.0525,0,0.81649936996,26400,2018-07-07 22:21:26,17,0,24.019,5589.7836145686,205.0525,0.447388,1.19207024812,0,0,-0.671082,95.9, 3.4, 1.2,0,0,1024,1024,1024,1024,96.2,-89.9,97,3.964,3.994,4.021,4.026,3.986,4.018,19.806,91.4,14,Waypoint,
