Latitude, Longitude, Altitude (m), Time, Sats, Speed (m/s), Range (m), Battery (%), Roll (deg), Pitch (deg), Yaw (deg), Images, HD Signal (%), RC Signal (%), Battery Temp (C), Battery Voltage (mV), Battery Current (mA), Battery Energy (mAh), Battery Capacity (mAh), Battery Discharges, flyState, timestamp (Unix), LastUpdate (ms), radioChannel, Rc_elevator, Rc_aileron, Rc_throttle, Rc_rudder, Rc_gyro, Dronetype, Battery_Cell1 (mV), Battery_Cell2 (mV), Battery_Cell3 (mV), Battery_Cell4 (mV), Battery_Cell5 (mV), Battery_Cell6 (mV), Video, isFlying, elapsedTime (ms), gimbalPitch (deg), gimbalRoll (deg), gimbalYaw (deg), VelocityX (m/s), VelocityY (m/s), VelocityZ (m/s), GroundSmear (cm), App Version, Aircraft Name, Aircraft Firmware, Aircraft Serial Number, Battery Serial Number, Battery Lifetime (%), App_Tip, App_Warning, CurrentFlightStartingIndex, CurrentFlightLastVisitedWaypoint, PreviousFlightEndingWaypointIndex
38.0861581, -120.2285455, 0.000, 09:43:26.804, 11, 0.00, 0.14, 91, -0.700, 0.900, -79.300, 855, 100, 100, 18, 24206, -3652, 5014, 5510, 10, 11, 1525970606.805, 13, 0, 1024, 1024, 1024, 1024, 0, 6, 4049, 4056, 4040, 4025, 4047, 4067, 0, 1, 3135, -89.900, 0.000, -80.000, 0.000, 0.000, -0.300, 0.0, MapPilot_2.8.1_04242018, Dendroctonus I, 1.3.1.00, 041DDC1887, 1058171200154, 98, DJI_0854.jpg, Starting Mission from Lat/Long: 38.08617/-120.22854 Camera: Zenmuse X3 - Overlap: 90/90 - Active Connection: No, 39, 39, 39
38.0861581, -120.2285455, 0.000, 09:43:26.874, 12, 0.00, 0.15, 91, -0.200, 0.800, -79.200, 855, 100, 100, 18, 24206, -3652, 5014, 5510, 10, 11, 1525970606.875, 41, 0, 1024, 1024, 1024, 1024, 0, 6, 4049, 4056, 4040, 4025, 4047, 4067, 0, 1, 3205, -89.900, 0.000, -80.000, 0.000, 0.000, -0.400, 0.0, , , , , , 98, , , 39, 39, 39
38.0861581, -120.2285456, 0.100, 09:43:26.974, 12, 0.00, 0.15, 91, 0.000, 0.500, -79.200, 855, 100, 100, 18, 24206, -3652, 5014, 5510, 10, 11, 1525970606.974, 72, 0, 1024, 1024, 1024, 1024, 0, 6, 4049, 4056, 4040, 4025, 4047, 4067, 0, 1, 3304, -89.900, 0.000, -80.000, 0.000, 0.000, -0.400, 0.0, , , , , , 98, , , 39, 39, 39
38.0861581, -120.2285456, 0.100, 09:43:27.075, 12, 0.00, 0.15, 91, 0.100, 0.300, -79.200, 855, 100, 100, 18, 24206, -3652, 5014, 5510, 10, 11, 1525970607.075, 59, 0, 1024, 1024, 1024, 1024, 0, 6, 4049, 4056, 4040, 4025, 4047, 4067, 0, 1, 3405, -89.900, 0.000, -80.000, 0.000, 0.000, -0.500, 0.0, , , , , , 98, , , 39, 39, 39
38.0861581, -120.2285456, 0.100, 09:43:27.170, 12, 0.00, 0.15, 91, 0.100, 0.300, -79.200, 855, 100, 100, 18, 24206, -3652, 5014, 5510, 10, 11, 1525970607.171, 154, 0, 1024, 1024, 1024, 1024, 0, 6, 4049, 4056, 4040, 4025, 4047, 4067, 0, 1, 3501, -89.900, 0.000, -80.000, 0.000, 0.000, -0.500, 0.0, , , , , , 98, , , 39, 39, 39
38.0861580, -120.2285457, 0.200, 09:43:27.274, 12, 0.00, 0.16, 91, 0.000, 0.400, -79.600, 855, 100, 100, 18, 23273, -9961, 5014, 5510, 10, 11, 1525970607.275, 12, 0, 1024, 1024, 1024, 1024, 0, 6, 4049, 4056, 4040, 4025, 4047, 4067, 0, 1, 3605, -89.900, 0.000, -80.000, 0.000, 0.000, -0.400, 0.0, , , , , , 98, , , 39, 39, 39
38.0861579, -120.2285458, 0.300, 09:43:27.370, 12, 0.00, 0.16, 91, 0.300, 0.100, -79.700, 855, 100, 100, 18, 23273, -9961, 5014, 5510, 10, 11, 1525970607.371, 24, 0, 1024, 1024, 1024, 1024, 0, 6, 4049, 4056, 4040, 4025, 4047, 4067, 0, 1, 3701, -89.900, 0.000, -80.000, 0.000, 0.000, -0.400, 0.0, , , , , , 98, , , 39, 39, 39
38.0861578, -120.2285459, 0.400, 09:43:27.471, 12, 0.00, 0.17, 91, 0.600, -0.200, -79.900, 855, 100, 100, 18, 23273, -9961, 5014, 5510, 10, 11, 1525970607.472, 4, 0, 1024, 1024, 1024, 1024, 0, 6, 4049, 4056, 4040, 4025, 4047, 4067, 0, 1, 3801, -89.900, 0.000, -80.000, 0.000, 0.000, -0.400, 0.0, , , , , , 98, , , 39, 39, 39
38.0861578, -120.2285459, 0.400, 09:43:27.572, 12, 0.00, 0.17, 91, 0.600, -0.200, -79.900, 855, 100, 100, 18, 23273, -9961, 5014, 5510, 10, 11, 1525970607.572, 104, 0, 1024, 1024, 1024, 1024, 0, 6, 4049, 4056, 4040, 4025, 4047, 4067, 0, 1, 3902, -89.900, 0.000, -80.000, 0.000, 0.000, -0.400, 0.0, , , , , , 98, , , 39, 39, 39
38.0861577, -120.2285459, 0.400, 09:43:27.670, 13, 0.00, 0.18, 91, 0.600, 0.000, -79.900, 855, 100, 100, 18, 23273, -9961, 5014, 5510, 10, 11, 1525970607.671, 64, 0, 1024, 1024, 1024, 1024, 0, 6, 3871, 3865, 3891, 3802, 3842, 3828, 0, 1, 4001, -89.900, 0.000, -80.000, 0.000, 0.000, -0.400, 0.0, , , , , , 98, , , 39, 39, 39
38.0861577, -120.2285460, 0.500, 09:43:27.770, 13, 0.00, 0.18, 91, 0.800, 0.000, -79.900, 855, 100, 100, 18, 23273, -9961, 5014, 5510, 10, 11, 1525970607.770, 71, 0, 1024, 1024, 1024, 1024, 0, 6, 3871, 3865, 3891, 3802, 3842, 3828, 0, 1, 4100, -89.900, 0.000, -80.000, 0.000, 0.000, -0.400, 0.0, , , , , , 98, , , 39, 39, 39
38.0861577, -120.2285460, 0.500, 09:43:27.870, 11, 0.00, 0.19, 91, 0.600, 0.100, -79.900, 855, 100, 100, 18, 23273, -9961, 5014, 5510, 10, 11, 1525970607.871, 73, 0, 1024, 1024, 1024, 1024, 0, 6, 3871, 3865, 3891, 3802, 3842, 3828, 0, 1, 4201, -89.900, 0.000, -80.000, 0.000, 0.000, -0.500, 0.0, , , , , , 98, , , 39, 39, 39
38.0861576, -120.2285461, 0.600, 09:43:27.970, 11, 0.00, 0.19, 91, 0.500, 0.100, -79.700, 855, 100, 100, 18, 23273, -9961, 5014, 5510, 10, 11, 1525970607.971, 68, 0, 1024, 1024, 1024, 1024, 0, 6, 3871, 3865, 3891, 3802, 3842, 3828, 0, 1, 4301, -89.900, 0.000, -80.000, 0.000, 0.000, -0.500, 0.0, , , , , , 98, , , 39, 39, 39
38.0861576, -120.2285461, 0.600, 09:43:28.071, 11, 0.00, 0.20, 91, 0.400, 0.100, -79.500, 855, 100, 100, 18, 23273, -9961, 5014, 5510, 10, 11, 1525970608.071, 60, 0, 1024, 1024, 1024, 1024, 0, 6, 3871, 3865, 3891, 3802, 3842, 3828, 0, 1, 4401, -89.900, 0.000, -80.000, 0.000, 0.000, -0.400, 0.0, , , , , , 98, , , 39, 39, 39
38.0861575, -120.2285462, 0.700, 09:43:28.170, 11, 0.00, 0.21, 91, 0.400, 0.200, -79.300, 855, 100, 100, 18, 23273, -9961, 5014, 5510, 10, 11, 1525970608.171, 39, 0, 1024, 1024, 1024, 1024, 0, 6, 3871, 3865, 3891, 3802, 3842, 3828, 0, 1, 4500, -89.900, 0.000, -80.000, 0.000, 0.000, -0.400, 0.0, , , , , , 98, , , 39, 39, 39
38.0861575, -120.2285463, 0.800, 09:43:28.270, 10, 0.00, 0.22, 91, 0.600, 0.000, -79.100, 855, 100, 100, 18, 23273, -9961, 5014, 5510, 10, 11, 1525970608.271, 68, 0, 1024, 1024, 1024, 1024, 0, 6, 3871, 3865, 3891, 3802, 3842, 3828, 0, 1, 4600, -89.900, 0.000, -80.000, 0.000, 0.000, -0.500, 0.0, , , , , , 98, , , 39, 39, 39
38.0861574, -120.2285464, 0.800, 09:43:28.370, 10, 0.00, 0.22, 91, 0.900, 0.100, -79.000, 855, 100, 100, 18, 23273, -9961, 5014, 5510, 10, 11, 1525970608.371, 72, 0, 1024, 1024, 1024, 1024, 0, 6, 3871, 3865, 3891, 3802, 3842, 3828, 0, 1, 4701, -89.900, 0.000, -80.000, 0.000, 0.000, -0.500, 0.0, , , , , , 98, , , 39, 39, 39
38.0861573, -120.2285464, 0.900, 09:43:28.470, 11, 0.00, 0.23, 91, 1.400, 0.300, -79.000, 855, 100, 100, 18, 23273, -9961, 5014, 5510, 10, 11, 1525970608.471, 72, 0, 1024, 1024, 1024, 1024, 0, 6, 3871, 3865, 3891, 3802, 3842, 3828, 0, 1, 4800, -89.900, 0.000, -80.000, 0.000, 0.000, -0.500, 0.0, , , , , , 98, , , 39, 39, 39
38.0861572, -120.2285464, 0.900, 09:43:28.570, 11, 0.00, 0.23, 91, 1.600, 0.200, -79.100, 855, 100, 100, 18, 23273, -9961, 5014, 5510, 10, 14, 1525970608.571, 52, 0, 1024, 1024, 1024, 1024, 0, 6, 3871, 3865, 3891, 3802, 3842, 3828, 0, 1, 4901, -89.900, 0.000, -80.000, 0.000, 0.000, -0.400, 0.0, , , , , , 98, , , 39, 39, 39
38.0861571, -120.2285464, 0.900, 09:43:28.670, 11, 0.00, 0.24, 91, 1.600, 0.000, -79.100, 855, 100, 100, 18, 22434, -17119, 5014, 5510, 10, 14, 1525970608.671, 57, 0, 1024, 1024, 1024, 1024, 0, 6, 3732, 3735, 3759, 3720, 3715, 3740, 0, 1, 5000, -89.900, 0.000, -80.000, 0.000, 0.000, -0.300, 0.0, , , , , , 98, , , 39, 39, 39
38.0861570, -120.2285464, 1.000, 09:43:28.770, 11, 0.00, 0.24, 91, 1.300, -0.500, -79.200, 855, 100, 100, 18, 22434, -17119, 5014, 5510, 10, 14, 1525970608.771, 57, 0, 1024, 1024, 1024, 1024, 0, 6, 3732, 3735, 3759, 3720, 3715, 3740, 0, 1, 5100, -90.000, 0.000, -80.000, 0.000, 0.000, -0.200, 0.0, , , , , , 98, , , 39, 39, 39
38.0861570, -120.2285463, 1.000, 09:43:28.870, 10, 0.00, 0.23, 91, 0.900, -0.700, -79.300, 855, 100, 100, 18, 22434, -17119, 5014, 5510, 10, 14, 1525970608.872, 30, 0, 1024, 1024, 1024, 1024, 0, 6, 3732, 3735, 3759, 3720, 3715, 3740, 0, 1, 5201, -90.000, 0.000, -80.000, 0.000, 0.000, -0.200, 0.0, , , , , , 98, , , 39, 39, 39
38.0861570, -120.2285463, 1.000, 09:43:28.970, 10, 0.00, 0.24, 91, 0.700, -0.800, -79.300, 855, 100, 100, 18, 22434, -17119, 5014, 5510, 10, 14, 1525970608.971, 44, 0, 1024, 1024, 1024, 1024, 0, 6, 3732, 3735, 3759, 3720, 3715, 3740, 0, 1, 5301, -89.900, 0.000, -80.000, 0.000, 0.000, -0.300, 0.0, , , , , , 98, , , 39, 39, 39
38.0861569, -120.2285463, 1.000, 09:43:29.070, 10, 0.00, 0.24, 91, 0.500, -0.700, -79.300, 855, 100, 100, 18, 22434, -17119, 5014, 5510, 10, 14, 1525970609.071, 49, 0, 1024, 1024, 1024, 1024, 0, 6, 3732, 3735, 3759, 3720, 3715, 3740, 0, 1, 5401, -89.900, 0.000, -80.000, 0.000, 0.000, -0.400, 0.0, , , , , , 98, , , 39, 39, 39
38.0861569, -120.2285463, 1.000, 09:43:29.170, 10, 0.00, 0.24, 91, 0.500, -0.700, -79.300, 855, 100, 100, 18, 22434, -17119, 5014, 5510, 10, 14, 1525970609.171, 148, 0, 1024, 1024, 1024, 1024, 0, 6, 3732, 3735, 3759, 3720, 3715, 3740, 0, 1, 5500, -89.900, 0.000, -80.000, 0.000, 0.000, -0.400, 0.0, , , , , , 98, , , 39, 39, 39
38.0861566, -120.2285464, 1.200, 09:43:29.278, 10, 0.00, 0.26, 91, 0.900, -0.300, -79.300, 855, 100, 100, 18, 22434, -17119, 5014, 5510, 10, 14, 1525970609.278, 7, 0, 1024, 1024, 1024, 1024, 0, 6, 3732, 3735, 3759, 3720, 3715, 3740, 0, 1, 5608, -89.900, 0.000, -80.000, 0.000, 0.000, -0.900, 0.0, , , , , , 98, , , 39, 39, 39
38.0861566, -120.2285465, 1.300, 09:43:29.375, 12, 0.00, 0.27, 91, 1.100, -0.100, -79.300, 855, 100, 100, 18, 22434, -17119, 5014, 5510, 10, 14, 1525970609.376, 10, 0, 1024, 1024, 1024, 1024, 0, 6, 3732, 3735, 3759, 3720, 3715, 3740, 0, 1, 5705, -89.900, 0.000, -80.000, 0.000, 0.000, -1.100, 0.0, , , , , , 98, , , 39, 39, 39
38.0861565, -120.2285466, 1.400, 09:43:29.469, 12, 0.00, 0.28, 91, 1.200, 0.100, -79.200, 855, 100, 100, 18, 22434, -17119, 5014, 5510, 10, 14, 1525970609.470, 7, 0, 1024, 1024, 1024, 1024, 0, 6, 3732, 3735, 3759, 3720, 3715, 3740, 0, 1, 5800, -89.900, 0.000, -80.000, 0.000, 0.000, -1.400, 0.0, , , , , , 98, , , 39, 39, 39
38.0861564, -120.2285466, 1.600, 09:43:29.581, 12, 0.00, 0.29, 91, 1.400, 0.100, -79.100, 855, 100, 100, 18, 22221, -17439, 5014, 5510, 10, 14, 1525970609.581, 11, 0, 1024, 1024, 1024, 1024, 0, 6, 3732, 3735, 3759, 3720, 3715, 3740, 0, 1, 5911, -89.900, 0.000, -80.000, 0.000, 0.000, -1.600, 0.0, , , , , , 98, , , 39, 39, 39
38.0861564, -120.2285467, 1.800, 09:43:29.676, 12, 0.00, 0.29, 91, 1.300, 0.000, -79.100, 855, 100, 100, 18, 22221, -17439, 5014, 5510, 10, 14, 1525970609.676, 14, 0, 1024, 1024, 1024, 1024, 0, 6, 3694, 3704, 3717, 3701, 3691, 3718, 0, 1, 6006, -89.900, 0.000, -80.000, 0.000, 0.000, -1.800, 0.0, , , , , , 98, , , 39, 39, 39
38.0861563, -120.2285467, 2.000, 09:43:29.778, 11, 0.00, 0.30, 91, 1.300, 0.000, -79.100, 855, 100, 100, 18, 22221, -17439, 5014, 5510, 10, 14, 1525970609.778, 6, 0, 1024, 1024, 1024, 1024, 0, 6, 3694, 3704, 3717, 3701, 3691, 3718, 0, 1, 6108, -89.900, 0.000, -80.000, 0.000, 0.000, -2.000, 0.0, , , , , , 98, , , 39, 39, 39
38.0861563, -120.2285467, 2.000, 09:43:29.870, 11, 0.00, 0.30, 91, 1.300, 0.000, -79.100, 855, 100, 100, 18, 22221, -17439, 5014, 5510, 10, 14, 1525970609.872, 99, 0, 1024, 1024, 1024, 1024, 0, 6, 3694, 3704, 3717, 3701, 3691, 3718, 0, 1, 6202, -89.900, 0.000, -80.000, 0.000, 0.000, -2.000, 0.0, , , , , , 98, , , 39, 39, 39
38.0861563, -120.2285468, 2.200, 09:43:29.971, 11, 0.00, 0.31, 91, 1.200, 0.100, -79.100, 855, 100, 100, 18, 22221, -17439, 5014, 5510, 10, 14, 1525970609.973, 82, 0, 1024, 1024, 1024, 1024, 0, 6, 3694, 3704, 3717, 3701, 3691, 3718, 0, 1, 6302, -89.900, 0.000, -80.000, 0.000, 0.000, -2.200, 0.0, , , , , , 98, , , 39, 39, 39
38.0861562, -120.2285470, 2.500, 09:43:30.070, 10, 0.00, 0.32, 91, 1.000, 0.300, -79.200, 855, 100, 100, 18, 22221, -17439, 5014, 5510, 10, 14, 1525970610.070, 80, 0, 1024, 1024, 1024, 1024, 0, 6, 3694, 3704, 3717, 3701, 3691, 3718, 0, 1, 6400, -89.900, 0.000, -80.000, 0.000, 0.000, -2.600, 0.0, , , , , , 98, , , 39, 39, 39
38.0861560, -120.2285473, 2.700, 09:43:30.170, 10, 0.00, 0.36, 91, 1.000, 0.400, -79.300, 855, 100, 100, 18, 22221, -17439, 5014, 5510, 10, 14, 1525970610.172, 79, 0, 1024, 1024, 1024, 1024, 0, 6, 3694, 3704, 3717, 3701, 3691, 3718, 0, 1, 6501, -89.900, 0.000, -80.000, 0.000, 0.000, -2.700, 0.0, , , , , , 98, , , 39, 39, 39
38.0861559, -120.2285476, 3.000, 09:43:30.269, 11, 0.00, 0.39, 91, 1.300, 0.600, -79.400, 855, 100, 100, 18, 22221, -17439, 5014, 5510, 10, 14, 1525970610.272, 64, 0, 1024, 1024, 1024, 1024, 0, 6, 3694, 3704, 3717, 3701, 3691, 3718, 0, 1, 6601, -89.900, 0.000, -80.000, 0.000, 0.000, -2.900, 0.0, , , , , , 98, , , 39, 39, 39
38.0861557, -120.2285479, 3.300, 09:43:30.370, 11, 0.00, 0.43, 91, 1.700, 0.800, -79.500, 855, 100, 100, 18, 22221, -17439, 5014, 5510, 10, 14, 1525970610.371, 80, 0, 1024, 1024, 1024, 1024, 0, 6, 3694, 3704, 3717, 3701, 3691, 3718, 0, 1, 6701, -89.900, 0.000, -80.000, 0.000, 0.000, -3.000, 0.0, , , , , , 98, , , 39, 39, 39
38.0861555, -120.2285483, 3.600, 09:43:30.470, 11, 0.00, 0.47, 91, 2.100, 0.900, -79.400, 855, 100, 100, 18, 22221, -17439, 5014, 5510, 10, 14, 1525970610.472, 82, 0, 1024, 1024, 1024, 1024, 0, 6, 3694, 3704, 3717, 3701, 3691, 3718, 0, 1, 6802, -89.900, 0.000, -80.000, 0.000, 0.000, -3.200, 0.0, , , , , , 98, , , 39, 39, 39
38.0861553, -120.2285488, 4.000, 09:43:30.570, 11, 0.00, 0.51, 91, 2.600, 1.200, -79.300, 855, 100, 100, 18, 22221, -17439, 5014, 5510, 10, 14, 1525970610.571, 86, 0, 1024, 1024, 1024, 1024, 0, 6, 3694, 3704, 3717, 3701, 3691, 3718, 0, 1, 6901, -89.900, 0.000, -80.000, 0.000, 0.000, -3.200, 0.0, , , , , , 98, , , 39, 39, 39
38.0861552, -120.2285491, 4.300, 09:43:30.670, 12, 0.00, 0.55, 91, 2.700, 1.700, -79.200, 855, 100, 100, 18, 21992, -19834, 5014, 5510, 10, 14, 1525970610.671, 72, 0, 1024, 1024, 1024, 1024, 0, 6, 3643, 3633, 3629, 3646, 3610, 3653, 0, 1, 7001, -89.900, 0.000, -80.000, 0.000, 0.000, -3.200, 0.0, , , , , , 98, , , 39, 39, 39
38.0861551, -120.2285493, 4.600, 09:43:30.770, 12, 0.00, 0.57, 91, 2.800, 2.100, -79.000, 855, 100, 100, 18, 21992, -19834, 5014, 5510, 10, 14, 1525970610.771, 61, 0, 1024, 1024, 1024, 1024, 0, 6, 3643, 3633, 3629, 3646, 3610, 3653, 0, 1, 7101, -89.900, 0.000, -80.000, 0.000, 0.000, -3.300, 0.0, , , , , , 98, , , 39, 39, 39
38.0861550, -120.2285495, 5.000, 09:43:30.869, 12, 0.00, 0.58, 91, 2.600, 2.000, -78.900, 855, 100, 100, 18, 21992, -19834, 5014, 5510, 10, 14, 1525970610.869, 44, 0, 1024, 1024, 1024, 1024, 0, 6, 3643, 3633, 3629, 3646, 3610, 3653, 0, 1, 7199, -89.900, 0.000, -80.000, 0.000, 0.000, -3.300, 0.0, , , , , , 98, , , 39, 39, 39
38.0861548, -120.2285494, 5.300, 09:43:30.970, 12, 0.00, 0.59, 91, 2.300, 1.600, -78.800, 855, 100, 100, 18, 21992, -19834, 5014, 5510, 10, 14, 1525970610.970, 36, 0, 1024, 1024, 1024, 1024, 0, 6, 3643, 3633, 3629, 3646, 3610, 3653, 0, 1, 7300, -89.900, 0.000, -80.000, 0.000, 0.000, -3.300, 0.0, , , , , , 98, , , 39, 39, 39
38.0861547, -120.2285495, 5.700, 09:43:31.070, 10, 0.00, 0.60, 91, 2.200, 1.100, -78.700, 855, 100, 100, 18, 21992, -19834, 5014, 5510, 10, 14, 1525970611.072, 26, 0, 1024, 1024, 1024, 1024, 0, 6, 3643, 3633, 3629, 3646, 3610, 3653, 0, 1, 7402, -89.900, 0.000, -80.000, 0.000, 0.000, -3.300, 0.0, , , , , , 98, , , 39, 39, 39
38.0861544, -120.2285496, 6.000, 09:43:31.170, 10, 0.00, 0.63, 91, 2.400, 0.800, -78.700, 855, 100, 100, 18, 21992, -19834, 5014, 5510, 10, 14, 1525970611.170, 10, 0, 1024, 1024, 1024, 1024, 0, 6, 3643, 3633, 3629, 3646, 3610, 3653, 0, 1, 7500, -89.900, 0.000, -80.000, 0.000, 0.000, -3.300, 0.0, , , , , , 98, , , 39, 39, 39
38.0861543, -120.2285497, 6.700, 09:43:31.273, 10, 0.00, 0.64, 91, 3.300, 0.700, -78.700, 855, 100, 100, 18, 21992, -19834, 5014, 5510, 10, 14, 1525970611.277, 14, 0, 1024, 1024, 1024, 1024, 0, 6, 3643, 3633, 3629, 3646, 3610, 3653, 0, 1, 7606, -89.900, 0.000, -80.000, 0.000, 0.000, -3.200, 0.0, , , , , , 98, , , 39, 39, 39
38.0861544, -120.2285496, 7.000, 09:43:31.370, 11, 0.10, 0.63, 91, 3.000, 0.700, -78.800, 855, 100, 100, 18, 21992, -19834, 5014, 5510, 10, 14, 1525970611.373, 37, 0, 1024, 1024, 1024, 1024, 0, 6, 3643, 3633, 3629, 3646, 3610, 3653, 0, 1, 7703, -89.900, 0.000, -80.000, 0.100, 0.000, -3.200, 0.0, , , , , , 98, , , 39, 39, 39
38.0861547, -120.2285495, 7.400, 09:43:31.469, 11, 0.14, 0.60, 91, 2.200, 0.900, -78.900, 855, 100, 100, 18, 21992, -19834, 5014, 5510, 10, 14, 1525970611.471, 26, 0, 1024, 1024, 1024, 1024, 0, 6, 3643, 3633, 3629, 3646, 3610, 3653, 0, 1, 7800, -89.900, 0.000, -80.000, 0.100, 0.100, -3.300, 0.1, , , , , , 98, , , 39, 39, 39
38.0861549, -120.2285493, 7.700, 09:43:31.571, 11, 0.22, 0.58, 91, 1.300, 1.000, -79.000, 855, 100, 100, 18, 21317, -20872, 4959, 5510, 10, 14, 1525970611.572, 22, 0, 1024, 1024, 1024, 1024, 0, 6, 3643, 3633, 3629, 3646, 3610, 3653, 0, 1, 7902, -89.900, 0.000, -80.000, 0.200, 0.100, -3.200, 0.1, , , , , , 98, , , 39, 39, 39
38.0861550, -120.2285491, 8.100, 09:43:31.673, 11, 0.22, 0.56, 91, 0.600, 0.900, -79.000, 855, 100, 100, 18, 21317, -20872, 4959, 5510, 10, 14, 1525970611.674, 16, 0, 1024, 1024, 1024, 1024, 0, 6, 3593, 3611, 3578, 3556, 3556, 3603, 0, 1, 8004, -89.900, 0.000, -80.000, 0.200, 0.100, -3.200, 0.1, , , , , , 98, , , 39, 39, 39
38.0861552, -120.2285490, 8.400, 09:43:31.775, 13, 0.22, 0.53, 91, 0.100, 0.800, -79.000, 855, 100, 100, 18, 21317, -20872, 4959, 5510, 10, 14, 1525970611.775, 9, 0, 1024, 1024, 1024, 1024, 0, 6, 3593, 3611, 3578, 3556, 3556, 3603, 0, 1, 8105, -89.900, 0.000, -80.000, 0.200, 0.100, -3.100, 0.1, , , , , , 98, , , 39, 39, 39
38.0861555, -120.2285488, 8.700, 09:43:31.870, 13, 0.22, 0.50, 91, -0.200, 0.800, -79.000, 855, 100, 100, 18, 21317, -20872, 4959, 5510, 10, 14, 1525970611.872, 6, 0, 1024, 1024, 1024, 1024, 0, 6, 3593, 3611, 3578, 3556, 3556, 3603, 0, 1, 8201, -89.900, 0.000, -80.000, 0.200, 0.100, -3.100, 0.1, , , , , , 98, , , 39, 39, 39
38.0861557, -120.2285485, 9.000, 09:43:31.970, 10, 0.22, 0.47, 91, -0.400, 1.000, -79.100, 855, 100, 100, 18, 21317, -20872, 4959, 5510, 10, 14, 1525970611.971, 13, 0, 1024, 1024, 1024, 1024, 0, 6, 3593, 3611, 3578, 3556, 3556, 3603, 0, 1, 8301, -89.900, 0.000, -80.000, 0.200, 0.100, -3.100, 0.1, , , , , , 98, , , 39, 39, 39
38.0861561, -120.2285481, 9.400, 09:43:32.069, 10, 0.28, 0.42, 91, -0.700, 0.800, -79.300, 855, 100, 100, 18, 21317, -20872, 4959, 5510, 10, 14, 1525970612.070, 12, 0, 1024, 1024, 1024, 1024, 0, 6, 3593, 3611, 3578, 3556, 3556, 3603, 0, 1, 8400, -89.900, 0.000, -80.000, 0.200, 0.200, -3.100, 0.1, , , , , , 98, , , 39, 39, 39
38.0861561, -120.2285481, 9.400, 09:43:32.170, 10, 0.28, 0.42, 91, -0.700, 0.800, -79.300, 855, 100, 100, 18, 21317, -20872, 4959, 5510, 10, 14, 1525970612.171, 114, 0, 1024, 1024, 1024, 1024, 0, 6, 3593, 3611, 3578, 3556, 3556, 3603, 0, 1, 8501, -89.900, 0.000, -80.000, 0.200, 0.200, -3.100, 0.1, , , , , , 98, , , 39, 39, 39
38.0861564, -120.2285476, 9.700, 09:43:32.270, 11, 0.28, 0.36, 91, -0.900, 0.000, -79.400, 855, 100, 99, 18, 21317, -20872, 4959, 5510, 10, 14, 1525970612.271, 55, 0, 1024, 1024, 1024, 1024, 0, 6, 3593, 3611, 3578, 3556, 3556, 3603, 0, 1, 8601, -90.000, 0.000, -80.000, 0.200, 0.200, -3.100, 0.1, , , , , , 98, , , 39, 39, 39
38.0861567, -120.2285472, 10.000, 09:43:32.370, 11, 0.28, 0.31, 91, -1.600, -1.100, -79.500, 855, 100, 99, 18, 21317, -20872, 4959, 5510, 10, 14, 1525970612.370, 86, 0, 1024, 1024, 1024, 1024, 0, 6, 3593, 3611, 3578, 3556, 3556, 3603, 0, 1, 8700, -90.000, 0.000, -80.000, 0.200, 0.200, -3.100, 0.1, , , , , , 98, , , 39, 39, 39
38.0861570, -120.2285467, 10.400, 09:43:32.469, 12, 0.22, 0.26, 91, -2.000, -1.900, -79.500, 855, 100, 99, 18, 21317, -20872, 4959, 5510, 10, 14, 1525970612.470, 72, 0, 1024, 1024, 1024, 1024, 0, 6, 3593, 3611, 3578, 3556, 3556, 3603, 0, 1, 8799, -89.900, 0.000, -80.000, 0.100, 0.200, -3.100, 0.1, , , , , , 98, , , 39, 39, 39
38.0861574, -120.2285461, 10.700, 09:43:32.570, 12, 0.22, 0.20, 91, -2.200, -2.600, -79.500, 855, 100, 99, 18, 21317, -20872, 4959, 5510, 10, 14, 1525970612.571, 80, 0, 1024, 1024, 1024, 1024, 0, 6, 3593, 3611, 3578, 3556, 3556, 3603, 0, 1, 8901, -89.900, 0.000, -80.000, 0.100, 0.200, -3.100, 0.1, , , , , , 98, , , 39, 39, 39
38.0861578, -120.2285456, 11.000, 09:43:32.670, 11, 0.22, 0.15, 91, -2.500, -2.900, -79.500, 855, 100, 99, 18, 21673, -19958, 4959, 5510, 10, 14, 1525970612.670, 83, 0, 1024, 1024, 1024, 1024, 0, 6, 3593, 3611, 3578, 3556, 3556, 3603, 0, 1, 9000, -90.000, 0.000, -80.000, 0.100, 0.200, -3.100, 0.1, , , , , , 98, , , 39, 39, 39
38.0861580, -120.2285452, 11.300, 09:43:32.770, 11, 0.22, 0.11, 91, -2.500, -3.100, -79.300, 855, 100, 96, 18, 21673, -19958, 4959, 5510, 10, 14, 1525970612.770, 72, 0, 1024, 1024, 1024, 1024, 0, 6, 3593, 3611, 3578, 3556, 3556, 3603, 0, 1, 9100, -89.900, 0.000, -80.000, 0.100, 0.200, -3.100, 0.1, , , , , , 98, , , 39, 39, 39
38.0861582, -120.2285448, 11.700, 09:43:32.870, 12, 0.10, 0.09, 91, -2.400, -3.000, -79.300, 855, 100, 96, 18, 21673, -19958, 4959, 5510, 10, 14, 1525970612.871, 64, 0, 1024, 1024, 1024, 1024, 0, 6, 3593, 3611, 3578, 3556, 3556, 3603, 0, 1, 9201, -89.900, 0.000, -80.000, 0.000, 0.100, -3.100, 0.1, , , , , , 98, , , 39, 39, 39
38.0861584, -120.2285445, 12.000, 09:43:32.970, 12, 0.10, 0.08, 91, -2.200, -3.000, -79.400, 855, 100, 96, 18, 21673, -19958, 4959, 5510, 10, 14, 1525970612.971, 78, 0, 1024, 1024, 1024, 1024, 0, 6, 3593, 3611, 3578, 3556, 3556, 3603, 0, 1, 9300, -90.000, 0.000, -80.000, 0.000, 0.100, -3.000, 0.1, , , , , , 98, , , 39, 39, 39
38.0861584, -120.2285445, 12.000, 09:43:33.071, 12, 0.10, 0.08, 91, -2.200, -3.000, -79.400, 855, 100, 96, 18, 21673, -19958, 4959, 5510, 10, 14, 1525970613.072, 180, 0, 1024, 1024, 1024, 1024, 0, 6, 3593, 3611, 3578, 3556, 3556, 3603, 0, 1, 9402, -89.900, 0.000, -80.000, 0.000, 0.100, -3.000, 0.1, , , , , , 98, , , 39, 39, 39
38.0861586, -120.2285438, 12.600, 09:43:33.174, 12, 0.10, 0.09, 90, -1.700, -3.500, -79.400, 855, 100, 96, 18, 21673, -19958, 4959, 5510, 10, 14, 1525970613.175, 48, 0, 1024, 1024, 1024, 1024, 0, 6, 3593, 3611, 3578, 3556, 3556, 3603, 0, 1, 9504, -90.000, 0.000, -80.000, 0.000, 0.100, -2.900, 0.1, , , , , , 98, , , 39, 39, 39
38.0861587, -120.2285435, 12.900, 09:43:33.271, 13, 0.10, 0.10, 90, -1.500, -4.000, -79.300, 855, 100, 94, 18, 21673, -19958, 4959, 5510, 10, 14, 1525970613.272, 24, 0, 1024, 1024, 1024, 1024, 0, 6, 3597, 3617, 3644, 3614, 3590, 3621, 0, 1, 9602, -89.900, 0.000, -80.000, 0.000, 0.100, -2.900, 0.1, , , , , , 98, , , 39, 39, 39
38.0861588, -120.2285431, 13.200, 09:43:33.370, 13, 0.10, 0.13, 90, -1.000, -4.200, -79.200, 855, 100, 94, 18, 21673, -19958, 4959, 5510, 10, 14, 1525970613.371, 34, 0, 1024, 1024, 1024, 1024, 0, 6, 3597, 3617, 3644, 3614, 3590, 3621, 0, 1, 9701, -89.900, 0.000, -80.000, 0.000, 0.100, -2.900, 0.1, , , , , , 98, , , 39, 39, 39
38.0861589, -120.2285428, 13.500, 09:43:33.478, 12, 0.00, 0.15, 90, -0.600, -4.200, -79.000, 855, 100, 94, 18, 21673, -19958, 4959, 5510, 10, 14, 1525970613.479, 16, 0, 1024, 1024, 1024, 1024, 0, 6, 3597, 3617, 3644, 3614, 3590, 3621, 0, 1, 9809, -89.900, 0.000, -80.000, 0.000, 0.000, -2.800, 0.0, , , , , , 98, , , 39, 39, 39
38.0861589, -120.2285423, 14.100, 09:43:33.580, 11, 0.00, 0.18, 90, -0.600, -4.000, -78.600, 855, 100, 94, 18, 21673, -19958, 4959, 5510, 10, 14, 1525970613.581, 11, 0, 1024, 1024, 1024, 1024, 0, 6, 3597, 3617, 3644, 3614, 3590, 3621, 0, 1, 9910, -89.900, 0.000, -80.000, 0.000, 0.000, -2.700, 0.0, , , , , , 98, , , 39, 39, 39
38.0861589, -120.2285423, 14.100, 09:43:33.675, 11, 0.00, 0.18, 90, -0.600, -4.000, -78.600, 855, 100, 94, 18, 21673, -19958, 4959, 5510, 10, 14, 1525970613.676, 106, 0, 1024, 1024, 1024, 1024, 0, 6, 3597, 3617, 3644, 3614, 3590, 3621, 0, 1, 10006, -89.900, 0.000, -80.000, 0.000, 0.000, -2.700, 0.0, , , , , , 98, , , 39, 39, 39
38.0861588, -120.2285419, 14.700, 09:43:33.788, 12, 0.00, 0.21, 90, -0.300, -3.500, -78.500, 855, 100, 97, 18, 21673, -19958, 4959, 5510, 10, 14, 1525970613.789, 22, 0, 1024, 1024, 1024, 1024, 0, 6, 3597, 3617, 3644, 3614, 3590, 3621, 0, 1, 10118, -89.900, 0.000, -80.000, 0.000, 0.000, -2.800, 0.0, , , , , , 98, , , 39, 39, 39
38.0861588, -120.2285419, 14.700, 09:43:33.877, 12, 0.00, 0.21, 90, -0.300, -3.500, -78.500, 855, 100, 97, 18, 21673, -19958, 4959, 5510, 10, 14, 1525970613.878, 111, 0, 1024, 1024, 1024, 1024, 0, 6, 3597, 3617, 3644, 3614, 3590, 3621, 0, 1, 10208, -89.900, 0.000, -80.000, 0.000, 0.000, -2.800, 0.0, , , , , , 98, , , 39, 39, 39
38.0861588, -120.2285417, 15.200, 09:43:33.985, 12, 0.00, 0.22, 90, -0.700, -3.700, -78.900, 855, 100, 97, 18, 21673, -19958, 4959, 5510, 10, 14, 1525970613.986, 7, 0, 1024, 1024, 1024, 1024, 0, 6, 3597, 3617, 3644, 3614, 3590, 3621, 0, 1, 10315, -89.900, 0.000, -80.000, 0.000, 0.000, -2.800, 0.0, , , , , , 98, , , 39, 39, 39
38.0861588, -120.2285417, 15.500, 09:43:34.076, 12, 0.10, 0.22, 90, -0.900, -3.400, -79.000, 855, 100, 97, 18, 21701, -19416, 4959, 5510, 10, 14, 1525970614.078, 13, 0, 1024, 1024, 1024, 1024, 0, 6, 3597, 3617, 3644, 3614, 3590, 3621, 0, 1, 10408, -89.900, 0.000, -80.000, 0.000, -0.100, -2.800, 0.1, , , , , , 98, , , 39, 39, 39
38.0861587, -120.2285417, 15.800, 09:43:34.190, 11, 0.10, 0.21, 90, -1.000, -2.900, -78.900, 855, 100, 98, 18, 21701, -19416, 4959, 5510, 10, 14, 1525970614.190, 11, 0, 1024, 1024, 1024, 1024, 0, 6, 3597, 3617, 3644, 3614, 3590, 3621, 0, 1, 10520, -89.900, 0.000, -80.000, 0.000, -0.100, -2.800, 0.1, , , , , , 98, , , 39, 39, 39
38.0861586, -120.2285418, 16.100, 09:43:34.281, 11, 0.10, 0.20, 90, -0.800, -2.200, -78.900, 855, 100, 98, 18, 21701, -19416, 4959, 5510, 10, 14, 1525970614.281, 11, 0, 1024, 1024, 1024, 1024, 0, 6, 3597, 3617, 3644, 3614, 3590, 3621, 0, 1, 10611, -89.900, 0.000, -80.000, 0.000, -0.100, -2.900, 0.1, , , , , , 98, , , 39, 39, 39
38.0861586, -120.2285418, 16.100, 09:43:34.377, 11, 0.10, 0.20, 90, -0.800, -2.200, -78.900, 855, 100, 98, 18, 21701, -19416, 4959, 5510, 10, 14, 1525970614.378, 108, 0, 1024, 1024, 1024, 1024, 0, 6, 3597, 3617, 3644, 3614, 3590, 3621, 0, 1, 10708, -89.900, 0.000, -80.000, 0.000, -0.100, -2.900, 0.1, , , , , , 98, , , 39, 39, 39
38.0861586, -120.2285418, 16.100, 09:43:34.477, 11, 0.10, 0.20, 90, -0.800, -2.200, -78.900, 855, 100, 98, 18, 21701, -19416, 4959, 5510, 10, 14, 1525970614.478, 208, 0, 1024, 1024, 1024, 1024, 0, 6, 3596, 3614, 3618, 3614, 3591, 3626, 0, 1, 10807, -89.900, 0.000, -80.000, 0.000, -0.100, -2.900, 0.1, , , , , , 98, , , 39, 39, 39
38.0861585, -120.2285421, 16.600, 09:43:34.577, 12, 0.10, 0.17, 90, -0.300, -1.400, -78.500, 855, 100, 98, 18, 21701, -19416, 4959, 5510, 10, 14, 1525970614.578, 65, 0, 1024, 1024, 1024, 1024, 0, 6, 3596, 3614, 3618, 3614, 3591, 3626, 0, 1, 10908, -89.900, 0.000, -80.000, 0.000, -0.100, -2.900, 0.1, , , , , , 98, , , 39, 39, 39
38.0861584, -120.2285423, 16.900, 09:43:34.676, 12, 0.10, 0.15, 90, -0.400, -1.500, -78.300, 855, 100, 98, 18, 21701, -19416, 4959, 5510, 10, 14, 1525970614.677, 78, 0, 1024, 1024, 1024, 1024, 0, 6, 3596, 3614, 3618, 3614, 3591, 3626, 0, 1, 11007, -89.900, 0.000, -80.000, 0.000, -0.100, -2.900, 0.1, , , , , , 98, , , 39, 39, 39
38.0861583, -120.2285424, 17.200, 09:43:34.770, 12, 0.10, 0.14, 90, -0.600, -1.700, -78.300, 855, 100, 99, 18, 21701, -19416, 4959, 5510, 10, 14, 1525970614.770, 55, 0, 1024, 1024, 1024, 1024, 0, 6, 3596, 3614, 3618, 3614, 3591, 3626, 0, 1, 11100, -89.900, 0.000, -80.000, 0.000, -0.100, -3.000, 0.1, , , , , , 98, , , 39, 39, 39
38.0861582, -120.2285426, 17.500, 09:43:34.870, 13, 0.10, 0.13, 90, -0.500, -1.900, -78.400, 855, 100, 99, 18, 21701, -19416, 4959, 5510, 10, 14, 1525970614.871, 68, 0, 1024, 1024, 1024, 1024, 0, 6, 3596, 3614, 3618, 3614, 3591, 3626, 0, 1, 11200, -89.900, 0.000, -80.000, 0.000, -0.100, -2.900, 0.1, , , , , , 98, , , 39, 39, 39
38.0861580, -120.2285428, 17.800, 09:43:34.970, 13, 0.10, 0.10, 90, -0.300, -1.500, -78.500, 855, 100, 99, 18, 21701, -19416, 4959, 5510, 10, 14, 1525970614.970, 55, 0, 1024, 1024, 1024, 1024, 0, 6, 3596, 3614, 3618, 3614, 3591, 3626, 0, 1, 11300, -89.900, 0.000, -80.000, 0.000, -0.100, -2.900, 0.1, , , , , , 98, , , 39, 39, 39
38.0861579, -120.2285430, 18.100, 09:43:35.070, 12, 0.10, 0.08, 90, -0.100, -1.200, -78.600, 855, 100, 99, 18, 21701, -19416, 4959, 5510, 10, 14, 1525970615.071, 41, 0, 1024, 1024, 1024, 1024, 0, 6, 3596, 3614, 3618, 3614, 3591, 3626, 0, 1, 11401, -89.900, 0.000, -80.000, 0.000, -0.100, -2.900, 0.1, , , , , , 98, , , 39, 39, 39
38.0861580, -120.2285431, 18.400, 09:43:35.169, 12, 0.10, 0.07, 90, 0.300, -1.400, -78.800, 855, 100, 99, 18, 21472, -21916, 4959, 5510, 10, 14, 1525970615.170, 10, 0, 1024, 1024, 1024, 1024, 0, 6, 3596, 3614, 3618, 3614, 3591, 3626, 0, 1, 11499, -89.900, 0.000, -80.000, 0.000, -0.100, -2.900, 0.1, , , , , , 98, , , 39, 39, 39
38.0861579, -120.2285432, 18.700, 09:43:35.269, 13, 0.10, 0.06, 90, 0.400, -1.900, -78.900, 855, 100, 99, 18, 21472, -21916, 4959, 5510, 10, 14, 1525970615.269, 30, 0, 1024, 1024, 1024, 1024, 0, 6, 3596, 3614, 3618, 3614, 3591, 3626, 0, 1, 11599, -89.900, 0.000, -80.000, 0.000, -0.100, -2.900, 0.1, , , , , , 98, , , 39, 39, 39
38.0861578, -120.2285434, 19.000, 09:43:35.369, 13, 0.10, 0.05, 90, 0.100, -1.900, -79.000, 855, 100, 99, 18, 21472, -21916, 4959, 5510, 10, 14, 1525970615.370, 45, 0, 1024, 1024, 1024, 1024, 0, 6, 3596, 3614, 3618, 3614, 3591, 3626, 0, 1, 11699, -89.900, 0.000, -80.000, 0.000, -0.100, -3.000, 0.1, , , , , , 98, , , 39, 39, 39
38.0861578, -120.2285435, 19.300, 09:43:35.470, 13, 0.10, 0.03, 90, 0.000, -1.700, -79.100, 855, 100, 99, 18, 21472, -21916, 4959, 5510, 10, 14, 1525970615.470, 31, 0, 1024, 1024, 1024, 1024, 0, 6, 3556, 3574, 3590, 3577, 3550, 3587, 0, 1, 11800, -89.900, 0.000, -80.000, 0.000, -0.100, -3.000, 0.1, , , , , , 98, , , 39, 39, 39
38.0861578, -120.2285437, 19.600, 09:43:35.570, 13, 0.10, 0.02, 90, 0.000, -1.300, -79.200, 855, 100, 99, 18, 21472, -21916, 4959, 5510, 10, 14, 1525970615.570, 54, 0, 1024, 1024, 1024, 1024, 0, 6, 3556, 3574, 3590, 3577, 3550, 3587, 0, 1, 11900, -89.900, 0.000, -80.000, 0.000, -0.100, -3.000, 0.1, , , , , , 98, , , 39, 39, 39
38.0861578, -120.2285439, 19.900, 09:43:35.670, 13, 0.10, 0.00, 90, -0.300, -0.700, -79.100, 855, 100, 98, 18, 21472, -21916, 4959, 5510, 10, 14, 1525970615.670, 54, 0, 1024, 1024, 1024, 1024, 0, 6, 3556, 3574, 3590, 3577, 3550, 3587, 0, 1, 12000, -89.900, 0.000, -80.000, 0.000, -0.100, -3.000, 0.1, , , , , , 98, , , 39, 39, 39
38.0861577, -120.2285441, 20.200, 09:43:35.770, 13, 0.10, 0.02, 90, -0.900, -0.600, -79.100, 855, 100, 98, 18, 21472, -21916, 4959, 5510, 10, 14, 1525970615.773, 33, 0, 1024, 1024, 1024, 1024, 0, 6, 3556, 3574, 3590, 3577, 3550, 3587, 0, 1, 12102, -89.900, 0.000, -80.000, 0.000, -0.100, -3.000, 0.1, , , , , , 98, , , 39, 39, 39
38.0861576, -120.2285442, 20.500, 09:43:35.870, 14, 0.00, 0.04, 90, -0.900, -1.000, -79.200, 855, 100, 98, 18, 21472, -21916, 4959, 5510, 10, 14, 1525970615.871, 33, 0, 1024, 1024, 1024, 1024, 0, 6, 3556, 3574, 3590, 3577, 3550, 3587, 0, 1, 12200, -89.900, 0.000, -80.000, 0.000, 0.000, -3.100, 0.0, , , , , , 98, , , 39, 39, 39
38.0861576, -120.2285444, 20.800, 09:43:35.970, 14, 0.00, 0.05, 90, -0.500, -1.300, -79.400, 855, 100, 98, 18, 21472, -21916, 4959, 5510, 10, 14, 1525970615.970, 26, 0, 1024, 1024, 1024, 1024, 0, 6, 3556, 3574, 3590, 3577, 3550, 3587, 0, 1, 12300, -90.000, 0.000, -80.000, 0.000, 0.000, -3.000, 0.0, , , , , , 98, , , 39, 39, 39
38.0861575, -120.2285445, 21.100, 09:43:36.070, 13, 0.00, 0.06, 90, -0.300, -1.700, -79.400, 855, 100, 98, 18, 21472, -21916, 4959, 5510, 10, 14, 1525970616.071, 19, 0, 1024, 1024, 1024, 1024, 0, 6, 3556, 3574, 3590, 3577, 3550, 3587, 0, 1, 12401, -90.000, 0.000, -80.000, 0.000, 0.000, -3.000, 0.0, , , , , , 98, , , 39, 39, 39
38.0861575, -120.2285446, 21.400, 09:43:36.170, 13, 0.00, 0.08, 90, 0.000, -1.700, -79.300, 855, 100, 99, 18, 21424, -21762, 4959, 5510, 10, 14, 1525970616.171, 19, 0, 1024, 1024, 1024, 1024, 0, 6, 3556, 3574, 3590, 3577, 3550, 3587, 0, 1, 12500, -89.900, 0.000, -80.000, 0.000, 0.000, -3.000, 0.0, , , , , , 98, , , 39, 39, 39
38.0861573, -120.2285449, 22.000, 09:43:36.270, 14, 0.00, 0.11, 90, 0.000, -1.500, -79.300, 855, 100, 99, 18, 21424, -21762, 4959, 5510, 10, 14, 1525970616.270, 5, 0, 1024, 1024, 1024, 1024, 0, 6, 3560, 3578, 3581, 3561, 3553, 3585, 0, 1, 12600, -89.900, 0.000, -80.000, 0.000, 0.000, -3.000, 0.0, , , , , , 98, , , 39, 39, 39
38.0861573, -120.2285451, 22.300, 09:43:36.374, 14, 0.00, 0.12, 90, -0.100, -1.100, -79.300, 855, 100, 99, 18, 21424, -21762, 4959, 5510, 10, 14, 1525970616.375, 8, 0, 1024, 1024, 1024, 1024, 0, 6, 3560, 3578, 3581, 3561, 3553, 3585, 0, 1, 12705, -89.900, 0.000, -80.000, 0.000, 0.000, -3.000, 0.0, , , , , , 98, , , 39, 39, 39
38.0861572, -120.2285452, 22.600, 09:43:36.470, 14, 0.00, 0.13, 90, -0.200, -1.300, -79.200, 855, 100, 99, 18, 21424, -21762, 4959, 5510, 10, 14, 1525970616.472, 34, 0, 1024, 1024, 1024, 1024, 0, 6, 3560, 3578, 3581, 3561, 3553, 3585, 0, 1, 12801, -89.900, 0.000, -80.000, 0.000, 0.000, -3.000, 0.0, , , , , , 98, , , 39, 39, 39
38.0861572, -120.2285453, 22.900, 09:43:36.569, 14, 0.00, 0.14, 90, -0.300, -1.700, -79.200, 855, 100, 99, 18, 21424, -21762, 4959, 5510, 10, 14, 1525970616.569, 8, 0, 1024, 1024, 1024, 1024, 0, 6, 3560, 3578, 3581, 3561, 3553, 3585, 0, 1, 12899, -89.900, 0.000, -80.000, 0.000, 0.000, -3.000, 0.0, , , , , , 98, , , 39, 39, 39
38.0861572, -120.2285453, 22.900, 09:43:36.670, 14, 0.00, 0.14, 90, -0.300, -1.700, -79.200, 855, 100, 99, 18, 21424, -21762, 4959, 5510, 10, 14, 1525970616.671, 110, 0, 1024, 1024, 1024, 1024, 0, 6, 3560, 3578, 3581, 3561, 3553, 3585, 0, 1, 13001, -89.900, 0.000, -80.000, 0.000, 0.000, -3.000, 0.0, , , , , , 98, , , 39, 39, 39
38.0861571, -120.2285454, 23.200, 09:43:36.770, 14, 0.00, 0.15, 90, -0.400, -1.800, -79.400, 855, 100, 99, 18, 21424, -21762, 4959, 5510, 10, 14, 1525970616.771, 93, 0, 1024, 1024, 1024, 1024, 0, 6, 3560, 3578, 3581, 3561, 3553, 3585, 0, 1, 13101, -90.000, 0.000, -80.000, 0.000, 0.000, -3.000, 0.0, , , , , , 98, , , 39, 39, 39
38.0861570, -120.2285455, 23.600, 09:43:36.870, 14, 0.00, 0.17, 90, 0.000, -2.000, -79.500, 855, 100, 99, 18, 21424, -21762, 4959, 5510, 10, 14, 1525970616.871, 79, 0, 1024, 1024, 1024, 1024, 0, 6, 3560, 3578, 3581, 3561, 3553, 3585, 0, 1, 13201, -89.900, 0.000, -80.000, 0.000, 0.000, -3.000, 0.0, , , , , , 98, , , 39, 39, 39
38.0861569, -120.2285457, 23.900, 09:43:36.970, 14, 0.00, 0.19, 90, 0.900, -1.500, -79.500, 855, 100, 99, 18, 21424, -21762, 4959, 5510, 10, 14, 1525970616.970, 81, 0, 1024, 1024, 1024, 1024, 0, 6, 3560, 3578, 3581, 3561, 3553, 3585, 0, 1, 13300, -89.900, 0.000, -80.000, 0.000, 0.000, -3.000, 0.0, , , , , , 98, , , 39, 39, 39
38.0861568, -120.2285459, 24.200, 09:43:37.070, 14, 0.10, 0.21, 90, 1.500, -0.500, -79.500, 855, 100, 99, 18, 21424, -21762, 4959, 5510, 10, 14, 1525970617.072, 95, 0, 1024, 1024, 1024, 1024, 0, 6, 3560, 3578, 3581, 3561, 3553, 3585, 0, 1, 13402, -89.900, 0.000, -80.000, 0.000, -0.100, -2.900, 0.1, , , , , , 98, , , 39, 39, 39
38.0861567, -120.2285461, 24.700, 09:43:37.179, 14, 0.00, 0.23, 90, 1.000, 0.200, -79.400, 855, 100, 100, 18, 21484, -20852, 4959, 5510, 10, 14, 1525970617.180, 13, 0, 1024, 1024, 1024, 1024, 0, 6, 3574, 3587, 3593, 3579, 3564, 3593, 0, 1, 13509, -89.900, 0.000, -80.000, 0.000, 0.000, -2.800, 0.0, , , , , , 98, , , 39, 39, 39
38.0861567, -120.2285461, 24.700, 09:43:37.269, 14, 0.00, 0.23, 90, 1.000, 0.200, -79.400, 855, 100, 100, 18, 21484, -20852, 4959, 5510, 10, 14, 1525970617.270, 103, 0, 1024, 1024, 1024, 1024, 0, 6, 3574, 3587, 3593, 3579, 3564, 3593, 0, 1, 13600, -89.900, 0.000, -80.000, 0.000, 0.000, -2.800, 0.0, , , , , , 98, , , 39, 39, 39
38.0861567, -120.2285462, 25.000, 09:43:37.370, 14, 0.00, 0.24, 90, 0.400, -0.200, -79.300, 855, 100, 100, 18, 21484, -20852, 4959, 5510, 10, 14, 1525970617.371, 94, 0, 1024, 1024, 1024, 1024, 0, 6, 3574, 3587, 3593, 3579, 3564, 3593, 0, 1, 13700, -89.900, 0.000, -80.000, 0.000, 0.000, -2.800, 0.0, , , , , , 98, , , 39, 39, 39
38.0861566, -120.2285463, 25.300, 09:43:37.469, 14, 0.00, 0.25, 90, 0.100, -0.800, -79.300, 855, 100, 100, 18, 21484, -20852, 4959, 5510, 10, 14, 1525970617.471, 65, 0, 1024, 1024, 1024, 1024, 0, 6, 3574, 3587, 3593, 3579, 3564, 3593, 0, 1, 13801, -89.900, 0.000, -80.000, 0.000, 0.000, -3.000, 0.0, , , , , , 98, , , 39, 39, 39
38.0861566, -120.2285463, 25.300, 09:43:37.569, 14, 0.00, 0.25, 90, 0.100, -0.800, -79.300, 855, 100, 100, 18, 21484, -20852, 4959, 5510, 10, 14, 1525970617.573, 166, 0, 1024, 1024, 1024, 1024, 0, 6, 3574, 3587, 3593, 3579, 3564, 3593, 0, 1, 13902, -89.900, 0.000, -80.000, 0.000, 0.000, -3.000, 0.0, , , , , , 98, , , 39, 39, 39
38.0861566, -120.2285464, 25.900, 09:43:37.669, 14, 0.00, 0.26, 90, 0.200, -0.900, -79.200, 855, 100, 100, 18, 21484, -20852, 4959, 5510, 10, 14, 1525970617.671, 59, 0, 1024, 1024, 1024, 1024, 0, 6, 3574, 3587, 3593, 3579, 3564, 3593, 0, 1, 14000, -89.900, 0.000, -80.000, 0.000, 0.000, -2.900, 0.0, , , , , , 98, , , 39, 39, 39
38.0861566, -120.2285465, 26.200, 09:43:37.769, 14, 0.00, 0.27, 90, 0.500, -1.100, -79.200, 855, 100, 98, 18, 21484, -20852, 4959, 5510, 10, 14, 1525970617.770, 57, 0, 1024, 1024, 1024, 1024, 0, 6, 3574, 3587, 3593, 3579, 3564, 3593, 0, 1, 14100, -89.900, 0.000, -80.000, 0.000, 0.000, -2.900, 0.0, , , , , , 98, , , 39, 39, 39
38.0861566, -120.2285465, 26.500, 09:43:37.869, 14, 0.00, 0.27, 90, 0.500, -1.100, -79.400, 855, 100, 98, 18, 21484, -20852, 4959, 5510, 10, 14, 1525970617.872, 73, 0, 1024, 1024, 1024, 1024, 0, 6, 3574, 3587, 3593, 3579, 3564, 3593, 0, 1, 14202, -89.900, 0.000, -80.000, 0.000, 0.000, -3.000, 0.0, , , , , , 98, , , 39, 39, 39
38.0861565, -120.2285466, 26.800, 09:43:37.969, 14, 0.00, 0.28, 90, 0.200, -0.900, -79.500, 855, 100, 98, 18, 21484, -20852, 4959, 5510, 10, 14, 1525970617.972, 72, 0, 1024, 1024, 1024, 1024, 0, 6, 3574, 3587, 3593, 3579, 3564, 3593, 0, 1, 14302, -89.900, 0.000, -80.000, 0.000, 0.000, -3.000, 0.0, , , , , , 98, , , 39, 39, 39
38.0861565, -120.2285467, 27.100, 09:43:38.070, 14, 0.00, 0.29, 90, 0.000, -0.400, -79.600, 855, 100, 98, 18, 21484, -20852, 4959, 5510, 10, 14, 1525970618.071, 50, 0, 1024, 1024, 1024, 1024, 0, 6, 3574, 3587, 3593, 3579, 3564, 3593, 0, 1, 14400, -89.900, 0.000, -80.000, 0.000, 0.000, -2.900, 0.0, , , , , , 98, , , 39, 39, 39
38.0861566, -120.2285468, 27.400, 09:43:38.170, 14, 0.00, 0.29, 90, 0.100, 0.000, -79.600, 855, 100, 98, 18, 21473, -20722, 4959, 5510, 10, 14, 1525970618.170, 27, 0, 1024, 1024, 1024, 1024, 0, 6, 3574, 3587, 3593, 3579, 3564, 3593, 0, 1, 14500, -89.900, 0.000, -80.000, 0.000, 0.000, -2.900, 0.0, , , , , , 98, , , 39, 39, 39
38.0861566, -120.2285469, 27.700, 09:43:38.270, 14, 0.00, 0.30, 90, 0.400, 0.300, -79.600, 855, 100, 98, 18, 21473, -20722, 4959, 5510, 10, 14, 1525970618.270, 39, 0, 1024, 1024, 1024, 1024, 0, 6, 3574, 3587, 3593, 3579, 3564, 3593, 0, 1, 14600, -89.900, 0.000, -80.000, 0.000, 0.000, -3.000, 0.0, , , , , , 98, , , 39, 39, 39
38.0861565, -120.2285469, 28.000, 09:43:38.369, 14, 0.00, 0.30, 90, 0.400, 0.200, -79.700, 855, 100, 98, 18, 21473, -20722, 4959, 5510, 10, 14, 1525970618.370, 40, 0, 1024, 1024, 1024, 1024, 0, 6, 3574, 3587, 3593, 3579, 3564, 3593, 0, 1, 14700, -89.900, 0.000, -80.000, 0.000, 0.000, -3.000, 0.0, , , , , , 98, , , 39, 39, 39
38.0861565, -120.2285469, 28.300, 09:43:38.469, 14, 0.00, 0.30, 90, 0.800, -0.200, -79.700, 855, 100, 98, 18, 21473, -20722, 4959, 5510, 10, 14, 1525970618.469, 39, 0, 1024, 1024, 1024, 1024, 0, 6, 3574, 3587, 3593, 3579, 3564, 3593, 0, 1, 14799, -89.900, 0.000, -80.000, 0.000, 0.000, -3.000, 0.0, , , , , , 98, , , 39, 39, 39
38.0861563, -120.2285468, 28.900, 09:43:38.573, 14, 0.00, 0.31, 90, 1.500, -1.600, -79.400, 855, 100, 98, 18, 21473, -20722, 4959, 5510, 10, 14, 1525970618.574, 10, 0, 1024, 1024, 1024, 1024, 0, 6, 3574, 3587, 3593, 3579, 3564, 3593, 0, 1, 14904, -90.000, 0.000, -80.000, 0.000, 0.000, -3.000, 0.0, , , , , , 98, , , 39, 39, 39
38.0861563, -120.2285468, 28.900, 09:43:38.670, 14, 0.00, 0.31, 90, 1.500, -1.600, -79.400, 855, 100, 98, 18, 21473, -20722, 4959, 5510, 10, 14, 1525970618.671, 107, 0, 1024, 1024, 1024, 1024, 0, 6, 3574, 3587, 3593, 3579, 3564, 3593, 0, 1, 15001, -90.000, 0.000, -80.000, 0.000, 0.000, -3.000, 0.0, , , , , , 98, , , 39, 39, 39
38.0861562, -120.2285467, 29.200, 09:43:38.769, 14, 0.00, 0.30, 90, 1.700, -1.900, -79.200, 855, 100, 98, 18, 21473, -20722, 4959, 5510, 10, 14, 1525970618.769, 22, 0, 1024, 1024, 1024, 1024, 0, 6, 3552, 3570, 3584, 3565, 3550, 3586, 0, 1, 15099, -90.000, 0.000, -80.000, 0.000, 0.000, -3.000, 0.0, , , , , , 98, , , 39, 39, 39
38.0861562, -120.2285465, 29.800, 09:43:38.869, 14, 0.00, 0.29, 90, 1.800, -1.900, -78.900, 855, 100, 98, 18, 21473, -20722, 4959, 5510, 10, 14, 1525970618.869, 16, 0, 1024, 1024, 1024, 1024, 0, 6, 3552, 3570, 3584, 3565, 3550, 3586, 0, 1, 15199, -89.900, 0.000, -80.000, 0.000, 0.000, -2.900, 0.0, , , , , , 98, , , 39, 39, 39
38.0861562, -120.2285464, 30.100, 09:43:38.969, 14, 0.00, 0.28, 90, 1.500, -1.900, -78.800, 855, 100, 98, 18, 21473, -20722, 4959, 5510, 10, 14, 1525970618.970, 13, 0, 1024, 1024, 1024, 1024, 0, 6, 3552, 3570, 3584, 3565, 3550, 3586, 0, 1, 15300, -90.000, 0.000, -80.000, 0.000, 0.000, -2.900, 0.0, , , , , , 98, , , 39, 39, 39
38.0861562, -120.2285463, 30.400, 09:43:39.069, 14, 0.00, 0.28, 90, 1.100, -1.900, -78.800, 855, 100, 98, 18, 21473, -20722, 4959, 5510, 10, 14, 1525970619.070, 14, 0, 1024, 1024, 1024, 1024, 0, 6, 3552, 3570, 3584, 3565, 3550, 3586, 0, 1, 15400, -89.900, 0.000, -80.000, 0.000, 0.000, -2.900, 0.0, , , , , , 98, , , 39, 39, 39
38.0861563, -120.2285462, 30.700, 09:43:39.179, 15, 0.00, 0.27, 90, 0.400, -2.100, -78.700, 855, 100, 100, 18, 21473, -20722, 4959, 5510, 10, 14, 1525970619.179, 8, 0, 1024, 1024, 1024, 1024, 0, 6, 3552, 3570, 3584, 3565, 3550, 3586, 0, 1, 15509, -90.000, 0.000, -80.000, 0.000, 0.000, -2.900, 0.0, , , , , , 98, , , 39, 39, 39
38.0861563, -120.2285462, 30.700, 09:43:39.269, 15, 0.00, 0.27, 90, 0.400, -2.100, -78.700, 855, 100, 100, 18, 21473, -20722, 4959, 5510, 10, 14, 1525970619.270, 99, 0, 1024, 1024, 1024, 1024, 0, 6, 3552, 3570, 3584, 3565, 3550, 3586, 0, 1, 15600, -90.000, 0.000, -80.000, 0.000, 0.000, -2.900, 0.0, , , , , , 98, , , 39, 39, 39
38.0861563, -120.2285461, 30.900, 09:43:39.369, 15, 0.00, 0.26, 90, -0.200, -2.100, -78.700, 855, 100, 100, 18, 21473, -20722, 4959, 5510, 10, 14, 1525970619.371, 88, 0, 1024, 1024, 1024, 1024, 0, 6, 3552, 3570, 3584, 3565, 3550, 3586, 0, 1, 15700, -90.000, 0.000, -80.000, 0.000, 0.000, -2.900, 0.0, , , , , , 98, , , 39, 39, 39
38.0861564, -120.2285460, 31.300, 09:43:39.469, 15, 0.00, 0.25, 90, -0.500, -2.200, -78.700, 855, 100, 100, 18, 21473, -20722, 4959, 5510, 10, 14, 1525970619.471, 76, 0, 1024, 1024, 1024, 1024, 0, 6, 3552, 3570, 3584, 3565, 3550, 3586, 0, 1, 15801, -89.900, 0.000, -80.000, 0.000, 0.000, -3.000, 0.0, , , , , , 98, , , 39, 39, 39
38.0861564, -120.2285459, 31.600, 09:43:39.569, 15, 0.00, 0.23, 90, -0.600, -2.200, -78.800, 855, 100, 100, 18, 21473, -20722, 4959, 5510, 10, 14, 1525970619.570, 73, 0, 1024, 1024, 1024, 1024, 0, 6, 3552, 3570, 3584, 3565, 3550, 3586, 0, 1, 15900, -90.000, 0.000, -80.000, 0.000, 0.000, -3.000, 0.0, , , , , , 98, , , 39, 39, 39
38.0861565, -120.2285457, 31.900, 09:43:39.669, 14, 0.00, 0.22, 90, -0.400, -2.200, -78.800, 855, 100, 100, 18, 21337, -21909, 4959, 5510, 10, 14, 1525970619.671, 89, 0, 1024, 1024, 1024, 1024, 0, 6, 3547, 3553, 3570, 3549, 3533, 3560, 0, 1, 16000, -89.900, 0.000, -80.000, 0.000, 0.000, -2.900, 0.0, , , , , , 98, , , 39, 39, 39
38.0861565, -120.2285456, 32.100, 09:43:39.769, 14, 0.00, 0.21, 90, -0.100, -2.100, -78.800, 855, 100, 100, 18, 21337, -21909, 4959, 5510, 10, 14, 1525970619.769, 91, 0, 1024, 1024, 1024, 1024, 0, 6, 3547, 3553, 3570, 3549, 3533, 3560, 0, 1, 16099, -89.900, 0.000, -80.000, 0.000, 0.000, -2.800, 0.0, , , , , , 98, , , 39, 39, 39
38.0861565, -120.2285456, 32.400, 09:43:39.869, 16, 0.00, 0.21, 90, -0.300, -2.000, -78.700, 855, 100, 100, 18, 21337, -21909, 4959, 5510, 10, 14, 1525970619.870, 28, 0, 1024, 1024, 1024, 1024, 0, 6, 3547, 3553, 3570, 3549, 3533, 3560, 0, 1, 16200, -89.900, 0.000, -80.000, 0.000, 0.000, -2.900, 0.0, , , , , , 98, , , 39, 39, 39
38.0861565, -120.2285455, 32.700, 09:43:39.969, 16, 0.00, 0.21, 90, -0.600, -1.800, -78.600, 855, 100, 100, 18, 21337, -21909, 4959, 5510, 10, 14, 1525970619.970, 41, 0, 1024, 1024, 1024, 1024, 0, 6, 3547, 3553, 3570, 3549, 3533, 3560, 0, 1, 16300, -89.900, 0.000, -80.000, 0.000, 0.000, -2.900, 0.0, , , , , , 98, , , 39, 39, 39
38.0861564, -120.2285455, 33.000, 09:43:40.069, 16, 0.00, 0.21, 90, -0.500, -1.300, -78.500, 855, 100, 100, 18, 21337, -21909, 4959, 5510, 10, 14, 1525970620.070, 64, 0, 1024, 1024, 1024, 1024, 0, 6, 3547, 3553, 3570, 3549, 3533, 3560, 0, 1, 16400, -89.900, 0.000, -80.000, 0.000, 0.000, -2.900, 0.0, , , , , , 98, , , 39, 39, 39
38.0861564, -120.2285455, 33.300, 09:43:40.169, 16, 0.00, 0.22, 90, 0.100, -1.200, -78.400, 855, 100, 100, 18, 21337, -21909, 4959, 5510, 10, 14, 1525970620.170, 27, 0, 1024, 1024, 1024, 1024, 0, 6, 3547, 3553, 3570, 3549, 3533, 3560, 0, 1, 16500, -89.900, 0.000, -80.000, 0.000, 0.000, -2.800, 0.0, , , , , , 98, , , 39, 39, 39
38.0861563, -120.2285455, 33.500, 09:43:40.269, 16, 0.00, 0.22, 90, 0.600, -1.200, -78.300, 855, 100, 100, 18, 21337, -21909, 4959, 5510, 10, 14, 1525970620.270, 51, 0, 1024, 1024, 1024, 1024, 0, 6, 3547, 3553, 3570, 3549, 3533, 3560, 0, 1, 16600, -89.900, 0.000, -80.000, 0.000, 0.000, -2.900, 0.0, , , , , , 98, , , 39, 39, 39
38.0861563, -120.2285455, 33.800, 09:43:40.369, 16, 0.00, 0.23, 90, 1.000, -1.200, -78.400, 855, 100, 100, 18, 21337, -21909, 4959, 5510, 10, 14, 1525970620.370, 54, 0, 1024, 1024, 1024, 1024, 0, 6, 3547, 3553, 3570, 3549, 3533, 3560, 0, 1, 16700, -89.900, 0.000, -80.000, 0.000, 0.000, -3.000, 0.0, , , , , , 98, , , 39, 39, 39
38.0861562, -120.2285455, 34.100, 09:43:40.468, 15, 0.00, 0.23, 90, 1.000, -1.500, -78.700, 855, 100, 100, 18, 21337, -21909, 4959, 5510, 10, 14, 1525970620.469, 41, 0, 1024, 1024, 1024, 1024, 0, 6, 3547, 3553, 3570, 3549, 3533, 3560, 0, 1, 16799, -89.900, 0.000, -80.000, 0.000, 0.000, -3.100, 0.0, , , , , , 98, , , 39, 39, 39
38.0861562, -120.2285454, 34.400, 09:43:40.569, 15, 0.00, 0.23, 90, 0.900, -1.600, -79.000, 855, 100, 100, 18, 21337, -21909, 4959, 5510, 10, 14, 1525970620.571, 32, 0, 1024, 1024, 1024, 1024, 0, 6, 3547, 3553, 3570, 3549, 3533, 3560, 0, 1, 16901, -89.900, 0.000, -80.000, 0.000, 0.000, -3.200, 0.0, , , , , , 98, , , 39, 39, 39
38.0861562, -120.2285454, 34.800, 09:43:40.669, 15, 0.00, 0.22, 90, 0.900, -1.800, -79.400, 855, 100, 100, 18, 21176, -23031, 4959, 5510, 10, 14, 1525970620.671, 48, 0, 1024, 1024, 1024, 1024, 0, 6, 3516, 3536, 3546, 3524, 3511, 3536, 0, 1, 17000, -90.000, 0.000, -80.000, 0.000, 0.000, -3.100, 0.0, , , , , , 98, , , 39, 39, 39
38.0861562, -120.2285453, 35.100, 09:43:40.769, 15, 0.00, 0.22, 90, 0.500, -2.500, -79.700, 855, 100, 100, 18, 21176, -23031, 4959, 5510, 10, 14, 1525970620.770, 47, 0, 1024, 1024, 1024, 1024, 0, 6, 3516, 3536, 3546, 3524, 3511, 3536, 0, 1, 17100, -89.900, 0.000, -80.000, 0.000, 0.000, -3.100, 0.0, , , , , , 98, , , 39, 39, 39
38.0861562, -120.2285452, 35.400, 09:43:40.869, 15, 0.00, 0.22, 90, 0.500, -2.700, -79.700, 855, 100, 100, 18, 21176, -23031, 4959, 5510, 10, 14, 1525970620.870, 38, 0, 1024, 1024, 1024, 1024, 0, 6, 3516, 3536, 3546, 3524, 3511, 3536, 0, 1, 17199, -90.000, 0.000, -80.000, 0.000, 0.000, -3.200, 0.0, , , , , , 98, , , 39, 39, 39
38.0861561, -120.2285452, 35.700, 09:43:40.969, 15, 0.00, 0.22, 90, 0.500, -2.600, -79.700, 855, 100, 100, 18, 21176, -23031, 4959, 5510, 10, 14, 1525970620.970, 38, 0, 1024, 1024, 1024, 1024, 0, 6, 3516, 3536, 3546, 3524, 3511, 3536, 0, 1, 17300, -89.900, 0.000, -80.000, 0.000, 0.000, -3.100, 0.0, , , , , , 98, , , 39, 39, 39
38.0861560, -120.2285452, 36.300, 09:43:41.069, 16, 0.00, 0.23, 90, 1.000, -2.400, -79.500, 855, 100, 100, 18, 21176, -23031, 4959, 5510, 10, 14, 1525970621.070, 26, 0, 1024, 1024, 1024, 1024, 0, 6, 3516, 3536, 3546, 3524, 3511, 3536, 0, 1, 17400, -89.900, 0.000, -80.000, 0.000, 0.000, -3.100, 0.0, , , , , , 98, , , 39, 39, 39
38.0861560, -120.2285452, 36.600, 09:43:41.171, 15, 0.00, 0.24, 90, 1.200, -2.700, -79.500, 855, 100, 99, 18, 21176, -23031, 4959, 5510, 10, 14, 1525970621.171, 10, 0, 1024, 1024, 1024, 1024, 0, 6, 3516, 3536, 3546, 3524, 3511, 3536, 0, 1, 17501, -90.000, 0.000, -80.000, 0.000, 0.000, -3.100, 0.0, , , , , , 98, , , 39, 39, 39
38.0861559, -120.2285452, 36.900, 09:43:41.269, 15, 0.00, 0.24, 90, 1.100, -2.800, -79.500, 855, 100, 99, 18, 21176, -23031, 4959, 5510, 10, 14, 1525970621.270, 26, 0, 1024, 1024, 1024, 1024, 0, 6, 3516, 3536, 3546, 3524, 3511, 3536, 0, 1, 17600, -89.900, 0.000, -80.000, 0.000, 0.000, -3.100, 0.0, , , , , , 98, , , 39, 39, 39
38.0861559, -120.2285452, 37.200, 09:43:41.369, 15, 0.00, 0.25, 90, 1.000, -2.900, -79.500, 855, 100, 99, 18, 21176, -23031, 4959, 5510, 10, 14, 1525970621.370, 29, 0, 1024, 1024, 1024, 1024, 0, 6, 3516, 3536, 3546, 3524, 3511, 3536, 0, 1, 17699, -89.900, 0.000, -80.000, 0.000, 0.000, -3.100, 0.0, , , , , , 98, , , 39, 39, 39
38.0861559, -120.2285452, 37.500, 09:43:41.484, 15, 0.00, 0.25, 90, 1.000, -2.800, -79.400, 855, 100, 99, 18, 21176, -23031, 4959, 5510, 10, 14, 1525970621.484, 5, 0, 1024, 1024, 1024, 1024, 0, 6, 3516, 3536, 3546, 3524, 3511, 3536, 0, 1, 17814, -89.900, 0.000, -80.000, 0.000, 0.000, -3.100, 0.0, , , , , , 98, , , 39, 39, 39
38.0861559, -120.2285452, 37.800, 09:43:41.569, 16, 0.00, 0.25, 90, 1.100, -2.600, -79.100, 855, 100, 99, 18, 21176, -23031, 4959, 5510, 10, 14, 1525970621.570, 5, 0, 1024, 1024, 1024, 1024, 0, 6, 3516, 3536, 3546, 3524, 3511, 3536, 0, 1, 17900, -89.900, 0.000, -80.000, 0.000, 0.000, -3.100, 0.0, , , , , , 98, , , 39, 39, 39
38.0861559, -120.2285452, 38.200, 09:43:41.672, 16, 0.00, 0.25, 90, 1.100, -2.300, -79.000, 855, 100, 99, 18, 20988, -24522, 4903, 5510, 10, 14, 1525970621.673, 11, 0, 1024, 1024, 1024, 1024, 0, 6, 3516, 3536, 3546, 3524, 3511, 3536, 0, 1, 18003, -89.900, 0.000, -80.000, 0.000, 0.000, -3.100, 0.0, , , , , , 98, , , 39, 39, 39
38.0861559, -120.2285452, 38.200, 09:43:41.769, 16, 0.00, 0.25, 90, 1.100, -2.300, -79.000, 855, 100, 99, 18, 20988, -24522, 4903, 5510, 10, 14, 1525970621.769, 107, 0, 1024, 1024, 1024, 1024, 0, 6, 3487, 3512, 3514, 3509, 3490, 3512, 0, 1, 18099, -89.900, 0.000, -80.000, 0.000, 0.000, -3.100, 0.0, , , , , , 98, , , 39, 39, 39
38.0861559, -120.2285453, 38.500, 09:43:41.869, 16, 0.00, 0.25, 90, 1.200, -2.200, -79.100, 855, 100, 99, 18, 20988, -24522, 4903, 5510, 10, 14, 1525970621.870, 90, 0, 1024, 1024, 1024, 1024, 0, 6, 3487, 3512, 3514, 3509, 3490, 3512, 0, 1, 18199, -89.900, 0.000, -80.000, 0.000, 0.000, -3.100, 0.0, , , , , , 98, , , 39, 39, 39
38.0861559, -120.2285453, 38.800, 09:43:41.969, 16, 0.00, 0.25, 90, 0.800, -2.100, -79.400, 855, 100, 99, 18, 20988, -24522, 4903, 5510, 10, 14, 1525970621.970, 90, 0, 1024, 1024, 1024, 1024, 0, 6, 3487, 3512, 3514, 3509, 3490, 3512, 0, 1, 18299, -89.900, 0.000, -80.000, 0.000, 0.000, -3.000, 0.0, , , , , , 98, , , 39, 39, 39
38.0861559, -120.2285454, 39.100, 09:43:42.069, 16, 0.00, 0.25, 90, 1.100, -2.200, -79.600, 855, 100, 99, 18, 20988, -24522, 4903, 5510, 10, 14, 1525970622.070, 95, 0, 1024, 1024, 1024, 1024, 0, 6, 3487, 3512, 3514, 3509, 3490, 3512, 0, 1, 18400, -89.900, 0.000, -80.000, 0.000, 0.000, -2.900, 0.0, , , , , , 98, , , 39, 39, 39
38.0861559, -120.2285454, 39.400, 09:43:42.168, 16, 0.00, 0.25, 90, 1.300, -1.800, -79.700, 855, 100, 99, 18, 20988, -24522, 4903, 5510, 10, 14, 1525970622.169, 94, 0, 1024, 1024, 1024, 1024, 0, 6, 3487, 3512, 3514, 3509, 3490, 3512, 0, 1, 18499, -89.900, 0.000, -80.000, 0.000, 0.000, -2.800, 0.0, , , , , , 98, , , 39, 39, 39
38.0861559, -120.2285455, 39.600, 09:43:42.269, 16, 0.00, 0.25, 90, 1.500, -1.400, -79.700, 855, 100, 98, 18, 20988, -24522, 4903, 5510, 10, 14, 1525970622.270, 96, 0, 1024, 1024, 1024, 1024, 0, 6, 3487, 3512, 3514, 3509, 3490, 3512, 0, 1, 18599, -89.900, 0.000, -80.000, 0.000, 0.000, -2.800, 0.0, , , , , , 98, , , 39, 39, 39
38.0861559, -120.2285455, 39.900, 09:43:42.369, 16, 0.00, 0.26, 90, 1.500, -1.200, -79.700, 855, 100, 98, 18, 20988, -24522, 4903, 5510, 10, 14, 1525970622.370, 73, 0, 1024, 1024, 1024, 1024, 0, 6, 3487, 3512, 3514, 3509, 3490, 3512, 0, 1, 18699, -89.900, 0.000, -80.000, 0.000, 0.000, -2.700, 0.0, , , , , , 98, , , 39, 39, 39
38.0861559, -120.2285456, 40.200, 09:43:42.469, 16, 0.00, 0.27, 90, 1.700, -1.000, -79.600, 855, 100, 98, 18, 20988, -24522, 4903, 5510, 10, 14, 1525970622.470, 72, 0, 1024, 1024, 1024, 1024, 0, 6, 3487, 3512, 3514, 3509, 3490, 3512, 0, 1, 18799, -89.900, 0.000, -80.000, 0.000, 0.000, -2.700, 0.0, , , , , , 98, , , 39, 39, 39
38.0861559, -120.2285457, 40.500, 09:43:42.569, 16, 0.00, 0.27, 90, 1.600, -1.000, -79.500, 855, 100, 98, 18, 20988, -24522, 4903, 5510, 10, 14, 1525970622.570, 41, 0, 1024, 1024, 1024, 1024, 0, 6, 3487, 3512, 3514, 3509, 3490, 3512, 0, 1, 18900, -89.900, 0.000, -80.000, 0.000, 0.000, -2.700, 0.0, , , , , , 98, , , 39, 39, 39
38.0861559, -120.2285457, 40.700, 09:43:42.669, 16, 0.00, 0.27, 89, 1.300, -1.100, -79.400, 855, 100, 98, 18, 21285, -20589, 4903, 5510, 10, 14, 1525970622.670, 68, 0, 1024, 1024, 1024, 1024, 0, 6, 3487, 3512, 3514, 3509, 3490, 3512, 0, 1, 18999, -89.900, 0.000, -80.000, 0.000, 0.000, -2.700, 0.0, , , , , , 98, , , 39, 39, 39
38.0861559, -120.2285457, 41.000, 09:43:42.769, 16, 0.00, 0.27, 89, 1.300, -1.400, -79.400, 855, 100, 97, 18, 21285, -20589, 4903, 5510, 10, 14, 1525970622.770, 66, 0, 1024, 1024, 1024, 1024, 0, 6, 3541, 3558, 3572, 3553, 3533, 3581, 0, 1, 19099, -89.900, 0.000, -80.000, 0.000, 0.000, -2.700, 0.0, , , , , , 98, , , 39, 39, 39
38.0861559, -120.2285457, 41.300, 09:43:42.869, 16, 0.00, 0.27, 89, 1.700, -1.500, -79.400, 855, 100, 97, 18, 21285, -20589, 4903, 5510, 10, 14, 1525970622.870, 68, 0, 1024, 1024, 1024, 1024, 0, 6, 3541, 3558, 3572, 3553, 3533, 3581, 0, 1, 19200, -89.900, 0.000, -80.000, 0.000, 0.000, -2.700, 0.0, , , , , , 98, , , 39, 39, 39
38.0861559, -120.2285457, 41.500, 09:43:42.969, 16, 0.00, 0.27, 89, 1.800, -1.600, -79.400, 855, 100, 97, 18, 21285, -20589, 4903, 5510, 10, 14, 1525970622.970, 30, 0, 1024, 1024, 1024, 1024, 0, 6, 3541, 3558, 3572, 3553, 3533, 3581, 0, 1, 19300, -89.900, 0.000, -80.000, 0.000, 0.000, -2.700, 0.0, , , , , , 98, , , 39, 39, 39
38.0861559, -120.2285457, 41.800, 09:43:43.069, 16, 0.00, 0.27, 89, 1.800, -1.800, -79.500, 855, 100, 97, 18, 21285, -20589, 4903, 5510, 10, 14, 1525970623.070, 43, 0, 1024, 1024, 1024, 1024, 0, 6, 3541, 3558, 3572, 3553, 3533, 3581, 0, 1, 19399, -89.900, 0.000, -80.000, 0.000, 0.000, -2.700, 0.0, , , , , , 98, , , 39, 39, 39
38.0861559, -120.2285458, 42.100, 09:43:43.168, 16, 0.00, 0.28, 89, 1.900, -1.800, -79.600, 855, 100, 97, 18, 21285, -20589, 4903, 5510, 10, 14, 1525970623.169, 6, 0, 1024, 1024, 1024, 1024, 0, 6, 3541, 3558, 3572, 3553, 3533, 3581, 0, 1, 19499, -89.900, 0.000, -80.000, 0.000, 0.000, -2.700, 0.0, , , , , , 98, , , 39, 39, 39
38.0861558, -120.2285458, 42.300, 09:43:43.269, 16, 0.00, 0.28, 89, 2.000, -1.700, -79.600, 855, 100, 97, 18, 21285, -20589, 4903, 5510, 10, 14, 1525970623.270, 42, 0, 1024, 1024, 1024, 1024, 0, 6, 3541, 3558, 3572, 3553, 3533, 3581, 0, 1, 19600, -89.900, 0.000, -80.000, 0.000, 0.000, -2.700, 0.0, , , , , , 98, , , 39, 39, 39
38.0861558, -120.2285458, 42.600, 09:43:43.369, 16, 0.00, 0.28, 89, 1.900, -1.800, -79.400, 855, 100, 97, 18, 21285, -20589, 4903, 5510, 10, 14, 1525970623.370, 30, 0, 1024, 1024, 1024, 1024, 0, 6, 3541, 3558, 3572, 3553, 3533, 3581, 0, 1, 19699, -89.900, 0.000, -80.000, 0.000, 0.000, -2.800, 0.0, , , , , , 98, , , 39, 39, 39
38.0861558, -120.2285459, 43.200, 09:43:43.469, 16, 0.00, 0.29, 89, 2.400, -1.300, -79.200, 855, 100, 97, 18, 21285, -20589, 4903, 5510, 10, 14, 1525970623.470, 7, 0, 1024, 1024, 1024, 1024, 0, 6, 3541, 3558, 3572, 3553, 3533, 3581, 0, 1, 19799, -89.900, 0.000, -80.000, 0.000, 0.000, -2.800, 0.0, , , , , , 98, , , 39, 39, 39
38.0861558, -120.2285460, 43.500, 09:43:43.569, 16, 0.00, 0.30, 89, 2.500, -1.000, -79.100, 855, 100, 97, 19, 21487, -18257, 4903, 5510, 10, 14, 1525970623.570, 25, 0, 1024, 1024, 1024, 1024, 0, 6, 3541, 3558, 3572, 3553, 3533, 3581, 0, 1, 19899, -89.900, 0.000, -80.000, 0.000, 0.000, -2.800, 0.0, , , , , , 98, , , 39, 39, 39
38.0861558, -120.2285461, 43.800, 09:43:43.677, 16, 0.00, 0.30, 89, 2.400, -0.900, -79.100, 855, 100, 99, 19, 21487, -18257, 4903, 5510, 10, 14, 1525970623.677, 13, 0, 1024, 1024, 1024, 1024, 0, 6, 3541, 3558, 3572, 3553, 3533, 3581, 0, 1, 20007, -89.900, 0.000, -80.000, 0.000, 0.000, -2.900, 0.0, , , , , , 98, , , 39, 39, 39
38.0861558, -120.2285461, 44.000, 09:43:43.769, 16, 0.00, 0.30, 89, 2.200, -1.000, -79.200, 855, 100, 99, 19, 21487, -18257, 4903, 5510, 10, 14, 1525970623.770, 23, 0, 1024, 1024, 1024, 1024, 0, 6, 3541, 3558, 3572, 3553, 3533, 3581, 0, 1, 20099, -89.900, 0.000, -80.000, 0.000, 0.000, -2.800, 0.0, , , , , , 98, , , 39, 39, 39
38.0861558, -120.2285461, 44.000, 09:43:43.869, 16, 0.00, 0.30, 89, 2.200, -1.000, -79.200, 855, 100, 99, 19, 21487, -18257, 4903, 5510, 10, 14, 1525970623.870, 123, 0, 1024, 1024, 1024, 1024, 0, 6, 3541, 3558, 3572, 3553, 3533, 3581, 0, 1, 20200, -89.900, 0.000, -80.000, 0.000, 0.000, -2.800, 0.0, , , , , , 98, , , 39, 39, 39
38.0861557, -120.2285461, 44.300, 09:43:43.969, 16, 0.00, 0.31, 89, 2.100, -1.100, -79.200, 855, 100, 99, 19, 21487, -18257, 4903, 5510, 10, 14, 1525970623.970, 82, 0, 1024, 1024, 1024, 1024, 0, 6, 3541, 3558, 3572, 3553, 3533, 3581, 0, 1, 20299, -89.900, 0.000, -80.000, 0.000, 0.000, -2.800, 0.0, , , , , , 98, , , 39, 39, 39
38.0861557, -120.2285462, 44.900, 09:43:44.069, 16, 0.00, 0.32, 89, 3.000, -1.300, -79.100, 855, 100, 99, 19, 21487, -18257, 4903, 5510, 10, 14, 1525970624.070, 8, 0, 1024, 1024, 1024, 1024, 0, 6, 3541, 3558, 3572, 3553, 3533, 3581, 0, 1, 20400, -89.900, 0.000, -80.000, 0.000, 0.000, -2.900, 0.0, , , , , , 98, , , 39, 39, 39
38.0861557, -120.2285462, 44.900, 09:43:44.169, 16, 0.00, 0.32, 89, 3.000, -1.300, -79.100, 855, 100, 99, 19, 21487, -18257, 4903, 5510, 10, 14, 1525970624.170, 108, 0, 1024, 1024, 1024, 1024, 0, 6, 3576, 3587, 3592, 3576, 3551, 3587, 0, 1, 20499, -89.900, 0.000, -80.000, 0.000, 0.000, -2.900, 0.0, , , , , , 98, , , 39, 39, 39
38.0861556, -120.2285462, 45.200, 09:43:44.269, 16, 0.00, 0.32, 89, 3.400, -0.900, -79.000, 855, 100, 97, 19, 21487, -18257, 4903, 5510, 10, 14, 1525970624.269, 90, 0, 1024, 1024, 1024, 1024, 0, 6, 3576, 3587, 3592, 3576, 3551, 3587, 0, 1, 20599, -89.900, 0.000, -80.000, 0.000, 0.000, -2.900, 0.0, , , , , , 98, , , 39, 39, 39
38.0861556, -120.2285462, 45.200, 09:43:44.369, 16, 0.00, 0.32, 89, 3.400, -0.900, -79.000, 855, 100, 97, 19, 21487, -18257, 4903, 5510, 10, 14, 1525970624.370, 190, 0, 1024, 1024, 1024, 1024, 0, 6, 3576, 3587, 3592, 3576, 3551, 3587, 0, 1, 20699, -89.900, 0.000, -80.000, 0.000, 0.000, -2.900, 0.0, , , , , , 98, , , 39, 39, 39
38.0861556, -120.2285462, 45.200, 09:43:44.468, 16, 0.00, 0.32, 89, 3.400, -0.900, -79.000, 855, 100, 97, 19, 21487, -18257, 4903, 5510, 10, 14, 1525970624.469, 289, 0, 1024, 1024, 1024, 1024, 0, 6, 3576, 3587, 3592, 3576, 3551, 3587, 0, 1, 20798, -89.900, 0.000, -80.000, 0.000, 0.000, -2.900, 0.0, , , , , , 98, , , 39, 39, 39
38.0861556, -120.2285462, 46.100, 09:43:44.569, 16, 0.00, 0.32, 89, 1.700, -0.800, -79.800, 855, 100, 97, 19, 21487, -18257, 4903, 5510, 10, 14, 1525970624.570, 81, 0, 1024, 1024, 1024, 1024, 0, 6, 3576, 3587, 3592, 3576, 3551, 3587, 0, 1, 20900, -90.000, 0.000, -80.000, 0.000, 0.000, -3.100, 0.0, , , , , , 98, , , 39, 39, 39
