Latitude, Longitude, Altitude (m), Time, Sats, Speed (m/s), Range (m), Battery (%), Roll (deg), Pitch (deg), Yaw (deg), Images, HD Signal (%), RC Signal (%), Battery Temp (C), Battery Voltage (mV), Battery Current (mA), Battery Energy (mAh), Battery Capacity (mAh), Battery Discharges, flyState, timestamp (Unix), LastUpdate (ms), radioChannel, Rc_elevator, Rc_aileron, Rc_throttle, Rc_rudder, Rc_gyro, Dronetype, Battery_Cell1 (mV), Battery_Cell2 (mV), Battery_Cell3 (mV), Battery_Cell4 (mV), Battery_Cell5 (mV), Battery_Cell6 (mV), Video, isFlying, elapsedTime (ms), gimbalPitch (deg), gimbalRoll (deg), gimbalYaw (deg), VelocityX (m/s), VelocityY (m/s), VelocityZ (m/s), GroundSmear (cm), App Version, Aircraft Name, Aircraft Firmware, Aircraft Serial Number, Battery Serial Number, Battery Lifetime (%), App_Tip, App_Warning, CurrentFlightStartingIndex, CurrentFlightLastVisitedWaypoint, PreviousFlightEndingWaypointIndex
38.0861267, -120.2285425, 0.000, 10:01:04.227, 13, 0.00, 0.10, 98, 0.300, 1.200, -77.200, 1202, 100, 100, 17, 25300, -3878, 5399, 5510, 10, 11, 1525971664.228, 90, 0, 1024, 1024, 1024, 1024, 0, 6, 4220, 4233, 4231, 4227, 4251, 4293, 0, 1, 3201, -89.900, 0.000, -76.700, 0.000, 0.000, -0.300, 0.0, MapPilot_2.8.1_04242018, Dendroctonus I, 1.3.1.00, 041DDC1887, 1058171200161, 98, DJI_0201.jpg, Starting Mission from Lat/Long: 38.08611/-120.22856 Camera: Zenmuse X3 - Overlap: 90/90 - Active Connection: No, 55, 55, 55
38.0861268, -120.2285424, 0.000, 10:01:04.327, 13, 0.00, 0.12, 98, -0.300, 0.600, -77.000, 1202, 100, 100, 17, 25300, -3878, 5399, 5510, 10, 11, 1525971664.328, 33, 0, 1024, 1024, 1024, 1024, 0, 6, 4220, 4233, 4231, 4227, 4251, 4293, 0, 1, 3301, -90.000, 0.000, -76.700, 0.000, 0.000, -0.400, 0.0, , , , , , 98, , , 55, 55, 55
38.0861269, -120.2285423, 0.100, 10:01:04.427, 13, 0.00, 0.13, 98, -0.400, 0.300, -76.900, 1202, 100, 100, 17, 25300, -3878, 5399, 5510, 10, 11, 1525971664.428, 22, 0, 1024, 1024, 1024, 1024, 0, 6, 4220, 4233, 4231, 4227, 4251, 4293, 0, 1, 3401, -89.900, 0.000, -76.700, 0.000, 0.000, -0.400, 0.0, , , , , , 98, , , 55, 55, 55
38.0861270, -120.2285423, 0.100, 10:01:04.527, 13, 0.00, 0.14, 98, -0.600, 0.000, -76.900, 1202, 100, 100, 17, 24969, -6314, 5399, 5510, 10, 11, 1525971664.528, 24, 0, 1024, 1024, 1024, 1024, 0, 6, 4220, 4233, 4231, 4227, 4251, 4293, 0, 1, 3501, -90.000, 0.000, -76.700, 0.000, 0.000, -0.400, 0.0, , , , , , 98, , , 55, 55, 55
38.0861271, -120.2285422, 0.200, 10:01:04.627, 12, 0.00, 0.15, 98, -0.700, 0.000, -76.900, 1202, 100, 100, 17, 24969, -6314, 5399, 5510, 10, 11, 1525971664.628, 16, 0, 1024, 1024, 1024, 1024, 0, 6, 4150, 4086, 4098, 4122, 4109, 4127, 0, 1, 3601, -89.900, 0.000, -76.700, 0.000, 0.000, -0.400, 0.0, , , , , , 98, , , 55, 55, 55
38.0861271, -120.2285422, 0.200, 10:01:04.727, 12, 0.00, 0.15, 98, -0.300, 0.000, -77.000, 1202, 100, 100, 17, 24969, -6314, 5399, 5510, 10, 11, 1525971664.728, 15, 0, 1024, 1024, 1024, 1024, 0, 6, 4150, 4086, 4098, 4122, 4109, 4127, 0, 1, 3701, -89.900, 0.000, -76.700, 0.000, 0.000, -0.400, 0.0, , , , , , 98, , , 55, 55, 55
38.0861272, -120.2285422, 0.300, 10:01:04.832, 10, 0.00, 0.16, 98, -0.100, 0.000, -77.100, 1202, 100, 100, 17, 24969, -6314, 5399, 5510, 10, 11, 1525971664.833, 5, 0, 1024, 1024, 1024, 1024, 0, 6, 4150, 4086, 4098, 4122, 4109, 4127, 0, 1, 3806, -90.000, 0.000, -76.700, 0.000, 0.000, -0.400, 0.0, , , , , , 98, , , 55, 55, 55
38.0861272, -120.2285422, 0.300, 10:01:04.927, 10, 0.00, 0.16, 98, -0.100, 0.000, -77.100, 1202, 100, 100, 17, 24969, -6314, 5399, 5510, 10, 11, 1525971664.927, 100, 0, 1024, 1024, 1024, 1024, 0, 6, 4150, 4086, 4098, 4122, 4109, 4127, 0, 1, 3901, -90.000, 0.000, -76.700, 0.000, 0.000, -0.400, 0.0, , , , , , 98, , , 55, 55, 55
38.0861273, -120.2285422, 0.300, 10:01:05.027, 10, 0.00, 0.17, 98, 0.000, -0.200, -77.300, 1202, 100, 100, 17, 24969, -6314, 5399, 5510, 10, 11, 1525971665.027, 93, 0, 1024, 1024, 1024, 1024, 0, 6, 4150, 4086, 4098, 4122, 4109, 4127, 0, 1, 4000, -89.900, 0.000, -76.700, 0.000, 0.000, -0.400, 0.0, , , , , , 98, , , 55, 55, 55
38.0861273, -120.2285422, 0.400, 10:01:05.127, 10, 0.00, 0.18, 98, -0.100, -0.200, -77.400, 1202, 100, 100, 17, 23860, -15580, 5399, 5510, 10, 11, 1525971665.127, 89, 0, 1024, 1024, 1024, 1024, 0, 6, 4150, 4086, 4098, 4122, 4109, 4127, 0, 1, 4101, -89.900, 0.000, -76.700, 0.000, 0.000, -0.300, 0.0, , , , , , 98, , , 55, 55, 55
38.0861273, -120.2285421, 0.400, 10:01:05.227, 10, 0.00, 0.18, 98, -0.400, -0.300, -77.500, 1202, 100, 100, 17, 23860, -15580, 5399, 5510, 10, 11, 1525971665.228, 81, 0, 1024, 1024, 1024, 1024, 0, 6, 4150, 4086, 4098, 4122, 4109, 4127, 0, 1, 4201, -89.900, 0.000, -76.700, 0.000, 0.000, -0.400, 0.0, , , , , , 98, , , 55, 55, 55
38.0861274, -120.2285421, 0.500, 10:01:05.326, 11, 0.00, 0.18, 98, -0.600, -0.200, -77.400, 1202, 100, 100, 17, 23860, -15580, 5399, 5510, 10, 11, 1525971665.327, 81, 0, 1024, 1024, 1024, 1024, 0, 6, 4150, 4086, 4098, 4122, 4109, 4127, 0, 1, 4300, -90.000, 0.000, -76.700, 0.000, 0.000, -0.500, 0.0, , , , , , 98, , , 55, 55, 55
38.0861274, -120.2285421, 0.500, 10:01:05.427, 11, 0.00, 0.18, 98, -0.600, -0.200, -77.300, 1202, 100, 100, 17, 23860, -15580, 5399, 5510, 10, 11, 1525971665.428, 80, 0, 1024, 1024, 1024, 1024, 0, 6, 4150, 4086, 4098, 4122, 4109, 4127, 0, 1, 4401, -90.000, 0.000, -76.700, 0.000, 0.000, -0.500, 0.0, , , , , , 98, , , 55, 55, 55
38.0861274, -120.2285421, 0.600, 10:01:05.527, 11, 0.00, 0.18, 98, -0.600, -0.400, -77.200, 1202, 100, 100, 17, 23860, -15580, 5399, 5510, 10, 11, 1525971665.527, 83, 0, 1024, 1024, 1024, 1024, 0, 6, 4150, 4086, 4098, 4122, 4109, 4127, 0, 1, 4501, -90.000, 0.000, -76.700, 0.000, 0.000, -0.500, 0.0, , , , , , 98, , , 55, 55, 55
38.0861273, -120.2285421, 0.700, 10:01:05.628, 11, 0.00, 0.18, 98, -0.600, -0.300, -77.200, 1202, 100, 100, 17, 23860, -15580, 5399, 5510, 10, 11, 1525971665.628, 80, 0, 1024, 1024, 1024, 1024, 0, 6, 3967, 3950, 3951, 3980, 3969, 3976, 0, 1, 4601, -89.900, 0.000, -76.700, 0.000, 0.000, -0.400, 0.0, , , , , , 98, , , 55, 55, 55
38.0861273, -120.2285421, 0.700, 10:01:05.727, 11, 0.00, 0.18, 98, -0.500, -0.300, -77.200, 1202, 100, 100, 17, 23860, -15580, 5399, 5510, 10, 11, 1525971665.728, 62, 0, 1024, 1024, 1024, 1024, 0, 6, 3967, 3950, 3951, 3980, 3969, 3976, 0, 1, 4701, -89.900, 0.000, -76.700, 0.000, 0.000, -0.300, 0.0, , , , , , 98, , , 55, 55, 55
38.0861273, -120.2285421, 0.700, 10:01:05.827, 11, 0.00, 0.18, 98, -0.100, -0.200, -77.200, 1202, 100, 100, 17, 23860, -15580, 5399, 5510, 10, 11, 1525971665.828, 57, 0, 1024, 1024, 1024, 1024, 0, 6, 3967, 3950, 3951, 3980, 3969, 3976, 0, 1, 4801, -89.900, 0.000, -76.700, 0.000, 0.000, -0.300, 0.0, , , , , , 98, , , 55, 55, 55
38.0861272, -120.2285419, 0.800, 10:01:05.927, 11, 0.00, 0.17, 98, 0.300, -0.600, -77.400, 1202, 100, 100, 17, 23860, -15580, 5399, 5510, 10, 11, 1525971665.928, 50, 0, 1024, 1024, 1024, 1024, 0, 6, 3967, 3950, 3951, 3980, 3969, 3976, 0, 1, 4901, -90.000, 0.000, -76.700, 0.000, 0.000, -0.400, 0.0, , , , , , 98, , , 55, 55, 55
38.0861272, -120.2285419, 0.800, 10:01:06.027, 11, 0.00, 0.17, 98, 0.300, -0.600, -77.400, 1202, 100, 100, 17, 23860, -15580, 5399, 5510, 10, 11, 1525971666.028, 150, 0, 1024, 1024, 1024, 1024, 0, 6, 3967, 3950, 3951, 3980, 3969, 3976, 0, 1, 5001, -90.000, 0.000, -76.700, 0.000, 0.000, -0.400, 0.0, , , , , , 98, , , 55, 55, 55
38.0861272, -120.2285418, 0.900, 10:01:06.127, 12, 0.00, 0.17, 98, 0.200, -0.900, -77.700, 1202, 100, 100, 17, 23860, -15580, 5399, 5510, 10, 14, 1525971666.128, 7, 0, 1024, 1024, 1024, 1024, 0, 6, 3967, 3950, 3951, 3980, 3969, 3976, 0, 1, 5101, -90.000, 0.000, -76.700, 0.000, 0.000, -0.400, 0.0, , , , , , 98, , , 55, 55, 55
38.0861272, -120.2285418, 0.900, 10:01:06.227, 12, 0.00, 0.17, 98, 0.200, -0.900, -77.700, 1202, 100, 100, 17, 23860, -15580, 5399, 5510, 10, 14, 1525971666.228, 106, 0, 1024, 1024, 1024, 1024, 0, 6, 3967, 3950, 3951, 3980, 3969, 3976, 0, 1, 5201, -90.000, 0.000, -76.700, 0.000, 0.000, -0.400, 0.0, , , , , , 98, , , 55, 55, 55
38.0861272, -120.2285416, 1.000, 10:01:06.327, 12, 0.00, 0.18, 98, 0.900, -0.800, -77.900, 1202, 100, 100, 17, 23860, -15580, 5399, 5510, 10, 14, 1525971666.328, 18, 0, 1024, 1024, 1024, 1024, 0, 6, 3967, 3950, 3951, 3980, 3969, 3976, 0, 1, 5301, -89.900, 0.000, -76.700, 0.000, 0.000, -0.200, 0.0, , , , , , 98, , , 55, 55, 55
38.0861272, -120.2285416, 1.000, 10:01:06.427, 13, 0.00, 0.18, 98, 0.600, -0.600, -77.800, 1202, 100, 100, 17, 23860, -15580, 5399, 5510, 10, 14, 1525971666.427, 12, 0, 1024, 1024, 1024, 1024, 0, 6, 3967, 3950, 3951, 3980, 3969, 3976, 0, 1, 5400, -89.900, 0.000, -76.700, 0.000, 0.000, -0.200, 0.0, , , , , , 98, , , 55, 55, 55
38.0861272, -120.2285416, 1.000, 10:01:06.527, 13, 0.00, 0.19, 98, 0.300, -0.600, -77.700, 1202, 100, 100, 17, 23599, -16375, 5399, 5510, 10, 14, 1525971666.528, 34, 0, 1024, 1024, 1024, 1024, 0, 6, 3927, 3927, 3918, 3947, 3938, 3935, 0, 1, 5501, -89.900, 0.000, -76.700, 0.000, 0.000, -0.300, 0.0, , , , , , 98, , , 55, 55, 55
38.0861271, -120.2285415, 1.100, 10:01:06.627, 12, 0.00, 0.19, 98, 0.200, -0.500, -77.600, 1202, 100, 100, 17, 23599, -16375, 5399, 5510, 10, 14, 1525971666.628, 35, 0, 1024, 1024, 1024, 1024, 0, 6, 3927, 3927, 3918, 3947, 3938, 3935, 0, 1, 5601, -89.900, 0.000, -76.700, 0.000, 0.000, -0.500, 0.0, , , , , , 98, , , 55, 55, 55
38.0861271, -120.2285414, 1.100, 10:01:06.727, 12, 0.00, 0.19, 98, 0.000, -0.700, -77.600, 1202, 100, 100, 17, 23599, -16375, 5399, 5510, 10, 14, 1525971666.729, 40, 0, 1024, 1024, 1024, 1024, 0, 6, 3927, 3927, 3918, 3947, 3938, 3935, 0, 1, 5702, -90.000, 0.000, -76.700, 0.000, 0.000, -0.600, 0.0, , , , , , 98, , , 55, 55, 55
38.0861271, -120.2285413, 1.200, 10:01:06.827, 13, 0.00, 0.19, 98, 0.000, -0.800, -77.600, 1202, 100, 100, 17, 23599, -16375, 5399, 5510, 10, 14, 1525971666.828, 39, 0, 1024, 1024, 1024, 1024, 0, 6, 3927, 3927, 3918, 3947, 3938, 3935, 0, 1, 5801, -89.900, 0.000, -76.700, 0.000, 0.000, -0.800, 0.0, , , , , , 98, , , 55, 55, 55
38.0861270, -120.2285413, 1.300, 10:01:06.927, 13, 0.00, 0.18, 98, 0.400, -0.600, -77.800, 1202, 100, 100, 17, 23599, -16375, 5399, 5510, 10, 14, 1525971666.928, 19, 0, 1024, 1024, 1024, 1024, 0, 6, 3927, 3927, 3918, 3947, 3938, 3935, 0, 1, 5901, -89.900, 0.000, -76.700, 0.000, 0.000, -1.000, 0.0, , , , , , 98, , , 55, 55, 55
38.0861270, -120.2285413, 1.400, 10:01:07.027, 11, 0.00, 0.19, 98, 0.900, -0.300, -78.000, 1202, 100, 100, 17, 23599, -16375, 5399, 5510, 10, 14, 1525971667.027, 34, 0, 1024, 1024, 1024, 1024, 0, 6, 3927, 3927, 3918, 3947, 3938, 3935, 0, 1, 6000, -89.900, 0.000, -76.700, 0.000, 0.000, -1.200, 0.0, , , , , , 98, , , 55, 55, 55
38.0861271, -120.2285413, 1.600, 10:01:07.142, 11, 0.00, 0.20, 98, 0.900, -0.300, -78.200, 1202, 100, 100, 17, 23599, -16375, 5399, 5510, 10, 14, 1525971667.142, 13, 0, 1024, 1024, 1024, 1024, 0, 6, 3927, 3927, 3918, 3947, 3938, 3935, 0, 1, 6115, -89.900, 0.000, -76.800, 0.000, 0.000, -1.500, 0.0, , , , , , 98, , , 55, 55, 55
38.0861272, -120.2285413, 1.800, 10:01:07.227, 10, 0.00, 0.20, 98, 0.500, -0.500, -78.300, 1202, 100, 100, 17, 23599, -16375, 5399, 5510, 10, 14, 1525971667.228, 27, 0, 1024, 1024, 1024, 1024, 0, 6, 3927, 3927, 3918, 3947, 3938, 3935, 0, 1, 6201, -89.900, 0.000, -76.800, 0.000, 0.000, -1.700, 0.0, , , , , , 98, , , 55, 55, 55
38.0861273, -120.2285414, 1.900, 10:01:07.327, 10, 0.00, 0.20, 98, 0.000, -0.600, -78.300, 1202, 100, 100, 17, 23599, -16375, 5399, 5510, 10, 14, 1525971667.328, 19, 0, 1024, 1024, 1024, 1024, 0, 6, 3927, 3927, 3918, 3947, 3938, 3935, 0, 1, 6301, -89.900, 0.000, -76.800, 0.000, 0.000, -1.900, 0.0, , , , , , 98, , , 55, 55, 55
38.0861273, -120.2285414, 2.100, 10:01:07.438, 11, 0.00, 0.21, 98, -0.200, -0.500, -78.100, 1202, 100, 100, 17, 23599, -16375, 5399, 5510, 10, 14, 1525971667.438, 7, 0, 1024, 1024, 1024, 1024, 0, 6, 3927, 3927, 3918, 3947, 3938, 3935, 0, 1, 6412, -89.900, 0.000, -76.800, 0.000, 0.000, -2.100, 0.0, , , , , , 98, , , 55, 55, 55
38.0861274, -120.2285415, 2.400, 10:01:07.531, 11, 0.00, 0.21, 98, -0.400, -0.300, -78.000, 1202, 100, 100, 17, 23452, -16757, 5399, 5510, 10, 14, 1525971667.532, 5, 0, 1024, 1024, 1024, 1024, 0, 6, 3927, 3927, 3918, 3947, 3938, 3935, 0, 1, 6506, -89.900, 0.000, -76.800, 0.000, 0.000, -2.400, 0.0, , , , , , 98, , , 55, 55, 55
38.0861274, -120.2285415, 2.400, 10:01:07.627, 11, 0.00, 0.21, 98, -0.400, -0.300, -78.000, 1202, 100, 100, 17, 23452, -16757, 5399, 5510, 10, 14, 1525971667.628, 100, 0, 1024, 1024, 1024, 1024, 0, 6, 3898, 3866, 3866, 3884, 3876, 3890, 0, 1, 6601, -89.900, 0.000, -76.800, 0.000, 0.000, -2.400, 0.0, , , , , , 98, , , 55, 55, 55
38.0861275, -120.2285415, 2.900, 10:01:07.727, 14, 0.00, 0.22, 98, -0.300, -0.100, -78.100, 1202, 100, 100, 17, 23452, -16757, 5399, 5510, 10, 14, 1525971667.728, 6, 0, 1024, 1024, 1024, 1024, 0, 6, 3898, 3866, 3866, 3884, 3876, 3890, 0, 1, 6701, -89.900, 0.000, -76.900, 0.000, 0.000, -2.700, 0.0, , , , , , 98, , , 55, 55, 55
38.0861275, -120.2285415, 2.900, 10:01:07.827, 14, 0.00, 0.22, 98, -0.300, -0.100, -78.100, 1202, 100, 100, 17, 23452, -16757, 5399, 5510, 10, 14, 1525971667.828, 107, 0, 1024, 1024, 1024, 1024, 0, 6, 3898, 3866, 3866, 3884, 3876, 3890, 0, 1, 6801, -89.900, 0.000, -76.900, 0.000, 0.000, -2.700, 0.0, , , , , , 98, , , 55, 55, 55
38.0861275, -120.2285416, 3.200, 10:01:07.927, 13, 0.00, 0.21, 98, -0.100, 0.000, -78.100, 1202, 100, 100, 17, 23452, -16757, 5399, 5510, 10, 14, 1525971667.928, 84, 0, 1024, 1024, 1024, 1024, 0, 6, 3898, 3866, 3866, 3884, 3876, 3890, 0, 1, 6901, -89.900, 0.000, -76.900, 0.000, 0.000, -2.900, 0.0, , , , , , 98, , , 55, 55, 55
38.0861275, -120.2285417, 3.500, 10:01:08.027, 13, 0.00, 0.21, 98, 0.000, 0.000, -78.200, 1202, 100, 100, 17, 23452, -16757, 5399, 5510, 10, 14, 1525971668.028, 84, 0, 1024, 1024, 1024, 1024, 0, 6, 3898, 3866, 3866, 3884, 3876, 3890, 0, 1, 7001, -89.900, 0.000, -76.900, 0.000, 0.000, -3.100, 0.0, , , , , , 98, , , 55, 55, 55
38.0861275, -120.2285419, 3.800, 10:01:08.127, 14, 0.00, 0.20, 98, 0.200, 0.000, -78.300, 1202, 100, 100, 17, 23452, -16757, 5399, 5510, 10, 14, 1525971668.128, 87, 0, 1024, 1024, 1024, 1024, 0, 6, 3898, 3866, 3866, 3884, 3876, 3890, 0, 1, 7101, -89.900, 0.000, -76.900, 0.000, 0.000, -3.200, 0.0, , , , , , 98, , , 55, 55, 55
38.0861274, -120.2285421, 4.200, 10:01:08.227, 14, 0.00, 0.18, 98, 0.500, 0.200, -78.300, 1202, 100, 100, 17, 23452, -16757, 5399, 5510, 10, 14, 1525971668.227, 74, 0, 1024, 1024, 1024, 1024, 0, 6, 3898, 3866, 3866, 3884, 3876, 3890, 0, 1, 7200, -89.900, 0.000, -76.900, 0.000, 0.000, -3.300, 0.0, , , , , , 98, , , 55, 55, 55
38.0861271, -120.2285423, 4.500, 10:01:08.327, 13, 0.00, 0.15, 98, 0.800, 0.500, -78.300, 1202, 100, 100, 17, 23452, -16757, 5399, 5510, 10, 14, 1525971668.328, 84, 0, 1024, 1024, 1024, 1024, 0, 6, 3898, 3866, 3866, 3884, 3876, 3890, 0, 1, 7301, -89.900, 0.000, -77.000, 0.000, 0.000, -3.300, 0.0, , , , , , 98, , , 55, 55, 55
38.0861268, -120.2285425, 4.900, 10:01:08.427, 13, 0.00, 0.12, 98, 1.300, 0.600, -78.300, 1202, 100, 100, 17, 23452, -16757, 5399, 5510, 10, 14, 1525971668.428, 73, 0, 1024, 1024, 1024, 1024, 0, 6, 3898, 3866, 3866, 3884, 3876, 3890, 0, 1, 7401, -89.900, 0.000, -77.000, 0.000, 0.000, -3.300, 0.0, , , , , , 98, , , 55, 55, 55
38.0861265, -120.2285426, 5.200, 10:01:08.527, 14, 0.10, 0.08, 98, 1.800, 0.600, -78.200, 1202, 100, 100, 17, 23452, -16757, 5399, 5510, 10, 14, 1525971668.528, 38, 0, 1024, 1024, 1024, 1024, 0, 6, 3898, 3866, 3866, 3884, 3876, 3890, 0, 1, 7502, -89.900, 0.000, -77.000, -0.100, 0.000, -3.300, 0.0, , , , , , 98, , , 55, 55, 55
38.0861263, -120.2285428, 5.600, 10:01:08.627, 14, 0.10, 0.05, 98, 2.300, 0.500, -78.100, 1202, 100, 100, 17, 22808, -23488, 5399, 5510, 10, 14, 1525971668.628, 52, 0, 1024, 1024, 1024, 1024, 0, 6, 3774, 3789, 3764, 3803, 3788, 3777, 0, 1, 7601, -89.900, 0.000, -77.000, -0.100, 0.000, -3.300, 0.0, , , , , , 98, , , 55, 55, 55
38.0861256, -120.2285428, 6.300, 10:01:08.727, 13, 0.10, 0.02, 98, 2.900, 0.100, -77.900, 1202, 100, 100, 17, 22808, -23488, 5399, 5510, 10, 14, 1525971668.728, 41, 0, 1024, 1024, 1024, 1024, 0, 6, 3774, 3789, 3764, 3803, 3788, 3777, 0, 1, 7701, -89.900, 0.000, -77.000, -0.100, 0.000, -3.200, 0.0, , , , , , 98, , , 55, 55, 55
38.0861256, -120.2285428, 6.300, 10:01:08.827, 13, 0.10, 0.02, 98, 2.900, 0.100, -77.900, 1202, 100, 100, 17, 22808, -23488, 5399, 5510, 10, 14, 1525971668.828, 141, 0, 1024, 1024, 1024, 1024, 0, 6, 3774, 3789, 3764, 3803, 3788, 3777, 0, 1, 7801, -89.900, 0.000, -77.000, -0.100, 0.000, -3.200, 0.0, , , , , , 98, , , 55, 55, 55
38.0861254, -120.2285425, 6.900, 10:01:08.927, 14, 0.00, 0.05, 98, 3.000, -0.300, -77.900, 1202, 100, 100, 17, 22808, -23488, 5399, 5510, 10, 14, 1525971668.928, 27, 0, 1024, 1024, 1024, 1024, 0, 6, 3774, 3789, 3764, 3803, 3788, 3777, 0, 1, 7901, -90.000, 0.000, -77.000, 0.000, 0.000, -3.100, 0.0, , , , , , 98, , , 55, 55, 55
38.0861252, -120.2285424, 7.300, 10:01:09.027, 14, 0.00, 0.07, 98, 2.500, -0.600, -77.900, 1202, 100, 100, 17, 22808, -23488, 5399, 5510, 10, 14, 1525971669.028, 37, 0, 1024, 1024, 1024, 1024, 0, 6, 3774, 3789, 3764, 3803, 3788, 3777, 0, 1, 8001, -90.000, 0.000, -77.000, 0.000, 0.000, -3.200, 0.0, , , , , , 98, , , 55, 55, 55
38.0861251, -120.2285424, 7.600, 10:01:09.127, 14, 0.00, 0.08, 98, 2.200, -0.700, -77.900, 1202, 100, 100, 17, 22808, -23488, 5399, 5510, 10, 14, 1525971669.128, 50, 0, 1024, 1024, 1024, 1024, 0, 6, 3774, 3789, 3764, 3803, 3788, 3777, 0, 1, 8101, -90.000, 0.000, -77.100, 0.000, 0.000, -3.200, 0.0, , , , , , 98, , , 55, 55, 55
38.0861251, -120.2285424, 7.600, 10:01:09.227, 14, 0.00, 0.08, 98, 2.200, -0.700, -77.900, 1202, 100, 100, 17, 22808, -23488, 5399, 5510, 10, 14, 1525971669.228, 151, 0, 1024, 1024, 1024, 1024, 0, 6, 3774, 3789, 3764, 3803, 3788, 3777, 0, 1, 8201, -90.000, 0.000, -77.100, 0.000, 0.000, -3.200, 0.0, , , , , , 98, , , 55, 55, 55
38.0861251, -120.2285422, 7.900, 10:01:09.327, 14, 0.00, 0.09, 98, 1.900, -0.800, -78.000, 1202, 100, 100, 17, 22808, -23488, 5399, 5510, 10, 14, 1525971669.328, 82, 0, 1024, 1024, 1024, 1024, 0, 6, 3774, 3789, 3764, 3803, 3788, 3777, 0, 1, 8301, -90.000, 0.000, -77.100, 0.000, 0.000, -3.200, 0.0, , , , , , 98, , , 55, 55, 55
38.0861251, -120.2285420, 8.300, 10:01:09.427, 14, 0.00, 0.10, 98, 1.600, -0.900, -78.200, 1202, 100, 100, 17, 22808, -23488, 5399, 5510, 10, 14, 1525971669.428, 67, 0, 1024, 1024, 1024, 1024, 0, 6, 3774, 3789, 3764, 3803, 3788, 3777, 0, 1, 8401, -90.000, 0.000, -77.100, 0.000, 0.000, -3.100, 0.0, , , , , , 98, , , 55, 55, 55
38.0861252, -120.2285418, 8.600, 10:01:09.527, 13, 0.00, 0.11, 98, 1.200, -1.000, -78.300, 1202, 100, 100, 17, 22808, -23488, 5399, 5510, 10, 14, 1525971669.528, 39, 0, 1024, 1024, 1024, 1024, 0, 6, 3774, 3789, 3764, 3803, 3788, 3777, 0, 1, 8502, -90.000, 0.000, -77.100, 0.000, 0.000, -3.100, 0.0, , , , , , 98, , , 55, 55, 55
38.0861252, -120.2285416, 8.900, 10:01:09.627, 13, 0.00, 0.12, 98, 0.800, -1.100, -78.400, 1202, 100, 100, 17, 22951, -21108, 5399, 5510, 10, 14, 1525971669.627, 15, 0, 1024, 1024, 1024, 1024, 0, 6, 3774, 3789, 3764, 3803, 3788, 3777, 0, 1, 8601, -90.000, 0.000, -77.100, 0.000, 0.000, -3.000, 0.0, , , , , , 98, , , 55, 55, 55
38.0861253, -120.2285413, 9.200, 10:01:09.727, 13, 0.10, 0.14, 98, 0.500, -1.400, -78.400, 1202, 100, 100, 17, 22951, -21108, 5399, 5510, 10, 14, 1525971669.728, 15, 0, 1024, 1024, 1024, 1024, 0, 6, 3837, 3852, 3820, 3864, 3841, 3838, 0, 1, 8702, -90.000, 0.000, -77.100, 0.100, 0.000, -3.100, 0.0, , , , , , 98, , , 55, 55, 55
38.0861253, -120.2285413, 9.200, 10:01:09.827, 13, 0.10, 0.14, 98, 0.500, -1.400, -78.400, 1202, 100, 100, 17, 22951, -21108, 5399, 5510, 10, 14, 1525971669.828, 115, 0, 1024, 1024, 1024, 1024, 0, 6, 3837, 3852, 3820, 3864, 3841, 3838, 0, 1, 8801, -90.000, 0.000, -77.100, 0.100, 0.000, -3.100, 0.0, , , , , , 98, , , 55, 55, 55
38.0861255, -120.2285410, 9.500, 10:01:09.927, 13, 0.10, 0.16, 98, 0.200, -1.700, -78.400, 1202, 100, 100, 17, 22951, -21108, 5399, 5510, 10, 14, 1525971669.928, 50, 0, 1024, 1024, 1024, 1024, 0, 6, 3837, 3852, 3820, 3864, 3841, 3838, 0, 1, 8901, -90.000, 0.000, -77.100, 0.100, 0.000, -3.000, 0.0, , , , , , 98, , , 55, 55, 55
38.0861257, -120.2285406, 9.800, 10:01:10.028, 14, 0.10, 0.19, 98, -0.100, -2.100, -78.400, 1202, 100, 100, 17, 22951, -21108, 5399, 5510, 10, 14, 1525971670.028, 67, 0, 1024, 1024, 1024, 1024, 0, 6, 3837, 3852, 3820, 3864, 3841, 3838, 0, 1, 9002, -90.000, 0.000, -77.100, 0.100, 0.000, -3.000, 0.1, , , , , , 98, , , 55, 55, 55
38.0861259, -120.2285403, 10.200, 10:01:10.127, 14, 0.10, 0.21, 98, -0.600, -2.300, -78.300, 1202, 100, 100, 17, 22951, -21108, 5399, 5510, 10, 14, 1525971670.128, 27, 0, 1024, 1024, 1024, 1024, 0, 6, 3837, 3852, 3820, 3864, 3841, 3838, 0, 1, 9101, -90.000, 0.000, -77.100, 0.100, 0.000, -3.000, 0.1, , , , , , 98, , , 55, 55, 55
38.0861259, -120.2285403, 10.200, 10:01:10.227, 14, 0.10, 0.21, 98, -0.600, -2.300, -78.300, 1202, 100, 100, 17, 22951, -21108, 5399, 5510, 10, 14, 1525971670.228, 127, 0, 1024, 1024, 1024, 1024, 0, 6, 3837, 3852, 3820, 3864, 3841, 3838, 0, 1, 9201, -90.000, 0.000, -77.100, 0.100, 0.000, -3.000, 0.1, , , , , , 98, , , 55, 55, 55
38.0861261, -120.2285400, 10.500, 10:01:10.327, 14, 0.10, 0.25, 98, -1.100, -2.400, -78.300, 1202, 100, 100, 17, 22951, -21108, 5399, 5510, 10, 14, 1525971670.328, 33, 0, 1024, 1024, 1024, 1024, 0, 6, 3837, 3852, 3820, 3864, 3841, 3838, 0, 1, 9301, -90.000, 0.000, -77.100, 0.100, 0.000, -3.000, 0.1, , , , , , 98, , , 55, 55, 55
38.0861263, -120.2285396, 10.800, 10:01:10.427, 14, 0.10, 0.29, 98, -1.600, -2.500, -78.300, 1202, 100, 99, 17, 22951, -21108, 5399, 5510, 10, 14, 1525971670.428, 77, 0, 1024, 1024, 1024, 1024, 0, 6, 3837, 3852, 3820, 3864, 3841, 3838, 0, 1, 9401, -89.900, 0.000, -77.100, 0.100, 0.000, -3.000, 0.1, , , , , , 98, , , 55, 55, 55
38.0861265, -120.2285392, 11.100, 10:01:10.534, 13, 0.10, 0.32, 98, -1.800, -2.500, -78.300, 1202, 100, 99, 17, 22951, -21108, 5399, 5510, 10, 14, 1525971670.535, 6, 0, 1024, 1024, 1024, 1024, 0, 6, 3837, 3852, 3820, 3864, 3841, 3838, 0, 1, 9509, -89.900, 0.000, -77.100, 0.100, 0.000, -3.000, 0.1, , , , , , 98, , , 55, 55, 55
38.0861265, -120.2285392, 11.100, 10:01:10.627, 13, 0.10, 0.32, 98, -1.800, -2.500, -78.300, 1202, 100, 99, 17, 22951, -21108, 5399, 5510, 10, 14, 1525971670.628, 99, 0, 1024, 1024, 1024, 1024, 0, 6, 3837, 3852, 3820, 3864, 3841, 3838, 0, 1, 9601, -90.000, 0.000, -77.100, 0.100, 0.000, -3.000, 0.1, , , , , , 98, , , 55, 55, 55
38.0861268, -120.2285388, 11.700, 10:01:10.730, 13, 0.00, 0.36, 98, -1.200, -2.500, -78.200, 1202, 100, 99, 17, 22951, -21108, 5399, 5510, 10, 14, 1525971670.731, 15, 0, 1024, 1024, 1024, 1024, 0, 6, 3837, 3852, 3820, 3864, 3841, 3838, 0, 1, 9704, -90.000, 0.000, -77.100, 0.000, 0.000, -3.000, 0.0, , , , , , 98, , , 55, 55, 55
38.0861268, -120.2285388, 12.000, 10:01:10.829, 13, 0.00, 0.37, 98, -0.800, -2.300, -78.100, 1202, 100, 99, 17, 23143, -18224, 5399, 5510, 10, 14, 1525971670.830, 17, 0, 1024, 1024, 1024, 1024, 0, 6, 3837, 3852, 3820, 3864, 3841, 3838, 0, 1, 9803, -89.900, 0.000, -77.100, 0.000, 0.000, -3.000, 0.0, , , , , , 98, , , 55, 55, 55
38.0861268, -120.2285388, 12.000, 10:01:10.927, 13, 0.00, 0.37, 98, -0.800, -2.300, -78.100, 1202, 100, 99, 17, 23143, -18224, 5399, 5510, 10, 14, 1525971670.927, 115, 0, 1024, 1024, 1024, 1024, 0, 6, 3837, 3852, 3820, 3864, 3841, 3838, 0, 1, 9901, -89.900, 0.000, -77.100, 0.000, 0.000, -3.000, 0.0, , , , , , 98, , , 55, 55, 55
38.0861269, -120.2285387, 12.400, 10:01:11.027, 15, 0.00, 0.38, 98, -0.600, -2.100, -78.000, 1202, 100, 98, 17, 23143, -18224, 5399, 5510, 10, 14, 1525971671.028, 66, 0, 1024, 1024, 1024, 1024, 0, 6, 3837, 3852, 3820, 3864, 3841, 3838, 0, 1, 10001, -89.900, 0.000, -77.100, 0.000, 0.000, -3.000, 0.0, , , , , , 98, , , 55, 55, 55
38.0861270, -120.2285386, 12.700, 10:01:11.127, 15, 0.00, 0.39, 98, -0.700, -1.900, -78.000, 1202, 100, 98, 17, 23143, -18224, 5399, 5510, 10, 14, 1525971671.128, 51, 0, 1024, 1024, 1024, 1024, 0, 6, 3837, 3852, 3820, 3864, 3841, 3838, 0, 1, 10101, -89.900, 0.000, -77.100, 0.000, 0.000, -2.900, 0.0, , , , , , 98, , , 55, 55, 55
38.0861274, -120.2285383, 13.300, 10:01:11.227, 14, 0.00, 0.43, 98, -0.900, -1.600, -78.000, 1202, 100, 98, 17, 23143, -18224, 5399, 5510, 10, 14, 1525971671.228, 21, 0, 1024, 1024, 1024, 1024, 0, 6, 3837, 3852, 3820, 3864, 3841, 3838, 0, 1, 10201, -89.900, 0.000, -77.100, 0.000, 0.000, -2.900, 0.0, , , , , , 98, , , 55, 55, 55
38.0861275, -120.2285382, 13.900, 10:01:11.340, 15, 0.10, 0.44, 98, -1.200, -1.500, -78.100, 1202, 100, 98, 17, 23143, -18224, 5399, 5510, 10, 14, 1525971671.341, 10, 0, 1024, 1024, 1024, 1024, 0, 6, 3837, 3852, 3820, 3864, 3841, 3838, 0, 1, 10314, -89.900, 0.000, -77.100, 0.000, -0.100, -2.800, 0.1, , , , , , 98, , , 55, 55, 55
38.0861277, -120.2285382, 14.500, 10:01:11.427, 14, 0.10, 0.45, 98, -1.000, -1.200, -78.200, 1202, 100, 98, 17, 23143, -18224, 5399, 5510, 10, 14, 1525971671.428, 23, 0, 1024, 1024, 1024, 1024, 0, 6, 3848, 3863, 3841, 3875, 3862, 3851, 0, 1, 10401, -89.900, 0.000, -77.100, 0.000, -0.100, -2.900, 0.1, , , , , , 98, , , 55, 55, 55
38.0861278, -120.2285383, 15.100, 10:01:11.536, 14, 0.10, 0.45, 98, -1.000, -1.100, -78.300, 1202, 100, 98, 17, 23143, -18224, 5399, 5510, 10, 14, 1525971671.536, 5, 0, 1024, 1024, 1024, 1024, 0, 6, 3848, 3863, 3841, 3875, 3862, 3851, 0, 1, 10509, -89.900, 0.000, -77.100, 0.000, -0.100, -2.900, 0.1, , , , , , 98, , , 55, 55, 55
38.0861279, -120.2285384, 15.400, 10:01:11.627, 13, 0.10, 0.44, 98, -0.700, -1.000, -78.200, 1202, 100, 98, 17, 23143, -18224, 5399, 5510, 10, 14, 1525971671.628, 38, 0, 1024, 1024, 1024, 1024, 0, 6, 3848, 3863, 3841, 3875, 3862, 3851, 0, 1, 10602, -89.900, 0.000, -77.100, 0.000, -0.100, -2.900, 0.1, , , , , , 98, , , 55, 55, 55
38.0861279, -120.2285385, 15.700, 10:01:11.727, 13, 0.10, 0.44, 98, -0.500, -0.800, -78.200, 1202, 100, 100, 17, 23143, -18224, 5399, 5510, 10, 14, 1525971671.727, 36, 0, 1024, 1024, 1024, 1024, 0, 6, 3848, 3863, 3841, 3875, 3862, 3851, 0, 1, 10700, -89.900, 0.000, -77.100, 0.000, -0.100, -2.900, 0.1, , , , , , 98, , , 55, 55, 55
38.0861280, -120.2285387, 16.000, 10:01:11.827, 14, 0.10, 0.43, 98, -0.400, -0.600, -78.100, 1202, 100, 100, 17, 23143, -18224, 5399, 5510, 10, 14, 1525971671.828, 48, 0, 1024, 1024, 1024, 1024, 0, 6, 3848, 3863, 3841, 3875, 3862, 3851, 0, 1, 10801, -89.900, 0.000, -77.100, 0.000, -0.100, -2.900, 0.1, , , , , , 98, , , 55, 55, 55
38.0861280, -120.2285389, 16.300, 10:01:11.927, 14, 0.10, 0.42, 98, -0.400, -0.400, -78.100, 1202, 100, 100, 17, 23143, -18224, 5399, 5510, 10, 14, 1525971671.927, 10, 0, 1024, 1024, 1024, 1024, 0, 6, 3848, 3863, 3841, 3875, 3862, 3851, 0, 1, 10901, -89.900, 0.000, -77.100, 0.000, -0.100, -2.900, 0.1, , , , , , 98, , , 55, 55, 55
38.0861280, -120.2285391, 16.600, 10:01:12.027, 13, 0.10, 0.41, 98, -0.100, -0.200, -78.200, 1202, 100, 100, 17, 23117, -18192, 5399, 5510, 10, 14, 1525971672.028, 18, 0, 1024, 1024, 1024, 1024, 0, 6, 3850, 3852, 3839, 3862, 3865, 3845, 0, 1, 11001, -89.900, 0.000, -77.100, 0.000, -0.100, -2.900, 0.1, , , , , , 98, , , 55, 55, 55
38.0861280, -120.2285392, 16.900, 10:01:12.139, 13, 0.10, 0.40, 98, 0.000, 0.000, -78.200, 1202, 100, 98, 17, 23117, -18192, 5399, 5510, 10, 14, 1525971672.140, 13, 0, 1024, 1024, 1024, 1024, 0, 6, 3850, 3852, 3839, 3862, 3865, 3845, 0, 1, 11113, -89.900, 0.000, -77.100, 0.000, -0.100, -2.900, 0.1, , , , , , 98, , , 55, 55, 55
38.0861280, -120.2285394, 17.200, 10:01:12.227, 14, 0.10, 0.39, 98, 0.100, 0.000, -78.100, 1202, 100, 98, 17, 23117, -18192, 5399, 5510, 10, 14, 1525971672.228, 20, 0, 1024, 1024, 1024, 1024, 0, 6, 3850, 3852, 3839, 3862, 3865, 3845, 0, 1, 11201, -89.900, 0.000, -77.100, 0.000, -0.100, -2.900, 0.1, , , , , , 98, , , 55, 55, 55
38.0861281, -120.2285395, 17.500, 10:01:12.326, 14, 0.10, 0.38, 98, 0.000, -0.100, -78.000, 1202, 100, 98, 17, 23117, -18192, 5399, 5510, 10, 14, 1525971672.327, 10, 0, 1024, 1024, 1024, 1024, 0, 6, 3850, 3852, 3839, 3862, 3865, 3845, 0, 1, 11300, -89.900, 0.000, -77.100, 0.000, -0.100, -2.900, 0.1, , , , , , 98, , , 55, 55, 55
38.0861281, -120.2285397, 17.800, 10:01:12.427, 15, 0.10, 0.37, 98, -0.100, 0.000, -77.900, 1202, 100, 98, 17, 23117, -18192, 5399, 5510, 10, 14, 1525971672.428, 9, 0, 1024, 1024, 1024, 1024, 0, 6, 3850, 3852, 3839, 3862, 3865, 3845, 0, 1, 11401, -89.900, 0.000, -77.100, 0.000, -0.100, -2.900, 0.1, , , , , , 98, , , 55, 55, 55
38.0861281, -120.2285398, 18.100, 10:01:12.538, 15, 0.10, 0.37, 98, -0.300, 0.000, -77.800, 1202, 100, 98, 17, 23117, -18192, 5399, 5510, 10, 14, 1525971672.539, 10, 0, 1024, 1024, 1024, 1024, 0, 6, 3850, 3852, 3839, 3862, 3865, 3845, 0, 1, 11512, -89.900, 0.000, -77.100, 0.000, -0.100, -2.900, 0.1, , , , , , 98, , , 55, 55, 55
38.0861281, -120.2285398, 18.100, 10:01:12.626, 15, 0.10, 0.37, 98, -0.300, 0.000, -77.800, 1202, 100, 98, 17, 23117, -18192, 5399, 5510, 10, 14, 1525971672.627, 98, 0, 1024, 1024, 1024, 1024, 0, 6, 3850, 3852, 3839, 3862, 3865, 3845, 0, 1, 11600, -89.900, 0.000, -77.100, 0.000, -0.100, -2.900, 0.1, , , , , , 98, , , 55, 55, 55
38.0861281, -120.2285401, 18.600, 10:01:12.727, 15, 0.10, 0.35, 98, -0.600, 0.000, -77.800, 1202, 100, 98, 17, 23117, -18192, 5399, 5510, 10, 14, 1525971672.728, 22, 0, 1024, 1024, 1024, 1024, 0, 6, 3850, 3852, 3839, 3862, 3865, 3845, 0, 1, 11701, -89.900, 0.000, -77.100, 0.000, -0.100, -2.900, 0.1, , , , , , 98, , , 55, 55, 55
38.0861281, -120.2285401, 18.600, 10:01:12.827, 15, 0.10, 0.35, 98, -0.600, 0.000, -77.800, 1202, 100, 98, 17, 23117, -18192, 5399, 5510, 10, 14, 1525971672.828, 122, 0, 1024, 1024, 1024, 1024, 0, 6, 3850, 3852, 3839, 3862, 3865, 3845, 0, 1, 11801, -89.900, 0.000, -77.100, 0.000, -0.100, -2.900, 0.1, , , , , , 98, , , 55, 55, 55
38.0861280, -120.2285402, 19.000, 10:01:12.927, 14, 0.10, 0.33, 98, -0.600, 0.100, -77.800, 1202, 100, 98, 17, 23117, -18192, 5399, 5510, 10, 14, 1525971672.928, 91, 0, 1024, 1024, 1024, 1024, 0, 6, 3850, 3852, 3839, 3862, 3865, 3845, 0, 1, 11901, -89.900, 0.000, -77.100, 0.000, -0.100, -2.900, 0.1, , , , , , 98, , , 55, 55, 55
38.0861280, -120.2285404, 19.300, 10:01:13.027, 14, 0.10, 0.32, 98, -0.400, 0.100, -77.900, 1202, 100, 98, 17, 23117, -18192, 5399, 5510, 10, 14, 1525971673.028, 93, 0, 1024, 1024, 1024, 1024, 0, 6, 3850, 3852, 3839, 3862, 3865, 3845, 0, 1, 12001, -89.900, 0.000, -77.100, 0.000, -0.100, -2.900, 0.1, , , , , , 98, , , 55, 55, 55
38.0861279, -120.2285406, 19.600, 10:01:13.127, 15, 0.10, 0.31, 98, -0.100, 0.200, -78.000, 1202, 100, 98, 17, 23048, -18639, 5344, 5510, 10, 14, 1525971673.128, 81, 0, 1024, 1024, 1024, 1024, 0, 6, 3838, 3838, 3822, 3847, 3852, 3832, 0, 1, 12101, -89.900, 0.000, -77.100, 0.000, -0.100, -2.900, 0.1, , , , , , 98, , , 55, 55, 55
38.0861280, -120.2285407, 19.900, 10:01:13.227, 15, 0.10, 0.30, 98, 0.000, 0.400, -78.000, 1202, 100, 98, 17, 23048, -18639, 5344, 5510, 10, 14, 1525971673.228, 90, 0, 1024, 1024, 1024, 1024, 0, 6, 3838, 3838, 3822, 3847, 3852, 3832, 0, 1, 12201, -89.900, 0.000, -77.100, 0.000, -0.100, -2.900, 0.1, , , , , , 98, , , 55, 55, 55
38.0861280, -120.2285409, 20.100, 10:01:13.327, 15, 0.10, 0.29, 98, 0.000, 0.500, -78.100, 1202, 100, 98, 17, 23048, -18639, 5344, 5510, 10, 14, 1525971673.328, 71, 0, 1024, 1024, 1024, 1024, 0, 6, 3838, 3838, 3822, 3847, 3852, 3832, 0, 1, 12301, -89.900, 0.000, -77.100, 0.000, -0.100, -2.900, 0.1, , , , , , 98, , , 55, 55, 55
38.0861279, -120.2285410, 20.400, 10:01:13.427, 15, 0.10, 0.28, 98, -0.100, 0.900, -78.200, 1202, 100, 98, 17, 23048, -18639, 5344, 5510, 10, 14, 1525971673.428, 49, 0, 1024, 1024, 1024, 1024, 0, 6, 3838, 3838, 3822, 3847, 3852, 3832, 0, 1, 12401, -89.900, 0.000, -77.200, 0.000, -0.100, -2.900, 0.1, , , , , , 98, , , 55, 55, 55
38.0861279, -120.2285412, 20.800, 10:01:13.527, 15, 0.10, 0.27, 98, -0.300, 1.100, -78.400, 1202, 100, 98, 17, 23048, -18639, 5344, 5510, 10, 14, 1525971673.527, 66, 0, 1024, 1024, 1024, 1024, 0, 6, 3838, 3838, 3822, 3847, 3852, 3832, 0, 1, 12500, -89.900, 0.000, -77.200, 0.000, -0.100, -3.000, 0.1, , , , , , 98, , , 55, 55, 55
38.0861278, -120.2285413, 21.100, 10:01:13.627, 15, 0.00, 0.25, 97, -0.100, 0.800, -78.500, 1202, 100, 98, 17, 23048, -18639, 5344, 5510, 10, 14, 1525971673.628, 53, 0, 1024, 1024, 1024, 1024, 0, 6, 3838, 3838, 3822, 3847, 3852, 3832, 0, 1, 12601, -89.900, 0.000, -77.200, 0.000, 0.000, -3.000, 0.0, , , , , , 98, , , 55, 55, 55
38.0861276, -120.2285413, 21.700, 10:01:13.727, 14, 0.00, 0.24, 97, 0.400, 0.200, -78.400, 1202, 100, 100, 17, 23048, -18639, 5344, 5510, 10, 14, 1525971673.728, 47, 0, 1024, 1024, 1024, 1024, 0, 6, 3838, 3838, 3822, 3847, 3852, 3832, 0, 1, 12701, -89.900, 0.000, -77.100, 0.000, 0.000, -2.900, 0.0, , , , , , 98, , , 55, 55, 55
38.0861276, -120.2285413, 21.700, 10:01:13.827, 14, 0.00, 0.24, 97, 0.400, 0.200, -78.400, 1202, 100, 100, 17, 23048, -18639, 5344, 5510, 10, 14, 1525971673.828, 148, 0, 1024, 1024, 1024, 1024, 0, 6, 3838, 3838, 3822, 3847, 3852, 3832, 0, 1, 12802, -89.900, 0.000, -77.100, 0.000, 0.000, -2.900, 0.0, , , , , , 98, , , 55, 55, 55
38.0861275, -120.2285415, 22.200, 10:01:13.927, 14, 0.00, 0.22, 97, 0.500, -0.300, -78.000, 1202, 100, 100, 17, 23048, -18639, 5344, 5510, 10, 14, 1525971673.928, 26, 0, 1024, 1024, 1024, 1024, 0, 6, 3838, 3838, 3822, 3847, 3852, 3832, 0, 1, 12901, -90.000, 0.000, -77.100, 0.000, 0.000, -2.900, 0.0, , , , , , 98, , , 55, 55, 55
38.0861274, -120.2285416, 22.500, 10:01:14.027, 14, 0.00, 0.21, 97, 0.300, -0.400, -78.000, 1202, 100, 100, 17, 23048, -18639, 5344, 5510, 10, 14, 1525971674.028, 51, 0, 1024, 1024, 1024, 1024, 0, 6, 3838, 3838, 3822, 3847, 3852, 3832, 0, 1, 13001, -90.000, 0.000, -77.100, 0.000, 0.000, -2.900, 0.0, , , , , , 98, , , 55, 55, 55
38.0861274, -120.2285416, 22.800, 10:01:14.127, 14, 0.00, 0.20, 97, 0.400, -0.500, -78.000, 1202, 100, 100, 17, 23023, -18484, 5344, 5510, 10, 14, 1525971674.128, 25, 0, 1024, 1024, 1024, 1024, 0, 6, 3838, 3838, 3822, 3847, 3852, 3832, 0, 1, 13101, -90.000, 0.000, -77.100, 0.000, 0.000, -2.900, 0.0, , , , , , 98, , , 55, 55, 55
38.0861273, -120.2285416, 23.100, 10:01:14.227, 15, 0.00, 0.20, 97, 0.500, -0.600, -78.100, 1202, 100, 100, 17, 23023, -18484, 5344, 5510, 10, 14, 1525971674.228, 38, 0, 1024, 1024, 1024, 1024, 0, 6, 3838, 3838, 3822, 3847, 3852, 3832, 0, 1, 13201, -90.000, 0.000, -77.200, 0.000, 0.000, -2.900, 0.0, , , , , , 98, , , 55, 55, 55
38.0861272, -120.2285416, 23.400, 10:01:14.327, 15, 0.00, 0.19, 97, 0.400, -0.700, -78.100, 1202, 100, 100, 17, 23023, -18484, 5344, 5510, 10, 14, 1525971674.328, 19, 0, 1024, 1024, 1024, 1024, 0, 6, 3840, 3830, 3822, 3847, 3847, 3825, 0, 1, 13301, -90.000, 0.000, -77.200, 0.000, 0.000, -2.900, 0.0, , , , , , 98, , , 55, 55, 55
38.0861271, -120.2285416, 23.700, 10:01:14.430, 15, 0.00, 0.18, 97, 0.600, -0.700, -78.100, 1202, 100, 100, 17, 23023, -18484, 5344, 5510, 10, 14, 1525971674.431, 21, 0, 1024, 1024, 1024, 1024, 0, 6, 3840, 3830, 3822, 3847, 3847, 3825, 0, 1, 13404, -89.900, 0.000, -77.100, 0.000, 0.000, -2.900, 0.0, , , , , , 98, , , 55, 55, 55
38.0861271, -120.2285416, 24.000, 10:01:14.541, 15, 0.00, 0.18, 97, 0.900, -0.700, -78.100, 1202, 100, 100, 17, 23023, -18484, 5344, 5510, 10, 14, 1525971674.542, 7, 0, 1024, 1024, 1024, 1024, 0, 6, 3840, 3830, 3822, 3847, 3847, 3825, 0, 1, 13515, -90.000, 0.000, -77.100, 0.000, 0.000, -2.900, 0.0, , , , , , 98, , , 55, 55, 55
38.0861270, -120.2285415, 24.300, 10:01:14.627, 16, 0.00, 0.17, 97, 0.900, -0.700, -78.100, 1202, 100, 99, 17, 23023, -18484, 5344, 5510, 10, 14, 1525971674.628, 10, 0, 1024, 1024, 1024, 1024, 0, 6, 3840, 3830, 3822, 3847, 3847, 3825, 0, 1, 13601, -89.900, 0.000, -77.200, 0.000, 0.000, -2.900, 0.0, , , , , , 98, , , 55, 55, 55
38.0861270, -120.2285415, 24.600, 10:01:14.727, 16, 0.00, 0.17, 97, 0.800, -0.700, -78.000, 1202, 100, 99, 17, 23023, -18484, 5344, 5510, 10, 14, 1525971674.728, 13, 0, 1024, 1024, 1024, 1024, 0, 6, 3840, 3830, 3822, 3847, 3847, 3825, 0, 1, 13701, -90.000, 0.000, -77.100, 0.000, 0.000, -2.900, 0.0, , , , , , 98, , , 55, 55, 55
38.0861270, -120.2285414, 24.900, 10:01:14.827, 16, 0.00, 0.18, 97, 0.500, -0.900, -78.000, 1202, 100, 99, 17, 23023, -18484, 5344, 5510, 10, 14, 1525971674.827, 12, 0, 1024, 1024, 1024, 1024, 0, 6, 3840, 3830, 3822, 3847, 3847, 3825, 0, 1, 13801, -90.000, 0.000, -77.100, 0.000, 0.000, -2.900, 0.0, , , , , , 98, , , 55, 55, 55
38.0861270, -120.2285413, 25.200, 10:01:14.927, 16, 0.00, 0.18, 97, 0.200, -1.000, -78.000, 1202, 100, 99, 17, 23023, -18484, 5344, 5510, 10, 14, 1525971674.928, 18, 0, 1024, 1024, 1024, 1024, 0, 6, 3840, 3830, 3822, 3847, 3847, 3825, 0, 1, 13901, -90.000, 0.000, -77.200, 0.000, 0.000, -2.900, 0.0, , , , , , 98, , , 55, 55, 55
38.0861270, -120.2285413, 25.500, 10:01:15.027, 16, 0.00, 0.18, 97, -0.100, -1.100, -78.000, 1202, 100, 99, 17, 23026, -18787, 5344, 5510, 10, 14, 1525971675.028, 22, 0, 1024, 1024, 1024, 1024, 0, 6, 3840, 3830, 3822, 3847, 3847, 3825, 0, 1, 14001, -90.000, 0.000, -77.200, 0.000, 0.000, -2.900, 0.0, , , , , , 98, , , 55, 55, 55
38.0861270, -120.2285413, 25.500, 10:01:15.128, 16, 0.00, 0.18, 97, -0.100, -1.100, -78.000, 1202, 100, 99, 17, 23026, -18787, 5344, 5510, 10, 14, 1525971675.128, 123, 0, 1024, 1024, 1024, 1024, 0, 6, 3812, 3821, 3813, 3851, 3844, 3832, 0, 1, 14102, -90.000, 0.000, -77.200, 0.000, 0.000, -2.900, 0.0, , , , , , 98, , , 55, 55, 55
38.0861269, -120.2285413, 26.100, 10:01:15.230, 16, 0.00, 0.18, 97, -0.100, -1.100, -77.900, 1202, 100, 99, 17, 23026, -18787, 5344, 5510, 10, 14, 1525971675.230, 4, 0, 1024, 1024, 1024, 1024, 0, 6, 3812, 3821, 3813, 3851, 3844, 3832, 0, 1, 14204, -90.000, 0.000, -77.100, 0.000, 0.000, -3.000, 0.0, , , , , , 98, , , 55, 55, 55
38.0861269, -120.2285413, 26.400, 10:01:15.336, 16, 0.00, 0.18, 97, 0.200, -1.100, -77.900, 1202, 100, 99, 17, 23026, -18787, 5344, 5510, 10, 14, 1525971675.336, 8, 0, 1024, 1024, 1024, 1024, 0, 6, 3812, 3821, 3813, 3851, 3844, 3832, 0, 1, 14310, -89.900, 0.000, -77.100, 0.000, 0.000, -2.900, 0.0, , , , , , 98, , , 55, 55, 55
38.0861269, -120.2285413, 26.400, 10:01:15.427, 16, 0.00, 0.18, 97, 0.200, -1.100, -77.900, 1202, 100, 99, 17, 23026, -18787, 5344, 5510, 10, 14, 1525971675.428, 99, 0, 1024, 1024, 1024, 1024, 0, 6, 3812, 3821, 3813, 3851, 3844, 3832, 0, 1, 14401, -89.900, 0.000, -77.100, 0.000, 0.000, -2.900, 0.0, , , , , , 98, , , 55, 55, 55
38.0861269, -120.2285413, 26.700, 10:01:15.527, 16, 0.00, 0.18, 97, 0.600, -1.000, -78.000, 1202, 100, 99, 17, 23026, -18787, 5344, 5510, 10, 14, 1525971675.528, 74, 0, 1024, 1024, 1024, 1024, 0, 6, 3812, 3821, 3813, 3851, 3844, 3832, 0, 1, 14501, -89.900, 0.000, -77.200, 0.000, 0.000, -2.900, 0.0, , , , , , 98, , , 55, 55, 55
38.0861269, -120.2285412, 27.000, 10:01:15.628, 16, 0.00, 0.18, 97, 0.800, -1.000, -78.100, 1202, 100, 99, 17, 23026, -18787, 5344, 5510, 10, 14, 1525971675.628, 63, 0, 1024, 1024, 1024, 1024, 0, 6, 3812, 3821, 3813, 3851, 3844, 3832, 0, 1, 14601, -90.000, 0.000, -77.100, 0.000, 0.000, -2.900, 0.0, , , , , , 98, , , 55, 55, 55
38.0861269, -120.2285412, 27.300, 10:01:15.727, 16, 0.00, 0.18, 97, 0.900, -0.900, -78.200, 1202, 100, 100, 17, 23026, -18787, 5344, 5510, 10, 14, 1525971675.728, 91, 0, 1024, 1024, 1024, 1024, 0, 6, 3812, 3821, 3813, 3851, 3844, 3832, 0, 1, 14701, -89.900, 0.000, -77.200, 0.000, 0.000, -3.000, 0.0, , , , , , 98, , , 55, 55, 55
38.0861268, -120.2285412, 27.600, 10:01:15.827, 16, 0.00, 0.18, 97, 0.600, -0.700, -78.300, 1202, 100, 100, 17, 23026, -18787, 5344, 5510, 10, 14, 1525971675.827, 62, 0, 1024, 1024, 1024, 1024, 0, 6, 3812, 3821, 3813, 3851, 3844, 3832, 0, 1, 14800, -89.900, 0.000, -77.200, 0.000, 0.000, -3.000, 0.0, , , , , , 98, , , 55, 55, 55
38.0861268, -120.2285412, 27.900, 10:01:15.927, 16, 0.00, 0.18, 97, 0.600, -0.700, -78.200, 1202, 100, 100, 17, 23026, -18787, 5344, 5510, 10, 14, 1525971675.928, 65, 0, 1024, 1024, 1024, 1024, 0, 6, 3812, 3821, 3813, 3851, 3844, 3832, 0, 1, 14901, -89.900, 0.000, -77.100, 0.000, 0.000, -3.000, 0.0, , , , , , 98, , , 55, 55, 55
38.0861268, -120.2285412, 28.200, 10:01:16.027, 16, 0.00, 0.18, 97, 0.800, -0.800, -78.000, 1202, 100, 100, 17, 23026, -18787, 5344, 5510, 10, 14, 1525971676.028, 81, 0, 1024, 1024, 1024, 1024, 0, 6, 3812, 3821, 3813, 3851, 3844, 3832, 0, 1, 15001, -89.900, 0.000, -77.100, 0.000, 0.000, -3.000, 0.0, , , , , , 98, , , 55, 55, 55
38.0861269, -120.2285412, 28.500, 10:01:16.127, 16, 0.00, 0.18, 97, 0.800, -0.800, -77.800, 1202, 100, 100, 17, 22878, -18968, 5344, 5510, 10, 14, 1525971676.128, 57, 0, 1024, 1024, 1024, 1024, 0, 6, 3812, 3821, 3813, 3851, 3844, 3832, 0, 1, 15101, -89.900, 0.000, -77.100, 0.000, 0.000, -3.000, 0.0, , , , , , 98, , , 55, 55, 55
38.0861270, -120.2285411, 29.100, 10:01:16.227, 16, 0.00, 0.20, 97, 0.100, -1.000, -77.800, 1202, 100, 100, 17, 22878, -18968, 5344, 5510, 10, 14, 1525971676.228, 20, 0, 1024, 1024, 1024, 1024, 0, 6, 3812, 3821, 3813, 3851, 3844, 3832, 0, 1, 15201, -89.900, 0.000, -77.100, 0.000, 0.000, -3.000, 0.0, , , , , , 98, , , 55, 55, 55
38.0861271, -120.2285411, 29.400, 10:01:16.327, 16, 0.00, 0.21, 97, -0.100, -1.100, -77.800, 1202, 100, 100, 17, 22878, -18968, 5344, 5510, 10, 14, 1525971676.328, 46, 0, 1024, 1024, 1024, 1024, 0, 6, 3812, 3821, 3813, 3851, 3844, 3832, 0, 1, 15301, -90.000, 0.000, -77.100, 0.000, 0.000, -2.900, 0.0, , , , , , 98, , , 55, 55, 55
38.0861271, -120.2285411, 29.400, 10:01:16.427, 16, 0.00, 0.21, 97, -0.100, -1.100, -77.800, 1202, 100, 100, 17, 22878, -18968, 5344, 5510, 10, 14, 1525971676.428, 147, 0, 1024, 1024, 1024, 1024, 0, 6, 3812, 3821, 3813, 3851, 3844, 3832, 0, 1, 15401, -89.900, 0.000, -77.200, 0.000, 0.000, -2.900, 0.0, , , , , , 98, , , 55, 55, 55
38.0861272, -120.2285409, 30.000, 10:01:16.527, 16, 0.00, 0.22, 97, -0.600, -0.800, -78.100, 1202, 100, 100, 17, 22878, -18968, 5344, 5510, 10, 14, 1525971676.527, 19, 0, 1024, 1024, 1024, 1024, 0, 6, 3812, 3821, 3813, 3851, 3844, 3832, 0, 1, 15501, -89.900, 0.000, -77.200, 0.000, 0.000, -2.900, 0.0, , , , , , 98, , , 55, 55, 55
38.0861272, -120.2285409, 30.000, 10:01:16.627, 16, 0.00, 0.22, 97, -0.600, -0.800, -78.100, 1202, 100, 100, 17, 22878, -18968, 5344, 5510, 10, 14, 1525971676.628, 119, 0, 1024, 1024, 1024, 1024, 0, 6, 3812, 3821, 3813, 3851, 3844, 3832, 0, 1, 15601, -89.900, 0.000, -77.200, 0.000, 0.000, -2.900, 0.0, , , , , , 98, , , 55, 55, 55
38.0861272, -120.2285408, 30.600, 10:01:16.727, 16, 0.00, 0.23, 97, -0.400, -1.200, -78.400, 1202, 100, 100, 17, 22878, -18968, 5344, 5510, 10, 14, 1525971676.728, 37, 0, 1024, 1024, 1024, 1024, 0, 6, 3809, 3811, 3791, 3827, 3830, 3821, 0, 1, 15701, -90.000, 0.000, -77.200, 0.000, 0.000, -2.900, 0.0, , , , , , 98, , , 55, 55, 55
38.0861272, -120.2285407, 30.900, 10:01:16.828, 16, 0.00, 0.24, 97, -0.400, -1.600, -78.400, 1202, 100, 100, 17, 22878, -18968, 5344, 5510, 10, 14, 1525971676.830, 53, 0, 1024, 1024, 1024, 1024, 0, 6, 3809, 3811, 3791, 3827, 3830, 3821, 0, 1, 15803, -90.000, 0.000, -77.100, 0.000, 0.000, -2.900, 0.0, , , , , , 98, , , 55, 55, 55
38.0861273, -120.2285406, 31.200, 10:01:16.927, 16, 0.00, 0.25, 97, -0.400, -2.000, -78.300, 1202, 100, 100, 17, 22878, -18968, 5344, 5510, 10, 14, 1525971676.929, 43, 0, 1024, 1024, 1024, 1024, 0, 6, 3809, 3811, 3791, 3827, 3830, 3821, 0, 1, 15902, -90.000, 0.000, -77.200, 0.000, 0.000, -2.900, 0.0, , , , , , 98, , , 55, 55, 55
38.0861273, -120.2285405, 31.500, 10:01:17.026, 15, 0.00, 0.26, 97, -0.100, -2.300, -78.200, 1202, 100, 100, 17, 22878, -18968, 5344, 5510, 10, 14, 1525971677.027, 7, 0, 1024, 1024, 1024, 1024, 0, 6, 3809, 3811, 3791, 3827, 3830, 3821, 0, 1, 16000, -90.000, 0.000, -77.100, 0.000, 0.000, -2.900, 0.0, , , , , , 98, , , 55, 55, 55
38.0861273, -120.2285405, 31.500, 10:01:17.127, 15, 0.00, 0.26, 97, -0.100, -2.300, -78.200, 1202, 100, 100, 17, 22878, -18968, 5344, 5510, 10, 14, 1525971677.128, 108, 0, 1024, 1024, 1024, 1024, 0, 6, 3809, 3811, 3791, 3827, 3830, 3821, 0, 1, 16101, -90.000, 0.000, -77.100, 0.000, 0.000, -2.900, 0.0, , , , , , 98, , , 55, 55, 55
38.0861273, -120.2285402, 32.100, 10:01:17.227, 16, 0.00, 0.28, 97, 0.300, -2.100, -78.100, 1202, 100, 100, 17, 22878, -18968, 5344, 5510, 10, 14, 1525971677.227, 13, 0, 1024, 1024, 1024, 1024, 0, 6, 3809, 3811, 3791, 3827, 3830, 3821, 0, 1, 16201, -89.900, 0.000, -77.100, 0.000, 0.000, -2.900, 0.0, , , , , , 98, , , 55, 55, 55
38.0861273, -120.2285401, 32.400, 10:01:17.327, 16, 0.00, 0.29, 97, 0.000, -2.300, -78.000, 1202, 100, 100, 17, 22878, -18968, 5344, 5510, 10, 14, 1525971677.328, 13, 0, 1024, 1024, 1024, 1024, 0, 6, 3809, 3811, 3791, 3827, 3830, 3821, 0, 1, 16301, -90.000, 0.000, -77.100, 0.000, 0.000, -2.900, 0.0, , , , , , 98, , , 55, 55, 55
38.0861274, -120.2285400, 32.700, 10:01:17.427, 16, 0.00, 0.30, 97, -0.100, -2.600, -77.900, 1202, 100, 100, 17, 22878, -18968, 5344, 5510, 10, 14, 1525971677.428, 5, 0, 1024, 1024, 1024, 1024, 0, 6, 3809, 3811, 3791, 3827, 3830, 3821, 0, 1, 16401, -89.900, 0.000, -77.100, 0.000, 0.000, -2.900, 0.0, , , , , , 98, , , 55, 55, 55
38.0861274, -120.2285398, 33.000, 10:01:17.544, 16, 0.00, 0.31, 97, -0.300, -2.900, -77.800, 1202, 100, 100, 17, 22834, -18857, 5344, 5510, 10, 14, 1525971677.545, 5, 0, 1024, 1024, 1024, 1024, 0, 6, 3809, 3811, 3791, 3827, 3830, 3821, 0, 1, 16518, -90.000, 0.000, -77.100, 0.000, 0.000, -2.900, 0.0, , , , , , 98, , , 55, 55, 55
38.0861274, -120.2285398, 33.000, 10:01:17.627, 16, 0.00, 0.31, 97, -0.300, -2.900, -77.800, 1202, 100, 100, 17, 22834, -18857, 5344, 5510, 10, 14, 1525971677.629, 89, 0, 1024, 1024, 1024, 1024, 0, 6, 3802, 3806, 3783, 3823, 3817, 3801, 0, 1, 16602, -90.000, 0.000, -77.100, 0.000, 0.000, -2.900, 0.0, , , , , , 98, , , 55, 55, 55
38.0861274, -120.2285397, 33.300, 10:01:17.727, 16, 0.00, 0.32, 97, -0.300, -3.300, -77.700, 1202, 100, 100, 17, 22834, -18857, 5344, 5510, 10, 14, 1525971677.728, 92, 0, 1024, 1024, 1024, 1024, 0, 6, 3802, 3806, 3783, 3823, 3817, 3801, 0, 1, 16702, -89.900, 0.000, -77.100, 0.000, 0.000, -2.900, 0.0, , , , , , 98, , , 55, 55, 55
38.0861275, -120.2285396, 33.600, 10:01:17.827, 16, 0.00, 0.33, 97, -0.500, -3.300, -77.700, 1202, 100, 100, 17, 22834, -18857, 5344, 5510, 10, 14, 1525971677.828, 93, 0, 1024, 1024, 1024, 1024, 0, 6, 3802, 3806, 3783, 3823, 3817, 3801, 0, 1, 16801, -89.900, 0.000, -77.100, 0.000, 0.000, -2.900, 0.0, , , , , , 98, , , 55, 55, 55
38.0861275, -120.2285395, 33.900, 10:01:17.927, 17, 0.00, 0.34, 97, -0.700, -2.700, -77.700, 1202, 100, 100, 17, 22834, -18857, 5344, 5510, 10, 14, 1525971677.928, 95, 0, 1024, 1024, 1024, 1024, 0, 6, 3802, 3806, 3783, 3823, 3817, 3801, 0, 1, 16901, -89.900, 0.000, -77.100, 0.000, 0.000, -2.900, 0.0, , , , , , 98, , , 55, 55, 55
38.0861275, -120.2285395, 34.200, 10:01:18.027, 17, 0.00, 0.35, 97, -0.800, -2.400, -77.800, 1202, 100, 100, 17, 22834, -18857, 5344, 5510, 10, 14, 1525971678.028, 86, 0, 1024, 1024, 1024, 1024, 0, 6, 3802, 3806, 3783, 3823, 3817, 3801, 0, 1, 17001, -89.900, 0.000, -77.100, 0.000, 0.000, -2.900, 0.0, , , , , , 98, , , 55, 55, 55
38.0861275, -120.2285394, 34.500, 10:01:18.127, 17, 0.00, 0.35, 97, -0.700, -2.400, -77.800, 1202, 100, 100, 17, 22834, -18857, 5344, 5510, 10, 14, 1525971678.128, 39, 0, 1024, 1024, 1024, 1024, 0, 6, 3802, 3806, 3783, 3823, 3817, 3801, 0, 1, 17101, -89.900, 0.000, -77.100, 0.000, 0.000, -2.900, 0.0, , , , , , 98, , , 55, 55, 55
38.0861276, -120.2285393, 34.800, 10:01:18.227, 17, 0.00, 0.36, 97, -0.700, -2.600, -77.900, 1202, 100, 97, 17, 22834, -18857, 5344, 5510, 10, 14, 1525971678.228, 69, 0, 1024, 1024, 1024, 1024, 0, 6, 3802, 3806, 3783, 3823, 3817, 3801, 0, 1, 17201, -89.900, 0.000, -77.100, 0.000, 0.000, -2.900, 0.0, , , , , , 98, , , 55, 55, 55
38.0861276, -120.2285392, 35.100, 10:01:18.327, 17, 0.00, 0.37, 97, -0.900, -2.900, -78.000, 1202, 100, 97, 17, 22834, -18857, 5344, 5510, 10, 14, 1525971678.327, 63, 0, 1024, 1024, 1024, 1024, 0, 6, 3802, 3806, 3783, 3823, 3817, 3801, 0, 1, 17300, -89.900, 0.000, -77.100, 0.000, 0.000, -2.900, 0.0, , , , , , 98, , , 55, 55, 55
38.0861276, -120.2285391, 35.600, 10:01:18.427, 17, 0.00, 0.38, 97, -1.100, -3.300, -78.300, 1202, 100, 97, 17, 22834, -18857, 5344, 5510, 10, 14, 1525971678.428, 50, 0, 1024, 1024, 1024, 1024, 0, 6, 3802, 3806, 3783, 3823, 3817, 3801, 0, 1, 17401, -90.000, 0.000, -77.100, 0.000, 0.000, -2.900, 0.0, , , , , , 98, , , 55, 55, 55
38.0861276, -120.2285390, 35.900, 10:01:18.531, 17, 0.00, 0.38, 97, -0.800, -3.200, -78.400, 1202, 100, 97, 17, 22834, -18857, 5344, 5510, 10, 14, 1525971678.532, 17, 0, 1024, 1024, 1024, 1024, 0, 6, 3802, 3806, 3783, 3823, 3817, 3801, 0, 1, 17505, -89.900, 0.000, -77.100, 0.000, 0.000, -2.900, 0.0, , , , , , 98, , , 55, 55, 55
38.0861276, -120.2285390, 36.200, 10:01:18.628, 17, 0.00, 0.38, 97, -0.500, -3.100, -78.600, 1202, 100, 97, 17, 22716, -20119, 5344, 5510, 10, 14, 1525971678.628, 48, 0, 1024, 1024, 1024, 1024, 0, 6, 3782, 3788, 3759, 3800, 3797, 3781, 0, 1, 17601, -89.900, 0.000, -77.200, 0.000, 0.000, -3.000, 0.0, , , , , , 98, , , 55, 55, 55
38.0861276, -120.2285389, 36.500, 10:01:18.727, 17, 0.00, 0.39, 97, -0.500, -3.200, -78.700, 1202, 100, 97, 17, 22716, -20119, 5344, 5510, 10, 14, 1525971678.728, 50, 0, 1024, 1024, 1024, 1024, 0, 6, 3782, 3788, 3759, 3800, 3797, 3781, 0, 1, 17701, -89.900, 0.000, -77.200, 0.000, 0.000, -3.000, 0.0, , , , , , 98, , , 55, 55, 55
38.0861275, -120.2285389, 36.800, 10:01:18.827, 17, 0.00, 0.39, 97, -0.400, -3.000, -78.600, 1202, 100, 97, 17, 22716, -20119, 5344, 5510, 10, 14, 1525971678.827, 27, 0, 1024, 1024, 1024, 1024, 0, 6, 3782, 3788, 3759, 3800, 3797, 3781, 0, 1, 17801, -89.900, 0.000, -77.200, 0.000, 0.000, -2.900, 0.0, , , , , , 98, , , 55, 55, 55
38.0861275, -120.2285390, 37.100, 10:01:18.927, 17, 0.00, 0.38, 97, -0.400, -2.600, -78.500, 1202, 100, 97, 17, 22716, -20119, 5344, 5510, 10, 14, 1525971678.928, 30, 0, 1024, 1024, 1024, 1024, 0, 6, 3782, 3788, 3759, 3800, 3797, 3781, 0, 1, 17901, -89.900, 0.000, -77.100, 0.000, 0.000, -2.900, 0.0, , , , , , 98, , , 55, 55, 55
38.0861275, -120.2285390, 37.400, 10:01:19.028, 17, 0.00, 0.38, 97, -0.400, -2.300, -78.400, 1202, 100, 97, 17, 22716, -20119, 5344, 5510, 10, 14, 1525971679.028, 31, 0, 1024, 1024, 1024, 1024, 0, 6, 3782, 3788, 3759, 3800, 3797, 3781, 0, 1, 18001, -89.900, 0.000, -77.100, 0.000, 0.000, -2.900, 0.0, , , , , , 98, , , 55, 55, 55
38.0861275, -120.2285390, 37.400, 10:01:19.127, 17, 0.00, 0.38, 97, -0.400, -2.300, -78.400, 1202, 100, 97, 17, 22716, -20119, 5344, 5510, 10, 14, 1525971679.128, 131, 0, 1024, 1024, 1024, 1024, 0, 6, 3782, 3788, 3759, 3800, 3797, 3781, 0, 1, 18101, -89.900, 0.000, -77.100, 0.000, 0.000, -2.900, 0.0, , , , , , 98, , , 55, 55, 55
38.0861273, -120.2285390, 38.000, 10:01:19.234, 17, 0.00, 0.37, 97, 0.000, -2.500, -78.000, 1202, 100, 96, 17, 22716, -20119, 5344, 5510, 10, 14, 1525971679.235, 12, 0, 1024, 1024, 1024, 1024, 0, 6, 3782, 3788, 3759, 3800, 3797, 3781, 0, 1, 18209, -89.900, 0.000, -77.200, 0.000, 0.000, -3.000, 0.0, , , , , , 98, , , 55, 55, 55
38.0861272, -120.2285391, 38.300, 10:01:19.332, 17, 0.00, 0.36, 97, 0.400, -2.600, -77.800, 1202, 100, 96, 17, 22716, -20119, 5344, 5510, 10, 14, 1525971679.332, 4, 0, 1024, 1024, 1024, 1024, 0, 6, 3782, 3788, 3759, 3800, 3797, 3781, 0, 1, 18306, -89.900, 0.000, -77.200, 0.000, 0.000, -3.000, 0.0, , , , , , 98, , , 55, 55, 55
38.0861272, -120.2285391, 38.600, 10:01:19.433, 16, 0.00, 0.36, 97, 0.600, -2.700, -77.800, 1202, 100, 96, 17, 22716, -20119, 5344, 5510, 10, 14, 1525971679.435, 6, 0, 1024, 1024, 1024, 1024, 0, 6, 3782, 3788, 3759, 3800, 3797, 3781, 0, 1, 18408, -89.900, 0.000, -77.100, 0.000, 0.000, -3.000, 0.0, , , , , , 98, , , 55, 55, 55
38.0861272, -120.2285391, 38.600, 10:01:19.527, 16, 0.00, 0.36, 97, 0.600, -2.700, -77.800, 1202, 100, 96, 17, 22716, -20119, 5344, 5510, 10, 14, 1525971679.528, 100, 0, 1024, 1024, 1024, 1024, 0, 6, 3782, 3788, 3759, 3800, 3797, 3781, 0, 1, 18501, -90.000, 0.000, -77.100, 0.000, 0.000, -3.000, 0.0, , , , , , 98, , , 55, 55, 55
38.0861271, -120.2285391, 39.200, 10:01:19.631, 17, 0.00, 0.35, 97, 0.200, -2.900, -77.700, 1202, 100, 97, 17, 22646, -20452, 5344, 5510, 10, 14, 1525971679.631, 16, 0, 1024, 1024, 1024, 1024, 0, 6, 3767, 3774, 3748, 3790, 3791, 3774, 0, 1, 18605, -90.000, 0.000, -77.100, 0.000, 0.000, -3.000, 0.0, , , , , , 98, , , 55, 55, 55
38.0861271, -120.2285391, 39.500, 10:01:19.731, 17, 0.00, 0.35, 97, 0.100, -3.100, -77.700, 1202, 100, 97, 17, 22646, -20452, 5344, 5510, 10, 14, 1525971679.731, 4, 0, 1024, 1024, 1024, 1024, 0, 6, 3767, 3774, 3748, 3790, 3791, 3774, 0, 1, 18704, -90.000, 0.000, -77.200, 0.000, 0.000, -3.000, 0.0, , , , , , 98, , , 55, 55, 55
38.0861271, -120.2285391, 39.800, 10:01:19.832, 17, 0.00, 0.35, 97, 0.000, -3.300, -77.800, 1202, 100, 97, 17, 22646, -20452, 5344, 5510, 10, 14, 1525971679.832, 5, 0, 1024, 1024, 1024, 1024, 0, 6, 3767, 3774, 3748, 3790, 3791, 3774, 0, 1, 18806, -90.000, 0.000, -77.200, 0.000, 0.000, -3.000, 0.0, , , , , , 98, , , 55, 55, 55
38.0861271, -120.2285391, 39.800, 10:01:19.927, 17, 0.00, 0.35, 97, 0.000, -3.300, -77.800, 1202, 100, 97, 17, 22646, -20452, 5344, 5510, 10, 14, 1525971679.928, 101, 0, 1024, 1024, 1024, 1024, 0, 6, 3767, 3774, 3748, 3790, 3791, 3774, 0, 1, 18901, -90.000, 0.000, -77.200, 0.000, 0.000, -3.000, 0.0, , , , , , 98, , , 55, 55, 55
38.0861270, -120.2285391, 40.400, 10:01:20.031, 17, 0.00, 0.35, 97, -0.100, -3.400, -77.900, 1202, 100, 97, 17, 22646, -20452, 5344, 5510, 10, 14, 1525971680.031, 5, 0, 1024, 1024, 1024, 1024, 0, 6, 3767, 3774, 3748, 3790, 3791, 3774, 0, 1, 19005, -89.900, 0.000, -77.200, 0.000, 0.000, -3.000, 0.0, , , , , , 98, , , 55, 55, 55
38.0861270, -120.2285391, 40.400, 10:01:20.128, 17, 0.00, 0.35, 97, -0.100, -3.400, -77.900, 1202, 100, 97, 17, 22646, -20452, 5344, 5510, 10, 14, 1525971680.128, 101, 0, 1024, 1024, 1024, 1024, 0, 6, 3767, 3774, 3748, 3790, 3791, 3774, 0, 1, 19101, -89.900, 0.000, -77.200, 0.000, 0.000, -3.000, 0.0, , , , , , 98, , , 55, 55, 55
38.0861270, -120.2285390, 40.700, 10:01:20.227, 17, 0.00, 0.35, 97, 0.000, -3.400, -78.100, 1202, 100, 98, 17, 22646, -20452, 5344, 5510, 10, 14, 1525971680.228, 48, 0, 1024, 1024, 1024, 1024, 0, 6, 3767, 3774, 3748, 3790, 3791, 3774, 0, 1, 19201, -90.000, 0.000, -77.200, 0.000, 0.000, -3.000, 0.0, , , , , , 98, , , 55, 55, 55
38.0861269, -120.2285390, 41.000, 10:01:20.327, 17, 0.00, 0.35, 97, 0.200, -3.500, -78.200, 1202, 100, 98, 17, 22646, -20452, 5344, 5510, 10, 14, 1525971680.328, 81, 0, 1024, 1024, 1024, 1024, 0, 6, 3767, 3774, 3748, 3790, 3791, 3774, 0, 1, 19301, -90.000, 0.000, -77.200, 0.000, 0.000, -3.000, 0.0, , , , , , 98, , , 55, 55, 55
38.0861269, -120.2285390, 41.000, 10:01:20.427, 17, 0.00, 0.35, 97, 0.200, -3.500, -78.200, 1202, 100, 98, 17, 22646, -20452, 5344, 5510, 10, 14, 1525971680.428, 181, 0, 1024, 1024, 1024, 1024, 0, 6, 3767, 3774, 3748, 3790, 3791, 3774, 0, 1, 19401, -90.000, 0.000, -77.200, 0.000, 0.000, -3.000, 0.0, , , , , , 98, , , 55, 55, 55
38.0861268, -120.2285390, 41.700, 10:01:20.528, 17, 0.00, 0.35, 97, 0.200, -3.800, -78.400, 1202, 100, 98, 17, 22646, -20452, 5344, 5510, 10, 14, 1525971680.530, 55, 0, 1024, 1024, 1024, 1024, 0, 6, 3767, 3774, 3748, 3790, 3791, 3774, 0, 1, 19503, -89.900, 0.000, -77.200, 0.000, 0.000, -3.000, 0.0, , , , , , 98, , , 55, 55, 55
38.0861267, -120.2285391, 42.300, 10:01:20.627, 17, 0.00, 0.34, 97, 0.500, -3.400, -78.500, 1202, 100, 98, 18, 22644, -20200, 5344, 5510, 10, 14, 1525971680.628, 33, 0, 1024, 1024, 1024, 1024, 0, 6, 3767, 3774, 3748, 3790, 3791, 3774, 0, 1, 19601, -89.900, 0.000, -77.200, 0.000, 0.000, -3.000, 0.0, , , , , , 98, , , 55, 55, 55
38.0861267, -120.2285391, 42.300, 10:01:20.727, 17, 0.00, 0.34, 97, 0.500, -3.400, -78.500, 1202, 100, 99, 18, 22644, -20200, 5344, 5510, 10, 14, 1525971680.728, 134, 0, 1024, 1024, 1024, 1024, 0, 6, 3768, 3773, 3748, 3790, 3784, 3767, 0, 1, 19701, -89.900, 0.000, -77.100, 0.000, 0.000, -3.000, 0.0, , , , , , 98, , , 55, 55, 55
38.0861266, -120.2285392, 42.900, 10:01:20.827, 17, 0.00, 0.32, 97, 0.600, -2.900, -78.500, 1202, 100, 99, 18, 22644, -20200, 5344, 5510, 10, 14, 1525971680.827, 46, 0, 1024, 1024, 1024, 1024, 0, 6, 3768, 3773, 3748, 3790, 3784, 3767, 0, 1, 19800, -89.900, 0.000, -77.200, 0.000, 0.000, -2.900, 0.0, , , , , , 98, , , 55, 55, 55
38.0861266, -120.2285393, 43.200, 10:01:20.927, 17, 0.00, 0.32, 97, 0.700, -3.000, -78.500, 1202, 100, 99, 18, 22644, -20200, 5344, 5510, 10, 14, 1525971680.928, 50, 0, 1024, 1024, 1024, 1024, 0, 6, 3768, 3773, 3748, 3790, 3784, 3767, 0, 1, 19901, -89.900, 0.000, -77.200, 0.000, 0.000, -3.000, 0.0, , , , , , 98, , , 55, 55, 55
38.0861265, -120.2285394, 43.500, 10:01:21.027, 17, 0.00, 0.31, 97, 1.100, -3.100, -78.400, 1202, 100, 99, 18, 22644, -20200, 5344, 5510, 10, 14, 1525971681.028, 54, 0, 1024, 1024, 1024, 1024, 0, 6, 3768, 3773, 3748, 3790, 3784, 3767, 0, 1, 20001, -89.900, 0.000, -77.100, 0.000, 0.000, -3.000, 0.0, , , , , , 98, , , 55, 55, 55
38.0861265, -120.2285394, 43.800, 10:01:21.127, 17, 0.00, 0.30, 97, 1.300, -2.900, -78.400, 1202, 100, 99, 18, 22644, -20200, 5344, 5510, 10, 14, 1525971681.128, 34, 0, 1024, 1024, 1024, 1024, 0, 6, 3768, 3773, 3748, 3790, 3784, 3767, 0, 1, 20101, -89.900, 0.000, -77.100, 0.000, 0.000, -3.000, 0.0, , , , , , 98, , , 55, 55, 55
38.0861265, -120.2285395, 44.000, 10:01:21.227, 17, 0.00, 0.30, 97, 1.000, -2.800, -78.300, 1202, 100, 99, 18, 22644, -20200, 5344, 5510, 10, 14, 1525971681.228, 32, 0, 1024, 1024, 1024, 1024, 0, 6, 3768, 3773, 3748, 3790, 3784, 3767, 0, 1, 20201, -90.000, 0.000, -77.100, 0.000, 0.000, -2.900, 0.0, , , , , , 98, , , 55, 55, 55
38.0861265, -120.2285395, 44.300, 10:01:21.327, 17, 0.00, 0.29, 97, 0.800, -3.100, -78.300, 1202, 100, 99, 18, 22644, -20200, 5344, 5510, 10, 14, 1525971681.328, 23, 0, 1024, 1024, 1024, 1024, 0, 6, 3768, 3773, 3748, 3790, 3784, 3767, 0, 1, 20301, -89.900, 0.000, -77.200, 0.000, 0.000, -3.000, 0.0, , , , , , 98, , , 55, 55, 55
38.0861264, -120.2285396, 44.600, 10:01:21.427, 17, 0.00, 0.29, 97, 0.700, -3.200, -78.200, 1202, 100, 99, 18, 22644, -20200, 5344, 5510, 10, 14, 1525971681.428, 36, 0, 1024, 1024, 1024, 1024, 0, 6, 3768, 3773, 3748, 3790, 3784, 3767, 0, 1, 20401, -89.900, 0.000, -77.200, 0.000, 0.000, -3.000, 0.0, , , , , , 98, , , 55, 55, 55
38.0861264, -120.2285396, 44.900, 10:01:21.527, 17, 0.00, 0.29, 97, 0.600, -3.100, -78.100, 1202, 100, 99, 18, 22614, -20053, 5344, 5510, 10, 14, 1525971681.528, 10, 0, 1024, 1024, 1024, 1024, 0, 6, 3768, 3773, 3748, 3790, 3784, 3767, 0, 1, 20501, -89.900, 0.000, -77.100, 0.000, 0.000, -3.000, 0.0, , , , , , 98, , , 55, 55, 55
38.0861264, -120.2285396, 45.200, 10:01:21.653, 17, 0.00, 0.28, 97, 0.700, -2.900, -78.000, 1202, 100, 99, 18, 22614, -20053, 5344, 5510, 10, 14, 1525971681.653, 12, 0, 1024, 1024, 1024, 1024, 0, 6, 3768, 3773, 3748, 3790, 3784, 3767, 0, 1, 20626, -89.900, 0.000, -77.200, 0.000, 0.000, -3.000, 0.0, , , , , , 98, , , 55, 55, 55
38.0861264, -120.2285397, 45.500, 10:01:21.727, 17, 0.00, 0.28, 97, 0.500, -2.900, -78.000, 1202, 100, 99, 18, 22614, -20053, 5344, 5510, 10, 14, 1525971681.728, 25, 0, 1024, 1024, 1024, 1024, 0, 6, 3768, 3773, 3748, 3790, 3784, 3767, 0, 1, 20701, -89.900, 0.000, -77.100, 0.000, 0.000, -3.000, 0.0, , , , , , 98, , , 55, 55, 55
38.0861264, -120.2285397, 45.800, 10:01:21.828, 17, 0.00, 0.28, 97, 0.400, -3.000, -78.100, 1202, 100, 99, 18, 22614, -20053, 5344, 5510, 10, 14, 1525971681.829, 4, 0, 1024, 1024, 1024, 1024, 0, 6, 3768, 3773, 3748, 3790, 3784, 3767, 0, 1, 20802, -89.900, 0.000, -77.100, 0.000, 0.000, -2.900, 0.0, , , , , , 98, , , 55, 55, 55
38.0861264, -120.2285397, 45.800, 10:01:21.927, 17, 0.00, 0.28, 97, 0.400, -3.000, -78.100, 1202, 100, 99, 18, 22614, -20053, 5344, 5510, 10, 14, 1525971681.928, 103, 0, 1024, 1024, 1024, 1024, 0, 6, 3768, 3773, 3748, 3790, 3784, 3767, 0, 1, 20901, -89.900, 0.000, -77.200, 0.000, 0.000, -2.900, 0.0, , , , , , 98, , , 55, 55, 55
