latitude,longitude,altitude(feet),ascent(feet),speed(mph),distance(feet),time(millisecond),datetime(utc),satellites,gpslevel,voltage(v),max_altitude(feet),max_ascent(feet),max_speed(mph),max_distance(feet), xSpeed(mph), ySpeed(mph), zSpeed(mph), compass_heading(degrees), pitch(degrees), roll(degrees),isPhoto,isVideo,rc_elevator,rc_aileron,rc_throttle,rc_rudder,gimbal_heading(degrees),gimbal_pitch(degrees),battery_percent,voltageCell1,voltageCell2,voltageCell3,voltageCell4,voltageCell5,voltageCell6,current(A),battery_temperature(f),flycStateRaw,flycState,message
38.0861071,-120.228571,3872.6143060103,0,0,0,2810,2018-05-10 17:40:21,12,0,0,3872.6143060103,0,0,0,0,0,0,280.1, 0.7, 0.8,1,0,1024,1024,1024,1024,281.1,-89.9,96,4.24,4.243,4.243,4.234,4.256,4.208,0,60.8,11,AutoTakeoff,DJI_0935.jpg Starting Mission from Lat/Long: 38.08610/-120.22858 Camera: Zenmuse X3 - Overlap: 90/90 - Active Connection: No
38.0861071,-120.2285709,3872.6143060103,0,0,0.0287167332024,2910,2018-05-10 17:40:21,12,0,0,3872.6143060103,0,0,0.0287167332024,0,0,0,280.1, 1.3, 0,0,0,1024,1024,1024,1024,281.1,-89.9,96,4.24,4.243,4.243,4.234,4.256,4.208,0,60.8,11,AutoTakeoff,
38.0861072,-120.2285708,3872.6143060103,0,0,0.068042325012,3200,2018-05-10 17:40:21,12,0,0,3872.6143060103,0,0,0.068042325012,0,0,0,280.3, 0.6, 0,0,0,1024,1024,1024,1024,281.1,-90,96,4.24,4.243,4.243,4.234,4.256,4.208,0,60.8,11,AutoTakeoff,
38.0861072,-120.2285707,3872.9423900103,0.328084,0,0.093557417692,3300,2018-05-10 17:40:21,12,0,0,3872.9423900103,0.328084,0,0.093557417692,0,0,0,280.4, 0, -0.3,0,0,1024,1024,1024,1024,281.1,-90,96,4.24,4.243,4.243,4.234,4.256,4.208,0,60.8,11,AutoTakeoff,
38.0861073,-120.2285704,3873.2704740103,0.656168,0,0.187115163468,3510,2018-05-10 17:40:22,12,0,0,3873.2704740103,0.656168,0,0.187115163468,0,0,-0.223694,280.4, 0, 0.1,0,0,1024,1024,1024,1024,281.1,-90,96,4.24,4.243,4.243,4.234,4.256,4.208,0,60.8,11,AutoTakeoff,
38.0861073,-120.2285704,3873.2704740103,0.656168,0,0.187115163468,3600,2018-05-10 17:40:22,12,0,0,3873.2704740103,0.656168,0,0.187115163468,0,0,-0.223694,280.4, 0, 0.1,0,0,1024,1024,1024,1024,281.1,-90,96,4.24,4.243,4.243,4.234,4.256,4.208,0,60.8,11,AutoTakeoff,
38.0861073,-120.2285703,3873.2704740103,0.656168,0,0.21385171288,3700,2018-05-10 17:40:22,12,0,0,3873.2704740103,0.656168,0,0.21385171288,0,0,0,280.4, -0.5, 0.4,0,0,1024,1024,1024,1024,281.1,-90,96,4.24,4.243,4.243,4.234,4.256,4.208,0,60.8,11,AutoTakeoff,
38.0861073,-120.2285702,3873.5985580103,0.984252,0,0.241043970968,3800,2018-05-10 17:40:22,12,0,0,3873.5985580103,0.984252,0,0.241043970968,0,0,0,280.3, -0.9, 0.4,0,0,1024,1024,1024,1024,281.1,-90,96,4.24,4.243,4.243,4.234,4.256,4.208,0,60.8,11,AutoTakeoff,
38.0861073,-120.2285701,3873.5985580103,0.984252,0,0.268554142452,3900,2018-05-10 17:40:22,8,0,0,3873.5985580103,0.984252,0,0.268554142452,0,0,0,280.2, -1, 0.5,0,0,1024,1024,1024,1024,281.1,-90,96,4.24,4.243,4.243,4.234,4.256,4.208,0,60.8,11,AutoTakeoff,
38.0861073,-120.22857,3873.9266420103,1.312336,0,0.296293316568,4000,2018-05-10 17:40:22,8,0,25.462,3873.9266420103,1.312336,0,0.296293316568,0,0,-0.223694,280, -1.1, 0.3,0,0,1024,1024,1024,1024,281.1,-90,96,4.24,4.243,4.243,4.234,4.256,4.208,3.098,60.8,11,AutoTakeoff,
38.0861073,-120.2285699,3873.9266420103,1.312336,0,0.32420276628,4100,2018-05-10 17:40:22,10,0,25.462,3873.9266420103,1.312336,0,0.32420276628,0,0,0,279.9, -1.1, 0.2,0,0,1024,1024,1024,1024,281.1,-90,96,4.24,4.243,4.243,4.234,4.256,4.208,3.098,60.8,11,AutoTakeoff,
38.0861073,-120.2285698,3874.2547260103,1.64042,0,0.35224082492,4200,2018-05-10 17:40:22,10,0,25.462,3874.2547260103,1.64042,0,0.35224082492,0,0,-0.223694,279.9, -0.9, 0.4,0,0,1024,1024,1024,1024,281.1,-89.9,96,4.24,4.243,4.243,4.234,4.256,4.208,3.098,60.8,11,AutoTakeoff,
38.0861073,-120.2285698,3874.5828100103,1.968504,0,0.35224082492,4300,2018-05-10 17:40:22,12,0,25.462,3874.5828100103,1.968504,0,0.35224082492,0,0,-0.223694,279.9, -0.9, 0.5,0,0,1024,1024,1024,1024,281.1,-90,96,4.24,4.243,4.243,4.234,4.256,4.208,3.098,60.8,11,AutoTakeoff,
38.0861073,-120.2285698,3874.5828100103,1.968504,0,0.35224082492,4400,2018-05-10 17:40:22,12,0,25.462,3874.5828100103,1.968504,0,0.35224082492,0,0,0,279.9, -1, 0.4,0,0,1024,1024,1024,1024,281.1,-90,96,4.24,4.243,4.243,4.234,4.256,4.208,3.098,60.8,11,AutoTakeoff,
38.0861072,-120.2285698,3874.9108940103,2.296588,0,0.34652560164,4500,2018-05-10 17:40:23,11,0,25.462,3874.9108940103,2.296588,0,0.35224082492,0,0,-0.223694,279.9, -1, 0.4,0,0,1024,1024,1024,1024,281.1,-90,96,4.24,4.243,4.243,4.234,4.256,4.208,3.098,60.8,11,AutoTakeoff,
38.0861071,-120.2285698,3874.9108940103,2.296588,0,0.34459974856,4600,2018-05-10 17:40:23,11,0,25.462,3874.9108940103,2.296588,0,0.35224082492,0,0,-0.223694,279.9, -0.8, 0.5,0,0,1024,1024,1024,1024,281.1,-89.9,96,4.24,4.243,4.243,4.234,4.256,4.208,3.098,60.8,11,AutoTakeoff,
38.086107,-120.2285698,3875.2389780103,2.624672,0,0.34652560164,4700,2018-05-10 17:40:23,11,0,25.462,3875.2389780103,2.624672,0,0.35224082492,0,0,-0.223694,280, -0.9, 0.5,0,0,1024,1024,1024,1024,281.1,-90,96,4.24,4.243,4.243,4.234,4.256,4.208,3.098,60.8,11,AutoTakeoff,
38.086107,-120.2285698,3875.2389780103,2.624672,0,0.34652560164,4800,2018-05-10 17:40:23,11,0,25.462,3875.2389780103,2.624672,0,0.35224082492,0,0,0,280.1, -0.8, 0.7,0,0,1024,1024,1024,1024,281.1,-89.9,96,4.24,4.243,4.243,4.234,4.256,4.208,3.098,60.8,11,AutoTakeoff,
38.0861069,-120.2285697,3875.5670620103,2.952756,0,0.3803805896,4900,2018-05-10 17:40:23,13,0,25.462,3875.5670620103,2.952756,0,0.3803805896,0,0,0,280.3, -0.8, 0.8,0,0,1024,1024,1024,1024,281.1,-89.9,96,4.24,4.243,4.243,4.234,4.256,4.208,3.098,60.8,14,Waypoint,
38.0861069,-120.2285696,3875.5670620103,2.952756,0,0.40860237528,5000,2018-05-10 17:40:23,13,0,24.285,3875.5670620103,2.952756,0,0.40860237528,0,0,0,280.4, -0.9, 0.9,0,0,1024,1024,1024,1024,281.1,-89.9,96,3.997,4,4.047,4.043,4.03,4.04,15.719,60.8,14,Waypoint,
38.0861068,-120.2285696,3875.8951460103,3.28084,0,0.41666668,5100,2018-05-10 17:40:23,12,0,24.285,3875.8951460103,3.28084,0,0.41666668,0,0,0,280.5, -0.7, 1.2,0,0,1024,1024,1024,1024,281.1,-89.9,96,3.997,4,4.047,4.043,4.03,4.04,15.719,60.8,14,Waypoint,
38.0861068,-120.2285696,3875.8951460103,3.28084,0,0.41666668,5200,2018-05-10 17:40:23,12,0,24.285,3875.8951460103,3.28084,0,0.41666668,0,0,0,280.6, -0.4, 1.2,0,0,1024,1024,1024,1024,281.1,-89.9,96,3.997,4,4.047,4.043,4.03,4.04,15.719,60.8,14,Waypoint,
38.0861068,-120.2285696,3875.8951460103,3.28084,0,0.41666668,5300,2018-05-10 17:40:23,12,0,24.285,3875.8951460103,3.28084,0,0.41666668,0,0,0,280.6, -0.4, 0.9,0,0,1024,1024,1024,1024,281.1,-90,96,3.997,4,4.047,4.043,4.03,4.04,15.719,60.8,14,Waypoint,
38.0861068,-120.2285696,3876.2232300103,3.608924,0,0.41666668,5400,2018-05-10 17:40:23,12,0,24.285,3876.2232300103,3.608924,0,0.41666668,0,0,0,280.7, -0.4, 0.5,0,0,1024,1024,1024,1024,281.1,-89.9,96,3.997,4,4.047,4.043,4.03,4.04,15.719,60.8,14,Waypoint,
38.0861066,-120.2285696,3876.5513140103,3.937008,0,0.4414862346,5510,2018-05-10 17:40:24,12,0,24.285,3876.5513140103,3.937008,0,0.4414862346,0,0,-0.223694,280.6, -0.4, 0.7,0,0,1024,1024,1024,1024,281.1,-90,96,3.997,4,4.047,4.043,4.03,4.04,15.719,60.8,14,Waypoint,
38.0861066,-120.2285696,3876.5513140103,3.937008,0,0.4414862346,5600,2018-05-10 17:40:24,12,0,24.285,3876.5513140103,3.937008,0,0.4414862346,0,0,-0.223694,280.6, -0.4, 0.7,0,0,1024,1024,1024,1024,281.1,-90,96,3.997,4,4.047,4.043,4.03,4.04,15.719,60.8,14,Waypoint,
38.0861066,-120.2285696,3876.8793980103,4.265092,0,0.4414862346,5710,2018-05-10 17:40:24,12,0,24.285,3876.8793980103,4.265092,0,0.4414862346,0,0,-0.223694,280.4, -0.6, 0.5,0,0,1024,1024,1024,1024,281.1,-90,96,3.997,4,4.047,4.043,4.03,4.04,15.719,60.8,14,Waypoint,
38.0861066,-120.2285696,3877.8636500103,5.249344,0,0.4414862346,5800,2018-05-10 17:40:24,12,0,24.285,3877.8636500103,5.249344,0,0.4414862346,0,0,-0.223694,280.2, -0.6, 0.7,0,0,1024,1024,1024,1024,281.1,-89.9,96,3.997,4,4.047,4.043,4.03,4.04,15.719,60.8,14,Waypoint,
38.0861066,-120.2285696,3878.1917340103,5.577428,0,0.4414862346,5910,2018-05-10 17:40:24,12,0,24.285,3878.1917340103,5.577428,0,0.4414862346,0,0,-0.447388,280.2, -0.5, 0.6,0,0,1024,1024,1024,1024,281.1,-89.9,96,3.997,4,4.047,4.043,4.03,4.04,15.719,60.8,14,Waypoint,
38.0861066,-120.2285696,3878.1917340103,5.577428,0,0.4414862346,6000,2018-05-10 17:40:24,12,0,23.952,3878.1917340103,5.577428,0,0.4414862346,0,0,-0.447388,280.2, -0.5, 0.6,0,0,1024,1024,1024,1024,281.1,-89.9,96,3.988,3.982,4,3.998,4.001,3.994,14.656,60.8,14,Waypoint,
38.0861068,-120.2285695,3878.8479020103,6.233596,0,0.4444389906,6100,2018-05-10 17:40:24,10,0,23.952,3878.8479020103,6.233596,0,0.4444389906,0,0,-0.447388,280.2, -0.5, 0.5,0,0,1024,1024,1024,1024,281.1,-90,96,3.988,3.982,4,3.998,4.001,3.994,14.656,60.8,14,Waypoint,
38.086107,-120.2285693,3880.1602380103,7.545932,0,0.48954725976,6210,2018-05-10 17:40:24,11,0,23.952,3880.1602380103,7.545932,0,0.48954725976,0,0,-0.447388,280.2, -0.9, 0,0,0,1024,1024,1024,1024,281.1,-89.9,96,3.988,3.982,4,3.998,4.001,3.994,14.656,60.8,14,Waypoint,
38.086107,-120.2285692,3880.8164060103,8.2021,0,0.51818571212,6400,2018-05-10 17:40:24,11,0,23.952,3880.8164060103,8.2021,0,0.51818571212,0,0,-0.447388,280.2, -0.8, -0.1,0,0,1024,1024,1024,1024,281.1,-89.9,96,3.988,3.982,4,3.998,4.001,3.994,14.656,60.8,14,Waypoint,
38.0861069,-120.2285692,3881.8006580103,9.186352,0,0.52202757576,6500,2018-05-10 17:40:25,11,0,23.952,3881.8006580103,9.186352,0,0.52202757576,0,0,-0.671082,280.2, -0.7, 0,0,0,1024,1024,1024,1024,281.1,-89.9,96,3.988,3.982,4,3.998,4.001,3.994,14.656,60.8,14,Waypoint,
38.0861067,-120.2285692,3882.7849100103,10.170604,0,0.53710959724,6600,2018-05-10 17:40:25,11,0,23.952,3882.7849100103,10.170604,0,0.53710959724,0,0,-0.671082,280.2, -0.4, 0.4,0,0,1024,1024,1024,1024,281.1,-89.9,96,3.988,3.982,4,3.998,4.001,3.994,14.656,60.8,14,Waypoint,
38.0861066,-120.2285691,3883.7691620103,11.154856,0,0.57530513652,6700,2018-05-10 17:40:25,10,0,23.952,3883.7691620103,11.154856,0,0.57530513652,0,0,-0.671082,280.2, -0.2, 0.9,0,0,1024,1024,1024,1024,281.1,-89.9,96,3.988,3.982,4,3.998,4.001,3.994,14.656,60.8,14,Waypoint,
38.0861066,-120.2285689,3884.7534140103,12.139108,0,0.63003939024,6800,2018-05-10 17:40:25,10,0,23.952,3884.7534140103,12.139108,0,0.63003939024,0,0,-0.671082,280.2, -0.2, 1.3,0,0,1024,1024,1024,1024,281.1,-89.9,96,3.988,3.982,4,3.998,4.001,3.994,14.656,60.8,14,Waypoint,
38.0861067,-120.2285688,3885.7376660103,13.12336,0,0.64840553256,6900,2018-05-10 17:40:25,8,0,23.952,3885.7376660103,13.12336,0,0.64840553256,0,0,-0.671082,280.2, -0.5, 1.3,0,0,1024,1024,1024,1024,281.1,-89.9,96,3.988,3.982,4,3.998,4.001,3.994,14.656,60.8,14,Waypoint,
38.0861068,-120.2285686,3887.0500020103,14.435696,0,0.69783794884,7000,2018-05-10 17:40:25,8,0,23.482,3887.0500020103,14.435696,0,0.69783794884,0,0,-0.671082,280.3, -0.6, 1,0,0,1024,1024,1024,1024,281.1,-90,96,3.894,3.894,3.936,3.902,3.882,3.895,20.665,60.8,14,Waypoint,
38.0861068,-120.2285685,3888.0342540103,15.419948,0,0.726213934,7100,2018-05-10 17:40:25,12,0,23.482,3888.0342540103,15.419948,0,0.726213934,0,0,-0.671082,280.5, -0.9, 0.5,0,0,1024,1024,1024,1024,281.1,-90,96,3.894,3.894,3.936,3.902,3.882,3.895,20.665,60.8,14,Waypoint,
38.0861067,-120.2285684,3889.0185060103,16.4042,0,0.76076446004,7200,2018-05-10 17:40:25,12,0,23.482,3889.0185060103,16.4042,0,0.76076446004,0,0,-0.671082,280.6, -1.1, 0.2,0,0,1024,1024,1024,1024,281.1,-90,96,3.894,3.894,3.936,3.902,3.882,3.895,20.665,60.8,14,Waypoint,
38.0861068,-120.2285684,3890.3308420103,17.716536,0,0.75461616588,7300,2018-05-10 17:40:25,12,0,23.482,3890.3308420103,17.716536,0,0.76076446004,0,0,-0.671082,280.6, -1.1, 0.3,0,0,1024,1024,1024,1024,281.1,-89.9,96,3.894,3.894,3.936,3.902,3.882,3.895,20.665,60.8,14,Waypoint,
38.0861068,-120.2285685,3891.3150940103,18.700788,0,0.726213934,7400,2018-05-10 17:40:25,12,0,23.482,3891.3150940103,18.700788,0,0.76076446004,0,0,-0.671082,280.6, -0.8, 0.4,0,0,1024,1024,1024,1024,281.1,-89.9,96,3.894,3.894,3.936,3.902,3.882,3.895,20.665,60.8,14,Waypoint,
38.0861068,-120.2285686,3892.6274300103,20.013124,0,0.69783794884,7510,2018-05-10 17:40:26,14,0,23.482,3892.6274300103,20.013124,0,0.76076446004,0,0,-0.671082,280.5, -0.5, 0.4,0,0,1024,1024,1024,1024,281.1,-89.9,96,3.894,3.894,3.936,3.902,3.882,3.895,20.665,60.8,14,Waypoint,
38.0861068,-120.2285687,3893.6116820103,20.997376,0,0.66949149124,7600,2018-05-10 17:40:26,14,0,23.482,3893.6116820103,20.997376,0,0.76076446004,0,0,-0.671082,280.5, -0.1, 0.5,0,0,1024,1024,1024,1024,281.1,-89.9,96,3.894,3.894,3.936,3.902,3.882,3.895,20.665,60.8,14,Waypoint,
38.0861066,-120.2285688,3894.5959340103,21.981628,0,0.6575787612,7710,2018-05-10 17:40:26,15,0,23.482,3894.5959340103,21.981628,0,0.76076446004,0,0,-0.671082,280.4, -0.1, 0.6,0,0,1024,1024,1024,1024,281.1,-89.9,96,3.894,3.894,3.936,3.902,3.882,3.895,20.665,60.8,14,Waypoint,
38.0861064,-120.228569,3895.9082700103,23.293964,0,0.6285597314,7800,2018-05-10 17:40:26,15,0,23.482,3895.9082700103,23.293964,0,0.76076446004,0,0,-0.671082,280.4, -0.1, 0.8,0,0,1024,1024,1024,1024,281.1,-89.9,96,3.894,3.894,3.936,3.902,3.882,3.895,20.665,60.8,14,Waypoint,
38.0861064,-120.2285691,3896.8925220103,24.278216,0,0.60243440248,7900,2018-05-10 17:40:26,13,0,23.482,3896.8925220103,24.278216,0,0.76076446004,0,0,-0.671082,280.3, 0.2, 1.4,0,0,1024,1024,1024,1024,281.1,-89.9,96,3.894,3.894,3.936,3.902,3.882,3.895,20.665,60.8,14,Waypoint,
38.0861064,-120.2285695,3899.1891100103,26.574804,0,0.5007710134,8020,2018-05-10 17:40:26,14,0,23.273,3899.1891100103,26.574804,0,0.76076446004,0,0,-0.671082,280.3, 0.9, 1.4,0,0,1024,1024,1024,1024,281.1,-89.9,96,3.867,3.885,3.886,3.892,3.892,3.9,21.739,60.8,14,Waypoint,
38.0861064,-120.2285697,3900.1733620103,27.559056,0,0.45231956828,8120,2018-05-10 17:40:26,14,0,23.273,3900.1733620103,27.559056,0,0.76076446004,0,0,-0.671082,280.7, 0.9, 1.3,0,0,1024,1024,1024,1024,281.1,-89.9,96,3.867,3.885,3.886,3.892,3.892,3.9,21.739,60.8,14,Waypoint,
38.0861063,-120.2285698,3901.1576140103,28.543308,0,0.45160106432,8300,2018-05-10 17:40:26,12,0,23.273,3901.1576140103,28.543308,0,0.76076446004,0,0,-0.671082,280.9, 0.8, 1.1,0,0,1024,1024,1024,1024,281.1,-89.9,96,3.867,3.885,3.886,3.892,3.892,3.9,21.739,60.8,14,Waypoint,
38.0861063,-120.2285699,3902.4699500103,29.855644,0,0.43008859644,8400,2018-05-10 17:40:26,12,0,23.273,3902.4699500103,29.855644,0,0.76076446004,0,0,-0.671082,280.8, 0.9, 0.5,0,0,1024,1024,1024,1024,281.1,-89.9,96,3.867,3.885,3.886,3.892,3.892,3.9,21.739,60.8,14,Waypoint,
38.0861065,-120.2285701,3903.4542020103,30.839896,0,0.33870079824,8500,2018-05-10 17:40:27,12,0,23.273,3903.4542020103,30.839896,0,0.76076446004,0,0,-0.671082,280.6, 0.8, 0.2,0,0,1024,1024,1024,1024,281.1,-89.9,96,3.867,3.885,3.886,3.892,3.892,3.9,21.739,60.8,14,Waypoint,
38.0861068,-120.2285703,3904.4384540103,31.824148,0.223694,0.228884849844,8600,2018-05-10 17:40:27,12,0,23.273,3904.4384540103,31.824148,0.223694,0.76076446004,0,0,-0.671082,280.4, 0.6, -0.3,0,0,1024,1024,1024,1024,281.1,-89.9,96,3.867,3.885,3.886,3.892,3.892,3.9,21.739,60.8,14,Waypoint,
38.086107,-120.2285704,3905.4227060103,32.8084,0.223694,0.176121068628,8700,2018-05-10 17:40:27,14,0,23.273,3905.4227060103,32.8084,0.223694,0.76076446004,0,0,-0.671082,280.3, 0.7, -0.9,0,0,1024,1024,1024,1024,281.1,-89.9,96,3.867,3.885,3.886,3.892,3.892,3.9,21.739,60.8,14,Waypoint,
38.0861072,-120.2285706,3906.4069580103,33.792652,0.223694,0.120521985484,8800,2018-05-10 17:40:27,14,0,23.273,3906.4069580103,33.792652,0.223694,0.76076446004,0,0,-0.671082,280.2, 0.7, -1.3,0,0,1024,1024,1024,1024,281.1,-89.9,96,3.867,3.885,3.886,3.892,3.892,3.9,21.739,60.8,14,Waypoint,
38.0861073,-120.2285706,3907.3912100103,34.776904,0,0.136084650024,9000,2018-05-10 17:40:27,12,0,23.455,3907.3912100103,34.776904,0.223694,0.76076446004,0,0,-0.671082,280.2, 0.8, -1.3,0,0,1024,1024,1024,1024,281.1,-89.9,96,3.902,3.904,3.914,3.911,3.917,3.908,18.277,60.8,14,Waypoint,
38.0861072,-120.2285707,3908.3754620103,35.761156,0,0.093557417692,9100,2018-05-10 17:40:27,12,0,23.455,3908.3754620103,35.761156,0.223694,0.76076446004,0,0,-0.671082,280.1, 0.8, -1.1,0,0,1024,1024,1024,1024,281.1,-89.9,96,3.902,3.904,3.914,3.911,3.917,3.908,18.277,60.8,14,Waypoint,
38.0861073,-120.2285708,3909.3597140103,36.745408,0,0.092861223444,9200,2018-05-10 17:40:27,13,0,23.455,3909.3597140103,36.745408,0.223694,0.76076446004,0,0,-0.671082,280.2, 0.7, -0.7,0,0,1024,1024,1024,1024,281.1,-89.9,96,3.902,3.904,3.914,3.911,3.917,3.908,18.277,60.8,14,Waypoint,
38.0861073,-120.2285709,3910.3439660103,37.72966,0,0.078417325344,9300,2018-05-10 17:40:27,13,0,23.455,3910.3439660103,37.72966,0.223694,0.76076446004,0,0,-0.671082,280.2, 0.6, -0.3,0,0,1024,1024,1024,1024,281.1,-89.9,96,3.902,3.904,3.914,3.911,3.917,3.908,18.277,60.8,14,Waypoint,
38.0861072,-120.2285709,3911.6563020103,39.041996,0,0.046430775764,9400,2018-05-10 17:40:27,13,0,23.455,3911.6563020103,39.041996,0.223694,0.76076446004,0,0,-0.671082,280.3, 0.5, -0.2,0,0,1024,1024,1024,1024,281.1,-89.9,96,3.902,3.904,3.914,3.911,3.917,3.908,18.277,60.8,14,Waypoint,
38.086107,-120.2285708,3913.6248060103,41.0105,0,0.068042325012,9500,2018-05-10 17:40:28,12,0,23.455,3913.6248060103,41.0105,0.223694,0.76076446004,0,0,-0.671082,280.3, 0, 0,0,0,1024,1024,1024,1024,281.1,-89.9,96,3.902,3.904,3.914,3.911,3.917,3.908,18.277,60.8,14,Waypoint,
38.086107,-120.2285708,3914.6090580103,41.994752,0,0.068042325012,9600,2018-05-10 17:40:28,12,0,23.455,3914.6090580103,41.994752,0.223694,0.76076446004,0,0,-0.671082,280.3, -0.2, 0.2,0,0,1024,1024,1024,1024,281.1,-90,96,3.902,3.904,3.914,3.911,3.917,3.908,18.277,60.8,14,Waypoint,
38.0861069,-120.2285708,3915.5933100103,42.979004,0,0.092861223444,9700,2018-05-10 17:40:28,12,0,23.455,3915.5933100103,42.979004,0.223694,0.76076446004,0,0,-0.671082,280.3, -0.5, 0.6,0,0,1024,1024,1024,1024,281.1,-90,96,3.902,3.904,3.914,3.911,3.917,3.908,18.277,60.8,14,Waypoint,
38.0861068,-120.2285707,3916.5775620103,43.963256,0,0.139291999208,9800,2018-05-10 17:40:28,12,0,23.455,3916.5775620103,43.963256,0.223694,0.76076446004,0,0,-0.671082,280.2, -0.6, 0.7,0,0,1024,1024,1024,1024,281.1,-90,96,3.902,3.904,3.914,3.911,3.917,3.908,18.277,60.8,14,Waypoint,
38.0861069,-120.2285707,3917.5618140103,44.947508,0,0.11290026608,9900,2018-05-10 17:40:28,14,0,23.455,3917.5618140103,44.947508,0.223694,0.76076446004,0,0,-0.671082,280.1, -0.6, 0.6,0,0,1024,1024,1024,1024,281.1,-89.9,96,3.902,3.904,3.914,3.911,3.917,3.908,18.277,60.8,14,Waypoint,
38.0861069,-120.2285707,3918.5460660103,45.93176,0,0.11290026608,10000,2018-05-10 17:40:28,14,0,23.479,3918.5460660103,45.93176,0.223694,0.76076446004,0,0,-0.671082,280, -0.3, 0.4,0,0,1024,1024,1024,1024,281.1,-89.9,95,3.902,3.904,3.914,3.911,3.917,3.908,17.941,60.8,14,Waypoint,
38.0861069,-120.2285708,3920.5145700103,47.900264,0,0.092861223444,10200,2018-05-10 17:40:28,14,0,23.479,3920.5145700103,47.900264,0.223694,0.76076446004,0,0,-0.671082,279.8, 0.3, 0,0,0,1024,1024,1024,1024,281.1,-89.9,95,3.902,3.904,3.914,3.911,3.917,3.908,17.941,60.8,14,Waypoint,
38.0861069,-120.2285709,3922.4830740103,49.868768,0,0.078417325344,10310,2018-05-10 17:40:28,14,0,23.479,3922.4830740103,49.868768,0.223694,0.76076446004,0,0,-0.671082,280, 1.1, 0.1,0,0,1024,1024,1024,1024,281.1,-89.9,95,3.902,3.904,3.914,3.911,3.917,3.908,17.941,60.8,14,Waypoint,
38.0861069,-120.228571,3924.4515780103,51.837272,0,0.072969818608,10520,2018-05-10 17:40:29,12,0,23.479,3924.4515780103,51.837272,0.223694,0.76076446004,0,0,-0.671082,280.2, 1.2, 0.2,0,0,1024,1024,1024,1024,281.1,-89.9,95,3.902,3.904,3.914,3.911,3.917,3.908,17.941,60.8,14,Waypoint,
38.0861069,-120.228571,3925.4358300103,52.821524,0,0.072969818608,10600,2018-05-10 17:40:29,14,0,23.479,3925.4358300103,52.821524,0.223694,0.76076446004,0,0,-0.671082,280.3, 1, 0.3,0,0,1024,1024,1024,1024,281.1,-89.9,95,3.902,3.904,3.914,3.911,3.917,3.908,17.941,60.8,14,Waypoint,
38.086107,-120.228571,3926.4200820103,53.805776,0,0.036484909304,10700,2018-05-10 17:40:29,14,0,23.479,3926.4200820103,53.805776,0.223694,0.76076446004,0,0,-0.671082,280.5, 0.7, 0.3,0,0,1024,1024,1024,1024,281.1,-89.9,95,3.902,3.904,3.914,3.911,3.917,3.908,17.941,60.8,14,Waypoint,
38.0861069,-120.2285709,3927.0762500103,54.461944,0,0.078417325344,10900,2018-05-10 17:40:29,13,0,23.479,3927.0762500103,54.461944,0.223694,0.76076446004,0,0,-0.671082,280.6, 0.7, 0.3,0,0,1024,1024,1024,1024,281.1,-89.9,95,3.902,3.904,3.914,3.911,3.917,3.908,17.941,60.8,14,Waypoint,
38.0861069,-120.2285708,3928.0605020103,55.446196,0,0.092861223444,11000,2018-05-10 17:40:29,13,0,23.479,3928.0605020103,55.446196,0.223694,0.76076446004,0,0,-0.671082,280.6, 0.5, 0.3,0,0,1024,1024,1024,1024,281.1,-89.9,95,3.906,3.908,3.923,3.919,3.919,3.923,17.941,60.8,14,Waypoint,
38.0861068,-120.2285707,3929.0447540103,56.430448,0,0.139291999208,11100,2018-05-10 17:40:29,12,0,23.479,3929.0447540103,56.430448,0.223694,0.76076446004,0,0,-0.671082,280.6, 0.1, 0.4,0,0,1024,1024,1024,1024,281.1,-90,95,3.906,3.908,3.923,3.919,3.919,3.923,17.941,60.8,14,Waypoint,
38.0861068,-120.2285706,3930.0290060103,57.4147,0,0.158665687492,11200,2018-05-10 17:40:29,12,0,23.479,3930.0290060103,57.4147,0.223694,0.76076446004,0,0,-0.671082,280.5, -0.1, 0.6,0,0,1024,1024,1024,1024,281.1,-90,95,3.906,3.908,3.923,3.919,3.919,3.923,17.941,60.8,14,Waypoint,
38.0861068,-120.2285705,3931.0132580103,58.398952,0,0.180545281368,11300,2018-05-10 17:40:29,13,0,23.479,3931.0132580103,58.398952,0.223694,0.76076446004,0,0,-0.671082,280.5, -0.6, 0.6,0,0,1024,1024,1024,1024,281.1,-90,95,3.906,3.908,3.923,3.919,3.919,3.923,17.941,60.8,14,Waypoint,
38.0861068,-120.2285703,3932.3255940103,59.711288,0,0.228884849844,11400,2018-05-10 17:40:29,13,0,23.479,3932.3255940103,59.711288,0.223694,0.76076446004,0,0,-0.671082,280.5, -0.9, 0.6,0,0,1024,1024,1024,1024,281.1,-90,95,3.906,3.908,3.923,3.919,3.919,3.923,17.941,60.8,14,Waypoint,
38.0861068,-120.2285702,3933.3098460103,60.69554,0,0.254476058012,11500,2018-05-10 17:40:30,13,0,23.479,3933.3098460103,60.69554,0.223694,0.76076446004,0,0,-0.671082,280.5, -0.9, 0.6,0,0,1024,1024,1024,1024,281.1,-90,95,3.906,3.908,3.923,3.919,3.919,3.923,17.941,60.8,14,Waypoint,
38.0861069,-120.22857,3934.2940980103,61.679792,0,0.296293316568,11600,2018-05-10 17:40:30,13,0,23.479,3934.2940980103,61.679792,0.223694,0.76076446004,0,0,-0.671082,280.5, -0.7, 0.5,0,0,1024,1024,1024,1024,281.1,-90,95,3.906,3.908,3.923,3.919,3.919,3.923,17.941,60.8,14,Waypoint,
38.0861069,-120.2285699,3935.2783500103,62.664044,0,0.32420276628,11700,2018-05-10 17:40:30,13,0,23.479,3935.2783500103,62.664044,0.223694,0.76076446004,0,0,-0.671082,280.6, -0.5, 0.5,0,0,1024,1024,1024,1024,281.1,-90,95,3.906,3.908,3.923,3.919,3.919,3.923,17.941,60.8,14,Waypoint,
38.0861069,-120.2285699,3936.2626020103,63.648296,0,0.32420276628,11800,2018-05-10 17:40:30,13,0,23.479,3936.2626020103,63.648296,0.223694,0.76076446004,0,0,-0.671082,280.7, -0.5, 0.4,0,0,1024,1024,1024,1024,281.1,-89.9,95,3.906,3.908,3.923,3.919,3.919,3.923,17.941,60.8,14,Waypoint,
38.086107,-120.2285698,3937.2468540103,64.632548,0,0.34652560164,11900,2018-05-10 17:40:30,14,0,23.479,3937.2468540103,64.632548,0.223694,0.76076446004,0,0,-0.671082,280.7, -0.4, 0.3,0,0,1024,1024,1024,1024,281.1,-89.9,95,3.906,3.908,3.923,3.919,3.919,3.923,17.941,60.8,14,Waypoint,
38.086107,-120.2285697,3938.2311060103,65.6168,0,0.37509515636,12000,2018-05-10 17:40:30,14,0,23.462,3938.2311060103,65.6168,0.223694,0.76076446004,0,0,-0.671082,280.6, -0.3, 0.3,0,0,1024,1024,1024,1024,281.1,-89.9,95,3.898,3.904,3.928,3.916,3.92,3.905,17.446,60.8,14,Waypoint,
38.086107,-120.2285696,3939.2153580103,66.601052,0,0.40368767696,12100,2018-05-10 17:40:30,12,0,23.462,3939.2153580103,66.601052,0.223694,0.76076446004,0,0,-0.671082,280.5, -0.3, 0.4,0,0,1024,1024,1024,1024,281.1,-90,95,3.898,3.904,3.928,3.916,3.92,3.905,17.446,60.8,14,Waypoint,
38.086107,-120.2285693,3941.1838620103,68.569556,0,0.48954725976,12300,2018-05-10 17:40:30,14,0,23.462,3941.1838620103,68.569556,0.223694,0.76076446004,0,0,-0.671082,280.4, -0.9, 0.1,0,0,1024,1024,1024,1024,281.1,-90,95,3.898,3.904,3.928,3.916,3.92,3.905,17.446,60.8,14,Waypoint,
38.086107,-120.2285693,3942.1681140103,69.553808,0,0.48954725976,12400,2018-05-10 17:40:30,14,0,23.462,3942.1681140103,69.553808,0.223694,0.76076446004,0,0,-0.671082,280.4, -1.2, 0.1,0,0,1024,1024,1024,1024,281.1,-90,95,3.898,3.904,3.928,3.916,3.92,3.905,17.446,60.8,14,Waypoint,
38.086107,-120.2285692,3943.1523660103,70.53806,0,0.51818571212,12500,2018-05-10 17:40:31,14,0,23.462,3943.1523660103,70.53806,0.223694,0.76076446004,0,0,-0.671082,280.3, -1.1, 0.4,0,0,1024,1024,1024,1024,281.1,-90,95,3.898,3.904,3.928,3.916,3.92,3.905,17.446,60.8,14,Waypoint,
38.086107,-120.2285691,3945.1208700103,72.506564,0,0.54683728784,12620,2018-05-10 17:40:31,14,0,23.462,3945.1208700103,72.506564,0.223694,0.76076446004,0,0,-0.671082,280.1, -0.9, 0.9,0,0,1024,1024,1024,1024,281.1,-89.9,95,3.898,3.904,3.928,3.916,3.92,3.905,17.446,60.8,14,Waypoint,
38.086107,-120.2285691,3945.1208700103,72.506564,0,0.54683728784,12700,2018-05-10 17:40:31,14,0,23.462,3945.1208700103,72.506564,0.223694,0.76076446004,0,0,-0.671082,280.1, -0.9, 0.9,0,0,1024,1024,1024,1024,281.1,-89.9,95,3.898,3.904,3.928,3.916,3.92,3.905,17.446,60.8,14,Waypoint,
38.0861069,-120.2285691,3947.0893740103,74.475068,0,0.5504757394,12800,2018-05-10 17:40:31,14,0,23.462,3947.0893740103,74.475068,0.223694,0.76076446004,0,0,-0.671082,280, -0.2, 1.6,0,0,1024,1024,1024,1024,281.1,-89.9,95,3.898,3.904,3.928,3.916,3.92,3.905,17.446,60.8,14,Waypoint,
38.0861068,-120.2285691,3949.0578780103,76.443572,0,0.55648951912,13010,2018-05-10 17:40:31,14,0,23.435,3949.0578780103,76.443572,0.223694,0.76076446004,0,0,-0.671082,280.1, 0.2, 1.9,0,0,1024,1024,1024,1024,281.1,-89.9,95,3.889,3.902,3.917,3.92,3.907,3.905,17.695,60.8,14,Waypoint,
38.0861068,-120.2285692,3949.7140460103,77.09974,0,0.5283628778,13200,2018-05-10 17:40:31,14,0,23.435,3949.7140460103,77.09974,0.223694,0.76076446004,0,0,-0.671082,280.2, 0.3, 2.2,0,0,1024,1024,1024,1024,281.1,-89.9,95,3.889,3.902,3.917,3.92,3.907,3.905,17.695,60.8,14,Waypoint,
38.0861067,-120.2285692,3951.6825500103,79.068244,0,0.53710959724,13310,2018-05-10 17:40:31,15,0,23.435,3951.6825500103,79.068244,0.223694,0.76076446004,0,0,-0.671082,280.6, 0.3, 2.6,0,0,1024,1024,1024,1024,281.1,-89.9,95,3.889,3.902,3.917,3.92,3.907,3.905,17.695,60.8,14,Waypoint,
38.0861067,-120.2285692,3952.6668020103,80.052496,0,0.53710959724,13500,2018-05-10 17:40:32,15,0,23.435,3952.6668020103,80.052496,0.223694,0.76076446004,0,0,-0.671082,280.7, 0.2, 2.3,0,0,1024,1024,1024,1024,281.1,-89.9,95,3.889,3.902,3.917,3.92,3.907,3.905,17.695,60.8,14,Waypoint,
38.0861065,-120.2285692,3953.6510540103,81.036748,0,0.56134516232,13600,2018-05-10 17:40:32,15,0,23.435,3953.6510540103,81.036748,0.223694,0.76076446004,0,0,-0.671082,280.6, 0.2, 2.3,0,0,1024,1024,1024,1024,281.1,-89.9,95,3.889,3.902,3.917,3.92,3.907,3.905,17.695,60.8,14,Waypoint,
38.0861065,-120.2285692,3954.6353060103,82.021,0,0.56134516232,13700,2018-05-10 17:40:32,16,0,23.435,3954.6353060103,82.021,0.223694,0.76076446004,0,0,-0.671082,280.6, 0.1, 2.6,0,0,1024,1024,1024,1024,281.1,-89.9,95,3.889,3.902,3.917,3.92,3.907,3.905,17.695,60.8,14,Waypoint,
38.0861065,-120.2285691,3955.6195580103,83.005252,0,0.5878937196,13800,2018-05-10 17:40:32,16,0,23.435,3955.6195580103,83.005252,0.223694,0.76076446004,0,0,-0.671082,280.5, 0, 2.4,0,0,1024,1024,1024,1024,281.1,-90,95,3.889,3.902,3.917,3.92,3.907,3.905,17.695,60.8,14,Waypoint,
38.0861066,-120.2285691,3956.6038100103,83.989504,0,0.57530513652,13900,2018-05-10 17:40:32,15,0,23.435,3956.6038100103,83.989504,0.223694,0.76076446004,0,0,-0.671082,280.5, -0.1, 2,0,0,1024,1024,1024,1024,281.1,-89.9,95,3.889,3.902,3.917,3.92,3.907,3.905,17.695,60.8,14,Waypoint,
38.0861066,-120.2285692,3957.5880620103,84.973756,0,0.548146343,14000,2018-05-10 17:40:32,15,0,23.447,3957.5880620103,84.973756,0.223694,0.76076446004,0,0,-0.671082,280.5, 0, 1.6,0,0,1024,1024,1024,1024,281.1,-89.9,95,3.883,3.892,3.917,3.895,3.897,3.901,17.191,62.6,14,Waypoint,
38.0861066,-120.2285691,3958.5723140103,85.958008,0,0.57530513652,14100,2018-05-10 17:40:32,16,0,23.447,3958.5723140103,85.958008,0.223694,0.76076446004,0,0,-0.671082,280.6, 0.2, 1.2,0,0,1024,1024,1024,1024,281.1,-89.9,95,3.883,3.892,3.917,3.895,3.897,3.901,17.191,62.6,14,Waypoint,
38.0861067,-120.2285691,3959.5565660103,86.94226,0,0.56479988684,14200,2018-05-10 17:40:32,16,0,23.447,3959.5565660103,86.94226,0.223694,0.76076446004,0,0,-0.671082,280.7, 0.2, 1,0,0,1024,1024,1024,1024,281.1,-90,95,3.883,3.892,3.917,3.895,3.897,3.901,17.191,62.6,14,Waypoint,
38.0861067,-120.228569,3960.5408180103,87.926512,0,0.5925853208,14300,2018-05-10 17:40:32,15,0,23.447,3960.5408180103,87.926512,0.223694,0.76076446004,0,0,-0.671082,280.7, 0, 0.7,0,0,1024,1024,1024,1024,281.1,-90,95,3.883,3.892,3.917,3.895,3.897,3.901,17.191,62.6,14,Waypoint,
38.0861068,-120.228569,3961.5250700103,88.910764,0,0.58467193472,14400,2018-05-10 17:40:32,15,0,23.447,3961.5250700103,88.910764,0.223694,0.76076446004,0,0,-0.671082,280.8, -0.1, 0.5,0,0,1024,1024,1024,1024,281.1,-90,95,3.883,3.892,3.917,3.895,3.897,3.901,17.191,62.6,14,Waypoint,
38.0861067,-120.2285689,3962.5093220103,89.895016,0,0.62045933744,14500,2018-05-10 17:40:33,15,0,23.447,3962.5093220103,89.895016,0.223694,0.76076446004,0,0,-0.671082,280.9, -0.4, 0.5,0,0,1024,1024,1024,1024,281.1,-90,95,3.883,3.892,3.917,3.895,3.897,3.901,17.191,62.6,14,Waypoint,
38.0861067,-120.2285689,3963.4935740103,90.879268,0,0.62045933744,14600,2018-05-10 17:40:33,15,0,23.447,3963.4935740103,90.879268,0.223694,0.76076446004,0,0,-0.671082,280.8, -0.7, 0.7,0,0,1024,1024,1024,1024,281.1,-90,95,3.883,3.892,3.917,3.895,3.897,3.901,17.191,62.6,14,Waypoint,
38.0861067,-120.2285688,3964.4778260103,91.86352,0,0.64840553256,14700,2018-05-10 17:40:33,14,0,23.447,3964.4778260103,91.86352,0.223694,0.76076446004,0,0,-0.671082,280.6, -1, 0.8,0,0,1024,1024,1024,1024,281.1,-90,95,3.883,3.892,3.917,3.895,3.897,3.901,17.191,62.6,14,Waypoint,
38.0861067,-120.2285687,3965.4620780103,92.847772,0,0.67641734448,14800,2018-05-10 17:40:33,14,0,23.447,3965.4620780103,92.847772,0.223694,0.76076446004,0,0,-0.671082,280.4, -1.2, 0.9,0,0,1024,1024,1024,1024,281.1,-90,95,3.883,3.892,3.917,3.895,3.897,3.901,17.191,62.6,14,Waypoint,
38.0861067,-120.2285686,3966.4463300103,93.832024,0,0.70448493068,14900,2018-05-10 17:40:33,16,0,23.447,3966.4463300103,93.832024,0.223694,0.76076446004,0,0,-0.671082,280.2, -1.5, 1,0,0,1024,1024,1024,1024,281.1,-90,95,3.883,3.892,3.917,3.895,3.897,3.901,17.191,62.6,14,Waypoint,
38.0861067,-120.2285683,3968.4148340103,95.800528,0,0.78896656068,15010,2018-05-10 17:40:33,14,0,23.406,3968.4148340103,95.800528,0.223694,0.78896656068,0,0,-0.671082,279.9, -2, 0.9,0,0,1024,1024,1024,1024,281.1,-90,95,3.883,3.899,3.907,3.898,3.904,3.896,17.625,62.6,14,Waypoint,
38.0861067,-120.2285682,3969.3990860103,96.78478,0,0.81720475056,15100,2018-05-10 17:40:33,14,0,23.406,3969.3990860103,96.78478,0.223694,0.81720475056,0,0,-0.671082,279.8, -2.1, 0.7,0,0,1024,1024,1024,1024,281.1,-90,95,3.883,3.899,3.907,3.898,3.904,3.896,17.625,62.6,14,Waypoint,
38.0861067,-120.2285681,3970.3833380103,97.769032,0,0.84547574884,15300,2018-05-10 17:40:33,15,0,23.406,3970.3833380103,97.769032,0.223694,0.84547574884,0,0,-0.671082,279.7, -2.1, 0.6,0,0,1024,1024,1024,1024,281.1,-90,95,3.883,3.899,3.907,3.898,3.904,3.896,17.625,62.6,14,Waypoint,
38.0861067,-120.2285681,3971.0395060103,98.4252,0,0.84547574884,15400,2018-05-10 17:40:33,15,0,23.406,3971.0395060103,98.4252,0.223694,0.84547574884,0,0,-0.671082,279.8, -1.9, 0.9,0,0,1024,1024,1024,1024,281.1,-90,95,3.883,3.899,3.907,3.898,3.904,3.896,17.625,62.6,14,Waypoint,
38.0861066,-120.228568,3972.0237580103,99.409452,0,0.88060370272,15500,2018-05-10 17:40:34,16,0,23.406,3972.0237580103,99.409452,0.223694,0.88060370272,0,0,-0.671082,279.8, -1.9, 1.3,0,0,1024,1024,1024,1024,281.1,-90,95,3.883,3.899,3.907,3.898,3.904,3.896,17.625,62.6,14,Waypoint,
38.0861066,-120.2285679,3973.0080100103,100.393704,0,0.90871722068,15600,2018-05-10 17:40:34,16,0,23.406,3973.0080100103,100.393704,0.223694,0.90871722068,0,0,-0.671082,279.9, -1.9, 1.4,0,0,1024,1024,1024,1024,281.1,-90,95,3.883,3.899,3.907,3.898,3.904,3.896,17.625,62.6,14,Waypoint,
38.0861066,-120.2285679,3973.9922620103,101.377956,0,0.90871722068,15700,2018-05-10 17:40:34,16,0,23.406,3973.9922620103,101.377956,0.223694,0.90871722068,0,0,-0.671082,280, -1.6, 1.7,0,0,1024,1024,1024,1024,281.1,-90,95,3.883,3.899,3.907,3.898,3.904,3.896,17.625,62.6,14,Waypoint,
38.0861066,-120.2285678,3974.9765140103,102.362208,0,0.93686682788,15800,2018-05-10 17:40:34,16,0,23.406,3974.9765140103,102.362208,0.223694,0.93686682788,0,0,-0.671082,280.2, -1.7, 1.8,0,0,1024,1024,1024,1024,281.1,-90,95,3.883,3.899,3.907,3.898,3.904,3.896,17.625,62.6,14,Waypoint,
38.0861066,-120.2285678,3975.9607660103,103.34646,0,0.93686682788,15900,2018-05-10 17:40:34,16,0,23.406,3975.9607660103,103.34646,0.223694,0.93686682788,0,0,-0.671082,280.3, -2.1, 1.6,0,0,1024,1024,1024,1024,281.1,-90,95,3.883,3.899,3.907,3.898,3.904,3.896,17.625,62.6,14,Waypoint,
38.0861066,-120.2285676,3976.9450180103,104.330712,0,0.99326446748,16000,2018-05-10 17:40:34,16,0,23.308,3976.9450180103,104.330712,0.223694,0.99326446748,0,0,-0.671082,280.5, -2.4, 1.4,0,0,1024,1024,1024,1024,281.1,-90,95,3.87,3.874,3.888,3.882,3.878,3.885,17.873,62.6,14,Waypoint,
38.0861066,-120.2285675,3977.9292700103,105.314964,0,1.0215059382,16100,2018-05-10 17:40:34,16,0,23.308,3977.9292700103,105.314964,0.223694,1.0215059382,0,0,-0.671082,280.6, -2.9, 1.2,0,0,1024,1024,1024,1024,281.1,-90,95,3.87,3.874,3.888,3.882,3.878,3.885,17.873,62.6,14,Waypoint,
38.0861066,-120.2285673,3978.9135220103,106.299216,0,1.07806433896,16200,2018-05-10 17:40:34,16,0,23.308,3978.9135220103,106.299216,0.223694,1.07806433896,0,0,-0.671082,280.6, -3.3, 0.8,0,0,1024,1024,1024,1024,281.1,-90,95,3.87,3.874,3.888,3.882,3.878,3.885,17.873,62.6,14,Waypoint,
38.0861066,-120.2285671,3980.8820260103,108.26772,0,1.1347113224,16400,2018-05-10 17:40:34,16,0,23.308,3980.8820260103,108.26772,0.223694,1.1347113224,0,0,-0.671082,280.5, -3.9, 0.4,0,0,1024,1024,1024,1024,281.1,-89.9,95,3.87,3.874,3.888,3.882,3.878,3.885,17.873,62.6,14,Waypoint,
38.0861066,-120.228567,3982.1943620103,109.580056,0,1.16306434168,16500,2018-05-10 17:40:35,15,0,23.308,3982.1943620103,109.580056,0.223694,1.16306434168,0,0,-0.671082,280.4, -3.7, 0.6,0,0,1024,1024,1024,1024,281.1,-89.9,95,3.87,3.874,3.888,3.882,3.878,3.885,17.873,62.6,14,Waypoint,
38.0861066,-120.2285669,3983.1786140103,110.564308,0,1.19143376516,16600,2018-05-10 17:40:35,15,0,23.308,3983.1786140103,110.564308,0.223694,1.19143376516,0,0,-0.671082,280.3, -3.7, 0.6,0,0,1024,1024,1024,1024,281.1,-90,95,3.87,3.874,3.888,3.882,3.878,3.885,17.873,62.6,14,Waypoint,
38.0861066,-120.2285668,3984.1628660103,111.54856,0,1.21981959284,16700,2018-05-10 17:40:35,15,0,23.308,3984.1628660103,111.54856,0.223694,1.21981959284,0,0,-0.671082,280.3, -3.8, 0.7,0,0,1024,1024,1024,1024,281.1,-89.9,95,3.87,3.874,3.888,3.882,3.878,3.885,17.873,62.6,14,Waypoint,
38.0861066,-120.2285668,3985.1471180103,112.532812,0,1.21981959284,16800,2018-05-10 17:40:35,15,0,23.308,3985.1471180103,112.532812,0.223694,1.21981959284,0,0,-0.671082,280.1, -3.6, 0.9,0,0,1024,1024,1024,1024,281.1,-89.9,95,3.87,3.874,3.888,3.882,3.878,3.885,17.873,62.6,14,Waypoint,
38.0861066,-120.2285667,3987.1156220103,114.501316,0,1.24822182472,17000,2018-05-10 17:40:35,16,0,23.251,3987.1156220103,114.501316,0.223694,1.24822182472,0,0,-0.671082,280, -3.6, 1.2,0,0,1024,1024,1024,1024,281.1,-89.9,95,3.861,3.88,3.879,3.876,3.873,3.871,18.581,62.6,14,Waypoint,
38.0861066,-120.2285666,3988.0998740103,115.485568,0,1.27663717996,17100,2018-05-10 17:40:35,16,0,23.251,3988.0998740103,115.485568,0.223694,1.27663717996,0,0,-0.671082,280, -3.2, 1.4,0,0,1024,1024,1024,1024,281.1,-89.9,95,3.861,3.88,3.879,3.876,3.873,3.871,18.581,62.6,14,Waypoint,
38.0861065,-120.2285666,3989.0841260103,116.46982,0,1.28235896492,17200,2018-05-10 17:40:35,16,0,23.251,3989.0841260103,116.46982,0.223694,1.28235896492,0,0,-0.671082,280.1, -3.2, 1.7,0,0,1024,1024,1024,1024,281.1,-89.9,95,3.861,3.88,3.879,3.876,3.873,3.871,18.581,62.6,14,Waypoint,
38.0861065,-120.2285666,3990.0683780103,117.454072,0,1.28235896492,17300,2018-05-10 17:40:35,16,0,23.251,3990.0683780103,117.454072,0.223694,1.28235896492,0,0,-0.671082,280.2, -3.4, 1.9,0,0,1024,1024,1024,1024,281.1,-89.9,95,3.861,3.88,3.879,3.876,3.873,3.871,18.581,62.6,14,Waypoint,
38.0861065,-120.2285665,3991.0526300103,118.438324,0,1.3106627716,17400,2018-05-10 17:40:35,16,0,23.251,3991.0526300103,118.438324,0.223694,1.3106627716,0,0,-0.671082,280.3, -3.7, 1.7,0,0,1024,1024,1024,1024,281.1,-90,95,3.861,3.88,3.879,3.876,3.873,3.871,18.581,62.6,14,Waypoint,
38.0861066,-120.2285664,3992.0368820103,119.422576,0,1.33350726052,17500,2018-05-10 17:40:36,16,0,23.251,3992.0368820103,119.422576,0.223694,1.33350726052,0,0,-0.671082,280.4, -3.9, 1.5,0,0,1024,1024,1024,1024,281.1,-90,95,3.861,3.88,3.879,3.876,3.873,3.871,18.581,62.6,14,Waypoint,
38.0861066,-120.2285663,3993.0211340103,120.406828,0,1.361958705,17600,2018-05-10 17:40:36,16,0,23.251,3993.0211340103,120.406828,0.223694,1.361958705,0,0,-0.671082,280.4, -4, 1.3,0,0,1024,1024,1024,1024,281.1,-90,95,3.861,3.88,3.879,3.876,3.873,3.871,18.581,62.6,14,Waypoint,
38.0861067,-120.2285662,3994.9896380103,122.375332,0,1.38610896824,17710,2018-05-10 17:40:36,16,0,23.251,3994.9896380103,122.375332,0.223694,1.38610896824,0,0,-0.671082,280.5, -4.1, 1.1,0,0,1024,1024,1024,1024,281.1,-89.9,95,3.861,3.88,3.879,3.876,3.873,3.871,18.581,62.6,14,Waypoint,
38.0861067,-120.2285662,3995.9738900103,123.359584,0,1.38610896824,17800,2018-05-10 17:40:36,16,0,23.251,3995.9738900103,123.359584,0.223694,1.38610896824,0,0,-0.671082,280.5, -3.8, 1,0,0,1024,1024,1024,1024,281.1,-89.9,95,3.861,3.88,3.879,3.876,3.873,3.871,18.581,62.6,14,Waypoint,
38.0861068,-120.2285662,3997.6143100103,125.000004,0,1.3827428264,18000,2018-05-10 17:40:36,16,0,23.233,3997.6143100103,125.000004,0.223694,1.38610896824,0,0,-0.671082,280.7, -3.7, 0.7,0,0,1024,1024,1024,1024,281.1,-89.9,95,3.848,3.852,3.878,3.878,3.872,3.873,18.592,62.6,14,Waypoint,
38.0861068,-120.2285663,3998.5985620103,125.984256,0.223694,1.3541174974,18200,2018-05-10 17:40:36,16,0,23.233,3998.5985620103,125.984256,0.223694,1.38610896824,0,0,-0.671082,280.8, -3.6, 0.9,0,0,1024,1024,1024,1024,281.1,-89.9,95,3.848,3.852,3.878,3.878,3.872,3.873,18.592,62.6,14,Waypoint,
38.0861068,-120.2285664,3999.5828140103,126.968508,0.223694,1.32549544924,18300,2018-05-10 17:40:36,16,0,23.233,3999.5828140103,126.968508,0.223694,1.38610896824,0,0,-0.671082,280.8, -3, 1,0,0,1024,1024,1024,1024,281.1,-89.9,95,3.848,3.852,3.878,3.878,3.872,3.873,18.592,62.6,14,Waypoint,
38.0861069,-120.2285665,4000.5670660103,127.95276,0.223694,1.29431106504,18400,2018-05-10 17:40:36,16,0,23.233,4000.5670660103,127.95276,0.223694,1.38610896824,0,0,-0.671082,280.7, -2.6, 0.9,0,0,1024,1024,1024,1024,281.1,-89.9,95,3.848,3.852,3.878,3.878,3.872,3.873,18.592,62.6,14,Waypoint,
38.0861069,-120.2285665,4001.5513180103,128.937012,0,1.29431106504,18500,2018-05-10 17:40:37,16,0,23.233,4001.5513180103,128.937012,0.223694,1.38610896824,0,0,-0.671082,280.5, -2.5, 0.8,0,0,1024,1024,1024,1024,281.1,-89.9,95,3.848,3.852,3.878,3.878,3.872,3.873,18.592,62.6,14,Waypoint,
38.086107,-120.2285666,4002.5355700103,129.921264,0,1.26406172024,18600,2018-05-10 17:40:37,16,0,23.233,4002.5355700103,129.921264,0.223694,1.38610896824,0,0,-0.671082,280.4, -2.4, 0.6,0,0,1024,1024,1024,1024,281.1,-89.9,95,3.848,3.852,3.878,3.878,3.872,3.873,18.592,62.6,14,Waypoint,
38.0861071,-120.2285666,4003.5198220103,130.905516,0,1.26353678584,18700,2018-05-10 17:40:37,16,0,23.233,4003.5198220103,130.905516,0.223694,1.38610896824,0,0,-0.671082,280.4, -2.5, 0.5,0,0,1024,1024,1024,1024,281.1,-89.9,95,3.848,3.852,3.878,3.878,3.872,3.873,18.592,62.6,14,Waypoint,
38.0861071,-120.2285667,4004.5040740103,131.889768,0,1.23481959332,18800,2018-05-10 17:40:37,16,0,23.233,4004.5040740103,131.889768,0.223694,1.38610896824,0,0,-0.671082,280.4, -2.6, 0,0,0,1024,1024,1024,1024,281.1,-89.9,95,3.848,3.852,3.878,3.878,3.872,3.873,18.592,62.6,14,Waypoint,
38.0861072,-120.2285667,4005.4883260103,132.87402,0,1.23535765108,18900,2018-05-10 17:40:37,16,0,23.233,4005.4883260103,132.87402,0.223694,1.38610896824,0,0,-0.671082,280.3, -2.6, -0.2,0,0,1024,1024,1024,1024,281.1,-90,95,3.848,3.852,3.878,3.878,3.872,3.873,18.592,62.6,14,Waypoint,
38.0861073,-120.2285667,4006.4725780103,133.858272,0,1.2369751052,19000,2018-05-10 17:40:37,16,0,23.084,4006.4725780103,133.858272,0.223694,1.38610896824,0,0,-0.671082,280.1, -2.7, -0.3,0,0,1024,1024,1024,1024,281.1,-90,95,3.835,3.835,3.853,3.844,3.863,3.867,19.502,62.6,14,Waypoint,
38.0861074,-120.2285667,4007.4568300103,134.842524,0,1.23966211316,19100,2018-05-10 17:40:37,16,0,23.084,4007.4568300103,134.842524,0.223694,1.38610896824,0,0,-0.671082,280, -2.8, 0,0,0,1024,1024,1024,1024,281.1,-89.9,95,3.835,3.835,3.853,3.844,3.863,3.867,19.502,62.6,14,Waypoint,
38.0861074,-120.2285668,4008.4410820103,135.826776,0,1.21105975004,19200,2018-05-10 17:40:37,16,0,23.084,4008.4410820103,135.826776,0.223694,1.38610896824,0,0,-0.671082,280.1, -2.7, 0.2,0,0,1024,1024,1024,1024,281.1,-89.9,95,3.835,3.835,3.853,3.844,3.863,3.867,19.502,62.6,14,Waypoint,
38.0861074,-120.2285669,4009.4253340103,136.811028,0,1.1824639486,19300,2018-05-10 17:40:37,16,0,23.084,4009.4253340103,136.811028,0.223694,1.38610896824,0,0,-0.671082,280.1, -2.9, 0.4,0,0,1024,1024,1024,1024,281.1,-90,95,3.835,3.835,3.853,3.844,3.863,3.867,19.502,62.6,14,Waypoint,
38.0861074,-120.2285669,4010.4095860103,137.79528,0,1.1824639486,19400,2018-05-10 17:40:37,16,0,23.084,4010.4095860103,137.79528,0.223694,1.38610896824,0,0,-0.671082,280.2, -3, 0.5,0,0,1024,1024,1024,1024,281.1,-90,95,3.835,3.835,3.853,3.844,3.863,3.867,19.502,62.6,14,Waypoint,
38.0861074,-120.2285669,4011.3938380103,138.779532,0,1.1824639486,19500,2018-05-10 17:40:38,16,0,23.084,4011.3938380103,138.779532,0.223694,1.38610896824,0,0,-0.671082,280.3, -3, 0.5,0,0,1024,1024,1024,1024,281.1,-90,95,3.835,3.835,3.853,3.844,3.863,3.867,19.502,62.6,14,Waypoint,
38.0861074,-120.228567,4012.3780900103,139.763784,0,1.153871428,19600,2018-05-10 17:40:38,16,0,23.084,4012.3780900103,139.763784,0.223694,1.38610896824,0,0,-0.671082,280.4, -2.8, 0.5,0,0,1024,1024,1024,1024,281.1,-89.9,95,3.835,3.835,3.853,3.844,3.863,3.867,19.502,62.6,14,Waypoint,
38.0861075,-120.2285671,4013.3623420103,140.748036,0,1.12942260832,19700,2018-05-10 17:40:38,16,0,23.084,4013.3623420103,140.748036,0.223694,1.38610896824,0,0,-0.671082,280.5, -2.6, 0.2,0,0,1024,1024,1024,1024,281.1,-89.9,95,3.835,3.835,3.853,3.844,3.863,3.867,19.502,62.6,14,Waypoint,
38.0861076,-120.2285671,4014.3465940103,141.732288,0,1.1347113224,19800,2018-05-10 17:40:38,16,0,23.084,4014.3465940103,141.732288,0.223694,1.38610896824,0,0,-0.671082,280.6, -2.5, -0.1,0,0,1024,1024,1024,1024,281.1,-89.9,95,3.835,3.835,3.853,3.844,3.863,3.867,19.502,62.6,14,Waypoint,
38.0861076,-120.2285672,4015.3308460103,142.71654,0,1.10637798816,19900,2018-05-10 17:40:38,16,0,23.084,4015.3308460103,142.71654,0.223694,1.38610896824,0,0,-0.671082,280.6, -2.3, -0.1,0,0,1024,1024,1024,1024,281.1,-89.9,95,3.835,3.835,3.853,3.844,3.863,3.867,19.502,62.6,14,Waypoint,
38.0861076,-120.2285672,4016.3150980103,143.700792,0,1.10637798816,20000,2018-05-10 17:40:38,16,0,22.913,4016.3150980103,143.700792,0.223694,1.38610896824,0,0,-0.671082,280.6, -2.2, -0.2,0,0,1024,1024,1024,1024,281.1,-89.9,94,3.805,3.81,3.832,3.833,3.817,3.817,20.674,62.6,14,Waypoint,
38.0861077,-120.2285673,4018.2836020103,145.669296,0,1.08483599272,20110,2018-05-10 17:40:38,16,0,22.913,4018.2836020103,145.669296,0.223694,1.38610896824,0,0,-0.671082,280.6, -2.5, 0,0,0,1024,1024,1024,1024,281.1,-90,94,3.805,3.81,3.832,3.833,3.817,3.817,20.674,62.6,14,Waypoint,
38.0861077,-120.2285673,4019.5959380103,146.981632,0,1.08483599272,20210,2018-05-10 17:40:38,17,0,22.913,4019.5959380103,146.981632,0.223694,1.38610896824,0,0,-0.671082,280.6, -2.7, 0,0,0,1024,1024,1024,1024,281.1,-90,94,3.805,3.81,3.832,3.833,3.817,3.817,20.674,62.6,14,Waypoint,
38.0861077,-120.2285673,4020.5801900103,147.965884,0,1.08483599272,20400,2018-05-10 17:40:38,17,0,22.913,4020.5801900103,147.965884,0.223694,1.38610896824,0,0,-0.671082,280.7, -2.9, 0,0,0,1024,1024,1024,1024,281.1,-89.9,94,3.805,3.81,3.832,3.833,3.817,3.817,20.674,62.6,14,Waypoint,
38.0861077,-120.2285674,4022.5486940103,149.934388,0,1.0567257556,20510,2018-05-10 17:40:39,17,0,22.913,4022.5486940103,149.934388,0.223694,1.38610896824,0,0,-0.671082,280.7, -2.8, 0.1,0,0,1024,1024,1024,1024,281.1,-89.9,94,3.805,3.81,3.832,3.833,3.817,3.817,20.674,62.6,14,Waypoint,
38.0861077,-120.2285674,4022.5486940103,149.934388,0,1.0567257556,20600,2018-05-10 17:40:39,17,0,22.913,4022.5486940103,149.934388,0.223694,1.38610896824,0,0,-0.671082,280.7, -2.8, 0.1,0,0,1024,1024,1024,1024,281.1,-89.9,94,3.805,3.81,3.832,3.833,3.817,3.817,20.674,62.6,14,Waypoint,
38.0861077,-120.2285674,4023.5329460103,150.91864,0,1.0567257556,20700,2018-05-10 17:40:39,17,0,22.913,4023.5329460103,150.91864,0.223694,1.38610896824,0,0,-0.671082,280.7, -2.9, 0.1,0,0,1024,1024,1024,1024,281.1,-90,94,3.805,3.81,3.832,3.833,3.817,3.817,20.674,62.6,14,Waypoint,
38.0861077,-120.2285674,4024.5171980103,151.902892,0,1.0567257556,20800,2018-05-10 17:40:39,17,0,22.913,4024.5171980103,151.902892,0.223694,1.38610896824,0,0,-0.671082,280.7, -2.7, 0.3,0,0,1024,1024,1024,1024,281.1,-89.9,94,3.805,3.81,3.832,3.833,3.817,3.817,20.674,62.6,14,Waypoint,
38.0861078,-120.2285675,4025.5014500103,152.887144,0,1.03702759224,20900,2018-05-10 17:40:39,17,0,22.913,4025.5014500103,152.887144,0.223694,1.38610896824,0,0,-0.671082,280.8, -2.5, 0.2,0,0,1024,1024,1024,1024,281.1,-89.9,94,3.805,3.81,3.832,3.833,3.817,3.817,20.674,62.6,14,Waypoint,
38.0861079,-120.2285676,4027.4699540103,154.855648,0,1.01906499324,21100,2018-05-10 17:40:39,17,0,22.913,4027.4699540103,154.855648,0.223694,1.38610896824,0,0,-0.671082,280.7, -2.1, -0.3,0,0,1024,1024,1024,1024,281.1,-89.9,94,3.805,3.81,3.832,3.833,3.817,3.817,20.674,62.6,14,Waypoint,
38.0861079,-120.2285676,4028.4542060103,155.8399,0,1.01906499324,21200,2018-05-10 17:40:39,17,0,22.913,4028.4542060103,155.8399,0.223694,1.38610896824,0,0,-0.671082,280.5, -1.9, -0.8,0,0,1024,1024,1024,1024,281.1,-89.9,94,3.805,3.81,3.832,3.833,3.817,3.817,20.674,62.6,14,Waypoint,
38.086108,-120.2285676,4029.4384580103,156.824152,0,1.03010501984,21300,2018-05-10 17:40:39,17,0,22.913,4029.4384580103,156.824152,0.223694,1.38610896824,0,0,-0.671082,280.2, -1.8, -1.1,0,0,1024,1024,1024,1024,281.1,-89.9,94,3.805,3.81,3.832,3.833,3.817,3.817,20.674,62.6,14,Waypoint,
38.0861081,-120.2285677,4031.4069620103,158.792656,0,1.01545935008,21500,2018-05-10 17:40:40,17,0,22.913,4031.4069620103,158.792656,0.223694,1.38610896824,0,0,-0.671082,279.9, -2.1, -1.2,0,0,1024,1024,1024,1024,281.1,-89.9,94,3.805,3.81,3.832,3.833,3.817,3.817,20.674,62.6,14,Waypoint,
38.0861081,-120.2285677,4032.3912140103,159.776908,0,1.01545935008,21600,2018-05-10 17:40:40,17,0,22.913,4032.3912140103,159.776908,0.223694,1.38610896824,0,0,-0.671082,279.9, -2.2, -0.9,0,0,1024,1024,1024,1024,281.1,-89.9,94,3.805,3.81,3.832,3.833,3.817,3.817,20.674,62.6,14,Waypoint,
38.0861081,-120.2285677,4033.3754660103,160.76116,0,1.01545935008,21700,2018-05-10 17:40:40,17,0,22.913,4033.3754660103,160.76116,0.223694,1.38610896824,0,0,-0.671082,280, -2.3, -0.6,0,0,1024,1024,1024,1024,281.1,-90,94,3.805,3.81,3.832,3.833,3.817,3.817,20.674,62.6,14,Waypoint,
38.0861081,-120.2285677,4035.3439700103,162.729664,0,1.01545935008,21900,2018-05-10 17:40:40,17,0,22.913,4035.3439700103,162.729664,0.223694,1.38610896824,0,0,-0.671082,280.2, -2.5, -0.6,0,0,1024,1024,1024,1024,281.1,-90,94,3.805,3.81,3.832,3.833,3.817,3.817,20.674,62.6,14,Waypoint,
38.0861081,-120.2285676,4037.3124740103,164.698168,0,1.04230974464,22000,2018-05-10 17:40:40,17,0,22.894,4037.3124740103,164.698168,0.223694,1.38610896824,0,0,-0.671082,280.3, -3, -0.7,0,0,1024,1024,1024,1024,281.1,-90,94,3.807,3.807,3.822,3.821,3.829,3.814,20.85,62.6,14,Waypoint,
38.0861081,-120.2285676,4038.2967260103,165.68242,0,1.04230974464,22200,2018-05-10 17:40:40,17,0,22.894,4038.2967260103,165.68242,0.223694,1.38610896824,0,0,-0.671082,280.4, -3.1, -0.6,0,0,1024,1024,1024,1024,281.1,-90,94,3.807,3.807,3.822,3.821,3.829,3.814,20.85,62.6,14,Waypoint,
38.0861081,-120.2285676,4039.2809780103,166.666672,0,1.04230974464,22300,2018-05-10 17:40:40,17,0,22.894,4039.2809780103,166.666672,0.223694,1.38610896824,0,0,-0.671082,280.5, -3, -0.5,0,0,1024,1024,1024,1024,281.1,-89.9,94,3.807,3.807,3.822,3.821,3.829,3.814,20.85,62.6,14,Waypoint,
38.0861081,-120.2285676,4040.2652300103,167.650924,0,1.04230974464,22400,2018-05-10 17:40:40,17,0,22.894,4040.2652300103,167.650924,0.223694,1.38610896824,0,0,-0.671082,280.6, -2.8, -0.5,0,0,1024,1024,1024,1024,281.1,-89.9,94,3.807,3.807,3.822,3.821,3.829,3.814,20.85,62.6,14,Waypoint,
38.0861081,-120.2285676,4041.2494820103,168.635176,0,1.04230974464,22500,2018-05-10 17:40:41,17,0,22.894,4041.2494820103,168.635176,0.223694,1.38610896824,0,0,-0.671082,280.7, -2.5, -0.6,0,0,1024,1024,1024,1024,281.1,-89.9,94,3.807,3.807,3.822,3.821,3.829,3.814,20.85,62.6,14,Waypoint,
38.0861081,-120.2285676,4042.2337340103,169.619428,0,1.04230974464,22600,2018-05-10 17:40:41,17,0,22.894,4042.2337340103,169.619428,0.223694,1.38610896824,0,0,-0.671082,280.7, -2.4, -0.8,0,0,1024,1024,1024,1024,281.1,-89.9,94,3.807,3.807,3.822,3.821,3.829,3.814,20.85,62.6,14,Waypoint,
38.0861081,-120.2285676,4043.2179860103,170.60368,0,1.04230974464,22700,2018-05-10 17:40:41,17,0,22.894,4043.2179860103,170.60368,0.223694,1.38610896824,0,0,-0.671082,280.6, -2.4, -1,0,0,1024,1024,1024,1024,281.1,-89.9,94,3.807,3.807,3.822,3.821,3.829,3.814,20.85,62.6,14,Waypoint,
38.0861082,-120.2285676,4044.2022380103,171.587932,0,1.05563651672,22800,2018-05-10 17:40:41,17,0,22.894,4044.2022380103,171.587932,0.223694,1.38610896824,0,0,-0.671082,280.6, -2.5, -1,0,0,1024,1024,1024,1024,281.1,-90,94,3.807,3.807,3.822,3.821,3.829,3.814,20.85,62.6,14,Waypoint,
38.0861082,-120.2285675,4045.1864900103,172.572184,0,1.0822506908,22900,2018-05-10 17:40:41,17,0,22.894,4045.1864900103,172.572184,0.223694,1.38610896824,0,0,-0.671082,280.5, -2.7, -1.2,0,0,1024,1024,1024,1024,281.1,-90,94,3.807,3.807,3.822,3.821,3.829,3.814,20.85,62.6,14,Waypoint,
38.0861082,-120.2285675,4046.1707420103,173.556436,0,1.0822506908,23000,2018-05-10 17:40:41,17,0,22.919,4046.1707420103,173.556436,0.223694,1.38610896824,0,0,-0.671082,280.3, -3, -1.2,0,0,1024,1024,1024,1024,281.1,-90,94,3.804,3.816,3.831,3.827,3.827,3.817,20.355,62.6,14,Waypoint,
38.0861083,-120.2285675,4047.4830780103,174.868772,0,1.09630580936,23100,2018-05-10 17:40:41,17,0,22.919,4047.4830780103,174.868772,0.223694,1.38610896824,0,0,-0.671082,280.3, -3, -1,0,0,1024,1024,1024,1024,281.1,-90,94,3.804,3.816,3.831,3.827,3.827,3.817,20.355,62.6,14,Waypoint,
38.0861083,-120.2285674,4048.4673300103,175.853024,0,1.12269032464,23200,2018-05-10 17:40:41,17,0,22.919,4048.4673300103,175.853024,0.223694,1.38610896824,0,0,-0.671082,280.4, -3, -0.9,0,0,1024,1024,1024,1024,281.1,-90,94,3.804,3.816,3.831,3.827,3.827,3.817,20.355,62.6,14,Waypoint,
38.0861083,-120.2285673,4050.1077500103,177.493444,0,1.14918638848,23400,2018-05-10 17:40:41,17,0,22.919,4050.1077500103,177.493444,0.223694,1.38610896824,0,0,-0.671082,280.6, -2.9, -1.4,0,0,1024,1024,1024,1024,281.1,-90,94,3.804,3.816,3.831,3.827,3.827,3.817,20.355,62.6,14,Waypoint,
38.0861084,-120.2285672,4051.0920020103,178.477696,0,1.18985568112,23500,2018-05-10 17:40:42,17,0,22.919,4051.0920020103,178.477696,0.223694,1.38610896824,0,0,-0.671082,280.6, -2.9, -1.3,0,0,1024,1024,1024,1024,281.1,-90,94,3.804,3.816,3.831,3.827,3.827,3.817,20.355,62.6,14,Waypoint,
38.0861084,-120.2285672,4052.0762540103,179.461948,0,1.18985568112,23600,2018-05-10 17:40:42,17,0,22.919,4052.0762540103,179.461948,0.223694,1.38610896824,0,0,-0.671082,280.4, -2.9, -1.2,0,0,1024,1024,1024,1024,281.1,-89.9,94,3.804,3.816,3.831,3.827,3.827,3.817,20.355,62.6,14,Waypoint,
38.0861084,-120.2285671,4053.0605060103,180.4462,0,1.21624675808,23700,2018-05-10 17:40:42,17,0,22.919,4053.0605060103,180.4462,0.223694,1.38610896824,0,0,-0.671082,280.3, -2.9, -1.2,0,0,1024,1024,1024,1024,281.1,-89.9,94,3.804,3.816,3.831,3.827,3.827,3.817,20.355,62.6,14,Waypoint,
38.0861084,-120.2285671,4054.0447580103,181.430452,0,1.21624675808,23800,2018-05-10 17:40:42,17,0,22.919,4054.0447580103,181.430452,0.223694,1.38610896824,0,0,-0.671082,280.1, -2.9, -1.4,0,0,1024,1024,1024,1024,281.1,-90,94,3.804,3.816,3.831,3.827,3.827,3.817,20.355,62.6,14,Waypoint,
38.0861084,-120.2285671,4055.0290100103,182.414704,0,1.21624675808,23900,2018-05-10 17:40:42,17,0,22.919,4055.0290100103,182.414704,0.223694,1.38610896824,0,0,-0.671082,280.1, -3, -1.5,0,0,1024,1024,1024,1024,281.1,-90,94,3.804,3.816,3.831,3.827,3.827,3.817,20.355,62.6,14,Waypoint,
38.0861084,-120.228567,4056.0132620103,183.398956,0,1.24274282192,24000,2018-05-10 17:40:42,17,0,22.961,4056.0132620103,183.398956,0.223694,1.38610896824,0,0,-0.671082,280.1, -3, -1.5,0,0,1024,1024,1024,1024,281.1,-89.9,94,3.818,3.823,3.831,3.832,3.83,3.834,19.281,62.6,14,Waypoint,
38.0861083,-120.228567,4056.9975140103,184.383208,0,1.22927825456,24200,2018-05-10 17:40:42,17,0,22.961,4056.9975140103,184.383208,0.223694,1.38610896824,0,0,-0.671082,280.1, -2.9, -1.2,0,0,1024,1024,1024,1024,281.1,-90,94,3.818,3.823,3.831,3.832,3.83,3.834,19.281,62.6,14,Waypoint,
38.0861083,-120.228567,4057.9817660103,185.36746,0,1.22927825456,24300,2018-05-10 17:40:42,17,0,22.961,4057.9817660103,185.36746,0.223694,1.38610896824,0,0,-0.671082,280.1, -2.9, -1,0,0,1024,1024,1024,1024,281.1,-90,94,3.818,3.823,3.831,3.832,3.83,3.834,19.281,62.6,14,Waypoint,
38.0861082,-120.228567,4060.9345220103,188.320216,0,1.21676184996,24410,2018-05-10 17:40:42,17,0,22.961,4060.9345220103,188.320216,0.223694,1.38610896824,0,0,-0.671082,280.3, -3.1, -0.7,0,0,1024,1024,1024,1024,281.1,-90,94,3.818,3.823,3.831,3.832,3.83,3.834,19.281,62.6,14,Waypoint,
38.0861082,-120.228567,4060.9345220103,188.320216,0,1.21676184996,24500,2018-05-10 17:40:43,17,0,22.961,4060.9345220103,188.320216,0.223694,1.38610896824,0,0,-0.671082,280.3, -3.1, -0.7,0,0,1024,1024,1024,1024,281.1,-90,94,3.818,3.823,3.831,3.832,3.83,3.834,19.281,62.6,14,Waypoint,
38.0861082,-120.228567,4061.9187740103,189.304468,0,1.21676184996,24600,2018-05-10 17:40:43,17,0,22.961,4061.9187740103,189.304468,0.223694,1.38610896824,0,0,-0.671082,280.3, -3.2, -0.8,0,0,1024,1024,1024,1024,281.1,-90,94,3.818,3.823,3.831,3.832,3.83,3.834,19.281,62.6,14,Waypoint,
38.0861082,-120.228567,4062.9030260103,190.28872,0,1.21676184996,24700,2018-05-10 17:40:43,17,0,22.961,4062.9030260103,190.28872,0.223694,1.38610896824,0,0,-0.671082,280.4, -3.3, -0.9,0,0,1024,1024,1024,1024,281.1,-90,94,3.818,3.823,3.831,3.832,3.83,3.834,19.281,62.6,14,Waypoint,
38.0861081,-120.228567,4063.8872780103,191.272972,0,1.20521985484,24800,2018-05-10 17:40:43,17,0,22.961,4063.8872780103,191.272972,0.223694,1.38610896824,0,0,-0.671082,280.4, -3.2, -1,0,0,1024,1024,1024,1024,281.1,-90,94,3.818,3.823,3.831,3.832,3.83,3.834,19.281,62.6,14,Waypoint,
38.0861081,-120.2285669,4064.8715300103,192.257224,0,1.23262143052,24900,2018-05-10 17:40:43,17,0,22.961,4064.8715300103,192.257224,0.223694,1.38610896824,0,0,-0.671082,280.4, -3.2, -1,0,0,1024,1024,1024,1024,281.1,-90,94,3.818,3.823,3.831,3.832,3.83,3.834,19.281,62.6,14,Waypoint,
38.0861081,-120.2285669,4065.8557820103,193.241476,0,1.23262143052,25000,2018-05-10 17:40:43,17,0,23.018,4065.8557820103,193.241476,0.223694,1.38610896824,0,0,-0.671082,280.4, -3.1, -1,0,0,1024,1024,1024,1024,281.1,-90,94,3.825,3.837,3.84,3.834,3.834,3.826,19.002,62.6,14,Waypoint,
38.0861081,-120.2285669,4066.8400340103,194.225728,0,1.23262143052,25100,2018-05-10 17:40:43,17,0,23.018,4066.8400340103,194.225728,0.223694,1.38610896824,0,0,-0.671082,280.4, -3.1, -1,0,0,1024,1024,1024,1024,281.1,-90,94,3.825,3.837,3.84,3.834,3.834,3.826,19.002,62.6,14,Waypoint,
38.086108,-120.2285669,4067.8242860103,195.20998,0,1.22231959292,25200,2018-05-10 17:40:43,17,0,23.018,4067.8242860103,195.20998,0.223694,1.38610896824,0,0,-0.671082,280.4, -3.1, -1,0,0,1024,1024,1024,1024,281.1,-90,94,3.825,3.837,3.84,3.834,3.834,3.826,19.002,62.6,14,Waypoint,
38.086108,-120.2285669,4068.8085380103,196.194232,0,1.22231959292,25300,2018-05-10 17:40:43,17,0,23.018,4068.8085380103,196.194232,0.223694,1.38610896824,0,0,-0.671082,280.2, -3.2, -1,0,0,1024,1024,1024,1024,281.1,-90,94,3.825,3.837,3.84,3.834,3.834,3.826,19.002,62.6,14,Waypoint,
38.0861079,-120.2285669,4069.7927900103,197.178484,0,1.2130249732,25400,2018-05-10 17:40:43,17,0,23.018,4069.7927900103,197.178484,0.223694,1.38610896824,0,0,-0.671082,280.1, -3.2, -0.7,0,0,1024,1024,1024,1024,281.1,-90,94,3.825,3.837,3.84,3.834,3.834,3.826,19.002,62.6,14,Waypoint,
38.0861079,-120.228567,4070.7770420103,198.162736,0.223694,1.18517392244,25500,2018-05-10 17:40:44,17,0,23.018,4070.7770420103,198.162736,0.223694,1.38610896824,0,0,-0.671082,280.2, -3.2, -0.2,0,0,1024,1024,1024,1024,281.1,-90,94,3.825,3.837,3.84,3.834,3.834,3.826,19.002,62.6,14,Waypoint,
38.0861078,-120.228567,4071.7612940103,199.146988,0.223694,1.17671919776,25600,2018-05-10 17:40:44,17,0,23.018,4071.7612940103,199.146988,0.223694,1.38610896824,0,0,-0.671082,280.3, -3.4, 0.3,0,0,1024,1024,1024,1024,281.1,-90,94,3.825,3.837,3.84,3.834,3.834,3.826,19.002,62.6,14,Waypoint,
38.0861077,-120.228567,4072.7455460103,200.13124,0.223694,1.16934386944,25700,2018-05-10 17:40:44,17,0,23.018,4072.7455460103,200.13124,0.223694,1.38610896824,0,0,-0.671082,280.3, -3.5, 0.6,0,0,1024,1024,1024,1024,281.1,-90,94,3.825,3.837,3.84,3.834,3.834,3.826,19.002,62.6,14,Waypoint,
38.0861076,-120.2285669,4073.7297980103,201.115492,0.223694,1.19143376516,25800,2018-05-10 17:40:44,17,0,23.018,4073.7297980103,201.115492,0.223694,1.38610896824,0,0,-0.671082,280.4, -3.7, 0.8,0,0,1024,1024,1024,1024,281.1,-90,94,3.825,3.837,3.84,3.834,3.834,3.826,19.002,62.6,14,Waypoint,
38.0861075,-120.2285669,4074.7140500103,202.099744,0.223694,1.18639767576,25900,2018-05-10 17:40:44,17,0,23.018,4074.7140500103,202.099744,0.223694,1.38610896824,0,0,-0.671082,280.4, -3.9, 1,0,0,1024,1024,1024,1024,281.1,-90,94,3.825,3.837,3.84,3.834,3.834,3.826,19.002,62.6,14,Waypoint,
38.0861074,-120.2285669,4075.6983020103,203.083996,0.223694,1.1824639486,26000,2018-05-10 17:40:44,17,0,23.02,4075.6983020103,203.083996,0.223694,1.38610896824,0,0,-0.671082,280.4, -3.9, 1.2,0,0,1024,1024,1024,1024,281.1,-90,94,3.829,3.835,3.841,3.852,3.848,3.845,18.581,64.4,14,Waypoint,
38.0861073,-120.2285669,4076.6825540103,204.068248,0,1.17964570704,26100,2018-05-10 17:40:44,17,0,23.02,4076.6825540103,204.068248,0.223694,1.38610896824,0,0,-0.671082,280.4, -4, 1.1,0,0,1024,1024,1024,1024,281.1,-90,94,3.829,3.835,3.841,3.852,3.848,3.845,18.581,64.4,14,Waypoint,
38.0861073,-120.2285669,4077.6668060103,205.0525,0,1.17964570704,26200,2018-05-10 17:40:44,17,0,23.02,4077.6668060103,205.0525,0.223694,1.38610896824,0,0,-0.671082,280.5, -3.9, 0.9,0,0,1024,1024,1024,1024,281.1,-90,94,3.829,3.835,3.841,3.852,3.848,3.845,18.581,64.4,14,Waypoint,
38.0861072,-120.2285669,4079.6353100103,207.021004,0,1.1779527936,26310,2018-05-10 17:40:44,17,0,23.02,4079.6353100103,207.021004,0.223694,1.38610896824,0,0,-0.671082,280.6, -3.6, 0.6,0,0,1024,1024,1024,1024,281.1,-90,94,3.829,3.835,3.841,3.852,3.848,3.845,18.581,64.4,14,Waypoint,
38.0861072,-120.228567,4080.6195620103,208.005256,0,1.14924872444,26500,2018-05-10 17:40:45,17,0,23.02,4080.6195620103,208.005256,0.223694,1.38610896824,0,0,-0.671082,280.6, -3.4, 0.6,0,0,1024,1024,1024,1024,281.1,-90,94,3.829,3.835,3.841,3.852,3.848,3.845,18.581,64.4,14,Waypoint,
38.0861072,-120.228567,4081.6038140103,208.989508,0,1.14924872444,26600,2018-05-10 17:40:45,17,0,23.02,4081.6038140103,208.989508,0.223694,1.38610896824,0,0,-0.671082,280.5, -3.6, 0.6,0,0,1024,1024,1024,1024,281.1,-90,94,3.829,3.835,3.841,3.852,3.848,3.845,18.581,64.4,14,Waypoint,
