Latitude, Longitude, Altitude (m), Time, Sats, Speed (m/s), Range (m), Battery (%), Roll (deg), Pitch (deg), Yaw (deg), Images, HD Signal (%), RC Signal (%), Battery Temp (C), Battery Voltage (mV), Battery Current (mA), Battery Energy (mAh), Battery Capacity (mAh), Battery Discharges, flyState, timestamp (Unix), LastUpdate (ms), radioChannel, Rc_elevator, Rc_aileron, Rc_throttle, Rc_rudder, Rc_gyro, Dronetype, Battery_Cell1 (mV), Battery_Cell2 (mV), Battery_Cell3 (mV), Battery_Cell4 (mV), Battery_Cell5 (mV), Battery_Cell6 (mV), Video, isFlying, elapsedTime (ms), gimbalPitch (deg), gimbalRoll (deg), gimbalYaw (deg), VelocityX (m/s), VelocityY (m/s), VelocityZ (m/s), GroundSmear (cm), App Version, Aircraft Name, Aircraft Firmware, Aircraft Serial Number, Battery Serial Number, Battery Lifetime (%), App_Tip, App_Warning, CurrentFlightStartingIndex, CurrentFlightLastVisitedWaypoint, PreviousFlightEndingWaypointIndex
38.0977264, -120.1812986, 0.000, 12:53:58.239, 17, 0.10, 0.06, 98, -0.900, -0.400, 125.800, 1682, 100, 96, 24, 25675, -3831, 4321, 4410, 6, 11, 1525895638.240, 45, 0, 1024, 1024, 1024, 1024, 0, 6, 4274, 4306, 4297, 4290, 4281, 4269, 0, 1, 3022, -89.900, 0.000, 126.600, 0.000, 0.100, -0.200, 0.0, MapPilot_2.8.1_04242018, Dendroctonus I, 1.3.1.00, 041DDC1887, 9971171300641, 99, DJI_0685.jpg, Starting Mission from Lat/Long: 38.09772/-120.18130 Camera: Zenmuse X3 - Overlap: 90/90 - Active Connection: No, 65, 65, 65
38.0977264, -120.1812984, 0.000, 12:53:58.322, 17, 0.10, 0.07, 98, -0.500, 0.100, 125.600, 1682, 100, 96, 24, 25675, -3831, 4321, 4410, 6, 11, 1525895638.322, 12, 0, 1024, 1024, 1024, 1024, 0, 6, 4274, 4306, 4297, 4290, 4281, 4269, 0, 1, 3104, -89.900, 0.000, 126.600, 0.000, 0.100, -0.300, 0.0, , , , , , 99, , , 65, 65, 65
38.0977264, -120.1812982, 0.000, 12:53:58.420, 17, 0.20, 0.09, 98, 0.200, 0.700, 125.600, 1682, 100, 96, 24, 25675, -3831, 4321, 4410, 6, 11, 1525895638.421, 45, 0, 1024, 1024, 1024, 1024, 0, 6, 4274, 4306, 4297, 4290, 4281, 4269, 0, 1, 3203, -89.900, 0.000, 126.600, 0.000, 0.200, -0.400, 0.0, , , , , , 99, , , 65, 65, 65
38.0977265, -120.1812980, 0.100, 12:53:58.521, 17, 0.20, 0.11, 98, 0.700, 1.200, 125.700, 1682, 100, 96, 24, 25675, -3831, 4321, 4410, 6, 11, 1525895638.522, 38, 0, 1024, 1024, 1024, 1024, 0, 6, 4274, 4306, 4297, 4290, 4281, 4269, 0, 1, 3304, -89.900, 0.000, 126.600, 0.000, 0.200, -0.400, 0.0, , , , , , 99, , , 65, 65, 65
38.0977265, -120.1812977, 0.100, 12:53:58.622, 17, 0.20, 0.13, 98, 1.200, 1.700, 125.900, 1682, 100, 96, 24, 25473, -4327, 4321, 4410, 6, 11, 1525895638.623, 34, 0, 1024, 1024, 1024, 1024, 0, 6, 4274, 4306, 4297, 4290, 4281, 4269, 0, 1, 3405, -89.900, 0.000, 126.600, 0.000, 0.200, -0.400, 0.0, , , , , , 99, , , 65, 65, 65
38.0977266, -120.1812975, 0.200, 12:53:58.724, 16, 0.14, 0.14, 98, 1.800, 1.900, 126.000, 1682, 100, 96, 24, 25473, -4327, 4321, 4410, 6, 11, 1525895638.725, 32, 0, 1024, 1024, 1024, 1024, 0, 6, 4235, 4239, 4247, 4251, 4216, 4222, 0, 1, 3507, -89.900, 0.000, 126.600, 0.100, 0.100, -0.400, 0.0, , , , , , 99, , , 65, 65, 65
38.0977266, -120.1812973, 0.200, 12:53:58.823, 16, 0.14, 0.16, 98, 2.100, 1.600, 126.000, 1682, 100, 96, 24, 25473, -4327, 4321, 4410, 6, 11, 1525895638.823, 45, 0, 1024, 1024, 1024, 1024, 0, 6, 4235, 4239, 4247, 4251, 4216, 4222, 0, 1, 3605, -89.900, 0.000, 126.600, 0.100, 0.100, -0.400, 0.0, , , , , , 99, , , 65, 65, 65
38.0977267, -120.1812971, 0.300, 12:53:58.920, 17, 0.14, 0.17, 98, 2.200, 0.900, 126.200, 1682, 100, 96, 24, 25473, -4327, 4321, 4410, 6, 11, 1525895638.921, 31, 0, 1024, 1024, 1024, 1024, 0, 6, 4235, 4239, 4247, 4251, 4216, 4222, 0, 1, 3703, -90.000, 0.000, 126.600, 0.100, 0.100, -0.400, 0.0, , , , , , 99, , , 65, 65, 65
38.0977268, -120.1812969, 0.400, 12:53:59.022, 17, 0.00, 0.19, 98, 2.100, 0.100, 126.400, 1682, 100, 96, 24, 25473, -4327, 4321, 4410, 6, 11, 1525895639.023, 29, 0, 1024, 1024, 1024, 1024, 0, 6, 4235, 4239, 4247, 4251, 4216, 4222, 0, 1, 3805, -90.000, 0.000, 126.600, 0.000, 0.000, -0.400, 0.0, , , , , , 99, , , 65, 65, 65
38.0977269, -120.1812969, 0.400, 12:53:59.120, 17, 0.00, 0.19, 98, 1.700, 0.000, 126.400, 1682, 100, 96, 24, 25473, -4327, 4321, 4410, 6, 11, 1525895639.121, 24, 0, 1024, 1024, 1024, 1024, 0, 6, 4235, 4239, 4247, 4251, 4216, 4222, 0, 1, 3903, -90.000, 0.000, 126.600, 0.000, 0.000, -0.400, 0.0, , , , , , 99, , , 65, 65, 65
38.0977269, -120.1812969, 0.400, 12:53:59.221, 17, 0.00, 0.19, 98, 1.700, 0.000, 126.400, 1682, 100, 96, 24, 25473, -4327, 4321, 4410, 6, 11, 1525895639.221, 125, 0, 1024, 1024, 1024, 1024, 0, 6, 4235, 4239, 4247, 4251, 4216, 4222, 0, 1, 4004, -90.000, 0.000, 126.600, 0.000, 0.000, -0.400, 0.0, , , , , , 99, , , 65, 65, 65
38.0977271, -120.1812966, 0.500, 12:53:59.322, 14, 0.00, 0.22, 98, 1.800, 0.000, 126.300, 1682, 100, 100, 24, 25473, -4327, 4321, 4410, 6, 11, 1525895639.322, 15, 0, 1024, 1024, 1024, 1024, 0, 6, 4235, 4239, 4247, 4251, 4216, 4222, 0, 1, 4104, -89.900, 0.000, 126.600, 0.000, 0.000, -0.400, 0.0, , , , , , 99, , , 65, 65, 65
38.0977271, -120.1812966, 0.500, 12:53:59.422, 14, 0.00, 0.22, 98, 1.800, 0.000, 126.300, 1682, 100, 100, 24, 25473, -4327, 4321, 4410, 6, 11, 1525895639.423, 116, 0, 1024, 1024, 1024, 1024, 0, 6, 4235, 4239, 4247, 4251, 4216, 4222, 0, 1, 4205, -89.900, 0.000, 126.600, 0.000, 0.000, -0.400, 0.0, , , , , , 99, , , 65, 65, 65
38.0977271, -120.1812966, 0.500, 12:53:59.523, 14, 0.00, 0.22, 98, 1.800, 0.000, 126.300, 1682, 100, 100, 24, 25473, -4327, 4321, 4410, 6, 11, 1525895639.523, 216, 0, 1024, 1024, 1024, 1024, 0, 6, 4235, 4239, 4247, 4251, 4216, 4222, 0, 1, 4305, -89.900, 0.000, 126.600, 0.000, 0.000, -0.400, 0.0, , , , , , 99, , , 65, 65, 65
38.0977271, -120.1812966, 0.500, 12:53:59.620, 14, 0.00, 0.22, 98, 1.800, 0.000, 126.300, 1682, 100, 100, 24, 25473, -4327, 4321, 4410, 6, 11, 1525895639.621, 314, 0, 1024, 1024, 1024, 1024, 0, 6, 4235, 4239, 4247, 4251, 4216, 4222, 0, 1, 4403, -89.900, 0.000, 126.600, 0.000, 0.000, -0.400, 0.0, , , , , , 99, , , 65, 65, 65
38.0977271, -120.1812966, 0.500, 12:53:59.721, 14, 0.00, 0.22, 98, 1.800, 0.000, 126.300, 1682, 100, 100, 24, 25473, -4327, 4321, 4410, 6, 11, 1525895639.722, 415, 0, 1024, 1024, 1024, 1024, 0, 6, 4235, 4239, 4247, 4251, 4216, 4222, 0, 1, 4504, -89.900, 0.000, 126.600, 0.000, 0.000, -0.400, 0.0, , , , , , 99, , , 65, 65, 65
38.0977274, -120.1812963, 0.700, 12:53:59.822, 13, 0.00, 0.25, 98, 1.700, -0.100, 126.000, 1682, 100, 100, 24, 25473, -4327, 4321, 4410, 6, 11, 1525895639.823, 46, 0, 1024, 1024, 1024, 1024, 0, 6, 4235, 4239, 4247, 4251, 4216, 4222, 0, 1, 4605, -90.000, 0.000, 126.600, 0.000, 0.000, -0.400, 0.0, , , , , , 99, , , 65, 65, 65
38.0977275, -120.1812963, 0.800, 12:53:59.925, 15, 0.00, 0.25, 98, 1.800, -0.200, 126.000, 1682, 100, 100, 24, 25473, -4327, 4321, 4410, 6, 11, 1525895639.926, 16, 0, 1024, 1024, 1024, 1024, 0, 6, 4235, 4239, 4247, 4251, 4216, 4222, 0, 1, 4708, -89.900, 0.000, 126.600, 0.000, 0.000, -0.400, 0.0, , , , , , 99, , , 65, 65, 65
38.0977276, -120.1812963, 0.800, 12:54:00.025, 15, 0.00, 0.26, 98, 1.800, -0.100, 125.900, 1682, 100, 100, 24, 25473, -4327, 4321, 4410, 6, 11, 1525895640.025, 33, 0, 1024, 1024, 1024, 1024, 0, 6, 4235, 4239, 4247, 4251, 4216, 4222, 0, 1, 4807, -90.000, 0.000, 126.600, 0.000, 0.000, -0.500, 0.0, , , , , , 99, , , 65, 65, 65
38.0977276, -120.1812963, 0.800, 12:54:00.122, 15, 0.00, 0.26, 98, 1.800, -0.100, 125.900, 1682, 100, 100, 24, 25473, -4327, 4321, 4410, 6, 11, 1525895640.123, 131, 0, 1024, 1024, 1024, 1024, 0, 6, 4235, 4239, 4247, 4251, 4216, 4222, 0, 1, 4905, -90.000, 0.000, 126.600, 0.000, 0.000, -0.500, 0.0, , , , , , 99, , , 65, 65, 65
38.0977277, -120.1812963, 0.900, 12:54:00.219, 15, 0.00, 0.26, 98, 1.900, -0.200, 126.000, 1682, 100, 100, 24, 24835, -14454, 4321, 4410, 6, 6, 1525895640.219, 47, 0, 1024, 1024, 1024, 1024, 0, 6, 4133, 4140, 4149, 4136, 4129, 4129, 0, 1, 5001, -89.900, 0.000, 126.600, 0.000, 0.000, -0.400, 0.0, , , , , , 99, , , 65, 65, 65
38.0977280, -120.1812966, 0.900, 12:54:00.319, 16, 0.00, 0.25, 98, 1.800, -0.700, 126.100, 1682, 100, 100, 24, 24835, -14454, 4321, 4410, 6, 14, 1525895640.319, 42, 0, 1024, 1024, 1024, 1024, 0, 6, 4133, 4140, 4149, 4136, 4129, 4129, 0, 1, 5101, -90.000, 0.000, 126.600, 0.000, 0.000, -0.200, 0.0, , , , , , 99, , , 65, 65, 65
38.0977281, -120.1812966, 1.000, 12:54:00.418, 16, 0.00, 0.26, 98, 1.500, -0.800, 126.100, 1682, 100, 100, 24, 24835, -14454, 4321, 4410, 6, 14, 1525895640.418, 79, 0, 1024, 1024, 1024, 1024, 0, 6, 4133, 4140, 4149, 4136, 4129, 4129, 0, 1, 5200, -90.000, 0.000, 126.600, 0.000, 0.000, -0.200, 0.0, , , , , , 99, , , 65, 65, 65
38.0977281, -120.1812967, 1.000, 12:54:00.519, 15, 0.00, 0.25, 98, 1.300, -0.700, 126.100, 1682, 100, 100, 24, 24835, -14454, 4321, 4410, 6, 14, 1525895640.519, 73, 0, 1024, 1024, 1024, 1024, 0, 6, 4133, 4140, 4149, 4136, 4129, 4129, 0, 1, 5301, -89.900, 0.000, 126.600, 0.000, 0.000, -0.300, 0.0, , , , , , 99, , , 65, 65, 65
38.0977282, -120.1812967, 1.100, 12:54:00.619, 15, 0.00, 0.25, 98, 1.100, -0.500, 126.100, 1682, 100, 100, 24, 24682, -15719, 4321, 4410, 6, 14, 1525895640.619, 72, 0, 1024, 1024, 1024, 1024, 0, 6, 4109, 4112, 4122, 4110, 4114, 4112, 0, 1, 5401, -89.900, 0.000, 126.600, 0.000, 0.000, -0.400, 0.0, , , , , , 99, , , 65, 65, 65
38.0977282, -120.1812968, 1.100, 12:54:00.719, 15, 0.00, 0.25, 98, 0.900, -0.300, 126.100, 1682, 100, 100, 24, 24682, -15719, 4321, 4410, 6, 14, 1525895640.719, 73, 0, 1024, 1024, 1024, 1024, 0, 6, 4109, 4112, 4122, 4110, 4114, 4112, 0, 1, 5501, -89.900, 0.000, 126.600, 0.000, 0.000, -0.500, 0.0, , , , , , 99, , , 65, 65, 65
38.0977282, -120.1812968, 1.200, 12:54:00.819, 15, 0.00, 0.25, 98, 0.900, -0.300, 126.000, 1682, 100, 100, 24, 24682, -15719, 4321, 4410, 6, 14, 1525895640.819, 76, 0, 1024, 1024, 1024, 1024, 0, 6, 4109, 4112, 4122, 4110, 4114, 4112, 0, 1, 5601, -89.900, 0.000, 126.600, 0.000, 0.000, -0.700, 0.0, , , , , , 99, , , 65, 65, 65
38.0977283, -120.1812968, 1.300, 12:54:00.919, 15, 0.00, 0.26, 98, 1.000, -0.300, 126.100, 1682, 100, 100, 24, 24682, -15719, 4321, 4410, 6, 14, 1525895640.919, 69, 0, 1024, 1024, 1024, 1024, 0, 6, 4109, 4112, 4122, 4110, 4114, 4112, 0, 1, 5701, -89.900, 0.000, 126.600, 0.000, 0.000, -0.900, 0.0, , , , , , 99, , , 65, 65, 65
38.0977284, -120.1812968, 1.400, 12:54:01.019, 15, 0.00, 0.27, 98, 1.300, -0.400, 126.100, 1682, 100, 100, 24, 24682, -15719, 4321, 4410, 6, 14, 1525895641.019, 58, 0, 1024, 1024, 1024, 1024, 0, 6, 4109, 4112, 4122, 4110, 4114, 4112, 0, 1, 5802, -89.900, 0.000, 126.600, 0.000, 0.000, -1.100, 0.0, , , , , , 99, , , 65, 65, 65
38.0977284, -120.1812967, 1.500, 12:54:01.123, 14, 0.00, 0.27, 98, 1.600, -0.400, 126.100, 1682, 100, 100, 24, 24682, -15719, 4321, 4410, 6, 14, 1525895641.123, 69, 0, 1024, 1024, 1024, 1024, 0, 6, 4109, 4112, 4122, 4110, 4114, 4112, 0, 1, 5905, -89.900, 0.000, 126.600, 0.000, 0.000, -1.200, 0.0, , , , , , 99, , , 65, 65, 65
38.0977284, -120.1812967, 1.600, 12:54:01.222, 14, 0.00, 0.27, 98, 1.600, -0.300, 126.200, 1682, 100, 100, 24, 24682, -15719, 4321, 4410, 6, 14, 1525895641.222, 49, 0, 1024, 1024, 1024, 1024, 0, 6, 4109, 4112, 4122, 4110, 4114, 4112, 0, 1, 6005, -89.900, 0.000, 126.600, 0.000, 0.000, -1.400, 0.0, , , , , , 99, , , 65, 65, 65
38.0977284, -120.1812968, 1.800, 12:54:01.325, 16, 0.00, 0.27, 98, 1.600, -0.300, 126.200, 1682, 100, 100, 24, 24682, -15719, 4321, 4410, 6, 14, 1525895641.325, 27, 0, 1024, 1024, 1024, 1024, 0, 6, 4109, 4112, 4122, 4110, 4114, 4112, 0, 1, 6107, -89.900, 0.000, 126.600, 0.000, 0.000, -1.700, 0.0, , , , , , 99, , , 65, 65, 65
38.0977284, -120.1812969, 2.000, 12:54:01.421, 16, 0.00, 0.26, 98, 1.400, -0.300, 126.200, 1682, 100, 100, 24, 24682, -15719, 4321, 4410, 6, 14, 1525895641.422, 49, 0, 1024, 1024, 1024, 1024, 0, 6, 4109, 4112, 4122, 4110, 4114, 4112, 0, 1, 6205, -89.900, 0.000, 126.600, 0.000, 0.000, -1.800, 0.0, , , , , , 99, , , 65, 65, 65
38.0977284, -120.1812969, 2.200, 12:54:01.521, 17, 0.00, 0.26, 98, 1.100, -0.300, 126.200, 1682, 100, 100, 24, 24682, -15719, 4321, 4410, 6, 14, 1525895641.522, 46, 0, 1024, 1024, 1024, 1024, 0, 6, 4109, 4112, 4122, 4110, 4114, 4112, 0, 1, 6304, -89.900, 0.000, 126.600, 0.000, 0.000, -2.100, 0.0, , , , , , 99, , , 65, 65, 65
38.0977284, -120.1812969, 2.400, 12:54:01.623, 17, 0.00, 0.25, 98, 0.800, -0.100, 126.300, 1682, 100, 100, 24, 24519, -16751, 4321, 4410, 6, 14, 1525895641.624, 59, 0, 1024, 1024, 1024, 1024, 0, 6, 4109, 4112, 4122, 4110, 4114, 4112, 0, 1, 6406, -89.900, 0.000, 126.600, 0.000, 0.000, -2.300, 0.0, , , , , , 99, , , 65, 65, 65
38.0977283, -120.1812970, 2.700, 12:54:01.724, 16, 0.00, 0.24, 98, 0.700, -0.100, 126.400, 1682, 100, 100, 24, 24519, -16751, 4321, 4410, 6, 14, 1525895641.724, 48, 0, 1024, 1024, 1024, 1024, 0, 6, 4109, 4112, 4122, 4110, 4114, 4112, 0, 1, 6506, -89.900, 0.000, 126.600, 0.000, 0.000, -2.500, 0.0, , , , , , 99, , , 65, 65, 65
38.0977282, -120.1812970, 3.000, 12:54:01.824, 16, 0.00, 0.24, 98, 0.500, 0.000, 126.400, 1682, 100, 100, 24, 24519, -16751, 4321, 4410, 6, 14, 1525895641.824, 25, 0, 1024, 1024, 1024, 1024, 0, 6, 4109, 4112, 4122, 4110, 4114, 4112, 0, 1, 6607, -89.900, 0.000, 126.600, 0.000, 0.000, -2.700, 0.0, , , , , , 99, , , 65, 65, 65
38.0977280, -120.1812971, 3.600, 12:54:01.928, 16, 0.00, 0.22, 98, 0.000, -0.100, 126.400, 1682, 100, 100, 24, 24519, -16751, 4321, 4410, 6, 14, 1525895641.928, 11, 0, 1024, 1024, 1024, 1024, 0, 6, 4109, 4112, 4122, 4110, 4114, 4112, 0, 1, 6710, -90.000, 0.000, 126.600, 0.000, 0.000, -3.000, 0.0, , , , , , 99, , , 65, 65, 65
38.0977279, -120.1812971, 3.900, 12:54:02.021, 17, 0.00, 0.21, 98, -0.200, 0.000, 126.300, 1682, 100, 100, 24, 24519, -16751, 4321, 4410, 6, 14, 1525895642.021, 27, 0, 1024, 1024, 1024, 1024, 0, 6, 4109, 4112, 4122, 4110, 4114, 4112, 0, 1, 6803, -89.900, 0.000, 126.600, 0.000, 0.000, -3.000, 0.0, , , , , , 99, , , 65, 65, 65
38.0977278, -120.1812970, 4.200, 12:54:02.139, 17, 0.00, 0.21, 98, 0.000, 0.200, 126.200, 1682, 100, 100, 24, 24519, -16751, 4321, 4410, 6, 14, 1525895642.140, 17, 0, 1024, 1024, 1024, 1024, 0, 6, 4070, 4063, 4112, 4058, 4091, 4053, 0, 1, 6922, -89.900, 0.000, 126.600, 0.000, 0.000, -3.100, 0.0, , , , , , 99, , , 65, 65, 65
38.0977277, -120.1812970, 4.500, 12:54:02.224, 15, 0.00, 0.21, 98, 0.000, 0.400, 126.000, 1682, 100, 100, 24, 24519, -16751, 4321, 4410, 6, 14, 1525895642.225, 30, 0, 1024, 1024, 1024, 1024, 0, 6, 4070, 4063, 4112, 4058, 4091, 4053, 0, 1, 7007, -89.900, 0.000, 126.600, 0.000, 0.000, -3.100, 0.0, , , , , , 99, , , 65, 65, 65
38.0977277, -120.1812970, 4.900, 12:54:02.324, 15, 0.00, 0.20, 98, 0.000, 0.500, 126.000, 1682, 100, 100, 24, 24519, -16751, 4321, 4410, 6, 14, 1525895642.324, 30, 0, 1024, 1024, 1024, 1024, 0, 6, 4070, 4063, 4112, 4058, 4091, 4053, 0, 1, 7106, -89.900, 0.000, 126.600, 0.000, 0.000, -3.200, 0.0, , , , , , 99, , , 65, 65, 65
38.0977277, -120.1812971, 5.200, 12:54:02.425, 15, 0.00, 0.20, 98, 0.100, 0.500, 125.900, 1682, 100, 100, 24, 24519, -16751, 4321, 4410, 6, 14, 1525895642.425, 25, 0, 1024, 1024, 1024, 1024, 0, 6, 4070, 4063, 4112, 4058, 4091, 4053, 0, 1, 7207, -89.900, 0.000, 126.600, 0.000, 0.000, -3.200, 0.0, , , , , , 99, , , 65, 65, 65
38.0977278, -120.1812973, 5.600, 12:54:02.524, 15, 0.00, 0.19, 98, 0.200, 0.100, 126.000, 1682, 100, 100, 24, 24519, -16751, 4321, 4410, 6, 14, 1525895642.525, 25, 0, 1024, 1024, 1024, 1024, 0, 6, 4070, 4063, 4112, 4058, 4091, 4053, 0, 1, 7307, -89.900, 0.000, 126.600, 0.000, 0.000, -3.100, 0.0, , , , , , 99, , , 65, 65, 65
38.0977279, -120.1812974, 5.900, 12:54:02.624, 15, 0.00, 0.19, 98, 0.400, -0.300, 126.100, 1682, 100, 100, 24, 24519, -16751, 4321, 4410, 6, 14, 1525895642.624, 17, 0, 1024, 1024, 1024, 1024, 0, 6, 4070, 4063, 4112, 4058, 4091, 4053, 0, 1, 7406, -90.000, 0.000, 126.600, 0.000, 0.000, -3.200, 0.0, , , , , , 99, , , 65, 65, 65
38.0977280, -120.1812976, 6.200, 12:54:02.722, 15, 0.00, 0.19, 98, 0.600, -0.700, 126.200, 1682, 100, 99, 24, 24519, -16751, 4321, 4410, 6, 14, 1525895642.723, 14, 0, 1024, 1024, 1024, 1024, 0, 6, 4070, 4063, 4112, 4058, 4091, 4053, 0, 1, 7505, -90.000, 0.000, 126.600, 0.000, 0.000, -3.100, 0.0, , , , , , 99, , , 65, 65, 65
38.0977281, -120.1812977, 6.500, 12:54:02.820, 16, 0.00, 0.18, 98, 0.900, -1.100, 126.200, 1682, 100, 99, 24, 24519, -16751, 4321, 4410, 6, 14, 1525895642.821, 26, 0, 1024, 1024, 1024, 1024, 0, 6, 4070, 4063, 4112, 4058, 4091, 4053, 0, 1, 7603, -90.000, 0.000, 126.600, 0.000, 0.000, -3.100, 0.0, , , , , , 99, , , 65, 65, 65
38.0977282, -120.1812979, 6.900, 12:54:02.937, 16, 0.00, 0.18, 98, 0.900, -1.500, 126.100, 1682, 100, 99, 24, 24519, -16751, 4321, 4410, 6, 14, 1525895642.937, 13, 0, 1024, 1024, 1024, 1024, 0, 6, 4070, 4063, 4112, 4058, 4091, 4053, 0, 1, 7720, -89.900, 0.000, 126.600, 0.000, 0.000, -3.100, 0.0, , , , , , 99, , , 65, 65, 65
38.0977283, -120.1812979, 7.200, 12:54:03.024, 16, 0.00, 0.19, 98, 0.700, -1.600, 126.100, 1682, 100, 99, 24, 24519, -16751, 4321, 4410, 6, 14, 1525895643.025, 15, 0, 1024, 1024, 1024, 1024, 0, 6, 4070, 4063, 4112, 4058, 4091, 4053, 0, 1, 7807, -89.900, 0.000, 126.600, 0.000, 0.000, -3.200, 0.0, , , , , , 99, , , 65, 65, 65
38.0977283, -120.1812979, 7.200, 12:54:03.121, 16, 0.00, 0.19, 98, 0.700, -1.600, 126.100, 1682, 100, 99, 24, 24519, -16751, 4321, 4410, 6, 14, 1525895643.121, 111, 0, 1024, 1024, 1024, 1024, 0, 6, 4070, 4063, 4112, 4058, 4091, 4053, 0, 1, 7903, -89.900, 0.000, 126.600, 0.000, 0.000, -3.200, 0.0, , , , , , 99, , , 65, 65, 65
38.0977284, -120.1812978, 7.600, 12:54:03.218, 16, 0.00, 0.21, 98, 0.800, -1.300, 126.100, 1682, 100, 99, 24, 24059, -22966, 4321, 4410, 6, 14, 1525895643.219, 89, 0, 1024, 1024, 1024, 1024, 0, 6, 3992, 4017, 4004, 4020, 4005, 4009, 0, 1, 8001, -89.900, 0.000, 126.600, 0.000, 0.000, -3.100, 0.0, , , , , , 99, , , 65, 65, 65
38.0977285, -120.1812977, 7.900, 12:54:03.319, 17, 0.00, 0.22, 98, 1.100, -0.900, 126.100, 1682, 100, 99, 24, 24059, -22966, 4321, 4410, 6, 14, 1525895643.319, 88, 0, 1024, 1024, 1024, 1024, 0, 6, 3992, 4017, 4004, 4020, 4005, 4009, 0, 1, 8101, -89.900, 0.000, 126.600, 0.000, 0.000, -3.100, 0.0, , , , , , 99, , , 65, 65, 65
38.0977287, -120.1812977, 8.600, 12:54:03.421, 15, 0.00, 0.24, 98, 1.400, -0.900, 125.900, 1682, 100, 99, 24, 24059, -22966, 4321, 4410, 6, 14, 1525895643.422, 5, 0, 1024, 1024, 1024, 1024, 0, 6, 3992, 4017, 4004, 4020, 4005, 4009, 0, 1, 8204, -90.000, 0.000, 126.600, 0.000, 0.000, -3.000, 0.0, , , , , , 99, , , 65, 65, 65
38.0977287, -120.1812977, 8.600, 12:54:03.519, 15, 0.00, 0.24, 98, 1.400, -0.900, 125.900, 1682, 100, 99, 24, 24059, -22966, 4321, 4410, 6, 14, 1525895643.519, 103, 0, 1024, 1024, 1024, 1024, 0, 6, 3992, 4017, 4004, 4020, 4005, 4009, 0, 1, 8302, -89.900, 0.000, 126.600, 0.000, 0.000, -3.000, 0.0, , , , , , 99, , , 65, 65, 65
38.0977287, -120.1812978, 8.900, 12:54:03.619, 15, 0.00, 0.24, 98, 1.200, -0.900, 125.700, 1682, 100, 99, 24, 24059, -22966, 4321, 4410, 6, 14, 1525895643.620, 82, 0, 1024, 1024, 1024, 1024, 0, 6, 3992, 4017, 4004, 4020, 4005, 4009, 0, 1, 8402, -89.900, 0.000, 126.600, 0.000, 0.000, -3.000, 0.0, , , , , , 99, , , 65, 65, 65
38.0977288, -120.1812978, 9.200, 12:54:03.719, 15, 0.00, 0.24, 98, 1.100, -0.900, 125.500, 1682, 100, 99, 24, 24059, -22966, 4321, 4410, 6, 14, 1525895643.719, 81, 0, 1024, 1024, 1024, 1024, 0, 6, 3992, 4017, 4004, 4020, 4005, 4009, 0, 1, 8501, -89.900, 0.000, 126.600, 0.000, 0.000, -3.000, 0.0, , , , , , 99, , , 65, 65, 65
38.0977288, -120.1812978, 9.500, 12:54:03.818, 15, 0.00, 0.25, 98, 1.100, -0.800, 125.400, 1682, 100, 99, 24, 24059, -22966, 4321, 4410, 6, 14, 1525895643.819, 81, 0, 1024, 1024, 1024, 1024, 0, 6, 3992, 4017, 4004, 4020, 4005, 4009, 0, 1, 8601, -89.900, 0.000, 126.600, 0.000, 0.000, -3.000, 0.0, , , , , , 99, , , 65, 65, 65
38.0977289, -120.1812979, 9.800, 12:54:03.919, 14, 0.00, 0.25, 98, 1.100, -0.900, 125.500, 1682, 100, 99, 24, 24059, -22966, 4321, 4410, 6, 14, 1525895643.919, 82, 0, 1024, 1024, 1024, 1024, 0, 6, 3992, 4017, 4004, 4020, 4005, 4009, 0, 1, 8701, -90.000, 0.000, 126.600, 0.000, 0.000, -3.000, 0.0, , , , , , 99, , , 65, 65, 65
38.0977290, -120.1812979, 10.100, 12:54:04.019, 14, 0.00, 0.26, 98, 1.200, -1.000, 125.800, 1682, 100, 99, 24, 24059, -22966, 4321, 4410, 6, 14, 1525895644.019, 69, 0, 1024, 1024, 1024, 1024, 0, 6, 3992, 4017, 4004, 4020, 4005, 4009, 0, 1, 8801, -89.900, 0.000, 126.600, 0.000, 0.000, -3.000, 0.0, , , , , , 99, , , 65, 65, 65
38.0977290, -120.1812979, 10.400, 12:54:04.119, 15, 0.00, 0.26, 98, 1.200, -1.100, 126.000, 1682, 100, 99, 24, 24230, -19283, 4321, 4410, 6, 14, 1525895644.119, 80, 0, 1024, 1024, 1024, 1024, 0, 6, 4029, 4034, 4044, 4041, 4043, 4045, 0, 1, 8901, -89.900, 0.000, 126.600, 0.000, 0.000, -3.000, 0.0, , , , , , 99, , , 65, 65, 65
38.0977290, -120.1812979, 10.700, 12:54:04.218, 15, 0.00, 0.26, 98, 1.300, -1.000, 126.200, 1682, 100, 100, 24, 24230, -19283, 4321, 4410, 6, 14, 1525895644.219, 33, 0, 1024, 1024, 1024, 1024, 0, 6, 4029, 4034, 4044, 4041, 4043, 4045, 0, 1, 9001, -89.900, 0.000, 126.600, 0.000, 0.000, -3.000, 0.0, , , , , , 99, , , 65, 65, 65
38.0977291, -120.1812979, 11.000, 12:54:04.319, 14, 0.00, 0.27, 98, 1.200, -0.900, 126.400, 1682, 100, 100, 24, 24230, -19283, 4321, 4410, 6, 14, 1525895644.319, 69, 0, 1024, 1024, 1024, 1024, 0, 6, 4029, 4034, 4044, 4041, 4043, 4045, 0, 1, 9101, -89.900, 0.000, 126.600, 0.000, 0.000, -3.000, 0.0, , , , , , 99, , , 65, 65, 65
38.0977291, -120.1812978, 11.400, 12:54:04.418, 14, 0.00, 0.27, 98, 1.300, -0.900, 126.400, 1682, 100, 100, 24, 24230, -19283, 4321, 4410, 6, 14, 1525895644.418, 60, 0, 1024, 1024, 1024, 1024, 0, 6, 4029, 4034, 4044, 4041, 4043, 4045, 0, 1, 9201, -89.900, 0.000, 126.600, 0.000, 0.000, -3.000, 0.0, , , , , , 99, , , 65, 65, 65
38.0977291, -120.1812978, 11.700, 12:54:04.519, 16, 0.00, 0.28, 98, 1.300, -0.700, 126.400, 1682, 100, 100, 24, 24230, -19283, 4321, 4410, 6, 14, 1525895644.519, 55, 0, 1024, 1024, 1024, 1024, 0, 6, 4029, 4034, 4044, 4041, 4043, 4045, 0, 1, 9301, -89.900, 0.000, 126.600, 0.000, 0.000, -3.000, 0.0, , , , , , 99, , , 65, 65, 65
38.0977292, -120.1812978, 12.000, 12:54:04.618, 16, 0.00, 0.28, 98, 1.300, -0.600, 126.400, 1682, 100, 100, 24, 24230, -19283, 4321, 4410, 6, 14, 1525895644.619, 21, 0, 1024, 1024, 1024, 1024, 0, 6, 4029, 4034, 4044, 4041, 4043, 4045, 0, 1, 9401, -89.900, 0.000, 126.600, 0.000, 0.000, -2.900, 0.0, , , , , , 99, , , 65, 65, 65
38.0977292, -120.1812978, 12.300, 12:54:04.718, 16, 0.00, 0.28, 98, 1.300, -0.700, 126.300, 1682, 100, 99, 24, 24230, -19283, 4321, 4410, 6, 14, 1525895644.719, 33, 0, 1024, 1024, 1024, 1024, 0, 6, 4029, 4034, 4044, 4041, 4043, 4045, 0, 1, 9501, -89.900, 0.000, 126.600, 0.000, 0.000, -2.900, 0.0, , , , , , 99, , , 65, 65, 65
38.0977291, -120.1812978, 12.600, 12:54:04.818, 16, 0.00, 0.28, 98, 1.300, -0.600, 126.100, 1682, 100, 99, 24, 24230, -19283, 4321, 4410, 6, 14, 1525895644.819, 25, 0, 1024, 1024, 1024, 1024, 0, 6, 4029, 4034, 4044, 4041, 4043, 4045, 0, 1, 9601, -89.900, 0.000, 126.600, 0.000, 0.000, -3.000, 0.0, , , , , , 99, , , 65, 65, 65
38.0977292, -120.1812979, 13.200, 12:54:04.925, 16, 0.00, 0.28, 98, 1.200, -0.600, 125.800, 1682, 100, 99, 24, 24230, -19283, 4321, 4410, 6, 14, 1525895644.926, 6, 0, 1024, 1024, 1024, 1024, 0, 6, 4029, 4034, 4044, 4041, 4043, 4045, 0, 1, 9708, -89.900, 0.000, 126.600, 0.000, 0.000, -3.000, 0.0, , , , , , 99, , , 65, 65, 65
38.0977291, -120.1812977, 13.500, 12:54:05.018, 16, 0.00, 0.28, 98, 1.100, -0.600, 125.700, 1682, 100, 99, 24, 24230, -19283, 4321, 4410, 6, 14, 1525895645.018, 24, 0, 1024, 1024, 1024, 1024, 0, 6, 4029, 4034, 4044, 4041, 4043, 4045, 0, 1, 9801, -89.900, 0.000, 126.600, 0.000, 0.000, -2.900, 0.0, , , , , , 99, , , 65, 65, 65
38.0977291, -120.1812977, 13.500, 12:54:05.118, 16, 0.00, 0.28, 97, 1.100, -0.600, 125.700, 1682, 100, 99, 24, 24244, -18354, 4277, 4410, 6, 14, 1525895645.118, 124, 0, 1024, 1024, 1024, 1024, 0, 6, 4029, 4034, 4044, 4041, 4043, 4045, 0, 1, 9901, -89.900, 0.000, 126.600, 0.000, 0.000, -2.900, 0.0, , , , , , 99, , , 65, 65, 65
38.0977288, -120.1812972, 14.100, 12:54:05.219, 17, 0.14, 0.27, 97, 0.800, 0.200, 125.800, 1682, 100, 99, 24, 24244, -18354, 4277, 4410, 6, 14, 1525895645.219, 21, 0, 1024, 1024, 1024, 1024, 0, 6, 4025, 4039, 4042, 4046, 4044, 4041, 0, 1, 10002, -89.900, 0.000, 126.600, -0.100, 0.100, -3.000, 0.0, , , , , , 99, , , 65, 65, 65
38.0977287, -120.1812972, 14.400, 12:54:05.319, 17, 0.00, 0.27, 97, 0.700, 0.600, 125.900, 1682, 100, 99, 24, 24244, -18354, 4277, 4410, 6, 14, 1525895645.319, 16, 0, 1024, 1024, 1024, 1024, 0, 6, 4025, 4039, 4042, 4046, 4044, 4041, 0, 1, 10101, -89.900, 0.000, 126.600, 0.000, 0.000, -2.900, 0.0, , , , , , 99, , , 65, 65, 65
38.0977287, -120.1812971, 14.700, 12:54:05.422, 17, 0.00, 0.27, 97, 0.700, 0.500, 126.100, 1682, 100, 99, 24, 24244, -18354, 4277, 4410, 6, 14, 1525895645.422, 5, 0, 1024, 1024, 1024, 1024, 0, 6, 4025, 4039, 4042, 4046, 4044, 4041, 0, 1, 10204, -89.900, 0.000, 126.600, 0.000, 0.000, -2.900, 0.0, , , , , , 99, , , 65, 65, 65
38.0977287, -120.1812971, 14.700, 12:54:05.519, 17, 0.00, 0.27, 97, 0.700, 0.500, 126.100, 1682, 100, 99, 24, 24244, -18354, 4277, 4410, 6, 14, 1525895645.519, 102, 0, 1024, 1024, 1024, 1024, 0, 6, 4025, 4039, 4042, 4046, 4044, 4041, 0, 1, 10301, -89.900, 0.000, 126.600, 0.000, 0.000, -2.900, 0.0, , , , , , 99, , , 65, 65, 65
38.0977287, -120.1812971, 15.000, 12:54:05.619, 17, 0.00, 0.27, 97, 0.700, 0.200, 126.200, 1682, 100, 99, 24, 24244, -18354, 4277, 4410, 6, 14, 1525895645.619, 92, 0, 1024, 1024, 1024, 1024, 0, 6, 4025, 4039, 4042, 4046, 4044, 4041, 0, 1, 10401, -89.900, 0.000, 126.600, 0.000, 0.000, -2.900, 0.0, , , , , , 99, , , 65, 65, 65
38.0977287, -120.1812971, 15.600, 12:54:05.721, 16, 0.00, 0.27, 97, 0.900, -0.100, 126.300, 1682, 100, 99, 24, 24244, -18354, 4277, 4410, 6, 14, 1525895645.721, 4, 0, 1024, 1024, 1024, 1024, 0, 6, 4025, 4039, 4042, 4046, 4044, 4041, 0, 1, 10504, -89.900, 0.000, 126.600, 0.000, 0.000, -2.900, 0.0, , , , , , 99, , , 65, 65, 65
38.0977287, -120.1812971, 15.600, 12:54:05.818, 16, 0.00, 0.27, 97, 0.900, -0.100, 126.300, 1682, 100, 99, 24, 24244, -18354, 4277, 4410, 6, 14, 1525895645.819, 101, 0, 1024, 1024, 1024, 1024, 0, 6, 4025, 4039, 4042, 4046, 4044, 4041, 0, 1, 10601, -89.900, 0.000, 126.600, 0.000, 0.000, -2.900, 0.0, , , , , , 99, , , 65, 65, 65
38.0977287, -120.1812971, 15.900, 12:54:05.918, 17, 0.00, 0.27, 97, 1.000, -0.300, 126.300, 1682, 100, 99, 24, 24244, -18354, 4277, 4410, 6, 14, 1525895645.918, 94, 0, 1024, 1024, 1024, 1024, 0, 6, 4025, 4039, 4042, 4046, 4044, 4041, 0, 1, 10701, -90.000, 0.000, 126.600, 0.000, 0.000, -2.900, 0.0, , , , , , 99, , , 65, 65, 65
38.0977287, -120.1812971, 16.200, 12:54:06.019, 17, 0.00, 0.27, 97, 1.100, -0.600, 126.300, 1682, 100, 99, 24, 24244, -18354, 4277, 4410, 6, 14, 1525895646.019, 80, 0, 1024, 1024, 1024, 1024, 0, 6, 4025, 4039, 4042, 4046, 4044, 4041, 0, 1, 10801, -89.900, 0.000, 126.600, 0.000, 0.000, -3.000, 0.0, , , , , , 99, , , 65, 65, 65
38.0977288, -120.1812972, 16.500, 12:54:06.118, 17, 0.00, 0.27, 97, 1.300, -0.600, 126.200, 1682, 100, 99, 24, 24254, -18135, 4277, 4410, 6, 14, 1525895646.118, 96, 0, 1024, 1024, 1024, 1024, 0, 6, 4032, 4041, 4047, 4050, 4045, 4040, 0, 1, 10900, -90.000, 0.000, 126.600, 0.000, 0.000, -2.900, 0.0, , , , , , 99, , , 65, 65, 65
38.0977288, -120.1812973, 16.800, 12:54:06.219, 17, 0.00, 0.27, 97, 1.400, -0.500, 126.100, 1682, 100, 100, 24, 24254, -18135, 4277, 4410, 6, 14, 1525895646.219, 71, 0, 1024, 1024, 1024, 1024, 0, 6, 4032, 4041, 4047, 4050, 4045, 4040, 0, 1, 11001, -90.000, 0.000, 126.600, 0.000, 0.000, -2.800, 0.0, , , , , , 99, , , 65, 65, 65
38.0977288, -120.1812974, 17.100, 12:54:06.319, 17, 0.00, 0.26, 97, 1.300, -0.700, 126.000, 1682, 100, 100, 24, 24254, -18135, 4277, 4410, 6, 14, 1525895646.319, 67, 0, 1024, 1024, 1024, 1024, 0, 6, 4032, 4041, 4047, 4050, 4045, 4040, 0, 1, 11101, -90.000, 0.000, 126.600, 0.000, 0.000, -2.900, 0.0, , , , , , 99, , , 65, 65, 65
38.0977288, -120.1812975, 17.400, 12:54:06.418, 17, 0.00, 0.26, 97, 0.900, -0.900, 125.900, 1682, 100, 100, 24, 24254, -18135, 4277, 4410, 6, 14, 1525895646.418, 91, 0, 1024, 1024, 1024, 1024, 0, 6, 4032, 4041, 4047, 4050, 4045, 4040, 0, 1, 11201, -90.000, 0.000, 126.600, 0.000, 0.000, -2.900, 0.0, , , , , , 99, , , 65, 65, 65
38.0977287, -120.1812976, 17.700, 12:54:06.518, 17, 0.00, 0.25, 97, 0.300, -1.000, 125.900, 1682, 100, 100, 24, 24254, -18135, 4277, 4410, 6, 14, 1525895646.518, 60, 0, 1024, 1024, 1024, 1024, 0, 6, 4032, 4041, 4047, 4050, 4045, 4040, 0, 1, 11301, -90.000, 0.000, 126.600, 0.000, 0.000, -2.900, 0.0, , , , , , 99, , , 65, 65, 65
38.0977287, -120.1812976, 18.000, 12:54:06.619, 17, 0.00, 0.24, 97, -0.100, -1.000, 126.000, 1682, 100, 100, 24, 24254, -18135, 4277, 4410, 6, 14, 1525895646.619, 51, 0, 1024, 1024, 1024, 1024, 0, 6, 4032, 4041, 4047, 4050, 4045, 4040, 0, 1, 11402, -90.000, 0.000, 126.600, 0.000, 0.000, -2.900, 0.0, , , , , , 99, , , 65, 65, 65
38.0977286, -120.1812977, 18.300, 12:54:06.718, 17, 0.00, 0.23, 97, -0.200, -0.800, 126.100, 1682, 100, 99, 24, 24254, -18135, 4277, 4410, 6, 14, 1525895646.719, 62, 0, 1024, 1024, 1024, 1024, 0, 6, 4032, 4041, 4047, 4050, 4045, 4040, 0, 1, 11501, -89.900, 0.000, 126.600, 0.000, 0.000, -2.900, 0.0, , , , , , 99, , , 65, 65, 65
38.0977285, -120.1812977, 18.600, 12:54:06.818, 17, 0.00, 0.22, 97, -0.100, -0.700, 126.200, 1682, 100, 99, 24, 24254, -18135, 4277, 4410, 6, 14, 1525895646.818, 62, 0, 1024, 1024, 1024, 1024, 0, 6, 4032, 4041, 4047, 4050, 4045, 4040, 0, 1, 11600, -89.900, 0.000, 126.600, 0.000, 0.000, -2.900, 0.0, , , , , , 99, , , 65, 65, 65
38.0977285, -120.1812977, 18.900, 12:54:06.919, 17, 0.00, 0.21, 97, 0.000, -0.300, 126.200, 1682, 100, 99, 24, 24254, -18135, 4277, 4410, 6, 14, 1525895646.919, 54, 0, 1024, 1024, 1024, 1024, 0, 6, 4032, 4041, 4047, 4050, 4045, 4040, 0, 1, 11701, -89.900, 0.000, 126.600, 0.000, 0.000, -2.900, 0.0, , , , , , 99, , , 65, 65, 65
38.0977284, -120.1812977, 19.200, 12:54:07.019, 17, 0.00, 0.21, 97, 0.200, -0.100, 126.200, 1682, 100, 99, 24, 24254, -18135, 4277, 4410, 6, 14, 1525895647.019, 39, 0, 1024, 1024, 1024, 1024, 0, 6, 4032, 4041, 4047, 4050, 4045, 4040, 0, 1, 11801, -89.900, 0.000, 126.600, 0.000, 0.000, -2.900, 0.0, , , , , , 99, , , 65, 65, 65
38.0977283, -120.1812977, 19.500, 12:54:07.118, 17, 0.00, 0.20, 97, 0.400, -0.300, 126.100, 1682, 100, 99, 25, 24236, -17841, 4277, 4410, 6, 14, 1525895647.118, 27, 0, 1024, 1024, 1024, 1024, 0, 6, 4032, 4041, 4047, 4050, 4045, 4040, 0, 1, 11901, -89.900, 0.000, 126.600, 0.000, 0.000, -2.900, 0.0, , , , , , 99, , , 65, 65, 65
38.0977282, -120.1812976, 19.800, 12:54:07.224, 17, 0.00, 0.20, 97, 0.200, -0.400, 126.000, 1682, 100, 98, 25, 24236, -17841, 4277, 4410, 6, 14, 1525895647.224, 50, 0, 1024, 1024, 1024, 1024, 0, 6, 4032, 4041, 4047, 4050, 4045, 4040, 0, 1, 12006, -89.900, 0.000, 126.600, 0.000, 0.000, -2.900, 0.0, , , , , , 99, , , 65, 65, 65
38.0977281, -120.1812976, 20.100, 12:54:07.324, 17, 0.00, 0.19, 97, 0.100, -0.100, 126.000, 1682, 100, 98, 25, 24236, -17841, 4277, 4410, 6, 14, 1525895647.324, 50, 0, 1024, 1024, 1024, 1024, 0, 6, 4032, 4041, 4047, 4050, 4045, 4040, 0, 1, 12106, -89.900, 0.000, 126.600, 0.000, 0.000, -2.900, 0.0, , , , , , 99, , , 65, 65, 65
38.0977280, -120.1812975, 20.400, 12:54:07.423, 17, 0.10, 0.19, 97, 0.000, 0.300, 125.900, 1682, 100, 98, 25, 24236, -17841, 4277, 4410, 6, 14, 1525895647.424, 31, 0, 1024, 1024, 1024, 1024, 0, 6, 4032, 4041, 4047, 4050, 4045, 4040, 0, 1, 12206, -89.900, 0.000, 126.600, 0.000, 0.100, -2.900, 0.0, , , , , , 99, , , 65, 65, 65
38.0977280, -120.1812975, 20.400, 12:54:07.523, 17, 0.10, 0.19, 97, 0.000, 0.300, 125.900, 1682, 100, 98, 25, 24236, -17841, 4277, 4410, 6, 14, 1525895647.524, 130, 0, 1024, 1024, 1024, 1024, 0, 6, 4032, 4041, 4047, 4050, 4045, 4040, 0, 1, 12306, -89.900, 0.000, 126.600, 0.000, 0.100, -2.900, 0.0, , , , , , 99, , , 65, 65, 65
38.0977279, -120.1812975, 20.700, 12:54:07.622, 17, 0.10, 0.19, 97, 0.000, 0.700, 125.900, 1682, 100, 98, 25, 24236, -17841, 4277, 4410, 6, 14, 1525895647.622, 80, 0, 1024, 1024, 1024, 1024, 0, 6, 4032, 4041, 4047, 4050, 4045, 4040, 0, 1, 12404, -89.900, 0.000, 126.600, 0.000, 0.100, -2.900, 0.0, , , , , , 99, , , 65, 65, 65
38.0977278, -120.1812973, 21.300, 12:54:07.722, 17, 0.10, 0.19, 97, 0.100, 0.800, 126.100, 1682, 100, 98, 25, 24236, -17841, 4277, 4410, 6, 14, 1525895647.723, 75, 0, 1024, 1024, 1024, 1024, 0, 6, 4028, 4038, 4051, 4049, 4061, 4037, 0, 1, 12505, -89.900, 0.000, 126.600, 0.000, 0.100, -2.900, 0.0, , , , , , 99, , , 65, 65, 65
38.0977277, -120.1812973, 21.600, 12:54:07.821, 17, 0.10, 0.19, 97, 0.000, 1.000, 126.100, 1682, 100, 98, 25, 24236, -17841, 4277, 4410, 6, 14, 1525895647.822, 64, 0, 1024, 1024, 1024, 1024, 0, 6, 4028, 4038, 4051, 4049, 4061, 4037, 0, 1, 12604, -89.900, 0.000, 126.600, 0.000, 0.100, -2.900, 0.0, , , , , , 99, , , 65, 65, 65
38.0977277, -120.1812972, 21.900, 12:54:07.923, 17, 0.00, 0.19, 97, 0.000, 1.200, 126.000, 1682, 100, 98, 25, 24236, -17841, 4277, 4410, 6, 14, 1525895647.924, 64, 0, 1024, 1024, 1024, 1024, 0, 6, 4028, 4038, 4051, 4049, 4061, 4037, 0, 1, 12706, -89.900, 0.000, 126.600, 0.000, 0.000, -2.900, 0.0, , , , , , 99, , , 65, 65, 65
38.0977276, -120.1812972, 22.200, 12:54:08.022, 17, 0.00, 0.19, 97, 0.000, 1.200, 126.000, 1682, 100, 98, 25, 24236, -17841, 4277, 4410, 6, 14, 1525895648.023, 65, 0, 1024, 1024, 1024, 1024, 0, 6, 4028, 4038, 4051, 4049, 4061, 4037, 0, 1, 12805, -89.900, 0.000, 126.600, 0.000, 0.000, -2.900, 0.0, , , , , , 99, , , 65, 65, 65
38.0977276, -120.1812972, 22.200, 12:54:08.122, 17, 0.00, 0.19, 97, 0.000, 1.200, 126.000, 1682, 100, 98, 25, 24236, -17841, 4277, 4410, 6, 14, 1525895648.123, 165, 0, 1024, 1024, 1024, 1024, 0, 6, 4028, 4038, 4051, 4049, 4061, 4037, 0, 1, 12905, -89.900, 0.000, 126.600, 0.000, 0.000, -2.900, 0.0, , , , , , 99, , , 65, 65, 65
38.0977276, -120.1812971, 22.500, 12:54:08.221, 17, 0.00, 0.19, 97, 0.200, 1.200, 125.900, 1682, 100, 98, 25, 24236, -17841, 4277, 4410, 6, 14, 1525895648.221, 60, 0, 1024, 1024, 1024, 1024, 0, 6, 4028, 4038, 4051, 4049, 4061, 4037, 0, 1, 13004, -89.900, 0.000, 126.600, 0.000, 0.000, -2.900, 0.0, , , , , , 99, , , 65, 65, 65
38.0977275, -120.1812971, 22.800, 12:54:08.324, 17, 0.00, 0.19, 97, 0.200, 1.000, 125.900, 1682, 100, 98, 25, 24236, -17841, 4277, 4410, 6, 14, 1525895648.325, 82, 0, 1024, 1024, 1024, 1024, 0, 6, 4028, 4038, 4051, 4049, 4061, 4037, 0, 1, 13107, -89.900, 0.000, 126.600, 0.000, 0.000, -2.900, 0.0, , , , , , 99, , , 65, 65, 65
38.0977275, -120.1812971, 23.100, 12:54:08.421, 17, 0.00, 0.19, 97, 0.200, 0.800, 125.800, 1682, 100, 98, 25, 24236, -17841, 4277, 4410, 6, 14, 1525895648.422, 45, 0, 1024, 1024, 1024, 1024, 0, 6, 4028, 4038, 4051, 4049, 4061, 4037, 0, 1, 13204, -89.900, 0.000, 126.600, 0.000, 0.000, -2.900, 0.0, , , , , , 99, , , 65, 65, 65
38.0977274, -120.1812971, 23.400, 12:54:08.524, 17, 0.00, 0.19, 97, 0.100, 0.800, 125.800, 1682, 100, 98, 25, 24236, -17841, 4277, 4410, 6, 14, 1525895648.524, 75, 0, 1024, 1024, 1024, 1024, 0, 6, 4028, 4038, 4051, 4049, 4061, 4037, 0, 1, 13306, -89.900, 0.000, 126.600, 0.000, 0.000, -2.900, 0.0, , , , , , 99, , , 65, 65, 65
38.0977274, -120.1812971, 23.700, 12:54:08.621, 17, 0.00, 0.19, 97, 0.300, 0.900, 125.800, 1682, 100, 98, 25, 24236, -17841, 4277, 4410, 6, 14, 1525895648.622, 44, 0, 1024, 1024, 1024, 1024, 0, 6, 4028, 4038, 4051, 4049, 4061, 4037, 0, 1, 13404, -89.900, 0.000, 126.600, 0.000, 0.000, -2.800, 0.0, , , , , , 99, , , 65, 65, 65
38.0977274, -120.1812971, 24.000, 12:54:08.721, 17, 0.00, 0.19, 97, 0.400, 0.700, 125.800, 1682, 100, 98, 25, 24190, -17893, 4277, 4410, 6, 14, 1525895648.723, 29, 0, 1024, 1024, 1024, 1024, 0, 6, 4028, 4038, 4051, 4049, 4061, 4037, 0, 1, 13505, -89.900, 0.000, 126.600, 0.000, 0.000, -2.800, 0.0, , , , , , 99, , , 65, 65, 65
38.0977274, -120.1812971, 24.200, 12:54:08.829, 17, 0.00, 0.19, 97, 0.400, 0.400, 126.000, 1682, 100, 99, 25, 24190, -17893, 4277, 4410, 6, 14, 1525895648.830, 26, 0, 1024, 1024, 1024, 1024, 0, 6, 4023, 4029, 4033, 4028, 4045, 4031, 0, 1, 13612, -89.900, 0.000, 126.600, 0.000, 0.000, -2.900, 0.0, , , , , , 99, , , 65, 65, 65
38.0977274, -120.1812971, 24.200, 12:54:08.922, 17, 0.00, 0.19, 97, 0.400, 0.400, 126.000, 1682, 100, 99, 25, 24190, -17893, 4277, 4410, 6, 14, 1525895648.923, 118, 0, 1024, 1024, 1024, 1024, 0, 6, 4023, 4029, 4033, 4028, 4045, 4031, 0, 1, 13705, -89.900, 0.000, 126.600, 0.000, 0.000, -2.900, 0.0, , , , , , 99, , , 65, 65, 65
38.0977273, -120.1812970, 24.500, 12:54:09.022, 17, 0.00, 0.19, 97, 0.600, 0.600, 126.300, 1682, 100, 99, 25, 24190, -17893, 4277, 4410, 6, 14, 1525895649.022, 63, 0, 1024, 1024, 1024, 1024, 0, 6, 4023, 4029, 4033, 4028, 4045, 4031, 0, 1, 13804, -89.900, 0.000, 126.600, 0.000, 0.000, -2.900, 0.0, , , , , , 99, , , 65, 65, 65
38.0977273, -120.1812970, 24.800, 12:54:09.122, 17, 0.00, 0.19, 97, 0.400, 0.800, 126.500, 1682, 100, 99, 25, 24190, -17893, 4277, 4410, 6, 14, 1525895649.123, 80, 0, 1024, 1024, 1024, 1024, 0, 6, 4023, 4029, 4033, 4028, 4045, 4031, 0, 1, 13905, -89.900, 0.000, 126.600, 0.000, 0.000, -2.900, 0.0, , , , , , 99, , , 65, 65, 65
38.0977273, -120.1812970, 25.100, 12:54:09.220, 17, 0.00, 0.19, 97, 0.100, 1.000, 126.600, 1682, 100, 99, 25, 24190, -17893, 4277, 4410, 6, 14, 1525895649.221, 42, 0, 1024, 1024, 1024, 1024, 0, 6, 4023, 4029, 4033, 4028, 4045, 4031, 0, 1, 14003, -89.900, 0.000, 126.600, 0.000, 0.000, -3.000, 0.0, , , , , , 99, , , 65, 65, 65
38.0977272, -120.1812969, 25.400, 12:54:09.318, 17, 0.00, 0.19, 97, 0.000, 1.200, 126.600, 1682, 100, 99, 25, 24190, -17893, 4277, 4410, 6, 14, 1525895649.319, 80, 0, 1024, 1024, 1024, 1024, 0, 6, 4023, 4029, 4033, 4028, 4045, 4031, 0, 1, 14101, -89.900, 0.000, 126.600, 0.000, 0.000, -2.900, 0.0, , , , , , 99, , , 65, 65, 65
38.0977272, -120.1812969, 26.000, 12:54:09.419, 17, 0.00, 0.19, 97, -0.100, 1.100, 126.500, 1682, 100, 98, 25, 24190, -17893, 4277, 4410, 6, 14, 1525895649.419, 31, 0, 1024, 1024, 1024, 1024, 0, 6, 4023, 4029, 4033, 4028, 4045, 4031, 0, 1, 14201, -89.900, 0.000, 126.600, 0.000, 0.000, -2.900, 0.0, , , , , , 99, , , 65, 65, 65
38.0977272, -120.1812969, 26.300, 12:54:09.519, 17, 0.00, 0.19, 97, -0.100, 0.900, 126.400, 1682, 100, 98, 25, 24190, -17893, 4277, 4410, 6, 14, 1525895649.520, 83, 0, 1024, 1024, 1024, 1024, 0, 6, 4023, 4029, 4033, 4028, 4045, 4031, 0, 1, 14302, -89.900, 0.000, 126.600, 0.000, 0.000, -2.900, 0.0, , , , , , 99, , , 65, 65, 65
38.0977271, -120.1812969, 26.900, 12:54:09.619, 17, 0.00, 0.19, 97, 0.000, 0.400, 126.100, 1682, 100, 98, 25, 24190, -17893, 4277, 4410, 6, 14, 1525895649.620, 5, 0, 1024, 1024, 1024, 1024, 0, 6, 4023, 4029, 4033, 4028, 4045, 4031, 0, 1, 14402, -89.900, 0.000, 126.600, 0.000, 0.000, -3.000, 0.0, , , , , , 99, , , 65, 65, 65
38.0977271, -120.1812969, 27.500, 12:54:09.718, 17, 0.00, 0.19, 97, 0.000, 0.600, 126.000, 1682, 100, 98, 25, 24113, -18424, 4277, 4410, 6, 14, 1525895649.719, 29, 0, 1024, 1024, 1024, 1024, 0, 6, 4009, 4025, 4025, 4017, 4029, 4025, 0, 1, 14501, -89.900, 0.000, 126.600, 0.000, 0.000, -3.000, 0.0, , , , , , 99, , , 65, 65, 65
38.0977271, -120.1812970, 27.800, 12:54:09.819, 17, 0.00, 0.19, 97, 0.000, 0.600, 125.900, 1682, 100, 98, 25, 24113, -18424, 4277, 4410, 6, 14, 1525895649.819, 29, 0, 1024, 1024, 1024, 1024, 0, 6, 4009, 4025, 4025, 4017, 4029, 4025, 0, 1, 14601, -89.900, 0.000, 126.600, 0.000, 0.000, -3.000, 0.0, , , , , , 99, , , 65, 65, 65
38.0977271, -120.1812970, 28.100, 12:54:09.919, 17, 0.00, 0.19, 97, -0.100, 0.600, 125.900, 1682, 100, 98, 25, 24113, -18424, 4277, 4410, 6, 14, 1525895649.919, 31, 0, 1024, 1024, 1024, 1024, 0, 6, 4009, 4025, 4025, 4017, 4029, 4025, 0, 1, 14701, -89.900, 0.000, 126.600, 0.000, 0.000, -3.000, 0.0, , , , , , 99, , , 65, 65, 65
38.0977270, -120.1812970, 28.400, 12:54:10.022, 17, 0.00, 0.19, 97, -0.200, 0.600, 125.900, 1682, 100, 98, 25, 24113, -18424, 4277, 4410, 6, 14, 1525895650.023, 7, 0, 1024, 1024, 1024, 1024, 0, 6, 4009, 4025, 4025, 4017, 4029, 4025, 0, 1, 14805, -89.900, 0.000, 126.600, 0.000, 0.000, -3.000, 0.0, , , , , , 99, , , 65, 65, 65
38.0977270, -120.1812969, 28.700, 12:54:10.130, 17, 0.00, 0.19, 97, -0.300, 0.700, 125.900, 1682, 100, 98, 25, 24113, -18424, 4277, 4410, 6, 14, 1525895650.130, 18, 0, 1024, 1024, 1024, 1024, 0, 6, 4009, 4025, 4025, 4017, 4029, 4025, 0, 1, 14912, -89.900, 0.000, 126.600, 0.000, 0.000, -3.000, 0.0, , , , , , 99, , , 65, 65, 65
38.0977270, -120.1812969, 29.000, 12:54:10.225, 17, 0.00, 0.19, 97, -0.300, 0.900, 125.900, 1682, 100, 98, 25, 24113, -18424, 4277, 4410, 6, 14, 1525895650.226, 15, 0, 1024, 1024, 1024, 1024, 0, 6, 4009, 4025, 4025, 4017, 4029, 4025, 0, 1, 15008, -89.900, 0.000, 126.600, 0.000, 0.000, -3.000, 0.0, , , , , , 99, , , 65, 65, 65
38.0977270, -120.1812969, 29.300, 12:54:10.325, 17, 0.00, 0.19, 97, -0.400, 1.100, 125.900, 1682, 100, 98, 25, 24113, -18424, 4277, 4410, 6, 14, 1525895650.325, 13, 0, 1024, 1024, 1024, 1024, 0, 6, 4009, 4025, 4025, 4017, 4029, 4025, 0, 1, 15107, -89.900, 0.000, 126.600, 0.000, 0.000, -3.000, 0.0, , , , , , 99, , , 65, 65, 65
38.0977270, -120.1812969, 29.600, 12:54:10.424, 17, 0.00, 0.20, 97, -0.200, 1.000, 125.900, 1682, 100, 98, 25, 24113, -18424, 4277, 4410, 6, 14, 1525895650.424, 11, 0, 1024, 1024, 1024, 1024, 0, 6, 4009, 4025, 4025, 4017, 4029, 4025, 0, 1, 15206, -89.900, 0.000, 126.600, 0.000, 0.000, -3.000, 0.0, , , , , , 99, , , 65, 65, 65
38.0977270, -120.1812969, 29.600, 12:54:10.524, 17, 0.00, 0.20, 97, -0.200, 1.000, 125.900, 1682, 100, 98, 25, 24113, -18424, 4277, 4410, 6, 14, 1525895650.525, 112, 0, 1024, 1024, 1024, 1024, 0, 6, 4009, 4025, 4025, 4017, 4029, 4025, 0, 1, 15307, -89.900, 0.000, 126.600, 0.000, 0.000, -3.000, 0.0, , , , , , 99, , , 65, 65, 65
38.0977270, -120.1812968, 29.900, 12:54:10.625, 17, 0.00, 0.20, 97, -0.100, 1.000, 125.900, 1682, 100, 98, 25, 24127, -17993, 4277, 4410, 6, 14, 1525895650.626, 65, 0, 1024, 1024, 1024, 1024, 0, 6, 4009, 4025, 4025, 4017, 4029, 4025, 0, 1, 15408, -89.900, 0.000, 126.600, 0.000, 0.000, -3.000, 0.0, , , , , , 99, , , 65, 65, 65
38.0977270, -120.1812968, 30.200, 12:54:10.724, 17, 0.00, 0.20, 97, 0.100, 1.000, 126.000, 1682, 100, 98, 25, 24127, -17993, 4277, 4410, 6, 14, 1525895650.725, 72, 0, 1024, 1024, 1024, 1024, 0, 6, 4009, 4025, 4025, 4017, 4029, 4025, 0, 1, 15507, -89.900, 0.000, 126.600, 0.000, 0.000, -3.000, 0.0, , , , , , 99, , , 65, 65, 65
38.0977270, -120.1812968, 30.500, 12:54:10.824, 17, 0.00, 0.20, 97, 0.000, 0.900, 126.000, 1682, 100, 98, 25, 24127, -17993, 4277, 4410, 6, 14, 1525895650.824, 82, 0, 1024, 1024, 1024, 1024, 0, 6, 4009, 4025, 4025, 4017, 4029, 4025, 0, 1, 15606, -89.900, 0.000, 126.600, 0.000, 0.000, -3.100, 0.0, , , , , , 99, , , 65, 65, 65
38.0977271, -120.1812969, 30.800, 12:54:10.924, 17, 0.00, 0.19, 97, -0.100, 0.600, 126.000, 1682, 100, 98, 25, 24127, -17993, 4277, 4410, 6, 14, 1525895650.925, 82, 0, 1024, 1024, 1024, 1024, 0, 6, 4014, 4028, 4023, 4022, 4026, 4028, 0, 1, 15707, -90.000, 0.000, 126.600, 0.000, 0.000, -3.000, 0.0, , , , , , 99, , , 65, 65, 65
38.0977271, -120.1812969, 31.100, 12:54:11.026, 17, 0.00, 0.19, 97, 0.000, 0.200, 126.100, 1682, 100, 98, 25, 24127, -17993, 4277, 4410, 6, 14, 1525895651.026, 66, 0, 1024, 1024, 1024, 1024, 0, 6, 4014, 4028, 4023, 4022, 4026, 4028, 0, 1, 15808, -90.000, 0.000, 126.600, 0.000, 0.000, -3.100, 0.0, , , , , , 99, , , 65, 65, 65
38.0977271, -120.1812970, 31.500, 12:54:11.122, 17, 0.00, 0.19, 97, 0.100, 0.100, 126.100, 1682, 100, 98, 25, 24127, -17993, 4277, 4410, 6, 14, 1525895651.123, 50, 0, 1024, 1024, 1024, 1024, 0, 6, 4014, 4028, 4023, 4022, 4026, 4028, 0, 1, 15905, -90.000, 0.000, 126.600, 0.000, 0.000, -3.000, 0.0, , , , , , 99, , , 65, 65, 65
38.0977271, -120.1812970, 31.700, 12:54:11.224, 17, 0.00, 0.18, 97, 0.000, 0.000, 126.100, 1682, 100, 100, 25, 24127, -17993, 4277, 4410, 6, 14, 1525895651.225, 49, 0, 1024, 1024, 1024, 1024, 0, 6, 4014, 4028, 4023, 4022, 4026, 4028, 0, 1, 16007, -90.000, 0.000, 126.600, 0.000, 0.000, -2.900, 0.0, , , , , , 99, , , 65, 65, 65
38.0977271, -120.1812970, 32.000, 12:54:11.322, 17, 0.00, 0.18, 97, -0.100, -0.100, 126.000, 1682, 100, 100, 25, 24127, -17993, 4277, 4410, 6, 14, 1525895651.323, 48, 0, 1024, 1024, 1024, 1024, 0, 6, 4014, 4028, 4023, 4022, 4026, 4028, 0, 1, 16105, -90.000, 0.000, 126.600, 0.000, 0.000, -2.900, 0.0, , , , , , 99, , , 65, 65, 65
38.0977272, -120.1812971, 32.400, 12:54:11.422, 17, 0.00, 0.18, 97, 0.000, -0.200, 126.000, 1682, 100, 100, 25, 24127, -17993, 4277, 4410, 6, 14, 1525895651.423, 53, 0, 1024, 1024, 1024, 1024, 0, 6, 4014, 4028, 4023, 4022, 4026, 4028, 0, 1, 16205, -90.000, 0.000, 126.600, 0.000, 0.000, -3.000, 0.0, , , , , , 99, , , 65, 65, 65
38.0977272, -120.1812971, 32.700, 12:54:11.521, 17, 0.00, 0.18, 97, 0.000, -0.100, 125.900, 1682, 100, 100, 25, 24127, -17993, 4277, 4410, 6, 14, 1525895651.521, 45, 0, 1024, 1024, 1024, 1024, 0, 6, 4014, 4028, 4023, 4022, 4026, 4028, 0, 1, 16304, -90.000, 0.000, 126.600, 0.000, 0.000, -3.000, 0.0, , , , , , 99, , , 65, 65, 65
38.0977272, -120.1812971, 32.700, 12:54:11.621, 17, 0.00, 0.18, 97, 0.000, -0.100, 125.900, 1682, 100, 100, 25, 24127, -17993, 4277, 4410, 6, 14, 1525895651.622, 146, 0, 1024, 1024, 1024, 1024, 0, 6, 4014, 4028, 4023, 4022, 4026, 4028, 0, 1, 16404, -90.000, 0.000, 126.600, 0.000, 0.000, -3.000, 0.0, , , , , , 99, , , 65, 65, 65
38.0977272, -120.1812971, 33.000, 12:54:11.723, 17, 0.00, 0.18, 97, -0.100, 0.000, 125.800, 1682, 100, 100, 25, 24148, -17850, 4277, 4410, 6, 14, 1525895651.724, 97, 0, 1024, 1024, 1024, 1024, 0, 6, 4015, 4036, 4022, 4037, 4020, 4028, 0, 1, 16506, -90.000, 0.000, 126.600, 0.000, 0.000, -2.900, 0.0, , , , , , 99, , , 65, 65, 65
38.0977273, -120.1812971, 33.200, 12:54:11.822, 17, 0.00, 0.18, 97, -0.100, 0.000, 125.800, 1682, 100, 97, 25, 24148, -17850, 4277, 4410, 6, 14, 1525895651.823, 80, 0, 1024, 1024, 1024, 1024, 0, 6, 4015, 4036, 4022, 4037, 4020, 4028, 0, 1, 16605, -89.900, 0.000, 126.600, 0.000, 0.000, -2.800, 0.0, , , , , , 99, , , 65, 65, 65
38.0977273, -120.1812971, 33.800, 12:54:11.924, 17, 0.00, 0.18, 97, -0.200, 0.200, 125.700, 1682, 100, 97, 25, 24148, -17850, 4277, 4410, 6, 14, 1525895651.924, 75, 0, 1024, 1024, 1024, 1024, 0, 6, 4015, 4036, 4022, 4037, 4020, 4028, 0, 1, 16707, -89.900, 0.000, 126.600, 0.000, 0.000, -2.900, 0.0, , , , , , 99, , , 65, 65, 65
38.0977273, -120.1812971, 34.100, 12:54:12.024, 17, 0.00, 0.18, 97, -0.200, 0.300, 125.800, 1682, 100, 97, 25, 24148, -17850, 4277, 4410, 6, 14, 1525895652.025, 80, 0, 1024, 1024, 1024, 1024, 0, 6, 4015, 4036, 4022, 4037, 4020, 4028, 0, 1, 16807, -89.900, 0.000, 126.600, 0.000, 0.000, -3.000, 0.0, , , , , , 99, , , 65, 65, 65
38.0977273, -120.1812971, 34.100, 12:54:12.124, 17, 0.00, 0.18, 97, -0.200, 0.300, 125.800, 1682, 100, 97, 25, 24148, -17850, 4277, 4410, 6, 14, 1525895652.125, 180, 0, 1024, 1024, 1024, 1024, 0, 6, 4015, 4036, 4022, 4037, 4020, 4028, 0, 1, 16907, -89.900, 0.000, 126.600, 0.000, 0.000, -3.000, 0.0, , , , , , 99, , , 65, 65, 65
38.0977273, -120.1812971, 34.700, 12:54:12.219, 17, 0.00, 0.19, 97, -0.200, 0.500, 126.200, 1682, 100, 97, 25, 24148, -17850, 4277, 4410, 6, 14, 1525895652.220, 14, 0, 1024, 1024, 1024, 1024, 0, 6, 4015, 4036, 4022, 4037, 4020, 4028, 0, 1, 17002, -89.900, 0.000, 126.600, 0.000, 0.000, -2.900, 0.0, , , , , , 99, , , 65, 65, 65
38.0977274, -120.1812970, 35.000, 12:54:12.318, 18, 0.00, 0.19, 97, -0.100, 0.500, 126.300, 1682, 100, 96, 25, 24148, -17850, 4277, 4410, 6, 14, 1525895652.320, 10, 0, 1024, 1024, 1024, 1024, 0, 6, 4015, 4036, 4022, 4037, 4020, 4028, 0, 1, 17102, -89.900, 0.000, 126.600, 0.000, 0.000, -2.900, 0.0, , , , , , 99, , , 65, 65, 65
38.0977274, -120.1812969, 35.600, 12:54:12.419, 18, 0.00, 0.20, 97, 0.000, 0.400, 126.300, 1682, 100, 96, 25, 24148, -17850, 4277, 4410, 6, 14, 1525895652.419, 9, 0, 1024, 1024, 1024, 1024, 0, 6, 4015, 4036, 4022, 4037, 4020, 4028, 0, 1, 17201, -89.900, 0.000, 126.600, 0.000, 0.000, -3.000, 0.0, , , , , , 99, , , 65, 65, 65
38.0977274, -120.1812969, 35.600, 12:54:12.519, 18, 0.00, 0.20, 97, 0.000, 0.400, 126.300, 1682, 100, 96, 25, 24148, -17850, 4277, 4410, 6, 14, 1525895652.519, 109, 0, 1024, 1024, 1024, 1024, 0, 6, 4015, 4036, 4022, 4037, 4020, 4028, 0, 1, 17302, -89.900, 0.000, 126.600, 0.000, 0.000, -3.000, 0.0, , , , , , 99, , , 65, 65, 65
38.0977275, -120.1812968, 36.200, 12:54:12.618, 18, 0.00, 0.21, 97, -0.300, 0.700, 126.100, 1682, 100, 95, 25, 24075, -17848, 4277, 4410, 6, 14, 1525895652.621, 12, 0, 1024, 1024, 1024, 1024, 0, 6, 4015, 4036, 4022, 4037, 4020, 4028, 0, 1, 17403, -89.900, 0.000, 126.600, 0.000, 0.000, -3.000, 0.0, , , , , , 99, , , 65, 65, 65
38.0977275, -120.1812968, 36.200, 12:54:12.718, 18, 0.00, 0.21, 97, -0.300, 0.700, 126.100, 1682, 100, 95, 25, 24075, -17848, 4277, 4410, 6, 14, 1525895652.719, 111, 0, 1024, 1024, 1024, 1024, 0, 6, 4015, 4036, 4022, 4037, 4020, 4028, 0, 1, 17502, -89.900, 0.000, 126.600, 0.000, 0.000, -3.000, 0.0, , , , , , 99, , , 65, 65, 65
38.0977275, -120.1812967, 36.500, 12:54:12.819, 18, 0.00, 0.22, 97, 0.300, 1.000, 126.000, 1682, 100, 95, 25, 24075, -17848, 4277, 4410, 6, 14, 1525895652.819, 72, 0, 1024, 1024, 1024, 1024, 0, 6, 4015, 4036, 4022, 4037, 4020, 4028, 0, 1, 17601, -89.900, 0.000, 126.600, 0.000, 0.000, -3.000, 0.0, , , , , , 99, , , 65, 65, 65
38.0977275, -120.1812967, 36.900, 12:54:12.919, 18, 0.00, 0.22, 97, 1.400, 1.100, 126.000, 1682, 100, 95, 25, 24075, -17848, 4277, 4410, 6, 14, 1525895652.920, 80, 0, 1024, 1024, 1024, 1024, 0, 6, 4015, 4036, 4022, 4037, 4020, 4028, 0, 1, 17702, -89.900, 0.000, 126.600, 0.000, 0.000, -3.000, 0.0, , , , , , 99, , , 65, 65, 65
38.0977275, -120.1812966, 37.200, 12:54:13.019, 18, 0.00, 0.23, 97, 1.600, 0.900, 125.900, 1682, 100, 95, 25, 24075, -17848, 4277, 4410, 6, 14, 1525895653.020, 80, 0, 1024, 1024, 1024, 1024, 0, 6, 4015, 4036, 4022, 4037, 4020, 4028, 0, 1, 17802, -89.900, 0.000, 126.600, 0.000, 0.000, -3.000, 0.0, , , , , , 99, , , 65, 65, 65
38.0977276, -120.1812966, 37.500, 12:54:13.118, 18, 0.00, 0.24, 97, 1.100, 0.900, 125.900, 1682, 100, 95, 25, 24075, -17848, 4277, 4410, 6, 14, 1525895653.119, 66, 0, 1024, 1024, 1024, 1024, 0, 6, 4004, 4010, 4015, 4018, 4013, 4018, 0, 1, 17901, -89.900, 0.000, 126.600, 0.000, 0.000, -2.900, 0.0, , , , , , 99, , , 65, 65, 65
38.0977276, -120.1812965, 37.800, 12:54:13.223, 18, 0.00, 0.24, 97, 0.700, 1.000, 126.000, 1682, 100, 96, 25, 24075, -17848, 4277, 4410, 6, 14, 1525895653.224, 69, 0, 1024, 1024, 1024, 1024, 0, 6, 4004, 4010, 4015, 4018, 4013, 4018, 0, 1, 18006, -89.900, 0.000, 126.600, 0.000, 0.000, -2.900, 0.0, , , , , , 99, , , 65, 65, 65
38.0977276, -120.1812965, 38.100, 12:54:13.319, 18, 0.00, 0.24, 97, 0.500, 0.900, 126.100, 1682, 100, 96, 25, 24075, -17848, 4277, 4410, 6, 14, 1525895653.319, 66, 0, 1024, 1024, 1024, 1024, 0, 6, 4004, 4010, 4015, 4018, 4013, 4018, 0, 1, 18102, -89.900, 0.000, 126.600, 0.000, 0.000, -2.900, 0.0, , , , , , 99, , , 65, 65, 65
38.0977276, -120.1812964, 38.400, 12:54:13.419, 18, 0.00, 0.25, 97, 0.500, 1.000, 126.300, 1682, 100, 96, 25, 24075, -17848, 4277, 4410, 6, 14, 1525895653.419, 58, 0, 1024, 1024, 1024, 1024, 0, 6, 4004, 4010, 4015, 4018, 4013, 4018, 0, 1, 18201, -89.900, 0.000, 126.600, 0.000, 0.000, -2.900, 0.0, , , , , , 99, , , 65, 65, 65
38.0977276, -120.1812964, 38.400, 12:54:13.519, 18, 0.00, 0.25, 97, 0.500, 1.000, 126.300, 1682, 100, 96, 25, 24075, -17848, 4277, 4410, 6, 14, 1525895653.519, 158, 0, 1024, 1024, 1024, 1024, 0, 6, 4004, 4010, 4015, 4018, 4013, 4018, 0, 1, 18302, -89.900, 0.000, 126.600, 0.000, 0.000, -2.900, 0.0, , , , , , 99, , , 65, 65, 65
38.0977276, -120.1812964, 39.000, 12:54:13.619, 18, 0.00, 0.25, 97, 0.700, 1.000, 126.200, 1682, 100, 96, 25, 24075, -17848, 4277, 4410, 6, 14, 1525895653.620, 46, 0, 1024, 1024, 1024, 1024, 0, 6, 4004, 4010, 4015, 4018, 4013, 4018, 0, 1, 18402, -89.900, 0.000, 126.600, 0.000, 0.000, -2.900, 0.0, , , , , , 99, , , 65, 65, 65
38.0977276, -120.1812964, 39.300, 12:54:13.718, 18, 0.00, 0.25, 97, 0.400, 0.800, 126.100, 1682, 100, 91, 25, 24075, -17848, 4277, 4410, 6, 14, 1525895653.719, 63, 0, 1024, 1024, 1024, 1024, 0, 6, 4004, 4010, 4015, 4018, 4013, 4018, 0, 1, 18501, -89.900, 0.000, 126.600, 0.000, 0.000, -2.900, 0.0, , , , , , 99, , , 65, 65, 65
38.0977276, -120.1812964, 39.600, 12:54:13.819, 18, 0.00, 0.25, 97, 0.300, 0.600, 126.100, 1682, 100, 91, 25, 24075, -17848, 4277, 4410, 6, 14, 1525895653.819, 42, 0, 1024, 1024, 1024, 1024, 0, 6, 4004, 4010, 4015, 4018, 4013, 4018, 0, 1, 18601, -90.000, 0.000, 126.600, 0.000, 0.000, -2.900, 0.0, , , , , , 99, , , 65, 65, 65
38.0977276, -120.1812964, 39.800, 12:54:13.919, 18, 0.00, 0.25, 97, 0.200, 0.500, 126.000, 1682, 100, 91, 25, 24075, -17848, 4277, 4410, 6, 14, 1525895653.919, 33, 0, 1024, 1024, 1024, 1024, 0, 6, 4004, 4010, 4015, 4018, 4013, 4018, 0, 1, 18702, -89.900, 0.000, 126.600, 0.000, 0.000, -2.900, 0.0, , , , , , 99, , , 65, 65, 65
38.0977276, -120.1812964, 40.400, 12:54:14.019, 18, 0.00, 0.25, 97, 0.100, 0.800, 125.900, 1682, 100, 91, 25, 24075, -17848, 4277, 4410, 6, 14, 1525895654.020, 32, 0, 1024, 1024, 1024, 1024, 0, 6, 4004, 4010, 4015, 4018, 4013, 4018, 0, 1, 18802, -89.900, 0.000, 126.600, 0.000, 0.000, -3.000, 0.0, , , , , , 99, , , 65, 65, 65
38.0977276, -120.1812964, 40.400, 12:54:14.121, 18, 0.00, 0.25, 96, 0.100, 0.800, 125.900, 1682, 100, 91, 25, 24069, -17982, 4233, 4410, 6, 14, 1525895654.121, 134, 0, 1024, 1024, 1024, 1024, 0, 6, 4004, 4010, 4015, 4018, 4013, 4018, 0, 1, 18904, -89.900, 0.000, 126.600, 0.000, 0.000, -3.000, 0.0, , , , , , 99, , , 65, 65, 65
38.0977276, -120.1812964, 40.700, 12:54:14.219, 18, 0.00, 0.25, 96, 0.300, 0.900, 126.000, 1682, 100, 90, 25, 24069, -17982, 4233, 4410, 6, 14, 1525895654.220, 79, 0, 1024, 1024, 1024, 1024, 0, 6, 4003, 4011, 4013, 4018, 4009, 4015, 0, 1, 19002, -89.900, 0.000, 126.600, 0.000, 0.000, -3.000, 0.0, , , , , , 99, , , 65, 65, 65
38.0977276, -120.1812963, 41.400, 12:54:14.319, 18, 0.00, 0.25, 96, 0.500, 1.200, 126.200, 1682, 100, 90, 25, 24069, -17982, 4233, 4410, 6, 14, 1525895654.320, 39, 0, 1024, 1024, 1024, 1024, 0, 6, 4003, 4011, 4013, 4018, 4009, 4015, 0, 1, 19102, -89.900, 0.000, 126.600, 0.000, 0.000, -2.900, 0.0, , , , , , 99, , , 65, 65, 65
38.0977276, -120.1812963, 41.700, 12:54:14.419, 18, 0.00, 0.26, 96, 0.500, 1.100, 126.100, 1682, 100, 90, 25, 24069, -17982, 4233, 4410, 6, 14, 1525895654.419, 28, 0, 1024, 1024, 1024, 1024, 0, 6, 4003, 4011, 4013, 4018, 4009, 4015, 0, 1, 19201, -89.900, 0.000, 126.600, 0.000, 0.000, -3.000, 0.0, , , , , , 99, , , 65, 65, 65
38.0977276, -120.1812963, 42.000, 12:54:14.518, 18, 0.00, 0.26, 96, 0.400, 1.000, 126.100, 1682, 100, 90, 25, 24069, -17982, 4233, 4410, 6, 14, 1525895654.519, 14, 0, 1024, 1024, 1024, 1024, 0, 6, 4003, 4011, 4013, 4018, 4009, 4015, 0, 1, 19301, -89.900, 0.000, 126.600, 0.000, 0.000, -3.000, 0.0, , , , , , 99, , , 65, 65, 65
38.0977276, -120.1812963, 42.300, 12:54:14.619, 18, 0.00, 0.26, 96, 0.300, 1.000, 126.000, 1682, 100, 90, 25, 24069, -17982, 4233, 4410, 6, 14, 1525895654.620, 4, 0, 1024, 1024, 1024, 1024, 0, 6, 4003, 4011, 4013, 4018, 4009, 4015, 0, 1, 19402, -89.900, 0.000, 126.600, 0.000, 0.000, -2.900, 0.0, , , , , , 99, , , 65, 65, 65
38.0977276, -120.1812963, 42.600, 12:54:14.718, 18, 0.00, 0.26, 96, 0.400, 0.900, 126.000, 1682, 100, 88, 25, 24069, -17982, 4233, 4410, 6, 14, 1525895654.719, 12, 0, 1024, 1024, 1024, 1024, 0, 6, 4003, 4011, 4013, 4018, 4009, 4015, 0, 1, 19501, -89.900, 0.000, 126.600, 0.000, 0.000, -2.900, 0.0, , , , , , 99, , , 65, 65, 65
38.0977276, -120.1812963, 42.600, 12:54:14.819, 18, 0.00, 0.26, 96, 0.400, 0.900, 126.000, 1682, 100, 88, 25, 24069, -17982, 4233, 4410, 6, 14, 1525895654.820, 114, 0, 1024, 1024, 1024, 1024, 0, 6, 4003, 4011, 4013, 4018, 4009, 4015, 0, 1, 19602, -89.900, 0.000, 126.600, 0.000, 0.000, -2.900, 0.0, , , , , , 99, , , 65, 65, 65
38.0977275, -120.1812963, 42.900, 12:54:14.919, 18, 0.00, 0.26, 96, 0.300, 1.100, 126.100, 1682, 100, 88, 25, 24069, -17982, 4233, 4410, 6, 14, 1525895654.919, 90, 0, 1024, 1024, 1024, 1024, 0, 6, 4003, 4011, 4013, 4018, 4009, 4015, 0, 1, 19701, -89.900, 0.000, 126.600, 0.000, 0.000, -2.900, 0.0, , , , , , 99, , , 65, 65, 65
38.0977275, -120.1812963, 43.500, 12:54:15.018, 18, 0.00, 0.25, 96, 0.000, 1.000, 126.300, 1682, 100, 88, 25, 24069, -17982, 4233, 4410, 6, 14, 1525895655.019, 11, 0, 1024, 1024, 1024, 1024, 0, 6, 4003, 4011, 4013, 4018, 4009, 4015, 0, 1, 19801, -89.900, 0.000, 126.600, 0.000, 0.000, -3.000, 0.0, , , , , , 99, , , 65, 65, 65
38.0977275, -120.1812963, 43.800, 12:54:15.141, 18, 0.00, 0.25, 96, 0.200, 0.900, 126.300, 1682, 100, 88, 25, 24052, -18286, 4233, 4410, 6, 14, 1525895655.142, 8, 0, 1024, 1024, 1024, 1024, 0, 6, 4003, 4011, 4013, 4018, 4009, 4015, 0, 1, 19924, -89.900, 0.000, 126.600, 0.000, 0.000, -3.000, 0.0, , , , , , 99, , , 65, 65, 65
38.0977275, -120.1812963, 44.100, 12:54:15.219, 18, 0.00, 0.26, 96, 0.500, 0.900, 126.200, 1682, 100, 90, 25, 24052, -18286, 4233, 4410, 6, 14, 1525895655.219, 7, 0, 1024, 1024, 1024, 1024, 0, 6, 3996, 4007, 4013, 4010, 4014, 4012, 0, 1, 20001, -89.900, 0.000, 126.600, 0.000, 0.000, -3.000, 0.0, , , , , , 99, , , 65, 65, 65
38.0977275, -120.1812963, 44.100, 12:54:15.319, 18, 0.00, 0.26, 96, 0.500, 0.900, 126.200, 1682, 100, 90, 25, 24052, -18286, 4233, 4410, 6, 14, 1525895655.319, 107, 0, 1024, 1024, 1024, 1024, 0, 6, 3996, 4007, 4013, 4010, 4014, 4012, 0, 1, 20102, -89.900, 0.000, 126.600, 0.000, 0.000, -3.000, 0.0, , , , , , 99, , , 65, 65, 65
38.0977275, -120.1812963, 44.400, 12:54:15.419, 18, 0.00, 0.26, 96, 0.600, 1.000, 126.100, 1682, 100, 90, 25, 24052, -18286, 4233, 4410, 6, 14, 1525895655.420, 88, 0, 1024, 1024, 1024, 1024, 0, 6, 3996, 4007, 4013, 4010, 4014, 4012, 0, 1, 20202, -89.900, 0.000, 126.600, 0.000, 0.000, -2.900, 0.0, , , , , , 99, , , 65, 65, 65
38.0977276, -120.1812962, 44.700, 12:54:15.519, 18, 0.00, 0.26, 96, 0.700, 1.000, 126.100, 1682, 100, 90, 25, 24052, -18286, 4233, 4410, 6, 14, 1525895655.519, 87, 0, 1024, 1024, 1024, 1024, 0, 6, 3996, 4007, 4013, 4010, 4014, 4012, 0, 1, 20302, -89.900, 0.000, 126.600, 0.000, 0.000, -2.900, 0.0, , , , , , 99, , , 65, 65, 65
38.0977276, -120.1812962, 45.000, 12:54:15.619, 18, 0.00, 0.26, 96, 0.900, 1.000, 126.100, 1682, 100, 90, 25, 24052, -18286, 4233, 4410, 6, 14, 1525895655.620, 97, 0, 1024, 1024, 1024, 1024, 0, 6, 3996, 4007, 4013, 4010, 4014, 4012, 0, 1, 20402, -89.900, 0.000, 126.600, 0.000, 0.000, -2.900, 0.0, , , , , , 99, , , 65, 65, 65
38.0977276, -120.1812962, 45.300, 12:54:15.719, 18, 0.00, 0.26, 96, 0.800, 1.100, 126.200, 1682, 100, 91, 25, 24052, -18286, 4233, 4410, 6, 14, 1525895655.719, 53, 0, 1024, 1024, 1024, 1024, 0, 6, 3996, 4007, 4013, 4010, 4014, 4012, 0, 1, 20501, -89.900, 0.000, 126.600, 0.000, 0.000, -3.000, 0.0, , , , , , 99, , , 65, 65, 65
38.0977276, -120.1812962, 45.600, 12:54:15.818, 18, 0.00, 0.26, 96, 0.700, 1.100, 126.300, 1682, 100, 91, 25, 24052, -18286, 4233, 4410, 6, 14, 1525895655.819, 79, 0, 1024, 1024, 1024, 1024, 0, 6, 3996, 4007, 4013, 4010, 4014, 4012, 0, 1, 20601, -89.900, 0.000, 126.600, 0.000, 0.000, -3.000, 0.0, , , , , , 99, , , 65, 65, 65
38.0977276, -120.1812962, 45.600, 12:54:15.919, 18, 0.00, 0.26, 96, 0.700, 1.100, 126.300, 1682, 100, 91, 25, 24052, -18286, 4233, 4410, 6, 14, 1525895655.919, 179, 0, 1024, 1024, 1024, 1024, 0, 6, 3996, 4007, 4013, 4010, 4014, 4012, 0, 1, 20701, -89.900, 0.000, 126.600, 0.000, 0.000, -3.000, 0.0, , , , , , 99, , , 65, 65, 65
38.0977276, -120.1812962, 46.200, 12:54:16.019, 18, 0.00, 0.26, 96, 0.500, 0.900, 126.300, 1682, 100, 91, 25, 24052, -18286, 4233, 4410, 6, 14, 1525895656.020, 47, 0, 1024, 1024, 1024, 1024, 0, 6, 3996, 4007, 4013, 4010, 4014, 4012, 0, 1, 20802, -89.900, 0.000, 126.600, 0.000, 0.000, -2.900, 0.0, , , , , , 99, , , 65, 65, 65
38.0977276, -120.1812962, 46.500, 12:54:16.118, 18, 0.00, 0.26, 96, 0.500, 0.800, 126.200, 1682, 100, 91, 25, 24077, -17452, 4233, 4410, 6, 14, 1525895656.119, 60, 0, 1024, 1024, 1024, 1024, 0, 6, 4004, 4017, 4015, 4012, 4023, 4007, 0, 1, 20901, -89.900, 0.000, 126.600, 0.000, 0.000, -2.800, 0.0, , , , , , 99, , , 65, 65, 65
