latitude,longitude,altitude(feet),ascent(feet),speed(mph),distance(feet),time(millisecond),datetime(utc),satellites,gpslevel,voltage(v),max_altitude(feet),max_ascent(feet),max_speed(mph),max_distance(feet), xSpeed(mph), ySpeed(mph), zSpeed(mph), compass_heading(degrees), pitch(degrees), roll(degrees),isPhoto,isVideo,rc_elevator,rc_aileron,rc_throttle,rc_rudder,gimbal_heading(degrees),gimbal_pitch(degrees),battery_percent,voltageCell1,voltageCell2,voltageCell3,voltageCell4,voltageCell5,voltageCell6,current(A),battery_temperature(f),flycStateRaw,flycState,message
38.0977264,-120.1812986,4238.7219279619,0,0.223694,0,3020,2018-05-09 19:53:58,17,0,25.675,4238.7219279619,0,0.223694,0,0,0,0,125.8, -0.4, -0.9,1,0,1024,1024,1024,1024,126.6,-89.9,98,4.274,4.306,4.297,4.29,4.281,4.269,3.831,75.2,11,AutoTakeoff,DJI_0685.jpg Starting Mission from Lat/Long: 38.09772/-120.18130 Camera: Zenmuse X3 - Overlap: 90/90 - Active Connection: No
38.0977264,-120.1812984,4238.7219279619,0,0.223694,0.057424214436,3100,2018-05-09 19:53:58,17,0,25.675,4238.7219279619,0,0.223694,0.057424214436,0,0,0,125.6, 0.1, -0.5,0,0,1024,1024,1024,1024,126.6,-89.9,98,4.274,4.306,4.297,4.29,4.281,4.269,3.831,75.2,11,AutoTakeoff,
38.0977264,-120.1812982,4238.7219279619,0,0.447388,0.114848756956,3200,2018-05-09 19:53:58,17,0,25.675,4238.7219279619,0,0.447388,0.114848756956,0,0,0,125.6, 0.7, 0.2,0,0,1024,1024,1024,1024,126.6,-89.9,98,4.274,4.306,4.297,4.29,4.281,4.269,3.831,75.2,11,AutoTakeoff,
38.0977265,-120.181298,4239.0500119619,0.328084,0.447388,0.17609416574,3300,2018-05-09 19:53:59,17,0,25.675,4239.0500119619,0.328084,0.447388,0.17609416574,0,0,0,125.7, 1.2, 0.7,0,0,1024,1024,1024,1024,126.6,-89.9,98,4.274,4.306,4.297,4.29,4.281,4.269,3.831,75.2,11,AutoTakeoff,
38.0977265,-120.1812977,4239.0500119619,0.328084,0.447388,0.260972449296,3400,2018-05-09 19:53:59,17,0,25.675,4239.0500119619,0.328084,0.447388,0.260972449296,0,0,0,125.9, 1.7, 1.2,0,0,1024,1024,1024,1024,126.6,-89.9,98,4.274,4.306,4.297,4.29,4.281,4.269,3.831,75.2,11,AutoTakeoff,
38.0977266,-120.1812975,4239.3780959619,0.656168,0.3131716,0.324153881764,3510,2018-05-09 19:53:59,16,0,25.675,4239.3780959619,0.656168,0.447388,0.324153881764,0,0,0,126, 1.9, 1.8,0,0,1024,1024,1024,1024,126.6,-89.9,98,4.274,4.306,4.297,4.29,4.281,4.269,3.831,75.2,11,AutoTakeoff,
38.0977266,-120.1812973,4239.3780959619,0.656168,0.3131716,0.38032481532,3600,2018-05-09 19:53:59,16,0,25.675,4239.3780959619,0.656168,0.447388,0.38032481532,0,0,0,126, 1.6, 2.1,0,0,1024,1024,1024,1024,126.6,-89.9,98,4.274,4.306,4.297,4.29,4.281,4.269,3.831,75.2,11,AutoTakeoff,
38.0977267,-120.1812971,4239.7061799619,0.984252,0.3131716,0.4443733738,3700,2018-05-09 19:53:59,17,0,25.675,4239.7061799619,0.984252,0.447388,0.4443733738,0,0,0,126.2, 0.9, 2.2,0,0,1024,1024,1024,1024,126.6,-90,98,4.274,4.306,4.297,4.29,4.281,4.269,3.831,75.2,11,AutoTakeoff,
38.0977268,-120.1812969,4240.0342639619,1.312336,0,0.50945867772,3810,2018-05-09 19:53:59,17,0,25.675,4240.0342639619,1.312336,0.447388,0.50945867772,0,0,0,126.4, 0.1, 2.1,0,0,1024,1024,1024,1024,126.6,-90,98,4.274,4.306,4.297,4.29,4.281,4.269,3.831,75.2,11,AutoTakeoff,
38.0977269,-120.1812969,4240.0342639619,1.312336,0,0.52108269384,3900,2018-05-09 19:53:59,17,0,25.675,4240.0342639619,1.312336,0.447388,0.52108269384,0,0,0,126.4, 0, 1.7,0,0,1024,1024,1024,1024,126.6,-90,98,4.274,4.306,4.297,4.29,4.281,4.269,3.831,75.2,11,AutoTakeoff,
38.0977271,-120.1812966,4240.3623479619,1.64042,0,0.62847442956,4100,2018-05-09 19:53:59,14,0,25.675,4240.3623479619,1.64042,0.447388,0.62847442956,0,0,0,126.3, 0, 1.8,0,0,1024,1024,1024,1024,126.6,-89.9,98,4.274,4.306,4.297,4.29,4.281,4.269,3.831,75.2,11,AutoTakeoff,
38.0977274,-120.1812963,4241.0185159619,2.296588,0,0.75446524724,4610,2018-05-09 19:54:00,13,0,25.675,4241.0185159619,2.296588,0.447388,0.75446524724,0,0,0,126, -0.1, 1.7,0,0,1024,1024,1024,1024,126.6,-90,98,4.274,4.306,4.297,4.29,4.281,4.269,3.831,75.2,11,AutoTakeoff,
38.0977275,-120.1812963,4241.3465999619,2.624672,0,0.7727690536,4710,2018-05-09 19:54:00,15,0,25.675,4241.3465999619,2.624672,0.447388,0.7727690536,0,0,0,126, -0.2, 1.8,0,0,1024,1024,1024,1024,126.6,-89.9,98,4.274,4.306,4.297,4.29,4.281,4.269,3.831,75.2,11,AutoTakeoff,
38.0977276,-120.1812963,4241.3465999619,2.624672,0,0.79232942168,4810,2018-05-09 19:54:00,15,0,25.675,4241.3465999619,2.624672,0.447388,0.79232942168,0,0,-0.223694,125.9, -0.1, 1.8,0,0,1024,1024,1024,1024,126.6,-90,98,4.274,4.306,4.297,4.29,4.281,4.269,3.831,75.2,11,AutoTakeoff,
38.0977277,-120.1812963,4241.6746839619,2.952756,0,0.81306104964,5000,2018-05-09 19:54:00,15,0,24.835,4241.6746839619,2.952756,0.447388,0.81306104964,0,0,0,126, -0.2, 1.9,0,0,1024,1024,1024,1024,126.6,-89.9,98,4.133,4.14,4.149,4.136,4.129,4.129,14.454,75.2,6,P-GPS,
38.097728,-120.1812966,4241.6746839619,2.952756,0,0.81885829392,5100,2018-05-09 19:54:00,16,0,24.835,4241.6746839619,2.952756,0.447388,0.81885829392,0,0,0,126.1, -0.7, 1.8,0,0,1024,1024,1024,1024,126.6,-90,98,4.133,4.14,4.149,4.136,4.129,4.129,14.454,75.2,14,Waypoint,
38.0977281,-120.1812966,4242.0027679619,3.28084,0,0.84525593256,5200,2018-05-09 19:54:00,16,0,24.835,4242.0027679619,3.28084,0.447388,0.84525593256,0,0,0,126.1, -0.8, 1.5,0,0,1024,1024,1024,1024,126.6,-90,98,4.133,4.14,4.149,4.136,4.129,4.129,14.454,75.2,14,Waypoint,
38.0977281,-120.1812967,4242.0027679619,3.28084,0,0.8260170868,5300,2018-05-09 19:54:01,15,0,24.835,4242.0027679619,3.28084,0.447388,0.84525593256,0,0,0,126.1, -0.7, 1.3,0,0,1024,1024,1024,1024,126.6,-89.9,98,4.133,4.14,4.149,4.136,4.129,4.129,14.454,75.2,14,Waypoint,
38.0977282,-120.1812967,4242.3308519619,3.608924,0,0.85375330816,5400,2018-05-09 19:54:01,15,0,24.835,4242.3308519619,3.608924,0.447388,0.85375330816,0,0,0,126.1, -0.5, 1.1,0,0,1024,1024,1024,1024,126.6,-89.9,98,4.133,4.14,4.149,4.136,4.129,4.129,14.454,75.2,14,Waypoint,
38.0977282,-120.1812968,4242.3308519619,3.608924,0,0.83569884564,5500,2018-05-09 19:54:01,15,0,24.835,4242.3308519619,3.608924,0.447388,0.85375330816,0,0,-0.223694,126.1, -0.3, 0.9,0,0,1024,1024,1024,1024,126.6,-89.9,98,4.133,4.14,4.149,4.136,4.129,4.129,14.454,75.2,14,Waypoint,
38.0977282,-120.1812968,4242.6589359619,3.937008,0,0.83569884564,5600,2018-05-09 19:54:01,15,0,24.835,4242.6589359619,3.937008,0.447388,0.85375330816,0,0,-0.223694,126, -0.3, 0.9,0,0,1024,1024,1024,1024,126.6,-89.9,98,4.133,4.14,4.149,4.136,4.129,4.129,14.454,75.2,14,Waypoint,
38.0977283,-120.1812968,4242.9870199619,4.265092,0,0.864665382,5700,2018-05-09 19:54:01,15,0,24.835,4242.9870199619,4.265092,0.447388,0.864665382,0,0,-0.223694,126.1, -0.3, 1,0,0,1024,1024,1024,1024,126.6,-89.9,98,4.133,4.14,4.149,4.136,4.129,4.129,14.454,75.2,14,Waypoint,
38.0977284,-120.1812968,4243.3151039619,4.593176,0,0.89418309948,5800,2018-05-09 19:54:01,15,0,24.835,4243.3151039619,4.593176,0.447388,0.89418309948,0,0,-0.223694,126.1, -0.4, 1.3,0,0,1024,1024,1024,1024,126.6,-89.9,98,4.133,4.14,4.149,4.136,4.129,4.129,14.454,75.2,14,Waypoint,
38.0977284,-120.1812967,4243.6431879619,4.92126,0,0.91107942548,5910,2018-05-09 19:54:01,14,0,24.835,4243.6431879619,4.92126,0.447388,0.91107942548,0,0,-0.223694,126.1, -0.4, 1.6,0,0,1024,1024,1024,1024,126.6,-89.9,98,4.133,4.14,4.149,4.136,4.129,4.129,14.454,75.2,14,Waypoint,
38.0977284,-120.1812967,4243.9712719619,5.249344,0,0.91107942548,6000,2018-05-09 19:54:01,14,0,24.682,4243.9712719619,5.249344,0.447388,0.91107942548,0,0,-0.223694,126.2, -0.3, 1.6,0,0,1024,1024,1024,1024,126.6,-89.9,98,4.109,4.112,4.122,4.11,4.114,4.112,15.719,75.2,14,Waypoint,
38.0977284,-120.1812968,4244.6274399619,5.905512,0,0.89418309948,6110,2018-05-09 19:54:01,16,0,24.682,4244.6274399619,5.905512,0.447388,0.91107942548,0,0,-0.447388,126.2, -0.3, 1.6,0,0,1024,1024,1024,1024,126.6,-89.9,98,4.109,4.112,4.122,4.11,4.114,4.112,15.719,75.2,14,Waypoint,
38.0977284,-120.1812969,4245.2836079619,6.56168,0,0.87790029056,6210,2018-05-09 19:54:01,16,0,24.682,4245.2836079619,6.56168,0.447388,0.91107942548,0,0,-0.447388,126.2, -0.3, 1.4,0,0,1024,1024,1024,1024,126.6,-89.9,98,4.109,4.112,4.122,4.11,4.114,4.112,15.719,75.2,14,Waypoint,
38.0977284,-120.1812969,4245.9397759619,7.217848,0,0.87790029056,6300,2018-05-09 19:54:02,17,0,24.682,4245.9397759619,7.217848,0.447388,0.91107942548,0,0,-0.447388,126.2, -0.3, 1.1,0,0,1024,1024,1024,1024,126.6,-89.9,98,4.109,4.112,4.122,4.11,4.114,4.112,15.719,75.2,14,Waypoint,
38.0977284,-120.1812969,4246.5959439619,7.874016,0,0.87790029056,6410,2018-05-09 19:54:02,17,0,24.682,4246.5959439619,7.874016,0.447388,0.91107942548,0,0,-0.447388,126.3, -0.1, 0.8,0,0,1024,1024,1024,1024,126.6,-89.9,98,4.109,4.112,4.122,4.11,4.114,4.112,15.719,75.2,14,Waypoint,
38.0977283,-120.181297,4247.5801959619,8.858268,0,0.83161748068,6510,2018-05-09 19:54:02,16,0,24.682,4247.5801959619,8.858268,0.447388,0.91107942548,0,0,-0.671082,126.4, -0.1, 0.7,0,0,1024,1024,1024,1024,126.6,-89.9,98,4.109,4.112,4.122,4.11,4.114,4.112,15.719,75.2,14,Waypoint,
38.0977282,-120.181297,4248.5644479619,9.84252,0,0.8014599994,6610,2018-05-09 19:54:02,16,0,24.682,4248.5644479619,9.84252,0.447388,0.91107942548,0,0,-0.671082,126.4, 0, 0.5,0,0,1024,1024,1024,1024,126.6,-89.9,98,4.109,4.112,4.122,4.11,4.114,4.112,15.719,75.2,14,Waypoint,
38.097728,-120.1812971,4250.5329519619,11.811024,0,0.72543965576,6710,2018-05-09 19:54:02,16,0,24.682,4250.5329519619,11.811024,0.447388,0.91107942548,0,0,-0.671082,126.4, -0.1, 0,0,0,1024,1024,1024,1024,126.6,-90,98,4.109,4.112,4.122,4.11,4.114,4.112,15.719,75.2,14,Waypoint,
38.0977279,-120.1812971,4251.5172039619,12.795276,0,0.69641734512,6800,2018-05-09 19:54:02,17,0,24.682,4251.5172039619,12.795276,0.447388,0.91107942548,0,0,-0.671082,126.3, 0, -0.2,0,0,1024,1024,1024,1024,126.6,-89.9,98,4.109,4.112,4.122,4.11,4.114,4.112,15.719,75.2,14,Waypoint,
38.0977278,-120.181297,4252.5014559619,13.779528,0,0.68698493012,6920,2018-05-09 19:54:02,17,0,24.682,4252.5014559619,13.779528,0.447388,0.91107942548,0,0,-0.671082,126.2, 0.2, 0,0,0,1024,1024,1024,1024,126.6,-89.9,98,4.109,4.112,4.122,4.11,4.114,4.112,15.719,75.2,14,Waypoint,
38.0977277,-120.181297,4253.4857079619,14.76378,0,0.66030842008,7010,2018-05-09 19:54:02,15,0,24.519,4253.4857079619,14.76378,0.447388,0.91107942548,0,0,-0.671082,126, 0.4, 0,0,0,1024,1024,1024,1024,126.6,-89.9,98,4.07,4.063,4.112,4.058,4.091,4.053,16.751,75.2,14,Waypoint,
38.0977277,-120.181297,4254.7980439619,16.076116,0,0.66030842008,7110,2018-05-09 19:54:02,15,0,24.519,4254.7980439619,16.076116,0.447388,0.91107942548,0,0,-0.671082,126, 0.5, 0,0,0,1024,1024,1024,1024,126.6,-89.9,98,4.07,4.063,4.112,4.058,4.091,4.053,16.751,75.2,14,Waypoint,
38.0977277,-120.1812971,4255.7822959619,17.060368,0,0.640666031,7210,2018-05-09 19:54:02,15,0,24.519,4255.7822959619,17.060368,0.447388,0.91107942548,0,0,-0.671082,125.9, 0.5, 0.1,0,0,1024,1024,1024,1024,126.6,-89.9,98,4.07,4.063,4.112,4.058,4.091,4.053,16.751,75.2,14,Waypoint,
38.0977278,-120.1812973,4257.0946319619,18.372704,0,0.63263453468,7310,2018-05-09 19:54:03,15,0,24.519,4257.0946319619,18.372704,0.447388,0.91107942548,0,0,-0.671082,126, 0.1, 0.2,0,0,1024,1024,1024,1024,126.6,-89.9,98,4.07,4.063,4.112,4.058,4.091,4.053,16.751,75.2,14,Waypoint,
38.0977279,-120.1812974,4258.0788839619,19.356956,0,0.64669949576,7410,2018-05-09 19:54:03,15,0,24.519,4258.0788839619,19.356956,0.447388,0.91107942548,0,0,-0.671082,126.1, -0.3, 0.4,0,0,1024,1024,1024,1024,126.6,-90,98,4.07,4.063,4.112,4.058,4.091,4.053,16.751,75.2,14,Waypoint,
38.097728,-120.1812976,4259.0631359619,20.341208,0,0.65054792108,7500,2018-05-09 19:54:03,15,0,24.519,4259.0631359619,20.341208,0.447388,0.91107942548,0,0,-0.671082,126.2, -0.7, 0.6,0,0,1024,1024,1024,1024,126.6,-90,98,4.07,4.063,4.112,4.058,4.091,4.053,16.751,75.2,14,Waypoint,
38.0977281,-120.1812977,4260.0473879619,21.32546,0,0.67192259368,7600,2018-05-09 19:54:03,16,0,24.519,4260.0473879619,21.32546,0.447388,0.91107942548,0,0,-0.671082,126.2, -1.1, 0.9,0,0,1024,1024,1024,1024,126.6,-90,98,4.07,4.063,4.112,4.058,4.091,4.053,16.751,75.2,14,Waypoint,
38.0977282,-120.1812979,4261.3597239619,22.637796,0,0.6867946414,7720,2018-05-09 19:54:03,16,0,24.519,4261.3597239619,22.637796,0.447388,0.91107942548,0,0,-0.671082,126.1, -1.5, 0.9,0,0,1024,1024,1024,1024,126.6,-89.9,98,4.07,4.063,4.112,4.058,4.091,4.053,16.751,75.2,14,Waypoint,
38.0977283,-120.1812979,4262.3439759619,23.622048,0,0.72176183412,7810,2018-05-09 19:54:03,16,0,24.519,4262.3439759619,23.622048,0.447388,0.91107942548,0,0,-0.671082,126.1, -1.6, 0.7,0,0,1024,1024,1024,1024,126.6,-89.9,98,4.07,4.063,4.112,4.058,4.091,4.053,16.751,75.2,14,Waypoint,
38.0977284,-120.1812978,4263.6563119619,24.934384,0,0.76499674364,8000,2018-05-09 19:54:03,16,0,24.059,4263.6563119619,24.934384,0.447388,0.91107942548,0,0,-0.671082,126.1, -1.3, 0.8,0,0,1024,1024,1024,1024,126.6,-89.9,98,3.992,4.017,4.004,4.02,4.005,4.009,22.966,75.2,14,Waypoint,
38.0977285,-120.1812977,4264.6405639619,25.918636,0,0.80858598388,8100,2018-05-09 19:54:03,17,0,24.059,4264.6405639619,25.918636,0.447388,0.91107942548,0,0,-0.671082,126.1, -0.9, 1.1,0,0,1024,1024,1024,1024,126.6,-89.9,98,3.992,4.017,4.004,4.02,4.005,4.009,22.966,75.2,14,Waypoint,
38.0977287,-120.1812977,4266.9371519619,28.215224,0,0.87804136668,8200,2018-05-09 19:54:03,15,0,24.059,4266.9371519619,28.215224,0.447388,0.91107942548,0,0,-0.671082,125.9, -0.9, 1.4,0,0,1024,1024,1024,1024,126.6,-90,98,3.992,4.017,4.004,4.02,4.005,4.009,22.966,75.2,14,Waypoint,
38.0977287,-120.1812978,4267.9214039619,29.199476,0,0.87002299372,8400,2018-05-09 19:54:04,15,0,24.059,4267.9214039619,29.199476,0.447388,0.91107942548,0,0,-0.671082,125.7, -0.9, 1.2,0,0,1024,1024,1024,1024,126.6,-89.9,98,3.992,4.017,4.004,4.02,4.005,4.009,22.966,75.2,14,Waypoint,
38.0977288,-120.1812978,4268.9056559619,30.183728,0,0.905265777,8500,2018-05-09 19:54:04,15,0,24.059,4268.9056559619,30.183728,0.447388,0.91107942548,0,0,-0.671082,125.5, -0.9, 1.1,0,0,1024,1024,1024,1024,126.6,-89.9,98,3.992,4.017,4.004,4.02,4.005,4.009,22.966,75.2,14,Waypoint,
38.0977288,-120.1812978,4269.8899079619,31.16798,0,0.905265777,8600,2018-05-09 19:54:04,15,0,24.059,4269.8899079619,31.16798,0.447388,0.91107942548,0,0,-0.671082,125.4, -0.8, 1.1,0,0,1024,1024,1024,1024,126.6,-89.9,98,3.992,4.017,4.004,4.02,4.005,4.009,22.966,75.2,14,Waypoint,
38.0977289,-120.1812979,4270.8741599619,32.152232,0,0.9340059354,8700,2018-05-09 19:54:04,14,0,24.059,4270.8741599619,32.152232,0.447388,0.9340059354,0,0,-0.671082,125.5, -0.9, 1.1,0,0,1024,1024,1024,1024,126.6,-90,98,3.992,4.017,4.004,4.02,4.005,4.009,22.966,75.2,14,Waypoint,
38.097729,-120.1812979,4271.8584119619,33.136484,0,0.96966538536,8800,2018-05-09 19:54:04,14,0,24.059,4271.8584119619,33.136484,0.447388,0.96966538536,0,0,-0.671082,125.8, -1, 1.2,0,0,1024,1024,1024,1024,126.6,-89.9,98,3.992,4.017,4.004,4.02,4.005,4.009,22.966,75.2,14,Waypoint,
38.097729,-120.1812979,4272.8426639619,34.120736,0,0.96966538536,8900,2018-05-09 19:54:04,15,0,24.059,4272.8426639619,34.120736,0.447388,0.96966538536,0,0,-0.671082,126, -1.1, 1.2,0,0,1024,1024,1024,1024,126.6,-89.9,98,3.992,4.017,4.004,4.02,4.005,4.009,22.966,75.2,14,Waypoint,
38.097729,-120.1812979,4273.8269159619,35.104988,0,0.96966538536,9000,2018-05-09 19:54:04,15,0,24.23,4273.8269159619,35.104988,0.447388,0.96966538536,0,0,-0.671082,126.2, -1, 1.3,0,0,1024,1024,1024,1024,126.6,-89.9,98,4.029,4.034,4.044,4.041,4.043,4.045,19.283,75.2,14,Waypoint,
38.0977291,-120.1812979,4274.8111679619,36.08924,0,1.00538717128,9100,2018-05-09 19:54:04,14,0,24.23,4274.8111679619,36.08924,0.447388,1.00538717128,0,0,-0.671082,126.4, -0.9, 1.2,0,0,1024,1024,1024,1024,126.6,-89.9,98,4.029,4.034,4.044,4.041,4.043,4.045,19.283,75.2,14,Waypoint,
38.0977291,-120.1812978,4276.1235039619,37.401576,0,1.01151906124,9200,2018-05-09 19:54:04,14,0,24.23,4276.1235039619,37.401576,0.447388,1.01151906124,0,0,-0.671082,126.4, -0.9, 1.3,0,0,1024,1024,1024,1024,126.6,-89.9,98,4.029,4.034,4.044,4.041,4.043,4.045,19.283,75.2,14,Waypoint,
38.0977291,-120.1812978,4277.1077559619,38.385828,0,1.01151906124,9300,2018-05-09 19:54:05,16,0,24.23,4277.1077559619,38.385828,0.447388,1.01151906124,0,0,-0.671082,126.4, -0.7, 1.3,0,0,1024,1024,1024,1024,126.6,-89.9,98,4.029,4.034,4.044,4.041,4.043,4.045,19.283,75.2,14,Waypoint,
38.0977292,-120.1812978,4278.0920079619,39.37008,0,1.04708336684,9400,2018-05-09 19:54:05,16,0,24.23,4278.0920079619,39.37008,0.447388,1.04708336684,0,0,-0.671082,126.4, -0.6, 1.3,0,0,1024,1024,1024,1024,126.6,-89.9,98,4.029,4.034,4.044,4.041,4.043,4.045,19.283,75.2,14,Waypoint,
38.0977292,-120.1812978,4279.0762599619,40.354332,0,1.04708336684,9500,2018-05-09 19:54:05,16,0,24.23,4279.0762599619,40.354332,0.447388,1.04708336684,0,0,-0.671082,126.3, -0.7, 1.3,0,0,1024,1024,1024,1024,126.6,-89.9,98,4.029,4.034,4.044,4.041,4.043,4.045,19.283,75.2,14,Waypoint,
38.0977291,-120.1812978,4280.0605119619,41.338584,0,1.01151906124,9600,2018-05-09 19:54:05,16,0,24.23,4280.0605119619,41.338584,0.447388,1.04708336684,0,0,-0.671082,126.1, -0.6, 1.3,0,0,1024,1024,1024,1024,126.6,-89.9,98,4.029,4.034,4.044,4.041,4.043,4.045,19.283,75.2,14,Waypoint,
38.0977292,-120.1812979,4282.0290159619,43.307088,0,1.04116145064,9710,2018-05-09 19:54:05,16,0,24.23,4282.0290159619,43.307088,0.447388,1.04708336684,0,0,-0.671082,125.8, -0.6, 1.2,0,0,1024,1024,1024,1024,126.6,-89.9,98,4.029,4.034,4.044,4.041,4.043,4.045,19.283,75.2,14,Waypoint,
38.0977291,-120.1812977,4283.0132679619,44.29134,0,1.0184219486,9800,2018-05-09 19:54:05,16,0,24.23,4283.0132679619,44.29134,0.447388,1.04708336684,0,0,-0.671082,125.7, -0.6, 1.1,0,0,1024,1024,1024,1024,126.6,-89.9,98,4.029,4.034,4.044,4.041,4.043,4.045,19.283,75.2,14,Waypoint,
38.0977288,-120.1812972,4284.9817719619,46.259844,0.3131716,0.96349412532,10000,2018-05-09 19:54:05,17,0,24.244,4284.9817719619,46.259844,0.447388,1.04708336684,0,0,-0.671082,125.8, 0.2, 0.8,0,0,1024,1024,1024,1024,126.6,-89.9,97,4.025,4.039,4.042,4.046,4.044,4.041,18.354,75.2,14,Waypoint,
38.0977287,-120.1812972,4285.9660239619,47.244096,0,0.9304626282,10100,2018-05-09 19:54:05,17,0,24.244,4285.9660239619,47.244096,0.447388,1.04708336684,0,0,-0.671082,125.9, 0.6, 0.7,0,0,1024,1024,1024,1024,126.6,-89.9,97,4.025,4.039,4.042,4.046,4.044,4.041,18.354,75.2,14,Waypoint,
38.0977287,-120.1812971,4286.9502759619,48.228348,0,0.94322181496,10200,2018-05-09 19:54:05,17,0,24.244,4286.9502759619,48.228348,0.447388,1.04708336684,0,0,-0.671082,126.1, 0.5, 0.7,0,0,1024,1024,1024,1024,126.6,-89.9,97,4.025,4.039,4.042,4.046,4.044,4.041,18.354,75.2,14,Waypoint,
38.0977287,-120.1812971,4287.9345279619,49.2126,0,0.94322181496,10400,2018-05-09 19:54:06,17,0,24.244,4287.9345279619,49.2126,0.447388,1.04708336684,0,0,-0.671082,126.2, 0.2, 0.7,0,0,1024,1024,1024,1024,126.6,-89.9,97,4.025,4.039,4.042,4.046,4.044,4.041,18.354,75.2,14,Waypoint,
38.0977287,-120.1812971,4289.9030319619,51.181104,0,0.94322181496,10500,2018-05-09 19:54:06,16,0,24.244,4289.9030319619,51.181104,0.447388,1.04708336684,0,0,-0.671082,126.3, -0.1, 0.9,0,0,1024,1024,1024,1024,126.6,-89.9,97,4.025,4.039,4.042,4.046,4.044,4.041,18.354,75.2,14,Waypoint,
38.0977287,-120.1812971,4290.8872839619,52.165356,0,0.94322181496,10700,2018-05-09 19:54:06,17,0,24.244,4290.8872839619,52.165356,0.447388,1.04708336684,0,0,-0.671082,126.3, -0.3, 1,0,0,1024,1024,1024,1024,126.6,-90,97,4.025,4.039,4.042,4.046,4.044,4.041,18.354,75.2,14,Waypoint,
38.0977287,-120.1812971,4291.8715359619,53.149608,0,0.94322181496,10800,2018-05-09 19:54:06,17,0,24.244,4291.8715359619,53.149608,0.447388,1.04708336684,0,0,-0.671082,126.3, -0.6, 1.1,0,0,1024,1024,1024,1024,126.6,-89.9,97,4.025,4.039,4.042,4.046,4.044,4.041,18.354,75.2,14,Waypoint,
38.0977288,-120.1812972,4292.8557879619,54.13386,0,0.96349412532,10900,2018-05-09 19:54:06,17,0,24.244,4292.8557879619,54.13386,0.447388,1.04708336684,0,0,-0.671082,126.2, -0.6, 1.3,0,0,1024,1024,1024,1024,126.6,-90,97,4.025,4.039,4.042,4.046,4.044,4.041,18.354,75.2,14,Waypoint,
38.0977288,-120.1812973,4293.8400399619,55.118112,0,0.95187339004,11000,2018-05-09 19:54:06,17,0,24.254,4293.8400399619,55.118112,0.447388,1.04708336684,0,0,-0.671082,126.1, -0.5, 1.4,0,0,1024,1024,1024,1024,126.6,-90,97,4.032,4.041,4.047,4.05,4.045,4.04,18.135,75.2,14,Waypoint,
38.0977288,-120.1812974,4294.8242919619,56.102364,0,0.94098756292,11100,2018-05-09 19:54:06,17,0,24.254,4294.8242919619,56.102364,0.447388,1.04708336684,0,0,-0.671082,126, -0.7, 1.3,0,0,1024,1024,1024,1024,126.6,-90,97,4.032,4.041,4.047,4.05,4.045,4.04,18.135,75.2,14,Waypoint,
38.0977288,-120.1812975,4295.8085439619,57.086616,0,0.930856329,11200,2018-05-09 19:54:06,17,0,24.254,4295.8085439619,57.086616,0.447388,1.04708336684,0,0,-0.671082,125.9, -0.9, 0.9,0,0,1024,1024,1024,1024,126.6,-90,97,4.032,4.041,4.047,4.05,4.045,4.04,18.135,75.2,14,Waypoint,
38.0977287,-120.1812976,4296.7927959619,58.070868,0,0.88691603888,11300,2018-05-09 19:54:07,17,0,24.254,4296.7927959619,58.070868,0.447388,1.04708336684,0,0,-0.671082,125.9, -1, 0.3,0,0,1024,1024,1024,1024,126.6,-90,97,4.032,4.041,4.047,4.05,4.045,4.04,18.135,75.2,14,Waypoint,
38.0977287,-120.1812976,4297.7770479619,59.05512,0,0.88691603888,11400,2018-05-09 19:54:07,17,0,24.254,4297.7770479619,59.05512,0.447388,1.04708336684,0,0,-0.671082,126, -1, -0.1,0,0,1024,1024,1024,1024,126.6,-90,97,4.032,4.041,4.047,4.05,4.045,4.04,18.135,75.2,14,Waypoint,
38.0977286,-120.1812977,4298.7612999619,60.039372,0,0.84323821596,11500,2018-05-09 19:54:07,17,0,24.254,4298.7612999619,60.039372,0.447388,1.04708336684,0,0,-0.671082,126.1, -0.8, -0.2,0,0,1024,1024,1024,1024,126.6,-89.9,97,4.032,4.041,4.047,4.05,4.045,4.04,18.135,75.2,14,Waypoint,
38.0977285,-120.1812977,4299.7455519619,61.023624,0,0.80858598388,11600,2018-05-09 19:54:07,17,0,24.254,4299.7455519619,61.023624,0.447388,1.04708336684,0,0,-0.671082,126.2, -0.7, -0.1,0,0,1024,1024,1024,1024,126.6,-89.9,97,4.032,4.041,4.047,4.05,4.045,4.04,18.135,75.2,14,Waypoint,
38.0977285,-120.1812977,4300.7298039619,62.007876,0,0.80858598388,11700,2018-05-09 19:54:07,17,0,24.254,4300.7298039619,62.007876,0.447388,1.04708336684,0,0,-0.671082,126.2, -0.3, 0,0,0,1024,1024,1024,1024,126.6,-89.9,97,4.032,4.041,4.047,4.05,4.045,4.04,18.135,75.2,14,Waypoint,
38.0977284,-120.1812977,4301.7140559619,62.992128,0,0.77410435548,11800,2018-05-09 19:54:07,17,0,24.254,4301.7140559619,62.992128,0.447388,1.04708336684,0,0,-0.671082,126.2, -0.1, 0.2,0,0,1024,1024,1024,1024,126.6,-89.9,97,4.032,4.041,4.047,4.05,4.045,4.04,18.135,75.2,14,Waypoint,
38.0977283,-120.1812977,4302.6983079619,63.97638,0,0.7398130158,11900,2018-05-09 19:54:07,17,0,24.254,4302.6983079619,63.97638,0.447388,1.04708336684,0,0,-0.671082,126.1, -0.3, 0.4,0,0,1024,1024,1024,1024,126.6,-89.9,97,4.032,4.041,4.047,4.05,4.045,4.04,18.135,75.2,14,Waypoint,
38.0977282,-120.1812976,4303.6825599619,64.960632,0,0.71675199144,12010,2018-05-09 19:54:07,17,0,24.236,4303.6825599619,64.960632,0.447388,1.04708336684,0,0,-0.671082,126, -0.4, 0.2,0,0,1024,1024,1024,1024,126.6,-89.9,97,4.032,4.041,4.047,4.05,4.045,4.04,17.841,77,14,Waypoint,
38.0977281,-120.1812976,4304.6668119619,65.944884,0,0.68347771216,12110,2018-05-09 19:54:07,17,0,24.236,4304.6668119619,65.944884,0.447388,1.04708336684,0,0,-0.671082,126, -0.1, 0.1,0,0,1024,1024,1024,1024,126.6,-89.9,97,4.032,4.041,4.047,4.05,4.045,4.04,17.841,77,14,Waypoint,
38.097728,-120.1812975,4305.6510639619,66.929136,0.223694,0.66372049368,12210,2018-05-09 19:54:07,17,0,24.236,4305.6510639619,66.929136,0.447388,1.04708336684,0,0,-0.671082,125.9, 0.3, 0,0,0,1024,1024,1024,1024,126.6,-89.9,97,4.032,4.041,4.047,4.05,4.045,4.04,17.841,77,14,Waypoint,
38.0977279,-120.1812975,4306.6353159619,67.913388,0.223694,0.63187009896,12400,2018-05-09 19:54:08,17,0,24.236,4306.6353159619,67.913388,0.447388,1.04708336684,0,0,-0.671082,125.9, 0.7, 0,0,0,1024,1024,1024,1024,126.6,-89.9,97,4.032,4.041,4.047,4.05,4.045,4.04,17.841,77,14,Waypoint,
38.0977278,-120.1812973,4308.6038199619,69.881892,0.223694,0.63263453468,12510,2018-05-09 19:54:08,17,0,24.236,4308.6038199619,69.881892,0.447388,1.04708336684,0,0,-0.671082,126.1, 0.8, 0.1,0,0,1024,1024,1024,1024,126.6,-89.9,97,4.032,4.041,4.047,4.05,4.045,4.04,17.841,77,14,Waypoint,
38.0977277,-120.1812973,4309.5880719619,70.866144,0.223694,0.6035597306,12600,2018-05-09 19:54:08,17,0,24.236,4309.5880719619,70.866144,0.447388,1.04708336684,0,0,-0.671082,126.1, 1, 0,0,0,1024,1024,1024,1024,126.6,-89.9,97,4.032,4.041,4.047,4.05,4.045,4.04,17.841,77,14,Waypoint,
38.0977277,-120.1812972,4310.5723239619,71.850396,0,0.62172574168,12710,2018-05-09 19:54:08,17,0,24.236,4310.5723239619,71.850396,0.447388,1.04708336684,0,0,-0.671082,126, 1.2, 0,0,0,1024,1024,1024,1024,126.6,-89.9,97,4.032,4.041,4.047,4.05,4.045,4.04,17.841,77,14,Waypoint,
38.0977276,-120.1812972,4311.5565759619,72.834648,0,0.59436025524,12800,2018-05-09 19:54:08,17,0,24.236,4311.5565759619,72.834648,0.447388,1.04708336684,0,0,-0.671082,126, 1.2, 0,0,0,1024,1024,1024,1024,126.6,-89.9,97,4.032,4.041,4.047,4.05,4.045,4.04,17.841,77,14,Waypoint,
38.0977276,-120.1812971,4312.5408279619,73.8189,0,0.61414372044,13000,2018-05-09 19:54:08,17,0,24.236,4312.5408279619,73.8189,0.447388,1.04708336684,0,0,-0.671082,125.9, 1.2, 0.2,0,0,1024,1024,1024,1024,126.6,-89.9,97,4.028,4.038,4.051,4.049,4.061,4.037,17.841,77,14,Waypoint,
38.0977275,-120.1812971,4313.5250799619,74.803152,0,0.58869096372,13110,2018-05-09 19:54:08,17,0,24.236,4313.5250799619,74.803152,0.447388,1.04708336684,0,0,-0.671082,125.9, 1, 0.2,0,0,1024,1024,1024,1024,126.6,-89.9,97,4.028,4.038,4.051,4.049,4.061,4.037,17.841,77,14,Waypoint,
38.0977275,-120.1812971,4314.5093319619,75.787404,0,0.58869096372,13200,2018-05-09 19:54:08,17,0,24.236,4314.5093319619,75.787404,0.447388,1.04708336684,0,0,-0.671082,125.8, 0.8, 0.2,0,0,1024,1024,1024,1024,126.6,-89.9,97,4.028,4.038,4.051,4.049,4.061,4.037,17.841,77,14,Waypoint,
38.0977274,-120.1812971,4315.4935839619,76.771656,0,0.56444883696,13310,2018-05-09 19:54:09,17,0,24.236,4315.4935839619,76.771656,0.447388,1.04708336684,0,0,-0.671082,125.8, 0.8, 0.1,0,0,1024,1024,1024,1024,126.6,-89.9,97,4.028,4.038,4.051,4.049,4.061,4.037,17.841,77,14,Waypoint,
38.0977274,-120.1812971,4316.4778359619,77.755908,0,0.56444883696,13400,2018-05-09 19:54:09,17,0,24.236,4316.4778359619,77.755908,0.447388,1.04708336684,0,0,-0.671082,125.8, 0.9, 0.3,0,0,1024,1024,1024,1024,126.6,-89.9,97,4.028,4.038,4.051,4.049,4.061,4.037,17.841,77,14,Waypoint,
38.0977274,-120.1812971,4317.4620879619,78.74016,0,0.56444883696,13510,2018-05-09 19:54:09,17,0,24.236,4317.4620879619,78.74016,0.447388,1.04708336684,0,0,-0.671082,125.8, 0.7, 0.4,0,0,1024,1024,1024,1024,126.6,-89.9,97,4.028,4.038,4.051,4.049,4.061,4.037,17.841,77,14,Waypoint,
38.0977274,-120.1812971,4318.1182559619,79.396328,0,0.56444883696,13610,2018-05-09 19:54:09,17,0,24.236,4318.1182559619,79.396328,0.447388,1.04708336684,0,0,-0.671082,126, 0.4, 0.4,0,0,1024,1024,1024,1024,126.6,-89.9,97,4.028,4.038,4.051,4.049,4.061,4.037,17.841,77,14,Waypoint,
38.0977273,-120.181297,4319.1025079619,80.38058,0,0.5646817766,13800,2018-05-09 19:54:09,17,0,24.236,4319.1025079619,80.38058,0.447388,1.04708336684,0,0,-0.671082,126.3, 0.6, 0.6,0,0,1024,1024,1024,1024,126.6,-89.9,97,4.028,4.038,4.051,4.049,4.061,4.037,17.841,77,14,Waypoint,
38.0977273,-120.181297,4320.0867599619,81.364832,0,0.5646817766,13900,2018-05-09 19:54:09,17,0,24.236,4320.0867599619,81.364832,0.447388,1.04708336684,0,0,-0.671082,126.5, 0.8, 0.4,0,0,1024,1024,1024,1024,126.6,-89.9,97,4.028,4.038,4.051,4.049,4.061,4.037,17.841,77,14,Waypoint,
38.0977273,-120.181297,4321.0710119619,82.349084,0,0.5646817766,14000,2018-05-09 19:54:09,17,0,24.19,4321.0710119619,82.349084,0.447388,1.04708336684,0,0,-0.671082,126.6, 1, 0.1,0,0,1024,1024,1024,1024,126.6,-89.9,97,4.023,4.029,4.033,4.028,4.045,4.031,17.893,77,14,Waypoint,
38.0977272,-120.1812969,4322.0552639619,83.333336,0,0.56872049064,14100,2018-05-09 19:54:09,17,0,24.19,4322.0552639619,83.333336,0.447388,1.04708336684,0,0,-0.671082,126.6, 1.2, 0,0,0,1024,1024,1024,1024,126.6,-89.9,97,4.023,4.029,4.033,4.028,4.045,4.031,17.893,77,14,Waypoint,
38.0977272,-120.1812969,4324.0237679619,85.30184,0,0.56872049064,14200,2018-05-09 19:54:09,17,0,24.19,4324.0237679619,85.30184,0.447388,1.04708336684,0,0,-0.671082,126.5, 1.1, -0.1,0,0,1024,1024,1024,1024,126.6,-89.9,97,4.023,4.029,4.033,4.028,4.045,4.031,17.893,77,14,Waypoint,
38.0977272,-120.1812969,4325.0080199619,86.286092,0,0.56872049064,14300,2018-05-09 19:54:10,17,0,24.19,4325.0080199619,86.286092,0.447388,1.04708336684,0,0,-0.671082,126.4, 0.9, -0.1,0,0,1024,1024,1024,1024,126.6,-89.9,97,4.023,4.029,4.033,4.028,4.045,4.031,17.893,77,14,Waypoint,
38.0977271,-120.1812969,4326.9765239619,88.254596,0,0.5508858444,14400,2018-05-09 19:54:10,17,0,24.19,4326.9765239619,88.254596,0.447388,1.04708336684,0,0,-0.671082,126.1, 0.4, 0,0,0,1024,1024,1024,1024,126.6,-89.9,97,4.023,4.029,4.033,4.028,4.045,4.031,17.893,77,14,Waypoint,
38.0977271,-120.1812969,4328.9450279619,90.2231,0,0.5508858444,14500,2018-05-09 19:54:10,17,0,24.19,4328.9450279619,90.2231,0.447388,1.04708336684,0,0,-0.671082,126, 0.6, 0,0,0,1024,1024,1024,1024,126.6,-89.9,97,4.023,4.029,4.033,4.028,4.045,4.031,17.893,77,14,Waypoint,
38.0977271,-120.181297,4329.9292799619,91.207352,0,0.52561353388,14600,2018-05-09 19:54:10,17,0,24.19,4329.9292799619,91.207352,0.447388,1.04708336684,0,0,-0.671082,125.9, 0.6, 0,0,0,1024,1024,1024,1024,126.6,-89.9,97,4.023,4.029,4.033,4.028,4.045,4.031,17.893,77,14,Waypoint,
38.0977271,-120.181297,4330.9135319619,92.191604,0,0.52561353388,14700,2018-05-09 19:54:10,17,0,24.19,4330.9135319619,92.191604,0.447388,1.04708336684,0,0,-0.671082,125.9, 0.6, -0.1,0,0,1024,1024,1024,1024,126.6,-89.9,97,4.023,4.029,4.033,4.028,4.045,4.031,17.893,77,14,Waypoint,
38.097727,-120.181297,4331.8977839619,93.175856,0,0.50888453072,14800,2018-05-09 19:54:10,17,0,24.19,4331.8977839619,93.175856,0.447388,1.04708336684,0,0,-0.671082,125.9, 0.6, -0.2,0,0,1024,1024,1024,1024,126.6,-89.9,97,4.023,4.029,4.033,4.028,4.045,4.031,17.893,77,14,Waypoint,
38.097727,-120.1812969,4332.8820359619,94.160108,0,0.53494752368,14910,2018-05-09 19:54:10,17,0,24.19,4332.8820359619,94.160108,0.447388,1.04708336684,0,0,-0.671082,125.9, 0.7, -0.3,0,0,1024,1024,1024,1024,126.6,-89.9,97,4.023,4.029,4.033,4.028,4.045,4.031,17.893,77,14,Waypoint,
38.097727,-120.1812969,4333.8662879619,95.14436,0,0.53494752368,15010,2018-05-09 19:54:10,17,0,24.113,4333.8662879619,95.14436,0.447388,1.04708336684,0,0,-0.671082,125.9, 0.9, -0.3,0,0,1024,1024,1024,1024,126.6,-89.9,97,4.009,4.025,4.025,4.017,4.029,4.025,18.424,77,14,Waypoint,
38.097727,-120.1812969,4334.8505399619,96.128612,0,0.53494752368,15110,2018-05-09 19:54:10,17,0,24.113,4334.8505399619,96.128612,0.447388,1.04708336684,0,0,-0.671082,125.9, 1.1, -0.4,0,0,1024,1024,1024,1024,126.6,-89.9,97,4.009,4.025,4.025,4.017,4.029,4.025,18.424,77,14,Waypoint,
38.097727,-120.1812969,4335.8347919619,97.112864,0,0.53494752368,15210,2018-05-09 19:54:10,17,0,24.113,4335.8347919619,97.112864,0.447388,1.04708336684,0,0,-0.671082,125.9, 1, -0.2,0,0,1024,1024,1024,1024,126.6,-89.9,97,4.009,4.025,4.025,4.017,4.029,4.025,18.424,77,14,Waypoint,
38.097727,-120.1812968,4336.8190439619,98.097116,0,0.561269703,15410,2018-05-09 19:54:11,17,0,24.113,4336.8190439619,98.097116,0.447388,1.04708336684,0,0,-0.671082,125.9, 1, -0.1,0,0,1024,1024,1024,1024,126.6,-89.9,97,4.009,4.025,4.025,4.017,4.029,4.025,18.424,77,14,Waypoint,
38.097727,-120.1812968,4337.8032959619,99.081368,0,0.561269703,15510,2018-05-09 19:54:11,17,0,24.113,4337.8032959619,99.081368,0.447388,1.04708336684,0,0,-0.671082,126, 1, 0.1,0,0,1024,1024,1024,1024,126.6,-89.9,97,4.009,4.025,4.025,4.017,4.029,4.025,18.424,77,14,Waypoint,
38.097727,-120.1812968,4338.7875479619,100.06562,0,0.561269703,15610,2018-05-09 19:54:11,17,0,24.113,4338.7875479619,100.06562,0.447388,1.04708336684,0,0,-0.671082,126, 0.9, 0,0,0,1024,1024,1024,1024,126.6,-89.9,97,4.009,4.025,4.025,4.017,4.029,4.025,18.424,77,14,Waypoint,
38.0977271,-120.1812969,4339.7717999619,101.049872,0,0.5508858444,15710,2018-05-09 19:54:11,17,0,24.113,4339.7717999619,101.049872,0.447388,1.04708336684,0,0,-0.671082,126, 0.6, -0.1,0,0,1024,1024,1024,1024,126.6,-90,97,4.009,4.025,4.025,4.017,4.029,4.025,18.424,77,14,Waypoint,
38.0977271,-120.1812969,4340.7560519619,102.034124,0,0.5508858444,15810,2018-05-09 19:54:11,17,0,24.113,4340.7560519619,102.034124,0.447388,1.04708336684,0,0,-0.671082,126.1, 0.2, 0,0,0,1024,1024,1024,1024,126.6,-90,97,4.009,4.025,4.025,4.017,4.029,4.025,18.424,77,14,Waypoint,
38.0977271,-120.181297,4342.0683879619,103.34646,0,0.52561353388,15900,2018-05-09 19:54:11,17,0,24.113,4342.0683879619,103.34646,0.447388,1.04708336684,0,0,-0.671082,126.1, 0.1, 0.1,0,0,1024,1024,1024,1024,126.6,-90,97,4.009,4.025,4.025,4.017,4.029,4.025,18.424,77,14,Waypoint,
38.0977271,-120.181297,4342.7245559619,104.002628,0,0.52561353388,16010,2018-05-09 19:54:11,17,0,24.127,4342.7245559619,104.002628,0.447388,1.04708336684,0,0,-0.671082,126.1, 0, 0,0,0,1024,1024,1024,1024,126.6,-90,97,4.014,4.028,4.023,4.022,4.026,4.028,17.993,77,14,Waypoint,
38.0977271,-120.181297,4343.7088079619,104.98688,0,0.52561353388,16110,2018-05-09 19:54:11,17,0,24.127,4343.7088079619,104.98688,0.447388,1.04708336684,0,0,-0.671082,126, -0.1, -0.1,0,0,1024,1024,1024,1024,126.6,-90,97,4.014,4.028,4.023,4.022,4.026,4.028,17.993,77,14,Waypoint,
38.0977272,-120.1812971,4345.0211439619,106.299216,0,0.52026904552,16200,2018-05-09 19:54:11,17,0,24.127,4345.0211439619,106.299216,0.447388,1.04708336684,0,0,-0.671082,126, -0.2, 0,0,0,1024,1024,1024,1024,126.6,-90,97,4.014,4.028,4.023,4.022,4.026,4.028,17.993,77,14,Waypoint,
38.0977272,-120.1812971,4346.0053959619,107.283468,0,0.52026904552,16300,2018-05-09 19:54:12,17,0,24.127,4346.0053959619,107.283468,0.447388,1.04708336684,0,0,-0.671082,125.9, -0.1, 0,0,0,1024,1024,1024,1024,126.6,-90,97,4.014,4.028,4.023,4.022,4.026,4.028,17.993,77,14,Waypoint,
38.0977272,-120.1812971,4346.9896479619,108.26772,0,0.52026904552,16510,2018-05-09 19:54:12,17,0,24.127,4346.9896479619,108.26772,0.447388,1.04708336684,0,0,-0.671082,125.8, 0, -0.1,0,0,1024,1024,1024,1024,126.6,-90,97,4.014,4.028,4.023,4.022,4.026,4.028,17.993,77,14,Waypoint,
38.0977273,-120.1812971,4347.6458159619,108.923888,0,0.54158138216,16610,2018-05-09 19:54:12,17,0,24.127,4347.6458159619,108.923888,0.447388,1.04708336684,0,0,-0.671082,125.8, 0, -0.1,0,0,1024,1024,1024,1024,126.6,-89.9,97,4.014,4.028,4.023,4.022,4.026,4.028,17.993,77,14,Waypoint,
38.0977273,-120.1812971,4349.6143199619,110.892392,0,0.54158138216,16710,2018-05-09 19:54:12,17,0,24.127,4349.6143199619,110.892392,0.447388,1.04708336684,0,0,-0.671082,125.7, 0.2, -0.2,0,0,1024,1024,1024,1024,126.6,-89.9,97,4.014,4.028,4.023,4.022,4.026,4.028,17.993,77,14,Waypoint,
38.0977273,-120.1812971,4350.5985719619,111.876644,0,0.54158138216,16810,2018-05-09 19:54:12,17,0,24.127,4350.5985719619,111.876644,0.447388,1.04708336684,0,0,-0.671082,125.8, 0.3, -0.2,0,0,1024,1024,1024,1024,126.6,-89.9,97,4.014,4.028,4.023,4.022,4.026,4.028,17.993,77,14,Waypoint,
38.0977273,-120.1812971,4352.5670759619,113.845148,0,0.54158138216,17000,2018-05-09 19:54:12,17,0,24.148,4352.5670759619,113.845148,0.447388,1.04708336684,0,0,-0.671082,126.2, 0.5, -0.2,0,0,1024,1024,1024,1024,126.6,-89.9,97,4.015,4.036,4.022,4.037,4.02,4.028,17.85,77,14,Waypoint,
38.0977274,-120.181297,4353.5513279619,114.8294,0,0.58665028124,17100,2018-05-09 19:54:12,18,0,24.148,4353.5513279619,114.8294,0.447388,1.04708336684,0,0,-0.671082,126.3, 0.5, -0.1,0,0,1024,1024,1024,1024,126.6,-89.9,97,4.015,4.036,4.022,4.037,4.02,4.028,17.85,77,14,Waypoint,
38.0977274,-120.1812969,4355.5198319619,116.797904,0,0.60939634496,17200,2018-05-09 19:54:12,18,0,24.148,4355.5198319619,116.797904,0.447388,1.04708336684,0,0,-0.671082,126.3, 0.4, 0,0,0,1024,1024,1024,1024,126.6,-89.9,97,4.015,4.036,4.022,4.037,4.02,4.028,17.85,77,14,Waypoint,
38.0977275,-120.1812968,4357.4883359619,118.766408,0,0.6543471338,17400,2018-05-09 19:54:13,18,0,24.148,4357.4883359619,118.766408,0.447388,1.04708336684,0,0,-0.671082,126.1, 0.7, -0.3,0,0,1024,1024,1024,1024,126.6,-89.9,97,4.015,4.036,4.022,4.037,4.02,4.028,17.85,77,14,Waypoint,
38.0977275,-120.1812967,4358.4725879619,119.75066,0,0.67725395868,17600,2018-05-09 19:54:13,18,0,24.148,4358.4725879619,119.75066,0.447388,1.04708336684,0,0,-0.671082,126, 1, 0.3,0,0,1024,1024,1024,1024,126.6,-89.9,97,4.015,4.036,4.022,4.037,4.02,4.028,17.85,77,14,Waypoint,
38.0977275,-120.1812967,4359.7849239619,121.062996,0,0.67725395868,17700,2018-05-09 19:54:13,18,0,24.148,4359.7849239619,121.062996,0.447388,1.04708336684,0,0,-0.671082,126, 1.1, 1.4,0,0,1024,1024,1024,1024,126.6,-89.9,97,4.015,4.036,4.022,4.037,4.02,4.028,17.85,77,14,Waypoint,
38.0977275,-120.1812966,4360.7691759619,122.047248,0,0.70058729276,17800,2018-05-09 19:54:13,18,0,24.148,4360.7691759619,122.047248,0.447388,1.04708336684,0,0,-0.671082,125.9, 0.9, 1.6,0,0,1024,1024,1024,1024,126.6,-89.9,97,4.015,4.036,4.022,4.037,4.02,4.028,17.85,77,14,Waypoint,
38.0977276,-120.1812966,4361.7534279619,123.0315,0,0.72210960316,17900,2018-05-09 19:54:13,18,0,24.148,4361.7534279619,123.0315,0.447388,1.04708336684,0,0,-0.671082,125.9, 0.9, 1.1,0,0,1024,1024,1024,1024,126.6,-89.9,97,4.015,4.036,4.022,4.037,4.02,4.028,17.85,77,14,Waypoint,
38.0977276,-120.1812965,4362.7376799619,124.015752,0,0.7451443808,18010,2018-05-09 19:54:13,18,0,24.075,4362.7376799619,124.015752,0.447388,1.04708336684,0,0,-0.671082,126, 1, 0.7,0,0,1024,1024,1024,1024,126.6,-89.9,97,4.004,4.01,4.015,4.018,4.013,4.018,17.848,77,14,Waypoint,
38.0977276,-120.1812965,4363.7219319619,125.000004,0,0.7451443808,18100,2018-05-09 19:54:13,18,0,24.075,4363.7219319619,125.000004,0.447388,1.04708336684,0,0,-0.671082,126.1, 0.9, 0.5,0,0,1024,1024,1024,1024,126.6,-89.9,97,4.004,4.01,4.015,4.018,4.013,4.018,17.848,77,14,Waypoint,
38.0977276,-120.1812964,4364.7061839619,125.984256,0,0.76856301672,18200,2018-05-09 19:54:13,18,0,24.075,4364.7061839619,125.984256,0.447388,1.04708336684,0,0,-0.671082,126.3, 1, 0.5,0,0,1024,1024,1024,1024,126.6,-89.9,97,4.004,4.01,4.015,4.018,4.013,4.018,17.848,77,14,Waypoint,
38.0977276,-120.1812964,4366.6746879619,127.95276,0,0.76856301672,18400,2018-05-09 19:54:14,18,0,24.075,4366.6746879619,127.95276,0.447388,1.04708336684,0,0,-0.671082,126.2, 1, 0.7,0,0,1024,1024,1024,1024,126.6,-89.9,97,4.004,4.01,4.015,4.018,4.013,4.018,17.848,77,14,Waypoint,
38.0977276,-120.1812964,4367.6589399619,128.937012,0,0.76856301672,18500,2018-05-09 19:54:14,18,0,24.075,4367.6589399619,128.937012,0.447388,1.04708336684,0,0,-0.671082,126.1, 0.8, 0.4,0,0,1024,1024,1024,1024,126.6,-89.9,97,4.004,4.01,4.015,4.018,4.013,4.018,17.848,77,14,Waypoint,
38.0977276,-120.1812964,4368.6431919619,129.921264,0,0.76856301672,18600,2018-05-09 19:54:14,18,0,24.075,4368.6431919619,129.921264,0.447388,1.04708336684,0,0,-0.671082,126.1, 0.6, 0.3,0,0,1024,1024,1024,1024,126.6,-90,97,4.004,4.01,4.015,4.018,4.013,4.018,17.848,77,14,Waypoint,
38.0977276,-120.1812964,4369.2993599619,130.577432,0,0.76856301672,18700,2018-05-09 19:54:14,18,0,24.075,4369.2993599619,130.577432,0.447388,1.04708336684,0,0,-0.671082,126, 0.5, 0.2,0,0,1024,1024,1024,1024,126.6,-89.9,97,4.004,4.01,4.015,4.018,4.013,4.018,17.848,77,14,Waypoint,
38.0977276,-120.1812964,4371.2678639619,132.545936,0,0.76856301672,18800,2018-05-09 19:54:14,18,0,24.075,4371.2678639619,132.545936,0.447388,1.04708336684,0,0,-0.671082,125.9, 0.8, 0.1,0,0,1024,1024,1024,1024,126.6,-89.9,97,4.004,4.01,4.015,4.018,4.013,4.018,17.848,77,14,Waypoint,
38.0977276,-120.1812964,4372.2521159619,133.530188,0,0.76856301672,19000,2018-05-09 19:54:14,18,0,24.069,4372.2521159619,133.530188,0.447388,1.04708336684,0,0,-0.671082,126, 0.9, 0.3,0,0,1024,1024,1024,1024,126.6,-89.9,96,4.003,4.011,4.013,4.018,4.009,4.015,17.982,77,14,Waypoint,
38.0977276,-120.1812963,4374.5487039619,135.826776,0,0.79232942168,19100,2018-05-09 19:54:14,18,0,24.069,4374.5487039619,135.826776,0.447388,1.04708336684,0,0,-0.671082,126.2, 1.2, 0.5,0,0,1024,1024,1024,1024,126.6,-89.9,96,4.003,4.011,4.013,4.018,4.009,4.015,17.982,77,14,Waypoint,
38.0977276,-120.1812963,4375.5329559619,136.811028,0,0.79232942168,19200,2018-05-09 19:54:14,18,0,24.069,4375.5329559619,136.811028,0.447388,1.04708336684,0,0,-0.671082,126.1, 1.1, 0.5,0,0,1024,1024,1024,1024,126.6,-89.9,96,4.003,4.011,4.013,4.018,4.009,4.015,17.982,77,14,Waypoint,
38.0977276,-120.1812963,4376.5172079619,137.79528,0,0.79232942168,19300,2018-05-09 19:54:15,18,0,24.069,4376.5172079619,137.79528,0.447388,1.04708336684,0,0,-0.671082,126.1, 1, 0.4,0,0,1024,1024,1024,1024,126.6,-89.9,96,4.003,4.011,4.013,4.018,4.009,4.015,17.982,77,14,Waypoint,
38.0977276,-120.1812963,4377.5014599619,138.779532,0,0.79232942168,19400,2018-05-09 19:54:15,18,0,24.069,4377.5014599619,138.779532,0.447388,1.04708336684,0,0,-0.671082,126, 1, 0.3,0,0,1024,1024,1024,1024,126.6,-89.9,96,4.003,4.011,4.013,4.018,4.009,4.015,17.982,77,14,Waypoint,
38.0977276,-120.1812963,4378.4857119619,139.763784,0,0.79232942168,19500,2018-05-09 19:54:15,18,0,24.069,4378.4857119619,139.763784,0.447388,1.04708336684,0,0,-0.671082,126, 0.9, 0.4,0,0,1024,1024,1024,1024,126.6,-89.9,96,4.003,4.011,4.013,4.018,4.009,4.015,17.982,77,14,Waypoint,
38.0977275,-120.1812963,4379.4699639619,140.748036,0,0.7727690536,19700,2018-05-09 19:54:15,18,0,24.069,4379.4699639619,140.748036,0.447388,1.04708336684,0,0,-0.671082,126.1, 1.1, 0.3,0,0,1024,1024,1024,1024,126.6,-89.9,96,4.003,4.011,4.013,4.018,4.009,4.015,17.982,77,14,Waypoint,
38.0977275,-120.1812963,4381.4384679619,142.71654,0,0.7727690536,19800,2018-05-09 19:54:15,18,0,24.069,4381.4384679619,142.71654,0.447388,1.04708336684,0,0,-0.671082,126.3, 1, 0,0,0,1024,1024,1024,1024,126.6,-89.9,96,4.003,4.011,4.013,4.018,4.009,4.015,17.982,77,14,Waypoint,
38.0977275,-120.1812963,4382.4227199619,143.700792,0,0.7727690536,19920,2018-05-09 19:54:15,18,0,24.069,4382.4227199619,143.700792,0.447388,1.04708336684,0,0,-0.671082,126.3, 0.9, 0.2,0,0,1024,1024,1024,1024,126.6,-89.9,96,4.003,4.011,4.013,4.018,4.009,4.015,17.982,77,14,Waypoint,
38.0977275,-120.1812963,4383.4069719619,144.685044,0,0.7727690536,20000,2018-05-09 19:54:15,18,0,24.052,4383.4069719619,144.685044,0.447388,1.04708336684,0,0,-0.671082,126.2, 0.9, 0.5,0,0,1024,1024,1024,1024,126.6,-89.9,96,3.996,4.007,4.013,4.01,4.014,4.012,18.286,77,14,Waypoint,
38.0977275,-120.1812963,4384.3912239619,145.669296,0,0.7727690536,20200,2018-05-09 19:54:15,18,0,24.052,4384.3912239619,145.669296,0.447388,1.04708336684,0,0,-0.671082,126.1, 1, 0.6,0,0,1024,1024,1024,1024,126.6,-89.9,96,3.996,4.007,4.013,4.01,4.014,4.012,18.286,77,14,Waypoint,
38.0977276,-120.1812962,4385.3754759619,146.653548,0,0.81641406812,20300,2018-05-09 19:54:16,18,0,24.052,4385.3754759619,146.653548,0.447388,1.04708336684,0,0,-0.671082,126.1, 1, 0.7,0,0,1024,1024,1024,1024,126.6,-89.9,96,3.996,4.007,4.013,4.01,4.014,4.012,18.286,77,14,Waypoint,
38.0977276,-120.1812962,4386.3597279619,147.6378,0,0.81641406812,20400,2018-05-09 19:54:16,18,0,24.052,4386.3597279619,147.6378,0.447388,1.04708336684,0,0,-0.671082,126.1, 1, 0.9,0,0,1024,1024,1024,1024,126.6,-89.9,96,3.996,4.007,4.013,4.01,4.014,4.012,18.286,77,14,Waypoint,
38.0977276,-120.1812962,4387.3439799619,148.622052,0,0.81641406812,20500,2018-05-09 19:54:16,18,0,24.052,4387.3439799619,148.622052,0.447388,1.04708336684,0,0,-0.671082,126.2, 1.1, 0.8,0,0,1024,1024,1024,1024,126.6,-89.9,96,3.996,4.007,4.013,4.01,4.014,4.012,18.286,77,14,Waypoint,
38.0977276,-120.1812962,4388.3282319619,149.606304,0,0.81641406812,20600,2018-05-09 19:54:16,18,0,24.052,4388.3282319619,149.606304,0.447388,1.04708336684,0,0,-0.671082,126.3, 1.1, 0.7,0,0,1024,1024,1024,1024,126.6,-89.9,96,3.996,4.007,4.013,4.01,4.014,4.012,18.286,77,14,Waypoint,
38.0977276,-120.1812962,4390.2967359619,151.574808,0,0.81641406812,20800,2018-05-09 19:54:16,18,0,24.052,4390.2967359619,151.574808,0.447388,1.04708336684,0,0,-0.671082,126.3, 0.9, 0.5,0,0,1024,1024,1024,1024,126.6,-89.9,96,3.996,4.007,4.013,4.01,4.014,4.012,18.286,77,14,Waypoint,
38.0977276,-120.1812962,4391.2809879619,152.55906,0,0.81641406812,20900,2018-05-09 19:54:16,18,0,24.052,4391.2809879619,152.55906,0.447388,1.04708336684,0,0,-0.671082,126.2, 0.8, 0.5,0,0,1024,1024,1024,1024,126.6,-89.9,96,3.996,4.007,4.013,4.01,4.014,4.012,18.286,77,14,Waypoint,
38.0977276,-120.1812963,4392.2652399619,153.543312,0,0.79232942168,21000,2018-05-09 19:54:16,18,0,24.077,4392.2652399619,153.543312,0.447388,1.04708336684,0,0,-0.671082,126.2, 0.8, 0.4,0,0,1024,1024,1024,1024,126.6,-89.9,96,4.004,4.017,4.015,4.012,4.023,4.007,17.452,77,14,Waypoint,
38.0977276,-120.1812963,4393.2494919619,154.527564,0,0.79232942168,21100,2018-05-09 19:54:16,18,0,24.077,4393.2494919619,154.527564,0.447388,1.04708336684,0,0,-0.671082,126.1, 0.9, 0.4,0,0,1024,1024,1024,1024,126.6,-89.9,96,4.004,4.017,4.015,4.012,4.023,4.007,17.452,77,14,Waypoint,
38.0977277,-120.1812963,4394.2337439619,155.511816,0,0.81306104964,21200,2018-05-09 19:54:16,18,0,24.077,4394.2337439619,155.511816,0.447388,1.04708336684,0,0,-0.671082,126.2, 1, 0.5,0,0,1024,1024,1024,1024,126.6,-89.9,96,4.004,4.017,4.015,4.012,4.023,4.007,17.452,77,14,Waypoint,
38.0977277,-120.1812963,4395.2179959619,156.496068,0,0.81306104964,21300,2018-05-09 19:54:17,18,0,24.077,4395.2179959619,156.496068,0.447388,1.04708336684,0,0,-0.671082,126.3, 1, 0.9,0,0,1024,1024,1024,1024,126.6,-89.9,96,4.004,4.017,4.015,4.012,4.023,4.007,17.452,77,14,Waypoint,
38.0977277,-120.1812963,4396.2022479619,157.48032,0,0.81306104964,21400,2018-05-09 19:54:17,18,0,24.077,4396.2022479619,157.48032,0.447388,1.04708336684,0,0,-0.671082,126.4, 1, 1.1,0,0,1024,1024,1024,1024,126.6,-89.9,96,4.004,4.017,4.015,4.012,4.023,4.007,17.452,77,14,Waypoint,
38.0977278,-120.1812964,4398.1707519619,159.448824,0,0.81234910736,21500,2018-05-09 19:54:17,18,0,24.077,4398.1707519619,159.448824,0.447388,1.04708336684,0,0,-0.671082,126.4, 0.7, 0.5,0,0,1024,1024,1024,1024,126.6,-89.9,96,4.004,4.017,4.015,4.012,4.023,4.007,17.452,77,14,Waypoint,
38.0977278,-120.1812965,4399.1550039619,160.433076,0,0.79022968408,21600,2018-05-09 19:54:17,18,0,24.077,4399.1550039619,160.433076,0.447388,1.04708336684,0,0,-0.671082,126.3, 0.4, 0.3,0,0,1024,1024,1024,1024,126.6,-90,96,4.004,4.017,4.015,4.012,4.023,4.007,17.452,77,14,Waypoint,
38.0977278,-120.1812966,4402.1077599619,163.385832,0,0.76854333168,21900,2018-05-09 19:54:17,18,0,24.077,4402.1077599619,163.385832,0.447388,1.04708336684,0,0,-0.671082,126.1, 0.1, 0.3,0,0,1024,1024,1024,1024,126.6,-90,96,4.004,4.017,4.015,4.012,4.023,4.007,17.452,77,14,Waypoint,
38.0977279,-120.1812967,4404.0762639619,165.354336,0,0.77272968352,22200,2018-05-09 19:54:17,18,0,24.077,4404.0762639619,165.354336,0.447388,1.04708336684,0,0,-0.671082,126.3, 0.2, 0.6,0,0,1024,1024,1024,1024,126.6,-89.9,96,4.004,4.017,4.015,4.012,4.023,4.007,17.452,77,14,Waypoint,
38.097728,-120.1812968,4405.0605159619,166.338588,0,0.77966537928,22300,2018-05-09 19:54:18,18,0,24.077,4405.0605159619,166.338588,0.447388,1.04708336684,0,0,-0.671082,126.3, 0.2, 0.9,0,0,1024,1024,1024,1024,126.6,-90,96,4.004,4.017,4.015,4.012,4.023,4.007,17.452,77,14,Waypoint,
38.097728,-120.1812968,4406.0447679619,167.32284,0,0.77966537928,22400,2018-05-09 19:54:18,18,0,24.077,4406.0447679619,167.32284,0.447388,1.04708336684,0,0,-0.671082,126.3, 0, 0.8,0,0,1024,1024,1024,1024,126.6,-90,96,4.004,4.017,4.015,4.012,4.023,4.007,17.452,77,14,Waypoint,
38.0977281,-120.1812969,4408.0132719619,169.291344,0,0.7892716788,22600,2018-05-09 19:54:18,18,0,24.077,4408.0132719619,169.291344,0.447388,1.04708336684,0,0,-0.671082,126, -0.2, 0.9,0,0,1024,1024,1024,1024,126.6,-90,96,4.004,4.017,4.015,4.012,4.023,4.007,17.452,77,14,Waypoint,
38.0977281,-120.181297,4408.9975239619,170.275596,0,0.77184713756,22700,2018-05-09 19:54:18,18,0,24.077,4408.9975239619,170.275596,0.447388,1.04708336684,0,0,-0.671082,125.9, -0.4, 0.9,0,0,1024,1024,1024,1024,126.6,-90,96,4.004,4.017,4.015,4.012,4.023,4.007,17.452,77,14,Waypoint,
38.0977282,-120.1812971,4411.9502799619,173.228352,0,0.78535435584,23000,2018-05-09 19:54:18,18,0,24.1,4411.9502799619,173.228352,0.447388,1.04708336684,0,0,-0.671082,126, -0.6, 0.9,0,0,1024,1024,1024,1024,126.6,-90,96,4.01,4.011,4.017,4.018,4.019,4.021,17.008,77,14,Waypoint,
38.0977283,-120.1812972,4412.9345319619,174.212604,0,0.8013287658,23100,2018-05-09 19:54:18,18,0,24.1,4412.9345319619,174.212604,0.447388,1.04708336684,0,0,-0.671082,125.9, -0.5, 0.9,0,0,1024,1024,1024,1024,126.6,-90,96,4.01,4.011,4.017,4.018,4.019,4.021,17.008,77,14,Waypoint,
38.0977284,-120.1812971,4416.8715399619,178.149612,0,0.84731958092,23400,2018-05-09 19:54:19,18,0,24.1,4416.8715399619,178.149612,0.447388,1.04708336684,0,0,-0.671082,125.6, 0, 1.4,0,0,1024,1024,1024,1024,126.6,-89.9,96,4.01,4.011,4.017,4.018,4.019,4.021,17.008,77,14,Waypoint,
38.0977284,-120.1812971,4417.8557919619,179.133864,0,0.84731958092,23500,2018-05-09 19:54:19,18,0,24.1,4417.8557919619,179.133864,0.447388,1.04708336684,0,0,-0.671082,125.7, 0, 1.5,0,0,1024,1024,1024,1024,126.6,-89.9,96,4.01,4.011,4.017,4.018,4.019,4.021,17.008,77,14,Waypoint,
38.0977284,-120.181297,4418.8400439619,180.118116,0,0.86226708796,23600,2018-05-09 19:54:19,18,0,24.1,4418.8400439619,180.118116,0.447388,1.04708336684,0,0,-0.671082,125.7, 0.1, 1.7,0,0,1024,1024,1024,1024,126.6,-89.9,96,4.01,4.011,4.017,4.018,4.019,4.021,17.008,77,14,Waypoint,
38.0977285,-120.181297,4419.8242959619,181.102368,0,0.89335304696,23700,2018-05-09 19:54:19,18,0,24.1,4419.8242959619,181.102368,0.447388,1.04708336684,0,0,-0.671082,125.8, 0.1, 1.8,0,0,1024,1024,1024,1024,126.6,-89.9,96,4.01,4.011,4.017,4.018,4.019,4.021,17.008,77,14,Waypoint,
38.0977286,-120.1812969,4421.7927999619,183.070872,0,0.93942916392,24000,2018-05-09 19:54:19,18,0,24.1,4421.7927999619,183.070872,0.447388,1.04708336684,0,0,-0.671082,125.9, 0.2, 2.1,0,0,1024,1024,1024,1024,126.6,-89.9,96,4.009,4.008,4.025,4.017,4.024,4.015,17.008,77,14,Waypoint,
38.0977286,-120.1812968,4423.7613039619,185.039376,0,0.95466210404,24100,2018-05-09 19:54:19,18,0,24.1,4423.7613039619,185.039376,0.447388,1.04708336684,0,0,-0.671082,126.2, 0.2, 2.2,0,0,1024,1024,1024,1024,126.6,-89.9,96,4.009,4.008,4.025,4.017,4.024,4.015,17.008,77,14,Waypoint,
38.0977286,-120.1812968,4424.7455559619,186.023628,0,0.95466210404,24300,2018-05-09 19:54:20,18,0,24.1,4424.7455559619,186.023628,0.447388,1.04708336684,0,0,-0.671082,126.4, 0.2, 2.2,0,0,1024,1024,1024,1024,126.6,-89.9,96,4.009,4.008,4.025,4.017,4.024,4.015,17.008,77,14,Waypoint,
38.0977286,-120.1812967,4425.7298079619,187.00788,0,0.9705052804,24400,2018-05-09 19:54:20,18,0,24.1,4425.7298079619,187.00788,0.447388,1.04708336684,0,0,-0.671082,126.8, 0.4, 2.1,0,0,1024,1024,1024,1024,126.6,-89.9,96,4.009,4.008,4.025,4.017,4.024,4.015,17.008,77,14,Waypoint,
38.0977286,-120.1812967,4426.7140599619,187.992132,0,0.9705052804,24500,2018-05-09 19:54:20,18,0,24.1,4426.7140599619,187.992132,0.447388,1.04708336684,0,0,-0.671082,127.1, 0.4, 1.8,0,0,1024,1024,1024,1024,126.6,-89.9,96,4.009,4.008,4.025,4.017,4.024,4.015,17.008,77,14,Waypoint,
38.0977285,-120.1812968,4427.6983119619,188.976384,0,0.9241962238,24600,2018-05-09 19:54:20,18,0,24.1,4427.6983119619,188.976384,0.447388,1.04708336684,0,0,-0.671082,127.2, 0.5, 1.3,0,0,1024,1024,1024,1024,126.6,-89.9,96,4.009,4.008,4.025,4.017,4.024,4.015,17.008,77,14,Waypoint,
38.0977285,-120.1812968,4428.6825639619,189.960636,0,0.9241962238,24700,2018-05-09 19:54:20,18,0,24.1,4428.6825639619,189.960636,0.447388,1.04708336684,0,0,-0.671082,127.1, 0.4, 1.1,0,0,1024,1024,1024,1024,126.6,-89.9,96,4.009,4.008,4.025,4.017,4.024,4.015,17.008,77,14,Waypoint,
38.0977285,-120.1812968,4429.6668159619,190.944888,0,0.9241962238,24800,2018-05-09 19:54:20,18,0,24.1,4429.6668159619,190.944888,0.447388,1.04708336684,0,0,-0.671082,126.8, 0.4, 1.1,0,0,1024,1024,1024,1024,126.6,-89.9,96,4.009,4.008,4.025,4.017,4.024,4.015,17.008,77,14,Waypoint,
38.0977285,-120.1812968,4430.6510679619,191.92914,0,0.9241962238,24900,2018-05-09 19:54:20,18,0,24.1,4430.6510679619,191.92914,0.447388,1.04708336684,0,0,-0.671082,126.4, 0.4, 0.9,0,0,1024,1024,1024,1024,126.6,-89.9,96,4.009,4.008,4.025,4.017,4.024,4.015,17.008,77,14,Waypoint,
38.0977285,-120.1812968,4431.6353199619,192.913392,0,0.9241962238,25000,2018-05-09 19:54:20,18,0,24.125,4431.6353199619,192.913392,0.447388,1.04708336684,0,0,-0.671082,126, 0.4, 0.8,0,0,1024,1024,1024,1024,126.6,-89.9,96,4.024,4.02,4.023,4.012,4.014,4.021,16.595,77,14,Waypoint,
38.0977285,-120.1812968,4432.6195719619,193.897644,0,0.9241962238,25100,2018-05-09 19:54:20,18,0,24.125,4432.6195719619,193.897644,0.447388,1.04708336684,0,0,-0.671082,125.7, 0.3, 0.8,0,0,1024,1024,1024,1024,126.6,-89.9,96,4.024,4.02,4.023,4.012,4.014,4.021,16.595,77,14,Waypoint,
38.0977285,-120.1812968,4433.6038239619,194.881896,0,0.9241962238,25200,2018-05-09 19:54:20,18,0,24.125,4433.6038239619,194.881896,0.447388,1.04708336684,0,0,-0.671082,125.4, 0.1, 0.9,0,0,1024,1024,1024,1024,126.6,-89.9,96,4.024,4.02,4.023,4.012,4.014,4.021,16.595,77,14,Waypoint,
38.0977285,-120.1812968,4434.5880759619,195.866148,0,0.9241962238,25300,2018-05-09 19:54:21,18,0,24.125,4434.5880759619,195.866148,0.447388,1.04708336684,0,0,-0.671082,125.2, 0.1, 0.9,0,0,1024,1024,1024,1024,126.6,-89.9,96,4.024,4.02,4.023,4.012,4.014,4.021,16.595,77,14,Waypoint,
38.0977285,-120.1812968,4435.5723279619,196.8504,0,0.9241962238,25400,2018-05-09 19:54:21,18,0,24.125,4435.5723279619,196.8504,0.447388,1.04708336684,0,0,-0.671082,125.2, 0.1, 0.9,0,0,1024,1024,1024,1024,126.6,-89.9,96,4.024,4.02,4.023,4.012,4.014,4.021,16.595,77,14,Waypoint,
38.0977285,-120.1812967,4437.2127479619,198.49082,0,0.94055449204,25500,2018-05-09 19:54:21,18,0,24.125,4437.2127479619,198.49082,0.447388,1.04708336684,0,0,-0.671082,125.4, 0.3, 1.1,0,0,1024,1024,1024,1024,126.6,-89.9,96,4.024,4.02,4.023,4.012,4.014,4.021,16.595,77,14,Waypoint,
38.0977285,-120.1812967,4438.1969999619,199.475072,0,0.94055449204,25600,2018-05-09 19:54:21,18,0,24.125,4438.1969999619,199.475072,0.447388,1.04708336684,0,0,-0.671082,125.5, 0.5, 1,0,0,1024,1024,1024,1024,126.6,-89.9,96,4.024,4.02,4.023,4.012,4.014,4.021,16.595,77,14,Waypoint,
38.0977285,-120.1812967,4439.1812519619,200.459324,0,0.94055449204,25700,2018-05-09 19:54:21,18,0,24.125,4439.1812519619,200.459324,0.447388,1.04708336684,0,0,-0.671082,125.7, 0.7, 0.9,0,0,1024,1024,1024,1024,126.6,-89.9,96,4.024,4.02,4.023,4.012,4.014,4.021,16.595,77,14,Waypoint,
38.0977285,-120.1812966,4440.1655039619,201.443576,0,0.95749346896,25800,2018-05-09 19:54:21,18,0,24.125,4440.1655039619,201.443576,0.447388,1.04708336684,0,0,-0.671082,125.8, 0.7, 1.1,0,0,1024,1024,1024,1024,126.6,-89.9,96,4.024,4.02,4.023,4.012,4.014,4.021,16.595,77,14,Waypoint,
38.0977285,-120.1812966,4442.1340079619,203.41208,0,0.95749346896,26000,2018-05-09 19:54:21,18,0,24.114,4442.1340079619,203.41208,0.447388,1.04708336684,0,0,-0.671082,126.1, 0.6, 1.4,0,0,1024,1024,1024,1024,126.6,-89.9,96,4.007,4.017,4.021,4.024,4.037,4.014,16.65,77,14,Waypoint,
38.0977285,-120.1812966,4443.1182599619,204.396332,0,0.95749346896,26100,2018-05-09 19:54:21,18,0,24.114,4443.1182599619,204.396332,0.447388,1.04708336684,0,0,-0.671082,126.2, 0.6, 1.4,0,0,1024,1024,1024,1024,126.6,-89.9,96,4.007,4.017,4.021,4.024,4.037,4.014,16.65,77,14,Waypoint,
38.0977285,-120.1812966,4444.1025119619,205.380584,0,0.95749346896,26200,2018-05-09 19:54:21,18,0,24.114,4444.1025119619,205.380584,0.447388,1.04708336684,0,0,-0.671082,126.4, 0.4, 1.3,0,0,1024,1024,1024,1024,126.6,-89.9,96,4.007,4.017,4.021,4.024,4.037,4.014,16.65,77,14,Waypoint,
38.0977285,-120.1812966,4445.0867639619,206.364836,0,0.95749346896,26400,2018-05-09 19:54:22,18,0,24.114,4445.0867639619,206.364836,0.447388,1.04708336684,0,0,-0.671082,126.4, 0.3, 1.4,0,0,1024,1024,1024,1024,126.6,-89.9,96,4.007,4.017,4.021,4.024,4.037,4.014,16.65,77,14,Waypoint,
38.0977285,-120.1812966,4446.0710159619,207.349088,0,0.95749346896,26500,2018-05-09 19:54:22,18,0,24.114,4446.0710159619,207.349088,0.447388,1.04708336684,0,0,-0.671082,126.4, 0.4, 1.6,0,0,1024,1024,1024,1024,126.6,-89.9,96,4.007,4.017,4.021,4.024,4.037,4.014,16.65,77,14,Waypoint,
38.0977285,-120.1812966,4448.0395199619,209.317592,0,0.95749346896,26610,2018-05-09 19:54:22,18,0,24.114,4448.0395199619,209.317592,0.447388,1.04708336684,0,0,-0.671082,126.2, 0.2, 1.6,0,0,1024,1024,1024,1024,126.6,-89.9,96,4.007,4.017,4.021,4.024,4.037,4.014,16.65,77,14,Waypoint,
38.0977285,-120.1812966,4448.0395199619,209.317592,0,0.95749346896,26700,2018-05-09 19:54:22,18,0,24.114,4448.0395199619,209.317592,0.447388,1.04708336684,0,0,-0.671082,126.2, 0.2, 1.6,0,0,1024,1024,1024,1024,126.6,-89.9,96,4.007,4.017,4.021,4.024,4.037,4.014,16.65,77,14,Waypoint,
38.0977286,-120.1812966,4449.0237719619,210.301844,0,0.98693244628,26800,2018-05-09 19:54:22,18,0,24.114,4449.0237719619,210.301844,0.447388,1.04708336684,0,0,-0.671082,126.2, 0.1, 1.6,0,0,1024,1024,1024,1024,126.6,-90,96,4.007,4.017,4.021,4.024,4.037,4.014,16.65,77,14,Waypoint,
38.0977286,-120.1812966,4451.3203599619,212.598432,0,0.98693244628,27000,2018-05-09 19:54:22,18,0,24.09,4451.3203599619,212.598432,0.447388,1.04708336684,0,0,-0.671082,126.1, 0, 1.7,0,0,1024,1024,1024,1024,126.6,-89.9,96,4.004,4.012,4.021,4.015,4.027,4.016,16.698,77,14,Waypoint,
38.0977286,-120.1812966,4452.3046119619,213.582684,0,0.98693244628,27100,2018-05-09 19:54:22,18,0,24.09,4452.3046119619,213.582684,0.447388,1.04708336684,0,0,-0.671082,126, 0, 1.7,0,0,1024,1024,1024,1024,126.6,-90,96,4.004,4.012,4.021,4.015,4.027,4.016,16.698,77,14,Waypoint,
38.0977286,-120.1812967,4453.2888639619,214.566936,0,0.9705052804,27200,2018-05-09 19:54:22,18,0,24.09,4453.2888639619,214.566936,0.447388,1.04708336684,0,0,-0.671082,126, 0, 1.6,0,0,1024,1024,1024,1024,126.6,-89.9,96,4.004,4.012,4.021,4.015,4.027,4.016,16.698,77,14,Waypoint,
38.0977286,-120.1812967,4454.2731159619,215.551188,0,0.9705052804,27300,2018-05-09 19:54:23,18,0,24.09,4454.2731159619,215.551188,0.447388,1.04708336684,0,0,-0.671082,125.9, 0.1, 1.7,0,0,1024,1024,1024,1024,126.6,-89.9,96,4.004,4.012,4.021,4.015,4.027,4.016,16.698,77,14,Waypoint,
38.0977286,-120.1812967,4455.2573679619,216.53544,0,0.9705052804,27400,2018-05-09 19:54:23,18,0,24.09,4455.2573679619,216.53544,0.447388,1.04708336684,0,0,-0.671082,125.9, 0, 1.7,0,0,1024,1024,1024,1024,126.6,-89.9,96,4.004,4.012,4.021,4.015,4.027,4.016,16.698,77,14,Waypoint,
38.0977287,-120.1812967,4457.2258719619,218.503944,0,1.00089242048,27600,2018-05-09 19:54:23,18,0,24.09,4457.2258719619,218.503944,0.447388,1.04708336684,0,0,-0.671082,126, 0, 1.5,0,0,1024,1024,1024,1024,126.6,-90,96,4.004,4.012,4.021,4.015,4.027,4.016,16.698,77,14,Waypoint,
38.0977287,-120.1812968,4458.2101239619,219.488196,0,0.98553480844,27700,2018-05-09 19:54:23,18,0,24.09,4458.2101239619,219.488196,0.447388,1.04708336684,0,0,-0.671082,126, -0.1, 1.4,0,0,1024,1024,1024,1024,126.6,-90,96,4.004,4.012,4.021,4.015,4.027,4.016,16.698,77,14,Waypoint,
38.0977287,-120.1812968,4459.1943759619,220.472448,0,0.98553480844,27800,2018-05-09 19:54:23,18,0,24.09,4459.1943759619,220.472448,0.447388,1.04708336684,0,0,-0.671082,126, -0.2, 1.3,0,0,1024,1024,1024,1024,126.6,-90,96,4.004,4.012,4.021,4.015,4.027,4.016,16.698,77,14,Waypoint,
38.0977288,-120.1812968,4461.1628799619,222.440952,0,1.0167815286,27900,2018-05-09 19:54:23,18,0,24.09,4461.1628799619,222.440952,0.447388,1.04708336684,0,0,-0.671082,125.9, -0.5, 1.5,0,0,1024,1024,1024,1024,126.6,-90,96,4.004,4.012,4.021,4.015,4.027,4.016,16.698,77,14,Waypoint,
38.0977288,-120.1812969,4462.1471319619,223.425204,0,1.0024934704,28000,2018-05-09 19:54:23,18,0,24.078,4462.1471319619,223.425204,0.447388,1.04708336684,0,0,-0.671082,125.7, -0.4, 1.7,0,0,1024,1024,1024,1024,126.6,-89.9,96,4.001,4.014,4.021,4.016,4.021,4.018,16.619,78.8,14,Waypoint,
38.0977288,-120.1812969,4463.1313839619,224.409456,0,1.0024934704,28110,2018-05-09 19:54:23,18,0,24.078,4463.1313839619,224.409456,0.447388,1.04708336684,0,0,-0.671082,125.6, -0.4, 1.7,0,0,1024,1024,1024,1024,126.6,-90,96,4.001,4.014,4.021,4.016,4.021,4.018,16.619,78.8,14,Waypoint,
