Latitude, Longitude, Altitude (m), Time, Sats, Speed (m/s), Range (m), Battery (%), Roll (deg), Pitch (deg), Yaw (deg), Images, HD Signal (%), RC Signal (%), Battery Temp (C), Battery Voltage (mV), Battery Current (mA), Battery Energy (mAh), Battery Capacity (mAh), Battery Discharges, flyState, timestamp (Unix), LastUpdate (ms), radioChannel, Rc_elevator, Rc_aileron, Rc_throttle, Rc_rudder, Rc_gyro, Dronetype, Battery_Cell1 (mV), Battery_Cell2 (mV), Battery_Cell3 (mV), Battery_Cell4 (mV), Battery_Cell5 (mV), Battery_Cell6 (mV), Video, isFlying, elapsedTime (ms), gimbalPitch (deg), gimbalRoll (deg), gimbalYaw (deg), VelocityX (m/s), VelocityY (m/s), VelocityZ (m/s), GroundSmear (cm), App Version, Aircraft Name, Aircraft Firmware, Aircraft Serial Number, Battery Serial Number, Battery Lifetime (%), App_Tip, App_Warning, CurrentFlightStartingIndex, CurrentFlightLastVisitedWaypoint, PreviousFlightEndingWaypointIndex
38.0977359, -120.1812911, 0.000, 11:08:12.906, 12, 0.10, 0.06, 98, 0.300, -0.200, 124.400, 2, 100, 100, 17, 25539, -3821, 5381, 5491, 11, 11, 1525889292.906, 151, 0, 1024, 1024, 1024, 1024, 0, 6, 4227, 4230, 4190, 4249, 4225, 4230, 0, 1, 3088, -89.900, 0.000, 122.600, 0.000, 0.100, -0.100, 0.0, MapPilot_2.8.1_04242018, Dendroctonus I, 1.3.1.00, 041DDC1887, 1058163200505, 98, DJI_0003.jpg, Starting Mission from Lat/Long: 38.09772/-120.18124 Camera: Zenmuse X3 - Overlap: 90/90 - Active Connection: No, 0, 0, 0
38.0977357, -120.1812905, 0.000, 11:08:12.937, 13, 0.10, 0.11, 98, 0.000, 1.300, 124.600, 2, 100, 100, 17, 25539, -3821, 5381, 5491, 11, 11, 1525889292.938, 18, 0, 1024, 1024, 1024, 1024, 0, 6, 4227, 4230, 4190, 4249, 4225, 4230, 0, 1, 3120, -89.900, 0.000, 122.700, 0.000, 0.100, -0.300, 0.0, , , , , , 98, , , 0, 0, 0
38.0977356, -120.1812903, 0.000, 11:08:13.020, 13, 0.10, 0.12, 98, 0.300, 1.600, 124.500, 2, 100, 100, 17, 25539, -3821, 5381, 5491, 11, 11, 1525889293.020, 8, 0, 1024, 1024, 1024, 1024, 0, 6, 4227, 4230, 4190, 4249, 4225, 4230, 0, 1, 3202, -89.900, 0.000, 122.800, 0.000, 0.100, -0.400, 0.0, , , , , , 98, , , 0, 0, 0
38.0977356, -120.1812903, 0.000, 11:08:13.122, 13, 0.10, 0.12, 98, 0.300, 1.600, 124.500, 2, 100, 100, 17, 25539, -3821, 5381, 5491, 11, 11, 1525889293.123, 111, 0, 1024, 1024, 1024, 1024, 0, 6, 4227, 4230, 4190, 4249, 4225, 4230, 0, 1, 3305, -89.900, 0.000, 122.800, 0.000, 0.100, -0.400, 0.0, , , , , , 98, , , 0, 0, 0
38.0977356, -120.1812903, 0.000, 11:08:13.219, 13, 0.10, 0.12, 98, 0.300, 1.600, 124.500, 2, 100, 100, 17, 25539, -3821, 5381, 5491, 11, 11, 1525889293.219, 207, 0, 1024, 1024, 1024, 1024, 0, 6, 4227, 4230, 4190, 4249, 4225, 4230, 0, 1, 3401, -89.900, 0.000, 122.800, 0.000, 0.100, -0.400, 0.0, , , , , , 98, , , 0, 0, 0
38.0977357, -120.1812897, 0.200, 11:08:13.326, 13, 0.10, 0.18, 98, 0.600, 1.100, 124.000, 2, 100, 100, 17, 24392, -12711, 5381, 5491, 11, 11, 1525889293.326, 15, 0, 1024, 1024, 1024, 1024, 0, 6, 4227, 4230, 4190, 4249, 4225, 4230, 0, 1, 3508, -89.900, 0.000, 122.800, 0.000, 0.100, -0.400, 0.0, , , , , , 98, , , 0, 0, 0
38.0977357, -120.1812897, 0.200, 11:08:13.420, 13, 0.10, 0.18, 98, 0.600, 1.100, 124.000, 2, 100, 100, 17, 24392, -12711, 5381, 5491, 11, 11, 1525889293.420, 108, 0, 1024, 1024, 1024, 1024, 0, 6, 4227, 4230, 4190, 4249, 4225, 4230, 0, 1, 3602, -89.900, 0.000, 122.800, 0.000, 0.100, -0.400, 0.0, , , , , , 98, , , 0, 0, 0
38.0977357, -120.1812895, 0.200, 11:08:13.519, 13, 0.10, 0.19, 98, 0.900, 1.100, 124.000, 2, 100, 100, 17, 24392, -12711, 5381, 5491, 11, 11, 1525889293.520, 93, 0, 1024, 1024, 1024, 1024, 0, 6, 4227, 4230, 4190, 4249, 4225, 4230, 0, 1, 3702, -89.900, 0.000, 122.800, 0.000, 0.100, -0.400, 0.0, , , , , , 98, , , 0, 0, 0
38.0977358, -120.1812894, 0.300, 11:08:13.620, 13, 0.10, 0.21, 98, 0.900, 0.900, 123.900, 2, 100, 100, 17, 24392, -12711, 5381, 5491, 11, 11, 1525889293.620, 95, 0, 1024, 1024, 1024, 1024, 0, 6, 4227, 4230, 4190, 4249, 4225, 4230, 0, 1, 3802, -89.900, 0.000, 122.900, 0.000, 0.100, -0.400, 0.0, , , , , , 98, , , 0, 0, 0
38.0977358, -120.1812892, 0.300, 11:08:13.719, 13, 0.10, 0.22, 98, 1.000, 0.900, 123.900, 2, 100, 100, 17, 24392, -12711, 5381, 5491, 11, 11, 1525889293.719, 94, 0, 1024, 1024, 1024, 1024, 0, 6, 3968, 4003, 3965, 4036, 4020, 4012, 0, 1, 3901, -89.900, 0.000, 122.900, 0.000, 0.100, -0.400, 0.0, , , , , , 98, , , 0, 0, 0
38.0977359, -120.1812890, 0.400, 11:08:13.820, 12, 0.10, 0.24, 98, 1.000, 1.100, 123.900, 2, 100, 100, 17, 24392, -12711, 5381, 5491, 11, 11, 1525889293.821, 75, 0, 1024, 1024, 1024, 1024, 0, 6, 3968, 4003, 3965, 4036, 4020, 4012, 0, 1, 4002, -89.900, 0.000, 122.900, 0.000, 0.100, -0.400, 0.0, , , , , , 98, , , 0, 0, 0
38.0977359, -120.1812888, 0.400, 11:08:13.920, 12, 0.10, 0.26, 98, 0.800, 1.200, 123.900, 2, 100, 100, 17, 24392, -12711, 5381, 5491, 11, 11, 1525889293.922, 78, 0, 1024, 1024, 1024, 1024, 0, 6, 3968, 4003, 3965, 4036, 4020, 4012, 0, 1, 4104, -89.900, 0.000, 122.900, 0.000, 0.100, -0.400, 0.0, , , , , , 98, , , 0, 0, 0
38.0977359, -120.1812886, 0.400, 11:08:14.020, 13, 0.10, 0.27, 98, 1.000, 1.300, 124.000, 2, 100, 100, 17, 24392, -12711, 5381, 5491, 11, 11, 1525889294.021, 79, 0, 1024, 1024, 1024, 1024, 0, 6, 3968, 4003, 3965, 4036, 4020, 4012, 0, 1, 4203, -89.900, 0.000, 122.900, 0.000, 0.100, -0.400, 0.0, , , , , , 98, , , 0, 0, 0
38.0977359, -120.1812885, 0.500, 11:08:14.119, 13, 0.10, 0.29, 98, 1.400, 1.500, 124.000, 2, 100, 100, 17, 24392, -12711, 5381, 5491, 11, 11, 1525889294.120, 79, 0, 1024, 1024, 1024, 1024, 0, 6, 3968, 4003, 3965, 4036, 4020, 4012, 0, 1, 4301, -89.900, 0.000, 123.000, 0.000, 0.100, -0.400, 0.0, , , , , , 98, , , 0, 0, 0
38.0977359, -120.1812883, 0.500, 11:08:14.219, 13, 0.00, 0.30, 98, 1.700, 1.700, 124.000, 2, 100, 100, 17, 24392, -12711, 5381, 5491, 11, 11, 1525889294.219, 69, 0, 1024, 1024, 1024, 1024, 0, 6, 3968, 4003, 3965, 4036, 4020, 4012, 0, 1, 4401, -89.900, 0.000, 123.000, 0.000, 0.000, -0.400, 0.0, , , , , , 98, , , 0, 0, 0
38.0977359, -120.1812882, 0.600, 11:08:14.320, 13, 0.00, 0.31, 98, 1.800, 1.800, 124.000, 2, 100, 100, 17, 24392, -12711, 5381, 5491, 11, 11, 1525889294.320, 73, 0, 1024, 1024, 1024, 1024, 0, 6, 3968, 4003, 3965, 4036, 4020, 4012, 0, 1, 4502, -89.900, 0.000, 123.000, 0.000, 0.000, -0.500, 0.0, , , , , , 98, , , 0, 0, 0
38.0977360, -120.1812881, 0.600, 11:08:14.420, 13, 0.00, 0.32, 98, 1.900, 1.800, 123.900, 2, 100, 100, 17, 24392, -12711, 5381, 5491, 11, 11, 1525889294.420, 64, 0, 1024, 1024, 1024, 1024, 0, 6, 3968, 4003, 3965, 4036, 4020, 4012, 0, 1, 4602, -89.900, 0.000, 123.000, 0.000, 0.000, -0.400, 0.0, , , , , , 98, , , 0, 0, 0
38.0977360, -120.1812881, 0.700, 11:08:14.520, 13, 0.00, 0.32, 98, 1.700, 1.900, 123.800, 2, 100, 100, 17, 24392, -12711, 5381, 5491, 11, 11, 1525889294.521, 71, 0, 1024, 1024, 1024, 1024, 0, 6, 3968, 4003, 3965, 4036, 4020, 4012, 0, 1, 4703, -89.900, 0.000, 123.000, 0.000, 0.000, -0.400, 0.0, , , , , , 98, , , 0, 0, 0
38.0977359, -120.1812880, 0.700, 11:08:14.620, 13, 0.00, 0.32, 98, 1.500, 1.900, 123.800, 2, 100, 100, 17, 24392, -12711, 5381, 5491, 11, 11, 1525889294.620, 60, 0, 1024, 1024, 1024, 1024, 0, 6, 3968, 4003, 3965, 4036, 4020, 4012, 0, 1, 4802, -89.900, 0.000, 123.100, 0.000, 0.000, -0.400, 0.0, , , , , , 98, , , 0, 0, 0
38.0977359, -120.1812880, 0.800, 11:08:14.720, 13, 0.00, 0.33, 98, 1.400, 1.900, 123.800, 2, 100, 100, 17, 23697, -16416, 5381, 5491, 11, 11, 1525889294.721, 67, 0, 1024, 1024, 1024, 1024, 0, 6, 3912, 3923, 3915, 3983, 3972, 3922, 0, 1, 4903, -89.900, 0.000, 123.100, 0.000, 0.000, -0.400, 0.0, , , , , , 98, , , 0, 0, 0
38.0977359, -120.1812879, 0.800, 11:08:14.820, 14, 0.00, 0.33, 98, 1.400, 1.900, 123.900, 2, 100, 100, 17, 23697, -16416, 5381, 5491, 11, 11, 1525889294.820, 43, 0, 1024, 1024, 1024, 1024, 0, 6, 3912, 3923, 3915, 3983, 3972, 3922, 0, 1, 5002, -89.900, 0.000, 123.100, 0.000, 0.000, -0.400, 0.0, , , , , , 98, , , 0, 0, 0
38.0977359, -120.1812879, 0.900, 11:08:14.920, 14, 0.00, 0.34, 98, 1.300, 2.000, 124.100, 2, 100, 100, 17, 23697, -16416, 5381, 5491, 11, 6, 1525889294.920, 34, 0, 1024, 1024, 1024, 1024, 0, 6, 3912, 3923, 3915, 3983, 3972, 3922, 0, 1, 5102, -89.900, 0.000, 123.100, 0.000, 0.000, -0.500, 0.0, , , , , , 98, , , 0, 0, 0
38.0977359, -120.1812879, 0.900, 11:08:15.019, 12, 0.00, 0.34, 98, 1.400, 2.000, 124.300, 2, 100, 100, 17, 23697, -16416, 5381, 5491, 11, 14, 1525889295.020, 34, 0, 1024, 1024, 1024, 1024, 0, 6, 3912, 3923, 3915, 3983, 3972, 3922, 0, 1, 5202, -89.900, 0.000, 123.100, 0.000, 0.000, -0.400, 0.0, , , , , , 98, , , 0, 0, 0
38.0977359, -120.1812879, 1.000, 11:08:15.119, 12, 0.00, 0.34, 98, 0.400, 1.100, 124.400, 2, 100, 100, 17, 23697, -16416, 5381, 5491, 11, 14, 1525889295.120, 7, 0, 1024, 1024, 1024, 1024, 0, 6, 3912, 3923, 3915, 3983, 3972, 3922, 0, 1, 5302, -90.000, 0.000, 123.100, 0.000, 0.000, -0.300, 0.0, , , , , , 98, , , 0, 0, 0
38.0977359, -120.1812879, 1.000, 11:08:15.220, 13, 0.00, 0.34, 98, 0.000, 0.400, 124.600, 2, 100, 100, 17, 23697, -16416, 5381, 5491, 11, 14, 1525889295.220, 23, 0, 1024, 1024, 1024, 1024, 0, 6, 3912, 3923, 3915, 3983, 3972, 3922, 0, 1, 5402, -90.000, 0.000, 123.100, 0.000, 0.000, -0.200, 0.0, , , , , , 98, , , 0, 0, 0
38.0977360, -120.1812877, 1.000, 11:08:15.319, 13, 0.00, 0.35, 98, 0.000, 0.200, 124.700, 2, 100, 100, 17, 23697, -16416, 5381, 5491, 11, 14, 1525889295.320, 37, 0, 1024, 1024, 1024, 1024, 0, 6, 3912, 3923, 3915, 3983, 3972, 3922, 0, 1, 5501, -89.900, 0.000, 123.200, 0.000, 0.000, -0.300, 0.0, , , , , , 98, , , 0, 0, 0
38.0977361, -120.1812876, 1.100, 11:08:15.420, 13, 0.00, 0.37, 98, 0.600, 0.400, 124.700, 2, 100, 100, 17, 23697, -16416, 5381, 5491, 11, 14, 1525889295.421, 27, 0, 1024, 1024, 1024, 1024, 0, 6, 3912, 3923, 3915, 3983, 3972, 3922, 0, 1, 5603, -89.900, 0.000, 123.200, 0.000, 0.000, -0.300, 0.0, , , , , , 98, , , 0, 0, 0
38.0977360, -120.1812876, 1.100, 11:08:15.520, 13, 0.00, 0.37, 98, 1.200, 0.600, 124.800, 2, 100, 100, 17, 23697, -16416, 5381, 5491, 11, 14, 1525889295.523, 40, 0, 1024, 1024, 1024, 1024, 0, 6, 3912, 3923, 3915, 3983, 3972, 3922, 0, 1, 5704, -89.900, 0.000, 123.200, 0.000, 0.000, -0.400, 0.0, , , , , , 98, , , 0, 0, 0
38.0977360, -120.1812875, 1.200, 11:08:15.619, 13, 0.00, 0.37, 98, 1.300, 0.800, 124.900, 2, 100, 100, 17, 23697, -16416, 5381, 5491, 11, 14, 1525889295.620, 38, 0, 1024, 1024, 1024, 1024, 0, 6, 3912, 3923, 3915, 3983, 3972, 3922, 0, 1, 5802, -89.900, 0.000, 123.200, 0.000, 0.000, -0.600, 0.0, , , , , , 98, , , 0, 0, 0
38.0977360, -120.1812875, 1.200, 11:08:15.720, 13, 0.00, 0.38, 98, 1.200, 1.000, 124.900, 2, 100, 100, 17, 23519, -16944, 5381, 5491, 11, 14, 1525889295.721, 33, 0, 1024, 1024, 1024, 1024, 0, 6, 3912, 3923, 3915, 3983, 3972, 3922, 0, 1, 5903, -89.900, 0.000, 123.200, 0.000, 0.000, -0.800, 0.0, , , , , , 98, , , 0, 0, 0
38.0977360, -120.1812874, 1.300, 11:08:15.820, 13, 0.00, 0.38, 98, 1.000, 1.000, 124.800, 2, 100, 100, 17, 23519, -16944, 5381, 5491, 11, 14, 1525889295.820, 12, 0, 1024, 1024, 1024, 1024, 0, 6, 3904, 3901, 3898, 3952, 3953, 3907, 0, 1, 6002, -89.900, 0.000, 123.200, 0.000, 0.000, -1.000, 0.0, , , , , , 98, , , 0, 0, 0
38.0977361, -120.1812873, 1.500, 11:08:15.919, 13, 0.00, 0.39, 98, 0.900, 0.900, 124.700, 2, 100, 100, 17, 23519, -16944, 5381, 5491, 11, 14, 1525889295.920, 29, 0, 1024, 1024, 1024, 1024, 0, 6, 3904, 3901, 3898, 3952, 3953, 3907, 0, 1, 6102, -89.900, 0.000, 123.300, 0.000, 0.000, -1.300, 0.0, , , , , , 98, , , 0, 0, 0
38.0977361, -120.1812873, 1.500, 11:08:16.020, 13, 0.00, 0.39, 98, 0.900, 0.900, 124.700, 2, 100, 100, 17, 23519, -16944, 5381, 5491, 11, 14, 1525889296.020, 129, 0, 1024, 1024, 1024, 1024, 0, 6, 3904, 3901, 3898, 3952, 3953, 3907, 0, 1, 6202, -89.900, 0.000, 123.300, 0.000, 0.000, -1.300, 0.0, , , , , , 98, , , 0, 0, 0
38.0977363, -120.1812872, 1.600, 11:08:16.120, 13, 0.00, 0.40, 98, 1.100, 0.800, 124.500, 2, 100, 100, 17, 23519, -16944, 5381, 5491, 11, 14, 1525889296.120, 97, 0, 1024, 1024, 1024, 1024, 0, 6, 3904, 3901, 3898, 3952, 3953, 3907, 0, 1, 6302, -89.900, 0.000, 123.300, 0.000, 0.000, -1.500, 0.0, , , , , , 98, , , 0, 0, 0
38.0977366, -120.1812870, 1.900, 11:08:16.219, 14, 0.00, 0.43, 98, 2.000, 0.600, 124.400, 2, 100, 100, 17, 23519, -16944, 5381, 5491, 11, 14, 1525889296.221, 78, 0, 1024, 1024, 1024, 1024, 0, 6, 3904, 3901, 3898, 3952, 3953, 3907, 0, 1, 6403, -89.900, 0.000, 123.300, 0.000, 0.000, -1.900, 0.0, , , , , , 98, , , 0, 0, 0
38.0977368, -120.1812870, 2.200, 11:08:16.320, 14, 0.00, 0.43, 98, 2.400, 0.600, 124.400, 2, 100, 100, 17, 23519, -16944, 5381, 5491, 11, 14, 1525889296.320, 88, 0, 1024, 1024, 1024, 1024, 0, 6, 3904, 3901, 3898, 3952, 3953, 3907, 0, 1, 6502, -89.900, 0.000, 123.300, 0.000, 0.000, -2.100, 0.0, , , , , , 98, , , 0, 0, 0
38.0977371, -120.1812869, 2.600, 11:08:16.426, 15, 0.00, 0.45, 98, 2.200, 0.800, 124.600, 2, 100, 100, 17, 23519, -16944, 5381, 5491, 11, 14, 1525889296.426, 7, 0, 1024, 1024, 1024, 1024, 0, 6, 3904, 3901, 3898, 3952, 3953, 3907, 0, 1, 6608, -89.900, 0.000, 123.300, 0.000, 0.000, -2.500, 0.0, , , , , , 98, , , 0, 0, 0
38.0977371, -120.1812869, 2.600, 11:08:16.520, 15, 0.00, 0.45, 98, 2.200, 0.800, 124.600, 2, 100, 100, 17, 23519, -16944, 5381, 5491, 11, 14, 1525889296.520, 101, 0, 1024, 1024, 1024, 1024, 0, 6, 3904, 3901, 3898, 3952, 3953, 3907, 0, 1, 6702, -89.900, 0.000, 123.300, 0.000, 0.000, -2.500, 0.0, , , , , , 98, , , 0, 0, 0
38.0977372, -120.1812868, 2.900, 11:08:16.620, 15, 0.00, 0.46, 98, 2.300, 1.000, 124.700, 2, 100, 100, 17, 23519, -16944, 5381, 5491, 11, 14, 1525889296.620, 87, 0, 1024, 1024, 1024, 1024, 0, 6, 3904, 3901, 3898, 3952, 3953, 3907, 0, 1, 6802, -89.900, 0.000, 123.300, 0.000, 0.000, -2.600, 0.0, , , , , , 98, , , 0, 0, 0
38.0977373, -120.1812867, 3.100, 11:08:16.720, 15, 0.00, 0.48, 98, 2.500, 1.000, 124.700, 2, 100, 100, 17, 23151, -17871, 5381, 5491, 11, 14, 1525889296.721, 67, 0, 1024, 1024, 1024, 1024, 0, 6, 3904, 3901, 3898, 3952, 3953, 3907, 0, 1, 6903, -89.900, 0.000, 123.300, 0.000, 0.000, -2.900, 0.0, , , , , , 98, , , 0, 0, 0
38.0977375, -120.1812866, 3.400, 11:08:16.819, 14, 0.00, 0.49, 98, 2.900, 1.000, 124.800, 2, 100, 100, 17, 23151, -17871, 5381, 5491, 11, 14, 1525889296.819, 66, 0, 1024, 1024, 1024, 1024, 0, 6, 3825, 3823, 3829, 3929, 3898, 3812, 0, 1, 7001, -89.900, 0.000, 123.300, 0.000, 0.000, -3.100, 0.0, , , , , , 98, , , 0, 0, 0
38.0977377, -120.1812867, 3.800, 11:08:16.920, 14, 0.00, 0.49, 98, 3.200, 1.000, 124.800, 2, 100, 100, 17, 23151, -17871, 5381, 5491, 11, 14, 1525889296.920, 57, 0, 1024, 1024, 1024, 1024, 0, 6, 3825, 3823, 3829, 3929, 3898, 3812, 0, 1, 7102, -89.900, 0.000, 123.300, 0.000, 0.000, -3.200, 0.0, , , , , , 98, , , 0, 0, 0
38.0977378, -120.1812868, 4.100, 11:08:17.020, 13, 0.00, 0.49, 98, 3.300, 0.800, 124.800, 2, 100, 100, 17, 23151, -17871, 5381, 5491, 11, 14, 1525889297.021, 61, 0, 1024, 1024, 1024, 1024, 0, 6, 3825, 3823, 3829, 3929, 3898, 3812, 0, 1, 7203, -89.900, 0.000, 123.300, 0.000, 0.000, -3.300, 0.0, , , , , , 98, , , 0, 0, 0
38.0977380, -120.1812869, 4.400, 11:08:17.121, 13, 0.00, 0.50, 98, 3.100, 0.300, 124.800, 2, 100, 100, 17, 23151, -17871, 5381, 5491, 11, 14, 1525889297.122, 45, 0, 1024, 1024, 1024, 1024, 0, 6, 3825, 3823, 3829, 3929, 3898, 3812, 0, 1, 7304, -89.900, 0.000, 123.300, 0.000, 0.000, -3.200, 0.0, , , , , , 98, , , 0, 0, 0
38.0977382, -120.1812870, 4.800, 11:08:17.220, 14, 0.00, 0.50, 98, 3.000, -0.200, 124.700, 2, 100, 100, 17, 23151, -17871, 5381, 5491, 11, 14, 1525889297.220, 55, 0, 1024, 1024, 1024, 1024, 0, 6, 3825, 3823, 3829, 3929, 3898, 3812, 0, 1, 7402, -90.000, 0.000, 123.300, 0.000, 0.000, -3.300, 0.0, , , , , , 98, , , 0, 0, 0
38.0977383, -120.1812871, 5.100, 11:08:17.320, 14, 0.00, 0.50, 98, 2.900, -0.400, 124.600, 2, 100, 100, 17, 23151, -17871, 5381, 5491, 11, 14, 1525889297.320, 23, 0, 1024, 1024, 1024, 1024, 0, 6, 3825, 3823, 3829, 3929, 3898, 3812, 0, 1, 7502, -90.000, 0.000, 123.300, 0.000, 0.000, -3.300, 0.0, , , , , , 98, , , 0, 0, 0
38.0977384, -120.1812873, 5.500, 11:08:17.420, 14, 0.00, 0.49, 98, 2.600, -0.700, 124.500, 2, 100, 100, 17, 23151, -17871, 5381, 5491, 11, 14, 1525889297.420, 63, 0, 1024, 1024, 1024, 1024, 0, 6, 3825, 3823, 3829, 3929, 3898, 3812, 0, 1, 7602, -90.000, 0.000, 123.300, 0.000, 0.000, -3.300, 0.0, , , , , , 98, , , 0, 0, 0
38.0977384, -120.1812875, 5.800, 11:08:17.520, 14, 0.00, 0.48, 98, 2.300, -0.800, 124.400, 2, 100, 100, 17, 23151, -17871, 5381, 5491, 11, 14, 1525889297.520, 63, 0, 1024, 1024, 1024, 1024, 0, 6, 3825, 3823, 3829, 3929, 3898, 3812, 0, 1, 7702, -90.000, 0.000, 123.300, 0.000, 0.000, -3.200, 0.0, , , , , , 98, , , 0, 0, 0
38.0977384, -120.1812878, 6.100, 11:08:17.620, 13, 0.00, 0.45, 98, 1.800, -0.900, 124.300, 2, 100, 100, 17, 23151, -17871, 5381, 5491, 11, 14, 1525889297.621, 33, 0, 1024, 1024, 1024, 1024, 0, 6, 3825, 3823, 3829, 3929, 3898, 3812, 0, 1, 7803, -90.000, 0.000, 123.300, 0.000, 0.000, -3.300, 0.0, , , , , , 98, , , 0, 0, 0
38.0977383, -120.1812880, 6.500, 11:08:17.719, 13, 0.10, 0.44, 98, 1.400, -0.900, 124.200, 2, 100, 100, 17, 22615, -24712, 5381, 5491, 11, 14, 1525889297.720, 58, 0, 1024, 1024, 1024, 1024, 0, 6, 3825, 3823, 3829, 3929, 3898, 3812, 0, 1, 7902, -89.900, 0.000, 123.300, -0.100, 0.000, -3.200, 0.0, , , , , , 98, , , 0, 0, 0
38.0977382, -120.1812881, 6.800, 11:08:17.820, 13, 0.10, 0.42, 98, 1.100, -0.700, 124.300, 2, 100, 100, 17, 22615, -24712, 5381, 5491, 11, 14, 1525889297.820, 39, 0, 1024, 1024, 1024, 1024, 0, 6, 3746, 3756, 3741, 3809, 3816, 3783, 0, 1, 8002, -89.900, 0.000, 123.300, -0.100, 0.000, -3.300, 0.0, , , , , , 98, , , 0, 0, 0
38.0977380, -120.1812881, 7.200, 11:08:17.920, 13, 0.10, 0.41, 98, 0.900, -0.300, 124.400, 2, 100, 100, 17, 22615, -24712, 5381, 5491, 11, 14, 1525889297.921, 41, 0, 1024, 1024, 1024, 1024, 0, 6, 3746, 3756, 3741, 3809, 3816, 3783, 0, 1, 8103, -89.900, 0.000, 123.400, -0.100, 0.000, -3.300, 0.0, , , , , , 98, , , 0, 0, 0
38.0977378, -120.1812881, 7.500, 11:08:18.021, 14, 0.10, 0.40, 98, 0.900, 0.000, 124.500, 2, 100, 100, 17, 22615, -24712, 5381, 5491, 11, 14, 1525889298.022, 14, 0, 1024, 1024, 1024, 1024, 0, 6, 3746, 3756, 3741, 3809, 3816, 3783, 0, 1, 8203, -89.900, 0.000, 123.300, -0.100, 0.000, -3.200, 0.0, , , , , , 98, , , 0, 0, 0
38.0977378, -120.1812881, 7.500, 11:08:18.126, 14, 0.10, 0.40, 98, 0.900, 0.000, 124.500, 2, 100, 100, 17, 22615, -24712, 5381, 5491, 11, 14, 1525889298.127, 119, 0, 1024, 1024, 1024, 1024, 0, 6, 3746, 3756, 3741, 3809, 3816, 3783, 0, 1, 8309, -89.900, 0.000, 123.300, -0.100, 0.000, -3.200, 0.0, , , , , , 98, , , 0, 0, 0
38.0977374, -120.1812880, 8.200, 11:08:18.220, 15, 0.10, 0.38, 98, 0.400, 0.500, 124.400, 2, 100, 100, 17, 22615, -24712, 5381, 5491, 11, 14, 1525889298.222, 14, 0, 1024, 1024, 1024, 1024, 0, 6, 3746, 3756, 3741, 3809, 3816, 3783, 0, 1, 8404, -89.900, 0.000, 123.300, -0.100, 0.000, -3.200, 0.0, , , , , , 98, , , 0, 0, 0
38.0977372, -120.1812880, 8.500, 11:08:18.320, 15, 0.10, 0.37, 98, 0.300, 0.700, 124.400, 2, 100, 100, 17, 22615, -24712, 5381, 5491, 11, 14, 1525889298.321, 19, 0, 1024, 1024, 1024, 1024, 0, 6, 3746, 3756, 3741, 3809, 3816, 3783, 0, 1, 8502, -89.900, 0.000, 123.300, -0.100, 0.000, -3.100, 0.0, , , , , , 98, , , 0, 0, 0
38.0977368, -120.1812877, 9.200, 11:08:18.426, 15, 0.10, 0.37, 98, 0.500, 1.500, 124.200, 2, 100, 100, 17, 22615, -24712, 5381, 5491, 11, 14, 1525889298.427, 9, 0, 1024, 1024, 1024, 1024, 0, 6, 3746, 3756, 3741, 3809, 3816, 3783, 0, 1, 8609, -89.900, 0.000, 123.300, -0.100, 0.000, -3.100, 0.0, , , , , , 98, , , 0, 0, 0
38.0977366, -120.1812876, 9.500, 11:08:18.520, 14, 0.10, 0.38, 98, 0.700, 1.900, 124.200, 2, 100, 100, 17, 22615, -24712, 5381, 5491, 11, 14, 1525889298.520, 12, 0, 1024, 1024, 1024, 1024, 0, 6, 3746, 3756, 3741, 3809, 3816, 3783, 0, 1, 8702, -89.900, 0.000, 123.300, -0.100, 0.000, -3.100, 0.0, , , , , , 98, , , 0, 0, 0
38.0977364, -120.1812875, 9.800, 11:08:18.619, 14, 0.10, 0.38, 98, 0.900, 2.200, 124.300, 2, 100, 100, 17, 22615, -24712, 5381, 5491, 11, 14, 1525889298.619, 7, 0, 1024, 1024, 1024, 1024, 0, 6, 3746, 3756, 3741, 3809, 3816, 3783, 0, 1, 8801, -89.900, 0.000, 123.300, -0.100, 0.000, -3.100, 0.0, , , , , , 98, , , 0, 0, 0
38.0977364, -120.1812875, 9.800, 11:08:18.720, 14, 0.10, 0.38, 98, 0.900, 2.200, 124.300, 2, 100, 100, 17, 22615, -24712, 5381, 5491, 11, 14, 1525889298.721, 109, 0, 1024, 1024, 1024, 1024, 0, 6, 3746, 3756, 3741, 3809, 3816, 3783, 0, 1, 8903, -89.900, 0.000, 123.300, -0.100, 0.000, -3.100, 0.0, , , , , , 98, , , 0, 0, 0
38.0977361, -120.1812875, 10.100, 11:08:18.820, 14, 0.10, 0.38, 98, 0.700, 2.300, 124.300, 2, 100, 100, 17, 22972, -19949, 5381, 5491, 11, 14, 1525889298.821, 79, 0, 1024, 1024, 1024, 1024, 0, 6, 3746, 3756, 3741, 3809, 3816, 3783, 0, 1, 9003, -89.900, 0.000, 123.300, -0.100, 0.000, -3.100, 0.0, , , , , , 98, , , 0, 0, 0
38.0977359, -120.1812874, 10.400, 11:08:18.920, 14, 0.10, 0.38, 98, 0.200, 2.200, 124.300, 2, 100, 100, 17, 22972, -19949, 5381, 5491, 11, 14, 1525889298.920, 82, 0, 1024, 1024, 1024, 1024, 0, 6, 3746, 3756, 3741, 3809, 3816, 3783, 0, 1, 9102, -89.900, 0.000, 123.300, -0.100, 0.000, -3.000, 0.0, , , , , , 98, , , 0, 0, 0
38.0977359, -120.1812874, 10.400, 11:08:19.020, 14, 0.10, 0.38, 98, 0.200, 2.200, 124.300, 2, 100, 100, 17, 22972, -19949, 5381, 5491, 11, 14, 1525889299.020, 182, 0, 1024, 1024, 1024, 1024, 0, 6, 3746, 3756, 3741, 3809, 3816, 3783, 0, 1, 9202, -89.900, 0.000, 123.300, -0.100, 0.000, -3.000, 0.0, , , , , , 98, , , 0, 0, 0
38.0977355, -120.1812873, 11.100, 11:08:19.123, 14, 0.00, 0.39, 98, -0.400, 1.700, 124.400, 2, 100, 100, 17, 22972, -19949, 5381, 5491, 11, 14, 1525889299.124, 80, 0, 1024, 1024, 1024, 1024, 0, 6, 3746, 3756, 3741, 3809, 3816, 3783, 0, 1, 9306, -89.900, 0.000, 123.300, 0.000, 0.000, -3.000, 0.0, , , , , , 98, , , 0, 0, 0
38.0977353, -120.1812873, 11.400, 11:08:19.223, 14, 0.00, 0.40, 98, -0.400, 1.600, 124.400, 2, 100, 100, 17, 22972, -19949, 5381, 5491, 11, 14, 1525889299.224, 46, 0, 1024, 1024, 1024, 1024, 0, 6, 3746, 3756, 3741, 3809, 3816, 3783, 0, 1, 9406, -89.900, 0.000, 123.300, 0.000, 0.000, -3.000, 0.0, , , , , , 98, , , 0, 0, 0
38.0977352, -120.1812873, 11.700, 11:08:19.325, 14, 0.00, 0.40, 98, -0.400, 1.500, 124.300, 2, 100, 100, 17, 22972, -19949, 5381, 5491, 11, 14, 1525889299.326, 62, 0, 1024, 1024, 1024, 1024, 0, 6, 3802, 3808, 3811, 3876, 3869, 3829, 0, 1, 9508, -89.900, 0.000, 123.300, 0.000, 0.000, -3.000, 0.0, , , , , , 98, , , 0, 0, 0
38.0977351, -120.1812873, 12.000, 11:08:19.423, 14, 0.00, 0.40, 98, -0.300, 1.500, 124.300, 2, 100, 100, 17, 22972, -19949, 5381, 5491, 11, 14, 1525889299.423, 29, 0, 1024, 1024, 1024, 1024, 0, 6, 3802, 3808, 3811, 3876, 3869, 3829, 0, 1, 9605, -89.900, 0.000, 123.300, 0.000, 0.000, -3.000, 0.0, , , , , , 98, , , 0, 0, 0
38.0977351, -120.1812873, 12.000, 11:08:19.525, 14, 0.00, 0.40, 98, -0.300, 1.500, 124.300, 2, 100, 100, 17, 22972, -19949, 5381, 5491, 11, 14, 1525889299.525, 131, 0, 1024, 1024, 1024, 1024, 0, 6, 3802, 3808, 3811, 3876, 3869, 3829, 0, 1, 9707, -89.900, 0.000, 123.300, 0.000, 0.000, -3.000, 0.0, , , , , , 98, , , 0, 0, 0
38.0977349, -120.1812872, 12.300, 11:08:19.626, 14, 0.00, 0.41, 98, -0.200, 1.400, 124.200, 2, 100, 100, 17, 22972, -19949, 5381, 5491, 11, 14, 1525889299.626, 17, 0, 1024, 1024, 1024, 1024, 0, 6, 3802, 3808, 3811, 3876, 3869, 3829, 0, 1, 9808, -89.900, 0.000, 123.300, 0.000, 0.000, -2.900, 0.0, , , , , , 98, , , 0, 0, 0
38.0977349, -120.1812872, 12.300, 11:08:19.725, 14, 0.00, 0.41, 98, -0.200, 1.400, 124.200, 2, 100, 100, 17, 22972, -19949, 5381, 5491, 11, 14, 1525889299.726, 116, 0, 1024, 1024, 1024, 1024, 0, 6, 3802, 3808, 3811, 3876, 3869, 3829, 0, 1, 9908, -89.900, 0.000, 123.300, 0.000, 0.000, -2.900, 0.0, , , , , , 98, , , 0, 0, 0
38.0977348, -120.1812871, 12.600, 11:08:19.827, 15, 0.00, 0.42, 98, -0.100, 1.500, 124.200, 2, 100, 100, 17, 22972, -19949, 5381, 5491, 11, 14, 1525889299.828, 59, 0, 1024, 1024, 1024, 1024, 0, 6, 3802, 3808, 3811, 3876, 3869, 3829, 0, 1, 10010, -89.900, 0.000, 123.300, 0.000, 0.000, -2.900, 0.0, , , , , , 98, , , 0, 0, 0
38.0977346, -120.1812870, 12.900, 11:08:19.935, 15, 0.00, 0.43, 98, -0.100, 1.600, 124.200, 2, 100, 100, 18, 22972, -19949, 5381, 5491, 11, 14, 1525889299.937, 7, 0, 1024, 1024, 1024, 1024, 0, 6, 3802, 3808, 3811, 3876, 3869, 3829, 0, 1, 10119, -89.900, 0.000, 123.400, 0.000, 0.000, -2.900, 0.0, , , , , , 98, , , 0, 0, 0
38.0977346, -120.1812870, 12.900, 11:08:20.028, 15, 0.00, 0.43, 98, -0.100, 1.600, 124.200, 2, 100, 100, 18, 22972, -19949, 5381, 5491, 11, 14, 1525889300.029, 99, 0, 1024, 1024, 1024, 1024, 0, 6, 3802, 3808, 3811, 3876, 3869, 3829, 0, 1, 10211, -89.900, 0.000, 123.400, 0.000, 0.000, -2.900, 0.0, , , , , , 98, , , 0, 0, 0
38.0977346, -120.1812870, 12.900, 11:08:20.123, 15, 0.00, 0.43, 98, -0.100, 1.600, 124.200, 2, 100, 100, 18, 22972, -19949, 5381, 5491, 11, 14, 1525889300.124, 194, 0, 1024, 1024, 1024, 1024, 0, 6, 3802, 3808, 3811, 3876, 3869, 3829, 0, 1, 10306, -89.900, 0.000, 123.400, 0.000, 0.000, -2.900, 0.0, , , , , , 98, , , 0, 0, 0
38.0977345, -120.1812869, 13.200, 11:08:20.223, 15, 0.00, 0.44, 98, -0.100, 1.800, 124.200, 2, 100, 100, 18, 22972, -19949, 5381, 5491, 11, 14, 1525889300.224, 62, 0, 1024, 1024, 1024, 1024, 0, 6, 3802, 3808, 3811, 3876, 3869, 3829, 0, 1, 10406, -89.900, 0.000, 123.300, 0.000, 0.000, -3.000, 0.0, , , , , , 98, , , 0, 0, 0
38.0977345, -120.1812869, 13.200, 11:08:20.323, 15, 0.00, 0.44, 98, -0.100, 1.800, 124.200, 2, 100, 100, 18, 22972, -19949, 5381, 5491, 11, 14, 1525889300.323, 161, 0, 1024, 1024, 1024, 1024, 0, 6, 3802, 3808, 3811, 3876, 3869, 3829, 0, 1, 10505, -89.900, 0.000, 123.300, 0.000, 0.000, -3.000, 0.0, , , , , , 98, , , 0, 0, 0
38.0977345, -120.1812869, 13.900, 11:08:20.426, 15, 0.00, 0.45, 98, -0.100, 1.900, 124.300, 2, 100, 100, 18, 22972, -19949, 5381, 5491, 11, 14, 1525889300.427, 65, 0, 1024, 1024, 1024, 1024, 0, 6, 3802, 3808, 3811, 3876, 3869, 3829, 0, 1, 10609, -89.900, 0.000, 123.300, 0.000, 0.000, -2.900, 0.0, , , , , , 98, , , 0, 0, 0
38.0977345, -120.1812868, 14.500, 11:08:20.523, 16, 0.00, 0.46, 98, 0.200, 1.600, 124.400, 2, 100, 100, 18, 23048, -19218, 5326, 5491, 11, 14, 1525889300.524, 49, 0, 1024, 1024, 1024, 1024, 0, 6, 3820, 3818, 3813, 3881, 3871, 3831, 0, 1, 10706, -89.900, 0.000, 123.300, 0.000, 0.000, -3.000, 0.0, , , , , , 98, , , 0, 0, 0
38.0977345, -120.1812868, 14.500, 11:08:20.624, 16, 0.00, 0.46, 98, 0.200, 1.600, 124.400, 2, 100, 100, 18, 23048, -19218, 5326, 5491, 11, 14, 1525889300.625, 151, 0, 1024, 1024, 1024, 1024, 0, 6, 3820, 3818, 3813, 3881, 3871, 3831, 0, 1, 10807, -89.900, 0.000, 123.300, 0.000, 0.000, -3.000, 0.0, , , , , , 98, , , 0, 0, 0
38.0977345, -120.1812868, 14.500, 11:08:20.723, 16, 0.00, 0.46, 98, 0.200, 1.600, 124.400, 2, 100, 100, 18, 23048, -19218, 5326, 5491, 11, 14, 1525889300.724, 250, 0, 1024, 1024, 1024, 1024, 0, 6, 3820, 3818, 3813, 3881, 3871, 3831, 0, 1, 10906, -89.900, 0.000, 123.300, 0.000, 0.000, -3.000, 0.0, , , , , , 98, , , 0, 0, 0
38.0977345, -120.1812867, 14.800, 11:08:20.828, 16, 0.00, 0.46, 98, 0.300, 1.700, 124.500, 2, 100, 100, 18, 23048, -19218, 5326, 5491, 11, 14, 1525889300.829, 36, 0, 1024, 1024, 1024, 1024, 0, 6, 3820, 3818, 3813, 3881, 3871, 3831, 0, 1, 11011, -89.900, 0.000, 123.300, 0.000, 0.000, -2.900, 0.0, , , , , , 98, , , 0, 0, 0
38.0977345, -120.1812867, 14.800, 11:08:20.925, 16, 0.00, 0.46, 98, 0.300, 1.700, 124.500, 2, 100, 100, 18, 23048, -19218, 5326, 5491, 11, 14, 1525889300.926, 133, 0, 1024, 1024, 1024, 1024, 0, 6, 3820, 3818, 3813, 3881, 3871, 3831, 0, 1, 11107, -89.900, 0.000, 123.300, 0.000, 0.000, -2.900, 0.0, , , , , , 98, , , 0, 0, 0
38.0977346, -120.1812868, 15.400, 11:08:21.026, 16, 0.00, 0.45, 98, 0.700, 1.300, 124.600, 2, 100, 100, 18, 23048, -19218, 5326, 5491, 11, 14, 1525889301.027, 51, 0, 1024, 1024, 1024, 1024, 0, 6, 3820, 3818, 3813, 3881, 3871, 3831, 0, 1, 11209, -90.000, 0.000, 123.300, 0.000, 0.000, -2.900, 0.0, , , , , , 98, , , 0, 0, 0
38.0977346, -120.1812868, 15.400, 11:08:21.123, 16, 0.00, 0.45, 98, 0.700, 1.300, 124.600, 2, 100, 100, 18, 23048, -19218, 5326, 5491, 11, 14, 1525889301.124, 148, 0, 1024, 1024, 1024, 1024, 0, 6, 3820, 3818, 3813, 3881, 3871, 3831, 0, 1, 11306, -90.000, 0.000, 123.300, 0.000, 0.000, -2.900, 0.0, , , , , , 98, , , 0, 0, 0
38.0977350, -120.1812871, 16.500, 11:08:21.219, 16, 0.00, 0.42, 98, 0.800, 0.000, 124.300, 2, 100, 100, 18, 23048, -19218, 5326, 5491, 11, 14, 1525889301.220, 39, 0, 1024, 1024, 1024, 1024, 0, 6, 3820, 3818, 3813, 3881, 3871, 3831, 0, 1, 11402, -90.000, 0.000, 123.300, 0.000, 0.000, -2.800, 0.0, , , , , , 98, , , 0, 0, 0
38.0977351, -120.1812871, 17.100, 11:08:21.326, 15, 0.00, 0.41, 98, 0.100, -0.100, 124.200, 2, 100, 100, 18, 23048, -19218, 5326, 5491, 11, 14, 1525889301.326, 5, 0, 1024, 1024, 1024, 1024, 0, 6, 3820, 3818, 3813, 3881, 3871, 3831, 0, 1, 11508, -90.000, 0.000, 123.300, 0.000, 0.000, -2.800, 0.0, , , , , , 98, , , 0, 0, 0
38.0977351, -120.1812871, 17.100, 11:08:21.420, 15, 0.00, 0.41, 98, 0.100, -0.100, 124.200, 2, 100, 100, 18, 23048, -19218, 5326, 5491, 11, 14, 1525889301.421, 99, 0, 1024, 1024, 1024, 1024, 0, 6, 3820, 3818, 3813, 3881, 3871, 3831, 0, 1, 11603, -90.000, 0.000, 123.300, 0.000, 0.000, -2.800, 0.0, , , , , , 98, , , 0, 0, 0
38.0977354, -120.1812871, 17.700, 11:08:21.520, 16, 0.10, 0.41, 97, 1.100, 0.900, 124.400, 2, 100, 99, 18, 23001, -19304, 5326, 5491, 11, 14, 1525889301.521, 63, 0, 1024, 1024, 1024, 1024, 0, 6, 3817, 3816, 3808, 3874, 3863, 3820, 0, 1, 11703, -89.900, 0.000, 123.300, 0.100, 0.000, -2.900, 0.0, , , , , , 98, , , 0, 0, 0
38.0977355, -120.1812870, 18.000, 11:08:21.620, 16, 0.10, 0.42, 97, 2.000, 1.200, 124.400, 2, 100, 99, 18, 23001, -19304, 5326, 5491, 11, 14, 1525889301.620, 97, 0, 1024, 1024, 1024, 1024, 0, 6, 3817, 3816, 3808, 3874, 3863, 3820, 0, 1, 11802, -89.900, 0.000, 123.300, 0.100, 0.000, -2.900, 0.0, , , , , , 98, , , 0, 0, 0
38.0977356, -120.1812870, 18.300, 11:08:21.720, 16, 0.00, 0.41, 97, 2.300, 1.400, 124.300, 2, 100, 99, 18, 23001, -19304, 5326, 5491, 11, 14, 1525889301.721, 30, 0, 1024, 1024, 1024, 1024, 0, 6, 3817, 3816, 3808, 3874, 3863, 3820, 0, 1, 11903, -89.900, 0.000, 123.300, 0.000, 0.000, -2.900, 0.0, , , , , , 98, , , 0, 0, 0
38.0977360, -120.1812871, 19.200, 11:08:21.837, 16, 0.00, 0.41, 97, 2.600, 1.000, 124.300, 2, 100, 99, 18, 23001, -19304, 5326, 5491, 11, 14, 1525889301.837, 8, 0, 1024, 1024, 1024, 1024, 0, 6, 3817, 3816, 3808, 3874, 3863, 3820, 0, 1, 12019, -89.900, 0.000, 123.300, 0.000, 0.000, -2.900, 0.0, , , , , , 98, , , 0, 0, 0
38.0977361, -120.1812871, 19.500, 11:08:21.920, 16, 0.00, 0.41, 97, 2.700, 0.400, 124.100, 2, 100, 99, 18, 23001, -19304, 5326, 5491, 11, 14, 1525889301.920, 46, 0, 1024, 1024, 1024, 1024, 0, 6, 3817, 3816, 3808, 3874, 3863, 3820, 0, 1, 12102, -89.900, 0.000, 123.300, 0.000, 0.000, -3.000, 0.0, , , , , , 98, , , 0, 0, 0
38.0977362, -120.1812872, 19.800, 11:08:22.020, 16, 0.00, 0.40, 97, 2.700, -0.100, 124.000, 2, 100, 99, 18, 23001, -19304, 5326, 5491, 11, 14, 1525889302.020, 44, 0, 1024, 1024, 1024, 1024, 0, 6, 3817, 3816, 3808, 3874, 3863, 3820, 0, 1, 12202, -90.000, 0.000, 123.300, 0.000, 0.000, -2.900, 0.0, , , , , , 98, , , 0, 0, 0
38.0977362, -120.1812872, 19.800, 11:08:22.119, 16, 0.00, 0.40, 97, 2.700, -0.100, 124.000, 2, 100, 99, 18, 23001, -19304, 5326, 5491, 11, 14, 1525889302.121, 144, 0, 1024, 1024, 1024, 1024, 0, 6, 3817, 3816, 3808, 3874, 3863, 3820, 0, 1, 12302, -90.000, 0.000, 123.300, 0.000, 0.000, -2.900, 0.0, , , , , , 98, , , 0, 0, 0
38.0977364, -120.1812872, 20.400, 11:08:22.224, 16, 0.00, 0.40, 97, 2.300, -0.200, 123.900, 2, 100, 99, 18, 22928, -19951, 5326, 5491, 11, 14, 1525889302.225, 52, 0, 1024, 1024, 1024, 1024, 0, 6, 3805, 3807, 3791, 3859, 3848, 3797, 0, 1, 12407, -90.000, 0.000, 123.300, 0.000, 0.000, -2.900, 0.0, , , , , , 98, , , 0, 0, 0
38.0977365, -120.1812872, 20.700, 11:08:22.319, 16, 0.00, 0.41, 97, 2.200, -0.300, 123.800, 2, 100, 97, 18, 22928, -19951, 5326, 5491, 11, 14, 1525889302.321, 44, 0, 1024, 1024, 1024, 1024, 0, 6, 3805, 3807, 3791, 3859, 3848, 3797, 0, 1, 12503, -90.000, 0.000, 123.300, 0.000, 0.000, -3.000, 0.0, , , , , , 98, , , 0, 0, 0
38.0977366, -120.1812872, 21.000, 11:08:22.420, 16, 0.00, 0.41, 97, 1.900, 0.000, 123.700, 2, 100, 97, 18, 22928, -19951, 5326, 5491, 11, 14, 1525889302.421, 14, 0, 1024, 1024, 1024, 1024, 0, 6, 3805, 3807, 3791, 3859, 3848, 3797, 0, 1, 12602, -90.000, 0.000, 123.300, 0.000, 0.000, -3.000, 0.0, , , , , , 98, , , 0, 0, 0
38.0977366, -120.1812872, 21.000, 11:08:22.520, 16, 0.00, 0.41, 97, 1.900, 0.000, 123.700, 2, 100, 97, 18, 22928, -19951, 5326, 5491, 11, 14, 1525889302.521, 114, 0, 1024, 1024, 1024, 1024, 0, 6, 3805, 3807, 3791, 3859, 3848, 3797, 0, 1, 12703, -90.000, 0.000, 123.300, 0.000, 0.000, -3.000, 0.0, , , , , , 98, , , 0, 0, 0
38.0977368, -120.1812872, 21.600, 11:08:22.620, 16, 0.00, 0.42, 97, 1.600, 0.200, 123.700, 2, 100, 97, 18, 22928, -19951, 5326, 5491, 11, 14, 1525889302.621, 9, 0, 1024, 1024, 1024, 1024, 0, 6, 3805, 3807, 3791, 3859, 3848, 3797, 0, 1, 12803, -89.900, 0.000, 123.300, 0.000, 0.000, -2.900, 0.0, , , , , , 98, , , 0, 0, 0
38.0977369, -120.1812872, 21.900, 11:08:22.720, 16, 0.00, 0.42, 97, 2.000, 0.300, 123.800, 2, 100, 97, 18, 22928, -19951, 5326, 5491, 11, 14, 1525889302.720, 22, 0, 1024, 1024, 1024, 1024, 0, 6, 3805, 3807, 3791, 3859, 3848, 3797, 0, 1, 12902, -89.900, 0.000, 123.300, 0.000, 0.000, -2.900, 0.0, , , , , , 98, , , 0, 0, 0
38.0977369, -120.1812872, 21.900, 11:08:22.820, 16, 0.00, 0.42, 97, 2.000, 0.300, 123.800, 2, 100, 97, 18, 22928, -19951, 5326, 5491, 11, 14, 1525889302.820, 123, 0, 1024, 1024, 1024, 1024, 0, 6, 3805, 3807, 3791, 3859, 3848, 3797, 0, 1, 13002, -89.900, 0.000, 123.300, 0.000, 0.000, -2.900, 0.0, , , , , , 98, , , 0, 0, 0
38.0977371, -120.1812871, 22.400, 11:08:22.925, 16, 0.00, 0.43, 97, 2.600, 0.500, 124.300, 2, 100, 97, 18, 22928, -19951, 5326, 5491, 11, 14, 1525889302.925, 4, 0, 1024, 1024, 1024, 1024, 0, 6, 3805, 3807, 3791, 3859, 3848, 3797, 0, 1, 13107, -89.900, 0.000, 123.400, 0.000, 0.000, -2.900, 0.0, , , , , , 98, , , 0, 0, 0
38.0977372, -120.1812871, 22.700, 11:08:23.020, 16, 0.00, 0.44, 97, 2.600, 0.300, 124.600, 2, 100, 97, 18, 22928, -19951, 5326, 5491, 11, 14, 1525889303.021, 93, 0, 1024, 1024, 1024, 1024, 0, 6, 3805, 3807, 3791, 3859, 3848, 3797, 0, 1, 13202, -89.900, 0.000, 123.300, 0.000, 0.000, -3.000, 0.0, , , , , , 98, , , 0, 0, 0
38.0977373, -120.1812870, 23.000, 11:08:23.123, 16, 0.00, 0.45, 97, 2.600, 0.100, 124.800, 2, 100, 97, 18, 22928, -19951, 5326, 5491, 11, 14, 1525889303.124, 94, 0, 1024, 1024, 1024, 1024, 0, 6, 3805, 3807, 3791, 3859, 3848, 3797, 0, 1, 13306, -89.900, 0.000, 123.300, 0.000, 0.000, -3.000, 0.0, , , , , , 98, , , 0, 0, 0
38.0977374, -120.1812869, 23.300, 11:08:23.219, 16, 0.00, 0.46, 97, 3.000, 0.400, 124.900, 2, 100, 97, 18, 22800, -20680, 5326, 5491, 11, 14, 1525889303.221, 82, 0, 1024, 1024, 1024, 1024, 0, 6, 3772, 3784, 3778, 3835, 3826, 3782, 0, 1, 13403, -89.900, 0.000, 123.300, 0.000, 0.000, -3.000, 0.0, , , , , , 98, , , 0, 0, 0
38.0977374, -120.1812869, 23.600, 11:08:23.325, 16, 0.00, 0.46, 97, 3.400, 1.000, 124.900, 2, 100, 96, 18, 22800, -20680, 5326, 5491, 11, 14, 1525889303.326, 73, 0, 1024, 1024, 1024, 1024, 0, 6, 3772, 3784, 3778, 3835, 3826, 3782, 0, 1, 13508, -89.900, 0.000, 123.300, 0.000, 0.000, -3.000, 0.0, , , , , , 98, , , 0, 0, 0
38.0977374, -120.1812870, 24.000, 11:08:23.423, 16, 0.00, 0.46, 97, 3.300, 0.900, 124.600, 2, 100, 96, 18, 22800, -20680, 5326, 5491, 11, 14, 1525889303.424, 81, 0, 1024, 1024, 1024, 1024, 0, 6, 3772, 3784, 3778, 3835, 3826, 3782, 0, 1, 13606, -89.900, 0.000, 123.300, 0.000, 0.000, -3.000, 0.0, , , , , , 98, , , 0, 0, 0
38.0977374, -120.1812870, 24.000, 11:08:23.528, 16, 0.00, 0.46, 97, 3.300, 0.900, 124.600, 2, 100, 96, 18, 22800, -20680, 5326, 5491, 11, 14, 1525889303.528, 186, 0, 1024, 1024, 1024, 1024, 0, 6, 3772, 3784, 3778, 3835, 3826, 3782, 0, 1, 13710, -89.900, 0.000, 123.400, 0.000, 0.000, -3.000, 0.0, , , , , , 98, , , 0, 0, 0
38.0977374, -120.1812870, 24.500, 11:08:23.627, 16, 0.10, 0.45, 97, 2.300, 1.000, 124.000, 2, 100, 96, 18, 22800, -20680, 5326, 5491, 11, 14, 1525889303.628, 40, 0, 1024, 1024, 1024, 1024, 0, 6, 3772, 3784, 3778, 3835, 3826, 3782, 0, 1, 13810, -89.900, 0.000, 123.300, -0.100, 0.000, -2.900, 0.0, , , , , , 98, , , 0, 0, 0
38.0977373, -120.1812870, 24.800, 11:08:23.726, 16, 0.10, 0.45, 97, 1.300, 1.200, 124.000, 2, 100, 96, 18, 22800, -20680, 5326, 5491, 11, 14, 1525889303.726, 9, 0, 1024, 1024, 1024, 1024, 0, 6, 3772, 3784, 3778, 3835, 3826, 3782, 0, 1, 13908, -89.900, 0.000, 123.300, -0.100, 0.000, -2.900, 0.0, , , , , , 98, , , 0, 0, 0
38.0977373, -120.1812870, 24.800, 11:08:23.823, 16, 0.10, 0.45, 97, 1.300, 1.200, 124.000, 2, 100, 96, 18, 22800, -20680, 5326, 5491, 11, 14, 1525889303.823, 106, 0, 1024, 1024, 1024, 1024, 0, 6, 3772, 3784, 3778, 3835, 3826, 3782, 0, 1, 14005, -89.900, 0.000, 123.300, -0.100, 0.000, -2.900, 0.0, , , , , , 98, , , 0, 0, 0
38.0977373, -120.1812870, 24.800, 11:08:23.924, 16, 0.10, 0.45, 97, 1.300, 1.200, 124.000, 2, 100, 96, 18, 22800, -20680, 5326, 5491, 11, 14, 1525889303.924, 207, 0, 1024, 1024, 1024, 1024, 0, 6, 3772, 3784, 3778, 3835, 3826, 3782, 0, 1, 14106, -89.900, 0.000, 123.300, -0.100, 0.000, -2.900, 0.0, , , , , , 98, , , 0, 0, 0
38.0977372, -120.1812869, 25.100, 11:08:24.023, 16, 0.10, 0.45, 97, 0.800, 1.400, 124.300, 2, 100, 96, 18, 22800, -20680, 5326, 5491, 11, 14, 1525889304.023, 88, 0, 1024, 1024, 1024, 1024, 0, 6, 3772, 3784, 3778, 3835, 3826, 3782, 0, 1, 14205, -89.900, 0.000, 123.300, -0.100, 0.000, -2.900, 0.0, , , , , , 98, , , 0, 0, 0
38.0977372, -120.1812869, 25.400, 11:08:24.123, 16, 0.10, 0.46, 97, 0.900, 1.900, 124.900, 2, 100, 96, 18, 22800, -20680, 5326, 5491, 11, 14, 1525889304.123, 30, 0, 1024, 1024, 1024, 1024, 0, 6, 3772, 3784, 3778, 3835, 3826, 3782, 0, 1, 14305, -89.900, 0.000, 123.300, -0.100, 0.000, -3.000, 0.0, , , , , , 98, , , 0, 0, 0
38.0977372, -120.1812869, 25.400, 11:08:24.219, 16, 0.10, 0.46, 97, 0.900, 1.900, 124.900, 2, 100, 96, 18, 22800, -20680, 5326, 5491, 11, 14, 1525889304.220, 126, 0, 1024, 1024, 1024, 1024, 0, 6, 3772, 3784, 3778, 3835, 3826, 3782, 0, 1, 14402, -89.900, 0.000, 123.300, -0.100, 0.000, -3.000, 0.0, , , , , , 98, , , 0, 0, 0
38.0977371, -120.1812868, 25.700, 11:08:24.323, 16, 0.10, 0.46, 97, 1.200, 2.200, 125.300, 2, 100, 96, 18, 22800, -20680, 5326, 5491, 11, 14, 1525889304.324, 102, 0, 1024, 1024, 1024, 1024, 0, 6, 3772, 3784, 3778, 3835, 3826, 3782, 0, 1, 14506, -89.900, 0.000, 123.400, -0.100, 0.000, -3.100, 0.0, , , , , , 98, , , 0, 0, 0
38.0977371, -120.1812868, 25.700, 11:08:24.423, 16, 0.10, 0.46, 97, 1.200, 2.200, 125.300, 2, 100, 96, 18, 22800, -20680, 5326, 5491, 11, 14, 1525889304.424, 201, 0, 1024, 1024, 1024, 1024, 0, 6, 3772, 3784, 3778, 3835, 3826, 3782, 0, 1, 14606, -89.900, 0.000, 123.400, -0.100, 0.000, -3.100, 0.0, , , , , , 98, , , 0, 0, 0
38.0977371, -120.1812868, 25.700, 11:08:24.519, 16, 0.10, 0.46, 97, 1.200, 2.200, 125.300, 2, 100, 96, 18, 22820, -19836, 5326, 5491, 11, 14, 1525889304.520, 297, 0, 1024, 1024, 1024, 1024, 0, 6, 3772, 3784, 3778, 3835, 3826, 3782, 0, 1, 14702, -89.900, 0.000, 123.400, -0.100, 0.000, -3.100, 0.0, , , , , , 98, , , 0, 0, 0
38.0977370, -120.1812866, 26.600, 11:08:24.628, 16, 0.00, 0.47, 97, 1.300, 2.100, 125.300, 2, 100, 95, 18, 22820, -19836, 5326, 5491, 11, 14, 1525889304.629, 17, 0, 1024, 1024, 1024, 1024, 0, 6, 3772, 3784, 3778, 3835, 3826, 3782, 0, 1, 14811, -89.900, 0.000, 123.300, 0.000, 0.000, -3.000, 0.0, , , , , , 98, , , 0, 0, 0
38.0977370, -120.1812866, 26.900, 11:08:24.730, 16, 0.00, 0.47, 97, 1.200, 2.000, 124.900, 2, 100, 95, 18, 22820, -19836, 5326, 5491, 11, 14, 1525889304.730, 10, 0, 1024, 1024, 1024, 1024, 0, 6, 3772, 3784, 3778, 3835, 3826, 3782, 0, 1, 14912, -89.900, 0.000, 123.300, 0.000, 0.000, -3.000, 0.0, , , , , , 98, , , 0, 0, 0
38.0977370, -120.1812866, 27.200, 11:08:24.826, 16, 0.00, 0.48, 97, 1.400, 1.800, 124.400, 2, 100, 95, 18, 22820, -19836, 5326, 5491, 11, 14, 1525889304.827, 11, 0, 1024, 1024, 1024, 1024, 0, 6, 3772, 3784, 3778, 3835, 3826, 3782, 0, 1, 15009, -89.900, 0.000, 123.300, 0.000, 0.000, -3.000, 0.0, , , , , , 98, , , 0, 0, 0
38.0977371, -120.1812866, 27.500, 11:08:24.923, 16, 0.00, 0.48, 97, 1.500, 1.200, 124.000, 2, 100, 95, 18, 22820, -19836, 5326, 5491, 11, 14, 1525889304.923, 55, 0, 1024, 1024, 1024, 1024, 0, 6, 3772, 3784, 3778, 3835, 3826, 3782, 0, 1, 15105, -90.000, 0.000, 123.300, 0.000, 0.000, -3.000, 0.0, , , , , , 98, , , 0, 0, 0
38.0977371, -120.1812866, 27.500, 11:08:25.023, 16, 0.00, 0.48, 97, 1.500, 1.200, 124.000, 2, 100, 95, 18, 22820, -19836, 5326, 5491, 11, 14, 1525889305.024, 155, 0, 1024, 1024, 1024, 1024, 0, 6, 3772, 3784, 3778, 3835, 3826, 3782, 0, 1, 15206, -90.000, 0.000, 123.300, 0.000, 0.000, -3.000, 0.0, , , , , , 98, , , 0, 0, 0
38.0977371, -120.1812866, 27.900, 11:08:25.119, 16, 0.00, 0.47, 97, 1.600, 0.600, 123.700, 2, 100, 97, 18, 22820, -19836, 5326, 5491, 11, 14, 1525889305.120, 84, 0, 1024, 1024, 1024, 1024, 0, 6, 3771, 3790, 3781, 3851, 3826, 3781, 0, 1, 15301, -90.000, 0.000, 123.300, 0.000, 0.000, -3.100, 0.0, , , , , , 98, , , 0, 0, 0
38.0977371, -120.1812867, 28.500, 11:08:25.219, 16, 0.00, 0.47, 97, 2.000, 0.000, 123.600, 2, 100, 97, 18, 22820, -19836, 5326, 5491, 11, 14, 1525889305.221, 13, 0, 1024, 1024, 1024, 1024, 0, 6, 3771, 3790, 3781, 3851, 3826, 3781, 0, 1, 15403, -89.900, 0.000, 123.300, 0.000, 0.000, -3.100, 0.0, , , , , , 98, , , 0, 0, 0
38.0977373, -120.1812867, 29.800, 11:08:25.320, 16, 0.00, 0.48, 97, 3.400, 0.600, 124.400, 2, 100, 98, 18, 22820, -19836, 5326, 5491, 11, 14, 1525889305.321, 29, 0, 1024, 1024, 1024, 1024, 0, 6, 3771, 3790, 3781, 3851, 3826, 3781, 0, 1, 15503, -89.900, 0.000, 123.300, 0.000, 0.000, -2.900, 0.0, , , , , , 98, , , 0, 0, 0
38.0977373, -120.1812867, 29.800, 11:08:25.420, 16, 0.00, 0.48, 97, 3.400, 0.600, 124.400, 2, 100, 98, 18, 22820, -19836, 5326, 5491, 11, 14, 1525889305.421, 128, 0, 1024, 1024, 1024, 1024, 0, 6, 3771, 3790, 3781, 3851, 3826, 3781, 0, 1, 15602, -89.900, 0.000, 123.300, 0.000, 0.000, -2.900, 0.0, , , , , , 98, , , 0, 0, 0
38.0977373, -120.1812867, 30.400, 11:08:25.520, 16, 0.00, 0.48, 97, 3.000, 0.300, 124.400, 2, 100, 98, 18, 22820, -19836, 5326, 5491, 11, 14, 1525889305.520, 39, 0, 1024, 1024, 1024, 1024, 0, 6, 3771, 3790, 3781, 3851, 3826, 3781, 0, 1, 15702, -89.900, 0.000, 123.300, 0.000, 0.000, -2.700, 0.0, , , , , , 98, , , 0, 0, 0
38.0977373, -120.1812867, 30.700, 11:08:25.620, 16, 0.00, 0.47, 97, 2.500, 0.500, 124.100, 2, 100, 98, 18, 22820, -19836, 5326, 5491, 11, 14, 1525889305.621, 96, 0, 1024, 1024, 1024, 1024, 0, 6, 3771, 3790, 3781, 3851, 3826, 3781, 0, 1, 15803, -89.900, 0.000, 123.300, 0.000, 0.000, -2.800, 0.0, , , , , , 98, , , 0, 0, 0
38.0977373, -120.1812867, 30.700, 11:08:25.719, 16, 0.00, 0.47, 97, 2.500, 0.500, 124.100, 2, 100, 98, 18, 22820, -19836, 5326, 5491, 11, 14, 1525889305.720, 195, 0, 1024, 1024, 1024, 1024, 0, 6, 3771, 3790, 3781, 3851, 3826, 3781, 0, 1, 15902, -89.900, 0.000, 123.300, 0.000, 0.000, -2.800, 0.0, , , , , , 98, , , 0, 0, 0
38.0977373, -120.1812867, 31.200, 11:08:25.819, 16, 0.00, 0.47, 97, 2.400, 0.500, 123.800, 2, 100, 100, 18, 22849, -19105, 5326, 5491, 11, 14, 1525889305.819, 68, 0, 1024, 1024, 1024, 1024, 0, 6, 3794, 3795, 3792, 3859, 3848, 3802, 0, 1, 16001, -89.900, 0.000, 123.400, 0.000, 0.000, -2.800, 0.0, , , , , , 98, , , 0, 0, 0
38.0977373, -120.1812867, 31.500, 11:08:25.919, 16, 0.00, 0.48, 97, 3.200, 0.600, 123.900, 2, 100, 100, 18, 22849, -19105, 5326, 5491, 11, 14, 1525889305.920, 85, 0, 1024, 1024, 1024, 1024, 0, 6, 3794, 3795, 3792, 3859, 3848, 3802, 0, 1, 16102, -89.900, 0.000, 123.300, 0.000, 0.000, -2.900, 0.0, , , , , , 98, , , 0, 0, 0
38.0977373, -120.1812866, 31.800, 11:08:26.020, 16, 0.00, 0.48, 97, 3.800, 0.600, 124.200, 2, 100, 100, 18, 22849, -19105, 5326, 5491, 11, 14, 1525889306.020, 62, 0, 1024, 1024, 1024, 1024, 0, 6, 3794, 3795, 3792, 3859, 3848, 3802, 0, 1, 16202, -89.900, 0.000, 123.300, 0.000, 0.000, -2.800, 0.0, , , , , , 98, , , 0, 0, 0
38.0977374, -120.1812866, 32.100, 11:08:26.126, 16, 0.00, 0.49, 97, 3.900, 0.700, 124.300, 2, 100, 100, 18, 22849, -19105, 5326, 5491, 11, 14, 1525889306.127, 59, 0, 1024, 1024, 1024, 1024, 0, 6, 3794, 3795, 3792, 3859, 3848, 3802, 0, 1, 16309, -89.900, 0.000, 123.300, 0.000, 0.000, -2.900, 0.0, , , , , , 98, , , 0, 0, 0
38.0977374, -120.1812865, 32.400, 11:08:26.227, 16, 0.00, 0.50, 97, 3.900, 0.800, 124.300, 2, 100, 100, 18, 22849, -19105, 5326, 5491, 11, 14, 1525889306.228, 60, 0, 1024, 1024, 1024, 1024, 0, 6, 3794, 3795, 3792, 3859, 3848, 3802, 0, 1, 16410, -89.900, 0.000, 123.300, 0.000, 0.000, -2.800, 0.0, , , , , , 98, , , 0, 0, 0
38.0977375, -120.1812865, 32.700, 11:08:26.329, 16, 0.00, 0.50, 97, 3.900, 0.600, 124.400, 2, 100, 98, 18, 22849, -19105, 5326, 5491, 11, 14, 1525889306.329, 78, 0, 1024, 1024, 1024, 1024, 0, 6, 3794, 3795, 3792, 3859, 3848, 3802, 0, 1, 16511, -89.900, 0.000, 123.400, 0.000, 0.000, -2.900, 0.0, , , , , , 98, , , 0, 0, 0
38.0977375, -120.1812865, 33.000, 11:08:26.427, 16, 0.00, 0.50, 97, 3.500, 0.500, 124.500, 2, 100, 98, 18, 22849, -19105, 5326, 5491, 11, 14, 1525889306.428, 61, 0, 1024, 1024, 1024, 1024, 0, 6, 3794, 3795, 3792, 3859, 3848, 3802, 0, 1, 16610, -89.900, 0.000, 123.400, 0.000, 0.000, -2.900, 0.0, , , , , , 98, , , 0, 0, 0
38.0977375, -120.1812865, 33.200, 11:08:26.526, 16, 0.00, 0.50, 97, 3.100, 0.700, 124.700, 2, 100, 98, 18, 22849, -19105, 5326, 5491, 11, 14, 1525889306.527, 30, 0, 1024, 1024, 1024, 1024, 0, 6, 3794, 3795, 3792, 3859, 3848, 3802, 0, 1, 16709, -89.900, 0.000, 123.400, 0.000, 0.000, -2.900, 0.0, , , , , , 98, , , 0, 0, 0
38.0977375, -120.1812866, 33.500, 11:08:26.628, 16, 0.00, 0.50, 97, 2.800, 0.600, 125.100, 2, 100, 98, 18, 22849, -19105, 5326, 5491, 11, 14, 1525889306.629, 52, 0, 1024, 1024, 1024, 1024, 0, 6, 3794, 3795, 3792, 3859, 3848, 3802, 0, 1, 16811, -89.900, 0.000, 123.400, 0.000, 0.000, -3.000, 0.0, , , , , , 98, , , 0, 0, 0
38.0977375, -120.1812866, 33.800, 11:08:26.726, 16, 0.00, 0.50, 97, 2.800, 0.500, 125.400, 2, 100, 98, 18, 22727, -20008, 5326, 5491, 11, 14, 1525889306.727, 55, 0, 1024, 1024, 1024, 1024, 0, 6, 3769, 3764, 3770, 3834, 3829, 3774, 0, 1, 16909, -89.900, 0.000, 123.400, 0.000, 0.000, -3.000, 0.0, , , , , , 98, , , 0, 0, 0
38.0977375, -120.1812866, 33.800, 11:08:26.825, 16, 0.00, 0.50, 97, 2.800, 0.500, 125.400, 2, 100, 98, 18, 22727, -20008, 5326, 5491, 11, 14, 1525889306.826, 154, 0, 1024, 1024, 1024, 1024, 0, 6, 3769, 3764, 3770, 3834, 3829, 3774, 0, 1, 17008, -89.900, 0.000, 123.400, 0.000, 0.000, -3.000, 0.0, , , , , , 98, , , 0, 0, 0
38.0977376, -120.1812866, 34.400, 11:08:26.919, 16, 0.00, 0.50, 97, 3.200, 0.300, 125.300, 2, 100, 98, 18, 22727, -20008, 5326, 5491, 11, 14, 1525889306.920, 24, 0, 1024, 1024, 1024, 1024, 0, 6, 3769, 3764, 3770, 3834, 3829, 3774, 0, 1, 17102, -89.900, 0.000, 123.400, 0.000, 0.000, -2.900, 0.0, , , , , , 98, , , 0, 0, 0
38.0977376, -120.1812866, 34.400, 11:08:27.019, 16, 0.00, 0.50, 97, 3.200, 0.300, 125.300, 2, 100, 98, 18, 22727, -20008, 5326, 5491, 11, 14, 1525889307.021, 125, 0, 1024, 1024, 1024, 1024, 0, 6, 3769, 3764, 3770, 3834, 3829, 3774, 0, 1, 17203, -89.900, 0.000, 123.400, 0.000, 0.000, -2.900, 0.0, , , , , , 98, , , 0, 0, 0
38.0977376, -120.1812865, 34.700, 11:08:27.122, 16, 0.00, 0.50, 97, 3.700, 0.500, 125.100, 2, 100, 98, 18, 22727, -20008, 5326, 5491, 11, 14, 1525889307.123, 97, 0, 1024, 1024, 1024, 1024, 0, 6, 3769, 3764, 3770, 3834, 3829, 3774, 0, 1, 17305, -89.900, 0.000, 123.300, 0.000, 0.000, -2.900, 0.0, , , , , , 98, , , 0, 0, 0
38.0977376, -120.1812865, 35.000, 11:08:27.219, 16, 0.00, 0.51, 97, 4.000, 0.800, 125.000, 2, 100, 98, 18, 22727, -20008, 5326, 5491, 11, 14, 1525889307.219, 26, 0, 1024, 1024, 1024, 1024, 0, 6, 3769, 3764, 3770, 3834, 3829, 3774, 0, 1, 17401, -89.900, 0.000, 123.300, 0.000, 0.000, -3.000, 0.0, , , , , , 98, , , 0, 0, 0
38.0977376, -120.1812865, 35.000, 11:08:27.323, 16, 0.00, 0.51, 97, 4.000, 0.800, 125.000, 2, 100, 98, 18, 22727, -20008, 5326, 5491, 11, 14, 1525889307.328, 134, 0, 1024, 1024, 1024, 1024, 0, 6, 3769, 3764, 3770, 3834, 3829, 3774, 0, 1, 17510, -89.900, 0.000, 123.300, 0.000, 0.000, -3.000, 0.0, , , , , , 98, , , 0, 0, 0
38.0977376, -120.1812865, 35.000, 11:08:27.422, 16, 0.00, 0.51, 97, 4.000, 0.800, 125.000, 2, 100, 98, 18, 22727, -20008, 5326, 5491, 11, 14, 1525889307.423, 229, 0, 1024, 1024, 1024, 1024, 0, 6, 3769, 3764, 3770, 3834, 3829, 3774, 0, 1, 17605, -89.900, 0.000, 123.300, 0.000, 0.000, -3.000, 0.0, , , , , , 98, , , 0, 0, 0
38.0977376, -120.1812864, 35.500, 11:08:27.534, 16, 0.00, 0.51, 97, 3.800, 1.100, 124.700, 2, 100, 93, 18, 22727, -20008, 5326, 5491, 11, 14, 1525889307.535, 9, 0, 1024, 1024, 1024, 1024, 0, 6, 3769, 3764, 3770, 3834, 3829, 3774, 0, 1, 17717, -89.900, 0.000, 123.300, 0.000, 0.000, -2.900, 0.0, , , , , , 98, , , 0, 0, 0
38.0977376, -120.1812864, 35.500, 11:08:27.624, 16, 0.00, 0.51, 97, 3.800, 1.100, 124.700, 2, 100, 93, 18, 22727, -20008, 5326, 5491, 11, 14, 1525889307.628, 102, 0, 1024, 1024, 1024, 1024, 0, 6, 3769, 3764, 3770, 3834, 3829, 3774, 0, 1, 17810, -89.900, 0.000, 123.300, 0.000, 0.000, -2.900, 0.0, , , , , , 98, , , 0, 0, 0
38.0977374, -120.1812864, 36.100, 11:08:27.722, 16, 0.10, 0.51, 97, 2.700, 1.400, 124.600, 2, 100, 93, 18, 22727, -20008, 5326, 5491, 11, 14, 1525889307.723, 41, 0, 1024, 1024, 1024, 1024, 0, 6, 3769, 3764, 3770, 3834, 3829, 3774, 0, 1, 17905, -89.900, 0.000, 123.400, -0.100, 0.000, -3.000, 0.0, , , , , , 98, , , 0, 0, 0
38.0977374, -120.1812864, 36.400, 11:08:27.819, 16, 0.10, 0.50, 97, 2.100, 1.400, 124.500, 2, 100, 93, 18, 22727, -20008, 5326, 5491, 11, 14, 1525889307.820, 41, 0, 1024, 1024, 1024, 1024, 0, 6, 3769, 3764, 3770, 3834, 3829, 3774, 0, 1, 18001, -89.900, 0.000, 123.400, -0.100, 0.000, -2.900, 0.0, , , , , , 98, , , 0, 0, 0
38.0977373, -120.1812865, 36.700, 11:08:27.928, 16, 0.10, 0.49, 97, 1.500, 1.500, 124.100, 2, 100, 93, 18, 22727, -20008, 5326, 5491, 11, 14, 1525889307.931, 14, 0, 1024, 1024, 1024, 1024, 0, 6, 3769, 3764, 3770, 3834, 3829, 3774, 0, 1, 18113, -89.900, 0.000, 123.300, -0.100, 0.000, -3.000, 0.0, , , , , , 98, , , 0, 0, 0
38.0977373, -120.1812865, 36.700, 11:08:28.025, 16, 0.10, 0.49, 97, 1.500, 1.500, 124.100, 2, 100, 93, 18, 22727, -20008, 5326, 5491, 11, 14, 1525889308.026, 109, 0, 1024, 1024, 1024, 1024, 0, 6, 3769, 3764, 3770, 3834, 3829, 3774, 0, 1, 18208, -89.900, 0.000, 123.300, -0.100, 0.000, -3.000, 0.0, , , , , , 98, , , 0, 0, 0
38.0977373, -120.1812865, 36.700, 11:08:28.125, 16, 0.10, 0.49, 97, 1.500, 1.500, 124.100, 2, 100, 93, 18, 22653, -20746, 5326, 5491, 11, 14, 1525889308.126, 208, 0, 1024, 1024, 1024, 1024, 0, 6, 3769, 3764, 3770, 3834, 3829, 3774, 0, 1, 18308, -89.900, 0.000, 123.300, -0.100, 0.000, -3.000, 0.0, , , , , , 98, , , 0, 0, 0
38.0977371, -120.1812865, 37.600, 11:08:28.230, 16, 0.00, 0.48, 97, 2.600, 1.900, 124.100, 2, 100, 94, 18, 22653, -20746, 5326, 5491, 11, 14, 1525889308.230, 21, 0, 1024, 1024, 1024, 1024, 0, 6, 3755, 3754, 3752, 3821, 3810, 3770, 0, 1, 18412, -89.900, 0.000, 123.300, 0.000, 0.000, -3.100, 0.0, , , , , , 98, , , 0, 0, 0
38.0977370, -120.1812865, 37.900, 11:08:28.320, 16, 0.00, 0.48, 97, 2.800, 1.800, 124.200, 2, 100, 94, 18, 22653, -20746, 5326, 5491, 11, 14, 1525889308.321, 45, 0, 1024, 1024, 1024, 1024, 0, 6, 3755, 3754, 3752, 3821, 3810, 3770, 0, 1, 18503, -89.900, 0.000, 123.400, 0.000, 0.000, -3.100, 0.0, , , , , , 98, , , 0, 0, 0
38.0977370, -120.1812866, 38.200, 11:08:28.420, 16, 0.00, 0.48, 97, 2.700, 1.800, 124.400, 2, 100, 94, 18, 22653, -20746, 5326, 5491, 11, 14, 1525889308.420, 73, 0, 1024, 1024, 1024, 1024, 0, 6, 3755, 3754, 3752, 3821, 3810, 3770, 0, 1, 18602, -89.900, 0.000, 123.300, 0.000, 0.000, -3.100, 0.0, , , , , , 98, , , 0, 0, 0
38.0977368, -120.1812867, 38.800, 11:08:28.520, 16, 0.00, 0.46, 97, 2.200, 1.600, 124.500, 2, 100, 94, 18, 22653, -20746, 5326, 5491, 11, 14, 1525889308.520, 14, 0, 1024, 1024, 1024, 1024, 0, 6, 3755, 3754, 3752, 3821, 3810, 3770, 0, 1, 18702, -89.900, 0.000, 123.400, 0.000, 0.000, -3.000, 0.0, , , , , , 98, , , 0, 0, 0
38.0977367, -120.1812868, 39.400, 11:08:28.624, 16, 0.00, 0.45, 97, 1.900, 1.300, 124.500, 2, 100, 94, 18, 22653, -20746, 5326, 5491, 11, 14, 1525889308.625, 11, 0, 1024, 1024, 1024, 1024, 0, 6, 3755, 3754, 3752, 3821, 3810, 3770, 0, 1, 18807, -89.900, 0.000, 123.400, 0.000, 0.000, -3.000, 0.0, , , , , , 98, , , 0, 0, 0
38.0977367, -120.1812868, 39.400, 11:08:28.720, 16, 0.00, 0.45, 97, 1.900, 1.300, 124.500, 2, 100, 94, 18, 22653, -20746, 5326, 5491, 11, 14, 1525889308.721, 107, 0, 1024, 1024, 1024, 1024, 0, 6, 3755, 3754, 3752, 3821, 3810, 3770, 0, 1, 18903, -89.900, 0.000, 123.400, 0.000, 0.000, -3.000, 0.0, , , , , , 98, , , 0, 0, 0
38.0977367, -120.1812869, 39.700, 11:08:28.820, 16, 0.00, 0.44, 97, 1.800, 1.200, 124.400, 2, 100, 94, 18, 22616, -20950, 5271, 5491, 11, 14, 1525889308.821, 29, 0, 1024, 1024, 1024, 1024, 0, 6, 3742, 3739, 3749, 3816, 3801, 3757, 0, 1, 19003, -90.000, 0.000, 123.300, 0.000, 0.000, -3.000, 0.0, , , , , , 98, , , 0, 0, 0
38.0977367, -120.1812869, 40.000, 11:08:28.920, 16, 0.00, 0.44, 97, 1.800, 1.200, 124.300, 2, 100, 98, 18, 22616, -20950, 5271, 5491, 11, 14, 1525889308.922, 85, 0, 1024, 1024, 1024, 1024, 0, 6, 3742, 3739, 3749, 3816, 3801, 3757, 0, 1, 19104, -89.900, 0.000, 123.400, 0.000, 0.000, -3.000, 0.0, , , , , , 98, , , 0, 0, 0
38.0977367, -120.1812871, 40.700, 11:08:29.033, 16, 0.00, 0.42, 97, 2.000, 0.900, 124.200, 2, 100, 98, 18, 22616, -20950, 5271, 5491, 11, 14, 1525889309.033, 13, 0, 1024, 1024, 1024, 1024, 0, 6, 3742, 3739, 3749, 3816, 3801, 3757, 0, 1, 19215, -90.000, 0.000, 123.400, 0.000, 0.000, -3.000, 0.0, , , , , , 98, , , 0, 0, 0
38.0977366, -120.1812871, 41.000, 11:08:29.133, 16, 0.00, 0.42, 97, 2.100, 0.600, 124.100, 2, 100, 98, 18, 22616, -20950, 5271, 5491, 11, 14, 1525889309.134, 6, 0, 1024, 1024, 1024, 1024, 0, 6, 3742, 3739, 3749, 3816, 3801, 3757, 0, 1, 19316, -90.000, 0.000, 123.400, 0.000, 0.000, -3.000, 0.0, , , , , , 98, , , 0, 0, 0
38.0977366, -120.1812871, 41.000, 11:08:29.224, 16, 0.00, 0.42, 97, 2.100, 0.600, 124.100, 2, 100, 98, 18, 22616, -20950, 5271, 5491, 11, 14, 1525889309.224, 96, 0, 1024, 1024, 1024, 1024, 0, 6, 3742, 3739, 3749, 3816, 3801, 3757, 0, 1, 19406, -90.000, 0.000, 123.400, 0.000, 0.000, -3.000, 0.0, , , , , , 98, , , 0, 0, 0
38.0977366, -120.1812872, 41.300, 11:08:29.327, 16, 0.00, 0.41, 97, 2.300, 0.300, 124.100, 2, 100, 97, 18, 22616, -20950, 5271, 5491, 11, 14, 1525889309.328, 88, 0, 1024, 1024, 1024, 1024, 0, 6, 3742, 3739, 3749, 3816, 3801, 3757, 0, 1, 19510, -90.000, 0.000, 123.300, 0.000, 0.000, -3.100, 0.0, , , , , , 98, , , 0, 0, 0
38.0977366, -120.1812872, 41.300, 11:08:29.426, 16, 0.00, 0.41, 97, 2.300, 0.300, 124.100, 2, 100, 97, 18, 22616, -20950, 5271, 5491, 11, 14, 1525889309.427, 186, 0, 1024, 1024, 1024, 1024, 0, 6, 3742, 3739, 3749, 3816, 3801, 3757, 0, 1, 19609, -90.000, 0.000, 123.300, 0.000, 0.000, -3.100, 0.0, , , , , , 98, , , 0, 0, 0
38.0977367, -120.1812872, 41.600, 11:08:29.526, 16, 0.00, 0.41, 97, 2.700, 0.200, 124.200, 2, 100, 97, 18, 22616, -20950, 5271, 5491, 11, 14, 1525889309.527, 68, 0, 1024, 1024, 1024, 1024, 0, 6, 3742, 3739, 3749, 3816, 3801, 3757, 0, 1, 19709, -90.000, 0.000, 123.400, 0.000, 0.000, -3.000, 0.0, , , , , , 98, , , 0, 0, 0
38.0977367, -120.1812873, 41.900, 11:08:29.624, 16, 0.00, 0.41, 97, 2.800, 0.300, 124.300, 2, 100, 97, 18, 22616, -20950, 5271, 5491, 11, 14, 1525889309.625, 47, 0, 1024, 1024, 1024, 1024, 0, 6, 3742, 3739, 3749, 3816, 3801, 3757, 0, 1, 19807, -89.900, 0.000, 123.400, 0.000, 0.000, -3.000, 0.0, , , , , , 98, , , 0, 0, 0
38.0977367, -120.1812873, 42.500, 11:08:29.725, 16, 0.00, 0.40, 97, 2.600, 0.900, 124.400, 2, 100, 97, 18, 22616, -20950, 5271, 5491, 11, 14, 1525889309.726, 78, 0, 1024, 1024, 1024, 1024, 0, 6, 3742, 3739, 3749, 3816, 3801, 3757, 0, 1, 19908, -89.900, 0.000, 123.300, 0.000, 0.000, -3.000, 0.0, , , , , , 98, , , 0, 0, 0
38.0977367, -120.1812873, 42.900, 11:08:29.826, 16, 0.00, 0.40, 97, 2.500, 1.100, 124.400, 2, 100, 97, 18, 22616, -20950, 5271, 5491, 11, 14, 1525889309.827, 76, 0, 1024, 1024, 1024, 1024, 0, 6, 3742, 3739, 3749, 3816, 3801, 3757, 0, 1, 20009, -89.900, 0.000, 123.300, 0.000, 0.000, -3.000, 0.0, , , , , , 98, , , 0, 0, 0
38.0977367, -120.1812873, 42.900, 11:08:29.919, 16, 0.00, 0.40, 97, 2.500, 1.100, 124.400, 2, 100, 97, 18, 22616, -20950, 5271, 5491, 11, 14, 1525889309.920, 169, 0, 1024, 1024, 1024, 1024, 0, 6, 3742, 3739, 3749, 3816, 3801, 3757, 0, 1, 20102, -89.900, 0.000, 123.300, 0.000, 0.000, -3.000, 0.0, , , , , , 98, , , 0, 0, 0
38.0977367, -120.1812873, 43.200, 11:08:30.026, 16, 0.00, 0.40, 97, 2.400, 1.200, 124.300, 2, 100, 94, 18, 22616, -20950, 5271, 5491, 11, 14, 1525889310.027, 35, 0, 1024, 1024, 1024, 1024, 0, 6, 3742, 3739, 3749, 3816, 3801, 3757, 0, 1, 20209, -89.900, 0.000, 123.300, 0.000, 0.000, -3.000, 0.0, , , , , , 98, , , 0, 0, 0
38.0977367, -120.1812873, 43.200, 11:08:30.119, 16, 0.00, 0.40, 97, 2.400, 1.200, 124.300, 2, 100, 94, 18, 22616, -20950, 5271, 5491, 11, 14, 1525889310.120, 128, 0, 1024, 1024, 1024, 1024, 0, 6, 3742, 3739, 3749, 3816, 3801, 3757, 0, 1, 20302, -89.900, 0.000, 123.300, 0.000, 0.000, -3.000, 0.0, , , , , , 98, , , 0, 0, 0
38.0977367, -120.1812873, 43.200, 11:08:30.223, 16, 0.00, 0.40, 97, 2.400, 1.200, 124.300, 2, 100, 94, 18, 22616, -20950, 5271, 5491, 11, 14, 1525889310.224, 233, 0, 1024, 1024, 1024, 1024, 0, 6, 3742, 3739, 3749, 3816, 3801, 3757, 0, 1, 20406, -89.900, 0.000, 123.300, 0.000, 0.000, -3.000, 0.0, , , , , , 98, , , 0, 0, 0
38.0977367, -120.1812873, 43.800, 11:08:30.328, 16, 0.00, 0.40, 97, 2.400, 1.000, 124.300, 2, 100, 94, 18, 22616, -20950, 5271, 5491, 11, 14, 1525889310.329, 69, 0, 1024, 1024, 1024, 1024, 0, 6, 3742, 3739, 3749, 3816, 3801, 3757, 0, 1, 20511, -89.900, 0.000, 123.300, 0.000, 0.000, -2.900, 0.0, , , , , , 98, , , 0, 0, 0
38.0977367, -120.1812874, 44.100, 11:08:30.429, 16, 0.00, 0.40, 97, 2.400, 0.900, 124.300, 2, 100, 94, 18, 22616, -20950, 5271, 5491, 11, 14, 1525889310.429, 51, 0, 1024, 1024, 1024, 1024, 0, 6, 3742, 3739, 3749, 3816, 3801, 3757, 0, 1, 20611, -90.000, 0.000, 123.400, 0.000, 0.000, -3.000, 0.0, , , , , , 98, , , 0, 0, 0
38.0977367, -120.1812874, 44.100, 11:08:30.519, 16, 0.00, 0.40, 97, 2.400, 0.900, 124.300, 2, 100, 94, 18, 22616, -20950, 5271, 5491, 11, 14, 1525889310.520, 142, 0, 1024, 1024, 1024, 1024, 0, 6, 3742, 3739, 3749, 3816, 3801, 3757, 0, 1, 20702, -90.000, 0.000, 123.400, 0.000, 0.000, -3.000, 0.0, , , , , , 98, , , 0, 0, 0
38.0977367, -120.1812874, 44.700, 11:08:30.619, 16, 0.00, 0.40, 97, 2.500, 0.900, 124.600, 2, 100, 94, 18, 22616, -20950, 5271, 5491, 11, 14, 1525889310.621, 15, 0, 1024, 1024, 1024, 1024, 0, 6, 3742, 3739, 3749, 3816, 3801, 3757, 0, 1, 20803, -89.900, 0.000, 123.300, 0.000, 0.000, -2.900, 0.0, , , , , , 98, , , 0, 0, 0
38.0977367, -120.1812874, 45.000, 11:08:30.723, 16, 0.00, 0.40, 97, 2.600, 1.000, 124.600, 2, 100, 94, 18, 22616, -20950, 5271, 5491, 11, 14, 1525889310.724, 41, 0, 1024, 1024, 1024, 1024, 0, 6, 3742, 3739, 3749, 3816, 3801, 3757, 0, 1, 20906, -89.900, 0.000, 123.400, 0.000, 0.000, -2.900, 0.0, , , , , , 98, , , 0, 0, 0
38.0977367, -120.1812874, 45.300, 11:08:30.826, 16, 0.00, 0.40, 97, 2.600, 1.000, 124.600, 2, 100, 94, 18, 22616, -20950, 5271, 5491, 11, 14, 1525889310.827, 37, 0, 1024, 1024, 1024, 1024, 0, 6, 3742, 3739, 3749, 3816, 3801, 3757, 0, 1, 21009, -89.900, 0.000, 123.400, 0.000, 0.000, -2.900, 0.0, , , , , , 98, , , 0, 0, 0
38.0977367, -120.1812874, 45.300, 11:08:30.925, 16, 0.00, 0.40, 97, 2.600, 1.000, 124.600, 2, 100, 94, 18, 22616, -20950, 5271, 5491, 11, 14, 1525889310.926, 137, 0, 1024, 1024, 1024, 1024, 0, 6, 3742, 3739, 3749, 3816, 3801, 3757, 0, 1, 21108, -89.900, 0.000, 123.400, 0.000, 0.000, -2.900, 0.0, , , , , , 98, , , 0, 0, 0
