Latitude, Longitude, Altitude (m), Time, Sats, Speed (m/s), Range (m), Battery (%), Roll (deg), Pitch (deg), Yaw (deg), Images, HD Signal (%), RC Signal (%), Battery Temp (C), Battery Voltage (mV), Battery Current (mA), Battery Energy (mAh), Battery Capacity (mAh), Battery Discharges, flyState, timestamp (Unix), LastUpdate (ms), radioChannel, Rc_elevator, Rc_aileron, Rc_throttle, Rc_rudder, Rc_gyro, Dronetype, Battery_Cell1 (mV), Battery_Cell2 (mV), Battery_Cell3 (mV), Battery_Cell4 (mV), Battery_Cell5 (mV), Battery_Cell6 (mV), Video, isFlying, elapsedTime (ms), gimbalPitch (deg), gimbalRoll (deg), gimbalYaw (deg), VelocityX (m/s), VelocityY (m/s), VelocityZ (m/s), GroundSmear (cm), App Version, Aircraft Name, Aircraft Firmware, Aircraft Serial Number, Battery Serial Number, Battery Lifetime (%), App_Tip, App_Warning, CurrentFlightStartingIndex, CurrentFlightLastVisitedWaypoint, PreviousFlightEndingWaypointIndex
38.0977318, -120.1812663, 0.000, 12:13:11.838, 16, 0.10, 0.11, 100, -0.500, 0.000, 124.200, 874, 100, 100, 21, 25444, -2824, 5510, 5510, 10, 11, 1525893191.838, 91, 0, 1024, 1024, 1024, 1024, 0, 6, 4277, 4128, 4281, 4281, 4245, 4218, 0, 1, 3082, -89.900, 0.000, 123.500, 0.000, 0.100, -0.100, 0.0, MapPilot_2.8.1_04242018, Dendroctonus I, 1.3.1.00, 041DDC1887, 1058163200627, 98, DJI_0875.jpg, Starting Mission from Lat/Long: 38.09773/-120.18128 Camera: Zenmuse X3 - Overlap: 90/90 - Active Connection: No, 33, 33, 33
38.0977318, -120.1812663, 0.000, 12:13:11.855, 16, 0.10, 0.11, 100, -0.500, 0.000, 124.200, 874, 100, 100, 21, 25444, -2824, 5510, 5510, 10, 11, 1525893191.856, 109, 0, 1024, 1024, 1024, 1024, 0, 6, 4277, 4128, 4281, 4281, 4245, 4218, 0, 1, 3100, -89.900, 0.000, 123.500, 0.000, 0.100, -0.100, 0.0, , , , , , 98, , , 33, 33, 33
38.0977317, -120.1812659, 0.000, 12:13:11.956, 14, 0.10, 0.14, 100, 0.000, 1.400, 124.200, 874, 100, 100, 21, 25444, -2824, 5510, 5510, 10, 11, 1525893191.957, 31, 0, 1024, 1024, 1024, 1024, 0, 6, 4277, 4128, 4281, 4281, 4245, 4218, 0, 1, 3201, -89.900, 0.000, 123.500, 0.000, 0.100, -0.300, 0.0, , , , , , 98, , , 33, 33, 33
38.0977317, -120.1812657, 0.100, 12:13:12.056, 14, 0.10, 0.16, 100, 0.200, 1.500, 124.200, 874, 100, 100, 21, 25226, -3268, 5510, 5510, 10, 11, 1525893192.057, 21, 0, 1024, 1024, 1024, 1024, 0, 6, 4277, 4128, 4281, 4281, 4245, 4218, 0, 1, 3301, -89.900, 0.000, 123.500, 0.000, 0.100, -0.300, 0.0, , , , , , 98, , , 33, 33, 33
38.0977318, -120.1812655, 0.100, 12:13:12.159, 15, 0.10, 0.18, 100, 0.700, 1.400, 124.200, 874, 100, 100, 21, 25226, -3268, 5510, 5510, 10, 11, 1525893192.160, 9, 0, 1024, 1024, 1024, 1024, 0, 6, 4197, 4185, 4202, 4206, 4243, 4151, 0, 1, 3404, -89.900, 0.000, 123.500, 0.000, 0.100, -0.400, 0.0, , , , , , 98, , , 33, 33, 33
38.0977317, -120.1812652, 0.200, 12:13:12.259, 15, 0.10, 0.20, 100, 1.100, 1.500, 124.200, 874, 100, 100, 21, 25226, -3268, 5510, 5510, 10, 11, 1525893192.260, 8, 0, 1024, 1024, 1024, 1024, 0, 6, 4197, 4185, 4202, 4206, 4243, 4151, 0, 1, 3504, -89.900, 0.000, 123.500, 0.000, 0.100, -0.400, 0.0, , , , , , 98, , , 33, 33, 33
38.0977317, -120.1812650, 0.200, 12:13:12.356, 15, 0.10, 0.22, 100, 1.100, 1.300, 124.000, 874, 100, 100, 21, 25226, -3268, 5510, 5510, 10, 11, 1525893192.356, 14, 0, 1024, 1024, 1024, 1024, 0, 6, 4197, 4185, 4202, 4206, 4243, 4151, 0, 1, 3600, -89.900, 0.000, 123.500, 0.000, 0.100, -0.300, 0.0, , , , , , 98, , , 33, 33, 33
38.0977318, -120.1812648, 0.200, 12:13:12.456, 15, 0.10, 0.24, 100, 0.900, 1.000, 123.900, 874, 100, 100, 21, 25226, -3268, 5510, 5510, 10, 11, 1525893192.456, 7, 0, 1024, 1024, 1024, 1024, 0, 6, 4197, 4185, 4202, 4206, 4243, 4151, 0, 1, 3701, -89.900, 0.000, 123.500, 0.000, 0.100, -0.300, 0.0, , , , , , 98, , , 33, 33, 33
38.0977318, -120.1812646, 0.300, 12:13:12.556, 16, 0.10, 0.26, 100, 1.000, 0.800, 123.700, 874, 100, 100, 21, 25226, -3268, 5510, 5510, 10, 11, 1525893192.556, 7, 0, 1024, 1024, 1024, 1024, 0, 6, 4197, 4185, 4202, 4206, 4243, 4151, 0, 1, 3800, -89.900, 0.000, 123.500, 0.000, 0.100, -0.300, 0.0, , , , , , 98, , , 33, 33, 33
38.0977318, -120.1812643, 0.300, 12:13:12.656, 16, 0.10, 0.28, 100, 1.300, 1.000, 123.500, 874, 100, 100, 21, 25226, -3268, 5510, 5510, 10, 11, 1525893192.657, 9, 0, 1024, 1024, 1024, 1024, 0, 6, 4197, 4185, 4202, 4206, 4243, 4151, 0, 1, 3901, -89.900, 0.000, 123.500, 0.000, 0.100, -0.400, 0.0, , , , , , 98, , , 33, 33, 33
38.0977318, -120.1812643, 0.300, 12:13:12.756, 16, 0.10, 0.28, 100, 1.300, 1.000, 123.500, 874, 100, 100, 21, 25226, -3268, 5510, 5510, 10, 11, 1525893192.757, 110, 0, 1024, 1024, 1024, 1024, 0, 6, 4197, 4185, 4202, 4206, 4243, 4151, 0, 1, 4001, -89.900, 0.000, 123.500, 0.000, 0.100, -0.400, 0.0, , , , , , 98, , , 33, 33, 33
38.0977318, -120.1812641, 0.400, 12:13:12.856, 18, 0.10, 0.30, 100, 1.600, 1.200, 123.400, 874, 100, 100, 21, 25226, -3268, 5510, 5510, 10, 11, 1525893192.856, 90, 0, 1024, 1024, 1024, 1024, 0, 6, 4197, 4185, 4202, 4206, 4243, 4151, 0, 1, 4101, -89.900, 0.000, 123.500, 0.000, 0.100, -0.400, 0.0, , , , , , 98, , , 33, 33, 33
38.0977317, -120.1812639, 0.400, 12:13:12.956, 18, 0.10, 0.31, 100, 1.700, 1.200, 123.500, 874, 100, 100, 21, 25226, -3268, 5510, 5510, 10, 11, 1525893192.956, 82, 0, 1024, 1024, 1024, 1024, 0, 6, 4197, 4185, 4202, 4206, 4243, 4151, 0, 1, 4201, -89.900, 0.000, 123.500, 0.000, 0.100, -0.500, 0.0, , , , , , 98, , , 33, 33, 33
38.0977317, -120.1812638, 0.500, 12:13:13.056, 16, 0.10, 0.33, 100, 1.400, 1.400, 123.600, 874, 100, 100, 21, 23911, -12263, 5510, 5510, 10, 11, 1525893193.056, 70, 0, 1024, 1024, 1024, 1024, 0, 6, 3973, 3965, 3999, 3987, 4001, 3980, 0, 1, 4301, -89.900, 0.000, 123.500, 0.000, 0.100, -0.500, 0.0, , , , , , 98, , , 33, 33, 33
38.0977317, -120.1812637, 0.500, 12:13:13.156, 16, 0.00, 0.34, 100, 1.000, 1.500, 123.800, 874, 100, 100, 21, 23911, -12263, 5510, 5510, 10, 11, 1525893193.157, 71, 0, 1024, 1024, 1024, 1024, 0, 6, 3973, 3965, 3999, 3987, 4001, 3980, 0, 1, 4401, -89.900, 0.000, 123.500, 0.000, 0.000, -0.500, 0.0, , , , , , 98, , , 33, 33, 33
38.0977317, -120.1812636, 0.600, 12:13:13.256, 16, 0.00, 0.35, 100, 0.700, 1.800, 124.000, 874, 100, 100, 21, 23911, -12263, 5510, 5510, 10, 11, 1525893193.256, 82, 0, 1024, 1024, 1024, 1024, 0, 6, 3973, 3965, 3999, 3987, 4001, 3980, 0, 1, 4501, -89.900, 0.000, 123.500, 0.000, 0.000, -0.400, 0.0, , , , , , 98, , , 33, 33, 33
38.0977317, -120.1812634, 0.600, 12:13:13.356, 16, 0.00, 0.36, 100, 0.500, 1.900, 124.100, 874, 100, 100, 21, 23911, -12263, 5510, 5510, 10, 11, 1525893193.356, 83, 0, 1024, 1024, 1024, 1024, 0, 6, 3973, 3965, 3999, 3987, 4001, 3980, 0, 1, 4601, -89.900, 0.000, 123.500, 0.000, 0.000, -0.500, 0.0, , , , , , 98, , , 33, 33, 33
38.0977317, -120.1812633, 0.700, 12:13:13.456, 17, 0.00, 0.37, 100, 0.700, 2.000, 124.400, 874, 100, 100, 21, 23911, -12263, 5510, 5510, 10, 11, 1525893193.456, 57, 0, 1024, 1024, 1024, 1024, 0, 6, 3973, 3965, 3999, 3987, 4001, 3980, 0, 1, 4701, -89.900, 0.000, 123.500, 0.000, 0.000, -0.400, 0.0, , , , , , 98, , , 33, 33, 33
38.0977316, -120.1812632, 0.700, 12:13:13.556, 17, 0.00, 0.38, 100, 1.000, 2.100, 124.600, 874, 100, 100, 21, 23911, -12263, 5510, 5510, 10, 11, 1525893193.557, 59, 0, 1024, 1024, 1024, 1024, 0, 6, 3973, 3965, 3999, 3987, 4001, 3980, 0, 1, 4801, -89.900, 0.000, 123.500, 0.000, 0.000, -0.400, 0.0, , , , , , 98, , , 33, 33, 33
38.0977316, -120.1812631, 0.800, 12:13:13.656, 16, 0.00, 0.39, 100, 1.100, 2.500, 124.800, 874, 100, 100, 21, 23911, -12263, 5510, 5510, 10, 11, 1525893193.657, 65, 0, 1024, 1024, 1024, 1024, 0, 6, 3973, 3965, 3999, 3987, 4001, 3980, 0, 1, 4901, -89.900, 0.000, 123.500, 0.000, 0.000, -0.400, 0.0, , , , , , 98, , , 33, 33, 33
38.0977316, -120.1812630, 0.800, 12:13:13.756, 16, 0.00, 0.39, 100, 1.100, 2.600, 124.900, 874, 100, 100, 21, 23911, -12263, 5510, 5510, 10, 11, 1525893193.756, 36, 0, 1024, 1024, 1024, 1024, 0, 6, 3973, 3965, 3999, 3987, 4001, 3980, 0, 1, 5001, -89.900, 0.000, 123.500, 0.000, 0.000, -0.400, 0.0, , , , , , 98, , , 33, 33, 33
38.0977316, -120.1812630, 0.900, 12:13:13.855, 16, 0.00, 0.39, 100, 1.100, 2.500, 124.900, 874, 100, 100, 21, 23911, -12263, 5510, 5510, 10, 14, 1525893193.856, 38, 0, 1024, 1024, 1024, 1024, 0, 6, 3973, 3965, 3999, 3987, 4001, 3980, 0, 1, 5100, -89.900, 0.000, 123.500, 0.000, 0.000, -0.500, 0.0, , , , , , 98, , , 33, 33, 33
38.0977316, -120.1812630, 0.900, 12:13:13.956, 16, 0.00, 0.40, 100, 1.000, 2.300, 125.000, 874, 100, 100, 21, 23911, -12263, 5510, 5510, 10, 14, 1525893193.956, 34, 0, 1024, 1024, 1024, 1024, 0, 6, 3973, 3965, 3999, 3987, 4001, 3980, 0, 1, 5201, -89.900, 0.000, 123.500, 0.000, 0.000, -0.400, 0.0, , , , , , 98, , , 33, 33, 33
38.0977316, -120.1812629, 1.000, 12:13:14.056, 15, 0.00, 0.41, 100, 0.000, 0.500, 125.300, 874, 100, 100, 21, 23661, -16642, 5510, 5510, 10, 14, 1525893194.057, 36, 0, 1024, 1024, 1024, 1024, 0, 6, 3973, 3965, 3999, 3987, 4001, 3980, 0, 1, 5301, -90.000, 0.000, 123.600, 0.000, 0.000, -0.300, 0.0, , , , , , 98, , , 33, 33, 33
38.0977316, -120.1812628, 1.100, 12:13:14.159, 16, 0.00, 0.41, 100, 0.200, 0.500, 125.300, 874, 100, 100, 21, 23661, -16642, 5510, 5510, 10, 14, 1525893194.159, 6, 0, 1024, 1024, 1024, 1024, 0, 6, 3973, 3965, 3999, 3987, 4001, 3980, 0, 1, 5404, -90.000, 0.000, 123.600, 0.000, 0.000, -0.200, 0.0, , , , , , 98, , , 33, 33, 33
38.0977316, -120.1812629, 1.100, 12:13:14.256, 16, 0.00, 0.41, 100, 0.400, 0.700, 125.300, 874, 100, 100, 21, 23661, -16642, 5510, 5510, 10, 14, 1525893194.257, 43, 0, 1024, 1024, 1024, 1024, 0, 6, 3973, 3965, 3999, 3987, 4001, 3980, 0, 1, 5501, -89.900, 0.000, 123.600, 0.000, 0.000, -0.300, 0.0, , , , , , 98, , , 33, 33, 33
38.0977316, -120.1812628, 1.200, 12:13:14.356, 16, 0.00, 0.41, 100, 0.400, 1.000, 125.300, 874, 100, 100, 21, 23661, -16642, 5510, 5510, 10, 14, 1525893194.357, 45, 0, 1024, 1024, 1024, 1024, 0, 6, 3973, 3965, 3999, 3987, 4001, 3980, 0, 1, 5601, -89.900, 0.000, 123.700, 0.000, 0.000, -0.500, 0.0, , , , , , 98, , , 33, 33, 33
38.0977316, -120.1812628, 1.200, 12:13:14.463, 16, 0.00, 0.41, 100, 0.400, 1.100, 125.300, 874, 100, 100, 21, 23661, -16642, 5510, 5510, 10, 14, 1525893194.463, 5, 0, 1024, 1024, 1024, 1024, 0, 6, 3973, 3965, 3999, 3987, 4001, 3980, 0, 1, 5708, -89.900, 0.000, 123.700, 0.000, 0.000, -0.700, 0.0, , , , , , 98, , , 33, 33, 33
38.0977317, -120.1812627, 1.300, 12:13:14.556, 17, 0.00, 0.42, 100, 0.500, 1.200, 125.200, 874, 100, 99, 21, 23661, -16642, 5510, 5510, 10, 14, 1525893194.557, 8, 0, 1024, 1024, 1024, 1024, 0, 6, 3931, 3925, 3950, 3952, 3964, 3942, 0, 1, 5801, -89.900, 0.000, 123.700, 0.000, 0.000, -0.900, 0.0, , , , , , 98, , , 33, 33, 33
38.0977317, -120.1812626, 1.400, 12:13:14.656, 17, 0.00, 0.43, 100, 0.700, 1.200, 125.100, 874, 100, 99, 21, 23661, -16642, 5510, 5510, 10, 14, 1525893194.657, 12, 0, 1024, 1024, 1024, 1024, 0, 6, 3931, 3925, 3950, 3952, 3964, 3942, 0, 1, 5901, -89.900, 0.000, 123.700, 0.000, 0.000, -1.100, 0.0, , , , , , 98, , , 33, 33, 33
38.0977317, -120.1812626, 1.500, 12:13:14.755, 17, 0.00, 0.43, 100, 0.900, 1.200, 125.100, 874, 100, 99, 21, 23661, -16642, 5510, 5510, 10, 14, 1525893194.756, 15, 0, 1024, 1024, 1024, 1024, 0, 6, 3931, 3925, 3950, 3952, 3964, 3942, 0, 1, 6000, -89.900, 0.000, 123.700, 0.000, 0.000, -1.200, 0.0, , , , , , 98, , , 33, 33, 33
38.0977318, -120.1812625, 1.700, 12:13:14.858, 17, 0.00, 0.44, 100, 1.000, 1.100, 125.100, 874, 100, 99, 21, 23661, -16642, 5510, 5510, 10, 14, 1525893194.859, 5, 0, 1024, 1024, 1024, 1024, 0, 6, 3931, 3925, 3950, 3952, 3964, 3942, 0, 1, 6103, -89.900, 0.000, 123.700, 0.000, 0.000, -1.400, 0.0, , , , , , 98, , , 33, 33, 33
38.0977318, -120.1812625, 1.800, 12:13:14.967, 16, 0.00, 0.44, 100, 1.000, 1.000, 125.200, 874, 100, 99, 21, 23661, -16642, 5510, 5510, 10, 14, 1525893194.967, 11, 0, 1024, 1024, 1024, 1024, 0, 6, 3931, 3925, 3950, 3952, 3964, 3942, 0, 1, 6212, -89.900, 0.000, 123.800, 0.000, 0.000, -1.700, 0.0, , , , , , 98, , , 33, 33, 33
38.0977318, -120.1812624, 2.000, 12:13:15.056, 16, 0.00, 0.45, 100, 1.100, 1.000, 125.300, 874, 100, 99, 21, 23661, -16642, 5510, 5510, 10, 14, 1525893195.057, 8, 0, 1024, 1024, 1024, 1024, 0, 6, 3931, 3925, 3950, 3952, 3964, 3942, 0, 1, 6301, -89.900, 0.000, 123.800, 0.000, 0.000, -1.900, 0.0, , , , , , 98, , , 33, 33, 33
38.0977318, -120.1812623, 2.200, 12:13:15.156, 16, 0.00, 0.45, 100, 1.000, 1.100, 125.400, 874, 100, 99, 21, 23661, -16642, 5510, 5510, 10, 14, 1525893195.156, 5, 0, 1024, 1024, 1024, 1024, 0, 6, 3931, 3925, 3950, 3952, 3964, 3942, 0, 1, 6401, -89.900, 0.000, 123.800, 0.000, 0.000, -2.000, 0.0, , , , , , 98, , , 33, 33, 33
38.0977318, -120.1812623, 2.400, 12:13:15.267, 16, 0.00, 0.46, 100, 0.900, 1.100, 125.400, 874, 100, 99, 21, 23661, -16642, 5510, 5510, 10, 14, 1525893195.267, 10, 0, 1024, 1024, 1024, 1024, 0, 6, 3931, 3925, 3950, 3952, 3964, 3942, 0, 1, 6512, -89.900, 0.000, 123.800, 0.000, 0.000, -2.300, 0.0, , , , , , 98, , , 33, 33, 33
38.0977318, -120.1812623, 2.400, 12:13:15.356, 16, 0.00, 0.46, 100, 0.900, 1.100, 125.400, 874, 100, 99, 21, 23661, -16642, 5510, 5510, 10, 14, 1525893195.356, 99, 0, 1024, 1024, 1024, 1024, 0, 6, 3931, 3925, 3950, 3952, 3964, 3942, 0, 1, 6601, -89.900, 0.000, 123.800, 0.000, 0.000, -2.300, 0.0, , , , , , 98, , , 33, 33, 33
38.0977317, -120.1812623, 2.700, 12:13:15.456, 16, 0.00, 0.46, 100, 0.800, 1.100, 125.400, 874, 100, 99, 21, 23661, -16642, 5510, 5510, 10, 14, 1525893195.456, 71, 0, 1024, 1024, 1024, 1024, 0, 6, 3931, 3925, 3950, 3952, 3964, 3942, 0, 1, 6701, -89.900, 0.000, 123.800, 0.000, 0.000, -2.500, 0.0, , , , , , 98, , , 33, 33, 33
38.0977317, -120.1812623, 3.000, 12:13:15.556, 16, 0.00, 0.46, 100, 0.500, 1.400, 125.300, 874, 100, 99, 21, 23678, -15798, 5399, 5510, 10, 14, 1525893195.556, 54, 0, 1024, 1024, 1024, 1024, 0, 6, 3906, 3941, 3927, 3932, 3947, 3951, 0, 1, 6801, -89.900, 0.000, 123.800, 0.000, 0.000, -2.800, 0.0, , , , , , 98, , , 33, 33, 33
38.0977317, -120.1812622, 3.300, 12:13:15.656, 16, 0.00, 0.46, 100, 0.400, 1.500, 125.200, 874, 100, 99, 21, 23678, -15798, 5399, 5510, 10, 14, 1525893195.657, 86, 0, 1024, 1024, 1024, 1024, 0, 6, 3906, 3941, 3927, 3932, 3947, 3951, 0, 1, 6901, -89.900, 0.000, 123.900, 0.000, 0.000, -3.000, 0.0, , , , , , 98, , , 33, 33, 33
38.0977315, -120.1812623, 3.600, 12:13:15.756, 16, 0.00, 0.46, 100, 0.400, 1.600, 125.200, 874, 100, 99, 21, 23678, -15798, 5399, 5510, 10, 14, 1525893195.757, 35, 0, 1024, 1024, 1024, 1024, 0, 6, 3906, 3941, 3927, 3932, 3947, 3951, 0, 1, 7001, -89.900, 0.000, 123.900, 0.000, 0.000, -3.100, 0.0, , , , , , 98, , , 33, 33, 33
38.0977314, -120.1812623, 3.900, 12:13:15.856, 15, 0.00, 0.45, 100, 0.300, 1.500, 125.100, 874, 100, 99, 21, 23678, -15798, 5399, 5510, 10, 14, 1525893195.857, 76, 0, 1024, 1024, 1024, 1024, 0, 6, 3906, 3941, 3927, 3932, 3947, 3951, 0, 1, 7101, -89.900, 0.000, 123.900, 0.000, 0.000, -3.200, 0.0, , , , , , 98, , , 33, 33, 33
38.0977313, -120.1812624, 4.300, 12:13:15.956, 15, 0.00, 0.45, 100, 0.000, 1.400, 125.000, 874, 100, 99, 21, 23678, -15798, 5399, 5510, 10, 14, 1525893195.957, 39, 0, 1024, 1024, 1024, 1024, 0, 6, 3906, 3941, 3927, 3932, 3947, 3951, 0, 1, 7201, -89.900, 0.000, 123.900, 0.000, 0.000, -3.300, 0.0, , , , , , 98, , , 33, 33, 33
38.0977313, -120.1812625, 4.600, 12:13:16.056, 14, 0.00, 0.44, 98, -0.100, 1.200, 124.900, 874, 100, 99, 21, 23678, -15798, 5399, 5510, 10, 14, 1525893196.057, 52, 0, 1024, 1024, 1024, 1024, 0, 6, 3906, 3941, 3927, 3932, 3947, 3951, 0, 1, 7301, -89.900, 0.000, 123.900, 0.000, 0.000, -3.300, 0.0, , , , , , 98, , , 33, 33, 33
38.0977314, -120.1812625, 5.000, 12:13:16.165, 14, 0.00, 0.44, 98, -0.100, 0.900, 124.800, 874, 100, 100, 21, 23678, -15798, 5399, 5510, 10, 14, 1525893196.166, 14, 0, 1024, 1024, 1024, 1024, 0, 6, 3906, 3941, 3927, 3932, 3947, 3951, 0, 1, 7410, -89.900, 0.000, 123.900, 0.000, 0.000, -3.300, 0.0, , , , , , 98, , , 33, 33, 33
38.0977314, -120.1812625, 5.300, 12:13:16.256, 16, 0.00, 0.43, 98, 0.000, 0.600, 124.800, 874, 100, 100, 21, 23678, -15798, 5399, 5510, 10, 14, 1525893196.257, 31, 0, 1024, 1024, 1024, 1024, 0, 6, 3906, 3941, 3927, 3932, 3947, 3951, 0, 1, 7501, -90.000, 0.000, 124.000, 0.000, 0.000, -3.200, 0.0, , , , , , 98, , , 33, 33, 33
38.0977314, -120.1812625, 5.300, 12:13:16.356, 16, 0.00, 0.43, 98, 0.000, 0.600, 124.800, 874, 100, 100, 21, 23678, -15798, 5399, 5510, 10, 14, 1525893196.357, 131, 0, 1024, 1024, 1024, 1024, 0, 6, 3906, 3941, 3927, 3932, 3947, 3951, 0, 1, 7601, -90.000, 0.000, 124.000, 0.000, 0.000, -3.200, 0.0, , , , , , 98, , , 33, 33, 33
38.0977315, -120.1812626, 5.700, 12:13:16.456, 16, 0.00, 0.43, 98, 0.200, 0.500, 124.900, 874, 100, 100, 21, 23678, -15798, 5399, 5510, 10, 14, 1525893196.457, 97, 0, 1024, 1024, 1024, 1024, 0, 6, 3906, 3941, 3927, 3932, 3947, 3951, 0, 1, 7701, -90.000, 0.000, 124.000, 0.000, 0.000, -3.200, 0.0, , , , , , 98, , , 33, 33, 33
38.0977315, -120.1812627, 6.000, 12:13:16.556, 16, 0.00, 0.42, 98, 0.300, 0.300, 125.000, 874, 100, 100, 21, 23678, -15798, 5399, 5510, 10, 14, 1525893196.556, 87, 0, 1024, 1024, 1024, 1024, 0, 6, 3906, 3941, 3927, 3932, 3947, 3951, 0, 1, 7801, -90.000, 0.000, 124.000, 0.000, 0.000, -3.200, 0.0, , , , , , 98, , , 33, 33, 33
38.0977316, -120.1812628, 6.300, 12:13:16.656, 16, 0.00, 0.41, 98, 0.400, 0.100, 125.000, 874, 100, 100, 21, 22913, -24117, 5399, 5510, 10, 14, 1525893196.657, 47, 0, 1024, 1024, 1024, 1024, 0, 6, 3794, 3786, 3789, 3803, 3813, 3800, 0, 1, 7902, -90.000, 0.000, 124.000, 0.000, 0.000, -3.200, 0.0, , , , , , 98, , , 33, 33, 33
38.0977316, -120.1812629, 6.700, 12:13:16.756, 17, 0.00, 0.40, 98, 0.700, 0.000, 125.000, 874, 100, 100, 21, 22913, -24117, 5399, 5510, 10, 14, 1525893196.757, 30, 0, 1024, 1024, 1024, 1024, 0, 6, 3794, 3786, 3789, 3803, 3813, 3800, 0, 1, 8001, -90.000, 0.000, 124.000, 0.000, 0.000, -3.200, 0.0, , , , , , 98, , , 33, 33, 33
38.0977317, -120.1812632, 7.400, 12:13:16.864, 17, 0.00, 0.38, 98, 0.400, -0.400, 125.000, 874, 100, 100, 21, 22913, -24117, 5399, 5510, 10, 14, 1525893196.865, 9, 0, 1024, 1024, 1024, 1024, 0, 6, 3794, 3786, 3789, 3803, 3813, 3800, 0, 1, 8109, -90.000, 0.000, 124.000, 0.000, 0.000, -3.200, 0.0, , , , , , 98, , , 33, 33, 33
38.0977317, -120.1812632, 7.400, 12:13:16.956, 17, 0.00, 0.38, 98, 0.400, -0.400, 125.000, 874, 100, 100, 21, 22913, -24117, 5399, 5510, 10, 14, 1525893196.956, 101, 0, 1024, 1024, 1024, 1024, 0, 6, 3794, 3786, 3789, 3803, 3813, 3800, 0, 1, 8201, -90.000, 0.000, 124.000, 0.000, 0.000, -3.200, 0.0, , , , , , 98, , , 33, 33, 33
38.0977319, -120.1812633, 8.000, 12:13:17.072, 18, 0.00, 0.37, 98, 0.400, -0.500, 125.100, 874, 100, 100, 21, 22913, -24117, 5399, 5510, 10, 14, 1525893197.073, 15, 0, 1024, 1024, 1024, 1024, 0, 6, 3794, 3786, 3789, 3803, 3813, 3800, 0, 1, 8317, -89.900, 0.000, 124.000, 0.000, 0.000, -3.000, 0.0, , , , , , 98, , , 33, 33, 33
38.0977319, -120.1812633, 8.000, 12:13:17.156, 18, 0.00, 0.37, 98, 0.400, -0.500, 125.100, 874, 100, 100, 21, 22913, -24117, 5399, 5510, 10, 14, 1525893197.157, 100, 0, 1024, 1024, 1024, 1024, 0, 6, 3794, 3786, 3789, 3803, 3813, 3800, 0, 1, 8401, -89.900, 0.000, 124.000, 0.000, 0.000, -3.000, 0.0, , , , , , 98, , , 33, 33, 33
38.0977319, -120.1812633, 8.000, 12:13:17.256, 18, 0.00, 0.37, 98, 0.400, -0.500, 125.100, 874, 100, 100, 21, 22913, -24117, 5399, 5510, 10, 14, 1525893197.257, 199, 0, 1024, 1024, 1024, 1024, 0, 6, 3794, 3786, 3789, 3803, 3813, 3800, 0, 1, 8501, -89.900, 0.000, 124.000, 0.000, 0.000, -3.000, 0.0, , , , , , 98, , , 33, 33, 33
38.0977319, -120.1812633, 8.700, 12:13:17.356, 17, 0.00, 0.37, 98, 0.700, -0.200, 125.200, 874, 100, 100, 21, 22913, -24117, 5399, 5510, 10, 14, 1525893197.357, 26, 0, 1024, 1024, 1024, 1024, 0, 6, 3794, 3786, 3789, 3803, 3813, 3800, 0, 1, 8601, -89.900, 0.000, 124.000, 0.000, 0.000, -3.100, 0.0, , , , , , 98, , , 33, 33, 33
38.0977321, -120.1812631, 9.300, 12:13:17.456, 16, 0.00, 0.39, 98, 1.000, 0.100, 125.100, 874, 100, 100, 21, 22913, -24117, 5399, 5510, 10, 14, 1525893197.456, 12, 0, 1024, 1024, 1024, 1024, 0, 6, 3794, 3786, 3789, 3803, 3813, 3800, 0, 1, 8701, -89.900, 0.000, 124.000, 0.000, 0.000, -3.000, 0.0, , , , , , 98, , , 33, 33, 33
38.0977321, -120.1812631, 9.600, 12:13:17.556, 16, 0.00, 0.39, 98, 1.300, 0.200, 125.000, 874, 100, 100, 21, 23104, -20730, 5399, 5510, 10, 14, 1525893197.557, 27, 0, 1024, 1024, 1024, 1024, 0, 6, 3842, 3852, 3871, 3863, 3894, 3852, 0, 1, 8801, -89.900, 0.000, 124.000, 0.000, 0.000, -3.100, 0.0, , , , , , 98, , , 33, 33, 33
38.0977322, -120.1812631, 10.200, 12:13:17.656, 16, 0.00, 0.39, 98, 1.300, 0.400, 124.900, 874, 100, 100, 21, 23104, -20730, 5399, 5510, 10, 14, 1525893197.657, 8, 0, 1024, 1024, 1024, 1024, 0, 6, 3842, 3852, 3871, 3863, 3894, 3852, 0, 1, 8901, -89.900, 0.000, 124.000, 0.000, 0.000, -3.000, 0.0, , , , , , 98, , , 33, 33, 33
38.0977322, -120.1812631, 10.200, 12:13:17.756, 16, 0.00, 0.39, 98, 1.300, 0.400, 124.900, 874, 100, 100, 21, 23104, -20730, 5399, 5510, 10, 14, 1525893197.757, 108, 0, 1024, 1024, 1024, 1024, 0, 6, 3842, 3852, 3871, 3863, 3894, 3852, 0, 1, 9001, -89.900, 0.000, 124.000, 0.000, 0.000, -3.000, 0.0, , , , , , 98, , , 33, 33, 33
38.0977323, -120.1812631, 10.500, 12:13:17.856, 18, 0.00, 0.40, 98, 1.100, 0.300, 124.900, 874, 100, 100, 21, 23104, -20730, 5399, 5510, 10, 14, 1525893197.857, 76, 0, 1024, 1024, 1024, 1024, 0, 6, 3842, 3852, 3871, 3863, 3894, 3852, 0, 1, 9101, -89.900, 0.000, 124.000, 0.000, 0.000, -3.000, 0.0, , , , , , 98, , , 33, 33, 33
38.0977323, -120.1812631, 10.800, 12:13:17.956, 18, 0.00, 0.40, 98, 0.900, 0.200, 124.900, 874, 100, 100, 21, 23104, -20730, 5399, 5510, 10, 14, 1525893197.956, 78, 0, 1024, 1024, 1024, 1024, 0, 6, 3842, 3852, 3871, 3863, 3894, 3852, 0, 1, 9200, -89.900, 0.000, 124.000, 0.000, 0.000, -3.000, 0.0, , , , , , 98, , , 33, 33, 33
38.0977323, -120.1812631, 11.100, 12:13:18.056, 15, 0.00, 0.40, 98, 1.000, 0.400, 125.100, 874, 100, 100, 21, 23104, -20730, 5399, 5510, 10, 14, 1525893198.057, 59, 0, 1024, 1024, 1024, 1024, 0, 6, 3842, 3852, 3871, 3863, 3894, 3852, 0, 1, 9301, -89.900, 0.000, 124.000, 0.000, 0.000, -3.000, 0.0, , , , , , 98, , , 33, 33, 33
38.0977324, -120.1812630, 11.500, 12:13:18.155, 15, 0.00, 0.40, 98, 1.400, 0.600, 125.200, 874, 100, 100, 21, 23104, -20730, 5399, 5510, 10, 14, 1525893198.156, 56, 0, 1024, 1024, 1024, 1024, 0, 6, 3842, 3852, 3871, 3863, 3894, 3852, 0, 1, 9400, -89.900, 0.000, 124.000, 0.000, 0.000, -3.000, 0.0, , , , , , 98, , , 33, 33, 33
38.0977324, -120.1812630, 11.800, 12:13:18.256, 15, 0.00, 0.41, 98, 1.800, 0.600, 125.300, 874, 100, 100, 21, 23104, -20730, 5399, 5510, 10, 14, 1525893198.257, 65, 0, 1024, 1024, 1024, 1024, 0, 6, 3842, 3852, 3871, 3863, 3894, 3852, 0, 1, 9501, -89.900, 0.000, 124.000, 0.000, 0.000, -3.000, 0.0, , , , , , 98, , , 33, 33, 33
38.0977324, -120.1812630, 12.100, 12:13:18.356, 15, 0.00, 0.41, 98, 2.200, 0.800, 125.300, 874, 100, 100, 21, 23104, -20730, 5399, 5510, 10, 14, 1525893198.357, 56, 0, 1024, 1024, 1024, 1024, 0, 6, 3842, 3852, 3871, 3863, 3894, 3852, 0, 1, 9601, -89.900, 0.000, 124.000, 0.000, 0.000, -2.900, 0.0, , , , , , 98, , , 33, 33, 33
38.0977324, -120.1812629, 12.400, 12:13:18.456, 17, 0.00, 0.41, 98, 2.000, 0.800, 125.300, 874, 100, 100, 21, 23104, -20730, 5399, 5510, 10, 14, 1525893198.457, 48, 0, 1024, 1024, 1024, 1024, 0, 6, 3842, 3852, 3871, 3863, 3894, 3852, 0, 1, 9701, -89.900, 0.000, 124.000, 0.000, 0.000, -2.900, 0.0, , , , , , 98, , , 33, 33, 33
38.0977324, -120.1812629, 12.700, 12:13:18.556, 17, 0.00, 0.41, 98, 1.700, 0.700, 125.200, 874, 100, 100, 21, 23267, -18138, 5399, 5510, 10, 14, 1525893198.557, 24, 0, 1024, 1024, 1024, 1024, 0, 6, 3857, 3863, 3882, 3889, 3907, 3866, 0, 1, 9801, -89.900, 0.000, 124.000, 0.000, 0.000, -2.900, 0.0, , , , , , 98, , , 33, 33, 33
38.0977325, -120.1812629, 13.000, 12:13:18.656, 17, 0.00, 0.41, 98, 1.300, 0.600, 125.100, 874, 100, 100, 21, 23267, -18138, 5399, 5510, 10, 14, 1525893198.657, 42, 0, 1024, 1024, 1024, 1024, 0, 6, 3857, 3863, 3882, 3889, 3907, 3866, 0, 1, 9901, -89.900, 0.000, 124.000, 0.000, 0.000, -3.000, 0.0, , , , , , 98, , , 33, 33, 33
38.0977324, -120.1812629, 13.300, 12:13:18.756, 17, 0.00, 0.41, 98, 1.100, 0.500, 125.000, 874, 100, 100, 21, 23267, -18138, 5399, 5510, 10, 14, 1525893198.757, 34, 0, 1024, 1024, 1024, 1024, 0, 6, 3857, 3863, 3882, 3889, 3907, 3866, 0, 1, 10001, -89.900, 0.000, 124.000, 0.000, 0.000, -2.900, 0.0, , , , , , 98, , , 33, 33, 33
38.0977324, -120.1812630, 13.900, 12:13:18.856, 16, 0.00, 0.41, 98, 0.800, 0.500, 124.800, 874, 100, 100, 21, 23267, -18138, 5399, 5510, 10, 14, 1525893198.857, 32, 0, 1024, 1024, 1024, 1024, 0, 6, 3857, 3863, 3882, 3889, 3907, 3866, 0, 1, 10101, -89.900, 0.000, 124.000, 0.000, 0.000, -2.900, 0.0, , , , , , 98, , , 33, 33, 33
38.0977324, -120.1812630, 14.200, 12:13:18.956, 18, 0.00, 0.41, 98, 0.700, 0.500, 124.800, 874, 100, 100, 21, 23267, -18138, 5399, 5510, 10, 14, 1525893198.956, 34, 0, 1024, 1024, 1024, 1024, 0, 6, 3857, 3863, 3882, 3889, 3907, 3866, 0, 1, 10201, -89.900, 0.000, 124.000, 0.000, 0.000, -2.900, 0.0, , , , , , 98, , , 33, 33, 33
38.0977324, -120.1812630, 14.500, 12:13:19.056, 18, 0.00, 0.41, 98, 0.800, 0.500, 124.900, 874, 100, 99, 21, 23267, -18138, 5399, 5510, 10, 14, 1525893199.057, 20, 0, 1024, 1024, 1024, 1024, 0, 6, 3857, 3863, 3882, 3889, 3907, 3866, 0, 1, 10301, -89.900, 0.000, 124.000, 0.000, 0.000, -2.900, 0.0, , , , , , 98, , , 33, 33, 33
38.0977324, -120.1812630, 14.800, 12:13:19.156, 17, 0.00, 0.41, 98, 0.800, 0.400, 124.900, 874, 100, 99, 21, 23267, -18138, 5399, 5510, 10, 14, 1525893199.157, 22, 0, 1024, 1024, 1024, 1024, 0, 6, 3857, 3863, 3882, 3889, 3907, 3866, 0, 1, 10401, -89.900, 0.000, 124.000, 0.000, 0.000, -2.900, 0.0, , , , , , 98, , , 33, 33, 33
38.0977323, -120.1812630, 15.100, 12:13:19.256, 17, 0.00, 0.40, 98, 0.800, 0.400, 125.000, 874, 100, 99, 21, 23267, -18138, 5399, 5510, 10, 14, 1525893199.256, 8, 0, 1024, 1024, 1024, 1024, 0, 6, 3857, 3863, 3882, 3889, 3907, 3866, 0, 1, 10501, -89.900, 0.000, 124.000, 0.000, 0.000, -2.900, 0.0, , , , , , 98, , , 33, 33, 33
38.0977323, -120.1812631, 15.400, 12:13:19.356, 18, 0.00, 0.39, 98, 0.700, 0.300, 125.000, 874, 100, 99, 21, 23267, -18138, 5399, 5510, 10, 14, 1525893199.357, 11, 0, 1024, 1024, 1024, 1024, 0, 6, 3857, 3863, 3882, 3889, 3907, 3866, 0, 1, 10601, -89.900, 0.000, 124.000, 0.000, 0.000, -2.900, 0.0, , , , , , 98, , , 33, 33, 33
38.0977323, -120.1812632, 15.700, 12:13:19.467, 18, 0.00, 0.39, 98, 0.700, 0.000, 125.000, 874, 100, 99, 21, 23175, -18942, 5399, 5510, 10, 14, 1525893199.468, 9, 0, 1024, 1024, 1024, 1024, 0, 6, 3857, 3863, 3882, 3889, 3907, 3866, 0, 1, 10712, -90.000, 0.000, 124.000, 0.000, 0.000, -2.900, 0.0, , , , , , 98, , , 33, 33, 33
38.0977323, -120.1812632, 15.700, 12:13:19.556, 18, 0.00, 0.39, 98, 0.700, 0.000, 125.000, 874, 100, 99, 21, 23175, -18942, 5399, 5510, 10, 14, 1525893199.556, 97, 0, 1024, 1024, 1024, 1024, 0, 6, 3857, 3863, 3882, 3889, 3907, 3866, 0, 1, 10800, -90.000, 0.000, 124.000, 0.000, 0.000, -2.900, 0.0, , , , , , 98, , , 33, 33, 33
38.0977323, -120.1812632, 16.000, 12:13:19.656, 18, 0.00, 0.38, 98, 0.500, -0.200, 125.000, 874, 100, 92, 21, 23175, -18942, 5399, 5510, 10, 14, 1525893199.657, 98, 0, 1024, 1024, 1024, 1024, 0, 6, 3857, 3863, 3882, 3889, 3907, 3866, 0, 1, 10901, -89.900, 0.000, 124.000, 0.000, 0.000, -2.900, 0.0, , , , , , 98, , , 33, 33, 33
38.0977323, -120.1812632, 16.000, 12:13:19.756, 18, 0.00, 0.38, 98, 0.500, -0.200, 125.000, 874, 100, 92, 21, 23175, -18942, 5399, 5510, 10, 14, 1525893199.757, 198, 0, 1024, 1024, 1024, 1024, 0, 6, 3857, 3863, 3882, 3889, 3907, 3866, 0, 1, 11001, -89.900, 0.000, 124.000, 0.000, 0.000, -2.900, 0.0, , , , , , 98, , , 33, 33, 33
38.0977323, -120.1812634, 16.600, 12:13:19.856, 18, 0.00, 0.37, 98, -0.300, -0.300, 125.200, 874, 100, 92, 21, 23175, -18942, 5399, 5510, 10, 14, 1525893199.857, 82, 0, 1024, 1024, 1024, 1024, 0, 6, 3857, 3863, 3882, 3889, 3907, 3866, 0, 1, 11101, -89.900, 0.000, 124.000, 0.000, 0.000, -2.900, 0.0, , , , , , 98, , , 33, 33, 33
38.0977323, -120.1812633, 16.900, 12:13:19.956, 18, 0.00, 0.37, 98, -0.500, -0.400, 125.300, 874, 100, 92, 21, 23175, -18942, 5399, 5510, 10, 14, 1525893199.957, 73, 0, 1024, 1024, 1024, 1024, 0, 6, 3857, 3863, 3882, 3889, 3907, 3866, 0, 1, 11201, -90.000, 0.000, 124.000, 0.000, 0.000, -2.900, 0.0, , , , , , 98, , , 33, 33, 33
38.0977322, -120.1812633, 17.200, 12:13:20.056, 17, 0.00, 0.38, 98, -0.200, -0.400, 125.300, 874, 100, 92, 21, 23175, -18942, 5399, 5510, 10, 14, 1525893200.057, 63, 0, 1024, 1024, 1024, 1024, 0, 6, 3843, 3842, 3858, 3864, 3890, 3845, 0, 1, 11301, -89.900, 0.000, 124.000, 0.000, 0.000, -3.000, 0.0, , , , , , 98, , , 33, 33, 33
38.0977322, -120.1812632, 17.500, 12:13:20.156, 17, 0.00, 0.39, 98, 0.600, 0.000, 125.300, 874, 100, 86, 21, 23175, -18942, 5399, 5510, 10, 14, 1525893200.157, 74, 0, 1024, 1024, 1024, 1024, 0, 6, 3843, 3842, 3858, 3864, 3890, 3845, 0, 1, 11401, -89.900, 0.000, 124.000, 0.000, 0.000, -3.000, 0.0, , , , , , 98, , , 33, 33, 33
38.0977322, -120.1812631, 17.800, 12:13:20.256, 18, 0.00, 0.39, 98, 1.400, 0.600, 125.300, 874, 100, 86, 21, 23175, -18942, 5399, 5510, 10, 14, 1525893200.256, 57, 0, 1024, 1024, 1024, 1024, 0, 6, 3843, 3842, 3858, 3864, 3890, 3845, 0, 1, 11501, -89.900, 0.000, 124.000, 0.000, 0.000, -3.000, 0.0, , , , , , 98, , , 33, 33, 33
38.0977321, -120.1812630, 18.100, 12:13:20.356, 18, 0.00, 0.40, 98, 1.600, 0.700, 125.100, 874, 100, 86, 21, 23175, -18942, 5399, 5510, 10, 14, 1525893200.357, 59, 0, 1024, 1024, 1024, 1024, 0, 6, 3843, 3842, 3858, 3864, 3890, 3845, 0, 1, 11602, -89.900, 0.000, 124.000, 0.000, 0.000, -3.000, 0.0, , , , , , 98, , , 33, 33, 33
38.0977321, -120.1812629, 18.400, 12:13:20.456, 17, 0.10, 0.41, 98, 2.100, 0.900, 124.900, 874, 100, 86, 21, 23175, -18942, 5399, 5510, 10, 14, 1525893200.457, 59, 0, 1024, 1024, 1024, 1024, 0, 6, 3843, 3842, 3858, 3864, 3890, 3845, 0, 1, 11701, -89.900, 0.000, 124.000, 0.000, 0.100, -2.900, 0.0, , , , , , 98, , , 33, 33, 33
38.0977321, -120.1812628, 18.800, 12:13:20.556, 17, 0.10, 0.42, 98, 2.200, 1.100, 124.800, 874, 100, 86, 21, 23175, -18942, 5399, 5510, 10, 14, 1525893200.557, 49, 0, 1024, 1024, 1024, 1024, 0, 6, 3843, 3842, 3858, 3864, 3890, 3845, 0, 1, 11801, -89.900, 0.000, 124.000, 0.000, 0.100, -3.000, 0.0, , , , , , 98, , , 33, 33, 33
38.0977321, -120.1812627, 19.100, 12:13:20.656, 18, 0.10, 0.43, 98, 2.500, 1.300, 124.800, 874, 100, 89, 21, 23175, -18942, 5399, 5510, 10, 14, 1525893200.656, 29, 0, 1024, 1024, 1024, 1024, 0, 6, 3843, 3842, 3858, 3864, 3890, 3845, 0, 1, 11900, -89.900, 0.000, 124.000, 0.000, 0.100, -2.900, 0.0, , , , , , 98, , , 33, 33, 33
38.0977322, -120.1812626, 19.400, 12:13:20.756, 18, 0.00, 0.43, 98, 2.300, 1.300, 124.900, 874, 100, 89, 21, 23175, -18942, 5399, 5510, 10, 14, 1525893200.756, 49, 0, 1024, 1024, 1024, 1024, 0, 6, 3843, 3842, 3858, 3864, 3890, 3845, 0, 1, 12001, -89.900, 0.000, 124.000, 0.000, 0.000, -2.900, 0.0, , , , , , 98, , , 33, 33, 33
38.0977322, -120.1812626, 19.700, 12:13:20.856, 18, 0.00, 0.44, 98, 2.400, 1.300, 125.000, 874, 100, 89, 21, 23175, -18942, 5399, 5510, 10, 14, 1525893200.856, 31, 0, 1024, 1024, 1024, 1024, 0, 6, 3843, 3842, 3858, 3864, 3890, 3845, 0, 1, 12101, -89.900, 0.000, 124.000, 0.000, 0.000, -2.800, 0.0, , , , , , 98, , , 33, 33, 33
38.0977322, -120.1812625, 19.900, 12:13:20.956, 18, 0.00, 0.44, 98, 2.500, 1.200, 125.100, 874, 100, 89, 21, 23175, -18942, 5399, 5510, 10, 14, 1525893200.957, 46, 0, 1024, 1024, 1024, 1024, 0, 6, 3843, 3842, 3858, 3864, 3890, 3845, 0, 1, 12201, -89.900, 0.000, 124.000, 0.000, 0.000, -2.800, 0.0, , , , , , 98, , , 33, 33, 33
38.0977323, -120.1812624, 20.200, 12:13:21.056, 18, 0.00, 0.45, 98, 2.600, 1.300, 125.200, 874, 100, 98, 21, 23067, -19913, 5399, 5510, 10, 14, 1525893201.056, 33, 0, 1024, 1024, 1024, 1024, 0, 6, 3817, 3836, 3846, 3856, 3864, 3828, 0, 1, 12301, -89.900, 0.000, 124.000, 0.000, 0.000, -2.800, 0.0, , , , , , 98, , , 33, 33, 33
38.0977323, -120.1812623, 20.500, 12:13:21.156, 18, 0.00, 0.46, 98, 2.700, 1.300, 125.200, 874, 100, 98, 21, 23067, -19913, 5399, 5510, 10, 14, 1525893201.157, 25, 0, 1024, 1024, 1024, 1024, 0, 6, 3817, 3836, 3846, 3856, 3864, 3828, 0, 1, 12401, -89.900, 0.000, 124.000, 0.000, 0.000, -2.800, 0.0, , , , , , 98, , , 33, 33, 33
38.0977323, -120.1812622, 21.200, 12:13:21.256, 17, 0.00, 0.47, 98, 2.900, 1.400, 125.300, 874, 100, 98, 21, 23067, -19913, 5399, 5510, 10, 14, 1525893201.256, 18, 0, 1024, 1024, 1024, 1024, 0, 6, 3817, 3836, 3846, 3856, 3864, 3828, 0, 1, 12501, -89.900, 0.000, 124.000, 0.000, 0.000, -2.900, 0.0, , , , , , 98, , , 33, 33, 33
38.0977324, -120.1812622, 21.400, 12:13:21.356, 18, 0.00, 0.47, 98, 3.000, 1.100, 125.200, 874, 100, 98, 21, 23067, -19913, 5399, 5510, 10, 14, 1525893201.357, 14, 0, 1024, 1024, 1024, 1024, 0, 6, 3817, 3836, 3846, 3856, 3864, 3828, 0, 1, 12601, -89.900, 0.000, 124.000, 0.000, 0.000, -2.800, 0.0, , , , , , 98, , , 33, 33, 33
38.0977324, -120.1812622, 21.700, 12:13:21.456, 18, 0.00, 0.47, 98, 2.700, 0.900, 125.100, 874, 100, 98, 21, 23067, -19913, 5399, 5510, 10, 14, 1525893201.457, 19, 0, 1024, 1024, 1024, 1024, 0, 6, 3817, 3836, 3846, 3856, 3864, 3828, 0, 1, 12701, -89.900, 0.000, 124.000, 0.000, 0.000, -2.800, 0.0, , , , , , 98, , , 33, 33, 33
38.0977324, -120.1812622, 22.000, 12:13:21.557, 18, 0.00, 0.48, 98, 2.300, 0.600, 125.100, 874, 100, 100, 21, 23067, -19913, 5399, 5510, 10, 14, 1525893201.557, 6, 0, 1024, 1024, 1024, 1024, 0, 6, 3817, 3836, 3846, 3856, 3864, 3828, 0, 1, 12801, -90.000, 0.000, 124.000, 0.000, 0.000, -2.800, 0.0, , , , , , 98, , , 33, 33, 33
38.0977324, -120.1812621, 22.300, 12:13:21.656, 18, 0.00, 0.48, 98, 2.200, 0.400, 125.200, 874, 100, 100, 21, 23067, -19913, 5399, 5510, 10, 14, 1525893201.657, 7, 0, 1024, 1024, 1024, 1024, 0, 6, 3817, 3836, 3846, 3856, 3864, 3828, 0, 1, 12901, -89.900, 0.000, 124.000, 0.000, 0.000, -2.800, 0.0, , , , , , 98, , , 33, 33, 33
38.0977324, -120.1812621, 22.600, 12:13:21.760, 18, 0.00, 0.49, 98, 2.300, 0.700, 125.400, 874, 100, 100, 21, 23067, -19913, 5399, 5510, 10, 14, 1525893201.760, 3, 0, 1024, 1024, 1024, 1024, 0, 6, 3817, 3836, 3846, 3856, 3864, 3828, 0, 1, 13005, -89.900, 0.000, 124.000, 0.000, 0.000, -2.800, 0.0, , , , , , 98, , , 33, 33, 33
38.0977324, -120.1812621, 22.600, 12:13:21.856, 18, 0.00, 0.49, 98, 2.300, 0.700, 125.400, 874, 100, 100, 21, 23067, -19913, 5399, 5510, 10, 14, 1525893201.857, 100, 0, 1024, 1024, 1024, 1024, 0, 6, 3817, 3836, 3846, 3856, 3864, 3828, 0, 1, 13101, -89.900, 0.000, 124.000, 0.000, 0.000, -2.800, 0.0, , , , , , 98, , , 33, 33, 33
38.0977324, -120.1812621, 22.600, 12:13:21.956, 18, 0.00, 0.49, 98, 2.300, 0.700, 125.400, 874, 100, 100, 21, 23067, -19913, 5399, 5510, 10, 14, 1525893201.956, 199, 0, 1024, 1024, 1024, 1024, 0, 6, 3817, 3836, 3846, 3856, 3864, 3828, 0, 1, 13201, -89.900, 0.000, 124.000, 0.000, 0.000, -2.800, 0.0, , , , , , 98, , , 33, 33, 33
38.0977323, -120.1812619, 23.400, 12:13:22.056, 18, 0.00, 0.50, 98, 2.400, 1.500, 125.200, 874, 100, 99, 21, 23033, -19417, 5399, 5510, 10, 14, 1525893202.057, 9, 0, 1024, 1024, 1024, 1024, 0, 6, 3813, 3832, 3843, 3839, 3867, 3817, 0, 1, 13301, -89.900, 0.000, 124.000, 0.000, 0.000, -2.900, 0.0, , , , , , 98, , , 33, 33, 33
38.0977323, -120.1812619, 23.400, 12:13:22.156, 18, 0.00, 0.50, 98, 2.400, 1.500, 125.200, 874, 100, 99, 21, 23033, -19417, 5399, 5510, 10, 14, 1525893202.157, 109, 0, 1024, 1024, 1024, 1024, 0, 6, 3813, 3832, 3843, 3839, 3867, 3817, 0, 1, 13401, -89.900, 0.000, 124.000, 0.000, 0.000, -2.900, 0.0, , , , , , 98, , , 33, 33, 33
38.0977323, -120.1812618, 23.600, 12:13:22.256, 18, 0.00, 0.50, 98, 2.500, 1.800, 125.000, 874, 100, 99, 21, 23033, -19417, 5399, 5510, 10, 14, 1525893202.256, 61, 0, 1024, 1024, 1024, 1024, 0, 6, 3813, 3832, 3843, 3839, 3867, 3817, 0, 1, 13501, -89.900, 0.000, 124.000, 0.000, 0.000, -2.900, 0.0, , , , , , 98, , , 33, 33, 33
38.0977323, -120.1812618, 23.900, 12:13:22.356, 18, 0.00, 0.51, 98, 2.500, 2.100, 124.900, 874, 100, 99, 21, 23033, -19417, 5399, 5510, 10, 14, 1525893202.356, 86, 0, 1024, 1024, 1024, 1024, 0, 6, 3813, 3832, 3843, 3839, 3867, 3817, 0, 1, 13601, -89.900, 0.000, 124.000, 0.000, 0.000, -3.000, 0.0, , , , , , 98, , , 33, 33, 33
38.0977323, -120.1812617, 24.200, 12:13:22.456, 18, 0.00, 0.51, 98, 2.400, 2.300, 124.800, 874, 100, 99, 21, 23033, -19417, 5399, 5510, 10, 14, 1525893202.456, 90, 0, 1024, 1024, 1024, 1024, 0, 6, 3813, 3832, 3843, 3839, 3867, 3817, 0, 1, 13701, -89.900, 0.000, 124.000, 0.000, 0.000, -3.000, 0.0, , , , , , 98, , , 33, 33, 33
38.0977322, -120.1812617, 24.500, 12:13:22.556, 18, 0.00, 0.52, 98, 2.300, 2.200, 124.800, 874, 100, 99, 21, 23033, -19417, 5399, 5510, 10, 14, 1525893202.557, 84, 0, 1024, 1024, 1024, 1024, 0, 6, 3813, 3832, 3843, 3839, 3867, 3817, 0, 1, 13801, -89.900, 0.000, 124.000, 0.000, 0.000, -3.000, 0.0, , , , , , 98, , , 33, 33, 33
38.0977322, -120.1812616, 24.800, 12:13:22.656, 18, 0.00, 0.52, 98, 2.000, 2.100, 124.800, 874, 100, 97, 21, 23033, -19417, 5399, 5510, 10, 14, 1525893202.656, 83, 0, 1024, 1024, 1024, 1024, 0, 6, 3813, 3832, 3843, 3839, 3867, 3817, 0, 1, 13900, -89.900, 0.000, 124.000, 0.000, 0.000, -3.000, 0.0, , , , , , 98, , , 33, 33, 33
38.0977322, -120.1812616, 25.100, 12:13:22.756, 18, 0.00, 0.52, 98, 2.100, 2.000, 124.900, 874, 100, 97, 21, 23033, -19417, 5399, 5510, 10, 14, 1525893202.757, 68, 0, 1024, 1024, 1024, 1024, 0, 6, 3813, 3832, 3843, 3839, 3867, 3817, 0, 1, 14001, -89.900, 0.000, 124.000, 0.000, 0.000, -3.000, 0.0, , , , , , 98, , , 33, 33, 33
38.0977322, -120.1812616, 25.400, 12:13:22.856, 18, 0.00, 0.52, 98, 2.500, 1.900, 125.100, 874, 100, 97, 21, 23033, -19417, 5399, 5510, 10, 14, 1525893202.856, 83, 0, 1024, 1024, 1024, 1024, 0, 6, 3813, 3832, 3843, 3839, 3867, 3817, 0, 1, 14100, -89.900, 0.000, 124.000, 0.000, 0.000, -3.100, 0.0, , , , , , 98, , , 33, 33, 33
38.0977321, -120.1812615, 25.700, 12:13:22.956, 18, 0.00, 0.53, 98, 2.400, 2.000, 125.300, 874, 100, 97, 21, 23033, -19417, 5399, 5510, 10, 14, 1525893202.957, 74, 0, 1024, 1024, 1024, 1024, 0, 6, 3813, 3832, 3843, 3839, 3867, 3817, 0, 1, 14201, -89.900, 0.000, 124.000, 0.000, 0.000, -3.000, 0.0, , , , , , 98, , , 33, 33, 33
38.0977321, -120.1812614, 26.000, 12:13:23.056, 18, 0.00, 0.53, 98, 2.600, 2.200, 125.500, 874, 100, 97, 21, 22853, -21454, 5399, 5510, 10, 14, 1525893203.057, 57, 0, 1024, 1024, 1024, 1024, 0, 6, 3789, 3792, 3802, 3816, 3834, 3782, 0, 1, 14301, -89.900, 0.000, 124.000, 0.000, 0.000, -3.100, 0.0, , , , , , 98, , , 33, 33, 33
38.0977321, -120.1812614, 26.300, 12:13:23.156, 18, 0.00, 0.54, 98, 3.000, 2.500, 125.600, 874, 100, 97, 21, 22853, -21454, 5399, 5510, 10, 14, 1525893203.157, 47, 0, 1024, 1024, 1024, 1024, 0, 6, 3789, 3792, 3802, 3816, 3834, 3782, 0, 1, 14401, -89.900, 0.000, 124.000, 0.000, 0.000, -3.000, 0.0, , , , , , 98, , , 33, 33, 33
38.0977322, -120.1812613, 26.600, 12:13:23.256, 18, 0.00, 0.55, 98, 3.500, 2.400, 125.600, 874, 100, 97, 21, 22853, -21454, 5399, 5510, 10, 14, 1525893203.257, 49, 0, 1024, 1024, 1024, 1024, 0, 6, 3789, 3792, 3802, 3816, 3834, 3782, 0, 1, 14502, -89.900, 0.000, 124.000, 0.000, 0.000, -3.100, 0.0, , , , , , 98, , , 33, 33, 33
38.0977322, -120.1812612, 27.000, 12:13:23.356, 18, 0.00, 0.56, 98, 4.000, 2.300, 125.600, 874, 100, 97, 21, 22853, -21454, 5399, 5510, 10, 14, 1525893203.357, 47, 0, 1024, 1024, 1024, 1024, 0, 6, 3789, 3792, 3802, 3816, 3834, 3782, 0, 1, 14601, -89.900, 0.000, 124.000, 0.000, 0.000, -3.100, 0.0, , , , , , 98, , , 33, 33, 33
38.0977323, -120.1812611, 27.300, 12:13:23.456, 18, 0.00, 0.57, 98, 4.500, 2.200, 125.500, 874, 100, 97, 21, 22853, -21454, 5399, 5510, 10, 14, 1525893203.457, 48, 0, 1024, 1024, 1024, 1024, 0, 6, 3789, 3792, 3802, 3816, 3834, 3782, 0, 1, 14701, -89.900, 0.000, 124.000, 0.000, 0.000, -3.100, 0.0, , , , , , 98, , , 33, 33, 33
38.0977324, -120.1812610, 27.900, 12:13:23.556, 18, 0.00, 0.58, 98, 4.600, 1.900, 125.300, 874, 100, 97, 21, 22853, -21454, 5399, 5510, 10, 14, 1525893203.557, 8, 0, 1024, 1024, 1024, 1024, 0, 6, 3789, 3792, 3802, 3816, 3834, 3782, 0, 1, 14801, -89.900, 0.000, 124.000, 0.000, 0.000, -3.000, 0.0, , , , , , 98, , , 33, 33, 33
38.0977325, -120.1812610, 28.200, 12:13:23.656, 18, 0.00, 0.58, 98, 4.500, 1.700, 125.200, 874, 100, 97, 21, 22853, -21454, 5399, 5510, 10, 14, 1525893203.657, 22, 0, 1024, 1024, 1024, 1024, 0, 6, 3789, 3792, 3802, 3816, 3834, 3782, 0, 1, 14901, -89.900, 0.000, 124.000, 0.000, 0.000, -2.900, 0.0, , , , , , 98, , , 33, 33, 33
38.0977325, -120.1812610, 28.400, 12:13:23.756, 18, 0.00, 0.58, 98, 4.300, 1.700, 125.100, 874, 100, 97, 21, 22853, -21454, 5399, 5510, 10, 14, 1525893203.757, 33, 0, 1024, 1024, 1024, 1024, 0, 6, 3789, 3792, 3802, 3816, 3834, 3782, 0, 1, 15001, -89.900, 0.000, 124.000, 0.000, 0.000, -2.900, 0.0, , , , , , 98, , , 33, 33, 33
38.0977325, -120.1812611, 28.700, 12:13:23.856, 18, 0.00, 0.57, 98, 3.900, 1.700, 125.100, 874, 100, 97, 21, 22853, -21454, 5399, 5510, 10, 14, 1525893203.857, 29, 0, 1024, 1024, 1024, 1024, 0, 6, 3789, 3792, 3802, 3816, 3834, 3782, 0, 1, 15101, -89.900, 0.000, 124.000, 0.000, 0.000, -3.000, 0.0, , , , , , 98, , , 33, 33, 33
38.0977324, -120.1812611, 29.000, 12:13:23.958, 18, 0.00, 0.57, 98, 3.700, 1.700, 125.100, 874, 100, 97, 21, 22825, -21511, 5399, 5510, 10, 14, 1525893203.958, 10, 0, 1024, 1024, 1024, 1024, 0, 6, 3789, 3792, 3802, 3816, 3834, 3782, 0, 1, 15203, -89.900, 0.000, 124.000, 0.000, 0.000, -3.000, 0.0, , , , , , 98, , , 33, 33, 33
38.0977324, -120.1812611, 29.300, 12:13:24.057, 18, 0.00, 0.57, 98, 3.700, 1.700, 125.100, 874, 100, 99, 21, 22825, -21511, 5399, 5510, 10, 14, 1525893204.058, 11, 0, 1024, 1024, 1024, 1024, 0, 6, 3777, 3800, 3808, 3817, 3824, 3802, 0, 1, 15302, -89.900, 0.000, 124.000, 0.000, 0.000, -3.000, 0.0, , , , , , 98, , , 33, 33, 33
38.0977324, -120.1812611, 29.300, 12:13:24.156, 18, 0.00, 0.57, 98, 3.700, 1.700, 125.100, 874, 100, 99, 21, 22825, -21511, 5399, 5510, 10, 14, 1525893204.156, 110, 0, 1024, 1024, 1024, 1024, 0, 6, 3777, 3800, 3808, 3817, 3824, 3802, 0, 1, 15401, -89.900, 0.000, 124.000, 0.000, 0.000, -3.000, 0.0, , , , , , 98, , , 33, 33, 33
38.0977325, -120.1812612, 29.600, 12:13:24.256, 18, 0.00, 0.56, 98, 3.600, 1.600, 125.100, 874, 100, 99, 21, 22825, -21511, 5399, 5510, 10, 14, 1525893204.256, 97, 0, 1024, 1024, 1024, 1024, 0, 6, 3777, 3800, 3808, 3817, 3824, 3802, 0, 1, 15501, -89.900, 0.000, 124.000, 0.000, 0.000, -3.000, 0.0, , , , , , 98, , , 33, 33, 33
38.0977324, -120.1812612, 29.900, 12:13:24.356, 18, 0.00, 0.56, 98, 3.700, 1.500, 125.100, 874, 100, 99, 21, 22825, -21511, 5399, 5510, 10, 14, 1525893204.356, 97, 0, 1024, 1024, 1024, 1024, 0, 6, 3777, 3800, 3808, 3817, 3824, 3802, 0, 1, 15600, -89.900, 0.000, 124.000, 0.000, 0.000, -3.000, 0.0, , , , , , 98, , , 33, 33, 33
38.0977324, -120.1812613, 30.200, 12:13:24.456, 18, 0.00, 0.56, 98, 3.500, 1.500, 125.100, 874, 100, 99, 21, 22825, -21511, 5399, 5510, 10, 14, 1525893204.456, 98, 0, 1024, 1024, 1024, 1024, 0, 6, 3777, 3800, 3808, 3817, 3824, 3802, 0, 1, 15701, -89.900, 0.000, 124.000, 0.000, 0.000, -3.000, 0.0, , , , , , 98, , , 33, 33, 33
38.0977324, -120.1812613, 30.500, 12:13:24.556, 18, 0.00, 0.55, 98, 3.400, 1.500, 125.100, 874, 100, 99, 21, 22825, -21511, 5399, 5510, 10, 14, 1525893204.557, 94, 0, 1024, 1024, 1024, 1024, 0, 6, 3777, 3800, 3808, 3817, 3824, 3802, 0, 1, 15801, -89.900, 0.000, 124.000, 0.000, 0.000, -3.000, 0.0, , , , , , 98, , , 33, 33, 33
38.0977324, -120.1812614, 30.800, 12:13:24.656, 18, 0.00, 0.55, 98, 3.400, 1.500, 125.100, 874, 100, 99, 21, 22825, -21511, 5399, 5510, 10, 14, 1525893204.656, 88, 0, 1024, 1024, 1024, 1024, 0, 6, 3777, 3800, 3808, 3817, 3824, 3802, 0, 1, 15901, -89.900, 0.000, 124.000, 0.000, 0.000, -3.000, 0.0, , , , , , 98, , , 33, 33, 33
38.0977324, -120.1812614, 31.100, 12:13:24.757, 18, 0.00, 0.54, 98, 3.600, 1.500, 125.200, 874, 100, 99, 21, 22825, -21511, 5399, 5510, 10, 14, 1525893204.757, 55, 0, 1024, 1024, 1024, 1024, 0, 6, 3777, 3800, 3808, 3817, 3824, 3802, 0, 1, 16001, -89.900, 0.000, 124.000, 0.000, 0.000, -3.000, 0.0, , , , , , 98, , , 33, 33, 33
38.0977323, -120.1812615, 31.400, 12:13:24.856, 18, 0.00, 0.54, 98, 3.300, 1.600, 125.100, 874, 100, 99, 21, 22825, -21511, 5399, 5510, 10, 14, 1525893204.856, 85, 0, 1024, 1024, 1024, 1024, 0, 6, 3777, 3800, 3808, 3817, 3824, 3802, 0, 1, 16101, -89.900, 0.000, 124.000, 0.000, 0.000, -3.000, 0.0, , , , , , 98, , , 33, 33, 33
38.0977323, -120.1812615, 31.700, 12:13:24.956, 18, 0.00, 0.53, 98, 2.900, 1.600, 125.100, 874, 100, 99, 21, 22825, -21511, 5399, 5510, 10, 14, 1525893204.956, 63, 0, 1024, 1024, 1024, 1024, 0, 6, 3777, 3800, 3808, 3817, 3824, 3802, 0, 1, 16200, -89.900, 0.000, 124.000, 0.000, 0.000, -2.900, 0.0, , , , , , 98, , , 33, 33, 33
38.0977322, -120.1812616, 32.000, 12:13:25.056, 18, 0.00, 0.52, 98, 2.600, 1.700, 125.100, 874, 100, 99, 21, 22844, -20612, 5399, 5510, 10, 14, 1525893205.057, 69, 0, 1024, 1024, 1024, 1024, 0, 6, 3777, 3800, 3808, 3817, 3824, 3802, 0, 1, 16301, -89.900, 0.000, 124.000, 0.000, 0.000, -2.900, 0.0, , , , , , 98, , , 33, 33, 33
38.0977321, -120.1812617, 32.300, 12:13:25.155, 18, 0.00, 0.52, 98, 2.400, 1.700, 125.100, 874, 100, 99, 21, 22844, -20612, 5399, 5510, 10, 14, 1525893205.156, 72, 0, 1024, 1024, 1024, 1024, 0, 6, 3777, 3800, 3808, 3817, 3824, 3802, 0, 1, 16400, -89.900, 0.000, 124.000, 0.000, 0.000, -2.900, 0.0, , , , , , 98, , , 33, 33, 33
38.0977321, -120.1812617, 32.600, 12:13:25.256, 18, 0.00, 0.51, 98, 2.500, 1.600, 125.100, 874, 100, 99, 21, 22844, -20612, 5399, 5510, 10, 14, 1525893205.256, 62, 0, 1024, 1024, 1024, 1024, 0, 6, 3777, 3800, 3808, 3817, 3824, 3802, 0, 1, 16500, -89.900, 0.000, 124.000, 0.000, 0.000, -3.000, 0.0, , , , , , 98, , , 33, 33, 33
38.0977321, -120.1812618, 32.900, 12:13:25.356, 18, 0.00, 0.50, 98, 2.600, 1.500, 125.000, 874, 100, 99, 21, 22844, -20612, 5399, 5510, 10, 14, 1525893205.357, 50, 0, 1024, 1024, 1024, 1024, 0, 6, 3777, 3800, 3808, 3817, 3824, 3802, 0, 1, 16601, -89.900, 0.000, 124.000, 0.000, 0.000, -3.000, 0.0, , , , , , 98, , , 33, 33, 33
38.0977321, -120.1812619, 33.200, 12:13:25.456, 18, 0.00, 0.50, 98, 2.600, 1.500, 125.000, 874, 100, 99, 21, 22844, -20612, 5399, 5510, 10, 14, 1525893205.456, 54, 0, 1024, 1024, 1024, 1024, 0, 6, 3777, 3800, 3808, 3817, 3824, 3802, 0, 1, 16701, -89.900, 0.000, 124.000, 0.000, 0.000, -3.100, 0.0, , , , , , 98, , , 33, 33, 33
38.0977320, -120.1812619, 33.500, 12:13:25.556, 18, 0.00, 0.49, 98, 2.500, 1.500, 125.000, 874, 100, 99, 21, 22844, -20612, 5344, 5510, 10, 14, 1525893205.557, 44, 0, 1024, 1024, 1024, 1024, 0, 6, 3783, 3797, 3804, 3818, 3833, 3798, 0, 1, 16801, -89.900, 0.000, 124.000, 0.000, 0.000, -3.000, 0.0, , , , , , 98, , , 33, 33, 33
38.0977320, -120.1812620, 33.800, 12:13:25.656, 18, 0.00, 0.49, 98, 2.500, 1.500, 124.900, 874, 100, 98, 21, 22844, -20612, 5344, 5510, 10, 14, 1525893205.657, 48, 0, 1024, 1024, 1024, 1024, 0, 6, 3783, 3797, 3804, 3818, 3833, 3798, 0, 1, 16901, -89.900, 0.000, 124.000, 0.000, 0.000, -3.000, 0.0, , , , , , 98, , , 33, 33, 33
38.0977320, -120.1812620, 34.100, 12:13:25.756, 18, 0.00, 0.48, 98, 2.600, 1.400, 124.900, 874, 100, 98, 21, 22844, -20612, 5344, 5510, 10, 14, 1525893205.757, 24, 0, 1024, 1024, 1024, 1024, 0, 6, 3783, 3797, 3804, 3818, 3833, 3798, 0, 1, 17001, -89.900, 0.000, 124.000, 0.000, 0.000, -3.100, 0.0, , , , , , 98, , , 33, 33, 33
38.0977320, -120.1812621, 34.400, 12:13:25.856, 18, 0.00, 0.48, 98, 2.800, 1.400, 124.800, 874, 100, 98, 21, 22844, -20612, 5344, 5510, 10, 14, 1525893205.857, 33, 0, 1024, 1024, 1024, 1024, 0, 6, 3783, 3797, 3804, 3818, 3833, 3798, 0, 1, 17101, -89.900, 0.000, 124.000, 0.000, 0.000, -3.000, 0.0, , , , , , 98, , , 33, 33, 33
38.0977320, -120.1812621, 34.700, 12:13:25.956, 18, 0.00, 0.47, 98, 2.700, 1.400, 124.800, 874, 100, 98, 21, 22844, -20612, 5344, 5510, 10, 14, 1525893205.956, 14, 0, 1024, 1024, 1024, 1024, 0, 6, 3783, 3797, 3804, 3818, 3833, 3798, 0, 1, 17201, -89.900, 0.000, 124.000, 0.000, 0.000, -3.000, 0.0, , , , , , 98, , , 33, 33, 33
38.0977320, -120.1812622, 35.000, 12:13:26.056, 18, 0.00, 0.47, 97, 2.500, 1.300, 124.900, 874, 100, 98, 21, 22844, -20612, 5344, 5510, 10, 14, 1525893206.057, 26, 0, 1024, 1024, 1024, 1024, 0, 6, 3783, 3797, 3804, 3818, 3833, 3798, 0, 1, 17301, -90.000, 0.000, 124.000, 0.000, 0.000, -3.000, 0.0, , , , , , 98, , , 33, 33, 33
38.0977320, -120.1812623, 35.400, 12:13:26.156, 18, 0.00, 0.46, 97, 2.500, 1.200, 125.000, 874, 100, 98, 21, 22844, -20612, 5344, 5510, 10, 14, 1525893206.157, 27, 0, 1024, 1024, 1024, 1024, 0, 6, 3783, 3797, 3804, 3818, 3833, 3798, 0, 1, 17401, -89.900, 0.000, 124.000, 0.000, 0.000, -3.000, 0.0, , , , , , 98, , , 33, 33, 33
38.0977319, -120.1812623, 35.700, 12:13:26.257, 18, 0.00, 0.46, 97, 2.500, 1.200, 125.200, 874, 100, 98, 21, 22844, -20612, 5344, 5510, 10, 14, 1525893206.257, 5, 0, 1024, 1024, 1024, 1024, 0, 6, 3783, 3797, 3804, 3818, 3833, 3798, 0, 1, 17501, -89.900, 0.000, 124.000, 0.000, 0.000, -3.100, 0.0, , , , , , 98, , , 33, 33, 33
38.0977319, -120.1812625, 36.300, 12:13:26.356, 18, 0.00, 0.44, 97, 2.400, 1.300, 125.200, 874, 100, 98, 21, 22844, -20612, 5344, 5510, 10, 14, 1525893206.357, 18, 0, 1024, 1024, 1024, 1024, 0, 6, 3783, 3797, 3804, 3818, 3833, 3798, 0, 1, 17601, -89.900, 0.000, 124.000, 0.000, 0.000, -3.000, 0.0, , , , , , 98, , , 33, 33, 33
38.0977319, -120.1812625, 36.300, 12:13:26.456, 18, 0.00, 0.44, 97, 2.400, 1.300, 125.200, 874, 100, 98, 21, 22844, -20612, 5344, 5510, 10, 14, 1525893206.456, 117, 0, 1024, 1024, 1024, 1024, 0, 6, 3783, 3797, 3804, 3818, 3833, 3798, 0, 1, 17701, -89.900, 0.000, 124.000, 0.000, 0.000, -3.000, 0.0, , , , , , 98, , , 33, 33, 33
38.0977319, -120.1812625, 36.900, 12:13:26.556, 18, 0.00, 0.44, 97, 2.600, 1.100, 125.200, 874, 100, 95, 21, 22844, -20612, 5344, 5510, 10, 14, 1525893206.556, 7, 0, 1024, 1024, 1024, 1024, 0, 6, 3783, 3797, 3804, 3818, 3833, 3798, 0, 1, 17801, -90.000, 0.000, 124.000, 0.000, 0.000, -3.000, 0.0, , , , , , 98, , , 33, 33, 33
38.0977319, -120.1812626, 37.200, 12:13:26.655, 18, 0.00, 0.43, 97, 2.600, 1.000, 125.200, 874, 100, 95, 21, 22844, -20612, 5344, 5510, 10, 14, 1525893206.656, 6, 0, 1024, 1024, 1024, 1024, 0, 6, 3783, 3797, 3804, 3818, 3833, 3798, 0, 1, 17900, -89.900, 0.000, 124.000, 0.000, 0.000, -3.000, 0.0, , , , , , 98, , , 33, 33, 33
38.0977319, -120.1812626, 37.200, 12:13:26.756, 18, 0.00, 0.43, 97, 2.600, 1.000, 125.200, 874, 100, 95, 21, 22844, -20612, 5344, 5510, 10, 14, 1525893206.757, 107, 0, 1024, 1024, 1024, 1024, 0, 6, 3783, 3797, 3804, 3818, 3833, 3798, 0, 1, 18001, -89.900, 0.000, 124.000, 0.000, 0.000, -3.000, 0.0, , , , , , 98, , , 33, 33, 33
38.0977319, -120.1812626, 37.800, 12:13:26.858, 18, 0.00, 0.43, 97, 2.700, 1.000, 125.200, 874, 100, 95, 21, 22844, -20612, 5344, 5510, 10, 14, 1525893206.858, 4, 0, 1024, 1024, 1024, 1024, 0, 6, 3783, 3797, 3804, 3818, 3833, 3798, 0, 1, 18102, -89.900, 0.000, 124.000, 0.000, 0.000, -3.000, 0.0, , , , , , 98, , , 33, 33, 33
38.0977319, -120.1812627, 38.200, 12:13:26.977, 18, 0.00, 0.42, 97, 3.100, 1.400, 125.200, 874, 100, 95, 21, 22811, -20656, 5344, 5510, 10, 14, 1525893206.978, 8, 0, 1024, 1024, 1024, 1024, 0, 6, 3783, 3797, 3804, 3818, 3833, 3798, 0, 1, 18222, -89.900, 0.000, 124.000, 0.000, 0.000, -3.000, 0.0, , , , , , 98, , , 33, 33, 33
38.0977319, -120.1812627, 38.200, 12:13:27.056, 18, 0.00, 0.42, 97, 3.100, 1.400, 125.200, 874, 100, 95, 21, 22811, -20656, 5344, 5510, 10, 14, 1525893207.057, 88, 0, 1024, 1024, 1024, 1024, 0, 6, 3769, 3776, 3793, 3811, 3824, 3779, 0, 1, 18301, -89.900, 0.000, 124.000, 0.000, 0.000, -3.000, 0.0, , , , , , 98, , , 33, 33, 33
38.0977319, -120.1812627, 38.500, 12:13:27.156, 18, 0.00, 0.42, 97, 2.800, 1.500, 125.200, 874, 100, 95, 21, 22811, -20656, 5344, 5510, 10, 14, 1525893207.157, 78, 0, 1024, 1024, 1024, 1024, 0, 6, 3769, 3776, 3793, 3811, 3824, 3779, 0, 1, 18401, -89.900, 0.000, 124.000, 0.000, 0.000, -3.000, 0.0, , , , , , 98, , , 33, 33, 33
38.0977318, -120.1812627, 38.800, 12:13:27.256, 18, 0.00, 0.42, 97, 2.400, 1.400, 125.100, 874, 100, 95, 21, 22811, -20656, 5344, 5510, 10, 14, 1525893207.257, 74, 0, 1024, 1024, 1024, 1024, 0, 6, 3769, 3776, 3793, 3811, 3824, 3779, 0, 1, 18501, -89.900, 0.000, 124.000, 0.000, 0.000, -2.900, 0.0, , , , , , 98, , , 33, 33, 33
38.0977318, -120.1812627, 39.100, 12:13:27.356, 18, 0.00, 0.42, 97, 2.500, 1.200, 125.200, 874, 100, 95, 21, 22811, -20656, 5344, 5510, 10, 14, 1525893207.358, 93, 0, 1024, 1024, 1024, 1024, 0, 6, 3769, 3776, 3793, 3811, 3824, 3779, 0, 1, 18603, -89.900, 0.000, 124.000, 0.000, 0.000, -3.000, 0.0, , , , , , 98, , , 33, 33, 33
38.0977318, -120.1812628, 39.400, 12:13:27.456, 18, 0.00, 0.42, 97, 2.200, 1.100, 125.400, 874, 100, 95, 21, 22811, -20656, 5344, 5510, 10, 14, 1525893207.456, 83, 0, 1024, 1024, 1024, 1024, 0, 6, 3769, 3776, 3793, 3811, 3824, 3779, 0, 1, 18701, -89.900, 0.000, 124.000, 0.000, 0.000, -2.900, 0.0, , , , , , 98, , , 33, 33, 33
38.0977318, -120.1812627, 39.700, 12:13:27.556, 18, 0.00, 0.42, 97, 2.400, 1.400, 125.600, 874, 100, 95, 21, 22737, -21041, 5344, 5510, 10, 14, 1525893207.557, 49, 0, 1024, 1024, 1024, 1024, 0, 6, 3769, 3776, 3793, 3811, 3824, 3779, 0, 1, 18801, -89.900, 0.000, 124.000, 0.000, 0.000, -2.900, 0.0, , , , , , 98, , , 33, 33, 33
38.0977318, -120.1812627, 40.000, 12:13:27.656, 18, 0.00, 0.42, 97, 2.700, 1.800, 125.800, 874, 100, 93, 21, 22737, -21041, 5344, 5510, 10, 14, 1525893207.656, 73, 0, 1024, 1024, 1024, 1024, 0, 6, 3772, 3788, 3794, 3805, 3812, 3790, 0, 1, 18901, -89.900, 0.000, 124.000, 0.000, 0.000, -2.900, 0.0, , , , , , 98, , , 33, 33, 33
38.0977318, -120.1812627, 40.300, 12:13:27.756, 18, 0.00, 0.43, 97, 2.800, 2.100, 125.800, 874, 100, 93, 21, 22737, -21041, 5344, 5510, 10, 14, 1525893207.757, 81, 0, 1024, 1024, 1024, 1024, 0, 6, 3772, 3788, 3794, 3805, 3812, 3790, 0, 1, 19001, -89.900, 0.000, 124.000, 0.000, 0.000, -3.000, 0.0, , , , , , 98, , , 33, 33, 33
38.0977318, -120.1812626, 40.600, 12:13:27.856, 18, 0.00, 0.43, 97, 2.800, 1.900, 125.600, 874, 100, 93, 21, 22737, -21041, 5344, 5510, 10, 14, 1525893207.856, 73, 0, 1024, 1024, 1024, 1024, 0, 6, 3772, 3788, 3794, 3805, 3812, 3790, 0, 1, 19101, -89.900, 0.000, 124.000, 0.000, 0.000, -3.000, 0.0, , , , , , 98, , , 33, 33, 33
38.0977318, -120.1812626, 40.900, 12:13:27.956, 18, 0.00, 0.43, 97, 2.900, 1.700, 125.200, 874, 100, 93, 21, 22737, -21041, 5344, 5510, 10, 14, 1525893207.956, 60, 0, 1024, 1024, 1024, 1024, 0, 6, 3772, 3788, 3794, 3805, 3812, 3790, 0, 1, 19201, -89.900, 0.000, 124.000, 0.000, 0.000, -3.000, 0.0, , , , , , 98, , , 33, 33, 33
38.0977318, -120.1812626, 40.900, 12:13:28.056, 18, 0.00, 0.43, 97, 2.900, 1.700, 125.200, 874, 100, 93, 21, 22737, -21041, 5344, 5510, 10, 14, 1525893208.057, 161, 0, 1024, 1024, 1024, 1024, 0, 6, 3772, 3788, 3794, 3805, 3812, 3790, 0, 1, 19301, -89.900, 0.000, 124.000, 0.000, 0.000, -3.000, 0.0, , , , , , 98, , , 33, 33, 33
38.0977319, -120.1812626, 41.200, 12:13:28.156, 18, 0.00, 0.43, 97, 2.900, 1.400, 124.900, 874, 100, 93, 21, 22737, -21041, 5344, 5510, 10, 14, 1525893208.156, 74, 0, 1024, 1024, 1024, 1024, 0, 6, 3772, 3788, 3794, 3805, 3812, 3790, 0, 1, 19401, -90.000, 0.000, 124.000, 0.000, 0.000, -2.900, 0.0, , , , , , 98, , , 33, 33, 33
38.0977319, -120.1812626, 41.600, 12:13:28.256, 18, 0.00, 0.43, 97, 2.900, 0.900, 124.600, 874, 100, 94, 21, 22737, -21041, 5344, 5510, 10, 14, 1525893208.256, 86, 0, 1024, 1024, 1024, 1024, 0, 6, 3772, 3788, 3794, 3805, 3812, 3790, 0, 1, 19501, -90.000, 0.000, 124.000, 0.000, 0.000, -3.000, 0.0, , , , , , 98, , , 33, 33, 33
38.0977320, -120.1812627, 41.800, 12:13:28.356, 18, 0.00, 0.43, 97, 3.100, 0.500, 124.500, 874, 100, 94, 21, 22737, -21041, 5344, 5510, 10, 14, 1525893208.357, 70, 0, 1024, 1024, 1024, 1024, 0, 6, 3772, 3788, 3794, 3805, 3812, 3790, 0, 1, 19601, -90.000, 0.000, 124.000, 0.000, 0.000, -2.900, 0.0, , , , , , 98, , , 33, 33, 33
38.0977321, -120.1812627, 42.500, 12:13:28.456, 18, 0.00, 0.42, 97, 2.600, 0.600, 124.600, 874, 100, 94, 21, 22737, -21041, 5344, 5510, 10, 14, 1525893208.457, 19, 0, 1024, 1024, 1024, 1024, 0, 6, 3772, 3788, 3794, 3805, 3812, 3790, 0, 1, 19702, -89.900, 0.000, 124.000, 0.000, 0.000, -2.900, 0.0, , , , , , 98, , , 33, 33, 33
38.0977321, -120.1812627, 42.800, 12:13:28.557, 18, 0.00, 0.42, 97, 2.400, 0.700, 124.700, 874, 100, 94, 21, 22771, -20446, 5344, 5510, 10, 14, 1525893208.557, 19, 0, 1024, 1024, 1024, 1024, 0, 6, 3772, 3788, 3794, 3805, 3812, 3790, 0, 1, 19802, -89.900, 0.000, 124.000, 0.000, 0.000, -2.900, 0.0, , , , , , 98, , , 33, 33, 33
38.0977321, -120.1812627, 43.100, 12:13:28.666, 18, 0.00, 0.43, 97, 2.900, 0.900, 124.700, 874, 100, 89, 21, 22771, -20446, 5344, 5510, 10, 14, 1525893208.666, 10, 0, 1024, 1024, 1024, 1024, 0, 6, 3776, 3782, 3786, 3802, 3821, 3778, 0, 1, 19910, -89.900, 0.000, 124.000, 0.000, 0.000, -3.000, 0.0, , , , , , 98, , , 33, 33, 33
38.0977321, -120.1812627, 43.100, 12:13:28.756, 18, 0.00, 0.43, 97, 2.900, 0.900, 124.700, 874, 100, 89, 21, 22771, -20446, 5344, 5510, 10, 14, 1525893208.757, 101, 0, 1024, 1024, 1024, 1024, 0, 6, 3776, 3782, 3786, 3802, 3821, 3778, 0, 1, 20001, -89.900, 0.000, 124.000, 0.000, 0.000, -3.000, 0.0, , , , , , 98, , , 33, 33, 33
38.0977323, -120.1812627, 43.700, 12:13:28.857, 18, 0.10, 0.43, 97, 3.300, 0.500, 124.600, 874, 100, 89, 21, 22771, -20446, 5344, 5510, 10, 14, 1525893208.858, 5, 0, 1024, 1024, 1024, 1024, 0, 6, 3776, 3782, 3786, 3802, 3821, 3778, 0, 1, 20102, -89.900, 0.000, 124.000, 0.100, 0.000, -3.000, 0.0, , , , , , 98, , , 33, 33, 33
38.0977324, -120.1812626, 44.100, 12:13:28.956, 18, 0.10, 0.44, 97, 3.700, 0.200, 124.600, 874, 100, 89, 21, 22771, -20446, 5344, 5510, 10, 14, 1525893208.957, 17, 0, 1024, 1024, 1024, 1024, 0, 6, 3776, 3782, 3786, 3802, 3821, 3778, 0, 1, 20201, -89.900, 0.000, 124.000, 0.100, 0.000, -3.000, 0.0, , , , , , 98, , , 33, 33, 33
38.0977324, -120.1812626, 44.100, 12:13:29.056, 18, 0.10, 0.44, 97, 3.700, 0.200, 124.600, 874, 100, 89, 21, 22771, -20446, 5344, 5510, 10, 14, 1525893209.057, 117, 0, 1024, 1024, 1024, 1024, 0, 6, 3776, 3782, 3786, 3802, 3821, 3778, 0, 1, 20301, -89.900, 0.000, 124.000, 0.100, 0.000, -3.000, 0.0, , , , , , 98, , , 33, 33, 33
38.0977326, -120.1812625, 44.400, 12:13:29.156, 18, 0.14, 0.45, 97, 4.600, 0.000, 124.600, 874, 100, 89, 21, 22771, -20446, 5344, 5510, 10, 14, 1525893209.157, 77, 0, 1024, 1024, 1024, 1024, 0, 6, 3776, 3782, 3786, 3802, 3821, 3778, 0, 1, 20401, -89.900, 0.000, 124.000, 0.100, 0.100, -3.100, 0.0, , , , , , 98, , , 33, 33, 33
38.0977328, -120.1812624, 44.700, 12:13:29.256, 18, 0.14, 0.47, 97, 5.500, 0.100, 124.600, 874, 100, 91, 21, 22771, -20446, 5344, 5510, 10, 14, 1525893209.257, 34, 0, 1024, 1024, 1024, 1024, 0, 6, 3776, 3782, 3786, 3802, 3821, 3778, 0, 1, 20501, -89.900, 0.000, 124.000, 0.100, 0.100, -3.100, 0.0, , , , , , 98, , , 33, 33, 33
38.0977329, -120.1812623, 45.000, 12:13:29.358, 18, 0.14, 0.48, 97, 6.300, 0.600, 124.700, 874, 100, 91, 21, 22771, -20446, 5344, 5510, 10, 14, 1525893209.359, 5, 0, 1024, 1024, 1024, 1024, 0, 6, 3776, 3782, 3786, 3802, 3821, 3778, 0, 1, 20603, -89.900, 0.000, 124.000, 0.100, 0.100, -2.900, 0.0, , , , , , 98, , , 33, 33, 33
38.0977331, -120.1812621, 45.300, 12:13:29.460, 18, 0.14, 0.50, 97, 6.800, 0.900, 124.800, 874, 100, 91, 21, 22771, -20446, 5344, 5510, 10, 14, 1525893209.461, 6, 0, 1024, 1024, 1024, 1024, 0, 6, 3776, 3782, 3786, 3802, 3821, 3778, 0, 1, 20705, -89.900, 0.000, 124.000, 0.100, 0.100, -2.900, 0.0, , , , , , 98, , , 33, 33, 33
38.0977332, -120.1812620, 45.600, 12:13:29.556, 18, 0.14, 0.52, 97, 7.200, 0.900, 124.900, 874, 100, 91, 21, 22771, -20446, 5344, 5510, 10, 14, 1525893209.557, 15, 0, 1024, 1024, 1024, 1024, 0, 6, 3776, 3782, 3786, 3802, 3821, 3778, 0, 1, 20801, -89.900, 0.000, 124.000, 0.100, 0.100, -2.800, 0.0, , , , , , 98, , , 33, 33, 33
38.0977333, -120.1812619, 45.900, 12:13:29.659, 18, 0.14, 0.53, 97, 7.200, 1.000, 125.000, 874, 100, 91, 22, 22717, -20610, 5344, 5510, 10, 14, 1525893209.660, 7, 0, 1024, 1024, 1024, 1024, 0, 6, 3776, 3782, 3786, 3802, 3821, 3778, 0, 1, 20904, -89.900, 0.000, 124.000, 0.100, 0.100, -2.700, 0.0, , , , , , 98, , , 33, 33, 33
