latitude,longitude,altitude(feet),ascent(feet),speed(mph),distance(feet),time(millisecond),datetime(utc),satellites,gpslevel,voltage(v),max_altitude(feet),max_ascent(feet),max_speed(mph),max_distance(feet), xSpeed(mph), ySpeed(mph), zSpeed(mph), compass_heading(degrees), pitch(degrees), roll(degrees),isPhoto,isVideo,rc_elevator,rc_aileron,rc_throttle,rc_rudder,gimbal_heading(degrees),gimbal_pitch(degrees),battery_percent,voltageCell1,voltageCell2,voltageCell3,voltageCell4,voltageCell5,voltageCell6,current(A),battery_temperature(f),flycStateRaw,flycState,message
38.0977357,-120.1812905,4238.9782435869,0,0.223694,0,3120,2018-05-09 18:08:13,13,0,0,4238.9782435869,0,0.223694,0,0,0,0,124.6, 1.3, 0,1,0,1024,1024,1024,1024,122.7,-89.9,98,3.968,4.003,3.965,4.036,4.02,4.012,0,62.6,11,AutoTakeoff,
38.0977356,-120.1812903,4238.9782435869,0,0.223694,0.068034450996,3200,2018-05-09 18:08:13,13,0,0,4238.9782435869,0,0.223694,0.068034450996,0,0,0,124.5, 1.6, 0.3,0,0,1024,1024,1024,1024,122.8,-89.9,98,3.968,4.003,3.965,4.036,4.02,4.012,0,62.6,11,AutoTakeoff,
38.0977357,-120.1812897,4239.6344115869,0.656168,0.223694,0.229697185828,3510,2018-05-09 18:08:13,13,0,0,4239.6344115869,0.656168,0.223694,0.229697185828,0,0,0,124, 1.1, 0.6,0,0,1024,1024,1024,1024,122.8,-89.9,98,3.968,4.003,3.965,4.036,4.02,4.012,0,62.6,11,AutoTakeoff,
38.0977357,-120.1812895,4239.6344115869,0.656168,0.223694,0.287121728348,3700,2018-05-09 18:08:14,13,0,0,4239.6344115869,0.656168,0.223694,0.287121728348,0,0,0,124, 1.1, 0.9,0,0,1024,1024,1024,1024,122.8,-89.9,98,3.968,4.003,3.965,4.036,4.02,4.012,0,62.6,11,AutoTakeoff,
38.0977358,-120.1812894,4239.9624955869,0.984252,0.223694,0.317934065292,3800,2018-05-09 18:08:14,13,0,0,4239.9624955869,0.984252,0.223694,0.317934065292,0,0,0,123.9, 0.9, 0.9,0,0,1024,1024,1024,1024,122.9,-89.9,98,3.968,4.003,3.965,4.036,4.02,4.012,0,62.6,11,AutoTakeoff,
38.0977358,-120.1812892,4239.9624955869,0.984252,0.223694,0.37503610124,3900,2018-05-09 18:08:14,13,0,0,4239.9624955869,0.984252,0.223694,0.37503610124,0,0,0,123.9, 0.9, 1,0,0,1024,1024,1024,1024,122.9,-89.9,98,3.968,4.003,3.965,4.036,4.02,4.012,0,62.6,11,AutoTakeoff,
38.0977359,-120.181289,4240.2905795869,1.312336,0.223694,0.43682088012,4000,2018-05-09 18:08:14,12,0,24.392,4240.2905795869,1.312336,0.223694,0.43682088012,0,0,0,123.9, 1.1, 1,0,0,1024,1024,1024,1024,122.9,-89.9,98,3.968,4.003,3.965,4.036,4.02,4.012,12.711,62.6,11,AutoTakeoff,
38.0977359,-120.1812888,4240.2905795869,1.312336,0.223694,0.49353019952,4100,2018-05-09 18:08:14,12,0,24.392,4240.2905795869,1.312336,0.223694,0.49353019952,0,0,0,123.9, 1.2, 0.8,0,0,1024,1024,1024,1024,122.9,-89.9,98,3.968,4.003,3.965,4.036,4.02,4.012,12.711,62.6,11,AutoTakeoff,
38.0977359,-120.1812886,4240.2905795869,1.312336,0.223694,0.55039043756,4200,2018-05-09 18:08:14,13,0,24.392,4240.2905795869,1.312336,0.223694,0.55039043756,0,0,0,124, 1.3, 1,0,0,1024,1024,1024,1024,122.9,-89.9,98,3.968,4.003,3.965,4.036,4.02,4.012,12.711,62.6,11,AutoTakeoff,
38.0977359,-120.1812885,4240.6186635869,1.64042,0.223694,0.57886156708,4300,2018-05-09 18:08:14,13,0,24.392,4240.6186635869,1.64042,0.223694,0.57886156708,0,0,0,124, 1.5, 1.4,0,0,1024,1024,1024,1024,123,-89.9,98,3.968,4.003,3.965,4.036,4.02,4.012,12.711,62.6,11,AutoTakeoff,
38.0977359,-120.1812883,4240.6186635869,1.64042,0,0.63586944292,4400,2018-05-09 18:08:14,13,0,24.392,4240.6186635869,1.64042,0.223694,0.63586944292,0,0,0,124, 1.7, 1.7,0,0,1024,1024,1024,1024,123,-89.9,98,3.968,4.003,3.965,4.036,4.02,4.012,12.711,62.6,11,AutoTakeoff,
38.0977359,-120.1812882,4240.9467475869,1.968504,0,0.66439962756,4500,2018-05-09 18:08:14,13,0,24.392,4240.9467475869,1.968504,0.223694,0.66439962756,0,0,-0.223694,124, 1.8, 1.8,0,0,1024,1024,1024,1024,123,-89.9,98,3.968,4.003,3.965,4.036,4.02,4.012,12.711,62.6,11,AutoTakeoff,
38.097736,-120.1812881,4240.9467475869,1.968504,0,0.69772968112,4600,2018-05-09 18:08:14,13,0,24.392,4240.9467475869,1.968504,0.223694,0.69772968112,0,0,0,123.9, 1.8, 1.9,0,0,1024,1024,1024,1024,123,-89.9,98,3.968,4.003,3.965,4.036,4.02,4.012,12.711,62.6,11,AutoTakeoff,
38.097736,-120.1812881,4241.2748315869,2.296588,0,0.69772968112,4700,2018-05-09 18:08:15,13,0,24.392,4241.2748315869,2.296588,0.223694,0.69772968112,0,0,0,123.8, 1.9, 1.7,0,0,1024,1024,1024,1024,123,-89.9,98,3.968,4.003,3.965,4.036,4.02,4.012,12.711,62.6,11,AutoTakeoff,
38.0977359,-120.181288,4241.2748315869,2.296588,0,0.72150264776,4800,2018-05-09 18:08:15,13,0,24.392,4241.2748315869,2.296588,0.223694,0.72150264776,0,0,0,123.8, 1.9, 1.5,0,0,1024,1024,1024,1024,123.1,-89.9,98,3.968,4.003,3.965,4.036,4.02,4.012,12.711,62.6,11,AutoTakeoff,
38.0977359,-120.181288,4241.6029155869,2.624672,0,0.72150264776,4900,2018-05-09 18:08:15,13,0,24.392,4241.6029155869,2.624672,0.223694,0.72150264776,0,0,0,123.8, 1.9, 1.4,0,0,1024,1024,1024,1024,123.1,-89.9,98,3.968,4.003,3.965,4.036,4.02,4.012,12.711,62.6,11,AutoTakeoff,
38.0977359,-120.1812879,4241.6029155869,2.624672,0,0.75007548332,5000,2018-05-09 18:08:15,14,0,23.697,4241.6029155869,2.624672,0.223694,0.75007548332,0,0,0,123.9, 1.9, 1.4,0,0,1024,1024,1024,1024,123.1,-89.9,98,3.912,3.923,3.915,3.983,3.972,3.922,16.416,62.6,11,AutoTakeoff,
38.0977359,-120.1812879,4241.9309995869,2.952756,0,0.75007548332,5100,2018-05-09 18:08:15,14,0,23.697,4241.9309995869,2.952756,0.223694,0.75007548332,0,0,-0.223694,124.1, 2, 1.3,0,0,1024,1024,1024,1024,123.1,-89.9,98,3.912,3.923,3.915,3.983,3.972,3.922,16.416,62.6,6,P-GPS,
38.0977359,-120.1812879,4241.9309995869,2.952756,0,0.75007548332,5200,2018-05-09 18:08:15,12,0,23.697,4241.9309995869,2.952756,0.223694,0.75007548332,0,0,0,124.3, 2, 1.4,0,0,1024,1024,1024,1024,123.1,-89.9,98,3.912,3.923,3.915,3.983,3.972,3.922,16.416,62.6,14,Waypoint,
38.0977359,-120.1812879,4242.2590835869,3.28084,0,0.75007548332,5300,2018-05-09 18:08:15,12,0,23.697,4242.2590835869,3.28084,0.223694,0.75007548332,0,0,0,124.4, 1.1, 0.4,0,0,1024,1024,1024,1024,123.1,-90,98,3.912,3.923,3.915,3.983,3.972,3.922,16.416,62.6,14,Waypoint,
38.0977359,-120.1812879,4242.2590835869,3.28084,0,0.75007548332,5400,2018-05-09 18:08:15,13,0,23.697,4242.2590835869,3.28084,0.223694,0.75007548332,0,0,0,124.6, 0.4, 0,0,0,1024,1024,1024,1024,123.1,-90,98,3.912,3.923,3.915,3.983,3.972,3.922,16.416,62.6,14,Waypoint,
38.097736,-120.1812877,4242.2590835869,3.28084,0,0.81135829368,5500,2018-05-09 18:08:15,13,0,23.697,4242.2590835869,3.28084,0.223694,0.81135829368,0,0,0,124.7, 0.2, 0,0,0,1024,1024,1024,1024,123.2,-89.9,98,3.912,3.923,3.915,3.983,3.972,3.922,16.416,62.6,14,Waypoint,
38.0977361,-120.1812876,4242.5871675869,3.608924,0,0.84534451524,5600,2018-05-09 18:08:15,13,0,23.697,4242.5871675869,3.608924,0.223694,0.84534451524,0,0,0,124.7, 0.4, 0.6,0,0,1024,1024,1024,1024,123.2,-89.9,98,3.912,3.923,3.915,3.983,3.972,3.922,16.416,62.6,14,Waypoint,
38.097736,-120.1812876,4242.5871675869,3.608924,0,0.83981629984,5700,2018-05-09 18:08:16,13,0,23.697,4242.5871675869,3.608924,0.223694,0.84534451524,0,0,0,124.8, 0.6, 1.2,0,0,1024,1024,1024,1024,123.2,-89.9,98,3.912,3.923,3.915,3.983,3.972,3.922,16.416,62.6,14,Waypoint,
38.097736,-120.1812875,4242.9152515869,3.937008,0,0.8682907102,5800,2018-05-09 18:08:16,13,0,23.697,4242.9152515869,3.937008,0.223694,0.8682907102,0,0,-0.223694,124.9, 0.8, 1.3,0,0,1024,1024,1024,1024,123.2,-89.9,98,3.912,3.923,3.915,3.983,3.972,3.922,16.416,62.6,14,Waypoint,
38.097736,-120.1812875,4242.9152515869,3.937008,0,0.8682907102,5900,2018-05-09 18:08:16,13,0,23.697,4242.9152515869,3.937008,0.223694,0.8682907102,0,0,-0.223694,124.9, 1, 1.2,0,0,1024,1024,1024,1024,123.2,-89.9,98,3.912,3.923,3.915,3.983,3.972,3.922,16.416,62.6,14,Waypoint,
38.097736,-120.1812874,4243.2433355869,4.265092,0,0.89678152476,6000,2018-05-09 18:08:16,13,0,23.519,4243.2433355869,4.265092,0.223694,0.89678152476,0,0,-0.223694,124.8, 1, 1,0,0,1024,1024,1024,1024,123.2,-89.9,98,3.904,3.901,3.898,3.952,3.953,3.907,16.944,62.6,14,Waypoint,
38.0977361,-120.1812873,4243.8995035869,4.92126,0,0.93030842872,6100,2018-05-09 18:08:16,13,0,23.519,4243.8995035869,4.92126,0.223694,0.93030842872,0,0,-0.223694,124.7, 0.9, 0.9,0,0,1024,1024,1024,1024,123.3,-89.9,98,3.904,3.901,3.898,3.952,3.953,3.907,16.944,62.6,14,Waypoint,
38.0977363,-120.1812872,4244.2275875869,5.249344,0,0.97246066104,6300,2018-05-09 18:08:16,13,0,23.519,4244.2275875869,5.249344,0.223694,0.97246066104,0,0,-0.447388,124.5, 0.8, 1.1,0,0,1024,1024,1024,1024,123.3,-89.9,98,3.904,3.901,3.898,3.952,3.953,3.907,16.944,62.6,14,Waypoint,
38.0977366,-120.181287,4245.2118395869,6.233596,0,1.05721460076,6400,2018-05-09 18:08:16,14,0,23.519,4245.2118395869,6.233596,0.223694,1.05721460076,0,0,-0.447388,124.4, 0.6, 2,0,0,1024,1024,1024,1024,123.3,-89.9,98,3.904,3.901,3.898,3.952,3.953,3.907,16.944,62.6,14,Waypoint,
38.0977368,-120.181287,4246.1960915869,7.217848,0,1.082103053,6500,2018-05-09 18:08:16,14,0,23.519,4246.1960915869,7.217848,0.223694,1.082103053,0,0,-0.447388,124.4, 0.6, 2.4,0,0,1024,1024,1024,1024,123.3,-89.9,98,3.904,3.901,3.898,3.952,3.953,3.907,16.944,62.6,14,Waypoint,
38.0977371,-120.1812869,4247.5084275869,8.530184,0,1.15295935448,6610,2018-05-09 18:08:16,15,0,23.519,4247.5084275869,8.530184,0.223694,1.15295935448,0,0,-0.671082,124.6, 0.8, 2.2,0,0,1024,1024,1024,1024,123.3,-89.9,98,3.904,3.901,3.898,3.952,3.953,3.907,16.944,62.6,14,Waypoint,
38.0977372,-120.1812868,4248.4926795869,9.514436,0,1.1950295658,6800,2018-05-09 18:08:17,15,0,23.519,4248.4926795869,9.514436,0.223694,1.1950295658,0,0,-0.671082,124.7, 1, 2.3,0,0,1024,1024,1024,1024,123.3,-89.9,98,3.904,3.901,3.898,3.952,3.953,3.907,16.944,62.6,14,Waypoint,
38.0977373,-120.1812867,4249.1488475869,10.170604,0,1.23741473776,6900,2018-05-09 18:08:17,15,0,23.519,4249.1488475869,10.170604,0.223694,1.23741473776,0,0,-0.671082,124.7, 1, 2.5,0,0,1024,1024,1024,1024,123.3,-89.9,98,3.904,3.901,3.898,3.952,3.953,3.907,16.944,62.6,14,Waypoint,
38.0977375,-120.1812866,4250.1330995869,11.154856,0,1.298146367,7000,2018-05-09 18:08:17,14,0,23.151,4250.1330995869,11.154856,0.223694,1.298146367,0,0,-0.671082,124.8, 1, 2.9,0,0,1024,1024,1024,1024,123.3,-89.9,98,3.825,3.823,3.829,3.929,3.898,3.812,17.871,62.6,14,Waypoint,
38.0977377,-120.1812867,4251.4454355869,12.467192,0,1.31258534384,7100,2018-05-09 18:08:17,14,0,23.151,4251.4454355869,12.467192,0.223694,1.31258534384,0,0,-0.671082,124.8, 1, 3.2,0,0,1024,1024,1024,1024,123.3,-89.9,98,3.825,3.823,3.829,3.929,3.898,3.812,17.871,62.6,14,Waypoint,
38.0977378,-120.1812868,4252.4296875869,13.451444,0,1.30981959572,7200,2018-05-09 18:08:17,13,0,23.151,4252.4296875869,13.451444,0.223694,1.31258534384,0,0,-0.671082,124.8, 0.8, 3.3,0,0,1024,1024,1024,1024,123.3,-89.9,98,3.825,3.823,3.829,3.929,3.898,3.812,17.871,62.6,14,Waypoint,
38.097738,-120.1812869,4253.4139395869,14.435696,0,1.33138455704,7300,2018-05-09 18:08:17,13,0,23.151,4253.4139395869,14.435696,0.223694,1.33138455704,0,0,-0.671082,124.8, 0.3, 3.1,0,0,1024,1024,1024,1024,123.3,-89.9,98,3.825,3.823,3.829,3.929,3.898,3.812,17.871,62.6,14,Waypoint,
38.0977382,-120.181287,4254.7262755869,15.748032,0,1.35714571272,7400,2018-05-09 18:08:17,14,0,23.151,4254.7262755869,15.748032,0.223694,1.35714571272,0,0,-0.671082,124.7, -0.2, 3,0,0,1024,1024,1024,1024,123.3,-90,98,3.825,3.823,3.829,3.929,3.898,3.812,17.871,62.6,14,Waypoint,
38.0977383,-120.1812871,4255.7105275869,16.732284,0,1.36119426928,7500,2018-05-09 18:08:17,14,0,23.151,4255.7105275869,16.732284,0.223694,1.36119426928,0,0,-0.671082,124.6, -0.4, 2.9,0,0,1024,1024,1024,1024,123.3,-90,98,3.825,3.823,3.829,3.929,3.898,3.812,17.871,62.6,14,Waypoint,
38.0977384,-120.1812873,4257.0228635869,18.04462,0,1.3470636914,7600,2018-05-09 18:08:17,14,0,23.151,4257.0228635869,18.04462,0.223694,1.36119426928,0,0,-0.671082,124.5, -0.7, 2.6,0,0,1024,1024,1024,1024,123.3,-90,98,3.825,3.823,3.829,3.929,3.898,3.812,17.871,62.6,14,Waypoint,
38.0977384,-120.1812875,4258.0071155869,19.028872,0,1.30856959568,7700,2018-05-09 18:08:18,14,0,23.151,4258.0071155869,19.028872,0.223694,1.36119426928,0,0,-0.671082,124.4, -0.8, 2.3,0,0,1024,1024,1024,1024,123.3,-90,98,3.825,3.823,3.829,3.929,3.898,3.812,17.871,62.6,14,Waypoint,
38.0977384,-120.1812878,4258.9913675869,20.013124,0,1.25354990888,7800,2018-05-09 18:08:18,13,0,23.151,4258.9913675869,20.013124,0.223694,1.36119426928,0,0,-0.671082,124.3, -0.9, 1.8,0,0,1024,1024,1024,1024,123.3,-90,98,3.825,3.823,3.829,3.929,3.898,3.812,17.871,62.6,14,Waypoint,
38.0977383,-120.181288,4260.3037035869,21.32546,0.223694,1.18958009056,7900,2018-05-09 18:08:18,13,0,23.151,4260.3037035869,21.32546,0.223694,1.36119426928,0,0,-0.671082,124.2, -0.9, 1.4,0,0,1024,1024,1024,1024,123.3,-89.9,98,3.825,3.823,3.829,3.929,3.898,3.812,17.871,62.6,14,Waypoint,
38.0977382,-120.1812881,4261.2879555869,22.309712,0.223694,1.1431594854,8000,2018-05-09 18:08:18,13,0,22.615,4261.2879555869,22.309712,0.223694,1.36119426928,0,0,-0.671082,124.3, -0.7, 1.1,0,0,1024,1024,1024,1024,123.3,-89.9,98,3.746,3.756,3.741,3.809,3.816,3.783,24.712,62.6,14,Waypoint,
38.097738,-120.1812881,4262.6002915869,23.622048,0.223694,1.08583008724,8100,2018-05-09 18:08:18,13,0,22.615,4262.6002915869,23.622048,0.223694,1.36119426928,0,0,-0.671082,124.4, -0.3, 0.9,0,0,1024,1024,1024,1024,123.4,-89.9,98,3.746,3.756,3.741,3.809,3.816,3.783,24.712,62.6,14,Waypoint,
38.0977378,-120.1812881,4263.5845435869,24.6063,0.223694,1.0304790356,8200,2018-05-09 18:08:18,14,0,22.615,4263.5845435869,24.6063,0.223694,1.36119426928,0,0,-0.671082,124.5, 0, 0.9,0,0,1024,1024,1024,1024,123.3,-89.9,98,3.746,3.756,3.741,3.809,3.816,3.783,24.712,62.6,14,Waypoint,
38.0977374,-120.181288,4265.8811315869,26.902888,0.223694,0.948654886,8400,2018-05-09 18:08:18,15,0,22.615,4265.8811315869,26.902888,0.223694,1.36119426928,0,0,-0.671082,124.4, 0.5, 0.4,0,0,1024,1024,1024,1024,123.3,-89.9,98,3.746,3.756,3.741,3.809,3.816,3.783,24.712,62.6,14,Waypoint,
38.0977372,-120.181288,4266.8653835869,27.88714,0.223694,0.90263454332,8500,2018-05-09 18:08:18,15,0,22.615,4266.8653835869,27.88714,0.223694,1.36119426928,0,0,-0.671082,124.4, 0.7, 0.3,0,0,1024,1024,1024,1024,123.3,-89.9,98,3.746,3.756,3.741,3.809,3.816,3.783,24.712,62.6,14,Waypoint,
38.0977368,-120.1812877,4269.1619715869,30.183728,0.223694,0.89854989752,8610,2018-05-09 18:08:18,15,0,22.615,4269.1619715869,30.183728,0.223694,1.36119426928,0,0,-0.671082,124.2, 1.5, 0.5,0,0,1024,1024,1024,1024,123.3,-89.9,98,3.746,3.756,3.741,3.809,3.816,3.783,24.712,62.6,14,Waypoint,
38.0977366,-120.1812876,4270.1462235869,31.16798,0.223694,0.8950623646,8700,2018-05-09 18:08:19,14,0,22.615,4270.1462235869,31.16798,0.223694,1.36119426928,0,0,-0.671082,124.2, 1.9, 0.7,0,0,1024,1024,1024,1024,123.3,-89.9,98,3.746,3.756,3.741,3.809,3.816,3.783,24.712,62.6,14,Waypoint,
38.0977364,-120.1812875,4271.1304755869,32.152232,0.223694,0.89842850644,8800,2018-05-09 18:08:19,14,0,22.615,4271.1304755869,32.152232,0.223694,1.36119426928,0,0,-0.671082,124.3, 2.2, 0.9,0,0,1024,1024,1024,1024,123.3,-89.9,98,3.746,3.756,3.741,3.809,3.816,3.783,24.712,62.6,14,Waypoint,
38.0977361,-120.1812875,4272.1147275869,33.136484,0.223694,0.87364176024,9000,2018-05-09 18:08:19,14,0,22.972,4272.1147275869,33.136484,0.223694,1.36119426928,0,0,-0.671082,124.3, 2.3, 0.7,0,0,1024,1024,1024,1024,123.3,-89.9,98,3.746,3.756,3.741,3.809,3.816,3.783,19.949,62.6,14,Waypoint,
38.0977359,-120.1812874,4273.0989795869,34.120736,0.223694,0.89306433304,9100,2018-05-09 18:08:19,14,0,22.972,4273.0989795869,34.120736,0.223694,1.36119426928,0,0,-0.671082,124.3, 2.2, 0.2,0,0,1024,1024,1024,1024,123.3,-89.9,98,3.746,3.756,3.741,3.809,3.816,3.783,19.949,62.6,14,Waypoint,
38.0977355,-120.1812873,4275.3955675869,36.417324,0,0.92168310036,9310,2018-05-09 18:08:19,14,0,22.972,4275.3955675869,36.417324,0.223694,1.36119426928,0,0,-0.671082,124.4, 1.7, -0.4,0,0,1024,1024,1024,1024,123.3,-89.9,98,3.746,3.756,3.741,3.809,3.816,3.783,19.949,62.6,14,Waypoint,
38.0977353,-120.1812873,4276.3798195869,37.401576,0,0.93030842872,9410,2018-05-09 18:08:19,14,0,22.972,4276.3798195869,37.401576,0.223694,1.36119426928,0,0,-0.671082,124.4, 1.6, -0.4,0,0,1024,1024,1024,1024,123.3,-89.9,98,3.746,3.756,3.741,3.809,3.816,3.783,19.949,62.6,14,Waypoint,
38.0977352,-120.1812873,4277.3640715869,38.385828,0,0.93672575176,9510,2018-05-09 18:08:19,14,0,22.972,4277.3640715869,38.385828,0.223694,1.36119426928,0,0,-0.671082,124.3, 1.5, -0.4,0,0,1024,1024,1024,1024,123.3,-89.9,98,3.746,3.756,3.741,3.809,3.816,3.783,19.949,62.6,14,Waypoint,
38.0977351,-120.1812873,4278.3483235869,39.37008,0,0.94450790424,9610,2018-05-09 18:08:19,14,0,22.972,4278.3483235869,39.37008,0.223694,1.36119426928,0,0,-0.671082,124.3, 1.5, -0.3,0,0,1024,1024,1024,1024,123.3,-89.9,98,3.746,3.756,3.741,3.809,3.816,3.783,19.949,62.6,14,Waypoint,
38.0977349,-120.1812872,4279.3325755869,40.354332,0,0.99144032044,9810,2018-05-09 18:08:20,14,0,22.972,4279.3325755869,40.354332,0.223694,1.36119426928,0,0,-0.671082,124.2, 1.4, -0.2,0,0,1024,1024,1024,1024,123.3,-89.9,98,3.746,3.756,3.741,3.809,3.816,3.783,19.949,62.6,14,Waypoint,
38.0977348,-120.1812871,4280.3168275869,41.338584,0,1.02996066288,10010,2018-05-09 18:08:20,15,0,22.972,4280.3168275869,41.338584,0.223694,1.36119426928,0,0,-0.671082,124.2, 1.5, -0.1,0,0,1024,1024,1024,1024,123.3,-89.9,98,3.802,3.808,3.811,3.876,3.869,3.829,19.949,62.6,14,Waypoint,
38.0977346,-120.181287,4281.3010795869,42.322836,0,1.082103053,10120,2018-05-09 18:08:20,15,0,22.972,4281.3010795869,42.322836,0.223694,1.36119426928,0,0,-0.671082,124.2, 1.6, -0.1,0,0,1024,1024,1024,1024,123.4,-89.9,98,3.802,3.808,3.811,3.876,3.869,3.829,19.949,62.6,14,Waypoint,
38.0977346,-120.181287,4281.3010795869,42.322836,0,1.082103053,10210,2018-05-09 18:08:20,15,0,22.972,4281.3010795869,42.322836,0.223694,1.36119426928,0,0,-0.671082,124.2, 1.6, -0.1,0,0,1024,1024,1024,1024,123.4,-89.9,98,3.802,3.808,3.811,3.876,3.869,3.829,19.949,62.6,14,Waypoint,
38.0977345,-120.1812869,4282.2853315869,43.307088,0,1.122539406,10410,2018-05-09 18:08:20,15,0,22.972,4282.2853315869,43.307088,0.223694,1.36119426928,0,0,-0.671082,124.2, 1.8, -0.1,0,0,1024,1024,1024,1024,123.3,-89.9,98,3.802,3.808,3.811,3.876,3.869,3.829,19.949,62.6,14,Waypoint,
38.0977345,-120.1812869,4284.5819195869,45.603676,0,1.122539406,10610,2018-05-09 18:08:20,15,0,22.972,4284.5819195869,45.603676,0.223694,1.36119426928,0,0,-0.671082,124.3, 1.9, -0.1,0,0,1024,1024,1024,1024,123.3,-89.9,98,3.802,3.808,3.811,3.876,3.869,3.829,19.949,62.6,14,Waypoint,
38.0977345,-120.1812868,4286.5504235869,47.57218,0,1.149032189,10710,2018-05-09 18:08:21,16,0,22.972,4286.5504235869,47.57218,0.223694,1.36119426928,0,0,-0.671082,124.4, 1.6, 0.2,0,0,1024,1024,1024,1024,123.3,-89.9,98,3.802,3.808,3.811,3.876,3.869,3.829,19.949,62.6,14,Waypoint,
38.0977345,-120.1812867,4287.5346755869,48.556432,0,1.17562995888,11010,2018-05-09 18:08:21,16,0,23.048,4287.5346755869,48.556432,0.223694,1.36119426928,0,0,-0.671082,124.5, 1.7, 0.3,0,0,1024,1024,1024,1024,123.3,-89.9,98,3.82,3.818,3.813,3.881,3.871,3.831,19.218,64.4,14,Waypoint,
38.0977346,-120.1812868,4289.5031795869,50.524936,0,1.1356299576,11210,2018-05-09 18:08:21,16,0,23.048,4289.5031795869,50.524936,0.223694,1.36119426928,0,0,-0.671082,124.6, 1.3, 0.7,0,0,1024,1024,1024,1024,123.3,-90,98,3.82,3.818,3.813,3.881,3.871,3.831,19.218,64.4,14,Waypoint,
38.097735,-120.1812871,4293.1121035869,54.13386,0,1.00906827376,11400,2018-05-09 18:08:21,16,0,23.048,4293.1121035869,54.13386,0.223694,1.36119426928,0,0,-0.671082,124.3, 0, 0.8,0,0,1024,1024,1024,1024,123.3,-90,98,3.82,3.818,3.813,3.881,3.871,3.831,19.218,64.4,14,Waypoint,
38.0977351,-120.1812871,4295.0806075869,56.102364,0,1.00045606876,11510,2018-05-09 18:08:21,15,0,23.048,4295.0806075869,56.102364,0.223694,1.36119426928,0,0,-0.671082,124.2, -0.1, 0.1,0,0,1024,1024,1024,1024,123.3,-90,98,3.82,3.818,3.813,3.881,3.871,3.831,19.218,64.4,14,Waypoint,
38.0977351,-120.1812871,4295.0806075869,56.102364,0,1.00045606876,11600,2018-05-09 18:08:21,15,0,23.048,4295.0806075869,56.102364,0.223694,1.36119426928,0,0,-0.671082,124.2, -0.1, 0.1,0,0,1024,1024,1024,1024,123.3,-90,98,3.82,3.818,3.813,3.881,3.871,3.831,19.218,64.4,14,Waypoint,
38.0977354,-120.1812871,4297.0491115869,58.070868,0.223694,0.98232942776,11700,2018-05-09 18:08:22,16,0,23.048,4297.0491115869,58.070868,0.223694,1.36119426928,0,0,-0.671082,124.4, 0.9, 1.1,0,0,1024,1024,1024,1024,123.3,-89.9,98,3.82,3.818,3.813,3.881,3.871,3.831,19.218,64.4,14,Waypoint,
38.0977355,-120.181287,4298.0333635869,59.05512,0.223694,1.00757221072,11800,2018-05-09 18:08:22,16,0,23.048,4298.0333635869,59.05512,0.223694,1.36119426928,0,0,-0.671082,124.4, 1.2, 2,0,0,1024,1024,1024,1024,123.3,-89.9,98,3.82,3.818,3.813,3.881,3.871,3.831,19.218,64.4,14,Waypoint,
38.0977356,-120.181287,4299.0176155869,60.039372,0,1.00558730252,11900,2018-05-09 18:08:22,16,0,23.048,4299.0176155869,60.039372,0.223694,1.36119426928,0,0,-0.671082,124.3, 1.4, 2.3,0,0,1024,1024,1024,1024,123.3,-89.9,98,3.82,3.818,3.813,3.881,3.871,3.831,19.218,64.4,14,Waypoint,
38.097736,-120.1812871,4301.9703715869,62.992128,0,0.98232942776,12020,2018-05-09 18:08:22,16,0,23.001,4301.9703715869,62.992128,0.223694,1.36119426928,0,0,-0.671082,124.3, 1, 2.6,0,0,1024,1024,1024,1024,123.3,-89.9,97,3.817,3.816,3.808,3.874,3.863,3.82,19.304,64.4,14,Waypoint,
38.0977361,-120.1812871,4302.9546235869,63.97638,0,0.98706367988,12100,2018-05-09 18:08:22,16,0,23.001,4302.9546235869,63.97638,0.223694,1.36119426928,0,0,-0.671082,124.1, 0.4, 2.7,0,0,1024,1024,1024,1024,123.3,-89.9,97,3.817,3.816,3.808,3.874,3.863,3.82,19.304,64.4,14,Waypoint,
38.0977362,-120.1812872,4303.9388755869,64.960632,0,0.96490160568,12200,2018-05-09 18:08:22,16,0,23.001,4303.9388755869,64.960632,0.223694,1.36119426928,0,0,-0.671082,124, -0.1, 2.7,0,0,1024,1024,1024,1024,123.3,-90,97,3.817,3.816,3.808,3.874,3.863,3.82,19.304,64.4,14,Waypoint,
38.0977364,-120.1812872,4305.9073795869,66.929136,0,0.98131892904,12410,2018-05-09 18:08:22,16,0,23.001,4305.9073795869,66.929136,0.223694,1.36119426928,0,0,-0.671082,123.9, -0.2, 2.3,0,0,1024,1024,1024,1024,123.3,-90,97,3.817,3.816,3.808,3.874,3.863,3.82,19.304,64.4,14,Waypoint,
38.0977365,-120.1812872,4306.8916315869,67.913388,0,0.99144032044,12500,2018-05-09 18:08:22,16,0,23.001,4306.8916315869,67.913388,0.223694,1.36119426928,0,0,-0.671082,123.8, -0.3, 2.2,0,0,1024,1024,1024,1024,123.3,-90,97,3.817,3.816,3.808,3.874,3.863,3.82,19.304,64.4,14,Waypoint,
38.0977366,-120.1812872,4307.8758835869,68.89764,0,1.002788746,12600,2018-05-09 18:08:22,16,0,23.001,4307.8758835869,68.89764,0.223694,1.36119426928,0,0,-0.671082,123.7, 0, 1.9,0,0,1024,1024,1024,1024,123.3,-90,97,3.817,3.816,3.808,3.874,3.863,3.82,19.304,64.4,14,Waypoint,
38.0977368,-120.1812872,4309.8443875869,70.866144,0,1.02899281508,12800,2018-05-09 18:08:23,16,0,23.001,4309.8443875869,70.866144,0.223694,1.36119426928,0,0,-0.671082,123.7, 0.2, 1.6,0,0,1024,1024,1024,1024,123.3,-89.9,97,3.817,3.816,3.808,3.874,3.863,3.82,19.304,64.4,14,Waypoint,
38.0977369,-120.1812872,4310.8286395869,71.850396,0,1.04376315676,12900,2018-05-09 18:08:23,16,0,23.001,4310.8286395869,71.850396,0.223694,1.36119426928,0,0,-0.671082,123.8, 0.3, 2,0,0,1024,1024,1024,1024,123.3,-89.9,97,3.817,3.816,3.808,3.874,3.863,3.82,19.304,64.4,14,Waypoint,
38.0977371,-120.1812871,4312.4690595869,73.490816,0,1.1017716888,13110,2018-05-09 18:08:23,16,0,23.001,4312.4690595869,73.490816,0.223694,1.36119426928,0,0,-0.671082,124.3, 0.5, 2.6,0,0,1024,1024,1024,1024,123.4,-89.9,97,3.817,3.816,3.808,3.874,3.863,3.82,19.304,64.4,14,Waypoint,
38.0977372,-120.1812871,4313.4533115869,74.475068,0,1.11915357912,13200,2018-05-09 18:08:23,16,0,23.001,4313.4533115869,74.475068,0.223694,1.36119426928,0,0,-0.671082,124.6, 0.3, 2.6,0,0,1024,1024,1024,1024,123.3,-89.9,97,3.817,3.816,3.808,3.874,3.863,3.82,19.304,64.4,14,Waypoint,
38.0977373,-120.181287,4314.4375635869,75.45932,0,1.16217523404,13310,2018-05-09 18:08:23,16,0,23.001,4314.4375635869,75.45932,0.223694,1.36119426928,0,0,-0.671082,124.8, 0.1, 2.6,0,0,1024,1024,1024,1024,123.3,-89.9,97,3.817,3.816,3.808,3.874,3.863,3.82,19.304,64.4,14,Waypoint,
38.0977374,-120.1812869,4315.4218155869,76.443572,0,1.20544951364,13400,2018-05-09 18:08:23,16,0,23.001,4315.4218155869,76.443572,0.223694,1.36119426928,0,0,-0.671082,124.9, 0.4, 3,0,0,1024,1024,1024,1024,123.3,-89.9,97,3.817,3.816,3.808,3.874,3.863,3.82,19.304,64.4,14,Waypoint,
38.0977374,-120.1812869,4316.4060675869,77.427824,0,1.20544951364,13510,2018-05-09 18:08:23,16,0,23.001,4316.4060675869,77.427824,0.223694,1.36119426928,0,0,-0.671082,124.9, 1, 3.4,0,0,1024,1024,1024,1024,123.3,-89.9,97,3.817,3.816,3.808,3.874,3.863,3.82,19.304,64.4,14,Waypoint,
38.0977374,-120.181287,4317.7184035869,78.74016,0,1.1809219538,13610,2018-05-09 18:08:23,16,0,23.001,4317.7184035869,78.74016,0.223694,1.36119426928,0,0,-0.671082,124.6, 0.9, 3.3,0,0,1024,1024,1024,1024,123.3,-89.9,97,3.817,3.816,3.808,3.874,3.863,3.82,19.304,64.4,14,Waypoint,
38.0977374,-120.181287,4319.3588235869,80.38058,0.223694,1.1809219538,13810,2018-05-09 18:08:24,16,0,23.001,4319.3588235869,80.38058,0.223694,1.36119426928,0,0,-0.671082,124, 1, 2.3,0,0,1024,1024,1024,1024,123.3,-89.9,97,3.817,3.816,3.808,3.874,3.863,3.82,19.304,64.4,14,Waypoint,
38.0977373,-120.181287,4320.3430755869,81.364832,0.223694,1.16217523404,13910,2018-05-09 18:08:24,16,0,23.001,4320.3430755869,81.364832,0.223694,1.36119426928,0,0,-0.671082,124, 1.2, 1.3,0,0,1024,1024,1024,1024,123.3,-89.9,97,3.817,3.816,3.808,3.874,3.863,3.82,19.304,64.4,14,Waypoint,
38.0977372,-120.1812869,4321.3273275869,82.349084,0.223694,1.16958008992,14210,2018-05-09 18:08:24,16,0,23.001,4321.3273275869,82.349084,0.223694,1.36119426928,0,0,-0.671082,124.3, 1.4, 0.8,0,0,1024,1024,1024,1024,123.3,-89.9,97,3.817,3.816,3.808,3.874,3.863,3.82,19.304,64.4,14,Waypoint,
38.0977372,-120.1812869,4322.3115795869,83.333336,0.223694,1.16958008992,14300,2018-05-09 18:08:24,16,0,23.001,4322.3115795869,83.333336,0.223694,1.36119426928,0,0,-0.671082,124.9, 1.9, 0.9,0,0,1024,1024,1024,1024,123.3,-89.9,97,3.817,3.816,3.808,3.874,3.863,3.82,19.304,64.4,14,Waypoint,
38.097737,-120.1812866,4326.2485875869,87.270344,0,1.21608271608,14810,2018-05-09 18:08:25,16,0,23.001,4326.2485875869,87.270344,0.223694,1.36119426928,0,0,-0.671082,125.3, 2.1, 1.3,0,0,1024,1024,1024,1024,123.3,-89.9,97,3.817,3.816,3.808,3.874,3.863,3.82,19.304,64.4,14,Waypoint,
38.097737,-120.1812866,4327.2328395869,88.254596,0,1.21608271608,14910,2018-05-09 18:08:25,16,0,23.001,4327.2328395869,88.254596,0.223694,1.36119426928,0,0,-0.671082,124.9, 2, 1.2,0,0,1024,1024,1024,1024,123.3,-89.9,97,3.817,3.816,3.808,3.874,3.863,3.82,19.304,64.4,14,Waypoint,
38.097737,-120.1812866,4328.2170915869,89.238848,0,1.21608271608,15010,2018-05-09 18:08:25,16,0,22.82,4328.2170915869,89.238848,0.223694,1.36119426928,0,0,-0.671082,124.4, 1.8, 1.4,0,0,1024,1024,1024,1024,123.3,-89.9,97,3.772,3.784,3.778,3.835,3.826,3.782,19.836,64.4,14,Waypoint,
38.0977371,-120.1812866,4329.2013435869,90.2231,0,1.23077103676,15110,2018-05-09 18:08:25,16,0,22.82,4329.2013435869,90.2231,0.223694,1.36119426928,0,0,-0.671082,124, 1.2, 1.5,0,0,1024,1024,1024,1024,123.3,-90,97,3.772,3.784,3.778,3.835,3.826,3.782,19.836,64.4,14,Waypoint,
38.0977371,-120.1812866,4330.5136795869,91.535436,0,1.23077103676,15300,2018-05-09 18:08:25,16,0,22.82,4330.5136795869,91.535436,0.223694,1.36119426928,0,0,-0.671082,123.7, 0.6, 1.6,0,0,1024,1024,1024,1024,123.3,-90,97,3.772,3.784,3.778,3.835,3.826,3.782,19.836,64.4,14,Waypoint,
38.0977371,-120.1812867,4332.4821835869,93.50394,0,1.2047080438,15400,2018-05-09 18:08:25,16,0,22.82,4332.4821835869,93.50394,0.223694,1.36119426928,0,0,-0.671082,123.6, 0, 2,0,0,1024,1024,1024,1024,123.3,-89.9,97,3.772,3.784,3.778,3.835,3.826,3.782,19.836,64.4,14,Waypoint,
38.0977373,-120.1812867,4336.7472755869,97.769032,0,1.23741473776,15500,2018-05-09 18:08:25,16,0,22.82,4336.7472755869,97.769032,0.223694,1.36119426928,0,0,-0.671082,124.4, 0.6, 3.4,0,0,1024,1024,1024,1024,123.3,-89.9,97,3.772,3.784,3.778,3.835,3.826,3.782,19.836,64.4,14,Waypoint,
38.0977373,-120.1812867,4338.7157795869,99.737536,0,1.23741473776,15700,2018-05-09 18:08:26,16,0,22.82,4338.7157795869,99.737536,0.223694,1.36119426928,0,0,-0.671082,124.4, 0.3, 3,0,0,1024,1024,1024,1024,123.3,-89.9,97,3.772,3.784,3.778,3.835,3.826,3.782,19.836,64.4,14,Waypoint,
38.0977373,-120.1812867,4339.7000315869,100.721788,0,1.23741473776,15800,2018-05-09 18:08:26,16,0,22.82,4339.7000315869,100.721788,0.223694,1.36119426928,0,0,-0.671082,124.1, 0.5, 2.5,0,0,1024,1024,1024,1024,123.3,-89.9,97,3.772,3.784,3.778,3.835,3.826,3.782,19.836,64.4,14,Waypoint,
38.0977373,-120.1812867,4341.3404515869,102.362208,0,1.23741473776,16000,2018-05-09 18:08:26,16,0,22.849,4341.3404515869,102.362208,0.223694,1.36119426928,0,0,-0.671082,123.8, 0.5, 2.4,0,0,1024,1024,1024,1024,123.4,-89.9,97,3.794,3.795,3.792,3.859,3.848,3.802,19.105,64.4,14,Waypoint,
38.0977373,-120.1812867,4342.3247035869,103.34646,0,1.23741473776,16100,2018-05-09 18:08:26,16,0,22.849,4342.3247035869,103.34646,0.223694,1.36119426928,0,0,-0.671082,123.9, 0.6, 3.2,0,0,1024,1024,1024,1024,123.3,-89.9,97,3.794,3.795,3.792,3.859,3.848,3.802,19.105,64.4,14,Waypoint,
38.0977373,-120.1812866,4343.3089555869,104.330712,0,1.26280187768,16200,2018-05-09 18:08:26,16,0,22.849,4343.3089555869,104.330712,0.223694,1.36119426928,0,0,-0.671082,124.2, 0.6, 3.8,0,0,1024,1024,1024,1024,123.3,-89.9,97,3.794,3.795,3.792,3.859,3.848,3.802,19.105,64.4,14,Waypoint,
38.0977374,-120.1812866,4344.2932075869,105.314964,0,1.28007878112,16310,2018-05-09 18:08:26,16,0,22.849,4344.2932075869,105.314964,0.223694,1.36119426928,0,0,-0.671082,124.3, 0.7, 3.9,0,0,1024,1024,1024,1024,123.3,-89.9,97,3.794,3.795,3.792,3.859,3.848,3.802,19.105,64.4,14,Waypoint,
38.0977374,-120.1812865,4345.2774595869,106.299216,0,1.30526907064,16410,2018-05-09 18:08:26,16,0,22.849,4345.2774595869,106.299216,0.223694,1.36119426928,0,0,-0.671082,124.3, 0.8, 3.9,0,0,1024,1024,1024,1024,123.3,-89.9,97,3.794,3.795,3.792,3.859,3.848,3.802,19.105,64.4,14,Waypoint,
38.0977375,-120.1812865,4346.2617115869,107.283468,0,1.32299544916,16510,2018-05-09 18:08:26,16,0,22.849,4346.2617115869,107.283468,0.223694,1.36119426928,0,0,-0.671082,124.4, 0.6, 3.9,0,0,1024,1024,1024,1024,123.4,-89.9,97,3.794,3.795,3.792,3.859,3.848,3.802,19.105,64.4,14,Waypoint,
38.0977375,-120.1812865,4347.2459635869,108.26772,0,1.32299544916,16610,2018-05-09 18:08:26,16,0,22.849,4347.2459635869,108.26772,0.223694,1.36119426928,0,0,-0.671082,124.5, 0.5, 3.5,0,0,1024,1024,1024,1024,123.4,-89.9,97,3.794,3.795,3.792,3.859,3.848,3.802,19.105,64.4,14,Waypoint,
38.0977375,-120.1812865,4347.9021315869,108.923888,0,1.32299544916,16710,2018-05-09 18:08:27,16,0,22.849,4347.9021315869,108.923888,0.223694,1.36119426928,0,0,-0.671082,124.7, 0.7, 3.1,0,0,1024,1024,1024,1024,123.4,-89.9,97,3.794,3.795,3.792,3.859,3.848,3.802,19.105,64.4,14,Waypoint,
38.0977375,-120.1812866,4348.8863835869,109.90814,0,1.298146367,16810,2018-05-09 18:08:27,16,0,22.849,4348.8863835869,109.90814,0.223694,1.36119426928,0,0,-0.671082,125.1, 0.6, 2.8,0,0,1024,1024,1024,1024,123.4,-89.9,97,3.794,3.795,3.792,3.859,3.848,3.802,19.105,64.4,14,Waypoint,
38.0977375,-120.1812866,4349.8706355869,110.892392,0,1.298146367,16910,2018-05-09 18:08:27,16,0,22.849,4349.8706355869,110.892392,0.223694,1.36119426928,0,0,-0.671082,125.4, 0.5, 2.8,0,0,1024,1024,1024,1024,123.4,-89.9,97,3.794,3.795,3.792,3.859,3.848,3.802,19.105,64.4,14,Waypoint,
38.0977376,-120.1812866,4351.8391395869,112.860896,0,1.31698166944,17100,2018-05-09 18:08:27,16,0,22.849,4351.8391395869,112.860896,0.223694,1.36119426928,0,0,-0.671082,125.3, 0.3, 3.2,0,0,1024,1024,1024,1024,123.4,-89.9,97,3.794,3.795,3.792,3.859,3.848,3.802,19.105,64.4,14,Waypoint,
38.0977376,-120.1812865,4352.8233915869,113.845148,0,1.34147970172,17300,2018-05-09 18:08:27,16,0,22.849,4352.8233915869,113.845148,0.223694,1.36119426928,0,0,-0.671082,125.1, 0.5, 3.7,0,0,1024,1024,1024,1024,123.3,-89.9,97,3.794,3.795,3.792,3.859,3.848,3.802,19.105,64.4,14,Waypoint,
38.0977376,-120.1812865,4353.8076435869,114.8294,0,1.34147970172,17400,2018-05-09 18:08:27,16,0,22.849,4353.8076435869,114.8294,0.223694,1.36119426928,0,0,-0.671082,125, 0.8, 4,0,0,1024,1024,1024,1024,123.3,-89.9,97,3.794,3.795,3.792,3.859,3.848,3.802,19.105,64.4,14,Waypoint,
38.0977376,-120.1812864,4355.4480635869,116.46982,0,1.366141776,17720,2018-05-09 18:08:28,16,0,22.849,4355.4480635869,116.46982,0.223694,1.366141776,0,0,-0.671082,124.7, 1.1, 3.8,0,0,1024,1024,1024,1024,123.3,-89.9,97,3.794,3.795,3.792,3.859,3.848,3.802,19.105,64.4,14,Waypoint,
38.0977374,-120.1812864,4357.4165675869,118.438324,0.223694,1.33060043628,17910,2018-05-09 18:08:28,16,0,22.849,4357.4165675869,118.438324,0.223694,1.366141776,0,0,-0.671082,124.6, 1.4, 2.7,0,0,1024,1024,1024,1024,123.4,-89.9,97,3.794,3.795,3.792,3.859,3.848,3.802,19.105,64.4,14,Waypoint,
38.0977374,-120.1812864,4358.4008195869,119.422576,0.223694,1.33060043628,18000,2018-05-09 18:08:28,16,0,22.727,4358.4008195869,119.422576,0.223694,1.366141776,0,0,-0.671082,124.5, 1.4, 2.1,0,0,1024,1024,1024,1024,123.4,-89.9,97,3.769,3.764,3.77,3.834,3.829,3.774,20.008,64.4,14,Waypoint,
38.0977373,-120.1812865,4359.3850715869,120.406828,0.223694,1.28833009372,18110,2018-05-09 18:08:28,16,0,22.727,4359.3850715869,120.406828,0.223694,1.366141776,0,0,-0.671082,124.1, 1.5, 1.5,0,0,1024,1024,1024,1024,123.3,-89.9,97,3.769,3.764,3.77,3.834,3.829,3.774,20.008,64.4,14,Waypoint,
38.0977371,-120.1812865,4362.3378275869,123.359584,0,1.25695213996,18410,2018-05-09 18:08:28,16,0,22.727,4362.3378275869,123.359584,0.223694,1.366141776,0,0,-0.671082,124.1, 1.9, 2.6,0,0,1024,1024,1024,1024,123.3,-89.9,97,3.769,3.764,3.77,3.834,3.829,3.774,20.008,64.4,14,Waypoint,
38.097737,-120.1812865,4363.3220795869,124.343836,0,1.24257221824,18500,2018-05-09 18:08:28,16,0,22.727,4363.3220795869,124.343836,0.223694,1.366141776,0,0,-0.671082,124.2, 1.8, 2.8,0,0,1024,1024,1024,1024,123.4,-89.9,97,3.769,3.764,3.77,3.834,3.829,3.774,20.008,64.4,14,Waypoint,
38.097737,-120.1812866,4364.3063315869,125.328088,0,1.21608271608,18600,2018-05-09 18:08:28,16,0,22.727,4364.3063315869,125.328088,0.223694,1.366141776,0,0,-0.671082,124.4, 1.8, 2.7,0,0,1024,1024,1024,1024,123.3,-89.9,97,3.769,3.764,3.77,3.834,3.829,3.774,20.008,64.4,14,Waypoint,
38.0977368,-120.1812867,4366.2748355869,127.296592,0,1.1625328456,18700,2018-05-09 18:08:29,16,0,22.727,4366.2748355869,127.296592,0.223694,1.366141776,0,0,-0.671082,124.5, 1.6, 2.2,0,0,1024,1024,1024,1024,123.4,-89.9,97,3.769,3.764,3.77,3.834,3.829,3.774,20.008,64.4,14,Waypoint,
38.0977367,-120.1812868,4368.2433395869,129.265096,0,1.12325462912,18810,2018-05-09 18:08:29,16,0,22.727,4368.2433395869,129.265096,0.223694,1.366141776,0,0,-0.671082,124.5, 1.3, 1.9,0,0,1024,1024,1024,1024,123.4,-89.9,97,3.769,3.764,3.77,3.834,3.829,3.774,20.008,64.4,14,Waypoint,
38.0977367,-120.1812869,4369.2275915869,130.249348,0,1.09613848652,19000,2018-05-09 18:08:29,16,0,22.616,4369.2275915869,130.249348,0.223694,1.366141776,0,0,-0.671082,124.4, 1.2, 1.8,0,0,1024,1024,1024,1024,123.3,-90,97,3.742,3.739,3.749,3.816,3.801,3.757,20.95,64.4,14,Waypoint,
38.0977367,-120.1812869,4370.2118435869,131.2336,0,1.09613848652,19100,2018-05-09 18:08:29,16,0,22.616,4370.2118435869,131.2336,0.223694,1.366141776,0,0,-0.671082,124.3, 1.2, 1.8,0,0,1024,1024,1024,1024,123.4,-89.9,97,3.742,3.739,3.749,3.816,3.801,3.757,20.95,64.4,14,Waypoint,
38.0977367,-120.1812871,4372.5084315869,133.530188,0,1.04216538768,19210,2018-05-09 18:08:29,16,0,22.616,4372.5084315869,133.530188,0.223694,1.366141776,0,0,-0.671082,124.2, 0.9, 2,0,0,1024,1024,1024,1024,123.4,-90,97,3.742,3.739,3.749,3.816,3.801,3.757,20.95,64.4,14,Waypoint,
38.0977366,-120.1812871,4373.4926835869,134.51444,0,1.02996066288,19320,2018-05-09 18:08:29,16,0,22.616,4373.4926835869,134.51444,0.223694,1.366141776,0,0,-0.671082,124.1, 0.6, 2.1,0,0,1024,1024,1024,1024,123.4,-90,97,3.742,3.739,3.749,3.816,3.801,3.757,20.95,64.4,14,Waypoint,
38.0977366,-120.1812871,4373.4926835869,134.51444,0,1.02996066288,19410,2018-05-09 18:08:29,16,0,22.616,4373.4926835869,134.51444,0.223694,1.366141776,0,0,-0.671082,124.1, 0.6, 2.1,0,0,1024,1024,1024,1024,123.4,-90,97,3.742,3.739,3.749,3.816,3.801,3.757,20.95,64.4,14,Waypoint,
38.0977366,-120.1812872,4374.4769355869,135.498692,0,1.002788746,19510,2018-05-09 18:08:29,16,0,22.616,4374.4769355869,135.498692,0.223694,1.366141776,0,0,-0.671082,124.1, 0.3, 2.3,0,0,1024,1024,1024,1024,123.3,-90,97,3.742,3.739,3.749,3.816,3.801,3.757,20.95,64.4,14,Waypoint,
38.0977367,-120.1812872,4375.4611875869,136.482944,0,1.01531827396,19710,2018-05-09 18:08:30,16,0,22.616,4375.4611875869,136.482944,0.223694,1.366141776,0,0,-0.671082,124.2, 0.2, 2.7,0,0,1024,1024,1024,1024,123.4,-90,97,3.742,3.739,3.749,3.816,3.801,3.757,20.95,64.4,14,Waypoint,
38.0977367,-120.1812873,4376.4454395869,137.467196,0,0.98857942796,19810,2018-05-09 18:08:30,16,0,22.616,4376.4454395869,137.467196,0.223694,1.366141776,0,0,-0.671082,124.3, 0.3, 2.8,0,0,1024,1024,1024,1024,123.4,-89.9,97,3.742,3.739,3.749,3.816,3.801,3.757,20.95,64.4,14,Waypoint,
38.0977367,-120.1812873,4378.4139435869,139.4357,0,0.98857942796,19910,2018-05-09 18:08:30,16,0,22.616,4378.4139435869,139.4357,0.223694,1.366141776,0,0,-0.671082,124.4, 0.9, 2.6,0,0,1024,1024,1024,1024,123.3,-89.9,97,3.742,3.739,3.749,3.816,3.801,3.757,20.95,64.4,14,Waypoint,
38.0977367,-120.1812873,4379.7262795869,140.748036,0,0.98857942796,20010,2018-05-09 18:08:30,16,0,22.616,4379.7262795869,140.748036,0.223694,1.366141776,0,0,-0.671082,124.4, 1.1, 2.5,0,0,1024,1024,1024,1024,123.3,-89.9,97,3.742,3.739,3.749,3.816,3.801,3.757,20.95,64.4,14,Waypoint,
38.0977367,-120.1812873,4380.7105315869,141.732288,0,0.98857942796,20210,2018-05-09 18:08:30,16,0,22.616,4380.7105315869,141.732288,0.223694,1.366141776,0,0,-0.671082,124.3, 1.2, 2.4,0,0,1024,1024,1024,1024,123.3,-89.9,97,3.742,3.739,3.749,3.816,3.801,3.757,20.95,64.4,14,Waypoint,
38.0977367,-120.1812873,4382.6790355869,143.700792,0,0.98857942796,20510,2018-05-09 18:08:30,16,0,22.616,4382.6790355869,143.700792,0.223694,1.366141776,0,0,-0.671082,124.3, 1, 2.4,0,0,1024,1024,1024,1024,123.3,-89.9,97,3.742,3.739,3.749,3.816,3.801,3.757,20.95,64.4,14,Waypoint,
38.0977367,-120.1812874,4383.6632875869,144.685044,0,0.96195213052,20610,2018-05-09 18:08:30,16,0,22.616,4383.6632875869,144.685044,0.223694,1.366141776,0,0,-0.671082,124.3, 0.9, 2.4,0,0,1024,1024,1024,1024,123.4,-90,97,3.742,3.739,3.749,3.816,3.801,3.757,20.95,64.4,14,Waypoint,
38.0977367,-120.1812874,4385.6317915869,146.653548,0,0.96195213052,20800,2018-05-09 18:08:31,16,0,22.616,4385.6317915869,146.653548,0.223694,1.366141776,0,0,-0.671082,124.6, 0.9, 2.5,0,0,1024,1024,1024,1024,123.3,-89.9,97,3.742,3.739,3.749,3.816,3.801,3.757,20.95,64.4,14,Waypoint,
38.0977367,-120.1812874,4386.6160435869,147.6378,0,0.96195213052,20910,2018-05-09 18:08:31,16,0,22.616,4386.6160435869,147.6378,0.223694,1.366141776,0,0,-0.671082,124.6, 1, 2.6,0,0,1024,1024,1024,1024,123.4,-89.9,97,3.742,3.739,3.749,3.816,3.801,3.757,20.95,64.4,14,Waypoint,
38.0977367,-120.1812874,4387.6002955869,148.622052,0,0.96195213052,21010,2018-05-09 18:08:31,16,0,22.616,4387.6002955869,148.622052,0.223694,1.366141776,0,0,-0.671082,124.6, 1, 2.6,0,0,1024,1024,1024,1024,123.4,-89.9,97,3.742,3.739,3.749,3.816,3.801,3.757,20.95,64.4,14,Waypoint,
38.0977367,-120.1812874,4389.5687995869,150.590556,0,0.96195213052,21210,2018-05-09 18:08:31,16,0,22.616,4389.5687995869,150.590556,0.223694,1.366141776,0,0,-0.671082,124.5, 1, 2.8,0,0,1024,1024,1024,1024,123.3,-89.9,97,3.742,3.739,3.749,3.816,3.801,3.757,20.95,64.4,14,Waypoint,
38.0977368,-120.1812874,4390.5530515869,151.574808,0,0.97637470316,21400,2018-05-09 18:08:31,16,0,22.616,4390.5530515869,151.574808,0.223694,1.366141776,0,0,-0.671082,124.3, 1, 2.9,0,0,1024,1024,1024,1024,123.3,-89.9,97,3.742,3.739,3.749,3.816,3.801,3.757,20.95,64.4,14,Waypoint,
38.0977368,-120.1812874,4392.5215555869,153.543312,0,0.97637470316,21500,2018-05-09 18:08:31,16,0,22.616,4392.5215555869,153.543312,0.223694,1.366141776,0,0,-0.671082,124.3, 0.8, 2.9,0,0,1024,1024,1024,1024,123.3,-89.9,97,3.742,3.739,3.749,3.816,3.801,3.757,20.95,64.4,14,Waypoint,
38.0977369,-120.1812873,4394.4900595869,155.511816,0,1.01777234228,21600,2018-05-09 18:08:31,16,0,22.616,4394.4900595869,155.511816,0.223694,1.366141776,0,0,-0.671082,124.4, 0.8, 3,0,0,1024,1024,1024,1024,123.4,-89.9,97,3.742,3.739,3.749,3.816,3.801,3.757,20.95,64.4,14,Waypoint,
38.0977369,-120.1812872,4396.4585635869,157.48032,0,1.04376315676,21710,2018-05-09 18:08:32,16,0,22.616,4396.4585635869,157.48032,0.223694,1.366141776,0,0,-0.671082,124.4, 1.1, 3,0,0,1024,1024,1024,1024,123.4,-89.9,97,3.742,3.739,3.749,3.816,3.801,3.757,20.95,64.4,14,Waypoint,
38.0977369,-120.1812872,4398.0989835869,159.12074,0,1.04376315676,21800,2018-05-09 18:08:32,16,0,22.616,4398.0989835869,159.12074,0.223694,1.366141776,0,0,-0.671082,124.5, 1.4, 2.9,0,0,1024,1024,1024,1024,123.3,-89.9,97,3.742,3.739,3.749,3.816,3.801,3.757,20.95,64.4,14,Waypoint,
38.0977369,-120.1812871,4399.0832355869,160.104992,0,1.06989504736,21900,2018-05-09 18:08:32,16,0,22.616,4399.0832355869,160.104992,0.223694,1.366141776,0,0,-0.671082,124.5, 1.4, 3.2,0,0,1024,1024,1024,1024,123.3,-89.9,97,3.742,3.739,3.749,3.816,3.801,3.757,20.95,64.4,14,Waypoint,
38.0977369,-120.1812871,4400.0674875869,161.089244,0,1.06989504736,22000,2018-05-09 18:08:32,16,0,22.563,4400.0674875869,161.089244,0.223694,1.366141776,0,0,-0.671082,124.4, 1.3, 3.3,0,0,1024,1024,1024,1024,123.3,-89.9,96,3.736,3.73,3.734,3.801,3.796,3.74,21.238,66.2,14,Waypoint,
38.0977369,-120.1812871,4401.0517395869,162.073496,0,1.06989504736,22200,2018-05-09 18:08:32,16,0,22.563,4401.0517395869,162.073496,0.223694,1.366141776,0,0,-0.671082,124.5, 1.3, 3.3,0,0,1024,1024,1024,1024,123.3,-89.9,96,3.736,3.73,3.734,3.801,3.796,3.74,21.238,66.2,14,Waypoint,
38.0977369,-120.181287,4402.0359915869,163.057748,0,1.09615817156,22300,2018-05-09 18:08:32,16,0,22.563,4402.0359915869,163.057748,0.223694,1.366141776,0,0,-0.671082,124.5, 1.4, 3.3,0,0,1024,1024,1024,1024,123.3,-89.9,96,3.736,3.73,3.734,3.801,3.796,3.74,21.238,66.2,14,Waypoint,
38.0977369,-120.1812871,4403.3483275869,164.370084,0,1.06989504736,22500,2018-05-09 18:08:32,16,0,22.563,4403.3483275869,164.370084,0.223694,1.366141776,0,0,-0.671082,124.4, 1.5, 3.1,0,0,1024,1024,1024,1024,123.3,-89.9,96,3.736,3.73,3.734,3.801,3.796,3.74,21.238,66.2,14,Waypoint,
38.0977369,-120.1812871,4404.3325795869,165.354336,0,1.06989504736,22700,2018-05-09 18:08:33,16,0,22.563,4404.3325795869,165.354336,0.223694,1.366141776,0,0,-0.671082,124.3, 1.4, 3,0,0,1024,1024,1024,1024,123.3,-90,96,3.736,3.73,3.734,3.801,3.796,3.74,21.238,66.2,14,Waypoint,
38.0977368,-120.1812872,4406.3010835869,167.32284,0,1.02899281508,22900,2018-05-09 18:08:33,16,0,22.563,4406.3010835869,167.32284,0.223694,1.366141776,0,0,-0.671082,124.2, 1.1, 2.7,0,0,1024,1024,1024,1024,123.3,-89.9,96,3.736,3.73,3.734,3.801,3.796,3.74,21.238,66.2,14,Waypoint,
38.0977368,-120.1812872,4407.2853355869,168.307092,0,1.02899281508,23000,2018-05-09 18:08:33,16,0,22.477,4407.2853355869,168.307092,0.223694,1.366141776,0,0,-0.671082,124.1, 1.1, 2.4,0,0,1024,1024,1024,1024,123.3,-89.9,96,3.722,3.723,3.724,3.79,3.785,3.73,21.679,66.2,14,Waypoint,
38.0977368,-120.1812872,4408.2695875869,169.291344,0,1.02899281508,23100,2018-05-09 18:08:33,16,0,22.477,4408.2695875869,169.291344,0.223694,1.366141776,0,0,-0.671082,124.1, 1.2, 2.3,0,0,1024,1024,1024,1024,123.3,-89.9,96,3.722,3.723,3.724,3.79,3.785,3.73,21.679,66.2,14,Waypoint,
38.0977367,-120.1812872,4410.2380915869,171.259848,0,1.01531827396,23210,2018-05-09 18:08:33,16,0,22.477,4410.2380915869,171.259848,0.223694,1.366141776,0,0,-0.671082,124.2, 1.3, 2.6,0,0,1024,1024,1024,1024,123.3,-89.9,96,3.722,3.723,3.724,3.79,3.785,3.73,21.679,66.2,14,Waypoint,
38.0977367,-120.1812873,4412.2065955869,173.228352,0,0.98857942796,23510,2018-05-09 18:08:33,16,0,22.477,4412.2065955869,173.228352,0.223694,1.366141776,0,0,-0.671082,124.5, 1.4, 2.6,0,0,1024,1024,1024,1024,123.4,-89.9,96,3.722,3.723,3.724,3.79,3.785,3.73,21.679,66.2,14,Waypoint,
38.0977367,-120.1812873,4413.1908475869,174.212604,0,0.98857942796,23700,2018-05-09 18:08:34,16,0,22.477,4413.1908475869,174.212604,0.223694,1.366141776,0,0,-0.671082,124.5, 1.3, 2.6,0,0,1024,1024,1024,1024,123.3,-89.9,96,3.722,3.723,3.724,3.79,3.785,3.73,21.679,66.2,14,Waypoint,
38.0977367,-120.1812874,4415.1593515869,176.181108,0,0.96195213052,23800,2018-05-09 18:08:34,16,0,22.477,4415.1593515869,176.181108,0.223694,1.366141776,0,0,-0.671082,124.3, 0.8, 2.9,0,0,1024,1024,1024,1024,123.3,-90,96,3.722,3.723,3.724,3.79,3.785,3.73,21.679,66.2,14,Waypoint,
38.0977368,-120.1812875,4417.1278555869,178.149612,0,0.95027234012,24000,2018-05-09 18:08:34,16,0,22.477,4417.1278555869,178.149612,0.223694,1.366141776,0,0,-0.671082,124.2, 0.5, 2.9,0,0,1024,1024,1024,1024,123.3,-90,96,3.722,3.723,3.724,3.79,3.785,3.73,21.679,66.2,14,Waypoint,
38.0977368,-120.1812875,4418.1121075869,179.133864,0,0.95027234012,24100,2018-05-09 18:08:34,16,0,22.477,4418.1121075869,179.133864,0.223694,1.366141776,0,0,-0.671082,124.2, 0.3, 2.9,0,0,1024,1024,1024,1024,123.4,-90,96,3.722,3.723,3.724,3.79,3.785,3.73,21.679,66.2,14,Waypoint,
38.0977368,-120.1812876,4419.0963595869,180.118116,0,0.9243274574,24200,2018-05-09 18:08:34,16,0,22.477,4419.0963595869,180.118116,0.223694,1.366141776,0,0,-0.671082,124.2, 0.4, 2.9,0,0,1024,1024,1024,1024,123.4,-90,96,3.722,3.723,3.724,3.79,3.785,3.73,21.679,66.2,14,Waypoint,
38.0977369,-120.1812876,4420.0806115869,181.102368,0,0.94074149992,24400,2018-05-09 18:08:34,16,0,22.477,4420.0806115869,181.102368,0.223694,1.366141776,0,0,-0.671082,124.2, 0.4, 2.9,0,0,1024,1024,1024,1024,123.3,-90,96,3.722,3.723,3.724,3.79,3.785,3.73,21.679,66.2,14,Waypoint,
38.0977369,-120.1812877,4422.0491155869,183.070872,0,0.91542653848,24500,2018-05-09 18:08:34,16,0,22.477,4422.0491155869,183.070872,0.223694,1.366141776,0,0,-0.671082,124.2, 0.5, 2.8,0,0,1024,1024,1024,1024,123.3,-89.9,96,3.722,3.723,3.724,3.79,3.785,3.73,21.679,66.2,14,Waypoint,
38.0977369,-120.1812877,4423.0333675869,184.055124,0,0.91542653848,24600,2018-05-09 18:08:34,16,0,22.477,4423.0333675869,184.055124,0.223694,1.366141776,0,0,-0.671082,124.2, 0.5, 2.8,0,0,1024,1024,1024,1024,123.3,-90,96,3.722,3.723,3.724,3.79,3.785,3.73,21.679,66.2,14,Waypoint,
38.0977369,-120.1812877,4425.0018715869,186.023628,0,0.91542653848,24700,2018-05-09 18:08:35,16,0,22.477,4425.0018715869,186.023628,0.223694,1.366141776,0,0,-0.671082,124.2, 0.7, 2.8,0,0,1024,1024,1024,1024,123.3,-89.9,96,3.722,3.723,3.724,3.79,3.785,3.73,21.679,66.2,14,Waypoint,
38.0977369,-120.1812878,4425.9861235869,187.00788,0,0.89031826996,24800,2018-05-09 18:08:35,16,0,22.477,4425.9861235869,187.00788,0.223694,1.366141776,0,0,-0.671082,124.2, 0.8, 2.7,0,0,1024,1024,1024,1024,123.3,-89.9,96,3.722,3.723,3.724,3.79,3.785,3.73,21.679,66.2,14,Waypoint,
38.0977369,-120.1812878,4427.9546275869,188.976384,0,0.89031826996,24900,2018-05-09 18:08:35,16,0,22.477,4427.9546275869,188.976384,0.223694,1.366141776,0,0,-0.671082,124.2, 0.6, 2.8,0,0,1024,1024,1024,1024,123.3,-90,96,3.722,3.723,3.724,3.79,3.785,3.73,21.679,66.2,14,Waypoint,
38.0977369,-120.1812878,4428.9388795869,189.960636,0,0.89031826996,25000,2018-05-09 18:08:35,16,0,22.461,4428.9388795869,189.960636,0.223694,1.366141776,0,0,-0.671082,124.2, 0.6, 2.8,0,0,1024,1024,1024,1024,123.3,-90,96,3.72,3.721,3.717,3.787,3.785,3.728,21.436,66.2,14,Waypoint,
38.0977369,-120.1812879,4429.9231315869,190.944888,0,0.86543309856,25100,2018-05-09 18:08:35,16,0,22.461,4429.9231315869,190.944888,0.223694,1.366141776,0,0,-0.671082,124.3, 0.6, 2.9,0,0,1024,1024,1024,1024,123.4,-90,96,3.72,3.721,3.717,3.787,3.785,3.728,21.436,66.2,14,Waypoint,
38.0977369,-120.1812879,4430.9073835869,191.92914,0,0.86543309856,25200,2018-05-09 18:08:35,16,0,22.461,4430.9073835869,191.92914,0.223694,1.366141776,0,0,-0.671082,124.4, 0.5, 2.6,0,0,1024,1024,1024,1024,123.3,-90,96,3.72,3.721,3.717,3.787,3.785,3.728,21.436,66.2,14,Waypoint,
38.0977369,-120.1812879,4432.8758875869,193.897644,0,0.86543309856,25300,2018-05-09 18:08:35,16,0,22.461,4432.8758875869,193.897644,0.223694,1.366141776,0,0,-0.671082,124.4, 0.3, 2.6,0,0,1024,1024,1024,1024,123.3,-90,96,3.72,3.721,3.717,3.787,3.785,3.728,21.436,66.2,14,Waypoint,
38.0977369,-120.181288,4433.8601395869,194.881896,0,0.84079070932,25400,2018-05-09 18:08:35,16,0,22.461,4433.8601395869,194.881896,0.223694,1.366141776,0,0,-0.671082,124.4, 0.4, 2.7,0,0,1024,1024,1024,1024,123.3,-89.9,96,3.72,3.721,3.717,3.787,3.785,3.728,21.436,66.2,14,Waypoint,
38.0977369,-120.181288,4434.8443915869,195.866148,0,0.84079070932,25500,2018-05-09 18:08:35,16,0,22.461,4434.8443915869,195.866148,0.223694,1.366141776,0,0,-0.671082,124.4, 0.3, 2.7,0,0,1024,1024,1024,1024,123.3,-90,96,3.72,3.721,3.717,3.787,3.785,3.728,21.436,66.2,14,Waypoint,
38.0977369,-120.181288,4435.8286435869,196.8504,0,0.84079070932,25600,2018-05-09 18:08:35,16,0,22.461,4435.8286435869,196.8504,0.223694,1.366141776,0,0,-0.671082,124.4, 0.4, 2.7,0,0,1024,1024,1024,1024,123.3,-89.9,96,3.72,3.721,3.717,3.787,3.785,3.728,21.436,66.2,14,Waypoint,
38.0977368,-120.181288,4436.8128955869,197.834652,0,0.82238191608,25700,2018-05-09 18:08:36,16,0,22.461,4436.8128955869,197.834652,0.223694,1.366141776,0,0,-0.671082,124.3, 0.5, 2.5,0,0,1024,1024,1024,1024,123.3,-89.9,96,3.72,3.721,3.717,3.787,3.785,3.728,21.436,66.2,14,Waypoint,
38.0977368,-120.1812881,4437.7971475869,198.818904,0,0.79744425124,25800,2018-05-09 18:08:36,16,0,22.461,4437.7971475869,198.818904,0.223694,1.366141776,0,0,-0.671082,124.3, 0.6, 2.4,0,0,1024,1024,1024,1024,123.3,-89.9,96,3.72,3.721,3.717,3.787,3.785,3.728,21.436,66.2,14,Waypoint,
38.0977368,-120.1812881,4438.7813995869,199.803156,0,0.79744425124,25900,2018-05-09 18:08:36,16,0,22.461,4438.7813995869,199.803156,0.223694,1.366141776,0,0,-0.671082,124.3, 0.8, 2.4,0,0,1024,1024,1024,1024,123.4,-89.9,96,3.72,3.721,3.717,3.787,3.785,3.728,21.436,66.2,14,Waypoint,
38.0977368,-120.181288,4439.7656515869,200.787408,0,0.82238191608,26000,2018-05-09 18:08:36,16,0,22.419,4439.7656515869,200.787408,0.223694,1.366141776,0,0,-0.671082,124.3, 1, 2.6,0,0,1024,1024,1024,1024,123.3,-89.9,96,3.713,3.708,3.717,3.785,3.769,3.723,21.779,66.2,14,Waypoint,
38.0977368,-120.181288,4440.7499035869,201.77166,0,0.82238191608,26100,2018-05-09 18:08:36,16,0,22.419,4440.7499035869,201.77166,0.223694,1.366141776,0,0,-0.671082,124.4, 1.1, 2.9,0,0,1024,1024,1024,1024,123.4,-89.9,96,3.713,3.708,3.717,3.785,3.769,3.723,21.779,66.2,14,Waypoint,
38.0977367,-120.181288,4441.7341555869,202.755912,0,0.80520671868,26200,2018-05-09 18:08:36,16,0,22.419,4441.7341555869,202.755912,0.223694,1.366141776,0,0,-0.671082,124.4, 1.2, 3.1,0,0,1024,1024,1024,1024,123.3,-89.9,96,3.713,3.708,3.717,3.785,3.769,3.723,21.779,66.2,14,Waypoint,
38.0977367,-120.181288,4442.7184075869,203.740164,0,0.80520671868,26300,2018-05-09 18:08:36,16,0,22.419,4442.7184075869,203.740164,0.223694,1.366141776,0,0,-0.671082,124.3, 1.2, 3.3,0,0,1024,1024,1024,1024,123.3,-89.9,96,3.713,3.708,3.717,3.785,3.769,3.723,21.779,66.2,14,Waypoint,
38.0977368,-120.181288,4444.6869115869,205.708668,0,0.82238191608,26500,2018-05-09 18:08:36,16,0,22.419,4444.6869115869,205.708668,0.223694,1.366141776,0,0,-0.671082,124.2, 0.9, 3.3,0,0,1024,1024,1024,1024,123.3,-89.9,96,3.713,3.708,3.717,3.785,3.769,3.723,21.779,66.2,14,Waypoint,
38.0977368,-120.181288,4445.6711635869,206.69292,0,0.82238191608,26600,2018-05-09 18:08:36,16,0,22.419,4445.6711635869,206.69292,0.223694,1.366141776,0,0,-0.671082,124.2, 0.7, 3.4,0,0,1024,1024,1024,1024,123.3,-90,96,3.713,3.708,3.717,3.785,3.769,3.723,21.779,66.2,14,Waypoint,
38.0977368,-120.181288,4446.6554155869,207.677172,0,0.82238191608,26700,2018-05-09 18:08:37,16,0,22.419,4446.6554155869,207.677172,0.223694,1.366141776,0,0,-0.671082,124.3, 0.7, 3.3,0,0,1024,1024,1024,1024,123.3,-89.9,96,3.713,3.708,3.717,3.785,3.769,3.723,21.779,66.2,14,Waypoint,
38.0977368,-120.181288,4447.6396675869,208.661424,0,0.82238191608,26800,2018-05-09 18:08:37,16,0,22.419,4447.6396675869,208.661424,0.223694,1.366141776,0,0,-0.671082,124.4, 0.7, 3.4,0,0,1024,1024,1024,1024,123.4,-89.9,96,3.713,3.708,3.717,3.785,3.769,3.723,21.779,66.2,14,Waypoint,
38.0977368,-120.181288,4448.6239195869,209.645676,0,0.82238191608,26900,2018-05-09 18:08:37,16,0,22.419,4448.6239195869,209.645676,0.223694,1.366141776,0,0,-0.671082,124.6, 0.8, 3.5,0,0,1024,1024,1024,1024,123.3,-89.9,96,3.713,3.708,3.717,3.785,3.769,3.723,21.779,66.2,14,Waypoint,
38.0977368,-120.1812879,4449.6081715869,210.629928,0,0.84755908224,27000,2018-05-09 18:08:37,16,0,22.375,4449.6081715869,210.629928,0.223694,1.366141776,0,0,-0.671082,124.8, 1, 3.7,0,0,1024,1024,1024,1024,123.4,-89.9,96,3.702,3.697,3.708,3.776,3.766,3.713,22.263,66.2,14,Waypoint,
38.0977368,-120.1812879,4450.5924235869,211.61418,0,0.84755908224,27100,2018-05-09 18:08:37,16,0,22.375,4450.5924235869,211.61418,0.223694,1.366141776,0,0,-0.671082,124.9, 1.2, 3.9,0,0,1024,1024,1024,1024,123.3,-89.9,96,3.702,3.697,3.708,3.776,3.766,3.713,22.263,66.2,14,Waypoint,
38.0977369,-120.1812878,4451.5766755869,212.598432,0,0.89031826996,27200,2018-05-09 18:08:37,16,0,22.375,4451.5766755869,212.598432,0.223694,1.366141776,0,0,-0.671082,125.1, 1.4, 4,0,0,1024,1024,1024,1024,123.4,-89.9,96,3.702,3.697,3.708,3.776,3.766,3.713,22.263,66.2,14,Waypoint,
38.0977369,-120.1812877,4453.2170955869,214.238852,0,0.91542653848,27400,2018-05-09 18:08:37,16,0,22.375,4453.2170955869,214.238852,0.223694,1.366141776,0,0,-0.671082,125, 1.4, 4,0,0,1024,1024,1024,1024,123.3,-89.9,96,3.702,3.697,3.708,3.776,3.766,3.713,22.263,66.2,14,Waypoint,
38.097737,-120.1812875,4455.1855995869,216.207356,0,0.9833169606,27600,2018-05-09 18:08:37,16,0,22.375,4455.1855995869,216.207356,0.223694,1.366141776,0,0,-0.671082,124.8, 1.7, 4.7,0,0,1024,1024,1024,1024,123.3,-89.9,96,3.702,3.697,3.708,3.776,3.766,3.713,22.263,66.2,14,Waypoint,
38.0977371,-120.1812874,4456.1698515869,217.191608,0,1.02622706696,27700,2018-05-09 18:08:38,16,0,22.375,4456.1698515869,217.191608,0.223694,1.366141776,0,0,-0.671082,124.6, 1.7, 4.7,0,0,1024,1024,1024,1024,123.3,-89.9,96,3.702,3.697,3.708,3.776,3.766,3.713,22.263,66.2,14,Waypoint,
38.0977371,-120.1812874,4457.1541035869,218.17586,0,1.02622706696,27800,2018-05-09 18:08:38,16,0,22.375,4457.1541035869,218.17586,0.223694,1.366141776,0,0,-0.671082,124.3, 1.7, 4.9,0,0,1024,1024,1024,1024,123.3,-89.9,96,3.702,3.697,3.708,3.776,3.766,3.713,22.263,66.2,14,Waypoint,
38.0977372,-120.1812873,4458.1383555869,219.160112,0,1.06943244892,27900,2018-05-09 18:08:38,16,0,22.375,4458.1383555869,219.160112,0.223694,1.366141776,0,0,-0.671082,124.2, 1.5, 5,0,0,1024,1024,1024,1024,123.3,-89.9,96,3.702,3.697,3.708,3.776,3.766,3.713,22.263,66.2,14,Waypoint,
38.0977373,-120.1812873,4459.1226075869,220.144364,0,1.08855318444,28000,2018-05-09 18:08:38,16,0,22.421,4459.1226075869,220.144364,0.223694,1.366141776,0,0,-0.671082,124.2, 1.2, 5.2,0,0,1024,1024,1024,1024,123.4,-89.9,96,3.725,3.709,3.709,3.784,3.773,3.71,21.529,66.2,14,Waypoint,
38.0977373,-120.1812872,4461.0911115869,222.112868,0,1.1128937364,28200,2018-05-09 18:08:38,16,0,22.421,4461.0911115869,222.112868,0.223694,1.366141776,0,0,-0.671082,124.3, 0.9, 5.1,0,0,1024,1024,1024,1024,123.3,-90,96,3.725,3.709,3.709,3.784,3.773,3.71,21.529,66.2,14,Waypoint,
38.0977374,-120.1812872,4462.0753635869,223.09712,0,1.13245738532,28300,2018-05-09 18:08:38,16,0,22.421,4462.0753635869,223.09712,0.223694,1.366141776,0,0,-0.671082,124.4, 0.8, 4.7,0,0,1024,1024,1024,1024,123.3,-90,96,3.725,3.709,3.709,3.784,3.773,3.71,21.529,66.2,14,Waypoint,
38.0977373,-120.1812872,4462.7315315869,223.753288,0,1.1128937364,28400,2018-05-09 18:08:38,16,0,22.421,4462.7315315869,223.753288,0.223694,1.366141776,0,0,-0.671082,124.4, 1.1, 4.4,0,0,1024,1024,1024,1024,123.4,-89.9,96,3.725,3.709,3.709,3.784,3.773,3.71,21.529,66.2,14,Waypoint,
38.0977373,-120.1812871,4463.7157835869,224.73754,0,1.13743770044,28500,2018-05-09 18:08:38,16,0,22.421,4463.7157835869,224.73754,0.223694,1.366141776,0,0,-0.671082,124.4, 1.4, 4.2,0,0,1024,1024,1024,1024,123.3,-89.9,96,3.725,3.709,3.709,3.784,3.773,3.71,21.529,66.2,14,Waypoint,
38.0977372,-120.1812871,4464.7000355869,225.721792,0,1.11915357912,28600,2018-05-09 18:08:38,16,0,22.421,4464.7000355869,225.721792,0.223694,1.366141776,0,0,-0.671082,124.3, 1.5, 4.1,0,0,1024,1024,1024,1024,123.3,-89.9,96,3.725,3.709,3.709,3.784,3.773,3.71,21.529,66.2,14,Waypoint,
38.0977372,-120.1812871,4465.6842875869,226.706044,0,1.11915357912,28700,2018-05-09 18:08:39,16,0,22.421,4465.6842875869,226.706044,0.223694,1.366141776,0,0,-0.671082,124.1, 1.4, 4,0,0,1024,1024,1024,1024,123.3,-89.9,96,3.725,3.709,3.709,3.784,3.773,3.71,21.529,66.2,14,Waypoint,
38.0977372,-120.1812872,4466.6685395869,227.690296,0,1.09419622924,28800,2018-05-09 18:08:39,16,0,22.421,4466.6685395869,227.690296,0.223694,1.366141776,0,0,-0.671082,124, 1.2, 3.9,0,0,1024,1024,1024,1024,123.3,-89.9,96,3.725,3.709,3.709,3.784,3.773,3.71,21.529,66.2,14,Waypoint,
38.0977371,-120.1812872,4467.6527915869,228.674548,0,1.07641407644,28900,2018-05-09 18:08:39,16,0,22.421,4467.6527915869,228.674548,0.223694,1.366141776,0,0,-0.671082,123.9, 0.8, 3.7,0,0,1024,1024,1024,1024,123.3,-90,96,3.725,3.709,3.709,3.784,3.773,3.71,21.529,66.2,14,Waypoint,
38.0977371,-120.1812872,4468.6370435869,229.6588,0,1.07641407644,29000,2018-05-09 18:08:39,16,0,22.354,4468.6370435869,229.6588,0.223694,1.366141776,0,0,-0.671082,123.8, 0.7, 3.4,0,0,1024,1024,1024,1024,123.3,-90,95,3.703,3.706,3.699,3.77,3.77,3.701,22.01,66.2,14,Waypoint,
38.097737,-120.1812872,4469.6212955869,230.643052,0,1.05958664808,29100,2018-05-09 18:08:39,16,0,22.354,4469.6212955869,230.643052,0.223694,1.366141776,0,0,-0.671082,123.9, 0.9, 3.2,0,0,1024,1024,1024,1024,123.3,-89.9,95,3.703,3.706,3.699,3.77,3.77,3.701,22.01,66.2,14,Waypoint,
38.097737,-120.1812873,4470.6055475869,231.627304,0,1.03399281524,29200,2018-05-09 18:08:39,16,0,22.354,4470.6055475869,231.627304,0.223694,1.366141776,0,0,-0.671082,124, 1.1, 2.9,0,0,1024,1024,1024,1024,123.4,-89.9,95,3.703,3.706,3.699,3.77,3.77,3.701,22.01,66.2,14,Waypoint,
38.0977369,-120.1812873,4471.5897995869,232.611556,0,1.01777234228,29300,2018-05-09 18:08:39,16,0,22.354,4471.5897995869,232.611556,0.223694,1.366141776,0,0,-0.671082,124.2, 1.2, 2.7,0,0,1024,1024,1024,1024,123.3,-89.9,95,3.703,3.706,3.699,3.77,3.77,3.701,22.01,66.2,14,Waypoint,
38.0977368,-120.1812872,4472.5740515869,233.595808,0,1.02899281508,29400,2018-05-09 18:08:39,16,0,22.354,4472.5740515869,233.595808,0.223694,1.366141776,0,0,-0.671082,124.5, 1.5, 2.7,0,0,1024,1024,1024,1024,123.3,-89.9,95,3.703,3.706,3.699,3.77,3.77,3.701,22.01,66.2,14,Waypoint,
38.0977367,-120.1812872,4473.5583035869,234.58006,0,1.01531827396,29500,2018-05-09 18:08:39,16,0,22.354,4473.5583035869,234.58006,0.223694,1.366141776,0,0,-0.671082,124.7, 1.7, 2.9,0,0,1024,1024,1024,1024,123.3,-89.9,95,3.703,3.706,3.699,3.77,3.77,3.701,22.01,66.2,14,Waypoint,
38.0977367,-120.1812872,4474.5425555869,235.564312,0,1.01531827396,29600,2018-05-09 18:08:39,16,0,22.354,4474.5425555869,235.564312,0.223694,1.366141776,0,0,-0.671082,124.8, 1.6, 3.1,0,0,1024,1024,1024,1024,123.3,-89.9,95,3.703,3.706,3.699,3.77,3.77,3.701,22.01,66.2,14,Waypoint,
38.0977366,-120.1812872,4475.5268075869,236.548564,0,1.002788746,29700,2018-05-09 18:08:40,16,0,22.354,4475.5268075869,236.548564,0.223694,1.366141776,0,0,-0.671082,124.8, 1.6, 3.3,0,0,1024,1024,1024,1024,123.4,-89.9,95,3.703,3.706,3.699,3.77,3.77,3.701,22.01,66.2,14,Waypoint,
38.0977366,-120.1812872,4476.5110595869,237.532816,0,1.002788746,29800,2018-05-09 18:08:40,16,0,22.354,4476.5110595869,237.532816,0.223694,1.366141776,0,0,-0.671082,124.8, 2, 3.3,0,0,1024,1024,1024,1024,123.4,-89.9,95,3.703,3.706,3.699,3.77,3.77,3.701,22.01,66.2,14,Waypoint,
38.0977365,-120.1812872,4477.8233955869,238.845152,0,0.99144032044,29900,2018-05-09 18:08:40,16,0,22.354,4477.8233955869,238.845152,0.223694,1.366141776,0,0,-0.671082,124.6, 2, 3.3,0,0,1024,1024,1024,1024,123.3,-89.9,95,3.703,3.706,3.699,3.77,3.77,3.701,22.01,66.2,14,Waypoint,
