latitude,longitude,altitude(feet),ascent(feet),speed(mph),distance(feet),time(millisecond),datetime(utc),satellites,gpslevel,voltage(v),max_altitude(feet),max_ascent(feet),max_speed(mph),max_distance(feet), xSpeed(mph), ySpeed(mph), zSpeed(mph), compass_heading(degrees), pitch(degrees), roll(degrees),isPhoto,isVideo,rc_elevator,rc_aileron,rc_throttle,rc_rudder,gimbal_heading(degrees),gimbal_pitch(degrees),battery_percent,voltageCell1,voltageCell2,voltageCell3,voltageCell4,voltageCell5,voltageCell6,current(A),battery_temperature(f),flycStateRaw,flycState,message
38.0977241,-120.1812934,4238.6161979717,0,0,0,2920,2018-05-09 19:33:11,15,0,0,4238.6161979717,0,0,0,0,0,0,125.7, 0.8, 0,1,0,1024,1024,1024,1024,126.1,-89.9,100,4.168,4.186,4.296,4.291,4.301,4.287,0,77,11,AutoTakeoff,DJI_0277.jpg Starting Mission from Lat/Long: 38.09773/-120.18130 Camera: Zenmuse X3 - Overlap: 90/90 - Active Connection: No
38.0977241,-120.1812933,4238.6161979717,0,0,0.0287121728348,3000,2018-05-09 19:33:11,15,0,25.652,4238.6161979717,0,0,0.0287121728348,0,0,0,125.7, 1.1, 0,0,0,1024,1024,1024,1024,126.1,-89.9,100,4.168,4.186,4.296,4.291,4.301,4.287,5.887,77,11,AutoTakeoff,
38.0977241,-120.1812933,4238.6161979717,0,0,0.0287121728348,3100,2018-05-09 19:33:11,15,0,25.652,4238.6161979717,0,0,0.0287121728348,0,0,0,125.7, 1.2, 0.4,0,0,1024,1024,1024,1024,126.1,-89.9,100,4.168,4.186,4.296,4.291,4.301,4.287,5.887,77,11,AutoTakeoff,
38.0977241,-120.1812932,4238.9442819717,0.328084,0,0.057424214436,3200,2018-05-09 19:33:11,15,0,25.652,4238.9442819717,0.328084,0,0.057424214436,0,0,0,125.8, 1, 0.6,0,0,1024,1024,1024,1024,126.1,-89.9,100,4.168,4.186,4.296,4.291,4.301,4.287,5.887,77,11,AutoTakeoff,
38.0977241,-120.1812931,4238.9442819717,0.328084,0,0.086136485696,3300,2018-05-09 19:33:11,15,0,25.652,4238.9442819717,0.328084,0,0.086136485696,0,0,0,125.8, 0.7, 0.9,0,0,1024,1024,1024,1024,126.1,-89.9,100,4.168,4.186,4.296,4.291,4.301,4.287,5.887,77,11,AutoTakeoff,
38.0977241,-120.181293,4238.9442819717,0.328084,0,0.114848756956,3400,2018-05-09 19:33:11,15,0,25.652,4238.9442819717,0.328084,0,0.114848756956,0,0,0,125.7, 0.5, 0.9,0,0,1024,1024,1024,1024,126.1,-89.9,100,4.168,4.186,4.296,4.291,4.301,4.287,5.887,77,11,AutoTakeoff,
38.0977241,-120.1812928,4239.2723659717,0.656168,0,0.172272971392,3500,2018-05-09 19:33:11,15,0,25.652,4239.2723659717,0.656168,0,0.172272971392,0,0,0,125.7, 0.4, 0.9,0,0,1024,1024,1024,1024,126.1,-89.9,100,4.168,4.186,4.296,4.291,4.301,4.287,5.887,77,11,AutoTakeoff,
38.0977241,-120.1812927,4239.2723659717,0.656168,0,0.200985242652,3600,2018-05-09 19:33:11,15,0,25.652,4239.2723659717,0.656168,0,0.200985242652,0,0,0,125.6, 0.4, 0.9,0,0,1024,1024,1024,1024,126.1,-90,100,4.168,4.186,4.296,4.291,4.301,4.287,5.887,77,11,AutoTakeoff,
38.0977241,-120.1812926,4239.6004499717,0.984252,0,0.229697513912,3700,2018-05-09 19:33:11,15,0,25.652,4239.6004499717,0.984252,0,0.229697513912,0,0,0,125.5, 0.2, 0.8,0,0,1024,1024,1024,1024,126.1,-90,100,4.168,4.186,4.296,4.291,4.301,4.287,5.887,77,11,AutoTakeoff,
38.097724,-120.1812926,4239.6004499717,0.984252,0,0.23257710718,3800,2018-05-09 19:33:12,15,0,25.652,4239.6004499717,0.984252,0,0.23257710718,0,0,0,125.4, 0.1, 0.4,0,0,1024,1024,1024,1024,126.1,-89.9,100,4.168,4.186,4.296,4.291,4.301,4.287,5.887,77,11,AutoTakeoff,
38.097724,-120.1812926,4239.9285339717,1.312336,0,0.23257710718,3900,2018-05-09 19:33:12,15,0,25.652,4239.9285339717,1.312336,0,0.23257710718,0,0,0,125.4, 0.2, 0.1,0,0,1024,1024,1024,1024,126.1,-89.9,100,4.168,4.186,4.296,4.291,4.301,4.287,5.887,77,11,AutoTakeoff,
38.097724,-120.1812925,4239.9285339717,1.312336,0,0.260972449296,4000,2018-05-09 19:33:12,15,0,24.559,4239.9285339717,1.312336,0,0.260972449296,0,0,0,125.3, 0.4, 0.1,0,0,1024,1024,1024,1024,126.1,-89.9,100,4.168,4.186,4.296,4.291,4.301,4.287,15.87,77,11,AutoTakeoff,
38.0977239,-120.1812924,4240.2566179717,1.64042,0,0.296249025228,4100,2018-05-09 19:33:12,15,0,24.559,4240.2566179717,1.64042,0,0.296249025228,0,0,-0.223694,125.2, 0.6, 0.2,0,0,1024,1024,1024,1024,126.1,-89.9,100,4.168,4.186,4.296,4.291,4.301,4.287,15.87,77,11,AutoTakeoff,
38.0977239,-120.1812924,4240.2566179717,1.64042,0,0.296249025228,4200,2018-05-09 19:33:12,15,0,24.559,4240.2566179717,1.64042,0,0.296249025228,0,0,-0.223694,125.2, 0.9, 0.2,0,0,1024,1024,1024,1024,126.1,-89.9,100,4.168,4.186,4.296,4.291,4.301,4.287,15.87,77,11,AutoTakeoff,
38.0977238,-120.1812923,4240.5847019717,1.968504,0,0.33426182172,4300,2018-05-09 19:33:12,15,0,24.559,4240.5847019717,1.968504,0,0.33426182172,0,0,0,125.4, 0.8, 0.1,0,0,1024,1024,1024,1024,126.1,-89.9,100,4.168,4.186,4.296,4.291,4.301,4.287,15.87,77,11,AutoTakeoff,
38.0977237,-120.1812923,4240.5847019717,1.968504,0,0.34792323948,4400,2018-05-09 19:33:12,15,0,24.559,4240.5847019717,1.968504,0,0.34792323948,0,0,0,125.6, 0.6, -0.2,0,0,1024,1024,1024,1024,126.1,-89.9,100,4.168,4.186,4.296,4.291,4.301,4.287,15.87,77,11,AutoTakeoff,
38.0977237,-120.1812923,4240.9127859717,2.296588,0,0.34792323948,4500,2018-05-09 19:33:12,15,0,24.559,4240.9127859717,2.296588,0,0.34792323948,0,0,0,125.8, 0.8, -0.2,0,0,1024,1024,1024,1024,126.1,-89.9,100,4.168,4.186,4.296,4.291,4.301,4.287,15.87,77,11,AutoTakeoff,
38.0977237,-120.1812924,4240.9127859717,2.296588,0,0.322082687472,4600,2018-05-09 19:33:12,15,0,24.559,4240.9127859717,2.296588,0,0.34792323948,0,0,-0.223694,126, 0.9, -0.3,0,0,1024,1024,1024,1024,126.1,-89.9,100,4.168,4.186,4.296,4.291,4.301,4.287,15.87,77,11,AutoTakeoff,
38.0977237,-120.1812924,4241.2408699717,2.624672,0,0.322082687472,4700,2018-05-09 19:33:12,15,0,24.559,4241.2408699717,2.624672,0,0.34792323948,0,0,-0.223694,126.2, 0.7, -0.6,0,0,1024,1024,1024,1024,126.1,-89.9,100,4.168,4.186,4.296,4.291,4.301,4.287,15.87,77,11,AutoTakeoff,
38.0977236,-120.1812924,4241.5689539717,2.952756,0,0.3401738954,4800,2018-05-09 19:33:13,15,0,24.559,4241.5689539717,2.952756,0,0.34792323948,0,0,-0.223694,126.2, 0.4, -0.7,0,0,1024,1024,1024,1024,126.1,-90,100,4.168,4.186,4.296,4.291,4.301,4.287,15.87,77,11,AutoTakeoff,
38.0977236,-120.1812924,4241.5689539717,2.952756,0,0.3401738954,4910,2018-05-09 19:33:13,14,0,24.559,4241.5689539717,2.952756,0,0.34792323948,0,0,-0.223694,126.1, 0.2, -0.5,0,0,1024,1024,1024,1024,126.1,-90,100,4.168,4.186,4.296,4.291,4.301,4.287,15.87,77,14,Waypoint,
38.0977236,-120.1812925,4241.8970379717,3.28084,0,0.316313658416,5010,2018-05-09 19:33:13,14,0,24.559,4241.8970379717,3.28084,0,0.34792323948,0,0,0,126.2, -0.1, -0.3,0,0,1024,1024,1024,1024,126.1,-90,100,4.061,4.094,4.085,4.088,4.088,4.189,15.87,77,14,Waypoint,
38.0977236,-120.1812925,4241.8970379717,3.28084,0,0.316313658416,5100,2018-05-09 19:33:13,15,0,24.559,4241.8970379717,3.28084,0,0.34792323948,0,0,0,126.4, -0.4, -0.2,0,0,1024,1024,1024,1024,126.1,-90,100,4.061,4.094,4.085,4.088,4.088,4.189,15.87,77,14,Waypoint,
38.0977236,-120.1812926,4241.8970379717,3.28084,0,0.29332514062,5200,2018-05-09 19:33:13,15,0,24.559,4241.8970379717,3.28084,0,0.34792323948,0,0,0,126.6, -0.3, 0,0,0,1024,1024,1024,1024,126.1,-90,100,4.061,4.094,4.085,4.088,4.088,4.189,15.87,77,14,Waypoint,
38.0977236,-120.1812925,4242.2251219717,3.608924,0,0.316313658416,5300,2018-05-09 19:33:13,15,0,24.559,4242.2251219717,3.608924,0,0.34792323948,0,0,0,126.9, -0.1, 0,0,0,1024,1024,1024,1024,126.1,-90,100,4.061,4.094,4.085,4.088,4.088,4.189,15.87,77,14,Waypoint,
38.0977236,-120.1812926,4242.5532059717,3.937008,0,0.29332514062,5500,2018-05-09 19:33:13,15,0,24.559,4242.5532059717,3.937008,0,0.34792323948,0,0,-0.223694,127.5, 0.1, 0.4,0,0,1024,1024,1024,1024,126.1,-89.9,100,4.061,4.094,4.085,4.088,4.088,4.189,15.87,77,14,Waypoint,
38.0977235,-120.1812926,4242.8812899717,4.265092,0,0.31730480018,5600,2018-05-09 19:33:13,15,0,24.559,4242.8812899717,4.265092,0,0.34792323948,0,0,-0.223694,127.9, 0.3, 0.3,0,0,1024,1024,1024,1024,126.1,-89.9,100,4.061,4.094,4.085,4.088,4.088,4.189,15.87,77,14,Waypoint,
38.0977235,-120.1812927,4243.2093739717,4.593176,0,0.297180783788,5700,2018-05-09 19:33:13,14,0,24.559,4243.2093739717,4.593176,0,0.34792323948,0,0,-0.223694,128.2, 0.2, 0,0,0,1024,1024,1024,1024,126.2,-89.9,100,4.061,4.094,4.085,4.088,4.088,4.189,15.87,77,14,Waypoint,
38.0977236,-120.1812927,4243.5374579717,4.92126,0,0.271429142544,5800,2018-05-09 19:33:14,14,0,24.559,4243.5374579717,4.92126,0,0.34792323948,0,0,-0.223694,128.6, 0, -0.1,0,0,1024,1024,1024,1024,126.2,-90,100,4.061,4.094,4.085,4.088,4.088,4.189,15.87,77,14,Waypoint,
38.0977235,-120.1812928,4243.8655419717,5.249344,0,0.278566609964,5900,2018-05-09 19:33:14,15,0,24.559,4243.8655419717,5.249344,0,0.34792323948,0,0,-0.223694,129.1, -0.3, -0.2,0,0,1024,1024,1024,1024,126.3,-90,100,4.061,4.094,4.085,4.088,4.088,4.189,15.87,77,14,Waypoint,
38.0977235,-120.1812929,4244.5217099717,5.905512,0,0.261784457196,6000,2018-05-09 19:33:14,15,0,24.377,4244.5217099717,5.905512,0,0.34792323948,0,0,-0.447388,129.4, -0.5, -0.4,0,0,1024,1024,1024,1024,126.4,-90,100,4.042,4.07,4.057,4.056,4.06,4.052,16.769,77,14,Waypoint,
38.0977235,-120.1812929,4245.1778779717,6.56168,0,0.261784457196,6100,2018-05-09 19:33:14,15,0,24.377,4245.1778779717,6.56168,0,0.34792323948,0,0,-0.447388,129.5, -0.4, -0.4,0,0,1024,1024,1024,1024,126.5,-90,100,4.042,4.07,4.057,4.056,4.06,4.052,16.769,77,14,Waypoint,
38.0977236,-120.181293,4245.8340459717,7.217848,0,0.215566607948,6200,2018-05-09 19:33:14,15,0,24.377,4245.8340459717,7.217848,0,0.34792323948,0,0,-0.447388,129.4, -0.2, -0.1,0,0,1024,1024,1024,1024,126.5,-89.9,100,4.042,4.07,4.057,4.056,4.06,4.052,16.769,77,14,Waypoint,
38.0977236,-120.181293,4246.4902139717,7.874016,0,0.215566607948,6300,2018-05-09 19:33:14,15,0,24.377,4246.4902139717,7.874016,0,0.34792323948,0,0,-0.447388,129.1, 0, 0.2,0,0,1024,1024,1024,1024,126.6,-89.9,100,4.042,4.07,4.057,4.056,4.06,4.052,16.769,77,14,Waypoint,
38.0977237,-120.181293,4247.1463819717,8.530184,0,0.185711292032,6400,2018-05-09 19:33:14,15,0,24.377,4247.1463819717,8.530184,0,0.34792323948,0,0,-0.447388,128.7, 0, 0.7,0,0,1024,1024,1024,1024,126.7,-90,100,4.042,4.07,4.057,4.056,4.06,4.052,16.769,77,14,Waypoint,
38.0977237,-120.1812927,4248.1306339717,9.514436,0,0.248381569628,6500,2018-05-09 19:33:14,15,0,24.377,4248.1306339717,9.514436,0,0.34792323948,0,0,-0.671082,128.4, -0.3, 1.1,0,0,1024,1024,1024,1024,126.7,-90,100,4.042,4.07,4.057,4.056,4.06,4.052,16.769,77,14,Waypoint,
38.0977237,-120.1812925,4249.1148859717,10.498688,0,0.296772647292,6600,2018-05-09 19:33:14,15,0,24.377,4249.1148859717,10.498688,0,0.34792323948,0,0,-0.671082,128.2, -0.3, 1,0,0,1024,1024,1024,1024,126.8,-89.9,100,4.042,4.07,4.057,4.056,4.06,4.052,16.769,77,14,Waypoint,
38.0977237,-120.1812925,4250.0991379717,11.48294,0,0.296772647292,6700,2018-05-09 19:33:14,15,0,24.377,4250.0991379717,11.48294,0,0.34792323948,0,0,-0.671082,128.2, 0, 0.8,0,0,1024,1024,1024,1024,126.8,-89.9,100,4.042,4.07,4.057,4.056,4.06,4.052,16.769,77,14,Waypoint,
38.0977237,-120.1812926,4251.0833899717,12.467192,0,0.272138460152,6800,2018-05-09 19:33:15,15,0,24.377,4251.0833899717,12.467192,0,0.34792323948,0,0,-0.671082,128.2, 0.1, 0.6,0,0,1024,1024,1024,1024,126.9,-89.9,100,4.042,4.07,4.057,4.056,4.06,4.052,16.769,77,14,Waypoint,
38.0977236,-120.1812925,4252.0676419717,13.451444,0,0.316313658416,6900,2018-05-09 19:33:15,15,0,24.377,4252.0676419717,13.451444,0,0.34792323948,0,0,-0.671082,128.2, 0.2, 0.1,0,0,1024,1024,1024,1024,127,-89.9,100,4.042,4.07,4.057,4.056,4.06,4.052,16.769,77,14,Waypoint,
38.0977236,-120.1812925,4253.3799779717,14.76378,0,0.316313658416,7000,2018-05-09 19:33:15,15,0,24.285,4253.3799779717,14.76378,0,0.34792323948,0,0,-0.671082,128.1, 0.2, -0.1,0,0,1024,1024,1024,1024,127,-90,98,4.023,4.032,4.014,4.014,4.027,3.987,16.853,77,14,Waypoint,
38.0977236,-120.1812924,4254.3642299717,15.748032,0,0.3401738954,7100,2018-05-09 19:33:15,15,0,24.285,4254.3642299717,15.748032,0,0.34792323948,0,0,-0.671082,128, 0, -0.2,0,0,1024,1024,1024,1024,127,-90,98,4.023,4.032,4.014,4.014,4.027,3.987,16.853,77,14,Waypoint,
38.0977236,-120.1812924,4255.6765659717,17.060368,0,0.3401738954,7300,2018-05-09 19:33:15,15,0,24.285,4255.6765659717,17.060368,0,0.34792323948,0,0,-0.671082,128.1, 0, -0.1,0,0,1024,1024,1024,1024,127.1,-90,98,4.023,4.032,4.014,4.014,4.027,3.987,16.853,77,14,Waypoint,
38.0977236,-120.1812924,4256.6608179717,18.04462,0,0.3401738954,7400,2018-05-09 19:33:15,14,0,24.285,4256.6608179717,18.04462,0,0.34792323948,0,0,-0.671082,128.2, -0.1, 0,0,0,1024,1024,1024,1024,127.1,-90,98,4.023,4.032,4.014,4.014,4.027,3.987,16.853,77,14,Waypoint,
38.0977235,-120.1812924,4257.6450699717,19.028872,0,0.36105316116,7500,2018-05-09 19:33:15,14,0,24.285,4257.6450699717,19.028872,0,0.36105316116,0,0,-0.671082,128.4, -0.2, 0.2,0,0,1024,1024,1024,1024,127.2,-90,98,4.023,4.032,4.014,4.014,4.027,3.987,16.853,77,14,Waypoint,
38.097724,-120.1812924,4259.9416579717,21.32546,0,0.289430455456,7600,2018-05-09 19:33:15,15,0,24.285,4259.9416579717,21.32546,0,0.36105316116,0,0,-0.671082,128.5, -0.3, 0.6,0,0,1024,1024,1024,1024,127.2,-90,98,4.023,4.032,4.014,4.014,4.027,3.987,16.853,77,14,Waypoint,
38.0977241,-120.1812925,4260.9259099717,22.309712,0,0.258409457088,7700,2018-05-09 19:33:15,15,0,24.285,4260.9259099717,22.309712,0,0.36105316116,0,0,-0.671082,128.6, -0.5, 1.3,0,0,1024,1024,1024,1024,127.3,-90,98,4.023,4.032,4.014,4.014,4.027,3.987,16.853,77,14,Waypoint,
38.0977244,-120.1812927,4262.8944139717,24.278216,0,0.22885663462,7900,2018-05-09 19:33:16,15,0,24.285,4262.8944139717,24.278216,0,0.36105316116,0,0,-0.671082,129.4, -1, 1.9,0,0,1024,1024,1024,1024,127.4,-90,98,4.023,4.032,4.014,4.014,4.027,3.987,16.853,77,14,Waypoint,
38.0977246,-120.1812928,4264.2067499717,25.590552,0,0.250911753436,8000,2018-05-09 19:33:16,15,0,23.659,4264.2067499717,25.590552,0,0.36105316116,0,0,-0.671082,129.7, -1.2, 1.6,0,0,1024,1024,1024,1024,127.4,-90,98,3.913,3.962,3.952,3.944,3.953,3.94,23.545,77,14,Waypoint,
38.0977245,-120.1812929,4265.1910019717,26.574804,0,0.204714901564,8100,2018-05-09 19:33:16,15,0,23.659,4265.1910019717,26.574804,0,0.36105316116,0,0,-0.671082,129.8, -1.3, 1.3,0,0,1024,1024,1024,1024,127.4,-90,98,3.913,3.962,3.952,3.944,3.953,3.94,23.545,77,14,Waypoint,
38.0977243,-120.1812931,4266.1752539717,27.559056,0,0.112889767392,8200,2018-05-09 19:33:16,15,0,23.659,4266.1752539717,27.559056,0,0.36105316116,0,0,-0.671082,129.8, -1.2, 0.9,0,0,1024,1024,1024,1024,127.5,-90,98,3.913,3.962,3.952,3.944,3.953,3.94,23.545,77,14,Waypoint,
38.0977243,-120.1812933,4267.4875899717,28.871392,0,0.07841535684,8300,2018-05-09 19:33:16,16,0,23.659,4267.4875899717,28.871392,0,0.36105316116,0,0,-0.671082,129.8, -0.9, 0.3,0,0,1024,1024,1024,1024,127.5,-90,98,3.913,3.962,3.952,3.944,3.953,3.94,23.545,77,14,Waypoint,
38.0977243,-120.1812936,4268.4718419717,29.855644,0,0.092855646016,8400,2018-05-09 19:33:16,16,0,23.659,4268.4718419717,29.855644,0,0.36105316116,0,0,-0.671082,129.6, -1.1, -0.1,0,0,1024,1024,1024,1024,127.5,-90,98,3.913,3.962,3.952,3.944,3.953,3.94,23.545,77,14,Waypoint,
38.0977243,-120.1812937,4269.4560939717,30.839896,0,0.112889767392,8500,2018-05-09 19:33:16,14,0,23.659,4269.4560939717,30.839896,0,0.36105316116,0,0,-0.671082,129.3, -1.4, -0.3,0,0,1024,1024,1024,1024,127.5,-90,98,3.913,3.962,3.952,3.944,3.953,3.94,23.545,77,14,Waypoint,
38.0977242,-120.1812939,4270.4403459717,31.824148,0,0.148124676656,8600,2018-05-09 19:33:16,14,0,23.659,4270.4403459717,31.824148,0,0.36105316116,0,0,-0.671082,129, -1.5, -0.3,0,0,1024,1024,1024,1024,127.6,-90,98,3.913,3.962,3.952,3.944,3.953,3.94,23.545,77,14,Waypoint,
38.0977242,-120.181294,4271.4245979717,32.8084,0,0.17609416574,8700,2018-05-09 19:33:16,17,0,23.659,4271.4245979717,32.8084,0,0.36105316116,0,0,-0.671082,128.7, -1.4, -0.3,0,0,1024,1024,1024,1024,127.6,-90,98,3.913,3.962,3.952,3.944,3.953,3.94,23.545,77,14,Waypoint,
38.0977242,-120.181294,4272.7369339717,34.120736,0,0.17609416574,8800,2018-05-09 19:33:17,17,0,23.659,4272.7369339717,34.120736,0,0.36105316116,0,0,-0.671082,128.6, -1.4, -0.2,0,0,1024,1024,1024,1024,127.6,-90,98,3.913,3.962,3.952,3.944,3.953,3.94,23.545,77,14,Waypoint,
38.0977242,-120.1812942,4273.7211859717,35.104988,0,0.23257710718,8900,2018-05-09 19:33:17,16,0,23.659,4273.7211859717,35.104988,0,0.36105316116,0,0,-0.671082,128.6, -1.5, -0.3,0,0,1024,1024,1024,1024,127.6,-90,98,3.913,3.962,3.952,3.944,3.953,3.94,23.545,77,14,Waypoint,
38.0977242,-120.1812943,4274.7054379717,36.08924,0,0.260972449296,9000,2018-05-09 19:33:17,16,0,24.021,4274.7054379717,36.08924,0,0.36105316116,0,0,-0.671082,128.7, -2, -0.5,0,0,1024,1024,1024,1024,127.7,-90,98,3.984,4.018,4.01,4.003,4.01,4.005,19.161,77,14,Waypoint,
38.0977242,-120.1812944,4275.6896899717,37.073492,0,0.289430455456,9100,2018-05-09 19:33:17,16,0,24.021,4275.6896899717,37.073492,0,0.36105316116,0,0,-0.671082,128.9, -2.1, -0.4,0,0,1024,1024,1024,1024,127.7,-89.9,98,3.984,4.018,4.01,4.003,4.01,4.005,19.161,77,14,Waypoint,
38.0977243,-120.1812944,4277.0020259717,38.385828,0,0.296249025228,9300,2018-05-09 19:33:17,16,0,24.021,4277.0020259717,38.385828,0,0.36105316116,0,0,-0.671082,129.2, -1.9, -0.4,0,0,1024,1024,1024,1024,127.7,-89.9,98,3.984,4.018,4.01,4.003,4.01,4.005,19.161,77,14,Waypoint,
38.0977243,-120.1812943,4277.9862779717,39.37008,0.223694,0.268514444288,9400,2018-05-09 19:33:17,16,0,24.021,4277.9862779717,39.37008,0.223694,0.36105316116,0,0,-0.671082,129.5, -1.7, 0,0,0,1024,1024,1024,1024,127.7,-89.9,98,3.984,4.018,4.01,4.003,4.01,4.005,19.161,77,14,Waypoint,
38.0977244,-120.1812942,4278.9705299717,40.354332,0.223694,0.254442921528,9500,2018-05-09 19:33:17,16,0,24.021,4278.9705299717,40.354332,0.223694,0.36105316116,0,0,-0.671082,129.7, -1.5, 0.8,0,0,1024,1024,1024,1024,127.7,-90,98,3.984,4.018,4.01,4.003,4.01,4.005,19.161,77,14,Waypoint,
38.0977244,-120.1812941,4279.9547819717,41.338584,0.223694,0.22885663462,9600,2018-05-09 19:33:17,16,0,24.021,4279.9547819717,41.338584,0.223694,0.36105316116,0,0,-0.671082,129.6, -1.3, 1.9,0,0,1024,1024,1024,1024,127.8,-89.9,98,3.984,4.018,4.01,4.003,4.01,4.005,19.161,77,14,Waypoint,
38.0977243,-120.181294,4280.9390339717,42.322836,0.223694,0.187089901,9700,2018-05-09 19:33:17,16,0,24.021,4280.9390339717,42.322836,0.223694,0.36105316116,0,0,-0.671082,129.5, -0.7, 2.5,0,0,1024,1024,1024,1024,127.8,-89.9,98,3.984,4.018,4.01,4.003,4.01,4.005,19.161,77,14,Waypoint,
38.0977243,-120.1812938,4281.9232859717,43.307088,0.223694,0.136069230076,9800,2018-05-09 19:33:18,17,0,24.021,4281.9232859717,43.307088,0.223694,0.36105316116,0,0,-0.671082,129.3, -0.3, 2.8,0,0,1024,1024,1024,1024,127.8,-89.9,98,3.984,4.018,4.01,4.003,4.01,4.005,19.161,77,14,Waypoint,
38.0977243,-120.1812936,4283.8917899717,45.275592,0.223694,0.092855646016,9900,2018-05-09 19:33:18,17,0,24.021,4283.8917899717,45.275592,0.223694,0.36105316116,0,0,-0.671082,129, -0.1, 2.5,0,0,1024,1024,1024,1024,127.8,-89.9,98,3.984,4.018,4.01,4.003,4.01,4.005,19.161,77,14,Waypoint,
38.0977243,-120.1812935,4284.8760419717,46.259844,0.223694,0.07841535684,10000,2018-05-09 19:33:18,17,0,24.085,4284.8760419717,46.259844,0.223694,0.36105316116,0,0,-0.671082,129, 0, 2,0,0,1024,1024,1024,1024,127.8,-89.9,98,3.987,4.027,4.021,4.02,4.013,4.012,17.322,77,14,Waypoint,
38.0977242,-120.1812934,4285.8602939717,47.244096,0.223694,0.036484909304,10100,2018-05-09 19:33:18,17,0,24.085,4285.8602939717,47.244096,0.223694,0.36105316116,0,0,-0.671082,128.9, 0.2, 1.9,0,0,1024,1024,1024,1024,127.9,-89.9,98,3.987,4.027,4.021,4.02,4.013,4.012,17.322,77,14,Waypoint,
38.0977242,-120.1812933,4286.8445459717,48.228348,0.223694,0.046427823008,10200,2018-05-09 19:33:18,17,0,24.085,4286.8445459717,48.228348,0.223694,0.36105316116,0,0,-0.671082,128.9, 0.6, 1.6,0,0,1024,1024,1024,1024,127.9,-89.9,98,3.987,4.027,4.021,4.02,4.013,4.012,17.322,77,14,Waypoint,
38.0977241,-120.1812932,4287.8287979717,49.2126,0.223694,0.057424214436,10300,2018-05-09 19:33:18,17,0,24.085,4287.8287979717,49.2126,0.223694,0.36105316116,0,0,-0.671082,128.9, 0.7, 1.6,0,0,1024,1024,1024,1024,127.9,-89.9,98,3.987,4.027,4.021,4.02,4.013,4.012,17.322,77,14,Waypoint,
38.097724,-120.181293,4288.8130499717,50.196852,0.223694,0.120504597032,10400,2018-05-09 19:33:18,17,0,24.085,4288.8130499717,50.196852,0.223694,0.36105316116,0,0,-0.671082,128.9, 0.8, 1.6,0,0,1024,1024,1024,1024,127.9,-89.9,98,3.987,4.027,4.021,4.02,4.013,4.012,17.322,77,14,Waypoint,
38.097724,-120.1812929,4289.4692179717,50.85302,0.223694,0.148124676656,10500,2018-05-09 19:33:18,17,0,24.085,4289.4692179717,50.85302,0.223694,0.36105316116,0,0,-0.671082,129, 0.8, 1.8,0,0,1024,1024,1024,1024,127.9,-89.9,98,3.987,4.027,4.021,4.02,4.013,4.012,17.322,77,14,Waypoint,
38.097724,-120.1812928,4290.4534699717,51.837272,0.223694,0.17609416574,10600,2018-05-09 19:33:18,17,0,24.085,4290.4534699717,51.837272,0.223694,0.36105316116,0,0,-0.671082,129, 0.6, 2,0,0,1024,1024,1024,1024,127.9,-89.9,98,3.987,4.027,4.021,4.02,4.013,4.012,17.322,77,14,Waypoint,
38.0977239,-120.1812926,4291.4377219717,52.821524,0.223694,0.241009194064,10700,2018-05-09 19:33:18,17,0,24.085,4291.4377219717,52.821524,0.223694,0.36105316116,0,0,-0.671082,129.1, 0.8, 2.1,0,0,1024,1024,1024,1024,128,-89.9,98,3.987,4.027,4.021,4.02,4.013,4.012,17.322,77,14,Waypoint,
38.0977239,-120.1812925,4292.4219739717,53.805776,0.223694,0.268514444288,10800,2018-05-09 19:33:19,17,0,24.085,4292.4219739717,53.805776,0.223694,0.36105316116,0,0,-0.671082,129.2, 1.2, 2.1,0,0,1024,1024,1024,1024,128,-89.9,98,3.987,4.027,4.021,4.02,4.013,4.012,17.322,77,14,Waypoint,
38.0977238,-120.1812923,4293.4062259717,54.790028,0.223694,0.33426182172,10910,2018-05-09 19:33:19,17,0,24.085,4293.4062259717,54.790028,0.223694,0.36105316116,0,0,-0.671082,129.2, 1.7, 1.9,0,0,1024,1024,1024,1024,128,-89.9,98,3.987,4.027,4.021,4.02,4.013,4.012,17.322,77,14,Waypoint,
38.0977237,-120.1812922,4294.0623939717,55.446196,0.223694,0.374179802,11000,2018-05-09 19:33:19,17,0,24.076,4294.0623939717,55.446196,0.223694,0.374179802,0,0,-0.671082,129.1, 2.1, 1.3,0,0,1024,1024,1024,1024,128,-89.9,98,3.988,4.02,4.017,4.016,4.016,4.002,17.515,77,14,Waypoint,
38.0977236,-120.1812921,4295.0466459717,56.430448,0,0.4154527692,11100,2018-05-09 19:33:19,17,0,24.076,4295.0466459717,56.430448,0.223694,0.4154527692,0,0,-0.671082,129, 2.2, 0.9,0,0,1024,1024,1024,1024,128,-89.9,98,3.988,4.02,4.017,4.016,4.016,4.002,17.515,77,14,Waypoint,
38.0977235,-120.1812921,4297.0151499717,58.398952,0,0.43271654928,11300,2018-05-09 19:33:19,17,0,24.076,4297.0151499717,58.398952,0.223694,0.43271654928,0,0,-0.671082,129.3, 1.5, 0.8,0,0,1024,1024,1024,1024,128,-89.9,98,3.988,4.02,4.017,4.016,4.016,4.002,17.515,77,14,Waypoint,
38.0977235,-120.1812921,4298.9836539717,60.367456,0,0.43271654928,11500,2018-05-09 19:33:19,17,0,24.076,4298.9836539717,60.367456,0.223694,0.43271654928,0,0,-0.671082,129.2, 1, 0.6,0,0,1024,1024,1024,1024,128.1,-90,98,3.988,4.02,4.017,4.016,4.016,4.002,17.515,77,14,Waypoint,
38.0977235,-120.1812923,4299.9679059717,61.351708,0,0.38428150836,11600,2018-05-09 19:33:19,17,0,24.076,4299.9679059717,61.351708,0.223694,0.43271654928,0,0,-0.671082,129, 0.6, 0.9,0,0,1024,1024,1024,1024,128.1,-90,98,3.988,4.02,4.017,4.016,4.016,4.002,17.515,77,14,Waypoint,
38.0977235,-120.1812922,4302.9206619717,64.304464,0,0.40820867448,11900,2018-05-09 19:33:20,17,0,24.076,4302.9206619717,64.304464,0.223694,0.43271654928,0,0,-0.671082,128.8, 0.4, 1.4,0,0,1024,1024,1024,1024,128.1,-89.9,98,3.988,4.02,4.017,4.016,4.016,4.002,17.515,77,14,Waypoint,
38.0977234,-120.181292,4305.2172499717,66.601052,0,0.47624345356,12100,2018-05-09 19:33:20,17,0,24.076,4305.2172499717,66.601052,0.223694,0.47624345356,0,0,-0.671082,129, 0.8, 1.9,0,0,1024,1024,1024,1024,128.1,-89.9,98,3.988,4.02,4.017,4.016,4.016,4.002,17.515,77,14,Waypoint,
38.0977234,-120.1812919,4306.2015019717,67.585304,0,0.50071195828,12200,2018-05-09 19:33:20,17,0,24.076,4306.2015019717,67.585304,0.223694,0.50071195828,0,0,-0.671082,129, 1, 2,0,0,1024,1024,1024,1024,128.1,-89.9,98,3.988,4.02,4.017,4.016,4.016,4.002,17.515,77,14,Waypoint,
38.0977234,-120.1812919,4306.8576699717,68.241472,0,0.50071195828,12300,2018-05-09 19:33:20,17,0,24.076,4306.8576699717,68.241472,0.223694,0.50071195828,0,0,-0.671082,129, 1.1, 2.2,0,0,1024,1024,1024,1024,128.1,-89.9,98,3.988,4.02,4.017,4.016,4.016,4.002,17.515,77,14,Waypoint,
38.0977234,-120.1812919,4307.8419219717,69.225724,0,0.50071195828,12400,2018-05-09 19:33:20,17,0,24.076,4307.8419219717,69.225724,0.223694,0.50071195828,0,0,-0.671082,129, 0.9, 2,0,0,1024,1024,1024,1024,128.1,-89.9,98,3.988,4.02,4.017,4.016,4.016,4.002,17.515,77,14,Waypoint,
38.0977233,-120.1812918,4308.8261739717,70.209976,0,0.54427823264,12500,2018-05-09 19:33:20,17,0,24.076,4308.8261739717,70.209976,0.223694,0.54427823264,0,0,-0.671082,129, 0.8, 1.6,0,0,1024,1024,1024,1024,128.1,-89.9,98,3.988,4.02,4.017,4.016,4.016,4.002,17.515,77,14,Waypoint,
38.0977232,-120.1812918,4309.8104259717,71.194228,0,0.5646817766,12600,2018-05-09 19:33:20,17,0,24.076,4309.8104259717,71.194228,0.223694,0.5646817766,0,0,-0.671082,129.1, 0.9, 1.2,0,0,1024,1024,1024,1024,128.1,-89.9,98,3.988,4.02,4.017,4.016,4.016,4.002,17.515,77,14,Waypoint,
38.0977231,-120.1812917,4310.7946779717,72.17848,0,0.60939634496,12700,2018-05-09 19:33:20,17,0,24.076,4310.7946779717,72.17848,0.223694,0.60939634496,0,0,-0.671082,129.1, 1.3, 0.9,0,0,1024,1024,1024,1024,128.1,-89.9,98,3.988,4.02,4.017,4.016,4.016,4.002,17.515,77,14,Waypoint,
38.097723,-120.1812917,4311.7789299717,73.162732,0,0.63191603072,12800,2018-05-09 19:33:21,17,0,24.076,4311.7789299717,73.162732,0.223694,0.63191603072,0,0,-0.671082,129.1, 1.4, 0.7,0,0,1024,1024,1024,1024,128.1,-89.9,98,3.988,4.02,4.017,4.016,4.016,4.002,17.515,77,14,Waypoint,
38.097723,-120.1812916,4312.7631819717,74.146984,0,0.6543471338,12900,2018-05-09 19:33:21,17,0,24.076,4312.7631819717,74.146984,0.223694,0.6543471338,0,0,-0.671082,128.9, 1.3, 1.1,0,0,1024,1024,1024,1024,128.1,-89.9,98,3.988,4.02,4.017,4.016,4.016,4.002,17.515,77,14,Waypoint,
38.0977229,-120.1812915,4313.7474339717,75.131236,0,0.6994914922,13000,2018-05-09 19:33:21,17,0,23.94,4313.7474339717,75.131236,0.223694,0.6994914922,0,0,-0.671082,128.7, 1.5, 1.2,0,0,1024,1024,1024,1024,128.1,-89.9,98,3.969,4.006,4.003,3.993,3.997,3.998,18.068,77,14,Waypoint,
38.0977228,-120.1812914,4314.7316859717,76.115488,0,0.74479661176,13100,2018-05-09 19:33:21,17,0,23.94,4314.7316859717,76.115488,0.223694,0.74479661176,0,0,-0.671082,128.7, 2.2, 1.4,0,0,1024,1024,1024,1024,128.1,-89.9,98,3.969,4.006,4.003,3.993,3.997,3.998,18.068,77,14,Waypoint,
38.0977227,-120.1812913,4315.7159379717,77.09974,0,0.79022968408,13200,2018-05-09 19:33:21,17,0,23.94,4315.7159379717,77.09974,0.223694,0.79022968408,0,0,-0.671082,128.9, 2.7, 1.4,0,0,1024,1024,1024,1024,128.1,-89.9,98,3.969,4.006,4.003,3.993,3.997,3.998,18.068,77,14,Waypoint,
38.0977227,-120.1812913,4316.7001899717,78.083992,0,0.79022968408,13300,2018-05-09 19:33:21,17,0,23.94,4316.7001899717,78.083992,0.223694,0.79022968408,0,0,-0.671082,129.2, 2.7, 1.5,0,0,1024,1024,1024,1024,128.1,-89.9,98,3.969,4.006,4.003,3.993,3.997,3.998,18.068,77,14,Waypoint,
38.0977227,-120.1812912,4317.6844419717,79.068244,0,0.81234910736,13400,2018-05-09 19:33:21,17,0,23.94,4317.6844419717,79.068244,0.223694,0.81234910736,0,0,-0.671082,129.5, 2.6, 1.7,0,0,1024,1024,1024,1024,128.1,-89.9,98,3.969,4.006,4.003,3.993,3.997,3.998,18.068,77,14,Waypoint,
38.0977227,-120.1812911,4318.6686939717,80.052496,0,0.83486879312,13500,2018-05-09 19:33:21,17,0,23.94,4318.6686939717,80.052496,0.223694,0.83486879312,0,0,-0.671082,129.6, 2.4, 1.9,0,0,1024,1024,1024,1024,128.1,-89.9,98,3.969,4.006,4.003,3.993,3.997,3.998,18.068,77,14,Waypoint,
38.0977227,-120.1812911,4319.6529459717,81.036748,0,0.83486879312,13600,2018-05-09 19:33:21,17,0,23.94,4319.6529459717,81.036748,0.223694,0.83486879312,0,0,-0.671082,129.6, 2.2, 2.2,0,0,1024,1024,1024,1024,128.1,-90,98,3.969,4.006,4.003,3.993,3.997,3.998,18.068,77,14,Waypoint,
38.0977228,-120.1812911,4320.9652819717,82.349084,0,0.81306104964,13700,2018-05-09 19:33:21,17,0,23.94,4320.9652819717,82.349084,0.223694,0.83486879312,0,0,-0.671082,129.5, 1.9, 2.5,0,0,1024,1024,1024,1024,128.1,-89.9,98,3.969,4.006,4.003,3.993,3.997,3.998,18.068,77,14,Waypoint,
38.0977228,-120.181291,4321.9495339717,83.333336,0.223694,0.8365485832,13800,2018-05-09 19:33:22,17,0,23.94,4321.9495339717,83.333336,0.223694,0.8365485832,0,0,-0.671082,129.4, 1.6, 2.7,0,0,1024,1024,1024,1024,128.1,-90,98,3.969,4.006,4.003,3.993,3.997,3.998,18.068,77,14,Waypoint,
38.0977229,-120.181291,4322.9337859717,84.317588,0,0.81641406812,13900,2018-05-09 19:33:22,17,0,23.94,4322.9337859717,84.317588,0.223694,0.8365485832,0,0,-0.671082,129.3, 1.5, 2.9,0,0,1024,1024,1024,1024,128.1,-90,98,3.969,4.006,4.003,3.993,3.997,3.998,18.068,77,14,Waypoint,
38.0977229,-120.1812909,4323.9180379717,85.30184,0,0.84079070932,14020,2018-05-09 19:33:22,17,0,23.803,4323.9180379717,85.30184,0.223694,0.84079070932,0,0,-0.671082,129.4, 1.7, 2.7,0,0,1024,1024,1024,1024,128.1,-89.9,98,3.94,3.984,3.968,3.965,3.971,3.974,19.022,77,14,Waypoint,
38.0977229,-120.1812908,4324.9022899717,86.286092,0,0.86543309856,14100,2018-05-09 19:33:22,17,0,23.803,4324.9022899717,86.286092,0.223694,0.86543309856,0,0,-0.671082,129.5, 1.9, 2.6,0,0,1024,1024,1024,1024,128.1,-89.9,98,3.94,3.984,3.968,3.965,3.971,3.974,19.022,77,14,Waypoint,
38.0977229,-120.1812908,4325.8865419717,87.270344,0,0.86543309856,14200,2018-05-09 19:33:22,17,0,23.803,4325.8865419717,87.270344,0.223694,0.86543309856,0,0,-0.671082,129.5, 2.1, 2.6,0,0,1024,1024,1024,1024,128.1,-89.9,98,3.94,3.984,3.968,3.965,3.971,3.974,19.022,77,14,Waypoint,
38.0977229,-120.1812907,4326.8707939717,88.254596,0,0.89031826996,14400,2018-05-09 19:33:22,17,0,23.803,4326.8707939717,88.254596,0.223694,0.89031826996,0,0,-0.671082,129.5, 2.3, 2.8,0,0,1024,1024,1024,1024,128.1,-89.9,98,3.94,3.984,3.968,3.965,3.971,3.974,19.022,77,14,Waypoint,
38.0977231,-120.1812905,4328.8392979717,90.2231,0.223694,0.90908139392,14500,2018-05-09 19:33:22,17,0,23.803,4328.8392979717,90.2231,0.223694,0.90908139392,0,0,-0.671082,129.5, 2.4, 3.9,0,0,1024,1024,1024,1024,128.1,-89.9,98,3.94,3.984,3.968,3.965,3.971,3.974,19.022,77,14,Waypoint,
38.0977232,-120.1812904,4329.8235499717,91.207352,0.223694,0.92183073816,14600,2018-05-09 19:33:22,17,0,23.803,4329.8235499717,91.207352,0.223694,0.92183073816,0,0,-0.671082,129.4, 2.1, 4.9,0,0,1024,1024,1024,1024,128.1,-89.9,98,3.94,3.984,3.968,3.965,3.971,3.974,19.022,77,14,Waypoint,
38.0977233,-120.1812903,4331.1358859717,92.519688,0,0.9367126284,14800,2018-05-09 19:33:23,17,0,23.803,4331.1358859717,92.519688,0.223694,0.9367126284,0,0,-0.671082,129.2, 2.1, 4.8,0,0,1024,1024,1024,1024,128.1,-89.9,98,3.94,3.984,3.968,3.965,3.971,3.974,19.022,77,14,Waypoint,
38.0977234,-120.1812903,4331.7920539717,93.175856,0,0.92599412412,14900,2018-05-09 19:33:23,17,0,23.803,4331.7920539717,93.175856,0.223694,0.9367126284,0,0,-0.671082,128.9, 1.8, 3.7,0,0,1024,1024,1024,1024,128.1,-89.9,98,3.94,3.984,3.968,3.965,3.971,3.974,19.022,77,14,Waypoint,
38.0977234,-120.1812902,4332.7763059717,94.160108,0,0.9536253586,15100,2018-05-09 19:33:23,17,0,23.803,4332.7763059717,94.160108,0.223694,0.9536253586,0,0,-0.671082,128.7, 1.7, 3.3,0,0,1024,1024,1024,1024,128.1,-90,98,3.94,3.984,3.968,3.965,3.971,3.974,19.022,77,14,Waypoint,
38.0977235,-120.1812902,4334.4167259717,95.800528,0,0.94450790424,15410,2018-05-09 19:33:23,17,0,23.803,4334.4167259717,95.800528,0.223694,0.9536253586,0,0,-0.671082,128.8, 2, 2.8,0,0,1024,1024,1024,1024,128.1,-89.9,98,3.94,3.984,3.968,3.965,3.971,3.974,19.022,77,14,Waypoint,
38.0977235,-120.1812902,4335.4009779717,96.78478,0,0.94450790424,15500,2018-05-09 19:33:23,17,0,23.803,4335.4009779717,96.78478,0.223694,0.9536253586,0,0,-0.671082,129, 2.4, 2.8,0,0,1024,1024,1024,1024,128.1,-89.9,98,3.94,3.984,3.968,3.965,3.971,3.974,19.022,77,14,Waypoint,
38.0977235,-120.1812902,4336.3852299717,97.769032,0,0.94450790424,15610,2018-05-09 19:33:23,17,0,23.803,4336.3852299717,97.769032,0.223694,0.9536253586,0,0,-0.671082,129.3, 2.6, 2.4,0,0,1024,1024,1024,1024,128.1,-89.9,98,3.94,3.984,3.968,3.965,3.971,3.974,19.022,77,14,Waypoint,
38.0977235,-120.1812902,4338.0256499717,99.409452,0,0.94450790424,15800,2018-05-09 19:33:24,17,0,23.803,4338.0256499717,99.409452,0.223694,0.9536253586,0,0,-0.671082,129.7, 2.3, 2.6,0,0,1024,1024,1024,1024,128.1,-89.9,98,3.94,3.984,3.968,3.965,3.971,3.974,19.022,77,14,Waypoint,
38.0977236,-120.1812902,4339.0099019717,100.393704,0,0.93672575176,15900,2018-05-09 19:33:24,17,0,23.803,4339.0099019717,100.393704,0.223694,0.9536253586,0,0,-0.671082,129.7, 2.1, 2.7,0,0,1024,1024,1024,1024,128.1,-90,98,3.94,3.984,3.968,3.965,3.971,3.974,19.022,77,14,Waypoint,
38.0977236,-120.1812902,4339.9941539717,101.377956,0,0.93672575176,16100,2018-05-09 19:33:24,17,0,23.803,4339.9941539717,101.377956,0.223694,0.9536253586,0,0,-0.671082,129.7, 2.3, 2.9,0,0,1024,1024,1024,1024,128.1,-89.9,98,3.94,3.984,3.968,3.965,3.971,3.974,19.022,77,14,Waypoint,
38.0977235,-120.1812901,4342.9469099717,104.330712,0,0.97246066104,16300,2018-05-09 19:33:24,17,0,23.803,4342.9469099717,104.330712,0.223694,0.97246066104,0,0,-0.671082,129.3, 4.6, 2.2,0,0,1024,1024,1024,1024,128.1,-90,98,3.94,3.984,3.968,3.965,3.971,3.974,19.022,77,14,Waypoint,
38.0977235,-120.1812901,4344.9154139717,106.299216,0,0.97246066104,16500,2018-05-09 19:33:24,17,0,23.803,4344.9154139717,106.299216,0.223694,0.97246066104,0,0,-0.671082,128.9, 2.9, 3,0,0,1024,1024,1024,1024,128.1,-90,98,3.94,3.984,3.968,3.965,3.971,3.974,19.022,77,14,Waypoint,
38.0977236,-120.1812902,4348.1962539717,109.580056,0,0.93672575176,16600,2018-05-09 19:33:24,17,0,23.803,4348.1962539717,109.580056,0.223694,0.97246066104,0,0,-0.671082,129.3, 1.6, 2.1,0,0,1024,1024,1024,1024,128.1,-90,98,3.94,3.984,3.968,3.965,3.971,3.974,19.022,77,14,Waypoint,
38.0977237,-120.18129,4349.8366739717,111.220476,0.223694,0.98706367988,16800,2018-05-09 19:33:25,17,0,23.803,4349.8366739717,111.220476,0.223694,0.98706367988,0,0,-0.671082,129.9, 2.6, 4.1,0,0,1024,1024,1024,1024,128.1,-89.9,98,3.94,3.984,3.968,3.965,3.971,3.974,19.022,77,14,Waypoint,
38.0977238,-120.1812898,4352.1332619717,113.517064,0.223694,1.03941604376,17000,2018-05-09 19:33:25,17,0,23.783,4352.1332619717,113.517064,0.223694,1.03941604376,0,0,-0.671082,130.2, 2.7, 5.7,0,0,1024,1024,1024,1024,128.1,-89.9,98,3.869,3.924,3.909,3.932,3.941,3.909,23.054,77,14,Waypoint,
38.0977239,-120.1812897,4353.1175139717,114.501316,0.223694,1.06485239628,17100,2018-05-09 19:33:25,17,0,23.783,4353.1175139717,114.501316,0.223694,1.06485239628,0,0,-0.671082,129.9, 2.9, 5.7,0,0,1024,1024,1024,1024,128.1,-89.9,98,3.869,3.924,3.909,3.932,3.941,3.909,23.054,77,14,Waypoint,
38.0977238,-120.1812896,4353.7736819717,115.157484,0,1.096538749,17200,2018-05-09 19:33:25,17,0,23.783,4353.7736819717,115.157484,0.223694,1.096538749,0,0,-0.671082,129.5, 3.3, 5.3,0,0,1024,1024,1024,1024,128.1,-89.9,98,3.869,3.924,3.909,3.932,3.941,3.909,23.054,77,14,Waypoint,
38.0977238,-120.1812895,4355.0860179717,116.46982,0,1.12511158456,17300,2018-05-09 19:33:25,17,0,23.783,4355.0860179717,116.46982,0.223694,1.12511158456,0,0,-0.671082,129.2, 3.6, 4.7,0,0,1024,1024,1024,1024,128.1,-89.9,98,3.869,3.924,3.909,3.932,3.941,3.909,23.054,77,14,Waypoint,
38.0977236,-120.1812893,4358.0387739717,119.422576,0,1.19125003812,17610,2018-05-09 19:33:25,17,0,23.783,4358.0387739717,119.422576,0.223694,1.19125003812,0,0,-0.671082,128.6, 4.3, 3.7,0,0,1024,1024,1024,1024,128.1,-89.9,98,3.869,3.924,3.909,3.932,3.941,3.909,23.054,77,14,Waypoint,
38.0977237,-120.1812892,4360.9915299717,122.375332,0,1.21471132496,17900,2018-05-09 19:33:26,17,0,23.783,4360.9915299717,122.375332,0.223694,1.21471132496,0,0,-0.671082,129.1, 3.2, 3.9,0,0,1024,1024,1024,1024,128.1,-89.9,98,3.869,3.924,3.909,3.932,3.941,3.909,23.054,77,14,Waypoint,
38.0977238,-120.1812892,4363.2881179717,124.67192,0.223694,1.21086946132,18100,2018-05-09 19:33:26,17,0,23.783,4363.2881179717,124.67192,0.223694,1.21471132496,0,0,-0.671082,129.6, 2.6, 4.8,0,0,1024,1024,1024,1024,128.1,-90,98,3.869,3.924,3.909,3.932,3.941,3.909,23.054,77,14,Waypoint,
38.0977239,-120.1812891,4364.2723699717,125.656172,0.223694,1.2367782548,18200,2018-05-09 19:33:26,17,0,23.783,4364.2723699717,125.656172,0.223694,1.2367782548,0,0,-0.671082,129.6, 2.4, 5.4,0,0,1024,1024,1024,1024,128.1,-90,98,3.869,3.924,3.909,3.932,3.941,3.909,23.054,77,14,Waypoint,
38.097724,-120.1812891,4365.2566219717,126.640424,0,1.23516080068,18300,2018-05-09 19:33:26,17,0,23.783,4365.2566219717,126.640424,0.223694,1.2367782548,0,0,-0.671082,129.4, 2.4, 5.7,0,0,1024,1024,1024,1024,128.1,-90,98,3.869,3.924,3.909,3.932,3.941,3.909,23.054,77,14,Waypoint,
38.097724,-120.1812891,4366.2408739717,127.624676,0,1.23516080068,18500,2018-05-09 19:33:26,17,0,23.783,4366.2408739717,127.624676,0.223694,1.2367782548,0,0,-0.671082,129.2, 2.2, 5.6,0,0,1024,1024,1024,1024,128.1,-90,98,3.869,3.924,3.909,3.932,3.941,3.909,23.054,77,14,Waypoint,
38.097724,-120.1812891,4367.2251259717,128.608928,0,1.23516080068,18600,2018-05-09 19:33:26,17,0,23.783,4367.2251259717,128.608928,0.223694,1.2367782548,0,0,-0.671082,129.1, 2.4, 5.4,0,0,1024,1024,1024,1024,128.1,-90,98,3.869,3.924,3.909,3.932,3.941,3.909,23.054,77,14,Waypoint,
38.097724,-120.1812892,4370.1778819717,131.561684,0,1.2064632932,19020,2018-05-09 19:33:27,17,0,23.549,4370.1778819717,131.561684,0.223694,1.2367782548,0,0,-0.671082,129, 2.6, 4.3,0,0,1024,1024,1024,1024,128.1,-89.9,97,3.896,3.949,3.94,3.921,3.931,3.93,20.284,77,14,Waypoint,
38.0977239,-120.1812893,4372.1463859717,133.530188,0,1.17945869916,19110,2018-05-09 19:33:27,17,0,23.549,4372.1463859717,133.530188,0.223694,1.2367782548,0,0,-0.671082,129.1, 2.5, 4.1,0,0,1024,1024,1024,1024,128.1,-90,97,3.896,3.949,3.94,3.921,3.931,3.93,20.284,77,14,Waypoint,
38.0977239,-120.1812893,4372.1463859717,133.530188,0,1.17945869916,19200,2018-05-09 19:33:27,17,0,23.549,4372.1463859717,133.530188,0.223694,1.2367782548,0,0,-0.671082,129.1, 2.5, 4.1,0,0,1024,1024,1024,1024,128.1,-90,97,3.896,3.949,3.94,3.921,3.931,3.93,20.284,77,14,Waypoint,
38.097724,-120.1812893,4372.8025539717,134.186356,0,1.17776578572,19300,2018-05-09 19:33:27,17,0,23.549,4372.8025539717,134.186356,0.223694,1.2367782548,0,0,-0.671082,129.1, 2.6, 4.2,0,0,1024,1024,1024,1024,128.1,-90,97,3.896,3.949,3.94,3.921,3.931,3.93,20.284,77,14,Waypoint,
38.0977239,-120.1812895,4374.7710579717,136.15486,0,1.12214898604,19500,2018-05-09 19:33:27,17,0,23.549,4374.7710579717,136.15486,0.223694,1.2367782548,0,0,-0.671082,129.4, 2.4, 3.6,0,0,1024,1024,1024,1024,128.1,-90,97,3.896,3.949,3.94,3.921,3.931,3.93,20.284,77,14,Waypoint,
38.0977239,-120.1812896,4377.0676459717,138.451448,0,1.09350069116,19800,2018-05-09 19:33:28,17,0,23.549,4377.0676459717,138.451448,0.223694,1.2367782548,0,0,-0.671082,129.4, 2.6, 4.3,0,0,1024,1024,1024,1024,128.1,-90,97,3.896,3.949,3.94,3.921,3.931,3.93,20.284,77,14,Waypoint,
38.0977241,-120.1812897,4380.3484859717,141.732288,0.223694,1.06234911536,20000,2018-05-09 19:33:28,17,0,23.58,4380.3484859717,141.732288,0.223694,1.2367782548,0,0,-0.671082,128.8, 2, 5.3,0,0,1024,1024,1024,1024,128.1,-90,97,3.908,3.947,3.94,3.931,3.932,3.936,19.471,77,14,Waypoint,
38.0977241,-120.1812897,4381.3327379717,142.71654,0.223694,1.06234911536,20200,2018-05-09 19:33:28,17,0,23.58,4381.3327379717,142.71654,0.223694,1.2367782548,0,0,-0.671082,128.6, 1.7, 5.8,0,0,1024,1024,1024,1024,128.1,-90,97,3.908,3.947,3.94,3.931,3.932,3.936,19.471,77,14,Waypoint,
38.0977243,-120.1812898,4382.9731579717,144.35696,0,1.03621066308,20400,2018-05-09 19:33:28,17,0,23.58,4382.9731579717,144.35696,0.223694,1.2367782548,0,0,-0.671082,128.4, 1.2, 5.2,0,0,1024,1024,1024,1024,128.1,-90,97,3.908,3.947,3.94,3.931,3.932,3.936,19.471,77,14,Waypoint,
38.0977242,-120.1812899,4384.9416619717,146.325464,0,1.00558730252,20510,2018-05-09 19:33:28,17,0,23.58,4384.9416619717,146.325464,0.223694,1.2367782548,0,0,-0.671082,128.7, 1.5, 4.4,0,0,1024,1024,1024,1024,128.1,-90,97,3.908,3.947,3.94,3.931,3.932,3.936,19.471,77,14,Waypoint,
38.0977242,-120.18129,4385.9259139717,147.309716,0,0.97689635672,20600,2018-05-09 19:33:28,17,0,23.58,4385.9259139717,147.309716,0.223694,1.2367782548,0,0,-0.671082,129.1, 2.2, 4.6,0,0,1024,1024,1024,1024,128.1,-89.9,97,3.908,3.947,3.94,3.931,3.932,3.936,19.471,77,14,Waypoint,
38.0977241,-120.1812899,4387.5663339717,148.950136,0,1.00492457284,20800,2018-05-09 19:33:29,17,0,23.58,4387.5663339717,148.950136,0.223694,1.2367782548,0,0,-0.671082,129.7, 3.3, 5,0,0,1024,1024,1024,1024,128.1,-89.9,97,3.908,3.947,3.94,3.931,3.932,3.936,19.471,77,14,Waypoint,
38.097724,-120.1812898,4388.5505859717,149.934388,0,1.03428152916,20910,2018-05-09 19:33:29,17,0,23.58,4388.5505859717,149.934388,0.223694,1.2367782548,0,0,-0.671082,129.9, 3.9, 5.3,0,0,1024,1024,1024,1024,128.1,-89.9,97,3.908,3.947,3.94,3.931,3.932,3.936,19.471,77,14,Waypoint,
38.097724,-120.1812898,4389.8629219717,151.246724,0,1.03428152916,21000,2018-05-09 19:33:29,17,0,23.58,4389.8629219717,151.246724,0.223694,1.2367782548,0,0,-0.671082,129.8, 3.8, 5.6,0,0,1024,1024,1024,1024,128.1,-89.9,97,3.908,3.947,3.94,3.931,3.932,3.936,19.471,77,14,Waypoint,
38.097724,-120.1812898,4390.8471739717,152.230976,0,1.03428152916,21100,2018-05-09 19:33:29,17,0,23.58,4390.8471739717,152.230976,0.223694,1.2367782548,0,0,-0.671082,129.6, 3.6, 5.6,0,0,1024,1024,1024,1024,128.1,-89.9,97,3.908,3.947,3.94,3.931,3.932,3.936,19.471,77,14,Waypoint,
38.0977241,-120.1812898,4392.8156779717,154.19948,0,1.03363848452,21300,2018-05-09 19:33:29,17,0,23.58,4392.8156779717,154.19948,0.223694,1.2367782548,0,0,-0.671082,129.1, 2.7, 5.4,0,0,1024,1024,1024,1024,128.1,-90,97,3.908,3.947,3.94,3.931,3.932,3.936,19.471,77,14,Waypoint,
38.0977241,-120.1812898,4394.1280139717,155.511816,0,1.03363848452,21500,2018-05-09 19:33:29,17,0,23.58,4394.1280139717,155.511816,0.223694,1.2367782548,0,0,-0.671082,129.1, 2.3, 5.5,0,0,1024,1024,1024,1024,128.1,-90,97,3.908,3.947,3.94,3.931,3.932,3.936,19.471,77,14,Waypoint,
38.0977242,-120.1812899,4396.4246019717,157.808404,0,1.00558730252,21600,2018-05-09 19:33:29,17,0,23.58,4396.4246019717,157.808404,0.223694,1.2367782548,0,0,-0.671082,129, 2, 5.4,0,0,1024,1024,1024,1024,128.1,-90,97,3.908,3.947,3.94,3.931,3.932,3.936,19.471,77,14,Waypoint,
38.0977242,-120.18129,4397.4088539717,158.792656,0.223694,0.97689635672,21710,2018-05-09 19:33:29,17,0,23.58,4397.4088539717,158.792656,0.223694,1.2367782548,0,0,-0.671082,128.8, 1.6, 5.5,0,0,1024,1024,1024,1024,128.1,-90,97,3.908,3.947,3.94,3.931,3.932,3.936,19.471,77,14,Waypoint,
38.0977244,-120.1812902,4399.7054419717,161.089244,0.223694,0.92528546268,21800,2018-05-09 19:33:30,17,0,23.58,4399.7054419717,161.089244,0.223694,1.2367782548,0,0,-0.671082,128.7, 0.7, 5.8,0,0,1024,1024,1024,1024,128.1,-90,97,3.908,3.947,3.94,3.931,3.932,3.936,19.471,77,14,Waypoint,
38.0977245,-120.1812902,4400.6896939717,162.073496,0.223694,0.93030842872,22000,2018-05-09 19:33:30,17,0,23.538,4400.6896939717,162.073496,0.223694,1.2367782548,0,0,-0.671082,128.7, 0.7, 6.4,0,0,1024,1024,1024,1024,128.1,-90,97,3.908,3.951,3.94,3.928,3.934,3.936,20.103,77,14,Waypoint,
38.0977247,-120.1812901,4401.6739459717,163.057748,0.223694,0.97246066104,22100,2018-05-09 19:33:30,17,0,23.538,4401.6739459717,163.057748,0.223694,1.2367782548,0,0,-0.671082,128.7, 0.9, 6.8,0,0,1024,1024,1024,1024,128.1,-90,97,3.908,3.951,3.94,3.928,3.934,3.936,20.103,77,14,Waypoint,
38.0977248,-120.1812901,4402.6581979717,164.042,0.223694,0.98131892904,22200,2018-05-09 19:33:30,17,0,23.538,4402.6581979717,164.042,0.223694,1.2367782548,0,0,-0.671082,128.7, 1, 7,0,0,1024,1024,1024,1024,128.1,-90,97,3.908,3.951,3.94,3.928,3.934,3.936,20.103,77,14,Waypoint,
38.097725,-120.1812901,4405.6109539717,166.994756,0,1.002788746,22500,2018-05-09 19:33:30,17,0,23.538,4405.6109539717,166.994756,0.223694,1.2367782548,0,0,-0.671082,129, 1.4, 6.7,0,0,1024,1024,1024,1024,128.1,-90,97,3.908,3.951,3.94,3.928,3.934,3.936,20.103,77,14,Waypoint,
38.0977251,-120.1812901,4406.5952059717,167.979008,0,1.01531827396,22600,2018-05-09 19:33:30,17,0,23.538,4406.5952059717,167.979008,0.223694,1.2367782548,0,0,-0.671082,129, 1.3, 7,0,0,1024,1024,1024,1024,128.1,-89.9,97,3.908,3.951,3.94,3.928,3.934,3.936,20.103,77,14,Waypoint,
38.0977254,-120.1812901,4408.5637099717,169.947512,0.223694,1.05958664808,22700,2018-05-09 19:33:30,17,0,23.538,4408.5637099717,169.947512,0.223694,1.2367782548,0,0,-0.671082,128.9, 1.2, 7.3,0,0,1024,1024,1024,1024,128.1,-90,97,3.908,3.951,3.94,3.928,3.934,3.936,20.103,77,14,Waypoint,
38.0977255,-120.1812901,4409.5479619717,170.931764,0,1.07641407644,22900,2018-05-09 19:33:31,17,0,23.538,4409.5479619717,170.931764,0.223694,1.2367782548,0,0,-0.671082,128.8, 1.1, 7.5,0,0,1024,1024,1024,1024,128.1,-89.9,97,3.908,3.951,3.94,3.928,3.934,3.936,20.103,77,14,Waypoint,
38.0977256,-120.1812901,4410.5322139717,171.916016,0,1.09419622924,23000,2018-05-09 19:33:31,17,0,23.538,4410.5322139717,171.916016,0.223694,1.2367782548,0,0,-0.671082,128.8, 1.1, 7.4,0,0,1024,1024,1024,1024,128.1,-89.9,97,3.908,3.951,3.94,3.928,3.934,3.936,20.103,77,14,Waypoint,
38.0977256,-120.1812901,4411.1883819717,172.572184,0,1.09419622924,23100,2018-05-09 19:33:31,17,0,23.538,4411.1883819717,172.572184,0.223694,1.2367782548,0,0,-0.671082,128.9, 1, 7.1,0,0,1024,1024,1024,1024,128.1,-90,97,3.908,3.951,3.94,3.928,3.934,3.936,20.103,77,14,Waypoint,
38.0977257,-120.1812901,4413.1568859717,174.540688,0,1.1128937364,23300,2018-05-09 19:33:31,17,0,23.538,4413.1568859717,174.540688,0.223694,1.2367782548,0,0,-0.671082,129.2, 1, 6.8,0,0,1024,1024,1024,1024,128.1,-89.9,97,3.908,3.951,3.94,3.928,3.934,3.936,20.103,77,14,Waypoint,
38.0977258,-120.1812901,4414.1411379717,175.52494,0,1.13245738532,23410,2018-05-09 19:33:31,17,0,23.538,4414.1411379717,175.52494,0.223694,1.2367782548,0,0,-0.671082,129.3, 1.2, 7.1,0,0,1024,1024,1024,1024,128.1,-90,97,3.908,3.951,3.94,3.928,3.934,3.936,20.103,77,14,Waypoint,
38.0977259,-120.1812901,4415.1253899717,176.509192,0,1.15284452508,23510,2018-05-09 19:33:31,17,0,23.538,4415.1253899717,176.509192,0.223694,1.2367782548,0,0,-0.671082,129.4, 0.9, 7.5,0,0,1024,1024,1024,1024,128.1,-90,97,3.908,3.951,3.94,3.928,3.934,3.936,20.103,77,14,Waypoint,
38.097726,-120.1812901,4416.1096419717,177.493444,0,1.17401250476,23700,2018-05-09 19:33:31,17,0,23.538,4416.1096419717,177.493444,0.223694,1.2367782548,0,0,-0.671082,129.4, 0.5, 7.9,0,0,1024,1024,1024,1024,128.1,-90,97,3.908,3.951,3.94,3.928,3.934,3.936,20.103,77,14,Waypoint,
38.097726,-120.1812901,4416.7658099717,178.149612,0,1.17401250476,23800,2018-05-09 19:33:32,17,0,23.538,4416.7658099717,178.149612,0.223694,1.2367782548,0,0,-0.671082,129.5, 0.4, 7.7,0,0,1024,1024,1024,1024,128.1,-90,97,3.908,3.951,3.94,3.928,3.934,3.936,20.103,77,14,Waypoint,
38.097726,-120.1812901,4417.7500619717,179.133864,0,1.17401250476,23900,2018-05-09 19:33:32,17,0,23.538,4417.7500619717,179.133864,0.223694,1.2367782548,0,0,-0.671082,129.6, 0.8, 7.5,0,0,1024,1024,1024,1024,128.1,-89.9,97,3.908,3.951,3.94,3.928,3.934,3.936,20.103,77,14,Waypoint,
38.0977259,-120.1812901,4420.7028179717,182.08662,0,1.15284452508,24020,2018-05-09 19:33:32,17,0,23.767,4420.7028179717,182.08662,0.223694,1.2367782548,0,0,-0.671082,129.1, 2.7, 6.7,0,0,1024,1024,1024,1024,128.1,-89.9,97,3.945,3.987,3.975,3.971,3.962,3.966,16.895,78.8,14,Waypoint,
38.0977258,-120.1812901,4421.3589859717,182.742788,0,1.13245738532,24100,2018-05-09 19:33:32,17,0,23.767,4421.3589859717,182.742788,0.223694,1.2367782548,0,0,-0.671082,128.8, 2.1, 6.8,0,0,1024,1024,1024,1024,128.1,-89.9,97,3.945,3.987,3.975,3.971,3.962,3.966,16.895,78.8,14,Waypoint,
38.0977258,-120.1812901,4423.3274899717,184.711292,0,1.13245738532,24300,2018-05-09 19:33:32,17,0,23.767,4423.3274899717,184.711292,0.223694,1.2367782548,0,0,-0.671082,128.5, 1.2, 7,0,0,1024,1024,1024,1024,128.1,-90,97,3.945,3.987,3.975,3.971,3.962,3.966,16.895,78.8,14,Waypoint,
38.0977258,-120.1812901,4423.9836579717,185.36746,0,1.13245738532,24420,2018-05-09 19:33:32,17,0,23.767,4423.9836579717,185.36746,0.223694,1.2367782548,0,0,-0.671082,128.4, 1, 7.2,0,0,1024,1024,1024,1024,128.1,-90,97,3.945,3.987,3.975,3.971,3.962,3.966,16.895,78.8,14,Waypoint,
38.0977257,-120.1812902,4425.6240779717,187.00788,0,1.08855318444,24700,2018-05-09 19:33:32,17,0,23.767,4425.6240779717,187.00788,0.223694,1.2367782548,0,0,-0.671082,128.7, 1, 6.8,0,0,1024,1024,1024,1024,128.1,-89.9,97,3.945,3.987,3.975,3.971,3.962,3.966,16.895,78.8,14,Waypoint,
38.0977255,-120.1812902,4427.2644979717,188.6483,0,1.05122706776,24910,2018-05-09 19:33:33,17,0,23.767,4427.2644979717,188.6483,0.223694,1.2367782548,0,0,-0.671082,129.1, 1.5, 6.4,0,0,1024,1024,1024,1024,128.1,-89.9,97,3.945,3.987,3.975,3.971,3.962,3.966,16.895,78.8,14,Waypoint,
38.0977253,-120.1812903,4428.2487499717,189.632552,0.223694,0.9919291656,25000,2018-05-09 19:33:33,17,0,23.744,4428.2487499717,189.632552,0.223694,1.2367782548,0,0,-0.671082,129.4, 1.8, 6.2,0,0,1024,1024,1024,1024,128.1,-89.9,97,3.934,3.972,3.959,3.952,3.968,3.967,16.708,78.8,14,Waypoint,
38.0977252,-120.1812903,4429.2330019717,190.616804,0.223694,0.97637470316,25100,2018-05-09 19:33:33,17,0,23.744,4429.2330019717,190.616804,0.223694,1.2367782548,0,0,-0.671082,129.8, 2.2, 5.9,0,0,1024,1024,1024,1024,128.1,-89.9,97,3.934,3.972,3.959,3.952,3.968,3.967,16.708,78.8,14,Waypoint,
38.0977251,-120.1812903,4429.8891699717,191.272972,0,0.96195213052,25200,2018-05-09 19:33:33,17,0,23.744,4429.8891699717,191.272972,0.223694,1.2367782548,0,0,-0.671082,130, 2.5, 5.6,0,0,1024,1024,1024,1024,128.1,-89.9,97,3.934,3.972,3.959,3.952,3.968,3.967,16.708,78.8,14,Waypoint,
38.097725,-120.1812904,4430.8734219717,192.257224,0,0.92183073816,25300,2018-05-09 19:33:33,17,0,23.744,4430.8734219717,192.257224,0.223694,1.2367782548,0,0,-0.671082,130, 2.5, 5.5,0,0,1024,1024,1024,1024,128.1,-89.9,97,3.934,3.972,3.959,3.952,3.968,3.967,16.708,78.8,14,Waypoint,
38.0977249,-120.1812905,4431.8576739717,193.241476,0,0.88232942456,25410,2018-05-09 19:33:33,17,0,23.744,4431.8576739717,193.241476,0.223694,1.2367782548,0,0,-0.671082,129.8, 2.1, 5.2,0,0,1024,1024,1024,1024,128.1,-89.9,97,3.934,3.972,3.959,3.952,3.968,3.967,16.708,78.8,14,Waypoint,
38.0977246,-120.1812906,4434.1542619717,195.538064,0,0.82437994764,25700,2018-05-09 19:33:33,17,0,23.744,4434.1542619717,195.538064,0.223694,1.2367782548,0,0,-0.671082,129.5, 1.8, 4.9,0,0,1024,1024,1024,1024,128.1,-89.9,97,3.934,3.972,3.959,3.952,3.968,3.967,16.708,78.8,14,Waypoint,
38.0977243,-120.1812907,4436.4508499717,197.834652,0,0.77865488056,25900,2018-05-09 19:33:34,17,0,23.744,4436.4508499717,197.834652,0.223694,1.2367782548,0,0,-0.671082,129.2, 2.1, 4.5,0,0,1024,1024,1024,1024,128.1,-89.9,97,3.934,3.972,3.959,3.952,3.968,3.967,16.708,78.8,14,Waypoint,
38.0977242,-120.1812908,4437.4351019717,198.818904,0,0.7474081604,26000,2018-05-09 19:33:34,17,0,23.786,4437.4351019717,198.818904,0.223694,1.2367782548,0,0,-0.671082,129.1, 2.2, 4.6,0,0,1024,1024,1024,1024,128.1,-89.9,97,3.938,3.984,3.956,3.949,3.961,3.953,16.699,78.8,14,Waypoint,
38.0977241,-120.181291,4439.7316899717,201.115492,0,0.6890912294,26100,2018-05-09 19:33:34,17,0,23.786,4439.7316899717,201.115492,0.223694,1.2367782548,0,0,-0.671082,128.8, 2.1, 4.7,0,0,1024,1024,1024,1024,128.1,-90,97,3.938,3.984,3.956,3.949,3.961,3.953,16.699,78.8,14,Waypoint,
38.0977241,-120.181291,4440.7159419717,202.099744,0,0.6890912294,26200,2018-05-09 19:33:34,17,0,23.786,4440.7159419717,202.099744,0.223694,1.2367782548,0,0,-0.671082,128.7, 1.5, 4.6,0,0,1024,1024,1024,1024,128.1,-90,97,3.938,3.984,3.956,3.949,3.961,3.953,16.699,78.8,14,Waypoint,
38.0977241,-120.1812912,4442.6844459717,204.068248,0,0.63166668688,26310,2018-05-09 19:33:34,17,0,23.786,4442.6844459717,204.068248,0.223694,1.2367782548,0,0,-0.671082,128.8, 0.4, 4.6,0,0,1024,1024,1024,1024,128.1,-90,97,3.938,3.984,3.956,3.949,3.961,3.953,16.699,78.8,14,Waypoint,
38.0977242,-120.1812913,4444.9810339717,206.364836,0,0.60405841828,26500,2018-05-09 19:33:34,17,0,23.786,4444.9810339717,206.364836,0.223694,1.2367782548,0,0,-0.671082,129, 0.3, 5.3,0,0,1024,1024,1024,1024,128.1,-90,97,3.938,3.984,3.956,3.949,3.961,3.953,16.699,78.8,14,Waypoint,
38.0977243,-120.1812914,4447.2776219717,208.661424,0,0.57886156708,26600,2018-05-09 19:33:34,17,0,23.786,4447.2776219717,208.661424,0.223694,1.2367782548,0,0,-0.671082,129.1, 0.3, 5.6,0,0,1024,1024,1024,1024,128.1,-90,97,3.938,3.984,3.956,3.949,3.961,3.953,16.699,78.8,14,Waypoint,
38.0977244,-120.1812914,4448.2618739717,209.645676,0,0.58458335204,26700,2018-05-09 19:33:34,17,0,23.786,4448.2618739717,209.645676,0.223694,1.2367782548,0,0,-0.671082,129.1, 0.5, 5.7,0,0,1024,1024,1024,1024,128.1,-90,97,3.938,3.984,3.956,3.949,3.961,3.953,16.699,78.8,14,Waypoint,
38.0977244,-120.1812914,4449.2461259717,210.629928,0,0.58458335204,26800,2018-05-09 19:33:35,17,0,23.786,4449.2461259717,210.629928,0.223694,1.2367782548,0,0,-0.671082,129.1, 0.6, 5.7,0,0,1024,1024,1024,1024,128.1,-90,97,3.938,3.984,3.956,3.949,3.961,3.953,16.699,78.8,14,Waypoint,
38.0977246,-120.1812915,4451.2146299717,212.598432,0,0.57522311552,26900,2018-05-09 19:33:35,17,0,23.786,4451.2146299717,212.598432,0.223694,1.2367782548,0,0,-0.671082,129, 0.1, 5.9,0,0,1024,1024,1024,1024,128.1,-90,97,3.938,3.984,3.956,3.949,3.961,3.953,16.699,78.8,14,Waypoint,
38.0977248,-120.1812916,4453.1831339717,214.566936,0,0.57647967724,27100,2018-05-09 19:33:35,17,0,23.786,4453.1831339717,214.566936,0.223694,1.2367782548,0,0,-0.671082,128.8, -0.3, 5.7,0,0,1024,1024,1024,1024,128.1,-90,97,3.938,3.984,3.956,3.949,3.961,3.953,16.699,78.8,14,Waypoint,
38.0977248,-120.1812916,4453.8393019717,215.223104,0,0.57647967724,27200,2018-05-09 19:33:35,17,0,23.786,4453.8393019717,215.223104,0.223694,1.2367782548,0,0,-0.671082,128.7, -0.3, 5.7,0,0,1024,1024,1024,1024,128.1,-90,97,3.938,3.984,3.956,3.949,3.961,3.953,16.699,78.8,14,Waypoint,
38.0977249,-120.1812917,4455.8078059717,217.191608,0,0.56872049064,27400,2018-05-09 19:33:35,17,0,23.786,4455.8078059717,217.191608,0.223694,1.2367782548,0,0,-0.671082,128.4, -0.3, 5.3,0,0,1024,1024,1024,1024,128.1,-90,97,3.938,3.984,3.956,3.949,3.961,3.953,16.699,78.8,14,Waypoint,
38.0977249,-120.1812917,4456.7920579717,218.17586,0,0.56872049064,27500,2018-05-09 19:33:35,17,0,23.786,4456.7920579717,218.17586,0.223694,1.2367782548,0,0,-0.671082,128.4, -0.5, 5.4,0,0,1024,1024,1024,1024,128.1,-89.9,97,3.938,3.984,3.956,3.949,3.961,3.953,16.699,78.8,14,Waypoint,
38.097725,-120.1812918,4457.7763099717,219.160112,0,0.5646817766,27600,2018-05-09 19:33:35,17,0,23.786,4457.7763099717,219.160112,0.223694,1.2367782548,0,0,-0.671082,128.4, -0.1, 5.8,0,0,1024,1024,1024,1024,128.1,-89.9,97,3.938,3.984,3.956,3.949,3.961,3.953,16.699,78.8,14,Waypoint,
38.097725,-120.1812918,4458.4324779717,219.81628,0,0.5646817766,27700,2018-05-09 19:33:35,17,0,23.786,4458.4324779717,219.81628,0.223694,1.2367782548,0,0,-0.671082,128.4, 0, 5.6,0,0,1024,1024,1024,1024,128.1,-89.9,97,3.938,3.984,3.956,3.949,3.961,3.953,16.699,78.8,14,Waypoint,
38.0977248,-120.1812919,4460.4009819717,221.784784,0,0.50071195828,27900,2018-05-09 19:33:36,17,0,23.786,4460.4009819717,221.784784,0.223694,1.2367782548,0,0,-0.671082,128.6, 0.3, 4.9,0,0,1024,1024,1024,1024,128.1,-90,97,3.938,3.984,3.956,3.949,3.961,3.953,16.699,78.8,14,Waypoint,
38.0977248,-120.1812919,4461.3852339717,222.769036,0,0.50071195828,28000,2018-05-09 19:33:36,17,0,23.827,4461.3852339717,222.769036,0.223694,1.2367782548,0,0,-0.671082,128.9, 0.4, 4.6,0,0,1024,1024,1024,1024,128.1,-89.9,96,3.946,3.99,3.977,3.968,3.964,3.972,15.514,78.8,14,Waypoint,
38.0977247,-120.1812919,4462.3694859717,223.753288,0,0.48312337504,28100,2018-05-09 19:33:36,17,0,23.827,4462.3694859717,223.753288,0.223694,1.2367782548,0,0,-0.671082,129.2, 0.8, 4.4,0,0,1024,1024,1024,1024,128.1,-89.9,96,3.946,3.99,3.977,3.968,3.964,3.972,15.514,78.8,14,Waypoint,
38.0977245,-120.1812919,4464.0099059717,225.393708,0.223694,0.45473754736,28300,2018-05-09 19:33:36,17,0,23.827,4464.0099059717,225.393708,0.223694,1.2367782548,0,0,-0.671082,129.8, 1.4, 4,0,0,1024,1024,1024,1024,128.1,-89.9,96,3.946,3.99,3.977,3.968,3.964,3.972,15.514,78.8,14,Waypoint,
38.0977243,-120.1812919,4465.9784099717,227.362212,0,0.43682088012,28500,2018-05-09 19:33:36,17,0,23.827,4465.9784099717,227.362212,0.223694,1.2367782548,0,0,-0.671082,130.2, 1.5, 3.7,0,0,1024,1024,1024,1024,128.1,-89.9,96,3.946,3.99,3.977,3.968,3.964,3.972,15.514,78.8,14,Waypoint,
38.0977242,-120.181292,4466.9626619717,228.346464,0,0.40362206016,28610,2018-05-09 19:33:36,17,0,23.827,4466.9626619717,228.346464,0.223694,1.2367782548,0,0,-0.671082,130.2, 1.2, 3.6,0,0,1024,1024,1024,1024,128.1,-89.9,96,3.946,3.99,3.977,3.968,3.964,3.972,15.514,78.8,14,Waypoint,
38.0977241,-120.181292,4467.9469139717,229.330716,0,0.40197179764,28900,2018-05-09 19:33:37,17,0,23.827,4467.9469139717,229.330716,0.223694,1.2367782548,0,0,-0.671082,130.3, 0.9, 3.4,0,0,1024,1024,1024,1024,128.1,-89.9,96,3.946,3.99,3.977,3.968,3.964,3.972,15.514,78.8,14,Waypoint,
38.0977241,-120.1812921,4468.9311659717,230.314968,0,0.37325788596,29000,2018-05-09 19:33:37,17,0,23.887,4468.9311659717,230.314968,0.223694,1.2367782548,0,0,-0.671082,130.4, 0.7, 3.5,0,0,1024,1024,1024,1024,128.1,-89.9,96,3.957,4.004,3.967,3.979,3.977,3.982,15.633,78.8,14,Waypoint,
38.097724,-120.1812921,4469.9154179717,231.29922,0,0.37503610124,29200,2018-05-09 19:33:37,17,0,23.887,4469.9154179717,231.29922,0.223694,1.2367782548,0,0,-0.671082,130.2, 0.7, 3.8,0,0,1024,1024,1024,1024,128.1,-89.9,96,3.957,4.004,3.967,3.979,3.977,3.982,15.633,78.8,14,Waypoint,
38.097724,-120.1812921,4470.8996699717,232.283472,0,0.37503610124,29300,2018-05-09 19:33:37,17,0,23.887,4470.8996699717,232.283472,0.223694,1.2367782548,0,0,-0.671082,129.9, 0.6, 4,0,0,1024,1024,1024,1024,128.1,-89.9,96,3.957,4.004,3.967,3.979,3.977,3.982,15.633,78.8,14,Waypoint,
38.0977239,-120.1812921,4472.2120059717,233.595808,0,0.38032481532,29400,2018-05-09 19:33:37,17,0,23.887,4472.2120059717,233.595808,0.223694,1.2367782548,0,0,-0.671082,129.5, 0.7, 4.2,0,0,1024,1024,1024,1024,128.1,-89.9,96,3.957,4.004,3.967,3.979,3.977,3.982,15.633,78.8,14,Waypoint,
38.0977239,-120.1812921,4473.1962579717,234.58006,0,0.38032481532,29500,2018-05-09 19:33:37,17,0,23.887,4473.1962579717,234.58006,0.223694,1.2367782548,0,0,-0.671082,129.2, 0.9, 4.1,0,0,1024,1024,1024,1024,128.1,-89.9,96,3.957,4.004,3.967,3.979,3.977,3.982,15.633,78.8,14,Waypoint,
38.0977239,-120.1812921,4474.1805099717,235.564312,0,0.38032481532,29700,2018-05-09 19:33:37,17,0,23.887,4474.1805099717,235.564312,0.223694,1.2367782548,0,0,-0.671082,129, 1.2, 4.1,0,0,1024,1024,1024,1024,128.1,-89.9,96,3.957,4.004,3.967,3.979,3.977,3.982,15.633,78.8,14,Waypoint,
38.0977237,-120.181292,4476.4770979717,237.8609,0,0.42764437064,29810,2018-05-09 19:33:38,17,0,23.887,4476.4770979717,237.8609,0.223694,1.2367782548,0,0,-0.671082,129.1, 1.7, 3.9,0,0,1024,1024,1024,1024,128.1,-89.9,96,3.957,4.004,3.967,3.979,3.977,3.982,15.633,78.8,14,Waypoint,
38.0977236,-120.181292,4477.4613499717,238.845152,0,0.44142717948,29900,2018-05-09 19:33:38,17,0,23.887,4477.4613499717,238.845152,0.223694,1.2367782548,0,0,-0.671082,129.3, 1.8, 3.7,0,0,1024,1024,1024,1024,128.1,-89.9,96,3.957,4.004,3.967,3.979,3.977,3.982,15.633,78.8,14,Waypoint,
38.0977236,-120.181292,4478.4456019717,239.829404,0,0.44142717948,30100,2018-05-09 19:33:38,17,0,23.887,4478.4456019717,239.829404,0.223694,1.2367782548,0,0,-0.671082,129.4, 2, 3.9,0,0,1024,1024,1024,1024,128.1,-89.9,96,3.957,4.004,3.967,3.979,3.977,3.982,15.633,78.8,14,Waypoint,
38.0977235,-120.1812921,4481.3983579717,242.78216,0,0.43271654928,30400,2018-05-09 19:33:38,17,0,23.887,4481.3983579717,242.78216,0.223694,1.2367782548,0,0,-0.671082,129.3, 1.6, 3.7,0,0,1024,1024,1024,1024,128.1,-89.9,96,3.957,4.004,3.967,3.979,3.977,3.982,15.633,78.8,14,Waypoint,
38.0977235,-120.1812922,4483.0387779717,244.42258,0.223694,0.40820867448,30500,2018-05-09 19:33:38,17,0,23.887,4483.0387779717,244.42258,0.223694,1.2367782548,0,0,-0.671082,128.7, 0.7, 2.8,0,0,1024,1024,1024,1024,128.1,-90,96,3.957,4.004,3.967,3.979,3.977,3.982,15.633,78.8,14,Waypoint,
