latitude,longitude,altitude(feet),ascent(feet),speed(mph),distance(feet),time(millisecond),datetime(utc),satellites,gpslevel,voltage(v),max_altitude(feet),max_ascent(feet),max_speed(mph),max_distance(feet), xSpeed(mph), ySpeed(mph), zSpeed(mph), compass_heading(degrees), pitch(degrees), roll(degrees),isPhoto,isVideo,rc_elevator,rc_aileron,rc_throttle,rc_rudder,gimbal_heading(degrees),gimbal_pitch(degrees),battery_percent,voltageCell1,voltageCell2,voltageCell3,voltageCell4,voltageCell5,voltageCell6,current(A),battery_temperature(f),flycStateRaw,flycState,message
38.0977143,-120.1812694,4237.9573865989,0,0,0,2820,2018-05-09 18:52:13,14,0,0,4237.9573865989,0,0,0,0,0,0,126.7, 0.9, 0.2,1,0,1024,1024,1024,1024,127.5,-89.9,100,4.3,4.263,4.288,4.304,4.287,4.278,0,78.8,11,AutoTakeoff,
38.0977143,-120.1812693,4237.9573865989,0,0,0.0287121728348,2910,2018-05-09 18:52:13,14,0,0,4237.9573865989,0,0,0.0287121728348,0,0,0,126.6, 1, 0.6,0,0,1024,1024,1024,1024,127.5,-89.9,100,4.3,4.263,4.288,4.304,4.287,4.278,0,78.8,11,AutoTakeoff,
38.0977142,-120.1812691,4238.2854705989,0.328084,0,0.0935449505,3010,2018-05-09 18:52:13,15,0,25.67,4238.2854705989,0.328084,0,0.0935449505,0,0,0,126.6, 1.3, 0.3,0,0,1024,1024,1024,1024,127.5,-89.9,100,4.3,4.263,4.288,4.304,4.287,4.278,3.936,78.8,11,AutoTakeoff,
38.0977142,-120.1812691,4238.2854705989,0.328084,0,0.0935449505,3100,2018-05-09 18:52:13,15,0,25.67,4238.2854705989,0.328084,0,0.0935449505,0,0,0,126.7, 0.9, 0.1,0,0,1024,1024,1024,1024,127.5,-89.9,100,4.3,4.263,4.288,4.304,4.287,4.278,3.936,78.8,11,AutoTakeoff,
38.0977142,-120.181269,4238.6135545989,0.656168,0,0.120504597032,3200,2018-05-09 18:52:13,14,0,25.67,4238.6135545989,0.656168,0,0.120504597032,0,0,0,126.8, 0.5, 0,0,0,1024,1024,1024,1024,127.5,-89.9,100,4.3,4.263,4.288,4.304,4.287,4.278,3.936,78.8,11,AutoTakeoff,
38.0977142,-120.181269,4238.6135545989,0.656168,0,0.120504597032,3400,2018-05-09 18:52:13,14,0,25.67,4238.6135545989,0.656168,0,0.120504597032,0,0,0,126.9, 0.3, 0,0,0,1024,1024,1024,1024,127.5,-89.9,100,4.3,4.263,4.288,4.304,4.287,4.278,3.936,78.8,11,AutoTakeoff,
38.0977141,-120.181269,4238.9416385989,0.984252,0,0.136069230076,3510,2018-05-09 18:52:13,15,0,25.67,4238.9416385989,0.984252,0,0.136069230076,0,0,0,127, 0.5, -0.2,0,0,1024,1024,1024,1024,127.5,-89.9,100,4.3,4.263,4.288,4.304,4.287,4.278,3.936,78.8,11,AutoTakeoff,
38.097714,-120.1812689,4238.9416385989,0.984252,0,0.180527236748,3600,2018-05-09 18:52:13,16,0,25.67,4238.9416385989,0.984252,0,0.180527236748,0,0,0,127, 0.4, -0.2,0,0,1024,1024,1024,1024,127.5,-89.9,100,4.3,4.263,4.288,4.304,4.287,4.278,3.936,78.8,11,AutoTakeoff,
38.097714,-120.1812688,4239.2697225989,1.312336,0,0.204103681072,3700,2018-05-09 18:52:14,16,0,25.67,4239.2697225989,1.312336,0,0.204103681072,0,0,0,127, 0.4, -0.1,0,0,1024,1024,1024,1024,127.5,-89.9,100,4.3,4.263,4.288,4.304,4.287,4.278,3.936,78.8,11,AutoTakeoff,
38.097714,-120.1812687,4239.2697225989,1.312336,0,0.22885663462,3810,2018-05-09 18:52:14,17,0,25.67,4239.2697225989,1.312336,0,0.22885663462,0,0,0,127, 0.5, -0.2,0,0,1024,1024,1024,1024,127.5,-89.9,100,4.3,4.263,4.288,4.304,4.287,4.278,3.936,78.8,11,AutoTakeoff,
38.097714,-120.1812686,4239.5978065989,1.64042,0,0.254442921528,3900,2018-05-09 18:52:14,16,0,25.67,4239.5978065989,1.64042,0,0.254442921528,0,0,-0.223694,127, 0.7, -0.1,0,0,1024,1024,1024,1024,127.5,-89.9,100,4.3,4.263,4.288,4.304,4.287,4.278,3.936,78.8,11,AutoTakeoff,
38.097714,-120.1812685,4240.2539745989,2.296588,0,0.2806348515,4010,2018-05-09 18:52:14,16,0,24.693,4240.2539745989,2.296588,0,0.2806348515,0,0,-0.223694,126.9, 0.7, 0,0,0,1024,1024,1024,1024,127.5,-89.9,100,4.208,4.208,4.23,4.211,4.183,4.171,16.206,78.8,11,AutoTakeoff,
38.097714,-120.1812685,4240.5820585989,2.624672,0,0.2806348515,4300,2018-05-09 18:52:14,15,0,24.693,4240.5820585989,2.624672,0,0.2806348515,0,0,0,126.9, 0.8, 0.1,0,0,1024,1024,1024,1024,127.5,-89.9,100,4.208,4.208,4.23,4.211,4.183,4.171,16.206,78.8,11,AutoTakeoff,
38.097714,-120.1812684,4240.5820585989,2.624672,0,0.307277240804,4500,2018-05-09 18:52:14,15,0,24.693,4240.5820585989,2.624672,0,0.307277240804,0,0,0,126.9, 0.8, 0.1,0,0,1024,1024,1024,1024,127.5,-89.9,100,4.208,4.208,4.23,4.211,4.183,4.171,16.206,78.8,11,AutoTakeoff,
38.097714,-120.1812684,4240.9101425989,2.952756,0,0.307277240804,4600,2018-05-09 18:52:14,15,0,24.693,4240.9101425989,2.952756,0,0.307277240804,0,0,0,127, 0.9, 0.2,0,0,1024,1024,1024,1024,127.5,-89.9,100,4.208,4.208,4.23,4.211,4.183,4.171,16.206,78.8,6,P-GPS,
38.097714,-120.1812683,4240.9101425989,2.952756,0,0.33426182172,4700,2018-05-09 18:52:15,15,0,24.693,4240.9101425989,2.952756,0,0.33426182172,0,0,0,127.1, 0.8, 0.2,0,0,1024,1024,1024,1024,127.5,-89.9,100,4.208,4.208,4.23,4.211,4.183,4.171,16.206,78.8,14,Waypoint,
38.0977141,-120.1812683,4241.2382265989,3.28084,0,0.324153881764,4800,2018-05-09 18:52:15,15,0,24.693,4241.2382265989,3.28084,0,0.33426182172,0,0,0,127.3, 0.5, 0.2,0,0,1024,1024,1024,1024,127.5,-89.9,100,4.208,4.208,4.23,4.211,4.183,4.171,16.206,78.8,14,Waypoint,
38.0977142,-120.1812683,4241.2382265989,3.28084,0,0.317934393376,4900,2018-05-09 18:52:15,15,0,24.693,4241.2382265989,3.28084,0,0.33426182172,0,0,0,127.4, 0.2, 0.3,0,0,1024,1024,1024,1024,127.5,-89.9,100,4.208,4.208,4.23,4.211,4.183,4.171,16.206,78.8,14,Waypoint,
38.0977143,-120.1812683,4241.2382265989,3.28084,0,0.315833999608,5000,2018-05-09 18:52:15,14,0,24.693,4241.2382265989,3.28084,0,0.33426182172,0,0,0,127.5, 0.1, 0.6,0,0,1024,1024,1024,1024,127.5,-90,98,4.208,4.208,4.23,4.211,4.183,4.171,16.206,78.8,14,Waypoint,
38.0977143,-120.1812683,4241.2382265989,3.28084,0,0.315833999608,5100,2018-05-09 18:52:15,14,0,24.693,4241.2382265989,3.28084,0,0.33426182172,0,0,0,127.4, 0, 0.7,0,0,1024,1024,1024,1024,127.5,-90,98,4.208,4.208,4.23,4.211,4.183,4.171,16.206,78.8,14,Waypoint,
38.0977142,-120.1812683,4241.5663105989,3.608924,0,0.317934393376,5200,2018-05-09 18:52:15,14,0,24.693,4241.5663105989,3.608924,0,0.33426182172,0,0,-0.223694,127.3, 0, 0.5,0,0,1024,1024,1024,1024,127.5,-89.9,98,4.208,4.208,4.23,4.211,4.183,4.171,16.206,78.8,14,Waypoint,
38.0977142,-120.1812684,4241.5663105989,3.608924,0,0.289430455456,5500,2018-05-09 18:52:15,14,0,24.693,4241.5663105989,3.608924,0,0.33426182172,0,0,-0.223694,127.2, 0, 0.3,0,0,1024,1024,1024,1024,127.5,-89.9,98,4.208,4.208,4.23,4.211,4.183,4.171,16.206,78.8,14,Waypoint,
38.0977142,-120.1812684,4241.8943945989,3.937008,0,0.289430455456,5600,2018-05-09 18:52:15,15,0,24.693,4241.8943945989,3.937008,0,0.33426182172,0,0,-0.223694,127.1, 0.2, 0.1,0,0,1024,1024,1024,1024,127.5,-89.9,98,4.208,4.208,4.23,4.211,4.183,4.171,16.206,78.8,14,Waypoint,
38.0977142,-120.1812684,4242.2224785989,4.265092,0,0.289430455456,5700,2018-05-09 18:52:16,15,0,24.693,4242.2224785989,4.265092,0,0.33426182172,0,0,-0.223694,127.1, 0.2, 0,0,0,1024,1024,1024,1024,127.5,-89.9,98,4.208,4.208,4.23,4.211,4.183,4.171,16.206,78.8,14,Waypoint,
38.0977142,-120.1812684,4243.2067305989,5.249344,0,0.289430455456,5800,2018-05-09 18:52:16,15,0,24.693,4243.2067305989,5.249344,0,0.33426182172,0,0,-0.223694,127, 0.1, 0.3,0,0,1024,1024,1024,1024,127.5,-89.9,98,4.208,4.208,4.23,4.211,4.183,4.171,16.206,78.8,14,Waypoint,
38.0977142,-120.1812684,4243.8628985989,5.905512,0,0.289430455456,5900,2018-05-09 18:52:16,16,0,24.693,4243.8628985989,5.905512,0,0.33426182172,0,0,-0.447388,126.9, 0.2, 0.3,0,0,1024,1024,1024,1024,127.5,-89.9,98,4.208,4.208,4.23,4.211,4.183,4.171,16.206,78.8,14,Waypoint,
38.0977143,-120.1812683,4244.5190665989,6.56168,0,0.315833999608,6000,2018-05-09 18:52:16,16,0,24.693,4244.5190665989,6.56168,0,0.33426182172,0,0,-0.447388,127, 0.3, 0.3,0,0,1024,1024,1024,1024,127.5,-89.9,98,4.099,4.11,4.13,4.119,4.106,4.111,16.206,78.8,14,Waypoint,
38.0977144,-120.1812683,4245.1752345989,7.217848,0,0.317934393376,6100,2018-05-09 18:52:16,15,0,24.693,4245.1752345989,7.217848,0,0.33426182172,0,0,-0.447388,127.1, 0, 0.3,0,0,1024,1024,1024,1024,127.5,-90,98,4.099,4.11,4.13,4.119,4.106,4.111,16.206,78.8,14,Waypoint,
38.0977145,-120.1812684,4245.8314025989,7.874016,0,0.296249025228,6210,2018-05-09 18:52:16,15,0,24.693,4245.8314025989,7.874016,0,0.33426182172,0,0,-0.447388,127.2, -0.2, 0.3,0,0,1024,1024,1024,1024,127.5,-90,98,4.099,4.11,4.13,4.119,4.106,4.111,16.206,78.8,14,Waypoint,
38.0977147,-120.1812685,4246.8156545989,8.858268,0,0.296772647292,6410,2018-05-09 18:52:16,16,0,24.693,4246.8156545989,8.858268,0,0.33426182172,0,0,-0.671082,127.4, -0.4, 0.5,0,0,1024,1024,1024,1024,127.5,-90,98,4.099,4.11,4.13,4.119,4.106,4.111,16.206,78.8,14,Waypoint,
38.0977148,-120.1812685,4247.4718225989,9.514436,0,0.316313658416,6500,2018-05-09 18:52:16,16,0,24.693,4247.4718225989,9.514436,0,0.33426182172,0,0,-0.671082,127.5, -0.4, 0.6,0,0,1024,1024,1024,1024,127.5,-89.9,98,4.099,4.11,4.13,4.119,4.106,4.111,16.206,78.8,14,Waypoint,
38.0977149,-120.1812687,4248.4560745989,10.498688,0,0.297180783788,6600,2018-05-09 18:52:16,15,0,24.693,4248.4560745989,10.498688,0,0.33426182172,0,0,-0.671082,127.6, -0.5, 0.6,0,0,1024,1024,1024,1024,127.5,-90,98,4.099,4.11,4.13,4.119,4.106,4.111,16.206,78.8,14,Waypoint,
38.097715,-120.1812688,4249.4403265989,11.48294,0,0.308065626656,6700,2018-05-09 18:52:17,15,0,24.693,4249.4403265989,11.48294,0,0.33426182172,0,0,-0.671082,127.6, -0.6, 0.5,0,0,1024,1024,1024,1024,127.5,-90,98,4.099,4.11,4.13,4.119,4.106,4.111,16.206,78.8,14,Waypoint,
38.097715,-120.181269,4250.4245785989,12.467192,0,0.28002953652,6800,2018-05-09 18:52:17,14,0,24.693,4250.4245785989,12.467192,0,0.33426182172,0,0,-0.671082,127.5, -0.7, 0.4,0,0,1024,1024,1024,1024,127.5,-90,98,4.099,4.11,4.13,4.119,4.106,4.111,16.206,78.8,14,Waypoint,
38.0977154,-120.1812692,4253.7054185989,15.748032,0,0.40542324132,6920,2018-05-09 18:52:17,15,0,24.693,4253.7054185989,15.748032,0,0.40542324132,0,0,-0.671082,127.3, -1.4, 0.4,0,0,1024,1024,1024,1024,127.5,-90,98,4.099,4.11,4.13,4.119,4.106,4.111,16.206,78.8,14,Waypoint,
38.0977154,-120.1812692,4253.7054185989,15.748032,0,0.40542324132,7000,2018-05-09 18:52:17,15,0,24.306,4253.7054185989,15.748032,0,0.40542324132,0,0,-0.671082,127.3, -1.4, 0.4,0,0,1024,1024,1024,1024,127.5,-90,98,4.01,4.034,4.069,4.085,4.06,4.038,17.019,78.8,14,Waypoint,
38.0977151,-120.1812697,4257.3143425989,19.356956,0,0.30432415672,7300,2018-05-09 18:52:17,14,0,24.306,4257.3143425989,19.356956,0,0.40542324132,0,0,-0.671082,127.4, -1.1, -0.3,0,0,1024,1024,1024,1024,127.5,-89.9,98,4.01,4.034,4.069,4.085,4.06,4.038,17.019,78.8,14,Waypoint,
38.097715,-120.1812697,4258.2985945989,20.341208,0,0.269528880016,7400,2018-05-09 18:52:17,14,0,24.306,4258.2985945989,20.341208,0,0.40542324132,0,0,-0.671082,127.6, -0.9, -0.8,0,0,1024,1024,1024,1024,127.5,-89.9,98,4.01,4.034,4.069,4.085,4.06,4.038,17.019,78.8,14,Waypoint,
38.0977149,-120.1812697,4259.2828465989,21.32546,0,0.235246398604,7500,2018-05-09 18:52:17,14,0,24.306,4259.2828465989,21.32546,0,0.40542324132,0,0,-0.671082,127.7, -0.6, -1,0,0,1024,1024,1024,1024,127.5,-89.9,98,4.01,4.034,4.069,4.085,4.06,4.038,17.019,78.8,14,Waypoint,
38.0977149,-120.1812696,4260.5951825989,22.637796,0,0.226316280208,7600,2018-05-09 18:52:17,14,0,24.306,4260.5951825989,22.637796,0,0.40542324132,0,0,-0.671082,127.6, -0.3, -0.7,0,0,1024,1024,1024,1024,127.5,-89.9,98,4.01,4.034,4.069,4.085,4.06,4.038,17.019,78.8,14,Waypoint,
38.0977147,-120.1812692,4262.5636865989,24.6063,0.223694,0.156831041764,7800,2018-05-09 18:52:18,14,0,24.306,4262.5636865989,24.6063,0.223694,0.40542324132,0,0,-0.671082,127.3, 0.3, 0.3,0,0,1024,1024,1024,1024,127.5,-89.9,98,4.01,4.034,4.069,4.085,4.06,4.038,17.019,78.8,14,Waypoint,
38.0977146,-120.1812691,4263.8760225989,25.918636,0.223694,0.139283469024,7900,2018-05-09 18:52:18,15,0,24.306,4263.8760225989,25.918636,0.223694,0.40542324132,0,0,-0.671082,127.1, 0.7, 0.5,0,0,1024,1024,1024,1024,127.5,-89.9,98,4.01,4.034,4.069,4.085,4.06,4.038,17.019,78.8,14,Waypoint,
38.0977142,-120.181269,4265.8445265989,27.88714,0.223694,0.120504597032,8000,2018-05-09 18:52:18,14,0,23.99,4265.8445265989,27.88714,0.223694,0.40542324132,0,0,-0.671082,126.9, 0.9, -0.1,0,0,1024,1024,1024,1024,127.5,-89.9,98,3.96,3.997,4.003,4.022,3.987,4.03,22.588,78.8,14,Waypoint,
38.097714,-120.1812688,4266.8287785989,28.871392,0.223694,0.204103681072,8100,2018-05-09 18:52:18,14,0,23.99,4266.8287785989,28.871392,0.223694,0.40542324132,0,0,-0.671082,126.9, 1.1, -0.6,0,0,1024,1024,1024,1024,127.5,-89.9,98,3.96,3.997,4.003,4.022,3.987,4.03,22.588,78.8,14,Waypoint,
38.0977137,-120.1812688,4267.8130305989,29.855644,0.223694,0.278566609964,8220,2018-05-09 18:52:18,16,0,23.99,4267.8130305989,29.855644,0.223694,0.40542324132,0,0,-0.671082,127, 1.5, -0.6,0,0,1024,1024,1024,1024,127.5,-89.9,98,3.96,3.997,4.003,4.022,3.987,4.03,22.588,78.8,14,Waypoint,
38.0977133,-120.1812688,4270.1096185989,32.152232,0,0.4034777032,8500,2018-05-09 18:52:18,14,0,23.99,4270.1096185989,32.152232,0.223694,0.40542324132,0,0,-0.671082,127.1, 1.8, -0.5,0,0,1024,1024,1024,1024,127.5,-89.9,98,3.96,3.997,4.003,4.022,3.987,4.03,22.588,78.8,14,Waypoint,
38.0977129,-120.1812686,4273.0623745989,35.104988,0,0.56005907304,8610,2018-05-09 18:52:18,14,0,23.99,4273.0623745989,35.104988,0.223694,0.56005907304,0,0,-0.671082,127, 1.1, -0.6,0,0,1024,1024,1024,1024,127.5,-89.9,98,3.96,3.997,4.003,4.022,3.987,4.03,22.588,78.8,14,Waypoint,
38.0977128,-120.1812686,4274.3747105989,36.417324,0,0.59352364104,8700,2018-05-09 18:52:19,14,0,23.99,4274.3747105989,36.417324,0.223694,0.59352364104,0,0,-0.671082,127, 1, -0.5,0,0,1024,1024,1024,1024,127.5,-89.9,98,3.96,3.997,4.003,4.022,3.987,4.03,22.588,78.8,14,Waypoint,
38.0977127,-120.1812685,4275.3589625989,37.401576,0,0.63839568972,8800,2018-05-09 18:52:19,14,0,23.99,4275.3589625989,37.401576,0.223694,0.63839568972,0,0,-0.671082,127.1, 1.1, -0.5,0,0,1024,1024,1024,1024,127.5,-89.9,98,3.96,3.997,4.003,4.022,3.987,4.03,22.588,78.8,14,Waypoint,
38.0977126,-120.1812684,4276.3432145989,38.385828,0,0.68347771216,9000,2018-05-09 18:52:19,15,0,23.99,4276.3432145989,38.385828,0.223694,0.68347771216,0,0,-0.671082,127.2, 1.2, -0.6,0,0,1024,1024,1024,1024,127.5,-89.9,98,3.96,3.997,4.003,4.022,3.987,4.03,22.588,78.8,14,Waypoint,
38.0977126,-120.1812684,4277.3274665989,39.37008,0,0.68347771216,9100,2018-05-09 18:52:19,15,0,23.99,4277.3274665989,39.37008,0.223694,0.68347771216,0,0,-0.671082,127.3, 1.2, -0.5,0,0,1024,1024,1024,1024,127.5,-89.9,98,3.96,3.997,4.003,4.022,3.987,4.03,22.588,78.8,14,Waypoint,
38.0977125,-120.1812683,4278.3117185989,40.354332,0,0.72872705744,9400,2018-05-09 18:52:19,16,0,23.99,4278.3117185989,40.354332,0.223694,0.72872705744,0,0,-0.671082,127.4, 1.1, -0.6,0,0,1024,1024,1024,1024,127.5,-89.9,98,3.96,3.997,4.003,4.022,3.987,4.03,22.588,78.8,14,Waypoint,
38.0977125,-120.1812682,4279.2959705989,41.338584,0,0.74162403948,9500,2018-05-09 18:52:19,16,0,23.99,4279.2959705989,41.338584,0.223694,0.74162403948,0,0,-0.671082,127.5, 1.1, -0.5,0,0,1024,1024,1024,1024,127.5,-89.9,98,3.96,3.997,4.003,4.022,3.987,4.03,22.588,78.8,14,Waypoint,
38.0977124,-120.1812681,4280.2802225989,42.322836,0,0.78731629816,9600,2018-05-09 18:52:19,17,0,23.99,4280.2802225989,42.322836,0.223694,0.78731629816,0,0,-0.671082,127.6, 1.2, -0.4,0,0,1024,1024,1024,1024,127.5,-89.9,98,3.96,3.997,4.003,4.022,3.987,4.03,22.588,78.8,14,Waypoint,
38.0977125,-120.1812679,4283.2329785989,45.275592,0,0.78535435584,9700,2018-05-09 18:52:20,17,0,23.99,4283.2329785989,45.275592,0.223694,0.78731629816,0,0,-0.671082,127.3, 1.3, 0,0,0,1024,1024,1024,1024,127.5,-89.9,98,3.96,3.997,4.003,4.022,3.987,4.03,22.588,78.8,14,Waypoint,
38.0977125,-120.1812679,4284.2172305989,46.259844,0,0.78535435584,9900,2018-05-09 18:52:20,17,0,23.99,4284.2172305989,46.259844,0.223694,0.78731629816,0,0,-0.671082,127.2, 1.1, 0,0,0,1024,1024,1024,1024,127.5,-89.9,98,3.96,3.997,4.003,4.022,3.987,4.03,22.588,78.8,14,Waypoint,
38.0977125,-120.1812679,4285.2014825989,47.244096,0,0.78535435584,10000,2018-05-09 18:52:20,17,0,24.262,4285.2014825989,47.244096,0.223694,0.78731629816,0,0,-0.671082,127.1, 0.8, 0,0,0,1024,1024,1024,1024,127.5,-89.9,98,4.02,4.042,4.049,4.056,4.026,4.056,17.959,78.8,14,Waypoint,
38.0977125,-120.1812678,4287.1699865989,49.2126,0,0.8014599994,10200,2018-05-09 18:52:20,17,0,24.262,4287.1699865989,49.2126,0.223694,0.8014599994,0,0,-0.671082,127, 0.5, -0.1,0,0,1024,1024,1024,1024,127.5,-89.9,98,4.02,4.042,4.049,4.056,4.026,4.056,17.959,78.8,14,Waypoint,
38.0977125,-120.1812678,4288.1542385989,50.196852,0,0.8014599994,10310,2018-05-09 18:52:20,17,0,24.262,4288.1542385989,50.196852,0.223694,0.8014599994,0,0,-0.671082,127, 0.6, -0.1,0,0,1024,1024,1024,1024,127.5,-89.9,98,4.02,4.042,4.049,4.056,4.026,4.056,17.959,78.8,14,Waypoint,
38.0977126,-120.1812677,4290.1227425989,52.165356,0,0.7892716788,10500,2018-05-09 18:52:20,16,0,24.262,4290.1227425989,52.165356,0.223694,0.8014599994,0,0,-0.671082,127.1, 0.9, -0.2,0,0,1024,1024,1024,1024,127.5,-89.9,98,4.02,4.042,4.049,4.056,4.026,4.056,17.959,78.8,14,Waypoint,
38.0977127,-120.1812677,4291.1069945989,53.149608,0,0.76093506372,10610,2018-05-09 18:52:20,16,0,24.262,4291.1069945989,53.149608,0.223694,0.8014599994,0,0,-0.671082,127.1, 1, -0.1,0,0,1024,1024,1024,1024,127.5,-89.9,98,4.02,4.042,4.049,4.056,4.026,4.056,17.959,78.8,14,Waypoint,
38.0977127,-120.1812676,4292.0912465989,54.13386,0,0.77966537928,10800,2018-05-09 18:52:21,18,0,24.262,4292.0912465989,54.13386,0.223694,0.8014599994,0,0,-0.671082,127.1, 0.9, 0,0,0,1024,1024,1024,1024,127.5,-89.9,98,4.02,4.042,4.049,4.056,4.026,4.056,17.959,78.8,14,Waypoint,
38.0977128,-120.1812675,4294.0597505989,56.102364,0,0.77272968352,10900,2018-05-09 18:52:21,17,0,24.262,4294.0597505989,56.102364,0.223694,0.8014599994,0,0,-0.671082,127.3, 0.7, 0.2,0,0,1024,1024,1024,1024,127.5,-89.9,98,4.02,4.042,4.049,4.056,4.026,4.056,17.959,78.8,14,Waypoint,
38.0977129,-120.1812675,4295.0440025989,57.086616,0,0.74733598192,11010,2018-05-09 18:52:21,17,0,24.262,4295.0440025989,57.086616,0.223694,0.8014599994,0,0,-0.671082,127.3, 0.7, 0.4,0,0,1024,1024,1024,1024,127.5,-89.9,98,4.024,4.048,4.049,4.064,4.021,4.052,17.959,78.8,14,Waypoint,
38.0977131,-120.1812676,4297.9967585989,60.039372,0,0.67733926052,11320,2018-05-09 18:52:21,18,0,24.262,4297.9967585989,60.039372,0.223694,0.8014599994,0,0,-0.671082,127.3, 0.2, 0.1,0,0,1024,1024,1024,1024,127.5,-89.9,98,4.024,4.048,4.049,4.064,4.021,4.052,17.959,78.8,14,Waypoint,
38.0977132,-120.1812676,4298.9810105989,61.023624,0,0.6543471338,11400,2018-05-09 18:52:21,18,0,24.262,4298.9810105989,61.023624,0.223694,0.8014599994,0,0,-0.671082,127.3, 0.2, -0.1,0,0,1024,1024,1024,1024,127.5,-89.9,98,4.024,4.048,4.049,4.064,4.021,4.052,17.959,78.8,14,Waypoint,
38.0977132,-120.1812676,4300.9495145989,62.992128,0,0.6543471338,11510,2018-05-09 18:52:21,18,0,24.262,4300.9495145989,62.992128,0.223694,0.8014599994,0,0,-0.671082,127.4, 0.2, 0,0,0,1024,1024,1024,1024,127.5,-89.9,98,4.024,4.048,4.049,4.064,4.021,4.052,17.959,78.8,14,Waypoint,
38.0977133,-120.1812677,4301.9337665989,63.97638,0,0.60939634496,11700,2018-05-09 18:52:22,18,0,24.262,4301.9337665989,63.97638,0.223694,0.8014599994,0,0,-0.671082,127.3, 0.3, 0.2,0,0,1024,1024,1024,1024,127.5,-89.9,98,4.024,4.048,4.049,4.064,4.021,4.052,17.959,78.8,14,Waypoint,
38.0977134,-120.1812677,4303.9022705989,65.944884,0,0.58827757788,11810,2018-05-09 18:52:22,18,0,24.262,4303.9022705989,65.944884,0.223694,0.8014599994,0,0,-0.671082,127.1, 0.5, 0.5,0,0,1024,1024,1024,1024,127.5,-89.9,98,4.024,4.048,4.049,4.064,4.021,4.052,17.959,78.8,14,Waypoint,
38.0977135,-120.1812676,4304.8865225989,66.929136,0,0.59354660692,12000,2018-05-09 18:52:22,18,0,24.235,4304.8865225989,66.929136,0.223694,0.8014599994,0,0,-0.671082,127, 0.5, 0.9,0,0,1024,1024,1024,1024,127.5,-89.9,98,4.01,4.038,4.038,4.058,4.015,4.053,17.646,78.8,14,Waypoint,
38.0977136,-120.1812677,4306.8550265989,68.89764,0,0.5508858444,12100,2018-05-09 18:52:22,18,0,24.235,4306.8550265989,68.89764,0.223694,0.8014599994,0,0,-0.671082,126.9, 0.5, 0.8,0,0,1024,1024,1024,1024,127.5,-89.9,98,4.01,4.038,4.038,4.058,4.015,4.053,17.646,78.8,14,Waypoint,
38.0977137,-120.1812677,4307.8392785989,69.881892,0,0.53494752368,12210,2018-05-09 18:52:22,18,0,24.235,4307.8392785989,69.881892,0.223694,0.8014599994,0,0,-0.671082,126.9, 0.4, 0.4,0,0,1024,1024,1024,1024,127.5,-89.9,98,4.01,4.038,4.038,4.058,4.015,4.053,17.646,78.8,14,Waypoint,
38.0977137,-120.1812677,4308.8235305989,70.866144,0,0.53494752368,12400,2018-05-09 18:52:22,18,0,24.235,4308.8235305989,70.866144,0.223694,0.8014599994,0,0,-0.671082,126.9, 0.3, 0.2,0,0,1024,1024,1024,1024,127.5,-89.9,98,4.01,4.038,4.038,4.058,4.015,4.053,17.646,78.8,14,Waypoint,
38.0977137,-120.1812677,4309.8077825989,71.850396,0,0.53494752368,12500,2018-05-09 18:52:22,18,0,24.235,4309.8077825989,71.850396,0.223694,0.8014599994,0,0,-0.671082,126.9, 0.5, 0.1,0,0,1024,1024,1024,1024,127.5,-89.9,98,4.01,4.038,4.038,4.058,4.015,4.053,17.646,78.8,14,Waypoint,
38.0977137,-120.1812678,4310.7920345989,72.834648,0,0.50888453072,12700,2018-05-09 18:52:23,18,0,24.235,4310.7920345989,72.834648,0.223694,0.8014599994,0,0,-0.671082,126.9, 0.6, 0,0,0,1024,1024,1024,1024,127.5,-89.9,98,4.01,4.038,4.038,4.058,4.015,4.053,17.646,78.8,14,Waypoint,
38.0977137,-120.1812678,4311.7762865989,73.8189,0,0.50888453072,12800,2018-05-09 18:52:23,18,0,24.235,4311.7762865989,73.8189,0.223694,0.8014599994,0,0,-0.671082,127, 0.5, -0.2,0,0,1024,1024,1024,1024,127.5,-89.9,98,4.01,4.038,4.038,4.058,4.015,4.053,17.646,78.8,14,Waypoint,
38.0977137,-120.1812679,4313.7447905989,75.787404,0,0.48312337504,12900,2018-05-09 18:52:23,18,0,24.235,4313.7447905989,75.787404,0.223694,0.8014599994,0,0,-0.671082,127.1, 0.5, -0.5,0,0,1024,1024,1024,1024,127.5,-89.9,98,4.01,4.038,4.038,4.058,4.015,4.053,17.646,78.8,14,Waypoint,
38.0977138,-120.1812681,4316.6975465989,78.74016,0,0.4154527692,13200,2018-05-09 18:52:23,18,0,24.235,4316.6975465989,78.74016,0.223694,0.8014599994,0,0,-0.671082,127.5, 0.7, 0,0,0,1024,1024,1024,1024,127.5,-89.9,98,4.01,4.038,4.038,4.058,4.015,4.053,17.646,78.8,14,Waypoint,
38.0977137,-120.1812682,4318.6660505989,80.708664,0,0.40820867448,13400,2018-05-09 18:52:23,18,0,24.235,4318.6660505989,80.708664,0.223694,0.8014599994,0,0,-0.671082,127.6, 0.5, -0.2,0,0,1024,1024,1024,1024,127.5,-89.9,98,4.01,4.038,4.038,4.058,4.015,4.053,17.646,78.8,14,Waypoint,
38.0977138,-120.1812683,4319.6503025989,81.692916,0,0.3647309828,13510,2018-05-09 18:52:23,18,0,24.235,4319.6503025989,81.692916,0.223694,0.8014599994,0,0,-0.671082,127.7, 0.2, -0.5,0,0,1024,1024,1024,1024,127.5,-89.9,98,4.01,4.038,4.038,4.058,4.015,4.053,17.646,78.8,14,Waypoint,
38.0977138,-120.1812686,4322.6030585989,84.645672,0,0.29332514062,13800,2018-05-09 18:52:24,19,0,24.235,4322.6030585989,84.645672,0.223694,0.8014599994,0,0,-0.671082,127.4, 0, -0.4,0,0,1024,1024,1024,1024,127.5,-89.9,98,4.01,4.038,4.038,4.058,4.015,4.053,17.646,78.8,14,Waypoint,
38.0977138,-120.1812687,4323.5873105989,85.629924,0,0.271429142544,14000,2018-05-09 18:52:24,19,0,24.177,4323.5873105989,85.629924,0.223694,0.8014599994,0,0,-0.671082,127.1, 0, -0.4,0,0,1024,1024,1024,1024,127.5,-89.9,98,3.999,4.028,4.042,4.052,4.017,4.041,17.618,78.8,14,Waypoint,
38.0977138,-120.1812689,4325.5558145989,87.598428,0,0.23213911504,14110,2018-05-09 18:52:24,19,0,24.177,4325.5558145989,87.598428,0.223694,0.8014599994,0,0,-0.671082,126.7, 0.2, -0.5,0,0,1024,1024,1024,1024,127.5,-89.9,98,3.999,4.028,4.042,4.052,4.017,4.041,17.618,78.8,14,Waypoint,
38.0977138,-120.181269,4326.5400665989,88.58268,0,0.215566607948,14200,2018-05-09 18:52:24,19,0,24.177,4326.5400665989,88.58268,0.223694,0.8014599994,0,0,-0.671082,126.6, 0, -0.8,0,0,1024,1024,1024,1024,127.5,-90,98,3.999,4.028,4.042,4.052,4.017,4.041,17.618,78.8,14,Waypoint,
38.0977138,-120.1812691,4327.5243185989,89.566932,0,0.201738195432,14300,2018-05-09 18:52:24,19,0,24.177,4327.5243185989,89.566932,0.223694,0.8014599994,0,0,-0.671082,126.6, -0.2, -1.1,0,0,1024,1024,1024,1024,127.5,-90,98,3.999,4.028,4.042,4.052,4.017,4.041,17.618,78.8,14,Waypoint,
38.0977138,-120.1812694,4329.4928225989,91.535436,0,0.18242454652,14400,2018-05-09 18:52:24,19,0,24.177,4329.4928225989,91.535436,0.223694,0.8014599994,0,0,-0.671082,127.1, -1.1, -1.3,0,0,1024,1024,1024,1024,127.5,-90,98,3.999,4.028,4.042,4.052,4.017,4.041,17.618,78.8,14,Waypoint,
38.0977139,-120.1812696,4330.8051585989,92.847772,0,0.156831041764,14500,2018-05-09 18:52:24,19,0,24.177,4330.8051585989,92.847772,0.223694,0.8014599994,0,0,-0.671082,127.4, -1.5, -0.9,0,0,1024,1024,1024,1024,127.5,-90,98,3.999,4.028,4.042,4.052,4.017,4.041,17.618,78.8,14,Waypoint,
38.0977139,-120.1812698,4331.7894105989,93.832024,0,0.185711292032,14600,2018-05-09 18:52:24,19,0,24.177,4331.7894105989,93.832024,0.223694,0.8014599994,0,0,-0.671082,127.6, -1.8, -0.8,0,0,1024,1024,1024,1024,127.5,-90,98,3.999,4.028,4.042,4.052,4.017,4.041,17.618,78.8,14,Waypoint,
38.097714,-120.1812699,4332.7736625989,94.816276,0,0.180527236748,14800,2018-05-09 18:52:25,19,0,24.177,4332.7736625989,94.816276,0.223694,0.8014599994,0,0,-0.671082,127.8, -1.9, -0.7,0,0,1024,1024,1024,1024,127.5,-90,98,3.999,4.028,4.042,4.052,4.017,4.041,17.618,78.8,14,Waypoint,
38.097714,-120.18127,4333.7579145989,95.800528,0,0.204103681072,14900,2018-05-09 18:52:25,19,0,24.177,4333.7579145989,95.800528,0.223694,0.8014599994,0,0,-0.671082,128, -1.8, -0.8,0,0,1024,1024,1024,1024,127.5,-90,98,3.999,4.028,4.042,4.052,4.017,4.041,17.618,78.8,14,Waypoint,
38.097714,-120.1812702,4335.3983345989,97.440948,0,0.254442921528,15100,2018-05-09 18:52:25,19,0,24.177,4335.3983345989,97.440948,0.223694,0.8014599994,0,0,-0.671082,127.9, -1.5, -1,0,0,1024,1024,1024,1024,127.5,-89.9,98,3.999,4.028,4.042,4.052,4.017,4.041,17.618,78.8,14,Waypoint,
38.0977139,-120.1812704,4338.3510905989,100.393704,0,0.322082687472,15320,2018-05-09 18:52:25,19,0,24.177,4338.3510905989,100.393704,0.223694,0.8014599994,0,0,-0.671082,127.7, -1.1, -1.4,0,0,1024,1024,1024,1024,127.5,-89.9,98,3.999,4.028,4.042,4.052,4.017,4.041,17.618,78.8,14,Waypoint,
38.0977139,-120.1812704,4339.3353425989,101.377956,0,0.322082687472,15400,2018-05-09 18:52:25,19,0,24.177,4339.3353425989,101.377956,0.223694,0.8014599994,0,0,-0.671082,127.7, -1.1, -1.6,0,0,1024,1024,1024,1024,127.5,-89.9,98,3.999,4.028,4.042,4.052,4.017,4.041,17.618,78.8,14,Waypoint,
38.0977139,-120.1812705,4340.3195945989,102.362208,0,0.34792323948,15600,2018-05-09 18:52:25,19,0,24.177,4340.3195945989,102.362208,0.223694,0.8014599994,0,0,-0.671082,127.6, -0.9, -1.5,0,0,1024,1024,1024,1024,127.5,-89.9,98,3.999,4.028,4.042,4.052,4.017,4.041,17.618,78.8,14,Waypoint,
38.0977139,-120.1812705,4341.3038465989,103.34646,0,0.34792323948,15700,2018-05-09 18:52:26,19,0,24.177,4341.3038465989,103.34646,0.223694,0.8014599994,0,0,-0.671082,127.4, -1, -1.4,0,0,1024,1024,1024,1024,127.5,-89.9,98,3.999,4.028,4.042,4.052,4.017,4.041,17.618,78.8,14,Waypoint,
38.0977139,-120.1812704,4343.2723505989,105.314964,0,0.322082687472,15900,2018-05-09 18:52:26,19,0,24.177,4343.2723505989,105.314964,0.223694,0.8014599994,0,0,-0.671082,127.4, -1.1, -1.1,0,0,1024,1024,1024,1024,127.5,-89.9,98,3.999,4.028,4.042,4.052,4.017,4.041,17.618,78.8,14,Waypoint,
38.0977139,-120.1812704,4344.2566025989,106.299216,0,0.322082687472,16000,2018-05-09 18:52:26,19,0,24.163,4344.2566025989,106.299216,0.223694,0.8014599994,0,0,-0.671082,127.4, -1, -1.1,0,0,1024,1024,1024,1024,127.5,-89.9,97,4,4.022,4.037,4.053,4.014,4.039,17.125,78.8,14,Waypoint,
38.0977138,-120.1812703,4345.8970225989,107.939636,0,0.316313658416,16100,2018-05-09 18:52:26,19,0,24.163,4345.8970225989,107.939636,0.223694,0.8014599994,0,0,-0.671082,127.4, -0.4, -1.2,0,0,1024,1024,1024,1024,127.5,-89.9,97,4,4.022,4.037,4.053,4.014,4.039,17.125,78.8,14,Waypoint,
38.0977138,-120.1812703,4346.8812745989,108.923888,0,0.316313658416,16200,2018-05-09 18:52:26,19,0,24.163,4346.8812745989,108.923888,0.223694,0.8014599994,0,0,-0.671082,127.3, -0.3, -1.2,0,0,1024,1024,1024,1024,127.5,-89.9,97,4,4.022,4.037,4.053,4.014,4.039,17.125,78.8,14,Waypoint,
38.0977137,-120.1812702,4347.8655265989,109.90814,0,0.31730480018,16400,2018-05-09 18:52:26,19,0,24.163,4347.8655265989,109.90814,0.223694,0.8014599994,0,0,-0.671082,127.1, -0.2, -1.1,0,0,1024,1024,1024,1024,127.5,-89.9,97,4,4.022,4.037,4.053,4.014,4.039,17.125,78.8,14,Waypoint,
38.0977137,-120.1812701,4348.8497785989,110.892392,0,0.297180783788,16500,2018-05-09 18:52:26,19,0,24.163,4348.8497785989,110.892392,0.223694,0.8014599994,0,0,-0.671082,126.9, -0.1, -1.2,0,0,1024,1024,1024,1024,127.5,-89.9,97,4,4.022,4.037,4.053,4.014,4.039,17.125,78.8,14,Waypoint,
38.0977137,-120.18127,4350.8182825989,112.860896,0,0.278566609964,16710,2018-05-09 18:52:27,19,0,24.163,4350.8182825989,112.860896,0.223694,0.8014599994,0,0,-0.671082,126.8, -0.3, -1.2,0,0,1024,1024,1024,1024,127.5,-89.9,97,4,4.022,4.037,4.053,4.014,4.039,17.125,78.8,14,Waypoint,
38.0977137,-120.1812699,4351.8025345989,113.845148,0,0.261784457196,16820,2018-05-09 18:52:27,19,0,24.163,4351.8025345989,113.845148,0.223694,0.8014599994,0,0,-0.671082,126.8, -0.3, -0.8,0,0,1024,1024,1024,1024,127.5,-89.9,97,4,4.022,4.037,4.053,4.014,4.039,17.125,78.8,14,Waypoint,
38.0977138,-120.1812699,4352.7867865989,114.8294,0,0.23213911504,16900,2018-05-09 18:52:27,19,0,24.163,4352.7867865989,114.8294,0.223694,0.8014599994,0,0,-0.671082,126.8, -0.4, -0.4,0,0,1024,1024,1024,1024,127.5,-89.9,97,4,4.022,4.037,4.053,4.014,4.039,17.125,78.8,14,Waypoint,
38.0977138,-120.1812698,4353.7710385989,115.813652,0,0.215566607948,17100,2018-05-09 18:52:27,19,0,24.163,4353.7710385989,115.813652,0.223694,0.8014599994,0,0,-0.671082,127, -0.3, -0.1,0,0,1024,1024,1024,1024,127.5,-89.9,97,4,4.022,4.037,4.053,4.014,4.039,17.125,78.8,14,Waypoint,
38.0977139,-120.1812696,4355.4114585989,117.454072,0,0.156831041764,17200,2018-05-09 18:52:27,19,0,24.163,4355.4114585989,117.454072,0.223694,0.8014599994,0,0,-0.671082,127.5, -0.5, 0.1,0,0,1024,1024,1024,1024,127.5,-89.9,97,4,4.022,4.037,4.053,4.014,4.039,17.125,78.8,14,Waypoint,
38.097714,-120.1812695,4356.3957105989,118.438324,0,0.113158140104,17300,2018-05-09 18:52:27,20,0,24.163,4356.3957105989,118.438324,0.223694,0.8014599994,0,0,-0.671082,127.7, -0.5, 0.2,0,0,1024,1024,1024,1024,127.5,-89.9,97,4,4.022,4.037,4.053,4.014,4.039,17.125,78.8,14,Waypoint,
38.097714,-120.1812694,4357.7080465989,119.75066,0,0.109454727912,17400,2018-05-09 18:52:27,20,0,24.163,4357.7080465989,119.75066,0.223694,0.8014599994,0,0,-0.671082,127.7, -0.4, 0.3,0,0,1024,1024,1024,1024,127.5,-89.9,97,4,4.022,4.037,4.053,4.014,4.039,17.125,78.8,14,Waypoint,
38.0977141,-120.1812693,4359.6765505989,121.719164,0,0.07841535684,17610,2018-05-09 18:52:27,20,0,24.163,4359.6765505989,121.719164,0.223694,0.8014599994,0,0,-0.671082,127.5, -0.5, 0.3,0,0,1024,1024,1024,1024,127.5,-89.9,97,4,4.022,4.037,4.053,4.014,4.039,17.125,78.8,14,Waypoint,
38.0977142,-120.1812691,4362.6293065989,124.67192,0,0.0935449505,17900,2018-05-09 18:52:28,20,0,24.163,4362.6293065989,124.67192,0.223694,0.8014599994,0,0,-0.671082,126.8, -0.5, 0.7,0,0,1024,1024,1024,1024,127.5,-89.9,97,4,4.022,4.037,4.053,4.014,4.039,17.125,78.8,14,Waypoint,
38.0977142,-120.1812691,4363.6135585989,125.656172,0,0.0935449505,18000,2018-05-09 18:52:28,20,0,24.116,4363.6135585989,125.656172,0.223694,0.8014599994,0,0,-0.671082,126.7, -0.5, 0.6,0,0,1024,1024,1024,1024,127.5,-89.9,97,4,4.022,4.037,4.053,4.014,4.039,17.592,78.8,14,Waypoint,
38.0977142,-120.181269,4364.5978105989,126.640424,0,0.120504597032,18100,2018-05-09 18:52:28,20,0,24.116,4364.5978105989,126.640424,0.223694,0.8014599994,0,0,-0.671082,126.6, -0.8, 0.6,0,0,1024,1024,1024,1024,127.5,-89.9,97,4,4.022,4.037,4.053,4.014,4.039,17.592,78.8,14,Waypoint,
38.0977142,-120.181269,4366.5663145989,128.608928,0,0.120504597032,18310,2018-05-09 18:52:28,20,0,24.116,4366.5663145989,128.608928,0.223694,0.8014599994,0,0,-0.671082,126.6, -0.7, 0.4,0,0,1024,1024,1024,1024,127.5,-89.9,97,4,4.022,4.037,4.053,4.014,4.039,17.592,78.8,14,Waypoint,
38.0977143,-120.181269,4367.5505665989,129.59318,0,0.114848756956,18500,2018-05-09 18:52:28,20,0,24.116,4367.5505665989,129.59318,0.223694,0.8014599994,0,0,-0.671082,126.7, -0.4, 0.2,0,0,1024,1024,1024,1024,127.5,-89.9,97,4,4.022,4.037,4.053,4.014,4.039,17.592,78.8,14,Waypoint,
38.0977143,-120.1812689,4368.5348185989,130.577432,0,0.143561028216,18600,2018-05-09 18:52:28,20,0,24.116,4368.5348185989,130.577432,0.223694,0.8014599994,0,0,-0.671082,126.9, -0.5, 0.2,0,0,1024,1024,1024,1024,127.5,-89.9,97,4,4.022,4.037,4.053,4.014,4.039,17.592,78.8,14,Waypoint,
38.0977143,-120.1812689,4369.5190705989,131.561684,0,0.143561028216,18700,2018-05-09 18:52:29,20,0,24.116,4369.5190705989,131.561684,0.223694,0.8014599994,0,0,-0.671082,127, -0.6, 0.3,0,0,1024,1024,1024,1024,127.5,-89.9,97,4,4.022,4.037,4.053,4.014,4.039,17.592,78.8,14,Waypoint,
38.0977143,-120.1812689,4370.5033225989,132.545936,0,0.143561028216,18810,2018-05-09 18:52:29,20,0,24.116,4370.5033225989,132.545936,0.223694,0.8014599994,0,0,-0.671082,127, -0.9, 0.3,0,0,1024,1024,1024,1024,127.5,-90,97,4,4.022,4.037,4.053,4.014,4.039,17.592,78.8,14,Waypoint,
38.0977143,-120.1812689,4371.4875745989,133.530188,0,0.143561028216,18900,2018-05-09 18:52:29,20,0,24.116,4371.4875745989,133.530188,0.223694,0.8014599994,0,0,-0.671082,127, -1, 0.2,0,0,1024,1024,1024,1024,127.5,-89.9,97,4,4.022,4.037,4.053,4.014,4.039,17.592,78.8,14,Waypoint,
38.0977143,-120.1812689,4372.4718265989,134.51444,0,0.143561028216,19000,2018-05-09 18:52:29,20,0,24.05,4372.4718265989,134.51444,0.223694,0.8014599994,0,0,-0.671082,127, -1, 0.2,0,0,1024,1024,1024,1024,127.5,-89.9,97,3.981,4.002,4.024,4.038,3.997,4.023,17.97,78.8,14,Waypoint,
38.0977143,-120.1812689,4375.4245825989,137.467196,0,0.143561028216,19200,2018-05-09 18:52:29,20,0,24.05,4375.4245825989,137.467196,0.223694,0.8014599994,0,0,-0.671082,127, -0.5, 0,0,0,1024,1024,1024,1024,127.5,-89.9,97,3.981,4.002,4.024,4.038,3.997,4.023,17.97,78.8,14,Waypoint,
38.0977143,-120.1812688,4376.4088345989,138.451448,0,0.172272971392,19330,2018-05-09 18:52:29,20,0,24.05,4376.4088345989,138.451448,0.223694,0.8014599994,0,0,-0.671082,127.1, -0.1, -0.2,0,0,1024,1024,1024,1024,127.5,-89.9,97,3.981,4.002,4.024,4.038,3.997,4.023,17.97,78.8,14,Waypoint,
38.0977143,-120.1812688,4376.4088345989,138.451448,0,0.172272971392,19400,2018-05-09 18:52:29,20,0,24.05,4376.4088345989,138.451448,0.223694,0.8014599994,0,0,-0.671082,127.1, -0.1, -0.2,0,0,1024,1024,1024,1024,127.5,-89.9,97,3.981,4.002,4.024,4.038,3.997,4.023,17.97,78.8,14,Waypoint,
38.0977143,-120.1812688,4378.3773385989,140.419952,0,0.172272971392,19500,2018-05-09 18:52:29,20,0,24.05,4378.3773385989,140.419952,0.223694,0.8014599994,0,0,-0.671082,127.6, 0, 0.4,0,0,1024,1024,1024,1024,127.5,-89.9,97,3.981,4.002,4.024,4.038,3.997,4.023,17.97,78.8,14,Waypoint,
38.0977143,-120.1812687,4381.3300945989,143.372708,0,0.200985242652,19700,2018-05-09 18:52:30,20,0,24.05,4381.3300945989,143.372708,0.223694,0.8014599994,0,0,-0.671082,127.4, -0.6, 0.1,0,0,1024,1024,1024,1024,127.5,-89.9,97,3.981,4.002,4.024,4.038,3.997,4.023,17.97,78.8,14,Waypoint,
38.0977143,-120.1812687,4382.3143465989,144.35696,0,0.200985242652,19800,2018-05-09 18:52:30,20,0,24.05,4382.3143465989,144.35696,0.223694,0.8014599994,0,0,-0.671082,127.2, -0.4, 0,0,0,1024,1024,1024,1024,127.5,-89.9,97,3.981,4.002,4.024,4.038,3.997,4.023,17.97,78.8,14,Waypoint,
38.0977143,-120.1812687,4383.2985985989,145.341212,0,0.200985242652,19900,2018-05-09 18:52:30,20,0,24.05,4383.2985985989,145.341212,0.223694,0.8014599994,0,0,-0.671082,127.2, -0.4, 0.3,0,0,1024,1024,1024,1024,127.5,-89.9,97,3.981,4.002,4.024,4.038,3.997,4.023,17.97,78.8,14,Waypoint,
38.0977143,-120.1812687,4384.2828505989,146.325464,0,0.200985242652,20100,2018-05-09 18:52:30,20,0,24.05,4384.2828505989,146.325464,0.223694,0.8014599994,0,0,-0.671082,127.3, -0.5, 0.6,0,0,1024,1024,1024,1024,127.5,-89.9,97,3.981,4.002,4.024,4.038,3.997,4.023,17.97,78.8,14,Waypoint,
38.0977144,-120.1812687,4386.5794385989,148.622052,0,0.20427001966,20200,2018-05-09 18:52:30,20,0,24.05,4386.5794385989,148.622052,0.223694,0.8014599994,0,0,-0.671082,127.6, -0.5, 0.8,0,0,1024,1024,1024,1024,127.5,-89.9,97,3.981,4.002,4.024,4.038,3.997,4.023,17.97,78.8,14,Waypoint,
38.0977144,-120.1812688,4387.5636905989,149.606304,0,0.17609416574,20400,2018-05-09 18:52:30,20,0,24.05,4387.5636905989,149.606304,0.223694,0.8014599994,0,0,-0.671082,127.8, -0.8, 0.5,0,0,1024,1024,1024,1024,127.5,-90,97,3.981,4.002,4.024,4.038,3.997,4.023,17.97,78.8,14,Waypoint,
38.0977144,-120.1812688,4388.5479425989,150.590556,0,0.17609416574,20500,2018-05-09 18:52:30,20,0,24.05,4388.5479425989,150.590556,0.223694,0.8014599994,0,0,-0.671082,127.9, -1.3, 0.2,0,0,1024,1024,1024,1024,127.5,-90,97,3.981,4.002,4.024,4.038,3.997,4.023,17.97,78.8,14,Waypoint,
38.0977144,-120.1812689,4389.5321945989,151.574808,0,0.148124676656,20610,2018-05-09 18:52:30,20,0,24.05,4389.5321945989,151.574808,0.223694,0.8014599994,0,0,-0.671082,127.7, -1.3, 0,0,0,1024,1024,1024,1024,127.5,-90,97,3.981,4.002,4.024,4.038,3.997,4.023,17.97,78.8,14,Waypoint,
38.0977144,-120.181269,4390.5164465989,152.55906,0,0.120504597032,20720,2018-05-09 18:52:31,20,0,24.05,4390.5164465989,152.55906,0.223694,0.8014599994,0,0,-0.671082,127.4, -1.4, -0.3,0,0,1024,1024,1024,1024,127.5,-90,97,3.981,4.002,4.024,4.038,3.997,4.023,17.97,78.8,14,Waypoint,
38.0977145,-120.1812692,4392.8130345989,154.855648,0.223694,0.092855646016,20900,2018-05-09 18:52:31,20,0,24.05,4392.8130345989,154.855648,0.223694,0.8014599994,0,0,-0.671082,127.2, -2, -0.1,0,0,1024,1024,1024,1024,127.5,-90,97,3.981,4.002,4.024,4.038,3.997,4.023,17.97,78.8,14,Waypoint,
38.0977148,-120.1812693,4395.7657905989,157.808404,0,0.1846702815,21200,2018-05-09 18:52:31,20,0,24.05,4395.7657905989,157.808404,0.223694,0.8014599994,0,0,-0.671082,127, -2.6, 1.4,0,0,1024,1024,1024,1024,127.5,-90,97,3.981,4.002,4.024,4.038,3.997,4.023,17.97,78.8,14,Waypoint,
38.0977148,-120.1812693,4397.0781265989,159.12074,0,0.1846702815,21400,2018-05-09 18:52:31,20,0,24.05,4397.0781265989,159.12074,0.223694,0.8014599994,0,0,-0.671082,126.9, -2.5, 1.3,0,0,1024,1024,1024,1024,127.5,-89.9,97,3.981,4.002,4.024,4.038,3.997,4.023,17.97,78.8,14,Waypoint,
38.0977149,-120.1812694,4398.0623785989,160.104992,0,0.218909783908,21600,2018-05-09 18:52:31,20,0,24.05,4398.0623785989,160.104992,0.223694,0.8014599994,0,0,-0.671082,126.9, -2.4, 1.2,0,0,1024,1024,1024,1024,127.5,-89.9,97,3.981,4.002,4.024,4.038,3.997,4.023,17.97,78.8,14,Waypoint,
38.0977151,-120.1812695,4401.0151345989,163.057748,0.223694,0.293288395212,21700,2018-05-09 18:52:32,20,0,24.05,4401.0151345989,163.057748,0.223694,0.8014599994,0,0,-0.671082,127.5, -1.7, 1.5,0,0,1024,1024,1024,1024,127.5,-89.9,97,3.981,4.002,4.024,4.038,3.997,4.023,17.97,78.8,14,Waypoint,
38.0977152,-120.1812695,4402.3274705989,164.370084,0.223694,0.32961615228,21800,2018-05-09 18:52:32,20,0,24.05,4402.3274705989,164.370084,0.223694,0.8014599994,0,0,-0.671082,127.8, -1.8, 2.2,0,0,1024,1024,1024,1024,127.5,-89.9,97,3.981,4.002,4.024,4.038,3.997,4.023,17.97,78.8,14,Waypoint,
38.0977154,-120.1812694,4403.3117225989,165.354336,0.223694,0.40133531468,21930,2018-05-09 18:52:32,20,0,24.05,4403.3117225989,165.354336,0.223694,0.8014599994,0,0,-0.671082,128, -2.1, 3.1,0,0,1024,1024,1024,1024,127.5,-90,97,3.981,4.002,4.024,4.038,3.997,4.023,17.97,78.8,14,Waypoint,
38.0977155,-120.1812694,4404.2959745989,166.338588,0.223694,0.43781825548,22000,2018-05-09 18:52:32,20,0,23.984,4404.2959745989,166.338588,0.223694,0.8014599994,0,0,-0.671082,128.1, -2.8, 3.7,0,0,1024,1024,1024,1024,127.5,-90,97,3.983,3.996,4.007,4.02,3.974,4.013,17.769,80.6,14,Waypoint,
38.0977157,-120.1812694,4405.2802265989,167.32284,0.223694,0.51079069876,22100,2018-05-09 18:52:32,20,0,23.984,4405.2802265989,167.32284,0.223694,0.8014599994,0,0,-0.671082,128.2, -3.2, 4.1,0,0,1024,1024,1024,1024,127.5,-90,97,3.983,3.996,4.007,4.02,3.974,4.013,17.769,80.6,14,Waypoint,
38.0977158,-120.1812695,4406.2644785989,168.307092,0.223694,0.54802823276,22200,2018-05-09 18:52:32,20,0,23.984,4406.2644785989,168.307092,0.223694,0.8014599994,0,0,-0.671082,128.2, -3.5, 4,0,0,1024,1024,1024,1024,127.5,-90,97,3.983,3.996,4.007,4.02,3.974,4.013,17.769,80.6,14,Waypoint,
38.0977162,-120.1812698,4409.2172345989,171.259848,0.223694,0.70266406448,22500,2018-05-09 18:52:32,20,0,23.984,4409.2172345989,171.259848,0.223694,0.8014599994,0,0,-0.671082,127.8, -4.2, 3.2,0,0,1024,1024,1024,1024,127.5,-90,97,3.983,3.996,4.007,4.02,3.974,4.013,17.769,80.6,14,Waypoint,
38.0977163,-120.1812698,4410.2014865989,172.2441,0,0.738681126,22700,2018-05-09 18:52:33,20,0,23.984,4410.2014865989,172.2441,0.223694,0.8014599994,0,0,-0.671082,127.7, -4.2, 3,0,0,1024,1024,1024,1024,127.5,-90,97,3.983,3.996,4.007,4.02,3.974,4.013,17.769,80.6,14,Waypoint,
38.0977165,-120.18127,4411.8419065989,173.88452,0,0.820948189,22800,2018-05-09 18:52:33,20,0,23.984,4411.8419065989,173.88452,0.223694,0.820948189,0,0,-0.671082,127.2, -4.2, 2.9,0,0,1024,1024,1024,1024,127.5,-90,97,3.983,3.996,4.007,4.02,3.974,4.013,17.769,80.6,14,Waypoint,
38.0977167,-120.18127,4413.8104105989,175.853024,0,0.89242456924,23020,2018-05-09 18:52:33,20,0,23.984,4413.8104105989,175.853024,0.223694,0.89242456924,0,0,-0.671082,126.5, -3.8, 3.7,0,0,1024,1024,1024,1024,127.5,-89.9,97,3.974,4.005,3.999,4.019,3.989,4.015,17.769,80.6,14,Waypoint,
38.0977167,-120.18127,4414.7946625989,176.837276,0,0.89242456924,23110,2018-05-09 18:52:33,20,0,23.984,4414.7946625989,176.837276,0.223694,0.89242456924,0,0,-0.671082,126.4, -3.8, 4.1,0,0,1024,1024,1024,1024,127.5,-90,97,3.974,4.005,3.999,4.019,3.989,4.015,17.769,80.6,14,Waypoint,
38.0977168,-120.1812699,4415.7789145989,177.821528,0.223694,0.92335304792,23210,2018-05-09 18:52:33,20,0,23.984,4415.7789145989,177.821528,0.223694,0.92335304792,0,0,-0.671082,126.2, -3.5, 4,0,0,1024,1024,1024,1024,127.5,-89.9,97,3.974,4.005,3.999,4.019,3.989,4.015,17.769,80.6,14,Waypoint,
38.0977168,-120.1812699,4416.7631665989,178.80578,0.223694,0.92335304792,23400,2018-05-09 18:52:33,20,0,23.984,4416.7631665989,178.80578,0.223694,0.92335304792,0,0,-0.671082,126.3, -2.9, 4.1,0,0,1024,1024,1024,1024,127.5,-89.9,97,3.974,4.005,3.999,4.019,3.989,4.015,17.769,80.6,14,Waypoint,
38.0977167,-120.1812698,4418.7316705989,180.774284,0.223694,0.88313979204,23510,2018-05-09 18:52:33,20,0,23.984,4418.7316705989,180.774284,0.223694,0.92335304792,0,0,-0.671082,126.6, -2.4, 3.4,0,0,1024,1024,1024,1024,127.5,-89.9,97,3.974,4.005,3.999,4.019,3.989,4.015,17.769,80.6,14,Waypoint,
38.0977166,-120.1812697,4420.3720905989,182.414704,0.223694,0.84356301912,23700,2018-05-09 18:52:34,20,0,23.984,4420.3720905989,182.414704,0.223694,0.92335304792,0,0,-0.671082,127.1, -1.8, 2.6,0,0,1024,1024,1024,1024,127.5,-89.9,97,3.974,4.005,3.999,4.019,3.989,4.015,17.769,80.6,14,Waypoint,
38.0977165,-120.1812696,4421.3563425989,183.398956,0,0.80472115436,23800,2018-05-09 18:52:34,20,0,23.984,4421.3563425989,183.398956,0.223694,0.92335304792,0,0,-0.671082,127.3, -1.5, 2.8,0,0,1024,1024,1024,1024,127.5,-89.9,97,3.974,4.005,3.999,4.019,3.989,4.015,17.769,80.6,14,Waypoint,
38.0977164,-120.1812695,4423.3248465989,185.36746,0,0.76672246548,24010,2018-05-09 18:52:34,20,0,24.186,4423.3248465989,185.36746,0.223694,0.92335304792,0,0,-0.671082,127.3, -1.8, 2.9,0,0,1024,1024,1024,1024,127.5,-89.9,97,4.005,4.036,4.037,4.058,4.014,4.044,15.251,80.6,14,Waypoint,
38.0977164,-120.1812695,4423.9810145989,186.023628,0,0.76672246548,24200,2018-05-09 18:52:34,20,0,24.186,4423.9810145989,186.023628,0.223694,0.92335304792,0,0,-0.671082,127.1, -2, 3,0,0,1024,1024,1024,1024,127.5,-89.9,97,4.005,4.036,4.037,4.058,4.014,4.044,15.251,80.6,14,Waypoint,
38.0977163,-120.1812693,4425.9495185989,187.992132,0,0.73026249056,24400,2018-05-09 18:52:34,20,0,24.186,4425.9495185989,187.992132,0.223694,0.92335304792,0,0,-0.671082,126.9, -2.1, 2.7,0,0,1024,1024,1024,1024,127.5,-89.9,97,4.005,4.036,4.037,4.058,4.014,4.044,15.251,80.6,14,Waypoint,
38.0977162,-120.1812693,4426.6056865989,188.6483,0,0.69380907732,24500,2018-05-09 18:52:34,20,0,24.186,4426.6056865989,188.6483,0.223694,0.92335304792,0,0,-0.671082,126.8, -2, 2.5,0,0,1024,1024,1024,1024,127.5,-89.9,97,4.005,4.036,4.037,4.058,4.014,4.044,15.251,80.6,14,Waypoint,
38.0977161,-120.1812692,4428.5741905989,190.616804,0,0.6592355854,24600,2018-05-09 18:52:34,20,0,24.186,4428.5741905989,190.616804,0.223694,0.92335304792,0,0,-0.671082,126.9, -1.9, 2.9,0,0,1024,1024,1024,1024,127.5,-89.9,97,4.005,4.036,4.037,4.058,4.014,4.044,15.251,80.6,14,Waypoint,
38.0977163,-120.1812686,4432.1831145989,194.225728,0,0.76499674364,24900,2018-05-09 18:52:35,20,0,24.186,4432.1831145989,194.225728,0.223694,0.92335304792,0,0,-0.671082,127.3, -1.8, 4.4,0,0,1024,1024,1024,1024,127.5,-89.9,97,4.005,4.036,4.037,4.058,4.014,4.044,15.251,80.6,14,Waypoint,
38.0977163,-120.1812685,4433.1673665989,195.20998,0,0.77410435548,25000,2018-05-09 18:52:35,20,0,24.252,4433.1673665989,195.20998,0.223694,0.92335304792,0,0,-0.671082,127.3, -1.9, 4.2,0,0,1024,1024,1024,1024,127.5,-89.9,97,4.029,4.041,4.053,4.071,4.034,4.056,14.236,80.6,14,Waypoint,
38.0977162,-120.1812684,4434.8077865989,196.8504,0,0.75032154632,25140,2018-05-09 18:52:35,20,0,24.252,4434.8077865989,196.8504,0.223694,0.92335304792,0,0,-0.671082,127.2, -2.1, 3.7,0,0,1024,1024,1024,1024,127.5,-89.9,97,4.029,4.041,4.053,4.071,4.034,4.056,14.236,80.6,14,Waypoint,
38.0977161,-120.1812684,4435.7920385989,197.834652,0,0.71675199144,25200,2018-05-09 18:52:35,20,0,24.252,4435.7920385989,197.834652,0.223694,0.92335304792,0,0,-0.671082,127.3, -2.2, 3.5,0,0,1024,1024,1024,1024,127.5,-89.9,97,4.029,4.041,4.053,4.071,4.034,4.056,14.236,80.6,14,Waypoint,
38.0977161,-120.1812684,4436.7762905989,198.818904,0,0.71675199144,25400,2018-05-09 18:52:35,20,0,24.252,4436.7762905989,198.818904,0.223694,0.92335304792,0,0,-0.671082,127.4, -2.2, 3.2,0,0,1024,1024,1024,1024,127.5,-89.9,97,4.029,4.041,4.053,4.071,4.034,4.056,14.236,80.6,14,Waypoint,
38.0977159,-120.1812684,4438.7447945989,200.787408,0,0.65054792108,25500,2018-05-09 18:52:35,20,0,24.252,4438.7447945989,200.787408,0.223694,0.92335304792,0,0,-0.671082,127.4, -2.5, 2.7,0,0,1024,1024,1024,1024,127.5,-89.9,97,4.029,4.041,4.053,4.071,4.034,4.056,14.236,80.6,14,Waypoint,
38.0977158,-120.1812684,4440.7132985989,202.755912,0,0.61801839248,25610,2018-05-09 18:52:35,20,0,24.252,4440.7132985989,202.755912,0.223694,0.92335304792,0,0,-0.671082,127.2, -2.2, 2.2,0,0,1024,1024,1024,1024,127.5,-89.9,97,4.029,4.041,4.053,4.071,4.034,4.056,14.236,80.6,14,Waypoint,
38.0977158,-120.1812684,4440.7132985989,202.755912,0,0.61801839248,25700,2018-05-09 18:52:36,20,0,24.252,4440.7132985989,202.755912,0.223694,0.92335304792,0,0,-0.671082,127.2, -2.2, 2.2,0,0,1024,1024,1024,1024,127.5,-89.9,97,4.029,4.041,4.053,4.071,4.034,4.056,14.236,80.6,14,Waypoint,
38.0977157,-120.1812684,4441.6975505989,203.740164,0,0.58595474316,25800,2018-05-09 18:52:36,20,0,24.252,4441.6975505989,203.740164,0.223694,0.92335304792,0,0,-0.671082,127, -1.9, 2.1,0,0,1024,1024,1024,1024,127.5,-89.9,97,4.029,4.041,4.053,4.071,4.034,4.056,14.236,80.6,14,Waypoint,
38.0977155,-120.1812683,4443.6660545989,205.708668,0,0.53984909864,25910,2018-05-09 18:52:36,20,0,24.252,4443.6660545989,205.708668,0.223694,0.92335304792,0,0,-0.671082,127, -0.9, 2.2,0,0,1024,1024,1024,1024,127.5,-89.9,97,4.029,4.041,4.053,4.071,4.034,4.056,14.236,80.6,14,Waypoint,
38.0977154,-120.1812681,4445.6345585989,207.677172,0,0.5480807262,26110,2018-05-09 18:52:36,20,0,24.252,4445.6345585989,207.677172,0.223694,0.92335304792,0,0,-0.671082,127, -1, 2.6,0,0,1024,1024,1024,1024,127.5,-89.9,97,4.029,4.041,4.053,4.071,4.034,4.056,14.236,80.6,14,Waypoint,
38.0977154,-120.1812681,4445.6345585989,207.677172,0,0.5480807262,26200,2018-05-09 18:52:36,20,0,24.252,4445.6345585989,207.677172,0.223694,0.92335304792,0,0,-0.671082,127, -1, 2.6,0,0,1024,1024,1024,1024,127.5,-89.9,97,4.029,4.041,4.053,4.071,4.034,4.056,14.236,80.6,14,Waypoint,
38.0977153,-120.1812681,4446.6188105989,208.661424,0,0.52195539728,26300,2018-05-09 18:52:36,20,0,24.252,4446.6188105989,208.661424,0.223694,0.92335304792,0,0,-0.671082,127, -1.1, 2.6,0,0,1024,1024,1024,1024,127.5,-89.9,97,4.029,4.041,4.053,4.071,4.034,4.056,14.236,80.6,14,Waypoint,
38.0977153,-120.1812681,4447.6030625989,209.645676,0,0.52195539728,26400,2018-05-09 18:52:36,20,0,24.252,4447.6030625989,209.645676,0.223694,0.92335304792,0,0,-0.671082,127.2, -1.3, 2.7,0,0,1024,1024,1024,1024,127.5,-89.9,97,4.029,4.041,4.053,4.071,4.034,4.056,14.236,80.6,14,Waypoint,
38.0977153,-120.1812681,4448.5873145989,210.629928,0,0.52195539728,26500,2018-05-09 18:52:36,20,0,24.252,4448.5873145989,210.629928,0.223694,0.92335304792,0,0,-0.671082,127.3, -1.5, 3.1,0,0,1024,1024,1024,1024,127.5,-89.9,97,4.029,4.041,4.053,4.071,4.034,4.056,14.236,80.6,14,Waypoint,
38.0977153,-120.1812681,4449.5715665989,211.61418,0,0.52195539728,26600,2018-05-09 18:52:36,20,0,24.252,4449.5715665989,211.61418,0.223694,0.92335304792,0,0,-0.671082,127.3, -1.8, 3.3,0,0,1024,1024,1024,1024,127.5,-90,97,4.029,4.041,4.053,4.071,4.034,4.056,14.236,80.6,14,Waypoint,
38.0977154,-120.1812681,4451.2119865989,213.2546,0,0.5480807262,26700,2018-05-09 18:52:37,20,0,24.252,4451.2119865989,213.2546,0.223694,0.92335304792,0,0,-0.671082,127, -2.2, 3.1,0,0,1024,1024,1024,1024,127.5,-90,97,4.029,4.041,4.053,4.071,4.034,4.056,14.236,80.6,14,Waypoint,
38.0977154,-120.1812681,4452.1962385989,214.238852,0,0.5480807262,26800,2018-05-09 18:52:37,20,0,24.252,4452.1962385989,214.238852,0.223694,0.92335304792,0,0,-0.671082,126.5, -2.5, 2.8,0,0,1024,1024,1024,1024,127.5,-90,97,4.029,4.041,4.053,4.071,4.034,4.056,14.236,80.6,14,Waypoint,
38.0977154,-120.1812681,4453.1804905989,215.223104,0,0.5480807262,27000,2018-05-09 18:52:37,20,0,24.175,4453.1804905989,215.223104,0.223694,0.92335304792,0,0,-0.671082,126, -2.6, 2.5,0,0,1024,1024,1024,1024,127.5,-90,97,4.004,4.032,4.036,4.05,4.014,4.035,15.409,80.6,14,Waypoint,
38.0977153,-120.1812681,4454.1647425989,216.207356,0,0.52195539728,27200,2018-05-09 18:52:37,20,0,24.175,4454.1647425989,216.207356,0.223694,0.92335304792,0,0,-0.671082,125.6, -2.4, 2.1,0,0,1024,1024,1024,1024,127.5,-90,97,4.004,4.032,4.036,4.05,4.014,4.035,15.409,80.6,14,Waypoint,
38.0977153,-120.1812681,4454.8209105989,216.863524,0,0.52195539728,27400,2018-05-09 18:52:37,20,0,24.175,4454.8209105989,216.863524,0.223694,0.92335304792,0,0,-0.671082,125.6, -2.1, 1.9,0,0,1024,1024,1024,1024,127.5,-89.9,97,4.004,4.032,4.036,4.05,4.014,4.035,15.409,80.6,14,Waypoint,
38.0977152,-120.181268,4455.8051625989,217.847776,0,0.51904201136,27500,2018-05-09 18:52:37,20,0,24.175,4455.8051625989,217.847776,0.223694,0.92335304792,0,0,-0.671082,125.9, -1.6, 2,0,0,1024,1024,1024,1024,127.5,-89.9,97,4.004,4.032,4.036,4.05,4.014,4.035,15.409,80.6,14,Waypoint,
38.0977151,-120.1812679,4456.7894145989,218.832028,0.223694,0.52026904552,27700,2018-05-09 18:52:38,20,0,24.175,4456.7894145989,218.832028,0.223694,0.92335304792,0,0,-0.671082,126.4, -1.1, 2.1,0,0,1024,1024,1024,1024,127.5,-89.9,97,4.004,4.032,4.036,4.05,4.014,4.035,15.409,80.6,14,Waypoint,
38.097715,-120.1812679,4457.4455825989,219.488196,0.223694,0.50071195828,27800,2018-05-09 18:52:38,20,0,24.175,4457.4455825989,219.488196,0.223694,0.92335304792,0,0,-0.671082,127.1, -0.2, 1.8,0,0,1024,1024,1024,1024,127.5,-89.9,97,4.004,4.032,4.036,4.05,4.014,4.035,15.409,80.6,14,Waypoint,
38.0977149,-120.1812678,4458.4298345989,220.472448,0.223694,0.50888453072,27900,2018-05-09 18:52:38,20,0,24.175,4458.4298345989,220.472448,0.223694,0.92335304792,0,0,-0.671082,127.9, 0.4, 1.4,0,0,1024,1024,1024,1024,127.5,-89.9,97,4.004,4.032,4.036,4.05,4.014,4.035,15.409,80.6,14,Waypoint,
38.0977147,-120.1812677,4459.4140865989,221.4567,0.223694,0.50945867772,28000,2018-05-09 18:52:38,20,0,24.192,4459.4140865989,221.4567,0.223694,0.92335304792,0,0,-0.671082,128.3, 0.1, 1.2,0,0,1024,1024,1024,1024,127.5,-89.9,97,4.004,4.032,4.036,4.05,4.014,4.035,14.895,80.6,14,Waypoint,
38.0977147,-120.1812675,4460.7264225989,222.769036,0.223694,0.564714585,28100,2018-05-09 18:52:38,20,0,24.192,4460.7264225989,222.769036,0.223694,0.92335304792,0,0,-0.671082,128.3, 0, 1.4,0,0,1024,1024,1024,1024,127.5,-89.9,97,4.004,4.032,4.036,4.05,4.014,4.035,14.895,80.6,14,Waypoint,
38.0977146,-120.1812674,4461.7106745989,223.753288,0.223694,0.58458335204,28220,2018-05-09 18:52:38,20,0,24.192,4461.7106745989,223.753288,0.223694,0.92335304792,0,0,-0.671082,128.1, 0.7, 2.1,0,0,1024,1024,1024,1024,127.5,-89.9,97,4.004,4.032,4.036,4.05,4.014,4.035,14.895,80.6,14,Waypoint,
38.0977144,-120.1812671,4463.6791785989,225.721792,0.223694,0.66138781644,28500,2018-05-09 18:52:38,20,0,24.192,4463.6791785989,225.721792,0.223694,0.92335304792,0,0,-0.671082,127.7, 1.7, 2.6,0,0,1024,1024,1024,1024,127.5,-89.9,97,4.004,4.032,4.036,4.05,4.014,4.035,14.895,80.6,14,Waypoint,
38.0977144,-120.1812669,4464.9915145989,227.034128,0.223694,0.71873033796,28700,2018-05-09 18:52:39,20,0,24.192,4464.9915145989,227.034128,0.223694,0.92335304792,0,0,-0.671082,127.5, 1.6, 2.4,0,0,1024,1024,1024,1024,127.5,-89.9,97,4.004,4.032,4.036,4.05,4.014,4.035,14.895,80.6,14,Waypoint,
38.0977141,-120.1812665,4467.9442705989,229.986884,0.223694,0.8358432026,28920,2018-05-09 18:52:39,20,0,24.192,4467.9442705989,229.986884,0.223694,0.92335304792,0,0,-0.671082,127.1, 1.8, 2.5,0,0,1024,1024,1024,1024,127.5,-89.9,97,4.004,4.032,4.036,4.05,4.014,4.035,14.895,80.6,14,Waypoint,
38.0977141,-120.1812663,4468.9285225989,230.971136,0.223694,0.89306433304,29100,2018-05-09 18:52:39,20,0,24.192,4468.9285225989,230.971136,0.223694,0.92335304792,0,0,-0.671082,127.2, 2.8, 3,0,0,1024,1024,1024,1024,127.5,-89.9,97,4.004,4.032,4.036,4.05,4.014,4.035,14.895,80.6,14,Waypoint,
38.0977139,-120.181266,4473.1936145989,235.236228,0,0.98706367988,29400,2018-05-09 18:52:39,20,0,24.192,4473.1936145989,235.236228,0.223694,0.98706367988,0,0,-0.671082,127.4, 2.5, 2.9,0,0,1024,1024,1024,1024,127.5,-89.9,97,4.004,4.032,4.036,4.05,4.014,4.035,14.895,80.6,14,Waypoint,
38.0977138,-120.1812661,4476.4744545989,238.517068,0,0.96490488652,29810,2018-05-09 18:52:40,20,0,24.192,4476.4744545989,238.517068,0.223694,0.98706367988,0,0,-0.671082,127.2, 1, 1.8,0,0,1024,1024,1024,1024,127.5,-89.9,97,4.004,4.032,4.036,4.05,4.014,4.035,14.895,80.6,14,Waypoint,
38.0977138,-120.1812661,4477.4587065989,239.50132,0,0.96490488652,30000,2018-05-09 18:52:40,20,0,23.941,4477.4587065989,239.50132,0.223694,0.98706367988,0,0,-0.671082,126.8, 1.3, 1.4,0,0,1024,1024,1024,1024,127.5,-89.9,96,3.949,3.977,3.987,4.008,3.96,3.997,17.927,80.6,14,Waypoint,
38.097714,-120.1812661,4480.7395465989,242.78216,0,0.95380252396,30200,2018-05-09 18:52:40,20,0,23.941,4480.7395465989,242.78216,0.223694,0.98706367988,0,0,-0.671082,126.2, 0.6, 3.4,0,0,1024,1024,1024,1024,127.5,-90,96,3.949,3.977,3.987,4.008,3.96,3.997,17.927,80.6,14,Waypoint,
38.0977142,-120.1812658,4485.3327225989,247.375336,0,1.03428152916,30700,2018-05-09 18:52:41,20,0,23.941,4485.3327225989,247.375336,0.223694,1.03428152916,0,0,-0.671082,127.5, 2.4, 4.3,0,0,1024,1024,1024,1024,127.5,-89.9,96,3.949,3.977,3.987,4.008,3.96,3.997,17.927,80.6,14,Waypoint,
38.0977142,-120.1812659,4486.3169745989,248.359588,0,1.00558730252,30820,2018-05-09 18:52:41,20,0,23.941,4486.3169745989,248.359588,0.223694,1.03428152916,0,0,-0.671082,127.6, 2.6, 4.3,0,0,1024,1024,1024,1024,127.5,-89.9,96,3.949,3.977,3.987,4.008,3.96,3.997,17.927,80.6,14,Waypoint,
38.0977141,-120.1812661,4488.2854785989,250.328092,0,0.95030842936,30900,2018-05-09 18:52:41,20,0,23.941,4488.2854785989,250.328092,0.223694,1.03428152916,0,0,-0.671082,127.7, 1.9, 3,0,0,1024,1024,1024,1024,127.5,-89.9,96,3.949,3.977,3.987,4.008,3.96,3.997,17.927,80.6,14,Waypoint,
38.097714,-120.1812663,4489.9258985989,251.968512,0.223694,0.89678152476,31120,2018-05-09 18:52:41,20,0,23.941,4489.9258985989,251.968512,0.223694,1.03428152916,0,0,-0.671082,127.8, 0.9, 1.8,0,0,1024,1024,1024,1024,127.5,-90,96,3.949,3.977,3.987,4.008,3.96,3.997,17.927,80.6,14,Waypoint,
38.097714,-120.1812664,4490.9101505989,252.952764,0,0.8682907102,31220,2018-05-09 18:52:41,20,0,23.941,4490.9101505989,252.952764,0.223694,1.03428152916,0,0,-0.671082,127.8, 0.7, 1.6,0,0,1024,1024,1024,1024,127.5,-89.9,96,3.949,3.977,3.987,4.008,3.96,3.997,17.927,80.6,14,Waypoint,
38.0977139,-120.181267,4495.1752425989,257.217856,0,0.70437666296,31710,2018-05-09 18:52:42,20,0,23.941,4495.1752425989,257.217856,0.223694,1.03428152916,0,0,-0.671082,127.5, 0.5, 1.4,0,0,1024,1024,1024,1024,127.5,-89.9,96,3.949,3.977,3.987,4.008,3.96,3.997,17.927,80.6,14,Waypoint,
38.0977137,-120.1812674,4498.4560825989,260.498696,0,0.61455382544,32000,2018-05-09 18:52:42,20,0,23.89,4498.4560825989,260.498696,0.223694,1.03428152916,0,0,-0.671082,127.4, -0.1, 0.7,0,0,1024,1024,1024,1024,127.5,-90,96,3.97,3.989,3.996,4.014,3.978,3.998,18.044,80.6,14,Waypoint,
38.0977137,-120.1812675,4499.4403345989,261.482948,0,0.58781497944,32110,2018-05-09 18:52:42,20,0,23.89,4499.4403345989,261.482948,0.223694,1.03428152916,0,0,-0.671082,127.5, -0.2, 0.8,0,0,1024,1024,1024,1024,127.5,-90,96,3.97,3.989,3.996,4.014,3.978,3.998,18.044,80.6,14,Waypoint,
38.0977137,-120.1812675,4500.4245865989,262.4672,0,0.58781497944,32220,2018-05-09 18:52:42,20,0,23.89,4500.4245865989,262.4672,0.223694,1.03428152916,0,0,-0.671082,127.7, 0.3, 1.2,0,0,1024,1024,1024,1024,127.5,-89.9,96,3.97,3.989,3.996,4.014,3.978,3.998,18.044,80.6,14,Waypoint,
38.0977135,-120.1812677,4506.6581825989,268.700796,0,0.56872049064,32810,2018-05-09 18:52:43,20,0,23.89,4506.6581825989,268.700796,0.223694,1.03428152916,0,0,-0.671082,127.5, 0.6, 1.6,0,0,1024,1024,1024,1024,127.5,-89.9,96,3.97,3.989,3.996,4.014,3.978,3.998,18.044,80.6,14,Waypoint,
38.0977134,-120.1812678,4507.6424345989,269.685048,0,0.5646817766,32900,2018-05-09 18:52:43,20,0,23.89,4507.6424345989,269.685048,0.223694,1.03428152916,0,0,-0.671082,127.6, 0.6, 1.1,0,0,1024,1024,1024,1024,127.5,-89.9,96,3.97,3.989,3.996,4.014,3.978,3.998,18.044,80.6,14,Waypoint,
38.0977133,-120.1812678,4508.6266865989,270.6693,0,0.58665028124,33000,2018-05-09 18:52:43,20,0,23.89,4508.6266865989,270.6693,0.223694,1.03428152916,0,0,-0.671082,127.5, 1.1, 0.5,0,0,1024,1024,1024,1024,127.5,-89.9,96,3.954,3.976,3.989,4.006,3.963,3.998,18.044,80.6,14,Waypoint,
38.0977132,-120.1812678,4510.5951905989,272.637804,0,0.61000986204,33210,2018-05-09 18:52:43,20,0,23.89,4510.5951905989,272.637804,0.223694,1.03428152916,0,0,-0.671082,126.7, 1.7, 0,0,0,1024,1024,1024,1024,127.5,-89.9,96,3.954,3.976,3.989,4.006,3.963,3.998,18.044,80.6,14,Waypoint,
38.0977131,-120.1812678,4511.5794425989,273.622056,0,0.63460960036,33310,2018-05-09 18:52:43,20,0,23.89,4511.5794425989,273.622056,0.223694,1.03428152916,0,0,-0.671082,126.4, 1.8, 0.3,0,0,1024,1024,1024,1024,127.5,-89.9,96,3.954,3.976,3.989,4.006,3.963,3.998,18.044,80.6,14,Waypoint,
38.0977131,-120.1812678,4513.8760305989,275.918644,0,0.63460960036,33510,2018-05-09 18:52:43,20,0,23.89,4513.8760305989,275.918644,0.223694,1.03428152916,0,0,-0.671082,126.3, 2, 1.5,0,0,1024,1024,1024,1024,127.5,-89.9,96,3.954,3.976,3.989,4.006,3.963,3.998,18.044,80.6,14,Waypoint,
38.0977131,-120.1812677,4514.8602825989,276.902896,0,0.6556922782,33600,2018-05-09 18:52:43,20,0,23.89,4514.8602825989,276.902896,0.223694,1.03428152916,0,0,-0.671082,126.5, 1.8, 2.1,0,0,1024,1024,1024,1024,127.5,-89.9,96,3.954,3.976,3.989,4.006,3.963,3.998,18.044,80.6,14,Waypoint,
38.0977131,-120.1812677,4515.8445345989,277.887148,0,0.6556922782,33800,2018-05-09 18:52:44,20,0,23.89,4515.8445345989,277.887148,0.223694,1.03428152916,0,0,-0.671082,126.8, 1.9, 2.1,0,0,1024,1024,1024,1024,127.5,-89.9,96,3.954,3.976,3.989,4.006,3.963,3.998,18.044,80.6,14,Waypoint,
38.0977129,-120.1812676,4518.7972905989,280.839904,0,0.7266404432,34000,2018-05-09 18:52:44,20,0,23.942,4518.7972905989,280.839904,0.223694,1.03428152916,0,0,-0.671082,127.4, 2, 1.4,0,0,1024,1024,1024,1024,127.5,-89.9,96,3.961,3.997,3.995,4.014,3.983,4.009,17.204,80.6,14,Waypoint,
38.0977128,-120.1812676,4520.7657945989,282.808408,0,0.75273624456,34200,2018-05-09 18:52:44,20,0,23.942,4520.7657945989,282.808408,0.223694,1.03428152916,0,0,-0.671082,127.9, 1.8, 1.1,0,0,1024,1024,1024,1024,127.5,-89.9,96,3.961,3.997,3.995,4.014,3.983,4.009,17.204,80.6,14,Waypoint,
