Latitude, Longitude, Altitude (m), Time, Sats, Speed (m/s), Range (m), Battery (%), Roll (deg), Pitch (deg), Yaw (deg), Images, HD Signal (%), RC Signal (%), Battery Temp (C), Battery Voltage (mV), Battery Current (mA), Battery Energy (mAh), Battery Capacity (mAh), Battery Discharges, flyState, timestamp (Unix), LastUpdate (ms), radioChannel, Rc_elevator, Rc_aileron, Rc_throttle, Rc_rudder, Rc_gyro, Dronetype, Battery_Cell1 (mV), Battery_Cell2 (mV), Battery_Cell3 (mV), Battery_Cell4 (mV), Battery_Cell5 (mV), Battery_Cell6 (mV), Video, isFlying, elapsedTime (ms), gimbalPitch (deg), gimbalRoll (deg), gimbalYaw (deg), VelocityX (m/s), VelocityY (m/s), VelocityZ (m/s), GroundSmear (cm), App Version, Aircraft Name, Aircraft Firmware, Aircraft Serial Number, Battery Serial Number, Battery Lifetime (%), App_Tip, App_Warning, CurrentFlightStartingIndex, CurrentFlightLastVisitedWaypoint, PreviousFlightEndingWaypointIndex
38.0977241, -120.1812934, 0.000, 12:33:10.707, 15, 0.00, 0.06, 100, 0.000, 0.800, 125.700, 1273, 100, 100, 25, 25652, -5887, 5472, 5472, 12, 11, 1525894390.707, 74, 0, 1024, 1024, 1024, 1024, 0, 6, 4298, 4310, 4306, 4307, 4312, 4306, 0, 1, 2915, -89.900, 0.000, 126.100, 0.000, 0.000, -0.100, 0.0, MapPilot_2.8.1_04242018, Dendroctonus I, 1.3.1.00, 041DDC1887, 1058171200162, 97, DJI_0277.jpg, Starting Mission from Lat/Long: 38.09773/-120.18130 Camera: Zenmuse X3 - Overlap: 90/90 - Active Connection: No, 49, 49, 49
38.0977241, -120.1812933, 0.000, 12:33:10.793, 15, 0.00, 0.07, 100, 0.000, 1.100, 125.700, 1273, 100, 100, 25, 25652, -5887, 5472, 5472, 12, 11, 1525894390.793, 63, 0, 1024, 1024, 1024, 1024, 0, 6, 4168, 4186, 4296, 4291, 4301, 4287, 0, 1, 3001, -89.900, 0.000, 126.100, 0.000, 0.000, -0.200, 0.0, , , , , , 97, , , 49, 49, 49
38.0977241, -120.1812933, 0.000, 12:33:10.893, 15, 0.00, 0.08, 100, 0.400, 1.200, 125.700, 1273, 100, 100, 25, 25652, -5887, 5472, 5472, 12, 11, 1525894390.893, 53, 0, 1024, 1024, 1024, 1024, 0, 6, 4168, 4186, 4296, 4291, 4301, 4287, 0, 1, 3101, -89.900, 0.000, 126.100, 0.000, 0.000, -0.300, 0.0, , , , , , 97, , , 49, 49, 49
38.0977241, -120.1812932, 0.100, 12:33:10.992, 15, 0.00, 0.08, 100, 0.600, 1.000, 125.800, 1273, 100, 100, 25, 25652, -5887, 5472, 5472, 12, 11, 1525894390.993, 67, 0, 1024, 1024, 1024, 1024, 0, 6, 4168, 4186, 4296, 4291, 4301, 4287, 0, 1, 3201, -89.900, 0.000, 126.100, 0.000, 0.000, -0.300, 0.0, , , , , , 97, , , 49, 49, 49
38.0977241, -120.1812931, 0.100, 12:33:11.092, 15, 0.00, 0.09, 100, 0.900, 0.700, 125.800, 1273, 100, 100, 25, 25652, -5887, 5472, 5472, 12, 11, 1525894391.092, 43, 0, 1024, 1024, 1024, 1024, 0, 6, 4168, 4186, 4296, 4291, 4301, 4287, 0, 1, 3300, -89.900, 0.000, 126.100, 0.000, 0.000, -0.400, 0.0, , , , , , 97, , , 49, 49, 49
38.0977241, -120.1812930, 0.100, 12:33:11.193, 15, 0.00, 0.10, 100, 0.900, 0.500, 125.700, 1273, 100, 100, 25, 25652, -5887, 5472, 5472, 12, 11, 1525894391.194, 59, 0, 1024, 1024, 1024, 1024, 0, 6, 4168, 4186, 4296, 4291, 4301, 4287, 0, 1, 3402, -89.900, 0.000, 126.100, 0.000, 0.000, -0.400, 0.0, , , , , , 97, , , 49, 49, 49
38.0977241, -120.1812928, 0.200, 12:33:11.293, 15, 0.00, 0.11, 100, 0.900, 0.400, 125.700, 1273, 100, 100, 25, 25652, -5887, 5472, 5472, 12, 11, 1525894391.293, 62, 0, 1024, 1024, 1024, 1024, 0, 6, 4168, 4186, 4296, 4291, 4301, 4287, 0, 1, 3501, -89.900, 0.000, 126.100, 0.000, 0.000, -0.300, 0.0, , , , , , 97, , , 49, 49, 49
38.0977241, -120.1812927, 0.200, 12:33:11.393, 15, 0.00, 0.12, 100, 0.900, 0.400, 125.600, 1273, 100, 100, 25, 25652, -5887, 5472, 5472, 12, 11, 1525894391.393, 51, 0, 1024, 1024, 1024, 1024, 0, 6, 4168, 4186, 4296, 4291, 4301, 4287, 0, 1, 3601, -90.000, 0.000, 126.100, 0.000, 0.000, -0.400, 0.0, , , , , , 97, , , 49, 49, 49
38.0977241, -120.1812926, 0.300, 12:33:11.493, 15, 0.00, 0.13, 100, 0.800, 0.200, 125.500, 1273, 100, 100, 25, 25652, -5887, 5472, 5472, 12, 11, 1525894391.493, 34, 0, 1024, 1024, 1024, 1024, 0, 6, 4168, 4186, 4296, 4291, 4301, 4287, 0, 1, 3701, -90.000, 0.000, 126.100, 0.000, 0.000, -0.300, 0.0, , , , , , 97, , , 49, 49, 49
38.0977240, -120.1812926, 0.300, 12:33:11.593, 15, 0.00, 0.13, 100, 0.400, 0.100, 125.400, 1273, 100, 100, 25, 25652, -5887, 5472, 5472, 12, 11, 1525894391.593, 32, 0, 1024, 1024, 1024, 1024, 0, 6, 4168, 4186, 4296, 4291, 4301, 4287, 0, 1, 3801, -89.900, 0.000, 126.100, 0.000, 0.000, -0.400, 0.0, , , , , , 97, , , 49, 49, 49
38.0977240, -120.1812926, 0.400, 12:33:11.693, 15, 0.00, 0.13, 100, 0.100, 0.200, 125.400, 1273, 100, 100, 25, 24559, -15870, 5472, 5472, 12, 11, 1525894391.693, 45, 0, 1024, 1024, 1024, 1024, 0, 6, 4168, 4186, 4296, 4291, 4301, 4287, 0, 1, 3901, -89.900, 0.000, 126.100, 0.000, 0.000, -0.400, 0.0, , , , , , 97, , , 49, 49, 49
38.0977240, -120.1812925, 0.400, 12:33:11.792, 15, 0.00, 0.14, 100, 0.100, 0.400, 125.300, 1273, 100, 100, 25, 24559, -15870, 5472, 5472, 12, 11, 1525894391.793, 47, 0, 1024, 1024, 1024, 1024, 0, 6, 4168, 4186, 4296, 4291, 4301, 4287, 0, 1, 4001, -89.900, 0.000, 126.100, 0.000, 0.000, -0.400, 0.0, , , , , , 97, , , 49, 49, 49
38.0977239, -120.1812924, 0.500, 12:33:11.893, 15, 0.00, 0.15, 100, 0.200, 0.600, 125.200, 1273, 100, 100, 25, 24559, -15870, 5472, 5472, 12, 11, 1525894391.894, 31, 0, 1024, 1024, 1024, 1024, 0, 6, 4168, 4186, 4296, 4291, 4301, 4287, 0, 1, 4102, -89.900, 0.000, 126.100, 0.000, 0.000, -0.500, 0.0, , , , , , 97, , , 49, 49, 49
38.0977239, -120.1812924, 0.500, 12:33:11.993, 15, 0.00, 0.16, 100, 0.200, 0.900, 125.200, 1273, 100, 100, 25, 24559, -15870, 5472, 5472, 12, 11, 1525894391.993, 30, 0, 1024, 1024, 1024, 1024, 0, 6, 4168, 4186, 4296, 4291, 4301, 4287, 0, 1, 4201, -89.900, 0.000, 126.100, 0.000, 0.000, -0.500, 0.0, , , , , , 97, , , 49, 49, 49
38.0977238, -120.1812923, 0.600, 12:33:12.092, 15, 0.00, 0.16, 100, 0.100, 0.800, 125.400, 1273, 100, 100, 25, 24559, -15870, 5472, 5472, 12, 11, 1525894392.092, 30, 0, 1024, 1024, 1024, 1024, 0, 6, 4168, 4186, 4296, 4291, 4301, 4287, 0, 1, 4300, -89.900, 0.000, 126.100, 0.000, 0.000, -0.400, 0.0, , , , , , 97, , , 49, 49, 49
38.0977237, -120.1812923, 0.600, 12:33:12.193, 15, 0.00, 0.17, 100, -0.200, 0.600, 125.600, 1273, 100, 100, 25, 24559, -15870, 5472, 5472, 12, 11, 1525894392.193, 19, 0, 1024, 1024, 1024, 1024, 0, 6, 4061, 4094, 4085, 4088, 4088, 4189, 0, 1, 4401, -89.900, 0.000, 126.100, 0.000, 0.000, -0.400, 0.0, , , , , , 97, , , 49, 49, 49
38.0977237, -120.1812923, 0.700, 12:33:12.293, 15, 0.00, 0.17, 100, -0.200, 0.800, 125.800, 1273, 100, 100, 25, 24559, -15870, 5472, 5472, 12, 11, 1525894392.293, 32, 0, 1024, 1024, 1024, 1024, 0, 6, 4061, 4094, 4085, 4088, 4088, 4189, 0, 1, 4501, -89.900, 0.000, 126.100, 0.000, 0.000, -0.400, 0.0, , , , , , 97, , , 49, 49, 49
38.0977237, -120.1812924, 0.700, 12:33:12.393, 15, 0.00, 0.17, 100, -0.300, 0.900, 126.000, 1273, 100, 100, 25, 24559, -15870, 5472, 5472, 12, 11, 1525894392.394, 32, 0, 1024, 1024, 1024, 1024, 0, 6, 4061, 4094, 4085, 4088, 4088, 4189, 0, 1, 4602, -89.900, 0.000, 126.100, 0.000, 0.000, -0.500, 0.0, , , , , , 97, , , 49, 49, 49
38.0977237, -120.1812924, 0.800, 12:33:12.493, 15, 0.00, 0.17, 100, -0.600, 0.700, 126.200, 1273, 100, 100, 25, 24559, -15870, 5472, 5472, 12, 11, 1525894392.493, 20, 0, 1024, 1024, 1024, 1024, 0, 6, 4061, 4094, 4085, 4088, 4088, 4189, 0, 1, 4701, -89.900, 0.000, 126.100, 0.000, 0.000, -0.500, 0.0, , , , , , 97, , , 49, 49, 49
38.0977236, -120.1812924, 0.900, 12:33:12.593, 15, 0.00, 0.17, 100, -0.700, 0.400, 126.200, 1273, 100, 100, 25, 24559, -15870, 5472, 5472, 12, 11, 1525894392.593, 22, 0, 1024, 1024, 1024, 1024, 0, 6, 4061, 4094, 4085, 4088, 4088, 4189, 0, 1, 4801, -90.000, 0.000, 126.100, 0.000, 0.000, -0.500, 0.0, , , , , , 97, , , 49, 49, 49
38.0977236, -120.1812924, 0.900, 12:33:12.697, 14, 0.00, 0.17, 100, -0.500, 0.200, 126.100, 1273, 100, 100, 25, 24559, -15870, 5472, 5472, 12, 14, 1525894392.697, 5, 0, 1024, 1024, 1024, 1024, 0, 6, 4061, 4094, 4085, 4088, 4088, 4189, 0, 1, 4905, -90.000, 0.000, 126.100, 0.000, 0.000, -0.500, 0.0, , , , , , 97, , , 49, 49, 49
38.0977236, -120.1812925, 1.000, 12:33:12.800, 14, 0.00, 0.16, 100, -0.300, -0.100, 126.200, 1273, 100, 100, 25, 24559, -15870, 5472, 5472, 12, 14, 1525894392.800, 8, 0, 1024, 1024, 1024, 1024, 0, 6, 4061, 4094, 4085, 4088, 4088, 4189, 0, 1, 5008, -90.000, 0.000, 126.100, 0.000, 0.000, -0.300, 0.0, , , , , , 97, , , 49, 49, 49
38.0977236, -120.1812925, 1.000, 12:33:12.893, 15, 0.00, 0.16, 100, -0.200, -0.400, 126.400, 1273, 100, 100, 25, 24559, -15870, 5472, 5472, 12, 14, 1525894392.894, 4, 0, 1024, 1024, 1024, 1024, 0, 6, 4061, 4094, 4085, 4088, 4088, 4189, 0, 1, 5102, -90.000, 0.000, 126.100, 0.000, 0.000, -0.200, 0.0, , , , , , 97, , , 49, 49, 49
38.0977236, -120.1812926, 1.000, 12:33:12.994, 15, 0.00, 0.16, 100, 0.000, -0.300, 126.600, 1273, 100, 100, 25, 24559, -15870, 5472, 5472, 12, 14, 1525894392.995, 5, 0, 1024, 1024, 1024, 1024, 0, 6, 4061, 4094, 4085, 4088, 4088, 4189, 0, 1, 5203, -90.000, 0.000, 126.100, 0.000, 0.000, -0.200, 0.0, , , , , , 97, , , 49, 49, 49
38.0977236, -120.1812925, 1.100, 12:33:13.092, 15, 0.00, 0.16, 100, 0.000, -0.100, 126.900, 1273, 100, 100, 25, 24559, -15870, 5472, 5472, 12, 14, 1525894393.092, 95, 0, 1024, 1024, 1024, 1024, 0, 6, 4061, 4094, 4085, 4088, 4088, 4189, 0, 1, 5300, -90.000, 0.000, 126.100, 0.000, 0.000, -0.300, 0.0, , , , , , 97, , , 49, 49, 49
38.0977236, -120.1812925, 1.100, 12:33:13.193, 15, 0.00, 0.16, 100, 0.000, -0.100, 126.900, 1273, 100, 100, 25, 24559, -15870, 5472, 5472, 12, 14, 1525894393.193, 196, 0, 1024, 1024, 1024, 1024, 0, 6, 4061, 4094, 4085, 4088, 4088, 4189, 0, 1, 5401, -89.900, 0.000, 126.100, 0.000, 0.000, -0.300, 0.0, , , , , , 97, , , 49, 49, 49
38.0977236, -120.1812926, 1.200, 12:33:13.293, 15, 0.00, 0.16, 100, 0.400, 0.100, 127.500, 1273, 100, 100, 25, 24377, -16769, 5362, 5472, 12, 14, 1525894393.293, 85, 0, 1024, 1024, 1024, 1024, 0, 6, 4042, 4070, 4057, 4056, 4060, 4052, 0, 1, 5501, -89.900, 0.000, 126.100, 0.000, 0.000, -0.500, 0.0, , , , , , 97, , , 49, 49, 49
38.0977235, -120.1812926, 1.300, 12:33:13.392, 15, 0.00, 0.16, 100, 0.300, 0.300, 127.900, 1273, 100, 100, 25, 24377, -16769, 5362, 5472, 12, 14, 1525894393.392, 67, 0, 1024, 1024, 1024, 1024, 0, 6, 4042, 4070, 4057, 4056, 4060, 4052, 0, 1, 5600, -89.900, 0.000, 126.100, 0.000, 0.000, -0.800, 0.0, , , , , , 97, , , 49, 49, 49
38.0977235, -120.1812927, 1.400, 12:33:13.492, 14, 0.00, 0.16, 100, 0.000, 0.200, 128.200, 1273, 100, 100, 25, 24377, -16769, 5362, 5472, 12, 14, 1525894393.493, 72, 0, 1024, 1024, 1024, 1024, 0, 6, 4042, 4070, 4057, 4056, 4060, 4052, 0, 1, 5701, -89.900, 0.000, 126.200, 0.000, 0.000, -1.000, 0.0, , , , , , 97, , , 49, 49, 49
38.0977236, -120.1812927, 1.500, 12:33:13.593, 14, 0.00, 0.15, 100, -0.100, 0.000, 128.600, 1273, 100, 100, 25, 24377, -16769, 5362, 5472, 12, 14, 1525894393.593, 71, 0, 1024, 1024, 1024, 1024, 0, 6, 4042, 4070, 4057, 4056, 4060, 4052, 0, 1, 5801, -90.000, 0.000, 126.200, 0.000, 0.000, -1.100, 0.0, , , , , , 97, , , 49, 49, 49
38.0977235, -120.1812928, 1.600, 12:33:13.693, 15, 0.00, 0.15, 100, -0.200, -0.300, 129.100, 1273, 100, 100, 25, 24377, -16769, 5362, 5472, 12, 14, 1525894393.693, 42, 0, 1024, 1024, 1024, 1024, 0, 6, 4042, 4070, 4057, 4056, 4060, 4052, 0, 1, 5901, -90.000, 0.000, 126.300, 0.000, 0.000, -1.400, 0.0, , , , , , 97, , , 49, 49, 49
38.0977235, -120.1812929, 1.800, 12:33:13.793, 15, 0.00, 0.15, 100, -0.400, -0.500, 129.400, 1273, 100, 100, 25, 24377, -16769, 5362, 5472, 12, 14, 1525894393.793, 68, 0, 1024, 1024, 1024, 1024, 0, 6, 4042, 4070, 4057, 4056, 4060, 4052, 0, 1, 6001, -90.000, 0.000, 126.400, 0.000, 0.000, -1.600, 0.0, , , , , , 97, , , 49, 49, 49
38.0977235, -120.1812929, 2.000, 12:33:13.892, 15, 0.00, 0.14, 100, -0.400, -0.400, 129.500, 1273, 100, 100, 25, 24377, -16769, 5362, 5472, 12, 14, 1525894393.893, 57, 0, 1024, 1024, 1024, 1024, 0, 6, 4042, 4070, 4057, 4056, 4060, 4052, 0, 1, 6100, -90.000, 0.000, 126.500, 0.000, 0.000, -1.800, 0.0, , , , , , 97, , , 49, 49, 49
38.0977236, -120.1812930, 2.200, 12:33:13.993, 15, 0.00, 0.13, 100, -0.100, -0.200, 129.400, 1273, 100, 100, 25, 24377, -16769, 5362, 5472, 12, 14, 1525894393.993, 64, 0, 1024, 1024, 1024, 1024, 0, 6, 4042, 4070, 4057, 4056, 4060, 4052, 0, 1, 6201, -89.900, 0.000, 126.500, 0.000, 0.000, -1.900, 0.0, , , , , , 97, , , 49, 49, 49
38.0977236, -120.1812930, 2.400, 12:33:14.092, 15, 0.00, 0.13, 100, 0.200, 0.000, 129.100, 1273, 100, 100, 25, 24377, -16769, 5362, 5472, 12, 14, 1525894394.093, 60, 0, 1024, 1024, 1024, 1024, 0, 6, 4042, 4070, 4057, 4056, 4060, 4052, 0, 1, 6301, -89.900, 0.000, 126.600, 0.000, 0.000, -2.100, 0.0, , , , , , 97, , , 49, 49, 49
38.0977237, -120.1812930, 2.600, 12:33:14.193, 15, 0.00, 0.12, 98, 0.700, 0.000, 128.700, 1273, 100, 100, 25, 24285, -16853, 5362, 5472, 12, 14, 1525894394.193, 29, 0, 1024, 1024, 1024, 1024, 0, 6, 4042, 4070, 4057, 4056, 4060, 4052, 0, 1, 6401, -90.000, 0.000, 126.700, 0.000, 0.000, -2.400, 0.0, , , , , , 97, , , 49, 49, 49
38.0977237, -120.1812927, 2.900, 12:33:14.293, 15, 0.00, 0.14, 98, 1.100, -0.300, 128.400, 1273, 100, 100, 25, 24285, -16853, 5362, 5472, 12, 14, 1525894394.293, 39, 0, 1024, 1024, 1024, 1024, 0, 6, 4023, 4032, 4014, 4014, 4027, 3987, 0, 1, 6501, -90.000, 0.000, 126.700, 0.000, 0.000, -2.600, 0.0, , , , , , 97, , , 49, 49, 49
38.0977237, -120.1812925, 3.200, 12:33:14.393, 15, 0.00, 0.16, 98, 1.000, -0.300, 128.200, 1273, 100, 100, 25, 24285, -16853, 5362, 5472, 12, 14, 1525894394.393, 38, 0, 1024, 1024, 1024, 1024, 0, 6, 4023, 4032, 4014, 4014, 4027, 3987, 0, 1, 6601, -89.900, 0.000, 126.800, 0.000, 0.000, -2.900, 0.0, , , , , , 97, , , 49, 49, 49
38.0977237, -120.1812925, 3.500, 12:33:14.493, 15, 0.00, 0.16, 98, 0.800, 0.000, 128.200, 1273, 100, 100, 25, 24285, -16853, 5362, 5472, 12, 14, 1525894394.493, 17, 0, 1024, 1024, 1024, 1024, 0, 6, 4023, 4032, 4014, 4014, 4027, 3987, 0, 1, 6701, -89.900, 0.000, 126.800, 0.000, 0.000, -3.100, 0.0, , , , , , 97, , , 49, 49, 49
38.0977237, -120.1812926, 3.800, 12:33:14.592, 15, 0.00, 0.15, 98, 0.600, 0.100, 128.200, 1273, 100, 100, 25, 24285, -16853, 5362, 5472, 12, 14, 1525894394.593, 9, 0, 1024, 1024, 1024, 1024, 0, 6, 4023, 4032, 4014, 4014, 4027, 3987, 0, 1, 6801, -89.900, 0.000, 126.900, 0.000, 0.000, -3.100, 0.0, , , , , , 97, , , 49, 49, 49
38.0977236, -120.1812925, 4.100, 12:33:14.694, 15, 0.00, 0.16, 98, 0.100, 0.200, 128.200, 1273, 100, 100, 25, 24285, -16853, 5362, 5472, 12, 14, 1525894394.695, 6, 0, 1024, 1024, 1024, 1024, 0, 6, 4023, 4032, 4014, 4014, 4027, 3987, 0, 1, 6903, -89.900, 0.000, 127.000, 0.000, 0.000, -3.200, 0.0, , , , , , 97, , , 49, 49, 49
38.0977236, -120.1812925, 4.500, 12:33:14.792, 15, 0.00, 0.17, 98, -0.100, 0.200, 128.100, 1273, 100, 100, 25, 24285, -16853, 5362, 5472, 12, 14, 1525894394.793, 14, 0, 1024, 1024, 1024, 1024, 0, 6, 4023, 4032, 4014, 4014, 4027, 3987, 0, 1, 7001, -90.000, 0.000, 127.000, 0.000, 0.000, -3.200, 0.0, , , , , , 97, , , 49, 49, 49
38.0977236, -120.1812924, 4.800, 12:33:14.896, 15, 0.00, 0.17, 98, -0.200, 0.000, 128.000, 1273, 100, 100, 25, 24285, -16853, 5362, 5472, 12, 14, 1525894394.896, 4, 0, 1024, 1024, 1024, 1024, 0, 6, 4023, 4032, 4014, 4014, 4027, 3987, 0, 1, 7104, -90.000, 0.000, 127.000, 0.000, 0.000, -3.200, 0.0, , , , , , 97, , , 49, 49, 49
38.0977236, -120.1812924, 4.800, 12:33:14.993, 15, 0.00, 0.17, 98, -0.200, 0.000, 128.000, 1273, 100, 100, 25, 24285, -16853, 5362, 5472, 12, 14, 1525894394.993, 101, 0, 1024, 1024, 1024, 1024, 0, 6, 4023, 4032, 4014, 4014, 4027, 3987, 0, 1, 7201, -89.900, 0.000, 127.100, 0.000, 0.000, -3.200, 0.0, , , , , , 97, , , 49, 49, 49
38.0977236, -120.1812924, 5.200, 12:33:15.092, 15, 0.00, 0.17, 98, -0.100, 0.000, 128.100, 1273, 100, 100, 25, 24285, -16853, 5362, 5472, 12, 14, 1525894395.092, 89, 0, 1024, 1024, 1024, 1024, 0, 6, 4023, 4032, 4014, 4014, 4027, 3987, 0, 1, 7300, -90.000, 0.000, 127.100, 0.000, 0.000, -3.200, 0.0, , , , , , 97, , , 49, 49, 49
38.0977236, -120.1812924, 5.500, 12:33:15.193, 14, 0.00, 0.17, 98, 0.000, -0.100, 128.200, 1273, 100, 100, 25, 24285, -16853, 5362, 5472, 12, 14, 1525894395.193, 98, 0, 1024, 1024, 1024, 1024, 0, 6, 4023, 4032, 4014, 4014, 4027, 3987, 0, 1, 7401, -90.000, 0.000, 127.100, 0.000, 0.000, -3.200, 0.0, , , , , , 97, , , 49, 49, 49
38.0977235, -120.1812924, 5.800, 12:33:15.293, 14, 0.00, 0.18, 98, 0.200, -0.200, 128.400, 1273, 100, 100, 25, 23659, -23545, 5362, 5472, 12, 14, 1525894395.293, 97, 0, 1024, 1024, 1024, 1024, 0, 6, 3913, 3962, 3952, 3944, 3953, 3940, 0, 1, 7501, -90.000, 0.000, 127.200, 0.000, 0.000, -3.200, 0.0, , , , , , 97, , , 49, 49, 49
38.0977240, -120.1812924, 6.500, 12:33:15.393, 15, 0.00, 0.15, 98, 0.600, -0.300, 128.500, 1273, 100, 100, 25, 23659, -23545, 5362, 5472, 12, 14, 1525894395.393, 79, 0, 1024, 1024, 1024, 1024, 0, 6, 3913, 3962, 3952, 3944, 3953, 3940, 0, 1, 7601, -90.000, 0.000, 127.200, 0.000, 0.000, -3.200, 0.0, , , , , , 97, , , 49, 49, 49
38.0977241, -120.1812925, 6.800, 12:33:15.492, 15, 0.00, 0.13, 98, 1.300, -0.500, 128.600, 1273, 100, 100, 25, 23659, -23545, 5362, 5472, 12, 14, 1525894395.493, 96, 0, 1024, 1024, 1024, 1024, 0, 6, 3913, 3962, 3952, 3944, 3953, 3940, 0, 1, 7701, -90.000, 0.000, 127.300, 0.000, 0.000, -3.200, 0.0, , , , , , 97, , , 49, 49, 49
38.0977241, -120.1812925, 6.800, 12:33:15.593, 15, 0.00, 0.13, 98, 1.300, -0.500, 128.600, 1273, 100, 100, 25, 23659, -23545, 5362, 5472, 12, 14, 1525894395.594, 196, 0, 1024, 1024, 1024, 1024, 0, 6, 3913, 3962, 3952, 3944, 3953, 3940, 0, 1, 7802, -90.000, 0.000, 127.300, 0.000, 0.000, -3.200, 0.0, , , , , , 97, , , 49, 49, 49
38.0977244, -120.1812927, 7.400, 12:33:15.693, 15, 0.00, 0.11, 98, 1.900, -1.000, 129.400, 1273, 100, 100, 25, 23659, -23545, 5362, 5472, 12, 14, 1525894395.693, 72, 0, 1024, 1024, 1024, 1024, 0, 6, 3913, 3962, 3952, 3944, 3953, 3940, 0, 1, 7901, -90.000, 0.000, 127.400, 0.000, 0.000, -3.100, 0.0, , , , , , 97, , , 49, 49, 49
38.0977246, -120.1812928, 7.800, 12:33:15.793, 15, 0.00, 0.10, 98, 1.600, -1.200, 129.700, 1273, 100, 100, 25, 23659, -23545, 5362, 5472, 12, 14, 1525894395.793, 89, 0, 1024, 1024, 1024, 1024, 0, 6, 3913, 3962, 3952, 3944, 3953, 3940, 0, 1, 8001, -90.000, 0.000, 127.400, 0.000, 0.000, -3.100, 0.0, , , , , , 97, , , 49, 49, 49
38.0977245, -120.1812929, 8.100, 12:33:15.893, 15, 0.00, 0.09, 98, 1.300, -1.300, 129.800, 1273, 100, 100, 25, 23659, -23545, 5362, 5472, 12, 14, 1525894395.893, 56, 0, 1024, 1024, 1024, 1024, 0, 6, 3913, 3962, 3952, 3944, 3953, 3940, 0, 1, 8101, -90.000, 0.000, 127.400, 0.000, 0.000, -3.100, 0.0, , , , , , 97, , , 49, 49, 49
38.0977243, -120.1812931, 8.400, 12:33:15.993, 15, 0.00, 0.08, 98, 0.900, -1.200, 129.800, 1273, 100, 100, 25, 23659, -23545, 5362, 5472, 12, 14, 1525894395.993, 60, 0, 1024, 1024, 1024, 1024, 0, 6, 3913, 3962, 3952, 3944, 3953, 3940, 0, 1, 8201, -90.000, 0.000, 127.500, 0.000, 0.000, -3.100, 0.0, , , , , , 97, , , 49, 49, 49
38.0977243, -120.1812933, 8.800, 12:33:16.092, 16, 0.00, 0.06, 98, 0.300, -0.900, 129.800, 1273, 100, 100, 25, 23659, -23545, 5362, 5472, 12, 14, 1525894396.092, 63, 0, 1024, 1024, 1024, 1024, 0, 6, 3913, 3962, 3952, 3944, 3953, 3940, 0, 1, 8300, -90.000, 0.000, 127.500, 0.000, 0.000, -3.100, 0.0, , , , , , 97, , , 49, 49, 49
38.0977243, -120.1812936, 9.100, 12:33:16.193, 16, 0.00, 0.04, 98, -0.100, -1.100, 129.600, 1273, 100, 100, 25, 24021, -19161, 5362, 5472, 12, 14, 1525894396.193, 56, 0, 1024, 1024, 1024, 1024, 0, 6, 3984, 4018, 4010, 4003, 4010, 4005, 0, 1, 8401, -90.000, 0.000, 127.500, 0.000, 0.000, -3.100, 0.0, , , , , , 97, , , 49, 49, 49
38.0977243, -120.1812937, 9.400, 12:33:16.293, 14, 0.00, 0.03, 98, -0.300, -1.400, 129.300, 1273, 100, 100, 25, 24021, -19161, 5362, 5472, 12, 14, 1525894396.293, 67, 0, 1024, 1024, 1024, 1024, 0, 6, 3984, 4018, 4010, 4003, 4010, 4005, 0, 1, 8501, -90.000, 0.000, 127.500, 0.000, 0.000, -3.000, 0.0, , , , , , 97, , , 49, 49, 49
38.0977242, -120.1812939, 9.700, 12:33:16.393, 14, 0.00, 0.03, 98, -0.300, -1.500, 129.000, 1273, 100, 100, 25, 24021, -19161, 5362, 5472, 12, 14, 1525894396.393, 59, 0, 1024, 1024, 1024, 1024, 0, 6, 3984, 4018, 4010, 4003, 4010, 4005, 0, 1, 8601, -90.000, 0.000, 127.600, 0.000, 0.000, -3.100, 0.0, , , , , , 97, , , 49, 49, 49
38.0977242, -120.1812940, 10.000, 12:33:16.493, 17, 0.00, 0.03, 98, -0.300, -1.400, 128.700, 1273, 100, 100, 25, 24021, -19161, 5362, 5472, 12, 14, 1525894396.494, 35, 0, 1024, 1024, 1024, 1024, 0, 6, 3984, 4018, 4010, 4003, 4010, 4005, 0, 1, 8702, -90.000, 0.000, 127.600, 0.000, 0.000, -3.100, 0.0, , , , , , 97, , , 49, 49, 49
38.0977242, -120.1812940, 10.400, 12:33:16.593, 17, 0.00, 0.03, 98, -0.200, -1.400, 128.600, 1273, 100, 100, 25, 24021, -19161, 5362, 5472, 12, 14, 1525894396.593, 40, 0, 1024, 1024, 1024, 1024, 0, 6, 3984, 4018, 4010, 4003, 4010, 4005, 0, 1, 8801, -90.000, 0.000, 127.600, 0.000, 0.000, -3.100, 0.0, , , , , , 97, , , 49, 49, 49
38.0977242, -120.1812942, 10.700, 12:33:16.693, 16, 0.00, 0.03, 98, -0.300, -1.500, 128.600, 1273, 100, 100, 25, 24021, -19161, 5362, 5472, 12, 14, 1525894396.693, 16, 0, 1024, 1024, 1024, 1024, 0, 6, 3984, 4018, 4010, 4003, 4010, 4005, 0, 1, 8901, -90.000, 0.000, 127.600, 0.000, 0.000, -3.000, 0.0, , , , , , 97, , , 49, 49, 49
38.0977242, -120.1812943, 11.000, 12:33:16.792, 16, 0.00, 0.04, 98, -0.500, -2.000, 128.700, 1273, 100, 100, 25, 24021, -19161, 5362, 5472, 12, 14, 1525894396.793, 11, 0, 1024, 1024, 1024, 1024, 0, 6, 3984, 4018, 4010, 4003, 4010, 4005, 0, 1, 9001, -90.000, 0.000, 127.700, 0.000, 0.000, -3.000, 0.0, , , , , , 97, , , 49, 49, 49
38.0977242, -120.1812944, 11.300, 12:33:16.893, 16, 0.00, 0.04, 98, -0.400, -2.100, 128.900, 1273, 100, 100, 25, 24021, -19161, 5362, 5472, 12, 14, 1525894396.894, 23, 0, 1024, 1024, 1024, 1024, 0, 6, 3984, 4018, 4010, 4003, 4010, 4005, 0, 1, 9102, -89.900, 0.000, 127.700, 0.000, 0.000, -3.000, 0.0, , , , , , 97, , , 49, 49, 49
38.0977242, -120.1812944, 11.300, 12:33:16.993, 16, 0.00, 0.04, 98, -0.400, -2.100, 128.900, 1273, 100, 100, 25, 24021, -19161, 5362, 5472, 12, 14, 1525894396.993, 123, 0, 1024, 1024, 1024, 1024, 0, 6, 3984, 4018, 4010, 4003, 4010, 4005, 0, 1, 9201, -89.900, 0.000, 127.700, 0.000, 0.000, -3.000, 0.0, , , , , , 97, , , 49, 49, 49
38.0977243, -120.1812944, 11.700, 12:33:17.092, 16, 0.00, 0.05, 98, -0.400, -1.900, 129.200, 1273, 100, 100, 25, 24021, -19161, 5362, 5472, 12, 14, 1525894397.093, 87, 0, 1024, 1024, 1024, 1024, 0, 6, 3984, 4018, 4010, 4003, 4010, 4005, 0, 1, 9300, -89.900, 0.000, 127.700, 0.000, 0.000, -3.100, 0.0, , , , , , 97, , , 49, 49, 49
38.0977243, -120.1812943, 12.000, 12:33:17.193, 16, 0.10, 0.04, 98, 0.000, -1.700, 129.500, 1273, 100, 100, 25, 24021, -19161, 5362, 5472, 12, 14, 1525894397.194, 73, 0, 1024, 1024, 1024, 1024, 0, 6, 3984, 4018, 4010, 4003, 4010, 4005, 0, 1, 9401, -89.900, 0.000, 127.700, 0.000, 0.100, -3.000, 0.0, , , , , , 97, , , 49, 49, 49
38.0977244, -120.1812942, 12.300, 12:33:17.293, 16, 0.10, 0.03, 98, 0.800, -1.500, 129.700, 1273, 100, 100, 25, 24085, -17322, 5362, 5472, 12, 14, 1525894397.293, 87, 0, 1024, 1024, 1024, 1024, 0, 6, 3984, 4018, 4010, 4003, 4010, 4005, 0, 1, 9501, -90.000, 0.000, 127.700, 0.000, 0.100, -3.000, 0.0, , , , , , 97, , , 49, 49, 49
38.0977244, -120.1812941, 12.600, 12:33:17.393, 16, 0.10, 0.02, 98, 1.900, -1.300, 129.600, 1273, 100, 100, 25, 24085, -17322, 5362, 5472, 12, 14, 1525894397.393, 97, 0, 1024, 1024, 1024, 1024, 0, 6, 3984, 4018, 4010, 4003, 4010, 4005, 0, 1, 9601, -89.900, 0.000, 127.800, 0.000, 0.100, -2.900, 0.0, , , , , , 97, , , 49, 49, 49
38.0977243, -120.1812940, 12.900, 12:33:17.493, 16, 0.10, 0.02, 98, 2.500, -0.700, 129.500, 1273, 100, 100, 25, 24085, -17322, 5362, 5472, 12, 14, 1525894397.493, 89, 0, 1024, 1024, 1024, 1024, 0, 6, 3984, 4018, 4010, 4003, 4010, 4005, 0, 1, 9701, -89.900, 0.000, 127.800, 0.000, 0.100, -2.800, 0.0, , , , , , 97, , , 49, 49, 49
38.0977243, -120.1812938, 13.200, 12:33:17.593, 17, 0.10, 0.02, 98, 2.800, -0.300, 129.300, 1273, 100, 100, 25, 24085, -17322, 5362, 5472, 12, 14, 1525894397.593, 92, 0, 1024, 1024, 1024, 1024, 0, 6, 3984, 4018, 4010, 4003, 4010, 4005, 0, 1, 9801, -89.900, 0.000, 127.800, 0.000, 0.100, -2.800, 0.0, , , , , , 97, , , 49, 49, 49
38.0977243, -120.1812936, 13.800, 12:33:17.693, 17, 0.10, 0.04, 98, 2.500, -0.100, 129.000, 1273, 100, 100, 25, 24085, -17322, 5362, 5472, 12, 14, 1525894397.693, 72, 0, 1024, 1024, 1024, 1024, 0, 6, 3984, 4018, 4010, 4003, 4010, 4005, 0, 1, 9901, -89.900, 0.000, 127.800, 0.000, 0.100, -2.900, 0.0, , , , , , 97, , , 49, 49, 49
38.0977243, -120.1812935, 14.100, 12:33:17.793, 17, 0.10, 0.05, 98, 2.000, 0.000, 129.000, 1273, 100, 100, 25, 24085, -17322, 5362, 5472, 12, 14, 1525894397.794, 97, 0, 1024, 1024, 1024, 1024, 0, 6, 3987, 4027, 4021, 4020, 4013, 4012, 0, 1, 10001, -89.900, 0.000, 127.800, 0.000, 0.100, -2.900, 0.0, , , , , , 97, , , 49, 49, 49
38.0977242, -120.1812934, 14.400, 12:33:17.893, 17, 0.10, 0.06, 98, 1.900, 0.200, 128.900, 1273, 100, 100, 25, 24085, -17322, 5362, 5472, 12, 14, 1525894397.893, 62, 0, 1024, 1024, 1024, 1024, 0, 6, 3987, 4027, 4021, 4020, 4013, 4012, 0, 1, 10101, -89.900, 0.000, 127.900, 0.000, 0.100, -2.900, 0.0, , , , , , 97, , , 49, 49, 49
38.0977242, -120.1812933, 14.700, 12:33:17.993, 17, 0.10, 0.07, 98, 1.600, 0.600, 128.900, 1273, 100, 100, 25, 24085, -17322, 5362, 5472, 12, 14, 1525894397.993, 67, 0, 1024, 1024, 1024, 1024, 0, 6, 3987, 4027, 4021, 4020, 4013, 4012, 0, 1, 10201, -89.900, 0.000, 127.900, 0.000, 0.100, -2.800, 0.0, , , , , , 97, , , 49, 49, 49
38.0977241, -120.1812932, 15.000, 12:33:18.092, 17, 0.10, 0.08, 98, 1.600, 0.700, 128.900, 1273, 100, 100, 25, 24085, -17322, 5362, 5472, 12, 14, 1525894398.092, 66, 0, 1024, 1024, 1024, 1024, 0, 6, 3987, 4027, 4021, 4020, 4013, 4012, 0, 1, 10300, -89.900, 0.000, 127.900, 0.000, 0.100, -2.900, 0.0, , , , , , 97, , , 49, 49, 49
38.0977240, -120.1812930, 15.300, 12:33:18.193, 17, 0.10, 0.10, 98, 1.600, 0.800, 128.900, 1273, 100, 100, 25, 24085, -17322, 5362, 5472, 12, 14, 1525894398.193, 71, 0, 1024, 1024, 1024, 1024, 0, 6, 3987, 4027, 4021, 4020, 4013, 4012, 0, 1, 10401, -89.900, 0.000, 127.900, 0.000, 0.100, -2.800, 0.0, , , , , , 97, , , 49, 49, 49
38.0977240, -120.1812929, 15.500, 12:33:18.293, 17, 0.10, 0.11, 98, 1.800, 0.800, 129.000, 1273, 100, 100, 25, 24085, -17322, 5362, 5472, 12, 14, 1525894398.294, 48, 0, 1024, 1024, 1024, 1024, 0, 6, 3987, 4027, 4021, 4020, 4013, 4012, 0, 1, 10501, -89.900, 0.000, 127.900, 0.000, 0.100, -2.800, 0.0, , , , , , 97, , , 49, 49, 49
38.0977240, -120.1812928, 15.800, 12:33:18.393, 17, 0.10, 0.12, 98, 2.000, 0.600, 129.000, 1273, 100, 100, 25, 24085, -17322, 5362, 5472, 12, 14, 1525894398.393, 49, 0, 1024, 1024, 1024, 1024, 0, 6, 3987, 4027, 4021, 4020, 4013, 4012, 0, 1, 10601, -89.900, 0.000, 127.900, 0.000, 0.100, -2.800, 0.0, , , , , , 97, , , 49, 49, 49
38.0977239, -120.1812926, 16.100, 12:33:18.493, 17, 0.10, 0.13, 98, 2.100, 0.800, 129.100, 1273, 100, 100, 25, 24085, -17322, 5362, 5472, 12, 14, 1525894398.493, 48, 0, 1024, 1024, 1024, 1024, 0, 6, 3987, 4027, 4021, 4020, 4013, 4012, 0, 1, 10701, -89.900, 0.000, 128.000, 0.000, 0.100, -2.800, 0.0, , , , , , 97, , , 49, 49, 49
38.0977239, -120.1812925, 16.400, 12:33:18.592, 17, 0.10, 0.15, 98, 2.100, 1.200, 129.200, 1273, 100, 100, 25, 24085, -17322, 5362, 5472, 12, 14, 1525894398.593, 50, 0, 1024, 1024, 1024, 1024, 0, 6, 3987, 4027, 4021, 4020, 4013, 4012, 0, 1, 10801, -89.900, 0.000, 128.000, 0.000, 0.100, -2.800, 0.0, , , , , , 97, , , 49, 49, 49
38.0977238, -120.1812923, 16.700, 12:33:18.698, 17, 0.10, 0.16, 98, 1.900, 1.700, 129.200, 1273, 100, 100, 25, 24076, -17515, 5362, 5472, 12, 14, 1525894398.698, 5, 0, 1024, 1024, 1024, 1024, 0, 6, 3987, 4027, 4021, 4020, 4013, 4012, 0, 1, 10906, -89.900, 0.000, 128.000, 0.000, 0.100, -2.900, 0.0, , , , , , 97, , , 49, 49, 49
38.0977237, -120.1812922, 16.900, 12:33:18.793, 17, 0.10, 0.18, 98, 1.300, 2.100, 129.100, 1273, 100, 100, 25, 24076, -17515, 5362, 5472, 12, 14, 1525894398.793, 39, 0, 1024, 1024, 1024, 1024, 0, 6, 3988, 4020, 4017, 4016, 4016, 4002, 0, 1, 11001, -89.900, 0.000, 128.000, 0.000, 0.100, -2.900, 0.0, , , , , , 97, , , 49, 49, 49
38.0977236, -120.1812921, 17.200, 12:33:18.893, 17, 0.00, 0.19, 98, 0.900, 2.200, 129.000, 1273, 100, 100, 25, 24076, -17515, 5362, 5472, 12, 14, 1525894398.894, 3, 0, 1024, 1024, 1024, 1024, 0, 6, 3988, 4020, 4017, 4016, 4016, 4002, 0, 1, 11102, -89.900, 0.000, 128.000, 0.000, 0.000, -3.000, 0.0, , , , , , 97, , , 49, 49, 49
38.0977236, -120.1812921, 17.200, 12:33:18.993, 17, 0.00, 0.19, 98, 0.900, 2.200, 129.000, 1273, 100, 100, 25, 24076, -17515, 5362, 5472, 12, 14, 1525894398.995, 105, 0, 1024, 1024, 1024, 1024, 0, 6, 3988, 4020, 4017, 4016, 4016, 4002, 0, 1, 11203, -89.900, 0.000, 128.000, 0.000, 0.000, -3.000, 0.0, , , , , , 97, , , 49, 49, 49
38.0977235, -120.1812921, 17.800, 12:33:19.094, 17, 0.00, 0.20, 98, 0.800, 1.500, 129.300, 1273, 100, 100, 25, 24076, -17515, 5362, 5472, 12, 14, 1525894399.094, 7, 0, 1024, 1024, 1024, 1024, 0, 6, 3988, 4020, 4017, 4016, 4016, 4002, 0, 1, 11302, -89.900, 0.000, 128.000, 0.000, 0.000, -2.900, 0.0, , , , , , 97, , , 49, 49, 49
38.0977235, -120.1812921, 17.800, 12:33:19.193, 17, 0.00, 0.20, 98, 0.800, 1.500, 129.300, 1273, 100, 100, 25, 24076, -17515, 5362, 5472, 12, 14, 1525894399.193, 107, 0, 1024, 1024, 1024, 1024, 0, 6, 3988, 4020, 4017, 4016, 4016, 4002, 0, 1, 11401, -89.900, 0.000, 128.000, 0.000, 0.000, -2.900, 0.0, , , , , , 97, , , 49, 49, 49
38.0977235, -120.1812921, 18.400, 12:33:19.292, 17, 0.00, 0.20, 98, 0.600, 1.000, 129.200, 1273, 100, 100, 25, 24076, -17515, 5362, 5472, 12, 14, 1525894399.293, 9, 0, 1024, 1024, 1024, 1024, 0, 6, 3988, 4020, 4017, 4016, 4016, 4002, 0, 1, 11501, -90.000, 0.000, 128.100, 0.000, 0.000, -2.900, 0.0, , , , , , 97, , , 49, 49, 49
38.0977235, -120.1812923, 18.700, 12:33:19.393, 17, 0.00, 0.19, 98, 0.900, 0.600, 129.000, 1273, 100, 100, 25, 24076, -17515, 5362, 5472, 12, 14, 1525894399.393, 11, 0, 1024, 1024, 1024, 1024, 0, 6, 3988, 4020, 4017, 4016, 4016, 4002, 0, 1, 11601, -90.000, 0.000, 128.100, 0.000, 0.000, -3.000, 0.0, , , , , , 97, , , 49, 49, 49
38.0977235, -120.1812923, 18.700, 12:33:19.493, 17, 0.00, 0.19, 98, 0.900, 0.600, 129.000, 1273, 100, 100, 25, 24076, -17515, 5362, 5472, 12, 14, 1525894399.493, 111, 0, 1024, 1024, 1024, 1024, 0, 6, 3988, 4020, 4017, 4016, 4016, 4002, 0, 1, 11701, -90.000, 0.000, 128.100, 0.000, 0.000, -3.000, 0.0, , , , , , 97, , , 49, 49, 49
38.0977235, -120.1812923, 18.700, 12:33:19.593, 17, 0.00, 0.19, 98, 0.900, 0.600, 129.000, 1273, 100, 100, 25, 24076, -17515, 5362, 5472, 12, 14, 1525894399.593, 211, 0, 1024, 1024, 1024, 1024, 0, 6, 3988, 4020, 4017, 4016, 4016, 4002, 0, 1, 11801, -90.000, 0.000, 128.100, 0.000, 0.000, -3.000, 0.0, , , , , , 97, , , 49, 49, 49
38.0977235, -120.1812922, 19.600, 12:33:19.692, 17, 0.00, 0.19, 98, 1.400, 0.400, 128.800, 1273, 100, 100, 25, 23957, -18425, 5362, 5472, 12, 14, 1525894399.693, 11, 0, 1024, 1024, 1024, 1024, 0, 6, 3988, 4020, 4017, 4016, 4016, 4002, 0, 1, 11901, -89.900, 0.000, 128.100, 0.000, 0.000, -3.000, 0.0, , , , , , 97, , , 49, 49, 49
38.0977235, -120.1812922, 19.600, 12:33:19.792, 17, 0.00, 0.19, 98, 1.400, 0.400, 128.800, 1273, 100, 100, 25, 23957, -18425, 5362, 5472, 12, 14, 1525894399.793, 111, 0, 1024, 1024, 1024, 1024, 0, 6, 3969, 4002, 3992, 3997, 3997, 3981, 0, 1, 12000, -89.900, 0.000, 128.100, 0.000, 0.000, -3.000, 0.0, , , , , , 97, , , 49, 49, 49
38.0977234, -120.1812920, 20.300, 12:33:19.893, 17, 0.00, 0.21, 98, 1.900, 0.800, 129.000, 1273, 100, 97, 25, 23957, -18425, 5362, 5472, 12, 14, 1525894399.893, 54, 0, 1024, 1024, 1024, 1024, 0, 6, 3969, 4002, 3992, 3997, 3997, 3981, 0, 1, 12101, -89.900, 0.000, 128.100, 0.000, 0.000, -3.000, 0.0, , , , , , 97, , , 49, 49, 49
38.0977234, -120.1812919, 20.600, 12:33:19.993, 17, 0.00, 0.22, 98, 2.000, 1.000, 129.000, 1273, 100, 97, 25, 23957, -18425, 5362, 5472, 12, 14, 1525894399.994, 72, 0, 1024, 1024, 1024, 1024, 0, 6, 3969, 4002, 3992, 3997, 3997, 3981, 0, 1, 12202, -89.900, 0.000, 128.100, 0.000, 0.000, -2.900, 0.0, , , , , , 97, , , 49, 49, 49
38.0977234, -120.1812919, 20.800, 12:33:20.092, 17, 0.00, 0.22, 98, 2.200, 1.100, 129.000, 1273, 100, 97, 25, 23957, -18425, 5362, 5472, 12, 14, 1525894400.092, 71, 0, 1024, 1024, 1024, 1024, 0, 6, 3969, 4002, 3992, 3997, 3997, 3981, 0, 1, 12300, -89.900, 0.000, 128.100, 0.000, 0.000, -2.900, 0.0, , , , , , 97, , , 49, 49, 49
38.0977234, -120.1812919, 21.100, 12:33:20.193, 17, 0.00, 0.22, 98, 2.000, 0.900, 129.000, 1273, 100, 97, 25, 23957, -18425, 5362, 5472, 12, 14, 1525894400.194, 76, 0, 1024, 1024, 1024, 1024, 0, 6, 3969, 4002, 3992, 3997, 3997, 3981, 0, 1, 12402, -89.900, 0.000, 128.100, 0.000, 0.000, -2.900, 0.0, , , , , , 97, , , 49, 49, 49
38.0977233, -120.1812918, 21.400, 12:33:20.293, 17, 0.00, 0.23, 98, 1.600, 0.800, 129.000, 1273, 100, 97, 25, 23957, -18425, 5362, 5472, 12, 14, 1525894400.293, 76, 0, 1024, 1024, 1024, 1024, 0, 6, 3969, 4002, 3992, 3997, 3997, 3981, 0, 1, 12501, -89.900, 0.000, 128.100, 0.000, 0.000, -2.900, 0.0, , , , , , 97, , , 49, 49, 49
38.0977232, -120.1812918, 21.700, 12:33:20.393, 17, 0.00, 0.24, 98, 1.200, 0.900, 129.100, 1273, 100, 97, 25, 23957, -18425, 5362, 5472, 12, 14, 1525894400.393, 80, 0, 1024, 1024, 1024, 1024, 0, 6, 3969, 4002, 3992, 3997, 3997, 3981, 0, 1, 12601, -89.900, 0.000, 128.100, 0.000, 0.000, -2.900, 0.0, , , , , , 97, , , 49, 49, 49
38.0977231, -120.1812917, 22.000, 12:33:20.493, 17, 0.00, 0.25, 98, 0.900, 1.300, 129.100, 1273, 100, 97, 25, 23957, -18425, 5362, 5472, 12, 14, 1525894400.494, 70, 0, 1024, 1024, 1024, 1024, 0, 6, 3969, 4002, 3992, 3997, 3997, 3981, 0, 1, 12701, -89.900, 0.000, 128.100, 0.000, 0.000, -2.900, 0.0, , , , , , 97, , , 49, 49, 49
38.0977230, -120.1812917, 22.300, 12:33:20.593, 17, 0.00, 0.26, 98, 0.700, 1.400, 129.100, 1273, 100, 97, 25, 23957, -18425, 5362, 5472, 12, 14, 1525894400.594, 72, 0, 1024, 1024, 1024, 1024, 0, 6, 3969, 4002, 3992, 3997, 3997, 3981, 0, 1, 12801, -89.900, 0.000, 128.100, 0.000, 0.000, -3.000, 0.0, , , , , , 97, , , 49, 49, 49
38.0977230, -120.1812916, 22.600, 12:33:20.693, 17, 0.00, 0.27, 98, 1.100, 1.300, 128.900, 1273, 100, 97, 25, 23940, -18068, 5362, 5472, 12, 14, 1525894400.694, 52, 0, 1024, 1024, 1024, 1024, 0, 6, 3969, 4006, 4003, 3993, 3997, 3998, 0, 1, 12902, -89.900, 0.000, 128.100, 0.000, 0.000, -3.000, 0.0, , , , , , 97, , , 49, 49, 49
38.0977229, -120.1812915, 22.900, 12:33:20.793, 17, 0.00, 0.28, 98, 1.200, 1.500, 128.700, 1273, 100, 96, 25, 23940, -18068, 5362, 5472, 12, 14, 1525894400.793, 31, 0, 1024, 1024, 1024, 1024, 0, 6, 3969, 4006, 4003, 3993, 3997, 3998, 0, 1, 13001, -89.900, 0.000, 128.100, 0.000, 0.000, -3.000, 0.0, , , , , , 97, , , 49, 49, 49
38.0977228, -120.1812914, 23.200, 12:33:20.893, 17, 0.00, 0.29, 98, 1.400, 2.200, 128.700, 1273, 100, 96, 25, 23940, -18068, 5362, 5472, 12, 14, 1525894400.893, 66, 0, 1024, 1024, 1024, 1024, 0, 6, 3969, 4006, 4003, 3993, 3997, 3998, 0, 1, 13101, -89.900, 0.000, 128.100, 0.000, 0.000, -3.000, 0.0, , , , , , 97, , , 49, 49, 49
38.0977227, -120.1812913, 23.500, 12:33:20.993, 17, 0.00, 0.30, 98, 1.400, 2.700, 128.900, 1273, 100, 96, 25, 23940, -18068, 5362, 5472, 12, 14, 1525894400.993, 36, 0, 1024, 1024, 1024, 1024, 0, 6, 3969, 4006, 4003, 3993, 3997, 3998, 0, 1, 13201, -89.900, 0.000, 128.100, 0.000, 0.000, -2.900, 0.0, , , , , , 97, , , 49, 49, 49
38.0977227, -120.1812913, 23.800, 12:33:21.092, 17, 0.00, 0.31, 98, 1.500, 2.700, 129.200, 1273, 100, 96, 25, 23940, -18068, 5362, 5472, 12, 14, 1525894401.093, 50, 0, 1024, 1024, 1024, 1024, 0, 6, 3969, 4006, 4003, 3993, 3997, 3998, 0, 1, 13301, -89.900, 0.000, 128.100, 0.000, 0.000, -2.900, 0.0, , , , , , 97, , , 49, 49, 49
38.0977227, -120.1812912, 24.100, 12:33:21.193, 17, 0.00, 0.32, 98, 1.700, 2.600, 129.500, 1273, 100, 96, 25, 23940, -18068, 5362, 5472, 12, 14, 1525894401.193, 21, 0, 1024, 1024, 1024, 1024, 0, 6, 3969, 4006, 4003, 3993, 3997, 3998, 0, 1, 13401, -89.900, 0.000, 128.100, 0.000, 0.000, -2.900, 0.0, , , , , , 97, , , 49, 49, 49
38.0977227, -120.1812911, 24.400, 12:33:21.293, 17, 0.00, 0.32, 98, 1.900, 2.400, 129.600, 1273, 100, 99, 25, 23940, -18068, 5362, 5472, 12, 14, 1525894401.294, 52, 0, 1024, 1024, 1024, 1024, 0, 6, 3969, 4006, 4003, 3993, 3997, 3998, 0, 1, 13501, -89.900, 0.000, 128.100, 0.000, 0.000, -3.000, 0.0, , , , , , 97, , , 49, 49, 49
38.0977227, -120.1812911, 24.700, 12:33:21.392, 17, 0.00, 0.32, 98, 2.200, 2.200, 129.600, 1273, 100, 99, 25, 23940, -18068, 5362, 5472, 12, 14, 1525894401.393, 17, 0, 1024, 1024, 1024, 1024, 0, 6, 3969, 4006, 4003, 3993, 3997, 3998, 0, 1, 13600, -90.000, 0.000, 128.100, 0.000, 0.000, -3.000, 0.0, , , , , , 97, , , 49, 49, 49
38.0977228, -120.1812911, 25.100, 12:33:21.493, 17, 0.00, 0.32, 98, 2.500, 1.900, 129.500, 1273, 100, 99, 25, 23940, -18068, 5362, 5472, 12, 14, 1525894401.494, 30, 0, 1024, 1024, 1024, 1024, 0, 6, 3969, 4006, 4003, 3993, 3997, 3998, 0, 1, 13701, -89.900, 0.000, 128.100, 0.000, 0.000, -3.000, 0.0, , , , , , 97, , , 49, 49, 49
38.0977228, -120.1812910, 25.400, 12:33:21.593, 17, 0.10, 0.32, 98, 2.700, 1.600, 129.400, 1273, 100, 99, 25, 23940, -18068, 5362, 5472, 12, 14, 1525894401.593, 23, 0, 1024, 1024, 1024, 1024, 0, 6, 3969, 4006, 4003, 3993, 3997, 3998, 0, 1, 13801, -90.000, 0.000, 128.100, 0.100, 0.000, -3.000, 0.0, , , , , , 97, , , 49, 49, 49
38.0977229, -120.1812910, 25.700, 12:33:21.693, 17, 0.00, 0.32, 98, 2.900, 1.500, 129.300, 1273, 100, 99, 25, 23803, -19022, 5362, 5472, 12, 14, 1525894401.693, 23, 0, 1024, 1024, 1024, 1024, 0, 6, 3969, 4006, 4003, 3993, 3997, 3998, 0, 1, 13901, -90.000, 0.000, 128.100, 0.000, 0.000, -2.900, 0.0, , , , , , 97, , , 49, 49, 49
38.0977229, -120.1812909, 26.000, 12:33:21.808, 17, 0.00, 0.32, 98, 2.700, 1.700, 129.400, 1273, 100, 99, 25, 23803, -19022, 5362, 5472, 12, 14, 1525894401.808, 10, 0, 1024, 1024, 1024, 1024, 0, 6, 3940, 3984, 3968, 3965, 3971, 3974, 0, 1, 14016, -89.900, 0.000, 128.100, 0.000, 0.000, -3.000, 0.0, , , , , , 97, , , 49, 49, 49
38.0977229, -120.1812908, 26.300, 12:33:21.893, 17, 0.00, 0.33, 98, 2.600, 1.900, 129.500, 1273, 100, 99, 25, 23803, -19022, 5362, 5472, 12, 14, 1525894401.894, 15, 0, 1024, 1024, 1024, 1024, 0, 6, 3940, 3984, 3968, 3965, 3971, 3974, 0, 1, 14101, -89.900, 0.000, 128.100, 0.000, 0.000, -3.000, 0.0, , , , , , 97, , , 49, 49, 49
38.0977229, -120.1812908, 26.600, 12:33:21.993, 17, 0.00, 0.34, 98, 2.600, 2.100, 129.500, 1273, 100, 99, 25, 23803, -19022, 5362, 5472, 12, 14, 1525894401.993, 22, 0, 1024, 1024, 1024, 1024, 0, 6, 3940, 3984, 3968, 3965, 3971, 3974, 0, 1, 14201, -89.900, 0.000, 128.100, 0.000, 0.000, -3.000, 0.0, , , , , , 97, , , 49, 49, 49
38.0977229, -120.1812908, 26.600, 12:33:22.092, 17, 0.00, 0.34, 98, 2.600, 2.100, 129.500, 1273, 100, 99, 25, 23803, -19022, 5362, 5472, 12, 14, 1525894402.093, 121, 0, 1024, 1024, 1024, 1024, 0, 6, 3940, 3984, 3968, 3965, 3971, 3974, 0, 1, 14301, -89.900, 0.000, 128.100, 0.000, 0.000, -3.000, 0.0, , , , , , 97, , , 49, 49, 49
38.0977229, -120.1812907, 26.900, 12:33:22.192, 17, 0.00, 0.34, 98, 2.800, 2.300, 129.500, 1273, 100, 99, 25, 23803, -19022, 5362, 5472, 12, 14, 1525894402.193, 59, 0, 1024, 1024, 1024, 1024, 0, 6, 3940, 3984, 3968, 3965, 3971, 3974, 0, 1, 14401, -89.900, 0.000, 128.100, 0.000, 0.000, -3.000, 0.0, , , , , , 97, , , 49, 49, 49
38.0977231, -120.1812905, 27.500, 12:33:22.293, 17, 0.10, 0.35, 98, 3.900, 2.400, 129.500, 1273, 100, 99, 25, 23803, -19022, 5362, 5472, 12, 14, 1525894402.294, 81, 0, 1024, 1024, 1024, 1024, 0, 6, 3940, 3984, 3968, 3965, 3971, 3974, 0, 1, 14502, -89.900, 0.000, 128.100, 0.100, 0.000, -3.000, 0.0, , , , , , 97, , , 49, 49, 49
38.0977232, -120.1812904, 27.800, 12:33:22.392, 17, 0.10, 0.35, 98, 4.900, 2.100, 129.400, 1273, 100, 100, 25, 23803, -19022, 5362, 5472, 12, 14, 1525894402.393, 65, 0, 1024, 1024, 1024, 1024, 0, 6, 3940, 3984, 3968, 3965, 3971, 3974, 0, 1, 14601, -89.900, 0.000, 128.100, 0.100, 0.000, -3.000, 0.0, , , , , , 97, , , 49, 49, 49
38.0977232, -120.1812904, 27.800, 12:33:22.492, 17, 0.10, 0.35, 98, 4.900, 2.100, 129.400, 1273, 100, 100, 25, 23803, -19022, 5362, 5472, 12, 14, 1525894402.493, 164, 0, 1024, 1024, 1024, 1024, 0, 6, 3940, 3984, 3968, 3965, 3971, 3974, 0, 1, 14701, -89.900, 0.000, 128.100, 0.100, 0.000, -3.000, 0.0, , , , , , 97, , , 49, 49, 49
38.0977233, -120.1812903, 28.200, 12:33:22.593, 17, 0.00, 0.35, 98, 4.800, 2.100, 129.200, 1273, 100, 100, 25, 23803, -19022, 5362, 5472, 12, 14, 1525894402.594, 33, 0, 1024, 1024, 1024, 1024, 0, 6, 3940, 3984, 3968, 3965, 3971, 3974, 0, 1, 14802, -89.900, 0.000, 128.100, 0.000, 0.000, -2.800, 0.0, , , , , , 97, , , 49, 49, 49
38.0977234, -120.1812903, 28.400, 12:33:22.693, 17, 0.00, 0.35, 98, 3.700, 1.800, 128.900, 1273, 100, 100, 25, 23803, -19022, 5362, 5472, 12, 14, 1525894402.695, 35, 0, 1024, 1024, 1024, 1024, 0, 6, 3940, 3984, 3968, 3965, 3971, 3974, 0, 1, 14902, -89.900, 0.000, 128.100, 0.000, 0.000, -2.700, 0.0, , , , , , 97, , , 49, 49, 49
38.0977234, -120.1812903, 28.400, 12:33:22.793, 17, 0.00, 0.35, 98, 3.700, 1.800, 128.900, 1273, 100, 100, 25, 23803, -19022, 5362, 5472, 12, 14, 1525894402.794, 134, 0, 1024, 1024, 1024, 1024, 0, 6, 3940, 3984, 3968, 3965, 3971, 3974, 0, 1, 15002, -89.900, 0.000, 128.100, 0.000, 0.000, -2.700, 0.0, , , , , , 97, , , 49, 49, 49
38.0977234, -120.1812902, 28.700, 12:33:22.892, 17, 0.00, 0.35, 98, 3.300, 1.700, 128.700, 1273, 100, 100, 25, 23803, -19022, 5362, 5472, 12, 14, 1525894402.892, 69, 0, 1024, 1024, 1024, 1024, 0, 6, 3940, 3984, 3968, 3965, 3971, 3974, 0, 1, 15100, -90.000, 0.000, 128.100, 0.000, 0.000, -2.600, 0.0, , , , , , 97, , , 49, 49, 49
38.0977234, -120.1812902, 28.700, 12:33:22.992, 17, 0.00, 0.35, 98, 3.300, 1.700, 128.700, 1273, 100, 100, 25, 23748, -19022, 5362, 5472, 12, 14, 1525894402.993, 169, 0, 1024, 1024, 1024, 1024, 0, 6, 3940, 3984, 3968, 3965, 3971, 3974, 0, 1, 15201, -89.900, 0.000, 128.100, 0.000, 0.000, -2.600, 0.0, , , , , , 97, , , 49, 49, 49
38.0977234, -120.1812902, 28.700, 12:33:23.092, 17, 0.00, 0.35, 98, 3.300, 1.700, 128.700, 1273, 100, 100, 25, 23748, -19022, 5362, 5472, 12, 14, 1525894403.093, 269, 0, 1024, 1024, 1024, 1024, 0, 6, 3940, 3984, 3968, 3965, 3971, 3974, 0, 1, 15301, -89.900, 0.000, 128.100, 0.000, 0.000, -2.600, 0.0, , , , , , 97, , , 49, 49, 49
38.0977235, -120.1812902, 29.200, 12:33:23.199, 17, 0.00, 0.35, 98, 2.800, 2.000, 128.800, 1273, 100, 100, 25, 23748, -19022, 5362, 5472, 12, 14, 1525894403.199, 22, 0, 1024, 1024, 1024, 1024, 0, 6, 3940, 3984, 3968, 3965, 3971, 3974, 0, 1, 15407, -89.900, 0.000, 128.100, 0.000, 0.000, -2.700, 0.0, , , , , , 97, , , 49, 49, 49
38.0977235, -120.1812902, 29.500, 12:33:23.293, 17, 0.00, 0.35, 98, 2.800, 2.400, 129.000, 1273, 100, 100, 25, 23748, -19022, 5362, 5472, 12, 14, 1525894403.294, 64, 0, 1024, 1024, 1024, 1024, 0, 6, 3940, 3984, 3968, 3965, 3971, 3974, 0, 1, 15502, -89.900, 0.000, 128.100, 0.000, 0.000, -2.700, 0.0, , , , , , 97, , , 49, 49, 49
38.0977235, -120.1812902, 29.800, 12:33:23.396, 17, 0.00, 0.35, 98, 2.400, 2.600, 129.300, 1273, 100, 100, 25, 23748, -19022, 5362, 5472, 12, 14, 1525894403.397, 13, 0, 1024, 1024, 1024, 1024, 0, 6, 3940, 3984, 3968, 3965, 3971, 3974, 0, 1, 15605, -89.900, 0.000, 128.100, 0.000, 0.000, -2.900, 0.0, , , , , , 97, , , 49, 49, 49
38.0977235, -120.1812902, 29.800, 12:33:23.493, 17, 0.00, 0.35, 98, 2.400, 2.600, 129.300, 1273, 100, 100, 25, 23748, -19022, 5362, 5472, 12, 14, 1525894403.494, 109, 0, 1024, 1024, 1024, 1024, 0, 6, 3940, 3984, 3968, 3965, 3971, 3974, 0, 1, 15702, -89.900, 0.000, 128.100, 0.000, 0.000, -2.900, 0.0, , , , , , 97, , , 49, 49, 49
38.0977235, -120.1812902, 30.300, 12:33:23.593, 17, 0.00, 0.35, 98, 2.600, 2.300, 129.700, 1273, 100, 100, 25, 23748, -19022, 5362, 5472, 12, 14, 1525894403.593, 76, 0, 1024, 1024, 1024, 1024, 0, 6, 3940, 3984, 3968, 3965, 3971, 3974, 0, 1, 15801, -89.900, 0.000, 128.100, 0.000, 0.000, -2.900, 0.0, , , , , , 97, , , 49, 49, 49
38.0977236, -120.1812902, 30.600, 12:33:23.694, 17, 0.00, 0.35, 98, 2.700, 2.100, 129.700, 1273, 100, 100, 25, 23748, -19022, 5362, 5472, 12, 14, 1525894403.695, 16, 0, 1024, 1024, 1024, 1024, 0, 6, 3940, 3984, 3968, 3965, 3971, 3974, 0, 1, 15903, -90.000, 0.000, 128.100, 0.000, 0.000, -2.800, 0.0, , , , , , 97, , , 49, 49, 49
38.0977236, -120.1812902, 30.600, 12:33:23.793, 17, 0.00, 0.35, 98, 2.700, 2.100, 129.700, 1273, 100, 100, 25, 23748, -19022, 5362, 5472, 12, 14, 1525894403.794, 115, 0, 1024, 1024, 1024, 1024, 0, 6, 3940, 3984, 3968, 3965, 3971, 3974, 0, 1, 16002, -90.000, 0.000, 128.100, 0.000, 0.000, -2.800, 0.0, , , , , , 97, , , 49, 49, 49
38.0977236, -120.1812902, 30.900, 12:33:23.893, 17, 0.00, 0.35, 98, 2.900, 2.300, 129.700, 1273, 100, 100, 25, 23748, -19022, 5362, 5472, 12, 14, 1525894403.893, 96, 0, 1024, 1024, 1024, 1024, 0, 6, 3940, 3984, 3968, 3965, 3971, 3974, 0, 1, 16101, -89.900, 0.000, 128.100, 0.000, 0.000, -3.000, 0.0, , , , , , 97, , , 49, 49, 49
38.0977236, -120.1812902, 30.900, 12:33:23.993, 17, 0.00, 0.35, 98, 2.900, 2.300, 129.700, 1273, 100, 100, 25, 23748, -19022, 5362, 5472, 12, 14, 1525894403.994, 196, 0, 1024, 1024, 1024, 1024, 0, 6, 3940, 3984, 3968, 3965, 3971, 3974, 0, 1, 16202, -89.900, 0.000, 128.100, 0.000, 0.000, -3.000, 0.0, , , , , , 97, , , 49, 49, 49
38.0977235, -120.1812901, 31.800, 12:33:24.092, 17, 0.00, 0.36, 98, 2.200, 4.600, 129.300, 1273, 100, 99, 25, 23748, -19022, 5362, 5472, 12, 14, 1525894404.093, 66, 0, 1024, 1024, 1024, 1024, 0, 6, 3940, 3984, 3968, 3965, 3971, 3974, 0, 1, 16301, -90.000, 0.000, 128.100, 0.000, 0.000, -3.000, 0.0, , , , , , 97, , , 49, 49, 49
38.0977235, -120.1812901, 31.800, 12:33:24.193, 17, 0.00, 0.36, 98, 2.200, 4.600, 129.300, 1273, 100, 99, 25, 23748, -19022, 5362, 5472, 12, 14, 1525894404.194, 167, 0, 1024, 1024, 1024, 1024, 0, 6, 3940, 3984, 3968, 3965, 3971, 3974, 0, 1, 16402, -90.000, 0.000, 128.100, 0.000, 0.000, -3.000, 0.0, , , , , , 97, , , 49, 49, 49
38.0977235, -120.1812901, 32.400, 12:33:24.293, 17, 0.00, 0.36, 98, 3.000, 2.900, 128.900, 1273, 100, 99, 25, 23748, -19022, 5362, 5472, 12, 14, 1525894404.294, 34, 0, 1024, 1024, 1024, 1024, 0, 6, 3940, 3984, 3968, 3965, 3971, 3974, 0, 1, 16502, -90.000, 0.000, 128.100, 0.000, 0.000, -3.100, 0.0, , , , , , 97, , , 49, 49, 49
38.0977236, -120.1812902, 33.400, 12:33:24.393, 17, 0.00, 0.35, 98, 2.100, 1.600, 129.300, 1273, 100, 99, 25, 23783, -23054, 5307, 5472, 12, 14, 1525894404.393, 25, 0, 1024, 1024, 1024, 1024, 0, 6, 3940, 3984, 3968, 3965, 3971, 3974, 0, 1, 16601, -90.000, 0.000, 128.100, 0.000, 0.000, -3.000, 0.0, , , , , , 97, , , 49, 49, 49
38.0977236, -120.1812902, 33.400, 12:33:24.493, 17, 0.00, 0.35, 98, 2.100, 1.600, 129.300, 1273, 100, 99, 25, 23783, -23054, 5307, 5472, 12, 14, 1525894404.493, 125, 0, 1024, 1024, 1024, 1024, 0, 6, 3869, 3924, 3909, 3932, 3941, 3909, 0, 1, 16701, -90.000, 0.000, 128.100, 0.000, 0.000, -3.000, 0.0, , , , , , 97, , , 49, 49, 49
38.0977237, -120.1812900, 33.900, 12:33:24.593, 17, 0.10, 0.36, 98, 4.100, 2.600, 129.900, 1273, 100, 99, 25, 23783, -23054, 5307, 5472, 12, 14, 1525894404.594, 38, 0, 1024, 1024, 1024, 1024, 0, 6, 3869, 3924, 3909, 3932, 3941, 3909, 0, 1, 16802, -89.900, 0.000, 128.100, 0.000, 0.100, -3.000, 0.0, , , , , , 97, , , 49, 49, 49
38.0977237, -120.1812900, 33.900, 12:33:24.693, 17, 0.10, 0.36, 98, 4.100, 2.600, 129.900, 1273, 100, 99, 25, 23783, -23054, 5307, 5472, 12, 14, 1525894404.693, 138, 0, 1024, 1024, 1024, 1024, 0, 6, 3869, 3924, 3909, 3932, 3941, 3909, 0, 1, 16901, -89.900, 0.000, 128.100, 0.000, 0.100, -3.000, 0.0, , , , , , 97, , , 49, 49, 49
38.0977238, -120.1812898, 34.600, 12:33:24.793, 17, 0.10, 0.38, 98, 5.700, 2.700, 130.200, 1273, 100, 99, 25, 23783, -23054, 5307, 5472, 12, 14, 1525894404.793, 29, 0, 1024, 1024, 1024, 1024, 0, 6, 3869, 3924, 3909, 3932, 3941, 3909, 0, 1, 17001, -89.900, 0.000, 128.100, 0.000, 0.100, -3.100, 0.0, , , , , , 97, , , 49, 49, 49
38.0977239, -120.1812897, 34.900, 12:33:24.894, 17, 0.10, 0.39, 98, 5.700, 2.900, 129.900, 1273, 100, 99, 25, 23783, -23054, 5307, 5472, 12, 14, 1525894404.895, 62, 0, 1024, 1024, 1024, 1024, 0, 6, 3869, 3924, 3909, 3932, 3941, 3909, 0, 1, 17103, -89.900, 0.000, 128.100, 0.000, 0.100, -3.000, 0.0, , , , , , 97, , , 49, 49, 49
38.0977238, -120.1812896, 35.100, 12:33:24.993, 17, 0.00, 0.39, 98, 5.300, 3.300, 129.500, 1273, 100, 99, 25, 23783, -23054, 5307, 5472, 12, 14, 1525894404.993, 94, 0, 1024, 1024, 1024, 1024, 0, 6, 3869, 3924, 3909, 3932, 3941, 3909, 0, 1, 17201, -89.900, 0.000, 128.100, 0.000, 0.000, -3.000, 0.0, , , , , , 97, , , 49, 49, 49
38.0977238, -120.1812895, 35.500, 12:33:25.092, 17, 0.00, 0.40, 98, 4.700, 3.600, 129.200, 1273, 100, 99, 25, 23783, -23054, 5307, 5472, 12, 14, 1525894405.093, 63, 0, 1024, 1024, 1024, 1024, 0, 6, 3869, 3924, 3909, 3932, 3941, 3909, 0, 1, 17301, -89.900, 0.000, 128.100, 0.000, 0.000, -3.100, 0.0, , , , , , 97, , , 49, 49, 49
38.0977238, -120.1812895, 35.500, 12:33:25.193, 17, 0.00, 0.40, 98, 4.700, 3.600, 129.200, 1273, 100, 99, 25, 23783, -23054, 5307, 5472, 12, 14, 1525894405.194, 164, 0, 1024, 1024, 1024, 1024, 0, 6, 3869, 3924, 3909, 3932, 3941, 3909, 0, 1, 17402, -89.900, 0.000, 128.100, 0.000, 0.000, -3.100, 0.0, , , , , , 97, , , 49, 49, 49
38.0977238, -120.1812895, 35.500, 12:33:25.293, 17, 0.00, 0.40, 98, 4.700, 3.600, 129.200, 1273, 100, 99, 25, 23783, -23054, 5307, 5472, 12, 14, 1525894405.293, 264, 0, 1024, 1024, 1024, 1024, 0, 6, 3869, 3924, 3909, 3932, 3941, 3909, 0, 1, 17501, -89.900, 0.000, 128.100, 0.000, 0.000, -3.100, 0.0, , , , , , 97, , , 49, 49, 49
38.0977236, -120.1812893, 36.400, 12:33:25.401, 17, 0.00, 0.42, 97, 3.700, 4.300, 128.600, 1273, 100, 96, 25, 23481, -21628, 5307, 5472, 12, 14, 1525894405.401, 10, 0, 1024, 1024, 1024, 1024, 0, 6, 3869, 3924, 3909, 3932, 3941, 3909, 0, 1, 17609, -89.900, 0.000, 128.100, 0.000, 0.000, -3.100, 0.0, , , , , , 97, , , 49, 49, 49
38.0977236, -120.1812893, 36.400, 12:33:25.493, 17, 0.00, 0.42, 97, 3.700, 4.300, 128.600, 1273, 100, 96, 25, 23481, -21628, 5307, 5472, 12, 14, 1525894405.494, 102, 0, 1024, 1024, 1024, 1024, 0, 6, 3869, 3924, 3909, 3932, 3941, 3909, 0, 1, 17701, -89.900, 0.000, 128.100, 0.000, 0.000, -3.100, 0.0, , , , , , 97, , , 49, 49, 49
38.0977236, -120.1812893, 36.400, 12:33:25.593, 17, 0.00, 0.42, 97, 3.700, 4.300, 128.600, 1273, 100, 96, 25, 23481, -21628, 5307, 5472, 12, 14, 1525894405.593, 202, 0, 1024, 1024, 1024, 1024, 0, 6, 3894, 3935, 3919, 3921, 3917, 3908, 0, 1, 17801, -89.900, 0.000, 128.100, 0.000, 0.000, -3.100, 0.0, , , , , , 97, , , 49, 49, 49
38.0977237, -120.1812892, 37.300, 12:33:25.693, 17, 0.00, 0.43, 97, 3.900, 3.200, 129.100, 1273, 100, 96, 25, 23481, -21628, 5307, 5472, 12, 14, 1525894405.694, 5, 0, 1024, 1024, 1024, 1024, 0, 6, 3894, 3935, 3919, 3921, 3917, 3908, 0, 1, 17902, -89.900, 0.000, 128.100, 0.000, 0.000, -3.000, 0.0, , , , , , 97, , , 49, 49, 49
38.0977237, -120.1812892, 37.300, 12:33:25.793, 17, 0.00, 0.43, 97, 3.900, 3.200, 129.100, 1273, 100, 96, 25, 23481, -21628, 5307, 5472, 12, 14, 1525894405.793, 105, 0, 1024, 1024, 1024, 1024, 0, 6, 3894, 3935, 3919, 3921, 3917, 3908, 0, 1, 18001, -89.900, 0.000, 128.100, 0.000, 0.000, -3.000, 0.0, , , , , , 97, , , 49, 49, 49
38.0977238, -120.1812892, 38.000, 12:33:25.894, 17, 0.10, 0.43, 97, 4.800, 2.600, 129.600, 1273, 100, 92, 25, 23481, -21628, 5307, 5472, 12, 14, 1525894405.894, 6, 0, 1024, 1024, 1024, 1024, 0, 6, 3894, 3935, 3919, 3921, 3917, 3908, 0, 1, 18102, -90.000, 0.000, 128.100, 0.100, 0.000, -3.100, 0.0, , , , , , 97, , , 49, 49, 49
38.0977239, -120.1812891, 38.300, 12:33:25.993, 17, 0.10, 0.43, 97, 5.400, 2.400, 129.600, 1273, 100, 92, 25, 23481, -21628, 5307, 5472, 12, 14, 1525894405.993, 46, 0, 1024, 1024, 1024, 1024, 0, 6, 3894, 3935, 3919, 3921, 3917, 3908, 0, 1, 18201, -90.000, 0.000, 128.100, 0.100, 0.000, -3.100, 0.0, , , , , , 97, , , 49, 49, 49
38.0977240, -120.1812891, 38.600, 12:33:26.092, 17, 0.00, 0.43, 97, 5.700, 2.400, 129.400, 1273, 100, 92, 25, 23481, -21628, 5307, 5472, 12, 14, 1525894406.093, 48, 0, 1024, 1024, 1024, 1024, 0, 6, 3894, 3935, 3919, 3921, 3917, 3908, 0, 1, 18301, -90.000, 0.000, 128.100, 0.000, 0.000, -3.100, 0.0, , , , , , 97, , , 49, 49, 49
38.0977240, -120.1812891, 38.600, 12:33:26.193, 17, 0.00, 0.43, 97, 5.700, 2.400, 129.400, 1273, 100, 92, 25, 23481, -21628, 5307, 5472, 12, 14, 1525894406.195, 150, 0, 1024, 1024, 1024, 1024, 0, 6, 3894, 3935, 3919, 3921, 3917, 3908, 0, 1, 18403, -90.000, 0.000, 128.100, 0.000, 0.000, -3.100, 0.0, , , , , , 97, , , 49, 49, 49
38.0977240, -120.1812891, 38.900, 12:33:26.293, 17, 0.00, 0.43, 97, 5.600, 2.200, 129.200, 1273, 100, 92, 25, 23481, -21628, 5307, 5472, 12, 14, 1525894406.294, 52, 0, 1024, 1024, 1024, 1024, 0, 6, 3894, 3935, 3919, 3921, 3917, 3908, 0, 1, 18502, -90.000, 0.000, 128.100, 0.000, 0.000, -3.000, 0.0, , , , , , 97, , , 49, 49, 49
38.0977240, -120.1812891, 39.200, 12:33:26.392, 17, 0.00, 0.43, 97, 5.400, 2.400, 129.100, 1273, 100, 92, 25, 23549, -20284, 5307, 5472, 12, 14, 1525894406.394, 51, 0, 1024, 1024, 1024, 1024, 0, 6, 3896, 3949, 3940, 3921, 3931, 3930, 0, 1, 18602, -90.000, 0.000, 128.100, 0.000, 0.000, -2.900, 0.0, , , , , , 97, , , 49, 49, 49
38.0977240, -120.1812891, 39.200, 12:33:26.493, 17, 0.00, 0.43, 97, 5.400, 2.400, 129.100, 1273, 100, 93, 25, 23549, -20284, 5307, 5472, 12, 14, 1525894406.494, 151, 0, 1024, 1024, 1024, 1024, 0, 6, 3896, 3949, 3940, 3921, 3931, 3930, 0, 1, 18702, -90.000, 0.000, 128.100, 0.000, 0.000, -2.900, 0.0, , , , , , 97, , , 49, 49, 49
38.0977240, -120.1812891, 39.200, 12:33:26.593, 17, 0.00, 0.43, 97, 5.400, 2.400, 129.100, 1273, 100, 93, 25, 23549, -20284, 5307, 5472, 12, 14, 1525894406.594, 251, 0, 1024, 1024, 1024, 1024, 0, 6, 3896, 3949, 3940, 3921, 3931, 3930, 0, 1, 18802, -90.000, 0.000, 128.100, 0.000, 0.000, -2.900, 0.0, , , , , , 97, , , 49, 49, 49
38.0977240, -120.1812891, 39.200, 12:33:26.693, 17, 0.00, 0.43, 97, 5.400, 2.400, 129.100, 1273, 100, 93, 25, 23549, -20284, 5307, 5472, 12, 14, 1525894406.694, 351, 0, 1024, 1024, 1024, 1024, 0, 6, 3896, 3949, 3940, 3921, 3931, 3930, 0, 1, 18902, -90.000, 0.000, 128.100, 0.000, 0.000, -2.900, 0.0, , , , , , 97, , , 49, 49, 49
38.0977240, -120.1812892, 40.100, 12:33:26.808, 17, 0.00, 0.42, 97, 4.300, 2.600, 129.000, 1273, 100, 93, 25, 23549, -20284, 5307, 5472, 12, 14, 1525894406.808, 16, 0, 1024, 1024, 1024, 1024, 0, 6, 3896, 3949, 3940, 3921, 3931, 3930, 0, 1, 19016, -89.900, 0.000, 128.100, 0.000, 0.000, -2.900, 0.0, , , , , , 97, , , 49, 49, 49
38.0977239, -120.1812893, 40.700, 12:33:26.900, 17, 0.00, 0.42, 97, 4.100, 2.500, 129.100, 1273, 100, 93, 25, 23549, -20284, 5307, 5472, 12, 14, 1525894406.900, 5, 0, 1024, 1024, 1024, 1024, 0, 6, 3896, 3949, 3940, 3921, 3931, 3930, 0, 1, 19108, -90.000, 0.000, 128.100, 0.000, 0.000, -2.900, 0.0, , , , , , 97, , , 49, 49, 49
38.0977239, -120.1812893, 40.700, 12:33:26.993, 17, 0.00, 0.42, 97, 4.100, 2.500, 129.100, 1273, 100, 93, 25, 23549, -20284, 5307, 5472, 12, 14, 1525894406.994, 99, 0, 1024, 1024, 1024, 1024, 0, 6, 3896, 3949, 3940, 3921, 3931, 3930, 0, 1, 19202, -90.000, 0.000, 128.100, 0.000, 0.000, -2.900, 0.0, , , , , , 97, , , 49, 49, 49
38.0977240, -120.1812893, 40.900, 12:33:27.092, 17, 0.00, 0.41, 97, 4.200, 2.600, 129.100, 1273, 100, 93, 25, 23549, -20284, 5307, 5472, 12, 14, 1525894407.094, 45, 0, 1024, 1024, 1024, 1024, 0, 6, 3896, 3949, 3940, 3921, 3931, 3930, 0, 1, 19302, -90.000, 0.000, 128.100, 0.000, 0.000, -2.800, 0.0, , , , , , 97, , , 49, 49, 49
38.0977240, -120.1812893, 40.900, 12:33:27.193, 17, 0.00, 0.41, 97, 4.200, 2.600, 129.100, 1273, 100, 93, 25, 23549, -20284, 5307, 5472, 12, 14, 1525894407.194, 145, 0, 1024, 1024, 1024, 1024, 0, 6, 3896, 3949, 3940, 3921, 3931, 3930, 0, 1, 19402, -90.000, 0.000, 128.100, 0.000, 0.000, -2.800, 0.0, , , , , , 97, , , 49, 49, 49
38.0977239, -120.1812895, 41.500, 12:33:27.293, 17, 0.00, 0.40, 97, 3.600, 2.400, 129.400, 1273, 100, 93, 25, 23549, -20284, 5307, 5472, 12, 14, 1525894407.294, 51, 0, 1024, 1024, 1024, 1024, 0, 6, 3896, 3949, 3940, 3921, 3931, 3930, 0, 1, 19502, -90.000, 0.000, 128.100, 0.000, 0.000, -3.000, 0.0, , , , , , 97, , , 49, 49, 49
38.0977239, -120.1812895, 41.500, 12:33:27.393, 17, 0.00, 0.40, 97, 3.600, 2.400, 129.400, 1273, 100, 93, 25, 23549, -20284, 5307, 5472, 12, 14, 1525894407.393, 150, 0, 1024, 1024, 1024, 1024, 0, 6, 3896, 3949, 3940, 3921, 3931, 3930, 0, 1, 19601, -90.000, 0.000, 128.100, 0.000, 0.000, -3.000, 0.0, , , , , , 97, , , 49, 49, 49
38.0977239, -120.1812895, 41.500, 12:33:27.495, 17, 0.00, 0.40, 97, 3.600, 2.400, 129.400, 1273, 100, 93, 25, 23549, -20284, 5307, 5472, 12, 14, 1525894407.496, 252, 0, 1024, 1024, 1024, 1024, 0, 6, 3896, 3949, 3940, 3921, 3931, 3930, 0, 1, 19704, -90.000, 0.000, 128.100, 0.000, 0.000, -3.000, 0.0, , , , , , 97, , , 49, 49, 49
38.0977239, -120.1812896, 42.200, 12:33:27.594, 17, 0.00, 0.39, 97, 4.300, 2.600, 129.400, 1273, 100, 93, 25, 23549, -20284, 5307, 5472, 12, 14, 1525894407.594, 55, 0, 1024, 1024, 1024, 1024, 0, 6, 3896, 3949, 3940, 3921, 3931, 3930, 0, 1, 19802, -90.000, 0.000, 128.100, 0.000, 0.000, -3.000, 0.0, , , , , , 97, , , 49, 49, 49
38.0977239, -120.1812896, 42.200, 12:33:27.693, 17, 0.00, 0.39, 97, 4.300, 2.600, 129.400, 1273, 100, 97, 25, 23580, -19471, 5307, 5472, 12, 14, 1525894407.694, 154, 0, 1024, 1024, 1024, 1024, 0, 6, 3896, 3949, 3940, 3921, 3931, 3930, 0, 1, 19901, -90.000, 0.000, 128.100, 0.000, 0.000, -3.000, 0.0, , , , , , 97, , , 49, 49, 49
38.0977241, -120.1812897, 43.200, 12:33:27.793, 17, 0.10, 0.38, 97, 5.300, 2.000, 128.800, 1273, 100, 97, 25, 23580, -19471, 5307, 5472, 12, 14, 1525894407.796, 19, 0, 1024, 1024, 1024, 1024, 0, 6, 3908, 3947, 3940, 3931, 3932, 3936, 0, 1, 20004, -90.000, 0.000, 128.100, 0.100, 0.000, -3.000, 0.0, , , , , , 97, , , 49, 49, 49
38.0977241, -120.1812897, 43.200, 12:33:27.892, 17, 0.10, 0.38, 97, 5.300, 2.000, 128.800, 1273, 100, 97, 25, 23580, -19471, 5307, 5472, 12, 14, 1525894407.893, 117, 0, 1024, 1024, 1024, 1024, 0, 6, 3908, 3947, 3940, 3931, 3932, 3936, 0, 1, 20101, -90.000, 0.000, 128.100, 0.100, 0.000, -3.000, 0.0, , , , , , 97, , , 49, 49, 49
38.0977241, -120.1812897, 43.500, 12:33:27.993, 17, 0.10, 0.38, 97, 5.800, 1.700, 128.600, 1273, 100, 97, 25, 23580, -19471, 5307, 5472, 12, 14, 1525894407.994, 45, 0, 1024, 1024, 1024, 1024, 0, 6, 3908, 3947, 3940, 3931, 3932, 3936, 0, 1, 20202, -90.000, 0.000, 128.100, 0.100, 0.000, -2.900, 0.0, , , , , , 97, , , 49, 49, 49
38.0977241, -120.1812897, 43.500, 12:33:28.093, 17, 0.10, 0.38, 97, 5.800, 1.700, 128.600, 1273, 100, 97, 25, 23580, -19471, 5307, 5472, 12, 14, 1525894408.095, 146, 0, 1024, 1024, 1024, 1024, 0, 6, 3908, 3947, 3940, 3931, 3932, 3936, 0, 1, 20303, -90.000, 0.000, 128.100, 0.100, 0.000, -2.900, 0.0, , , , , , 97, , , 49, 49, 49
38.0977243, -120.1812898, 44.000, 12:33:28.194, 17, 0.00, 0.37, 97, 5.200, 1.200, 128.400, 1273, 100, 94, 25, 23580, -19471, 5307, 5472, 12, 14, 1525894408.194, 20, 0, 1024, 1024, 1024, 1024, 0, 6, 3908, 3947, 3940, 3931, 3932, 3936, 0, 1, 20402, -90.000, 0.000, 128.100, 0.000, 0.000, -2.800, 0.0, , , , , , 97, , , 49, 49, 49
38.0977242, -120.1812899, 44.600, 12:33:28.299, 17, 0.00, 0.36, 97, 4.400, 1.500, 128.700, 1273, 100, 94, 25, 23580, -19471, 5307, 5472, 12, 14, 1525894408.300, 9, 0, 1024, 1024, 1024, 1024, 0, 6, 3908, 3947, 3940, 3931, 3932, 3936, 0, 1, 20507, -90.000, 0.000, 128.100, 0.000, 0.000, -2.800, 0.0, , , , , , 97, , , 49, 49, 49
38.0977242, -120.1812900, 44.900, 12:33:28.392, 17, 0.00, 0.35, 97, 4.600, 2.200, 129.100, 1273, 100, 94, 25, 23580, -19471, 5307, 5472, 12, 14, 1525894408.393, 48, 0, 1024, 1024, 1024, 1024, 0, 6, 3908, 3947, 3940, 3931, 3932, 3936, 0, 1, 20600, -89.900, 0.000, 128.100, 0.000, 0.000, -2.900, 0.0, , , , , , 97, , , 49, 49, 49
38.0977242, -120.1812900, 44.900, 12:33:28.493, 17, 0.00, 0.35, 97, 4.600, 2.200, 129.100, 1273, 100, 94, 25, 23580, -19471, 5307, 5472, 12, 14, 1525894408.494, 149, 0, 1024, 1024, 1024, 1024, 0, 6, 3908, 3947, 3940, 3931, 3932, 3936, 0, 1, 20701, -89.900, 0.000, 128.100, 0.000, 0.000, -2.900, 0.0, , , , , , 97, , , 49, 49, 49
