Latitude, Longitude, Altitude (m), Time, Sats, Speed (m/s), Range (m), Battery (%), Roll (deg), Pitch (deg), Yaw (deg), Images, HD Signal (%), RC Signal (%), Battery Temp (C), Battery Voltage (mV), Battery Current (mA), Battery Energy (mAh), Battery Capacity (mAh), Battery Discharges, flyState, timestamp (Unix), LastUpdate (ms), radioChannel, Rc_elevator, Rc_aileron, Rc_throttle, Rc_rudder, Rc_gyro, Dronetype, Battery_Cell1 (mV), Battery_Cell2 (mV), Battery_Cell3 (mV), Battery_Cell4 (mV), Battery_Cell5 (mV), Battery_Cell6 (mV), Video, isFlying, elapsedTime (ms), gimbalPitch (deg), gimbalRoll (deg), gimbalYaw (deg), VelocityX (m/s), VelocityY (m/s), VelocityZ (m/s), GroundSmear (cm), App Version, Aircraft Name, Aircraft Firmware, Aircraft Serial Number, Battery Serial Number, Battery Lifetime (%), App_Tip, App_Warning, CurrentFlightStartingIndex, CurrentFlightLastVisitedWaypoint, PreviousFlightEndingWaypointIndex
38.0977144, -120.1812695, 0.000, 11:52:12.655, 14, 0.00, 0.04, 100, 0.300, 0.100, 126.900, 443, 100, 99, 26, 25670, -3936, 5472, 5472, 12, 11, 1525891932.657, 223, 0, 1024, 1024, 1024, 1024, 0, 6, 4311, 4319, 4320, 4323, 4316, 4319, 0, 1, 2789, -89.900, 0.000, 127.400, 0.000, 0.000, 0.000, 0.0, MapPilot_2.8.1_04242018, Dendroctonus I, 1.3.1.00, 041DDC1887, 1058171200140, 97, DJI_0444.jpg, Starting Mission from Lat/Long: 38.09771/-120.18127 Camera: Zenmuse X3 - Overlap: 90/90 - Active Connection: No, 17, 17, 17
38.0977143, -120.1812694, 0.000, 11:52:12.684, 14, 0.00, 0.05, 100, 0.200, 0.900, 126.700, 443, 100, 100, 26, 25670, -3936, 5472, 5472, 12, 11, 1525891932.684, 20, 0, 1024, 1024, 1024, 1024, 0, 6, 4300, 4263, 4288, 4304, 4287, 4278, 0, 1, 2816, -89.900, 0.000, 127.500, 0.000, 0.000, -0.200, 0.0, , , , , , 97, , , 17, 17, 17
38.0977143, -120.1812693, 0.000, 11:52:12.775, 14, 0.00, 0.06, 100, 0.600, 1.000, 126.600, 443, 100, 100, 26, 25670, -3936, 5472, 5472, 12, 11, 1525891932.776, 13, 0, 1024, 1024, 1024, 1024, 0, 6, 4300, 4263, 4288, 4304, 4287, 4278, 0, 1, 2908, -89.900, 0.000, 127.500, 0.000, 0.000, -0.300, 0.0, , , , , , 97, , , 17, 17, 17
38.0977142, -120.1812691, 0.100, 11:52:12.875, 15, 0.00, 0.07, 100, 0.300, 1.300, 126.600, 443, 100, 100, 26, 25670, -3936, 5472, 5472, 12, 11, 1525891932.875, 11, 0, 1024, 1024, 1024, 1024, 0, 6, 4300, 4263, 4288, 4304, 4287, 4278, 0, 1, 3007, -89.900, 0.000, 127.500, 0.000, 0.000, -0.300, 0.0, , , , , , 97, , , 17, 17, 17
38.0977142, -120.1812691, 0.100, 11:52:12.968, 15, 0.00, 0.07, 100, 0.100, 0.900, 126.700, 443, 100, 100, 26, 25328, -7923, 5472, 5472, 12, 11, 1525891932.971, 20, 0, 1024, 1024, 1024, 1024, 0, 6, 4300, 4263, 4288, 4304, 4287, 4278, 0, 1, 3103, -89.900, 0.000, 127.500, 0.000, 0.000, -0.300, 0.0, , , , , , 97, , , 17, 17, 17
38.0977142, -120.1812690, 0.200, 11:52:13.069, 14, 0.00, 0.08, 100, 0.000, 0.500, 126.800, 443, 100, 97, 26, 25328, -7923, 5472, 5472, 12, 11, 1525891933.072, 32, 0, 1024, 1024, 1024, 1024, 0, 6, 4208, 4208, 4230, 4211, 4183, 4171, 0, 1, 3204, -89.900, 0.000, 127.500, 0.000, 0.000, -0.400, 0.0, , , , , , 97, , , 17, 17, 17
38.0977142, -120.1812690, 0.200, 11:52:13.168, 14, 0.00, 0.08, 100, 0.000, 0.500, 126.800, 443, 100, 97, 26, 25328, -7923, 5472, 5472, 12, 11, 1525891933.171, 131, 0, 1024, 1024, 1024, 1024, 0, 6, 4208, 4208, 4230, 4211, 4183, 4171, 0, 1, 3303, -89.900, 0.000, 127.500, 0.000, 0.000, -0.400, 0.0, , , , , , 97, , , 17, 17, 17
38.0977142, -120.1812690, 0.200, 11:52:13.271, 14, 0.00, 0.08, 100, 0.000, 0.300, 126.900, 443, 100, 97, 26, 25328, -7923, 5472, 5472, 12, 11, 1525891933.273, 83, 0, 1024, 1024, 1024, 1024, 0, 6, 4208, 4208, 4230, 4211, 4183, 4171, 0, 1, 3405, -89.900, 0.000, 127.500, 0.000, 0.000, -0.400, 0.0, , , , , , 97, , , 17, 17, 17
38.0977141, -120.1812690, 0.300, 11:52:13.373, 15, 0.00, 0.08, 100, -0.200, 0.500, 127.000, 443, 100, 97, 26, 25328, -7923, 5472, 5472, 12, 11, 1525891933.374, 9, 0, 1024, 1024, 1024, 1024, 0, 6, 4208, 4208, 4230, 4211, 4183, 4171, 0, 1, 3506, -89.900, 0.000, 127.500, 0.000, 0.000, -0.400, 0.0, , , , , , 97, , , 17, 17, 17
38.0977140, -120.1812689, 0.300, 11:52:13.468, 16, 0.00, 0.09, 100, -0.200, 0.400, 127.000, 443, 100, 97, 26, 25328, -7923, 5472, 5472, 12, 11, 1525891933.472, 23, 0, 1024, 1024, 1024, 1024, 0, 6, 4208, 4208, 4230, 4211, 4183, 4171, 0, 1, 3605, -89.900, 0.000, 127.500, 0.000, 0.000, -0.400, 0.0, , , , , , 97, , , 17, 17, 17
38.0977140, -120.1812688, 0.400, 11:52:13.569, 16, 0.00, 0.10, 100, -0.100, 0.400, 127.000, 443, 100, 95, 26, 25328, -7923, 5472, 5472, 12, 11, 1525891933.571, 30, 0, 1024, 1024, 1024, 1024, 0, 6, 4208, 4208, 4230, 4211, 4183, 4171, 0, 1, 3703, -89.900, 0.000, 127.500, 0.000, 0.000, -0.400, 0.0, , , , , , 97, , , 17, 17, 17
38.0977140, -120.1812687, 0.400, 11:52:13.669, 17, 0.00, 0.10, 100, -0.200, 0.500, 127.000, 443, 100, 95, 26, 25328, -7923, 5472, 5472, 12, 11, 1525891933.673, 33, 0, 1024, 1024, 1024, 1024, 0, 6, 4208, 4208, 4230, 4211, 4183, 4171, 0, 1, 3805, -89.900, 0.000, 127.500, 0.000, 0.000, -0.400, 0.0, , , , , , 97, , , 17, 17, 17
38.0977140, -120.1812686, 0.500, 11:52:13.769, 16, 0.00, 0.12, 100, -0.100, 0.700, 127.000, 443, 100, 95, 26, 25328, -7923, 5472, 5472, 12, 11, 1525891933.772, 60, 0, 1024, 1024, 1024, 1024, 0, 6, 4208, 4208, 4230, 4211, 4183, 4171, 0, 1, 3904, -89.900, 0.000, 127.500, 0.000, 0.000, -0.500, 0.0, , , , , , 97, , , 17, 17, 17
38.0977140, -120.1812685, 0.700, 11:52:13.873, 16, 0.00, 0.12, 100, 0.000, 0.700, 126.900, 443, 100, 95, 26, 24693, -16206, 5472, 5472, 12, 11, 1525891933.874, 19, 0, 1024, 1024, 1024, 1024, 0, 6, 4208, 4208, 4230, 4211, 4183, 4171, 0, 1, 4006, -89.900, 0.000, 127.500, 0.000, 0.000, -0.500, 0.0, , , , , , 97, , , 17, 17, 17
38.0977140, -120.1812685, 0.700, 11:52:13.969, 16, 0.00, 0.12, 100, 0.000, 0.700, 126.900, 443, 100, 95, 26, 24693, -16206, 5472, 5472, 12, 11, 1525891933.971, 116, 0, 1024, 1024, 1024, 1024, 0, 6, 4208, 4208, 4230, 4211, 4183, 4171, 0, 1, 4103, -89.900, 0.000, 127.500, 0.000, 0.000, -0.500, 0.0, , , , , , 97, , , 17, 17, 17
38.0977140, -120.1812685, 0.700, 11:52:14.069, 16, 0.00, 0.12, 100, 0.000, 0.700, 126.900, 443, 100, 95, 26, 24693, -16206, 5472, 5472, 12, 11, 1525891934.069, 214, 0, 1024, 1024, 1024, 1024, 0, 6, 4208, 4208, 4230, 4211, 4183, 4171, 0, 1, 4201, -89.900, 0.000, 127.500, 0.000, 0.000, -0.500, 0.0, , , , , , 97, , , 17, 17, 17
38.0977140, -120.1812685, 0.800, 11:52:14.168, 15, 0.00, 0.13, 100, 0.100, 0.800, 126.900, 443, 100, 95, 26, 24693, -16206, 5472, 5472, 12, 11, 1525891934.169, 87, 0, 1024, 1024, 1024, 1024, 0, 6, 4208, 4208, 4230, 4211, 4183, 4171, 0, 1, 4301, -89.900, 0.000, 127.500, 0.000, 0.000, -0.400, 0.0, , , , , , 97, , , 17, 17, 17
38.0977140, -120.1812685, 0.800, 11:52:14.269, 15, 0.00, 0.13, 100, 0.100, 0.800, 126.900, 443, 100, 95, 26, 24693, -16206, 5472, 5472, 12, 11, 1525891934.269, 188, 0, 1024, 1024, 1024, 1024, 0, 6, 4208, 4208, 4230, 4211, 4183, 4171, 0, 1, 4401, -89.900, 0.000, 127.500, 0.000, 0.000, -0.400, 0.0, , , , , , 97, , , 17, 17, 17
38.0977140, -120.1812684, 0.800, 11:52:14.368, 15, 0.00, 0.13, 100, 0.100, 0.800, 126.900, 443, 100, 95, 26, 24693, -16206, 5472, 5472, 12, 11, 1525891934.369, 75, 0, 1024, 1024, 1024, 1024, 0, 6, 4208, 4208, 4230, 4211, 4183, 4171, 0, 1, 4501, -89.900, 0.000, 127.500, 0.000, 0.000, -0.400, 0.0, , , , , , 97, , , 17, 17, 17
38.0977140, -120.1812684, 0.900, 11:52:14.469, 15, 0.00, 0.13, 100, 0.200, 0.900, 127.000, 443, 100, 95, 26, 24693, -16206, 5472, 5472, 12, 6, 1525891934.469, 38, 0, 1024, 1024, 1024, 1024, 0, 6, 4208, 4208, 4230, 4211, 4183, 4171, 0, 1, 4601, -89.900, 0.000, 127.500, 0.000, 0.000, -0.400, 0.0, , , , , , 97, , , 17, 17, 17
38.0977140, -120.1812683, 0.900, 11:52:14.569, 15, 0.00, 0.14, 98, 0.200, 0.800, 127.100, 443, 100, 95, 26, 24693, -16206, 5362, 5472, 12, 14, 1525891934.569, 37, 0, 1024, 1024, 1024, 1024, 0, 6, 4208, 4208, 4230, 4211, 4183, 4171, 0, 1, 4702, -89.900, 0.000, 127.500, 0.000, 0.000, -0.400, 0.0, , , , , , 97, , , 17, 17, 17
38.0977141, -120.1812683, 1.000, 11:52:14.669, 15, 0.00, 0.14, 98, 0.200, 0.500, 127.300, 443, 100, 98, 26, 24693, -16206, 5362, 5472, 12, 14, 1525891934.670, 55, 0, 1024, 1024, 1024, 1024, 0, 6, 4208, 4208, 4230, 4211, 4183, 4171, 0, 1, 4802, -89.900, 0.000, 127.500, 0.000, 0.000, -0.300, 0.0, , , , , , 97, , , 17, 17, 17
38.0977142, -120.1812683, 1.000, 11:52:14.769, 15, 0.00, 0.14, 98, 0.300, 0.200, 127.400, 443, 100, 98, 26, 24693, -16206, 5362, 5472, 12, 14, 1525891934.770, 27, 0, 1024, 1024, 1024, 1024, 0, 6, 4208, 4208, 4230, 4211, 4183, 4171, 0, 1, 4902, -89.900, 0.000, 127.500, 0.000, 0.000, -0.200, 0.0, , , , , , 97, , , 17, 17, 17
38.0977143, -120.1812683, 1.000, 11:52:14.869, 14, 0.00, 0.14, 98, 0.600, 0.100, 127.500, 443, 100, 98, 26, 24693, -16206, 5362, 5472, 12, 14, 1525891934.869, 24, 0, 1024, 1024, 1024, 1024, 0, 6, 4208, 4208, 4230, 4211, 4183, 4171, 0, 1, 5001, -90.000, 0.000, 127.500, 0.000, 0.000, -0.200, 0.0, , , , , , 97, , , 17, 17, 17
38.0977143, -120.1812683, 1.000, 11:52:14.968, 14, 0.00, 0.14, 98, 0.700, 0.000, 127.400, 443, 100, 98, 26, 24693, -16206, 5362, 5472, 12, 14, 1525891934.969, 28, 0, 1024, 1024, 1024, 1024, 0, 6, 4099, 4110, 4130, 4119, 4106, 4111, 0, 1, 5101, -90.000, 0.000, 127.500, 0.000, 0.000, -0.400, 0.0, , , , , , 97, , , 17, 17, 17
38.0977142, -120.1812683, 1.100, 11:52:15.068, 14, 0.00, 0.14, 98, 0.500, 0.000, 127.300, 443, 100, 100, 26, 24693, -16206, 5362, 5472, 12, 14, 1525891935.069, 18, 0, 1024, 1024, 1024, 1024, 0, 6, 4099, 4110, 4130, 4119, 4106, 4111, 0, 1, 5201, -89.900, 0.000, 127.500, 0.000, 0.000, -0.500, 0.0, , , , , , 97, , , 17, 17, 17
38.0977142, -120.1812683, 1.100, 11:52:15.168, 14, 0.00, 0.14, 98, 0.500, 0.000, 127.300, 443, 100, 100, 26, 24693, -16206, 5362, 5472, 12, 14, 1525891935.168, 117, 0, 1024, 1024, 1024, 1024, 0, 6, 4099, 4110, 4130, 4119, 4106, 4111, 0, 1, 5300, -89.900, 0.000, 127.500, 0.000, 0.000, -0.500, 0.0, , , , , , 97, , , 17, 17, 17
38.0977142, -120.1812683, 1.100, 11:52:15.272, 14, 0.00, 0.14, 98, 0.500, 0.000, 127.300, 443, 100, 100, 26, 24693, -16206, 5362, 5472, 12, 14, 1525891935.273, 221, 0, 1024, 1024, 1024, 1024, 0, 6, 4099, 4110, 4130, 4119, 4106, 4111, 0, 1, 5405, -89.900, 0.000, 127.500, 0.000, 0.000, -0.500, 0.0, , , , , , 97, , , 17, 17, 17
38.0977142, -120.1812684, 1.100, 11:52:15.369, 14, 0.00, 0.13, 98, 0.300, 0.000, 127.200, 443, 100, 100, 26, 24693, -16206, 5362, 5472, 12, 14, 1525891935.372, 66, 0, 1024, 1024, 1024, 1024, 0, 6, 4099, 4110, 4130, 4119, 4106, 4111, 0, 1, 5504, -89.900, 0.000, 127.500, 0.000, 0.000, -0.600, 0.0, , , , , , 97, , , 17, 17, 17
38.0977142, -120.1812684, 1.200, 11:52:15.469, 15, 0.00, 0.13, 98, 0.100, 0.200, 127.100, 443, 100, 100, 26, 24693, -16206, 5362, 5472, 12, 14, 1525891935.469, 44, 0, 1024, 1024, 1024, 1024, 0, 6, 4099, 4110, 4130, 4119, 4106, 4111, 0, 1, 5601, -89.900, 0.000, 127.500, 0.000, 0.000, -0.800, 0.0, , , , , , 97, , , 17, 17, 17
38.0977142, -120.1812684, 1.300, 11:52:15.568, 15, 0.00, 0.13, 98, 0.000, 0.200, 127.100, 443, 100, 100, 26, 24693, -16206, 5362, 5472, 12, 14, 1525891935.569, 20, 0, 1024, 1024, 1024, 1024, 0, 6, 4099, 4110, 4130, 4119, 4106, 4111, 0, 1, 5701, -89.900, 0.000, 127.500, 0.000, 0.000, -1.000, 0.0, , , , , , 97, , , 17, 17, 17
38.0977142, -120.1812684, 1.600, 11:52:15.669, 15, 0.00, 0.13, 98, 0.300, 0.100, 127.000, 443, 100, 100, 26, 24693, -16206, 5362, 5472, 12, 14, 1525891935.669, 43, 0, 1024, 1024, 1024, 1024, 0, 6, 4099, 4110, 4130, 4119, 4106, 4111, 0, 1, 5801, -89.900, 0.000, 127.500, 0.000, 0.000, -1.400, 0.0, , , , , , 97, , , 17, 17, 17
38.0977142, -120.1812684, 1.800, 11:52:15.769, 16, 0.00, 0.13, 98, 0.300, 0.200, 126.900, 443, 100, 100, 26, 24693, -16206, 5362, 5472, 12, 14, 1525891935.769, 18, 0, 1024, 1024, 1024, 1024, 0, 6, 4099, 4110, 4130, 4119, 4106, 4111, 0, 1, 5901, -89.900, 0.000, 127.500, 0.000, 0.000, -1.700, 0.0, , , , , , 97, , , 17, 17, 17
38.0977143, -120.1812683, 2.000, 11:52:15.868, 16, 0.00, 0.14, 98, 0.300, 0.300, 127.000, 443, 100, 100, 26, 24693, -16206, 5362, 5472, 12, 14, 1525891935.869, 10, 0, 1024, 1024, 1024, 1024, 0, 6, 4099, 4110, 4130, 4119, 4106, 4111, 0, 1, 6001, -89.900, 0.000, 127.500, 0.000, 0.000, -2.000, 0.0, , , , , , 97, , , 17, 17, 17
38.0977144, -120.1812683, 2.200, 11:52:15.971, 15, 0.00, 0.14, 98, 0.300, 0.000, 127.100, 443, 100, 100, 26, 24693, -16206, 5362, 5472, 12, 14, 1525891935.972, 15, 0, 1024, 1024, 1024, 1024, 0, 6, 4099, 4110, 4130, 4119, 4106, 4111, 0, 1, 6104, -90.000, 0.000, 127.500, 0.000, 0.000, -2.100, 0.0, , , , , , 97, , , 17, 17, 17
38.0977145, -120.1812684, 2.400, 11:52:16.077, 15, 0.00, 0.14, 98, 0.300, -0.200, 127.200, 443, 100, 100, 26, 24693, -16206, 5362, 5472, 12, 14, 1525891936.078, 14, 0, 1024, 1024, 1024, 1024, 0, 6, 4099, 4110, 4130, 4119, 4106, 4111, 0, 1, 6210, -90.000, 0.000, 127.500, 0.000, 0.000, -2.300, 0.0, , , , , , 97, , , 17, 17, 17
38.0977145, -120.1812684, 2.400, 11:52:16.168, 15, 0.00, 0.14, 98, 0.300, -0.200, 127.200, 443, 100, 100, 26, 24556, -16294, 5362, 5472, 12, 14, 1525891936.169, 106, 0, 1024, 1024, 1024, 1024, 0, 6, 4099, 4110, 4130, 4119, 4106, 4111, 0, 1, 6301, -89.900, 0.000, 127.500, 0.000, 0.000, -2.300, 0.0, , , , , , 97, , , 17, 17, 17
38.0977147, -120.1812685, 2.700, 11:52:16.274, 16, 0.00, 0.14, 98, 0.500, -0.400, 127.400, 443, 100, 100, 26, 24556, -16294, 5362, 5472, 12, 14, 1525891936.275, 30, 0, 1024, 1024, 1024, 1024, 0, 6, 4099, 4110, 4130, 4119, 4106, 4111, 0, 1, 6407, -90.000, 0.000, 127.500, 0.000, 0.000, -2.500, 0.0, , , , , , 97, , , 17, 17, 17
38.0977148, -120.1812685, 2.900, 11:52:16.368, 16, 0.00, 0.14, 98, 0.600, -0.400, 127.500, 443, 100, 100, 26, 24556, -16294, 5362, 5472, 12, 14, 1525891936.369, 38, 0, 1024, 1024, 1024, 1024, 0, 6, 4099, 4110, 4130, 4119, 4106, 4111, 0, 1, 6501, -89.900, 0.000, 127.500, 0.000, 0.000, -2.700, 0.0, , , , , , 97, , , 17, 17, 17
38.0977149, -120.1812687, 3.200, 11:52:16.469, 15, 0.00, 0.13, 98, 0.600, -0.500, 127.600, 443, 100, 100, 26, 24556, -16294, 5362, 5472, 12, 14, 1525891936.470, 12, 0, 1024, 1024, 1024, 1024, 0, 6, 4079, 4090, 4097, 4109, 4083, 4100, 0, 1, 6602, -90.000, 0.000, 127.500, 0.000, 0.000, -2.900, 0.0, , , , , , 97, , , 17, 17, 17
38.0977150, -120.1812688, 3.500, 11:52:16.569, 15, 0.00, 0.13, 98, 0.500, -0.600, 127.600, 443, 100, 100, 26, 24556, -16294, 5362, 5472, 12, 14, 1525891936.569, 33, 0, 1024, 1024, 1024, 1024, 0, 6, 4079, 4090, 4097, 4109, 4083, 4100, 0, 1, 6701, -90.000, 0.000, 127.500, 0.000, 0.000, -3.000, 0.0, , , , , , 97, , , 17, 17, 17
38.0977150, -120.1812690, 3.800, 11:52:16.668, 14, 0.00, 0.13, 98, 0.400, -0.700, 127.500, 443, 100, 100, 26, 24306, -17019, 5362, 5472, 12, 14, 1525891936.672, 47, 0, 1024, 1024, 1024, 1024, 0, 6, 4079, 4090, 4097, 4109, 4083, 4100, 0, 1, 6804, -90.000, 0.000, 127.500, 0.000, 0.000, -3.100, 0.0, , , , , , 97, , , 17, 17, 17
38.0977154, -120.1812692, 4.800, 11:52:16.783, 15, 0.00, 0.15, 98, 0.400, -1.400, 127.300, 443, 100, 100, 26, 24306, -17019, 5362, 5472, 12, 14, 1525891936.784, 9, 0, 1024, 1024, 1024, 1024, 0, 6, 4079, 4090, 4097, 4109, 4083, 4100, 0, 1, 6916, -90.000, 0.000, 127.500, 0.000, 0.000, -3.200, 0.0, , , , , , 97, , , 17, 17, 17
38.0977154, -120.1812692, 4.800, 11:52:16.869, 15, 0.00, 0.15, 98, 0.400, -1.400, 127.300, 443, 100, 100, 26, 24306, -17019, 5362, 5472, 12, 14, 1525891936.871, 97, 0, 1024, 1024, 1024, 1024, 0, 6, 4010, 4034, 4069, 4085, 4060, 4038, 0, 1, 7003, -90.000, 0.000, 127.500, 0.000, 0.000, -3.200, 0.0, , , , , , 97, , , 17, 17, 17
38.0977154, -120.1812692, 4.800, 11:52:16.968, 15, 0.00, 0.15, 98, 0.400, -1.400, 127.300, 443, 100, 100, 26, 24306, -17019, 5362, 5472, 12, 14, 1525891936.969, 195, 0, 1024, 1024, 1024, 1024, 0, 6, 4010, 4034, 4069, 4085, 4060, 4038, 0, 1, 7101, -89.900, 0.000, 127.500, 0.000, 0.000, -3.200, 0.0, , , , , , 97, , , 17, 17, 17
38.0977154, -120.1812692, 4.800, 11:52:17.068, 15, 0.00, 0.15, 98, 0.400, -1.400, 127.300, 443, 100, 100, 26, 24306, -17019, 5362, 5472, 12, 14, 1525891937.069, 295, 0, 1024, 1024, 1024, 1024, 0, 6, 4010, 4034, 4069, 4085, 4060, 4038, 0, 1, 7201, -89.900, 0.000, 127.500, 0.000, 0.000, -3.200, 0.0, , , , , , 97, , , 17, 17, 17
38.0977151, -120.1812697, 5.900, 11:52:17.168, 14, 0.00, 0.10, 98, -0.300, -1.100, 127.400, 443, 100, 100, 26, 24306, -17019, 5362, 5472, 12, 14, 1525891937.168, 83, 0, 1024, 1024, 1024, 1024, 0, 6, 4010, 4034, 4069, 4085, 4060, 4038, 0, 1, 7300, -89.900, 0.000, 127.500, 0.000, 0.000, -3.200, 0.0, , , , , , 97, , , 17, 17, 17
38.0977150, -120.1812697, 6.200, 11:52:17.268, 14, 0.00, 0.10, 98, -0.800, -0.900, 127.600, 443, 100, 100, 26, 24306, -17019, 5362, 5472, 12, 14, 1525891937.271, 56, 0, 1024, 1024, 1024, 1024, 0, 6, 4010, 4034, 4069, 4085, 4060, 4038, 0, 1, 7403, -89.900, 0.000, 127.500, 0.000, 0.000, -3.200, 0.0, , , , , , 97, , , 17, 17, 17
38.0977149, -120.1812697, 6.500, 11:52:17.368, 14, 0.00, 0.09, 98, -1.000, -0.600, 127.700, 443, 100, 100, 26, 24306, -17019, 5362, 5472, 12, 14, 1525891937.369, 53, 0, 1024, 1024, 1024, 1024, 0, 6, 4010, 4034, 4069, 4085, 4060, 4038, 0, 1, 7501, -89.900, 0.000, 127.500, 0.000, 0.000, -3.100, 0.0, , , , , , 97, , , 17, 17, 17
38.0977149, -120.1812696, 6.900, 11:52:17.469, 14, 0.00, 0.08, 98, -0.700, -0.300, 127.600, 443, 100, 100, 26, 24306, -17019, 5362, 5472, 12, 14, 1525891937.472, 24, 0, 1024, 1024, 1024, 1024, 0, 6, 4010, 4034, 4069, 4085, 4060, 4038, 0, 1, 7604, -89.900, 0.000, 127.500, 0.000, 0.000, -3.100, 0.0, , , , , , 97, , , 17, 17, 17
38.0977149, -120.1812696, 6.900, 11:52:17.568, 14, 0.00, 0.08, 98, -0.700, -0.300, 127.600, 443, 100, 100, 26, 24306, -17019, 5362, 5472, 12, 14, 1525891937.569, 120, 0, 1024, 1024, 1024, 1024, 0, 6, 4010, 4034, 4069, 4085, 4060, 4038, 0, 1, 7701, -89.900, 0.000, 127.500, 0.000, 0.000, -3.100, 0.0, , , , , , 97, , , 17, 17, 17
38.0977147, -120.1812692, 7.500, 11:52:17.668, 14, 0.10, 0.09, 98, 0.300, 0.300, 127.300, 443, 100, 100, 26, 23990, -22588, 5362, 5472, 12, 14, 1525891937.669, 51, 0, 1024, 1024, 1024, 1024, 0, 6, 4010, 4034, 4069, 4085, 4060, 4038, 0, 1, 7801, -89.900, 0.000, 127.500, 0.000, 0.100, -3.100, 0.0, , , , , , 97, , , 17, 17, 17
38.0977146, -120.1812691, 7.900, 11:52:17.768, 15, 0.10, 0.08, 98, 0.500, 0.700, 127.100, 443, 100, 100, 26, 23990, -22588, 5362, 5472, 12, 14, 1525891937.769, 43, 0, 1024, 1024, 1024, 1024, 0, 6, 3960, 3997, 4003, 4022, 3987, 4030, 0, 1, 7901, -89.900, 0.000, 127.500, 0.000, 0.100, -3.100, 0.0, , , , , , 97, , , 17, 17, 17
38.0977142, -120.1812690, 8.500, 11:52:17.868, 14, 0.10, 0.08, 98, -0.100, 0.900, 126.900, 443, 100, 100, 26, 23990, -22588, 5362, 5472, 12, 14, 1525891937.871, 22, 0, 1024, 1024, 1024, 1024, 0, 6, 3960, 3997, 4003, 4022, 3987, 4030, 0, 1, 8003, -89.900, 0.000, 127.500, -0.100, 0.000, -3.100, 0.0, , , , , , 97, , , 17, 17, 17
38.0977140, -120.1812688, 8.800, 11:52:17.968, 14, 0.10, 0.10, 98, -0.600, 1.100, 126.900, 443, 100, 100, 26, 23990, -22588, 5362, 5472, 12, 14, 1525891937.970, 24, 0, 1024, 1024, 1024, 1024, 0, 6, 3960, 3997, 4003, 4022, 3987, 4030, 0, 1, 8102, -89.900, 0.000, 127.500, -0.100, 0.000, -3.100, 0.0, , , , , , 97, , , 17, 17, 17
38.0977137, -120.1812688, 9.100, 11:52:18.083, 16, 0.10, 0.11, 98, -0.600, 1.500, 127.000, 443, 100, 100, 26, 23990, -22588, 5362, 5472, 12, 14, 1525891938.084, 19, 0, 1024, 1024, 1024, 1024, 0, 6, 3960, 3997, 4003, 4022, 3987, 4030, 0, 1, 8216, -89.900, 0.000, 127.500, -0.100, 0.000, -3.100, 0.0, , , , , , 97, , , 17, 17, 17
38.0977137, -120.1812688, 9.100, 11:52:18.168, 16, 0.10, 0.11, 98, -0.600, 1.500, 127.000, 443, 100, 100, 26, 23990, -22588, 5362, 5472, 12, 14, 1525891938.169, 105, 0, 1024, 1024, 1024, 1024, 0, 6, 3960, 3997, 4003, 4022, 3987, 4030, 0, 1, 8301, -89.900, 0.000, 127.500, -0.100, 0.000, -3.100, 0.0, , , , , , 97, , , 17, 17, 17
38.0977137, -120.1812688, 9.100, 11:52:18.268, 16, 0.10, 0.11, 98, -0.600, 1.500, 127.000, 443, 100, 100, 26, 23990, -22588, 5362, 5472, 12, 14, 1525891938.270, 205, 0, 1024, 1024, 1024, 1024, 0, 6, 3960, 3997, 4003, 4022, 3987, 4030, 0, 1, 8402, -89.900, 0.000, 127.500, -0.100, 0.000, -3.100, 0.0, , , , , , 97, , , 17, 17, 17
38.0977133, -120.1812688, 9.800, 11:52:18.368, 14, 0.00, 0.13, 98, -0.500, 1.800, 127.100, 443, 100, 100, 26, 23990, -22588, 5362, 5472, 12, 14, 1525891938.369, 30, 0, 1024, 1024, 1024, 1024, 0, 6, 3960, 3997, 4003, 4022, 3987, 4030, 0, 1, 8501, -89.900, 0.000, 127.500, 0.000, 0.000, -3.000, 0.0, , , , , , 97, , , 17, 17, 17
38.0977129, -120.1812686, 10.700, 11:52:18.474, 14, 0.00, 0.18, 98, -0.600, 1.100, 127.000, 443, 100, 100, 26, 23990, -22588, 5362, 5472, 12, 14, 1525891938.475, 12, 0, 1024, 1024, 1024, 1024, 0, 6, 3960, 3997, 4003, 4022, 3987, 4030, 0, 1, 8607, -89.900, 0.000, 127.500, 0.000, 0.000, -3.000, 0.0, , , , , , 97, , , 17, 17, 17
38.0977128, -120.1812686, 11.100, 11:52:18.568, 14, 0.00, 0.19, 98, -0.500, 1.000, 127.000, 443, 100, 100, 26, 23990, -22588, 5362, 5472, 12, 14, 1525891938.570, 33, 0, 1024, 1024, 1024, 1024, 0, 6, 3960, 3997, 4003, 4022, 3987, 4030, 0, 1, 8702, -89.900, 0.000, 127.500, 0.000, 0.000, -3.000, 0.0, , , , , , 97, , , 17, 17, 17
38.0977127, -120.1812685, 11.400, 11:52:18.668, 14, 0.00, 0.21, 98, -0.500, 1.100, 127.100, 443, 100, 100, 26, 23990, -22588, 5362, 5472, 12, 14, 1525891938.668, 9, 0, 1024, 1024, 1024, 1024, 0, 6, 3960, 3997, 4003, 4022, 3987, 4030, 0, 1, 8801, -89.900, 0.000, 127.500, 0.000, 0.000, -3.000, 0.0, , , , , , 97, , , 17, 17, 17
38.0977127, -120.1812685, 11.400, 11:52:18.768, 14, 0.00, 0.21, 98, -0.500, 1.100, 127.100, 443, 100, 100, 26, 23990, -22588, 5362, 5472, 12, 14, 1525891938.771, 111, 0, 1024, 1024, 1024, 1024, 0, 6, 3960, 3997, 4003, 4022, 3987, 4030, 0, 1, 8903, -89.900, 0.000, 127.500, 0.000, 0.000, -3.000, 0.0, , , , , , 97, , , 17, 17, 17
38.0977126, -120.1812684, 11.700, 11:52:18.868, 15, 0.00, 0.22, 98, -0.600, 1.200, 127.200, 443, 100, 100, 26, 23990, -22588, 5362, 5472, 12, 14, 1525891938.870, 59, 0, 1024, 1024, 1024, 1024, 0, 6, 3960, 3997, 4003, 4022, 3987, 4030, 0, 1, 9002, -89.900, 0.000, 127.500, 0.000, 0.000, -3.000, 0.0, , , , , , 97, , , 17, 17, 17
38.0977126, -120.1812684, 12.000, 11:52:18.968, 15, 0.00, 0.22, 98, -0.500, 1.200, 127.300, 443, 100, 100, 26, 24247, -18162, 5362, 5472, 12, 14, 1525891938.969, 56, 0, 1024, 1024, 1024, 1024, 0, 6, 3960, 3997, 4003, 4022, 3987, 4030, 0, 1, 9101, -89.900, 0.000, 127.500, 0.000, 0.000, -2.900, 0.0, , , , , , 97, , , 17, 17, 17
38.0977126, -120.1812684, 12.000, 11:52:19.068, 15, 0.00, 0.22, 98, -0.500, 1.200, 127.300, 443, 100, 100, 26, 24247, -18162, 5362, 5472, 12, 14, 1525891939.070, 157, 0, 1024, 1024, 1024, 1024, 0, 6, 4020, 4042, 4049, 4056, 4026, 4056, 0, 1, 9202, -89.900, 0.000, 127.500, 0.000, 0.000, -2.900, 0.0, , , , , , 97, , , 17, 17, 17
38.0977126, -120.1812684, 12.000, 11:52:19.168, 15, 0.00, 0.22, 98, -0.500, 1.200, 127.300, 443, 100, 100, 26, 24247, -18162, 5362, 5472, 12, 14, 1525891939.169, 256, 0, 1024, 1024, 1024, 1024, 0, 6, 4020, 4042, 4049, 4056, 4026, 4056, 0, 1, 9301, -89.900, 0.000, 127.500, 0.000, 0.000, -2.900, 0.0, , , , , , 97, , , 17, 17, 17
38.0977125, -120.1812683, 12.300, 11:52:19.268, 16, 0.00, 0.23, 98, -0.600, 1.100, 127.400, 443, 100, 100, 26, 24247, -18162, 5362, 5472, 12, 14, 1525891939.269, 75, 0, 1024, 1024, 1024, 1024, 0, 6, 4020, 4042, 4049, 4056, 4026, 4056, 0, 1, 9401, -89.900, 0.000, 127.500, 0.000, 0.000, -2.900, 0.0, , , , , , 97, , , 17, 17, 17
38.0977125, -120.1812682, 12.600, 11:52:19.368, 16, 0.00, 0.24, 98, -0.500, 1.100, 127.500, 443, 100, 100, 26, 24247, -18162, 5362, 5472, 12, 14, 1525891939.370, 75, 0, 1024, 1024, 1024, 1024, 0, 6, 4020, 4042, 4049, 4056, 4026, 4056, 0, 1, 9502, -89.900, 0.000, 127.500, 0.000, 0.000, -3.000, 0.0, , , , , , 97, , , 17, 17, 17
38.0977124, -120.1812681, 12.900, 11:52:19.469, 17, 0.00, 0.25, 98, -0.400, 1.200, 127.600, 443, 100, 100, 26, 24247, -18162, 5362, 5472, 12, 14, 1525891939.470, 88, 0, 1024, 1024, 1024, 1024, 0, 6, 4020, 4042, 4049, 4056, 4026, 4056, 0, 1, 9603, -89.900, 0.000, 127.500, 0.000, 0.000, -2.900, 0.0, , , , , , 97, , , 17, 17, 17
38.0977125, -120.1812679, 13.800, 11:52:19.568, 17, 0.00, 0.26, 98, 0.000, 1.300, 127.300, 443, 100, 100, 26, 24262, -17959, 5362, 5472, 12, 14, 1525891939.570, 37, 0, 1024, 1024, 1024, 1024, 0, 6, 4020, 4042, 4049, 4056, 4026, 4056, 0, 1, 9702, -89.900, 0.000, 127.500, 0.000, 0.000, -2.800, 0.0, , , , , , 97, , , 17, 17, 17
38.0977125, -120.1812679, 13.800, 11:52:19.670, 17, 0.00, 0.26, 98, 0.000, 1.300, 127.300, 443, 100, 100, 26, 24262, -17959, 5362, 5472, 12, 14, 1525891939.670, 137, 0, 1024, 1024, 1024, 1024, 0, 6, 4020, 4042, 4049, 4056, 4026, 4056, 0, 1, 9802, -89.900, 0.000, 127.500, 0.000, 0.000, -2.800, 0.0, , , , , , 97, , , 17, 17, 17
38.0977125, -120.1812679, 14.100, 11:52:19.768, 17, 0.00, 0.26, 98, 0.000, 1.100, 127.200, 443, 100, 100, 26, 24262, -17959, 5362, 5472, 12, 14, 1525891939.770, 94, 0, 1024, 1024, 1024, 1024, 0, 6, 4020, 4042, 4049, 4056, 4026, 4056, 0, 1, 9902, -89.900, 0.000, 127.500, 0.000, 0.000, -2.900, 0.0, , , , , , 97, , , 17, 17, 17
38.0977125, -120.1812679, 14.400, 11:52:19.868, 17, 0.00, 0.26, 98, 0.000, 0.800, 127.100, 443, 100, 100, 26, 24262, -17959, 5362, 5472, 12, 14, 1525891939.871, 63, 0, 1024, 1024, 1024, 1024, 0, 6, 4020, 4042, 4049, 4056, 4026, 4056, 0, 1, 10004, -89.900, 0.000, 127.500, 0.000, 0.000, -3.000, 0.0, , , , , , 97, , , 17, 17, 17
38.0977125, -120.1812679, 14.400, 11:52:19.968, 17, 0.00, 0.26, 98, 0.000, 0.800, 127.100, 443, 100, 100, 26, 24262, -17959, 5362, 5472, 12, 14, 1525891939.972, 164, 0, 1024, 1024, 1024, 1024, 0, 6, 4020, 4042, 4049, 4056, 4026, 4056, 0, 1, 10104, -89.900, 0.000, 127.500, 0.000, 0.000, -3.000, 0.0, , , , , , 97, , , 17, 17, 17
38.0977125, -120.1812678, 15.000, 11:52:20.068, 17, 0.00, 0.26, 98, -0.100, 0.500, 127.000, 443, 100, 100, 26, 24262, -17959, 5362, 5472, 12, 14, 1525891940.071, 77, 0, 1024, 1024, 1024, 1024, 0, 6, 4020, 4042, 4049, 4056, 4026, 4056, 0, 1, 10203, -89.900, 0.000, 127.500, 0.000, 0.000, -2.900, 0.0, , , , , , 97, , , 17, 17, 17
38.0977125, -120.1812678, 15.300, 11:52:20.173, 17, 0.00, 0.26, 98, -0.100, 0.600, 127.000, 443, 100, 100, 26, 24262, -17959, 5362, 5472, 12, 14, 1525891940.174, 7, 0, 1024, 1024, 1024, 1024, 0, 6, 4020, 4042, 4049, 4056, 4026, 4056, 0, 1, 10306, -89.900, 0.000, 127.500, 0.000, 0.000, -2.900, 0.0, , , , , , 97, , , 17, 17, 17
38.0977125, -120.1812678, 15.300, 11:52:20.269, 17, 0.00, 0.26, 98, -0.100, 0.600, 127.000, 443, 100, 100, 26, 24262, -17959, 5362, 5472, 12, 14, 1525891940.272, 104, 0, 1024, 1024, 1024, 1024, 0, 6, 4024, 4048, 4049, 4064, 4021, 4052, 0, 1, 10404, -89.900, 0.000, 127.500, 0.000, 0.000, -2.900, 0.0, , , , , , 97, , , 17, 17, 17
38.0977126, -120.1812677, 15.900, 11:52:20.368, 16, 0.00, 0.26, 98, -0.200, 0.900, 127.100, 443, 100, 100, 26, 24262, -17959, 5362, 5472, 12, 14, 1525891940.371, 22, 0, 1024, 1024, 1024, 1024, 0, 6, 4024, 4048, 4049, 4064, 4021, 4052, 0, 1, 10503, -89.900, 0.000, 127.500, 0.000, 0.000, -2.900, 0.0, , , , , , 97, , , 17, 17, 17
38.0977127, -120.1812677, 16.200, 11:52:20.469, 16, 0.00, 0.26, 98, -0.100, 1.000, 127.100, 443, 100, 100, 26, 24262, -17959, 5362, 5472, 12, 14, 1525891940.474, 20, 0, 1024, 1024, 1024, 1024, 0, 6, 4024, 4048, 4049, 4064, 4021, 4052, 0, 1, 10606, -89.900, 0.000, 127.500, 0.000, 0.000, -2.900, 0.0, , , , , , 97, , , 17, 17, 17
38.0977127, -120.1812677, 16.200, 11:52:20.568, 16, 0.00, 0.26, 98, -0.100, 1.000, 127.100, 443, 100, 100, 26, 24262, -17959, 5362, 5472, 12, 14, 1525891940.569, 115, 0, 1024, 1024, 1024, 1024, 0, 6, 4024, 4048, 4049, 4064, 4021, 4052, 0, 1, 10701, -89.900, 0.000, 127.500, 0.000, 0.000, -2.900, 0.0, , , , , , 97, , , 17, 17, 17
38.0977127, -120.1812676, 16.500, 11:52:20.668, 18, 0.00, 0.26, 98, 0.000, 0.900, 127.100, 443, 100, 100, 26, 24262, -17959, 5362, 5472, 12, 14, 1525891940.670, 80, 0, 1024, 1024, 1024, 1024, 0, 6, 4024, 4048, 4049, 4064, 4021, 4052, 0, 1, 10802, -89.900, 0.000, 127.500, 0.000, 0.000, -2.900, 0.0, , , , , , 97, , , 17, 17, 17
38.0977128, -120.1812675, 17.100, 11:52:20.769, 17, 0.00, 0.26, 98, 0.200, 0.700, 127.300, 443, 100, 100, 26, 24262, -17959, 5362, 5472, 12, 14, 1525891940.770, 26, 0, 1024, 1024, 1024, 1024, 0, 6, 4024, 4048, 4049, 4064, 4021, 4052, 0, 1, 10902, -89.900, 0.000, 127.500, 0.000, 0.000, -2.900, 0.0, , , , , , 97, , , 17, 17, 17
38.0977129, -120.1812675, 17.400, 11:52:20.869, 17, 0.00, 0.25, 98, 0.400, 0.700, 127.300, 443, 100, 100, 26, 24262, -17959, 5362, 5472, 12, 14, 1525891940.873, 9, 0, 1024, 1024, 1024, 1024, 0, 6, 4024, 4048, 4049, 4064, 4021, 4052, 0, 1, 11005, -89.900, 0.000, 127.500, 0.000, 0.000, -2.900, 0.0, , , , , , 97, , , 17, 17, 17
38.0977129, -120.1812675, 17.400, 11:52:20.968, 17, 0.00, 0.25, 98, 0.400, 0.700, 127.300, 443, 100, 100, 26, 24262, -17959, 5362, 5472, 12, 14, 1525891940.969, 106, 0, 1024, 1024, 1024, 1024, 0, 6, 4024, 4048, 4049, 4064, 4021, 4052, 0, 1, 11101, -89.900, 0.000, 127.500, 0.000, 0.000, -2.900, 0.0, , , , , , 97, , , 17, 17, 17
38.0977129, -120.1812675, 17.400, 11:52:21.068, 17, 0.00, 0.25, 98, 0.400, 0.700, 127.300, 443, 100, 100, 26, 24262, -17959, 5362, 5472, 12, 14, 1525891941.070, 206, 0, 1024, 1024, 1024, 1024, 0, 6, 4024, 4048, 4049, 4064, 4021, 4052, 0, 1, 11202, -89.900, 0.000, 127.500, 0.000, 0.000, -2.900, 0.0, , , , , , 97, , , 17, 17, 17
38.0977131, -120.1812676, 18.300, 11:52:21.183, 18, 0.00, 0.24, 98, 0.100, 0.200, 127.300, 443, 100, 100, 26, 24235, -17646, 5362, 5472, 12, 14, 1525891941.184, 22, 0, 1024, 1024, 1024, 1024, 0, 6, 4024, 4048, 4049, 4064, 4021, 4052, 0, 1, 11316, -89.900, 0.000, 127.500, 0.000, 0.000, -2.900, 0.0, , , , , , 97, , , 17, 17, 17
38.0977132, -120.1812676, 18.600, 11:52:21.268, 18, 0.00, 0.23, 98, -0.100, 0.200, 127.300, 443, 100, 99, 26, 24235, -17646, 5362, 5472, 12, 14, 1525891941.268, 10, 0, 1024, 1024, 1024, 1024, 0, 6, 4010, 4038, 4038, 4058, 4015, 4053, 0, 1, 11401, -89.900, 0.000, 127.500, 0.000, 0.000, -2.900, 0.0, , , , , , 97, , , 17, 17, 17
38.0977132, -120.1812676, 19.200, 11:52:21.380, 18, 0.00, 0.22, 98, 0.000, 0.200, 127.400, 443, 100, 99, 26, 24235, -17646, 5362, 5472, 12, 14, 1525891941.380, 17, 0, 1024, 1024, 1024, 1024, 0, 6, 4010, 4038, 4038, 4058, 4015, 4053, 0, 1, 11512, -89.900, 0.000, 127.500, 0.000, 0.000, -2.900, 0.0, , , , , , 97, , , 17, 17, 17
38.0977132, -120.1812676, 19.200, 11:52:21.469, 18, 0.00, 0.22, 98, 0.000, 0.200, 127.400, 443, 100, 99, 26, 24235, -17646, 5362, 5472, 12, 14, 1525891941.469, 106, 0, 1024, 1024, 1024, 1024, 0, 6, 4010, 4038, 4038, 4058, 4015, 4053, 0, 1, 11602, -89.900, 0.000, 127.500, 0.000, 0.000, -2.900, 0.0, , , , , , 97, , , 17, 17, 17
38.0977133, -120.1812677, 19.500, 11:52:21.569, 18, 0.00, 0.22, 98, 0.200, 0.300, 127.300, 443, 100, 99, 26, 24235, -17646, 5362, 5472, 12, 14, 1525891941.571, 53, 0, 1024, 1024, 1024, 1024, 0, 6, 4010, 4038, 4038, 4058, 4015, 4053, 0, 1, 11703, -89.900, 0.000, 127.500, 0.000, 0.000, -2.900, 0.0, , , , , , 97, , , 17, 17, 17
38.0977134, -120.1812677, 20.100, 11:52:21.674, 18, 0.00, 0.21, 98, 0.500, 0.500, 127.100, 443, 100, 99, 26, 24235, -17646, 5362, 5472, 12, 14, 1525891941.676, 10, 0, 1024, 1024, 1024, 1024, 0, 6, 4010, 4038, 4038, 4058, 4015, 4053, 0, 1, 11808, -89.900, 0.000, 127.500, 0.000, 0.000, -2.900, 0.0, , , , , , 97, , , 17, 17, 17
38.0977134, -120.1812677, 20.100, 11:52:21.769, 18, 0.00, 0.21, 98, 0.500, 0.500, 127.100, 443, 100, 99, 26, 24235, -17646, 5362, 5472, 12, 14, 1525891941.772, 107, 0, 1024, 1024, 1024, 1024, 0, 6, 4010, 4038, 4038, 4058, 4015, 4053, 0, 1, 11904, -89.900, 0.000, 127.500, 0.000, 0.000, -2.900, 0.0, , , , , , 97, , , 17, 17, 17
38.0977135, -120.1812676, 20.400, 11:52:21.869, 18, 0.00, 0.21, 98, 0.900, 0.500, 127.000, 443, 100, 99, 26, 24235, -17646, 5362, 5472, 12, 14, 1525891941.870, 53, 0, 1024, 1024, 1024, 1024, 0, 6, 4010, 4038, 4038, 4058, 4015, 4053, 0, 1, 12002, -89.900, 0.000, 127.500, 0.000, 0.000, -2.900, 0.0, , , , , , 97, , , 17, 17, 17
38.0977136, -120.1812677, 21.000, 11:52:21.968, 18, 0.00, 0.20, 98, 0.800, 0.500, 126.900, 443, 100, 99, 26, 24235, -17646, 5362, 5472, 12, 14, 1525891941.968, 56, 0, 1024, 1024, 1024, 1024, 0, 6, 4010, 4038, 4038, 4058, 4015, 4053, 0, 1, 12100, -89.900, 0.000, 127.500, 0.000, 0.000, -2.900, 0.0, , , , , , 97, , , 17, 17, 17
38.0977137, -120.1812677, 21.300, 11:52:22.080, 18, 0.00, 0.20, 98, 0.400, 0.400, 126.900, 443, 100, 99, 26, 24206, -17522, 5362, 5472, 12, 14, 1525891942.081, 21, 0, 1024, 1024, 1024, 1024, 0, 6, 4010, 4038, 4038, 4058, 4015, 4053, 0, 1, 12213, -89.900, 0.000, 127.500, 0.000, 0.000, -2.900, 0.0, , , , , , 97, , , 17, 17, 17
38.0977137, -120.1812677, 21.300, 11:52:22.168, 18, 0.00, 0.20, 98, 0.400, 0.400, 126.900, 443, 100, 99, 26, 24206, -17522, 5362, 5472, 12, 14, 1525891942.168, 109, 0, 1024, 1024, 1024, 1024, 0, 6, 4008, 4027, 4048, 4051, 4026, 4051, 0, 1, 12300, -89.900, 0.000, 127.500, 0.000, 0.000, -2.900, 0.0, , , , , , 97, , , 17, 17, 17
38.0977137, -120.1812677, 21.600, 11:52:22.268, 18, 0.00, 0.20, 98, 0.200, 0.300, 126.900, 443, 100, 100, 26, 24206, -17522, 5362, 5472, 12, 14, 1525891942.269, 64, 0, 1024, 1024, 1024, 1024, 0, 6, 4008, 4027, 4048, 4051, 4026, 4051, 0, 1, 12401, -89.900, 0.000, 127.500, 0.000, 0.000, -2.900, 0.0, , , , , , 97, , , 17, 17, 17
38.0977137, -120.1812677, 21.900, 11:52:22.368, 18, 0.00, 0.20, 98, 0.100, 0.500, 126.900, 443, 100, 100, 26, 24206, -17522, 5362, 5472, 12, 14, 1525891942.369, 54, 0, 1024, 1024, 1024, 1024, 0, 6, 4008, 4027, 4048, 4051, 4026, 4051, 0, 1, 12501, -89.900, 0.000, 127.500, 0.000, 0.000, -3.000, 0.0, , , , , , 97, , , 17, 17, 17
38.0977137, -120.1812677, 21.900, 11:52:22.468, 18, 0.00, 0.20, 98, 0.100, 0.500, 126.900, 443, 100, 100, 26, 24206, -17522, 5362, 5472, 12, 14, 1525891942.471, 156, 0, 1024, 1024, 1024, 1024, 0, 6, 4008, 4027, 4048, 4051, 4026, 4051, 0, 1, 12603, -89.900, 0.000, 127.500, 0.000, 0.000, -3.000, 0.0, , , , , , 97, , , 17, 17, 17
38.0977137, -120.1812678, 22.200, 11:52:22.568, 18, 0.00, 0.19, 98, 0.000, 0.600, 126.900, 443, 100, 100, 26, 24206, -17522, 5362, 5472, 12, 14, 1525891942.570, 60, 0, 1024, 1024, 1024, 1024, 0, 6, 4008, 4027, 4048, 4051, 4026, 4051, 0, 1, 12702, -89.900, 0.000, 127.500, 0.000, 0.000, -3.000, 0.0, , , , , , 97, , , 17, 17, 17
38.0977137, -120.1812678, 22.500, 11:52:22.668, 18, 0.00, 0.19, 98, -0.200, 0.500, 127.000, 443, 100, 100, 26, 24206, -17522, 5362, 5472, 12, 14, 1525891942.669, 84, 0, 1024, 1024, 1024, 1024, 0, 6, 4008, 4027, 4048, 4051, 4026, 4051, 0, 1, 12801, -89.900, 0.000, 127.500, 0.000, 0.000, -3.000, 0.0, , , , , , 97, , , 17, 17, 17
38.0977137, -120.1812679, 23.100, 11:52:22.768, 18, 0.00, 0.18, 98, -0.500, 0.500, 127.100, 443, 100, 100, 26, 24206, -17522, 5362, 5472, 12, 14, 1525891942.771, 27, 0, 1024, 1024, 1024, 1024, 0, 6, 4008, 4027, 4048, 4051, 4026, 4051, 0, 1, 12903, -89.900, 0.000, 127.500, 0.000, 0.000, -2.900, 0.0, , , , , , 97, , , 17, 17, 17
38.0977137, -120.1812679, 23.100, 11:52:22.868, 18, 0.00, 0.18, 98, -0.500, 0.500, 127.100, 443, 100, 100, 26, 24206, -17522, 5362, 5472, 12, 14, 1525891942.871, 127, 0, 1024, 1024, 1024, 1024, 0, 6, 4008, 4027, 4048, 4051, 4026, 4051, 0, 1, 13003, -89.900, 0.000, 127.500, 0.000, 0.000, -2.900, 0.0, , , , , , 97, , , 17, 17, 17
38.0977137, -120.1812679, 23.100, 11:52:22.968, 18, 0.00, 0.18, 98, -0.500, 0.500, 127.100, 443, 100, 100, 26, 24206, -17522, 5362, 5472, 12, 14, 1525891942.970, 226, 0, 1024, 1024, 1024, 1024, 0, 6, 4008, 4027, 4048, 4051, 4026, 4051, 0, 1, 13102, -89.900, 0.000, 127.500, 0.000, 0.000, -2.900, 0.0, , , , , , 97, , , 17, 17, 17
38.0977138, -120.1812681, 24.000, 11:52:23.068, 18, 0.00, 0.17, 98, 0.000, 0.700, 127.500, 443, 100, 100, 26, 24177, -17618, 5362, 5472, 12, 14, 1525891943.071, 71, 0, 1024, 1024, 1024, 1024, 0, 6, 4008, 4027, 4048, 4051, 4026, 4051, 0, 1, 13203, -89.900, 0.000, 127.500, 0.000, 0.000, -2.900, 0.0, , , , , , 97, , , 17, 17, 17
38.0977138, -120.1812681, 24.000, 11:52:23.168, 18, 0.00, 0.17, 98, 0.000, 0.700, 127.500, 443, 100, 100, 26, 24177, -17618, 5362, 5472, 12, 14, 1525891943.168, 168, 0, 1024, 1024, 1024, 1024, 0, 6, 4008, 4027, 4048, 4051, 4026, 4051, 0, 1, 13300, -89.900, 0.000, 127.500, 0.000, 0.000, -2.900, 0.0, , , , , , 97, , , 17, 17, 17
38.0977137, -120.1812682, 24.600, 11:52:23.268, 18, 0.00, 0.16, 98, -0.200, 0.500, 127.600, 443, 100, 100, 26, 24177, -17618, 5362, 5472, 12, 14, 1525891943.269, 37, 0, 1024, 1024, 1024, 1024, 0, 6, 4008, 4027, 4048, 4051, 4026, 4051, 0, 1, 13401, -89.900, 0.000, 127.500, 0.000, 0.000, -2.900, 0.0, , , , , , 97, , , 17, 17, 17
38.0977138, -120.1812683, 24.900, 11:52:23.373, 18, 0.00, 0.15, 98, -0.500, 0.200, 127.700, 443, 100, 100, 26, 24177, -17618, 5362, 5472, 12, 14, 1525891943.374, 8, 0, 1024, 1024, 1024, 1024, 0, 6, 3999, 4028, 4042, 4052, 4017, 4041, 0, 1, 13506, -89.900, 0.000, 127.500, 0.000, 0.000, -2.900, 0.0, , , , , , 97, , , 17, 17, 17
38.0977138, -120.1812683, 24.900, 11:52:23.469, 18, 0.00, 0.15, 98, -0.500, 0.200, 127.700, 443, 100, 100, 26, 24177, -17618, 5362, 5472, 12, 14, 1525891943.470, 104, 0, 1024, 1024, 1024, 1024, 0, 6, 3999, 4028, 4042, 4052, 4017, 4041, 0, 1, 13602, -90.000, 0.000, 127.500, 0.000, 0.000, -2.900, 0.0, , , , , , 97, , , 17, 17, 17
38.0977138, -120.1812683, 24.900, 11:52:23.568, 18, 0.00, 0.15, 98, -0.500, 0.200, 127.700, 443, 100, 100, 26, 24177, -17618, 5362, 5472, 12, 14, 1525891943.569, 203, 0, 1024, 1024, 1024, 1024, 0, 6, 3999, 4028, 4042, 4052, 4017, 4041, 0, 1, 13701, -90.000, 0.000, 127.500, 0.000, 0.000, -2.900, 0.0, , , , , , 97, , , 17, 17, 17
38.0977138, -120.1812686, 25.800, 11:52:23.668, 19, 0.00, 0.12, 98, -0.400, 0.000, 127.400, 443, 100, 97, 26, 24177, -17618, 5362, 5472, 12, 14, 1525891943.670, 44, 0, 1024, 1024, 1024, 1024, 0, 6, 3999, 4028, 4042, 4052, 4017, 4041, 0, 1, 13802, -89.900, 0.000, 127.500, 0.000, 0.000, -2.900, 0.0, , , , , , 97, , , 17, 17, 17
38.0977138, -120.1812686, 25.800, 11:52:23.768, 19, 0.00, 0.12, 98, -0.400, 0.000, 127.400, 443, 100, 97, 26, 24177, -17618, 5362, 5472, 12, 14, 1525891943.769, 144, 0, 1024, 1024, 1024, 1024, 0, 6, 3999, 4028, 4042, 4052, 4017, 4041, 0, 1, 13901, -89.900, 0.000, 127.500, 0.000, 0.000, -2.900, 0.0, , , , , , 97, , , 17, 17, 17
38.0977138, -120.1812687, 26.100, 11:52:23.868, 19, 0.00, 0.11, 98, -0.400, 0.000, 127.100, 443, 100, 97, 26, 24177, -17618, 5362, 5472, 12, 14, 1525891943.869, 78, 0, 1024, 1024, 1024, 1024, 0, 6, 3999, 4028, 4042, 4052, 4017, 4041, 0, 1, 14001, -89.900, 0.000, 127.500, 0.000, 0.000, -3.000, 0.0, , , , , , 97, , , 17, 17, 17
38.0977138, -120.1812689, 26.700, 11:52:23.969, 19, 0.00, 0.10, 98, -0.500, 0.200, 126.700, 443, 100, 97, 26, 24177, -17618, 5362, 5472, 12, 14, 1525891943.973, 11, 0, 1024, 1024, 1024, 1024, 0, 6, 3999, 4028, 4042, 4052, 4017, 4041, 0, 1, 14105, -89.900, 0.000, 127.500, 0.000, 0.000, -3.000, 0.0, , , , , , 97, , , 17, 17, 17
38.0977138, -120.1812690, 27.000, 11:52:24.069, 19, 0.00, 0.09, 98, -0.800, 0.000, 126.600, 443, 100, 97, 26, 24172, -17315, 5362, 5472, 12, 14, 1525891944.070, 67, 0, 1024, 1024, 1024, 1024, 0, 6, 4004, 4028, 4037, 4049, 4008, 4038, 0, 1, 14202, -90.000, 0.000, 127.500, 0.000, 0.000, -2.900, 0.0, , , , , , 97, , , 17, 17, 17
38.0977138, -120.1812691, 27.300, 11:52:24.172, 19, 0.00, 0.08, 98, -1.100, -0.200, 126.600, 443, 100, 97, 26, 24172, -17315, 5362, 5472, 12, 14, 1525891944.173, 17, 0, 1024, 1024, 1024, 1024, 0, 6, 4004, 4028, 4037, 4049, 4008, 4038, 0, 1, 14305, -90.000, 0.000, 127.500, 0.000, 0.000, -3.000, 0.0, , , , , , 97, , , 17, 17, 17
38.0977138, -120.1812694, 27.900, 11:52:24.268, 19, 0.00, 0.06, 98, -1.300, -1.100, 127.100, 443, 100, 98, 26, 24172, -17315, 5362, 5472, 12, 14, 1525891944.269, 10, 0, 1024, 1024, 1024, 1024, 0, 6, 4004, 4028, 4037, 4049, 4008, 4038, 0, 1, 14401, -90.000, 0.000, 127.500, 0.000, 0.000, -2.900, 0.0, , , , , , 97, , , 17, 17, 17
38.0977139, -120.1812696, 28.300, 11:52:24.368, 19, 0.00, 0.04, 98, -0.900, -1.500, 127.400, 443, 100, 98, 26, 24172, -17315, 5362, 5472, 12, 14, 1525891944.369, 26, 0, 1024, 1024, 1024, 1024, 0, 6, 4004, 4028, 4037, 4049, 4008, 4038, 0, 1, 14501, -90.000, 0.000, 127.500, 0.000, 0.000, -2.900, 0.0, , , , , , 97, , , 17, 17, 17
38.0977139, -120.1812698, 28.600, 11:52:24.468, 19, 0.00, 0.03, 98, -0.800, -1.800, 127.600, 443, 100, 98, 26, 24172, -17315, 5362, 5472, 12, 14, 1525891944.469, 38, 0, 1024, 1024, 1024, 1024, 0, 6, 4004, 4028, 4037, 4049, 4008, 4038, 0, 1, 14601, -90.000, 0.000, 127.500, 0.000, 0.000, -2.900, 0.0, , , , , , 97, , , 17, 17, 17
38.0977139, -120.1812698, 28.600, 11:52:24.568, 19, 0.00, 0.03, 98, -0.800, -1.800, 127.600, 443, 100, 98, 26, 24172, -17315, 5362, 5472, 12, 14, 1525891944.569, 139, 0, 1024, 1024, 1024, 1024, 0, 6, 4004, 4028, 4037, 4049, 4008, 4038, 0, 1, 14701, -90.000, 0.000, 127.500, 0.000, 0.000, -2.900, 0.0, , , , , , 97, , , 17, 17, 17
38.0977140, -120.1812699, 28.900, 11:52:24.669, 19, 0.00, 0.02, 98, -0.700, -1.900, 127.800, 443, 100, 98, 26, 24172, -17315, 5362, 5472, 12, 14, 1525891944.671, 83, 0, 1024, 1024, 1024, 1024, 0, 6, 4004, 4028, 4037, 4049, 4008, 4038, 0, 1, 14803, -90.000, 0.000, 127.500, 0.000, 0.000, -2.800, 0.0, , , , , , 97, , , 17, 17, 17
38.0977140, -120.1812700, 29.200, 11:52:24.768, 19, 0.00, 0.02, 98, -0.800, -1.800, 128.000, 443, 100, 100, 26, 24172, -17315, 5362, 5472, 12, 14, 1525891944.769, 42, 0, 1024, 1024, 1024, 1024, 0, 6, 4004, 4028, 4037, 4049, 4008, 4038, 0, 1, 14901, -90.000, 0.000, 127.500, 0.000, 0.000, -2.900, 0.0, , , , , , 97, , , 17, 17, 17
38.0977140, -120.1812700, 29.200, 11:52:24.868, 19, 0.00, 0.02, 98, -0.800, -1.800, 128.000, 443, 100, 100, 26, 24172, -17315, 5362, 5472, 12, 14, 1525891944.869, 142, 0, 1024, 1024, 1024, 1024, 0, 6, 4004, 4028, 4037, 4049, 4008, 4038, 0, 1, 15001, -90.000, 0.000, 127.500, 0.000, 0.000, -2.900, 0.0, , , , , , 97, , , 17, 17, 17
38.0977140, -120.1812702, 29.700, 11:52:24.968, 19, 0.00, 0.03, 98, -1.000, -1.500, 127.900, 443, 100, 100, 26, 24172, -17315, 5362, 5472, 12, 14, 1525891944.970, 83, 0, 1024, 1024, 1024, 1024, 0, 6, 4004, 4028, 4037, 4049, 4008, 4038, 0, 1, 15102, -89.900, 0.000, 127.500, 0.000, 0.000, -2.800, 0.0, , , , , , 97, , , 17, 17, 17
38.0977140, -120.1812702, 29.700, 11:52:25.068, 19, 0.00, 0.03, 98, -1.000, -1.500, 127.900, 443, 100, 100, 26, 24172, -17315, 5362, 5472, 12, 14, 1525891945.069, 182, 0, 1024, 1024, 1024, 1024, 0, 6, 4004, 4028, 4037, 4049, 4008, 4038, 0, 1, 15201, -89.900, 0.000, 127.500, 0.000, 0.000, -2.800, 0.0, , , , , , 97, , , 17, 17, 17
38.0977139, -120.1812704, 30.600, 11:52:25.183, 19, 0.00, 0.05, 98, -1.400, -1.100, 127.700, 443, 100, 100, 26, 24172, -17315, 5362, 5472, 12, 14, 1525891945.184, 17, 0, 1024, 1024, 1024, 1024, 0, 6, 4004, 4028, 4037, 4049, 4008, 4038, 0, 1, 15316, -89.900, 0.000, 127.500, 0.000, 0.000, -2.900, 0.0, , , , , , 97, , , 17, 17, 17
38.0977139, -120.1812704, 30.900, 11:52:25.268, 19, 0.00, 0.05, 98, -1.600, -1.100, 127.700, 443, 100, 100, 26, 24172, -17315, 5362, 5472, 12, 14, 1525891945.269, 10, 0, 1024, 1024, 1024, 1024, 0, 6, 4004, 4028, 4037, 4049, 4008, 4038, 0, 1, 15401, -89.900, 0.000, 127.500, 0.000, 0.000, -2.800, 0.0, , , , , , 97, , , 17, 17, 17
38.0977139, -120.1812704, 30.900, 11:52:25.368, 19, 0.00, 0.05, 98, -1.600, -1.100, 127.700, 443, 100, 100, 26, 24172, -17315, 5362, 5472, 12, 14, 1525891945.369, 110, 0, 1024, 1024, 1024, 1024, 0, 6, 4004, 4028, 4037, 4049, 4008, 4038, 0, 1, 15501, -89.900, 0.000, 127.500, 0.000, 0.000, -2.800, 0.0, , , , , , 97, , , 17, 17, 17
38.0977139, -120.1812705, 31.200, 11:52:25.469, 19, 0.00, 0.06, 98, -1.500, -0.900, 127.600, 443, 100, 100, 26, 24172, -17315, 5362, 5472, 12, 14, 1525891945.469, 50, 0, 1024, 1024, 1024, 1024, 0, 6, 4004, 4028, 4037, 4049, 4008, 4038, 0, 1, 15601, -89.900, 0.000, 127.500, 0.000, 0.000, -2.900, 0.0, , , , , , 97, , , 17, 17, 17
38.0977139, -120.1812705, 31.500, 11:52:25.568, 19, 0.00, 0.06, 97, -1.400, -1.000, 127.400, 443, 100, 100, 26, 24163, -17125, 5307, 5472, 12, 14, 1525891945.569, 44, 0, 1024, 1024, 1024, 1024, 0, 6, 4000, 4022, 4037, 4053, 4014, 4039, 0, 1, 15701, -89.900, 0.000, 127.500, 0.000, 0.000, -2.900, 0.0, , , , , , 97, , , 17, 17, 17
38.0977139, -120.1812705, 31.500, 11:52:25.668, 19, 0.00, 0.06, 97, -1.400, -1.000, 127.400, 443, 100, 99, 26, 24163, -17125, 5307, 5472, 12, 14, 1525891945.669, 144, 0, 1024, 1024, 1024, 1024, 0, 6, 4000, 4022, 4037, 4053, 4014, 4039, 0, 1, 15801, -89.900, 0.000, 127.500, 0.000, 0.000, -2.900, 0.0, , , , , , 97, , , 17, 17, 17
38.0977139, -120.1812704, 32.100, 11:52:25.768, 19, 0.00, 0.06, 97, -1.100, -1.100, 127.400, 443, 100, 99, 26, 24163, -17125, 5307, 5472, 12, 14, 1525891945.769, 76, 0, 1024, 1024, 1024, 1024, 0, 6, 4000, 4022, 4037, 4053, 4014, 4039, 0, 1, 15901, -89.900, 0.000, 127.500, 0.000, 0.000, -2.900, 0.0, , , , , , 97, , , 17, 17, 17
38.0977139, -120.1812704, 32.400, 11:52:25.868, 19, 0.00, 0.06, 97, -1.100, -1.000, 127.400, 443, 100, 99, 26, 24163, -17125, 5307, 5472, 12, 14, 1525891945.869, 37, 0, 1024, 1024, 1024, 1024, 0, 6, 4000, 4022, 4037, 4053, 4014, 4039, 0, 1, 16001, -89.900, 0.000, 127.500, 0.000, 0.000, -2.900, 0.0, , , , , , 97, , , 17, 17, 17
38.0977138, -120.1812703, 32.900, 11:52:25.968, 19, 0.00, 0.06, 97, -1.200, -0.400, 127.400, 443, 100, 99, 26, 24163, -17125, 5307, 5472, 12, 14, 1525891945.969, 22, 0, 1024, 1024, 1024, 1024, 0, 6, 4000, 4022, 4037, 4053, 4014, 4039, 0, 1, 16101, -89.900, 0.000, 127.500, 0.000, 0.000, -2.900, 0.0, , , , , , 97, , , 17, 17, 17
38.0977138, -120.1812703, 33.200, 11:52:26.069, 19, 0.00, 0.06, 97, -1.200, -0.300, 127.300, 443, 100, 99, 26, 24163, -17125, 5307, 5472, 12, 14, 1525891946.070, 45, 0, 1024, 1024, 1024, 1024, 0, 6, 4000, 4022, 4037, 4053, 4014, 4039, 0, 1, 16202, -89.900, 0.000, 127.500, 0.000, 0.000, -2.900, 0.0, , , , , , 97, , , 17, 17, 17
38.0977138, -120.1812703, 33.200, 11:52:26.168, 19, 0.00, 0.06, 97, -1.200, -0.300, 127.300, 443, 100, 99, 26, 24163, -17125, 5307, 5472, 12, 14, 1525891946.168, 144, 0, 1024, 1024, 1024, 1024, 0, 6, 4000, 4022, 4037, 4053, 4014, 4039, 0, 1, 16300, -89.900, 0.000, 127.500, 0.000, 0.000, -2.900, 0.0, , , , , , 97, , , 17, 17, 17
38.0977137, -120.1812702, 33.500, 11:52:26.268, 19, 0.00, 0.05, 97, -1.100, -0.200, 127.100, 443, 100, 99, 26, 24163, -17125, 5307, 5472, 12, 14, 1525891946.270, 50, 0, 1024, 1024, 1024, 1024, 0, 6, 4000, 4022, 4037, 4053, 4014, 4039, 0, 1, 16402, -89.900, 0.000, 127.500, 0.000, 0.000, -2.900, 0.0, , , , , , 97, , , 17, 17, 17
38.0977137, -120.1812701, 33.800, 11:52:26.368, 19, 0.00, 0.05, 97, -1.200, -0.100, 126.900, 443, 100, 99, 26, 24163, -17125, 5307, 5472, 12, 14, 1525891946.370, 11, 0, 1024, 1024, 1024, 1024, 0, 6, 4000, 4022, 4037, 4053, 4014, 4039, 0, 1, 16502, -89.900, 0.000, 127.500, 0.000, 0.000, -2.900, 0.0, , , , , , 97, , , 17, 17, 17
38.0977137, -120.1812701, 33.800, 11:52:26.469, 19, 0.00, 0.05, 97, -1.200, -0.100, 126.900, 443, 100, 99, 26, 24163, -17125, 5307, 5472, 12, 14, 1525891946.470, 110, 0, 1024, 1024, 1024, 1024, 0, 6, 4000, 4022, 4037, 4053, 4014, 4039, 0, 1, 16602, -89.900, 0.000, 127.500, 0.000, 0.000, -2.900, 0.0, , , , , , 97, , , 17, 17, 17
38.0977137, -120.1812700, 34.400, 11:52:26.578, 19, 0.00, 0.05, 97, -1.200, -0.300, 126.800, 443, 100, 99, 26, 24116, -17592, 5307, 5472, 12, 14, 1525891946.579, 16, 0, 1024, 1024, 1024, 1024, 0, 6, 4000, 4022, 4037, 4053, 4014, 4039, 0, 1, 16711, -89.900, 0.000, 127.500, 0.000, 0.000, -2.900, 0.0, , , , , , 97, , , 17, 17, 17
38.0977137, -120.1812699, 34.700, 11:52:26.687, 19, 0.00, 0.05, 97, -0.800, -0.300, 126.800, 443, 100, 99, 26, 24116, -17592, 5307, 5472, 12, 14, 1525891946.688, 13, 0, 1024, 1024, 1024, 1024, 0, 6, 4000, 4022, 4037, 4053, 4014, 4039, 0, 1, 16820, -89.900, 0.000, 127.500, 0.000, 0.000, -2.900, 0.0, , , , , , 97, , , 17, 17, 17
38.0977138, -120.1812699, 35.000, 11:52:26.768, 19, 0.00, 0.04, 97, -0.400, -0.400, 126.800, 443, 100, 99, 26, 24116, -17592, 5307, 5472, 12, 14, 1525891946.769, 45, 0, 1024, 1024, 1024, 1024, 0, 6, 4000, 4022, 4037, 4053, 4014, 4039, 0, 1, 16901, -89.900, 0.000, 127.500, 0.000, 0.000, -2.800, 0.0, , , , , , 97, , , 17, 17, 17
38.0977138, -120.1812699, 35.000, 11:52:26.869, 19, 0.00, 0.04, 97, -0.400, -0.400, 126.800, 443, 100, 99, 26, 24116, -17592, 5307, 5472, 12, 14, 1525891946.869, 145, 0, 1024, 1024, 1024, 1024, 0, 6, 4000, 4022, 4037, 4053, 4014, 4039, 0, 1, 17001, -89.900, 0.000, 127.500, 0.000, 0.000, -2.800, 0.0, , , , , , 97, , , 17, 17, 17
38.0977138, -120.1812698, 35.300, 11:52:26.969, 19, 0.00, 0.04, 97, -0.100, -0.300, 127.000, 443, 100, 99, 26, 24116, -17592, 5307, 5472, 12, 14, 1525891946.969, 60, 0, 1024, 1024, 1024, 1024, 0, 6, 4000, 4022, 4037, 4053, 4014, 4039, 0, 1, 17101, -89.900, 0.000, 127.500, 0.000, 0.000, -3.000, 0.0, , , , , , 97, , , 17, 17, 17
38.0977139, -120.1812696, 35.800, 11:52:27.069, 19, 0.00, 0.04, 97, 0.100, -0.500, 127.500, 443, 100, 99, 26, 24116, -17592, 5307, 5472, 12, 14, 1525891947.069, 68, 0, 1024, 1024, 1024, 1024, 0, 6, 4000, 4022, 4037, 4053, 4014, 4039, 0, 1, 17201, -89.900, 0.000, 127.500, 0.000, 0.000, -2.900, 0.0, , , , , , 97, , , 17, 17, 17
38.0977140, -120.1812695, 36.100, 11:52:27.168, 20, 0.00, 0.04, 97, 0.200, -0.500, 127.700, 443, 100, 99, 26, 24116, -17592, 5307, 5472, 12, 14, 1525891947.168, 41, 0, 1024, 1024, 1024, 1024, 0, 6, 4000, 4022, 4037, 4053, 4014, 4039, 0, 1, 17300, -89.900, 0.000, 127.500, 0.000, 0.000, -3.000, 0.0, , , , , , 97, , , 17, 17, 17
38.0977140, -120.1812694, 36.500, 11:52:27.268, 20, 0.00, 0.04, 97, 0.300, -0.400, 127.700, 443, 100, 100, 26, 24116, -17592, 5307, 5472, 12, 14, 1525891947.269, 36, 0, 1024, 1024, 1024, 1024, 0, 6, 4000, 4022, 4037, 4053, 4014, 4039, 0, 1, 17401, -89.900, 0.000, 127.500, 0.000, 0.000, -3.000, 0.0, , , , , , 97, , , 17, 17, 17
38.0977140, -120.1812694, 36.500, 11:52:27.368, 20, 0.00, 0.04, 97, 0.300, -0.400, 127.700, 443, 100, 100, 26, 24116, -17592, 5307, 5472, 12, 14, 1525891947.372, 139, 0, 1024, 1024, 1024, 1024, 0, 6, 4000, 4022, 4037, 4053, 4014, 4039, 0, 1, 17504, -89.900, 0.000, 127.500, 0.000, 0.000, -3.000, 0.0, , , , , , 97, , , 17, 17, 17
38.0977141, -120.1812693, 37.100, 11:52:27.471, 20, 0.00, 0.06, 97, 0.300, -0.500, 127.500, 443, 100, 100, 26, 24116, -17592, 5307, 5472, 12, 14, 1525891947.473, 15, 0, 1024, 1024, 1024, 1024, 0, 6, 4000, 4022, 4037, 4053, 4014, 4039, 0, 1, 17605, -89.900, 0.000, 127.500, 0.000, 0.000, -3.100, 0.0, , , , , , 97, , , 17, 17, 17
38.0977141, -120.1812693, 37.100, 11:52:27.568, 20, 0.00, 0.06, 97, 0.300, -0.500, 127.500, 443, 100, 100, 26, 24116, -17592, 5307, 5472, 12, 14, 1525891947.569, 111, 0, 1024, 1024, 1024, 1024, 0, 6, 4000, 4022, 4037, 4053, 4014, 4039, 0, 1, 17701, -89.900, 0.000, 127.500, 0.000, 0.000, -3.100, 0.0, , , , , , 97, , , 17, 17, 17
38.0977141, -120.1812693, 37.100, 11:52:27.668, 20, 0.00, 0.06, 97, 0.300, -0.500, 127.500, 443, 100, 100, 26, 24116, -17592, 5307, 5472, 12, 14, 1525891947.669, 211, 0, 1024, 1024, 1024, 1024, 0, 6, 4000, 4022, 4037, 4053, 4014, 4039, 0, 1, 17801, -89.900, 0.000, 127.500, 0.000, 0.000, -3.100, 0.0, , , , , , 97, , , 17, 17, 17
38.0977142, -120.1812691, 38.000, 11:52:27.768, 20, 0.00, 0.07, 97, 0.700, -0.500, 126.800, 443, 100, 100, 26, 24116, -17592, 5307, 5472, 12, 14, 1525891947.769, 56, 0, 1024, 1024, 1024, 1024, 0, 6, 4000, 4022, 4037, 4053, 4014, 4039, 0, 1, 17901, -89.900, 0.000, 127.500, 0.000, 0.000, -2.900, 0.0, , , , , , 97, , , 17, 17, 17
38.0977142, -120.1812691, 38.300, 11:52:27.869, 20, 0.00, 0.07, 97, 0.600, -0.500, 126.700, 443, 100, 100, 26, 24116, -17592, 5307, 5472, 12, 14, 1525891947.869, 33, 0, 1024, 1024, 1024, 1024, 0, 6, 4000, 4022, 4037, 4053, 4014, 4039, 0, 1, 18001, -89.900, 0.000, 127.500, 0.000, 0.000, -2.900, 0.0, , , , , , 97, , , 17, 17, 17
38.0977142, -120.1812690, 38.600, 11:52:27.968, 20, 0.00, 0.08, 97, 0.600, -0.800, 126.600, 443, 100, 100, 26, 24116, -17592, 5307, 5472, 12, 14, 1525891947.969, 67, 0, 1024, 1024, 1024, 1024, 0, 6, 4000, 4022, 4037, 4053, 4014, 4039, 0, 1, 18101, -89.900, 0.000, 127.500, 0.000, 0.000, -3.000, 0.0, , , , , , 97, , , 17, 17, 17
38.0977142, -120.1812690, 38.600, 11:52:28.068, 20, 0.00, 0.08, 97, 0.600, -0.800, 126.600, 443, 100, 100, 26, 24116, -17592, 5307, 5472, 12, 14, 1525891948.069, 167, 0, 1024, 1024, 1024, 1024, 0, 6, 4000, 4022, 4037, 4053, 4014, 4039, 0, 1, 18201, -89.900, 0.000, 127.500, 0.000, 0.000, -3.000, 0.0, , , , , , 97, , , 17, 17, 17
38.0977142, -120.1812690, 39.200, 11:52:28.177, 20, 0.00, 0.08, 97, 0.400, -0.700, 126.600, 443, 100, 100, 26, 24116, -17592, 5307, 5472, 12, 14, 1525891948.178, 11, 0, 1024, 1024, 1024, 1024, 0, 6, 4000, 4022, 4037, 4053, 4014, 4039, 0, 1, 18310, -89.900, 0.000, 127.500, 0.000, 0.000, -3.000, 0.0, , , , , , 97, , , 17, 17, 17
38.0977142, -120.1812690, 39.200, 11:52:28.269, 20, 0.00, 0.08, 97, 0.400, -0.700, 126.600, 443, 100, 100, 26, 24116, -17592, 5307, 5472, 12, 14, 1525891948.269, 103, 0, 1024, 1024, 1024, 1024, 0, 6, 4000, 4022, 4037, 4053, 4014, 4039, 0, 1, 18401, -89.900, 0.000, 127.500, 0.000, 0.000, -3.000, 0.0, , , , , , 97, , , 17, 17, 17
38.0977143, -120.1812690, 39.500, 11:52:28.369, 20, 0.00, 0.08, 97, 0.200, -0.400, 126.700, 443, 100, 100, 26, 24116, -17592, 5307, 5472, 12, 14, 1525891948.369, 45, 0, 1024, 1024, 1024, 1024, 0, 6, 4000, 4022, 4037, 4053, 4014, 4039, 0, 1, 18501, -89.900, 0.000, 127.500, 0.000, 0.000, -3.000, 0.0, , , , , , 97, , , 17, 17, 17
38.0977143, -120.1812689, 39.800, 11:52:28.468, 20, 0.00, 0.09, 97, 0.200, -0.500, 126.900, 443, 100, 100, 26, 24116, -17592, 5307, 5472, 12, 14, 1525891948.469, 10, 0, 1024, 1024, 1024, 1024, 0, 6, 4000, 4022, 4037, 4053, 4014, 4039, 0, 1, 18601, -89.900, 0.000, 127.500, 0.000, 0.000, -3.000, 0.0, , , , , , 97, , , 17, 17, 17
38.0977143, -120.1812689, 40.100, 11:52:28.568, 20, 0.00, 0.09, 97, 0.300, -0.600, 127.000, 443, 100, 100, 26, 24116, -17592, 5307, 5472, 12, 14, 1525891948.569, 76, 0, 1024, 1024, 1024, 1024, 0, 6, 4000, 4022, 4037, 4053, 4014, 4039, 0, 1, 18701, -89.900, 0.000, 127.500, 0.000, 0.000, -3.000, 0.0, , , , , , 97, , , 17, 17, 17
38.0977143, -120.1812689, 40.400, 11:52:28.669, 20, 0.00, 0.09, 97, 0.300, -0.900, 127.000, 443, 100, 100, 26, 24050, -17970, 5307, 5472, 12, 14, 1525891948.674, 84, 0, 1024, 1024, 1024, 1024, 0, 6, 3981, 4002, 4024, 4038, 3997, 4023, 0, 1, 18806, -90.000, 0.000, 127.500, 0.000, 0.000, -3.000, 0.0, , , , , , 97, , , 17, 17, 17
38.0977143, -120.1812689, 40.700, 11:52:28.768, 20, 0.00, 0.09, 97, 0.200, -1.000, 127.000, 443, 100, 100, 26, 24050, -17970, 5307, 5472, 12, 14, 1525891948.771, 56, 0, 1024, 1024, 1024, 1024, 0, 6, 3981, 4002, 4024, 4038, 3997, 4023, 0, 1, 18903, -89.900, 0.000, 127.500, 0.000, 0.000, -3.000, 0.0, , , , , , 97, , , 17, 17, 17
38.0977143, -120.1812689, 41.000, 11:52:28.869, 20, 0.00, 0.09, 97, 0.200, -1.000, 127.000, 443, 100, 100, 26, 24050, -17970, 5307, 5472, 12, 14, 1525891948.870, 46, 0, 1024, 1024, 1024, 1024, 0, 6, 3981, 4002, 4024, 4038, 3997, 4023, 0, 1, 19002, -89.900, 0.000, 127.500, 0.000, 0.000, -3.000, 0.0, , , , , , 97, , , 17, 17, 17
38.0977143, -120.1812689, 41.000, 11:52:28.968, 20, 0.00, 0.09, 97, 0.200, -1.000, 127.000, 443, 100, 100, 26, 24050, -17970, 5307, 5472, 12, 14, 1525891948.969, 145, 0, 1024, 1024, 1024, 1024, 0, 6, 3981, 4002, 4024, 4038, 3997, 4023, 0, 1, 19101, -89.900, 0.000, 127.500, 0.000, 0.000, -3.000, 0.0, , , , , , 97, , , 17, 17, 17
38.0977143, -120.1812689, 41.900, 11:52:29.068, 20, 0.00, 0.09, 97, 0.000, -0.500, 127.000, 443, 100, 100, 26, 24050, -17970, 5307, 5472, 12, 14, 1525891949.069, 65, 0, 1024, 1024, 1024, 1024, 0, 6, 3981, 4002, 4024, 4038, 3997, 4023, 0, 1, 19201, -89.900, 0.000, 127.500, 0.000, 0.000, -3.000, 0.0, , , , , , 97, , , 17, 17, 17
38.0977143, -120.1812688, 42.200, 11:52:29.199, 20, 0.00, 0.09, 97, -0.200, -0.100, 127.100, 443, 100, 100, 26, 24050, -17970, 5307, 5472, 12, 14, 1525891949.199, 7, 0, 1024, 1024, 1024, 1024, 0, 6, 3981, 4002, 4024, 4038, 3997, 4023, 0, 1, 19332, -89.900, 0.000, 127.500, 0.000, 0.000, -3.000, 0.0, , , , , , 97, , , 17, 17, 17
38.0977143, -120.1812688, 42.200, 11:52:29.268, 20, 0.00, 0.09, 97, -0.200, -0.100, 127.100, 443, 100, 100, 26, 24050, -17970, 5307, 5472, 12, 14, 1525891949.269, 77, 0, 1024, 1024, 1024, 1024, 0, 6, 3981, 4002, 4024, 4038, 3997, 4023, 0, 1, 19401, -89.900, 0.000, 127.500, 0.000, 0.000, -3.000, 0.0, , , , , , 97, , , 17, 17, 17
38.0977143, -120.1812688, 42.800, 11:52:29.368, 20, 0.00, 0.10, 97, 0.400, 0.000, 127.600, 443, 100, 100, 26, 24050, -17970, 5307, 5472, 12, 14, 1525891949.369, 60, 0, 1024, 1024, 1024, 1024, 0, 6, 3981, 4002, 4024, 4038, 3997, 4023, 0, 1, 19501, -89.900, 0.000, 127.500, 0.000, 0.000, -2.900, 0.0, , , , , , 97, , , 17, 17, 17
38.0977143, -120.1812688, 42.800, 11:52:29.468, 20, 0.00, 0.10, 97, 0.400, 0.000, 127.600, 443, 100, 100, 26, 24050, -17970, 5307, 5472, 12, 14, 1525891949.469, 160, 0, 1024, 1024, 1024, 1024, 0, 6, 3981, 4002, 4024, 4038, 3997, 4023, 0, 1, 19601, -89.900, 0.000, 127.500, 0.000, 0.000, -2.900, 0.0, , , , , , 97, , , 17, 17, 17
38.0977143, -120.1812687, 43.700, 11:52:29.568, 20, 0.00, 0.11, 97, 0.100, -0.600, 127.400, 443, 100, 100, 27, 24048, -17819, 5307, 5472, 12, 14, 1525891949.569, 89, 0, 1024, 1024, 1024, 1024, 0, 6, 3986, 4003, 4019, 4032, 3993, 4014, 0, 1, 19701, -89.900, 0.000, 127.500, 0.000, 0.000, -3.000, 0.0, , , , , , 97, , , 17, 17, 17
38.0977143, -120.1812687, 44.000, 11:52:29.668, 20, 0.00, 0.11, 97, 0.000, -0.400, 127.200, 443, 100, 100, 27, 24048, -17819, 5307, 5472, 12, 14, 1525891949.669, 78, 0, 1024, 1024, 1024, 1024, 0, 6, 3986, 4003, 4019, 4032, 3993, 4014, 0, 1, 19801, -89.900, 0.000, 127.500, 0.000, 0.000, -3.000, 0.0, , , , , , 97, , , 17, 17, 17
38.0977143, -120.1812687, 44.300, 11:52:29.769, 20, 0.00, 0.11, 97, 0.300, -0.400, 127.200, 443, 100, 100, 27, 24048, -17819, 5307, 5472, 12, 14, 1525891949.769, 20, 0, 1024, 1024, 1024, 1024, 0, 6, 3986, 4003, 4019, 4032, 3993, 4014, 0, 1, 19901, -89.900, 0.000, 127.500, 0.000, 0.000, -3.000, 0.0, , , , , , 97, , , 17, 17, 17
38.0977143, -120.1812687, 44.300, 11:52:29.868, 20, 0.00, 0.11, 97, 0.300, -0.400, 127.200, 443, 100, 100, 27, 24048, -17819, 5307, 5472, 12, 14, 1525891949.869, 120, 0, 1024, 1024, 1024, 1024, 0, 6, 3986, 4003, 4019, 4032, 3993, 4014, 0, 1, 20001, -89.900, 0.000, 127.500, 0.000, 0.000, -3.000, 0.0, , , , , , 97, , , 17, 17, 17
38.0977143, -120.1812687, 44.600, 11:52:29.968, 20, 0.00, 0.11, 97, 0.600, -0.500, 127.300, 443, 100, 100, 27, 24048, -17819, 5307, 5472, 12, 14, 1525891949.970, 26, 0, 1024, 1024, 1024, 1024, 0, 6, 3986, 4003, 4019, 4032, 3993, 4014, 0, 1, 20102, -89.900, 0.000, 127.500, 0.000, 0.000, -3.000, 0.0, , , , , , 97, , , 17, 17, 17
38.0977144, -120.1812687, 45.300, 11:52:30.069, 20, 0.00, 0.11, 97, 0.800, -0.500, 127.600, 443, 100, 100, 27, 24048, -17819, 5307, 5472, 12, 14, 1525891950.069, 33, 0, 1024, 1024, 1024, 1024, 0, 6, 3986, 4003, 4019, 4032, 3993, 4014, 0, 1, 20201, -89.900, 0.000, 127.500, 0.000, 0.000, -2.900, 0.0, , , , , , 97, , , 17, 17, 17
38.0977144, -120.1812687, 45.300, 11:52:30.168, 20, 0.00, 0.11, 97, 0.800, -0.500, 127.600, 443, 100, 100, 27, 24048, -17819, 5307, 5472, 12, 14, 1525891950.168, 132, 0, 1024, 1024, 1024, 1024, 0, 6, 3986, 4003, 4019, 4032, 3993, 4014, 0, 1, 20300, -89.900, 0.000, 127.500, 0.000, 0.000, -2.900, 0.0, , , , , , 97, , , 17, 17, 17
38.0977144, -120.1812688, 45.600, 11:52:30.269, 20, 0.00, 0.10, 97, 0.500, -0.800, 127.800, 443, 100, 100, 27, 24048, -17819, 5307, 5472, 12, 14, 1525891950.269, 92, 0, 1024, 1024, 1024, 1024, 0, 6, 3986, 4003, 4019, 4032, 3993, 4014, 0, 1, 20401, -90.000, 0.000, 127.500, 0.000, 0.000, -3.000, 0.0, , , , , , 97, , , 17, 17, 17
38.0977144, -120.1812688, 45.900, 11:52:30.368, 20, 0.00, 0.10, 97, 0.200, -1.300, 127.900, 443, 100, 100, 27, 24048, -17819, 5307, 5472, 12, 14, 1525891950.369, 11, 0, 1024, 1024, 1024, 1024, 0, 6, 3986, 4003, 4019, 4032, 3993, 4014, 0, 1, 20501, -90.000, 0.000, 127.500, 0.000, 0.000, -3.000, 0.0, , , , , , 97, , , 17, 17, 17
