latitude,longitude,altitude(feet),ascent(feet),speed(mph),distance(feet),time(millisecond),datetime(utc),satellites,gpslevel,voltage(v),max_altitude(feet),max_ascent(feet),max_speed(mph),max_distance(feet), xSpeed(mph), ySpeed(mph), zSpeed(mph), compass_heading(degrees), pitch(degrees), roll(degrees),isPhoto,isVideo,rc_elevator,rc_aileron,rc_throttle,rc_rudder,gimbal_heading(degrees),gimbal_pitch(degrees),battery_percent,voltageCell1,voltageCell2,voltageCell3,voltageCell4,voltageCell5,voltageCell6,current(A),battery_temperature(f),flycStateRaw,flycState,message
38.0977318,-120.1812663,4238.4748239514,0,0.223694,0,3080,2018-05-09 19:13:12,16,0,0,4238.4748239514,0,0.223694,0,0,0,0,124.2, 0, -0.5,1,0,1024,1024,1024,1024,123.5,-89.9,100,3.973,3.965,3.999,3.987,4.001,3.98,0,69.8,11,AutoTakeoff,DJI_0875.jpg Starting Mission from Lat/Long: 38.09773/-120.18128 Camera: Zenmuse X3 - Overlap: 90/90 - Active Connection: No
38.0977317,-120.1812659,4238.4748239514,0,0.223694,0.120504597032,3200,2018-05-09 19:13:12,14,0,0,4238.4748239514,0,0.223694,0.120504597032,0,0,0,124.2, 1.4, 0,0,0,1024,1024,1024,1024,123.5,-89.9,100,3.973,3.965,3.999,3.987,4.001,3.98,0,69.8,11,AutoTakeoff,
38.0977317,-120.1812657,4238.8029079514,0.328084,0.223694,0.17609416574,3300,2018-05-09 19:13:12,14,0,0,4238.8029079514,0.328084,0.223694,0.17609416574,0,0,0,124.2, 1.5, 0.2,0,0,1024,1024,1024,1024,123.5,-89.9,100,3.973,3.965,3.999,3.987,4.001,3.98,0,69.8,11,AutoTakeoff,
38.0977318,-120.1812655,4238.8029079514,0.328084,0.223694,0.229697185828,3400,2018-05-09 19:13:12,15,0,0,4238.8029079514,0.328084,0.223694,0.229697185828,0,0,0,124.2, 1.4, 0.7,0,0,1024,1024,1024,1024,123.5,-89.9,100,3.973,3.965,3.999,3.987,4.001,3.98,0,69.8,11,AutoTakeoff,
38.0977317,-120.1812652,4239.1309919514,0.656168,0.223694,0.317934393376,3500,2018-05-09 19:13:12,15,0,0,4239.1309919514,0.656168,0.223694,0.317934393376,0,0,0,124.2, 1.5, 1.1,0,0,1024,1024,1024,1024,123.5,-89.9,100,3.973,3.965,3.999,3.987,4.001,3.98,0,69.8,11,AutoTakeoff,
38.0977317,-120.181265,4239.1309919514,0.656168,0.223694,0.37503610124,3600,2018-05-09 19:13:12,15,0,0,4239.1309919514,0.656168,0.223694,0.37503610124,0,0,0,124, 1.3, 1.1,0,0,1024,1024,1024,1024,123.5,-89.9,100,3.973,3.965,3.999,3.987,4.001,3.98,0,69.8,11,AutoTakeoff,
38.0977318,-120.1812648,4239.1309919514,0.656168,0.223694,0.43068242848,3700,2018-05-09 19:13:12,15,0,0,4239.1309919514,0.656168,0.223694,0.43068242848,0,0,0,123.9, 1, 0.9,0,0,1024,1024,1024,1024,123.5,-89.9,100,3.973,3.965,3.999,3.987,4.001,3.98,0,69.8,11,AutoTakeoff,
38.0977318,-120.1812646,4239.4590759514,0.984252,0.223694,0.488106971,3800,2018-05-09 19:13:13,16,0,0,4239.4590759514,0.984252,0.223694,0.488106971,0,0,0,123.7, 0.8, 1,0,0,1024,1024,1024,1024,123.5,-89.9,100,3.973,3.965,3.999,3.987,4.001,3.98,0,69.8,11,AutoTakeoff,
38.0977318,-120.1812643,4239.4590759514,0.984252,0.223694,0.57424214436,3900,2018-05-09 19:13:13,16,0,0,4239.4590759514,0.984252,0.223694,0.57424214436,0,0,0,123.5, 1, 1.3,0,0,1024,1024,1024,1024,123.5,-89.9,100,3.973,3.965,3.999,3.987,4.001,3.98,0,69.8,11,AutoTakeoff,
38.0977318,-120.1812641,4239.7871599514,1.312336,0.223694,0.63166668688,4100,2018-05-09 19:13:13,18,0,0,4239.7871599514,1.312336,0.223694,0.63166668688,0,0,0,123.4, 1.2, 1.6,0,0,1024,1024,1024,1024,123.5,-89.9,100,3.973,3.965,3.999,3.987,4.001,3.98,0,69.8,11,AutoTakeoff,
38.0977317,-120.1812639,4239.7871599514,1.312336,0.223694,0.69005579636,4200,2018-05-09 19:13:13,18,0,0,4239.7871599514,1.312336,0.223694,0.69005579636,0,0,-0.223694,123.5, 1.2, 1.7,0,0,1024,1024,1024,1024,123.5,-89.9,100,3.973,3.965,3.999,3.987,4.001,3.98,0,69.8,11,AutoTakeoff,
38.0977317,-120.1812638,4240.1152439514,1.64042,0.223694,0.71873033796,4300,2018-05-09 19:13:13,16,0,0,4240.1152439514,1.64042,0.223694,0.71873033796,0,0,-0.223694,123.6, 1.4, 1.4,0,0,1024,1024,1024,1024,123.5,-89.9,100,3.973,3.965,3.999,3.987,4.001,3.98,0,69.8,11,AutoTakeoff,
38.0977317,-120.1812637,4240.1152439514,1.64042,0,0.7474081604,4400,2018-05-09 19:13:13,16,0,0,4240.1152439514,1.64042,0.223694,0.7474081604,0,0,-0.223694,123.8, 1.5, 1,0,0,1024,1024,1024,1024,123.5,-89.9,100,3.973,3.965,3.999,3.987,4.001,3.98,0,69.8,11,AutoTakeoff,
38.0977317,-120.1812636,4240.4433279514,1.968504,0,0.77608598284,4500,2018-05-09 19:13:13,16,0,0,4240.4433279514,1.968504,0.223694,0.77608598284,0,0,0,124, 1.8, 0.7,0,0,1024,1024,1024,1024,123.5,-89.9,100,3.973,3.965,3.999,3.987,4.001,3.98,0,69.8,11,AutoTakeoff,
38.0977317,-120.1812634,4240.4433279514,1.968504,0,0.83345147024,4600,2018-05-09 19:13:13,16,0,0,4240.4433279514,1.968504,0.223694,0.83345147024,0,0,-0.223694,124.1, 1.9, 0.5,0,0,1024,1024,1024,1024,123.5,-89.9,100,3.973,3.965,3.999,3.987,4.001,3.98,0,69.8,11,AutoTakeoff,
38.0977317,-120.1812633,4240.7714119514,2.296588,0,0.86213585436,4700,2018-05-09 19:13:13,17,0,0,4240.7714119514,2.296588,0.223694,0.86213585436,0,0,0,124.4, 2, 0.7,0,0,1024,1024,1024,1024,123.5,-89.9,100,3.973,3.965,3.999,3.987,4.001,3.98,0,69.8,11,AutoTakeoff,
38.0977316,-120.1812632,4240.7714119514,2.296588,0,0.89306433304,4800,2018-05-09 19:13:14,17,0,0,4240.7714119514,2.296588,0.223694,0.89306433304,0,0,0,124.6, 2.1, 1,0,0,1024,1024,1024,1024,123.5,-89.9,100,3.973,3.965,3.999,3.987,4.001,3.98,0,69.8,11,AutoTakeoff,
38.0977316,-120.1812631,4241.0994959514,2.624672,0,0.92168310036,4900,2018-05-09 19:13:14,16,0,0,4241.0994959514,2.624672,0.223694,0.92168310036,0,0,0,124.8, 2.5, 1.1,0,0,1024,1024,1024,1024,123.5,-89.9,100,3.973,3.965,3.999,3.987,4.001,3.98,0,69.8,11,AutoTakeoff,
38.0977316,-120.181263,4241.0994959514,2.624672,0,0.95030842936,5000,2018-05-09 19:13:14,16,0,23.911,4241.0994959514,2.624672,0.223694,0.95030842936,0,0,0,124.9, 2.6, 1.1,0,0,1024,1024,1024,1024,123.5,-89.9,100,3.973,3.965,3.999,3.987,4.001,3.98,12.263,69.8,11,AutoTakeoff,
38.0977316,-120.181263,4241.4275799514,2.952756,0,0.95030842936,5100,2018-05-09 19:13:14,16,0,23.911,4241.4275799514,2.952756,0.223694,0.95030842936,0,0,-0.223694,124.9, 2.5, 1.1,0,0,1024,1024,1024,1024,123.5,-89.9,100,3.973,3.965,3.999,3.987,4.001,3.98,12.263,69.8,14,Waypoint,
38.0977316,-120.181263,4241.4275799514,2.952756,0,0.95030842936,5200,2018-05-09 19:13:14,16,0,23.911,4241.4275799514,2.952756,0.223694,0.95030842936,0,0,0,125, 2.3, 1,0,0,1024,1024,1024,1024,123.5,-89.9,100,3.973,3.965,3.999,3.987,4.001,3.98,12.263,69.8,14,Waypoint,
38.0977316,-120.1812629,4241.7556639514,3.28084,0,0.9789370392,5300,2018-05-09 19:13:14,15,0,23.911,4241.7556639514,3.28084,0.223694,0.9789370392,0,0,0,125.3, 0.5, 0,0,0,1024,1024,1024,1024,123.6,-90,100,3.973,3.965,3.999,3.987,4.001,3.98,12.263,69.8,14,Waypoint,
38.0977316,-120.1812628,4242.0837479514,3.608924,0,1.00757221072,5400,2018-05-09 19:13:14,16,0,23.911,4242.0837479514,3.608924,0.223694,1.00757221072,0,0,0,125.3, 0.5, 0.2,0,0,1024,1024,1024,1024,123.6,-90,100,3.973,3.965,3.999,3.987,4.001,3.98,12.263,69.8,14,Waypoint,
38.0977316,-120.1812629,4242.0837479514,3.608924,0,0.9789370392,5500,2018-05-09 19:13:14,16,0,23.911,4242.0837479514,3.608924,0.223694,1.00757221072,0,0,0,125.3, 0.7, 0.4,0,0,1024,1024,1024,1024,123.6,-89.9,100,3.973,3.965,3.999,3.987,4.001,3.98,12.263,69.8,14,Waypoint,
38.0977316,-120.1812628,4242.4118319514,3.937008,0,1.00757221072,5600,2018-05-09 19:13:14,16,0,23.911,4242.4118319514,3.937008,0.223694,1.00757221072,0,0,-0.223694,125.3, 1, 0.4,0,0,1024,1024,1024,1024,123.7,-89.9,100,3.973,3.965,3.999,3.987,4.001,3.98,12.263,69.8,14,Waypoint,
38.0977316,-120.1812628,4242.4118319514,3.937008,0,1.00757221072,5710,2018-05-09 19:13:14,16,0,23.911,4242.4118319514,3.937008,0.223694,1.00757221072,0,0,-0.223694,125.3, 1.1, 0.4,0,0,1024,1024,1024,1024,123.7,-89.9,100,3.973,3.965,3.999,3.987,4.001,3.98,12.263,69.8,14,Waypoint,
38.0977317,-120.1812627,4242.7399159514,4.265092,0,1.03428152916,5800,2018-05-09 19:13:15,17,0,23.911,4242.7399159514,4.265092,0.223694,1.03428152916,0,0,-0.223694,125.2, 1.2, 0.5,0,0,1024,1024,1024,1024,123.7,-89.9,100,3.973,3.965,3.999,3.987,4.001,3.98,12.263,69.8,14,Waypoint,
38.0977317,-120.1812626,4243.0679999514,4.593176,0,1.0629757558,5900,2018-05-09 19:13:15,17,0,23.911,4243.0679999514,4.593176,0.223694,1.0629757558,0,0,-0.223694,125.1, 1.2, 0.7,0,0,1024,1024,1024,1024,123.7,-89.9,100,3.973,3.965,3.999,3.987,4.001,3.98,12.263,69.8,14,Waypoint,
38.0977317,-120.1812626,4243.3960839514,4.92126,0,1.0629757558,6000,2018-05-09 19:13:15,17,0,23.661,4243.3960839514,4.92126,0.223694,1.0629757558,0,0,-0.223694,125.1, 1.2, 0.9,0,0,1024,1024,1024,1024,123.7,-89.9,100,3.931,3.925,3.95,3.952,3.964,3.942,16.642,69.8,14,Waypoint,
38.0977318,-120.1812625,4244.0522519514,5.577428,0,1.09106302704,6100,2018-05-09 19:13:15,17,0,23.661,4244.0522519514,5.577428,0.223694,1.09106302704,0,0,-0.223694,125.1, 1.1, 1,0,0,1024,1024,1024,1024,123.7,-89.9,100,3.931,3.925,3.95,3.952,3.964,3.942,16.642,69.8,14,Waypoint,
38.0977318,-120.1812625,4244.3803359514,5.905512,0,1.09106302704,6210,2018-05-09 19:13:15,16,0,23.661,4244.3803359514,5.905512,0.223694,1.09106302704,0,0,-0.447388,125.2, 1, 1,0,0,1024,1024,1024,1024,123.8,-89.9,100,3.931,3.925,3.95,3.952,3.964,3.942,16.642,69.8,14,Waypoint,
38.0977318,-120.1812624,4245.0365039514,6.56168,0,1.11977365788,6300,2018-05-09 19:13:15,16,0,23.661,4245.0365039514,6.56168,0.223694,1.11977365788,0,0,-0.447388,125.3, 1, 1.1,0,0,1024,1024,1024,1024,123.8,-89.9,100,3.931,3.925,3.95,3.952,3.964,3.942,16.642,69.8,14,Waypoint,
38.0977318,-120.1812623,4245.6926719514,7.217848,0,1.14848756956,6400,2018-05-09 19:13:15,16,0,23.661,4245.6926719514,7.217848,0.223694,1.14848756956,0,0,-0.447388,125.4, 1.1, 1,0,0,1024,1024,1024,1024,123.8,-89.9,100,3.931,3.925,3.95,3.952,3.964,3.942,16.642,69.8,14,Waypoint,
38.0977318,-120.1812623,4246.3488399514,7.874016,0,1.14848756956,6510,2018-05-09 19:13:15,16,0,23.661,4246.3488399514,7.874016,0.223694,1.14848756956,0,0,-0.447388,125.4, 1.1, 0.9,0,0,1024,1024,1024,1024,123.8,-89.9,100,3.931,3.925,3.95,3.952,3.964,3.942,16.642,69.8,14,Waypoint,
38.0977318,-120.1812623,4246.3488399514,7.874016,0,1.14848756956,6600,2018-05-09 19:13:15,16,0,23.661,4246.3488399514,7.874016,0.223694,1.14848756956,0,0,-0.447388,125.4, 1.1, 0.9,0,0,1024,1024,1024,1024,123.8,-89.9,100,3.931,3.925,3.95,3.952,3.964,3.942,16.642,69.8,14,Waypoint,
38.0977317,-120.1812623,4247.3330919514,8.858268,0,1.1490649974,6700,2018-05-09 19:13:15,16,0,23.661,4247.3330919514,8.858268,0.223694,1.1490649974,0,0,-0.671082,125.4, 1.1, 0.8,0,0,1024,1024,1024,1024,123.8,-89.9,100,3.931,3.925,3.95,3.952,3.964,3.942,16.642,69.8,14,Waypoint,
38.0977317,-120.1812623,4248.3173439514,9.84252,0,1.1490649974,6800,2018-05-09 19:13:16,16,0,23.661,4248.3173439514,9.84252,0.223694,1.1490649974,0,0,-0.671082,125.3, 1.4, 0.5,0,0,1024,1024,1024,1024,123.8,-89.9,100,3.931,3.925,3.95,3.952,3.964,3.942,16.642,69.8,14,Waypoint,
38.0977317,-120.1812622,4249.3015959514,10.826772,0,1.17776578572,6900,2018-05-09 19:13:16,16,0,23.661,4249.3015959514,10.826772,0.223694,1.17776578572,0,0,-0.671082,125.2, 1.5, 0.4,0,0,1024,1024,1024,1024,123.9,-89.9,100,3.931,3.925,3.95,3.952,3.964,3.942,16.642,69.8,14,Waypoint,
38.0977315,-120.1812623,4250.2858479514,11.811024,0,1.1536909818,7000,2018-05-09 19:13:16,16,0,23.678,4250.2858479514,11.811024,0.223694,1.17776578572,0,0,-0.671082,125.2, 1.6, 0.4,0,0,1024,1024,1024,1024,123.9,-89.9,100,3.906,3.941,3.927,3.932,3.947,3.951,15.798,69.8,14,Waypoint,
38.0977314,-120.1812623,4251.2700999514,12.795276,0,1.15772313416,7100,2018-05-09 19:13:16,15,0,23.678,4251.2700999514,12.795276,0.223694,1.17776578572,0,0,-0.671082,125.1, 1.5, 0.3,0,0,1024,1024,1024,1024,123.9,-89.9,100,3.906,3.941,3.927,3.932,3.947,3.951,15.798,69.8,14,Waypoint,
38.0977313,-120.1812624,4252.5824359514,14.107612,0,1.13453743788,7200,2018-05-09 19:13:16,15,0,23.678,4252.5824359514,14.107612,0.223694,1.17776578572,0,0,-0.671082,125, 1.4, 0,0,0,1024,1024,1024,1024,123.9,-89.9,100,3.906,3.941,3.927,3.932,3.947,3.951,15.798,69.8,14,Waypoint,
38.0977313,-120.1812625,4253.5666879514,15.091864,0,1.10620738448,7300,2018-05-09 19:13:16,14,0,23.678,4253.5666879514,15.091864,0.223694,1.17776578572,0,0,-0.671082,124.9, 1.2, -0.1,0,0,1024,1024,1024,1024,123.9,-89.9,100,3.906,3.941,3.927,3.932,3.947,3.951,15.798,69.8,14,Waypoint,
38.0977314,-120.1812625,4254.8790239514,16.4042,0,1.10078087512,7410,2018-05-09 19:13:16,14,0,23.678,4254.8790239514,16.4042,0.223694,1.17776578572,0,0,-0.671082,124.8, 0.9, -0.1,0,0,1024,1024,1024,1024,123.9,-89.9,100,3.906,3.941,3.927,3.932,3.947,3.951,15.798,69.8,14,Waypoint,
38.0977314,-120.1812625,4255.8632759514,17.388452,0,1.10078087512,7500,2018-05-09 19:13:16,16,0,23.678,4255.8632759514,17.388452,0.223694,1.17776578572,0,0,-0.671082,124.8, 0.6, 0,0,0,1024,1024,1024,1024,124,-90,100,3.906,3.941,3.927,3.932,3.947,3.951,15.798,69.8,14,Waypoint,
38.0977315,-120.1812626,4257.1756119514,18.700788,0,1.06797247512,7700,2018-05-09 19:13:16,16,0,23.678,4257.1756119514,18.700788,0.223694,1.17776578572,0,0,-0.671082,124.9, 0.5, 0.2,0,0,1024,1024,1024,1024,124,-90,100,3.906,3.941,3.927,3.932,3.947,3.951,15.798,69.8,14,Waypoint,
38.0977315,-120.1812627,4258.1598639514,19.68504,0,1.03941604376,7800,2018-05-09 19:13:17,16,0,23.678,4258.1598639514,19.68504,0.223694,1.17776578572,0,0,-0.671082,125, 0.3, 0.3,0,0,1024,1024,1024,1024,124,-90,100,3.906,3.941,3.927,3.932,3.947,3.951,15.798,69.8,14,Waypoint,
38.0977316,-120.1812628,4259.1441159514,20.669292,0,1.00757221072,7900,2018-05-09 19:13:17,16,0,23.678,4259.1441159514,20.669292,0.223694,1.17776578572,0,0,-0.671082,125, 0.1, 0.4,0,0,1024,1024,1024,1024,124,-90,100,3.906,3.941,3.927,3.932,3.947,3.951,15.798,69.8,14,Waypoint,
38.0977316,-120.1812629,4260.4564519514,21.981628,0,0.9789370392,8000,2018-05-09 19:13:17,17,0,22.913,4260.4564519514,21.981628,0.223694,1.17776578572,0,0,-0.671082,125, 0, 0.7,0,0,1024,1024,1024,1024,124,-90,98,3.794,3.786,3.789,3.803,3.813,3.8,24.117,69.8,14,Waypoint,
38.0977317,-120.1812632,4262.7530399514,24.278216,0,0.89082351932,8110,2018-05-09 19:13:17,17,0,22.913,4262.7530399514,24.278216,0.223694,1.17776578572,0,0,-0.671082,125, -0.4, 0.4,0,0,1024,1024,1024,1024,124,-90,98,3.794,3.786,3.789,3.803,3.813,3.8,24.117,69.8,14,Waypoint,
38.0977319,-120.1812633,4264.7215439514,26.24672,0,0.86213585436,8320,2018-05-09 19:13:17,18,0,22.913,4264.7215439514,26.24672,0.223694,1.17776578572,0,0,-0.671082,125.1, -0.5, 0.4,0,0,1024,1024,1024,1024,124,-89.9,98,3.794,3.786,3.789,3.803,3.813,3.8,24.117,69.8,14,Waypoint,
38.0977319,-120.1812633,4267.0181319514,28.543308,0,0.86213585436,8600,2018-05-09 19:13:17,17,0,22.913,4267.0181319514,28.543308,0.223694,1.17776578572,0,0,-0.671082,125.2, -0.2, 0.7,0,0,1024,1024,1024,1024,124,-89.9,98,3.794,3.786,3.789,3.803,3.813,3.8,24.117,69.8,14,Waypoint,
38.0977321,-120.1812631,4268.9866359514,30.511812,0,0.92528546268,8700,2018-05-09 19:13:17,16,0,22.913,4268.9866359514,30.511812,0.223694,1.17776578572,0,0,-0.671082,125.1, 0.1, 1,0,0,1024,1024,1024,1024,124,-89.9,98,3.794,3.786,3.789,3.803,3.813,3.8,24.117,69.8,14,Waypoint,
38.0977321,-120.1812631,4269.9708879514,31.496064,0,0.92528546268,8800,2018-05-09 19:13:18,16,0,22.913,4269.9708879514,31.496064,0.223694,1.17776578572,0,0,-0.671082,125, 0.2, 1.3,0,0,1024,1024,1024,1024,124,-89.9,98,3.794,3.786,3.789,3.803,3.813,3.8,24.117,69.8,14,Waypoint,
38.0977322,-120.1812631,4271.9393919514,33.464568,0,0.93030842872,8900,2018-05-09 19:13:18,16,0,22.913,4271.9393919514,33.464568,0.223694,1.17776578572,0,0,-0.671082,124.9, 0.4, 1.3,0,0,1024,1024,1024,1024,124,-89.9,98,3.794,3.786,3.789,3.803,3.813,3.8,24.117,69.8,14,Waypoint,
38.0977323,-120.1812631,4272.9236439514,34.44882,0,0.93672575176,9100,2018-05-09 19:13:18,18,0,22.913,4272.9236439514,34.44882,0.223694,1.17776578572,0,0,-0.671082,124.9, 0.3, 1.1,0,0,1024,1024,1024,1024,124,-89.9,98,3.794,3.786,3.789,3.803,3.813,3.8,24.117,69.8,14,Waypoint,
38.0977323,-120.1812631,4273.9078959514,35.433072,0,0.93672575176,9200,2018-05-09 19:13:18,18,0,22.913,4273.9078959514,35.433072,0.223694,1.17776578572,0,0,-0.671082,124.9, 0.2, 0.9,0,0,1024,1024,1024,1024,124,-89.9,98,3.794,3.786,3.789,3.803,3.813,3.8,24.117,69.8,14,Waypoint,
38.0977323,-120.1812631,4274.8921479514,36.417324,0,0.93672575176,9300,2018-05-09 19:13:18,15,0,22.913,4274.8921479514,36.417324,0.223694,1.17776578572,0,0,-0.671082,125.1, 0.4, 1,0,0,1024,1024,1024,1024,124,-89.9,98,3.794,3.786,3.789,3.803,3.813,3.8,24.117,69.8,14,Waypoint,
38.0977324,-120.181263,4276.2044839514,37.72966,0,0.97246066104,9400,2018-05-09 19:13:18,15,0,22.913,4276.2044839514,37.72966,0.223694,1.17776578572,0,0,-0.671082,125.2, 0.6, 1.4,0,0,1024,1024,1024,1024,124,-89.9,98,3.794,3.786,3.789,3.803,3.813,3.8,24.117,69.8,14,Waypoint,
38.0977324,-120.181263,4277.1887359514,38.713912,0,0.97246066104,9500,2018-05-09 19:13:18,15,0,22.913,4277.1887359514,38.713912,0.223694,1.17776578572,0,0,-0.671082,125.3, 0.6, 1.8,0,0,1024,1024,1024,1024,124,-89.9,98,3.794,3.786,3.789,3.803,3.813,3.8,24.117,69.8,14,Waypoint,
38.0977324,-120.181263,4278.1729879514,39.698164,0,0.97246066104,9600,2018-05-09 19:13:18,15,0,22.913,4278.1729879514,39.698164,0.223694,1.17776578572,0,0,-0.671082,125.3, 0.8, 2.2,0,0,1024,1024,1024,1024,124,-89.9,98,3.794,3.786,3.789,3.803,3.813,3.8,24.117,69.8,14,Waypoint,
38.0977324,-120.1812629,4279.1572399514,40.682416,0,1.00045606876,9700,2018-05-09 19:13:18,17,0,22.913,4279.1572399514,40.682416,0.223694,1.17776578572,0,0,-0.671082,125.3, 0.8, 2,0,0,1024,1024,1024,1024,124,-89.9,98,3.794,3.786,3.789,3.803,3.813,3.8,24.117,69.8,14,Waypoint,
38.0977324,-120.1812629,4280.1414919514,41.666668,0,1.00045606876,9800,2018-05-09 19:13:19,17,0,22.913,4280.1414919514,41.666668,0.223694,1.17776578572,0,0,-0.671082,125.2, 0.7, 1.7,0,0,1024,1024,1024,1024,124,-89.9,98,3.794,3.786,3.789,3.803,3.813,3.8,24.117,69.8,14,Waypoint,
38.0977325,-120.1812629,4281.1257439514,42.65092,0,1.00906827376,9900,2018-05-09 19:13:19,17,0,22.913,4281.1257439514,42.65092,0.223694,1.17776578572,0,0,-0.671082,125.1, 0.6, 1.3,0,0,1024,1024,1024,1024,124,-89.9,98,3.794,3.786,3.789,3.803,3.813,3.8,24.117,69.8,14,Waypoint,
38.0977324,-120.1812629,4282.1099959514,43.635172,0,1.00045606876,10000,2018-05-09 19:13:19,17,0,23.267,4282.1099959514,43.635172,0.223694,1.17776578572,0,0,-0.671082,125, 0.5, 1.1,0,0,1024,1024,1024,1024,124,-89.9,98,3.857,3.863,3.882,3.889,3.907,3.866,18.138,69.8,14,Waypoint,
38.0977324,-120.181263,4284.0784999514,45.603676,0,0.97246066104,10100,2018-05-09 19:13:19,16,0,23.267,4284.0784999514,45.603676,0.223694,1.17776578572,0,0,-0.671082,124.8, 0.5, 0.8,0,0,1024,1024,1024,1024,124,-89.9,98,3.857,3.863,3.882,3.889,3.907,3.866,18.138,69.8,14,Waypoint,
38.0977324,-120.181263,4285.0627519514,46.587928,0,0.97246066104,10200,2018-05-09 19:13:19,18,0,23.267,4285.0627519514,46.587928,0.223694,1.17776578572,0,0,-0.671082,124.8, 0.5, 0.7,0,0,1024,1024,1024,1024,124,-89.9,98,3.857,3.863,3.882,3.889,3.907,3.866,18.138,69.8,14,Waypoint,
38.0977324,-120.181263,4286.0470039514,47.57218,0,0.97246066104,10300,2018-05-09 19:13:19,18,0,23.267,4286.0470039514,47.57218,0.223694,1.17776578572,0,0,-0.671082,124.9, 0.5, 0.8,0,0,1024,1024,1024,1024,124,-89.9,98,3.857,3.863,3.882,3.889,3.907,3.866,18.138,69.8,14,Waypoint,
38.0977324,-120.181263,4287.0312559514,48.556432,0,0.97246066104,10400,2018-05-09 19:13:19,17,0,23.267,4287.0312559514,48.556432,0.223694,1.17776578572,0,0,-0.671082,124.9, 0.4, 0.8,0,0,1024,1024,1024,1024,124,-89.9,98,3.857,3.863,3.882,3.889,3.907,3.866,18.138,69.8,14,Waypoint,
38.0977323,-120.181263,4288.0155079514,49.540684,0,0.96490160568,10500,2018-05-09 19:13:19,17,0,23.267,4288.0155079514,49.540684,0.223694,1.17776578572,0,0,-0.671082,125, 0.4, 0.8,0,0,1024,1024,1024,1024,124,-89.9,98,3.857,3.863,3.882,3.889,3.907,3.866,18.138,69.8,14,Waypoint,
38.0977323,-120.1812631,4288.9997599514,50.524936,0,0.93672575176,10600,2018-05-09 19:13:19,18,0,23.267,4288.9997599514,50.524936,0.223694,1.17776578572,0,0,-0.671082,125, 0.3, 0.7,0,0,1024,1024,1024,1024,124,-89.9,98,3.857,3.863,3.882,3.889,3.907,3.866,18.138,69.8,14,Waypoint,
38.0977323,-120.1812632,4289.9840119514,51.509188,0,0.9085794254,10710,2018-05-09 19:13:19,18,0,23.267,4289.9840119514,51.509188,0.223694,1.17776578572,0,0,-0.671082,125, 0, 0.7,0,0,1024,1024,1024,1024,124,-90,98,3.857,3.863,3.882,3.889,3.907,3.866,18.138,69.8,14,Waypoint,
38.0977323,-120.1812632,4289.9840119514,51.509188,0,0.9085794254,10800,2018-05-09 19:13:20,18,0,23.267,4289.9840119514,51.509188,0.223694,1.17776578572,0,0,-0.671082,125, 0, 0.7,0,0,1024,1024,1024,1024,124,-90,98,3.857,3.863,3.882,3.889,3.907,3.866,18.138,69.8,14,Waypoint,
38.0977323,-120.1812632,4290.9682639514,52.49344,0,0.9085794254,10900,2018-05-09 19:13:20,18,0,23.267,4290.9682639514,52.49344,0.223694,1.17776578572,0,0,-0.671082,125, -0.2, 0.5,0,0,1024,1024,1024,1024,124,-89.9,98,3.857,3.863,3.882,3.889,3.907,3.866,18.138,69.8,14,Waypoint,
38.0977323,-120.1812634,4292.9367679514,54.461944,0,0.85240160208,11100,2018-05-09 19:13:20,18,0,23.267,4292.9367679514,54.461944,0.223694,1.17776578572,0,0,-0.671082,125.2, -0.3, -0.3,0,0,1024,1024,1024,1024,124,-89.9,98,3.857,3.863,3.882,3.889,3.907,3.866,18.138,69.8,14,Waypoint,
38.0977323,-120.1812633,4293.9210199514,55.446196,0,0.88046918828,11200,2018-05-09 19:13:20,18,0,23.267,4293.9210199514,55.446196,0.223694,1.17776578572,0,0,-0.671082,125.3, -0.4, -0.5,0,0,1024,1024,1024,1024,124,-90,98,3.857,3.863,3.882,3.889,3.907,3.866,18.138,69.8,14,Waypoint,
38.0977322,-120.1812633,4294.9052719514,56.430448,0,0.87364176024,11300,2018-05-09 19:13:20,17,0,23.267,4294.9052719514,56.430448,0.223694,1.17776578572,0,0,-0.671082,125.3, -0.4, -0.2,0,0,1024,1024,1024,1024,124,-89.9,98,3.857,3.863,3.882,3.889,3.907,3.866,18.138,69.8,14,Waypoint,
38.0977322,-120.1812632,4295.8895239514,57.4147,0,0.90196197112,11400,2018-05-09 19:13:20,17,0,23.267,4295.8895239514,57.4147,0.223694,1.17776578572,0,0,-0.671082,125.3, 0, 0.6,0,0,1024,1024,1024,1024,124,-89.9,98,3.857,3.863,3.882,3.889,3.907,3.866,18.138,69.8,14,Waypoint,
38.0977322,-120.1812631,4296.8737759514,58.398952,0,0.93030842872,11500,2018-05-09 19:13:20,18,0,23.267,4296.8737759514,58.398952,0.223694,1.17776578572,0,0,-0.671082,125.3, 0.6, 1.4,0,0,1024,1024,1024,1024,124,-89.9,98,3.857,3.863,3.882,3.889,3.907,3.866,18.138,69.8,14,Waypoint,
38.0977321,-120.181263,4297.8580279514,59.383204,0,0.95380252396,11600,2018-05-09 19:13:20,18,0,23.267,4297.8580279514,59.383204,0.223694,1.17776578572,0,0,-0.671082,125.1, 0.7, 1.6,0,0,1024,1024,1024,1024,124,-89.9,98,3.857,3.863,3.882,3.889,3.907,3.866,18.138,69.8,14,Waypoint,
38.0977321,-120.1812629,4298.8422799514,60.367456,0.223694,0.98232942776,11700,2018-05-09 19:13:20,17,0,23.267,4298.8422799514,60.367456,0.223694,1.17776578572,0,0,-0.671082,124.9, 0.9, 2.1,0,0,1024,1024,1024,1024,124,-89.9,98,3.857,3.863,3.882,3.889,3.907,3.866,18.138,69.8,14,Waypoint,
38.0977321,-120.1812628,4300.1546159514,61.679792,0.223694,1.01086945492,11800,2018-05-09 19:13:21,17,0,23.267,4300.1546159514,61.679792,0.223694,1.17776578572,0,0,-0.671082,124.8, 1.1, 2.2,0,0,1024,1024,1024,1024,124,-89.9,98,3.857,3.863,3.882,3.889,3.907,3.866,18.138,69.8,14,Waypoint,
38.0977321,-120.1812627,4301.1388679514,62.664044,0.223694,1.03941604376,11900,2018-05-09 19:13:21,18,0,23.267,4301.1388679514,62.664044,0.223694,1.17776578572,0,0,-0.671082,124.8, 1.3, 2.5,0,0,1024,1024,1024,1024,124,-89.9,98,3.857,3.863,3.882,3.889,3.907,3.866,18.138,69.8,14,Waypoint,
38.0977322,-120.1812626,4302.1231199514,63.648296,0,1.0723261498,12000,2018-05-09 19:13:21,18,0,23.175,4302.1231199514,63.648296,0.223694,1.17776578572,0,0,-0.671082,124.9, 1.3, 2.3,0,0,1024,1024,1024,1024,124,-89.9,98,3.843,3.842,3.858,3.864,3.89,3.845,18.942,69.8,14,Waypoint,
38.0977322,-120.1812626,4303.1073719514,64.632548,0,1.0723261498,12100,2018-05-09 19:13:21,18,0,23.175,4303.1073719514,64.632548,0.223694,1.17776578572,0,0,-0.671082,125, 1.3, 2.4,0,0,1024,1024,1024,1024,124,-89.9,98,3.843,3.842,3.858,3.864,3.89,3.845,18.942,69.8,14,Waypoint,
38.0977322,-120.1812625,4303.7635399514,65.288716,0,1.10078087512,12200,2018-05-09 19:13:21,18,0,23.175,4303.7635399514,65.288716,0.223694,1.17776578572,0,0,-0.671082,125.1, 1.2, 2.5,0,0,1024,1024,1024,1024,124,-89.9,98,3.843,3.842,3.858,3.864,3.89,3.845,18.942,69.8,14,Waypoint,
38.0977323,-120.1812624,4304.7477919514,66.272968,0,1.13453743788,12300,2018-05-09 19:13:21,18,0,23.175,4304.7477919514,66.272968,0.223694,1.17776578572,0,0,-0.671082,125.2, 1.3, 2.6,0,0,1024,1024,1024,1024,124,-89.9,98,3.843,3.842,3.858,3.864,3.89,3.845,18.942,69.8,14,Waypoint,
38.0977323,-120.1812623,4305.7320439514,67.25722,0,1.16288389548,12400,2018-05-09 19:13:21,18,0,23.175,4305.7320439514,67.25722,0.223694,1.17776578572,0,0,-0.671082,125.2, 1.3, 2.7,0,0,1024,1024,1024,1024,124,-89.9,98,3.843,3.842,3.858,3.864,3.89,3.845,18.942,69.8,14,Waypoint,
38.0977323,-120.1812622,4308.0286319514,69.553808,0,1.19125003812,12500,2018-05-09 19:13:21,17,0,23.175,4308.0286319514,69.553808,0.223694,1.19125003812,0,0,-0.671082,125.3, 1.4, 2.9,0,0,1024,1024,1024,1024,124,-89.9,98,3.843,3.842,3.858,3.864,3.89,3.845,18.942,69.8,14,Waypoint,
38.0977324,-120.1812622,4308.6847999514,70.209976,0,1.19737864724,12600,2018-05-09 19:13:21,18,0,23.175,4308.6847999514,70.209976,0.223694,1.19737864724,0,0,-0.671082,125.2, 1.1, 3,0,0,1024,1024,1024,1024,124,-89.9,98,3.843,3.842,3.858,3.864,3.89,3.845,18.942,69.8,14,Waypoint,
38.0977324,-120.1812622,4309.6690519514,71.194228,0,1.19737864724,12700,2018-05-09 19:13:21,18,0,23.175,4309.6690519514,71.194228,0.223694,1.19737864724,0,0,-0.671082,125.1, 0.9, 2.7,0,0,1024,1024,1024,1024,124,-89.9,98,3.843,3.842,3.858,3.864,3.89,3.845,18.942,69.8,14,Waypoint,
38.0977324,-120.1812622,4310.6533039514,72.17848,0,1.19737864724,12800,2018-05-09 19:13:22,18,0,23.175,4310.6533039514,72.17848,0.223694,1.19737864724,0,0,-0.671082,125.1, 0.6, 2.3,0,0,1024,1024,1024,1024,124,-90,98,3.843,3.842,3.858,3.864,3.89,3.845,18.942,69.8,14,Waypoint,
38.0977324,-120.1812621,4311.6375559514,73.162732,0,1.22562011796,12900,2018-05-09 19:13:22,18,0,23.175,4311.6375559514,73.162732,0.223694,1.22562011796,0,0,-0.671082,125.2, 0.4, 2.2,0,0,1024,1024,1024,1024,124,-89.9,98,3.843,3.842,3.858,3.864,3.89,3.845,18.942,69.8,14,Waypoint,
38.0977324,-120.1812621,4312.6218079514,74.146984,0,1.22562011796,13010,2018-05-09 19:13:22,18,0,23.067,4312.6218079514,74.146984,0.223694,1.22562011796,0,0,-0.671082,125.4, 0.7, 2.3,0,0,1024,1024,1024,1024,124,-89.9,98,3.817,3.836,3.846,3.856,3.864,3.828,19.913,69.8,14,Waypoint,
38.0977323,-120.1812619,4315.2464799514,76.771656,0,1.27643704872,13300,2018-05-09 19:13:22,18,0,23.067,4315.2464799514,76.771656,0.223694,1.27643704872,0,0,-0.671082,125.2, 1.5, 2.4,0,0,1024,1024,1024,1024,124,-89.9,98,3.817,3.836,3.846,3.856,3.864,3.828,19.913,69.8,14,Waypoint,
38.0977323,-120.1812618,4315.9026479514,77.427824,0,1.30486224648,13500,2018-05-09 19:13:22,18,0,23.067,4315.9026479514,77.427824,0.223694,1.30486224648,0,0,-0.671082,125, 1.8, 2.5,0,0,1024,1024,1024,1024,124,-89.9,98,3.817,3.836,3.846,3.856,3.864,3.828,19.913,69.8,14,Waypoint,
38.0977323,-120.1812618,4316.8868999514,78.412076,0,1.30486224648,13600,2018-05-09 19:13:22,18,0,23.067,4316.8868999514,78.412076,0.223694,1.30486224648,0,0,-0.671082,124.9, 2.1, 2.5,0,0,1024,1024,1024,1024,124,-89.9,98,3.817,3.836,3.846,3.856,3.864,3.828,19.913,69.8,14,Waypoint,
38.0977323,-120.1812617,4317.8711519514,79.396328,0,1.33329728676,13700,2018-05-09 19:13:22,18,0,23.067,4317.8711519514,79.396328,0.223694,1.33329728676,0,0,-0.671082,124.8, 2.3, 2.4,0,0,1024,1024,1024,1024,124,-89.9,98,3.817,3.836,3.846,3.856,3.864,3.828,19.913,69.8,14,Waypoint,
38.0977322,-120.1812617,4318.8554039514,80.38058,0,1.32879925512,13800,2018-05-09 19:13:23,18,0,23.067,4318.8554039514,80.38058,0.223694,1.33329728676,0,0,-0.671082,124.8, 2.2, 2.3,0,0,1024,1024,1024,1024,124,-89.9,98,3.817,3.836,3.846,3.856,3.864,3.828,19.913,69.8,14,Waypoint,
38.0977322,-120.1812616,4319.8396559514,81.364832,0,1.35733928228,13900,2018-05-09 19:13:23,18,0,23.067,4319.8396559514,81.364832,0.223694,1.35733928228,0,0,-0.671082,124.8, 2.1, 2,0,0,1024,1024,1024,1024,124,-89.9,98,3.817,3.836,3.846,3.856,3.864,3.828,19.913,69.8,14,Waypoint,
38.0977322,-120.1812616,4320.8239079514,82.349084,0,1.35733928228,14000,2018-05-09 19:13:23,18,0,23.033,4320.8239079514,82.349084,0.223694,1.35733928228,0,0,-0.671082,124.9, 2, 2.1,0,0,1024,1024,1024,1024,124,-89.9,98,3.813,3.832,3.843,3.839,3.867,3.817,19.417,69.8,14,Waypoint,
38.0977322,-120.1812616,4321.8081599514,83.333336,0,1.35733928228,14100,2018-05-09 19:13:23,18,0,23.033,4321.8081599514,83.333336,0.223694,1.35733928228,0,0,-0.671082,125.1, 1.9, 2.5,0,0,1024,1024,1024,1024,124,-89.9,98,3.813,3.832,3.843,3.839,3.867,3.817,19.417,69.8,14,Waypoint,
38.0977321,-120.1812615,4322.7924119514,84.317588,0,1.38252301012,14200,2018-05-09 19:13:23,18,0,23.033,4322.7924119514,84.317588,0.223694,1.38252301012,0,0,-0.671082,125.3, 2, 2.4,0,0,1024,1024,1024,1024,124,-89.9,98,3.813,3.832,3.843,3.839,3.867,3.817,19.417,69.8,14,Waypoint,
38.0977321,-120.1812614,4323.7766639514,85.30184,0,1.41114833912,14300,2018-05-09 19:13:23,18,0,23.033,4323.7766639514,85.30184,0.223694,1.41114833912,0,0,-0.671082,125.5, 2.2, 2.6,0,0,1024,1024,1024,1024,124,-89.9,98,3.813,3.832,3.843,3.839,3.867,3.817,19.417,69.8,14,Waypoint,
38.0977321,-120.1812614,4324.7609159514,86.286092,0,1.41114833912,14400,2018-05-09 19:13:23,18,0,23.033,4324.7609159514,86.286092,0.223694,1.41114833912,0,0,-0.671082,125.6, 2.5, 3,0,0,1024,1024,1024,1024,124,-89.9,98,3.813,3.832,3.843,3.839,3.867,3.817,19.417,69.8,14,Waypoint,
38.0977322,-120.1812613,4325.7451679514,87.270344,0,1.44300857636,14500,2018-05-09 19:13:23,18,0,23.033,4325.7451679514,87.270344,0.223694,1.44300857636,0,0,-0.671082,125.6, 2.4, 3.5,0,0,1024,1024,1024,1024,124,-89.9,98,3.813,3.832,3.843,3.839,3.867,3.817,19.417,69.8,14,Waypoint,
38.0977322,-120.1812612,4327.0575039514,88.58268,0,1.47157485024,14600,2018-05-09 19:13:23,18,0,23.033,4327.0575039514,88.58268,0.223694,1.47157485024,0,0,-0.671082,125.6, 2.3, 4,0,0,1024,1024,1024,1024,124,-89.9,98,3.813,3.832,3.843,3.839,3.867,3.817,19.417,69.8,14,Waypoint,
38.0977323,-120.1812611,4328.0417559514,89.566932,0,1.50413718724,14700,2018-05-09 19:13:23,18,0,23.033,4328.0417559514,89.566932,0.223694,1.50413718724,0,0,-0.671082,125.5, 2.2, 4.5,0,0,1024,1024,1024,1024,124,-89.9,98,3.813,3.832,3.843,3.839,3.867,3.817,19.417,69.8,14,Waypoint,
38.0977324,-120.181261,4330.0102599514,91.535436,0,1.53741146652,14800,2018-05-09 19:13:24,18,0,23.033,4330.0102599514,91.535436,0.223694,1.53741146652,0,0,-0.671082,125.3, 1.9, 4.6,0,0,1024,1024,1024,1024,124,-89.9,98,3.813,3.832,3.843,3.839,3.867,3.817,19.417,69.8,14,Waypoint,
38.0977325,-120.181261,4330.9945119514,92.519688,0,1.5430282646,14900,2018-05-09 19:13:24,18,0,23.033,4330.9945119514,92.519688,0.223694,1.5430282646,0,0,-0.671082,125.2, 1.7, 4.5,0,0,1024,1024,1024,1024,124,-89.9,98,3.813,3.832,3.843,3.839,3.867,3.817,19.417,69.8,14,Waypoint,
38.0977325,-120.181261,4331.6506799514,93.175856,0,1.5430282646,15000,2018-05-09 19:13:24,18,0,22.853,4331.6506799514,93.175856,0.223694,1.5430282646,0,0,-0.671082,125.1, 1.7, 4.3,0,0,1024,1024,1024,1024,124,-89.9,98,3.789,3.792,3.802,3.816,3.834,3.782,21.454,69.8,14,Waypoint,
38.0977325,-120.1812611,4332.6349319514,94.160108,0,1.51471789624,15100,2018-05-09 19:13:24,18,0,22.853,4332.6349319514,94.160108,0.223694,1.5430282646,0,0,-0.671082,125.1, 1.7, 3.9,0,0,1024,1024,1024,1024,124,-89.9,98,3.789,3.792,3.802,3.816,3.834,3.782,21.454,69.8,14,Waypoint,
38.0977324,-120.1812611,4333.6191839514,95.14436,0,1.50899611128,15200,2018-05-09 19:13:24,18,0,22.853,4333.6191839514,95.14436,0.223694,1.5430282646,0,0,-0.671082,125.1, 1.7, 3.7,0,0,1024,1024,1024,1024,124,-89.9,98,3.789,3.792,3.802,3.816,3.834,3.782,21.454,69.8,14,Waypoint,
38.0977324,-120.1812611,4334.6034359514,96.128612,0,1.50899611128,15300,2018-05-09 19:13:24,18,0,22.853,4334.6034359514,96.128612,0.223694,1.5430282646,0,0,-0.671082,125.1, 1.7, 3.7,0,0,1024,1024,1024,1024,124,-89.9,98,3.789,3.792,3.802,3.816,3.834,3.782,21.454,69.8,14,Waypoint,
38.0977325,-120.1812612,4335.5876879514,97.112864,0,1.48642721292,15500,2018-05-09 19:13:24,18,0,22.853,4335.5876879514,97.112864,0.223694,1.5430282646,0,0,-0.671082,125.1, 1.6, 3.6,0,0,1024,1024,1024,1024,124,-89.9,98,3.789,3.792,3.802,3.816,3.834,3.782,21.454,69.8,14,Waypoint,
38.0977324,-120.1812612,4336.5719399514,98.097116,0,1.4805938794,15600,2018-05-09 19:13:24,18,0,22.853,4336.5719399514,98.097116,0.223694,1.5430282646,0,0,-0.671082,125.1, 1.5, 3.7,0,0,1024,1024,1024,1024,124,-89.9,98,3.789,3.792,3.802,3.816,3.834,3.782,21.454,69.8,14,Waypoint,
38.0977324,-120.1812613,4337.5561919514,99.081368,0,1.45220149004,15700,2018-05-09 19:13:24,18,0,22.853,4337.5561919514,99.081368,0.223694,1.5430282646,0,0,-0.671082,125.1, 1.5, 3.5,0,0,1024,1024,1024,1024,124,-89.9,98,3.789,3.792,3.802,3.816,3.834,3.782,21.454,69.8,14,Waypoint,
38.0977324,-120.1812613,4338.5404439514,100.06562,0,1.45220149004,15800,2018-05-09 19:13:25,18,0,22.853,4338.5404439514,100.06562,0.223694,1.5430282646,0,0,-0.671082,125.1, 1.5, 3.4,0,0,1024,1024,1024,1024,124,-89.9,98,3.789,3.792,3.802,3.816,3.834,3.782,21.454,69.8,14,Waypoint,
38.0977324,-120.1812614,4339.5246959514,101.049872,0,1.42382550488,15900,2018-05-09 19:13:25,18,0,22.853,4339.5246959514,101.049872,0.223694,1.5430282646,0,0,-0.671082,125.1, 1.5, 3.4,0,0,1024,1024,1024,1024,124,-89.9,98,3.789,3.792,3.802,3.816,3.834,3.782,21.454,69.8,14,Waypoint,
38.0977324,-120.1812614,4340.5089479514,102.034124,0,1.42382550488,16000,2018-05-09 19:13:25,18,0,22.825,4340.5089479514,102.034124,0.223694,1.5430282646,0,0,-0.671082,125.2, 1.5, 3.6,0,0,1024,1024,1024,1024,124,-89.9,98,3.777,3.8,3.808,3.817,3.824,3.802,21.511,69.8,14,Waypoint,
38.0977323,-120.1812615,4341.4931999514,103.018376,0,1.39020345656,16100,2018-05-09 19:13:25,18,0,22.825,4341.4931999514,103.018376,0.223694,1.5430282646,0,0,-0.671082,125.1, 1.6, 3.3,0,0,1024,1024,1024,1024,124,-89.9,98,3.777,3.8,3.808,3.817,3.824,3.802,21.511,69.8,14,Waypoint,
38.0977323,-120.1812615,4342.4774519514,104.002628,0,1.39020345656,16200,2018-05-09 19:13:25,18,0,22.825,4342.4774519514,104.002628,0.223694,1.5430282646,0,0,-0.671082,125.1, 1.6, 2.9,0,0,1024,1024,1024,1024,124,-89.9,98,3.777,3.8,3.808,3.817,3.824,3.802,21.511,69.8,14,Waypoint,
38.0977322,-120.1812616,4343.4617039514,104.98688,0,1.35733928228,16300,2018-05-09 19:13:25,18,0,22.825,4343.4617039514,104.98688,0.223694,1.5430282646,0,0,-0.671082,125.1, 1.7, 2.6,0,0,1024,1024,1024,1024,124,-89.9,98,3.777,3.8,3.808,3.817,3.824,3.802,21.511,69.8,14,Waypoint,
38.0977321,-120.1812617,4344.4459559514,105.971132,0,1.32528875632,16400,2018-05-09 19:13:25,18,0,22.825,4344.4459559514,105.971132,0.223694,1.5430282646,0,0,-0.671082,125.1, 1.7, 2.4,0,0,1024,1024,1024,1024,124,-89.9,98,3.777,3.8,3.808,3.817,3.824,3.802,21.511,69.8,14,Waypoint,
38.0977321,-120.1812617,4345.4302079514,106.955384,0,1.32528875632,16500,2018-05-09 19:13:25,18,0,22.825,4345.4302079514,106.955384,0.223694,1.5430282646,0,0,-0.671082,125.1, 1.6, 2.5,0,0,1024,1024,1024,1024,124,-89.9,98,3.777,3.8,3.808,3.817,3.824,3.802,21.511,69.8,14,Waypoint,
38.0977321,-120.1812618,4346.4144599514,107.939636,0,1.29667655068,16600,2018-05-09 19:13:25,18,0,22.825,4346.4144599514,107.939636,0.223694,1.5430282646,0,0,-0.671082,125, 1.5, 2.6,0,0,1024,1024,1024,1024,124,-89.9,98,3.777,3.8,3.808,3.817,3.824,3.802,21.511,69.8,14,Waypoint,
38.0977321,-120.1812619,4347.3987119514,108.923888,0,1.26806762588,16700,2018-05-09 19:13:25,18,0,22.825,4347.3987119514,108.923888,0.223694,1.5430282646,0,0,-0.671082,125, 1.5, 2.6,0,0,1024,1024,1024,1024,124,-89.9,98,3.777,3.8,3.808,3.817,3.824,3.802,21.511,69.8,14,Waypoint,
38.097732,-120.1812619,4348.3829639514,109.90814,0,1.26543967304,16800,2018-05-09 19:13:26,18,0,22.825,4348.3829639514,109.90814,0.223694,1.5430282646,0,0,-0.671082,125, 1.5, 2.5,0,0,1024,1024,1024,1024,124,-89.9,98,3.777,3.8,3.808,3.817,3.824,3.802,21.511,69.8,14,Waypoint,
38.097732,-120.181262,4349.3672159514,110.892392,0,1.2367782548,16900,2018-05-09 19:13:26,18,0,22.825,4349.3672159514,110.892392,0.223694,1.5430282646,0,0,-0.671082,124.9, 1.5, 2.5,0,0,1024,1024,1024,1024,124,-89.9,98,3.777,3.8,3.808,3.817,3.824,3.802,21.511,69.8,14,Waypoint,
38.097732,-120.181262,4350.3514679514,111.876644,0,1.2367782548,17000,2018-05-09 19:13:26,18,0,22.844,4350.3514679514,111.876644,0.223694,1.5430282646,0,0,-0.671082,124.9, 1.4, 2.6,0,0,1024,1024,1024,1024,124,-89.9,98,3.783,3.797,3.804,3.818,3.833,3.798,20.612,69.8,14,Waypoint,
38.097732,-120.1812621,4351.3357199514,112.860896,0,1.20811683656,17100,2018-05-09 19:13:26,18,0,22.844,4351.3357199514,112.860896,0.223694,1.5430282646,0,0,-0.671082,124.8, 1.4, 2.8,0,0,1024,1024,1024,1024,124,-89.9,98,3.783,3.797,3.804,3.818,3.833,3.798,20.612,69.8,14,Waypoint,
38.097732,-120.1812621,4352.3199719514,113.845148,0,1.20811683656,17200,2018-05-09 19:13:26,18,0,22.844,4352.3199719514,113.845148,0.223694,1.5430282646,0,0,-0.671082,124.8, 1.4, 2.7,0,0,1024,1024,1024,1024,124,-89.9,98,3.783,3.797,3.804,3.818,3.833,3.798,20.612,69.8,14,Waypoint,
38.097732,-120.1812622,4353.3042239514,114.8294,0,1.17945869916,17300,2018-05-09 19:13:26,18,0,22.844,4353.3042239514,114.8294,0.223694,1.5430282646,0,0,-0.671082,124.9, 1.3, 2.5,0,0,1024,1024,1024,1024,124,-90,98,3.783,3.797,3.804,3.818,3.833,3.798,20.612,69.8,14,Waypoint,
38.097732,-120.1812623,4354.6165599514,116.141736,0,1.1508038426,17400,2018-05-09 19:13:26,18,0,22.844,4354.6165599514,116.141736,0.223694,1.5430282646,0,0,-0.671082,125, 1.2, 2.5,0,0,1024,1024,1024,1024,124,-89.9,98,3.783,3.797,3.804,3.818,3.833,3.798,20.612,69.8,14,Waypoint,
38.0977319,-120.1812623,4355.6008119514,117.125988,0,1.1490649974,17500,2018-05-09 19:13:26,18,0,22.844,4355.6008119514,117.125988,0.223694,1.5430282646,0,0,-0.671082,125.2, 1.2, 2.5,0,0,1024,1024,1024,1024,124,-89.9,98,3.783,3.797,3.804,3.818,3.833,3.798,20.612,69.8,14,Waypoint,
38.0977319,-120.1812625,4357.5693159514,119.094492,0,1.09167326328,17600,2018-05-09 19:13:26,18,0,22.844,4357.5693159514,119.094492,0.223694,1.5430282646,0,0,-0.671082,125.2, 1.3, 2.4,0,0,1024,1024,1024,1024,124,-89.9,98,3.783,3.797,3.804,3.818,3.833,3.798,20.612,69.8,14,Waypoint,
38.0977319,-120.1812625,4359.5378199514,121.062996,0,1.09167326328,17800,2018-05-09 19:13:27,18,0,22.844,4359.5378199514,121.062996,0.223694,1.5430282646,0,0,-0.671082,125.2, 1.1, 2.6,0,0,1024,1024,1024,1024,124,-90,98,3.783,3.797,3.804,3.818,3.833,3.798,20.612,69.8,14,Waypoint,
38.0977319,-120.1812626,4360.5220719514,122.047248,0,1.0629757558,17900,2018-05-09 19:13:27,18,0,22.844,4360.5220719514,122.047248,0.223694,1.5430282646,0,0,-0.671082,125.2, 1, 2.6,0,0,1024,1024,1024,1024,124,-89.9,98,3.783,3.797,3.804,3.818,3.833,3.798,20.612,69.8,14,Waypoint,
38.0977319,-120.1812626,4362.4905759514,124.015752,0,1.0629757558,18100,2018-05-09 19:13:27,18,0,22.844,4362.4905759514,124.015752,0.223694,1.5430282646,0,0,-0.671082,125.2, 1, 2.7,0,0,1024,1024,1024,1024,124,-89.9,98,3.783,3.797,3.804,3.818,3.833,3.798,20.612,69.8,14,Waypoint,
38.0977319,-120.1812627,4363.8029119514,125.328088,0,1.03428152916,18220,2018-05-09 19:13:27,18,0,22.844,4363.8029119514,125.328088,0.223694,1.5430282646,0,0,-0.671082,125.2, 1.4, 3.1,0,0,1024,1024,1024,1024,124,-89.9,98,3.783,3.797,3.804,3.818,3.833,3.798,20.612,69.8,14,Waypoint,
38.0977319,-120.1812627,4363.8029119514,125.328088,0,1.03428152916,18300,2018-05-09 19:13:27,18,0,22.844,4363.8029119514,125.328088,0.223694,1.5430282646,0,0,-0.671082,125.2, 1.4, 3.1,0,0,1024,1024,1024,1024,124,-89.9,98,3.783,3.797,3.804,3.818,3.833,3.798,20.612,69.8,14,Waypoint,
38.0977319,-120.1812627,4364.7871639514,126.31234,0,1.03428152916,18400,2018-05-09 19:13:27,18,0,22.844,4364.7871639514,126.31234,0.223694,1.5430282646,0,0,-0.671082,125.2, 1.5, 2.8,0,0,1024,1024,1024,1024,124,-89.9,98,3.783,3.797,3.804,3.818,3.833,3.798,20.612,69.8,14,Waypoint,
38.0977318,-120.1812627,4365.7714159514,127.296592,0,1.03363848452,18500,2018-05-09 19:13:27,18,0,22.844,4365.7714159514,127.296592,0.223694,1.5430282646,0,0,-0.671082,125.1, 1.4, 2.4,0,0,1024,1024,1024,1024,124,-89.9,98,3.783,3.797,3.804,3.818,3.833,3.798,20.612,69.8,14,Waypoint,
38.0977318,-120.1812627,4366.7556679514,128.280844,0,1.03363848452,18600,2018-05-09 19:13:27,18,0,22.844,4366.7556679514,128.280844,0.223694,1.5430282646,0,0,-0.671082,125.2, 1.2, 2.5,0,0,1024,1024,1024,1024,124,-89.9,98,3.783,3.797,3.804,3.818,3.833,3.798,20.612,69.8,14,Waypoint,
38.0977318,-120.1812628,4367.7399199514,129.265096,0,1.00492457284,18700,2018-05-09 19:13:27,18,0,22.844,4367.7399199514,129.265096,0.223694,1.5430282646,0,0,-0.671082,125.4, 1.1, 2.2,0,0,1024,1024,1024,1024,124,-89.9,98,3.783,3.797,3.804,3.818,3.833,3.798,20.612,69.8,14,Waypoint,
38.0977318,-120.1812627,4368.7241719514,130.249348,0,1.03363848452,18800,2018-05-09 19:13:28,18,0,22.844,4368.7241719514,130.249348,0.223694,1.5430282646,0,0,-0.671082,125.6, 1.4, 2.4,0,0,1024,1024,1024,1024,124,-89.9,98,3.783,3.797,3.804,3.818,3.833,3.798,20.612,69.8,14,Waypoint,
38.0977318,-120.1812627,4369.7084239514,131.2336,0,1.03363848452,18900,2018-05-09 19:13:28,18,0,22.844,4369.7084239514,131.2336,0.223694,1.5430282646,0,0,-0.671082,125.8, 1.8, 2.7,0,0,1024,1024,1024,1024,124,-89.9,98,3.783,3.797,3.804,3.818,3.833,3.798,20.612,69.8,14,Waypoint,
38.0977318,-120.1812627,4370.6926759514,132.217852,0,1.03363848452,19000,2018-05-09 19:13:28,18,0,22.737,4370.6926759514,132.217852,0.223694,1.5430282646,0,0,-0.671082,125.8, 2.1, 2.8,0,0,1024,1024,1024,1024,124,-89.9,97,3.772,3.788,3.794,3.805,3.812,3.79,21.041,69.8,14,Waypoint,
38.0977318,-120.1812626,4371.6769279514,133.202104,0,1.06234911536,19100,2018-05-09 19:13:28,18,0,22.737,4371.6769279514,133.202104,0.223694,1.5430282646,0,0,-0.671082,125.6, 1.9, 2.8,0,0,1024,1024,1024,1024,124,-89.9,97,3.772,3.788,3.794,3.805,3.812,3.79,21.041,69.8,14,Waypoint,
38.0977318,-120.1812626,4372.6611799514,134.186356,0,1.06234911536,19200,2018-05-09 19:13:28,18,0,22.737,4372.6611799514,134.186356,0.223694,1.5430282646,0,0,-0.671082,125.2, 1.7, 2.9,0,0,1024,1024,1024,1024,124,-89.9,97,3.772,3.788,3.794,3.805,3.812,3.79,21.041,69.8,14,Waypoint,
38.0977319,-120.1812626,4373.6454319514,135.170608,0,1.0629757558,19400,2018-05-09 19:13:28,18,0,22.737,4373.6454319514,135.170608,0.223694,1.5430282646,0,0,-0.671082,124.9, 1.4, 2.9,0,0,1024,1024,1024,1024,124,-90,97,3.772,3.788,3.794,3.805,3.812,3.79,21.041,69.8,14,Waypoint,
38.0977319,-120.1812626,4374.9577679514,136.482944,0,1.0629757558,19500,2018-05-09 19:13:28,18,0,22.737,4374.9577679514,136.482944,0.223694,1.5430282646,0,0,-0.671082,124.6, 0.9, 2.9,0,0,1024,1024,1024,1024,124,-90,97,3.772,3.788,3.794,3.805,3.812,3.79,21.041,69.8,14,Waypoint,
38.097732,-120.1812627,4375.6139359514,137.139112,0,1.03621066308,19600,2018-05-09 19:13:28,18,0,22.737,4375.6139359514,137.139112,0.223694,1.5430282646,0,0,-0.671082,124.5, 0.5, 3.1,0,0,1024,1024,1024,1024,124,-90,97,3.772,3.788,3.794,3.805,3.812,3.79,21.041,69.8,14,Waypoint,
38.0977321,-120.1812627,4377.9105239514,139.4357,0,1.03941604376,19700,2018-05-09 19:13:28,18,0,22.737,4377.9105239514,139.4357,0.223694,1.5430282646,0,0,-0.671082,124.6, 0.6, 2.6,0,0,1024,1024,1024,1024,124,-89.9,97,3.772,3.788,3.794,3.805,3.812,3.79,21.041,69.8,14,Waypoint,
38.0977321,-120.1812627,4378.8947759514,140.419952,0,1.03941604376,19800,2018-05-09 19:13:29,18,0,22.737,4378.8947759514,140.419952,0.223694,1.5430282646,0,0,-0.671082,124.7, 0.7, 2.4,0,0,1024,1024,1024,1024,124,-89.9,97,3.772,3.788,3.794,3.805,3.812,3.79,21.041,69.8,14,Waypoint,
38.0977321,-120.1812627,4379.8790279514,141.404204,0,1.03941604376,19910,2018-05-09 19:13:29,18,0,22.737,4379.8790279514,141.404204,0.223694,1.5430282646,0,0,-0.671082,124.7, 0.9, 2.9,0,0,1024,1024,1024,1024,124,-89.9,97,3.772,3.788,3.794,3.805,3.812,3.79,21.041,69.8,14,Waypoint,
38.0977323,-120.1812627,4381.8475319514,143.372708,0.223694,1.04961289448,20100,2018-05-09 19:13:29,18,0,22.737,4381.8475319514,143.372708,0.223694,1.5430282646,0,0,-0.671082,124.6, 0.5, 3.3,0,0,1024,1024,1024,1024,124,-89.9,97,3.772,3.788,3.794,3.805,3.812,3.79,21.041,69.8,14,Waypoint,
38.0977324,-120.1812626,4383.1598679514,144.685044,0.223694,1.08466866988,20200,2018-05-09 19:13:29,18,0,22.737,4383.1598679514,144.685044,0.223694,1.5430282646,0,0,-0.671082,124.6, 0.2, 3.7,0,0,1024,1024,1024,1024,124,-89.9,97,3.772,3.788,3.794,3.805,3.812,3.79,21.041,69.8,14,Waypoint,
38.0977326,-120.1812625,4384.1441199514,145.669296,0.3131716,1.12942917,20400,2018-05-09 19:13:29,18,0,22.737,4384.1441199514,145.669296,0.3131716,1.5430282646,0,0,-0.671082,124.6, 0, 4.6,0,0,1024,1024,1024,1024,124,-89.9,97,3.772,3.788,3.794,3.805,3.812,3.79,21.041,69.8,14,Waypoint,
38.0977328,-120.1812624,4385.1283719514,146.653548,0.3131716,1.17771329228,20500,2018-05-09 19:13:29,18,0,22.737,4385.1283719514,146.653548,0.3131716,1.5430282646,0,0,-0.671082,124.6, 0.1, 5.5,0,0,1024,1024,1024,1024,124,-89.9,97,3.772,3.788,3.794,3.805,3.812,3.79,21.041,69.8,14,Waypoint,
38.0977329,-120.1812623,4386.1126239514,147.6378,0.3131716,1.21659124628,20600,2018-05-09 19:13:29,18,0,22.737,4386.1126239514,147.6378,0.3131716,1.5430282646,0,0,-0.671082,124.7, 0.6, 6.3,0,0,1024,1024,1024,1024,124,-89.9,97,3.772,3.788,3.794,3.805,3.812,3.79,21.041,69.8,14,Waypoint,
38.0977331,-120.1812621,4387.0968759514,148.622052,0.3131716,1.2958333748,20700,2018-05-09 19:13:29,18,0,22.737,4387.0968759514,148.622052,0.3131716,1.5430282646,0,0,-0.671082,124.8, 0.9, 6.8,0,0,1024,1024,1024,1024,124,-89.9,97,3.772,3.788,3.794,3.805,3.812,3.79,21.041,69.8,14,Waypoint,
38.0977332,-120.181262,4388.0811279514,149.606304,0.3131716,1.33611224748,20800,2018-05-09 19:13:30,18,0,22.737,4388.0811279514,149.606304,0.3131716,1.5430282646,0,0,-0.671082,124.9, 0.9, 7.2,0,0,1024,1024,1024,1024,124,-89.9,97,3.772,3.788,3.794,3.805,3.812,3.79,21.041,69.8,14,Waypoint,
38.0977333,-120.1812619,4389.0653799514,150.590556,0.3131716,1.37678154012,20900,2018-05-09 19:13:30,18,0,22.737,4389.0653799514,150.590556,0.3131716,1.5430282646,0,0,-0.671082,125, 1, 7.2,0,0,1024,1024,1024,1024,124,-89.9,97,3.772,3.788,3.794,3.805,3.812,3.79,21.041,69.8,14,Waypoint,
38.0977334,-120.1812618,4390.0496319514,151.574808,0.223694,1.41780188264,21100,2018-05-09 19:13:30,18,0,22.737,4390.0496319514,151.574808,0.3131716,1.5430282646,0,0,-0.671082,125.1, 1.2, 7,0,0,1024,1024,1024,1024,124,-89.9,97,3.772,3.788,3.794,3.805,3.812,3.79,21.041,69.8,14,Waypoint,
38.0977335,-120.1812617,4390.7057999514,152.230976,0,1.45914702832,21200,2018-05-09 19:13:30,18,0,22.737,4390.7057999514,152.230976,0.3131716,1.5430282646,0,0,-0.671082,125.1, 1.3, 6.7,0,0,1024,1024,1024,1024,124,-89.9,97,3.772,3.788,3.794,3.805,3.812,3.79,21.041,69.8,14,Waypoint,
38.0977335,-120.1812617,4391.6900519514,153.215228,0,1.45914702832,21300,2018-05-09 19:13:30,18,0,22.737,4391.6900519514,153.215228,0.3131716,1.5430282646,0,0,-0.671082,125.2, 1.4, 6.3,0,0,1024,1024,1024,1024,124,-89.9,97,3.772,3.788,3.794,3.805,3.812,3.79,21.041,69.8,14,Waypoint,
38.0977336,-120.1812616,4392.6743039514,154.19948,0,1.5007874496,21400,2018-05-09 19:13:30,18,0,22.737,4392.6743039514,154.19948,0.3131716,1.5430282646,0,0,-0.671082,125.2, 1.6, 6.2,0,0,1024,1024,1024,1024,124,-89.9,97,3.772,3.788,3.794,3.805,3.812,3.79,21.041,69.8,14,Waypoint,
38.0977336,-120.1812616,4393.3304719514,154.855648,0,1.5007874496,21530,2018-05-09 19:13:30,18,0,22.737,4393.3304719514,154.855648,0.3131716,1.5430282646,0,0,-0.671082,125.1, 1.5, 5.8,0,0,1024,1024,1024,1024,124,-89.9,97,3.772,3.788,3.794,3.805,3.812,3.79,21.041,69.8,14,Waypoint,
38.0977336,-120.1812616,4393.3304719514,154.855648,0,1.5007874496,21600,2018-05-09 19:13:30,18,0,22.737,4393.3304719514,154.855648,0.3131716,1.5430282646,0,0,-0.671082,125.1, 1.5, 5.8,0,0,1024,1024,1024,1024,124,-89.9,97,3.772,3.788,3.794,3.805,3.812,3.79,21.041,69.8,14,Waypoint,
38.0977336,-120.1812615,4394.9708919514,156.496068,0,1.526656873,21800,2018-05-09 19:13:31,18,0,22.737,4394.9708919514,156.496068,0.3131716,1.5430282646,0,0,-0.671082,125.1, 1.3, 5.5,0,0,1024,1024,1024,1024,124,-89.9,97,3.772,3.788,3.794,3.805,3.812,3.79,21.041,69.8,14,Waypoint,
38.0977335,-120.1812615,4396.9393959514,158.464572,0,1.51132222684,22000,2018-05-09 19:13:31,19,0,22.717,4396.9393959514,158.464572,0.3131716,1.5430282646,0,0,-0.671082,125.1, 1.4, 5.5,0,0,1024,1024,1024,1024,124,-89.9,97,3.776,3.782,3.786,3.802,3.821,3.778,20.61,71.6,14,Waypoint,
38.0977335,-120.1812614,4398.5798159514,160.104992,0,1.5375492618,22100,2018-05-09 19:13:31,19,0,22.717,4398.5798159514,160.104992,0.3131716,1.5430282646,0,0,-0.671082,125, 1.3, 5.8,0,0,1024,1024,1024,1024,124,-89.9,97,3.776,3.782,3.786,3.802,3.821,3.778,20.61,71.6,14,Waypoint,
38.0977335,-120.1812614,4399.5640679514,161.089244,0,1.5375492618,22200,2018-05-09 19:13:31,19,0,22.717,4399.5640679514,161.089244,0.3131716,1.5430282646,0,0,-0.671082,124.9, 1.5, 6.2,0,0,1024,1024,1024,1024,124,-89.9,97,3.776,3.782,3.786,3.802,3.821,3.778,20.61,71.6,14,Waypoint,
38.0977334,-120.1812613,4402.5168239514,164.042,0,1.54975726744,22500,2018-05-09 19:13:31,19,0,22.717,4402.5168239514,164.042,0.3131716,1.54975726744,0,0,-0.671082,125.3, 2.4, 5.6,0,0,1024,1024,1024,1024,124,-89.9,97,3.776,3.782,3.786,3.802,3.821,3.778,20.61,71.6,14,Waypoint,
38.0977333,-120.1812613,4403.5010759514,165.026252,0,1.5363845636,22600,2018-05-09 19:13:31,19,0,22.717,4403.5010759514,165.026252,0.3131716,1.54975726744,0,0,-0.671082,125.5, 2.5, 4.9,0,0,1024,1024,1024,1024,124,-89.9,97,3.776,3.782,3.786,3.802,3.821,3.778,20.61,71.6,14,Waypoint,
38.0977331,-120.1812615,4405.4695799514,166.994756,0,1.45751645084,22700,2018-05-09 19:13:31,19,0,22.717,4405.4695799514,166.994756,0.3131716,1.54975726744,0,0,-0.671082,125.5, 1.8, 4.6,0,0,1024,1024,1024,1024,124,-89.9,97,3.776,3.782,3.786,3.802,3.821,3.778,20.61,71.6,14,Waypoint,
38.097733,-120.1812616,4406.4538319514,167.979008,0,1.418717237,22800,2018-05-09 19:13:32,18,0,22.717,4406.4538319514,167.979008,0.3131716,1.54975726744,0,0,-0.671082,125.4, 1.4, 4.7,0,0,1024,1024,1024,1024,124,-90,97,3.776,3.782,3.786,3.802,3.821,3.778,20.61,71.6,14,Waypoint,
38.097733,-120.1812616,4407.4380839514,168.96326,0,1.418717237,23000,2018-05-09 19:13:32,18,0,22.734,4407.4380839514,168.96326,0.3131716,1.54975726744,0,0,-0.671082,125.4, 1.3, 4.8,0,0,1024,1024,1024,1024,124,-89.9,97,3.802,3.813,3.809,3.809,3.843,3.8,20.499,71.6,14,Waypoint,
38.0977329,-120.1812617,4408.4223359514,169.947512,0,1.38039046412,23100,2018-05-09 19:13:32,18,0,22.734,4408.4223359514,169.947512,0.3131716,1.54975726744,0,0,-0.671082,125.3, 1.4, 4.9,0,0,1024,1024,1024,1024,124,-89.9,97,3.802,3.813,3.809,3.809,3.843,3.8,20.499,71.6,14,Waypoint,
38.0977329,-120.1812617,4409.4065879514,170.931764,0,1.38039046412,23200,2018-05-09 19:13:32,18,0,22.734,4409.4065879514,170.931764,0.3131716,1.54975726744,0,0,-0.671082,125.3, 1.5, 5,0,0,1024,1024,1024,1024,124,-89.9,97,3.802,3.813,3.809,3.809,3.843,3.8,20.499,71.6,14,Waypoint,
38.0977329,-120.1812618,4410.3908399514,171.916016,0,1.35294295668,23300,2018-05-09 19:13:32,19,0,22.734,4410.3908399514,171.916016,0.3131716,1.54975726744,0,0,-0.671082,125.2, 1.6, 5,0,0,1024,1024,1024,1024,124,-89.9,97,3.802,3.813,3.809,3.809,3.843,3.8,20.499,71.6,14,Waypoint,
38.0977328,-120.1812618,4411.3750919514,172.900268,0,1.34257222144,23500,2018-05-09 19:13:32,19,0,22.734,4411.3750919514,172.900268,0.3131716,1.54975726744,0,0,-0.671082,125.2, 1.7, 5.1,0,0,1024,1024,1024,1024,124,-89.9,97,3.802,3.813,3.809,3.809,3.843,3.8,20.499,71.6,14,Waypoint,
38.0977327,-120.1812619,4413.3435959514,174.868772,0,1.30531172156,23600,2018-05-09 19:13:32,18,0,22.734,4413.3435959514,174.868772,0.3131716,1.54975726744,0,0,-0.671082,125.2, 1.5, 4.8,0,0,1024,1024,1024,1024,124,-89.9,97,3.802,3.813,3.809,3.809,3.843,3.8,20.499,71.6,14,Waypoint,
38.0977327,-120.181262,4414.3278479514,175.853024,0,1.2775426918,23700,2018-05-09 19:13:32,18,0,22.734,4414.3278479514,175.853024,0.3131716,1.54975726744,0,0,-0.671082,125.2, 1.4, 4.7,0,0,1024,1024,1024,1024,124,-89.9,97,3.802,3.813,3.809,3.809,3.843,3.8,20.499,71.6,14,Waypoint,
38.0977327,-120.181262,4415.3120999514,176.837276,0,1.2775426918,23900,2018-05-09 19:13:33,18,0,22.734,4415.3120999514,176.837276,0.3131716,1.54975726744,0,0,-0.671082,125.2, 1.3, 4.9,0,0,1024,1024,1024,1024,124,-89.9,97,3.802,3.813,3.809,3.809,3.843,3.8,20.499,71.6,14,Waypoint,
38.0977327,-120.1812621,4416.2963519514,177.821528,0,1.24981631296,24000,2018-05-09 19:13:33,18,0,22.734,4416.2963519514,177.821528,0.3131716,1.54975726744,0,0,-0.671082,125.2, 1.4, 5,0,0,1024,1024,1024,1024,124,-89.9,97,3.77,3.77,3.789,3.793,3.817,3.783,20.499,71.6,14,Waypoint,
38.0977327,-120.1812621,4418.5929399514,180.118116,0,1.24981631296,24110,2018-05-09 19:13:33,18,0,22.734,4418.5929399514,180.118116,0.3131716,1.54975726744,0,0,-0.671082,125.2, 1.7, 5.3,0,0,1024,1024,1024,1024,124,-89.9,97,3.77,3.77,3.789,3.793,3.817,3.783,20.499,71.6,14,Waypoint,
38.0977327,-120.1812622,4419.5771919514,181.102368,0,1.22213914672,24200,2018-05-09 19:13:33,18,0,22.734,4419.5771919514,181.102368,0.3131716,1.54975726744,0,0,-0.671082,125.2, 1.6, 5.3,0,0,1024,1024,1024,1024,124,-89.9,97,3.77,3.77,3.789,3.793,3.817,3.783,20.499,71.6,14,Waypoint,
38.0977326,-120.1812622,4420.5614439514,182.08662,0,1.212844527,24400,2018-05-09 19:13:33,18,0,22.734,4420.5614439514,182.08662,0.3131716,1.54975726744,0,0,-0.671082,125.2, 1.6, 5.1,0,0,1024,1024,1024,1024,124,-89.9,97,3.77,3.77,3.789,3.793,3.817,3.783,20.499,71.6,14,Waypoint,
38.0977325,-120.1812623,4423.5141999514,185.039376,0,1.1765420324,24600,2018-05-09 19:13:33,18,0,22.734,4423.5141999514,185.039376,0.3131716,1.54975726744,0,0,-0.671082,125.2, 1.8, 4.4,0,0,1024,1024,1024,1024,124,-89.9,97,3.77,3.77,3.789,3.793,3.817,3.783,20.499,71.6,14,Waypoint,
38.0977324,-120.1812623,4424.1703679514,185.695544,0,1.16916342324,24700,2018-05-09 19:13:33,18,0,22.734,4424.1703679514,185.695544,0.3131716,1.54975726744,0,0,-0.671082,125.1, 1.7, 4.5,0,0,1024,1024,1024,1024,124,-89.9,97,3.77,3.77,3.789,3.793,3.817,3.783,20.499,71.6,14,Waypoint,
38.0977324,-120.1812624,4425.1546199514,186.679796,0,1.14097116512,24800,2018-05-09 19:13:34,18,0,22.734,4425.1546199514,186.679796,0.3131716,1.54975726744,0,0,-0.671082,125.2, 1.7, 4.6,0,0,1024,1024,1024,1024,124,-89.9,97,3.77,3.77,3.789,3.793,3.817,3.783,20.499,71.6,14,Waypoint,
38.0977324,-120.1812624,4426.1388719514,187.664048,0,1.14097116512,25220,2018-05-09 19:13:34,18,0,22.734,4426.1388719514,187.664048,0.3131716,1.54975726744,0,0,-0.671082,125.2, 1.5, 5,0,0,1024,1024,1024,1024,124,-89.9,97,3.77,3.77,3.789,3.793,3.817,3.783,20.499,71.6,14,Waypoint,
38.0977324,-120.1812624,4427.1231239514,188.6483,0,1.14097116512,25520,2018-05-09 19:13:34,18,0,22.734,4427.1231239514,188.6483,0.3131716,1.54975726744,0,0,-0.671082,125.2, 1.5, 5.1,0,0,1024,1024,1024,1024,124,-89.9,97,3.77,3.77,3.789,3.793,3.817,3.783,20.499,71.6,14,Waypoint,
38.0977323,-120.1812625,4429.0916279514,190.616804,0,1.10620738448,25700,2018-05-09 19:13:34,18,0,22.734,4429.0916279514,190.616804,0.3131716,1.54975726744,0,0,-0.671082,125.3, 1.4, 4.8,0,0,1024,1024,1024,1024,124,-89.9,97,3.77,3.77,3.789,3.793,3.817,3.783,20.499,71.6,14,Waypoint,
38.0977317,-120.1812628,4435.3252239514,196.8504,0,1.00558730252,26000,2018-05-09 19:13:35,18,0,22.688,4435.3252239514,196.8504,0.3131716,1.54975726744,0,0,-0.671082,125.3, 2.4, 3.8,0,0,1024,1024,1024,1024,124,-89.9,97,3.763,3.77,3.783,3.787,3.804,3.771,20.786,71.6,14,Waypoint,
38.0977317,-120.1812628,4436.3094759514,197.834652,0,1.00558730252,26200,2018-05-09 19:13:35,18,0,22.688,4436.3094759514,197.834652,0.3131716,1.54975726744,0,0,-0.671082,125.2, 2.4, 3.9,0,0,1024,1024,1024,1024,124,-89.9,97,3.763,3.77,3.783,3.787,3.804,3.771,20.786,71.6,14,Waypoint,
38.0977315,-120.1812633,4445.4958279514,207.021004,0,0.8682907102,27510,2018-05-09 19:13:36,18,0,22.688,4445.4958279514,207.021004,0.3131716,1.54975726744,0,0,-0.671082,125.1, 1, 4.4,0,0,1024,1024,1024,1024,124,-90,97,3.763,3.77,3.783,3.787,3.804,3.771,20.786,71.6,14,Waypoint,
38.0977315,-120.1812636,4450.7451719514,212.270348,0,0.78291669172,27600,2018-05-09 19:13:36,18,0,22.688,4450.7451719514,212.270348,0.3131716,1.54975726744,0,0,-0.671082,124.8, 1.1, 3.9,0,0,1024,1024,1024,1024,124,-90,97,3.763,3.77,3.783,3.787,3.804,3.771,20.786,71.6,14,Waypoint,
38.0977316,-120.1812639,4457.3068519514,218.832028,0,0.6929462164,27720,2018-05-09 19:13:36,18,0,22.688,4457.3068519514,218.832028,0.3131716,1.54975726744,0,0,-0.671082,125.3, 1.2, 4.3,0,0,1024,1024,1024,1024,124,-89.9,97,3.763,3.77,3.783,3.787,3.804,3.771,20.786,71.6,14,Waypoint,
38.0977317,-120.1812639,4458.2911039514,219.81628,0,0.69005579636,27810,2018-05-09 19:13:37,18,0,22.688,4458.2911039514,219.81628,0.3131716,1.54975726744,0,0,-0.671082,125.4, 1.2, 4.8,0,0,1024,1024,1024,1024,124,-89.9,97,3.763,3.77,3.783,3.787,3.804,3.771,20.786,71.6,14,Waypoint,
38.0977317,-120.1812639,4459.2753559514,220.800532,0,0.69005579636,27900,2018-05-09 19:13:37,18,0,22.688,4459.2753559514,220.800532,0.3131716,1.54975726744,0,0,-0.671082,125.4, 1.3, 4.3,0,0,1024,1024,1024,1024,124,-89.9,97,3.763,3.77,3.783,3.787,3.804,3.771,20.786,71.6,14,Waypoint,
38.0977317,-120.1812639,4460.2596079514,221.784784,0,0.69005579636,28000,2018-05-09 19:13:37,18,0,22.628,4460.2596079514,221.784784,0.3131716,1.54975726744,0,0,-0.671082,125.4, 1.4, 4.2,0,0,1024,1024,1024,1024,124,-89.9,97,3.753,3.757,3.781,3.777,3.808,3.76,20.375,71.6,14,Waypoint,
38.0977316,-120.1812638,4461.2438599514,222.769036,0,0.72150264776,28100,2018-05-09 19:13:37,18,0,22.628,4461.2438599514,222.769036,0.3131716,1.54975726744,0,0,-0.671082,125.2, 1.2, 4,0,0,1024,1024,1024,1024,124,-89.9,97,3.753,3.757,3.781,3.777,3.808,3.76,20.375,71.6,14,Waypoint,
38.0977316,-120.1812638,4462.2281119514,223.753288,0,0.72150264776,28300,2018-05-09 19:13:37,18,0,22.628,4462.2281119514,223.753288,0.3131716,1.54975726744,0,0,-0.671082,125.1, 1, 3.9,0,0,1024,1024,1024,1024,124,-89.9,97,3.753,3.757,3.781,3.777,3.808,3.76,20.375,71.6,14,Waypoint,
38.0977317,-120.1812637,4463.2123639514,224.73754,0,0.7474081604,28400,2018-05-09 19:13:37,18,0,22.628,4463.2123639514,224.73754,0.3131716,1.54975726744,0,0,-0.671082,125, 1.1, 3.9,0,0,1024,1024,1024,1024,124,-89.9,97,3.753,3.757,3.781,3.777,3.808,3.76,20.375,71.6,14,Waypoint,
38.0977317,-120.1812637,4464.1966159514,225.721792,0.223694,0.7474081604,28500,2018-05-09 19:13:37,18,0,22.628,4464.1966159514,225.721792,0.3131716,1.54975726744,0,0,-0.671082,125, 1.2, 4.2,0,0,1024,1024,1024,1024,124,-89.9,97,3.753,3.757,3.781,3.777,3.808,3.76,20.375,71.6,14,Waypoint,
38.0977317,-120.1812636,4465.1808679514,226.706044,0.223694,0.77608598284,28600,2018-05-09 19:13:37,18,0,22.628,4465.1808679514,226.706044,0.3131716,1.54975726744,0,0,-0.671082,125.1, 1.5, 4.4,0,0,1024,1024,1024,1024,124,-89.9,97,3.753,3.757,3.781,3.777,3.808,3.76,20.375,71.6,14,Waypoint,
38.0977317,-120.1812635,4465.8370359514,227.362212,0.223694,0.80476708612,28700,2018-05-09 19:13:37,18,0,22.628,4465.8370359514,227.362212,0.3131716,1.54975726744,0,0,-0.671082,125.2, 1.8, 4.5,0,0,1024,1024,1024,1024,124,-89.9,97,3.753,3.757,3.781,3.777,3.808,3.76,20.375,71.6,14,Waypoint,
38.0977317,-120.1812634,4466.8212879514,228.346464,0.223694,0.83345147024,28800,2018-05-09 19:13:38,18,0,22.628,4466.8212879514,228.346464,0.3131716,1.54975726744,0,0,-0.671082,125.2, 1.9, 4.4,0,0,1024,1024,1024,1024,124,-89.9,97,3.753,3.757,3.781,3.777,3.808,3.76,20.375,71.6,14,Waypoint,
38.0977317,-120.1812633,4467.8055399514,229.330716,0.223694,0.86213585436,28900,2018-05-09 19:13:38,18,0,22.628,4467.8055399514,229.330716,0.3131716,1.54975726744,0,0,-0.671082,125, 2, 4.6,0,0,1024,1024,1024,1024,124,-89.9,97,3.753,3.757,3.781,3.777,3.808,3.76,20.375,71.6,14,Waypoint,
38.0977317,-120.1812632,4468.7897919514,230.314968,0.223694,0.89082351932,29000,2018-05-09 19:13:38,18,0,22.613,4468.7897919514,230.314968,0.3131716,1.54975726744,0,0,-0.671082,125.1, 2.1, 4.6,0,0,1024,1024,1024,1024,124,-89.9,96,3.746,3.757,3.771,3.773,3.803,3.755,20.839,71.6,14,Waypoint,
