latitude,longitude,altitude(feet),ascent(feet),speed(mph),distance(feet),time(millisecond),datetime(utc),satellites,gpslevel,voltage(v),max_altitude(feet),max_ascent(feet),max_speed(mph),max_distance(feet), xSpeed(mph), ySpeed(mph), zSpeed(mph), compass_heading(degrees), pitch(degrees), roll(degrees),isPhoto,isVideo,rc_elevator,rc_aileron,rc_throttle,rc_rudder,gimbal_heading(degrees),gimbal_pitch(degrees),battery_percent,voltageCell1,voltageCell2,voltageCell3,voltageCell4,voltageCell5,voltageCell6,current(A),battery_temperature(f),flycStateRaw,flycState,message
37.2865882,-119.5625611,4499.1117699558,0,0,0,3110,2018-04-11 20:16:36,16,0,0,4499.1117699558,0,0,0,0,0,0,317.5, 0, 0.5,1,0,1024,1024,1024,1024,316.5,-89.9,93,4.233,4.259,4.209,4.219,0,0,0,66.2,11,AutoTakeoff,
37.2865883,-119.5625614,4499.4398539558,0.328084,0.223694,0.094417982024,3300,2018-04-11 20:16:36,16,0,0,4499.4398539558,0.328084,0.223694,0.094417982024,0,0,0,317.4, 0.4, 0.5,0,0,1024,1024,1024,1024,316.5,-89.9,93,4.233,4.259,4.209,4.219,0,0,0,66.2,11,AutoTakeoff,
37.2865884,-119.5625615,4499.4398539558,0.328084,0.223694,0.137137143496,3400,2018-04-11 20:16:37,16,0,0,4499.4398539558,0.328084,0.223694,0.137137143496,0,0,0,317.3, 0.6, 0.1,0,0,1024,1024,1024,1024,316.5,-89.9,93,4.233,4.259,4.209,4.219,0,0,0,66.2,11,AutoTakeoff,
37.2865886,-119.5625616,4499.7679379558,0.656168,0.223694,0.20582513782,3500,2018-04-11 20:16:37,17,0,0,4499.7679379558,0.656168,0.223694,0.20582513782,0,0,0,317.3, 0.9, -0.2,0,0,1024,1024,1024,1024,316.5,-89.9,93,4.233,4.259,4.209,4.219,0,0,0,66.2,11,AutoTakeoff,
37.2865888,-119.5625616,4499.7679379558,0.656168,0.223694,0.262653879796,3600,2018-04-11 20:16:37,17,0,0,4499.7679379558,0.656168,0.223694,0.262653879796,0,0,0,317.3, 1.1, -0.8,0,0,1024,1024,1024,1024,316.5,-89.9,93,4.233,4.259,4.209,4.219,0,0,0,66.2,11,AutoTakeoff,
37.2865889,-119.5625617,4500.0960219558,0.984252,0.223694,0.309129274984,3700,2018-04-11 20:16:37,16,0,0,4500.0960219558,0.984252,0.223694,0.309129274984,0,0,0,317.3, 1.2, -1.1,0,0,1024,1024,1024,1024,316.5,-89.9,93,4.233,4.259,4.209,4.219,0,0,0,66.2,11,AutoTakeoff,
37.2865891,-119.5625618,4500.0960219558,0.984252,0.223694,0.38614830632,3800,2018-04-11 20:16:37,16,0,0,4500.0960219558,0.984252,0.223694,0.38614830632,0,0,0,317.4, 1.5, -1.1,0,0,1024,1024,1024,1024,316.5,-89.9,93,4.233,4.259,4.209,4.219,0,0,0,66.2,11,AutoTakeoff,
37.2865892,-119.5625619,4500.4241059558,1.312336,0.223694,0.43248360964,3900,2018-04-11 20:16:37,16,0,0,4500.4241059558,1.312336,0.223694,0.43248360964,0,0,0,317.4, 1.7, -1.2,0,0,1024,1024,1024,1024,316.5,-89.9,93,4.233,4.259,4.209,4.219,0,0,0,66.2,11,AutoTakeoff,
37.2865893,-119.562562,4500.4241059558,1.312336,0.223694,0.47887468724,4000,2018-04-11 20:16:37,16,0,24.404,4500.4241059558,1.312336,0.223694,0.47887468724,0,0,0,317.5, 2.1, -1.2,0,0,1024,1024,1024,1024,316.5,-89.9,93,4.233,4.259,4.209,4.219,0,0,14.388,66.2,11,AutoTakeoff,
37.2865894,-119.5625621,4500.7521899558,1.64042,0.223694,0.52530841576,4100,2018-04-11 20:16:37,17,0,24.404,4500.7521899558,1.64042,0.223694,0.52530841576,0,0,0,317.5, 2.4, -1.2,0,0,1024,1024,1024,1024,316.5,-89.9,93,4.233,4.259,4.209,4.219,0,0,14.388,66.2,11,AutoTakeoff,
37.2865894,-119.5625621,4500.7521899558,1.64042,0,0.52530841576,4200,2018-04-11 20:16:37,17,0,24.404,4500.7521899558,1.64042,0.223694,0.52530841576,0,0,-0.223694,317.6, 2.6, -1.1,0,0,1024,1024,1024,1024,316.5,-89.9,93,4.233,4.259,4.209,4.219,0,0,14.388,66.2,11,AutoTakeoff,
37.2865896,-119.5625623,4501.0802739558,1.968504,0,0.6182578938,4400,2018-04-11 20:16:38,17,0,24.404,4501.0802739558,1.968504,0.223694,0.6182578938,0,0,-0.223694,317.6, 2.4, -0.9,0,0,1024,1024,1024,1024,316.5,-89.9,93,4.233,4.259,4.209,4.219,0,0,14.388,66.2,11,AutoTakeoff,
37.2865896,-119.5625623,4501.4083579558,2.296588,0,0.6182578938,4600,2018-04-11 20:16:38,17,0,24.404,4501.4083579558,2.296588,0.223694,0.6182578938,0,0,-0.223694,317.6, 2.3, -0.8,0,0,1024,1024,1024,1024,316.5,-89.9,93,4.233,4.259,4.209,4.219,0,0,14.388,66.2,11,AutoTakeoff,
37.2865896,-119.5625623,4501.7364419558,2.624672,0,0.6182578938,4700,2018-04-11 20:16:38,17,0,24.404,4501.7364419558,2.624672,0.223694,0.6182578938,0,0,0,317.6, 2.2, -0.8,0,0,1024,1024,1024,1024,316.5,-89.9,93,4.233,4.259,4.209,4.219,0,0,14.388,66.2,11,AutoTakeoff,
37.2865896,-119.5625622,4501.7364419558,2.624672,0,0.60238190904,4800,2018-04-11 20:16:38,17,0,24.404,4501.7364419558,2.624672,0.223694,0.6182578938,0,0,0,317.4, 1.9, -0.8,0,0,1024,1024,1024,1024,316.5,-89.9,93,4.233,4.259,4.209,4.219,0,0,14.388,66.2,11,AutoTakeoff,
37.2865896,-119.5625622,4502.0645259558,2.952756,0,0.60238190904,4900,2018-04-11 20:16:38,17,0,24.404,4502.0645259558,2.952756,0.223694,0.6182578938,0,0,0,317.4, 1.8, -0.8,0,0,1024,1024,1024,1024,316.5,-89.9,93,4.233,4.259,4.209,4.219,0,0,14.388,66.2,14,Waypoint,
37.2865896,-119.5625621,4502.0645259558,2.952756,0,0.58750986132,5000,2018-04-11 20:16:38,17,0,24.404,4502.0645259558,2.952756,0.223694,0.6182578938,0,0,0,317.4, 1.6, -0.9,0,0,1024,1024,1024,1024,316.5,-89.9,93,4.041,4.024,4.042,4.056,0,0,14.388,66.2,14,Waypoint,
37.2865896,-119.5625621,4502.3926099558,3.28084,0,0.58750986132,5200,2018-04-11 20:16:38,17,0,24.404,4502.3926099558,3.28084,0.223694,0.6182578938,0,0,0,317.5, 0.3, -0.9,0,0,1024,1024,1024,1024,316.6,-90,93,4.041,4.024,4.042,4.056,0,0,14.388,66.2,14,Waypoint,
37.2865896,-119.5625622,4502.3926099558,3.28084,0,0.60238190904,5300,2018-04-11 20:16:38,17,0,24.404,4502.3926099558,3.28084,0.223694,0.6182578938,0,0,0,317.7, -0.1, -0.7,0,0,1024,1024,1024,1024,316.6,-90,93,4.041,4.024,4.042,4.056,0,0,14.388,66.2,14,Waypoint,
37.2865896,-119.5625621,4502.7206939558,3.608924,0,0.58750986132,5400,2018-04-11 20:16:39,17,0,24.404,4502.7206939558,3.608924,0.223694,0.6182578938,0,0,0,317.8, 0, -0.7,0,0,1024,1024,1024,1024,316.5,-90,93,4.041,4.024,4.042,4.056,0,0,14.388,66.2,14,Waypoint,
37.2865897,-119.5625621,4503.0487779558,3.937008,0,0.61949148964,5510,2018-04-11 20:16:39,17,0,24.404,4503.0487779558,3.937008,0.223694,0.61949148964,0,0,-0.223694,318, 0.6, -0.9,0,0,1024,1024,1024,1024,316.5,-89.9,93,4.041,4.024,4.042,4.056,0,0,14.388,66.2,14,Waypoint,
37.2865897,-119.5625622,4503.0487779558,3.937008,0,0.633612225,5600,2018-04-11 20:16:39,17,0,24.404,4503.0487779558,3.937008,0.223694,0.633612225,0,0,-0.223694,318, 0.9, -0.9,0,0,1024,1024,1024,1024,316.5,-89.9,93,4.041,4.024,4.042,4.056,0,0,14.388,66.2,14,Waypoint,
37.2865898,-119.5625622,4503.3768619558,4.265092,0,0.66538059872,5700,2018-04-11 20:16:39,17,0,24.404,4503.3768619558,4.265092,0.223694,0.66538059872,0,0,-0.223694,317.9, 1, -0.9,0,0,1024,1024,1024,1024,316.5,-89.9,93,4.041,4.024,4.042,4.056,0,0,14.388,66.2,14,Waypoint,
37.2865899,-119.5625622,4503.7049459558,4.593176,0,0.69761157088,5910,2018-04-11 20:16:39,17,0,24.404,4503.7049459558,4.593176,0.223694,0.69761157088,0,0,-0.223694,317.8, 1.2, -1,0,0,1024,1024,1024,1024,316.5,-89.9,93,4.041,4.024,4.042,4.056,0,0,14.388,66.2,14,Waypoint,
37.2865899,-119.5625622,4503.7049459558,4.593176,0,0.69761157088,6000,2018-04-11 20:16:39,17,0,24.062,4503.7049459558,4.593176,0.223694,0.69761157088,0,0,-0.223694,317.8, 1.2, -1,0,0,1024,1024,1024,1024,316.5,-89.9,93,3.996,4,3.998,4.009,0,0,16.108,66.2,14,Waypoint,
37.28659,-119.5625622,4504.3611139558,5.249344,0,0.73023952468,6100,2018-04-11 20:16:39,17,0,24.062,4504.3611139558,5.249344,0.223694,0.73023952468,0,0,-0.223694,317.6, 1.4, -1.2,0,0,1024,1024,1024,1024,316.5,-89.9,93,3.996,4,3.998,4.009,0,0,16.108,66.2,14,Waypoint,
37.2865901,-119.5625622,4504.6891979558,5.577428,0,0.76321852836,6200,2018-04-11 20:16:39,17,0,24.062,4504.6891979558,5.577428,0.223694,0.76321852836,0,0,-0.447388,317.4, 1.4, -1.4,0,0,1024,1024,1024,1024,316.6,-89.9,93,3.996,4,3.998,4.009,0,0,16.108,66.2,14,Waypoint,
37.2865902,-119.5625622,4505.3453659558,6.233596,0,0.79650265016,6300,2018-04-11 20:16:39,17,0,24.062,4505.3453659558,6.233596,0.223694,0.79650265016,0,0,-0.447388,317.4, 1.4, -1.3,0,0,1024,1024,1024,1024,316.6,-89.9,93,3.996,4,3.998,4.009,0,0,16.108,66.2,14,Waypoint,
37.2865903,-119.5625623,4506.6577019558,7.545932,0,0.8416502894,6410,2018-04-11 20:16:40,17,0,24.062,4506.6577019558,7.545932,0.223694,0.8416502894,0,0,-0.447388,317.2, 1.1, -1.1,0,0,1024,1024,1024,1024,316.6,-90,93,3.996,4,3.998,4.009,0,0,16.108,66.2,14,Waypoint,
37.2865904,-119.5625624,4507.3138699558,8.2021,0,0.88694884728,6500,2018-04-11 20:16:40,17,0,24.062,4507.3138699558,8.2021,0.223694,0.88694884728,0,0,-0.447388,317.2, 1, -1,0,0,1024,1024,1024,1024,316.6,-89.9,93,3.996,4,3.998,4.009,0,0,16.108,66.2,14,Waypoint,
37.2865905,-119.5625624,4508.2981219558,9.186352,0,0.92009845464,6600,2018-04-11 20:16:40,18,0,24.062,4508.2981219558,9.186352,0.223694,0.92009845464,0,0,-0.671082,317.3, 1.2, -1,0,0,1024,1024,1024,1024,316.6,-89.9,93,3.996,4,3.998,4.009,0,0,16.108,66.2,14,Waypoint,
37.2865906,-119.5625624,4509.2823739558,10.170604,0,0.95349084416,6700,2018-04-11 20:16:40,18,0,24.062,4509.2823739558,10.170604,0.223694,0.95349084416,0,0,-0.671082,317.4, 1.3, -1.2,0,0,1024,1024,1024,1024,316.6,-89.9,93,3.996,4,3.998,4.009,0,0,16.108,66.2,14,Waypoint,
37.2865908,-119.5625624,4510.2666259558,11.154856,0,1.02091210616,6800,2018-04-11 20:16:40,18,0,24.062,4510.2666259558,11.154856,0.223694,1.02091210616,0,0,-0.671082,317.6, 1.4, -1.5,0,0,1024,1024,1024,1024,316.6,-89.9,93,3.996,4,3.998,4.009,0,0,16.108,66.2,14,Waypoint,
37.2865909,-119.5625625,4511.2508779558,12.139108,0,1.06562667452,6900,2018-04-11 20:16:40,18,0,24.062,4511.2508779558,12.139108,0.223694,1.06562667452,0,0,-0.671082,317.8, 1.4, -1.8,0,0,1024,1024,1024,1024,316.7,-89.9,93,3.996,4,3.998,4.009,0,0,16.108,66.2,14,Waypoint,
37.286591,-119.5625626,4512.2351299558,13.12336,0,1.11050200404,7000,2018-04-11 20:16:40,18,0,23.937,4512.2351299558,13.12336,0.223694,1.11050200404,0,0,-0.671082,318, 1.5, -1.6,0,0,1024,1024,1024,1024,316.7,-89.9,93,3.97,4.073,3.974,3.985,0,0,15.539,66.2,14,Waypoint,
37.2865912,-119.5625628,4514.5317179558,15.419948,0,1.20064636388,7100,2018-04-11 20:16:40,19,0,23.937,4514.5317179558,15.419948,0.223694,1.20064636388,0,0,-0.671082,317.9, 2.1, -1,0,0,1024,1024,1024,1024,316.7,-89.9,93,3.97,4.073,3.974,3.985,0,0,15.539,66.2,14,Waypoint,
37.2865913,-119.562563,4515.5159699558,16.4042,0,1.25833993528,7200,2018-04-11 20:16:40,19,0,23.937,4515.5159699558,16.4042,0.223694,1.25833993528,0,0,-0.671082,317.9, 2.3, -0.8,0,0,1024,1024,1024,1024,316.7,-89.9,93,3.97,4.073,3.974,3.985,0,0,15.539,66.2,14,Waypoint,
37.2865913,-119.562563,4516.8283059558,17.716536,0,1.25833993528,7300,2018-04-11 20:16:40,18,0,23.937,4516.8283059558,17.716536,0.223694,1.25833993528,0,0,-0.671082,317.7, 2.4, -0.8,0,0,1024,1024,1024,1024,316.7,-89.9,93,3.97,4.073,3.974,3.985,0,0,15.539,66.2,14,Waypoint,
37.2865913,-119.562563,4518.7968099558,19.68504,0,1.25833993528,7500,2018-04-11 20:16:41,18,0,23.937,4518.7968099558,19.68504,0.223694,1.25833993528,0,0,-0.671082,317.2, 2.2, -1,0,0,1024,1024,1024,1024,316.7,-89.9,93,3.97,4.073,3.974,3.985,0,0,15.539,66.2,14,Waypoint,
37.2865913,-119.562563,4520.1091459558,20.997376,0,1.25833993528,7600,2018-04-11 20:16:41,18,0,23.937,4520.1091459558,20.997376,0.223694,1.25833993528,0,0,-0.671082,317, 2, -0.9,0,0,1024,1024,1024,1024,316.7,-89.9,93,3.97,4.073,3.974,3.985,0,0,15.539,66.2,14,Waypoint,
37.2865912,-119.5625631,4521.0933979558,21.981628,0,1.23898626012,7700,2018-04-11 20:16:41,17,0,23.937,4521.0933979558,21.981628,0.223694,1.25833993528,0,0,-0.671082,316.9, 1.9, -0.7,0,0,1024,1024,1024,1024,316.7,-89.9,93,3.97,4.073,3.974,3.985,0,0,15.539,66.2,14,Waypoint,
37.2865911,-119.5625631,4522.0776499558,22.96588,0,1.2068733982,7800,2018-04-11 20:16:41,17,0,23.937,4522.0776499558,22.96588,0.223694,1.25833993528,0,0,-0.671082,316.9, 1.5, -0.5,0,0,1024,1024,1024,1024,316.7,-89.9,93,3.97,4.073,3.974,3.985,0,0,15.539,66.2,14,Waypoint,
37.286591,-119.562563,4523.0619019558,23.950132,0,1.16095148072,7900,2018-04-11 20:16:41,18,0,23.937,4523.0619019558,23.950132,0.223694,1.25833993528,0,0,-0.671082,317, 1.3, -0.2,0,0,1024,1024,1024,1024,316.7,-90,93,3.97,4.073,3.974,3.985,0,0,15.539,66.2,14,Waypoint,
37.286591,-119.5625629,4524.3742379558,25.262468,0,1.14744754328,8000,2018-04-11 20:16:41,18,0,23.502,4524.3742379558,25.262468,0.223694,1.25833993528,0,0,-0.671082,317.2, 1, -0.5,0,0,1024,1024,1024,1024,316.7,-90,93,3.863,3.905,3.889,3.902,0,0,21.774,66.2,14,Waypoint,
37.2865909,-119.5625628,4525.3584899558,26.24672,0,1.10178481216,8100,2018-04-11 20:16:41,17,0,23.502,4525.3584899558,26.24672,0.223694,1.25833993528,0,0,-0.671082,317.5, 0.8, -1.1,0,0,1024,1024,1024,1024,316.7,-90,93,3.863,3.905,3.889,3.902,0,0,21.774,66.2,14,Waypoint,
37.2865907,-119.5625627,4526.3427419558,27.230972,0,1.02356302488,8200,2018-04-11 20:16:41,17,0,23.502,4526.3427419558,27.230972,0.223694,1.25833993528,0,0,-0.671082,317.8, 0.6, -1.3,0,0,1024,1024,1024,1024,316.7,-90,93,3.863,3.905,3.889,3.902,0,0,21.774,66.2,14,Waypoint,
37.2865906,-119.5625627,4527.6550779558,28.543308,0,0.99118769576,8300,2018-04-11 20:16:41,17,0,23.502,4527.6550779558,28.543308,0.223694,1.25833993528,0,0,-0.671082,318.1, 0.8, -1.3,0,0,1024,1024,1024,1024,316.7,-90,93,3.863,3.905,3.889,3.902,0,0,21.774,66.2,14,Waypoint,
37.2865904,-119.5625626,4528.6393299558,29.52756,0,0.91316275888,8400,2018-04-11 20:16:42,17,0,23.502,4528.6393299558,29.52756,0.223694,1.25833993528,0,0,-0.671082,318.3, 0.9, -1,0,0,1024,1024,1024,1024,316.7,-90,93,3.863,3.905,3.889,3.902,0,0,21.774,66.2,14,Waypoint,
37.2865903,-119.5625626,4529.6235819558,30.511812,0,0.8812664324,8500,2018-04-11 20:16:42,17,0,23.502,4529.6235819558,30.511812,0.223694,1.25833993528,0,0,-0.671082,318.4, 0.7, -0.8,0,0,1024,1024,1024,1024,316.7,-90,93,3.863,3.905,3.889,3.902,0,0,21.774,66.2,14,Waypoint,
37.2865901,-119.5625625,4530.6078339558,31.496064,0.223694,0.80355317532,8610,2018-04-11 20:16:42,17,0,23.502,4530.6078339558,31.496064,0.223694,1.25833993528,0,0,-0.671082,318.4, 0.4, -0.6,0,0,1024,1024,1024,1024,316.7,-90,93,3.863,3.905,3.889,3.902,0,0,21.774,66.2,14,Waypoint,
37.2865899,-119.5625624,4531.9201699558,32.8084,0.223694,0.72602036444,8700,2018-04-11 20:16:42,16,0,23.502,4531.9201699558,32.8084,0.223694,1.25833993528,0,0,-0.671082,318.4, 0.1, -0.4,0,0,1024,1024,1024,1024,316.7,-90,93,3.863,3.905,3.889,3.902,0,0,21.774,66.2,14,Waypoint,
37.2865897,-119.5625623,4532.9044219558,33.792652,0.223694,0.64872705488,8810,2018-04-11 20:16:42,16,0,23.502,4532.9044219558,33.792652,0.223694,1.25833993528,0,0,-0.671082,318.2, -0.2, -0.2,0,0,1024,1024,1024,1024,316.7,-90,93,3.863,3.905,3.889,3.902,0,0,21.774,66.2,14,Waypoint,
37.2865895,-119.5625623,4533.8886739558,34.776904,0.223694,0.58847442828,8900,2018-04-11 20:16:42,17,0,23.502,4533.8886739558,34.776904,0.223694,1.25833993528,0,0,-0.671082,317.9, -0.7, 0.1,0,0,1024,1024,1024,1024,316.7,-90,93,3.863,3.905,3.889,3.902,0,0,21.774,66.2,14,Waypoint,
37.2865893,-119.5625623,4534.8729259558,35.761156,0.223694,0.53142062068,9100,2018-04-11 20:16:42,17,0,23.502,4534.8729259558,35.761156,0.223694,1.25833993528,0,0,-0.671082,317.7, -1.2, 0.3,0,0,1024,1024,1024,1024,316.7,-90,93,3.863,3.905,3.889,3.902,0,0,21.774,66.2,14,Waypoint,
37.2865889,-119.5625622,4537.8256819558,38.713912,0,0.40888124668,9210,2018-04-11 20:16:42,17,0,23.502,4537.8256819558,38.713912,0.223694,1.25833993528,0,0,-0.671082,317.3, -0.5, 0,0,0,1024,1024,1024,1024,316.7,-90,93,3.863,3.905,3.889,3.902,0,0,21.774,66.2,14,Waypoint,
37.2865888,-119.5625622,4538.8099339558,39.698164,0,0.38714240084,9400,2018-04-11 20:16:43,17,0,23.502,4538.8099339558,39.698164,0.223694,1.25833993528,0,0,-0.671082,317.4, -0.3, 0,0,0,1024,1024,1024,1024,316.7,-90,93,3.863,3.905,3.889,3.902,0,0,21.774,66.2,14,Waypoint,
37.2865887,-119.5625622,4539.7941859558,40.682416,0,0.36774607476,9500,2018-04-11 20:16:43,17,0,23.502,4539.7941859558,40.682416,0.223694,1.25833993528,0,0,-0.671082,317.5, -0.3, 0,0,0,1024,1024,1024,1024,316.7,-90,93,3.863,3.905,3.889,3.902,0,0,21.774,66.2,14,Waypoint,
37.2865886,-119.5625622,4541.1065219558,41.994752,0,0.35107940756,9600,2018-04-11 20:16:43,17,0,23.502,4541.1065219558,41.994752,0.223694,1.25833993528,0,0,-0.671082,317.5, -0.3, 0,0,0,1024,1024,1024,1024,316.7,-90,93,3.863,3.905,3.889,3.902,0,0,21.774,66.2,14,Waypoint,
37.2865886,-119.5625622,4542.0907739558,42.979004,0,0.35107940756,9700,2018-04-11 20:16:43,17,0,23.502,4542.0907739558,42.979004,0.223694,1.25833993528,0,0,-0.671082,317.6, -0.5, 0,0,0,1024,1024,1024,1024,316.7,-89.9,93,3.863,3.905,3.889,3.902,0,0,21.774,66.2,14,Waypoint,
37.2865885,-119.5625622,4543.0750259558,43.963256,0,0.33754594256,9800,2018-04-11 20:16:43,17,0,23.502,4543.0750259558,43.963256,0.223694,1.25833993528,0,0,-0.671082,317.6, -0.4, -0.2,0,0,1024,1024,1024,1024,316.7,-89.9,93,3.863,3.905,3.889,3.902,0,0,21.774,66.2,14,Waypoint,
37.2865885,-119.5625622,4544.0592779558,44.947508,0,0.33754594256,9900,2018-04-11 20:16:43,17,0,23.502,4544.0592779558,44.947508,0.223694,1.25833993528,0,0,-0.671082,317.8, 0, -0.1,0,0,1024,1024,1024,1024,316.7,-89.9,93,3.863,3.905,3.889,3.902,0,0,21.774,66.2,14,Waypoint,
37.2865885,-119.5625622,4545.0435299558,45.93176,0,0.33754594256,10000,2018-04-11 20:16:43,17,0,23.491,4545.0435299558,45.93176,0.223694,1.25833993528,0,0,-0.671082,317.8, 0.3, -0.2,0,0,1024,1024,1024,1024,316.7,-89.9,93,3.897,3.93,3.93,3.938,0,0,18.88,66.2,14,Waypoint,
37.2865886,-119.5625622,4546.0277819558,46.916012,0.223694,0.35107940756,10100,2018-04-11 20:16:43,17,0,23.491,4546.0277819558,46.916012,0.223694,1.25833993528,0,0,-0.671082,317.7, 0.7, 0,0,0,1024,1024,1024,1024,316.7,-89.9,93,3.897,3.93,3.93,3.938,0,0,18.88,66.2,14,Waypoint,
37.2865886,-119.5625622,4547.0120339558,47.900264,0.223694,0.35107940756,10200,2018-04-11 20:16:43,17,0,23.491,4547.0120339558,47.900264,0.223694,1.25833993528,0,0,-0.671082,317.6, 1.2, -0.4,0,0,1024,1024,1024,1024,316.7,-89.9,93,3.897,3.93,3.93,3.938,0,0,18.88,66.2,14,Waypoint,
37.2865887,-119.5625622,4547.9962859558,48.884516,0.223694,0.36774607476,10300,2018-04-11 20:16:43,17,0,23.491,4547.9962859558,48.884516,0.223694,1.25833993528,0,0,-0.671082,317.5, 1.8, -0.8,0,0,1024,1024,1024,1024,316.7,-89.9,93,3.897,3.93,3.93,3.938,0,0,18.88,66.2,14,Waypoint,
37.286589,-119.5625622,4550.2928739558,51.181104,0.3131716,0.43260828156,10500,2018-04-11 20:16:44,18,0,23.491,4550.2928739558,51.181104,0.3131716,1.25833993528,0,0,-0.671082,317.5, 1.7, -1.9,0,0,1024,1024,1024,1024,316.7,-89.9,93,3.897,3.93,3.93,3.938,0,0,18.88,66.2,14,Waypoint,
37.2865892,-119.562562,4551.6052099558,52.49344,0.4921268,0.44874017184,10600,2018-04-11 20:16:44,18,0,23.491,4551.6052099558,52.49344,0.4921268,1.25833993528,0,0,-0.671082,317.5, 1.3, -2.9,0,0,1024,1024,1024,1024,316.7,-90,93,3.897,3.93,3.93,3.938,0,0,18.88,66.2,14,Waypoint,
37.2865894,-119.5625619,4552.9175459558,53.805776,0.4921268,0.49559384788,10700,2018-04-11 20:16:44,17,0,23.491,4552.9175459558,53.805776,0.4921268,1.25833993528,0,0,-0.671082,317.5, 1.1, -3.8,0,0,1024,1024,1024,1024,316.7,-89.9,93,3.897,3.93,3.93,3.938,0,0,18.88,66.2,14,Waypoint,
37.2865896,-119.5625618,4553.9017979558,54.790028,0.3131716,0.5497211462,10800,2018-04-11 20:16:44,17,0,23.491,4553.9017979558,54.790028,0.4921268,1.25833993528,0,0,-0.671082,317.6, 1.6, -4.4,0,0,1024,1024,1024,1024,316.7,-89.9,93,3.897,3.93,3.93,3.938,0,0,18.88,66.2,14,Waypoint,
37.2865897,-119.5625617,4554.8860499558,55.77428,0.3131716,0.57432088452,10900,2018-04-11 20:16:44,18,0,23.491,4554.8860499558,55.77428,0.4921268,1.25833993528,0,0,-0.671082,317.7, 2.1, -4.6,0,0,1024,1024,1024,1024,316.7,-89.9,93,3.897,3.93,3.93,3.938,0,0,18.88,66.2,14,Waypoint,
37.2865898,-119.5625615,4555.8703019558,56.758532,0.3131716,0.5951935886,11000,2018-04-11 20:16:44,18,0,23.532,4555.8703019558,56.758532,0.4921268,1.25833993528,0,0,-0.671082,317.8, 1.8, -4.8,0,0,1024,1024,1024,1024,316.7,-89.9,93,3.876,3.906,3.903,3.917,0,0,19.75,66.2,14,Waypoint,
37.2865899,-119.5625614,4556.8545539558,57.742784,0.223694,0.6263287602,11100,2018-04-11 20:16:44,18,0,23.532,4556.8545539558,57.742784,0.4921268,1.25833993528,0,0,-0.671082,318, 1.1, -4.6,0,0,1024,1024,1024,1024,316.7,-90,93,3.876,3.906,3.903,3.917,0,0,19.75,66.2,14,Waypoint,
37.28659,-119.5625612,4557.5107219558,58.398952,0.223694,0.65736878744,11200,2018-04-11 20:16:44,18,0,23.532,4557.5107219558,58.398952,0.4921268,1.25833993528,0,0,-0.671082,318.4, 0.5, -4.6,0,0,1024,1024,1024,1024,316.7,-90,93,3.876,3.906,3.903,3.917,0,0,19.75,66.2,14,Waypoint,
37.28659,-119.562561,4559.1511419558,60.039372,0,0.65736878744,11500,2018-04-11 20:16:45,18,0,23.532,4559.1511419558,60.039372,0.4921268,1.25833993528,0,0,-0.671082,319, -1.1, -4.2,0,0,1024,1024,1024,1024,316.7,-90,93,3.876,3.906,3.903,3.917,0,0,19.75,66.2,14,Waypoint,
37.2865902,-119.5625609,4560.7915619558,61.679792,0,0.7320046166,11600,2018-04-11 20:16:45,18,0,23.532,4560.7915619558,61.679792,0.4921268,1.25833993528,0,0,-0.671082,318, -0.9, -3.4,0,0,1024,1024,1024,1024,316.7,-89.9,93,3.876,3.906,3.903,3.917,0,0,19.75,66.2,14,Waypoint,
37.2865905,-119.562561,4562.4319819558,63.320212,0.223694,0.83965553868,11800,2018-04-11 20:16:45,18,0,23.532,4562.4319819558,63.320212,0.4921268,1.25833993528,0,0,-0.671082,316.9, 1.2, -3,0,0,1024,1024,1024,1024,316.7,-89.9,93,3.876,3.906,3.903,3.917,0,0,19.75,66.2,14,Waypoint,
37.2865908,-119.5625613,4564.0724019558,64.960632,0.223694,0.95038388868,12000,2018-04-11 20:16:45,18,0,23.652,4564.0724019558,64.960632,0.4921268,1.25833993528,0,0,-0.671082,316.5, 2.3, -2.8,0,0,1024,1024,1024,1024,316.7,-89.9,93,3.894,3.94,3.928,3.941,0,0,16.748,66.2,14,Waypoint,
37.286591,-119.5625614,4564.7285699558,65.6168,0,1.02528218504,12100,2018-04-11 20:16:45,18,0,23.652,4564.7285699558,65.6168,0.4921268,1.25833993528,0,0,-0.671082,316.5, 2.7, -2.4,0,0,1024,1024,1024,1024,316.7,-89.9,93,3.894,3.94,3.928,3.941,0,0,16.748,66.2,14,Waypoint,
37.2865912,-119.5625615,4565.7128219558,66.601052,0,1.1006890116,12200,2018-04-11 20:16:45,18,0,23.652,4565.7128219558,66.601052,0.4921268,1.25833993528,0,0,-0.671082,316.7, 2.9, -2.5,0,0,1024,1024,1024,1024,316.7,-89.9,93,3.894,3.94,3.928,3.941,0,0,16.748,66.2,14,Waypoint,
37.2865913,-119.5625615,4566.6970739558,67.585304,0,1.13697838284,12300,2018-04-11 20:16:45,18,0,23.652,4566.6970739558,67.585304,0.4921268,1.25833993528,0,0,-0.671082,316.9, 2.8, -3,0,0,1024,1024,1024,1024,316.7,-90,93,3.894,3.94,3.928,3.941,0,0,16.748,66.2,14,Waypoint,
37.2865915,-119.5625616,4567.6813259558,68.569556,0,1.21271985508,12400,2018-04-11 20:16:46,18,0,23.652,4567.6813259558,68.569556,0.4921268,1.25833993528,0,0,-0.671082,317.2, 2.6, -3.5,0,0,1024,1024,1024,1024,316.7,-90,93,3.894,3.94,3.928,3.941,0,0,16.748,66.2,14,Waypoint,
37.2865916,-119.5625616,4568.6655779558,69.553808,0,1.2489501712,12500,2018-04-11 20:16:46,18,0,23.652,4568.6655779558,69.553808,0.4921268,1.25833993528,0,0,-0.671082,317.5, 2.4, -3.4,0,0,1024,1024,1024,1024,316.7,-89.9,93,3.894,3.94,3.928,3.941,0,0,16.748,66.2,14,Waypoint,
37.2865917,-119.5625617,4569.6498299558,70.53806,0,1.288795973,12600,2018-04-11 20:16:46,18,0,23.652,4569.6498299558,70.53806,0.4921268,1.288795973,0,0,-0.671082,317.8, 2.4, -3,0,0,1024,1024,1024,1024,316.7,-89.9,93,3.894,3.94,3.928,3.941,0,0,16.748,66.2,14,Waypoint,
37.2865917,-119.5625618,4570.6340819558,71.522312,0,1.29303809912,12700,2018-04-11 20:16:46,19,0,23.652,4570.6340819558,71.522312,0.4921268,1.29303809912,0,0,-0.671082,318, 2.3, -2.7,0,0,1024,1024,1024,1024,316.7,-89.9,93,3.894,3.94,3.928,3.941,0,0,16.748,66.2,14,Waypoint,
37.2865918,-119.5625619,4571.6183339558,72.506564,0,1.33382878284,12800,2018-04-11 20:16:46,19,0,23.652,4571.6183339558,72.506564,0.4921268,1.33382878284,0,0,-0.671082,318.1, 2.2, -2.9,0,0,1024,1024,1024,1024,316.7,-90,93,3.894,3.94,3.928,3.941,0,0,16.748,66.2,14,Waypoint,
37.2865918,-119.5625619,4572.6025859558,73.490816,0,1.33382878284,12900,2018-04-11 20:16:46,19,0,23.652,4572.6025859558,73.490816,0.4921268,1.33382878284,0,0,-0.671082,318.2, 2.2, -2.6,0,0,1024,1024,1024,1024,316.7,-90,93,3.894,3.94,3.928,3.941,0,0,16.748,66.2,14,Waypoint,
37.2865918,-119.562562,4573.5868379558,74.475068,0,1.33918639456,13000,2018-04-11 20:16:46,19,0,23.236,4573.5868379558,74.475068,0.4921268,1.33918639456,0,0,-0.671082,318.1, 2.1, -2.3,0,0,1024,1024,1024,1024,316.7,-89.9,92,3.83,3.869,3.874,3.889,0,0,21.415,66.2,14,Waypoint,
37.2865918,-119.562562,4574.5710899558,75.45932,0,1.33918639456,13100,2018-04-11 20:16:46,19,0,23.236,4574.5710899558,75.45932,0.4921268,1.33918639456,0,0,-0.671082,318, 2, -2.5,0,0,1024,1024,1024,1024,316.7,-89.9,92,3.83,3.869,3.874,3.889,0,0,21.415,66.2,14,Waypoint,
37.2865918,-119.5625621,4575.5553419558,76.443572,0,1.34515096168,13200,2018-04-11 20:16:46,19,0,23.236,4575.5553419558,76.443572,0.4921268,1.34515096168,0,0,-0.671082,317.8, 1.9, -2.6,0,0,1024,1024,1024,1024,316.7,-90,92,3.83,3.869,3.874,3.889,0,0,21.415,66.2,14,Waypoint,
37.2865917,-119.5625621,4576.5395939558,77.427824,0,1.30955056684,13300,2018-04-11 20:16:46,19,0,23.236,4576.5395939558,77.427824,0.4921268,1.34515096168,0,0,-0.671082,317.7, 1.8, -2.6,0,0,1024,1024,1024,1024,316.7,-90,92,3.83,3.869,3.874,3.889,0,0,21.415,66.2,14,Waypoint,
37.2865916,-119.5625622,4578.5080979558,79.396328,0,1.28092523784,13500,2018-04-11 20:16:47,19,0,23.236,4578.5080979558,79.396328,0.4921268,1.34515096168,0,0,-0.671082,317.5, 1.6, -2,0,0,1024,1024,1024,1024,316.7,-90,92,3.83,3.869,3.874,3.889,0,0,21.415,66.2,14,Waypoint,
37.2865915,-119.5625623,4579.4923499558,80.38058,0,1.2533793052,13600,2018-04-11 20:16:47,19,0,23.236,4579.4923499558,80.38058,0.4921268,1.34515096168,0,0,-0.671082,317.4, 1.5, -1.8,0,0,1024,1024,1024,1024,316.7,-90,92,3.83,3.869,3.874,3.889,0,0,21.415,66.2,14,Waypoint,
37.2865912,-119.5625623,4582.7731899558,83.66142,0,1.1486384882,13900,2018-04-11 20:16:47,20,0,23.236,4582.7731899558,83.66142,0.4921268,1.34515096168,0,0,-0.671082,317.6, 0.6, -2.6,0,0,1024,1024,1024,1024,316.7,-90,92,3.83,3.869,3.874,3.889,0,0,21.415,66.2,14,Waypoint,
37.2865911,-119.5625623,4583.7574419558,84.645672,0,1.113927201,14100,2018-04-11 20:16:47,20,0,23.236,4583.7574419558,84.645672,0.4921268,1.34515096168,0,0,-0.671082,317.9, 0.6, -2.4,0,0,1024,1024,1024,1024,316.7,-90,92,3.83,3.869,3.874,3.889,0,0,21.415,66.2,14,Waypoint,
37.2865909,-119.5625623,4585.7259459558,86.614176,0,1.044865519,14200,2018-04-11 20:16:47,20,0,23.236,4585.7259459558,86.614176,0.4921268,1.34515096168,0,0,-0.671082,318.1, 0.3, -2.2,0,0,1024,1024,1024,1024,316.7,-90,92,3.83,3.869,3.874,3.889,0,0,21.415,66.2,14,Waypoint,
37.2865907,-119.5625623,4586.7101979558,87.598428,0.223694,0.97637470316,14300,2018-04-11 20:16:47,20,0,23.236,4586.7101979558,87.598428,0.4921268,1.34515096168,0,0,-0.671082,317.9, 0.2, -1.9,0,0,1024,1024,1024,1024,316.7,-90,92,3.83,3.869,3.874,3.889,0,0,21.415,66.2,14,Waypoint,
37.2865904,-119.5625625,4588.6787019558,89.566932,0,0.89968506816,14500,2018-04-11 20:16:48,20,0,23.236,4588.6787019558,89.566932,0.4921268,1.34515096168,0,0,-0.671082,317.5, 0.5, -0.8,0,0,1024,1024,1024,1024,316.7,-90,92,3.83,3.869,3.874,3.889,0,0,21.415,66.2,14,Waypoint,
37.2865903,-119.5625625,4589.6629539558,90.551184,0,0.867290054,14600,2018-04-11 20:16:48,20,0,23.236,4589.6629539558,90.551184,0.4921268,1.34515096168,0,0,-0.671082,317.4, 0.6, -0.9,0,0,1024,1024,1024,1024,316.7,-90,92,3.83,3.869,3.874,3.889,0,0,21.415,66.2,14,Waypoint,
37.2865901,-119.5625626,4591.6314579558,92.519688,0,0.8186187926,14800,2018-04-11 20:16:48,20,0,23.236,4591.6314579558,92.519688,0.4921268,1.34515096168,0,0,-0.671082,317.5, 0.5, -1.1,0,0,1024,1024,1024,1024,316.7,-90,92,3.83,3.869,3.874,3.889,0,0,21.415,66.2,14,Waypoint,
37.2865899,-119.5625626,4593.5999619558,94.488192,0,0.75782154656,15000,2018-04-11 20:16:48,20,0,23.238,4593.5999619558,94.488192,0.4921268,1.34515096168,0,0,-0.671082,317.7, 0.6, -0.5,0,0,1024,1024,1024,1024,316.7,-89.9,92,3.847,3.876,3.877,3.893,0,0,19.91,68,14,Waypoint,
37.2865898,-119.5625626,4594.5842139558,95.472444,0,0.72826117816,15100,2018-04-11 20:16:48,20,0,23.238,4594.5842139558,95.472444,0.4921268,1.34515096168,0,0,-0.671082,317.7, 0.7, -0.8,0,0,1024,1024,1024,1024,316.7,-89.9,92,3.847,3.876,3.877,3.893,0,0,19.91,68,14,Waypoint,
37.2865898,-119.5625626,4595.8965499558,96.78478,0,0.72826117816,15200,2018-04-11 20:16:48,20,0,23.238,4595.8965499558,96.78478,0.4921268,1.34515096168,0,0,-0.671082,317.9, 0.6, -1.3,0,0,1024,1024,1024,1024,316.7,-90,92,3.847,3.876,3.877,3.893,0,0,19.91,68,14,Waypoint,
37.2865897,-119.5625626,4596.8808019558,97.769032,0,0.69935697776,15300,2018-04-11 20:16:48,20,0,23.238,4596.8808019558,97.769032,0.4921268,1.34515096168,0,0,-0.671082,317.9, 0.5, -1.6,0,0,1024,1024,1024,1024,316.7,-90,92,3.847,3.876,3.877,3.893,0,0,19.91,68,14,Waypoint,
37.2865896,-119.5625625,4597.8650539558,98.753284,0,0.65273296052,15400,2018-04-11 20:16:49,20,0,23.238,4597.8650539558,98.753284,0.4921268,1.34515096168,0,0,-0.671082,317.9, 0.4, -2.1,0,0,1024,1024,1024,1024,316.7,-90,92,3.847,3.876,3.877,3.893,0,0,19.91,68,14,Waypoint,
37.2865896,-119.5625625,4598.8493059558,99.737536,0,0.65273296052,15500,2018-04-11 20:16:49,20,0,23.238,4598.8493059558,99.737536,0.4921268,1.34515096168,0,0,-0.671082,317.8, 0.2, -2.3,0,0,1024,1024,1024,1024,316.7,-90,92,3.847,3.876,3.877,3.893,0,0,19.91,68,14,Waypoint,
37.2865896,-119.5625625,4600.1616419558,101.049872,0,0.65273296052,15600,2018-04-11 20:16:49,20,0,23.238,4600.1616419558,101.049872,0.4921268,1.34515096168,0,0,-0.671082,317.7, 0.1, -2.6,0,0,1024,1024,1024,1024,316.7,-90,92,3.847,3.876,3.877,3.893,0,0,19.91,68,14,Waypoint,
37.2865896,-119.5625624,4601.1458939558,102.034124,0,0.63506563712,15700,2018-04-11 20:16:49,20,0,23.238,4601.1458939558,102.034124,0.4921268,1.34515096168,0,0,-0.671082,317.6, 0.4, -2.5,0,0,1024,1024,1024,1024,316.7,-90,92,3.847,3.876,3.877,3.893,0,0,19.91,68,14,Waypoint,
37.2865895,-119.5625624,4602.1301459558,103.018376,0,0.60610894328,15800,2018-04-11 20:16:49,20,0,23.238,4602.1301459558,103.018376,0.4921268,1.34515096168,0,0,-0.671082,317.5, 0.6, -2.2,0,0,1024,1024,1024,1024,316.7,-89.9,92,3.847,3.876,3.877,3.893,0,0,19.91,68,14,Waypoint,
37.2865895,-119.5625624,4603.1143979558,104.002628,0,0.60610894328,15900,2018-04-11 20:16:49,20,0,23.238,4603.1143979558,104.002628,0.4921268,1.34515096168,0,0,-0.671082,317.3, 0.6, -2,0,0,1024,1024,1024,1024,316.7,-89.9,92,3.847,3.876,3.877,3.893,0,0,19.91,68,14,Waypoint,
37.2865895,-119.5625624,4604.0986499558,104.98688,0,0.60610894328,16000,2018-04-11 20:16:49,20,0,23.115,4604.0986499558,104.98688,0.4921268,1.34515096168,0,0,-0.671082,317.1, 0.7, -2,0,0,1024,1024,1024,1024,316.7,-89.9,92,3.855,3.879,3.884,3.894,0,0,21.198,68,14,Waypoint,
37.2865895,-119.5625624,4604.7548179558,105.643048,0,0.60610894328,16100,2018-04-11 20:16:49,20,0,23.115,4604.7548179558,105.643048,0.4921268,1.34515096168,0,0,-0.671082,317, 0.8, -2.1,0,0,1024,1024,1024,1024,316.7,-89.9,92,3.855,3.879,3.884,3.894,0,0,21.198,68,14,Waypoint,
37.2865894,-119.5625625,4607.7075739558,108.595804,0,0.59736222384,16320,2018-04-11 20:16:50,20,0,23.115,4607.7075739558,108.595804,0.4921268,1.34515096168,0,0,-0.671082,317.3, 1, -1.5,0,0,1024,1024,1024,1024,316.8,-89.9,92,3.855,3.879,3.884,3.894,0,0,21.198,68,14,Waypoint,
37.2865894,-119.5625625,4607.7075739558,108.595804,0,0.59736222384,16400,2018-04-11 20:16:50,20,0,23.115,4607.7075739558,108.595804,0.4921268,1.34515096168,0,0,-0.671082,317.3, 1, -1.5,0,0,1024,1024,1024,1024,316.8,-89.9,92,3.855,3.879,3.884,3.894,0,0,21.198,68,14,Waypoint,
37.2865894,-119.5625625,4608.6918259558,109.580056,0,0.59736222384,16500,2018-04-11 20:16:50,20,0,23.115,4608.6918259558,109.580056,0.4921268,1.34515096168,0,0,-0.671082,317.6, 1, -1.2,0,0,1024,1024,1024,1024,316.7,-89.9,92,3.855,3.879,3.884,3.894,0,0,21.198,68,14,Waypoint,
37.2865893,-119.5625626,4609.6760779558,110.564308,0,0.59216537328,16600,2018-04-11 20:16:50,20,0,23.115,4609.6760779558,110.564308,0.4921268,1.34515096168,0,0,-0.671082,317.9, 0.9, -0.9,0,0,1024,1024,1024,1024,316.7,-90,92,3.855,3.879,3.884,3.894,0,0,21.198,68,14,Waypoint,
37.2865893,-119.5625626,4610.6603299558,111.54856,0,0.59216537328,16700,2018-04-11 20:16:50,20,0,23.115,4610.6603299558,111.54856,0.4921268,1.34515096168,0,0,-0.671082,318.2, 0.8, -0.8,0,0,1024,1024,1024,1024,316.7,-90,92,3.855,3.879,3.884,3.894,0,0,21.198,68,14,Waypoint,
37.2865893,-119.5625626,4611.6445819558,112.532812,0,0.59216537328,16800,2018-04-11 20:16:50,20,0,23.115,4611.6445819558,112.532812,0.4921268,1.34515096168,0,0,-0.671082,318.3, 0.7, -0.8,0,0,1024,1024,1024,1024,316.7,-90,92,3.855,3.879,3.884,3.894,0,0,21.198,68,14,Waypoint,
37.2865892,-119.5625626,4612.6288339558,113.517064,0,0.56807088432,16900,2018-04-11 20:16:50,20,0,23.115,4612.6288339558,113.517064,0.4921268,1.34515096168,0,0,-0.671082,318.2, 0.6, -0.9,0,0,1024,1024,1024,1024,316.7,-90,92,3.855,3.879,3.884,3.894,0,0,21.198,68,14,Waypoint,
37.2865893,-119.5625626,4613.6130859558,114.501316,0,0.59216537328,17000,2018-04-11 20:16:50,20,0,23.115,4613.6130859558,114.501316,0.4921268,1.34515096168,0,0,-0.671082,318.1, 0.6, -1.1,0,0,1024,1024,1024,1024,316.7,-90,92,3.816,3.849,3.87,3.886,0,0,21.198,68,14,Waypoint,
37.2865893,-119.5625625,4614.5973379558,115.485568,0,0.57115815476,17100,2018-04-11 20:16:50,20,0,23.115,4614.5973379558,115.485568,0.4921268,1.34515096168,0,0,-0.671082,318, 0.6, -1.3,0,0,1024,1024,1024,1024,316.7,-90,92,3.816,3.849,3.87,3.886,0,0,21.198,68,14,Waypoint,
37.2865893,-119.5625625,4615.5815899558,116.46982,0,0.57115815476,17200,2018-04-11 20:16:50,20,0,23.115,4615.5815899558,116.46982,0.4921268,1.34515096168,0,0,-0.671082,318, 0.8, -1.6,0,0,1024,1024,1024,1024,316.7,-89.9,92,3.816,3.849,3.87,3.886,0,0,21.198,68,14,Waypoint,
37.2865893,-119.5625625,4616.5658419558,117.454072,0,0.57115815476,17300,2018-04-11 20:16:50,20,0,23.115,4616.5658419558,117.454072,0.4921268,1.34515096168,0,0,-0.671082,318.2, 0.9, -1.5,0,0,1024,1024,1024,1024,316.7,-89.9,92,3.816,3.849,3.87,3.886,0,0,21.198,68,14,Waypoint,
37.2865893,-119.5625624,4617.5500939558,118.438324,0,0.55088256356,17400,2018-04-11 20:16:51,20,0,23.115,4617.5500939558,118.438324,0.4921268,1.34515096168,0,0,-0.671082,318.3, 0.8, -1.5,0,0,1024,1024,1024,1024,316.7,-89.9,92,3.816,3.849,3.87,3.886,0,0,21.198,68,14,Waypoint,
37.2865893,-119.5625624,4618.5343459558,119.422576,0,0.55088256356,17600,2018-04-11 20:16:51,20,0,23.115,4618.5343459558,119.422576,0.4921268,1.34515096168,0,0,-0.671082,318.4, 0.4, -1.5,0,0,1024,1024,1024,1024,316.7,-90,92,3.816,3.849,3.87,3.886,0,0,21.198,68,14,Waypoint,
37.2865893,-119.5625624,4619.5185979558,120.406828,0,0.55088256356,17700,2018-04-11 20:16:51,20,0,23.115,4619.5185979558,120.406828,0.4921268,1.34515096168,0,0,-0.671082,318.3, 0.2, -1.4,0,0,1024,1024,1024,1024,316.7,-90,92,3.816,3.849,3.87,3.886,0,0,21.198,68,14,Waypoint,
37.2865893,-119.5625625,4620.5028499558,121.39108,0,0.57115815476,17800,2018-04-11 20:16:51,20,0,23.115,4620.5028499558,121.39108,0.4921268,1.34515096168,0,0,-0.671082,318.1, 0.3, -1.3,0,0,1024,1024,1024,1024,316.7,-90,92,3.816,3.849,3.87,3.886,0,0,21.198,68,14,Waypoint,
37.2865893,-119.5625625,4621.4871019558,122.375332,0,0.57115815476,17900,2018-04-11 20:16:51,20,0,23.115,4621.4871019558,122.375332,0.4921268,1.34515096168,0,0,-0.671082,317.8, 0.4, -0.8,0,0,1024,1024,1024,1024,316.7,-89.9,92,3.816,3.849,3.87,3.886,0,0,21.198,68,14,Waypoint,
37.2865893,-119.5625626,4622.4713539558,123.359584,0,0.59216537328,18100,2018-04-11 20:16:51,20,0,23.115,4622.4713539558,123.359584,0.4921268,1.34515096168,0,0,-0.671082,317.5, 0.5, -0.7,0,0,1024,1024,1024,1024,316.7,-89.9,92,3.816,3.849,3.87,3.886,0,0,21.198,68,14,Waypoint,
37.2865893,-119.5625627,4625.4241099558,126.31234,0,0.61382547896,18200,2018-04-11 20:16:51,20,0,23.115,4625.4241099558,126.31234,0.4921268,1.34515096168,0,0,-0.671082,317.3, 0.9, -0.9,0,0,1024,1024,1024,1024,316.7,-89.9,92,3.816,3.849,3.87,3.886,0,0,21.198,68,14,Waypoint,
37.2865893,-119.5625629,4627.3926139558,128.280844,0,0.65884844628,18500,2018-04-11 20:16:52,20,0,23.115,4627.3926139558,128.280844,0.4921268,1.34515096168,0,0,-0.671082,317.6, 1, -0.6,0,0,1024,1024,1024,1024,316.7,-89.9,92,3.816,3.849,3.87,3.886,0,0,21.198,68,14,Waypoint,
37.2865894,-119.562563,4628.3768659558,129.265096,0,0.7041830934,18710,2018-04-11 20:16:52,20,0,23.115,4628.3768659558,129.265096,0.4921268,1.34515096168,0,0,-0.671082,317.7, 1.3, -0.4,0,0,1024,1024,1024,1024,316.7,-89.9,92,3.816,3.849,3.87,3.886,0,0,21.198,68,14,Waypoint,
37.2865894,-119.5625631,4629.3611179558,130.249348,0,0.72714241172,18800,2018-04-11 20:16:52,20,0,23.115,4629.3611179558,130.249348,0.4921268,1.34515096168,0,0,-0.671082,317.6, 1.8, -0.3,0,0,1024,1024,1024,1024,316.7,-89.9,92,3.816,3.849,3.87,3.886,0,0,21.198,68,14,Waypoint,
37.2865895,-119.5625634,4632.3138739558,133.202104,0,0.81896984248,19100,2018-04-11 20:16:52,20,0,23.115,4632.3138739558,133.202104,0.4921268,1.34515096168,0,0,-0.671082,317.4, 1.8, -0.4,0,0,1024,1024,1024,1024,316.7,-89.9,92,3.816,3.849,3.87,3.886,0,0,21.198,68,14,Waypoint,
37.2865895,-119.5625634,4633.2981259558,134.186356,0,0.81896984248,19200,2018-04-11 20:16:52,20,0,23.115,4633.2981259558,134.186356,0.4921268,1.34515096168,0,0,-0.671082,317.4, 2, -0.4,0,0,1024,1024,1024,1024,316.7,-89.9,92,3.816,3.849,3.87,3.886,0,0,21.198,68,14,Waypoint,
37.2865895,-119.5625635,4634.2823779558,135.170608,0,0.84280186424,19300,2018-04-11 20:16:52,20,0,23.115,4634.2823779558,135.170608,0.4921268,1.34515096168,0,0,-0.671082,317.4, 1.9, -0.5,0,0,1024,1024,1024,1024,316.7,-89.9,92,3.816,3.849,3.87,3.886,0,0,21.198,68,14,Waypoint,
37.2865897,-119.5625638,4637.2351339558,138.123364,0,0.95591866576,19400,2018-04-11 20:16:53,20,0,23.115,4637.2351339558,138.123364,0.4921268,1.34515096168,0,0,-0.671082,317.4, 2.3, -0.3,0,0,1024,1024,1024,1024,316.7,-89.9,92,3.816,3.849,3.87,3.886,0,0,21.198,68,14,Waypoint,
37.2865898,-119.5625639,4639.2036379558,140.091868,0.223694,1.00069557008,19610,2018-04-11 20:16:53,20,0,23.115,4639.2036379558,140.091868,0.4921268,1.34515096168,0,0,-0.671082,317.5, 3.1, -1,0,0,1024,1024,1024,1024,316.7,-89.9,92,3.816,3.849,3.87,3.886,0,0,21.198,68,14,Waypoint,
37.2865899,-119.562564,4640.1878899558,141.07612,0.223694,1.04563323556,19710,2018-04-11 20:16:53,20,0,23.115,4640.1878899558,141.07612,0.4921268,1.34515096168,0,0,-0.671082,317.5, 3.3, -1,0,0,1024,1024,1024,1024,316.7,-89.9,92,3.816,3.849,3.87,3.886,0,0,21.198,68,14,Waypoint,
37.28659,-119.5625641,4641.1721419558,142.060372,0.223694,1.09071197716,19800,2018-04-11 20:16:53,20,0,23.115,4641.1721419558,142.060372,0.4921268,1.34515096168,0,0,-0.671082,317.4, 3.6, -0.8,0,0,1024,1024,1024,1024,316.7,-89.9,92,3.816,3.849,3.87,3.886,0,0,21.198,68,14,Waypoint,
37.2865901,-119.5625642,4642.1563939558,143.044624,0.223694,1.13591539068,19900,2018-04-11 20:16:53,20,0,23.115,4642.1563939558,143.044624,0.4921268,1.34515096168,0,0,-0.671082,317.4, 3.9, -0.9,0,0,1024,1024,1024,1024,316.7,-89.9,92,3.816,3.849,3.87,3.886,0,0,21.198,68,14,Waypoint,
37.2865901,-119.5625643,4643.1406459558,144.028876,0.223694,1.15904859352,20000,2018-04-11 20:16:53,20,0,23.166,4643.1406459558,144.028876,0.4921268,1.34515096168,0,0,-0.671082,317.4, 4.1, -1,0,0,1024,1024,1024,1024,316.7,-89.9,92,3.832,3.862,3.863,3.878,0,0,19.754,68,14,Waypoint,
37.2865902,-119.5625644,4644.1248979558,145.013128,0.223694,1.20419295192,20100,2018-04-11 20:16:53,20,0,23.166,4644.1248979558,145.013128,0.4921268,1.34515096168,0,0,-0.671082,317.5, 4.4, -1.1,0,0,1024,1024,1024,1024,316.7,-89.9,92,3.832,3.862,3.863,3.878,0,0,19.754,68,14,Waypoint,
37.2865903,-119.5625644,4645.1091499558,145.99738,0,1.22664374004,20200,2018-04-11 20:16:53,20,0,23.166,4645.1091499558,145.99738,0.4921268,1.34515096168,0,0,-0.671082,317.7, 4.6, -1.2,0,0,1024,1024,1024,1024,316.7,-89.9,92,3.832,3.862,3.863,3.878,0,0,19.754,68,14,Waypoint,
37.2865904,-119.5625645,4646.0934019558,146.981632,0,1.27214242916,20300,2018-04-11 20:16:53,20,0,23.166,4646.0934019558,146.981632,0.4921268,1.34515096168,0,0,-0.671082,317.9, 4.6, -1.3,0,0,1024,1024,1024,1024,316.7,-89.9,92,3.832,3.862,3.863,3.878,0,0,19.754,68,14,Waypoint,
37.2865905,-119.5625646,4647.0776539558,147.965884,0,1.31772313928,20400,2018-04-11 20:16:54,20,0,23.166,4647.0776539558,147.965884,0.4921268,1.34515096168,0,0,-0.671082,318.1, 4.6, -1.2,0,0,1024,1024,1024,1024,316.7,-90,92,3.832,3.862,3.863,3.878,0,0,19.754,68,14,Waypoint,
37.2865906,-119.5625647,4648.0619059558,148.950136,0,1.36337274704,20600,2018-04-11 20:16:54,20,0,23.166,4648.0619059558,148.950136,0.4921268,1.36337274704,0,0,-0.671082,318.2, 4.6, -1.2,0,0,1024,1024,1024,1024,316.7,-89.9,92,3.832,3.862,3.863,3.878,0,0,19.754,68,14,Waypoint,
37.2865908,-119.5625649,4650.0304099558,150.91864,0,1.4548556896,20720,2018-04-11 20:16:54,20,0,23.166,4650.0304099558,150.91864,0.4921268,1.4548556896,0,0,-0.671082,318, 4.9, -0.8,0,0,1024,1024,1024,1024,316.7,-89.9,92,3.832,3.862,3.863,3.878,0,0,19.754,68,14,Waypoint,
37.2865908,-119.5625649,4651.0146619558,151.902892,0,1.4548556896,20800,2018-04-11 20:16:54,20,0,23.166,4651.0146619558,151.902892,0.4921268,1.4548556896,0,0,-0.671082,317.9, 4.9, -0.7,0,0,1024,1024,1024,1024,316.7,-89.9,92,3.832,3.862,3.863,3.878,0,0,19.754,68,14,Waypoint,
37.2865909,-119.562565,4651.9989139558,152.887144,0,1.50067918188,21000,2018-04-11 20:16:54,20,0,23.077,4651.9989139558,152.887144,0.4921268,1.50067918188,0,0,-0.671082,317.8, 4.9, -0.6,0,0,1024,1024,1024,1024,316.7,-89.9,92,3.81,3.852,3.867,3.883,0,0,20.371,68,14,Waypoint,
37.2865909,-119.5625651,4653.9674179558,154.855648,0,1.52269689912,21100,2018-04-11 20:16:54,20,0,23.077,4653.9674179558,154.855648,0.4921268,1.52269689912,0,0,-0.671082,317.7, 4.7, -0.5,0,0,1024,1024,1024,1024,316.7,-89.9,92,3.81,3.852,3.867,3.883,0,0,20.371,68,14,Waypoint,
37.286591,-119.5625652,4655.6078379558,156.496068,0,1.56846133628,21300,2018-04-11 20:16:54,20,0,23.077,4655.6078379558,156.496068,0.4921268,1.56846133628,0,0,-0.671082,317.5, 4.2, -1,0,0,1024,1024,1024,1024,316.7,-89.9,92,3.81,3.852,3.867,3.883,0,0,20.371,68,14,Waypoint,
37.286591,-119.5625652,4656.5920899558,157.48032,0,1.56846133628,21400,2018-04-11 20:16:55,20,0,23.077,4656.5920899558,157.48032,0.4921268,1.56846133628,0,0,-0.671082,317.6, 4.1, -0.9,0,0,1024,1024,1024,1024,316.7,-89.9,92,3.81,3.852,3.867,3.883,0,0,20.371,68,14,Waypoint,
37.286591,-119.5625652,4657.5763419558,158.464572,0,1.56846133628,21500,2018-04-11 20:16:55,20,0,23.077,4657.5763419558,158.464572,0.4921268,1.56846133628,0,0,-0.671082,317.6, 4.1, -0.8,0,0,1024,1024,1024,1024,316.7,-90,92,3.81,3.852,3.867,3.883,0,0,20.371,68,14,Waypoint,
37.286591,-119.5625652,4658.5605939558,159.448824,0,1.56846133628,21600,2018-04-11 20:16:55,20,0,23.077,4658.5605939558,159.448824,0.4921268,1.56846133628,0,0,-0.671082,317.7, 3.9, -0.7,0,0,1024,1024,1024,1024,316.7,-90,92,3.81,3.852,3.867,3.883,0,0,20.371,68,14,Waypoint,
37.286591,-119.5625652,4659.5448459558,160.433076,0,1.56846133628,21700,2018-04-11 20:16:55,20,0,23.077,4659.5448459558,160.433076,0.4921268,1.56846133628,0,0,-0.671082,317.7, 3.8, -0.8,0,0,1024,1024,1024,1024,316.7,-90,92,3.81,3.852,3.867,3.883,0,0,20.371,68,14,Waypoint,
37.2865909,-119.5625651,4660.5290979558,161.417328,0,1.52269689912,21800,2018-04-11 20:16:55,20,0,23.077,4660.5290979558,161.417328,0.4921268,1.56846133628,0,0,-0.671082,317.8, 3.7, -1,0,0,1024,1024,1024,1024,316.7,-90,92,3.81,3.852,3.867,3.883,0,0,20.371,68,14,Waypoint,
37.2865909,-119.5625651,4661.5133499558,162.40158,0,1.52269689912,21900,2018-04-11 20:16:55,20,0,23.077,4661.5133499558,162.40158,0.4921268,1.56846133628,0,0,-0.671082,317.8, 3.9, -0.9,0,0,1024,1024,1024,1024,316.7,-89.9,92,3.81,3.852,3.867,3.883,0,0,20.371,68,14,Waypoint,
37.2865909,-119.5625651,4662.4976019558,163.385832,0,1.52269689912,22000,2018-04-11 20:16:55,20,0,23.093,4662.4976019558,163.385832,0.4921268,1.56846133628,0,0,-0.671082,317.9, 4.1, -0.7,0,0,1024,1024,1024,1024,316.7,-89.9,92,3.816,3.852,3.855,3.872,0,0,19.695,68,14,Waypoint,
37.2865909,-119.5625651,4663.4818539558,164.370084,0,1.52269689912,22100,2018-04-11 20:16:55,20,0,23.093,4663.4818539558,164.370084,0.4921268,1.56846133628,0,0,-0.671082,317.9, 4.3, -0.7,0,0,1024,1024,1024,1024,316.7,-89.9,92,3.816,3.852,3.855,3.872,0,0,19.695,68,14,Waypoint,
37.2865909,-119.5625652,4664.7941899558,165.68242,0,1.544947556,22200,2018-04-11 20:16:55,20,0,23.093,4664.7941899558,165.68242,0.4921268,1.56846133628,0,0,-0.671082,317.8, 4.3, -0.6,0,0,1024,1024,1024,1024,316.7,-89.9,92,3.816,3.852,3.855,3.872,0,0,19.695,68,14,Waypoint,
37.2865909,-119.5625652,4665.7784419558,166.666672,0,1.544947556,22300,2018-04-11 20:16:55,20,0,23.093,4665.7784419558,166.666672,0.4921268,1.56846133628,0,0,-0.671082,317.9, 4.3, -0.5,0,0,1024,1024,1024,1024,316.7,-90,92,3.816,3.852,3.855,3.872,0,0,19.695,68,14,Waypoint,
37.2865908,-119.5625652,4666.7626939558,167.650924,0,1.52194230592,22400,2018-04-11 20:16:56,20,0,23.093,4666.7626939558,167.650924,0.4921268,1.56846133628,0,0,-0.671082,318, 4.1, -0.1,0,0,1024,1024,1024,1024,316.7,-90,92,3.816,3.852,3.855,3.872,0,0,19.695,68,14,Waypoint,
37.2865908,-119.5625652,4667.7469459558,168.635176,0,1.52194230592,22600,2018-04-11 20:16:56,20,0,23.093,4667.7469459558,168.635176,0.4921268,1.56846133628,0,0,-0.671082,318, 3.8, -0.1,0,0,1024,1024,1024,1024,316.7,-90,92,3.816,3.852,3.855,3.872,0,0,19.695,68,14,Waypoint,
37.2865907,-119.5625651,4669.0592819558,169.947512,0,1.47653876116,22700,2018-04-11 20:16:56,20,0,23.093,4669.0592819558,169.947512,0.4921268,1.56846133628,0,0,-0.671082,317.9, 3.9, 0,0,0,1024,1024,1024,1024,316.7,-89.9,92,3.816,3.852,3.855,3.872,0,0,19.695,68,14,Waypoint,
37.2865907,-119.5625651,4670.0435339558,170.931764,0.223694,1.47653876116,22800,2018-04-11 20:16:56,20,0,23.093,4670.0435339558,170.931764,0.4921268,1.56846133628,0,0,-0.671082,317.7, 4, -0.4,0,0,1024,1024,1024,1024,316.7,-89.9,92,3.816,3.852,3.855,3.872,0,0,19.695,68,14,Waypoint,
37.2865907,-119.562565,4671.0277859558,171.916016,0.223694,1.453822225,22900,2018-04-11 20:16:56,20,0,23.093,4671.0277859558,171.916016,0.4921268,1.56846133628,0,0,-0.671082,317.6, 4, -1,0,0,1024,1024,1024,1024,316.7,-90,92,3.816,3.852,3.855,3.872,0,0,19.695,68,14,Waypoint,
37.2865906,-119.5625645,4673.9805419558,174.868772,0.223694,1.31939964852,23100,2018-04-11 20:16:56,20,0,23.093,4673.9805419558,174.868772,0.4921268,1.56846133628,0,0,-0.671082,317.2, 2.7, -2,0,0,1024,1024,1024,1024,316.7,-90,92,3.816,3.852,3.855,3.872,0,0,19.695,68,14,Waypoint,
37.2865905,-119.5625641,4675.9490459558,176.837276,0.223694,1.20935371324,23300,2018-04-11 20:16:56,20,0,23.093,4675.9490459558,176.837276,0.4921268,1.56846133628,0,0,-0.671082,317.3, 1.9, -2.1,0,0,1024,1024,1024,1024,316.7,-90,92,3.816,3.852,3.855,3.872,0,0,19.695,68,14,Waypoint,
37.2865904,-119.5625639,4676.9332979558,177.821528,0.223694,1.14231959036,23400,2018-04-11 20:16:57,20,0,23.093,4676.9332979558,177.821528,0.4921268,1.56846133628,0,0,-0.671082,317.4, 1.7, -2.1,0,0,1024,1024,1024,1024,316.7,-90,92,3.816,3.852,3.855,3.872,0,0,19.695,68,14,Waypoint,
37.2865903,-119.5625638,4677.9175499558,178.80578,0.223694,1.09604334216,23500,2018-04-11 20:16:57,20,0,23.093,4677.9175499558,178.80578,0.4921268,1.56846133628,0,0,-0.671082,317.5, 1.5, -1.9,0,0,1024,1024,1024,1024,316.7,-90,92,3.816,3.852,3.855,3.872,0,0,19.695,68,14,Waypoint,
37.2865902,-119.5625637,4678.5737179558,179.461948,0.223694,1.04979662152,23600,2018-04-11 20:16:57,20,0,23.093,4678.5737179558,179.461948,0.4921268,1.56846133628,0,0,-0.671082,317.7, 1.4, -1.9,0,0,1024,1024,1024,1024,316.7,-90,92,3.816,3.852,3.855,3.872,0,0,19.695,68,14,Waypoint,
37.2865901,-119.5625636,4679.5579699558,180.4462,0,1.00358599012,23700,2018-04-11 20:16:57,20,0,23.093,4679.5579699558,180.4462,0.4921268,1.56846133628,0,0,-0.671082,317.8, 1.4, -1.5,0,0,1024,1024,1024,1024,316.7,-90,92,3.816,3.852,3.855,3.872,0,0,19.695,68,14,Waypoint,
37.28659,-119.5625635,4681.5264739558,182.414704,0,0.9574147288,23900,2018-04-11 20:16:57,20,0,23.093,4681.5264739558,182.414704,0.4921268,1.56846133628,0,0,-0.671082,317.7, 1.6, -0.9,0,0,1024,1024,1024,1024,316.7,-90,92,3.816,3.852,3.855,3.872,0,0,19.695,68,14,Waypoint,
37.2865899,-119.5625635,4682.5107259558,183.398956,0,0.93276577788,24000,2018-04-11 20:16:57,20,0,23.014,4682.5107259558,183.398956,0.4921268,1.56846133628,0,0,-0.671082,317.5, 1.8, -0.9,0,0,1024,1024,1024,1024,316.7,-90,92,3.802,3.843,3.841,3.86,0,0,18.556,68,14,Waypoint,
37.2865899,-119.5625632,4684.4792299558,185.36746,0,0.86965553964,24200,2018-04-11 20:16:57,20,0,23.014,4684.4792299558,185.36746,0.4921268,1.56846133628,0,0,-0.671082,317.4, 1.9, -1.4,0,0,1024,1024,1024,1024,316.7,-90,92,3.802,3.843,3.841,3.86,0,0,18.556,68,14,Waypoint,
37.2865899,-119.5625631,4685.4634819558,186.351712,0,0.84956039464,24300,2018-04-11 20:16:57,20,0,23.014,4685.4634819558,186.351712,0.4921268,1.56846133628,0,0,-0.671082,317.5, 1.8, -1.8,0,0,1024,1024,1024,1024,316.7,-90,92,3.802,3.843,3.841,3.86,0,0,18.556,68,14,Waypoint,
37.2865899,-119.562563,4686.4477339558,187.335964,0,0.82999346488,24400,2018-04-11 20:16:58,20,0,23.014,4686.4477339558,187.335964,0.4921268,1.56846133628,0,0,-0.671082,317.5, 1.9, -1.7,0,0,1024,1024,1024,1024,316.7,-89.9,92,3.802,3.843,3.841,3.86,0,0,18.556,68,14,Waypoint,
37.2865899,-119.562563,4687.4319859558,188.320216,0,0.82999346488,24500,2018-04-11 20:16:58,20,0,23.014,4687.4319859558,188.320216,0.4921268,1.56846133628,0,0,-0.671082,317.4, 1.9, -1.4,0,0,1024,1024,1024,1024,316.7,-89.9,92,3.802,3.843,3.841,3.86,0,0,18.556,68,14,Waypoint,
37.2865899,-119.5625629,4688.4162379558,189.304468,0,0.81099412044,24600,2018-04-11 20:16:58,20,0,23.014,4688.4162379558,189.304468,0.4921268,1.56846133628,0,0,-0.671082,317.5, 2, -1.3,0,0,1024,1024,1024,1024,316.7,-90,92,3.802,3.843,3.841,3.86,0,0,18.556,68,14,Waypoint,
37.2865899,-119.5625629,4689.4004899558,190.28872,0,0.81099412044,24700,2018-04-11 20:16:58,20,0,23.014,4689.4004899558,190.28872,0.4921268,1.56846133628,0,0,-0.671082,317.6, 2, -1.1,0,0,1024,1024,1024,1024,316.7,-90,92,3.802,3.843,3.841,3.86,0,0,18.556,68,14,Waypoint,
37.2865899,-119.5625628,4690.3847419558,191.272972,0,0.79260501224,24800,2018-04-11 20:16:58,20,0,23.014,4690.3847419558,191.272972,0.4921268,1.56846133628,0,0,-0.671082,317.7, 1.8, -1.3,0,0,1024,1024,1024,1024,316.7,-89.9,92,3.802,3.843,3.841,3.86,0,0,18.556,68,14,Waypoint,
37.2865899,-119.5625628,4691.3689939558,192.257224,0,0.79260501224,24900,2018-04-11 20:16:58,20,0,23.014,4691.3689939558,192.257224,0.4921268,1.56846133628,0,0,-0.671082,317.8, 1.8, -1.5,0,0,1024,1024,1024,1024,316.7,-89.9,92,3.802,3.843,3.841,3.86,0,0,18.556,68,14,Waypoint,
37.2865899,-119.5625627,4692.3532459558,193.241476,0,0.77486551036,25000,2018-04-11 20:16:58,20,0,23.01,4692.3532459558,193.241476,0.4921268,1.56846133628,0,0,-0.671082,317.8, 1.9, -2,0,0,1024,1024,1024,1024,316.7,-90,91,3.826,3.851,3.858,3.883,0,0,20.047,68,14,Waypoint,
37.2865899,-119.5625627,4693.3374979558,194.225728,0,0.77486551036,25110,2018-04-11 20:16:58,20,0,23.01,4693.3374979558,194.225728,0.4921268,1.56846133628,0,0,-0.671082,317.7, 1.8, -2.2,0,0,1024,1024,1024,1024,316.7,-90,91,3.826,3.851,3.858,3.883,0,0,20.047,68,14,Waypoint,
37.2865899,-119.5625627,4694.3217499558,195.20998,0,0.77486551036,25300,2018-04-11 20:16:58,20,0,23.01,4694.3217499558,195.20998,0.4921268,1.56846133628,0,0,-0.671082,317.4, 2, -2.3,0,0,1024,1024,1024,1024,316.7,-90,91,3.826,3.851,3.858,3.883,0,0,20.047,68,14,Waypoint,
37.2865899,-119.5625626,4695.3060019558,196.194232,0,0.75782154656,25400,2018-04-11 20:16:59,20,0,23.01,4695.3060019558,196.194232,0.4921268,1.56846133628,0,0,-0.671082,317.3, 2.3, -2.1,0,0,1024,1024,1024,1024,316.7,-89.9,91,3.826,3.851,3.858,3.883,0,0,20.047,68,14,Waypoint,
37.2865899,-119.5625626,4696.2902539558,197.178484,0,0.75782154656,25500,2018-04-11 20:16:59,20,0,23.01,4696.2902539558,197.178484,0.4921268,1.56846133628,0,0,-0.671082,317.3, 2.7, -1.5,0,0,1024,1024,1024,1024,316.7,-90,91,3.826,3.851,3.858,3.883,0,0,20.047,68,14,Waypoint,
37.2865899,-119.5625625,4698.2587579558,199.146988,0,0.74152233344,25610,2018-04-11 20:16:59,20,0,23.01,4698.2587579558,199.146988,0.4921268,1.56846133628,0,0,-0.671082,317.5, 2.1, -1.7,0,0,1024,1024,1024,1024,316.7,-90,91,3.826,3.851,3.858,3.883,0,0,20.047,68,14,Waypoint,
37.2865899,-119.5625624,4699.2430099558,200.13124,0,0.72602036444,25800,2018-04-11 20:16:59,20,0,23.01,4699.2430099558,200.13124,0.4921268,1.56846133628,0,0,-0.671082,317.6, 1.7, -2,0,0,1024,1024,1024,1024,316.7,-90,91,3.826,3.851,3.858,3.883,0,0,20.047,68,14,Waypoint,
37.2865899,-119.5625623,4700.2272619558,201.115492,0,0.71136485216,25900,2018-04-11 20:16:59,20,0,23.01,4700.2272619558,201.115492,0.4921268,1.56846133628,0,0,-0.671082,317.8, 1.4, -2.3,0,0,1024,1024,1024,1024,316.7,-90,91,3.826,3.851,3.858,3.883,0,0,20.047,68,14,Waypoint,
37.2865898,-119.5625623,4702.1957659558,203.083996,0,0.679790048,26000,2018-04-11 20:16:59,20,0,23.01,4702.1957659558,203.083996,0.4921268,1.56846133628,0,0,-0.671082,317.7, 1.5, -1.9,0,0,1024,1024,1024,1024,316.7,-90,91,3.799,3.84,3.838,3.855,0,0,20.047,68,14,Waypoint,
37.2865898,-119.5625623,4703.1800179558,204.068248,0,0.679790048,26100,2018-04-11 20:16:59,20,0,23.01,4703.1800179558,204.068248,0.4921268,1.56846133628,0,0,-0.671082,317.5, 1.8, -1.8,0,0,1024,1024,1024,1024,316.7,-89.9,91,3.799,3.84,3.838,3.855,0,0,20.047,68,14,Waypoint,
37.2865898,-119.5625623,4704.1642699558,205.0525,0,0.679790048,26200,2018-04-11 20:16:59,20,0,23.01,4704.1642699558,205.0525,0.4921268,1.56846133628,0,0,-0.671082,317.4, 1.9, -1.6,0,0,1024,1024,1024,1024,316.7,-89.9,91,3.799,3.84,3.838,3.855,0,0,20.047,68,14,Waypoint,
37.2865898,-119.5625623,4705.1485219558,206.036752,0,0.679790048,26300,2018-04-11 20:16:59,20,0,23.01,4705.1485219558,206.036752,0.4921268,1.56846133628,0,0,-0.671082,317.4, 2.2, -1.7,0,0,1024,1024,1024,1024,316.7,-89.9,91,3.799,3.84,3.838,3.855,0,0,20.047,68,14,Waypoint,
37.2865898,-119.5625622,4706.1327739558,207.021004,0,0.66538059872,26400,2018-04-11 20:17:00,20,0,23.01,4706.1327739558,207.021004,0.4921268,1.56846133628,0,0,-0.671082,317.6, 2.3, -1.9,0,0,1024,1024,1024,1024,316.7,-89.9,91,3.799,3.84,3.838,3.855,0,0,20.047,68,14,Waypoint,
37.2865898,-119.5625622,4707.1170259558,208.005256,0,0.66538059872,26500,2018-04-11 20:17:00,20,0,23.01,4707.1170259558,208.005256,0.4921268,1.56846133628,0,0,-0.671082,317.6, 2.2, -2,0,0,1024,1024,1024,1024,316.7,-90,91,3.799,3.84,3.838,3.855,0,0,20.047,68,14,Waypoint,
37.2865898,-119.5625622,4708.1012779558,208.989508,0,0.66538059872,26600,2018-04-11 20:17:00,20,0,23.01,4708.1012779558,208.989508,0.4921268,1.56846133628,0,0,-0.671082,317.7, 1.9, -2.1,0,0,1024,1024,1024,1024,316.7,-90,91,3.799,3.84,3.838,3.855,0,0,20.047,68,14,Waypoint,
37.2865898,-119.5625622,4709.0855299558,209.97376,0,0.66538059872,26700,2018-04-11 20:17:00,20,0,23.01,4709.0855299558,209.97376,0.4921268,1.56846133628,0,0,-0.671082,317.7, 1.8, -2.1,0,0,1024,1024,1024,1024,316.7,-90,91,3.799,3.84,3.838,3.855,0,0,20.047,68,14,Waypoint,
37.2865898,-119.5625622,4710.0697819558,210.958012,0,0.66538059872,26800,2018-04-11 20:17:00,20,0,23.01,4710.0697819558,210.958012,0.4921268,1.56846133628,0,0,-0.671082,317.7, 1.7, -2.2,0,0,1024,1024,1024,1024,316.7,-89.9,91,3.799,3.84,3.838,3.855,0,0,20.047,68,14,Waypoint,
37.2865898,-119.5625622,4711.0540339558,211.942264,0,0.66538059872,26900,2018-04-11 20:17:00,20,0,23.01,4711.0540339558,211.942264,0.4921268,1.56846133628,0,0,-0.671082,317.6, 1.7, -2.4,0,0,1024,1024,1024,1024,316.7,-89.9,91,3.799,3.84,3.838,3.855,0,0,20.047,68,14,Waypoint,
37.2865898,-119.5625622,4712.0382859558,212.926516,0,0.66538059872,27000,2018-04-11 20:17:00,20,0,23.094,4712.0382859558,212.926516,0.4921268,1.56846133628,0,0,-0.671082,317.6, 1.7, -2.6,0,0,1024,1024,1024,1024,316.7,-90,91,3.806,3.849,3.857,3.872,0,0,18.808,68,14,Waypoint,
37.2865898,-119.5625622,4713.3506219558,214.238852,0,0.66538059872,27100,2018-04-11 20:17:00,20,0,23.094,4713.3506219558,214.238852,0.4921268,1.56846133628,0,0,-0.671082,317.5, 1.5, -2.5,0,0,1024,1024,1024,1024,316.7,-90,91,3.806,3.849,3.857,3.872,0,0,18.808,68,14,Waypoint,
37.2865898,-119.5625622,4715.3191259558,216.207356,0,0.66538059872,27310,2018-04-11 20:17:01,20,0,23.094,4715.3191259558,216.207356,0.4921268,1.56846133628,0,0,-0.671082,317.3, 1.2, -1.8,0,0,1024,1024,1024,1024,316.7,-90,91,3.806,3.849,3.857,3.872,0,0,18.808,68,14,Waypoint,
37.2865897,-119.5625622,4716.3033779558,217.191608,0,0.633612225,27400,2018-04-11 20:17:01,20,0,23.094,4716.3033779558,217.191608,0.4921268,1.56846133628,0,0,-0.671082,317.3, 1.5, -1.6,0,0,1024,1024,1024,1024,316.7,-89.9,91,3.806,3.849,3.857,3.872,0,0,18.808,68,14,Waypoint,
37.2865897,-119.5625622,4717.2876299558,218.17586,0,0.633612225,27500,2018-04-11 20:17:01,20,0,23.094,4717.2876299558,218.17586,0.4921268,1.56846133628,0,0,-0.671082,317.4, 1.8, -1.7,0,0,1024,1024,1024,1024,316.7,-89.9,91,3.806,3.849,3.857,3.872,0,0,18.808,68,14,Waypoint,
37.2865897,-119.5625622,4718.2718819558,219.160112,0,0.633612225,27600,2018-04-11 20:17:01,20,0,23.094,4718.2718819558,219.160112,0.4921268,1.56846133628,0,0,-0.671082,317.5, 1.8, -2,0,0,1024,1024,1024,1024,316.8,-89.9,91,3.806,3.849,3.857,3.872,0,0,18.808,68,14,Waypoint,
37.2865898,-119.5625622,4720.2403859558,221.128616,0,0.66538059872,27800,2018-04-11 20:17:01,20,0,23.094,4720.2403859558,221.128616,0.4921268,1.56846133628,0,0,-0.671082,317.8, 1.7, -2.3,0,0,1024,1024,1024,1024,316.7,-90,91,3.806,3.849,3.857,3.872,0,0,18.808,68,14,Waypoint,
37.2865898,-119.5625622,4721.2246379558,222.112868,0,0.66538059872,28000,2018-04-11 20:17:01,20,0,23.094,4721.2246379558,222.112868,0.4921268,1.56846133628,0,0,-0.671082,317.8, 1.7, -2.4,0,0,1024,1024,1024,1024,316.7,-90,91,3.818,3.845,3.865,3.884,0,0,18.808,68,14,Waypoint,
37.2865898,-119.5625623,4722.8650579558,223.753288,0,0.679790048,28110,2018-04-11 20:17:01,20,0,23.094,4722.8650579558,223.753288,0.4921268,1.56846133628,0,0,-0.671082,317.8, 1.8, -2.1,0,0,1024,1024,1024,1024,316.7,-89.9,91,3.818,3.845,3.865,3.884,0,0,18.808,68,14,Waypoint,
37.2865898,-119.5625623,4723.8493099558,224.73754,0,0.679790048,28300,2018-04-11 20:17:01,20,0,23.094,4723.8493099558,224.73754,0.4921268,1.56846133628,0,0,-0.671082,317.7, 1.9, -2.2,0,0,1024,1024,1024,1024,316.7,-89.9,91,3.818,3.845,3.865,3.884,0,0,18.808,68,14,Waypoint,
37.2865899,-119.5625624,4725.8178139558,226.706044,0,0.72602036444,28500,2018-04-11 20:17:02,20,0,23.094,4725.8178139558,226.706044,0.4921268,1.56846133628,0,0,-0.671082,317.6, 2.2, -1.8,0,0,1024,1024,1024,1024,316.7,-89.9,91,3.818,3.845,3.865,3.884,0,0,18.808,68,14,Waypoint,
37.2865899,-119.5625625,4727.7863179558,228.674548,0,0.74152233344,28600,2018-04-11 20:17:02,20,0,23.094,4727.7863179558,228.674548,0.4921268,1.56846133628,0,0,-0.671082,317.7, 2.3, -1.8,0,0,1024,1024,1024,1024,316.7,-90,91,3.818,3.845,3.865,3.884,0,0,18.808,68,14,Waypoint,
37.2865899,-119.5625625,4728.7705699558,229.6588,0,0.74152233344,28700,2018-04-11 20:17:02,20,0,23.094,4728.7705699558,229.6588,0.4921268,1.56846133628,0,0,-0.671082,317.7, 2.2, -1.9,0,0,1024,1024,1024,1024,316.7,-89.9,91,3.818,3.845,3.865,3.884,0,0,18.808,68,14,Waypoint,
37.2865899,-119.5625625,4729.7548219558,230.643052,0,0.74152233344,28800,2018-04-11 20:17:02,20,0,23.094,4729.7548219558,230.643052,0.4921268,1.56846133628,0,0,-0.671082,317.6, 2.1, -2.2,0,0,1024,1024,1024,1024,316.7,-90,91,3.818,3.845,3.865,3.884,0,0,18.808,68,14,Waypoint,
37.2865899,-119.5625625,4730.7390739558,231.627304,0,0.74152233344,28900,2018-04-11 20:17:02,20,0,23.094,4730.7390739558,231.627304,0.4921268,1.56846133628,0,0,-0.671082,317.6, 2.1, -2.3,0,0,1024,1024,1024,1024,316.7,-90,91,3.818,3.845,3.865,3.884,0,0,18.808,68,14,Waypoint,
37.2865899,-119.5625625,4731.7233259558,232.611556,0,0.74152233344,29000,2018-04-11 20:17:02,20,0,23.171,4731.7233259558,232.611556,0.4921268,1.56846133628,0,0,-0.671082,317.7, 2, -2.2,0,0,1024,1024,1024,1024,316.7,-90,91,3.821,3.856,3.874,3.896,0,0,18.029,68,14,Waypoint,
37.28659,-119.5625625,4732.7075779558,233.595808,0,0.77229989348,29100,2018-04-11 20:17:02,20,0,23.171,4732.7075779558,233.595808,0.4921268,1.56846133628,0,0,-0.671082,317.7, 1.9, -2.2,0,0,1024,1024,1024,1024,316.7,-90,91,3.821,3.856,3.874,3.896,0,0,18.029,68,14,Waypoint,
