latitude,longitude,altitude(feet),ascent(feet),speed(mph),distance(feet),time(millisecond),datetime(utc),satellites,gpslevel,voltage(v),max_altitude(feet),max_ascent(feet),max_speed(mph),max_distance(feet), xSpeed(mph), ySpeed(mph), zSpeed(mph), compass_heading(degrees), pitch(degrees), roll(degrees),isPhoto,isVideo,rc_elevator,rc_aileron,rc_throttle,rc_rudder,gimbal_heading(degrees),gimbal_pitch(degrees),battery_percent,voltageCell1,voltageCell2,voltageCell3,voltageCell4,voltageCell5,voltageCell6,current(A),battery_temperature(f),flycStateRaw,flycState,message
37.2865984,-119.5625719,4499.0857381308,0,0,0,3100,2018-04-11 19:56:39,14,0,0,4499.0857381308,0,0,0,0,0,0,315.9, 0.2, 0.2,1,0,1024,1024,1024,1024,315.6,-90,97,4.004,4.02,4.012,4.036,0,0,0,68,11,AutoTakeoff,
37.2865985,-119.5625719,4499.0857381308,0,0,0.036484909304,3200,2018-04-11 19:56:39,14,0,0,4499.0857381308,0,0,0.036484909304,0,0,0,316, -0.2, 0,0,0,1024,1024,1025,1024,315.6,-90,97,4.004,4.02,4.012,4.036,0,0,0,68,11,AutoTakeoff,
37.2865985,-119.5625719,4499.0857381308,0,0,0.036484909304,3300,2018-04-11 19:56:39,14,0,0,4499.0857381308,0,0,0.036484909304,0,0,0,316, 0, 0.1,0,0,1024,1024,1024,1024,315.6,-89.9,97,4.004,4.02,4.012,4.036,0,0,0,68,11,AutoTakeoff,
37.2865986,-119.5625719,4499.0857381308,0,0,0.072969818608,3400,2018-04-11 19:56:39,15,0,0,4499.0857381308,0,0,0.072969818608,0,0,0,316, 0.5, -0.1,0,0,1024,1024,1025,1024,315.6,-89.9,97,4.004,4.02,4.012,4.036,0,0,0,68,11,AutoTakeoff,
37.2865987,-119.562572,4499.4138221308,0.328084,0,0.113238520684,3500,2018-04-11 19:56:39,16,0,0,4499.4138221308,0.328084,0,0.113238520684,0,0,0,316, 0.8, -0.5,0,0,1024,1024,1024,1024,315.6,-89.9,97,4.004,4.02,4.012,4.036,0,0,0,68,11,AutoTakeoff,
37.2865988,-119.562572,4499.4138221308,0.328084,0,0.148798561192,3600,2018-04-11 19:56:40,16,0,0,4499.4138221308,0.328084,0,0.148798561192,0,0,0,316.1, 0.7, -0.9,0,0,1024,1024,1024,1024,315.6,-90,97,4.004,4.02,4.012,4.036,0,0,0,68,11,AutoTakeoff,
37.2865989,-119.5625719,4499.7419061308,0.656168,0,0.18242454652,3700,2018-04-11 19:56:40,14,0,0,4499.7419061308,0.656168,0,0.18242454652,0,0,0,316.2, 0.5, -1.1,0,0,1024,1024,1025,1024,315.6,-90,97,4.004,4.02,4.012,4.036,0,0,0,68,11,AutoTakeoff,
37.286599,-119.5625719,4499.7419061308,0.656168,0,0.218909783908,3800,2018-04-11 19:56:40,14,0,0,4499.7419061308,0.656168,0,0.218909783908,0,0,0,316.2, 0.4, -1.2,0,0,1024,1024,1025,1024,315.6,-89.9,97,4.004,4.02,4.012,4.036,0,0,0,68,11,AutoTakeoff,
37.2865991,-119.5625719,4500.0699901308,0.984252,0,0.255394693212,3900,2018-04-11 19:56:40,14,0,0,4500.0699901308,0.984252,0,0.255394693212,0,0,0,316.3, 0.4, -1.2,0,0,1024,1024,1024,1024,315.6,-89.9,97,4.004,4.02,4.012,4.036,0,0,0,68,11,AutoTakeoff,
37.2865993,-119.562572,4500.0699901308,0.984252,0.223694,0.32964567984,4000,2018-04-11 19:56:40,14,0,24.132,4500.0699901308,0.984252,0.223694,0.32964567984,0,0,0,316.5, 0.7, -1.1,0,0,1024,1024,1025,1024,315.6,-89.9,97,4.004,4.02,4.012,4.036,0,0,14.478,68,11,AutoTakeoff,
37.2865994,-119.562572,4500.0699901308,0.984252,0.223694,0.36600394872,4100,2018-04-11 19:56:40,15,0,24.132,4500.0699901308,0.984252,0.223694,0.36600394872,0,0,-0.223694,316.6, 1, -1.2,0,0,1024,1024,1025,1024,315.6,-89.9,97,4.004,4.02,4.012,4.036,0,0,14.478,68,11,AutoTakeoff,
37.2865997,-119.562572,4500.7261581308,1.64042,0.223694,0.47519030392,4300,2018-04-11 19:56:40,15,0,24.132,4500.7261581308,1.64042,0.223694,0.47519030392,0,0,-0.223694,316.4, 1.5, -1.3,0,0,1024,1024,1025,1024,315.6,-89.9,97,4.004,4.02,4.012,4.036,0,0,14.478,68,11,AutoTakeoff,
37.2865998,-119.562572,4500.7261581308,1.64042,0,0.5116141896,4400,2018-04-11 19:56:40,15,0,24.132,4500.7261581308,1.64042,0.223694,0.5116141896,0,0,-0.223694,316.3, 1.5, -1.5,0,0,1024,1024,1025,1024,315.6,-89.9,97,4.004,4.02,4.012,4.036,0,0,14.478,68,11,AutoTakeoff,
37.2865999,-119.562572,4501.0542421308,1.968504,0,0.54804463696,4500,2018-04-11 19:56:40,16,0,24.132,4501.0542421308,1.968504,0.223694,0.54804463696,0,0,-0.223694,316.2, 1.5, -1.7,0,0,1024,1024,1024,1024,315.6,-89.9,97,4.004,4.02,4.012,4.036,0,0,14.478,68,11,AutoTakeoff,
37.2866,-119.5625719,4501.3823261308,2.296588,0,0.5837598612,4700,2018-04-11 19:56:41,16,0,24.132,4501.3823261308,2.296588,0.223694,0.5837598612,0,0,-0.223694,316.2, 1.7, -1.8,0,0,1024,1024,1024,1024,315.6,-89.9,97,4.004,4.02,4.012,4.036,0,0,14.478,68,11,AutoTakeoff,
37.2866001,-119.5625718,4501.3823261308,2.296588,0,0.62092193588,4800,2018-04-11 19:56:41,15,0,24.132,4501.3823261308,2.296588,0.223694,0.62092193588,0,0,-0.223694,316.1, 1.8, -1.8,0,0,1024,1024,1025,1024,315.6,-89.9,97,4.004,4.02,4.012,4.036,0,0,14.478,68,11,AutoTakeoff,
37.2866002,-119.5625717,4501.7104101308,2.624672,0,0.65929135968,4900,2018-04-11 19:56:41,15,0,24.132,4501.7104101308,2.624672,0.223694,0.65929135968,0,0,-0.223694,315.8, 1.6, -2.1,0,0,1024,1024,1025,1024,315.6,-89.9,97,4.004,4.02,4.012,4.036,0,0,14.478,68,11,AutoTakeoff,
37.2866004,-119.5625716,4502.0384941308,2.952756,0,0.7348753516,5000,2018-04-11 19:56:41,14,0,23.935,4502.0384941308,2.952756,0.223694,0.7348753516,0,0,-0.223694,315.6, 1.6, -2.4,0,0,1024,1024,1025,1024,315.6,-89.9,97,3.978,3.995,3.968,3.996,0,0,16.343,68,11,AutoTakeoff,
37.2866007,-119.5625715,4502.3665781308,3.28084,0,0.84714897724,5100,2018-04-11 19:56:41,16,0,23.935,4502.3665781308,3.28084,0.223694,0.84714897724,0,0,0,315.3, 1.3, -3,0,0,1024,1024,1024,1024,315.6,-89.9,97,3.978,3.995,3.968,3.996,0,0,16.343,68,14,Waypoint,
37.2866008,-119.5625714,4502.3665781308,3.28084,0,0.88758533024,5200,2018-04-11 19:56:41,16,0,23.935,4502.3665781308,3.28084,0.223694,0.88758533024,0,0,0,315.3, 0.8, -2.9,0,0,1024,1024,1024,1024,315.6,-90,97,3.978,3.995,3.968,3.996,0,0,16.343,68,14,Waypoint,
37.286601,-119.5625713,4502.6946621308,3.608924,0,0.96446525396,5300,2018-04-11 19:56:41,16,0,23.935,4502.6946621308,3.608924,0.223694,0.96446525396,0,0,0,315.2, 0.6, -2.7,0,0,1024,1024,1024,1024,315.6,-90,97,3.978,3.995,3.968,3.996,0,0,16.343,68,14,Waypoint,
37.2866011,-119.5625711,4502.6946621308,3.608924,0,1.01209648908,5400,2018-04-11 19:56:41,16,0,23.935,4502.6946621308,3.608924,0.223694,1.01209648908,0,0,0,315.2, 0.7, -2.6,0,0,1024,1024,1025,1024,315.6,-90,97,3.978,3.995,3.968,3.996,0,0,16.343,68,14,Waypoint,
37.2866012,-119.5625711,4502.6946621308,3.608924,0,1.04764110964,5500,2018-04-11 19:56:41,14,0,23.935,4502.6946621308,3.608924,0.223694,1.04764110964,0,0,0,315.1, 0.9, -2.6,0,0,1024,1024,1025,1024,315.6,-89.9,97,3.978,3.995,3.968,3.996,0,0,16.343,68,14,Waypoint,
37.2866012,-119.5625711,4503.0227461308,3.937008,0,1.04764110964,5600,2018-04-11 19:56:42,14,0,23.935,4503.0227461308,3.937008,0.223694,1.04764110964,0,0,-0.223694,315.2, 1.1, -2.5,0,0,1024,1024,1025,1024,315.6,-89.9,97,3.978,3.995,3.968,3.996,0,0,16.343,68,14,Waypoint,
37.2866012,-119.5625711,4503.3508301308,4.265092,0,1.04764110964,5700,2018-04-11 19:56:42,14,0,23.935,4503.3508301308,4.265092,0.223694,1.04764110964,0,0,-0.223694,315.2, 1, -2.1,0,0,1024,1024,1025,1024,315.6,-89.9,97,3.978,3.995,3.968,3.996,0,0,16.343,68,14,Waypoint,
37.2866013,-119.562571,4503.6789141308,4.593176,0,1.08983927372,5800,2018-04-11 19:56:42,14,0,23.935,4503.6789141308,4.593176,0.223694,1.08983927372,0,0,-0.223694,315.1, 0.8, -2,0,0,1024,1024,1025,1024,315.6,-90,97,3.978,3.995,3.968,3.996,0,0,16.343,68,14,Waypoint,
37.2866014,-119.562571,4504.0069981308,4.92126,0,1.1252953116,5900,2018-04-11 19:56:42,16,0,23.935,4504.0069981308,4.92126,0.223694,1.1252953116,0,0,-0.223694,315, 0.7, -1.9,0,0,1024,1024,1025,1024,315.6,-90,97,3.978,3.995,3.968,3.996,0,0,16.343,68,14,Waypoint,
37.2866015,-119.562571,4504.3350821308,5.249344,0,1.16081368544,6000,2018-04-11 19:56:42,16,0,24.004,4504.3350821308,5.249344,0.223694,1.16081368544,0,0,-0.223694,315, 0.7, -2.1,0,0,1024,1024,1025,1024,315.6,-90,97,3.985,3.996,3.982,4.072,0,0,14.301,68,14,Waypoint,
37.2866017,-119.5625709,4504.9912501308,5.905512,0,1.2385006958,6100,2018-04-11 19:56:42,16,0,24.004,4504.9912501308,5.905512,0.223694,1.2385006958,0,0,-0.447388,314.9, 0.7, -2.3,0,0,1024,1024,1025,1024,315.6,-90,97,3.985,3.996,3.982,4.072,0,0,14.301,68,14,Waypoint,
37.2866019,-119.5625708,4505.3193341308,6.233596,0,1.3162894122,6200,2018-04-11 19:56:42,16,0,24.004,4505.3193341308,6.233596,0.223694,1.3162894122,0,0,-0.447388,314.9, 0.9, -2.4,0,0,1024,1024,1024,1024,315.6,-89.9,97,3.985,3.996,3.982,4.072,0,0,14.301,68,14,Waypoint,
37.2866021,-119.5625709,4505.9755021308,6.889764,0,1.38080056912,6300,2018-04-11 19:56:42,15,0,24.004,4505.9755021308,6.889764,0.223694,1.38080056912,0,0,-0.447388,314.9, 1.4, -2.6,0,0,1024,1024,1025,1024,315.6,-89.9,97,3.985,3.996,3.982,4.072,0,0,14.301,68,14,Waypoint,
37.2866022,-119.5625711,4506.6316701308,7.545932,0,1.4057415148,6400,2018-04-11 19:56:42,15,0,24.004,4506.6316701308,7.545932,0.223694,1.4057415148,0,0,-0.447388,314.9, 1.7, -2.7,0,0,1024,1024,1025,1024,315.6,-89.9,97,3.985,3.996,3.982,4.072,0,0,14.301,68,14,Waypoint,
37.2866023,-119.5625712,4507.6159221308,8.530184,0,1.43734912736,6500,2018-04-11 19:56:42,17,0,24.004,4507.6159221308,8.530184,0.223694,1.43734912736,0,0,-0.671082,314.9, 1.9, -2.7,0,0,1024,1024,1025,1024,315.6,-89.9,97,3.985,3.996,3.982,4.072,0,0,14.301,68,14,Waypoint,
37.2866024,-119.5625712,4508.6001741308,9.514436,0,1.4734744566,6600,2018-04-11 19:56:43,17,0,24.004,4508.6001741308,9.514436,0.223694,1.4734744566,0,0,-0.671082,314.9, 2.1, -2.6,0,0,1024,1024,1025,1024,315.6,-90,97,3.985,3.996,3.982,4.072,0,0,14.301,68,14,Waypoint,
37.2866026,-119.5625712,4509.2563421308,10.170604,0,1.54578088936,6700,2018-04-11 19:56:43,17,0,24.004,4509.2563421308,10.170604,0.223694,1.54578088936,0,0,-0.671082,315, 1.8, -2.5,0,0,1024,1024,1024,1024,315.6,-89.9,97,3.985,3.996,3.982,4.072,0,0,14.301,68,14,Waypoint,
37.2866028,-119.5625711,4510.2405941308,11.154856,0,1.622047296,6800,2018-04-11 19:56:43,17,0,24.004,4510.2405941308,11.154856,0.223694,1.622047296,0,0,-0.671082,315.1, 1.7, -2.7,0,0,1024,1024,1024,1024,315.6,-89.9,97,3.985,3.996,3.982,4.072,0,0,14.301,68,14,Waypoint,
37.2866029,-119.5625711,4511.2248461308,12.139108,0,1.65816278272,6900,2018-04-11 19:56:43,15,0,24.004,4511.2248461308,12.139108,0.223694,1.65816278272,0,0,-0.671082,315, 1.8, -2.9,0,0,1024,1024,1025,1024,315.6,-89.9,97,3.985,3.996,3.982,4.072,0,0,14.301,68,14,Waypoint,
37.286603,-119.5625713,4513.5214341308,14.435696,0,1.6873196078,7200,2018-04-11 19:56:43,16,0,24.004,4513.5214341308,14.435696,0.223694,1.6873196078,0,0,-0.671082,314.9, 1.9, -2.7,0,0,1024,1024,1025,1024,315.6,-89.9,97,3.985,3.996,3.982,4.072,0,0,14.301,68,14,Waypoint,
37.2866031,-119.5625717,4515.8180221308,16.732284,0,1.71577433312,7300,2018-04-11 19:56:43,17,0,24.004,4515.8180221308,16.732284,0.223694,1.71577433312,0,0,-0.671082,314.9, 2.3, -1.8,0,0,1024,1024,1025,1024,315.6,-89.9,97,3.985,3.996,3.982,4.072,0,0,14.301,68,14,Waypoint,
37.2866031,-119.5625718,4518.1146101308,19.028872,0.223694,1.71503942496,7500,2018-04-11 19:56:43,15,0,24.004,4518.1146101308,19.028872,0.223694,1.71577433312,0,0,-0.671082,315.2, 2.5, -1.2,0,0,1024,1024,1025,1024,315.6,-89.9,97,3.985,3.996,3.982,4.072,0,0,14.301,68,14,Waypoint,
37.286603,-119.5625717,4519.0988621308,20.013124,0.223694,1.67931107736,7600,2018-04-11 19:56:44,15,0,24.004,4519.0988621308,20.013124,0.223694,1.71577433312,0,0,-0.671082,315.3, 2.1, -1.3,0,0,1024,1024,1025,1024,315.6,-89.9,97,3.985,3.996,3.982,4.072,0,0,14.301,68,14,Waypoint,
37.286603,-119.5625716,4521.3954501308,22.309712,0.223694,1.68056435824,7800,2018-04-11 19:56:44,16,0,24.004,4521.3954501308,22.309712,0.223694,1.71577433312,0,0,-0.671082,315.3, 1, -1.9,0,0,1024,1024,1025,1024,315.6,-90,97,3.985,3.996,3.982,4.072,0,0,14.301,68,14,Waypoint,
37.286603,-119.5625715,4522.3797021308,23.293964,0.223694,1.68231960764,7900,2018-04-11 19:56:44,16,0,24.004,4522.3797021308,23.293964,0.223694,1.71577433312,0,0,-0.671082,315.3, 1, -2.1,0,0,1024,1024,1025,1024,315.6,-90,97,3.985,3.996,3.982,4.072,0,0,14.301,68,14,Waypoint,
37.286603,-119.5625714,4523.3639541308,24.278216,0.223694,1.68457026388,8000,2018-04-11 19:56:44,16,0,23.206,4523.3639541308,24.278216,0.223694,1.71577433312,0,0,-0.671082,315.4, 0.9, -2.4,0,0,1024,1024,1025,1024,315.6,-90,96,3.862,3.883,3.848,3.895,0,0,22.377,68,14,Waypoint,
37.2866029,-119.5625713,4524.6762901308,25.590552,0.223694,1.6510335174,8100,2018-04-11 19:56:44,16,0,23.206,4524.6762901308,25.590552,0.223694,1.71577433312,0,0,-0.671082,315.3, 0.8, -2.6,0,0,1024,1024,1024,1024,315.6,-90,96,3.862,3.883,3.848,3.895,0,0,22.377,68,14,Waypoint,
37.2866028,-119.5625713,4525.6605421308,26.574804,0.223694,1.61475726952,8200,2018-04-11 19:56:44,16,0,23.206,4525.6605421308,26.574804,0.223694,1.71577433312,0,0,-0.671082,315.3, 0.7, -2.4,0,0,1024,1024,1025,1024,315.6,-90,96,3.862,3.883,3.848,3.895,0,0,22.377,68,14,Waypoint,
37.2866026,-119.5625712,4526.6447941308,27.559056,0.223694,1.54578088936,8300,2018-04-11 19:56:44,16,0,23.206,4526.6447941308,27.559056,0.223694,1.71577433312,0,0,-0.671082,315.3, 0.8, -2,0,0,1024,1024,1024,1024,315.6,-90,96,3.862,3.883,3.848,3.895,0,0,22.377,68,14,Waypoint,
37.2866025,-119.5625712,4527.6290461308,28.543308,0.223694,1.50961947088,8400,2018-04-11 19:56:44,16,0,23.206,4527.6290461308,28.543308,0.223694,1.71577433312,0,0,-0.671082,315.3, 0.7, -1.4,0,0,1024,1024,1024,1024,315.6,-90,96,3.862,3.883,3.848,3.895,0,0,22.377,68,14,Waypoint,
37.2866023,-119.5625713,4528.6132981308,29.52756,0.223694,1.43353351044,8500,2018-04-11 19:56:44,17,0,23.206,4528.6132981308,29.52756,0.223694,1.71577433312,0,0,-0.671082,315.2, 0.7, -0.9,0,0,1024,1024,1024,1024,315.6,-90,96,3.862,3.883,3.848,3.895,0,0,22.377,68,14,Waypoint,
37.2866021,-119.5625713,4529.9256341308,30.839896,0.223694,1.36113193332,8600,2018-04-11 19:56:45,17,0,23.206,4529.9256341308,30.839896,0.223694,1.71577433312,0,0,-0.671082,315, 0.4, -0.7,0,0,1024,1024,1025,1024,315.6,-90,96,3.862,3.883,3.848,3.895,0,0,22.377,68,14,Waypoint,
37.2866019,-119.5625713,4530.9098861308,31.824148,0.223694,1.288795973,8700,2018-04-11 19:56:45,17,0,23.206,4530.9098861308,31.824148,0.223694,1.71577433312,0,0,-0.671082,314.9, 0.4, -0.8,0,0,1024,1024,1025,1024,315.6,-90,96,3.862,3.883,3.848,3.895,0,0,22.377,68,14,Waypoint,
37.2866018,-119.5625712,4531.8941381308,32.8084,0.223694,1.2570210376,8800,2018-04-11 19:56:45,17,0,23.206,4531.8941381308,32.8084,0.223694,1.71577433312,0,0,-0.671082,315, 0.4, -0.8,0,0,1024,1024,1024,1024,315.6,-90,96,3.862,3.883,3.848,3.895,0,0,22.377,68,14,Waypoint,
37.2866016,-119.5625711,4532.8783901308,33.792652,0.223694,1.19039045804,8900,2018-04-11 19:56:45,17,0,23.206,4532.8783901308,33.792652,0.223694,1.71577433312,0,0,-0.671082,315.2, 0, -1.1,0,0,1024,1024,1025,1024,315.6,-90,96,3.862,3.883,3.848,3.895,0,0,22.377,68,14,Waypoint,
37.2866014,-119.5625711,4534.1907261308,35.104988,0.223694,1.11891079696,9000,2018-04-11 19:56:45,17,0,23.439,4534.1907261308,35.104988,0.223694,1.71577433312,0,0,-0.671082,315.3, -0.4, -1,0,0,1024,1024,1024,1024,315.6,-90,96,3.862,3.883,3.848,3.895,0,0,18.716,68,14,Waypoint,
37.2866012,-119.562571,4534.8468941308,35.761156,0.223694,1.05445541432,9100,2018-04-11 19:56:45,17,0,23.439,4534.8468941308,35.761156,0.223694,1.71577433312,0,0,-0.671082,315.4, -0.7, -0.8,0,0,1024,1024,1025,1024,315.6,-90,96,3.862,3.883,3.848,3.895,0,0,18.716,68,14,Waypoint,
37.286601,-119.5625709,4536.1592301308,37.073492,0.223694,0.9920275908,9220,2018-04-11 19:56:45,17,0,23.439,4536.1592301308,37.073492,0.223694,1.71577433312,0,0,-0.671082,315.4, -1, -0.6,0,0,1024,1024,1025,1024,315.6,-90,96,3.862,3.883,3.848,3.895,0,0,18.716,68,14,Waypoint,
37.2866008,-119.5625709,4537.1434821308,38.057744,0.223694,0.92250002952,9300,2018-04-11 19:56:45,16,0,23.439,4537.1434821308,38.057744,0.223694,1.71577433312,0,0,-0.671082,315.5, -1.2, -0.4,0,0,1024,1024,1024,1024,315.6,-90,96,3.862,3.883,3.848,3.895,0,0,18.716,68,14,Waypoint,
37.2866006,-119.5625709,4538.1277341308,39.041996,0.223694,0.85354661524,9500,2018-04-11 19:56:45,16,0,23.439,4538.1277341308,39.041996,0.223694,1.71577433312,0,0,-0.671082,315.5, -1.3, -0.2,0,0,1024,1024,1024,1024,315.6,-89.9,96,3.862,3.883,3.848,3.895,0,0,18.716,68,14,Waypoint,
37.2866005,-119.562571,4539.1119861308,40.026248,0.223694,0.80950133824,9600,2018-04-11 19:56:46,16,0,23.439,4539.1119861308,40.026248,0.223694,1.71577433312,0,0,-0.671082,315.6, -1.3, 0.4,0,0,1024,1024,1024,1024,315.6,-89.9,96,3.862,3.883,3.848,3.895,0,0,18.716,68,14,Waypoint,
37.2866004,-119.5625711,4540.4243221308,41.338584,0,0.76576117936,9700,2018-04-11 19:56:46,16,0,23.439,4540.4243221308,41.338584,0.223694,1.71577433312,0,0,-0.671082,315.7, -1.1, 0.6,0,0,1024,1024,1024,1024,315.6,-89.9,96,3.862,3.883,3.848,3.895,0,0,18.716,68,14,Waypoint,
37.2866003,-119.5625712,4541.4085741308,42.322836,0,0.72238191288,9800,2018-04-11 19:56:46,16,0,23.439,4541.4085741308,42.322836,0.223694,1.71577433312,0,0,-0.671082,315.9, -0.6, 0.5,0,0,1024,1024,1024,1024,315.6,-89.9,96,3.862,3.883,3.848,3.895,0,0,18.716,68,14,Waypoint,
37.2866003,-119.5625713,4542.3928261308,43.307088,0,0.71475724072,9900,2018-04-11 19:56:46,16,0,23.439,4542.3928261308,43.307088,0.223694,1.71577433312,0,0,-0.671082,315.9, 0, 0.3,0,0,1024,1024,1024,1024,315.6,-89.9,96,3.862,3.883,3.848,3.895,0,0,18.716,68,14,Waypoint,
37.2866003,-119.5625713,4544.6894141308,45.603676,0,0.71475724072,10000,2018-04-11 19:56:46,16,0,23.439,4544.6894141308,45.603676,0.223694,1.71577433312,0,0,-0.671082,315.4, 0.2, -1.2,0,0,1024,1024,1024,1024,315.6,-89.9,96,3.899,3.916,3.89,3.924,0,0,18.716,68,14,Waypoint,
37.2866003,-119.5625713,4545.6736661308,46.587928,0,0.71475724072,10100,2018-04-11 19:56:46,16,0,23.439,4545.6736661308,46.587928,0.223694,1.71577433312,0,0,-0.671082,315, 0.3, -1.5,0,0,1024,1024,1024,1024,315.6,-89.9,96,3.899,3.916,3.89,3.924,0,0,18.716,68,14,Waypoint,
37.2866004,-119.5625712,4546.6579181308,47.57218,0,0.75746065416,10200,2018-04-11 19:56:46,16,0,23.439,4546.6579181308,47.57218,0.223694,1.71577433312,0,0,-0.671082,314.7, 0.6, -1.4,0,0,1024,1024,1024,1024,315.6,-89.9,96,3.899,3.916,3.89,3.924,0,0,18.716,68,14,Waypoint,
37.2866004,-119.5625712,4547.6421701308,48.556432,0,0.75746065416,10300,2018-04-11 19:56:46,16,0,23.439,4547.6421701308,48.556432,0.223694,1.71577433312,0,0,-0.671082,314.5, 0.8, -1.6,0,0,1024,1024,1024,1024,315.6,-89.9,96,3.899,3.916,3.89,3.924,0,0,18.716,68,14,Waypoint,
37.2866004,-119.5625712,4548.6264221308,49.540684,0,0.75746065416,10400,2018-04-11 19:56:46,16,0,23.439,4548.6264221308,49.540684,0.223694,1.71577433312,0,0,-0.671082,314.5, 1, -1.8,0,0,1024,1024,1025,1024,315.6,-89.9,96,3.899,3.916,3.89,3.924,0,0,18.716,68,14,Waypoint,
37.2866005,-119.5625712,4549.6106741308,50.524936,0,0.79267062904,10500,2018-04-11 19:56:46,16,0,23.439,4549.6106741308,50.524936,0.223694,1.71577433312,0,0,-0.671082,314.7, 1, -1.8,0,0,1024,1024,1024,1024,315.6,-89.9,96,3.899,3.916,3.89,3.924,0,0,18.716,68,14,Waypoint,
37.2866005,-119.5625712,4550.5949261308,51.509188,0,0.79267062904,10600,2018-04-11 19:56:47,16,0,23.439,4550.5949261308,51.509188,0.223694,1.71577433312,0,0,-0.671082,315.1, 1, -2,0,0,1024,1024,1025,1024,315.6,-89.9,96,3.899,3.916,3.89,3.924,0,0,18.716,68,14,Waypoint,
37.2866006,-119.5625712,4551.5791781308,52.49344,0,0.82798887164,10700,2018-04-11 19:56:47,16,0,23.439,4551.5791781308,52.49344,0.223694,1.71577433312,0,0,-0.671082,315.4, 0.6, -2.1,0,0,1024,1024,1025,1024,315.6,-90,96,3.899,3.916,3.89,3.924,0,0,18.716,68,14,Waypoint,
37.2866006,-119.5625712,4552.5634301308,53.477692,0,0.82798887164,10800,2018-04-11 19:56:47,16,0,23.439,4552.5634301308,53.477692,0.223694,1.71577433312,0,0,-0.671082,315.8, 0.4, -2.5,0,0,1024,1024,1025,1024,315.6,-90,96,3.899,3.916,3.89,3.924,0,0,18.716,68,14,Waypoint,
37.2866007,-119.5625711,4553.5476821308,54.461944,0,0.87069228508,10900,2018-04-11 19:56:47,16,0,23.439,4553.5476821308,54.461944,0.223694,1.71577433312,0,0,-0.671082,316, 0.5, -2.9,0,0,1024,1024,1024,1024,315.6,-89.9,96,3.899,3.916,3.89,3.924,0,0,18.716,68,14,Waypoint,
37.2866009,-119.562571,4554.5319341308,55.446196,0.223694,0.94879924296,11000,2018-04-11 19:56:47,16,0,23.428,4554.5319341308,55.446196,0.223694,1.71577433312,0,0,-0.671082,315.9, 0.7, -3.3,0,0,1024,1024,1024,1024,315.6,-89.9,96,3.893,3.906,3.866,3.894,0,0,19.081,68,14,Waypoint,
37.286601,-119.562571,4555.5161861308,56.430448,0.223694,0.98392719684,11100,2018-04-11 19:56:47,16,0,23.428,4555.5161861308,56.430448,0.223694,1.71577433312,0,0,-0.671082,315.8, 1, -3.5,0,0,1024,1024,1024,1024,315.6,-89.9,96,3.893,3.906,3.866,3.894,0,0,19.081,68,14,Waypoint,
37.2866011,-119.5625711,4556.5004381308,57.4147,0,1.01209648908,11200,2018-04-11 19:56:47,16,0,23.428,4556.5004381308,57.4147,0.223694,1.71577433312,0,0,-0.671082,315.6, 1.3, -3.3,0,0,1024,1024,1024,1024,315.6,-89.9,96,3.893,3.906,3.866,3.894,0,0,19.081,68,14,Waypoint,
37.2866012,-119.5625711,4557.4846901308,58.398952,0,1.04764110964,11300,2018-04-11 19:56:47,16,0,23.428,4557.4846901308,58.398952,0.223694,1.71577433312,0,0,-0.671082,315.5, 1.7, -3,0,0,1024,1024,1025,1024,315.6,-89.9,96,3.893,3.906,3.866,3.894,0,0,19.081,68,14,Waypoint,
37.2866013,-119.562571,4558.4689421308,59.383204,0,1.08983927372,11400,2018-04-11 19:56:47,16,0,23.428,4558.4689421308,59.383204,0.223694,1.71577433312,0,0,-0.671082,315.5, 1.8, -2.7,0,0,1024,1024,1025,1024,315.6,-89.9,96,3.893,3.906,3.866,3.894,0,0,19.081,68,14,Waypoint,
37.2866014,-119.562571,4559.1251101308,60.039372,0,1.1252953116,11500,2018-04-11 19:56:47,16,0,23.428,4559.1251101308,60.039372,0.223694,1.71577433312,0,0,-0.671082,315.5, 1.8, -2.7,0,0,1024,1024,1024,1024,315.6,-89.9,96,3.893,3.906,3.866,3.894,0,0,19.081,68,14,Waypoint,
37.2866015,-119.562571,4560.1093621308,61.023624,0,1.16081368544,11700,2018-04-11 19:56:48,16,0,23.428,4560.1093621308,61.023624,0.223694,1.71577433312,0,0,-0.671082,315.6, 1.6, -2.9,0,0,1024,1024,1024,1024,315.6,-89.9,96,3.893,3.906,3.866,3.894,0,0,19.081,68,14,Waypoint,
37.2866016,-119.562571,4561.0936141308,62.007876,0,1.1963911144,11800,2018-04-11 19:56:48,16,0,23.428,4561.0936141308,62.007876,0.223694,1.71577433312,0,0,-0.671082,315.5, 1.3, -3,0,0,1024,1024,1024,1024,315.6,-89.9,96,3.893,3.906,3.866,3.894,0,0,19.081,68,14,Waypoint,
37.2866017,-119.562571,4562.0778661308,62.992128,0,1.2320210368,11900,2018-04-11 19:56:48,16,0,23.428,4562.0778661308,62.992128,0.223694,1.71577433312,0,0,-0.671082,315.5, 1.3, -3.2,0,0,1024,1024,1024,1024,315.6,-89.9,96,3.893,3.906,3.866,3.894,0,0,19.081,68,14,Waypoint,
37.2866018,-119.5625709,4564.0463701308,64.960632,0,1.2739993846,12000,2018-04-11 19:56:48,16,0,23.405,4564.0463701308,64.960632,0.223694,1.71577433312,0,0,-0.671082,315.3, 1.3, -3.3,0,0,1024,1024,1024,1024,315.6,-89.9,96,3.894,3.905,3.876,3.913,0,0,18.84,68,14,Waypoint,
37.2866019,-119.5625708,4564.7025381308,65.6168,0,1.3162894122,12100,2018-04-11 19:56:48,16,0,23.405,4564.7025381308,65.6168,0.223694,1.71577433312,0,0,-0.671082,315.2, 1.2, -3.3,0,0,1024,1024,1025,1024,315.6,-89.9,96,3.894,3.905,3.876,3.913,0,0,18.84,68,14,Waypoint,
37.286602,-119.5625708,4565.6867901308,66.601052,0,1.35171264168,12200,2018-04-11 19:56:48,16,0,23.405,4565.6867901308,66.601052,0.223694,1.71577433312,0,0,-0.671082,315.2, 1.2, -3.5,0,0,1024,1024,1024,1024,315.6,-89.9,96,3.894,3.905,3.876,3.913,0,0,18.84,68,14,Waypoint,
37.2866022,-119.5625706,4567.6552941308,68.569556,0,1.43686684388,12400,2018-04-11 19:56:48,16,0,23.405,4567.6552941308,68.569556,0.223694,1.71577433312,0,0,-0.671082,315.3, 1, -3.4,0,0,1024,1024,1025,1024,315.6,-89.9,96,3.894,3.905,3.876,3.913,0,0,18.84,68,14,Waypoint,
37.2866022,-119.5625706,4568.6395461308,69.553808,0,1.43686684388,12500,2018-04-11 19:56:48,17,0,23.405,4568.6395461308,69.553808,0.223694,1.71577433312,0,0,-0.671082,315.3, 1.1, -3.4,0,0,1024,1024,1024,1024,315.6,-89.9,96,3.894,3.905,3.876,3.913,0,0,18.84,68,14,Waypoint,
37.2866022,-119.5625706,4569.6237981308,70.53806,0,1.43686684388,12600,2018-04-11 19:56:49,17,0,23.405,4569.6237981308,70.53806,0.223694,1.71577433312,0,0,-0.671082,315.3, 1.2, -3.3,0,0,1024,1024,1025,1024,315.6,-89.9,96,3.894,3.905,3.876,3.913,0,0,18.84,68,14,Waypoint,
37.2866023,-119.5625706,4571.5923021308,72.506564,0,1.47210306548,12800,2018-04-11 19:56:49,17,0,23.405,4571.5923021308,72.506564,0.223694,1.71577433312,0,0,-0.671082,315.3, 1.1, -3,0,0,1024,1024,1025,1024,315.6,-89.9,96,3.894,3.905,3.876,3.913,0,0,18.84,68,14,Waypoint,
37.2866023,-119.5625706,4572.5765541308,73.490816,0,1.47210306548,12900,2018-04-11 19:56:49,17,0,23.405,4572.5765541308,73.490816,0.223694,1.71577433312,0,0,-0.671082,315.3, 1, -3,0,0,1024,1024,1024,1024,315.6,-89.9,96,3.894,3.905,3.876,3.913,0,0,18.84,68,14,Waypoint,
37.2866023,-119.5625705,4573.5608061308,74.475068,0,1.47980975864,13000,2018-04-11 19:56:49,17,0,23.402,4573.5608061308,74.475068,0.223694,1.71577433312,0,0,-0.671082,315.4, 1.1, -3,0,0,1024,1024,1025,1024,315.6,-89.9,96,3.875,3.885,3.881,3.888,0,0,18.358,68,14,Waypoint,
37.2866023,-119.5625705,4574.5450581308,75.45932,0,1.47980975864,13100,2018-04-11 19:56:49,17,0,23.402,4574.5450581308,75.45932,0.223694,1.71577433312,0,0,-0.671082,315.4, 1.1, -3.2,0,0,1024,1024,1025,1024,315.6,-89.9,96,3.875,3.885,3.881,3.888,0,0,18.358,68,14,Waypoint,
37.2866023,-119.5625705,4575.5293101308,76.443572,0,1.47980975864,13200,2018-04-11 19:56:49,17,0,23.402,4575.5293101308,76.443572,0.223694,1.71577433312,0,0,-0.671082,315.4, 1.1, -3.2,0,0,1024,1024,1025,1024,315.6,-89.9,96,3.875,3.885,3.881,3.888,0,0,18.358,68,14,Waypoint,
37.2866023,-119.5625705,4576.5135621308,77.427824,0,1.47980975864,13300,2018-04-11 19:56:49,17,0,23.402,4576.5135621308,77.427824,0.223694,1.71577433312,0,0,-0.671082,315.4, 1.1, -3.2,0,0,1024,1024,1024,1024,315.6,-90,96,3.875,3.885,3.881,3.888,0,0,18.358,68,14,Waypoint,
37.2866023,-119.5625705,4577.1697301308,78.083992,0,1.47980975864,13400,2018-04-11 19:56:49,17,0,23.402,4577.1697301308,78.083992,0.223694,1.71577433312,0,0,-0.671082,315.3, 0.9, -3.1,0,0,1024,1024,1025,1024,315.6,-90,96,3.875,3.885,3.881,3.888,0,0,18.358,68,14,Waypoint,
37.2866022,-119.5625705,4578.1539821308,79.068244,0,1.44476054492,13510,2018-04-11 19:56:49,17,0,23.402,4578.1539821308,79.068244,0.223694,1.71577433312,0,0,-0.671082,315.3, 0.7, -3,0,0,1024,1024,1025,1024,315.6,-90,96,3.875,3.885,3.881,3.888,0,0,18.358,68,14,Waypoint,
37.2866022,-119.5625704,4579.1382341308,80.052496,0,1.45319230372,13600,2018-04-11 19:56:50,17,0,23.402,4579.1382341308,80.052496,0.223694,1.71577433312,0,0,-0.671082,315.2, 0.6, -2.9,0,0,1024,1024,1024,1024,315.6,-90,96,3.875,3.885,3.881,3.888,0,0,18.358,68,14,Waypoint,
37.2866022,-119.5625704,4580.4505701308,81.364832,0,1.45319230372,13710,2018-04-11 19:56:50,17,0,23.402,4580.4505701308,81.364832,0.223694,1.71577433312,0,0,-0.671082,315.2, 0.5, -2.8,0,0,1024,1024,1025,1024,315.6,-90,96,3.875,3.885,3.881,3.888,0,0,18.358,68,14,Waypoint,
37.2866021,-119.5625704,4581.4348221308,82.349084,0,1.41842852308,13800,2018-04-11 19:56:50,17,0,23.402,4581.4348221308,82.349084,0.223694,1.71577433312,0,0,-0.671082,315.2, 0.4, -2.8,0,0,1024,1024,1024,1024,315.6,-90,96,3.875,3.885,3.881,3.888,0,0,18.358,68,14,Waypoint,
37.286602,-119.5625703,4583.4033261308,84.317588,0,1.39315621256,14100,2018-04-11 19:56:50,17,0,23.402,4583.4033261308,84.317588,0.223694,1.71577433312,0,0,-0.671082,315.3, 0.4, -3,0,0,1024,1024,1025,1024,315.6,-90,96,3.875,3.885,3.881,3.888,0,0,18.358,68,14,Waypoint,
37.286602,-119.5625703,4584.3875781308,85.30184,0,1.39315621256,14200,2018-04-11 19:56:50,17,0,23.402,4584.3875781308,85.30184,0.223694,1.71577433312,0,0,-0.671082,315.4, 0.3, -2.9,0,0,1024,1024,1024,1024,315.6,-90,96,3.875,3.885,3.881,3.888,0,0,18.358,68,14,Waypoint,
37.2866019,-119.5625702,4586.3560821308,87.270344,0,1.36900594932,14300,2018-04-11 19:56:50,17,0,23.402,4586.3560821308,87.270344,0.223694,1.71577433312,0,0,-0.671082,315.6, 0.2, -2.8,0,0,1024,1024,1024,1024,315.6,-90,96,3.875,3.885,3.881,3.888,0,0,18.358,68,14,Waypoint,
37.2866018,-119.5625702,4587.3403341308,88.254596,0,1.3350394128,14400,2018-04-11 19:56:50,17,0,23.402,4587.3403341308,88.254596,0.223694,1.71577433312,0,0,-0.671082,315.7, 0, -2.8,0,0,1024,1024,1025,1024,315.6,-90,96,3.875,3.885,3.881,3.888,0,0,18.358,68,14,Waypoint,
37.2866018,-119.5625702,4588.3245861308,89.238848,0,1.3350394128,14500,2018-04-11 19:56:50,17,0,23.402,4588.3245861308,89.238848,0.223694,1.71577433312,0,0,-0.671082,315.8, 0, -2.7,0,0,1024,1024,1024,1024,315.6,-89.9,96,3.875,3.885,3.881,3.888,0,0,18.358,68,14,Waypoint,
37.2866018,-119.5625702,4589.3088381308,90.2231,0,1.3350394128,14600,2018-04-11 19:56:51,17,0,23.402,4589.3088381308,90.2231,0.223694,1.71577433312,0,0,-0.671082,315.8, 0, -2.8,0,0,1024,1024,1025,1024,315.6,-90,96,3.875,3.885,3.881,3.888,0,0,18.358,68,14,Waypoint,
37.2866017,-119.5625702,4591.2773421308,92.191604,0,1.30120739072,14800,2018-04-11 19:56:51,17,0,23.402,4591.2773421308,92.191604,0.223694,1.71577433312,0,0,-0.671082,315.8, 0.3, -2.9,0,0,1024,1024,1025,1024,315.6,-90,96,3.875,3.885,3.881,3.888,0,0,18.358,68,14,Waypoint,
37.2866017,-119.5625702,4592.2615941308,93.175856,0,1.30120739072,14900,2018-04-11 19:56:51,17,0,23.402,4592.2615941308,93.175856,0.223694,1.71577433312,0,0,-0.671082,315.6, 0.3, -3,0,0,1024,1024,1024,1024,315.6,-89.9,96,3.875,3.885,3.881,3.888,0,0,18.358,68,14,Waypoint,
37.2866017,-119.5625701,4593.2458461308,94.160108,0,1.31249019948,15000,2018-04-11 19:56:51,17,0,23.209,4593.2458461308,94.160108,0.223694,1.71577433312,0,0,-0.671082,315.4, 0.1, -3,0,0,1024,1024,1025,1024,315.6,-90,96,3.863,3.87,3.849,3.878,0,0,19.891,68,14,Waypoint,
37.2866016,-119.5625701,4594.2300981308,95.14436,0,1.27910437164,15100,2018-04-11 19:56:51,17,0,23.209,4594.2300981308,95.14436,0.223694,1.71577433312,0,0,-0.671082,315.2, 0, -3.1,0,0,1024,1024,1025,1024,315.6,-90,96,3.863,3.87,3.849,3.878,0,0,19.891,68,14,Waypoint,
37.2866015,-119.5625701,4596.1986021308,97.112864,0,1.24589242832,15300,2018-04-11 19:56:51,17,0,23.209,4596.1986021308,97.112864,0.223694,1.71577433312,0,0,-0.671082,315.1, 0.1, -2.9,0,0,1024,1024,1025,1024,315.6,-89.9,96,3.863,3.87,3.849,3.878,0,0,19.891,68,14,Waypoint,
37.2866015,-119.5625702,4598.4951901308,99.409452,0,1.23399938332,15500,2018-04-11 19:56:51,17,0,23.209,4598.4951901308,99.409452,0.223694,1.71577433312,0,0,-0.671082,315, 0.2, -2.9,0,0,1024,1024,1025,1024,315.6,-90,96,3.863,3.87,3.849,3.878,0,0,19.891,68,14,Waypoint,
37.2866015,-119.5625702,4599.4794421308,100.393704,0,1.23399938332,15600,2018-04-11 19:56:52,17,0,23.209,4599.4794421308,100.393704,0.223694,1.71577433312,0,0,-0.671082,315, 0.3, -2.7,0,0,1024,1024,1024,1024,315.6,-90,96,3.863,3.87,3.849,3.878,0,0,19.891,68,14,Waypoint,
37.2866015,-119.5625702,4600.4636941308,101.377956,0,1.23399938332,15700,2018-04-11 19:56:52,17,0,23.209,4600.4636941308,101.377956,0.223694,1.71577433312,0,0,-0.671082,315.1, 0.4, -2.9,0,0,1024,1024,1025,1024,315.6,-90,96,3.863,3.87,3.849,3.878,0,0,19.891,68,14,Waypoint,
37.2866015,-119.5625702,4601.1198621308,102.034124,0,1.23399938332,15800,2018-04-11 19:56:52,17,0,23.209,4601.1198621308,102.034124,0.223694,1.71577433312,0,0,-0.671082,315.1, 0.5, -3,0,0,1024,1024,1025,1024,315.6,-89.9,96,3.863,3.87,3.849,3.878,0,0,19.891,68,14,Waypoint,
37.2866015,-119.5625702,4602.1041141308,103.018376,0,1.23399938332,15900,2018-04-11 19:56:52,17,0,23.209,4602.1041141308,103.018376,0.223694,1.71577433312,0,0,-0.671082,315.2, 0.6, -3.1,0,0,1024,1024,1024,1024,315.6,-89.9,96,3.863,3.87,3.849,3.878,0,0,19.891,68,14,Waypoint,
37.2866015,-119.5625702,4603.0883661308,104.002628,0,1.23399938332,16000,2018-04-11 19:56:52,17,0,23.209,4603.0883661308,104.002628,0.223694,1.71577433312,0,0,-0.671082,315.2, 0.7, -3.2,0,0,1024,1024,1025,1024,315.6,-89.9,96,3.863,3.87,3.849,3.878,0,0,19.891,68,14,Waypoint,
37.2866016,-119.5625702,4604.0726181308,104.98688,0,1.26752300644,16100,2018-04-11 19:56:52,17,0,23.209,4604.0726181308,104.98688,0.223694,1.71577433312,0,0,-0.671082,315.3, 0.6, -3.5,0,0,1024,1024,1025,1024,315.6,-89.9,96,3.863,3.87,3.849,3.878,0,0,19.891,68,14,Waypoint,
37.2866017,-119.5625701,4606.0411221308,106.955384,0,1.31249019948,16300,2018-04-11 19:56:52,17,0,23.209,4606.0411221308,106.955384,0.223694,1.71577433312,0,0,-0.671082,315.4, 0.6, -3.8,0,0,1024,1024,1025,1024,315.6,-90,96,3.863,3.87,3.849,3.878,0,0,19.891,68,14,Waypoint,
37.2866017,-119.5625701,4607.0253741308,107.939636,0,1.31249019948,16500,2018-04-11 19:56:52,17,0,23.209,4607.0253741308,107.939636,0.223694,1.71577433312,0,0,-0.671082,315.4, 0.5, -4,0,0,1024,1024,1024,1024,315.6,-90,96,3.863,3.87,3.849,3.878,0,0,19.891,68,14,Waypoint,
37.2866017,-119.5625702,4608.9938781308,109.90814,0,1.30120739072,16600,2018-04-11 19:56:53,17,0,23.209,4608.9938781308,109.90814,0.223694,1.71577433312,0,0,-0.671082,315.4, 0.5, -4,0,0,1024,1024,1024,1024,315.6,-89.9,96,3.863,3.87,3.849,3.878,0,0,19.891,68,14,Waypoint,
37.2866018,-119.5625702,4609.9781301308,110.892392,0,1.3350394128,16700,2018-04-11 19:56:53,17,0,23.209,4609.9781301308,110.892392,0.223694,1.71577433312,0,0,-0.671082,315.5, 0.8, -3.7,0,0,1024,1024,1025,1024,315.6,-89.9,96,3.863,3.87,3.849,3.878,0,0,19.891,68,14,Waypoint,
37.2866018,-119.5625703,4610.9623821308,111.876644,0,1.32458337572,16800,2018-04-11 19:56:53,17,0,23.209,4610.9623821308,111.876644,0.223694,1.71577433312,0,0,-0.671082,315.5, 1.2, -3.2,0,0,1024,1024,1025,1024,315.6,-89.9,96,3.863,3.87,3.849,3.878,0,0,19.891,68,14,Waypoint,
37.2866019,-119.5625705,4612.9308861308,113.845148,0,1.34007878304,17000,2018-04-11 19:56:53,17,0,23.201,4612.9308861308,113.845148,0.223694,1.71577433312,0,0,-0.671082,315.5, 1.5, -3,0,0,1024,1024,1024,1024,315.6,-89.9,96,3.869,3.884,3.853,3.88,0,0,18.535,68,14,Waypoint,
37.2866019,-119.5625705,4613.9151381308,114.8294,0,1.34007878304,17100,2018-04-11 19:56:53,17,0,23.201,4613.9151381308,114.8294,0.223694,1.71577433312,0,0,-0.671082,315.4, 1.4, -3.1,0,0,1024,1024,1024,1024,315.6,-89.9,96,3.869,3.884,3.853,3.88,0,0,18.535,68,14,Waypoint,
37.2866019,-119.5625706,4614.8993901308,115.813652,0,1.33156500324,17200,2018-04-11 19:56:53,17,0,23.201,4614.8993901308,115.813652,0.223694,1.71577433312,0,0,-0.671082,315.4, 1.1, -3.1,0,0,1024,1024,1024,1024,315.6,-90,96,3.869,3.884,3.853,3.88,0,0,18.535,68,14,Waypoint,
37.2866019,-119.5625706,4615.8836421308,116.797904,0,1.33156500324,17300,2018-04-11 19:56:53,17,0,23.201,4615.8836421308,116.797904,0.223694,1.71577433312,0,0,-0.671082,315.3, 1, -3,0,0,1024,1024,1024,1024,315.6,-90,96,3.869,3.884,3.853,3.88,0,0,18.535,68,14,Waypoint,
37.2866019,-119.5625707,4616.5398101308,117.454072,0,1.32363193212,17400,2018-04-11 19:56:53,17,0,23.201,4616.5398101308,117.454072,0.223694,1.71577433312,0,0,-0.671082,315.3, 0.8, -2.8,0,0,1024,1024,1024,1024,315.6,-90,96,3.869,3.884,3.853,3.88,0,0,18.535,68,14,Waypoint,
37.2866018,-119.5625708,4617.5240621308,118.438324,0,1.28092523784,17500,2018-04-11 19:56:53,17,0,23.201,4617.5240621308,118.438324,0.223694,1.71577433312,0,0,-0.671082,315.2, 0.8, -2.7,0,0,1024,1024,1025,1024,315.6,-89.9,96,3.869,3.884,3.853,3.88,0,0,18.535,68,14,Waypoint,
37.2866018,-119.5625708,4618.5083141308,119.422576,0,1.28092523784,17600,2018-04-11 19:56:54,17,0,23.201,4618.5083141308,119.422576,0.223694,1.71577433312,0,0,-0.671082,315.3, 0.9, -2.6,0,0,1024,1024,1024,1024,315.6,-89.9,96,3.869,3.884,3.853,3.88,0,0,18.535,68,14,Waypoint,
37.2866018,-119.5625709,4619.4925661308,120.406828,0,1.2739993846,17700,2018-04-11 19:56:54,17,0,23.201,4619.4925661308,120.406828,0.223694,1.71577433312,0,0,-0.671082,315.4, 0.9, -2.6,0,0,1024,1024,1025,1024,315.6,-89.9,96,3.869,3.884,3.853,3.88,0,0,18.535,68,14,Waypoint,
37.2866018,-119.5625711,4621.4610701308,122.375332,0,1.26203744196,17910,2018-04-11 19:56:54,17,0,23.201,4621.4610701308,122.375332,0.223694,1.71577433312,0,0,-0.671082,315.5, 0.9, -2.3,0,0,1024,1024,1025,1024,315.6,-89.9,96,3.869,3.884,3.853,3.88,0,0,18.535,68,14,Waypoint,
37.2866018,-119.5625711,4622.4453221308,123.359584,0,1.26203744196,18100,2018-04-11 19:56:54,17,0,23.201,4622.4453221308,123.359584,0.223694,1.71577433312,0,0,-0.671082,315.5, 1, -2.4,0,0,1024,1024,1025,1024,315.6,-89.9,96,3.869,3.884,3.853,3.88,0,0,18.535,68,14,Waypoint,
37.2866018,-119.5625712,4623.4295741308,124.343836,0,1.2570210376,18200,2018-04-11 19:56:54,17,0,23.201,4623.4295741308,124.343836,0.223694,1.71577433312,0,0,-0.671082,315.5, 1.1, -2.3,0,0,1024,1024,1024,1024,315.6,-89.9,96,3.869,3.884,3.853,3.88,0,0,18.535,68,14,Waypoint,
37.2866018,-119.5625713,4624.4138261308,125.328088,0,1.25265423956,18300,2018-04-11 19:56:54,17,0,23.201,4624.4138261308,125.328088,0.223694,1.71577433312,0,0,-0.671082,315.4, 1.2, -2.2,0,0,1024,1024,1025,1024,315.6,-89.9,96,3.869,3.884,3.853,3.88,0,0,18.535,68,14,Waypoint,
37.2866019,-119.5625713,4625.3980781308,126.31234,0,1.288795973,18400,2018-04-11 19:56:54,17,0,23.201,4625.3980781308,126.31234,0.223694,1.71577433312,0,0,-0.671082,315.4, 1.2, -2.3,0,0,1024,1024,1025,1024,315.6,-89.9,96,3.869,3.884,3.853,3.88,0,0,18.535,68,14,Waypoint,
37.2866018,-119.5625714,4626.3823301308,127.296592,0,1.2489501712,18500,2018-04-11 19:56:54,17,0,23.201,4626.3823301308,127.296592,0.223694,1.71577433312,0,0,-0.671082,315.3, 1.2, -2.5,0,0,1024,1024,1024,1024,315.6,-89.9,96,3.869,3.884,3.853,3.88,0,0,18.535,68,14,Waypoint,
37.2866019,-119.5625715,4629.6631701308,130.577432,0,1.28224085468,18700,2018-04-11 19:56:55,17,0,23.201,4629.6631701308,130.577432,0.223694,1.71577433312,0,0,-0.671082,315.2, 1.2, -2.7,0,0,1024,1024,1025,1024,315.6,-89.9,96,3.869,3.884,3.853,3.88,0,0,18.535,68,14,Waypoint,
37.2866019,-119.5625715,4630.6474221308,131.561684,0,1.28224085468,18800,2018-04-11 19:56:55,17,0,23.201,4630.6474221308,131.561684,0.223694,1.71577433312,0,0,-0.671082,315.2, 1.2, -2.8,0,0,1024,1024,1024,1024,315.6,-89.9,96,3.869,3.884,3.853,3.88,0,0,18.535,68,14,Waypoint,
37.2866019,-119.5625715,4631.6316741308,132.545936,0,1.28224085468,18900,2018-04-11 19:56:55,17,0,23.201,4631.6316741308,132.545936,0.223694,1.71577433312,0,0,-0.671082,315.2, 1.3, -2.8,0,0,1024,1024,1024,1024,315.6,-89.9,96,3.869,3.884,3.853,3.88,0,0,18.535,68,14,Waypoint,
37.286602,-119.5625716,4633.6001781308,134.51444,0,1.31634190564,19100,2018-04-11 19:56:55,17,0,23.201,4633.6001781308,134.51444,0.223694,1.71577433312,0,0,-0.671082,315.3, 1.6, -3,0,0,1024,1024,1025,1024,315.6,-89.9,96,3.869,3.884,3.853,3.88,0,0,18.535,68,14,Waypoint,
37.286602,-119.5625717,4634.5844301308,135.498692,0,1.31474085572,19200,2018-04-11 19:56:55,17,0,23.201,4634.5844301308,135.498692,0.223694,1.71577433312,0,0,-0.671082,315.3, 1.6, -3.1,0,0,1024,1024,1025,1024,315.6,-89.9,96,3.869,3.884,3.853,3.88,0,0,18.535,68,14,Waypoint,
37.286602,-119.5625717,4635.5686821308,136.482944,0,1.31474085572,19300,2018-04-11 19:56:55,17,0,23.201,4635.5686821308,136.482944,0.223694,1.71577433312,0,0,-0.671082,315.3, 1.6, -3,0,0,1024,1024,1024,1024,315.6,-89.9,96,3.869,3.884,3.853,3.88,0,0,18.535,68,14,Waypoint,
37.286602,-119.5625717,4636.5529341308,137.467196,0,1.31474085572,19400,2018-04-11 19:56:55,17,0,23.201,4636.5529341308,137.467196,0.223694,1.71577433312,0,0,-0.671082,315.3, 1.6, -3,0,0,1024,1024,1025,1024,315.6,-89.9,96,3.869,3.884,3.853,3.88,0,0,18.535,68,14,Waypoint,
37.286602,-119.5625717,4637.5371861308,138.451448,0,1.31474085572,19500,2018-04-11 19:56:55,17,0,23.201,4637.5371861308,138.451448,0.223694,1.71577433312,0,0,-0.671082,315.3, 1.6, -3.1,0,0,1024,1024,1025,1024,315.6,-89.9,96,3.869,3.884,3.853,3.88,0,0,18.535,68,14,Waypoint,
37.286602,-119.5625717,4639.5056901308,140.419952,0,1.31474085572,19710,2018-04-11 19:56:56,17,0,23.201,4639.5056901308,140.419952,0.223694,1.71577433312,0,0,-0.671082,315.4, 1.6, -3,0,0,1024,1024,1024,1024,315.6,-89.9,96,3.869,3.884,3.853,3.88,0,0,18.535,68,14,Waypoint,
37.2866019,-119.5625716,4641.4741941308,142.388456,0,1.279937705,19900,2018-04-11 19:56:56,17,0,23.201,4641.4741941308,142.388456,0.223694,1.71577433312,0,0,-0.671082,315.5, 1.4, -3,0,0,1024,1024,1024,1024,315.6,-89.9,96,3.869,3.884,3.853,3.88,0,0,18.535,68,14,Waypoint,
37.2866019,-119.5625715,4642.4584461308,143.372708,0,1.28224085468,20000,2018-04-11 19:56:56,17,0,23.022,4642.4584461308,143.372708,0.223694,1.71577433312,0,0,-0.671082,315.5, 1.1, -3,0,0,1024,1024,1024,1024,315.6,-90,95,3.821,3.831,3.81,3.847,0,0,19.701,69.8,14,Waypoint,
37.2866019,-119.5625715,4644.4269501308,145.341212,0,1.28224085468,20200,2018-04-11 19:56:56,17,0,23.022,4644.4269501308,145.341212,0.223694,1.71577433312,0,0,-0.671082,315.3, 0.6, -2.9,0,0,1024,1024,1024,1024,315.6,-90,95,3.821,3.831,3.81,3.847,0,0,19.701,69.8,14,Waypoint,
37.2866018,-119.5625714,4645.4112021308,146.325464,0,1.2489501712,20400,2018-04-11 19:56:56,17,0,23.022,4645.4112021308,146.325464,0.223694,1.71577433312,0,0,-0.671082,315.1, 0.7, -3,0,0,1024,1024,1025,1024,315.6,-90,95,3.821,3.831,3.81,3.847,0,0,19.701,69.8,14,Waypoint,
37.2866018,-119.5625713,4647.3797061308,148.293968,0,1.25265423956,20500,2018-04-11 19:56:56,17,0,23.022,4647.3797061308,148.293968,0.223694,1.71577433312,0,0,-0.671082,315.1, 0.9, -3.1,0,0,1024,1024,1025,1024,315.6,-89.9,95,3.821,3.831,3.81,3.847,0,0,19.701,69.8,14,Waypoint,
37.2866018,-119.5625713,4649.3482101308,150.262472,0,1.25265423956,20800,2018-04-11 19:56:57,17,0,23.022,4649.3482101308,150.262472,0.223694,1.71577433312,0,0,-0.671082,315.2, 1.1, -3,0,0,1024,1024,1025,1024,315.6,-89.9,95,3.821,3.831,3.81,3.847,0,0,19.701,69.8,14,Waypoint,
37.2866017,-119.5625713,4650.3324621308,151.246724,0,1.216535472,20900,2018-04-11 19:56:57,17,0,23.022,4650.3324621308,151.246724,0.223694,1.71577433312,0,0,-0.671082,315.3, 1.2, -3,0,0,1024,1024,1025,1024,315.6,-89.9,95,3.821,3.831,3.81,3.847,0,0,19.701,69.8,14,Waypoint,
37.2866017,-119.5625713,4651.3167141308,152.230976,0,1.216535472,21000,2018-04-11 19:56:57,17,0,23.022,4651.3167141308,152.230976,0.223694,1.71577433312,0,0,-0.671082,315.3, 1.3, -2.8,0,0,1024,1024,1025,1024,315.6,-89.9,95,3.824,3.84,3.82,3.854,0,0,19.701,69.8,14,Waypoint,
37.2866015,-119.5625712,4654.2694701308,155.183732,0,1.14914045672,21200,2018-04-11 19:56:57,17,0,23.022,4654.2694701308,155.183732,0.223694,1.71577433312,0,0,-0.671082,315.4, 0.9, -2.7,0,0,1024,1024,1025,1024,315.6,-90,95,3.824,3.84,3.82,3.854,0,0,19.701,69.8,14,Waypoint,
37.2866015,-119.5625712,4655.2537221308,156.167984,0,1.14914045672,21300,2018-04-11 19:56:57,17,0,23.022,4655.2537221308,156.167984,0.223694,1.71577433312,0,0,-0.671082,315.4, 0.7, -2.6,0,0,1024,1024,1025,1024,315.6,-90,95,3.824,3.84,3.82,3.854,0,0,19.701,69.8,14,Waypoint,
37.2866014,-119.5625712,4655.9098901308,156.824152,0,1.11324806712,21400,2018-04-11 19:56:57,17,0,23.022,4655.9098901308,156.824152,0.223694,1.71577433312,0,0,-0.671082,315.3, 0.6, -2.5,0,0,1024,1024,1024,1024,315.6,-90,95,3.824,3.84,3.82,3.854,0,0,19.701,69.8,14,Waypoint,
37.2866013,-119.5625712,4656.8941421308,157.808404,0,1.07739832844,21500,2018-04-11 19:56:57,17,0,23.022,4656.8941421308,157.808404,0.223694,1.71577433312,0,0,-0.671082,315.2, 0.7, -2.2,0,0,1024,1024,1024,1024,315.6,-90,95,3.824,3.84,3.82,3.854,0,0,19.701,69.8,14,Waypoint,
37.2866013,-119.5625713,4657.8783941308,158.792656,0,1.07230318392,21600,2018-04-11 19:56:58,17,0,23.022,4657.8783941308,158.792656,0.223694,1.71577433312,0,0,-0.671082,315.2, 0.9, -2.1,0,0,1024,1024,1025,1024,315.6,-90,95,3.824,3.84,3.82,3.854,0,0,19.701,69.8,14,Waypoint,
37.2866012,-119.5625713,4658.8626461308,159.776908,0,1.0363189308,21700,2018-04-11 19:56:58,17,0,23.022,4658.8626461308,159.776908,0.223694,1.71577433312,0,0,-0.671082,315.3, 1.1, -2.3,0,0,1024,1024,1025,1024,315.6,-90,95,3.824,3.84,3.82,3.854,0,0,19.701,69.8,14,Waypoint,
37.2866012,-119.5625713,4660.1749821308,161.089244,0,1.0363189308,21800,2018-04-11 19:56:58,17,0,23.022,4660.1749821308,161.089244,0.223694,1.71577433312,0,0,-0.671082,315.4, 1.2, -2.4,0,0,1024,1024,1025,1024,315.6,-89.9,95,3.824,3.84,3.82,3.854,0,0,19.701,69.8,14,Waypoint,
37.2866012,-119.5625713,4661.1592341308,162.073496,0,1.0363189308,21900,2018-04-11 19:56:58,17,0,23.022,4661.1592341308,162.073496,0.223694,1.71577433312,0,0,-0.671082,315.5, 1.2, -2.5,0,0,1024,1024,1024,1024,315.6,-89.9,95,3.824,3.84,3.82,3.854,0,0,19.701,69.8,14,Waypoint,
37.2866012,-119.5625713,4662.1434861308,163.057748,0,1.0363189308,22000,2018-04-11 19:56:58,17,0,22.952,4662.1434861308,163.057748,0.223694,1.71577433312,0,0,-0.671082,315.6, 1.2, -2.6,0,0,1024,1024,1024,1024,315.6,-89.9,95,3.815,3.839,3.798,3.838,0,0,20.079,69.8,14,Waypoint,
37.2866012,-119.5625713,4663.1277381308,164.042,0,1.0363189308,22100,2018-04-11 19:56:58,17,0,22.952,4663.1277381308,164.042,0.223694,1.71577433312,0,0,-0.671082,315.6, 1.2, -2.6,0,0,1024,1024,1025,1024,315.6,-89.9,95,3.815,3.839,3.798,3.838,0,0,20.079,69.8,14,Waypoint,
37.2866011,-119.5625713,4664.1119901308,165.026252,0,1.00037076692,22200,2018-04-11 19:56:58,17,0,22.952,4664.1119901308,165.026252,0.223694,1.71577433312,0,0,-0.671082,315.5, 1.1, -2.4,0,0,1024,1024,1025,1024,315.6,-90,95,3.815,3.839,3.798,3.838,0,0,20.079,69.8,14,Waypoint,
37.2866011,-119.5625713,4665.0962421308,166.010504,0,1.00037076692,22300,2018-04-11 19:56:58,17,0,22.952,4665.0962421308,166.010504,0.223694,1.71577433312,0,0,-0.671082,315.4, 0.9, -2.2,0,0,1024,1024,1025,1024,315.6,-90,95,3.815,3.839,3.798,3.838,0,0,20.079,69.8,14,Waypoint,
37.286601,-119.5625713,4666.0804941308,166.994756,0,0.96446525396,22400,2018-04-11 19:56:58,17,0,22.952,4666.0804941308,166.994756,0.223694,1.71577433312,0,0,-0.671082,315.3, 0.8, -2,0,0,1024,1024,1024,1024,315.6,-90,95,3.815,3.839,3.798,3.838,0,0,20.079,69.8,14,Waypoint,
37.2866009,-119.5625713,4667.0647461308,167.979008,0,0.92860239192,22500,2018-04-11 19:56:58,17,0,22.952,4667.0647461308,167.979008,0.223694,1.71577433312,0,0,-0.671082,315.3, 0.6, -2,0,0,1024,1024,1025,1024,315.6,-90,95,3.815,3.839,3.798,3.838,0,0,20.079,69.8,14,Waypoint,
37.2866009,-119.5625713,4668.0489981308,168.96326,0,0.92860239192,22700,2018-04-11 19:56:59,17,0,22.952,4668.0489981308,168.96326,0.223694,1.71577433312,0,0,-0.671082,315.2, 0.5, -1.9,0,0,1024,1024,1025,1024,315.6,-89.9,95,3.815,3.839,3.798,3.838,0,0,20.079,69.8,14,Waypoint,
37.2866008,-119.5625713,4669.0332501308,169.947512,0,0.89279202332,22800,2018-04-11 19:56:59,17,0,22.952,4669.0332501308,169.947512,0.223694,1.71577433312,0,0,-0.671082,315.2, 0.6, -2.1,0,0,1024,1024,1025,1024,315.6,-89.9,95,3.815,3.839,3.798,3.838,0,0,20.079,69.8,14,Waypoint,
37.2866008,-119.5625713,4670.0175021308,170.931764,0,0.89279202332,22900,2018-04-11 19:56:59,17,0,22.952,4670.0175021308,170.931764,0.223694,1.71577433312,0,0,-0.671082,315.2, 0.6, -2.2,0,0,1024,1024,1025,1024,315.6,-90,95,3.815,3.839,3.798,3.838,0,0,20.079,69.8,14,Waypoint,
37.2866007,-119.5625713,4671.9860061308,172.900268,0,0.857037429,23020,2018-04-11 19:56:59,17,0,22.898,4671.9860061308,172.900268,0.223694,1.71577433312,0,0,-0.671082,315.4, 0.6, -2.1,0,0,1024,1024,1024,1024,315.6,-89.9,95,3.806,3.819,3.795,3.831,0,0,20.669,69.8,14,Waypoint,
37.2866007,-119.5625713,4671.9860061308,172.900268,0,0.857037429,23100,2018-04-11 19:56:59,17,0,22.898,4671.9860061308,172.900268,0.223694,1.71577433312,0,0,-0.671082,315.4, 0.6, -2.1,0,0,1024,1024,1024,1024,315.6,-89.9,95,3.806,3.819,3.795,3.831,0,0,20.669,69.8,14,Waypoint,
37.2866007,-119.5625713,4672.9702581308,173.88452,0,0.857037429,23200,2018-04-11 19:56:59,17,0,22.898,4672.9702581308,173.88452,0.223694,1.71577433312,0,0,-0.671082,315.4, 0.8, -2.1,0,0,1024,1024,1024,1024,315.6,-89.9,95,3.806,3.819,3.795,3.831,0,0,20.669,69.8,14,Waypoint,
37.2866007,-119.5625713,4673.9545101308,174.868772,0,0.857037429,23300,2018-04-11 19:56:59,17,0,22.898,4673.9545101308,174.868772,0.223694,1.71577433312,0,0,-0.671082,315.4, 0.8, -2.2,0,0,1024,1024,1024,1024,315.6,-90,95,3.806,3.819,3.795,3.831,0,0,20.669,69.8,14,Waypoint,
37.2866006,-119.5625714,4676.9072661308,177.821528,0,0.81568572164,23500,2018-04-11 19:56:59,17,0,22.898,4676.9072661308,177.821528,0.223694,1.71577433312,0,0,-0.671082,315.4, 0.7, -2.2,0,0,1024,1024,1025,1024,315.6,-90,95,3.806,3.819,3.795,3.831,0,0,20.669,69.8,14,Waypoint,
37.2866006,-119.5625714,4677.8915181308,178.80578,0,0.81568572164,23600,2018-04-11 19:57:00,17,0,22.898,4677.8915181308,178.80578,0.223694,1.71577433312,0,0,-0.671082,315.4, 0.7, -2.1,0,0,1024,1024,1025,1024,315.6,-90,95,3.806,3.819,3.795,3.831,0,0,20.669,69.8,14,Waypoint,
37.2866006,-119.5625714,4679.2038541308,180.118116,0,0.81568572164,23700,2018-04-11 19:57:00,17,0,22.898,4679.2038541308,180.118116,0.223694,1.71577433312,0,0,-0.671082,315.5, 0.7, -2.1,0,0,1024,1024,1024,1024,315.6,-89.9,95,3.806,3.819,3.795,3.831,0,0,20.669,69.8,14,Waypoint,
37.2866005,-119.5625714,4681.1723581308,182.08662,0,0.77980973624,23900,2018-04-11 19:57:00,17,0,22.898,4681.1723581308,182.08662,0.223694,1.71577433312,0,0,-0.671082,315.4, 0.6, -2.1,0,0,1024,1024,1025,1024,315.6,-90,95,3.806,3.819,3.795,3.831,0,0,20.669,69.8,14,Waypoint,
37.2866005,-119.5625714,4682.1566101308,183.070872,0,0.77980973624,24000,2018-04-11 19:57:00,17,0,22.916,4682.1566101308,183.070872,0.223694,1.71577433312,0,0,-0.671082,315.4, 0.6, -2.2,0,0,1024,1024,1025,1024,315.6,-89.9,95,3.816,3.823,3.787,3.842,0,0,20.435,69.8,14,Waypoint,
37.2866005,-119.5625714,4683.1408621308,184.055124,0,0.77980973624,24100,2018-04-11 19:57:00,17,0,22.916,4683.1408621308,184.055124,0.223694,1.71577433312,0,0,-0.671082,315.4, 0.6, -2.3,0,0,1024,1024,1025,1024,315.6,-90,95,3.816,3.823,3.787,3.842,0,0,20.435,69.8,14,Waypoint,
37.2866005,-119.5625715,4685.1093661308,186.023628,0,0.77493112716,24300,2018-04-11 19:57:00,17,0,22.916,4685.1093661308,186.023628,0.223694,1.71577433312,0,0,-0.671082,315.4, 0.8, -2.4,0,0,1024,1024,1025,1024,315.6,-89.9,95,3.816,3.823,3.787,3.842,0,0,20.435,69.8,14,Waypoint,
37.2866006,-119.5625715,4686.0936181308,187.00788,0,0.811023648,24400,2018-04-11 19:57:00,17,0,22.916,4686.0936181308,187.00788,0.223694,1.71577433312,0,0,-0.671082,315.3, 0.8, -2.5,0,0,1024,1024,1024,1024,315.6,-90,95,3.816,3.823,3.787,3.842,0,0,20.435,69.8,14,Waypoint,
37.2866006,-119.5625715,4687.0778701308,187.992132,0,0.811023648,24510,2018-04-11 19:57:00,17,0,22.916,4687.0778701308,187.992132,0.223694,1.71577433312,0,0,-0.671082,315.3, 0.8, -2.6,0,0,1024,1024,1025,1024,315.6,-90,95,3.816,3.823,3.787,3.842,0,0,20.435,69.8,14,Waypoint,
37.2866006,-119.5625715,4688.0621221308,188.976384,0,0.811023648,24600,2018-04-11 19:57:01,17,0,22.916,4688.0621221308,188.976384,0.223694,1.71577433312,0,0,-0.671082,315.3, 0.7, -2.5,0,0,1024,1024,1025,1024,315.6,-90,95,3.816,3.823,3.787,3.842,0,0,20.435,69.8,14,Waypoint,
37.2866006,-119.5625715,4689.0463741308,189.960636,0,0.811023648,24700,2018-04-11 19:57:01,17,0,22.916,4689.0463741308,189.960636,0.223694,1.71577433312,0,0,-0.671082,315.2, 0.7, -2.5,0,0,1024,1024,1024,1024,315.6,-90,95,3.816,3.823,3.787,3.842,0,0,20.435,69.8,14,Waypoint,
37.2866007,-119.5625715,4690.0306261308,190.944888,0,0.84714897724,24800,2018-04-11 19:57:01,17,0,22.916,4690.0306261308,190.944888,0.223694,1.71577433312,0,0,-0.671082,315.2, 0.8, -2.5,0,0,1024,1024,1025,1024,315.6,-89.9,95,3.816,3.823,3.787,3.842,0,0,20.435,69.8,14,Waypoint,
37.2866008,-119.5625715,4691.9991301308,192.913392,0,0.88330383404,25000,2018-04-11 19:57:01,17,0,22.918,4691.9991301308,192.913392,0.223694,1.71577433312,0,0,-0.671082,315.2, 1, -2.6,0,0,1024,1024,1025,1024,315.6,-90,95,3.807,3.815,3.79,3.828,0,0,19.676,69.8,14,Waypoint,
37.2866009,-119.5625716,4694.6238021308,195.538064,0,0.91626971436,25300,2018-04-11 19:57:01,17,0,22.918,4694.6238021308,195.538064,0.223694,1.71577433312,0,0,-0.671082,315.1, 1.1, -3,0,0,1024,1024,1025,1024,315.6,-89.9,95,3.807,3.815,3.79,3.828,0,0,19.676,69.8,14,Waypoint,
37.286601,-119.5625716,4696.5923061308,197.506568,0,0.95259845568,25520,2018-04-11 19:57:01,17,0,22.918,4696.5923061308,197.506568,0.223694,1.71577433312,0,0,-0.671082,315.2, 1.4, -2.8,0,0,1024,1024,1025,1024,315.6,-89.9,95,3.807,3.815,3.79,3.828,0,0,19.676,69.8,14,Waypoint,
37.286601,-119.5625717,4697.5765581308,198.49082,0,0.95038388868,25600,2018-04-11 19:57:02,17,0,22.918,4697.5765581308,198.49082,0.223694,1.71577433312,0,0,-0.671082,315.2, 1.6, -2.7,0,0,1024,1024,1025,1024,315.6,-89.9,95,3.807,3.815,3.79,3.828,0,0,19.676,69.8,14,Waypoint,
37.2866011,-119.5625717,4698.5608101308,199.475072,0,0.98680121268,25800,2018-04-11 19:57:02,17,0,22.918,4698.5608101308,199.475072,0.223694,1.71577433312,0,0,-0.671082,315.3, 1.6, -2.4,0,0,1024,1024,1025,1024,315.6,-89.9,95,3.807,3.815,3.79,3.828,0,0,19.676,69.8,14,Waypoint,
37.2866011,-119.5625718,4700.5293141308,201.443576,0,0.98552168508,25900,2018-04-11 19:57:02,17,0,22.918,4700.5293141308,201.443576,0.223694,1.71577433312,0,0,-0.671082,315.5, 1.5, -2.3,0,0,1024,1024,1025,1024,315.6,-89.9,95,3.807,3.815,3.79,3.828,0,0,19.676,69.8,14,Waypoint,
37.2866012,-119.5625719,4701.5135661308,202.427828,0,1.02157811668,26100,2018-04-11 19:57:02,17,0,22.918,4701.5135661308,202.427828,0.223694,1.71577433312,0,0,-0.671082,315.5, 1.5, -2.1,0,0,1024,1024,1024,1024,315.6,-89.9,95,3.807,3.815,3.79,3.828,0,0,19.676,69.8,14,Waypoint,
37.2866012,-119.5625719,4703.4820701308,204.396332,0,1.02157811668,26200,2018-04-11 19:57:02,17,0,22.918,4703.4820701308,204.396332,0.223694,1.71577433312,0,0,-0.671082,315.5, 1.3, -2,0,0,1024,1024,1025,1024,315.6,-89.9,95,3.807,3.815,3.79,3.828,0,0,19.676,69.8,14,Waypoint,
37.2866012,-119.5625719,4705.4505741308,206.364836,0,1.02157811668,26400,2018-04-11 19:57:02,17,0,22.918,4705.4505741308,206.364836,0.223694,1.71577433312,0,0,-0.671082,315.4, 1.4, -2.1,0,0,1024,1024,1025,1024,315.6,-89.9,95,3.807,3.815,3.79,3.828,0,0,19.676,69.8,14,Waypoint,
37.2866012,-119.5625719,4706.4348261308,207.349088,0,1.02157811668,26500,2018-04-11 19:57:02,17,0,22.918,4706.4348261308,207.349088,0.223694,1.71577433312,0,0,-0.671082,315.4, 1.4, -2.2,0,0,1024,1024,1025,1024,315.6,-89.9,95,3.807,3.815,3.79,3.828,0,0,19.676,69.8,14,Waypoint,
37.2866012,-119.5625719,4708.4033301308,209.317592,0,1.02157811668,26700,2018-04-11 19:57:03,17,0,22.918,4708.4033301308,209.317592,0.223694,1.71577433312,0,0,-0.671082,315.4, 1.2, -2.4,0,0,1024,1024,1025,1024,315.6,-90,95,3.807,3.815,3.79,3.828,0,0,19.676,69.8,14,Waypoint,
37.2866012,-119.5625718,4709.3875821308,210.301844,0,1.02199150252,26800,2018-04-11 19:57:03,17,0,22.918,4709.3875821308,210.301844,0.223694,1.71577433312,0,0,-0.671082,315.4, 1.1, -2.4,0,0,1024,1024,1025,1024,315.6,-90,95,3.807,3.815,3.79,3.828,0,0,19.676,69.8,14,Waypoint,
37.2866012,-119.5625718,4710.3718341308,211.286096,0,1.02199150252,26900,2018-04-11 19:57:03,17,0,22.918,4710.3718341308,211.286096,0.223694,1.71577433312,0,0,-0.671082,315.4, 1.1, -2.4,0,0,1024,1024,1025,1024,315.6,-89.9,95,3.807,3.815,3.79,3.828,0,0,19.676,69.8,14,Waypoint,
37.2866012,-119.5625718,4711.3560861308,212.270348,0,1.02199150252,27000,2018-04-11 19:57:03,17,0,22.889,4711.3560861308,212.270348,0.223694,1.71577433312,0,0,-0.671082,315.4, 1.1, -2.6,0,0,1024,1024,1024,1024,315.6,-89.9,95,3.8,3.816,3.794,3.83,0,0,19.78,69.8,14,Waypoint,
37.2866012,-119.5625716,4713.3245901308,214.238852,0,1.02528218504,27200,2018-04-11 19:57:03,17,0,22.889,4713.3245901308,214.238852,0.223694,1.71577433312,0,0,-0.671082,315.5, 0.7, -2.8,0,0,1024,1024,1025,1024,315.6,-89.9,95,3.8,3.816,3.794,3.83,0,0,19.78,69.8,14,Waypoint,
37.2866011,-119.5625716,4714.3088421308,215.223104,0,0.98893375868,27300,2018-04-11 19:57:03,17,0,22.889,4714.3088421308,215.223104,0.223694,1.71577433312,0,0,-0.671082,315.4, 0.6, -2.6,0,0,1024,1024,1024,1024,315.6,-90,95,3.8,3.816,3.794,3.83,0,0,19.78,69.8,14,Waypoint,
37.2866011,-119.5625715,4715.2930941308,216.207356,0,0.9919127614,27400,2018-04-11 19:57:03,17,0,22.889,4715.2930941308,216.207356,0.223694,1.71577433312,0,0,-0.671082,315.4, 0.6, -2.5,0,0,1024,1024,1024,1024,315.6,-90,95,3.8,3.816,3.794,3.83,0,0,19.78,69.8,14,Waypoint,
37.2866011,-119.5625715,4716.2773461308,217.191608,0,0.9919127614,27500,2018-04-11 19:57:03,17,0,22.889,4716.2773461308,217.191608,0.223694,1.71577433312,0,0,-0.671082,315.3, 0.7, -2.5,0,0,1024,1024,1024,1024,315.6,-90,95,3.8,3.816,3.794,3.83,0,0,19.78,69.8,14,Waypoint,
37.2866011,-119.5625715,4717.2615981308,218.17586,0,0.9919127614,27700,2018-04-11 19:57:04,17,0,22.889,4717.2615981308,218.17586,0.223694,1.71577433312,0,0,-0.671082,315.3, 0.8, -2.4,0,0,1024,1024,1024,1024,315.6,-90,95,3.8,3.816,3.794,3.83,0,0,19.78,69.8,14,Waypoint,
37.2866011,-119.5625715,4718.2458501308,219.160112,0,0.9919127614,27800,2018-04-11 19:57:04,17,0,22.889,4718.2458501308,219.160112,0.223694,1.71577433312,0,0,-0.671082,315.3, 0.8, -2.4,0,0,1024,1024,1025,1024,315.6,-89.9,95,3.8,3.816,3.794,3.83,0,0,19.78,69.8,14,Waypoint,
37.2866011,-119.5625715,4719.2301021308,220.144364,0,0.9919127614,27900,2018-04-11 19:57:04,17,0,22.889,4719.2301021308,220.144364,0.223694,1.71577433312,0,0,-0.671082,315.3, 0.9, -2.4,0,0,1024,1024,1024,1024,315.6,-90,95,3.8,3.816,3.794,3.83,0,0,19.78,69.8,14,Waypoint,
37.2866011,-119.5625714,4721.1986061308,222.112868,0,0.99572837832,28010,2018-04-11 19:57:04,17,0,22.882,4721.1986061308,222.112868,0.223694,1.71577433312,0,0,-0.671082,315.5, 0.9, -2.5,0,0,1024,1024,1024,1024,315.6,-90,94,3.801,3.813,3.791,3.823,0,0,19.78,69.8,14,Waypoint,
37.2866011,-119.5625714,4721.1986061308,222.112868,0,0.99572837832,28100,2018-04-11 19:57:04,17,0,22.882,4721.1986061308,222.112868,0.223694,1.71577433312,0,0,-0.671082,315.5, 0.9, -2.5,0,0,1024,1024,1024,1024,315.6,-90,94,3.801,3.813,3.791,3.823,0,0,19.78,69.8,14,Waypoint,
37.286601,-119.5625714,4722.1828581308,223.09712,0,0.95964898084,28200,2018-04-11 19:57:04,17,0,22.882,4722.1828581308,223.09712,0.223694,1.71577433312,0,0,-0.671082,315.6, 0.9, -2.5,0,0,1024,1024,1024,1024,315.6,-90,94,3.801,3.813,3.791,3.823,0,0,19.78,69.8,14,Waypoint,
37.286601,-119.5625714,4723.1671101308,224.081372,0,0.95964898084,28300,2018-04-11 19:57:04,17,0,22.882,4723.1671101308,224.081372,0.223694,1.71577433312,0,0,-0.671082,315.5, 0.8, -2.4,0,0,1024,1024,1025,1024,315.6,-90,94,3.801,3.813,3.791,3.823,0,0,19.78,69.8,14,Waypoint,
37.286601,-119.5625714,4724.1513621308,225.065624,0,0.95964898084,28400,2018-04-11 19:57:04,17,0,22.882,4724.1513621308,225.065624,0.223694,1.71577433312,0,0,-0.671082,315.4, 0.9, -2.2,0,0,1024,1024,1025,1024,315.6,-89.9,94,3.801,3.813,3.791,3.823,0,0,19.78,69.8,14,Waypoint,
37.286601,-119.5625714,4726.1198661308,227.034128,0,0.95964898084,28500,2018-04-11 19:57:04,17,0,22.882,4726.1198661308,227.034128,0.223694,1.71577433312,0,0,-0.671082,315.3, 1.1, -2.3,0,0,1024,1024,1025,1024,315.6,-89.9,94,3.801,3.813,3.791,3.823,0,0,19.78,69.8,14,Waypoint,
37.286601,-119.5625714,4727.1041181308,228.01838,0,0.95964898084,28600,2018-04-11 19:57:05,17,0,22.882,4727.1041181308,228.01838,0.223694,1.71577433312,0,0,-0.671082,315.2, 1, -2.4,0,0,1024,1024,1025,1024,315.6,-89.9,94,3.801,3.813,3.791,3.823,0,0,19.78,69.8,14,Waypoint,
37.286601,-119.5625714,4728.0883701308,229.002632,0,0.95964898084,28700,2018-04-11 19:57:05,17,0,22.882,4728.0883701308,229.002632,0.223694,1.71577433312,0,0,-0.671082,315.2, 1, -2.4,0,0,1024,1024,1025,1024,315.6,-89.9,94,3.801,3.813,3.791,3.823,0,0,19.78,69.8,14,Waypoint,
37.286601,-119.5625714,4729.0726221308,229.986884,0,0.95964898084,28800,2018-04-11 19:57:05,17,0,22.882,4729.0726221308,229.986884,0.223694,1.71577433312,0,0,-0.671082,315.2, 1, -2.5,0,0,1024,1024,1025,1024,315.6,-90,94,3.801,3.813,3.791,3.823,0,0,19.78,69.8,14,Waypoint,
37.286601,-119.5625714,4730.0568741308,230.971136,0,0.95964898084,28900,2018-04-11 19:57:05,17,0,22.882,4730.0568741308,230.971136,0.223694,1.71577433312,0,0,-0.671082,315.2, 0.9, -2.5,0,0,1024,1024,1025,1024,315.6,-89.9,94,3.801,3.813,3.791,3.823,0,0,19.78,69.8,14,Waypoint,
37.286601,-119.5625714,4731.0411261308,231.955388,0,0.95964898084,29000,2018-04-11 19:57:05,17,0,22.869,4731.0411261308,231.955388,0.223694,1.71577433312,0,0,-0.671082,315.2, 1.2, -2.4,0,0,1024,1024,1025,1024,315.6,-89.9,94,3.803,3.812,3.79,3.837,0,0,19.616,69.8,14,Waypoint,
37.2866009,-119.5625714,4732.0253781308,232.93964,0,0.92359911092,29100,2018-04-11 19:57:05,17,0,22.869,4732.0253781308,232.93964,0.223694,1.71577433312,0,0,-0.671082,315.2, 1.4, -2.1,0,0,1024,1024,1025,1024,315.6,-89.9,94,3.803,3.812,3.79,3.837,0,0,19.616,69.8,14,Waypoint,
