latitude,longitude,altitude(feet),ascent(feet),speed(mph),distance(feet),time(millisecond),datetime(utc),satellites,gpslevel,voltage(v),max_altitude(feet),max_ascent(feet),max_speed(mph),max_distance(feet), xSpeed(mph), ySpeed(mph), zSpeed(mph), compass_heading(degrees), pitch(degrees), roll(degrees),isPhoto,isVideo,rc_elevator,rc_aileron,rc_throttle,rc_rudder,gimbal_heading(degrees),gimbal_pitch(degrees),battery_percent,voltageCell1,voltageCell2,voltageCell3,voltageCell4,voltageCell5,voltageCell6,current(A),battery_temperature(f),flycStateRaw,flycState,message
37.286588,-119.5625591,4499.1025586694,0,0,0,3130,2018-04-11 21:27:04,15,0,0,4499.1025586694,0,0,0,0,0,0,314.1, 0.4, -0.3,1,0,1024,1024,1025,1024,313.3,-89.9,98,4.266,4.253,4.253,4.237,0,0,0,71.6,11,AutoTakeoff,DJI_0937.jpg Starting Mission from Lat/Long: 37.28658/-119.56258 Camera: Zenmuse X3 - Overlap: 90/90 - Active Connection: Yes
37.2865879,-119.5625592,4499.4306426694,0.328084,0,0.046623689156,3200,2018-04-11 21:27:04,15,0,0,4499.4306426694,0.328084,0,0.046623689156,0,0,0,314.1, 0, 0.3,0,0,1024,1024,1025,1024,313.3,-90,98,4.266,4.253,4.253,4.237,0,0,0,71.6,11,AutoTakeoff,
37.2865879,-119.5625592,4499.4306426694,0.328084,0,0.046623689156,3300,2018-04-11 21:27:04,15,0,0,4499.4306426694,0.328084,0,0.046623689156,0,0,0,314.1, 0, 0.5,0,0,1024,1024,1025,1024,313.3,-89.9,98,4.266,4.253,4.253,4.237,0,0,0,71.6,11,AutoTakeoff,
37.2865879,-119.5625592,4499.7587266694,0.656168,0,0.046623689156,3400,2018-04-11 21:27:05,16,0,0,4499.7587266694,0.656168,0,0.046623689156,0,0,0,314, -0.2, 0.4,0,0,1024,1024,1025,1024,313.3,-89.9,98,4.266,4.253,4.253,4.237,0,0,0,71.6,11,AutoTakeoff,
37.2865878,-119.5625592,4499.7587266694,0.656168,0,0.07853182666,3500,2018-04-11 21:27:05,16,0,0,4499.7587266694,0.656168,0,0.07853182666,0,0,0,313.9, -0.3, 0.2,0,0,1024,1024,1025,1024,313.3,-89.9,98,4.266,4.253,4.253,4.237,0,0,0,71.6,11,AutoTakeoff,
37.2865878,-119.5625592,4500.0868106694,0.984252,0,0.07853182666,3600,2018-04-11 21:27:05,15,0,0,4500.0868106694,0.984252,0,0.07853182666,0,0,0,313.8, -0.2, 0,0,0,1024,1024,1025,1024,313.3,-89.9,98,4.266,4.253,4.253,4.237,0,0,0,71.6,11,AutoTakeoff,
37.2865878,-119.5625592,4500.0868106694,0.984252,0,0.07853182666,3700,2018-04-11 21:27:05,15,0,0,4500.0868106694,0.984252,0,0.07853182666,0,0,0,313.8, -0.1, -0.2,0,0,1024,1024,1025,1024,313.3,-89.9,98,4.266,4.253,4.253,4.237,0,0,0,71.6,11,AutoTakeoff,
37.2865877,-119.5625593,4500.4148946694,1.312336,0,0.123898626012,3800,2018-04-11 21:27:05,16,0,0,4500.4148946694,1.312336,0,0.123898626012,0,0,0,313.8, 0.2, -0.1,0,0,1024,1024,1025,1024,313.3,-89.9,98,4.266,4.253,4.253,4.237,0,0,0,71.6,11,AutoTakeoff,
37.2865877,-119.5625593,4500.4148946694,1.312336,0,0.123898626012,3900,2018-04-11 21:27:05,16,0,0,4500.4148946694,1.312336,0,0.123898626012,0,0,0,313.9, 0.3, 0.1,0,0,1024,1024,1025,1024,313.3,-89.9,98,4.266,4.253,4.253,4.237,0,0,0,71.6,11,AutoTakeoff,
37.2865877,-119.5625593,4500.7429786694,1.64042,0,0.123898626012,4000,2018-04-11 21:27:05,17,0,25.697,4500.7429786694,1.64042,0,0.123898626012,0,0,0,314.1, 0.2, 0.6,0,0,1024,1024,1025,1024,313.3,-89.9,98,4.266,4.253,4.253,4.237,0,0,3.016,71.6,11,AutoTakeoff,
37.2865876,-119.5625594,4500.7429786694,1.64042,0,0.169947183916,4100,2018-04-11 21:27:05,17,0,25.697,4500.7429786694,1.64042,0,0.169947183916,0,0,0,314.2, 0.1, 0.9,0,0,1024,1024,1025,1024,313.3,-89.9,98,4.266,4.253,4.253,4.237,0,0,3.016,71.6,11,AutoTakeoff,
37.2865875,-119.5625595,4501.0710626694,1.968504,0,0.216242460988,4310,2018-04-11 21:27:06,17,0,25.697,4501.0710626694,1.968504,0,0.216242460988,0,0,0,314.5, 0, 1,0,0,1024,1024,1025,1024,313.3,-89.9,98,4.266,4.253,4.253,4.237,0,0,3.016,71.6,11,AutoTakeoff,
37.2865875,-119.5625596,4501.3991466694,2.296588,0,0.233118773864,4400,2018-04-11 21:27:06,17,0,25.697,4501.3991466694,2.296588,0,0.233118773864,0,0,0,314.6, 0, 1,0,0,1024,1024,1025,1024,313.3,-89.9,98,4.266,4.253,4.253,4.237,0,0,3.016,71.6,11,AutoTakeoff,
37.2865874,-119.5625596,4501.3991466694,2.296588,0,0.262653879796,4500,2018-04-11 21:27:06,17,0,25.697,4501.3991466694,2.296588,0,0.262653879796,0,0,0,314.6, 0, 0.8,0,0,1024,1024,1025,1024,313.3,-89.9,98,4.266,4.253,4.253,4.237,0,0,3.016,71.6,11,AutoTakeoff,
37.2865874,-119.5625597,4501.7272306694,2.624672,0,0.27974246302,4600,2018-04-11 21:27:06,16,0,25.697,4501.7272306694,2.624672,0,0.27974246302,0,0,-0.223694,314.6, 0.2, 0.8,0,0,1024,1024,1025,1024,313.3,-89.9,98,4.266,4.253,4.253,4.237,0,0,3.016,71.6,11,AutoTakeoff,
37.2865874,-119.5625598,4502.0553146694,2.952756,0,0.298680455752,4700,2018-04-11 21:27:06,16,0,25.697,4502.0553146694,2.952756,0,0.298680455752,0,0,-0.223694,314.6, 0.3, 1,0,0,1024,1024,1026,1024,313.3,-89.9,98,4.266,4.253,4.253,4.237,0,0,3.016,71.6,11,AutoTakeoff,
37.2865874,-119.5625599,4502.0553146694,2.952756,0,0.319138461656,4810,2018-04-11 21:27:06,16,0,25.697,4502.0553146694,2.952756,0,0.319138461656,0,0,0,314.4, 0.3, 1.3,0,0,1024,1024,1025,1024,313.3,-89.9,98,4.266,4.253,4.253,4.237,0,0,3.016,71.6,14,Waypoint,
37.2865874,-119.5625599,4502.3833986694,3.28084,0,0.319138461656,5000,2018-04-11 21:27:06,16,0,24.57,4502.3833986694,3.28084,0,0.319138461656,0,0,0,314.3, 0.4, 1.4,0,0,1024,1024,1025,1024,313.3,-89.9,98,4.083,4.061,4.057,4.091,0,0,13.32,71.6,14,Waypoint,
37.2865874,-119.5625599,4502.3833986694,3.28084,0,0.319138461656,5100,2018-04-11 21:27:06,17,0,24.57,4502.3833986694,3.28084,0,0.319138461656,0,0,0,314.2, 0.3, 1.3,0,0,1024,1024,1026,1024,313.3,-89.9,98,4.083,4.061,4.057,4.091,0,0,13.32,71.6,14,Waypoint,
37.2865874,-119.5625599,4502.3833986694,3.28084,0,0.319138461656,5200,2018-04-11 21:27:06,17,0,24.57,4502.3833986694,3.28084,0,0.319138461656,0,0,0,314.2, 0.2, 1,0,0,1024,1024,1025,1024,313.3,-89.9,98,4.083,4.061,4.057,4.091,0,0,13.32,71.6,14,Waypoint,
37.2865875,-119.5625599,4502.7114826694,3.608924,0,0.295307752232,5300,2018-04-11 21:27:06,16,0,24.57,4502.7114826694,3.608924,0,0.319138461656,0,0,0,314.2, 0.1, 0.7,0,0,1024,1024,1025,1024,313.3,-89.9,98,4.083,4.061,4.057,4.091,0,0,13.32,71.6,14,Waypoint,
37.2865875,-119.56256,4502.7114826694,3.608924,0,0.318639773976,5400,2018-04-11 21:27:07,16,0,24.57,4502.7114826694,3.608924,0,0.319138461656,0,0,0,314.2, 0.1, 0.5,0,0,1024,1024,1025,1024,313.3,-89.9,98,4.083,4.061,4.057,4.091,0,0,13.32,71.6,14,Waypoint,
37.2865875,-119.56256,4503.0395666694,3.937008,0,0.318639773976,5500,2018-04-11 21:27:07,17,0,24.57,4503.0395666694,3.937008,0,0.319138461656,0,0,-0.223694,314.3, 0.3, 0.5,0,0,1024,1024,1025,1024,313.3,-89.9,98,4.083,4.061,4.057,4.091,0,0,13.32,71.6,14,Waypoint,
37.2865876,-119.56256,4503.3676506694,4.265092,0,0.299250665744,5600,2018-04-11 21:27:07,17,0,24.57,4503.3676506694,4.265092,0,0.319138461656,0,0,-0.223694,314.4, 0.4, 0.4,0,0,1024,1024,1025,1024,313.3,-89.9,98,4.083,4.061,4.057,4.091,0,0,13.32,71.6,14,Waypoint,
37.2865876,-119.56256,4503.6957346694,4.593176,0,0.299250665744,5700,2018-04-11 21:27:07,18,0,24.57,4503.6957346694,4.593176,0,0.319138461656,0,0,-0.223694,314.5, 0.4, 0.4,0,0,1024,1024,1025,1024,313.3,-89.9,98,4.083,4.061,4.057,4.091,0,0,13.32,71.6,14,Waypoint,
37.2865875,-119.5625601,4504.3519026694,5.249344,0,0.34284121832,5800,2018-04-11 21:27:07,18,0,24.57,4504.3519026694,5.249344,0,0.34284121832,0,0,-0.223694,314.7, 0.5, 0.9,0,0,1024,1024,1025,1024,313.3,-89.9,98,4.083,4.061,4.057,4.091,0,0,13.32,71.6,14,Waypoint,
37.2865875,-119.5625601,4505.0080706694,5.905512,0,0.34284121832,5900,2018-04-11 21:27:07,18,0,24.57,4505.0080706694,5.905512,0,0.34284121832,0,0,-0.447388,314.7, 0.4, 1.2,0,0,1024,1024,1025,1024,313.3,-89.9,98,4.083,4.061,4.057,4.091,0,0,13.32,71.6,14,Waypoint,
37.2865875,-119.56256,4505.3361546694,6.233596,0,0.318639773976,6000,2018-04-11 21:27:07,17,0,24.179,4505.3361546694,6.233596,0,0.34284121832,0,0,-0.447388,314.6, 0.1, 0.9,0,0,1024,1024,1026,1024,313.3,-89.9,98,4.034,4.012,4.006,4.025,0,0,15.855,71.6,14,Waypoint,
37.2865874,-119.56256,4505.9923226694,6.889764,0,0.34084318676,6100,2018-04-11 21:27:07,17,0,24.179,4505.9923226694,6.889764,0,0.34284121832,0,0,-0.447388,314.5, -0.1, 0.7,0,0,1024,1024,1025,1024,313.3,-90,98,4.034,4.012,4.006,4.025,0,0,15.855,71.6,14,Waypoint,
37.2865874,-119.56256,4506.9765746694,7.874016,0,0.34084318676,6200,2018-04-11 21:27:07,17,0,24.179,4506.9765746694,7.874016,0,0.34284121832,0,0,-0.447388,314.3, -0.2, 0.7,0,0,1024,1024,1025,1024,313.3,-90,98,4.034,4.012,4.006,4.025,0,0,15.855,71.6,14,Waypoint,
37.2865873,-119.5625601,4507.6327426694,8.530184,0,0.38663715148,6300,2018-04-11 21:27:07,17,0,24.179,4507.6327426694,8.530184,0,0.38663715148,0,0,-0.671082,314.1, -0.1, 0.7,0,0,1024,1024,1025,1024,313.3,-89.9,98,4.034,4.012,4.006,4.025,0,0,15.855,71.6,14,Waypoint,
37.2865873,-119.5625601,4508.6169946694,9.514436,0,0.38663715148,6400,2018-04-11 21:27:08,16,0,24.179,4508.6169946694,9.514436,0,0.38663715148,0,0,-0.671082,313.9, 0, 0.9,0,0,1024,1024,1025,1024,313.3,-89.9,98,4.034,4.012,4.006,4.025,0,0,15.855,71.6,14,Waypoint,
37.2865872,-119.5625601,4509.6012466694,10.498688,0,0.41165027564,6500,2018-04-11 21:27:08,16,0,24.179,4509.6012466694,10.498688,0,0.41165027564,0,0,-0.671082,313.7, 0.3, 1.3,0,0,1024,1024,1025,1024,313.3,-89.9,98,4.034,4.012,4.006,4.025,0,0,15.855,71.6,14,Waypoint,
37.2865871,-119.56256,4510.5854986694,11.48294,0,0.41961287432,6600,2018-04-11 21:27:08,18,0,24.179,4510.5854986694,11.48294,0,0.41961287432,0,0,-0.671082,313.5, 0.3, 1.6,0,0,1024,1024,1025,1024,313.3,-89.9,98,4.034,4.012,4.006,4.025,0,0,15.855,71.6,14,Waypoint,
37.286587,-119.5625599,4511.5697506694,12.467192,0,0.43248360964,6700,2018-04-11 21:27:08,18,0,24.179,4511.5697506694,12.467192,0,0.43248360964,0,0,-0.671082,313.5, 0.1, 1.6,0,0,1024,1024,1025,1024,313.3,-89.9,98,4.034,4.012,4.006,4.025,0,0,15.855,71.6,14,Waypoint,
37.286587,-119.5625598,4512.5540026694,13.451444,0,0.4176181236,6800,2018-04-11 21:27:08,17,0,24.179,4512.5540026694,13.451444,0,0.43248360964,0,0,-0.671082,313.6, -0.2, 1.3,0,0,1024,1024,1025,1024,313.3,-90,98,4.034,4.012,4.006,4.025,0,0,15.855,71.6,14,Waypoint,
37.2865869,-119.5625599,4513.5382546694,14.435696,0,0.46367783636,6900,2018-04-11 21:27:08,17,0,24.179,4513.5382546694,14.435696,0,0.46367783636,0,0,-0.671082,313.7, -0.3, 1.1,0,0,1024,1024,1025,1024,313.3,-90,98,4.034,4.012,4.006,4.025,0,0,15.855,71.6,14,Waypoint,
37.286587,-119.5625599,4514.8505906694,15.748032,0,0.43248360964,7100,2018-04-11 21:27:08,19,0,24.179,4514.8505906694,15.748032,0,0.46367783636,0,0,-0.671082,313.9, -0.2, 1.2,0,0,1024,1024,1025,1024,313.3,-89.9,98,4.034,4.012,4.006,4.025,0,0,15.855,71.6,14,Waypoint,
37.2865871,-119.5625599,4515.8348426694,16.732284,0,0.4021817714,7200,2018-04-11 21:27:08,19,0,24.179,4515.8348426694,16.732284,0,0.46367783636,0,0,-0.671082,314.1, 0, 1.2,0,0,1024,1024,1025,1024,313.3,-89.9,98,4.034,4.012,4.006,4.025,0,0,15.855,71.6,14,Waypoint,
37.2865871,-119.5625599,4517.1471786694,18.04462,0,0.4021817714,7300,2018-04-11 21:27:08,19,0,24.179,4517.1471786694,18.04462,0,0.46367783636,0,0,-0.671082,314.2, 0.2, 1.1,0,0,1024,1024,1025,1024,313.3,-89.9,98,4.034,4.012,4.006,4.025,0,0,15.855,71.6,14,Waypoint,
37.2865872,-119.5625599,4518.4595146694,19.356956,0,0.37298885708,7400,2018-04-11 21:27:09,19,0,24.179,4518.4595146694,19.356956,0,0.46367783636,0,0,-0.671082,314.2, 0.3, 1,0,0,1024,1024,1025,1024,313.3,-89.9,98,4.034,4.012,4.006,4.025,0,0,15.855,71.6,14,Waypoint,
37.2865872,-119.5625599,4519.4437666694,20.341208,0,0.37298885708,7500,2018-04-11 21:27:09,18,0,24.179,4519.4437666694,20.341208,0,0.46367783636,0,0,-0.671082,314.2, 0.3, 1,0,0,1024,1024,1025,1024,313.3,-89.9,98,4.034,4.012,4.006,4.025,0,0,15.855,71.6,14,Waypoint,
37.2865873,-119.56256,4520.4280186694,21.32546,0,0.36534778072,7600,2018-04-11 21:27:09,18,0,24.179,4520.4280186694,21.32546,0,0.46367783636,0,0,-0.671082,314.2, 0.3, 1,0,0,1024,1024,1025,1024,313.3,-89.9,98,4.034,4.012,4.006,4.025,0,0,15.855,71.6,14,Waypoint,
37.2865873,-119.5625601,4521.7403546694,22.637796,0,0.38663715148,7700,2018-04-11 21:27:09,16,0,24.179,4521.7403546694,22.637796,0,0.46367783636,0,0,-0.671082,314.2, 0.6, 1,0,0,1024,1024,1025,1024,313.3,-89.9,98,4.034,4.012,4.006,4.025,0,0,15.855,71.6,14,Waypoint,
37.2865874,-119.5625599,4522.7246066694,23.622048,0,0.319138461656,7800,2018-04-11 21:27:09,16,0,24.179,4522.7246066694,23.622048,0,0.46367783636,0,0,-0.671082,314.2, 0.7, 0.9,0,0,1024,1024,1025,1024,313.3,-89.9,98,4.034,4.012,4.006,4.025,0,0,15.855,71.6,14,Waypoint,
37.2865875,-119.5625599,4523.7088586694,24.6063,0,0.295307752232,7900,2018-04-11 21:27:09,19,0,24.179,4523.7088586694,24.6063,0,0.46367783636,0,0,-0.671082,314.2, 0.6, 0.8,0,0,1024,1024,1025,1024,313.3,-89.9,98,4.034,4.012,4.006,4.025,0,0,15.855,71.6,14,Waypoint,
37.2865876,-119.56256,4526.0054466694,26.902888,0,0.299250665744,8000,2018-04-11 21:27:09,18,0,23.415,4526.0054466694,26.902888,0,0.46367783636,0,0,-0.671082,314, 0.4, 0.9,0,0,1024,1024,1025,1024,313.3,-89.9,98,3.907,3.899,3.87,3.893,0,0,23.895,71.6,14,Waypoint,
37.2865878,-119.5625601,4527.9739506694,28.871392,0,0.299310705116,8200,2018-04-11 21:27:09,17,0,23.415,4527.9739506694,28.871392,0,0.46367783636,0,0,-0.671082,313.9, 0.6, 0.7,0,0,1024,1024,1025,1024,313.3,-89.9,98,3.907,3.899,3.87,3.893,0,0,23.895,71.6,14,Waypoint,
37.2865879,-119.5625601,4528.9582026694,29.855644,0,0.292563657656,8300,2018-04-11 21:27:09,17,0,23.415,4528.9582026694,29.855644,0,0.46367783636,0,0,-0.671082,313.9, 0.7, 0.6,0,0,1024,1024,1025,1024,313.3,-89.9,98,3.907,3.899,3.87,3.893,0,0,23.895,71.6,14,Waypoint,
37.286588,-119.5625601,4529.9424546694,30.839896,0,0.290279864932,8400,2018-04-11 21:27:10,19,0,23.415,4529.9424546694,30.839896,0,0.46367783636,0,0,-0.671082,314, 0.9, 0.5,0,0,1024,1024,1025,1024,313.3,-89.9,98,3.907,3.899,3.87,3.893,0,0,23.895,71.6,14,Waypoint,
37.286588,-119.5625602,4530.9267066694,31.824148,0,0.319307753,8500,2018-04-11 21:27:10,19,0,23.415,4530.9267066694,31.824148,0,0.46367783636,0,0,-0.671082,314.1, 0.9, 0.5,0,0,1024,1024,1025,1024,313.3,-89.9,98,3.907,3.899,3.87,3.893,0,0,23.895,71.6,14,Waypoint,
37.2865881,-119.5625603,4531.9109586694,32.8084,0,0.35024279336,8700,2018-04-11 21:27:10,19,0,23.415,4531.9109586694,32.8084,0,0.46367783636,0,0,-0.671082,314.1, 1.1, 0.6,0,0,1024,1024,1025,1024,313.3,-89.9,98,3.907,3.899,3.87,3.893,0,0,23.895,71.6,14,Waypoint,
37.2865882,-119.5625603,4533.2232946694,34.120736,0,0.35589568068,8800,2018-04-11 21:27:10,19,0,23.415,4533.2232946694,34.120736,0,0.46367783636,0,0,-0.671082,314.1, 1.1, 0.7,0,0,1024,1024,1025,1024,313.3,-89.9,98,3.907,3.899,3.87,3.893,0,0,23.895,71.6,14,Waypoint,
37.2865882,-119.5625604,4534.2075466694,35.104988,0,0.38435368684,8900,2018-04-11 21:27:10,19,0,23.415,4534.2075466694,35.104988,0,0.46367783636,0,0,-0.671082,314.1, 1.1, 0.7,0,0,1024,1024,1025,1024,313.3,-89.9,98,3.907,3.899,3.87,3.893,0,0,23.895,71.6,14,Waypoint,
37.2865883,-119.5625604,4535.1917986694,36.08924,0,0.39291667924,9000,2018-04-11 21:27:10,19,0,23.793,4535.1917986694,36.08924,0,0.46367783636,0,0,-0.671082,314.2, 1, 0.6,0,0,1024,1024,1025,1024,313.3,-89.9,98,3.978,3.94,3.955,3.955,0,0,18.059,71.6,14,Waypoint,
37.2865883,-119.5625604,4536.1760506694,37.073492,0,0.39291667924,9210,2018-04-11 21:27:10,18,0,23.793,4536.1760506694,37.073492,0,0.46367783636,0,0,-0.671082,314.3, 0.9, 0.5,0,0,1024,1024,1025,1024,313.3,-89.9,98,3.978,3.94,3.955,3.955,0,0,18.059,71.6,14,Waypoint,
37.2865885,-119.5625604,4537.1603026694,38.057744,0,0.4191437142,9300,2018-04-11 21:27:10,18,0,23.793,4537.1603026694,38.057744,0,0.46367783636,0,0,-0.671082,314.5, 0.9, 0.4,0,0,1024,1024,1025,1024,313.3,-89.9,98,3.978,3.94,3.955,3.955,0,0,18.059,71.6,14,Waypoint,
37.2865886,-119.5625605,4538.1445546694,39.041996,0,0.46160106464,9500,2018-04-11 21:27:11,19,0,23.793,4538.1445546694,39.041996,0,0.46367783636,0,0,-0.671082,314.6, 1.3, 0.3,0,0,1024,1024,1025,1024,313.3,-89.9,98,3.978,3.94,3.955,3.955,0,0,18.059,71.6,14,Waypoint,
37.2865886,-119.5625604,4539.1288066694,40.026248,0,0.43626313732,9600,2018-04-11 21:27:11,19,0,23.793,4539.1288066694,40.026248,0,0.46367783636,0,0,-0.671082,314.7, 1.3, 0.2,0,0,1024,1024,1025,1024,313.3,-89.9,98,3.978,3.94,3.955,3.955,0,0,18.059,71.6,14,Waypoint,
37.2865886,-119.5625604,4540.1130586694,41.0105,0,0.43626313732,9700,2018-04-11 21:27:11,18,0,23.793,4540.1130586694,41.0105,0,0.46367783636,0,0,-0.671082,314.7, 1.3, 0.1,0,0,1024,1024,1025,1024,313.3,-89.9,98,3.978,3.94,3.955,3.955,0,0,18.059,71.6,14,Waypoint,
37.2865887,-119.5625605,4541.0973106694,41.994752,0,0.47998033032,9800,2018-04-11 21:27:11,18,0,23.793,4541.0973106694,41.994752,0,0.47998033032,0,0,-0.671082,314.7, 1.3, 0,0,0,1024,1024,1025,1024,313.3,-89.9,98,3.978,3.94,3.955,3.955,0,0,18.059,71.6,14,Waypoint,
37.2865887,-119.5625605,4543.0658146694,43.963256,0,0.47998033032,10000,2018-04-11 21:27:11,19,0,23.781,4543.0658146694,43.963256,0,0.47998033032,0,0,-0.671082,314.7, 1.4, 0.2,0,0,1024,1024,1025,1024,313.3,-89.9,97,3.978,3.94,3.955,3.955,0,0,17.794,71.6,14,Waypoint,
37.2865887,-119.5625605,4544.0500666694,44.947508,0,0.47998033032,10100,2018-04-11 21:27:11,19,0,23.781,4544.0500666694,44.947508,0,0.47998033032,0,0,-0.671082,314.6, 1.3, 0.3,0,0,1024,1024,1025,1024,313.3,-89.9,97,3.978,3.94,3.955,3.955,0,0,17.794,71.6,14,Waypoint,
37.2865887,-119.5625604,4546.0185706694,46.916012,0,0.45566274424,10210,2018-04-11 21:27:11,19,0,23.781,4546.0185706694,46.916012,0,0.47998033032,0,0,-0.671082,314.4, 1, 0.4,0,0,1024,1024,1025,1024,313.3,-89.9,97,3.978,3.94,3.955,3.955,0,0,17.794,71.6,14,Waypoint,
37.2865886,-119.5625604,4547.0028226694,47.900264,0,0.43626313732,10300,2018-04-11 21:27:11,19,0,23.781,4547.0028226694,47.900264,0,0.47998033032,0,0,-0.671082,314.3, 0.8, 0.7,0,0,1024,1024,1025,1024,313.3,-89.9,97,3.978,3.94,3.955,3.955,0,0,17.794,71.6,14,Waypoint,
37.2865885,-119.5625603,4549.9555786694,50.85302,0,0.39321195484,10400,2018-04-11 21:27:12,18,0,23.781,4549.9555786694,50.85302,0,0.47998033032,0,0,-0.671082,314.1, 0.6, 0.6,0,0,1024,1024,1025,1024,313.3,-89.9,97,3.978,3.94,3.955,3.955,0,0,17.794,71.6,14,Waypoint,
37.2865884,-119.5625602,4550.9398306694,51.837272,0,0.35107940756,10500,2018-04-11 21:27:12,18,0,23.781,4550.9398306694,51.837272,0,0.47998033032,0,0,-0.671082,314.1, 0.6, 0.6,0,0,1024,1024,1025,1024,313.3,-89.9,97,3.978,3.94,3.955,3.955,0,0,17.794,71.6,14,Waypoint,
37.2865884,-119.5625601,4551.9240826694,52.821524,0,0.324901257116,10600,2018-04-11 21:27:12,19,0,23.781,4551.9240826694,52.821524,0,0.47998033032,0,0,-0.671082,314.2, 0.5, 0.7,0,0,1024,1024,1025,1024,313.3,-90,97,3.978,3.94,3.955,3.955,0,0,17.794,71.6,14,Waypoint,
37.2865884,-119.5625599,4553.8925866694,54.790028,0,0.274274286992,10800,2018-04-11 21:27:12,19,0,23.781,4553.8925866694,54.790028,0,0.47998033032,0,0,-0.671082,314.6, 0.5, 0.3,0,0,1024,1024,1025,1024,313.3,-89.9,97,3.978,3.94,3.955,3.955,0,0,17.794,71.6,14,Waypoint,
37.2865883,-119.5625599,4554.8768386694,55.77428,0,0.256726058084,10900,2018-04-11 21:27:12,19,0,23.781,4554.8768386694,55.77428,0,0.47998033032,0,0,-0.671082,314.8, 0.6, 0.3,0,0,1024,1024,1025,1024,313.3,-89.9,97,3.978,3.94,3.955,3.955,0,0,17.794,71.6,14,Waypoint,
37.2865882,-119.5625599,4555.8610906694,56.758532,0,0.243418314876,11030,2018-04-11 21:27:12,19,0,23.748,4555.8610906694,56.758532,0,0.47998033032,0,0,-0.671082,314.7, 0.6, 0.7,0,0,1024,1024,1025,1024,313.3,-89.9,97,3.966,3.935,3.945,3.957,0,0,17.765,71.6,14,Waypoint,
37.2865882,-119.5625599,4556.8453426694,57.742784,0,0.243418314876,11100,2018-04-11 21:27:12,19,0,23.748,4556.8453426694,57.742784,0,0.47998033032,0,0,-0.671082,314.6, 0.5, 0.9,0,0,1024,1024,1025,1024,313.3,-89.9,97,3.966,3.935,3.945,3.957,0,0,17.765,71.6,14,Waypoint,
37.2865881,-119.5625599,4557.8295946694,58.727036,0,0.235072514084,11200,2018-04-11 21:27:12,19,0,23.748,4557.8295946694,58.727036,0,0.47998033032,0,0,-0.671082,314.5, 0.5, 1.1,0,0,1024,1024,1025,1024,313.3,-89.9,97,3.966,3.935,3.945,3.957,0,0,17.765,71.6,14,Waypoint,
37.286588,-119.5625599,4558.8138466694,59.711288,0,0.232223760712,11400,2018-04-11 21:27:13,19,0,23.748,4558.8138466694,59.711288,0,0.47998033032,0,0,-0.671082,314.5, 0.6, 1.1,0,0,1024,1024,1025,1024,313.3,-89.9,97,3.966,3.935,3.945,3.957,0,0,17.765,71.6,14,Waypoint,
37.286588,-119.5625599,4559.7980986694,60.69554,0,0.232223760712,11500,2018-04-11 21:27:13,19,0,23.748,4559.7980986694,60.69554,0,0.47998033032,0,0,-0.671082,314.6, 0.8, 1.2,0,0,1024,1024,1025,1024,313.3,-89.9,97,3.966,3.935,3.945,3.957,0,0,17.765,71.6,14,Waypoint,
37.2865879,-119.56256,4560.7823506694,61.679792,0,0.263787081932,11600,2018-04-11 21:27:13,19,0,23.748,4560.7823506694,61.679792,0,0.47998033032,0,0,-0.671082,314.6, 0.8, 1.3,0,0,1024,1024,1025,1024,313.3,-89.9,97,3.966,3.935,3.945,3.957,0,0,17.765,71.6,14,Waypoint,
37.2865879,-119.56256,4561.7666026694,62.664044,0,0.263787081932,11700,2018-04-11 21:27:13,19,0,23.748,4561.7666026694,62.664044,0,0.47998033032,0,0,-0.671082,314.7, 0.9, 1.4,0,0,1024,1024,1026,1024,313.3,-89.9,97,3.966,3.935,3.945,3.957,0,0,17.765,71.6,14,Waypoint,
37.2865878,-119.5625601,4562.7508546694,63.648296,0,0.299310705116,11800,2018-04-11 21:27:13,19,0,23.748,4562.7508546694,63.648296,0,0.47998033032,0,0,-0.671082,314.7, 1, 1.6,0,0,1024,1024,1025,1024,313.3,-89.9,97,3.966,3.935,3.945,3.957,0,0,17.765,71.6,14,Waypoint,
37.2865878,-119.5625601,4564.7193586694,65.6168,0,0.299310705116,12000,2018-04-11 21:27:13,19,0,23.742,4564.7193586694,65.6168,0,0.47998033032,0,0,-0.671082,314.7, 1.2, 1.8,0,0,1024,1024,1025,1024,313.3,-89.9,97,3.966,3.935,3.945,3.957,0,0,17.757,71.6,14,Waypoint,
37.2865878,-119.5625601,4565.7036106694,66.601052,0,0.299310705116,12100,2018-04-11 21:27:13,19,0,23.742,4565.7036106694,66.601052,0,0.47998033032,0,0,-0.671082,314.5, 1.4, 1.7,0,0,1024,1024,1025,1024,313.3,-89.9,97,3.966,3.935,3.945,3.957,0,0,17.757,71.6,14,Waypoint,
37.2865878,-119.5625602,4566.6878626694,67.585304,0,0.32753938056,12200,2018-04-11 21:27:13,19,0,23.742,4566.6878626694,67.585304,0,0.47998033032,0,0,-0.671082,314.3, 1.2, 1.6,0,0,1024,1024,1025,1024,313.3,-89.9,97,3.966,3.935,3.945,3.957,0,0,17.757,71.6,14,Waypoint,
37.2865877,-119.5625602,4567.6721146694,68.569556,0,0.33754594256,12300,2018-04-11 21:27:14,19,0,23.742,4567.6721146694,68.569556,0,0.47998033032,0,0,-0.671082,313.9, 1.2, 1.4,0,0,1024,1024,1026,1024,313.3,-89.9,97,3.966,3.935,3.945,3.957,0,0,17.757,71.6,14,Waypoint,
37.2865877,-119.5625603,4569.6406186694,70.53806,0,0.36512796444,12400,2018-04-11 21:27:14,19,0,23.742,4569.6406186694,70.53806,0,0.47998033032,0,0,-0.671082,313.8, 1.1, 1.8,0,0,1024,1024,1025,1024,313.3,-89.9,97,3.966,3.935,3.945,3.957,0,0,17.757,71.6,14,Waypoint,
37.2865876,-119.5625604,4570.6248706694,71.522312,0,0.40459975048,12500,2018-04-11 21:27:14,19,0,23.742,4570.6248706694,71.522312,0,0.47998033032,0,0,-0.671082,314, 1.3, 2.1,0,0,1024,1024,1025,1024,313.3,-89.9,97,3.966,3.935,3.945,3.957,0,0,17.757,71.6,14,Waypoint,
37.2865876,-119.5625605,4571.6091226694,72.506564,0,0.43180119492,12600,2018-04-11 21:27:14,19,0,23.742,4571.6091226694,72.506564,0,0.47998033032,0,0,-0.671082,314.2, 1.6, 2.3,0,0,1024,1024,1025,1024,313.3,-89.9,97,3.966,3.935,3.945,3.957,0,0,17.757,71.6,14,Waypoint,
37.2865876,-119.5625606,4572.9214586694,73.8189,0,0.45922573648,12700,2018-04-11 21:27:14,19,0,23.742,4572.9214586694,73.8189,0,0.47998033032,0,0,-0.671082,314.3, 1.6, 2.3,0,0,1024,1024,1025,1024,313.3,-89.9,97,3.966,3.935,3.945,3.957,0,0,17.757,71.6,14,Waypoint,
37.2865876,-119.5625606,4573.9057106694,74.803152,0,0.45922573648,12800,2018-04-11 21:27:14,19,0,23.742,4573.9057106694,74.803152,0,0.47998033032,0,0,-0.671082,314.4, 1.6, 2.2,0,0,1024,1024,1025,1024,313.3,-89.9,97,3.966,3.935,3.945,3.957,0,0,17.757,71.6,14,Waypoint,
37.2865876,-119.5625607,4574.5618786694,75.45932,0,0.48683728592,12900,2018-04-11 21:27:14,19,0,23.742,4574.5618786694,75.45932,0,0.48683728592,0,0,-0.671082,314.4, 1.7, 2,0,0,1024,1024,1025,1024,313.3,-89.9,97,3.966,3.935,3.945,3.957,0,0,17.757,71.6,14,Waypoint,
37.2865876,-119.5625607,4575.5461306694,76.443572,0,0.48683728592,13000,2018-04-11 21:27:14,19,0,23.742,4575.5461306694,76.443572,0,0.48683728592,0,0,-0.671082,314.4, 1.7, 1.8,0,0,1024,1024,1025,1024,313.3,-89.9,97,3.958,3.93,3.947,3.956,0,0,17.757,71.6,14,Waypoint,
37.2865877,-119.5625609,4577.5146346694,78.412076,0,0.53384516144,13210,2018-04-11 21:27:14,19,0,23.742,4577.5146346694,78.412076,0,0.53384516144,0,0,-0.671082,314.3, 1.8, 2.1,0,0,1024,1024,1025,1024,313.3,-89.9,97,3.958,3.93,3.947,3.956,0,0,17.757,71.6,14,Waypoint,
37.2865877,-119.562561,4578.4988866694,79.396328,0,0.5622867634,13300,2018-04-11 21:27:14,19,0,23.742,4578.4988866694,79.396328,0,0.5622867634,0,0,-0.671082,314.2, 1.8, 2.3,0,0,1024,1024,1025,1024,313.3,-89.9,97,3.958,3.93,3.947,3.956,0,0,17.757,71.6,14,Waypoint,
37.2865878,-119.5625613,4581.4516426694,82.349084,0,0.64277233028,13600,2018-04-11 21:27:15,19,0,23.742,4581.4516426694,82.349084,0,0.64277233028,0,0,-0.671082,314.4, 2, 2.1,0,0,1024,1024,1025,1024,313.3,-89.9,97,3.958,3.93,3.947,3.956,0,0,17.757,71.6,14,Waypoint,
37.2865878,-119.5625614,4582.4358946694,83.333336,0,0.6716207564,13800,2018-04-11 21:27:15,19,0,23.742,4582.4358946694,83.333336,0,0.6716207564,0,0,-0.671082,314.5, 2.2, 2.2,0,0,1024,1024,1025,1024,313.3,-89.9,97,3.958,3.93,3.947,3.956,0,0,17.757,71.6,14,Waypoint,
37.2865878,-119.5625615,4583.4201466694,84.317588,0,0.70048230588,13900,2018-04-11 21:27:15,19,0,23.742,4583.4201466694,84.317588,0,0.70048230588,0,0,-0.671082,314.5, 2.4, 2.3,0,0,1024,1024,1025,1024,313.3,-89.9,97,3.958,3.93,3.947,3.956,0,0,17.757,71.6,14,Waypoint,
37.2865878,-119.5625615,4584.4043986694,85.30184,0,0.70048230588,14000,2018-04-11 21:27:15,19,0,23.711,4584.4043986694,85.30184,0,0.70048230588,0,0,-0.671082,314.4, 2.5, 2.1,0,0,1024,1024,1025,1024,313.3,-89.9,97,3.964,3.942,3.938,3.947,0,0,17.598,71.6,14,Waypoint,
37.2865879,-119.5625617,4586.3729026694,87.270344,0,0.7556102604,14200,2018-04-11 21:27:15,19,0,23.711,4586.3729026694,87.270344,0,0.7556102604,0,0,-0.671082,314.7, 2.8, 1.9,0,0,1024,1024,1025,1024,313.3,-89.9,97,3.964,3.942,3.938,3.947,0,0,17.598,71.6,14,Waypoint,
37.2865879,-119.5625617,4587.0290706694,87.926512,0,0.7556102604,14300,2018-04-11 21:27:15,19,0,23.711,4587.0290706694,87.926512,0,0.7556102604,0,0,-0.671082,314.8, 2.7, 2.3,0,0,1024,1024,1025,1024,313.3,-89.9,97,3.964,3.942,3.938,3.947,0,0,17.598,71.6,14,Waypoint,
37.2865879,-119.5625618,4588.0133226694,88.910764,0,0.78460304348,14400,2018-04-11 21:27:16,19,0,23.711,4588.0133226694,88.910764,0,0.78460304348,0,0,-0.671082,314.8, 2.8, 2.6,0,0,1024,1024,1025,1024,313.3,-89.9,97,3.964,3.942,3.938,3.947,0,0,17.598,71.6,14,Waypoint,
37.2865878,-119.5625619,4588.9975746694,89.895016,0,0.81605317572,14500,2018-04-11 21:27:16,19,0,23.711,4588.9975746694,89.895016,0,0.81605317572,0,0,-0.671082,314.7, 3, 2.7,0,0,1024,1024,1025,1024,313.3,-89.9,97,3.964,3.942,3.938,3.947,0,0,17.598,71.6,14,Waypoint,
37.2865878,-119.5625621,4590.9660786694,91.86352,0,0.87389110408,14600,2018-04-11 21:27:16,19,0,23.711,4590.9660786694,91.86352,0,0.87389110408,0,0,-0.671082,314.4, 2.8, 3.3,0,0,1024,1024,1025,1024,313.3,-89.9,97,3.964,3.942,3.938,3.947,0,0,17.598,71.6,14,Waypoint,
37.2865878,-119.5625622,4591.9503306694,92.847772,0,0.9028215512,14700,2018-04-11 21:27:16,19,0,23.711,4591.9503306694,92.847772,0,0.9028215512,0,0,-0.671082,314.4, 2.8, 3.5,0,0,1024,1024,1025,1024,313.3,-89.9,97,3.964,3.942,3.938,3.947,0,0,17.598,71.6,14,Waypoint,
37.2865878,-119.5625623,4592.9345826694,93.832024,0,0.93175856,14800,2018-04-11 21:27:16,19,0,23.711,4592.9345826694,93.832024,0,0.93175856,0,0,-0.671082,314.4, 2.8, 3.5,0,0,1024,1024,1025,1024,313.3,-89.9,97,3.964,3.942,3.938,3.947,0,0,17.598,71.6,14,Waypoint,
37.2865878,-119.5625624,4594.2469186694,95.14436,0,0.96069884964,14900,2018-04-11 21:27:16,19,0,23.711,4594.2469186694,95.14436,0,0.96069884964,0,0,-0.671082,314.3, 2.9, 3.5,0,0,1024,1024,1025,1024,313.3,-89.9,97,3.964,3.942,3.938,3.947,0,0,17.598,71.6,14,Waypoint,
37.2865878,-119.5625624,4595.2311706694,96.128612,0,0.96069884964,15000,2018-04-11 21:27:16,19,0,23.746,4595.2311706694,96.128612,0,0.96069884964,0,0,-0.671082,314.2, 3, 3.4,0,0,1024,1024,1025,1024,313.3,-89.9,97,3.969,3.927,3.943,3.957,0,0,16.909,71.6,14,Waypoint,
37.2865878,-119.5625625,4595.8873386694,96.78478,0,0.98964570096,15100,2018-04-11 21:27:16,19,0,23.746,4595.8873386694,96.78478,0,0.98964570096,0,0,-0.671082,314.2, 3, 3.1,0,0,1024,1024,1025,1024,313.3,-89.9,97,3.969,3.927,3.943,3.957,0,0,16.909,71.6,14,Waypoint,
37.2865878,-119.5625625,4596.8715906694,97.769032,0,0.98964570096,15200,2018-04-11 21:27:16,19,0,23.746,4596.8715906694,97.769032,0,0.98964570096,0,0,-0.671082,314.2, 2.9, 3.1,0,0,1024,1024,1025,1024,313.3,-89.9,97,3.969,3.927,3.943,3.957,0,0,16.909,71.6,14,Waypoint,
37.2865878,-119.5625625,4597.8558426694,98.753284,0,0.98964570096,15300,2018-04-11 21:27:16,19,0,23.746,4597.8558426694,98.753284,0,0.98964570096,0,0,-0.671082,314.1, 2.8, 3,0,0,1024,1024,1025,1024,313.3,-89.9,97,3.969,3.927,3.943,3.957,0,0,16.909,71.6,14,Waypoint,
37.2865878,-119.5625625,4598.8400946694,99.737536,0,0.98964570096,15400,2018-04-11 21:27:17,19,0,23.746,4598.8400946694,99.737536,0,0.98964570096,0,0,-0.671082,314, 2.6, 3.1,0,0,1024,1024,1025,1024,313.3,-89.9,97,3.969,3.927,3.943,3.957,0,0,16.909,71.6,14,Waypoint,
37.2865878,-119.5625625,4599.8243466694,100.721788,0,0.98964570096,15510,2018-04-11 21:27:17,19,0,23.746,4599.8243466694,100.721788,0,0.98964570096,0,0,-0.671082,313.9, 2.5, 3.1,0,0,1024,1024,1025,1024,313.3,-89.9,97,3.969,3.927,3.943,3.957,0,0,16.909,71.6,14,Waypoint,
37.2865878,-119.5625624,4600.8085986694,101.70604,0,0.96069884964,15600,2018-04-11 21:27:17,19,0,23.746,4600.8085986694,101.70604,0,0.98964570096,0,0,-0.671082,313.9, 2.5, 2.8,0,0,1024,1024,1025,1024,313.3,-89.9,97,3.969,3.927,3.943,3.957,0,0,16.909,71.6,14,Waypoint,
37.2865878,-119.5625624,4601.7928506694,102.690292,0,0.96069884964,15700,2018-04-11 21:27:17,19,0,23.746,4601.7928506694,102.690292,0,0.98964570096,0,0,-0.671082,314.1, 2.5, 2.3,0,0,1024,1024,1025,1024,313.3,-89.9,97,3.969,3.927,3.943,3.957,0,0,16.909,71.6,14,Waypoint,
37.2865879,-119.5625623,4602.7771026694,103.674544,0,0.92961289064,15900,2018-04-11 21:27:17,19,0,23.746,4602.7771026694,103.674544,0,0.98964570096,0,0,-0.671082,314.4, 2.4, 1.7,0,0,1024,1024,1025,1024,313.3,-89.9,97,3.969,3.927,3.943,3.957,0,0,16.909,71.6,14,Waypoint,
37.2865879,-119.5625622,4603.7613546694,104.658796,0,0.9006069842,16000,2018-04-11 21:27:17,19,0,23.627,4603.7613546694,104.658796,0,0.98964570096,0,0,-0.671082,314.7, 2.4, 1.4,0,0,1024,1024,1025,1024,313.3,-89.9,97,3.945,3.922,3.919,3.932,0,0,17.972,71.6,14,Waypoint,
37.286588,-119.5625621,4604.7456066694,105.643048,0,0.87083992288,16100,2018-04-11 21:27:17,19,0,23.627,4604.7456066694,105.643048,0,0.98964570096,0,0,-0.671082,315.1, 2.3, 1.1,0,0,1024,1024,1025,1024,313.3,-89.9,97,3.945,3.922,3.919,3.932,0,0,17.972,71.6,14,Waypoint,
37.286588,-119.562562,4605.7298586694,106.6273,0,0.84181105056,16200,2018-04-11 21:27:17,19,0,23.627,4605.7298586694,106.6273,0,0.98964570096,0,0,-0.671082,315.2, 2.6, 1,0,0,1024,1024,1025,1024,313.3,-89.9,97,3.945,3.922,3.919,3.932,0,0,17.972,71.6,14,Waypoint,
37.286588,-119.562562,4606.7141106694,107.611552,0,0.84181105056,16300,2018-04-11 21:27:17,19,0,23.627,4606.7141106694,107.611552,0,0.98964570096,0,0,-0.671082,315.1, 2.9, 1.4,0,0,1024,1024,1025,1024,313.3,-89.9,97,3.945,3.922,3.919,3.932,0,0,17.972,71.6,14,Waypoint,
37.286588,-119.5625619,4607.6983626694,108.595804,0,0.81278217824,16400,2018-04-11 21:27:18,19,0,23.627,4607.6983626694,108.595804,0,0.98964570096,0,0,-0.671082,314.9, 3, 2.4,0,0,1024,1024,1025,1024,313.3,-89.9,97,3.945,3.922,3.919,3.932,0,0,17.972,71.6,14,Waypoint,
37.286588,-119.5625619,4609.0106986694,109.90814,0,0.81278217824,16500,2018-04-11 21:27:18,19,0,23.627,4609.0106986694,109.90814,0,0.98964570096,0,0,-0.671082,314.9, 2.6, 2.9,0,0,1024,1024,1025,1024,313.3,-89.9,97,3.945,3.922,3.919,3.932,0,0,17.972,71.6,14,Waypoint,
37.286588,-119.5625619,4609.9949506694,110.892392,0,0.81278217824,16600,2018-04-11 21:27:18,19,0,23.627,4609.9949506694,110.892392,0,0.98964570096,0,0,-0.671082,315.1, 2.3, 2.8,0,0,1024,1024,1025,1024,313.3,-89.9,97,3.945,3.922,3.919,3.932,0,0,17.972,71.6,14,Waypoint,
37.286588,-119.5625618,4610.9792026694,111.876644,0,0.78375658676,16700,2018-04-11 21:27:18,19,0,23.627,4610.9792026694,111.876644,0,0.98964570096,0,0,-0.671082,315.4, 2.3, 2.2,0,0,1024,1024,1025,1024,313.3,-89.9,97,3.945,3.922,3.919,3.932,0,0,17.972,71.6,14,Waypoint,
37.286588,-119.5625617,4612.9477066694,113.845148,0,0.75472771444,16800,2018-04-11 21:27:18,19,0,23.627,4612.9477066694,113.845148,0,0.98964570096,0,0,-0.671082,315.6, 2.3, 1.7,0,0,1024,1024,1025,1024,313.3,-89.9,97,3.945,3.922,3.919,3.932,0,0,17.972,71.6,14,Waypoint,
37.286588,-119.5625616,4613.9319586694,114.8294,0,0.72569884212,16900,2018-04-11 21:27:18,19,0,23.627,4613.9319586694,114.8294,0,0.98964570096,0,0,-0.671082,315.4, 2.5, 1.8,0,0,1024,1024,1025,1024,313.3,-89.9,97,3.945,3.922,3.919,3.932,0,0,17.972,71.6,14,Waypoint,
37.286588,-119.5625616,4614.9162106694,115.813652,0,0.72569884212,17000,2018-04-11 21:27:18,19,0,23.614,4614.9162106694,115.813652,0,0.98964570096,0,0,-0.671082,314.8, 2.5, 2.4,0,0,1024,1024,1026,1024,313.3,-89.9,97,3.945,3.915,3.917,3.928,0,0,18.041,73.4,14,Waypoint,
37.286588,-119.5625616,4615.9004626694,116.797904,0,0.72569884212,17100,2018-04-11 21:27:18,19,0,23.614,4615.9004626694,116.797904,0,0.98964570096,0,0,-0.671082,314, 2.5, 2.6,0,0,1024,1024,1025,1024,313.3,-89.9,97,3.945,3.915,3.917,3.928,0,0,18.041,73.4,14,Waypoint,
37.286588,-119.5625615,4616.8847146694,117.782156,0,0.6966699698,17200,2018-04-11 21:27:18,19,0,23.614,4616.8847146694,117.782156,0,0.98964570096,0,0,-0.671082,313.4, 2.5, 2.4,0,0,1024,1024,1025,1024,313.3,-89.9,97,3.945,3.915,3.917,3.928,0,0,18.041,73.4,14,Waypoint,
37.286588,-119.5625614,4617.8689666694,118.766408,0,0.66764437832,17300,2018-04-11 21:27:18,19,0,23.614,4617.8689666694,118.766408,0,0.98964570096,0,0,-0.671082,313, 2.5, 1.9,0,0,1024,1024,1025,1024,313.3,-89.9,97,3.945,3.915,3.917,3.928,0,0,18.041,73.4,14,Waypoint,
37.2865881,-119.5625614,4618.8532186694,119.75066,0,0.66863847284,17400,2018-04-11 21:27:19,19,0,23.614,4618.8532186694,119.75066,0,0.98964570096,0,0,-0.671082,312.9, 2.5, 1.5,0,0,1024,1024,1025,1024,313.3,-89.9,97,3.945,3.915,3.917,3.928,0,0,18.041,73.4,14,Waypoint,
37.2865882,-119.5625612,4621.8059746694,122.703416,0,0.61394030836,17700,2018-04-11 21:27:19,19,0,23.614,4621.8059746694,122.703416,0,0.98964570096,0,0,-0.671082,313.5, 2.9, 1.2,0,0,1024,1024,1025,1024,313.3,-89.9,97,3.945,3.915,3.917,3.928,0,0,18.041,73.4,14,Waypoint,
37.2865882,-119.5625611,4622.7902266694,123.687668,0,0.58512797148,17800,2018-04-11 21:27:19,19,0,23.614,4622.7902266694,123.687668,0,0.98964570096,0,0,-0.671082,313.8, 2.7, 1.2,0,0,1024,1024,1025,1024,313.3,-89.9,97,3.945,3.915,3.917,3.928,0,0,18.041,73.4,14,Waypoint,
37.2865882,-119.5625611,4624.1025626694,125.000004,0,0.58512797148,17900,2018-04-11 21:27:19,19,0,23.614,4624.1025626694,125.000004,0,0.98964570096,0,0,-0.671082,314.1, 2.6, 1.6,0,0,1024,1024,1025,1024,313.3,-89.9,97,3.945,3.915,3.917,3.928,0,0,18.041,73.4,14,Waypoint,
37.2865882,-119.562561,4625.0868146694,125.984256,0,0.55633860048,18100,2018-04-11 21:27:19,19,0,23.614,4625.0868146694,125.984256,0,0.98964570096,0,0,-0.671082,314.2, 2.5, 1.9,0,0,1024,1024,1025,1024,313.3,-89.9,97,3.945,3.915,3.917,3.928,0,0,18.041,73.4,14,Waypoint,
37.2865882,-119.562561,4626.0710666694,126.968508,0,0.55633860048,18200,2018-04-11 21:27:19,19,0,23.614,4626.0710666694,126.968508,0,0.98964570096,0,0,-0.671082,314.2, 2.3, 2.1,0,0,1024,1024,1025,1024,313.3,-89.9,97,3.945,3.915,3.917,3.928,0,0,18.041,73.4,14,Waypoint,
37.2865882,-119.562561,4627.0553186694,127.95276,0,0.55633860048,18300,2018-04-11 21:27:19,19,0,23.614,4627.0553186694,127.95276,0,0.98964570096,0,0,-0.671082,314.3, 2.4, 2.4,0,0,1024,1024,1025,1024,313.3,-89.9,97,3.945,3.915,3.917,3.928,0,0,18.041,73.4,14,Waypoint,
37.2865882,-119.5625611,4627.7114866694,128.608928,0,0.58512797148,18400,2018-04-11 21:27:20,19,0,23.614,4627.7114866694,128.608928,0,0.98964570096,0,0,-0.671082,314.4, 2.7, 2.7,0,0,1024,1024,1025,1024,313.3,-89.9,97,3.945,3.915,3.917,3.928,0,0,18.041,73.4,14,Waypoint,
37.2865882,-119.5625611,4628.6957386694,129.59318,0,0.58512797148,18500,2018-04-11 21:27:20,19,0,23.614,4628.6957386694,129.59318,0,0.98964570096,0,0,-0.671082,314.5, 2.9, 2.9,0,0,1024,1024,1025,1024,313.3,-89.9,97,3.945,3.915,3.917,3.928,0,0,18.041,73.4,14,Waypoint,
37.2865882,-119.5625612,4629.6799906694,130.577432,0.223694,0.61394030836,18600,2018-04-11 21:27:20,19,0,23.614,4629.6799906694,130.577432,0.223694,0.98964570096,0,0,-0.671082,314.7, 3.3, 3.2,0,0,1024,1024,1025,1024,313.3,-89.9,97,3.945,3.915,3.917,3.928,0,0,18.041,73.4,14,Waypoint,
37.2865882,-119.5625613,4630.6642426694,131.561684,0.223694,0.64277233028,18700,2018-04-11 21:27:20,19,0,23.614,4630.6642426694,131.561684,0.223694,0.98964570096,0,0,-0.671082,314.8, 3.5, 3.5,0,0,1024,1024,1025,1024,313.3,-89.9,97,3.945,3.915,3.917,3.928,0,0,18.041,73.4,14,Waypoint,
37.2865882,-119.5625614,4631.6484946694,132.545936,0.223694,0.6716207564,18800,2018-04-11 21:27:20,19,0,23.614,4631.6484946694,132.545936,0.223694,0.98964570096,0,0,-0.671082,315, 3.7, 3.7,0,0,1024,1024,1025,1024,313.3,-89.9,97,3.945,3.915,3.917,3.928,0,0,18.041,73.4,14,Waypoint,
37.2865882,-119.5625617,4634.6012506694,135.498692,0.223694,0.75824805576,19000,2018-04-11 21:27:20,19,0,23.637,4634.6012506694,135.498692,0.223694,0.98964570096,0,0,-0.671082,315.1, 4.2, 3.8,0,0,1024,1024,1025,1024,313.3,-89.9,97,3.956,3.923,3.917,3.932,0,0,17.116,73.4,14,Waypoint,
37.2865881,-119.5625618,4635.5855026694,136.482944,0.223694,0.78460304348,19100,2018-04-11 21:27:20,19,0,23.637,4635.5855026694,136.482944,0.223694,0.98964570096,0,0,-0.671082,315, 4.3, 4.2,0,0,1024,1024,1025,1024,313.3,-89.9,97,3.956,3.923,3.917,3.932,0,0,17.116,73.4,14,Waypoint,
37.2865881,-119.5625619,4636.5697546694,137.467196,0,0.81360238824,19200,2018-04-11 21:27:20,19,0,23.637,4636.5697546694,137.467196,0.223694,0.98964570096,0,0,-0.671082,314.7, 4.1, 4.2,0,0,1024,1024,1025,1024,313.3,-89.9,97,3.956,3.923,3.917,3.932,0,0,17.116,73.4,14,Waypoint,
37.2865881,-119.5625619,4637.5540066694,138.451448,0,0.81360238824,19300,2018-04-11 21:27:20,19,0,23.637,4637.5540066694,138.451448,0.223694,0.98964570096,0,0,-0.671082,314.4, 4, 4.1,0,0,1024,1024,1025,1024,313.3,-89.9,97,3.956,3.923,3.917,3.932,0,0,17.116,73.4,14,Waypoint,
37.286588,-119.562562,4638.5382586694,139.4357,0,0.84181105056,19400,2018-04-11 21:27:21,19,0,23.637,4638.5382586694,139.4357,0.223694,0.98964570096,0,0,-0.671082,314.1, 3.9, 3.9,0,0,1024,1024,1025,1024,313.3,-89.9,97,3.956,3.923,3.917,3.932,0,0,17.116,73.4,14,Waypoint,
37.286588,-119.5625621,4639.5225106694,140.419952,0,0.87083992288,19500,2018-04-11 21:27:21,19,0,23.637,4639.5225106694,140.419952,0.223694,0.98964570096,0,0,-0.671082,313.9, 3.8, 3.9,0,0,1024,1024,1025,1024,313.3,-89.9,97,3.956,3.923,3.917,3.932,0,0,17.116,73.4,14,Waypoint,
37.286588,-119.5625621,4640.5067626694,141.404204,0,0.87083992288,19610,2018-04-11 21:27:21,19,0,23.637,4640.5067626694,141.404204,0.223694,0.98964570096,0,0,-0.671082,313.9, 3.9, 3.7,0,0,1024,1024,1025,1024,313.3,-89.9,97,3.956,3.923,3.917,3.932,0,0,17.116,73.4,14,Waypoint,
37.286588,-119.5625622,4641.4910146694,142.388456,0,0.8998687952,19700,2018-04-11 21:27:21,19,0,23.637,4641.4910146694,142.388456,0.223694,0.98964570096,0,0,-0.671082,314, 4.1, 3.8,0,0,1024,1024,1025,1024,313.3,-89.9,97,3.956,3.923,3.917,3.932,0,0,17.116,73.4,14,Waypoint,
37.286588,-119.5625622,4643.4595186694,144.35696,0,0.8998687952,19900,2018-04-11 21:27:21,19,0,23.637,4643.4595186694,144.35696,0.223694,0.98964570096,0,0,-0.671082,314.3, 4.4, 3.7,0,0,1024,1024,1025,1024,313.3,-89.9,97,3.956,3.923,3.917,3.932,0,0,17.116,73.4,14,Waypoint,
37.286588,-119.5625623,4644.4437706694,145.341212,0,0.92889438668,20000,2018-04-11 21:27:21,19,0,23.67,4644.4437706694,145.341212,0.223694,0.98964570096,0,0,-0.671082,314.4, 4.3, 3.6,0,0,1024,1024,1025,1024,313.3,-89.9,97,3.96,3.932,3.921,3.938,0,0,16.592,73.4,14,Waypoint,
37.286588,-119.5625623,4645.4280226694,146.325464,0,0.92889438668,20100,2018-04-11 21:27:21,19,0,23.67,4645.4280226694,146.325464,0.223694,0.98964570096,0,0,-0.671082,314.4, 4.1, 3.5,0,0,1024,1024,1025,1024,313.3,-89.9,97,3.96,3.932,3.921,3.938,0,0,16.592,73.4,14,Waypoint,
37.2865879,-119.5625623,4646.4122746694,147.309716,0,0.92961289064,20200,2018-04-11 21:27:21,19,0,23.67,4646.4122746694,147.309716,0.223694,0.98964570096,0,0,-0.671082,314.4, 4.1, 3.4,0,0,1024,1024,1025,1024,313.3,-89.9,97,3.96,3.932,3.921,3.938,0,0,16.592,73.4,14,Waypoint,
37.2865879,-119.5625623,4647.3965266694,148.293968,0,0.92961289064,20400,2018-04-11 21:27:22,19,0,23.67,4647.3965266694,148.293968,0.223694,0.98964570096,0,0,-0.671082,314.4, 4.2, 3.5,0,0,1024,1024,1025,1024,313.3,-89.9,97,3.96,3.932,3.921,3.938,0,0,16.592,73.4,14,Waypoint,
37.2865879,-119.5625624,4648.3807786694,149.27822,0,0.95861879708,20500,2018-04-11 21:27:22,19,0,23.67,4648.3807786694,149.27822,0.223694,0.98964570096,0,0,-0.671082,314.2, 4.3, 3.6,0,0,1024,1024,1025,1024,313.3,-89.9,97,3.96,3.932,3.921,3.938,0,0,16.592,73.4,14,Waypoint,
37.2865879,-119.5625624,4649.3650306694,150.262472,0,0.95861879708,20600,2018-04-11 21:27:22,19,0,23.67,4649.3650306694,150.262472,0.223694,0.98964570096,0,0,-0.671082,314.1, 4.5, 3.6,0,0,1024,1024,1025,1024,313.3,-89.9,97,3.96,3.932,3.921,3.938,0,0,16.592,73.4,14,Waypoint,
37.2865879,-119.5625624,4650.3492826694,151.246724,0,0.95861879708,20700,2018-04-11 21:27:22,19,0,23.67,4650.3492826694,151.246724,0.223694,0.98964570096,0,0,-0.671082,314, 4.6, 3.7,0,0,1024,1024,1025,1024,313.3,-89.9,97,3.96,3.932,3.921,3.938,0,0,16.592,73.4,14,Waypoint,
37.2865879,-119.5625625,4651.3335346694,152.230976,0,0.98762470352,20800,2018-04-11 21:27:22,19,0,23.67,4651.3335346694,152.230976,0.223694,0.98964570096,0,0,-0.671082,313.9, 4.8, 4,0,0,1024,1024,1025,1024,313.3,-89.9,97,3.96,3.932,3.921,3.938,0,0,16.592,73.4,14,Waypoint,
37.286588,-119.5625625,4652.3177866694,153.215228,0,0.98695213132,20900,2018-04-11 21:27:22,19,0,23.67,4652.3177866694,153.215228,0.223694,0.98964570096,0,0,-0.671082,313.9, 4.7, 3.9,0,0,1024,1024,1025,1024,313.3,-89.9,97,3.96,3.932,3.921,3.938,0,0,16.592,73.4,14,Waypoint,
37.286588,-119.5625625,4653.3020386694,154.19948,0,0.98695213132,21000,2018-04-11 21:27:22,19,0,23.619,4653.3020386694,154.19948,0.223694,0.98964570096,0,0,-0.671082,314.1, 4.7, 3.4,0,0,1024,1024,1025,1024,313.3,-89.9,96,3.953,3.922,3.918,3.927,0,0,17.112,73.4,14,Waypoint,
37.286588,-119.5625624,4654.2862906694,155.183732,0,0.957923259,21100,2018-04-11 21:27:22,19,0,23.619,4654.2862906694,155.183732,0.223694,0.98964570096,0,0,-0.671082,314.2, 4.8, 3,0,0,1024,1024,1025,1024,313.3,-89.9,96,3.953,3.922,3.918,3.927,0,0,17.112,73.4,14,Waypoint,
37.286588,-119.5625624,4656.5828786694,157.48032,0,0.957923259,21200,2018-04-11 21:27:22,19,0,23.619,4656.5828786694,157.48032,0.223694,0.98964570096,0,0,-0.671082,314, 4.2, 3.3,0,0,1024,1024,1025,1024,313.3,-89.9,96,3.953,3.922,3.918,3.927,0,0,17.112,73.4,14,Waypoint,
37.2865881,-119.5625623,4657.5671306694,158.464572,0,0.92961289064,21300,2018-04-11 21:27:22,19,0,23.619,4657.5671306694,158.464572,0.223694,0.98964570096,0,0,-0.671082,313.9, 4.3, 2.9,0,0,1024,1024,1026,1024,313.3,-89.9,96,3.953,3.922,3.918,3.927,0,0,17.112,73.4,14,Waypoint,
37.2865881,-119.5625623,4658.5513826694,159.448824,0,0.92961289064,21400,2018-04-11 21:27:23,19,0,23.619,4658.5513826694,159.448824,0.223694,0.98964570096,0,0,-0.671082,313.9, 4.5, 2.6,0,0,1024,1024,1025,1024,313.3,-89.9,96,3.953,3.922,3.918,3.927,0,0,17.112,73.4,14,Waypoint,
37.2865882,-119.5625622,4659.5356346694,160.433076,0,0.9028215512,21500,2018-04-11 21:27:23,19,0,23.619,4659.5356346694,160.433076,0.223694,0.98964570096,0,0,-0.671082,313.9, 4.8, 2.1,0,0,1024,1024,1025,1024,313.3,-89.9,96,3.953,3.922,3.918,3.927,0,0,17.112,73.4,14,Waypoint,
37.2865883,-119.5625622,4660.5198866694,161.417328,0,0.90649937284,21600,2018-04-11 21:27:23,19,0,23.619,4660.5198866694,161.417328,0.223694,0.98964570096,0,0,-0.671082,314, 5.1, 1.6,0,0,1024,1024,1025,1024,313.3,-89.9,96,3.953,3.922,3.918,3.927,0,0,17.112,73.4,14,Waypoint,
37.2865884,-119.5625621,4661.8322226694,162.729664,0,0.88298231172,21700,2018-04-11 21:27:23,19,0,23.619,4661.8322226694,162.729664,0.223694,0.98964570096,0,0,-0.671082,314.1, 5.2, 1.3,0,0,1024,1024,1025,1024,313.3,-89.9,96,3.953,3.922,3.918,3.927,0,0,17.112,73.4,14,Waypoint,
37.2865885,-119.5625621,4662.8164746694,163.713916,0,0.88974084212,21800,2018-04-11 21:27:23,19,0,23.619,4662.8164746694,163.713916,0.223694,0.98964570096,0,0,-0.671082,314.3, 5.3, 1.2,0,0,1024,1024,1025,1024,313.3,-89.9,96,3.953,3.922,3.918,3.927,0,0,17.112,73.4,14,Waypoint,
37.2865886,-119.5625621,4663.8007266694,164.698168,0,0.8979330996,21900,2018-04-11 21:27:23,19,0,23.619,4663.8007266694,164.698168,0.223694,0.98964570096,0,0,-0.671082,314.4, 5.5, 1.5,0,0,1024,1024,1025,1024,313.3,-89.9,96,3.953,3.922,3.918,3.927,0,0,17.112,73.4,14,Waypoint,
37.2865887,-119.5625621,4664.7849786694,165.68242,0,0.90751643324,22000,2018-04-11 21:27:23,19,0,23.651,4664.7849786694,165.68242,0.223694,0.98964570096,0,0,-0.671082,314.5, 5.7, 1.7,0,0,1024,1024,1025,1024,313.3,-89.9,96,3.961,3.926,3.921,3.935,0,0,16.231,73.4,14,Waypoint,
37.2865888,-119.5625622,4665.7692306694,166.666672,0,0.94602037148,22100,2018-04-11 21:27:23,19,0,23.651,4665.7692306694,166.666672,0.223694,0.98964570096,0,0,-0.671082,314.5, 5.8, 1.8,0,0,1024,1024,1025,1024,313.3,-89.9,96,3.961,3.926,3.921,3.935,0,0,16.231,73.4,14,Waypoint,
37.2865889,-119.5625622,4666.4253986694,167.32284,0,0.9579068548,22200,2018-04-11 21:27:23,19,0,23.651,4666.4253986694,167.32284,0.223694,0.98964570096,0,0,-0.671082,314.5, 5.7, 2,0,0,1024,1024,1025,1024,313.3,-89.9,96,3.961,3.926,3.921,3.935,0,0,16.231,73.4,14,Waypoint,
37.2865889,-119.5625623,4667.4096506694,168.307092,0,0.98522640948,22300,2018-04-11 21:27:23,19,0,23.651,4667.4096506694,168.307092,0.223694,0.98964570096,0,0,-0.671082,314.5, 5.8, 2.2,0,0,1024,1024,1025,1024,313.3,-89.9,96,3.961,3.926,3.921,3.935,0,0,16.231,73.4,14,Waypoint,
37.286589,-119.5625624,4669.0500706694,169.947512,0,1.02505252624,22510,2018-04-11 21:27:24,19,0,23.651,4669.0500706694,169.947512,0.223694,1.02505252624,0,0,-0.671082,314.6, 5.9, 2.4,0,0,1024,1024,1025,1024,313.3,-89.9,96,3.961,3.926,3.921,3.935,0,0,16.231,73.4,14,Waypoint,
37.286589,-119.5625624,4670.0343226694,170.931764,0,1.02505252624,22600,2018-04-11 21:27:24,19,0,23.651,4670.0343226694,170.931764,0.223694,1.02505252624,0,0,-0.671082,314.7, 5.9, 2.5,0,0,1024,1024,1025,1024,313.3,-89.9,96,3.961,3.926,3.921,3.935,0,0,16.231,73.4,14,Waypoint,
37.2865891,-119.5625625,4671.0185746694,171.916016,0,1.06542982412,22720,2018-04-11 21:27:24,19,0,23.651,4671.0185746694,171.916016,0.223694,1.06542982412,0,0,-0.671082,314.7, 6.1, 3,0,0,1024,1024,1025,1024,313.3,-89.9,96,3.961,3.926,3.921,3.935,0,0,16.231,73.4,14,Waypoint,
37.2865891,-119.5625625,4671.0185746694,171.916016,0,1.06542982412,22800,2018-04-11 21:27:24,19,0,23.651,4671.0185746694,171.916016,0.223694,1.06542982412,0,0,-0.671082,314.7, 6.1, 3,0,0,1024,1024,1025,1024,313.3,-89.9,96,3.961,3.926,3.921,3.935,0,0,16.231,73.4,14,Waypoint,
37.2865891,-119.5625626,4672.0028266694,172.900268,0,1.09237536304,22900,2018-04-11 21:27:24,19,0,23.651,4672.0028266694,172.900268,0.223694,1.09237536304,0,0,-0.671082,314.7, 6.2, 3.2,0,0,1024,1024,1025,1024,313.3,-89.9,96,3.961,3.926,3.921,3.935,0,0,16.231,73.4,14,Waypoint,
37.286589,-119.5625627,4672.9870786694,173.88452,0,1.10686683332,23000,2018-04-11 21:27:24,19,0,23.693,4672.9870786694,173.88452,0.223694,1.10686683332,0,0,-0.671082,314.8, 6.2, 3.6,0,0,1024,1024,1025,1024,313.3,-89.9,96,3.961,3.926,3.921,3.935,0,0,15.684,73.4,14,Waypoint,
37.286589,-119.5625628,4673.9713306694,174.868772,0,1.13431434076,23100,2018-04-11 21:27:24,19,0,23.693,4673.9713306694,174.868772,0.223694,1.13431434076,0,0,-0.671082,314.8, 6.1, 3.8,0,0,1024,1024,1025,1024,313.3,-89.9,96,3.961,3.926,3.921,3.935,0,0,15.684,73.4,14,Waypoint,
37.2865889,-119.5625628,4674.6274986694,175.52494,0,1.12311027216,23200,2018-04-11 21:27:24,19,0,23.693,4674.6274986694,175.52494,0.223694,1.13431434076,0,0,-0.671082,314.8, 6, 4,0,0,1024,1024,1025,1024,313.3,-89.9,96,3.961,3.926,3.921,3.935,0,0,15.684,73.4,14,Waypoint,
37.2865888,-119.5625628,4675.6117506694,176.509192,0,1.11298888076,23300,2018-04-11 21:27:24,19,0,23.693,4675.6117506694,176.509192,0.223694,1.13431434076,0,0,-0.671082,314.7, 5.7, 3.9,0,0,1024,1024,1025,1024,313.3,-90,96,3.961,3.926,3.921,3.935,0,0,15.684,73.4,14,Waypoint,
37.2865888,-119.5625628,4676.5960026694,177.493444,0,1.11298888076,23400,2018-04-11 21:27:25,19,0,23.693,4676.5960026694,177.493444,0.223694,1.13431434076,0,0,-0.671082,314.7, 5.3, 3.7,0,0,1024,1024,1025,1024,313.3,-90,96,3.961,3.926,3.921,3.935,0,0,15.684,73.4,14,Waypoint,
37.2865887,-119.5625628,4677.5802546694,178.477696,0,1.10398297496,23500,2018-04-11 21:27:25,19,0,23.693,4677.5802546694,178.477696,0.223694,1.13431434076,0,0,-0.671082,314.6, 4.9, 3.4,0,0,1024,1024,1025,1024,313.3,-90,96,3.961,3.926,3.921,3.935,0,0,15.684,73.4,14,Waypoint,
37.2865886,-119.5625627,4679.5487586694,180.4462,0,1.06769032288,23600,2018-04-11 21:27:25,19,0,23.693,4679.5487586694,180.4462,0.223694,1.13431434076,0,0,-0.671082,314.5, 4.9, 3.2,0,0,1024,1024,1025,1024,313.3,-90,96,3.961,3.926,3.921,3.935,0,0,15.684,73.4,14,Waypoint,
37.2865886,-119.5625627,4680.5330106694,181.430452,0,1.06769032288,23810,2018-04-11 21:27:25,19,0,23.693,4680.5330106694,181.430452,0.223694,1.13431434076,0,0,-0.671082,314.5, 5, 2.8,0,0,1024,1024,1025,1024,313.3,-90,96,3.961,3.926,3.921,3.935,0,0,15.684,73.4,14,Waypoint,
37.2865886,-119.5625627,4681.5172626694,182.414704,0,1.06769032288,23900,2018-04-11 21:27:25,19,0,23.693,4681.5172626694,182.414704,0.223694,1.13431434076,0,0,-0.671082,314.4, 5.2, 2.7,0,0,1024,1024,1025,1024,313.3,-89.9,96,3.961,3.926,3.921,3.935,0,0,15.684,73.4,14,Waypoint,
37.2865885,-119.5625627,4683.1576826694,184.055124,0,1.0608104014,24000,2018-04-11 21:27:25,19,0,23.693,4683.1576826694,184.055124,0.223694,1.13431434076,0,0,-0.671082,314.4, 5.5, 3.4,0,0,1024,1024,1025,1024,313.3,-89.9,96,3.965,3.922,3.939,3.937,0,0,15.684,73.4,14,Waypoint,
37.2865885,-119.5625628,4684.1419346694,185.039376,0,1.08941604536,24100,2018-04-11 21:27:25,19,0,23.693,4684.1419346694,185.039376,0.223694,1.13431434076,0,0,-0.671082,314.4, 5.8, 3.8,0,0,1024,1024,1025,1024,313.3,-89.9,96,3.965,3.922,3.939,3.937,0,0,15.684,73.4,14,Waypoint,
37.2865885,-119.5625628,4685.1261866694,186.023628,0,1.08941604536,24200,2018-04-11 21:27:25,19,0,23.693,4685.1261866694,186.023628,0.223694,1.13431434076,0,0,-0.671082,314.4, 5.9, 3.8,0,0,1024,1024,1025,1024,313.3,-89.9,96,3.965,3.922,3.939,3.937,0,0,15.684,73.4,14,Waypoint,
37.2865883,-119.5625628,4687.0946906694,187.992132,0,1.07959649124,24400,2018-04-11 21:27:26,19,0,23.693,4687.0946906694,187.992132,0.223694,1.13431434076,0,0,-0.671082,314.4, 5.3, 3.9,0,0,1024,1024,1025,1024,313.3,-90,96,3.965,3.922,3.939,3.937,0,0,15.684,73.4,14,Waypoint,
37.2865883,-119.5625627,4688.0789426694,188.976384,0,1.05072509924,24500,2018-04-11 21:27:26,19,0,23.693,4688.0789426694,188.976384,0.223694,1.13431434076,0,0,-0.671082,314.6, 4.8, 3.9,0,0,1024,1024,1025,1024,313.3,-90,96,3.965,3.922,3.939,3.937,0,0,15.684,73.4,14,Waypoint,
37.2865882,-119.5625627,4689.0631946694,189.960636,0,1.04755252696,24600,2018-04-11 21:27:26,19,0,23.693,4689.0631946694,189.960636,0.223694,1.13431434076,0,0,-0.671082,314.8, 4.7, 3.5,0,0,1024,1024,1025,1024,313.3,-90,96,3.965,3.922,3.939,3.937,0,0,15.684,73.4,14,Waypoint,
37.2865882,-119.5625627,4690.0474466694,190.944888,0,1.04755252696,24700,2018-04-11 21:27:26,19,0,23.693,4690.0474466694,190.944888,0.223694,1.13431434076,0,0,-0.671082,314.8, 4.8, 3.2,0,0,1024,1024,1025,1024,313.3,-89.9,96,3.965,3.922,3.939,3.937,0,0,15.684,73.4,14,Waypoint,
37.2865882,-119.5625626,4691.0316986694,191.92914,0,1.01859583312,24810,2018-04-11 21:27:26,19,0,23.693,4691.0316986694,191.92914,0.223694,1.13431434076,0,0,-0.671082,314.7, 5.1, 3.3,0,0,1024,1024,1025,1024,313.3,-89.9,96,3.965,3.922,3.939,3.937,0,0,15.684,73.4,14,Waypoint,
37.2865881,-119.5625626,4692.0159506694,192.913392,0,1.0166338908,24910,2018-04-11 21:27:26,19,0,23.693,4692.0159506694,192.913392,0.223694,1.13431434076,0,0,-0.671082,314.6, 5.1, 3.6,0,0,1024,1024,1025,1024,313.3,-89.9,96,3.965,3.922,3.939,3.937,0,0,15.684,73.4,14,Waypoint,
37.2865881,-119.5625625,4693.0002026694,193.897644,0,0.98762470352,25100,2018-04-11 21:27:26,19,0,23.693,4693.0002026694,193.897644,0.223694,1.13431434076,0,0,-0.671082,314.4, 5, 3.9,0,0,1024,1024,1025,1024,313.3,-89.9,96,3.965,3.922,3.939,3.937,0,0,15.684,73.4,14,Waypoint,
37.2865881,-119.5625625,4693.9844546694,194.881896,0,0.98762470352,25200,2018-04-11 21:27:26,19,0,23.693,4693.9844546694,194.881896,0.223694,1.13431434076,0,0,-0.671082,314.2, 5.1, 3.5,0,0,1024,1024,1025,1024,313.3,-89.9,96,3.965,3.922,3.939,3.937,0,0,15.684,73.4,14,Waypoint,
37.286588,-119.5625624,4695.2967906694,196.194232,0,0.957923259,25300,2018-04-11 21:27:26,19,0,23.693,4695.2967906694,196.194232,0.223694,1.13431434076,0,0,-0.671082,314.2, 4.8, 3.2,0,0,1024,1024,1025,1024,313.3,-90,96,3.965,3.922,3.939,3.937,0,0,15.684,73.4,14,Waypoint,
37.286588,-119.5625623,4696.2810426694,197.178484,0,0.92889438668,25400,2018-04-11 21:27:27,19,0,23.693,4696.2810426694,197.178484,0.223694,1.13431434076,0,0,-0.671082,314.2, 4.6, 2.9,0,0,1024,1024,1025,1024,313.3,-90,96,3.965,3.922,3.939,3.937,0,0,15.684,73.4,14,Waypoint,
37.286588,-119.5625622,4697.2652946694,198.162736,0,0.8998687952,25500,2018-04-11 21:27:27,19,0,23.693,4697.2652946694,198.162736,0.223694,1.13431434076,0,0,-0.671082,314.3, 4.3, 2.7,0,0,1024,1024,1025,1024,313.3,-90,96,3.965,3.922,3.939,3.937,0,0,15.684,73.4,14,Waypoint,
37.286588,-119.5625621,4698.2495466694,199.146988,0,0.87083992288,25600,2018-04-11 21:27:27,19,0,23.693,4698.2495466694,199.146988,0.223694,1.13431434076,0,0,-0.671082,314.5, 4.3, 2.8,0,0,1024,1024,1025,1024,313.3,-90,96,3.965,3.922,3.939,3.937,0,0,15.684,73.4,14,Waypoint,
37.286588,-119.5625621,4699.2337986694,200.13124,0,0.87083992288,25700,2018-04-11 21:27:27,19,0,23.693,4699.2337986694,200.13124,0.223694,1.13431434076,0,0,-0.671082,314.6, 4.2, 3,0,0,1024,1024,1025,1024,313.3,-89.9,96,3.965,3.922,3.939,3.937,0,0,15.684,73.4,14,Waypoint,
37.286588,-119.562562,4700.2180506694,201.115492,0,0.84181105056,25800,2018-04-11 21:27:27,19,0,23.693,4700.2180506694,201.115492,0.223694,1.13431434076,0,0,-0.671082,314.6, 4.4, 3.1,0,0,1024,1024,1025,1024,313.3,-89.9,96,3.965,3.922,3.939,3.937,0,0,15.684,73.4,14,Waypoint,
37.286588,-119.562562,4701.2023026694,202.099744,0,0.84181105056,26000,2018-04-11 21:27:27,19,0,23.382,4701.2023026694,202.099744,0.223694,1.13431434076,0,0,-0.671082,314.5, 4.8, 3.3,0,0,1024,1024,1025,1024,313.3,-89.9,96,3.913,3.876,3.888,3.884,0,0,18.738,73.4,14,Waypoint,
37.286588,-119.5625619,4702.1865546694,203.083996,0,0.81278217824,26100,2018-04-11 21:27:27,19,0,23.382,4702.1865546694,203.083996,0.223694,1.13431434076,0,0,-0.671082,314.3, 5.1, 3,0,0,1024,1024,1025,1024,313.3,-89.9,96,3.913,3.876,3.888,3.884,0,0,18.738,73.4,14,Waypoint,
37.2865881,-119.5625619,4703.1708066694,204.068248,0,0.81360238824,26210,2018-04-11 21:27:27,19,0,23.382,4703.1708066694,204.068248,0.223694,1.13431434076,0,0,-0.671082,314.2, 5.1, 2.6,0,0,1024,1024,1025,1024,313.3,-89.9,96,3.913,3.876,3.888,3.884,0,0,18.738,73.4,14,Waypoint,
37.2865881,-119.5625618,4704.1550586694,205.0525,0,0.78460304348,26300,2018-04-11 21:27:28,19,0,23.382,4704.1550586694,205.0525,0.223694,1.13431434076,0,0,-0.671082,314.1, 5.1, 2.2,0,0,1024,1024,1025,1024,313.3,-89.9,96,3.913,3.876,3.888,3.884,0,0,18.738,73.4,14,Waypoint,
37.2865882,-119.5625617,4706.4516466694,207.349088,0,0.75824805576,26410,2018-04-11 21:27:28,19,0,23.382,4706.4516466694,207.349088,0.223694,1.13431434076,0,0,-0.671082,314, 5.3, 2.5,0,0,1024,1024,1025,1024,313.3,-89.9,96,3.913,3.876,3.888,3.884,0,0,18.738,73.4,14,Waypoint,
37.2865883,-119.5625617,4707.4358986694,208.33334,0,0.76262141548,26600,2018-04-11 21:27:28,19,0,23.382,4707.4358986694,208.33334,0.223694,1.13431434076,0,0,-0.671082,314.1, 5.6, 2.8,0,0,1024,1024,1025,1024,313.3,-89.9,96,3.913,3.876,3.888,3.884,0,0,18.738,73.4,14,Waypoint,
37.2865883,-119.5625617,4708.4201506694,209.317592,0,0.76262141548,26700,2018-04-11 21:27:28,19,0,23.382,4708.4201506694,209.317592,0.223694,1.13431434076,0,0,-0.671082,314.3, 5.9, 2.9,0,0,1024,1024,1025,1024,313.3,-89.9,96,3.913,3.876,3.888,3.884,0,0,18.738,73.4,14,Waypoint,
37.2865883,-119.5625617,4709.4044026694,210.301844,0,0.76262141548,26800,2018-04-11 21:27:28,19,0,23.382,4709.4044026694,210.301844,0.223694,1.13431434076,0,0,-0.671082,314.5, 6.1, 3,0,0,1024,1024,1025,1024,313.3,-89.9,96,3.913,3.876,3.888,3.884,0,0,18.738,73.4,14,Waypoint,
37.2865884,-119.5625617,4710.3886546694,211.286096,0,0.76870737368,27000,2018-04-11 21:27:28,19,0,23.331,4710.3886546694,211.286096,0.223694,1.13431434076,0,0,-0.671082,314.6, 5.9, 3.2,0,0,1024,1024,1025,1024,313.3,-89.9,96,3.905,3.89,3.877,3.881,0,0,19.179,73.4,14,Waypoint,
37.2865884,-119.5625617,4711.3729066694,212.270348,0,0.76870737368,27100,2018-04-11 21:27:28,19,0,23.331,4711.3729066694,212.270348,0.223694,1.13431434076,0,0,-0.671082,314.7, 5.5, 3.1,0,0,1024,1024,1025,1024,313.3,-89.9,96,3.905,3.89,3.877,3.881,0,0,19.179,73.4,14,Waypoint,
37.2865884,-119.5625617,4712.3571586694,213.2546,0,0.76870737368,27200,2018-04-11 21:27:28,19,0,23.331,4712.3571586694,213.2546,0.223694,1.13431434076,0,0,-0.671082,314.6, 5.7, 3.1,0,0,1024,1024,1025,1024,313.3,-89.9,96,3.905,3.89,3.877,3.881,0,0,19.179,73.4,14,Waypoint,
37.2865884,-119.5625617,4713.3414106694,214.238852,0,0.76870737368,27300,2018-04-11 21:27:28,19,0,23.331,4713.3414106694,214.238852,0.223694,1.13431434076,0,0,-0.671082,314.6, 5.9, 3.3,0,0,1024,1024,1025,1024,313.3,-89.9,96,3.905,3.89,3.877,3.881,0,0,19.179,73.4,14,Waypoint,
37.2865885,-119.5625617,4714.3256626694,215.223104,0,0.7764599986,27400,2018-04-11 21:27:29,19,0,23.331,4714.3256626694,215.223104,0.223694,1.13431434076,0,0,-0.671082,314.6, 5.8, 3.5,0,0,1024,1024,1025,1024,313.3,-89.9,96,3.905,3.89,3.877,3.881,0,0,19.179,73.4,14,Waypoint,
37.2865885,-119.5625617,4716.2941666694,217.191608,0,0.7764599986,27600,2018-04-11 21:27:29,19,0,23.331,4716.2941666694,217.191608,0.223694,1.13431434076,0,0,-0.671082,314.6, 5.6, 3.7,0,0,1024,1024,1025,1024,313.3,-89.9,96,3.905,3.89,3.877,3.881,0,0,19.179,73.4,14,Waypoint,
37.2865885,-119.5625616,4718.2626706694,219.160112,0,0.748277583,27700,2018-04-11 21:27:29,19,0,23.331,4718.2626706694,219.160112,0.223694,1.13431434076,0,0,-0.671082,314.6, 5.5, 3.3,0,0,1024,1024,1025,1024,313.3,-89.9,96,3.905,3.89,3.877,3.881,0,0,19.179,73.4,14,Waypoint,
37.2865885,-119.5625616,4719.2469226694,220.144364,0,0.748277583,27900,2018-04-11 21:27:29,19,0,23.331,4719.2469226694,220.144364,0.223694,1.13431434076,0,0,-0.671082,314.6, 5.6, 3.3,0,0,1024,1024,1025,1024,313.3,-89.9,96,3.905,3.89,3.877,3.881,0,0,19.179,73.4,14,Waypoint,
37.2865885,-119.5625615,4720.2311746694,221.128616,0,0.7201607842,28000,2018-04-11 21:27:29,19,0,23.339,4720.2311746694,221.128616,0.223694,1.13431434076,0,0,-0.671082,314.5, 5.3, 3.3,0,0,1024,1024,1025,1024,313.3,-90,96,3.907,3.883,3.876,3.877,0,0,18.732,73.4,14,Waypoint,
37.2865885,-119.5625615,4721.2154266694,222.112868,0,0.7201607842,28100,2018-04-11 21:27:29,19,0,23.339,4721.2154266694,222.112868,0.223694,1.13431434076,0,0,-0.671082,314.5, 5.2, 3.2,0,0,1024,1024,1025,1024,313.3,-90,96,3.907,3.883,3.876,3.877,0,0,18.732,73.4,14,Waypoint,
37.2865885,-119.5625614,4722.1996786694,223.09712,0,0.69211616388,28200,2018-04-11 21:27:29,19,0,23.339,4722.1996786694,223.09712,0.223694,1.13431434076,0,0,-0.671082,314.5, 5, 3.2,0,0,1024,1024,1025,1024,313.3,-90,96,3.907,3.883,3.876,3.877,0,0,18.732,73.4,14,Waypoint,
