Latitude, Longitude, Altitude (m), Time, Sats, Speed (m/s), Range (m), Battery (%), Roll (deg), Pitch (deg), Yaw (deg), Images, HD Signal (%), RC Signal (%), Battery Temp (C), Battery Voltage (mV), Battery Current (mA), Battery Energy (mAh), Battery Capacity (mAh), Battery Discharges, flyState, timestamp (Unix), LastUpdate (ms), radioChannel, Rc_elevator, Rc_aileron, Rc_throttle, Rc_rudder, Rc_gyro, Dronetype, Battery_Cell1 (mV), Battery_Cell2 (mV), Battery_Cell3 (mV), Battery_Cell4 (mV), Battery_Cell5 (mV), Battery_Cell6 (mV), Video, isFlying, elapsedTime (ms), gimbalPitch (deg), gimbalRoll (deg), gimbalYaw (deg), VelocityX (m/s), VelocityY (m/s), VelocityZ (m/s), GroundSmear (cm), App Version, Aircraft Name, Aircraft Firmware, Aircraft Serial Number, Battery Serial Number, Battery Lifetime (%), App_Tip, App_Warning, CurrentFlightStartingIndex, CurrentFlightLastVisitedWaypoint, PreviousFlightEndingWaypointIndex
37.2865835, -119.5625755, 0.000, 13:30:59.404, 16, 0.10, 0.05, 94, -0.300, -0.300, -47.100, 2, 100, 100, 21, 25232, -3568, 5215, 5548, 8, 11, 1523478659.405, 23, 0, 1024, 1024, 1024, 1024, 0, 6, 4145, 4221, 4253, 4189, 4244, 4037, 0, 1, 3169, -89.900, 0.000, -46.600, 0.000, -0.100, -0.300, 0.0, MapPilot_2.7.4_02272018, Dendroctonus I, 1.3.1.00, 041DDC1887, 1058171200162, 98, DJI_0262.jpg, Starting Mission from Lat/Long: 37.28658/-119.56258 Camera: Zenmuse X3 - Overlap: 90/90 - Active Connection: Yes, 0, 0, 0
37.2865835, -119.5625755, 0.000, 13:30:59.436, 16, 0.10, 0.05, 94, -0.300, -0.300, -47.100, 2, 100, 100, 21, 25232, -3568, 5215, 5548, 8, 11, 1523478659.437, 55, 0, 1024, 1024, 1024, 1024, 0, 6, 4145, 4221, 4253, 4189, 4244, 4037, 0, 1, 3201, -89.900, 0.000, -46.600, 0.000, -0.100, -0.300, 0.0, , , , , , 98, , , 0, 0, 0
37.2865835, -119.5625757, 0.000, 13:30:59.541, 16, 0.10, 0.07, 94, -0.100, 0.200, -47.100, 2, 100, 100, 21, 25232, -3568, 5215, 5548, 8, 11, 1523478659.541, 30, 0, 1024, 1024, 1024, 1024, 0, 6, 4145, 4221, 4253, 4189, 4244, 4037, 0, 1, 3306, -89.900, 0.000, -46.600, 0.000, -0.100, -0.300, 0.0, , , , , , 98, , , 0, 0, 0
37.2865835, -119.5625762, 0.100, 13:30:59.639, 17, 0.10, 0.10, 94, 0.700, 1.200, -47.100, 2, 100, 100, 21, 25232, -3568, 5215, 5548, 8, 11, 1523478659.639, 8, 0, 1024, 1024, 1024, 1024, 0, 6, 4163, 4181, 4192, 4191, 4196, 4179, 0, 1, 3404, -89.900, 0.000, -46.600, 0.000, -0.100, -0.400, 0.0, , , , , , 98, , , 0, 0, 0
37.2865835, -119.5625764, 0.200, 13:30:59.737, 17, 0.10, 0.12, 94, 1.100, 1.500, -47.000, 2, 100, 100, 21, 25232, -3568, 5215, 5548, 8, 11, 1523478659.738, 30, 0, 1024, 1024, 1024, 1024, 0, 6, 4163, 4181, 4192, 4191, 4196, 4179, 0, 1, 3502, -89.900, 0.000, -46.600, 0.000, -0.100, -0.400, 0.0, , , , , , 98, , , 0, 0, 0
37.2865835, -119.5625766, 0.200, 13:30:59.840, 17, 0.10, 0.14, 94, 1.300, 1.500, -46.900, 2, 100, 100, 21, 25232, -3568, 5215, 5548, 8, 11, 1523478659.840, 30, 0, 1024, 1024, 1024, 1024, 0, 6, 4163, 4181, 4192, 4191, 4196, 4179, 0, 1, 3605, -89.900, 0.000, -46.600, 0.000, -0.100, -0.400, 0.0, , , , , , 98, , , 0, 0, 0
37.2865835, -119.5625768, 0.300, 13:30:59.937, 17, 0.10, 0.16, 94, 1.300, 1.400, -46.800, 2, 100, 100, 21, 25232, -3568, 5215, 5548, 8, 11, 1523478659.937, 25, 0, 1024, 1024, 1024, 1024, 0, 6, 4163, 4181, 4192, 4191, 4196, 4179, 0, 1, 3702, -89.900, 0.000, -46.600, 0.000, -0.100, -0.400, 0.0, , , , , , 98, , , 0, 0, 0
37.2865835, -119.5625770, 0.300, 13:31:00.037, 16, 0.10, 0.17, 94, 1.300, 1.200, -46.800, 2, 100, 100, 21, 25232, -3568, 5215, 5548, 8, 11, 1523478660.037, 29, 0, 1024, 1024, 1024, 1024, 0, 6, 4163, 4181, 4192, 4191, 4196, 4179, 0, 1, 3802, -89.900, 0.000, -46.600, 0.000, -0.100, -0.400, 0.0, , , , , , 98, , , 0, 0, 0
37.2865835, -119.5625770, 0.300, 13:31:00.137, 16, 0.10, 0.17, 94, 1.300, 1.200, -46.800, 2, 100, 100, 21, 25232, -3568, 5215, 5548, 8, 11, 1523478660.138, 130, 0, 1024, 1024, 1024, 1024, 0, 6, 4163, 4181, 4192, 4191, 4196, 4179, 0, 1, 3902, -89.900, 0.000, -46.600, 0.000, -0.100, -0.400, 0.0, , , , , , 98, , , 0, 0, 0
37.2865835, -119.5625773, 0.400, 13:31:00.235, 16, 0.10, 0.20, 94, 1.300, 0.800, -46.600, 2, 100, 100, 21, 24305, -12989, 5215, 5548, 8, 11, 1523478660.236, 23, 0, 1024, 1024, 1024, 1024, 0, 6, 4163, 4181, 4192, 4191, 4196, 4179, 0, 1, 4001, -89.900, 0.000, -46.600, 0.000, -0.100, -0.400, 0.0, , , , , , 98, , , 0, 0, 0
37.2865835, -119.5625775, 0.400, 13:31:00.335, 16, 0.10, 0.22, 94, 1.200, 0.800, -46.600, 2, 100, 100, 21, 24305, -12989, 5215, 5548, 8, 11, 1523478660.336, 24, 0, 1024, 1024, 1024, 1024, 0, 6, 4163, 4181, 4192, 4191, 4196, 4179, 0, 1, 4101, -89.900, 0.000, -46.600, 0.000, -0.100, -0.400, 0.0, , , , , , 98, , , 0, 0, 0
37.2865836, -119.5625776, 0.500, 13:31:00.436, 16, 0.10, 0.23, 94, 1.200, 0.900, -46.600, 2, 100, 100, 21, 24305, -12989, 5215, 5548, 8, 11, 1523478660.437, 22, 0, 1024, 1024, 1024, 1024, 0, 6, 4163, 4181, 4192, 4191, 4196, 4179, 0, 1, 4202, -89.900, 0.000, -46.600, 0.000, -0.100, -0.500, 0.0, , , , , , 98, , , 0, 0, 0
37.2865836, -119.5625778, 0.500, 13:31:00.535, 16, 0.10, 0.24, 94, 1.200, 1.100, -46.600, 2, 100, 100, 21, 24305, -12989, 5215, 5548, 8, 11, 1523478660.536, 7, 0, 1024, 1024, 1024, 1024, 0, 6, 4163, 4181, 4192, 4191, 4196, 4179, 0, 1, 4301, -89.900, 0.000, -46.600, 0.000, -0.100, -0.500, 0.0, , , , , , 98, , , 0, 0, 0
37.2865836, -119.5625779, 0.600, 13:31:00.635, 16, 0.00, 0.25, 94, 1.100, 1.200, -46.600, 2, 100, 100, 21, 24305, -12989, 5215, 5548, 8, 11, 1523478660.636, 9, 0, 1024, 1024, 1024, 1024, 0, 6, 3956, 4006, 3991, 4017, 4003, 4023, 0, 1, 4401, -89.900, 0.000, -46.600, 0.000, 0.000, -0.500, 0.0, , , , , , 98, , , 0, 0, 0
37.2865836, -119.5625779, 0.600, 13:31:00.736, 16, 0.00, 0.25, 94, 1.100, 1.200, -46.600, 2, 100, 100, 21, 24305, -12989, 5215, 5548, 8, 11, 1523478660.739, 112, 0, 1024, 1024, 1024, 1024, 0, 6, 3956, 4006, 3991, 4017, 4003, 4023, 0, 1, 4504, -89.900, 0.000, -46.600, 0.000, 0.000, -0.500, 0.0, , , , , , 98, , , 0, 0, 0
37.2865837, -119.5625780, 0.700, 13:31:00.835, 16, 0.00, 0.27, 94, 1.200, 1.300, -46.500, 2, 100, 100, 21, 24305, -12989, 5215, 5548, 8, 11, 1523478660.838, 94, 0, 1024, 1024, 1024, 1024, 0, 6, 3956, 4006, 3991, 4017, 4003, 4023, 0, 1, 4602, -89.900, 0.000, -46.600, 0.000, 0.000, -0.500, 0.0, , , , , , 98, , , 0, 0, 0
37.2865837, -119.5625781, 0.700, 13:31:00.936, 16, 0.00, 0.28, 94, 1.200, 1.400, -46.300, 2, 100, 100, 21, 24305, -12989, 5215, 5548, 8, 11, 1523478660.936, 94, 0, 1024, 1024, 1024, 1024, 0, 6, 3956, 4006, 3991, 4017, 4003, 4023, 0, 1, 4701, -89.900, 0.000, -46.600, 0.000, 0.000, -0.500, 0.0, , , , , , 98, , , 0, 0, 0
37.2865838, -119.5625782, 0.800, 13:31:01.035, 16, 0.00, 0.29, 94, 1.200, 1.700, -46.200, 2, 100, 100, 21, 24305, -12989, 5215, 5548, 8, 11, 1523478661.036, 78, 0, 1024, 1024, 1024, 1024, 0, 6, 3956, 4006, 3991, 4017, 4003, 4023, 0, 1, 4801, -89.900, 0.000, -46.600, 0.000, 0.000, -0.500, 0.0, , , , , , 98, , , 0, 0, 0
37.2865839, -119.5625784, 0.800, 13:31:01.136, 16, 0.00, 0.30, 94, 1.100, 1.900, -46.100, 2, 100, 100, 21, 24305, -12989, 5215, 5548, 8, 11, 1523478661.137, 96, 0, 1024, 1024, 1024, 1024, 0, 6, 3956, 4006, 3991, 4017, 4003, 4023, 0, 1, 4901, -89.900, 0.000, -46.600, 0.000, 0.000, -0.400, 0.0, , , , , , 98, , , 0, 0, 0
37.2865840, -119.5625785, 0.900, 13:31:01.235, 16, 0.00, 0.32, 94, 1.000, 2.000, -46.100, 2, 100, 100, 21, 24305, -12989, 5215, 5548, 8, 14, 1523478661.236, 69, 0, 1024, 1024, 1024, 1024, 0, 6, 3956, 4006, 3991, 4017, 4003, 4023, 0, 1, 5000, -89.900, 0.000, -46.600, 0.000, 0.000, -0.400, 0.0, , , , , , 98, , , 0, 0, 0
37.2865840, -119.5625786, 0.900, 13:31:01.335, 16, 0.00, 0.32, 94, 0.900, 2.100, -46.100, 2, 100, 100, 21, 24305, -12989, 5215, 5548, 8, 14, 1523478661.336, 84, 0, 1024, 1024, 1024, 1024, 0, 6, 3956, 4006, 3991, 4017, 4003, 4023, 0, 1, 5100, -89.900, 0.000, -46.600, 0.000, 0.000, -0.300, 0.0, , , , , , 98, , , 0, 0, 0
37.2865840, -119.5625786, 1.000, 13:31:01.435, 16, 0.00, 0.32, 94, 0.300, 1.300, -46.000, 2, 100, 100, 21, 24305, -12989, 5215, 5548, 8, 14, 1523478661.436, 63, 0, 1024, 1024, 1024, 1024, 0, 6, 3956, 4006, 3991, 4017, 4003, 4023, 0, 1, 5201, -90.000, 0.000, -46.600, 0.000, 0.000, -0.200, 0.0, , , , , , 98, , , 0, 0, 0
37.2865840, -119.5625787, 1.000, 13:31:01.535, 16, 0.00, 0.33, 94, 0.100, 0.900, -46.000, 2, 100, 100, 21, 24305, -12989, 5215, 5548, 8, 14, 1523478661.536, 60, 0, 1024, 1024, 1024, 1024, 0, 6, 3956, 4006, 3991, 4017, 4003, 4023, 0, 1, 5300, -90.000, 0.000, -46.600, 0.000, 0.000, -0.200, 0.0, , , , , , 98, , , 0, 0, 0
37.2865840, -119.5625789, 1.000, 13:31:01.635, 16, 0.00, 0.35, 94, 0.200, 0.700, -46.100, 2, 100, 100, 21, 24305, -12989, 5215, 5548, 8, 14, 1523478661.636, 56, 0, 1024, 1024, 1024, 1024, 0, 6, 3956, 4006, 3991, 4017, 4003, 4023, 0, 1, 5400, -90.000, 0.000, -46.600, 0.000, 0.000, -0.300, 0.0, , , , , , 98, , , 0, 0, 0
37.2865840, -119.5625790, 1.100, 13:31:01.735, 18, 0.00, 0.35, 94, 0.600, 0.600, -46.100, 2, 100, 100, 21, 23731, -16609, 5215, 5548, 8, 14, 1523478661.736, 47, 0, 1024, 1024, 1024, 1024, 0, 6, 3922, 3972, 3951, 3960, 3959, 3956, 0, 1, 5500, -90.000, 0.000, -46.600, 0.000, 0.000, -0.400, 0.0, , , , , , 98, , , 0, 0, 0
37.2865839, -119.5625790, 1.100, 13:31:01.835, 18, 0.00, 0.36, 94, 1.100, 0.700, -46.200, 2, 100, 100, 21, 23731, -16609, 5215, 5548, 8, 14, 1523478661.836, 58, 0, 1024, 1024, 1024, 1024, 0, 6, 3922, 3972, 3951, 3960, 3959, 3956, 0, 1, 5601, -90.000, 0.000, -46.600, 0.000, 0.000, -0.600, 0.0, , , , , , 98, , , 0, 0, 0
37.2865839, -119.5625792, 1.200, 13:31:01.935, 17, 0.00, 0.38, 94, 1.600, 0.700, -46.300, 2, 100, 100, 21, 23731, -16609, 5215, 5548, 8, 14, 1523478661.936, 52, 0, 1024, 1024, 1024, 1024, 0, 6, 3922, 3972, 3951, 3960, 3959, 3956, 0, 1, 5700, -90.000, 0.000, -46.600, 0.000, 0.000, -0.700, 0.0, , , , , , 98, , , 0, 0, 0
37.2865839, -119.5625794, 1.300, 13:31:02.035, 17, 0.00, 0.39, 94, 1.800, 0.900, -46.300, 2, 100, 100, 21, 23731, -16609, 5215, 5548, 8, 14, 1523478662.036, 45, 0, 1024, 1024, 1024, 1024, 0, 6, 3922, 3972, 3951, 3960, 3959, 3956, 0, 1, 5800, -90.000, 0.000, -46.600, 0.000, 0.000, -0.900, 0.0, , , , , , 98, , , 0, 0, 0
37.2865840, -119.5625795, 1.500, 13:31:02.135, 18, 0.00, 0.40, 94, 1.500, 1.100, -46.200, 2, 100, 100, 21, 23731, -16609, 5215, 5548, 8, 14, 1523478662.137, 56, 0, 1024, 1024, 1024, 1024, 0, 6, 3922, 3972, 3951, 3960, 3959, 3956, 0, 1, 5902, -89.900, 0.000, -46.600, 0.000, 0.000, -1.300, 0.0, , , , , , 98, , , 0, 0, 0
37.2865840, -119.5625795, 1.500, 13:31:02.235, 18, 0.00, 0.40, 94, 1.500, 1.100, -46.200, 2, 100, 98, 21, 23731, -16609, 5215, 5548, 8, 14, 1523478662.236, 155, 0, 1024, 1024, 1024, 1024, 0, 6, 3922, 3972, 3951, 3960, 3959, 3956, 0, 1, 6001, -89.900, 0.000, -46.600, 0.000, 0.000, -1.300, 0.0, , , , , , 98, , , 0, 0, 0
37.2865842, -119.5625797, 1.900, 13:31:02.335, 18, 0.00, 0.43, 94, 0.900, 1.500, -45.800, 2, 100, 98, 21, 23731, -16609, 5215, 5548, 8, 14, 1523478662.337, 13, 0, 1024, 1024, 1024, 1024, 0, 6, 3922, 3972, 3951, 3960, 3959, 3956, 0, 1, 6102, -89.900, 0.000, -46.600, 0.000, 0.000, -1.800, 0.0, , , , , , 98, , , 0, 0, 0
37.2865843, -119.5625797, 2.100, 13:31:02.435, 16, 0.00, 0.43, 94, 0.900, 1.600, -45.800, 2, 100, 98, 21, 23731, -16609, 5215, 5548, 8, 14, 1523478662.436, 49, 0, 1024, 1024, 1024, 1024, 0, 6, 3922, 3972, 3951, 3960, 3959, 3956, 0, 1, 6201, -89.900, 0.000, -46.600, 0.000, 0.000, -2.000, 0.0, , , , , , 98, , , 0, 0, 0
37.2865844, -119.5625797, 2.300, 13:31:02.536, 16, 0.00, 0.43, 94, 0.900, 1.700, -45.800, 2, 100, 98, 21, 23731, -16609, 5215, 5548, 8, 14, 1523478662.537, 13, 0, 1024, 1024, 1024, 1024, 0, 6, 3922, 3972, 3951, 3960, 3959, 3956, 0, 1, 6302, -89.900, 0.000, -46.600, 0.000, 0.000, -2.200, 0.0, , , , , , 98, , , 0, 0, 0
37.2865845, -119.5625797, 2.500, 13:31:02.635, 17, 0.00, 0.44, 94, 0.900, 1.700, -45.800, 2, 100, 98, 21, 23807, -15956, 5215, 5548, 8, 14, 1523478662.637, 14, 0, 1024, 1024, 1024, 1024, 0, 6, 3922, 3972, 3951, 3960, 3959, 3956, 0, 1, 6402, -89.900, 0.000, -46.600, 0.000, 0.000, -2.400, 0.0, , , , , , 98, , , 0, 0, 0
37.2865847, -119.5625797, 2.800, 13:31:02.735, 17, 0.00, 0.45, 94, 0.900, 1.500, -45.900, 2, 100, 98, 21, 23807, -15956, 5215, 5548, 8, 14, 1523478662.736, 34, 0, 1024, 1024, 1024, 1024, 0, 6, 3972, 3963, 3970, 3931, 3927, 3942, 0, 1, 6500, -89.900, 0.000, -46.600, 0.000, 0.000, -2.600, 0.0, , , , , , 98, , , 0, 0, 0
37.2865847, -119.5625797, 2.800, 13:31:02.835, 17, 0.00, 0.45, 94, 0.900, 1.500, -45.900, 2, 100, 98, 21, 23807, -15956, 5215, 5548, 8, 14, 1523478662.836, 134, 0, 1024, 1024, 1024, 1024, 0, 6, 3972, 3963, 3970, 3931, 3927, 3942, 0, 1, 6601, -89.900, 0.000, -46.600, 0.000, 0.000, -2.600, 0.0, , , , , , 98, , , 0, 0, 0
37.2865850, -119.5625796, 3.400, 13:31:02.942, 17, 0.00, 0.45, 94, 0.900, 1.500, -45.800, 2, 100, 98, 21, 23807, -15956, 5215, 5548, 8, 14, 1523478662.943, 13, 0, 1024, 1024, 1024, 1024, 0, 6, 3972, 3963, 3970, 3931, 3927, 3942, 0, 1, 6708, -89.900, 0.000, -46.600, 0.000, 0.000, -2.900, 0.0, , , , , , 98, , , 0, 0, 0
37.2865850, -119.5625796, 3.400, 13:31:03.035, 17, 0.00, 0.45, 94, 0.900, 1.500, -45.800, 2, 100, 98, 21, 23807, -15956, 5215, 5548, 8, 14, 1523478663.036, 106, 0, 1024, 1024, 1024, 1024, 0, 6, 3972, 3963, 3970, 3931, 3927, 3942, 0, 1, 6801, -89.900, 0.000, -46.600, 0.000, 0.000, -2.900, 0.0, , , , , , 98, , , 0, 0, 0
37.2865853, -119.5625796, 4.000, 13:31:03.135, 18, 0.00, 0.47, 94, 0.400, 1.700, -45.700, 2, 100, 98, 21, 23807, -15956, 5215, 5548, 8, 14, 1523478663.135, 4, 0, 1024, 1024, 1024, 1024, 0, 6, 3972, 3963, 3970, 3931, 3927, 3942, 0, 1, 6900, -89.900, 0.000, -46.600, 0.000, 0.000, -3.100, 0.0, , , , , , 98, , , 0, 0, 0
37.2865855, -119.5625796, 4.400, 13:31:03.241, 18, 0.00, 0.47, 94, 0.300, 1.900, -45.700, 2, 100, 98, 21, 23807, -15956, 5215, 5548, 8, 14, 1523478663.242, 4, 0, 1024, 1024, 1024, 1024, 0, 6, 3972, 3963, 3970, 3931, 3927, 3942, 0, 1, 7006, -89.900, 0.000, -46.600, 0.000, 0.000, -3.200, 0.0, , , , , , 98, , , 0, 0, 0
37.2865856, -119.5625795, 4.700, 13:31:03.338, 18, 0.00, 0.48, 94, 0.000, 2.000, -45.700, 2, 100, 98, 21, 23807, -15956, 5215, 5548, 8, 14, 1523478663.339, 6, 0, 1024, 1024, 1024, 1024, 0, 6, 3972, 3963, 3970, 3931, 3927, 3942, 0, 1, 7103, -89.900, 0.000, -46.600, 0.000, 0.000, -3.200, 0.0, , , , , , 98, , , 0, 0, 0
37.2865857, -119.5625795, 5.000, 13:31:03.435, 18, 0.00, 0.48, 94, 0.000, 1.900, -45.700, 2, 100, 98, 21, 23807, -15956, 5215, 5548, 8, 14, 1523478663.436, 5, 0, 1024, 1024, 1024, 1024, 0, 6, 3972, 3963, 3970, 3931, 3927, 3942, 0, 1, 7200, -89.900, 0.000, -46.600, 0.000, 0.000, -3.100, 0.0, , , , , , 98, , , 0, 0, 0
37.2865857, -119.5625795, 5.000, 13:31:03.536, 18, 0.00, 0.48, 94, 0.000, 1.900, -45.700, 2, 100, 98, 21, 23807, -15956, 5215, 5548, 8, 14, 1523478663.536, 105, 0, 1024, 1024, 1024, 1024, 0, 6, 3972, 3963, 3970, 3931, 3927, 3942, 0, 1, 7301, -89.900, 0.000, -46.600, 0.000, 0.000, -3.100, 0.0, , , , , , 98, , , 0, 0, 0
37.2865859, -119.5625794, 5.700, 13:31:03.636, 17, 0.00, 0.49, 94, -0.100, 1.800, -45.800, 2, 100, 98, 21, 23043, -22576, 5215, 5548, 8, 14, 1523478663.637, 8, 0, 1024, 1024, 1024, 1024, 0, 6, 3972, 3963, 3970, 3931, 3927, 3942, 0, 1, 7402, -89.900, 0.000, -46.600, 0.000, 0.000, -3.200, 0.0, , , , , , 98, , , 0, 0, 0
37.2865859, -119.5625794, 5.700, 13:31:03.736, 17, 0.00, 0.49, 94, -0.100, 1.800, -45.800, 2, 100, 98, 21, 23043, -22576, 5215, 5548, 8, 14, 1523478663.736, 107, 0, 1024, 1024, 1024, 1024, 0, 6, 3812, 3868, 3837, 3851, 3814, 3826, 0, 1, 7501, -89.900, 0.000, -46.600, 0.000, 0.000, -3.200, 0.0, , , , , , 98, , , 0, 0, 0
37.2865860, -119.5625794, 6.000, 13:31:03.835, 17, 0.00, 0.50, 94, 0.000, 1.900, -45.800, 2, 100, 100, 21, 23043, -22576, 5215, 5548, 8, 14, 1523478663.836, 70, 0, 1024, 1024, 1024, 1024, 0, 6, 3812, 3868, 3837, 3851, 3814, 3826, 0, 1, 7600, -89.900, 0.000, -46.600, 0.000, 0.000, -3.200, 0.0, , , , , , 98, , , 0, 0, 0
37.2865860, -119.5625794, 6.300, 13:31:03.936, 16, 0.00, 0.50, 94, 0.000, 1.900, -45.900, 2, 100, 100, 21, 23043, -22576, 5215, 5548, 8, 14, 1523478663.936, 80, 0, 1024, 1024, 1024, 1024, 0, 6, 3812, 3868, 3837, 3851, 3814, 3826, 0, 1, 7701, -89.900, 0.000, -46.600, 0.000, 0.000, -3.200, 0.0, , , , , , 98, , , 0, 0, 0
37.2865860, -119.5625795, 6.700, 13:31:04.035, 16, 0.00, 0.50, 94, 0.100, 2.000, -45.900, 2, 100, 100, 21, 23043, -22576, 5215, 5548, 8, 14, 1523478664.036, 65, 0, 1024, 1024, 1024, 1024, 0, 6, 3812, 3868, 3837, 3851, 3814, 3826, 0, 1, 7801, -89.900, 0.000, -46.600, 0.000, 0.000, -3.200, 0.0, , , , , , 98, , , 0, 0, 0
37.2865859, -119.5625796, 7.000, 13:31:04.136, 18, 0.00, 0.50, 94, 0.300, 1.900, -45.900, 2, 100, 100, 21, 23043, -22576, 5215, 5548, 8, 14, 1523478664.136, 66, 0, 1024, 1024, 1024, 1024, 0, 6, 3812, 3868, 3837, 3851, 3814, 3826, 0, 1, 7901, -89.900, 0.000, -46.600, 0.000, 0.000, -3.200, 0.0, , , , , , 98, , , 0, 0, 0
37.2865858, -119.5625797, 7.300, 13:31:04.235, 18, 0.10, 0.50, 94, 0.800, 1.900, -45.900, 2, 100, 100, 21, 23043, -22576, 5215, 5548, 8, 14, 1523478664.236, 71, 0, 1024, 1024, 1024, 1024, 0, 6, 3812, 3868, 3837, 3851, 3814, 3826, 0, 1, 8001, -89.900, 0.000, -46.600, -0.100, 0.000, -3.200, 0.0, , , , , , 98, , , 0, 0, 0
37.2865857, -119.5625798, 7.700, 13:31:04.335, 17, 0.10, 0.50, 94, 1.200, 1.800, -46.000, 2, 100, 100, 21, 23043, -22576, 5215, 5548, 8, 14, 1523478664.336, 50, 0, 1024, 1024, 1024, 1024, 0, 6, 3812, 3868, 3837, 3851, 3814, 3826, 0, 1, 8101, -89.900, 0.000, -46.600, -0.100, 0.000, -3.200, 0.0, , , , , , 98, , , 0, 0, 0
37.2865856, -119.5625798, 8.000, 13:31:04.435, 17, 0.10, 0.50, 94, 1.500, 1.800, -46.000, 2, 100, 100, 21, 23043, -22576, 5215, 5548, 8, 14, 1523478664.436, 56, 0, 1024, 1024, 1024, 1024, 0, 6, 3812, 3868, 3837, 3851, 3814, 3826, 0, 1, 8201, -89.900, 0.000, -46.600, -0.100, 0.000, -3.100, 0.0, , , , , , 98, , , 0, 0, 0
37.2865854, -119.5625799, 8.300, 13:31:04.535, 16, 0.10, 0.50, 94, 1.500, 1.800, -46.000, 2, 100, 100, 21, 23043, -22576, 5215, 5548, 8, 14, 1523478664.536, 57, 0, 1024, 1024, 1024, 1024, 0, 6, 3812, 3868, 3837, 3851, 3814, 3826, 0, 1, 8301, -89.900, 0.000, -46.600, -0.100, 0.000, -3.100, 0.0, , , , , , 98, , , 0, 0, 0
37.2865853, -119.5625801, 8.700, 13:31:04.636, 16, 0.10, 0.50, 94, 1.800, 1.800, -46.000, 2, 100, 100, 21, 23082, -22576, 5215, 5548, 8, 14, 1523478664.637, 12, 0, 1024, 1024, 1024, 1024, 0, 6, 3812, 3868, 3837, 3851, 3814, 3826, 0, 1, 8402, -89.900, 0.000, -46.600, -0.100, 0.000, -3.100, 0.0, , , , , , 98, , , 0, 0, 0
37.2865850, -119.5625801, 9.300, 13:31:04.736, 16, 0.10, 0.49, 94, 2.200, 1.500, -46.000, 2, 100, 100, 21, 23082, -22576, 5215, 5548, 8, 14, 1523478664.737, 35, 0, 1024, 1024, 1024, 1024, 0, 6, 3813, 3860, 3863, 3865, 3861, 3860, 0, 1, 8501, -90.000, 0.000, -46.600, -0.100, 0.000, -3.100, 0.0, , , , , , 98, , , 0, 0, 0
37.2865848, -119.5625802, 9.700, 13:31:04.835, 15, 0.10, 0.49, 94, 2.000, 1.300, -46.000, 2, 100, 100, 21, 23082, -22576, 5215, 5548, 8, 14, 1523478664.836, 34, 0, 1024, 1024, 1024, 1024, 0, 6, 3813, 3860, 3863, 3865, 3861, 3860, 0, 1, 8601, -90.000, 0.000, -46.600, -0.100, 0.000, -3.100, 0.0, , , , , , 98, , , 0, 0, 0
37.2865846, -119.5625802, 10.000, 13:31:04.935, 15, 0.10, 0.49, 94, 2.000, 0.900, -46.000, 2, 100, 100, 21, 23082, -22576, 5215, 5548, 8, 14, 1523478664.936, 30, 0, 1024, 1024, 1024, 1024, 0, 6, 3813, 3860, 3863, 3865, 3861, 3860, 0, 1, 8701, -90.000, 0.000, -46.600, -0.100, 0.000, -2.900, 0.0, , , , , , 98, , , 0, 0, 0
37.2865844, -119.5625803, 10.300, 13:31:05.035, 17, 0.10, 0.48, 94, 2.100, 0.600, -46.100, 2, 100, 100, 21, 23082, -22576, 5215, 5548, 8, 14, 1523478665.036, 32, 0, 1024, 1024, 1024, 1024, 0, 6, 3813, 3860, 3863, 3865, 3861, 3860, 0, 1, 8801, -90.000, 0.000, -46.600, -0.100, 0.000, -2.900, 0.0, , , , , , 98, , , 0, 0, 0
37.2865844, -119.5625803, 10.300, 13:31:05.135, 17, 0.10, 0.48, 94, 2.100, 0.600, -46.100, 2, 100, 100, 21, 23082, -22576, 5215, 5548, 8, 14, 1523478665.136, 132, 0, 1024, 1024, 1024, 1024, 0, 6, 3813, 3860, 3863, 3865, 3861, 3860, 0, 1, 8900, -90.000, 0.000, -46.600, -0.100, 0.000, -2.900, 0.0, , , , , , 98, , , 0, 0, 0
37.2865843, -119.5625803, 10.600, 13:31:05.235, 17, 0.10, 0.48, 94, 2.100, 0.500, -46.100, 2, 100, 100, 21, 23082, -22576, 5215, 5548, 8, 14, 1523478665.236, 95, 0, 1024, 1024, 1024, 1024, 0, 6, 3813, 3860, 3863, 3865, 3861, 3860, 0, 1, 9001, -90.000, 0.000, -46.600, -0.100, 0.000, -2.900, 0.0, , , , , , 98, , , 0, 0, 0
37.2865840, -119.5625805, 11.200, 13:31:05.335, 17, 0.00, 0.49, 94, 2.300, 0.600, -46.000, 2, 100, 100, 21, 23082, -22576, 5215, 5548, 8, 14, 1523478665.337, 22, 0, 1024, 1024, 1024, 1024, 0, 6, 3813, 3860, 3863, 3865, 3861, 3860, 0, 1, 9102, -89.900, 0.000, -46.600, 0.000, 0.000, -3.000, 0.0, , , , , , 98, , , 0, 0, 0
37.2865840, -119.5625805, 11.200, 13:31:05.436, 17, 0.00, 0.49, 94, 2.300, 0.600, -46.000, 2, 100, 100, 21, 23082, -22576, 5215, 5548, 8, 14, 1523478665.436, 120, 0, 1024, 1024, 1024, 1024, 0, 6, 3813, 3860, 3863, 3865, 3861, 3860, 0, 1, 9201, -89.900, 0.000, -46.600, 0.000, 0.000, -3.000, 0.0, , , , , , 98, , , 0, 0, 0
37.2865838, -119.5625806, 11.500, 13:31:05.535, 18, 0.00, 0.49, 94, 2.400, 0.800, -46.000, 2, 100, 100, 21, 23082, -22576, 5215, 5548, 8, 14, 1523478665.536, 82, 0, 1024, 1024, 1024, 1024, 0, 6, 3813, 3860, 3863, 3865, 3861, 3860, 0, 1, 9301, -89.900, 0.000, -46.600, 0.000, 0.000, -3.000, 0.0, , , , , , 98, , , 0, 0, 0
37.2865837, -119.5625806, 11.800, 13:31:05.635, 18, 0.00, 0.50, 94, 2.500, 1.100, -46.000, 2, 100, 100, 21, 23082, -22576, 5215, 5548, 8, 14, 1523478665.636, 74, 0, 1024, 1024, 1024, 1024, 0, 6, 3813, 3860, 3863, 3865, 3861, 3860, 0, 1, 9400, -89.900, 0.000, -46.600, 0.000, 0.000, -2.900, 0.0, , , , , , 98, , , 0, 0, 0
37.2865836, -119.5625807, 12.100, 13:31:05.735, 17, 0.00, 0.50, 94, 2.400, 1.200, -46.000, 2, 100, 100, 21, 23299, -18995, 5215, 5548, 8, 14, 1523478665.736, 97, 0, 1024, 1024, 1024, 1024, 0, 6, 3813, 3860, 3863, 3865, 3861, 3860, 0, 1, 9500, -89.900, 0.000, -46.600, 0.000, 0.000, -2.900, 0.0, , , , , , 98, , , 0, 0, 0
37.2865835, -119.5625808, 12.400, 13:31:05.836, 17, 0.00, 0.51, 94, 2.400, 1.100, -46.000, 2, 100, 100, 21, 23299, -18995, 5215, 5548, 8, 14, 1523478665.836, 95, 0, 1024, 1024, 1024, 1024, 0, 6, 3813, 3860, 3863, 3865, 3861, 3860, 0, 1, 9601, -89.900, 0.000, -46.600, 0.000, 0.000, -2.900, 0.0, , , , , , 98, , , 0, 0, 0
37.2865835, -119.5625808, 12.700, 13:31:05.935, 15, 0.00, 0.51, 94, 2.200, 1.200, -46.000, 2, 100, 100, 21, 23299, -18995, 5215, 5548, 8, 14, 1523478665.936, 95, 0, 1024, 1024, 1024, 1024, 0, 6, 3813, 3860, 3863, 3865, 3861, 3860, 0, 1, 9701, -89.900, 0.000, -46.600, 0.000, 0.000, -2.900, 0.0, , , , , , 98, , , 0, 0, 0
37.2865835, -119.5625808, 13.000, 13:31:06.035, 15, 0.00, 0.51, 94, 2.100, 1.400, -46.000, 2, 100, 100, 21, 23299, -18995, 5215, 5548, 8, 14, 1523478666.036, 87, 0, 1024, 1024, 1024, 1024, 0, 6, 3813, 3860, 3863, 3865, 3861, 3860, 0, 1, 9800, -89.900, 0.000, -46.600, 0.000, 0.000, -2.900, 0.0, , , , , , 98, , , 0, 0, 0
37.2865835, -119.5625807, 13.300, 13:31:06.135, 17, 0.00, 0.50, 94, 1.900, 1.600, -46.100, 2, 100, 100, 21, 23299, -18995, 5215, 5548, 8, 14, 1523478666.136, 77, 0, 1024, 1024, 1024, 1024, 0, 6, 3813, 3860, 3863, 3865, 3861, 3860, 0, 1, 9900, -89.900, 0.000, -46.600, 0.000, 0.000, -2.900, 0.0, , , , , , 98, , , 0, 0, 0
37.2865836, -119.5625807, 13.600, 13:31:06.235, 17, 0.00, 0.50, 94, 1.500, 1.800, -46.000, 2, 100, 100, 21, 23299, -18995, 5215, 5548, 8, 14, 1523478666.236, 79, 0, 1024, 1024, 1024, 1024, 0, 6, 3834, 3872, 3893, 3887, 3888, 3878, 0, 1, 10001, -89.900, 0.000, -46.600, 0.000, 0.000, -2.900, 0.0, , , , , , 98, , , 0, 0, 0
37.2865836, -119.5625806, 13.900, 13:31:06.336, 17, 0.00, 0.49, 94, 0.900, 2.000, -45.800, 2, 100, 100, 21, 23299, -18995, 5215, 5548, 8, 14, 1523478666.337, 65, 0, 1024, 1024, 1024, 1024, 0, 6, 3834, 3872, 3893, 3887, 3888, 3878, 0, 1, 10101, -89.900, 0.000, -46.600, 0.000, 0.000, -2.900, 0.0, , , , , , 98, , , 0, 0, 0
37.2865836, -119.5625805, 14.200, 13:31:06.436, 17, 0.00, 0.49, 94, 0.400, 1.800, -45.600, 2, 100, 100, 21, 23299, -18995, 5215, 5548, 8, 14, 1523478666.436, 65, 0, 1024, 1024, 1024, 1024, 0, 6, 3834, 3872, 3893, 3887, 3888, 3878, 0, 1, 10201, -90.000, 0.000, -46.600, 0.000, 0.000, -2.900, 0.0, , , , , , 98, , , 0, 0, 0
37.2865836, -119.5625805, 14.500, 13:31:06.535, 18, 0.00, 0.48, 94, 0.400, 1.300, -45.500, 2, 100, 100, 21, 23299, -18995, 5215, 5548, 8, 14, 1523478666.536, 57, 0, 1024, 1024, 1024, 1024, 0, 6, 3834, 3872, 3893, 3887, 3888, 3878, 0, 1, 10301, -90.000, 0.000, -46.600, 0.000, 0.000, -3.000, 0.0, , , , , , 98, , , 0, 0, 0
37.2865836, -119.5625804, 14.800, 13:31:06.636, 18, 0.00, 0.48, 94, 0.500, 0.700, -45.400, 2, 100, 100, 21, 23299, -18995, 5215, 5548, 8, 14, 1523478666.636, 71, 0, 1024, 1024, 1024, 1024, 0, 6, 3834, 3872, 3893, 3887, 3888, 3878, 0, 1, 10401, -90.000, 0.000, -46.600, 0.000, 0.000, -3.000, 0.0, , , , , , 98, , , 0, 0, 0
37.2865836, -119.5625804, 15.100, 13:31:06.735, 17, 0.00, 0.47, 94, 1.000, 0.800, -45.400, 2, 100, 100, 21, 23299, -18995, 5215, 5548, 8, 14, 1523478666.737, 38, 0, 1024, 1024, 1024, 1024, 0, 6, 3834, 3872, 3893, 3887, 3888, 3878, 0, 1, 10501, -90.000, 0.000, -46.600, 0.000, 0.000, -3.000, 0.0, , , , , , 98, , , 0, 0, 0
37.2865837, -119.5625804, 15.400, 13:31:06.835, 17, 0.00, 0.47, 94, 1.500, 1.200, -45.400, 2, 100, 100, 21, 23299, -18995, 5215, 5548, 8, 14, 1523478666.836, 53, 0, 1024, 1024, 1024, 1024, 0, 6, 3834, 3872, 3893, 3887, 3888, 3878, 0, 1, 10601, -89.900, 0.000, -46.600, 0.000, 0.000, -2.900, 0.0, , , , , , 98, , , 0, 0, 0
37.2865838, -119.5625804, 15.700, 13:31:06.936, 19, 0.00, 0.48, 94, 1.900, 1.600, -45.400, 2, 100, 100, 21, 23299, -18995, 5215, 5548, 8, 14, 1523478666.937, 55, 0, 1024, 1024, 1024, 1024, 0, 6, 3834, 3872, 3893, 3887, 3888, 3878, 0, 1, 10702, -89.900, 0.000, -46.600, 0.000, 0.000, -2.900, 0.0, , , , , , 98, , , 0, 0, 0
37.2865839, -119.5625805, 16.400, 13:31:07.036, 18, 0.00, 0.49, 94, 2.200, 2.500, -45.900, 2, 100, 100, 21, 23299, -18995, 5215, 5548, 8, 14, 1523478667.036, 6, 0, 1024, 1024, 1024, 1024, 0, 6, 3834, 3872, 3893, 3887, 3888, 3878, 0, 1, 10801, -89.900, 0.000, -46.600, 0.000, 0.000, -3.000, 0.0, , , , , , 98, , , 0, 0, 0
37.2865840, -119.5625806, 16.700, 13:31:07.136, 18, 0.00, 0.50, 94, 2.000, 3.300, -46.200, 2, 100, 100, 21, 23299, -18995, 5215, 5548, 8, 14, 1523478667.136, 11, 0, 1024, 1024, 1024, 1024, 0, 6, 3834, 3872, 3893, 3887, 3888, 3878, 0, 1, 10901, -89.900, 0.000, -46.600, 0.000, 0.000, -3.000, 0.0, , , , , , 98, , , 0, 0, 0
37.2865840, -119.5625806, 16.700, 13:31:07.236, 18, 0.00, 0.50, 94, 2.000, 3.300, -46.200, 2, 100, 99, 21, 23299, -18995, 5215, 5548, 8, 14, 1523478667.236, 111, 0, 1024, 1024, 1024, 1024, 0, 6, 3834, 3872, 3893, 3887, 3888, 3878, 0, 1, 11001, -89.900, 0.000, -46.600, 0.000, 0.000, -3.000, 0.0, , , , , , 98, , , 0, 0, 0
37.2865843, -119.5625806, 17.300, 13:31:07.336, 17, 0.00, 0.51, 94, 0.600, 3.800, -46.300, 2, 100, 99, 21, 23299, -18995, 5215, 5548, 8, 14, 1523478667.336, 5, 0, 1024, 1024, 1024, 1024, 0, 6, 3834, 3872, 3893, 3887, 3888, 3878, 0, 1, 11101, -89.900, 0.000, -46.600, 0.000, 0.000, -2.900, 0.0, , , , , , 98, , , 0, 0, 0
37.2865845, -119.5625807, 17.600, 13:31:07.437, 19, 0.00, 0.52, 94, 0.600, 3.800, -46.100, 2, 100, 99, 21, 23299, -18995, 5215, 5548, 8, 14, 1523478667.437, 35, 0, 1024, 1024, 1024, 1024, 0, 6, 3834, 3872, 3893, 3887, 3888, 3878, 0, 1, 11202, -89.900, 0.000, -46.600, 0.000, 0.000, -3.000, 0.0, , , , , , 98, , , 0, 0, 0
37.2865845, -119.5625807, 17.600, 13:31:07.535, 19, 0.00, 0.52, 94, 0.600, 3.800, -46.100, 2, 100, 99, 21, 23299, -18995, 5215, 5548, 8, 14, 1523478667.536, 133, 0, 1024, 1024, 1024, 1024, 0, 6, 3834, 3872, 3893, 3887, 3888, 3878, 0, 1, 11300, -89.900, 0.000, -46.600, 0.000, 0.000, -3.000, 0.0, , , , , , 98, , , 0, 0, 0
37.2865847, -119.5625809, 18.200, 13:31:07.647, 18, 0.00, 0.54, 94, 1.600, 4.500, -45.700, 2, 100, 99, 21, 23076, -20299, 5159, 5548, 8, 14, 1523478667.648, 16, 0, 1024, 1024, 1024, 1024, 0, 6, 3834, 3872, 3893, 3887, 3888, 3878, 0, 1, 11413, -89.900, 0.000, -46.600, 0.000, 0.000, -2.900, 0.0, , , , , , 98, , , 0, 0, 0
37.2865849, -119.5625810, 18.500, 13:31:07.735, 18, 0.10, 0.56, 94, 1.900, 4.800, -45.600, 2, 100, 97, 21, 23076, -20299, 5159, 5548, 8, 14, 1523478667.736, 5, 0, 1024, 1024, 1024, 1024, 0, 6, 3817, 3859, 3840, 3849, 3840, 3870, 0, 1, 11500, -89.900, 0.000, -46.600, 0.000, -0.100, -2.900, 0.0, , , , , , 98, , , 0, 0, 0
37.2865850, -119.5625812, 18.800, 13:31:07.836, 19, 0.10, 0.58, 94, 2.000, 5.200, -45.600, 2, 100, 97, 21, 23076, -20299, 5159, 5548, 8, 14, 1523478667.836, 7, 0, 1024, 1024, 1024, 1024, 0, 6, 3817, 3859, 3840, 3849, 3840, 3870, 0, 1, 11601, -89.900, 0.000, -46.600, 0.000, -0.100, -3.000, 0.0, , , , , , 98, , , 0, 0, 0
37.2865851, -119.5625814, 19.100, 13:31:07.944, 19, 0.10, 0.60, 94, 2.100, 5.600, -45.600, 2, 100, 97, 21, 23076, -20299, 5159, 5548, 8, 14, 1523478667.945, 10, 0, 1024, 1024, 1024, 1024, 0, 6, 3817, 3859, 3840, 3849, 3840, 3870, 0, 1, 11709, -89.900, 0.000, -46.600, 0.000, -0.100, -2.900, 0.0, , , , , , 98, , , 0, 0, 0
37.2865853, -119.5625815, 19.400, 13:31:08.036, 19, 0.00, 0.61, 94, 2.200, 5.700, -45.600, 2, 100, 97, 21, 23076, -20299, 5159, 5548, 8, 14, 1523478668.037, 5, 0, 1024, 1024, 1024, 1024, 0, 6, 3817, 3859, 3840, 3849, 3840, 3870, 0, 1, 11801, -89.900, 0.000, -46.600, 0.000, 0.000, -2.800, 0.0, , , , , , 98, , , 0, 0, 0
37.2865854, -119.5625816, 19.700, 13:31:08.142, 19, 0.00, 0.63, 93, 2.300, 5.800, -45.600, 2, 100, 97, 21, 23087, -20032, 5159, 5548, 8, 14, 1523478668.143, 11, 0, 1024, 1024, 1024, 1024, 0, 6, 3817, 3859, 3840, 3849, 3840, 3870, 0, 1, 11908, -89.900, 0.000, -46.600, 0.000, 0.000, -2.900, 0.0, , , , , , 98, , , 0, 0, 0
37.2865854, -119.5625816, 19.700, 13:31:08.236, 19, 0.00, 0.63, 93, 2.300, 5.800, -45.600, 2, 100, 97, 21, 23087, -20032, 5159, 5548, 8, 14, 1523478668.236, 104, 0, 1024, 1024, 1024, 1024, 0, 6, 3818, 3864, 3859, 3848, 3857, 3843, 0, 1, 12001, -89.900, 0.000, -46.600, 0.000, 0.000, -2.900, 0.0, , , , , , 98, , , 0, 0, 0
37.2865855, -119.5625817, 20.000, 13:31:08.336, 18, 0.00, 0.64, 93, 2.400, 5.800, -45.600, 2, 100, 97, 21, 23087, -20032, 5159, 5548, 8, 14, 1523478668.336, 73, 0, 1024, 1024, 1024, 1024, 0, 6, 3818, 3864, 3859, 3848, 3857, 3843, 0, 1, 12101, -89.900, 0.000, -46.600, 0.000, 0.000, -2.900, 0.0, , , , , , 98, , , 0, 0, 0
37.2865856, -119.5625818, 20.300, 13:31:08.435, 18, 0.00, 0.66, 93, 2.500, 5.900, -45.700, 2, 100, 97, 21, 23087, -20032, 5159, 5548, 8, 14, 1523478668.436, 61, 0, 1024, 1024, 1024, 1024, 0, 6, 3818, 3864, 3859, 3848, 3857, 3843, 0, 1, 12201, -89.900, 0.000, -46.600, 0.000, 0.000, -2.900, 0.0, , , , , , 98, , , 0, 0, 0
37.2865857, -119.5625819, 20.600, 13:31:08.536, 18, 0.00, 0.67, 93, 2.500, 6.000, -45.800, 2, 100, 97, 21, 23087, -20032, 5159, 5548, 8, 14, 1523478668.536, 92, 0, 1024, 1024, 1024, 1024, 0, 6, 3818, 3864, 3859, 3848, 3857, 3843, 0, 1, 12301, -89.900, 0.000, -46.600, 0.000, 0.000, -2.900, 0.0, , , , , , 98, , , 0, 0, 0
37.2865857, -119.5625820, 20.900, 13:31:08.635, 18, 0.00, 0.68, 93, 2.200, 6.000, -45.900, 2, 100, 97, 21, 23087, -20032, 5159, 5548, 8, 14, 1523478668.636, 65, 0, 1024, 1024, 1024, 1024, 0, 6, 3818, 3864, 3859, 3848, 3857, 3843, 0, 1, 12401, -89.900, 0.000, -46.600, 0.000, 0.000, -2.900, 0.0, , , , , , 98, , , 0, 0, 0
37.2865858, -119.5625821, 21.200, 13:31:08.736, 19, 0.00, 0.69, 93, 2.100, 6.000, -45.900, 2, 100, 97, 21, 23087, -20032, 5159, 5548, 8, 14, 1523478668.736, 65, 0, 1024, 1024, 1024, 1024, 0, 6, 3818, 3864, 3859, 3848, 3857, 3843, 0, 1, 12501, -89.900, 0.000, -46.600, 0.000, 0.000, -2.900, 0.0, , , , , , 98, , , 0, 0, 0
37.2865859, -119.5625821, 21.500, 13:31:08.836, 19, 0.00, 0.69, 93, 2.000, 5.700, -45.900, 2, 100, 99, 21, 23087, -20032, 5159, 5548, 8, 14, 1523478668.836, 63, 0, 1024, 1024, 1024, 1024, 0, 6, 3818, 3864, 3859, 3848, 3857, 3843, 0, 1, 12601, -89.900, 0.000, -46.600, 0.000, 0.000, -2.800, 0.0, , , , , , 98, , , 0, 0, 0
37.2865860, -119.5625822, 21.800, 13:31:08.935, 19, 0.00, 0.70, 93, 1.800, 5.500, -45.900, 2, 100, 99, 21, 23087, -20032, 5159, 5548, 8, 14, 1523478668.936, 58, 0, 1024, 1024, 1024, 1024, 0, 6, 3818, 3864, 3859, 3848, 3857, 3843, 0, 1, 12700, -90.000, 0.000, -46.600, 0.000, 0.000, -2.800, 0.0, , , , , , 98, , , 0, 0, 0
37.2865860, -119.5625823, 22.100, 13:31:09.035, 19, 0.00, 0.71, 93, 2.100, 5.400, -45.800, 2, 100, 99, 21, 23087, -20032, 5159, 5548, 8, 14, 1523478669.036, 73, 0, 1024, 1024, 1024, 1024, 0, 6, 3818, 3864, 3859, 3848, 3857, 3843, 0, 1, 12801, -89.900, 0.000, -46.600, 0.000, 0.000, -2.900, 0.0, , , , , , 98, , , 0, 0, 0
37.2865860, -119.5625823, 22.400, 13:31:09.135, 19, 0.00, 0.72, 93, 2.400, 5.600, -45.800, 2, 100, 99, 21, 23087, -20032, 5159, 5548, 8, 14, 1523478669.136, 50, 0, 1024, 1024, 1024, 1024, 0, 6, 3818, 3864, 3859, 3848, 3857, 3843, 0, 1, 12900, -89.900, 0.000, -46.600, 0.000, 0.000, -2.900, 0.0, , , , , , 98, , , 0, 0, 0
37.2865860, -119.5625824, 22.700, 13:31:09.236, 19, 0.00, 0.72, 93, 2.700, 5.600, -45.800, 2, 100, 100, 21, 23028, -19742, 5159, 5548, 8, 14, 1523478669.236, 59, 0, 1024, 1024, 1024, 1024, 0, 6, 3809, 3854, 3839, 3836, 3837, 3842, 0, 1, 13001, -90.000, 0.000, -46.600, 0.000, 0.000, -3.000, 0.0, , , , , , 98, , , 0, 0, 0
37.2865860, -119.5625824, 23.000, 13:31:09.335, 19, 0.00, 0.72, 93, 2.900, 5.400, -45.900, 2, 100, 100, 21, 23028, -19742, 5159, 5548, 8, 14, 1523478669.336, 53, 0, 1024, 1024, 1024, 1024, 0, 6, 3809, 3854, 3839, 3836, 3837, 3842, 0, 1, 13100, -90.000, 0.000, -46.600, 0.000, 0.000, -2.900, 0.0, , , , , , 98, , , 0, 0, 0
37.2865860, -119.5625825, 23.300, 13:31:09.435, 19, 0.00, 0.72, 93, 2.900, 5.200, -45.900, 2, 100, 100, 21, 23028, -19742, 5159, 5548, 8, 14, 1523478669.436, 14, 0, 1024, 1024, 1024, 1024, 0, 6, 3809, 3854, 3839, 3836, 3837, 3842, 0, 1, 13201, -90.000, 0.000, -46.600, 0.000, 0.000, -2.900, 0.0, , , , , , 98, , , 0, 0, 0
37.2865860, -119.5625825, 23.900, 13:31:09.536, 19, 0.00, 0.73, 93, 2.500, 4.900, -46.000, 2, 100, 100, 21, 23028, -19742, 5159, 5548, 8, 14, 1523478669.537, 49, 0, 1024, 1024, 1024, 1024, 0, 6, 3809, 3854, 3839, 3836, 3837, 3842, 0, 1, 13301, -90.000, 0.000, -46.600, 0.000, 0.000, -2.900, 0.0, , , , , , 98, , , 0, 0, 0
37.2865859, -119.5625825, 24.200, 13:31:09.636, 19, 0.00, 0.73, 93, 2.500, 4.900, -46.000, 2, 100, 100, 21, 23028, -19742, 5159, 5548, 8, 14, 1523478669.636, 47, 0, 1024, 1024, 1024, 1024, 0, 6, 3809, 3854, 3839, 3836, 3837, 3842, 0, 1, 13401, -90.000, 0.000, -46.600, 0.000, 0.000, -2.900, 0.0, , , , , , 98, , , 0, 0, 0
37.2865859, -119.5625825, 24.500, 13:31:09.736, 19, 0.00, 0.72, 93, 2.600, 4.700, -46.000, 2, 100, 100, 21, 23028, -19742, 5159, 5548, 8, 14, 1523478669.737, 44, 0, 1024, 1024, 1024, 1024, 0, 6, 3809, 3854, 3839, 3836, 3837, 3842, 0, 1, 13501, -90.000, 0.000, -46.600, 0.000, 0.000, -2.900, 0.0, , , , , , 98, , , 0, 0, 0
37.2865859, -119.5625825, 24.800, 13:31:09.835, 19, 0.00, 0.72, 93, 2.600, 4.700, -45.900, 2, 100, 100, 21, 23028, -19742, 5159, 5548, 8, 14, 1523478669.836, 16, 0, 1024, 1024, 1024, 1024, 0, 6, 3809, 3854, 3839, 3836, 3837, 3842, 0, 1, 13600, -90.000, 0.000, -46.600, 0.000, 0.000, -2.900, 0.0, , , , , , 98, , , 0, 0, 0
37.2865859, -119.5625825, 25.100, 13:31:09.935, 19, 0.00, 0.72, 93, 2.700, 4.600, -45.900, 2, 100, 100, 21, 23028, -19742, 5159, 5548, 8, 14, 1523478669.935, 11, 0, 1024, 1024, 1024, 1024, 0, 6, 3809, 3854, 3839, 3836, 3837, 3842, 0, 1, 13700, -90.000, 0.000, -46.600, 0.000, 0.000, -2.900, 0.0, , , , , , 98, , , 0, 0, 0
37.2865858, -119.5625825, 25.400, 13:31:10.036, 19, 0.00, 0.72, 93, 2.700, 4.700, -45.900, 2, 100, 100, 21, 23028, -19742, 5159, 5548, 8, 14, 1523478670.038, 23, 0, 1024, 1024, 1024, 1024, 0, 6, 3809, 3854, 3839, 3836, 3837, 3842, 0, 1, 13802, -89.900, 0.000, -46.600, 0.000, 0.000, -3.000, 0.0, , , , , , 98, , , 0, 0, 0
37.2865858, -119.5625824, 25.700, 13:31:10.145, 19, 0.00, 0.71, 93, 2.600, 4.900, -45.900, 2, 100, 100, 21, 23006, -20103, 5159, 5548, 8, 14, 1523478670.145, 14, 0, 1024, 1024, 1024, 1024, 0, 6, 3809, 3854, 3839, 3836, 3837, 3842, 0, 1, 13910, -89.900, 0.000, -46.600, 0.000, 0.000, -2.900, 0.0, , , , , , 98, , , 0, 0, 0
37.2865858, -119.5625824, 26.000, 13:31:10.236, 19, 0.00, 0.71, 93, 2.600, 4.800, -45.900, 2, 100, 99, 21, 23006, -20103, 5159, 5548, 8, 14, 1523478670.237, 17, 0, 1024, 1024, 1024, 1024, 0, 6, 3794, 3844, 3843, 3842, 3830, 3834, 0, 1, 14002, -90.000, 0.000, -46.600, 0.000, 0.000, -2.900, 0.0, , , , , , 98, , , 0, 0, 0
37.2865858, -119.5625824, 26.300, 13:31:10.353, 19, 0.00, 0.71, 93, 2.500, 4.700, -46.000, 2, 100, 99, 21, 23006, -20103, 5159, 5548, 8, 14, 1523478670.354, 7, 0, 1024, 1024, 1024, 1024, 0, 6, 3794, 3844, 3843, 3842, 3830, 3834, 0, 1, 14118, -90.000, 0.000, -46.600, 0.000, 0.000, -2.900, 0.0, , , , , , 98, , , 0, 0, 0
37.2865857, -119.5625824, 26.500, 13:31:10.452, 19, 0.00, 0.71, 93, 2.400, 4.700, -45.900, 2, 100, 99, 21, 23006, -20103, 5159, 5548, 8, 14, 1523478670.453, 19, 0, 1024, 1024, 1024, 1024, 0, 6, 3794, 3844, 3843, 3842, 3830, 3834, 0, 1, 14217, -90.000, 0.000, -46.600, 0.000, 0.000, -2.900, 0.0, , , , , , 98, , , 0, 0, 0
37.2865857, -119.5625824, 26.500, 13:31:10.535, 19, 0.00, 0.71, 93, 2.400, 4.700, -45.900, 2, 100, 99, 21, 23006, -20103, 5159, 5548, 8, 14, 1523478670.536, 102, 0, 1024, 1024, 1024, 1024, 0, 6, 3794, 3844, 3843, 3842, 3830, 3834, 0, 1, 14301, -90.000, 0.000, -46.600, 0.000, 0.000, -2.900, 0.0, , , , , , 98, , , 0, 0, 0
37.2865857, -119.5625823, 26.800, 13:31:10.635, 19, 0.00, 0.70, 93, 2.500, 4.500, -45.900, 2, 100, 99, 21, 23006, -20103, 5159, 5548, 8, 14, 1523478670.636, 78, 0, 1024, 1024, 1024, 1024, 0, 6, 3794, 3844, 3843, 3842, 3830, 3834, 0, 1, 14400, -90.000, 0.000, -46.600, 0.000, 0.000, -2.900, 0.0, , , , , , 98, , , 0, 0, 0
37.2865857, -119.5625823, 27.200, 13:31:10.735, 19, 0.00, 0.70, 93, 2.400, 4.600, -45.900, 2, 100, 99, 21, 23006, -20103, 5159, 5548, 8, 14, 1523478670.736, 95, 0, 1024, 1024, 1024, 1024, 0, 6, 3794, 3844, 3843, 3842, 3830, 3834, 0, 1, 14501, -89.900, 0.000, -46.600, 0.000, 0.000, -2.900, 0.0, , , , , , 98, , , 0, 0, 0
37.2865856, -119.5625824, 27.500, 13:31:10.836, 19, 0.00, 0.70, 93, 2.800, 4.900, -45.900, 2, 100, 98, 21, 23006, -20103, 5159, 5548, 8, 14, 1523478670.836, 44, 0, 1024, 1024, 1024, 1024, 0, 6, 3794, 3844, 3843, 3842, 3830, 3834, 0, 1, 14601, -89.900, 0.000, -46.600, 0.000, 0.000, -2.900, 0.0, , , , , , 98, , , 0, 0, 0
37.2865856, -119.5625824, 27.800, 13:31:10.936, 19, 0.00, 0.70, 93, 2.900, 4.900, -45.900, 2, 100, 98, 21, 23006, -20103, 5159, 5548, 8, 14, 1523478670.936, 92, 0, 1024, 1024, 1024, 1024, 0, 6, 3794, 3844, 3843, 3842, 3830, 3834, 0, 1, 14701, -89.900, 0.000, -46.600, 0.000, 0.000, -2.900, 0.0, , , , , , 98, , , 0, 0, 0
37.2865856, -119.5625824, 28.100, 13:31:11.036, 19, 0.00, 0.70, 93, 2.900, 5.000, -45.900, 2, 100, 98, 21, 23006, -20103, 5159, 5548, 8, 14, 1523478671.036, 73, 0, 1024, 1024, 1024, 1024, 0, 6, 3794, 3844, 3843, 3842, 3830, 3834, 0, 1, 14801, -89.900, 0.000, -46.600, 0.000, 0.000, -2.900, 0.0, , , , , , 98, , , 0, 0, 0
37.2865855, -119.5625824, 28.300, 13:31:11.136, 19, 0.00, 0.70, 93, 2.500, 5.100, -46.000, 2, 100, 98, 21, 23006, -20103, 5159, 5548, 8, 14, 1523478671.137, 66, 0, 1024, 1024, 1024, 1024, 0, 6, 3794, 3844, 3843, 3842, 3830, 3834, 0, 1, 14901, -89.900, 0.000, -46.600, 0.000, 0.000, -2.800, 0.0, , , , , , 98, , , 0, 0, 0
37.2865855, -119.5625824, 28.600, 13:31:11.236, 19, 0.00, 0.70, 93, 2.100, 5.100, -46.000, 2, 100, 98, 21, 23042, -19697, 5159, 5548, 8, 14, 1523478671.237, 62, 0, 1024, 1024, 1024, 1024, 0, 6, 3794, 3844, 3843, 3842, 3830, 3834, 0, 1, 15001, -89.900, 0.000, -46.600, 0.000, 0.000, -2.900, 0.0, , , , , , 98, , , 0, 0, 0
37.2865855, -119.5625823, 28.900, 13:31:11.336, 19, 0.00, 0.69, 93, 2.000, 5.400, -46.100, 2, 100, 99, 21, 23042, -19697, 5159, 5548, 8, 14, 1523478671.336, 62, 0, 1024, 1024, 1024, 1024, 0, 6, 3794, 3844, 3843, 3842, 3830, 3834, 0, 1, 15101, -89.900, 0.000, -46.600, 0.000, 0.000, -2.900, 0.0, , , , , , 98, , , 0, 0, 0
37.2865855, -119.5625823, 29.200, 13:31:11.436, 19, 0.00, 0.69, 93, 1.700, 5.300, -46.200, 2, 100, 99, 21, 23042, -19697, 5159, 5548, 8, 14, 1523478671.436, 47, 0, 1024, 1024, 1024, 1024, 0, 6, 3794, 3844, 3843, 3842, 3830, 3834, 0, 1, 15201, -90.000, 0.000, -46.600, 0.000, 0.000, -2.900, 0.0, , , , , , 98, , , 0, 0, 0
37.2865854, -119.5625822, 29.500, 13:31:11.535, 19, 0.00, 0.68, 93, 1.800, 5.100, -46.200, 2, 100, 99, 21, 23042, -19697, 5159, 5548, 8, 14, 1523478671.536, 63, 0, 1024, 1024, 1024, 1024, 0, 6, 3794, 3844, 3843, 3842, 3830, 3834, 0, 1, 15301, -89.900, 0.000, -46.600, 0.000, 0.000, -2.900, 0.0, , , , , , 98, , , 0, 0, 0
37.2865853, -119.5625822, 29.800, 13:31:11.636, 19, 0.00, 0.67, 93, 2.400, 5.100, -46.400, 2, 100, 99, 21, 23042, -19697, 5159, 5548, 8, 14, 1523478671.638, 67, 0, 1024, 1024, 1024, 1024, 0, 6, 3820, 3854, 3841, 3837, 3846, 3821, 0, 1, 15402, -90.000, 0.000, -46.600, 0.000, 0.000, -3.000, 0.0, , , , , , 98, , , 0, 0, 0
37.2865853, -119.5625821, 30.100, 13:31:11.735, 19, 0.10, 0.67, 93, 3.200, 5.000, -46.600, 2, 100, 99, 21, 23042, -19697, 5159, 5548, 8, 14, 1523478671.736, 27, 0, 1024, 1024, 1024, 1024, 0, 6, 3820, 3854, 3841, 3837, 3846, 3821, 0, 1, 15501, -90.000, 0.000, -46.600, -0.100, 0.000, -3.100, 0.0, , , , , , 98, , , 0, 0, 0
37.2865851, -119.5625820, 30.700, 13:31:11.836, 19, 0.00, 0.65, 93, 3.200, 4.100, -46.300, 2, 100, 99, 21, 23042, -19697, 5159, 5548, 8, 14, 1523478671.836, 24, 0, 1024, 1024, 1024, 1024, 0, 6, 3820, 3854, 3841, 3837, 3846, 3821, 0, 1, 15601, -90.000, 0.000, -46.600, 0.000, 0.000, -3.000, 0.0, , , , , , 98, , , 0, 0, 0
37.2865850, -119.5625819, 31.100, 13:31:11.935, 19, 0.00, 0.64, 93, 3.300, 4.200, -45.900, 2, 100, 99, 21, 23042, -19697, 5159, 5548, 8, 14, 1523478671.936, 34, 0, 1024, 1024, 1024, 1024, 0, 6, 3820, 3854, 3841, 3837, 3846, 3821, 0, 1, 15700, -89.900, 0.000, -46.600, 0.000, 0.000, -3.000, 0.0, , , , , , 98, , , 0, 0, 0
37.2865850, -119.5625819, 31.400, 13:31:12.035, 20, 0.00, 0.63, 93, 3.400, 4.200, -45.700, 2, 100, 99, 21, 23042, -19697, 5159, 5548, 8, 14, 1523478672.036, 34, 0, 1024, 1024, 1024, 1024, 0, 6, 3820, 3854, 3841, 3837, 3846, 3821, 0, 1, 15800, -90.000, 0.000, -46.600, 0.000, 0.000, -2.900, 0.0, , , , , , 98, , , 0, 0, 0
37.2865849, -119.5625818, 31.700, 13:31:12.135, 20, 0.00, 0.63, 93, 3.700, 4.300, -45.600, 2, 100, 99, 21, 23042, -19697, 5159, 5548, 8, 14, 1523478672.136, 11, 0, 1024, 1024, 1024, 1024, 0, 6, 3820, 3854, 3841, 3837, 3846, 3821, 0, 1, 15900, -89.900, 0.000, -46.600, 0.000, 0.000, -3.000, 0.0, , , , , , 98, , , 0, 0, 0
37.2865849, -119.5625817, 32.000, 13:31:12.235, 20, 0.00, 0.62, 93, 3.400, 4.400, -45.600, 2, 100, 100, 21, 23042, -19697, 5159, 5548, 8, 14, 1523478672.237, 23, 0, 1024, 1024, 1024, 1024, 0, 6, 3820, 3854, 3841, 3837, 3846, 3821, 0, 1, 16001, -89.900, 0.000, -46.600, 0.000, 0.000, -2.900, 0.0, , , , , , 98, , , 0, 0, 0
37.2865849, -119.5625816, 32.300, 13:31:12.336, 20, 0.00, 0.61, 93, 2.800, 4.600, -45.500, 2, 100, 100, 21, 23042, -19697, 5159, 5548, 8, 14, 1523478672.336, 13, 0, 1024, 1024, 1024, 1024, 0, 6, 3820, 3854, 3841, 3837, 3846, 3821, 0, 1, 16101, -89.900, 0.000, -46.600, 0.000, 0.000, -2.900, 0.0, , , , , , 98, , , 0, 0, 0
37.2865848, -119.5625816, 32.600, 13:31:12.437, 20, 0.00, 0.61, 93, 2.700, 4.500, -45.500, 2, 100, 100, 21, 23042, -19697, 5159, 5548, 8, 14, 1523478672.438, 5, 0, 1024, 1024, 1024, 1024, 0, 6, 3820, 3854, 3841, 3837, 3846, 3821, 0, 1, 16203, -90.000, 0.000, -46.600, 0.000, 0.000, -2.900, 0.0, , , , , , 98, , , 0, 0, 0
37.2865848, -119.5625815, 32.900, 13:31:12.536, 20, 0.00, 0.60, 93, 2.700, 4.100, -45.500, 2, 100, 100, 21, 23042, -19697, 5159, 5548, 8, 14, 1523478672.536, 25, 0, 1024, 1024, 1024, 1024, 0, 6, 3820, 3854, 3841, 3837, 3846, 3821, 0, 1, 16301, -90.000, 0.000, -46.600, 0.000, 0.000, -2.800, 0.0, , , , , , 98, , , 0, 0, 0
37.2865847, -119.5625814, 33.200, 13:31:12.636, 20, 0.00, 0.59, 93, 2.900, 3.900, -45.600, 2, 100, 100, 21, 22878, -20265, 5159, 5548, 8, 14, 1523478672.637, 13, 0, 1024, 1024, 1024, 1024, 0, 6, 3820, 3854, 3841, 3837, 3846, 3821, 0, 1, 16402, -90.000, 0.000, -46.600, 0.000, 0.000, -2.900, 0.0, , , , , , 98, , , 0, 0, 0
37.2865847, -119.5625813, 33.500, 13:31:12.740, 20, 0.00, 0.58, 93, 3.200, 3.800, -45.800, 2, 100, 100, 21, 22878, -20265, 5159, 5548, 8, 14, 1523478672.740, 7, 0, 1024, 1024, 1024, 1024, 0, 6, 3778, 3842, 3817, 3814, 3808, 3817, 0, 1, 16505, -90.000, 0.000, -46.600, 0.000, 0.000, -2.900, 0.0, , , , , , 98, , , 0, 0, 0
37.2865847, -119.5625813, 33.500, 13:31:12.836, 20, 0.00, 0.58, 93, 3.200, 3.800, -45.800, 2, 100, 100, 21, 22878, -20265, 5159, 5548, 8, 14, 1523478672.837, 103, 0, 1024, 1024, 1024, 1024, 0, 6, 3778, 3842, 3817, 3814, 3808, 3817, 0, 1, 16601, -90.000, 0.000, -46.600, 0.000, 0.000, -2.900, 0.0, , , , , , 98, , , 0, 0, 0
37.2865846, -119.5625812, 33.800, 13:31:12.935, 20, 0.00, 0.57, 93, 3.300, 3.600, -45.900, 2, 100, 100, 21, 22878, -20265, 5159, 5548, 8, 14, 1523478672.936, 57, 0, 1024, 1024, 1024, 1024, 0, 6, 3778, 3842, 3817, 3814, 3808, 3817, 0, 1, 16701, -90.000, 0.000, -46.600, 0.000, 0.000, -2.800, 0.0, , , , , , 98, , , 0, 0, 0
37.2865846, -119.5625812, 34.100, 13:31:13.036, 20, 0.00, 0.56, 93, 3.000, 3.800, -45.900, 2, 100, 100, 21, 22878, -20265, 5159, 5548, 8, 14, 1523478673.037, 86, 0, 1024, 1024, 1024, 1024, 0, 6, 3778, 3842, 3817, 3814, 3808, 3817, 0, 1, 16801, -90.000, 0.000, -46.600, 0.000, 0.000, -2.800, 0.0, , , , , , 98, , , 0, 0, 0
37.2865846, -119.5625811, 34.300, 13:31:13.136, 20, 0.00, 0.56, 93, 2.600, 3.800, -45.900, 2, 100, 100, 21, 22878, -20265, 5159, 5548, 8, 14, 1523478673.136, 77, 0, 1024, 1024, 1024, 1024, 0, 6, 3778, 3842, 3817, 3814, 3808, 3817, 0, 1, 16901, -90.000, 0.000, -46.600, 0.000, 0.000, -2.800, 0.0, , , , , , 98, , , 0, 0, 0
37.2865847, -119.5625810, 34.600, 13:31:13.235, 20, 0.00, 0.55, 93, 2.500, 3.800, -45.900, 2, 100, 100, 21, 22878, -20265, 5159, 5548, 8, 14, 1523478673.236, 80, 0, 1024, 1024, 1024, 1024, 0, 6, 3778, 3842, 3817, 3814, 3808, 3817, 0, 1, 17000, -90.000, 0.000, -46.600, 0.000, 0.000, -2.700, 0.0, , , , , , 98, , , 0, 0, 0
37.2865847, -119.5625810, 34.600, 13:31:13.335, 20, 0.00, 0.55, 93, 2.500, 3.800, -45.900, 2, 100, 100, 21, 22878, -20265, 5159, 5548, 8, 14, 1523478673.336, 180, 0, 1024, 1024, 1024, 1024, 0, 6, 3778, 3842, 3817, 3814, 3808, 3817, 0, 1, 17101, -90.000, 0.000, -46.600, 0.000, 0.000, -2.700, 0.0, , , , , , 98, , , 0, 0, 0
37.2865847, -119.5625808, 35.200, 13:31:13.435, 20, 0.00, 0.54, 93, 2.600, 3.700, -45.900, 2, 100, 100, 21, 22878, -20265, 5159, 5548, 8, 14, 1523478673.436, 77, 0, 1024, 1024, 1024, 1024, 0, 6, 3778, 3842, 3817, 3814, 3808, 3817, 0, 1, 17201, -90.000, 0.000, -46.600, 0.000, 0.000, -2.800, 0.0, , , , , , 98, , , 0, 0, 0
37.2865847, -119.5625808, 35.400, 13:31:13.535, 19, 0.00, 0.53, 93, 2.700, 4.000, -45.900, 2, 100, 100, 21, 22878, -20265, 5159, 5548, 8, 14, 1523478673.536, 63, 0, 1024, 1024, 1024, 1024, 0, 6, 3778, 3842, 3817, 3814, 3808, 3817, 0, 1, 17300, -90.000, 0.000, -46.600, 0.000, 0.000, -2.800, 0.0, , , , , , 98, , , 0, 0, 0
37.2865847, -119.5625808, 35.400, 13:31:13.635, 19, 0.00, 0.53, 93, 2.700, 4.000, -45.900, 2, 100, 100, 21, 22878, -20265, 5159, 5548, 8, 14, 1523478673.636, 163, 0, 1024, 1024, 1024, 1024, 0, 6, 3778, 3842, 3817, 3814, 3808, 3817, 0, 1, 17401, -90.000, 0.000, -46.600, 0.000, 0.000, -2.800, 0.0, , , , , , 98, , , 0, 0, 0
37.2865848, -119.5625807, 36.000, 13:31:13.735, 20, 0.00, 0.53, 93, 2.800, 4.500, -46.000, 2, 100, 100, 21, 22982, -19129, 5159, 5548, 8, 14, 1523478673.737, 76, 0, 1024, 1024, 1024, 1024, 0, 6, 3796, 3848, 3819, 3818, 3825, 3815, 0, 1, 17502, -89.900, 0.000, -46.600, 0.000, 0.000, -3.000, 0.0, , , , , , 98, , , 0, 0, 0
37.2865849, -119.5625806, 36.300, 13:31:13.836, 20, 0.00, 0.53, 93, 2.500, 4.800, -46.200, 2, 100, 96, 21, 22982, -19129, 5159, 5548, 8, 14, 1523478673.837, 76, 0, 1024, 1024, 1024, 1024, 0, 6, 3796, 3848, 3819, 3818, 3825, 3815, 0, 1, 17601, -89.900, 0.000, -46.600, 0.000, 0.000, -3.000, 0.0, , , , , , 98, , , 0, 0, 0
37.2865850, -119.5625805, 36.700, 13:31:13.935, 19, 0.00, 0.52, 93, 2.500, 5.100, -46.400, 2, 100, 96, 21, 22982, -19129, 5159, 5548, 8, 14, 1523478673.937, 64, 0, 1024, 1024, 1024, 1024, 0, 6, 3796, 3848, 3819, 3818, 3825, 3815, 0, 1, 17701, -89.900, 0.000, -46.600, 0.000, 0.000, -3.100, 0.0, , , , , , 98, , , 0, 0, 0
37.2865851, -119.5625804, 37.000, 13:31:14.036, 19, 0.00, 0.52, 93, 2.300, 5.100, -46.500, 2, 100, 96, 21, 22982, -19129, 5159, 5548, 8, 14, 1523478674.037, 77, 0, 1024, 1024, 1024, 1024, 0, 6, 3796, 3848, 3819, 3818, 3825, 3815, 0, 1, 17801, -89.900, 0.000, -46.600, 0.000, 0.000, -3.000, 0.0, , , , , , 98, , , 0, 0, 0
37.2865852, -119.5625803, 37.300, 13:31:14.136, 19, 0.00, 0.52, 93, 1.700, 5.200, -46.500, 2, 100, 96, 21, 22982, -19129, 5159, 5548, 8, 14, 1523478674.137, 54, 0, 1024, 1024, 1024, 1024, 0, 6, 3796, 3848, 3819, 3818, 3825, 3815, 0, 1, 17902, -89.900, 0.000, -46.600, 0.000, 0.000, -3.000, 0.0, , , , , , 98, , , 0, 0, 0
37.2865853, -119.5625803, 37.600, 13:31:14.235, 19, 0.00, 0.52, 93, 1.300, 5.200, -46.500, 2, 100, 94, 21, 22982, -19129, 5159, 5548, 8, 14, 1523478674.237, 48, 0, 1024, 1024, 1024, 1024, 0, 6, 3796, 3848, 3819, 3818, 3825, 3815, 0, 1, 18001, -89.900, 0.000, -46.600, 0.000, 0.000, -3.100, 0.0, , , , , , 98, , , 0, 0, 0
37.2865854, -119.5625802, 37.900, 13:31:14.336, 20, 0.00, 0.52, 93, 1.500, 5.100, -46.400, 2, 100, 94, 21, 22982, -19129, 5159, 5548, 8, 14, 1523478674.337, 36, 0, 1024, 1024, 1024, 1024, 0, 6, 3796, 3848, 3819, 3818, 3825, 3815, 0, 1, 18101, -89.900, 0.000, -46.600, 0.000, 0.000, -3.100, 0.0, , , , , , 98, , , 0, 0, 0
37.2865854, -119.5625801, 38.300, 13:31:14.436, 20, 0.00, 0.51, 93, 1.500, 5.300, -46.200, 2, 100, 94, 21, 22982, -19129, 5159, 5548, 8, 14, 1523478674.437, 24, 0, 1024, 1024, 1024, 1024, 0, 6, 3796, 3848, 3819, 3818, 3825, 3815, 0, 1, 18201, -89.900, 0.000, -46.600, 0.000, 0.000, -3.100, 0.0, , , , , , 98, , , 0, 0, 0
37.2865855, -119.5625801, 38.600, 13:31:14.536, 19, 0.00, 0.51, 93, 1.500, 5.300, -46.100, 2, 100, 94, 21, 22982, -19129, 5159, 5548, 8, 14, 1523478674.536, 14, 0, 1024, 1024, 1024, 1024, 0, 6, 3796, 3848, 3819, 3818, 3825, 3815, 0, 1, 18301, -89.900, 0.000, -46.600, 0.000, 0.000, -3.000, 0.0, , , , , , 98, , , 0, 0, 0
37.2865856, -119.5625800, 39.200, 13:31:14.635, 20, 0.00, 0.51, 93, 1.500, 5.000, -45.900, 2, 100, 94, 21, 22694, -21711, 5159, 5548, 8, 14, 1523478674.636, 9, 0, 1024, 1024, 1024, 1024, 0, 6, 3753, 3809, 3782, 3777, 3783, 3790, 0, 1, 18401, -89.900, 0.000, -46.600, 0.000, 0.000, -2.900, 0.0, , , , , , 98, , , 0, 0, 0
37.2865856, -119.5625799, 39.500, 13:31:14.736, 20, 0.00, 0.51, 93, 1.300, 4.600, -45.900, 2, 100, 95, 21, 22694, -21711, 5159, 5548, 8, 14, 1523478674.737, 26, 0, 1024, 1024, 1024, 1024, 0, 6, 3753, 3809, 3782, 3777, 3783, 3790, 0, 1, 18502, -90.000, 0.000, -46.600, 0.000, 0.000, -2.900, 0.0, , , , , , 98, , , 0, 0, 0
37.2865856, -119.5625799, 39.800, 13:31:14.836, 20, 0.00, 0.50, 93, 1.300, 4.600, -46.000, 2, 100, 95, 21, 22694, -21711, 5159, 5548, 8, 14, 1523478674.836, 34, 0, 1024, 1024, 1024, 1024, 0, 6, 3753, 3809, 3782, 3777, 3783, 3790, 0, 1, 18601, -89.900, 0.000, -46.600, 0.000, 0.000, -3.000, 0.0, , , , , , 98, , , 0, 0, 0
37.2865856, -119.5625799, 40.100, 13:31:14.935, 20, 0.00, 0.50, 93, 1.700, 5.000, -46.200, 2, 100, 95, 21, 22694, -21711, 5159, 5548, 8, 14, 1523478674.936, 12, 0, 1024, 1024, 1024, 1024, 0, 6, 3753, 3809, 3782, 3777, 3783, 3790, 0, 1, 18700, -89.900, 0.000, -46.600, 0.000, 0.000, -3.000, 0.0, , , , , , 98, , , 0, 0, 0
37.2865856, -119.5625798, 40.400, 13:31:15.035, 20, 0.00, 0.50, 93, 1.700, 5.300, -46.400, 2, 100, 95, 21, 22694, -21711, 5159, 5548, 8, 14, 1523478675.036, 5, 0, 1024, 1024, 1024, 1024, 0, 6, 3753, 3809, 3782, 3777, 3783, 3790, 0, 1, 18800, -89.900, 0.000, -46.600, 0.000, 0.000, -3.000, 0.0, , , , , , 98, , , 0, 0, 0
37.2865856, -119.5625798, 40.400, 13:31:15.142, 20, 0.00, 0.50, 93, 1.700, 5.300, -46.400, 2, 100, 95, 21, 22694, -21711, 5159, 5548, 8, 14, 1523478675.143, 112, 0, 1024, 1024, 1024, 1024, 0, 6, 3753, 3809, 3782, 3777, 3783, 3790, 0, 1, 18908, -89.900, 0.000, -46.600, 0.000, 0.000, -3.000, 0.0, , , , , , 98, , , 0, 0, 0
37.2865856, -119.5625798, 40.700, 13:31:15.239, 20, 0.00, 0.50, 93, 1.400, 5.100, -46.600, 2, 100, 95, 21, 22694, -21711, 5159, 5548, 8, 14, 1523478675.239, 92, 0, 1024, 1024, 1024, 1024, 0, 6, 3753, 3809, 3782, 3777, 3783, 3790, 0, 1, 19004, -89.900, 0.000, -46.600, 0.000, 0.000, -3.000, 0.0, , , , , , 98, , , 0, 0, 0
37.2865856, -119.5625797, 41.400, 13:31:15.343, 20, 0.00, 0.50, 93, 1.300, 5.100, -46.800, 2, 100, 95, 21, 22694, -21711, 5159, 5548, 8, 14, 1523478675.344, 14, 0, 1024, 1024, 1024, 1024, 0, 6, 3753, 3809, 3782, 3777, 3783, 3790, 0, 1, 19108, -89.900, 0.000, -46.600, 0.000, 0.000, -3.000, 0.0, , , , , , 98, , , 0, 0, 0
37.2865856, -119.5625797, 41.700, 13:31:15.448, 20, 0.00, 0.50, 93, 1.300, 5.100, -46.900, 2, 100, 95, 21, 22694, -21711, 5159, 5548, 8, 14, 1523478675.449, 5, 0, 1024, 1024, 1024, 1024, 0, 6, 3753, 3809, 3782, 3777, 3783, 3790, 0, 1, 19214, -89.900, 0.000, -46.600, 0.000, 0.000, -2.900, 0.0, , , , , , 98, , , 0, 0, 0
37.2865856, -119.5625797, 41.700, 13:31:15.540, 20, 0.00, 0.50, 93, 1.300, 5.100, -46.900, 2, 100, 95, 21, 22694, -21711, 5159, 5548, 8, 14, 1523478675.542, 97, 0, 1024, 1024, 1024, 1024, 0, 6, 3753, 3809, 3782, 3777, 3783, 3790, 0, 1, 19306, -89.900, 0.000, -46.600, 0.000, 0.000, -2.900, 0.0, , , , , , 98, , , 0, 0, 0
37.2865857, -119.5625797, 42.000, 13:31:15.641, 20, 0.00, 0.49, 93, 1.300, 4.900, -47.000, 2, 100, 95, 21, 22694, -21711, 5159, 5548, 8, 14, 1523478675.642, 78, 0, 1024, 1024, 1024, 1024, 0, 6, 3753, 3809, 3782, 3777, 3783, 3790, 0, 1, 19407, -90.000, 0.000, -46.600, 0.000, 0.000, -2.900, 0.0, , , , , , 98, , , 0, 0, 0
37.2865856, -119.5625797, 42.300, 13:31:15.741, 20, 0.00, 0.49, 93, 1.300, 5.000, -47.100, 2, 100, 95, 21, 22881, -19473, 5159, 5548, 8, 14, 1523478675.742, 85, 0, 1024, 1024, 1024, 1024, 0, 6, 3753, 3809, 3782, 3777, 3783, 3790, 0, 1, 19507, -90.000, 0.000, -46.600, 0.000, 0.000, -2.900, 0.0, , , , , , 98, , , 0, 0, 0
37.2865856, -119.5625797, 42.600, 13:31:15.842, 20, 0.00, 0.49, 93, 0.800, 5.000, -47.200, 2, 100, 93, 21, 22881, -19473, 5159, 5548, 8, 14, 1523478675.843, 63, 0, 1024, 1024, 1024, 1024, 0, 6, 3795, 3834, 3820, 3820, 3819, 3804, 0, 1, 19607, -89.900, 0.000, -46.600, 0.000, 0.000, -3.000, 0.0, , , , , , 98, , , 0, 0, 0
37.2865856, -119.5625797, 42.900, 13:31:15.941, 20, 0.00, 0.49, 93, 1.000, 4.700, -47.100, 2, 100, 93, 21, 22881, -19473, 5159, 5548, 8, 14, 1523478675.942, 65, 0, 1024, 1024, 1024, 1024, 0, 6, 3795, 3834, 3820, 3820, 3819, 3804, 0, 1, 19707, -89.900, 0.000, -46.600, 0.000, 0.000, -3.000, 0.0, , , , , , 98, , , 0, 0, 0
37.2865856, -119.5625797, 43.200, 13:31:16.041, 20, 0.00, 0.49, 93, 1.400, 4.600, -46.800, 2, 100, 93, 21, 22881, -19473, 5159, 5548, 8, 14, 1523478676.042, 47, 0, 1024, 1024, 1024, 1024, 0, 6, 3795, 3834, 3820, 3820, 3819, 3804, 0, 1, 19806, -89.900, 0.000, -46.600, 0.000, 0.000, -3.000, 0.0, , , , , , 98, , , 0, 0, 0
37.2865856, -119.5625797, 43.200, 13:31:16.140, 20, 0.00, 0.49, 93, 1.400, 4.600, -46.800, 2, 100, 93, 21, 22881, -19473, 5159, 5548, 8, 14, 1523478676.141, 147, 0, 1024, 1024, 1024, 1024, 0, 6, 3795, 3834, 3820, 3820, 3819, 3804, 0, 1, 19906, -89.900, 0.000, -46.600, 0.000, 0.000, -3.000, 0.0, , , , , , 98, , , 0, 0, 0
37.2865856, -119.5625797, 43.500, 13:31:16.242, 20, 0.00, 0.49, 93, 1.700, 4.800, -46.400, 2, 100, 93, 21, 22881, -19473, 5159, 5548, 8, 14, 1523478676.243, 83, 0, 1024, 1024, 1024, 1024, 0, 6, 3795, 3834, 3820, 3820, 3819, 3804, 0, 1, 20008, -89.900, 0.000, -46.600, 0.000, 0.000, -2.900, 0.0, , , , , , 98, , , 0, 0, 0
37.2865856, -119.5625797, 43.500, 13:31:16.341, 20, 0.00, 0.49, 93, 1.700, 4.800, -46.400, 2, 100, 93, 21, 22881, -19473, 5159, 5548, 8, 14, 1523478676.341, 181, 0, 1024, 1024, 1024, 1024, 0, 6, 3795, 3834, 3820, 3820, 3819, 3804, 0, 1, 20106, -89.900, 0.000, -46.600, 0.000, 0.000, -2.900, 0.0, , , , , , 98, , , 0, 0, 0
37.2865856, -119.5625797, 43.800, 13:31:16.442, 20, 0.00, 0.49, 93, 1.700, 4.900, -46.000, 2, 100, 96, 21, 22881, -19473, 5159, 5548, 8, 14, 1523478676.443, 80, 0, 1024, 1024, 1024, 1024, 0, 6, 3795, 3834, 3820, 3820, 3819, 3804, 0, 1, 20208, -90.000, 0.000, -46.600, 0.000, 0.000, -2.800, 0.0, , , , , , 98, , , 0, 0, 0
37.2865855, -119.5625797, 44.100, 13:31:16.542, 20, 0.00, 0.49, 93, 1.500, 4.700, -45.700, 2, 100, 96, 21, 22881, -19473, 5159, 5548, 8, 14, 1523478676.542, 63, 0, 1024, 1024, 1024, 1024, 0, 6, 3795, 3834, 3820, 3820, 3819, 3804, 0, 1, 20307, -90.000, 0.000, -46.600, 0.000, 0.000, -2.800, 0.0, , , , , , 98, , , 0, 0, 0
37.2865855, -119.5625798, 44.400, 13:31:16.641, 20, 0.00, 0.49, 93, 1.400, 4.400, -45.400, 2, 100, 96, 21, 22881, -19473, 5159, 5548, 8, 14, 1523478676.641, 84, 0, 1024, 1024, 1024, 1024, 0, 6, 3795, 3834, 3820, 3820, 3819, 3804, 0, 1, 20406, -89.900, 0.000, -46.600, 0.000, 0.000, -2.900, 0.0, , , , , , 98, , , 0, 0, 0
37.2865855, -119.5625798, 44.700, 13:31:16.740, 20, 0.00, 0.49, 93, 1.900, 4.600, -45.400, 2, 100, 96, 21, 22881, -19473, 5159, 5548, 8, 14, 1523478676.741, 17, 0, 1024, 1024, 1024, 1024, 0, 6, 3795, 3834, 3820, 3820, 3819, 3804, 0, 1, 20505, -89.900, 0.000, -46.600, 0.000, 0.000, -2.900, 0.0, , , , , , 98, , , 0, 0, 0
37.2865855, -119.5625799, 45.000, 13:31:16.840, 20, 0.00, 0.50, 93, 2.200, 4.900, -45.400, 2, 100, 96, 21, 22972, -18384, 5159, 5548, 8, 14, 1523478676.841, 51, 0, 1024, 1024, 1024, 1024, 0, 6, 3795, 3834, 3820, 3820, 3819, 3804, 0, 1, 20605, -89.900, 0.000, -46.600, 0.000, 0.000, -2.900, 0.0, , , , , , 98, , , 0, 0, 0
37.2865855, -119.5625799, 45.000, 13:31:16.938, 20, 0.00, 0.50, 93, 2.200, 4.900, -45.400, 2, 100, 96, 21, 22972, -18384, 5159, 5548, 8, 14, 1523478676.938, 148, 0, 1024, 1024, 1024, 1024, 0, 6, 3795, 3834, 3820, 3820, 3819, 3804, 0, 1, 20703, -89.900, 0.000, -46.600, 0.000, 0.000, -2.900, 0.0, , , , , , 98, , , 0, 0, 0
37.2865854, -119.5625802, 45.600, 13:31:17.047, 20, 0.00, 0.51, 93, 3.000, 5.400, -45.600, 2, 100, 100, 21, 22972, -18384, 5159, 5548, 8, 14, 1523478677.048, 4, 0, 1024, 1024, 1024, 1024, 0, 6, 3795, 3834, 3820, 3820, 3819, 3804, 0, 1, 20812, -89.900, 0.000, -46.600, 0.000, 0.000, -2.900, 0.0, , , , , , 98, , , 0, 0, 0
37.2865854, -119.5625802, 45.600, 13:31:17.139, 20, 0.00, 0.51, 93, 3.000, 5.400, -45.600, 2, 100, 100, 21, 22972, -18384, 5159, 5548, 8, 14, 1523478677.140, 96, 0, 1024, 1024, 1024, 1024, 0, 6, 3795, 3834, 3820, 3820, 3819, 3804, 0, 1, 20905, -89.900, 0.000, -46.600, 0.000, 0.000, -2.900, 0.0, , , , , , 98, , , 0, 0, 0
37.2865854, -119.5625803, 45.900, 13:31:17.254, 19, 0.00, 0.52, 93, 3.500, 5.800, -45.700, 2, 100, 100, 21, 22972, -18384, 5159, 5548, 8, 14, 1523478677.254, 10, 0, 1024, 1024, 1024, 1024, 0, 6, 3795, 3834, 3820, 3820, 3819, 3804, 0, 1, 21019, -89.900, 0.000, -46.600, 0.000, 0.000, -2.800, 0.0, , , , , , 98, , , 0, 0, 0
37.2865853, -119.5625805, 46.400, 13:31:17.341, 19, 0.00, 0.54, 93, 3.700, 6.200, -45.800, 2, 100, 100, 21, 22972, -18384, 5159, 5548, 8, 14, 1523478677.341, 58, 0, 1024, 1024, 1024, 1024, 0, 6, 3795, 3834, 3820, 3820, 3819, 3804, 0, 1, 21106, -89.900, 0.000, -46.600, 0.000, 0.000, -2.800, 0.0, , , , , , 98, , , 0, 0, 0
37.2865853, -119.5625806, 46.700, 13:31:17.448, 19, 0.00, 0.54, 93, 3.400, 6.000, -45.800, 2, 100, 100, 21, 22972, -18384, 5159, 5548, 8, 14, 1523478677.448, 14, 0, 1024, 1024, 1024, 1024, 0, 6, 3795, 3834, 3820, 3820, 3819, 3804, 0, 1, 21213, -89.900, 0.000, -46.600, 0.000, 0.000, -2.700, 0.0, , , , , , 98, , , 0, 0, 0
37.2865853, -119.5625807, 47.000, 13:31:17.538, 19, 0.00, 0.55, 93, 3.100, 5.600, -45.800, 2, 100, 98, 21, 22972, -18384, 5159, 5548, 8, 14, 1523478677.539, 8, 0, 1024, 1024, 1024, 1024, 0, 6, 3795, 3834, 3820, 3820, 3819, 3804, 0, 1, 21304, -90.000, 0.000, -46.600, 0.000, 0.000, -2.800, 0.0, , , , , , 98, , , 0, 0, 0
