Latitude, Longitude, Altitude (m), Time, Sats, Speed (m/s), Range (m), Battery (%), Roll (deg), Pitch (deg), Yaw (deg), Images, HD Signal (%), RC Signal (%), Battery Temp (C), Battery Voltage (mV), Battery Current (mA), Battery Energy (mAh), Battery Capacity (mAh), Battery Discharges, flyState, timestamp (Unix), LastUpdate (ms), radioChannel, Rc_elevator, Rc_aileron, Rc_throttle, Rc_rudder, Rc_gyro, Dronetype, Battery_Cell1 (mV), Battery_Cell2 (mV), Battery_Cell3 (mV), Battery_Cell4 (mV), Battery_Cell5 (mV), Battery_Cell6 (mV), Video, isFlying, elapsedTime (ms), gimbalPitch (deg), gimbalRoll (deg), gimbalYaw (deg), VelocityX (m/s), VelocityY (m/s), VelocityZ (m/s), GroundSmear (cm), App Version, Aircraft Name, Aircraft Firmware, Aircraft Serial Number, Battery Serial Number, Battery Lifetime (%), App_Tip, App_Warning, CurrentFlightStartingIndex, CurrentFlightLastVisitedWaypoint, PreviousFlightEndingWaypointIndex
37.2865880, -119.5625591, 0.000, 14:27:04.328, 15, 0.00, 0.08, 98, -0.300, 0.400, -45.900, 679, 100, 100, 22, 25803, -2555, 5474, 5586, 6, 11, 1523482024.328, 73, 0, 1024, 1024, 1025, 1024, 0, 6, 4265, 4279, 4139, 4289, 4306, 4273, 0, 1, 3130, -89.900, 0.000, -46.700, 0.000, 0.000, -0.200, 0.0, MapPilot_2.7.4_02272018, Dendroctonus I, 1.3.1.00, 041DDC1887, 1058171200279, 99, DJI_0937.jpg, Starting Mission from Lat/Long: 37.28658/-119.56258 Camera: Zenmuse X3 - Overlap: 90/90 - Active Connection: Yes, 33, 33, 33
37.2865879, -119.5625592, 0.100, 14:27:04.397, 15, 0.00, 0.07, 98, 0.300, 0.000, -45.900, 679, 100, 100, 22, 25803, -2555, 5474, 5586, 6, 11, 1523482024.398, 29, 0, 1024, 1024, 1025, 1024, 0, 6, 4265, 4279, 4139, 4289, 4306, 4273, 0, 1, 3200, -90.000, 0.000, -46.700, 0.000, 0.000, -0.400, 0.0, , , , , , 99, , , 33, 33, 33
37.2865879, -119.5625592, 0.100, 14:27:04.498, 15, 0.00, 0.07, 98, 0.500, 0.000, -45.900, 679, 100, 100, 22, 25697, -3016, 5474, 5586, 6, 11, 1523482024.498, 40, 0, 1024, 1024, 1025, 1024, 0, 6, 4266, 4253, 4253, 4237, 4288, 4263, 0, 1, 3300, -89.900, 0.000, -46.700, 0.000, 0.000, -0.400, 0.0, , , , , , 99, , , 33, 33, 33
37.2865879, -119.5625592, 0.200, 14:27:04.598, 16, 0.00, 0.07, 98, 0.400, -0.200, -46.000, 679, 100, 100, 22, 25697, -3016, 5474, 5586, 6, 11, 1523482024.598, 45, 0, 1024, 1024, 1025, 1024, 0, 6, 4266, 4253, 4253, 4237, 4288, 4263, 0, 1, 3401, -89.900, 0.000, -46.700, 0.000, 0.000, -0.400, 0.0, , , , , , 99, , , 33, 33, 33
37.2865878, -119.5625592, 0.200, 14:27:04.698, 16, 0.00, 0.07, 98, 0.200, -0.300, -46.100, 679, 100, 100, 22, 25697, -3016, 5474, 5586, 6, 11, 1523482024.698, 43, 0, 1024, 1024, 1025, 1024, 0, 6, 4266, 4253, 4253, 4237, 4288, 4263, 0, 1, 3500, -89.900, 0.000, -46.700, 0.000, 0.000, -0.400, 0.0, , , , , , 99, , , 33, 33, 33
37.2865878, -119.5625592, 0.300, 14:27:04.797, 15, 0.00, 0.07, 98, 0.000, -0.200, -46.200, 679, 100, 100, 22, 25697, -3016, 5474, 5586, 6, 11, 1523482024.798, 47, 0, 1024, 1024, 1025, 1024, 0, 6, 4266, 4253, 4253, 4237, 4288, 4263, 0, 1, 3600, -89.900, 0.000, -46.700, 0.000, 0.000, -0.400, 0.0, , , , , , 99, , , 33, 33, 33
37.2865878, -119.5625592, 0.300, 14:27:04.897, 15, 0.00, 0.06, 98, -0.200, -0.100, -46.200, 679, 100, 100, 22, 25697, -3016, 5474, 5586, 6, 11, 1523482024.898, 37, 0, 1024, 1024, 1025, 1024, 0, 6, 4266, 4253, 4253, 4237, 4288, 4263, 0, 1, 3700, -89.900, 0.000, -46.700, 0.000, 0.000, -0.400, 0.0, , , , , , 99, , , 33, 33, 33
37.2865877, -119.5625593, 0.400, 14:27:04.998, 16, 0.00, 0.06, 98, -0.100, 0.200, -46.200, 679, 100, 100, 22, 25697, -3016, 5474, 5586, 6, 11, 1523482024.998, 30, 0, 1024, 1024, 1025, 1024, 0, 6, 4266, 4253, 4253, 4237, 4288, 4263, 0, 1, 3800, -89.900, 0.000, -46.700, 0.000, 0.000, -0.400, 0.0, , , , , , 99, , , 33, 33, 33
37.2865877, -119.5625593, 0.400, 14:27:05.097, 16, 0.00, 0.05, 98, 0.100, 0.300, -46.100, 679, 100, 100, 22, 25697, -3016, 5474, 5586, 6, 11, 1523482025.098, 17, 0, 1024, 1024, 1025, 1024, 0, 6, 4266, 4253, 4253, 4237, 4288, 4263, 0, 1, 3900, -89.900, 0.000, -46.700, 0.000, 0.000, -0.300, 0.0, , , , , , 99, , , 33, 33, 33
37.2865877, -119.5625593, 0.500, 14:27:05.198, 17, 0.00, 0.05, 98, 0.600, 0.200, -45.900, 679, 100, 100, 22, 25697, -3016, 5474, 5586, 6, 11, 1523482025.198, 16, 0, 1024, 1024, 1025, 1024, 0, 6, 4266, 4253, 4253, 4237, 4288, 4263, 0, 1, 4000, -89.900, 0.000, -46.700, 0.000, 0.000, -0.400, 0.0, , , , , , 99, , , 33, 33, 33
37.2865876, -119.5625594, 0.500, 14:27:05.298, 17, 0.00, 0.04, 98, 0.900, 0.100, -45.800, 679, 100, 100, 22, 25697, -3016, 5474, 5586, 6, 11, 1523482025.298, 20, 0, 1024, 1024, 1025, 1024, 0, 6, 4266, 4253, 4253, 4237, 4288, 4263, 0, 1, 4100, -89.900, 0.000, -46.700, 0.000, 0.000, -0.400, 0.0, , , , , , 99, , , 33, 33, 33
37.2865876, -119.5625594, 0.500, 14:27:05.398, 17, 0.00, 0.04, 98, 0.900, 0.100, -45.800, 679, 100, 100, 22, 25697, -3016, 5474, 5586, 6, 11, 1523482025.398, 120, 0, 1024, 1024, 1025, 1024, 0, 6, 4266, 4253, 4253, 4237, 4288, 4263, 0, 1, 4200, -89.900, 0.000, -46.700, 0.000, 0.000, -0.400, 0.0, , , , , , 99, , , 33, 33, 33
37.2865875, -119.5625595, 0.600, 14:27:05.508, 17, 0.00, 0.03, 98, 1.000, 0.000, -45.500, 679, 100, 100, 22, 24570, -13320, 5474, 5586, 6, 11, 1523482025.509, 15, 0, 1024, 1024, 1025, 1024, 0, 6, 4083, 4061, 4057, 4091, 4106, 4078, 0, 1, 4311, -89.900, 0.000, -46.700, 0.000, 0.000, -0.400, 0.0, , , , , , 99, , , 33, 33, 33
37.2865875, -119.5625596, 0.700, 14:27:05.599, 17, 0.00, 0.03, 98, 1.000, 0.000, -45.400, 679, 100, 100, 22, 24570, -13320, 5474, 5586, 6, 11, 1523482025.601, 5, 0, 1024, 1024, 1025, 1024, 0, 6, 4083, 4061, 4057, 4091, 4106, 4078, 0, 1, 4403, -89.900, 0.000, -46.700, 0.000, 0.000, -0.400, 0.0, , , , , , 99, , , 33, 33, 33
37.2865874, -119.5625596, 0.700, 14:27:05.697, 17, 0.00, 0.03, 98, 0.800, 0.000, -45.400, 679, 100, 100, 22, 24570, -13320, 5474, 5586, 6, 11, 1523482025.698, 17, 0, 1024, 1024, 1025, 1024, 0, 6, 4083, 4061, 4057, 4091, 4106, 4078, 0, 1, 4500, -89.900, 0.000, -46.700, 0.000, 0.000, -0.400, 0.0, , , , , , 99, , , 33, 33, 33
37.2865874, -119.5625597, 0.800, 14:27:05.799, 16, 0.00, 0.02, 98, 0.800, 0.200, -45.400, 679, 100, 100, 22, 24570, -13320, 5474, 5586, 6, 11, 1523482025.799, 6, 0, 1024, 1024, 1025, 1024, 0, 6, 4083, 4061, 4057, 4091, 4106, 4078, 0, 1, 4601, -89.900, 0.000, -46.700, 0.000, 0.000, -0.500, 0.0, , , , , , 99, , , 33, 33, 33
37.2865874, -119.5625598, 0.900, 14:27:05.897, 16, 0.00, 0.02, 98, 1.000, 0.300, -45.400, 679, 100, 100, 22, 24570, -13320, 5474, 5586, 6, 11, 1523482025.898, 6, 0, 1024, 1024, 1026, 1024, 0, 6, 4083, 4061, 4057, 4091, 4106, 4078, 0, 1, 4700, -89.900, 0.000, -46.700, 0.000, 0.000, -0.500, 0.0, , , , , , 99, , , 33, 33, 33
37.2865874, -119.5625599, 0.900, 14:27:06.004, 16, 0.00, 0.02, 98, 1.300, 0.300, -45.600, 679, 100, 100, 22, 24570, -13320, 5474, 5586, 6, 14, 1523482026.005, 6, 0, 1024, 1024, 1025, 1024, 0, 6, 4083, 4061, 4057, 4091, 4106, 4078, 0, 1, 4807, -89.900, 0.000, -46.700, 0.000, 0.000, -0.400, 0.0, , , , , , 99, , , 33, 33, 33
37.2865874, -119.5625599, 0.900, 14:27:06.097, 16, 0.00, 0.02, 98, 1.300, 0.300, -45.600, 679, 100, 100, 22, 24570, -13320, 5474, 5586, 6, 14, 1523482026.098, 100, 0, 1024, 1024, 1025, 1024, 0, 6, 4083, 4061, 4057, 4091, 4106, 4078, 0, 1, 4900, -89.900, 0.000, -46.700, 0.000, 0.000, -0.400, 0.0, , , , , , 99, , , 33, 33, 33
37.2865874, -119.5625599, 1.000, 14:27:06.197, 16, 0.00, 0.02, 98, 1.400, 0.400, -45.700, 679, 100, 100, 22, 24570, -13320, 5474, 5586, 6, 14, 1523482026.198, 75, 0, 1024, 1024, 1025, 1024, 0, 6, 4083, 4061, 4057, 4091, 4106, 4078, 0, 1, 5000, -89.900, 0.000, -46.700, 0.000, 0.000, -0.300, 0.0, , , , , , 99, , , 33, 33, 33
37.2865874, -119.5625599, 1.000, 14:27:06.298, 17, 0.00, 0.02, 98, 1.300, 0.300, -45.800, 679, 100, 100, 22, 24570, -13320, 5474, 5586, 6, 14, 1523482026.298, 79, 0, 1024, 1024, 1026, 1024, 0, 6, 4083, 4061, 4057, 4091, 4106, 4078, 0, 1, 5100, -89.900, 0.000, -46.700, 0.000, 0.000, -0.200, 0.0, , , , , , 99, , , 33, 33, 33
37.2865874, -119.5625599, 1.000, 14:27:06.397, 17, 0.00, 0.02, 98, 1.000, 0.200, -45.800, 679, 100, 100, 22, 24570, -13320, 5474, 5586, 6, 14, 1523482026.398, 51, 0, 1024, 1024, 1025, 1024, 0, 6, 4083, 4061, 4057, 4091, 4106, 4078, 0, 1, 5200, -89.900, 0.000, -46.700, 0.000, 0.000, -0.200, 0.0, , , , , , 99, , , 33, 33, 33
37.2865875, -119.5625599, 1.100, 14:27:06.497, 16, 0.00, 0.01, 98, 0.700, 0.100, -45.800, 679, 100, 100, 22, 24179, -15855, 5474, 5586, 6, 14, 1523482026.498, 77, 0, 1024, 1024, 1025, 1024, 0, 6, 4034, 4012, 4006, 4025, 4044, 4031, 0, 1, 5300, -89.900, 0.000, -46.700, 0.000, 0.000, -0.300, 0.0, , , , , , 99, , , 33, 33, 33
37.2865875, -119.5625600, 1.100, 14:27:06.597, 16, 0.00, 0.01, 98, 0.500, 0.100, -45.800, 679, 100, 100, 22, 24179, -15855, 5474, 5586, 6, 14, 1523482026.598, 76, 0, 1024, 1024, 1025, 1024, 0, 6, 4034, 4012, 4006, 4025, 4044, 4031, 0, 1, 5400, -89.900, 0.000, -46.700, 0.000, 0.000, -0.400, 0.0, , , , , , 99, , , 33, 33, 33
37.2865875, -119.5625600, 1.200, 14:27:06.697, 17, 0.00, 0.01, 98, 0.500, 0.300, -45.700, 679, 100, 100, 22, 24179, -15855, 5474, 5586, 6, 14, 1523482026.698, 49, 0, 1024, 1024, 1025, 1024, 0, 6, 4034, 4012, 4006, 4025, 4044, 4031, 0, 1, 5500, -89.900, 0.000, -46.700, 0.000, 0.000, -0.500, 0.0, , , , , , 99, , , 33, 33, 33
37.2865876, -119.5625600, 1.300, 14:27:06.798, 17, 0.00, 0.01, 98, 0.400, 0.400, -45.600, 679, 100, 100, 22, 24179, -15855, 5474, 5586, 6, 14, 1523482026.798, 49, 0, 1024, 1024, 1025, 1024, 0, 6, 4034, 4012, 4006, 4025, 4044, 4031, 0, 1, 5600, -89.900, 0.000, -46.700, 0.000, 0.000, -0.700, 0.0, , , , , , 99, , , 33, 33, 33
37.2865876, -119.5625600, 1.400, 14:27:06.897, 18, 0.00, 0.01, 98, 0.400, 0.400, -45.500, 679, 100, 100, 22, 24179, -15855, 5474, 5586, 6, 14, 1523482026.898, 65, 0, 1024, 1024, 1025, 1024, 0, 6, 4034, 4012, 4006, 4025, 4044, 4031, 0, 1, 5700, -89.900, 0.000, -46.700, 0.000, 0.000, -0.900, 0.0, , , , , , 99, , , 33, 33, 33
37.2865875, -119.5625601, 1.600, 14:27:06.997, 18, 0.00, 0.03, 98, 0.900, 0.500, -45.300, 679, 100, 100, 22, 24179, -15855, 5474, 5586, 6, 14, 1523482026.998, 30, 0, 1024, 1024, 1025, 1024, 0, 6, 4034, 4012, 4006, 4025, 4044, 4031, 0, 1, 5800, -89.900, 0.000, -46.700, 0.000, 0.000, -1.400, 0.0, , , , , , 99, , , 33, 33, 33
37.2865875, -119.5625601, 1.800, 14:27:07.097, 18, 0.00, 0.02, 98, 1.200, 0.400, -45.300, 679, 100, 100, 22, 24179, -15855, 5474, 5586, 6, 14, 1523482027.098, 67, 0, 1024, 1024, 1025, 1024, 0, 6, 4034, 4012, 4006, 4025, 4044, 4031, 0, 1, 5900, -89.900, 0.000, -46.700, 0.000, 0.000, -1.500, 0.0, , , , , , 99, , , 33, 33, 33
37.2865875, -119.5625600, 1.900, 14:27:07.197, 17, 0.00, 0.02, 98, 0.900, 0.100, -45.400, 679, 100, 100, 22, 24179, -15855, 5474, 5586, 6, 14, 1523482027.198, 54, 0, 1024, 1024, 1026, 1024, 0, 6, 4034, 4012, 4006, 4025, 4044, 4031, 0, 1, 6000, -89.900, 0.000, -46.700, 0.000, 0.000, -1.700, 0.0, , , , , , 99, , , 33, 33, 33
37.2865874, -119.5625600, 2.100, 14:27:07.297, 17, 0.00, 0.02, 98, 0.700, -0.100, -45.500, 679, 100, 100, 22, 24179, -15855, 5474, 5586, 6, 14, 1523482027.298, 43, 0, 1024, 1024, 1025, 1024, 0, 6, 4034, 4012, 4006, 4025, 4044, 4031, 0, 1, 6100, -90.000, 0.000, -46.700, 0.000, 0.000, -2.000, 0.0, , , , , , 99, , , 33, 33, 33
37.2865874, -119.5625600, 2.400, 14:27:07.397, 17, 0.00, 0.02, 98, 0.700, -0.200, -45.700, 679, 100, 100, 22, 24179, -15855, 5474, 5586, 6, 14, 1523482027.398, 37, 0, 1024, 1024, 1025, 1024, 0, 6, 4034, 4012, 4006, 4025, 4044, 4031, 0, 1, 6200, -90.000, 0.000, -46.700, 0.000, 0.000, -2.200, 0.0, , , , , , 99, , , 33, 33, 33
37.2865873, -119.5625601, 2.600, 14:27:07.497, 17, 0.00, 0.03, 98, 0.700, -0.100, -45.900, 679, 100, 100, 22, 24046, -17368, 5474, 5586, 6, 14, 1523482027.498, 21, 0, 1024, 1024, 1025, 1024, 0, 6, 4034, 4012, 4006, 4025, 4044, 4031, 0, 1, 6300, -89.900, 0.000, -46.700, 0.000, 0.000, -2.500, 0.0, , , , , , 99, , , 33, 33, 33
37.2865873, -119.5625601, 2.900, 14:27:07.597, 16, 0.00, 0.04, 98, 0.900, 0.000, -46.100, 679, 100, 100, 22, 24046, -17368, 5474, 5586, 6, 14, 1523482027.598, 21, 0, 1024, 1024, 1025, 1024, 0, 6, 4034, 4012, 4006, 4025, 4044, 4031, 0, 1, 6400, -89.900, 0.000, -46.700, 0.000, 0.000, -2.700, 0.0, , , , , , 99, , , 33, 33, 33
37.2865872, -119.5625601, 3.200, 14:27:07.698, 16, 0.00, 0.05, 98, 1.300, 0.300, -46.300, 679, 100, 100, 22, 24046, -17368, 5474, 5586, 6, 14, 1523482027.698, 23, 0, 1024, 1024, 1025, 1024, 0, 6, 4034, 4012, 4006, 4025, 4044, 4031, 0, 1, 6500, -89.900, 0.000, -46.700, 0.000, 0.000, -2.900, 0.0, , , , , , 99, , , 33, 33, 33
37.2865871, -119.5625600, 3.500, 14:27:07.798, 18, 0.00, 0.06, 98, 1.600, 0.300, -46.500, 679, 100, 100, 22, 24046, -17368, 5474, 5586, 6, 14, 1523482027.798, 15, 0, 1024, 1024, 1025, 1024, 0, 6, 4034, 4012, 4006, 4025, 4044, 4031, 0, 1, 6600, -89.900, 0.000, -46.700, 0.000, 0.000, -2.900, 0.0, , , , , , 99, , , 33, 33, 33
37.2865870, -119.5625599, 3.800, 14:27:07.897, 18, 0.00, 0.06, 98, 1.600, 0.100, -46.500, 679, 100, 100, 22, 24046, -17368, 5474, 5586, 6, 14, 1523482027.898, 22, 0, 1024, 1024, 1025, 1024, 0, 6, 4017, 3984, 3946, 3988, 3990, 3992, 0, 1, 6700, -89.900, 0.000, -46.700, 0.000, 0.000, -3.000, 0.0, , , , , , 99, , , 33, 33, 33
37.2865870, -119.5625598, 4.100, 14:27:07.997, 17, 0.00, 0.07, 98, 1.300, -0.200, -46.400, 679, 100, 100, 22, 24046, -17368, 5474, 5586, 6, 14, 1523482027.998, 9, 0, 1024, 1024, 1025, 1024, 0, 6, 4017, 3984, 3946, 3988, 3990, 3992, 0, 1, 6800, -90.000, 0.000, -46.700, 0.000, 0.000, -3.100, 0.0, , , , , , 99, , , 33, 33, 33
37.2865869, -119.5625599, 4.400, 14:27:08.097, 17, 0.00, 0.07, 98, 1.100, -0.300, -46.300, 679, 100, 100, 22, 24046, -17368, 5474, 5586, 6, 14, 1523482028.098, 11, 0, 1024, 1024, 1025, 1024, 0, 6, 4017, 3984, 3946, 3988, 3990, 3992, 0, 1, 6900, -90.000, 0.000, -46.700, 0.000, 0.000, -3.200, 0.0, , , , , , 99, , , 33, 33, 33
37.2865869, -119.5625599, 4.400, 14:27:08.198, 17, 0.00, 0.07, 98, 1.100, -0.300, -46.300, 679, 100, 100, 22, 24046, -17368, 5474, 5586, 6, 14, 1523482028.198, 111, 0, 1024, 1024, 1025, 1024, 0, 6, 4017, 3984, 3946, 3988, 3990, 3992, 0, 1, 7000, -90.000, 0.000, -46.700, 0.000, 0.000, -3.200, 0.0, , , , , , 99, , , 33, 33, 33
37.2865870, -119.5625599, 4.800, 14:27:08.298, 19, 0.00, 0.07, 98, 1.200, -0.200, -46.100, 679, 100, 100, 22, 24046, -17368, 5474, 5586, 6, 14, 1523482028.298, 93, 0, 1024, 1024, 1025, 1024, 0, 6, 4017, 3984, 3946, 3988, 3990, 3992, 0, 1, 7101, -89.900, 0.000, -46.700, 0.000, 0.000, -3.200, 0.0, , , , , , 99, , , 33, 33, 33
37.2865871, -119.5625599, 5.100, 14:27:08.397, 19, 0.00, 0.06, 98, 1.200, 0.000, -45.900, 679, 100, 100, 22, 24046, -17368, 5474, 5586, 6, 14, 1523482028.398, 75, 0, 1024, 1024, 1025, 1024, 0, 6, 4017, 3984, 3946, 3988, 3990, 3992, 0, 1, 7200, -89.900, 0.000, -46.700, 0.000, 0.000, -3.300, 0.0, , , , , , 99, , , 33, 33, 33
37.2865871, -119.5625599, 5.500, 14:27:08.497, 19, 0.00, 0.05, 98, 1.100, 0.200, -45.800, 679, 100, 100, 22, 24046, -17368, 5474, 5586, 6, 14, 1523482028.498, 91, 0, 1024, 1024, 1025, 1024, 0, 6, 4017, 3984, 3946, 3988, 3990, 3992, 0, 1, 7300, -89.900, 0.000, -46.700, 0.000, 0.000, -3.300, 0.0, , , , , , 99, , , 33, 33, 33
37.2865872, -119.5625599, 5.900, 14:27:08.597, 19, 0.00, 0.05, 98, 1.000, 0.300, -45.800, 679, 100, 100, 22, 24046, -17368, 5474, 5586, 6, 14, 1523482028.598, 61, 0, 1024, 1024, 1025, 1024, 0, 6, 4017, 3984, 3946, 3988, 3990, 3992, 0, 1, 7400, -89.900, 0.000, -46.700, 0.000, 0.000, -3.300, 0.0, , , , , , 99, , , 33, 33, 33
37.2865872, -119.5625599, 6.200, 14:27:08.697, 18, 0.00, 0.04, 98, 1.000, 0.300, -45.800, 679, 100, 100, 22, 24046, -17368, 5474, 5586, 6, 14, 1523482028.698, 74, 0, 1024, 1024, 1025, 1024, 0, 6, 4017, 3984, 3946, 3988, 3990, 3992, 0, 1, 7500, -89.900, 0.000, -46.700, 0.000, 0.000, -3.200, 0.0, , , , , , 99, , , 33, 33, 33
37.2865873, -119.5625600, 6.500, 14:27:08.797, 18, 0.00, 0.04, 98, 1.000, 0.300, -45.800, 679, 100, 100, 22, 24046, -17368, 5474, 5586, 6, 14, 1523482028.798, 71, 0, 1024, 1024, 1025, 1024, 0, 6, 4017, 3984, 3946, 3988, 3990, 3992, 0, 1, 7600, -89.900, 0.000, -46.700, 0.000, 0.000, -3.100, 0.0, , , , , , 99, , , 33, 33, 33
37.2865873, -119.5625601, 6.900, 14:27:08.898, 16, 0.00, 0.03, 98, 1.000, 0.600, -45.800, 679, 100, 100, 22, 24046, -17368, 5474, 5586, 6, 14, 1523482028.898, 65, 0, 1024, 1024, 1025, 1024, 0, 6, 4017, 3984, 3946, 3988, 3990, 3992, 0, 1, 7700, -89.900, 0.000, -46.700, 0.000, 0.000, -3.100, 0.0, , , , , , 99, , , 33, 33, 33
37.2865874, -119.5625599, 7.200, 14:27:08.998, 16, 0.00, 0.02, 98, 0.900, 0.700, -45.800, 679, 100, 100, 22, 23415, -23895, 5474, 5586, 6, 14, 1523482028.998, 69, 0, 1024, 1024, 1025, 1024, 0, 6, 3907, 3899, 3870, 3893, 3908, 3906, 0, 1, 7800, -89.900, 0.000, -46.700, 0.000, 0.000, -3.100, 0.0, , , , , , 99, , , 33, 33, 33
37.2865875, -119.5625599, 7.500, 14:27:09.098, 19, 0.00, 0.01, 98, 0.800, 0.600, -45.800, 679, 100, 100, 22, 23415, -23895, 5474, 5586, 6, 14, 1523482029.098, 61, 0, 1024, 1024, 1025, 1024, 0, 6, 3907, 3899, 3870, 3893, 3908, 3906, 0, 1, 7900, -89.900, 0.000, -46.700, 0.000, 0.000, -3.100, 0.0, , , , , , 99, , , 33, 33, 33
37.2865876, -119.5625600, 8.200, 14:27:09.197, 18, 0.00, 0.01, 98, 0.900, 0.400, -46.000, 679, 100, 100, 22, 23415, -23895, 5474, 5586, 6, 14, 1523482029.198, 42, 0, 1024, 1024, 1025, 1024, 0, 6, 3907, 3899, 3870, 3893, 3908, 3906, 0, 1, 8000, -89.900, 0.000, -46.700, 0.000, 0.000, -3.100, 0.0, , , , , , 99, , , 33, 33, 33
37.2865876, -119.5625600, 8.200, 14:27:09.297, 18, 0.00, 0.01, 98, 0.900, 0.400, -46.000, 679, 100, 100, 22, 23415, -23895, 5474, 5586, 6, 14, 1523482029.298, 142, 0, 1024, 1024, 1025, 1024, 0, 6, 3907, 3899, 3870, 3893, 3908, 3906, 0, 1, 8100, -89.900, 0.000, -46.700, 0.000, 0.000, -3.100, 0.0, , , , , , 99, , , 33, 33, 33
37.2865878, -119.5625601, 8.800, 14:27:09.397, 17, 0.00, 0.03, 98, 0.700, 0.600, -46.100, 679, 100, 100, 22, 23415, -23895, 5474, 5586, 6, 14, 1523482029.398, 34, 0, 1024, 1024, 1025, 1024, 0, 6, 3907, 3899, 3870, 3893, 3908, 3906, 0, 1, 8200, -89.900, 0.000, -46.700, 0.000, 0.000, -3.100, 0.0, , , , , , 99, , , 33, 33, 33
37.2865879, -119.5625601, 9.100, 14:27:09.497, 17, 0.00, 0.04, 98, 0.600, 0.700, -46.100, 679, 100, 100, 22, 23415, -23895, 5474, 5586, 6, 14, 1523482029.498, 24, 0, 1024, 1024, 1025, 1024, 0, 6, 3907, 3899, 3870, 3893, 3908, 3906, 0, 1, 8300, -89.900, 0.000, -46.700, 0.000, 0.000, -3.000, 0.0, , , , , , 99, , , 33, 33, 33
37.2865880, -119.5625601, 9.400, 14:27:09.597, 19, 0.00, 0.05, 98, 0.500, 0.900, -46.000, 679, 100, 100, 22, 23415, -23895, 5474, 5586, 6, 14, 1523482029.598, 37, 0, 1024, 1024, 1025, 1024, 0, 6, 3907, 3899, 3870, 3893, 3908, 3906, 0, 1, 8400, -89.900, 0.000, -46.700, 0.000, 0.000, -3.000, 0.0, , , , , , 99, , , 33, 33, 33
37.2865880, -119.5625602, 9.700, 14:27:09.699, 19, 0.00, 0.06, 98, 0.500, 0.900, -45.900, 679, 100, 100, 22, 23415, -23895, 5474, 5586, 6, 14, 1523482029.699, 5, 0, 1024, 1024, 1025, 1024, 0, 6, 3907, 3899, 3870, 3893, 3908, 3906, 0, 1, 8502, -89.900, 0.000, -46.700, 0.000, 0.000, -3.000, 0.0, , , , , , 99, , , 33, 33, 33
37.2865880, -119.5625602, 9.700, 14:27:09.797, 19, 0.00, 0.06, 98, 0.500, 0.900, -45.900, 679, 100, 100, 22, 23415, -23895, 5474, 5586, 6, 14, 1523482029.798, 103, 0, 1024, 1024, 1025, 1024, 0, 6, 3907, 3899, 3870, 3893, 3908, 3906, 0, 1, 8600, -89.900, 0.000, -46.700, 0.000, 0.000, -3.000, 0.0, , , , , , 99, , , 33, 33, 33
37.2865881, -119.5625603, 10.000, 14:27:09.897, 19, 0.00, 0.07, 98, 0.600, 1.100, -45.900, 679, 100, 100, 22, 23415, -23895, 5474, 5586, 6, 14, 1523482029.898, 36, 0, 1024, 1024, 1025, 1024, 0, 6, 3907, 3899, 3870, 3893, 3908, 3906, 0, 1, 8700, -89.900, 0.000, -46.700, 0.000, 0.000, -3.000, 0.0, , , , , , 99, , , 33, 33, 33
37.2865882, -119.5625603, 10.400, 14:27:09.998, 19, 0.00, 0.08, 98, 0.700, 1.100, -45.900, 679, 100, 100, 22, 23793, -18059, 5418, 5586, 6, 14, 1523482029.998, 52, 0, 1024, 1024, 1025, 1024, 0, 6, 3978, 3940, 3955, 3955, 3985, 3968, 0, 1, 8800, -89.900, 0.000, -46.700, 0.000, 0.000, -3.000, 0.0, , , , , , 99, , , 33, 33, 33
37.2865882, -119.5625604, 10.700, 14:27:10.098, 19, 0.00, 0.08, 98, 0.700, 1.100, -45.900, 679, 100, 100, 22, 23793, -18059, 5418, 5586, 6, 14, 1523482030.098, 73, 0, 1024, 1024, 1025, 1024, 0, 6, 3978, 3940, 3955, 3955, 3985, 3968, 0, 1, 8900, -89.900, 0.000, -46.700, 0.000, 0.000, -3.000, 0.0, , , , , , 99, , , 33, 33, 33
37.2865883, -119.5625604, 11.000, 14:27:10.201, 19, 0.00, 0.09, 98, 0.600, 1.000, -45.800, 679, 100, 100, 22, 23793, -18059, 5418, 5586, 6, 14, 1523482030.202, 6, 0, 1024, 1024, 1025, 1024, 0, 6, 3978, 3940, 3955, 3955, 3985, 3968, 0, 1, 9004, -89.900, 0.000, -46.700, 0.000, 0.000, -3.000, 0.0, , , , , , 99, , , 33, 33, 33
37.2865883, -119.5625604, 11.000, 14:27:10.297, 19, 0.00, 0.09, 98, 0.600, 1.000, -45.800, 679, 100, 100, 22, 23793, -18059, 5418, 5586, 6, 14, 1523482030.298, 103, 0, 1024, 1024, 1025, 1024, 0, 6, 3978, 3940, 3955, 3955, 3985, 3968, 0, 1, 9100, -89.900, 0.000, -46.700, 0.000, 0.000, -3.000, 0.0, , , , , , 99, , , 33, 33, 33
37.2865883, -119.5625604, 11.300, 14:27:10.405, 18, 0.00, 0.10, 98, 0.500, 0.900, -45.700, 679, 100, 100, 22, 23793, -18059, 5418, 5586, 6, 14, 1523482030.406, 12, 0, 1024, 1024, 1025, 1024, 0, 6, 3978, 3940, 3955, 3955, 3985, 3968, 0, 1, 9208, -89.900, 0.000, -46.700, 0.000, 0.000, -2.900, 0.0, , , , , , 99, , , 33, 33, 33
37.2865885, -119.5625604, 11.600, 14:27:10.497, 18, 0.00, 0.11, 98, 0.400, 0.900, -45.500, 679, 100, 100, 22, 23793, -18059, 5418, 5586, 6, 14, 1523482030.498, 5, 0, 1024, 1024, 1025, 1024, 0, 6, 3978, 3940, 3955, 3955, 3985, 3968, 0, 1, 9300, -89.900, 0.000, -46.700, 0.000, 0.000, -2.900, 0.0, , , , , , 99, , , 33, 33, 33
37.2865885, -119.5625604, 11.600, 14:27:10.598, 18, 0.00, 0.11, 98, 0.400, 0.900, -45.500, 679, 100, 100, 22, 23793, -18059, 5418, 5586, 6, 14, 1523482030.598, 105, 0, 1024, 1024, 1025, 1024, 0, 6, 3978, 3940, 3955, 3955, 3985, 3968, 0, 1, 9400, -89.900, 0.000, -46.700, 0.000, 0.000, -2.900, 0.0, , , , , , 99, , , 33, 33, 33
37.2865886, -119.5625605, 11.900, 14:27:10.697, 19, 0.00, 0.12, 97, 0.300, 1.300, -45.400, 679, 100, 100, 22, 23793, -18059, 5418, 5586, 6, 14, 1523482030.698, 67, 0, 1024, 1024, 1025, 1024, 0, 6, 3978, 3940, 3955, 3955, 3985, 3968, 0, 1, 9500, -89.900, 0.000, -46.700, 0.000, 0.000, -2.900, 0.0, , , , , , 99, , , 33, 33, 33
37.2865886, -119.5625604, 12.200, 14:27:10.797, 19, 0.00, 0.12, 97, 0.200, 1.300, -45.300, 679, 100, 99, 22, 23793, -18059, 5418, 5586, 6, 14, 1523482030.798, 86, 0, 1024, 1024, 1025, 1024, 0, 6, 3978, 3940, 3955, 3955, 3985, 3968, 0, 1, 9600, -89.900, 0.000, -46.700, 0.000, 0.000, -2.900, 0.0, , , , , , 99, , , 33, 33, 33
37.2865886, -119.5625604, 12.500, 14:27:10.897, 18, 0.00, 0.13, 97, 0.100, 1.300, -45.300, 679, 100, 99, 22, 23793, -18059, 5418, 5586, 6, 14, 1523482030.898, 33, 0, 1024, 1024, 1025, 1024, 0, 6, 3978, 3940, 3955, 3955, 3985, 3968, 0, 1, 9700, -89.900, 0.000, -46.700, 0.000, 0.000, -2.900, 0.0, , , , , , 99, , , 33, 33, 33
37.2865887, -119.5625605, 12.800, 14:27:10.997, 18, 0.00, 0.13, 97, 0.000, 1.300, -45.300, 679, 100, 99, 22, 23793, -18059, 5418, 5586, 6, 14, 1523482030.998, 17, 0, 1024, 1024, 1025, 1024, 0, 6, 3978, 3940, 3955, 3955, 3985, 3968, 0, 1, 9800, -89.900, 0.000, -46.700, 0.000, 0.000, -3.000, 0.0, , , , , , 99, , , 33, 33, 33
37.2865887, -119.5625605, 12.800, 14:27:11.098, 18, 0.00, 0.13, 97, 0.000, 1.300, -45.300, 679, 100, 99, 22, 23793, -18059, 5418, 5586, 6, 14, 1523482031.098, 117, 0, 1024, 1024, 1025, 1024, 0, 6, 3978, 3940, 3955, 3955, 3985, 3968, 0, 1, 9900, -89.900, 0.000, -46.700, 0.000, 0.000, -3.000, 0.0, , , , , , 99, , , 33, 33, 33
37.2865887, -119.5625605, 13.400, 14:27:11.200, 19, 0.00, 0.14, 97, 0.200, 1.400, -45.300, 679, 100, 99, 22, 23781, -17794, 5418, 5586, 6, 14, 1523482031.200, 4, 0, 1024, 1024, 1025, 1024, 0, 6, 3978, 3940, 3955, 3955, 3985, 3968, 0, 1, 10003, -89.900, 0.000, -46.700, 0.000, 0.000, -2.900, 0.0, , , , , , 99, , , 33, 33, 33
37.2865887, -119.5625605, 13.700, 14:27:11.297, 19, 0.00, 0.14, 97, 0.300, 1.300, -45.400, 679, 100, 98, 22, 23781, -17794, 5418, 5586, 6, 14, 1523482031.298, 31, 0, 1024, 1024, 1025, 1024, 0, 6, 3966, 3942, 3954, 3964, 3982, 3967, 0, 1, 10100, -89.900, 0.000, -46.700, 0.000, 0.000, -2.900, 0.0, , , , , , 99, , , 33, 33, 33
37.2865887, -119.5625604, 14.300, 14:27:11.407, 19, 0.00, 0.13, 97, 0.400, 1.000, -45.600, 679, 100, 98, 22, 23781, -17794, 5418, 5586, 6, 14, 1523482031.408, 13, 0, 1024, 1024, 1025, 1024, 0, 6, 3966, 3942, 3954, 3964, 3982, 3967, 0, 1, 10210, -89.900, 0.000, -46.700, 0.000, 0.000, -2.900, 0.0, , , , , , 99, , , 33, 33, 33
37.2865886, -119.5625604, 14.600, 14:27:11.497, 19, 0.00, 0.13, 97, 0.700, 0.800, -45.700, 679, 100, 98, 22, 23781, -17794, 5418, 5586, 6, 14, 1523482031.498, 44, 0, 1024, 1024, 1025, 1024, 0, 6, 3966, 3942, 3954, 3964, 3982, 3967, 0, 1, 10300, -89.900, 0.000, -46.700, 0.000, 0.000, -2.900, 0.0, , , , , , 99, , , 33, 33, 33
37.2865885, -119.5625603, 15.500, 14:27:11.598, 18, 0.00, 0.10, 97, 0.600, 0.600, -45.900, 679, 100, 95, 22, 23781, -17794, 5418, 5586, 6, 14, 1523482031.598, 25, 0, 1024, 1024, 1025, 1024, 0, 6, 3966, 3942, 3954, 3964, 3982, 3967, 0, 1, 10400, -89.900, 0.000, -46.700, 0.000, 0.000, -2.900, 0.0, , , , , , 99, , , 33, 33, 33
37.2865884, -119.5625602, 15.800, 14:27:11.698, 18, 0.00, 0.10, 97, 0.600, 0.600, -45.900, 679, 100, 95, 22, 23781, -17794, 5418, 5586, 6, 14, 1523482031.698, 28, 0, 1024, 1024, 1025, 1024, 0, 6, 3966, 3942, 3954, 3964, 3982, 3967, 0, 1, 10500, -89.900, 0.000, -46.700, 0.000, 0.000, -3.000, 0.0, , , , , , 99, , , 33, 33, 33
37.2865884, -119.5625601, 16.100, 14:27:11.797, 19, 0.00, 0.10, 97, 0.700, 0.500, -45.800, 679, 100, 95, 22, 23781, -17794, 5418, 5586, 6, 14, 1523482031.798, 29, 0, 1024, 1024, 1025, 1024, 0, 6, 3966, 3942, 3954, 3964, 3982, 3967, 0, 1, 10600, -90.000, 0.000, -46.700, 0.000, 0.000, -2.900, 0.0, , , , , , 99, , , 33, 33, 33
37.2865884, -119.5625601, 16.100, 14:27:11.898, 19, 0.00, 0.10, 97, 0.700, 0.500, -45.800, 679, 100, 95, 22, 23781, -17794, 5418, 5586, 6, 14, 1523482031.898, 129, 0, 1024, 1024, 1025, 1024, 0, 6, 3966, 3942, 3954, 3964, 3982, 3967, 0, 1, 10700, -90.000, 0.000, -46.700, 0.000, 0.000, -2.900, 0.0, , , , , , 99, , , 33, 33, 33
37.2865884, -119.5625599, 16.700, 14:27:11.998, 19, 0.00, 0.09, 97, 0.300, 0.500, -45.400, 679, 100, 96, 22, 23748, -17765, 5418, 5586, 6, 14, 1523482031.998, 23, 0, 1024, 1024, 1025, 1024, 0, 6, 3966, 3935, 3945, 3957, 3977, 3968, 0, 1, 10800, -89.900, 0.000, -46.700, 0.000, 0.000, -2.900, 0.0, , , , , , 99, , , 33, 33, 33
37.2865883, -119.5625599, 17.000, 14:27:12.097, 19, 0.00, 0.08, 97, 0.300, 0.600, -45.200, 679, 100, 96, 22, 23748, -17765, 5418, 5586, 6, 14, 1523482032.098, 36, 0, 1024, 1024, 1025, 1024, 0, 6, 3966, 3935, 3945, 3957, 3977, 3968, 0, 1, 10900, -89.900, 0.000, -46.700, 0.000, 0.000, -2.900, 0.0, , , , , , 99, , , 33, 33, 33
37.2865882, -119.5625599, 17.300, 14:27:12.223, 19, 0.00, 0.07, 97, 0.700, 0.600, -45.300, 679, 100, 96, 22, 23748, -17765, 5418, 5586, 6, 14, 1523482032.223, 11, 0, 1024, 1024, 1025, 1024, 0, 6, 3966, 3935, 3945, 3957, 3977, 3968, 0, 1, 11025, -89.900, 0.000, -46.700, 0.000, 0.000, -2.900, 0.0, , , , , , 99, , , 33, 33, 33
37.2865882, -119.5625599, 17.600, 14:27:12.298, 19, 0.00, 0.07, 97, 0.900, 0.500, -45.400, 679, 100, 96, 22, 23748, -17765, 5418, 5586, 6, 14, 1523482032.298, 18, 0, 1024, 1024, 1025, 1024, 0, 6, 3966, 3935, 3945, 3957, 3977, 3968, 0, 1, 11100, -89.900, 0.000, -46.700, 0.000, 0.000, -3.000, 0.0, , , , , , 99, , , 33, 33, 33
37.2865881, -119.5625599, 17.900, 14:27:12.398, 19, 0.00, 0.06, 97, 1.100, 0.500, -45.500, 679, 100, 96, 22, 23748, -17765, 5418, 5586, 6, 14, 1523482032.398, 20, 0, 1024, 1024, 1025, 1024, 0, 6, 3966, 3935, 3945, 3957, 3977, 3968, 0, 1, 11200, -89.900, 0.000, -46.700, 0.000, 0.000, -2.900, 0.0, , , , , , 99, , , 33, 33, 33
37.2865881, -119.5625599, 17.900, 14:27:12.498, 19, 0.00, 0.06, 97, 1.100, 0.500, -45.500, 679, 100, 96, 22, 23748, -17765, 5418, 5586, 6, 14, 1523482032.498, 120, 0, 1024, 1024, 1025, 1024, 0, 6, 3966, 3935, 3945, 3957, 3977, 3968, 0, 1, 11300, -89.900, 0.000, -46.700, 0.000, 0.000, -2.900, 0.0, , , , , , 99, , , 33, 33, 33
37.2865880, -119.5625599, 18.200, 14:27:12.598, 19, 0.00, 0.05, 97, 1.100, 0.600, -45.500, 679, 100, 95, 22, 23748, -17765, 5418, 5586, 6, 14, 1523482032.598, 94, 0, 1024, 1024, 1025, 1024, 0, 6, 3966, 3935, 3945, 3957, 3977, 3968, 0, 1, 11400, -89.900, 0.000, -46.700, 0.000, 0.000, -2.900, 0.0, , , , , , 99, , , 33, 33, 33
37.2865880, -119.5625599, 18.500, 14:27:12.697, 19, 0.00, 0.04, 97, 1.200, 0.800, -45.400, 679, 100, 95, 22, 23748, -17765, 5418, 5586, 6, 14, 1523482032.698, 84, 0, 1024, 1024, 1025, 1024, 0, 6, 3966, 3935, 3945, 3957, 3977, 3968, 0, 1, 11500, -89.900, 0.000, -46.700, 0.000, 0.000, -2.900, 0.0, , , , , , 99, , , 33, 33, 33
37.2865879, -119.5625600, 18.800, 14:27:12.798, 19, 0.00, 0.04, 97, 1.300, 0.800, -45.400, 679, 100, 95, 22, 23748, -17765, 5418, 5586, 6, 14, 1523482032.798, 83, 0, 1024, 1024, 1025, 1024, 0, 6, 3966, 3935, 3945, 3957, 3977, 3968, 0, 1, 11600, -89.900, 0.000, -46.700, 0.000, 0.000, -2.900, 0.0, , , , , , 99, , , 33, 33, 33
37.2865879, -119.5625600, 19.100, 14:27:12.898, 19, 0.00, 0.03, 97, 1.400, 0.900, -45.300, 679, 100, 95, 22, 23748, -17765, 5418, 5586, 6, 14, 1523482032.898, 72, 0, 1024, 1024, 1026, 1024, 0, 6, 3966, 3935, 3945, 3957, 3977, 3968, 0, 1, 11700, -89.900, 0.000, -46.700, 0.000, 0.000, -2.900, 0.0, , , , , , 99, , , 33, 33, 33
37.2865878, -119.5625601, 19.400, 14:27:12.998, 19, 0.00, 0.03, 97, 1.600, 1.000, -45.300, 679, 100, 95, 22, 23742, -17757, 5418, 5586, 6, 14, 1523482032.998, 97, 0, 1024, 1024, 1025, 1024, 0, 6, 3966, 3935, 3945, 3957, 3977, 3968, 0, 1, 11800, -89.900, 0.000, -46.700, 0.000, 0.000, -2.900, 0.0, , , , , , 99, , , 33, 33, 33
37.2865878, -119.5625601, 19.400, 14:27:13.097, 19, 0.00, 0.03, 97, 1.600, 1.000, -45.300, 679, 100, 98, 22, 23742, -17757, 5418, 5586, 6, 14, 1523482033.098, 197, 0, 1024, 1024, 1025, 1024, 0, 6, 3966, 3935, 3945, 3957, 3977, 3968, 0, 1, 11900, -89.900, 0.000, -46.700, 0.000, 0.000, -2.900, 0.0, , , , , , 99, , , 33, 33, 33
37.2865878, -119.5625601, 20.000, 14:27:13.197, 19, 0.00, 0.03, 97, 1.800, 1.200, -45.300, 679, 100, 98, 22, 23742, -17757, 5418, 5586, 6, 14, 1523482033.198, 81, 0, 1024, 1024, 1025, 1024, 0, 6, 3966, 3935, 3945, 3957, 3977, 3968, 0, 1, 12000, -89.900, 0.000, -46.700, 0.000, 0.000, -3.000, 0.0, , , , , , 99, , , 33, 33, 33
37.2865878, -119.5625601, 20.300, 14:27:13.297, 19, 0.00, 0.03, 97, 1.700, 1.400, -45.500, 679, 100, 98, 22, 23742, -17757, 5418, 5586, 6, 14, 1523482033.298, 86, 0, 1024, 1024, 1025, 1024, 0, 6, 3966, 3935, 3945, 3957, 3977, 3968, 0, 1, 12100, -89.900, 0.000, -46.700, 0.000, 0.000, -3.000, 0.0, , , , , , 99, , , 33, 33, 33
37.2865878, -119.5625602, 20.600, 14:27:13.398, 19, 0.00, 0.03, 97, 1.600, 1.200, -45.700, 679, 100, 98, 22, 23742, -17757, 5418, 5586, 6, 14, 1523482033.399, 61, 0, 1024, 1024, 1025, 1024, 0, 6, 3966, 3935, 3945, 3957, 3977, 3968, 0, 1, 12201, -89.900, 0.000, -46.700, 0.000, 0.000, -3.000, 0.0, , , , , , 99, , , 33, 33, 33
37.2865877, -119.5625602, 20.900, 14:27:13.499, 19, 0.00, 0.03, 97, 1.400, 1.200, -46.100, 679, 100, 98, 22, 23742, -17757, 5418, 5586, 6, 14, 1523482033.500, 57, 0, 1024, 1024, 1026, 1024, 0, 6, 3958, 3930, 3947, 3956, 3968, 3971, 0, 1, 12302, -89.900, 0.000, -46.700, 0.000, 0.000, -2.900, 0.0, , , , , , 99, , , 33, 33, 33
37.2865877, -119.5625603, 21.500, 14:27:13.597, 19, 0.00, 0.04, 97, 1.800, 1.100, -46.200, 679, 100, 99, 22, 23742, -17757, 5418, 5586, 6, 14, 1523482033.598, 57, 0, 1024, 1024, 1025, 1024, 0, 6, 3958, 3930, 3947, 3956, 3968, 3971, 0, 1, 12401, -89.900, 0.000, -46.700, 0.000, 0.000, -2.900, 0.0, , , , , , 99, , , 33, 33, 33
37.2865876, -119.5625604, 21.800, 14:27:13.698, 19, 0.00, 0.05, 97, 2.100, 1.300, -46.000, 679, 100, 99, 22, 23742, -17757, 5418, 5586, 6, 14, 1523482033.698, 57, 0, 1024, 1024, 1025, 1024, 0, 6, 3958, 3930, 3947, 3956, 3968, 3971, 0, 1, 12501, -89.900, 0.000, -46.700, 0.000, 0.000, -2.900, 0.0, , , , , , 99, , , 33, 33, 33
37.2865876, -119.5625605, 22.100, 14:27:13.797, 19, 0.00, 0.05, 97, 2.300, 1.600, -45.800, 679, 100, 99, 22, 23742, -17757, 5418, 5586, 6, 14, 1523482033.798, 23, 0, 1024, 1024, 1025, 1024, 0, 6, 3958, 3930, 3947, 3956, 3968, 3971, 0, 1, 12600, -89.900, 0.000, -46.700, 0.000, 0.000, -3.000, 0.0, , , , , , 99, , , 33, 33, 33
37.2865876, -119.5625606, 22.500, 14:27:13.898, 19, 0.00, 0.06, 97, 2.300, 1.600, -45.700, 679, 100, 99, 22, 23742, -17757, 5418, 5586, 6, 14, 1523482033.898, 23, 0, 1024, 1024, 1025, 1024, 0, 6, 3958, 3930, 3947, 3956, 3968, 3971, 0, 1, 12700, -89.900, 0.000, -46.700, 0.000, 0.000, -3.000, 0.0, , , , , , 99, , , 33, 33, 33
37.2865876, -119.5625606, 22.800, 14:27:13.997, 19, 0.00, 0.07, 97, 2.200, 1.600, -45.600, 679, 100, 98, 22, 23742, -17757, 5418, 5586, 6, 14, 1523482033.998, 31, 0, 1024, 1024, 1025, 1024, 0, 6, 3958, 3930, 3947, 3956, 3968, 3971, 0, 1, 12800, -89.900, 0.000, -46.700, 0.000, 0.000, -2.900, 0.0, , , , , , 99, , , 33, 33, 33
37.2865876, -119.5625607, 23.000, 14:27:14.098, 19, 0.00, 0.07, 97, 2.000, 1.700, -45.600, 679, 100, 98, 22, 23742, -17757, 5418, 5586, 6, 14, 1523482034.098, 24, 0, 1024, 1024, 1025, 1024, 0, 6, 3958, 3930, 3947, 3956, 3968, 3971, 0, 1, 12900, -89.900, 0.000, -46.700, 0.000, 0.000, -2.800, 0.0, , , , , , 99, , , 33, 33, 33
37.2865876, -119.5625607, 23.300, 14:27:14.197, 19, 0.00, 0.08, 97, 1.800, 1.700, -45.600, 679, 100, 98, 22, 23742, -17757, 5418, 5586, 6, 14, 1523482034.198, 22, 0, 1024, 1024, 1025, 1024, 0, 6, 3958, 3930, 3947, 3956, 3968, 3971, 0, 1, 13000, -89.900, 0.000, -46.700, 0.000, 0.000, -2.900, 0.0, , , , , , 99, , , 33, 33, 33
37.2865876, -119.5625607, 23.300, 14:27:14.298, 19, 0.00, 0.08, 97, 1.800, 1.700, -45.600, 679, 100, 98, 22, 23742, -17757, 5418, 5586, 6, 14, 1523482034.298, 122, 0, 1024, 1024, 1025, 1024, 0, 6, 3958, 3930, 3947, 3956, 3968, 3971, 0, 1, 13100, -89.900, 0.000, -46.700, 0.000, 0.000, -2.900, 0.0, , , , , , 99, , , 33, 33, 33
37.2865877, -119.5625609, 23.900, 14:27:14.410, 19, 0.00, 0.09, 97, 2.100, 1.800, -45.700, 679, 100, 98, 22, 23711, -17598, 5418, 5586, 6, 14, 1523482034.411, 3, 0, 1024, 1024, 1025, 1024, 0, 6, 3958, 3930, 3947, 3956, 3968, 3971, 0, 1, 13213, -89.900, 0.000, -46.700, 0.000, 0.000, -2.900, 0.0, , , , , , 99, , , 33, 33, 33
37.2865877, -119.5625610, 24.200, 14:27:14.498, 19, 0.00, 0.10, 97, 2.300, 1.800, -45.800, 679, 100, 97, 22, 23711, -17598, 5418, 5586, 6, 14, 1523482034.498, 16, 0, 1024, 1024, 1025, 1024, 0, 6, 3964, 3942, 3938, 3947, 3978, 3953, 0, 1, 13300, -89.900, 0.000, -46.700, 0.000, 0.000, -2.900, 0.0, , , , , , 99, , , 33, 33, 33
37.2865877, -119.5625610, 24.200, 14:27:14.598, 19, 0.00, 0.10, 97, 2.300, 1.800, -45.800, 679, 100, 97, 22, 23711, -17598, 5418, 5586, 6, 14, 1523482034.598, 116, 0, 1024, 1024, 1025, 1024, 0, 6, 3964, 3942, 3938, 3947, 3978, 3953, 0, 1, 13400, -89.900, 0.000, -46.700, 0.000, 0.000, -2.900, 0.0, , , , , , 99, , , 33, 33, 33
37.2865877, -119.5625610, 24.200, 14:27:14.698, 19, 0.00, 0.10, 97, 2.300, 1.800, -45.800, 679, 100, 97, 22, 23711, -17598, 5418, 5586, 6, 14, 1523482034.698, 216, 0, 1024, 1024, 1025, 1024, 0, 6, 3964, 3942, 3938, 3947, 3978, 3953, 0, 1, 13500, -89.900, 0.000, -46.700, 0.000, 0.000, -2.900, 0.0, , , , , , 99, , , 33, 33, 33
37.2865878, -119.5625613, 25.100, 14:27:14.799, 19, 0.00, 0.13, 97, 2.100, 2.000, -45.600, 679, 100, 97, 22, 23711, -17598, 5418, 5586, 6, 14, 1523482034.799, 5, 0, 1024, 1024, 1025, 1024, 0, 6, 3964, 3942, 3938, 3947, 3978, 3953, 0, 1, 13601, -89.900, 0.000, -46.700, 0.000, 0.000, -2.900, 0.0, , , , , , 99, , , 33, 33, 33
37.2865878, -119.5625613, 25.100, 14:27:14.898, 19, 0.00, 0.13, 97, 2.100, 2.000, -45.600, 679, 100, 97, 22, 23711, -17598, 5418, 5586, 6, 14, 1523482034.898, 104, 0, 1024, 1024, 1025, 1024, 0, 6, 3964, 3942, 3938, 3947, 3978, 3953, 0, 1, 13700, -89.900, 0.000, -46.700, 0.000, 0.000, -2.900, 0.0, , , , , , 99, , , 33, 33, 33
37.2865878, -119.5625614, 25.400, 14:27:14.998, 19, 0.00, 0.13, 97, 2.200, 2.200, -45.500, 679, 100, 97, 22, 23711, -17598, 5418, 5586, 6, 14, 1523482034.998, 97, 0, 1024, 1024, 1025, 1024, 0, 6, 3964, 3942, 3938, 3947, 3978, 3953, 0, 1, 13800, -89.900, 0.000, -46.700, 0.000, 0.000, -2.900, 0.0, , , , , , 99, , , 33, 33, 33
37.2865878, -119.5625615, 25.700, 14:27:15.098, 19, 0.00, 0.14, 97, 2.300, 2.400, -45.500, 679, 100, 96, 22, 23711, -17598, 5418, 5586, 6, 14, 1523482035.098, 75, 0, 1024, 1024, 1025, 1024, 0, 6, 3964, 3942, 3938, 3947, 3978, 3953, 0, 1, 13900, -89.900, 0.000, -46.700, 0.000, 0.000, -2.900, 0.0, , , , , , 99, , , 33, 33, 33
37.2865878, -119.5625615, 26.000, 14:27:15.197, 19, 0.00, 0.15, 97, 2.100, 2.500, -45.600, 679, 100, 96, 22, 23711, -17598, 5418, 5586, 6, 14, 1523482035.198, 71, 0, 1024, 1024, 1025, 1024, 0, 6, 3964, 3942, 3938, 3947, 3978, 3953, 0, 1, 14000, -89.900, 0.000, -46.700, 0.000, 0.000, -2.900, 0.0, , , , , , 99, , , 33, 33, 33
37.2865878, -119.5625615, 26.000, 14:27:15.298, 19, 0.00, 0.15, 97, 2.100, 2.500, -45.600, 679, 100, 96, 22, 23711, -17598, 5418, 5586, 6, 14, 1523482035.298, 171, 0, 1024, 1024, 1025, 1024, 0, 6, 3964, 3942, 3938, 3947, 3978, 3953, 0, 1, 14100, -89.900, 0.000, -46.700, 0.000, 0.000, -2.900, 0.0, , , , , , 99, , , 33, 33, 33
37.2865879, -119.5625617, 26.600, 14:27:15.398, 19, 0.00, 0.16, 97, 1.900, 2.800, -45.300, 679, 100, 96, 22, 23711, -17598, 5418, 5586, 6, 14, 1523482035.398, 63, 0, 1024, 1024, 1025, 1024, 0, 6, 3964, 3942, 3938, 3947, 3978, 3953, 0, 1, 14200, -89.900, 0.000, -46.700, 0.000, 0.000, -2.900, 0.0, , , , , , 99, , , 33, 33, 33
37.2865879, -119.5625617, 26.800, 14:27:15.498, 19, 0.00, 0.17, 97, 2.300, 2.700, -45.200, 679, 100, 96, 22, 23746, -16909, 5418, 5586, 6, 14, 1523482035.498, 55, 0, 1024, 1024, 1025, 1024, 0, 6, 3969, 3927, 3943, 3957, 3976, 3950, 0, 1, 14300, -89.900, 0.000, -46.700, 0.000, 0.000, -2.900, 0.0, , , , , , 99, , , 33, 33, 33
37.2865879, -119.5625618, 27.100, 14:27:15.598, 19, 0.00, 0.18, 97, 2.600, 2.800, -45.200, 679, 100, 96, 22, 23746, -16909, 5418, 5586, 6, 14, 1523482035.598, 54, 0, 1024, 1024, 1025, 1024, 0, 6, 3969, 3927, 3943, 3957, 3976, 3950, 0, 1, 14400, -89.900, 0.000, -46.700, 0.000, 0.000, -2.900, 0.0, , , , , , 99, , , 33, 33, 33
37.2865878, -119.5625619, 27.400, 14:27:15.698, 19, 0.00, 0.18, 97, 2.700, 3.000, -45.300, 679, 100, 96, 22, 23746, -16909, 5418, 5586, 6, 14, 1523482035.698, 51, 0, 1024, 1024, 1025, 1024, 0, 6, 3969, 3927, 3943, 3957, 3976, 3950, 0, 1, 14500, -89.900, 0.000, -46.700, 0.000, 0.000, -3.000, 0.0, , , , , , 99, , , 33, 33, 33
37.2865878, -119.5625621, 28.000, 14:27:15.798, 19, 0.00, 0.20, 97, 3.300, 2.800, -45.600, 679, 100, 96, 22, 23746, -16909, 5418, 5586, 6, 14, 1523482035.798, 55, 0, 1024, 1024, 1025, 1024, 0, 6, 3969, 3927, 3943, 3957, 3976, 3950, 0, 1, 14600, -89.900, 0.000, -46.700, 0.000, 0.000, -2.900, 0.0, , , , , , 99, , , 33, 33, 33
37.2865878, -119.5625622, 28.300, 14:27:15.898, 19, 0.00, 0.21, 97, 3.500, 2.800, -45.600, 679, 100, 96, 22, 23746, -16909, 5418, 5586, 6, 14, 1523482035.898, 56, 0, 1024, 1024, 1025, 1024, 0, 6, 3969, 3927, 3943, 3957, 3976, 3950, 0, 1, 14700, -89.900, 0.000, -46.700, 0.000, 0.000, -3.000, 0.0, , , , , , 99, , , 33, 33, 33
37.2865878, -119.5625623, 28.600, 14:27:15.998, 19, 0.00, 0.22, 97, 3.500, 2.800, -45.600, 679, 100, 96, 22, 23746, -16909, 5418, 5586, 6, 14, 1523482035.998, 61, 0, 1024, 1024, 1025, 1024, 0, 6, 3969, 3927, 3943, 3957, 3976, 3950, 0, 1, 14800, -89.900, 0.000, -46.700, 0.000, 0.000, -3.000, 0.0, , , , , , 99, , , 33, 33, 33
37.2865878, -119.5625624, 29.000, 14:27:16.097, 19, 0.00, 0.22, 97, 3.500, 2.900, -45.700, 679, 100, 97, 22, 23746, -16909, 5418, 5586, 6, 14, 1523482036.098, 33, 0, 1024, 1024, 1025, 1024, 0, 6, 3969, 3927, 3943, 3957, 3976, 3950, 0, 1, 14900, -89.900, 0.000, -46.700, 0.000, 0.000, -3.000, 0.0, , , , , , 99, , , 33, 33, 33
37.2865878, -119.5625624, 29.300, 14:27:16.198, 19, 0.00, 0.23, 97, 3.400, 3.000, -45.800, 679, 100, 97, 22, 23746, -16909, 5418, 5586, 6, 14, 1523482036.198, 33, 0, 1024, 1024, 1025, 1024, 0, 6, 3969, 3927, 3943, 3957, 3976, 3950, 0, 1, 15000, -89.900, 0.000, -46.700, 0.000, 0.000, -2.900, 0.0, , , , , , 99, , , 33, 33, 33
37.2865878, -119.5625625, 29.500, 14:27:16.298, 19, 0.00, 0.23, 97, 3.100, 3.000, -45.800, 679, 100, 97, 22, 23746, -16909, 5418, 5586, 6, 14, 1523482036.298, 25, 0, 1024, 1024, 1025, 1024, 0, 6, 3969, 3927, 3943, 3957, 3976, 3950, 0, 1, 15101, -89.900, 0.000, -46.700, 0.000, 0.000, -2.900, 0.0, , , , , , 99, , , 33, 33, 33
37.2865878, -119.5625625, 29.800, 14:27:16.398, 19, 0.00, 0.23, 97, 3.100, 2.900, -45.800, 679, 100, 97, 22, 23627, -17972, 5418, 5586, 6, 14, 1523482036.398, 27, 0, 1024, 1024, 1025, 1024, 0, 6, 3945, 3922, 3919, 3932, 3964, 3937, 0, 1, 15200, -89.900, 0.000, -46.700, 0.000, 0.000, -3.000, 0.0, , , , , , 99, , , 33, 33, 33
37.2865878, -119.5625625, 30.100, 14:27:16.498, 19, 0.00, 0.23, 97, 3.000, 2.800, -45.900, 679, 100, 99, 22, 23627, -17972, 5418, 5586, 6, 14, 1523482036.498, 16, 0, 1024, 1024, 1025, 1024, 0, 6, 3945, 3922, 3919, 3932, 3964, 3937, 0, 1, 15300, -89.900, 0.000, -46.700, 0.000, 0.000, -2.900, 0.0, , , , , , 99, , , 33, 33, 33
37.2865878, -119.5625625, 30.400, 14:27:16.598, 19, 0.00, 0.23, 97, 3.100, 2.600, -46.000, 679, 100, 99, 22, 23627, -17972, 5418, 5586, 6, 14, 1523482036.598, 17, 0, 1024, 1024, 1025, 1024, 0, 6, 3945, 3922, 3919, 3932, 3964, 3937, 0, 1, 15400, -89.900, 0.000, -46.700, 0.000, 0.000, -3.000, 0.0, , , , , , 99, , , 33, 33, 33
37.2865878, -119.5625625, 30.700, 14:27:16.703, 19, 0.00, 0.23, 97, 3.100, 2.500, -46.100, 679, 100, 99, 22, 23627, -17972, 5418, 5586, 6, 14, 1523482036.704, 8, 0, 1024, 1024, 1025, 1024, 0, 6, 3945, 3922, 3919, 3932, 3964, 3937, 0, 1, 15506, -89.900, 0.000, -46.700, 0.000, 0.000, -3.000, 0.0, , , , , , 99, , , 33, 33, 33
37.2865878, -119.5625624, 31.000, 14:27:16.798, 19, 0.00, 0.23, 97, 2.800, 2.500, -46.100, 679, 100, 99, 22, 23627, -17972, 5418, 5586, 6, 14, 1523482036.799, 5, 0, 1024, 1024, 1025, 1024, 0, 6, 3945, 3922, 3919, 3932, 3964, 3937, 0, 1, 15601, -89.900, 0.000, -46.700, 0.000, 0.000, -3.000, 0.0, , , , , , 99, , , 33, 33, 33
37.2865878, -119.5625624, 31.300, 14:27:16.898, 19, 0.00, 0.22, 97, 2.300, 2.500, -45.900, 679, 100, 99, 22, 23627, -17972, 5418, 5586, 6, 14, 1523482036.898, 12, 0, 1024, 1024, 1025, 1024, 0, 6, 3945, 3922, 3919, 3932, 3964, 3937, 0, 1, 15700, -89.900, 0.000, -46.700, 0.000, 0.000, -3.000, 0.0, , , , , , 99, , , 33, 33, 33
37.2865878, -119.5625624, 31.300, 14:27:16.998, 19, 0.00, 0.22, 97, 2.300, 2.500, -45.900, 679, 100, 99, 22, 23627, -17972, 5418, 5586, 6, 14, 1523482036.998, 112, 0, 1024, 1024, 1025, 1024, 0, 6, 3945, 3922, 3919, 3932, 3964, 3937, 0, 1, 15800, -89.900, 0.000, -46.700, 0.000, 0.000, -3.000, 0.0, , , , , , 99, , , 33, 33, 33
37.2865879, -119.5625623, 31.600, 14:27:17.098, 19, 0.00, 0.21, 97, 1.700, 2.400, -45.600, 679, 100, 100, 22, 23627, -17972, 5418, 5586, 6, 14, 1523482037.098, 76, 0, 1024, 1024, 1025, 1024, 0, 6, 3945, 3922, 3919, 3932, 3964, 3937, 0, 1, 15900, -89.900, 0.000, -46.700, 0.000, 0.000, -3.000, 0.0, , , , , , 99, , , 33, 33, 33
37.2865879, -119.5625622, 31.900, 14:27:17.198, 19, 0.00, 0.21, 97, 1.400, 2.400, -45.300, 679, 100, 100, 22, 23627, -17972, 5418, 5586, 6, 14, 1523482037.198, 74, 0, 1024, 1024, 1025, 1024, 0, 6, 3945, 3922, 3919, 3932, 3964, 3937, 0, 1, 16000, -89.900, 0.000, -46.700, 0.000, 0.000, -2.900, 0.0, , , , , , 99, , , 33, 33, 33
37.2865880, -119.5625621, 32.200, 14:27:17.298, 19, 0.00, 0.20, 97, 1.100, 2.300, -44.900, 679, 100, 100, 22, 23627, -17972, 5418, 5586, 6, 14, 1523482037.298, 76, 0, 1024, 1024, 1025, 1024, 0, 6, 3945, 3922, 3919, 3932, 3964, 3937, 0, 1, 16100, -89.900, 0.000, -46.700, 0.000, 0.000, -3.000, 0.0, , , , , , 99, , , 33, 33, 33
37.2865880, -119.5625620, 32.500, 14:27:17.398, 19, 0.00, 0.19, 97, 1.000, 2.600, -44.800, 679, 100, 100, 22, 23627, -17972, 5418, 5586, 6, 14, 1523482037.398, 81, 0, 1024, 1024, 1025, 1024, 0, 6, 3945, 3922, 3919, 3932, 3964, 3937, 0, 1, 16201, -89.900, 0.000, -46.700, 0.000, 0.000, -3.000, 0.0, , , , , , 99, , , 33, 33, 33
37.2865880, -119.5625620, 32.800, 14:27:17.498, 19, 0.00, 0.19, 97, 1.400, 2.900, -44.900, 679, 100, 100, 23, 23614, -18041, 5418, 5586, 6, 14, 1523482037.498, 73, 0, 1024, 1024, 1025, 1024, 0, 6, 3945, 3915, 3917, 3928, 3956, 3938, 0, 1, 16300, -89.900, 0.000, -46.700, 0.000, 0.000, -3.000, 0.0, , , , , , 99, , , 33, 33, 33
37.2865880, -119.5625619, 33.100, 14:27:17.598, 19, 0.00, 0.19, 97, 2.400, 3.000, -45.100, 679, 100, 100, 23, 23614, -18041, 5418, 5586, 6, 14, 1523482037.598, 68, 0, 1024, 1024, 1025, 1024, 0, 6, 3945, 3915, 3917, 3928, 3956, 3938, 0, 1, 16400, -89.900, 0.000, -46.700, 0.000, 0.000, -3.000, 0.0, , , , , , 99, , , 33, 33, 33
37.2865880, -119.5625619, 33.500, 14:27:17.698, 19, 0.00, 0.19, 97, 2.900, 2.600, -45.100, 679, 100, 100, 23, 23614, -18041, 5418, 5586, 6, 14, 1523482037.698, 40, 0, 1024, 1024, 1025, 1024, 0, 6, 3945, 3915, 3917, 3928, 3956, 3938, 0, 1, 16500, -89.900, 0.000, -46.700, 0.000, 0.000, -3.100, 0.0, , , , , , 99, , , 33, 33, 33
37.2865880, -119.5625619, 33.800, 14:27:17.798, 19, 0.00, 0.18, 97, 2.800, 2.300, -44.900, 679, 100, 100, 23, 23614, -18041, 5418, 5586, 6, 14, 1523482037.798, 70, 0, 1024, 1024, 1025, 1024, 0, 6, 3945, 3915, 3917, 3928, 3956, 3938, 0, 1, 16600, -89.900, 0.000, -46.700, 0.000, 0.000, -3.000, 0.0, , , , , , 99, , , 33, 33, 33
37.2865880, -119.5625618, 34.100, 14:27:17.898, 19, 0.00, 0.18, 97, 2.200, 2.300, -44.600, 679, 100, 100, 23, 23614, -18041, 5418, 5586, 6, 14, 1523482037.898, 62, 0, 1024, 1024, 1025, 1024, 0, 6, 3945, 3915, 3917, 3928, 3956, 3938, 0, 1, 16700, -89.900, 0.000, -46.700, 0.000, 0.000, -3.100, 0.0, , , , , , 99, , , 33, 33, 33
37.2865880, -119.5625617, 34.700, 14:27:17.998, 19, 0.00, 0.17, 97, 1.700, 2.300, -44.400, 679, 100, 100, 23, 23614, -18041, 5418, 5586, 6, 14, 1523482037.998, 58, 0, 1024, 1024, 1025, 1024, 0, 6, 3945, 3915, 3917, 3928, 3956, 3938, 0, 1, 16800, -89.900, 0.000, -46.700, 0.000, 0.000, -3.000, 0.0, , , , , , 99, , , 33, 33, 33
37.2865880, -119.5625616, 35.000, 14:27:18.098, 19, 0.00, 0.16, 97, 1.800, 2.500, -44.600, 679, 100, 99, 23, 23614, -18041, 5418, 5586, 6, 14, 1523482038.098, 48, 0, 1024, 1024, 1025, 1024, 0, 6, 3945, 3915, 3917, 3928, 3956, 3938, 0, 1, 16901, -89.900, 0.000, -46.700, 0.000, 0.000, -2.900, 0.0, , , , , , 99, , , 33, 33, 33
37.2865880, -119.5625616, 35.300, 14:27:18.198, 19, 0.00, 0.16, 97, 2.400, 2.500, -45.200, 679, 100, 99, 23, 23614, -18041, 5418, 5586, 6, 14, 1523482038.198, 31, 0, 1024, 1024, 1026, 1024, 0, 6, 3945, 3915, 3917, 3928, 3956, 3938, 0, 1, 17000, -89.900, 0.000, -46.700, 0.000, 0.000, -2.900, 0.0, , , , , , 99, , , 33, 33, 33
37.2865880, -119.5625616, 35.600, 14:27:18.298, 19, 0.00, 0.16, 97, 2.600, 2.500, -46.000, 679, 100, 99, 23, 23614, -18041, 5418, 5586, 6, 14, 1523482038.298, 24, 0, 1024, 1024, 1025, 1024, 0, 6, 3945, 3915, 3917, 3928, 3956, 3938, 0, 1, 17100, -89.900, 0.000, -46.700, 0.000, 0.000, -2.900, 0.0, , , , , , 99, , , 33, 33, 33
37.2865880, -119.5625615, 35.900, 14:27:18.398, 19, 0.00, 0.15, 97, 2.400, 2.500, -46.600, 679, 100, 99, 23, 23614, -18041, 5418, 5586, 6, 14, 1523482038.398, 26, 0, 1024, 1024, 1025, 1024, 0, 6, 3945, 3915, 3917, 3928, 3956, 3938, 0, 1, 17200, -89.900, 0.000, -46.700, 0.000, 0.000, -2.900, 0.0, , , , , , 99, , , 33, 33, 33
37.2865880, -119.5625614, 36.200, 14:27:18.498, 19, 0.00, 0.15, 97, 1.900, 2.500, -47.000, 679, 100, 98, 23, 23584, -17797, 5418, 5586, 6, 14, 1523482038.499, 40, 0, 1024, 1024, 1025, 1024, 0, 6, 3945, 3915, 3917, 3928, 3956, 3938, 0, 1, 17301, -89.900, 0.000, -46.700, 0.000, 0.000, -3.000, 0.0, , , , , , 99, , , 33, 33, 33
37.2865881, -119.5625614, 36.500, 14:27:18.598, 19, 0.00, 0.14, 97, 1.500, 2.500, -47.100, 679, 100, 98, 23, 23584, -17797, 5418, 5586, 6, 14, 1523482038.598, 6, 0, 1024, 1024, 1025, 1024, 0, 6, 3945, 3915, 3917, 3928, 3956, 3938, 0, 1, 17400, -89.900, 0.000, -46.700, 0.000, 0.000, -3.000, 0.0, , , , , , 99, , , 33, 33, 33
37.2865881, -119.5625614, 36.500, 14:27:18.698, 19, 0.00, 0.14, 97, 1.500, 2.500, -47.100, 679, 100, 98, 23, 23584, -17797, 5418, 5586, 6, 14, 1523482038.698, 105, 0, 1024, 1024, 1025, 1024, 0, 6, 3945, 3915, 3917, 3928, 3956, 3938, 0, 1, 17500, -89.900, 0.000, -46.700, 0.000, 0.000, -3.000, 0.0, , , , , , 99, , , 33, 33, 33
37.2865881, -119.5625614, 36.500, 14:27:18.798, 19, 0.00, 0.14, 97, 1.500, 2.500, -47.100, 679, 100, 98, 23, 23584, -17797, 5418, 5586, 6, 14, 1523482038.798, 205, 0, 1024, 1024, 1025, 1024, 0, 6, 3945, 3915, 3917, 3928, 3956, 3938, 0, 1, 17600, -89.900, 0.000, -46.700, 0.000, 0.000, -3.000, 0.0, , , , , , 99, , , 33, 33, 33
37.2865882, -119.5625612, 37.400, 14:27:18.898, 19, 0.00, 0.13, 97, 1.200, 2.900, -46.500, 679, 100, 98, 23, 23584, -17797, 5418, 5586, 6, 14, 1523482038.898, 14, 0, 1024, 1024, 1025, 1024, 0, 6, 3945, 3915, 3917, 3928, 3956, 3938, 0, 1, 17700, -89.900, 0.000, -46.700, 0.000, 0.000, -3.000, 0.0, , , , , , 99, , , 33, 33, 33
37.2865882, -119.5625611, 37.700, 14:27:19.001, 19, 0.00, 0.13, 97, 1.200, 2.700, -46.200, 679, 100, 98, 23, 23584, -17797, 5418, 5586, 6, 14, 1523482039.002, 8, 0, 1024, 1024, 1025, 1024, 0, 6, 3940, 3916, 3921, 3925, 3955, 3931, 0, 1, 17804, -89.900, 0.000, -46.700, 0.000, 0.000, -2.900, 0.0, , , , , , 99, , , 33, 33, 33
37.2865882, -119.5625611, 38.100, 14:27:19.098, 19, 0.00, 0.13, 97, 1.600, 2.600, -45.900, 679, 100, 99, 23, 23584, -17797, 5418, 5586, 6, 14, 1523482039.098, 10, 0, 1024, 1024, 1025, 1024, 0, 6, 3940, 3916, 3921, 3925, 3955, 3931, 0, 1, 17900, -89.900, 0.000, -46.700, 0.000, 0.000, -3.000, 0.0, , , , , , 99, , , 33, 33, 33
37.2865882, -119.5625611, 38.100, 14:27:19.198, 19, 0.00, 0.13, 97, 1.600, 2.600, -45.900, 679, 100, 99, 23, 23584, -17797, 5418, 5586, 6, 14, 1523482039.198, 110, 0, 1024, 1024, 1025, 1024, 0, 6, 3940, 3916, 3921, 3925, 3955, 3931, 0, 1, 18000, -89.900, 0.000, -46.700, 0.000, 0.000, -3.000, 0.0, , , , , , 99, , , 33, 33, 33
37.2865882, -119.5625610, 38.400, 14:27:19.298, 19, 0.00, 0.12, 97, 1.900, 2.500, -45.800, 679, 100, 99, 23, 23584, -17797, 5418, 5586, 6, 14, 1523482039.298, 90, 0, 1024, 1024, 1025, 1024, 0, 6, 3940, 3916, 3921, 3925, 3955, 3931, 0, 1, 18100, -89.900, 0.000, -46.700, 0.000, 0.000, -3.000, 0.0, , , , , , 99, , , 33, 33, 33
37.2865882, -119.5625610, 38.700, 14:27:19.398, 19, 0.00, 0.12, 97, 2.100, 2.300, -45.800, 679, 100, 99, 23, 23584, -17797, 5418, 5586, 6, 14, 1523482039.398, 81, 0, 1024, 1024, 1025, 1024, 0, 6, 3940, 3916, 3921, 3925, 3955, 3931, 0, 1, 18200, -89.900, 0.000, -46.700, 0.000, 0.000, -3.000, 0.0, , , , , , 99, , , 33, 33, 33
37.2865882, -119.5625610, 39.000, 14:27:19.498, 19, 0.00, 0.12, 97, 2.400, 2.400, -45.700, 679, 100, 99, 23, 23584, -17797, 5418, 5586, 6, 14, 1523482039.498, 92, 0, 1024, 1024, 1025, 1024, 0, 6, 3940, 3916, 3921, 3925, 3955, 3931, 0, 1, 18300, -89.900, 0.000, -46.700, 0.000, 0.000, -2.900, 0.0, , , , , , 99, , , 33, 33, 33
37.2865882, -119.5625611, 39.200, 14:27:19.598, 19, 0.00, 0.12, 97, 2.700, 2.700, -45.600, 679, 100, 99, 23, 23584, -17797, 5418, 5586, 6, 14, 1523482039.598, 83, 0, 1024, 1024, 1025, 1024, 0, 6, 3940, 3916, 3921, 3925, 3955, 3931, 0, 1, 18400, -89.900, 0.000, -46.700, 0.000, 0.000, -2.900, 0.0, , , , , , 99, , , 33, 33, 33
37.2865882, -119.5625611, 39.500, 14:27:19.698, 19, 0.00, 0.13, 97, 2.900, 2.900, -45.500, 679, 100, 99, 23, 23584, -17797, 5418, 5586, 6, 14, 1523482039.699, 72, 0, 1024, 1024, 1025, 1024, 0, 6, 3940, 3916, 3921, 3925, 3955, 3931, 0, 1, 18501, -89.900, 0.000, -46.700, 0.000, 0.000, -2.900, 0.0, , , , , , 99, , , 33, 33, 33
37.2865882, -119.5625612, 39.800, 14:27:19.798, 19, 0.10, 0.13, 97, 3.200, 3.300, -45.300, 679, 100, 99, 23, 23584, -17797, 5418, 5586, 6, 14, 1523482039.798, 59, 0, 1024, 1024, 1025, 1024, 0, 6, 3940, 3916, 3921, 3925, 3955, 3931, 0, 1, 18600, -89.900, 0.000, -46.700, 0.000, -0.100, -2.900, 0.0, , , , , , 99, , , 33, 33, 33
37.2865882, -119.5625613, 40.100, 14:27:19.898, 19, 0.10, 0.14, 97, 3.500, 3.500, -45.200, 679, 100, 99, 23, 23584, -17797, 5418, 5586, 6, 14, 1523482039.898, 76, 0, 1024, 1024, 1025, 1024, 0, 6, 3940, 3916, 3921, 3925, 3955, 3931, 0, 1, 18700, -89.900, 0.000, -46.700, 0.000, -0.100, -2.900, 0.0, , , , , , 99, , , 33, 33, 33
37.2865882, -119.5625614, 40.400, 14:27:19.998, 19, 0.10, 0.15, 97, 3.700, 3.700, -45.000, 679, 100, 99, 23, 23637, -17116, 5418, 5586, 6, 14, 1523482039.998, 80, 0, 1024, 1024, 1025, 1024, 0, 6, 3956, 3923, 3917, 3932, 3960, 3938, 0, 1, 18800, -89.900, 0.000, -46.700, 0.000, -0.100, -2.900, 0.0, , , , , , 99, , , 33, 33, 33
37.2865882, -119.5625614, 40.400, 14:27:20.098, 19, 0.10, 0.15, 97, 3.700, 3.700, -45.000, 679, 100, 99, 23, 23637, -17116, 5418, 5586, 6, 14, 1523482040.098, 180, 0, 1024, 1024, 1025, 1024, 0, 6, 3956, 3923, 3917, 3932, 3960, 3938, 0, 1, 18900, -89.900, 0.000, -46.700, 0.000, -0.100, -2.900, 0.0, , , , , , 99, , , 33, 33, 33
37.2865882, -119.5625617, 41.300, 14:27:20.198, 19, 0.10, 0.17, 97, 3.800, 4.200, -44.900, 679, 100, 99, 23, 23637, -17116, 5418, 5586, 6, 14, 1523482040.198, 23, 0, 1024, 1024, 1025, 1024, 0, 6, 3956, 3923, 3917, 3932, 3960, 3938, 0, 1, 19000, -89.900, 0.000, -46.700, 0.000, -0.100, -2.900, 0.0, , , , , , 99, , , 33, 33, 33
37.2865881, -119.5625618, 41.600, 14:27:20.298, 19, 0.10, 0.18, 97, 4.200, 4.300, -45.000, 679, 100, 99, 23, 23637, -17116, 5418, 5586, 6, 14, 1523482040.298, 51, 0, 1024, 1024, 1025, 1024, 0, 6, 3956, 3923, 3917, 3932, 3960, 3938, 0, 1, 19100, -89.900, 0.000, -46.700, 0.000, -0.100, -2.900, 0.0, , , , , , 99, , , 33, 33, 33
37.2865881, -119.5625619, 41.900, 14:27:20.398, 19, 0.00, 0.19, 97, 4.200, 4.100, -45.300, 679, 100, 99, 23, 23637, -17116, 5418, 5586, 6, 14, 1523482040.398, 41, 0, 1024, 1024, 1025, 1024, 0, 6, 3956, 3923, 3917, 3932, 3960, 3938, 0, 1, 19200, -89.900, 0.000, -46.700, 0.000, 0.000, -2.900, 0.0, , , , , , 99, , , 33, 33, 33
37.2865881, -119.5625619, 42.200, 14:27:20.498, 19, 0.00, 0.19, 97, 4.100, 4.000, -45.600, 679, 100, 99, 23, 23637, -17116, 5418, 5586, 6, 14, 1523482040.498, 44, 0, 1024, 1024, 1025, 1024, 0, 6, 3956, 3923, 3917, 3932, 3960, 3938, 0, 1, 19300, -89.900, 0.000, -46.700, 0.000, 0.000, -2.900, 0.0, , , , , , 99, , , 33, 33, 33
37.2865880, -119.5625620, 42.500, 14:27:20.598, 19, 0.00, 0.19, 97, 3.900, 3.900, -45.900, 679, 100, 99, 23, 23637, -17116, 5418, 5586, 6, 14, 1523482040.598, 34, 0, 1024, 1024, 1025, 1024, 0, 6, 3956, 3923, 3917, 3932, 3960, 3938, 0, 1, 19400, -89.900, 0.000, -46.700, 0.000, 0.000, -2.900, 0.0, , , , , , 99, , , 33, 33, 33
37.2865880, -119.5625621, 42.800, 14:27:20.698, 19, 0.00, 0.20, 97, 3.900, 3.800, -46.100, 679, 100, 99, 23, 23637, -17116, 5418, 5586, 6, 14, 1523482040.698, 20, 0, 1024, 1024, 1025, 1024, 0, 6, 3956, 3923, 3917, 3932, 3960, 3938, 0, 1, 19500, -89.900, 0.000, -46.700, 0.000, 0.000, -3.000, 0.0, , , , , , 99, , , 33, 33, 33
37.2865880, -119.5625621, 43.100, 14:27:20.801, 19, 0.00, 0.20, 97, 3.700, 3.900, -46.100, 679, 100, 99, 23, 23637, -17116, 5418, 5586, 6, 14, 1523482040.803, 6, 0, 1024, 1024, 1025, 1024, 0, 6, 3956, 3923, 3917, 3932, 3960, 3938, 0, 1, 19605, -89.900, 0.000, -46.700, 0.000, 0.000, -3.000, 0.0, , , , , , 99, , , 33, 33, 33
37.2865880, -119.5625622, 43.400, 14:27:20.900, 19, 0.00, 0.21, 97, 3.800, 4.100, -46.000, 679, 100, 99, 23, 23670, -16592, 5362, 5586, 6, 14, 1523482040.900, 4, 0, 1024, 1024, 1025, 1024, 0, 6, 3956, 3923, 3917, 3932, 3960, 3938, 0, 1, 19703, -89.900, 0.000, -46.700, 0.000, 0.000, -3.000, 0.0, , , , , , 99, , , 33, 33, 33
37.2865880, -119.5625622, 43.400, 14:27:20.998, 19, 0.00, 0.21, 97, 3.800, 4.100, -46.000, 679, 100, 99, 23, 23670, -16592, 5362, 5586, 6, 14, 1523482040.998, 101, 0, 1024, 1024, 1025, 1024, 0, 6, 3960, 3932, 3921, 3938, 3962, 3951, 0, 1, 19800, -89.900, 0.000, -46.700, 0.000, 0.000, -3.000, 0.0, , , , , , 99, , , 33, 33, 33
37.2865880, -119.5625622, 44.000, 14:27:21.098, 19, 0.00, 0.21, 97, 3.700, 4.400, -45.700, 679, 100, 99, 23, 23670, -16592, 5362, 5586, 6, 14, 1523482041.098, 10, 0, 1024, 1024, 1025, 1024, 0, 6, 3960, 3932, 3921, 3938, 3962, 3951, 0, 1, 19900, -89.900, 0.000, -46.700, 0.000, 0.000, -3.000, 0.0, , , , , , 99, , , 33, 33, 33
37.2865880, -119.5625623, 44.300, 14:27:21.200, 19, 0.00, 0.22, 97, 3.600, 4.300, -45.600, 679, 100, 99, 23, 23670, -16592, 5362, 5586, 6, 14, 1523482041.201, 8, 0, 1024, 1024, 1025, 1024, 0, 6, 3960, 3932, 3921, 3938, 3962, 3951, 0, 1, 20003, -89.900, 0.000, -46.700, 0.000, 0.000, -3.000, 0.0, , , , , , 99, , , 33, 33, 33
37.2865880, -119.5625623, 44.600, 14:27:21.298, 19, 0.00, 0.22, 97, 3.500, 4.100, -45.600, 679, 100, 99, 23, 23670, -16592, 5362, 5586, 6, 14, 1523482041.298, 5, 0, 1024, 1024, 1025, 1024, 0, 6, 3960, 3932, 3921, 3938, 3962, 3951, 0, 1, 20100, -89.900, 0.000, -46.700, 0.000, 0.000, -3.000, 0.0, , , , , , 99, , , 33, 33, 33
37.2865879, -119.5625623, 44.900, 14:27:21.398, 19, 0.00, 0.22, 96, 3.400, 4.100, -45.600, 679, 100, 99, 23, 23670, -16592, 5362, 5586, 6, 14, 1523482041.398, 4, 0, 1024, 1024, 1025, 1024, 0, 6, 3960, 3932, 3921, 3938, 3962, 3951, 0, 1, 20200, -89.900, 0.000, -46.700, 0.000, 0.000, -3.000, 0.0, , , , , , 99, , , 33, 33, 33
37.2865879, -119.5625623, 44.900, 14:27:21.498, 19, 0.00, 0.22, 96, 3.400, 4.100, -45.600, 679, 100, 99, 23, 23670, -16592, 5362, 5586, 6, 14, 1523482041.498, 104, 0, 1024, 1024, 1025, 1024, 0, 6, 3960, 3932, 3921, 3938, 3962, 3951, 0, 1, 20300, -89.900, 0.000, -46.700, 0.000, 0.000, -3.000, 0.0, , , , , , 99, , , 33, 33, 33
37.2865879, -119.5625623, 45.200, 14:27:21.598, 19, 0.00, 0.22, 96, 3.500, 4.200, -45.600, 679, 100, 100, 23, 23670, -16592, 5362, 5586, 6, 14, 1523482041.598, 94, 0, 1024, 1024, 1025, 1024, 0, 6, 3960, 3932, 3921, 3938, 3962, 3951, 0, 1, 20400, -89.900, 0.000, -46.700, 0.000, 0.000, -3.000, 0.0, , , , , , 99, , , 33, 33, 33
37.2865879, -119.5625624, 45.500, 14:27:21.698, 19, 0.00, 0.22, 96, 3.600, 4.300, -45.800, 679, 100, 100, 23, 23670, -16592, 5362, 5586, 6, 14, 1523482041.698, 59, 0, 1024, 1024, 1025, 1024, 0, 6, 3960, 3932, 3921, 3938, 3962, 3951, 0, 1, 20500, -89.900, 0.000, -46.700, 0.000, 0.000, -3.000, 0.0, , , , , , 99, , , 33, 33, 33
37.2865879, -119.5625624, 45.800, 14:27:21.798, 19, 0.00, 0.23, 96, 3.600, 4.500, -45.900, 679, 100, 100, 23, 23670, -16592, 5362, 5586, 6, 14, 1523482041.798, 85, 0, 1024, 1024, 1025, 1024, 0, 6, 3960, 3932, 3921, 3938, 3962, 3951, 0, 1, 20600, -89.900, 0.000, -46.700, 0.000, 0.000, -3.000, 0.0, , , , , , 99, , , 33, 33, 33
37.2865879, -119.5625624, 46.100, 14:27:21.898, 19, 0.00, 0.23, 96, 3.700, 4.600, -46.000, 679, 100, 100, 23, 23670, -16592, 5362, 5586, 6, 14, 1523482041.898, 66, 0, 1024, 1024, 1025, 1024, 0, 6, 3960, 3932, 3921, 3938, 3962, 3951, 0, 1, 20701, -89.900, 0.000, -46.700, 0.000, 0.000, -3.000, 0.0, , , , , , 99, , , 33, 33, 33
37.2865879, -119.5625625, 46.400, 14:27:21.998, 19, 0.00, 0.23, 96, 4.000, 4.800, -46.100, 679, 100, 100, 23, 23619, -17112, 5362, 5586, 6, 14, 1523482041.998, 72, 0, 1024, 1024, 1025, 1024, 0, 6, 3953, 3922, 3918, 3927, 3965, 3947, 0, 1, 20801, -89.900, 0.000, -46.700, 0.000, 0.000, -3.000, 0.0, , , , , , 99, , , 33, 33, 33
37.2865880, -119.5625625, 46.700, 14:27:22.098, 19, 0.00, 0.23, 96, 3.900, 4.700, -46.100, 679, 100, 100, 23, 23619, -17112, 5362, 5586, 6, 14, 1523482042.098, 62, 0, 1024, 1024, 1025, 1024, 0, 6, 3953, 3922, 3918, 3927, 3965, 3947, 0, 1, 20901, -89.900, 0.000, -46.700, 0.000, 0.000, -3.000, 0.0, , , , , , 99, , , 33, 33, 33
37.2865880, -119.5625625, 47.000, 14:27:22.198, 19, 0.00, 0.23, 96, 3.400, 4.700, -45.900, 679, 100, 100, 23, 23619, -17112, 5362, 5586, 6, 14, 1523482042.198, 54, 0, 1024, 1024, 1025, 1024, 0, 6, 3953, 3922, 3918, 3927, 3965, 3947, 0, 1, 21001, -89.900, 0.000, -46.700, 0.000, 0.000, -3.000, 0.0, , , , , , 99, , , 33, 33, 33
