Latitude, Longitude, Altitude (m), Time, Sats, Speed (m/s), Range (m), Battery (%), Roll (deg), Pitch (deg), Yaw (deg), Images, HD Signal (%), RC Signal (%), Battery Temp (C), Battery Voltage (mV), Battery Current (mA), Battery Energy (mAh), Battery Capacity (mAh), Battery Discharges, flyState, timestamp (Unix), LastUpdate (ms), radioChannel, Rc_elevator, Rc_aileron, Rc_throttle, Rc_rudder, Rc_gyro, Dronetype, Battery_Cell1 (mV), Battery_Cell2 (mV), Battery_Cell3 (mV), Battery_Cell4 (mV), Battery_Cell5 (mV), Battery_Cell6 (mV), Video, isFlying, elapsedTime (ms), gimbalPitch (deg), gimbalRoll (deg), gimbalYaw (deg), VelocityX (m/s), VelocityY (m/s), VelocityZ (m/s), GroundSmear (cm), App Version, Aircraft Name, Aircraft Firmware, Aircraft Serial Number, Battery Serial Number, Battery Lifetime (%), App_Tip, App_Warning, CurrentFlightStartingIndex, CurrentFlightLastVisitedWaypoint, PreviousFlightEndingWaypointIndex
38.5226792, -120.3275360, -0.900, 13:47:28.707, 10, 0.00, 0.03, 100, 0.300, 0.900, 129.200, 428, 100, 100, 25, 25737, -3805, 5282, 5282, 22, 11, 1529441248.707, 48, 0, 1024, 1024, 1024, 1024, 0, 6, 4297, 4314, 4290, 4291, 4302, 4301, 0, 1, 3132, -89.900, 0.000, 127.800, 0.000, 0.000, 0.100, 0.0, MapPilot_2.8.1_04242018, Dendroctonus I, 1.3.1.00, 041DDC1887, 1058171200162, 95, DJI_0427.jpg, Starting Mission from Lat/Long: 38.52268/-120.32754 Camera: Zenmuse X3 - Overlap: 90/90 - Active Connection: No, 17, 17, 17
38.5226792, -120.3275359, -0.800, 13:47:28.776, 10, 0.00, 0.03, 100, 0.300, 0.900, 129.400, 428, 100, 100, 25, 25737, -3805, 5282, 5282, 22, 11, 1529441248.776, 6, 0, 1024, 1024, 1024, 1024, 0, 6, 4297, 4314, 4290, 4291, 4302, 4301, 0, 1, 3201, -89.900, 0.000, 127.900, 0.000, 0.000, -0.100, 0.0, , , , , , 95, , , 17, 17, 17
38.5226792, -120.3275360, -0.800, 13:47:28.875, 10, 0.00, 0.03, 100, 0.300, 0.600, 129.400, 428, 100, 100, 25, 25344, -7525, 5282, 5282, 22, 11, 1529441248.875, 7, 0, 1024, 1024, 1024, 1024, 0, 6, 4165, 4182, 4190, 4189, 4182, 4197, 0, 1, 3300, -89.900, 0.000, 127.900, 0.000, 0.000, -0.200, 0.0, , , , , , 95, , , 17, 17, 17
38.5226792, -120.3275360, -0.800, 13:47:28.976, 10, 0.00, 0.03, 100, 0.300, 0.600, 129.400, 428, 100, 100, 25, 25344, -7525, 5282, 5282, 22, 11, 1529441248.976, 107, 0, 1024, 1024, 1024, 1024, 0, 6, 4165, 4182, 4190, 4189, 4182, 4197, 0, 1, 3401, -89.900, 0.000, 127.900, 0.000, 0.000, -0.200, 0.0, , , , , , 95, , , 17, 17, 17
38.5226793, -120.3275360, -0.700, 13:47:29.076, 10, 0.00, 0.04, 100, 0.500, 0.300, 129.400, 428, 100, 100, 25, 25344, -7525, 5282, 5282, 22, 11, 1529441249.076, 85, 0, 1024, 1024, 1024, 1024, 0, 6, 4165, 4182, 4190, 4189, 4182, 4197, 0, 1, 3501, -89.900, 0.000, 127.900, 0.000, 0.000, -0.300, 0.0, , , , , , 95, , , 17, 17, 17
38.5226794, -120.3275360, -0.600, 13:47:29.176, 10, 0.00, 0.05, 100, 0.600, 0.100, 129.200, 428, 100, 100, 25, 25344, -7525, 5282, 5282, 22, 11, 1529441249.176, 86, 0, 1024, 1024, 1024, 1024, 0, 6, 4165, 4182, 4190, 4189, 4182, 4197, 0, 1, 3601, -89.900, 0.000, 127.900, 0.000, 0.000, -0.200, 0.0, , , , , , 95, , , 17, 17, 17
38.5226795, -120.3275360, -0.500, 13:47:29.276, 11, 0.00, 0.06, 100, 0.500, 0.000, 129.100, 428, 100, 100, 25, 25344, -7525, 5282, 5282, 22, 11, 1529441249.276, 79, 0, 1024, 1024, 1024, 1024, 0, 6, 4165, 4182, 4190, 4189, 4182, 4197, 0, 1, 3701, -89.900, 0.000, 127.900, 0.000, 0.000, -0.300, 0.0, , , , , , 95, , , 17, 17, 17
38.5226795, -120.3275358, -0.400, 13:47:29.375, 9, 0.00, 0.06, 100, 0.700, -0.100, 129.000, 428, 100, 100, 25, 25344, -7525, 5282, 5282, 22, 11, 1529441249.375, 92, 0, 1024, 1024, 1024, 1024, 0, 6, 4165, 4182, 4190, 4189, 4182, 4197, 0, 1, 3800, -89.900, 0.000, 127.900, 0.000, 0.000, -0.200, 0.0, , , , , , 95, , , 17, 17, 17
38.5226795, -120.3275358, -0.400, 13:47:29.475, 9, 0.00, 0.06, 100, 0.700, -0.100, 129.000, 428, 100, 100, 25, 25344, -7525, 5282, 5282, 22, 11, 1529441249.475, 192, 0, 1024, 1024, 1024, 1024, 0, 6, 4165, 4182, 4190, 4189, 4182, 4197, 0, 1, 3900, -89.900, 0.000, 128.000, 0.000, 0.000, -0.200, 0.0, , , , , , 95, , , 17, 17, 17
38.5226795, -120.3275359, -0.200, 13:47:29.576, 10, 0.00, 0.05, 100, 0.700, -0.300, 128.900, 428, 100, 100, 25, 25344, -7525, 5282, 5282, 22, 11, 1529441249.576, 61, 0, 1024, 1024, 1024, 1024, 0, 6, 4165, 4182, 4190, 4189, 4182, 4197, 0, 1, 4000, -90.000, 0.000, 128.000, 0.000, 0.000, -0.300, 0.0, , , , , , 95, , , 17, 17, 17
38.5226795, -120.3275359, -0.200, 13:47:29.676, 10, 0.00, 0.05, 100, 0.700, -0.300, 128.900, 428, 100, 100, 25, 25344, -7525, 5282, 5282, 22, 11, 1529441249.676, 161, 0, 1024, 1024, 1024, 1024, 0, 6, 4165, 4182, 4190, 4189, 4182, 4197, 0, 1, 4101, -90.000, 0.000, 128.000, 0.000, 0.000, -0.300, 0.0, , , , , , 95, , , 17, 17, 17
38.5226797, -120.3275359, -0.100, 13:47:29.776, 10, 0.00, 0.07, 100, 0.700, -0.600, 128.800, 428, 100, 100, 25, 25344, -7525, 5282, 5282, 22, 11, 1529441249.776, 73, 0, 1024, 1024, 1024, 1024, 0, 6, 4165, 4182, 4190, 4189, 4182, 4197, 0, 1, 4201, -90.000, 0.000, 128.000, 0.000, 0.000, -0.400, 0.0, , , , , , 95, , , 17, 17, 17
38.5226797, -120.3275359, 0.000, 13:47:29.875, 10, 0.00, 0.07, 100, 0.600, -0.500, 128.700, 428, 100, 100, 25, 25344, -7525, 5282, 5282, 22, 11, 1529441249.875, 65, 0, 1024, 1024, 1024, 1024, 0, 6, 4165, 4182, 4190, 4189, 4182, 4197, 0, 1, 4300, -90.000, 0.000, 128.000, 0.000, 0.000, -0.400, 0.0, , , , , , 95, , , 17, 17, 17
38.5226797, -120.3275358, 0.000, 13:47:29.976, 11, 0.00, 0.08, 100, 0.700, -0.500, 128.700, 428, 100, 100, 25, 24643, -16182, 5282, 5282, 22, 11, 1529441249.976, 69, 0, 1024, 1024, 1024, 1024, 0, 6, 4165, 4182, 4190, 4189, 4182, 4197, 0, 1, 4401, -89.900, 0.000, 128.000, 0.000, 0.000, -0.500, 0.0, , , , , , 95, , , 17, 17, 17
38.5226798, -120.3275359, 0.100, 13:47:30.076, 11, 0.00, 0.09, 100, 0.600, -0.300, 128.700, 428, 100, 100, 25, 24643, -16182, 5282, 5282, 22, 11, 1529441250.076, 56, 0, 1024, 1024, 1024, 1024, 0, 6, 4165, 4182, 4190, 4189, 4182, 4197, 0, 1, 4501, -89.900, 0.000, 128.000, 0.000, 0.000, -0.400, 0.0, , , , , , 95, , , 17, 17, 17
38.5226798, -120.3275359, 0.100, 13:47:30.176, 10, 0.00, 0.10, 100, 0.600, -0.300, 128.700, 428, 100, 100, 25, 24643, -16182, 5282, 5282, 22, 11, 1529441250.176, 51, 0, 1024, 1024, 1024, 1024, 0, 6, 4165, 4182, 4190, 4189, 4182, 4197, 0, 1, 4600, -90.000, 0.000, 128.000, 0.000, 0.000, -0.400, 0.0, , , , , , 95, , , 17, 17, 17
38.5226799, -120.3275359, 0.200, 13:47:30.275, 10, 0.00, 0.10, 100, 0.600, -0.400, 128.700, 428, 100, 100, 25, 24643, -16182, 5282, 5282, 22, 11, 1529441250.276, 39, 0, 1024, 1024, 1024, 1024, 0, 6, 4165, 4182, 4190, 4189, 4182, 4197, 0, 1, 4700, -90.000, 0.000, 128.000, 0.000, 0.000, -0.500, 0.0, , , , , , 95, , , 17, 17, 17
38.5226799, -120.3275359, 0.300, 13:47:30.375, 10, 0.00, 0.10, 100, 0.700, -0.500, 128.700, 428, 100, 100, 25, 24643, -16182, 5282, 5282, 22, 11, 1529441250.375, 28, 0, 1024, 1024, 1024, 1024, 0, 6, 4071, 4123, 4096, 4095, 4094, 4090, 0, 1, 4800, -90.000, 0.000, 128.000, 0.000, 0.000, -0.500, 0.0, , , , , , 95, , , 17, 17, 17
38.5226801, -120.3275358, 0.400, 13:47:30.475, 10, 0.00, 0.12, 100, 0.800, -0.500, 128.700, 428, 100, 100, 25, 24643, -16182, 5282, 5282, 22, 11, 1529441250.476, 34, 0, 1024, 1024, 1024, 1024, 0, 6, 4071, 4123, 4096, 4095, 4094, 4090, 0, 1, 4900, -89.900, 0.000, 128.000, 0.000, 0.000, -0.500, 0.0, , , , , , 95, , , 17, 17, 17
38.5226802, -120.3275356, 0.500, 13:47:30.575, 10, 0.00, 0.13, 100, 1.100, -0.400, 128.800, 428, 100, 100, 25, 24643, -16182, 5282, 5282, 22, 11, 1529441250.576, 26, 0, 1024, 1024, 1024, 1024, 0, 6, 4071, 4123, 4096, 4095, 4094, 4090, 0, 1, 5000, -89.900, 0.000, 128.000, 0.000, 0.000, -0.500, 0.0, , , , , , 95, , , 17, 17, 17
38.5226802, -120.3275356, 0.600, 13:47:30.675, 10, 0.00, 0.13, 100, 1.300, -0.500, 128.700, 428, 100, 100, 25, 24643, -16182, 5282, 5282, 22, 11, 1529441250.676, 34, 0, 1024, 1024, 1024, 1024, 0, 6, 4071, 4123, 4096, 4095, 4094, 4090, 0, 1, 5100, -90.000, 0.000, 128.000, 0.000, 0.000, -0.500, 0.0, , , , , , 95, , , 17, 17, 17
38.5226802, -120.3275356, 0.700, 13:47:30.775, 10, 0.00, 0.13, 100, 1.400, -0.500, 128.800, 428, 100, 100, 25, 24643, -16182, 5282, 5282, 22, 11, 1529441250.776, 4, 0, 1024, 1024, 1024, 1024, 0, 6, 4071, 4123, 4096, 4095, 4094, 4090, 0, 1, 5200, -89.900, 0.000, 128.000, 0.000, 0.000, -0.500, 0.0, , , , , , 95, , , 17, 17, 17
38.5226802, -120.3275355, 0.700, 13:47:30.875, 10, 0.00, 0.14, 100, 1.500, -0.400, 128.900, 428, 100, 100, 25, 24643, -16182, 5282, 5282, 22, 11, 1529441250.875, 20, 0, 1024, 1024, 1024, 1024, 0, 6, 4071, 4123, 4096, 4095, 4094, 4090, 0, 1, 5300, -89.900, 0.000, 128.000, 0.000, 0.000, -0.500, 0.0, , , , , , 95, , , 17, 17, 17
38.5226802, -120.3275355, 0.700, 13:47:30.975, 10, 0.00, 0.14, 100, 1.500, -0.400, 128.900, 428, 100, 100, 25, 24643, -16182, 5282, 5282, 22, 11, 1529441250.976, 120, 0, 1024, 1024, 1024, 1024, 0, 6, 4071, 4123, 4096, 4095, 4094, 4090, 0, 1, 5400, -89.900, 0.000, 128.000, 0.000, 0.000, -0.500, 0.0, , , , , , 95, , , 17, 17, 17
38.5226803, -120.3275355, 0.800, 13:47:31.075, 10, 0.00, 0.15, 100, 1.700, -0.300, 129.100, 428, 100, 100, 25, 24643, -16182, 5282, 5282, 22, 11, 1529441251.076, 93, 0, 1024, 1024, 1024, 1024, 0, 6, 4071, 4123, 4096, 4095, 4094, 4090, 0, 1, 5500, -89.900, 0.000, 128.000, 0.000, 0.000, -0.500, 0.0, , , , , , 95, , , 17, 17, 17
38.5226804, -120.3275353, 0.900, 13:47:31.176, 10, 0.00, 0.16, 100, 2.000, -0.200, 129.300, 428, 100, 100, 25, 24643, -16182, 5282, 5282, 22, 14, 1529441251.176, 93, 0, 1024, 1024, 1024, 1024, 0, 6, 4071, 4123, 4096, 4095, 4094, 4090, 0, 1, 5600, -89.900, 0.000, 128.000, 0.000, 0.000, -0.500, 0.0, , , , , , 95, , , 17, 17, 17
38.5226804, -120.3275350, 1.000, 13:47:31.275, 10, 0.00, 0.17, 100, 2.300, -0.200, 129.400, 428, 100, 100, 25, 24643, -16182, 5282, 5282, 22, 14, 1529441251.276, 89, 0, 1024, 1024, 1024, 1024, 0, 6, 4071, 4123, 4096, 4095, 4094, 4090, 0, 1, 5700, -89.900, 0.000, 128.000, 0.000, 0.000, -0.300, 0.0, , , , , , 95, , , 17, 17, 17
38.5226804, -120.3275349, 1.000, 13:47:31.375, 10, 0.00, 0.17, 100, 1.900, 0.200, 129.500, 428, 100, 100, 25, 24643, -16182, 5282, 5282, 22, 14, 1529441251.375, 81, 0, 1024, 1024, 1024, 1024, 0, 6, 4071, 4123, 4096, 4095, 4094, 4090, 0, 1, 5800, -89.900, 0.000, 128.000, 0.000, 0.000, -0.200, 0.0, , , , , , 95, , , 17, 17, 17
38.5226804, -120.3275348, 1.100, 13:47:31.475, 10, 0.00, 0.17, 100, 1.500, 0.400, 129.600, 428, 100, 100, 25, 24424, -17194, 5282, 5282, 22, 14, 1529441251.475, 98, 0, 1024, 1024, 1024, 1024, 0, 6, 4052, 4096, 4069, 4066, 4074, 4071, 0, 1, 5900, -89.900, 0.000, 128.100, 0.000, 0.000, -0.300, 0.0, , , , , , 95, , , 17, 17, 17
38.5226804, -120.3275347, 1.100, 13:47:31.575, 10, 0.00, 0.18, 100, 1.100, 0.600, 129.500, 428, 100, 100, 25, 24424, -17194, 5282, 5282, 22, 14, 1529441251.576, 76, 0, 1024, 1024, 1024, 1024, 0, 6, 4052, 4096, 4069, 4066, 4074, 4071, 0, 1, 6000, -89.900, 0.000, 128.100, 0.000, 0.000, -0.300, 0.0, , , , , , 95, , , 17, 17, 17
38.5226804, -120.3275346, 1.200, 13:47:31.675, 9, 0.00, 0.18, 100, 1.100, 0.400, 129.400, 428, 100, 100, 25, 24424, -17194, 5282, 5282, 22, 14, 1529441251.676, 81, 0, 1024, 1024, 1024, 1024, 0, 6, 4052, 4096, 4069, 4066, 4074, 4071, 0, 1, 6100, -89.900, 0.000, 128.100, 0.000, 0.000, -0.400, 0.0, , , , , , 95, , , 17, 17, 17
38.5226804, -120.3275345, 1.300, 13:47:31.775, 9, 0.00, 0.19, 100, 1.200, 0.200, 129.300, 428, 100, 100, 25, 24424, -17194, 5282, 5282, 22, 14, 1529441251.776, 73, 0, 1024, 1024, 1024, 1024, 0, 6, 4052, 4096, 4069, 4066, 4074, 4071, 0, 1, 6200, -89.900, 0.000, 128.100, 0.000, 0.000, -0.500, 0.0, , , , , , 95, , , 17, 17, 17
38.5226805, -120.3275344, 1.400, 13:47:31.875, 12, 0.00, 0.20, 100, 1.500, 0.100, 129.300, 428, 100, 100, 25, 24424, -17194, 5282, 5282, 22, 14, 1529441251.875, 81, 0, 1024, 1024, 1024, 1024, 0, 6, 4052, 4096, 4069, 4066, 4074, 4071, 0, 1, 6300, -89.900, 0.000, 128.200, 0.000, 0.000, -0.700, 0.0, , , , , , 95, , , 17, 17, 17
38.5226806, -120.3275345, 1.600, 13:47:31.975, 10, 0.00, 0.21, 100, 1.800, -0.100, 129.400, 428, 100, 100, 25, 24424, -17194, 5282, 5282, 22, 14, 1529441251.976, 78, 0, 1024, 1024, 1024, 1024, 0, 6, 4052, 4096, 4069, 4066, 4074, 4071, 0, 1, 6400, -90.000, 0.000, 128.200, 0.000, 0.000, -1.100, 0.0, , , , , , 95, , , 17, 17, 17
38.5226806, -120.3275345, 1.600, 13:47:32.075, 10, 0.00, 0.21, 100, 1.800, -0.100, 129.400, 428, 100, 100, 25, 24424, -17194, 5282, 5282, 22, 14, 1529441252.076, 178, 0, 1024, 1024, 1024, 1024, 0, 6, 4052, 4096, 4069, 4066, 4074, 4071, 0, 1, 6500, -90.000, 0.000, 128.200, 0.000, 0.000, -1.100, 0.0, , , , , , 95, , , 17, 17, 17
38.5226809, -120.3275345, 1.900, 13:47:32.175, 9, 0.00, 0.23, 100, 1.600, -0.800, 129.600, 428, 100, 100, 25, 24424, -17194, 5282, 5282, 22, 14, 1529441252.176, 76, 0, 1024, 1024, 1024, 1024, 0, 6, 4052, 4096, 4069, 4066, 4074, 4071, 0, 1, 6600, -90.000, 0.000, 128.200, 0.000, 0.000, -1.400, 0.0, , , , , , 95, , , 17, 17, 17
38.5226809, -120.3275346, 2.100, 13:47:32.275, 9, 0.00, 0.24, 100, 1.500, -1.000, 129.500, 428, 100, 100, 25, 24424, -17194, 5282, 5282, 22, 14, 1529441252.275, 67, 0, 1024, 1024, 1024, 1024, 0, 6, 4052, 4096, 4069, 4066, 4074, 4071, 0, 1, 6700, -90.000, 0.000, 128.200, 0.000, 0.000, -1.600, 0.0, , , , , , 95, , , 17, 17, 17
38.5226809, -120.3275346, 2.300, 13:47:32.375, 10, 0.00, 0.24, 100, 1.300, -1.200, 129.500, 428, 100, 100, 25, 24424, -17194, 5282, 5282, 22, 14, 1529441252.375, 61, 0, 1024, 1024, 1024, 1024, 0, 6, 4052, 4096, 4069, 4066, 4074, 4071, 0, 1, 6800, -90.000, 0.000, 128.300, 0.000, 0.000, -1.800, 0.0, , , , , , 95, , , 17, 17, 17
38.5226809, -120.3275347, 2.500, 13:47:32.475, 10, 0.00, 0.23, 100, 1.100, -1.200, 129.500, 428, 100, 100, 25, 24549, -15550, 5282, 5282, 22, 14, 1529441252.476, 55, 0, 1024, 1024, 1024, 1024, 0, 6, 4051, 4068, 4135, 4097, 4059, 4102, 0, 1, 6900, -90.000, 0.000, 128.300, 0.000, 0.000, -2.100, 0.0, , , , , , 95, , , 17, 17, 17
38.5226809, -120.3275348, 2.800, 13:47:32.575, 10, 0.00, 0.23, 100, 1.000, -1.100, 129.400, 428, 100, 100, 25, 24549, -15550, 5282, 5282, 22, 14, 1529441252.576, 56, 0, 1024, 1024, 1024, 1024, 0, 6, 4051, 4068, 4135, 4097, 4059, 4102, 0, 1, 7000, -90.000, 0.000, 128.300, 0.000, 0.000, -2.300, 0.0, , , , , , 95, , , 17, 17, 17
38.5226809, -120.3275350, 3.000, 13:47:32.675, 10, 0.00, 0.22, 100, 0.900, -0.900, 129.500, 428, 100, 100, 25, 24549, -15550, 5282, 5282, 22, 14, 1529441252.676, 21, 0, 1024, 1024, 1024, 1024, 0, 6, 4051, 4068, 4135, 4097, 4059, 4102, 0, 1, 7100, -90.000, 0.000, 128.300, 0.000, 0.000, -2.500, 0.0, , , , , , 95, , , 17, 17, 17
38.5226808, -120.3275352, 3.300, 13:47:32.775, 11, 0.00, 0.21, 100, 0.700, -1.100, 129.500, 428, 100, 100, 25, 24549, -15550, 5282, 5282, 22, 14, 1529441252.775, 34, 0, 1024, 1024, 1024, 1024, 0, 6, 4051, 4068, 4135, 4097, 4059, 4102, 0, 1, 7199, -90.000, 0.000, 128.300, 0.000, 0.000, -2.700, 0.0, , , , , , 95, , , 17, 17, 17
38.5226807, -120.3275353, 3.600, 13:47:32.875, 11, 0.00, 0.19, 100, 0.500, -1.200, 129.500, 428, 100, 100, 25, 24549, -15550, 5282, 5282, 22, 14, 1529441252.875, 38, 0, 1024, 1024, 1024, 1024, 0, 6, 4051, 4068, 4135, 4097, 4059, 4102, 0, 1, 7300, -90.000, 0.000, 128.300, 0.000, 0.000, -2.800, 0.0, , , , , , 95, , , 17, 17, 17
38.5226805, -120.3275354, 4.000, 13:47:32.975, 12, 0.00, 0.17, 100, 0.100, -1.000, 129.700, 428, 100, 100, 25, 24549, -15550, 5282, 5282, 22, 14, 1529441252.976, 27, 0, 1024, 1024, 1024, 1024, 0, 6, 4051, 4068, 4135, 4097, 4059, 4102, 0, 1, 7400, -89.900, 0.000, 128.300, 0.000, 0.000, -2.900, 0.0, , , , , , 95, , , 17, 17, 17
38.5226803, -120.3275353, 4.300, 13:47:33.075, 12, 0.00, 0.15, 100, -0.500, -0.500, 129.800, 428, 100, 100, 25, 24549, -15550, 5282, 5282, 22, 14, 1529441253.075, 30, 0, 1024, 1024, 1024, 1024, 0, 6, 4051, 4068, 4135, 4097, 4059, 4102, 0, 1, 7500, -89.900, 0.000, 128.400, 0.000, 0.000, -3.000, 0.0, , , , , , 95, , , 17, 17, 17
38.5226800, -120.3275352, 4.600, 13:47:33.175, 13, 0.00, 0.13, 100, -0.500, 0.100, 129.900, 428, 100, 100, 25, 24549, -15550, 5282, 5282, 22, 14, 1529441253.176, 17, 0, 1024, 1024, 1024, 1024, 0, 6, 4051, 4068, 4135, 4097, 4059, 4102, 0, 1, 7600, -89.900, 0.000, 128.400, 0.000, 0.000, -3.000, 0.0, , , , , , 95, , , 17, 17, 17
38.5226799, -120.3275350, 5.000, 13:47:33.276, 13, 0.00, 0.12, 100, -0.300, 0.600, 129.900, 428, 100, 100, 25, 24549, -15550, 5282, 5282, 22, 14, 1529441253.276, 1, 0, 1024, 1024, 1024, 1024, 0, 6, 4051, 4068, 4135, 4097, 4059, 4102, 0, 1, 7701, -89.900, 0.000, 128.400, 0.000, 0.000, -3.100, 0.0, , , , , , 95, , , 17, 17, 17
38.5226798, -120.3275349, 5.300, 13:47:33.375, 13, 0.00, 0.12, 100, 0.000, 0.800, 129.900, 428, 100, 100, 25, 24012, -21081, 5282, 5282, 22, 14, 1529441253.375, 5, 0, 1024, 1024, 1024, 1024, 0, 6, 3967, 4014, 3997, 4021, 3998, 3980, 0, 1, 7800, -89.900, 0.000, 128.400, 0.000, 0.000, -3.100, 0.0, , , , , , 95, , , 17, 17, 17
38.5226798, -120.3275349, 5.300, 13:47:33.475, 13, 0.00, 0.12, 100, 0.000, 0.800, 129.900, 428, 100, 100, 25, 24012, -21081, 5282, 5282, 22, 14, 1529441253.475, 105, 0, 1024, 1024, 1024, 1024, 0, 6, 3967, 4014, 3997, 4021, 3998, 3980, 0, 1, 7900, -89.900, 0.000, 128.400, 0.000, 0.000, -3.100, 0.0, , , , , , 95, , , 17, 17, 17
38.5226798, -120.3275344, 6.000, 13:47:33.575, 13, 0.00, 0.14, 100, 0.500, 1.000, 129.800, 428, 100, 100, 25, 24012, -21081, 5282, 5282, 22, 14, 1529441253.575, 2, 0, 1024, 1024, 1024, 1024, 0, 6, 3967, 4014, 3997, 4021, 3998, 3980, 0, 1, 8000, -89.900, 0.000, 128.400, 0.000, 0.000, -3.100, 0.0, , , , , , 95, , , 17, 17, 17
38.5226798, -120.3275344, 6.000, 13:47:33.675, 13, 0.00, 0.14, 100, 0.500, 1.000, 129.800, 428, 100, 100, 25, 24012, -21081, 5282, 5282, 22, 14, 1529441253.675, 102, 0, 1024, 1024, 1024, 1024, 0, 6, 3967, 4014, 3997, 4021, 3998, 3980, 0, 1, 8100, -89.900, 0.000, 128.400, 0.000, 0.000, -3.100, 0.0, , , , , , 95, , , 17, 17, 17
38.5226798, -120.3275344, 6.400, 13:47:33.775, 13, 0.00, 0.15, 100, 1.000, 1.100, 129.700, 428, 100, 100, 25, 24012, -21081, 5282, 5282, 22, 14, 1529441253.775, 84, 0, 1024, 1024, 1024, 1024, 0, 6, 3967, 4014, 3997, 4021, 3998, 3980, 0, 1, 8200, -89.900, 0.000, 128.400, 0.000, 0.000, -3.000, 0.0, , , , , , 95, , , 17, 17, 17
38.5226799, -120.3275344, 6.700, 13:47:33.875, 13, 0.00, 0.15, 100, 1.400, 0.800, 129.600, 428, 100, 100, 25, 24012, -21081, 5282, 5282, 22, 14, 1529441253.875, 95, 0, 1024, 1024, 1024, 1024, 0, 6, 3967, 4014, 3997, 4021, 3998, 3980, 0, 1, 8300, -89.900, 0.000, 128.500, 0.000, 0.000, -3.000, 0.0, , , , , , 95, , , 17, 17, 17
38.5226800, -120.3275344, 7.000, 13:47:33.975, 13, 0.00, 0.16, 100, 1.500, 0.500, 129.500, 428, 100, 100, 25, 24012, -21081, 5282, 5282, 22, 14, 1529441253.975, 83, 0, 1024, 1024, 1024, 1024, 0, 6, 3967, 4014, 3997, 4021, 3998, 3980, 0, 1, 8399, -89.900, 0.000, 128.500, 0.000, 0.000, -3.000, 0.0, , , , , , 95, , , 17, 17, 17
38.5226801, -120.3275344, 7.400, 13:47:34.075, 13, 0.00, 0.17, 100, 1.600, 0.100, 129.500, 428, 100, 100, 25, 24012, -21081, 5282, 5282, 22, 14, 1529441254.075, 75, 0, 1024, 1024, 1024, 1024, 0, 6, 3967, 4014, 3997, 4021, 3998, 3980, 0, 1, 8500, -90.000, 0.000, 128.500, 0.000, 0.000, -3.000, 0.0, , , , , , 95, , , 17, 17, 17
38.5226802, -120.3275343, 8.100, 13:47:34.175, 12, 0.00, 0.19, 100, 1.700, -0.200, 129.500, 428, 100, 100, 25, 24012, -21081, 5282, 5282, 22, 14, 1529441254.175, 61, 0, 1024, 1024, 1024, 1024, 0, 6, 3967, 4014, 3997, 4021, 3998, 3980, 0, 1, 8600, -90.000, 0.000, 128.500, 0.000, 0.000, -2.900, 0.0, , , , , , 95, , , 17, 17, 17
38.5226803, -120.3275341, 8.400, 13:47:34.275, 12, 0.00, 0.21, 100, 1.900, -0.200, 129.600, 428, 100, 100, 25, 24012, -21081, 5282, 5282, 22, 14, 1529441254.275, 66, 0, 1024, 1024, 1024, 1024, 0, 6, 3967, 4014, 3997, 4021, 3998, 3980, 0, 1, 8700, -89.900, 0.000, 128.500, 0.000, 0.000, -2.900, 0.0, , , , , , 95, , , 17, 17, 17
38.5226805, -120.3275339, 8.700, 13:47:34.375, 13, 0.00, 0.23, 100, 2.100, -0.100, 129.500, 428, 100, 100, 25, 24012, -21081, 5282, 5282, 22, 14, 1529441254.375, 73, 0, 1024, 1024, 1024, 1024, 0, 6, 3967, 4014, 3997, 4021, 3998, 3980, 0, 1, 8800, -89.900, 0.000, 128.500, 0.000, 0.000, -2.800, 0.0, , , , , , 95, , , 17, 17, 17
38.5226805, -120.3275339, 8.700, 13:47:34.475, 13, 0.00, 0.23, 100, 2.100, -0.100, 129.500, 428, 100, 100, 25, 23973, -20885, 5176, 5282, 22, 14, 1529441254.475, 174, 0, 1024, 1024, 1024, 1024, 0, 6, 3967, 4014, 3997, 4021, 3998, 3980, 0, 1, 8900, -89.900, 0.000, 128.500, 0.000, 0.000, -2.800, 0.0, , , , , , 95, , , 17, 17, 17
38.5226806, -120.3275337, 9.300, 13:47:34.575, 13, 0.00, 0.25, 100, 2.300, 0.200, 129.400, 428, 100, 100, 25, 23973, -20885, 5176, 5282, 22, 14, 1529441254.575, 41, 0, 1024, 1024, 1024, 1024, 0, 6, 3979, 4015, 4007, 4002, 4007, 4003, 0, 1, 9000, -89.900, 0.000, 128.500, 0.000, 0.000, -2.800, 0.0, , , , , , 95, , , 17, 17, 17
38.5226807, -120.3275336, 9.600, 13:47:34.675, 13, 0.00, 0.27, 100, 2.100, 0.400, 129.400, 428, 100, 100, 25, 23973, -20885, 5176, 5282, 22, 14, 1529441254.675, 50, 0, 1024, 1024, 1024, 1024, 0, 6, 3979, 4015, 4007, 4002, 4007, 4003, 0, 1, 9100, -89.900, 0.000, 128.500, 0.000, 0.000, -2.700, 0.0, , , , , , 95, , , 17, 17, 17
38.5226807, -120.3275335, 9.900, 13:47:34.775, 13, 0.00, 0.28, 100, 2.000, 0.400, 129.300, 428, 100, 100, 25, 23973, -20885, 5176, 5282, 22, 14, 1529441254.775, 32, 0, 1024, 1024, 1024, 1024, 0, 6, 3979, 4015, 4007, 4002, 4007, 4003, 0, 1, 9200, -89.900, 0.000, 128.500, 0.000, 0.000, -2.800, 0.0, , , , , , 95, , , 17, 17, 17
38.5226809, -120.3275334, 10.200, 13:47:34.875, 13, 0.00, 0.30, 100, 2.100, 0.400, 129.300, 428, 100, 100, 25, 23973, -20885, 5176, 5282, 22, 14, 1529441254.875, 36, 0, 1024, 1024, 1024, 1024, 0, 6, 3979, 4015, 4007, 4002, 4007, 4003, 0, 1, 9300, -89.900, 0.000, 128.500, 0.000, 0.000, -2.800, 0.0, , , , , , 95, , , 17, 17, 17
38.5226811, -120.3275333, 10.600, 13:47:34.975, 13, 0.00, 0.32, 100, 2.300, 0.300, 129.200, 428, 100, 99, 25, 23973, -20885, 5176, 5282, 22, 14, 1529441254.975, 39, 0, 1024, 1024, 1024, 1024, 0, 6, 3979, 4015, 4007, 4002, 4007, 4003, 0, 1, 9400, -89.900, 0.000, 128.500, 0.000, 0.000, -2.800, 0.0, , , , , , 95, , , 17, 17, 17
38.5226812, -120.3275331, 10.900, 13:47:35.075, 13, 0.00, 0.33, 100, 2.700, 0.100, 129.200, 428, 100, 99, 25, 23973, -20885, 5176, 5282, 22, 14, 1529441255.075, 17, 0, 1024, 1024, 1024, 1024, 0, 6, 3979, 4015, 4007, 4002, 4007, 4003, 0, 1, 9500, -89.900, 0.000, 128.500, 0.000, 0.000, -2.900, 0.0, , , , , , 95, , , 17, 17, 17
38.5226812, -120.3275330, 11.200, 13:47:35.175, 13, 0.00, 0.35, 100, 2.900, 0.200, 129.200, 428, 100, 99, 25, 23973, -20885, 5176, 5282, 22, 14, 1529441255.175, 22, 0, 1024, 1024, 1024, 1024, 0, 6, 3979, 4015, 4007, 4002, 4007, 4003, 0, 1, 9600, -89.900, 0.000, 128.500, 0.000, 0.000, -2.800, 0.0, , , , , , 95, , , 17, 17, 17
38.5226813, -120.3275328, 11.500, 13:47:35.275, 13, 0.00, 0.36, 100, 2.900, 0.400, 129.300, 428, 100, 99, 25, 23973, -20885, 5176, 5282, 22, 14, 1529441255.275, 17, 0, 1024, 1024, 1024, 1024, 0, 6, 3979, 4015, 4007, 4002, 4007, 4003, 0, 1, 9700, -89.900, 0.000, 128.500, 0.000, 0.000, -2.800, 0.0, , , , , , 95, , , 17, 17, 17
38.5226814, -120.3275327, 11.800, 13:47:35.375, 13, 0.00, 0.38, 98, 2.600, 0.500, 129.400, 428, 100, 99, 25, 24093, -18544, 5176, 5282, 22, 14, 1529441255.375, 34, 0, 1024, 1024, 1024, 1024, 0, 6, 3979, 4015, 4007, 4002, 4007, 4003, 0, 1, 9800, -89.900, 0.000, 128.500, 0.000, 0.000, -2.800, 0.0, , , , , , 95, , , 17, 17, 17
38.5226814, -120.3275327, 12.100, 13:47:35.475, 13, 0.00, 0.38, 98, 2.600, 0.500, 129.400, 428, 100, 99, 25, 24093, -18544, 5176, 5282, 22, 14, 1529441255.475, 35, 0, 1024, 1024, 1024, 1024, 0, 6, 3979, 4015, 4007, 4002, 4007, 4003, 0, 1, 9900, -89.900, 0.000, 128.500, 0.000, 0.000, -2.800, 0.0, , , , , , 95, , , 17, 17, 17
38.5226814, -120.3275327, 12.400, 13:47:35.575, 13, 0.00, 0.37, 98, 2.600, 0.500, 129.500, 428, 100, 99, 25, 24093, -18544, 5176, 5282, 22, 14, 1529441255.575, 21, 0, 1024, 1024, 1024, 1024, 0, 6, 3979, 4015, 4007, 4002, 4007, 4003, 0, 1, 10000, -89.900, 0.000, 128.500, 0.000, 0.000, -2.800, 0.0, , , , , , 95, , , 17, 17, 17
38.5226814, -120.3275326, 12.700, 13:47:35.674, 13, 0.00, 0.38, 98, 2.500, 0.500, 129.600, 428, 100, 99, 25, 24093, -18544, 5176, 5282, 22, 14, 1529441255.675, 3, 0, 1024, 1024, 1024, 1024, 0, 6, 3979, 4015, 4007, 4002, 4007, 4003, 0, 1, 10099, -89.900, 0.000, 128.500, 0.000, 0.000, -2.800, 0.0, , , , , , 95, , , 17, 17, 17
38.5226814, -120.3275326, 12.700, 13:47:35.775, 13, 0.00, 0.38, 98, 2.500, 0.500, 129.600, 428, 100, 99, 25, 24093, -18544, 5176, 5282, 22, 14, 1529441255.775, 104, 0, 1024, 1024, 1024, 1024, 0, 6, 3979, 4015, 4007, 4002, 4007, 4003, 0, 1, 10200, -89.900, 0.000, 128.500, 0.000, 0.000, -2.800, 0.0, , , , , , 95, , , 17, 17, 17
38.5226814, -120.3275326, 13.000, 13:47:35.875, 13, 0.00, 0.38, 98, 2.300, 0.700, 129.700, 428, 100, 99, 25, 24093, -18544, 5176, 5282, 22, 14, 1529441255.875, 91, 0, 1024, 1024, 1024, 1024, 0, 6, 3979, 4015, 4007, 4002, 4007, 4003, 0, 1, 10300, -89.900, 0.000, 128.500, 0.000, 0.000, -2.800, 0.0, , , , , , 95, , , 17, 17, 17
38.5226814, -120.3275326, 13.300, 13:47:35.975, 13, 0.00, 0.38, 98, 2.200, 0.800, 129.700, 428, 100, 99, 25, 24093, -18544, 5176, 5282, 22, 14, 1529441255.976, 96, 0, 1024, 1024, 1024, 1024, 0, 6, 3996, 4037, 4016, 4018, 4023, 4012, 0, 1, 10400, -89.900, 0.000, 128.500, 0.000, 0.000, -2.800, 0.0, , , , , , 95, , , 17, 17, 17
38.5226813, -120.3275326, 13.600, 13:47:36.075, 13, 0.00, 0.38, 98, 1.800, 0.900, 129.800, 428, 100, 99, 25, 24093, -18544, 5176, 5282, 22, 14, 1529441256.076, 87, 0, 1024, 1024, 1024, 1024, 0, 6, 3996, 4037, 4016, 4018, 4023, 4012, 0, 1, 10500, -89.900, 0.000, 128.500, 0.000, 0.000, -2.800, 0.0, , , , , , 95, , , 17, 17, 17
38.5226813, -120.3275327, 13.900, 13:47:36.174, 13, 0.00, 0.37, 98, 1.700, 1.100, 129.800, 428, 100, 99, 25, 24093, -18544, 5176, 5282, 22, 14, 1529441256.174, 95, 0, 1024, 1024, 1024, 1024, 0, 6, 3996, 4037, 4016, 4018, 4023, 4012, 0, 1, 10599, -89.900, 0.000, 128.500, 0.000, 0.000, -2.800, 0.0, , , , , , 95, , , 17, 17, 17
38.5226813, -120.3275329, 14.500, 13:47:36.275, 13, 0.10, 0.36, 98, 1.300, 0.800, 129.700, 428, 100, 99, 25, 24093, -18544, 5176, 5282, 22, 14, 1529441256.275, 86, 0, 1024, 1024, 1024, 1024, 0, 6, 3996, 4037, 4016, 4018, 4023, 4012, 0, 1, 10700, -89.900, 0.000, 128.500, 0.000, -0.100, -2.800, 0.0, , , , , , 95, , , 17, 17, 17
38.5226813, -120.3275330, 14.800, 13:47:36.374, 13, 0.10, 0.35, 98, 1.200, 0.500, 129.700, 428, 100, 99, 25, 24093, -18544, 5176, 5282, 22, 14, 1529441256.375, 76, 0, 1024, 1024, 1024, 1024, 0, 6, 3996, 4037, 4016, 4018, 4023, 4012, 0, 1, 10799, -89.900, 0.000, 128.500, 0.000, -0.100, -2.800, 0.0, , , , , , 95, , , 17, 17, 17
38.5226813, -120.3275331, 15.100, 13:47:36.475, 13, 0.10, 0.34, 98, 1.200, 0.400, 129.700, 428, 100, 99, 26, 24093, -18544, 5176, 5282, 22, 14, 1529441256.475, 65, 0, 1024, 1024, 1024, 1024, 0, 6, 3996, 4037, 4016, 4018, 4023, 4012, 0, 1, 10900, -89.900, 0.000, 128.500, 0.000, -0.100, -2.800, 0.0, , , , , , 95, , , 17, 17, 17
38.5226813, -120.3275332, 15.400, 13:47:36.575, 13, 0.10, 0.34, 98, 1.300, 0.300, 129.600, 428, 100, 98, 26, 24093, -18544, 5176, 5282, 22, 14, 1529441256.575, 33, 0, 1024, 1024, 1024, 1024, 0, 6, 3996, 4037, 4016, 4018, 4023, 4012, 0, 1, 11000, -90.000, 0.000, 128.500, 0.000, -0.100, -2.800, 0.0, , , , , , 95, , , 17, 17, 17
38.5226813, -120.3275333, 15.700, 13:47:36.675, 13, 0.10, 0.33, 98, 1.400, 0.000, 129.600, 428, 100, 98, 26, 24093, -18544, 5176, 5282, 22, 14, 1529441256.675, 31, 0, 1024, 1024, 1024, 1024, 0, 6, 3996, 4037, 4016, 4018, 4023, 4012, 0, 1, 11100, -90.000, 0.000, 128.500, 0.000, -0.100, -2.800, 0.0, , , , , , 95, , , 17, 17, 17
38.5226813, -120.3275334, 16.000, 13:47:36.775, 13, 0.10, 0.33, 98, 1.400, -0.100, 129.500, 428, 100, 98, 26, 24093, -18544, 5176, 5282, 22, 14, 1529441256.775, 46, 0, 1024, 1024, 1024, 1024, 0, 6, 3996, 4037, 4016, 4018, 4023, 4012, 0, 1, 11200, -90.000, 0.000, 128.500, 0.000, -0.100, -2.700, 0.0, , , , , , 95, , , 17, 17, 17
38.5226813, -120.3275334, 16.000, 13:47:36.875, 13, 0.10, 0.33, 98, 1.400, -0.100, 129.500, 428, 100, 98, 26, 24054, -18728, 5176, 5282, 22, 14, 1529441256.875, 146, 0, 1024, 1024, 1024, 1024, 0, 6, 3996, 4037, 4016, 4018, 4023, 4012, 0, 1, 11300, -90.000, 0.000, 128.500, 0.000, -0.100, -2.700, 0.0, , , , , , 95, , , 17, 17, 17
38.5226813, -120.3275337, 16.600, 13:47:36.975, 13, 0.00, 0.31, 98, 1.500, -0.200, 129.400, 428, 100, 98, 26, 24054, -18728, 5176, 5282, 22, 14, 1529441256.975, 14, 0, 1024, 1024, 1024, 1024, 0, 6, 3986, 4029, 4010, 4010, 4021, 4002, 0, 1, 11400, -90.000, 0.000, 128.500, 0.000, 0.000, -2.800, 0.0, , , , , , 95, , , 17, 17, 17
38.5226813, -120.3275339, 16.900, 13:47:37.075, 13, 0.00, 0.30, 98, 1.300, -0.100, 129.400, 428, 100, 98, 26, 24054, -18728, 5176, 5282, 22, 14, 1529441257.075, 42, 0, 1024, 1024, 1024, 1024, 0, 6, 3986, 4029, 4010, 4010, 4021, 4002, 0, 1, 11500, -90.000, 0.000, 128.500, 0.000, 0.000, -2.700, 0.0, , , , , , 95, , , 17, 17, 17
38.5226812, -120.3275340, 17.200, 13:47:37.175, 13, 0.00, 0.29, 98, 1.000, -0.100, 129.400, 428, 100, 98, 26, 24054, -18728, 5176, 5282, 22, 14, 1529441257.175, 43, 0, 1024, 1024, 1024, 1024, 0, 6, 3986, 4029, 4010, 4010, 4021, 4002, 0, 1, 11600, -90.000, 0.000, 128.500, 0.000, 0.000, -2.700, 0.0, , , , , , 95, , , 17, 17, 17
38.5226812, -120.3275341, 17.500, 13:47:37.275, 13, 0.00, 0.28, 98, 0.900, -0.200, 129.500, 428, 100, 98, 26, 24054, -18728, 5176, 5282, 22, 14, 1529441257.275, 11, 0, 1024, 1024, 1024, 1024, 0, 6, 3986, 4029, 4010, 4010, 4021, 4002, 0, 1, 11700, -90.000, 0.000, 128.500, 0.000, 0.000, -2.800, 0.0, , , , , , 95, , , 17, 17, 17
38.5226811, -120.3275343, 17.800, 13:47:37.375, 13, 0.00, 0.27, 98, 0.800, -0.100, 129.500, 428, 100, 98, 26, 24054, -18728, 5176, 5282, 22, 14, 1529441257.375, 14, 0, 1024, 1024, 1024, 1024, 0, 6, 3986, 4029, 4010, 4010, 4021, 4002, 0, 1, 11800, -90.000, 0.000, 128.500, 0.000, 0.000, -2.800, 0.0, , , , , , 95, , , 17, 17, 17
38.5226811, -120.3275343, 18.100, 13:47:37.475, 13, 0.00, 0.26, 98, 0.600, 0.000, 129.500, 428, 100, 88, 26, 24054, -18728, 5176, 5282, 22, 14, 1529441257.475, 17, 0, 1024, 1024, 1024, 1024, 0, 6, 3986, 4029, 4010, 4010, 4021, 4002, 0, 1, 11900, -90.000, 0.000, 128.500, 0.000, 0.000, -2.800, 0.0, , , , , , 95, , , 17, 17, 17
38.5226810, -120.3275344, 18.400, 13:47:37.575, 13, 0.00, 0.25, 98, 0.500, 0.200, 129.300, 428, 100, 88, 26, 24054, -18728, 5176, 5282, 22, 14, 1529441257.575, 5, 0, 1024, 1024, 1024, 1024, 0, 6, 3986, 4029, 4010, 4010, 4021, 4002, 0, 1, 11999, -89.900, 0.000, 128.500, 0.000, 0.000, -2.800, 0.0, , , , , , 95, , , 17, 17, 17
38.5226810, -120.3275346, 18.700, 13:47:37.674, 13, 0.00, 0.24, 98, 0.500, 0.000, 129.200, 428, 100, 88, 26, 24054, -18728, 5176, 5282, 22, 14, 1529441257.675, 2, 0, 1024, 1024, 1024, 1024, 0, 6, 3986, 4029, 4010, 4010, 4021, 4002, 0, 1, 12099, -90.000, 0.000, 128.500, 0.000, 0.000, -2.800, 0.0, , , , , , 95, , , 17, 17, 17
38.5226810, -120.3275346, 18.700, 13:47:37.775, 13, 0.00, 0.24, 98, 0.500, 0.000, 129.200, 428, 100, 88, 26, 24054, -18728, 5176, 5282, 22, 14, 1529441257.775, 103, 0, 1024, 1024, 1024, 1024, 0, 6, 3986, 4029, 4010, 4010, 4021, 4002, 0, 1, 12200, -90.000, 0.000, 128.500, 0.000, 0.000, -2.800, 0.0, , , , , , 95, , , 17, 17, 17
38.5226809, -120.3275349, 19.300, 13:47:37.875, 13, 0.00, 0.23, 98, 0.900, -0.200, 128.800, 428, 100, 88, 26, 24056, -18497, 5176, 5282, 22, 14, 1529441257.875, 7, 0, 1024, 1024, 1024, 1024, 0, 6, 3988, 4026, 4011, 4017, 4007, 4011, 0, 1, 12300, -90.000, 0.000, 128.500, 0.000, 0.000, -2.800, 0.0, , , , , , 95, , , 17, 17, 17
38.5226809, -120.3275349, 19.300, 13:47:37.975, 13, 0.00, 0.23, 98, 0.900, -0.200, 128.800, 428, 100, 88, 26, 24056, -18497, 5176, 5282, 22, 14, 1529441257.975, 107, 0, 1024, 1024, 1024, 1024, 0, 6, 3988, 4026, 4011, 4017, 4007, 4011, 0, 1, 12400, -90.000, 0.000, 128.500, 0.000, 0.000, -2.800, 0.0, , , , , , 95, , , 17, 17, 17
38.5226810, -120.3275350, 19.900, 13:47:38.075, 13, 0.00, 0.23, 98, 1.600, 0.000, 128.500, 428, 100, 90, 26, 24056, -18497, 5176, 5282, 22, 14, 1529441258.075, 3, 0, 1024, 1024, 1024, 1024, 0, 6, 3988, 4026, 4011, 4017, 4007, 4011, 0, 1, 12500, -90.000, 0.000, 128.500, 0.000, 0.000, -2.800, 0.0, , , , , , 95, , , 17, 17, 17
38.5226810, -120.3275350, 19.900, 13:47:38.175, 13, 0.00, 0.23, 98, 1.600, 0.000, 128.500, 428, 100, 90, 26, 24056, -18497, 5176, 5282, 22, 14, 1529441258.175, 103, 0, 1024, 1024, 1024, 1024, 0, 6, 3988, 4026, 4011, 4017, 4007, 4011, 0, 1, 12600, -90.000, 0.000, 128.500, 0.000, 0.000, -2.800, 0.0, , , , , , 95, , , 17, 17, 17
38.5226810, -120.3275350, 20.300, 13:47:38.275, 13, 0.00, 0.23, 98, 1.500, -0.100, 128.500, 428, 100, 90, 26, 24056, -18497, 5176, 5282, 22, 14, 1529441258.275, 93, 0, 1024, 1024, 1024, 1024, 0, 6, 3988, 4026, 4011, 4017, 4007, 4011, 0, 1, 12700, -90.000, 0.000, 128.500, 0.000, 0.000, -2.900, 0.0, , , , , , 95, , , 17, 17, 17
38.5226810, -120.3275351, 20.900, 13:47:38.375, 13, 0.00, 0.23, 98, 2.100, -0.600, 129.000, 428, 100, 90, 26, 24056, -18497, 5176, 5282, 22, 14, 1529441258.375, 91, 0, 1024, 1024, 1024, 1024, 0, 6, 3988, 4026, 4011, 4017, 4007, 4011, 0, 1, 12800, -90.000, 0.000, 128.500, 0.000, 0.000, -2.800, 0.0, , , , , , 95, , , 17, 17, 17
38.5226810, -120.3275351, 20.900, 13:47:38.475, 13, 0.00, 0.23, 98, 2.100, -0.600, 129.000, 428, 100, 90, 26, 24056, -18497, 5176, 5282, 22, 14, 1529441258.475, 191, 0, 1024, 1024, 1024, 1024, 0, 6, 3988, 4026, 4011, 4017, 4007, 4011, 0, 1, 12900, -90.000, 0.000, 128.500, 0.000, 0.000, -2.800, 0.0, , , , , , 95, , , 17, 17, 17
38.5226811, -120.3275351, 21.500, 13:47:38.575, 13, 0.00, 0.24, 98, 2.400, -0.500, 129.500, 428, 100, 100, 26, 24056, -18497, 5176, 5282, 22, 14, 1529441258.575, 66, 0, 1024, 1024, 1024, 1024, 0, 6, 3988, 4026, 4011, 4017, 4007, 4011, 0, 1, 13000, -90.000, 0.000, 128.500, 0.000, 0.000, -2.800, 0.0, , , , , , 95, , , 17, 17, 17
38.5226811, -120.3275351, 21.500, 13:47:38.675, 13, 0.00, 0.24, 98, 2.400, -0.500, 129.500, 428, 100, 100, 26, 24056, -18497, 5176, 5282, 22, 14, 1529441258.675, 167, 0, 1024, 1024, 1024, 1024, 0, 6, 3988, 4026, 4011, 4017, 4007, 4011, 0, 1, 13100, -89.900, 0.000, 128.500, 0.000, 0.000, -2.800, 0.0, , , , , , 95, , , 17, 17, 17
38.5226811, -120.3275351, 22.100, 13:47:38.775, 13, 0.00, 0.24, 98, 2.800, -0.400, 129.600, 428, 100, 100, 26, 24056, -18497, 5176, 5282, 22, 14, 1529441258.775, 64, 0, 1024, 1024, 1024, 1024, 0, 6, 3988, 4026, 4011, 4017, 4007, 4011, 0, 1, 13200, -89.900, 0.000, 128.500, 0.000, 0.000, -2.700, 0.0, , , , , , 95, , , 17, 17, 17
38.5226811, -120.3275351, 22.400, 13:47:38.875, 13, 0.00, 0.24, 98, 3.300, -0.500, 129.600, 428, 100, 100, 26, 24056, -18497, 5176, 5282, 22, 14, 1529441258.875, 76, 0, 1024, 1024, 1024, 1024, 0, 6, 3988, 4026, 4011, 4017, 4007, 4011, 0, 1, 13300, -90.000, 0.000, 128.500, 0.000, 0.000, -2.700, 0.0, , , , , , 95, , , 17, 17, 17
38.5226812, -120.3275350, 22.700, 13:47:38.975, 13, 0.00, 0.25, 98, 3.400, -0.400, 129.600, 428, 100, 100, 26, 24007, -17959, 5176, 5282, 22, 14, 1529441258.975, 46, 0, 1024, 1024, 1024, 1024, 0, 6, 3989, 4026, 4008, 4014, 4001, 4005, 0, 1, 13400, -90.000, 0.000, 128.500, 0.000, 0.000, -2.700, 0.0, , , , , , 95, , , 17, 17, 17
38.5226812, -120.3275350, 23.000, 13:47:39.075, 13, 0.00, 0.26, 98, 3.500, -0.300, 129.600, 428, 100, 100, 26, 24007, -17959, 5176, 5282, 22, 14, 1529441259.075, 53, 0, 1024, 1024, 1024, 1024, 0, 6, 3989, 4026, 4008, 4014, 4001, 4005, 0, 1, 13500, -89.900, 0.000, 128.500, 0.000, 0.000, -2.700, 0.0, , , , , , 95, , , 17, 17, 17
38.5226813, -120.3275349, 23.200, 13:47:39.175, 13, 0.00, 0.26, 98, 3.200, 0.000, 129.500, 428, 100, 100, 26, 24007, -17959, 5176, 5282, 22, 14, 1529441259.175, 55, 0, 1024, 1024, 1024, 1024, 0, 6, 3989, 4026, 4008, 4014, 4001, 4005, 0, 1, 13600, -89.900, 0.000, 128.500, 0.000, 0.000, -2.700, 0.0, , , , , , 95, , , 17, 17, 17
38.5226813, -120.3275349, 23.500, 13:47:39.275, 13, 0.00, 0.26, 98, 2.900, 0.300, 129.500, 428, 100, 100, 26, 24007, -17959, 5176, 5282, 22, 14, 1529441259.275, 56, 0, 1024, 1024, 1024, 1024, 0, 6, 3989, 4026, 4008, 4014, 4001, 4005, 0, 1, 13700, -89.900, 0.000, 128.500, 0.000, 0.000, -2.700, 0.0, , , , , , 95, , , 17, 17, 17
38.5226813, -120.3275349, 23.800, 13:47:39.375, 13, 0.00, 0.26, 98, 2.700, 0.100, 129.600, 428, 100, 100, 26, 24007, -17959, 5176, 5282, 22, 14, 1529441259.375, 46, 0, 1024, 1024, 1024, 1024, 0, 6, 3989, 4026, 4008, 4014, 4001, 4005, 0, 1, 13800, -89.900, 0.000, 128.500, 0.000, 0.000, -2.700, 0.0, , , , , , 95, , , 17, 17, 17
38.5226813, -120.3275350, 24.100, 13:47:39.474, 13, 0.00, 0.26, 98, 2.800, -0.200, 129.700, 428, 100, 100, 26, 24007, -17959, 5176, 5282, 22, 14, 1529441259.475, 49, 0, 1024, 1024, 1024, 1024, 0, 6, 3989, 4026, 4008, 4014, 4001, 4005, 0, 1, 13900, -90.000, 0.000, 128.500, 0.000, 0.000, -2.700, 0.0, , , , , , 95, , , 17, 17, 17
38.5226813, -120.3275350, 24.400, 13:47:39.575, 13, 0.00, 0.27, 98, 3.000, -0.300, 129.800, 428, 100, 100, 26, 24007, -17959, 5176, 5282, 22, 14, 1529441259.575, 26, 0, 1024, 1024, 1024, 1024, 0, 6, 3989, 4026, 4008, 4014, 4001, 4005, 0, 1, 14000, -90.000, 0.000, 128.500, 0.000, 0.000, -2.700, 0.0, , , , , , 95, , , 17, 17, 17
38.5226813, -120.3275350, 24.700, 13:47:39.675, 13, 0.00, 0.27, 98, 2.900, -0.400, 129.800, 428, 100, 100, 26, 24007, -17959, 5176, 5282, 22, 14, 1529441259.675, 28, 0, 1024, 1024, 1024, 1024, 0, 6, 3989, 4026, 4008, 4014, 4001, 4005, 0, 1, 14100, -90.000, 0.000, 128.500, 0.000, 0.000, -2.700, 0.0, , , , , , 95, , , 17, 17, 17
38.5226813, -120.3275350, 25.000, 13:47:39.775, 13, 0.00, 0.27, 98, 2.700, -0.400, 129.800, 428, 100, 100, 26, 24007, -17959, 5176, 5282, 22, 14, 1529441259.775, 14, 0, 1024, 1024, 1024, 1024, 0, 6, 3989, 4026, 4008, 4014, 4001, 4005, 0, 1, 14200, -89.900, 0.000, 128.500, 0.000, 0.000, -2.700, 0.0, , , , , , 95, , , 17, 17, 17
38.5226813, -120.3275350, 25.200, 13:47:39.875, 13, 0.00, 0.27, 98, 2.500, -0.400, 129.700, 428, 100, 100, 26, 23977, -18544, 5176, 5282, 22, 14, 1529441259.875, 16, 0, 1024, 1024, 1024, 1024, 0, 6, 3979, 4022, 3993, 4007, 3993, 4006, 0, 1, 14299, -90.000, 0.000, 128.500, 0.000, 0.000, -2.800, 0.0, , , , , , 95, , , 17, 17, 17
38.5226813, -120.3275350, 25.200, 13:47:39.975, 13, 0.00, 0.27, 98, 2.500, -0.400, 129.700, 428, 100, 99, 26, 23977, -18544, 5176, 5282, 22, 14, 1529441259.975, 117, 0, 1024, 1024, 1024, 1024, 0, 6, 3979, 4022, 3993, 4007, 3993, 4006, 0, 1, 14400, -90.000, 0.000, 128.500, 0.000, 0.000, -2.800, 0.0, , , , , , 95, , , 17, 17, 17
38.5226813, -120.3275350, 25.900, 13:47:40.074, 13, 0.00, 0.26, 98, 2.500, -0.500, 129.500, 428, 100, 99, 26, 23977, -18544, 5176, 5282, 22, 14, 1529441260.074, 22, 0, 1024, 1024, 1024, 1024, 0, 6, 3979, 4022, 3993, 4007, 3993, 4006, 0, 1, 14499, -89.900, 0.000, 128.500, 0.000, 0.000, -2.800, 0.0, , , , , , 95, , , 17, 17, 17
38.5226813, -120.3275350, 26.100, 13:47:40.175, 13, 0.00, 0.26, 98, 2.500, -0.400, 129.500, 428, 100, 99, 26, 23977, -18544, 5176, 5282, 22, 14, 1529441260.175, 25, 0, 1024, 1024, 1024, 1024, 0, 6, 3979, 4022, 3993, 4007, 3993, 4006, 0, 1, 14600, -89.900, 0.000, 128.500, 0.000, 0.000, -2.800, 0.0, , , , , , 95, , , 17, 17, 17
38.5226813, -120.3275350, 26.400, 13:47:40.275, 13, 0.00, 0.26, 98, 2.400, -0.400, 129.500, 428, 100, 99, 26, 23977, -18544, 5176, 5282, 22, 14, 1529441260.275, 17, 0, 1024, 1024, 1024, 1024, 0, 6, 3979, 4022, 3993, 4007, 3993, 4006, 0, 1, 14700, -89.900, 0.000, 128.500, 0.000, 0.000, -2.700, 0.0, , , , , , 95, , , 17, 17, 17
38.5226813, -120.3275350, 26.700, 13:47:40.375, 13, 0.00, 0.26, 98, 2.600, -0.400, 129.600, 428, 100, 99, 26, 23977, -18544, 5176, 5282, 22, 14, 1529441260.375, 8, 0, 1024, 1024, 1024, 1024, 0, 6, 3979, 4022, 3993, 4007, 3993, 4006, 0, 1, 14799, -89.900, 0.000, 128.500, 0.000, 0.000, -2.800, 0.0, , , , , , 95, , , 17, 17, 17
38.5226813, -120.3275350, 26.700, 13:47:40.475, 13, 0.00, 0.26, 98, 2.600, -0.400, 129.600, 428, 100, 99, 26, 23977, -18544, 5176, 5282, 22, 14, 1529441260.475, 108, 0, 1024, 1024, 1024, 1024, 0, 6, 3979, 4022, 3993, 4007, 3993, 4006, 0, 1, 14900, -89.900, 0.000, 128.500, 0.000, 0.000, -2.800, 0.0, , , , , , 95, , , 17, 17, 17
38.5226813, -120.3275350, 27.000, 13:47:40.575, 13, 0.00, 0.26, 98, 2.700, -0.400, 129.500, 428, 100, 99, 26, 23977, -18544, 5176, 5282, 22, 14, 1529441260.575, 92, 0, 1024, 1024, 1024, 1024, 0, 6, 3979, 4022, 3993, 4007, 3993, 4006, 0, 1, 15000, -89.900, 0.000, 128.500, 0.000, 0.000, -2.800, 0.0, , , , , , 95, , , 17, 17, 17
38.5226813, -120.3275351, 27.300, 13:47:40.675, 13, 0.00, 0.26, 98, 2.700, -0.500, 129.300, 428, 100, 99, 26, 23977, -18544, 5176, 5282, 22, 14, 1529441260.675, 72, 0, 1024, 1024, 1024, 1024, 0, 6, 3979, 4022, 3993, 4007, 3993, 4006, 0, 1, 15100, -90.000, 0.000, 128.500, 0.000, 0.000, -2.800, 0.0, , , , , , 95, , , 17, 17, 17
38.5226813, -120.3275350, 27.600, 13:47:40.775, 13, 0.00, 0.27, 98, 3.200, -0.700, 129.000, 428, 100, 99, 26, 23977, -18544, 5176, 5282, 22, 14, 1529441260.775, 88, 0, 1024, 1024, 1024, 1024, 0, 6, 3979, 4022, 3993, 4007, 3993, 4006, 0, 1, 15200, -89.900, 0.000, 128.500, 0.000, 0.000, -2.700, 0.0, , , , , , 95, , , 17, 17, 17
38.5226814, -120.3275350, 27.900, 13:47:40.875, 13, 0.00, 0.27, 98, 3.200, -0.600, 128.600, 428, 100, 99, 26, 23977, -18544, 5176, 5282, 22, 14, 1529441260.875, 79, 0, 1024, 1024, 1024, 1024, 0, 6, 3979, 4022, 3993, 4007, 3993, 4006, 0, 1, 15299, -89.900, 0.000, 128.500, 0.000, 0.000, -2.700, 0.0, , , , , , 95, , , 17, 17, 17
38.5226815, -120.3275348, 28.400, 13:47:40.979, 13, 0.00, 0.29, 98, 3.600, -0.100, 128.600, 428, 100, 99, 26, 23963, -18758, 5176, 5282, 22, 14, 1529441260.980, 64, 0, 1024, 1024, 1024, 1024, 0, 6, 3979, 4022, 3993, 4007, 3993, 4006, 0, 1, 15404, -89.900, 0.000, 128.500, 0.000, 0.000, -2.900, 0.0, , , , , , 95, , , 17, 17, 17
38.5226815, -120.3275348, 28.400, 13:47:41.075, 13, 0.00, 0.29, 98, 3.600, -0.100, 128.600, 428, 100, 99, 26, 23963, -18758, 5176, 5282, 22, 14, 1529441261.075, 159, 0, 1024, 1024, 1024, 1024, 0, 6, 3979, 4022, 3993, 4007, 3993, 4006, 0, 1, 15500, -89.900, 0.000, 128.500, 0.000, 0.000, -2.900, 0.0, , , , , , 95, , , 17, 17, 17
38.5226815, -120.3275346, 29.000, 13:47:41.175, 13, 0.00, 0.30, 98, 3.900, 0.200, 129.300, 428, 100, 99, 26, 23963, -18758, 5176, 5282, 22, 14, 1529441261.175, 59, 0, 1024, 1024, 1024, 1024, 0, 6, 3979, 4022, 3993, 4007, 3993, 4006, 0, 1, 15600, -89.900, 0.000, 128.500, 0.000, 0.000, -2.900, 0.0, , , , , , 95, , , 17, 17, 17
38.5226815, -120.3275346, 29.000, 13:47:41.279, 13, 0.00, 0.30, 98, 3.900, 0.200, 129.300, 428, 100, 99, 26, 23963, -18758, 5176, 5282, 22, 14, 1529441261.280, 164, 0, 1024, 1024, 1024, 1024, 0, 6, 3979, 4022, 3993, 4007, 3993, 4006, 0, 1, 15704, -89.900, 0.000, 128.500, 0.000, 0.000, -2.900, 0.0, , , , , , 95, , , 17, 17, 17
38.5226816, -120.3275345, 29.600, 13:47:41.374, 13, 0.00, 0.31, 98, 3.900, 0.300, 130.000, 428, 100, 99, 26, 23963, -18758, 5176, 5282, 22, 14, 1529441261.375, 34, 0, 1024, 1024, 1024, 1024, 0, 6, 3979, 4022, 3993, 4007, 3993, 4006, 0, 1, 15799, -89.900, 0.000, 128.500, 0.000, 0.000, -2.900, 0.0, , , , , , 95, , , 17, 17, 17
38.5226817, -120.3275344, 29.900, 13:47:41.475, 13, 0.00, 0.32, 98, 3.900, 0.000, 130.200, 428, 100, 98, 26, 23963, -18758, 5176, 5282, 22, 14, 1529441261.475, 50, 0, 1024, 1024, 1024, 1024, 0, 6, 3963, 4007, 3992, 3990, 3985, 3985, 0, 1, 15900, -89.900, 0.000, 128.500, 0.000, 0.000, -2.900, 0.0, , , , , , 95, , , 17, 17, 17
38.5226817, -120.3275343, 30.200, 13:47:41.575, 13, 0.00, 0.33, 98, 4.100, -0.100, 130.200, 428, 100, 98, 26, 23963, -18758, 5176, 5282, 22, 14, 1529441261.575, 49, 0, 1024, 1024, 1024, 1024, 0, 6, 3963, 4007, 3992, 3990, 3985, 3985, 0, 1, 16000, -89.900, 0.000, 128.500, 0.000, 0.000, -2.800, 0.0, , , , , , 95, , , 17, 17, 17
38.5226818, -120.3275343, 30.500, 13:47:41.675, 13, 0.00, 0.33, 98, 4.200, -0.100, 130.200, 428, 100, 98, 26, 23963, -18758, 5176, 5282, 22, 14, 1529441261.675, 52, 0, 1024, 1024, 1024, 1024, 0, 6, 3963, 4007, 3992, 3990, 3985, 3985, 0, 1, 16100, -90.000, 0.000, 128.500, 0.000, 0.000, -2.800, 0.0, , , , , , 95, , , 17, 17, 17
38.5226818, -120.3275343, 30.500, 13:47:41.775, 13, 0.00, 0.33, 98, 4.200, -0.100, 130.200, 428, 100, 98, 26, 23963, -18758, 5176, 5282, 22, 14, 1529441261.775, 152, 0, 1024, 1024, 1024, 1024, 0, 6, 3963, 4007, 3992, 3990, 3985, 3985, 0, 1, 16200, -90.000, 0.000, 128.500, 0.000, 0.000, -2.800, 0.0, , , , , , 95, , , 17, 17, 17
38.5226818, -120.3275342, 31.100, 13:47:41.874, 13, 0.00, 0.34, 98, 4.600, -0.100, 130.200, 428, 100, 98, 26, 23963, -18758, 5176, 5282, 22, 14, 1529441261.875, 19, 0, 1024, 1024, 1024, 1024, 0, 6, 3963, 4007, 3992, 3990, 3985, 3985, 0, 1, 16299, -89.900, 0.000, 128.500, 0.000, 0.000, -2.900, 0.0, , , , , , 95, , , 17, 17, 17
38.5226819, -120.3275341, 31.400, 13:47:41.975, 13, 0.00, 0.35, 98, 4.500, -0.100, 130.200, 428, 100, 96, 26, 23963, -18758, 5176, 5282, 22, 14, 1529441261.975, 16, 0, 1024, 1024, 1024, 1024, 0, 6, 3963, 4007, 3992, 3990, 3985, 3985, 0, 1, 16400, -89.900, 0.000, 128.500, 0.000, 0.000, -2.900, 0.0, , , , , , 95, , , 17, 17, 17
38.5226819, -120.3275341, 31.700, 13:47:42.074, 13, 0.00, 0.35, 98, 4.400, 0.000, 130.200, 428, 100, 96, 26, 23963, -18758, 5176, 5282, 22, 14, 1529441262.074, 18, 0, 1024, 1024, 1024, 1024, 0, 6, 3963, 4007, 3992, 3990, 3985, 3985, 0, 1, 16499, -89.900, 0.000, 128.500, 0.000, 0.000, -2.800, 0.0, , , , , , 95, , , 17, 17, 17
38.5226819, -120.3275341, 31.700, 13:47:42.174, 13, 0.00, 0.35, 98, 4.400, 0.000, 130.200, 428, 100, 96, 26, 23963, -18758, 5176, 5282, 22, 14, 1529441262.175, 118, 0, 1024, 1024, 1024, 1024, 0, 6, 3963, 4007, 3992, 3990, 3985, 3985, 0, 1, 16599, -89.900, 0.000, 128.500, 0.000, 0.000, -2.800, 0.0, , , , , , 95, , , 17, 17, 17
38.5226819, -120.3275341, 32.200, 13:47:42.274, 13, 0.00, 0.35, 98, 3.900, 0.000, 129.900, 428, 100, 96, 26, 23963, -18758, 5176, 5282, 22, 14, 1529441262.274, 16, 0, 1024, 1024, 1024, 1024, 0, 6, 3963, 4007, 3992, 3990, 3985, 3985, 0, 1, 16699, -89.900, 0.000, 128.500, 0.000, 0.000, -2.800, 0.0, , , , , , 95, , , 17, 17, 17
38.5226819, -120.3275341, 32.500, 13:47:42.374, 13, 0.00, 0.35, 98, 3.600, 0.000, 129.700, 428, 100, 96, 26, 23927, -18629, 5176, 5282, 22, 14, 1529441262.375, 23, 0, 1024, 1024, 1024, 1024, 0, 6, 3970, 4003, 4000, 3988, 3987, 3989, 0, 1, 16799, -89.900, 0.000, 128.500, 0.000, 0.000, -2.800, 0.0, , , , , , 95, , , 17, 17, 17
38.5226819, -120.3275342, 32.800, 13:47:42.479, 13, 0.00, 0.35, 98, 3.400, -0.100, 129.400, 428, 100, 94, 26, 23927, -18629, 5176, 5282, 22, 14, 1529441262.480, 15, 0, 1024, 1024, 1024, 1024, 0, 6, 3970, 4003, 4000, 3988, 3987, 3989, 0, 1, 16905, -90.000, 0.000, 128.500, 0.000, 0.000, -2.900, 0.0, , , , , , 95, , , 17, 17, 17
38.5226819, -120.3275342, 33.100, 13:47:42.575, 13, 0.00, 0.35, 98, 3.400, -0.400, 129.200, 428, 100, 94, 26, 23927, -18629, 5176, 5282, 22, 14, 1529441262.575, 1, 0, 1024, 1024, 1024, 1024, 0, 6, 3970, 4003, 4000, 3988, 3987, 3989, 0, 1, 17000, -89.900, 0.000, 128.500, 0.000, 0.000, -2.900, 0.0, , , , , , 95, , , 17, 17, 17
38.5226819, -120.3275343, 33.400, 13:47:42.675, 13, 0.00, 0.35, 98, 3.500, -0.600, 129.100, 428, 100, 94, 26, 23927, -18629, 5176, 5282, 22, 14, 1529441262.675, 6, 0, 1024, 1024, 1024, 1024, 0, 6, 3970, 4003, 4000, 3988, 3987, 3989, 0, 1, 17100, -90.000, 0.000, 128.500, 0.000, 0.000, -2.900, 0.0, , , , , , 95, , , 17, 17, 17
38.5226819, -120.3275343, 33.400, 13:47:42.775, 13, 0.00, 0.35, 98, 3.500, -0.600, 129.100, 428, 100, 94, 26, 23927, -18629, 5176, 5282, 22, 14, 1529441262.775, 106, 0, 1024, 1024, 1024, 1024, 0, 6, 3970, 4003, 4000, 3988, 3987, 3989, 0, 1, 17200, -90.000, 0.000, 128.500, 0.000, 0.000, -2.900, 0.0, , , , , , 95, , , 17, 17, 17
38.5226819, -120.3275343, 33.700, 13:47:42.874, 13, 0.00, 0.35, 98, 3.600, -0.800, 129.100, 428, 100, 94, 26, 23927, -18629, 5176, 5282, 22, 14, 1529441262.874, 83, 0, 1024, 1024, 1024, 1024, 0, 6, 3970, 4003, 4000, 3988, 3987, 3989, 0, 1, 17299, -90.000, 0.000, 128.500, 0.000, 0.000, -2.900, 0.0, , , , , , 95, , , 17, 17, 17
38.5226820, -120.3275343, 33.900, 13:47:42.975, 13, 0.00, 0.35, 98, 3.900, -0.900, 129.300, 428, 100, 94, 26, 23927, -18629, 5176, 5282, 22, 14, 1529441262.975, 86, 0, 1024, 1024, 1024, 1024, 0, 6, 3970, 4003, 4000, 3988, 3987, 3989, 0, 1, 17400, -90.000, 0.000, 128.500, 0.000, 0.000, -3.000, 0.0, , , , , , 95, , , 17, 17, 17
38.5226820, -120.3275343, 34.200, 13:47:43.075, 13, 0.00, 0.35, 98, 4.000, -0.800, 129.500, 428, 100, 95, 26, 23927, -18629, 5176, 5282, 22, 14, 1529441263.075, 68, 0, 1024, 1024, 1024, 1024, 0, 6, 3970, 4003, 4000, 3988, 3987, 3989, 0, 1, 17500, -89.900, 0.000, 128.500, 0.000, 0.000, -2.900, 0.0, , , , , , 95, , , 17, 17, 17
38.5226820, -120.3275343, 34.200, 13:47:43.175, 13, 0.00, 0.35, 98, 4.000, -0.800, 129.500, 428, 100, 95, 26, 23927, -18629, 5176, 5282, 22, 14, 1529441263.175, 168, 0, 1024, 1024, 1024, 1024, 0, 6, 3970, 4003, 4000, 3988, 3987, 3989, 0, 1, 17600, -89.900, 0.000, 128.500, 0.000, 0.000, -2.900, 0.0, , , , , , 95, , , 17, 17, 17
38.5226820, -120.3275344, 34.800, 13:47:43.275, 13, 0.00, 0.35, 98, 3.800, -0.600, 129.600, 428, 100, 95, 26, 23927, -18629, 5176, 5282, 22, 14, 1529441263.275, 66, 0, 1024, 1024, 1024, 1024, 0, 6, 3970, 4003, 4000, 3988, 3987, 3989, 0, 1, 17700, -89.900, 0.000, 128.500, 0.000, 0.000, -3.000, 0.0, , , , , , 95, , , 17, 17, 17
38.5226820, -120.3275344, 35.400, 13:47:43.374, 13, 0.00, 0.35, 98, 3.900, -0.100, 129.200, 428, 100, 95, 26, 23927, -18629, 5176, 5282, 22, 14, 1529441263.375, 72, 0, 1024, 1024, 1024, 1024, 0, 6, 3970, 4003, 4000, 3988, 3987, 3989, 0, 1, 17799, -89.900, 0.000, 128.500, 0.000, 0.000, -3.000, 0.0, , , , , , 95, , , 17, 17, 17
38.5226820, -120.3275344, 35.400, 13:47:43.475, 13, 0.00, 0.35, 98, 3.900, -0.100, 129.200, 428, 100, 95, 26, 23880, -18601, 5176, 5282, 22, 14, 1529441263.475, 173, 0, 1024, 1024, 1024, 1024, 0, 6, 3970, 4003, 4000, 3988, 3987, 3989, 0, 1, 17900, -89.900, 0.000, 128.500, 0.000, 0.000, -3.000, 0.0, , , , , , 95, , , 17, 17, 17
38.5226819, -120.3275343, 36.000, 13:47:43.574, 13, 0.00, 0.35, 98, 4.000, 0.000, 128.900, 428, 100, 96, 26, 23880, -18601, 5176, 5282, 22, 14, 1529441263.574, 71, 0, 1024, 1024, 1024, 1024, 0, 6, 3959, 3993, 3994, 3978, 3986, 3977, 0, 1, 17999, -89.900, 0.000, 128.500, 0.000, 0.000, -3.000, 0.0, , , , , , 95, , , 17, 17, 17
38.5226819, -120.3275343, 36.000, 13:47:43.677, 13, 0.00, 0.35, 98, 4.000, 0.000, 128.900, 428, 100, 96, 26, 23880, -18601, 5176, 5282, 22, 14, 1529441263.678, 174, 0, 1024, 1024, 1024, 1024, 0, 6, 3959, 3993, 3994, 3978, 3986, 3977, 0, 1, 18102, -89.900, 0.000, 128.500, 0.000, 0.000, -3.000, 0.0, , , , , , 95, , , 17, 17, 17
38.5226818, -120.3275343, 36.600, 13:47:43.775, 13, 0.00, 0.33, 98, 3.600, 0.200, 129.100, 428, 100, 96, 26, 23880, -18601, 5176, 5282, 22, 14, 1529441263.775, 59, 0, 1024, 1024, 1024, 1024, 0, 6, 3959, 3993, 3994, 3978, 3986, 3977, 0, 1, 18200, -89.900, 0.000, 128.500, 0.000, 0.000, -3.000, 0.0, , , , , , 95, , , 17, 17, 17
38.5226818, -120.3275343, 36.600, 13:47:43.874, 13, 0.00, 0.33, 98, 3.600, 0.200, 129.100, 428, 100, 96, 26, 23880, -18601, 5176, 5282, 22, 14, 1529441263.875, 159, 0, 1024, 1024, 1024, 1024, 0, 6, 3959, 3993, 3994, 3978, 3986, 3977, 0, 1, 18299, -89.900, 0.000, 128.500, 0.000, 0.000, -3.000, 0.0, , , , , , 95, , , 17, 17, 17
38.5226817, -120.3275343, 37.300, 13:47:43.975, 13, 0.00, 0.32, 98, 3.300, 0.400, 129.500, 428, 100, 96, 26, 23880, -18601, 5176, 5282, 22, 14, 1529441263.975, 65, 0, 1024, 1024, 1024, 1024, 0, 6, 3959, 3993, 3994, 3978, 3986, 3977, 0, 1, 18400, -89.900, 0.000, 128.500, 0.000, 0.000, -3.000, 0.0, , , , , , 95, , , 17, 17, 17
38.5226816, -120.3275343, 37.600, 13:47:44.075, 13, 0.00, 0.31, 98, 3.300, 0.500, 129.700, 428, 100, 97, 26, 23880, -18601, 5176, 5282, 22, 14, 1529441264.075, 58, 0, 1024, 1024, 1024, 1024, 0, 6, 3959, 3993, 3994, 3978, 3986, 3977, 0, 1, 18500, -89.900, 0.000, 128.500, 0.000, 0.000, -3.000, 0.0, , , , , , 95, , , 17, 17, 17
38.5226816, -120.3275343, 37.600, 13:47:44.175, 13, 0.00, 0.31, 98, 3.300, 0.500, 129.700, 428, 100, 97, 26, 23880, -18601, 5176, 5282, 22, 14, 1529441264.175, 158, 0, 1024, 1024, 1024, 1024, 0, 6, 3959, 3993, 3994, 3978, 3986, 3977, 0, 1, 18600, -89.900, 0.000, 128.500, 0.000, 0.000, -3.000, 0.0, , , , , , 95, , , 17, 17, 17
38.5226814, -120.3275344, 38.100, 13:47:44.275, 13, 0.00, 0.30, 98, 2.900, 0.200, 129.900, 428, 100, 97, 26, 23880, -18601, 5176, 5282, 22, 14, 1529441264.275, 48, 0, 1024, 1024, 1024, 1024, 0, 6, 3959, 3993, 3994, 3978, 3986, 3977, 0, 1, 18700, -89.900, 0.000, 128.500, 0.000, 0.000, -3.000, 0.0, , , , , , 95, , , 17, 17, 17
38.5226814, -120.3275344, 38.500, 13:47:44.374, 13, 0.00, 0.29, 98, 2.900, 0.300, 130.000, 428, 100, 97, 26, 23948, -17871, 5123, 5282, 22, 14, 1529441264.374, 44, 0, 1024, 1024, 1024, 1024, 0, 6, 3967, 4008, 4010, 3988, 3996, 3993, 0, 1, 18799, -89.900, 0.000, 128.500, 0.000, 0.000, -3.000, 0.0, , , , , , 95, , , 17, 17, 17
38.5226813, -120.3275344, 38.800, 13:47:44.475, 13, 0.00, 0.28, 98, 2.900, 0.400, 130.000, 428, 100, 93, 26, 23948, -17871, 5123, 5282, 22, 14, 1529441264.475, 34, 0, 1024, 1024, 1024, 1024, 0, 6, 3967, 4008, 4010, 3988, 3996, 3993, 0, 1, 18899, -89.900, 0.000, 128.500, 0.000, 0.000, -3.000, 0.0, , , , , , 95, , , 17, 17, 17
38.5226813, -120.3275344, 39.100, 13:47:44.575, 13, 0.00, 0.28, 98, 2.900, 0.400, 130.000, 428, 100, 93, 26, 23948, -17871, 5123, 5282, 22, 14, 1529441264.575, 25, 0, 1024, 1024, 1024, 1024, 0, 6, 3967, 4008, 4010, 3988, 3996, 3993, 0, 1, 19000, -89.900, 0.000, 128.500, 0.000, 0.000, -3.000, 0.0, , , , , , 95, , , 17, 17, 17
38.5226812, -120.3275344, 39.400, 13:47:44.675, 13, 0.00, 0.27, 98, 3.000, 0.400, 130.000, 428, 100, 93, 26, 23948, -17871, 5123, 5282, 22, 14, 1529441264.675, 29, 0, 1024, 1024, 1024, 1024, 0, 6, 3967, 4008, 4010, 3988, 3996, 3993, 0, 1, 19100, -89.900, 0.000, 128.500, 0.000, 0.000, -3.000, 0.0, , , , , , 95, , , 17, 17, 17
38.5226812, -120.3275344, 39.700, 13:47:44.775, 13, 0.00, 0.27, 98, 3.200, 0.400, 130.000, 428, 100, 93, 26, 23948, -17871, 5123, 5282, 22, 14, 1529441264.775, 33, 0, 1024, 1024, 1024, 1024, 0, 6, 3967, 4008, 4010, 3988, 3996, 3993, 0, 1, 19200, -89.900, 0.000, 128.500, 0.000, 0.000, -3.000, 0.0, , , , , , 95, , , 17, 17, 17
38.5226812, -120.3275343, 40.100, 13:47:44.874, 13, 0.00, 0.28, 98, 3.700, 0.600, 129.900, 428, 100, 93, 26, 23948, -17871, 5123, 5282, 22, 14, 1529441264.875, 14, 0, 1024, 1024, 1024, 1024, 0, 6, 3967, 4008, 4010, 3988, 3996, 3993, 0, 1, 19299, -89.900, 0.000, 128.500, 0.000, 0.000, -3.000, 0.0, , , , , , 95, , , 17, 17, 17
38.5226812, -120.3275343, 40.100, 13:47:44.975, 13, 0.00, 0.28, 98, 3.700, 0.600, 129.900, 428, 100, 94, 26, 23948, -17871, 5123, 5282, 22, 14, 1529441264.975, 114, 0, 1024, 1024, 1024, 1024, 0, 6, 3967, 4008, 4010, 3988, 3996, 3993, 0, 1, 19400, -89.900, 0.000, 128.500, 0.000, 0.000, -3.000, 0.0, , , , , , 95, , , 17, 17, 17
38.5226812, -120.3275342, 40.700, 13:47:45.075, 13, 0.00, 0.28, 98, 3.600, 0.600, 129.600, 428, 100, 94, 26, 23948, -17871, 5123, 5282, 22, 14, 1529441265.075, 18, 0, 1024, 1024, 1024, 1024, 0, 6, 3967, 4008, 4010, 3988, 3996, 3993, 0, 1, 19500, -89.900, 0.000, 128.500, 0.000, 0.000, -2.900, 0.0, , , , , , 95, , , 17, 17, 17
38.5226812, -120.3275342, 41.000, 13:47:45.175, 13, 0.00, 0.28, 98, 3.700, 0.400, 129.500, 428, 100, 94, 26, 23948, -17871, 5123, 5282, 22, 14, 1529441265.175, 13, 0, 1024, 1024, 1024, 1024, 0, 6, 3967, 4008, 4010, 3988, 3996, 3993, 0, 1, 19600, -89.900, 0.000, 128.500, 0.000, 0.000, -2.900, 0.0, , , , , , 95, , , 17, 17, 17
38.5226812, -120.3275341, 41.300, 13:47:45.275, 13, 0.00, 0.29, 98, 4.000, 0.300, 129.400, 428, 100, 94, 26, 23948, -17871, 5123, 5282, 22, 14, 1529441265.275, 1, 0, 1024, 1024, 1024, 1024, 0, 6, 3967, 4008, 4010, 3988, 3996, 3993, 0, 1, 19699, -89.900, 0.000, 128.500, 0.000, 0.000, -2.900, 0.0, , , , , , 95, , , 17, 17, 17
38.5226812, -120.3275341, 41.600, 13:47:45.385, 13, 0.00, 0.29, 97, 4.100, 0.300, 129.400, 428, 100, 94, 26, 23924, -17724, 5123, 5282, 22, 14, 1529441265.385, 1, 0, 1024, 1024, 1024, 1024, 0, 6, 3967, 4008, 4010, 3988, 3996, 3993, 0, 1, 19810, -89.900, 0.000, 128.500, 0.000, 0.000, -2.900, 0.0, , , , , , 95, , , 17, 17, 17
38.5226812, -120.3275341, 41.600, 13:47:45.475, 13, 0.00, 0.29, 97, 4.100, 0.300, 129.400, 428, 100, 94, 26, 23924, -17724, 5123, 5282, 22, 14, 1529441265.475, 91, 0, 1024, 1024, 1024, 1024, 0, 6, 3975, 4007, 3997, 3985, 3992, 3991, 0, 1, 19900, -89.900, 0.000, 128.500, 0.000, 0.000, -2.900, 0.0, , , , , , 95, , , 17, 17, 17
38.5226812, -120.3275340, 41.900, 13:47:45.575, 13, 0.00, 0.29, 97, 4.000, 0.400, 129.300, 428, 100, 93, 26, 23924, -17724, 5123, 5282, 22, 14, 1529441265.575, 95, 0, 1024, 1024, 1024, 1024, 0, 6, 3975, 4007, 3997, 3985, 3992, 3991, 0, 1, 20000, -89.900, 0.000, 128.500, 0.000, 0.000, -2.800, 0.0, , , , , , 95, , , 17, 17, 17
38.5226813, -120.3275340, 42.200, 13:47:45.675, 13, 0.00, 0.29, 97, 3.900, 0.200, 129.300, 428, 100, 93, 26, 23924, -17724, 5123, 5282, 22, 14, 1529441265.675, 98, 0, 1024, 1024, 1024, 1024, 0, 6, 3975, 4007, 3997, 3985, 3992, 3991, 0, 1, 20100, -89.900, 0.000, 128.500, 0.000, 0.000, -2.800, 0.0, , , , , , 95, , , 17, 17, 17
38.5226813, -120.3275340, 42.500, 13:47:45.775, 13, 0.00, 0.29, 97, 3.600, 0.100, 129.300, 428, 100, 93, 26, 23924, -17724, 5123, 5282, 22, 14, 1529441265.775, 66, 0, 1024, 1024, 1024, 1024, 0, 6, 3975, 4007, 3997, 3985, 3992, 3991, 0, 1, 20200, -89.900, 0.000, 128.500, 0.000, 0.000, -2.800, 0.0, , , , , , 95, , , 17, 17, 17
38.5226813, -120.3275340, 42.700, 13:47:45.874, 13, 0.00, 0.29, 97, 3.500, 0.000, 129.400, 428, 100, 93, 26, 23924, -17724, 5123, 5282, 22, 14, 1529441265.874, 69, 0, 1024, 1024, 1024, 1024, 0, 6, 3975, 4007, 3997, 3985, 3992, 3991, 0, 1, 20299, -89.900, 0.000, 128.500, 0.000, 0.000, -2.800, 0.0, , , , , , 95, , , 17, 17, 17
38.5226813, -120.3275340, 43.300, 13:47:45.975, 13, 0.00, 0.30, 97, 3.600, 0.100, 129.600, 428, 100, 93, 26, 23924, -17724, 5123, 5282, 22, 14, 1529441265.975, 70, 0, 1024, 1024, 1024, 1024, 0, 6, 3975, 4007, 3997, 3985, 3992, 3991, 0, 1, 20400, -89.900, 0.000, 128.500, 0.000, 0.000, -2.900, 0.0, , , , , , 95, , , 17, 17, 17
38.5226813, -120.3275340, 43.300, 13:47:46.075, 13, 0.00, 0.30, 97, 3.600, 0.100, 129.600, 428, 100, 98, 26, 23924, -17724, 5123, 5282, 22, 14, 1529441266.075, 170, 0, 1024, 1024, 1024, 1024, 0, 6, 3975, 4007, 3997, 3985, 3992, 3991, 0, 1, 20499, -89.900, 0.000, 128.500, 0.000, 0.000, -2.900, 0.0, , , , , , 95, , , 17, 17, 17
38.5226813, -120.3275340, 43.900, 13:47:46.175, 13, 0.00, 0.30, 97, 4.000, -0.200, 129.500, 428, 100, 98, 26, 23924, -17724, 5123, 5282, 22, 14, 1529441266.175, 61, 0, 1024, 1024, 1024, 1024, 0, 6, 3975, 4007, 3997, 3985, 3992, 3991, 0, 1, 20599, -90.000, 0.000, 128.500, 0.000, 0.000, -2.900, 0.0, , , , , , 95, , , 17, 17, 17
38.5226814, -120.3275341, 44.200, 13:47:46.275, 13, 0.00, 0.30, 97, 4.100, -0.500, 129.300, 428, 100, 98, 26, 23924, -17724, 5123, 5282, 22, 14, 1529441266.275, 53, 0, 1024, 1024, 1024, 1024, 0, 6, 3975, 4007, 3997, 3985, 3992, 3991, 0, 1, 20699, -90.000, 0.000, 128.500, 0.000, 0.000, -2.900, 0.0, , , , , , 95, , , 17, 17, 17
38.5226814, -120.3275342, 44.500, 13:47:46.374, 13, 0.00, 0.30, 97, 3.800, -0.700, 129.200, 428, 100, 98, 26, 23924, -17724, 5123, 5282, 22, 14, 1529441266.374, 69, 0, 1024, 1024, 1024, 1024, 0, 6, 3975, 4007, 3997, 3985, 3992, 3991, 0, 1, 20799, -90.000, 0.000, 128.500, 0.000, 0.000, -2.900, 0.0, , , , , , 95, , , 17, 17, 17
38.5226814, -120.3275342, 44.800, 13:47:46.475, 13, 0.00, 0.30, 97, 3.500, -0.700, 129.100, 428, 100, 97, 26, 23908, -17762, 5123, 5282, 22, 14, 1529441266.475, 29, 0, 1024, 1024, 1024, 1024, 0, 6, 3975, 4007, 3997, 3985, 3992, 3991, 0, 1, 20900, -90.000, 0.000, 128.500, 0.000, 0.000, -2.900, 0.0, , , , , , 95, , , 17, 17, 17
