latitude,longitude,altitude(feet),ascent(feet),speed(mph),distance(feet),time(millisecond),datetime(utc),satellites,gpslevel,voltage(v),max_altitude(feet),max_ascent(feet),max_speed(mph),max_distance(feet), xSpeed(mph), ySpeed(mph), zSpeed(mph), compass_heading(degrees), pitch(degrees), roll(degrees),isPhoto,isVideo,rc_elevator,rc_aileron,rc_throttle,rc_rudder,gimbal_heading(degrees),gimbal_pitch(degrees),battery_percent,voltageCell1,voltageCell2,voltageCell3,voltageCell4,voltageCell5,voltageCell6,current(A),battery_temperature(f),flycStateRaw,flycState,message
38.5226792,-120.327536,5417.2660578669,-2.952756,0,0,3130,2018-06-19 20:47:29,10,0,0,5417.2660578669,0,0,0,0,0,0,129.2, 0.9, 0.3,1,0,1024,1024,1024,1024,127.8,-89.9,100,4.165,4.182,4.19,4.189,4.182,4.197,0,77,11,AutoTakeoff,DJI_0427.jpg Starting Mission from Lat/Long: 38.52268/-120.32754 Camera: Zenmuse X3 - Overlap: 90/90 - Active Connection: No
38.5226792,-120.3275359,5417.5941418669,-2.624672,0,0.0285444234856,3200,2018-06-19 20:47:29,10,0,0,5417.5941418669,0,0,0.0285444234856,0,0,0,129.4, 0.9, 0.3,0,0,1024,1024,1024,1024,127.9,-89.9,100,4.165,4.182,4.19,4.189,4.182,4.197,0,77,11,AutoTakeoff,
38.5226792,-120.327536,5417.5941418669,-2.624672,0,0,3300,2018-06-19 20:47:29,10,0,0,5417.5941418669,0,0,0.0285444234856,0,0,0,129.4, 0.6, 0.3,0,0,1024,1024,1024,1024,127.9,-89.9,100,4.165,4.182,4.19,4.189,4.182,4.197,0,77,11,AutoTakeoff,
38.5226793,-120.327536,5417.9222258669,-2.296588,0,0.036484909304,3500,2018-06-19 20:47:29,10,0,0,5417.9222258669,0,0,0.036484909304,0,0,0,129.4, 0.3, 0.5,0,0,1024,1024,1024,1024,127.9,-89.9,100,4.165,4.182,4.19,4.189,4.182,4.197,0,77,11,AutoTakeoff,
38.5226794,-120.327536,5418.2503098669,-1.968504,0,0.072969818608,3600,2018-06-19 20:47:29,10,0,0,5418.2503098669,0,0,0.072969818608,0,0,0,129.2, 0.1, 0.6,0,0,1024,1024,1024,1024,127.9,-89.9,100,4.165,4.182,4.19,4.189,4.182,4.197,0,77,11,AutoTakeoff,
38.5226795,-120.327536,5418.5783938669,-1.64042,0,0.109454727912,3700,2018-06-19 20:47:29,11,0,0,5418.5783938669,0,0,0.109454727912,0,0,0,129.1, 0, 0.5,0,0,1024,1024,1024,1024,127.9,-89.9,100,4.165,4.182,4.19,4.189,4.182,4.197,0,77,11,AutoTakeoff,
38.5226795,-120.3275358,5418.9064778669,-1.312336,0,0.123448494764,3800,2018-06-19 20:47:29,9,0,0,5418.9064778669,0,0,0.123448494764,0,0,0,129, -0.1, 0.7,0,0,1024,1024,1024,1024,127.9,-89.9,100,4.165,4.182,4.19,4.189,4.182,4.197,0,77,11,AutoTakeoff,
38.5226795,-120.3275359,5419.5626458669,-0.656168,0,0.113115489184,4000,2018-06-19 20:47:30,10,0,25.344,5419.5626458669,0,0,0.123448494764,0,0,0,128.9, -0.3, 0.7,0,0,1024,1024,1024,1024,128,-90,100,4.165,4.182,4.19,4.189,4.182,4.197,7.525,77,11,AutoTakeoff,
38.5226797,-120.3275359,5419.8907298669,-0.328084,0,0.184644362864,4200,2018-06-19 20:47:30,10,0,25.344,5419.8907298669,0,0,0.184644362864,0,0,0,128.8, -0.6, 0.7,0,0,1024,1024,1024,1024,128,-90,100,4.165,4.182,4.19,4.189,4.182,4.197,7.525,77,11,AutoTakeoff,
38.5226797,-120.3275359,5420.2188138669,0,0,0.184644362864,4300,2018-06-19 20:47:30,10,0,25.344,5420.2188138669,0,0,0.184644362864,0,0,0,128.7, -0.5, 0.6,0,0,1024,1024,1024,1024,128,-90,100,4.165,4.182,4.19,4.189,4.182,4.197,7.525,77,11,AutoTakeoff,
38.5226797,-120.3275358,5420.2188138669,0,0,0.191148956248,4400,2018-06-19 20:47:30,11,0,25.344,5420.2188138669,0,0,0.191148956248,0,0,-0.223694,128.7, -0.5, 0.7,0,0,1024,1024,1024,1024,128,-89.9,100,4.165,4.182,4.19,4.189,4.182,4.197,7.525,77,11,AutoTakeoff,
38.5226798,-120.3275359,5420.5468978669,0.328084,0,0.22076280234,4500,2018-06-19 20:47:30,11,0,25.344,5420.5468978669,0.328084,0,0.22076280234,0,0,0,128.7, -0.3, 0.6,0,0,1024,1024,1024,1024,128,-89.9,100,4.165,4.182,4.19,4.189,4.182,4.197,7.525,77,11,AutoTakeoff,
38.5226798,-120.3275359,5420.5468978669,0.328084,0,0.22076280234,4600,2018-06-19 20:47:30,10,0,25.344,5420.5468978669,0.328084,0,0.22076280234,0,0,0,128.7, -0.3, 0.6,0,0,1024,1024,1024,1024,128,-90,100,4.165,4.182,4.19,4.189,4.182,4.197,7.525,77,11,AutoTakeoff,
38.5226799,-120.3275359,5420.8749818669,0.656168,0,0.25698491636,4700,2018-06-19 20:47:30,10,0,25.344,5420.8749818669,0.656168,0,0.25698491636,0,0,-0.223694,128.7, -0.4, 0.6,0,0,1024,1024,1024,1024,128,-90,100,4.165,4.182,4.19,4.189,4.182,4.197,7.525,77,11,AutoTakeoff,
38.5226799,-120.3275359,5421.2030658669,0.984252,0,0.25698491636,4800,2018-06-19 20:47:30,10,0,25.344,5421.2030658669,0.984252,0,0.25698491636,0,0,-0.223694,128.7, -0.5, 0.7,0,0,1024,1024,1024,1024,128,-90,100,4.165,4.182,4.19,4.189,4.182,4.197,7.525,77,11,AutoTakeoff,
38.5226801,-120.3275358,5421.5311498669,1.312336,0,0.33329069308,4900,2018-06-19 20:47:30,10,0,25.344,5421.5311498669,1.312336,0,0.33329069308,0,0,-0.223694,128.7, -0.5, 0.8,0,0,1024,1024,1024,1024,128,-89.9,100,4.165,4.182,4.19,4.189,4.182,4.197,7.525,77,11,AutoTakeoff,
38.5226802,-120.3275356,5421.8592338669,1.64042,0,0.38229660016,5000,2018-06-19 20:47:31,10,0,24.643,5421.8592338669,1.64042,0,0.38229660016,0,0,-0.223694,128.8, -0.4, 1.1,0,0,1024,1024,1024,1024,128,-89.9,100,4.071,4.123,4.096,4.095,4.094,4.09,16.182,77,11,AutoTakeoff,
38.5226802,-120.3275356,5422.1873178669,1.968504,0,0.38229660016,5100,2018-06-19 20:47:31,10,0,24.643,5422.1873178669,1.968504,0,0.38229660016,0,0,-0.223694,128.7, -0.5, 1.3,0,0,1024,1024,1024,1024,128,-90,100,4.071,4.123,4.096,4.095,4.094,4.09,16.182,77,11,AutoTakeoff,
38.5226802,-120.3275356,5422.5154018669,2.296588,0,0.38229660016,5200,2018-06-19 20:47:31,10,0,24.643,5422.5154018669,2.296588,0,0.38229660016,0,0,-0.223694,128.8, -0.5, 1.4,0,0,1024,1024,1024,1024,128,-89.9,100,4.071,4.123,4.096,4.095,4.094,4.09,16.182,77,11,AutoTakeoff,
38.5226802,-120.3275355,5422.5154018669,2.296588,0,0.39177166608,5300,2018-06-19 20:47:31,10,0,24.643,5422.5154018669,2.296588,0,0.39177166608,0,0,-0.223694,128.9, -0.4, 1.5,0,0,1024,1024,1024,1024,128,-89.9,100,4.071,4.123,4.096,4.095,4.094,4.09,16.182,77,11,AutoTakeoff,
38.5226803,-120.3275355,5422.8434858669,2.624672,0,0.42595801888,5500,2018-06-19 20:47:31,10,0,24.643,5422.8434858669,2.624672,0,0.42595801888,0,0,-0.223694,129.1, -0.3, 1.7,0,0,1024,1024,1024,1024,128,-89.9,100,4.071,4.123,4.096,4.095,4.094,4.09,16.182,77,11,AutoTakeoff,
38.5226804,-120.3275353,5423.1715698669,2.952756,0,0.48125985792,5600,2018-06-19 20:47:31,10,0,24.643,5423.1715698669,2.952756,0,0.48125985792,0,0,-0.223694,129.3, -0.2, 2,0,0,1024,1024,1024,1024,128,-89.9,100,4.071,4.123,4.096,4.095,4.094,4.09,16.182,77,14,Waypoint,
38.5226804,-120.327535,5423.4996538669,3.28084,0,0.52265093536,5700,2018-06-19 20:47:31,10,0,24.643,5423.4996538669,3.28084,0,0.52265093536,0,0,0,129.4, -0.2, 2.3,0,0,1024,1024,1024,1024,128,-89.9,100,4.071,4.123,4.096,4.095,4.094,4.09,16.182,77,14,Waypoint,
38.5226804,-120.3275349,5423.4996538669,3.28084,0,0.53877298312,5800,2018-06-19 20:47:31,10,0,24.643,5423.4996538669,3.28084,0,0.53877298312,0,0,0,129.5, 0.2, 1.9,0,0,1024,1024,1024,1024,128,-89.9,100,4.071,4.123,4.096,4.095,4.094,4.09,16.182,77,14,Waypoint,
38.5226804,-120.3275348,5423.8277378669,3.608924,0,0.55589240624,5900,2018-06-19 20:47:31,10,0,24.643,5423.8277378669,3.608924,0,0.55589240624,0,0,0,129.6, 0.4, 1.5,0,0,1024,1024,1024,1024,128.1,-89.9,100,4.071,4.123,4.096,4.095,4.094,4.09,16.182,77,14,Waypoint,
38.5226804,-120.3275347,5423.8277378669,3.608924,0,0.57392062204,6000,2018-06-19 20:47:32,10,0,24.424,5423.8277378669,3.608924,0,0.57392062204,0,0,0,129.5, 0.6, 1.1,0,0,1024,1024,1024,1024,128.1,-89.9,100,4.052,4.096,4.069,4.066,4.074,4.071,17.194,77,14,Waypoint,
38.5226804,-120.3275346,5424.1558218669,3.937008,0,0.59277560952,6100,2018-06-19 20:47:32,9,0,24.424,5424.1558218669,3.937008,0,0.59277560952,0,0,0,129.4, 0.4, 1.1,0,0,1024,1024,1024,1024,128.1,-89.9,100,4.052,4.096,4.069,4.066,4.074,4.071,17.194,77,14,Waypoint,
38.5226804,-120.3275345,5424.4839058669,4.265092,0,0.61238190936,6200,2018-06-19 20:47:32,9,0,24.424,5424.4839058669,4.265092,0,0.61238190936,0,0,-0.223694,129.3, 0.2, 1.2,0,0,1024,1024,1024,1024,128.1,-89.9,100,4.052,4.096,4.069,4.066,4.074,4.071,17.194,77,14,Waypoint,
38.5226805,-120.3275344,5424.8119898669,4.593176,0,0.65844490296,6300,2018-06-19 20:47:32,12,0,24.424,5424.8119898669,4.593176,0,0.65844490296,0,0,-0.223694,129.3, 0.1, 1.5,0,0,1024,1024,1024,1024,128.2,-89.9,100,4.052,4.096,4.069,4.066,4.074,4.071,17.194,77,14,Waypoint,
38.5226806,-120.3275345,5425.4681578669,5.249344,0,0.66650592684,6400,2018-06-19 20:47:32,10,0,24.424,5425.4681578669,5.249344,0,0.66650592684,0,0,-0.223694,129.4, -0.1, 1.8,0,0,1024,1024,1024,1024,128.2,-90,100,4.052,4.096,4.069,4.066,4.074,4.071,17.194,77,14,Waypoint,
38.5226809,-120.3275345,5426.4524098669,6.233596,0,0.75367784564,6600,2018-06-19 20:47:32,9,0,24.424,5426.4524098669,6.233596,0,0.75367784564,0,0,-0.223694,129.6, -0.8, 1.6,0,0,1024,1024,1024,1024,128.2,-90,100,4.052,4.096,4.069,4.066,4.074,4.071,17.194,77,14,Waypoint,
38.5226809,-120.3275346,5427.1085778669,6.889764,0,0.73783466928,6700,2018-06-19 20:47:32,9,0,24.424,5427.1085778669,6.889764,0,0.75367784564,0,0,-0.447388,129.5, -1, 1.5,0,0,1024,1024,1024,1024,128.2,-90,100,4.052,4.096,4.069,4.066,4.074,4.071,17.194,77,14,Waypoint,
38.5226809,-120.3275346,5427.7647458669,7.545932,0,0.73783466928,6800,2018-06-19 20:47:32,10,0,24.424,5427.7647458669,7.545932,0,0.75367784564,0,0,-0.447388,129.5, -1.2, 1.3,0,0,1024,1024,1024,1024,128.3,-90,100,4.052,4.096,4.069,4.066,4.074,4.071,17.194,77,14,Waypoint,
38.5226809,-120.3275347,5428.4209138669,8.2021,0,0.72277233284,6900,2018-06-19 20:47:32,10,0,24.424,5428.4209138669,8.2021,0,0.75367784564,0,0,-0.447388,129.5, -1.2, 1.1,0,0,1024,1024,1024,1024,128.3,-90,100,4.052,4.096,4.069,4.066,4.074,4.071,17.194,77,14,Waypoint,
38.5226809,-120.3275348,5429.4051658669,9.186352,0,0.70854332976,7000,2018-06-19 20:47:33,10,0,24.549,5429.4051658669,9.186352,0,0.75367784564,0,0,-0.447388,129.4, -1.1, 1,0,0,1024,1024,1024,1024,128.3,-90,100,4.051,4.068,4.135,4.097,4.059,4.102,15.55,77,14,Waypoint,
38.5226809,-120.327535,5430.0613338669,9.84252,0,0.6827756124,7100,2018-06-19 20:47:33,10,0,24.549,5430.0613338669,9.84252,0,0.75367784564,0,0,-0.671082,129.5, -0.9, 0.9,0,0,1024,1024,1024,1024,128.3,-90,100,4.051,4.068,4.135,4.097,4.059,4.102,15.55,77,14,Waypoint,
38.5226808,-120.3275352,5431.0455858669,10.826772,0,0.62683400956,7200,2018-06-19 20:47:33,11,0,24.549,5431.0455858669,10.826772,0,0.75367784564,0,0,-0.671082,129.5, -1.1, 0.7,0,0,1024,1024,1024,1024,128.3,-90,100,4.051,4.068,4.135,4.097,4.059,4.102,15.55,77,14,Waypoint,
38.5226807,-120.3275353,5432.0298378669,11.811024,0,0.58260828636,7300,2018-06-19 20:47:33,11,0,24.549,5432.0298378669,11.811024,0,0.75367784564,0,0,-0.671082,129.5, -1.2, 0.5,0,0,1024,1024,1024,1024,128.3,-90,100,4.051,4.068,4.135,4.097,4.059,4.102,15.55,77,14,Waypoint,
38.5226805,-120.3275354,5433.3421738669,13.12336,0,0.50427823136,7400,2018-06-19 20:47:33,12,0,24.549,5433.3421738669,13.12336,0,0.75367784564,0,0,-0.671082,129.7, -1, 0.1,0,0,1024,1024,1024,1024,128.3,-89.9,100,4.051,4.068,4.135,4.097,4.059,4.102,15.55,77,14,Waypoint,
38.5226803,-120.3275353,5434.3264258669,14.107612,0,0.44832350516,7500,2018-06-19 20:47:33,12,0,24.549,5434.3264258669,14.107612,0,0.75367784564,0,0,-0.671082,129.8, -0.5, -0.5,0,0,1024,1024,1024,1024,128.4,-89.9,100,4.051,4.068,4.135,4.097,4.059,4.102,15.55,77,14,Waypoint,
38.52268,-120.3275352,5435.3106778669,15.091864,0,0.37059384388,7600,2018-06-19 20:47:33,13,0,24.549,5435.3106778669,15.091864,0,0.75367784564,0,0,-0.671082,129.9, 0.1, -0.5,0,0,1024,1024,1024,1024,128.4,-89.9,100,4.051,4.068,4.135,4.097,4.059,4.102,15.55,77,14,Waypoint,
38.5226799,-120.327535,5436.6230138669,16.4042,0,0.3830216658,7700,2018-06-19 20:47:33,13,0,24.549,5436.6230138669,16.4042,0,0.75367784564,0,0,-0.671082,129.9, 0.6, -0.3,0,0,1024,1024,1024,1024,128.4,-89.9,100,4.051,4.068,4.135,4.097,4.059,4.102,15.55,77,14,Waypoint,
38.5226798,-120.3275349,5437.6072658669,17.388452,0,0.38276576028,7800,2018-06-19 20:47:33,13,0,24.549,5437.6072658669,17.388452,0,0.75367784564,0,0,-0.671082,129.9, 0.8, 0,0,0,1024,1024,1024,1024,128.4,-89.9,100,4.051,4.068,4.135,4.097,4.059,4.102,15.55,77,14,Waypoint,
38.5226798,-120.3275344,5439.9038538669,19.68504,0,0.5064632708,8000,2018-06-19 20:47:34,13,0,24.012,5439.9038538669,19.68504,0,0.75367784564,0,0,-0.671082,129.8, 1, 0.5,0,0,1024,1024,1024,1024,128.4,-89.9,100,3.967,4.014,3.997,4.021,3.998,3.98,21.081,77,14,Waypoint,
38.5226798,-120.3275344,5441.2161898669,20.997376,0,0.5064632708,8200,2018-06-19 20:47:34,13,0,24.012,5441.2161898669,20.997376,0,0.75367784564,0,0,-0.671082,129.7, 1.1, 1,0,0,1024,1024,1024,1024,128.4,-89.9,100,3.967,4.014,3.997,4.021,3.998,3.98,21.081,77,14,Waypoint,
38.5226799,-120.3275344,5442.2004418669,21.981628,0,0.52327101412,8300,2018-06-19 20:47:34,13,0,24.012,5442.2004418669,21.981628,0,0.75367784564,0,0,-0.671082,129.6, 0.8, 1.4,0,0,1024,1024,1024,1024,128.5,-89.9,100,3.967,4.014,3.997,4.021,3.998,3.98,21.081,77,14,Waypoint,
38.52268,-120.3275344,5443.1846938669,22.96588,0,0.54201445304,8400,2018-06-19 20:47:34,13,0,24.012,5443.1846938669,22.96588,0,0.75367784564,0,0,-0.671082,129.5, 0.5, 1.5,0,0,1024,1024,1024,1024,128.5,-89.9,100,3.967,4.014,3.997,4.021,3.998,3.98,21.081,77,14,Waypoint,
38.5226801,-120.3275344,5444.4970298669,24.278216,0,0.562500018,8500,2018-06-19 20:47:34,13,0,24.012,5444.4970298669,24.278216,0,0.75367784564,0,0,-0.671082,129.5, 0.1, 1.6,0,0,1024,1024,1024,1024,128.5,-90,100,3.967,4.014,3.997,4.021,3.998,3.98,21.081,77,14,Waypoint,
38.5226802,-120.3275343,5446.7936178669,26.574804,0,0.60711288032,8600,2018-06-19 20:47:34,12,0,24.012,5446.7936178669,26.574804,0,0.75367784564,0,0,-0.671082,129.5, -0.2, 1.7,0,0,1024,1024,1024,1024,128.5,-90,100,3.967,4.014,3.997,4.021,3.998,3.98,21.081,77,14,Waypoint,
38.5226803,-120.3275341,5447.7778698669,27.559056,0,0.6746883418,8700,2018-06-19 20:47:34,12,0,24.012,5447.7778698669,27.559056,0,0.75367784564,0,0,-0.671082,129.6, -0.2, 1.9,0,0,1024,1024,1024,1024,128.5,-89.9,100,3.967,4.014,3.997,4.021,3.998,3.98,21.081,77,14,Waypoint,
38.5226805,-120.3275339,5448.7621218669,28.543308,0,0.76438322656,8800,2018-06-19 20:47:34,13,0,24.012,5448.7621218669,28.543308,0,0.76438322656,0,0,-0.671082,129.5, -0.1, 2.1,0,0,1024,1024,1024,1024,128.5,-89.9,100,3.967,4.014,3.997,4.021,3.998,3.98,21.081,77,14,Waypoint,
38.5226806,-120.3275337,5450.7306258669,30.511812,0,0.83182089276,9000,2018-06-19 20:47:35,13,0,23.973,5450.7306258669,30.511812,0,0.83182089276,0,0,-0.671082,129.4, 0.2, 2.3,0,0,1024,1024,1024,1024,128.5,-89.9,100,3.979,4.015,4.007,4.002,4.007,4.003,20.885,77,14,Waypoint,
38.5226807,-120.3275336,5451.7148778669,31.496064,0,0.87682745588,9100,2018-06-19 20:47:35,13,0,23.973,5451.7148778669,31.496064,0,0.87682745588,0,0,-0.671082,129.4, 0.4, 2.1,0,0,1024,1024,1024,1024,128.5,-89.9,100,3.979,4.015,4.007,4.002,4.007,4.003,20.885,77,14,Waypoint,
38.5226807,-120.3275335,5452.6991298669,32.480316,0,0.89930449072,9200,2018-06-19 20:47:35,13,0,23.973,5452.6991298669,32.480316,0,0.89930449072,0,0,-0.671082,129.3, 0.4, 2,0,0,1024,1024,1024,1024,128.5,-89.9,100,3.979,4.015,4.007,4.002,4.007,4.003,20.885,77,14,Waypoint,
38.5226809,-120.3275334,5453.6833818669,33.464568,0,0.96721131704,9300,2018-06-19 20:47:35,13,0,23.973,5453.6833818669,33.464568,0,0.96721131704,0,0,-0.671082,129.3, 0.4, 2.1,0,0,1024,1024,1024,1024,128.5,-89.9,100,3.979,4.015,4.007,4.002,4.007,4.003,20.885,77,14,Waypoint,
38.5226811,-120.3275333,5454.9957178669,34.776904,0,1.03659124052,9400,2018-06-19 20:47:35,13,0,23.973,5454.9957178669,34.776904,0,1.03659124052,0,0,-0.671082,129.2, 0.3, 2.3,0,0,1024,1024,1024,1024,128.5,-89.9,100,3.979,4.015,4.007,4.002,4.007,4.003,20.885,77,14,Waypoint,
38.5226812,-120.3275331,5455.9799698669,35.761156,0,1.10349084896,9500,2018-06-19 20:47:35,13,0,23.973,5455.9799698669,35.761156,0,1.10349084896,0,0,-0.671082,129.2, 0.1, 2.7,0,0,1024,1024,1024,1024,128.5,-89.9,100,3.979,4.015,4.007,4.002,4.007,4.003,20.885,77,14,Waypoint,
38.5226812,-120.327533,5456.9642218669,36.745408,0,1.12506237196,9600,2018-06-19 20:47:35,13,0,23.973,5456.9642218669,36.745408,0,1.12506237196,0,0,-0.671082,129.2, 0.2, 2.9,0,0,1024,1024,1024,1024,128.5,-89.9,100,3.979,4.015,4.007,4.002,4.007,4.003,20.885,77,14,Waypoint,
38.5226813,-120.3275328,5457.9484738669,37.72966,0,1.19221460508,9700,2018-06-19 20:47:35,13,0,23.973,5457.9484738669,37.72966,0,1.19221460508,0,0,-0.671082,129.3, 0.4, 2.9,0,0,1024,1024,1024,1024,128.5,-89.9,100,3.979,4.015,4.007,4.002,4.007,4.003,20.885,77,14,Waypoint,
38.5226814,-120.3275327,5458.9327258669,38.713912,0,1.23756893724,9800,2018-06-19 20:47:35,13,0,23.973,5458.9327258669,38.713912,0,1.23756893724,0,0,-0.671082,129.4, 0.5, 2.6,0,0,1024,1024,1024,1024,128.5,-89.9,100,3.979,4.015,4.007,4.002,4.007,4.003,20.885,77,14,Waypoint,
38.5226814,-120.3275327,5459.9169778669,39.698164,0,1.23756893724,9900,2018-06-19 20:47:35,13,0,23.973,5459.9169778669,39.698164,0,1.23756893724,0,0,-0.671082,129.4, 0.5, 2.6,0,0,1024,1024,1024,1024,128.5,-89.9,100,3.979,4.015,4.007,4.002,4.007,4.003,20.885,77,14,Waypoint,
38.5226814,-120.3275327,5460.9012298669,40.682416,0,1.23756893724,10000,2018-06-19 20:47:36,13,0,24.093,5460.9012298669,40.682416,0,1.23756893724,0,0,-0.671082,129.5, 0.5, 2.6,0,0,1024,1024,1024,1024,128.5,-89.9,98,3.979,4.015,4.007,4.002,4.007,4.003,18.544,77,14,Waypoint,
38.5226814,-120.3275326,5461.8854818669,41.666668,0,1.259432455,10100,2018-06-19 20:47:36,13,0,24.093,5461.8854818669,41.666668,0,1.259432455,0,0,-0.671082,129.6, 0.5, 2.5,0,0,1024,1024,1024,1024,128.5,-89.9,98,3.979,4.015,4.007,4.002,4.007,4.003,18.544,77,14,Waypoint,
38.5226814,-120.3275326,5462.8697338669,42.65092,0,1.259432455,10300,2018-06-19 20:47:36,13,0,24.093,5462.8697338669,42.65092,0,1.259432455,0,0,-0.671082,129.7, 0.7, 2.3,0,0,1024,1024,1024,1024,128.5,-89.9,98,3.979,4.015,4.007,4.002,4.007,4.003,18.544,77,14,Waypoint,
38.5226814,-120.3275326,5463.8539858669,43.635172,0,1.259432455,10400,2018-06-19 20:47:36,13,0,24.093,5463.8539858669,43.635172,0,1.259432455,0,0,-0.671082,129.7, 0.8, 2.2,0,0,1024,1024,1024,1024,128.5,-89.9,98,3.979,4.015,4.007,4.002,4.007,4.003,18.544,77,14,Waypoint,
38.5226813,-120.3275326,5464.8382378669,44.619424,0,1.2364993834,10500,2018-06-19 20:47:36,13,0,24.093,5464.8382378669,44.619424,0,1.259432455,0,0,-0.671082,129.8, 0.9, 1.8,0,0,1024,1024,1024,1024,128.5,-89.9,98,3.979,4.015,4.007,4.002,4.007,4.003,18.544,77,14,Waypoint,
38.5226813,-120.3275327,5465.8224898669,45.603676,0,1.2142224798,10600,2018-06-19 20:47:36,13,0,24.093,5465.8224898669,45.603676,0,1.259432455,0,0,-0.671082,129.8, 1.1, 1.7,0,0,1024,1024,1024,1024,128.5,-89.9,98,3.979,4.015,4.007,4.002,4.007,4.003,18.544,77,14,Waypoint,
38.5226813,-120.3275329,5467.7909938669,47.57218,0.223694,1.1704888826,10700,2018-06-19 20:47:36,13,0,24.093,5467.7909938669,47.57218,0.223694,1.259432455,0,0,-0.671082,129.7, 0.8, 1.3,0,0,1024,1024,1024,1024,128.5,-89.9,98,3.979,4.015,4.007,4.002,4.007,4.003,18.544,77,14,Waypoint,
38.5226813,-120.327533,5468.7752458669,48.556432,0.223694,1.14906171656,10800,2018-06-19 20:47:36,13,0,24.093,5468.7752458669,48.556432,0.223694,1.259432455,0,0,-0.671082,129.7, 0.5, 1.2,0,0,1024,1024,1024,1024,128.5,-89.9,98,3.979,4.015,4.007,4.002,4.007,4.003,18.544,77,14,Waypoint,
38.5226813,-120.3275331,5469.7594978669,49.540684,0.223694,1.12794951116,10900,2018-06-19 20:47:36,13,0,24.093,5469.7594978669,49.540684,0.223694,1.259432455,0,0,-0.671082,129.7, 0.4, 1.2,0,0,1024,1024,1024,1024,128.5,-89.9,98,3.979,4.015,4.007,4.002,4.007,4.003,18.544,77,14,Waypoint,
38.5226813,-120.3275332,5470.7437498669,50.524936,0.223694,1.10717195144,11000,2018-06-19 20:47:37,13,0,24.093,5470.7437498669,50.524936,0.223694,1.259432455,0,0,-0.671082,129.6, 0.3, 1.3,0,0,1024,1024,1024,1024,128.5,-90,98,3.996,4.037,4.016,4.018,4.023,4.012,18.544,78.8,14,Waypoint,
38.5226813,-120.3275333,5471.7280018669,51.509188,0.223694,1.0867454416,11100,2018-06-19 20:47:37,13,0,24.093,5471.7280018669,51.509188,0.223694,1.259432455,0,0,-0.671082,129.6, 0, 1.4,0,0,1024,1024,1024,1024,128.5,-90,98,3.996,4.037,4.016,4.018,4.023,4.012,18.544,78.8,14,Waypoint,
38.5226813,-120.3275334,5472.7122538669,52.49344,0.223694,1.06669294752,11200,2018-06-19 20:47:37,13,0,24.093,5472.7122538669,52.49344,0.223694,1.259432455,0,0,-0.671082,129.5, -0.1, 1.4,0,0,1024,1024,1024,1024,128.5,-90,98,3.996,4.037,4.016,4.018,4.023,4.012,18.544,78.8,14,Waypoint,
38.5226813,-120.3275337,5474.6807578669,54.461944,0,1.0089895336,11400,2018-06-19 20:47:37,13,0,24.093,5474.6807578669,54.461944,0.223694,1.259432455,0,0,-0.671082,129.4, -0.2, 1.5,0,0,1024,1024,1024,1024,128.5,-90,98,3.996,4.037,4.016,4.018,4.023,4.012,18.544,78.8,14,Waypoint,
38.5226813,-120.3275339,5475.6650098669,55.446196,0,0.97280843008,11500,2018-06-19 20:47:37,13,0,24.093,5475.6650098669,55.446196,0.223694,1.259432455,0,0,-0.671082,129.4, -0.1, 1.3,0,0,1024,1024,1024,1024,128.5,-90,98,3.996,4.037,4.016,4.018,4.023,4.012,18.544,78.8,14,Waypoint,
38.5226812,-120.327534,5476.6492618669,56.430448,0,0.92648625012,11600,2018-06-19 20:47:37,13,0,24.093,5476.6492618669,56.430448,0.223694,1.259432455,0,0,-0.671082,129.4, -0.1, 1,0,0,1024,1024,1024,1024,128.5,-90,98,3.996,4.037,4.016,4.018,4.023,4.012,18.544,78.8,14,Waypoint,
38.5226812,-120.3275341,5477.6335138669,57.4147,0,0.90917325744,11700,2018-06-19 20:47:37,13,0,24.093,5477.6335138669,57.4147,0.223694,1.259432455,0,0,-0.671082,129.5, -0.2, 0.9,0,0,1024,1024,1024,1024,128.5,-90,98,3.996,4.037,4.016,4.018,4.023,4.012,18.544,78.8,14,Waypoint,
38.5226811,-120.3275343,5478.6177658669,58.398952,0,0.8461778486,11800,2018-06-19 20:47:37,13,0,24.093,5478.6177658669,58.398952,0.223694,1.259432455,0,0,-0.671082,129.5, -0.1, 0.8,0,0,1024,1024,1024,1024,128.5,-90,98,3.996,4.037,4.016,4.018,4.023,4.012,18.544,78.8,14,Waypoint,
38.5226811,-120.3275343,5479.6020178669,59.383204,0,0.8461778486,11900,2018-06-19 20:47:37,13,0,24.093,5479.6020178669,59.383204,0.223694,1.259432455,0,0,-0.671082,129.5, 0, 0.6,0,0,1024,1024,1024,1024,128.5,-90,98,3.996,4.037,4.016,4.018,4.023,4.012,18.544,78.8,14,Waypoint,
38.522681,-120.3275344,5480.5862698669,60.367456,0,0.79992456628,12000,2018-06-19 20:47:38,13,0,24.054,5480.5862698669,60.367456,0.223694,1.259432455,0,0,-0.671082,129.3, 0.2, 0.5,0,0,1024,1024,1024,1024,128.5,-89.9,98,3.986,4.029,4.01,4.01,4.021,4.002,18.728,78.8,14,Waypoint,
38.522681,-120.3275346,5481.5705218669,61.351708,0,0.76875986712,12100,2018-06-19 20:47:38,13,0,24.054,5481.5705218669,61.351708,0.223694,1.259432455,0,0,-0.671082,129.2, 0, 0.5,0,0,1024,1024,1024,1024,128.5,-90,98,3.986,4.029,4.01,4.01,4.021,4.002,18.728,78.8,14,Waypoint,
38.5226809,-120.3275349,5483.5390258669,63.320212,0,0.69519031096,12300,2018-06-19 20:47:38,13,0,24.054,5483.5390258669,63.320212,0.223694,1.259432455,0,0,-0.671082,128.8, -0.2, 0.9,0,0,1024,1024,1024,1024,128.5,-90,98,3.986,4.029,4.01,4.01,4.021,4.002,18.728,78.8,14,Waypoint,
38.522681,-120.327535,5485.5075298669,65.288716,0,0.71607941924,12500,2018-06-19 20:47:38,13,0,24.054,5485.5075298669,65.288716,0.223694,1.259432455,0,0,-0.671082,128.5, 0, 1.6,0,0,1024,1024,1024,1024,128.5,-90,98,3.986,4.029,4.01,4.01,4.021,4.002,18.728,78.8,14,Waypoint,
38.522681,-120.327535,5486.8198658669,66.601052,0,0.71607941924,12700,2018-06-19 20:47:38,13,0,24.054,5486.8198658669,66.601052,0.223694,1.259432455,0,0,-0.671082,128.5, -0.1, 1.5,0,0,1024,1024,1024,1024,128.5,-90,98,3.986,4.029,4.01,4.01,4.021,4.002,18.728,78.8,14,Waypoint,
38.522681,-120.3275351,5488.7883698669,68.569556,0,0.70518703044,12800,2018-06-19 20:47:38,13,0,24.054,5488.7883698669,68.569556,0.223694,1.259432455,0,0,-0.671082,129, -0.6, 2.1,0,0,1024,1024,1024,1024,128.5,-90,98,3.986,4.029,4.01,4.01,4.021,4.002,18.728,78.8,14,Waypoint,
38.5226811,-120.3275351,5490.7568738669,70.53806,0,0.73928480056,13000,2018-06-19 20:47:39,13,0,24.056,5490.7568738669,70.53806,0.223694,1.259432455,0,0,-0.671082,129.5, -0.5, 2.4,0,0,1024,1024,1024,1024,128.5,-90,98,3.988,4.026,4.011,4.017,4.007,4.011,18.497,78.8,14,Waypoint,
38.5226811,-120.3275351,5492.7253778669,72.506564,0,0.73928480056,13200,2018-06-19 20:47:39,13,0,24.056,5492.7253778669,72.506564,0.223694,1.259432455,0,0,-0.671082,129.6, -0.4, 2.8,0,0,1024,1024,1024,1024,128.5,-89.9,98,3.988,4.026,4.011,4.017,4.007,4.011,18.497,78.8,14,Waypoint,
38.5226811,-120.3275351,5493.7096298669,73.490816,0,0.73928480056,13300,2018-06-19 20:47:39,13,0,24.056,5493.7096298669,73.490816,0.223694,1.259432455,0,0,-0.671082,129.6, -0.5, 3.3,0,0,1024,1024,1024,1024,128.5,-90,98,3.988,4.026,4.011,4.017,4.007,4.011,18.497,78.8,14,Waypoint,
38.5226812,-120.327535,5494.6938818669,74.475068,0,0.78354333216,13400,2018-06-19 20:47:39,13,0,24.056,5494.6938818669,74.475068,0.223694,1.259432455,0,0,-0.671082,129.6, -0.4, 3.4,0,0,1024,1024,1024,1024,128.5,-90,98,3.988,4.026,4.011,4.017,4.007,4.011,18.497,78.8,14,Waypoint,
38.5226812,-120.327535,5495.6781338669,75.45932,0,0.78354333216,13500,2018-06-19 20:47:39,13,0,24.056,5495.6781338669,75.45932,0.223694,1.259432455,0,0,-0.671082,129.6, -0.3, 3.5,0,0,1024,1024,1024,1024,128.5,-89.9,98,3.988,4.026,4.011,4.017,4.007,4.011,18.497,78.8,14,Waypoint,
38.5226813,-120.3275349,5496.3343018669,76.115488,0,0.82802496088,13600,2018-06-19 20:47:39,13,0,24.056,5496.3343018669,76.115488,0.223694,1.259432455,0,0,-0.671082,129.5, 0, 3.2,0,0,1024,1024,1024,1024,128.5,-89.9,98,3.988,4.026,4.011,4.017,4.007,4.011,18.497,78.8,14,Waypoint,
38.5226813,-120.3275349,5497.3185538669,77.09974,0,0.82802496088,13700,2018-06-19 20:47:39,13,0,24.056,5497.3185538669,77.09974,0.223694,1.259432455,0,0,-0.671082,129.5, 0.3, 2.9,0,0,1024,1024,1024,1024,128.5,-89.9,98,3.988,4.026,4.011,4.017,4.007,4.011,18.497,78.8,14,Waypoint,
38.5226813,-120.3275349,5498.3028058669,78.083992,0,0.82802496088,13800,2018-06-19 20:47:39,13,0,24.056,5498.3028058669,78.083992,0.223694,1.259432455,0,0,-0.671082,129.6, 0.1, 2.7,0,0,1024,1024,1024,1024,128.5,-89.9,98,3.988,4.026,4.011,4.017,4.007,4.011,18.497,78.8,14,Waypoint,
38.5226813,-120.327535,5499.2870578669,79.068244,0,0.81762797892,13900,2018-06-19 20:47:39,13,0,24.056,5499.2870578669,79.068244,0.223694,1.259432455,0,0,-0.671082,129.7, -0.2, 2.8,0,0,1024,1024,1024,1024,128.5,-90,98,3.988,4.026,4.011,4.017,4.007,4.011,18.497,78.8,14,Waypoint,
38.5226813,-120.327535,5500.2713098669,80.052496,0,0.81762797892,14000,2018-06-19 20:47:40,13,0,24.007,5500.2713098669,80.052496,0.223694,1.259432455,0,0,-0.671082,129.8, -0.3, 3,0,0,1024,1024,1024,1024,128.5,-90,98,3.989,4.026,4.008,4.014,4.001,4.005,17.959,78.8,14,Waypoint,
38.5226813,-120.327535,5501.2555618669,81.036748,0,0.81762797892,14100,2018-06-19 20:47:40,13,0,24.007,5501.2555618669,81.036748,0.223694,1.259432455,0,0,-0.671082,129.8, -0.4, 2.9,0,0,1024,1024,1024,1024,128.5,-90,98,3.989,4.026,4.008,4.014,4.001,4.005,17.959,78.8,14,Waypoint,
38.5226813,-120.327535,5502.2398138669,82.021,0,0.81762797892,14200,2018-06-19 20:47:40,13,0,24.007,5502.2398138669,82.021,0.223694,1.259432455,0,0,-0.671082,129.8, -0.4, 2.7,0,0,1024,1024,1024,1024,128.5,-89.9,98,3.989,4.026,4.008,4.014,4.001,4.005,17.959,78.8,14,Waypoint,
38.5226813,-120.327535,5502.8959818669,82.677168,0,0.81762797892,14300,2018-06-19 20:47:40,13,0,24.007,5502.8959818669,82.677168,0.223694,1.259432455,0,0,-0.671082,129.7, -0.4, 2.5,0,0,1024,1024,1024,1024,128.5,-90,98,3.989,4.026,4.008,4.014,4.001,4.005,17.959,78.8,14,Waypoint,
38.5226813,-120.327535,5505.1925698669,84.973756,0,0.81762797892,14500,2018-06-19 20:47:40,13,0,24.007,5505.1925698669,84.973756,0.223694,1.259432455,0,0,-0.671082,129.5, -0.5, 2.5,0,0,1024,1024,1024,1024,128.5,-89.9,98,3.989,4.026,4.008,4.014,4.001,4.005,17.959,78.8,14,Waypoint,
38.5226813,-120.327535,5505.8487378669,85.629924,0,0.81762797892,14600,2018-06-19 20:47:40,13,0,24.007,5505.8487378669,85.629924,0.223694,1.259432455,0,0,-0.671082,129.5, -0.4, 2.5,0,0,1024,1024,1024,1024,128.5,-89.9,98,3.989,4.026,4.008,4.014,4.001,4.005,17.959,78.8,14,Waypoint,
38.5226813,-120.327535,5506.8329898669,86.614176,0,0.81762797892,14700,2018-06-19 20:47:40,13,0,24.007,5506.8329898669,86.614176,0.223694,1.259432455,0,0,-0.671082,129.5, -0.4, 2.4,0,0,1024,1024,1024,1024,128.5,-89.9,98,3.989,4.026,4.008,4.014,4.001,4.005,17.959,78.8,14,Waypoint,
38.5226813,-120.327535,5507.8172418669,87.598428,0,0.81762797892,14800,2018-06-19 20:47:40,13,0,24.007,5507.8172418669,87.598428,0.223694,1.259432455,0,0,-0.671082,129.6, -0.4, 2.6,0,0,1024,1024,1024,1024,128.5,-89.9,98,3.989,4.026,4.008,4.014,4.001,4.005,17.959,78.8,14,Waypoint,
38.5226813,-120.327535,5508.8014938669,88.58268,0,0.81762797892,15000,2018-06-19 20:47:41,13,0,23.977,5508.8014938669,88.58268,0.223694,1.259432455,0,0,-0.671082,129.5, -0.4, 2.7,0,0,1024,1024,1024,1024,128.5,-89.9,98,3.979,4.022,3.993,4.007,3.993,4.006,18.544,78.8,14,Waypoint,
38.5226813,-120.3275351,5509.7857458669,89.566932,0,0.80810698124,15100,2018-06-19 20:47:41,13,0,23.977,5509.7857458669,89.566932,0.223694,1.259432455,0,0,-0.671082,129.3, -0.5, 2.7,0,0,1024,1024,1024,1024,128.5,-90,98,3.979,4.022,3.993,4.007,3.993,4.006,18.544,78.8,14,Waypoint,
38.5226813,-120.327535,5510.7699978669,90.551184,0,0.81762797892,15200,2018-06-19 20:47:41,13,0,23.977,5510.7699978669,90.551184,0.223694,1.259432455,0,0,-0.671082,129, -0.7, 3.2,0,0,1024,1024,1024,1024,128.5,-89.9,98,3.979,4.022,3.993,4.007,3.993,4.006,18.544,78.8,14,Waypoint,
38.5226814,-120.327535,5511.7542498669,91.535436,0,0.85191275692,15300,2018-06-19 20:47:41,13,0,23.977,5511.7542498669,91.535436,0.223694,1.259432455,0,0,-0.671082,128.6, -0.6, 3.2,0,0,1024,1024,1024,1024,128.5,-89.9,98,3.979,4.022,3.993,4.007,3.993,4.006,18.544,78.8,14,Waypoint,
38.5226815,-120.3275348,5513.3946698669,93.175856,0,0.90637142008,15400,2018-06-19 20:47:41,13,0,23.977,5513.3946698669,93.175856,0.223694,1.259432455,0,0,-0.671082,128.6, -0.1, 3.6,0,0,1024,1024,1024,1024,128.5,-89.9,98,3.979,4.022,3.993,4.007,3.993,4.006,18.544,78.8,14,Waypoint,
38.5226815,-120.3275346,5515.3631738669,95.14436,0,0.92944884864,15600,2018-06-19 20:47:41,13,0,23.977,5515.3631738669,95.14436,0.223694,1.259432455,0,0,-0.671082,129.3, 0.2, 3.9,0,0,1024,1024,1024,1024,128.5,-89.9,98,3.979,4.022,3.993,4.007,3.993,4.006,18.544,78.8,14,Waypoint,
38.5226816,-120.3275345,5517.3316778669,97.112864,0,0.97471459812,15800,2018-06-19 20:47:41,13,0,23.977,5517.3316778669,97.112864,0.223694,1.259432455,0,0,-0.671082,130, 0.3, 3.9,0,0,1024,1024,1024,1024,128.5,-89.9,98,3.979,4.022,3.993,4.007,3.993,4.006,18.544,78.8,14,Waypoint,
38.5226817,-120.3275344,5518.3159298669,98.097116,0,1.02007549196,15900,2018-06-19 20:47:41,13,0,23.977,5518.3159298669,98.097116,0.223694,1.259432455,0,0,-0.671082,130.2, 0, 3.9,0,0,1024,1024,1024,1024,128.5,-89.9,98,3.979,4.022,3.993,4.007,3.993,4.006,18.544,78.8,14,Waypoint,
38.5226817,-120.3275343,5519.3001818669,99.081368,0,1.0331693244,16000,2018-06-19 20:47:42,13,0,23.963,5519.3001818669,99.081368,0.223694,1.259432455,0,0,-0.671082,130.2, -0.1, 4.1,0,0,1024,1024,1024,1024,128.5,-89.9,98,3.963,4.007,3.992,3.99,3.985,3.985,18.758,78.8,14,Waypoint,
38.5226818,-120.3275343,5520.2844338669,100.06562,0,1.0655184068,16100,2018-06-19 20:47:42,13,0,23.963,5520.2844338669,100.06562,0.223694,1.259432455,0,0,-0.671082,130.2, -0.1, 4.2,0,0,1024,1024,1024,1024,128.5,-90,98,3.963,4.007,3.992,3.99,3.985,3.985,18.758,78.8,14,Waypoint,
38.5226818,-120.3275342,5522.2529378669,102.034124,0,1.07881893216,16300,2018-06-19 20:47:42,13,0,23.963,5522.2529378669,102.034124,0.223694,1.259432455,0,0,-0.671082,130.2, -0.1, 4.6,0,0,1024,1024,1024,1024,128.5,-89.9,98,3.963,4.007,3.992,3.99,3.985,3.985,18.758,78.8,14,Waypoint,
38.5226819,-120.3275341,5523.2371898669,103.018376,0,1.12452103336,16400,2018-06-19 20:47:42,13,0,23.963,5523.2371898669,103.018376,0.223694,1.259432455,0,0,-0.671082,130.2, -0.1, 4.5,0,0,1024,1024,1024,1024,128.5,-89.9,98,3.963,4.007,3.992,3.99,3.985,3.985,18.758,78.8,14,Waypoint,
38.5226819,-120.3275341,5524.2214418669,104.002628,0,1.12452103336,16500,2018-06-19 20:47:42,13,0,23.963,5524.2214418669,104.002628,0.223694,1.259432455,0,0,-0.671082,130.2, 0, 4.4,0,0,1024,1024,1024,1024,128.5,-89.9,98,3.963,4.007,3.992,3.99,3.985,3.985,18.758,78.8,14,Waypoint,
38.5226819,-120.3275341,5525.8618618669,105.643048,0,1.12452103336,16700,2018-06-19 20:47:42,13,0,23.963,5525.8618618669,105.643048,0.223694,1.259432455,0,0,-0.671082,129.9, 0, 3.9,0,0,1024,1024,1024,1024,128.5,-89.9,98,3.963,4.007,3.992,3.99,3.985,3.985,18.758,78.8,14,Waypoint,
38.5226819,-120.3275341,5526.8461138669,106.6273,0,1.12452103336,16800,2018-06-19 20:47:42,13,0,23.963,5526.8461138669,106.6273,0.223694,1.259432455,0,0,-0.671082,129.7, 0, 3.6,0,0,1024,1024,1024,1024,128.5,-89.9,98,3.963,4.007,3.992,3.99,3.985,3.985,18.758,78.8,14,Waypoint,
38.5226819,-120.3275342,5527.8303658669,107.611552,0,1.11103350012,16910,2018-06-19 20:47:42,13,0,23.963,5527.8303658669,107.611552,0.223694,1.259432455,0,0,-0.671082,129.4, -0.1, 3.4,0,0,1024,1024,1024,1024,128.5,-90,98,3.963,4.007,3.992,3.99,3.985,3.985,18.758,78.8,14,Waypoint,
38.5226819,-120.3275342,5528.8146178669,108.595804,0,1.11103350012,17000,2018-06-19 20:47:43,13,0,23.927,5528.8146178669,108.595804,0.223694,1.259432455,0,0,-0.671082,129.2, -0.4, 3.4,0,0,1024,1024,1024,1024,128.5,-89.9,98,3.97,4.003,4,3.988,3.987,3.989,18.629,78.8,14,Waypoint,
38.5226819,-120.3275343,5529.7988698669,109.580056,0,1.09812667556,17100,2018-06-19 20:47:43,13,0,23.927,5529.7988698669,109.580056,0.223694,1.259432455,0,0,-0.671082,129.1, -0.6, 3.5,0,0,1024,1024,1024,1024,128.5,-90,98,3.97,4.003,4,3.988,3.987,3.989,18.629,78.8,14,Waypoint,
38.5226819,-120.3275343,5530.7831218669,110.564308,0,1.09812667556,17300,2018-06-19 20:47:43,13,0,23.927,5530.7831218669,110.564308,0.223694,1.259432455,0,0,-0.671082,129.1, -0.8, 3.6,0,0,1024,1024,1024,1024,128.5,-90,98,3.97,4.003,4,3.988,3.987,3.989,18.629,78.8,14,Waypoint,
38.522682,-120.3275343,5531.4392898669,111.220476,0,1.1309711648,17400,2018-06-19 20:47:43,13,0,23.927,5531.4392898669,111.220476,0.223694,1.259432455,0,0,-0.671082,129.3, -0.9, 3.9,0,0,1024,1024,1024,1024,128.5,-90,98,3.97,4.003,4,3.988,3.987,3.989,18.629,78.8,14,Waypoint,
38.522682,-120.3275343,5532.4235418669,112.204728,0,1.1309711648,17500,2018-06-19 20:47:43,13,0,23.927,5532.4235418669,112.204728,0.223694,1.259432455,0,0,-0.671082,129.5, -0.8, 4,0,0,1024,1024,1024,1024,128.5,-89.9,98,3.97,4.003,4,3.988,3.987,3.989,18.629,78.8,14,Waypoint,
38.522682,-120.3275344,5534.3920458669,114.173232,0,1.11901906468,17700,2018-06-19 20:47:43,13,0,23.927,5534.3920458669,114.173232,0.223694,1.259432455,0,0,-0.671082,129.6, -0.6, 3.8,0,0,1024,1024,1024,1024,128.5,-89.9,98,3.97,4.003,4,3.988,3.987,3.989,18.629,78.8,14,Waypoint,
38.522682,-120.3275344,5536.3605498669,116.141736,0,1.11901906468,17800,2018-06-19 20:47:43,13,0,23.927,5536.3605498669,116.141736,0.223694,1.259432455,0,0,-0.671082,129.2, -0.1, 3.9,0,0,1024,1024,1024,1024,128.5,-89.9,98,3.97,4.003,4,3.988,3.987,3.989,18.629,78.8,14,Waypoint,
38.5226819,-120.3275343,5538.3290538669,118.11024,0,1.09812667556,18000,2018-06-19 20:47:44,13,0,23.88,5538.3290538669,118.11024,0.223694,1.259432455,0,0,-0.671082,128.9, 0, 4,0,0,1024,1024,1024,1024,128.5,-89.9,98,3.959,3.993,3.994,3.978,3.986,3.977,18.601,78.8,14,Waypoint,
38.5226818,-120.3275343,5540.2975578669,120.078744,0,1.0655184068,18200,2018-06-19 20:47:44,13,0,23.88,5540.2975578669,120.078744,0.223694,1.259432455,0,0,-0.671082,129.1, 0.2, 3.6,0,0,1024,1024,1024,1024,128.5,-89.9,98,3.959,3.993,3.994,3.978,3.986,3.977,18.601,78.8,14,Waypoint,
38.5226817,-120.3275343,5542.5941458669,122.375332,0,1.0331693244,18400,2018-06-19 20:47:44,13,0,23.88,5542.5941458669,122.375332,0.223694,1.259432455,0,0,-0.671082,129.5, 0.4, 3.3,0,0,1024,1024,1024,1024,128.5,-89.9,98,3.959,3.993,3.994,3.978,3.986,3.977,18.601,78.8,14,Waypoint,
38.5226816,-120.3275343,5543.5783978669,123.359584,0,1.00110567508,18500,2018-06-19 20:47:44,13,0,23.88,5543.5783978669,123.359584,0.223694,1.259432455,0,0,-0.671082,129.7, 0.5, 3.3,0,0,1024,1024,1024,1024,128.5,-89.9,98,3.959,3.993,3.994,3.978,3.986,3.977,18.601,78.8,14,Waypoint,
38.5226814,-120.3275344,5545.2188178669,125.000004,0,0.92350396656,18700,2018-06-19 20:47:44,13,0,23.88,5545.2188178669,125.000004,0.223694,1.259432455,0,0,-0.671082,129.9, 0.2, 2.9,0,0,1024,1024,1024,1024,128.5,-89.9,98,3.959,3.993,3.994,3.978,3.986,3.977,18.601,78.8,14,Waypoint,
38.5226814,-120.3275344,5546.5311538669,126.31234,0,0.92350396656,18800,2018-06-19 20:47:44,13,0,23.88,5546.5311538669,126.31234,0.223694,1.259432455,0,0,-0.671082,130, 0.3, 2.9,0,0,1024,1024,1024,1024,128.5,-89.9,98,3.959,3.993,3.994,3.978,3.986,3.977,18.601,78.8,14,Waypoint,
38.5226813,-120.3275344,5547.5154058669,127.296592,0,0.89197509416,18900,2018-06-19 20:47:44,13,0,23.88,5547.5154058669,127.296592,0.223694,1.259432455,0,0,-0.671082,130, 0.4, 2.9,0,0,1024,1024,1024,1024,128.5,-89.9,98,3.959,3.993,3.994,3.978,3.986,3.977,18.601,78.8,14,Waypoint,
38.5226813,-120.3275344,5548.4996578669,128.280844,0,0.89197509416,19000,2018-06-19 20:47:45,13,0,23.948,5548.4996578669,128.280844,0.223694,1.259432455,0,0,-0.671082,130, 0.4, 2.9,0,0,1024,1024,1024,1024,128.5,-89.9,98,3.967,4.008,4.01,3.988,3.996,3.993,17.871,78.8,14,Waypoint,
38.5226812,-120.3275344,5549.4839098669,129.265096,0,0.86083992256,19100,2018-06-19 20:47:45,13,0,23.948,5549.4839098669,129.265096,0.223694,1.259432455,0,0,-0.671082,130, 0.4, 3,0,0,1024,1024,1024,1024,128.5,-89.9,98,3.967,4.008,4.01,3.988,3.996,3.993,17.871,78.8,14,Waypoint,
38.5226812,-120.3275344,5550.4681618669,130.249348,0,0.86083992256,19200,2018-06-19 20:47:45,13,0,23.948,5550.4681618669,130.249348,0.223694,1.259432455,0,0,-0.671082,130, 0.4, 3.2,0,0,1024,1024,1024,1024,128.5,-89.9,98,3.967,4.008,4.01,3.988,3.996,3.993,17.871,78.8,14,Waypoint,
38.5226812,-120.3275343,5551.7804978669,131.561684,0,0.87631892568,19300,2018-06-19 20:47:45,13,0,23.948,5551.7804978669,131.561684,0.223694,1.259432455,0,0,-0.671082,129.9, 0.6, 3.7,0,0,1024,1024,1024,1024,128.5,-89.9,98,3.967,4.008,4.01,3.988,3.996,3.993,17.871,78.8,14,Waypoint,
38.5226812,-120.3275342,5553.7490018669,133.530188,0,0.89244097344,19500,2018-06-19 20:47:45,13,0,23.948,5553.7490018669,133.530188,0.223694,1.259432455,0,0,-0.671082,129.6, 0.6, 3.6,0,0,1024,1024,1024,1024,128.5,-89.9,98,3.967,4.008,4.01,3.988,3.996,3.993,17.871,78.8,14,Waypoint,
38.5226812,-120.3275342,5554.7332538669,134.51444,0,0.89244097344,19600,2018-06-19 20:47:45,13,0,23.948,5554.7332538669,134.51444,0.223694,1.259432455,0,0,-0.671082,129.5, 0.4, 3.7,0,0,1024,1024,1024,1024,128.5,-89.9,98,3.967,4.008,4.01,3.988,3.996,3.993,17.871,78.8,14,Waypoint,
38.5226812,-120.3275341,5555.7175058669,135.498692,0,0.90917325744,19700,2018-06-19 20:47:45,13,0,23.948,5555.7175058669,135.498692,0.223694,1.259432455,0,0,-0.671082,129.4, 0.3, 4,0,0,1024,1024,1024,1024,128.5,-89.9,98,3.967,4.008,4.01,3.988,3.996,3.993,17.871,78.8,14,Waypoint,
38.5226812,-120.3275341,5556.7017578669,136.482944,0,0.90917325744,19810,2018-06-19 20:47:45,13,0,23.948,5556.7017578669,136.482944,0.223694,1.259432455,0,0,-0.671082,129.4, 0.3, 4.1,0,0,1024,1024,1024,1024,128.5,-89.9,98,3.967,4.008,4.01,3.988,3.996,3.993,17.871,78.8,14,Waypoint,
38.5226812,-120.3275341,5556.7017578669,136.482944,0,0.90917325744,19900,2018-06-19 20:47:45,13,0,23.948,5556.7017578669,136.482944,0.223694,1.259432455,0,0,-0.671082,129.4, 0.3, 4.1,0,0,1024,1024,1024,1024,128.5,-89.9,98,3.967,4.008,4.01,3.988,3.996,3.993,17.871,78.8,14,Waypoint,
38.5226812,-120.327534,5557.6860098669,137.467196,0,0.92648625012,20000,2018-06-19 20:47:46,13,0,23.924,5557.6860098669,137.467196,0.223694,1.259432455,0,0,-0.671082,129.3, 0.4, 4,0,0,1024,1024,1024,1024,128.5,-89.9,97,3.975,4.007,3.997,3.985,3.992,3.991,17.724,78.8,14,Waypoint,
38.5226813,-120.327534,5558.6702618669,138.451448,0,0.95548559488,20100,2018-06-19 20:47:46,13,0,23.924,5558.6702618669,138.451448,0.223694,1.259432455,0,0,-0.671082,129.3, 0.2, 3.9,0,0,1024,1024,1024,1024,128.5,-89.9,97,3.975,4.007,3.997,3.985,3.992,3.991,17.724,78.8,14,Waypoint,
38.5226813,-120.327534,5559.6545138669,139.4357,0,0.95548559488,20200,2018-06-19 20:47:46,13,0,23.924,5559.6545138669,139.4357,0.223694,1.259432455,0,0,-0.671082,129.3, 0.1, 3.6,0,0,1024,1024,1024,1024,128.5,-89.9,97,3.975,4.007,3.997,3.985,3.992,3.991,17.724,78.8,14,Waypoint,
38.5226813,-120.327534,5560.3106818669,140.091868,0,0.95548559488,20300,2018-06-19 20:47:46,13,0,23.924,5560.3106818669,140.091868,0.223694,1.259432455,0,0,-0.671082,129.4, 0, 3.5,0,0,1024,1024,1024,1024,128.5,-89.9,97,3.975,4.007,3.997,3.985,3.992,3.991,17.724,78.8,14,Waypoint,
38.5226813,-120.327534,5562.2791858669,142.060372,0,0.95548559488,20400,2018-06-19 20:47:46,13,0,23.924,5562.2791858669,142.060372,0.223694,1.259432455,0,0,-0.671082,129.6, 0.1, 3.6,0,0,1024,1024,1024,1024,128.5,-89.9,97,3.975,4.007,3.997,3.985,3.992,3.991,17.724,78.8,14,Waypoint,
38.5226813,-120.327534,5564.2476898669,144.028876,0,0.95548559488,20600,2018-06-19 20:47:46,13,0,23.924,5564.2476898669,144.028876,0.223694,1.259432455,0,0,-0.671082,129.5, -0.2, 4,0,0,1024,1024,1024,1024,128.5,-90,97,3.975,4.007,3.997,3.985,3.992,3.991,17.724,78.8,14,Waypoint,
38.5226814,-120.3275341,5565.2319418669,145.013128,0,0.9687172226,20700,2018-06-19 20:47:46,13,0,23.924,5565.2319418669,145.013128,0.223694,1.259432455,0,0,-0.671082,129.3, -0.5, 4.1,0,0,1024,1024,1024,1024,128.5,-90,97,3.975,4.007,3.997,3.985,3.992,3.991,17.724,78.8,14,Waypoint,
38.5226814,-120.3275342,5566.2161938669,145.99738,0,0.95303152656,20800,2018-06-19 20:47:46,13,0,23.924,5566.2161938669,145.99738,0.223694,1.259432455,0,0,-0.671082,129.2, -0.7, 3.8,0,0,1024,1024,1024,1024,128.5,-90,97,3.975,4.007,3.997,3.985,3.992,3.991,17.724,78.8,14,Waypoint,
38.5226814,-120.3275342,5567.2004458669,146.981632,0,0.95303152656,20900,2018-06-19 20:47:46,13,0,23.924,5567.2004458669,146.981632,0.223694,1.259432455,0,0,-0.671082,129.1, -0.7, 3.5,0,0,1024,1024,1024,1024,128.5,-90,97,3.975,4.007,3.997,3.985,3.992,3.991,17.724,78.8,14,Waypoint,
38.5226814,-120.3275342,5568.1846978669,147.965884,0,0.95303152656,21000,2018-06-19 20:47:47,13,0,23.908,5568.1846978669,147.965884,0.223694,1.259432455,0,0,-0.671082,129.2, -0.6, 3.2,0,0,1024,1024,1024,1024,128.5,-89.9,97,3.975,4.007,3.997,3.985,3.992,3.991,17.762,78.8,14,Waypoint,
38.5226814,-120.3275343,5569.4970338669,149.27822,0,0.93794950508,21100,2018-06-19 20:47:47,13,0,23.908,5569.4970338669,149.27822,0.223694,1.259432455,0,0,-0.671082,129.2, -0.3, 3.3,0,0,1024,1024,1024,1024,128.5,-89.9,97,3.975,4.007,3.997,3.985,3.992,3.991,17.762,78.8,14,Waypoint,
38.5226813,-120.3275343,5570.4812858669,150.262472,0,0.9069226012,21200,2018-06-19 20:47:47,13,0,23.908,5570.4812858669,150.262472,0.223694,1.259432455,0,0,-0.671082,129.3, -0.2, 3.7,0,0,1024,1024,1024,1024,128.5,-89.9,97,3.975,4.007,3.997,3.985,3.992,3.991,17.762,78.8,14,Waypoint,
38.5226814,-120.3275343,5572.4497898669,152.230976,0,0.93794950508,21400,2018-06-19 20:47:47,13,0,23.908,5572.4497898669,152.230976,0.223694,1.259432455,0,0,-0.671082,129.3, -0.1, 5,0,0,1024,1024,1024,1024,128.5,-89.9,97,3.975,4.007,3.997,3.985,3.992,3.991,17.762,78.8,14,Waypoint,
38.5226815,-120.3275342,5573.4340418669,153.215228,0.223694,0.9839567244,21500,2018-06-19 20:47:47,13,0,23.908,5573.4340418669,153.215228,0.223694,1.259432455,0,0,-0.671082,129.4, -0.3, 5.5,0,0,1024,1024,1024,1024,128.5,-89.9,97,3.975,4.007,3.997,3.985,3.992,3.991,17.762,78.8,14,Waypoint,
38.5226817,-120.3275341,5574.4182938669,154.19948,0.223694,1.06118113632,21600,2018-06-19 20:47:47,13,0,23.908,5574.4182938669,154.19948,0.223694,1.259432455,0,0,-0.671082,129.4, -0.5, 5.8,0,0,1024,1024,1024,1024,128.5,-89.9,97,3.975,4.007,3.997,3.985,3.992,3.991,17.762,78.8,14,Waypoint,
38.5226817,-120.3275341,5575.4025458669,155.183732,0,1.06118113632,21700,2018-06-19 20:47:47,13,0,23.908,5575.4025458669,155.183732,0.223694,1.259432455,0,0,-0.671082,129.5, -0.5, 5.8,0,0,1024,1024,1024,1024,128.5,-89.9,97,3.975,4.007,3.997,3.985,3.992,3.991,17.762,78.8,14,Waypoint,
38.5226818,-120.3275341,5576.3867978669,156.167984,0,1.0927001662,21800,2018-06-19 20:47:47,13,0,23.908,5576.3867978669,156.167984,0.223694,1.259432455,0,0,-0.671082,129.4, -0.7, 5.7,0,0,1024,1024,1024,1024,128.5,-90,97,3.975,4.007,3.997,3.985,3.992,3.991,17.762,78.8,14,Waypoint,
38.5226818,-120.3275341,5577.3710498669,157.152236,0,1.0927001662,21900,2018-06-19 20:47:47,13,0,23.908,5577.3710498669,157.152236,0.223694,1.259432455,0,0,-0.671082,129.4, -0.6, 5.6,0,0,1024,1024,1024,1024,128.5,-89.9,97,3.975,4.007,3.997,3.985,3.992,3.991,17.762,78.8,14,Waypoint,
38.5226817,-120.3275342,5579.3395538669,159.12074,0,1.04687995476,22200,2018-06-19 20:47:48,13,0,23.908,5579.3395538669,159.12074,0.223694,1.259432455,0,0,-0.671082,129.3, -0.4, 5.1,0,0,1024,1024,1024,1024,128.5,-89.9,97,3.975,4.007,3.997,3.985,3.992,3.991,17.762,78.8,14,Waypoint,
38.5226817,-120.3275343,5580.3238058669,160.104992,0,1.0331693244,22300,2018-06-19 20:47:48,13,0,23.908,5580.3238058669,160.104992,0.223694,1.259432455,0,0,-0.671082,129.4, -0.4, 4.6,0,0,1024,1024,1024,1024,128.5,-89.9,97,3.975,4.007,3.997,3.985,3.992,3.991,17.762,78.8,14,Waypoint,
38.5226817,-120.3275343,5581.3080578669,161.089244,0,1.0331693244,22400,2018-06-19 20:47:48,13,0,23.908,5581.3080578669,161.089244,0.223694,1.259432455,0,0,-0.671082,129.5, -0.4, 4.6,0,0,1024,1024,1024,1024,128.5,-89.9,97,3.975,4.007,3.997,3.985,3.992,3.991,17.762,78.8,14,Waypoint,
38.5226817,-120.3275344,5582.2923098669,162.073496,0,1.02007549196,22500,2018-06-19 20:47:48,13,0,23.908,5582.2923098669,162.073496,0.223694,1.259432455,0,0,-0.671082,129.6, -0.5, 4.5,0,0,1024,1024,1024,1024,128.5,-89.9,97,3.975,4.007,3.997,3.985,3.992,3.991,17.762,78.8,14,Waypoint,
38.5226817,-120.3275345,5584.2608138669,164.042,0,1.00761814248,22600,2018-06-19 20:47:48,13,0,23.908,5584.2608138669,164.042,0.223694,1.259432455,0,0,-0.671082,129.7, -0.3, 4.4,0,0,1024,1024,1024,1024,128.5,-89.9,97,3.975,4.007,3.997,3.985,3.992,3.991,17.762,78.8,14,Waypoint,
38.5226816,-120.3275346,5585.2450658669,165.026252,0,0.962516435,22700,2018-06-19 20:47:48,13,0,23.908,5585.2450658669,165.026252,0.223694,1.259432455,0,0,-0.671082,129.7, -0.3, 4.5,0,0,1024,1024,1024,1024,128.5,-89.9,97,3.975,4.007,3.997,3.985,3.992,3.991,17.762,78.8,14,Waypoint,
38.5226816,-120.3275346,5586.2293178669,166.010504,0,0.962516435,22800,2018-06-19 20:47:48,13,0,23.908,5586.2293178669,166.010504,0.223694,1.259432455,0,0,-0.671082,129.5, -0.2, 4.3,0,0,1024,1024,1024,1024,128.5,-89.9,97,3.975,4.007,3.997,3.985,3.992,3.991,17.762,78.8,14,Waypoint,
38.5226816,-120.3275346,5587.2135698669,166.994756,0,0.962516435,22900,2018-06-19 20:47:48,13,0,23.908,5587.2135698669,166.994756,0.223694,1.259432455,0,0,-0.671082,129.3, -0.2, 4.3,0,0,1024,1024,1024,1024,128.5,-89.9,97,3.975,4.007,3.997,3.985,3.992,3.991,17.762,78.8,14,Waypoint,
38.5226816,-120.3275347,5589.1820738669,168.96326,0,0.95102037164,23100,2018-06-19 20:47:49,13,0,23.908,5589.1820738669,168.96326,0.223694,1.259432455,0,0,-0.671082,129.3, -0.4, 4.7,0,0,1024,1024,1024,1024,128.5,-90,97,3.975,4.007,3.997,3.985,3.992,3.991,17.762,78.8,14,Waypoint,
38.5226816,-120.3275347,5590.4944098669,170.275596,0,0.95102037164,23200,2018-06-19 20:47:49,13,0,23.908,5590.4944098669,170.275596,0.223694,1.259432455,0,0,-0.671082,129.3, -0.5, 4.7,0,0,1024,1024,1024,1024,128.5,-90,97,3.975,4.007,3.997,3.985,3.992,3.991,17.762,78.8,14,Waypoint,
38.5226816,-120.3275347,5591.4786618669,171.259848,0,0.95102037164,23300,2018-06-19 20:47:49,13,0,23.908,5591.4786618669,171.259848,0.223694,1.259432455,0,0,-0.671082,129.4, -0.6, 4.8,0,0,1024,1024,1024,1024,128.5,-90,97,3.975,4.007,3.997,3.985,3.992,3.991,17.762,78.8,14,Waypoint,
38.5226816,-120.3275347,5592.4629138669,172.2441,0,0.95102037164,23400,2018-06-19 20:47:49,13,0,23.908,5592.4629138669,172.2441,0.223694,1.259432455,0,0,-0.671082,129.5, -0.6, 5,0,0,1024,1024,1024,1024,128.5,-90,97,3.975,4.007,3.997,3.985,3.992,3.991,17.762,78.8,14,Waypoint,
38.5226816,-120.3275347,5593.4471658669,173.228352,0,0.95102037164,23500,2018-06-19 20:47:49,13,0,23.908,5593.4471658669,173.228352,0.223694,1.259432455,0,0,-0.671082,129.5, -0.8, 5.3,0,0,1024,1024,1024,1024,128.5,-90,97,3.975,4.007,3.997,3.985,3.992,3.991,17.762,78.8,14,Waypoint,
38.5226817,-120.3275347,5594.4314178669,174.212604,0,0.98471787928,23600,2018-06-19 20:47:49,13,0,23.908,5594.4314178669,174.212604,0.223694,1.259432455,0,0,-0.671082,129.6, -1, 5.6,0,0,1024,1024,1024,1024,128.5,-90,97,3.975,4.007,3.997,3.985,3.992,3.991,17.762,78.8,14,Waypoint,
38.5226817,-120.3275347,5595.4156698669,175.196856,0,0.98471787928,23700,2018-06-19 20:47:49,13,0,23.908,5595.4156698669,175.196856,0.223694,1.259432455,0,0,-0.671082,129.6, -1.2, 5.7,0,0,1024,1024,1024,1024,128.6,-90,97,3.975,4.007,3.997,3.985,3.992,3.991,17.762,78.8,14,Waypoint,
38.5226818,-120.3275347,5596.3999218669,176.181108,0,1.01860567564,23800,2018-06-19 20:47:49,13,0,23.908,5596.3999218669,176.181108,0.223694,1.259432455,0,0,-0.671082,129.6, -1.3, 5.8,0,0,1024,1024,1024,1024,128.6,-90,97,3.975,4.007,3.997,3.985,3.992,3.991,17.762,78.8,14,Waypoint,
38.5226818,-120.3275347,5597.3841738669,177.16536,0,1.01860567564,23900,2018-06-19 20:47:49,13,0,23.908,5597.3841738669,177.16536,0.223694,1.259432455,0,0,-0.671082,129.4, -1.4, 5.7,0,0,1024,1024,1024,1024,128.6,-90,97,3.975,4.007,3.997,3.985,3.992,3.991,17.762,78.8,14,Waypoint,
38.5226819,-120.3275347,5598.3684258669,178.149612,0,1.05266735652,24000,2018-06-19 20:47:50,13,0,23.868,5598.3684258669,178.149612,0.223694,1.259432455,0,0,-0.671082,129.2, -1.5, 5.9,0,0,1024,1024,1024,1024,128.6,-90,97,3.959,4.003,3.986,3.96,3.968,3.978,18.034,80.6,14,Waypoint,
38.5226819,-120.3275347,5600.3369298669,180.118116,0,1.05266735652,24200,2018-06-19 20:47:50,13,0,23.868,5600.3369298669,180.118116,0.223694,1.259432455,0,0,-0.671082,129.3, -1, 6.9,0,0,1024,1024,1024,1024,128.6,-89.9,97,3.959,4.003,3.986,3.96,3.968,3.978,18.034,80.6,14,Waypoint,
38.5226819,-120.3275346,5600.9930978669,180.774284,0,1.06306433848,24300,2018-06-19 20:47:50,13,0,23.868,5600.9930978669,180.774284,0.223694,1.259432455,0,0,-0.671082,129.3, -0.8, 6.2,0,0,1024,1024,1024,1024,128.6,-89.9,97,3.959,4.003,3.986,3.96,3.968,3.978,18.034,80.6,14,Waypoint,
38.5226819,-120.3275347,5603.9458538669,183.72704,0,1.05266735652,24600,2018-06-19 20:47:50,13,0,23.868,5603.9458538669,183.72704,0.223694,1.259432455,0,0,-0.671082,129.3, -1.1, 6.3,0,0,1024,1024,1024,1024,128.6,-90,97,3.959,4.003,3.986,3.96,3.968,3.978,18.034,80.6,14,Waypoint,
38.5226819,-120.3275348,5604.9301058669,184.711292,0,1.0429462276,24800,2018-06-19 20:47:50,13,0,23.868,5604.9301058669,184.711292,0.223694,1.259432455,0,0,-0.671082,129.4, -1.1, 5.7,0,0,1024,1024,1024,1024,128.6,-89.9,97,3.959,4.003,3.986,3.96,3.968,3.978,18.034,80.6,14,Waypoint,
38.5226818,-120.327535,5606.5705258669,186.351712,0,0.99062339128,25000,2018-06-19 20:47:51,13,0,23.868,5606.5705258669,186.351712,0.223694,1.259432455,0,0,-0.671082,129.5, -1.3, 5.2,0,0,1024,1024,1024,1024,128.6,-90,97,3.959,4.003,3.986,3.96,3.968,3.978,18.034,80.6,14,Waypoint,
38.5226815,-120.3275353,5609.5232818669,189.304468,0,0.862614857,25200,2018-06-19 20:47:51,13,0,23.868,5609.5232818669,189.304468,0.223694,1.259432455,0,0,-0.671082,129.6, -1.6, 3.8,0,0,1024,1024,1024,1024,128.6,-90,97,3.959,4.003,3.986,3.96,3.968,3.978,18.034,80.6,14,Waypoint,
38.5226814,-120.3275356,5611.4917858669,191.272972,0,0.81074805744,25400,2018-06-19 20:47:51,13,0,23.868,5611.4917858669,191.272972,0.223694,1.259432455,0,0,-0.671082,129.7, -1.3, 4.6,0,0,1024,1024,1024,1024,128.6,-89.9,97,3.959,4.003,3.986,3.96,3.968,3.978,18.034,80.6,14,Waypoint,
38.5226814,-120.3275356,5612.4760378669,192.257224,0,0.81074805744,25500,2018-06-19 20:47:51,13,0,23.868,5612.4760378669,192.257224,0.223694,1.259432455,0,0,-0.671082,129.6, -1.4, 5,0,0,1024,1024,1024,1024,128.6,-89.9,97,3.959,4.003,3.986,3.96,3.968,3.978,18.034,80.6,14,Waypoint,
38.5226814,-120.3275357,5613.4602898669,193.241476,0,0.80722443528,25600,2018-06-19 20:47:51,13,0,23.868,5613.4602898669,193.241476,0.223694,1.259432455,0,0,-0.671082,129.5, -1.3, 5.3,0,0,1024,1024,1024,1024,128.6,-89.9,97,3.959,4.003,3.986,3.96,3.968,3.978,18.034,80.6,14,Waypoint,
38.5226813,-120.3275359,5615.4287938669,195.20998,0,0.7667159038,25800,2018-06-19 20:47:51,13,0,23.868,5615.4287938669,195.20998,0.223694,1.259432455,0,0,-0.671082,129.4, -2.1, 4.7,0,0,1024,1024,1024,1024,128.6,-90,97,3.959,4.003,3.986,3.96,3.968,3.978,18.034,80.6,14,Waypoint,
38.5226813,-120.327536,5616.4130458669,196.194232,0,0.76618440772,25900,2018-06-19 20:47:51,13,0,23.868,5616.4130458669,196.194232,0.223694,1.259432455,0,0,-0.671082,129.4, -2.3, 4.1,0,0,1024,1024,1024,1024,128.6,-90,97,3.959,4.003,3.986,3.96,3.968,3.978,18.034,80.6,14,Waypoint,
38.5226812,-120.3275361,5617.3972978669,197.178484,0,0.73025592888,26000,2018-06-19 20:47:52,13,0,23.971,5617.3972978669,197.178484,0.223694,1.259432455,0,0,-0.671082,129.4, -2.2, 3.7,0,0,1024,1024,1024,1024,128.6,-89.9,97,3.962,4.017,3.996,3.993,3.994,3.993,16.15,80.6,14,Waypoint,
38.5226811,-120.3275362,5618.3815498669,198.162736,0,0.69556104588,26100,2018-06-19 20:47:52,13,0,23.971,5618.3815498669,198.162736,0.223694,1.259432455,0,0,-0.671082,129.3, -2.2, 3.4,0,0,1024,1024,1024,1024,128.6,-90,97,3.962,4.017,3.996,3.993,3.994,3.993,16.15,80.6,14,Waypoint,
38.5226811,-120.3275364,5620.0219698669,199.803156,0,0.70255251592,26300,2018-06-19 20:47:52,13,0,23.971,5620.0219698669,199.803156,0.223694,1.259432455,0,0,-0.671082,129.2, -2.2, 3.4,0,0,1024,1024,1024,1024,128.6,-89.9,97,3.962,4.017,3.996,3.993,3.994,3.993,16.15,80.6,14,Waypoint,
38.522681,-120.3275364,5621.0062218669,200.787408,0,0.66658138616,26400,2018-06-19 20:47:52,13,0,23.971,5621.0062218669,200.787408,0.223694,1.259432455,0,0,-0.671082,129.1, -2.1, 3.6,0,0,1024,1024,1024,1024,128.6,-89.9,97,3.962,4.017,3.996,3.993,3.994,3.993,16.15,80.6,14,Waypoint,
38.5226811,-120.3275364,5621.9904738669,201.77166,0,0.70255251592,26500,2018-06-19 20:47:52,13,0,23.971,5621.9904738669,201.77166,0.223694,1.259432455,0,0,-0.671082,129.1, -2, 4.5,0,0,1024,1024,1024,1024,128.6,-89.9,97,3.962,4.017,3.996,3.993,3.994,3.993,16.15,80.6,14,Waypoint,
38.5226811,-120.3275363,5622.9747258669,202.755912,0,0.69848427432,26600,2018-06-19 20:47:52,13,0,23.971,5622.9747258669,202.755912,0.223694,1.259432455,0,0,-0.671082,129.1, -1.9, 5.1,0,0,1024,1024,1024,1024,128.6,-89.9,97,3.962,4.017,3.996,3.993,3.994,3.993,16.15,80.6,14,Waypoint,
38.5226812,-120.3275363,5624.2870618669,204.068248,0,0.73470474792,26800,2018-06-19 20:47:52,13,0,23.971,5624.2870618669,204.068248,0.223694,1.259432455,0,0,-0.671082,129.3, -1.9, 5.5,0,0,1024,1024,1024,1024,128.6,-89.9,97,3.962,4.017,3.996,3.993,3.994,3.993,16.15,80.6,14,Waypoint,
38.5226814,-120.327536,5627.2398178669,207.021004,0.223694,0.80266734852,27000,2018-06-19 20:47:53,13,0,23.855,5627.2398178669,207.021004,0.223694,1.259432455,0,0,-0.671082,129.6, -1.3, 6.6,0,0,1024,1024,1024,1024,128.6,-89.9,97,3.941,3.99,3.977,3.969,3.987,3.979,18.002,80.6,14,Waypoint,
38.5226814,-120.3275359,5628.2240698669,208.005256,0,0.80317587872,27200,2018-06-19 20:47:53,13,0,23.855,5628.2240698669,208.005256,0.223694,1.259432455,0,0,-0.671082,129.6, -1.4, 6.7,0,0,1024,1024,1024,1024,128.6,-89.9,97,3.941,3.99,3.977,3.969,3.987,3.979,18.002,80.6,14,Waypoint,
38.5226815,-120.3275358,5629.2083218669,208.989508,0,0.8410925466,27300,2018-06-19 20:47:53,13,0,23.855,5629.2083218669,208.989508,0.223694,1.259432455,0,0,-0.671082,129.6, -1.5, 6.5,0,0,1024,1024,1024,1024,128.6,-89.9,97,3.941,3.99,3.977,3.969,3.987,3.979,18.002,80.6,14,Waypoint,
38.5226815,-120.3275358,5631.1768258669,210.958012,0,0.8410925466,27400,2018-06-19 20:47:53,13,0,23.855,5631.1768258669,210.958012,0.223694,1.259432455,0,0,-0.671082,129.5, -1.5, 5.4,0,0,1024,1024,1024,1024,128.6,-89.9,97,3.941,3.99,3.977,3.969,3.987,3.979,18.002,80.6,14,Waypoint,
38.5226815,-120.3275358,5632.1610778669,211.942264,0,0.8410925466,27600,2018-06-19 20:47:53,13,0,23.855,5632.1610778669,211.942264,0.223694,1.259432455,0,0,-0.671082,129.5, -1.8, 5.1,0,0,1024,1024,1024,1024,128.6,-89.9,97,3.941,3.99,3.977,3.969,3.987,3.979,18.002,80.6,14,Waypoint,
38.5226814,-120.3275359,5633.1453298669,212.926516,0,0.80317587872,27700,2018-06-19 20:47:53,13,0,23.855,5633.1453298669,212.926516,0.223694,1.259432455,0,0,-0.671082,129.6, -2, 4.7,0,0,1024,1024,1024,1024,128.6,-89.9,97,3.941,3.99,3.977,3.969,3.987,3.979,18.002,80.6,14,Waypoint,
38.5226815,-120.327536,5635.1138338669,214.89502,0,0.83915357016,27800,2018-06-19 20:47:53,13,0,23.855,5635.1138338669,214.89502,0.223694,1.259432455,0,0,-0.671082,129.6, -2, 4.4,0,0,1024,1024,1024,1024,128.6,-89.9,97,3.941,3.99,3.977,3.969,3.987,3.979,18.002,80.6,14,Waypoint,
38.5226815,-120.327536,5636.0980858669,215.879272,0,0.83915357016,27900,2018-06-19 20:47:53,13,0,23.855,5636.0980858669,215.879272,0.223694,1.259432455,0,0,-0.671082,129.6, -2.1, 4.6,0,0,1024,1024,1024,1024,128.6,-90,97,3.941,3.99,3.977,3.969,3.987,3.979,18.002,80.6,14,Waypoint,
38.5226815,-120.3275361,5637.0823378669,216.863524,0,0.83963913448,28000,2018-06-19 20:47:54,13,0,23.798,5637.0823378669,216.863524,0.223694,1.259432455,0,0,-0.671082,129.6, -2.3, 4.8,0,0,1024,1024,1024,1024,128.6,-90,97,3.938,3.989,3.965,3.968,3.963,3.964,17.974,80.6,14,Waypoint,
38.5226817,-120.327536,5639.0508418669,218.832028,0,0.9121227326,28200,2018-06-19 20:47:54,13,0,23.798,5639.0508418669,218.832028,0.223694,1.259432455,0,0,-0.671082,129.4, -2.6, 5.5,0,0,1024,1024,1024,1024,128.6,-90,97,3.938,3.989,3.965,3.968,3.963,3.964,17.974,80.6,14,Waypoint,
38.5226818,-120.327536,5640.0350938669,219.81628,0,0.94860895424,28300,2018-06-19 20:47:54,13,0,23.798,5640.0350938669,219.81628,0.223694,1.259432455,0,0,-0.671082,129.4, -2.7, 5.6,0,0,1024,1024,1024,1024,128.6,-90,97,3.938,3.989,3.965,3.968,3.963,3.964,17.974,80.6,14,Waypoint,
38.5226818,-120.327536,5641.0193458669,220.800532,0,0.94860895424,28400,2018-06-19 20:47:54,13,0,23.798,5641.0193458669,220.800532,0.223694,1.259432455,0,0,-0.671082,129.4, -2.7, 5.4,0,0,1024,1024,1024,1024,128.6,-90,97,3.938,3.989,3.965,3.968,3.963,3.964,17.974,80.6,14,Waypoint,
38.5226819,-120.3275361,5642.0035978669,221.784784,0,0.98550528088,28500,2018-06-19 20:47:54,13,0,23.798,5642.0035978669,221.784784,0.223694,1.259432455,0,0,-0.671082,129.3, -2.6, 5.1,0,0,1024,1024,1024,1024,128.6,-89.9,97,3.938,3.989,3.965,3.968,3.963,3.964,17.974,80.6,14,Waypoint,
38.5226819,-120.3275361,5642.9878498669,222.769036,0,0.98550528088,28600,2018-06-19 20:47:54,13,0,23.798,5642.9878498669,222.769036,0.223694,1.259432455,0,0,-0.671082,129.3, -2.6, 4.8,0,0,1024,1024,1024,1024,128.6,-89.9,97,3.938,3.989,3.965,3.968,3.963,3.964,17.974,80.6,14,Waypoint,
38.5226819,-120.3275361,5643.9721018669,223.753288,0,0.98550528088,28700,2018-06-19 20:47:54,13,0,23.798,5643.9721018669,223.753288,0.223694,1.259432455,0,0,-0.671082,129.3, -2.5, 5,0,0,1024,1024,1024,1024,128.6,-89.9,97,3.938,3.989,3.965,3.968,3.963,3.964,17.974,80.6,14,Waypoint,
38.5226819,-120.327536,5644.9563538669,224.73754,0,0.98509189504,28800,2018-06-19 20:47:54,13,0,23.798,5644.9563538669,224.73754,0.223694,1.259432455,0,0,-0.671082,129.3, -2.3, 5.4,0,0,1024,1024,1024,1024,128.6,-89.9,97,3.938,3.989,3.965,3.968,3.963,3.964,17.974,80.6,14,Waypoint,
38.522682,-120.3275359,5645.9406058669,225.721792,0,1.02197837916,28900,2018-06-19 20:47:54,13,0,23.798,5645.9406058669,225.721792,0.223694,1.259432455,0,0,-0.671082,129.3, -2.1, 6.2,0,0,1024,1024,1024,1024,128.6,-89.9,97,3.938,3.989,3.965,3.968,3.963,3.964,17.974,80.6,14,Waypoint,
38.522682,-120.3275359,5647.2529418669,227.034128,0,1.02197837916,29100,2018-06-19 20:47:55,13,0,23.798,5647.2529418669,227.034128,0.223694,1.259432455,0,0,-0.671082,129.2, -2.1, 6.5,0,0,1024,1024,1024,1024,128.6,-89.9,97,3.938,3.989,3.965,3.968,3.963,3.964,17.974,80.6,14,Waypoint,
38.522682,-120.3275358,5648.2371938669,228.01838,0,1.02317260492,29200,2018-06-19 20:47:55,13,0,23.798,5648.2371938669,228.01838,0.223694,1.259432455,0,0,-0.671082,129.2, -2.2, 6.5,0,0,1024,1024,1024,1024,128.6,-89.9,97,3.938,3.989,3.965,3.968,3.963,3.964,17.974,80.6,14,Waypoint,
