latitude,longitude,altitude(feet),ascent(feet),speed(mph),distance(feet),time(millisecond),datetime(utc),satellites,gpslevel,voltage(v),max_altitude(feet),max_ascent(feet),max_speed(mph),max_distance(feet), xSpeed(mph), ySpeed(mph), zSpeed(mph), compass_heading(degrees), pitch(degrees), roll(degrees),isPhoto,isVideo,rc_elevator,rc_aileron,rc_throttle,rc_rudder,gimbal_heading(degrees),gimbal_pitch(degrees),battery_percent,voltageCell1,voltageCell2,voltageCell3,voltageCell4,voltageCell5,voltageCell6,current(A),battery_temperature(f),flycStateRaw,flycState,message
38.5226935,-120.3275403,5421.2452778106,0,0,0,3000,2018-06-19 21:30:34,10,0,25.646,5421.2452778106,0,0,0,0,0,0,133.6, 0.8, 1.3,1,0,1024,1024,1024,1024,133.3,-89.9,98,4.305,4.197,4.302,4.307,4.296,4.261,2.812,89.6,11,AutoTakeoff,DJI_0260.jpg Starting Mission from Lat/Long: 38.52269/-120.32754 Camera: Zenmuse X3 - Overlap: 90/90 - Active Connection: No
38.5226935,-120.3275403,5421.2452778106,0,0,0,3100,2018-06-19 21:30:34,10,0,25.646,5421.2452778106,0,0,0,0,0,0,133.7, 0.8, 0.9,0,0,1024,1024,1024,1024,133.3,-89.9,98,4.305,4.197,4.302,4.307,4.296,4.261,2.812,89.6,11,AutoTakeoff,
38.5226935,-120.3275404,5421.2452778106,0,0,0.0285444234856,3200,2018-06-19 21:30:34,10,0,25.646,5421.2452778106,0,0,0.0285444234856,0,0,0,133.8, 0.3, 0.5,0,0,1024,1024,1024,1024,133.3,-89.9,98,4.305,4.197,4.302,4.307,4.296,4.261,2.812,89.6,11,AutoTakeoff,
38.5226934,-120.3275405,5421.2452778106,0,0,0.067751642588,3300,2018-06-19 21:30:35,10,0,25.646,5421.2452778106,0,0,0.067751642588,0,0,0,133.9, 0.2, 0,0,0,1024,1024,1024,1024,133.3,-89.9,98,4.305,4.197,4.302,4.307,4.296,4.261,2.812,89.6,11,AutoTakeoff,
38.5226935,-120.3275405,5421.2452778106,0,0,0.057088912588,3400,2018-06-19 21:30:35,10,0,25.646,5421.2452778106,0,0,0.067751642588,0,0,0,133.9, 0, 0,0,0,1024,1024,1024,1024,133.3,-89.9,98,4.305,4.197,4.302,4.307,4.296,4.261,2.812,89.6,11,AutoTakeoff,
38.5226935,-120.3275405,5421.5733618106,0.328084,0,0.057088912588,3500,2018-06-19 21:30:35,10,0,25.646,5421.5733618106,0.328084,0,0.067751642588,0,0,0,133.8, 0.1, 0.5,0,0,1024,1024,1024,1024,133.3,-89.9,98,4.305,4.197,4.302,4.307,4.296,4.261,2.812,89.6,11,AutoTakeoff,
38.5226935,-120.3275406,5421.5733618106,0.328084,0,0.08563320484,3600,2018-06-19 21:30:35,10,0,25.646,5421.5733618106,0.328084,0,0.08563320484,0,0,0,133.7, 0, 0.3,0,0,1024,1024,1024,1024,133.3,-89.9,98,4.305,4.197,4.302,4.307,4.296,4.261,2.812,89.6,11,AutoTakeoff,
38.5226935,-120.3275406,5421.9014458106,0.656168,0,0.08563320484,3700,2018-06-19 21:30:35,11,0,25.646,5421.9014458106,0.656168,0,0.08563320484,0,0,0,133.6, -0.3, 0,0,0,1024,1024,1024,1024,133.3,-89.9,98,4.305,4.197,4.302,4.307,4.296,4.261,2.812,89.6,11,AutoTakeoff,
38.5226936,-120.3275405,5421.9014458106,0.656168,0,0.067751642588,3900,2018-06-19 21:30:35,11,0,25.646,5421.9014458106,0.656168,0,0.08563320484,0,0,0,133.6, -0.3, 0,0,0,1024,1024,1024,1024,133.3,-89.9,98,4.305,4.197,4.302,4.307,4.296,4.261,2.812,89.6,11,AutoTakeoff,
38.5226936,-120.3275404,5422.2295298106,0.984252,0,0.046324148464,4000,2018-06-19 21:30:35,11,0,25.599,5422.2295298106,0.984252,0,0.08563320484,0,0,0,133.5, -0.3, 0.2,0,0,1024,1024,1024,1024,133.3,-89.9,98,4.265,4.261,4.262,4.263,4.284,4.241,3.366,89.6,11,AutoTakeoff,
38.5226935,-120.3275404,5422.2295298106,0.984252,0,0.0285444234856,4100,2018-06-19 21:30:35,11,0,25.599,5422.2295298106,0.984252,0,0.08563320484,0,0,0,133.4, -0.2, 0.4,0,0,1024,1024,1024,1024,133.3,-89.9,98,4.265,4.261,4.262,4.263,4.284,4.241,3.366,89.6,11,AutoTakeoff,
38.5226935,-120.3275403,5422.5576138106,1.312336,0,0,4200,2018-06-19 21:30:35,12,0,25.599,5422.5576138106,1.312336,0,0.08563320484,0,0,-0.223694,133.4, 0, 0.6,0,0,1024,1024,1024,1024,133.3,-89.9,98,4.265,4.261,4.262,4.263,4.284,4.241,3.366,89.6,11,AutoTakeoff,
38.5226935,-120.3275401,5422.5576138106,1.312336,0,0.057088912588,4300,2018-06-19 21:30:36,12,0,25.599,5422.5576138106,1.312336,0,0.08563320484,0,0,-0.223694,133.4, 0, 0.6,0,0,1024,1024,1024,1024,133.3,-89.9,98,4.265,4.261,4.262,4.263,4.284,4.241,3.366,89.6,11,AutoTakeoff,
38.5226934,-120.3275399,5422.8856978106,1.64042,0,0.119865161316,4400,2018-06-19 21:30:36,11,0,25.599,5422.8856978106,1.64042,0,0.119865161316,0,0,-0.223694,133.3, 0.1, 0.8,0,0,1024,1024,1024,1024,133.3,-89.9,98,4.265,4.261,4.262,4.263,4.284,4.241,3.366,89.6,11,AutoTakeoff,
38.5226934,-120.3275398,5423.2137818106,1.968504,0,0.147311684504,4500,2018-06-19 21:30:36,11,0,25.599,5423.2137818106,1.968504,0,0.147311684504,0,0,-0.223694,133.3, 0.3, 0.9,0,0,1024,1024,1024,1024,133.3,-89.9,98,4.265,4.261,4.262,4.263,4.284,4.241,3.366,89.6,11,AutoTakeoff,
38.5226935,-120.3275398,5423.2137818106,1.968504,0,0.142722117428,4600,2018-06-19 21:30:36,11,0,25.599,5423.2137818106,1.968504,0,0.147311684504,0,0,-0.223694,133.2, 0.4, 1,0,0,1024,1024,1024,1024,133.3,-89.9,98,4.265,4.261,4.262,4.263,4.284,4.241,3.366,89.6,11,AutoTakeoff,
38.5226936,-120.3275397,5423.5418658106,2.296588,0,0.175109585656,4700,2018-06-19 21:30:36,12,0,25.599,5423.5418658106,2.296588,0,0.175109585656,0,0,0,133.2, 0.5, 1.3,0,0,1024,1024,1024,1024,133.3,-89.9,98,4.265,4.261,4.262,4.263,4.284,4.241,3.366,89.6,11,AutoTakeoff,
38.5226937,-120.3275397,5423.8699498106,2.624672,0,0.186163391784,4800,2018-06-19 21:30:36,12,0,25.599,5423.8699498106,2.624672,0,0.186163391784,0,0,0,133.3, 0.4, 1.2,0,0,1024,1024,1024,1024,133.3,-89.9,98,4.265,4.261,4.262,4.263,4.284,4.241,3.366,89.6,11,AutoTakeoff,
38.5226937,-120.3275398,5423.8699498106,2.624672,0,0.160293968384,4900,2018-06-19 21:30:36,11,0,25.599,5423.8699498106,2.624672,0,0.186163391784,0,0,-0.223694,133.4, 0.2, 1.2,0,0,1024,1024,1024,1024,133.3,-89.9,98,4.265,4.261,4.262,4.263,4.284,4.241,3.366,89.6,11,AutoTakeoff,
38.5226938,-120.3275397,5424.1980338106,2.952756,0,0.203254927764,5000,2018-06-19 21:30:36,11,0,24.876,5424.1980338106,2.952756,0,0.203254927764,0,0,-0.223694,133.5, 0.1, 1.1,0,0,1024,1024,1024,1024,133.3,-89.9,98,4.122,4.158,4.146,4.155,4.158,4.116,13.027,89.6,14,Waypoint,
38.522694,-120.3275396,5424.5261178106,3.28084,0,0.270560704196,5100,2018-06-19 21:30:36,11,0,24.876,5424.5261178106,3.28084,0,0.270560704196,0,0,0,133.6, 0, 1.2,0,0,1024,1024,1024,1024,133.3,-89.9,98,4.122,4.158,4.146,4.155,4.158,4.116,13.027,89.6,14,Waypoint,
38.522694,-120.3275396,5424.5261178106,3.28084,0,0.270560704196,5200,2018-06-19 21:30:36,11,0,24.876,5424.5261178106,3.28084,0,0.270560704196,0,0,0,133.7, 0, 1.4,0,0,1024,1024,1024,1024,133.3,-89.9,98,4.122,4.158,4.146,4.155,4.158,4.116,13.027,89.6,14,Waypoint,
38.5226941,-120.3275395,5424.5261178106,3.28084,0,0.316334655792,5300,2018-06-19 21:30:37,11,0,24.876,5424.5261178106,3.28084,0,0.316334655792,0,0,0,133.7, 0, 1.5,0,0,1024,1024,1024,1024,133.3,-89.9,98,4.122,4.158,4.146,4.155,4.158,4.116,13.027,89.6,14,Waypoint,
38.5226941,-120.3275395,5424.8542018106,3.608924,0,0.316334655792,5400,2018-06-19 21:30:37,11,0,24.876,5424.8542018106,3.608924,0,0.316334655792,0,0,0,133.7, 0, 1.4,0,0,1024,1024,1024,1024,133.3,-89.9,98,4.122,4.158,4.146,4.155,4.158,4.116,13.027,89.6,14,Waypoint,
38.5226941,-120.3275395,5424.8542018106,3.608924,0,0.316334655792,5500,2018-06-19 21:30:37,11,0,24.876,5424.8542018106,3.608924,0,0.316334655792,0,0,-0.223694,133.7, -0.1, 1.2,0,0,1024,1024,1024,1024,133.3,-89.9,98,4.122,4.158,4.146,4.155,4.158,4.116,13.027,89.6,14,Waypoint,
38.5226941,-120.3275393,5425.5103698106,4.265092,0,0.35972114012,5700,2018-06-19 21:30:37,12,0,24.876,5425.5103698106,4.265092,0,0.35972114012,0,0,-0.223694,133.8, 0.2, 1.1,0,0,1024,1024,1024,1024,133.3,-89.9,98,4.122,4.158,4.146,4.155,4.158,4.116,13.027,89.6,14,Waypoint,
38.5226941,-120.3275392,5425.8384538106,4.593176,0,0.38276576028,5800,2018-06-19 21:30:37,12,0,24.876,5425.8384538106,4.593176,0,0.38276576028,0,0,-0.223694,133.9, 0.6, 1.4,0,0,1024,1024,1024,1024,133.3,-89.9,98,4.122,4.158,4.146,4.155,4.158,4.116,13.027,89.6,14,Waypoint,
38.5226941,-120.327539,5426.1665378106,4.92126,0,0.43083662796,5900,2018-06-19 21:30:37,11,0,24.876,5426.1665378106,4.92126,0,0.43083662796,0,0,-0.223694,133.9, 0.7, 1.5,0,0,1024,1024,1024,1024,133.3,-89.9,98,4.122,4.158,4.146,4.155,4.158,4.116,13.027,89.6,14,Waypoint,
38.5226942,-120.3275389,5426.8227058106,5.577428,0,0.4742618262,6000,2018-06-19 21:30:37,11,0,24.767,5426.8227058106,5.577428,0,0.4742618262,0,0,-0.223694,133.9, 0.7, 1.7,0,0,1024,1024,1024,1024,133.3,-89.9,97,4.112,4.136,4.124,4.132,4.133,4.128,16.186,89.6,14,Waypoint,
38.5226944,-120.3275389,5427.1507898106,5.905512,0,0.517224426,6100,2018-06-19 21:30:37,11,0,24.767,5427.1507898106,5.905512,0,0.517224426,0,0,-0.447388,133.9, 0.3, 1.9,0,0,1024,1024,1024,1024,133.3,-89.9,97,4.112,4.136,4.124,4.132,4.133,4.128,16.186,89.6,14,Waypoint,
38.5226946,-120.3275389,5427.8069578106,6.56168,0,0.56636156668,6300,2018-06-19 21:30:38,11,0,24.767,5427.8069578106,6.56168,0,0.56636156668,0,0,-0.447388,134, 0, 2.2,0,0,1024,1024,1024,1024,133.3,-90,97,4.112,4.136,4.124,4.132,4.133,4.128,16.186,89.6,14,Waypoint,
38.5226948,-120.3275389,5428.4631258106,7.217848,0,0.6202099936,6400,2018-06-19 21:30:38,10,0,24.767,5428.4631258106,7.217848,0,0.6202099936,0,0,-0.447388,134, -0.3, 2.4,0,0,1024,1024,1024,1024,133.3,-90,97,4.112,4.136,4.124,4.132,4.133,4.128,16.186,89.6,14,Waypoint,
38.5226949,-120.3275392,5429.1192938106,7.874016,0,0.59958007168,6500,2018-06-19 21:30:38,10,0,24.767,5429.1192938106,7.874016,0,0.6202099936,0,0,-0.447388,134, -0.7, 2.3,0,0,1024,1024,1024,1024,133.3,-90,97,4.112,4.136,4.124,4.132,4.133,4.128,16.186,89.6,14,Waypoint,
38.522695,-120.3275395,5429.7754618106,8.530184,0,0.59300526832,6600,2018-06-19 21:30:38,13,0,24.767,5429.7754618106,8.530184,0,0.6202099936,0,0,-0.447388,133.9, -1, 1.8,0,0,1024,1024,1024,1024,133.3,-90,97,4.112,4.136,4.124,4.132,4.133,4.128,16.186,89.6,14,Waypoint,
38.522695,-120.3275394,5430.7597138106,9.514436,0,0.60457022932,6700,2018-06-19 21:30:38,13,0,24.767,5430.7597138106,9.514436,0,0.6202099936,0,0,-0.671082,133.8, -1.1, 1.4,0,0,1024,1024,1024,1024,133.3,-90,97,4.112,4.136,4.124,4.132,4.133,4.128,16.186,89.6,14,Waypoint,
38.5226949,-120.3275393,5431.7439658106,10.498688,0,0.58513453316,6800,2018-06-19 21:30:38,12,0,24.767,5431.7439658106,10.498688,0,0.6202099936,0,0,-0.671082,133.7, -0.9, 1.3,0,0,1024,1024,1024,1024,133.3,-89.9,97,4.112,4.136,4.124,4.132,4.133,4.128,16.186,89.6,14,Waypoint,
38.5226946,-120.3275391,5433.0563018106,11.811024,0,0.52763453132,6900,2018-06-19 21:30:38,12,0,24.767,5433.0563018106,11.811024,0,0.6202099936,0,0,-0.671082,133.7, -0.3, 1.2,0,0,1024,1024,1024,1024,133.3,-89.9,97,4.112,4.136,4.124,4.132,4.133,4.128,16.186,89.6,14,Waypoint,
38.5226944,-120.3275388,5434.0405538106,12.795276,0,0.5395833506,7000,2018-06-19 21:30:38,12,0,24.798,5434.0405538106,12.795276,0,0.6202099936,0,0,-0.671082,133.6, 0.5, 1.2,0,0,1024,1024,1024,1024,133.3,-89.9,97,4.104,4.114,4.132,4.129,4.096,4.17,16.166,89.6,14,Waypoint,
38.5226944,-120.3275385,5435.0248058106,13.779528,0,0.60976379904,7100,2018-06-19 21:30:38,12,0,24.798,5435.0248058106,13.779528,0,0.6202099936,0,0,-0.671082,133.5, 1.3, 1.1,0,0,1024,1024,1024,1024,133.3,-89.9,97,4.104,4.114,4.132,4.129,4.096,4.17,16.166,89.6,14,Waypoint,
38.5226944,-120.3275387,5437.3213938106,16.076116,0,0.562500018,7200,2018-06-19 21:30:38,12,0,24.798,5437.3213938106,16.076116,0,0.6202099936,0,0,-0.671082,133.5, 1.4, 1.4,0,0,1024,1024,1024,1024,133.3,-89.9,97,4.104,4.114,4.132,4.129,4.096,4.17,16.166,89.6,14,Waypoint,
38.5226945,-120.3275389,5438.3056458106,17.060368,0,0.54112206456,7300,2018-06-19 21:30:39,11,0,24.798,5438.3056458106,17.060368,0,0.6202099936,0,0,-0.671082,133.5, 0.7, 1.3,0,0,1024,1024,1024,1024,133.3,-89.9,97,4.104,4.114,4.132,4.129,4.096,4.17,16.166,89.6,14,Waypoint,
38.5226946,-120.3275389,5439.6179818106,18.372704,0,0.56636156668,7400,2018-06-19 21:30:39,11,0,24.798,5439.6179818106,18.372704,0,0.6202099936,0,0,-0.671082,133.6, -0.2, 1.2,0,0,1024,1024,1024,1024,133.3,-90,97,4.104,4.114,4.132,4.129,4.096,4.17,16.166,89.6,14,Waypoint,
38.5226948,-120.3275389,5440.6022338106,19.356956,0,0.6202099936,7500,2018-06-19 21:30:39,12,0,24.798,5440.6022338106,19.356956,0,0.6202099936,0,0,-0.671082,133.6, -0.8, 1.5,0,0,1024,1024,1024,1024,133.3,-90,97,4.104,4.114,4.132,4.129,4.096,4.17,16.166,89.6,14,Waypoint,
38.5226951,-120.3275392,5441.5864858106,20.341208,0,0.6628445094,7600,2018-06-19 21:30:39,12,0,24.798,5441.5864858106,20.341208,0,0.6628445094,0,0,-0.671082,133.6, -1.2, 1.7,0,0,1024,1024,1024,1024,133.3,-90,97,4.104,4.114,4.132,4.129,4.096,4.17,16.166,89.6,14,Waypoint,
38.5226953,-120.3275394,5442.8988218106,21.653544,0,0.70518703044,7700,2018-06-19 21:30:39,13,0,24.798,5442.8988218106,21.653544,0,0.70518703044,0,0,-0.671082,133.6, -1.8, 1.8,0,0,1024,1024,1024,1024,133.3,-90,97,4.104,4.114,4.132,4.129,4.096,4.17,16.166,89.6,14,Waypoint,
38.5226954,-120.3275396,5443.8830738106,22.637796,0,0.72143703096,7800,2018-06-19 21:30:39,13,0,24.798,5443.8830738106,22.637796,0,0.72143703096,0,0,-0.671082,133.5, -2.1, 1.9,0,0,1024,1024,1024,1024,133.3,-90,97,4.104,4.114,4.132,4.129,4.096,4.17,16.166,89.6,14,Waypoint,
38.5226954,-120.3275397,5444.8673258106,23.622048,0,0.7140584218,7900,2018-06-19 21:30:39,13,0,24.798,5444.8673258106,23.622048,0,0.72143703096,0,0,-0.671082,133.4, -2.2, 1.9,0,0,1024,1024,1024,1024,133.3,-90,97,4.104,4.114,4.132,4.129,4.096,4.17,16.166,89.6,14,Waypoint,
38.5226954,-120.3275396,5446.1796618106,24.934384,0,0.72143703096,8000,2018-06-19 21:30:39,13,0,24.295,5446.1796618106,24.934384,0,0.72143703096,0,0,-0.671082,133.4, -1.9, 1.7,0,0,1024,1024,1024,1024,133.3,-89.9,97,4.024,4.04,4.035,4.023,4.028,4.05,23.187,89.6,14,Waypoint,
38.5226952,-120.3275393,5447.1639138106,25.918636,0,0.6827756124,8100,2018-06-19 21:30:39,13,0,24.295,5447.1639138106,25.918636,0,0.72143703096,0,0,-0.671082,133.4, -1.2, 1.6,0,0,1024,1024,1024,1024,133.3,-89.9,97,4.024,4.04,4.035,4.023,4.028,4.05,23.187,89.6,14,Waypoint,
38.5226948,-120.3275385,5448.1481658106,26.902888,0.3131716,0.69925199088,8200,2018-06-19 21:30:39,13,0,24.295,5448.1481658106,26.902888,0.3131716,0.72143703096,0,0,-0.671082,133.4, 0, 1.7,0,0,1024,1024,1024,1024,133.3,-89.9,97,4.024,4.04,4.035,4.023,4.028,4.05,23.187,89.6,14,Waypoint,
38.5226944,-120.3275378,5449.4605018106,28.215224,0.3131716,0.78553480204,8300,2018-06-19 21:30:40,13,0,24.295,5449.4605018106,28.215224,0.3131716,0.78553480204,0,0,-0.671082,133.5, 2.1, 1.8,0,0,1024,1024,1024,1024,133.3,-89.9,97,4.024,4.04,4.035,4.023,4.028,4.05,23.187,89.6,14,Waypoint,
38.5226943,-120.3275377,5450.4447538106,29.199476,0.3131716,0.79748690216,8400,2018-06-19 21:30:40,13,0,24.295,5450.4447538106,29.199476,0.3131716,0.79748690216,0,0,-0.671082,133.7, 3.6, 1.8,0,0,1024,1024,1024,1024,133.3,-89.9,97,4.024,4.04,4.035,4.023,4.028,4.05,23.187,89.6,14,Waypoint,
38.5226943,-120.3275377,5450.4447538106,29.199476,0.3131716,0.79748690216,8500,2018-06-19 21:30:40,13,0,24.295,5450.4447538106,29.199476,0.3131716,0.79748690216,0,0,-0.671082,133.7, 3.6, 1.8,0,0,1024,1024,1024,1024,133.3,-89.9,97,4.024,4.04,4.035,4.023,4.028,4.05,23.187,89.6,14,Waypoint,
38.5226942,-120.3275373,5452.4132578106,31.16798,0,0.89360567164,8700,2018-06-19 21:30:40,13,0,24.295,5452.4132578106,31.16798,0.3131716,0.89360567164,0,0,-0.671082,133.9, 3.1, 1.9,0,0,1024,1024,1024,1024,133.3,-89.9,97,4.024,4.04,4.035,4.023,4.028,4.05,23.187,89.6,14,Waypoint,
38.5226942,-120.3275372,5453.3975098106,32.152232,0,0.9209974048,8800,2018-06-19 21:30:40,13,0,24.295,5453.3975098106,32.152232,0.3131716,0.9209974048,0,0,-0.671082,133.9, 2.4, 2.1,0,0,1024,1024,1024,1024,133.3,-90,97,4.024,4.04,4.035,4.023,4.028,4.05,23.187,89.6,14,Waypoint,
38.5226944,-120.3275374,5454.7098458106,33.464568,0,0.89053808624,8900,2018-06-19 21:30:40,13,0,24.295,5454.7098458106,33.464568,0.3131716,0.9209974048,0,0,-0.671082,133.9, 1.5, 2.3,0,0,1024,1024,1024,1024,133.3,-90,97,4.024,4.04,4.035,4.023,4.028,4.05,23.187,89.6,14,Waypoint,
38.5226945,-120.3275375,5455.6940978106,34.44882,0,0.87858270528,9000,2018-06-19 21:30:40,13,0,24.4,5455.6940978106,34.44882,0.3131716,0.9209974048,0,0,-0.671082,133.8, 0.5, 2.4,0,0,1024,1024,1024,1024,133.3,-89.9,97,4.024,4.04,4.035,4.023,4.028,4.05,18.97,89.6,14,Waypoint,
38.5226946,-120.3275376,5456.6783498106,35.433072,0,0.86893375484,9100,2018-06-19 21:30:40,13,0,24.4,5456.6783498106,35.433072,0.3131716,0.9209974048,0,0,-0.671082,133.7, -0.3, 2.4,0,0,1024,1024,1024,1024,133.3,-89.9,97,4.024,4.04,4.035,4.023,4.028,4.05,18.97,89.6,14,Waypoint,
38.5226947,-120.3275377,5457.6626018106,36.417324,0,0.86167325592,9200,2018-06-19 21:30:40,13,0,24.4,5457.6626018106,36.417324,0.3131716,0.9209974048,0,0,-0.671082,133.6, -0.6, 2.3,0,0,1024,1024,1024,1024,133.3,-89.9,97,4.024,4.04,4.035,4.023,4.028,4.05,18.97,89.6,14,Waypoint,
38.5226946,-120.3275379,5458.6468538106,37.401576,0,0.79396656084,9300,2018-06-19 21:30:41,13,0,24.4,5458.6468538106,37.401576,0.3131716,0.9209974048,0,0,-0.671082,133.5, -0.7, 2.2,0,0,1024,1024,1024,1024,133.3,-89.9,97,4.024,4.04,4.035,4.023,4.028,4.05,18.97,89.6,14,Waypoint,
38.5226946,-120.327538,5459.6311058106,38.385828,0,0.76947509024,9400,2018-06-19 21:30:41,13,0,24.4,5459.6311058106,38.385828,0.3131716,0.9209974048,0,0,-0.671082,133.5, -0.6, 1.9,0,0,1024,1024,1024,1024,133.3,-89.9,97,4.024,4.04,4.035,4.023,4.028,4.05,18.97,89.6,14,Waypoint,
38.5226947,-120.3275381,5460.6153578106,39.37008,0,0.76553152056,9500,2018-06-19 21:30:41,13,0,24.4,5460.6153578106,39.37008,0.3131716,0.9209974048,0,0,-0.671082,133.6, -0.3, 1.6,0,0,1024,1024,1024,1024,133.3,-89.9,97,4.024,4.04,4.035,4.023,4.028,4.05,18.97,89.6,14,Waypoint,
38.5226947,-120.3275382,5461.5996098106,40.354332,0,0.74229661168,9600,2018-06-19 21:30:41,13,0,24.4,5461.5996098106,40.354332,0.3131716,0.9209974048,0,0,-0.671082,133.6, 0, 1.6,0,0,1024,1024,1024,1024,133.3,-89.9,97,4.024,4.04,4.035,4.023,4.028,4.05,18.97,89.6,14,Waypoint,
38.5226946,-120.3275383,5463.5681138106,42.322836,0,0.69784122968,9700,2018-06-19 21:30:41,13,0,24.4,5463.5681138106,42.322836,0.3131716,0.9209974048,0,0,-0.671082,133.7, 0.3, 1.9,0,0,1024,1024,1024,1024,133.3,-89.9,97,4.024,4.04,4.035,4.023,4.028,4.05,18.97,89.6,14,Waypoint,
38.5226948,-120.3275386,5465.5366178106,44.29134,0,0.67855645216,9900,2018-06-19 21:30:41,11,0,24.4,5465.5366178106,44.29134,0.3131716,0.9209974048,0,0,-0.671082,133.7, -0.1, 2,0,0,1024,1024,1024,1024,133.3,-89.9,97,4.024,4.04,4.035,4.023,4.028,4.05,18.97,89.6,14,Waypoint,
38.5226948,-120.3275387,5466.5208698106,45.275592,0,0.65844490296,10000,2018-06-19 21:30:41,11,0,24.4,5466.5208698106,45.275592,0.3131716,0.9209974048,0,0,-0.671082,133.7, -0.3, 1.9,0,0,1024,1024,1024,1024,133.3,-89.9,97,4.061,4.089,4.072,4.072,4.08,4.074,18.97,89.6,14,Waypoint,
38.5226947,-120.3275389,5468.4893738106,47.244096,0,0.59277560952,10200,2018-06-19 21:30:41,12,0,24.4,5468.4893738106,47.244096,0.3131716,0.9209974048,0,0,-0.671082,133.7, -0.1, 1.7,0,0,1024,1024,1024,1024,133.3,-89.9,97,4.061,4.089,4.072,4.072,4.08,4.074,18.97,89.6,14,Waypoint,
38.5226947,-120.3275391,5469.4736258106,48.228348,0,0.55589240624,10300,2018-06-19 21:30:42,13,0,24.4,5469.4736258106,48.228348,0.3131716,0.9209974048,0,0,-0.671082,133.7, -0.1, 1.5,0,0,1024,1024,1024,1024,133.3,-89.9,97,4.061,4.089,4.072,4.072,4.08,4.074,18.97,89.6,14,Waypoint,
38.5226947,-120.3275392,5470.4578778106,49.2126,0,0.53877298312,10400,2018-06-19 21:30:42,13,0,24.4,5470.4578778106,49.2126,0.3131716,0.9209974048,0,0,-0.671082,133.7, -0.2, 1.4,0,0,1024,1024,1024,1024,133.3,-89.9,97,4.061,4.089,4.072,4.072,4.08,4.074,18.97,89.6,14,Waypoint,
38.5226947,-120.3275394,5471.4421298106,50.196852,0,0.50762468816,10500,2018-06-19 21:30:42,14,0,24.4,5471.4421298106,50.196852,0.3131716,0.9209974048,0,0,-0.671082,133.6, -0.4, 1.3,0,0,1024,1024,1024,1024,133.3,-90,97,4.061,4.089,4.072,4.072,4.08,4.074,18.97,89.6,14,Waypoint,
38.5226948,-120.3275396,5472.4263818106,51.181104,0,0.51467521332,10600,2018-06-19 21:30:42,14,0,24.4,5472.4263818106,51.181104,0.3131716,0.9209974048,0,0,-0.671082,133.6, -0.7, 1.1,0,0,1024,1024,1024,1024,133.3,-90,97,4.061,4.089,4.072,4.072,4.08,4.074,18.97,89.6,14,Waypoint,
38.5226948,-120.3275397,5473.4106338106,52.165356,0,0.50427823136,10700,2018-06-19 21:30:42,14,0,24.4,5473.4106338106,52.165356,0.3131716,0.9209974048,0,0,-0.671082,133.5, -0.8, 0.9,0,0,1024,1024,1024,1024,133.3,-90,97,4.061,4.089,4.072,4.072,4.08,4.074,18.97,89.6,14,Waypoint,
38.5226948,-120.3275398,5474.3948858106,53.149608,0,0.49531169564,10800,2018-06-19 21:30:42,14,0,24.4,5474.3948858106,53.149608,0.3131716,0.9209974048,0,0,-0.671082,133.5, -0.8, 0.8,0,0,1024,1024,1024,1024,133.3,-89.9,97,4.061,4.089,4.072,4.072,4.08,4.074,18.97,89.6,14,Waypoint,
38.5226948,-120.3275399,5475.3791378106,54.13386,0,0.48785434632,10900,2018-06-19 21:30:42,14,0,24.4,5475.3791378106,54.13386,0.3131716,0.9209974048,0,0,-0.671082,133.4, -0.4, 1,0,0,1024,1024,1024,1024,133.3,-89.9,97,4.061,4.089,4.072,4.072,4.08,4.074,18.97,89.6,14,Waypoint,
38.5226948,-120.32754,5476.3633898106,55.118112,0,0.4819718002,11000,2018-06-19 21:30:42,14,0,24.43,5476.3633898106,55.118112,0.3131716,0.9209974048,0,0,-0.671082,133.4, -0.3, 1.3,0,0,1024,1024,1024,1024,133.3,-89.9,97,4.061,4.074,4.07,4.071,4.066,4.075,18.237,89.6,14,Waypoint,
38.5226947,-120.3275401,5477.3476418106,56.102364,0,0.44152560468,11200,2018-06-19 21:30:42,14,0,24.43,5477.3476418106,56.102364,0.3131716,0.9209974048,0,0,-0.671082,133.4, -0.1, 1.5,0,0,1024,1024,1024,1024,133.3,-89.9,97,4.061,4.074,4.07,4.071,4.066,4.075,18.237,89.6,14,Waypoint,
38.5226947,-120.3275402,5478.3318938106,57.086616,0,0.43875001404,11300,2018-06-19 21:30:43,14,0,24.43,5478.3318938106,57.086616,0.3131716,0.9209974048,0,0,-0.671082,133.5, -0.1, 1.7,0,0,1024,1024,1024,1024,133.3,-89.9,97,4.061,4.074,4.07,4.071,4.066,4.075,18.237,89.6,14,Waypoint,
38.5226947,-120.3275402,5479.3161458106,58.070868,0,0.43875001404,11400,2018-06-19 21:30:43,14,0,24.43,5479.3161458106,58.070868,0.3131716,0.9209974048,0,0,-0.671082,133.5, 0, 1.8,0,0,1024,1024,1024,1024,133.3,-89.9,97,4.061,4.074,4.07,4.071,4.066,4.075,18.237,89.6,14,Waypoint,
38.5226947,-120.3275402,5480.3003978106,59.05512,0,0.43875001404,11500,2018-06-19 21:30:43,14,0,24.43,5480.3003978106,59.05512,0.3131716,0.9209974048,0,0,-0.671082,133.6, -0.1, 1.7,0,0,1024,1024,1024,1024,133.3,-89.9,97,4.061,4.074,4.07,4.071,4.066,4.075,18.237,89.6,14,Waypoint,
38.5226947,-120.3275402,5481.2846498106,60.039372,0,0.43875001404,11600,2018-06-19 21:30:43,15,0,24.43,5481.2846498106,60.039372,0.3131716,0.9209974048,0,0,-0.671082,133.7, -0.3, 1.6,0,0,1024,1024,1024,1024,133.3,-89.9,97,4.061,4.074,4.07,4.071,4.066,4.075,18.237,89.6,14,Waypoint,
38.5226947,-120.3275402,5482.2689018106,61.023624,0,0.43875001404,11700,2018-06-19 21:30:43,15,0,24.43,5482.2689018106,61.023624,0.3131716,0.9209974048,0,0,-0.671082,133.8, -0.3, 1.8,0,0,1024,1024,1024,1024,133.3,-89.9,97,4.061,4.074,4.07,4.071,4.066,4.075,18.237,89.6,14,Waypoint,
38.5226947,-120.3275401,5483.2531538106,62.007876,0,0.44152560468,11800,2018-06-19 21:30:43,15,0,24.43,5483.2531538106,62.007876,0.3131716,0.9209974048,0,0,-0.671082,133.8, -0.3, 2,0,0,1024,1024,1024,1024,133.3,-89.9,97,4.061,4.074,4.07,4.071,4.066,4.075,18.237,89.6,14,Waypoint,
38.5226947,-120.3275402,5484.2374058106,62.992128,0,0.43875001404,11900,2018-06-19 21:30:43,15,0,24.43,5484.2374058106,62.992128,0.3131716,0.9209974048,0,0,-0.671082,133.7, -0.2, 2,0,0,1024,1024,1024,1024,133.3,-89.9,97,4.061,4.074,4.07,4.071,4.066,4.075,18.237,89.6,14,Waypoint,
38.5226947,-120.3275402,5485.2216578106,63.97638,0,0.43875001404,12000,2018-06-19 21:30:43,15,0,24.43,5485.2216578106,63.97638,0.3131716,0.9209974048,0,0,-0.671082,133.6, 0, 2.1,0,0,1024,1024,1024,1024,133.3,-89.9,97,4.061,4.074,4.07,4.071,4.066,4.075,18.237,89.6,14,Waypoint,
38.5226947,-120.3275401,5486.5339938106,65.288716,0,0.44152560468,12100,2018-06-19 21:30:43,15,0,24.43,5486.5339938106,65.288716,0.3131716,0.9209974048,0,0,-0.671082,133.5, 0.2, 2.1,0,0,1024,1024,1024,1024,133.3,-89.9,97,4.061,4.074,4.07,4.071,4.066,4.075,18.237,89.6,14,Waypoint,
38.5226946,-120.32754,5487.5182458106,66.272968,0,0.4103674672,12200,2018-06-19 21:30:43,15,0,24.43,5487.5182458106,66.272968,0.3131716,0.9209974048,0,0,-0.671082,133.5, 0.4, 2.4,0,0,1024,1024,1024,1024,133.3,-89.9,97,4.061,4.074,4.07,4.071,4.066,4.075,18.237,89.6,14,Waypoint,
38.5226946,-120.3275399,5489.4867498106,68.241472,0.223694,0.41726051204,12300,2018-06-19 21:30:44,15,0,24.43,5489.4867498106,68.241472,0.3131716,0.9209974048,0,0,-0.671082,133.7, 0.6, 2.9,0,0,1024,1024,1024,1024,133.3,-89.9,97,4.061,4.074,4.07,4.071,4.066,4.075,18.237,89.6,14,Waypoint,
38.5226946,-120.3275398,5490.4710018106,69.225724,0.223694,0.42595801888,12400,2018-06-19 21:30:44,15,0,24.43,5490.4710018106,69.225724,0.3131716,0.9209974048,0,0,-0.671082,134, 0.8, 3.4,0,0,1024,1024,1024,1024,133.3,-89.9,97,4.061,4.074,4.07,4.071,4.066,4.075,18.237,89.6,14,Waypoint,
38.5226947,-120.3275398,5491.4552538106,70.209976,0,0.46049542156,12500,2018-06-19 21:30:44,15,0,24.43,5491.4552538106,70.209976,0.3131716,0.9209974048,0,0,-0.671082,134.1, 1.3, 3.6,0,0,1024,1024,1024,1024,133.3,-89.9,97,4.061,4.074,4.07,4.071,4.066,4.075,18.237,89.6,14,Waypoint,
38.5226946,-120.3275397,5492.4395058106,71.194228,0,0.43635172,12600,2018-06-19 21:30:44,15,0,24.43,5492.4395058106,71.194228,0.3131716,0.9209974048,0,0,-0.671082,134.1, 1.4, 3.2,0,0,1024,1024,1024,1024,133.3,-89.9,97,4.061,4.074,4.07,4.071,4.066,4.075,18.237,89.6,14,Waypoint,
38.5226946,-120.3275398,5494.4080098106,73.162732,0,0.42595801888,12800,2018-06-19 21:30:44,15,0,24.43,5494.4080098106,73.162732,0.3131716,0.9209974048,0,0,-0.671082,133.9, 0, 2.1,0,0,1024,1024,1024,1024,133.3,-90,97,4.061,4.074,4.07,4.071,4.066,4.075,18.237,89.6,14,Waypoint,
38.5226947,-120.3275399,5495.0641778106,73.8189,0,0.45246392524,12900,2018-06-19 21:30:44,15,0,24.43,5495.0641778106,73.8189,0.3131716,0.9209974048,0,0,-0.671082,133.6, -0.7, 1.9,0,0,1024,1024,1024,1024,133.3,-89.9,97,4.061,4.074,4.07,4.071,4.066,4.075,18.237,89.6,14,Waypoint,
38.5226947,-120.3275399,5496.0484298106,74.803152,0,0.45246392524,13000,2018-06-19 21:30:44,15,0,24.381,5496.0484298106,74.803152,0.3131716,0.9209974048,0,0,-0.671082,133.4, -1, 2.1,0,0,1024,1024,1024,1024,133.3,-89.9,97,4.047,4.07,4.068,4.067,4.053,4.064,17.901,89.6,14,Waypoint,
38.5226947,-120.32754,5497.0326818106,75.787404,0,0.44611549984,13100,2018-06-19 21:30:44,15,0,24.381,5497.0326818106,75.787404,0.3131716,0.9209974048,0,0,-0.671082,133.1, -1, 2.1,0,0,1024,1024,1024,1024,133.3,-90,97,4.047,4.07,4.068,4.067,4.053,4.064,17.901,89.6,14,Waypoint,
38.5226947,-120.32754,5498.0169338106,76.771656,0,0.44611549984,13200,2018-06-19 21:30:44,15,0,24.381,5498.0169338106,76.771656,0.3131716,0.9209974048,0,0,-0.671082,133.2, -1.2, 1.3,0,0,1024,1024,1024,1024,133.3,-90,97,4.047,4.07,4.068,4.067,4.053,4.064,17.901,89.6,14,Waypoint,
38.5226947,-120.3275399,5499.0011858106,77.755908,0,0.45246392524,13300,2018-06-19 21:30:45,15,0,24.381,5499.0011858106,77.755908,0.3131716,0.9209974048,0,0,-0.671082,133.5, -1.1, 1.4,0,0,1024,1024,1024,1024,133.3,-89.9,97,4.047,4.07,4.068,4.067,4.053,4.064,17.901,89.6,14,Waypoint,
38.5226947,-120.3275398,5499.9854378106,78.74016,0,0.46049542156,13400,2018-06-19 21:30:45,15,0,24.381,5499.9854378106,78.74016,0.3131716,0.9209974048,0,0,-0.671082,133.9, -0.4, 1.8,0,0,1024,1024,1024,1024,133.3,-89.9,97,4.047,4.07,4.068,4.067,4.053,4.064,17.901,89.6,14,Waypoint,
38.5226947,-120.3275397,5500.9696898106,79.724412,0.223694,0.47012468696,13600,2018-06-19 21:30:45,15,0,24.381,5500.9696898106,79.724412,0.3131716,0.9209974048,0,0,-0.671082,134.1, 0, 2.2,0,0,1024,1024,1024,1024,133.3,-89.9,97,4.047,4.07,4.068,4.067,4.053,4.064,17.901,89.6,14,Waypoint,
38.5226948,-120.3275395,5502.9381938106,81.692916,0.223694,0.52641405884,13700,2018-06-19 21:30:45,15,0,24.381,5502.9381938106,81.692916,0.3131716,0.9209974048,0,0,-0.671082,134.1, 0.5, 3.7,0,0,1024,1024,1024,1024,133.3,-89.9,97,4.047,4.07,4.068,4.067,4.053,4.064,17.901,89.6,14,Waypoint,
38.5226949,-120.3275393,5503.9224458106,82.677168,0.3131716,0.58513453316,13800,2018-06-19 21:30:45,15,0,24.381,5503.9224458106,82.677168,0.3131716,0.9209974048,0,0,-0.671082,133.9, 0.5, 4.4,0,0,1024,1024,1024,1024,133.3,-89.9,97,4.047,4.07,4.068,4.067,4.053,4.064,17.901,89.6,14,Waypoint,
38.522695,-120.3275392,5504.9066978106,83.66142,0.3131716,0.63095146376,14000,2018-06-19 21:30:45,15,0,24.381,5504.9066978106,83.66142,0.3131716,0.9209974048,0,0,-0.671082,133.6, 0.3, 5,0,0,1024,1024,1024,1024,133.3,-89.9,97,4.047,4.07,4.068,4.067,4.053,4.064,17.901,89.6,14,Waypoint,
38.5226952,-120.3275391,5505.8909498106,84.645672,0.3131716,0.70854332976,14100,2018-06-19 21:30:45,15,0,24.381,5505.8909498106,84.645672,0.3131716,0.9209974048,0,0,-0.671082,133.3, 0, 5.3,0,0,1024,1024,1024,1024,133.3,-89.9,97,4.047,4.07,4.068,4.067,4.053,4.064,17.901,89.6,14,Waypoint,
38.5226953,-120.327539,5506.8752018106,85.629924,0.3131716,0.7543143286,14200,2018-06-19 21:30:45,14,0,24.381,5506.8752018106,85.629924,0.3131716,0.9209974048,0,0,-0.671082,133.2, -0.4, 5.3,0,0,1024,1024,1024,1024,133.3,-90,97,4.047,4.07,4.068,4.067,4.053,4.064,17.901,89.6,14,Waypoint,
38.5226954,-120.3275389,5507.8594538106,86.614176,0,0.80015094424,14300,2018-06-19 21:30:46,14,0,24.381,5507.8594538106,86.614176,0.3131716,0.9209974048,0,0,-0.671082,133.1, -0.6, 5.4,0,0,1024,1024,1024,1024,133.3,-89.9,97,4.047,4.07,4.068,4.067,4.053,4.064,17.901,89.6,14,Waypoint,
38.5226954,-120.3275388,5508.8437058106,87.598428,0,0.81478349064,14400,2018-06-19 21:30:46,14,0,24.381,5508.8437058106,87.598428,0.3131716,0.9209974048,0,0,-0.671082,133.2, -0.5, 5.2,0,0,1024,1024,1024,1024,133.3,-89.9,97,4.047,4.07,4.068,4.067,4.053,4.064,17.901,89.6,14,Waypoint,
38.5226955,-120.3275387,5509.8279578106,88.58268,0,0.86083992256,14500,2018-06-19 21:30:46,14,0,24.381,5509.8279578106,88.58268,0.3131716,0.9209974048,0,0,-0.671082,133.3, -0.3, 4.9,0,0,1024,1024,1024,1024,133.3,-89.9,97,4.047,4.07,4.068,4.067,4.053,4.064,17.901,89.6,14,Waypoint,
38.5226955,-120.3275387,5510.8122098106,89.566932,0,0.86083992256,14600,2018-06-19 21:30:46,14,0,24.381,5510.8122098106,89.566932,0.3131716,0.9209974048,0,0,-0.671082,133.3, -0.2, 4.9,0,0,1024,1024,1024,1024,133.3,-89.9,97,4.047,4.07,4.068,4.067,4.053,4.064,17.901,89.6,14,Waypoint,
38.5226956,-120.3275386,5511.7964618106,90.551184,0,0.9069226012,14700,2018-06-19 21:30:46,14,0,24.381,5511.7964618106,90.551184,0.3131716,0.9209974048,0,0,-0.671082,133.4, -0.2, 4.9,0,0,1024,1024,1024,1024,133.3,-89.9,97,4.047,4.07,4.068,4.067,4.053,4.064,17.901,89.6,14,Waypoint,
38.5226956,-120.3275385,5512.7807138106,91.535436,0,0.92250987204,14800,2018-06-19 21:30:46,14,0,24.381,5512.7807138106,91.535436,0.3131716,0.92250987204,0,0,-0.671082,133.4, -0.1, 5.3,0,0,1024,1024,1024,1024,133.3,-89.9,97,4.047,4.07,4.068,4.067,4.053,4.064,17.901,89.6,14,Waypoint,
38.5226958,-120.3275383,5514.7492178106,93.50394,0,1.01493441568,14900,2018-06-19 21:30:46,14,0,24.381,5514.7492178106,93.50394,0.3131716,1.01493441568,0,0,-0.671082,133.4, -0.3, 5.3,0,0,1024,1024,1024,1024,133.3,-89.9,97,4.047,4.07,4.068,4.067,4.053,4.064,17.901,89.6,14,Waypoint,
38.5226958,-120.3275383,5515.4053858106,94.160108,0,1.01493441568,15000,2018-06-19 21:30:46,14,0,24.285,5515.4053858106,94.160108,0.3131716,1.01493441568,0,0,-0.671082,133.5, -0.1, 5.3,0,0,1024,1024,1024,1024,133.3,-89.9,97,4.033,4.056,4.049,4.046,4.044,4.052,18.86,89.6,14,Waypoint,
38.5226958,-120.3275382,5516.3896378106,95.14436,0,1.03125987552,15100,2018-06-19 21:30:46,14,0,24.285,5516.3896378106,95.14436,0.3131716,1.03125987552,0,0,-0.671082,133.4, 0, 5,0,0,1024,1024,1024,1024,133.3,-89.9,97,4.033,4.056,4.049,4.046,4.044,4.052,18.86,89.6,14,Waypoint,
38.5226958,-120.3275382,5517.3738898106,96.128612,0,1.03125987552,15200,2018-06-19 21:30:46,14,0,24.285,5517.3738898106,96.128612,0.3131716,1.03125987552,0,0,-0.671082,133.4, -0.3, 5.1,0,0,1024,1024,1024,1024,133.3,-89.9,97,4.033,4.056,4.049,4.046,4.044,4.052,18.86,89.6,14,Waypoint,
38.5226958,-120.3275381,5518.3581418106,97.112864,0,1.04811026976,15300,2018-06-19 21:30:47,14,0,24.285,5518.3581418106,97.112864,0.3131716,1.04811026976,0,0,-0.671082,133.3, -0.5, 4.8,0,0,1024,1024,1024,1024,133.3,-89.9,97,4.033,4.056,4.049,4.046,4.044,4.052,18.86,89.6,14,Waypoint,
38.5226958,-120.3275381,5519.3423938106,98.097116,0,1.04811026976,15400,2018-06-19 21:30:47,14,0,24.285,5519.3423938106,98.097116,0.3131716,1.04811026976,0,0,-0.671082,133.4, -0.4, 4.5,0,0,1024,1024,1024,1024,133.3,-89.9,97,4.033,4.056,4.049,4.046,4.044,4.052,18.86,89.6,14,Waypoint,
38.5226958,-120.3275381,5519.9985618106,98.753284,0,1.04811026976,15500,2018-06-19 21:30:47,14,0,24.285,5519.9985618106,98.753284,0.3131716,1.04811026976,0,0,-0.671082,133.6, -0.2, 4.5,0,0,1024,1024,1024,1024,133.3,-89.9,97,4.033,4.056,4.049,4.046,4.044,4.052,18.86,89.6,14,Waypoint,
38.5226958,-120.3275381,5520.9828138106,99.737536,0,1.04811026976,15600,2018-06-19 21:30:47,14,0,24.285,5520.9828138106,99.737536,0.3131716,1.04811026976,0,0,-0.671082,133.6, -0.1, 4.6,0,0,1024,1024,1024,1024,133.3,-89.9,97,4.033,4.056,4.049,4.046,4.044,4.052,18.86,89.6,14,Waypoint,
38.5226958,-120.327538,5521.9670658106,100.721788,0,1.06545607084,15700,2018-06-19 21:30:47,14,0,24.285,5521.9670658106,100.721788,0.3131716,1.06545607084,0,0,-0.671082,133.6, 0.1, 4.4,0,0,1024,1024,1024,1024,133.3,-89.9,97,4.033,4.056,4.049,4.046,4.044,4.052,18.86,89.6,14,Waypoint,
38.5226958,-120.327538,5522.9513178106,101.70604,0,1.06545607084,15800,2018-06-19 21:30:47,14,0,24.285,5522.9513178106,101.70604,0.3131716,1.06545607084,0,0,-0.671082,133.6, 0.2, 4.4,0,0,1024,1024,1024,1024,133.3,-89.9,97,4.033,4.056,4.049,4.046,4.044,4.052,18.86,89.6,14,Waypoint,
38.5226958,-120.3275379,5523.9355698106,102.690292,0,1.08328087456,15900,2018-06-19 21:30:47,14,0,24.285,5523.9355698106,102.690292,0.3131716,1.08328087456,0,0,-0.671082,133.7, 0.4, 4.6,0,0,1024,1024,1024,1024,133.3,-89.9,97,4.033,4.056,4.049,4.046,4.044,4.052,18.86,89.6,14,Waypoint,
38.5226958,-120.3275379,5524.9198218106,103.674544,0,1.08328087456,16100,2018-06-19 21:30:47,14,0,24.285,5524.9198218106,103.674544,0.3131716,1.08328087456,0,0,-0.671082,133.8, 0.5, 5,0,0,1024,1024,1024,1024,133.3,-89.9,97,4.033,4.056,4.049,4.046,4.044,4.052,18.86,89.6,14,Waypoint,
38.5226958,-120.3275378,5525.9040738106,104.658796,0,1.10155187252,16200,2018-06-19 21:30:47,14,0,24.285,5525.9040738106,104.658796,0.3131716,1.10155187252,0,0,-0.671082,133.9, 0.8, 5.4,0,0,1024,1024,1024,1024,133.3,-89.9,97,4.033,4.056,4.049,4.046,4.044,4.052,18.86,89.6,14,Waypoint,
38.5226957,-120.3275377,5527.8725778106,106.6273,0,1.0931922922,16300,2018-06-19 21:30:48,14,0,24.285,5527.8725778106,106.6273,0.3131716,1.10155187252,0,0,-0.671082,134.1, 1.2, 5.7,0,0,1024,1024,1024,1024,133.3,-89.9,97,4.033,4.056,4.049,4.046,4.044,4.052,18.86,89.6,14,Waypoint,
38.5226956,-120.3275377,5528.5287458106,107.283468,0,1.06669294752,16500,2018-06-19 21:30:48,14,0,24.285,5528.5287458106,107.283468,0.3131716,1.10155187252,0,0,-0.671082,134.1, 1.2, 5.6,0,0,1024,1024,1024,1024,133.3,-89.9,97,4.033,4.056,4.049,4.046,4.044,4.052,18.86,89.6,14,Waypoint,
38.5226955,-120.3275377,5529.5129978106,108.26772,0,1.04079399656,16600,2018-06-19 21:30:48,14,0,24.285,5529.5129978106,108.26772,0.3131716,1.10155187252,0,0,-0.671082,134.1, 1.3, 5.5,0,0,1024,1024,1024,1024,133.3,-89.9,97,4.033,4.056,4.049,4.046,4.044,4.052,18.86,89.6,14,Waypoint,
38.5226955,-120.3275377,5530.4972498106,109.251972,0,1.04079399656,16700,2018-06-19 21:30:48,14,0,24.285,5530.4972498106,109.251972,0.3131716,1.10155187252,0,0,-0.671082,134.1, 1.4, 4.9,0,0,1024,1024,1024,1024,133.3,-89.9,97,4.033,4.056,4.049,4.046,4.044,4.052,18.86,89.6,14,Waypoint,
38.5226954,-120.3275377,5531.4815018106,110.236224,0,1.01554793276,16800,2018-06-19 21:30:48,14,0,24.285,5531.4815018106,110.236224,0.3131716,1.10155187252,0,0,-0.671082,134, 1.5, 4.6,0,0,1024,1024,1024,1024,133.3,-89.9,97,4.033,4.056,4.049,4.046,4.044,4.052,18.86,89.6,14,Waypoint,
38.5226952,-120.3275378,5533.4500058106,112.204728,0,0.94548559456,17000,2018-06-19 21:30:48,14,0,24.208,5533.4500058106,112.204728,0.3131716,1.10155187252,0,0,-0.671082,134, 1.3, 4.6,0,0,1024,1024,1024,1024,133.3,-89.9,96,4.007,4.043,4.026,4.031,4.016,4.032,19.521,89.6,14,Waypoint,
38.5226951,-120.3275378,5534.4342578106,113.18898,0,0.92196197176,17100,2018-06-19 21:30:48,14,0,24.208,5534.4342578106,113.18898,0.3131716,1.10155187252,0,0,-0.671082,133.9, 1.4, 4.3,0,0,1024,1024,1024,1024,133.3,-89.9,96,4.007,4.043,4.026,4.031,4.016,4.032,19.521,89.6,14,Waypoint,
38.5226949,-120.3275379,5535.4185098106,114.173232,0,0.85453086724,17200,2018-06-19 21:30:48,14,0,24.208,5535.4185098106,114.173232,0.3131716,1.10155187252,0,0,-0.671082,133.8, 1.2, 4,0,0,1024,1024,1024,1024,133.3,-89.9,96,4.007,4.043,4.026,4.031,4.016,4.032,19.521,89.6,14,Waypoint,
38.5226947,-120.3275381,5537.3870138106,116.141736,0.223694,0.76553152056,17300,2018-06-19 21:30:49,14,0,24.208,5537.3870138106,116.141736,0.3131716,1.10155187252,0,0,-0.671082,133.6, 1.3, 3.2,0,0,1024,1024,1024,1024,133.3,-89.9,96,4.007,4.043,4.026,4.031,4.016,4.032,19.521,89.6,14,Waypoint,
38.5226946,-120.3275383,5538.0431818106,116.797904,0,0.69784122968,17400,2018-06-19 21:30:49,14,0,24.208,5538.0431818106,116.797904,0.3131716,1.10155187252,0,0,-0.671082,133.6, 1.3, 2.5,0,0,1024,1024,1024,1024,133.3,-89.9,96,4.007,4.043,4.026,4.031,4.016,4.032,19.521,89.6,14,Waypoint,
38.5226944,-120.3275384,5539.3555178106,118.11024,0,0.63400264496,17500,2018-06-19 21:30:49,14,0,24.208,5539.3555178106,118.11024,0.3131716,1.10155187252,0,0,-0.671082,133.6, 1.3, 2.2,0,0,1024,1024,1024,1024,133.3,-90,96,4.007,4.043,4.026,4.031,4.016,4.032,19.521,89.6,14,Waypoint,
38.5226943,-120.3275385,5540.3397698106,119.094492,0,0.59091865408,17600,2018-06-19 21:30:49,14,0,24.208,5540.3397698106,119.094492,0.3131716,1.10155187252,0,0,-0.671082,133.7, 1.1, 2.2,0,0,1024,1024,1024,1024,133.3,-89.9,96,4.007,4.043,4.026,4.031,4.016,4.032,19.521,89.6,14,Waypoint,
38.5226942,-120.3275387,5541.3240218106,120.078744,0,0.52327101412,17700,2018-06-19 21:30:49,14,0,24.208,5541.3240218106,120.078744,0.3131716,1.10155187252,0,0,-0.671082,133.7, 0.8, 2.2,0,0,1024,1024,1024,1024,133.3,-89.9,96,4.007,4.043,4.026,4.031,4.016,4.032,19.521,89.6,14,Waypoint,
38.5226942,-120.3275388,5542.3082738106,121.062996,0,0.49854988472,17800,2018-06-19 21:30:49,14,0,24.208,5542.3082738106,121.062996,0.3131716,1.10155187252,0,0,-0.671082,133.9, 0.7, 2.3,0,0,1024,1024,1024,1024,133.3,-89.9,96,4.007,4.043,4.026,4.031,4.016,4.032,19.521,89.6,14,Waypoint,
38.5226941,-120.327539,5544.2767778106,123.0315,0,0.43083662796,18000,2018-06-19 21:30:49,14,0,24.181,5544.2767778106,123.0315,0.3131716,1.10155187252,0,0,-0.671082,134, 0.8, 2.4,0,0,1024,1024,1024,1024,133.3,-89.9,96,4.024,4.029,4.038,4.026,4.016,4.032,19.896,89.6,14,Waypoint,
38.522694,-120.3275391,5545.2610298106,124.015752,0,0.38808072108,18200,2018-06-19 21:30:49,14,0,24.181,5545.2610298106,124.015752,0.3131716,1.10155187252,0,0,-0.671082,134, 0.6, 2.4,0,0,1024,1024,1024,1024,133.3,-89.9,96,4.024,4.029,4.038,4.026,4.016,4.032,19.896,89.6,14,Waypoint,
38.5226939,-120.3275391,5546.2452818106,125.000004,0,0.3723261274,18300,2018-06-19 21:30:50,14,0,24.181,5546.2452818106,125.000004,0.3131716,1.10155187252,0,0,-0.671082,133.8, 0.7, 2.6,0,0,1024,1024,1024,1024,133.3,-89.9,96,4.024,4.029,4.038,4.026,4.016,4.032,19.896,89.6,14,Waypoint,
38.5226939,-120.3275392,5547.5576178106,126.31234,0,0.34624673024,18400,2018-06-19 21:30:50,15,0,24.181,5547.5576178106,126.31234,0.3131716,1.10155187252,0,0,-0.671082,133.7, 0.8, 2.7,0,0,1024,1024,1024,1024,133.3,-89.9,96,4.024,4.029,4.038,4.026,4.016,4.032,19.896,89.6,14,Waypoint,
38.5226938,-120.3275393,5548.5418698106,127.296592,0,0.30571031162,18500,2018-06-19 21:30:50,15,0,24.181,5548.5418698106,127.296592,0.3131716,1.10155187252,0,0,-0.671082,133.6, 1, 2.8,0,0,1024,1024,1024,1024,133.3,-89.9,96,4.024,4.029,4.038,4.026,4.016,4.032,19.896,89.6,14,Waypoint,
38.5226937,-120.3275394,5549.5261218106,128.280844,0,0.26706201642,18600,2018-06-19 21:30:50,15,0,24.181,5549.5261218106,128.280844,0.3131716,1.10155187252,0,0,-0.671082,133.5, 1, 2.8,0,0,1024,1024,1024,1024,133.3,-89.9,96,4.024,4.029,4.038,4.026,4.016,4.032,19.896,89.6,14,Waypoint,
38.5226937,-120.3275394,5550.8384578106,129.59318,0,0.26706201642,18700,2018-06-19 21:30:50,15,0,24.181,5550.8384578106,129.59318,0.3131716,1.10155187252,0,0,-0.671082,133.5, 0.9, 2.8,0,0,1024,1024,1024,1024,133.3,-89.9,96,4.024,4.029,4.038,4.026,4.016,4.032,19.896,89.6,14,Waypoint,
38.5226936,-120.3275394,5551.8227098106,130.577432,0,0.259477698592,18800,2018-06-19 21:30:50,15,0,24.181,5551.8227098106,130.577432,0.3131716,1.10155187252,0,0,-0.671082,133.5, 0.7, 2.9,0,0,1024,1024,1024,1024,133.3,-89.9,96,4.024,4.029,4.038,4.026,4.016,4.032,19.896,89.6,14,Waypoint,
38.5226936,-120.3275394,5552.8069618106,131.561684,0,0.259477698592,18900,2018-06-19 21:30:50,15,0,24.181,5552.8069618106,131.561684,0.3131716,1.10155187252,0,0,-0.671082,133.6, 0.8, 2.8,0,0,1024,1024,1024,1024,133.3,-89.9,96,4.024,4.029,4.038,4.026,4.016,4.032,19.896,89.6,14,Waypoint,
38.5226935,-120.3275394,5553.7912138106,132.545936,0,0.25689961452,19000,2018-06-19 21:30:50,15,0,24.129,5553.7912138106,132.545936,0.3131716,1.10155187252,0,0,-0.671082,133.7, 1, 2.9,0,0,1024,1024,1024,1024,133.3,-89.9,96,4.017,4.027,4.024,4.029,4.016,4.023,19.813,89.6,14,Waypoint,
38.5226935,-120.3275394,5555.1035498106,133.858272,0,0.25689961452,19100,2018-06-19 21:30:50,15,0,24.129,5555.1035498106,133.858272,0.3131716,1.10155187252,0,0,-0.671082,133.6, 1.1, 3.1,0,0,1024,1024,1024,1024,133.3,-89.9,96,4.017,4.027,4.024,4.029,4.016,4.023,19.813,89.6,14,Waypoint,
38.5226935,-120.3275394,5556.0878018106,134.842524,0,0.25689961452,19200,2018-06-19 21:30:50,15,0,24.129,5556.0878018106,134.842524,0.3131716,1.10155187252,0,0,-0.671082,133.5, 1.1, 3.3,0,0,1024,1024,1024,1024,133.3,-89.9,96,4.017,4.027,4.024,4.029,4.016,4.023,19.813,89.6,14,Waypoint,
38.5226934,-120.3275395,5558.0563058106,136.811028,0,0.23125164782,19300,2018-06-19 21:30:51,15,0,24.129,5558.0563058106,136.811028,0.3131716,1.10155187252,0,0,-0.671082,133.4, 1, 3.3,0,0,1024,1024,1024,1024,133.3,-89.9,96,4.017,4.027,4.024,4.029,4.016,4.023,19.813,89.6,14,Waypoint,
38.5226934,-120.3275395,5559.0405578106,137.79528,0,0.23125164782,19400,2018-06-19 21:30:51,15,0,24.129,5559.0405578106,137.79528,0.3131716,1.10155187252,0,0,-0.671082,133.4, 1.3, 3.2,0,0,1024,1024,1024,1024,133.3,-89.9,96,4.017,4.027,4.024,4.029,4.016,4.023,19.813,89.6,14,Waypoint,
38.5226934,-120.3275395,5560.0248098106,138.779532,0,0.23125164782,19500,2018-06-19 21:30:51,15,0,24.129,5560.0248098106,138.779532,0.3131716,1.10155187252,0,0,-0.671082,133.4, 1.2, 3.4,0,0,1024,1024,1024,1024,133.3,-89.9,96,4.017,4.027,4.024,4.029,4.016,4.023,19.813,89.6,14,Waypoint,
38.5226934,-120.3275395,5561.3371458106,140.091868,0,0.23125164782,19600,2018-06-19 21:30:51,15,0,24.129,5561.3371458106,140.091868,0.3131716,1.10155187252,0,0,-0.671082,133.5, 1.2, 3.3,0,0,1024,1024,1024,1024,133.3,-89.9,96,4.017,4.027,4.024,4.029,4.016,4.023,19.813,89.6,14,Waypoint,
38.5226934,-120.3275395,5562.3213978106,141.07612,0,0.23125164782,19700,2018-06-19 21:30:51,15,0,24.129,5562.3213978106,141.07612,0.3131716,1.10155187252,0,0,-0.671082,133.6, 1.2, 3.1,0,0,1024,1024,1024,1024,133.3,-89.9,96,4.017,4.027,4.024,4.029,4.016,4.023,19.813,89.6,14,Waypoint,
38.5226934,-120.3275396,5563.3056498106,142.060372,0,0.203114507812,19800,2018-06-19 21:30:51,15,0,24.129,5563.3056498106,142.060372,0.3131716,1.10155187252,0,0,-0.671082,133.7, 1, 3.4,0,0,1024,1024,1024,1024,133.3,-89.9,96,4.017,4.027,4.024,4.029,4.016,4.023,19.813,89.6,14,Waypoint,
38.5226934,-120.3275396,5563.9618178106,142.71654,0,0.203114507812,19900,2018-06-19 21:30:51,15,0,24.129,5563.9618178106,142.71654,0.3131716,1.10155187252,0,0,-0.671082,133.7, 0.9, 3.4,0,0,1024,1024,1024,1024,133.3,-89.9,96,4.017,4.027,4.024,4.029,4.016,4.023,19.813,89.6,14,Waypoint,
38.5226934,-120.3275396,5564.9460698106,143.700792,0,0.203114507812,20000,2018-06-19 21:30:51,15,0,24.199,5564.9460698106,143.700792,0.3131716,1.10155187252,0,0,-0.671082,133.6, 0.8, 3.4,0,0,1024,1024,1024,1024,133.3,-89.9,96,4.023,4.045,4.035,4.034,4.032,4.039,18.755,89.6,14,Waypoint,
38.5226934,-120.3275396,5565.9303218106,144.685044,0,0.203114507812,20100,2018-06-19 21:30:51,15,0,24.199,5565.9303218106,144.685044,0.3131716,1.10155187252,0,0,-0.671082,133.6, 0.8, 3.7,0,0,1024,1024,1024,1024,133.3,-89.9,96,4.023,4.045,4.035,4.034,4.032,4.039,18.755,89.6,14,Waypoint,
38.5226934,-120.3275396,5566.9145738106,145.669296,0,0.203114507812,20200,2018-06-19 21:30:51,15,0,24.199,5566.9145738106,145.669296,0.3131716,1.10155187252,0,0,-0.671082,133.7, 0.9, 3.6,0,0,1024,1024,1024,1024,133.3,-89.9,96,4.023,4.045,4.035,4.034,4.032,4.039,18.755,89.6,14,Waypoint,
38.5226934,-120.3275396,5567.8988258106,146.653548,0,0.203114507812,20300,2018-06-19 21:30:52,15,0,24.199,5567.8988258106,146.653548,0.3131716,1.10155187252,0,0,-0.671082,133.8, 1, 3.4,0,0,1024,1024,1024,1024,133.3,-89.9,96,4.023,4.045,4.035,4.034,4.032,4.039,18.755,89.6,14,Waypoint,
38.5226934,-120.3275397,5568.8830778106,147.6378,0,0.175109585656,20400,2018-06-19 21:30:52,15,0,24.199,5568.8830778106,147.6378,0.3131716,1.10155187252,0,0,-0.671082,133.8, 1.2, 3,0,0,1024,1024,1024,1024,133.3,-89.9,96,4.023,4.045,4.035,4.034,4.032,4.039,18.755,89.6,14,Waypoint,
38.5226934,-120.3275397,5569.8673298106,148.622052,0,0.175109585656,20500,2018-06-19 21:30:52,15,0,24.199,5569.8673298106,148.622052,0.3131716,1.10155187252,0,0,-0.671082,133.8, 1.4, 2.9,0,0,1024,1024,1024,1024,133.3,-89.9,96,4.023,4.045,4.035,4.034,4.032,4.039,18.755,89.6,14,Waypoint,
38.5226934,-120.3275398,5571.8358338106,150.590556,0,0.147311684504,20700,2018-06-19 21:30:52,15,0,24.199,5571.8358338106,150.590556,0.3131716,1.10155187252,0,0,-0.671082,133.6, 1.2, 2.7,0,0,1024,1024,1024,1024,133.3,-89.9,96,4.023,4.045,4.035,4.034,4.032,4.039,18.755,89.6,14,Waypoint,
38.5226934,-120.3275399,5572.8200858106,151.574808,0,0.119865161316,20800,2018-06-19 21:30:52,15,0,24.199,5572.8200858106,151.574808,0.3131716,1.10155187252,0,0,-0.671082,133.5, 1.1, 2.5,0,0,1024,1024,1024,1024,133.3,-89.9,96,4.023,4.045,4.035,4.034,4.032,4.039,18.755,89.6,14,Waypoint,
38.5226934,-120.3275399,5572.8200858106,151.574808,0,0.119865161316,20900,2018-06-19 21:30:52,15,0,24.199,5572.8200858106,151.574808,0.3131716,1.10155187252,0,0,-0.671082,133.5, 1.1, 2.5,0,0,1024,1024,1024,1024,133.3,-89.9,96,4.023,4.045,4.035,4.034,4.032,4.039,18.755,89.6,14,Waypoint,
38.5226934,-120.3275399,5573.8043378106,152.55906,0,0.119865161316,21000,2018-06-19 21:30:52,15,0,24.175,5573.8043378106,152.55906,0.3131716,1.10155187252,0,0,-0.671082,133.5, 1.2, 2.4,0,0,1024,1024,1024,1024,133.3,-89.9,96,4.023,4.045,4.035,4.034,4.032,4.039,18.552,89.6,14,Waypoint,
38.5226933,-120.32754,5574.7885898106,153.543312,0,0.112506237196,21100,2018-06-19 21:30:52,15,0,24.175,5574.7885898106,153.543312,0.3131716,1.10155187252,0,0,-0.671082,133.4, 1.4, 2.4,0,0,1024,1024,1024,1024,133.3,-89.9,96,4.023,4.045,4.035,4.034,4.032,4.039,18.552,89.6,14,Waypoint,
38.5226932,-120.3275401,5575.7728418106,154.527564,0,0.123448494764,21200,2018-06-19 21:30:52,15,0,24.175,5575.7728418106,154.527564,0.3131716,1.10155187252,0,0,-0.671082,133.2, 1.6, 2.2,0,0,1024,1024,1024,1024,133.3,-89.9,96,4.023,4.045,4.035,4.034,4.032,4.039,18.552,89.6,14,Waypoint,
38.5226932,-120.3275401,5576.7570938106,155.511816,0,0.123448494764,21300,2018-06-19 21:30:53,15,0,24.175,5576.7570938106,155.511816,0.3131716,1.10155187252,0,0,-0.671082,133, 1.4, 2,0,0,1024,1024,1024,1024,133.3,-89.9,96,4.023,4.045,4.035,4.034,4.032,4.039,18.552,89.6,14,Waypoint,
38.5226932,-120.3275401,5577.7413458106,156.496068,0,0.123448494764,21400,2018-06-19 21:30:53,15,0,24.175,5577.7413458106,156.496068,0.3131716,1.10155187252,0,0,-0.671082,132.7, 1.5, 1.9,0,0,1024,1024,1024,1024,133.3,-89.9,96,4.023,4.045,4.035,4.034,4.032,4.039,18.552,89.6,14,Waypoint,
38.5226931,-120.3275402,5578.7255978106,157.48032,0,0.148705057252,21500,2018-06-19 21:30:53,15,0,24.175,5578.7255978106,157.48032,0.3131716,1.10155187252,0,0,-0.671082,132.5, 1.5, 2,0,0,1024,1024,1024,1024,133.3,-89.9,96,4.023,4.045,4.035,4.034,4.032,4.039,18.552,89.6,14,Waypoint,
38.5226931,-120.3275402,5579.7098498106,158.464572,0,0.148705057252,21600,2018-06-19 21:30:53,15,0,24.175,5579.7098498106,158.464572,0.3131716,1.10155187252,0,0,-0.671082,132.5, 1.6, 2.2,0,0,1024,1024,1024,1024,133.3,-89.9,96,4.023,4.045,4.035,4.034,4.032,4.039,18.552,89.6,14,Waypoint,
38.5226931,-120.3275401,5580.6941018106,159.448824,0,0.156708338348,21700,2018-06-19 21:30:53,15,0,24.175,5580.6941018106,159.448824,0.3131716,1.10155187252,0,0,-0.671082,132.6, 1.8, 2.5,0,0,1024,1024,1024,1024,133.3,-89.9,96,4.023,4.045,4.035,4.034,4.032,4.039,18.552,89.6,14,Waypoint,
38.5226931,-120.3275401,5582.0064378106,160.76116,0,0.156708338348,21800,2018-06-19 21:30:53,15,0,24.175,5582.0064378106,160.76116,0.3131716,1.10155187252,0,0,-0.671082,132.8, 1.6, 3.2,0,0,1024,1024,1024,1024,133.3,-89.9,96,4.023,4.045,4.035,4.034,4.032,4.039,18.552,89.6,14,Waypoint,
38.5226931,-120.3275401,5582.9906898106,161.745412,0.223694,0.156708338348,21900,2018-06-19 21:30:53,15,0,24.175,5582.9906898106,161.745412,0.3131716,1.10155187252,0,0,-0.671082,133.2, 1.6, 3.5,0,0,1024,1024,1024,1024,133.3,-89.9,96,4.023,4.045,4.035,4.034,4.032,4.039,18.552,89.6,14,Waypoint,
38.5226932,-120.32754,5584.9591938106,163.713916,0,0.138972773476,22000,2018-06-19 21:30:53,15,0,24.175,5584.9591938106,163.713916,0.3131716,1.10155187252,0,0,-0.671082,133.8, 1.4, 3.7,0,0,1024,1024,1024,1024,133.3,-89.9,96,4.011,4.033,4.037,4.042,4.023,4.03,18.552,89.6,14,Waypoint,
38.5226932,-120.32754,5585.9434458106,164.698168,0,0.138972773476,22100,2018-06-19 21:30:53,15,0,24.175,5585.9434458106,164.698168,0.3131716,1.10155187252,0,0,-0.671082,133.9, 1.5, 3.4,0,0,1024,1024,1024,1024,133.3,-89.9,96,4.011,4.033,4.037,4.042,4.023,4.03,18.552,89.6,14,Waypoint,
38.5226932,-120.3275399,5586.9276978106,165.68242,0,0.158167327896,22200,2018-06-19 21:30:53,15,0,24.175,5586.9276978106,165.68242,0.3131716,1.10155187252,0,0,-0.671082,134, 1.5, 3.3,0,0,1024,1024,1024,1024,133.3,-89.9,96,4.011,4.033,4.037,4.042,4.023,4.03,18.552,89.6,14,Waypoint,
38.5226932,-120.3275399,5587.9119498106,166.666672,0,0.158167327896,22300,2018-06-19 21:30:54,15,0,24.175,5587.9119498106,166.666672,0.3131716,1.10155187252,0,0,-0.671082,133.9, 1.4, 3.6,0,0,1024,1024,1024,1024,133.3,-89.9,96,4.011,4.033,4.037,4.042,4.023,4.03,18.552,89.6,14,Waypoint,
38.5226932,-120.3275399,5588.8962018106,167.650924,0,0.158167327896,22400,2018-06-19 21:30:54,15,0,24.175,5588.8962018106,167.650924,0.3131716,1.10155187252,0,0,-0.671082,133.8, 1.4, 4.2,0,0,1024,1024,1024,1024,133.3,-89.9,96,4.011,4.033,4.037,4.042,4.023,4.03,18.552,89.6,14,Waypoint,
38.5226931,-120.3275398,5589.8804538106,168.635176,0,0.20412730312,22500,2018-06-19 21:30:54,15,0,24.175,5589.8804538106,168.635176,0.3131716,1.10155187252,0,0,-0.671082,134.1, 1.3, 3.8,0,0,1024,1024,1024,1024,133.3,-89.9,96,4.011,4.033,4.037,4.042,4.023,4.03,18.552,89.6,14,Waypoint,
38.5226931,-120.3275398,5590.8647058106,169.619428,0.223694,0.20412730312,22600,2018-06-19 21:30:54,15,0,24.175,5590.8647058106,169.619428,0.3131716,1.10155187252,0,0,-0.671082,134.5, 1.5, 3.4,0,0,1024,1024,1024,1024,133.3,-89.9,96,4.011,4.033,4.037,4.042,4.023,4.03,18.552,89.6,14,Waypoint,
38.5226931,-120.3275397,5592.1770418106,170.931764,0,0.225012474392,22700,2018-06-19 21:30:54,15,0,24.175,5592.1770418106,170.931764,0.3131716,1.10155187252,0,0,-0.671082,134.8, 1.8, 3.7,0,0,1024,1024,1024,1024,133.3,-89.9,96,4.011,4.033,4.037,4.042,4.023,4.03,18.552,89.6,14,Waypoint,
38.5226931,-120.3275397,5593.1612938106,171.916016,0,0.225012474392,22800,2018-06-19 21:30:54,15,0,24.175,5593.1612938106,171.916016,0.3131716,1.10155187252,0,0,-0.671082,134.8, 1.8, 4,0,0,1024,1024,1024,1024,133.3,-89.9,96,4.011,4.033,4.037,4.042,4.023,4.03,18.552,89.6,14,Waypoint,
38.5226931,-120.3275397,5594.1455458106,172.900268,0,0.225012474392,23000,2018-06-19 21:30:54,15,0,24.134,5594.1455458106,172.900268,0.3131716,1.10155187252,0,0,-0.671082,134.6, 1.7, 4.1,0,0,1024,1024,1024,1024,133.3,-89.9,96,4.014,4.028,4.032,4.02,4.017,4.021,19.308,89.6,14,Waypoint,
38.5226931,-120.3275396,5595.1297978106,173.88452,0,0.247432422616,23100,2018-06-19 21:30:54,15,0,24.134,5595.1297978106,173.88452,0.3131716,1.10155187252,0,0,-0.671082,134.5, 1.6, 4.2,0,0,1024,1024,1024,1024,133.3,-89.9,96,4.014,4.028,4.032,4.02,4.017,4.021,19.308,89.6,14,Waypoint,
38.5226931,-120.3275396,5596.1140498106,174.868772,0,0.247432422616,23200,2018-06-19 21:30:54,15,0,24.134,5596.1140498106,174.868772,0.3131716,1.10155187252,0,0,-0.671082,134.3, 1.6, 4.3,0,0,1024,1024,1024,1024,133.3,-89.9,96,4.014,4.028,4.032,4.02,4.017,4.021,19.308,89.6,14,Waypoint,
38.5226931,-120.3275396,5597.0983018106,175.853024,0,0.247432422616,23300,2018-06-19 21:30:55,15,0,24.134,5597.0983018106,175.853024,0.3131716,1.10155187252,0,0,-0.671082,134, 1.4, 4.3,0,0,1024,1024,1024,1024,133.3,-89.9,96,4.014,4.028,4.032,4.02,4.017,4.021,19.308,89.6,14,Waypoint,
38.5226932,-120.3275396,5598.0825538106,176.837276,0.223694,0.227826122776,23400,2018-06-19 21:30:55,15,0,24.134,5598.0825538106,176.837276,0.3131716,1.10155187252,0,0,-0.671082,133.7, 1.2, 4.2,0,0,1024,1024,1024,1024,133.3,-90,96,4.014,4.028,4.032,4.02,4.017,4.021,19.308,89.6,14,Waypoint,
38.5226933,-120.3275396,5598.7387218106,177.493444,0.223694,0.21271818266,23500,2018-06-19 21:30:55,15,0,24.134,5598.7387218106,177.493444,0.3131716,1.10155187252,0,0,-0.671082,133.4, 1, 4.3,0,0,1024,1024,1024,1024,133.3,-90,96,4.014,4.028,4.032,4.02,4.017,4.021,19.308,89.6,14,Waypoint,
38.5226933,-120.3275396,5599.7229738106,178.477696,0,0.21271818266,23600,2018-06-19 21:30:55,15,0,24.134,5599.7229738106,178.477696,0.3131716,1.10155187252,0,0,-0.671082,133.3, 0.9, 4.2,0,0,1024,1024,1024,1024,133.3,-90,96,4.014,4.028,4.032,4.02,4.017,4.021,19.308,89.6,14,Waypoint,
38.5226934,-120.3275396,5600.7072258106,179.461948,0,0.203114507812,23700,2018-06-19 21:30:55,15,0,24.134,5600.7072258106,179.461948,0.3131716,1.10155187252,0,0,-0.671082,133.3, 0.9, 4,0,0,1024,1024,1024,1024,133.3,-90,96,4.014,4.028,4.032,4.02,4.017,4.021,19.308,89.6,14,Waypoint,
38.5226934,-120.3275396,5601.6914778106,180.4462,0,0.203114507812,23800,2018-06-19 21:30:55,15,0,24.134,5601.6914778106,180.4462,0.3131716,1.10155187252,0,0,-0.671082,133.3, 1.1, 4.2,0,0,1024,1024,1024,1024,133.3,-89.9,96,4.014,4.028,4.032,4.02,4.017,4.021,19.308,89.6,14,Waypoint,
38.5226935,-120.3275395,5602.3476458106,181.102368,0,0.228355322268,23900,2018-06-19 21:30:55,15,0,24.134,5602.3476458106,181.102368,0.3131716,1.10155187252,0,0,-0.671082,133.4, 1.1, 4.7,0,0,1024,1024,1024,1024,133.3,-89.9,96,4.014,4.028,4.032,4.02,4.017,4.021,19.308,89.6,14,Waypoint,
38.5226935,-120.3275395,5603.3318978106,182.08662,0,0.228355322268,24000,2018-06-19 21:30:55,15,0,24.21,5603.3318978106,182.08662,0.3131716,1.10155187252,0,0,-0.671082,133.5, 1.1, 4.8,0,0,1024,1024,1024,1024,133.3,-89.9,96,4.036,4.046,4.04,4.037,4.038,4.049,17.7,89.6,14,Waypoint,
38.5226936,-120.3275395,5604.3161498106,183.070872,0.223694,0.23125164782,24100,2018-06-19 21:30:55,15,0,24.21,5604.3161498106,183.070872,0.3131716,1.10155187252,0,0,-0.671082,133.5, 0.9, 4.8,0,0,1024,1024,1024,1024,133.3,-89.9,96,4.036,4.046,4.04,4.037,4.038,4.049,17.7,89.6,14,Waypoint,
38.5226939,-120.3275396,5605.9565698106,184.711292,0,0.247432422616,24200,2018-06-19 21:30:55,15,0,24.21,5605.9565698106,184.711292,0.3131716,1.10155187252,0,0,-0.671082,133.4, 0.4, 4.7,0,0,1024,1024,1024,1024,133.3,-90,96,4.036,4.046,4.04,4.037,4.038,4.049,17.7,89.6,14,Waypoint,
38.5226939,-120.3275397,5606.9408218106,185.695544,0.223694,0.225012474392,24300,2018-06-19 21:30:56,15,0,24.21,5606.9408218106,185.695544,0.3131716,1.10155187252,0,0,-0.671082,133.5, 0, 4.5,0,0,1024,1024,1024,1024,133.3,-90,96,4.036,4.046,4.04,4.037,4.038,4.049,17.7,89.6,14,Waypoint,
38.5226941,-120.3275398,5607.9250738106,186.679796,0.223694,0.26132546768,24400,2018-06-19 21:30:56,15,0,24.21,5607.9250738106,186.679796,0.3131716,1.10155187252,0,0,-0.671082,133.6, -0.1, 4.5,0,0,1024,1024,1024,1024,133.3,-90,96,4.036,4.046,4.04,4.037,4.038,4.049,17.7,89.6,14,Waypoint,
38.5226942,-120.3275399,5608.9093258106,187.664048,0.223694,0.279755258296,24500,2018-06-19 21:30:56,15,0,24.21,5608.9093258106,187.664048,0.3131716,1.10155187252,0,0,-0.671082,133.7, -0.2, 5,0,0,1024,1024,1024,1024,133.3,-90,96,4.036,4.046,4.04,4.037,4.038,4.049,17.7,89.6,14,Waypoint,
38.5226943,-120.3275399,5609.8935778106,188.6483,0.223694,0.31341700478,24600,2018-06-19 21:30:56,15,0,24.21,5609.8935778106,188.6483,0.3131716,1.10155187252,0,0,-0.671082,133.7, -0.4, 5.4,0,0,1024,1024,1024,1024,133.3,-89.9,96,4.036,4.046,4.04,4.037,4.038,4.049,17.7,89.6,14,Waypoint,
38.5226944,-120.32754,5610.8778298106,189.632552,0.223694,0.33934712372,24700,2018-06-19 21:30:56,15,0,24.21,5610.8778298106,189.632552,0.3131716,1.10155187252,0,0,-0.671082,133.6, -0.4, 5.1,0,0,1024,1024,1024,1024,133.3,-89.9,96,4.036,4.046,4.04,4.037,4.038,4.049,17.7,89.6,14,Waypoint,
38.5226945,-120.3275401,5611.8620818106,190.616804,0.223694,0.36928806956,24800,2018-06-19 21:30:56,15,0,24.21,5611.8620818106,190.616804,0.3131716,1.10155187252,0,0,-0.671082,133.5, -0.5, 5,0,0,1024,1024,1024,1024,133.3,-89.9,96,4.036,4.046,4.04,4.037,4.038,4.049,17.7,89.6,14,Waypoint,
38.5226946,-120.3275402,5612.8463338106,191.601056,0.223694,0.40234909424,24900,2018-06-19 21:30:56,15,0,24.21,5612.8463338106,191.601056,0.3131716,1.10155187252,0,0,-0.671082,133.4, -0.7, 5,0,0,1024,1024,1024,1024,133.3,-89.9,96,4.036,4.046,4.04,4.037,4.038,4.049,17.7,89.6,14,Waypoint,
38.5226947,-120.3275402,5613.8305858106,192.585308,0,0.43875001404,25000,2018-06-19 21:30:56,15,0,24.162,5613.8305858106,192.585308,0.3131716,1.10155187252,0,0,-0.671082,133.4, -1, 5,0,0,1024,1024,1024,1024,133.3,-89.9,96,4.001,4.026,4.024,4.021,4.015,4.024,18.479,91.4,14,Waypoint,
38.5226948,-120.3275403,5615.7990898106,194.553812,0,0.47430447712,25200,2018-06-19 21:30:56,15,0,24.162,5615.7990898106,194.553812,0.3131716,1.10155187252,0,0,-0.671082,133.7, -1.3, 4.7,0,0,1024,1024,1024,1024,133.3,-89.9,96,4.001,4.026,4.024,4.021,4.015,4.024,18.479,91.4,14,Waypoint,
38.5226948,-120.3275404,5616.7833418106,195.538064,0,0.47516077636,25300,2018-06-19 21:30:57,15,0,24.162,5616.7833418106,195.538064,0.3131716,1.10155187252,0,0,-0.671082,133.8, -1, 4,0,0,1024,1024,1024,1024,133.3,-89.9,96,4.001,4.026,4.024,4.021,4.015,4.024,18.479,91.4,14,Waypoint,
38.5226948,-120.3275404,5617.7675938106,196.522316,0,0.47516077636,25400,2018-06-19 21:30:57,15,0,24.162,5617.7675938106,196.522316,0.3131716,1.10155187252,0,0,-0.671082,134, -0.7, 4.2,0,0,1024,1024,1024,1024,133.3,-89.9,96,4.001,4.026,4.024,4.021,4.015,4.024,18.479,91.4,14,Waypoint,
38.5226949,-120.3275403,5618.7518458106,197.506568,0.223694,0.51079069876,25600,2018-06-19 21:30:57,15,0,24.162,5618.7518458106,197.506568,0.3131716,1.10155187252,0,0,-0.671082,134.4, -0.5, 5,0,0,1024,1024,1024,1024,133.3,-89.9,96,4.001,4.026,4.024,4.021,4.015,4.024,18.479,91.4,14,Waypoint,
38.5226949,-120.3275402,5619.7360978106,198.49082,0.223694,0.51158466204,25700,2018-06-19 21:30:57,15,0,24.162,5619.7360978106,198.49082,0.3131716,1.10155187252,0,0,-0.671082,134.7, -0.1, 5.5,0,0,1024,1024,1024,1024,133.3,-89.9,96,4.001,4.026,4.024,4.021,4.015,4.024,18.479,91.4,14,Waypoint,
38.522695,-120.3275401,5620.7203498106,199.475072,0.223694,0.55024279976,25800,2018-06-19 21:30:57,15,0,24.162,5620.7203498106,199.475072,0.3131716,1.10155187252,0,0,-0.671082,134.8, 0.2, 5.7,0,0,1024,1024,1024,1024,133.3,-89.9,96,4.001,4.026,4.024,4.021,4.015,4.024,18.479,91.4,14,Waypoint,
38.522695,-120.32754,5621.7046018106,200.459324,0.223694,0.55393374476,25900,2018-06-19 21:30:57,15,0,24.162,5621.7046018106,200.459324,0.3131716,1.10155187252,0,0,-0.671082,134.7, 0.7, 6,0,0,1024,1024,1024,1024,133.3,-89.9,96,4.001,4.026,4.024,4.021,4.015,4.024,18.479,91.4,14,Waypoint,
