latitude,longitude,altitude(feet),ascent(feet),speed(mph),distance(feet),time(millisecond),datetime(utc),satellites,gpslevel,voltage(v),max_altitude(feet),max_ascent(feet),max_speed(mph),max_distance(feet), xSpeed(mph), ySpeed(mph), zSpeed(mph), compass_heading(degrees), pitch(degrees), roll(degrees),isPhoto,isVideo,rc_elevator,rc_aileron,rc_throttle,rc_rudder,gimbal_heading(degrees),gimbal_pitch(degrees),battery_percent,voltageCell1,voltageCell2,voltageCell3,voltageCell4,voltageCell5,voltageCell6,current(A),battery_temperature(f),flycStateRaw,flycState,message
38.5226819,-120.3275119,5421.6068431108,-0.328084,0,0,3010,2018-06-19 21:49:46,9,0,25.588,5421.6068431108,0,0,0,0,0,0,128.4, -0.1, 0.4,1,0,1024,1024,1024,1024,128.3,-89.9,100,4.256,4.266,4.281,4.261,4.271,4.289,3.856,78.8,11,AutoTakeoff,DJI_0617.jpg Starting Mission from Lat/Long: 38.52268/-120.32751 Camera: Zenmuse X3 - Overlap: 90/90 - Active Connection: No
38.5226819,-120.3275118,5421.6068431108,-0.328084,0,0.0285444234856,3200,2018-06-19 21:49:47,9,0,25.588,5421.6068431108,0,0,0.0285444234856,0,0,0,128.3, 0.8, 0.4,0,0,1024,1024,1024,1024,128.3,-89.9,100,4.256,4.266,4.281,4.261,4.271,4.289,3.856,78.8,11,AutoTakeoff,
38.5226819,-120.3275117,5421.9349271108,0,0,0.057088912588,3400,2018-06-19 21:49:47,8,0,25.588,5421.9349271108,0,0,0.057088912588,0,0,0,128.3, 1, 0.2,0,0,1024,1024,1024,1024,128.3,-89.9,100,4.256,4.266,4.281,4.261,4.271,4.289,3.856,78.8,11,AutoTakeoff,
38.522682,-120.3275116,5421.9349271108,0,0,0.093081695892,3500,2018-06-19 21:49:47,8,0,25.588,5421.9349271108,0,0,0.093081695892,0,0,0,128.4, 0.8, 0.3,0,0,1024,1024,1024,1024,128.3,-89.9,100,4.256,4.266,4.281,4.261,4.271,4.289,3.856,78.8,11,AutoTakeoff,
38.522682,-120.3275115,5421.9349271108,0,0,0.119865161316,3600,2018-06-19 21:49:47,7,0,25.588,5421.9349271108,0,0,0.119865161316,0,0,0,128.4, 0.4, 0.4,0,0,1024,1024,1024,1024,128.3,-89.9,100,4.256,4.266,4.281,4.261,4.271,4.289,3.856,78.8,11,AutoTakeoff,
38.5226821,-120.3275114,5421.9349271108,0,0,0.160293968384,3700,2018-06-19 21:49:47,7,0,25.588,5421.9349271108,0,0,0.160293968384,0,0,0,128.4, 0.3, 0.5,0,0,1024,1024,1024,1024,128.3,-89.9,100,4.256,4.266,4.281,4.261,4.271,4.289,3.856,78.8,11,AutoTakeoff,
38.5226821,-120.3275113,5422.2630111108,0.328084,0,0.186163391784,3800,2018-06-19 21:49:47,8,0,25.588,5422.2630111108,0.328084,0,0.186163391784,0,0,0,128.4, 0.1, 0.6,0,0,1024,1024,1024,1024,128.3,-89.9,100,4.256,4.266,4.281,4.261,4.271,4.289,3.856,78.8,11,AutoTakeoff,
38.5226821,-120.3275111,5422.2630111108,0.328084,0.223694,0.239730650716,3900,2018-06-19 21:49:47,8,0,25.588,5422.2630111108,0.328084,0.223694,0.239730650716,0,0,0,128.4, 0.3, 0.6,0,0,1024,1024,1024,1024,128.3,-89.9,100,4.256,4.266,4.281,4.261,4.271,4.289,3.856,78.8,11,AutoTakeoff,
38.522682,-120.3275109,5422.5910951108,0.656168,0.223694,0.287766413408,4000,2018-06-19 21:49:47,7,0,25.089,5422.5910951108,0.656168,0.223694,0.287766413408,0,0,0,128.3, 0.4, 0.7,0,0,1024,1024,1024,1024,128.3,-89.9,100,4.129,4.12,4.141,4.139,4.129,4.162,8.104,78.8,11,AutoTakeoff,
38.522682,-120.3275107,5422.9191791108,0.984252,0.223694,0.3444717958,4100,2018-06-19 21:49:48,7,0,25.089,5422.9191791108,0.984252,0.223694,0.3444717958,0,0,0,128.1, 0.6, 1.1,0,0,1024,1024,1024,1024,128.3,-89.9,100,4.129,4.12,4.141,4.139,4.129,4.162,8.104,78.8,11,AutoTakeoff,
38.522682,-120.3275106,5422.9191791108,0.984252,0.223694,0.372867466,4200,2018-06-19 21:49:48,11,0,25.089,5422.9191791108,0.984252,0.223694,0.372867466,0,0,0,128, 0.7, 1.5,0,0,1024,1024,1024,1024,128.3,-89.9,100,4.129,4.12,4.141,4.139,4.129,4.162,8.104,78.8,11,AutoTakeoff,
38.5226821,-120.3275106,5422.9191791108,0.984252,0,0.3781824268,4300,2018-06-19 21:49:48,11,0,25.089,5422.9191791108,0.984252,0.223694,0.3781824268,0,0,0,128, 0.8, 1.9,0,0,1024,1024,1024,1024,128.3,-89.9,100,4.129,4.12,4.141,4.139,4.129,4.162,8.104,78.8,11,AutoTakeoff,
38.5226821,-120.3275106,5423.2472631108,1.312336,0,0.3781824268,4400,2018-06-19 21:49:48,10,0,25.089,5423.2472631108,1.312336,0.223694,0.3781824268,0,0,0,127.9, 0.8, 1.8,0,0,1024,1024,1024,1024,128.3,-89.9,100,4.129,4.12,4.141,4.139,4.129,4.162,8.104,78.8,11,AutoTakeoff,
38.5226822,-120.3275106,5423.2472631108,1.312336,0,0.38688321448,4500,2018-06-19 21:49:48,10,0,25.089,5423.2472631108,1.312336,0.223694,0.38688321448,0,0,0,128, 0.7, 1.6,0,0,1024,1024,1024,1024,128.3,-89.9,100,4.129,4.12,4.141,4.139,4.129,4.162,8.104,78.8,11,AutoTakeoff,
38.5226822,-120.3275106,5423.5753471108,1.64042,0,0.38688321448,4600,2018-06-19 21:49:48,9,0,25.089,5423.5753471108,1.64042,0.223694,0.38688321448,0,0,0,128.1, 0.6, 1.3,0,0,1024,1024,1024,1024,128.3,-89.9,100,4.129,4.12,4.141,4.139,4.129,4.162,8.104,78.8,11,AutoTakeoff,
38.5226823,-120.3275106,5423.9034311108,1.968504,0,0.39874345108,4700,2018-06-19 21:49:48,9,0,25.089,5423.9034311108,1.968504,0.223694,0.39874345108,0,0,0,128.3, 0.6, 1.3,0,0,1024,1024,1024,1024,128.3,-89.9,100,4.129,4.12,4.141,4.139,4.129,4.162,8.104,78.8,11,AutoTakeoff,
38.5226824,-120.3275106,5423.9034311108,1.968504,0,0.41349410772,4800,2018-06-19 21:49:48,9,0,25.089,5423.9034311108,1.968504,0.223694,0.41349410772,0,0,0,128.5, 0.6, 1.4,0,0,1024,1024,1024,1024,128.3,-89.9,100,4.129,4.12,4.141,4.139,4.129,4.162,8.104,78.8,11,AutoTakeoff,
38.5226826,-120.3275106,5423.9034311108,1.968504,0,0.45047245536,4900,2018-06-19 21:49:48,9,0,25.089,5423.9034311108,1.968504,0.223694,0.45047245536,0,0,0,128.6, 0.4, 1.5,0,0,1024,1024,1024,1024,128.3,-89.9,100,4.129,4.12,4.141,4.139,4.129,4.162,8.104,78.8,11,AutoTakeoff,
38.5226827,-120.3275106,5424.2315151108,2.296588,0,0.472112876,5000,2018-06-19 21:49:48,8,0,24.404,5424.2315151108,2.296588,0.223694,0.472112876,0,0,0,128.7, 0.1, 1.7,0,0,1024,1024,1024,1024,128.3,-90,100,4.053,4.048,4.053,4.061,4.055,4.07,16.265,78.8,11,AutoTakeoff,
38.5226828,-120.3275106,5424.2315151108,2.296588,0,0.49550198436,5100,2018-06-19 21:49:49,8,0,24.404,5424.2315151108,2.296588,0.223694,0.49550198436,0,0,0,128.7, 0, 1.9,0,0,1024,1024,1024,1024,128.3,-90,100,4.053,4.048,4.053,4.061,4.055,4.07,16.265,78.8,11,AutoTakeoff,
38.5226829,-120.3275106,5424.5595991108,2.624672,0,0.52039699828,5200,2018-06-19 21:49:49,7,0,24.404,5424.5595991108,2.624672,0.223694,0.52039699828,0,0,-0.223694,128.6, 0, 2,0,0,1024,1024,1024,1024,128.3,-89.9,100,4.053,4.048,4.053,4.061,4.055,4.07,16.265,78.8,11,AutoTakeoff,
38.522683,-120.3275105,5424.8876831108,2.952756,0,0.56636156668,5300,2018-06-19 21:49:49,7,0,24.404,5424.8876831108,2.952756,0.223694,0.56636156668,0,0,-0.223694,128.5, 0, 2.1,0,0,1024,1024,1024,1024,128.3,-90,100,4.053,4.048,4.053,4.061,4.055,4.07,16.265,78.8,6,P-GPS,
38.5226832,-120.3275105,5425.2157671108,3.28084,0,0.6202099936,5520,2018-06-19 21:49:49,9,0,24.404,5425.2157671108,3.28084,0.223694,0.6202099936,0,0,0,128.2, -0.2, 1.2,0,0,1024,1024,1024,1024,128.3,-90,100,4.053,4.048,4.053,4.061,4.055,4.07,16.265,78.8,14,Waypoint,
38.5226832,-120.3275105,5425.2157671108,3.28084,0,0.6202099936,5600,2018-06-19 21:49:49,10,0,24.404,5425.2157671108,3.28084,0.223694,0.6202099936,0,0,0,128, -0.2, 0.6,0,0,1024,1024,1024,1024,128.3,-90,100,4.053,4.048,4.053,4.061,4.055,4.07,16.265,78.8,14,Waypoint,
38.5226832,-120.3275103,5425.2157671108,3.28084,0,0.65844490296,5800,2018-06-19 21:49:49,10,0,24.404,5425.2157671108,3.28084,0.223694,0.65844490296,0,0,0,127.9, 0, 0.6,0,0,1024,1024,1024,1024,128.3,-89.9,100,4.053,4.048,4.053,4.061,4.055,4.07,16.265,78.8,14,Waypoint,
38.5226834,-120.3275104,5425.5438511108,3.608924,0,0.69486222696,5900,2018-06-19 21:49:49,11,0,24.404,5425.5438511108,3.608924,0.223694,0.69486222696,0,0,0,128, 0.4, 1.3,0,0,1024,1024,1024,1024,128.3,-89.9,100,4.053,4.048,4.053,4.061,4.055,4.07,16.265,78.8,14,Waypoint,
38.5226835,-120.3275105,5425.8719351108,3.937008,0,0.70744096752,6000,2018-06-19 21:49:49,11,0,24.209,5425.8719351108,3.937008,0.223694,0.70744096752,0,0,-0.223694,128.1, 0.1, 1.6,0,0,1024,1024,1024,1024,128.3,-89.9,100,4.033,4.032,4.026,4.033,4.036,4.045,16.93,78.8,14,Waypoint,
38.5226837,-120.3275105,5426.2000191108,4.265092,0,0.76875986712,6100,2018-06-19 21:49:50,11,0,24.209,5426.2000191108,4.265092,0.223694,0.76875986712,0,0,-0.223694,128.3, 0, 1.7,0,0,1024,1024,1024,1024,128.3,-89.9,100,4.033,4.032,4.026,4.033,4.036,4.045,16.93,78.8,14,Waypoint,
38.5226838,-120.3275105,5426.5281031108,4.593176,0,0.80015094424,6200,2018-06-19 21:49:50,10,0,24.209,5426.5281031108,4.593176,0.223694,0.80015094424,0,0,-0.223694,128.6, -0.3, 1.6,0,0,1024,1024,1024,1024,128.3,-89.9,100,4.033,4.032,4.026,4.033,4.036,4.045,16.93,78.8,14,Waypoint,
38.5226839,-120.3275106,5426.8561871108,4.92126,0,0.81863191596,6300,2018-06-19 21:49:50,10,0,24.209,5426.8561871108,4.92126,0.223694,0.81863191596,0,0,-0.223694,128.9, -0.5, 1.6,0,0,1024,1024,1024,1024,128.3,-89.9,100,4.033,4.032,4.026,4.033,4.036,4.045,16.93,78.8,14,Waypoint,
38.5226841,-120.3275106,5427.5123551108,5.577428,0,0.88429464772,6400,2018-06-19 21:49:50,12,0,24.209,5427.5123551108,5.577428,0.223694,0.88429464772,0,0,-0.223694,129.2, -0.6, 1.5,0,0,1024,1024,1024,1024,128.3,-90,100,4.033,4.032,4.026,4.033,4.036,4.045,16.93,78.8,14,Waypoint,
38.5226843,-120.3275107,5427.8404391108,5.905512,0,0.94024937392,6500,2018-06-19 21:49:50,12,0,24.209,5427.8404391108,5.905512,0.223694,0.94024937392,0,0,-0.223694,129.4, -0.7, 1.7,0,0,1024,1024,1024,1024,128.3,-90,100,4.033,4.032,4.026,4.033,4.036,4.045,16.93,78.8,14,Waypoint,
38.5226844,-120.3275108,5428.4966071108,6.56168,0,0.96465554268,6600,2018-06-19 21:49:50,11,0,24.209,5428.4966071108,6.56168,0.223694,0.96465554268,0,0,-0.447388,129.6, -0.6, 2.1,0,0,1024,1024,1024,1024,128.3,-89.9,100,4.033,4.032,4.026,4.033,4.036,4.045,16.93,78.8,14,Waypoint,
38.5226845,-120.3275108,5428.8246911108,6.889764,0,0.99922247292,6700,2018-06-19 21:49:50,11,0,24.209,5428.8246911108,6.889764,0.223694,0.99922247292,0,0,-0.447388,129.5, -0.7, 2.2,0,0,1024,1024,1024,1024,128.3,-90,100,4.033,4.032,4.026,4.033,4.036,4.045,16.93,78.8,14,Waypoint,
38.5226846,-120.3275109,5429.8089431108,7.874016,0,1.02561683072,6800,2018-06-19 21:49:50,10,0,24.209,5429.8089431108,7.874016,0.223694,1.02561683072,0,0,-0.447388,129.4, -0.7, 2,0,0,1024,1024,1024,1024,128.3,-90,100,4.033,4.032,4.026,4.033,4.036,4.045,16.93,78.8,14,Waypoint,
38.5226846,-120.3275111,5430.4651111108,8.530184,0,1.01121394312,6900,2018-06-19 21:49:50,10,0,24.209,5430.4651111108,8.530184,0.223694,1.02561683072,0,0,-0.671082,129.3, -0.8, 1.7,0,0,1024,1024,1024,1024,128.3,-89.9,100,4.033,4.032,4.026,4.033,4.036,4.045,16.93,78.8,14,Waypoint,
38.5226846,-120.3275113,5431.4493631108,9.514436,0,0.99987207924,7000,2018-06-19 21:49:50,12,0,24.353,5431.4493631108,9.514436,0.223694,1.02561683072,0,0,-0.671082,129.2, -1, 1.3,0,0,1024,1024,1024,1024,128.3,-90,100,4.032,4.009,4.029,4.009,4.047,4.027,16.191,78.8,14,Waypoint,
38.5226845,-120.3275115,5432.4336151108,10.498688,0,0.95545606732,7100,2018-06-19 21:49:51,12,0,24.353,5432.4336151108,10.498688,0.223694,1.02561683072,0,0,-0.671082,129.1, -1.2, 0.7,0,0,1024,1024,1024,1024,128.3,-90,100,4.032,4.009,4.029,4.009,4.047,4.027,16.191,78.8,14,Waypoint,
38.5226845,-120.3275116,5433.4178671108,11.48294,0,0.95246722208,7200,2018-06-19 21:49:51,11,0,24.353,5433.4178671108,11.48294,0.223694,1.02561683072,0,0,-0.671082,129.1, -1.2, 0.3,0,0,1024,1024,1024,1024,128.3,-90,100,4.032,4.009,4.029,4.009,4.047,4.027,16.191,78.8,14,Waypoint,
38.5226846,-120.3275115,5434.4021191108,12.467192,0,0.99168966428,7300,2018-06-19 21:49:51,11,0,24.353,5434.4021191108,12.467192,0.223694,1.02561683072,0,0,-0.671082,129.1, -1.1, 0.4,0,0,1024,1024,1024,1024,128.3,-89.9,100,4.032,4.009,4.029,4.009,4.047,4.027,16.191,78.8,14,Waypoint,
38.5226846,-120.3275113,5435.7144551108,13.779528,0,0.99987207924,7400,2018-06-19 21:49:51,11,0,24.353,5435.7144551108,13.779528,0.223694,1.02561683072,0,0,-0.671082,129.1, -1, 0.8,0,0,1024,1024,1024,1024,128.3,-89.9,100,4.032,4.009,4.029,4.009,4.047,4.027,16.191,78.8,14,Waypoint,
38.5226845,-120.3275109,5436.6987071108,14.76378,0.223694,0.99062339128,7500,2018-06-19 21:49:51,11,0,24.353,5436.6987071108,14.76378,0.223694,1.02561683072,0,0,-0.671082,129.2, -0.5, 1.4,0,0,1024,1024,1024,1024,128.3,-89.9,100,4.032,4.009,4.029,4.009,4.047,4.027,16.191,78.8,14,Waypoint,
38.5226844,-120.3275106,5437.6829591108,15.748032,0.3131716,0.98471787928,7600,2018-06-19 21:49:51,11,0,24.353,5437.6829591108,15.748032,0.3131716,1.02561683072,0,0,-0.671082,129.2, 0.4, 2,0,0,1024,1024,1024,1024,128.3,-89.9,100,4.032,4.009,4.029,4.009,4.047,4.027,16.191,78.8,14,Waypoint,
38.5226842,-120.3275106,5438.9952951108,17.060368,0.223694,0.91753939944,7700,2018-06-19 21:49:51,11,0,24.353,5438.9952951108,17.060368,0.3131716,1.02561683072,0,0,-0.671082,129.3, 1.1, 1.8,0,0,1024,1024,1024,1024,128.3,-89.9,100,4.032,4.009,4.029,4.009,4.047,4.027,16.191,78.8,14,Waypoint,
38.5226839,-120.3275103,5439.9795471108,18.04462,0.223694,0.86083992256,7800,2018-06-19 21:49:51,10,0,24.353,5439.9795471108,18.04462,0.3131716,1.02561683072,0,0,-0.671082,129.4, 1.2, 1.4,0,0,1024,1024,1024,1024,128.3,-89.9,100,4.032,4.009,4.029,4.009,4.047,4.027,16.191,78.8,14,Waypoint,
38.5226833,-120.32751,5442.2761351108,20.341208,0.223694,0.7450131472,7900,2018-06-19 21:49:51,9,0,24.353,5442.2761351108,20.341208,0.3131716,1.02561683072,0,0,-0.671082,129.4, 2.6, 0.3,0,0,1024,1024,1024,1024,128.3,-89.9,100,4.032,4.009,4.029,4.009,4.047,4.027,16.191,78.8,14,Waypoint,
38.5226834,-120.3275105,5443.2603871108,21.32546,0,0.67764765948,8000,2018-06-19 21:49:51,9,0,23.691,5443.2603871108,21.32546,0.3131716,1.02561683072,0,0,-0.671082,129.4, 2.4, -0.1,0,0,1024,1024,1024,1024,128.3,-89.9,100,3.907,3.903,3.912,3.917,3.919,3.936,23.04,78.8,14,Waypoint,
38.5226834,-120.3275105,5443.2603871108,21.32546,0,0.67764765948,8100,2018-06-19 21:49:52,9,0,23.691,5443.2603871108,21.32546,0.3131716,1.02561683072,0,0,-0.671082,129.4, 2.4, -0.1,0,0,1024,1024,1024,1024,128.3,-89.9,100,3.907,3.903,3.912,3.917,3.919,3.936,23.04,78.8,14,Waypoint,
38.5226834,-120.3275106,5444.2446391108,22.309712,0,0.66121721276,8200,2018-06-19 21:49:52,10,0,23.691,5444.2446391108,22.309712,0.3131716,1.02561683072,0,0,-0.671082,129.3, 1, -0.3,0,0,1024,1024,1024,1024,128.3,-90,100,3.907,3.903,3.912,3.917,3.919,3.936,23.04,78.8,14,Waypoint,
38.5226833,-120.3275104,5445.5569751108,23.622048,0,0.66650592684,8300,2018-06-19 21:49:52,10,0,23.691,5445.5569751108,23.622048,0.3131716,1.02561683072,0,0,-0.671082,129.3, 0, -0.2,0,0,1024,1024,1024,1024,128.3,-89.9,100,3.907,3.903,3.912,3.917,3.919,3.936,23.04,78.8,14,Waypoint,
38.5226834,-120.3275105,5446.5412271108,24.6063,0,0.67764765948,8400,2018-06-19 21:49:52,10,0,23.691,5446.5412271108,24.6063,0.3131716,1.02561683072,0,0,-0.671082,129.2, -0.1, 0.1,0,0,1024,1024,1024,1024,128.3,-89.9,100,3.907,3.903,3.912,3.917,3.919,3.936,23.04,78.8,14,Waypoint,
38.5226835,-120.3275106,5447.5254791108,25.590552,0,0.6917159014,8500,2018-06-19 21:49:52,10,0,23.691,5447.5254791108,25.590552,0.3131716,1.02561683072,0,0,-0.671082,129.2, -0.2, 0.5,0,0,1024,1024,1024,1024,128.3,-89.9,100,3.907,3.903,3.912,3.917,3.919,3.936,23.04,78.8,14,Waypoint,
38.5226837,-120.3275106,5448.5097311108,26.574804,0,0.7543143286,8600,2018-06-19 21:49:52,11,0,23.691,5448.5097311108,26.574804,0.3131716,1.02561683072,0,0,-0.671082,129.2, -0.3, 0.8,0,0,1024,1024,1024,1024,128.3,-90,100,3.907,3.903,3.912,3.917,3.919,3.936,23.04,78.8,14,Waypoint,
38.5226839,-120.3275106,5449.8220671108,27.88714,0,0.81863191596,8700,2018-06-19 21:49:52,11,0,23.691,5449.8220671108,27.88714,0.3131716,1.02561683072,0,0,-0.671082,129.1, -0.3, 1.2,0,0,1024,1024,1024,1024,128.3,-89.9,100,3.907,3.903,3.912,3.917,3.919,3.936,23.04,78.8,14,Waypoint,
38.5226841,-120.3275104,5450.8063191108,28.871392,0,0.9097277194,8800,2018-06-19 21:49:52,12,0,23.691,5450.8063191108,28.871392,0.3131716,1.02561683072,0,0,-0.671082,129.1, -0.2, 1.7,0,0,1024,1024,1024,1024,128.3,-89.9,100,3.907,3.903,3.912,3.917,3.919,3.936,23.04,78.8,14,Waypoint,
38.5226842,-120.3275102,5451.7905711108,29.855644,0,0.9693569864,8900,2018-06-19 21:49:52,12,0,23.691,5451.7905711108,29.855644,0.3131716,1.02561683072,0,0,-0.671082,129.2, 0, 2.2,0,0,1024,1024,1024,1024,128.3,-89.9,100,3.907,3.903,3.912,3.917,3.919,3.936,23.04,78.8,14,Waypoint,
38.5226843,-120.3275102,5453.1029071108,31.16798,0,1.00110567508,9000,2018-06-19 21:49:52,12,0,23.709,5453.1029071108,31.16798,0.3131716,1.02561683072,0,0,-0.671082,129.2, 0.3, 2.6,0,0,1024,1024,1024,1024,128.3,-89.9,98,3.944,3.95,3.947,3.96,3.96,3.975,20.459,78.8,14,Waypoint,
38.5226844,-120.3275104,5454.0871591108,32.152232,0,1.00761814248,9100,2018-06-19 21:49:53,12,0,23.709,5454.0871591108,32.152232,0.3131716,1.02561683072,0,0,-0.671082,129.3, 0.4, 2.5,0,0,1024,1024,1024,1024,128.3,-89.9,98,3.944,3.95,3.947,3.96,3.96,3.975,20.459,78.8,14,Waypoint,
38.5226844,-120.3275106,5455.0714111108,33.136484,0,0.98471787928,9200,2018-06-19 21:49:53,11,0,23.709,5455.0714111108,33.136484,0.3131716,1.02561683072,0,0,-0.671082,129.3, 0.1, 2,0,0,1024,1024,1024,1024,128.3,-90,98,3.944,3.95,3.947,3.96,3.96,3.975,20.459,78.8,14,Waypoint,
38.5226845,-120.3275107,5456.0556631108,34.120736,0,1.00855646272,9300,2018-06-19 21:49:53,11,0,23.709,5456.0556631108,34.120736,0.3131716,1.02561683072,0,0,-0.671082,129.4, -0.3, 1.5,0,0,1024,1024,1024,1024,128.3,-90,98,3.944,3.95,3.947,3.96,3.96,3.975,20.459,78.8,14,Waypoint,
38.5226845,-120.3275107,5457.0399151108,35.104988,0,1.00855646272,9400,2018-06-19 21:49:53,12,0,23.709,5457.0399151108,35.104988,0.3131716,1.02561683072,0,0,-0.671082,129.4, -0.8, 1.1,0,0,1024,1024,1024,1024,128.3,-90,98,3.944,3.95,3.947,3.96,3.96,3.975,20.459,78.8,14,Waypoint,
38.5226846,-120.3275108,5458.3522511108,36.417324,0,1.0339239176,9500,2018-06-19 21:49:53,12,0,23.709,5458.3522511108,36.417324,0.3131716,1.0339239176,0,0,-0.671082,129.4, -0.9, 0.9,0,0,1024,1024,1024,1024,128.3,-90,98,3.944,3.95,3.947,3.96,3.96,3.975,20.459,78.8,14,Waypoint,
38.5226846,-120.3275107,5459.3365031108,37.401576,0,1.0429462276,9600,2018-06-19 21:49:53,12,0,23.709,5459.3365031108,37.401576,0.3131716,1.0429462276,0,0,-0.671082,129.4, -0.7, 1,0,0,1024,1024,1024,1024,128.3,-89.9,98,3.944,3.95,3.947,3.96,3.96,3.975,20.459,78.8,14,Waypoint,
38.5226846,-120.3275107,5460.3207551108,38.385828,0,1.0429462276,9700,2018-06-19 21:49:53,12,0,23.709,5460.3207551108,38.385828,0.3131716,1.0429462276,0,0,-0.671082,129.4, -0.4, 1,0,0,1024,1024,1024,1024,128.3,-89.9,98,3.944,3.95,3.947,3.96,3.96,3.975,20.459,78.8,14,Waypoint,
38.5226846,-120.3275106,5461.3050071108,39.37008,0,1.05266735652,9800,2018-06-19 21:49:53,12,0,23.709,5461.3050071108,39.37008,0.3131716,1.05266735652,0,0,-0.671082,129.3, 0, 1,0,0,1024,1024,1024,1024,128.3,-89.9,98,3.944,3.95,3.947,3.96,3.96,3.975,20.459,78.8,14,Waypoint,
38.5226846,-120.3275105,5462.2892591108,40.354332,0,1.06306433848,9900,2018-06-19 21:49:53,12,0,23.709,5462.2892591108,40.354332,0.3131716,1.06306433848,0,0,-0.671082,129.2, 0, 1.2,0,0,1024,1024,1024,1024,128.3,-89.9,98,3.944,3.95,3.947,3.96,3.96,3.975,20.459,78.8,14,Waypoint,
38.5226846,-120.3275106,5463.2735111108,41.338584,0,1.05266735652,10000,2018-06-19 21:49:53,13,0,23.826,5463.2735111108,41.338584,0.3131716,1.06306433848,0,0,-0.671082,129.1, 0, 1.4,0,0,1024,1024,1024,1024,128.3,-89.9,98,3.962,3.967,3.96,3.976,3.967,3.99,18.585,78.8,14,Waypoint,
38.5226846,-120.3275107,5464.2577631108,42.322836,0,1.0429462276,10100,2018-06-19 21:49:54,13,0,23.826,5464.2577631108,42.322836,0.3131716,1.06306433848,0,0,-0.671082,129, 0, 1.5,0,0,1024,1024,1024,1024,128.3,-89.9,98,3.962,3.967,3.96,3.976,3.967,3.99,18.585,78.8,14,Waypoint,
38.5226846,-120.3275108,5465.2420151108,43.307088,0,1.0339239176,10200,2018-06-19 21:49:54,14,0,23.826,5465.2420151108,43.307088,0.3131716,1.06306433848,0,0,-0.671082,128.9, -0.2, 1.4,0,0,1024,1024,1024,1024,128.3,-89.9,98,3.962,3.967,3.96,3.976,3.967,3.99,18.585,78.8,14,Waypoint,
38.5226846,-120.3275109,5466.5543511108,44.619424,0,1.02561683072,10400,2018-06-19 21:49:54,14,0,23.826,5466.5543511108,44.619424,0.3131716,1.06306433848,0,0,-0.671082,128.9, -0.3, 1.2,0,0,1024,1024,1024,1024,128.3,-90,98,3.962,3.967,3.96,3.976,3.967,3.99,18.585,78.8,14,Waypoint,
38.5226847,-120.327511,5467.5386031108,45.603676,0,1.05338586048,10500,2018-06-19 21:49:54,13,0,23.826,5467.5386031108,45.603676,0.3131716,1.06306433848,0,0,-0.671082,129, -0.5, 0.9,0,0,1024,1024,1024,1024,128.3,-90,98,3.962,3.967,3.96,3.976,3.967,3.99,18.585,78.8,14,Waypoint,
38.5226847,-120.327511,5469.5071071108,47.57218,0,1.05338586048,10600,2018-06-19 21:49:54,14,0,23.826,5469.5071071108,47.57218,0.3131716,1.06306433848,0,0,-0.671082,129.2, -0.5, 1,0,0,1024,1024,1024,1024,128.3,-89.9,98,3.962,3.967,3.96,3.976,3.967,3.99,18.585,78.8,14,Waypoint,
38.5226847,-120.3275111,5470.4913591108,48.556432,0,1.04678809124,10700,2018-06-19 21:49:54,14,0,23.826,5470.4913591108,48.556432,0.3131716,1.06306433848,0,0,-0.671082,129.3, -0.5, 1.1,0,0,1024,1024,1024,1024,128.3,-89.9,98,3.962,3.967,3.96,3.976,3.967,3.99,18.585,78.8,14,Waypoint,
38.5226847,-120.3275111,5471.4756111108,49.540684,0,1.04678809124,10800,2018-06-19 21:49:54,14,0,23.826,5471.4756111108,49.540684,0.3131716,1.06306433848,0,0,-0.671082,129.4, -0.4, 1,0,0,1024,1024,1024,1024,128.3,-89.9,98,3.962,3.967,3.96,3.976,3.967,3.99,18.585,78.8,14,Waypoint,
38.5226846,-120.3275112,5472.4598631108,50.524936,0,1.00515423164,10900,2018-06-19 21:49:54,14,0,23.826,5472.4598631108,50.524936,0.3131716,1.06306433848,0,0,-0.671082,129.3, -0.3, 1,0,0,1024,1024,1024,1024,128.3,-89.9,98,3.962,3.967,3.96,3.976,3.967,3.99,18.585,78.8,14,Waypoint,
38.5226846,-120.3275111,5473.4441151108,51.509188,0,1.01121394312,11000,2018-06-19 21:49:54,14,0,23.802,5473.4441151108,51.509188,0.3131716,1.06306433848,0,0,-0.671082,129.2, -0.3, 1,0,0,1024,1024,1024,1024,128.3,-89.9,98,3.962,3.967,3.96,3.976,3.967,3.99,18.576,78.8,14,Waypoint,
38.5226846,-120.327511,5474.4283671108,52.49344,0,1.01804137116,11100,2018-06-19 21:49:55,14,0,23.802,5474.4283671108,52.49344,0.3131716,1.06306433848,0,0,-0.671082,129.1, -0.1, 1.2,0,0,1024,1024,1024,1024,128.3,-89.9,98,3.962,3.967,3.96,3.976,3.967,3.99,18.576,78.8,14,Waypoint,
38.5226846,-120.327511,5475.4126191108,53.477692,0,1.01804137116,11200,2018-06-19 21:49:55,14,0,23.802,5475.4126191108,53.477692,0.3131716,1.06306433848,0,0,-0.671082,128.9, 0, 1.5,0,0,1024,1024,1024,1024,128.3,-89.9,98,3.962,3.967,3.96,3.976,3.967,3.99,18.576,78.8,14,Waypoint,
38.5226846,-120.327511,5476.3968711108,54.461944,0,1.01804137116,11300,2018-06-19 21:49:55,14,0,23.802,5476.3968711108,54.461944,0.3131716,1.06306433848,0,0,-0.671082,128.8, 0, 1.5,0,0,1024,1024,1024,1024,128.3,-89.9,98,3.962,3.967,3.96,3.976,3.967,3.99,18.576,78.8,14,Waypoint,
38.5226846,-120.327511,5477.3811231108,55.446196,0.223694,1.01804137116,11400,2018-06-19 21:49:55,14,0,23.802,5477.3811231108,55.446196,0.3131716,1.06306433848,0,0,-0.671082,128.8, 0, 1.4,0,0,1024,1024,1024,1024,128.3,-89.9,98,3.962,3.967,3.96,3.976,3.967,3.99,18.576,78.8,14,Waypoint,
38.5226845,-120.327511,5478.3653751108,56.430448,0.223694,0.98277890284,11500,2018-06-19 21:49:55,14,0,23.802,5478.3653751108,56.430448,0.3131716,1.06306433848,0,0,-0.671082,128.8, 0.1, 1.1,0,0,1024,1024,1024,1024,128.3,-89.9,98,3.962,3.967,3.96,3.976,3.967,3.99,18.576,78.8,14,Waypoint,
38.5226844,-120.327511,5479.3496271108,57.4147,0.223694,0.94761157888,11600,2018-06-19 21:49:55,14,0,23.802,5479.3496271108,57.4147,0.3131716,1.06306433848,0,0,-0.671082,128.8, 0.2, 1,0,0,1024,1024,1024,1024,128.3,-89.9,98,3.962,3.967,3.96,3.976,3.967,3.99,18.576,78.8,14,Waypoint,
38.5226843,-120.327511,5480.0057951108,58.070868,0.223694,0.91254596096,11700,2018-06-19 21:49:55,14,0,23.802,5480.0057951108,58.070868,0.3131716,1.06306433848,0,0,-0.671082,128.9, 0.5, 0.9,0,0,1024,1024,1024,1024,128.3,-89.9,98,3.962,3.967,3.96,3.976,3.967,3.99,18.576,78.8,14,Waypoint,
38.5226842,-120.327511,5480.9900471108,59.05512,0.223694,0.87759845328,11800,2018-06-19 21:49:55,14,0,23.802,5480.9900471108,59.05512,0.3131716,1.06306433848,0,0,-0.671082,128.9, 0.6, 0.7,0,0,1024,1024,1024,1024,128.3,-89.9,98,3.962,3.967,3.96,3.976,3.967,3.99,18.576,78.8,14,Waypoint,
38.5226841,-120.327511,5482.3023831108,60.367456,0.223694,0.84277889836,11900,2018-06-19 21:49:55,14,0,23.802,5482.3023831108,60.367456,0.3131716,1.06306433848,0,0,-0.671082,129, 0.5, 0.4,0,0,1024,1024,1024,1024,128.3,-89.9,98,3.962,3.967,3.96,3.976,3.967,3.99,18.576,78.8,14,Waypoint,
38.522684,-120.327511,5483.2866351108,61.351708,0.223694,0.80810698124,12000,2018-06-19 21:49:55,14,0,23.802,5483.2866351108,61.351708,0.3131716,1.06306433848,0,0,-0.671082,129.1, 0.5, 0.2,0,0,1024,1024,1024,1024,128.3,-89.9,98,3.962,3.956,3.961,3.971,3.965,3.984,18.576,78.8,14,Waypoint,
38.522684,-120.3275111,5484.2708871108,62.33596,0.223694,0.79948821456,12100,2018-06-19 21:49:56,14,0,23.802,5484.2708871108,62.33596,0.3131716,1.06306433848,0,0,-0.671082,129.2, 0.5, 0,0,0,1024,1024,1024,1024,128.3,-89.9,98,3.962,3.956,3.961,3.971,3.965,3.984,18.576,78.8,14,Waypoint,
38.5226839,-120.3275111,5485.2551391108,63.320212,0.223694,0.76459648116,12200,2018-06-19 21:49:56,14,0,23.802,5485.2551391108,63.320212,0.3131716,1.06306433848,0,0,-0.671082,129.3, 0.4, 0,0,0,1024,1024,1024,1024,128.3,-89.9,98,3.962,3.956,3.961,3.971,3.965,3.984,18.576,78.8,14,Waypoint,
38.5226838,-120.3275111,5486.2393911108,64.304464,0.223694,0.7298556664,12300,2018-06-19 21:49:56,14,0,23.802,5486.2393911108,64.304464,0.3131716,1.06306433848,0,0,-0.671082,129.3, 0.5, 0,0,0,1024,1024,1024,1024,128.3,-89.9,98,3.962,3.956,3.961,3.971,3.965,3.984,18.576,78.8,14,Waypoint,
38.5226838,-120.3275111,5487.2236431108,65.288716,0,0.7298556664,12400,2018-06-19 21:49:56,14,0,23.802,5487.2236431108,65.288716,0.3131716,1.06306433848,0,0,-0.671082,129.3, 0.5, 0.2,0,0,1024,1024,1024,1024,128.3,-89.9,98,3.962,3.956,3.961,3.971,3.965,3.984,18.576,78.8,14,Waypoint,
38.5226837,-120.3275111,5489.1921471108,67.25722,0,0.69529857868,12600,2018-06-19 21:49:56,14,0,23.802,5489.1921471108,67.25722,0.3131716,1.06306433848,0,0,-0.671082,129.3, 0.5, 0.4,0,0,1024,1024,1024,1024,128.3,-89.9,98,3.962,3.956,3.961,3.971,3.965,3.984,18.576,78.8,14,Waypoint,
38.5226836,-120.327511,5490.1763991108,68.241472,0,0.671341885,12700,2018-06-19 21:49:56,14,0,23.802,5490.1763991108,68.241472,0.3131716,1.06306433848,0,0,-0.671082,129.3, 0.6, 0.5,0,0,1024,1024,1024,1024,128.3,-89.9,98,3.962,3.956,3.961,3.971,3.965,3.984,18.576,78.8,14,Waypoint,
38.5226835,-120.327511,5491.8168191108,69.881892,0,0.63778545348,13000,2018-06-19 21:49:56,15,0,23.789,5491.8168191108,69.881892,0.3131716,1.06306433848,0,0,-0.671082,129.4, 1, 0.7,0,0,1024,1024,1024,1024,128.3,-89.9,98,3.967,3.968,3.955,3.962,3.961,3.978,18.395,78.8,14,Waypoint,
38.5226834,-120.3275109,5494.7695751108,72.834648,0,0.6172408334,13200,2018-06-19 21:49:57,16,0,23.789,5494.7695751108,72.834648,0.3131716,1.06306433848,0,0,-0.671082,129.3, 0.8, 0.5,0,0,1024,1024,1024,1024,128.3,-89.9,98,3.967,3.968,3.955,3.962,3.961,3.978,18.395,78.8,14,Waypoint,
38.5226834,-120.3275109,5495.7538271108,73.8189,0,0.6172408334,13300,2018-06-19 21:49:57,16,0,23.789,5495.7538271108,73.8189,0.3131716,1.06306433848,0,0,-0.671082,129.2, 0.9, 0.7,0,0,1024,1024,1024,1024,128.3,-89.9,98,3.967,3.968,3.955,3.962,3.961,3.978,18.395,78.8,14,Waypoint,
38.5226834,-120.3275109,5496.7380791108,74.803152,0,0.6172408334,13400,2018-06-19 21:49:57,16,0,23.789,5496.7380791108,74.803152,0.3131716,1.06306433848,0,0,-0.671082,129, 0.8, 0.7,0,0,1024,1024,1024,1024,128.3,-89.9,98,3.967,3.968,3.955,3.962,3.961,3.978,18.395,78.8,14,Waypoint,
38.5226833,-120.3275109,5497.7223311108,75.787404,0,0.58513453316,13500,2018-06-19 21:49:57,16,0,23.789,5497.7223311108,75.787404,0.3131716,1.06306433848,0,0,-0.671082,128.9, 0.7, 0.7,0,0,1024,1024,1024,1024,128.3,-89.9,98,3.967,3.968,3.955,3.962,3.961,3.978,18.395,78.8,14,Waypoint,
38.5226833,-120.3275109,5498.7065831108,76.771656,0,0.58513453316,13600,2018-06-19 21:49:57,16,0,23.789,5498.7065831108,76.771656,0.3131716,1.06306433848,0,0,-0.671082,128.8, 0.8, 0.6,0,0,1024,1024,1024,1024,128.3,-89.9,98,3.967,3.968,3.955,3.962,3.961,3.978,18.395,78.8,14,Waypoint,
38.5226833,-120.3275109,5499.6908351108,77.755908,0,0.58513453316,13700,2018-06-19 21:49:57,16,0,23.789,5499.6908351108,77.755908,0.3131716,1.06306433848,0,0,-0.671082,128.7, 0.9, 0.4,0,0,1024,1024,1024,1024,128.3,-89.9,98,3.967,3.968,3.955,3.962,3.961,3.978,18.395,78.8,14,Waypoint,
38.5226832,-120.3275109,5500.6750871108,78.74016,0,0.55357285236,13800,2018-06-19 21:49:57,16,0,23.789,5500.6750871108,78.74016,0.3131716,1.06306433848,0,0,-0.671082,128.7, 0.9, 0.3,0,0,1024,1024,1024,1024,128.3,-89.9,98,3.967,3.968,3.955,3.962,3.961,3.978,18.395,78.8,14,Waypoint,
38.5226832,-120.3275109,5501.6593391108,79.724412,0,0.55357285236,13900,2018-06-19 21:49:57,16,0,23.789,5501.6593391108,79.724412,0.3131716,1.06306433848,0,0,-0.671082,128.7, 0.8, 0.3,0,0,1024,1024,1024,1024,128.3,-89.9,98,3.967,3.968,3.955,3.962,3.961,3.978,18.395,78.8,14,Waypoint,
38.5226832,-120.3275109,5502.6435911108,80.708664,0,0.55357285236,14000,2018-06-19 21:49:57,16,0,23.741,5502.6435911108,80.708664,0.3131716,1.06306433848,0,0,-0.671082,128.8, 0.7, 0.4,0,0,1024,1024,1024,1024,128.3,-89.9,98,3.947,3.948,3.952,3.961,3.961,3.969,18.289,78.8,14,Waypoint,
38.5226832,-120.3275109,5503.6278431108,81.692916,0,0.55357285236,14100,2018-06-19 21:49:58,16,0,23.741,5503.6278431108,81.692916,0.3131716,1.06306433848,0,0,-0.671082,128.8, 0.6, 0.5,0,0,1024,1024,1024,1024,128.3,-89.9,98,3.947,3.948,3.952,3.961,3.961,3.969,18.289,78.8,14,Waypoint,
38.5226832,-120.3275109,5504.6120951108,82.677168,0,0.55357285236,14200,2018-06-19 21:49:58,16,0,23.741,5504.6120951108,82.677168,0.3131716,1.06306433848,0,0,-0.671082,128.9, 0.6, 0.7,0,0,1024,1024,1024,1024,128.3,-89.9,98,3.947,3.948,3.952,3.961,3.961,3.969,18.289,78.8,14,Waypoint,
38.5226832,-120.3275109,5505.5963471108,83.66142,0,0.55357285236,14300,2018-06-19 21:49:58,16,0,23.741,5505.5963471108,83.66142,0.3131716,1.06306433848,0,0,-0.671082,129, 0.6, 0.9,0,0,1024,1024,1024,1024,128.3,-89.9,98,3.947,3.948,3.952,3.961,3.961,3.969,18.289,78.8,14,Waypoint,
38.5226832,-120.3275109,5506.5805991108,84.645672,0,0.55357285236,14400,2018-06-19 21:49:58,16,0,23.741,5506.5805991108,84.645672,0.3131716,1.06306433848,0,0,-0.671082,129.1, 0.6, 1.2,0,0,1024,1024,1024,1024,128.3,-89.9,98,3.947,3.948,3.952,3.961,3.961,3.969,18.289,78.8,14,Waypoint,
38.5226832,-120.3275109,5507.5648511108,85.629924,0,0.55357285236,14500,2018-06-19 21:49:58,16,0,23.741,5507.5648511108,85.629924,0.3131716,1.06306433848,0,0,-0.671082,129.1, 0.7, 1.3,0,0,1024,1024,1024,1024,128.3,-89.9,98,3.947,3.948,3.952,3.961,3.961,3.969,18.289,78.8,14,Waypoint,
38.5226832,-120.3275109,5508.5491031108,86.614176,0,0.55357285236,14600,2018-06-19 21:49:58,16,0,23.741,5508.5491031108,86.614176,0.3131716,1.06306433848,0,0,-0.671082,129.1, 0.8, 1.3,0,0,1024,1024,1024,1024,128.3,-89.9,98,3.947,3.948,3.952,3.961,3.961,3.969,18.289,78.8,14,Waypoint,
38.5226831,-120.3275109,5509.5333551108,87.598428,0,0.52265093536,14700,2018-06-19 21:49:58,16,0,23.741,5509.5333551108,87.598428,0.3131716,1.06306433848,0,0,-0.671082,129.1, 1, 1.4,0,0,1024,1024,1024,1024,128.3,-89.9,98,3.947,3.948,3.952,3.961,3.961,3.969,18.289,78.8,14,Waypoint,
38.5226831,-120.3275108,5510.5176071108,88.58268,0,0.53877298312,14800,2018-06-19 21:49:58,16,0,23.741,5510.5176071108,88.58268,0.3131716,1.06306433848,0,0,-0.671082,129.1, 1, 1.2,0,0,1024,1024,1024,1024,128.3,-89.9,98,3.947,3.948,3.952,3.961,3.961,3.969,18.289,78.8,14,Waypoint,
38.522683,-120.3275109,5512.4861111108,90.551184,0,0.49249017324,15000,2018-06-19 21:49:58,15,0,23.739,5512.4861111108,90.551184,0.3131716,1.06306433848,0,0,-0.671082,129.2, 1, 0.7,0,0,1024,1024,1024,1024,128.3,-89.9,98,3.946,3.949,3.948,3.954,3.959,3.972,18.076,78.8,14,Waypoint,
38.522683,-120.3275109,5513.4703631108,91.535436,0,0.49249017324,15100,2018-06-19 21:49:59,15,0,23.739,5513.4703631108,91.535436,0.3131716,1.06306433848,0,0,-0.671082,129.3, 0.9, 0.3,0,0,1024,1024,1024,1024,128.3,-89.9,98,3.946,3.949,3.948,3.954,3.959,3.972,18.076,78.8,14,Waypoint,
38.5226829,-120.327511,5514.4546151108,92.519688,0,0.44622048672,15200,2018-06-19 21:49:59,15,0,23.739,5514.4546151108,92.519688,0.3131716,1.06306433848,0,0,-0.671082,129.4, 0.9, 0,0,0,1024,1024,1024,1024,128.3,-89.9,98,3.946,3.949,3.948,3.954,3.959,3.972,18.076,78.8,14,Waypoint,
38.5226829,-120.327511,5516.4231191108,94.488192,0,0.44622048672,15300,2018-06-19 21:49:59,15,0,23.739,5516.4231191108,94.488192,0.3131716,1.06306433848,0,0,-0.671082,129.5, 0.5, 0.1,0,0,1024,1024,1024,1024,128.3,-90,98,3.946,3.949,3.948,3.954,3.959,3.972,18.076,78.8,14,Waypoint,
38.5226829,-120.3275111,5517.4073711108,95.472444,0,0.43041996128,15600,2018-06-19 21:49:59,15,0,23.739,5517.4073711108,95.472444,0.3131716,1.06306433848,0,0,-0.671082,129.5, 0.4, 0.4,0,0,1024,1024,1024,1024,128.3,-89.9,98,3.946,3.949,3.948,3.954,3.959,3.972,18.076,78.8,14,Waypoint,
38.5226829,-120.3275111,5518.3916231108,96.456696,0,0.43041996128,15700,2018-06-19 21:49:59,15,0,23.739,5518.3916231108,96.456696,0.3131716,1.06306433848,0,0,-0.671082,129.5, 0.5, 0.7,0,0,1024,1024,1024,1024,128.3,-89.9,98,3.946,3.949,3.948,3.954,3.959,3.972,18.076,78.8,14,Waypoint,
38.5226829,-120.3275111,5520.0320431108,98.097116,0,0.43041996128,15800,2018-06-19 21:49:59,15,0,23.739,5520.0320431108,98.097116,0.3131716,1.06306433848,0,0,-0.671082,129.3, 0.7, 0.5,0,0,1024,1024,1024,1024,128.3,-89.9,98,3.946,3.949,3.948,3.954,3.959,3.972,18.076,78.8,14,Waypoint,
38.5226829,-120.3275111,5521.0162951108,99.081368,0,0.43041996128,15900,2018-06-19 21:49:59,15,0,23.739,5521.0162951108,99.081368,0.3131716,1.06306433848,0,0,-0.671082,129.2, 0.9, 0.4,0,0,1024,1024,1024,1024,128.3,-90,98,3.946,3.949,3.948,3.954,3.959,3.972,18.076,78.8,14,Waypoint,
38.5226829,-120.3275112,5522.9847991108,101.049872,0,0.41598098444,16100,2018-06-19 21:50:00,15,0,23.739,5522.9847991108,101.049872,0.3131716,1.06306433848,0,0,-0.671082,129.1, 0.8, 0.3,0,0,1024,1024,1024,1024,128.3,-89.9,98,3.946,3.949,3.948,3.954,3.959,3.972,18.076,78.8,14,Waypoint,
38.5226828,-120.3275112,5523.9690511108,102.034124,0,0.38437993356,16200,2018-06-19 21:50:00,15,0,23.739,5523.9690511108,102.034124,0.3131716,1.06306433848,0,0,-0.671082,129.2, 0.8, 0.3,0,0,1024,1024,1024,1024,128.3,-89.9,98,3.946,3.949,3.948,3.954,3.959,3.972,18.076,78.8,14,Waypoint,
38.5226828,-120.3275112,5524.9533031108,103.018376,0,0.38437993356,16300,2018-06-19 21:50:00,15,0,23.739,5524.9533031108,103.018376,0.3131716,1.06306433848,0,0,-0.671082,129.3, 0.8, 0.2,0,0,1024,1024,1024,1024,128.3,-89.9,98,3.946,3.949,3.948,3.954,3.959,3.972,18.076,78.8,14,Waypoint,
38.5226828,-120.3275112,5525.9375551108,104.002628,0,0.38437993356,16400,2018-06-19 21:50:00,16,0,23.739,5525.9375551108,104.002628,0.3131716,1.06306433848,0,0,-0.671082,129.4, 0.7, 0,0,0,1024,1024,1024,1024,128.3,-89.9,98,3.946,3.949,3.948,3.954,3.959,3.972,18.076,78.8,14,Waypoint,
38.5226828,-120.3275112,5526.9218071108,104.98688,0,0.38437993356,16500,2018-06-19 21:50:00,16,0,23.739,5526.9218071108,104.98688,0.3131716,1.06306433848,0,0,-0.671082,129.6, 0.8, 0,0,0,1024,1024,1024,1024,128.3,-89.9,98,3.946,3.949,3.948,3.954,3.959,3.972,18.076,78.8,14,Waypoint,
38.5226828,-120.3275112,5527.9060591108,105.971132,0,0.38437993356,16600,2018-06-19 21:50:00,16,0,23.739,5527.9060591108,105.971132,0.3131716,1.06306433848,0,0,-0.671082,129.6, 1, 0,0,0,1024,1024,1024,1024,128.3,-89.9,98,3.946,3.949,3.948,3.954,3.959,3.972,18.076,78.8,14,Waypoint,
38.5226828,-120.3275112,5529.2183951108,107.283468,0,0.38437993356,16700,2018-06-19 21:50:00,16,0,23.739,5529.2183951108,107.283468,0.3131716,1.06306433848,0,0,-0.671082,129.6, 1.2, 0.2,0,0,1024,1024,1024,1024,128.3,-89.9,98,3.946,3.949,3.948,3.954,3.959,3.972,18.076,78.8,14,Waypoint,
38.5226828,-120.3275112,5529.8745631108,107.939636,0,0.38437993356,16800,2018-06-19 21:50:00,16,0,23.739,5529.8745631108,107.939636,0.3131716,1.06306433848,0,0,-0.671082,129.6, 1.3, 0.4,0,0,1024,1024,1024,1024,128.3,-89.9,98,3.946,3.949,3.948,3.954,3.959,3.972,18.076,78.8,14,Waypoint,
38.5226828,-120.3275111,5531.1868991108,109.251972,0,0.39996064272,16900,2018-06-19 21:50:00,16,0,23.739,5531.1868991108,109.251972,0.3131716,1.06306433848,0,0,-0.671082,129.5, 1.4, 0.6,0,0,1024,1024,1024,1024,128.3,-89.9,98,3.946,3.949,3.948,3.954,3.959,3.972,18.076,78.8,14,Waypoint,
38.5226828,-120.3275111,5532.1711511108,110.236224,0,0.39996064272,17000,2018-06-19 21:50:00,16,0,23.731,5532.1711511108,110.236224,0.3131716,1.06306433848,0,0,-0.671082,129.5, 1.3, 0.8,0,0,1024,1024,1024,1024,128.3,-89.9,98,3.953,3.948,3.942,3.958,3.954,3.967,17.866,78.8,14,Waypoint,
38.5226828,-120.327511,5533.1554031108,111.220476,0,0.41691930468,17100,2018-06-19 21:50:01,16,0,23.731,5533.1554031108,111.220476,0.3131716,1.06306433848,0,0,-0.671082,129.5, 1.2, 0.9,0,0,1024,1024,1024,1024,128.3,-89.9,98,3.953,3.948,3.942,3.958,3.954,3.967,17.866,78.8,14,Waypoint,
38.5226829,-120.327511,5534.1396551108,112.204728,0,0.44622048672,17200,2018-06-19 21:50:01,16,0,23.731,5534.1396551108,112.204728,0.3131716,1.06306433848,0,0,-0.671082,129.5, 1.2, 0.9,0,0,1024,1024,1024,1024,128.3,-89.9,98,3.953,3.948,3.942,3.958,3.954,3.967,17.866,78.8,14,Waypoint,
38.5226829,-120.3275109,5535.1239071108,113.18898,0,0.46324148464,17300,2018-06-19 21:50:01,16,0,23.731,5535.1239071108,113.18898,0.3131716,1.06306433848,0,0,-0.671082,129.4, 1.3, 1,0,0,1024,1024,1024,1024,128.3,-89.9,98,3.953,3.948,3.942,3.958,3.954,3.967,17.866,78.8,14,Waypoint,
38.5226829,-120.3275109,5536.1081591108,114.173232,0,0.46324148464,17400,2018-06-19 21:50:01,16,0,23.731,5536.1081591108,114.173232,0.3131716,1.06306433848,0,0,-0.671082,129.3, 1.2, 1.3,0,0,1024,1024,1024,1024,128.3,-89.9,98,3.953,3.948,3.942,3.958,3.954,3.967,17.866,78.8,14,Waypoint,
38.522683,-120.3275109,5537.0924111108,115.157484,0,0.49249017324,17500,2018-06-19 21:50:01,16,0,23.731,5537.0924111108,115.157484,0.3131716,1.06306433848,0,0,-0.671082,129.2, 1.1, 1.5,0,0,1024,1024,1024,1024,128.3,-89.9,98,3.953,3.948,3.942,3.958,3.954,3.967,17.866,78.8,14,Waypoint,
38.522683,-120.3275108,5539.0609151108,117.125988,0,0.50956694544,17700,2018-06-19 21:50:01,16,0,23.731,5539.0609151108,117.125988,0.3131716,1.06306433848,0,0,-0.671082,128.9, 1.2, 1.7,0,0,1024,1024,1024,1024,128.3,-89.9,98,3.953,3.948,3.942,3.958,3.954,3.967,17.866,78.8,14,Waypoint,
38.522683,-120.3275107,5540.0451671108,118.11024,0,0.52763453132,17800,2018-06-19 21:50:01,16,0,23.731,5540.0451671108,118.11024,0.3131716,1.06306433848,0,0,-0.671082,128.8, 1.3, 1.7,0,0,1024,1024,1024,1024,128.3,-89.9,98,3.953,3.948,3.942,3.958,3.954,3.967,17.866,78.8,14,Waypoint,
38.5226831,-120.3275107,5541.0294191108,119.094492,0,0.55589240624,17900,2018-06-19 21:50:01,16,0,23.731,5541.0294191108,119.094492,0.3131716,1.06306433848,0,0,-0.671082,128.7, 1.3, 1.6,0,0,1024,1024,1024,1024,128.3,-89.9,98,3.953,3.948,3.942,3.958,3.954,3.967,17.866,78.8,14,Waypoint,
38.5226831,-120.3275106,5542.0136711108,120.078744,0,0.57392062204,18000,2018-06-19 21:50:01,16,0,23.718,5542.0136711108,120.078744,0.3131716,1.06306433848,0,0,-0.671082,128.6, 1.3, 1.5,0,0,1024,1024,1024,1024,128.3,-89.9,97,3.95,3.954,3.941,3.954,3.956,3.966,17.725,80.6,14,Waypoint,
38.522683,-120.3275106,5543.9821751108,122.047248,0,0.54659778652,18200,2018-06-19 21:50:02,16,0,23.718,5543.9821751108,122.047248,0.3131716,1.06306433848,0,0,-0.671082,128.7, 1.3, 1.1,0,0,1024,1024,1024,1024,128.3,-89.9,97,3.95,3.954,3.941,3.954,3.956,3.966,17.725,80.6,14,Waypoint,
38.522683,-120.3275106,5544.9664271108,123.0315,0,0.54659778652,18300,2018-06-19 21:50:02,16,0,23.718,5544.9664271108,123.0315,0.3131716,1.06306433848,0,0,-0.671082,128.8, 1.2, 1.2,0,0,1024,1024,1024,1024,128.3,-89.9,97,3.95,3.954,3.941,3.954,3.956,3.966,17.725,80.6,14,Waypoint,
38.522683,-120.3275106,5545.9506791108,124.015752,0,0.54659778652,18400,2018-06-19 21:50:02,16,0,23.718,5545.9506791108,124.015752,0.3131716,1.06306433848,0,0,-0.671082,128.8, 1.2, 1.3,0,0,1024,1024,1024,1024,128.3,-89.9,97,3.95,3.954,3.941,3.954,3.956,3.966,17.725,80.6,14,Waypoint,
38.5226831,-120.3275106,5546.9349311108,125.000004,0,0.57392062204,18500,2018-06-19 21:50:02,16,0,23.718,5546.9349311108,125.000004,0.3131716,1.06306433848,0,0,-0.671082,128.9, 1.2, 1.3,0,0,1024,1024,1024,1024,128.3,-89.9,97,3.95,3.954,3.941,3.954,3.956,3.966,17.725,80.6,14,Waypoint,
38.5226831,-120.3275106,5547.9191831108,125.984256,0,0.57392062204,18600,2018-06-19 21:50:02,16,0,23.718,5547.9191831108,125.984256,0.3131716,1.06306433848,0,0,-0.671082,129, 1.2, 1.4,0,0,1024,1024,1024,1024,128.3,-89.9,97,3.95,3.954,3.941,3.954,3.956,3.966,17.725,80.6,14,Waypoint,
38.5226831,-120.3275106,5548.9034351108,126.968508,0,0.57392062204,18700,2018-06-19 21:50:02,16,0,23.718,5548.9034351108,126.968508,0.3131716,1.06306433848,0,0,-0.671082,129.1, 1.1, 1.4,0,0,1024,1024,1024,1024,128.3,-89.9,97,3.95,3.954,3.941,3.954,3.956,3.966,17.725,80.6,14,Waypoint,
38.5226831,-120.3275107,5549.8876871108,127.95276,0,0.55589240624,18800,2018-06-19 21:50:02,16,0,23.718,5549.8876871108,127.95276,0.3131716,1.06306433848,0,0,-0.671082,129.2, 1.1, 1.2,0,0,1024,1024,1024,1024,128.3,-89.9,97,3.95,3.954,3.941,3.954,3.956,3.966,17.725,80.6,14,Waypoint,
38.522683,-120.3275107,5550.8719391108,128.937012,0,0.52763453132,18900,2018-06-19 21:50:02,16,0,23.718,5550.8719391108,128.937012,0.3131716,1.06306433848,0,0,-0.671082,129.3, 1.1, 1,0,0,1024,1024,1024,1024,128.3,-89.9,97,3.95,3.954,3.941,3.954,3.956,3.966,17.725,80.6,14,Waypoint,
38.522683,-120.3275107,5552.8404431108,130.905516,0,0.52763453132,19100,2018-06-19 21:50:03,16,0,23.718,5552.8404431108,130.905516,0.3131716,1.06306433848,0,0,-0.671082,129.4, 1.2, 0.7,0,0,1024,1024,1024,1024,128.3,-89.9,97,3.95,3.954,3.941,3.954,3.956,3.966,17.725,80.6,14,Waypoint,
38.5226831,-120.3275108,5554.8089471108,132.87402,0,0.53877298312,19300,2018-06-19 21:50:03,16,0,23.718,5554.8089471108,132.87402,0.3131716,1.06306433848,0,0,-0.671082,129.4, 1.4, 1.1,0,0,1024,1024,1024,1024,128.3,-89.9,97,3.95,3.954,3.941,3.954,3.956,3.966,17.725,80.6,14,Waypoint,
38.5226831,-120.3275109,5555.7931991108,133.858272,0,0.52265093536,19400,2018-06-19 21:50:03,16,0,23.718,5555.7931991108,133.858272,0.3131716,1.06306433848,0,0,-0.671082,129.5, 1.2, 1.1,0,0,1024,1024,1024,1024,128.3,-89.9,97,3.95,3.954,3.941,3.954,3.956,3.966,17.725,80.6,14,Waypoint,
38.5226831,-120.3275109,5556.7774511108,134.842524,0,0.52265093536,19500,2018-06-19 21:50:03,16,0,23.718,5556.7774511108,134.842524,0.3131716,1.06306433848,0,0,-0.671082,129.6, 1.1, 1.1,0,0,1024,1024,1024,1024,128.3,-89.9,97,3.95,3.954,3.941,3.954,3.956,3.966,17.725,80.6,14,Waypoint,
38.5226831,-120.327511,5557.7617031108,135.826776,0,0.50762468816,19600,2018-06-19 21:50:03,16,0,23.718,5557.7617031108,135.826776,0.3131716,1.06306433848,0,0,-0.671082,129.6, 0.9, 1,0,0,1024,1024,1024,1024,128.3,-90,97,3.95,3.954,3.941,3.954,3.956,3.966,17.725,80.6,14,Waypoint,
38.5226831,-120.3275111,5558.7459551108,136.811028,0,0.49379266672,19700,2018-06-19 21:50:03,16,0,23.718,5558.7459551108,136.811028,0.3131716,1.06306433848,0,0,-0.671082,129.5, 0.6, 0.9,0,0,1024,1024,1024,1024,128.3,-90,97,3.95,3.954,3.941,3.954,3.956,3.966,17.725,80.6,14,Waypoint,
38.5226831,-120.3275112,5560.7144591108,138.779532,0,0.48125985792,19900,2018-06-19 21:50:03,16,0,23.718,5560.7144591108,138.779532,0.3131716,1.06306433848,0,0,-0.671082,129.1, 0.2, 0.7,0,0,1024,1024,1024,1024,128.3,-90,97,3.95,3.954,3.941,3.954,3.956,3.966,17.725,80.6,14,Waypoint,
38.5226832,-120.3275113,5561.6987111108,139.763784,0,0.50427823136,20000,2018-06-19 21:50:03,16,0,23.704,5561.6987111108,139.763784,0.3131716,1.06306433848,0,0,-0.671082,128.9, 0.3, 0.9,0,0,1024,1024,1024,1024,128.3,-90,97,3.942,3.947,3.942,3.946,3.95,3.972,17.628,80.6,14,Waypoint,
38.5226832,-120.3275113,5563.6672151108,141.732288,0,0.50427823136,20200,2018-06-19 21:50:04,16,0,23.704,5563.6672151108,141.732288,0.3131716,1.06306433848,0,0,-0.671082,128.7, 0.4, 1.3,0,0,1024,1024,1024,1024,128.3,-90,97,3.942,3.947,3.942,3.946,3.95,3.972,17.628,80.6,14,Waypoint,
38.5226833,-120.3275114,5564.6514671108,142.71654,0,0.53035434768,20400,2018-06-19 21:50:04,16,0,23.704,5564.6514671108,142.71654,0.3131716,1.06306433848,0,0,-0.671082,128.7, 0.3, 1.2,0,0,1024,1024,1024,1024,128.3,-90,97,3.942,3.947,3.942,3.946,3.95,3.972,17.628,80.6,14,Waypoint,
38.5226833,-120.3275114,5565.6357191108,143.700792,0,0.53035434768,20500,2018-06-19 21:50:04,16,0,23.704,5565.6357191108,143.700792,0.3131716,1.06306433848,0,0,-0.671082,128.6, 0.1, 0.9,0,0,1024,1024,1024,1024,128.3,-90,97,3.942,3.947,3.942,3.946,3.95,3.972,17.628,80.6,14,Waypoint,
38.5226834,-120.3275115,5569.5727271108,147.6378,0,0.55905841684,20800,2018-06-19 21:50:04,16,0,23.704,5569.5727271108,147.6378,0.3131716,1.06306433848,0,0,-0.671082,129, 0.3, 1.4,0,0,1024,1024,1024,1024,128.3,-89.9,97,3.942,3.947,3.942,3.946,3.95,3.972,17.628,80.6,14,Waypoint,
38.5226834,-120.3275115,5571.5412311108,149.606304,0,0.55905841684,21000,2018-06-19 21:50:04,16,0,23.735,5571.5412311108,149.606304,0.3131716,1.06306433848,0,0,-0.671082,129.2, 0.6, 1.7,0,0,1024,1024,1024,1024,128.3,-89.9,97,3.945,3.948,3.948,3.955,3.95,3.972,17.046,80.6,14,Waypoint,
38.5226834,-120.3275115,5572.5254831108,150.590556,0,0.55905841684,21100,2018-06-19 21:50:05,16,0,23.735,5572.5254831108,150.590556,0.3131716,1.06306433848,0,0,-0.671082,129.2, 0.5, 1.6,0,0,1024,1024,1024,1024,128.3,-89.9,97,3.945,3.948,3.948,3.955,3.95,3.972,17.046,80.6,14,Waypoint,
38.5226834,-120.3275115,5573.5097351108,151.574808,0,0.55905841684,21200,2018-06-19 21:50:05,16,0,23.735,5573.5097351108,151.574808,0.3131716,1.06306433848,0,0,-0.671082,129.2, 0.6, 1.4,0,0,1024,1024,1024,1024,128.3,-89.9,97,3.945,3.948,3.948,3.955,3.95,3.972,17.046,80.6,14,Waypoint,
38.5226835,-120.3275115,5574.4939871108,152.55906,0,0.59481957284,21300,2018-06-19 21:50:05,16,0,23.735,5574.4939871108,152.55906,0.3131716,1.06306433848,0,0,-0.671082,129.2, 0.6, 1.6,0,0,1024,1024,1024,1024,128.3,-89.9,97,3.945,3.948,3.948,3.955,3.95,3.972,17.046,80.6,14,Waypoint,
38.5226835,-120.3275115,5575.4782391108,153.543312,0,0.59481957284,21400,2018-06-19 21:50:05,16,0,23.735,5575.4782391108,153.543312,0.3131716,1.06306433848,0,0,-0.671082,129.2, 0.6, 1.8,0,0,1024,1024,1024,1024,128.3,-89.9,97,3.945,3.948,3.948,3.955,3.95,3.972,17.046,80.6,14,Waypoint,
38.5226835,-120.3275115,5576.4624911108,154.527564,0,0.59481957284,21500,2018-06-19 21:50:05,16,0,23.735,5576.4624911108,154.527564,0.3131716,1.06306433848,0,0,-0.671082,129.1, 0.6, 1.5,0,0,1024,1024,1024,1024,128.3,-89.9,97,3.945,3.948,3.948,3.955,3.95,3.972,17.046,80.6,14,Waypoint,
38.5226835,-120.3275115,5577.4467431108,155.511816,0,0.59481957284,21600,2018-06-19 21:50:05,16,0,23.735,5577.4467431108,155.511816,0.3131716,1.06306433848,0,0,-0.671082,129, 0.6, 1.2,0,0,1024,1024,1024,1024,128.3,-89.9,97,3.945,3.948,3.948,3.955,3.95,3.972,17.046,80.6,14,Waypoint,
38.5226834,-120.3275116,5578.4309951108,156.496068,0,0.55393374476,21700,2018-06-19 21:50:05,16,0,23.735,5578.4309951108,156.496068,0.3131716,1.06306433848,0,0,-0.671082,128.8, 0.5, 1.2,0,0,1024,1024,1024,1024,128.3,-89.9,97,3.945,3.948,3.948,3.955,3.95,3.972,17.046,80.6,14,Waypoint,
38.5226834,-120.3275116,5579.4152471108,157.48032,0,0.55393374476,21800,2018-06-19 21:50:05,16,0,23.735,5579.4152471108,157.48032,0.3131716,1.06306433848,0,0,-0.671082,128.7, 0.5, 1.2,0,0,1024,1024,1024,1024,128.3,-89.9,97,3.945,3.948,3.948,3.955,3.95,3.972,17.046,80.6,14,Waypoint,
38.5226834,-120.3275116,5580.3994991108,158.464572,0,0.55393374476,21900,2018-06-19 21:50:05,16,0,23.735,5580.3994991108,158.464572,0.3131716,1.06306433848,0,0,-0.671082,128.7, 0.4, 1.1,0,0,1024,1024,1024,1024,128.3,-89.9,97,3.945,3.948,3.948,3.955,3.95,3.972,17.046,80.6,14,Waypoint,
38.5226834,-120.3275117,5581.3837511108,159.448824,0,0.55024279976,22000,2018-06-19 21:50:05,16,0,23.62,5581.3837511108,159.448824,0.3131716,1.06306433848,0,0,-0.671082,128.7, 0.5, 1,0,0,1024,1024,1024,1024,128.3,-89.9,97,3.945,3.948,3.948,3.955,3.95,3.972,18.095,80.6,14,Waypoint,
38.5226833,-120.3275117,5582.6960871108,160.76116,0,0.51396983272,22100,2018-06-19 21:50:06,16,0,23.62,5582.6960871108,160.76116,0.3131716,1.06306433848,0,0,-0.671082,128.9, 0.6, 0.8,0,0,1024,1024,1024,1024,128.3,-89.9,97,3.945,3.948,3.948,3.955,3.95,3.972,18.095,80.6,14,Waypoint,
38.5226832,-120.3275117,5583.6803391108,161.745412,0.223694,0.47772639324,22200,2018-06-19 21:50:06,16,0,23.62,5583.6803391108,161.745412,0.3131716,1.06306433848,0,0,-0.671082,129.2, 1, 0.4,0,0,1024,1024,1024,1024,128.3,-89.9,97,3.945,3.948,3.948,3.955,3.95,3.972,18.095,80.6,14,Waypoint,
38.5226832,-120.3275117,5584.6645911108,162.729664,0.223694,0.47772639324,22300,2018-06-19 21:50:06,16,0,23.62,5584.6645911108,162.729664,0.3131716,1.06306433848,0,0,-0.671082,129.4, 1.4, 0.1,0,0,1024,1024,1024,1024,128.3,-89.9,97,3.945,3.948,3.948,3.955,3.95,3.972,18.095,80.6,14,Waypoint,
38.5226831,-120.3275117,5585.6488431108,163.713916,0.223694,0.44152560468,22400,2018-06-19 21:50:06,16,0,23.62,5585.6488431108,163.713916,0.3131716,1.06306433848,0,0,-0.671082,129.5, 1.7, 0,0,0,1024,1024,1024,1024,128.3,-89.9,97,3.945,3.948,3.948,3.955,3.95,3.972,18.095,80.6,14,Waypoint,
38.5226831,-120.3275117,5586.6330951108,164.698168,0.223694,0.44152560468,22500,2018-06-19 21:50:06,16,0,23.62,5586.6330951108,164.698168,0.3131716,1.06306433848,0,0,-0.671082,129.5, 1.9, 0.1,0,0,1024,1024,1024,1024,128.3,-89.9,97,3.945,3.948,3.948,3.955,3.95,3.972,18.095,80.6,14,Waypoint,
38.522683,-120.3275117,5587.6173471108,165.68242,0.223694,0.40537402872,22600,2018-06-19 21:50:06,16,0,23.62,5587.6173471108,165.68242,0.3131716,1.06306433848,0,0,-0.671082,129.4, 1.9, 0.4,0,0,1024,1024,1024,1024,128.3,-89.9,97,3.945,3.948,3.948,3.955,3.95,3.972,18.095,80.6,14,Waypoint,
38.522683,-120.3275117,5587.6173471108,165.68242,0.223694,0.40537402872,22700,2018-06-19 21:50:06,16,0,23.62,5587.6173471108,165.68242,0.3131716,1.06306433848,0,0,-0.671082,129.4, 1.9, 0.4,0,0,1024,1024,1024,1024,128.3,-89.9,97,3.945,3.948,3.948,3.955,3.95,3.972,18.095,80.6,14,Waypoint,
38.5226829,-120.3275117,5589.5858511108,167.650924,0.223694,0.36928806956,22800,2018-06-19 21:50:06,16,0,23.62,5589.5858511108,167.650924,0.3131716,1.06306433848,0,0,-0.671082,129.4, 2, 0.7,0,0,1024,1024,1024,1024,128.3,-89.9,97,3.945,3.948,3.948,3.955,3.95,3.972,18.095,80.6,14,Waypoint,
38.5226828,-120.3275116,5591.5543551108,169.619428,0.223694,0.33934712372,22900,2018-06-19 21:50:06,16,0,23.62,5591.5543551108,169.619428,0.3131716,1.06306433848,0,0,-0.671082,129.5, 1.9, 0.6,0,0,1024,1024,1024,1024,128.3,-89.9,97,3.945,3.948,3.948,3.955,3.95,3.972,18.095,80.6,14,Waypoint,
38.5226828,-120.3275116,5592.5386071108,170.60368,0.223694,0.33934712372,23100,2018-06-19 21:50:07,16,0,23.62,5592.5386071108,170.60368,0.3131716,1.06306433848,0,0,-0.671082,129.6, 1.9, 0.4,0,0,1024,1024,1024,1024,128.3,-89.9,97,3.945,3.948,3.948,3.955,3.95,3.972,18.095,80.6,14,Waypoint,
38.5226827,-120.3275116,5594.1790271108,172.2441,0.223694,0.304182096348,23300,2018-06-19 21:50:07,16,0,23.62,5594.1790271108,172.2441,0.3131716,1.06306433848,0,0,-0.671082,129.4, 2, 0.7,0,0,1024,1024,1024,1024,128.3,-89.9,97,3.945,3.948,3.948,3.955,3.95,3.972,18.095,80.6,14,Waypoint,
38.5226827,-120.3275115,5595.1632791108,173.228352,0.223694,0.31341700478,23400,2018-06-19 21:50:07,16,0,23.62,5595.1632791108,173.228352,0.3131716,1.06306433848,0,0,-0.671082,129.3, 2, 0.8,0,0,1024,1024,1024,1024,128.3,-89.9,97,3.945,3.948,3.948,3.955,3.95,3.972,18.095,80.6,14,Waypoint,
38.5226827,-120.3275115,5596.1475311108,174.212604,0.223694,0.31341700478,23500,2018-06-19 21:50:07,16,0,23.62,5596.1475311108,174.212604,0.3131716,1.06306433848,0,0,-0.671082,129.3, 2.1, 0.8,0,0,1024,1024,1024,1024,128.3,-89.9,97,3.945,3.948,3.948,3.955,3.95,3.972,18.095,80.6,14,Waypoint,
38.5226826,-120.3275115,5597.1317831108,175.196856,0,0.279755258296,23600,2018-06-19 21:50:07,16,0,23.62,5597.1317831108,175.196856,0.3131716,1.06306433848,0,0,-0.671082,129.3, 2, 0.9,0,0,1024,1024,1024,1024,128.3,-89.9,97,3.945,3.948,3.948,3.955,3.95,3.972,18.095,80.6,14,Waypoint,
38.5226826,-120.3275115,5598.1160351108,176.181108,0,0.279755258296,23700,2018-06-19 21:50:07,16,0,23.62,5598.1160351108,176.181108,0.3131716,1.06306433848,0,0,-0.671082,129.4, 2, 0.8,0,0,1024,1024,1024,1024,128.3,-89.9,97,3.945,3.948,3.948,3.955,3.95,3.972,18.095,80.6,14,Waypoint,
38.5226826,-120.3275114,5599.1002871108,177.16536,0,0.292567922748,23800,2018-06-19 21:50:07,16,0,23.62,5599.1002871108,177.16536,0.3131716,1.06306433848,0,0,-0.671082,129.4, 1.9, 0.8,0,0,1024,1024,1024,1024,128.3,-89.9,97,3.945,3.948,3.948,3.955,3.95,3.972,18.095,80.6,14,Waypoint,
38.5226826,-120.3275114,5599.7564551108,177.821528,0,0.292567922748,23900,2018-06-19 21:50:07,16,0,23.62,5599.7564551108,177.821528,0.3131716,1.06306433848,0,0,-0.671082,129.4, 1.8, 0.9,0,0,1024,1024,1024,1024,128.3,-89.9,97,3.945,3.948,3.948,3.955,3.95,3.972,18.095,80.6,14,Waypoint,
38.5226827,-120.3275114,5600.7407071108,178.80578,0.223694,0.32490486604,24000,2018-06-19 21:50:07,16,0,23.708,5600.7407071108,178.80578,0.3131716,1.06306433848,0,0,-0.671082,129.4, 1.7, 1.1,0,0,1024,1024,1024,1024,128.3,-89.9,97,3.943,3.948,3.944,3.952,3.953,3.978,17.319,80.6,14,Waypoint,
38.5226827,-120.3275114,5601.7249591108,179.790032,0,0.32490486604,24100,2018-06-19 21:50:08,16,0,23.708,5601.7249591108,179.790032,0.3131716,1.06306433848,0,0,-0.671082,129.3, 1.6, 1.1,0,0,1024,1024,1024,1024,128.3,-89.9,97,3.943,3.948,3.944,3.952,3.953,3.978,17.319,80.6,14,Waypoint,
38.5226827,-120.3275113,5602.7092111108,180.774284,0,0.33841536516,24200,2018-06-19 21:50:08,16,0,23.708,5602.7092111108,180.774284,0.3131716,1.06306433848,0,0,-0.671082,129.2, 1.7, 0.9,0,0,1024,1024,1024,1024,128.3,-89.9,97,3.943,3.948,3.944,3.952,3.953,3.978,17.319,80.6,14,Waypoint,
38.5226827,-120.3275113,5603.6934631108,181.758536,0,0.33841536516,24300,2018-06-19 21:50:08,16,0,23.708,5603.6934631108,181.758536,0.3131716,1.06306433848,0,0,-0.671082,129.1, 1.8, 1,0,0,1024,1024,1024,1024,128.3,-89.9,97,3.943,3.948,3.944,3.952,3.953,3.978,17.319,80.6,14,Waypoint,
38.5226827,-120.3275113,5604.6777151108,182.742788,0.223694,0.33841536516,24400,2018-06-19 21:50:08,16,0,23.708,5604.6777151108,182.742788,0.3131716,1.06306433848,0,0,-0.671082,129.1, 1.8, 1.2,0,0,1024,1024,1024,1024,128.3,-89.9,97,3.943,3.948,3.944,3.952,3.953,3.978,17.319,80.6,14,Waypoint,
38.5226827,-120.3275112,5605.6619671108,183.72704,0.223694,0.35372048376,24500,2018-06-19 21:50:08,16,0,23.708,5605.6619671108,183.72704,0.3131716,1.06306433848,0,0,-0.671082,129, 1.7, 1.4,0,0,1024,1024,1024,1024,128.3,-89.9,97,3.943,3.948,3.944,3.952,3.953,3.978,17.319,80.6,14,Waypoint,
38.5226828,-120.3275112,5606.6462191108,184.711292,0.223694,0.38437993356,24600,2018-06-19 21:50:08,16,0,23.708,5606.6462191108,184.711292,0.3131716,1.06306433848,0,0,-0.671082,129, 1.7, 1.6,0,0,1024,1024,1024,1024,128.3,-89.9,97,3.943,3.948,3.944,3.952,3.953,3.978,17.319,80.6,14,Waypoint,
38.5226828,-120.3275111,5607.6304711108,185.695544,0.223694,0.39996064272,24700,2018-06-19 21:50:08,16,0,23.708,5607.6304711108,185.695544,0.3131716,1.06306433848,0,0,-0.671082,129, 1.8, 1.8,0,0,1024,1024,1024,1024,128.3,-89.9,97,3.943,3.948,3.944,3.952,3.953,3.978,17.319,80.6,14,Waypoint,
38.5226828,-120.327511,5609.5989751108,187.664048,0,0.41691930468,24900,2018-06-19 21:50:08,16,0,23.708,5609.5989751108,187.664048,0.3131716,1.06306433848,0,0,-0.671082,129.1, 1.8, 1.5,0,0,1024,1024,1024,1024,128.3,-89.9,97,3.943,3.948,3.944,3.952,3.953,3.978,17.319,80.6,14,Waypoint,
38.5226829,-120.327511,5610.5832271108,188.6483,0,0.44622048672,25100,2018-06-19 21:50:09,16,0,23.708,5610.5832271108,188.6483,0.3131716,1.06306433848,0,0,-0.671082,129.1, 1.8, 1.4,0,0,1024,1024,1024,1024,128.3,-89.9,97,3.943,3.948,3.944,3.952,3.953,3.978,17.319,80.6,14,Waypoint,
38.5226829,-120.3275109,5612.5517311108,190.616804,0,0.46324148464,25200,2018-06-19 21:50:09,16,0,23.708,5612.5517311108,190.616804,0.3131716,1.06306433848,0,0,-0.671082,129.2, 1.9, 1.6,0,0,1024,1024,1024,1024,128.3,-89.9,97,3.943,3.948,3.944,3.952,3.953,3.978,17.319,80.6,14,Waypoint,
38.5226829,-120.3275109,5613.5359831108,191.601056,0,0.46324148464,25300,2018-06-19 21:50:09,16,0,23.708,5613.5359831108,191.601056,0.3131716,1.06306433848,0,0,-0.671082,129.2, 1.9, 1.5,0,0,1024,1024,1024,1024,128.3,-89.9,97,3.943,3.948,3.944,3.952,3.953,3.978,17.319,80.6,14,Waypoint,
38.5226829,-120.3275109,5614.5202351108,192.585308,0,0.46324148464,25400,2018-06-19 21:50:09,16,0,23.708,5614.5202351108,192.585308,0.3131716,1.06306433848,0,0,-0.671082,129.2, 1.9, 1.4,0,0,1024,1024,1024,1024,128.3,-89.9,97,3.943,3.948,3.944,3.952,3.953,3.978,17.319,80.6,14,Waypoint,
38.5226829,-120.3275108,5615.5044871108,193.56956,0,0.48135500228,25600,2018-06-19 21:50:09,16,0,23.708,5615.5044871108,193.56956,0.3131716,1.06306433848,0,0,-0.671082,129.2, 2, 1.4,0,0,1024,1024,1024,1024,128.3,-89.9,97,3.943,3.948,3.944,3.952,3.953,3.978,17.319,80.6,14,Waypoint,
38.5226829,-120.3275108,5617.4729911108,195.538064,0,0.48135500228,25700,2018-06-19 21:50:09,16,0,23.708,5617.4729911108,195.538064,0.3131716,1.06306433848,0,0,-0.671082,129.1, 2, 1.4,0,0,1024,1024,1024,1024,128.3,-89.9,97,3.943,3.948,3.944,3.952,3.953,3.978,17.319,80.6,14,Waypoint,
38.5226829,-120.3275108,5619.4414951108,197.506568,0,0.48135500228,25900,2018-06-19 21:50:09,16,0,23.708,5619.4414951108,197.506568,0.3131716,1.06306433848,0,0,-0.671082,129, 2, 1.4,0,0,1024,1024,1024,1024,128.3,-89.9,97,3.943,3.948,3.944,3.952,3.953,3.978,17.319,80.6,14,Waypoint,
38.5226829,-120.3275107,5620.4257471108,198.49082,0,0.5004429294,26000,2018-06-19 21:50:09,16,0,23.678,5620.4257471108,198.49082,0.3131716,1.06306433848,0,0,-0.671082,129.1, 2.1, 1.4,0,0,1024,1024,1024,1024,128.3,-89.9,97,3.944,3.937,3.941,3.941,3.947,3.959,17.292,80.6,14,Waypoint,
38.5226829,-120.3275108,5622.3942511108,200.459324,0,0.48135500228,26200,2018-06-19 21:50:10,16,0,23.678,5622.3942511108,200.459324,0.3131716,1.06306433848,0,0,-0.671082,129.2, 2.2, 1.2,0,0,1024,1024,1024,1024,128.3,-89.9,97,3.944,3.937,3.941,3.941,3.947,3.959,17.292,80.6,14,Waypoint,
38.5226829,-120.3275108,5623.3785031108,201.443576,0,0.48135500228,26300,2018-06-19 21:50:10,16,0,23.678,5623.3785031108,201.443576,0.3131716,1.06306433848,0,0,-0.671082,129.2, 2.2, 1.1,0,0,1024,1024,1024,1024,128.3,-89.9,97,3.944,3.937,3.941,3.941,3.947,3.959,17.292,80.6,14,Waypoint,
38.5226828,-120.3275109,5624.3627551108,202.427828,0,0.4350885966,26400,2018-06-19 21:50:10,16,0,23.678,5624.3627551108,202.427828,0.3131716,1.06306433848,0,0,-0.671082,129.2, 2.1, 1,0,0,1024,1024,1024,1024,128.3,-89.9,97,3.944,3.937,3.941,3.941,3.947,3.959,17.292,80.6,14,Waypoint,
38.5226828,-120.3275109,5625.3470071108,203.41208,0,0.4350885966,26500,2018-06-19 21:50:10,16,0,23.678,5625.3470071108,203.41208,0.3131716,1.06306433848,0,0,-0.671082,129.2, 2, 0.9,0,0,1024,1024,1024,1024,128.3,-89.9,97,3.944,3.937,3.941,3.941,3.947,3.959,17.292,80.6,14,Waypoint,
38.5226828,-120.3275109,5626.3312591108,204.396332,0,0.4350885966,26600,2018-06-19 21:50:10,16,0,23.678,5626.3312591108,204.396332,0.3131716,1.06306433848,0,0,-0.671082,129.2, 2, 0.9,0,0,1024,1024,1024,1024,128.3,-89.9,97,3.944,3.937,3.941,3.941,3.947,3.959,17.292,80.6,14,Waypoint,
38.5226828,-120.327511,5627.3155111108,205.380584,0,0.41691930468,26700,2018-06-19 21:50:10,16,0,23.678,5627.3155111108,205.380584,0.3131716,1.06306433848,0,0,-0.671082,129.2, 1.9, 0.9,0,0,1024,1024,1024,1024,128.3,-89.9,97,3.944,3.937,3.941,3.941,3.947,3.959,17.292,80.6,14,Waypoint,
38.5226828,-120.327511,5629.2840151108,207.349088,0,0.41691930468,26900,2018-06-19 21:50:10,16,0,23.678,5629.2840151108,207.349088,0.3131716,1.06306433848,0,0,-0.671082,129.2, 1.9, 1.1,0,0,1024,1024,1024,1024,128.3,-89.9,97,3.944,3.937,3.941,3.941,3.947,3.959,17.292,80.6,14,Waypoint,
38.5226828,-120.327511,5630.2682671108,208.33334,0,0.41691930468,27000,2018-06-19 21:50:10,16,0,23.707,5630.2682671108,208.33334,0.3131716,1.06306433848,0,0,-0.671082,129.2, 2, 1,0,0,1024,1024,1024,1024,128.3,-89.9,97,3.94,3.936,3.94,3.948,3.946,3.973,17.095,80.6,14,Waypoint,
