Latitude, Longitude, Altitude (m), Time, Sats, Speed (m/s), Range (m), Battery (%), Roll (deg), Pitch (deg), Yaw (deg), Images, HD Signal (%), RC Signal (%), Battery Temp (C), Battery Voltage (mV), Battery Current (mA), Battery Energy (mAh), Battery Capacity (mAh), Battery Discharges, flyState, timestamp (Unix), LastUpdate (ms), radioChannel, Rc_elevator, Rc_aileron, Rc_throttle, Rc_rudder, Rc_gyro, Dronetype, Battery_Cell1 (mV), Battery_Cell2 (mV), Battery_Cell3 (mV), Battery_Cell4 (mV), Battery_Cell5 (mV), Battery_Cell6 (mV), Video, isFlying, elapsedTime (ms), gimbalPitch (deg), gimbalRoll (deg), gimbalYaw (deg), VelocityX (m/s), VelocityY (m/s), VelocityZ (m/s), GroundSmear (cm), App Version, Aircraft Name, Aircraft Firmware, Aircraft Serial Number, Battery Serial Number, Battery Lifetime (%), App_Tip, App_Warning, CurrentFlightStartingIndex, CurrentFlightLastVisitedWaypoint, PreviousFlightEndingWaypointIndex
38.8912888, -120.7647809, 0.000, 12:19:43.655, 12, 0.00, 0.10, 97, 0.700, 1.000, -33.100, 389, 100, 100, 26, 25510, -3946, 5326, 5491, 11, 11, 1527016783.655, 138, 0, 1024, 1024, 1024, 1024, 0, 6, 4262, 4226, 4230, 4224, 4287, 4263, 0, 1, 2986, -90.000, 0.000, -33.900, 0.000, 0.000, -0.100, 0.0, MapPilot_2.8.1_04242018, Dendroctonus I, 1.3.1.00, 041DDC1887, 1058163200563, 98, DJI_0391.jpg, Starting Mission from Lat/Long: 38.89129/-120.76477 Camera: Zenmuse X3 - Overlap: 90/90 - Active Connection: No, 15, 15, 15
38.8912887, -120.7647809, 0.000, 12:19:43.672, 12, 0.00, 0.10, 97, 0.400, 0.400, -32.800, 389, 100, 100, 26, 25357, -6346, 5326, 5491, 11, 11, 1527016783.673, 12, 0, 1024, 1024, 1024, 1024, 0, 6, 4262, 4226, 4230, 4224, 4287, 4263, 0, 1, 3004, -90.000, 0.000, -33.900, 0.000, 0.000, -0.300, 0.0, , , , , , 98, , , 15, 15, 15
38.8912887, -120.7647808, 0.000, 12:19:43.769, 12, 0.00, 0.09, 97, 0.000, -0.200, -32.700, 389, 100, 100, 26, 25357, -6346, 5326, 5491, 11, 11, 1527016783.769, 52, 0, 1024, 1024, 1024, 1024, 0, 6, 4206, 4226, 4214, 4197, 4203, 4209, 0, 1, 3100, -89.900, 0.000, -33.900, 0.000, 0.000, -0.400, 0.0, , , , , , 98, , , 15, 15, 15
38.8912886, -120.7647808, 0.000, 12:19:43.869, 11, 0.00, 0.09, 97, -0.100, -0.500, -32.700, 389, 100, 100, 26, 25357, -6346, 5326, 5491, 11, 11, 1527016783.870, 55, 0, 1024, 1024, 1024, 1024, 0, 6, 4206, 4226, 4214, 4197, 4203, 4209, 0, 1, 3200, -89.900, 0.000, -34.000, 0.000, 0.000, -0.400, 0.0, , , , , , 98, , , 15, 15, 15
38.8912885, -120.7647807, 0.100, 12:19:43.969, 10, 0.00, 0.09, 97, 0.000, -0.300, -32.700, 389, 100, 100, 26, 25357, -6346, 5326, 5491, 11, 11, 1527016783.969, 34, 0, 1024, 1024, 1024, 1024, 0, 6, 4206, 4226, 4214, 4197, 4203, 4209, 0, 1, 3300, -89.900, 0.000, -33.900, 0.000, 0.000, -0.400, 0.0, , , , , , 98, , , 15, 15, 15
38.8912885, -120.7647807, 0.200, 12:19:44.069, 10, 0.00, 0.10, 97, 0.000, -0.300, -32.700, 389, 100, 100, 26, 25357, -6346, 5326, 5491, 11, 11, 1527016784.069, 40, 0, 1024, 1024, 1024, 1024, 0, 6, 4206, 4226, 4214, 4197, 4203, 4209, 0, 1, 3400, -89.900, 0.000, -33.900, 0.000, 0.000, -0.400, 0.0, , , , , , 98, , , 15, 15, 15
38.8912884, -120.7647807, 0.200, 12:19:44.169, 11, 0.00, 0.10, 97, 0.200, -0.300, -32.700, 389, 100, 100, 26, 25357, -6346, 5326, 5491, 11, 11, 1527016784.169, 12, 0, 1024, 1024, 1024, 1024, 0, 6, 4206, 4226, 4214, 4197, 4203, 4209, 0, 1, 3500, -90.000, 0.000, -33.900, 0.000, 0.000, -0.400, 0.0, , , , , , 98, , , 15, 15, 15
38.8912883, -120.7647808, 0.300, 12:19:44.269, 11, 0.00, 0.12, 97, 0.200, -0.400, -32.700, 389, 100, 100, 26, 25357, -6346, 5326, 5491, 11, 11, 1527016784.269, 39, 0, 1024, 1024, 1024, 1024, 0, 6, 4206, 4226, 4214, 4197, 4203, 4209, 0, 1, 3600, -89.900, 0.000, -33.900, 0.000, 0.000, -0.500, 0.0, , , , , , 98, , , 15, 15, 15
38.8912882, -120.7647809, 0.300, 12:19:44.369, 11, 0.00, 0.13, 97, 0.400, -0.200, -32.800, 389, 100, 100, 26, 25357, -6346, 5326, 5491, 11, 11, 1527016784.369, 16, 0, 1024, 1024, 1024, 1024, 0, 6, 4206, 4226, 4214, 4197, 4203, 4209, 0, 1, 3700, -89.900, 0.000, -33.900, 0.000, 0.000, -0.400, 0.0, , , , , , 98, , , 15, 15, 15
38.8912882, -120.7647810, 0.400, 12:19:44.469, 11, 0.00, 0.13, 97, 0.400, 0.000, -32.800, 389, 100, 100, 26, 25357, -6346, 5326, 5491, 11, 11, 1527016784.470, 14, 0, 1024, 1024, 1024, 1024, 0, 6, 4206, 4226, 4214, 4197, 4203, 4209, 0, 1, 3800, -89.900, 0.000, -34.000, 0.000, 0.000, -0.500, 0.0, , , , , , 98, , , 15, 15, 15
38.8912882, -120.7647810, 0.500, 12:19:44.569, 12, 0.00, 0.14, 97, 0.300, 0.000, -32.800, 389, 100, 100, 26, 25357, -6346, 5326, 5491, 11, 11, 1527016784.569, 13, 0, 1024, 1024, 1024, 1024, 0, 6, 4206, 4226, 4214, 4197, 4203, 4209, 0, 1, 3900, -89.900, 0.000, -33.900, 0.000, 0.000, -0.500, 0.0, , , , , , 98, , , 15, 15, 15
38.8912882, -120.7647812, 0.500, 12:19:44.674, 12, 0.00, 0.15, 97, 0.400, 0.000, -32.900, 389, 100, 100, 26, 24606, -15465, 5326, 5491, 11, 11, 1527016784.674, 12, 0, 1024, 1024, 1024, 1024, 0, 6, 4206, 4226, 4214, 4197, 4203, 4209, 0, 1, 4005, -89.900, 0.000, -33.900, 0.000, 0.000, -0.500, 0.0, , , , , , 98, , , 15, 15, 15
38.8912882, -120.7647813, 0.600, 12:19:44.769, 11, 0.00, 0.16, 97, 0.500, 0.000, -33.000, 389, 100, 100, 26, 24606, -15465, 5326, 5491, 11, 11, 1527016784.769, 8, 0, 1024, 1024, 1024, 1024, 0, 6, 4092, 4096, 4085, 4092, 4104, 4101, 0, 1, 4100, -89.900, 0.000, -33.900, 0.000, 0.000, -0.400, 0.0, , , , , , 98, , , 15, 15, 15
38.8912881, -120.7647814, 0.600, 12:19:44.875, 11, 0.00, 0.17, 97, 0.600, 0.200, -33.000, 389, 100, 100, 26, 24606, -15465, 5326, 5491, 11, 11, 1527016784.876, 6, 0, 1024, 1024, 1024, 1024, 0, 6, 4092, 4096, 4085, 4092, 4104, 4101, 0, 1, 4207, -89.900, 0.000, -33.900, 0.000, 0.000, -0.400, 0.0, , , , , , 98, , , 15, 15, 15
38.8912881, -120.7647814, 0.600, 12:19:44.969, 11, 0.00, 0.17, 97, 0.600, 0.200, -33.000, 389, 100, 100, 26, 24606, -15465, 5326, 5491, 11, 11, 1527016784.970, 100, 0, 1024, 1024, 1024, 1024, 0, 6, 4092, 4096, 4085, 4092, 4104, 4101, 0, 1, 4300, -89.900, 0.000, -33.900, 0.000, 0.000, -0.400, 0.0, , , , , , 98, , , 15, 15, 15
38.8912881, -120.7647814, 0.700, 12:19:45.069, 11, 0.00, 0.17, 97, 0.600, 0.200, -32.900, 389, 100, 100, 26, 24606, -15465, 5326, 5491, 11, 11, 1527016785.070, 78, 0, 1024, 1024, 1024, 1024, 0, 6, 4092, 4096, 4085, 4092, 4104, 4101, 0, 1, 4400, -89.900, 0.000, -33.900, 0.000, 0.000, -0.400, 0.0, , , , , , 98, , , 15, 15, 15
38.8912882, -120.7647815, 0.700, 12:19:45.169, 11, 0.00, 0.17, 97, 0.600, 0.100, -32.900, 389, 100, 100, 26, 24606, -15465, 5326, 5491, 11, 11, 1527016785.169, 92, 0, 1024, 1024, 1024, 1024, 0, 6, 4092, 4096, 4085, 4092, 4104, 4101, 0, 1, 4500, -89.900, 0.000, -33.900, 0.000, 0.000, -0.500, 0.0, , , , , , 98, , , 15, 15, 15
38.8912882, -120.7647815, 0.800, 12:19:45.269, 11, 0.00, 0.17, 97, 0.600, 0.100, -32.900, 389, 100, 100, 26, 24606, -15465, 5326, 5491, 11, 11, 1527016785.270, 85, 0, 1024, 1024, 1024, 1024, 0, 6, 4092, 4096, 4085, 4092, 4104, 4101, 0, 1, 4601, -89.900, 0.000, -33.900, 0.000, 0.000, -0.500, 0.0, , , , , , 98, , , 15, 15, 15
38.8912882, -120.7647815, 0.900, 12:19:45.369, 11, 0.00, 0.17, 97, 0.600, 0.100, -32.900, 389, 100, 100, 26, 24606, -15465, 5326, 5491, 11, 11, 1527016785.369, 75, 0, 1024, 1024, 1024, 1024, 0, 6, 4092, 4096, 4085, 4092, 4104, 4101, 0, 1, 4700, -89.900, 0.000, -33.900, 0.000, 0.000, -0.500, 0.0, , , , , , 98, , , 15, 15, 15
38.8912883, -120.7647816, 0.900, 12:19:45.469, 10, 0.00, 0.17, 97, 0.500, 0.100, -32.900, 389, 100, 100, 26, 24606, -15465, 5326, 5491, 11, 14, 1527016785.469, 76, 0, 1024, 1024, 1024, 1024, 0, 6, 4092, 4096, 4085, 4092, 4104, 4101, 0, 1, 4800, -89.900, 0.000, -33.900, 0.000, 0.000, -0.400, 0.0, , , , , , 98, , , 15, 15, 15
38.8912883, -120.7647816, 1.000, 12:19:45.569, 10, 0.00, 0.18, 97, 0.200, 0.200, -32.900, 389, 100, 100, 26, 24606, -15465, 5326, 5491, 11, 14, 1527016785.570, 82, 0, 1024, 1024, 1024, 1024, 0, 6, 4092, 4096, 4085, 4092, 4104, 4101, 0, 1, 4900, -89.900, 0.000, -33.900, 0.000, 0.000, -0.300, 0.0, , , , , , 98, , , 15, 15, 15
38.8912883, -120.7647817, 1.000, 12:19:45.669, 10, 0.00, 0.18, 97, 0.000, 0.200, -32.700, 389, 100, 100, 26, 24437, -15712, 5326, 5491, 11, 14, 1527016785.669, 73, 0, 1024, 1024, 1024, 1024, 0, 6, 4092, 4096, 4085, 4092, 4104, 4101, 0, 1, 5000, -89.900, 0.000, -33.900, 0.000, 0.000, -0.200, 0.0, , , , , , 98, , , 15, 15, 15
38.8912884, -120.7647818, 1.000, 12:19:45.769, 10, 0.00, 0.19, 97, -0.100, 0.300, -32.600, 389, 100, 100, 26, 24437, -15712, 5326, 5491, 11, 14, 1527016785.769, 68, 0, 1024, 1024, 1024, 1024, 0, 6, 4092, 4096, 4085, 4092, 4104, 4101, 0, 1, 5100, -89.900, 0.000, -33.900, 0.000, 0.000, -0.200, 0.0, , , , , , 98, , , 15, 15, 15
38.8912884, -120.7647819, 1.100, 12:19:45.869, 11, 0.00, 0.19, 97, 0.000, 0.400, -32.400, 389, 100, 100, 26, 24437, -15712, 5326, 5491, 11, 14, 1527016785.869, 54, 0, 1024, 1024, 1024, 1024, 0, 6, 4092, 4096, 4085, 4092, 4104, 4101, 0, 1, 5200, -89.900, 0.000, -33.900, 0.000, 0.000, -0.300, 0.0, , , , , , 98, , , 15, 15, 15
38.8912885, -120.7647820, 1.100, 12:19:45.969, 11, 0.00, 0.20, 97, 0.200, 0.400, -32.400, 389, 100, 100, 26, 24437, -15712, 5326, 5491, 11, 14, 1527016785.969, 54, 0, 1024, 1024, 1024, 1024, 0, 6, 4092, 4096, 4085, 4092, 4104, 4101, 0, 1, 5300, -89.900, 0.000, -33.900, 0.000, 0.000, -0.400, 0.0, , , , , , 98, , , 15, 15, 15
38.8912885, -120.7647820, 1.200, 12:19:46.069, 12, 0.00, 0.20, 97, 0.400, 0.500, -32.400, 389, 100, 100, 26, 24437, -15712, 5326, 5491, 11, 14, 1527016786.069, 30, 0, 1024, 1024, 1024, 1024, 0, 6, 4092, 4096, 4085, 4092, 4104, 4101, 0, 1, 5400, -89.900, 0.000, -33.900, 0.000, 0.000, -0.600, 0.0, , , , , , 98, , , 15, 15, 15
38.8912885, -120.7647821, 1.200, 12:19:46.174, 12, 0.00, 0.21, 97, 0.600, 0.700, -32.500, 389, 100, 100, 26, 24437, -15712, 5326, 5491, 11, 14, 1527016786.175, 6, 0, 1024, 1024, 1024, 1024, 0, 6, 4092, 4096, 4085, 4092, 4104, 4101, 0, 1, 5506, -89.900, 0.000, -33.900, 0.000, 0.000, -0.700, 0.0, , , , , , 98, , , 15, 15, 15
38.8912885, -120.7647822, 1.300, 12:19:46.269, 12, 0.00, 0.22, 97, 0.900, 0.700, -32.600, 389, 100, 100, 26, 24437, -15712, 5326, 5491, 11, 14, 1527016786.269, 42, 0, 1024, 1024, 1024, 1024, 0, 6, 4065, 4063, 4068, 4060, 4075, 4074, 0, 1, 5600, -89.900, 0.000, -33.900, 0.000, 0.000, -1.000, 0.0, , , , , , 98, , , 15, 15, 15
38.8912885, -120.7647822, 1.400, 12:19:46.369, 12, 0.00, 0.21, 97, 1.000, 0.500, -32.700, 389, 100, 100, 26, 24437, -15712, 5326, 5491, 11, 14, 1527016786.369, 23, 0, 1024, 1024, 1024, 1024, 0, 6, 4065, 4063, 4068, 4060, 4075, 4074, 0, 1, 5700, -89.900, 0.000, -33.900, 0.000, 0.000, -1.100, 0.0, , , , , , 98, , , 15, 15, 15
38.8912883, -120.7647823, 1.700, 12:19:46.469, 13, 0.00, 0.23, 97, 0.600, 0.200, -33.100, 389, 100, 100, 26, 24437, -15712, 5326, 5491, 11, 14, 1527016786.469, 7, 0, 1024, 1024, 1024, 1024, 0, 6, 4065, 4063, 4068, 4060, 4075, 4074, 0, 1, 5800, -90.000, 0.000, -33.900, 0.000, 0.000, -1.600, 0.0, , , , , , 98, , , 15, 15, 15
38.8912882, -120.7647824, 1.900, 12:19:46.569, 11, 0.00, 0.24, 97, 0.600, 0.000, -33.300, 389, 100, 100, 26, 24437, -15712, 5326, 5491, 11, 14, 1527016786.569, 9, 0, 1024, 1024, 1024, 1024, 0, 6, 4065, 4063, 4068, 4060, 4075, 4074, 0, 1, 5900, -90.000, 0.000, -33.900, 0.000, 0.000, -1.800, 0.0, , , , , , 98, , , 15, 15, 15
38.8912882, -120.7647825, 2.100, 12:19:46.669, 11, 0.00, 0.25, 97, 0.600, 0.000, -33.400, 389, 100, 100, 26, 24437, -15712, 5326, 5491, 11, 14, 1527016786.670, 14, 0, 1024, 1024, 1024, 1024, 0, 6, 4065, 4063, 4068, 4060, 4075, 4074, 0, 1, 6001, -90.000, 0.000, -33.900, 0.000, 0.000, -2.000, 0.0, , , , , , 98, , , 15, 15, 15
38.8912882, -120.7647827, 2.400, 12:19:46.769, 13, 0.00, 0.27, 97, 0.600, 0.100, -33.500, 389, 100, 100, 26, 24437, -15712, 5326, 5491, 11, 14, 1527016786.770, 15, 0, 1024, 1024, 1024, 1024, 0, 6, 4065, 4063, 4068, 4060, 4075, 4074, 0, 1, 6101, -89.900, 0.000, -33.900, 0.000, 0.000, -2.200, 0.0, , , , , , 98, , , 15, 15, 15
38.8912881, -120.7647828, 2.600, 12:19:46.871, 13, 0.00, 0.27, 97, 0.700, 0.300, -33.600, 389, 100, 100, 26, 24437, -15712, 5326, 5491, 11, 14, 1527016786.872, 5, 0, 1024, 1024, 1024, 1024, 0, 6, 4065, 4063, 4068, 4060, 4075, 4074, 0, 1, 6203, -89.900, 0.000, -33.900, 0.000, 0.000, -2.500, 0.0, , , , , , 98, , , 15, 15, 15
38.8912881, -120.7647829, 2.900, 12:19:46.973, 13, 0.00, 0.28, 97, 0.800, 0.500, -33.700, 389, 100, 100, 26, 24437, -15712, 5326, 5491, 11, 14, 1527016786.975, 7, 0, 1024, 1024, 1024, 1024, 0, 6, 4065, 4063, 4068, 4060, 4075, 4074, 0, 1, 6306, -89.900, 0.000, -33.900, 0.000, 0.000, -2.700, 0.0, , , , , , 98, , , 15, 15, 15
38.8912882, -120.7647830, 3.200, 12:19:47.090, 13, 0.00, 0.29, 97, 0.700, 0.500, -33.800, 389, 100, 100, 26, 24274, -16795, 5326, 5491, 11, 14, 1527016787.090, 5, 0, 1024, 1024, 1024, 1024, 0, 6, 4065, 4063, 4068, 4060, 4075, 4074, 0, 1, 6421, -89.900, 0.000, -33.900, 0.000, 0.000, -2.800, 0.0, , , , , , 98, , , 15, 15, 15
38.8912882, -120.7647830, 3.200, 12:19:47.169, 13, 0.00, 0.29, 97, 0.700, 0.500, -33.800, 389, 100, 100, 26, 24274, -16795, 5326, 5491, 11, 14, 1527016787.169, 84, 0, 1024, 1024, 1024, 1024, 0, 6, 4015, 4030, 4042, 4021, 4055, 4028, 0, 1, 6500, -89.900, 0.000, -33.900, 0.000, 0.000, -2.800, 0.0, , , , , , 98, , , 15, 15, 15
38.8912882, -120.7647831, 3.500, 12:19:47.269, 12, 0.00, 0.30, 97, 0.600, 0.500, -33.700, 389, 100, 100, 26, 24274, -16795, 5326, 5491, 11, 14, 1527016787.269, 89, 0, 1024, 1024, 1024, 1024, 0, 6, 4015, 4030, 4042, 4021, 4055, 4028, 0, 1, 6600, -89.900, 0.000, -33.900, 0.000, 0.000, -3.000, 0.0, , , , , , 98, , , 15, 15, 15
38.8912882, -120.7647833, 3.800, 12:19:47.369, 12, 0.00, 0.31, 97, 0.800, 0.600, -33.600, 389, 100, 100, 26, 24274, -16795, 5326, 5491, 11, 14, 1527016787.369, 82, 0, 1024, 1024, 1024, 1024, 0, 6, 4015, 4030, 4042, 4021, 4055, 4028, 0, 1, 6700, -89.900, 0.000, -33.900, 0.000, 0.000, -3.100, 0.0, , , , , , 98, , , 15, 15, 15
38.8912882, -120.7647835, 4.200, 12:19:47.469, 13, 0.00, 0.33, 97, 1.000, 0.700, -33.500, 389, 100, 100, 26, 24274, -16795, 5326, 5491, 11, 14, 1527016787.469, 72, 0, 1024, 1024, 1024, 1024, 0, 6, 4015, 4030, 4042, 4021, 4055, 4028, 0, 1, 6800, -89.900, 0.000, -33.900, 0.000, 0.000, -3.100, 0.0, , , , , , 98, , , 15, 15, 15
38.8912882, -120.7647839, 4.500, 12:19:47.569, 13, 0.00, 0.36, 97, 1.300, 0.900, -33.400, 389, 100, 100, 26, 24274, -16795, 5326, 5491, 11, 14, 1527016787.569, 73, 0, 1024, 1024, 1024, 1024, 0, 6, 4015, 4030, 4042, 4021, 4055, 4028, 0, 1, 6900, -89.900, 0.000, -33.900, 0.000, 0.000, -3.200, 0.0, , , , , , 98, , , 15, 15, 15
38.8912883, -120.7647842, 4.800, 12:19:47.669, 13, 0.00, 0.39, 97, 1.700, 1.200, -33.300, 389, 100, 100, 26, 24274, -16795, 5326, 5491, 11, 14, 1527016787.670, 74, 0, 1024, 1024, 1024, 1024, 0, 6, 4015, 4030, 4042, 4021, 4055, 4028, 0, 1, 7000, -89.900, 0.000, -33.900, 0.000, 0.000, -3.200, 0.0, , , , , , 98, , , 15, 15, 15
38.8912883, -120.7647844, 5.200, 12:19:47.769, 13, 0.00, 0.41, 97, 2.000, 1.600, -33.300, 389, 100, 100, 26, 24274, -16795, 5326, 5491, 11, 14, 1527016787.770, 75, 0, 1024, 1024, 1024, 1024, 0, 6, 4015, 4030, 4042, 4021, 4055, 4028, 0, 1, 7101, -89.900, 0.000, -33.900, 0.000, 0.000, -3.100, 0.0, , , , , , 98, , , 15, 15, 15
38.8912884, -120.7647846, 5.500, 12:19:47.869, 14, 0.00, 0.42, 97, 2.000, 1.900, -33.300, 389, 100, 100, 26, 24274, -16795, 5326, 5491, 11, 14, 1527016787.870, 53, 0, 1024, 1024, 1024, 1024, 0, 6, 4015, 4030, 4042, 4021, 4055, 4028, 0, 1, 7200, -89.900, 0.000, -33.900, 0.000, 0.000, -3.200, 0.0, , , , , , 98, , , 15, 15, 15
38.8912884, -120.7647846, 5.800, 12:19:47.969, 14, 0.00, 0.42, 97, 2.000, 2.000, -33.300, 389, 100, 100, 26, 24274, -16795, 5326, 5491, 11, 14, 1527016787.970, 52, 0, 1024, 1024, 1024, 1024, 0, 6, 4015, 4030, 4042, 4021, 4055, 4028, 0, 1, 7300, -89.900, 0.000, -33.900, 0.000, 0.000, -3.100, 0.0, , , , , , 98, , , 15, 15, 15
38.8912884, -120.7647846, 6.200, 12:19:48.069, 14, 0.00, 0.42, 97, 1.700, 1.800, -33.300, 389, 100, 100, 26, 24274, -16795, 5326, 5491, 11, 14, 1527016788.070, 53, 0, 1024, 1024, 1024, 1024, 0, 6, 4015, 4030, 4042, 4021, 4055, 4028, 0, 1, 7401, -89.900, 0.000, -33.900, 0.000, 0.000, -3.200, 0.0, , , , , , 98, , , 15, 15, 15
38.8912884, -120.7647844, 6.500, 12:19:48.169, 14, 0.10, 0.40, 97, 1.300, 1.400, -33.300, 389, 100, 100, 26, 23763, -22991, 5271, 5491, 11, 14, 1527016788.170, 19, 0, 1024, 1024, 1024, 1024, 0, 6, 3940, 3943, 3957, 3954, 3979, 3974, 0, 1, 7500, -89.900, 0.000, -33.900, 0.000, 0.100, -3.200, 0.0, , , , , , 98, , , 15, 15, 15
38.8912883, -120.7647842, 6.900, 12:19:48.269, 12, 0.10, 0.39, 97, 0.800, 0.900, -33.300, 389, 100, 100, 26, 23763, -22991, 5271, 5491, 11, 14, 1527016788.270, 56, 0, 1024, 1024, 1024, 1024, 0, 6, 3940, 3943, 3957, 3954, 3979, 3974, 0, 1, 7601, -90.000, 0.000, -33.900, 0.000, 0.100, -3.100, 0.0, , , , , , 98, , , 15, 15, 15
38.8912884, -120.7647841, 7.200, 12:19:48.369, 12, 0.10, 0.38, 97, 0.400, 0.500, -33.300, 389, 100, 100, 26, 23763, -22991, 5271, 5491, 11, 14, 1527016788.370, 53, 0, 1024, 1024, 1024, 1024, 0, 6, 3940, 3943, 3957, 3954, 3979, 3974, 0, 1, 7701, -90.000, 0.000, -33.900, 0.000, 0.100, -3.100, 0.0, , , , , , 98, , , 15, 15, 15
38.8912884, -120.7647840, 7.500, 12:19:48.469, 12, 0.10, 0.37, 97, 0.100, 0.300, -33.200, 389, 100, 100, 26, 23763, -22991, 5271, 5491, 11, 14, 1527016788.470, 42, 0, 1024, 1024, 1024, 1024, 0, 6, 3940, 3943, 3957, 3954, 3979, 3974, 0, 1, 7800, -90.000, 0.000, -33.900, 0.000, 0.100, -3.100, 0.0, , , , , , 98, , , 15, 15, 15
38.8912884, -120.7647838, 7.800, 12:19:48.569, 12, 0.10, 0.35, 97, 0.000, 0.300, -33.100, 389, 100, 100, 26, 23763, -22991, 5271, 5491, 11, 14, 1527016788.570, 42, 0, 1024, 1024, 1024, 1024, 0, 6, 3940, 3943, 3957, 3954, 3979, 3974, 0, 1, 7900, -90.000, 0.000, -33.900, 0.000, 0.100, -3.100, 0.0, , , , , , 98, , , 15, 15, 15
38.8912885, -120.7647835, 8.500, 12:19:48.669, 13, 0.10, 0.32, 97, -0.100, 0.500, -33.000, 389, 100, 100, 26, 23763, -22991, 5271, 5491, 11, 14, 1527016788.670, 35, 0, 1024, 1024, 1024, 1024, 0, 6, 3940, 3943, 3957, 3954, 3979, 3974, 0, 1, 8001, -89.900, 0.000, -33.900, 0.000, 0.100, -3.100, 0.0, , , , , , 98, , , 15, 15, 15
38.8912886, -120.7647833, 8.800, 12:19:48.769, 15, 0.10, 0.31, 97, -0.300, 0.400, -33.000, 389, 100, 98, 26, 23763, -22991, 5271, 5491, 11, 14, 1527016788.770, 14, 0, 1024, 1024, 1024, 1024, 0, 6, 3940, 3943, 3957, 3954, 3979, 3974, 0, 1, 8100, -89.900, 0.000, -33.900, 0.000, 0.100, -3.000, 0.0, , , , , , 98, , , 15, 15, 15
38.8912887, -120.7647832, 9.100, 12:19:48.869, 15, 0.10, 0.30, 97, -0.600, 0.300, -32.900, 389, 100, 98, 26, 23763, -22991, 5271, 5491, 11, 14, 1527016788.870, 18, 0, 1024, 1024, 1024, 1024, 0, 6, 3940, 3943, 3957, 3954, 3979, 3974, 0, 1, 8200, -90.000, 0.000, -33.900, 0.000, 0.100, -3.000, 0.0, , , , , , 98, , , 15, 15, 15
38.8912887, -120.7647831, 9.400, 12:19:48.970, 16, 0.10, 0.29, 97, -0.800, 0.400, -32.900, 389, 100, 98, 26, 23763, -22991, 5271, 5491, 11, 14, 1527016788.971, 7, 0, 1024, 1024, 1024, 1024, 0, 6, 3940, 3943, 3957, 3954, 3979, 3974, 0, 1, 8301, -90.000, 0.000, -33.900, 0.000, 0.100, -3.000, 0.0, , , , , , 98, , , 15, 15, 15
38.8912887, -120.7647830, 9.700, 12:19:49.087, 16, 0.10, 0.27, 97, -0.700, 0.500, -32.900, 389, 100, 98, 26, 23763, -22991, 5271, 5491, 11, 14, 1527016789.088, 6, 0, 1024, 1024, 1024, 1024, 0, 6, 3940, 3943, 3957, 3954, 3979, 3974, 0, 1, 8419, -90.000, 0.000, -33.900, 0.000, 0.100, -3.000, 0.0, , , , , , 98, , , 15, 15, 15
38.8912887, -120.7647830, 9.700, 12:19:49.169, 16, 0.10, 0.27, 96, -0.700, 0.500, -32.900, 389, 100, 98, 26, 23952, -18924, 5271, 5491, 11, 14, 1527016789.169, 87, 0, 1024, 1024, 1024, 1024, 0, 6, 3940, 3943, 3957, 3954, 3979, 3974, 0, 1, 8500, -90.000, 0.000, -33.900, 0.000, 0.100, -3.000, 0.0, , , , , , 98, , , 15, 15, 15
38.8912887, -120.7647828, 10.100, 12:19:49.269, 13, 0.10, 0.26, 96, -0.600, 0.300, -32.900, 389, 100, 98, 26, 23952, -18924, 5271, 5491, 11, 14, 1527016789.269, 97, 0, 1024, 1024, 1024, 1024, 0, 6, 3940, 3943, 3957, 3954, 3979, 3974, 0, 1, 8600, -90.000, 0.000, -33.900, 0.000, 0.100, -3.000, 0.0, , , , , , 98, , , 15, 15, 15
38.8912887, -120.7647826, 10.400, 12:19:49.369, 13, 0.10, 0.24, 96, -0.500, 0.200, -32.900, 389, 100, 97, 26, 23952, -18924, 5271, 5491, 11, 14, 1527016789.369, 85, 0, 1024, 1024, 1024, 1024, 0, 6, 3940, 3943, 3957, 3954, 3979, 3974, 0, 1, 8700, -90.000, 0.000, -33.900, 0.000, 0.100, -3.000, 0.0, , , , , , 98, , , 15, 15, 15
38.8912888, -120.7647824, 10.700, 12:19:49.479, 14, 0.10, 0.23, 96, -0.600, 0.100, -32.900, 389, 100, 97, 26, 23952, -18924, 5271, 5491, 11, 14, 1527016789.480, 23, 0, 1024, 1024, 1024, 1024, 0, 6, 3988, 3986, 3996, 3996, 4011, 4005, 0, 1, 8811, -90.000, 0.000, -33.900, 0.000, 0.100, -3.000, 0.0, , , , , , 98, , , 15, 15, 15
38.8912888, -120.7647823, 11.000, 12:19:49.581, 14, 0.10, 0.22, 96, -0.800, 0.000, -32.900, 389, 100, 97, 26, 23952, -18924, 5271, 5491, 11, 14, 1527016789.582, 11, 0, 1024, 1024, 1024, 1024, 0, 6, 3988, 3986, 3996, 3996, 4011, 4005, 0, 1, 8912, -90.000, 0.000, -33.900, 0.000, 0.100, -3.000, 0.0, , , , , , 98, , , 15, 15, 15
38.8912888, -120.7647823, 11.000, 12:19:49.669, 14, 0.10, 0.22, 96, -0.800, 0.000, -32.900, 389, 100, 97, 26, 23952, -18924, 5271, 5491, 11, 14, 1527016789.670, 99, 0, 1024, 1024, 1024, 1024, 0, 6, 3988, 3986, 3996, 3996, 4011, 4005, 0, 1, 9000, -90.000, 0.000, -33.900, 0.000, 0.100, -3.000, 0.0, , , , , , 98, , , 15, 15, 15
38.8912888, -120.7647821, 11.300, 12:19:49.769, 14, 0.00, 0.20, 96, -0.900, 0.000, -32.900, 389, 100, 97, 26, 23952, -18924, 5271, 5491, 11, 14, 1527016789.770, 33, 0, 1024, 1024, 1024, 1024, 0, 6, 3988, 3986, 3996, 3996, 4011, 4005, 0, 1, 9101, -90.000, 0.000, -33.900, 0.000, 0.000, -3.000, 0.0, , , , , , 98, , , 15, 15, 15
38.8912888, -120.7647820, 11.600, 12:19:49.869, 14, 0.00, 0.19, 96, -1.000, 0.000, -32.900, 389, 100, 97, 26, 23952, -18924, 5271, 5491, 11, 14, 1527016789.870, 18, 0, 1024, 1024, 1024, 1024, 0, 6, 3988, 3986, 3996, 3996, 4011, 4005, 0, 1, 9201, -90.000, 0.000, -33.900, 0.000, 0.000, -3.000, 0.0, , , , , , 98, , , 15, 15, 15
38.8912888, -120.7647820, 11.600, 12:19:49.969, 14, 0.00, 0.19, 96, -1.000, 0.000, -32.900, 389, 100, 97, 26, 23952, -18924, 5271, 5491, 11, 14, 1527016789.969, 118, 0, 1024, 1024, 1024, 1024, 0, 6, 3988, 3986, 3996, 3996, 4011, 4005, 0, 1, 9300, -90.000, 0.000, -33.900, 0.000, 0.000, -3.000, 0.0, , , , , , 98, , , 15, 15, 15
38.8912888, -120.7647818, 11.900, 12:19:50.069, 12, 0.00, 0.18, 96, -1.000, 0.000, -32.900, 389, 100, 97, 26, 23952, -18924, 5271, 5491, 11, 14, 1527016790.069, 79, 0, 1024, 1024, 1024, 1024, 0, 6, 3988, 3986, 3996, 3996, 4011, 4005, 0, 1, 9400, -90.000, 0.000, -33.900, 0.000, 0.000, -3.000, 0.0, , , , , , 98, , , 15, 15, 15
38.8912888, -120.7647818, 11.900, 12:19:50.169, 12, 0.00, 0.18, 96, -1.000, 0.000, -32.900, 389, 100, 97, 26, 23952, -18924, 5271, 5491, 11, 14, 1527016790.170, 179, 0, 1024, 1024, 1024, 1024, 0, 6, 3988, 3986, 3996, 3996, 4011, 4005, 0, 1, 9501, -90.000, 0.000, -33.900, 0.000, 0.000, -3.000, 0.0, , , , , , 98, , , 15, 15, 15
38.8912888, -120.7647818, 11.900, 12:19:50.269, 12, 0.00, 0.18, 96, -1.000, 0.000, -32.900, 389, 100, 97, 26, 23952, -18924, 5271, 5491, 11, 14, 1527016790.269, 279, 0, 1024, 1024, 1024, 1024, 0, 6, 3988, 3986, 3996, 3996, 4011, 4005, 0, 1, 9600, -90.000, 0.000, -33.900, 0.000, 0.000, -3.000, 0.0, , , , , , 98, , , 15, 15, 15
38.8912888, -120.7647818, 11.900, 12:19:50.369, 12, 0.00, 0.18, 96, -1.000, 0.000, -32.900, 389, 100, 97, 26, 23952, -18924, 5271, 5491, 11, 14, 1527016790.369, 379, 0, 1024, 1024, 1024, 1024, 0, 6, 3988, 3986, 3996, 3996, 4011, 4005, 0, 1, 9700, -90.000, 0.000, -33.900, 0.000, 0.000, -3.000, 0.0, , , , , , 98, , , 15, 15, 15
38.8912888, -120.7647816, 12.800, 12:19:50.469, 14, 0.00, 0.15, 96, -0.900, 0.100, -32.900, 389, 100, 97, 26, 24025, -18099, 5271, 5491, 11, 14, 1527016790.469, 52, 0, 1024, 1024, 1024, 1024, 0, 6, 3997, 3989, 4008, 3993, 4022, 4004, 0, 1, 9800, -90.000, 0.000, -33.900, 0.000, 0.000, -2.900, 0.0, , , , , , 98, , , 15, 15, 15
38.8912888, -120.7647815, 13.100, 12:19:50.569, 13, 0.00, 0.15, 96, -0.800, 0.100, -32.900, 389, 100, 99, 26, 24025, -18099, 5271, 5491, 11, 14, 1527016790.569, 97, 0, 1024, 1024, 1024, 1024, 0, 6, 3997, 3989, 4008, 3993, 4022, 4004, 0, 1, 9900, -90.000, 0.000, -33.900, 0.000, 0.000, -2.900, 0.0, , , , , , 98, , , 15, 15, 15
38.8912888, -120.7647818, 13.700, 12:19:50.669, 13, 0.00, 0.17, 96, -0.200, 0.300, -32.900, 389, 100, 99, 26, 24025, -18099, 5271, 5491, 11, 14, 1527016790.670, 17, 0, 1024, 1024, 1024, 1024, 0, 6, 3997, 3989, 4008, 3993, 4022, 4004, 0, 1, 10001, -89.900, 0.000, -33.900, 0.000, 0.000, -2.900, 0.0, , , , , , 98, , , 15, 15, 15
38.8912888, -120.7647818, 13.700, 12:19:50.769, 13, 0.00, 0.17, 96, -0.200, 0.300, -32.900, 389, 100, 99, 26, 24025, -18099, 5271, 5491, 11, 14, 1527016790.769, 117, 0, 1024, 1024, 1024, 1024, 0, 6, 3997, 3989, 4008, 3993, 4022, 4004, 0, 1, 10100, -89.900, 0.000, -33.900, 0.000, 0.000, -2.900, 0.0, , , , , , 98, , , 15, 15, 15
38.8912888, -120.7647817, 14.100, 12:19:50.869, 13, 0.00, 0.17, 96, 0.000, 0.400, -32.900, 389, 100, 99, 26, 24025, -18099, 5271, 5491, 11, 14, 1527016790.870, 53, 0, 1024, 1024, 1024, 1024, 0, 6, 3997, 3989, 4008, 3993, 4022, 4004, 0, 1, 10201, -89.900, 0.000, -33.900, 0.000, 0.000, -3.000, 0.0, , , , , , 98, , , 15, 15, 15
38.8912888, -120.7647817, 14.400, 12:19:50.969, 15, 0.00, 0.17, 96, -0.100, 0.400, -32.900, 389, 100, 99, 26, 24025, -18099, 5271, 5491, 11, 14, 1527016790.970, 69, 0, 1024, 1024, 1024, 1024, 0, 6, 3997, 3989, 4008, 3993, 4022, 4004, 0, 1, 10300, -89.900, 0.000, -33.900, 0.000, 0.000, -3.000, 0.0, , , , , , 98, , , 15, 15, 15
38.8912888, -120.7647818, 14.700, 12:19:51.069, 15, 0.00, 0.17, 96, -0.200, 0.500, -32.900, 389, 100, 99, 26, 24025, -18099, 5271, 5491, 11, 14, 1527016791.069, 37, 0, 1024, 1024, 1024, 1024, 0, 6, 3997, 3989, 4008, 3993, 4022, 4004, 0, 1, 10400, -89.900, 0.000, -33.900, 0.000, 0.000, -2.900, 0.0, , , , , , 98, , , 15, 15, 15
38.8912888, -120.7647818, 15.000, 12:19:51.173, 14, 0.00, 0.17, 96, -0.200, 0.500, -33.000, 389, 100, 99, 26, 24025, -18099, 5271, 5491, 11, 14, 1527016791.173, 14, 0, 1024, 1024, 1024, 1024, 0, 6, 3997, 3989, 4008, 3993, 4022, 4004, 0, 1, 10504, -89.900, 0.000, -33.900, 0.000, 0.000, -2.900, 0.0, , , , , , 98, , , 15, 15, 15
38.8912887, -120.7647818, 15.600, 12:19:51.269, 15, 0.00, 0.17, 96, 0.000, 0.300, -33.100, 389, 100, 99, 26, 24025, -18099, 5271, 5491, 11, 14, 1527016791.270, 54, 0, 1024, 1024, 1024, 1024, 0, 6, 3997, 3989, 4008, 3993, 4022, 4004, 0, 1, 10601, -90.000, 0.000, -33.900, 0.000, 0.000, -2.900, 0.0, , , , , , 98, , , 15, 15, 15
38.8912887, -120.7647819, 16.200, 12:19:51.378, 17, 0.00, 0.18, 96, 0.000, 0.300, -33.300, 389, 100, 99, 26, 24042, -17401, 5271, 5491, 11, 14, 1527016791.379, 14, 0, 1024, 1024, 1024, 1024, 0, 6, 3997, 3989, 4008, 3993, 4022, 4004, 0, 1, 10710, -90.000, 0.000, -33.900, 0.000, 0.000, -2.900, 0.0, , , , , , 98, , , 15, 15, 15
38.8912886, -120.7647819, 16.500, 12:19:51.469, 17, 0.00, 0.18, 96, 0.100, 0.200, -33.300, 389, 100, 99, 26, 24042, -17401, 5271, 5491, 11, 14, 1527016791.469, 23, 0, 1024, 1024, 1024, 1024, 0, 6, 3997, 3989, 4008, 3993, 4022, 4004, 0, 1, 10800, -90.000, 0.000, -33.900, 0.000, 0.000, -2.900, 0.0, , , , , , 98, , , 15, 15, 15
38.8912886, -120.7647821, 17.000, 12:19:51.569, 16, 0.00, 0.20, 96, 0.300, 0.400, -33.300, 389, 100, 99, 26, 24042, -17401, 5271, 5491, 11, 14, 1527016791.570, 7, 0, 1024, 1024, 1024, 1024, 0, 6, 3997, 3989, 4008, 3993, 4022, 4004, 0, 1, 10900, -89.900, 0.000, -33.900, 0.000, 0.000, -2.900, 0.0, , , , , , 98, , , 15, 15, 15
38.8912886, -120.7647822, 17.400, 12:19:51.669, 17, 0.00, 0.21, 96, 0.600, 0.600, -33.300, 389, 100, 99, 26, 24042, -17401, 5271, 5491, 11, 14, 1527016791.669, 57, 0, 1024, 1024, 1024, 1024, 0, 6, 3996, 3988, 4003, 4009, 4024, 4017, 0, 1, 11000, -89.900, 0.000, -33.900, 0.000, 0.000, -2.900, 0.0, , , , , , 98, , , 15, 15, 15
38.8912886, -120.7647823, 17.600, 12:19:51.769, 17, 0.00, 0.22, 96, 0.600, 0.700, -33.100, 389, 100, 100, 26, 24042, -17401, 5271, 5491, 11, 14, 1527016791.770, 98, 0, 1024, 1024, 1024, 1024, 0, 6, 3996, 3988, 4003, 4009, 4024, 4017, 0, 1, 11101, -89.900, 0.000, -33.900, 0.000, 0.000, -2.900, 0.0, , , , , , 98, , , 15, 15, 15
38.8912886, -120.7647824, 18.000, 12:19:51.869, 17, 0.00, 0.23, 96, 0.600, 0.800, -33.000, 389, 100, 100, 26, 24042, -17401, 5271, 5491, 11, 14, 1527016791.870, 89, 0, 1024, 1024, 1024, 1024, 0, 6, 3996, 3988, 4003, 4009, 4024, 4017, 0, 1, 11201, -89.900, 0.000, -33.900, 0.000, 0.000, -2.900, 0.0, , , , , , 98, , , 15, 15, 15
38.8912886, -120.7647824, 18.300, 12:19:51.969, 17, 0.00, 0.23, 96, 0.500, 0.800, -32.900, 389, 100, 100, 26, 24042, -17401, 5271, 5491, 11, 14, 1527016791.969, 88, 0, 1024, 1024, 1024, 1024, 0, 6, 3996, 3988, 4003, 4009, 4024, 4017, 0, 1, 11300, -89.900, 0.000, -33.900, 0.000, 0.000, -3.000, 0.0, , , , , , 98, , , 15, 15, 15
38.8912886, -120.7647825, 18.600, 12:19:52.069, 17, 0.00, 0.24, 96, 0.400, 0.600, -32.800, 389, 100, 100, 26, 24042, -17401, 5271, 5491, 11, 14, 1527016792.069, 81, 0, 1024, 1024, 1024, 1024, 0, 6, 3996, 3988, 4003, 4009, 4024, 4017, 0, 1, 11400, -90.000, 0.000, -33.900, 0.000, 0.000, -2.900, 0.0, , , , , , 98, , , 15, 15, 15
38.8912885, -120.7647826, 18.900, 12:19:52.169, 17, 0.00, 0.24, 96, 0.300, 0.400, -32.800, 389, 100, 100, 26, 24042, -17401, 5271, 5491, 11, 14, 1527016792.170, 84, 0, 1024, 1024, 1024, 1024, 0, 6, 3996, 3988, 4003, 4009, 4024, 4017, 0, 1, 11501, -90.000, 0.000, -33.900, 0.000, 0.000, -3.000, 0.0, , , , , , 98, , , 15, 15, 15
38.8912885, -120.7647826, 19.200, 12:19:52.269, 18, 0.00, 0.25, 96, 0.300, 0.300, -32.800, 389, 100, 100, 26, 24042, -17401, 5271, 5491, 11, 14, 1527016792.270, 73, 0, 1024, 1024, 1024, 1024, 0, 6, 3996, 3988, 4003, 4009, 4024, 4017, 0, 1, 11601, -90.000, 0.000, -33.900, 0.000, 0.000, -2.900, 0.0, , , , , , 98, , , 15, 15, 15
38.8912885, -120.7647827, 19.500, 12:19:52.369, 18, 0.00, 0.25, 96, 0.400, 0.400, -32.800, 389, 100, 100, 26, 24042, -17401, 5271, 5491, 11, 14, 1527016792.369, 66, 0, 1024, 1024, 1024, 1024, 0, 6, 3996, 3988, 4003, 4009, 4024, 4017, 0, 1, 11700, -89.900, 0.000, -33.900, 0.000, 0.000, -2.900, 0.0, , , , , , 98, , , 15, 15, 15
38.8912885, -120.7647827, 19.800, 12:19:52.469, 18, 0.00, 0.26, 96, 0.500, 0.500, -32.700, 389, 100, 100, 26, 24042, -17401, 5271, 5491, 11, 14, 1527016792.469, 73, 0, 1024, 1024, 1024, 1024, 0, 6, 3996, 3988, 4003, 4009, 4024, 4017, 0, 1, 11800, -89.900, 0.000, -33.900, 0.000, 0.000, -3.000, 0.0, , , , , , 98, , , 15, 15, 15
38.8912885, -120.7647828, 20.100, 12:19:52.569, 18, 0.00, 0.26, 96, 0.400, 0.500, -32.600, 389, 100, 100, 26, 24042, -17401, 5271, 5491, 11, 14, 1527016792.570, 69, 0, 1024, 1024, 1024, 1024, 0, 6, 3996, 3988, 4003, 4009, 4024, 4017, 0, 1, 11901, -89.900, 0.000, -33.900, 0.000, 0.000, -2.900, 0.0, , , , , , 98, , , 15, 15, 15
38.8912886, -120.7647828, 20.400, 12:19:52.669, 18, 0.00, 0.26, 96, 0.100, 0.500, -32.600, 389, 100, 100, 26, 24049, -17401, 5271, 5491, 11, 14, 1527016792.670, 73, 0, 1024, 1024, 1024, 1024, 0, 6, 4000, 3997, 4000, 3998, 4016, 4013, 0, 1, 12001, -89.900, 0.000, -33.900, 0.000, 0.000, -2.800, 0.0, , , , , , 98, , , 15, 15, 15
38.8912886, -120.7647829, 20.700, 12:19:52.770, 18, 0.00, 0.27, 96, 0.000, 0.400, -32.600, 389, 100, 100, 26, 24049, -17401, 5271, 5491, 11, 14, 1527016792.770, 64, 0, 1024, 1024, 1024, 1024, 0, 6, 4000, 3997, 4000, 3998, 4016, 4013, 0, 1, 12101, -90.000, 0.000, -33.900, 0.000, 0.000, -2.900, 0.0, , , , , , 98, , , 15, 15, 15
38.8912886, -120.7647829, 21.000, 12:19:52.869, 19, 0.00, 0.27, 96, -0.100, 0.400, -32.700, 389, 100, 100, 26, 24049, -17401, 5271, 5491, 11, 14, 1527016792.869, 52, 0, 1024, 1024, 1024, 1024, 0, 6, 4000, 3997, 4000, 3998, 4016, 4013, 0, 1, 12200, -90.000, 0.000, -33.900, 0.000, 0.000, -2.900, 0.0, , , , , , 98, , , 15, 15, 15
38.8912886, -120.7647829, 21.300, 12:19:52.969, 19, 0.00, 0.27, 96, -0.300, 0.400, -32.700, 389, 100, 100, 26, 24049, -17401, 5271, 5491, 11, 14, 1527016792.970, 53, 0, 1024, 1024, 1024, 1024, 0, 6, 4000, 3997, 4000, 3998, 4016, 4013, 0, 1, 12300, -90.000, 0.000, -33.900, 0.000, 0.000, -2.900, 0.0, , , , , , 98, , , 15, 15, 15
38.8912886, -120.7647828, 21.600, 12:19:53.069, 19, 0.00, 0.27, 96, -0.300, 0.400, -32.800, 389, 100, 100, 26, 24049, -17401, 5271, 5491, 11, 14, 1527016793.070, 31, 0, 1024, 1024, 1024, 1024, 0, 6, 4000, 3997, 4000, 3998, 4016, 4013, 0, 1, 12401, -90.000, 0.000, -33.900, 0.000, 0.000, -2.900, 0.0, , , , , , 98, , , 15, 15, 15
38.8912886, -120.7647829, 21.900, 12:19:53.169, 19, 0.00, 0.27, 96, -0.400, 0.300, -32.900, 389, 100, 100, 26, 24049, -17401, 5271, 5491, 11, 14, 1527016793.169, 28, 0, 1024, 1024, 1024, 1024, 0, 6, 4000, 3997, 4000, 3998, 4016, 4013, 0, 1, 12500, -90.000, 0.000, -33.900, 0.000, 0.000, -2.900, 0.0, , , , , , 98, , , 15, 15, 15
38.8912886, -120.7647829, 22.200, 12:19:53.269, 19, 0.00, 0.27, 96, -0.400, 0.300, -32.900, 389, 100, 100, 26, 24049, -17401, 5271, 5491, 11, 14, 1527016793.270, 31, 0, 1024, 1024, 1024, 1024, 0, 6, 4000, 3997, 4000, 3998, 4016, 4013, 0, 1, 12600, -90.000, 0.000, -33.900, 0.000, 0.000, -2.900, 0.0, , , , , , 98, , , 15, 15, 15
38.8912886, -120.7647828, 22.500, 12:19:53.369, 19, 0.00, 0.26, 96, -0.400, 0.200, -33.000, 389, 100, 100, 26, 24049, -17401, 5271, 5491, 11, 14, 1527016793.370, 14, 0, 1024, 1024, 1024, 1024, 0, 6, 4000, 3997, 4000, 3998, 4016, 4013, 0, 1, 12701, -90.000, 0.000, -33.900, 0.000, 0.000, -2.900, 0.0, , , , , , 98, , , 15, 15, 15
38.8912886, -120.7647828, 22.800, 12:19:53.469, 19, 0.00, 0.26, 96, -0.500, 0.300, -33.000, 389, 100, 100, 26, 24049, -17401, 5271, 5491, 11, 14, 1527016793.470, 35, 0, 1024, 1024, 1024, 1024, 0, 6, 4000, 3997, 4000, 3998, 4016, 4013, 0, 1, 12801, -90.000, 0.000, -33.900, 0.000, 0.000, -2.900, 0.0, , , , , , 98, , , 15, 15, 15
38.8912886, -120.7647827, 23.100, 12:19:53.569, 19, 0.00, 0.26, 96, -0.700, 0.300, -33.000, 389, 100, 100, 26, 24049, -17401, 5271, 5491, 11, 14, 1527016793.570, 37, 0, 1024, 1024, 1024, 1024, 0, 6, 4000, 3997, 4000, 3998, 4016, 4013, 0, 1, 12900, -89.900, 0.000, -33.900, 0.000, 0.000, -2.800, 0.0, , , , , , 98, , , 15, 15, 15
38.8912885, -120.7647827, 23.600, 12:19:53.669, 19, 0.00, 0.26, 96, -0.600, 0.200, -33.000, 389, 100, 100, 26, 24014, -16793, 5271, 5491, 11, 14, 1527016793.670, 35, 0, 1024, 1024, 1024, 1024, 0, 6, 3999, 3991, 4012, 4021, 4027, 4015, 0, 1, 13000, -90.000, 0.000, -33.900, 0.000, 0.000, -2.800, 0.0, , , , , , 98, , , 15, 15, 15
38.8912885, -120.7647827, 23.900, 12:19:53.769, 19, 0.00, 0.26, 96, -0.500, 0.200, -32.900, 389, 100, 100, 26, 24014, -16793, 5271, 5491, 11, 14, 1527016793.770, 10, 0, 1024, 1024, 1024, 1024, 0, 6, 3999, 3991, 4012, 4021, 4027, 4015, 0, 1, 13101, -90.000, 0.000, -33.900, 0.000, 0.000, -2.900, 0.0, , , , , , 98, , , 15, 15, 15
38.8912885, -120.7647827, 24.200, 12:19:53.869, 19, 0.00, 0.26, 96, -0.400, 0.200, -32.900, 389, 100, 100, 26, 24014, -16793, 5271, 5491, 11, 14, 1527016793.870, 22, 0, 1024, 1024, 1024, 1024, 0, 6, 3999, 3991, 4012, 4021, 4027, 4015, 0, 1, 13201, -90.000, 0.000, -33.900, 0.000, 0.000, -2.900, 0.0, , , , , , 98, , , 15, 15, 15
38.8912884, -120.7647827, 24.500, 12:19:53.969, 19, 0.10, 0.25, 96, -0.400, 0.100, -32.900, 389, 100, 100, 26, 24014, -16793, 5271, 5491, 11, 14, 1527016793.970, 7, 0, 1024, 1024, 1024, 1024, 0, 6, 3999, 3991, 4012, 4021, 4027, 4015, 0, 1, 13301, -90.000, 0.000, -33.900, 0.000, 0.100, -2.900, 0.0, , , , , , 98, , , 15, 15, 15
38.8912884, -120.7647826, 24.800, 12:19:54.073, 19, 0.10, 0.25, 96, -0.500, 0.000, -32.900, 389, 100, 100, 26, 24014, -16793, 5271, 5491, 11, 14, 1527016794.073, 6, 0, 1024, 1024, 1024, 1024, 0, 6, 3999, 3991, 4012, 4021, 4027, 4015, 0, 1, 13404, -90.000, 0.000, -33.900, 0.000, 0.100, -2.900, 0.0, , , , , , 98, , , 15, 15, 15
38.8912884, -120.7647826, 25.100, 12:19:54.172, 19, 0.10, 0.25, 96, -0.600, 0.000, -32.900, 389, 100, 100, 26, 24014, -16793, 5271, 5491, 11, 14, 1527016794.173, 5, 0, 1024, 1024, 1024, 1024, 0, 6, 3999, 3991, 4012, 4021, 4027, 4015, 0, 1, 13504, -90.000, 0.000, -33.900, 0.000, 0.100, -2.900, 0.0, , , , , , 98, , , 15, 15, 15
38.8912884, -120.7647826, 25.100, 12:19:54.269, 19, 0.10, 0.25, 96, -0.600, 0.000, -32.900, 389, 100, 100, 26, 24014, -16793, 5271, 5491, 11, 14, 1527016794.270, 102, 0, 1024, 1024, 1024, 1024, 0, 6, 3999, 3991, 4012, 4021, 4027, 4015, 0, 1, 13601, -90.000, 0.000, -33.900, 0.000, 0.100, -2.900, 0.0, , , , , , 98, , , 15, 15, 15
38.8912883, -120.7647824, 25.700, 12:19:54.374, 19, 0.10, 0.24, 96, -0.700, -0.200, -32.900, 389, 100, 100, 26, 24014, -16793, 5271, 5491, 11, 14, 1527016794.377, 14, 0, 1024, 1024, 1024, 1024, 0, 6, 3999, 3991, 4012, 4021, 4027, 4015, 0, 1, 13708, -90.000, 0.000, -33.900, 0.000, 0.100, -2.900, 0.0, , , , , , 98, , , 15, 15, 15
38.8912883, -120.7647824, 26.000, 12:19:54.473, 19, 0.10, 0.24, 96, -0.700, -0.300, -32.900, 389, 100, 100, 26, 24014, -16793, 5271, 5491, 11, 14, 1527016794.473, 5, 0, 1024, 1024, 1024, 1024, 0, 6, 3999, 3991, 4012, 4021, 4027, 4015, 0, 1, 13804, -90.000, 0.000, -33.900, 0.000, 0.100, -2.900, 0.0, , , , , , 98, , , 15, 15, 15
38.8912883, -120.7647823, 26.300, 12:19:54.570, 19, 0.10, 0.23, 96, -0.800, -0.300, -32.900, 389, 100, 100, 26, 24014, -16793, 5271, 5491, 11, 14, 1527016794.571, 4, 0, 1024, 1024, 1024, 1024, 0, 6, 3999, 3991, 4012, 4021, 4027, 4015, 0, 1, 13902, -90.000, 0.000, -33.900, 0.000, 0.100, -2.900, 0.0, , , , , , 98, , , 15, 15, 15
38.8912883, -120.7647823, 26.300, 12:19:54.669, 19, 0.10, 0.23, 96, -0.800, -0.300, -32.900, 389, 100, 100, 26, 23969, -17346, 5271, 5491, 11, 14, 1527016794.670, 103, 0, 1024, 1024, 1024, 1024, 0, 6, 3985, 3983, 3994, 3993, 4012, 4004, 0, 1, 14001, -90.000, 0.000, -33.900, 0.000, 0.100, -2.900, 0.0, , , , , , 98, , , 15, 15, 15
38.8912882, -120.7647822, 26.900, 12:19:54.772, 19, 0.10, 0.22, 96, -0.700, -0.500, -32.900, 389, 100, 100, 26, 23969, -17346, 5271, 5491, 11, 14, 1527016794.772, 5, 0, 1024, 1024, 1024, 1024, 0, 6, 3985, 3983, 3994, 3993, 4012, 4004, 0, 1, 14103, -90.000, 0.000, -33.900, 0.000, 0.100, -2.800, 0.0, , , , , , 98, , , 15, 15, 15
38.8912882, -120.7647822, 26.900, 12:19:54.869, 19, 0.10, 0.22, 96, -0.700, -0.500, -32.900, 389, 100, 100, 26, 23969, -17346, 5271, 5491, 11, 14, 1527016794.870, 102, 0, 1024, 1024, 1024, 1024, 0, 6, 3985, 3983, 3994, 3993, 4012, 4004, 0, 1, 14201, -90.000, 0.000, -33.900, 0.000, 0.100, -2.800, 0.0, , , , , , 98, , , 15, 15, 15
38.8912882, -120.7647821, 27.200, 12:19:54.969, 19, 0.00, 0.22, 96, -0.700, -0.700, -32.900, 389, 100, 100, 26, 23969, -17346, 5271, 5491, 11, 14, 1527016794.970, 69, 0, 1024, 1024, 1024, 1024, 0, 6, 3985, 3983, 3994, 3993, 4012, 4004, 0, 1, 14300, -90.000, 0.000, -33.900, 0.000, 0.000, -2.900, 0.0, , , , , , 98, , , 15, 15, 15
38.8912882, -120.7647821, 27.500, 12:19:55.069, 19, 0.00, 0.22, 96, -0.700, -0.600, -32.900, 389, 100, 100, 26, 23969, -17346, 5271, 5491, 11, 14, 1527016795.070, 81, 0, 1024, 1024, 1024, 1024, 0, 6, 3985, 3983, 3994, 3993, 4012, 4004, 0, 1, 14401, -90.000, 0.000, -33.900, 0.000, 0.000, -2.900, 0.0, , , , , , 98, , , 15, 15, 15
38.8912882, -120.7647821, 27.800, 12:19:55.169, 19, 0.00, 0.22, 96, -0.700, -0.400, -32.900, 389, 100, 100, 26, 23969, -17346, 5271, 5491, 11, 14, 1527016795.169, 74, 0, 1024, 1024, 1024, 1024, 0, 6, 3985, 3983, 3994, 3993, 4012, 4004, 0, 1, 14500, -90.000, 0.000, -33.900, 0.000, 0.000, -2.900, 0.0, , , , , , 98, , , 15, 15, 15
38.8912881, -120.7647820, 28.100, 12:19:55.269, 19, 0.00, 0.21, 96, -0.700, -0.400, -32.900, 389, 100, 100, 26, 23969, -17346, 5271, 5491, 11, 14, 1527016795.269, 73, 0, 1024, 1024, 1024, 1024, 0, 6, 3985, 3983, 3994, 3993, 4012, 4004, 0, 1, 14600, -89.900, 0.000, -33.900, 0.000, 0.000, -3.000, 0.0, , , , , , 98, , , 15, 15, 15
38.8912882, -120.7647820, 28.400, 12:19:55.369, 19, 0.00, 0.21, 96, -0.700, -0.300, -33.000, 389, 100, 100, 26, 23969, -17346, 5271, 5491, 11, 14, 1527016795.370, 43, 0, 1024, 1024, 1024, 1024, 0, 6, 3985, 3983, 3994, 3993, 4012, 4004, 0, 1, 14700, -90.000, 0.000, -33.900, 0.000, 0.000, -2.900, 0.0, , , , , , 98, , , 15, 15, 15
38.8912882, -120.7647820, 28.700, 12:19:55.469, 18, 0.00, 0.21, 96, -0.800, -0.200, -33.000, 389, 100, 100, 26, 23969, -17346, 5271, 5491, 11, 14, 1527016795.470, 70, 0, 1024, 1024, 1024, 1024, 0, 6, 3985, 3983, 3994, 3993, 4012, 4004, 0, 1, 14801, -89.900, 0.000, -33.900, 0.000, 0.000, -2.900, 0.0, , , , , , 98, , , 15, 15, 15
38.8912882, -120.7647820, 29.000, 12:19:55.569, 18, 0.00, 0.21, 96, -0.900, 0.000, -33.000, 389, 100, 100, 26, 23969, -17346, 5271, 5491, 11, 14, 1527016795.570, 67, 0, 1024, 1024, 1024, 1024, 0, 6, 3985, 3983, 3994, 3993, 4012, 4004, 0, 1, 14901, -89.900, 0.000, -33.900, 0.000, 0.000, -3.000, 0.0, , , , , , 98, , , 15, 15, 15
38.8912882, -120.7647820, 29.300, 12:19:55.669, 18, 0.00, 0.21, 96, -1.000, 0.100, -33.000, 389, 100, 100, 26, 23896, -17511, 5271, 5491, 11, 14, 1527016795.669, 53, 0, 1024, 1024, 1024, 1024, 0, 6, 3971, 3971, 3985, 3982, 3997, 3993, 0, 1, 15000, -89.900, 0.000, -33.900, 0.000, 0.000, -2.900, 0.0, , , , , , 98, , , 15, 15, 15
38.8912882, -120.7647820, 29.600, 12:19:55.769, 18, 0.00, 0.21, 96, -0.900, 0.300, -32.900, 389, 100, 100, 26, 23896, -17511, 5271, 5491, 11, 14, 1527016795.770, 51, 0, 1024, 1024, 1024, 1024, 0, 6, 3971, 3971, 3985, 3982, 3997, 3993, 0, 1, 15101, -89.900, 0.000, -33.900, 0.000, 0.000, -2.900, 0.0, , , , , , 98, , , 15, 15, 15
38.8912882, -120.7647819, 29.900, 12:19:55.869, 18, 0.00, 0.20, 96, -0.700, 0.300, -32.900, 389, 100, 100, 26, 23896, -17511, 5271, 5491, 11, 14, 1527016795.869, 42, 0, 1024, 1024, 1024, 1024, 0, 6, 3971, 3971, 3985, 3982, 3997, 3993, 0, 1, 15200, -89.900, 0.000, -33.900, 0.000, 0.000, -2.900, 0.0, , , , , , 98, , , 15, 15, 15
38.8912882, -120.7647819, 30.500, 12:19:55.969, 18, 0.00, 0.20, 96, -0.800, 0.300, -32.800, 389, 100, 100, 26, 23896, -17511, 5271, 5491, 11, 14, 1527016795.970, 21, 0, 1024, 1024, 1024, 1024, 0, 6, 3971, 3971, 3985, 3982, 3997, 3993, 0, 1, 15301, -89.900, 0.000, -33.900, 0.000, 0.000, -2.900, 0.0, , , , , , 98, , , 15, 15, 15
38.8912882, -120.7647818, 30.800, 12:19:56.069, 18, 0.00, 0.19, 96, -1.000, 0.100, -32.700, 389, 100, 100, 26, 23896, -17511, 5271, 5491, 11, 14, 1527016796.070, 41, 0, 1024, 1024, 1024, 1024, 0, 6, 3971, 3971, 3985, 3982, 3997, 3993, 0, 1, 15400, -89.900, 0.000, -33.900, 0.000, 0.000, -3.000, 0.0, , , , , , 98, , , 15, 15, 15
38.8912882, -120.7647817, 31.100, 12:19:56.169, 18, 0.00, 0.19, 96, -1.100, -0.100, -32.700, 389, 100, 100, 26, 23896, -17511, 5271, 5491, 11, 14, 1527016796.170, 20, 0, 1024, 1024, 1024, 1024, 0, 6, 3971, 3971, 3985, 3982, 3997, 3993, 0, 1, 15500, -90.000, 0.000, -33.900, 0.000, 0.000, -2.900, 0.0, , , , , , 98, , , 15, 15, 15
38.8912882, -120.7647817, 31.400, 12:19:56.269, 18, 0.00, 0.18, 96, -1.200, -0.500, -32.700, 389, 100, 100, 26, 23896, -17511, 5271, 5491, 11, 14, 1527016796.270, 27, 0, 1024, 1024, 1024, 1024, 0, 6, 3971, 3971, 3985, 3982, 3997, 3993, 0, 1, 15601, -90.000, 0.000, -33.900, 0.000, 0.000, -2.900, 0.0, , , , , , 98, , , 15, 15, 15
38.8912882, -120.7647816, 31.700, 12:19:56.374, 18, 0.00, 0.18, 96, -1.100, -0.800, -32.700, 389, 100, 100, 26, 23896, -17511, 5271, 5491, 11, 14, 1527016796.375, 12, 0, 1024, 1024, 1024, 1024, 0, 6, 3971, 3971, 3985, 3982, 3997, 3993, 0, 1, 15706, -90.000, 0.000, -33.900, 0.000, 0.000, -2.900, 0.0, , , , , , 98, , , 15, 15, 15
38.8912882, -120.7647816, 31.700, 12:19:56.469, 18, 0.00, 0.18, 96, -1.100, -0.800, -32.700, 389, 100, 100, 26, 23896, -17511, 5271, 5491, 11, 14, 1527016796.470, 107, 0, 1024, 1024, 1024, 1024, 0, 6, 3971, 3971, 3985, 3982, 3997, 3993, 0, 1, 15801, -90.000, 0.000, -33.900, 0.000, 0.000, -2.900, 0.0, , , , , , 98, , , 15, 15, 15
38.8912882, -120.7647816, 32.300, 12:19:56.569, 18, 0.00, 0.17, 96, -1.200, -0.500, -32.700, 389, 100, 100, 26, 23896, -17511, 5271, 5491, 11, 14, 1527016796.570, 16, 0, 1024, 1024, 1024, 1024, 0, 6, 3971, 3971, 3985, 3982, 3997, 3993, 0, 1, 15901, -89.900, 0.000, -33.900, 0.000, 0.000, -2.900, 0.0, , , , , , 98, , , 15, 15, 15
38.8912882, -120.7647816, 32.300, 12:19:56.669, 18, 0.00, 0.17, 96, -1.200, -0.500, -32.700, 389, 100, 99, 26, 23868, -17838, 5271, 5491, 11, 14, 1527016796.670, 116, 0, 1024, 1024, 1024, 1024, 0, 6, 3971, 3971, 3985, 3982, 3997, 3993, 0, 1, 16001, -89.900, 0.000, -33.900, 0.000, 0.000, -2.900, 0.0, , , , , , 98, , , 15, 15, 15
38.8912882, -120.7647816, 32.300, 12:19:56.769, 18, 0.00, 0.17, 96, -1.200, -0.500, -32.700, 389, 100, 99, 26, 23868, -17838, 5271, 5491, 11, 14, 1527016796.770, 216, 0, 1024, 1024, 1024, 1024, 0, 6, 3971, 3971, 3985, 3982, 3997, 3993, 0, 1, 16101, -89.900, 0.000, -33.900, 0.000, 0.000, -2.900, 0.0, , , , , , 98, , , 15, 15, 15
38.8912882, -120.7647815, 33.000, 12:19:56.869, 18, 0.00, 0.17, 96, -1.500, 0.100, -32.600, 389, 100, 99, 26, 23868, -17838, 5271, 5491, 11, 14, 1527016796.870, 90, 0, 1024, 1024, 1024, 1024, 0, 6, 3971, 3971, 3985, 3982, 3997, 3993, 0, 1, 16201, -89.900, 0.000, -33.900, 0.000, 0.000, -2.900, 0.0, , , , , , 98, , , 15, 15, 15
38.8912882, -120.7647814, 33.300, 12:19:56.969, 18, 0.00, 0.16, 96, -1.600, 0.100, -32.700, 389, 100, 99, 26, 23868, -17838, 5271, 5491, 11, 14, 1527016796.969, 79, 0, 1024, 1024, 1024, 1024, 0, 6, 3971, 3971, 3985, 3982, 3997, 3993, 0, 1, 16300, -89.900, 0.000, -33.900, 0.000, 0.000, -3.000, 0.0, , , , , , 98, , , 15, 15, 15
38.8912882, -120.7647814, 33.600, 12:19:57.069, 18, 0.00, 0.16, 96, -1.500, 0.000, -32.800, 389, 100, 99, 26, 23868, -17838, 5271, 5491, 11, 14, 1527016797.070, 57, 0, 1024, 1024, 1024, 1024, 0, 6, 3971, 3971, 3985, 3982, 3997, 3993, 0, 1, 16401, -90.000, 0.000, -33.900, 0.000, 0.000, -3.000, 0.0, , , , , , 98, , , 15, 15, 15
38.8912883, -120.7647814, 33.900, 12:19:57.169, 18, 0.00, 0.16, 96, -1.500, -0.300, -33.100, 389, 100, 99, 26, 23868, -17838, 5271, 5491, 11, 14, 1527016797.170, 82, 0, 1024, 1024, 1024, 1024, 0, 6, 3971, 3971, 3985, 3982, 3997, 3993, 0, 1, 16501, -90.000, 0.000, -33.900, 0.000, 0.000, -3.000, 0.0, , , , , , 98, , , 15, 15, 15
38.8912883, -120.7647813, 34.200, 12:19:57.269, 18, 0.00, 0.15, 96, -1.800, -0.300, -33.300, 389, 100, 99, 26, 23868, -17838, 5271, 5491, 11, 14, 1527016797.270, 93, 0, 1024, 1024, 1024, 1024, 0, 6, 3964, 3964, 3982, 3979, 3991, 3995, 0, 1, 16601, -90.000, 0.000, -33.900, 0.000, 0.000, -3.000, 0.0, , , , , , 98, , , 15, 15, 15
38.8912883, -120.7647813, 34.500, 12:19:57.369, 18, 0.00, 0.15, 96, -1.900, -0.400, -33.400, 389, 100, 99, 26, 23868, -17838, 5271, 5491, 11, 14, 1527016797.370, 81, 0, 1024, 1024, 1024, 1024, 0, 6, 3964, 3964, 3982, 3979, 3991, 3995, 0, 1, 16700, -90.000, 0.000, -33.900, 0.000, 0.000, -3.000, 0.0, , , , , , 98, , , 15, 15, 15
38.8912884, -120.7647812, 34.800, 12:19:57.469, 18, 0.00, 0.14, 96, -2.000, -0.400, -33.400, 389, 100, 99, 26, 23868, -17838, 5271, 5491, 11, 14, 1527016797.470, 40, 0, 1024, 1024, 1024, 1024, 0, 6, 3964, 3964, 3982, 3979, 3991, 3995, 0, 1, 16800, -90.000, 0.000, -33.900, 0.000, 0.000, -3.000, 0.0, , , , , , 98, , , 15, 15, 15
38.8912884, -120.7647812, 35.100, 12:19:57.569, 18, 0.00, 0.14, 96, -1.900, -0.500, -33.400, 389, 100, 99, 26, 23868, -17838, 5271, 5491, 11, 14, 1527016797.570, 58, 0, 1024, 1024, 1024, 1024, 0, 6, 3964, 3964, 3982, 3979, 3991, 3995, 0, 1, 16901, -90.000, 0.000, -33.900, 0.000, 0.000, -3.000, 0.0, , , , , , 98, , , 15, 15, 15
38.8912884, -120.7647811, 35.400, 12:19:57.669, 18, 0.00, 0.13, 96, -2.000, -0.500, -33.400, 389, 100, 99, 26, 23868, -17838, 5271, 5491, 11, 14, 1527016797.670, 62, 0, 1024, 1024, 1024, 1024, 0, 6, 3964, 3964, 3982, 3979, 3991, 3995, 0, 1, 17000, -89.900, 0.000, -33.900, 0.000, 0.000, -3.000, 0.0, , , , , , 98, , , 15, 15, 15
38.8912884, -120.7647811, 35.700, 12:19:57.769, 18, 0.00, 0.13, 96, -2.200, -0.300, -33.400, 389, 100, 99, 26, 23868, -17838, 5271, 5491, 11, 14, 1527016797.770, 52, 0, 1024, 1024, 1024, 1024, 0, 6, 3964, 3964, 3982, 3979, 3991, 3995, 0, 1, 17101, -89.900, 0.000, -33.900, 0.000, 0.000, -3.000, 0.0, , , , , , 98, , , 15, 15, 15
38.8912885, -120.7647811, 36.100, 12:19:57.869, 18, 0.00, 0.12, 96, -2.300, -0.200, -33.400, 389, 100, 99, 26, 23868, -17838, 5271, 5491, 11, 14, 1527016797.870, 53, 0, 1024, 1024, 1024, 1024, 0, 6, 3964, 3964, 3982, 3979, 3991, 3995, 0, 1, 17200, -89.900, 0.000, -33.900, 0.000, 0.000, -2.900, 0.0, , , , , , 98, , , 15, 15, 15
38.8912885, -120.7647811, 36.400, 12:19:57.969, 18, 0.00, 0.12, 96, -2.200, -0.200, -33.400, 389, 100, 99, 26, 23868, -17838, 5271, 5491, 11, 14, 1527016797.970, 45, 0, 1024, 1024, 1024, 1024, 0, 6, 3964, 3964, 3982, 3979, 3991, 3995, 0, 1, 17301, -90.000, 0.000, -33.900, 0.000, 0.000, -2.900, 0.0, , , , , , 98, , , 15, 15, 15
38.8912886, -120.7647811, 37.000, 12:19:58.069, 18, 0.00, 0.12, 96, -1.900, -0.300, -33.100, 389, 100, 99, 26, 23868, -17838, 5271, 5491, 11, 14, 1527016798.070, 56, 0, 1024, 1024, 1024, 1024, 0, 6, 3964, 3964, 3982, 3979, 3991, 3995, 0, 1, 17401, -90.000, 0.000, -33.900, 0.000, 0.000, -2.900, 0.0, , , , , , 98, , , 15, 15, 15
38.8912886, -120.7647811, 37.300, 12:19:58.169, 18, 0.00, 0.11, 96, -1.700, -0.200, -32.900, 389, 100, 99, 26, 23920, -17141, 5271, 5491, 11, 14, 1527016798.170, 17, 0, 1024, 1024, 1024, 1024, 0, 6, 3982, 3972, 3987, 3984, 4011, 4000, 0, 1, 17501, -89.900, 0.000, -33.900, 0.000, 0.000, -2.900, 0.0, , , , , , 98, , , 15, 15, 15
38.8912887, -120.7647811, 37.600, 12:19:58.269, 18, 0.00, 0.11, 96, -1.600, -0.200, -32.800, 389, 100, 99, 26, 23920, -17141, 5271, 5491, 11, 14, 1527016798.270, 28, 0, 1024, 1024, 1024, 1024, 0, 6, 3982, 3972, 3987, 3984, 4011, 4000, 0, 1, 17600, -90.000, 0.000, -33.900, 0.000, 0.000, -2.900, 0.0, , , , , , 98, , , 15, 15, 15
38.8912887, -120.7647811, 37.600, 12:19:58.369, 18, 0.00, 0.11, 96, -1.600, -0.200, -32.800, 389, 100, 99, 26, 23920, -17141, 5271, 5491, 11, 14, 1527016798.370, 128, 0, 1024, 1024, 1024, 1024, 0, 6, 3982, 3972, 3987, 3984, 4011, 4000, 0, 1, 17701, -89.900, 0.000, -33.900, 0.000, 0.000, -2.900, 0.0, , , , , , 98, , , 15, 15, 15
38.8912888, -120.7647811, 38.200, 12:19:58.480, 18, 0.00, 0.12, 96, -1.700, 0.200, -32.600, 389, 100, 99, 26, 23920, -17141, 5271, 5491, 11, 14, 1527016798.480, 10, 0, 1024, 1024, 1024, 1024, 0, 6, 3982, 3972, 3987, 3984, 4011, 4000, 0, 1, 17811, -89.900, 0.000, -33.900, 0.000, 0.000, -2.800, 0.0, , , , , , 98, , , 15, 15, 15
38.8912888, -120.7647812, 38.500, 12:19:58.569, 18, 0.00, 0.12, 96, -1.600, 0.200, -32.500, 389, 100, 99, 26, 23920, -17141, 5271, 5491, 11, 14, 1527016798.569, 17, 0, 1024, 1024, 1024, 1024, 0, 6, 3982, 3972, 3987, 3984, 4011, 4000, 0, 1, 17900, -89.900, 0.000, -33.900, 0.000, 0.000, -2.700, 0.0, , , , , , 98, , , 15, 15, 15
38.8912889, -120.7647813, 38.800, 12:19:58.674, 18, 0.00, 0.13, 96, -1.400, 0.100, -32.400, 389, 100, 99, 26, 23920, -17141, 5271, 5491, 11, 14, 1527016798.675, 9, 0, 1024, 1024, 1024, 1024, 0, 6, 3982, 3972, 3987, 3984, 4011, 4000, 0, 1, 18006, -89.900, 0.000, -33.900, 0.000, 0.000, -2.800, 0.0, , , , , , 98, , , 15, 15, 15
38.8912890, -120.7647814, 39.000, 12:19:58.772, 18, 0.00, 0.14, 96, -1.200, 0.600, -32.500, 389, 100, 98, 26, 23920, -17141, 5271, 5491, 11, 14, 1527016798.772, 5, 0, 1024, 1024, 1024, 1024, 0, 6, 3982, 3972, 3987, 3984, 4011, 4000, 0, 1, 18103, -89.900, 0.000, -33.900, 0.000, 0.000, -2.800, 0.0, , , , , , 98, , , 15, 15, 15
38.8912891, -120.7647815, 39.300, 12:19:58.869, 18, 0.00, 0.15, 96, -0.700, 1.200, -32.700, 389, 100, 98, 26, 23920, -17141, 5271, 5491, 11, 14, 1527016798.870, 30, 0, 1024, 1024, 1024, 1024, 0, 6, 3982, 3972, 3987, 3984, 4011, 4000, 0, 1, 18201, -89.900, 0.000, -33.900, 0.000, 0.000, -2.700, 0.0, , , , , , 98, , , 15, 15, 15
38.8912891, -120.7647815, 39.300, 12:19:58.969, 18, 0.00, 0.15, 96, -0.700, 1.200, -32.700, 389, 100, 98, 26, 23920, -17141, 5271, 5491, 11, 14, 1527016798.970, 131, 0, 1024, 1024, 1024, 1024, 0, 6, 3982, 3972, 3987, 3984, 4011, 4000, 0, 1, 18301, -89.900, 0.000, -33.900, 0.000, 0.000, -2.700, 0.0, , , , , , 98, , , 15, 15, 15
38.8912892, -120.7647817, 39.600, 12:19:59.069, 18, 0.00, 0.16, 96, -0.600, 1.700, -32.900, 389, 100, 98, 26, 23920, -17141, 5271, 5491, 11, 14, 1527016799.070, 85, 0, 1024, 1024, 1024, 1024, 0, 6, 3982, 3972, 3987, 3984, 4011, 4000, 0, 1, 18401, -89.900, 0.000, -33.900, 0.000, 0.000, -2.800, 0.0, , , , , , 98, , , 15, 15, 15
38.8912894, -120.7647819, 40.100, 12:19:59.184, 18, 0.10, 0.18, 96, -1.300, 2.300, -33.400, 389, 100, 98, 26, 24052, -15381, 5216, 5491, 11, 14, 1527016799.185, 14, 0, 1024, 1024, 1024, 1024, 0, 6, 3982, 3972, 3987, 3984, 4011, 4000, 0, 1, 18516, -89.900, 0.000, -33.900, 0.100, 0.000, -2.800, 0.0, , , , , , 98, , , 15, 15, 15
38.8912895, -120.7647819, 40.400, 12:19:59.273, 18, 0.10, 0.19, 96, -1.700, 2.400, -33.400, 389, 100, 98, 26, 24052, -15381, 5216, 5491, 11, 14, 1527016799.274, 5, 0, 1024, 1024, 1024, 1024, 0, 6, 3999, 3998, 4013, 4012, 4030, 4011, 0, 1, 18605, -89.900, 0.000, -33.900, 0.100, 0.000, -2.800, 0.0, , , , , , 98, , , 15, 15, 15
38.8912896, -120.7647820, 40.600, 12:19:59.381, 18, 0.10, 0.20, 96, -1.900, 2.400, -33.300, 389, 100, 98, 26, 24052, -15381, 5216, 5491, 11, 14, 1527016799.382, 14, 0, 1024, 1024, 1024, 1024, 0, 6, 3999, 3998, 4013, 4012, 4030, 4011, 0, 1, 18713, -89.900, 0.000, -33.900, 0.100, 0.000, -2.900, 0.0, , , , , , 98, , , 15, 15, 15
38.8912897, -120.7647821, 40.900, 12:19:59.487, 18, 0.00, 0.21, 96, -2.000, 2.400, -33.100, 389, 100, 98, 26, 24052, -15381, 5216, 5491, 11, 14, 1527016799.488, 6, 0, 1024, 1024, 1024, 1024, 0, 6, 3999, 3998, 4013, 4012, 4030, 4011, 0, 1, 18819, -89.900, 0.000, -33.900, 0.000, 0.000, -2.900, 0.0, , , , , , 98, , , 15, 15, 15
38.8912897, -120.7647821, 40.900, 12:19:59.569, 18, 0.00, 0.21, 96, -2.000, 2.400, -33.100, 389, 100, 98, 26, 24052, -15381, 5216, 5491, 11, 14, 1527016799.570, 88, 0, 1024, 1024, 1024, 1024, 0, 6, 3999, 3998, 4013, 4012, 4030, 4011, 0, 1, 18901, -89.900, 0.000, -33.900, 0.000, 0.000, -2.900, 0.0, , , , , , 98, , , 15, 15, 15
38.8912898, -120.7647821, 41.200, 12:19:59.669, 18, 0.00, 0.22, 95, -2.000, 2.400, -33.000, 389, 100, 98, 26, 24052, -15381, 5216, 5491, 11, 14, 1527016799.670, 91, 0, 1024, 1024, 1024, 1024, 0, 6, 3999, 3998, 4013, 4012, 4030, 4011, 0, 1, 19001, -89.900, 0.000, -33.900, 0.000, 0.000, -2.900, 0.0, , , , , , 98, , , 15, 15, 15
38.8912898, -120.7647822, 41.500, 12:19:59.769, 18, 0.00, 0.23, 95, -2.100, 2.700, -33.000, 389, 100, 99, 26, 24052, -15381, 5216, 5491, 11, 14, 1527016799.769, 93, 0, 1024, 1024, 1024, 1024, 0, 6, 3999, 3998, 4013, 4012, 4030, 4011, 0, 1, 19100, -89.900, 0.000, -33.900, 0.000, 0.000, -2.900, 0.0, , , , , , 98, , , 15, 15, 15
38.8912899, -120.7647823, 41.800, 12:19:59.869, 18, 0.00, 0.24, 95, -2.100, 2.900, -33.000, 389, 100, 99, 26, 24052, -15381, 5216, 5491, 11, 14, 1527016799.870, 91, 0, 1024, 1024, 1024, 1024, 0, 6, 3999, 3998, 4013, 4012, 4030, 4011, 0, 1, 19201, -89.900, 0.000, -33.900, 0.000, 0.000, -2.900, 0.0, , , , , , 98, , , 15, 15, 15
38.8912900, -120.7647824, 42.000, 12:19:59.969, 18, 0.00, 0.25, 95, -2.000, 3.000, -33.100, 389, 100, 99, 26, 24052, -15381, 5216, 5491, 11, 14, 1527016799.970, 73, 0, 1024, 1024, 1024, 1024, 0, 6, 3999, 3998, 4013, 4012, 4030, 4011, 0, 1, 19301, -89.900, 0.000, -33.900, 0.000, 0.000, -2.900, 0.0, , , , , , 98, , , 15, 15, 15
38.8912901, -120.7647825, 42.300, 12:20:00.069, 18, 0.00, 0.26, 95, -2.200, 3.100, -33.100, 389, 100, 99, 26, 24052, -15381, 5216, 5491, 11, 14, 1527016800.070, 47, 0, 1024, 1024, 1024, 1024, 0, 6, 3999, 3998, 4013, 4012, 4030, 4011, 0, 1, 19401, -89.900, 0.000, -33.900, 0.000, 0.000, -3.000, 0.0, , , , , , 98, , , 15, 15, 15
38.8912901, -120.7647825, 42.600, 12:20:00.169, 18, 0.00, 0.27, 95, -2.300, 3.200, -33.100, 389, 100, 99, 26, 23981, -15820, 5216, 5491, 11, 14, 1527016800.170, 72, 0, 1024, 1024, 1024, 1024, 0, 6, 3999, 3998, 4013, 4012, 4030, 4011, 0, 1, 19501, -89.900, 0.000, -33.900, 0.000, 0.000, -3.000, 0.0, , , , , , 98, , , 15, 15, 15
38.8912902, -120.7647826, 42.900, 12:20:00.269, 18, 0.10, 0.28, 95, -2.100, 3.500, -33.100, 389, 100, 99, 26, 23981, -15820, 5216, 5491, 11, 14, 1527016800.270, 36, 0, 1024, 1024, 1024, 1024, 0, 6, 3991, 3991, 3992, 3984, 4011, 4002, 0, 1, 19601, -89.900, 0.000, -33.900, 0.100, 0.000, -2.900, 0.0, , , , , , 98, , , 15, 15, 15
38.8912904, -120.7647827, 43.200, 12:20:00.369, 18, 0.10, 0.29, 95, -2.600, 3.900, -33.200, 389, 100, 99, 26, 23981, -15820, 5216, 5491, 11, 14, 1527016800.370, 50, 0, 1024, 1024, 1024, 1024, 0, 6, 3991, 3991, 3992, 3984, 4011, 4002, 0, 1, 19701, -89.900, 0.000, -33.800, 0.100, 0.000, -2.900, 0.0, , , , , , 98, , , 15, 15, 15
38.8912905, -120.7647828, 43.500, 12:20:00.469, 18, 0.10, 0.30, 95, -3.600, 4.200, -33.500, 389, 100, 99, 26, 23981, -15820, 5216, 5491, 11, 14, 1527016800.470, 53, 0, 1024, 1024, 1024, 1024, 0, 6, 3991, 3991, 3992, 3984, 4011, 4002, 0, 1, 19801, -89.900, 0.000, -33.800, 0.100, 0.000, -3.100, 0.0, , , , , , 98, , , 15, 15, 15
38.8912907, -120.7647828, 43.900, 12:20:00.569, 18, 0.10, 0.32, 95, -4.400, 4.800, -33.300, 389, 100, 99, 26, 23981, -15820, 5216, 5491, 11, 14, 1527016800.570, 25, 0, 1024, 1024, 1024, 1024, 0, 6, 3991, 3991, 3992, 3984, 4011, 4002, 0, 1, 19900, -89.900, 0.000, -33.800, 0.100, 0.000, -3.300, 0.0, , , , , , 98, , , 15, 15, 15
38.8912908, -120.7647829, 44.200, 12:20:00.669, 18, 0.10, 0.33, 95, -4.000, 4.800, -33.000, 389, 100, 99, 26, 23981, -15820, 5216, 5491, 11, 14, 1527016800.670, 20, 0, 1024, 1024, 1024, 1024, 0, 6, 3991, 3991, 3992, 3984, 4011, 4002, 0, 1, 20001, -89.900, 0.000, -33.800, 0.100, 0.000, -3.000, 0.0, , , , , , 98, , , 15, 15, 15
38.8912910, -120.7647830, 44.700, 12:20:00.769, 18, 0.00, 0.35, 95, -3.000, 4.800, -32.700, 389, 100, 99, 26, 23981, -15820, 5216, 5491, 11, 14, 1527016800.770, 22, 0, 1024, 1024, 1024, 1024, 0, 6, 3991, 3991, 3992, 3984, 4011, 4002, 0, 1, 20101, -89.900, 0.000, -33.800, 0.000, 0.000, -2.800, 0.0, , , , , , 98, , , 15, 15, 15
38.8912911, -120.7647830, 45.000, 12:20:00.869, 18, 0.00, 0.36, 95, -2.400, 4.900, -32.500, 389, 100, 99, 26, 23981, -15820, 5216, 5491, 11, 14, 1527016800.870, 32, 0, 1024, 1024, 1024, 1024, 0, 6, 3991, 3991, 3992, 3984, 4011, 4002, 0, 1, 20200, -89.900, 0.000, -33.800, 0.000, 0.000, -2.800, 0.0, , , , , , 98, , , 15, 15, 15
38.8912912, -120.7647831, 45.300, 12:20:00.969, 18, 0.00, 0.37, 95, -1.700, 5.200, -32.300, 389, 100, 99, 26, 23981, -15820, 5216, 5491, 11, 14, 1527016800.970, 24, 0, 1024, 1024, 1024, 1024, 0, 6, 3991, 3991, 3992, 3984, 4011, 4002, 0, 1, 20301, -89.900, 0.000, -33.800, 0.000, 0.000, -2.800, 0.0, , , , , , 98, , , 15, 15, 15
38.8912913, -120.7647832, 45.500, 12:20:01.069, 18, 0.00, 0.39, 95, -1.300, 5.100, -32.300, 389, 100, 99, 26, 23981, -15820, 5216, 5491, 11, 14, 1527016801.070, 29, 0, 1024, 1024, 1024, 1024, 0, 6, 3991, 3991, 3992, 3984, 4011, 4002, 0, 1, 20401, -89.900, 0.000, -33.800, 0.000, 0.000, -2.800, 0.0, , , , , , 98, , , 15, 15, 15
38.8912914, -120.7647833, 45.800, 12:20:01.170, 18, 0.00, 0.40, 95, -0.900, 5.400, -32.300, 389, 100, 99, 26, 23948, -16449, 5216, 5491, 11, 14, 1527016801.171, 20, 0, 1024, 1024, 1024, 1024, 0, 6, 3991, 3991, 3992, 3984, 4011, 4002, 0, 1, 20501, -89.900, 0.000, -33.800, 0.000, 0.000, -2.800, 0.0, , , , , , 98, , , 15, 15, 15
38.8912914, -120.7647834, 46.100, 12:20:01.269, 18, 0.00, 0.41, 95, -1.100, 5.300, -32.700, 389, 100, 98, 26, 23948, -16449, 5216, 5491, 11, 14, 1527016801.270, 17, 0, 1024, 1024, 1024, 1024, 0, 6, 3981, 3981, 3992, 3979, 3991, 4000, 0, 1, 20601, -89.900, 0.000, -33.800, 0.000, 0.000, -2.900, 0.0, , , , , , 98, , , 15, 15, 15
38.8912914, -120.7647834, 46.100, 12:20:01.369, 18, 0.00, 0.41, 95, -1.100, 5.300, -32.700, 389, 100, 98, 26, 23948, -16449, 5216, 5491, 11, 14, 1527016801.370, 117, 0, 1024, 1024, 1024, 1024, 0, 6, 3981, 3981, 3992, 3979, 3991, 4000, 0, 1, 20701, -89.900, 0.000, -33.800, 0.000, 0.000, -2.900, 0.0, , , , , , 98, , , 15, 15, 15
