Latitude, Longitude, Altitude (m), Time, Sats, Speed (m/s), Range (m), Battery (%), Roll (deg), Pitch (deg), Yaw (deg), Images, HD Signal (%), RC Signal (%), Battery Temp (C), Battery Voltage (mV), Battery Current (mA), Battery Energy (mAh), Battery Capacity (mAh), Battery Discharges, flyState, timestamp (Unix), LastUpdate (ms), radioChannel, Rc_elevator, Rc_aileron, Rc_throttle, Rc_rudder, Rc_gyro, Dronetype, Battery_Cell1 (mV), Battery_Cell2 (mV), Battery_Cell3 (mV), Battery_Cell4 (mV), Battery_Cell5 (mV), Battery_Cell6 (mV), Video, isFlying, elapsedTime (ms), gimbalPitch (deg), gimbalRoll (deg), gimbalYaw (deg), VelocityX (m/s), VelocityY (m/s), VelocityZ (m/s), GroundSmear (cm), App Version, Aircraft Name, Aircraft Firmware, Aircraft Serial Number, Battery Serial Number, Battery Lifetime (%), App_Tip, App_Warning, CurrentFlightStartingIndex, CurrentFlightLastVisitedWaypoint, PreviousFlightEndingWaypointIndex
38.8912945, -120.7647947, 0.000, 13:34:09.292, 13, 0.10, 0.12, 97, 1.200, 1.100, -25.400, 1620, 100, 100, 28, 25516, -3980, 5234, 5396, 16, 11, 1527021249.292, 64, 0, 1024, 1024, 1024, 1024, 0, 6, 4228, 4270, 4266, 4277, 4275, 4259, 0, 1, 2871, -90.000, 0.000, -25.500, 0.000, 0.100, -0.200, 0.0, MapPilot_2.8.1_04242018, Dendroctonus I, 1.3.1.00, 041DDC1887, 1058171200140, 96, DJI_0625.jpg, Starting Mission from Lat/Long: 38.89126/-120.76482 Camera: Zenmuse X3 - Overlap: 90/90 - Active Connection: No, 61, 61, 61
38.8912945, -120.7647947, 0.000, 13:34:09.322, 13, 0.10, 0.12, 97, 1.200, 1.100, -25.400, 1620, 100, 100, 28, 25516, -3980, 5234, 5396, 16, 11, 1527021249.323, 94, 0, 1024, 1024, 1024, 1024, 0, 6, 4228, 4270, 4266, 4277, 4275, 4259, 0, 1, 2901, -90.000, 0.000, -25.500, 0.000, 0.100, -0.200, 0.0, , , , , , 96, , , 61, 61, 61
38.8912945, -120.7647947, 0.000, 13:34:09.422, 13, 0.10, 0.12, 97, 1.200, 1.100, -25.400, 1620, 100, 100, 28, 25516, -3980, 5234, 5396, 16, 11, 1527021249.423, 194, 0, 1024, 1024, 1024, 1024, 0, 6, 4228, 4270, 4266, 4277, 4275, 4259, 0, 1, 3001, -90.000, 0.000, -25.500, 0.000, 0.100, -0.200, 0.0, , , , , , 96, , , 61, 61, 61
38.8912944, -120.7647946, 0.000, 13:34:09.522, 13, 0.10, 0.12, 97, 0.800, 0.500, -25.200, 1620, 100, 100, 28, 25516, -3980, 5234, 5396, 16, 11, 1527021249.523, 43, 0, 1024, 1024, 1024, 1024, 0, 6, 4228, 4270, 4266, 4277, 4275, 4259, 0, 1, 3101, -90.000, 0.000, -25.500, 0.000, 0.100, -0.300, 0.0, , , , , , 96, , , 61, 61, 61
38.8912944, -120.7647944, 0.000, 13:34:09.622, 13, 0.10, 0.12, 97, 0.700, 0.200, -25.200, 1620, 100, 100, 28, 25516, -3980, 5234, 5396, 16, 11, 1527021249.623, 51, 0, 1024, 1024, 1024, 1024, 0, 6, 4228, 4270, 4266, 4277, 4275, 4259, 0, 1, 3201, -90.000, 0.000, -25.500, 0.000, 0.100, -0.300, 0.0, , , , , , 96, , , 61, 61, 61
38.8912944, -120.7647944, 0.000, 13:34:09.722, 13, 0.10, 0.12, 97, 0.700, 0.200, -25.200, 1620, 100, 100, 28, 25516, -3980, 5234, 5396, 16, 11, 1527021249.723, 151, 0, 1024, 1024, 1024, 1024, 0, 6, 4228, 4270, 4266, 4277, 4275, 4259, 0, 1, 3301, -90.000, 0.000, -25.500, 0.000, 0.100, -0.300, 0.0, , , , , , 96, , , 61, 61, 61
38.8912943, -120.7647941, 0.100, 13:34:09.822, 13, 0.10, 0.12, 97, -0.400, -0.400, -25.400, 1620, 100, 100, 28, 25516, -3980, 5234, 5396, 16, 11, 1527021249.823, 33, 0, 1024, 1024, 1024, 1024, 0, 6, 4228, 4270, 4266, 4277, 4275, 4259, 0, 1, 3401, -90.000, 0.000, -25.500, 0.000, 0.100, -0.300, 0.0, , , , , , 96, , , 61, 61, 61
38.8912943, -120.7647941, 0.100, 13:34:09.923, 13, 0.10, 0.12, 97, -0.400, -0.400, -25.400, 1620, 100, 100, 28, 25516, -3980, 5234, 5396, 16, 11, 1527021249.924, 133, 0, 1024, 1024, 1024, 1024, 0, 6, 4228, 4270, 4266, 4277, 4275, 4259, 0, 1, 3502, -90.000, 0.000, -25.500, 0.000, 0.100, -0.300, 0.0, , , , , , 96, , , 61, 61, 61
38.8912943, -120.7647939, 0.100, 13:34:10.022, 13, 0.10, 0.13, 97, -1.100, -0.700, -25.500, 1620, 100, 100, 28, 25516, -3980, 5234, 5396, 16, 11, 1527021250.023, 52, 0, 1024, 1024, 1024, 1024, 0, 6, 4228, 4270, 4266, 4277, 4275, 4259, 0, 1, 3601, -89.900, 0.000, -25.500, 0.000, 0.100, -0.300, 0.0, , , , , , 96, , , 61, 61, 61
38.8912943, -120.7647939, 0.100, 13:34:10.122, 13, 0.10, 0.13, 97, -1.100, -0.700, -25.500, 1620, 100, 100, 28, 25516, -3980, 5234, 5396, 16, 11, 1527021250.123, 151, 0, 1024, 1024, 1024, 1024, 0, 6, 4228, 4270, 4266, 4277, 4275, 4259, 0, 1, 3701, -89.900, 0.000, -25.500, 0.000, 0.100, -0.300, 0.0, , , , , , 96, , , 61, 61, 61
38.8912942, -120.7647938, 0.200, 13:34:10.227, 13, 0.10, 0.13, 97, -1.500, -0.600, -25.600, 1620, 100, 100, 28, 25516, -3980, 5234, 5396, 16, 11, 1527021250.227, 6, 0, 1024, 1024, 1024, 1024, 0, 6, 4228, 4270, 4266, 4277, 4275, 4259, 0, 1, 3806, -89.900, 0.000, -25.500, 0.000, 0.100, -0.400, 0.0, , , , , , 96, , , 61, 61, 61
38.8912942, -120.7647938, 0.200, 13:34:10.322, 13, 0.10, 0.13, 97, -1.500, -0.600, -25.600, 1620, 100, 100, 28, 25516, -3980, 5234, 5396, 16, 11, 1527021250.323, 101, 0, 1024, 1024, 1024, 1024, 0, 6, 4228, 4270, 4266, 4277, 4275, 4259, 0, 1, 3901, -89.900, 0.000, -25.500, 0.000, 0.100, -0.400, 0.0, , , , , , 96, , , 61, 61, 61
38.8912943, -120.7647937, 0.200, 13:34:10.422, 13, 0.10, 0.13, 97, -1.400, -0.500, -25.700, 1620, 100, 100, 28, 25516, -3980, 5234, 5396, 16, 11, 1527021250.423, 83, 0, 1024, 1024, 1024, 1024, 0, 6, 4228, 4270, 4266, 4277, 4275, 4259, 0, 1, 4001, -89.900, 0.000, -25.500, 0.000, 0.100, -0.400, 0.0, , , , , , 96, , , 61, 61, 61
38.8912943, -120.7647935, 0.300, 13:34:10.522, 11, 0.00, 0.13, 97, -1.300, -0.400, -25.900, 1620, 100, 100, 28, 25516, -3980, 5234, 5396, 16, 11, 1527021250.523, 54, 0, 1024, 1024, 1024, 1024, 0, 6, 4228, 4270, 4266, 4277, 4275, 4259, 0, 1, 4101, -89.900, 0.000, -25.500, 0.000, 0.000, -0.400, 0.0, , , , , , 96, , , 61, 61, 61
38.8912944, -120.7647934, 0.400, 13:34:10.622, 12, 0.00, 0.12, 97, -1.100, 0.000, -26.100, 1620, 100, 100, 28, 25516, -3980, 5234, 5396, 16, 11, 1527021250.623, 68, 0, 1024, 1024, 1024, 1024, 0, 6, 4228, 4270, 4266, 4277, 4275, 4259, 0, 1, 4201, -89.900, 0.000, -25.500, 0.000, 0.000, -0.400, 0.0, , , , , , 96, , , 61, 61, 61
38.8912944, -120.7647933, 0.400, 13:34:10.722, 12, 0.00, 0.12, 97, -1.200, 0.000, -26.200, 1620, 100, 100, 28, 25516, -3980, 5234, 5396, 16, 11, 1527021250.723, 84, 0, 1024, 1024, 1024, 1024, 0, 6, 4228, 4270, 4266, 4277, 4275, 4259, 0, 1, 4301, -89.900, 0.000, -25.500, 0.000, 0.000, -0.400, 0.0, , , , , , 96, , , 61, 61, 61
38.8912944, -120.7647933, 0.400, 13:34:10.822, 12, 0.00, 0.12, 97, -1.200, 0.000, -26.200, 1620, 100, 100, 28, 25516, -3980, 5234, 5396, 16, 11, 1527021250.823, 184, 0, 1024, 1024, 1024, 1024, 0, 6, 4228, 4270, 4266, 4277, 4275, 4259, 0, 1, 4402, -89.900, 0.000, -25.500, 0.000, 0.000, -0.400, 0.0, , , , , , 96, , , 61, 61, 61
38.8912946, -120.7647932, 0.500, 13:34:10.922, 12, 0.00, 0.11, 97, -1.100, 0.300, -26.200, 1620, 100, 100, 28, 25516, -3980, 5234, 5396, 16, 11, 1527021250.922, 48, 0, 1024, 1024, 1024, 1024, 0, 6, 4228, 4270, 4266, 4277, 4275, 4259, 0, 1, 4501, -89.900, 0.000, -25.500, 0.000, 0.000, -0.400, 0.0, , , , , , 96, , , 61, 61, 61
38.8912946, -120.7647932, 0.600, 13:34:11.037, 11, 0.00, 0.11, 97, -1.000, 0.400, -26.100, 1620, 100, 100, 28, 25221, -6754, 5234, 5396, 16, 11, 1527021251.037, 21, 0, 1024, 1024, 1024, 1024, 0, 6, 4228, 4270, 4266, 4277, 4275, 4259, 0, 1, 4616, -89.900, 0.000, -25.500, 0.000, 0.000, -0.500, 0.0, , , , , , 96, , , 61, 61, 61
38.8912947, -120.7647932, 0.600, 13:34:11.122, 11, 0.00, 0.10, 97, -1.000, 0.400, -26.100, 1620, 100, 100, 28, 25221, -6754, 5234, 5396, 16, 11, 1527021251.123, 55, 0, 1024, 1024, 1024, 1024, 0, 6, 4187, 4156, 4177, 4166, 4183, 4166, 0, 1, 4702, -89.900, 0.000, -25.500, 0.000, 0.000, -0.500, 0.0, , , , , , 96, , , 61, 61, 61
38.8912947, -120.7647932, 0.700, 13:34:11.224, 12, 0.00, 0.10, 97, -1.000, 0.400, -26.100, 1620, 100, 100, 28, 25221, -6754, 5234, 5396, 16, 11, 1527021251.224, 17, 0, 1024, 1024, 1024, 1024, 0, 6, 4187, 4156, 4177, 4166, 4183, 4166, 0, 1, 4803, -89.900, 0.000, -25.500, 0.000, 0.000, -0.500, 0.0, , , , , , 96, , , 61, 61, 61
38.8912947, -120.7647932, 0.700, 13:34:11.322, 12, 0.00, 0.10, 97, -1.000, 0.500, -26.100, 1620, 100, 100, 28, 25221, -6754, 5234, 5396, 16, 11, 1527021251.323, 18, 0, 1024, 1024, 1024, 1024, 0, 6, 4187, 4156, 4177, 4166, 4183, 4166, 0, 1, 4902, -89.900, 0.000, -25.500, 0.000, 0.000, -0.500, 0.0, , , , , , 96, , , 61, 61, 61
38.8912947, -120.7647933, 0.800, 13:34:11.422, 13, 0.00, 0.10, 97, -0.800, 0.500, -26.100, 1620, 100, 100, 28, 25221, -6754, 5234, 5396, 16, 11, 1527021251.423, 19, 0, 1024, 1024, 1024, 1024, 0, 6, 4187, 4156, 4177, 4166, 4183, 4166, 0, 1, 5002, -89.900, 0.000, -25.500, 0.000, 0.000, -0.500, 0.0, , , , , , 96, , , 61, 61, 61
38.8912947, -120.7647933, 0.800, 13:34:11.522, 13, 0.00, 0.10, 97, -0.800, 0.500, -26.100, 1620, 100, 100, 28, 25221, -6754, 5234, 5396, 16, 11, 1527021251.523, 118, 0, 1024, 1024, 1024, 1024, 0, 6, 4187, 4156, 4177, 4166, 4183, 4166, 0, 1, 5101, -89.900, 0.000, -25.500, 0.000, 0.000, -0.500, 0.0, , , , , , 96, , , 61, 61, 61
38.8912945, -120.7647934, 0.900, 13:34:11.622, 14, 0.00, 0.11, 97, -0.600, 0.400, -26.000, 1620, 100, 100, 28, 25221, -6754, 5234, 5396, 16, 14, 1527021251.623, 66, 0, 1024, 1024, 1024, 1024, 0, 6, 4187, 4156, 4177, 4166, 4183, 4166, 0, 1, 5201, -89.900, 0.000, -25.500, 0.000, 0.000, -0.500, 0.0, , , , , , 96, , , 61, 61, 61
38.8912945, -120.7647934, 0.900, 13:34:11.723, 14, 0.00, 0.10, 97, -0.500, 0.300, -26.000, 1620, 100, 100, 28, 25221, -6754, 5234, 5396, 16, 14, 1527021251.724, 39, 0, 1024, 1024, 1024, 1024, 0, 6, 4187, 4156, 4177, 4166, 4183, 4166, 0, 1, 5302, -89.900, 0.000, -25.500, 0.000, 0.000, -0.300, 0.0, , , , , , 96, , , 61, 61, 61
38.8912945, -120.7647934, 1.000, 13:34:11.823, 13, 0.00, 0.11, 97, -0.400, 0.300, -26.000, 1620, 100, 100, 28, 25221, -6754, 5234, 5396, 16, 14, 1527021251.823, 20, 0, 1024, 1024, 1024, 1024, 0, 6, 4187, 4156, 4177, 4166, 4183, 4166, 0, 1, 5402, -89.900, 0.000, -25.500, 0.000, 0.000, -0.200, 0.0, , , , , , 96, , , 61, 61, 61
38.8912945, -120.7647935, 1.000, 13:34:11.926, 13, 0.00, 0.11, 96, -0.200, 0.400, -26.100, 1620, 100, 100, 28, 24565, -15987, 5180, 5396, 16, 14, 1527021251.927, 19, 0, 1024, 1024, 1024, 1024, 0, 6, 4187, 4156, 4177, 4166, 4183, 4166, 0, 1, 5505, -89.900, 0.000, -25.500, 0.000, 0.000, -0.200, 0.0, , , , , , 96, , , 61, 61, 61
38.8912944, -120.7647935, 1.000, 13:34:12.035, 13, 0.00, 0.11, 96, -0.300, 0.300, -26.100, 1620, 100, 100, 28, 24565, -15987, 5180, 5396, 16, 14, 1527021252.035, 15, 0, 1024, 1024, 1024, 1024, 0, 6, 4065, 4084, 4095, 4098, 4074, 4083, 0, 1, 5614, -89.900, 0.000, -25.500, 0.000, 0.000, -0.300, 0.0, , , , , , 96, , , 61, 61, 61
38.8912944, -120.7647936, 1.100, 13:34:12.152, 10, 0.00, 0.12, 96, -0.400, 0.200, -26.200, 1620, 100, 100, 28, 24565, -15987, 5180, 5396, 16, 14, 1527021252.153, 22, 0, 1024, 1024, 1024, 1024, 0, 6, 4065, 4084, 4095, 4098, 4074, 4083, 0, 1, 5731, -89.900, 0.000, -25.500, 0.000, 0.000, -0.600, 0.0, , , , , , 96, , , 61, 61, 61
38.8912944, -120.7647936, 1.100, 13:34:12.223, 10, 0.00, 0.12, 96, -0.400, 0.200, -26.200, 1620, 100, 100, 28, 24565, -15987, 5180, 5396, 16, 14, 1527021252.223, 92, 0, 1024, 1024, 1024, 1024, 0, 6, 4065, 4084, 4095, 4098, 4074, 4083, 0, 1, 5802, -89.900, 0.000, -25.500, 0.000, 0.000, -0.600, 0.0, , , , , , 96, , , 61, 61, 61
38.8912943, -120.7647937, 1.200, 13:34:12.323, 10, 0.00, 0.12, 96, -0.400, 0.100, -26.200, 1620, 100, 100, 28, 24565, -15987, 5180, 5396, 16, 14, 1527021252.324, 69, 0, 1024, 1024, 1024, 1024, 0, 6, 4065, 4084, 4095, 4098, 4074, 4083, 0, 1, 5902, -90.000, 0.000, -25.500, 0.000, 0.000, -0.800, 0.0, , , , , , 96, , , 61, 61, 61
38.8912941, -120.7647939, 1.400, 13:34:12.440, 12, 0.00, 0.14, 96, -0.200, 0.100, -26.000, 1620, 100, 100, 28, 24438, -16181, 5180, 5396, 16, 14, 1527021252.440, 21, 0, 1024, 1024, 1024, 1024, 0, 6, 4065, 4084, 4095, 4098, 4074, 4083, 0, 1, 6019, -90.000, 0.000, -25.500, 0.000, 0.000, -1.100, 0.0, , , , , , 96, , , 61, 61, 61
38.8912941, -120.7647939, 1.400, 13:34:12.523, 12, 0.00, 0.14, 96, -0.200, 0.100, -26.000, 1620, 100, 100, 28, 24438, -16181, 5180, 5396, 16, 14, 1527021252.523, 104, 0, 1024, 1024, 1024, 1024, 0, 6, 4054, 4073, 4078, 4088, 4061, 4083, 0, 1, 6102, -90.000, 0.000, -25.500, 0.000, 0.000, -1.100, 0.0, , , , , , 96, , , 61, 61, 61
38.8912943, -120.7647939, 1.700, 13:34:12.636, 11, 0.00, 0.12, 96, 0.000, 0.300, -25.600, 1620, 100, 100, 28, 24438, -16181, 5180, 5396, 16, 14, 1527021252.637, 29, 0, 1024, 1024, 1024, 1024, 0, 6, 4054, 4073, 4078, 4088, 4061, 4083, 0, 1, 6215, -89.900, 0.000, -25.500, 0.000, 0.000, -1.500, 0.0, , , , , , 96, , , 61, 61, 61
38.8912943, -120.7647939, 1.700, 13:34:12.723, 11, 0.00, 0.12, 96, 0.000, 0.300, -25.600, 1620, 100, 100, 28, 24438, -16181, 5180, 5396, 16, 14, 1527021252.723, 116, 0, 1024, 1024, 1024, 1024, 0, 6, 4054, 4073, 4078, 4088, 4061, 4083, 0, 1, 6301, -89.900, 0.000, -25.500, 0.000, 0.000, -1.500, 0.0, , , , , , 96, , , 61, 61, 61
38.8912943, -120.7647939, 1.700, 13:34:12.822, 11, 0.00, 0.12, 96, 0.000, 0.300, -25.600, 1620, 100, 100, 28, 24438, -16181, 5180, 5396, 16, 14, 1527021252.823, 216, 0, 1024, 1024, 1024, 1024, 0, 6, 4054, 4073, 4078, 4088, 4061, 4083, 0, 1, 6401, -89.900, 0.000, -25.500, 0.000, 0.000, -1.500, 0.0, , , , , , 96, , , 61, 61, 61
38.8912943, -120.7647939, 1.900, 13:34:12.923, 10, 0.00, 0.12, 96, -0.400, 0.500, -25.300, 1620, 100, 100, 28, 24438, -16181, 5180, 5396, 16, 14, 1527021252.924, 98, 0, 1024, 1024, 1024, 1024, 0, 6, 4054, 4073, 4078, 4088, 4061, 4083, 0, 1, 6502, -89.900, 0.000, -25.500, 0.000, 0.000, -1.700, 0.0, , , , , , 96, , , 61, 61, 61
38.8912946, -120.7647940, 2.200, 13:34:13.022, 12, 0.00, 0.09, 96, -0.300, 0.900, -25.000, 1620, 100, 100, 28, 24438, -16181, 5180, 5396, 16, 14, 1527021253.023, 35, 0, 1024, 1024, 1024, 1024, 0, 6, 4054, 4073, 4078, 4088, 4061, 4083, 0, 1, 6601, -89.900, 0.000, -25.500, 0.000, 0.000, -2.100, 0.0, , , , , , 96, , , 61, 61, 61
38.8912948, -120.7647938, 2.500, 13:34:13.122, 12, 0.00, 0.07, 96, -0.300, 1.100, -25.100, 1620, 100, 100, 28, 24438, -16181, 5180, 5396, 16, 14, 1527021253.123, 31, 0, 1024, 1024, 1024, 1024, 0, 6, 4054, 4073, 4078, 4088, 4061, 4083, 0, 1, 6701, -89.900, 0.000, -25.500, 0.000, 0.000, -2.400, 0.0, , , , , , 96, , , 61, 61, 61
38.8912948, -120.7647938, 2.500, 13:34:13.223, 12, 0.00, 0.07, 96, -0.300, 1.100, -25.100, 1620, 100, 100, 28, 24438, -16181, 5180, 5396, 16, 14, 1527021253.223, 132, 0, 1024, 1024, 1024, 1024, 0, 6, 4054, 4073, 4078, 4088, 4061, 4083, 0, 1, 6802, -89.900, 0.000, -25.500, 0.000, 0.000, -2.400, 0.0, , , , , , 96, , , 61, 61, 61
38.8912950, -120.7647937, 3.000, 13:34:13.322, 14, 0.00, 0.04, 96, -1.100, 1.100, -25.300, 1620, 100, 100, 28, 24438, -16181, 5180, 5396, 16, 14, 1527021253.322, 22, 0, 1024, 1024, 1024, 1024, 0, 6, 4054, 4073, 4078, 4088, 4061, 4083, 0, 1, 6901, -89.900, 0.000, -25.500, 0.000, 0.000, -2.800, 0.0, , , , , , 96, , , 61, 61, 61
38.8912952, -120.7647936, 3.300, 13:34:13.422, 14, 0.00, 0.04, 96, -1.100, 1.000, -25.400, 1620, 100, 100, 28, 24438, -16181, 5180, 5396, 16, 14, 1527021253.423, 38, 0, 1024, 1024, 1024, 1024, 0, 6, 4054, 4073, 4078, 4088, 4061, 4083, 0, 1, 7001, -89.900, 0.000, -25.500, 0.000, 0.000, -2.900, 0.0, , , , , , 96, , , 61, 61, 61
38.8912957, -120.7647932, 4.300, 13:34:13.525, 13, 0.00, 0.08, 96, -1.500, 1.200, -25.800, 1620, 100, 100, 28, 24438, -16181, 5180, 5396, 16, 14, 1527021253.526, 10, 0, 1024, 1024, 1024, 1024, 0, 6, 4054, 4073, 4078, 4088, 4061, 4083, 0, 1, 7104, -89.900, 0.000, -25.500, 0.000, 0.000, -3.100, 0.0, , , , , , 96, , , 61, 61, 61
38.8912959, -120.7647931, 4.600, 13:34:13.622, 13, 0.00, 0.09, 96, -1.600, 1.400, -25.900, 1620, 100, 100, 28, 24438, -16181, 5180, 5396, 16, 14, 1527021253.622, 16, 0, 1024, 1024, 1024, 1024, 0, 6, 4054, 4073, 4078, 4088, 4061, 4083, 0, 1, 7201, -89.900, 0.000, -25.500, 0.000, 0.000, -3.200, 0.0, , , , , , 96, , , 61, 61, 61
38.8912960, -120.7647931, 4.900, 13:34:13.722, 13, 0.00, 0.10, 96, -1.500, 1.500, -25.900, 1620, 100, 100, 28, 24251, -17458, 5180, 5396, 16, 14, 1527021253.723, 40, 0, 1024, 1024, 1024, 1024, 0, 6, 4000, 4008, 4023, 4018, 4012, 4031, 0, 1, 7301, -89.900, 0.000, -25.500, 0.000, 0.000, -3.200, 0.0, , , , , , 96, , , 61, 61, 61
38.8912961, -120.7647931, 5.300, 13:34:13.823, 14, 0.00, 0.11, 96, -1.300, 1.700, -25.900, 1620, 100, 100, 28, 24251, -17458, 5180, 5396, 16, 14, 1527021253.823, 91, 0, 1024, 1024, 1024, 1024, 0, 6, 4000, 4008, 4023, 4018, 4012, 4031, 0, 1, 7402, -89.900, 0.000, -25.500, 0.000, 0.000, -3.200, 0.0, , , , , , 96, , , 61, 61, 61
38.8912961, -120.7647931, 5.900, 13:34:13.922, 15, 0.00, 0.11, 96, -1.000, 1.700, -25.800, 1620, 100, 100, 28, 24251, -17458, 5180, 5396, 16, 14, 1527021253.923, 19, 0, 1024, 1024, 1024, 1024, 0, 6, 4000, 4008, 4023, 4018, 4012, 4031, 0, 1, 7501, -89.900, 0.000, -25.500, 0.000, 0.000, -3.200, 0.0, , , , , , 96, , , 61, 61, 61
38.8912961, -120.7647931, 6.200, 13:34:14.023, 15, 0.00, 0.10, 96, -0.900, 1.600, -25.800, 1620, 100, 100, 28, 24251, -17458, 5180, 5396, 16, 14, 1527021254.023, 68, 0, 1024, 1024, 1024, 1024, 0, 6, 4000, 4008, 4023, 4018, 4012, 4031, 0, 1, 7602, -89.900, 0.000, -25.500, 0.000, 0.000, -3.100, 0.0, , , , , , 96, , , 61, 61, 61
38.8912958, -120.7647932, 6.900, 13:34:14.122, 14, 0.00, 0.08, 96, -0.500, 1.000, -25.700, 1620, 100, 100, 28, 23793, -17458, 5180, 5396, 16, 14, 1527021254.122, 18, 0, 1024, 1024, 1024, 1024, 0, 6, 4000, 4008, 4023, 4018, 4012, 4031, 0, 1, 7701, -89.900, 0.000, -25.500, 0.000, 0.000, -3.200, 0.0, , , , , , 96, , , 61, 61, 61
38.8912958, -120.7647932, 6.900, 13:34:14.222, 14, 0.00, 0.08, 96, -0.500, 1.000, -25.700, 1620, 100, 100, 28, 23793, -17458, 5180, 5396, 16, 14, 1527021254.223, 119, 0, 1024, 1024, 1024, 1024, 0, 6, 4000, 4008, 4023, 4018, 4012, 4031, 0, 1, 7801, -89.900, 0.000, -25.500, 0.000, 0.000, -3.200, 0.0, , , , , , 96, , , 61, 61, 61
38.8912954, -120.7647934, 7.600, 13:34:14.338, 14, 0.00, 0.04, 96, 0.000, 0.400, -25.700, 1620, 100, 100, 28, 23793, -17458, 5180, 5396, 16, 14, 1527021254.341, 20, 0, 1024, 1024, 1024, 1024, 0, 6, 4000, 4008, 4023, 4018, 4012, 4031, 0, 1, 7920, -90.000, 0.000, -25.500, 0.000, 0.000, -3.200, 0.0, , , , , , 96, , , 61, 61, 61
38.8912954, -120.7647934, 7.600, 13:34:14.423, 14, 0.00, 0.04, 96, 0.000, 0.400, -25.700, 1620, 100, 100, 28, 23793, -17458, 5180, 5396, 16, 14, 1527021254.423, 102, 0, 1024, 1024, 1024, 1024, 0, 6, 4000, 4008, 4023, 4018, 4012, 4031, 0, 1, 8001, -90.000, 0.000, -25.500, 0.000, 0.000, -3.200, 0.0, , , , , , 96, , , 61, 61, 61
38.8912951, -120.7647937, 7.900, 13:34:14.523, 14, 0.10, 0.04, 96, 0.300, 0.100, -25.700, 1620, 100, 100, 28, 23793, -17458, 5180, 5396, 16, 14, 1527021254.523, 65, 0, 1024, 1024, 1024, 1024, 0, 6, 4000, 4008, 4023, 4018, 4012, 4031, 0, 1, 8102, -90.000, 0.000, -25.500, -0.100, 0.000, -3.100, 0.0, , , , , , 96, , , 61, 61, 61
38.8912948, -120.7647941, 8.200, 13:34:14.622, 14, 0.10, 0.07, 96, 0.900, 0.000, -25.700, 1620, 100, 100, 28, 23793, -17458, 5180, 5396, 16, 14, 1527021254.623, 39, 0, 1024, 1024, 1024, 1024, 0, 6, 4000, 4008, 4023, 4018, 4012, 4031, 0, 1, 8201, -90.000, 0.000, -25.500, -0.100, 0.000, -3.100, 0.0, , , , , , 96, , , 61, 61, 61
38.8912942, -120.7647943, 8.900, 13:34:14.723, 15, 0.10, 0.13, 96, 1.700, -0.500, -25.700, 1620, 100, 100, 28, 23793, -17458, 5180, 5396, 16, 14, 1527021254.724, 5, 0, 1024, 1024, 1024, 1024, 0, 6, 3937, 3959, 3978, 3981, 3959, 3990, 0, 1, 8302, -90.000, 0.000, -25.500, -0.100, 0.000, -3.100, 0.0, , , , , , 96, , , 61, 61, 61
38.8912942, -120.7647943, 8.900, 13:34:14.822, 15, 0.10, 0.13, 96, 1.700, -0.500, -25.700, 1620, 100, 100, 28, 23793, -17458, 5180, 5396, 16, 14, 1527021254.823, 105, 0, 1024, 1024, 1024, 1024, 0, 6, 3937, 3959, 3978, 3981, 3959, 3990, 0, 1, 8401, -90.000, 0.000, -25.500, -0.100, 0.000, -3.100, 0.0, , , , , , 96, , , 61, 61, 61
38.8912940, -120.7647944, 9.200, 13:34:14.923, 15, 0.00, 0.16, 96, 1.500, -0.700, -25.700, 1620, 100, 100, 28, 23793, -17458, 5180, 5396, 16, 14, 1527021254.923, 83, 0, 1024, 1024, 1024, 1024, 0, 6, 3937, 3959, 3978, 3981, 3959, 3990, 0, 1, 8501, -89.900, 0.000, -25.500, 0.000, 0.000, -3.100, 0.0, , , , , , 96, , , 61, 61, 61
38.8912938, -120.7647946, 9.500, 13:34:15.023, 15, 0.00, 0.18, 96, 1.400, -0.700, -25.700, 1620, 100, 100, 28, 23793, -17458, 5180, 5396, 16, 14, 1527021255.023, 84, 0, 1024, 1024, 1024, 1024, 0, 6, 3937, 3959, 3978, 3981, 3959, 3990, 0, 1, 8602, -90.000, 0.000, -25.500, 0.000, 0.000, -3.100, 0.0, , , , , , 96, , , 61, 61, 61
38.8912937, -120.7647948, 9.900, 13:34:15.122, 14, 0.00, 0.21, 96, 1.400, -0.500, -25.700, 1620, 100, 100, 28, 23793, -17458, 5180, 5396, 16, 14, 1527021255.124, 64, 0, 1024, 1024, 1024, 1024, 0, 6, 3937, 3959, 3978, 3981, 3959, 3990, 0, 1, 8702, -89.900, 0.000, -25.500, 0.000, 0.000, -3.100, 0.0, , , , , , 96, , , 61, 61, 61
38.8912935, -120.7647950, 10.200, 13:34:15.223, 14, 0.00, 0.22, 96, 1.400, -0.200, -25.700, 1620, 100, 100, 28, 23793, -17458, 5180, 5396, 16, 14, 1527021255.223, 31, 0, 1024, 1024, 1024, 1024, 0, 6, 3937, 3959, 3978, 3981, 3959, 3990, 0, 1, 8802, -89.900, 0.000, -25.500, 0.000, 0.000, -3.100, 0.0, , , , , , 96, , , 61, 61, 61
38.8912934, -120.7647952, 10.500, 13:34:15.323, 15, 0.00, 0.25, 96, 1.400, 0.000, -25.700, 1620, 100, 99, 28, 23793, -17458, 5180, 5396, 16, 14, 1527021255.323, 48, 0, 1024, 1024, 1024, 1024, 0, 6, 3937, 3959, 3978, 3981, 3959, 3990, 0, 1, 8901, -89.900, 0.000, -25.500, 0.000, 0.000, -3.100, 0.0, , , , , , 96, , , 61, 61, 61
38.8912932, -120.7647954, 10.800, 13:34:15.423, 15, 0.00, 0.27, 96, 1.600, 0.000, -25.700, 1620, 100, 99, 28, 23793, -17458, 5180, 5396, 16, 14, 1527021255.423, 45, 0, 1024, 1024, 1024, 1024, 0, 6, 3937, 3959, 3978, 3981, 3959, 3990, 0, 1, 9001, -89.900, 0.000, -25.500, 0.000, 0.000, -3.000, 0.0, , , , , , 96, , , 61, 61, 61
38.8912930, -120.7647955, 11.100, 13:34:15.523, 16, 0.00, 0.30, 96, 1.700, -0.100, -25.800, 1620, 100, 99, 28, 23793, -17458, 5180, 5396, 16, 14, 1527021255.524, 33, 0, 1024, 1024, 1024, 1024, 0, 6, 3937, 3959, 3978, 3981, 3959, 3990, 0, 1, 9102, -89.900, 0.000, -25.500, 0.000, 0.000, -3.000, 0.0, , , , , , 96, , , 61, 61, 61
38.8912930, -120.7647955, 11.100, 13:34:15.622, 16, 0.00, 0.30, 96, 1.700, -0.100, -25.800, 1620, 100, 99, 28, 23793, -17458, 5180, 5396, 16, 14, 1527021255.623, 132, 0, 1024, 1024, 1024, 1024, 0, 6, 3937, 3959, 3978, 3981, 3959, 3990, 0, 1, 9201, -89.900, 0.000, -25.500, 0.000, 0.000, -3.000, 0.0, , , , , , 96, , , 61, 61, 61
38.8912928, -120.7647956, 11.400, 13:34:15.723, 16, 0.00, 0.32, 96, 1.800, -0.300, -25.800, 1620, 100, 99, 28, 23793, -17458, 5180, 5396, 16, 14, 1527021255.723, 48, 0, 1024, 1024, 1024, 1024, 0, 6, 3937, 3959, 3978, 3981, 3959, 3990, 0, 1, 9302, -89.900, 0.000, -25.500, 0.000, 0.000, -3.000, 0.0, , , , , , 96, , , 61, 61, 61
38.8912927, -120.7647957, 11.800, 13:34:15.823, 15, 0.00, 0.34, 96, 1.700, -0.400, -25.800, 1620, 100, 96, 28, 24000, -18198, 5180, 5396, 16, 14, 1527021255.826, 35, 0, 1024, 1024, 1024, 1024, 0, 6, 3937, 3959, 3978, 3981, 3959, 3990, 0, 1, 9404, -89.900, 0.000, -25.500, 0.000, 0.000, -3.000, 0.0, , , , , , 96, , , 61, 61, 61
38.8912927, -120.7647957, 11.800, 13:34:15.923, 15, 0.00, 0.34, 96, 1.700, -0.400, -25.800, 1620, 100, 96, 28, 24000, -18198, 5180, 5396, 16, 14, 1527021255.924, 133, 0, 1024, 1024, 1024, 1024, 0, 6, 3987, 4008, 4006, 4021, 3992, 4013, 0, 1, 9502, -89.900, 0.000, -25.500, 0.000, 0.000, -3.000, 0.0, , , , , , 96, , , 61, 61, 61
38.8912925, -120.7647958, 12.100, 13:34:16.022, 15, 0.00, 0.36, 96, 1.700, -0.500, -25.800, 1620, 100, 96, 28, 24000, -18198, 5180, 5396, 16, 14, 1527021256.023, 73, 0, 1024, 1024, 1024, 1024, 0, 6, 3987, 4008, 4006, 4021, 3992, 4013, 0, 1, 9602, -89.900, 0.000, -25.500, 0.000, 0.000, -3.000, 0.0, , , , , , 96, , , 61, 61, 61
38.8912924, -120.7647959, 12.400, 13:34:16.122, 16, 0.00, 0.37, 96, 1.600, -0.600, -25.900, 1620, 100, 96, 28, 24000, -18198, 5180, 5396, 16, 14, 1527021256.124, 34, 0, 1024, 1024, 1024, 1024, 0, 6, 3987, 4008, 4006, 4021, 3992, 4013, 0, 1, 9702, -89.900, 0.000, -25.500, 0.000, 0.000, -3.000, 0.0, , , , , , 96, , , 61, 61, 61
38.8912924, -120.7647959, 12.400, 13:34:16.223, 16, 0.00, 0.37, 96, 1.600, -0.600, -25.900, 1620, 100, 96, 28, 24000, -18198, 5180, 5396, 16, 14, 1527021256.223, 134, 0, 1024, 1024, 1024, 1024, 0, 6, 3987, 4008, 4006, 4021, 3992, 4013, 0, 1, 9802, -89.900, 0.000, -25.500, 0.000, 0.000, -3.000, 0.0, , , , , , 96, , , 61, 61, 61
38.8912923, -120.7647960, 12.700, 13:34:16.322, 16, 0.00, 0.38, 96, 1.500, -0.500, -25.800, 1620, 100, 96, 28, 24000, -18198, 5180, 5396, 16, 14, 1527021256.323, 83, 0, 1024, 1024, 1024, 1024, 0, 6, 3987, 4008, 4006, 4021, 3992, 4013, 0, 1, 9901, -89.900, 0.000, -25.500, 0.000, 0.000, -3.000, 0.0, , , , , , 96, , , 61, 61, 61
38.8912923, -120.7647962, 13.300, 13:34:16.424, 15, 0.00, 0.40, 96, 1.600, -0.200, -25.800, 1620, 100, 96, 28, 24000, -18198, 5180, 5396, 16, 14, 1527021256.424, 7, 0, 1024, 1024, 1024, 1024, 0, 6, 3987, 4008, 4006, 4021, 3992, 4013, 0, 1, 10003, -89.900, 0.000, -25.500, 0.000, 0.000, -3.000, 0.0, , , , , , 96, , , 61, 61, 61
38.8912922, -120.7647962, 13.700, 13:34:16.523, 16, 0.00, 0.40, 96, 1.700, 0.000, -25.800, 1620, 100, 94, 28, 24000, -18198, 5180, 5396, 16, 14, 1527021256.523, 95, 0, 1024, 1024, 1024, 1024, 0, 6, 3987, 4008, 4006, 4021, 3992, 4013, 0, 1, 10101, -89.900, 0.000, -25.500, 0.000, 0.000, -3.000, 0.0, , , , , , 96, , , 61, 61, 61
38.8912922, -120.7647962, 14.300, 13:34:16.622, 16, 0.14, 0.41, 96, 1.500, -0.100, -25.800, 1620, 100, 94, 28, 24000, -18198, 5180, 5396, 16, 14, 1527021256.622, 5, 0, 1024, 1024, 1024, 1024, 0, 6, 3987, 4008, 4006, 4021, 3992, 4013, 0, 1, 10201, -89.900, 0.000, -25.500, 0.100, 0.100, -2.900, 0.0, , , , , , 96, , , 61, 61, 61
38.8912922, -120.7647962, 14.500, 13:34:16.722, 16, 0.14, 0.40, 96, 1.200, -0.100, -25.800, 1620, 100, 94, 28, 24000, -18198, 5180, 5396, 16, 14, 1527021256.723, 17, 0, 1024, 1024, 1024, 1024, 0, 6, 3987, 4008, 4006, 4021, 3992, 4013, 0, 1, 10301, -89.900, 0.000, -25.500, 0.100, 0.100, -2.800, 0.0, , , , , , 96, , , 61, 61, 61
38.8912922, -120.7647961, 14.800, 13:34:16.823, 16, 0.14, 0.40, 96, 1.000, -0.100, -25.800, 1620, 100, 94, 28, 24052, -18013, 5180, 5396, 16, 14, 1527021256.823, 21, 0, 1024, 1024, 1024, 1024, 0, 6, 3984, 4009, 4010, 4036, 3998, 4020, 0, 1, 10401, -89.900, 0.000, -25.500, 0.100, 0.100, -2.800, 0.0, , , , , , 96, , , 61, 61, 61
38.8912922, -120.7647960, 15.100, 13:34:16.923, 16, 0.14, 0.39, 96, 0.800, 0.000, -25.700, 1620, 100, 93, 28, 24052, -18013, 5180, 5396, 16, 14, 1527021256.923, 36, 0, 1024, 1024, 1024, 1024, 0, 6, 3984, 4009, 4010, 4036, 3998, 4020, 0, 1, 10501, -89.900, 0.000, -25.500, 0.100, 0.100, -2.800, 0.0, , , , , , 96, , , 61, 61, 61
38.8912923, -120.7647960, 15.400, 13:34:17.023, 17, 0.14, 0.38, 96, 0.600, 0.000, -25.700, 1620, 100, 93, 28, 24052, -18013, 5180, 5396, 16, 14, 1527021257.023, 60, 0, 1024, 1024, 1024, 1024, 0, 6, 3984, 4009, 4010, 4036, 3998, 4020, 0, 1, 10601, -89.900, 0.000, -25.500, 0.100, 0.100, -2.900, 0.0, , , , , , 96, , , 61, 61, 61
38.8912924, -120.7647959, 15.700, 13:34:17.122, 17, 0.14, 0.37, 96, 0.300, 0.100, -25.600, 1620, 100, 93, 28, 24052, -18013, 5180, 5396, 16, 14, 1527021257.122, 70, 0, 1024, 1024, 1024, 1024, 0, 6, 3984, 4009, 4010, 4036, 3998, 4020, 0, 1, 10701, -89.900, 0.000, -25.500, 0.100, 0.100, -2.900, 0.0, , , , , , 96, , , 61, 61, 61
38.8912925, -120.7647957, 16.000, 13:34:17.223, 17, 0.14, 0.36, 96, 0.000, 0.100, -25.500, 1620, 100, 93, 28, 24052, -18013, 5180, 5396, 16, 14, 1527021257.224, 19, 0, 1024, 1024, 1024, 1024, 0, 6, 3984, 4009, 4010, 4036, 3998, 4020, 0, 1, 10802, -89.900, 0.000, -25.500, 0.100, 0.100, -2.900, 0.0, , , , , , 96, , , 61, 61, 61
38.8912925, -120.7647957, 16.000, 13:34:17.323, 17, 0.14, 0.36, 96, 0.000, 0.100, -25.500, 1620, 100, 93, 28, 24052, -18013, 5180, 5396, 16, 14, 1527021257.324, 119, 0, 1024, 1024, 1024, 1024, 0, 6, 3984, 4009, 4010, 4036, 3998, 4020, 0, 1, 10902, -89.900, 0.000, -25.500, 0.100, 0.100, -2.900, 0.0, , , , , , 96, , , 61, 61, 61
38.8912926, -120.7647956, 16.300, 13:34:17.423, 17, 0.14, 0.34, 96, -0.100, 0.200, -25.500, 1620, 100, 93, 28, 24052, -18013, 5180, 5396, 16, 14, 1527021257.424, 32, 0, 1024, 1024, 1024, 1024, 0, 6, 3984, 4009, 4010, 4036, 3998, 4020, 0, 1, 11002, -89.900, 0.000, -25.500, 0.100, 0.100, -2.900, 0.0, , , , , , 96, , , 61, 61, 61
38.8912927, -120.7647955, 16.600, 13:34:17.523, 17, 0.14, 0.33, 96, -0.100, 0.300, -25.500, 1620, 100, 95, 28, 24052, -18013, 5180, 5396, 16, 14, 1527021257.523, 35, 0, 1024, 1024, 1024, 1024, 0, 6, 3984, 4009, 4010, 4036, 3998, 4020, 0, 1, 11102, -89.900, 0.000, -25.500, 0.100, 0.100, -3.000, 0.0, , , , , , 96, , , 61, 61, 61
38.8912927, -120.7647955, 16.600, 13:34:17.622, 17, 0.14, 0.33, 96, -0.100, 0.300, -25.500, 1620, 100, 95, 28, 24052, -18013, 5180, 5396, 16, 14, 1527021257.623, 134, 0, 1024, 1024, 1024, 1024, 0, 6, 3984, 4009, 4010, 4036, 3998, 4020, 0, 1, 11201, -89.900, 0.000, -25.500, 0.100, 0.100, -3.000, 0.0, , , , , , 96, , , 61, 61, 61
38.8912929, -120.7647954, 16.900, 13:34:17.723, 17, 0.14, 0.31, 96, 0.000, 0.600, -25.500, 1620, 100, 95, 28, 24052, -18013, 5180, 5396, 16, 14, 1527021257.723, 53, 0, 1024, 1024, 1024, 1024, 0, 6, 3984, 4009, 4010, 4036, 3998, 4020, 0, 1, 11301, -89.900, 0.000, -25.500, 0.100, 0.100, -3.000, 0.0, , , , , , 96, , , 61, 61, 61
38.8912930, -120.7647953, 17.200, 13:34:17.823, 17, 0.14, 0.29, 96, 0.000, 0.900, -25.600, 1620, 100, 95, 28, 24052, -18013, 5180, 5396, 16, 14, 1527021257.823, 48, 0, 1024, 1024, 1024, 1024, 0, 6, 3984, 4009, 4010, 4036, 3998, 4020, 0, 1, 11402, -89.900, 0.000, -25.500, 0.100, 0.100, -2.900, 0.0, , , , , , 96, , , 61, 61, 61
38.8912931, -120.7647952, 17.500, 13:34:17.926, 17, 0.14, 0.28, 96, 0.000, 1.100, -25.700, 1620, 100, 95, 28, 24052, -18013, 5180, 5396, 16, 14, 1527021257.927, 4, 0, 1024, 1024, 1024, 1024, 0, 6, 3984, 4009, 4010, 4036, 3998, 4020, 0, 1, 11505, -89.900, 0.000, -25.500, 0.100, 0.100, -2.900, 0.0, , , , , , 96, , , 61, 61, 61
38.8912932, -120.7647951, 17.800, 13:34:18.024, 15, 0.14, 0.26, 96, -0.100, 1.100, -25.700, 1620, 100, 97, 28, 23986, -18439, 5180, 5396, 16, 14, 1527021258.024, 34, 0, 1024, 1024, 1024, 1024, 0, 6, 3984, 4009, 4010, 4036, 3998, 4020, 0, 1, 11603, -89.900, 0.000, -25.500, 0.100, 0.100, -2.900, 0.0, , , , , , 96, , , 61, 61, 61
38.8912932, -120.7647951, 17.800, 13:34:18.133, 15, 0.14, 0.26, 96, -0.100, 1.100, -25.700, 1620, 100, 97, 28, 23986, -18439, 5180, 5396, 16, 14, 1527021258.139, 148, 0, 1024, 1024, 1024, 1024, 0, 6, 3969, 3995, 4004, 4020, 3989, 4004, 0, 1, 11717, -89.900, 0.000, -25.500, 0.100, 0.100, -2.900, 0.0, , , , , , 96, , , 61, 61, 61
38.8912932, -120.7647951, 17.800, 13:34:18.223, 15, 0.14, 0.26, 96, -0.100, 1.100, -25.700, 1620, 100, 97, 28, 23986, -18439, 5180, 5396, 16, 14, 1527021258.224, 233, 0, 1024, 1024, 1024, 1024, 0, 6, 3969, 3995, 4004, 4020, 3989, 4004, 0, 1, 11802, -89.900, 0.000, -25.500, 0.100, 0.100, -2.900, 0.0, , , , , , 96, , , 61, 61, 61
38.8912935, -120.7647949, 18.400, 13:34:18.323, 17, 0.14, 0.23, 96, -0.200, 1.100, -25.800, 1620, 100, 97, 28, 23986, -18439, 5180, 5396, 16, 14, 1527021258.323, 35, 0, 1024, 1024, 1024, 1024, 0, 6, 3969, 3995, 4004, 4020, 3989, 4004, 0, 1, 11901, -89.900, 0.000, -25.500, 0.100, 0.100, -2.900, 0.0, , , , , , 96, , , 61, 61, 61
38.8912936, -120.7647948, 18.700, 13:34:18.423, 17, 0.10, 0.22, 96, -0.200, 1.100, -25.800, 1620, 100, 97, 28, 23986, -18439, 5180, 5396, 16, 14, 1527021258.424, 17, 0, 1024, 1024, 1024, 1024, 0, 6, 3969, 3995, 4004, 4020, 3989, 4004, 0, 1, 12002, -89.900, 0.000, -25.500, 0.100, 0.000, -2.900, 0.0, , , , , , 96, , , 61, 61, 61
38.8912936, -120.7647948, 18.700, 13:34:18.523, 17, 0.10, 0.22, 96, -0.200, 1.100, -25.800, 1620, 100, 97, 28, 23986, -18439, 5180, 5396, 16, 14, 1527021258.523, 116, 0, 1024, 1024, 1024, 1024, 0, 6, 3969, 3995, 4004, 4020, 3989, 4004, 0, 1, 12101, -89.900, 0.000, -25.500, 0.100, 0.000, -2.900, 0.0, , , , , , 96, , , 61, 61, 61
38.8912936, -120.7647948, 18.700, 13:34:18.622, 17, 0.10, 0.22, 96, -0.200, 1.100, -25.800, 1620, 100, 97, 28, 23986, -18439, 5180, 5396, 16, 14, 1527021258.623, 216, 0, 1024, 1024, 1024, 1024, 0, 6, 3969, 3995, 4004, 4020, 3989, 4004, 0, 1, 12201, -89.900, 0.000, -25.500, 0.100, 0.000, -2.900, 0.0, , , , , , 96, , , 61, 61, 61
38.8912940, -120.7647944, 19.900, 13:34:18.733, 17, 0.00, 0.16, 96, -0.400, 1.200, -25.600, 1620, 100, 97, 28, 23986, -18439, 5180, 5396, 16, 14, 1527021258.734, 10, 0, 1024, 1024, 1024, 1024, 0, 6, 3969, 3995, 4004, 4020, 3989, 4004, 0, 1, 12312, -89.900, 0.000, -25.500, 0.000, 0.000, -2.900, 0.0, , , , , , 96, , , 61, 61, 61
38.8912941, -120.7647943, 20.200, 13:34:18.824, 17, 0.00, 0.15, 96, -0.400, 1.100, -25.600, 1620, 100, 97, 28, 23986, -18439, 5180, 5396, 16, 14, 1527021258.825, 20, 0, 1024, 1024, 1024, 1024, 0, 6, 3969, 3995, 4004, 4020, 3989, 4004, 0, 1, 12403, -89.900, 0.000, -25.500, 0.000, 0.000, -2.800, 0.0, , , , , , 96, , , 61, 61, 61
38.8912941, -120.7647942, 20.500, 13:34:18.922, 17, 0.00, 0.14, 96, -0.400, 0.800, -25.700, 1620, 100, 97, 29, 23974, -18290, 5180, 5396, 16, 14, 1527021258.922, 49, 0, 1024, 1024, 1024, 1024, 0, 6, 3971, 3996, 3998, 4021, 3979, 4005, 0, 1, 12501, -89.900, 0.000, -25.500, 0.000, 0.000, -2.900, 0.0, , , , , , 96, , , 61, 61, 61
38.8912941, -120.7647942, 20.500, 13:34:19.023, 17, 0.00, 0.14, 96, -0.400, 0.800, -25.700, 1620, 100, 97, 29, 23974, -18290, 5180, 5396, 16, 14, 1527021259.023, 149, 0, 1024, 1024, 1024, 1024, 0, 6, 3971, 3996, 3998, 4021, 3979, 4005, 0, 1, 12601, -89.900, 0.000, -25.500, 0.000, 0.000, -2.900, 0.0, , , , , , 96, , , 61, 61, 61
38.8912943, -120.7647940, 21.400, 13:34:19.123, 17, 0.00, 0.12, 96, -0.500, 0.700, -25.600, 1620, 100, 97, 29, 23974, -18290, 5180, 5396, 16, 14, 1527021259.124, 50, 0, 1024, 1024, 1024, 1024, 0, 6, 3971, 3996, 3998, 4021, 3979, 4005, 0, 1, 12702, -89.900, 0.000, -25.500, 0.000, 0.000, -2.900, 0.0, , , , , , 96, , , 61, 61, 61
38.8912944, -120.7647939, 21.700, 13:34:19.223, 17, 0.00, 0.11, 96, -0.500, 0.800, -25.600, 1620, 100, 97, 29, 23974, -18290, 5180, 5396, 16, 14, 1527021259.223, 58, 0, 1024, 1024, 1024, 1024, 0, 6, 3971, 3996, 3998, 4021, 3979, 4005, 0, 1, 12802, -89.900, 0.000, -25.500, 0.000, 0.000, -2.900, 0.0, , , , , , 96, , , 61, 61, 61
38.8912945, -120.7647938, 22.000, 13:34:19.322, 17, 0.00, 0.10, 96, -0.600, 1.000, -25.600, 1620, 100, 97, 29, 23974, -18290, 5180, 5396, 16, 14, 1527021259.322, 60, 0, 1024, 1024, 1024, 1024, 0, 6, 3971, 3996, 3998, 4021, 3979, 4005, 0, 1, 12901, -89.900, 0.000, -25.500, 0.000, 0.000, -2.900, 0.0, , , , , , 96, , , 61, 61, 61
38.8912946, -120.7647937, 22.600, 13:34:19.432, 17, 0.00, 0.09, 96, -0.800, 1.200, -25.700, 1620, 100, 98, 29, 23974, -18290, 5180, 5396, 16, 14, 1527021259.433, 8, 0, 1024, 1024, 1024, 1024, 0, 6, 3971, 3996, 3998, 4021, 3979, 4005, 0, 1, 13011, -89.900, 0.000, -25.500, 0.000, 0.000, -2.900, 0.0, , , , , , 96, , , 61, 61, 61
38.8912947, -120.7647937, 22.900, 13:34:19.523, 17, 0.00, 0.08, 96, -0.700, 1.300, -25.700, 1620, 100, 98, 29, 23974, -18290, 5180, 5396, 16, 14, 1527021259.523, 28, 0, 1024, 1024, 1024, 1024, 0, 6, 3971, 3996, 3998, 4021, 3979, 4005, 0, 1, 13101, -89.900, 0.000, -25.500, 0.000, 0.000, -2.900, 0.0, , , , , , 96, , , 61, 61, 61
38.8912947, -120.7647937, 23.200, 13:34:19.622, 17, 0.00, 0.08, 96, -0.500, 1.300, -25.700, 1620, 100, 98, 29, 23974, -18290, 5180, 5396, 16, 14, 1527021259.623, 55, 0, 1024, 1024, 1024, 1024, 0, 6, 3971, 3996, 3998, 4021, 3979, 4005, 0, 1, 13201, -89.900, 0.000, -25.500, 0.000, 0.000, -2.900, 0.0, , , , , , 96, , , 61, 61, 61
38.8912948, -120.7647937, 23.700, 13:34:19.736, 17, 0.00, 0.07, 96, -0.200, 1.300, -25.600, 1620, 100, 98, 29, 23902, -19015, 5180, 5396, 16, 14, 1527021259.737, 19, 0, 1024, 1024, 1024, 1024, 0, 6, 3971, 3996, 3998, 4021, 3979, 4005, 0, 1, 13315, -89.900, 0.000, -25.500, 0.000, 0.000, -2.900, 0.0, , , , , , 96, , , 61, 61, 61
38.8912949, -120.7647937, 24.000, 13:34:19.823, 17, 0.00, 0.06, 96, -0.200, 1.300, -25.500, 1620, 100, 97, 29, 23902, -19015, 5180, 5396, 16, 14, 1527021259.823, 31, 0, 1024, 1024, 1024, 1024, 0, 6, 3971, 3996, 3998, 4021, 3979, 4005, 0, 1, 13401, -89.900, 0.000, -25.500, 0.000, 0.000, -2.900, 0.0, , , , , , 96, , , 61, 61, 61
38.8912949, -120.7647937, 24.000, 13:34:19.923, 17, 0.00, 0.06, 96, -0.200, 1.300, -25.500, 1620, 100, 97, 29, 23902, -19015, 5180, 5396, 16, 14, 1527021259.924, 131, 0, 1024, 1024, 1024, 1024, 0, 6, 3971, 3996, 3998, 4021, 3979, 4005, 0, 1, 13502, -89.900, 0.000, -25.500, 0.000, 0.000, -2.900, 0.0, , , , , , 96, , , 61, 61, 61
38.8912949, -120.7647937, 24.300, 13:34:20.023, 17, 0.00, 0.06, 96, -0.200, 1.400, -25.400, 1620, 100, 97, 29, 23902, -19015, 5180, 5396, 16, 14, 1527021260.023, 55, 0, 1024, 1024, 1024, 1024, 0, 6, 3971, 3996, 3998, 4021, 3979, 4005, 0, 1, 13602, -89.900, 0.000, -25.500, 0.000, 0.000, -3.000, 0.0, , , , , , 96, , , 61, 61, 61
38.8912949, -120.7647938, 25.000, 13:34:20.122, 17, 0.00, 0.06, 96, 0.000, 1.100, -25.400, 1620, 100, 97, 29, 23902, -19015, 5180, 5396, 16, 14, 1527021260.122, 37, 0, 1024, 1024, 1024, 1024, 0, 6, 3971, 3996, 3998, 4021, 3979, 4005, 0, 1, 13701, -89.900, 0.000, -25.500, 0.000, 0.000, -3.000, 0.0, , , , , , 96, , , 61, 61, 61
38.8912949, -120.7647938, 25.300, 13:34:20.223, 17, 0.00, 0.06, 96, 0.100, 0.900, -25.500, 1620, 100, 97, 29, 23902, -19015, 5180, 5396, 16, 14, 1527021260.223, 12, 0, 1024, 1024, 1024, 1024, 0, 6, 3971, 3996, 3998, 4021, 3979, 4005, 0, 1, 13801, -89.900, 0.000, -25.500, 0.000, 0.000, -3.000, 0.0, , , , , , 96, , , 61, 61, 61
38.8912949, -120.7647938, 25.600, 13:34:20.323, 17, 0.00, 0.05, 96, 0.000, 0.700, -25.700, 1620, 100, 99, 29, 23902, -19015, 5180, 5396, 16, 14, 1527021260.324, 28, 0, 1024, 1024, 1024, 1024, 0, 6, 3971, 3996, 3998, 4021, 3979, 4005, 0, 1, 13902, -90.000, 0.000, -25.500, 0.000, 0.000, -3.000, 0.0, , , , , , 96, , , 61, 61, 61
38.8912949, -120.7647939, 25.900, 13:34:20.423, 17, 0.00, 0.05, 96, 0.000, 0.800, -26.000, 1620, 100, 99, 29, 23902, -19015, 5180, 5396, 16, 14, 1527021260.424, 54, 0, 1024, 1024, 1024, 1024, 0, 6, 3957, 3981, 3993, 4003, 3967, 3993, 0, 1, 14002, -89.900, 0.000, -25.500, 0.000, 0.000, -3.000, 0.0, , , , , , 96, , , 61, 61, 61
38.8912950, -120.7647939, 26.200, 13:34:20.523, 17, 0.00, 0.05, 96, 0.100, 1.200, -26.300, 1620, 100, 99, 29, 23902, -19015, 5180, 5396, 16, 14, 1527021260.523, 74, 0, 1024, 1024, 1024, 1024, 0, 6, 3957, 3981, 3993, 4003, 3967, 3993, 0, 1, 14102, -89.900, 0.000, -25.500, 0.000, 0.000, -3.000, 0.0, , , , , , 96, , , 61, 61, 61
38.8912950, -120.7647940, 26.500, 13:34:20.622, 17, 0.00, 0.05, 96, 0.400, 1.600, -26.400, 1620, 100, 99, 29, 23902, -19015, 5180, 5396, 16, 14, 1527021260.622, 74, 0, 1024, 1024, 1024, 1024, 0, 6, 3957, 3981, 3993, 4003, 3967, 3993, 0, 1, 14201, -89.900, 0.000, -25.500, 0.000, 0.000, -2.900, 0.0, , , , , , 96, , , 61, 61, 61
38.8912950, -120.7647941, 26.800, 13:34:20.723, 17, 0.00, 0.05, 96, 0.400, 1.800, -26.400, 1620, 100, 98, 29, 23902, -19015, 5180, 5396, 16, 14, 1527021260.723, 38, 0, 1024, 1024, 1024, 1024, 0, 6, 3957, 3981, 3993, 4003, 3967, 3993, 0, 1, 14301, -89.900, 0.000, -25.500, 0.000, 0.000, -3.000, 0.0, , , , , , 96, , , 61, 61, 61
38.8912950, -120.7647941, 27.100, 13:34:20.823, 17, 0.00, 0.05, 96, 0.200, 1.700, -26.300, 1620, 100, 98, 29, 23902, -19015, 5180, 5396, 16, 14, 1527021260.823, 53, 0, 1024, 1024, 1024, 1024, 0, 6, 3957, 3981, 3993, 4003, 3967, 3993, 0, 1, 14401, -89.900, 0.000, -25.500, 0.000, 0.000, -2.900, 0.0, , , , , , 96, , , 61, 61, 61
38.8912950, -120.7647942, 27.400, 13:34:20.923, 17, 0.00, 0.05, 96, 0.400, 1.700, -26.100, 1620, 100, 98, 29, 23902, -19015, 5180, 5396, 16, 14, 1527021260.923, 39, 0, 1024, 1024, 1024, 1024, 0, 6, 3957, 3981, 3993, 4003, 3967, 3993, 0, 1, 14501, -89.900, 0.000, -25.500, 0.000, 0.000, -2.900, 0.0, , , , , , 96, , , 61, 61, 61
38.8912949, -120.7647942, 27.700, 13:34:21.023, 17, 0.00, 0.06, 96, 0.500, 1.500, -25.800, 1620, 100, 98, 29, 23902, -19015, 5180, 5396, 16, 14, 1527021261.023, 32, 0, 1024, 1024, 1024, 1024, 0, 6, 3957, 3981, 3993, 4003, 3967, 3993, 0, 1, 14601, -89.900, 0.000, -25.500, 0.000, 0.000, -2.900, 0.0, , , , , , 96, , , 61, 61, 61
38.8912949, -120.7647942, 28.300, 13:34:21.122, 17, 0.00, 0.06, 96, 0.300, 1.000, -25.700, 1620, 100, 98, 29, 23874, -19012, 5180, 5396, 16, 14, 1527021261.122, 28, 0, 1024, 1024, 1024, 1024, 0, 6, 3957, 3981, 3993, 4003, 3967, 3993, 0, 1, 14701, -89.900, 0.000, -25.500, 0.000, 0.000, -2.800, 0.0, , , , , , 96, , , 61, 61, 61
38.8912949, -120.7647942, 28.300, 13:34:21.223, 17, 0.00, 0.06, 96, 0.300, 1.000, -25.700, 1620, 100, 99, 29, 23874, -19012, 5180, 5396, 16, 14, 1527021261.223, 129, 0, 1024, 1024, 1024, 1024, 0, 6, 3955, 3976, 3993, 4002, 3962, 3994, 0, 1, 14801, -89.900, 0.000, -25.500, 0.000, 0.000, -2.800, 0.0, , , , , , 96, , , 61, 61, 61
38.8912949, -120.7647942, 28.600, 13:34:21.323, 17, 0.00, 0.06, 96, 0.100, 1.100, -25.600, 1620, 100, 99, 29, 23874, -19012, 5180, 5396, 16, 14, 1527021261.323, 5, 0, 1024, 1024, 1024, 1024, 0, 6, 3955, 3976, 3993, 4002, 3962, 3994, 0, 1, 14902, -89.900, 0.000, -25.500, 0.000, 0.000, -2.900, 0.0, , , , , , 96, , , 61, 61, 61
38.8912948, -120.7647942, 29.200, 13:34:21.423, 17, 0.00, 0.06, 96, -0.300, 0.900, -25.400, 1620, 100, 99, 29, 23874, -19012, 5180, 5396, 16, 14, 1527021261.423, 20, 0, 1024, 1024, 1024, 1024, 0, 6, 3955, 3976, 3993, 4002, 3962, 3994, 0, 1, 15001, -90.000, 0.000, -25.500, 0.000, 0.000, -3.000, 0.0, , , , , , 96, , , 61, 61, 61
38.8912948, -120.7647942, 29.500, 13:34:21.525, 17, 0.00, 0.07, 96, -0.600, 0.600, -25.600, 1620, 100, 99, 29, 23874, -19012, 5180, 5396, 16, 14, 1527021261.526, 7, 0, 1024, 1024, 1024, 1024, 0, 6, 3955, 3976, 3993, 4002, 3962, 3994, 0, 1, 15104, -90.000, 0.000, -25.500, 0.000, 0.000, -2.900, 0.0, , , , , , 96, , , 61, 61, 61
38.8912948, -120.7647942, 29.800, 13:34:21.627, 17, 0.00, 0.07, 96, -0.800, 0.700, -25.800, 1620, 100, 99, 29, 23874, -19012, 5180, 5396, 16, 14, 1527021261.627, 7, 0, 1024, 1024, 1024, 1024, 0, 6, 3955, 3976, 3993, 4002, 3962, 3994, 0, 1, 15205, -89.900, 0.000, -25.500, 0.000, 0.000, -3.000, 0.0, , , , , , 96, , , 61, 61, 61
38.8912948, -120.7647941, 30.100, 13:34:21.730, 17, 0.00, 0.07, 96, -0.700, 0.900, -26.100, 1620, 100, 98, 29, 23874, -19012, 5180, 5396, 16, 14, 1527021261.730, 11, 0, 1024, 1024, 1024, 1024, 0, 6, 3955, 3976, 3993, 4002, 3962, 3994, 0, 1, 15308, -89.900, 0.000, -25.500, 0.000, 0.000, -3.000, 0.0, , , , , , 96, , , 61, 61, 61
38.8912948, -120.7647941, 30.100, 13:34:21.823, 17, 0.00, 0.07, 96, -0.700, 0.900, -26.100, 1620, 100, 98, 29, 23874, -19012, 5180, 5396, 16, 14, 1527021261.823, 104, 0, 1024, 1024, 1024, 1024, 0, 6, 3955, 3976, 3993, 4002, 3962, 3994, 0, 1, 15401, -89.900, 0.000, -25.500, 0.000, 0.000, -3.000, 0.0, , , , , , 96, , , 61, 61, 61
38.8912948, -120.7647941, 30.400, 13:34:21.923, 17, 0.00, 0.07, 96, -0.100, 1.200, -26.300, 1620, 100, 98, 29, 23874, -19012, 5180, 5396, 16, 14, 1527021261.923, 58, 0, 1024, 1024, 1024, 1024, 0, 6, 3955, 3976, 3993, 4002, 3962, 3994, 0, 1, 15501, -89.900, 0.000, -25.500, 0.000, 0.000, -3.000, 0.0, , , , , , 96, , , 61, 61, 61
38.8912948, -120.7647941, 30.700, 13:34:22.023, 17, 0.00, 0.07, 96, 0.000, 1.400, -26.500, 1620, 100, 98, 29, 23874, -19012, 5180, 5396, 16, 14, 1527021262.023, 73, 0, 1024, 1024, 1024, 1024, 0, 6, 3955, 3976, 3993, 4002, 3962, 3994, 0, 1, 15601, -89.900, 0.000, -25.500, 0.000, 0.000, -3.000, 0.0, , , , , , 96, , , 61, 61, 61
38.8912947, -120.7647941, 31.100, 13:34:22.122, 17, 0.00, 0.08, 96, -0.100, 1.300, -26.400, 1620, 100, 98, 29, 23874, -19012, 5180, 5396, 16, 14, 1527021262.123, 86, 0, 1024, 1024, 1024, 1024, 0, 6, 3955, 3976, 3993, 4002, 3962, 3994, 0, 1, 15701, -89.900, 0.000, -25.500, 0.000, 0.000, -3.000, 0.0, , , , , , 96, , , 61, 61, 61
38.8912947, -120.7647941, 31.400, 13:34:22.223, 17, 0.00, 0.08, 96, -0.400, 1.000, -26.100, 1620, 100, 99, 29, 23901, -18213, 5126, 5396, 16, 14, 1527021262.223, 52, 0, 1024, 1024, 1024, 1024, 0, 6, 3955, 3976, 3993, 4002, 3962, 3994, 0, 1, 15802, -90.000, 0.000, -25.500, 0.000, 0.000, -2.900, 0.0, , , , , , 96, , , 61, 61, 61
38.8912947, -120.7647941, 31.700, 13:34:22.322, 17, 0.00, 0.08, 96, -0.500, 0.800, -25.800, 1620, 100, 99, 29, 23901, -18213, 5126, 5396, 16, 14, 1527021262.323, 34, 0, 1024, 1024, 1024, 1024, 0, 6, 3955, 3976, 3993, 4002, 3962, 3994, 0, 1, 15901, -90.000, 0.000, -25.500, 0.000, 0.000, -2.900, 0.0, , , , , , 96, , , 61, 61, 61
38.8912946, -120.7647941, 32.000, 13:34:22.435, 17, 0.00, 0.08, 96, -0.200, 0.300, -25.600, 1620, 100, 99, 29, 23901, -18213, 5126, 5396, 16, 14, 1527021262.435, 13, 0, 1024, 1024, 1024, 1024, 0, 6, 3955, 3976, 3993, 4002, 3962, 3994, 0, 1, 16014, -90.000, 0.000, -25.500, 0.000, 0.000, -2.900, 0.0, , , , , , 96, , , 61, 61, 61
38.8912946, -120.7647941, 32.000, 13:34:22.523, 17, 0.00, 0.08, 96, -0.200, 0.300, -25.600, 1620, 100, 99, 29, 23901, -18213, 5126, 5396, 16, 14, 1527021262.524, 102, 0, 1024, 1024, 1024, 1024, 0, 6, 3955, 3976, 3993, 4002, 3962, 3994, 0, 1, 16102, -90.000, 0.000, -25.500, 0.000, 0.000, -2.900, 0.0, , , , , , 96, , , 61, 61, 61
38.8912946, -120.7647941, 32.000, 13:34:22.622, 17, 0.00, 0.08, 96, -0.200, 0.300, -25.600, 1620, 100, 99, 29, 23901, -18213, 5126, 5396, 16, 14, 1527021262.623, 201, 0, 1024, 1024, 1024, 1024, 0, 6, 3955, 3976, 3993, 4002, 3962, 3994, 0, 1, 16201, -90.000, 0.000, -25.500, 0.000, 0.000, -2.900, 0.0, , , , , , 96, , , 61, 61, 61
38.8912946, -120.7647941, 32.300, 13:34:22.723, 17, 0.00, 0.09, 96, 0.000, 0.600, -25.700, 1620, 100, 99, 29, 23901, -18213, 5126, 5396, 16, 14, 1527021262.723, 83, 0, 1024, 1024, 1024, 1024, 0, 6, 3954, 3972, 3991, 4002, 3966, 3983, 0, 1, 16302, -89.900, 0.000, -25.500, 0.000, 0.000, -2.900, 0.0, , , , , , 96, , , 61, 61, 61
38.8912946, -120.7647941, 32.600, 13:34:22.823, 17, 0.00, 0.09, 96, -0.200, 1.200, -25.700, 1620, 100, 99, 29, 23901, -18213, 5126, 5396, 16, 14, 1527021262.824, 55, 0, 1024, 1024, 1024, 1024, 0, 6, 3954, 3972, 3991, 4002, 3966, 3983, 0, 1, 16402, -89.900, 0.000, -25.500, 0.000, 0.000, -2.900, 0.0, , , , , , 96, , , 61, 61, 61
38.8912946, -120.7647941, 32.900, 13:34:22.923, 17, 0.00, 0.08, 95, -0.400, 1.800, -25.800, 1620, 100, 99, 29, 23901, -18213, 5126, 5396, 16, 14, 1527021262.923, 33, 0, 1024, 1024, 1024, 1024, 0, 6, 3954, 3972, 3991, 4002, 3966, 3983, 0, 1, 16502, -89.900, 0.000, -25.500, 0.000, 0.000, -2.900, 0.0, , , , , , 96, , , 61, 61, 61
38.8912946, -120.7647941, 32.900, 13:34:23.023, 17, 0.00, 0.08, 95, -0.400, 1.800, -25.800, 1620, 100, 99, 29, 23901, -18213, 5126, 5396, 16, 14, 1527021263.023, 134, 0, 1024, 1024, 1024, 1024, 0, 6, 3954, 3972, 3991, 4002, 3966, 3983, 0, 1, 16602, -89.900, 0.000, -25.500, 0.000, 0.000, -2.900, 0.0, , , , , , 96, , , 61, 61, 61
38.8912947, -120.7647941, 33.200, 13:34:23.122, 17, 0.10, 0.08, 95, -0.700, 2.300, -25.900, 1620, 100, 99, 29, 23901, -18213, 5126, 5396, 16, 14, 1527021263.123, 86, 0, 1024, 1024, 1024, 1024, 0, 6, 3954, 3972, 3991, 4002, 3966, 3983, 0, 1, 16701, -89.900, 0.000, -25.500, 0.100, 0.000, -2.900, 0.0, , , , , , 96, , , 61, 61, 61
38.8912947, -120.7647941, 33.200, 13:34:23.223, 17, 0.10, 0.08, 95, -0.700, 2.300, -25.900, 1620, 100, 99, 29, 23901, -18213, 5126, 5396, 16, 14, 1527021263.223, 186, 0, 1024, 1024, 1024, 1024, 0, 6, 3954, 3972, 3991, 4002, 3966, 3983, 0, 1, 16801, -89.900, 0.000, -25.500, 0.100, 0.000, -2.900, 0.0, , , , , , 96, , , 61, 61, 61
38.8912948, -120.7647940, 33.500, 13:34:23.323, 17, 0.10, 0.07, 95, -1.300, 2.800, -25.900, 1620, 100, 99, 29, 23901, -18213, 5126, 5396, 16, 14, 1527021263.324, 47, 0, 1024, 1024, 1024, 1024, 0, 6, 3954, 3972, 3991, 4002, 3966, 3983, 0, 1, 16902, -89.900, 0.000, -25.500, 0.100, 0.000, -2.800, 0.0, , , , , , 96, , , 61, 61, 61
38.8912948, -120.7647939, 33.700, 13:34:23.422, 17, 0.10, 0.06, 95, -2.000, 2.800, -25.800, 1620, 100, 99, 29, 23901, -18213, 5126, 5396, 16, 14, 1527021263.423, 52, 0, 1024, 1024, 1024, 1024, 0, 6, 3954, 3972, 3991, 4002, 3966, 3983, 0, 1, 17001, -89.900, 0.000, -25.500, 0.100, 0.000, -2.800, 0.0, , , , , , 96, , , 61, 61, 61
38.8912949, -120.7647938, 34.000, 13:34:23.523, 17, 0.10, 0.05, 95, -2.400, 2.300, -25.700, 1620, 100, 99, 29, 23895, -18368, 5126, 5396, 16, 14, 1527021263.523, 64, 0, 1024, 1024, 1024, 1024, 0, 6, 3961, 3981, 3997, 4004, 3971, 3991, 0, 1, 17101, -89.900, 0.000, -25.500, 0.100, 0.000, -2.800, 0.0, , , , , , 96, , , 61, 61, 61
38.8912949, -120.7647938, 34.000, 13:34:23.622, 17, 0.10, 0.05, 95, -2.400, 2.300, -25.700, 1620, 100, 99, 29, 23895, -18368, 5126, 5396, 16, 14, 1527021263.623, 163, 0, 1024, 1024, 1024, 1024, 0, 6, 3961, 3981, 3997, 4004, 3971, 3991, 0, 1, 17201, -89.900, 0.000, -25.500, 0.100, 0.000, -2.800, 0.0, , , , , , 96, , , 61, 61, 61
38.8912952, -120.7647936, 34.900, 13:34:23.723, 17, 0.10, 0.03, 95, -2.200, 2.700, -25.700, 1620, 100, 99, 29, 23895, -18368, 5126, 5396, 16, 14, 1527021263.724, 51, 0, 1024, 1024, 1024, 1024, 0, 6, 3961, 3981, 3997, 4004, 3971, 3991, 0, 1, 17302, -89.900, 0.000, -25.500, 0.100, 0.000, -2.800, 0.0, , , , , , 96, , , 61, 61, 61
38.8912953, -120.7647936, 35.200, 13:34:23.839, 17, 0.10, 0.03, 95, -2.000, 3.000, -25.700, 1620, 100, 99, 29, 23895, -18368, 5126, 5396, 16, 14, 1527021263.840, 15, 0, 1024, 1024, 1024, 1024, 0, 6, 3961, 3981, 3997, 4004, 3971, 3991, 0, 1, 17418, -89.900, 0.000, -25.500, 0.100, 0.000, -2.900, 0.0, , , , , , 96, , , 61, 61, 61
38.8912956, -120.7647936, 35.700, 13:34:23.934, 17, 0.10, 0.04, 95, -1.800, 3.700, -25.600, 1620, 100, 99, 29, 23895, -18368, 5126, 5396, 16, 14, 1527021263.934, 9, 0, 1024, 1024, 1024, 1024, 0, 6, 3961, 3981, 3997, 4004, 3971, 3991, 0, 1, 17513, -89.900, 0.000, -25.500, 0.100, 0.000, -2.800, 0.0, , , , , , 96, , , 61, 61, 61
38.8912956, -120.7647936, 35.700, 13:34:24.023, 17, 0.10, 0.04, 95, -1.800, 3.700, -25.600, 1620, 100, 99, 29, 23895, -18368, 5126, 5396, 16, 14, 1527021264.023, 98, 0, 1024, 1024, 1024, 1024, 0, 6, 3961, 3981, 3997, 4004, 3971, 3991, 0, 1, 17602, -89.900, 0.000, -25.500, 0.100, 0.000, -2.800, 0.0, , , , , , 96, , , 61, 61, 61
38.8912956, -120.7647936, 35.700, 13:34:24.122, 17, 0.10, 0.04, 95, -1.800, 3.700, -25.600, 1620, 100, 98, 29, 23895, -18368, 5126, 5396, 16, 14, 1527021264.123, 198, 0, 1024, 1024, 1024, 1024, 0, 6, 3961, 3981, 3997, 4004, 3971, 3991, 0, 1, 17701, -89.900, 0.000, -25.500, 0.100, 0.000, -2.800, 0.0, , , , , , 96, , , 61, 61, 61
38.8912959, -120.7647936, 36.300, 13:34:24.223, 17, 0.10, 0.07, 95, -1.700, 4.200, -25.500, 1620, 100, 98, 29, 23895, -18368, 5126, 5396, 16, 14, 1527021264.223, 28, 0, 1024, 1024, 1024, 1024, 0, 6, 3961, 3981, 3997, 4004, 3971, 3991, 0, 1, 17801, -89.900, 0.000, -25.500, 0.100, 0.000, -2.900, 0.0, , , , , , 96, , , 61, 61, 61
38.8912961, -120.7647936, 36.600, 13:34:24.323, 17, 0.10, 0.08, 95, -1.700, 4.500, -25.600, 1620, 100, 98, 29, 23895, -18368, 5126, 5396, 16, 14, 1527021264.323, 49, 0, 1024, 1024, 1024, 1024, 0, 6, 3961, 3981, 3997, 4004, 3971, 3991, 0, 1, 17902, -89.900, 0.000, -25.500, 0.100, 0.000, -3.000, 0.0, , , , , , 96, , , 61, 61, 61
38.8912965, -120.7647936, 37.500, 13:34:24.423, 17, 0.10, 0.12, 95, -2.100, 5.200, -25.900, 1620, 100, 97, 29, 23852, -18597, 5126, 5396, 16, 14, 1527021264.423, 36, 0, 1024, 1024, 1024, 1024, 0, 6, 3961, 3981, 3997, 4004, 3971, 3991, 0, 1, 18002, -89.900, 0.000, -25.500, 0.100, 0.000, -3.000, 0.0, , , , , , 96, , , 61, 61, 61
38.8912966, -120.7647936, 38.100, 13:34:24.530, 17, 0.00, 0.14, 95, -1.800, 4.800, -26.000, 1620, 100, 97, 29, 23852, -18597, 5126, 5396, 16, 14, 1527021264.531, 10, 0, 1024, 1024, 1024, 1024, 0, 6, 3933, 3959, 3976, 3990, 3950, 3970, 0, 1, 18109, -89.900, 0.000, -25.500, 0.000, 0.000, -3.000, 0.0, , , , , , 96, , , 61, 61, 61
38.8912967, -120.7647936, 38.400, 13:34:24.622, 17, 0.00, 0.15, 95, -1.800, 4.600, -25.900, 1620, 100, 97, 29, 23852, -18597, 5126, 5396, 16, 14, 1527021264.623, 30, 0, 1024, 1024, 1024, 1024, 0, 6, 3933, 3959, 3976, 3990, 3950, 3970, 0, 1, 18201, -89.900, 0.000, -25.500, 0.000, 0.000, -2.900, 0.0, , , , , , 96, , , 61, 61, 61
38.8912967, -120.7647936, 38.700, 13:34:24.730, 17, 0.00, 0.15, 95, -1.700, 4.300, -25.800, 1620, 100, 97, 29, 23852, -18597, 5126, 5396, 16, 14, 1527021264.731, 7, 0, 1024, 1024, 1024, 1024, 0, 6, 3933, 3959, 3976, 3990, 3950, 3970, 0, 1, 18309, -89.900, 0.000, -25.500, 0.000, 0.000, -2.900, 0.0, , , , , , 96, , , 61, 61, 61
38.8912967, -120.7647935, 39.000, 13:34:24.822, 17, 0.00, 0.15, 95, -1.700, 4.100, -25.700, 1620, 100, 98, 29, 23852, -18597, 5126, 5396, 16, 14, 1527021264.823, 44, 0, 1024, 1024, 1024, 1024, 0, 6, 3933, 3959, 3976, 3990, 3950, 3970, 0, 1, 18401, -89.900, 0.000, -25.500, 0.000, 0.000, -2.900, 0.0, , , , , , 96, , , 61, 61, 61
38.8912968, -120.7647935, 39.300, 13:34:24.923, 17, 0.00, 0.16, 95, -1.700, 4.000, -25.700, 1620, 100, 98, 29, 23852, -18597, 5126, 5396, 16, 14, 1527021264.923, 82, 0, 1024, 1024, 1024, 1024, 0, 6, 3933, 3959, 3976, 3990, 3950, 3970, 0, 1, 18501, -89.900, 0.000, -25.500, 0.000, 0.000, -3.000, 0.0, , , , , , 96, , , 61, 61, 61
38.8912968, -120.7647935, 39.600, 13:34:25.023, 17, 0.00, 0.16, 95, -1.700, 3.800, -25.600, 1620, 100, 98, 29, 23852, -18597, 5126, 5396, 16, 14, 1527021265.023, 57, 0, 1024, 1024, 1024, 1024, 0, 6, 3933, 3959, 3976, 3990, 3950, 3970, 0, 1, 18602, -89.900, 0.000, -25.500, 0.000, 0.000, -2.900, 0.0, , , , , , 96, , , 61, 61, 61
38.8912968, -120.7647935, 39.900, 13:34:25.122, 17, 0.00, 0.16, 95, -1.500, 3.700, -25.500, 1620, 100, 98, 29, 23852, -18597, 5126, 5396, 16, 14, 1527021265.123, 72, 0, 1024, 1024, 1024, 1024, 0, 6, 3933, 3959, 3976, 3990, 3950, 3970, 0, 1, 18701, -89.900, 0.000, -25.500, 0.000, 0.000, -2.900, 0.0, , , , , , 96, , , 61, 61, 61
38.8912968, -120.7647935, 40.200, 13:34:25.223, 17, 0.00, 0.16, 95, -1.500, 3.600, -25.500, 1620, 100, 97, 29, 23695, -20353, 5126, 5396, 16, 14, 1527021265.224, 46, 0, 1024, 1024, 1024, 1024, 0, 6, 3933, 3959, 3976, 3990, 3950, 3970, 0, 1, 18802, -90.000, 0.000, -25.500, 0.000, 0.000, -3.000, 0.0, , , , , , 96, , , 61, 61, 61
38.8912967, -120.7647935, 40.500, 13:34:25.323, 17, 0.00, 0.15, 95, -1.700, 3.400, -25.500, 1620, 100, 97, 29, 23695, -20353, 5126, 5396, 16, 14, 1527021265.323, 52, 0, 1024, 1024, 1024, 1024, 0, 6, 3933, 3959, 3976, 3990, 3950, 3970, 0, 1, 18901, -89.900, 0.000, -25.500, 0.000, 0.000, -3.000, 0.0, , , , , , 96, , , 61, 61, 61
38.8912967, -120.7647935, 40.800, 13:34:25.423, 17, 0.00, 0.15, 95, -1.800, 3.300, -25.500, 1620, 100, 97, 29, 23695, -20353, 5126, 5396, 16, 14, 1527021265.423, 43, 0, 1024, 1024, 1024, 1024, 0, 6, 3933, 3959, 3976, 3990, 3950, 3970, 0, 1, 19002, -89.900, 0.000, -25.500, 0.000, 0.000, -2.900, 0.0, , , , , , 96, , , 61, 61, 61
38.8912967, -120.7647935, 41.100, 13:34:25.522, 17, 0.00, 0.15, 95, -1.900, 3.200, -25.700, 1620, 100, 97, 29, 23695, -20353, 5126, 5396, 16, 14, 1527021265.523, 57, 0, 1024, 1024, 1024, 1024, 0, 6, 3933, 3959, 3976, 3990, 3950, 3970, 0, 1, 19101, -89.900, 0.000, -25.500, 0.000, 0.000, -3.000, 0.0, , , , , , 96, , , 61, 61, 61
38.8912966, -120.7647935, 41.400, 13:34:25.623, 17, 0.00, 0.14, 95, -1.600, 3.300, -25.800, 1620, 100, 97, 29, 23695, -20353, 5126, 5396, 16, 14, 1527021265.623, 45, 0, 1024, 1024, 1024, 1024, 0, 6, 3919, 3962, 3962, 3978, 3933, 3973, 0, 1, 19201, -89.900, 0.000, -25.500, 0.000, 0.000, -3.000, 0.0, , , , , , 96, , , 61, 61, 61
38.8912966, -120.7647936, 41.700, 13:34:25.723, 17, 0.00, 0.14, 95, -1.300, 3.500, -25.900, 1620, 100, 98, 29, 23695, -20353, 5126, 5396, 16, 14, 1527021265.723, 47, 0, 1024, 1024, 1024, 1024, 0, 6, 3919, 3962, 3962, 3978, 3933, 3973, 0, 1, 19301, -89.900, 0.000, -25.500, 0.000, 0.000, -2.900, 0.0, , , , , , 96, , , 61, 61, 61
38.8912965, -120.7647936, 42.300, 13:34:25.822, 17, 0.00, 0.13, 95, -0.900, 3.700, -25.900, 1620, 100, 98, 29, 23695, -20353, 5126, 5396, 16, 14, 1527021265.823, 12, 0, 1024, 1024, 1024, 1024, 0, 6, 3919, 3962, 3962, 3978, 3933, 3973, 0, 1, 19401, -89.900, 0.000, -25.500, 0.000, 0.000, -3.000, 0.0, , , , , , 96, , , 61, 61, 61
38.8912965, -120.7647937, 42.600, 13:34:25.923, 17, 0.00, 0.12, 95, -0.800, 3.600, -25.800, 1620, 100, 98, 29, 23695, -20353, 5126, 5396, 16, 14, 1527021265.923, 43, 0, 1024, 1024, 1024, 1024, 0, 6, 3919, 3962, 3962, 3978, 3933, 3973, 0, 1, 19501, -89.900, 0.000, -25.500, 0.000, 0.000, -3.000, 0.0, , , , , , 96, , , 61, 61, 61
38.8912964, -120.7647937, 42.900, 13:34:26.023, 17, 0.00, 0.11, 95, -0.800, 3.500, -25.800, 1620, 100, 98, 29, 23695, -20353, 5126, 5396, 16, 14, 1527021266.023, 7, 0, 1024, 1024, 1024, 1024, 0, 6, 3919, 3962, 3962, 3978, 3933, 3973, 0, 1, 19602, -89.900, 0.000, -25.500, 0.000, 0.000, -3.000, 0.0, , , , , , 96, , , 61, 61, 61
38.8912963, -120.7647937, 43.200, 13:34:26.143, 17, 0.00, 0.11, 95, -0.900, 3.200, -25.700, 1620, 100, 98, 29, 23695, -20353, 5126, 5396, 16, 14, 1527021266.144, 24, 0, 1024, 1024, 1024, 1024, 0, 6, 3919, 3962, 3962, 3978, 3933, 3973, 0, 1, 19722, -89.900, 0.000, -25.500, 0.000, 0.000, -3.000, 0.0, , , , , , 96, , , 61, 61, 61
38.8912963, -120.7647937, 43.200, 13:34:26.223, 17, 0.00, 0.11, 95, -0.900, 3.200, -25.700, 1620, 100, 98, 29, 23695, -20353, 5126, 5396, 16, 14, 1527021266.223, 103, 0, 1024, 1024, 1024, 1024, 0, 6, 3919, 3962, 3962, 3978, 3933, 3973, 0, 1, 19802, -89.900, 0.000, -25.500, 0.000, 0.000, -3.000, 0.0, , , , , , 96, , , 61, 61, 61
38.8912962, -120.7647937, 43.800, 13:34:26.331, 17, 0.00, 0.09, 95, -1.000, 2.900, -25.600, 1620, 100, 98, 29, 23695, -20353, 5126, 5396, 16, 14, 1527021266.331, 11, 0, 1024, 1024, 1024, 1024, 0, 6, 3919, 3962, 3962, 3978, 3933, 3973, 0, 1, 19909, -90.000, 0.000, -25.500, 0.000, 0.000, -3.000, 0.0, , , , , , 96, , , 61, 61, 61
38.8912961, -120.7647936, 44.100, 13:34:26.424, 17, 0.00, 0.08, 95, -1.100, 2.800, -25.500, 1620, 100, 98, 29, 23695, -20353, 5126, 5396, 16, 14, 1527021266.425, 5, 0, 1024, 1024, 1024, 1024, 0, 6, 3919, 3962, 3962, 3978, 3933, 3973, 0, 1, 20004, -90.000, 0.000, -25.500, 0.000, 0.000, -3.000, 0.0, , , , , , 96, , , 61, 61, 61
38.8912961, -120.7647936, 44.100, 13:34:26.523, 17, 0.00, 0.08, 95, -1.100, 2.800, -25.500, 1620, 100, 98, 29, 23695, -20353, 5126, 5396, 16, 14, 1527021266.523, 103, 0, 1024, 1024, 1024, 1024, 0, 6, 3919, 3962, 3962, 3978, 3933, 3973, 0, 1, 20101, -90.000, 0.000, -25.500, 0.000, 0.000, -3.000, 0.0, , , , , , 96, , , 61, 61, 61
38.8912960, -120.7647936, 44.400, 13:34:26.622, 17, 0.00, 0.08, 95, -1.200, 2.700, -25.500, 1620, 100, 98, 29, 23695, -20353, 5126, 5396, 16, 14, 1527021266.623, 83, 0, 1024, 1024, 1024, 1024, 0, 6, 3919, 3962, 3962, 3978, 3933, 3973, 0, 1, 20201, -90.000, 0.000, -25.500, 0.000, 0.000, -3.000, 0.0, , , , , , 96, , , 61, 61, 61
38.8912960, -120.7647936, 44.700, 13:34:26.723, 17, 0.00, 0.07, 95, -1.300, 2.600, -25.500, 1620, 100, 98, 29, 23677, -20296, 5126, 5396, 16, 14, 1527021266.723, 85, 0, 1024, 1024, 1024, 1024, 0, 6, 3919, 3962, 3962, 3978, 3933, 3973, 0, 1, 20301, -89.900, 0.000, -25.500, 0.000, 0.000, -2.900, 0.0, , , , , , 96, , , 61, 61, 61
38.8912959, -120.7647936, 45.000, 13:34:26.823, 17, 0.00, 0.07, 95, -1.400, 2.400, -25.600, 1620, 100, 98, 29, 23677, -20296, 5126, 5396, 16, 14, 1527021266.823, 91, 0, 1024, 1024, 1024, 1024, 0, 6, 3918, 3939, 3959, 3971, 3934, 3952, 0, 1, 20401, -89.900, 0.000, -25.500, 0.000, 0.000, -2.900, 0.0, , , , , , 96, , , 61, 61, 61
38.8912958, -120.7647935, 45.300, 13:34:26.923, 17, 0.00, 0.06, 95, -1.400, 2.300, -25.700, 1620, 100, 98, 29, 23677, -20296, 5126, 5396, 16, 14, 1527021266.923, 92, 0, 1024, 1024, 1024, 1024, 0, 6, 3918, 3939, 3959, 3971, 3934, 3952, 0, 1, 20501, -89.900, 0.000, -25.500, 0.000, 0.000, -3.000, 0.0, , , , , , 96, , , 61, 61, 61
38.8912957, -120.7647935, 45.600, 13:34:27.023, 17, 0.00, 0.06, 95, -1.500, 2.200, -25.700, 1620, 100, 98, 29, 23677, -20296, 5126, 5396, 16, 14, 1527021267.025, 83, 0, 1024, 1024, 1024, 1024, 0, 6, 3918, 3939, 3959, 3971, 3934, 3952, 0, 1, 20604, -89.900, 0.000, -25.500, 0.000, 0.000, -3.000, 0.0, , , , , , 96, , , 61, 61, 61
