latitude,longitude,altitude(feet),ascent(feet),speed(mph),distance(feet),time(millisecond),datetime(utc),satellites,gpslevel,voltage(v),max_altitude(feet),max_ascent(feet),max_speed(mph),max_distance(feet), xSpeed(mph), ySpeed(mph), zSpeed(mph), compass_heading(degrees), pitch(degrees), roll(degrees),isPhoto,isVideo,rc_elevator,rc_aileron,rc_throttle,rc_rudder,gimbal_heading(degrees),gimbal_pitch(degrees),battery_percent,voltageCell1,voltageCell2,voltageCell3,voltageCell4,voltageCell5,voltageCell6,current(A),battery_temperature(f),flycStateRaw,flycState,message
38.8913009,-120.7647888,3085.6416341736,0,0,0,3240,2018-05-22 20:00:24,12,0,0,3085.6416341736,0,0,0,0,0,0,330.7, 1.9, 1.7,1,0,1024,1024,1024,1024,330.9,-89.9,100,4.228,4.25,4.256,4.244,4.25,4.238,0,75.2,11,AutoTakeoff,DJI_0225.jpg Starting Mission from Lat/Long: 38.89131/-120.76479 Camera: Zenmuse X3 - Overlap: 90/90 - Active Connection: No
38.8913009,-120.7647886,3085.6416341736,0,0.223694,0.056795277408,3330,2018-05-22 20:00:24,12,0,0,3085.6416341736,0,0.223694,0.056795277408,0,0,0,331, 1.8, 1.5,0,0,1024,1024,1024,1024,330.9,-89.9,100,4.228,4.25,4.256,4.244,4.25,4.238,0,75.2,11,AutoTakeoff,
38.8913008,-120.7647885,3085.6416341736,0,0.223694,0.092676840236,3510,2018-05-22 20:00:24,13,0,0,3085.6416341736,0,0.223694,0.092676840236,0,0,0,331.1, 1, 0.7,0,0,1024,1024,1024,1024,330.9,-90,100,4.228,4.25,4.256,4.244,4.25,4.238,0,75.2,11,AutoTakeoff,
38.8913007,-120.764788,3085.9697181736,0.328084,0.447388,0.23861221236,3700,2018-05-22 20:00:24,12,0,0,3085.9697181736,0.328084,0.447388,0.23861221236,0,0,0,331.1, -0.3, -0.1,0,0,1024,1024,1024,1024,331,-90,100,4.228,4.25,4.256,4.244,4.25,4.238,0,75.2,11,AutoTakeoff,
38.8913006,-120.7647875,3085.9697181736,0.328084,0.223694,0.38505250576,3810,2018-05-22 20:00:25,12,0,0,3085.9697181736,0.328084,0.447388,0.38505250576,0,0,0,330.9, -1.1, -1.1,0,0,1024,1024,1024,1024,330.9,-90,100,4.228,4.25,4.256,4.244,4.25,4.238,0,75.2,11,AutoTakeoff,
38.8913006,-120.7647873,3086.2978021736,0.656168,0.223694,0.43980316368,3910,2018-05-22 20:00:25,12,0,0,3086.2978021736,0.656168,0.447388,0.43980316368,0,0,0,330.8, -1.2, -1.5,0,0,1024,1024,1024,1024,331,-90,100,4.228,4.25,4.256,4.244,4.25,4.238,0,75.2,11,AutoTakeoff,
38.8913006,-120.7647871,3086.2978021736,0.656168,0.223694,0.4950131392,4100,2018-05-22 20:00:25,12,0,0,3086.2978021736,0.656168,0.447388,0.4950131392,0,0,0,330.7, -1, -1.9,0,0,1024,1024,1024,1024,330.9,-89.9,100,4.228,4.25,4.256,4.244,4.25,4.238,0,75.2,11,AutoTakeoff,
38.8913006,-120.7647869,3086.6258861736,0.984252,0,0.55054463704,4300,2018-05-22 20:00:25,12,0,0,3086.6258861736,0.984252,0.447388,0.55054463704,0,0,0,330.5, -0.4, -1.2,0,0,1024,1024,1024,1024,330.9,-89.9,100,4.228,4.25,4.256,4.244,4.25,4.238,0,75.2,11,AutoTakeoff,
38.8913005,-120.7647868,3086.9539701736,1.312336,0,0.58640421824,4500,2018-05-22 20:00:25,11,0,0,3086.9539701736,1.312336,0.447388,0.58640421824,0,0,0,330.3, -0.2, -0.9,0,0,1024,1024,1024,1024,330.9,-89.9,100,4.228,4.25,4.256,4.244,4.25,4.238,0,75.2,11,AutoTakeoff,
38.8913005,-120.7647868,3087.2820541736,1.64042,0,0.58640421824,4710,2018-05-22 20:00:25,11,0,0,3087.2820541736,1.64042,0.447388,0.58640421824,0,0,-0.223694,330.3, -0.2, -0.8,0,0,1024,1024,1024,1024,330.9,-89.9,100,4.228,4.25,4.256,4.244,4.25,4.238,0,75.2,11,AutoTakeoff,
38.8913005,-120.7647868,3087.6101381736,1.968504,0,0.58640421824,4910,2018-05-22 20:00:26,12,0,0,3087.6101381736,1.968504,0.447388,0.58640421824,0,0,-0.223694,330.6, -0.2, -0.5,0,0,1024,1024,1024,1024,330.9,-89.9,100,4.228,4.25,4.256,4.244,4.25,4.238,0,75.2,11,AutoTakeoff,
38.8913004,-120.7647867,3087.9382221736,2.296588,0,0.62362862888,5010,2018-05-22 20:00:26,12,0,24.617,3087.9382221736,2.296588,0.447388,0.62362862888,0,0,-0.223694,330.8, -0.3, -0.5,0,0,1024,1024,1024,1024,331,-89.9,100,4.228,4.25,4.256,4.244,4.25,4.238,16.331,75.2,11,AutoTakeoff,
38.8913004,-120.7647868,3087.9382221736,2.296588,0,0.59653217132,5100,2018-05-22 20:00:26,13,0,24.617,3087.9382221736,2.296588,0.447388,0.62362862888,0,0,-0.223694,330.9, -0.4, -0.5,0,0,1024,1024,1024,1024,330.9,-89.9,100,4.228,4.25,4.256,4.244,4.25,4.238,16.331,75.2,11,AutoTakeoff,
38.8913003,-120.7647869,3088.2663061736,2.624672,0,0.58227364068,5310,2018-05-22 20:00:26,13,0,24.617,3088.2663061736,2.624672,0.447388,0.62362862888,0,0,-0.223694,331, -0.4, -0.4,0,0,1024,1024,1024,1024,331,-89.9,100,4.228,4.25,4.256,4.244,4.25,4.238,16.331,75.2,11,AutoTakeoff,
38.8913002,-120.7647868,3088.5943901736,2.952756,0,0.62273295956,5510,2018-05-22 20:00:26,12,0,24.617,3088.5943901736,2.952756,0.447388,0.62362862888,0,0,0,331.1, -0.4, -0.1,0,0,1024,1024,1024,1024,330.9,-89.9,100,4.228,4.25,4.256,4.244,4.25,4.238,16.331,75.2,14,Waypoint,
38.8913,-120.764787,3088.9224741736,3.28084,0,0.60753938952,5600,2018-05-22 20:00:26,11,0,24.617,3088.9224741736,3.28084,0.447388,0.62362862888,0,0,0,331.2, 0, 0,0,0,1024,1024,1024,1024,330.9,-89.9,100,4.228,4.25,4.256,4.244,4.25,4.238,16.331,75.2,14,Waypoint,
38.8913,-120.764787,3089.2505581736,3.608924,0,0.60753938952,5700,2018-05-22 20:00:26,11,0,24.617,3089.2505581736,3.608924,0.447388,0.62362862888,0,0,-0.223694,331.2, -0.2, 0.1,0,0,1024,1024,1024,1024,330.9,-89.9,100,4.228,4.25,4.256,4.244,4.25,4.238,16.331,75.2,14,Waypoint,
38.8912999,-120.764787,3089.2505581736,3.608924,0,0.62801183112,5800,2018-05-22 20:00:27,11,0,24.617,3089.2505581736,3.608924,0.447388,0.62801183112,0,0,-0.223694,331.2, -0.4, 0.2,0,0,1024,1024,1024,1024,331,-90,100,4.228,4.25,4.256,4.244,4.25,4.238,16.331,75.2,14,Waypoint,
38.8912998,-120.764787,3089.5786421736,3.937008,0,0.6498851914,5900,2018-05-22 20:00:27,10,0,24.617,3089.5786421736,3.937008,0.447388,0.6498851914,0,0,-0.223694,331.2, -0.5, 0.2,0,0,1024,1024,1024,1024,330.9,-90,100,4.228,4.25,4.256,4.244,4.25,4.238,16.331,75.2,14,Waypoint,
38.8912998,-120.7647869,3089.9067261736,4.265092,0,0.67245080892,6000,2018-05-22 20:00:27,10,0,24.379,3089.9067261736,4.265092,0.447388,0.67245080892,0,0,-0.223694,331.2, -0.5, 0.2,0,0,1024,1024,1024,1024,330.9,-90,98,4.102,4.038,4.038,4.125,4.095,4.045,15.447,75.2,14,Waypoint,
38.8912998,-120.764787,3090.2348101736,4.593176,0,0.6498851914,6100,2018-05-22 20:00:27,10,0,24.379,3090.2348101736,4.593176,0.447388,0.67245080892,0,0,-0.223694,331.2, -0.6, 0.1,0,0,1024,1024,1024,1024,331,-90,98,4.102,4.038,4.038,4.125,4.095,4.045,15.447,75.2,14,Waypoint,
38.8912998,-120.7647871,3091.2190621736,5.577428,0,0.62779529568,6300,2018-05-22 20:00:27,12,0,24.379,3091.2190621736,5.577428,0.447388,0.67245080892,0,0,-0.447388,331.1, -0.2, 0,0,0,1024,1024,1024,1024,330.9,-89.9,98,4.102,4.038,4.038,4.125,4.095,4.045,15.447,75.2,14,Waypoint,
38.8912998,-120.764787,3091.8752301736,6.233596,0,0.6498851914,6500,2018-05-22 20:00:27,12,0,24.379,3091.8752301736,6.233596,0.447388,0.67245080892,0,0,-0.447388,331.1, 0, 0,0,0,1024,1024,1024,1024,330.9,-89.9,98,4.102,4.038,4.038,4.125,4.095,4.045,15.447,75.2,14,Waypoint,
38.8912999,-120.764787,3094.8279861736,9.186352,0,0.62801183112,6710,2018-05-22 20:00:27,12,0,24.379,3094.8279861736,9.186352,0.447388,0.67245080892,0,0,-0.671082,330.7, 0, 0,0,0,1024,1024,1024,1024,330.9,-89.9,98,4.102,4.038,4.038,4.125,4.095,4.045,15.447,75.2,14,Waypoint,
38.8912999,-120.7647872,3095.8122381736,10.170604,0,0.58271655408,6800,2018-05-22 20:00:28,11,0,24.379,3095.8122381736,10.170604,0.447388,0.67245080892,0,0,-0.671082,330.7, 0, -0.1,0,0,1024,1024,1024,1024,331,-89.9,98,4.102,4.038,4.038,4.125,4.095,4.045,15.447,75.2,14,Waypoint,
38.8912998,-120.7647874,3096.7964901736,11.154856,0,0.56491471624,6900,2018-05-22 20:00:28,11,0,24.379,3096.7964901736,11.154856,0.447388,0.67245080892,0,0,-0.671082,330.8, 0, 0,0,0,1024,1024,1024,1024,330.9,-89.9,98,4.102,4.038,4.038,4.125,4.095,4.045,15.447,75.2,14,Waypoint,
38.8913001,-120.7647882,3099.0930781736,13.451444,0,0.33797245176,7000,2018-05-22 20:00:28,12,0,23.872,3099.0930781736,13.451444,0.447388,0.67245080892,0,0,-0.671082,330.9, 0.7, 0.7,0,0,1024,1024,1024,1024,330.9,-89.9,98,4.102,4.038,4.038,4.125,4.095,4.045,21.66,75.2,14,Waypoint,
38.8913002,-120.7647884,3100.0773301736,14.435696,0,0.27951608506,7200,2018-05-22 20:00:28,12,0,23.872,3100.0773301736,14.435696,0.447388,0.67245080892,0,0,-0.671082,331, 1.3, 1,0,0,1024,1024,1024,1024,331,-89.9,98,4.102,4.038,4.038,4.125,4.095,4.045,21.66,75.2,14,Waypoint,
38.8913002,-120.7647886,3101.0615821736,15.419948,0,0.261633538556,7300,2018-05-22 20:00:28,12,0,23.872,3101.0615821736,15.419948,0.447388,0.67245080892,0,0,-0.671082,331.1, 1.5, 1.1,0,0,1024,1024,1024,1024,331,-89.9,98,4.102,4.038,4.038,4.125,4.095,4.045,21.66,75.2,14,Waypoint,
38.8913002,-120.7647886,3102.3739181736,16.732284,0,0.261633538556,7400,2018-05-22 20:00:28,12,0,23.872,3102.3739181736,16.732284,0.447388,0.67245080892,0,0,-0.671082,331.1, 1.4, 1.2,0,0,1024,1024,1024,1024,330.9,-89.9,98,4.102,4.038,4.038,4.125,4.095,4.045,21.66,75.2,14,Waypoint,
38.8913003,-120.7647886,3103.3581701736,17.716536,0,0.226157159468,7520,2018-05-22 20:00:28,12,0,23.872,3103.3581701736,17.716536,0.447388,0.67245080892,0,0,-0.671082,331.2, 1.3, 1,0,0,1024,1024,1024,1024,331,-89.9,98,4.102,4.038,4.038,4.125,4.095,4.045,21.66,75.2,14,Waypoint,
38.8913003,-120.7647886,3103.3581701736,17.716536,0,0.226157159468,7600,2018-05-22 20:00:28,12,0,23.872,3103.3581701736,17.716536,0.447388,0.67245080892,0,0,-0.671082,331.2, 1.3, 1,0,0,1024,1024,1024,1024,331,-89.9,98,4.102,4.038,4.038,4.125,4.095,4.045,21.66,75.2,14,Waypoint,
38.8913002,-120.7647886,3104.3424221736,18.700788,0,0.261633538556,7700,2018-05-22 20:00:28,14,0,23.872,3104.3424221736,18.700788,0.447388,0.67245080892,0,0,-0.671082,331.2, 1.1, 0.8,0,0,1024,1024,1024,1024,331,-89.9,98,4.102,4.038,4.038,4.125,4.095,4.045,21.66,75.2,14,Waypoint,
38.8913002,-120.7647886,3105.6547581736,20.013124,0,0.261633538556,7800,2018-05-22 20:00:29,14,0,23.872,3105.6547581736,20.013124,0.447388,0.67245080892,0,0,-0.671082,331.3, 0.7, 0.6,0,0,1024,1024,1024,1024,330.9,-90,98,4.102,4.038,4.038,4.125,4.095,4.045,21.66,75.2,14,Waypoint,
38.8913,-120.7647882,3107.6232621736,21.981628,0,0.36993767588,7900,2018-05-22 20:00:29,14,0,23.872,3107.6232621736,21.981628,0.447388,0.67245080892,0,0,-0.671082,331.3, -0.2, 0.2,0,0,1024,1024,1024,1024,330.9,-90,98,4.102,4.038,4.038,4.125,4.095,4.045,21.66,75.2,14,Waypoint,
38.8912999,-120.764788,3108.9355981736,23.293964,0.223694,0.42979660168,8000,2018-05-22 20:00:29,15,0,23.872,3108.9355981736,23.293964,0.447388,0.67245080892,0,0,-0.671082,331.3, -0.5, 0,0,0,1024,1024,1024,1024,331,-90,98,3.951,3.966,3.963,3.973,3.982,3.964,21.66,75.2,14,Waypoint,
38.8912998,-120.7647878,3110.9041021736,25.262468,0,0.49164043568,8200,2018-05-22 20:00:29,14,0,23.872,3110.9041021736,25.262468,0.447388,0.67245080892,0,0,-0.671082,331.2, -1, -0.4,0,0,1024,1024,1024,1024,330.9,-90,98,3.951,3.966,3.963,3.973,3.982,3.964,21.66,75.2,14,Waypoint,
38.8912997,-120.7647877,3112.2164381736,26.574804,0,0.53783138204,8400,2018-05-22 20:00:29,14,0,23.872,3112.2164381736,26.574804,0.447388,0.67245080892,0,0,-0.671082,331.1, -1.1, -0.4,0,0,1024,1024,1024,1024,330.9,-90,98,3.951,3.966,3.963,3.973,3.982,3.964,21.66,75.2,14,Waypoint,
38.8912996,-120.7647876,3113.2006901736,27.559056,0,0.58402889008,8600,2018-05-22 20:00:29,16,0,23.872,3113.2006901736,27.559056,0.447388,0.67245080892,0,0,-0.671082,330.9, -1, -0.5,0,0,1024,1024,1024,1024,330.9,-90,98,3.951,3.966,3.963,3.973,3.982,3.964,21.66,75.2,14,Waypoint,
38.8912994,-120.7647876,3115.1691941736,29.52756,0,0.64469818336,8710,2018-05-22 20:00:29,15,0,23.872,3115.1691941736,29.52756,0.447388,0.67245080892,0,0,-0.671082,330.7, -0.8, -0.1,0,0,1024,1024,1024,1024,330.9,-90,98,3.951,3.966,3.963,3.973,3.982,3.964,21.66,75.2,14,Waypoint,
38.8912994,-120.7647876,3115.1691941736,29.52756,0,0.64469818336,8800,2018-05-22 20:00:30,15,0,23.872,3115.1691941736,29.52756,0.447388,0.67245080892,0,0,-0.671082,330.7, -0.8, -0.1,0,0,1024,1024,1024,1024,330.9,-90,98,3.951,3.966,3.963,3.973,3.982,3.964,21.66,75.2,14,Waypoint,
38.8912993,-120.7647875,3116.4815301736,30.839896,0,0.69069556016,8900,2018-05-22 20:00:30,15,0,23.872,3116.4815301736,30.839896,0.447388,0.69069556016,0,0,-0.671082,330.7, -0.7, 0.1,0,0,1024,1024,1024,1024,330.9,-90,98,3.951,3.966,3.963,3.973,3.982,3.964,21.66,75.2,14,Waypoint,
38.8912993,-120.7647876,3117.4657821736,31.824148,0,0.67594490352,9000,2018-05-22 20:00:30,14,0,23.748,3117.4657821736,31.824148,0.447388,0.69069556016,0,0,-0.671082,330.9, -0.6, 0.3,0,0,1024,1024,1024,1024,330.9,-90,98,3.953,3.933,3.981,3.974,3.985,3.968,21.34,75.2,14,Waypoint,
38.8912994,-120.7647876,3118.4500341736,32.8084,0,0.64469818336,9100,2018-05-22 20:00:30,14,0,23.748,3118.4500341736,32.8084,0.447388,0.69069556016,0,0,-0.671082,331.2, -0.5, 0.4,0,0,1024,1024,1024,1024,331,-89.9,98,3.953,3.933,3.981,3.974,3.985,3.968,21.34,75.2,14,Waypoint,
38.8912993,-120.7647877,3119.4342861736,33.792652,0,0.66208007368,9200,2018-05-22 20:00:30,15,0,23.748,3119.4342861736,33.792652,0.447388,0.69069556016,0,0,-0.671082,331.4, -0.3, 0.7,0,0,1024,1024,1024,1024,331,-89.9,98,3.953,3.933,3.981,3.974,3.985,3.968,21.34,75.2,14,Waypoint,
38.8912993,-120.7647878,3121.4027901736,35.761156,0,0.64916668744,9300,2018-05-22 20:00:30,14,0,23.748,3121.4027901736,35.761156,0.447388,0.69069556016,0,0,-0.671082,331.7, 0, 0.8,0,0,1024,1024,1024,1024,330.9,-89.9,98,3.953,3.933,3.981,3.974,3.985,3.968,21.34,75.2,14,Waypoint,
38.8912994,-120.7647878,3122.3870421736,36.745408,0,0.61656498036,9500,2018-05-22 20:00:30,14,0,23.748,3122.3870421736,36.745408,0.447388,0.69069556016,0,0,-0.671082,331.6, 0.1, 0.6,0,0,1024,1024,1024,1024,330.9,-89.9,98,3.953,3.933,3.981,3.974,3.985,3.968,21.34,75.2,14,Waypoint,
38.8912994,-120.7647878,3123.3712941736,37.72966,0,0.61656498036,9600,2018-05-22 20:00:30,15,0,23.748,3123.3712941736,37.72966,0.447388,0.69069556016,0,0,-0.671082,331.5, 0.3, 0.3,0,0,1024,1024,1024,1024,330.9,-89.9,98,3.953,3.933,3.981,3.974,3.985,3.968,21.34,75.2,14,Waypoint,
38.8912994,-120.7647879,3125.3397981736,39.698164,0,0.60401248652,9800,2018-05-22 20:00:31,15,0,23.748,3125.3397981736,39.698164,0.447388,0.69069556016,0,0,-0.671082,331.3, 0.4, 0.2,0,0,1024,1024,1024,1024,331,-89.9,98,3.953,3.933,3.981,3.974,3.985,3.968,21.34,75.2,14,Waypoint,
38.8912995,-120.764788,3127.3083021736,41.666668,0,0.55903217012,9900,2018-05-22 20:00:31,14,0,23.748,3127.3083021736,41.666668,0.447388,0.69069556016,0,0,-0.671082,331.2, 0.5, 0.1,0,0,1024,1024,1024,1024,330.9,-89.9,98,3.953,3.933,3.981,3.974,3.985,3.968,21.34,75.2,14,Waypoint,
38.8912995,-120.7647879,3129.6048901736,43.963256,0,0.5711614356,10100,2018-05-22 20:00:31,15,0,23.748,3129.6048901736,43.963256,0.447388,0.69069556016,0,0,-0.671082,331.2, 0.3, -0.1,0,0,1024,1024,1024,1024,330.9,-89.9,98,3.953,3.933,3.981,3.974,3.985,3.968,21.34,75.2,14,Waypoint,
38.8912996,-120.764788,3130.5891421736,44.947508,0,0.52590552864,10300,2018-05-22 20:00:31,15,0,23.748,3130.5891421736,44.947508,0.447388,0.69069556016,0,0,-0.671082,331.2, 0.3, -0.2,0,0,1024,1024,1024,1024,330.9,-89.9,98,3.953,3.933,3.981,3.974,3.985,3.968,21.34,75.2,14,Waypoint,
38.8912996,-120.7647879,3131.5733941736,45.93176,0,0.5387795448,10400,2018-05-22 20:00:31,15,0,23.748,3131.5733941736,45.93176,0.447388,0.69069556016,0,0,-0.671082,331.1, 0.4, -0.1,0,0,1024,1024,1024,1024,330.9,-89.9,98,3.953,3.933,3.981,3.974,3.985,3.968,21.34,75.2,14,Waypoint,
38.8912997,-120.7647879,3133.5418981736,47.900264,0,0.50695867764,10500,2018-05-22 20:00:31,15,0,23.748,3133.5418981736,47.900264,0.447388,0.69069556016,0,0,-0.671082,330.9, 0.7, 0,0,0,1024,1024,1024,1024,330.9,-89.9,98,3.953,3.933,3.981,3.974,3.985,3.968,21.34,75.2,14,Waypoint,
38.8912998,-120.7647878,3135.5104021736,49.868768,0,0.49164043568,10720,2018-05-22 20:00:32,16,0,23.748,3135.5104021736,49.868768,0.447388,0.69069556016,0,0,-0.671082,330.7, 0.8, -0.2,0,0,1024,1024,1024,1024,330.9,-89.9,98,3.953,3.933,3.981,3.974,3.985,3.968,21.34,75.2,14,Waypoint,
38.8912999,-120.7647878,3136.1665701736,50.524936,0,0.46233925364,10800,2018-05-22 20:00:32,16,0,23.748,3136.1665701736,50.524936,0.447388,0.69069556016,0,0,-0.671082,330.6, 0.9, -0.3,0,0,1024,1024,1024,1024,330.9,-89.9,98,3.953,3.933,3.981,3.974,3.985,3.968,21.34,75.2,14,Waypoint,
38.8912999,-120.7647877,3137.1508221736,51.509188,0,0.48030513348,10900,2018-05-22 20:00:32,16,0,23.748,3137.1508221736,51.509188,0.447388,0.69069556016,0,0,-0.671082,330.6, 1, -0.5,0,0,1024,1024,1024,1024,330.9,-89.9,98,3.953,3.933,3.981,3.974,3.985,3.968,21.34,75.2,14,Waypoint,
38.8912998,-120.7647876,3138.1350741736,52.49344,0,0.526492799,11000,2018-05-22 20:00:32,16,0,23.948,3138.1350741736,52.49344,0.447388,0.69069556016,0,0,-0.671082,330.6, 0.8, -0.7,0,0,1024,1024,1024,1024,330.9,-89.9,98,3.97,3.969,4.012,3.989,4.011,3.99,17.814,75.2,14,Waypoint,
38.8912998,-120.7647876,3139.1193261736,53.477692,0,0.526492799,11100,2018-05-22 20:00:32,17,0,23.948,3139.1193261736,53.477692,0.447388,0.69069556016,0,0,-0.671082,330.6, 0.5, -0.6,0,0,1024,1024,1024,1024,330.9,-89.9,98,3.97,3.969,4.012,3.989,4.011,3.99,17.814,75.2,14,Waypoint,
38.8912998,-120.7647875,3140.1035781736,54.461944,0,0.54530185472,11200,2018-05-22 20:00:32,17,0,23.948,3140.1035781736,54.461944,0.447388,0.69069556016,0,0,-0.671082,330.7, 0.3, -0.4,0,0,1024,1024,1024,1024,330.9,-90,98,3.97,3.969,4.012,3.989,4.011,3.99,17.814,75.2,14,Waypoint,
38.8912999,-120.7647875,3141.0878301736,55.446196,0,0.51903873052,11300,2018-05-22 20:00:32,17,0,23.948,3141.0878301736,55.446196,0.447388,0.69069556016,0,0,-0.671082,330.8, 0.2, -0.3,0,0,1024,1024,1024,1024,330.9,-90,98,3.97,3.969,4.012,3.989,4.011,3.99,17.814,75.2,14,Waypoint,
38.8912999,-120.7647875,3142.0720821736,56.430448,0,0.51903873052,11410,2018-05-22 20:00:32,17,0,23.948,3142.0720821736,56.430448,0.447388,0.69069556016,0,0,-0.671082,330.9, 0.3, -0.3,0,0,1024,1024,1024,1024,330.9,-89.9,98,3.97,3.969,4.012,3.989,4.011,3.99,17.814,75.2,14,Waypoint,
38.8913,-120.7647874,3143.0563341736,57.4147,0,0.51563649944,11600,2018-05-22 20:00:32,17,0,23.948,3143.0563341736,57.4147,0.447388,0.69069556016,0,0,-0.671082,331, 0.7, -0.4,0,0,1024,1024,1024,1024,330.9,-89.9,98,3.97,3.969,4.012,3.989,4.011,3.99,17.814,75.2,14,Waypoint,
38.8913001,-120.7647874,3144.0405861736,58.398952,0,0.49320539636,11700,2018-05-22 20:00:32,17,0,23.948,3144.0405861736,58.398952,0.447388,0.69069556016,0,0,-0.671082,331, 1, -0.7,0,0,1024,1024,1024,1024,330.9,-89.9,98,3.97,3.969,4.012,3.989,4.011,3.99,17.814,75.2,14,Waypoint,
38.8913001,-120.7647874,3145.0248381736,59.383204,0,0.49320539636,11800,2018-05-22 20:00:33,17,0,23.948,3145.0248381736,59.383204,0.447388,0.69069556016,0,0,-0.671082,331, 1.2, -0.8,0,0,1024,1024,1024,1024,330.9,-89.9,98,3.97,3.969,4.012,3.989,4.011,3.99,17.814,75.2,14,Waypoint,
38.8913001,-120.7647873,3146.0090901736,60.367456,0,0.5163714076,11900,2018-05-22 20:00:33,17,0,23.948,3146.0090901736,60.367456,0.447388,0.69069556016,0,0,-0.671082,331, 1, -0.8,0,0,1024,1024,1024,1024,331,-89.9,98,3.97,3.969,4.012,3.989,4.011,3.99,17.814,75.2,14,Waypoint,
38.8913002,-120.7647873,3147.9775941736,62.33596,0,0.49666012088,12000,2018-05-22 20:00:33,17,0,23.932,3147.9775941736,62.33596,0.447388,0.69069556016,0,0,-0.671082,331, 0.6, -0.7,0,0,1024,1024,1024,1024,330.9,-89.9,98,3.967,3.968,4.004,3.986,4.009,3.986,17.761,75.2,14,Waypoint,
38.8913002,-120.7647872,3148.9618461736,63.320212,0,0.52122048912,12100,2018-05-22 20:00:33,17,0,23.932,3148.9618461736,63.320212,0.447388,0.69069556016,0,0,-0.671082,331, 0.7, -0.6,0,0,1024,1024,1024,1024,330.9,-89.9,98,3.967,3.968,4.004,3.986,4.009,3.986,17.761,75.2,14,Waypoint,
38.8913002,-120.7647872,3151.2584341736,65.6168,0,0.52122048912,12210,2018-05-22 20:00:33,17,0,23.932,3151.2584341736,65.6168,0.447388,0.69069556016,0,0,-0.671082,331.2, 0.7, -0.4,0,0,1024,1024,1024,1024,330.9,-89.9,98,3.967,3.968,4.004,3.986,4.009,3.986,17.761,75.2,14,Waypoint,
38.8913002,-120.7647872,3152.2426861736,66.601052,0,0.52122048912,12300,2018-05-22 20:00:33,17,0,23.932,3152.2426861736,66.601052,0.447388,0.69069556016,0,0,-0.671082,331.3, 0.7, -0.4,0,0,1024,1024,1024,1024,331,-89.9,98,3.967,3.968,4.004,3.986,4.009,3.986,17.761,75.2,14,Waypoint,
38.8913002,-120.7647871,3153.2269381736,67.585304,0,0.54615487312,12400,2018-05-22 20:00:33,17,0,23.932,3153.2269381736,67.585304,0.447388,0.69069556016,0,0,-0.671082,331.4, 0.7, -0.5,0,0,1024,1024,1024,1024,331,-89.9,98,3.967,3.968,4.004,3.986,4.009,3.986,17.761,75.2,14,Waypoint,
38.8913002,-120.7647871,3155.1954421736,69.553808,0,0.54615487312,12510,2018-05-22 20:00:33,17,0,23.932,3155.1954421736,69.553808,0.447388,0.69069556016,0,0,-0.671082,331.7, 0.7, -0.9,0,0,1024,1024,1024,1024,331,-89.9,98,3.967,3.968,4.004,3.986,4.009,3.986,17.761,75.2,14,Waypoint,
38.8913002,-120.7647871,3155.1954421736,69.553808,0,0.54615487312,12600,2018-05-22 20:00:33,17,0,23.932,3155.1954421736,69.553808,0.447388,0.69069556016,0,0,-0.671082,331.7, 0.7, -0.9,0,0,1024,1024,1024,1024,331,-89.9,98,3.967,3.968,4.004,3.986,4.009,3.986,17.761,75.2,14,Waypoint,
38.8913002,-120.7647871,3157.1639461736,71.522312,0,0.54615487312,12700,2018-05-22 20:00:33,17,0,23.932,3157.1639461736,71.522312,0.447388,0.69069556016,0,0,-0.671082,331.9, 0.4, -0.6,0,0,1024,1024,1024,1024,330.9,-89.9,98,3.967,3.968,4.004,3.986,4.009,3.986,17.761,75.2,14,Waypoint,
38.8913002,-120.7647872,3159.1324501736,73.490816,0,0.52122048912,12900,2018-05-22 20:00:34,17,0,23.932,3159.1324501736,73.490816,0.447388,0.69069556016,0,0,-0.671082,331.6, 0.4, -0.2,0,0,1024,1024,1024,1024,331,-89.9,98,3.967,3.968,4.004,3.986,4.009,3.986,17.761,75.2,14,Waypoint,
38.8913002,-120.7647872,3160.1167021736,74.475068,0,0.52122048912,13000,2018-05-22 20:00:34,17,0,23.941,3160.1167021736,74.475068,0.447388,0.69069556016,0,0,-0.671082,331.4, 0.6, -0.1,0,0,1024,1024,1024,1024,331,-89.9,98,3.975,3.975,4.008,3.994,4.006,3.994,17.531,75.2,14,Waypoint,
38.8913002,-120.7647873,3161.1009541736,75.45932,0,0.49666012088,13100,2018-05-22 20:00:34,17,0,23.941,3161.1009541736,75.45932,0.447388,0.69069556016,0,0,-0.671082,331.1, 0.7, 0,0,0,1024,1024,1024,1024,330.9,-89.9,98,3.975,3.975,4.008,3.994,4.006,3.994,17.531,75.2,14,Waypoint,
38.8913002,-120.7647873,3162.0852061736,76.443572,0,0.49666012088,13200,2018-05-22 20:00:34,17,0,23.941,3162.0852061736,76.443572,0.447388,0.69069556016,0,0,-0.671082,330.8, 0.7, 0.1,0,0,1024,1024,1024,1024,330.9,-89.9,98,3.975,3.975,4.008,3.994,4.006,3.994,17.531,75.2,14,Waypoint,
38.8913002,-120.7647873,3163.0694581736,77.427824,0,0.49666012088,13300,2018-05-22 20:00:34,17,0,23.941,3163.0694581736,77.427824,0.447388,0.69069556016,0,0,-0.671082,330.6, 0.7, 0.2,0,0,1024,1024,1024,1024,330.9,-89.9,98,3.975,3.975,4.008,3.994,4.006,3.994,17.531,75.2,14,Waypoint,
38.8913002,-120.7647874,3164.0537101736,78.412076,0,0.47253282352,13400,2018-05-22 20:00:34,17,0,23.941,3164.0537101736,78.412076,0.447388,0.69069556016,0,0,-0.671082,330.4, 0.9, 0.2,0,0,1024,1024,1024,1024,330.9,-89.9,98,3.975,3.975,4.008,3.994,4.006,3.994,17.531,75.2,14,Waypoint,
38.8913003,-120.7647874,3165.0379621736,79.396328,0,0.45385172056,13500,2018-05-22 20:00:34,17,0,23.941,3165.0379621736,79.396328,0.447388,0.69069556016,0,0,-0.671082,330.3, 1.1, 0,0,0,1024,1024,1024,1024,330.9,-89.9,98,3.975,3.975,4.008,3.994,4.006,3.994,17.531,75.2,14,Waypoint,
38.8913003,-120.7647874,3166.0222141736,80.38058,0,0.45385172056,13600,2018-05-22 20:00:34,17,0,23.941,3166.0222141736,80.38058,0.447388,0.69069556016,0,0,-0.671082,330.4, 1.2, -0.2,0,0,1024,1024,1024,1024,330.9,-89.9,98,3.975,3.975,4.008,3.994,4.006,3.994,17.531,75.2,14,Waypoint,
38.8913003,-120.7647874,3167.0064661736,81.364832,0,0.45385172056,13700,2018-05-22 20:00:34,17,0,23.941,3167.0064661736,81.364832,0.447388,0.69069556016,0,0,-0.671082,330.5, 1.2, -0.3,0,0,1024,1024,1024,1024,330.9,-89.9,98,3.975,3.975,4.008,3.994,4.006,3.994,17.531,75.2,14,Waypoint,
38.8913003,-120.7647874,3167.9907181736,82.349084,0,0.45385172056,13800,2018-05-22 20:00:35,17,0,23.941,3167.9907181736,82.349084,0.447388,0.69069556016,0,0,-0.671082,330.6, 1.1, -0.5,0,0,1024,1024,1024,1024,330.9,-89.9,98,3.975,3.975,4.008,3.994,4.006,3.994,17.531,75.2,14,Waypoint,
38.8913004,-120.7647873,3168.9749701736,83.333336,0,0.46338256076,13900,2018-05-22 20:00:35,17,0,23.941,3168.9749701736,83.333336,0.447388,0.69069556016,0,0,-0.671082,330.7, 0.9, -0.6,0,0,1024,1024,1024,1024,330.9,-89.9,98,3.975,3.975,4.008,3.994,4.006,3.994,17.531,75.2,14,Waypoint,
38.8913004,-120.7647873,3169.9592221736,84.317588,0,0.46338256076,14000,2018-05-22 20:00:35,17,0,23.918,3169.9592221736,84.317588,0.447388,0.69069556016,0,0,-0.671082,330.8, 0.9, -0.7,0,0,1024,1024,1024,1024,331,-89.9,98,3.969,3.964,3.995,3.991,4.006,3.981,17.294,75.2,14,Waypoint,
38.8913004,-120.7647873,3170.9434741736,85.30184,0,0.46338256076,14100,2018-05-22 20:00:35,17,0,23.918,3170.9434741736,85.30184,0.447388,0.69069556016,0,0,-0.671082,330.8, 0.8, -0.7,0,0,1024,1024,1024,1024,330.9,-89.9,98,3.969,3.964,3.995,3.991,4.006,3.981,17.294,75.2,14,Waypoint,
38.8913004,-120.7647873,3171.9277261736,86.286092,0,0.46338256076,14200,2018-05-22 20:00:35,17,0,23.918,3171.9277261736,86.286092,0.447388,0.69069556016,0,0,-0.671082,330.9, 0.9, -0.7,0,0,1024,1024,1024,1024,330.9,-89.9,98,3.969,3.964,3.995,3.991,4.006,3.981,17.294,75.2,14,Waypoint,
38.8913004,-120.7647873,3172.9119781736,87.270344,0,0.46338256076,14300,2018-05-22 20:00:35,17,0,23.918,3172.9119781736,87.270344,0.447388,0.69069556016,0,0,-0.671082,330.9, 0.9, -0.7,0,0,1024,1024,1024,1024,331,-89.9,98,3.969,3.964,3.995,3.991,4.006,3.981,17.294,75.2,14,Waypoint,
38.8913004,-120.7647873,3173.8962301736,88.254596,0,0.46338256076,14400,2018-05-22 20:00:35,17,0,23.918,3173.8962301736,88.254596,0.447388,0.69069556016,0,0,-0.671082,330.9, 1.1, -0.7,0,0,1024,1024,1024,1024,331,-89.9,98,3.969,3.964,3.995,3.991,4.006,3.981,17.294,75.2,14,Waypoint,
38.8913004,-120.7647873,3174.8804821736,89.238848,0,0.46338256076,14530,2018-05-22 20:00:35,17,0,23.918,3174.8804821736,89.238848,0.447388,0.69069556016,0,0,-0.671082,330.9, 1.1, -0.6,0,0,1024,1024,1024,1024,330.9,-89.9,98,3.969,3.964,3.995,3.991,4.006,3.981,17.294,75.2,14,Waypoint,
38.8913004,-120.7647873,3175.8647341736,90.2231,0,0.46338256076,14600,2018-05-22 20:00:35,17,0,23.918,3175.8647341736,90.2231,0.447388,0.69069556016,0,0,-0.671082,330.8, 1.1, -0.5,0,0,1024,1024,1024,1024,331,-89.9,98,3.969,3.964,3.995,3.991,4.006,3.981,17.294,75.2,14,Waypoint,
38.8913003,-120.7647873,3176.8489861736,91.207352,0,0.47892389984,14700,2018-05-22 20:00:35,17,0,23.918,3176.8489861736,91.207352,0.447388,0.69069556016,0,0,-0.671082,330.8, 1, -0.5,0,0,1024,1024,1024,1024,330.9,-89.9,98,3.969,3.964,3.995,3.991,4.006,3.981,17.294,75.2,14,Waypoint,
38.8913003,-120.7647873,3177.8332381736,92.191604,0,0.47892389984,14800,2018-05-22 20:00:36,17,0,23.918,3177.8332381736,92.191604,0.447388,0.69069556016,0,0,-0.671082,330.9, 0.7, -0.4,0,0,1024,1024,1024,1024,331,-90,98,3.969,3.964,3.995,3.991,4.006,3.981,17.294,75.2,14,Waypoint,
38.8913002,-120.7647872,3178.8174901736,93.175856,0,0.52122048912,15000,2018-05-22 20:00:36,17,0,23.918,3178.8174901736,93.175856,0.447388,0.69069556016,0,0,-0.671082,331, 0.3, -0.4,0,0,1024,1024,1024,1024,331,-90,98,3.96,3.961,4.007,3.981,4.003,3.984,16.806,77,14,Waypoint,
38.8913002,-120.7647872,3180.7859941736,95.14436,0,0.52122048912,15100,2018-05-22 20:00:36,17,0,23.918,3180.7859941736,95.14436,0.447388,0.69069556016,0,0,-0.671082,331.4, 0.1, -0.5,0,0,1024,1024,1024,1024,330.9,-90,98,3.96,3.961,4.007,3.981,4.003,3.984,16.806,77,14,Waypoint,
38.8913001,-120.7647871,3182.7544981736,97.112864,0,0.56413715716,15300,2018-05-22 20:00:36,17,0,23.918,3182.7544981736,97.112864,0.447388,0.69069556016,0,0,-0.671082,331.6, 0.2, -0.6,0,0,1024,1024,1024,1024,330.9,-90,98,3.96,3.961,4.007,3.981,4.003,3.984,16.806,77,14,Waypoint,
38.8913,-120.7647871,3183.7387501736,98.097116,0,0.58384844388,15400,2018-05-22 20:00:36,17,0,23.918,3183.7387501736,98.097116,0.447388,0.69069556016,0,0,-0.671082,331.5, 0.2, -0.6,0,0,1024,1024,1024,1024,331,-90,98,3.96,3.961,4.007,3.981,4.003,3.984,16.806,77,14,Waypoint,
38.8913,-120.7647871,3184.3949181736,98.753284,0,0.58384844388,15500,2018-05-22 20:00:36,17,0,23.918,3184.3949181736,98.753284,0.447388,0.69069556016,0,0,-0.671082,331.2, 0.2, -0.4,0,0,1024,1024,1024,1024,330.9,-90,98,3.96,3.961,4.007,3.981,4.003,3.984,16.806,77,14,Waypoint,
38.8913,-120.7647871,3185.3791701736,99.737536,0,0.58384844388,15600,2018-05-22 20:00:36,17,0,23.918,3185.3791701736,99.737536,0.447388,0.69069556016,0,0,-0.671082,331, 0.2, -0.1,0,0,1024,1024,1024,1024,330.9,-90,98,3.96,3.961,4.007,3.981,4.003,3.984,16.806,77,14,Waypoint,
38.8913,-120.764787,3187.3476741736,101.70604,0,0.60753938952,15800,2018-05-22 20:00:37,17,0,23.918,3187.3476741736,101.70604,0.447388,0.69069556016,0,0,-0.671082,330.7, 0.5, -0.2,0,0,1024,1024,1024,1024,330.9,-89.9,98,3.96,3.961,4.007,3.981,4.003,3.984,16.806,77,14,Waypoint,
38.8913,-120.7647869,3188.3319261736,102.690292,0,0.63162075512,15900,2018-05-22 20:00:37,17,0,23.918,3188.3319261736,102.690292,0.447388,0.69069556016,0,0,-0.671082,330.6, 0.6, -0.7,0,0,1024,1024,1024,1024,330.9,-89.9,98,3.96,3.961,4.007,3.981,4.003,3.984,16.806,77,14,Waypoint,
38.8913,-120.7647869,3189.3161781736,103.674544,0,0.63162075512,16000,2018-05-22 20:00:37,17,0,23.926,3189.3161781736,103.674544,0.447388,0.69069556016,0,0,-0.671082,330.6, 0.5, -1.2,0,0,1024,1024,1024,1024,330.9,-89.9,98,3.974,3.967,4,3.988,4.004,3.983,16.598,77,14,Waypoint,
38.8913,-120.7647868,3190.3004301736,104.658796,0,0.65604332808,16100,2018-05-22 20:00:37,17,0,23.926,3190.3004301736,104.658796,0.447388,0.69069556016,0,0,-0.671082,330.6, 0.5, -1.6,0,0,1024,1024,1024,1024,330.9,-89.9,98,3.974,3.967,4,3.988,4.004,3.983,16.598,77,14,Waypoint,
38.8913,-120.7647867,3191.2846821736,105.643048,0,0.68077758084,16200,2018-05-22 20:00:37,17,0,23.926,3191.2846821736,105.643048,0.447388,0.69069556016,0,0,-0.671082,330.8, 0.5, -1.8,0,0,1024,1024,1024,1024,330.9,-89.9,98,3.974,3.967,4,3.988,4.004,3.983,16.598,77,14,Waypoint,
38.8913,-120.7647866,3192.2689341736,106.6273,0,0.70578414332,16300,2018-05-22 20:00:37,17,0,23.926,3192.2689341736,106.6273,0.447388,0.70578414332,0,0,-0.671082,331, 0.4, -2,0,0,1024,1024,1024,1024,330.9,-90,98,3.974,3.967,4,3.988,4.004,3.983,16.598,77,14,Waypoint,
38.8913,-120.7647866,3193.2531861736,107.611552,0,0.70578414332,16410,2018-05-22 20:00:37,17,0,23.926,3193.2531861736,107.611552,0.447388,0.70578414332,0,0,-0.671082,331.1, 0.3, -1.9,0,0,1024,1024,1024,1024,331,-90,98,3.974,3.967,4,3.988,4.004,3.983,16.598,77,14,Waypoint,
38.8913,-120.7647865,3194.5655221736,108.923888,0,0.73104333048,16500,2018-05-22 20:00:37,17,0,23.926,3194.5655221736,108.923888,0.447388,0.73104333048,0,0,-0.671082,331.1, 0.2, -1.5,0,0,1024,1024,1024,1024,330.9,-89.9,98,3.974,3.967,4,3.988,4.004,3.983,16.598,77,14,Waypoint,
38.8912999,-120.7647865,3195.5497741736,109.90814,0,0.74813978772,16600,2018-05-22 20:00:37,17,0,23.926,3195.5497741736,109.90814,0.447388,0.74813978772,0,0,-0.671082,331.1, 0.1, -1.4,0,0,1024,1024,1024,1024,330.9,-90,98,3.974,3.967,4,3.988,4.004,3.983,16.598,77,14,Waypoint,
38.8912999,-120.7647865,3196.5340261736,110.892392,0,0.74813978772,16700,2018-05-22 20:00:37,17,0,23.926,3196.5340261736,110.892392,0.447388,0.74813978772,0,0,-0.671082,331.1, 0.1, -1.4,0,0,1024,1024,1024,1024,330.9,-90,98,3.974,3.967,4,3.988,4.004,3.983,16.598,77,14,Waypoint,
38.8912999,-120.7647865,3197.5182781736,111.876644,0,0.74813978772,16800,2018-05-22 20:00:38,17,0,23.926,3197.5182781736,111.876644,0.447388,0.74813978772,0,0,-0.671082,331.1, 0.2, -1.6,0,0,1024,1024,1024,1024,331,-90,98,3.974,3.967,4,3.988,4.004,3.983,16.598,77,14,Waypoint,
38.8912998,-120.7647865,3198.5025301736,112.860896,0,0.76659451272,16900,2018-05-22 20:00:38,17,0,23.926,3198.5025301736,112.860896,0.447388,0.76659451272,0,0,-0.671082,331.2, 0, -1.3,0,0,1024,1024,1024,1024,330.9,-90,98,3.974,3.967,4,3.988,4.004,3.983,16.598,77,14,Waypoint,
38.8912998,-120.7647866,3199.4867821736,113.845148,0,0.74254923636,17100,2018-05-22 20:00:38,17,0,23.926,3199.4867821736,113.845148,0.447388,0.76659451272,0,0,-0.671082,331.3, -0.1, -1,0,0,1024,1024,1024,1024,330.9,-90,98,3.974,3.967,4,3.988,4.004,3.983,16.598,77,14,Waypoint,
38.8912997,-120.7647866,3200.4710341736,114.8294,0,0.76288716352,17200,2018-05-22 20:00:38,17,0,23.926,3200.4710341736,114.8294,0.447388,0.76659451272,0,0,-0.671082,331.3, -0.3, -0.8,0,0,1024,1024,1024,1024,330.9,-90,98,3.974,3.967,4,3.988,4.004,3.983,16.598,77,14,Waypoint,
38.8912997,-120.7647867,3203.7518741736,118.11024,0,0.73980973496,17310,2018-05-22 20:00:38,17,0,23.926,3203.7518741736,118.11024,0.447388,0.76659451272,0,0,-0.671082,331.4, -0.1, -0.9,0,0,1024,1024,1024,1024,330.9,-90,98,3.974,3.967,4,3.988,4.004,3.983,16.598,77,14,Waypoint,
38.8912997,-120.7647867,3205.3922941736,119.75066,0,0.73980973496,17600,2018-05-22 20:00:38,17,0,23.926,3205.3922941736,119.75066,0.447388,0.76659451272,0,0,-0.671082,331.4, 0.1, -0.9,0,0,1024,1024,1024,1024,330.9,-89.9,98,3.974,3.967,4,3.988,4.004,3.983,16.598,77,14,Waypoint,
38.8912997,-120.7647867,3206.3765461736,120.734912,0,0.73980973496,17700,2018-05-22 20:00:38,17,0,23.926,3206.3765461736,120.734912,0.447388,0.76659451272,0,0,-0.671082,331.4, 0.2, -1.2,0,0,1024,1024,1024,1024,330.9,-89.9,98,3.974,3.967,4,3.988,4.004,3.983,16.598,77,14,Waypoint,
38.8912997,-120.7647867,3207.3607981736,121.719164,0,0.73980973496,17800,2018-05-22 20:00:39,17,0,23.926,3207.3607981736,121.719164,0.447388,0.76659451272,0,0,-0.671082,331.4, 0, -1.4,0,0,1024,1024,1024,1024,330.9,-90,98,3.974,3.967,4,3.988,4.004,3.983,16.598,77,14,Waypoint,
38.8912997,-120.7647867,3208.3450501736,122.703416,0,0.73980973496,17900,2018-05-22 20:00:39,17,0,23.926,3208.3450501736,122.703416,0.447388,0.76659451272,0,0,-0.671082,331.2, -0.1, -1.4,0,0,1024,1024,1024,1024,330.9,-90,98,3.974,3.967,4,3.988,4.004,3.983,16.598,77,14,Waypoint,
38.8912997,-120.7647867,3209.3293021736,123.687668,0,0.73980973496,18000,2018-05-22 20:00:39,17,0,23.829,3209.3293021736,123.687668,0.447388,0.76659451272,0,0,-0.671082,331.1, -0.1, -1.1,0,0,1024,1024,1024,1024,330.9,-89.9,97,3.955,3.958,3.992,3.981,3.992,3.974,15.673,77,14,Waypoint,
38.8912997,-120.7647868,3210.3135541736,124.67192,0,0.71711616468,18100,2018-05-22 20:00:39,17,0,23.829,3210.3135541736,124.67192,0.447388,0.76659451272,0,0,-0.671082,330.9, 0, -0.4,0,0,1024,1024,1024,1024,330.9,-90,97,3.955,3.958,3.992,3.981,3.992,3.974,15.673,77,14,Waypoint,
38.8912997,-120.7647868,3211.2978061736,125.656172,0,0.71711616468,18200,2018-05-22 20:00:39,17,0,23.829,3211.2978061736,125.656172,0.447388,0.76659451272,0,0,-0.671082,330.6, 0.1, -0.1,0,0,1024,1024,1024,1024,330.9,-89.9,97,3.955,3.958,3.992,3.981,3.992,3.974,15.673,77,14,Waypoint,
38.8912997,-120.7647868,3212.2820581736,126.640424,0,0.71711616468,18300,2018-05-22 20:00:39,17,0,23.829,3212.2820581736,126.640424,0.447388,0.76659451272,0,0,-0.671082,330.1, 0.1, -0.7,0,0,1024,1024,1024,1024,330.9,-89.9,97,3.955,3.958,3.992,3.981,3.992,3.974,15.673,77,14,Waypoint,
38.8912998,-120.7647868,3213.2663101736,127.624676,0,0.69544293564,18400,2018-05-22 20:00:39,17,0,23.829,3213.2663101736,127.624676,0.447388,0.76659451272,0,0,-0.671082,329.7, 0.1, -1.7,0,0,1024,1024,1024,1024,330.9,-89.9,97,3.955,3.958,3.992,3.981,3.992,3.974,15.673,77,14,Waypoint,
38.8912998,-120.7647867,3213.9224781736,128.280844,0,0.71881892064,18500,2018-05-22 20:00:39,17,0,23.829,3213.9224781736,128.280844,0.447388,0.76659451272,0,0,-0.671082,329.8, 0.2, -2.1,0,0,1024,1024,1024,1024,330.9,-89.9,97,3.955,3.958,3.992,3.981,3.992,3.974,15.673,77,14,Waypoint,
38.8912998,-120.7647867,3214.9067301736,129.265096,0,0.71881892064,18600,2018-05-22 20:00:39,17,0,23.829,3214.9067301736,129.265096,0.447388,0.76659451272,0,0,-0.671082,330.2, 0.1, -2,0,0,1024,1024,1024,1024,330.9,-90,97,3.955,3.958,3.992,3.981,3.992,3.974,15.673,77,14,Waypoint,
38.8912999,-120.7647866,3215.8909821736,130.249348,0,0.72348099428,18700,2018-05-22 20:00:39,17,0,23.829,3215.8909821736,130.249348,0.447388,0.76659451272,0,0,-0.671082,330.6, 0, -1.8,0,0,1024,1024,1024,1024,330.9,-90,97,3.955,3.958,3.992,3.981,3.992,3.974,15.673,77,14,Waypoint,
38.8912999,-120.7647866,3216.8752341736,131.2336,0,0.72348099428,18800,2018-05-22 20:00:40,17,0,23.829,3216.8752341736,131.2336,0.447388,0.76659451272,0,0,-0.671082,331.1, 0, -1.8,0,0,1024,1024,1024,1024,330.9,-89.9,97,3.955,3.958,3.992,3.981,3.992,3.974,15.673,77,14,Waypoint,
38.8912999,-120.7647866,3217.8594861736,132.217852,0,0.72348099428,18900,2018-05-22 20:00:40,17,0,23.829,3217.8594861736,132.217852,0.447388,0.76659451272,0,0,-0.671082,331.5, 0.1, -1.6,0,0,1024,1024,1024,1024,331,-89.9,97,3.955,3.958,3.992,3.981,3.992,3.974,15.673,77,14,Waypoint,
38.8912999,-120.7647866,3218.8437381736,133.202104,0,0.72348099428,19000,2018-05-22 20:00:40,17,0,23.829,3218.8437381736,133.202104,0.447388,0.76659451272,0,0,-0.671082,331.8, 0, -1.8,0,0,1024,1024,1024,1024,331,-90,97,3.976,3.974,3.997,3.973,3.989,3.975,15.673,77,14,Waypoint,
38.8912999,-120.7647865,3219.8279901736,134.186356,0,0.74813978772,19100,2018-05-22 20:00:40,17,0,23.829,3219.8279901736,134.186356,0.447388,0.76659451272,0,0,-0.671082,332.1, -0.1, -1.9,0,0,1024,1024,1024,1024,330.9,-90,97,3.976,3.974,3.997,3.973,3.989,3.975,15.673,77,14,Waypoint,
38.8913,-120.7647865,3220.8122421736,135.170608,0,0.73104333048,19200,2018-05-22 20:00:40,17,0,23.829,3220.8122421736,135.170608,0.447388,0.76659451272,0,0,-0.671082,332.2, 0, -2,0,0,1024,1024,1024,1024,331,-89.9,97,3.976,3.974,3.997,3.973,3.989,3.975,15.673,77,14,Waypoint,
38.8913001,-120.7647863,3222.7807461736,137.139112,0,0.76759844976,19410,2018-05-22 20:00:40,17,0,23.829,3222.7807461736,137.139112,0.447388,0.76759844976,0,0,-0.671082,331.7, 0.3, -2.6,0,0,1024,1024,1024,1024,330.9,-89.9,97,3.976,3.974,3.997,3.973,3.989,3.975,15.673,77,14,Waypoint,
38.8913002,-120.7647862,3224.7492501736,139.107616,0,0.78126314836,19610,2018-05-22 20:00:40,17,0,23.829,3224.7492501736,139.107616,0.447388,0.78126314836,0,0,-0.671082,331.1, 0.4, -2.8,0,0,1024,1024,1024,1024,330.9,-89.9,97,3.976,3.974,3.997,3.973,3.989,3.975,15.673,77,14,Waypoint,
38.8913003,-120.7647862,3225.7335021736,140.091868,0,0.77010829236,19700,2018-05-22 20:00:40,17,0,23.829,3225.7335021736,140.091868,0.447388,0.78126314836,0,0,-0.671082,330.8, 0.7, -3,0,0,1024,1024,1024,1024,330.9,-89.9,97,3.976,3.974,3.997,3.973,3.989,3.975,15.673,77,14,Waypoint,
38.8913004,-120.7647861,3227.7020061736,142.060372,0,0.788139789,19900,2018-05-22 20:00:41,17,0,23.829,3227.7020061736,142.060372,0.447388,0.788139789,0,0,-0.671082,330.7, 0.8, -2.8,0,0,1024,1024,1024,1024,330.9,-89.9,97,3.976,3.974,3.997,3.973,3.989,3.975,15.673,77,14,Waypoint,
38.8913004,-120.7647861,3228.6862581736,143.044624,0,0.788139789,20000,2018-05-22 20:00:41,17,0,23.802,3228.6862581736,143.044624,0.447388,0.788139789,0,0,-0.671082,330.7, 0.6, -2.9,0,0,1024,1024,1024,1024,330.9,-89.9,97,3.948,3.942,3.995,3.965,3.977,3.995,17.232,77,14,Waypoint,
38.8913005,-120.7647859,3229.6705101736,144.028876,0.223694,0.83636157532,20100,2018-05-22 20:00:41,17,0,23.802,3229.6705101736,144.028876,0.447388,0.83636157532,0,0,-0.671082,330.8, 0.4, -3.3,0,0,1024,1024,1024,1024,330.9,-89.9,97,3.948,3.942,3.995,3.965,3.977,3.995,17.232,77,14,Waypoint,
38.8913006,-120.7647858,3230.6547621736,145.013128,0.223694,0.85893047368,20200,2018-05-22 20:00:41,17,0,23.802,3230.6547621736,145.013128,0.447388,0.85893047368,0,0,-0.671082,331, 0.3, -3.8,0,0,1024,1024,1024,1024,330.9,-90,97,3.948,3.942,3.995,3.965,3.977,3.995,17.232,77,14,Waypoint,
38.8913006,-120.7647856,3231.9670981736,146.325464,0.223694,0.91529202404,20300,2018-05-22 20:00:41,17,0,23.802,3231.9670981736,146.325464,0.447388,0.91529202404,0,0,-0.671082,331.2, 0.3, -4.1,0,0,1024,1024,1024,1024,330.9,-89.9,97,3.948,3.942,3.995,3.965,3.977,3.995,17.232,77,14,Waypoint,
38.8913007,-120.7647855,3232.9513501736,147.309716,0.223694,0.93995737916,20400,2018-05-22 20:00:41,17,0,23.802,3232.9513501736,147.309716,0.447388,0.93995737916,0,0,-0.671082,331.3, 0.2, -4.1,0,0,1024,1024,1024,1024,330.9,-90,97,3.948,3.942,3.995,3.965,3.977,3.995,17.232,77,14,Waypoint,
38.8913007,-120.7647853,3233.9356021736,148.293968,0.223694,0.99659123924,20500,2018-05-22 20:00:41,17,0,23.802,3233.9356021736,148.293968,0.447388,0.99659123924,0,0,-0.671082,331.3, 0.1, -4.3,0,0,1024,1024,1024,1024,331,-90,97,3.948,3.942,3.995,3.965,3.977,3.995,17.232,77,14,Waypoint,
38.8913008,-120.7647851,3234.9198541736,149.27822,0.223694,1.051345178,20600,2018-05-22 20:00:41,17,0,23.802,3234.9198541736,149.27822,0.447388,1.051345178,0,0,-0.671082,331.4, 0.1, -4.9,0,0,1024,1024,1024,1024,330.9,-90,97,3.948,3.942,3.995,3.965,3.977,3.995,17.232,77,14,Waypoint,
38.8913008,-120.764785,3235.9041061736,150.262472,0.223694,1.07972772484,20700,2018-05-22 20:00:41,17,0,23.802,3235.9041061736,150.262472,0.447388,1.07972772484,0,0,-0.671082,331.3, 0, -5.3,0,0,1024,1024,1024,1024,330.9,-90,97,3.948,3.942,3.995,3.965,3.977,3.995,17.232,77,14,Waypoint,
38.8913008,-120.7647848,3236.8883581736,151.246724,0.223694,1.13648953768,20800,2018-05-22 20:00:42,17,0,23.802,3236.8883581736,151.246724,0.447388,1.13648953768,0,0,-0.671082,331.3, 0, -5.6,0,0,1024,1024,1024,1024,330.9,-90,97,3.948,3.942,3.995,3.965,3.977,3.995,17.232,77,14,Waypoint,
38.8913009,-120.7647846,3237.8726101736,152.230976,0.223694,1.1927001694,20900,2018-05-22 20:00:42,17,0,23.802,3237.8726101736,152.230976,0.447388,1.1927001694,0,0,-0.671082,331.3, 0, -5.6,0,0,1024,1024,1024,1024,331,-90,97,3.948,3.942,3.995,3.965,3.977,3.995,17.232,77,14,Waypoint,
38.8913009,-120.7647845,3238.8568621736,153.215228,0.223694,1.22109912044,21000,2018-05-22 20:00:42,17,0,23.773,3238.8568621736,153.215228,0.447388,1.22109912044,0,0,-0.671082,331.3, -0.3, -5.4,0,0,1024,1024,1024,1024,330.9,-90,97,3.943,3.943,3.986,3.965,3.982,3.966,17.217,77,14,Waypoint,
38.8913009,-120.7647844,3239.5130301736,153.871396,0,1.24949479064,21100,2018-05-22 20:00:42,17,0,23.773,3239.5130301736,153.871396,0.447388,1.24949479064,0,0,-0.671082,331.3, -0.3, -5.3,0,0,1024,1024,1024,1024,331,-90,97,3.943,3.943,3.986,3.965,3.982,3.966,17.217,77,14,Waypoint,
38.891301,-120.7647843,3240.4972821736,154.855648,0,1.27841539524,21200,2018-05-22 20:00:42,17,0,23.773,3240.4972821736,154.855648,0.447388,1.27841539524,0,0,-0.671082,331.3, 0.1, -5.4,0,0,1024,1024,1024,1024,330.9,-89.9,97,3.943,3.943,3.986,3.965,3.982,3.966,17.217,77,14,Waypoint,
38.8913011,-120.7647842,3241.4815341736,155.8399,0,1.30832681352,21300,2018-05-22 20:00:42,17,0,23.773,3241.4815341736,155.8399,0.447388,1.30832681352,0,0,-0.671082,331.2, 0.4, -5.4,0,0,1024,1024,1024,1024,330.9,-89.9,97,3.943,3.943,3.986,3.965,3.982,3.966,17.217,77,14,Waypoint,
38.8913012,-120.7647842,3242.4657861736,156.824152,0,1.31086946452,21500,2018-05-22 20:00:42,17,0,23.773,3242.4657861736,156.824152,0.447388,1.31086946452,0,0,-0.671082,331.1, 0.6, -5.4,0,0,1024,1024,1024,1024,330.9,-89.9,97,3.943,3.943,3.986,3.965,3.982,3.966,17.217,77,14,Waypoint,
38.8913012,-120.7647841,3243.4500381736,157.808404,0,1.33916999036,21600,2018-05-22 20:00:42,17,0,23.773,3243.4500381736,157.808404,0.447388,1.33916999036,0,0,-0.671082,331, 0.8, -5.4,0,0,1024,1024,1024,1024,330.9,-89.9,97,3.943,3.943,3.986,3.965,3.982,3.966,17.217,77,14,Waypoint,
38.8913012,-120.764784,3244.4342901736,158.792656,0,1.36747379704,21800,2018-05-22 20:00:43,17,0,23.773,3244.4342901736,158.792656,0.447388,1.36747379704,0,0,-0.671082,331, 0.8, -5.3,0,0,1024,1024,1024,1024,331,-89.9,97,3.943,3.943,3.986,3.965,3.982,3.966,17.217,77,14,Waypoint,
38.8913013,-120.764784,3245.0904581736,159.448824,0,1.37087602812,22010,2018-05-22 20:00:43,17,0,23.801,3245.0904581736,159.448824,0.447388,1.37087602812,0,0,-0.671082,331, 0.6, -5.1,0,0,1024,1024,1024,1024,330.9,-89.9,97,3.944,3.954,3.98,3.962,3.974,3.961,17.16,77,14,Waypoint,
38.8913013,-120.764784,3246.0747101736,160.433076,0,1.37087602812,22100,2018-05-22 20:00:43,17,0,23.801,3246.0747101736,160.433076,0.447388,1.37087602812,0,0,-0.671082,331, 0.6, -5.4,0,0,1024,1024,1024,1024,331,-89.9,97,3.944,3.954,3.98,3.962,3.974,3.961,17.16,77,14,Waypoint,
38.8913014,-120.7647839,3247.0589621736,161.417328,0,1.40339243336,22300,2018-05-22 20:00:43,17,0,23.801,3247.0589621736,161.417328,0.447388,1.40339243336,0,0,-0.671082,330.9, 0.7, -5.6,0,0,1024,1024,1024,1024,330.9,-89.9,97,3.944,3.954,3.98,3.962,3.974,3.961,17.16,77,14,Waypoint,
38.8913014,-120.7647838,3248.0432141736,162.40158,0,1.43155188308,22500,2018-05-22 20:00:43,17,0,23.801,3248.0432141736,162.40158,0.447388,1.43155188308,0,0,-0.671082,330.9, 0.8, -5.8,0,0,1024,1024,1024,1024,330.9,-89.9,97,3.944,3.954,3.98,3.962,3.974,3.961,17.16,77,14,Waypoint,
38.8913015,-120.7647837,3250.0117181736,164.370084,0,1.464731018,22600,2018-05-22 20:00:43,17,0,23.801,3250.0117181736,164.370084,0.447388,1.464731018,0,0,-0.671082,330.9, 0.6, -6.1,0,0,1024,1024,1024,1024,331,-89.9,97,3.944,3.954,3.98,3.962,3.974,3.961,17.16,77,14,Waypoint,
38.8913015,-120.7647836,3250.9959701736,165.354336,0,1.4928150084,22700,2018-05-22 20:00:43,17,0,23.801,3250.9959701736,165.354336,0.447388,1.4928150084,0,0,-0.671082,330.8, 0.6, -6.1,0,0,1024,1024,1024,1024,330.9,-89.9,97,3.944,3.954,3.98,3.962,3.974,3.961,17.16,77,14,Waypoint,
38.8913015,-120.7647836,3253.6206421736,167.979008,0,1.4928150084,22900,2018-05-22 20:00:44,17,0,23.801,3253.6206421736,167.979008,0.447388,1.4928150084,0,0,-0.671082,330.9, 0.4, -5.7,0,0,1024,1024,1024,1024,330.9,-89.9,97,3.944,3.954,3.98,3.962,3.974,3.961,17.16,77,14,Waypoint,
38.8913016,-120.7647836,3254.6048941736,168.96326,0,1.49859912932,23000,2018-05-22 20:00:44,17,0,23.648,3254.6048941736,168.96326,0.447388,1.49859912932,0,0,-0.671082,330.9, 0.4, -5.7,0,0,1024,1024,1024,1024,331,-89.9,97,3.918,3.918,3.961,3.937,3.966,3.937,18.238,77,14,Waypoint,
38.8913016,-120.7647836,3256.5733981736,170.931764,0,1.49859912932,23100,2018-05-22 20:00:44,17,0,23.648,3256.5733981736,170.931764,0.447388,1.49859912932,0,0,-0.671082,331.1, 0.9, -5.3,0,0,1024,1024,1024,1024,330.9,-89.9,97,3.918,3.918,3.961,3.937,3.966,3.937,18.238,77,14,Waypoint,
38.8913016,-120.7647837,3257.5576501736,171.916016,0,1.47062668748,23300,2018-05-22 20:00:44,17,0,23.648,3257.5576501736,171.916016,0.447388,1.49859912932,0,0,-0.671082,331.3, 0.9, -5.3,0,0,1024,1024,1024,1024,331,-89.9,97,3.918,3.918,3.961,3.937,3.966,3.937,18.238,77,14,Waypoint,
38.8913015,-120.7647837,3258.5419021736,172.900268,0,1.464731018,23500,2018-05-22 20:00:44,17,0,23.648,3258.5419021736,172.900268,0.447388,1.49859912932,0,0,-0.671082,331.4, 0.6, -5.3,0,0,1024,1024,1024,1024,330.9,-90,97,3.918,3.918,3.961,3.937,3.966,3.937,18.238,77,14,Waypoint,
38.8913013,-120.7647843,3264.1193301736,178.477696,0,1.28620082856,23700,2018-05-22 20:00:44,17,0,23.648,3264.1193301736,178.477696,0.447388,1.49859912932,0,0,-0.671082,331.2, 0.5, -4.2,0,0,1024,1024,1024,1024,331,-89.9,97,3.918,3.918,3.961,3.937,3.966,3.937,18.238,77,14,Waypoint,
38.8913012,-120.7647845,3265.1035821736,179.461948,0,1.22599413372,23800,2018-05-22 20:00:45,17,0,23.648,3265.1035821736,179.461948,0.447388,1.49859912932,0,0,-0.671082,331.1, 0.3, -4,0,0,1024,1024,1024,1024,330.9,-90,97,3.918,3.918,3.961,3.937,3.966,3.937,18.238,77,14,Waypoint,
38.8913012,-120.7647846,3266.0878341736,180.4462,0,1.19771329292,23900,2018-05-22 20:00:45,17,0,23.648,3266.0878341736,180.4462,0.447388,1.49859912932,0,0,-0.671082,331, 0.2, -3.9,0,0,1024,1024,1024,1024,330.9,-90,97,3.918,3.918,3.961,3.937,3.966,3.937,18.238,77,14,Waypoint,
38.8913011,-120.7647847,3267.0720861736,181.430452,0,1.16658796384,24000,2018-05-22 20:00:45,17,0,23.691,3267.0720861736,181.430452,0.447388,1.49859912932,0,0,-0.671082,330.9, 0.2, -3.8,0,0,1024,1024,1024,1024,330.9,-89.9,97,3.923,3.936,3.965,3.945,3.968,3.945,17.716,77,14,Waypoint,
38.8913011,-120.7647848,3268.3844221736,182.742788,0,1.13824806792,24100,2018-05-22 20:00:45,17,0,23.691,3268.3844221736,182.742788,0.447388,1.49859912932,0,0,-0.671082,330.8, 0.3, -3.8,0,0,1024,1024,1024,1024,330.9,-89.9,97,3.923,3.936,3.965,3.945,3.968,3.945,17.716,77,14,Waypoint,
38.8913011,-120.7647849,3269.3686741736,183.72704,0,1.109908172,24220,2018-05-22 20:00:45,17,0,23.691,3269.3686741736,183.72704,0.447388,1.49859912932,0,0,-0.671082,330.8, 0.6, -3.8,0,0,1024,1024,1024,1024,331,-89.9,97,3.923,3.936,3.965,3.945,3.968,3.945,17.716,77,14,Waypoint,
38.8913011,-120.7647849,3269.3686741736,183.72704,0,1.109908172,24300,2018-05-22 20:00:45,17,0,23.691,3269.3686741736,183.72704,0.447388,1.49859912932,0,0,-0.671082,330.8, 0.6, -3.8,0,0,1024,1024,1024,1024,331,-89.9,97,3.923,3.936,3.965,3.945,3.968,3.945,17.716,77,14,Waypoint,
38.8913011,-120.7647851,3270.3529261736,184.711292,0,1.05324478436,24400,2018-05-22 20:00:45,17,0,23.691,3270.3529261736,184.711292,0.447388,1.49859912932,0,0,-0.671082,330.8, 0.8, -3.9,0,0,1024,1024,1024,1024,330.9,-89.9,97,3.923,3.936,3.965,3.945,3.968,3.945,17.716,77,14,Waypoint,
38.8913011,-120.7647851,3271.3371781736,185.695544,0,1.05324478436,24500,2018-05-22 20:00:45,17,0,23.691,3271.3371781736,185.695544,0.447388,1.49859912932,0,0,-0.671082,330.8, 0.8, -4,0,0,1024,1024,1024,1024,330.9,-89.9,97,3.923,3.936,3.965,3.945,3.968,3.945,17.716,77,14,Waypoint,
38.891301,-120.7647852,3272.3214301736,186.679796,0,1.022965912,24600,2018-05-22 20:00:45,17,0,23.691,3272.3214301736,186.679796,0.447388,1.49859912932,0,0,-0.671082,330.9, 0.7, -4.2,0,0,1024,1024,1024,1024,330.9,-89.9,97,3.923,3.936,3.965,3.945,3.968,3.945,17.716,77,14,Waypoint,
38.891301,-120.7647854,3274.2899341736,188.6483,0,0.96620738,24720,2018-05-22 20:00:45,17,0,23.691,3274.2899341736,188.6483,0.447388,1.49859912932,0,0,-0.671082,330.9, 0.7, -4.2,0,0,1024,1024,1024,1024,331,-89.9,97,3.923,3.936,3.965,3.945,3.968,3.945,17.716,77,14,Waypoint,
38.891301,-120.7647854,3275.2741861736,189.632552,0,0.96620738,24800,2018-05-22 20:00:46,17,0,23.691,3275.2741861736,189.632552,0.447388,1.49859912932,0,0,-0.671082,330.9, 0.8, -4.2,0,0,1024,1024,1024,1024,331,-89.9,97,3.923,3.936,3.965,3.945,3.968,3.945,17.716,77,14,Waypoint,
38.891301,-120.7647855,3276.5865221736,190.944888,0,0.93783139484,24900,2018-05-22 20:00:46,17,0,23.691,3276.5865221736,190.944888,0.447388,1.49859912932,0,0,-0.671082,330.9, 0.8, -4.1,0,0,1024,1024,1024,1024,330.9,-89.9,97,3.923,3.936,3.965,3.945,3.968,3.945,17.716,77,14,Waypoint,
38.8913009,-120.7647856,3277.5707741736,191.92914,0,0.90872378236,25000,2018-05-22 20:00:46,17,0,23.643,3277.5707741736,191.92914,0.447388,1.49859912932,0,0,-0.671082,330.9, 0.6, -3.9,0,0,1024,1024,1024,1024,330.9,-89.9,97,3.926,3.922,3.959,3.943,3.954,3.94,18.257,77,14,Waypoint,
38.8913009,-120.7647857,3278.5550261736,192.913392,0,0.88032811216,25100,2018-05-22 20:00:46,17,0,23.643,3278.5550261736,192.913392,0.447388,1.49859912932,0,0,-0.671082,330.9, 0.6, -3.6,0,0,1024,1024,1024,1024,330.9,-89.9,97,3.926,3.922,3.959,3.943,3.954,3.94,18.257,77,14,Waypoint,
38.8913008,-120.7647858,3279.5392781736,193.897644,0,0.85271000104,25200,2018-05-22 20:00:46,17,0,23.643,3279.5392781736,193.897644,0.447388,1.49859912932,0,0,-0.671082,331, 0.5, -3.6,0,0,1024,1024,1024,1024,330.9,-89.9,97,3.926,3.922,3.959,3.943,3.954,3.94,18.257,77,14,Waypoint,
38.8913008,-120.7647859,3280.5235301736,194.881896,0,0.82434057756,25300,2018-05-22 20:00:46,17,0,23.643,3280.5235301736,194.881896,0.447388,1.49859912932,0,0,-0.671082,331, 0.5, -3.5,0,0,1024,1024,1024,1024,331,-89.9,97,3.926,3.922,3.959,3.943,3.954,3.94,18.257,77,14,Waypoint,
38.8913008,-120.764786,3281.5077821736,195.866148,0,0.79597115408,25400,2018-05-22 20:00:46,17,0,23.643,3281.5077821736,195.866148,0.447388,1.49859912932,0,0,-0.671082,331, 0.6, -3.4,0,0,1024,1024,1024,1024,330.9,-89.9,97,3.926,3.922,3.959,3.943,3.954,3.94,18.257,77,14,Waypoint,
38.8913008,-120.764786,3282.4920341736,196.8504,0,0.79597115408,25500,2018-05-22 20:00:46,17,0,23.643,3282.4920341736,196.8504,0.447388,1.49859912932,0,0,-0.671082,331.1, 0.6, -3.5,0,0,1024,1024,1024,1024,331,-89.9,97,3.926,3.922,3.959,3.943,3.954,3.94,18.257,77,14,Waypoint,
38.8913007,-120.7647861,3283.8043701736,198.162736,0,0.77020015588,25600,2018-05-22 20:00:46,17,0,23.643,3283.8043701736,198.162736,0.447388,1.49859912932,0,0,-0.671082,331.1, 0.6, -3.7,0,0,1024,1024,1024,1024,331,-89.9,97,3.926,3.922,3.959,3.943,3.954,3.94,18.257,77,14,Waypoint,
38.8913007,-120.7647861,3284.7886221736,199.146988,0,0.77020015588,25700,2018-05-22 20:00:46,17,0,23.643,3284.7886221736,199.146988,0.447388,1.49859912932,0,0,-0.671082,331.1, 0.5, -3.8,0,0,1024,1024,1024,1024,330.9,-89.9,97,3.926,3.922,3.959,3.943,3.954,3.94,18.257,77,14,Waypoint,
38.8913007,-120.7647861,3285.7728741736,200.13124,0,0.77020015588,25800,2018-05-22 20:00:47,17,0,23.643,3285.7728741736,200.13124,0.447388,1.49859912932,0,0,-0.671082,331.1, 0.6, -3.9,0,0,1024,1024,1024,1024,331,-89.9,97,3.926,3.922,3.959,3.943,3.954,3.94,18.257,77,14,Waypoint,
38.8913007,-120.7647862,3286.7571261736,201.115492,0,0.74193571928,25900,2018-05-22 20:00:47,17,0,23.643,3286.7571261736,201.115492,0.447388,1.49859912932,0,0,-0.671082,331, 0.5, -4,0,0,1024,1024,1024,1024,330.9,-89.9,97,3.926,3.922,3.959,3.943,3.954,3.94,18.257,77,14,Waypoint,
38.8913007,-120.7647862,3287.7413781736,202.099744,0,0.74193571928,26000,2018-05-22 20:00:47,17,0,23.603,3287.7413781736,202.099744,0.447388,1.49859912932,0,0,-0.671082,331, 0.5, -4.1,0,0,1024,1024,1024,1024,331,-89.9,97,3.917,3.917,3.959,3.928,3.95,3.924,18.336,77,14,Waypoint,
38.8913007,-120.7647862,3288.7256301736,203.083996,0,0.74193571928,26100,2018-05-22 20:00:47,17,0,23.603,3288.7256301736,203.083996,0.447388,1.49859912932,0,0,-0.671082,330.9, 0.5, -4.1,0,0,1024,1024,1024,1024,330.9,-89.9,97,3.917,3.917,3.959,3.928,3.95,3.924,18.336,77,14,Waypoint,
38.8913008,-120.7647862,3290.0379661736,204.396332,0,0.7392388688,26200,2018-05-22 20:00:47,17,0,23.603,3290.0379661736,204.396332,0.447388,1.49859912932,0,0,-0.671082,330.9, 0.5, -4.1,0,0,1024,1024,1024,1024,330.9,-89.9,97,3.917,3.917,3.959,3.928,3.95,3.924,18.336,77,14,Waypoint,
38.8913008,-120.7647862,3291.0222181736,205.380584,0,0.7392388688,26300,2018-05-22 20:00:47,17,0,23.603,3291.0222181736,205.380584,0.447388,1.49859912932,0,0,-0.671082,330.9, 0.5, -4.2,0,0,1024,1024,1024,1024,330.9,-89.9,97,3.917,3.917,3.959,3.928,3.95,3.924,18.336,77,14,Waypoint,
38.8913008,-120.7647862,3292.0064701736,206.364836,0,0.7392388688,26400,2018-05-22 20:00:47,17,0,23.603,3292.0064701736,206.364836,0.447388,1.49859912932,0,0,-0.671082,331, 0.4, -4.2,0,0,1024,1024,1024,1024,330.9,-90,97,3.917,3.917,3.959,3.928,3.95,3.924,18.336,77,14,Waypoint,
38.8913008,-120.7647862,3292.9907221736,207.349088,0,0.7392388688,26500,2018-05-22 20:00:47,17,0,23.603,3292.9907221736,207.349088,0.447388,1.49859912932,0,0,-0.671082,331, 0.4, -4.1,0,0,1024,1024,1024,1024,330.9,-89.9,97,3.917,3.917,3.959,3.928,3.95,3.924,18.336,77,14,Waypoint,
38.8913008,-120.7647862,3293.9749741736,208.33334,0,0.7392388688,26600,2018-05-22 20:00:47,17,0,23.603,3293.9749741736,208.33334,0.447388,1.49859912932,0,0,-0.671082,331.1, 0.4, -4.1,0,0,1024,1024,1024,1024,331,-89.9,97,3.917,3.917,3.959,3.928,3.95,3.924,18.336,77,14,Waypoint,
38.8913008,-120.7647862,3294.9592261736,209.317592,0,0.7392388688,26710,2018-05-22 20:00:47,17,0,23.603,3294.9592261736,209.317592,0.447388,1.49859912932,0,0,-0.671082,331.2, 0.5, -4.4,0,0,1024,1024,1024,1024,331,-89.9,97,3.917,3.917,3.959,3.928,3.95,3.924,18.336,77,14,Waypoint,
38.8913008,-120.7647862,3295.9434781736,210.301844,0,0.7392388688,26800,2018-05-22 20:00:48,17,0,23.603,3295.9434781736,210.301844,0.447388,1.49859912932,0,0,-0.671082,331.2, 0.6, -4.3,0,0,1024,1024,1024,1024,330.9,-89.9,97,3.917,3.917,3.959,3.928,3.95,3.924,18.336,77,14,Waypoint,
38.8913008,-120.7647862,3297.9119821736,212.270348,0,0.7392388688,27000,2018-05-22 20:00:48,17,0,23.566,3297.9119821736,212.270348,0.447388,1.49859912932,0,0,-0.671082,331.1, 0.8, -4.2,0,0,1024,1024,1024,1024,331,-89.9,97,3.913,3.913,3.961,3.93,3.956,3.931,18.221,77,14,Waypoint,
38.8913009,-120.7647862,3300.2085701736,214.566936,0,0.73833991864,27200,2018-05-22 20:00:48,17,0,23.566,3300.2085701736,214.566936,0.447388,1.49859912932,0,0,-0.671082,331.2, 1, -4.2,0,0,1024,1024,1024,1024,331,-89.9,97,3.913,3.913,3.961,3.93,3.956,3.931,18.221,77,14,Waypoint,
38.8913009,-120.7647861,3302.1770741736,216.53544,0,0.76673558884,27400,2018-05-22 20:00:48,17,0,23.566,3302.1770741736,216.53544,0.447388,1.49859912932,0,0,-0.671082,331.2, 0.8, -4.5,0,0,1024,1024,1024,1024,331,-89.9,97,3.913,3.913,3.961,3.93,3.956,3.931,18.221,77,14,Waypoint,
38.891301,-120.7647861,3303.1613261736,217.519692,0,0.76760501144,27500,2018-05-22 20:00:48,17,0,23.566,3303.1613261736,217.519692,0.447388,1.49859912932,0,0,-0.671082,331.1, 0.8, -4.8,0,0,1024,1024,1024,1024,331,-89.9,97,3.913,3.913,3.961,3.93,3.956,3.931,18.221,77,14,Waypoint,
38.891301,-120.764786,3304.1455781736,218.503944,0,0.79597115408,27600,2018-05-22 20:00:48,17,0,23.566,3304.1455781736,218.503944,0.447388,1.49859912932,0,0,-0.671082,331.1, 0.6, -4.9,0,0,1024,1024,1024,1024,331,-89.9,97,3.913,3.913,3.961,3.93,3.956,3.931,18.221,77,14,Waypoint,
38.891301,-120.764786,3305.1298301736,219.488196,0,0.79597115408,27700,2018-05-22 20:00:48,17,0,23.566,3305.1298301736,219.488196,0.447388,1.49859912932,0,0,-0.671082,331.1, 0.4, -5.1,0,0,1024,1024,1024,1024,330.9,-90,97,3.913,3.913,3.961,3.93,3.956,3.931,18.221,77,14,Waypoint,
38.8913011,-120.7647859,3306.1140821736,220.472448,0,0.82675855664,27800,2018-05-22 20:00:49,17,0,23.566,3306.1140821736,220.472448,0.447388,1.49859912932,0,0,-0.671082,331, 0.3, -5.1,0,0,1024,1024,1024,1024,331,-90,97,3.913,3.913,3.961,3.93,3.956,3.931,18.221,77,14,Waypoint,
38.8913011,-120.7647858,3307.0983341736,221.4567,0,0.85504923996,27900,2018-05-22 20:00:49,17,0,23.566,3307.0983341736,221.4567,0.447388,1.49859912932,0,0,-0.671082,331, 0.4, -5.2,0,0,1024,1024,1024,1024,330.9,-89.9,97,3.913,3.913,3.961,3.93,3.956,3.931,18.221,77,14,Waypoint,
38.8913011,-120.7647857,3308.0825861736,222.440952,0,0.88334648496,28000,2018-05-22 20:00:49,17,0,23.605,3308.0825861736,222.440952,0.447388,1.49859912932,0,0,-0.671082,331, 0.4, -5.3,0,0,1024,1024,1024,1024,330.9,-90,97,3.913,3.916,3.961,3.937,3.955,3.931,17.518,78.8,14,Waypoint,
38.8913011,-120.7647857,3309.0668381736,223.425204,0,0.88334648496,28100,2018-05-22 20:00:49,17,0,23.605,3309.0668381736,223.425204,0.447388,1.49859912932,0,0,-0.671082,331, 0.4, -5.2,0,0,1024,1024,1024,1024,330.9,-89.9,97,3.913,3.916,3.961,3.937,3.955,3.931,17.518,78.8,14,Waypoint,
38.8913011,-120.7647856,3310.0510901736,224.409456,0,0.91165029164,28200,2018-05-22 20:00:49,17,0,23.605,3310.0510901736,224.409456,0.447388,1.49859912932,0,0,-0.671082,331, 0.4, -5.1,0,0,1024,1024,1024,1024,331,-90,97,3.913,3.916,3.961,3.937,3.955,3.931,17.518,78.8,14,Waypoint,
38.8913011,-120.7647856,3311.0353421736,225.393708,0,0.91165029164,28300,2018-05-22 20:00:49,17,0,23.605,3311.0353421736,225.393708,0.447388,1.49859912932,0,0,-0.671082,331.1, 0.3, -5,0,0,1024,1024,1024,1024,331,-90,97,3.913,3.916,3.961,3.937,3.955,3.931,17.518,78.8,14,Waypoint,
38.8913011,-120.7647855,3311.6915101736,226.049876,0,0.93995737916,28400,2018-05-22 20:00:49,17,0,23.605,3311.6915101736,226.049876,0.447388,1.49859912932,0,0,-0.671082,331.1, 0.3, -4.9,0,0,1024,1024,1024,1024,331,-90,97,3.913,3.916,3.961,3.937,3.955,3.931,17.518,78.8,14,Waypoint,
38.8913011,-120.7647855,3312.6757621736,227.034128,0,0.93995737916,28500,2018-05-22 20:00:49,17,0,23.605,3312.6757621736,227.034128,0.447388,1.49859912932,0,0,-0.671082,331.1, 0.4, -4.8,0,0,1024,1024,1024,1024,330.9,-89.9,97,3.913,3.916,3.961,3.937,3.955,3.931,17.518,78.8,14,Waypoint,
38.8913011,-120.7647854,3313.6600141736,228.01838,0,0.9682743092,28600,2018-05-22 20:00:49,17,0,23.605,3313.6600141736,228.01838,0.447388,1.49859912932,0,0,-0.671082,331.1, 0.5, -4.8,0,0,1024,1024,1024,1024,331,-89.9,97,3.913,3.916,3.961,3.937,3.955,3.931,17.518,78.8,14,Waypoint,
38.8913011,-120.7647854,3314.6442661736,229.002632,0,0.9682743092,28700,2018-05-22 20:00:49,17,0,23.605,3314.6442661736,229.002632,0.447388,1.49859912932,0,0,-0.671082,331.1, 0.5, -4.8,0,0,1024,1024,1024,1024,331,-89.9,97,3.913,3.916,3.961,3.937,3.955,3.931,17.518,78.8,14,Waypoint,
