Latitude, Longitude, Altitude (m), Time, Sats, Speed (m/s), Range (m), Battery (%), Roll (deg), Pitch (deg), Yaw (deg), Images, HD Signal (%), RC Signal (%), Battery Temp (C), Battery Voltage (mV), Battery Current (mA), Battery Energy (mAh), Battery Capacity (mAh), Battery Discharges, flyState, timestamp (Unix), LastUpdate (ms), radioChannel, Rc_elevator, Rc_aileron, Rc_throttle, Rc_rudder, Rc_gyro, Dronetype, Battery_Cell1 (mV), Battery_Cell2 (mV), Battery_Cell3 (mV), Battery_Cell4 (mV), Battery_Cell5 (mV), Battery_Cell6 (mV), Video, isFlying, elapsedTime (ms), gimbalPitch (deg), gimbalRoll (deg), gimbalYaw (deg), VelocityX (m/s), VelocityY (m/s), VelocityZ (m/s), GroundSmear (cm), App Version, Aircraft Name, Aircraft Firmware, Aircraft Serial Number, Battery Serial Number, Battery Lifetime (%), App_Tip, App_Warning, CurrentFlightStartingIndex, CurrentFlightLastVisitedWaypoint, PreviousFlightEndingWaypointIndex
38.8913001, -120.7648216, 0.000, 12:40:49.328, 14, 0.00, 0.11, 100, 0.600, 1.400, -30.700, 801, 100, 100, 24, 25730, -3234, 5472, 5472, 12, 11, 1527018049.328, 91, 0, 1024, 1024, 1024, 1024, 0, 6, 4280, 4280, 4259, 4299, 4287, 4278, 0, 1, 2923, -89.900, 0.000, -30.400, 0.000, 0.000, -0.200, 0.0, MapPilot_2.8.1_04242018, Dendroctonus I, 1.3.1.00, 041DDC1887, 1058171200161, 97, DJI_0803.jpg, Starting Mission from Lat/Long: 38.89130/-120.76480 Camera: Zenmuse X3 - Overlap: 90/90 - Active Connection: No, 31, 31, 31
38.8913000, -120.7648216, 0.000, 12:40:49.406, 14, 0.00, 0.11, 100, 0.500, 1.000, -30.600, 801, 100, 100, 24, 25730, -3234, 5472, 5472, 12, 11, 1527018049.407, 36, 0, 1024, 1024, 1024, 1024, 0, 6, 4280, 4280, 4259, 4299, 4287, 4278, 0, 1, 3002, -89.900, 0.000, -30.400, 0.000, 0.000, -0.300, 0.0, , , , , , 97, , , 31, 31, 31
38.8913000, -120.7648215, 0.000, 12:40:49.506, 13, 0.00, 0.11, 100, 0.300, 0.300, -30.600, 801, 100, 100, 24, 25730, -3234, 5472, 5472, 12, 11, 1527018049.506, 38, 0, 1024, 1024, 1024, 1024, 0, 6, 4280, 4280, 4259, 4299, 4287, 4278, 0, 1, 3101, -89.900, 0.000, -30.400, 0.000, 0.000, -0.300, 0.0, , , , , , 97, , , 31, 31, 31
38.8912999, -120.7648215, 0.000, 12:40:49.606, 13, 0.00, 0.10, 100, 0.000, 0.000, -30.600, 801, 100, 100, 24, 25730, -3234, 5472, 5472, 12, 11, 1527018049.607, 29, 0, 1024, 1024, 1024, 1024, 0, 6, 4280, 4280, 4259, 4299, 4287, 4278, 0, 1, 3202, -89.900, 0.000, -30.400, 0.000, 0.000, -0.300, 0.0, , , , , , 97, , , 31, 31, 31
38.8912999, -120.7648214, 0.100, 12:40:49.706, 12, 0.00, 0.10, 100, 0.100, -0.200, -30.600, 801, 100, 100, 24, 25730, -3234, 5472, 5472, 12, 11, 1527018049.707, 44, 0, 1024, 1024, 1024, 1024, 0, 6, 4280, 4280, 4259, 4299, 4287, 4278, 0, 1, 3302, -89.900, 0.000, -30.400, 0.000, 0.000, -0.300, 0.0, , , , , , 97, , , 31, 31, 31
38.8912999, -120.7648213, 0.100, 12:40:49.806, 12, 0.00, 0.10, 100, 0.100, -0.100, -30.600, 801, 100, 100, 24, 25730, -3234, 5472, 5472, 12, 11, 1527018049.807, 40, 0, 1024, 1024, 1024, 1024, 0, 6, 4280, 4280, 4259, 4299, 4287, 4278, 0, 1, 3401, -89.900, 0.000, -30.400, 0.000, 0.000, -0.400, 0.0, , , , , , 97, , , 31, 31, 31
38.8912999, -120.7648212, 0.100, 12:40:49.906, 10, 0.00, 0.10, 100, 0.000, 0.000, -30.700, 801, 100, 100, 24, 25730, -3234, 5472, 5472, 12, 11, 1527018049.906, 31, 0, 1024, 1024, 1024, 1024, 0, 6, 4280, 4280, 4259, 4299, 4287, 4278, 0, 1, 3501, -89.900, 0.000, -30.400, 0.000, 0.000, -0.400, 0.0, , , , , , 97, , , 31, 31, 31
38.8912998, -120.7648211, 0.200, 12:40:50.006, 10, 0.00, 0.10, 100, -0.200, -0.100, -30.700, 801, 100, 100, 24, 25730, -3234, 5472, 5472, 12, 11, 1527018050.006, 13, 0, 1024, 1024, 1024, 1024, 0, 6, 4280, 4280, 4259, 4299, 4287, 4278, 0, 1, 3601, -89.900, 0.000, -30.400, 0.000, 0.000, -0.300, 0.0, , , , , , 97, , , 31, 31, 31
38.8912998, -120.7648211, 0.200, 12:40:50.106, 10, 0.00, 0.10, 100, -0.500, -0.100, -30.800, 801, 100, 100, 24, 24956, -12335, 5472, 5472, 12, 11, 1527018050.106, 23, 0, 1024, 1024, 1024, 1024, 0, 6, 4280, 4280, 4259, 4299, 4287, 4278, 0, 1, 3701, -89.900, 0.000, -30.400, 0.000, 0.000, -0.400, 0.0, , , , , , 97, , , 31, 31, 31
38.8912999, -120.7648211, 0.300, 12:40:50.213, 10, 0.00, 0.10, 100, -0.500, 0.000, -30.800, 801, 100, 100, 24, 24956, -12335, 5472, 5472, 12, 11, 1527018050.213, 14, 0, 1024, 1024, 1024, 1024, 0, 6, 4280, 4280, 4259, 4299, 4287, 4278, 0, 1, 3808, -89.900, 0.000, -30.400, 0.000, 0.000, -0.500, 0.0, , , , , , 97, , , 31, 31, 31
38.8913000, -120.7648210, 0.400, 12:40:50.306, 9, 0.00, 0.08, 100, -0.400, 0.200, -30.800, 801, 100, 100, 24, 24956, -12335, 5472, 5472, 12, 11, 1527018050.307, 12, 0, 1024, 1024, 1024, 1024, 0, 6, 4280, 4280, 4259, 4299, 4287, 4278, 0, 1, 3901, -89.900, 0.000, -30.400, 0.000, 0.000, -0.400, 0.0, , , , , , 97, , , 31, 31, 31
38.8913000, -120.7648210, 0.400, 12:40:50.406, 10, 0.00, 0.08, 100, -0.400, 0.400, -30.700, 801, 100, 100, 24, 24956, -12335, 5472, 5472, 12, 11, 1527018050.407, 10, 0, 1024, 1024, 1024, 1024, 0, 6, 4280, 4280, 4259, 4299, 4287, 4278, 0, 1, 4002, -89.900, 0.000, -30.400, 0.000, 0.000, -0.400, 0.0, , , , , , 97, , , 31, 31, 31
38.8913000, -120.7648209, 0.400, 12:40:50.506, 10, 0.00, 0.08, 100, -0.400, 0.500, -30.700, 801, 100, 100, 24, 24956, -12335, 5472, 5472, 12, 11, 1527018050.507, 12, 0, 1024, 1024, 1024, 1024, 0, 6, 4280, 4280, 4259, 4299, 4287, 4278, 0, 1, 4101, -89.900, 0.000, -30.400, 0.000, 0.000, -0.400, 0.0, , , , , , 97, , , 31, 31, 31
38.8913000, -120.7648209, 0.400, 12:40:50.606, 10, 0.00, 0.08, 100, -0.400, 0.500, -30.700, 801, 100, 100, 24, 24956, -12335, 5472, 5472, 12, 11, 1527018050.606, 112, 0, 1024, 1024, 1024, 1024, 0, 6, 4280, 4280, 4259, 4299, 4287, 4278, 0, 1, 4201, -89.900, 0.000, -30.400, 0.000, 0.000, -0.400, 0.0, , , , , , 97, , , 31, 31, 31
38.8913000, -120.7648210, 0.500, 12:40:50.706, 11, 0.00, 0.08, 100, -0.400, 0.600, -30.700, 801, 100, 100, 24, 24956, -12335, 5472, 5472, 12, 11, 1527018050.707, 90, 0, 1024, 1024, 1024, 1024, 0, 6, 4136, 4136, 4090, 4151, 4144, 4103, 0, 1, 4301, -89.900, 0.000, -30.400, 0.000, 0.000, -0.500, 0.0, , , , , , 97, , , 31, 31, 31
38.8913000, -120.7648210, 0.600, 12:40:50.806, 11, 0.00, 0.08, 100, -0.400, 0.600, -30.800, 801, 100, 100, 24, 24956, -12335, 5472, 5472, 12, 11, 1527018050.806, 92, 0, 1024, 1024, 1024, 1024, 0, 6, 4136, 4136, 4090, 4151, 4144, 4103, 0, 1, 4401, -89.900, 0.000, -30.400, 0.000, 0.000, -0.500, 0.0, , , , , , 97, , , 31, 31, 31
38.8913000, -120.7648211, 0.600, 12:40:50.906, 11, 0.00, 0.08, 100, -0.300, 0.600, -30.900, 801, 100, 100, 24, 24956, -12335, 5472, 5472, 12, 11, 1527018050.906, 69, 0, 1024, 1024, 1024, 1024, 0, 6, 4136, 4136, 4090, 4151, 4144, 4103, 0, 1, 4501, -89.900, 0.000, -30.400, 0.000, 0.000, -0.400, 0.0, , , , , , 97, , , 31, 31, 31
38.8913000, -120.7648210, 0.600, 12:40:51.005, 11, 0.00, 0.08, 100, -0.200, 0.500, -30.900, 801, 100, 100, 24, 24956, -12335, 5472, 5472, 12, 11, 1527018051.007, 65, 0, 1024, 1024, 1024, 1024, 0, 6, 4136, 4136, 4090, 4151, 4144, 4103, 0, 1, 4601, -89.900, 0.000, -30.400, 0.000, 0.000, -0.400, 0.0, , , , , , 97, , , 31, 31, 31
38.8913001, -120.7648211, 0.700, 12:40:51.106, 14, 0.00, 0.07, 100, -0.200, 0.400, -31.000, 801, 100, 100, 24, 24956, -12335, 5472, 5472, 12, 11, 1527018051.106, 81, 0, 1024, 1024, 1024, 1024, 0, 6, 4136, 4136, 4090, 4151, 4144, 4103, 0, 1, 4701, -89.900, 0.000, -30.400, 0.000, 0.000, -0.400, 0.0, , , , , , 97, , , 31, 31, 31
38.8913001, -120.7648211, 0.700, 12:40:51.206, 14, 0.00, 0.07, 100, -0.200, 0.400, -31.100, 801, 100, 100, 24, 24956, -12335, 5472, 5472, 12, 11, 1527018051.207, 43, 0, 1024, 1024, 1024, 1024, 0, 6, 4136, 4136, 4090, 4151, 4144, 4103, 0, 1, 4802, -89.900, 0.000, -30.400, 0.000, 0.000, -0.400, 0.0, , , , , , 97, , , 31, 31, 31
38.8913002, -120.7648211, 0.800, 12:40:51.306, 14, 0.00, 0.07, 100, -0.300, 0.500, -31.100, 801, 100, 100, 24, 24956, -12335, 5472, 5472, 12, 11, 1527018051.306, 77, 0, 1024, 1024, 1024, 1024, 0, 6, 4136, 4136, 4090, 4151, 4144, 4103, 0, 1, 4901, -89.900, 0.000, -30.400, 0.000, 0.000, -0.400, 0.0, , , , , , 97, , , 31, 31, 31
38.8913002, -120.7648210, 0.800, 12:40:51.407, 14, 0.00, 0.06, 100, -0.400, 0.500, -31.100, 801, 100, 100, 24, 24956, -12335, 5472, 5472, 12, 11, 1527018051.407, 77, 0, 1024, 1024, 1024, 1024, 0, 6, 4136, 4136, 4090, 4151, 4144, 4103, 0, 1, 5002, -89.900, 0.000, -30.400, 0.000, 0.000, -0.400, 0.0, , , , , , 97, , , 31, 31, 31
38.8913002, -120.7648210, 0.900, 12:40:51.507, 13, 0.00, 0.06, 100, -0.500, 0.400, -31.100, 801, 100, 100, 24, 24956, -12335, 5472, 5472, 12, 11, 1527018051.509, 72, 0, 1024, 1024, 1024, 1024, 0, 6, 4136, 4136, 4090, 4151, 4144, 4103, 0, 1, 5104, -89.900, 0.000, -30.400, 0.000, 0.000, -0.500, 0.0, , , , , , 97, , , 31, 31, 31
38.8913003, -120.7648211, 0.900, 12:40:51.607, 13, 0.00, 0.05, 100, -0.500, 0.400, -31.100, 801, 100, 100, 24, 24508, -15452, 5472, 5472, 12, 14, 1527018051.608, 62, 0, 1024, 1024, 1024, 1024, 0, 6, 4071, 4081, 4065, 4088, 4091, 4076, 0, 1, 5203, -89.900, 0.000, -30.400, 0.000, 0.000, -0.500, 0.0, , , , , , 97, , , 31, 31, 31
38.8913004, -120.7648212, 0.900, 12:40:51.707, 13, 0.00, 0.05, 100, -0.500, 0.600, -31.200, 801, 100, 100, 24, 24508, -15452, 5472, 5472, 12, 14, 1527018051.708, 46, 0, 1024, 1024, 1024, 1024, 0, 6, 4071, 4081, 4065, 4088, 4091, 4076, 0, 1, 5303, -89.900, 0.000, -30.400, 0.000, 0.000, -0.300, 0.0, , , , , , 97, , , 31, 31, 31
38.8913004, -120.7648212, 1.000, 12:40:51.815, 13, 0.00, 0.05, 100, -0.200, 0.900, -31.200, 801, 100, 100, 24, 24508, -15452, 5472, 5472, 12, 14, 1527018051.816, 19, 0, 1024, 1024, 1024, 1024, 0, 6, 4071, 4081, 4065, 4088, 4091, 4076, 0, 1, 5411, -89.900, 0.000, -30.400, 0.000, 0.000, -0.200, 0.0, , , , , , 97, , , 31, 31, 31
38.8913004, -120.7648213, 1.000, 12:40:51.907, 12, 0.00, 0.06, 100, -0.100, 1.100, -31.200, 801, 100, 100, 24, 24508, -15452, 5472, 5472, 12, 14, 1527018051.911, 47, 0, 1024, 1024, 1024, 1024, 0, 6, 4071, 4081, 4065, 4088, 4091, 4076, 0, 1, 5505, -89.900, 0.000, -30.400, 0.000, 0.000, -0.200, 0.0, , , , , , 97, , , 31, 31, 31
38.8913004, -120.7648213, 1.000, 12:40:52.009, 12, 0.00, 0.06, 100, -0.100, 1.100, -31.200, 801, 100, 100, 24, 24508, -15452, 5472, 5472, 12, 14, 1527018052.011, 25, 0, 1024, 1024, 1024, 1024, 0, 6, 4071, 4081, 4065, 4088, 4091, 4076, 0, 1, 5606, -89.900, 0.000, -30.400, 0.000, 0.000, -0.300, 0.0, , , , , , 97, , , 31, 31, 31
38.8913004, -120.7648213, 1.000, 12:40:52.108, 12, 0.00, 0.06, 100, -0.100, 1.100, -31.200, 801, 100, 100, 24, 24508, -15452, 5472, 5472, 12, 14, 1527018052.108, 122, 0, 1024, 1024, 1024, 1024, 0, 6, 4071, 4081, 4065, 4088, 4091, 4076, 0, 1, 5703, -89.900, 0.000, -30.400, 0.000, 0.000, -0.300, 0.0, , , , , , 97, , , 31, 31, 31
38.8913005, -120.7648213, 1.100, 12:40:52.207, 14, 0.00, 0.06, 100, -0.100, 1.100, -31.200, 801, 100, 100, 24, 24508, -15452, 5472, 5472, 12, 14, 1527018052.208, 28, 0, 1024, 1024, 1024, 1024, 0, 6, 4071, 4081, 4065, 4088, 4091, 4076, 0, 1, 5803, -89.900, 0.000, -30.400, 0.000, 0.000, -0.400, 0.0, , , , , , 97, , , 31, 31, 31
38.8913005, -120.7648213, 1.100, 12:40:52.306, 14, 0.00, 0.06, 100, -0.100, 1.100, -31.200, 801, 100, 100, 24, 24508, -15452, 5472, 5472, 12, 14, 1527018052.307, 127, 0, 1024, 1024, 1024, 1024, 0, 6, 4071, 4081, 4065, 4088, 4091, 4076, 0, 1, 5902, -89.900, 0.000, -30.400, 0.000, 0.000, -0.400, 0.0, , , , , , 97, , , 31, 31, 31
38.8913005, -120.7648213, 1.100, 12:40:52.406, 14, 0.00, 0.05, 100, -0.200, 0.900, -31.200, 801, 100, 100, 24, 24508, -15452, 5472, 5472, 12, 14, 1527018052.406, 47, 0, 1024, 1024, 1024, 1024, 0, 6, 4071, 4081, 4065, 4088, 4091, 4076, 0, 1, 6001, -89.900, 0.000, -30.400, 0.000, 0.000, -0.600, 0.0, , , , , , 97, , , 31, 31, 31
38.8913005, -120.7648213, 1.200, 12:40:52.506, 14, 0.00, 0.05, 100, -0.400, 0.800, -31.300, 801, 100, 100, 24, 24508, -15452, 5472, 5472, 12, 14, 1527018052.506, 47, 0, 1024, 1024, 1024, 1024, 0, 6, 4071, 4081, 4065, 4088, 4091, 4076, 0, 1, 6101, -89.900, 0.000, -30.400, 0.000, 0.000, -0.800, 0.0, , , , , , 97, , , 31, 31, 31
38.8913005, -120.7648213, 1.300, 12:40:52.606, 14, 0.00, 0.05, 100, -0.500, 0.600, -31.300, 801, 100, 100, 24, 24508, -15452, 5472, 5472, 12, 14, 1527018052.607, 44, 0, 1024, 1024, 1024, 1024, 0, 6, 4071, 4081, 4065, 4088, 4091, 4076, 0, 1, 6202, -90.000, 0.000, -30.400, 0.000, 0.000, -1.000, 0.0, , , , , , 97, , , 31, 31, 31
38.8913005, -120.7648213, 1.400, 12:40:52.706, 13, 0.00, 0.06, 100, -0.300, 0.500, -31.400, 801, 100, 100, 24, 24508, -15452, 5472, 5472, 12, 14, 1527018052.706, 29, 0, 1024, 1024, 1024, 1024, 0, 6, 4071, 4081, 4065, 4088, 4091, 4076, 0, 1, 6301, -90.000, 0.000, -30.400, 0.000, 0.000, -1.200, 0.0, , , , , , 97, , , 31, 31, 31
38.8913005, -120.7648213, 1.400, 12:40:52.808, 13, 0.00, 0.06, 100, -0.300, 0.500, -31.400, 801, 100, 100, 24, 24508, -15452, 5472, 5472, 12, 14, 1527018052.812, 135, 0, 1024, 1024, 1024, 1024, 0, 6, 4071, 4081, 4065, 4088, 4091, 4076, 0, 1, 6407, -90.000, 0.000, -30.400, 0.000, 0.000, -1.200, 0.0, , , , , , 97, , , 31, 31, 31
38.8913005, -120.7648213, 1.500, 12:40:52.906, 13, 0.00, 0.06, 100, -0.100, 0.500, -31.500, 801, 100, 100, 24, 24422, -15968, 5362, 5472, 12, 14, 1527018052.907, 45, 0, 1024, 1024, 1024, 1024, 0, 6, 4071, 4081, 4065, 4088, 4091, 4076, 0, 1, 6502, -90.000, 0.000, -30.400, 0.000, 0.000, -1.500, 0.0, , , , , , 97, , , 31, 31, 31
38.8913005, -120.7648213, 1.700, 12:40:53.006, 12, 0.00, 0.06, 100, -0.100, 0.500, -31.600, 801, 100, 100, 24, 24422, -15968, 5362, 5472, 12, 14, 1527018053.006, 47, 0, 1024, 1024, 1024, 1024, 0, 6, 4060, 4072, 4057, 4077, 4079, 4067, 0, 1, 6601, -89.900, 0.000, -30.400, 0.000, 0.000, -1.600, 0.0, , , , , , 97, , , 31, 31, 31
38.8913005, -120.7648213, 1.700, 12:40:53.106, 12, 0.00, 0.06, 100, -0.100, 0.500, -31.600, 801, 100, 100, 24, 24422, -15968, 5362, 5472, 12, 14, 1527018053.106, 147, 0, 1024, 1024, 1024, 1024, 0, 6, 4060, 4072, 4057, 4077, 4079, 4067, 0, 1, 6701, -89.900, 0.000, -30.400, 0.000, 0.000, -1.600, 0.0, , , , , , 97, , , 31, 31, 31
38.8913003, -120.7648212, 2.100, 12:40:53.207, 14, 0.00, 0.06, 100, 0.000, 0.500, -31.600, 801, 100, 100, 24, 24422, -15968, 5362, 5472, 12, 14, 1527018053.207, 17, 0, 1024, 1024, 1024, 1024, 0, 6, 4060, 4072, 4057, 4077, 4079, 4067, 0, 1, 6802, -89.900, 0.000, -30.400, 0.000, 0.000, -2.100, 0.0, , , , , , 97, , , 31, 31, 31
38.8912999, -120.7648209, 2.800, 12:40:53.313, 11, 0.00, 0.08, 98, 0.300, -0.200, -31.100, 801, 100, 100, 24, 24422, -15968, 5362, 5472, 12, 14, 1527018053.314, 11, 0, 1024, 1024, 1024, 1024, 0, 6, 4060, 4072, 4057, 4077, 4079, 4067, 0, 1, 6909, -90.000, 0.000, -30.400, 0.000, 0.000, -2.800, 0.0, , , , , , 97, , , 31, 31, 31
38.8913000, -120.7648206, 3.500, 12:40:53.410, 12, 0.00, 0.08, 98, 0.000, -0.300, -30.800, 801, 100, 100, 24, 24422, -15968, 5362, 5472, 12, 14, 1527018053.411, 6, 0, 1024, 1024, 1024, 1024, 0, 6, 4060, 4072, 4057, 4077, 4079, 4067, 0, 1, 7005, -89.900, 0.000, -30.400, 0.000, 0.000, -3.000, 0.0, , , , , , 97, , , 31, 31, 31
38.8912999, -120.7648204, 3.800, 12:40:53.506, 11, 0.00, 0.09, 98, -0.200, -0.200, -30.800, 801, 100, 100, 24, 24422, -15968, 5362, 5472, 12, 14, 1527018053.506, 20, 0, 1024, 1024, 1024, 1024, 0, 6, 4060, 4072, 4057, 4077, 4079, 4067, 0, 1, 7101, -89.900, 0.000, -30.400, 0.000, 0.000, -3.000, 0.0, , , , , , 97, , , 31, 31, 31
38.8912998, -120.7648202, 4.100, 12:40:53.606, 11, 0.00, 0.10, 98, -0.500, -0.200, -30.800, 801, 100, 100, 24, 24073, -18925, 5362, 5472, 12, 14, 1527018053.606, 72, 0, 1024, 1024, 1024, 1024, 0, 6, 3991, 4000, 3972, 3999, 4026, 3986, 0, 1, 7201, -90.000, 0.000, -30.400, 0.000, 0.000, -3.100, 0.0, , , , , , 97, , , 31, 31, 31
38.8913000, -120.7648202, 4.400, 12:40:53.706, 16, 0.00, 0.09, 98, -0.700, -0.300, -30.900, 801, 100, 100, 24, 24073, -18925, 5362, 5472, 12, 14, 1527018053.707, 66, 0, 1024, 1024, 1024, 1024, 0, 6, 3991, 4000, 3972, 3999, 4026, 3986, 0, 1, 7302, -89.900, 0.000, -30.400, 0.000, 0.000, -3.200, 0.0, , , , , , 97, , , 31, 31, 31
38.8913002, -120.7648204, 4.800, 12:40:53.806, 16, 0.00, 0.06, 98, -0.800, 0.000, -30.900, 801, 100, 100, 24, 24073, -18925, 5362, 5472, 12, 14, 1527018053.806, 52, 0, 1024, 1024, 1024, 1024, 0, 6, 3991, 4000, 3972, 3999, 4026, 3986, 0, 1, 7401, -89.900, 0.000, -30.400, 0.000, 0.000, -3.200, 0.0, , , , , , 97, , , 31, 31, 31
38.8913004, -120.7648206, 5.100, 12:40:53.906, 14, 0.00, 0.04, 98, -0.700, 0.600, -30.900, 801, 100, 100, 24, 24073, -18925, 5362, 5472, 12, 14, 1527018053.907, 66, 0, 1024, 1024, 1024, 1024, 0, 6, 3991, 4000, 3972, 3999, 4026, 3986, 0, 1, 7502, -89.900, 0.000, -30.400, 0.000, 0.000, -3.200, 0.0, , , , , , 97, , , 31, 31, 31
38.8913006, -120.7648208, 5.500, 12:40:54.006, 14, 0.00, 0.02, 98, -0.400, 1.400, -30.900, 801, 100, 100, 24, 24073, -18925, 5362, 5472, 12, 14, 1527018054.007, 71, 0, 1024, 1024, 1024, 1024, 0, 6, 3991, 4000, 3972, 3999, 4026, 3986, 0, 1, 7601, -89.900, 0.000, -30.400, 0.000, 0.000, -3.200, 0.0, , , , , , 97, , , 31, 31, 31
38.8913007, -120.7648209, 5.800, 12:40:54.106, 14, 0.00, 0.02, 98, 0.000, 2.000, -30.900, 801, 100, 100, 24, 24073, -18925, 5362, 5472, 12, 14, 1527018054.106, 60, 0, 1024, 1024, 1024, 1024, 0, 6, 3991, 4000, 3972, 3999, 4026, 3986, 0, 1, 7701, -89.900, 0.000, -30.400, 0.000, 0.000, -3.200, 0.0, , , , , , 97, , , 31, 31, 31
38.8913007, -120.7648209, 5.800, 12:40:54.207, 14, 0.00, 0.02, 98, 0.000, 2.000, -30.900, 801, 100, 100, 24, 24073, -18925, 5362, 5472, 12, 14, 1527018054.208, 162, 0, 1024, 1024, 1024, 1024, 0, 6, 3991, 4000, 3972, 3999, 4026, 3986, 0, 1, 7803, -89.900, 0.000, -30.400, 0.000, 0.000, -3.200, 0.0, , , , , , 97, , , 31, 31, 31
38.8913009, -120.7648211, 6.500, 12:40:54.321, 13, 0.00, 0.04, 98, 0.100, 2.100, -31.000, 801, 100, 100, 24, 24073, -18925, 5362, 5472, 12, 14, 1527018054.322, 9, 0, 1024, 1024, 1024, 1024, 0, 6, 3991, 4000, 3972, 3999, 4026, 3986, 0, 1, 7917, -89.900, 0.000, -30.400, 0.000, 0.000, -3.100, 0.0, , , , , , 97, , , 31, 31, 31
38.8913009, -120.7648211, 6.800, 12:40:54.417, 13, 0.00, 0.04, 98, 0.000, 1.700, -31.000, 801, 100, 100, 24, 24073, -18925, 5362, 5472, 12, 14, 1527018054.418, 5, 0, 1024, 1024, 1024, 1024, 0, 6, 3991, 4000, 3972, 3999, 4026, 3986, 0, 1, 8013, -89.900, 0.000, -30.400, 0.000, 0.000, -3.100, 0.0, , , , , , 97, , , 31, 31, 31
38.8913009, -120.7648211, 7.100, 12:40:54.516, 13, 0.00, 0.05, 98, 0.000, 1.300, -31.100, 801, 100, 100, 24, 24073, -18925, 5362, 5472, 12, 14, 1527018054.517, 9, 0, 1024, 1024, 1024, 1024, 0, 6, 3991, 4000, 3972, 3999, 4026, 3986, 0, 1, 8112, -89.900, 0.000, -30.400, 0.000, 0.000, -3.100, 0.0, , , , , , 97, , , 31, 31, 31
38.8913009, -120.7648211, 7.100, 12:40:54.607, 13, 0.00, 0.05, 98, 0.000, 1.300, -31.100, 801, 100, 100, 24, 24073, -18925, 5362, 5472, 12, 14, 1527018054.608, 100, 0, 1024, 1024, 1024, 1024, 0, 6, 3991, 4000, 3972, 3999, 4026, 3986, 0, 1, 8202, -89.900, 0.000, -30.400, 0.000, 0.000, -3.100, 0.0, , , , , , 97, , , 31, 31, 31
38.8913010, -120.7648211, 7.400, 12:40:54.707, 13, 0.00, 0.05, 98, 0.000, 1.000, -31.100, 801, 100, 100, 24, 23756, -22982, 5362, 5472, 12, 14, 1527018054.708, 45, 0, 1024, 1024, 1024, 1024, 0, 6, 3991, 4000, 3972, 3999, 4026, 3986, 0, 1, 8303, -89.900, 0.000, -30.400, 0.000, 0.000, -3.200, 0.0, , , , , , 97, , , 31, 31, 31
38.8913011, -120.7648212, 7.800, 12:40:54.807, 13, 0.00, 0.06, 98, 0.000, 0.900, -31.200, 801, 100, 100, 24, 23756, -22982, 5362, 5472, 12, 14, 1527018054.807, 66, 0, 1024, 1024, 1024, 1024, 0, 6, 3991, 4000, 3972, 3999, 4026, 3986, 0, 1, 8402, -89.900, 0.000, -30.400, 0.000, 0.000, -3.200, 0.0, , , , , , 97, , , 31, 31, 31
38.8913011, -120.7648212, 7.800, 12:40:54.906, 13, 0.00, 0.06, 98, 0.000, 0.900, -31.200, 801, 100, 100, 24, 23756, -22982, 5362, 5472, 12, 14, 1527018054.906, 165, 0, 1024, 1024, 1024, 1024, 0, 6, 3963, 3982, 3951, 3966, 3971, 3974, 0, 1, 8501, -89.900, 0.000, -30.400, 0.000, 0.000, -3.200, 0.0, , , , , , 97, , , 31, 31, 31
38.8913012, -120.7648213, 8.100, 12:40:55.006, 13, 0.00, 0.07, 98, 0.000, 0.900, -31.200, 801, 100, 100, 24, 23756, -22982, 5362, 5472, 12, 14, 1527018055.006, 62, 0, 1024, 1024, 1024, 1024, 0, 6, 3963, 3982, 3951, 3966, 3971, 3974, 0, 1, 8601, -89.900, 0.000, -30.400, 0.000, 0.000, -3.100, 0.0, , , , , , 97, , , 31, 31, 31
38.8913011, -120.7648214, 8.400, 12:40:55.106, 16, 0.00, 0.08, 98, 0.000, 1.000, -31.200, 801, 100, 100, 24, 23756, -22982, 5362, 5472, 12, 14, 1527018055.106, 59, 0, 1024, 1024, 1024, 1024, 0, 6, 3963, 3982, 3951, 3966, 3971, 3974, 0, 1, 8701, -89.900, 0.000, -30.400, 0.000, 0.000, -3.000, 0.0, , , , , , 97, , , 31, 31, 31
38.8913010, -120.7648215, 9.100, 12:40:55.217, 14, 0.00, 0.08, 98, 0.300, 0.900, -31.200, 801, 100, 100, 24, 23756, -22982, 5362, 5472, 12, 14, 1527018055.217, 15, 0, 1024, 1024, 1024, 1024, 0, 6, 3963, 3982, 3951, 3966, 3971, 3974, 0, 1, 8812, -89.900, 0.000, -30.400, 0.000, 0.000, -3.100, 0.0, , , , , , 97, , , 31, 31, 31
38.8913010, -120.7648215, 9.100, 12:40:55.307, 14, 0.00, 0.08, 98, 0.300, 0.900, -31.200, 801, 100, 100, 24, 23756, -22982, 5362, 5472, 12, 14, 1527018055.307, 104, 0, 1024, 1024, 1024, 1024, 0, 6, 3963, 3982, 3951, 3966, 3971, 3974, 0, 1, 8902, -89.900, 0.000, -30.400, 0.000, 0.000, -3.100, 0.0, , , , , , 97, , , 31, 31, 31
38.8913011, -120.7648215, 9.400, 12:40:55.406, 14, 0.00, 0.08, 98, 0.400, 0.800, -31.200, 801, 100, 100, 24, 23756, -22982, 5362, 5472, 12, 14, 1527018055.408, 44, 0, 1024, 1024, 1024, 1024, 0, 6, 3963, 3982, 3951, 3966, 3971, 3974, 0, 1, 9003, -89.900, 0.000, -30.400, 0.000, 0.000, -3.000, 0.0, , , , , , 97, , , 31, 31, 31
38.8913010, -120.7648217, 9.700, 12:40:55.507, 14, 0.00, 0.09, 98, 0.400, 0.800, -31.200, 801, 100, 94, 24, 23756, -22982, 5362, 5472, 12, 14, 1527018055.508, 65, 0, 1024, 1024, 1024, 1024, 0, 6, 3963, 3982, 3951, 3966, 3971, 3974, 0, 1, 9103, -89.900, 0.000, -30.400, 0.000, 0.000, -3.000, 0.0, , , , , , 97, , , 31, 31, 31
38.8913009, -120.7648218, 10.000, 12:40:55.607, 14, 0.00, 0.10, 98, 0.600, 0.800, -31.200, 801, 100, 94, 24, 23756, -22982, 5362, 5472, 12, 14, 1527018055.612, 48, 0, 1024, 1024, 1024, 1024, 0, 6, 3963, 3982, 3951, 3966, 3971, 3974, 0, 1, 9207, -89.900, 0.000, -30.400, 0.000, 0.000, -3.000, 0.0, , , , , , 97, , , 31, 31, 31
38.8913009, -120.7648218, 10.000, 12:40:55.708, 14, 0.00, 0.10, 98, 0.600, 0.800, -31.200, 801, 100, 94, 24, 23756, -22982, 5362, 5472, 12, 14, 1527018055.711, 147, 0, 1024, 1024, 1024, 1024, 0, 6, 3963, 3982, 3951, 3966, 3971, 3974, 0, 1, 9306, -89.900, 0.000, -30.400, 0.000, 0.000, -3.000, 0.0, , , , , , 97, , , 31, 31, 31
38.8913009, -120.7648218, 10.600, 12:40:55.812, 15, 0.00, 0.10, 98, 0.600, 0.600, -31.200, 801, 100, 94, 24, 23756, -22982, 5362, 5472, 12, 14, 1527018055.816, 15, 0, 1024, 1024, 1024, 1024, 0, 6, 3963, 3982, 3951, 3966, 3971, 3974, 0, 1, 9411, -89.900, 0.000, -30.400, 0.000, 0.000, -3.000, 0.0, , , , , , 97, , , 31, 31, 31
38.8913009, -120.7648219, 10.900, 12:40:55.913, 15, 0.00, 0.11, 98, 0.400, 0.700, -31.200, 801, 100, 90, 24, 23982, -18122, 5362, 5472, 12, 14, 1527018055.914, 16, 0, 1024, 1024, 1024, 1024, 0, 6, 3963, 3982, 3951, 3966, 3971, 3974, 0, 1, 9509, -89.900, 0.000, -30.400, 0.000, 0.000, -3.000, 0.0, , , , , , 97, , , 31, 31, 31
38.8913009, -120.7648221, 11.200, 12:40:56.022, 15, 0.00, 0.12, 98, 0.400, 0.800, -31.200, 801, 100, 90, 24, 23982, -18122, 5362, 5472, 12, 14, 1527018056.027, 22, 0, 1024, 1024, 1024, 1024, 0, 6, 3963, 3982, 3951, 3966, 3971, 3974, 0, 1, 9622, -89.900, 0.000, -30.400, 0.000, 0.000, -3.000, 0.0, , , , , , 97, , , 31, 31, 31
38.8913009, -120.7648221, 11.200, 12:40:56.106, 15, 0.00, 0.12, 98, 0.400, 0.800, -31.200, 801, 100, 90, 24, 23982, -18122, 5362, 5472, 12, 14, 1527018056.106, 101, 0, 1024, 1024, 1024, 1024, 0, 6, 3963, 3982, 3951, 3966, 3971, 3974, 0, 1, 9701, -89.900, 0.000, -30.400, 0.000, 0.000, -3.000, 0.0, , , , , , 97, , , 31, 31, 31
38.8913009, -120.7648221, 11.500, 12:40:56.210, 16, 0.00, 0.13, 98, 0.600, 1.000, -31.200, 801, 100, 90, 24, 23982, -18122, 5362, 5472, 12, 14, 1527018056.211, 24, 0, 1024, 1024, 1024, 1024, 0, 6, 3963, 3982, 3951, 3966, 3971, 3974, 0, 1, 9806, -89.900, 0.000, -30.400, 0.000, 0.000, -3.000, 0.0, , , , , , 97, , , 31, 31, 31
38.8913009, -120.7648221, 11.900, 12:40:56.306, 16, 0.00, 0.13, 98, 0.700, 1.000, -31.200, 801, 100, 90, 24, 23982, -18122, 5362, 5472, 12, 14, 1527018056.307, 79, 0, 1024, 1024, 1024, 1024, 0, 6, 3963, 3982, 3951, 3966, 3971, 3974, 0, 1, 9902, -89.900, 0.000, -30.400, 0.000, 0.000, -3.000, 0.0, , , , , , 97, , , 31, 31, 31
38.8913008, -120.7648220, 12.500, 12:40:56.406, 16, 0.00, 0.12, 98, 0.600, 0.900, -31.200, 801, 100, 90, 24, 23982, -18122, 5362, 5472, 12, 14, 1527018056.406, 52, 0, 1024, 1024, 1024, 1024, 0, 6, 3991, 4016, 3982, 4017, 4019, 4004, 0, 1, 10001, -89.900, 0.000, -30.400, 0.000, 0.000, -3.000, 0.0, , , , , , 97, , , 31, 31, 31
38.8913007, -120.7648220, 13.400, 12:40:56.509, 16, 0.00, 0.11, 98, 0.200, 0.500, -31.200, 801, 100, 90, 24, 23982, -18122, 5362, 5472, 12, 14, 1527018056.509, 8, 0, 1024, 1024, 1024, 1024, 0, 6, 3991, 4016, 3982, 4017, 4019, 4004, 0, 1, 10104, -89.900, 0.000, -30.400, 0.000, 0.000, -2.900, 0.0, , , , , , 97, , , 31, 31, 31
38.8913007, -120.7648220, 13.400, 12:40:56.606, 16, 0.00, 0.11, 98, 0.200, 0.500, -31.200, 801, 100, 90, 24, 23982, -18122, 5362, 5472, 12, 14, 1527018056.606, 105, 0, 1024, 1024, 1024, 1024, 0, 6, 3991, 4016, 3982, 4017, 4019, 4004, 0, 1, 10201, -89.900, 0.000, -30.400, 0.000, 0.000, -2.900, 0.0, , , , , , 97, , , 31, 31, 31
38.8913007, -120.7648218, 14.000, 12:40:56.706, 17, 0.00, 0.10, 98, 0.100, 0.400, -31.300, 801, 100, 90, 24, 23982, -18122, 5362, 5472, 12, 14, 1527018056.706, 38, 0, 1024, 1024, 1024, 1024, 0, 6, 3991, 4016, 3982, 4017, 4019, 4004, 0, 1, 10301, -89.900, 0.000, -30.400, 0.000, 0.000, -3.000, 0.0, , , , , , 97, , , 31, 31, 31
38.8913007, -120.7648218, 14.000, 12:40:56.806, 17, 0.00, 0.10, 98, 0.100, 0.400, -31.300, 801, 100, 90, 24, 23982, -18122, 5362, 5472, 12, 14, 1527018056.807, 138, 0, 1024, 1024, 1024, 1024, 0, 6, 3991, 4016, 3982, 4017, 4019, 4004, 0, 1, 10402, -90.000, 0.000, -30.400, 0.000, 0.000, -3.000, 0.0, , , , , , 97, , , 31, 31, 31
38.8913006, -120.7648217, 14.600, 12:40:56.906, 17, 0.00, 0.08, 98, 0.000, 0.400, -31.300, 801, 100, 90, 24, 23982, -18122, 5362, 5472, 12, 14, 1527018056.906, 51, 0, 1024, 1024, 1024, 1024, 0, 6, 3991, 4016, 3982, 4017, 4019, 4004, 0, 1, 10501, -89.900, 0.000, -30.400, 0.000, 0.000, -3.000, 0.0, , , , , , 97, , , 31, 31, 31
38.8913006, -120.7648216, 15.000, 12:40:57.006, 17, 0.00, 0.08, 98, -0.100, 0.400, -31.400, 801, 100, 90, 24, 23982, -18122, 5362, 5472, 12, 14, 1527018057.006, 30, 0, 1024, 1024, 1024, 1024, 0, 6, 3991, 4016, 3982, 4017, 4019, 4004, 0, 1, 10601, -89.900, 0.000, -30.400, 0.000, 0.000, -2.900, 0.0, , , , , , 97, , , 31, 31, 31
38.8913006, -120.7648216, 15.200, 12:40:57.106, 18, 0.00, 0.08, 98, 0.000, 0.400, -31.300, 801, 100, 90, 24, 24014, -18203, 5362, 5472, 12, 14, 1527018057.106, 43, 0, 1024, 1024, 1024, 1024, 0, 6, 3995, 4005, 3991, 4013, 4020, 3999, 0, 1, 10701, -89.900, 0.000, -30.400, 0.000, 0.000, -2.900, 0.0, , , , , , 97, , , 31, 31, 31
38.8913006, -120.7648215, 15.500, 12:40:57.206, 18, 0.00, 0.07, 98, 0.000, 0.400, -31.300, 801, 100, 90, 24, 24014, -18203, 5362, 5472, 12, 14, 1527018057.206, 38, 0, 1024, 1024, 1024, 1024, 0, 6, 3995, 4005, 3991, 4013, 4020, 3999, 0, 1, 10801, -89.900, 0.000, -30.400, 0.000, 0.000, -2.900, 0.0, , , , , , 97, , , 31, 31, 31
38.8913006, -120.7648215, 15.900, 12:40:57.314, 18, 0.00, 0.07, 98, 0.000, 0.400, -31.200, 801, 100, 90, 24, 24014, -18203, 5362, 5472, 12, 14, 1527018057.315, 9, 0, 1024, 1024, 1024, 1024, 0, 6, 3995, 4005, 3991, 4013, 4020, 3999, 0, 1, 10910, -89.900, 0.000, -30.400, 0.000, 0.000, -2.900, 0.0, , , , , , 97, , , 31, 31, 31
38.8913005, -120.7648215, 16.100, 12:40:57.406, 18, 0.00, 0.08, 98, 0.000, 0.300, -31.100, 801, 100, 90, 24, 24014, -18203, 5362, 5472, 12, 14, 1527018057.406, 14, 0, 1024, 1024, 1024, 1024, 0, 6, 3995, 4005, 3991, 4013, 4020, 3999, 0, 1, 11001, -90.000, 0.000, -30.400, 0.000, 0.000, -2.900, 0.0, , , , , , 97, , , 31, 31, 31
38.8913005, -120.7648215, 16.700, 12:40:57.509, 19, 0.00, 0.07, 98, 0.100, 0.300, -31.100, 801, 100, 90, 24, 24014, -18203, 5362, 5472, 12, 14, 1527018057.509, 10, 0, 1024, 1024, 1024, 1024, 0, 6, 3995, 4005, 3991, 4013, 4020, 3999, 0, 1, 11104, -89.900, 0.000, -30.400, 0.000, 0.000, -2.900, 0.0, , , , , , 97, , , 31, 31, 31
38.8913005, -120.7648215, 16.700, 12:40:57.606, 19, 0.00, 0.07, 98, 0.100, 0.300, -31.100, 801, 100, 90, 24, 24014, -18203, 5362, 5472, 12, 14, 1527018057.606, 107, 0, 1024, 1024, 1024, 1024, 0, 6, 3995, 4005, 3991, 4013, 4020, 3999, 0, 1, 11201, -89.900, 0.000, -30.400, 0.000, 0.000, -2.900, 0.0, , , , , , 97, , , 31, 31, 31
38.8913004, -120.7648213, 17.300, 12:40:57.706, 19, 0.00, 0.06, 98, 0.000, 0.300, -31.200, 801, 100, 89, 24, 24014, -18203, 5362, 5472, 12, 14, 1527018057.707, 11, 0, 1024, 1024, 1024, 1024, 0, 6, 3995, 4005, 3991, 4013, 4020, 3999, 0, 1, 11302, -89.900, 0.000, -30.400, 0.000, 0.000, -2.900, 0.0, , , , , , 97, , , 31, 31, 31
38.8913004, -120.7648212, 17.600, 12:40:57.805, 18, 0.00, 0.05, 98, 0.000, 0.200, -31.200, 801, 100, 89, 24, 24014, -18203, 5362, 5472, 12, 14, 1527018057.806, 12, 0, 1024, 1024, 1024, 1024, 0, 6, 3995, 4005, 3991, 4013, 4020, 3999, 0, 1, 11401, -90.000, 0.000, -30.400, 0.000, 0.000, -2.900, 0.0, , , , , , 97, , , 31, 31, 31
38.8913004, -120.7648212, 17.600, 12:40:57.906, 18, 0.00, 0.05, 98, 0.000, 0.200, -31.200, 801, 100, 89, 24, 24014, -18203, 5362, 5472, 12, 14, 1527018057.907, 112, 0, 1024, 1024, 1024, 1024, 0, 6, 3995, 4005, 3991, 4013, 4020, 3999, 0, 1, 11502, -90.000, 0.000, -30.400, 0.000, 0.000, -2.900, 0.0, , , , , , 97, , , 31, 31, 31
38.8913004, -120.7648211, 17.900, 12:40:58.006, 18, 0.00, 0.05, 98, -0.200, 0.200, -31.200, 801, 100, 89, 24, 24014, -18203, 5362, 5472, 12, 14, 1527018058.006, 80, 0, 1024, 1024, 1024, 1024, 0, 6, 3995, 4005, 3991, 4013, 4020, 3999, 0, 1, 11601, -90.000, 0.000, -30.400, 0.000, 0.000, -2.900, 0.0, , , , , , 97, , , 31, 31, 31
38.8913003, -120.7648211, 18.200, 12:40:58.106, 20, 0.00, 0.05, 98, -0.200, 0.000, -31.200, 801, 100, 89, 24, 24009, -17989, 5362, 5472, 12, 14, 1527018058.107, 80, 0, 1024, 1024, 1024, 1024, 0, 6, 3998, 4007, 3987, 4009, 4017, 3989, 0, 1, 11702, -90.000, 0.000, -30.400, 0.000, 0.000, -2.900, 0.0, , , , , , 97, , , 31, 31, 31
38.8913002, -120.7648211, 18.500, 12:40:58.206, 20, 0.00, 0.06, 98, -0.100, 0.000, -31.200, 801, 100, 93, 24, 24009, -17989, 5362, 5472, 12, 14, 1527018058.207, 47, 0, 1024, 1024, 1024, 1024, 0, 6, 3998, 4007, 3987, 4009, 4017, 3989, 0, 1, 11802, -90.000, 0.000, -30.400, 0.000, 0.000, -2.900, 0.0, , , , , , 97, , , 31, 31, 31
38.8913002, -120.7648211, 18.800, 12:40:58.306, 19, 0.00, 0.06, 98, 0.000, -0.100, -31.200, 801, 100, 93, 24, 24009, -17989, 5362, 5472, 12, 14, 1527018058.306, 95, 0, 1024, 1024, 1024, 1024, 0, 6, 3998, 4007, 3987, 4009, 4017, 3989, 0, 1, 11901, -90.000, 0.000, -30.400, 0.000, 0.000, -2.900, 0.0, , , , , , 97, , , 31, 31, 31
38.8913001, -120.7648210, 19.100, 12:40:58.406, 19, 0.00, 0.07, 98, 0.200, 0.000, -31.200, 801, 100, 93, 24, 24009, -17989, 5362, 5472, 12, 14, 1527018058.407, 66, 0, 1024, 1024, 1024, 1024, 0, 6, 3998, 4007, 3987, 4009, 4017, 3989, 0, 1, 12002, -90.000, 0.000, -30.400, 0.000, 0.000, -2.900, 0.0, , , , , , 97, , , 31, 31, 31
38.8913001, -120.7648210, 19.400, 12:40:58.506, 20, 0.00, 0.07, 98, 0.200, 0.000, -31.100, 801, 100, 93, 24, 24009, -17989, 5362, 5472, 12, 14, 1527018058.506, 65, 0, 1024, 1024, 1024, 1024, 0, 6, 3998, 4007, 3987, 4009, 4017, 3989, 0, 1, 12101, -89.900, 0.000, -30.400, 0.000, 0.000, -3.000, 0.0, , , , , , 97, , , 31, 31, 31
38.8913001, -120.7648209, 19.700, 12:40:58.606, 20, 0.00, 0.07, 98, 0.200, 0.000, -31.100, 801, 100, 93, 24, 24009, -17989, 5362, 5472, 12, 14, 1527018058.607, 61, 0, 1024, 1024, 1024, 1024, 0, 6, 3998, 4007, 3987, 4009, 4017, 3989, 0, 1, 12202, -90.000, 0.000, -30.400, 0.000, 0.000, -2.900, 0.0, , , , , , 97, , , 31, 31, 31
38.8913000, -120.7648208, 20.000, 12:40:58.706, 20, 0.00, 0.07, 98, 0.000, 0.000, -31.100, 801, 100, 90, 24, 24009, -17989, 5362, 5472, 12, 14, 1527018058.706, 71, 0, 1024, 1024, 1024, 1024, 0, 6, 3998, 4007, 3987, 4009, 4017, 3989, 0, 1, 12301, -89.900, 0.000, -30.400, 0.000, 0.000, -2.900, 0.0, , , , , , 97, , , 31, 31, 31
38.8913000, -120.7648208, 20.300, 12:40:58.806, 20, 0.00, 0.08, 98, 0.000, 0.000, -31.100, 801, 100, 90, 24, 24009, -17989, 5362, 5472, 12, 14, 1527018058.806, 64, 0, 1024, 1024, 1024, 1024, 0, 6, 3998, 4007, 3987, 4009, 4017, 3989, 0, 1, 12401, -89.900, 0.000, -30.400, 0.000, 0.000, -2.900, 0.0, , , , , , 97, , , 31, 31, 31
38.8913000, -120.7648208, 20.600, 12:40:58.906, 21, 0.00, 0.08, 98, -0.100, 0.000, -31.100, 801, 100, 90, 24, 24009, -17989, 5362, 5472, 12, 14, 1527018058.907, 32, 0, 1024, 1024, 1024, 1024, 0, 6, 3998, 4007, 3987, 4009, 4017, 3989, 0, 1, 12502, -89.900, 0.000, -30.400, 0.000, 0.000, -3.000, 0.0, , , , , , 97, , , 31, 31, 31
38.8913000, -120.7648207, 20.900, 12:40:59.006, 21, 0.00, 0.08, 98, -0.200, 0.000, -31.200, 801, 100, 90, 24, 24009, -17989, 5362, 5472, 12, 14, 1527018059.006, 43, 0, 1024, 1024, 1024, 1024, 0, 6, 3998, 4007, 3987, 4009, 4017, 3989, 0, 1, 12601, -89.900, 0.000, -30.400, 0.000, 0.000, -2.900, 0.0, , , , , , 97, , , 31, 31, 31
38.8912999, -120.7648207, 21.200, 12:40:59.106, 19, 0.00, 0.08, 98, -0.300, 0.000, -31.200, 801, 100, 90, 24, 23955, -18181, 5362, 5472, 12, 14, 1527018059.107, 30, 0, 1024, 1024, 1024, 1024, 0, 6, 3998, 4007, 3987, 4009, 4017, 3989, 0, 1, 12702, -89.900, 0.000, -30.400, 0.000, 0.000, -2.900, 0.0, , , , , , 97, , , 31, 31, 31
38.8912999, -120.7648206, 21.500, 12:40:59.206, 19, 0.00, 0.09, 98, -0.300, 0.000, -31.200, 801, 100, 94, 24, 23955, -18181, 5362, 5472, 12, 14, 1527018059.206, 44, 0, 1024, 1024, 1024, 1024, 0, 6, 3981, 3997, 3979, 4003, 4017, 3988, 0, 1, 12801, -90.000, 0.000, -30.400, 0.000, 0.000, -2.900, 0.0, , , , , , 97, , , 31, 31, 31
38.8912999, -120.7648205, 21.800, 12:40:59.306, 20, 0.00, 0.09, 98, -0.500, -0.200, -31.200, 801, 100, 94, 24, 23955, -18181, 5362, 5472, 12, 14, 1527018059.306, 17, 0, 1024, 1024, 1024, 1024, 0, 6, 3981, 3997, 3979, 4003, 4017, 3988, 0, 1, 12901, -90.000, 0.000, -30.400, 0.000, 0.000, -3.000, 0.0, , , , , , 97, , , 31, 31, 31
38.8912999, -120.7648205, 21.800, 12:40:59.406, 20, 0.00, 0.09, 98, -0.500, -0.200, -31.200, 801, 100, 94, 24, 23955, -18181, 5362, 5472, 12, 14, 1527018059.408, 118, 0, 1024, 1024, 1024, 1024, 0, 6, 3981, 3997, 3979, 4003, 4017, 3988, 0, 1, 13003, -89.900, 0.000, -30.400, 0.000, 0.000, -3.000, 0.0, , , , , , 97, , , 31, 31, 31
38.8912999, -120.7648204, 22.400, 12:40:59.505, 20, 0.00, 0.09, 98, -0.600, -0.100, -31.300, 801, 100, 94, 24, 23955, -18181, 5362, 5472, 12, 14, 1527018059.506, 6, 0, 1024, 1024, 1024, 1024, 0, 6, 3981, 3997, 3979, 4003, 4017, 3988, 0, 1, 13101, -89.900, 0.000, -30.400, 0.000, 0.000, -2.900, 0.0, , , , , , 97, , , 31, 31, 31
38.8913000, -120.7648203, 23.000, 12:40:59.611, 21, 0.00, 0.09, 98, -1.000, -0.100, -31.600, 801, 100, 94, 24, 23955, -18181, 5362, 5472, 12, 14, 1527018059.612, 10, 0, 1024, 1024, 1024, 1024, 0, 6, 3981, 3997, 3979, 4003, 4017, 3988, 0, 1, 13207, -89.900, 0.000, -30.400, 0.000, 0.000, -2.900, 0.0, , , , , , 97, , , 31, 31, 31
38.8913000, -120.7648203, 23.000, 12:40:59.706, 21, 0.00, 0.09, 98, -1.000, -0.100, -31.600, 801, 100, 94, 24, 23955, -18181, 5362, 5472, 12, 14, 1527018059.707, 104, 0, 1024, 1024, 1024, 1024, 0, 6, 3981, 3997, 3979, 4003, 4017, 3988, 0, 1, 13302, -89.900, 0.000, -30.400, 0.000, 0.000, -2.900, 0.0, , , , , , 97, , , 31, 31, 31
38.8913000, -120.7648203, 23.000, 12:40:59.806, 21, 0.00, 0.09, 98, -1.000, -0.100, -31.600, 801, 100, 94, 24, 23955, -18181, 5362, 5472, 12, 14, 1527018059.806, 204, 0, 1024, 1024, 1024, 1024, 0, 6, 3981, 3997, 3979, 4003, 4017, 3988, 0, 1, 13401, -89.900, 0.000, -30.400, 0.000, 0.000, -2.900, 0.0, , , , , , 97, , , 31, 31, 31
38.8913001, -120.7648203, 23.600, 12:40:59.906, 21, 0.00, 0.08, 98, -0.900, 0.600, -31.800, 801, 100, 94, 24, 23955, -18181, 5362, 5472, 12, 14, 1527018059.907, 76, 0, 1024, 1024, 1024, 1024, 0, 6, 3981, 3997, 3979, 4003, 4017, 3988, 0, 1, 13502, -89.900, 0.000, -30.400, 0.000, 0.000, -2.800, 0.0, , , , , , 97, , , 31, 31, 31
38.8913001, -120.7648203, 23.800, 12:41:00.005, 21, 0.00, 0.07, 98, -0.800, 1.100, -31.700, 801, 100, 94, 24, 23955, -18181, 5362, 5472, 12, 14, 1527018060.006, 87, 0, 1024, 1024, 1024, 1024, 0, 6, 3981, 3997, 3979, 4003, 4017, 3988, 0, 1, 13601, -89.900, 0.000, -30.400, 0.000, 0.000, -2.900, 0.0, , , , , , 97, , , 31, 31, 31
38.8913002, -120.7648203, 24.100, 12:41:00.106, 21, 0.00, 0.07, 98, -0.500, 1.300, -31.500, 801, 100, 94, 24, 23955, -18181, 5362, 5472, 12, 14, 1527018060.107, 86, 0, 1024, 1024, 1024, 1024, 0, 6, 3981, 3997, 3979, 4003, 4017, 3988, 0, 1, 13701, -89.900, 0.000, -30.400, 0.000, 0.000, -2.900, 0.0, , , , , , 97, , , 31, 31, 31
38.8913002, -120.7648203, 24.400, 12:41:00.206, 21, 0.00, 0.06, 98, -0.200, 1.400, -31.300, 801, 100, 94, 24, 23955, -18181, 5362, 5472, 12, 14, 1527018060.206, 46, 0, 1024, 1024, 1024, 1024, 0, 6, 3981, 3997, 3979, 4003, 4017, 3988, 0, 1, 13801, -89.900, 0.000, -30.400, 0.000, 0.000, -3.000, 0.0, , , , , , 97, , , 31, 31, 31
38.8913002, -120.7648203, 24.400, 12:41:00.306, 21, 0.00, 0.06, 98, -0.200, 1.400, -31.300, 801, 100, 98, 24, 23955, -18181, 5362, 5472, 12, 14, 1527018060.307, 146, 0, 1024, 1024, 1024, 1024, 0, 6, 3981, 3997, 3979, 4003, 4017, 3988, 0, 1, 13902, -89.900, 0.000, -30.400, 0.000, 0.000, -3.000, 0.0, , , , , , 97, , , 31, 31, 31
38.8913002, -120.7648204, 25.000, 12:41:00.406, 21, 0.00, 0.06, 98, -0.200, 1.200, -30.900, 801, 100, 98, 24, 23955, -18181, 5362, 5472, 12, 14, 1527018060.406, 50, 0, 1024, 1024, 1024, 1024, 0, 6, 3981, 3997, 3979, 4003, 4017, 3988, 0, 1, 14001, -89.900, 0.000, -30.400, 0.000, 0.000, -3.000, 0.0, , , , , , 97, , , 31, 31, 31
38.8913002, -120.7648205, 25.400, 12:41:00.506, 21, 0.00, 0.05, 98, -0.200, 1.300, -30.900, 801, 100, 98, 24, 23955, -18181, 5362, 5472, 12, 14, 1527018060.507, 88, 0, 1024, 1024, 1024, 1024, 0, 6, 3981, 3997, 3979, 4003, 4017, 3988, 0, 1, 14102, -89.900, 0.000, -30.400, 0.000, 0.000, -3.000, 0.0, , , , , , 97, , , 31, 31, 31
38.8913002, -120.7648205, 25.400, 12:41:00.606, 21, 0.00, 0.05, 98, -0.200, 1.300, -30.900, 801, 100, 98, 24, 23958, -17913, 5362, 5472, 12, 14, 1527018060.607, 188, 0, 1024, 1024, 1024, 1024, 0, 6, 3981, 3997, 3979, 4003, 4017, 3988, 0, 1, 14202, -89.900, 0.000, -30.400, 0.000, 0.000, -3.000, 0.0, , , , , , 97, , , 31, 31, 31
38.8913003, -120.7648205, 26.000, 12:41:00.706, 21, 0.00, 0.05, 98, 0.000, 1.300, -31.200, 801, 100, 96, 24, 23958, -17913, 5362, 5472, 12, 14, 1527018060.707, 76, 0, 1024, 1024, 1024, 1024, 0, 6, 3984, 3997, 3979, 4004, 4000, 3984, 0, 1, 14302, -89.900, 0.000, -30.400, 0.000, 0.000, -3.000, 0.0, , , , , , 97, , , 31, 31, 31
38.8913003, -120.7648204, 26.300, 12:41:00.806, 21, 0.00, 0.05, 98, -0.200, 1.200, -31.300, 801, 100, 96, 24, 23958, -17913, 5362, 5472, 12, 14, 1527018060.807, 73, 0, 1024, 1024, 1024, 1024, 0, 6, 3984, 3997, 3979, 4004, 4000, 3984, 0, 1, 14402, -89.900, 0.000, -30.400, 0.000, 0.000, -3.000, 0.0, , , , , , 97, , , 31, 31, 31
38.8913003, -120.7648203, 26.600, 12:41:00.906, 21, 0.00, 0.05, 98, -0.400, 1.100, -31.400, 801, 100, 96, 24, 23958, -17913, 5362, 5472, 12, 14, 1527018060.906, 47, 0, 1024, 1024, 1024, 1024, 0, 6, 3984, 3997, 3979, 4004, 4000, 3984, 0, 1, 14501, -89.900, 0.000, -30.400, 0.000, 0.000, -3.000, 0.0, , , , , , 97, , , 31, 31, 31
38.8913003, -120.7648202, 26.900, 12:41:01.006, 21, 0.00, 0.06, 98, -1.000, 1.000, -31.300, 801, 100, 96, 24, 23958, -17913, 5362, 5472, 12, 14, 1527018061.007, 64, 0, 1024, 1024, 1024, 1024, 0, 6, 3984, 3997, 3979, 4004, 4000, 3984, 0, 1, 14601, -89.900, 0.000, -30.400, 0.000, 0.000, -3.000, 0.0, , , , , , 97, , , 31, 31, 31
38.8913003, -120.7648202, 26.900, 12:41:01.106, 21, 0.00, 0.06, 98, -1.000, 1.000, -31.300, 801, 100, 96, 24, 23863, -19045, 5362, 5472, 12, 14, 1527018061.106, 164, 0, 1024, 1024, 1024, 1024, 0, 6, 3984, 3997, 3979, 4004, 4000, 3984, 0, 1, 14701, -90.000, 0.000, -30.400, 0.000, 0.000, -3.000, 0.0, , , , , , 97, , , 31, 31, 31
38.8913004, -120.7648201, 27.600, 12:41:01.210, 21, 0.00, 0.07, 98, -1.600, 0.300, -31.200, 801, 100, 92, 24, 23863, -19045, 5362, 5472, 12, 14, 1527018061.210, 38, 0, 1024, 1024, 1024, 1024, 0, 6, 3984, 3997, 3979, 4004, 4000, 3984, 0, 1, 14805, -90.000, 0.000, -30.400, 0.000, 0.000, -3.000, 0.0, , , , , , 97, , , 31, 31, 31
38.8913004, -120.7648201, 27.600, 12:41:01.312, 21, 0.00, 0.07, 98, -1.600, 0.300, -31.200, 801, 100, 92, 24, 23863, -19045, 5362, 5472, 12, 14, 1527018061.313, 140, 0, 1024, 1024, 1024, 1024, 0, 6, 3984, 3997, 3979, 4004, 4000, 3984, 0, 1, 14908, -90.000, 0.000, -30.400, 0.000, 0.000, -3.000, 0.0, , , , , , 97, , , 31, 31, 31
38.8913003, -120.7648199, 28.200, 12:41:01.410, 21, 0.00, 0.08, 98, -1.800, 0.000, -31.100, 801, 100, 92, 24, 23863, -19045, 5362, 5472, 12, 14, 1527018061.411, 55, 0, 1024, 1024, 1024, 1024, 0, 6, 3984, 3997, 3979, 4004, 4000, 3984, 0, 1, 15005, -90.000, 0.000, -30.400, 0.000, 0.000, -3.000, 0.0, , , , , , 97, , , 31, 31, 31
38.8913003, -120.7648197, 28.500, 12:41:01.508, 21, 0.00, 0.09, 98, -1.800, -0.100, -31.100, 801, 100, 92, 24, 23863, -19045, 5362, 5472, 12, 14, 1527018061.508, 12, 0, 1024, 1024, 1024, 1024, 0, 6, 3984, 3997, 3979, 4004, 4000, 3984, 0, 1, 15103, -90.000, 0.000, -30.400, 0.000, 0.000, -2.900, 0.0, , , , , , 97, , , 31, 31, 31
38.8913003, -120.7648196, 28.800, 12:41:01.611, 21, 0.00, 0.10, 98, -1.700, -0.300, -31.000, 801, 100, 92, 24, 23863, -19045, 5362, 5472, 12, 14, 1527018061.612, 35, 0, 1024, 1024, 1024, 1024, 0, 6, 3984, 3997, 3979, 4004, 4000, 3984, 0, 1, 15207, -90.000, 0.000, -30.400, 0.000, 0.000, -2.800, 0.0, , , , , , 97, , , 31, 31, 31
38.8913003, -120.7648196, 28.800, 12:41:01.708, 21, 0.00, 0.10, 98, -1.700, -0.300, -31.000, 801, 100, 92, 24, 23863, -19045, 5362, 5472, 12, 14, 1527018061.708, 131, 0, 1024, 1024, 1024, 1024, 0, 6, 3971, 3976, 3961, 3992, 3998, 3971, 0, 1, 15303, -90.000, 0.000, -30.400, 0.000, 0.000, -2.800, 0.0, , , , , , 97, , , 31, 31, 31
38.8913003, -120.7648196, 29.100, 12:41:01.809, 21, 0.00, 0.11, 98, -1.500, -0.500, -31.000, 801, 100, 92, 24, 23863, -19045, 5362, 5472, 12, 14, 1527018061.810, 73, 0, 1024, 1024, 1024, 1024, 0, 6, 3971, 3976, 3961, 3992, 3998, 3971, 0, 1, 15405, -90.000, 0.000, -30.400, 0.000, 0.000, -2.800, 0.0, , , , , , 97, , , 31, 31, 31
38.8913003, -120.7648195, 29.700, 12:41:01.935, 21, 0.00, 0.12, 98, -1.000, -0.100, -30.900, 801, 100, 92, 24, 23863, -19045, 5362, 5472, 12, 14, 1527018061.935, 8, 0, 1024, 1024, 1024, 1024, 0, 6, 3971, 3976, 3961, 3992, 3998, 3971, 0, 1, 15530, -89.900, 0.000, -30.400, 0.000, 0.000, -2.900, 0.0, , , , , , 97, , , 31, 31, 31
38.8913003, -120.7648195, 29.700, 12:41:02.010, 21, 0.00, 0.12, 98, -1.000, -0.100, -30.900, 801, 100, 92, 24, 23863, -19045, 5362, 5472, 12, 14, 1527018062.011, 83, 0, 1024, 1024, 1024, 1024, 0, 6, 3971, 3976, 3961, 3992, 3998, 3971, 0, 1, 15606, -89.900, 0.000, -30.400, 0.000, 0.000, -2.900, 0.0, , , , , , 97, , , 31, 31, 31
38.8913002, -120.7648194, 30.300, 12:41:02.119, 21, 0.00, 0.12, 98, -1.000, 0.000, -30.900, 801, 100, 92, 25, 23863, -19045, 5362, 5472, 12, 14, 1527018062.119, 68, 0, 1024, 1024, 1024, 1024, 0, 6, 3971, 3976, 3961, 3992, 3998, 3971, 0, 1, 15714, -90.000, 0.000, -30.400, 0.000, 0.000, -3.000, 0.0, , , , , , 97, , , 31, 31, 31
38.8913002, -120.7648194, 30.300, 12:41:02.210, 21, 0.00, 0.12, 98, -1.000, 0.000, -30.900, 801, 100, 92, 25, 23863, -19045, 5362, 5472, 12, 14, 1527018062.211, 160, 0, 1024, 1024, 1024, 1024, 0, 6, 3971, 3976, 3961, 3992, 3998, 3971, 0, 1, 15806, -90.000, 0.000, -30.400, 0.000, 0.000, -3.000, 0.0, , , , , , 97, , , 31, 31, 31
38.8913002, -120.7648194, 30.300, 12:41:02.308, 21, 0.00, 0.12, 98, -1.000, 0.000, -30.900, 801, 100, 92, 25, 23863, -19045, 5362, 5472, 12, 14, 1527018062.309, 258, 0, 1024, 1024, 1024, 1024, 0, 6, 3971, 3976, 3961, 3992, 3998, 3971, 0, 1, 15904, -90.000, 0.000, -30.400, 0.000, 0.000, -3.000, 0.0, , , , , , 97, , , 31, 31, 31
38.8913001, -120.7648193, 31.200, 12:41:02.426, 21, 0.00, 0.14, 98, -1.100, -0.400, -31.100, 801, 100, 92, 25, 23863, -19045, 5362, 5472, 12, 14, 1527018062.427, 9, 0, 1024, 1024, 1024, 1024, 0, 6, 3971, 3976, 3961, 3992, 3998, 3971, 0, 1, 16021, -90.000, 0.000, -30.400, 0.000, 0.000, -2.900, 0.0, , , , , , 97, , , 31, 31, 31
38.8913001, -120.7648193, 31.200, 12:41:02.511, 21, 0.00, 0.14, 98, -1.100, -0.400, -31.100, 801, 100, 92, 25, 23863, -19045, 5362, 5472, 12, 14, 1527018062.511, 93, 0, 1024, 1024, 1024, 1024, 0, 6, 3971, 3976, 3961, 3992, 3998, 3971, 0, 1, 16106, -90.000, 0.000, -30.400, 0.000, 0.000, -2.900, 0.0, , , , , , 97, , , 31, 31, 31
38.8913001, -120.7648193, 31.400, 12:41:02.612, 21, 0.00, 0.14, 98, -1.100, -0.600, -31.100, 801, 100, 92, 25, 23863, -19045, 5362, 5472, 12, 14, 1527018062.613, 54, 0, 1024, 1024, 1024, 1024, 0, 6, 3971, 3976, 3961, 3992, 3998, 3971, 0, 1, 16208, -90.000, 0.000, -30.400, 0.000, 0.000, -2.900, 0.0, , , , , , 97, , , 31, 31, 31
38.8913000, -120.7648192, 31.700, 12:41:02.710, 21, 0.00, 0.15, 98, -1.100, -0.700, -31.000, 801, 100, 92, 25, 23931, -17439, 5307, 5472, 12, 14, 1527018062.710, 67, 0, 1024, 1024, 1024, 1024, 0, 6, 3985, 3994, 3963, 4006, 4004, 3974, 0, 1, 16305, -90.000, 0.000, -30.400, 0.000, 0.000, -2.900, 0.0, , , , , , 97, , , 31, 31, 31
38.8913000, -120.7648192, 32.000, 12:41:02.810, 21, 0.00, 0.15, 98, -0.900, -0.800, -31.000, 801, 100, 92, 25, 23931, -17439, 5307, 5472, 12, 14, 1527018062.812, 56, 0, 1024, 1024, 1024, 1024, 0, 6, 3985, 3994, 3963, 4006, 4004, 3974, 0, 1, 16407, -90.000, 0.000, -30.400, 0.000, 0.000, -2.900, 0.0, , , , , , 97, , , 31, 31, 31
38.8912999, -120.7648191, 32.300, 12:41:02.910, 21, 0.00, 0.16, 98, -1.000, -0.900, -31.100, 801, 100, 92, 25, 23931, -17439, 5307, 5472, 12, 14, 1527018062.911, 30, 0, 1024, 1024, 1024, 1024, 0, 6, 3985, 3994, 3963, 4006, 4004, 3974, 0, 1, 16506, -89.900, 0.000, -30.400, 0.000, 0.000, -2.900, 0.0, , , , , , 97, , , 31, 31, 31
38.8912999, -120.7648191, 32.300, 12:41:03.008, 21, 0.00, 0.16, 98, -1.000, -0.900, -31.100, 801, 100, 92, 25, 23931, -17439, 5307, 5472, 12, 14, 1527018063.009, 128, 0, 1024, 1024, 1024, 1024, 0, 6, 3985, 3994, 3963, 4006, 4004, 3974, 0, 1, 16604, -89.900, 0.000, -30.400, 0.000, 0.000, -2.900, 0.0, , , , , , 97, , , 31, 31, 31
38.8912999, -120.7648191, 32.600, 12:41:03.111, 21, 0.00, 0.17, 98, -1.100, -0.900, -31.100, 801, 100, 92, 25, 23931, -17439, 5307, 5472, 12, 14, 1527018063.111, 97, 0, 1024, 1024, 1024, 1024, 0, 6, 3985, 3994, 3963, 4006, 4004, 3974, 0, 1, 16706, -89.900, 0.000, -30.400, 0.000, 0.000, -2.900, 0.0, , , , , , 97, , , 31, 31, 31
38.8912999, -120.7648191, 32.600, 12:41:03.210, 21, 0.00, 0.17, 98, -1.100, -0.900, -31.100, 801, 100, 92, 25, 23931, -17439, 5307, 5472, 12, 14, 1527018063.211, 197, 0, 1024, 1024, 1024, 1024, 0, 6, 3985, 3994, 3963, 4006, 4004, 3974, 0, 1, 16806, -89.900, 0.000, -30.400, 0.000, 0.000, -2.900, 0.0, , , , , , 97, , , 31, 31, 31
38.8912998, -120.7648191, 33.200, 12:41:03.310, 21, 0.00, 0.17, 98, -1.200, -0.800, -31.100, 801, 100, 92, 25, 23931, -17439, 5307, 5472, 12, 14, 1527018063.310, 74, 0, 1024, 1024, 1024, 1024, 0, 6, 3985, 3994, 3963, 4006, 4004, 3974, 0, 1, 16905, -89.900, 0.000, -30.400, 0.000, 0.000, -2.900, 0.0, , , , , , 97, , , 31, 31, 31
38.8912999, -120.7648191, 33.500, 12:41:03.426, 21, 0.00, 0.17, 98, -1.300, -0.600, -31.100, 801, 100, 95, 25, 23931, -17439, 5307, 5472, 12, 14, 1527018063.428, 16, 0, 1024, 1024, 1024, 1024, 0, 6, 3985, 3994, 3963, 4006, 4004, 3974, 0, 1, 17023, -89.900, 0.000, -30.400, 0.000, 0.000, -2.900, 0.0, , , , , , 97, , , 31, 31, 31
38.8912999, -120.7648191, 33.500, 12:41:03.508, 21, 0.00, 0.17, 98, -1.300, -0.600, -31.100, 801, 100, 95, 25, 23931, -17439, 5307, 5472, 12, 14, 1527018063.509, 97, 0, 1024, 1024, 1024, 1024, 0, 6, 3985, 3994, 3963, 4006, 4004, 3974, 0, 1, 17104, -89.900, 0.000, -30.400, 0.000, 0.000, -2.900, 0.0, , , , , , 97, , , 31, 31, 31
38.8912998, -120.7648191, 34.100, 12:41:03.613, 21, 0.00, 0.17, 98, -1.200, -0.400, -31.200, 801, 100, 95, 25, 23931, -17439, 5307, 5472, 12, 14, 1527018063.614, 13, 0, 1024, 1024, 1024, 1024, 0, 6, 3985, 3994, 3963, 4006, 4004, 3974, 0, 1, 17209, -89.900, 0.000, -30.400, 0.000, 0.000, -2.900, 0.0, , , , , , 97, , , 31, 31, 31
38.8912998, -120.7648191, 34.100, 12:41:03.710, 21, 0.00, 0.17, 98, -1.200, -0.400, -31.200, 801, 100, 95, 25, 23931, -17439, 5307, 5472, 12, 14, 1527018063.711, 110, 0, 1024, 1024, 1024, 1024, 0, 6, 3985, 3994, 3963, 4006, 4004, 3974, 0, 1, 17305, -89.900, 0.000, -30.400, 0.000, 0.000, -2.900, 0.0, , , , , , 97, , , 31, 31, 31
38.8912998, -120.7648191, 34.100, 12:41:03.810, 21, 0.00, 0.17, 98, -1.200, -0.400, -31.200, 801, 100, 95, 25, 23931, -17439, 5307, 5472, 12, 14, 1527018063.811, 210, 0, 1024, 1024, 1024, 1024, 0, 6, 3985, 3994, 3963, 4006, 4004, 3974, 0, 1, 17406, -89.900, 0.000, -30.400, 0.000, 0.000, -2.900, 0.0, , , , , , 97, , , 31, 31, 31
38.8912998, -120.7648191, 34.700, 12:41:03.908, 21, 0.00, 0.17, 98, -1.000, -0.500, -31.200, 801, 100, 95, 25, 23867, -17860, 5307, 5472, 12, 14, 1527018063.908, 79, 0, 1024, 1024, 1024, 1024, 0, 6, 3965, 3983, 3960, 3986, 3999, 3967, 0, 1, 17503, -90.000, 0.000, -30.400, 0.000, 0.000, -2.900, 0.0, , , , , , 97, , , 31, 31, 31
38.8912997, -120.7648191, 35.500, 12:41:04.026, 21, 0.00, 0.17, 98, -1.000, -1.000, -31.100, 801, 100, 95, 25, 23867, -17860, 5307, 5472, 12, 14, 1527018064.027, 9, 0, 1024, 1024, 1024, 1024, 0, 6, 3965, 3983, 3960, 3986, 3999, 3967, 0, 1, 17622, -89.900, 0.000, -30.400, 0.000, 0.000, -2.900, 0.0, , , , , , 97, , , 31, 31, 31
38.8912997, -120.7648191, 35.500, 12:41:04.112, 21, 0.00, 0.17, 98, -1.000, -1.000, -31.100, 801, 100, 95, 25, 23867, -17860, 5307, 5472, 12, 14, 1527018064.113, 95, 0, 1024, 1024, 1024, 1024, 0, 6, 3965, 3983, 3960, 3986, 3999, 3967, 0, 1, 17707, -89.900, 0.000, -30.400, 0.000, 0.000, -2.900, 0.0, , , , , , 97, , , 31, 31, 31
38.8912997, -120.7648191, 35.500, 12:41:04.206, 21, 0.00, 0.17, 98, -1.000, -1.000, -31.100, 801, 100, 95, 25, 23867, -17860, 5307, 5472, 12, 14, 1527018064.206, 189, 0, 1024, 1024, 1024, 1024, 0, 6, 3965, 3983, 3960, 3986, 3999, 3967, 0, 1, 17801, -89.900, 0.000, -30.400, 0.000, 0.000, -2.900, 0.0, , , , , , 97, , , 31, 31, 31
38.8912997, -120.7648191, 35.500, 12:41:04.306, 21, 0.00, 0.17, 98, -1.000, -1.000, -31.100, 801, 100, 95, 25, 23867, -17860, 5307, 5472, 12, 14, 1527018064.307, 290, 0, 1024, 1024, 1024, 1024, 0, 6, 3965, 3983, 3960, 3986, 3999, 3967, 0, 1, 17902, -89.900, 0.000, -30.400, 0.000, 0.000, -2.900, 0.0, , , , , , 97, , , 31, 31, 31
38.8912996, -120.7648191, 36.800, 12:41:04.406, 21, 0.00, 0.18, 98, -1.400, -0.800, -31.000, 801, 100, 95, 25, 23867, -17860, 5307, 5472, 12, 14, 1527018064.406, 57, 0, 1024, 1024, 1024, 1024, 0, 6, 3965, 3983, 3960, 3986, 3999, 3967, 0, 1, 18001, -90.000, 0.000, -30.400, 0.000, 0.000, -3.000, 0.0, , , , , , 97, , , 31, 31, 31
38.8912996, -120.7648191, 37.400, 12:41:04.506, 21, 0.00, 0.18, 98, -1.200, -1.000, -31.100, 801, 100, 95, 25, 23867, -17860, 5307, 5472, 12, 14, 1527018064.507, 14, 0, 1024, 1024, 1024, 1024, 0, 6, 3965, 3983, 3960, 3986, 3999, 3967, 0, 1, 18102, -90.000, 0.000, -30.400, 0.000, 0.000, -3.000, 0.0, , , , , , 97, , , 31, 31, 31
38.8912995, -120.7648191, 37.700, 12:41:04.606, 21, 0.00, 0.19, 98, -1.100, -1.100, -31.200, 801, 100, 95, 25, 23851, -18051, 5307, 5472, 12, 14, 1527018064.607, 66, 0, 1024, 1024, 1024, 1024, 0, 6, 3965, 3983, 3960, 3986, 3999, 3967, 0, 1, 18202, -89.900, 0.000, -30.400, 0.000, 0.000, -3.000, 0.0, , , , , , 97, , , 31, 31, 31
38.8912995, -120.7648191, 38.000, 12:41:04.706, 21, 0.00, 0.19, 98, -1.100, -1.300, -31.300, 801, 100, 95, 25, 23851, -18051, 5307, 5472, 12, 14, 1527018064.707, 59, 0, 1024, 1024, 1024, 1024, 0, 6, 3963, 3974, 3958, 3979, 3988, 3970, 0, 1, 18302, -90.000, 0.000, -30.400, 0.000, 0.000, -2.900, 0.0, , , , , , 97, , , 31, 31, 31
38.8912995, -120.7648191, 38.300, 12:41:04.806, 21, 0.00, 0.19, 98, -1.300, -1.300, -31.300, 801, 100, 95, 25, 23851, -18051, 5307, 5472, 12, 14, 1527018064.807, 70, 0, 1024, 1024, 1024, 1024, 0, 6, 3963, 3974, 3958, 3979, 3988, 3970, 0, 1, 18401, -90.000, 0.000, -30.400, 0.000, 0.000, -2.900, 0.0, , , , , , 97, , , 31, 31, 31
38.8912995, -120.7648191, 38.600, 12:41:04.906, 21, 0.00, 0.19, 98, -1.500, -1.200, -31.300, 801, 100, 95, 25, 23851, -18051, 5307, 5472, 12, 14, 1527018064.907, 82, 0, 1024, 1024, 1024, 1024, 0, 6, 3963, 3974, 3958, 3979, 3988, 3970, 0, 1, 18501, -89.900, 0.000, -30.400, 0.000, 0.000, -2.900, 0.0, , , , , , 97, , , 31, 31, 31
38.8912995, -120.7648190, 38.900, 12:41:05.005, 21, 0.00, 0.20, 98, -1.700, -1.100, -31.300, 801, 100, 95, 25, 23851, -18051, 5307, 5472, 12, 14, 1527018065.007, 53, 0, 1024, 1024, 1024, 1024, 0, 6, 3963, 3974, 3958, 3979, 3988, 3970, 0, 1, 18602, -89.900, 0.000, -30.400, 0.000, 0.000, -2.900, 0.0, , , , , , 97, , , 31, 31, 31
38.8912995, -120.7648191, 39.200, 12:41:05.106, 21, 0.00, 0.20, 97, -1.600, -1.100, -31.300, 801, 100, 95, 25, 23851, -18051, 5307, 5472, 12, 14, 1527018065.106, 56, 0, 1024, 1024, 1024, 1024, 0, 6, 3963, 3974, 3958, 3979, 3988, 3970, 0, 1, 18701, -90.000, 0.000, -30.400, 0.000, 0.000, -2.900, 0.0, , , , , , 97, , , 31, 31, 31
38.8912995, -120.7648191, 39.500, 12:41:05.206, 21, 0.00, 0.20, 97, -1.500, -1.200, -31.400, 801, 100, 94, 25, 23851, -18051, 5307, 5472, 12, 14, 1527018065.207, 50, 0, 1024, 1024, 1024, 1024, 0, 6, 3963, 3974, 3958, 3979, 3988, 3970, 0, 1, 18802, -89.900, 0.000, -30.400, 0.000, 0.000, -2.900, 0.0, , , , , , 97, , , 31, 31, 31
38.8912994, -120.7648191, 39.800, 12:41:05.306, 21, 0.00, 0.20, 97, -1.400, -1.200, -31.400, 801, 100, 94, 25, 23851, -18051, 5307, 5472, 12, 14, 1527018065.307, 67, 0, 1024, 1024, 1024, 1024, 0, 6, 3963, 3974, 3958, 3979, 3988, 3970, 0, 1, 18901, -89.900, 0.000, -30.400, 0.000, 0.000, -2.900, 0.0, , , , , , 97, , , 31, 31, 31
38.8912994, -120.7648191, 40.100, 12:41:05.406, 21, 0.00, 0.20, 97, -1.400, -1.200, -31.400, 801, 100, 94, 25, 23851, -18051, 5307, 5472, 12, 14, 1527018065.406, 42, 0, 1024, 1024, 1024, 1024, 0, 6, 3963, 3974, 3958, 3979, 3988, 3970, 0, 1, 19001, -89.900, 0.000, -30.400, 0.000, 0.000, -2.900, 0.0, , , , , , 97, , , 31, 31, 31
38.8912994, -120.7648191, 40.400, 12:41:05.506, 21, 0.00, 0.20, 97, -1.300, -1.300, -31.300, 801, 100, 94, 25, 23851, -18051, 5307, 5472, 12, 14, 1527018065.507, 27, 0, 1024, 1024, 1024, 1024, 0, 6, 3963, 3974, 3958, 3979, 3988, 3970, 0, 1, 19102, -89.900, 0.000, -30.400, 0.000, 0.000, -2.900, 0.0, , , , , , 97, , , 31, 31, 31
38.8912995, -120.7648191, 40.700, 12:41:05.606, 21, 0.00, 0.19, 97, -1.300, -1.300, -31.200, 801, 100, 94, 25, 23796, -18367, 5307, 5472, 12, 14, 1527018065.606, 46, 0, 1024, 1024, 1024, 1024, 0, 6, 3963, 3969, 3954, 3974, 3985, 3964, 0, 1, 19201, -89.900, 0.000, -30.400, 0.000, 0.000, -2.900, 0.0, , , , , , 97, , , 31, 31, 31
38.8912995, -120.7648192, 41.000, 12:41:05.706, 21, 0.00, 0.19, 97, -1.300, -1.200, -31.100, 801, 100, 94, 25, 23796, -18367, 5307, 5472, 12, 14, 1527018065.706, 38, 0, 1024, 1024, 1024, 1024, 0, 6, 3963, 3969, 3954, 3974, 3985, 3964, 0, 1, 19301, -89.900, 0.000, -30.400, 0.000, 0.000, -2.900, 0.0, , , , , , 97, , , 31, 31, 31
38.8912994, -120.7648192, 41.300, 12:41:05.806, 21, 0.00, 0.19, 97, -1.000, -1.100, -31.100, 801, 100, 94, 25, 23796, -18367, 5307, 5472, 12, 14, 1527018065.806, 22, 0, 1024, 1024, 1024, 1024, 0, 6, 3963, 3969, 3954, 3974, 3985, 3964, 0, 1, 19401, -89.900, 0.000, -30.400, 0.000, 0.000, -2.900, 0.0, , , , , , 97, , , 31, 31, 31
38.8912994, -120.7648192, 41.600, 12:41:05.906, 21, 0.00, 0.19, 97, -0.800, -1.100, -31.100, 801, 100, 94, 25, 23796, -18367, 5307, 5472, 12, 14, 1527018065.907, 35, 0, 1024, 1024, 1024, 1024, 0, 6, 3963, 3969, 3954, 3974, 3985, 3964, 0, 1, 19502, -89.900, 0.000, -30.400, 0.000, 0.000, -3.000, 0.0, , , , , , 97, , , 31, 31, 31
38.8912994, -120.7648193, 41.900, 12:41:06.006, 21, 0.00, 0.18, 97, -0.700, -1.100, -31.200, 801, 100, 94, 25, 23796, -18367, 5307, 5472, 12, 14, 1527018066.008, 39, 0, 1024, 1024, 1024, 1024, 0, 6, 3963, 3969, 3954, 3974, 3985, 3964, 0, 1, 19603, -89.900, 0.000, -30.400, 0.000, 0.000, -3.000, 0.0, , , , , , 97, , , 31, 31, 31
38.8912995, -120.7648193, 42.200, 12:41:06.106, 21, 0.00, 0.18, 97, -0.900, -1.000, -31.100, 801, 100, 94, 25, 23796, -18367, 5307, 5472, 12, 14, 1527018066.106, 17, 0, 1024, 1024, 1024, 1024, 0, 6, 3963, 3969, 3954, 3974, 3985, 3964, 0, 1, 19701, -89.900, 0.000, -30.400, 0.000, 0.000, -3.000, 0.0, , , , , , 97, , , 31, 31, 31
38.8912995, -120.7648193, 42.500, 12:41:06.205, 21, 0.00, 0.18, 97, -1.400, -0.900, -31.100, 801, 100, 94, 25, 23796, -18367, 5307, 5472, 12, 14, 1527018066.206, 18, 0, 1024, 1024, 1024, 1024, 0, 6, 3963, 3969, 3954, 3974, 3985, 3964, 0, 1, 19801, -89.900, 0.000, -30.400, 0.000, 0.000, -2.900, 0.0, , , , , , 97, , , 31, 31, 31
38.8912995, -120.7648194, 43.100, 12:41:06.309, 21, 0.00, 0.17, 97, -1.500, -0.800, -31.000, 801, 100, 94, 25, 23796, -18367, 5307, 5472, 12, 14, 1527018066.310, 7, 0, 1024, 1024, 1024, 1024, 0, 6, 3963, 3969, 3954, 3974, 3985, 3964, 0, 1, 19905, -89.900, 0.000, -30.400, 0.000, 0.000, -3.000, 0.0, , , , , , 97, , , 31, 31, 31
38.8912996, -120.7648194, 43.400, 12:41:06.417, 21, 0.00, 0.17, 97, -1.500, -0.600, -31.100, 801, 100, 94, 25, 23796, -18367, 5307, 5472, 12, 14, 1527018066.417, 4, 0, 1024, 1024, 1024, 1024, 0, 6, 3963, 3969, 3954, 3974, 3985, 3964, 0, 1, 20012, -89.900, 0.000, -30.400, 0.000, 0.000, -2.900, 0.0, , , , , , 97, , , 31, 31, 31
38.8912996, -120.7648194, 43.400, 12:41:06.506, 21, 0.00, 0.17, 97, -1.500, -0.600, -31.100, 801, 100, 94, 25, 23796, -18367, 5307, 5472, 12, 14, 1527018066.507, 94, 0, 1024, 1024, 1024, 1024, 0, 6, 3963, 3969, 3954, 3974, 3985, 3964, 0, 1, 20102, -89.900, 0.000, -30.400, 0.000, 0.000, -2.900, 0.0, , , , , , 97, , , 31, 31, 31
38.8912996, -120.7648194, 43.400, 12:41:06.606, 21, 0.00, 0.17, 97, -1.500, -0.600, -31.100, 801, 100, 94, 25, 23796, -18367, 5307, 5472, 12, 14, 1527018066.606, 194, 0, 1024, 1024, 1024, 1024, 0, 6, 3963, 3969, 3954, 3974, 3985, 3964, 0, 1, 20201, -89.900, 0.000, -30.400, 0.000, 0.000, -2.900, 0.0, , , , , , 97, , , 31, 31, 31
38.8912997, -120.7648194, 44.000, 12:41:06.706, 21, 0.00, 0.16, 97, -1.500, -0.300, -31.100, 801, 100, 94, 25, 23763, -18648, 5307, 5472, 12, 14, 1527018066.707, 85, 0, 1024, 1024, 1024, 1024, 0, 6, 3963, 3969, 3954, 3974, 3985, 3964, 0, 1, 20302, -89.900, 0.000, -30.400, 0.000, 0.000, -3.000, 0.0, , , , , , 97, , , 31, 31, 31
38.8912997, -120.7648194, 44.300, 12:41:06.806, 21, 0.00, 0.16, 97, -1.400, -0.400, -31.100, 801, 100, 95, 25, 23763, -18648, 5307, 5472, 12, 14, 1527018066.807, 90, 0, 1024, 1024, 1024, 1024, 0, 6, 3963, 3969, 3954, 3974, 3985, 3964, 0, 1, 20402, -89.900, 0.000, -30.400, 0.000, 0.000, -2.900, 0.0, , , , , , 97, , , 31, 31, 31
38.8912997, -120.7648194, 44.900, 12:41:06.910, 21, 0.00, 0.16, 97, -1.600, -0.700, -31.100, 801, 100, 95, 25, 23763, -18648, 5307, 5472, 12, 14, 1527018066.910, 7, 0, 1024, 1024, 1024, 1024, 0, 6, 3963, 3969, 3954, 3974, 3985, 3964, 0, 1, 20505, -89.900, 0.000, -30.400, 0.000, 0.000, -3.000, 0.0, , , , , , 97, , , 31, 31, 31
38.8912997, -120.7648194, 44.900, 12:41:07.005, 21, 0.00, 0.16, 97, -1.600, -0.700, -31.100, 801, 100, 95, 25, 23763, -18648, 5307, 5472, 12, 14, 1527018067.006, 103, 0, 1024, 1024, 1024, 1024, 0, 6, 3963, 3969, 3954, 3974, 3985, 3964, 0, 1, 20601, -90.000, 0.000, -30.400, 0.000, 0.000, -3.000, 0.0, , , , , , 97, , , 31, 31, 31
38.8912997, -120.7648194, 45.200, 12:41:07.106, 21, 0.00, 0.16, 97, -1.700, -0.900, -31.100, 801, 100, 95, 25, 23763, -18648, 5307, 5472, 12, 14, 1527018067.107, 93, 0, 1024, 1024, 1024, 1024, 0, 6, 3963, 3969, 3954, 3974, 3985, 3964, 0, 1, 20702, -89.900, 0.000, -30.400, 0.000, 0.000, -2.900, 0.0, , , , , , 97, , , 31, 31, 31
