latitude,longitude,altitude(feet),ascent(feet),speed(mph),distance(feet),time(millisecond),datetime(utc),satellites,gpslevel,voltage(v),max_altitude(feet),max_ascent(feet),max_speed(mph),max_distance(feet), xSpeed(mph), ySpeed(mph), zSpeed(mph), compass_heading(degrees), pitch(degrees), roll(degrees),isPhoto,isVideo,rc_elevator,rc_aileron,rc_throttle,rc_rudder,gimbal_heading(degrees),gimbal_pitch(degrees),battery_percent,voltageCell1,voltageCell2,voltageCell3,voltageCell4,voltageCell5,voltageCell6,current(A),battery_temperature(f),flycStateRaw,flycState,message
38.8912838,-120.7648188,3085.8961476332,0,0,0,3510,2018-05-22 18:53:11,15,0,0,3085.8961476332,0,0,0,0,0,0,327.9, 0.1, 0.2,1,0,1024,1024,1024,1024,327.2,-89.9,96,4.234,4.274,4.162,4.283,4.206,4.192,0,78.8,11,AutoTakeoff,
38.8912838,-120.7648187,3086.2242316332,0.328084,0,0.028397638704,3600,2018-05-22 18:53:11,15,0,0,3086.2242316332,0.328084,0,0.028397638704,0,0,0,327.8, 0, 0,0,0,1024,1024,1024,1024,327.2,-89.9,96,4.234,4.274,4.162,4.283,4.206,4.192,0,78.8,11,AutoTakeoff,
38.8912838,-120.7648186,3086.2242316332,0.328084,0,0.056795277408,3800,2018-05-22 18:53:11,12,0,0,3086.2242316332,0.328084,0,0.056795277408,0,0,0,327.8, 0, 0,0,0,1024,1024,1024,1024,327.2,-89.9,96,4.234,4.274,4.162,4.283,4.206,4.192,0,78.8,11,AutoTakeoff,
38.8912838,-120.7648183,3086.5523156332,0.656168,0,0.14198819352,3900,2018-05-22 18:53:11,13,0,0,3086.5523156332,0.656168,0,0.14198819352,0,0,0,327.6, -0.1, -0.1,0,0,1024,1024,1024,1024,327.2,-89.9,96,4.234,4.274,4.162,4.283,4.206,4.192,0,78.8,11,AutoTakeoff,
38.8912839,-120.7648181,3086.8803996332,0.984252,0,0.202104009092,4000,2018-05-22 18:53:11,13,0,25.381,3086.8803996332,0.984252,0,0.202104009092,0,0,0,327.6, -0.1, -0.4,0,0,1024,1024,1024,1024,327.2,-90,96,4.234,4.274,4.162,4.283,4.206,4.192,2.487,78.8,11,AutoTakeoff,
38.8912839,-120.7648179,3086.8803996332,0.984252,0,0.258169955768,4200,2018-05-22 18:53:11,13,0,25.381,3086.8803996332,0.984252,0,0.258169955768,0,0,0,327.5, -0.2, -0.9,0,0,1024,1024,1024,1024,327.2,-89.9,96,4.234,4.274,4.162,4.283,4.206,4.192,2.487,78.8,11,AutoTakeoff,
38.891284,-120.7648178,3086.8803996332,0.984252,0,0.293201781036,4300,2018-05-22 18:53:11,13,0,25.381,3086.8803996332,0.984252,0,0.293201781036,0,0,0,327.5, -0.2, -1.2,0,0,1024,1024,1024,1024,327.2,-89.9,96,4.234,4.274,4.162,4.283,4.206,4.192,2.487,78.8,11,AutoTakeoff,
38.8912841,-120.7648177,3087.2084836332,1.312336,0,0.33099410508,4400,2018-05-22 18:53:12,12,0,25.381,3087.2084836332,1.312336,0,0.33099410508,0,0,0,327.5, -0.1, -1.4,0,0,1024,1024,1024,1024,327.2,-89.9,96,4.234,4.274,4.162,4.283,4.206,4.192,2.487,78.8,11,AutoTakeoff,
38.8912841,-120.7648176,3087.2084836332,1.312336,0,0.35791995896,4500,2018-05-22 18:53:12,12,0,25.381,3087.2084836332,1.312336,0,0.35791995896,0,0,0,327.6, 0, -1.3,0,0,1024,1024,1024,1024,327.2,-89.9,96,4.234,4.274,4.162,4.283,4.206,4.192,2.487,78.8,11,AutoTakeoff,
38.8912841,-120.7648177,3087.5365676332,1.64042,0,0.33099410508,4700,2018-05-22 18:53:12,12,0,25.381,3087.5365676332,1.64042,0,0.35791995896,0,0,-0.223694,327.7, 0, -1,0,0,1024,1024,1024,1024,327.2,-89.9,96,4.234,4.274,4.162,4.283,4.206,4.192,2.487,78.8,11,AutoTakeoff,
38.8912841,-120.7648177,3087.8646516332,1.968504,0,0.33099410508,4800,2018-05-22 18:53:12,13,0,25.381,3087.8646516332,1.968504,0,0.35791995896,0,0,-0.223694,327.8, 0.1, -0.6,0,0,1024,1024,1024,1024,327.2,-89.9,96,4.234,4.274,4.162,4.283,4.206,4.192,2.487,78.8,11,AutoTakeoff,
38.8912842,-120.7648178,3088.1927356332,2.296588,0,0.319282162448,5000,2018-05-22 18:53:12,14,0,24.506,3088.1927356332,2.296588,0,0.35791995896,0,0,-0.223694,327.8, 0.2, -0.5,0,0,1024,1024,1024,1024,327.2,-89.9,96,4.04,4.084,4.076,4.071,4.083,4.081,13.793,78.8,11,AutoTakeoff,
38.8912842,-120.7648178,3088.5208196332,2.624672,0,0.319282162448,5100,2018-05-22 18:53:12,14,0,24.506,3088.5208196332,2.624672,0,0.35791995896,0,0,-0.223694,327.7, 0.2, -0.4,0,0,1024,1024,1024,1024,327.2,-89.9,96,4.04,4.084,4.076,4.071,4.083,4.081,13.793,78.8,11,AutoTakeoff,
38.8912843,-120.7648179,3088.8489036332,2.952756,0,0.314005259392,5200,2018-05-22 18:53:12,13,0,24.506,3088.8489036332,2.952756,0,0.35791995896,0,0,-0.223694,327.7, 0.4, -0.2,0,0,1024,1024,1024,1024,327.2,-89.9,96,4.04,4.084,4.076,4.071,4.083,4.081,13.793,78.8,6,P-GPS,
38.8912844,-120.764818,3089.1769876332,3.28084,0,0.315487870988,5300,2018-05-22 18:53:12,15,0,24.506,3089.1769876332,3.28084,0,0.35791995896,0,0,0,327.7, 0.6, 0.1,0,0,1024,1024,1024,1024,327.2,-89.9,96,4.04,4.084,4.076,4.071,4.083,4.081,13.793,78.8,14,Waypoint,
38.8912845,-120.7648179,3089.1769876332,3.28084,0,0.36131234752,5600,2018-05-22 18:53:13,15,0,24.506,3089.1769876332,3.28084,0,0.36131234752,0,0,0,327.7, 0.8, 0.7,0,0,1024,1024,1024,1024,327.2,-89.9,96,4.04,4.084,4.076,4.071,4.083,4.081,13.793,78.8,14,Waypoint,
38.8912845,-120.7648179,3089.5050716332,3.608924,0,0.36131234752,5700,2018-05-22 18:53:13,14,0,24.506,3089.5050716332,3.608924,0,0.36131234752,0,0,0,327.7, 0.9, 0.4,0,0,1024,1024,1024,1024,327.2,-89.9,96,4.04,4.084,4.076,4.071,4.083,4.081,13.793,78.8,14,Waypoint,
38.8912846,-120.7648177,3089.8331556332,3.937008,0,0.42751641788,6030,2018-05-22 18:53:13,13,0,24.506,3089.8331556332,3.937008,0,0.42751641788,0,0,-0.223694,327.7, 0.4, -0.3,0,0,1024,1024,1024,1024,327.2,-89.9,96,4.04,4.084,4.076,4.071,4.083,4.081,13.793,78.8,14,Waypoint,
38.8912846,-120.7648177,3090.1612396332,4.265092,0,0.42751641788,6110,2018-05-22 18:53:13,13,0,24.506,3090.1612396332,4.265092,0,0.42751641788,0,0,-0.223694,327.6, 0.3, -0.5,0,0,1024,1024,1024,1024,327.2,-89.9,96,4.04,4.084,4.076,4.071,4.083,4.081,13.793,78.8,14,Waypoint,
38.8912846,-120.7648177,3090.8174076332,4.92126,0,0.42751641788,6300,2018-05-22 18:53:13,13,0,24.506,3090.8174076332,4.92126,0,0.42751641788,0,0,-0.223694,327.5, 0.1, -0.4,0,0,1024,1024,1024,1024,327.2,-89.9,96,4.04,4.084,4.076,4.071,4.083,4.081,13.793,78.8,14,Waypoint,
38.8912845,-120.7648178,3091.1454916332,5.249344,0,0.38192914608,6400,2018-05-22 18:53:14,12,0,24.506,3091.1454916332,5.249344,0,0.42751641788,0,0,-0.223694,327.4, 0.1, -0.2,0,0,1024,1024,1024,1024,327.2,-89.9,96,4.04,4.084,4.076,4.071,4.083,4.081,13.793,78.8,14,Waypoint,
38.8912844,-120.7648178,3092.1297436332,6.233596,0,0.35855972276,6600,2018-05-22 18:53:14,13,0,24.506,3092.1297436332,6.233596,0,0.42751641788,0,0,-0.447388,327.4, 0, 0.1,0,0,1024,1024,1024,1024,327.2,-90,96,4.04,4.084,4.076,4.071,4.083,4.081,13.793,78.8,14,Waypoint,
38.8912843,-120.7648179,3093.7701636332,7.874016,0,0.314005259392,6700,2018-05-22 18:53:14,14,0,24.506,3093.7701636332,7.874016,0,0.42751641788,0,0,-0.447388,327.7, 0.1, 0.5,0,0,1024,1024,1024,1024,327.2,-89.9,96,4.04,4.084,4.076,4.071,4.083,4.081,13.793,78.8,14,Waypoint,
38.8912842,-120.764818,3094.4263316332,8.530184,0,0.27001805326,6810,2018-05-22 18:53:14,14,0,24.506,3094.4263316332,8.530184,0,0.42751641788,0,0,-0.671082,327.8, 0.2, 0.7,0,0,1024,1024,1024,1024,327.2,-89.9,96,4.04,4.084,4.076,4.071,4.083,4.081,13.793,78.8,14,Waypoint,
38.8912839,-120.764818,3097.7071716332,11.811024,0,0.230092198964,7200,2018-05-22 18:53:14,14,0,24.506,3097.7071716332,11.811024,0,0.42751641788,0,0,-0.671082,328, -0.2, 0.9,0,0,1024,1024,1024,1024,327.2,-89.9,96,4.04,4.084,4.076,4.071,4.083,4.081,13.793,78.8,14,Waypoint,
38.8912838,-120.7648179,3098.6914236332,12.795276,0,0.255578748336,7300,2018-05-22 18:53:14,14,0,24.506,3098.6914236332,12.795276,0,0.42751641788,0,0,-0.671082,328.1, -0.4, 0.8,0,0,1024,1024,1024,1024,327.2,-90,96,4.04,4.084,4.076,4.071,4.083,4.081,13.793,78.8,14,Waypoint,
38.8912837,-120.7648177,3101.9722636332,16.076116,0,0.314497385392,7500,2018-05-22 18:53:15,14,0,24.506,3101.9722636332,16.076116,0,0.42751641788,0,0,-0.671082,327.9, -0.8, 0.1,0,0,1024,1024,1024,1024,327.2,-89.9,96,4.04,4.084,4.076,4.071,4.083,4.081,13.793,78.8,14,Waypoint,
38.8912837,-120.7648178,3103.2845996332,17.388452,0,0.2863107047,7600,2018-05-22 18:53:15,14,0,24.506,3103.2845996332,17.388452,0,0.42751641788,0,0,-0.671082,327.8, -0.7, 0.2,0,0,1024,1024,1024,1024,327.2,-89.9,96,4.04,4.084,4.076,4.071,4.083,4.081,13.793,78.8,14,Waypoint,
38.8912837,-120.7648177,3104.2688516332,18.372704,0,0.314497385392,7700,2018-05-22 18:53:15,15,0,24.506,3104.2688516332,18.372704,0,0.42751641788,0,0,-0.671082,327.8, -0.4, 0.5,0,0,1024,1024,1024,1024,327.2,-89.9,96,4.04,4.084,4.076,4.071,4.083,4.081,13.793,78.8,14,Waypoint,
38.891284,-120.7648175,3106.5654396332,20.669292,0,0.376312348,7800,2018-05-22 18:53:15,15,0,24.506,3106.5654396332,20.669292,0,0.42751641788,0,0,-0.671082,327.7, 0, 0.1,0,0,1024,1024,1024,1024,327.2,-89.9,96,4.04,4.084,4.076,4.071,4.083,4.081,13.793,78.8,14,Waypoint,
38.8912841,-120.7648175,3107.5496916332,21.653544,0,0.38505250576,7900,2018-05-22 18:53:15,15,0,24.506,3107.5496916332,21.653544,0,0.42751641788,0,0,-0.671082,327.7, 0.1, -0.1,0,0,1024,1024,1024,1024,327.2,-89.9,96,4.04,4.084,4.076,4.071,4.083,4.081,13.793,78.8,14,Waypoint,
38.8912843,-120.7648176,3109.5181956332,23.622048,0,0.38652888376,8010,2018-05-22 18:53:15,15,0,23.655,3109.5181956332,23.622048,0,0.42751641788,0,0,-0.671082,327.7, 0.7, -0.3,0,0,1024,1024,1024,1024,327.2,-89.9,96,3.97,4.005,4.022,4.008,4.033,4.02,23.036,78.8,14,Waypoint,
38.8912844,-120.7648177,3110.8305316332,24.934384,0,0.38144358176,8100,2018-05-22 18:53:15,14,0,23.655,3110.8305316332,24.934384,0,0.42751641788,0,0,-0.671082,327.7, 1, -0.2,0,0,1024,1024,1024,1024,327.2,-89.9,96,3.97,4.005,4.022,4.008,4.033,4.02,23.036,78.8,14,Waypoint,
38.8912845,-120.7648176,3111.8147836332,25.918636,0,0.425853032,8200,2018-05-22 18:53:15,14,0,23.655,3111.8147836332,25.918636,0,0.42751641788,0,0,-0.671082,327.7, 1.1, -0.1,0,0,1024,1024,1024,1024,327.2,-89.9,96,3.97,4.005,4.022,4.008,4.033,4.02,23.036,78.8,14,Waypoint,
38.8912847,-120.7648177,3114.7675396332,28.871392,0,0.45321195676,8300,2018-05-22 18:53:15,14,0,23.655,3114.7675396332,28.871392,0,0.45321195676,0,0,-0.671082,327.8, 0.7, 0,0,0,1024,1024,1024,1024,327.2,-89.9,96,3.97,4.005,4.022,4.008,4.033,4.02,23.036,78.8,14,Waypoint,
38.8912848,-120.7648177,3115.7517916332,29.855644,0,0.48030513348,8400,2018-05-22 18:53:16,14,0,23.655,3115.7517916332,29.855644,0,0.48030513348,0,0,-0.671082,327.8, 0.7, 0.1,0,0,1024,1024,1024,1024,327.2,-89.9,96,3.97,4.005,4.022,4.008,4.033,4.02,23.036,78.8,14,Waypoint,
38.8912849,-120.7648177,3117.0641276332,31.16798,0,0.50857285092,8500,2018-05-22 18:53:16,14,0,23.655,3117.0641276332,31.16798,0,0.50857285092,0,0,-0.671082,327.7, 0.7, 0,0,0,1024,1024,1024,1024,327.2,-89.9,96,3.97,4.005,4.022,4.008,4.033,4.02,23.036,78.8,14,Waypoint,
38.8912849,-120.7648176,3118.0483796332,32.152232,0,0.526492799,8600,2018-05-22 18:53:16,14,0,23.655,3118.0483796332,32.152232,0,0.526492799,0,0,-0.671082,327.7, 0.6, 0,0,0,1024,1024,1024,1024,327.2,-89.9,96,3.97,4.005,4.022,4.008,4.033,4.02,23.036,78.8,14,Waypoint,
38.891285,-120.7648177,3119.0326316332,33.136484,0,0.53783138204,8800,2018-05-22 18:53:16,15,0,23.655,3119.0326316332,33.136484,0,0.53783138204,0,0,-0.671082,327.8, 0.6, -0.1,0,0,1024,1024,1024,1024,327.2,-89.9,96,3.97,4.005,4.022,4.008,4.033,4.02,23.036,78.8,14,Waypoint,
38.891285,-120.7648178,3120.0168836332,34.120736,0,0.5218504104,8900,2018-05-22 18:53:16,15,0,23.655,3120.0168836332,34.120736,0,0.53783138204,0,0,-0.671082,327.8, 0.6, -0.1,0,0,1024,1024,1024,1024,327.2,-89.9,96,3.97,4.005,4.022,4.008,4.033,4.02,23.036,78.8,14,Waypoint,
38.8912851,-120.7648178,3121.0011356332,35.104988,0,0.55281825916,9000,2018-05-22 18:53:16,15,0,23.857,3121.0011356332,35.104988,0,0.55281825916,0,0,-0.671082,327.8, 0.7, 0,0,0,1024,1024,1024,1024,327.2,-89.9,96,3.951,3.984,3.982,3.975,3.979,4.006,18.447,78.8,14,Waypoint,
38.8912851,-120.7648179,3121.9853876332,36.08924,0,0.5387795448,9100,2018-05-22 18:53:16,15,0,23.857,3121.9853876332,36.08924,0,0.55281825916,0,0,-0.671082,327.7, 0.8, 0.2,0,0,1024,1024,1024,1024,327.2,-89.9,96,3.951,3.984,3.982,3.975,3.979,4.006,18.447,78.8,14,Waypoint,
38.8912851,-120.764818,3122.9696396332,37.073492,0,0.52590552864,9300,2018-05-22 18:53:16,16,0,23.857,3122.9696396332,37.073492,0,0.55281825916,0,0,-0.671082,327.8, 0.8, 0.3,0,0,1024,1024,1024,1024,327.2,-89.9,96,3.951,3.984,3.982,3.975,3.979,4.006,18.447,78.8,14,Waypoint,
38.8912852,-120.7648181,3123.9538916332,38.057744,0,0.54810697292,9400,2018-05-22 18:53:17,16,0,23.857,3123.9538916332,38.057744,0,0.55281825916,0,0,-0.671082,327.7, 0.9, 0.4,0,0,1024,1024,1024,1024,327.2,-89.9,96,3.951,3.984,3.982,3.975,3.979,4.006,18.447,78.8,14,Waypoint,
38.8912852,-120.7648181,3124.9381436332,39.041996,0,0.54810697292,9600,2018-05-22 18:53:17,15,0,23.857,3124.9381436332,39.041996,0,0.55281825916,0,0,-0.671082,327.7, 1.1, 0.5,0,0,1024,1024,1024,1024,327.2,-89.9,96,3.951,3.984,3.982,3.975,3.979,4.006,18.447,78.8,14,Waypoint,
38.8912852,-120.7648181,3125.9223956332,40.026248,0,0.54810697292,9710,2018-05-22 18:53:17,15,0,23.857,3125.9223956332,40.026248,0,0.55281825916,0,0,-0.671082,327.7, 1, 0.5,0,0,1024,1024,1024,1024,327.2,-89.9,96,3.951,3.984,3.982,3.975,3.979,4.006,18.447,78.8,14,Waypoint,
38.8912853,-120.7648181,3127.2347316332,41.338584,0,0.58225723648,9900,2018-05-22 18:53:17,15,0,23.857,3127.2347316332,41.338584,0,0.58225723648,0,0,-0.671082,327.7, 0.8, 0.5,0,0,1024,1024,1024,1024,327.2,-89.9,96,3.951,3.984,3.982,3.975,3.979,4.006,18.447,78.8,14,Waypoint,
38.8912853,-120.7648181,3128.2189836332,42.322836,0,0.58225723648,10100,2018-05-22 18:53:17,15,0,23.857,3128.2189836332,42.322836,0,0.58225723648,0,0,-0.671082,327.7, 0.8, 0.3,0,0,1024,1024,1024,1024,327.2,-89.9,96,3.951,3.984,3.982,3.975,3.979,4.006,18.447,78.8,14,Waypoint,
38.8912854,-120.7648181,3129.2032356332,43.307088,0,0.61667652892,10300,2018-05-22 18:53:17,15,0,23.857,3129.2032356332,43.307088,0,0.61667652892,0,0,-0.671082,327.7, 0.8, 0.1,0,0,1024,1024,1024,1024,327.2,-89.9,96,3.951,3.984,3.982,3.975,3.979,4.006,18.447,78.8,14,Waypoint,
38.8912853,-120.7648181,3130.1874876332,44.29134,0,0.58225723648,10400,2018-05-22 18:53:18,15,0,23.857,3130.1874876332,44.29134,0,0.61667652892,0,0,-0.671082,327.7, 0.8, 0,0,0,1024,1024,1024,1024,327.2,-89.9,96,3.951,3.984,3.982,3.975,3.979,4.006,18.447,78.8,14,Waypoint,
38.8912852,-120.7648182,3136.0929996332,50.196852,0,0.53845802248,10700,2018-05-22 18:53:18,16,0,23.857,3136.0929996332,50.196852,0,0.61667652892,0,0,-0.671082,327.6, 0.5, 0.5,0,0,1024,1024,1024,1024,327.2,-89.9,96,3.951,3.984,3.982,3.975,3.979,4.006,18.447,78.8,14,Waypoint,
38.8912851,-120.7648182,3138.0615036332,52.165356,0,0.50397967492,10910,2018-05-22 18:53:18,15,0,23.857,3138.0615036332,52.165356,0,0.61667652892,0,0,-0.671082,327.5, 0.3, 0.5,0,0,1024,1024,1024,1024,327.2,-89.9,96,3.951,3.984,3.982,3.975,3.979,4.006,18.447,78.8,14,Waypoint,
38.891285,-120.7648182,3140.0300076332,54.13386,0,0.46980644548,11100,2018-05-22 18:53:18,15,0,23.857,3140.0300076332,54.13386,0,0.61667652892,0,0,-0.671082,327.5, 0.1, 0.5,0,0,1024,1024,1024,1024,327.2,-89.9,96,3.951,3.984,3.982,3.975,3.979,4.006,18.447,78.8,14,Waypoint,
38.8912849,-120.7648181,3141.9985116332,56.102364,0,0.4478674684,11300,2018-05-22 18:53:18,17,0,23.857,3141.9985116332,56.102364,0,0.61667652892,0,0,-0.671082,327.6, 0.1, 0.5,0,0,1024,1024,1024,1024,327.2,-89.9,96,3.951,3.984,3.982,3.975,3.979,4.006,18.447,78.8,14,Waypoint,
38.8912848,-120.7648181,3142.9827636332,57.086616,0,0.41548885844,11400,2018-05-22 18:53:19,16,0,23.857,3142.9827636332,57.086616,0,0.61667652892,0,0,-0.671082,327.7, 0, 0.4,0,0,1024,1024,1024,1024,327.2,-89.9,96,3.951,3.984,3.982,3.975,3.979,4.006,18.447,78.8,14,Waypoint,
38.8912848,-120.7648181,3143.9670156332,58.070868,0,0.41548885844,11500,2018-05-22 18:53:19,16,0,23.857,3143.9670156332,58.070868,0,0.61667652892,0,0,-0.671082,327.7, 0, 0.3,0,0,1024,1024,1024,1024,327.2,-90,96,3.951,3.984,3.982,3.975,3.979,4.006,18.447,78.8,14,Waypoint,
38.8912847,-120.764818,3145.6074356332,59.711288,0,0.39929135136,11600,2018-05-22 18:53:19,16,0,23.857,3145.6074356332,59.711288,0,0.61667652892,0,0,-0.671082,327.8, 0, 0.2,0,0,1024,1024,1024,1024,327.2,-89.9,96,3.951,3.984,3.982,3.975,3.979,4.006,18.447,78.8,14,Waypoint,
38.8912847,-120.764818,3146.5916876332,60.69554,0,0.39929135136,11710,2018-05-22 18:53:19,16,0,23.857,3146.5916876332,60.69554,0,0.61667652892,0,0,-0.671082,327.8, 0.1, 0.2,0,0,1024,1024,1024,1024,327.2,-89.9,96,3.951,3.984,3.982,3.975,3.979,4.006,18.447,78.8,14,Waypoint,
38.8912846,-120.7648179,3147.5759396332,61.679792,0,0.38796261084,11800,2018-05-22 18:53:19,16,0,23.857,3147.5759396332,61.679792,0,0.61667652892,0,0,-0.671082,327.7, 0.2, 0.2,0,0,1024,1024,1024,1024,327.2,-89.9,96,3.951,3.984,3.982,3.975,3.979,4.006,18.447,78.8,14,Waypoint,
38.8912846,-120.7648179,3148.5601916332,62.664044,0,0.38796261084,12000,2018-05-22 18:53:19,16,0,23.882,3148.5601916332,62.664044,0,0.61667652892,0,0,-0.671082,327.8, 0.2, 0.2,0,0,1024,1024,1024,1024,327.2,-89.9,96,3.951,3.982,3.985,3.977,3.978,4.007,17.983,78.8,14,Waypoint,
38.8912846,-120.7648179,3149.5444436332,63.648296,0,0.38796261084,12100,2018-05-22 18:53:19,16,0,23.882,3149.5444436332,63.648296,0,0.61667652892,0,0,-0.671082,327.8, 0.1, 0.2,0,0,1024,1024,1024,1024,327.2,-89.9,96,3.951,3.982,3.985,3.977,3.978,4.007,17.983,78.8,14,Waypoint,
38.8912845,-120.7648178,3150.5286956332,64.632548,0,0.38192914608,12200,2018-05-22 18:53:19,16,0,23.882,3150.5286956332,64.632548,0,0.61667652892,0,0,-0.671082,327.9, 0.1, 0.1,0,0,1024,1024,1024,1024,327.2,-89.9,96,3.951,3.982,3.985,3.977,3.978,4.007,17.983,78.8,14,Waypoint,
38.8912845,-120.7648179,3151.5129476332,65.6168,0,0.36131234752,12300,2018-05-22 18:53:19,16,0,23.882,3151.5129476332,65.6168,0,0.61667652892,0,0,-0.671082,328, 0.1, 0.2,0,0,1024,1024,1024,1024,327.2,-89.9,96,3.951,3.982,3.985,3.977,3.978,4.007,17.983,78.8,14,Waypoint,
38.8912844,-120.7648178,3152.4971996332,66.601052,0,0.35855972276,12400,2018-05-22 18:53:20,16,0,23.882,3152.4971996332,66.601052,0,0.61667652892,0,0,-0.671082,328, 0, 0.3,0,0,1024,1024,1024,1024,327.2,-89.9,96,3.951,3.982,3.985,3.977,3.978,4.007,17.983,78.8,14,Waypoint,
38.8912843,-120.7648178,3153.4814516332,67.585304,0,0.33752297668,12500,2018-05-22 18:53:20,16,0,23.882,3153.4814516332,67.585304,0,0.61667652892,0,0,-0.671082,328, 0, 0.3,0,0,1024,1024,1024,1024,327.2,-90,96,3.951,3.982,3.985,3.977,3.978,4.007,17.983,78.8,14,Waypoint,
38.8912842,-120.7648177,3155.4499556332,69.553808,0,0.3447834756,12600,2018-05-22 18:53:20,16,0,23.882,3155.4499556332,69.553808,0,0.61667652892,0,0,-0.671082,327.9, -0.6, 0.4,0,0,1024,1024,1024,1024,327.2,-90,96,3.951,3.982,3.985,3.977,3.978,4.007,17.983,78.8,14,Waypoint,
38.8912842,-120.7648176,3156.7622916332,70.866144,0,0.37070867328,12700,2018-05-22 18:53:20,16,0,23.882,3156.7622916332,70.866144,0,0.61667652892,0,0,-0.671082,327.9, -0.5, 0.1,0,0,1024,1024,1024,1024,327.2,-89.9,96,3.951,3.982,3.985,3.977,3.978,4.007,17.983,78.8,14,Waypoint,
38.8912842,-120.7648175,3157.7465436332,71.850396,0,0.39696851664,12800,2018-05-22 18:53:20,16,0,23.882,3157.7465436332,71.850396,0,0.61667652892,0,0,-0.671082,327.9, -0.4, 0,0,0,1024,1024,1024,1024,327.2,-89.9,96,3.951,3.982,3.985,3.977,3.978,4.007,17.983,78.8,14,Waypoint,
38.8912842,-120.7648174,3158.7307956332,72.834648,0,0.4235072314,12900,2018-05-22 18:53:20,17,0,23.882,3158.7307956332,72.834648,0,0.61667652892,0,0,-0.671082,327.9, -0.4, -0.1,0,0,1024,1024,1024,1024,327.2,-90,96,3.951,3.982,3.985,3.977,3.978,4.007,17.983,78.8,14,Waypoint,
38.8912842,-120.7648173,3159.7150476332,73.8189,0,0.45027232412,13100,2018-05-22 18:53:20,17,0,23.882,3159.7150476332,73.8189,0,0.61667652892,0,0,-0.671082,327.8, -0.4, -0.2,0,0,1024,1024,1024,1024,327.2,-89.9,96,3.951,3.982,3.985,3.977,3.978,4.007,17.983,78.8,14,Waypoint,
38.8912842,-120.7648171,3161.6835516332,75.787404,0,0.50433728648,13300,2018-05-22 18:53:20,17,0,23.882,3161.6835516332,75.787404,0,0.61667652892,0,0,-0.671082,327.4, 0, -0.5,0,0,1024,1024,1024,1024,327.2,-89.9,96,3.951,3.982,3.985,3.977,3.978,4.007,17.983,78.8,14,Waypoint,
38.8912842,-120.7648171,3162.6678036332,76.771656,0,0.50433728648,13500,2018-05-22 18:53:21,17,0,23.882,3162.6678036332,76.771656,0,0.61667652892,0,0,-0.671082,327.3, 0.1, -0.5,0,0,1024,1024,1024,1024,327.2,-89.9,96,3.951,3.982,3.985,3.977,3.978,4.007,17.983,78.8,14,Waypoint,
38.8912842,-120.764817,3163.6520556332,77.755908,0,0.53158138184,13600,2018-05-22 18:53:21,17,0,23.882,3163.6520556332,77.755908,0,0.61667652892,0,0,-0.671082,327.3, 0.3, -0.5,0,0,1024,1024,1024,1024,327.2,-89.9,96,3.951,3.982,3.985,3.977,3.978,4.007,17.983,78.8,14,Waypoint,
38.8912843,-120.764817,3165.6205596332,79.724412,0,0.542732957,13710,2018-05-22 18:53:21,17,0,23.882,3165.6205596332,79.724412,0,0.61667652892,0,0,-0.671082,327.3, 0.6, -0.5,0,0,1024,1024,1024,1024,327.2,-89.9,96,3.951,3.982,3.985,3.977,3.978,4.007,17.983,78.8,14,Waypoint,
38.8912843,-120.7648169,3166.2767276332,80.38058,0,0.56956038568,13900,2018-05-22 18:53:21,16,0,23.882,3166.2767276332,80.38058,0,0.61667652892,0,0,-0.671082,327.4, 0.6, -0.4,0,0,1024,1024,1024,1024,327.2,-89.9,96,3.951,3.982,3.985,3.977,3.978,4.007,17.983,78.8,14,Waypoint,
38.8912844,-120.7648168,3168.5733156332,82.677168,0,0.60868112184,14110,2018-05-22 18:53:21,16,0,23.882,3168.5733156332,82.677168,0,0.61667652892,0,0,-0.671082,327.7, 0.6, -0.4,0,0,1024,1024,1024,1024,327.2,-89.9,96,3.951,3.982,3.985,3.977,3.978,4.007,17.983,78.8,14,Waypoint,
38.8912844,-120.7648167,3169.5575676332,83.66142,0,0.63525920668,14210,2018-05-22 18:53:21,16,0,23.882,3169.5575676332,83.66142,0,0.63525920668,0,0,-0.671082,327.7, 0.5, -0.6,0,0,1024,1024,1024,1024,327.2,-89.9,96,3.951,3.982,3.985,3.977,3.978,4.007,17.983,78.8,14,Waypoint,
38.8912844,-120.7648166,3171.5260716332,85.629924,0,0.661991491,14400,2018-05-22 18:53:22,16,0,23.882,3171.5260716332,85.629924,0,0.661991491,0,0,-0.671082,327.7, 0.7, -0.9,0,0,1024,1024,1024,1024,327.2,-89.9,96,3.951,3.982,3.985,3.977,3.978,4.007,17.983,78.8,14,Waypoint,
38.8912845,-120.7648166,3172.1822396332,86.286092,0,0.6749344048,14500,2018-05-22 18:53:22,16,0,23.882,3172.1822396332,86.286092,0,0.6749344048,0,0,-0.671082,327.7, 0.9, -0.8,0,0,1024,1024,1024,1024,327.2,-89.9,96,3.951,3.982,3.985,3.977,3.978,4.007,17.983,78.8,14,Waypoint,
38.8912845,-120.7648165,3173.1664916332,87.270344,0,0.70130251588,14700,2018-05-22 18:53:22,16,0,23.882,3173.1664916332,87.270344,0,0.70130251588,0,0,-0.671082,327.9, 0.8, -1.1,0,0,1024,1024,1024,1024,327.2,-89.9,96,3.951,3.982,3.985,3.977,3.978,4.007,17.983,78.8,14,Waypoint,
38.8912846,-120.7648163,3175.4630796332,89.566932,0,0.7676017306,14910,2018-05-22 18:53:22,16,0,23.882,3175.4630796332,89.566932,0,0.7676017306,0,0,-0.671082,328, 0.1, -1.7,0,0,1024,1024,1024,1024,327.2,-89.9,96,3.951,3.982,3.985,3.977,3.978,4.007,17.983,78.8,14,Waypoint,
38.8912846,-120.7648161,3176.4473316332,90.551184,0,0.82041341208,15010,2018-05-22 18:53:22,16,0,23.845,3176.4473316332,90.551184,0,0.82041341208,0,0,-0.671082,328, 0, -2.1,0,0,1024,1024,1024,1024,327.2,-90,96,3.94,3.976,3.981,3.969,3.977,3.997,17.352,80.6,14,Waypoint,
38.8912846,-120.764816,3177.4315836332,91.535436,0,0.8470144628,15100,2018-05-22 18:53:22,16,0,23.845,3177.4315836332,91.535436,0,0.8470144628,0,0,-0.671082,328.1, -0.3, -2.6,0,0,1024,1024,1024,1024,327.2,-90,96,3.94,3.976,3.981,3.969,3.977,3.997,17.352,80.6,14,Waypoint,
38.8912847,-120.7648157,3179.4000876332,93.50394,0,0.93957352088,15200,2018-05-22 18:53:22,17,0,23.845,3179.4000876332,93.50394,0,0.93957352088,0,0,-0.671082,327.8, -0.6, -2.4,0,0,1024,1024,1024,1024,327.2,-89.9,96,3.94,3.976,3.981,3.969,3.977,3.997,17.352,80.6,14,Waypoint,
38.891285,-120.7648151,3183.6651796332,97.769032,0,1.13828087632,15400,2018-05-22 18:53:23,17,0,23.845,3183.6651796332,97.769032,0,1.13828087632,0,0,-0.671082,327.2, 0.2, -4.2,0,0,1024,1024,1024,1024,327.2,-89.9,96,3.94,3.976,3.981,3.969,3.977,3.997,17.352,80.6,14,Waypoint,
38.8912852,-120.7648147,3185.6336836332,99.737536,0.223694,1.27142064436,15500,2018-05-22 18:53:23,17,0,23.845,3185.6336836332,99.737536,0.223694,1.27142064436,0,0,-0.671082,327.3, 0.3, -5.4,0,0,1024,1024,1024,1024,327.2,-89.9,96,3.94,3.976,3.981,3.969,3.977,3.997,17.352,80.6,14,Waypoint,
38.8912855,-120.7648143,3187.6021876332,101.70604,0,1.42046264388,15600,2018-05-22 18:53:23,17,0,23.845,3187.6021876332,101.70604,0.223694,1.42046264388,0,0,-0.671082,327.6, 0.1, -5.7,0,0,1024,1024,1024,1024,327.2,-89.9,96,3.94,3.976,3.981,3.969,3.977,3.997,17.352,80.6,14,Waypoint,
38.8912856,-120.7648139,3189.5706916332,103.674544,0,1.53867458992,15800,2018-05-22 18:53:23,17,0,23.845,3189.5706916332,103.674544,0.223694,1.53867458992,0,0,-0.671082,327.7, -0.2, -5.6,0,0,1024,1024,1024,1024,327.2,-90,96,3.94,3.976,3.981,3.969,3.977,3.997,17.352,80.6,14,Waypoint,
38.8912857,-120.7648137,3191.5391956332,105.643048,0,1.60563325348,16000,2018-05-22 18:53:23,17,0,23.832,3191.5391956332,105.643048,0.223694,1.60563325348,0,0,-0.671082,327.7, -0.3, -5.2,0,0,1024,1024,1024,1024,327.2,-89.9,95,3.935,3.983,3.963,3.971,3.968,3.988,17.727,80.6,14,Waypoint,
38.8912857,-120.7648137,3192.5234476332,106.6273,0,1.60563325348,16100,2018-05-22 18:53:23,17,0,23.832,3192.5234476332,106.6273,0.223694,1.60563325348,0,0,-0.671082,327.7, -0.1, -5,0,0,1024,1024,1024,1024,327.2,-89.9,95,3.935,3.983,3.963,3.971,3.968,3.988,17.727,80.6,14,Waypoint,
38.8912857,-120.7648137,3193.1796156332,107.283468,0,1.60563325348,16200,2018-05-22 18:53:23,17,0,23.832,3193.1796156332,107.283468,0.223694,1.60563325348,0,0,-0.671082,327.6, -0.1, -4.6,0,0,1024,1024,1024,1024,327.2,-89.9,95,3.935,3.983,3.963,3.971,3.968,3.988,17.727,80.6,14,Waypoint,
38.8912857,-120.7648137,3194.1638676332,108.26772,0,1.60563325348,16300,2018-05-22 18:53:23,17,0,23.832,3194.1638676332,108.26772,0.223694,1.60563325348,0,0,-0.671082,327.6, -0.4, -4.2,0,0,1024,1024,1024,1024,327.2,-89.9,95,3.935,3.983,3.963,3.971,3.968,3.988,17.727,80.6,14,Waypoint,
38.8912856,-120.7648138,3195.1481196332,109.251972,0.223694,1.5644029372,16400,2018-05-22 18:53:24,17,0,23.832,3195.1481196332,109.251972,0.223694,1.60563325348,0,0,-0.671082,327.6, -0.7, -3.6,0,0,1024,1024,1024,1024,327.2,-90,95,3.935,3.983,3.963,3.971,3.968,3.988,17.727,80.6,14,Waypoint,
38.8912855,-120.7648139,3195.8042876332,109.90814,0.223694,1.52346133484,16510,2018-05-22 18:53:24,17,0,23.832,3195.8042876332,109.90814,0.223694,1.60563325348,0,0,-0.671082,327.6, -0.7, -2.9,0,0,1024,1024,1024,1024,327.2,-90,95,3.935,3.983,3.963,3.971,3.968,3.988,17.727,80.6,14,Waypoint,
38.8912855,-120.7648139,3196.7885396332,110.892392,0.223694,1.52346133484,16620,2018-05-22 18:53:24,17,0,23.832,3196.7885396332,110.892392,0.223694,1.60563325348,0,0,-0.671082,327.6, -0.7, -2.6,0,0,1024,1024,1024,1024,327.2,-89.9,95,3.935,3.983,3.963,3.971,3.968,3.988,17.727,80.6,14,Waypoint,
38.8912854,-120.764814,3197.7727916332,111.876644,0.223694,1.48282813144,16700,2018-05-22 18:53:24,17,0,23.832,3197.7727916332,111.876644,0.223694,1.60563325348,0,0,-0.671082,327.5, -0.7, -2.4,0,0,1024,1024,1024,1024,327.2,-89.9,95,3.935,3.983,3.963,3.971,3.968,3.988,17.727,80.6,14,Waypoint,
38.8912854,-120.7648141,3198.7570436332,112.860896,0.223694,1.45676841932,16810,2018-05-22 18:53:24,17,0,23.832,3198.7570436332,112.860896,0.223694,1.60563325348,0,0,-0.671082,327.4, -0.6, -2.5,0,0,1024,1024,1024,1024,327.2,-89.9,95,3.935,3.983,3.963,3.971,3.968,3.988,17.727,80.6,14,Waypoint,
38.8912853,-120.7648142,3199.7412956332,113.845148,0.223694,1.41629925792,16900,2018-05-22 18:53:24,17,0,23.832,3199.7412956332,113.845148,0.223694,1.60563325348,0,0,-0.671082,327.4, -0.3, -2.7,0,0,1024,1024,1024,1024,327.2,-89.9,95,3.935,3.983,3.963,3.971,3.968,3.988,17.727,80.6,14,Waypoint,
38.8912852,-120.7648143,3201.3817156332,115.485568,0,1.3761975506,17100,2018-05-22 18:53:24,17,0,23.832,3201.3817156332,115.485568,0.223694,1.60563325348,0,0,-0.671082,327.8, -0.4, -3.4,0,0,1024,1024,1024,1024,327.2,-89.9,95,3.935,3.983,3.963,3.971,3.968,3.988,17.727,80.6,14,Waypoint,
38.8912852,-120.7648144,3202.3659676332,116.46982,0,1.3498688096,17300,2018-05-22 18:53:24,17,0,23.832,3202.3659676332,116.46982,0.223694,1.60563325348,0,0,-0.671082,327.9, -0.6, -3.5,0,0,1024,1024,1024,1024,327.2,-90,95,3.935,3.983,3.963,3.971,3.968,3.988,17.727,80.6,14,Waypoint,
38.8912851,-120.7648145,3203.3502196332,117.454072,0,1.30998035688,17400,2018-05-22 18:53:25,17,0,23.832,3203.3502196332,117.454072,0.223694,1.60563325348,0,0,-0.671082,328, -0.7, -3.4,0,0,1024,1024,1024,1024,327.2,-90,95,3.935,3.983,3.963,3.971,3.968,3.988,17.727,80.6,14,Waypoint,
38.8912849,-120.7648146,3205.3187236332,119.422576,0.223694,1.25841211376,17610,2018-05-22 18:53:25,17,0,23.832,3205.3187236332,119.422576,0.223694,1.60563325348,0,0,-0.671082,328.1, -0.8, -2.5,0,0,1024,1024,1024,1024,327.2,-89.9,95,3.935,3.983,3.963,3.971,3.968,3.988,17.727,80.6,14,Waypoint,
38.8912849,-120.7648147,3206.3029756332,120.406828,0.223694,1.23153219164,17720,2018-05-22 18:53:25,17,0,23.832,3206.3029756332,120.406828,0.223694,1.60563325348,0,0,-0.671082,328.1, -0.7, -2.3,0,0,1024,1024,1024,1024,327.2,-89.9,95,3.935,3.983,3.963,3.971,3.968,3.988,17.727,80.6,14,Waypoint,
38.8912849,-120.7648147,3206.3029756332,120.406828,0.223694,1.23153219164,17800,2018-05-22 18:53:25,17,0,23.832,3206.3029756332,120.406828,0.223694,1.60563325348,0,0,-0.671082,328.1, -0.7, -2.3,0,0,1024,1024,1024,1024,327.2,-89.9,95,3.935,3.983,3.963,3.971,3.968,3.988,17.727,80.6,14,Waypoint,
38.8912848,-120.7648149,3207.2872276332,121.39108,0.223694,1.16605646776,17900,2018-05-22 18:53:25,17,0,23.832,3207.2872276332,121.39108,0.223694,1.60563325348,0,0,-0.671082,328.1, -0.6, -2.1,0,0,1024,1024,1024,1024,327.2,-89.9,95,3.935,3.983,3.963,3.971,3.968,3.988,17.727,80.6,14,Waypoint,
38.8912848,-120.764815,3208.2714796332,122.375332,0.223694,1.13912077136,18000,2018-05-22 18:53:25,17,0,23.677,3208.2714796332,122.375332,0.223694,1.60563325348,0,0,-0.671082,328, -0.5, -2.4,0,0,1024,1024,1024,1024,327.2,-89.9,95,3.908,3.943,3.943,3.929,3.945,3.966,19.038,80.6,14,Waypoint,
38.8912848,-120.7648151,3209.2557316332,123.359584,0.223694,1.1122539726,18200,2018-05-22 18:53:25,17,0,23.677,3209.2557316332,123.359584,0.223694,1.60563325348,0,0,-0.671082,327.9, -0.3, -2.5,0,0,1024,1024,1024,1024,327.2,-89.9,95,3.908,3.943,3.943,3.929,3.945,3.966,19.038,80.6,14,Waypoint,
38.8912848,-120.7648152,3210.2399836332,124.343836,0.223694,1.08546919484,18300,2018-05-22 18:53:25,17,0,23.677,3210.2399836332,124.343836,0.223694,1.60563325348,0,0,-0.671082,327.8, -0.1, -2.5,0,0,1024,1024,1024,1024,327.2,-89.9,95,3.908,3.943,3.943,3.929,3.945,3.966,19.038,80.6,14,Waypoint,
38.8912847,-120.7648154,3212.2084876332,126.31234,0.223694,1.01982942896,18400,2018-05-22 18:53:26,17,0,23.677,3212.2084876332,126.31234,0.223694,1.60563325348,0,0,-0.671082,327.6, 0.1, -2.2,0,0,1024,1024,1024,1024,327.2,-89.9,95,3.908,3.943,3.943,3.929,3.945,3.966,19.038,80.6,14,Waypoint,
38.8912846,-120.7648157,3213.8489076332,127.95276,0.223694,0.92745409792,18500,2018-05-22 18:53:26,17,0,23.677,3213.8489076332,127.95276,0.223694,1.60563325348,0,0,-0.671082,327.7, 0.2, -1.6,0,0,1024,1024,1024,1024,327.2,-89.9,95,3.908,3.943,3.943,3.929,3.945,3.966,19.038,80.6,14,Waypoint,
38.8912846,-120.7648158,3214.8331596332,128.937012,0.223694,0.9005413674,18700,2018-05-22 18:53:26,17,0,23.677,3214.8331596332,128.937012,0.223694,1.60563325348,0,0,-0.671082,328, 0, -1.4,0,0,1024,1024,1024,1024,327.2,-89.9,95,3.908,3.943,3.943,3.929,3.945,3.966,19.038,80.6,14,Waypoint,
38.8912845,-120.764816,3215.8174116332,129.921264,0.223694,0.83514438368,18800,2018-05-22 18:53:26,17,0,23.677,3215.8174116332,129.921264,0.223694,1.60563325348,0,0,-0.671082,328, -0.2, -1.2,0,0,1024,1024,1024,1024,327.2,-89.9,95,3.908,3.943,3.943,3.929,3.945,3.966,19.038,80.6,14,Waypoint,
38.8912844,-120.7648161,3216.8016636332,130.905516,0,0.7973753536,18900,2018-05-22 18:53:26,17,0,23.677,3216.8016636332,130.905516,0.223694,1.60563325348,0,0,-0.671082,327.9, -0.4, -1.3,0,0,1024,1024,1024,1024,327.2,-89.9,95,3.908,3.943,3.943,3.929,3.945,3.966,19.038,80.6,14,Waypoint,
38.8912843,-120.7648162,3219.0982516332,133.202104,0,0.76054136292,19200,2018-05-22 18:53:26,17,0,23.677,3219.0982516332,133.202104,0.223694,1.60563325348,0,0,-0.671082,327.9, -0.6, -1.1,0,0,1024,1024,1024,1024,327.2,-90,95,3.908,3.943,3.943,3.929,3.945,3.966,19.038,80.6,14,Waypoint,
38.8912843,-120.7648162,3220.0825036332,134.186356,0,0.76054136292,19300,2018-05-22 18:53:26,17,0,23.677,3220.0825036332,134.186356,0.223694,1.60563325348,0,0,-0.671082,327.9, -0.9, -1.4,0,0,1024,1024,1024,1024,327.2,-90,95,3.908,3.943,3.943,3.929,3.945,3.966,19.038,80.6,14,Waypoint,
38.8912842,-120.7648162,3221.0667556332,135.170608,0,0.752624696,19400,2018-05-22 18:53:27,17,0,23.677,3221.0667556332,135.170608,0.223694,1.60563325348,0,0,-0.671082,327.9, -1.1, -1.7,0,0,1024,1024,1024,1024,327.2,-90,95,3.908,3.943,3.943,3.929,3.945,3.966,19.038,80.6,14,Waypoint,
38.8912842,-120.7648162,3222.0510076332,136.15486,0,0.752624696,19500,2018-05-22 18:53:27,17,0,23.677,3222.0510076332,136.15486,0.223694,1.60563325348,0,0,-0.671082,328, -1.2, -2.3,0,0,1024,1024,1024,1024,327.2,-90,95,3.908,3.943,3.943,3.929,3.945,3.966,19.038,80.6,14,Waypoint,
38.8912841,-120.764816,3224.3475956332,138.451448,0,0.80263125928,19610,2018-05-22 18:53:27,17,0,23.677,3224.3475956332,138.451448,0.223694,1.60563325348,0,0,-0.671082,327.9, -1.6, -2.7,0,0,1024,1024,1024,1024,327.2,-90,95,3.908,3.943,3.943,3.929,3.945,3.966,19.038,80.6,14,Waypoint,
38.8912841,-120.764816,3224.3475956332,138.451448,0,0.80263125928,19700,2018-05-22 18:53:27,17,0,23.677,3224.3475956332,138.451448,0.223694,1.60563325348,0,0,-0.671082,327.9, -1.6, -2.7,0,0,1024,1024,1024,1024,327.2,-90,95,3.908,3.943,3.943,3.929,3.945,3.966,19.038,80.6,14,Waypoint,
38.891284,-120.7648159,3225.3318476332,139.4357,0,0.82675855664,19800,2018-05-22 18:53:27,17,0,23.677,3225.3318476332,139.4357,0.223694,1.60563325348,0,0,-0.671082,327.9, -2.1, -3,0,0,1024,1024,1024,1024,327.2,-90,95,3.908,3.943,3.943,3.929,3.945,3.966,19.038,80.6,14,Waypoint,
38.8912839,-120.7648157,3227.3003516332,141.404204,0,0.88108270536,20000,2018-05-22 18:53:27,17,0,23.487,3227.3003516332,141.404204,0.223694,1.60563325348,0,0,-0.671082,327.9, -2.7, -3.4,0,0,1024,1024,1024,1024,327.2,-90,95,3.903,3.937,3.938,3.923,3.934,3.957,19.115,80.6,14,Waypoint,
38.8912839,-120.7648155,3229.2688556332,143.372708,0,0.93783139484,20120,2018-05-22 18:53:27,17,0,23.487,3229.2688556332,143.372708,0.223694,1.60563325348,0,0,-0.671082,327.9, -2.8, -3.2,0,0,1024,1024,1024,1024,327.2,-89.9,95,3.903,3.937,3.938,3.923,3.934,3.957,19.115,80.6,14,Waypoint,
38.8912839,-120.7648155,3229.2688556332,143.372708,0,0.93783139484,20200,2018-05-22 18:53:27,17,0,23.487,3229.2688556332,143.372708,0.223694,1.60563325348,0,0,-0.671082,327.9, -2.8, -3.2,0,0,1024,1024,1024,1024,327.2,-89.9,95,3.903,3.937,3.938,3.923,3.934,3.957,19.115,80.6,14,Waypoint,
38.8912838,-120.7648154,3230.2531076332,144.35696,0,0.9655184036,20300,2018-05-22 18:53:27,17,0,23.487,3230.2531076332,144.35696,0.223694,1.60563325348,0,0,-0.671082,327.8, -2.7, -3.3,0,0,1024,1024,1024,1024,327.2,-89.9,95,3.903,3.937,3.938,3.923,3.934,3.957,19.115,80.6,14,Waypoint,
38.8912838,-120.7648153,3232.2216116332,146.325464,0,0.99391735464,20400,2018-05-22 18:53:28,17,0,23.487,3232.2216116332,146.325464,0.223694,1.60563325348,0,0,-0.671082,327.6, -2.3, -3.3,0,0,1024,1024,1024,1024,327.2,-89.9,95,3.903,3.937,3.938,3.923,3.934,3.957,19.115,80.6,14,Waypoint,
38.8912837,-120.7648152,3233.8620316332,147.965884,0,1.022965912,20500,2018-05-22 18:53:28,17,0,23.487,3233.8620316332,147.965884,0.223694,1.60563325348,0,0,-0.671082,327.5, -2.4, -2.9,0,0,1024,1024,1024,1024,327.2,-89.9,95,3.903,3.937,3.938,3.923,3.934,3.957,19.115,80.6,14,Waypoint,
38.8912836,-120.7648152,3235.8305356332,149.934388,0,1.02491473096,20700,2018-05-22 18:53:28,17,0,23.487,3235.8305356332,149.934388,0.223694,1.60563325348,0,0,-0.671082,327.7, -2.6, -3,0,0,1024,1024,1024,1024,327.2,-89.9,95,3.903,3.937,3.938,3.923,3.934,3.957,19.115,80.6,14,Waypoint,
38.8912836,-120.7648152,3236.8147876332,150.91864,0,1.02491473096,20800,2018-05-22 18:53:28,17,0,23.487,3236.8147876332,150.91864,0.223694,1.60563325348,0,0,-0.671082,328, -2.3, -2.9,0,0,1024,1024,1024,1024,327.2,-89.9,95,3.903,3.937,3.938,3.923,3.934,3.957,19.115,80.6,14,Waypoint,
38.8912835,-120.7648152,3237.7990396332,151.902892,0,1.02815620088,20900,2018-05-22 18:53:28,17,0,23.487,3237.7990396332,151.902892,0.223694,1.60563325348,0,0,-0.671082,328.3, -2.1, -2.4,0,0,1024,1024,1024,1024,327.2,-89.9,95,3.903,3.937,3.938,3.923,3.934,3.957,19.115,80.6,14,Waypoint,
38.8912834,-120.7648151,3239.7675436332,153.871396,0,1.06080055888,21120,2018-05-22 18:53:28,17,0,23.487,3239.7675436332,153.871396,0.223694,1.60563325348,0,0,-0.671082,328.4, -2.8, -2.1,0,0,1024,1024,1024,1024,327.2,-89.9,95,3.903,3.937,3.938,3.923,3.934,3.957,19.115,80.6,14,Waypoint,
38.8912834,-120.7648151,3239.7675436332,153.871396,0,1.06080055888,21200,2018-05-22 18:53:28,17,0,23.487,3239.7675436332,153.871396,0.223694,1.60563325348,0,0,-0.671082,328.4, -2.8, -2.1,0,0,1024,1024,1024,1024,327.2,-89.9,95,3.903,3.937,3.938,3.923,3.934,3.957,19.115,80.6,14,Waypoint,
38.8912833,-120.7648151,3240.7517956332,154.855648,0,1.06643048032,21300,2018-05-22 18:53:28,17,0,23.487,3240.7517956332,154.855648,0.223694,1.60563325348,0,0,-0.671082,328.2, -3, -2.4,0,0,1024,1024,1024,1024,327.2,-89.9,95,3.903,3.937,3.938,3.923,3.934,3.957,19.115,80.6,14,Waypoint,
38.8912832,-120.764815,3242.7202996332,156.824152,0,1.10108927408,21500,2018-05-22 18:53:29,17,0,23.487,3242.7202996332,156.824152,0.223694,1.60563325348,0,0,-0.671082,328.2, -2.8, -3,0,0,1024,1024,1024,1024,327.2,-89.9,95,3.903,3.937,3.938,3.923,3.934,3.957,19.115,80.6,14,Waypoint,
38.8912832,-120.764815,3244.6888036332,158.792656,0,1.10108927408,21600,2018-05-22 18:53:29,17,0,23.487,3244.6888036332,158.792656,0.223694,1.60563325348,0,0,-0.671082,328, -3, -2.2,0,0,1024,1024,1024,1024,327.2,-89.9,95,3.903,3.937,3.938,3.923,3.934,3.957,19.115,80.6,14,Waypoint,
38.8912832,-120.7648151,3246.6573076332,160.76116,0,1.07327431256,21900,2018-05-22 18:53:29,17,0,23.487,3246.6573076332,160.76116,0.223694,1.60563325348,0,0,-0.671082,327.5, -2.6, -1.7,0,0,1024,1024,1024,1024,327.2,-89.9,95,3.903,3.937,3.938,3.923,3.934,3.957,19.115,80.6,14,Waypoint,
38.8912832,-120.7648151,3247.3134756332,161.417328,0,1.07327431256,22000,2018-05-22 18:53:29,17,0,23.575,3247.3134756332,161.417328,0.223694,1.60563325348,0,0,-0.671082,327.3, -2.6, -1.8,0,0,1024,1024,1024,1024,327.2,-89.9,95,3.907,3.932,3.943,3.917,3.923,3.958,18.745,80.6,14,Waypoint,
38.8912832,-120.7648152,3248.2977276332,162.40158,0,1.0454888786,22110,2018-05-22 18:53:29,17,0,23.575,3248.2977276332,162.40158,0.223694,1.60563325348,0,0,-0.671082,327.2, -2.5, -2.1,0,0,1024,1024,1024,1024,327.2,-89.9,95,3.907,3.932,3.943,3.917,3.923,3.958,18.745,80.6,14,Waypoint,
38.8912833,-120.7648152,3249.2819796332,163.385832,0,1.03846460016,22210,2018-05-22 18:53:29,17,0,23.575,3249.2819796332,163.385832,0.223694,1.60563325348,0,0,-0.671082,327, -2.2, -1.8,0,0,1024,1024,1024,1024,327.2,-89.9,95,3.907,3.932,3.943,3.917,3.923,3.958,18.745,80.6,14,Waypoint,
38.8912833,-120.7648153,3250.5943156332,164.698168,0,1.01051840504,22300,2018-05-22 18:53:29,17,0,23.575,3250.5943156332,164.698168,0.223694,1.60563325348,0,0,-0.671082,326.9, -2, -1.6,0,0,1024,1024,1024,1024,327.2,-89.9,95,3.907,3.932,3.943,3.917,3.923,3.958,18.745,80.6,14,Waypoint,
38.8912833,-120.7648154,3251.5785676332,165.68242,0,0.98260173748,22420,2018-05-22 18:53:30,17,0,23.575,3251.5785676332,165.68242,0.223694,1.60563325348,0,0,-0.671082,326.9, -2, -1.9,0,0,1024,1024,1024,1024,327.2,-89.9,95,3.907,3.932,3.943,3.917,3.923,3.958,18.745,80.6,14,Waypoint,
38.8912833,-120.7648155,3252.5628196332,166.666672,0,0.95471131664,22500,2018-05-22 18:53:30,17,0,23.575,3252.5628196332,166.666672,0.223694,1.60563325348,0,0,-0.671082,327.1, -2.1, -2,0,0,1024,1024,1024,1024,327.2,-89.9,95,3.907,3.932,3.943,3.917,3.923,3.958,18.745,80.6,14,Waypoint,
38.8912834,-120.7648155,3253.5470716332,167.650924,0.223694,0.94841866552,22600,2018-05-22 18:53:30,17,0,23.575,3253.5470716332,167.650924,0.223694,1.60563325348,0,0,-0.671082,327.3, -2, -1.7,0,0,1024,1024,1024,1024,327.2,-89.9,95,3.907,3.932,3.943,3.917,3.923,3.958,18.745,80.6,14,Waypoint,
38.8912834,-120.7648156,3254.5313236332,168.635176,0.223694,0.92036748352,22700,2018-05-22 18:53:30,17,0,23.575,3254.5313236332,168.635176,0.223694,1.60563325348,0,0,-0.671082,327.5, -1.9, -1.7,0,0,1024,1024,1024,1024,327.2,-89.9,95,3.907,3.932,3.943,3.917,3.923,3.958,18.745,80.6,14,Waypoint,
38.8912834,-120.7648157,3255.5155756332,169.619428,0.223694,0.89234254824,22800,2018-05-22 18:53:30,17,0,23.575,3255.5155756332,169.619428,0.223694,1.60563325348,0,0,-0.671082,327.6, -1.8, -1.7,0,0,1024,1024,1024,1024,327.2,-89.9,95,3.907,3.932,3.943,3.917,3.923,3.958,18.745,80.6,14,Waypoint,
38.8912835,-120.7648158,3256.4998276332,170.60368,0.223694,0.85893047368,22900,2018-05-22 18:53:30,17,0,23.575,3256.4998276332,170.60368,0.223694,1.60563325348,0,0,-0.671082,327.7, -1.4, -1.5,0,0,1024,1024,1024,1024,327.2,-89.9,95,3.907,3.932,3.943,3.917,3.923,3.958,18.745,80.6,14,Waypoint,
38.8912836,-120.7648159,3257.4840796332,171.587932,0.223694,0.82675855664,23100,2018-05-22 18:53:30,17,0,23.575,3257.4840796332,171.587932,0.223694,1.60563325348,0,0,-0.671082,327.7, -1, -1.5,0,0,1024,1024,1024,1024,327.2,-89.9,95,3.907,3.932,3.943,3.917,3.923,3.958,18.745,80.6,14,Waypoint,
38.8912836,-120.764816,3258.7964156332,172.900268,0,0.798474435,23200,2018-05-22 18:53:30,17,0,23.575,3258.7964156332,172.900268,0.223694,1.60563325348,0,0,-0.671082,327.8, -0.7, -1.9,0,0,1024,1024,1024,1024,327.2,-89.9,95,3.907,3.932,3.943,3.917,3.923,3.958,18.745,80.6,14,Waypoint,
38.8912838,-120.7648162,3261.7491716332,175.853024,0,0.73833991864,23420,2018-05-22 18:53:31,17,0,23.575,3261.7491716332,175.853024,0.223694,1.60563325348,0,0,-0.671082,328.4, -0.8, -2.4,0,0,1024,1024,1024,1024,327.2,-89.9,95,3.907,3.932,3.943,3.917,3.923,3.958,18.745,80.6,14,Waypoint,
38.8912838,-120.7648162,3262.7334236332,176.837276,0,0.73833991864,23500,2018-05-22 18:53:31,17,0,23.575,3262.7334236332,176.837276,0.223694,1.60563325348,0,0,-0.671082,328.5, -1, -2.1,0,0,1024,1024,1024,1024,327.2,-89.9,95,3.907,3.932,3.943,3.917,3.923,3.958,18.745,80.6,14,Waypoint,
38.8912839,-120.7648163,3263.7176756332,177.821528,0,0.71087928784,23600,2018-05-22 18:53:31,17,0,23.575,3263.7176756332,177.821528,0.223694,1.60563325348,0,0,-0.671082,328.3, -1.1, -1.5,0,0,1024,1024,1024,1024,327.2,-89.9,95,3.907,3.932,3.943,3.917,3.923,3.958,18.745,80.6,14,Waypoint,
38.8912839,-120.7648163,3264.7019276332,178.80578,0,0.71087928784,23700,2018-05-22 18:53:31,17,0,23.575,3264.7019276332,178.80578,0.223694,1.60563325348,0,0,-0.671082,328, -1.2, -1.3,0,0,1024,1024,1024,1024,327.2,-89.9,95,3.907,3.932,3.943,3.917,3.923,3.958,18.745,80.6,14,Waypoint,
38.8912839,-120.7648163,3265.6861796332,179.790032,0,0.71087928784,23800,2018-05-22 18:53:31,17,0,23.575,3265.6861796332,179.790032,0.223694,1.60563325348,0,0,-0.671082,327.7, -1.6, -1.5,0,0,1024,1024,1024,1024,327.2,-89.9,95,3.907,3.932,3.943,3.917,3.923,3.958,18.745,80.6,14,Waypoint,
38.8912839,-120.7648163,3266.6704316332,180.774284,0,0.71087928784,23910,2018-05-22 18:53:31,17,0,23.575,3266.6704316332,180.774284,0.223694,1.60563325348,0,0,-0.671082,327.5, -2, -1.8,0,0,1024,1024,1024,1024,327.2,-90,95,3.907,3.932,3.943,3.917,3.923,3.958,18.745,80.6,14,Waypoint,
38.891284,-120.7648163,3267.6546836332,181.758536,0,0.7136811252,24100,2018-05-22 18:53:31,17,0,23.575,3267.6546836332,181.758536,0.223694,1.60563325348,0,0,-0.671082,327.3, -2.1, -1.7,0,0,1024,1024,1024,1024,327.2,-89.9,95,3.907,3.932,3.943,3.917,3.923,3.958,18.745,80.6,14,Waypoint,
38.891284,-120.7648163,3268.6389356332,182.742788,0,0.7136811252,24200,2018-05-22 18:53:31,17,0,23.575,3268.6389356332,182.742788,0.223694,1.60563325348,0,0,-0.671082,327.3, -1.8, -1.5,0,0,1024,1024,1024,1024,327.2,-89.9,95,3.907,3.932,3.943,3.917,3.923,3.958,18.745,80.6,14,Waypoint,
38.891284,-120.7648163,3269.6231876332,183.72704,0,0.7136811252,24300,2018-05-22 18:53:31,17,0,23.575,3269.6231876332,183.72704,0.223694,1.60563325348,0,0,-0.671082,327.3, -1.7, -1.5,0,0,1024,1024,1024,1024,327.2,-89.9,95,3.907,3.932,3.943,3.917,3.923,3.958,18.745,80.6,14,Waypoint,
38.891284,-120.7648163,3270.6074396332,184.711292,0,0.7136811252,24400,2018-05-22 18:53:32,17,0,23.575,3270.6074396332,184.711292,0.223694,1.60563325348,0,0,-0.671082,327.3, -1.5, -1.7,0,0,1024,1024,1024,1024,327.2,-89.9,95,3.907,3.932,3.943,3.917,3.923,3.958,18.745,80.6,14,Waypoint,
38.8912841,-120.7648163,3271.5916916332,185.695544,0,0.71833007548,24500,2018-05-22 18:53:32,17,0,23.575,3271.5916916332,185.695544,0.223694,1.60563325348,0,0,-0.671082,327.3, -1.5, -1.7,0,0,1024,1024,1024,1024,327.2,-89.9,95,3.907,3.932,3.943,3.917,3.923,3.958,18.745,80.6,14,Waypoint,
38.8912841,-120.7648162,3273.5601956332,187.664048,0,0.7464075042,24630,2018-05-22 18:53:32,17,0,23.575,3273.5601956332,187.664048,0.223694,1.60563325348,0,0,-0.671082,327.5, -1.6, -1.5,0,0,1024,1024,1024,1024,327.2,-89.9,95,3.907,3.932,3.943,3.917,3.923,3.958,18.745,80.6,14,Waypoint,
38.8912841,-120.7648162,3274.5444476332,188.6483,0,0.7464075042,24710,2018-05-22 18:53:32,17,0,23.575,3274.5444476332,188.6483,0.223694,1.60563325348,0,0,-0.671082,327.7, -1.8, -1.6,0,0,1024,1024,1024,1024,327.2,-90,95,3.907,3.932,3.943,3.917,3.923,3.958,18.745,80.6,14,Waypoint,
38.8912841,-120.7648162,3275.8567836332,189.960636,0,0.7464075042,24900,2018-05-22 18:53:32,17,0,23.575,3275.8567836332,189.960636,0.223694,1.60563325348,0,0,-0.671082,327.8, -1.9, -1.4,0,0,1024,1024,1024,1024,327.2,-89.9,95,3.907,3.932,3.943,3.917,3.923,3.958,18.745,80.6,14,Waypoint,
38.8912841,-120.7648162,3276.8410356332,190.944888,0,0.7464075042,25000,2018-05-22 18:53:32,17,0,23.523,3276.8410356332,190.944888,0.223694,1.60563325348,0,0,-0.671082,327.9, -1.7, -1.4,0,0,1024,1024,1024,1024,327.2,-89.9,94,3.875,3.917,3.918,3.906,3.916,3.95,18.876,80.6,14,Waypoint,
38.8912842,-120.7648162,3277.8252876332,191.92914,0,0.752624696,25100,2018-05-22 18:53:32,17,0,23.523,3277.8252876332,191.92914,0.223694,1.60563325348,0,0,-0.671082,327.9, -1.6, -1.6,0,0,1024,1024,1024,1024,327.2,-89.9,94,3.875,3.917,3.918,3.906,3.916,3.95,18.876,80.6,14,Waypoint,
38.8912842,-120.7648162,3278.8095396332,192.913392,0,0.752624696,25200,2018-05-22 18:53:32,17,0,23.523,3278.8095396332,192.913392,0.223694,1.60563325348,0,0,-0.671082,327.9, -1.3, -1.7,0,0,1024,1024,1024,1024,327.2,-89.9,94,3.875,3.917,3.918,3.906,3.916,3.95,18.876,80.6,14,Waypoint,
38.8912843,-120.7648161,3279.7937916332,193.897644,0,0.788139789,25300,2018-05-22 18:53:32,17,0,23.523,3279.7937916332,193.897644,0.223694,1.60563325348,0,0,-0.671082,327.9, -1.2, -1.8,0,0,1024,1024,1024,1024,327.2,-89.9,94,3.875,3.917,3.918,3.906,3.916,3.95,18.876,80.6,14,Waypoint,
38.8912843,-120.7648161,3280.7780436332,194.881896,0,0.788139789,25400,2018-05-22 18:53:33,17,0,23.523,3280.7780436332,194.881896,0.223694,1.60563325348,0,0,-0.671082,327.9, -1.1, -2,0,0,1024,1024,1024,1024,327.2,-89.9,94,3.875,3.917,3.918,3.906,3.916,3.95,18.876,80.6,14,Waypoint,
38.8912843,-120.7648161,3281.7622956332,195.866148,0,0.788139789,25500,2018-05-22 18:53:33,17,0,23.523,3281.7622956332,195.866148,0.223694,1.60563325348,0,0,-0.671082,328, -1.1, -2.3,0,0,1024,1024,1024,1024,327.2,-89.9,94,3.875,3.917,3.918,3.906,3.916,3.95,18.876,80.6,14,Waypoint,
38.8912843,-120.7648161,3282.7465476332,196.8504,0,0.788139789,25600,2018-05-22 18:53:33,17,0,23.523,3282.7465476332,196.8504,0.223694,1.60563325348,0,0,-0.671082,328.1, -1.2, -2.3,0,0,1024,1024,1024,1024,327.2,-89.9,94,3.875,3.917,3.918,3.906,3.916,3.95,18.876,80.6,14,Waypoint,
38.8912844,-120.7648161,3283.7307996332,197.834652,0,0.7973753536,25700,2018-05-22 18:53:33,17,0,23.523,3283.7307996332,197.834652,0.223694,1.60563325348,0,0,-0.671082,328, -1.2, -2.2,0,0,1024,1024,1024,1024,327.2,-89.9,94,3.875,3.917,3.918,3.906,3.916,3.95,18.876,80.6,14,Waypoint,
38.8912844,-120.764816,3284.7150516332,198.818904,0,0.82471787416,25800,2018-05-22 18:53:33,17,0,23.523,3284.7150516332,198.818904,0.223694,1.60563325348,0,0,-0.671082,327.9, -1, -1.9,0,0,1024,1024,1024,1024,327.2,-89.9,94,3.875,3.917,3.918,3.906,3.916,3.95,18.876,80.6,14,Waypoint,
38.8912845,-120.764816,3286.6835556332,200.787408,0,0.83514438368,25900,2018-05-22 18:53:33,17,0,23.523,3286.6835556332,200.787408,0.223694,1.60563325348,0,0,-0.671082,327.7, -1.1, -1.8,0,0,1024,1024,1024,1024,327.2,-89.9,94,3.875,3.917,3.918,3.906,3.916,3.95,18.876,80.6,14,Waypoint,
38.8912845,-120.764816,3287.6678076332,201.77166,0,0.83514438368,26200,2018-05-22 18:53:33,17,0,23.523,3287.6678076332,201.77166,0.223694,1.60563325348,0,0,-0.671082,327.6, -1, -1.6,0,0,1024,1024,1024,1024,327.2,-89.9,94,3.875,3.917,3.918,3.906,3.916,3.95,18.876,80.6,14,Waypoint,
38.8912845,-120.764816,3289.3082276332,203.41208,0,0.83514438368,26310,2018-05-22 18:53:33,17,0,23.523,3289.3082276332,203.41208,0.223694,1.60563325348,0,0,-0.671082,327.4, -0.8, -1.8,0,0,1024,1024,1024,1024,327.2,-89.9,94,3.875,3.917,3.918,3.906,3.916,3.95,18.876,80.6,14,Waypoint,
38.8912846,-120.7648161,3290.6205636332,204.724416,0,0.82041341208,26500,2018-05-22 18:53:34,17,0,23.523,3290.6205636332,204.724416,0.223694,1.60563325348,0,0,-0.671082,327.3, -0.7, -1.9,0,0,1024,1024,1024,1024,327.2,-89.9,94,3.875,3.917,3.918,3.906,3.916,3.95,18.876,80.6,14,Waypoint,
38.8912845,-120.7648161,3291.6048156332,205.708668,0,0.808152913,26600,2018-05-22 18:53:34,17,0,23.523,3291.6048156332,205.708668,0.223694,1.60563325348,0,0,-0.671082,327.3, -0.9, -1.9,0,0,1024,1024,1024,1024,327.2,-89.9,94,3.875,3.917,3.918,3.906,3.916,3.95,18.876,80.6,14,Waypoint,
38.8912845,-120.7648161,3292.5890676332,206.69292,0,0.808152913,26700,2018-05-22 18:53:34,17,0,23.523,3292.5890676332,206.69292,0.223694,1.60563325348,0,0,-0.671082,327.3, -1, -1.8,0,0,1024,1024,1024,1024,327.2,-89.9,94,3.875,3.917,3.918,3.906,3.916,3.95,18.876,80.6,14,Waypoint,
38.8912845,-120.7648161,3294.2294876332,208.33334,0,0.808152913,27000,2018-05-22 18:53:34,17,0,23.534,3294.2294876332,208.33334,0.223694,1.60563325348,0,0,-0.671082,327.5, -1.1, -1.7,0,0,1024,1024,1024,1024,327.2,-89.9,94,3.885,3.927,3.925,3.925,3.918,3.94,19.005,82.4,14,Waypoint,
38.8912844,-120.7648162,3296.1979916332,210.301844,0,0.77010829236,27100,2018-05-22 18:53:34,17,0,23.534,3296.1979916332,210.301844,0.223694,1.60563325348,0,0,-0.671082,327.6, -1.1, -1.7,0,0,1024,1024,1024,1024,327.2,-89.9,94,3.885,3.927,3.925,3.925,3.918,3.94,19.005,82.4,14,Waypoint,
38.8912844,-120.7648162,3297.1822436332,211.286096,0,0.77010829236,27200,2018-05-22 18:53:34,17,0,23.534,3297.1822436332,211.286096,0.223694,1.60563325348,0,0,-0.671082,327.6, -1.1, -1.7,0,0,1024,1024,1024,1024,327.2,-89.9,94,3.885,3.927,3.925,3.925,3.918,3.94,19.005,82.4,14,Waypoint,
38.8912844,-120.7648162,3298.1664956332,212.270348,0,0.77010829236,27400,2018-05-22 18:53:35,17,0,23.534,3298.1664956332,212.270348,0.223694,1.60563325348,0,0,-0.671082,327.6, -1.2, -1.6,0,0,1024,1024,1024,1024,327.2,-89.9,94,3.885,3.927,3.925,3.925,3.918,3.94,19.005,82.4,14,Waypoint,
38.8912843,-120.7648163,3300.1349996332,214.238852,0,0.7330052728,27500,2018-05-22 18:53:35,17,0,23.534,3300.1349996332,214.238852,0.223694,1.60563325348,0,0,-0.671082,327.5, -1.3, -1.3,0,0,1024,1024,1024,1024,327.2,-89.9,94,3.885,3.927,3.925,3.925,3.918,3.94,19.005,82.4,14,Waypoint,
38.8912842,-120.7648165,3302.4315876332,216.53544,0.223694,0.66925198992,27700,2018-05-22 18:53:35,17,0,23.534,3302.4315876332,216.53544,0.223694,1.60563325348,0,0,-0.671082,327.6, -1.2, -0.8,0,0,1024,1024,1024,1024,327.2,-89.9,94,3.885,3.927,3.925,3.925,3.918,3.94,19.005,82.4,14,Waypoint,
38.8912842,-120.7648166,3303.0877556332,217.191608,0.223694,0.641568262,27800,2018-05-22 18:53:35,17,0,23.534,3303.0877556332,217.191608,0.223694,1.60563325348,0,0,-0.671082,327.6, -1.1, -0.7,0,0,1024,1024,1024,1024,327.2,-89.9,94,3.885,3.927,3.925,3.925,3.918,3.94,19.005,82.4,14,Waypoint,
38.8912842,-120.7648167,3304.0720076332,218.17586,0.223694,0.61394687004,27910,2018-05-22 18:53:35,17,0,23.534,3304.0720076332,218.17586,0.223694,1.60563325348,0,0,-0.671082,327.7, -0.9, -0.6,0,0,1024,1024,1024,1024,327.2,-89.9,94,3.885,3.927,3.925,3.925,3.918,3.94,19.005,82.4,14,Waypoint,
38.8912841,-120.7648168,3307.0247636332,221.128616,0,0.57840224948,28100,2018-05-22 18:53:35,17,0,23.534,3307.0247636332,221.128616,0.223694,1.60563325348,0,0,-0.671082,327.8, -0.8, -0.9,0,0,1024,1024,1024,1024,327.2,-89.9,94,3.885,3.927,3.925,3.925,3.918,3.94,19.005,82.4,14,Waypoint,
38.8912841,-120.7648168,3308.0090156332,222.112868,0,0.57840224948,28200,2018-05-22 18:53:35,17,0,23.534,3308.0090156332,222.112868,0.223694,1.60563325348,0,0,-0.671082,327.8, -0.8, -1.3,0,0,1024,1024,1024,1024,327.2,-89.9,94,3.885,3.927,3.925,3.925,3.918,3.94,19.005,82.4,14,Waypoint,
38.8912842,-120.7648167,3310.9617716332,225.065624,0,0.61394687004,28310,2018-05-22 18:53:35,17,0,23.534,3310.9617716332,225.065624,0.223694,1.60563325348,0,0,-0.671082,327.7, -1, -2,0,0,1024,1024,1024,1024,327.2,-89.9,94,3.885,3.927,3.925,3.925,3.918,3.94,19.005,82.4,14,Waypoint,
38.8912842,-120.7648167,3312.9302756332,227.034128,0,0.61394687004,28500,2018-05-22 18:53:36,17,0,23.534,3312.9302756332,227.034128,0.223694,1.60563325348,0,0,-0.671082,327.7, -0.8, -2,0,0,1024,1024,1024,1024,327.2,-89.9,94,3.885,3.927,3.925,3.925,3.918,3.94,19.005,82.4,14,Waypoint,
38.8912842,-120.7648167,3314.2426116332,228.346464,0,0.61394687004,28600,2018-05-22 18:53:36,17,0,23.534,3314.2426116332,228.346464,0.223694,1.60563325348,0,0,-0.671082,327.8, -0.8, -1.9,0,0,1024,1024,1024,1024,327.2,-89.9,94,3.885,3.927,3.925,3.925,3.918,3.94,19.005,82.4,14,Waypoint,
38.8912842,-120.7648167,3315.2268636332,229.330716,0,0.61394687004,28700,2018-05-22 18:53:36,17,0,23.534,3315.2268636332,229.330716,0.223694,1.60563325348,0,0,-0.671082,327.9, -0.9, -1.8,0,0,1024,1024,1024,1024,327.2,-89.9,94,3.885,3.927,3.925,3.925,3.918,3.94,19.005,82.4,14,Waypoint,
38.8912842,-120.7648167,3316.2111156332,230.314968,0,0.61394687004,28800,2018-05-22 18:53:36,17,0,23.534,3316.2111156332,230.314968,0.223694,1.60563325348,0,0,-0.671082,327.9, -1, -1.7,0,0,1024,1024,1024,1024,327.2,-89.9,94,3.885,3.927,3.925,3.925,3.918,3.94,19.005,82.4,14,Waypoint,
38.8912842,-120.7648167,3316.8672836332,230.971136,0,0.61394687004,28900,2018-05-22 18:53:36,17,0,23.534,3316.8672836332,230.971136,0.223694,1.60563325348,0,0,-0.671082,328, -0.9, -1.8,0,0,1024,1024,1024,1024,327.2,-89.9,94,3.885,3.927,3.925,3.925,3.918,3.94,19.005,82.4,14,Waypoint,
38.8912842,-120.7648167,3318.8357876332,232.93964,0,0.61394687004,29100,2018-05-22 18:53:36,17,0,23.534,3318.8357876332,232.93964,0.223694,1.60563325348,0,0,-0.671082,327.9, -0.7, -1.8,0,0,1024,1024,1024,1024,327.2,-89.9,94,3.885,3.927,3.925,3.925,3.918,3.94,19.005,82.4,14,Waypoint,
38.8912842,-120.7648167,3319.8200396332,233.923892,0,0.61394687004,29200,2018-05-22 18:53:36,17,0,23.534,3319.8200396332,233.923892,0.223694,1.60563325348,0,0,-0.671082,327.9, -0.7, -1.8,0,0,1024,1024,1024,1024,327.2,-89.9,94,3.885,3.927,3.925,3.925,3.918,3.94,19.005,82.4,14,Waypoint,
38.8912842,-120.7648167,3320.8042916332,234.908144,0,0.61394687004,29300,2018-05-22 18:53:36,17,0,23.534,3320.8042916332,234.908144,0.223694,1.60563325348,0,0,-0.671082,327.8, -0.8, -1.9,0,0,1024,1024,1024,1024,327.2,-89.9,94,3.885,3.927,3.925,3.925,3.918,3.94,19.005,82.4,14,Waypoint,
38.8912842,-120.7648167,3322.7727956332,236.876648,0,0.61394687004,29500,2018-05-22 18:53:37,17,0,23.534,3322.7727956332,236.876648,0.223694,1.60563325348,0,0,-0.671082,327.7, -0.6, -1.8,0,0,1024,1024,1024,1024,327.2,-89.9,94,3.885,3.927,3.925,3.925,3.918,3.94,19.005,82.4,14,Waypoint,
38.8912843,-120.7648167,3323.7570476332,237.8609,0,0.62362862888,29600,2018-05-22 18:53:37,17,0,23.534,3323.7570476332,237.8609,0.223694,1.60563325348,0,0,-0.671082,327.6, -0.6, -1.9,0,0,1024,1024,1024,1024,327.2,-89.9,94,3.885,3.927,3.925,3.925,3.918,3.94,19.005,82.4,14,Waypoint,
38.8912843,-120.7648167,3324.7412996332,238.845152,0,0.62362862888,29700,2018-05-22 18:53:37,17,0,23.534,3324.7412996332,238.845152,0.223694,1.60563325348,0,0,-0.671082,327.6, -0.5, -1.8,0,0,1024,1024,1024,1024,327.2,-89.9,94,3.885,3.927,3.925,3.925,3.918,3.94,19.005,82.4,14,Waypoint,
38.8912843,-120.7648167,3325.7255516332,239.829404,0,0.62362862888,29900,2018-05-22 18:53:37,17,0,23.534,3325.7255516332,239.829404,0.223694,1.60563325348,0,0,-0.671082,327.5, -0.5, -1.7,0,0,1024,1024,1024,1024,327.2,-89.9,94,3.885,3.927,3.925,3.925,3.918,3.94,19.005,82.4,14,Waypoint,
38.8912843,-120.7648168,3326.7098036332,240.813656,0,0.59653217132,30000,2018-05-22 18:53:37,17,0,23.393,3326.7098036332,240.813656,0.223694,1.60563325348,0,0,-0.671082,327.5, -0.4, -1.6,0,0,1024,1024,1024,1024,327.2,-89.9,94,3.866,3.904,3.899,3.886,3.904,3.925,20.151,82.4,14,Waypoint,
38.8912844,-120.7648168,3327.6940556332,241.797908,0,0.60868112184,30110,2018-05-22 18:53:37,17,0,23.393,3327.6940556332,241.797908,0.223694,1.60563325348,0,0,-0.671082,327.5, -0.2, -1.5,0,0,1024,1024,1024,1024,327.2,-89.9,94,3.866,3.904,3.899,3.886,3.904,3.925,20.151,82.4,14,Waypoint,
38.8912844,-120.7648169,3328.6783076332,242.78216,0,0.58227364068,30200,2018-05-22 18:53:37,17,0,23.393,3328.6783076332,242.78216,0.223694,1.60563325348,0,0,-0.671082,327.5, -0.1, -1.3,0,0,1024,1024,1024,1024,327.2,-89.9,94,3.866,3.904,3.899,3.886,3.904,3.925,20.151,82.4,14,Waypoint,
38.8912844,-120.764817,3330.6468116332,244.750664,0,0.55605972908,30300,2018-05-22 18:53:37,17,0,23.393,3330.6468116332,244.750664,0.223694,1.60563325348,0,0,-0.671082,327.8, -0.1, -1.3,0,0,1024,1024,1024,1024,327.2,-89.9,94,3.866,3.904,3.899,3.886,3.904,3.925,20.151,82.4,14,Waypoint,
38.8912844,-120.764817,3331.6310636332,245.734916,0,0.55605972908,30410,2018-05-22 18:53:38,17,0,23.393,3331.6310636332,245.734916,0.223694,1.60563325348,0,0,-0.671082,327.9, -0.1, -1.5,0,0,1024,1024,1024,1024,327.2,-89.9,94,3.866,3.904,3.899,3.886,3.904,3.925,20.151,82.4,14,Waypoint,
38.8912844,-120.764817,3332.6153156332,246.719168,0,0.55605972908,30500,2018-05-22 18:53:38,17,0,23.393,3332.6153156332,246.719168,0.223694,1.60563325348,0,0,-0.671082,327.9, -0.2, -1.6,0,0,1024,1024,1024,1024,327.2,-89.9,94,3.866,3.904,3.899,3.886,3.904,3.925,20.151,82.4,14,Waypoint,
38.8912845,-120.764817,3333.5995676332,247.70342,0,0.57141077944,30600,2018-05-22 18:53:38,17,0,23.393,3333.5995676332,247.70342,0.223694,1.60563325348,0,0,-0.671082,327.8, -0.3, -1.6,0,0,1024,1024,1024,1024,327.2,-89.9,94,3.866,3.904,3.899,3.886,3.904,3.925,20.151,82.4,14,Waypoint,
38.8912845,-120.764817,3334.5838196332,248.687672,0,0.57141077944,30700,2018-05-22 18:53:38,17,0,23.393,3334.5838196332,248.687672,0.223694,1.60563325348,0,0,-0.671082,327.7, -0.3, -1.7,0,0,1024,1024,1024,1024,327.2,-89.9,94,3.866,3.904,3.899,3.886,3.904,3.925,20.151,82.4,14,Waypoint,
38.8912845,-120.764817,3335.5680716332,249.671924,0,0.57141077944,30800,2018-05-22 18:53:38,17,0,23.393,3335.5680716332,249.671924,0.223694,1.60563325348,0,0,-0.671082,327.6, -0.4, -1.6,0,0,1024,1024,1024,1024,327.2,-89.9,94,3.866,3.904,3.899,3.886,3.904,3.925,20.151,82.4,14,Waypoint,
38.8912845,-120.764817,3336.5523236332,250.656176,0,0.57141077944,30900,2018-05-22 18:53:38,17,0,23.393,3336.5523236332,250.656176,0.223694,1.60563325348,0,0,-0.671082,327.5, -0.5, -1.6,0,0,1024,1024,1024,1024,327.2,-89.9,94,3.866,3.904,3.899,3.886,3.904,3.925,20.151,82.4,14,Waypoint,
38.8912845,-120.764817,3337.5365756332,251.640428,0,0.57141077944,31000,2018-05-22 18:53:38,17,0,23.388,3337.5365756332,251.640428,0.223694,1.60563325348,0,0,-0.671082,327.5, -0.7, -1.6,0,0,1024,1024,1024,1024,327.2,-90,94,3.865,3.904,3.895,3.896,3.9,3.929,20.05,82.4,14,Waypoint,
38.8912844,-120.7648169,3339.5050796332,253.608932,0,0.58227364068,31100,2018-05-22 18:53:38,17,0,23.388,3339.5050796332,253.608932,0.223694,1.60563325348,0,0,-0.671082,327.5, -0.6, -1.4,0,0,1024,1024,1024,1024,327.2,-89.9,94,3.865,3.904,3.895,3.896,3.9,3.929,20.05,82.4,14,Waypoint,
38.8912844,-120.7648169,3340.4893316332,254.593184,0,0.58227364068,31200,2018-05-22 18:53:38,17,0,23.388,3340.4893316332,254.593184,0.223694,1.60563325348,0,0,-0.671082,327.6, -0.6, -1.5,0,0,1024,1024,1024,1024,327.2,-89.9,94,3.865,3.904,3.895,3.896,3.9,3.929,20.05,82.4,14,Waypoint,
