latitude,longitude,altitude(feet),ascent(feet),speed(mph),distance(feet),time(millisecond),datetime(utc),satellites,gpslevel,voltage(v),max_altitude(feet),max_ascent(feet),max_speed(mph),max_distance(feet), xSpeed(mph), ySpeed(mph), zSpeed(mph), compass_heading(degrees), pitch(degrees), roll(degrees),isPhoto,isVideo,rc_elevator,rc_aileron,rc_throttle,rc_rudder,gimbal_heading(degrees),gimbal_pitch(degrees),battery_percent,voltageCell1,voltageCell2,voltageCell3,voltageCell4,voltageCell5,voltageCell6,current(A),battery_temperature(f),flycStateRaw,flycState,message
38.8913001,-120.7648216,3086.2437759252,0,0,0,2920,2018-05-22 19:40:49,14,0,0,3086.2437759252,0,0,0,0,0,0,329.3, 1.4, 0.6,1,0,1024,1024,1024,1024,329.6,-89.9,100,4.28,4.28,4.259,4.299,4.287,4.278,0,75.2,11,AutoTakeoff,DJI_0803.jpg Starting Mission from Lat/Long: 38.89130/-120.76480 Camera: Zenmuse X3 - Overlap: 90/90 - Active Connection: No
38.8913,-120.7648216,3086.2437759252,0,0,0.036484909304,3000,2018-05-22 19:40:49,14,0,25.73,3086.2437759252,0,0,0.036484909304,0,0,0,329.4, 1, 0.5,0,0,1024,1024,1024,1024,329.6,-89.9,100,4.28,4.28,4.259,4.299,4.287,4.278,3.234,75.2,11,AutoTakeoff,
38.8913,-120.7648215,3086.2437759252,0,0,0.046233925364,3100,2018-05-22 19:40:50,13,0,25.73,3086.2437759252,0,0,0.046233925364,0,0,0,329.4, 0.3, 0.3,0,0,1024,1024,1024,1024,329.6,-89.9,100,4.28,4.28,4.259,4.299,4.287,4.278,3.234,75.2,11,AutoTakeoff,
38.8912999,-120.7648215,3086.2437759252,0,0,0.078300855524,3200,2018-05-22 19:40:50,13,0,25.73,3086.2437759252,0,0,0.078300855524,0,0,0,329.4, 0, 0,0,0,1024,1024,1024,1024,329.6,-89.9,100,4.28,4.28,4.259,4.299,4.287,4.278,3.234,75.2,11,AutoTakeoff,
38.8912999,-120.7648214,3086.5718599252,0.328084,0,0.092467850728,3300,2018-05-22 19:40:50,12,0,25.73,3086.5718599252,0.328084,0,0.092467850728,0,0,0,329.4, -0.2, 0.1,0,0,1024,1024,1024,1024,329.6,-89.9,100,4.28,4.28,4.259,4.299,4.287,4.278,3.234,75.2,11,AutoTakeoff,
38.8912999,-120.7648213,3086.5718599252,0.328084,0,0.112171591516,3400,2018-05-22 19:40:50,12,0,25.73,3086.5718599252,0.328084,0,0.112171591516,0,0,0,329.4, -0.1, 0.1,0,0,1024,1024,1024,1024,329.6,-89.9,100,4.28,4.28,4.259,4.299,4.287,4.278,3.234,75.2,11,AutoTakeoff,
38.8912999,-120.7648212,3086.5718599252,0.328084,0,0.135008862588,3500,2018-05-22 19:40:50,10,0,25.73,3086.5718599252,0.328084,0,0.135008862588,0,0,0,329.3, 0, 0,0,0,1024,1024,1024,1024,329.6,-89.9,100,4.28,4.28,4.259,4.299,4.287,4.278,3.234,75.2,11,AutoTakeoff,
38.8912998,-120.7648211,3086.8999439252,0.656168,0,0.179279205212,3600,2018-05-22 19:40:50,10,0,25.73,3086.8999439252,0.656168,0,0.179279205212,0,0,0,329.3, -0.1, -0.2,0,0,1024,1024,1024,1024,329.6,-89.9,100,4.28,4.28,4.259,4.299,4.287,4.278,3.234,75.2,11,AutoTakeoff,
38.8912998,-120.7648211,3086.8999439252,0.656168,0,0.179279205212,3700,2018-05-22 19:40:50,10,0,25.73,3086.8999439252,0.656168,0,0.179279205212,0,0,0,329.2, -0.1, -0.5,0,0,1024,1024,1024,1024,329.6,-89.9,100,4.28,4.28,4.259,4.299,4.287,4.278,3.234,75.2,11,AutoTakeoff,
38.8912999,-120.7648211,3087.2280279252,0.984252,0,0.159641081224,3810,2018-05-22 19:40:50,10,0,25.73,3087.2280279252,0.984252,0,0.179279205212,0,0,-0.223694,329.2, 0, -0.5,0,0,1024,1024,1024,1024,329.6,-89.9,100,4.28,4.28,4.259,4.299,4.287,4.278,3.234,75.2,11,AutoTakeoff,
38.8913,-120.764821,3087.5561119252,1.312336,0,0.174248365156,3900,2018-05-22 19:40:50,9,0,25.73,3087.5561119252,1.312336,0,0.179279205212,0,0,0,329.2, 0.2, -0.4,0,0,1024,1024,1024,1024,329.6,-89.9,100,4.28,4.28,4.259,4.299,4.287,4.278,3.234,75.2,11,AutoTakeoff,
38.8913,-120.764821,3087.5561119252,1.312336,0,0.174248365156,4000,2018-05-22 19:40:50,10,0,24.956,3087.5561119252,1.312336,0,0.179279205212,0,0,0,329.3, 0.4, -0.4,0,0,1024,1024,1024,1024,329.6,-89.9,100,4.28,4.28,4.259,4.299,4.287,4.278,12.335,75.2,11,AutoTakeoff,
38.8913,-120.7648209,3087.5561119252,1.312336,0,0.202104009092,4100,2018-05-22 19:40:51,10,0,24.956,3087.5561119252,1.312336,0,0.202104009092,0,0,0,329.3, 0.5, -0.4,0,0,1024,1024,1024,1024,329.6,-89.9,100,4.28,4.28,4.259,4.299,4.287,4.278,12.335,75.2,11,AutoTakeoff,
38.8913,-120.764821,3087.8841959252,1.64042,0,0.174248365156,4300,2018-05-22 19:40:51,11,0,24.956,3087.8841959252,1.64042,0,0.202104009092,0,0,-0.223694,329.3, 0.6, -0.4,0,0,1024,1024,1024,1024,329.6,-89.9,100,4.28,4.28,4.259,4.299,4.287,4.278,12.335,75.2,11,AutoTakeoff,
38.8913,-120.764821,3088.2122799252,1.968504,0,0.174248365156,4400,2018-05-22 19:40:51,11,0,24.956,3088.2122799252,1.968504,0,0.202104009092,0,0,-0.223694,329.2, 0.6, -0.4,0,0,1024,1024,1024,1024,329.6,-89.9,100,4.28,4.28,4.259,4.299,4.287,4.278,12.335,75.2,11,AutoTakeoff,
38.8913,-120.7648211,3088.2122799252,1.968504,0,0.146600726476,4500,2018-05-22 19:40:51,11,0,24.956,3088.2122799252,1.968504,0,0.202104009092,0,0,0,329.1, 0.6, -0.3,0,0,1024,1024,1024,1024,329.6,-89.9,100,4.28,4.28,4.259,4.299,4.287,4.278,12.335,75.2,11,AutoTakeoff,
38.8913,-120.764821,3088.2122799252,1.968504,0,0.174248365156,4600,2018-05-22 19:40:51,11,0,24.956,3088.2122799252,1.968504,0,0.202104009092,0,0,0,329.1, 0.5, -0.2,0,0,1024,1024,1024,1024,329.6,-89.9,100,4.28,4.28,4.259,4.299,4.287,4.278,12.335,75.2,11,AutoTakeoff,
38.8913001,-120.7648211,3088.5403639252,2.296588,0,0.14198819352,4700,2018-05-22 19:40:51,14,0,24.956,3088.5403639252,2.296588,0,0.202104009092,0,0,0,329, 0.4, -0.2,0,0,1024,1024,1024,1024,329.6,-89.9,100,4.28,4.28,4.259,4.299,4.287,4.278,12.335,75.2,11,AutoTakeoff,
38.8913001,-120.7648211,3088.5403639252,2.296588,0,0.14198819352,4800,2018-05-22 19:40:51,14,0,24.956,3088.5403639252,2.296588,0,0.202104009092,0,0,0,328.9, 0.4, -0.2,0,0,1024,1024,1024,1024,329.6,-89.9,100,4.28,4.28,4.259,4.299,4.287,4.278,12.335,75.2,11,AutoTakeoff,
38.8913002,-120.7648211,3088.8684479252,2.624672,0,0.146600726476,4900,2018-05-22 19:40:51,14,0,24.956,3088.8684479252,2.624672,0,0.202104009092,0,0,0,328.9, 0.5, -0.3,0,0,1024,1024,1024,1024,329.6,-89.9,100,4.28,4.28,4.259,4.299,4.287,4.278,12.335,75.2,11,AutoTakeoff,
38.8913002,-120.764821,3088.8684479252,2.624672,0,0.174248365156,5000,2018-05-22 19:40:51,14,0,24.956,3088.8684479252,2.624672,0,0.202104009092,0,0,0,328.9, 0.5, -0.4,0,0,1024,1024,1024,1024,329.6,-89.9,100,4.136,4.136,4.09,4.151,4.144,4.103,12.335,75.2,11,AutoTakeoff,
38.8913002,-120.764821,3089.1965319252,2.952756,0,0.174248365156,5100,2018-05-22 19:40:52,13,0,24.956,3089.1965319252,2.952756,0,0.202104009092,0,0,-0.223694,328.9, 0.4, -0.5,0,0,1024,1024,1024,1024,329.6,-89.9,100,4.136,4.136,4.09,4.151,4.144,4.103,12.335,75.2,11,AutoTakeoff,
38.8913003,-120.7648211,3089.1965319252,2.952756,0,0.159641081224,5200,2018-05-22 19:40:52,13,0,24.956,3089.1965319252,2.952756,0,0.202104009092,0,0,-0.223694,328.9, 0.4, -0.5,0,0,1024,1024,1024,1024,329.6,-89.9,100,4.136,4.136,4.09,4.151,4.144,4.103,12.335,75.2,14,Waypoint,
38.8913004,-120.7648212,3089.1965319252,2.952756,0,0.157744099536,5300,2018-05-22 19:40:52,13,0,24.956,3089.1965319252,2.952756,0,0.202104009092,0,0,0,328.8, 0.6, -0.5,0,0,1024,1024,1024,1024,329.6,-89.9,100,4.136,4.136,4.09,4.151,4.144,4.103,12.335,75.2,14,Waypoint,
38.8913004,-120.7648212,3089.5246159252,3.28084,0,0.157744099536,5410,2018-05-22 19:40:52,13,0,24.956,3089.5246159252,3.28084,0,0.202104009092,0,0,0,328.8, 0.9, -0.2,0,0,1024,1024,1024,1024,329.6,-89.9,100,4.136,4.136,4.09,4.151,4.144,4.103,12.335,75.2,14,Waypoint,
38.8913004,-120.7648213,3089.5246159252,3.28084,0,0.138701776092,5500,2018-05-22 19:40:52,12,0,24.956,3089.5246159252,3.28084,0,0.202104009092,0,0,0,328.8, 1.1, -0.1,0,0,1024,1024,1024,1024,329.6,-89.9,100,4.136,4.136,4.09,4.151,4.144,4.103,12.335,75.2,14,Waypoint,
38.8913004,-120.7648213,3089.5246159252,3.28084,0,0.138701776092,5610,2018-05-22 19:40:52,12,0,24.956,3089.5246159252,3.28084,0,0.202104009092,0,0,0,328.8, 1.1, -0.1,0,0,1024,1024,1024,1024,329.6,-89.9,100,4.136,4.136,4.09,4.151,4.144,4.103,12.335,75.2,14,Waypoint,
38.8913005,-120.7648213,3089.8526999252,3.608924,0,0.168985897796,5800,2018-05-22 19:40:52,14,0,24.956,3089.8526999252,3.608924,0,0.202104009092,0,0,0,328.8, 1.1, -0.1,0,0,1024,1024,1024,1024,329.6,-89.9,100,4.136,4.136,4.09,4.151,4.144,4.103,12.335,75.2,14,Waypoint,
38.8913005,-120.7648213,3089.8526999252,3.608924,0,0.168985897796,6000,2018-05-22 19:40:52,14,0,24.508,3089.8526999252,3.608924,0,0.202104009092,0,0,-0.223694,328.8, 0.9, -0.2,0,0,1024,1024,1024,1024,329.6,-89.9,100,4.071,4.081,4.065,4.088,4.091,4.076,15.452,75.2,14,Waypoint,
38.8913005,-120.7648213,3090.1807839252,3.937008,0,0.168985897796,6100,2018-05-22 19:40:53,14,0,24.508,3090.1807839252,3.937008,0,0.202104009092,0,0,-0.223694,328.7, 0.8, -0.4,0,0,1024,1024,1024,1024,329.6,-89.9,100,4.071,4.081,4.065,4.088,4.091,4.076,15.452,75.2,14,Waypoint,
38.8913005,-120.7648213,3090.5088679252,4.265092,0,0.168985897796,6200,2018-05-22 19:40:53,14,0,24.508,3090.5088679252,4.265092,0,0.202104009092,0,0,-0.223694,328.7, 0.6, -0.5,0,0,1024,1024,1024,1024,329.6,-90,100,4.071,4.081,4.065,4.088,4.091,4.076,15.452,75.2,14,Waypoint,
38.8913005,-120.7648213,3090.8369519252,4.593176,0,0.168985897796,6300,2018-05-22 19:40:53,13,0,24.508,3090.8369519252,4.593176,0,0.202104009092,0,0,-0.223694,328.6, 0.5, -0.3,0,0,1024,1024,1024,1024,329.6,-90,100,4.071,4.081,4.065,4.088,4.091,4.076,15.452,75.2,14,Waypoint,
38.8913005,-120.7648213,3091.1650359252,4.92126,0,0.168985897796,6500,2018-05-22 19:40:53,13,0,24.508,3091.1650359252,4.92126,0,0.202104009092,0,0,-0.447388,328.5, 0.5, -0.1,0,0,1024,1024,1024,1024,329.6,-90,100,4.071,4.081,4.065,4.088,4.091,4.076,15.452,75.2,14,Waypoint,
38.8913005,-120.7648213,3091.8212039252,5.577428,0,0.168985897796,6600,2018-05-22 19:40:53,12,0,24.508,3091.8212039252,5.577428,0,0.202104009092,0,0,-0.447388,328.4, 0.5, -0.1,0,0,1024,1024,1024,1024,329.6,-89.9,100,4.071,4.081,4.065,4.088,4.091,4.076,15.452,75.2,14,Waypoint,
38.8913003,-120.7648212,3093.1335399252,6.889764,0,0.135008862588,6800,2018-05-22 19:40:53,14,0,24.508,3093.1335399252,6.889764,0,0.202104009092,0,0,-0.447388,328.4, 0.5, 0,0,0,1024,1024,1024,1024,329.6,-89.9,100,4.071,4.081,4.065,4.088,4.091,4.076,15.452,75.2,14,Waypoint,
38.8912999,-120.7648209,3095.4301279252,9.186352,0,0.211753287616,6910,2018-05-22 19:40:53,11,0,24.508,3095.4301279252,9.186352,0,0.211753287616,0,0,-0.671082,328.9, -0.2, 0.3,0,0,1024,1024,1024,1024,329.6,-90,100,4.071,4.081,4.065,4.088,4.091,4.076,15.452,75.2,14,Waypoint,
38.8913,-120.7648206,3097.7267159252,11.48294,0,0.286310376616,7000,2018-05-22 19:40:53,12,0,24.422,3097.7267159252,11.48294,0,0.286310376616,0,0,-0.671082,329.2, -0.3, 0,0,0,1024,1024,1024,1024,329.6,-89.9,98,4.06,4.072,4.057,4.077,4.079,4.067,15.968,75.2,14,Waypoint,
38.8912999,-120.7648204,3098.7109679252,12.467192,0,0.34849738648,7100,2018-05-22 19:40:54,11,0,24.422,3098.7109679252,12.467192,0,0.34849738648,0,0,-0.671082,329.2, -0.2, -0.2,0,0,1024,1024,1024,1024,329.6,-89.9,98,4.06,4.072,4.057,4.077,4.079,4.067,15.968,75.2,14,Waypoint,
38.8912998,-120.7648202,3099.6952199252,13.451444,0,0.41235893708,7200,2018-05-22 19:40:54,11,0,24.422,3099.6952199252,13.451444,0,0.41235893708,0,0,-0.671082,329.2, -0.2, -0.5,0,0,1024,1024,1024,1024,329.6,-90,98,4.06,4.072,4.057,4.077,4.079,4.067,15.968,75.2,14,Waypoint,
38.8913,-120.7648202,3100.6794719252,14.435696,0,0.39923885792,7300,2018-05-22 19:40:54,16,0,24.422,3100.6794719252,14.435696,0,0.41235893708,0,0,-0.671082,329.1, -0.3, -0.7,0,0,1024,1024,1024,1024,329.6,-89.9,98,4.06,4.072,4.057,4.077,4.079,4.067,15.968,75.2,14,Waypoint,
38.8913002,-120.7648204,3101.9918079252,15.748032,0,0.34271982724,7400,2018-05-22 19:40:54,16,0,24.422,3101.9918079252,15.748032,0,0.41235893708,0,0,-0.671082,329.1, 0, -0.8,0,0,1024,1024,1024,1024,329.6,-89.9,98,4.06,4.072,4.057,4.077,4.079,4.067,15.968,75.2,14,Waypoint,
38.8913004,-120.7648206,3102.9760599252,16.732284,0,0.304340232836,7500,2018-05-22 19:40:54,14,0,24.422,3102.9760599252,16.732284,0,0.41235893708,0,0,-0.671082,329.1, 0.6, -0.7,0,0,1024,1024,1024,1024,329.6,-89.9,98,4.06,4.072,4.057,4.077,4.079,4.067,15.968,75.2,14,Waypoint,
38.8913006,-120.7648208,3104.2883959252,18.04462,0,0.291358933208,7600,2018-05-22 19:40:54,14,0,24.422,3104.2883959252,18.04462,0,0.41235893708,0,0,-0.671082,329.1, 1.4, -0.4,0,0,1024,1024,1024,1024,329.6,-89.9,98,4.06,4.072,4.057,4.077,4.079,4.067,15.968,75.2,14,Waypoint,
38.8913007,-120.7648209,3105.2726479252,19.028872,0,0.295696203688,7700,2018-05-22 19:40:54,14,0,24.422,3105.2726479252,19.028872,0,0.41235893708,0,0,-0.671082,329.1, 2, 0,0,0,1024,1024,1024,1024,329.6,-89.9,98,4.06,4.072,4.057,4.077,4.079,4.067,15.968,75.2,14,Waypoint,
38.8913009,-120.7648211,3107.5692359252,21.32546,0,0.32458334372,7920,2018-05-22 19:40:54,13,0,24.422,3107.5692359252,21.32546,0,0.41235893708,0,0,-0.671082,329, 2.1, 0.1,0,0,1024,1024,1024,1024,329.6,-89.9,98,4.06,4.072,4.057,4.077,4.079,4.067,15.968,75.2,14,Waypoint,
38.8913009,-120.7648211,3108.5534879252,22.309712,0,0.32458334372,8010,2018-05-22 19:40:54,13,0,24.073,3108.5534879252,22.309712,0,0.41235893708,0,0,-0.671082,329, 1.7, 0,0,0,1024,1024,1024,1024,329.6,-89.9,98,3.991,4,3.972,3.999,4.026,3.986,18.925,75.2,14,Waypoint,
38.8913009,-120.7648211,3109.5377399252,23.293964,0,0.32458334372,8110,2018-05-22 19:40:55,13,0,24.073,3109.5377399252,23.293964,0,0.41235893708,0,0,-0.671082,328.9, 1.3, 0,0,0,1024,1024,1024,1024,329.6,-89.9,98,3.991,4,3.972,3.999,4.026,3.986,18.925,75.2,14,Waypoint,
38.891301,-120.7648211,3110.5219919252,24.278216,0,0.35774935528,8300,2018-05-22 19:40:55,13,0,24.073,3110.5219919252,24.278216,0,0.41235893708,0,0,-0.671082,328.9, 1, 0,0,0,1024,1024,1024,1024,329.6,-89.9,98,3.991,4,3.972,3.999,4.026,3.986,18.925,75.2,14,Waypoint,
38.8913011,-120.7648212,3111.8343279252,25.590552,0,0.38212271564,8400,2018-05-22 19:40:55,13,0,24.073,3111.8343279252,25.590552,0,0.41235893708,0,0,-0.671082,328.8, 0.9, 0,0,0,1024,1024,1024,1024,329.6,-89.9,98,3.991,4,3.972,3.999,4.026,3.986,18.925,75.2,14,Waypoint,
38.8913012,-120.7648213,3112.8185799252,26.574804,0,0.41027560368,8600,2018-05-22 19:40:55,13,0,24.073,3112.8185799252,26.574804,0,0.41235893708,0,0,-0.671082,328.8, 0.9, 0,0,0,1024,1024,1024,1024,329.6,-89.9,98,3.991,4,3.972,3.999,4.026,3.986,18.925,75.2,14,Waypoint,
38.8913011,-120.7648214,3113.8028319252,27.559056,0,0.3692421378,8700,2018-05-22 19:40:55,16,0,24.073,3113.8028319252,27.559056,0,0.41235893708,0,0,-0.671082,328.8, 1, 0,0,0,1024,1024,1024,1024,329.6,-89.9,98,3.991,4,3.972,3.999,4.026,3.986,18.925,75.2,14,Waypoint,
38.891301,-120.7648215,3116.0994199252,29.855644,0,0.32958990556,8810,2018-05-22 19:40:55,14,0,24.073,3116.0994199252,29.855644,0,0.41235893708,0,0,-0.671082,328.8, 0.9, 0.3,0,0,1024,1024,1024,1024,329.6,-89.9,98,3.991,4,3.972,3.999,4.026,3.986,18.925,75.2,14,Waypoint,
38.8913011,-120.7648215,3117.0836719252,30.839896,0,0.36595145528,9000,2018-05-22 19:40:55,14,0,23.756,3117.0836719252,30.839896,0,0.41235893708,0,0,-0.671082,328.8, 0.8, 0.4,0,0,1024,1024,1024,1024,329.6,-89.9,98,3.963,3.982,3.951,3.966,3.971,3.974,22.982,75.2,14,Waypoint,
38.891301,-120.7648217,3118.0679239252,31.824148,0,0.32958990556,9100,2018-05-22 19:40:56,14,0,23.756,3118.0679239252,31.824148,0,0.41235893708,0,0,-0.671082,328.8, 0.8, 0.4,0,0,1024,1024,1024,1024,329.6,-89.9,98,3.963,3.982,3.951,3.966,3.971,3.974,22.982,75.2,14,Waypoint,
38.8913009,-120.7648218,3119.0521759252,32.8084,0,0.29735401214,9210,2018-05-22 19:40:56,14,0,23.756,3119.0521759252,32.8084,0,0.41235893708,0,0,-0.671082,328.8, 0.8, 0.6,0,0,1024,1024,1024,1024,329.6,-89.9,98,3.963,3.982,3.951,3.966,3.971,3.974,22.982,75.2,14,Waypoint,
38.8913009,-120.7648218,3121.0206799252,34.776904,0,0.29735401214,9410,2018-05-22 19:40:56,15,0,23.756,3121.0206799252,34.776904,0,0.41235893708,0,0,-0.671082,328.8, 0.6, 0.6,0,0,1024,1024,1024,1024,329.6,-89.9,98,3.963,3.982,3.951,3.966,3.971,3.974,22.982,75.2,14,Waypoint,
38.8913009,-120.7648219,3122.0049319252,35.761156,0,0.30405840868,9510,2018-05-22 19:40:56,15,0,23.756,3122.0049319252,35.761156,0,0.41235893708,0,0,-0.671082,328.8, 0.7, 0.4,0,0,1024,1024,1024,1024,329.6,-89.9,98,3.963,3.982,3.951,3.966,3.971,3.974,22.982,75.2,14,Waypoint,
38.8913009,-120.7648221,3122.9891839252,36.745408,0,0.32458334372,9620,2018-05-22 19:40:56,15,0,23.756,3122.9891839252,36.745408,0,0.41235893708,0,0,-0.671082,328.8, 0.8, 0.4,0,0,1024,1024,1024,1024,329.6,-89.9,98,3.963,3.982,3.951,3.966,3.971,3.974,22.982,75.2,14,Waypoint,
38.8913009,-120.7648221,3123.9734359252,37.72966,0,0.32458334372,9810,2018-05-22 19:40:56,16,0,23.756,3123.9734359252,37.72966,0,0.41235893708,0,0,-0.671082,328.8, 1, 0.6,0,0,1024,1024,1024,1024,329.6,-89.9,98,3.963,3.982,3.951,3.966,3.971,3.974,22.982,75.2,14,Waypoint,
38.8913009,-120.7648221,3125.2857719252,39.041996,0,0.32458334372,9900,2018-05-22 19:40:56,16,0,23.756,3125.2857719252,39.041996,0,0.41235893708,0,0,-0.671082,328.8, 1, 0.7,0,0,1024,1024,1024,1024,329.6,-89.9,98,3.963,3.982,3.951,3.966,3.971,3.974,22.982,75.2,14,Waypoint,
38.8913008,-120.764822,3127.2542759252,41.0105,0,0.27951608506,10000,2018-05-22 19:40:56,16,0,23.982,3127.2542759252,41.0105,0,0.41235893708,0,0,-0.671082,328.8, 0.9, 0.6,0,0,1024,1024,1024,1024,329.6,-89.9,98,3.991,4.016,3.982,4.017,4.019,4.004,18.122,75.2,14,Waypoint,
38.8913007,-120.764822,3130.2070319252,43.963256,0,0.24662566406,10100,2018-05-22 19:40:57,16,0,23.982,3130.2070319252,43.963256,0,0.41235893708,0,0,-0.671082,328.8, 0.5, 0.2,0,0,1024,1024,1024,1024,329.6,-89.9,98,3.991,4.016,3.982,4.017,4.019,4.004,18.122,75.2,14,Waypoint,
38.8913007,-120.7648218,3132.1755359252,45.93176,0,0.226157159468,10300,2018-05-22 19:40:57,17,0,23.982,3132.1755359252,45.93176,0,0.41235893708,0,0,-0.671082,328.7, 0.4, 0.1,0,0,1024,1024,1024,1024,329.6,-89.9,98,3.991,4.016,3.982,4.017,4.019,4.004,18.122,75.2,14,Waypoint,
38.8913006,-120.7648217,3134.1440399252,47.900264,0,0.184621725068,10500,2018-05-22 19:40:57,17,0,23.982,3134.1440399252,47.900264,0,0.41235893708,0,0,-0.671082,328.7, 0.4, 0,0,0,1024,1024,1024,1024,329.6,-89.9,98,3.991,4.016,3.982,4.017,4.019,4.004,18.122,75.2,14,Waypoint,
38.8913006,-120.7648216,3135.4563759252,49.2126,0,0.18242454652,10600,2018-05-22 19:40:57,17,0,23.982,3135.4563759252,49.2126,0,0.41235893708,0,0,-0.671082,328.6, 0.4, -0.1,0,0,1024,1024,1024,1024,329.6,-89.9,98,3.991,4.016,3.982,4.017,4.019,4.004,18.122,75.2,14,Waypoint,
38.8913006,-120.7648216,3136.1125439252,49.868768,0,0.18242454652,10700,2018-05-22 19:40:57,18,0,23.982,3136.1125439252,49.868768,0,0.41235893708,0,0,-0.671082,328.7, 0.4, 0,0,0,1024,1024,1024,1024,329.6,-89.9,98,3.991,4.016,3.982,4.017,4.019,4.004,18.122,75.2,14,Waypoint,
38.8913006,-120.7648215,3137.0967959252,50.85302,0,0.184621725068,10800,2018-05-22 19:40:57,18,0,23.982,3137.0967959252,50.85302,0,0.41235893708,0,0,-0.671082,328.7, 0.4, 0,0,0,1024,1024,1024,1024,329.6,-89.9,98,3.991,4.016,3.982,4.017,4.019,4.004,18.122,75.2,14,Waypoint,
38.8913006,-120.7648215,3138.4091319252,52.165356,0,0.184621725068,10910,2018-05-22 19:40:57,18,0,23.982,3138.4091319252,52.165356,0,0.41235893708,0,0,-0.671082,328.8, 0.4, 0,0,0,1024,1024,1024,1024,329.6,-89.9,98,3.991,4.016,3.982,4.017,4.019,4.004,18.122,75.2,14,Waypoint,
38.8913005,-120.7648215,3139.0652999252,52.821524,0,0.148676842028,11000,2018-05-22 19:40:57,18,0,24.014,3139.0652999252,52.821524,0,0.41235893708,0,0,-0.671082,328.9, 0.3, 0,0,0,1024,1024,1024,1024,329.6,-90,98,3.995,4.005,3.991,4.013,4.02,3.999,18.203,75.2,14,Waypoint,
38.8913005,-120.7648215,3141.0338039252,54.790028,0,0.148676842028,11100,2018-05-22 19:40:58,19,0,24.014,3141.0338039252,54.790028,0,0.41235893708,0,0,-0.671082,328.9, 0.3, 0.1,0,0,1024,1024,1024,1024,329.6,-89.9,98,3.995,4.005,3.991,4.013,4.02,3.999,18.203,75.2,14,Waypoint,
38.8913004,-120.7648213,3143.0023079252,56.758532,0,0.138701776092,11300,2018-05-22 19:40:58,19,0,24.014,3143.0023079252,56.758532,0,0.41235893708,0,0,-0.671082,328.8, 0.3, 0,0,0,1024,1024,1024,1024,329.6,-89.9,98,3.995,4.005,3.991,4.013,4.02,3.999,18.203,75.2,14,Waypoint,
38.8913004,-120.7648212,3143.9865599252,57.742784,0,0.157744099536,11400,2018-05-22 19:40:58,18,0,24.014,3143.9865599252,57.742784,0,0.41235893708,0,0,-0.671082,328.8, 0.2, 0,0,0,1024,1024,1024,1024,329.6,-90,98,3.995,4.005,3.991,4.013,4.02,3.999,18.203,75.2,14,Waypoint,
38.8913004,-120.7648211,3144.9708119252,58.727036,0,0.179279205212,11600,2018-05-22 19:40:58,18,0,24.014,3144.9708119252,58.727036,0,0.41235893708,0,0,-0.671082,328.8, 0.2, -0.2,0,0,1024,1024,1024,1024,329.6,-90,98,3.995,4.005,3.991,4.013,4.02,3.999,18.203,75.2,14,Waypoint,
38.8913003,-120.7648211,3145.9550639252,59.711288,0,0.159641081224,11700,2018-05-22 19:40:58,20,0,24.014,3145.9550639252,59.711288,0,0.41235893708,0,0,-0.671082,328.8, 0, -0.2,0,0,1024,1024,1024,1024,329.6,-90,98,3.995,4.005,3.991,4.013,4.02,3.999,18.203,75.2,14,Waypoint,
38.8913002,-120.7648211,3146.9393159252,60.69554,0,0.146600726476,11800,2018-05-22 19:40:58,20,0,24.014,3146.9393159252,60.69554,0,0.41235893708,0,0,-0.671082,328.8, 0, -0.1,0,0,1024,1024,1024,1024,329.6,-90,98,3.995,4.005,3.991,4.013,4.02,3.999,18.203,75.2,14,Waypoint,
38.8913002,-120.7648211,3147.9235679252,61.679792,0,0.146600726476,11900,2018-05-22 19:40:58,19,0,24.014,3147.9235679252,61.679792,0,0.41235893708,0,0,-0.671082,328.8, -0.1, 0,0,0,1024,1024,1024,1024,329.6,-90,98,3.995,4.005,3.991,4.013,4.02,3.999,18.203,75.2,14,Waypoint,
38.8913001,-120.764821,3148.9078199252,62.664044,0,0.170385832224,12000,2018-05-22 19:40:58,19,0,24.009,3148.9078199252,62.664044,0,0.41235893708,0,0,-0.671082,328.8, 0, 0.2,0,0,1024,1024,1024,1024,329.6,-90,98,3.998,4.007,3.987,4.009,4.017,3.989,17.989,75.2,14,Waypoint,
38.8913001,-120.764821,3149.8920719252,63.648296,0,0.170385832224,12100,2018-05-22 19:40:59,20,0,24.009,3149.8920719252,63.648296,0,0.41235893708,0,0,-0.671082,328.9, 0, 0.2,0,0,1024,1024,1024,1024,329.6,-89.9,98,3.998,4.007,3.987,4.009,4.017,3.989,17.989,75.2,14,Waypoint,
38.8913001,-120.7648209,3150.8763239252,64.632548,0,0.198783470928,12200,2018-05-22 19:40:59,20,0,24.009,3150.8763239252,64.632548,0,0.41235893708,0,0,-0.671082,328.9, 0, 0.2,0,0,1024,1024,1024,1024,329.6,-90,98,3.998,4.007,3.987,4.009,4.017,3.989,17.989,75.2,14,Waypoint,
38.8913,-120.7648208,3151.8605759252,65.6168,0,0.230092198964,12300,2018-05-22 19:40:59,20,0,24.009,3151.8605759252,65.6168,0,0.41235893708,0,0,-0.671082,328.9, 0, 0,0,0,1024,1024,1024,1024,329.6,-89.9,98,3.998,4.007,3.987,4.009,4.017,3.989,17.989,75.2,14,Waypoint,
38.8913,-120.7648208,3152.8448279252,66.601052,0,0.230092198964,12400,2018-05-22 19:40:59,20,0,24.009,3152.8448279252,66.601052,0,0.41235893708,0,0,-0.671082,328.9, 0, 0,0,0,1024,1024,1024,1024,329.6,-89.9,98,3.998,4.007,3.987,4.009,4.017,3.989,17.989,75.2,14,Waypoint,
38.8913,-120.7648208,3153.8290799252,67.585304,0,0.230092198964,12500,2018-05-22 19:40:59,21,0,24.009,3153.8290799252,67.585304,0,0.41235893708,0,0,-0.671082,328.9, 0, -0.1,0,0,1024,1024,1024,1024,329.6,-89.9,98,3.998,4.007,3.987,4.009,4.017,3.989,17.989,75.2,14,Waypoint,
38.8913,-120.7648207,3154.8133319252,68.569556,0,0.258169627684,12600,2018-05-22 19:40:59,21,0,24.009,3154.8133319252,68.569556,0,0.41235893708,0,0,-0.671082,328.8, 0, -0.2,0,0,1024,1024,1024,1024,329.6,-89.9,98,3.998,4.007,3.987,4.009,4.017,3.989,17.989,75.2,14,Waypoint,
38.8912999,-120.7648207,3155.7975839252,69.553808,0,0.265791347088,12700,2018-05-22 19:40:59,19,0,24.009,3155.7975839252,69.553808,0,0.41235893708,0,0,-0.671082,328.8, 0, -0.3,0,0,1024,1024,1024,1024,329.6,-89.9,98,3.998,4.007,3.987,4.009,4.017,3.989,17.989,75.2,14,Waypoint,
38.8912999,-120.7648206,3156.7818359252,70.53806,0,0.293201452952,12800,2018-05-22 19:40:59,19,0,24.009,3156.7818359252,70.53806,0,0.41235893708,0,0,-0.671082,328.8, 0, -0.3,0,0,1024,1024,1024,1024,329.6,-90,98,3.998,4.007,3.987,4.009,4.017,3.989,17.989,75.2,14,Waypoint,
38.8912999,-120.7648205,3157.7660879252,71.522312,0,0.320783474832,12900,2018-05-22 19:40:59,20,0,24.009,3157.7660879252,71.522312,0,0.41235893708,0,0,-0.671082,328.8, -0.2, -0.5,0,0,1024,1024,1024,1024,329.6,-90,98,3.998,4.007,3.987,4.009,4.017,3.989,17.989,75.2,14,Waypoint,
38.8912999,-120.7648204,3159.7345919252,73.490816,0,0.34849738648,13100,2018-05-22 19:41:00,20,0,24.009,3159.7345919252,73.490816,0,0.41235893708,0,0,-0.671082,328.7, -0.1, -0.6,0,0,1024,1024,1024,1024,329.6,-89.9,98,3.998,4.007,3.987,4.009,4.017,3.989,17.989,75.2,14,Waypoint,
38.8913,-120.7648203,3161.7030959252,75.45932,0,0.37096785964,13210,2018-05-22 19:41:00,21,0,24.009,3161.7030959252,75.45932,0,0.41235893708,0,0,-0.671082,328.4, -0.1, -1,0,0,1024,1024,1024,1024,329.6,-89.9,98,3.998,4.007,3.987,4.009,4.017,3.989,17.989,75.2,14,Waypoint,
38.8913001,-120.7648203,3163.6715999252,77.427824,0,0.36916995932,13500,2018-05-22 19:41:00,21,0,24.009,3163.6715999252,77.427824,0,0.41235893708,0,0,-0.671082,328.2, 0.6, -0.9,0,0,1024,1024,1024,1024,329.6,-89.9,98,3.998,4.007,3.987,4.009,4.017,3.989,17.989,75.2,14,Waypoint,
38.8913001,-120.7648203,3164.3277679252,78.083992,0,0.36916995932,13600,2018-05-22 19:41:00,21,0,24.009,3164.3277679252,78.083992,0,0.41235893708,0,0,-0.671082,328.3, 1.1, -0.8,0,0,1024,1024,1024,1024,329.6,-89.9,98,3.998,4.007,3.987,4.009,4.017,3.989,17.989,75.2,14,Waypoint,
38.8913002,-120.7648203,3165.3120199252,79.068244,0,0.37096785964,13700,2018-05-22 19:41:00,21,0,24.009,3165.3120199252,79.068244,0,0.41235893708,0,0,-0.671082,328.5, 1.3, -0.5,0,0,1024,1024,1024,1024,329.6,-89.9,98,3.998,4.007,3.987,4.009,4.017,3.989,17.989,75.2,14,Waypoint,
38.8913002,-120.7648203,3166.2962719252,80.052496,0,0.37096785964,13800,2018-05-22 19:41:00,21,0,24.009,3166.2962719252,80.052496,0,0.41235893708,0,0,-0.671082,328.7, 1.4, -0.2,0,0,1024,1024,1024,1024,329.6,-89.9,98,3.998,4.007,3.987,4.009,4.017,3.989,17.989,75.2,14,Waypoint,
38.8913002,-120.7648204,3168.2647759252,82.021,0,0.34271982724,14000,2018-05-22 19:41:00,21,0,23.955,3168.2647759252,82.021,0,0.41235893708,0,0,-0.671082,329.1, 1.2, -0.2,0,0,1024,1024,1024,1024,329.6,-89.9,98,3.981,3.997,3.979,4.003,4.017,3.988,18.181,75.2,14,Waypoint,
38.8913002,-120.7648205,3169.5771119252,83.333336,0,0.314497385392,14100,2018-05-22 19:41:01,21,0,23.955,3169.5771119252,83.333336,0,0.41235893708,0,0,-0.671082,329.1, 1.3, -0.2,0,0,1024,1024,1024,1024,329.6,-89.9,98,3.981,3.997,3.979,4.003,4.017,3.988,18.181,75.2,14,Waypoint,
38.8913003,-120.7648205,3171.5456159252,85.30184,0,0.320783474832,14300,2018-05-22 19:41:01,21,0,23.955,3171.5456159252,85.30184,0,0.41235893708,0,0,-0.671082,328.8, 1.3, 0,0,0,1024,1024,1024,1024,329.6,-89.9,98,3.981,3.997,3.979,4.003,4.017,3.988,18.181,75.2,14,Waypoint,
38.8913003,-120.7648204,3172.5298679252,86.286092,0,0.34849738648,14400,2018-05-22 19:41:01,21,0,23.955,3172.5298679252,86.286092,0,0.41235893708,0,0,-0.671082,328.7, 1.2, -0.2,0,0,1024,1024,1024,1024,329.6,-89.9,98,3.981,3.997,3.979,4.003,4.017,3.988,18.181,75.2,14,Waypoint,
38.8913003,-120.7648203,3173.5141199252,87.270344,0,0.376312348,14500,2018-05-22 19:41:01,21,0,23.955,3173.5141199252,87.270344,0,0.41235893708,0,0,-0.671082,328.6, 1.1, -0.4,0,0,1024,1024,1024,1024,329.6,-89.9,98,3.981,3.997,3.979,4.003,4.017,3.988,18.181,75.2,14,Waypoint,
38.8913003,-120.7648202,3174.4983719252,88.254596,0,0.40420933052,14600,2018-05-22 19:41:01,21,0,23.955,3174.4983719252,88.254596,0,0.41235893708,0,0,-0.671082,328.7, 1, -1,0,0,1024,1024,1024,1024,329.6,-89.9,98,3.981,3.997,3.979,4.003,4.017,3.988,18.181,75.2,14,Waypoint,
38.8913004,-120.7648201,3176.7949599252,90.551184,0,0.43980316368,14800,2018-05-22 19:41:01,21,0,23.955,3176.7949599252,90.551184,0,0.43980316368,0,0,-0.671082,328.8, 0.3, -1.6,0,0,1024,1024,1024,1024,329.6,-90,98,3.981,3.997,3.979,4.003,4.017,3.988,18.181,75.2,14,Waypoint,
38.8913003,-120.7648199,3178.7634639252,92.519688,0,0.48824476628,15010,2018-05-22 19:41:01,21,0,23.863,3178.7634639252,92.519688,0,0.48824476628,0,0,-0.671082,328.9, 0, -1.8,0,0,1024,1024,1024,1024,329.6,-90,98,3.984,3.997,3.979,4.004,4,3.984,19.045,75.2,14,Waypoint,
38.8913003,-120.7648197,3179.7477159252,93.50394,0,0.54446852136,15100,2018-05-22 19:41:02,21,0,23.863,3179.7477159252,93.50394,0,0.54446852136,0,0,-0.671082,328.9, -0.1, -1.8,0,0,1024,1024,1024,1024,329.6,-90,98,3.984,3.997,3.979,4.004,4,3.984,19.045,75.2,14,Waypoint,
38.8913003,-120.7648196,3180.7319679252,94.488192,0,0.5726214094,15210,2018-05-22 19:41:02,21,0,23.863,3180.7319679252,94.488192,0,0.5726214094,0,0,-0.671082,329, -0.3, -1.7,0,0,1024,1024,1024,1024,329.6,-90,98,3.984,3.997,3.979,4.004,4,3.984,19.045,75.2,14,Waypoint,
38.8913003,-120.7648196,3181.7162199252,95.472444,0,0.5726214094,15400,2018-05-22 19:41:02,21,0,23.863,3181.7162199252,95.472444,0,0.5726214094,0,0,-0.671082,329, -0.5, -1.5,0,0,1024,1024,1024,1024,329.6,-90,98,3.984,3.997,3.979,4.004,4,3.984,19.045,75.2,14,Waypoint,
38.8913003,-120.7648195,3183.6847239252,97.440948,0,0.60079726332,15530,2018-05-22 19:41:02,21,0,23.863,3183.6847239252,97.440948,0,0.60079726332,0,0,-0.671082,329.1, -0.1, -1,0,0,1024,1024,1024,1024,329.6,-89.9,98,3.984,3.997,3.979,4.004,4,3.984,19.045,75.2,14,Waypoint,
38.8913003,-120.7648195,3183.6847239252,97.440948,0,0.60079726332,15610,2018-05-22 19:41:02,21,0,23.863,3183.6847239252,97.440948,0,0.60079726332,0,0,-0.671082,329.1, -0.1, -1,0,0,1024,1024,1024,1024,329.6,-89.9,98,3.984,3.997,3.979,4.004,4,3.984,19.045,75.2,14,Waypoint,
38.8913002,-120.7648194,3185.6532279252,99.409452,0,0.62581366832,15710,2018-05-22 19:41:02,21,0,23.863,3185.6532279252,99.409452,0,0.62581366832,0,0,-0.671082,329.1, 0, -1,0,0,1024,1024,1024,1024,329.6,-90,98,3.984,3.997,3.979,4.004,4,3.984,19.045,75.2,14,Waypoint,
38.8913001,-120.7648193,3188.6059839252,102.362208,0,0.65314634636,16020,2018-05-22 19:41:02,21,0,23.863,3188.6059839252,102.362208,0,0.65314634636,0,0,-0.671082,328.9, -0.4, -1.1,0,0,1024,1024,1024,1024,329.6,-90,98,3.971,3.976,3.961,3.992,3.998,3.971,19.045,77,14,Waypoint,
38.8913001,-120.7648193,3188.6059839252,102.362208,0,0.65314634636,16110,2018-05-22 19:41:03,21,0,23.863,3188.6059839252,102.362208,0,0.65314634636,0,0,-0.671082,328.9, -0.4, -1.1,0,0,1024,1024,1024,1024,329.6,-90,98,3.971,3.976,3.961,3.992,3.998,3.971,19.045,77,14,Waypoint,
38.8913001,-120.7648193,3189.2621519252,103.018376,0,0.65314634636,16210,2018-05-22 19:41:03,21,0,23.863,3189.2621519252,103.018376,0,0.65314634636,0,0,-0.671082,328.9, -0.6, -1.1,0,0,1024,1024,1024,1024,329.6,-90,98,3.971,3.976,3.961,3.992,3.998,3.971,19.045,77,14,Waypoint,
38.8913,-120.7648192,3190.2464039252,104.002628,0,0.68251970688,16300,2018-05-22 19:41:03,21,0,23.863,3190.2464039252,104.002628,0,0.68251970688,0,0,-0.671082,329, -0.7, -1.1,0,0,1024,1024,1024,1024,329.6,-90,98,3.971,3.976,3.961,3.992,3.998,3.971,19.045,77,14,Waypoint,
38.8913,-120.7648192,3191.2306559252,104.98688,0,0.68251970688,16410,2018-05-22 19:41:03,21,0,23.863,3191.2306559252,104.98688,0,0.68251970688,0,0,-0.671082,329, -0.8, -0.9,0,0,1024,1024,1024,1024,329.6,-90,98,3.971,3.976,3.961,3.992,3.998,3.971,19.045,77,14,Waypoint,
38.8912999,-120.7648191,3192.2149079252,105.971132,0,0.7136811252,16510,2018-05-22 19:41:03,21,0,23.863,3192.2149079252,105.971132,0,0.7136811252,0,0,-0.671082,328.9, -0.9, -1,0,0,1024,1024,1024,1024,329.6,-89.9,98,3.971,3.976,3.961,3.992,3.998,3.971,19.045,77,14,Waypoint,
38.8912999,-120.7648191,3193.1991599252,106.955384,0,0.7136811252,16710,2018-05-22 19:41:03,21,0,23.863,3193.1991599252,106.955384,0,0.7136811252,0,0,-0.671082,328.9, -0.9, -1.1,0,0,1024,1024,1024,1024,329.6,-89.9,98,3.971,3.976,3.961,3.992,3.998,3.971,19.045,77,14,Waypoint,
38.8912998,-120.7648191,3195.1676639252,108.923888,0,0.71833007548,16910,2018-05-22 19:41:03,21,0,23.863,3195.1676639252,108.923888,0,0.71833007548,0,0,-0.671082,328.9, -0.8, -1.2,0,0,1024,1024,1024,1024,329.6,-89.9,98,3.971,3.976,3.961,3.992,3.998,3.971,19.045,77,14,Waypoint,
38.8912999,-120.7648191,3196.1519159252,109.90814,0,0.7136811252,17020,2018-05-22 19:41:03,21,0,23.931,3196.1519159252,109.90814,0,0.71833007548,0,0,-0.671082,328.9, -0.6, -1.3,0,0,1024,1024,1024,1024,329.6,-89.9,98,3.985,3.994,3.963,4.006,4.004,3.974,17.439,77,14,Waypoint,
38.8912999,-120.7648191,3196.1519159252,109.90814,0,0.7136811252,17100,2018-05-22 19:41:04,21,0,23.931,3196.1519159252,109.90814,0,0.71833007548,0,0,-0.671082,328.9, -0.6, -1.3,0,0,1024,1024,1024,1024,329.6,-89.9,98,3.985,3.994,3.963,4.006,4.004,3.974,17.439,77,14,Waypoint,
38.8912998,-120.7648191,3198.1204199252,111.876644,0,0.71833007548,17210,2018-05-22 19:41:04,21,0,23.931,3198.1204199252,111.876644,0,0.71833007548,0,0,-0.671082,328.8, -0.4, -1.2,0,0,1024,1024,1024,1024,329.6,-89.9,98,3.985,3.994,3.963,4.006,4.004,3.974,17.439,77,14,Waypoint,
38.8912998,-120.7648191,3200.0889239252,113.845148,0,0.71833007548,17500,2018-05-22 19:41:04,21,0,23.931,3200.0889239252,113.845148,0,0.71833007548,0,0,-0.671082,328.8, -0.5, -1,0,0,1024,1024,1024,1024,329.6,-90,98,3.985,3.994,3.963,4.006,4.004,3.974,17.439,77,14,Waypoint,
38.8912997,-120.7648191,3202.7135959252,116.46982,0,0.7247867686,17620,2018-05-22 19:41:04,21,0,23.931,3202.7135959252,116.46982,0,0.7247867686,0,0,-0.671082,328.9, -1, -1,0,0,1024,1024,1024,1024,329.6,-89.9,98,3.985,3.994,3.963,4.006,4.004,3.974,17.439,77,14,Waypoint,
38.8912997,-120.7648191,3202.7135959252,116.46982,0,0.7247867686,17710,2018-05-22 19:41:04,21,0,23.931,3202.7135959252,116.46982,0,0.7247867686,0,0,-0.671082,328.9, -1, -1,0,0,1024,1024,1024,1024,329.6,-89.9,98,3.985,3.994,3.963,4.006,4.004,3.974,17.439,77,14,Waypoint,
38.8912996,-120.7648191,3206.9786879252,120.734912,0,0.7330052728,18000,2018-05-22 19:41:04,21,0,23.867,3206.9786879252,120.734912,0,0.7330052728,0,0,-0.671082,329, -0.8, -1.4,0,0,1024,1024,1024,1024,329.6,-90,98,3.965,3.983,3.96,3.986,3.999,3.967,17.86,77,14,Waypoint,
38.8912996,-120.7648191,3208.9471919252,122.703416,0,0.7330052728,18100,2018-05-22 19:41:05,21,0,23.867,3208.9471919252,122.703416,0,0.7330052728,0,0,-0.671082,328.9, -1, -1.2,0,0,1024,1024,1024,1024,329.6,-90,98,3.965,3.983,3.96,3.986,3.999,3.967,17.86,77,14,Waypoint,
38.8912995,-120.7648191,3209.9314439252,123.687668,0,0.74292653296,18200,2018-05-22 19:41:05,21,0,23.867,3209.9314439252,123.687668,0,0.74292653296,0,0,-0.671082,328.8, -1.1, -1.1,0,0,1024,1024,1024,1024,329.6,-89.9,98,3.965,3.983,3.96,3.986,3.999,3.967,17.86,77,14,Waypoint,
38.8912995,-120.7648191,3210.9156959252,124.67192,0,0.74292653296,18300,2018-05-22 19:41:05,21,0,23.867,3210.9156959252,124.67192,0,0.74292653296,0,0,-0.671082,328.7, -1.3, -1.1,0,0,1024,1024,1024,1024,329.6,-90,98,3.965,3.983,3.96,3.986,3.999,3.967,17.86,77,14,Waypoint,
38.8912995,-120.7648191,3211.8999479252,125.656172,0,0.74292653296,18400,2018-05-22 19:41:05,21,0,23.867,3211.8999479252,125.656172,0,0.74292653296,0,0,-0.671082,328.7, -1.3, -1.3,0,0,1024,1024,1024,1024,329.6,-90,98,3.965,3.983,3.96,3.986,3.999,3.967,17.86,77,14,Waypoint,
38.8912995,-120.7648191,3212.8841999252,126.640424,0,0.74292653296,18500,2018-05-22 19:41:05,21,0,23.867,3212.8841999252,126.640424,0,0.74292653296,0,0,-0.671082,328.7, -1.2, -1.5,0,0,1024,1024,1024,1024,329.6,-89.9,98,3.965,3.983,3.96,3.986,3.999,3.967,17.86,77,14,Waypoint,
38.8912995,-120.764819,3213.8684519252,127.624676,0,0.77010829236,18600,2018-05-22 19:41:05,21,0,23.867,3213.8684519252,127.624676,0,0.77010829236,0,0,-0.671082,328.7, -1.1, -1.7,0,0,1024,1024,1024,1024,329.6,-89.9,98,3.965,3.983,3.96,3.986,3.999,3.967,17.86,77,14,Waypoint,
38.8912995,-120.7648191,3214.8527039252,128.608928,0,0.74292653296,18700,2018-05-22 19:41:05,21,0,23.867,3214.8527039252,128.608928,0,0.77010829236,0,0,-0.671082,328.7, -1.1, -1.6,0,0,1024,1024,1024,1024,329.6,-90,98,3.965,3.983,3.96,3.986,3.999,3.967,17.86,77,14,Waypoint,
38.8912995,-120.7648191,3215.8369559252,129.59318,0,0.74292653296,18800,2018-05-22 19:41:05,21,0,23.867,3215.8369559252,129.59318,0,0.77010829236,0,0,-0.671082,328.6, -1.2, -1.5,0,0,1024,1024,1024,1024,329.6,-89.9,98,3.965,3.983,3.96,3.986,3.999,3.967,17.86,77,14,Waypoint,
38.8912994,-120.7648191,3216.8212079252,130.577432,0,0.75448165144,18900,2018-05-22 19:41:05,21,0,23.867,3216.8212079252,130.577432,0,0.77010829236,0,0,-0.671082,328.6, -1.2, -1.4,0,0,1024,1024,1024,1024,329.6,-89.9,98,3.965,3.983,3.96,3.986,3.999,3.967,17.86,77,14,Waypoint,
38.8912994,-120.7648191,3217.8054599252,131.561684,0,0.75448165144,19000,2018-05-22 19:41:05,21,0,23.851,3217.8054599252,131.561684,0,0.77010829236,0,0,-0.671082,328.6, -1.2, -1.4,0,0,1024,1024,1024,1024,329.6,-89.9,97,3.963,3.974,3.958,3.979,3.988,3.97,18.051,77,14,Waypoint,
38.8912994,-120.7648191,3218.7897119252,132.545936,0,0.75448165144,19100,2018-05-22 19:41:06,21,0,23.851,3218.7897119252,132.545936,0,0.77010829236,0,0,-0.671082,328.7, -1.3, -1.3,0,0,1024,1024,1024,1024,329.6,-89.9,97,3.963,3.974,3.958,3.979,3.988,3.97,18.051,77,14,Waypoint,
38.8912995,-120.7648191,3219.7739639252,133.530188,0,0.74292653296,19200,2018-05-22 19:41:06,21,0,23.851,3219.7739639252,133.530188,0,0.77010829236,0,0,-0.671082,328.8, -1.3, -1.3,0,0,1024,1024,1024,1024,329.6,-89.9,97,3.963,3.974,3.958,3.979,3.988,3.97,18.051,77,14,Waypoint,
38.8912995,-120.7648192,3220.7582159252,134.51444,0,0.71583663708,19300,2018-05-22 19:41:06,21,0,23.851,3220.7582159252,134.51444,0,0.77010829236,0,0,-0.671082,328.9, -1.2, -1.3,0,0,1024,1024,1024,1024,329.6,-89.9,97,3.963,3.974,3.958,3.979,3.988,3.97,18.051,77,14,Waypoint,
38.8912994,-120.7648192,3221.7424679252,135.498692,0,0.72782482644,19400,2018-05-22 19:41:06,21,0,23.851,3221.7424679252,135.498692,0,0.77010829236,0,0,-0.671082,328.9, -1.1, -1,0,0,1024,1024,1024,1024,329.6,-89.9,97,3.963,3.974,3.958,3.979,3.988,3.97,18.051,77,14,Waypoint,
38.8912994,-120.7648192,3222.7267199252,136.482944,0,0.72782482644,19500,2018-05-22 19:41:06,21,0,23.851,3222.7267199252,136.482944,0,0.77010829236,0,0,-0.671082,328.9, -1.1, -0.8,0,0,1024,1024,1024,1024,329.6,-89.9,97,3.963,3.974,3.958,3.979,3.988,3.97,18.051,77,14,Waypoint,
38.8912994,-120.7648193,3223.7109719252,137.467196,0,0.70130251588,19600,2018-05-22 19:41:06,21,0,23.851,3223.7109719252,137.467196,0,0.77010829236,0,0,-0.671082,328.8, -1.1, -0.7,0,0,1024,1024,1024,1024,329.6,-89.9,97,3.963,3.974,3.958,3.979,3.988,3.97,18.051,77,14,Waypoint,
38.8912995,-120.7648193,3224.6952239252,138.451448,0,0.68885500892,19700,2018-05-22 19:41:06,21,0,23.851,3224.6952239252,138.451448,0,0.77010829236,0,0,-0.671082,328.9, -1, -0.9,0,0,1024,1024,1024,1024,329.6,-89.9,97,3.963,3.974,3.958,3.979,3.988,3.97,18.051,77,14,Waypoint,
38.8912995,-120.7648193,3225.6794759252,139.4357,0,0.68885500892,19800,2018-05-22 19:41:06,21,0,23.851,3225.6794759252,139.4357,0,0.77010829236,0,0,-0.671082,328.9, -0.9, -1.4,0,0,1024,1024,1024,1024,329.6,-89.9,97,3.963,3.974,3.958,3.979,3.988,3.97,18.051,77,14,Waypoint,
38.8912995,-120.7648194,3227.6479799252,141.404204,0,0.661991491,19910,2018-05-22 19:41:06,21,0,23.851,3227.6479799252,141.404204,0,0.77010829236,0,0,-0.671082,329, -0.8, -1.5,0,0,1024,1024,1024,1024,329.6,-89.9,97,3.963,3.974,3.958,3.979,3.988,3.97,18.051,77,14,Waypoint,
38.8912996,-120.7648194,3228.6322319252,142.388456,0,0.650836635,20010,2018-05-22 19:41:06,21,0,23.796,3228.6322319252,142.388456,0,0.77010829236,0,0,-0.671082,328.9, -0.6, -1.5,0,0,1024,1024,1024,1024,329.6,-89.9,97,3.963,3.969,3.954,3.974,3.985,3.964,18.367,77,14,Waypoint,
38.8912996,-120.7648194,3228.6322319252,142.388456,0,0.650836635,20100,2018-05-22 19:41:07,21,0,23.796,3228.6322319252,142.388456,0,0.77010829236,0,0,-0.671082,328.9, -0.6, -1.5,0,0,1024,1024,1024,1024,329.6,-89.9,97,3.963,3.969,3.954,3.974,3.985,3.964,18.367,77,14,Waypoint,
38.8912997,-120.7648194,3230.6007359252,144.35696,0,0.641568262,20300,2018-05-22 19:41:07,21,0,23.796,3230.6007359252,144.35696,0,0.77010829236,0,0,-0.671082,328.9, -0.3, -1.5,0,0,1024,1024,1024,1024,329.6,-89.9,97,3.963,3.969,3.954,3.974,3.985,3.964,18.367,77,14,Waypoint,
38.8912997,-120.7648194,3231.5849879252,145.341212,0,0.641568262,20400,2018-05-22 19:41:07,21,0,23.796,3231.5849879252,145.341212,0,0.77010829236,0,0,-0.671082,328.9, -0.4, -1.4,0,0,1024,1024,1024,1024,329.6,-89.9,97,3.963,3.969,3.954,3.974,3.985,3.964,18.367,77,14,Waypoint,
38.8912997,-120.7648194,3233.5534919252,147.309716,0,0.641568262,20500,2018-05-22 19:41:07,21,0,23.796,3233.5534919252,147.309716,0,0.77010829236,0,0,-0.671082,328.9, -0.7, -1.6,0,0,1024,1024,1024,1024,329.6,-89.9,97,3.963,3.969,3.954,3.974,3.985,3.964,18.367,77,14,Waypoint,
38.8912997,-120.7648194,3234.5377439252,148.293968,0,0.641568262,20700,2018-05-22 19:41:07,21,0,23.796,3234.5377439252,148.293968,0,0.77010829236,0,0,-0.671082,328.9, -0.9, -1.7,0,0,1024,1024,1024,1024,329.6,-89.9,97,3.963,3.969,3.954,3.974,3.985,3.964,18.367,77,14,Waypoint,
38.8912997,-120.7648194,3235.5219959252,149.27822,0,0.641568262,20800,2018-05-22 19:41:07,21,0,23.796,3235.5219959252,149.27822,0,0.77010829236,0,0,-0.671082,329, -1.1, -1.9,0,0,1024,1024,1024,1024,329.6,-90,97,3.963,3.969,3.954,3.974,3.985,3.964,18.367,77,14,Waypoint,
38.8912997,-120.7648193,3236.5062479252,150.262472,0,0.66925198992,20900,2018-05-22 19:41:07,21,0,23.796,3236.5062479252,150.262472,0,0.77010829236,0,0,-0.671082,329, -1.1, -1.8,0,0,1024,1024,1024,1024,329.6,-89.9,97,3.963,3.969,3.954,3.974,3.985,3.964,18.367,77,14,Waypoint,
38.8912997,-120.7648193,3237.4904999252,151.246724,0,0.66925198992,21000,2018-05-22 19:41:07,21,0,23.763,3237.4904999252,151.246724,0,0.77010829236,0,0,-0.671082,329.1, -1.1, -1.6,0,0,1024,1024,1024,1024,329.6,-89.9,97,3.949,3.966,3.94,3.972,3.976,3.959,18.648,77,14,Waypoint,
38.8912997,-120.7648194,3239.4590039252,153.215228,0,0.641568262,21200,2018-05-22 19:41:08,21,0,23.763,3239.4590039252,153.215228,0,0.77010829236,0,0,-0.671082,329.1, -1.1, -1.3,0,0,1024,1024,1024,1024,329.6,-89.9,97,3.949,3.966,3.94,3.972,3.976,3.959,18.648,77,14,Waypoint,
38.8912996,-120.7648194,3241.4275079252,155.183732,0,0.650836635,21400,2018-05-22 19:41:08,21,0,23.763,3241.4275079252,155.183732,0,0.77010829236,0,0,-0.671082,328.9, -1.1, -1,0,0,1024,1024,1024,1024,329.6,-89.9,97,3.949,3.966,3.94,3.972,3.976,3.959,18.648,77,14,Waypoint,
38.8912996,-120.7648194,3242.4117599252,156.167984,0,0.650836635,21500,2018-05-22 19:41:08,21,0,23.763,3242.4117599252,156.167984,0,0.77010829236,0,0,-0.671082,328.8, -1.1, -0.9,0,0,1024,1024,1024,1024,329.6,-89.9,97,3.949,3.966,3.94,3.972,3.976,3.959,18.648,77,14,Waypoint,
38.8912996,-120.7648194,3243.3960119252,157.152236,0,0.650836635,21600,2018-05-22 19:41:08,21,0,23.763,3243.3960119252,157.152236,0,0.77010829236,0,0,-0.671082,328.7, -1.1, -0.9,0,0,1024,1024,1024,1024,329.6,-89.9,97,3.949,3.966,3.94,3.972,3.976,3.959,18.648,77,14,Waypoint,
38.8912996,-120.7648195,3245.3645159252,159.12074,0,0.62362862888,21800,2018-05-22 19:41:08,21,0,23.763,3245.3645159252,159.12074,0,0.77010829236,0,0,-0.671082,328.5, -1, -0.9,0,0,1024,1024,1024,1024,329.6,-89.9,97,3.949,3.966,3.94,3.972,3.976,3.959,18.648,77,14,Waypoint,
38.8912997,-120.7648195,3246.3487679252,160.104992,0,0.61394687004,21900,2018-05-22 19:41:08,21,0,23.763,3246.3487679252,160.104992,0,0.77010829236,0,0,-0.671082,328.4, -0.8, -1.1,0,0,1024,1024,1024,1024,329.6,-89.9,97,3.949,3.966,3.94,3.972,3.976,3.959,18.648,77,14,Waypoint,
38.8912997,-120.7648195,3247.3330199252,161.089244,0,0.61394687004,22100,2018-05-22 19:41:09,21,0,23.763,3247.3330199252,161.089244,0,0.77010829236,0,0,-0.671082,328.4, -0.7, -1.3,0,0,1024,1024,1024,1024,329.6,-90,97,3.949,3.966,3.94,3.972,3.976,3.959,18.648,77,14,Waypoint,
38.8912997,-120.7648195,3249.3015239252,163.057748,0,0.61394687004,22200,2018-05-22 19:41:09,21,0,23.763,3249.3015239252,163.057748,0,0.77010829236,0,0,-0.671082,328.3, -1.1, -1.6,0,0,1024,1024,1024,1024,329.6,-89.9,97,3.949,3.966,3.94,3.972,3.976,3.959,18.648,77,14,Waypoint,
38.8912997,-120.7648195,3250.2857759252,164.042,0,0.61394687004,22300,2018-05-22 19:41:09,21,0,23.763,3250.2857759252,164.042,0,0.77010829236,0,0,-0.671082,328.3, -0.8, -1.5,0,0,1024,1024,1024,1024,329.6,-89.9,97,3.949,3.966,3.94,3.972,3.976,3.959,18.648,77,14,Waypoint,
38.8912998,-120.7648196,3252.2542799252,166.010504,0,0.57840224948,22410,2018-05-22 19:41:09,21,0,23.763,3252.2542799252,166.010504,0,0.77010829236,0,0,-0.671082,328.5, -0.2, -1.4,0,0,1024,1024,1024,1024,329.6,-89.9,97,3.949,3.966,3.94,3.972,3.976,3.959,18.648,77,14,Waypoint,
38.8912998,-120.7648196,3252.2542799252,166.010504,0,0.57840224948,22500,2018-05-22 19:41:09,21,0,23.763,3252.2542799252,166.010504,0,0.77010829236,0,0,-0.671082,328.5, -0.2, -1.4,0,0,1024,1024,1024,1024,329.6,-89.9,97,3.949,3.966,3.94,3.972,3.976,3.959,18.648,77,14,Waypoint,
38.8912998,-120.7648196,3255.2070359252,168.96326,0,0.57840224948,22710,2018-05-22 19:41:09,21,0,23.763,3255.2070359252,168.96326,0,0.77010829236,0,0,-0.671082,328.5, -0.4, -1.2,0,0,1024,1024,1024,1024,329.6,-89.9,97,3.949,3.966,3.94,3.972,3.976,3.959,18.648,77,14,Waypoint,
38.8912998,-120.7648196,3257.1755399252,170.931764,0,0.57840224948,22900,2018-05-22 19:41:09,21,0,23.763,3257.1755399252,170.931764,0,0.77010829236,0,0,-0.671082,328.7, -0.1, -1.5,0,0,1024,1024,1024,1024,329.6,-89.9,97,3.949,3.966,3.94,3.972,3.976,3.959,18.648,77,14,Waypoint,
38.8912999,-120.7648196,3258.1597919252,171.916016,0,0.5726214094,23100,2018-05-22 19:41:10,21,0,23.763,3258.1597919252,171.916016,0,0.77010829236,0,0,-0.671082,329, -0.3, -1.3,0,0,1024,1024,1024,1024,329.6,-89.9,97,3.949,3.966,3.94,3.972,3.976,3.959,18.648,77,14,Waypoint,
38.8912999,-120.7648195,3260.1282959252,173.88452,0,0.60079726332,23300,2018-05-22 19:41:10,21,0,23.763,3260.1282959252,173.88452,0,0.77010829236,0,0,-0.671082,329.2, -0.5, -1.6,0,0,1024,1024,1024,1024,329.6,-89.9,97,3.949,3.966,3.94,3.972,3.976,3.959,18.648,77,14,Waypoint,
38.8912999,-120.7648195,3261.1125479252,174.868772,0,0.60079726332,23400,2018-05-22 19:41:10,21,0,23.763,3261.1125479252,174.868772,0,0.77010829236,0,0,-0.671082,329.2, -0.5, -1.7,0,0,1024,1024,1024,1024,329.6,-89.9,97,3.949,3.966,3.94,3.972,3.976,3.959,18.648,77,14,Waypoint,
38.8912999,-120.7648195,3262.0967999252,175.853024,0,0.60079726332,23500,2018-05-22 19:41:10,21,0,23.763,3262.0967999252,175.853024,0,0.77010829236,0,0,-0.671082,329.2, -0.4, -1.7,0,0,1024,1024,1024,1024,329.6,-89.9,97,3.949,3.966,3.94,3.972,3.976,3.959,18.648,77,14,Waypoint,
38.8912999,-120.7648195,3263.0810519252,176.837276,0,0.60079726332,23600,2018-05-22 19:41:10,21,0,23.763,3263.0810519252,176.837276,0,0.77010829236,0,0,-0.671082,329.1, -0.4, -1.6,0,0,1024,1024,1024,1024,329.6,-89.9,97,3.949,3.966,3.94,3.972,3.976,3.959,18.648,77,14,Waypoint,
38.8912999,-120.7648195,3264.0653039252,177.821528,0,0.60079726332,23700,2018-05-22 19:41:10,21,0,23.763,3264.0653039252,177.821528,0,0.77010829236,0,0,-0.671082,329, -0.3, -1.6,0,0,1024,1024,1024,1024,329.6,-89.9,97,3.949,3.966,3.94,3.972,3.976,3.959,18.648,77,14,Waypoint,
38.8912999,-120.7648195,3265.0495559252,178.80578,0,0.60079726332,23800,2018-05-22 19:41:10,21,0,23.763,3265.0495559252,178.80578,0,0.77010829236,0,0,-0.671082,329.1, -0.5, -1.6,0,0,1024,1024,1024,1024,329.6,-89.9,97,3.949,3.966,3.94,3.972,3.976,3.959,18.648,77,14,Waypoint,
38.8912998,-120.7648193,3268.0023119252,181.758536,0,0.6622539582,24100,2018-05-22 19:41:11,21,0,23.763,3268.0023119252,181.758536,0,0.77010829236,0,0,-0.671082,329.2, -0.6, -1.5,0,0,1024,1024,1024,1024,329.6,-90,97,3.949,3.966,3.94,3.972,3.976,3.959,18.648,77,14,Waypoint,
38.8912998,-120.7648193,3268.9865639252,182.742788,0,0.6622539582,24200,2018-05-22 19:41:11,21,0,23.763,3268.9865639252,182.742788,0,0.77010829236,0,0,-0.671082,329.1, -0.8, -1.5,0,0,1024,1024,1024,1024,329.6,-90,97,3.949,3.966,3.94,3.972,3.976,3.959,18.648,77,14,Waypoint,
38.8912998,-120.7648193,3269.9708159252,183.72704,0,0.6622539582,24300,2018-05-22 19:41:11,21,0,23.763,3269.9708159252,183.72704,0,0.77010829236,0,0,-0.671082,328.9, -0.9, -1.3,0,0,1024,1024,1024,1024,329.6,-90,97,3.949,3.966,3.94,3.972,3.976,3.959,18.648,77,14,Waypoint,
38.8912998,-120.7648192,3271.9393199252,185.695544,0,0.69027561264,24500,2018-05-22 19:41:11,21,0,23.763,3271.9393199252,185.695544,0,0.77010829236,0,0,-0.671082,328.7, -1.1, -1.5,0,0,1024,1024,1024,1024,329.6,-90,97,3.949,3.966,3.94,3.972,3.976,3.959,18.648,77,14,Waypoint,
38.8912998,-120.7648192,3272.9235719252,186.679796,0,0.69027561264,24600,2018-05-22 19:41:11,21,0,23.763,3272.9235719252,186.679796,0,0.77010829236,0,0,-0.671082,328.7, -1.2, -1.5,0,0,1024,1024,1024,1024,329.6,-90,97,3.949,3.966,3.94,3.972,3.976,3.959,18.648,77,14,Waypoint,
38.8912998,-120.7648191,3274.8920759252,188.6483,0,0.71833007548,24800,2018-05-22 19:41:11,21,0,23.763,3274.8920759252,188.6483,0,0.77010829236,0,0,-0.671082,328.6, -1.2, -1.6,0,0,1024,1024,1024,1024,329.6,-90,97,3.949,3.966,3.94,3.972,3.976,3.959,18.648,77,14,Waypoint,
38.8912998,-120.7648191,3276.8605799252,190.616804,0,0.71833007548,24910,2018-05-22 19:41:11,21,0,23.763,3276.8605799252,190.616804,0,0.77010829236,0,0,-0.671082,328.6, -0.7, -1.5,0,0,1024,1024,1024,1024,329.6,-89.9,97,3.949,3.966,3.94,3.972,3.976,3.959,18.648,77,14,Waypoint,
38.8912998,-120.764819,3277.8448319252,191.601056,0,0.7464075042,25100,2018-05-22 19:41:12,21,0,23.763,3277.8448319252,191.601056,0,0.77010829236,0,0,-0.671082,328.6, -0.7, -1.5,0,0,1024,1024,1024,1024,329.6,-89.9,97,3.949,3.966,3.94,3.972,3.976,3.959,18.648,77,14,Waypoint,
38.8912998,-120.764819,3278.8290839252,192.585308,0,0.7464075042,25200,2018-05-22 19:41:12,21,0,23.763,3278.8290839252,192.585308,0,0.77010829236,0,0,-0.671082,328.6, -0.7, -1.6,0,0,1024,1024,1024,1024,329.6,-89.9,97,3.949,3.966,3.94,3.972,3.976,3.959,18.648,77,14,Waypoint,
38.8912998,-120.764819,3279.8133359252,193.56956,0,0.7464075042,25300,2018-05-22 19:41:12,21,0,23.763,3279.8133359252,193.56956,0,0.77010829236,0,0,-0.671082,328.6, -0.7, -1.8,0,0,1024,1024,1024,1024,329.6,-89.9,97,3.949,3.966,3.94,3.972,3.976,3.959,18.648,77,14,Waypoint,
38.8912999,-120.7648189,3280.7975879252,194.553812,0,0.77020015588,25400,2018-05-22 19:41:12,21,0,23.763,3280.7975879252,194.553812,0,0.77020015588,0,0,-0.671082,328.6, -0.6, -2.2,0,0,1024,1024,1024,1024,329.6,-89.9,97,3.949,3.966,3.94,3.972,3.976,3.959,18.648,77,14,Waypoint,
38.8912999,-120.7648189,3281.7818399252,195.538064,0,0.77020015588,25500,2018-05-22 19:41:12,21,0,23.763,3281.7818399252,195.538064,0,0.77020015588,0,0,-0.671082,328.7, -0.7, -2.3,0,0,1024,1024,1024,1024,329.6,-90,97,3.949,3.966,3.94,3.972,3.976,3.959,18.648,77,14,Waypoint,
38.8912999,-120.7648188,3282.7660919252,196.522316,0,0.798474435,25600,2018-05-22 19:41:12,21,0,23.763,3282.7660919252,196.522316,0,0.798474435,0,0,-0.671082,328.8, -0.7, -2.4,0,0,1024,1024,1024,1024,329.6,-90,97,3.949,3.966,3.94,3.972,3.976,3.959,18.648,77,14,Waypoint,
38.8912999,-120.7648188,3283.7503439252,197.506568,0,0.798474435,25700,2018-05-22 19:41:12,21,0,23.763,3283.7503439252,197.506568,0,0.798474435,0,0,-0.671082,328.8, -0.7, -2.4,0,0,1024,1024,1024,1024,329.6,-89.9,97,3.949,3.966,3.94,3.972,3.976,3.959,18.648,77,14,Waypoint,
38.8912999,-120.7648188,3284.7345959252,198.49082,0,0.798474435,25800,2018-05-22 19:41:12,21,0,23.763,3284.7345959252,198.49082,0,0.798474435,0,0,-0.671082,328.9, -0.7, -2.3,0,0,1024,1024,1024,1024,329.6,-89.9,97,3.949,3.966,3.94,3.972,3.976,3.959,18.648,77,14,Waypoint,
38.8912999,-120.7648188,3285.7188479252,199.475072,0,0.798474435,25900,2018-05-22 19:41:12,21,0,23.763,3285.7188479252,199.475072,0,0.798474435,0,0,-0.671082,329, -0.7, -2.3,0,0,1024,1024,1024,1024,329.6,-89.9,97,3.949,3.966,3.94,3.972,3.976,3.959,18.648,77,14,Waypoint,
38.8912999,-120.7648188,3286.7030999252,200.459324,0,0.798474435,26000,2018-05-22 19:41:12,21,0,23.707,3286.7030999252,200.459324,0,0.798474435,0,0,-0.671082,329.1, -0.7, -2.3,0,0,1024,1024,1024,1024,329.6,-89.9,97,3.95,3.964,3.936,3.967,3.98,3.953,17.868,77,14,Waypoint,
38.8913,-120.7648187,3287.6873519252,201.443576,0,0.82434057756,26100,2018-05-22 19:41:13,21,0,23.707,3287.6873519252,201.443576,0,0.82434057756,0,0,-0.671082,329.2, -0.5, -2.2,0,0,1024,1024,1024,1024,329.6,-89.9,97,3.95,3.964,3.936,3.967,3.98,3.953,17.868,77,14,Waypoint,
38.8913,-120.7648187,3288.6716039252,202.427828,0,0.82434057756,26200,2018-05-22 19:41:13,21,0,23.707,3288.6716039252,202.427828,0,0.82434057756,0,0,-0.671082,329.1, -0.7, -2.2,0,0,1024,1024,1024,1024,329.6,-90,97,3.95,3.964,3.936,3.967,3.98,3.953,17.868,77,14,Waypoint,
38.8913,-120.7648187,3289.6558559252,203.41208,0,0.82434057756,26300,2018-05-22 19:41:13,21,0,23.707,3289.6558559252,203.41208,0,0.82434057756,0,0,-0.671082,329, -0.8, -2.3,0,0,1024,1024,1024,1024,329.6,-90,97,3.95,3.964,3.936,3.967,3.98,3.953,17.868,77,14,Waypoint,
38.8913,-120.7648187,3290.6401079252,204.396332,0,0.82434057756,26400,2018-05-22 19:41:13,21,0,23.707,3290.6401079252,204.396332,0,0.82434057756,0,0,-0.671082,328.9, -0.8, -2.4,0,0,1024,1024,1024,1024,329.6,-89.9,97,3.95,3.964,3.936,3.967,3.98,3.953,17.868,77,14,Waypoint,
38.8913001,-120.7648187,3291.6243599252,205.380584,0,0.82353021008,26500,2018-05-22 19:41:13,21,0,23.707,3291.6243599252,205.380584,0,0.82434057756,0,0,-0.671082,328.8, -0.7, -2.4,0,0,1024,1024,1024,1024,329.6,-89.9,97,3.95,3.964,3.936,3.967,3.98,3.953,17.868,77,14,Waypoint,
38.8913001,-120.7648188,3292.6086119252,206.364836,0,0.79513453988,26600,2018-05-22 19:41:13,21,0,23.707,3292.6086119252,206.364836,0,0.82434057756,0,0,-0.671082,328.7, -0.4, -2.4,0,0,1024,1024,1024,1024,329.6,-89.9,97,3.95,3.964,3.936,3.967,3.98,3.953,17.868,77,14,Waypoint,
38.8913001,-120.7648188,3293.5928639252,207.349088,0,0.79513453988,26700,2018-05-22 19:41:13,21,0,23.707,3293.5928639252,207.349088,0,0.82434057756,0,0,-0.671082,328.6, -0.2, -2.4,0,0,1024,1024,1024,1024,329.6,-89.9,97,3.95,3.964,3.936,3.967,3.98,3.953,17.868,77,14,Waypoint,
38.8913001,-120.7648189,3295.5613679252,209.317592,0,0.76673558884,26900,2018-05-22 19:41:13,21,0,23.707,3295.5613679252,209.317592,0,0.82434057756,0,0,-0.671082,328.9, -0.3, -2,0,0,1024,1024,1024,1024,329.6,-89.9,97,3.95,3.964,3.936,3.967,3.98,3.953,17.868,77,14,Waypoint,
38.8913,-120.7648189,3297.5298719252,211.286096,0,0.76760501144,27000,2018-05-22 19:41:13,21,0,23.707,3297.5298719252,211.286096,0,0.82434057756,0,0,-0.671082,329.2, -0.7, -1.4,0,0,1024,1024,1024,1024,329.6,-89.9,97,3.948,3.966,3.933,3.967,3.978,3.95,17.868,77,14,Waypoint,
38.8913,-120.764819,3298.5141239252,212.270348,0,0.7392388688,27200,2018-05-22 19:41:14,21,0,23.707,3298.5141239252,212.270348,0,0.82434057756,0,0,-0.671082,329.3, -1, -1.3,0,0,1024,1024,1024,1024,329.6,-90,97,3.948,3.966,3.933,3.967,3.978,3.95,17.868,77,14,Waypoint,
38.8913,-120.764819,3299.4983759252,213.2546,0,0.7392388688,27300,2018-05-22 19:41:14,21,0,23.707,3299.4983759252,213.2546,0,0.82434057756,0,0,-0.671082,329.2, -1.1, -1.5,0,0,1024,1024,1024,1024,329.6,-90,97,3.948,3.966,3.933,3.967,3.978,3.95,17.868,77,14,Waypoint,
38.8913,-120.7648191,3300.4826279252,214.238852,0,0.71087928784,27400,2018-05-22 19:41:14,21,0,23.707,3300.4826279252,214.238852,0,0.82434057756,0,0,-0.671082,329, -1, -1.7,0,0,1024,1024,1024,1024,329.6,-90,97,3.948,3.966,3.933,3.967,3.978,3.95,17.868,77,14,Waypoint,
38.8913,-120.7648192,3302.4511319252,216.207356,0.223694,0.68251970688,27600,2018-05-22 19:41:14,21,0,23.707,3302.4511319252,216.207356,0.223694,0.82434057756,0,0,-0.671082,328.7, -0.5, -1.8,0,0,1024,1024,1024,1024,329.6,-89.9,97,3.948,3.966,3.933,3.967,3.978,3.95,17.868,77,14,Waypoint,
38.8913,-120.7648193,3303.4353839252,217.191608,0.223694,0.65416340676,27700,2018-05-22 19:41:14,21,0,23.707,3303.4353839252,217.191608,0.223694,0.82434057756,0,0,-0.671082,328.6, -0.2, -1.7,0,0,1024,1024,1024,1024,329.6,-89.9,97,3.948,3.966,3.933,3.967,3.978,3.95,17.868,77,14,Waypoint,
38.8913,-120.7648194,3304.4196359252,218.17586,0.223694,0.62581366832,27800,2018-05-22 19:41:14,21,0,23.707,3304.4196359252,218.17586,0.223694,0.82434057756,0,0,-0.671082,328.6, 0, -1.6,0,0,1024,1024,1024,1024,329.6,-89.9,97,3.948,3.966,3.933,3.967,3.978,3.95,17.868,77,14,Waypoint,
38.8913001,-120.7648194,3305.4038879252,219.160112,0,0.62474739532,27900,2018-05-22 19:41:14,21,0,23.707,3305.4038879252,219.160112,0.223694,0.82434057756,0,0,-0.671082,328.6, 0, -1.5,0,0,1024,1024,1024,1024,329.6,-89.9,97,3.948,3.966,3.933,3.967,3.978,3.95,17.868,77,14,Waypoint,
38.8913001,-120.7648195,3306.3881399252,220.144364,0,0.59635172512,28000,2018-05-22 19:41:14,21,0,23.753,3306.3881399252,220.144364,0.223694,0.82434057756,0,0,-0.671082,328.6, 0, -1.4,0,0,1024,1024,1024,1024,329.6,-89.9,97,3.945,3.961,3.942,3.964,3.973,3.952,17.268,77,14,Waypoint,
38.8913001,-120.7648195,3307.3723919252,221.128616,0,0.59635172512,28100,2018-05-22 19:41:15,21,0,23.753,3307.3723919252,221.128616,0.223694,0.82434057756,0,0,-0.671082,328.7, 0, -1.4,0,0,1024,1024,1024,1024,329.6,-89.9,97,3.945,3.961,3.942,3.964,3.973,3.952,17.268,77,14,Waypoint,
38.8913001,-120.7648195,3309.3408959252,223.09712,0,0.59635172512,28300,2018-05-22 19:41:15,21,0,23.753,3309.3408959252,223.09712,0.223694,0.82434057756,0,0,-0.671082,328.8, 0, -1.8,0,0,1024,1024,1024,1024,329.6,-89.9,97,3.945,3.961,3.942,3.964,3.973,3.952,17.268,77,14,Waypoint,
38.8913002,-120.7648196,3310.3251479252,224.081372,0,0.56912403396,28400,2018-05-22 19:41:15,21,0,23.753,3310.3251479252,224.081372,0.223694,0.82434057756,0,0,-0.671082,328.7, 0, -1.8,0,0,1024,1024,1024,1024,329.6,-89.9,97,3.945,3.961,3.942,3.964,3.973,3.952,17.268,77,14,Waypoint,
38.8913002,-120.7648196,3312.2936519252,226.049876,0,0.56912403396,28600,2018-05-22 19:41:15,21,0,23.753,3312.2936519252,226.049876,0.223694,0.82434057756,0,0,-0.671082,328.8, 0.1, -1.6,0,0,1024,1024,1024,1024,329.6,-89.9,97,3.945,3.961,3.942,3.964,3.973,3.952,17.268,77,14,Waypoint,
38.8913002,-120.7648197,3313.2779039252,227.034128,0,0.54078741888,28800,2018-05-22 19:41:15,21,0,23.753,3313.2779039252,227.034128,0.223694,0.82434057756,0,0,-0.671082,328.9, 0.2, -1.6,0,0,1024,1024,1024,1024,329.6,-89.9,97,3.945,3.961,3.942,3.964,3.973,3.952,17.268,77,14,Waypoint,
38.8913003,-120.7648198,3316.2306599252,229.986884,0,0.5163385992,28900,2018-05-22 19:41:15,21,0,23.753,3316.2306599252,229.986884,0.223694,0.82434057756,0,0,-0.671082,328.7, 0.2, -1.7,0,0,1024,1024,1024,1024,329.6,-89.9,97,3.945,3.961,3.942,3.964,3.973,3.952,17.268,77,14,Waypoint,
38.8913003,-120.7648199,3318.1991639252,231.955388,0,0.48824476628,29100,2018-05-22 19:41:16,21,0,23.753,3318.1991639252,231.955388,0.223694,0.82434057756,0,0,-0.671082,328.7, 0.5, -1.4,0,0,1024,1024,1024,1024,329.6,-89.9,97,3.945,3.961,3.942,3.964,3.973,3.952,17.268,77,14,Waypoint,
38.8913004,-120.7648199,3319.1834159252,232.93964,0,0.4950131392,29200,2018-05-22 19:41:16,21,0,23.753,3319.1834159252,232.93964,0.223694,0.82434057756,0,0,-0.671082,328.7, 0.2, -1.5,0,0,1024,1024,1024,1024,329.6,-89.9,97,3.945,3.961,3.942,3.964,3.973,3.952,17.268,77,14,Waypoint,
38.8913004,-120.7648199,3321.1519199252,234.908144,0,0.4950131392,29500,2018-05-22 19:41:16,21,0,23.753,3321.1519199252,234.908144,0.223694,0.82434057756,0,0,-0.671082,328.5, 0.3, -2.1,0,0,1024,1024,1024,1024,329.6,-89.9,97,3.945,3.961,3.942,3.964,3.973,3.952,17.268,77,14,Waypoint,
38.8913004,-120.76482,3322.7923399252,236.548564,0,0.46735893884,29700,2018-05-22 19:41:16,21,0,23.753,3322.7923399252,236.548564,0.223694,0.82434057756,0,0,-0.671082,328.6, 0.3, -1.6,0,0,1024,1024,1024,1024,329.6,-89.9,97,3.945,3.961,3.942,3.964,3.973,3.952,17.268,77,14,Waypoint,
38.8913003,-120.76482,3323.7765919252,237.532816,0,0.46018374176,29800,2018-05-22 19:41:16,21,0,23.753,3323.7765919252,237.532816,0.223694,0.82434057756,0,0,-0.671082,328.8, 0.1, -1.2,0,0,1024,1024,1024,1024,329.6,-89.9,97,3.945,3.961,3.942,3.964,3.973,3.952,17.268,77,14,Waypoint,
38.8913003,-120.7648201,3325.0889279252,238.845152,0,0.432168649,29900,2018-05-22 19:41:16,21,0,23.753,3325.0889279252,238.845152,0.223694,0.82434057756,0,0,-0.671082,329, 0, -0.8,0,0,1024,1024,1024,1024,329.6,-89.9,97,3.945,3.961,3.942,3.964,3.973,3.952,17.268,77,14,Waypoint,
38.8913003,-120.7648202,3325.7450959252,239.50132,0,0.40420933052,30000,2018-05-22 19:41:16,21,0,23.718,3325.7450959252,239.50132,0.223694,0.82434057756,0,0,-0.671082,329.1, 0, -0.8,0,0,1024,1024,1024,1024,329.6,-89.9,96,3.944,3.956,3.93,3.963,3.97,3.952,17.213,78.8,14,Waypoint,
38.8913003,-120.7648202,3327.0574319252,240.813656,0,0.40420933052,30100,2018-05-22 19:41:17,21,0,23.718,3327.0574319252,240.813656,0.223694,0.82434057756,0,0,-0.671082,329.1, 0, -0.9,0,0,1024,1024,1024,1024,329.6,-89.9,96,3.944,3.956,3.93,3.963,3.97,3.952,17.213,78.8,14,Waypoint,
