latitude,longitude,altitude(feet),ascent(feet),speed(mph),distance(feet),time(millisecond),datetime(utc),satellites,gpslevel,voltage(v),max_altitude(feet),max_ascent(feet),max_speed(mph),max_distance(feet), xSpeed(mph), ySpeed(mph), zSpeed(mph), compass_heading(degrees), pitch(degrees), roll(degrees),isPhoto,isVideo,rc_elevator,rc_aileron,rc_throttle,rc_rudder,gimbal_heading(degrees),gimbal_pitch(degrees),battery_percent,voltageCell1,voltageCell2,voltageCell3,voltageCell4,voltageCell5,voltageCell6,current(A),battery_temperature(f),flycStateRaw,flycState,message
36.6440275,-118.9467589,4806.2595894958,0,0.223694,0,3100,2018-04-13 19:23:49,15,0,0,4806.2595894958,0,0.223694,0,0,0,0,11.6, -1.5, -0.5,1,0,1024,1024,1025,1024,10,-90,87,4.085,4.035,3.99,3.994,0,0,0,57.2,11,AutoTakeoff,DJI_0209.jpg Starting Mission from Lat/Long: 36.64403/-118.94676 Camera: Zenmuse X3 - Overlap: 90/90 - Active Connection: Yes
36.6440276,-118.9467589,4806.2595894958,0,0.447388,0.036484909304,3200,2018-04-13 19:23:49,15,0,0,4806.2595894958,0,0.447388,0.036484909304,0,0,0,11.9, -1.5, -0.3,0,0,1024,1024,1025,1024,10.1,-89.9,87,4.085,4.035,3.99,3.994,0,0,0,57.2,11,AutoTakeoff,
36.6440278,-118.9467589,4806.2595894958,0,0.447388,0.109454727912,3300,2018-04-13 19:23:49,16,0,0,4806.2595894958,0,0.447388,0.109454727912,0,0,0,12.1, -0.4, 0.1,0,0,1024,1024,1025,1024,10.1,-89.9,87,4.085,4.035,3.99,3.994,0,0,0,57.2,11,AutoTakeoff,
36.644028,-118.9467589,4806.2595894958,0,0.447388,0.18242454652,3400,2018-04-13 19:23:49,16,0,0,4806.2595894958,0,0.447388,0.18242454652,0,0,0,12.2, 0.4, 0.4,0,0,1024,1024,1025,1024,10.1,-89.9,87,4.085,4.035,3.99,3.994,0,0,0,57.2,11,AutoTakeoff,
36.6440283,-118.9467589,4806.5876734958,0.328084,0.447388,0.291879602516,3500,2018-04-13 19:23:50,16,0,0,4806.5876734958,0.328084,0.447388,0.291879602516,0,0,0,12.2, 1.4, 0.3,0,0,1024,1024,1025,1024,10.1,-89.9,87,4.085,4.035,3.99,3.994,0,0,0,57.2,11,AutoTakeoff,
36.6440287,-118.9467589,4806.9157574958,0.656168,0.447388,0.43781825548,3600,2018-04-13 19:23:50,15,0,0,4806.9157574958,0.656168,0.447388,0.43781825548,0,0,0,12.2, 2.6, 0,0,0,1024,1024,1025,1024,10.2,-89.9,87,4.085,4.035,3.99,3.994,0,0,0,57.2,11,AutoTakeoff,
36.6440289,-118.9467589,4806.9157574958,0.656168,0.223694,0.51079069876,3700,2018-04-13 19:23:50,15,0,0,4806.9157574958,0.656168,0.447388,0.51079069876,0,0,0,12.1, 2.7, -0.1,0,0,1024,1024,1025,1024,10.2,-89.9,87,4.085,4.035,3.99,3.994,0,0,0,57.2,11,AutoTakeoff,
36.644029,-118.9467589,4807.2438414958,0.984252,0.223694,0.54727363956,3800,2018-04-13 19:23:50,15,0,0,4807.2438414958,0.984252,0.447388,0.54727363956,0,0,0,11.9, 2.5, -0.1,0,0,1024,1024,1025,1024,10.2,-89.9,87,4.085,4.035,3.99,3.994,0,0,0,57.2,11,AutoTakeoff,
36.6440292,-118.9467589,4807.2438414958,0.984252,0.223694,0.620242802,3900,2018-04-13 19:23:50,15,0,0,4807.2438414958,0.984252,0.447388,0.620242802,0,0,0,11.7, 2.2, -0.2,0,0,1024,1024,1025,1024,10.2,-89.9,87,4.085,4.035,3.99,3.994,0,0,0,57.2,11,AutoTakeoff,
36.6440293,-118.946759,4807.5719254958,1.312336,0.223694,0.6573819108,4000,2018-04-13 19:23:50,15,0,24.387,4807.5719254958,1.312336,0.447388,0.6573819108,0,0,-0.223694,11.5, 1.8, -0.1,0,0,1024,1024,1025,1024,10.3,-90,87,4.085,4.035,3.99,3.994,0,0,4.647,57.2,11,AutoTakeoff,
36.6440295,-118.9467591,4807.5719254958,1.312336,0.223694,0.73204398668,4100,2018-04-13 19:23:50,15,0,24.387,4807.5719254958,1.312336,0.447388,0.73204398668,0,0,-0.223694,11.3, 1.4, -0.1,0,0,1024,1024,1025,1024,10.3,-90,87,4.085,4.035,3.99,3.994,0,0,4.647,57.2,11,AutoTakeoff,
36.6440295,-118.946759,4807.9000094958,1.64042,0.223694,0.73028545644,4200,2018-04-13 19:23:50,15,0,24.387,4807.9000094958,1.64042,0.447388,0.73204398668,0,0,-0.223694,11.1, 1.4, 0,0,0,1024,1024,1025,1024,10.3,-90,87,4.085,4.035,3.99,3.994,0,0,4.647,57.2,11,AutoTakeoff,
36.6440296,-118.9467589,4807.9000094958,1.64042,0.223694,0.76618440772,4300,2018-04-13 19:23:50,15,0,24.387,4807.9000094958,1.64042,0.447388,0.76618440772,0,0,0,11.1, 1.3, 0,0,0,1024,1024,1025,1024,10.3,-89.9,87,4.085,4.035,3.99,3.994,0,0,4.647,57.2,11,AutoTakeoff,
36.6440297,-118.9467588,4808.2280934958,1.968504,0,0.80320212544,4400,2018-04-13 19:23:50,14,0,24.387,4808.2280934958,1.968504,0.447388,0.80320212544,0,0,-0.223694,11.1, 1.3, -0.1,0,0,1024,1024,1025,1024,10.3,-89.9,87,4.085,4.035,3.99,3.994,0,0,4.647,57.2,11,AutoTakeoff,
36.6440298,-118.9467587,4808.2280934958,1.968504,0,0.84119425264,4500,2018-04-13 19:23:51,14,0,24.387,4808.2280934958,1.968504,0.447388,0.84119425264,0,0,-0.223694,11.3, 1.3, -0.2,0,0,1024,1024,1025,1024,10.4,-90,87,4.085,4.035,3.99,3.994,0,0,4.647,57.2,11,AutoTakeoff,
36.6440299,-118.9467587,4808.5561774958,2.296588,0,0.87759517244,4600,2018-04-13 19:23:51,17,0,24.387,4808.5561774958,2.296588,0.447388,0.87759517244,0,0,-0.223694,11.4, 1.4, -0.4,0,0,1024,1024,1025,1024,10.4,-89.9,87,4.085,4.035,3.99,3.994,0,0,4.647,57.2,11,AutoTakeoff,
36.64403,-118.9467587,4808.5561774958,2.296588,0,0.91399937308,4700,2018-04-13 19:23:51,17,0,24.387,4808.5561774958,2.296588,0.447388,0.91399937308,0,0,-0.223694,11.6, 1.5, -0.6,0,0,1024,1024,1025,1024,10.4,-89.9,87,4.085,4.035,3.99,3.994,0,0,4.647,57.2,11,AutoTakeoff,
36.6440301,-118.9467586,4808.8842614958,2.624672,0,0.95266407248,4800,2018-04-13 19:23:51,17,0,24.387,4808.8842614958,2.624672,0.447388,0.95266407248,0,0,-0.223694,11.6, 1.7, -0.6,0,0,1024,1024,1025,1024,10.4,-89.9,87,4.085,4.035,3.99,3.994,0,0,4.647,57.2,11,AutoTakeoff,
36.6440302,-118.9467586,4808.8842614958,2.624672,0,0.98899937548,4900,2018-04-13 19:23:51,17,0,24.387,4808.8842614958,2.624672,0.447388,0.98899937548,0,0,0,11.7, 1.8, -0.5,0,0,1024,1024,1025,1024,10.4,-89.9,87,4.085,4.035,3.99,3.994,0,0,4.647,57.2,11,AutoTakeoff,
36.6440303,-118.9467585,4809.2123454958,2.952756,0,1.02826774944,5000,2018-04-13 19:23:51,16,0,22.989,4809.2123454958,2.952756,0.447388,1.02826774944,0,0,-0.223694,11.7, 2, -0.4,0,0,1024,1024,1025,1024,10.5,-89.9,87,3.754,3.767,3.789,3.77,0,0,17.076,57.2,14,Waypoint,
36.6440304,-118.9467584,4809.2123454958,2.952756,0,1.06813979796,5110,2018-04-13 19:23:51,16,0,22.989,4809.2123454958,2.952756,0.447388,1.06813979796,0,0,0,11.8, 2.2, -0.5,0,0,1024,1024,1025,1024,10.5,-90,87,3.754,3.767,3.789,3.77,0,0,17.076,57.2,14,Waypoint,
36.6440304,-118.9467583,4809.5404294958,3.28084,0,1.07254268524,5210,2018-04-13 19:23:51,16,0,22.989,4809.5404294958,3.28084,0.447388,1.07254268524,0,0,0,11.8, 1.8, -0.9,0,0,1024,1024,1025,1024,10.5,-90,87,3.754,3.767,3.789,3.77,0,0,17.076,57.2,14,Waypoint,
36.6440304,-118.9467584,4809.5404294958,3.28084,0,1.06813979796,5300,2018-04-13 19:23:51,16,0,22.989,4809.5404294958,3.28084,0.447388,1.07254268524,0,0,0,11.9, 1.5, -1,0,0,1024,1024,1025,1024,10.5,-90,87,3.754,3.767,3.789,3.77,0,0,17.076,57.2,14,Waypoint,
36.6440305,-118.9467584,4809.8685134958,3.608924,0,1.10429137392,5400,2018-04-13 19:23:51,16,0,22.989,4809.8685134958,3.608924,0.447388,1.10429137392,0,0,0,11.9, 1.2, -0.9,0,0,1024,1024,1025,1024,10.5,-90,87,3.754,3.767,3.789,3.77,0,0,17.076,57.2,14,Waypoint,
36.6440306,-118.9467583,4809.8685134958,3.608924,0,1.14458993164,5600,2018-04-13 19:23:52,16,0,22.989,4809.8685134958,3.608924,0.447388,1.14458993164,0,0,0,11.9, 1.1, -0.8,0,0,1024,1024,1025,1024,10.5,-90,87,3.754,3.767,3.789,3.77,0,0,17.076,57.2,14,Waypoint,
36.6440307,-118.9467583,4809.8685134958,3.608924,0,1.18065620576,5700,2018-04-13 19:23:52,17,0,22.989,4809.8685134958,3.608924,0.447388,1.18065620576,0,0,-0.223694,11.8, 1.3, -0.7,0,0,1024,1024,1025,1024,10.6,-89.9,87,3.754,3.767,3.789,3.77,0,0,17.076,57.2,14,Waypoint,
36.6440307,-118.9467582,4810.1965974958,3.937008,0,1.18536421116,5800,2018-04-13 19:23:52,17,0,22.989,4810.1965974958,3.937008,0.447388,1.18536421116,0,0,-0.223694,11.7, 1.7, -0.4,0,0,1024,1024,1025,1024,10.6,-89.9,87,3.754,3.767,3.789,3.77,0,0,17.076,57.2,14,Waypoint,
36.6440308,-118.9467582,4810.5246814958,4.265092,0,1.22131565588,5900,2018-04-13 19:23:52,17,0,22.989,4810.5246814958,4.265092,0.447388,1.22131565588,0,0,-0.223694,11.4, 1.8, -0.2,0,0,1024,1024,1025,1024,10.6,-89.9,87,3.754,3.767,3.789,3.77,0,0,17.076,57.2,14,Waypoint,
36.6440309,-118.9467582,4810.8527654958,4.593176,0,1.257299909,6000,2018-04-13 19:23:52,17,0,22.501,4810.8527654958,4.593176,0.447388,1.257299909,0,0,-0.223694,11.1, 1.8, -0.2,0,0,1024,1024,1025,1024,10.6,-90,87,3.823,3.79,3.759,3.737,0,0,16.836,57.2,14,Waypoint,
36.6440309,-118.9467581,4811.1808494958,4.92126,0,1.2624016152,6100,2018-04-13 19:23:52,17,0,22.501,4811.1808494958,4.92126,0.447388,1.2624016152,0,0,-0.223694,10.8, 1.6, -0.5,0,0,1024,1024,1025,1024,10.6,-90,87,3.823,3.79,3.759,3.737,0,0,16.836,57.2,14,Waypoint,
36.6440309,-118.9467581,4811.8370174958,5.577428,0,1.2624016152,6200,2018-04-13 19:23:52,17,0,22.501,4811.8370174958,5.577428,0.447388,1.2624016152,0,0,-0.223694,10.6, 1.4, -0.6,0,0,1024,1024,1025,1024,10.6,-90,87,3.823,3.79,3.759,3.737,0,0,16.836,57.2,14,Waypoint,
36.644031,-118.9467581,4812.8212694958,6.56168,0,1.29827103892,6300,2018-04-13 19:23:52,16,0,22.501,4812.8212694958,6.56168,0.447388,1.29827103892,0,0,-0.447388,10.5, 1.5, -0.4,0,0,1024,1024,1025,1024,10.6,-89.9,87,3.823,3.79,3.759,3.737,0,0,16.836,57.2,14,Waypoint,
36.6440311,-118.9467581,4813.4774374958,7.217848,0,1.33417327104,6400,2018-04-13 19:23:52,17,0,22.501,4813.4774374958,7.217848,0.447388,1.33417327104,0,0,-0.447388,10.5, 1.6, -0.5,0,0,1024,1024,1025,1024,10.6,-89.9,87,3.823,3.79,3.759,3.737,0,0,16.836,57.2,14,Waypoint,
36.6440311,-118.9467582,4814.4616894958,8.2021,0,1.3293471554,6500,2018-04-13 19:23:53,17,0,22.501,4814.4616894958,8.2021,0.447388,1.33417327104,0,0,-0.447388,10.4, 1.7, -0.5,0,0,1024,1024,1025,1024,10.6,-89.9,87,3.823,3.79,3.759,3.737,0,0,16.836,57.2,14,Waypoint,
36.6440311,-118.9467582,4815.1178574958,8.858268,0,1.3293471554,6600,2018-04-13 19:23:53,17,0,22.501,4815.1178574958,8.858268,0.447388,1.33417327104,0,0,-0.671082,10.3, 1.6, -0.2,0,0,1024,1024,1025,1024,10.6,-90,87,3.823,3.79,3.759,3.737,0,0,16.836,57.2,14,Waypoint,
36.6440311,-118.9467583,4816.1021094958,9.84252,0,1.32515096104,6700,2018-04-13 19:23:53,17,0,22.501,4816.1021094958,9.84252,0.447388,1.33417327104,0,0,-0.671082,10.2, 1.4, -0.1,0,0,1024,1024,1025,1024,10.6,-90,87,3.823,3.79,3.759,3.737,0,0,16.836,57.2,14,Waypoint,
36.644031,-118.9467583,4817.0863614958,10.826772,0,1.28899610424,6800,2018-04-13 19:23:53,17,0,22.501,4817.0863614958,10.826772,0.447388,1.33417327104,0,0,-0.671082,10.1, 1.2, -0.4,0,0,1024,1024,1025,1024,10.6,-90,87,3.823,3.79,3.759,3.737,0,0,16.836,57.2,14,Waypoint,
36.644031,-118.9467583,4818.3986974958,12.139108,0,1.28899610424,6900,2018-04-13 19:23:53,17,0,22.501,4818.3986974958,12.139108,0.447388,1.33417327104,0,0,-0.671082,10.2, 1.1, -0.8,0,0,1024,1024,1025,1024,10.6,-90,87,3.823,3.79,3.759,3.737,0,0,16.836,57.2,14,Waypoint,
36.644031,-118.9467582,4819.3829494958,13.12336,0,1.29331040884,7000,2018-04-13 19:23:53,17,0,22.005,4819.3829494958,13.12336,0.447388,1.33417327104,0,0,-0.671082,10.5, 0.9, -1.2,0,0,1024,1024,1025,1024,10.6,-90,87,3.62,3.633,3.639,3.631,0,0,20.79,57.2,14,Waypoint,
36.6440309,-118.9467581,4820.3672014958,14.107612,0,1.2624016152,7110,2018-04-13 19:23:53,17,0,22.005,4820.3672014958,14.107612,0.447388,1.33417327104,0,0,-0.671082,10.8, 0.9, -1.5,0,0,1024,1024,1025,1024,10.6,-89.9,87,3.62,3.633,3.639,3.631,0,0,20.79,57.2,14,Waypoint,
36.6440309,-118.946758,4821.6795374958,15.419948,0,1.2681594894,7210,2018-04-13 19:23:53,17,0,22.005,4821.6795374958,15.419948,0.447388,1.33417327104,0,0,-0.671082,11.1, 1.1, -1.6,0,0,1024,1024,1025,1024,10.6,-89.9,87,3.62,3.633,3.639,3.631,0,0,20.79,57.2,14,Waypoint,
36.6440309,-118.946758,4822.6637894958,16.4042,0,1.2681594894,7300,2018-04-13 19:23:53,17,0,22.005,4822.6637894958,16.4042,0.447388,1.33417327104,0,0,-0.671082,11.3, 1.3, -1.5,0,0,1024,1024,1025,1024,10.6,-89.9,87,3.62,3.633,3.639,3.631,0,0,20.79,57.2,14,Waypoint,
36.6440309,-118.946758,4823.9761254958,17.716536,0,1.2681594894,7400,2018-04-13 19:23:53,18,0,22.005,4823.9761254958,17.716536,0.447388,1.33417327104,0,0,-0.671082,11.4, 1.3, -1.5,0,0,1024,1024,1025,1024,10.6,-89.9,87,3.62,3.633,3.639,3.631,0,0,20.79,57.2,14,Waypoint,
36.6440309,-118.946758,4824.9603774958,18.700788,0,1.2681594894,7510,2018-04-13 19:23:54,18,0,22.005,4824.9603774958,18.700788,0.447388,1.33417327104,0,0,-0.671082,11.3, 1.4, -1.2,0,0,1024,1024,1025,1024,10.6,-89.9,87,3.62,3.633,3.639,3.631,0,0,20.79,57.2,14,Waypoint,
36.6440309,-118.9467579,4826.2727134958,20.013124,0,1.27456040824,7610,2018-04-13 19:23:54,18,0,22.005,4826.2727134958,20.013124,0.447388,1.33417327104,0,0,-0.671082,11.2, 1.6, -1,0,0,1024,1024,1025,1024,10.6,-89.9,87,3.62,3.633,3.639,3.631,0,0,20.79,57.2,14,Waypoint,
36.644031,-118.9467577,4827.2569654958,20.997376,0,1.3244094912,7700,2018-04-13 19:23:54,18,0,22.005,4827.2569654958,20.997376,0.447388,1.33417327104,0,0,-0.671082,11.1, 1.6, -0.9,0,0,1024,1024,1025,1024,10.6,-89.9,87,3.62,3.633,3.639,3.631,0,0,20.79,57.2,14,Waypoint,
36.644031,-118.9467576,4828.5693014958,22.309712,0,1.33247379592,7800,2018-04-13 19:23:54,17,0,22.005,4828.5693014958,22.309712,0.447388,1.33417327104,0,0,-0.671082,11, 1.7, -0.9,0,0,1024,1024,1025,1024,10.6,-89.9,87,3.62,3.633,3.639,3.631,0,0,20.79,57.2,14,Waypoint,
36.6440311,-118.9467575,4829.5535534958,23.293964,0,1.37591211752,8000,2018-04-13 19:23:54,17,0,22.005,4829.5535534958,23.293964,0.447388,1.37591211752,0,0,-0.671082,11, 1.9, -1,0,0,1024,1024,1025,1024,10.6,-89.9,87,3.62,3.633,3.639,3.631,0,0,20.79,57.2,14,Waypoint,
36.6440311,-118.9467574,4830.8658894958,24.6063,0,1.38491474248,8100,2018-04-13 19:23:54,17,0,22.005,4830.8658894958,24.6063,0.447388,1.38491474248,0,0,-0.671082,10.9, 2.1, -1.1,0,0,1024,1024,1025,1024,10.6,-89.9,87,3.62,3.633,3.639,3.631,0,0,20.79,57.2,14,Waypoint,
36.6440312,-118.9467573,4831.8501414958,25.590552,0,1.42889112184,8200,2018-04-13 19:23:54,17,0,22.005,4831.8501414958,25.590552,0.447388,1.42889112184,0,0,-0.671082,10.9, 2.4, -1.3,0,0,1024,1024,1025,1024,10.6,-89.9,87,3.62,3.633,3.639,3.631,0,0,20.79,57.2,14,Waypoint,
36.6440313,-118.9467572,4832.8343934958,26.574804,0,1.47303810488,8300,2018-04-13 19:23:54,18,0,22.005,4832.8343934958,26.574804,0.447388,1.47303810488,0,0,-0.671082,10.9, 2.3, -1.4,0,0,1024,1024,1025,1024,10.6,-89.9,87,3.62,3.633,3.639,3.631,0,0,20.79,57.2,14,Waypoint,
36.6440313,-118.9467571,4834.1467294958,27.88714,0,1.483185743,8400,2018-04-13 19:23:54,18,0,22.005,4834.1467294958,27.88714,0.447388,1.483185743,0,0,-0.671082,10.8, 2.3, -1.5,0,0,1024,1024,1025,1024,10.6,-89.9,87,3.62,3.633,3.639,3.631,0,0,20.79,57.2,14,Waypoint,
36.6440314,-118.946757,4835.1309814958,28.871392,0,1.52775923524,8500,2018-04-13 19:23:55,17,0,22.005,4835.1309814958,28.871392,0.447388,1.52775923524,0,0,-0.671082,10.7, 2.5, -1.6,0,0,1024,1024,1025,1024,10.6,-89.9,87,3.62,3.633,3.639,3.631,0,0,20.79,57.2,14,Waypoint,
36.6440315,-118.9467568,4837.4275694958,31.16798,0,1.58359257036,8600,2018-04-13 19:23:55,17,0,22.005,4837.4275694958,31.16798,0.447388,1.58359257036,0,0,-0.671082,10.8, 2.7, -1.9,0,0,1024,1024,1025,1024,10.6,-89.9,87,3.62,3.633,3.639,3.631,0,0,20.79,57.2,14,Waypoint,
36.6440316,-118.9467567,4839.3960734958,33.136484,0,1.62863194188,8800,2018-04-13 19:23:55,17,0,22.005,4839.3960734958,33.136484,0.447388,1.62863194188,0,0,-0.671082,10.8, 2.6, -1.6,0,0,1024,1024,1025,1024,10.6,-89.9,87,3.62,3.633,3.639,3.631,0,0,20.79,57.2,14,Waypoint,
36.6440317,-118.9467566,4840.3803254958,34.120736,0,1.67376317692,8900,2018-04-13 19:23:55,17,0,22.005,4840.3803254958,34.120736,0.447388,1.67376317692,0,0,-0.671082,10.7, 2.5, -1.5,0,0,1024,1024,1025,1024,10.6,-89.9,87,3.62,3.633,3.639,3.631,0,0,20.79,57.2,14,Waypoint,
36.6440316,-118.9467567,4841.3645774958,35.104988,0,1.62863194188,9000,2018-04-13 19:23:55,18,0,21.971,4841.3645774958,35.104988,0.447388,1.67376317692,0,0,-0.671082,10.6, 2.6, -1.5,0,0,1024,1024,1025,1024,10.6,-89.9,87,3.661,3.681,3.686,3.66,0,0,19.457,57.2,14,Waypoint,
36.6440315,-118.9467568,4842.3488294958,36.08924,0,1.58359257036,9100,2018-04-13 19:23:55,18,0,21.971,4842.3488294958,36.08924,0.447388,1.67376317692,0,0,-0.671082,10.5, 2.3, -1.5,0,0,1024,1024,1025,1024,10.6,-89.9,87,3.661,3.681,3.686,3.66,0,0,19.457,57.2,14,Waypoint,
36.6440313,-118.946757,4843.3330814958,37.073492,0,1.49383534964,9200,2018-04-13 19:23:55,18,0,21.971,4843.3330814958,37.073492,0.447388,1.67376317692,0,0,-0.671082,10.4, 1.8, -1.3,0,0,1024,1024,1025,1024,10.6,-90,87,3.661,3.681,3.686,3.66,0,0,19.457,57.2,14,Waypoint,
36.6440313,-118.9467572,4844.3173334958,38.057744,0,1.47303810488,9300,2018-04-13 19:23:55,18,0,21.971,4844.3173334958,38.057744,0.447388,1.67376317692,0,0,-0.671082,10.3, 1.4, -1.4,0,0,1024,1024,1025,1024,10.6,-90,87,3.661,3.681,3.686,3.66,0,0,19.457,57.2,14,Waypoint,
36.6440312,-118.9467572,4845.6296694958,39.37008,0,1.43875332688,9400,2018-04-13 19:23:55,18,0,21.971,4845.6296694958,39.37008,0.447388,1.67376317692,0,0,-0.671082,10.2, 1, -1.2,0,0,1024,1024,1025,1024,10.6,-90,87,3.661,3.681,3.686,3.66,0,0,19.457,57.2,14,Waypoint,
36.6440312,-118.9467572,4846.6139214958,40.354332,0,1.43875332688,9500,2018-04-13 19:23:56,18,0,21.971,4846.6139214958,40.354332,0.447388,1.67376317692,0,0,-0.671082,10.2, 0.8, -1.1,0,0,1024,1024,1025,1024,10.6,-90,87,3.661,3.681,3.686,3.66,0,0,19.457,57.2,14,Waypoint,
36.6440312,-118.9467573,4847.5981734958,41.338584,0,1.42889112184,9600,2018-04-13 19:23:56,18,0,21.971,4847.5981734958,41.338584,0.447388,1.67376317692,0,0,-0.671082,10.3, 1, -1.4,0,0,1024,1024,1025,1024,10.6,-90,87,3.661,3.681,3.686,3.66,0,0,19.457,57.2,14,Waypoint,
36.6440311,-118.9467575,4848.5824254958,42.322836,0,1.37591211752,9700,2018-04-13 19:23:56,18,0,21.971,4848.5824254958,42.322836,0.447388,1.67376317692,0,0,-0.671082,10.5, 1.2, -1.5,0,0,1024,1024,1025,1024,10.6,-90,87,3.661,3.681,3.686,3.66,0,0,19.457,57.2,14,Waypoint,
36.6440311,-118.9467575,4849.5666774958,43.307088,0,1.37591211752,9800,2018-04-13 19:23:56,18,0,21.971,4849.5666774958,43.307088,0.447388,1.67376317692,0,0,-0.671082,10.8, 1.3, -1.5,0,0,1024,1024,1025,1024,10.6,-89.9,87,3.661,3.681,3.686,3.66,0,0,19.457,57.2,14,Waypoint,
36.6440312,-118.9467574,4850.5509294958,44.29134,0,1.41956369372,9900,2018-04-13 19:23:56,18,0,21.971,4850.5509294958,44.29134,0.447388,1.67376317692,0,0,-0.671082,11.1, 1.5, -1.3,0,0,1024,1024,1025,1024,10.6,-89.9,87,3.661,3.681,3.686,3.66,0,0,19.457,57.2,14,Waypoint,
36.6440312,-118.9467573,4851.5351814958,45.275592,0,1.42889112184,10000,2018-04-13 19:23:56,18,0,22.019,4851.5351814958,45.275592,0.447388,1.67376317692,0,0,-0.671082,11.3, 1.6, -1.3,0,0,1024,1024,1025,1024,10.6,-89.9,87,3.661,3.681,3.686,3.66,0,0,19.076,57.2,14,Waypoint,
36.6440313,-118.9467572,4852.5194334958,46.259844,0,1.47303810488,10100,2018-04-13 19:23:56,18,0,22.019,4852.5194334958,46.259844,0.447388,1.67376317692,0,0,-0.671082,11.3, 1.8, -1.6,0,0,1024,1024,1025,1024,10.6,-89.9,87,3.661,3.681,3.686,3.66,0,0,19.076,57.2,14,Waypoint,
36.6440313,-118.9467571,4853.5036854958,47.244096,0,1.483185743,10220,2018-04-13 19:23:56,18,0,22.019,4853.5036854958,47.244096,0.447388,1.67376317692,0,0,-0.671082,11.2, 2, -1.8,0,0,1024,1024,1025,1024,10.6,-89.9,87,3.661,3.681,3.686,3.66,0,0,19.076,57.2,14,Waypoint,
36.6440314,-118.9467569,4854.4879374958,48.228348,0,1.53865818572,10300,2018-04-13 19:23:56,18,0,22.019,4854.4879374958,48.228348,0.447388,1.67376317692,0,0,-0.671082,11.1, 2.3, -2,0,0,1024,1024,1025,1024,10.6,-89.9,87,3.661,3.681,3.686,3.66,0,0,19.076,57.2,14,Waypoint,
36.6440315,-118.9467567,4856.4564414958,50.196852,0,1.59518377808,10510,2018-04-13 19:23:57,18,0,22.019,4856.4564414958,50.196852,0.447388,1.67376317692,0,0,-0.671082,10.7, 2.5, -1.9,0,0,1024,1024,1025,1024,10.6,-89.9,87,3.661,3.681,3.686,3.66,0,0,19.076,57.2,14,Waypoint,
36.6440315,-118.9467567,4857.4406934958,51.181104,0,1.59518377808,10700,2018-04-13 19:23:57,18,0,22.019,4857.4406934958,51.181104,0.447388,1.67376317692,0,0,-0.671082,10.6, 2.5, -2.1,0,0,1024,1024,1025,1024,10.6,-89.9,87,3.661,3.681,3.686,3.66,0,0,19.076,57.2,14,Waypoint,
36.6440315,-118.9467566,4858.4249454958,52.165356,0,1.60722774172,10800,2018-04-13 19:23:57,18,0,22.019,4858.4249454958,52.165356,0.447388,1.67376317692,0,0,-0.671082,10.4, 2.3, -2.4,0,0,1024,1024,1025,1024,10.6,-89.9,87,3.661,3.681,3.686,3.66,0,0,19.076,57.2,14,Waypoint,
36.6440315,-118.9467564,4860.3934494958,54.13386,0,1.63261816248,10900,2018-04-13 19:23:57,18,0,22.019,4860.3934494958,54.13386,0.447388,1.67376317692,0,0,-0.671082,10.3, 2.2, -2.7,0,0,1024,1024,1025,1024,10.6,-89.9,87,3.661,3.681,3.686,3.66,0,0,19.076,57.2,14,Waypoint,
36.6440315,-118.9467563,4861.3777014958,55.118112,0,1.64595149624,11100,2018-04-13 19:23:57,18,0,22.019,4861.3777014958,55.118112,0.447388,1.67376317692,0,0,-0.671082,10.4, 2.2, -2.9,0,0,1024,1024,1025,1024,10.6,-89.9,87,3.661,3.681,3.686,3.66,0,0,19.076,57.2,14,Waypoint,
36.6440316,-118.9467563,4862.3619534958,56.102364,0,1.67838588048,11200,2018-04-13 19:23:57,18,0,22.019,4862.3619534958,56.102364,0.447388,1.67838588048,0,0,-0.671082,10.5, 2.3, -3,0,0,1024,1024,1025,1024,10.6,-89.9,87,3.661,3.681,3.686,3.66,0,0,19.076,57.2,14,Waypoint,
36.6440317,-118.9467561,4864.0023734958,57.742784,0,1.73781829708,11300,2018-04-13 19:23:57,18,0,22.019,4864.0023734958,57.742784,0.447388,1.73781829708,0,0,-0.671082,10.8, 2.8, -2.7,0,0,1024,1024,1025,1024,10.6,-89.9,87,3.661,3.681,3.686,3.66,0,0,19.076,57.2,14,Waypoint,
36.6440318,-118.946756,4865.9708774958,59.711288,0,1.78381895472,11500,2018-04-13 19:23:58,18,0,22.019,4865.9708774958,59.711288,0.447388,1.78381895472,0,0,-0.671082,10.9, 3.4, -3,0,0,1024,1024,1025,1024,10.6,-89.9,87,3.661,3.681,3.686,3.66,0,0,19.076,57.2,14,Waypoint,
36.6440318,-118.946756,4866.9551294958,60.69554,0,1.78381895472,11600,2018-04-13 19:23:58,18,0,22.019,4866.9551294958,60.69554,0.447388,1.78381895472,0,0,-0.671082,10.9, 3.4, -3,0,0,1024,1024,1025,1024,10.6,-89.9,87,3.661,3.681,3.686,3.66,0,0,19.076,57.2,14,Waypoint,
36.6440318,-118.946756,4867.6112974958,61.351708,0,1.78381895472,11700,2018-04-13 19:23:58,18,0,22.019,4867.6112974958,61.351708,0.447388,1.78381895472,0,0,-0.671082,10.9, 3.2, -2.9,0,0,1024,1024,1025,1024,10.6,-89.9,87,3.661,3.681,3.686,3.66,0,0,19.076,57.2,14,Waypoint,
36.6440318,-118.946756,4868.5955494958,62.33596,0,1.78381895472,11800,2018-04-13 19:23:58,18,0,22.019,4868.5955494958,62.33596,0.447388,1.78381895472,0,0,-0.671082,10.9, 3.2, -2.8,0,0,1024,1024,1025,1024,10.6,-89.9,87,3.661,3.681,3.686,3.66,0,0,19.076,57.2,14,Waypoint,
36.6440318,-118.946756,4869.5798014958,63.320212,0,1.78381895472,11900,2018-04-13 19:23:58,18,0,22.019,4869.5798014958,63.320212,0.447388,1.78381895472,0,0,-0.671082,10.9, 3, -2.7,0,0,1024,1024,1025,1024,10.6,-89.9,87,3.661,3.681,3.686,3.66,0,0,19.076,57.2,14,Waypoint,
36.6440318,-118.946756,4870.5640534958,64.304464,0,1.78381895472,12000,2018-04-13 19:23:58,18,0,22.019,4870.5640534958,64.304464,0.447388,1.78381895472,0,0,-0.671082,10.9, 3, -2.5,0,0,1024,1024,1025,1024,10.6,-89.9,87,3.652,3.677,3.67,3.657,0,0,19.027,57.2,14,Waypoint,
36.6440318,-118.946756,4871.5483054958,65.288716,0,1.78381895472,12110,2018-04-13 19:23:58,18,0,22.019,4871.5483054958,65.288716,0.447388,1.78381895472,0,0,-0.671082,10.8, 3.1, -2.4,0,0,1024,1024,1025,1024,10.6,-89.9,87,3.652,3.677,3.67,3.657,0,0,19.027,57.2,14,Waypoint,
36.6440318,-118.9467561,4872.2044734958,65.944884,0,1.77007223512,12300,2018-04-13 19:23:58,18,0,22.019,4872.2044734958,65.944884,0.447388,1.78381895472,0,0,-0.671082,10.8, 3, -2.5,0,0,1024,1024,1025,1024,10.6,-89.9,87,3.652,3.677,3.67,3.657,0,0,19.027,57.2,14,Waypoint,
36.6440318,-118.9467562,4874.1729774958,67.913388,0,1.7567093738,12410,2018-04-13 19:23:58,18,0,22.019,4874.1729774958,67.913388,0.447388,1.78381895472,0,0,-0.671082,10.7, 3.1, -2.8,0,0,1024,1024,1025,1024,10.6,-89.9,87,3.652,3.677,3.67,3.657,0,0,19.027,57.2,14,Waypoint,
36.6440318,-118.9467562,4874.1729774958,67.913388,0,1.7567093738,12500,2018-04-13 19:23:59,18,0,22.019,4874.1729774958,67.913388,0.447388,1.78381895472,0,0,-0.671082,10.7, 3.1, -2.8,0,0,1024,1024,1025,1024,10.6,-89.9,87,3.652,3.677,3.67,3.657,0,0,19.027,57.2,14,Waypoint,
36.6440318,-118.9467563,4875.1572294958,68.89764,0,1.7437336516,12600,2018-04-13 19:23:59,18,0,22.019,4875.1572294958,68.89764,0.447388,1.78381895472,0,0,-0.671082,10.6, 2.9, -2.5,0,0,1024,1024,1025,1024,10.6,-89.9,87,3.652,3.677,3.67,3.657,0,0,19.027,57.2,14,Waypoint,
36.6440318,-118.9467563,4876.1414814958,69.881892,0,1.7437336516,12700,2018-04-13 19:23:59,18,0,22.019,4876.1414814958,69.881892,0.447388,1.78381895472,0,0,-0.671082,10.5, 2.8, -2.2,0,0,1024,1024,1025,1024,10.6,-89.9,87,3.652,3.677,3.67,3.657,0,0,19.027,57.2,14,Waypoint,
36.6440319,-118.9467564,4877.4538174958,71.194228,0,1.7642881142,12800,2018-04-13 19:23:59,18,0,22.019,4877.4538174958,71.194228,0.447388,1.78381895472,0,0,-0.671082,10.5, 2.8, -2.3,0,0,1024,1024,1025,1024,10.6,-89.9,87,3.652,3.677,3.67,3.657,0,0,19.027,57.2,14,Waypoint,
36.6440319,-118.9467564,4879.4223214958,73.162732,0,1.7642881142,12900,2018-04-13 19:23:59,18,0,22.019,4879.4223214958,73.162732,0.447388,1.78381895472,0,0,-0.671082,10.5, 2.8, -3,0,0,1024,1024,1025,1024,10.6,-89.9,87,3.652,3.677,3.67,3.657,0,0,19.027,57.2,14,Waypoint,
36.6440319,-118.9467565,4880.4065734958,74.146984,0,1.7523458566,13000,2018-04-13 19:23:59,18,0,21.963,4880.4065734958,74.146984,0.447388,1.78381895472,0,0,-0.671082,10.6, 2.8, -3,0,0,1024,1024,1025,1024,10.6,-89.9,86,3.629,3.658,3.652,3.64,0,0,19.438,57.2,14,Waypoint,
36.6440319,-118.9467566,4881.3908254958,75.131236,0,1.74081698484,13100,2018-04-13 19:23:59,18,0,21.963,4881.3908254958,75.131236,0.447388,1.78381895472,0,0,-0.671082,10.7, 2.8, -2.6,0,0,1024,1024,1025,1024,10.6,-89.9,86,3.629,3.658,3.652,3.64,0,0,19.438,57.2,14,Waypoint,
36.6440319,-118.9467567,4882.3750774958,76.115488,0,1.72970477976,13200,2018-04-13 19:23:59,18,0,21.963,4882.3750774958,76.115488,0.447388,1.78381895472,0,0,-0.671082,10.8, 2.8, -2.4,0,0,1024,1024,1025,1024,10.6,-89.9,86,3.629,3.658,3.652,3.64,0,0,19.438,57.2,14,Waypoint,
36.644032,-118.9467567,4883.3593294958,77.09974,0,1.76361882284,13300,2018-04-13 19:23:59,18,0,21.963,4883.3593294958,77.09974,0.447388,1.78381895472,0,0,-0.671082,10.9, 2.9, -2.3,0,0,1024,1024,1025,1024,10.6,-89.9,86,3.629,3.658,3.652,3.64,0,0,19.438,57.2,14,Waypoint,
36.644032,-118.9467568,4884.3435814958,78.083992,0,1.75313981988,13400,2018-04-13 19:23:59,18,0,21.963,4884.3435814958,78.083992,0.447388,1.78381895472,0,0,-0.671082,10.9, 3.1, -2.3,0,0,1024,1024,1025,1024,10.6,-89.9,86,3.629,3.658,3.652,3.64,0,0,19.438,57.2,14,Waypoint,
36.644032,-118.9467568,4885.3278334958,79.068244,0,1.75313981988,13500,2018-04-13 19:24:00,18,0,21.963,4885.3278334958,79.068244,0.447388,1.78381895472,0,0,-0.671082,10.9, 3.7, -2.5,0,0,1024,1024,1025,1024,10.6,-89.9,86,3.629,3.658,3.652,3.64,0,0,19.438,57.2,14,Waypoint,
36.6440321,-118.9467569,4886.3120854958,80.052496,0,1.77750005688,13600,2018-04-13 19:24:00,18,0,21.963,4886.3120854958,80.052496,0.447388,1.78381895472,0,0,-0.671082,10.8, 4, -2.7,0,0,1024,1024,1025,1024,10.6,-89.9,86,3.629,3.658,3.652,3.64,0,0,19.438,57.2,14,Waypoint,
36.6440321,-118.946757,4888.2805894958,82.021,0,1.76807420356,13800,2018-04-13 19:24:00,18,0,21.963,4888.2805894958,82.021,0.447388,1.78381895472,0,0,-0.671082,10.6, 3.7, -2.4,0,0,1024,1024,1025,1024,10.6,-89.9,86,3.629,3.658,3.652,3.64,0,0,19.438,57.2,14,Waypoint,
36.6440321,-118.9467571,4889.2648414958,83.005252,0,1.75908470196,13900,2018-04-13 19:24:00,18,0,21.963,4889.2648414958,83.005252,0.447388,1.78381895472,0,0,-0.671082,10.5, 3.5, -2.2,0,0,1024,1024,1025,1024,10.6,-89.9,86,3.629,3.658,3.652,3.64,0,0,19.438,57.2,14,Waypoint,
36.6440321,-118.9467572,4889.9210094958,83.66142,0,1.75053811376,14100,2018-04-13 19:24:00,18,0,21.963,4889.9210094958,83.66142,0.447388,1.78381895472,0,0,-0.671082,10.3, 3.2, -1.9,0,0,1024,1024,1025,1024,10.6,-90,86,3.629,3.658,3.652,3.64,0,0,19.438,57.2,14,Waypoint,
36.6440321,-118.9467572,4890.9052614958,84.645672,0,1.75053811376,14200,2018-04-13 19:24:00,18,0,21.963,4890.9052614958,84.645672,0.447388,1.78381895472,0,0,-0.671082,10.3, 3, -2.2,0,0,1024,1024,1025,1024,10.6,-90,86,3.629,3.658,3.652,3.64,0,0,19.438,57.2,14,Waypoint,
36.644032,-118.9467573,4891.8895134958,85.629924,0,1.70732617012,14300,2018-04-13 19:24:00,18,0,21.963,4891.8895134958,85.629924,0.447388,1.78381895472,0,0,-0.671082,10.4, 2.8, -2.1,0,0,1024,1024,1025,1024,10.6,-90,86,3.629,3.658,3.652,3.64,0,0,19.438,57.2,14,Waypoint,
36.644032,-118.9467573,4892.8737654958,86.614176,0,1.70732617012,14400,2018-04-13 19:24:00,18,0,21.963,4892.8737654958,86.614176,0.447388,1.78381895472,0,0,-0.671082,10.6, 2.8, -2,0,0,1024,1024,1025,1024,10.6,-90,86,3.629,3.658,3.652,3.64,0,0,19.438,57.2,14,Waypoint,
36.644032,-118.9467574,4893.8580174958,87.598428,0,1.69952761344,14500,2018-04-13 19:24:01,18,0,21.963,4893.8580174958,87.598428,0.447388,1.78381895472,0,0,-0.671082,10.7, 2.7, -2,0,0,1024,1024,1025,1024,10.6,-90,86,3.629,3.658,3.652,3.64,0,0,19.438,57.2,14,Waypoint,
36.6440319,-118.9467575,4894.8422694958,88.58268,0,1.65682748084,14600,2018-04-13 19:24:01,18,0,21.963,4894.8422694958,88.58268,0.447388,1.78381895472,0,0,-0.671082,10.8, 2.7, -2,0,0,1024,1024,1025,1024,10.6,-90,86,3.629,3.658,3.652,3.64,0,0,19.438,57.2,14,Waypoint,
36.6440319,-118.9467576,4895.8265214958,89.566932,0,1.64982944912,14700,2018-04-13 19:24:01,18,0,21.963,4895.8265214958,89.566932,0.447388,1.78381895472,0,0,-0.671082,10.9, 2.6, -1.8,0,0,1024,1024,1025,1024,10.6,-90,86,3.629,3.658,3.652,3.64,0,0,19.438,57.2,14,Waypoint,
36.6440318,-118.9467577,4896.8107734958,90.551184,0,1.60770018268,14800,2018-04-13 19:24:01,18,0,21.963,4896.8107734958,90.551184,0.447388,1.78381895472,0,0,-0.671082,10.9, 2.6, -1.5,0,0,1024,1024,1025,1024,10.6,-89.9,86,3.629,3.658,3.652,3.64,0,0,19.438,57.2,14,Waypoint,
36.6440318,-118.9467577,4898.1231094958,91.86352,0,1.60770018268,14900,2018-04-13 19:24:01,18,0,21.963,4898.1231094958,91.86352,0.447388,1.78381895472,0,0,-0.671082,10.9, 2.6, -1.6,0,0,1024,1024,1025,1024,10.6,-90,86,3.629,3.658,3.652,3.64,0,0,19.438,57.2,14,Waypoint,
36.6440318,-118.9467578,4900.0916134958,93.832024,0,1.6015584502,15000,2018-04-13 19:24:01,18,0,21.732,4900.0916134958,93.832024,0.447388,1.78381895472,0,0,-0.671082,11, 2.7, -2,0,0,1024,1024,1025,1024,10.6,-89.9,86,3.612,3.635,3.631,3.613,0,0,20.381,57.2,14,Waypoint,
36.6440317,-118.9467578,4901.0758654958,94.816276,0,1.56583666428,15100,2018-04-13 19:24:01,18,0,21.732,4901.0758654958,94.816276,0.447388,1.78381895472,0,0,-0.671082,10.9, 2.7, -2,0,0,1024,1024,1025,1024,10.6,-90,86,3.612,3.635,3.631,3.613,0,0,20.381,57.2,14,Waypoint,
36.6440317,-118.9467578,4903.0443694958,96.78478,0,1.56583666428,15300,2018-04-13 19:24:01,18,0,21.732,4903.0443694958,96.78478,0.447388,1.78381895472,0,0,-0.671082,10.8, 2.7, -2,0,0,1024,1024,1025,1024,10.6,-89.9,86,3.612,3.635,3.631,3.613,0,0,20.381,57.2,14,Waypoint,
36.6440316,-118.9467577,4905.0128734958,98.753284,0,1.53657813316,15500,2018-04-13 19:24:02,18,0,21.732,4905.0128734958,98.753284,0.447388,1.78381895472,0,0,-0.671082,10.6, 2.9, -2.9,0,0,1024,1024,1025,1024,10.6,-89.9,86,3.612,3.635,3.631,3.613,0,0,20.381,57.2,14,Waypoint,
36.6440316,-118.9467576,4905.9971254958,99.737536,0,1.54353351396,15600,2018-04-13 19:24:02,18,0,21.732,4905.9971254958,99.737536,0.447388,1.78381895472,0,0,-0.671082,10.6, 2.9, -3.2,0,0,1024,1024,1025,1024,10.6,-89.9,86,3.612,3.635,3.631,3.613,0,0,20.381,57.2,14,Waypoint,
36.6440316,-118.9467575,4906.9813774958,100.721788,0,1.55101054832,15700,2018-04-13 19:24:02,18,0,21.732,4906.9813774958,100.721788,0.447388,1.78381895472,0,0,-0.671082,10.5, 2.9, -3.4,0,0,1024,1024,1025,1024,10.6,-89.9,86,3.612,3.635,3.631,3.613,0,0,20.381,57.2,14,Waypoint,
36.6440315,-118.9467575,4908.2937134958,102.034124,0,1.51585306688,15800,2018-04-13 19:24:02,18,0,21.732,4908.2937134958,102.034124,0.447388,1.78381895472,0,0,-0.671082,10.5, 2.8, -3.6,0,0,1024,1024,1025,1024,10.6,-89.9,86,3.612,3.635,3.631,3.613,0,0,20.381,57.2,14,Waypoint,
36.6440315,-118.9467574,4909.2779654958,103.018376,0,1.52402892016,15900,2018-04-13 19:24:02,18,0,21.732,4909.2779654958,103.018376,0.447388,1.78381895472,0,0,-0.671082,10.5, 2.7, -3.4,0,0,1024,1024,1025,1024,10.6,-90,86,3.612,3.635,3.631,3.613,0,0,20.381,57.2,14,Waypoint,
36.6440314,-118.9467574,4910.5903014958,104.330712,0,1.48912734424,16000,2018-04-13 19:24:02,18,0,21.557,4910.5903014958,104.330712,0.447388,1.78381895472,0,0,-0.671082,10.5, 2.6, -3.6,0,0,1024,1024,1025,1024,10.6,-90,86,3.583,3.605,3.604,3.58,0,0,21.259,57.2,14,Waypoint,
36.6440313,-118.9467573,4911.5745534958,105.314964,0,1.46340883948,16100,2018-04-13 19:24:02,18,0,21.557,4911.5745534958,105.314964,0.447388,1.78381895472,0,0,-0.671082,10.7, 2.3, -3.8,0,0,1024,1024,1025,1024,10.6,-90,86,3.583,3.605,3.604,3.58,0,0,21.259,57.2,14,Waypoint,
36.6440313,-118.9467573,4912.5588054958,106.299216,0,1.46340883948,16200,2018-04-13 19:24:02,18,0,21.557,4912.5588054958,106.299216,0.447388,1.78381895472,0,0,-0.671082,10.9, 1.8, -3.5,0,0,1024,1024,1025,1024,10.6,-90,86,3.583,3.605,3.604,3.58,0,0,21.259,57.2,14,Waypoint,
36.6440312,-118.9467574,4913.5430574958,107.283468,0,1.41956369372,16320,2018-04-13 19:24:02,18,0,21.557,4913.5430574958,107.283468,0.447388,1.78381895472,0,0,-0.671082,11.2, 1.4, -2.8,0,0,1024,1024,1025,1024,10.6,-90,86,3.583,3.605,3.604,3.58,0,0,21.259,57.2,14,Waypoint,
36.6440312,-118.9467575,4914.1992254958,107.939636,0,1.41078416588,16400,2018-04-13 19:24:02,18,0,21.557,4914.1992254958,107.939636,0.447388,1.78381895472,0,0,-0.671082,11.3, 1.4, -1.7,0,0,1024,1024,1025,1024,10.6,-90,86,3.583,3.605,3.604,3.58,0,0,21.259,57.2,14,Waypoint,
36.6440312,-118.9467576,4915.1834774958,108.923888,0,1.4025591,16510,2018-04-13 19:24:03,18,0,21.557,4915.1834774958,108.923888,0.447388,1.78381895472,0,0,-0.671082,11.4, 1.6, -0.9,0,0,1024,1024,1025,1024,10.6,-90,86,3.583,3.605,3.604,3.58,0,0,21.259,57.2,14,Waypoint,
36.6440312,-118.9467577,4915.8396454958,109.580056,0,1.39490161944,16600,2018-04-13 19:24:03,18,0,21.557,4915.8396454958,109.580056,0.447388,1.78381895472,0,0,-0.671082,11.4, 1.9, -0.7,0,0,1024,1024,1025,1024,10.6,-89.9,86,3.583,3.605,3.604,3.58,0,0,21.259,57.2,14,Waypoint,
36.6440312,-118.9467578,4916.8238974958,110.564308,0,1.38781828588,16700,2018-04-13 19:24:03,18,0,21.557,4916.8238974958,110.564308,0.447388,1.78381895472,0,0,-0.671082,11.4, 2.4, -0.6,0,0,1024,1024,1025,1024,10.6,-89.9,86,3.583,3.605,3.604,3.58,0,0,21.259,57.2,14,Waypoint,
36.6440313,-118.9467578,4917.8081494958,111.54856,0,1.42333337888,16810,2018-04-13 19:24:03,18,0,21.557,4917.8081494958,111.54856,0.447388,1.78381895472,0,0,-0.671082,11.3, 3.1, -0.3,0,0,1024,1024,1025,1024,10.6,-89.9,86,3.583,3.605,3.604,3.58,0,0,21.259,57.2,14,Waypoint,
36.6440313,-118.9467578,4918.4643174958,112.204728,0,1.42333337888,16900,2018-04-13 19:24:03,18,0,21.557,4918.4643174958,112.204728,0.447388,1.78381895472,0,0,-0.671082,11.2, 3.4, -0.7,0,0,1024,1024,1025,1024,10.6,-89.9,86,3.583,3.605,3.604,3.58,0,0,21.259,57.2,14,Waypoint,
36.6440314,-118.9467578,4919.4485694958,113.18898,0,1.45889440364,17100,2018-04-13 19:24:03,18,0,21.557,4919.4485694958,113.18898,0.447388,1.78381895472,0,0,-0.671082,10.9, 3.4, -1,0,0,1024,1024,1025,1024,10.6,-89.9,86,3.583,3.605,3.604,3.58,0,0,21.259,57.2,14,Waypoint,
36.6440314,-118.9467578,4921.4170734958,115.157484,0,1.45889440364,17300,2018-04-13 19:24:03,18,0,21.557,4921.4170734958,115.157484,0.447388,1.78381895472,0,0,-0.671082,10.4, 2.8, -1.6,0,0,1024,1024,1025,1024,10.6,-90,86,3.583,3.605,3.604,3.58,0,0,21.259,57.2,14,Waypoint,
36.6440315,-118.9467579,4923.3855774958,117.125988,0,1.4884678954,17500,2018-04-13 19:24:04,18,0,21.557,4923.3855774958,117.125988,0.447388,1.78381895472,0,0,-0.671082,10.2, 2.7, -2.2,0,0,1024,1024,1025,1024,10.6,-89.9,86,3.583,3.605,3.604,3.58,0,0,21.259,57.2,14,Waypoint,
36.6440317,-118.9467579,4925.3540814958,119.094492,0,1.56007879008,17600,2018-04-13 19:24:04,18,0,21.557,4925.3540814958,119.094492,0.447388,1.78381895472,0,0,-0.671082,10.3, 3.5, -1.4,0,0,1024,1024,1025,1024,10.6,-89.9,86,3.583,3.605,3.604,3.58,0,0,21.259,57.2,14,Waypoint,
36.6440318,-118.9467579,4926.3383334958,120.078744,0,1.5959318096,17700,2018-04-13 19:24:04,18,0,21.557,4926.3383334958,120.078744,0.447388,1.78381895472,0,0,-0.671082,10.4, 4, -1.3,0,0,1024,1024,1025,1024,10.6,-89.9,86,3.583,3.605,3.604,3.58,0,0,21.259,57.2,14,Waypoint,
36.6440319,-118.946758,4927.3225854958,121.062996,0,1.62681435652,17800,2018-04-13 19:24:04,18,0,21.557,4927.3225854958,121.062996,0.447388,1.78381895472,0,0,-0.671082,10.4, 4.3, -1.2,0,0,1024,1024,1025,1024,10.6,-89.9,86,3.583,3.605,3.604,3.58,0,0,21.259,57.2,14,Waypoint,
36.6440319,-118.946758,4928.3068374958,122.047248,0,1.62681435652,17900,2018-04-13 19:24:04,18,0,21.557,4928.3068374958,122.047248,0.447388,1.78381895472,0,0,-0.671082,10.5, 4.5, -0.9,0,0,1024,1024,1025,1024,10.6,-89.9,86,3.583,3.605,3.604,3.58,0,0,21.259,57.2,14,Waypoint,
36.644032,-118.946758,4929.2910894958,123.0315,0,1.6628281372,18000,2018-04-13 19:24:04,18,0,21.725,4929.2910894958,123.0315,0.447388,1.78381895472,0,0,-0.671082,10.5, 4.4, -0.8,0,0,1024,1024,1025,1024,10.6,-89.9,86,3.546,3.575,3.616,3.592,0,0,23.427,59,14,Waypoint,
36.644032,-118.9467581,4930.6034254958,124.343836,0,1.65844165412,18100,2018-04-13 19:24:04,18,0,21.725,4930.6034254958,124.343836,0.447388,1.78381895472,0,0,-0.671082,10.5, 4.2, -1.1,0,0,1024,1024,1025,1024,10.6,-89.9,86,3.546,3.575,3.616,3.592,0,0,23.427,59,14,Waypoint,
36.644032,-118.9467581,4931.5876774958,125.328088,0,1.65844165412,18200,2018-04-13 19:24:04,18,0,21.725,4931.5876774958,125.328088,0.447388,1.78381895472,0,0,-0.671082,10.5, 3.8, -1.5,0,0,1024,1024,1025,1024,10.6,-89.9,86,3.546,3.575,3.616,3.592,0,0,23.427,59,14,Waypoint,
36.644032,-118.946758,4932.5719294958,126.31234,0,1.6628281372,18300,2018-04-13 19:24:04,18,0,21.725,4932.5719294958,126.31234,0.447388,1.78381895472,0,0,-0.671082,10.5, 3.5, -1.7,0,0,1024,1024,1025,1024,10.6,-90,86,3.546,3.575,3.616,3.592,0,0,23.427,59,14,Waypoint,
36.6440319,-118.946758,4933.5561814958,127.296592,0.223694,1.62681435652,18400,2018-04-13 19:24:04,18,0,21.725,4933.5561814958,127.296592,0.447388,1.78381895472,0,0,-0.671082,10.7, 3, -2.5,0,0,1024,1024,1025,1024,10.6,-90,86,3.546,3.575,3.616,3.592,0,0,23.427,59,14,Waypoint,
36.6440319,-118.9467579,4934.5404334958,128.280844,0,1.63181107584,18500,2018-04-13 19:24:05,18,0,21.725,4934.5404334958,128.280844,0.447388,1.78381895472,0,0,-0.671082,10.9, 2.7, -3.5,0,0,1024,1024,1025,1024,10.6,-90,86,3.546,3.575,3.616,3.592,0,0,23.427,59,14,Waypoint,
36.6440318,-118.9467578,4935.5246854958,129.265096,0,1.6015584502,18610,2018-04-13 19:24:05,18,0,21.725,4935.5246854958,129.265096,0.447388,1.78381895472,0,0,-0.671082,11.1, 2.7, -3.7,0,0,1024,1024,1025,1024,10.6,-90,86,3.546,3.575,3.616,3.592,0,0,23.427,59,14,Waypoint,
36.6440318,-118.9467578,4936.5089374958,130.249348,0,1.6015584502,18700,2018-04-13 19:24:05,18,0,21.725,4936.5089374958,130.249348,0.447388,1.78381895472,0,0,-0.671082,11.2, 2.7, -3.5,0,0,1024,1024,1025,1024,10.6,-89.9,86,3.546,3.575,3.616,3.592,0,0,23.427,59,14,Waypoint,
36.6440318,-118.9467578,4937.4931894958,131.2336,0,1.6015584502,18800,2018-04-13 19:24:05,18,0,21.725,4937.4931894958,131.2336,0.447388,1.78381895472,0,0,-0.671082,11.2, 3.1, -2.6,0,0,1024,1024,1025,1024,10.6,-89.9,86,3.546,3.575,3.616,3.592,0,0,23.427,59,14,Waypoint,
36.6440319,-118.9467578,4938.4774414958,132.217852,0,1.63731632536,19000,2018-04-13 19:24:05,18,0,21.725,4938.4774414958,132.217852,0.447388,1.78381895472,0,0,-0.671082,11.1, 3.5, -1.8,0,0,1024,1024,1025,1024,10.6,-89.9,86,3.546,3.575,3.616,3.592,0,0,23.427,59,14,Waypoint,
36.6440319,-118.946758,4941.4301974958,135.170608,0,1.62681435652,19200,2018-04-13 19:24:05,18,0,21.725,4941.4301974958,135.170608,0.447388,1.78381895472,0,0,-0.671082,10.9, 3.5, -0.3,0,0,1024,1024,1025,1024,10.6,-89.9,86,3.546,3.575,3.616,3.592,0,0,23.427,59,14,Waypoint,
36.6440319,-118.946758,4943.3987014958,137.139112,0,1.62681435652,19400,2018-04-13 19:24:05,18,0,21.725,4943.3987014958,137.139112,0.447388,1.78381895472,0,0,-0.671082,10.8, 3.7, -0.9,0,0,1024,1024,1025,1024,10.6,-89.9,86,3.546,3.575,3.616,3.592,0,0,23.427,59,14,Waypoint,
36.6440319,-118.9467579,4944.3829534958,138.123364,0,1.63181107584,19600,2018-04-13 19:24:06,18,0,21.725,4944.3829534958,138.123364,0.447388,1.78381895472,0,0,-0.671082,10.8, 3.5, -1.6,0,0,1024,1024,1025,1024,10.6,-89.9,86,3.546,3.575,3.616,3.592,0,0,23.427,59,14,Waypoint,
36.6440318,-118.9467578,4945.3672054958,139.107616,0,1.6015584502,19700,2018-04-13 19:24:06,18,0,21.725,4945.3672054958,139.107616,0.447388,1.78381895472,0,0,-0.671082,10.7, 3.3, -2.1,0,0,1024,1024,1025,1024,10.6,-90,86,3.546,3.575,3.616,3.592,0,0,23.427,59,14,Waypoint,
36.6440318,-118.9467578,4946.3514574958,140.091868,0,1.6015584502,19800,2018-04-13 19:24:06,18,0,21.725,4946.3514574958,140.091868,0.447388,1.78381895472,0,0,-0.671082,10.7, 2.9, -2.4,0,0,1024,1024,1025,1024,10.6,-90,86,3.546,3.575,3.616,3.592,0,0,23.427,59,14,Waypoint,
36.6440317,-118.9467577,4948.3199614958,142.060372,0,1.57211619204,19900,2018-04-13 19:24:06,18,0,21.725,4948.3199614958,142.060372,0.447388,1.78381895472,0,0,-0.671082,10.7, 2.7, -2.2,0,0,1024,1024,1025,1024,10.6,-90,86,3.546,3.575,3.616,3.592,0,0,23.427,59,14,Waypoint,
36.6440316,-118.9467577,4949.3042134958,143.044624,0,1.53657813316,20000,2018-04-13 19:24:06,18,0,21.353,4949.3042134958,143.044624,0.447388,1.78381895472,0,0,-0.671082,10.8, 2.8, -2.1,0,0,1024,1024,1025,1024,10.6,-89.9,86,3.551,3.571,3.576,3.554,0,0,21.94,59,14,Waypoint,
36.6440315,-118.9467577,4951.2727174958,145.013128,0,1.5010827252,20300,2018-04-13 19:24:06,18,0,21.353,4951.2727174958,145.013128,0.447388,1.78381895472,0,0,-0.671082,10.9, 2.6, -2,0,0,1024,1024,1025,1024,10.6,-90,86,3.551,3.571,3.576,3.554,0,0,21.94,59,14,Waypoint,
36.6440315,-118.9467576,4953.2412214958,146.981632,0,1.508202148,20400,2018-04-13 19:24:06,18,0,21.353,4953.2412214958,146.981632,0.447388,1.78381895472,0,0,-0.671082,10.8, 2.9, -1.9,0,0,1024,1024,1025,1024,10.6,-89.9,86,3.551,3.571,3.576,3.554,0,0,21.94,59,14,Waypoint,
36.6440315,-118.9467576,4954.2254734958,147.965884,0,1.508202148,20500,2018-04-13 19:24:07,18,0,21.353,4954.2254734958,147.965884,0.447388,1.78381895472,0,0,-0.671082,10.6, 3.2, -2.2,0,0,1024,1024,1025,1024,10.6,-89.9,86,3.551,3.571,3.576,3.554,0,0,21.94,59,14,Waypoint,
36.6440315,-118.9467575,4955.2097254958,148.950136,0,1.51585306688,20600,2018-04-13 19:24:07,18,0,21.353,4955.2097254958,148.950136,0.447388,1.78381895472,0,0,-0.671082,10.4, 3.4, -2.4,0,0,1024,1024,1025,1024,10.6,-89.9,86,3.551,3.571,3.576,3.554,0,0,21.94,59,14,Waypoint,
36.6440316,-118.9467574,4956.1939774958,149.934388,0,1.55899939372,20700,2018-04-13 19:24:07,18,0,21.353,4956.1939774958,149.934388,0.447388,1.78381895472,0,0,-0.671082,10.3, 3.7, -2.5,0,0,1024,1024,1025,1024,10.6,-89.9,86,3.551,3.571,3.576,3.554,0,0,21.94,59,14,Waypoint,
36.6440316,-118.9467573,4957.1782294958,150.91864,0,1.56749676932,20800,2018-04-13 19:24:07,18,0,21.353,4957.1782294958,150.91864,0.447388,1.78381895472,0,0,-0.671082,10.3, 4.1, -2.5,0,0,1024,1024,1025,1024,10.6,-89.9,86,3.551,3.571,3.576,3.554,0,0,21.94,59,14,Waypoint,
36.6440317,-118.9467572,4961.1152374958,154.855648,0,1.61115162636,21210,2018-04-13 19:24:07,18,0,21.353,4961.1152374958,154.855648,0.447388,1.78381895472,0,0,-0.671082,11, 3.9, -2.4,0,0,1024,1024,1025,1024,10.6,-89.9,86,3.551,3.571,3.576,3.554,0,0,21.94,59,14,Waypoint,
36.6440317,-118.9467573,4962.0994894958,155.8399,0,1.60235241348,21300,2018-04-13 19:24:07,18,0,21.353,4962.0994894958,155.8399,0.447388,1.78381895472,0,0,-0.671082,11.1, 3.6, -2.2,0,0,1024,1024,1025,1024,10.6,-90,86,3.551,3.571,3.576,3.554,0,0,21.94,59,14,Waypoint,
36.6440317,-118.9467573,4963.0837414958,156.824152,0,1.60235241348,21400,2018-04-13 19:24:07,18,0,21.353,4963.0837414958,156.824152,0.447388,1.78381895472,0,0,-0.671082,11.1, 3.4, -1.9,0,0,1024,1024,1025,1024,10.6,-90,86,3.551,3.571,3.576,3.554,0,0,21.94,59,14,Waypoint,
36.6440317,-118.9467574,4964.0679934958,157.808404,0,1.59404204576,21500,2018-04-13 19:24:08,18,0,21.353,4964.0679934958,157.808404,0.447388,1.78381895472,0,0,-0.671082,11, 3.5, -1.5,0,0,1024,1024,1025,1024,10.6,-89.9,86,3.551,3.571,3.576,3.554,0,0,21.94,59,14,Waypoint,
36.6440317,-118.9467574,4965.0522454958,158.792656,0,1.59404204576,21700,2018-04-13 19:24:08,18,0,21.353,4965.0522454958,158.792656,0.447388,1.78381895472,0,0,-0.671082,10.9, 3.6, -1.4,0,0,1024,1024,1025,1024,10.6,-89.9,86,3.551,3.571,3.576,3.554,0,0,21.94,59,14,Waypoint,
36.6440317,-118.9467575,4967.0207494958,160.76116,0,1.58622708488,21800,2018-04-13 19:24:08,18,0,21.353,4967.0207494958,160.76116,0.447388,1.78381895472,0,0,-0.671082,10.8, 3.4, -1.6,0,0,1024,1024,1025,1024,10.6,-89.9,86,3.551,3.571,3.576,3.554,0,0,21.94,59,14,Waypoint,
36.6440317,-118.9467576,4968.0050014958,161.745412,0,1.57891737336,22000,2018-04-13 19:24:08,18,0,21.396,4968.0050014958,161.745412,0.447388,1.78381895472,0,0,-0.671082,10.7, 3.4, -1.4,0,0,1024,1024,1025,1024,10.6,-89.9,85,3.567,3.579,3.59,3.566,0,0,21.3,59,14,Waypoint,
36.6440318,-118.9467576,4968.9892534958,162.729664,0,1.61435044536,22100,2018-04-13 19:24:08,18,0,21.396,4968.9892534958,162.729664,0.447388,1.78381895472,0,0,-0.671082,10.7, 3.5, -1.4,0,0,1024,1024,1025,1024,10.6,-89.9,85,3.567,3.579,3.59,3.566,0,0,21.3,59,14,Waypoint,
36.6440318,-118.9467577,4969.6454214958,163.385832,0,1.60770018268,22200,2018-04-13 19:24:08,18,0,21.396,4969.6454214958,163.385832,0.447388,1.78381895472,0,0,-0.671082,10.6, 3.7, -1.4,0,0,1024,1024,1025,1024,10.6,-89.9,85,3.567,3.579,3.59,3.566,0,0,21.3,59,14,Waypoint,
36.6440318,-118.9467577,4970.6296734958,164.370084,0,1.60770018268,22300,2018-04-13 19:24:08,18,0,21.396,4970.6296734958,164.370084,0.447388,1.78381895472,0,0,-0.671082,10.6, 3.9, -1.5,0,0,1024,1024,1025,1024,10.6,-89.9,85,3.567,3.579,3.59,3.566,0,0,21.3,59,14,Waypoint,
36.6440319,-118.9467578,4971.6139254958,165.354336,0,1.63731632536,22400,2018-04-13 19:24:08,18,0,21.396,4971.6139254958,165.354336,0.447388,1.78381895472,0,0,-0.671082,10.6, 4.3, -1.1,0,0,1024,1024,1025,1024,10.6,-89.9,85,3.567,3.579,3.59,3.566,0,0,21.3,59,14,Waypoint,
36.6440319,-118.9467579,4972.5981774958,166.338588,0,1.63181107584,22500,2018-04-13 19:24:09,18,0,21.396,4972.5981774958,166.338588,0.447388,1.78381895472,0,0,-0.671082,10.5, 4.6, -0.5,0,0,1024,1024,1025,1024,10.6,-89.9,85,3.567,3.579,3.59,3.566,0,0,21.3,59,14,Waypoint,
36.644032,-118.9467581,4974.5666814958,168.307092,0,1.65844165412,22600,2018-04-13 19:24:09,18,0,21.396,4974.5666814958,168.307092,0.447388,1.78381895472,0,0,-0.671082,10.5, 4.2, 0.2,0,0,1024,1024,1025,1024,10.6,-89.9,85,3.567,3.579,3.59,3.566,0,0,21.3,59,14,Waypoint,
36.644032,-118.9467582,4975.5509334958,169.291344,0,1.6545604204,22700,2018-04-13 19:24:09,18,0,21.396,4975.5509334958,169.291344,0.447388,1.78381895472,0,0,-0.671082,10.4, 3.9, 0.1,0,0,1024,1024,1025,1024,10.6,-90,85,3.567,3.579,3.59,3.566,0,0,21.3,59,14,Waypoint,
36.6440321,-118.9467582,4977.5194374958,171.259848,0,1.69077105148,22900,2018-04-13 19:24:09,18,0,21.396,4977.5194374958,171.259848,0.447388,1.78381895472,0,0,-0.671082,10.4, 4.1, -0.5,0,0,1024,1024,1025,1024,10.6,-89.9,85,3.567,3.579,3.59,3.566,0,0,21.3,59,14,Waypoint,
36.6440321,-118.9467583,4978.5036894958,172.2441,0,1.68747380728,23020,2018-04-13 19:24:09,18,0,21.447,4978.5036894958,172.2441,0.447388,1.78381895472,0,0,-0.671082,10.6, 4.5, -0.7,0,0,1024,1024,1025,1024,10.6,-89.9,85,3.563,3.582,3.589,3.567,0,0,20.891,59,14,Waypoint,
36.6440321,-118.9467583,4978.5036894958,172.2441,0,1.68747380728,23100,2018-04-13 19:24:09,18,0,21.447,4978.5036894958,172.2441,0.447388,1.78381895472,0,0,-0.671082,10.6, 4.5, -0.7,0,0,1024,1024,1025,1024,10.6,-89.9,85,3.563,3.582,3.589,3.567,0,0,20.891,59,14,Waypoint,
36.6440322,-118.9467583,4980.8002774958,174.540688,0,1.72376317852,23200,2018-04-13 19:24:09,18,0,21.447,4980.8002774958,174.540688,0.447388,1.78381895472,0,0,-0.671082,11.1, 4.9, -1.5,0,0,1024,1024,1025,1024,10.6,-89.9,85,3.563,3.582,3.589,3.567,0,0,20.891,59,14,Waypoint,
36.6440322,-118.9467583,4981.7845294958,175.52494,0,1.72376317852,23300,2018-04-13 19:24:09,18,0,21.447,4981.7845294958,175.52494,0.447388,1.78381895472,0,0,-0.671082,11.3, 4.9, -1.2,0,0,1024,1024,1025,1024,10.6,-89.9,85,3.563,3.582,3.589,3.567,0,0,20.891,59,14,Waypoint,
36.6440322,-118.9467584,4982.7687814958,176.509192,0,1.72102695796,23400,2018-04-13 19:24:09,18,0,21.447,4982.7687814958,176.509192,0.447388,1.78381895472,0,0,-0.671082,11.5, 4.7, -0.7,0,0,1024,1024,1025,1024,10.6,-89.9,85,3.563,3.582,3.589,3.567,0,0,20.891,59,14,Waypoint,
36.6440323,-118.9467585,4983.7530334958,177.493444,0,1.75518706404,23500,2018-04-13 19:24:10,18,0,21.447,4983.7530334958,177.493444,0.447388,1.78381895472,0,0,-0.671082,11.8, 4.8, -0.4,0,0,1024,1024,1025,1024,10.6,-89.9,85,3.563,3.582,3.589,3.567,0,0,20.891,59,14,Waypoint,
36.6440323,-118.9467586,4984.7372854958,178.477696,0.223694,1.7534777464,23700,2018-04-13 19:24:10,18,0,21.447,4984.7372854958,178.477696,0.447388,1.78381895472,0,0,-0.671082,12, 4.8, 0.1,0,0,1024,1024,1025,1024,10.6,-89.9,85,3.563,3.582,3.589,3.567,0,0,20.891,59,14,Waypoint,
36.6440323,-118.9467588,4985.7215374958,179.461948,0.223694,1.75152236576,23800,2018-04-13 19:24:10,18,0,21.447,4985.7215374958,179.461948,0.447388,1.78381895472,0,0,-0.671082,12, 4.6, 0.8,0,0,1024,1024,1025,1024,10.6,-89.9,85,3.563,3.582,3.589,3.567,0,0,20.891,59,14,Waypoint,
36.6440323,-118.9467589,4986.7057894958,180.4462,0.223694,1.75127630276,23900,2018-04-13 19:24:10,18,0,21.447,4986.7057894958,180.4462,0.447388,1.78381895472,0,0,-0.671082,11.8, 4.4, 1.4,0,0,1024,1024,1025,1024,10.6,-89.9,85,3.563,3.582,3.589,3.567,0,0,20.891,59,14,Waypoint,
36.6440324,-118.946759,4987.6900414958,181.430452,0,1.78800202572,24000,2018-04-13 19:24:10,18,0,21.377,4987.6900414958,181.430452,0.447388,1.78800202572,0,0,-0.671082,11.6, 4.2, 1.8,0,0,1024,1024,1025,1024,10.6,-90,85,3.554,3.572,3.576,3.555,0,0,21.383,59,14,Waypoint,
36.6440324,-118.9467591,4988.6742934958,182.414704,0,1.78872052968,24100,2018-04-13 19:24:10,18,0,21.377,4988.6742934958,182.414704,0.447388,1.78872052968,0,0,-0.671082,11.3, 4, 1.4,0,0,1024,1024,1025,1024,10.6,-89.9,85,3.554,3.572,3.576,3.555,0,0,21.383,59,14,Waypoint,
36.6440324,-118.9467592,4989.9866294958,183.72704,0,1.78991803628,24200,2018-04-13 19:24:10,18,0,21.377,4989.9866294958,183.72704,0.447388,1.78991803628,0,0,-0.671082,11, 4.3, 1.4,0,0,1024,1024,1025,1024,10.6,-89.9,85,3.554,3.572,3.576,3.555,0,0,21.383,59,14,Waypoint,
36.6440325,-118.9467593,4990.9708814958,184.711292,0,1.828002027,24300,2018-04-13 19:24:10,18,0,21.377,4990.9708814958,184.711292,0.447388,1.828002027,0,0,-0.671082,10.8, 5, 1.4,0,0,1024,1024,1025,1024,10.6,-89.9,85,3.554,3.572,3.576,3.555,0,0,21.383,59,14,Waypoint,
36.6440326,-118.9467593,4991.9551334958,185.695544,0,1.86441278932,24400,2018-04-13 19:24:10,18,0,21.377,4991.9551334958,185.695544,0.447388,1.86441278932,0,0,-0.671082,10.7, 5.5, 1,0,0,1024,1024,1025,1024,10.6,-89.9,85,3.554,3.572,3.576,3.555,0,0,21.383,59,14,Waypoint,
36.6440326,-118.9467594,4992.9393854958,186.679796,0,1.86647971852,24500,2018-04-13 19:24:11,18,0,21.377,4992.9393854958,186.679796,0.447388,1.86647971852,0,0,-0.671082,10.6, 5.7, 1,0,0,1024,1024,1025,1024,10.6,-89.9,85,3.554,3.572,3.576,3.555,0,0,21.383,59,14,Waypoint,
36.6440328,-118.9467595,4994.9078894958,188.6483,0,1.94166344796,24600,2018-04-13 19:24:11,18,0,21.377,4994.9078894958,188.6483,0.447388,1.94166344796,0,0,-0.671082,10.8, 5.8, 0.8,0,0,1024,1024,1025,1024,10.6,-89.9,85,3.554,3.572,3.576,3.555,0,0,21.383,59,14,Waypoint,
36.6440329,-118.9467596,4996.5483094958,190.28872,0,1.98081371168,24800,2018-04-13 19:24:11,18,0,21.377,4996.5483094958,190.28872,0.447388,1.98081371168,0,0,-0.671082,11, 5.5, 1,0,0,1024,1024,1025,1024,10.6,-90,85,3.554,3.572,3.576,3.555,0,0,21.383,59,14,Waypoint,
36.6440329,-118.9467597,4997.5325614958,191.272972,0,1.98405846244,24900,2018-04-13 19:24:11,18,0,21.377,4997.5325614958,191.272972,0.447388,1.98405846244,0,0,-0.671082,11.1, 5.4, 1.3,0,0,1024,1024,1025,1024,10.6,-89.9,85,3.554,3.572,3.576,3.555,0,0,21.383,59,14,Waypoint,
36.6440329,-118.9467598,4998.5168134958,192.257224,0,1.98772644156,25000,2018-04-13 19:24:11,18,0,21.39,4998.5168134958,192.257224,0.447388,1.98772644156,0,0,-0.671082,11.1, 5.4, 1.6,0,0,1024,1024,1025,1024,10.6,-89.9,85,3.569,3.586,3.588,3.567,0,0,20.908,59,14,Waypoint,
36.6440329,-118.9467598,4999.5010654958,193.241476,0,1.98772644156,25100,2018-04-13 19:24:11,18,0,21.39,4999.5010654958,193.241476,0.447388,1.98772644156,0,0,-0.671082,11.2, 5.4, 1.9,0,0,1024,1024,1025,1024,10.6,-89.9,85,3.569,3.586,3.588,3.567,0,0,20.908,59,14,Waypoint,
36.6440329,-118.9467599,5000.4853174958,194.225728,0,1.99181764904,25200,2018-04-13 19:24:11,18,0,21.39,5000.4853174958,194.225728,0.447388,1.99181764904,0,0,-0.671082,11.2, 4.9, 2.1,0,0,1024,1024,1025,1024,10.6,-90,85,3.569,3.586,3.588,3.567,0,0,20.908,59,14,Waypoint,
36.6440328,-118.9467599,5001.4695694958,195.20998,0,1.95573497072,25300,2018-04-13 19:24:11,18,0,21.39,5001.4695694958,195.20998,0.447388,1.99181764904,0,0,-0.671082,11.2, 4.6, 1.6,0,0,1024,1024,1025,1024,10.6,-90,85,3.569,3.586,3.588,3.567,0,0,20.908,59,14,Waypoint,
36.6440327,-118.94676,5002.4538214958,196.194232,0.223694,1.92435045528,25400,2018-04-13 19:24:11,18,0,21.39,5002.4538214958,196.194232,0.447388,1.99181764904,0,0,-0.671082,11.1, 4.5, 0.9,0,0,1024,1024,1025,1024,10.6,-90,85,3.569,3.586,3.588,3.567,0,0,20.908,59,14,Waypoint,
36.6440326,-118.94676,5004.4223254958,198.162736,0.223694,1.88838916804,25610,2018-04-13 19:24:12,18,0,21.39,5004.4223254958,198.162736,0.447388,1.99181764904,0,0,-0.671082,10.9, 4.4, 0.5,0,0,1024,1024,1025,1024,10.6,-90,85,3.569,3.586,3.588,3.567,0,0,20.908,59,14,Waypoint,
36.6440326,-118.94676,5005.4065774958,199.146988,0.223694,1.88838916804,25700,2018-04-13 19:24:12,18,0,21.39,5005.4065774958,199.146988,0.447388,1.99181764904,0,0,-0.671082,10.8, 4.3, 0.8,0,0,1024,1024,1025,1024,10.6,-90,85,3.569,3.586,3.588,3.567,0,0,20.908,59,14,Waypoint,
36.6440324,-118.94676,5007.0469974958,200.787408,0.223694,1.81653221036,25900,2018-04-13 19:24:12,18,0,21.39,5007.0469974958,200.787408,0.447388,1.99181764904,0,0,-0.671082,10.6, 3.7, 1,0,0,1024,1024,1025,1024,10.6,-90,85,3.569,3.586,3.588,3.567,0,0,20.908,59,14,Waypoint,
36.6440324,-118.9467601,5008.0312494958,201.77166,0.223694,1.8219488772,26100,2018-04-13 19:24:12,18,0,21.39,5008.0312494958,201.77166,0.447388,1.99181764904,0,0,-0.671082,10.6, 3.4, 1.1,0,0,1024,1024,1025,1024,10.6,-90,85,3.569,3.586,3.588,3.567,0,0,20.908,59,14,Waypoint,
36.6440323,-118.9467601,5009.0155014958,202.755912,0,1.78616147448,26200,2018-04-13 19:24:12,18,0,21.39,5009.0155014958,202.755912,0.447388,1.99181764904,0,0,-0.671082,10.6, 3.5, 1.2,0,0,1024,1024,1025,1024,10.6,-90,85,3.569,3.586,3.588,3.567,0,0,20.908,59,14,Waypoint,
36.6440323,-118.9467601,5009.9997534958,203.740164,0,1.78616147448,26300,2018-04-13 19:24:12,18,0,21.39,5009.9997534958,203.740164,0.447388,1.99181764904,0,0,-0.671082,10.7, 3.6, 1.4,0,0,1024,1024,1025,1024,10.6,-89.9,85,3.569,3.586,3.588,3.567,0,0,20.908,59,14,Waypoint,
36.6440322,-118.9467601,5010.9840054958,204.724416,0,1.75040359932,26400,2018-04-13 19:24:12,18,0,21.39,5010.9840054958,204.724416,0.447388,1.99181764904,0,0,-0.671082,10.8, 3.9, 1.5,0,0,1024,1024,1025,1024,10.6,-89.9,85,3.569,3.586,3.588,3.567,0,0,20.908,59,14,Waypoint,
36.6440322,-118.9467601,5011.9682574958,205.708668,0,1.75040359932,26500,2018-04-13 19:24:13,18,0,21.39,5011.9682574958,205.708668,0.447388,1.99181764904,0,0,-0.671082,10.8, 4.1, 1.3,0,0,1024,1024,1025,1024,10.6,-90,85,3.569,3.586,3.588,3.567,0,0,20.908,59,14,Waypoint,
36.6440321,-118.9467601,5012.9525094958,206.69292,0,1.71467853256,26600,2018-04-13 19:24:13,18,0,21.39,5012.9525094958,206.69292,0.447388,1.99181764904,0,0,-0.671082,10.8, 3.9, 0.9,0,0,1024,1024,1025,1024,10.6,-90,85,3.569,3.586,3.588,3.567,0,0,20.908,59,14,Waypoint,
36.644032,-118.9467599,5014.9210134958,208.661424,0,1.6677165888,26700,2018-04-13 19:24:13,18,0,21.39,5014.9210134958,208.661424,0.447388,1.99181764904,0,0,-0.671082,10.9, 4, 0.4,0,0,1024,1024,1025,1024,10.6,-90,85,3.569,3.586,3.588,3.567,0,0,20.908,59,14,Waypoint,
36.6440319,-118.9467598,5016.8895174958,210.629928,0.223694,1.62681435652,26910,2018-04-13 19:24:13,18,0,21.39,5016.8895174958,210.629928,0.447388,1.99181764904,0,0,-0.671082,10.9, 3.6, 0.2,0,0,1024,1024,1025,1024,10.6,-90,85,3.569,3.586,3.588,3.567,0,0,20.908,59,14,Waypoint,
36.6440318,-118.9467597,5017.8737694958,211.61418,0.223694,1.5862369274,27020,2018-04-13 19:24:13,18,0,21.305,5017.8737694958,211.61418,0.447388,1.99181764904,0,0,-0.671082,11, 3.4, 0.4,0,0,1024,1024,1025,1024,10.6,-90,85,3.546,3.565,3.563,3.545,0,0,21.454,59,14,Waypoint,
36.6440317,-118.9467597,5018.8580214958,212.598432,0,1.55016081076,27300,2018-04-13 19:24:13,18,0,21.305,5018.8580214958,212.598432,0.447388,1.99181764904,0,0,-0.671082,11.1, 3.3, 0.5,0,0,1024,1024,1025,1024,10.6,-90,85,3.546,3.565,3.563,3.545,0,0,21.454,59,14,Waypoint,
36.6440317,-118.9467596,5019.8422734958,213.582684,0,1.54600726732,27500,2018-04-13 19:24:14,18,0,21.305,5019.8422734958,213.582684,0.447388,1.99181764904,0,0,-0.671082,11.1, 3.2, 0.2,0,0,1024,1024,1025,1024,10.6,-90,85,3.546,3.565,3.563,3.545,0,0,21.454,59,14,Waypoint,
36.6440316,-118.9467596,5021.8107774958,215.551188,0,1.50985241052,27800,2018-04-13 19:24:14,18,0,21.305,5021.8107774958,215.551188,0.447388,1.99181764904,0,0,-0.671082,11, 3.1, 0.5,0,0,1024,1024,1025,1024,10.6,-90,85,3.546,3.565,3.563,3.545,0,0,21.454,59,14,Waypoint,
36.6440315,-118.9467595,5024.7635334958,218.503944,0,1.46992786856,28000,2018-04-13 19:24:14,18,0,21.305,5024.7635334958,218.503944,0.447388,1.99181764904,0,0,-0.671082,10.6, 3.7, 0.4,0,0,1024,1024,1025,1024,10.6,-89.9,85,3.546,3.565,3.563,3.545,0,0,21.454,59,14,Waypoint,
36.6440315,-118.9467594,5025.7477854958,219.488196,0,1.46671920704,28200,2018-04-13 19:24:14,18,0,21.305,5025.7477854958,219.488196,0.447388,1.99181764904,0,0,-0.671082,10.5, 3.7, 0.3,0,0,1024,1024,1025,1024,10.6,-89.9,85,3.546,3.565,3.563,3.545,0,0,21.454,59,14,Waypoint,
36.6440315,-118.9467593,5027.7162894958,221.4567,0,1.46408797336,28400,2018-04-13 19:24:14,18,0,21.305,5027.7162894958,221.4567,0.447388,1.99181764904,0,0,-0.671082,10.6, 3.7, 0,0,0,1024,1024,1025,1024,10.6,-90,85,3.546,3.565,3.563,3.545,0,0,21.454,59,14,Waypoint,
36.6440315,-118.9467592,5029.6847934958,223.425204,0,1.46203744836,28510,2018-04-13 19:24:15,18,0,21.305,5029.6847934958,223.425204,0.447388,1.99181764904,0,0,-0.671082,10.9, 3.6, 0,0,0,1024,1024,1025,1024,10.6,-89.9,85,3.546,3.565,3.563,3.545,0,0,21.454,59,14,Waypoint,
36.6440315,-118.9467591,5030.6690454958,224.409456,0,1.46057091288,28600,2018-04-13 19:24:15,18,0,21.305,5030.6690454958,224.409456,0.447388,1.99181764904,0,0,-0.671082,10.9, 3.8, 0.1,0,0,1024,1024,1025,1024,10.6,-89.9,85,3.546,3.565,3.563,3.545,0,0,21.454,59,14,Waypoint,
36.6440315,-118.9467591,5032.6375494958,226.37796,0,1.46057091288,28700,2018-04-13 19:24:15,18,0,21.305,5032.6375494958,226.37796,0.447388,1.99181764904,0,0,-0.671082,10.9, 4, 0.6,0,0,1024,1024,1025,1024,10.6,-89.9,85,3.546,3.565,3.563,3.545,0,0,21.454,59,14,Waypoint,
36.6440315,-118.9467591,5033.6218014958,227.362212,0,1.46057091288,28900,2018-04-13 19:24:15,18,0,21.305,5033.6218014958,227.362212,0.447388,1.99181764904,0,0,-0.671082,11, 3.9, 0.4,0,0,1024,1024,1025,1024,10.6,-89.9,85,3.546,3.565,3.563,3.545,0,0,21.454,59,14,Waypoint,
36.6440316,-118.9467591,5036.5745574958,230.314968,0,1.49702760696,29000,2018-04-13 19:24:15,18,0,21.203,5036.5745574958,230.314968,0.447388,1.99181764904,0,0,-0.671082,10.7, 4.1, 0.5,0,0,1024,1024,1025,1024,10.6,-89.9,85,3.535,3.547,3.547,3.523,0,0,22.498,60.8,14,Waypoint,
36.6440316,-118.946759,5037.5588094958,231.29922,0,1.49616802688,29100,2018-04-13 19:24:15,18,0,21.203,5037.5588094958,231.29922,0.447388,1.99181764904,0,0,-0.671082,10.6, 4.4, 0.6,0,0,1024,1024,1025,1024,10.6,-89.9,85,3.535,3.547,3.547,3.523,0,0,22.498,60.8,14,Waypoint,
