latitude,longitude,altitude(feet),ascent(feet),speed(mph),distance(feet),time(millisecond),datetime(utc),satellites,gpslevel,voltage(v),max_altitude(feet),max_ascent(feet),max_speed(mph),max_distance(feet), xSpeed(mph), ySpeed(mph), zSpeed(mph), compass_heading(degrees), pitch(degrees), roll(degrees),isPhoto,isVideo,rc_elevator,rc_aileron,rc_throttle,rc_rudder,gimbal_heading(degrees),gimbal_pitch(degrees),battery_percent,voltageCell1,voltageCell2,voltageCell3,voltageCell4,voltageCell5,voltageCell6,current(A),battery_temperature(f),flycStateRaw,flycState,message
36.6440291,-118.9467465,4806.2667981575,0,0,0,2940,2018-04-13 18:37:05,14,0,0,4806.2667981575,0,0,0,0,0,0,10.8, -1.5, -1.3,1,0,1024,1024,1025,1024,9.4,-90,100,4.198,4.18,4.204,4.232,0,0,0,60.8,11,AutoTakeoff,DJI_0705.jpg Starting Mission from Lat/Long: 36.64403/-118.94675 Camera: Zenmuse X3 - Overlap: 90/90 - Active Connection: Yes
36.6440292,-118.9467466,4806.2667981575,0,0.3131716,0.046777232468,3000,2018-04-13 18:37:05,14,0,25.323,4806.2667981575,0,0.3131716,0.046777232468,0,0,0,10.9, -1.5, -1.1,0,0,1024,1024,1025,1024,9.4,-89.9,100,4.198,4.18,4.204,4.232,0,0,3.083,60.8,11,AutoTakeoff,
36.6440293,-118.9467467,4806.2667981575,0,0.3131716,0.09355479302,3100,2018-04-13 18:37:05,14,0,25.323,4806.2667981575,0,0.3131716,0.09355479302,0,0,0,10.9, -0.6, -0.6,0,0,1024,1024,1025,1024,9.4,-89.9,100,4.198,4.18,4.204,4.232,0,0,3.083,60.8,11,AutoTakeoff,
36.6440295,-118.9467469,4806.2667981575,0,0.4921268,0.187109257956,3200,2018-04-13 18:37:05,14,0,25.323,4806.2667981575,0,0.4921268,0.187109257956,0,0,0,10.9, 0, -0.2,0,0,1024,1024,1025,1024,9.4,-89.9,100,4.198,4.18,4.204,4.232,0,0,3.083,60.8,11,AutoTakeoff,
36.6440297,-118.9467471,4806.5948821575,0.328084,0.4921268,0.280664050976,3300,2018-04-13 18:37:05,14,0,25.323,4806.5948821575,0.328084,0.4921268,0.280664050976,0,0,0,10.8, 0.9, 0.1,0,0,1024,1024,1025,1024,9.4,-89.9,100,4.198,4.18,4.204,4.232,0,0,3.083,60.8,11,AutoTakeoff,
36.6440301,-118.9467475,4806.5948821575,0.328084,0.4921268,0.46777232468,3400,2018-04-13 18:37:05,14,0,25.323,4806.5948821575,0.328084,0.4921268,0.46777232468,0,0,0,10.4, 1.9, 2.1,0,0,1024,1024,1025,1024,9.5,-89.9,100,4.198,4.18,4.204,4.232,0,0,3.083,60.8,11,AutoTakeoff,
36.6440303,-118.9467476,4806.9229661575,0.656168,0.4921268,0.5434875502,3500,2018-04-13 18:37:06,14,0,25.323,4806.9229661575,0.656168,0.4921268,0.5434875502,0,0,0,10.2, 2.2, 2.6,0,0,1024,1024,1025,1024,9.5,-89.9,100,4.198,4.18,4.204,4.232,0,0,3.083,60.8,11,AutoTakeoff,
36.6440305,-118.9467478,4806.9229661575,0.656168,0.3131716,0.63697180516,3600,2018-04-13 18:37:06,13,0,25.323,4806.9229661575,0.656168,0.4921268,0.63697180516,0,0,0,10.1, 2.2, 2.7,0,0,1024,1024,1025,1024,9.5,-89.9,100,4.198,4.18,4.204,4.232,0,0,3.083,60.8,11,AutoTakeoff,
36.6440306,-118.9467479,4807.2510501575,0.984252,0.223694,0.68372049432,3700,2018-04-13 18:37:06,13,0,25.323,4807.2510501575,0.984252,0.4921268,0.68372049432,0,0,0,10.1, 1.9, 2.2,0,0,1024,1024,1025,1024,9.5,-89.9,100,4.198,4.18,4.204,4.232,0,0,3.083,60.8,11,AutoTakeoff,
36.6440308,-118.9467479,4807.2510501575,0.984252,0.223694,0.74341537812,3810,2018-04-13 18:37:06,14,0,25.323,4807.2510501575,0.984252,0.4921268,0.74341537812,0,0,0,10.3, 1.8, 1.6,0,0,1024,1024,1025,1024,9.5,-89.9,100,4.198,4.18,4.204,4.232,0,0,3.083,60.8,11,AutoTakeoff,
36.6440309,-118.9467479,4807.5791341575,1.312336,0.223694,0.77411747884,3910,2018-04-13 18:37:06,14,0,25.323,4807.5791341575,1.312336,0.4921268,0.77411747884,0,0,-0.223694,10.6, 1.9, 1.3,0,0,1024,1024,1025,1024,9.6,-89.9,100,4.198,4.18,4.204,4.232,0,0,3.083,60.8,11,AutoTakeoff,
36.6440311,-118.946748,4807.5791341575,1.312336,0.223694,0.85163388552,4000,2018-04-13 18:37:06,14,0,23.926,4807.5791341575,1.312336,0.4921268,0.85163388552,0,0,-0.223694,10.8, 2.1, 1.2,0,0,1024,1024,1025,1024,9.6,-89.9,100,3.981,3.952,3.957,3.996,0,0,13.886,60.8,11,AutoTakeoff,
36.6440313,-118.946748,4807.9072181575,1.64042,0.223694,0.9149278508,4100,2018-04-13 18:37:06,14,0,23.926,4807.9072181575,1.64042,0.4921268,0.9149278508,0,0,-0.223694,11, 2.3, 0.9,0,0,1024,1024,1025,1024,9.6,-89.9,100,3.981,3.952,3.957,3.996,0,0,13.886,60.8,11,AutoTakeoff,
36.6440315,-118.946748,4808.2353021575,1.968504,0.223694,0.97957024132,4300,2018-04-13 18:37:06,14,0,23.926,4808.2353021575,1.968504,0.4921268,0.97957024132,0,0,0,11.1, 2.4, 0.8,0,0,1024,1024,1025,1024,9.6,-89.9,100,3.981,3.952,3.957,3.996,0,0,13.886,60.8,11,AutoTakeoff,
36.6440317,-118.9467481,4808.2353021575,1.968504,0.223694,1.05794294724,4400,2018-04-13 18:37:06,14,0,23.926,4808.2353021575,1.968504,0.4921268,1.05794294724,0,0,0,11.2, 2.3, 0.7,0,0,1024,1024,1025,1024,9.6,-89.9,100,3.981,3.952,3.957,3.996,0,0,13.886,60.8,11,AutoTakeoff,
36.6440318,-118.9467481,4808.5633861575,2.296588,0.223694,1.09077759396,4500,2018-04-13 18:37:07,14,0,23.926,4808.5633861575,2.296588,0.4921268,1.09077759396,0,0,0,11.4, 2, 0.8,0,0,1024,1024,1025,1024,9.6,-89.9,100,3.981,3.952,3.957,3.996,0,0,13.886,60.8,11,AutoTakeoff,
36.6440321,-118.9467482,4808.8914701575,2.624672,0.223694,1.20237208572,4600,2018-04-13 18:37:07,13,0,23.926,4808.8914701575,2.624672,0.4921268,1.20237208572,0,0,0,11.6, 1.9, 0.7,0,0,1024,1024,1025,1024,9.7,-89.9,100,3.981,3.952,3.957,3.996,0,0,13.886,60.8,11,AutoTakeoff,
36.6440324,-118.9467483,4808.8914701575,2.624672,0.223694,1.31426185308,4800,2018-04-13 18:37:07,13,0,23.926,4808.8914701575,2.624672,0.4921268,1.31426185308,0,0,-0.223694,11.5, 1.8, 1,0,0,1024,1024,1025,1024,9.7,-89.9,100,3.981,3.952,3.957,3.996,0,0,13.886,60.8,11,AutoTakeoff,
36.6440326,-118.9467484,4809.2195541575,2.952756,0.223694,1.3928478136,4900,2018-04-13 18:37:07,14,0,23.926,4809.2195541575,2.952756,0.4921268,1.3928478136,0,0,-0.223694,11.3, 2, 1.2,0,0,1024,1024,1025,1024,9.7,-89.9,100,3.981,3.952,3.957,3.996,0,0,13.886,60.8,6,P-GPS,
36.6440327,-118.9467485,4809.2195541575,2.952756,0.223694,1.4380413846,5000,2018-04-13 18:37:07,14,0,23.503,4809.2195541575,2.952756,0.4921268,1.4380413846,0,0,0,11.1, 2.2, 1.4,0,0,1024,1024,1025,1024,9.7,-89.9,98,3.981,3.952,3.957,3.996,0,0,15.8,60.8,14,Waypoint,
36.6440328,-118.9467486,4809.5476381575,3.28084,0.223694,1.48333009996,5100,2018-04-13 18:37:07,14,0,23.503,4809.5476381575,3.28084,0.4921268,1.48333009996,0,0,0,11, 2.6, 1.7,0,0,1024,1024,1025,1024,9.7,-89.9,98,3.981,3.952,3.957,3.996,0,0,15.8,60.8,14,Waypoint,
36.644033,-118.9467488,4809.5476381575,3.28084,0.223694,1.57417327872,5200,2018-04-13 18:37:07,14,0,23.503,4809.5476381575,3.28084,0.4921268,1.57417327872,0,0,0,10.9, 2.7, 1.8,0,0,1024,1024,1025,1024,9.7,-89.9,98,3.981,3.952,3.957,3.996,0,0,15.8,60.8,14,Waypoint,
36.6440332,-118.946749,4809.8757221575,3.608924,0.223694,1.66531501392,5300,2018-04-13 18:37:07,14,0,23.503,4809.8757221575,3.608924,0.4921268,1.66531501392,0,0,0,10.9, 2.7, 2.2,0,0,1024,1024,1025,1024,9.8,-89.9,98,3.981,3.952,3.957,3.996,0,0,15.8,60.8,14,Waypoint,
36.6440334,-118.946749,4809.8757221575,3.608924,0.223694,1.73115819188,5400,2018-04-13 18:37:07,14,0,23.503,4809.8757221575,3.608924,0.4921268,1.73115819188,0,0,0,11, 2.6, 2.3,0,0,1024,1024,1025,1024,9.8,-89.9,98,3.981,3.952,3.957,3.996,0,0,15.8,60.8,14,Waypoint,
36.6440335,-118.946749,4810.2038061575,3.937008,0.223694,1.7642881142,5500,2018-04-13 18:37:08,14,0,23.503,4810.2038061575,3.937008,0.4921268,1.7642881142,0,0,-0.223694,11, 2.6, 1.8,0,0,1024,1024,1025,1024,9.8,-89.9,98,3.981,3.952,3.957,3.996,0,0,15.8,60.8,14,Waypoint,
36.6440336,-118.946749,4810.2038061575,3.937008,0,1.79754927012,5600,2018-04-13 18:37:08,14,0,23.503,4810.2038061575,3.937008,0.4921268,1.79754927012,0,0,-0.223694,11, 2.6, 1.3,0,0,1024,1024,1025,1024,9.8,-89.9,98,3.981,3.952,3.957,3.996,0,0,15.8,60.8,14,Waypoint,
36.6440338,-118.946749,4810.5318901575,4.265092,0,1.8644357552,5700,2018-04-13 18:37:08,14,0,23.503,4810.5318901575,4.265092,0.4921268,1.8644357552,0,0,-0.223694,11, 2.5, 1,0,0,1024,1024,1025,1024,9.8,-89.9,98,3.981,3.952,3.957,3.996,0,0,15.8,60.8,14,Waypoint,
36.6440339,-118.946749,4811.1880581575,4.92126,0,1.89804468016,5800,2018-04-13 18:37:08,14,0,23.503,4811.1880581575,4.92126,0.4921268,1.89804468016,0,0,-0.223694,11.2, 2.4, 1,0,0,1024,1024,1024,1024,9.8,-89.9,98,3.981,3.952,3.957,3.996,0,0,15.8,60.8,14,Waypoint,
36.644034,-118.9467492,4812.1723101575,5.905512,0,1.9546916636,6100,2018-04-13 18:37:08,14,0,23.503,4812.1723101575,5.905512,0.4921268,1.9546916636,0,0,-0.447388,11.4, 2.2, 1.6,0,0,1024,1024,1025,1024,9.9,-89.9,98,3.981,3.952,3.957,3.996,0,0,15.8,60.8,14,Waypoint,
36.6440341,-118.9467493,4812.8284781575,6.56168,0,1.9999344472,6210,2018-04-13 18:37:08,14,0,23.503,4812.8284781575,6.56168,0.4921268,1.9999344472,0,0,-0.447388,11.4, 2.2, 1.8,0,0,1024,1024,1025,1024,9.9,-89.9,98,3.981,3.952,3.957,3.996,0,0,15.8,60.8,14,Waypoint,
36.6440342,-118.9467495,4814.1408141575,7.874016,0,2.05756896348,6310,2018-04-13 18:37:08,13,0,23.503,4814.1408141575,7.874016,0.4921268,2.05756896348,0,0,-0.447388,11.4, 2, 1.4,0,0,1024,1024,1025,1024,9.9,-89.9,98,3.981,3.952,3.957,3.996,0,0,15.8,60.8,14,Waypoint,
36.6440343,-118.9467497,4815.1250661575,8.858268,0,2.11588589448,6510,2018-04-13 18:37:09,14,0,23.503,4815.1250661575,8.858268,0.4921268,2.11588589448,0,0,-0.671082,11.4, 1.9, 1.6,0,0,1024,1024,1025,1024,9.9,-90,98,3.981,3.952,3.957,3.996,0,0,15.8,60.8,14,Waypoint,
36.6440344,-118.9467503,4817.0935701575,10.826772,0,2.23084324724,6730,2018-04-13 18:37:09,14,0,23.503,4817.0935701575,10.826772,0.4921268,2.23084324724,0,0,-0.671082,11.2, 1.6, 2.2,0,0,1024,1024,1025,1024,10,-89.9,98,3.981,3.952,3.957,3.996,0,0,15.8,60.8,14,Waypoint,
36.6440344,-118.9467503,4817.0935701575,10.826772,0,2.23084324724,6800,2018-04-13 18:37:09,14,0,23.503,4817.0935701575,10.826772,0.4921268,2.23084324724,0,0,-0.671082,11.2, 1.6, 2.2,0,0,1024,1024,1025,1024,10,-89.9,98,3.981,3.952,3.957,3.996,0,0,15.8,60.8,14,Waypoint,
36.6440345,-118.9467506,4818.0778221575,11.811024,0,2.3069882628,6900,2018-04-13 18:37:09,14,0,23.503,4818.0778221575,11.811024,0.4921268,2.3069882628,0,0,-0.671082,11.2, 1.8, 2.7,0,0,1024,1024,1025,1024,10,-89.9,98,3.981,3.952,3.957,3.996,0,0,15.8,60.8,14,Waypoint,
36.6440347,-118.9467509,4819.0620741575,12.795276,0,2.41528222952,7000,2018-04-13 18:37:09,12,0,22.838,4819.0620741575,12.795276,0.4921268,2.41528222952,0,0,-0.671082,11.1, 2, 3,0,0,1024,1024,1025,1024,10,-89.9,98,3.788,3.788,3.762,3.799,0,0,23.17,60.8,14,Waypoint,
36.6440349,-118.9467512,4820.3744101575,14.107612,0,2.52409128812,7200,2018-04-13 18:37:09,12,0,22.838,4820.3744101575,14.107612,0.4921268,2.52409128812,0,0,-0.671082,11.2, 2.2, 3.1,0,0,1024,1024,1025,1024,10,-89.9,98,3.788,3.788,3.762,3.799,0,0,23.17,60.8,14,Waypoint,
36.6440351,-118.9467514,4821.3586621575,15.091864,0,2.61719824648,7300,2018-04-13 18:37:09,14,0,22.838,4821.3586621575,15.091864,0.4921268,2.61719824648,0,0,-0.671082,11.2, 2.7, 3.2,0,0,1024,1024,1025,1024,10,-89.9,98,3.788,3.788,3.762,3.799,0,0,23.17,60.8,14,Waypoint,
36.6440351,-118.9467515,4823.3271661575,17.060368,0,2.63335638348,7500,2018-04-13 18:37:10,14,0,22.838,4823.3271661575,17.060368,0.4921268,2.63335638348,0,0,-0.671082,11.2, 3.1, 3.1,0,0,1024,1024,1025,1024,10,-89.9,98,3.788,3.788,3.762,3.799,0,0,23.17,60.8,14,Waypoint,
36.6440351,-118.9467513,4824.6395021575,18.372704,0.223694,2.60126976828,7700,2018-04-13 18:37:10,14,0,22.838,4824.6395021575,18.372704,0.4921268,2.63335638348,0,0,-0.671082,11.2, 2.9, 2.5,0,0,1024,1024,1025,1024,10,-89.9,98,3.788,3.788,3.762,3.799,0,0,23.17,60.8,14,Waypoint,
36.6440348,-118.9467508,4826.6080061575,20.341208,0.3131716,2.43093511716,7810,2018-04-13 18:37:10,14,0,22.838,4826.6080061575,20.341208,0.4921268,2.63335638348,0,0,-0.671082,11.3, 2.1, 1.2,0,0,1024,1024,1025,1024,10,-90,98,3.788,3.788,3.762,3.799,0,0,23.17,60.8,14,Waypoint,
36.6440346,-118.9467505,4827.9203421575,21.653544,0.3131716,2.32333340768,8000,2018-04-13 18:37:10,15,0,22.838,4827.9203421575,21.653544,0.4921268,2.63335638348,0,0,-0.671082,11.2, 1.7, 0.4,0,0,1024,1024,1025,1024,10,-90,98,3.788,3.788,3.762,3.799,0,0,23.17,60.8,14,Waypoint,
36.6440345,-118.9467504,4828.9045941575,22.637796,0.3131716,2.27707684452,8100,2018-04-13 18:37:10,15,0,22.838,4828.9045941575,22.637796,0.4921268,2.63335638348,0,0,-0.671082,11.1, 1.3, 0,0,0,1024,1024,1025,1024,10,-90,98,3.788,3.788,3.762,3.799,0,0,23.17,60.8,14,Waypoint,
36.6440343,-118.9467501,4830.2169301575,23.950132,0.3131716,2.17026909832,8200,2018-04-13 18:37:10,15,0,22.838,4830.2169301575,23.950132,0.4921268,2.63335638348,0,0,-0.671082,11, 1.2, -0.1,0,0,1024,1024,1025,1024,10,-90,98,3.788,3.788,3.762,3.799,0,0,23.17,60.8,14,Waypoint,
36.6440339,-118.9467486,4834.4820221575,28.215224,0.3131716,1.85604336648,8400,2018-04-13 18:37:10,14,0,22.838,4834.4820221575,28.215224,0.4921268,2.63335638348,0,0,-0.671082,10.7, 1.4, -1.4,0,0,1024,1024,1025,1024,10,-90,98,3.788,3.788,3.762,3.799,0,0,23.17,60.8,14,Waypoint,
36.6440338,-118.9467482,4835.7943581575,29.52756,0.3131716,1.7855479574,8500,2018-04-13 18:37:11,14,0,22.838,4835.7943581575,29.52756,0.4921268,2.63335638348,0,0,-0.671082,10.7, 1.5, -1.8,0,0,1024,1024,1025,1024,10,-90,98,3.788,3.788,3.762,3.799,0,0,23.17,60.8,14,Waypoint,
36.6440337,-118.9467475,4837.7628621575,31.496064,0.223694,1.70364506764,8600,2018-04-13 18:37:11,15,0,22.838,4837.7628621575,31.496064,0.4921268,2.63335638348,0,0,-0.671082,10.8, 1.3, -1.9,0,0,1024,1024,1025,1024,10,-90,98,3.788,3.788,3.762,3.799,0,0,23.17,60.8,14,Waypoint,
36.6440336,-118.9467472,4839.0751981575,32.8084,0.223694,1.6545604204,8700,2018-04-13 18:37:11,14,0,22.838,4839.0751981575,32.8084,0.4921268,2.63335638348,0,0,-0.671082,10.8, 1.2, -1.8,0,0,1024,1024,1025,1024,10,-89.9,98,3.788,3.788,3.762,3.799,0,0,23.17,60.8,14,Waypoint,
36.6440335,-118.9467467,4841.0437021575,34.776904,0,1.60640425088,8800,2018-04-13 18:37:11,15,0,22.838,4841.0437021575,34.776904,0.4921268,2.63335638348,0,0,-0.671082,11.1, 1.4, -1.5,0,0,1024,1024,1025,1024,10,-89.9,98,3.788,3.788,3.762,3.799,0,0,23.17,60.8,14,Waypoint,
36.6440335,-118.9467465,4842.0279541575,35.761156,0,1.60533797788,8910,2018-04-13 18:37:11,15,0,22.838,4842.0279541575,35.761156,0.4921268,2.63335638348,0,0,-0.671082,11.1, 1.5, -1.6,0,0,1024,1024,1025,1024,10,-89.9,98,3.788,3.788,3.762,3.799,0,0,23.17,60.8,14,Waypoint,
36.6440334,-118.9467464,4843.3402901575,37.073492,0,1.56912406596,9000,2018-04-13 18:37:11,15,0,22.922,4843.3402901575,37.073492,0.4921268,2.63335638348,0,0,-0.671082,11.1, 1.6, -1.6,0,0,1024,1024,1025,1024,10,-89.9,98,3.785,3.777,3.732,3.775,0,0,19.24,60.8,14,Waypoint,
36.6440335,-118.9467462,4844.3245421575,38.057744,0,1.60773627192,9100,2018-04-13 18:37:11,15,0,22.922,4844.3245421575,38.057744,0.4921268,2.63335638348,0,0,-0.671082,11, 1.8, -1.5,0,0,1024,1024,1025,1024,10,-89.9,98,3.785,3.777,3.732,3.775,0,0,19.24,60.8,14,Waypoint,
36.6440335,-118.9467461,4845.3087941575,39.041996,0,1.60960306988,9200,2018-04-13 18:37:11,15,0,22.922,4845.3087941575,39.041996,0.4921268,2.63335638348,0,0,-0.671082,10.9, 2.1, -1.6,0,0,1024,1024,1025,1024,10.1,-89.9,98,3.785,3.777,3.732,3.775,0,0,19.24,60.8,14,Waypoint,
36.6440334,-118.946746,4846.2930461575,40.026248,0,1.57566606092,9300,2018-04-13 18:37:11,15,0,22.922,4846.2930461575,40.026248,0.4921268,2.63335638348,0,0,-0.671082,10.8, 2.3, -1.7,0,0,1024,1024,1025,1024,10.1,-89.9,98,3.785,3.777,3.732,3.775,0,0,19.24,60.8,14,Waypoint,
36.6440334,-118.9467459,4847.2772981575,41.0105,0,1.57865490616,9400,2018-04-13 18:37:11,15,0,22.922,4847.2772981575,41.0105,0.4921268,2.63335638348,0,0,-0.671082,10.7, 2.3, -1.8,0,0,1024,1024,1025,1024,10.1,-89.9,98,3.785,3.777,3.732,3.775,0,0,19.24,60.8,14,Waypoint,
36.6440334,-118.9467459,4848.2615501575,41.994752,0,1.57865490616,9500,2018-04-13 18:37:12,15,0,22.922,4848.2615501575,41.994752,0.4921268,2.63335638348,0,0,-0.671082,10.6, 2.2, -1.7,0,0,1024,1024,1025,1024,10,-89.9,98,3.785,3.777,3.732,3.775,0,0,19.24,60.8,14,Waypoint,
36.6440334,-118.9467459,4849.2458021575,42.979004,0,1.57865490616,9700,2018-04-13 18:37:12,15,0,22.922,4849.2458021575,42.979004,0.4921268,2.63335638348,0,0,-0.671082,10.6, 2.1, -1.4,0,0,1024,1024,1025,1024,10,-89.9,98,3.785,3.777,3.732,3.775,0,0,19.24,60.8,14,Waypoint,
36.6440335,-118.9467458,4850.2300541575,43.963256,0,1.61836291268,9800,2018-04-13 18:37:12,15,0,22.922,4850.2300541575,43.963256,0.4921268,2.63335638348,0,0,-0.671082,10.6, 2.1, -1.2,0,0,1024,1024,1025,1024,10.1,-89.9,98,3.785,3.777,3.732,3.775,0,0,19.24,60.8,14,Waypoint,
36.6440335,-118.9467458,4851.2143061575,44.947508,0,1.61836291268,9900,2018-04-13 18:37:12,15,0,22.922,4851.2143061575,44.947508,0.4921268,2.63335638348,0,0,-0.671082,10.7, 2.2, -1,0,0,1024,1024,1025,1024,10.1,-89.9,98,3.785,3.777,3.732,3.775,0,0,19.24,60.8,14,Waypoint,
36.6440335,-118.9467459,4852.1985581575,45.93176,0,1.61491803068,10000,2018-04-13 18:37:12,15,0,22.922,4852.1985581575,45.93176,0.4921268,2.63335638348,0,0,-0.671082,10.9, 2.2, -0.9,0,0,1024,1024,1025,1024,10.1,-89.9,98,3.826,3.811,3.774,3.823,0,0,19.24,60.8,14,Waypoint,
36.6440335,-118.946746,4853.1828101575,46.916012,0,1.61199480224,10100,2018-04-13 18:37:12,17,0,22.922,4853.1828101575,46.916012,0.4921268,2.63335638348,0,0,-0.671082,11, 2.2, -0.6,0,0,1024,1024,1025,1024,10.1,-89.9,98,3.826,3.811,3.774,3.823,0,0,19.24,60.8,14,Waypoint,
36.6440335,-118.946746,4854.1670621575,47.900264,0,1.61199480224,10200,2018-04-13 18:37:12,17,0,22.922,4854.1670621575,47.900264,0.4921268,2.63335638348,0,0,-0.671082,11, 2.1, -0.5,0,0,1024,1024,1025,1024,10.1,-89.9,98,3.826,3.811,3.774,3.823,0,0,19.24,60.8,14,Waypoint,
36.6440335,-118.946746,4855.1513141575,48.884516,0,1.61199480224,10300,2018-04-13 18:37:12,17,0,22.922,4855.1513141575,48.884516,0.4921268,2.63335638348,0,0,-0.671082,11.1, 2, -0.6,0,0,1024,1024,1025,1024,10.1,-89.9,98,3.826,3.811,3.774,3.823,0,0,19.24,60.8,14,Waypoint,
36.6440335,-118.946746,4856.1355661575,49.868768,0,1.61199480224,10400,2018-04-13 18:37:12,17,0,22.922,4856.1355661575,49.868768,0.4921268,2.63335638348,0,0,-0.671082,11.1, 1.9, -0.8,0,0,1024,1024,1025,1024,10.1,-89.9,98,3.826,3.811,3.774,3.823,0,0,19.24,60.8,14,Waypoint,
36.6440335,-118.9467459,4857.1198181575,50.85302,0,1.61491803068,10500,2018-04-13 18:37:13,17,0,22.922,4857.1198181575,50.85302,0.4921268,2.63335638348,0,0,-0.671082,11, 1.9, -1,0,0,1024,1024,1025,1024,10.1,-89.9,98,3.826,3.811,3.774,3.823,0,0,19.24,60.8,14,Waypoint,
36.6440336,-118.946746,4858.1040701575,51.837272,0,1.64833338608,10600,2018-04-13 18:37:13,17,0,22.922,4858.1040701575,51.837272,0.4921268,2.63335638348,0,0,-0.671082,10.9, 2.1, -1.2,0,0,1024,1024,1025,1024,10.1,-89.9,98,3.826,3.811,3.774,3.823,0,0,19.24,60.8,14,Waypoint,
36.6440336,-118.946746,4858.7602381575,52.49344,0,1.64833338608,10700,2018-04-13 18:37:13,16,0,22.922,4858.7602381575,52.49344,0.4921268,2.63335638348,0,0,-0.671082,10.9, 2.1, -1.3,0,0,1024,1024,1025,1024,10.1,-89.9,98,3.826,3.811,3.774,3.823,0,0,19.24,60.8,14,Waypoint,
36.6440336,-118.946746,4860.0725741575,53.805776,0,1.64833338608,10800,2018-04-13 18:37:13,16,0,22.922,4860.0725741575,53.805776,0.4921268,2.63335638348,0,0,-0.671082,11, 2.1, -1.4,0,0,1024,1024,1025,1024,10.1,-89.9,98,3.826,3.811,3.774,3.823,0,0,19.24,60.8,14,Waypoint,
36.6440336,-118.9467461,4862.0410781575,55.77428,0,1.64599414716,10900,2018-04-13 18:37:13,17,0,22.922,4862.0410781575,55.77428,0.4921268,2.63335638348,0,0,-0.671082,11, 2, -1.4,0,0,1024,1024,1025,1024,10.1,-89.9,98,3.826,3.811,3.774,3.823,0,0,19.24,60.8,14,Waypoint,
36.6440336,-118.9467462,4863.0253301575,56.758532,0,1.64417000012,11000,2018-04-13 18:37:13,16,0,22.985,4863.0253301575,56.758532,0.4921268,2.63335638348,0,0,-0.671082,11, 2, -1.3,0,0,1024,1024,1025,1024,10.1,-89.9,98,3.835,3.815,3.789,3.821,0,0,18.243,60.8,14,Waypoint,
36.6440336,-118.9467462,4864.0095821575,57.742784,0,1.64417000012,11100,2018-04-13 18:37:13,16,0,22.985,4864.0095821575,57.742784,0.4921268,2.63335638348,0,0,-0.671082,10.9, 2, -1.4,0,0,1024,1024,1025,1024,10,-89.9,98,3.835,3.815,3.789,3.821,0,0,18.243,60.8,14,Waypoint,
36.6440336,-118.9467463,4864.9938341575,58.727036,0,1.64286750664,11200,2018-04-13 18:37:13,16,0,22.985,4864.9938341575,58.727036,0.4921268,2.63335638348,0,0,-0.671082,10.9, 2, -1.6,0,0,1024,1024,1025,1024,10.1,-89.9,98,3.835,3.815,3.789,3.821,0,0,18.243,60.8,14,Waypoint,
36.6440336,-118.9467465,4866.9623381575,60.69554,0,1.64182091868,11410,2018-04-13 18:37:13,16,0,22.985,4866.9623381575,60.69554,0.4921268,2.63335638348,0,0,-0.671082,11, 1.9, -1.1,0,0,1024,1024,1025,1024,10,-89.9,98,3.835,3.815,3.789,3.821,0,0,18.243,60.8,14,Waypoint,
36.6440336,-118.9467465,4867.9465901575,61.679792,0,1.64182091868,11600,2018-04-13 18:37:14,16,0,22.985,4867.9465901575,61.679792,0.4921268,2.63335638348,0,0,-0.671082,11.1, 1.9, -1.3,0,0,1024,1024,1025,1024,10.1,-89.9,98,3.835,3.815,3.789,3.821,0,0,18.243,60.8,14,Waypoint,
36.6440336,-118.9467466,4868.9308421575,62.664044,0,1.64208338588,11700,2018-04-13 18:37:14,16,0,22.985,4868.9308421575,62.664044,0.4921268,2.63335638348,0,0,-0.671082,11.1, 2, -1.8,0,0,1024,1024,1025,1024,10.1,-89.9,98,3.835,3.815,3.789,3.821,0,0,18.243,60.8,14,Waypoint,
36.6440336,-118.9467467,4869.9150941575,63.648296,0,1.64286750664,11800,2018-04-13 18:37:14,16,0,22.985,4869.9150941575,63.648296,0.4921268,2.63335638348,0,0,-0.671082,11.1, 2, -1.7,0,0,1024,1024,1025,1024,10.1,-89.9,98,3.835,3.815,3.789,3.821,0,0,18.243,60.8,14,Waypoint,
36.6440336,-118.9467468,4870.8993461575,64.632548,0,1.64417000012,11900,2018-04-13 18:37:14,16,0,22.985,4870.8993461575,64.632548,0.4921268,2.63335638348,0,0,-0.671082,11.3, 1.9, -1.3,0,0,1024,1024,1025,1024,10.1,-90,98,3.835,3.815,3.789,3.821,0,0,18.243,60.8,14,Waypoint,
36.6440336,-118.9467468,4871.8835981575,65.6168,0,1.64417000012,12100,2018-04-13 18:37:14,16,0,22.985,4871.8835981575,65.6168,0.4921268,2.63335638348,0,0,-0.671082,11.5, 1.9, -1.1,0,0,1024,1024,1025,1024,10,-90,98,3.835,3.815,3.789,3.821,0,0,18.243,60.8,14,Waypoint,
36.6440336,-118.9467469,4872.8678501575,66.601052,0,1.64599414716,12300,2018-04-13 18:37:14,17,0,22.985,4872.8678501575,66.601052,0.4921268,2.63335638348,0,0,-0.671082,11.5, 1.8, -1.2,0,0,1024,1024,1025,1024,10.1,-90,98,3.835,3.815,3.789,3.821,0,0,18.243,60.8,14,Waypoint,
36.6440336,-118.946747,4873.5240181575,67.25722,0,1.64833338608,12400,2018-04-13 18:37:14,17,0,22.985,4873.5240181575,67.25722,0.4921268,2.63335638348,0,0,-0.671082,11.4, 1.8, -1.2,0,0,1024,1024,1025,1024,10.1,-90,98,3.835,3.815,3.789,3.821,0,0,18.243,60.8,14,Waypoint,
36.6440336,-118.9467471,4874.5082701575,68.241472,0,1.65119099772,12510,2018-04-13 18:37:15,17,0,22.985,4874.5082701575,68.241472,0.4921268,2.63335638348,0,0,-0.671082,11.2, 1.8, -1,0,0,1024,1024,1025,1024,10.1,-89.9,98,3.835,3.815,3.789,3.821,0,0,18.243,60.8,14,Waypoint,
36.6440336,-118.9467472,4875.4925221575,69.225724,0,1.6545604204,12600,2018-04-13 18:37:15,17,0,22.985,4875.4925221575,69.225724,0.4921268,2.63335638348,0,0,-0.671082,11, 2, -0.8,0,0,1024,1024,1025,1024,10,-89.9,98,3.835,3.815,3.789,3.821,0,0,18.243,60.8,14,Waypoint,
36.6440336,-118.9467473,4876.4767741575,70.209976,0,1.65844165412,12800,2018-04-13 18:37:15,17,0,22.985,4876.4767741575,70.209976,0.4921268,2.63335638348,0,0,-0.671082,10.8, 2, -0.8,0,0,1024,1024,1025,1024,10,-89.9,98,3.835,3.815,3.789,3.821,0,0,18.243,60.8,14,Waypoint,
36.6440336,-118.9467473,4877.4610261575,71.194228,0,1.65844165412,12910,2018-04-13 18:37:15,17,0,22.985,4877.4610261575,71.194228,0.4921268,2.63335638348,0,0,-0.671082,10.6, 2.1, -0.8,0,0,1024,1024,1025,1024,10,-89.9,98,3.835,3.815,3.789,3.821,0,0,18.243,60.8,14,Waypoint,
36.6440337,-118.9467474,4879.4295301575,73.162732,0,1.69886160292,13000,2018-04-13 18:37:15,17,0,22.989,4879.4295301575,73.162732,0.4921268,2.63335638348,0,0,-0.671082,10, 2.3, -1.3,0,0,1024,1024,1025,1024,10,-89.9,98,3.842,3.818,3.8,3.831,0,0,17.856,60.8,14,Waypoint,
36.6440337,-118.9467474,4880.4137821575,74.146984,0,1.69886160292,13100,2018-04-13 18:37:15,17,0,22.989,4880.4137821575,74.146984,0.4921268,2.63335638348,0,0,-0.671082,9.8, 2.6, -1.8,0,0,1024,1024,1025,1024,10.1,-89.9,98,3.842,3.818,3.8,3.831,0,0,17.856,60.8,14,Waypoint,
36.6440337,-118.9467473,4882.3822861575,76.115488,0,1.69456698336,13240,2018-04-13 18:37:15,17,0,22.989,4882.3822861575,76.115488,0.4921268,2.63335638348,0,0,-0.671082,10, 2.2, -2.5,0,0,1024,1024,1025,1024,10.1,-89.9,98,3.842,3.818,3.8,3.831,0,0,17.856,60.8,14,Waypoint,
36.6440337,-118.9467473,4882.3822861575,76.115488,0,1.69456698336,13300,2018-04-13 18:37:15,17,0,22.989,4882.3822861575,76.115488,0.4921268,2.63335638348,0,0,-0.671082,10, 2.2, -2.5,0,0,1024,1024,1025,1024,10.1,-90,98,3.842,3.818,3.8,3.831,0,0,17.856,60.8,14,Waypoint,
36.6440336,-118.9467473,4884.6788741575,78.412076,0,1.65844165412,13400,2018-04-13 18:37:15,17,0,22.989,4884.6788741575,78.412076,0.4921268,2.63335638348,0,0,-0.671082,10.7, 1.7, -2.6,0,0,1024,1024,1025,1024,10.1,-90,98,3.842,3.818,3.8,3.831,0,0,17.856,60.8,14,Waypoint,
36.6440336,-118.9467473,4885.3350421575,79.068244,0,1.65844165412,13500,2018-04-13 18:37:16,17,0,22.989,4885.3350421575,79.068244,0.4921268,2.63335638348,0,0,-0.671082,10.9, 1.6, -2.4,0,0,1024,1024,1025,1024,10.1,-90,98,3.842,3.818,3.8,3.831,0,0,17.856,60.8,14,Waypoint,
36.6440337,-118.9467473,4887.3035461575,81.036748,0,1.69456698336,13600,2018-04-13 18:37:16,17,0,22.989,4887.3035461575,81.036748,0.4921268,2.63335638348,0,0,-0.671082,11.2, 2, -2.3,0,0,1024,1024,1025,1024,10.1,-89.9,98,3.842,3.818,3.8,3.831,0,0,17.856,60.8,14,Waypoint,
36.6440337,-118.9467472,4888.2877981575,82.021,0,1.69077105148,13700,2018-04-13 18:37:16,17,0,22.989,4888.2877981575,82.021,0.4921268,2.63335638348,0,0,-0.671082,11.2, 2.4, -2.4,0,0,1024,1024,1025,1024,10.1,-89.9,98,3.842,3.818,3.8,3.831,0,0,17.856,60.8,14,Waypoint,
36.6440337,-118.9467472,4889.6001341575,83.333336,0.223694,1.69077105148,13800,2018-04-13 18:37:16,17,0,22.989,4889.6001341575,83.333336,0.4921268,2.63335638348,0,0,-0.671082,11.1, 2.7, -2.5,0,0,1024,1024,1025,1024,10.1,-89.9,98,3.842,3.818,3.8,3.831,0,0,17.856,60.8,14,Waypoint,
36.6440338,-118.9467471,4890.5843861575,84.317588,0.223694,1.72376317852,13900,2018-04-13 18:37:16,17,0,22.989,4890.5843861575,84.317588,0.4921268,2.63335638348,0,0,-0.671082,10.9, 3, -3.1,0,0,1024,1024,1025,1024,10.1,-89.9,98,3.842,3.818,3.8,3.831,0,0,17.856,60.8,14,Waypoint,
36.6440338,-118.946747,4891.5686381575,85.30184,0.223694,1.72102695796,14000,2018-04-13 18:37:16,17,0,22.887,4891.5686381575,85.30184,0.4921268,2.63335638348,0,0,-0.671082,10.9, 3, -3.7,0,0,1024,1024,1025,1024,10.1,-89.9,98,3.831,3.802,3.768,3.806,0,0,17.882,60.8,14,Waypoint,
36.6440338,-118.9467469,4892.5528901575,86.286092,0.223694,1.71878614424,14100,2018-04-13 18:37:16,17,0,22.887,4892.5528901575,86.286092,0.4921268,2.63335638348,0,0,-0.671082,10.8, 2.7, -4.2,0,0,1024,1024,1025,1024,10.1,-89.9,98,3.831,3.802,3.768,3.806,0,0,17.882,60.8,14,Waypoint,
36.6440337,-118.9467468,4893.5371421575,87.270344,0,1.68060372832,14200,2018-04-13 18:37:16,17,0,22.887,4893.5371421575,87.270344,0.4921268,2.63335638348,0,0,-0.671082,10.9, 2.1, -4.4,0,0,1024,1024,1025,1024,10.1,-90,98,3.831,3.802,3.768,3.806,0,0,17.882,60.8,14,Waypoint,
36.6440337,-118.9467467,4894.5213941575,88.254596,0,1.67932748156,14300,2018-04-13 18:37:16,17,0,22.887,4894.5213941575,88.254596,0.4921268,2.63335638348,0,0,-0.671082,11.2, 1.7, -4.5,0,0,1024,1024,1025,1024,10.1,-90,98,3.831,3.802,3.768,3.806,0,0,17.882,60.8,14,Waypoint,
36.6440337,-118.9467467,4895.1775621575,88.910764,0,1.67932748156,14400,2018-04-13 18:37:16,17,0,22.887,4895.1775621575,88.910764,0.4921268,2.63335638348,0,0,-0.671082,11.5, 1.6, -4.3,0,0,1024,1024,1025,1024,10.1,-90,98,3.831,3.802,3.768,3.806,0,0,17.882,60.8,14,Waypoint,
36.6440337,-118.9467466,4896.1618141575,89.895016,0,1.67856304584,14500,2018-04-13 18:37:17,17,0,22.887,4896.1618141575,89.895016,0.4921268,2.63335638348,0,0,-0.671082,11.7, 1.8, -3.6,0,0,1024,1024,1025,1024,10.1,-89.9,98,3.831,3.802,3.768,3.806,0,0,17.882,60.8,14,Waypoint,
36.6440338,-118.9467467,4896.8179821575,90.551184,0,1.71579073732,14600,2018-04-13 18:37:17,17,0,22.887,4896.8179821575,90.551184,0.4921268,2.63335638348,0,0,-0.671082,11.8, 2.2, -2.8,0,0,1024,1024,1025,1024,10.1,-89.9,98,3.831,3.802,3.768,3.806,0,0,17.882,60.8,14,Waypoint,
36.6440338,-118.9467467,4897.4741501575,91.207352,0,1.71579073732,14700,2018-04-13 18:37:17,17,0,22.887,4897.4741501575,91.207352,0.4921268,2.63335638348,0,0,-0.671082,11.7, 2.9, -2.4,0,0,1024,1024,1025,1024,10.1,-89.9,98,3.831,3.802,3.768,3.806,0,0,17.882,60.8,14,Waypoint,
36.6440339,-118.9467467,4898.4584021575,92.191604,0,1.75225399308,14800,2018-04-13 18:37:17,17,0,22.887,4898.4584021575,92.191604,0.4921268,2.63335638348,0,0,-0.671082,11.4, 3.4, -2,0,0,1024,1024,1025,1024,10.1,-89.9,98,3.831,3.802,3.768,3.806,0,0,17.882,60.8,14,Waypoint,
36.6440341,-118.9467468,4900.0988221575,93.832024,0,1.82635832616,14900,2018-04-13 18:37:17,17,0,22.887,4900.0988221575,93.832024,0.4921268,2.63335638348,0,0,-0.671082,11, 3.9, -1.6,0,0,1024,1024,1025,1024,10.1,-89.9,98,3.831,3.802,3.768,3.806,0,0,17.882,60.8,14,Waypoint,
36.6440342,-118.9467469,4901.0830741575,94.816276,0,1.86441278932,15000,2018-04-13 18:37:17,17,0,22.933,4901.0830741575,94.816276,0.4921268,2.63335638348,0,0,-0.671082,10.9, 4, -1.7,0,0,1024,1024,1025,1024,10.1,-89.9,98,3.826,3.815,3.786,3.82,0,0,17.933,60.8,14,Waypoint,
36.6440343,-118.9467469,4902.0673261575,95.800528,0,1.90082683248,15100,2018-04-13 18:37:17,17,0,22.933,4902.0673261575,95.800528,0.4921268,2.63335638348,0,0,-0.671082,10.8, 4.1, -2.1,0,0,1024,1024,1025,1024,10.1,-89.9,98,3.826,3.815,3.786,3.82,0,0,17.933,60.8,14,Waypoint,
36.6440344,-118.946747,4904.0358301575,97.769032,0,1.93923234552,15300,2018-04-13 18:37:17,17,0,22.933,4904.0358301575,97.769032,0.4921268,2.63335638348,0,0,-0.671082,10.9, 4, -1.9,0,0,1024,1024,1025,1024,10.1,-89.9,98,3.826,3.815,3.786,3.82,0,0,17.933,60.8,14,Waypoint,
36.6440345,-118.9467471,4904.6919981575,98.4252,0,1.9780020318,15400,2018-04-13 18:37:17,17,0,22.933,4904.6919981575,98.4252,0.4921268,2.63335638348,0,0,-0.671082,10.9, 3.8, -1.9,0,0,1024,1024,1025,1024,10.1,-89.9,98,3.826,3.815,3.786,3.82,0,0,17.933,60.8,14,Waypoint,
36.6440345,-118.9467472,4905.6762501575,99.409452,0,1.98081371168,15510,2018-04-13 18:37:18,17,0,22.933,4905.6762501575,99.409452,0.4921268,2.63335638348,0,0,-0.671082,11, 3.5, -1.6,0,0,1024,1024,1025,1024,10.1,-89.9,98,3.826,3.815,3.786,3.82,0,0,17.933,60.8,14,Waypoint,
36.6440346,-118.9467472,4906.6605021575,100.393704,0,2.01710636376,15600,2018-04-13 18:37:18,17,0,22.933,4906.6605021575,100.393704,0.4921268,2.63335638348,0,0,-0.671082,11, 3.6, -1.6,0,0,1024,1024,1025,1024,10.1,-89.9,98,3.826,3.815,3.786,3.82,0,0,17.933,60.8,14,Waypoint,
36.6440346,-118.9467473,4907.6447541575,101.377956,0,2.0202920594,15700,2018-04-13 18:37:18,17,0,22.933,4907.6447541575,101.377956,0.4921268,2.63335638348,0,0,-0.671082,10.9, 3.8, -1.5,0,0,1024,1024,1025,1024,10.1,-89.9,98,3.826,3.815,3.786,3.82,0,0,17.933,60.8,14,Waypoint,
36.6440348,-118.9467474,4909.9413421575,103.674544,0,2.09626319044,15910,2018-04-13 18:37:18,17,0,22.933,4909.9413421575,103.674544,0.4921268,2.63335638348,0,0,-0.671082,10.7, 4.2, -1.7,0,0,1024,1024,1025,1024,10.1,-89.9,98,3.826,3.815,3.786,3.82,0,0,17.933,60.8,14,Waypoint,
36.6440348,-118.9467474,4909.9413421575,103.674544,0,2.09626319044,16000,2018-04-13 18:37:18,17,0,23.014,4909.9413421575,103.674544,0.4921268,2.63335638348,0,0,-0.671082,10.7, 4.2, -1.7,0,0,1024,1024,1025,1024,10.1,-89.9,98,3.792,3.786,3.784,3.824,0,0,19.976,60.8,14,Waypoint,
36.6440348,-118.9467474,4910.9255941575,104.658796,0,2.09626319044,16100,2018-04-13 18:37:18,17,0,23.014,4910.9255941575,104.658796,0.4921268,2.63335638348,0,0,-0.671082,10.7, 4.2, -2.1,0,0,1024,1024,1025,1024,10.1,-89.9,98,3.792,3.786,3.784,3.824,0,0,19.976,60.8,14,Waypoint,
36.6440349,-118.9467475,4912.8940981575,106.6273,0,2.13627959592,16300,2018-04-13 18:37:18,17,0,23.014,4912.8940981575,106.6273,0.4921268,2.63335638348,0,0,-0.671082,10.8, 4.6, -1.8,0,0,1024,1024,1025,1024,10.1,-89.9,98,3.792,3.786,3.784,3.824,0,0,19.976,60.8,14,Waypoint,
36.644035,-118.9467475,4913.8783501575,107.611552,0,2.1724246102,16400,2018-04-13 18:37:18,17,0,23.014,4913.8783501575,107.611552,0.4921268,2.63335638348,0,0,-0.671082,10.9, 4.7, -1.3,0,0,1024,1024,1025,1024,10.1,-89.9,98,3.792,3.786,3.784,3.824,0,0,19.976,60.8,14,Waypoint,
36.644035,-118.9467475,4914.8626021575,108.595804,0,2.1724246102,16500,2018-04-13 18:37:19,17,0,23.014,4914.8626021575,108.595804,0.4921268,2.63335638348,0,0,-0.671082,11, 4.7, -1.4,0,0,1024,1024,1025,1024,10.1,-89.9,98,3.792,3.786,3.784,3.824,0,0,19.976,60.8,14,Waypoint,
36.644035,-118.9467475,4915.8468541575,109.580056,0,2.1724246102,16600,2018-04-13 18:37:19,17,0,23.014,4915.8468541575,109.580056,0.4921268,2.63335638348,0,0,-0.671082,11.2, 4.3, -1.5,0,0,1024,1024,1025,1024,10.1,-89.9,98,3.792,3.786,3.784,3.824,0,0,19.976,60.8,14,Waypoint,
36.644035,-118.9467475,4916.8311061575,110.564308,0,2.1724246102,16700,2018-04-13 18:37:19,17,0,23.014,4916.8311061575,110.564308,0.4921268,2.63335638348,0,0,-0.671082,11.3, 4, -1.7,0,0,1024,1024,1025,1024,10.1,-89.9,98,3.792,3.786,3.784,3.824,0,0,19.976,60.8,14,Waypoint,
36.644035,-118.9467476,4917.8153581575,111.54856,0,2.17656503028,16800,2018-04-13 18:37:19,17,0,23.014,4917.8153581575,111.54856,0.4921268,2.63335638348,0,0,-0.671082,11.3, 3.9, -1.7,0,0,1024,1024,1025,1024,10.1,-89.9,98,3.792,3.786,3.784,3.824,0,0,19.976,60.8,14,Waypoint,
36.6440349,-118.9467476,4918.7996101575,112.532812,0,2.1404856328,16900,2018-04-13 18:37:19,17,0,23.014,4918.7996101575,112.532812,0.4921268,2.63335638348,0,0,-0.671082,11.1, 3.8, -1.5,0,0,1024,1024,1025,1024,10.1,-89.9,98,3.792,3.786,3.784,3.824,0,0,19.976,60.8,14,Waypoint,
36.6440349,-118.9467476,4920.1119461575,113.845148,0,2.1404856328,17000,2018-04-13 18:37:19,17,0,22.771,4920.1119461575,113.845148,0.4921268,2.63335638348,0,0,-0.671082,10.9, 3.7, -1.1,0,0,1024,1024,1025,1024,10.1,-89.9,97,3.799,3.777,3.751,3.789,0,0,18.949,60.8,14,Waypoint,
36.6440348,-118.9467476,4921.0961981575,114.8294,0,2.10442592036,17100,2018-04-13 18:37:19,17,0,22.771,4921.0961981575,114.8294,0.4921268,2.63335638348,0,0,-0.671082,10.6, 3.8, -1,0,0,1024,1024,1025,1024,10.1,-89.9,97,3.799,3.777,3.751,3.789,0,0,18.949,60.8,14,Waypoint,
36.6440347,-118.9467476,4923.0647021575,116.797904,0.223694,2.06837605044,17300,2018-04-13 18:37:19,17,0,22.771,4923.0647021575,116.797904,0.4921268,2.63335638348,0,0,-0.671082,10.3, 3.6, -2.3,0,0,1024,1024,1025,1024,10.1,-89.9,97,3.799,3.777,3.751,3.789,0,0,18.949,60.8,14,Waypoint,
36.6440346,-118.9467475,4924.3770381575,118.11024,0.223694,2.02791345072,17400,2018-04-13 18:37:19,17,0,22.771,4924.3770381575,118.11024,0.4921268,2.63335638348,0,0,-0.671082,10.4, 3.1, -2.6,0,0,1024,1024,1025,1024,10.1,-90,97,3.799,3.777,3.751,3.789,0,0,18.949,60.8,14,Waypoint,
36.6440345,-118.9467474,4925.3612901575,119.094492,0.223694,1.98772644156,17500,2018-04-13 18:37:20,17,0,22.771,4925.3612901575,119.094492,0.4921268,2.63335638348,0,0,-0.671082,10.6, 2.8, -2.8,0,0,1024,1024,1025,1024,10.1,-90,97,3.799,3.777,3.751,3.789,0,0,18.949,60.8,14,Waypoint,
36.6440343,-118.9467473,4927.3297941575,121.062996,0.223694,1.91161751524,17600,2018-04-13 18:37:20,17,0,22.771,4927.3297941575,121.062996,0.4921268,2.63335638348,0,0,-0.671082,11, 2.4, -3.4,0,0,1024,1024,1025,1024,10.1,-90,97,3.799,3.777,3.751,3.789,0,0,18.949,60.8,14,Waypoint,
36.6440342,-118.9467473,4928.3140461575,122.047248,0.223694,1.87541344584,17700,2018-04-13 18:37:20,17,0,22.771,4928.3140461575,122.047248,0.4921268,2.63335638348,0,0,-0.671082,11.1, 2.3, -3.5,0,0,1024,1024,1025,1024,10.1,-90,97,3.799,3.777,3.751,3.789,0,0,18.949,60.8,14,Waypoint,
36.6440341,-118.9467472,4929.2982981575,123.0315,0.223694,1.83572184352,17800,2018-04-13 18:37:20,17,0,22.771,4929.2982981575,123.0315,0.4921268,2.63335638348,0,0,-0.671082,11.2, 2.5, -3.3,0,0,1024,1024,1025,1024,10.1,-90,97,3.799,3.777,3.751,3.789,0,0,18.949,60.8,14,Waypoint,
36.644034,-118.9467472,4930.2825501575,124.015752,0,1.79946856152,17900,2018-04-13 18:37:20,17,0,22.771,4930.2825501575,124.015752,0.4921268,2.63335638348,0,0,-0.671082,11.2, 2.4, -3.4,0,0,1024,1024,1025,1024,10.1,-90,97,3.799,3.777,3.751,3.789,0,0,18.949,60.8,14,Waypoint,
36.6440339,-118.9467472,4931.2668021575,125.000004,0,1.76322512204,18000,2018-04-13 18:37:20,17,0,22.765,4931.2668021575,125.000004,0.4921268,2.63335638348,0,0,-0.671082,11.1, 2.3, -3.7,0,0,1024,1024,1025,1024,10.1,-90,97,3.799,3.793,3.763,3.797,0,0,18.584,60.8,14,Waypoint,
36.6440338,-118.9467471,4933.2353061575,126.968508,0,1.72376317852,18220,2018-04-13 18:37:20,17,0,22.765,4933.2353061575,126.968508,0.4921268,2.63335638348,0,0,-0.671082,10.9, 2.6, -3.3,0,0,1024,1024,1025,1024,10.1,-89.9,97,3.799,3.793,3.763,3.797,0,0,18.584,60.8,14,Waypoint,
36.6440337,-118.9467472,4934.2195581575,127.95276,0,1.69077105148,18300,2018-04-13 18:37:20,17,0,22.765,4934.2195581575,127.95276,0.4921268,2.63335638348,0,0,-0.671082,10.9, 2.7, -3.1,0,0,1024,1024,1025,1024,10.1,-89.9,97,3.799,3.793,3.763,3.797,0,0,18.584,60.8,14,Waypoint,
36.6440337,-118.9467472,4935.2038101575,128.937012,0,1.69077105148,18500,2018-04-13 18:37:21,17,0,22.765,4935.2038101575,128.937012,0.4921268,2.63335638348,0,0,-0.671082,10.8, 2.7, -2.9,0,0,1024,1024,1025,1024,10.1,-90,97,3.799,3.793,3.763,3.797,0,0,18.584,60.8,14,Waypoint,
36.6440336,-118.9467472,4936.1880621575,129.921264,0,1.6545604204,18600,2018-04-13 18:37:21,17,0,22.765,4936.1880621575,129.921264,0.4921268,2.63335638348,0,0,-0.671082,10.9, 2.5, -2.7,0,0,1024,1024,1025,1024,10.1,-90,97,3.799,3.793,3.763,3.797,0,0,18.584,60.8,14,Waypoint,
36.6440336,-118.9467472,4937.1723141575,130.905516,0,1.6545604204,18700,2018-04-13 18:37:21,17,0,22.765,4937.1723141575,130.905516,0.4921268,2.63335638348,0,0,-0.671082,10.9, 2.5, -2.6,0,0,1024,1024,1025,1024,10.1,-89.9,97,3.799,3.793,3.763,3.797,0,0,18.584,60.8,14,Waypoint,
36.6440336,-118.9467472,4938.1565661575,131.889768,0,1.6545604204,18800,2018-04-13 18:37:21,17,0,22.765,4938.1565661575,131.889768,0.4921268,2.63335638348,0,0,-0.671082,10.9, 2.6, -2.7,0,0,1024,1024,1025,1024,10.1,-89.9,97,3.799,3.793,3.763,3.797,0,0,18.584,60.8,14,Waypoint,
36.6440336,-118.9467473,4939.7969861575,133.530188,0,1.65844165412,19000,2018-04-13 18:37:21,17,0,22.876,4939.7969861575,133.530188,0.4921268,2.63335638348,0,0,-0.671082,10.9, 2.7, -2.8,0,0,1024,1024,1025,1024,10.1,-90,97,3.811,3.792,3.763,3.798,0,0,17.241,60.8,14,Waypoint,
36.6440336,-118.9467473,4940.7812381575,134.51444,0,1.65844165412,19100,2018-04-13 18:37:21,17,0,22.876,4940.7812381575,134.51444,0.4921268,2.63335638348,0,0,-0.671082,11, 2.6, -2.5,0,0,1024,1024,1025,1024,10.1,-90,97,3.811,3.792,3.763,3.798,0,0,17.241,60.8,14,Waypoint,
36.6440336,-118.9467473,4941.7654901575,135.498692,0,1.65844165412,19200,2018-04-13 18:37:21,17,0,22.876,4941.7654901575,135.498692,0.4921268,2.63335638348,0,0,-0.671082,11, 2.7, -2.5,0,0,1024,1024,1025,1024,10.1,-89.9,97,3.811,3.792,3.763,3.798,0,0,17.241,60.8,14,Waypoint,
36.6440336,-118.9467473,4942.7497421575,136.482944,0,1.65844165412,19300,2018-04-13 18:37:21,17,0,22.876,4942.7497421575,136.482944,0.4921268,2.63335638348,0,0,-0.671082,11, 3, -2.5,0,0,1024,1024,1025,1024,10.1,-89.9,97,3.811,3.792,3.763,3.798,0,0,17.241,60.8,14,Waypoint,
36.6440337,-118.9467473,4943.7339941575,137.467196,0,1.69456698336,19400,2018-04-13 18:37:21,17,0,22.876,4943.7339941575,137.467196,0.4921268,2.63335638348,0,0,-0.671082,11, 3.4, -2.8,0,0,1024,1024,1025,1024,10.1,-89.9,97,3.811,3.792,3.763,3.798,0,0,17.241,60.8,14,Waypoint,
36.6440338,-118.9467473,4945.0463301575,138.779532,0,1.7307087168,19500,2018-04-13 18:37:22,17,0,22.876,4945.0463301575,138.779532,0.4921268,2.63335638348,0,0,-0.671082,10.9, 3.8, -2.9,0,0,1024,1024,1025,1024,10.1,-89.9,97,3.811,3.792,3.763,3.798,0,0,17.241,60.8,14,Waypoint,
36.6440338,-118.9467473,4947.0148341575,140.748036,0,1.7307087168,19600,2018-04-13 18:37:22,17,0,22.876,4947.0148341575,140.748036,0.4921268,2.63335638348,0,0,-0.671082,10.8, 4.1, -3.2,0,0,1024,1024,1025,1024,10.1,-89.9,97,3.811,3.792,3.763,3.798,0,0,17.241,60.8,14,Waypoint,
36.6440339,-118.9467473,4947.9990861575,141.732288,0,1.76686685444,19700,2018-04-13 18:37:22,17,0,22.876,4947.9990861575,141.732288,0.4921268,2.63335638348,0,0,-0.671082,10.8, 4.1, -3.2,0,0,1024,1024,1025,1024,10.1,-89.9,97,3.811,3.792,3.763,3.798,0,0,17.241,60.8,14,Waypoint,
36.6440339,-118.9467473,4948.9833381575,142.71654,0,1.76686685444,19800,2018-04-13 18:37:22,17,0,22.876,4948.9833381575,142.71654,0.4921268,2.63335638348,0,0,-0.671082,10.9, 3.9, -3.1,0,0,1024,1024,1025,1024,10.1,-89.9,97,3.811,3.792,3.763,3.798,0,0,17.241,60.8,14,Waypoint,
36.6440339,-118.9467473,4949.9675901575,143.700792,0,1.76686685444,20000,2018-04-13 18:37:22,17,0,22.763,4949.9675901575,143.700792,0.4921268,2.63335638348,0,0,-0.671082,10.9, 3.6, -3,0,0,1024,1024,1025,1024,10.1,-90,97,3.811,3.792,3.763,3.798,0,0,18.826,62.6,14,Waypoint,
36.6440339,-118.9467473,4951.9360941575,145.669296,0,1.76686685444,20110,2018-04-13 18:37:22,17,0,22.763,4951.9360941575,145.669296,0.4921268,2.63335638348,0,0,-0.671082,10.9, 3.4, -2.9,0,0,1024,1024,1025,1024,10.1,-89.9,97,3.811,3.792,3.763,3.798,0,0,18.826,62.6,14,Waypoint,
36.6440338,-118.9467473,4952.9203461575,146.653548,0,1.7307087168,20200,2018-04-13 18:37:22,17,0,22.763,4952.9203461575,146.653548,0.4921268,2.63335638348,0,0,-0.671082,11, 3.3, -2.9,0,0,1024,1024,1025,1024,10.1,-90,97,3.811,3.792,3.763,3.798,0,0,18.826,62.6,14,Waypoint,
36.6440339,-118.9467474,4954.8888501575,148.622052,0,1.77098430864,20430,2018-04-13 18:37:22,17,0,22.763,4954.8888501575,148.622052,0.4921268,2.63335638348,0,0,-0.671082,10.9, 3.4, -2.7,0,0,1024,1024,1025,1024,10.1,-89.9,97,3.811,3.792,3.763,3.798,0,0,18.826,62.6,14,Waypoint,
36.6440339,-118.9467474,4954.8888501575,148.622052,0,1.77098430864,20500,2018-04-13 18:37:23,17,0,22.763,4954.8888501575,148.622052,0.4921268,2.63335638348,0,0,-0.671082,10.9, 3.4, -2.7,0,0,1024,1024,1025,1024,10.1,-89.9,97,3.811,3.792,3.763,3.798,0,0,18.826,62.6,14,Waypoint,
36.6440338,-118.9467474,4955.8731021575,149.606304,0,1.73491475368,20600,2018-04-13 18:37:23,17,0,22.763,4955.8731021575,149.606304,0.4921268,2.63335638348,0,0,-0.671082,10.9, 3.4, -2.6,0,0,1024,1024,1025,1024,10.1,-89.9,97,3.811,3.792,3.763,3.798,0,0,18.826,62.6,14,Waypoint,
36.6440339,-118.9467474,4956.8573541575,150.590556,0,1.77098430864,20700,2018-04-13 18:37:23,17,0,22.763,4956.8573541575,150.590556,0.4921268,2.63335638348,0,0,-0.671082,10.9, 3.3, -2.5,0,0,1024,1024,1025,1024,10.1,-89.9,97,3.811,3.792,3.763,3.798,0,0,18.826,62.6,14,Waypoint,
36.6440339,-118.9467475,4958.8258581575,152.55906,0,1.7755742038,20900,2018-04-13 18:37:23,17,0,22.763,4958.8258581575,152.55906,0.4921268,2.63335638348,0,0,-0.671082,10.9, 3.4, -2.5,0,0,1024,1024,1025,1024,10.1,-89.9,97,3.811,3.792,3.763,3.798,0,0,18.826,62.6,14,Waypoint,
36.6440339,-118.9467474,4959.8101101575,153.543312,0,1.77098430864,21000,2018-04-13 18:37:23,17,0,22.763,4959.8101101575,153.543312,0.4921268,2.63335638348,0,0,-0.671082,10.9, 3.6, -2.9,0,0,1024,1024,1025,1024,10.1,-89.9,97,3.796,3.775,3.744,3.779,0,0,18.826,62.6,14,Waypoint,
36.6440339,-118.9467474,4960.7943621575,154.527564,0,1.77098430864,21100,2018-04-13 18:37:23,17,0,22.763,4960.7943621575,154.527564,0.4921268,2.63335638348,0,0,-0.671082,10.9, 3.9, -3.1,0,0,1024,1024,1025,1024,10.1,-89.9,97,3.796,3.775,3.744,3.779,0,0,18.826,62.6,14,Waypoint,
36.6440339,-118.9467474,4962.1066981575,155.8399,0,1.77098430864,21200,2018-04-13 18:37:23,17,0,22.763,4962.1066981575,155.8399,0.4921268,2.63335638348,0,0,-0.671082,11, 4, -3.4,0,0,1024,1024,1025,1024,10.1,-89.9,97,3.796,3.775,3.744,3.779,0,0,18.826,62.6,14,Waypoint,
36.6440339,-118.9467474,4963.0909501575,156.824152,0,1.77098430864,21300,2018-04-13 18:37:23,17,0,22.763,4963.0909501575,156.824152,0.4921268,2.63335638348,0,0,-0.671082,11.1, 3.9, -3.5,0,0,1024,1024,1025,1024,10.1,-89.9,97,3.796,3.775,3.744,3.779,0,0,18.826,62.6,14,Waypoint,
36.6440339,-118.9467474,4964.0752021575,157.808404,0,1.77098430864,21400,2018-04-13 18:37:23,17,0,22.763,4964.0752021575,157.808404,0.4921268,2.63335638348,0,0,-0.671082,11.2, 3.7, -3.3,0,0,1024,1024,1025,1024,10.1,-89.9,97,3.796,3.775,3.744,3.779,0,0,18.826,62.6,14,Waypoint,
36.6440339,-118.9467474,4964.7313701575,158.464572,0,1.77098430864,21500,2018-04-13 18:37:24,17,0,22.763,4964.7313701575,158.464572,0.4921268,2.63335638348,0,0,-0.671082,11.1, 3.5, -3.3,0,0,1024,1024,1025,1024,10.1,-89.9,97,3.796,3.775,3.744,3.779,0,0,18.826,62.6,14,Waypoint,
36.6440339,-118.9467474,4966.0437061575,159.776908,0,1.77098430864,21600,2018-04-13 18:37:24,17,0,22.763,4966.0437061575,159.776908,0.4921268,2.63335638348,0,0,-0.671082,11, 3.3, -3,0,0,1024,1024,1025,1024,10.1,-89.9,97,3.796,3.775,3.744,3.779,0,0,18.826,62.6,14,Waypoint,
36.6440339,-118.9467474,4967.0279581575,160.76116,0,1.77098430864,21700,2018-04-13 18:37:24,17,0,22.763,4967.0279581575,160.76116,0.4921268,2.63335638348,0,0,-0.671082,10.9, 3.3, -2.7,0,0,1024,1024,1025,1024,10.1,-89.9,97,3.796,3.775,3.744,3.779,0,0,18.826,62.6,14,Waypoint,
36.6440339,-118.9467475,4968.0122101575,161.745412,0,1.7755742038,21800,2018-04-13 18:37:24,17,0,22.763,4968.0122101575,161.745412,0.4921268,2.63335638348,0,0,-0.671082,10.8, 3.5, -2.6,0,0,1024,1024,1025,1024,10.1,-89.9,97,3.796,3.775,3.744,3.779,0,0,18.826,62.6,14,Waypoint,
36.6440339,-118.9467475,4969.9807141575,163.713916,0,1.7755742038,21900,2018-04-13 18:37:24,17,0,22.763,4969.9807141575,163.713916,0.4921268,2.63335638348,0,0,-0.671082,10.7, 3.4, -2.6,0,0,1024,1024,1025,1024,10.1,-89.9,97,3.796,3.775,3.744,3.779,0,0,18.826,62.6,14,Waypoint,
36.6440339,-118.9467475,4970.9649661575,164.698168,0,1.7755742038,22000,2018-04-13 18:37:24,17,0,22.739,4970.9649661575,164.698168,0.4921268,2.63335638348,0,0,-0.671082,10.8, 3.3, -2.8,0,0,1024,1024,1025,1024,10.1,-89.9,97,3.797,3.784,3.748,3.784,0,0,18.179,62.6,14,Waypoint,
36.6440338,-118.9467475,4971.9492181575,165.68242,0,1.7395997932,22100,2018-04-13 18:37:24,17,0,22.739,4971.9492181575,165.68242,0.4921268,2.63335638348,0,0,-0.671082,10.8, 3.3, -3,0,0,1024,1024,1025,1024,10.1,-90,97,3.797,3.784,3.748,3.784,0,0,18.179,62.6,14,Waypoint,
36.6440338,-118.9467475,4972.9334701575,166.666672,0,1.7395997932,22210,2018-04-13 18:37:24,17,0,22.739,4972.9334701575,166.666672,0.4921268,2.63335638348,0,0,-0.671082,10.8, 3.2, -3.2,0,0,1024,1024,1025,1024,10.1,-89.9,97,3.797,3.784,3.748,3.784,0,0,18.179,62.6,14,Waypoint,
36.6440338,-118.9467475,4974.9019741575,168.635176,0,1.7395997932,22400,2018-04-13 18:37:24,17,0,22.739,4974.9019741575,168.635176,0.4921268,2.63335638348,0,0,-0.671082,10.8, 3.4, -3.2,0,0,1024,1024,1025,1024,10.1,-89.9,97,3.797,3.784,3.748,3.784,0,0,18.179,62.6,14,Waypoint,
36.6440338,-118.9467474,4975.8862261575,169.619428,0,1.73491475368,22500,2018-04-13 18:37:25,17,0,22.739,4975.8862261575,169.619428,0.4921268,2.63335638348,0,0,-0.671082,10.8, 3.4, -3.3,0,0,1024,1024,1025,1024,10.1,-89.9,97,3.797,3.784,3.748,3.784,0,0,18.179,62.6,14,Waypoint,
36.6440338,-118.9467474,4976.8704781575,170.60368,0,1.73491475368,22620,2018-04-13 18:37:25,17,0,22.739,4976.8704781575,170.60368,0.4921268,2.63335638348,0,0,-0.671082,10.8, 3.4, -3.2,0,0,1024,1024,1025,1024,10.1,-89.9,97,3.797,3.784,3.748,3.784,0,0,18.179,62.6,14,Waypoint,
36.6440338,-118.9467474,4976.8704781575,170.60368,0,1.73491475368,22700,2018-04-13 18:37:25,17,0,22.739,4976.8704781575,170.60368,0.4921268,2.63335638348,0,0,-0.671082,10.8, 3.4, -3.2,0,0,1024,1024,1025,1024,10.1,-89.9,97,3.797,3.784,3.748,3.784,0,0,18.179,62.6,14,Waypoint,
36.6440338,-118.9467474,4978.8389821575,172.572184,0,1.73491475368,22800,2018-04-13 18:37:25,17,0,22.739,4978.8389821575,172.572184,0.4921268,2.63335638348,0,0,-0.671082,10.8, 3.4, -3.1,0,0,1024,1024,1025,1024,10.1,-89.9,97,3.797,3.784,3.748,3.784,0,0,18.179,62.6,14,Waypoint,
36.6440337,-118.9467474,4979.8232341575,173.556436,0,1.69886160292,22910,2018-04-13 18:37:25,17,0,22.739,4979.8232341575,173.556436,0.4921268,2.63335638348,0,0,-0.671082,10.8, 3.4, -3.2,0,0,1024,1024,1025,1024,10.1,-89.9,97,3.797,3.784,3.748,3.784,0,0,18.179,62.6,14,Waypoint,
36.6440337,-118.9467474,4980.8074861575,174.540688,0,1.69886160292,23000,2018-04-13 18:37:25,17,0,22.735,4980.8074861575,174.540688,0.4921268,2.63335638348,0,0,-0.671082,10.8, 3.4, -3.5,0,0,1024,1024,1025,1024,10.1,-89.9,97,3.792,3.781,3.744,3.787,0,0,18.372,62.6,14,Waypoint,
36.6440337,-118.9467474,4981.7917381575,175.52494,0,1.69886160292,23200,2018-04-13 18:37:25,17,0,22.735,4981.7917381575,175.52494,0.4921268,2.63335638348,0,0,-0.671082,10.8, 3.4, -3.5,0,0,1024,1024,1025,1024,10.1,-90,97,3.792,3.781,3.744,3.787,0,0,18.372,62.6,14,Waypoint,
36.6440337,-118.9467475,4982.7759901575,176.509192,0,1.70364506764,23300,2018-04-13 18:37:25,17,0,22.735,4982.7759901575,176.509192,0.4921268,2.63335638348,0,0,-0.671082,10.9, 3.2, -3.3,0,0,1024,1024,1025,1024,10.1,-90,97,3.792,3.781,3.744,3.787,0,0,18.372,62.6,14,Waypoint,
36.6440336,-118.9467475,4983.7602421575,177.493444,0,1.6677165888,23400,2018-04-13 18:37:25,17,0,22.735,4983.7602421575,177.493444,0.4921268,2.63335638348,0,0,-0.671082,11.1, 3, -3,0,0,1024,1024,1025,1024,10.1,-90,97,3.792,3.781,3.744,3.787,0,0,18.372,62.6,14,Waypoint,
36.6440336,-118.9467475,4984.7444941575,178.477696,0,1.6677165888,23500,2018-04-13 18:37:26,17,0,22.735,4984.7444941575,178.477696,0.4921268,2.63335638348,0,0,-0.671082,11.2, 2.6, -2.8,0,0,1024,1024,1025,1024,10.1,-90,97,3.792,3.781,3.744,3.787,0,0,18.372,62.6,14,Waypoint,
36.6440335,-118.9467476,4985.4006621575,179.133864,0,1.63731632536,23600,2018-04-13 18:37:26,17,0,22.735,4985.4006621575,179.133864,0.4921268,2.63335638348,0,0,-0.671082,11.3, 2.3, -2.6,0,0,1024,1024,1025,1024,10.1,-90,97,3.792,3.781,3.744,3.787,0,0,18.372,62.6,14,Waypoint,
36.6440335,-118.9467476,4986.3849141575,180.118116,0,1.63731632536,23700,2018-04-13 18:37:26,17,0,22.735,4986.3849141575,180.118116,0.4921268,2.63335638348,0,0,-0.671082,11.3, 2.2, -2.8,0,0,1024,1024,1025,1024,10.1,-90,97,3.792,3.781,3.744,3.787,0,0,18.372,62.6,14,Waypoint,
36.6440335,-118.9467476,4987.3691661575,181.102368,0,1.63731632536,23800,2018-04-13 18:37:26,17,0,22.735,4987.3691661575,181.102368,0.4921268,2.63335638348,0,0,-0.671082,11.3, 2.3, -3,0,0,1024,1024,1025,1024,10.1,-90,97,3.792,3.781,3.744,3.787,0,0,18.372,62.6,14,Waypoint,
36.6440335,-118.9467477,4988.3534181575,182.08662,0,1.6433235434,23900,2018-04-13 18:37:26,17,0,22.735,4988.3534181575,182.08662,0.4921268,2.63335638348,0,0,-0.671082,11.1, 2.6, -3,0,0,1024,1024,1025,1024,10.1,-90,97,3.792,3.781,3.744,3.787,0,0,18.372,62.6,14,Waypoint,
36.6440335,-118.9467477,4989.3376701575,183.070872,0,1.6433235434,24000,2018-04-13 18:37:26,17,0,22.743,4989.3376701575,183.070872,0.4921268,2.63335638348,0,0,-0.671082,10.9, 2.9, -3.1,0,0,1024,1024,1025,1024,10.1,-89.9,97,3.801,3.786,3.743,3.79,0,0,18.223,62.6,14,Waypoint,
36.6440335,-118.9467478,4990.3219221575,184.055124,0,1.64982944912,24100,2018-04-13 18:37:26,17,0,22.743,4990.3219221575,184.055124,0.4921268,2.63335638348,0,0,-0.671082,10.9, 2.9, -3.1,0,0,1024,1024,1025,1024,10.1,-89.9,97,3.801,3.786,3.743,3.79,0,0,18.223,62.6,14,Waypoint,
36.6440335,-118.9467478,4991.3061741575,185.039376,0,1.64982944912,24200,2018-04-13 18:37:26,17,0,22.743,4991.3061741575,185.039376,0.4921268,2.63335638348,0,0,-0.671082,10.9, 2.8, -2.9,0,0,1024,1024,1025,1024,10.1,-90,97,3.801,3.786,3.743,3.79,0,0,18.223,62.6,14,Waypoint,
36.6440335,-118.9467479,4992.2904261575,186.023628,0,1.65682748084,24300,2018-04-13 18:37:26,17,0,22.743,4992.2904261575,186.023628,0.4921268,2.63335638348,0,0,-0.671082,11, 2.8, -2.6,0,0,1024,1024,1025,1024,10.1,-90,97,3.801,3.786,3.743,3.79,0,0,18.223,62.6,14,Waypoint,
36.6440335,-118.9467482,4994.2589301575,187.992132,0,1.68070543436,24400,2018-04-13 18:37:26,17,0,22.743,4994.2589301575,187.992132,0.4921268,2.63335638348,0,0,-0.671082,11.3, 2.5, -2.1,0,0,1024,1024,1025,1024,10.1,-89.9,97,3.801,3.786,3.743,3.79,0,0,18.223,62.6,14,Waypoint,
36.6440335,-118.9467482,4995.2431821575,188.976384,0,1.68070543436,24500,2018-04-13 18:37:27,17,0,22.743,4995.2431821575,188.976384,0.4921268,2.63335638348,0,0,-0.671082,11.4, 2.7, -2,0,0,1024,1024,1025,1024,10.1,-89.9,97,3.801,3.786,3.743,3.79,0,0,18.223,62.6,14,Waypoint,
36.6440335,-118.9467483,4996.2274341575,189.960636,0,1.68960635328,24610,2018-04-13 18:37:27,17,0,22.743,4996.2274341575,189.960636,0.4921268,2.63335638348,0,0,-0.671082,11.5, 2.8, -2.1,0,0,1024,1024,1025,1024,10.1,-89.9,97,3.801,3.786,3.743,3.79,0,0,18.223,62.6,14,Waypoint,
36.6440335,-118.9467484,4997.2116861575,190.944888,0,1.69896330896,24700,2018-04-13 18:37:27,17,0,22.743,4997.2116861575,190.944888,0.4921268,2.63335638348,0,0,-0.671082,11.5, 2.8, -2,0,0,1024,1024,1025,1024,10.1,-89.9,97,3.801,3.786,3.743,3.79,0,0,18.223,62.6,14,Waypoint,
36.6440335,-118.9467485,4998.1959381575,191.92914,0,1.70876973972,24800,2018-04-13 18:37:27,17,0,22.743,4998.1959381575,191.92914,0.4921268,2.63335638348,0,0,-0.671082,11.5, 2.8, -2,0,0,1024,1024,1025,1024,10.1,-89.9,97,3.801,3.786,3.743,3.79,0,0,18.223,62.6,14,Waypoint,
36.6440335,-118.9467487,5000.1644421575,193.897644,0,1.72970477976,25100,2018-04-13 18:37:27,17,0,22.743,5000.1644421575,193.897644,0.4921268,2.63335638348,0,0,-0.671082,11.2, 2.6, -1.7,0,0,1024,1024,1025,1024,10.1,-90,97,3.801,3.786,3.743,3.79,0,0,18.223,62.6,14,Waypoint,
36.6440335,-118.9467488,5001.1486941575,194.881896,0,1.74081698484,25200,2018-04-13 18:37:27,17,0,22.743,5001.1486941575,194.881896,0.4921268,2.63335638348,0,0,-0.671082,11.1, 2.5, -1.6,0,0,1024,1024,1025,1024,10.1,-90,97,3.801,3.786,3.743,3.79,0,0,18.223,62.6,14,Waypoint,
36.6440335,-118.9467489,5002.1329461575,195.866148,0,1.7523458566,25300,2018-04-13 18:37:27,17,0,22.743,5002.1329461575,195.866148,0.4921268,2.63335638348,0,0,-0.671082,11, 2.5, -1.6,0,0,1024,1024,1025,1024,10.1,-90,97,3.801,3.786,3.743,3.79,0,0,18.223,62.6,14,Waypoint,
36.6440335,-118.946749,5004.1014501575,197.834652,0,1.7642881142,25500,2018-04-13 18:37:28,17,0,22.743,5004.1014501575,197.834652,0.4921268,2.63335638348,0,0,-0.671082,10.8, 2.4, -1.6,0,0,1024,1024,1025,1024,10.1,-90,97,3.801,3.786,3.743,3.79,0,0,18.223,62.6,14,Waypoint,
36.6440335,-118.9467491,5005.4137861575,199.146988,0,1.77663063428,25600,2018-04-13 18:37:28,17,0,22.743,5005.4137861575,199.146988,0.4921268,2.63335638348,0,0,-0.671082,10.7, 2.4, -1.8,0,0,1024,1024,1025,1024,10.1,-89.9,97,3.801,3.786,3.743,3.79,0,0,18.223,62.6,14,Waypoint,
36.6440335,-118.9467492,5007.3822901575,201.115492,0,1.78936685516,25800,2018-04-13 18:37:28,17,0,22.743,5007.3822901575,201.115492,0.4921268,2.63335638348,0,0,-0.671082,11, 2.3, -1.5,0,0,1024,1024,1025,1024,10.1,-90,97,3.801,3.786,3.743,3.79,0,0,18.223,62.6,14,Waypoint,
36.6440335,-118.9467493,5008.3665421575,202.099744,0,1.80249021516,25900,2018-04-13 18:37:28,17,0,22.743,5008.3665421575,202.099744,0.4921268,2.63335638348,0,0,-0.671082,11.2, 2.1, -1.4,0,0,1024,1024,1025,1024,10.1,-90,97,3.801,3.786,3.743,3.79,0,0,18.223,62.6,14,Waypoint,
36.6440335,-118.9467493,5009.3507941575,203.083996,0,1.80249021516,26000,2018-04-13 18:37:28,17,0,22.62,5009.3507941575,203.083996,0.4921268,2.63335638348,0,0,-0.671082,11.3, 2.2, -1.1,0,0,1024,1024,1025,1024,10.1,-89.9,96,3.771,3.763,3.727,3.759,0,0,19.276,62.6,14,Waypoint,
36.6440335,-118.9467494,5010.3350461575,204.068248,0,1.81599087176,26100,2018-04-13 18:37:28,17,0,22.62,5010.3350461575,204.068248,0.4921268,2.63335638348,0,0,-0.671082,11.3, 2.6, -0.9,0,0,1024,1024,1025,1024,10.1,-89.9,96,3.771,3.763,3.727,3.759,0,0,19.276,62.6,14,Waypoint,
36.6440335,-118.9467494,5011.3192981575,205.0525,0,1.81599087176,26200,2018-04-13 18:37:28,17,0,22.62,5011.3192981575,205.0525,0.4921268,2.63335638348,0,0,-0.671082,11.1, 3.2, -0.9,0,0,1024,1024,1025,1024,10.1,-89.9,96,3.771,3.763,3.727,3.759,0,0,19.276,62.6,14,Waypoint,
36.6440335,-118.9467493,5012.3035501575,206.036752,0,1.80249021516,26300,2018-04-13 18:37:28,17,0,22.62,5012.3035501575,206.036752,0.4921268,2.63335638348,0,0,-0.671082,10.8, 3.5, -1.4,0,0,1024,1024,1025,1024,10.1,-89.9,96,3.771,3.763,3.727,3.759,0,0,19.276,62.6,14,Waypoint,
36.6440335,-118.9467493,5013.2878021575,207.021004,0,1.80249021516,26400,2018-04-13 18:37:28,17,0,22.62,5013.2878021575,207.021004,0.4921268,2.63335638348,0,0,-0.671082,10.5, 3.3, -2.2,0,0,1024,1024,1025,1024,10.1,-89.9,96,3.771,3.763,3.727,3.759,0,0,19.276,62.6,14,Waypoint,
36.6440334,-118.9467492,5016.5686421575,210.301844,0,1.7567093738,26600,2018-04-13 18:37:29,17,0,22.62,5016.5686421575,210.301844,0.4921268,2.63335638348,0,0,-0.671082,10.4, 2.3, -2.4,0,0,1024,1024,1025,1024,10.1,-90,96,3.771,3.763,3.727,3.759,0,0,19.276,62.6,14,Waypoint,
36.6440333,-118.9467491,5017.5528941575,211.286096,0,1.71098102588,26700,2018-04-13 18:37:29,17,0,22.62,5017.5528941575,211.286096,0.4921268,2.63335638348,0,0,-0.671082,10.6, 2, -2.2,0,0,1024,1024,1025,1024,10.1,-90,96,3.771,3.763,3.727,3.759,0,0,19.276,62.6,14,Waypoint,
36.6440333,-118.9467491,5018.2090621575,211.942264,0,1.71098102588,26800,2018-04-13 18:37:29,17,0,22.62,5018.2090621575,211.942264,0.4921268,2.63335638348,0,0,-0.671082,10.8, 2, -2.1,0,0,1024,1024,1025,1024,10.1,-90,96,3.771,3.763,3.727,3.759,0,0,19.276,62.6,14,Waypoint,
36.6440332,-118.946749,5020.1775661575,213.910768,0,1.66531501392,27020,2018-04-13 18:37:29,17,0,22.671,5020.1775661575,213.910768,0.4921268,2.63335638348,0,0,-0.671082,11.1, 2, -1.7,0,0,1024,1024,1025,1024,10.1,-89.9,96,3.782,3.779,3.733,3.776,0,0,18.359,62.6,14,Waypoint,
36.6440331,-118.946749,5021.1618181575,214.89502,0,1.63261816248,27110,2018-04-13 18:37:29,17,0,22.671,5021.1618181575,214.89502,0.4921268,2.63335638348,0,0,-0.671082,11.1, 2.1, -1.7,0,0,1024,1024,1025,1024,10.1,-90,96,3.782,3.779,3.733,3.776,0,0,18.359,62.6,14,Waypoint,
36.6440331,-118.946749,5022.1460701575,215.879272,0,1.63261816248,27200,2018-04-13 18:37:29,17,0,22.671,5022.1460701575,215.879272,0.4921268,2.63335638348,0,0,-0.671082,11.1, 2.1, -2,0,0,1024,1024,1025,1024,10.1,-90,96,3.782,3.779,3.733,3.776,0,0,18.359,62.6,14,Waypoint,
36.644033,-118.946749,5024.1145741575,217.847776,0,1.60008863388,27400,2018-04-13 18:37:29,17,0,22.671,5024.1145741575,217.847776,0.4921268,2.63335638348,0,0,-0.671082,11.1, 1.9, -1.8,0,0,1024,1024,1025,1024,10.1,-90,96,3.782,3.779,3.733,3.776,0,0,18.359,62.6,14,Waypoint,
36.6440329,-118.946749,5026.0830781575,219.81628,0,1.5677329898,27600,2018-04-13 18:37:30,17,0,22.671,5026.0830781575,219.81628,0.4921268,2.63335638348,0,0,-0.671082,11.1, 1.4, -1.4,0,0,1024,1024,1025,1024,10.1,-90,96,3.782,3.779,3.733,3.776,0,0,18.359,62.6,14,Waypoint,
36.6440328,-118.946749,5027.0673301575,220.800532,0,1.53556107276,27800,2018-04-13 18:37:30,17,0,22.671,5027.0673301575,220.800532,0.4921268,2.63335638348,0,0,-0.671082,11.1, 1.3, -1.2,0,0,1024,1024,1025,1024,10.1,-90,96,3.782,3.779,3.733,3.776,0,0,18.359,62.6,14,Waypoint,
36.6440328,-118.9467491,5027.7234981575,221.4567,0,1.54972773988,27900,2018-04-13 18:37:30,17,0,22.671,5027.7234981575,221.4567,0.4921268,2.63335638348,0,0,-0.671082,11.2, 1.1, -1.2,0,0,1024,1024,1025,1024,10.1,-90,96,3.782,3.779,3.733,3.776,0,0,18.359,62.6,14,Waypoint,
36.6440327,-118.9467491,5028.7077501575,222.440952,0,1.51805122968,28000,2018-04-13 18:37:30,17,0,22.673,5028.7077501575,222.440952,0.4921268,2.63335638348,0,0,-0.671082,11.2, 1.1, -1.3,0,0,1024,1024,1025,1024,10.1,-90,96,3.781,3.759,3.733,3.784,0,0,18.359,62.6,14,Waypoint,
36.6440327,-118.946749,5029.6920021575,223.425204,0,1.50358928696,28100,2018-04-13 18:37:30,17,0,22.673,5029.6920021575,223.425204,0.4921268,2.63335638348,0,0,-0.671082,11.2, 1.1, -1.4,0,0,1024,1024,1025,1024,10.1,-89.9,96,3.781,3.759,3.733,3.784,0,0,18.359,62.6,14,Waypoint,
36.6440327,-118.946749,5030.6762541575,224.409456,0,1.50358928696,28200,2018-04-13 18:37:30,17,0,22.673,5030.6762541575,224.409456,0.4921268,2.63335638348,0,0,-0.671082,11.1, 1.3, -1.5,0,0,1024,1024,1025,1024,10.1,-89.9,96,3.781,3.759,3.733,3.784,0,0,18.359,62.6,14,Waypoint,
36.6440327,-118.946749,5031.6605061575,225.393708,0,1.50358928696,28300,2018-04-13 18:37:30,17,0,22.673,5031.6605061575,225.393708,0.4921268,2.63335638348,0,0,-0.671082,11.1, 1.7, -1.4,0,0,1024,1024,1025,1024,10.1,-89.9,96,3.781,3.759,3.733,3.784,0,0,18.359,62.6,14,Waypoint,
