latitude,longitude,altitude(feet),ascent(feet),speed(mph),distance(feet),time(millisecond),datetime(utc),satellites,gpslevel,voltage(v),max_altitude(feet),max_ascent(feet),max_speed(mph),max_distance(feet), xSpeed(mph), ySpeed(mph), zSpeed(mph), compass_heading(degrees), pitch(degrees), roll(degrees),isPhoto,isVideo,rc_elevator,rc_aileron,rc_throttle,rc_rudder,gimbal_heading(degrees),gimbal_pitch(degrees),battery_percent,voltageCell1,voltageCell2,voltageCell3,voltageCell4,voltageCell5,voltageCell6,current(A),battery_temperature(f),flycStateRaw,flycState,message
36.7935416,-118.9150121,5302.0212664495,0,0,0,3140,2018-04-15 18:38:05,14,0,0,5302.0212664495,0,0,0,0,0,0,228, 1.8, -0.6,1,0,1024,1024,1024,1024,227,-89.9,100,3.907,3.885,3.859,3.894,0,0,0,59,11,AutoTakeoff,Photo Starting Mission from Lat/Long: 36.79354/-118.91501 Camera: Zenmuse X3 - Overlap: 90/90 - Active Connection: Yes
36.7935416,-118.915012,5302.0212664495,0,0.223694,0.0292170941108,3200,2018-04-15 18:38:05,14,0,0,5302.0212664495,0,0.223694,0.0292170941108,0,0,0,228.2, 1, -0.3,0,0,1024,1024,1024,1024,227,-90,100,3.907,3.885,3.859,3.894,0,0,0,59,11,AutoTakeoff,
36.7935417,-118.9150118,5302.0212664495,0,0.223694,0.094941604088,3300,2018-04-15 18:38:05,14,0,0,5302.0212664495,0,0.223694,0.094941604088,0,0,0,228.3, 0.4, 0,0,0,1024,1024,1024,1024,227,-90,100,3.907,3.885,3.859,3.894,0,0,0,59,11,AutoTakeoff,
36.7935417,-118.9150116,5302.3493504495,0.328084,0.223694,0.15057251138,3400,2018-04-15 18:38:05,14,0,0,5302.3493504495,0.328084,0.223694,0.15057251138,0,0,0,228.3, -0.2, 0.2,0,0,1024,1024,1024,1024,227,-89.9,100,3.907,3.885,3.859,3.894,0,0,0,59,11,AutoTakeoff,
36.7935417,-118.9150115,5302.3493504495,0.328084,0.223694,0.179059060848,3500,2018-04-15 18:38:05,14,0,0,5302.3493504495,0.328084,0.223694,0.179059060848,0,0,0,228.3, -0.7, 0.6,0,0,1024,1024,1024,1024,227,-89.9,100,3.907,3.885,3.859,3.894,0,0,0,59,11,AutoTakeoff,
36.7935416,-118.9150112,5302.6774344495,0.656168,0.223694,0.262953748572,3600,2018-04-15 18:38:05,15,0,0,5302.6774344495,0.656168,0.223694,0.262953748572,0,0,0,228.1, -0.7, 1.1,0,0,1024,1024,1024,1024,227,-89.9,100,3.907,3.885,3.859,3.894,0,0,0,59,11,AutoTakeoff,
36.7935416,-118.915011,5302.6774344495,0.656168,0.223694,0.321388133644,3700,2018-04-15 18:38:05,15,0,0,5302.6774344495,0.656168,0.223694,0.321388133644,0,0,0,227.9, -0.6, 1.1,0,0,1024,1024,1024,1024,227,-89.9,100,3.907,3.885,3.859,3.894,0,0,0,59,11,AutoTakeoff,
36.7935415,-118.9150109,5303.0055184495,0.984252,0.223694,0.35250001128,3800,2018-04-15 18:38:05,15,0,0,5303.0055184495,0.984252,0.223694,0.35250001128,0,0,0,227.9, -0.4, 1.2,0,0,1024,1024,1024,1024,227,-89.9,100,3.907,3.885,3.859,3.894,0,0,0,59,11,AutoTakeoff,
36.7935415,-118.9150108,5303.0055184495,0.984252,0,0.38157153452,3900,2018-04-15 18:38:06,14,0,0,5303.0055184495,0.984252,0.223694,0.38157153452,0,0,0,227.9, -0.2, 1,0,0,1024,1024,1024,1024,227,-89.9,100,3.907,3.885,3.859,3.894,0,0,0,59,11,AutoTakeoff,
36.7935415,-118.9150108,5303.3336024495,1.312336,0,0.38157153452,4100,2018-04-15 18:38:06,14,0,0,5303.3336024495,1.312336,0.223694,0.38157153452,0,0,0,227.9, -0.3, 1.1,0,0,1024,1024,1024,1024,227,-89.9,100,3.907,3.885,3.859,3.894,0,0,0,59,11,AutoTakeoff,
36.7935414,-118.9150107,5303.3336024495,1.312336,0,0.41549870096,4200,2018-04-15 18:38:06,13,0,0,5303.3336024495,1.312336,0.223694,0.41549870096,0,0,0,228, -0.3, 1.4,0,0,1024,1024,1024,1024,227,-89.9,100,3.907,3.885,3.859,3.894,0,0,0,59,11,AutoTakeoff,
36.7935414,-118.9150106,5303.6616864495,1.64042,0,0.4442913528,4300,2018-04-15 18:38:06,13,0,0,5303.6616864495,1.64042,0.223694,0.4442913528,0,0,0,228, -0.3, 1.4,0,0,1024,1024,1024,1024,227,-89.9,100,3.907,3.885,3.859,3.894,0,0,0,59,11,AutoTakeoff,
36.7935414,-118.9150105,5303.6616864495,1.64042,0,0.47313321724,4400,2018-04-15 18:38:06,13,0,0,5303.6616864495,1.64042,0.223694,0.47313321724,0,0,0,227.9, -0.3, 1.5,0,0,1024,1024,1024,1024,227,-89.9,100,3.907,3.885,3.859,3.894,0,0,0,59,11,AutoTakeoff,
36.7935414,-118.9150105,5303.9897704495,1.968504,0,0.47313321724,4500,2018-04-15 18:38:06,13,0,0,5303.9897704495,1.968504,0.223694,0.47313321724,0,0,-0.223694,227.8, -0.4, 1.4,0,0,1024,1024,1024,1024,227,-90,100,3.907,3.885,3.859,3.894,0,0,0,59,11,AutoTakeoff,
36.7935414,-118.9150104,5303.9897704495,1.968504,0,0.50202101344,4600,2018-04-15 18:38:06,14,0,0,5303.9897704495,1.968504,0.223694,0.50202101344,0,0,-0.223694,227.7, -0.4, 1.2,0,0,1024,1024,1024,1024,227,-89.9,100,3.907,3.885,3.859,3.894,0,0,0,59,11,AutoTakeoff,
36.7935414,-118.9150103,5304.3178544495,2.296588,0,0.53094489888,4700,2018-04-15 18:38:06,14,0,0,5304.3178544495,2.296588,0.223694,0.53094489888,0,0,-0.223694,227.7, -0.5, 0.9,0,0,1024,1024,1024,1024,227,-90,100,3.907,3.885,3.859,3.894,0,0,0,59,11,AutoTakeoff,
36.7935413,-118.9150102,5304.3178544495,2.296588,0,0.5658136664,4800,2018-04-15 18:38:06,13,0,0,5304.3178544495,2.296588,0.223694,0.5658136664,0,0,0,227.6, -0.5, 0.9,0,0,1024,1024,1024,1024,227,-89.9,100,3.907,3.885,3.859,3.894,0,0,0,59,11,AutoTakeoff,
36.7935413,-118.9150102,5304.6459384495,2.624672,0,0.5658136664,4900,2018-04-15 18:38:07,13,0,0,5304.6459384495,2.624672,0.223694,0.5658136664,0,0,-0.223694,227.7, -0.3, 1,0,0,1024,1024,1024,1024,227,-89.9,100,3.907,3.885,3.859,3.894,0,0,0,59,11,AutoTakeoff,
36.7935412,-118.9150102,5304.6459384495,2.624672,0,0.57398623884,5000,2018-04-15 18:38:07,13,0,23.439,5304.6459384495,2.624672,0.223694,0.57398623884,0,0,-0.223694,227.8, -0.2, 1.2,0,0,1024,1024,1024,1024,227,-89.9,100,3.907,3.885,3.859,3.894,0,0,16.914,59,11,AutoTakeoff,
36.7935411,-118.9150102,5304.9740224495,2.952756,0,0.58433072736,5100,2018-04-15 18:38:07,13,0,23.439,5304.9740224495,2.952756,0.223694,0.58433072736,0,0,-0.223694,227.9, -0.1, 1.3,0,0,1024,1024,1024,1024,227,-89.9,100,3.907,3.885,3.859,3.894,0,0,16.914,59,14,Waypoint,
36.793541,-118.9150102,5304.9740224495,2.952756,0,0.59672902172,5200,2018-04-15 18:38:07,12,0,23.439,5304.9740224495,2.952756,0.223694,0.59672902172,0,0,0,227.9, 0, 1.5,0,0,1024,1024,1024,1024,227,-89.9,100,3.907,3.885,3.859,3.894,0,0,16.914,59,14,Waypoint,
36.793541,-118.9150102,5305.3021064495,3.28084,0,0.59672902172,5300,2018-04-15 18:38:07,12,0,23.439,5305.3021064495,3.28084,0.223694,0.59672902172,0,0,0,228, 0.3, 1.3,0,0,1024,1024,1024,1024,227,-89.9,100,3.907,3.885,3.859,3.894,0,0,16.914,59,14,Waypoint,
36.7935409,-118.9150101,5305.3021064495,3.28084,0,0.63771655584,5400,2018-04-15 18:38:07,12,0,23.439,5305.3021064495,3.28084,0.223694,0.63771655584,0,0,0,228.2, 0.4, 1.2,0,0,1024,1024,1024,1024,227,-89.9,100,3.907,3.885,3.859,3.894,0,0,16.914,59,14,Waypoint,
36.7935408,-118.91501,5305.3021064495,3.28084,0,0.6794455598,5500,2018-04-15 18:38:07,12,0,23.439,5305.3021064495,3.28084,0.223694,0.6794455598,0,0,0,228.2, 0.2, 1.3,0,0,1024,1024,1024,1024,227,-89.9,100,3.907,3.885,3.859,3.894,0,0,16.914,59,14,Waypoint,
36.7935407,-118.9150099,5305.6301904495,3.608924,0,0.72179136168,5600,2018-04-15 18:38:07,12,0,23.439,5305.6301904495,3.608924,0.223694,0.72179136168,0,0,-0.223694,228.3, 0.1, 1.3,0,0,1024,1024,1024,1024,227,-89.9,100,3.907,3.885,3.859,3.894,0,0,16.914,59,14,Waypoint,
36.7935406,-118.9150098,5305.6301904495,3.608924,0,0.7646489746,5700,2018-04-15 18:38:07,12,0,23.439,5305.6301904495,3.608924,0.223694,0.7646489746,0,0,-0.223694,228.4, 0, 1.5,0,0,1024,1024,1024,1024,227,-89.9,100,3.907,3.885,3.859,3.894,0,0,16.914,59,14,Waypoint,
36.7935404,-118.9150097,5306.2863584495,4.265092,0,0.82666997396,5800,2018-04-15 18:38:07,14,0,23.439,5306.2863584495,4.265092,0.223694,0.82666997396,0,0,-0.223694,228.5, 0, 1.7,0,0,1024,1024,1024,1024,227,-90,100,3.907,3.885,3.859,3.894,0,0,16.914,59,14,Waypoint,
36.7935403,-118.9150097,5306.6144424495,4.593176,0,0.84655842604,5900,2018-04-15 18:38:08,13,0,23.439,5306.6144424495,4.593176,0.223694,0.84655842604,0,0,-0.223694,228.5, 0, 1.7,0,0,1024,1024,1024,1024,227,-89.9,100,3.907,3.885,3.859,3.894,0,0,16.914,59,14,Waypoint,
36.7935403,-118.9150096,5306.9425264495,4.92126,0,0.87091210136,6000,2018-04-15 18:38:08,13,0,23.326,5306.9425264495,4.92126,0.223694,0.87091210136,0,0,-0.223694,228.4, 0, 1.7,0,0,1024,1024,1024,1024,227,-90,98,3.891,3.872,3.85,3.886,0,0,17.035,59,14,Waypoint,
36.7935402,-118.9150096,5307.5986944495,5.577428,0,0.89130908364,6100,2018-04-15 18:38:08,12,0,23.326,5307.5986944495,5.577428,0.223694,0.89130908364,0,0,-0.447388,228.3, 0, 1.6,0,0,1024,1024,1024,1024,227,-90,98,3.891,3.872,3.85,3.886,0,0,17.035,59,14,Waypoint,
36.7935402,-118.9150096,5307.9267784495,5.905512,0,0.89130908364,6200,2018-04-15 18:38:08,12,0,23.326,5307.9267784495,5.905512,0.223694,0.89130908364,0,0,-0.447388,228.1, 0, 1.4,0,0,1024,1024,1024,1024,227,-90,98,3.891,3.872,3.85,3.886,0,0,17.035,59,14,Waypoint,
36.7935402,-118.9150095,5308.5829464495,6.56168,0,0.9154035726,6300,2018-04-15 18:38:08,14,0,23.326,5308.5829464495,6.56168,0.223694,0.9154035726,0,0,-0.447388,228, 0, 1.3,0,0,1024,1024,1024,1024,227,-90,98,3.891,3.872,3.85,3.886,0,0,17.035,59,14,Waypoint,
36.7935402,-118.9150096,5309.2391144495,7.217848,0,0.89130908364,6410,2018-04-15 18:38:08,14,0,23.326,5309.2391144495,7.217848,0.223694,0.9154035726,0,0,-0.447388,227.8, 0, 1.3,0,0,1024,1024,1024,1024,227,-90,98,3.891,3.872,3.85,3.886,0,0,17.035,59,14,Waypoint,
36.7935401,-118.9150097,5310.2233664495,8.2021,0,0.88949805996,6600,2018-04-15 18:38:08,14,0,23.326,5310.2233664495,8.2021,0.223694,0.9154035726,0,0,-0.671082,227.7, 0, 1.4,0,0,1024,1024,1024,1024,227,-89.9,98,3.891,3.872,3.85,3.886,0,0,17.035,59,14,Waypoint,
36.7935403,-118.9150103,5312.1918704495,10.170604,0,0.70819884156,6710,2018-04-15 18:38:08,14,0,23.326,5312.1918704495,10.170604,0.223694,0.9154035726,0,0,-0.671082,227.5, 0.5, 0.5,0,0,1024,1024,1024,1024,227,-89.9,98,3.891,3.872,3.85,3.886,0,0,17.035,59,14,Waypoint,
36.7935404,-118.9150105,5313.1761224495,11.154856,0,0.64048230396,6900,2018-04-15 18:38:09,14,0,23.326,5313.1761224495,11.154856,0.223694,0.9154035726,0,0,-0.671082,227.4, 0.7, 0.1,0,0,1024,1024,1024,1024,227,-89.9,98,3.891,3.872,3.85,3.886,0,0,17.035,59,14,Waypoint,
36.7935405,-118.9150108,5314.1603744495,12.139108,0,0.55257219616,7000,2018-04-15 18:38:09,14,0,22.925,5314.1603744495,12.139108,0.223694,0.9154035726,0,0,-0.671082,227.3, 0.8, -0.3,0,0,1024,1024,1024,1024,227,-89.9,98,3.835,3.755,3.755,3.787,0,0,20.341,59,14,Waypoint,
36.7935407,-118.915011,5315.4727104495,13.451444,0,0.45947179948,7100,2018-04-15 18:38:09,14,0,22.925,5315.4727104495,13.451444,0.223694,0.9154035726,0,0,-0.671082,227.3, 0.9, -0.7,0,0,1024,1024,1024,1024,227,-89.9,98,3.835,3.755,3.755,3.787,0,0,20.341,59,14,Waypoint,
36.7935408,-118.9150113,5316.4569624495,14.435696,0,0.373933739,7200,2018-04-15 18:38:09,15,0,22.925,5316.4569624495,14.435696,0.223694,0.9154035726,0,0,-0.671082,227.5, 0.6, -0.7,0,0,1024,1024,1024,1024,227,-89.9,98,3.835,3.755,3.755,3.787,0,0,20.341,59,14,Waypoint,
36.793541,-118.9150115,5317.4412144495,15.419948,0,0.280450468292,7300,2018-04-15 18:38:09,15,0,22.925,5317.4412144495,15.419948,0.223694,0.9154035726,0,0,-0.671082,227.7, 0.4, -0.7,0,0,1024,1024,1024,1024,227,-90,98,3.835,3.755,3.755,3.787,0,0,20.341,59,14,Waypoint,
36.7935411,-118.9150117,5318.7535504495,16.732284,0,0.216649613232,7400,2018-04-15 18:38:09,14,0,22.925,5318.7535504495,16.732284,0.223694,0.9154035726,0,0,-0.671082,227.9, 0.1, -0.6,0,0,1024,1024,1024,1024,227,-90,98,3.835,3.755,3.755,3.787,0,0,20.341,59,14,Waypoint,
36.7935411,-118.915012,5319.7378024495,17.716536,0,0.184749677828,7500,2018-04-15 18:38:09,14,0,22.925,5319.7378024495,17.716536,0.223694,0.9154035726,0,0,-0.671082,228.1, 0.2, -0.7,0,0,1024,1024,1024,1024,227,-89.9,98,3.835,3.755,3.755,3.787,0,0,20.341,59,14,Waypoint,
36.7935411,-118.9150123,5320.7220544495,18.700788,0,0.19155512424,7600,2018-04-15 18:38:09,14,0,22.925,5320.7220544495,18.700788,0.223694,0.9154035726,0,0,-0.671082,228.2, 0.6, -0.8,0,0,1024,1024,1024,1024,227,-89.9,98,3.835,3.755,3.755,3.787,0,0,20.341,59,14,Waypoint,
36.7935411,-118.9150123,5322.0343904495,20.013124,0,0.19155512424,7700,2018-04-15 18:38:09,14,0,22.925,5322.0343904495,20.013124,0.223694,0.9154035726,0,0,-0.671082,228.3, 1.2, -0.8,0,0,1024,1024,1024,1024,227,-89.9,98,3.835,3.755,3.755,3.787,0,0,20.341,59,14,Waypoint,
36.7935409,-118.9150123,5324.3309784495,22.309712,0,0.261994102872,7800,2018-04-15 18:38:09,14,0,22.925,5324.3309784495,22.309712,0.223694,0.9154035726,0,0,-0.671082,228.4, 1.5, -0.2,0,0,1024,1024,1024,1024,227,-89.9,98,3.835,3.755,3.755,3.787,0,0,20.341,59,14,Waypoint,
36.7935408,-118.9150123,5325.3152304495,23.293964,0,0.297671269368,7900,2018-04-15 18:38:10,15,0,22.925,5325.3152304495,23.293964,0.223694,0.9154035726,0,0,-0.671082,228.4, 1.5, 0.1,0,0,1024,1024,1024,1024,227,-89.9,98,3.835,3.755,3.755,3.787,0,0,20.341,59,14,Waypoint,
36.7935403,-118.9150119,5327.2837344495,25.262468,0.223694,0.47789043524,8100,2018-04-15 18:38:10,15,0,22.925,5327.2837344495,25.262468,0.223694,0.9154035726,0,0,-0.671082,228.3, 1.2, 1,0,0,1024,1024,1024,1024,227,-89.9,98,3.835,3.755,3.755,3.787,0,0,20.341,59,14,Waypoint,
36.7935398,-118.9150113,5329.5803224495,27.559056,0.223694,0.69708335564,8300,2018-04-15 18:38:10,16,0,22.925,5329.5803224495,27.559056,0.223694,0.9154035726,0,0,-0.671082,228.1, 0.8, 2.2,0,0,1024,1061,1024,1024,227,-89.9,98,3.835,3.755,3.755,3.787,0,0,20.341,59,14,Waypoint,
36.7935393,-118.9150108,5331.5488264495,29.52756,0.223694,0.92110895336,8500,2018-04-15 18:38:10,16,0,22.925,5331.5488264495,29.52756,0.223694,0.92110895336,0,0,-0.671082,228, 0.7, 3,0,0,1024,1159,1024,1024,227,-89.9,98,3.835,3.755,3.755,3.787,0,0,20.341,59,14,Waypoint,
36.7935391,-118.9150105,5332.5330784495,30.511812,0,1.02494097768,8700,2018-04-15 18:38:10,16,0,22.925,5332.5330784495,30.511812,0.223694,1.02494097768,0,0,-0.671082,228.1, 1, 3,0,0,1024,1165,1024,1024,227,-89.9,98,3.835,3.755,3.755,3.787,0,0,20.341,59,14,Waypoint,
36.7935389,-118.9150103,5333.8454144495,31.824148,0,1.11668638744,8800,2018-04-15 18:38:10,16,0,22.925,5333.8454144495,31.824148,0.223694,1.11668638744,0,0,-0.671082,228.1, 1.1, 2.9,0,0,1024,1171,1024,1024,227,-89.9,98,3.835,3.755,3.755,3.787,0,0,20.341,59,14,Waypoint,
36.7935386,-118.91501,5334.8296664495,32.8084,0,1.25478678556,8900,2018-04-15 18:38:11,16,0,22.925,5334.8296664495,32.8084,0.223694,1.25478678556,0,0,-0.671082,228.1, 1, 2.8,0,0,1024,1272,1024,1024,227,-89.9,98,3.835,3.755,3.755,3.787,0,0,20.341,59,14,Waypoint,
36.7935384,-118.9150097,5335.8139184495,33.792652,0,1.3619094924,9000,2018-04-15 18:38:11,16,0,22.838,5335.8139184495,33.792652,0.223694,1.3619094924,0,0,-0.671082,227.9, 0.6, 2.7,0,0,1024,1278,1024,1024,227,-89.9,98,3.769,3.762,3.747,3.772,0,0,19.683,59,14,Waypoint,
36.7935381,-118.9150094,5336.7981704495,34.776904,0,1.50098758084,9100,2018-04-15 18:38:11,16,0,22.838,5336.7981704495,34.776904,0.223694,1.50098758084,0,0,-0.671082,227.8, 0.7, 3.2,0,0,1024,1296,1024,1024,227,-89.9,98,3.769,3.762,3.747,3.772,0,0,19.683,59,14,Waypoint,
36.7935379,-118.9150091,5337.7824224495,35.761156,0,1.60954073392,9200,2018-04-15 18:38:11,16,0,22.838,5337.7824224495,35.761156,0.223694,1.60954073392,0,0,-0.671082,227.7, 0.7, 4,0,0,1024,1333,1024,1024,227,-89.9,98,3.769,3.762,3.747,3.772,0,0,19.683,59,14,Waypoint,
36.7935378,-118.9150088,5339.0947584495,37.073492,0,1.68872708816,9300,2018-04-15 18:38:11,16,0,22.838,5339.0947584495,37.073492,0.223694,1.68872708816,0,0,-0.671082,227.6, 0.7, 4.2,0,0,1024,1285,1024,1024,227,-89.9,98,3.769,3.762,3.747,3.772,0,0,19.683,59,14,Waypoint,
36.7935377,-118.9150084,5340.0790104495,38.057744,0,1.78698496532,9400,2018-04-15 18:38:11,15,0,22.838,5340.0790104495,38.057744,0.223694,1.78698496532,0,0,-0.671082,227.6, 0.5, 4.1,0,0,1024,1296,1024,1024,227,-89.9,98,3.769,3.762,3.747,3.772,0,0,19.683,59,14,Waypoint,
36.7935375,-118.9150083,5341.0632624495,39.041996,0,1.86288063704,9500,2018-04-15 18:38:11,15,0,22.838,5341.0632624495,39.041996,0.223694,1.86288063704,0,0,-0.671082,227.6, 0.4, 3.9,0,0,1024,1299,1024,1024,227,-89.9,98,3.769,3.762,3.747,3.772,0,0,19.683,59,14,Waypoint,
36.7935374,-118.9150081,5342.0475144495,40.026248,0,1.927165416,9600,2018-04-15 18:38:11,15,0,22.838,5342.0475144495,40.026248,0.223694,1.927165416,0,0,-0.671082,227.7, 0.5, 3.6,0,0,1024,1298,1024,1024,227,-89.9,98,3.769,3.762,3.747,3.772,0,0,19.683,59,14,Waypoint,
36.7935373,-118.9150079,5342.7036824495,40.682416,0.223694,1.99176187476,9700,2018-04-15 18:38:11,15,0,22.838,5342.7036824495,40.682416,0.223694,1.99176187476,0,0,-0.671082,227.8, 0.6, 3.3,0,0,1024,1298,1024,1024,227,-89.9,98,3.769,3.762,3.747,3.772,0,0,19.683,59,14,Waypoint,
36.7935372,-118.9150078,5343.6879344495,41.666668,0.223694,2.0385007214,9800,2018-04-15 18:38:11,16,0,22.838,5343.6879344495,41.666668,0.223694,2.0385007214,0,0,-0.671082,227.9, 0.5, 3.3,0,0,1024,1252,1024,1024,227,-89.9,98,3.769,3.762,3.747,3.772,0,0,19.683,59,14,Waypoint,
36.7935371,-118.9150076,5345.9845224495,43.963256,0.223694,2.1033793324,9900,2018-04-15 18:38:12,15,0,22.838,5345.9845224495,43.963256,0.223694,2.1033793324,0,0,-0.671082,228.1, 0.6, 3.5,0,0,1024,1260,1024,1024,227,-89.9,98,3.769,3.762,3.747,3.772,0,0,19.683,59,14,Waypoint,
36.7935371,-118.9150076,5346.6406904495,44.619424,0.223694,2.1033793324,10000,2018-04-15 18:38:12,15,0,22.838,5346.6406904495,44.619424,0.223694,2.1033793324,0,0,-0.671082,228.1, 0.7, 3.3,0,0,1024,1235,1024,1024,227,-89.9,98,3.808,3.798,3.772,3.806,0,0,19.683,60.8,14,Waypoint,
36.7935373,-118.9150076,5348.6091944495,46.587928,0.4921268,2.04692919936,10200,2018-04-15 18:38:12,16,0,22.838,5348.6091944495,46.587928,0.4921268,2.1033793324,0,0,-0.671082,228.2, 0.7, 2.2,0,0,1024,1210,1024,1024,227,-89.9,98,3.808,3.798,3.772,3.806,0,0,19.683,60.8,14,Waypoint,
36.7935374,-118.9150077,5350.5776984495,48.556432,0.4921268,2.00020019524,10400,2018-04-15 18:38:12,16,0,22.838,5350.5776984495,48.556432,0.4921268,2.1033793324,0,0,-0.671082,228, 0.8, 1.9,0,0,1024,1050,1024,1024,227,-89.9,98,3.808,3.798,3.772,3.806,0,0,19.683,60.8,14,Waypoint,
36.7935375,-118.9150078,5351.5619504495,49.540684,0.4921268,1.95346791028,10500,2018-04-15 18:38:12,15,0,22.838,5351.5619504495,49.540684,0.4921268,2.1033793324,0,0,-0.671082,227.9, 0.8, 1.6,0,0,1024,1024,1024,1024,227,-89.9,98,3.808,3.798,3.772,3.806,0,0,19.683,60.8,14,Waypoint,
36.7935376,-118.9150079,5352.5462024495,50.524936,0.4921268,1.906742187,10610,2018-04-15 18:38:12,15,0,22.838,5352.5462024495,50.524936,0.4921268,2.1033793324,0,0,-0.671082,227.9, 0.7, 1.1,0,0,1024,1024,1024,1024,227,-89.9,98,3.808,3.798,3.772,3.806,0,0,19.683,60.8,14,Waypoint,
36.7935377,-118.9150081,5353.5304544495,51.509188,0.4921268,1.84133207992,10700,2018-04-15 18:38:12,15,0,22.838,5353.5304544495,51.509188,0.4921268,2.1033793324,0,0,-0.671082,228, 0.7, 0.6,0,0,1024,1024,1024,1024,227,-89.9,98,3.808,3.798,3.772,3.806,0,0,19.683,60.8,14,Waypoint,
36.7935379,-118.9150083,5354.5147064495,52.49344,0.4921268,1.74785438664,10800,2018-04-15 18:38:12,15,0,22.838,5354.5147064495,52.49344,0.4921268,2.1033793324,0,0,-0.671082,228, 0.7, 0.1,0,0,1024,1024,1024,1024,227,-89.9,98,3.808,3.798,3.772,3.806,0,0,19.683,60.8,14,Waypoint,
36.793538,-118.9150085,5355.4989584495,53.477692,0.4921268,1.68270346592,10900,2018-04-15 18:38:13,15,0,22.838,5355.4989584495,53.477692,0.4921268,2.1033793324,0,0,-0.671082,228.1, 0.6, -0.3,0,0,1024,1024,1024,1024,227,-89.9,98,3.808,3.798,3.772,3.806,0,0,19.683,60.8,14,Waypoint,
36.7935382,-118.9150087,5356.4832104495,54.461944,0.4921268,1.58921921096,11100,2018-04-15 18:38:13,15,0,22.838,5356.4832104495,54.461944,0.4921268,2.1033793324,0,0,-0.671082,228.2, 0.8, -0.5,0,0,1024,1024,1024,1024,227,-89.9,98,3.808,3.798,3.772,3.806,0,0,19.683,60.8,14,Waypoint,
36.7935383,-118.9150088,5357.4674624495,55.446196,0.4921268,1.54247708348,11200,2018-04-15 18:38:13,15,0,22.838,5357.4674624495,55.446196,0.4921268,2.1033793324,0,0,-0.671082,228.2, 1.2, -0.4,0,0,1024,1024,1024,1024,227,-89.9,98,3.808,3.798,3.772,3.806,0,0,19.683,60.8,14,Waypoint,
36.7935384,-118.9150091,5358.4517144495,56.430448,0.3131716,1.45992130656,11300,2018-04-15 18:38:13,15,0,22.838,5358.4517144495,56.430448,0.4921268,2.1033793324,0,0,-0.671082,228.2, 1.5, -0.3,0,0,1024,1024,1024,1024,227,-89.9,98,3.808,3.798,3.772,3.806,0,0,19.683,60.8,14,Waypoint,
36.7935385,-118.9150092,5359.4359664495,57.4147,0.3131716,1.4132054258,11400,2018-04-15 18:38:13,15,0,22.838,5359.4359664495,57.4147,0.4921268,2.1033793324,0,0,-0.671082,228.1, 1.7, -0.1,0,0,1024,1024,1024,1024,227,-89.9,98,3.808,3.798,3.772,3.806,0,0,19.683,60.8,14,Waypoint,
36.7935386,-118.9150093,5360.4202184495,58.398952,0.3131716,1.3664862642,11500,2018-04-15 18:38:13,15,0,22.838,5360.4202184495,58.398952,0.4921268,2.1033793324,0,0,-0.671082,228, 1.6, 0.4,0,0,1024,1024,1024,1024,227,-89.9,98,3.808,3.798,3.772,3.806,0,0,19.683,60.8,14,Waypoint,
36.7935387,-118.9150094,5361.4044704495,59.383204,0.3131716,1.31977366428,11600,2018-04-15 18:38:13,16,0,22.838,5361.4044704495,59.383204,0.4921268,2.1033793324,0,0,-0.671082,227.9, 1.3, 0.5,0,0,1024,1024,1024,1024,227,-89.9,98,3.808,3.798,3.772,3.806,0,0,19.683,60.8,14,Waypoint,
36.7935389,-118.9150096,5362.7168064495,60.69554,0.4921268,1.22634846444,11700,2018-04-15 18:38:13,16,0,22.838,5362.7168064495,60.69554,0.4921268,2.1033793324,0,0,-0.671082,227.9, 1, 0.3,0,0,1024,1024,1024,1024,227,-89.9,98,3.808,3.798,3.772,3.806,0,0,19.683,60.8,14,Waypoint,
36.793539,-118.9150098,5363.7010584495,61.679792,0.4921268,1.16250987972,11800,2018-04-15 18:38:13,16,0,22.838,5363.7010584495,61.679792,0.4921268,2.1033793324,0,0,-0.671082,228, 0.9, 0.2,0,0,1024,1024,1024,1024,227,-90,98,3.808,3.798,3.772,3.806,0,0,19.683,60.8,14,Waypoint,
36.7935392,-118.91501,5364.3572264495,62.33596,0.4921268,1.06920279012,11900,2018-04-15 18:38:14,16,0,22.838,5364.3572264495,62.33596,0.4921268,2.1033793324,0,0,-0.671082,228, 0.8, 0,0,0,1024,1024,1024,1024,227,-90,98,3.808,3.798,3.772,3.806,0,0,19.683,60.8,14,Waypoint,
36.7935394,-118.9150101,5365.3414784495,63.320212,0.4921268,0.99284123912,12000,2018-04-15 18:38:14,16,0,22.738,5365.3414784495,63.320212,0.4921268,2.1033793324,0,0,-0.671082,228.1, 0.9, -0.1,0,0,1024,1024,1024,1024,227,-89.9,98,3.793,3.772,3.739,3.783,0,0,20.609,60.8,14,Waypoint,
36.7935395,-118.9150103,5366.3257304495,64.304464,0.4921268,0.92931105336,12100,2018-04-15 18:38:14,16,0,22.738,5366.3257304495,64.304464,0.4921268,2.1033793324,0,0,-0.671082,228.1, 1, -0.6,0,0,1024,1024,1024,1024,227,-90,98,3.793,3.772,3.739,3.783,0,0,20.609,60.8,14,Waypoint,
36.7935397,-118.9150104,5367.3099824495,65.288716,0.223694,0.8527887412,12200,2018-04-15 18:38:14,16,0,22.738,5367.3099824495,65.288716,0.4921268,2.1033793324,0,0,-0.671082,228.1, 0.9, -1,0,0,1024,1024,1024,1024,227,-89.9,98,3.793,3.772,3.739,3.783,0,0,20.609,60.8,14,Waypoint,
36.7935398,-118.9150106,5368.2942344495,66.272968,0.223694,0.789534146,12300,2018-04-15 18:38:14,16,0,22.738,5368.2942344495,66.272968,0.4921268,2.1033793324,0,0,-0.671082,228.1, 0.9, -1.3,0,0,1024,1024,1024,1024,227,-90,98,3.793,3.772,3.739,3.783,0,0,20.609,60.8,14,Waypoint,
36.79354,-118.9150107,5369.6065704495,67.585304,0.223694,0.71280186008,12400,2018-04-15 18:38:14,16,0,22.738,5369.6065704495,67.585304,0.4921268,2.1033793324,0,0,-0.671082,228.1, 0.8, -1.5,0,0,1024,1024,1024,1024,227,-90,98,3.793,3.772,3.739,3.783,0,0,20.609,60.8,14,Waypoint,
36.7935401,-118.9150108,5370.5908224495,68.569556,0.223694,0.66616471948,12500,2018-04-15 18:38:14,16,0,22.738,5370.5908224495,68.569556,0.4921268,2.1033793324,0,0,-0.671082,228, 0.6, -1.2,0,0,1024,1024,1024,1024,227,-90,98,3.793,3.772,3.739,3.783,0,0,20.609,60.8,14,Waypoint,
36.7935402,-118.9150109,5371.5750744495,69.553808,0.223694,0.61954070224,12600,2018-04-15 18:38:14,16,0,22.738,5371.5750744495,69.553808,0.4921268,2.1033793324,0,0,-0.671082,228, 0.5, -1,0,0,1024,1024,1024,1024,227,-90,98,3.793,3.772,3.739,3.783,0,0,20.609,60.8,14,Waypoint,
36.7935404,-118.9150111,5373.5435784495,71.522312,0,0.52635500372,12710,2018-04-15 18:38:14,16,0,22.738,5373.5435784495,71.522312,0.4921268,2.1033793324,0,0,-0.671082,228, 1, -0.8,0,0,1024,1024,1024,1024,227,-89.9,98,3.793,3.772,3.739,3.783,0,0,20.609,60.8,14,Waypoint,
36.7935405,-118.9150113,5375.5120824495,73.490816,0,0.46443899124,12900,2018-04-15 18:38:15,16,0,22.738,5375.5120824495,73.490816,0.4921268,2.1033793324,0,0,-0.671082,227.9, 1.4, -0.4,0,0,1024,1024,1024,1024,227,-89.9,98,3.793,3.772,3.739,3.783,0,0,20.609,60.8,14,Waypoint,
36.7935406,-118.9150114,5376.4963344495,74.475068,0,0.41826116824,13000,2018-04-15 18:38:15,16,0,22.636,5376.4963344495,74.475068,0.4921268,2.1033793324,0,0,-0.671082,227.9, 1.3, -0.5,0,0,1024,1024,1024,1024,227,-89.9,98,3.777,3.754,3.742,3.77,0,0,20.823,60.8,14,Waypoint,
36.7935408,-118.9150115,5378.4648384495,76.443572,0.223694,0.34047573268,13210,2018-04-15 18:38:15,16,0,22.636,5378.4648384495,76.443572,0.4921268,2.1033793324,0,0,-0.671082,228, 1, -0.9,0,0,1024,1024,1024,1024,227,-90,98,3.777,3.754,3.742,3.77,0,0,20.823,60.8,14,Waypoint,
36.7935409,-118.9150116,5379.4490904495,77.427824,0,0.294223434612,13300,2018-04-15 18:38:15,16,0,22.636,5379.4490904495,77.427824,0.4921268,2.1033793324,0,0,-0.671082,228, 0.8, -1.4,0,0,1024,1024,1024,1024,227,-90,98,3.777,3.754,3.742,3.77,0,0,20.823,60.8,14,Waypoint,
36.793541,-118.9150117,5380.4333424495,78.412076,0,0.248152566996,13410,2018-04-15 18:38:15,16,0,22.636,5380.4333424495,78.412076,0.4921268,2.1033793324,0,0,-0.671082,227.9, 0.7, -1.9,0,0,1024,1024,1024,1024,227,-90,98,3.777,3.754,3.742,3.77,0,0,20.823,60.8,14,Waypoint,
36.7935411,-118.9150117,5383.3860984495,81.364832,0,0.216649613232,13730,2018-04-15 18:38:15,16,0,22.636,5383.3860984495,81.364832,0.4921268,2.1033793324,0,0,-0.671082,227.7, 0.5, -1,0,0,1024,1024,1024,1024,227,-90,98,3.777,3.754,3.742,3.77,0,0,20.823,60.8,14,Waypoint,
36.7935411,-118.9150117,5383.3860984495,81.364832,0,0.216649613232,13800,2018-04-15 18:38:15,16,0,22.636,5383.3860984495,81.364832,0.4921268,2.1033793324,0,0,-0.671082,227.7, 0.5, -1,0,0,1024,1024,1024,1024,227,-90,98,3.777,3.754,3.742,3.77,0,0,20.823,60.8,14,Waypoint,
36.7935411,-118.9150117,5384.3703504495,82.349084,0,0.216649613232,13900,2018-04-15 18:38:16,16,0,22.636,5384.3703504495,82.349084,0.4921268,2.1033793324,0,0,-0.671082,227.7, 0.4, -0.8,0,0,1024,1024,1024,1024,227,-90,98,3.777,3.754,3.742,3.77,0,0,20.823,60.8,14,Waypoint,
36.7935412,-118.9150117,5385.3546024495,83.333336,0,0.1869668695,14000,2018-04-15 18:38:16,16,0,22.629,5385.3546024495,83.333336,0.4921268,2.1033793324,0,0,-0.671082,227.7, 0.5, -0.6,0,0,1024,1024,1024,1024,227,-90,98,3.781,3.763,3.732,3.773,0,0,20.611,60.8,14,Waypoint,
36.7935411,-118.9150117,5386.3388544495,84.317588,0,0.216649613232,14100,2018-04-15 18:38:16,16,0,22.629,5386.3388544495,84.317588,0.4921268,2.1033793324,0,0,-0.671082,227.8, 0.7, -0.6,0,0,1024,1024,1024,1024,227,-89.9,98,3.781,3.763,3.732,3.773,0,0,20.611,60.8,14,Waypoint,
36.7935411,-118.9150117,5387.3231064495,85.30184,0,0.216649613232,14200,2018-04-15 18:38:16,16,0,22.629,5387.3231064495,85.30184,0.4921268,2.1033793324,0,0,-0.671082,227.9, 1, -0.5,0,0,1024,1024,1024,1024,227,-89.9,98,3.781,3.763,3.732,3.773,0,0,20.611,60.8,14,Waypoint,
36.7935411,-118.9150118,5387.9792744495,85.958008,0,0.202389442172,14300,2018-04-15 18:38:16,16,0,22.629,5387.9792744495,85.958008,0.4921268,2.1033793324,0,0,-0.671082,227.9, 1.4, -0.6,0,0,1024,1024,1024,1024,227,-89.9,98,3.781,3.763,3.732,3.773,0,0,20.611,60.8,14,Waypoint,
36.7935411,-118.9150118,5389.2916104495,87.270344,0,0.202389442172,14400,2018-04-15 18:38:16,17,0,22.629,5389.2916104495,87.270344,0.4921268,2.1033793324,0,0,-0.671082,227.9, 1.6, -0.6,0,0,1024,1024,1024,1024,227,-89.9,98,3.781,3.763,3.732,3.773,0,0,20.611,60.8,14,Waypoint,
36.793541,-118.9150117,5389.9477784495,87.926512,0,0.248152566996,14500,2018-04-15 18:38:16,17,0,22.629,5389.9477784495,87.926512,0.4921268,2.1033793324,0,0,-0.671082,227.8, 1.5, -0.5,0,0,1024,1024,1024,1024,227,-89.9,98,3.781,3.763,3.732,3.773,0,0,20.611,60.8,14,Waypoint,
36.793541,-118.9150117,5391.2601144495,89.238848,0,0.248152566996,14600,2018-04-15 18:38:16,17,0,22.629,5391.2601144495,89.238848,0.4921268,2.1033793324,0,0,-0.671082,227.8, 1.5, -0.2,0,0,1024,1024,1024,1024,227,-89.9,98,3.781,3.763,3.732,3.773,0,0,20.611,60.8,14,Waypoint,
36.7935409,-118.9150117,5392.2443664495,90.2231,0,0.280864182216,14700,2018-04-15 18:38:16,17,0,22.629,5392.2443664495,90.2231,0.4921268,2.1033793324,0,0,-0.671082,227.8, 1.5, -0.1,0,0,1024,1024,1024,1024,227,-89.9,98,3.781,3.763,3.732,3.773,0,0,20.611,60.8,14,Waypoint,
36.7935409,-118.9150116,5393.2286184495,91.207352,0,0.294223434612,14800,2018-04-15 18:38:16,17,0,22.629,5393.2286184495,91.207352,0.4921268,2.1033793324,0,0,-0.671082,227.7, 1.6, 0,0,0,1024,1024,1024,1024,227,-89.9,98,3.781,3.763,3.732,3.773,0,0,20.611,60.8,14,Waypoint,
36.7935408,-118.9150116,5394.2128704495,92.191604,0,0.326396335904,14900,2018-04-15 18:38:17,17,0,22.629,5394.2128704495,92.191604,0.4921268,2.1033793324,0,0,-0.671082,227.8, 1.7, 0.2,0,0,1024,1024,1024,1024,227,-89.9,98,3.781,3.763,3.732,3.773,0,0,20.611,60.8,14,Waypoint,
36.7935407,-118.9150116,5395.1971224495,93.175856,0,0.35939305612,15000,2018-04-15 18:38:17,17,0,22.642,5395.1971224495,93.175856,0.4921268,2.1033793324,0,0,-0.671082,227.8, 1.6, 0.3,0,0,1024,1024,1024,1024,227,-89.9,98,3.774,3.756,3.738,3.77,0,0,20.102,60.8,14,Waypoint,
36.7935407,-118.9150116,5396.1813744495,94.160108,0,0.35939305612,15100,2018-04-15 18:38:17,17,0,22.642,5396.1813744495,94.160108,0.4921268,2.1033793324,0,0,-0.671082,227.9, 1.5, 0.2,0,0,1024,1024,1024,1024,227,-89.9,98,3.774,3.756,3.738,3.77,0,0,20.102,60.8,14,Waypoint,
36.7935406,-118.9150115,5397.1656264495,95.14436,0,0.40478019668,15200,2018-04-15 18:38:17,17,0,22.642,5397.1656264495,95.14436,0.4921268,2.1033793324,0,0,-0.671082,228, 1.5, 0,0,0,1024,1024,1024,1024,227,-89.9,98,3.774,3.756,3.738,3.77,0,0,20.102,60.8,14,Waypoint,
36.7935405,-118.9150114,5399.1341304495,97.112864,0,0.4504429278,15410,2018-04-15 18:38:17,17,0,22.642,5399.1341304495,97.112864,0.4921268,2.1033793324,0,0,-0.671082,228, 1.6, 0.1,0,0,1024,1024,1024,1024,227,-89.9,98,3.774,3.756,3.738,3.77,0,0,20.102,60.8,14,Waypoint,
36.7935404,-118.9150113,5401.1026344495,99.081368,0,0.49630579016,15500,2018-04-15 18:38:17,17,0,22.642,5401.1026344495,99.081368,0.4921268,2.1033793324,0,0,-0.671082,227.9, 1.5, 0.6,0,0,1024,1024,1024,1024,227,-89.9,98,3.774,3.756,3.738,3.77,0,0,20.102,60.8,14,Waypoint,
36.7935403,-118.9150112,5402.0868864495,100.06562,0,0.54231957116,15600,2018-04-15 18:38:17,17,0,22.642,5402.0868864495,100.06562,0.4921268,2.1033793324,0,0,-0.671082,227.8, 1.4, 0.6,0,0,1024,1024,1024,1024,227,-90,98,3.774,3.756,3.738,3.77,0,0,20.102,60.8,14,Waypoint,
36.7935402,-118.9150112,5403.0711384495,101.049872,0,0.57450133072,15710,2018-04-15 18:38:17,17,0,22.642,5403.0711384495,101.049872,0.4921268,2.1033793324,0,0,-0.671082,227.8, 1.3, 0.3,0,0,1024,1024,1024,1024,227,-89.9,98,3.774,3.756,3.738,3.77,0,0,20.102,60.8,14,Waypoint,
36.7935402,-118.9150111,5404.0553904495,102.034124,0,0.58844818156,15900,2018-04-15 18:38:18,17,0,22.642,5404.0553904495,102.034124,0.4921268,2.1033793324,0,0,-0.671082,227.8, 1.5, 0.1,0,0,1024,1024,1024,1024,227,-89.9,98,3.774,3.756,3.738,3.77,0,0,20.102,60.8,14,Waypoint,
36.7935401,-118.9150111,5405.0396424495,103.018376,0,0.62038059728,16000,2018-04-15 18:38:18,17,0,22.642,5405.0396424495,103.018376,0.4921268,2.1033793324,0,0,-0.671082,227.9, 1.8, 0.1,0,0,1024,1024,1024,1024,227,-89.9,98,3.774,3.756,3.738,3.77,0,0,20.102,60.8,14,Waypoint,
36.79354,-118.915011,5407.0081464495,104.98688,0,0.66638125492,16100,2018-04-15 18:38:18,17,0,22.642,5407.0081464495,104.98688,0.4921268,2.1033793324,0,0,-0.671082,227.9, 1.6, 0.2,0,0,1024,1024,1024,1024,227,-89.9,98,3.774,3.756,3.738,3.77,0,0,20.102,60.8,14,Waypoint,
36.79354,-118.915011,5407.9923984495,105.971132,0,0.66638125492,16300,2018-04-15 18:38:18,17,0,22.642,5407.9923984495,105.971132,0.4921268,2.1033793324,0,0,-0.671082,227.9, 1.5, 0,0,0,1024,1024,1024,1024,227,-89.9,98,3.774,3.756,3.738,3.77,0,0,20.102,60.8,14,Waypoint,
36.79354,-118.9150109,5408.9766504495,106.955384,0,0.6809547462,16400,2018-04-15 18:38:18,17,0,22.642,5408.9766504495,106.955384,0.4921268,2.1033793324,0,0,-0.671082,227.7, 1.3, 0.1,0,0,1024,1024,1024,1024,227,-89.9,98,3.774,3.756,3.738,3.77,0,0,20.102,60.8,14,Waypoint,
36.7935399,-118.9150109,5409.9609024495,107.939636,0,0.71248033776,16500,2018-04-15 18:38:18,17,0,22.642,5409.9609024495,107.939636,0.4921268,2.1033793324,0,0,-0.671082,227.6, 1.4, 0.3,0,0,1024,1024,1024,1024,227,-89.9,98,3.774,3.756,3.738,3.77,0,0,20.102,60.8,14,Waypoint,
36.7935399,-118.9150108,5410.9451544495,108.923888,0,0.72730317288,16600,2018-04-15 18:38:18,17,0,22.642,5410.9451544495,108.923888,0.4921268,2.1033793324,0,0,-0.671082,227.5, 1.4, 0.4,0,0,1024,1024,1024,1024,227,-89.9,98,3.774,3.756,3.738,3.77,0,0,20.102,60.8,14,Waypoint,
36.7935398,-118.9150108,5411.9294064495,109.90814,0,0.75865487992,16700,2018-04-15 18:38:18,17,0,22.642,5411.9294064495,109.90814,0.4921268,2.1033793324,0,0,-0.671082,227.6, 1.5, 0.6,0,0,1024,1024,1024,1024,227,-89.9,98,3.774,3.756,3.738,3.77,0,0,20.102,60.8,14,Waypoint,
36.7935398,-118.9150107,5412.9136584495,110.892392,0,0.77369753132,16800,2018-04-15 18:38:18,17,0,22.642,5412.9136584495,110.892392,0.4921268,2.1033793324,0,0,-0.671082,227.8, 1.6, 0.8,0,0,1024,1024,1024,1024,227,-89.9,98,3.774,3.756,3.738,3.77,0,0,20.102,60.8,14,Waypoint,
36.7935398,-118.9150106,5414.8821624495,112.860896,0.223694,0.789534146,17000,2018-04-15 18:38:19,17,0,22.737,5414.8821624495,112.860896,0.4921268,2.1033793324,0,0,-0.671082,228.3, 1.3, 0.4,0,0,1024,1024,1024,1024,227,-90,97,3.778,3.758,3.749,3.783,0,0,19.839,60.8,14,Waypoint,
36.7935399,-118.9150106,5415.8664144495,113.845148,0.223694,0.75945540488,17100,2018-04-15 18:38:19,17,0,22.737,5415.8664144495,113.845148,0.4921268,2.1033793324,0,0,-0.671082,228.4, 0.8, 0,0,0,1024,1024,1024,1024,227,-90,97,3.778,3.758,3.749,3.783,0,0,19.839,60.8,14,Waypoint,
36.7935399,-118.9150106,5416.8506664495,114.8294,0,0.75945540488,17200,2018-04-15 18:38:19,17,0,22.737,5416.8506664495,114.8294,0.4921268,2.1033793324,0,0,-0.671082,228.4, 0.2, -0.1,0,0,1024,1024,1024,1024,227,-90,97,3.778,3.758,3.749,3.783,0,0,19.839,60.8,14,Waypoint,
36.7935399,-118.9150105,5417.8349184495,115.813652,0,0.77668309572,17300,2018-04-15 18:38:19,17,0,22.737,5417.8349184495,115.813652,0.4921268,2.1033793324,0,0,-0.671082,228.1, -0.2, -0.3,0,0,1024,1024,1024,1024,227,-90,97,3.778,3.758,3.749,3.783,0,0,19.839,60.8,14,Waypoint,
36.7935399,-118.9150105,5418.8191704495,116.797904,0,0.77668309572,17400,2018-04-15 18:38:19,17,0,22.737,5418.8191704495,116.797904,0.4921268,2.1033793324,0,0,-0.671082,227.8, 0.1, -0.1,0,0,1024,1024,1024,1024,227,-90,97,3.778,3.758,3.749,3.783,0,0,19.839,60.8,14,Waypoint,
36.7935398,-118.9150105,5419.8034224495,117.782156,0,0.80611551136,17500,2018-04-15 18:38:19,17,0,22.737,5419.8034224495,117.782156,0.4921268,2.1033793324,0,0,-0.671082,227.5, 0.7, 0,0,0,1024,1024,1024,1024,227,-89.9,97,3.778,3.758,3.749,3.783,0,0,19.839,60.8,14,Waypoint,
36.7935398,-118.9150105,5420.7876744495,118.766408,0,0.80611551136,17600,2018-04-15 18:38:19,17,0,22.737,5420.7876744495,118.766408,0.4921268,2.1033793324,0,0,-0.671082,227.3, 1.1, 0,0,0,1024,1024,1024,1024,227,-89.9,97,3.778,3.758,3.749,3.783,0,0,19.839,60.8,14,Waypoint,
36.7935397,-118.9150105,5421.7719264495,119.75066,0,0.83610895064,17700,2018-04-15 18:38:19,17,0,22.737,5421.7719264495,119.75066,0.4921268,2.1033793324,0,0,-0.671082,227.1, 1.4, 0,0,0,1024,1024,1024,1024,227,-89.9,97,3.778,3.758,3.749,3.783,0,0,19.839,60.8,14,Waypoint,
36.7935396,-118.9150106,5423.7404304495,121.719164,0,0.85119425296,17810,2018-04-15 18:38:19,17,0,22.737,5423.7404304495,121.719164,0.4921268,2.1033793324,0,0,-0.671082,227.4, 2.3, 0.2,0,0,1024,1024,1024,1024,227,-89.9,97,3.778,3.758,3.749,3.783,0,0,19.839,60.8,14,Waypoint,
36.7935395,-118.9150106,5424.7246824495,122.703416,0,0.88267063192,17910,2018-04-15 18:38:20,17,0,22.737,5424.7246824495,122.703416,0.4921268,2.1033793324,0,0,-0.671082,227.7, 2.5, 0.6,0,0,1024,1024,1024,1024,227,-89.9,97,3.778,3.758,3.749,3.783,0,0,19.839,60.8,14,Waypoint,
36.7935394,-118.9150106,5426.0370184495,124.015752,0,0.91452102664,18020,2018-04-15 18:38:20,17,0,22.602,5426.0370184495,124.015752,0.4921268,2.1033793324,0,0,-0.671082,227.9, 2.4, 0.8,0,0,1024,1024,1024,1024,227,-89.9,97,3.772,3.753,3.728,3.764,0,0,19.798,60.8,14,Waypoint,
36.7935394,-118.9150106,5426.0370184495,124.015752,0,0.91452102664,18100,2018-04-15 18:38:20,17,0,22.602,5426.0370184495,124.015752,0.4921268,2.1033793324,0,0,-0.671082,227.9, 2.4, 0.8,0,0,1024,1024,1024,1024,227,-89.9,97,3.772,3.753,3.728,3.764,0,0,19.798,60.8,14,Waypoint,
36.7935392,-118.9150105,5428.0055224495,125.984256,0,0.99261158032,18200,2018-04-15 18:38:20,17,0,22.602,5428.0055224495,125.984256,0.4921268,2.1033793324,0,0,-0.671082,228.2, 2.3, 1.2,0,0,1024,1024,1024,1024,227,-89.9,97,3.772,3.753,3.728,3.764,0,0,19.798,60.8,14,Waypoint,
36.7935392,-118.9150105,5428.9897744495,126.968508,0,0.99261158032,18310,2018-04-15 18:38:20,17,0,22.602,5428.9897744495,126.968508,0.4921268,2.1033793324,0,0,-0.671082,228.2, 2.5, 1.3,0,0,1024,1024,1024,1024,227,-89.9,97,3.772,3.753,3.728,3.764,0,0,19.798,60.8,14,Waypoint,
36.7935391,-118.9150104,5429.9740264495,127.95276,0,1.03858927208,18400,2018-04-15 18:38:20,17,0,22.602,5429.9740264495,127.95276,0.4921268,2.1033793324,0,0,-0.671082,228.2, 2.8, 1.6,0,0,1024,1024,1024,1024,227,-89.9,97,3.772,3.753,3.728,3.764,0,0,19.798,60.8,14,Waypoint,
36.793539,-118.9150104,5430.9582784495,128.937012,0,1.07077431248,18600,2018-04-15 18:38:20,17,0,22.602,5430.9582784495,128.937012,0.4921268,2.1033793324,0,0,-0.671082,228.1, 2.9, 1.7,0,0,1024,1024,1024,1024,227,-89.9,97,3.772,3.753,3.728,3.764,0,0,19.798,60.8,14,Waypoint,
36.793539,-118.9150104,5431.9425304495,129.921264,0,1.07077431248,18700,2018-04-15 18:38:20,17,0,22.602,5431.9425304495,129.921264,0.4921268,2.1033793324,0,0,-0.671082,228, 2.4, 1.6,0,0,1024,1024,1024,1024,227,-89.9,97,3.772,3.753,3.728,3.764,0,0,19.798,60.8,14,Waypoint,
36.793539,-118.9150104,5432.9267824495,130.905516,0,1.07077431248,18800,2018-04-15 18:38:20,17,0,22.602,5432.9267824495,130.905516,0.4921268,2.1033793324,0,0,-0.671082,227.9, 2.2, 1.4,0,0,1024,1024,1024,1024,227,-89.9,97,3.772,3.753,3.728,3.764,0,0,19.798,60.8,14,Waypoint,
36.793539,-118.9150105,5434.8952864495,132.87402,0,1.05753940392,19000,2018-04-15 18:38:21,17,0,22.748,5434.8952864495,132.87402,0.4921268,2.1033793324,0,0,-0.671082,228.1, 2.5, 0.1,0,0,1024,1024,1024,1024,227,-89.9,97,3.809,3.783,3.759,3.79,0,0,18.162,60.8,14,Waypoint,
36.793539,-118.9150107,5436.8637904495,134.842524,0,1.03304137164,19200,2018-04-15 18:38:21,17,0,22.748,5436.8637904495,134.842524,0.4921268,2.1033793324,0,0,-0.671082,228.3, 2.8, -0.2,0,0,1024,1024,1024,1024,227,-89.9,97,3.809,3.783,3.759,3.79,0,0,18.162,60.8,14,Waypoint,
36.793539,-118.9150107,5437.8480424495,135.826776,0,1.03304137164,19300,2018-04-15 18:38:21,17,0,22.748,5437.8480424495,135.826776,0.4921268,2.1033793324,0,0,-0.671082,228.3, 3.2, -0.2,0,0,1024,1024,1024,1024,227,-89.9,97,3.809,3.783,3.759,3.79,0,0,18.162,60.8,14,Waypoint,
36.793539,-118.9150107,5438.8322944495,136.811028,0,1.03304137164,19400,2018-04-15 18:38:21,17,0,22.748,5438.8322944495,136.811028,0.4921268,2.1033793324,0,0,-0.671082,228.2, 3.5, -0.1,0,0,1024,1024,1024,1024,227,-89.9,97,3.809,3.783,3.759,3.79,0,0,18.162,60.8,14,Waypoint,
36.793539,-118.9150108,5439.8165464495,137.79528,0,1.02182417968,19500,2018-04-15 18:38:21,17,0,22.748,5439.8165464495,137.79528,0.4921268,2.1033793324,0,0,-0.671082,228.2, 3.7, 0.2,0,0,1024,1024,1024,1024,227,-89.9,97,3.809,3.783,3.759,3.79,0,0,18.162,60.8,14,Waypoint,
36.793539,-118.9150108,5440.8007984495,138.779532,0,1.02182417968,19600,2018-04-15 18:38:21,17,0,22.748,5440.8007984495,138.779532,0.4921268,2.1033793324,0,0,-0.671082,228.2, 3.6, 0.4,0,0,1024,1024,1024,1024,227,-89.9,97,3.809,3.783,3.759,3.79,0,0,18.162,60.8,14,Waypoint,
36.793539,-118.9150109,5441.7850504495,139.763784,0,1.01132549168,19700,2018-04-15 18:38:21,17,0,22.748,5441.7850504495,139.763784,0.4921268,2.1033793324,0,0,-0.671082,228.2, 3.4, 0.2,0,0,1024,1024,1024,1024,227,-89.9,97,3.809,3.783,3.759,3.79,0,0,18.162,60.8,14,Waypoint,
36.793539,-118.9150109,5442.7693024495,140.748036,0.223694,1.01132549168,19800,2018-04-15 18:38:21,17,0,22.748,5442.7693024495,140.748036,0.4921268,2.1033793324,0,0,-0.671082,228.1, 3.4, 0.2,0,0,1024,1024,1024,1024,227,-89.9,97,3.809,3.783,3.759,3.79,0,0,18.162,60.8,14,Waypoint,
36.793539,-118.915011,5443.7535544495,141.732288,0.223694,1.00157155436,19900,2018-04-15 18:38:22,17,0,22.748,5443.7535544495,141.732288,0.4921268,2.1033793324,0,0,-0.671082,228, 3.3, -0.1,0,0,1024,1024,1024,1024,227,-90,97,3.809,3.783,3.759,3.79,0,0,18.162,60.8,14,Waypoint,
36.7935393,-118.9150112,5446.0501424495,144.028876,0.223694,0.87938651108,20100,2018-04-15 18:38:22,17,0,22.748,5446.0501424495,144.028876,0.4921268,2.1033793324,0,0,-0.671082,227.8, 3.1, -1.5,0,0,1024,1024,1024,1024,227,-90,97,3.809,3.783,3.759,3.79,0,0,18.162,60.8,14,Waypoint,
36.7935394,-118.9150113,5447.0343944495,145.013128,0.223694,0.8360072446,20200,2018-04-15 18:38:22,17,0,22.748,5447.0343944495,145.013128,0.4921268,2.1033793324,0,0,-0.671082,227.8, 3.1, -1.9,0,0,1024,1024,1024,1024,227,-89.9,97,3.809,3.783,3.759,3.79,0,0,18.162,60.8,14,Waypoint,
36.7935395,-118.9150114,5448.0186464495,145.99738,0.223694,0.7930118364,20320,2018-04-15 18:38:22,17,0,22.748,5448.0186464495,145.99738,0.4921268,2.1033793324,0,0,-0.671082,227.8, 3, -2.3,0,0,1024,1024,1024,1024,227,-90,97,3.809,3.783,3.759,3.79,0,0,18.162,60.8,14,Waypoint,
36.7935395,-118.9150115,5448.6748144495,146.653548,0.223694,0.78598099628,20400,2018-04-15 18:38:22,17,0,22.748,5448.6748144495,146.653548,0.4921268,2.1033793324,0,0,-0.671082,227.7, 2.8, -2.4,0,0,1024,1024,1024,1024,227,-90,97,3.809,3.783,3.759,3.79,0,0,18.162,60.8,14,Waypoint,
36.7935397,-118.9150115,5450.6433184495,148.622052,0.223694,0.71503611212,20610,2018-04-15 18:38:22,17,0,22.748,5450.6433184495,148.622052,0.4921268,2.1033793324,0,0,-0.671082,227.7, 2.4, -2.3,0,0,1024,1024,1024,1024,227,-89.9,97,3.809,3.783,3.759,3.79,0,0,18.162,60.8,14,Waypoint,
36.7935397,-118.9150115,5450.6433184495,148.622052,0.223694,0.71503611212,20700,2018-04-15 18:38:22,17,0,22.748,5450.6433184495,148.622052,0.4921268,2.1033793324,0,0,-0.671082,227.7, 2.4, -2.3,0,0,1024,1024,1024,1024,227,-89.9,97,3.809,3.783,3.759,3.79,0,0,18.162,60.8,14,Waypoint,
36.7935398,-118.9150116,5452.6118224495,150.590556,0.223694,0.67278217376,20900,2018-04-15 18:38:23,17,0,22.748,5452.6118224495,150.590556,0.4921268,2.1033793324,0,0,-0.671082,227.7, 2.6, -1.9,0,0,1024,1024,1024,1024,227,-89.9,97,3.809,3.783,3.759,3.79,0,0,18.162,60.8,14,Waypoint,
36.7935398,-118.9150116,5453.5960744495,151.574808,0.223694,0.67278217376,21000,2018-04-15 18:38:23,17,0,22.858,5453.5960744495,151.574808,0.4921268,2.1033793324,0,0,-0.671082,227.7, 2.6, -1.6,0,0,1024,1024,1024,1024,227,-89.9,97,3.812,3.793,3.769,3.811,0,0,17.116,60.8,14,Waypoint,
36.7935398,-118.9150116,5454.5803264495,152.55906,0,0.67278217376,21100,2018-04-15 18:38:23,17,0,22.858,5454.5803264495,152.55906,0.4921268,2.1033793324,0,0,-0.671082,227.7, 2.8, -1.5,0,0,1024,1024,1024,1024,227,-89.9,97,3.812,3.793,3.769,3.811,0,0,17.116,60.8,14,Waypoint,
36.7935398,-118.9150116,5456.5488304495,154.527564,0.223694,0.67278217376,21200,2018-04-15 18:38:23,17,0,22.858,5456.5488304495,154.527564,0.4921268,2.1033793324,0,0,-0.671082,227.7, 3.1, -1.9,0,0,1024,1024,1024,1024,227,-90,97,3.812,3.793,3.769,3.811,0,0,17.116,60.8,14,Waypoint,
36.7935398,-118.9150117,5457.5330824495,155.511816,0,0.66704726544,21400,2018-04-15 18:38:23,17,0,22.858,5457.5330824495,155.511816,0.4921268,2.1033793324,0,0,-0.671082,227.8, 2.6, -2.2,0,0,1024,1024,1024,1024,227,-89.9,97,3.812,3.793,3.769,3.811,0,0,17.116,60.8,14,Waypoint,
36.7935398,-118.9150117,5458.5173344495,156.496068,0,0.66704726544,21500,2018-04-15 18:38:23,17,0,22.858,5458.5173344495,156.496068,0.4921268,2.1033793324,0,0,-0.671082,227.9, 2.6, -2.2,0,0,1024,1024,1024,1024,227,-89.9,97,3.812,3.793,3.769,3.811,0,0,17.116,60.8,14,Waypoint,
36.7935397,-118.9150117,5459.5015864495,157.48032,0,0.70299542932,21600,2018-04-15 18:38:23,17,0,22.858,5459.5015864495,157.48032,0.4921268,2.1033793324,0,0,-0.671082,228, 3.2, -1.8,0,0,1024,1024,1024,1024,227,-89.9,97,3.812,3.793,3.769,3.811,0,0,17.116,60.8,14,Waypoint,
36.7935397,-118.9150118,5460.4858384495,158.464572,0,0.69873361816,21700,2018-04-15 18:38:23,17,0,22.858,5460.4858384495,158.464572,0.4921268,2.1033793324,0,0,-0.671082,228.2, 4, -1.6,0,0,1024,1024,1024,1024,227,-89.9,97,3.812,3.793,3.769,3.811,0,0,17.116,60.8,14,Waypoint,
36.7935396,-118.9150118,5461.1420064495,159.12074,0,0.73494424924,21800,2018-04-15 18:38:23,17,0,22.858,5461.1420064495,159.12074,0.4921268,2.1033793324,0,0,-0.671082,228.4, 4.2, -1.1,0,0,1024,1024,1024,1024,227,-89.9,97,3.812,3.793,3.769,3.811,0,0,17.116,60.8,14,Waypoint,
36.7935395,-118.9150118,5462.1262584495,160.104992,0,0.77118112704,21900,2018-04-15 18:38:24,17,0,22.858,5462.1262584495,160.104992,0.4921268,2.1033793324,0,0,-0.671082,228.5, 4.1, -0.7,0,0,1024,1024,1024,1024,227,-89.9,97,3.812,3.793,3.769,3.811,0,0,17.116,60.8,14,Waypoint,
36.7935394,-118.9150117,5463.1105104495,161.089244,0,0.81113191572,22000,2018-04-15 18:38:24,17,0,22.759,5463.1105104495,161.089244,0.4921268,2.1033793324,0,0,-0.671082,228.5, 4, -0.3,0,0,1024,1024,1024,1024,227,-89.9,97,3.792,3.781,3.748,3.782,0,0,17.856,60.8,14,Waypoint,
36.7935394,-118.9150117,5464.0947624495,162.073496,0,0.81113191572,22100,2018-04-15 18:38:24,17,0,22.759,5464.0947624495,162.073496,0.4921268,2.1033793324,0,0,-0.671082,228.5, 3.8, -0.1,0,0,1024,1024,1024,1024,227,-89.9,97,3.792,3.781,3.748,3.782,0,0,17.856,60.8,14,Waypoint,
36.7935393,-118.9150116,5465.0790144495,163.057748,0,0.85177496164,22200,2018-04-15 18:38:24,17,0,22.759,5465.0790144495,163.057748,0.4921268,2.1033793324,0,0,-0.671082,228.5, 3.8, 0,0,0,1024,1024,1024,1024,227,-90,97,3.792,3.781,3.748,3.782,0,0,17.856,60.8,14,Waypoint,
36.7935393,-118.9150116,5466.0632664495,164.042,0,0.85177496164,22300,2018-04-15 18:38:24,17,0,22.759,5466.0632664495,164.042,0.4921268,2.1033793324,0,0,-0.671082,228.5, 3.3, -0.2,0,0,1024,1024,1024,1024,227,-90,97,3.792,3.781,3.748,3.782,0,0,17.856,60.8,14,Waypoint,
36.7935392,-118.9150115,5467.0475184495,165.026252,0,0.89301512044,22400,2018-04-15 18:38:24,17,0,22.759,5467.0475184495,165.026252,0.4921268,2.1033793324,0,0,-0.671082,228.4, 3.2, 0,0,0,1024,1024,1024,1024,227,-89.9,97,3.792,3.781,3.748,3.782,0,0,17.856,60.8,14,Waypoint,
36.7935392,-118.9150114,5468.0317704495,166.010504,0,0.89920606552,22530,2018-04-15 18:38:24,17,0,22.759,5468.0317704495,166.010504,0.4921268,2.1033793324,0,0,-0.671082,228.3, 3.3, 0.5,0,0,1024,1024,1024,1024,227,-89.9,97,3.792,3.781,3.748,3.782,0,0,17.856,60.8,14,Waypoint,
36.7935391,-118.9150113,5469.0160224495,166.994756,0,0.94159451832,22600,2018-04-15 18:38:24,17,0,22.759,5469.0160224495,166.994756,0.4921268,2.1033793324,0,0,-0.671082,228.2, 3.2, 0.7,0,0,1024,1024,1024,1024,227,-90,97,3.792,3.781,3.748,3.782,0,0,17.856,60.8,14,Waypoint,
36.793539,-118.9150111,5470.9845264495,168.96326,0,0.99258205276,22730,2018-04-15 18:38:24,17,0,22.759,5470.9845264495,168.96326,0.4921268,2.1033793324,0,0,-0.671082,228.2, 3.2, 0.7,0,0,1024,1024,1024,1024,227,-90,97,3.792,3.781,3.748,3.782,0,0,17.856,60.8,14,Waypoint,
36.793539,-118.9150111,5471.9687784495,169.947512,0,0.99258205276,22800,2018-04-15 18:38:24,17,0,22.759,5471.9687784495,169.947512,0.4921268,2.1033793324,0,0,-0.671082,228.1, 3.3, 1,0,0,1024,1024,1024,1024,227,-89.9,97,3.792,3.781,3.748,3.782,0,0,17.856,60.8,14,Waypoint,
36.7935389,-118.915011,5472.9530304495,170.931764,0,1.03619425888,22900,2018-04-15 18:38:25,17,0,22.759,5472.9530304495,170.931764,0.4921268,2.1033793324,0,0,-0.671082,228.1, 3.3, 1.3,0,0,1024,1024,1024,1024,227,-89.9,97,3.792,3.781,3.748,3.782,0,0,17.856,60.8,14,Waypoint,
36.7935389,-118.9150109,5474.9215344495,172.900268,0,1.04562667388,23110,2018-04-15 18:38:25,17,0,22.759,5474.9215344495,172.900268,0.4921268,2.1033793324,0,0,-0.671082,227.9, 3.4, 0.9,0,0,1024,1024,1024,1024,227,-90,97,3.792,3.781,3.748,3.782,0,0,17.856,60.8,14,Waypoint,
36.7935389,-118.9150109,5474.9215344495,172.900268,0,1.04562667388,23200,2018-04-15 18:38:25,17,0,22.759,5474.9215344495,172.900268,0.4921268,2.1033793324,0,0,-0.671082,227.9, 3.4, 0.9,0,0,1024,1024,1024,1024,227,-90,97,3.792,3.781,3.748,3.782,0,0,17.856,60.8,14,Waypoint,
36.7935389,-118.9150109,5475.9057864495,173.88452,0,1.04562667388,23300,2018-04-15 18:38:25,17,0,22.759,5475.9057864495,173.88452,0.4921268,2.1033793324,0,0,-0.671082,227.7, 3.4, 0.6,0,0,1024,1024,1024,1024,227,-89.9,97,3.792,3.781,3.748,3.782,0,0,17.856,60.8,14,Waypoint,
36.7935389,-118.9150109,5477.2181224495,175.196856,0,1.04562667388,23400,2018-04-15 18:38:25,17,0,22.759,5477.2181224495,175.196856,0.4921268,2.1033793324,0,0,-0.671082,227.6, 3.3, 0.4,0,0,1024,1024,1024,1024,227,-89.9,97,3.792,3.781,3.748,3.782,0,0,17.856,60.8,14,Waypoint,
36.7935388,-118.9150108,5478.2023744495,176.181108,0,1.08990160968,23500,2018-04-15 18:38:25,17,0,22.759,5478.2023744495,176.181108,0.4921268,2.1033793324,0,0,-0.671082,227.7, 3.2, 1,0,0,1024,1024,1024,1024,227,-89.9,97,3.792,3.781,3.748,3.782,0,0,17.856,60.8,14,Waypoint,
36.7935388,-118.9150108,5479.1866264495,177.16536,0,1.08990160968,23600,2018-04-15 18:38:25,17,0,22.759,5479.1866264495,177.16536,0.4921268,2.1033793324,0,0,-0.671082,228, 3.5, 1.3,0,0,1024,1024,1024,1024,227,-89.9,97,3.792,3.781,3.748,3.782,0,0,17.856,60.8,14,Waypoint,
36.7935388,-118.9150107,5480.1708784495,178.149612,0,1.1004265444,23700,2018-04-15 18:38:25,17,0,22.759,5480.1708784495,178.149612,0.4921268,2.1033793324,0,0,-0.671082,228.3, 3.7, 1.4,0,0,1024,1024,1024,1024,227,-89.9,97,3.792,3.781,3.748,3.782,0,0,17.856,60.8,14,Waypoint,
36.7935388,-118.9150107,5481.1551304495,179.133864,0,1.1004265444,23900,2018-04-15 18:38:26,17,0,22.759,5481.1551304495,179.133864,0.4921268,2.1033793324,0,0,-0.671082,228.5, 3.8, 1.6,0,0,1024,1024,1024,1024,227,-89.9,97,3.792,3.781,3.748,3.782,0,0,17.856,60.8,14,Waypoint,
36.7935387,-118.9150107,5482.1393824495,180.118116,0,1.13437667672,24000,2018-04-15 18:38:26,17,0,22.397,5482.1393824495,180.118116,0.4921268,2.1033793324,0,0,-0.671082,228.6, 3.8, 1.9,0,0,1024,1024,1024,1024,227,-89.9,97,3.735,3.718,3.685,3.72,0,0,21.354,62.6,14,Waypoint,
36.7935387,-118.9150107,5483.4517184495,181.430452,0,1.13437667672,24100,2018-04-15 18:38:26,17,0,22.397,5483.4517184495,181.430452,0.4921268,2.1033793324,0,0,-0.671082,228.4, 3.7, 1.9,0,0,1024,1024,1024,1024,227,-89.9,97,3.735,3.718,3.685,3.72,0,0,21.354,62.6,14,Waypoint,
36.7935386,-118.9150106,5484.4359704495,182.414704,0,1.17902562828,24200,2018-04-15 18:38:26,17,0,22.397,5484.4359704495,182.414704,0.4921268,2.1033793324,0,0,-0.671082,228.2, 4, 1.9,0,0,1024,1024,1024,1024,227,-89.9,97,3.735,3.718,3.685,3.72,0,0,21.354,62.6,14,Waypoint,
36.7935386,-118.9150106,5485.4202224495,183.398956,0,1.17902562828,24400,2018-04-15 18:38:26,17,0,22.397,5485.4202224495,183.398956,0.4921268,2.1033793324,0,0,-0.671082,227.8, 4.3, 1.7,0,0,1024,1024,1024,1024,227,-89.9,97,3.735,3.718,3.685,3.72,0,0,21.354,62.6,14,Waypoint,
36.7935386,-118.9150106,5486.4044744495,184.383208,0,1.17902562828,24500,2018-04-15 18:38:26,17,0,22.397,5486.4044744495,184.383208,0.4921268,2.1033793324,0,0,-0.671082,227.7, 4.2, 1.4,0,0,1024,1024,1024,1024,227,-89.9,97,3.735,3.718,3.685,3.72,0,0,21.354,62.6,14,Waypoint,
36.7935386,-118.9150106,5487.3887264495,185.36746,0,1.17902562828,24600,2018-04-15 18:38:26,17,0,22.397,5487.3887264495,185.36746,0.4921268,2.1033793324,0,0,-0.671082,227.8, 4, 0.7,0,0,1024,1024,1024,1024,227,-89.9,97,3.735,3.718,3.685,3.72,0,0,21.354,62.6,14,Waypoint,
36.7935387,-118.9150106,5488.3729784495,186.351712,0,1.14523625712,24700,2018-04-15 18:38:26,17,0,22.397,5488.3729784495,186.351712,0.4921268,2.1033793324,0,0,-0.671082,227.8, 3.9, 0.5,0,0,1024,1024,1024,1024,227,-89.9,97,3.735,3.718,3.685,3.72,0,0,21.354,62.6,14,Waypoint,
36.7935388,-118.9150105,5490.3414824495,188.320216,0.223694,1.12345476036,24800,2018-04-15 18:38:26,17,0,22.397,5490.3414824495,188.320216,0.4921268,2.1033793324,0,0,-0.671082,227.3, 3.5, 0.4,0,0,1024,1024,1024,1024,227,-90,97,3.735,3.718,3.685,3.72,0,0,21.354,62.6,14,Waypoint,
36.7935388,-118.9150104,5493.2942384495,191.272972,0,1.1359252332,25000,2018-04-15 18:38:27,17,0,22.365,5493.2942384495,191.272972,0.4921268,2.1033793324,0,0,-0.671082,227.9, 3.1, 1.1,0,0,1024,1024,1024,1024,227,-90,97,3.734,3.717,3.693,3.721,0,0,21.152,62.6,14,Waypoint,
36.7935389,-118.9150104,5494.2784904495,192.257224,0,1.10322838176,25100,2018-04-15 18:38:27,17,0,22.365,5494.2784904495,192.257224,0.4921268,2.1033793324,0,0,-0.671082,228.1, 3.5, 1.2,0,0,1024,1024,1024,1024,227,-89.9,97,3.734,3.717,3.693,3.721,0,0,21.152,62.6,14,Waypoint,
36.7935389,-118.9150104,5495.2627424495,193.241476,0,1.10322838176,25200,2018-04-15 18:38:27,17,0,22.365,5495.2627424495,193.241476,0.4921268,2.1033793324,0,0,-0.671082,228.3, 3.8, 1.2,0,0,1024,1024,1024,1024,227,-89.9,97,3.734,3.717,3.693,3.721,0,0,21.152,62.6,14,Waypoint,
36.793539,-118.9150104,5497.2312464495,195.20998,0,1.07077431248,25300,2018-04-15 18:38:27,17,0,22.365,5497.2312464495,195.20998,0.4921268,2.1033793324,0,0,-0.671082,228.7, 4, 0.6,0,0,1024,1024,1024,1024,227,-89.9,97,3.734,3.717,3.693,3.721,0,0,21.152,62.6,14,Waypoint,
36.7935391,-118.9150104,5498.2154984495,196.194232,0.223694,1.03858927208,25430,2018-04-15 18:38:27,17,0,22.365,5498.2154984495,196.194232,0.4921268,2.1033793324,0,0,-0.671082,228.8, 3.7, 0.7,0,0,1024,1024,1024,1024,227,-90,97,3.734,3.717,3.693,3.721,0,0,21.152,62.6,14,Waypoint,
36.7935391,-118.9150104,5499.1997504495,197.178484,0,1.03858927208,25500,2018-04-15 18:38:27,17,0,22.365,5499.1997504495,197.178484,0.4921268,2.1033793324,0,0,-0.671082,228.7, 3.1, 0.9,0,0,1024,1024,1024,1024,227,-90,97,3.734,3.717,3.693,3.721,0,0,21.152,62.6,14,Waypoint,
36.7935392,-118.9150103,5501.1682544495,199.146988,0,1.02143047888,25800,2018-04-15 18:38:27,17,0,22.365,5501.1682544495,199.146988,0.4921268,2.1033793324,0,0,-0.671082,228.5, 2.9, 0.9,0,0,1024,1024,1024,1024,227,-90,97,3.734,3.717,3.693,3.721,0,0,21.152,62.6,14,Waypoint,
36.7935393,-118.9150103,5503.1367584495,201.115492,0,0.99033139652,25920,2018-04-15 18:38:28,17,0,22.365,5503.1367584495,201.115492,0.4921268,2.1033793324,0,0,-0.671082,228, 2.9, 0,0,0,1024,1024,1024,1024,227,-90,97,3.734,3.717,3.693,3.721,0,0,21.152,62.6,14,Waypoint,
36.7935393,-118.9150102,5504.1210104495,202.099744,0,1.006151607,26010,2018-04-15 18:38:28,17,0,22.473,5504.1210104495,202.099744,0.4921268,2.1033793324,0,0,-0.671082,227.8, 2.8, 0.5,0,0,1024,1024,1024,1024,227,-89.9,97,3.753,3.722,3.709,3.743,0,0,20.201,62.6,14,Waypoint,
36.7935393,-118.9150102,5505.1052624495,203.083996,0,1.006151607,26200,2018-04-15 18:38:28,17,0,22.473,5505.1052624495,203.083996,0.4921268,2.1033793324,0,0,-0.671082,227.8, 3, 1.5,0,0,1024,1024,1024,1024,227,-89.9,97,3.753,3.722,3.709,3.743,0,0,20.201,62.6,14,Waypoint,
36.7935393,-118.9150101,5506.0895144495,204.068248,0,1.02256236868,26300,2018-04-15 18:38:28,17,0,22.473,5506.0895144495,204.068248,0.4921268,2.1033793324,0,0,-0.671082,227.8, 3.1, 1.6,0,0,1024,1024,1024,1024,227,-89.9,97,3.753,3.722,3.709,3.743,0,0,20.201,62.6,14,Waypoint,
36.7935394,-118.91501,5507.0737664495,205.0525,0,1.01031171212,26400,2018-04-15 18:38:28,17,0,22.473,5507.0737664495,205.0525,0.4921268,2.1033793324,0,0,-0.671082,227.9, 2.9, 1.8,0,0,1024,1024,1024,1024,227,-90,97,3.753,3.722,3.709,3.743,0,0,20.201,62.6,14,Waypoint,
36.7935394,-118.9150099,5508.0580184495,206.036752,0,1.02831696204,26500,2018-04-15 18:38:28,17,0,22.473,5508.0580184495,206.036752,0.4921268,2.1033793324,0,0,-0.671082,228, 2.6, 2,0,0,1024,1024,1024,1024,227,-90,97,3.753,3.722,3.709,3.743,0,0,20.201,62.6,14,Waypoint,
36.7935394,-118.9150098,5509.0422704495,207.021004,0,1.04683074216,26700,2018-04-15 18:38:28,17,0,22.473,5509.0422704495,207.021004,0.4921268,2.1033793324,0,0,-0.671082,228.2, 2.4, 1.9,0,0,1024,1024,1024,1024,227,-90,97,3.753,3.722,3.709,3.743,0,0,20.201,62.6,14,Waypoint,
36.7935395,-118.9150098,5510.0265224495,208.005256,0,1.01912404836,26800,2018-04-15 18:38:28,17,0,22.473,5510.0265224495,208.005256,0.4921268,2.1033793324,0,0,-0.671082,228.2, 2.4, 1.5,0,0,1024,1024,1024,1024,227,-90,97,3.753,3.722,3.709,3.743,0,0,20.201,62.6,14,Waypoint,
36.7935395,-118.9150097,5511.0107744495,208.989508,0,1.03862208048,26900,2018-04-15 18:38:29,17,0,22.473,5511.0107744495,208.989508,0.4921268,2.1033793324,0,0,-0.671082,228, 2.4, 1.2,0,0,1024,1024,1024,1024,227,-90,97,3.753,3.722,3.709,3.743,0,0,20.201,62.6,14,Waypoint,
36.7935395,-118.9150097,5511.9950264495,209.97376,0,1.03862208048,27000,2018-04-15 18:38:29,17,0,22.484,5511.9950264495,209.97376,0.4921268,2.1033793324,0,0,-0.671082,227.7, 2.3, 1.5,0,0,1024,1024,1024,1024,227,-90,96,3.761,3.727,3.704,3.733,0,0,20.123,62.6,14,Waypoint,
36.7935396,-118.9150096,5513.3073624495,211.286096,0,1.0324639438,27100,2018-04-15 18:38:29,17,0,22.484,5513.3073624495,211.286096,0.4921268,2.1033793324,0,0,-0.671082,227.6, 2, 1.6,0,0,1024,1024,1024,1024,227,-90,96,3.761,3.727,3.704,3.733,0,0,20.123,62.6,14,Waypoint,
36.7935396,-118.9150096,5514.2916144495,212.270348,0,1.0324639438,27300,2018-04-15 18:38:29,17,0,22.484,5514.2916144495,212.270348,0.4921268,2.1033793324,0,0,-0.671082,227.6, 2.1, 1.3,0,0,1024,1024,1024,1024,227,-89.9,96,3.761,3.727,3.704,3.733,0,0,20.123,62.6,14,Waypoint,
36.7935396,-118.9150096,5515.2758664495,213.2546,0.223694,1.0324639438,27400,2018-04-15 18:38:29,17,0,22.484,5515.2758664495,213.2546,0.4921268,2.1033793324,0,0,-0.671082,227.7, 2.2, 1,0,0,1024,1024,1024,1024,227,-89.9,96,3.761,3.727,3.704,3.733,0,0,20.123,62.6,14,Waypoint,
36.7935397,-118.9150097,5516.2601184495,214.238852,0.223694,0.9860236536,27500,2018-04-15 18:38:29,17,0,22.484,5516.2601184495,214.238852,0.4921268,2.1033793324,0,0,-0.671082,227.8, 2.4, 0.9,0,0,1024,1024,1024,1024,227,-90,96,3.761,3.727,3.704,3.733,0,0,20.123,62.6,14,Waypoint,
36.7935398,-118.9150097,5517.9005384495,215.879272,0.223694,0.96072181552,27600,2018-04-15 18:38:29,17,0,22.484,5517.9005384495,215.879272,0.4921268,2.1033793324,0,0,-0.671082,228.2, 2.4, 0.3,0,0,1024,1024,1024,1024,227,-89.9,96,3.761,3.727,3.704,3.733,0,0,20.123,62.6,14,Waypoint,
36.7935399,-118.9150097,5518.8847904495,216.863524,0.223694,0.93616144728,27700,2018-04-15 18:38:29,17,0,22.484,5518.8847904495,216.863524,0.4921268,2.1033793324,0,0,-0.671082,228.3, 2.1, 0,0,0,1024,1024,1024,1024,227,-90,96,3.761,3.727,3.704,3.733,0,0,20.123,62.6,14,Waypoint,
36.79354,-118.9150096,5521.8375464495,219.81628,0,0.9350394,27900,2018-04-15 18:38:30,17,0,22.484,5521.8375464495,219.81628,0.4921268,2.1033793324,0,0,-0.671082,228.3, 1.4, -0.2,0,0,1024,1024,1024,1024,227,-90,96,3.761,3.727,3.704,3.733,0,0,20.123,62.6,14,Waypoint,
36.7935399,-118.9150094,5523.8060504495,221.784784,0,1.00349740744,28000,2018-04-15 18:38:30,17,0,22.393,5523.8060504495,221.784784,0.4921268,2.1033793324,0,0,-0.671082,228.1, 1.6, 1.2,0,0,1024,1024,1024,1024,227,-89.9,96,3.761,3.727,3.704,3.733,0,0,21.258,62.6,14,Waypoint,
36.7935397,-118.9150093,5525.7745544495,223.753288,0,1.07228677972,28210,2018-04-15 18:38:30,17,0,22.393,5525.7745544495,223.753288,0.4921268,2.1033793324,0,0,-0.671082,228, 2.9, 2.2,0,0,1024,1024,1024,1024,227,-89.9,96,3.761,3.727,3.704,3.733,0,0,21.258,62.6,14,Waypoint,
36.7935397,-118.9150093,5525.7745544495,223.753288,0,1.07228677972,28300,2018-04-15 18:38:30,17,0,22.393,5525.7745544495,223.753288,0.4921268,2.1033793324,0,0,-0.671082,228, 2.9, 2.2,0,0,1024,1024,1024,1024,227,-89.9,96,3.761,3.727,3.704,3.733,0,0,21.258,62.6,14,Waypoint,
36.7935396,-118.9150093,5526.7588064495,224.73754,0.223694,1.0962270692,28400,2018-04-15 18:38:30,17,0,22.393,5526.7588064495,224.73754,0.4921268,2.1033793324,0,0,-0.671082,227.9, 3.7, 3.1,0,0,1024,1024,1024,1024,227,-89.9,96,3.761,3.727,3.704,3.733,0,0,21.258,62.6,14,Waypoint,
