Latitude, Longitude, Altitude (m), Time, Sats, Speed (m/s), Range (m), Battery (%), Roll (deg), Pitch (deg), Yaw (deg), Images, HD Signal (%), RC Signal (%), Battery Temp (C), Battery Voltage (mV), Battery Current (mA), Battery Energy (mAh), Battery Capacity (mAh), Battery Discharges, flyState, timestamp (Unix), LastUpdate (ms), radioChannel, Rc_elevator, Rc_aileron, Rc_throttle, Rc_rudder, Rc_gyro, Dronetype, Battery_Cell1 (mV), Battery_Cell2 (mV), Battery_Cell3 (mV), Battery_Cell4 (mV), Battery_Cell5 (mV), Battery_Cell6 (mV), Video, isFlying, elapsedTime (ms), gimbalPitch (deg), gimbalRoll (deg), gimbalYaw (deg), VelocityX (m/s), VelocityY (m/s), VelocityZ (m/s), GroundSmear (cm), App Version, Aircraft Name, Aircraft Firmware, Aircraft Serial Number, Battery Serial Number, Battery Lifetime (%), App_Tip, App_Warning, CurrentFlightStartingIndex, CurrentFlightLastVisitedWaypoint, PreviousFlightEndingWaypointIndex
36.7935451, -118.9149944, 0.000, 11:20:47.030, 14, 0.00, 0.05, 92, 1.200, 1.200, -133.300, 3, 100, 100, 20, 25148, -3854, 5121, 5567, 7, 11, 1523816447.031, 97, 0, 1024, 1024, 1024, 1024, 0, 6, 4219, 4205, 4171, 4203, 4220, 4180, 0, 1, 3035, -89.900, 0.000, -133.900, 0.000, 0.000, -0.100, 0.0, MapPilot_2.7.4_02272018, Dendroctonus I, 1.3.1.00, 041DDC1887, 1058163200563, 99, Photo, Starting Mission from Lat/Long: 36.79356/-118.91497 Camera: Zenmuse X3 - Overlap: 90/90 - Active Connection: Yes, 13, 13, 13
36.7935452, -118.9149944, 0.000, 11:20:47.096, 14, 0.00, 0.05, 92, 1.000, 0.800, -133.300, 3, 100, 100, 20, 25148, -3854, 5121, 5567, 7, 11, 1523816447.096, 61, 0, 1024, 1024, 1024, 1024, 0, 6, 4219, 4205, 4171, 4203, 4220, 4180, 0, 1, 3101, -89.900, 0.000, -133.900, 0.000, 0.000, -0.300, 0.0, , , , , , 99, , , 13, 13, 13
36.7935453, -118.9149944, 0.000, 11:20:47.196, 14, 0.10, 0.06, 92, 0.200, 0.300, -133.200, 3, 100, 100, 20, 25148, -3854, 5121, 5567, 7, 11, 1523816447.197, 48, 0, 1024, 1024, 1024, 1024, 0, 6, 4211, 4171, 4207, 4196, 4188, 4208, 0, 1, 3201, -90.000, 0.000, -133.900, 0.100, 0.000, -0.400, 0.0, , , , , , 99, , , 13, 13, 13
36.7935454, -118.9149944, 0.100, 11:20:47.296, 14, 0.10, 0.06, 92, 0.000, 0.000, -133.300, 3, 100, 100, 20, 25148, -3854, 5121, 5567, 7, 11, 1523816447.297, 36, 0, 1024, 1024, 1024, 1024, 0, 6, 4211, 4171, 4207, 4196, 4188, 4208, 0, 1, 3301, -90.000, 0.000, -134.000, 0.100, 0.000, -0.400, 0.0, , , , , , 99, , , 13, 13, 13
36.7935455, -118.9149944, 0.100, 11:20:47.396, 14, 0.00, 0.07, 92, -0.300, -0.100, -133.200, 3, 100, 100, 20, 25148, -3854, 5121, 5567, 7, 11, 1523816447.397, 41, 0, 1024, 1024, 1024, 1024, 0, 6, 4211, 4171, 4207, 4196, 4188, 4208, 0, 1, 3401, -90.000, 0.000, -134.000, 0.000, 0.000, -0.400, 0.0, , , , , , 99, , , 13, 13, 13
36.7935456, -118.9149944, 0.200, 11:20:47.496, 14, 0.00, 0.08, 92, -0.400, -0.200, -133.200, 3, 100, 100, 20, 25148, -3854, 5121, 5567, 7, 11, 1523816447.497, 41, 0, 1024, 1024, 1024, 1024, 0, 6, 4211, 4171, 4207, 4196, 4188, 4208, 0, 1, 3501, -89.900, 0.000, -133.900, 0.000, 0.000, -0.400, 0.0, , , , , , 99, , , 13, 13, 13
36.7935457, -118.9149944, 0.200, 11:20:47.596, 14, 0.00, 0.09, 92, -0.600, -0.400, -133.200, 3, 100, 100, 20, 25148, -3854, 5121, 5567, 7, 11, 1523816447.596, 32, 0, 1024, 1024, 1024, 1024, 0, 6, 4211, 4171, 4207, 4196, 4188, 4208, 0, 1, 3600, -89.900, 0.000, -133.900, 0.000, 0.000, -0.400, 0.0, , , , , , 99, , , 13, 13, 13
36.7935457, -118.9149944, 0.300, 11:20:47.696, 14, 0.00, 0.09, 92, -0.400, -0.400, -133.300, 3, 100, 100, 20, 25148, -3854, 5121, 5567, 7, 11, 1523816447.696, 38, 0, 1024, 1024, 1024, 1024, 0, 6, 4211, 4171, 4207, 4196, 4188, 4208, 0, 1, 3701, -90.000, 0.000, -133.900, 0.000, 0.000, -0.400, 0.0, , , , , , 99, , , 13, 13, 13
36.7935457, -118.9149944, 0.300, 11:20:47.796, 14, 0.00, 0.10, 92, 0.000, -0.100, -133.500, 3, 100, 100, 20, 25148, -3854, 5121, 5567, 7, 11, 1523816447.797, 38, 0, 1024, 1024, 1024, 1024, 0, 6, 4211, 4171, 4207, 4196, 4188, 4208, 0, 1, 3801, -89.900, 0.000, -133.900, 0.000, 0.000, -0.400, 0.0, , , , , , 99, , , 13, 13, 13
36.7935457, -118.9149945, 0.400, 11:20:47.896, 13, 0.00, 0.10, 92, 0.200, 0.200, -133.800, 3, 100, 100, 20, 24559, -16529, 5121, 5567, 7, 11, 1523816447.897, 27, 0, 1024, 1024, 1024, 1024, 0, 6, 4211, 4171, 4207, 4196, 4188, 4208, 0, 1, 3901, -89.900, 0.000, -133.900, 0.000, 0.000, -0.400, 0.0, , , , , , 99, , , 13, 13, 13
36.7935457, -118.9149946, 0.500, 11:20:47.996, 13, 0.00, 0.11, 92, 0.200, 0.300, -134.100, 3, 100, 100, 20, 24559, -16529, 5121, 5567, 7, 11, 1523816447.997, 16, 0, 1024, 1024, 1024, 1024, 0, 6, 4211, 4171, 4207, 4196, 4188, 4208, 0, 1, 4001, -89.900, 0.000, -133.900, 0.000, 0.000, -0.400, 0.0, , , , , , 99, , , 13, 13, 13
36.7935457, -118.9149946, 0.500, 11:20:48.096, 13, 0.00, 0.11, 92, 0.100, 0.300, -134.200, 3, 100, 100, 20, 24559, -16529, 5121, 5567, 7, 11, 1523816448.096, 19, 0, 1024, 1024, 1024, 1024, 0, 6, 4211, 4171, 4207, 4196, 4188, 4208, 0, 1, 4101, -89.900, 0.000, -133.900, 0.000, 0.000, -0.500, 0.0, , , , , , 99, , , 13, 13, 13
36.7935457, -118.9149946, 0.600, 11:20:48.196, 13, 0.00, 0.11, 92, 0.000, 0.300, -134.100, 3, 100, 100, 20, 24559, -16529, 5121, 5567, 7, 11, 1523816448.196, 8, 0, 1024, 1024, 1024, 1024, 0, 6, 4211, 4171, 4207, 4196, 4188, 4208, 0, 1, 4201, -89.900, 0.000, -133.900, 0.000, 0.000, -0.400, 0.0, , , , , , 99, , , 13, 13, 13
36.7935458, -118.9149946, 0.600, 11:20:48.296, 13, 0.00, 0.11, 92, -0.200, 0.300, -133.900, 3, 100, 100, 20, 24559, -16529, 5121, 5567, 7, 11, 1523816448.297, 22, 0, 1024, 1024, 1024, 1024, 0, 6, 4211, 4171, 4207, 4196, 4188, 4208, 0, 1, 4301, -89.900, 0.000, -133.900, 0.000, 0.000, -0.400, 0.0, , , , , , 99, , , 13, 13, 13
36.7935457, -118.9149947, 0.700, 11:20:48.400, 13, 0.00, 0.11, 92, -0.300, 0.400, -133.600, 3, 100, 100, 20, 24559, -16529, 5121, 5567, 7, 11, 1523816448.401, 3, 0, 1024, 1024, 1024, 1024, 0, 6, 4211, 4171, 4207, 4196, 4188, 4208, 0, 1, 4405, -89.900, 0.000, -133.900, 0.000, 0.000, -0.400, 0.0, , , , , , 99, , , 13, 13, 13
36.7935457, -118.9149947, 0.700, 11:20:48.496, 13, 0.00, 0.11, 92, -0.300, 0.400, -133.600, 3, 100, 100, 20, 24559, -16529, 5121, 5567, 7, 11, 1523816448.497, 99, 0, 1024, 1024, 1024, 1024, 0, 6, 3932, 3931, 4007, 3985, 3994, 4005, 0, 1, 4501, -89.900, 0.000, -133.900, 0.000, 0.000, -0.400, 0.0, , , , , , 99, , , 13, 13, 13
36.7935458, -118.9149946, 0.800, 11:20:48.604, 13, 0.00, 0.11, 92, -0.300, 0.400, -133.000, 3, 100, 100, 20, 24559, -16529, 5121, 5567, 7, 11, 1523816448.605, 8, 0, 1024, 1024, 1024, 1024, 0, 6, 3932, 3931, 4007, 3985, 3994, 4005, 0, 1, 4609, -89.900, 0.000, -133.900, 0.000, 0.000, -0.400, 0.0, , , , , , 99, , , 13, 13, 13
36.7935457, -118.9149947, 0.800, 11:20:48.698, 13, 0.00, 0.11, 92, -0.200, 0.300, -132.700, 3, 100, 100, 20, 24559, -16529, 5121, 5567, 7, 11, 1523816448.699, 4, 0, 1024, 1024, 1024, 1024, 0, 6, 3932, 3931, 4007, 3985, 3994, 4005, 0, 1, 4703, -89.900, 0.000, -133.900, 0.000, 0.000, -0.400, 0.0, , , , , , 99, , , 13, 13, 13
36.7935457, -118.9149947, 0.800, 11:20:48.795, 13, 0.00, 0.11, 92, -0.200, 0.300, -132.700, 3, 100, 100, 20, 24559, -16529, 5121, 5567, 7, 11, 1523816448.796, 102, 0, 1024, 1024, 1024, 1024, 0, 6, 3932, 3931, 4007, 3985, 3994, 4005, 0, 1, 4800, -89.900, 0.000, -133.900, 0.000, 0.000, -0.400, 0.0, , , , , , 99, , , 13, 13, 13
36.7935457, -118.9149947, 0.900, 11:20:48.896, 13, 0.00, 0.11, 92, -0.200, 0.300, -132.600, 3, 100, 100, 20, 24559, -16529, 5121, 5567, 7, 6, 1523816448.896, 81, 0, 1024, 1024, 1024, 1024, 0, 6, 3932, 3931, 4007, 3985, 3994, 4005, 0, 1, 4901, -89.900, 0.000, -133.900, 0.000, 0.000, -0.400, 0.0, , , , , , 99, , , 13, 13, 13
36.7935457, -118.9149947, 0.900, 11:20:48.996, 14, 0.00, 0.11, 92, -0.300, 0.400, -132.700, 3, 100, 99, 20, 24559, -16529, 5121, 5567, 7, 14, 1523816448.997, 80, 0, 1024, 1024, 1024, 1024, 0, 6, 3932, 3931, 4007, 3985, 3994, 4005, 0, 1, 5001, -89.900, 0.000, -133.900, 0.000, 0.000, -0.400, 0.0, , , , , , 99, , , 13, 13, 13
36.7935456, -118.9149947, 1.000, 11:20:49.096, 14, 0.00, 0.10, 92, 0.200, 1.000, -132.800, 3, 100, 99, 20, 24559, -16529, 5121, 5567, 7, 14, 1523816449.096, 67, 0, 1024, 1024, 1024, 1024, 0, 6, 3932, 3931, 4007, 3985, 3994, 4005, 0, 1, 5101, -89.900, 0.000, -133.900, 0.000, 0.000, -0.200, 0.0, , , , , , 99, , , 13, 13, 13
36.7935456, -118.9149947, 1.000, 11:20:49.196, 14, 0.00, 0.10, 92, 0.300, 0.900, -132.900, 3, 100, 99, 20, 24559, -16529, 5121, 5567, 7, 14, 1523816449.197, 63, 0, 1024, 1024, 1024, 1024, 0, 6, 3932, 3931, 4007, 3985, 3994, 4005, 0, 1, 5201, -89.900, 0.000, -133.900, 0.000, 0.000, -0.200, 0.0, , , , , , 99, , , 13, 13, 13
36.7935456, -118.9149947, 1.100, 11:20:49.296, 14, 0.00, 0.10, 92, 0.400, 0.700, -132.900, 3, 100, 99, 20, 24559, -16529, 5121, 5567, 7, 14, 1523816449.297, 56, 0, 1024, 1024, 1024, 1024, 0, 6, 3932, 3931, 4007, 3985, 3994, 4005, 0, 1, 5301, -89.900, 0.000, -133.900, 0.000, 0.000, -0.300, 0.0, , , , , , 99, , , 13, 13, 13
36.7935455, -118.9149947, 1.100, 11:20:49.396, 14, 0.00, 0.10, 92, 0.500, 0.600, -132.900, 3, 100, 99, 20, 23521, -17027, 5121, 5567, 7, 14, 1523816449.397, 72, 0, 1024, 1024, 1024, 1024, 0, 6, 3907, 3902, 3916, 3910, 3939, 3947, 0, 1, 5401, -89.900, 0.000, -133.900, 0.000, 0.000, -0.500, 0.0, , , , , , 99, , , 13, 13, 13
36.7935455, -118.9149948, 1.200, 11:20:49.496, 14, 0.00, 0.10, 92, 0.500, 0.800, -132.900, 3, 100, 99, 20, 23521, -17027, 5121, 5567, 7, 14, 1523816449.496, 37, 0, 1024, 1024, 1024, 1024, 0, 6, 3907, 3902, 3916, 3910, 3939, 3947, 0, 1, 5501, -89.900, 0.000, -133.800, 0.000, 0.000, -0.700, 0.0, , , , , , 99, , , 13, 13, 13
36.7935455, -118.9149948, 1.300, 11:20:49.596, 14, 0.00, 0.10, 92, 0.600, 0.800, -133.000, 3, 100, 99, 20, 23521, -17027, 5121, 5567, 7, 14, 1523816449.597, 38, 0, 1024, 1024, 1024, 1024, 0, 6, 3907, 3902, 3916, 3910, 3939, 3947, 0, 1, 5601, -89.900, 0.000, -133.800, 0.000, 0.000, -0.800, 0.0, , , , , , 99, , , 13, 13, 13
36.7935455, -118.9149948, 1.400, 11:20:49.696, 14, 0.00, 0.10, 92, 0.500, 0.800, -133.000, 3, 100, 99, 20, 23521, -17027, 5121, 5567, 7, 14, 1523816449.696, 39, 0, 1024, 1024, 1024, 1024, 0, 6, 3907, 3902, 3916, 3910, 3939, 3947, 0, 1, 5700, -89.900, 0.000, -133.800, 0.000, 0.000, -1.000, 0.0, , , , , , 99, , , 13, 13, 13
36.7935455, -118.9149949, 1.500, 11:20:49.796, 14, 0.00, 0.11, 92, 0.300, 0.800, -133.100, 3, 100, 99, 20, 23521, -17027, 5121, 5567, 7, 14, 1523816449.797, 35, 0, 1024, 1024, 1024, 1024, 0, 6, 3907, 3902, 3916, 3910, 3939, 3947, 0, 1, 5801, -89.900, 0.000, -133.800, 0.000, 0.000, -1.200, 0.0, , , , , , 99, , , 13, 13, 13
36.7935455, -118.9149949, 1.700, 11:20:49.896, 14, 0.00, 0.11, 92, 0.000, 0.900, -133.200, 3, 100, 99, 20, 23521, -17027, 5121, 5567, 7, 14, 1523816449.897, 34, 0, 1024, 1024, 1024, 1024, 0, 6, 3907, 3902, 3916, 3910, 3939, 3947, 0, 1, 5901, -89.900, 0.000, -133.800, 0.000, 0.000, -1.400, 0.0, , , , , , 99, , , 13, 13, 13
36.7935455, -118.9149949, 1.800, 11:20:49.996, 14, 0.00, 0.11, 92, -0.200, 1.000, -133.200, 3, 100, 99, 20, 23521, -17027, 5121, 5567, 7, 14, 1523816449.997, 42, 0, 1024, 1024, 1024, 1024, 0, 6, 3907, 3902, 3916, 3910, 3939, 3947, 0, 1, 6001, -89.900, 0.000, -133.800, 0.000, 0.000, -1.600, 0.0, , , , , , 99, , , 13, 13, 13
36.7935455, -118.9149949, 1.800, 11:20:50.096, 14, 0.00, 0.11, 92, -0.200, 1.000, -133.200, 3, 100, 99, 20, 23521, -17027, 5121, 5567, 7, 14, 1523816450.096, 141, 0, 1024, 1024, 1024, 1024, 0, 6, 3907, 3902, 3916, 3910, 3939, 3947, 0, 1, 6101, -89.900, 0.000, -133.800, 0.000, 0.000, -1.600, 0.0, , , , , , 99, , , 13, 13, 13
36.7935456, -118.9149949, 2.200, 11:20:50.196, 14, 0.00, 0.12, 92, 0.000, 0.600, -133.300, 3, 100, 99, 20, 23521, -17027, 5121, 5567, 7, 14, 1523816450.196, 17, 0, 1024, 1024, 1024, 1024, 0, 6, 3907, 3902, 3916, 3910, 3939, 3947, 0, 1, 6201, -90.000, 0.000, -133.800, 0.000, 0.000, -2.100, 0.0, , , , , , 99, , , 13, 13, 13
36.7935456, -118.9149949, 2.200, 11:20:50.296, 14, 0.00, 0.12, 92, 0.000, 0.600, -133.300, 3, 100, 99, 20, 23521, -17027, 5121, 5567, 7, 14, 1523816450.297, 117, 0, 1024, 1024, 1024, 1024, 0, 6, 3907, 3902, 3916, 3910, 3939, 3947, 0, 1, 6301, -90.000, 0.000, -133.800, 0.000, 0.000, -2.100, 0.0, , , , , , 99, , , 13, 13, 13
36.7935457, -118.9149950, 2.700, 11:20:50.401, 14, 0.00, 0.13, 92, -0.800, 0.100, -133.200, 3, 100, 99, 20, 23521, -17027, 5121, 5567, 7, 14, 1523816450.401, 5, 0, 1024, 1024, 1024, 1024, 0, 6, 3907, 3902, 3916, 3910, 3939, 3947, 0, 1, 6406, -90.000, 0.000, -133.700, 0.000, 0.000, -2.500, 0.0, , , , , , 99, , , 13, 13, 13
36.7935457, -118.9149951, 3.000, 11:20:50.496, 14, 0.00, 0.13, 92, -0.800, 0.400, -132.900, 3, 100, 100, 20, 23290, -18316, 5121, 5567, 7, 14, 1523816450.496, 26, 0, 1024, 1024, 1024, 1024, 0, 6, 3839, 3837, 3860, 3844, 3908, 3837, 0, 1, 6501, -89.900, 0.000, -133.700, 0.000, 0.000, -2.800, 0.0, , , , , , 99, , , 13, 13, 13
36.7935457, -118.9149952, 3.300, 11:20:50.596, 14, 0.00, 0.14, 92, -0.700, 1.000, -132.600, 3, 100, 100, 20, 23290, -18316, 5121, 5567, 7, 14, 1523816450.597, 18, 0, 1024, 1024, 1024, 1024, 0, 6, 3839, 3837, 3860, 3844, 3908, 3837, 0, 1, 6601, -89.900, 0.000, -133.700, 0.000, 0.000, -3.000, 0.0, , , , , , 99, , , 13, 13, 13
36.7935457, -118.9149952, 3.300, 11:20:50.696, 14, 0.00, 0.14, 92, -0.700, 1.000, -132.600, 3, 100, 100, 20, 23290, -18316, 5121, 5567, 7, 14, 1523816450.696, 118, 0, 1024, 1024, 1024, 1024, 0, 6, 3839, 3837, 3860, 3844, 3908, 3837, 0, 1, 6701, -89.900, 0.000, -133.700, 0.000, 0.000, -3.000, 0.0, , , , , , 99, , , 13, 13, 13
36.7935456, -118.9149954, 4.000, 11:20:50.796, 15, 0.00, 0.15, 92, -0.100, 1.200, -131.800, 3, 100, 100, 20, 23290, -18316, 5121, 5567, 7, 14, 1523816450.797, 9, 0, 1024, 1024, 1024, 1024, 0, 6, 3839, 3837, 3860, 3844, 3908, 3837, 0, 1, 6801, -89.900, 0.000, -133.700, 0.000, 0.000, -3.100, 0.0, , , , , , 99, , , 13, 13, 13
36.7935458, -118.9149952, 4.300, 11:20:50.896, 14, 0.00, 0.15, 92, -0.200, 0.800, -131.600, 3, 100, 100, 20, 23290, -18316, 5121, 5567, 7, 14, 1523816450.896, 11, 0, 1024, 1024, 1024, 1024, 0, 6, 3839, 3837, 3860, 3844, 3908, 3837, 0, 1, 6901, -90.000, 0.000, -133.700, 0.000, 0.000, -3.100, 0.0, , , , , , 99, , , 13, 13, 13
36.7935458, -118.9149952, 4.300, 11:20:50.996, 14, 0.00, 0.15, 92, -0.200, 0.800, -131.600, 3, 100, 100, 20, 23290, -18316, 5121, 5567, 7, 14, 1523816450.996, 111, 0, 1024, 1024, 1024, 1024, 0, 6, 3839, 3837, 3860, 3844, 3908, 3837, 0, 1, 7001, -90.000, 0.000, -133.700, 0.000, 0.000, -3.100, 0.0, , , , , , 99, , , 13, 13, 13
36.7935462, -118.9149951, 5.000, 11:20:51.096, 14, 0.00, 0.18, 92, -0.800, -0.400, -131.800, 3, 100, 100, 20, 23290, -18316, 5121, 5567, 7, 14, 1523816451.096, 36, 0, 1024, 1024, 1024, 1024, 0, 6, 3839, 3837, 3860, 3844, 3908, 3837, 0, 1, 7101, -90.000, 0.000, -133.700, 0.000, 0.000, -3.200, 0.0, , , , , , 99, , , 13, 13, 13
36.7935462, -118.9149951, 5.000, 11:20:51.196, 14, 0.00, 0.18, 92, -0.800, -0.400, -131.800, 3, 100, 100, 20, 23290, -18316, 5121, 5567, 7, 14, 1523816451.197, 137, 0, 1024, 1024, 1024, 1024, 0, 6, 3839, 3837, 3860, 3844, 3908, 3837, 0, 1, 7201, -90.000, 0.000, -133.700, 0.000, 0.000, -3.200, 0.0, , , , , , 99, , , 13, 13, 13
36.7935463, -118.9149952, 5.600, 11:20:51.296, 14, 0.00, 0.19, 92, -1.100, -0.100, -132.200, 3, 100, 100, 20, 23290, -18316, 5121, 5567, 7, 14, 1523816451.296, 75, 0, 1024, 1024, 1024, 1024, 0, 6, 3839, 3837, 3860, 3844, 3908, 3837, 0, 1, 7300, -89.900, 0.000, -133.700, 0.000, 0.000, -3.200, 0.0, , , , , , 99, , , 13, 13, 13
36.7935463, -118.9149952, 5.600, 11:20:51.396, 14, 0.00, 0.19, 92, -1.100, -0.100, -132.200, 3, 100, 100, 20, 23290, -18316, 5121, 5567, 7, 14, 1523816451.397, 175, 0, 1024, 1024, 1024, 1024, 0, 6, 3839, 3837, 3860, 3844, 3908, 3837, 0, 1, 7401, -89.900, 0.000, -133.700, 0.000, 0.000, -3.200, 0.0, , , , , , 99, , , 13, 13, 13
36.7935463, -118.9149953, 6.300, 11:20:51.496, 13, 0.00, 0.20, 92, -0.900, 0.300, -132.700, 3, 100, 100, 20, 22743, -24912, 5121, 5567, 7, 14, 1523816451.496, 65, 0, 1024, 1024, 1024, 1024, 0, 6, 3788, 3796, 3787, 3805, 3798, 3826, 0, 1, 7501, -89.900, 0.000, -133.700, 0.000, 0.000, -3.200, 0.0, , , , , , 99, , , 13, 13, 13
36.7935463, -118.9149954, 6.700, 11:20:51.596, 13, 0.00, 0.20, 92, -0.600, 0.700, -133.000, 3, 100, 100, 20, 22743, -24912, 5121, 5567, 7, 14, 1523816451.596, 63, 0, 1024, 1024, 1024, 1024, 0, 6, 3788, 3796, 3787, 3805, 3798, 3826, 0, 1, 7601, -89.900, 0.000, -133.700, 0.000, 0.000, -3.200, 0.0, , , , , , 99, , , 13, 13, 13
36.7935462, -118.9149955, 7.000, 11:20:51.696, 13, 0.00, 0.20, 92, -0.500, 1.000, -133.100, 3, 100, 100, 20, 22743, -24912, 5121, 5567, 7, 14, 1523816451.697, 64, 0, 1024, 1024, 1024, 1024, 0, 6, 3788, 3796, 3787, 3805, 3798, 3826, 0, 1, 7701, -89.900, 0.000, -133.700, 0.000, 0.000, -3.100, 0.0, , , , , , 99, , , 13, 13, 13
36.7935461, -118.9149956, 7.300, 11:20:51.796, 13, 0.00, 0.20, 92, -0.400, 0.900, -133.200, 3, 100, 100, 20, 22743, -24912, 5121, 5567, 7, 14, 1523816451.797, 69, 0, 1024, 1024, 1024, 1024, 0, 6, 3788, 3796, 3787, 3805, 3798, 3826, 0, 1, 7801, -89.900, 0.000, -133.700, 0.000, 0.000, -3.100, 0.0, , , , , , 99, , , 13, 13, 13
36.7935461, -118.9149955, 7.600, 11:20:51.896, 14, 0.00, 0.19, 92, -0.300, 0.900, -133.200, 3, 100, 100, 20, 22743, -24912, 5121, 5567, 7, 14, 1523816451.897, 71, 0, 1024, 1024, 1024, 1024, 0, 6, 3788, 3796, 3787, 3805, 3798, 3826, 0, 1, 7901, -89.900, 0.000, -133.700, 0.000, 0.000, -3.100, 0.0, , , , , , 99, , , 13, 13, 13
36.7935461, -118.9149955, 8.000, 11:20:51.996, 14, 0.00, 0.19, 92, -0.300, 0.800, -133.200, 3, 100, 100, 20, 22743, -24912, 5121, 5567, 7, 14, 1523816451.997, 45, 0, 1024, 1024, 1024, 1024, 0, 6, 3788, 3796, 3787, 3805, 3798, 3826, 0, 1, 8001, -89.900, 0.000, -133.700, 0.000, 0.000, -3.100, 0.0, , , , , , 99, , , 13, 13, 13
36.7935461, -118.9149954, 8.300, 11:20:52.096, 14, 0.00, 0.18, 92, -0.200, 0.700, -133.000, 3, 100, 100, 20, 22743, -24912, 5121, 5567, 7, 14, 1523816452.097, 66, 0, 1024, 1024, 1024, 1024, 0, 6, 3788, 3796, 3787, 3805, 3798, 3826, 0, 1, 8101, -89.900, 0.000, -133.700, 0.000, 0.000, -3.100, 0.0, , , , , , 99, , , 13, 13, 13
36.7935460, -118.9149954, 8.600, 11:20:52.196, 14, 0.00, 0.18, 92, -0.200, 0.500, -132.800, 3, 100, 100, 20, 22743, -24912, 5121, 5567, 7, 14, 1523816452.196, 39, 0, 1024, 1024, 1024, 1024, 0, 6, 3788, 3796, 3787, 3805, 3798, 3826, 0, 1, 8201, -89.900, 0.000, -133.700, 0.000, 0.000, -3.000, 0.0, , , , , , 99, , , 13, 13, 13
36.7935461, -118.9149953, 8.900, 11:20:52.296, 15, 0.00, 0.17, 92, -0.400, 0.400, -132.600, 3, 100, 100, 20, 22743, -24912, 5121, 5567, 7, 14, 1523816452.296, 37, 0, 1024, 1024, 1024, 1024, 0, 6, 3788, 3796, 3787, 3805, 3798, 3826, 0, 1, 8301, -89.900, 0.000, -133.700, 0.000, 0.000, -3.100, 0.0, , , , , , 99, , , 13, 13, 13
36.7935461, -118.9149952, 9.200, 11:20:52.396, 15, 0.00, 0.17, 92, -0.600, 0.500, -132.500, 3, 100, 100, 20, 23073, -19699, 5121, 5567, 7, 14, 1523816452.396, 39, 0, 1024, 1024, 1024, 1024, 0, 6, 3848, 3843, 3854, 3852, 3865, 3868, 0, 1, 8401, -89.900, 0.000, -133.700, 0.000, 0.000, -3.100, 0.0, , , , , , 99, , , 13, 13, 13
36.7935460, -118.9149951, 9.600, 11:20:52.496, 14, 0.00, 0.16, 92, -0.700, 0.400, -132.300, 3, 100, 100, 20, 23073, -19699, 5121, 5567, 7, 14, 1523816452.496, 36, 0, 1024, 1024, 1024, 1024, 0, 6, 3848, 3843, 3854, 3852, 3865, 3868, 0, 1, 8501, -90.000, 0.000, -133.700, 0.000, 0.000, -3.100, 0.0, , , , , , 99, , , 13, 13, 13
36.7935460, -118.9149950, 9.900, 11:20:52.596, 14, 0.00, 0.15, 92, -0.800, 0.300, -132.400, 3, 100, 100, 20, 23073, -19699, 5121, 5567, 7, 14, 1523816452.597, 20, 0, 1024, 1024, 1024, 1024, 0, 6, 3848, 3843, 3854, 3852, 3865, 3868, 0, 1, 8601, -90.000, 0.000, -133.700, 0.000, 0.000, -3.000, 0.0, , , , , , 99, , , 13, 13, 13
36.7935460, -118.9149948, 10.200, 11:20:52.696, 14, 0.00, 0.14, 92, -0.900, 0.200, -132.500, 3, 100, 100, 20, 23073, -19699, 5121, 5567, 7, 14, 1523816452.696, 21, 0, 1024, 1024, 1024, 1024, 0, 6, 3848, 3843, 3854, 3852, 3865, 3868, 0, 1, 8701, -90.000, 0.000, -133.700, 0.000, 0.000, -2.900, 0.0, , , , , , 99, , , 13, 13, 13
36.7935460, -118.9149946, 10.500, 11:20:52.796, 14, 0.00, 0.14, 92, -0.600, 0.000, -132.600, 3, 100, 100, 20, 23073, -19699, 5121, 5567, 7, 14, 1523816452.796, 28, 0, 1024, 1024, 1024, 1024, 0, 6, 3848, 3843, 3854, 3852, 3865, 3868, 0, 1, 8801, -90.000, 0.000, -133.700, 0.000, 0.000, -2.900, 0.0, , , , , , 99, , , 13, 13, 13
36.7935459, -118.9149944, 10.800, 11:20:52.896, 15, 0.00, 0.12, 92, -0.300, -0.300, -132.700, 3, 100, 100, 20, 23073, -19699, 5121, 5567, 7, 14, 1523816452.896, 29, 0, 1024, 1024, 1024, 1024, 0, 6, 3848, 3843, 3854, 3852, 3865, 3868, 0, 1, 8901, -90.000, 0.000, -133.700, 0.000, 0.000, -2.900, 0.0, , , , , , 99, , , 13, 13, 13
36.7935458, -118.9149942, 11.100, 11:20:52.998, 15, 0.00, 0.11, 92, 0.100, -0.400, -132.700, 3, 100, 100, 20, 23073, -19699, 5121, 5567, 7, 14, 1523816452.999, 5, 0, 1024, 1024, 1024, 1024, 0, 6, 3848, 3843, 3854, 3852, 3865, 3868, 0, 1, 9004, -90.000, 0.000, -133.700, 0.000, 0.000, -3.000, 0.0, , , , , , 99, , , 13, 13, 13
36.7935459, -118.9149941, 11.400, 11:20:53.096, 14, 0.00, 0.11, 92, 0.200, -0.400, -132.700, 3, 100, 100, 20, 23073, -19699, 5121, 5567, 7, 14, 1523816453.096, 23, 0, 1024, 1024, 1024, 1024, 0, 6, 3848, 3843, 3854, 3852, 3865, 3868, 0, 1, 9101, -90.000, 0.000, -133.700, 0.000, 0.000, -3.000, 0.0, , , , , , 99, , , 13, 13, 13
36.7935459, -118.9149941, 11.400, 11:20:53.196, 14, 0.00, 0.11, 92, 0.200, -0.400, -132.700, 3, 100, 100, 20, 23073, -19699, 5121, 5567, 7, 14, 1523816453.196, 123, 0, 1024, 1024, 1024, 1024, 0, 6, 3848, 3843, 3854, 3852, 3865, 3868, 0, 1, 9201, -90.000, 0.000, -133.700, 0.000, 0.000, -3.000, 0.0, , , , , , 99, , , 13, 13, 13
36.7935459, -118.9149940, 11.700, 11:20:53.296, 14, 0.00, 0.11, 92, 0.300, -0.400, -132.600, 3, 100, 100, 20, 23073, -19699, 5121, 5567, 7, 14, 1523816453.296, 97, 0, 1024, 1024, 1024, 1024, 0, 6, 3848, 3843, 3854, 3852, 3865, 3868, 0, 1, 9301, -90.000, 0.000, -133.700, 0.000, 0.000, -3.000, 0.0, , , , , , 99, , , 13, 13, 13
36.7935459, -118.9149939, 12.000, 11:20:53.396, 15, 0.00, 0.11, 92, 0.300, -0.500, -132.500, 3, 100, 100, 20, 23073, -19699, 5121, 5567, 7, 14, 1523816453.396, 71, 0, 1024, 1024, 1024, 1024, 0, 6, 3848, 3843, 3854, 3852, 3865, 3868, 0, 1, 9401, -90.000, 0.000, -133.700, 0.000, 0.000, -2.800, 0.0, , , , , , 99, , , 13, 13, 13
36.7935459, -118.9149938, 12.300, 11:20:53.496, 15, 0.00, 0.11, 92, 0.100, -0.700, -132.400, 3, 100, 100, 20, 23202, -18211, 5121, 5567, 7, 14, 1523816453.496, 86, 0, 1024, 1024, 1024, 1024, 0, 6, 3848, 3843, 3854, 3852, 3865, 3868, 0, 1, 9501, -90.000, 0.000, -133.700, 0.000, 0.000, -2.800, 0.0, , , , , , 99, , , 13, 13, 13
36.7935459, -118.9149937, 12.600, 11:20:53.596, 14, 0.00, 0.12, 92, 0.000, -0.600, -132.500, 3, 100, 100, 20, 23202, -18211, 5121, 5567, 7, 14, 1523816453.596, 86, 0, 1024, 1024, 1024, 1024, 0, 6, 3848, 3843, 3854, 3852, 3865, 3868, 0, 1, 9601, -90.000, 0.000, -133.700, 0.000, 0.000, -2.800, 0.0, , , , , , 99, , , 13, 13, 13
36.7935459, -118.9149936, 13.200, 11:20:53.696, 15, 0.00, 0.12, 92, -0.400, -0.600, -132.600, 3, 100, 100, 20, 23202, -18211, 5121, 5567, 7, 14, 1523816453.696, 77, 0, 1024, 1024, 1024, 1024, 0, 6, 3848, 3843, 3854, 3852, 3865, 3868, 0, 1, 9701, -90.000, 0.000, -133.700, 0.000, 0.000, -2.900, 0.0, , , , , , 99, , , 13, 13, 13
36.7935459, -118.9149936, 13.200, 11:20:53.796, 15, 0.00, 0.12, 92, -0.400, -0.600, -132.600, 3, 100, 100, 20, 23202, -18211, 5121, 5567, 7, 14, 1523816453.796, 177, 0, 1024, 1024, 1024, 1024, 0, 6, 3848, 3843, 3854, 3852, 3865, 3868, 0, 1, 9801, -89.900, 0.000, -133.700, 0.000, 0.000, -2.900, 0.0, , , , , , 99, , , 13, 13, 13
36.7935459, -118.9149935, 13.800, 11:20:53.896, 15, 0.00, 0.12, 92, -0.300, -0.600, -132.600, 3, 100, 100, 20, 23202, -18211, 5121, 5567, 7, 14, 1523816453.896, 78, 0, 1024, 1024, 1024, 1024, 0, 6, 3848, 3843, 3854, 3852, 3865, 3868, 0, 1, 9901, -90.000, 0.000, -133.700, 0.000, 0.000, -2.900, 0.0, , , , , , 99, , , 13, 13, 13
36.7935459, -118.9149935, 13.800, 11:20:53.996, 15, 0.00, 0.12, 92, -0.300, -0.600, -132.600, 3, 100, 100, 20, 23202, -18211, 5121, 5567, 7, 14, 1523816453.996, 178, 0, 1024, 1024, 1024, 1024, 0, 6, 3848, 3843, 3854, 3852, 3865, 3868, 0, 1, 10001, -90.000, 0.000, -133.700, 0.000, 0.000, -2.900, 0.0, , , , , , 99, , , 13, 13, 13
36.7935459, -118.9149935, 13.800, 11:20:54.096, 15, 0.00, 0.12, 92, -0.300, -0.600, -132.600, 3, 100, 100, 20, 23202, -18211, 5121, 5567, 7, 14, 1523816454.096, 278, 0, 1024, 1024, 1024, 1024, 0, 6, 3848, 3843, 3854, 3852, 3865, 3868, 0, 1, 10101, -90.000, 0.000, -133.700, 0.000, 0.000, -2.900, 0.0, , , , , , 99, , , 13, 13, 13
36.7935460, -118.9149936, 14.400, 11:20:54.218, 16, 0.00, 0.13, 92, -0.800, -0.100, -132.500, 3, 100, 100, 20, 23202, -18211, 5121, 5567, 7, 14, 1523816454.219, 10, 0, 1024, 1024, 1024, 1024, 0, 6, 3848, 3843, 3854, 3852, 3865, 3868, 0, 1, 10224, -89.900, 0.000, -133.700, 0.000, 0.000, -2.900, 0.0, , , , , , 99, , , 13, 13, 13
36.7935460, -118.9149937, 14.700, 11:20:54.296, 16, 0.00, 0.13, 92, -0.900, 0.400, -132.500, 3, 100, 100, 20, 23202, -18211, 5121, 5567, 7, 14, 1523816454.297, 68, 0, 1024, 1024, 1024, 1024, 0, 6, 3848, 3843, 3854, 3852, 3865, 3868, 0, 1, 10301, -89.900, 0.000, -133.700, 0.000, 0.000, -2.900, 0.0, , , , , , 99, , , 13, 13, 13
36.7935461, -118.9149937, 15.000, 11:20:54.396, 15, 0.00, 0.13, 92, -0.900, 0.600, -132.400, 3, 100, 100, 20, 23202, -18211, 5121, 5567, 7, 14, 1523816454.396, 52, 0, 1024, 1024, 1024, 1024, 0, 6, 3857, 3854, 3863, 3868, 3881, 3871, 0, 1, 10401, -89.900, 0.000, -133.700, 0.000, 0.000, -2.900, 0.0, , , , , , 99, , , 13, 13, 13
36.7935461, -118.9149937, 15.000, 11:20:54.496, 15, 0.00, 0.13, 92, -0.900, 0.600, -132.400, 3, 100, 100, 20, 23202, -18211, 5121, 5567, 7, 14, 1523816454.497, 152, 0, 1024, 1024, 1024, 1024, 0, 6, 3857, 3854, 3863, 3868, 3881, 3871, 0, 1, 10501, -89.900, 0.000, -133.700, 0.000, 0.000, -2.900, 0.0, , , , , , 99, , , 13, 13, 13
36.7935461, -118.9149939, 15.500, 11:20:54.596, 16, 0.00, 0.14, 92, -1.000, 0.300, -132.400, 3, 100, 98, 20, 23202, -18211, 5121, 5567, 7, 14, 1523816454.596, 21, 0, 1024, 1024, 1024, 1024, 0, 6, 3857, 3854, 3863, 3868, 3881, 3871, 0, 1, 10601, -89.900, 0.000, -133.700, 0.000, 0.000, -2.900, 0.0, , , , , , 99, , , 13, 13, 13
36.7935461, -118.9149939, 15.500, 11:20:54.696, 16, 0.00, 0.14, 92, -1.000, 0.300, -132.400, 3, 100, 98, 20, 23202, -18211, 5121, 5567, 7, 14, 1523816454.696, 121, 0, 1024, 1024, 1024, 1024, 0, 6, 3857, 3854, 3863, 3868, 3881, 3871, 0, 1, 10701, -89.900, 0.000, -133.700, 0.000, 0.000, -2.900, 0.0, , , , , , 99, , , 13, 13, 13
36.7935461, -118.9149939, 15.500, 11:20:54.796, 16, 0.00, 0.14, 92, -1.000, 0.300, -132.400, 3, 100, 98, 20, 23202, -18211, 5121, 5567, 7, 14, 1523816454.796, 221, 0, 1024, 1024, 1024, 1024, 0, 6, 3857, 3854, 3863, 3868, 3881, 3871, 0, 1, 10801, -89.900, 0.000, -133.700, 0.000, 0.000, -2.900, 0.0, , , , , , 99, , , 13, 13, 13
36.7935461, -118.9149939, 15.800, 11:20:54.896, 16, 0.00, 0.14, 92, -0.900, 0.200, -132.400, 3, 100, 98, 20, 23202, -18211, 5121, 5567, 7, 14, 1523816454.896, 64, 0, 1024, 1024, 1024, 1024, 0, 6, 3857, 3854, 3863, 3868, 3881, 3871, 0, 1, 10901, -90.000, 0.000, -133.700, 0.000, 0.000, -2.900, 0.0, , , , , , 99, , , 13, 13, 13
36.7935461, -118.9149939, 15.800, 11:20:54.995, 16, 0.00, 0.14, 92, -0.900, 0.200, -132.400, 3, 100, 98, 20, 23202, -18211, 5121, 5567, 7, 14, 1523816454.996, 164, 0, 1024, 1024, 1024, 1024, 0, 6, 3857, 3854, 3863, 3868, 3881, 3871, 0, 1, 11000, -90.000, 0.000, -133.700, 0.000, 0.000, -2.900, 0.0, , , , , , 99, , , 13, 13, 13
36.7935461, -118.9149941, 16.400, 11:20:55.101, 16, 0.00, 0.14, 92, -1.100, -0.200, -132.600, 3, 100, 98, 20, 23202, -18211, 5121, 5567, 7, 14, 1523816455.102, 4, 0, 1024, 1024, 1024, 1024, 0, 6, 3857, 3854, 3863, 3868, 3881, 3871, 0, 1, 11106, -90.000, 0.000, -133.700, 0.000, 0.000, -2.900, 0.0, , , , , , 99, , , 13, 13, 13
36.7935461, -118.9149941, 16.400, 11:20:55.196, 16, 0.00, 0.14, 92, -1.100, -0.200, -132.600, 3, 100, 98, 20, 23202, -18211, 5121, 5567, 7, 14, 1523816455.196, 99, 0, 1024, 1024, 1024, 1024, 0, 6, 3857, 3854, 3863, 3868, 3881, 3871, 0, 1, 11201, -90.000, 0.000, -133.700, 0.000, 0.000, -2.900, 0.0, , , , , , 99, , , 13, 13, 13
36.7935462, -118.9149941, 16.700, 11:20:55.296, 16, 0.00, 0.14, 92, -1.200, -0.200, -132.700, 3, 100, 98, 20, 23090, -18819, 5121, 5567, 7, 14, 1523816455.297, 28, 0, 1024, 1024, 1024, 1024, 0, 6, 3857, 3854, 3863, 3868, 3881, 3871, 0, 1, 11301, -89.900, 0.000, -133.700, 0.000, 0.000, -2.900, 0.0, , , , , , 99, , , 13, 13, 13
36.7935462, -118.9149943, 17.300, 11:20:55.396, 16, 0.10, 0.14, 92, -1.200, 0.200, -132.800, 3, 100, 98, 20, 23090, -18819, 5121, 5567, 7, 14, 1523816455.397, 57, 0, 1024, 1024, 1024, 1024, 0, 6, 3857, 3854, 3863, 3868, 3881, 3871, 0, 1, 11401, -89.900, 0.000, -133.700, 0.000, -0.100, -2.900, 0.0, , , , , , 99, , , 13, 13, 13
36.7935462, -118.9149943, 17.300, 11:20:55.496, 16, 0.10, 0.14, 92, -1.200, 0.200, -132.800, 3, 100, 98, 20, 23090, -18819, 5121, 5567, 7, 14, 1523816455.496, 157, 0, 1024, 1024, 1024, 1024, 0, 6, 3843, 3827, 3849, 3853, 3868, 3843, 0, 1, 11501, -89.900, 0.000, -133.700, 0.000, -0.100, -2.900, 0.0, , , , , , 99, , , 13, 13, 13
36.7935462, -118.9149948, 18.200, 11:20:55.596, 16, 0.10, 0.16, 92, -2.000, 1.400, -133.200, 3, 100, 98, 20, 23090, -18819, 5121, 5567, 7, 14, 1523816455.596, 20, 0, 1024, 1024, 1024, 1024, 0, 6, 3843, 3827, 3849, 3853, 3868, 3843, 0, 1, 11601, -89.900, 0.000, -133.600, 0.000, -0.100, -2.900, 0.0, , , , , , 99, , , 13, 13, 13
36.7935462, -118.9149950, 18.500, 11:20:55.699, 16, 0.10, 0.17, 92, -2.200, 2.000, -133.200, 3, 100, 96, 20, 23090, -18819, 5121, 5567, 7, 14, 1523816455.700, 4, 0, 1024, 1024, 1024, 1024, 0, 6, 3843, 3827, 3849, 3853, 3868, 3843, 0, 1, 11704, -89.900, 0.000, -133.600, 0.000, -0.100, -2.900, 0.0, , , , , , 99, , , 13, 13, 13
36.7935462, -118.9149953, 19.000, 11:20:55.796, 16, 0.10, 0.19, 92, -2.100, 2.000, -133.000, 3, 100, 96, 20, 23090, -18819, 5121, 5567, 7, 14, 1523816455.796, 16, 0, 1024, 1024, 1024, 1024, 0, 6, 3843, 3827, 3849, 3853, 3868, 3843, 0, 1, 11801, -89.900, 0.000, -133.700, 0.000, -0.100, -2.900, 0.0, , , , , , 99, , , 13, 13, 13
36.7935463, -118.9149955, 19.600, 11:20:55.902, 16, 0.00, 0.20, 92, -2.000, 1.700, -132.700, 3, 100, 97, 21, 22932, -19975, 5121, 5567, 7, 14, 1523816455.902, 5, 0, 1024, 1024, 1024, 1024, 0, 6, 3843, 3827, 3849, 3853, 3868, 3843, 0, 1, 11906, -89.900, 0.000, -133.600, 0.000, 0.000, -2.900, 0.0, , , , , , 99, , , 13, 13, 13
36.7935463, -118.9149955, 19.600, 11:20:55.996, 16, 0.00, 0.20, 92, -2.000, 1.700, -132.700, 3, 100, 97, 21, 22932, -19975, 5121, 5567, 7, 14, 1523816455.997, 100, 0, 1024, 1024, 1024, 1024, 0, 6, 3820, 3801, 3816, 3823, 3838, 3820, 0, 1, 12001, -89.900, 0.000, -133.600, 0.000, 0.000, -2.900, 0.0, , , , , , 99, , , 13, 13, 13
36.7935462, -118.9149956, 20.200, 11:20:56.096, 16, 0.00, 0.21, 92, -1.900, 1.400, -132.500, 3, 100, 97, 21, 22932, -19975, 5121, 5567, 7, 14, 1523816456.096, 78, 0, 1024, 1024, 1024, 1024, 0, 6, 3820, 3801, 3816, 3823, 3838, 3820, 0, 1, 12100, -89.900, 0.000, -133.600, 0.000, 0.000, -3.000, 0.0, , , , , , 99, , , 13, 13, 13
36.7935462, -118.9149957, 20.500, 11:20:56.196, 16, 0.00, 0.21, 92, -1.600, 1.500, -132.500, 3, 100, 97, 21, 22932, -19975, 5121, 5567, 7, 14, 1523816456.196, 37, 0, 1024, 1024, 1024, 1024, 0, 6, 3820, 3801, 3816, 3823, 3838, 3820, 0, 1, 12201, -89.900, 0.000, -133.600, 0.000, 0.000, -3.000, 0.0, , , , , , 99, , , 13, 13, 13
36.7935462, -118.9149957, 20.500, 11:20:56.296, 16, 0.00, 0.21, 92, -1.600, 1.500, -132.500, 3, 100, 97, 21, 22932, -19975, 5121, 5567, 7, 14, 1523816456.297, 137, 0, 1024, 1024, 1024, 1024, 0, 6, 3820, 3801, 3816, 3823, 3838, 3820, 0, 1, 12301, -89.900, 0.000, -133.600, 0.000, 0.000, -3.000, 0.0, , , , , , 99, , , 13, 13, 13
36.7935462, -118.9149957, 20.500, 11:20:56.396, 16, 0.00, 0.21, 92, -1.600, 1.500, -132.500, 3, 100, 97, 21, 22932, -19975, 5121, 5567, 7, 14, 1523816456.397, 238, 0, 1024, 1024, 1024, 1024, 0, 6, 3820, 3801, 3816, 3823, 3838, 3820, 0, 1, 12401, -89.900, 0.000, -133.700, 0.000, 0.000, -3.000, 0.0, , , , , , 99, , , 13, 13, 13
36.7935462, -118.9149961, 21.400, 11:20:56.496, 16, 0.00, 0.24, 92, -2.200, 2.300, -133.200, 3, 100, 98, 21, 22932, -19975, 5121, 5567, 7, 14, 1523816456.496, 45, 0, 1024, 1024, 1024, 1024, 0, 6, 3820, 3801, 3816, 3823, 3838, 3820, 0, 1, 12501, -89.900, 0.000, -133.700, 0.000, 0.000, -3.200, 0.0, , , , , , 99, , , 13, 13, 13
36.7935462, -118.9149962, 21.700, 11:20:56.596, 16, 0.00, 0.25, 92, -2.400, 2.000, -133.300, 3, 100, 98, 21, 22932, -19975, 5121, 5567, 7, 14, 1523816456.597, 75, 0, 1024, 1024, 1024, 1024, 0, 6, 3820, 3801, 3816, 3823, 3838, 3820, 0, 1, 12601, -89.900, 0.000, -133.600, 0.000, 0.000, -3.100, 0.0, , , , , , 99, , , 13, 13, 13
36.7935462, -118.9149964, 22.000, 11:20:56.696, 16, 0.00, 0.26, 92, -2.400, 1.900, -133.400, 3, 100, 98, 21, 22932, -19975, 5121, 5567, 7, 14, 1523816456.696, 40, 0, 1024, 1024, 1024, 1024, 0, 6, 3820, 3801, 3816, 3823, 3838, 3820, 0, 1, 12701, -89.900, 0.000, -133.700, 0.000, 0.000, -3.000, 0.0, , , , , , 99, , , 13, 13, 13
36.7935463, -118.9149965, 22.300, 11:20:56.796, 16, 0.00, 0.27, 92, -2.400, 1.900, -133.500, 3, 100, 98, 21, 22932, -19975, 5121, 5567, 7, 14, 1523816456.797, 67, 0, 1024, 1024, 1024, 1024, 0, 6, 3820, 3801, 3816, 3823, 3838, 3820, 0, 1, 12801, -89.900, 0.000, -133.600, 0.000, 0.000, -3.000, 0.0, , , , , , 99, , , 13, 13, 13
36.7935463, -118.9149966, 22.600, 11:20:56.896, 16, 0.00, 0.29, 92, -2.700, 1.900, -133.200, 3, 100, 98, 21, 22802, -21527, 5065, 5567, 7, 14, 1523816456.897, 60, 0, 1024, 1024, 1024, 1024, 0, 6, 3820, 3801, 3816, 3823, 3838, 3820, 0, 1, 12901, -89.900, 0.000, -133.600, 0.000, 0.000, -3.000, 0.0, , , , , , 99, , , 13, 13, 13
36.7935464, -118.9149968, 23.000, 11:20:56.996, 16, 0.00, 0.30, 92, -2.800, 2.100, -132.900, 3, 100, 96, 21, 22802, -21527, 5065, 5567, 7, 14, 1523816456.997, 59, 0, 1024, 1024, 1024, 1024, 0, 6, 3794, 3776, 3799, 3789, 3822, 3802, 0, 1, 13001, -89.900, 0.000, -133.600, 0.000, 0.000, -3.100, 0.0, , , , , , 99, , , 13, 13, 13
36.7935464, -118.9149968, 23.000, 11:20:57.096, 16, 0.00, 0.30, 92, -2.800, 2.100, -132.900, 3, 100, 96, 21, 22802, -21527, 5065, 5567, 7, 14, 1523816457.097, 159, 0, 1024, 1024, 1024, 1024, 0, 6, 3794, 3776, 3799, 3789, 3822, 3802, 0, 1, 13101, -89.900, 0.000, -133.600, 0.000, 0.000, -3.100, 0.0, , , , , , 99, , , 13, 13, 13
36.7935464, -118.9149970, 23.600, 11:20:57.196, 16, 0.00, 0.32, 92, -3.100, 2.100, -132.300, 3, 100, 96, 21, 22802, -21527, 5065, 5567, 7, 14, 1523816457.196, 48, 0, 1024, 1024, 1024, 1024, 0, 6, 3794, 3776, 3799, 3789, 3822, 3802, 0, 1, 13201, -89.900, 0.000, -133.600, 0.000, 0.000, -3.000, 0.0, , , , , , 99, , , 13, 13, 13
36.7935464, -118.9149970, 23.900, 11:20:57.296, 16, 0.00, 0.32, 92, -2.800, 2.200, -132.200, 3, 100, 96, 21, 22802, -21527, 5065, 5567, 7, 14, 1523816457.296, 50, 0, 1024, 1024, 1024, 1024, 0, 6, 3794, 3776, 3799, 3789, 3822, 3802, 0, 1, 13301, -89.900, 0.000, -133.600, 0.000, 0.000, -3.000, 0.0, , , , , , 99, , , 13, 13, 13
36.7935463, -118.9149971, 24.200, 11:20:57.396, 16, 0.00, 0.32, 91, -2.400, 2.100, -132.200, 3, 100, 96, 21, 22802, -21527, 5065, 5567, 7, 14, 1523816457.396, 10, 0, 1024, 1024, 1024, 1024, 0, 6, 3794, 3776, 3799, 3789, 3822, 3802, 0, 1, 13400, -89.900, 0.000, -133.600, 0.000, 0.000, -3.000, 0.0, , , , , , 99, , , 13, 13, 13
36.7935463, -118.9149971, 24.500, 11:20:57.496, 16, 0.00, 0.32, 91, -1.900, 2.200, -132.300, 3, 100, 93, 21, 22802, -21527, 5065, 5567, 7, 14, 1523816457.497, 26, 0, 1024, 1024, 1024, 1024, 0, 6, 3794, 3776, 3799, 3789, 3822, 3802, 0, 1, 13501, -89.900, 0.000, -133.600, 0.000, 0.000, -3.000, 0.0, , , , , , 99, , , 13, 13, 13
36.7935463, -118.9149971, 24.800, 11:20:57.596, 16, 0.00, 0.32, 91, -1.500, 2.300, -132.400, 3, 100, 93, 21, 22802, -21527, 5065, 5567, 7, 14, 1523816457.596, 14, 0, 1024, 1024, 1024, 1024, 0, 6, 3794, 3776, 3799, 3789, 3822, 3802, 0, 1, 13601, -89.900, 0.000, -133.600, 0.000, 0.000, -2.900, 0.0, , , , , , 99, , , 13, 13, 13
36.7935462, -118.9149971, 25.000, 11:20:57.696, 16, 0.00, 0.32, 91, -1.100, 2.300, -132.500, 3, 100, 93, 21, 22802, -21527, 5065, 5567, 7, 14, 1523816457.697, 30, 0, 1024, 1024, 1024, 1024, 0, 6, 3794, 3776, 3799, 3789, 3822, 3802, 0, 1, 13701, -89.900, 0.000, -133.600, 0.000, 0.000, -2.900, 0.0, , , , , , 99, , , 13, 13, 13
36.7935462, -118.9149971, 25.300, 11:20:57.796, 16, 0.00, 0.31, 91, -0.900, 2.200, -132.600, 3, 100, 93, 21, 22802, -21527, 5065, 5567, 7, 14, 1523816457.797, 34, 0, 1024, 1024, 1024, 1024, 0, 6, 3794, 3776, 3799, 3789, 3822, 3802, 0, 1, 13802, -89.900, 0.000, -133.600, 0.000, 0.000, -2.900, 0.0, , , , , , 99, , , 13, 13, 13
36.7935461, -118.9149971, 25.600, 11:20:57.896, 16, 0.00, 0.31, 91, -0.900, 2.400, -132.600, 3, 100, 93, 21, 22799, -21419, 5065, 5567, 7, 14, 1523816457.897, 22, 0, 1024, 1024, 1024, 1024, 0, 6, 3791, 3776, 3801, 3785, 3817, 3806, 0, 1, 13901, -89.900, 0.000, -133.600, 0.000, 0.000, -3.000, 0.0, , , , , , 99, , , 13, 13, 13
36.7935461, -118.9149972, 25.900, 11:20:57.996, 16, 0.00, 0.31, 91, -0.900, 2.700, -132.700, 3, 100, 90, 21, 22799, -21419, 5065, 5567, 7, 14, 1523816457.996, 21, 0, 1024, 1024, 1024, 1024, 0, 6, 3791, 3776, 3801, 3785, 3817, 3806, 0, 1, 14001, -89.900, 0.000, -133.600, 0.000, 0.000, -3.000, 0.0, , , , , , 99, , , 13, 13, 13
36.7935460, -118.9149972, 26.200, 11:20:58.096, 16, 0.00, 0.31, 91, -0.800, 2.900, -132.900, 3, 100, 90, 21, 22799, -21419, 5065, 5567, 7, 14, 1523816458.097, 29, 0, 1024, 1024, 1024, 1024, 0, 6, 3791, 3776, 3801, 3785, 3817, 3806, 0, 1, 14101, -89.900, 0.000, -133.600, 0.000, 0.000, -3.000, 0.0, , , , , , 99, , , 13, 13, 13
36.7935459, -118.9149972, 26.500, 11:20:58.196, 16, 0.00, 0.31, 91, -1.000, 3.100, -133.000, 3, 100, 90, 21, 22799, -21419, 5065, 5567, 7, 14, 1523816458.196, 22, 0, 1024, 1024, 1024, 1024, 0, 6, 3791, 3776, 3801, 3785, 3817, 3806, 0, 1, 14201, -89.900, 0.000, -133.600, 0.000, 0.000, -3.100, 0.0, , , , , , 99, , , 13, 13, 13
36.7935459, -118.9149972, 26.900, 11:20:58.296, 16, 0.00, 0.31, 91, -1.500, 3.000, -133.100, 3, 100, 90, 21, 22799, -21419, 5065, 5567, 7, 14, 1523816458.297, 14, 0, 1024, 1024, 1024, 1024, 0, 6, 3791, 3776, 3801, 3785, 3817, 3806, 0, 1, 14301, -89.900, 0.000, -133.600, 0.000, 0.000, -3.100, 0.0, , , , , , 99, , , 13, 13, 13
36.7935459, -118.9149972, 27.200, 11:20:58.409, 16, 0.00, 0.31, 91, -1.500, 3.000, -133.100, 3, 100, 90, 21, 22799, -21419, 5065, 5567, 7, 14, 1523816458.409, 7, 0, 1024, 1024, 1024, 1024, 0, 6, 3791, 3776, 3801, 3785, 3817, 3806, 0, 1, 14414, -89.900, 0.000, -133.600, 0.000, 0.000, -3.100, 0.0, , , , , , 99, , , 13, 13, 13
36.7935459, -118.9149972, 27.200, 11:20:58.496, 16, 0.00, 0.31, 91, -1.500, 3.000, -133.100, 3, 100, 90, 21, 22799, -21419, 5065, 5567, 7, 14, 1523816458.497, 94, 0, 1024, 1024, 1024, 1024, 0, 6, 3791, 3776, 3801, 3785, 3817, 3806, 0, 1, 14501, -89.900, 0.000, -133.600, 0.000, 0.000, -3.100, 0.0, , , , , , 99, , , 13, 13, 13
36.7935459, -118.9149972, 27.500, 11:20:58.596, 16, 0.00, 0.31, 91, -1.800, 2.700, -133.200, 3, 100, 94, 21, 22799, -21419, 5065, 5567, 7, 14, 1523816458.597, 96, 0, 1024, 1024, 1024, 1024, 0, 6, 3791, 3776, 3801, 3785, 3817, 3806, 0, 1, 14601, -89.900, 0.000, -133.600, 0.000, 0.000, -3.100, 0.0, , , , , , 99, , , 13, 13, 13
36.7935458, -118.9149972, 27.800, 11:20:58.696, 16, 0.00, 0.31, 91, -2.000, 2.800, -133.100, 3, 100, 94, 21, 22799, -21419, 5065, 5567, 7, 14, 1523816458.697, 62, 0, 1024, 1024, 1024, 1024, 0, 6, 3791, 3776, 3801, 3785, 3817, 3806, 0, 1, 14701, -89.900, 0.000, -133.600, 0.000, 0.000, -3.100, 0.0, , , , , , 99, , , 13, 13, 13
36.7935458, -118.9149971, 28.400, 11:20:58.797, 16, 0.00, 0.30, 91, -1.600, 2.600, -132.900, 3, 100, 94, 21, 22799, -21419, 5065, 5567, 7, 14, 1523816458.798, 4, 0, 1024, 1024, 1024, 1024, 0, 6, 3791, 3776, 3801, 3785, 3817, 3806, 0, 1, 14802, -89.900, 0.000, -133.600, 0.000, 0.000, -3.000, 0.0, , , , , , 99, , , 13, 13, 13
36.7935458, -118.9149971, 28.400, 11:20:58.895, 16, 0.00, 0.30, 91, -1.600, 2.600, -132.900, 3, 100, 94, 21, 22799, -21419, 5065, 5567, 7, 14, 1523816458.896, 102, 0, 1024, 1024, 1024, 1024, 0, 6, 3791, 3776, 3801, 3785, 3817, 3806, 0, 1, 14900, -89.900, 0.000, -133.600, 0.000, 0.000, -3.000, 0.0, , , , , , 99, , , 13, 13, 13
36.7935458, -118.9149971, 28.400, 11:20:58.996, 16, 0.00, 0.30, 91, -1.600, 2.600, -132.900, 3, 100, 97, 21, 22712, -21174, 5065, 5567, 7, 14, 1523816458.997, 203, 0, 1024, 1024, 1024, 1024, 0, 6, 3791, 3776, 3801, 3785, 3817, 3806, 0, 1, 15001, -89.900, 0.000, -133.600, 0.000, 0.000, -3.000, 0.0, , , , , , 99, , , 13, 13, 13
36.7935457, -118.9149971, 29.100, 11:20:59.096, 16, 0.00, 0.29, 91, -1.700, 2.600, -132.700, 3, 100, 97, 21, 22712, -21174, 5065, 5567, 7, 14, 1523816459.097, 90, 0, 1024, 1024, 1024, 1024, 0, 6, 3791, 3776, 3801, 3785, 3817, 3806, 0, 1, 15101, -89.900, 0.000, -133.600, 0.000, 0.000, -3.100, 0.0, , , , , , 99, , , 13, 13, 13
36.7935457, -118.9149971, 29.400, 11:20:59.196, 16, 0.00, 0.29, 91, -1.900, 2.600, -132.600, 3, 100, 97, 21, 22712, -21174, 5065, 5567, 7, 14, 1523816459.197, 74, 0, 1024, 1024, 1024, 1024, 0, 6, 3791, 3776, 3801, 3785, 3817, 3806, 0, 1, 15201, -89.900, 0.000, -133.600, 0.000, 0.000, -3.000, 0.0, , , , , , 99, , , 13, 13, 13
36.7935457, -118.9149972, 30.000, 11:20:59.296, 16, 0.00, 0.30, 91, -2.700, 3.500, -132.600, 3, 100, 97, 21, 22712, -21174, 5065, 5567, 7, 14, 1523816459.297, 51, 0, 1024, 1024, 1024, 1024, 0, 6, 3791, 3776, 3801, 3785, 3817, 3806, 0, 1, 15301, -89.900, 0.000, -133.600, 0.000, 0.000, -3.100, 0.0, , , , , , 99, , , 13, 13, 13
36.7935457, -118.9149972, 30.000, 11:20:59.396, 16, 0.00, 0.30, 91, -2.700, 3.500, -132.600, 3, 100, 97, 21, 22712, -21174, 5065, 5567, 7, 14, 1523816459.397, 150, 0, 1024, 1024, 1024, 1024, 0, 6, 3791, 3776, 3801, 3785, 3817, 3806, 0, 1, 15401, -89.900, 0.000, -133.600, 0.000, 0.000, -3.100, 0.0, , , , , , 99, , , 13, 13, 13
36.7935457, -118.9149972, 30.600, 11:20:59.496, 16, 0.00, 0.30, 91, -2.600, 3.700, -132.800, 3, 100, 97, 21, 22712, -21174, 5065, 5567, 7, 14, 1523816459.497, 36, 0, 1024, 1024, 1024, 1024, 0, 6, 3784, 3770, 3786, 3776, 3807, 3789, 0, 1, 15501, -89.900, 0.000, -133.600, 0.000, 0.000, -2.900, 0.0, , , , , , 99, , , 13, 13, 13
36.7935457, -118.9149972, 30.600, 11:20:59.596, 16, 0.00, 0.30, 91, -2.600, 3.700, -132.800, 3, 100, 97, 21, 22712, -21174, 5065, 5567, 7, 14, 1523816459.596, 136, 0, 1024, 1024, 1024, 1024, 0, 6, 3784, 3770, 3786, 3776, 3807, 3789, 0, 1, 15601, -89.900, 0.000, -133.600, 0.000, 0.000, -2.900, 0.0, , , , , , 99, , , 13, 13, 13
36.7935457, -118.9149973, 31.200, 11:20:59.696, 16, 0.00, 0.31, 91, -2.400, 3.000, -132.900, 3, 100, 97, 21, 22712, -21174, 5065, 5567, 7, 14, 1523816459.696, 43, 0, 1024, 1024, 1024, 1024, 0, 6, 3784, 3770, 3786, 3776, 3807, 3789, 0, 1, 15701, -89.900, 0.000, -133.600, 0.000, 0.000, -2.800, 0.0, , , , , , 99, , , 13, 13, 13
36.7935456, -118.9149973, 31.500, 11:20:59.796, 16, 0.00, 0.31, 91, -2.400, 3.200, -132.900, 3, 100, 97, 21, 22712, -21174, 5065, 5567, 7, 14, 1523816459.796, 34, 0, 1024, 1024, 1024, 1024, 0, 6, 3784, 3770, 3786, 3776, 3807, 3789, 0, 1, 15801, -89.900, 0.000, -133.600, 0.000, 0.000, -2.900, 0.0, , , , , , 99, , , 13, 13, 13
36.7935456, -118.9149974, 31.800, 11:20:59.896, 16, 0.00, 0.32, 91, -2.500, 3.600, -133.000, 3, 100, 97, 21, 22712, -21174, 5065, 5567, 7, 14, 1523816459.897, 54, 0, 1024, 1024, 1024, 1024, 0, 6, 3784, 3770, 3786, 3776, 3807, 3789, 0, 1, 15901, -89.900, 0.000, -133.600, 0.000, 0.000, -3.000, 0.0, , , , , , 99, , , 13, 13, 13
36.7935456, -118.9149975, 32.100, 11:20:59.996, 16, 0.00, 0.32, 91, -2.600, 3.800, -132.900, 3, 100, 98, 21, 22712, -21174, 5065, 5567, 7, 14, 1523816459.997, 61, 0, 1024, 1024, 1024, 1024, 0, 6, 3784, 3770, 3786, 3776, 3807, 3789, 0, 1, 16001, -89.900, 0.000, -133.600, 0.000, 0.000, -3.000, 0.0, , , , , , 99, , , 13, 13, 13
36.7935456, -118.9149975, 32.400, 11:21:00.096, 16, 0.00, 0.33, 91, -2.600, 3.900, -132.900, 3, 100, 98, 21, 22712, -21174, 5065, 5567, 7, 14, 1523816460.096, 51, 0, 1024, 1024, 1024, 1024, 0, 6, 3784, 3770, 3786, 3776, 3807, 3789, 0, 1, 16101, -89.900, 0.000, -133.600, 0.000, 0.000, -3.000, 0.0, , , , , , 99, , , 13, 13, 13
36.7935455, -118.9149976, 32.700, 11:21:00.196, 16, 0.00, 0.33, 91, -2.500, 4.100, -132.800, 3, 100, 98, 21, 22712, -21174, 5065, 5567, 7, 14, 1523816460.197, 18, 0, 1024, 1024, 1024, 1024, 0, 6, 3784, 3770, 3786, 3776, 3807, 3789, 0, 1, 16201, -89.900, 0.000, -133.600, 0.000, 0.000, -3.000, 0.0, , , , , , 99, , , 13, 13, 13
36.7935455, -118.9149975, 33.000, 11:21:00.296, 16, 0.00, 0.33, 91, -2.200, 4.400, -132.700, 3, 100, 98, 21, 22712, -21174, 5065, 5567, 7, 14, 1523816460.296, 47, 0, 1024, 1024, 1024, 1024, 0, 6, 3784, 3770, 3786, 3776, 3807, 3789, 0, 1, 16301, -89.900, 0.000, -133.600, 0.000, 0.000, -3.000, 0.0, , , , , , 99, , , 13, 13, 13
36.7935454, -118.9149975, 33.300, 11:21:00.396, 16, 0.00, 0.32, 91, -1.700, 4.300, -132.600, 3, 100, 98, 21, 22755, -21174, 5065, 5567, 7, 14, 1523816460.397, 33, 0, 1024, 1024, 1024, 1024, 0, 6, 3791, 3781, 3792, 3792, 3811, 3806, 0, 1, 16401, -89.900, 0.000, -133.600, 0.000, 0.000, -2.900, 0.0, , , , , , 99, , , 13, 13, 13
36.7935454, -118.9149975, 33.600, 11:21:00.503, 16, 0.00, 0.32, 91, -1.300, 4.300, -132.600, 3, 100, 99, 21, 22755, -21174, 5065, 5567, 7, 14, 1523816460.505, 10, 0, 1024, 1024, 1024, 1024, 0, 6, 3791, 3781, 3792, 3792, 3811, 3806, 0, 1, 16509, -89.900, 0.000, -133.600, 0.000, 0.000, -2.900, 0.0, , , , , , 99, , , 13, 13, 13
36.7935453, -118.9149974, 33.800, 11:21:00.596, 16, 0.00, 0.31, 91, -1.000, 4.300, -132.500, 3, 100, 99, 21, 22755, -21174, 5065, 5567, 7, 14, 1523816460.596, 21, 0, 1024, 1024, 1024, 1024, 0, 6, 3791, 3781, 3792, 3792, 3811, 3806, 0, 1, 16601, -89.900, 0.000, -133.600, 0.000, 0.000, -2.900, 0.0, , , , , , 99, , , 13, 13, 13
36.7935453, -118.9149974, 33.800, 11:21:00.696, 16, 0.00, 0.31, 91, -1.000, 4.300, -132.500, 3, 100, 99, 21, 22755, -21174, 5065, 5567, 7, 14, 1523816460.697, 121, 0, 1024, 1024, 1024, 1024, 0, 6, 3791, 3781, 3792, 3792, 3811, 3806, 0, 1, 16701, -89.900, 0.000, -133.600, 0.000, 0.000, -2.900, 0.0, , , , , , 99, , , 13, 13, 13
36.7935453, -118.9149973, 34.100, 11:21:00.796, 16, 0.00, 0.30, 91, -0.700, 4.100, -132.400, 3, 100, 99, 21, 22755, -21174, 5065, 5567, 7, 14, 1523816460.797, 97, 0, 1024, 1024, 1024, 1024, 0, 6, 3791, 3781, 3792, 3792, 3811, 3806, 0, 1, 16801, -89.900, 0.000, -133.600, 0.000, 0.000, -2.900, 0.0, , , , , , 99, , , 13, 13, 13
36.7935452, -118.9149972, 34.400, 11:21:00.896, 16, 0.00, 0.29, 91, -0.600, 3.700, -132.500, 3, 100, 99, 21, 22755, -21174, 5065, 5567, 7, 14, 1523816460.896, 82, 0, 1024, 1024, 1024, 1024, 0, 6, 3791, 3781, 3792, 3792, 3811, 3806, 0, 1, 16901, -89.900, 0.000, -133.600, 0.000, 0.000, -2.900, 0.0, , , , , , 99, , , 13, 13, 13
36.7935452, -118.9149971, 34.700, 11:21:00.996, 16, 0.00, 0.28, 91, -0.500, 3.400, -132.500, 3, 100, 99, 21, 22755, -21174, 5065, 5567, 7, 14, 1523816460.997, 84, 0, 1024, 1024, 1024, 1024, 0, 6, 3791, 3781, 3792, 3792, 3811, 3806, 0, 1, 17001, -90.000, 0.000, -133.600, 0.000, 0.000, -3.000, 0.0, , , , , , 99, , , 13, 13, 13
36.7935452, -118.9149970, 35.000, 11:21:01.096, 16, 0.00, 0.27, 91, -0.700, 2.900, -132.500, 3, 100, 99, 21, 22755, -21174, 5065, 5567, 7, 14, 1523816461.096, 78, 0, 1024, 1024, 1024, 1024, 0, 6, 3791, 3781, 3792, 3792, 3811, 3806, 0, 1, 17101, -90.000, 0.000, -133.600, 0.000, 0.000, -3.000, 0.0, , , , , , 99, , , 13, 13, 13
36.7935452, -118.9149969, 35.300, 11:21:01.196, 16, 0.00, 0.26, 91, -0.700, 2.600, -132.700, 3, 100, 99, 21, 22755, -21174, 5065, 5567, 7, 14, 1523816461.196, 53, 0, 1024, 1024, 1024, 1024, 0, 6, 3791, 3781, 3792, 3792, 3811, 3806, 0, 1, 17201, -90.000, 0.000, -133.600, 0.000, 0.000, -3.000, 0.0, , , , , , 99, , , 13, 13, 13
36.7935452, -118.9149967, 36.000, 11:21:01.295, 16, 0.00, 0.25, 91, -0.600, 3.000, -133.000, 3, 100, 99, 21, 22755, -21174, 5065, 5567, 7, 14, 1523816461.296, 78, 0, 1024, 1024, 1024, 1024, 0, 6, 3791, 3781, 3792, 3792, 3811, 3806, 0, 1, 17300, -89.900, 0.000, -133.600, 0.000, 0.000, -3.100, 0.0, , , , , , 99, , , 13, 13, 13
36.7935452, -118.9149967, 36.000, 11:21:01.396, 16, 0.00, 0.25, 91, -0.600, 3.000, -133.000, 3, 100, 99, 21, 22755, -21174, 5065, 5567, 7, 14, 1523816461.397, 179, 0, 1024, 1024, 1024, 1024, 0, 6, 3791, 3781, 3792, 3792, 3811, 3806, 0, 1, 17401, -89.900, 0.000, -133.600, 0.000, 0.000, -3.100, 0.0, , , , , , 99, , , 13, 13, 13
36.7935451, -118.9149966, 36.600, 11:21:01.496, 16, 0.00, 0.24, 91, -1.200, 3.300, -133.100, 3, 100, 99, 21, 22779, -20883, 5065, 5567, 7, 14, 1523816461.497, 82, 0, 1024, 1024, 1024, 1024, 0, 6, 3785, 3767, 3799, 3794, 3814, 3814, 0, 1, 17501, -89.900, 0.000, -133.600, 0.000, 0.000, -3.100, 0.0, , , , , , 99, , , 13, 13, 13
36.7935451, -118.9149966, 36.900, 11:21:01.596, 16, 0.00, 0.24, 91, -1.000, 3.600, -133.000, 3, 100, 99, 21, 22779, -20883, 5065, 5567, 7, 14, 1523816461.596, 35, 0, 1024, 1024, 1024, 1024, 0, 6, 3785, 3767, 3799, 3794, 3814, 3814, 0, 1, 17601, -89.900, 0.000, -133.600, 0.000, 0.000, -3.100, 0.0, , , , , , 99, , , 13, 13, 13
36.7935451, -118.9149966, 37.200, 11:21:01.696, 16, 0.00, 0.23, 91, -0.600, 3.800, -132.800, 3, 100, 99, 21, 22779, -20883, 5065, 5567, 7, 14, 1523816461.696, 69, 0, 1024, 1024, 1024, 1024, 0, 6, 3785, 3767, 3799, 3794, 3814, 3814, 0, 1, 17701, -89.900, 0.000, -133.600, 0.000, 0.000, -3.100, 0.0, , , , , , 99, , , 13, 13, 13
36.7935450, -118.9149965, 37.500, 11:21:01.796, 16, 0.00, 0.23, 91, -0.400, 4.000, -132.600, 3, 100, 99, 21, 22779, -20883, 5065, 5567, 7, 14, 1523816461.797, 58, 0, 1024, 1024, 1024, 1024, 0, 6, 3785, 3767, 3799, 3794, 3814, 3814, 0, 1, 17801, -89.900, 0.000, -133.600, 0.000, 0.000, -3.000, 0.0, , , , , , 99, , , 13, 13, 13
36.7935449, -118.9149965, 37.800, 11:21:01.896, 16, 0.00, 0.22, 91, -0.100, 4.500, -132.500, 3, 100, 99, 21, 22779, -20883, 5065, 5567, 7, 14, 1523816461.897, 50, 0, 1024, 1024, 1024, 1024, 0, 6, 3785, 3767, 3799, 3794, 3814, 3814, 0, 1, 17901, -89.900, 0.000, -133.600, 0.000, 0.000, -3.000, 0.0, , , , , , 99, , , 13, 13, 13
36.7935448, -118.9149964, 38.200, 11:21:01.996, 16, 0.00, 0.22, 91, 0.000, 4.700, -132.500, 3, 100, 95, 21, 22779, -20883, 5065, 5567, 7, 14, 1523816461.997, 37, 0, 1024, 1024, 1024, 1024, 0, 6, 3785, 3767, 3799, 3794, 3814, 3814, 0, 1, 18001, -89.900, 0.000, -133.600, 0.000, 0.000, -3.000, 0.0, , , , , , 99, , , 13, 13, 13
36.7935448, -118.9149963, 38.500, 11:21:02.096, 16, 0.00, 0.21, 91, -0.400, 4.600, -132.500, 3, 100, 95, 21, 22779, -20883, 5065, 5567, 7, 14, 1523816462.097, 24, 0, 1024, 1024, 1024, 1024, 0, 6, 3785, 3767, 3799, 3794, 3814, 3814, 0, 1, 18101, -89.900, 0.000, -133.600, 0.000, 0.000, -3.000, 0.0, , , , , , 99, , , 13, 13, 13
36.7935448, -118.9149963, 38.800, 11:21:02.196, 16, 0.00, 0.21, 91, -1.100, 4.100, -132.600, 3, 100, 95, 21, 22779, -20883, 5065, 5567, 7, 14, 1523816462.197, 28, 0, 1024, 1024, 1024, 1024, 0, 6, 3785, 3767, 3799, 3794, 3814, 3814, 0, 1, 18201, -89.900, 0.000, -133.600, 0.000, 0.000, -3.000, 0.0, , , , , , 99, , , 13, 13, 13
36.7935449, -118.9149962, 39.100, 11:21:02.296, 16, 0.00, 0.20, 91, -1.300, 3.300, -132.800, 3, 100, 95, 21, 22779, -20883, 5065, 5567, 7, 14, 1523816462.297, 32, 0, 1024, 1024, 1024, 1024, 0, 6, 3785, 3767, 3799, 3794, 3814, 3814, 0, 1, 18301, -90.000, 0.000, -133.600, 0.000, 0.000, -2.900, 0.0, , , , , , 99, , , 13, 13, 13
36.7935449, -118.9149961, 39.400, 11:21:02.395, 16, 0.00, 0.20, 91, -1.000, 3.000, -132.800, 3, 100, 95, 21, 22805, -19391, 5065, 5567, 7, 14, 1523816462.396, 36, 0, 1024, 1024, 1024, 1024, 0, 6, 3798, 3789, 3802, 3799, 3817, 3792, 0, 1, 18400, -90.000, 0.000, -133.600, 0.000, 0.000, -2.800, 0.0, , , , , , 99, , , 13, 13, 13
36.7935450, -118.9149960, 39.700, 11:21:02.496, 16, 0.00, 0.19, 91, -0.600, 2.700, -132.700, 3, 100, 96, 21, 22805, -19391, 5065, 5567, 7, 14, 1523816462.497, 38, 0, 1024, 1024, 1024, 1024, 0, 6, 3798, 3789, 3802, 3799, 3817, 3792, 0, 1, 18501, -90.000, 0.000, -133.600, 0.000, 0.000, -2.800, 0.0, , , , , , 99, , , 13, 13, 13
36.7935450, -118.9149959, 40.000, 11:21:02.611, 16, 0.00, 0.18, 91, -0.200, 2.400, -132.500, 3, 100, 96, 21, 22805, -19391, 5065, 5567, 7, 14, 1523816462.612, 5, 0, 1024, 1024, 1024, 1024, 0, 6, 3798, 3789, 3802, 3799, 3817, 3792, 0, 1, 18616, -90.000, 0.000, -133.600, 0.000, 0.000, -2.800, 0.0, , , , , , 99, , , 13, 13, 13
36.7935450, -118.9149959, 40.000, 11:21:02.697, 16, 0.00, 0.18, 91, -0.200, 2.400, -132.500, 3, 100, 96, 21, 22805, -19391, 5065, 5567, 7, 14, 1523816462.698, 92, 0, 1024, 1024, 1024, 1024, 0, 6, 3798, 3789, 3802, 3799, 3817, 3792, 0, 1, 18702, -89.900, 0.000, -133.600, 0.000, 0.000, -2.800, 0.0, , , , , , 99, , , 13, 13, 13
36.7935451, -118.9149957, 40.500, 11:21:02.796, 16, 0.10, 0.15, 91, -0.200, 2.000, -132.300, 3, 100, 96, 21, 22805, -19391, 5065, 5567, 7, 14, 1523816462.796, 10, 0, 1024, 1024, 1024, 1024, 0, 6, 3798, 3789, 3802, 3799, 3817, 3792, 0, 1, 18801, -90.000, 0.000, -133.600, 0.000, 0.100, -2.800, 0.0, , , , , , 99, , , 13, 13, 13
36.7935452, -118.9149955, 40.800, 11:21:02.901, 16, 0.00, 0.14, 91, 0.100, 1.900, -132.300, 3, 100, 96, 21, 22805, -19391, 5065, 5567, 7, 14, 1523816462.901, 8, 0, 1024, 1024, 1024, 1024, 0, 6, 3798, 3789, 3802, 3799, 3817, 3792, 0, 1, 18906, -90.000, 0.000, -133.600, 0.000, 0.000, -2.800, 0.0, , , , , , 99, , , 13, 13, 13
36.7935452, -118.9149954, 41.100, 11:21:02.996, 16, 0.00, 0.13, 91, 0.300, 1.800, -132.300, 3, 100, 97, 21, 22805, -19391, 5065, 5567, 7, 14, 1523816462.996, 16, 0, 1024, 1024, 1024, 1024, 0, 6, 3798, 3789, 3802, 3799, 3817, 3792, 0, 1, 19001, -89.900, 0.000, -133.600, 0.000, 0.000, -2.800, 0.0, , , , , , 99, , , 13, 13, 13
36.7935452, -118.9149953, 41.400, 11:21:03.096, 16, 0.00, 0.13, 91, 0.100, 1.800, -132.300, 3, 100, 97, 21, 22805, -19391, 5065, 5567, 7, 14, 1523816463.096, 11, 0, 1024, 1024, 1024, 1024, 0, 6, 3798, 3789, 3802, 3799, 3817, 3792, 0, 1, 19100, -90.000, 0.000, -133.600, 0.000, 0.000, -2.800, 0.0, , , , , , 99, , , 13, 13, 13
36.7935452, -118.9149953, 41.400, 11:21:03.196, 16, 0.00, 0.13, 91, 0.100, 1.800, -132.300, 3, 100, 97, 21, 22805, -19391, 5065, 5567, 7, 14, 1523816463.196, 111, 0, 1024, 1024, 1024, 1024, 0, 6, 3798, 3789, 3802, 3799, 3817, 3792, 0, 1, 19201, -90.000, 0.000, -133.600, 0.000, 0.000, -2.800, 0.0, , , , , , 99, , , 13, 13, 13
36.7935453, -118.9149952, 41.700, 11:21:03.295, 16, 0.00, 0.12, 91, 0.000, 1.800, -132.400, 3, 100, 97, 21, 22805, -19391, 5065, 5567, 7, 14, 1523816463.296, 86, 0, 1024, 1024, 1024, 1024, 0, 6, 3798, 3789, 3802, 3799, 3817, 3792, 0, 1, 19300, -89.900, 0.000, -133.600, 0.000, 0.000, -2.900, 0.0, , , , , , 99, , , 13, 13, 13
36.7935453, -118.9149952, 42.000, 11:21:03.396, 16, 0.00, 0.12, 91, -0.200, 1.700, -132.500, 3, 100, 97, 21, 22805, -19391, 5065, 5567, 7, 14, 1523816463.397, 92, 0, 1024, 1024, 1024, 1024, 0, 6, 3798, 3789, 3802, 3799, 3817, 3792, 0, 1, 19401, -89.900, 0.000, -133.600, 0.000, 0.000, -2.800, 0.0, , , , , , 99, , , 13, 13, 13
36.7935454, -118.9149951, 42.300, 11:21:03.496, 16, 0.00, 0.12, 91, -0.400, 1.800, -132.600, 3, 100, 98, 21, 22726, -20533, 5065, 5567, 7, 14, 1523816463.496, 81, 0, 1024, 1024, 1024, 1024, 0, 6, 3763, 3763, 3775, 3767, 3804, 3784, 0, 1, 19501, -89.900, 0.000, -133.600, 0.000, 0.000, -2.800, 0.0, , , , , , 99, , , 13, 13, 13
36.7935454, -118.9149951, 42.500, 11:21:03.595, 16, 0.00, 0.12, 91, -0.500, 1.900, -132.600, 3, 100, 98, 21, 22726, -20533, 5065, 5567, 7, 14, 1523816463.596, 96, 0, 1024, 1024, 1024, 1024, 0, 6, 3763, 3763, 3775, 3767, 3804, 3784, 0, 1, 19601, -89.900, 0.000, -133.600, 0.000, 0.000, -2.800, 0.0, , , , , , 99, , , 13, 13, 13
36.7935455, -118.9149951, 43.100, 11:21:03.696, 16, 0.00, 0.12, 91, -0.600, 2.000, -132.600, 3, 100, 98, 21, 22726, -20533, 5065, 5567, 7, 14, 1523816463.697, 71, 0, 1024, 1024, 1024, 1024, 0, 6, 3763, 3763, 3775, 3767, 3804, 3784, 0, 1, 19701, -89.900, 0.000, -133.600, 0.000, 0.000, -2.900, 0.0, , , , , , 99, , , 13, 13, 13
36.7935455, -118.9149951, 43.100, 11:21:03.796, 16, 0.00, 0.12, 91, -0.600, 2.000, -132.600, 3, 100, 98, 21, 22726, -20533, 5065, 5567, 7, 14, 1523816463.796, 170, 0, 1024, 1024, 1024, 1024, 0, 6, 3763, 3763, 3775, 3767, 3804, 3784, 0, 1, 19801, -89.900, 0.000, -133.600, 0.000, 0.000, -2.900, 0.0, , , , , , 99, , , 13, 13, 13
36.7935456, -118.9149951, 43.700, 11:21:03.896, 16, 0.00, 0.12, 91, -0.700, 2.000, -132.600, 3, 100, 98, 21, 22726, -20533, 5065, 5567, 7, 14, 1523816463.896, 56, 0, 1024, 1024, 1024, 1024, 0, 6, 3763, 3763, 3775, 3767, 3804, 3784, 0, 1, 19901, -89.900, 0.000, -133.600, 0.000, 0.000, -2.900, 0.0, , , , , , 99, , , 13, 13, 13
36.7935456, -118.9149951, 44.100, 11:21:03.996, 16, 0.00, 0.13, 91, -0.700, 2.000, -132.600, 3, 100, 97, 21, 22726, -20533, 5065, 5567, 7, 14, 1523816463.997, 53, 0, 1024, 1024, 1024, 1024, 0, 6, 3763, 3763, 3775, 3767, 3804, 3784, 0, 1, 20001, -89.900, 0.000, -133.600, 0.000, 0.000, -3.000, 0.0, , , , , , 99, , , 13, 13, 13
36.7935456, -118.9149950, 44.400, 11:21:04.096, 16, 0.00, 0.13, 91, -0.600, 2.100, -132.500, 3, 100, 97, 21, 22726, -20533, 5065, 5567, 7, 14, 1523816464.096, 39, 0, 1024, 1024, 1024, 1024, 0, 6, 3763, 3763, 3775, 3767, 3804, 3784, 0, 1, 20101, -89.900, 0.000, -133.600, 0.000, 0.000, -3.000, 0.0, , , , , , 99, , , 13, 13, 13
36.7935456, -118.9149950, 44.700, 11:21:04.196, 16, 0.00, 0.12, 91, -0.300, 2.200, -132.400, 3, 100, 97, 21, 22726, -20533, 5065, 5567, 7, 14, 1523816464.196, 43, 0, 1024, 1024, 1024, 1024, 0, 6, 3763, 3763, 3775, 3767, 3804, 3784, 0, 1, 20201, -90.000, 0.000, -133.600, 0.000, 0.000, -3.000, 0.0, , , , , , 99, , , 13, 13, 13
36.7935456, -118.9149950, 45.000, 11:21:04.295, 16, 0.00, 0.12, 91, -0.100, 2.100, -132.400, 3, 100, 97, 21, 22726, -20533, 5065, 5567, 7, 14, 1523816464.296, 44, 0, 1024, 1024, 1024, 1024, 0, 6, 3763, 3763, 3775, 3767, 3804, 3784, 0, 1, 20301, -89.900, 0.000, -133.600, 0.000, 0.000, -2.900, 0.0, , , , , , 99, , , 13, 13, 13
36.7935456, -118.9149950, 45.300, 11:21:04.396, 16, 0.00, 0.12, 91, 0.000, 2.200, -132.500, 3, 100, 97, 21, 22537, -22438, 5065, 5567, 7, 14, 1523816464.397, 50, 0, 1024, 1024, 1024, 1024, 0, 6, 3763, 3763, 3775, 3767, 3804, 3784, 0, 1, 20401, -89.900, 0.000, -133.600, 0.000, 0.000, -2.900, 0.0, , , , , , 99, , , 13, 13, 13
36.7935456, -118.9149950, 45.600, 11:21:04.496, 16, 0.00, 0.12, 91, 0.000, 2.300, -132.600, 3, 100, 96, 21, 22537, -22438, 5065, 5567, 7, 14, 1523816464.497, 57, 0, 1024, 1024, 1024, 1024, 0, 6, 3763, 3763, 3775, 3767, 3804, 3784, 0, 1, 20501, -89.900, 0.000, -133.600, 0.000, 0.000, -2.900, 0.0, , , , , , 99, , , 13, 13, 13
36.7935456, -118.9149950, 45.900, 11:21:04.596, 16, 0.00, 0.13, 91, 0.000, 2.100, -132.800, 3, 100, 96, 21, 22537, -22438, 5065, 5567, 7, 14, 1523816464.596, 27, 0, 1024, 1024, 1024, 1024, 0, 6, 3763, 3763, 3775, 3767, 3804, 3784, 0, 1, 20601, -89.900, 0.000, -133.600, 0.000, 0.000, -2.900, 0.0, , , , , , 99, , , 13, 13, 13
36.7935457, -118.9149950, 46.200, 11:21:04.696, 16, 0.00, 0.13, 91, -0.200, 2.000, -132.900, 3, 100, 96, 21, 22537, -22438, 5065, 5567, 7, 14, 1523816464.697, 39, 0, 1024, 1024, 1024, 1024, 0, 6, 3763, 3763, 3775, 3767, 3804, 3784, 0, 1, 20701, -89.900, 0.000, -133.600, 0.000, 0.000, -3.000, 0.0, , , , , , 99, , , 13, 13, 13
36.7935457, -118.9149950, 46.500, 11:21:04.796, 16, 0.00, 0.13, 91, -0.500, 2.100, -133.100, 3, 100, 96, 21, 22537, -22438, 5065, 5567, 7, 14, 1523816464.797, 39, 0, 1024, 1024, 1024, 1024, 0, 6, 3763, 3763, 3775, 3767, 3804, 3784, 0, 1, 20801, -89.900, 0.000, -133.600, 0.000, 0.000, -3.000, 0.0, , , , , , 99, , , 13, 13, 13
36.7935457, -118.9149951, 46.800, 11:21:04.896, 16, 0.00, 0.13, 91, -0.600, 2.300, -133.100, 3, 100, 96, 21, 22537, -22438, 5065, 5567, 7, 14, 1523816464.897, 24, 0, 1024, 1024, 1024, 1024, 0, 6, 3763, 3763, 3775, 3767, 3804, 3784, 0, 1, 20901, -89.900, 0.000, -133.600, 0.000, 0.000, -3.000, 0.0, , , , , , 99, , , 13, 13, 13
