latitude,longitude,altitude(feet),ascent(feet),speed(mph),distance(feet),time(millisecond),datetime(utc),satellites,gpslevel,voltage(v),max_altitude(feet),max_ascent(feet),max_speed(mph),max_distance(feet), xSpeed(mph), ySpeed(mph), zSpeed(mph), compass_heading(degrees), pitch(degrees), roll(degrees),isPhoto,isVideo,rc_elevator,rc_aileron,rc_throttle,rc_rudder,gimbal_heading(degrees),gimbal_pitch(degrees),battery_percent,voltageCell1,voltageCell2,voltageCell3,voltageCell4,voltageCell5,voltageCell6,current(A),battery_temperature(f),flycStateRaw,flycState,message
38.2848481,-120.3444686,4381.7736808992,0,0.223694,0,2900,2018-05-08 20:15:08,14,0,0,4381.7736808992,0,0.223694,0,0,0,0,150.5, -1.3, -0.8,1,0,1024,1024,1024,1024,147.9,-89.9,100,4.243,4.293,4.274,4.245,4.284,4.286,0,75.2,11,AutoTakeoff,
38.2848482,-120.3444682,4381.7736808992,0,0.447388,0.120223757128,3000,2018-05-08 20:15:09,14,0,25.391,4381.7736808992,0,0.447388,0.120223757128,0,0,0,150.4, 0.2, 0,0,0,1024,1024,1024,1024,148,-89.9,100,4.243,4.293,4.274,4.245,4.284,4.286,4.653,75.2,11,AutoTakeoff,
38.2848482,-120.3444677,4382.1017648992,0.328084,0.447388,0.260315953212,3200,2018-05-08 20:15:09,13,0,25.391,4382.1017648992,0.328084,0.447388,0.260315953212,0,0,0,150.1, 1.3, 1.6,0,0,1024,1024,1024,1024,148.1,-89.9,100,4.243,4.293,4.274,4.245,4.284,4.286,4.653,75.2,11,AutoTakeoff,
38.2848482,-120.3444674,4382.1017648992,0.328084,0.447388,0.34559384308,3300,2018-05-08 20:15:09,12,0,25.391,4382.1017648992,0.328084,0.447388,0.34559384308,0,0,0,150.1, 1.7, 2,0,0,1024,1024,1024,1024,148.2,-89.9,100,4.243,4.293,4.274,4.245,4.284,4.286,4.653,75.2,11,AutoTakeoff,
38.2848482,-120.3444672,4382.4298488992,0.656168,0.223694,0.40259515724,3400,2018-05-08 20:15:09,12,0,25.391,4382.4298488992,0.656168,0.447388,0.40259515724,0,0,0,150, 1.5, 2.2,0,0,1024,1024,1024,1024,148.2,-89.9,100,4.243,4.293,4.274,4.245,4.284,4.286,4.653,75.2,11,AutoTakeoff,
38.2848483,-120.344467,4382.4298488992,0.656168,0.223694,0.46398951616,3500,2018-05-08 20:15:09,13,0,25.391,4382.4298488992,0.656168,0.447388,0.46398951616,0,0,0,150, 1.1, 2.2,0,0,1024,1024,1024,1024,148.2,-89.9,100,4.243,4.293,4.274,4.245,4.284,4.286,4.653,75.2,11,AutoTakeoff,
38.2848485,-120.3444667,4382.7579328992,0.984252,0.223694,0.56336287892,3600,2018-05-08 20:15:09,13,0,25.391,4382.7579328992,0.984252,0.447388,0.56336287892,0,0,0,150, 0.6, 2.2,0,0,1024,1024,1024,1024,148.3,-90,100,4.243,4.293,4.274,4.245,4.284,4.286,4.653,75.2,11,AutoTakeoff,
38.2848485,-120.3444666,4382.7579328992,0.984252,0.223694,0.59106957272,3700,2018-05-08 20:15:09,13,0,25.391,4382.7579328992,0.984252,0.447388,0.59106957272,0,0,-0.223694,150, 0.3, 2.1,0,0,1024,1024,1024,1024,148.3,-89.9,100,4.243,4.293,4.274,4.245,4.284,4.286,4.653,75.2,11,AutoTakeoff,
38.2848486,-120.3444666,4383.0860168992,1.312336,0.223694,0.60111878564,3800,2018-05-08 20:15:09,13,0,25.391,4383.0860168992,1.312336,0.447388,0.60111878564,0,0,-0.223694,150, 0.4, 1.8,0,0,1024,1024,1024,1024,148.3,-89.9,100,4.243,4.293,4.274,4.245,4.284,4.286,4.653,75.2,11,AutoTakeoff,
38.2848487,-120.3444664,4383.0860168992,1.312336,0.223694,0.666994772,3900,2018-05-08 20:15:09,12,0,25.391,4383.0860168992,1.312336,0.447388,0.666994772,0,0,-0.223694,150.1, 0.6, 1.3,0,0,1024,1024,1024,1024,148.3,-89.9,100,4.243,4.293,4.274,4.245,4.284,4.286,4.653,75.2,11,AutoTakeoff,
38.2848488,-120.3444662,4383.4141008992,1.64042,0.223694,0.73323821244,4000,2018-05-08 20:15:10,12,0,25.391,4383.4141008992,1.64042,0.447388,0.73323821244,0,0,-0.223694,150.2, 0.7, 1.2,0,0,1024,1024,1024,1024,148.4,-89.9,100,4.22,4.237,4.225,4.197,4.193,4.184,4.653,75.2,11,AutoTakeoff,
38.2848489,-120.3444661,4383.4141008992,1.64042,0.223694,0.77317259692,4100,2018-05-08 20:15:10,13,0,25.391,4383.4141008992,1.64042,0.447388,0.77317259692,0,0,0,150.3, 0.7, 1.3,0,0,1024,1024,1024,1024,148.4,-89.9,100,4.22,4.237,4.225,4.197,4.193,4.184,4.653,75.2,11,AutoTakeoff,
38.284849,-120.344466,4383.7421848992,1.968504,0.223694,0.81378939612,4200,2018-05-08 20:15:10,13,0,25.391,4383.7421848992,1.968504,0.447388,0.81378939612,0,0,-0.223694,150.5, 0.4, 1.5,0,0,1024,1024,1024,1024,148.5,-90,100,4.22,4.237,4.225,4.197,4.193,4.184,4.653,75.2,11,AutoTakeoff,
38.284849,-120.3444658,4383.7421848992,1.968504,0.223694,0.86650593324,4300,2018-05-08 20:15:10,14,0,25.391,4383.7421848992,1.968504,0.447388,0.86650593324,0,0,-0.223694,150.5, 0.2, 1.7,0,0,1024,1024,1024,1024,148.5,-89.9,100,4.22,4.237,4.225,4.197,4.193,4.184,4.653,75.2,11,AutoTakeoff,
38.284849,-120.3444655,4384.0702688992,2.296588,0.223694,0.9465715526,4410,2018-05-08 20:15:10,14,0,25.391,4384.0702688992,2.296588,0.447388,0.9465715526,0,0,-0.223694,150.4, 0.2, 2,0,0,1024,1024,1024,1024,148.5,-89.9,100,4.22,4.237,4.225,4.197,4.193,4.184,4.653,75.2,11,AutoTakeoff,
38.2848491,-120.3444654,4384.0702688992,2.296588,0.223694,0.98638782684,4510,2018-05-08 20:15:10,15,0,25.391,4384.0702688992,2.296588,0.447388,0.98638782684,0,0,-0.223694,150.3, 0.5, 2.2,0,0,1024,1024,1024,1024,148.5,-89.9,100,4.22,4.237,4.225,4.197,4.193,4.184,4.653,75.2,11,AutoTakeoff,
38.2848491,-120.3444653,4384.3983528992,2.624672,0.223694,1.01305121352,4600,2018-05-08 20:15:10,15,0,25.391,4384.3983528992,2.624672,0.447388,1.01305121352,0,0,-0.223694,150.1, 0.8, 2.3,0,0,1024,1024,1024,1024,148.6,-89.9,100,4.22,4.237,4.225,4.197,4.193,4.184,4.653,75.2,11,AutoTakeoff,
38.2848491,-120.3444651,4384.3983528992,2.624672,0,1.066683105,4800,2018-05-08 20:15:10,13,0,25.391,4384.3983528992,2.624672,0.447388,1.066683105,0,0,-0.223694,149.9, 1, 2.5,0,0,1024,1024,1024,1024,148.6,-89.9,100,4.22,4.237,4.225,4.197,4.193,4.184,4.653,75.2,11,AutoTakeoff,
38.284849,-120.344465,4384.7264368992,2.952756,0,1.08201447032,4900,2018-05-08 20:15:10,13,0,25.391,4384.7264368992,2.952756,0.447388,1.08201447032,0,0,-0.223694,149.6, 1.2, 2.5,0,0,1024,1024,1024,1024,148.6,-89.9,100,4.22,4.237,4.225,4.197,4.193,4.184,4.653,75.2,14,Waypoint,
38.284849,-120.3444649,4384.7264368992,2.952756,0,1.10933730584,5000,2018-05-08 20:15:11,13,0,24.359,4384.7264368992,2.952756,0.447388,1.10933730584,0,0,0,149.3, 1.3, 2.4,0,0,1024,1024,1024,1024,148.6,-89.9,98,4.03,4.083,4.048,4.057,4.072,4.054,15.612,75.2,14,Waypoint,
38.284849,-120.344465,4385.0545208992,3.28084,0,1.08201447032,5100,2018-05-08 20:15:11,13,0,24.359,4385.0545208992,3.28084,0.447388,1.10933730584,0,0,0,148.9, 1.3, 1.4,0,0,1024,1024,1024,1024,148.6,-89.9,98,4.03,4.083,4.048,4.057,4.072,4.054,15.612,75.2,14,Waypoint,
38.2848491,-120.3444649,4385.0545208992,3.28084,0,1.12067916972,5200,2018-05-08 20:15:11,13,0,24.359,4385.0545208992,3.28084,0.447388,1.12067916972,0,0,0,148.6, 1, 0.9,0,0,1024,1024,1024,1024,148.6,-89.9,98,4.03,4.083,4.048,4.057,4.072,4.054,15.612,75.2,14,Waypoint,
38.2848492,-120.3444648,4385.3826048992,3.608924,0,1.1599081736,5300,2018-05-08 20:15:11,13,0,24.359,4385.3826048992,3.608924,0.447388,1.1599081736,0,0,-0.223694,148.1, 0.5, 0.9,0,0,1024,1024,1024,1024,148.6,-90,98,4.03,4.083,4.048,4.057,4.072,4.054,15.612,75.2,14,Waypoint,
38.2848494,-120.3444648,4385.7106888992,3.937008,0,1.18713258392,5400,2018-05-08 20:15:11,13,0,24.359,4385.7106888992,3.937008,0.447388,1.18713258392,0,0,-0.223694,148, 0.4, 1.4,0,0,1024,1024,1024,1024,148.6,-90,98,4.03,4.083,4.048,4.057,4.072,4.054,15.612,75.2,14,Waypoint,
38.2848494,-120.3444647,4385.7106888992,3.937008,0,1.21343835904,5500,2018-05-08 20:15:11,14,0,24.359,4385.7106888992,3.937008,0.447388,1.21343835904,0,0,-0.223694,148.1, 0.3, 1.8,0,0,1024,1024,1024,1024,148.6,-90,98,4.03,4.083,4.048,4.057,4.072,4.054,15.612,75.2,14,Waypoint,
38.2848494,-120.3444647,4386.0387728992,4.265092,0,1.21343835904,5700,2018-05-08 20:15:11,14,0,24.359,4386.0387728992,4.265092,0.447388,1.21343835904,0,0,-0.223694,148.2, 0.3, 1.9,0,0,1024,1024,1024,1024,148.6,-90,98,4.03,4.083,4.048,4.057,4.072,4.054,15.612,75.2,14,Waypoint,
38.2848495,-120.3444646,4386.3668568992,4.593176,0,1.25425857032,5800,2018-05-08 20:15:11,13,0,24.359,4386.3668568992,4.593176,0.447388,1.25425857032,0,0,-0.223694,148.3, 0.3, 1.9,0,0,1024,1024,1024,1024,148.6,-90,98,4.03,4.083,4.048,4.057,4.072,4.054,15.612,75.2,14,Waypoint,
38.2848495,-120.3444646,4386.6949408992,4.92126,0,1.25425857032,5900,2018-05-08 20:15:11,13,0,24.359,4386.6949408992,4.92126,0.447388,1.25425857032,0,0,-0.223694,148.4, 0.4, 1.8,0,0,1024,1024,1024,1024,148.6,-89.9,98,4.03,4.083,4.048,4.057,4.072,4.054,15.612,75.2,14,Waypoint,
38.2848496,-120.3444645,4387.0230248992,5.249344,0,1.2954560782,6000,2018-05-08 20:15:12,13,0,24.246,4387.0230248992,5.249344,0.447388,1.2954560782,0,0,-0.223694,148.4, 0.5, 1.6,0,0,1024,1024,1024,1024,148.6,-89.9,98,4.023,4.058,4.046,4.047,4.046,4.043,16.3,75.2,14,Waypoint,
38.2848496,-120.3444645,4387.6791928992,5.905512,0,1.2954560782,6100,2018-05-08 20:15:12,13,0,24.246,4387.6791928992,5.905512,0.447388,1.2954560782,0,0,-0.447388,148.4, 0.7, 1.4,0,0,1024,1024,1024,1024,148.6,-89.9,98,4.023,4.058,4.046,4.047,4.046,4.043,16.3,75.2,14,Waypoint,
38.2848496,-120.3444644,4388.3353608992,6.56168,0,1.32146657772,6200,2018-05-08 20:15:12,12,0,24.246,4388.3353608992,6.56168,0.447388,1.32146657772,0,0,-0.447388,148.4, 0.8, 1.3,0,0,1024,1024,1024,1024,148.6,-89.9,98,4.023,4.058,4.046,4.047,4.046,4.043,16.3,75.2,14,Waypoint,
38.2848496,-120.3444643,4388.9915288992,7.217848,0,1.3475886258,6400,2018-05-08 20:15:12,12,0,24.246,4388.9915288992,7.217848,0.447388,1.3475886258,0,0,-0.447388,148.4, 0.8, 1.2,0,0,1024,1024,1024,1024,148.6,-89.9,98,4.023,4.058,4.046,4.047,4.046,4.043,16.3,75.2,14,Waypoint,
38.2848495,-120.3444643,4389.6476968992,7.874016,0,1.3331857382,6500,2018-05-08 20:15:12,13,0,24.246,4389.6476968992,7.874016,0.447388,1.3475886258,0,0,-0.447388,148.4, 0.6, 1.2,0,0,1024,1024,1024,1024,148.6,-89.9,98,4.023,4.058,4.046,4.047,4.046,4.043,16.3,75.2,14,Waypoint,
38.2848494,-120.3444643,4390.6319488992,8.858268,0,1.31963914984,6600,2018-05-08 20:15:12,13,0,24.246,4390.6319488992,8.858268,0.447388,1.3475886258,0,0,-0.671082,148.4, 0.8, 1.1,0,0,1024,1024,1024,1024,148.6,-89.9,98,4.023,4.058,4.046,4.047,4.046,4.043,16.3,75.2,14,Waypoint,
38.2848493,-120.3444643,4391.2881168992,9.514436,0,1.30696854576,6700,2018-05-08 20:15:12,14,0,24.246,4391.2881168992,9.514436,0.447388,1.3475886258,0,0,-0.671082,148.4, 1.2, 0.9,0,0,1024,1024,1024,1024,148.6,-89.9,98,4.023,4.058,4.046,4.047,4.046,4.043,16.3,75.2,14,Waypoint,
38.2848492,-120.3444642,4392.2723688992,10.498688,0,1.32246067224,6800,2018-05-08 20:15:12,14,0,24.246,4392.2723688992,10.498688,0.447388,1.3475886258,0,0,-0.671082,148.5, 1.5, 0.7,0,0,1024,1024,1024,1024,148.6,-89.9,98,4.023,4.058,4.046,4.047,4.046,4.043,16.3,75.2,14,Waypoint,
38.2848489,-120.3444643,4393.2566208992,11.48294,0,1.26557418748,6900,2018-05-08 20:15:12,14,0,24.246,4393.2566208992,11.48294,0.447388,1.3475886258,0,0,-0.671082,148.7, 1.6, 0.6,0,0,1024,1024,1024,1024,148.6,-89.9,98,4.023,4.058,4.046,4.047,4.046,4.043,16.3,75.2,14,Waypoint,
38.2848486,-120.3444643,4394.5689568992,12.795276,0.223694,1.24489505296,7000,2018-05-08 20:15:13,14,0,24.116,4394.5689568992,12.795276,0.447388,1.3475886258,0,0,-0.671082,148.7, 1.9, 0.1,0,0,1024,1024,1024,1024,148.6,-89.9,98,3.985,4.025,4.007,4.001,4.014,4.002,16.186,75.2,14,Waypoint,
38.2848485,-120.3444645,4395.5532088992,13.779528,0,1.18321198012,7100,2018-05-08 20:15:13,14,0,24.116,4395.5532088992,13.779528,0.447388,1.3475886258,0,0,-0.671082,148.7, 2.2, -0.2,0,0,1024,1024,1024,1024,148.6,-89.9,98,3.985,4.025,4.007,4.001,4.014,4.002,16.186,75.2,14,Waypoint,
38.2848485,-120.3444648,4396.8655448992,15.091864,0,1.09800528448,7200,2018-05-08 20:15:13,14,0,24.116,4396.8655448992,15.091864,0.447388,1.3475886258,0,0,-0.671082,148.6, 2, -0.6,0,0,1024,1024,1024,1024,148.6,-89.9,98,3.985,4.025,4.007,4.001,4.014,4.002,16.186,75.2,14,Waypoint,
38.2848484,-120.3444649,4397.8497968992,16.076116,0,1.06526250128,7300,2018-05-08 20:15:13,14,0,24.116,4397.8497968992,16.076116,0.447388,1.3475886258,0,0,-0.671082,148.6, 1.6, -0.7,0,0,1024,1024,1024,1024,148.6,-89.9,98,3.985,4.025,4.007,4.001,4.014,4.002,16.186,75.2,14,Waypoint,
38.2848483,-120.344465,4399.1621328992,17.388452,0,1.03356630604,7400,2018-05-08 20:15:13,14,0,24.116,4399.1621328992,17.388452,0.447388,1.3475886258,0,0,-0.671082,148.5, 1.1, -0.7,0,0,1024,1024,1024,1024,148.6,-90,98,3.985,4.025,4.007,4.001,4.014,4.002,16.186,75.2,14,Waypoint,
38.2848482,-120.3444651,4401.4587208992,19.68504,0,1.00301184312,7500,2018-05-08 20:15:13,13,0,24.116,4401.4587208992,19.68504,0.447388,1.3475886258,0,0,-0.671082,148.3, 0.8, -0.4,0,0,1024,1024,1024,1024,148.6,-90,98,3.985,4.025,4.007,4.001,4.014,4.002,16.186,75.2,14,Waypoint,
38.2848483,-120.3444653,4402.4429728992,20.669292,0,0.9478838886,7700,2018-05-08 20:15:13,13,0,24.116,4402.4429728992,20.669292,0.447388,1.3475886258,0,0,-0.671082,148.2, 0.7, -0.3,0,0,1024,1024,1024,1024,148.6,-90,98,3.985,4.025,4.007,4.001,4.014,4.002,16.186,75.2,14,Waypoint,
38.2848484,-120.3444654,4403.7553088992,21.981628,0,0.92294622376,7800,2018-05-08 20:15:13,13,0,24.116,4403.7553088992,21.981628,0.447388,1.3475886258,0,0,-0.671082,148.2, 0.5, -0.3,0,0,1024,1024,1024,1024,148.6,-90,98,3.985,4.025,4.007,4.001,4.014,4.002,16.186,75.2,14,Waypoint,
38.2848484,-120.3444655,4404.7395608992,22.96588,0,0.89451446432,7900,2018-05-08 20:15:13,13,0,24.116,4404.7395608992,22.96588,0.447388,1.3475886258,0,0,-0.671082,148.1, 0.3, -0.2,0,0,1024,1024,1024,1024,148.6,-90,98,3.985,4.025,4.007,4.001,4.014,4.002,16.186,75.2,14,Waypoint,
38.2848485,-120.3444656,4405.7238128992,23.950132,0,0.87146328248,8000,2018-05-08 20:15:14,13,0,23.671,4405.7238128992,23.950132,0.447388,1.3475886258,0,0,-0.671082,148.1, 0.1, -0.2,0,0,1024,1024,1024,1024,148.6,-90,98,3.906,3.94,3.936,3.937,3.924,3.934,22.225,75.2,14,Waypoint,
38.2848486,-120.3444656,4406.7080648992,24.934384,0,0.87830711472,8100,2018-05-08 20:15:14,15,0,23.671,4406.7080648992,24.934384,0.447388,1.3475886258,0,0,-0.671082,148, 0.1, -0.1,0,0,1024,1024,1024,1024,148.6,-90,98,3.906,3.94,3.936,3.937,3.924,3.934,22.225,75.2,14,Waypoint,
38.2848487,-120.3444656,4408.0204008992,26.24672,0,0.88660435908,8200,2018-05-08 20:15:14,15,0,23.671,4408.0204008992,26.24672,0.447388,1.3475886258,0,0,-0.671082,148, 0, 0,0,0,1024,1024,1024,1024,148.6,-90,98,3.906,3.94,3.936,3.937,3.924,3.934,22.225,75.2,14,Waypoint,
38.2848488,-120.3444656,4409.0046528992,27.230972,0,0.89631236464,8300,2018-05-08 20:15:14,15,0,23.671,4409.0046528992,27.230972,0.447388,1.3475886258,0,0,-0.671082,148.1, -0.1, 0.1,0,0,1024,1024,1024,1024,148.6,-90,98,3.906,3.94,3.936,3.937,3.924,3.934,22.225,75.2,14,Waypoint,
38.284849,-120.3444655,4410.9731568992,29.199476,0,0.9465715526,8400,2018-05-08 20:15:14,15,0,23.671,4410.9731568992,29.199476,0.447388,1.3475886258,0,0,-0.671082,148.2, 0.3, 0,0,0,1024,1024,1024,1024,148.6,-89.9,98,3.906,3.94,3.936,3.937,3.924,3.934,22.225,75.2,14,Waypoint,
38.2848492,-120.3444655,4413.2697448992,31.496064,0,0.97429136976,8600,2018-05-08 20:15:14,15,0,23.671,4413.2697448992,31.496064,0.447388,1.3475886258,0,0,-0.671082,148.4, 0.7, 0,0,0,1024,1024,1024,1024,148.6,-90,98,3.906,3.94,3.936,3.937,3.924,3.934,22.225,75.2,14,Waypoint,
38.2848496,-120.3444654,4415.2382488992,33.464568,0,1.0674048898,8800,2018-05-08 20:15:14,14,0,23.671,4415.2382488992,33.464568,0.447388,1.3475886258,0,0,-0.671082,148.6, 0.1, 1.3,0,0,1024,1024,1024,1024,148.6,-90,98,3.906,3.94,3.936,3.937,3.924,3.934,22.225,75.2,14,Waypoint,
38.2848497,-120.3444653,4416.2225008992,34.44882,0,1.1108268072,8900,2018-05-08 20:15:14,14,0,23.671,4416.2225008992,34.44882,0.447388,1.3475886258,0,0,-0.671082,148.5, 0.1, 1.7,0,0,1024,1024,1024,1024,148.6,-90,98,3.906,3.94,3.936,3.937,3.924,3.934,22.225,75.2,14,Waypoint,
38.28485,-120.3444653,4418.1910048992,36.417324,0,1.17205056244,9000,2018-05-08 20:15:15,14,0,23.658,4418.1910048992,36.417324,0.447388,1.3475886258,0,0,-0.671082,148.1, 0, 1.9,0,0,1024,1024,1024,1024,148.6,-90,98,3.941,3.98,3.975,3.977,3.971,3.977,18.521,75.2,14,Waypoint,
38.2848502,-120.3444653,4419.1752568992,37.401576,0,1.2166338972,9120,2018-05-08 20:15:15,14,0,23.658,4419.1752568992,37.401576,0.447388,1.3475886258,0,0,-0.671082,148, -0.1, 1.8,0,0,1024,1024,1024,1024,148.6,-90,98,3.941,3.98,3.975,3.977,3.971,3.977,18.521,75.2,14,Waypoint,
38.2848502,-120.3444653,4419.1752568992,37.401576,0,1.2166338972,9200,2018-05-08 20:15:15,14,0,23.658,4419.1752568992,37.401576,0.447388,1.3475886258,0,0,-0.671082,148, -0.1, 1.8,0,0,1024,1024,1024,1024,148.6,-90,98,3.941,3.98,3.975,3.977,3.971,3.977,18.521,75.2,14,Waypoint,
38.2848503,-120.3444653,4420.4875928992,38.713912,0,1.23993442288,9300,2018-05-08 20:15:15,14,0,23.658,4420.4875928992,38.713912,0.447388,1.3475886258,0,0,-0.671082,147.9, -0.5, 1.4,0,0,1024,1024,1024,1024,148.6,-90,98,3.941,3.98,3.975,3.977,3.971,3.977,18.521,75.2,14,Waypoint,
38.2848503,-120.3444653,4421.4718448992,39.698164,0,1.23993442288,9400,2018-05-08 20:15:15,16,0,23.658,4421.4718448992,39.698164,0.447388,1.3475886258,0,0,-0.671082,147.9, -0.7, 1.3,0,0,1024,1024,1024,1024,148.6,-90,98,3.941,3.98,3.975,3.977,3.971,3.977,18.521,75.2,14,Waypoint,
38.2848504,-120.3444653,4422.4560968992,40.682416,0,1.26385830816,9500,2018-05-08 20:15:15,16,0,23.658,4422.4560968992,40.682416,0.447388,1.3475886258,0,0,-0.671082,147.9, -0.5, 1.1,0,0,1024,1024,1024,1024,148.6,-90,98,3.941,3.98,3.975,3.977,3.971,3.977,18.521,75.2,14,Waypoint,
38.2848506,-120.3444653,4424.4246008992,42.65092,0,1.31344164308,9600,2018-05-08 20:15:15,16,0,23.658,4424.4246008992,42.65092,0.447388,1.3475886258,0,0,-0.671082,148, -0.5, 1,0,0,1024,1024,1024,1024,148.6,-90,98,3.941,3.98,3.975,3.977,3.971,3.977,18.521,75.2,14,Waypoint,
38.2848507,-120.3444653,4425.4088528992,43.635172,0,1.33903547592,9800,2018-05-08 20:15:15,16,0,23.658,4425.4088528992,43.635172,0.447388,1.3475886258,0,0,-0.671082,148.1, -0.5, 1.2,0,0,1024,1024,1024,1024,148.6,-90,98,3.941,3.98,3.975,3.977,3.971,3.977,18.521,75.2,14,Waypoint,
38.2848508,-120.3444653,4426.3931048992,44.619424,0,1.3651247156,9900,2018-05-08 20:15:15,16,0,23.658,4426.3931048992,44.619424,0.447388,1.3651247156,0,0,-0.671082,148.2, -0.4, 1.2,0,0,1024,1024,1024,1024,148.6,-89.9,98,3.941,3.98,3.975,3.977,3.971,3.977,18.521,75.2,14,Waypoint,
38.2848507,-120.3444652,4428.3616088992,46.587928,0.223694,1.3593996498,10000,2018-05-08 20:15:16,16,0,23.76,4428.3616088992,46.587928,0.447388,1.3651247156,0,0,-0.671082,148.3, 0, 0.6,0,0,1024,1024,1024,1024,148.6,-89.9,98,3.934,3.975,3.965,3.962,3.954,3.971,19.176,75.2,14,Waypoint,
38.2848506,-120.3444652,4429.3458608992,47.57218,0.223694,1.33419623692,10100,2018-05-08 20:15:16,16,0,23.76,4429.3458608992,47.57218,0.447388,1.3651247156,0,0,-0.671082,148.3, 0, 0.4,0,0,1024,1024,1024,1024,148.6,-89.9,98,3.934,3.975,3.965,3.962,3.954,3.971,19.176,75.2,14,Waypoint,
38.2848505,-120.3444652,4431.3143648992,49.540684,0.223694,1.30952432012,10300,2018-05-08 20:15:16,15,0,23.76,4431.3143648992,49.540684,0.447388,1.3651247156,0,0,-0.671082,148.3, 0.8, 1.1,0,0,1024,1024,1024,1024,148.6,-89.9,98,3.934,3.975,3.965,3.962,3.954,3.971,19.176,75.2,14,Waypoint,
38.2848505,-120.3444651,4432.2986168992,50.524936,0.223694,1.330954767,10400,2018-05-08 20:15:16,15,0,23.76,4432.2986168992,50.524936,0.447388,1.3651247156,0,0,-0.671082,148.3, 1.6, 0.9,0,0,1024,1024,1024,1024,148.6,-89.9,98,3.934,3.975,3.965,3.962,3.954,3.971,19.176,75.2,14,Waypoint,
38.2848504,-120.3444651,4433.2828688992,51.509188,0.223694,1.30724085548,10500,2018-05-08 20:15:16,16,0,23.76,4433.2828688992,51.509188,0.447388,1.3651247156,0,0,-0.671082,148.2, 1.9, 0.9,0,0,1024,1024,1024,1024,148.6,-89.9,98,3.934,3.975,3.965,3.962,3.954,3.971,19.176,75.2,14,Waypoint,
38.2848504,-120.3444651,4434.2671208992,52.49344,0,1.30724085548,10700,2018-05-08 20:15:16,16,0,23.76,4434.2671208992,52.49344,0.447388,1.3651247156,0,0,-0.671082,148, 1.6, 1.3,0,0,1024,1024,1024,1024,148.6,-89.9,98,3.934,3.975,3.965,3.962,3.954,3.971,19.176,75.2,14,Waypoint,
38.2848504,-120.3444651,4435.2513728992,53.477692,0,1.30724085548,10800,2018-05-08 20:15:16,16,0,23.76,4435.2513728992,53.477692,0.447388,1.3651247156,0,0,-0.671082,147.8, 1.2, 1.4,0,0,1024,1024,1024,1024,148.6,-89.9,98,3.934,3.975,3.965,3.962,3.954,3.971,19.176,75.2,14,Waypoint,
38.2848504,-120.3444651,4436.2356248992,54.461944,0,1.30724085548,11000,2018-05-08 20:15:17,16,0,23.76,4436.2356248992,54.461944,0.447388,1.3651247156,0,0,-0.671082,147.7, 0.8, 1.4,0,0,1024,1024,1024,1024,148.6,-90,98,3.934,3.975,3.965,3.962,3.954,3.971,19.176,75.2,14,Waypoint,
38.2848504,-120.3444651,4438.5322128992,56.758532,0,1.30724085548,11300,2018-05-08 20:15:17,17,0,23.76,4438.5322128992,56.758532,0.447388,1.3651247156,0,0,-0.671082,147.8, 0, 1,0,0,1024,1024,1024,1024,148.6,-90,98,3.934,3.975,3.965,3.962,3.954,3.971,19.176,75.2,14,Waypoint,
38.2848503,-120.3444651,4439.5164648992,57.742784,0,1.28412405684,11410,2018-05-08 20:15:17,16,0,23.76,4439.5164648992,57.742784,0.447388,1.3651247156,0,0,-0.671082,147.9, 0, 1,0,0,1024,1024,1024,1024,148.6,-90,98,3.934,3.975,3.965,3.962,3.954,3.971,19.176,75.2,14,Waypoint,
38.2848503,-120.3444651,4440.5007168992,58.727036,0,1.28412405684,11620,2018-05-08 20:15:17,16,0,23.76,4440.5007168992,58.727036,0.447388,1.3651247156,0,0,-0.671082,148, 0.1, 0.9,0,0,1024,1024,1024,1024,148.6,-89.9,98,3.934,3.975,3.965,3.962,3.954,3.971,19.176,75.2,14,Waypoint,
38.2848502,-120.3444651,4442.4692208992,60.69554,0,1.26164046032,11900,2018-05-08 20:15:17,16,0,23.76,4442.4692208992,60.69554,0.447388,1.3651247156,0,0,-0.671082,148.2, 0.6, 0.6,0,0,1024,1024,1024,1024,148.6,-89.9,98,3.934,3.975,3.965,3.962,3.954,3.971,19.176,75.2,14,Waypoint,
38.2848501,-120.3444651,4443.4534728992,61.679792,0,1.23982287432,12000,2018-05-08 20:15:18,16,0,23.689,4443.4534728992,61.679792,0.447388,1.3651247156,0,0,-0.671082,148.2, 0.6, 0.5,0,0,1024,1024,1024,1024,148.6,-89.9,98,3.921,3.976,3.96,3.964,3.941,3.948,19.599,75.2,14,Waypoint,
38.28485,-120.3444651,4445.4219768992,63.648296,0,1.21870738808,12100,2018-05-08 20:15:18,16,0,23.689,4445.4219768992,63.648296,0.447388,1.3651247156,0,0,-0.671082,148.1, 0.6, 0.9,0,0,1024,1024,1024,1024,148.6,-90,98,3.921,3.976,3.96,3.964,3.941,3.948,19.599,75.2,14,Waypoint,
38.28485,-120.3444652,4446.4062288992,64.632548,0,1.19526250544,12210,2018-05-08 20:15:18,16,0,23.689,4446.4062288992,64.632548,0.447388,1.3651247156,0,0,-0.671082,148, 0.3, 1.2,0,0,1024,1024,1024,1024,148.6,-90,98,3.921,3.976,3.96,3.964,3.941,3.948,19.599,75.2,14,Waypoint,
38.28485,-120.3444652,4448.0466488992,66.272968,0,1.19526250544,12310,2018-05-08 20:15:18,16,0,23.689,4448.0466488992,66.272968,0.447388,1.3651247156,0,0,-0.671082,147.8, -0.5, 1.1,0,0,1024,1024,1024,1024,148.6,-90,98,3.921,3.976,3.96,3.964,3.941,3.948,19.599,75.2,14,Waypoint,
38.2848501,-120.3444652,4449.0309008992,67.25722,0,1.21678809668,12700,2018-05-08 20:15:18,17,0,23.689,4449.0309008992,67.25722,0.447388,1.3651247156,0,0,-0.671082,147.9, -0.6, 0.9,0,0,1024,1024,1024,1024,148.6,-90,98,3.921,3.976,3.96,3.964,3.941,3.948,19.599,75.2,14,Waypoint,
38.28485,-120.3444654,4451.9836568992,70.209976,0,1.14908468244,12800,2018-05-08 20:15:18,17,0,23.689,4451.9836568992,70.209976,0.447388,1.3651247156,0,0,-0.671082,148.2, -0.5, 0.3,0,0,1024,1024,1024,1024,148.6,-90,98,3.921,3.976,3.96,3.964,3.941,3.948,19.599,75.2,14,Waypoint,
38.28485,-120.3444654,4452.9679088992,71.194228,0,1.14908468244,12900,2018-05-08 20:15:18,17,0,23.689,4452.9679088992,71.194228,0.447388,1.3651247156,0,0,-0.671082,148.3, -0.3, 0.4,0,0,1024,1024,1024,1024,148.6,-89.9,98,3.921,3.976,3.96,3.964,3.941,3.948,19.599,75.2,14,Waypoint,
38.2848498,-120.3444655,4454.9364128992,73.162732,0,1.08299544148,13000,2018-05-08 20:15:19,17,0,23.689,4454.9364128992,73.162732,0.447388,1.3651247156,0,0,-0.671082,148.2, 0, 0.2,0,0,1024,1024,1024,1024,148.6,-89.9,98,3.921,3.976,3.96,3.964,3.941,3.948,19.599,75.2,14,Waypoint,
38.2848496,-120.3444655,4456.9049168992,75.131236,0,1.04292326172,13100,2018-05-08 20:15:19,17,0,23.689,4456.9049168992,75.131236,0.447388,1.3651247156,0,0,-0.671082,148.2, 0.2, -0.1,0,0,1024,1024,1024,1024,148.6,-89.9,98,3.921,3.976,3.96,3.964,3.941,3.948,19.599,75.2,14,Waypoint,
38.2848496,-120.3444656,4457.8891688992,76.115488,0,1.01865488824,13200,2018-05-08 20:15:19,17,0,23.689,4457.8891688992,76.115488,0.447388,1.3651247156,0,0,-0.671082,148.1, 0.3, -0.2,0,0,1024,1024,1024,1024,148.6,-89.9,98,3.921,3.976,3.96,3.964,3.941,3.948,19.599,75.2,14,Waypoint,
38.2848495,-120.3444656,4458.8734208992,77.09974,0,0.99952759104,13300,2018-05-08 20:15:19,17,0,23.689,4458.8734208992,77.09974,0.447388,1.3651247156,0,0,-0.671082,148.1, 0.3, -0.1,0,0,1024,1024,1024,1024,148.6,-89.9,98,3.921,3.976,3.96,3.964,3.941,3.948,19.599,75.2,14,Waypoint,
38.2848495,-120.3444656,4459.8576728992,78.083992,0,0.99952759104,13400,2018-05-08 20:15:19,17,0,23.689,4459.8576728992,78.083992,0.447388,1.3651247156,0,0,-0.671082,148.1, 0.4, 0,0,0,1024,1024,1024,1024,148.6,-89.9,98,3.921,3.976,3.96,3.964,3.941,3.948,19.599,75.2,14,Waypoint,
38.2848494,-120.3444656,4461.8261768992,80.052496,0,0.981381265,13510,2018-05-08 20:15:19,17,0,23.689,4461.8261768992,80.052496,0.447388,1.3651247156,0,0,-0.671082,148.1, 0.2, 0,0,0,1024,1024,1024,1024,148.6,-90,98,3.921,3.976,3.96,3.964,3.941,3.948,19.599,75.2,14,Waypoint,
38.2848493,-120.3444656,4463.7946808992,82.021,0,0.96427824608,13700,2018-05-08 20:15:19,17,0,23.689,4463.7946808992,82.021,0.447388,1.3651247156,0,0,-0.671082,148.2, 0, -0.2,0,0,1024,1024,1024,1024,148.6,-90,98,3.921,3.976,3.96,3.964,3.941,3.948,19.599,75.2,14,Waypoint,
38.2848493,-120.3444656,4464.7789328992,83.005252,0,0.96427824608,13800,2018-05-08 20:15:19,17,0,23.689,4464.7789328992,83.005252,0.447388,1.3651247156,0,0,-0.671082,148.2, 0, -0.1,0,0,1024,1024,1024,1024,148.6,-89.9,98,3.921,3.976,3.96,3.964,3.941,3.948,19.599,75.2,14,Waypoint,
38.2848492,-120.3444655,4465.7631848992,83.989504,0,0.97429136976,13900,2018-05-08 20:15:19,17,0,23.689,4465.7631848992,83.989504,0.447388,1.3651247156,0,0,-0.671082,148.2, 0.3, 0,0,0,1024,1024,1024,1024,148.6,-89.9,98,3.921,3.976,3.96,3.964,3.941,3.948,19.599,75.2,14,Waypoint,
38.2848492,-120.3444655,4466.7474368992,84.973756,0,0.97429136976,14000,2018-05-08 20:15:20,17,0,23.569,4466.7474368992,84.973756,0.447388,1.3651247156,0,0,-0.671082,148.3, 0.6, 0,0,0,1024,1024,1024,1024,148.6,-89.9,98,3.898,3.946,3.935,3.936,3.924,3.928,19.866,75.2,14,Waypoint,
38.2848491,-120.3444655,4467.7316888992,85.958008,0,0.95983926956,14100,2018-05-08 20:15:20,17,0,23.569,4467.7316888992,85.958008,0.447388,1.3651247156,0,0,-0.671082,148.4, 0.9, 0,0,0,1024,1024,1024,1024,148.6,-89.9,98,3.898,3.946,3.935,3.936,3.924,3.928,19.866,75.2,14,Waypoint,
38.2848491,-120.3444654,4468.7159408992,86.94226,0,0.98638782684,14200,2018-05-08 20:15:20,17,0,23.569,4468.7159408992,86.94226,0.447388,1.3651247156,0,0,-0.671082,148.6, 1.1, -0.2,0,0,1024,1024,1024,1024,148.6,-89.9,98,3.898,3.946,3.935,3.936,3.924,3.928,19.866,75.2,14,Waypoint,
38.2848491,-120.3444654,4469.7001928992,87.926512,0,0.98638782684,14300,2018-05-08 20:15:20,17,0,23.569,4469.7001928992,87.926512,0.447388,1.3651247156,0,0,-0.671082,148.8, 1.3, -0.2,0,0,1024,1024,1024,1024,148.6,-89.9,98,3.898,3.946,3.935,3.936,3.924,3.928,19.866,75.2,14,Waypoint,
38.2848491,-120.3444653,4471.0125288992,89.238848,0,1.01305121352,14400,2018-05-08 20:15:20,17,0,23.569,4471.0125288992,89.238848,0.447388,1.3651247156,0,0,-0.671082,148.9, 1.2, 0.1,0,0,1024,1024,1024,1024,148.6,-89.9,98,3.898,3.946,3.935,3.936,3.924,3.928,19.866,75.2,14,Waypoint,
38.2848492,-120.3444652,4471.9967808992,90.2231,0.223694,1.05317588672,14500,2018-05-08 20:15:20,17,0,23.569,4471.9967808992,90.2231,0.447388,1.3651247156,0,0,-0.671082,148.9, 1.2, 0.8,0,0,1024,1024,1024,1024,148.6,-89.9,98,3.898,3.946,3.935,3.936,3.924,3.928,19.866,75.2,14,Waypoint,
38.2848494,-120.344465,4473.9652848992,92.191604,0.223694,1.13485567936,14700,2018-05-08 20:15:20,17,0,23.569,4473.9652848992,92.191604,0.447388,1.3651247156,0,0,-0.671082,148.4, 0.7, 2.3,0,0,1024,1024,1024,1024,148.6,-89.9,98,3.898,3.946,3.935,3.936,3.924,3.928,19.866,75.2,14,Waypoint,
38.2848494,-120.3444649,4474.9495368992,93.175856,0.223694,1.16093507652,14900,2018-05-08 20:15:20,17,0,23.569,4474.9495368992,93.175856,0.447388,1.3651247156,0,0,-0.671082,148, 0.7, 2.9,0,0,1024,1024,1024,1024,148.6,-89.9,98,3.898,3.946,3.935,3.936,3.924,3.928,19.866,75.2,14,Waypoint,
38.2848495,-120.3444648,4475.9337888992,94.160108,0,1.20217523532,15000,2018-05-08 20:15:21,17,0,23.569,4475.9337888992,94.160108,0.447388,1.3651247156,0,0,-0.671082,147.6, 0.5, 3.1,0,0,1024,1024,1024,1024,148.6,-89.9,98,3.898,3.946,3.935,3.936,3.924,3.928,19.866,75.2,14,Waypoint,
38.2848496,-120.3444646,4477.5742088992,95.800528,0,1.2695538464,15100,2018-05-08 20:15:21,17,0,23.569,4477.5742088992,95.800528,0.447388,1.3651247156,0,0,-0.671082,147.5, 0, 2.7,0,0,1024,1024,1024,1024,148.6,-90,98,3.898,3.946,3.935,3.936,3.924,3.928,19.866,75.2,14,Waypoint,
38.2848497,-120.3444646,4478.5584608992,96.78478,0,1.28570542172,15200,2018-05-08 20:15:21,17,0,23.569,4478.5584608992,96.78478,0.447388,1.3651247156,0,0,-0.671082,147.6, 0, 2.9,0,0,1024,1024,1024,1024,148.6,-90,98,3.898,3.946,3.935,3.936,3.924,3.928,19.866,75.2,14,Waypoint,
38.2848498,-120.3444645,4479.5427128992,97.769032,0,1.32792983252,15300,2018-05-08 20:15:21,17,0,23.569,4479.5427128992,97.769032,0.447388,1.3651247156,0,0,-0.671082,147.8, 0, 3.1,0,0,1024,1024,1024,1024,148.6,-89.9,98,3.898,3.946,3.935,3.936,3.924,3.928,19.866,75.2,14,Waypoint,
38.2848498,-120.3444644,4480.5269648992,98.753284,0,1.35332025328,15400,2018-05-08 20:15:21,17,0,23.569,4480.5269648992,98.753284,0.447388,1.3651247156,0,0,-0.671082,148.1, 0.4, 2.9,0,0,1024,1024,1024,1024,148.6,-89.9,98,3.898,3.946,3.935,3.936,3.924,3.928,19.866,75.2,14,Waypoint,
38.2848499,-120.3444643,4482.4954688992,100.721788,0,1.39562668508,15600,2018-05-08 20:15:21,17,0,23.569,4482.4954688992,100.721788,0.447388,1.39562668508,0,0,-0.671082,148.3, 0.9, 2.8,0,0,1024,1024,1024,1024,148.6,-89.9,98,3.898,3.946,3.935,3.936,3.924,3.928,19.866,75.2,14,Waypoint,
38.28485,-120.3444643,4483.4797208992,101.70604,0,1.41316277488,15700,2018-05-08 20:15:21,17,0,23.569,4483.4797208992,101.70604,0.447388,1.41316277488,0,0,-0.671082,148.2, 0.6, 3.1,0,0,1024,1024,1024,1024,148.6,-89.9,98,3.898,3.946,3.935,3.936,3.924,3.928,19.866,75.2,14,Waypoint,
38.28485,-120.3444642,4484.4639728992,102.690292,0,1.43818574156,15800,2018-05-08 20:15:21,17,0,23.569,4484.4639728992,102.690292,0.447388,1.43818574156,0,0,-0.671082,148, 0.5, 3.1,0,0,1024,1024,1024,1024,148.6,-89.9,98,3.898,3.946,3.935,3.936,3.924,3.928,19.866,75.2,14,Waypoint,
38.2848501,-120.3444642,4485.4482248992,103.674544,0,1.45612537468,15900,2018-05-08 20:15:21,17,0,23.569,4485.4482248992,103.674544,0.447388,1.45612537468,0,0,-0.671082,147.8, 0.1, 2.8,0,0,1024,1024,1024,1024,148.6,-90,98,3.898,3.946,3.935,3.936,3.924,3.928,19.866,75.2,14,Waypoint,
38.2848501,-120.3444642,4486.4324768992,104.658796,0,1.45612537468,16000,2018-05-08 20:15:22,17,0,23.54,4486.4324768992,104.658796,0.447388,1.45612537468,0,0,-0.671082,147.7, 0, 2.1,0,0,1024,1024,1024,1024,148.6,-89.9,97,3.898,3.93,3.934,3.927,3.936,3.92,19.817,77,14,Waypoint,
38.2848502,-120.3444642,4487.4167288992,105.643048,0,1.47474414168,16100,2018-05-08 20:15:22,17,0,23.54,4487.4167288992,105.643048,0.447388,1.47474414168,0,0,-0.671082,147.8, 0.6, 1.9,0,0,1024,1024,1024,1024,148.6,-89.9,97,3.898,3.93,3.934,3.927,3.936,3.92,19.817,77,14,Waypoint,
38.2848502,-120.3444643,4488.4009808992,106.6273,0,1.45035109628,16200,2018-05-08 20:15:22,17,0,23.54,4488.4009808992,106.6273,0.447388,1.47474414168,0,0,-0.671082,147.9, 0.5, 1.8,0,0,1024,1024,1024,1024,148.6,-90,97,3.898,3.93,3.934,3.927,3.936,3.92,19.817,77,14,Waypoint,
38.2848503,-120.3444643,4489.3852328992,107.611552,0,1.46995083444,16300,2018-05-08 20:15:22,17,0,23.54,4489.3852328992,107.611552,0.447388,1.47474414168,0,0,-0.671082,147.9, -0.1, 2.3,0,0,1024,1024,1024,1024,148.6,-89.9,97,3.898,3.93,3.934,3.927,3.936,3.92,19.817,77,14,Waypoint,
38.2848504,-120.3444643,4490.3694848992,108.595804,0,1.49018705556,16500,2018-05-08 20:15:22,17,0,23.54,4490.3694848992,108.595804,0.447388,1.49018705556,0,0,-0.671082,147.8, -0.7, 2.7,0,0,1024,1024,1024,1024,148.6,-90,97,3.898,3.93,3.934,3.927,3.936,3.92,19.817,77,14,Waypoint,
38.2848505,-120.3444642,4491.3537368992,109.580056,0,1.5344652722,16600,2018-05-08 20:15:22,17,0,23.54,4491.3537368992,109.580056,0.447388,1.5344652722,0,0,-0.671082,147.8, -0.9, 2.9,0,0,1024,1024,1024,1024,148.6,-89.9,97,3.898,3.93,3.934,3.927,3.936,3.92,19.817,77,14,Waypoint,
38.2848506,-120.3444642,4492.3379888992,110.564308,0,1.55557091592,16700,2018-05-08 20:15:22,17,0,23.54,4492.3379888992,110.564308,0.447388,1.55557091592,0,0,-0.671082,147.8, -1.1, 3.6,0,0,1024,1024,1024,1024,148.6,-90,97,3.898,3.93,3.934,3.927,3.936,3.92,19.817,77,14,Waypoint,
38.2848507,-120.3444641,4493.3222408992,111.54856,0,1.60021658664,16800,2018-05-08 20:15:22,17,0,23.54,4493.3222408992,111.54856,0.447388,1.60021658664,0,0,-0.671082,148, -1.2, 3.8,0,0,1024,1024,1024,1024,148.6,-90,97,3.898,3.93,3.934,3.927,3.936,3.92,19.817,77,14,Waypoint,
38.2848508,-120.344464,4494.3064928992,112.532812,0,1.64495412088,16900,2018-05-08 20:15:22,17,0,23.54,4494.3064928992,112.532812,0.447388,1.64495412088,0,0,-0.671082,148.2, -1, 3.7,0,0,1024,1024,1024,1024,148.6,-89.9,97,3.898,3.93,3.934,3.927,3.936,3.92,19.817,77,14,Waypoint,
38.2848509,-120.344464,4494.9626608992,113.18898,0,1.6670604208,17000,2018-05-08 20:15:23,17,0,23.61,4494.9626608992,113.18898,0.447388,1.6670604208,0,0,-0.671082,148.2, -0.7, 3.4,0,0,1024,1024,1024,1024,148.6,-90,97,3.911,3.951,3.945,3.932,3.931,3.939,18.629,77,14,Waypoint,
38.284851,-120.3444639,4496.9311648992,115.157484,0,1.71208666896,17100,2018-05-08 20:15:23,17,0,23.61,4496.9311648992,115.157484,0.447388,1.71208666896,0,0,-0.671082,148, -0.4, 3.7,0,0,1024,1024,1024,1024,148.6,-89.9,97,3.911,3.951,3.945,3.932,3.931,3.939,18.629,77,14,Waypoint,
38.2848511,-120.3444639,4498.8996688992,117.125988,0,1.73487210276,17300,2018-05-08 20:15:23,17,0,23.61,4498.8996688992,117.125988,0.447388,1.73487210276,0,0,-0.671082,147.5, 0, 3.3,0,0,1024,1024,1024,1024,148.6,-89.9,97,3.911,3.951,3.945,3.932,3.931,3.939,18.629,77,14,Waypoint,
38.2848511,-120.3444639,4499.8839208992,118.11024,0,1.73487210276,17400,2018-05-08 20:15:23,17,0,23.61,4499.8839208992,118.11024,0.447388,1.73487210276,0,0,-0.671082,147.5, -0.1, 3.1,0,0,1024,1024,1024,1024,148.6,-89.9,97,3.911,3.951,3.945,3.932,3.931,3.939,18.629,77,14,Waypoint,
38.284851,-120.3444638,4500.8681728992,119.094492,0,1.73469165656,17500,2018-05-08 20:15:23,17,0,23.61,4500.8681728992,119.094492,0.447388,1.73487210276,0,0,-0.671082,147.6, 0.1, 3,0,0,1024,1024,1024,1024,148.6,-89.9,97,3.911,3.951,3.945,3.932,3.931,3.939,18.629,77,14,Waypoint,
38.284851,-120.3444638,4502.8366768992,121.062996,0,1.73469165656,17700,2018-05-08 20:15:23,17,0,23.61,4502.8366768992,121.062996,0.447388,1.73487210276,0,0,-0.671082,147.9, -0.1, 3.1,0,0,1024,1024,1024,1024,148.6,-89.9,97,3.911,3.951,3.945,3.932,3.931,3.939,18.629,77,14,Waypoint,
38.284851,-120.3444637,4503.8209288992,122.047248,0,1.75747380952,17900,2018-05-08 20:15:23,17,0,23.61,4503.8209288992,122.047248,0.447388,1.75747380952,0,0,-0.671082,148.1, -0.2, 3.4,0,0,1024,1024,1024,1024,148.6,-89.9,97,3.911,3.951,3.945,3.932,3.931,3.939,18.629,77,14,Waypoint,
38.2848509,-120.3444635,4505.7894328992,124.015752,0,1.78237866596,18000,2018-05-08 20:15:24,17,0,23.547,4505.7894328992,124.015752,0.447388,1.78237866596,0,0,-0.671082,148.5, 0.3, 4.1,0,0,1024,1024,1024,1024,148.6,-89.9,97,3.897,3.933,3.924,3.918,3.912,3.917,19.473,77,14,Waypoint,
38.2848508,-120.3444634,4507.7579368992,125.984256,0,1.78553483404,18300,2018-05-08 20:15:24,17,0,23.547,4507.7579368992,125.984256,0.447388,1.78553483404,0,0,-0.671082,148.7, 1, 4.1,0,0,1024,1024,1024,1024,148.6,-89.9,97,3.897,3.933,3.924,3.918,3.912,3.917,19.473,77,14,Waypoint,
38.2848508,-120.3444634,4508.7421888992,126.968508,0,1.78553483404,18400,2018-05-08 20:15:24,17,0,23.547,4508.7421888992,126.968508,0.447388,1.78553483404,0,0,-0.671082,148.6, 1, 4,0,0,1024,1024,1024,1024,148.6,-89.9,97,3.897,3.933,3.924,3.918,3.912,3.917,19.473,77,14,Waypoint,
38.2848507,-120.3444634,4509.7264408992,127.95276,0,1.765666067,18500,2018-05-08 20:15:24,17,0,23.547,4509.7264408992,127.95276,0.447388,1.78553483404,0,0,-0.671082,148.5, 0.9, 3.8,0,0,1024,1024,1024,1024,148.6,-89.9,97,3.897,3.933,3.924,3.918,3.912,3.917,19.473,77,14,Waypoint,
38.2848507,-120.3444633,4510.7106928992,128.937012,0,1.78988850872,18600,2018-05-08 20:15:24,17,0,23.547,4510.7106928992,128.937012,0.447388,1.78988850872,0,0,-0.671082,148.4, 0.7, 3.8,0,0,1024,1024,1024,1024,148.6,-89.9,97,3.897,3.933,3.924,3.918,3.912,3.917,19.473,77,14,Waypoint,
38.2848506,-120.3444634,4512.3511128992,130.577432,0,1.74633535772,18800,2018-05-08 20:15:24,17,0,23.547,4512.3511128992,130.577432,0.447388,1.78988850872,0,0,-0.671082,148.2, 0.4, 3.5,0,0,1024,1024,1024,1024,148.6,-89.9,97,3.897,3.933,3.924,3.918,3.912,3.917,19.473,77,14,Waypoint,
38.2848506,-120.3444633,4514.3196168992,132.545936,0,1.77082026664,19000,2018-05-08 20:15:25,17,0,23.382,4514.3196168992,132.545936,0.447388,1.78988850872,0,0,-0.671082,148.3, 0.3, 3.3,0,0,1024,1024,1024,1024,148.6,-89.9,97,3.874,3.922,3.906,3.895,3.895,3.906,20.932,77,14,Waypoint,
38.2848505,-120.3444633,4516.2881208992,134.51444,0,1.75230648652,19200,2018-05-08 20:15:25,17,0,23.382,4516.2881208992,134.51444,0.447388,1.78988850872,0,0,-0.671082,148.5, 0.5, 3.3,0,0,1024,1024,1024,1024,148.6,-89.9,97,3.874,3.922,3.906,3.895,3.895,3.906,20.932,77,14,Waypoint,
38.2848502,-120.3444633,4520.2251288992,138.451448,0,1.70025924076,19500,2018-05-08 20:15:25,17,0,23.382,4520.2251288992,138.451448,0.447388,1.78988850872,0,0,-0.671082,148.4, 1, 3.3,0,0,1024,1024,1024,1024,148.6,-89.9,97,3.874,3.922,3.906,3.895,3.895,3.906,20.932,77,14,Waypoint,
38.2848502,-120.3444633,4522.1936328992,140.419952,0,1.70025924076,19800,2018-05-08 20:15:25,17,0,23.382,4522.1936328992,140.419952,0.447388,1.78988850872,0,0,-0.671082,148.3, 0.7, 3.3,0,0,1024,1024,1024,1024,148.6,-89.9,97,3.874,3.922,3.906,3.895,3.895,3.906,20.932,77,14,Waypoint,
38.2848501,-120.3444634,4524.1621368992,142.388456,0,1.6583661948,19910,2018-05-08 20:15:25,17,0,23.382,4524.1621368992,142.388456,0.447388,1.78988850872,0,0,-0.671082,148.2, 0.4, 3,0,0,1024,1024,1024,1024,148.6,-90,97,3.874,3.922,3.906,3.895,3.895,3.906,20.932,77,14,Waypoint,
38.2848501,-120.3444634,4524.1621368992,142.388456,0,1.6583661948,20000,2018-05-08 20:15:26,17,0,23.362,4524.1621368992,142.388456,0.447388,1.78988850872,0,0,-0.671082,148.2, 0.4, 3,0,0,1024,1024,1024,1024,148.6,-90,97,3.874,3.922,3.906,3.895,3.895,3.906,20.408,77,14,Waypoint,
38.2848501,-120.3444634,4525.1463888992,143.372708,0,1.6583661948,20100,2018-05-08 20:15:26,17,0,23.362,4525.1463888992,143.372708,0.447388,1.78988850872,0,0,-0.671082,148.2, 0.4, 3,0,0,1024,1024,1024,1024,148.6,-90,97,3.874,3.922,3.906,3.895,3.895,3.906,20.408,77,14,Waypoint,
38.28485,-120.3444635,4527.1148928992,145.341212,0,1.61672249268,20200,2018-05-08 20:15:26,17,0,23.362,4527.1148928992,145.341212,0.447388,1.78988850872,0,0,-0.671082,148, 0.4, 3.2,0,0,1024,1024,1024,1024,148.6,-89.9,97,3.874,3.922,3.906,3.895,3.895,3.906,20.408,77,14,Waypoint,
38.2848499,-120.3444636,4529.0833968992,147.309716,0,1.57534125776,20400,2018-05-08 20:15:26,17,0,23.362,4529.0833968992,147.309716,0.447388,1.78988850872,0,0,-0.671082,148.1, 0.5, 2.6,0,0,1024,1024,1024,1024,148.6,-89.9,97,3.874,3.922,3.906,3.895,3.895,3.906,20.408,77,14,Waypoint,
38.2848498,-120.3444637,4530.0676488992,148.293968,0,1.53424873676,20700,2018-05-08 20:15:26,17,0,23.362,4530.0676488992,148.293968,0.447388,1.78988850872,0,0,-0.671082,148.2, 0.4, 2.6,0,0,1024,1024,1024,1024,148.6,-90,97,3.874,3.922,3.906,3.895,3.895,3.906,20.408,77,14,Waypoint,
38.2848498,-120.3444638,4531.0519008992,149.27822,0,1.50809716112,20800,2018-05-08 20:15:26,17,0,23.362,4531.0519008992,149.27822,0.447388,1.78988850872,0,0,-0.671082,148.3, 0.3, 2.4,0,0,1024,1024,1024,1024,148.6,-89.9,97,3.874,3.922,3.906,3.895,3.895,3.906,20.408,77,14,Waypoint,
38.2848497,-120.3444639,4533.0204048992,151.246724,0,1.46714571624,21000,2018-05-08 20:15:27,17,0,23.362,4533.0204048992,151.246724,0.447388,1.78988850872,0,0,-0.671082,148.4, 0.5, 2.7,0,0,1024,1024,1024,1024,148.6,-89.9,97,3.869,3.91,3.907,3.892,3.884,3.891,20.408,77,14,Waypoint,
38.2848497,-120.344464,4535.3169928992,153.543312,0,1.44091540044,21200,2018-05-08 20:15:27,17,0,23.362,4535.3169928992,153.543312,0.447388,1.78988850872,0,0,-0.671082,148.2, 0.5, 2.8,0,0,1024,1024,1024,1024,148.6,-89.9,97,3.869,3.91,3.907,3.892,3.884,3.891,20.408,77,14,Waypoint,
38.2848497,-120.344464,4536.3012448992,154.527564,0,1.44091540044,21300,2018-05-08 20:15:27,17,0,23.362,4536.3012448992,154.527564,0.447388,1.78988850872,0,0,-0.671082,148.2, 0.5, 2.5,0,0,1024,1024,1024,1024,148.6,-89.9,97,3.869,3.91,3.907,3.892,3.884,3.891,20.408,77,14,Waypoint,
38.2848496,-120.344464,4537.2854968992,155.511816,0,1.4265256362,21400,2018-05-08 20:15:27,17,0,23.362,4537.2854968992,155.511816,0.447388,1.78988850872,0,0,-0.671082,148.1, 0.4, 2.3,0,0,1024,1024,1024,1024,148.6,-90,97,3.869,3.91,3.907,3.892,3.884,3.891,20.408,77,14,Waypoint,
38.2848496,-120.3444641,4538.2697488992,156.496068,0,1.40012143588,21500,2018-05-08 20:15:27,17,0,23.362,4538.2697488992,156.496068,0.447388,1.78988850872,0,0,-0.671082,148, 0.3, 2.4,0,0,1024,1024,1024,1024,148.6,-89.9,97,3.869,3.91,3.907,3.892,3.884,3.891,20.408,77,14,Waypoint,
38.2848497,-120.344464,4540.2382528992,158.464572,0,1.44091540044,21700,2018-05-08 20:15:27,17,0,23.362,4540.2382528992,158.464572,0.447388,1.78988850872,0,0,-0.671082,148, 0.3, 2.9,0,0,1024,1024,1024,1024,148.6,-89.9,97,3.869,3.91,3.907,3.892,3.884,3.891,20.408,77,14,Waypoint,
38.2848497,-120.344464,4542.2067568992,160.433076,0,1.44091540044,21810,2018-05-08 20:15:27,17,0,23.362,4542.2067568992,160.433076,0.447388,1.78988850872,0,0,-0.671082,148.1, 0.3, 3.1,0,0,1024,1024,1024,1024,148.6,-90,97,3.869,3.91,3.907,3.892,3.884,3.891,20.408,77,14,Waypoint,
38.2848498,-120.3444639,4544.1752608992,162.40158,0,1.48204072984,22020,2018-05-08 20:15:28,17,0,23.337,4544.1752608992,162.40158,0.447388,1.78988850872,0,0,-0.671082,148.1, 0, 3,0,0,1024,1024,1024,1024,148.6,-90,97,3.87,3.914,3.9,3.881,3.885,3.894,20.408,77,14,Waypoint,
38.2848498,-120.3444639,4545.1595128992,163.385832,0,1.48204072984,22100,2018-05-08 20:15:28,17,0,23.337,4545.1595128992,163.385832,0.447388,1.78988850872,0,0,-0.671082,148.1, 0.1, 3.2,0,0,1024,1024,1024,1024,148.6,-89.9,97,3.87,3.914,3.9,3.881,3.885,3.894,20.408,77,14,Waypoint,
38.2848499,-120.3444638,4547.4561008992,165.68242,0,1.52346789652,22200,2018-05-08 20:15:28,17,0,23.337,4547.4561008992,165.68242,0.447388,1.78988850872,0,0,-0.671082,148.2, 0, 3.9,0,0,1024,1024,1024,1024,148.6,-90,97,3.87,3.914,3.9,3.881,3.885,3.894,20.408,77,14,Waypoint,
38.28485,-120.3444638,4548.4403528992,166.666672,0,1.53954729336,22400,2018-05-08 20:15:28,17,0,23.337,4548.4403528992,166.666672,0.447388,1.78988850872,0,0,-0.671082,148.2, 0, 3.7,0,0,1024,1024,1024,1024,148.6,-90,97,3.87,3.914,3.9,3.881,3.885,3.894,20.408,77,14,Waypoint,
38.28485,-120.3444638,4549.4246048992,167.650924,0,1.53954729336,22500,2018-05-08 20:15:28,17,0,23.337,4549.4246048992,167.650924,0.447388,1.78988850872,0,0,-0.671082,148.3, -0.1, 3.5,0,0,1024,1024,1024,1024,148.6,-89.9,97,3.87,3.914,3.9,3.881,3.885,3.894,20.408,77,14,Waypoint,
38.28485,-120.3444638,4552.0492768992,170.275596,0,1.53954729336,22700,2018-05-08 20:15:28,17,0,23.337,4552.0492768992,170.275596,0.447388,1.78988850872,0,0,-0.671082,148.4, 0.1, 3.3,0,0,1024,1024,1024,1024,148.6,-89.9,97,3.87,3.914,3.9,3.881,3.885,3.894,20.408,77,14,Waypoint,
38.28485,-120.3444638,4553.0335288992,171.259848,0,1.53954729336,22800,2018-05-08 20:15:28,17,0,23.337,4553.0335288992,171.259848,0.447388,1.78988850872,0,0,-0.671082,148.3, 0.1, 3.1,0,0,1024,1024,1024,1024,148.6,-90,97,3.87,3.914,3.9,3.881,3.885,3.894,20.408,77,14,Waypoint,
38.28485,-120.3444639,4554.0177808992,172.2441,0,1.51402891984,22900,2018-05-08 20:15:28,17,0,23.337,4554.0177808992,172.2441,0.447388,1.78988850872,0,0,-0.671082,148.1, 0, 2.8,0,0,1024,1024,1024,1024,148.6,-89.9,97,3.87,3.914,3.9,3.881,3.885,3.894,20.408,77,14,Waypoint,
38.28485,-120.344464,4555.0020328992,173.228352,0,1.48862865656,23000,2018-05-08 20:15:29,17,0,23.339,4555.0020328992,173.228352,0.447388,1.78988850872,0,0,-0.671082,148, 0, 2.7,0,0,1024,1024,1024,1024,148.6,-90,97,3.865,3.912,3.886,3.893,3.889,3.881,19.992,77,14,Waypoint,
38.28485,-120.344464,4556.9705368992,175.196856,0,1.48862865656,23200,2018-05-08 20:15:29,17,0,23.339,4556.9705368992,175.196856,0.447388,1.78988850872,0,0,-0.671082,147.7, 0, 2.6,0,0,1024,1024,1024,1024,148.6,-90,97,3.865,3.912,3.886,3.893,3.889,3.881,19.992,77,14,Waypoint,
38.28485,-120.3444641,4557.9547888992,176.181108,0,1.46334322268,23300,2018-05-08 20:15:29,17,0,23.339,4557.9547888992,176.181108,0.447388,1.78988850872,0,0,-0.671082,147.7, 0, 2.9,0,0,1024,1024,1024,1024,148.6,-89.9,97,3.865,3.912,3.886,3.893,3.889,3.881,19.992,77,14,Waypoint,
38.28485,-120.3444641,4558.9390408992,177.16536,0,1.46334322268,23400,2018-05-08 20:15:29,17,0,23.339,4558.9390408992,177.16536,0.447388,1.78988850872,0,0,-0.671082,147.7, 0.1, 3.1,0,0,1024,1024,1024,1024,148.6,-89.9,97,3.865,3.912,3.886,3.893,3.889,3.881,19.992,77,14,Waypoint,
38.28485,-120.3444641,4560.2513768992,178.477696,0,1.46334322268,23500,2018-05-08 20:15:29,17,0,23.339,4560.2513768992,178.477696,0.447388,1.78988850872,0,0,-0.671082,147.8, 0.2, 3.2,0,0,1024,1024,1024,1024,148.6,-89.9,97,3.865,3.912,3.886,3.893,3.889,3.881,19.992,77,14,Waypoint,
38.2848499,-120.3444641,4561.2356288992,179.461948,0,1.44641736912,23600,2018-05-08 20:15:29,17,0,23.339,4561.2356288992,179.461948,0.447388,1.78988850872,0,0,-0.671082,147.9, 0.4, 3.3,0,0,1024,1024,1024,1024,148.6,-89.9,97,3.865,3.912,3.886,3.893,3.889,3.881,19.992,77,14,Waypoint,
38.2848499,-120.3444641,4562.2198808992,180.4462,0,1.44641736912,23700,2018-05-08 20:15:29,17,0,23.339,4562.2198808992,180.4462,0.447388,1.78988850872,0,0,-0.671082,148, 0.5, 3.1,0,0,1024,1024,1024,1024,148.6,-89.9,97,3.865,3.912,3.886,3.893,3.889,3.881,19.992,77,14,Waypoint,
38.2848498,-120.3444641,4564.1883848992,182.414704,0,1.43022314288,23900,2018-05-08 20:15:29,17,0,23.339,4564.1883848992,182.414704,0.447388,1.78988850872,0,0,-0.671082,148.4, 0.4, 2.5,0,0,1024,1024,1024,1024,148.6,-89.9,97,3.865,3.912,3.886,3.893,3.889,3.881,19.992,77,14,Waypoint,
38.2848498,-120.3444641,4565.1726368992,183.398956,0,1.43022314288,24000,2018-05-08 20:15:30,17,0,23.301,4565.1726368992,183.398956,0.447388,1.78988850872,0,0,-0.671082,148.4, 0.3, 2.4,0,0,1024,1024,1024,1024,148.6,-89.9,97,3.867,3.905,3.896,3.892,3.893,3.88,20.267,77,14,Waypoint,
38.2848498,-120.3444641,4566.1568888992,184.383208,0,1.43022314288,24100,2018-05-08 20:15:30,17,0,23.301,4566.1568888992,184.383208,0.447388,1.78988850872,0,0,-0.671082,148.4, 0.4, 2.6,0,0,1024,1024,1024,1024,148.6,-89.9,97,3.867,3.905,3.896,3.892,3.893,3.88,20.267,77,14,Waypoint,
38.2848498,-120.3444641,4567.7973088992,186.023628,0,1.43022314288,24200,2018-05-08 20:15:30,17,0,23.301,4567.7973088992,186.023628,0.447388,1.78988850872,0,0,-0.671082,148.5, 0.5, 2.9,0,0,1024,1024,1024,1024,148.6,-89.9,97,3.867,3.905,3.896,3.892,3.893,3.88,20.267,77,14,Waypoint,
38.2848498,-120.344464,4569.7658128992,187.992132,0,1.45607944292,24400,2018-05-08 20:15:30,17,0,23.301,4569.7658128992,187.992132,0.447388,1.78988850872,0,0,-0.671082,148.5, 1.1, 2.9,0,0,1024,1024,1024,1024,148.6,-89.9,97,3.867,3.905,3.896,3.892,3.893,3.88,20.267,77,14,Waypoint,
38.2848498,-120.3444639,4570.7500648992,188.976384,0,1.48204072984,24500,2018-05-08 20:15:30,17,0,23.301,4570.7500648992,188.976384,0.447388,1.78988850872,0,0,-0.671082,148.5, 1.2, 3.3,0,0,1024,1024,1024,1024,148.6,-89.9,97,3.867,3.905,3.896,3.892,3.893,3.88,20.267,77,14,Waypoint,
38.2848498,-120.3444638,4572.7185688992,190.944888,0,1.50809716112,24700,2018-05-08 20:15:30,17,0,23.301,4572.7185688992,190.944888,0.447388,1.78988850872,0,0,-0.671082,148.3, 1.1, 4,0,0,1024,1024,1024,1024,148.6,-89.9,97,3.867,3.905,3.896,3.892,3.893,3.88,20.267,77,14,Waypoint,
38.2848497,-120.3444637,4573.7028208992,191.92914,0,1.5198655342,24800,2018-05-08 20:15:30,17,0,23.301,4573.7028208992,191.92914,0.447388,1.78988850872,0,0,-0.671082,148.2, 1.1, 4,0,0,1024,1024,1024,1024,148.6,-89.9,97,3.867,3.905,3.896,3.892,3.893,3.88,20.267,77,14,Waypoint,
38.2848497,-120.3444636,4574.6870728992,192.913392,0,1.54634519384,24900,2018-05-08 20:15:30,17,0,23.301,4574.6870728992,192.913392,0.447388,1.78988850872,0,0,-0.671082,148.2, 1.2, 3.9,0,0,1024,1024,1024,1024,148.6,-89.9,97,3.867,3.905,3.896,3.892,3.893,3.88,20.267,77,14,Waypoint,
38.2848497,-120.3444636,4575.6713248992,193.897644,0,1.54634519384,25010,2018-05-08 20:15:31,17,0,23.182,4575.6713248992,193.897644,0.447388,1.78988850872,0,0,-0.671082,148.3, 1.3, 3.7,0,0,1024,1024,1024,1024,148.6,-89.9,96,3.867,3.905,3.896,3.892,3.893,3.88,21.196,77,14,Waypoint,
38.2848496,-120.3444636,4576.6555768992,194.881896,0,1.53294296244,25110,2018-05-08 20:15:31,17,0,23.182,4576.6555768992,194.881896,0.447388,1.78988850872,0,0,-0.671082,148.4, 1.4, 3.2,0,0,1024,1024,1024,1024,148.6,-89.9,96,3.867,3.905,3.896,3.892,3.893,3.88,21.196,77,14,Waypoint,
38.2848496,-120.3444636,4577.6398288992,195.866148,0,1.53294296244,25200,2018-05-08 20:15:31,17,0,23.182,4577.6398288992,195.866148,0.447388,1.78988850872,0,0,-0.671082,148.4, 1.6, 2.9,0,0,1024,1024,1024,1024,148.6,-89.9,96,3.867,3.905,3.896,3.892,3.893,3.88,21.196,77,14,Waypoint,
38.2848495,-120.3444636,4578.6240808992,196.8504,0,1.52030188592,25300,2018-05-08 20:15:31,17,0,23.182,4578.6240808992,196.8504,0.447388,1.78988850872,0,0,-0.671082,148.5, 1.6, 2.7,0,0,1024,1024,1024,1024,148.6,-89.9,96,3.867,3.905,3.896,3.892,3.893,3.88,21.196,77,14,Waypoint,
38.2848495,-120.3444636,4579.6083328992,197.834652,0,1.52030188592,25400,2018-05-08 20:15:31,17,0,23.182,4579.6083328992,197.834652,0.447388,1.78988850872,0,0,-0.671082,148.5, 1.4, 2.7,0,0,1024,1024,1024,1024,148.6,-89.9,96,3.867,3.905,3.896,3.892,3.893,3.88,21.196,77,14,Waypoint,
38.2848495,-120.3444636,4580.5925848992,198.818904,0,1.52030188592,25500,2018-05-08 20:15:31,17,0,23.182,4580.5925848992,198.818904,0.447388,1.78988850872,0,0,-0.671082,148.5, 1.2, 3,0,0,1024,1024,1024,1024,148.6,-89.9,96,3.867,3.905,3.896,3.892,3.893,3.88,21.196,77,14,Waypoint,
38.2848494,-120.3444636,4581.2487528992,199.475072,0,1.50843508764,25600,2018-05-08 20:15:31,17,0,23.182,4581.2487528992,199.475072,0.447388,1.78988850872,0,0,-0.671082,148.4, 1.2, 3.2,0,0,1024,1024,1024,1024,148.6,-89.9,96,3.867,3.905,3.896,3.892,3.893,3.88,21.196,77,14,Waypoint,
38.2848494,-120.3444636,4582.2330048992,200.459324,0,1.50843508764,25700,2018-05-08 20:15:31,17,0,23.182,4582.2330048992,200.459324,0.447388,1.78988850872,0,0,-0.671082,148.4, 1.4, 3.2,0,0,1024,1024,1024,1024,148.6,-89.9,96,3.867,3.905,3.896,3.892,3.893,3.88,21.196,77,14,Waypoint,
38.2848493,-120.3444636,4583.2172568992,201.443576,0,1.49736225264,25800,2018-05-08 20:15:31,17,0,23.182,4583.2172568992,201.443576,0.447388,1.78988850872,0,0,-0.671082,148.4, 1.7, 3.1,0,0,1024,1024,1024,1024,148.6,-89.9,96,3.867,3.905,3.896,3.892,3.893,3.88,21.196,77,14,Waypoint,
38.2848493,-120.3444636,4584.5295928992,202.755912,0,1.49736225264,26000,2018-05-08 20:15:32,17,0,23.182,4584.5295928992,202.755912,0.447388,1.78988850872,0,0,-0.671082,148.4, 1.8, 3,0,0,1024,1024,1024,1024,148.6,-89.9,96,3.819,3.874,3.861,3.861,3.854,3.872,21.196,78.8,14,Waypoint,
38.2848492,-120.3444636,4585.5138448992,203.740164,0,1.48710306596,26100,2018-05-08 20:15:32,17,0,23.182,4585.5138448992,203.740164,0.447388,1.78988850872,0,0,-0.671082,148.5, 2, 3,0,0,1024,1024,1024,1024,148.6,-89.9,96,3.819,3.874,3.861,3.861,3.854,3.872,21.196,78.8,14,Waypoint,
38.2848492,-120.3444636,4586.4980968992,204.724416,0,1.48710306596,26200,2018-05-08 20:15:32,17,0,23.182,4586.4980968992,204.724416,0.447388,1.78988850872,0,0,-0.671082,148.4, 2, 3,0,0,1024,1024,1024,1024,148.6,-89.9,96,3.819,3.874,3.861,3.861,3.854,3.872,21.196,78.8,14,Waypoint,
38.2848491,-120.3444636,4587.4823488992,205.708668,0,1.4776739318,26300,2018-05-08 20:15:32,17,0,23.182,4587.4823488992,205.708668,0.447388,1.78988850872,0,0,-0.671082,148.3, 1.9, 3.2,0,0,1024,1024,1024,1024,148.6,-89.9,96,3.819,3.874,3.861,3.861,3.854,3.872,21.196,78.8,14,Waypoint,
38.2848491,-120.3444636,4589.4508528992,207.677172,0,1.4776739318,26400,2018-05-08 20:15:32,17,0,23.182,4589.4508528992,207.677172,0.447388,1.78988850872,0,0,-0.671082,148.2, 1.2, 3.1,0,0,1024,1024,1024,1024,148.6,-90,96,3.819,3.874,3.861,3.861,3.854,3.872,21.196,78.8,14,Waypoint,
38.2848491,-120.3444635,4591.4193568992,209.645676,0,1.50544296156,26610,2018-05-08 20:15:32,17,0,23.182,4591.4193568992,209.645676,0.447388,1.78988850872,0,0,-0.671082,148.2, 1.8, 3.7,0,0,1024,1024,1024,1024,148.6,-89.9,96,3.819,3.874,3.861,3.861,3.854,3.872,21.196,78.8,14,Waypoint,
38.2848491,-120.3444635,4592.4036088992,210.629928,0,1.50544296156,26700,2018-05-08 20:15:32,17,0,23.182,4592.4036088992,210.629928,0.447388,1.78988850872,0,0,-0.671082,148.2, 1.9, 3.9,0,0,1024,1024,1024,1024,148.6,-89.9,96,3.819,3.874,3.861,3.861,3.854,3.872,21.196,78.8,14,Waypoint,
38.284849,-120.3444634,4593.3878608992,211.61418,0,1.52497380208,26800,2018-05-08 20:15:32,17,0,23.182,4593.3878608992,211.61418,0.447388,1.78988850872,0,0,-0.671082,148.3, 1.9, 3.9,0,0,1024,1024,1024,1024,148.6,-89.9,96,3.819,3.874,3.861,3.861,3.854,3.872,21.196,78.8,14,Waypoint,
38.284849,-120.3444634,4594.3721128992,212.598432,0,1.52497380208,26900,2018-05-08 20:15:32,17,0,23.182,4594.3721128992,212.598432,0.447388,1.78988850872,0,0,-0.671082,148.4, 2, 3.7,0,0,1024,1024,1024,1024,148.6,-89.9,96,3.819,3.874,3.861,3.861,3.854,3.872,21.196,78.8,14,Waypoint,
38.284849,-120.3444633,4595.3563648992,213.582684,0,1.5529528056,27000,2018-05-08 20:15:33,17,0,23.069,4595.3563648992,213.582684,0.447388,1.78988850872,0,0,-0.671082,148.5, 2.1, 3.8,0,0,1024,1024,1024,1024,148.6,-89.9,96,3.804,3.87,3.848,3.846,3.84,3.834,22.61,78.8,14,Waypoint,
38.2848489,-120.3444632,4597.3248688992,215.551188,0,1.57378285876,27200,2018-05-08 20:15:33,17,0,23.069,4597.3248688992,215.551188,0.447388,1.78988850872,0,0,-0.671082,148.2, 2.2, 4,0,0,1024,1024,1024,1024,148.6,-89.9,96,3.804,3.87,3.848,3.846,3.84,3.834,22.61,78.8,14,Waypoint,
38.2848489,-120.3444631,4598.3091208992,216.53544,0,1.60193246596,27300,2018-05-08 20:15:33,17,0,23.069,4598.3091208992,216.53544,0.447388,1.78988850872,0,0,-0.671082,148.1, 2.2, 3.9,0,0,1024,1024,1024,1024,148.6,-89.9,96,3.804,3.87,3.848,3.846,3.84,3.834,22.61,78.8,14,Waypoint,
38.2848489,-120.344463,4599.2933728992,217.519692,0,1.6301017582,27400,2018-05-08 20:15:33,17,0,23.069,4599.2933728992,217.519692,0.447388,1.78988850872,0,0,-0.671082,148.1, 2.5, 3.8,0,0,1024,1024,1024,1024,148.6,-89.9,96,3.804,3.87,3.848,3.846,3.84,3.834,22.61,78.8,14,Waypoint,
38.2848488,-120.344463,4600.2776248992,218.503944,0,1.62396330656,27510,2018-05-08 20:15:33,17,0,23.069,4600.2776248992,218.503944,0.447388,1.78988850872,0,0,-0.671082,148.2, 2.8, 3.9,0,0,1024,1024,1024,1024,148.6,-89.9,96,3.804,3.87,3.848,3.846,3.84,3.834,22.61,78.8,14,Waypoint,
38.2848488,-120.3444628,4602.2461288992,220.472448,0,1.68055123488,27700,2018-05-08 20:15:33,17,0,23.069,4602.2461288992,220.472448,0.447388,1.78988850872,0,0,-0.671082,148.4, 2.6, 4.5,0,0,1024,1024,1024,1024,148.6,-89.9,96,3.804,3.87,3.848,3.846,3.84,3.834,22.61,78.8,14,Waypoint,
38.2848488,-120.3444628,4603.5584648992,221.784784,0,1.68055123488,27800,2018-05-08 20:15:33,17,0,23.069,4603.5584648992,221.784784,0.447388,1.78988850872,0,0,-0.671082,148.4, 2.4, 4.3,0,0,1024,1024,1024,1024,148.6,-89.9,96,3.804,3.87,3.848,3.846,3.84,3.834,22.61,78.8,14,Waypoint,
38.2848488,-120.3444628,4604.5427168992,222.769036,0,1.68055123488,27910,2018-05-08 20:15:33,17,0,23.069,4604.5427168992,222.769036,0.447388,1.78988850872,0,0,-0.671082,148.3, 2.1, 4.3,0,0,1024,1024,1024,1024,148.6,-89.9,96,3.804,3.87,3.848,3.846,3.84,3.834,22.61,78.8,14,Waypoint,
38.2848488,-120.3444628,4605.5269688992,223.753288,0,1.68055123488,28000,2018-05-08 20:15:34,17,0,23.073,4605.5269688992,223.753288,0.447388,1.78988850872,0,0,-0.671082,148.2, 2.1, 4.2,0,0,1024,1024,1024,1024,148.6,-89.9,96,3.808,3.86,3.844,3.842,3.839,3.849,22.324,78.8,14,Waypoint,
38.2848488,-120.3444628,4607.4954728992,225.721792,0,1.68055123488,28210,2018-05-08 20:15:34,17,0,23.073,4607.4954728992,225.721792,0.447388,1.78988850872,0,0,-0.671082,148.2, 2.1, 3.7,0,0,1024,1024,1024,1024,148.6,-89.9,96,3.808,3.86,3.844,3.842,3.839,3.849,22.324,78.8,14,Waypoint,
38.2848489,-120.344463,4609.4639768992,227.690296,0,1.6301017582,28400,2018-05-08 20:15:34,17,0,23.073,4609.4639768992,227.690296,0.447388,1.78988850872,0,0,-0.671082,148.1, 1.3, 3.3,0,0,1024,1024,1024,1024,148.6,-90,96,3.808,3.86,3.844,3.842,3.839,3.849,22.324,78.8,14,Waypoint,
38.2848489,-120.344463,4610.7763128992,229.002632,0,1.6301017582,28600,2018-05-08 20:15:34,17,0,23.073,4610.7763128992,229.002632,0.447388,1.78988850872,0,0,-0.671082,148.1, 1.2, 3.3,0,0,1024,1024,1024,1024,148.6,-90,96,3.808,3.86,3.844,3.842,3.839,3.849,22.324,78.8,14,Waypoint,
38.2848489,-120.344463,4611.7605648992,229.986884,0,1.6301017582,28700,2018-05-08 20:15:34,17,0,23.073,4611.7605648992,229.986884,0.447388,1.78988850872,0,0,-0.671082,148.1, 1.2, 3.6,0,0,1024,1024,1024,1024,148.6,-89.9,96,3.808,3.86,3.844,3.842,3.839,3.849,22.324,78.8,14,Waypoint,
38.284849,-120.344463,4612.7448168992,230.971136,0,1.63702761144,28800,2018-05-08 20:15:34,17,0,23.073,4612.7448168992,230.971136,0.447388,1.78988850872,0,0,-0.671082,148, 1.4, 4,0,0,1024,1024,1024,1024,148.6,-89.9,96,3.808,3.86,3.844,3.842,3.839,3.849,22.324,78.8,14,Waypoint,
38.284849,-120.344463,4613.7290688992,231.955388,0,1.63702761144,28900,2018-05-08 20:15:34,17,0,23.073,4613.7290688992,231.955388,0.447388,1.78988850872,0,0,-0.671082,147.8, 1.6, 4.2,0,0,1024,1024,1024,1024,148.6,-89.9,96,3.808,3.86,3.844,3.842,3.839,3.849,22.324,78.8,14,Waypoint,
38.2848491,-120.3444631,4615.6975728992,233.923892,0,1.61682091788,29000,2018-05-08 20:15:35,17,0,23.042,4615.6975728992,233.923892,0.447388,1.78988850872,0,0,-0.671082,147.7, 1.2, 3.9,0,0,1024,1024,1024,1024,148.6,-90,96,3.801,3.861,3.84,3.835,3.835,3.831,22.851,78.8,14,Waypoint,
38.2848491,-120.3444631,4616.6818248992,234.908144,0,1.61682091788,29100,2018-05-08 20:15:35,17,0,23.042,4616.6818248992,234.908144,0.447388,1.78988850872,0,0,-0.671082,147.8, 1.1, 3.7,0,0,1024,1024,1024,1024,148.6,-89.9,96,3.801,3.861,3.84,3.835,3.835,3.831,22.851,78.8,14,Waypoint,
38.2848491,-120.3444632,4617.3379928992,235.564312,0,1.58893377788,29200,2018-05-08 20:15:35,17,0,23.042,4617.3379928992,235.564312,0.447388,1.78988850872,0,0,-0.671082,147.9, 0.9, 3.5,0,0,1024,1024,1024,1024,148.6,-89.9,96,3.801,3.861,3.84,3.835,3.835,3.831,22.851,78.8,14,Waypoint,
38.2848492,-120.3444632,4619.3064968992,237.532816,0,1.59770674404,29400,2018-05-08 20:15:35,17,0,23.042,4619.3064968992,237.532816,0.447388,1.78988850872,0,0,-0.671082,148.2, 0.9, 3.4,0,0,1024,1024,1024,1024,148.6,-90,96,3.801,3.861,3.84,3.835,3.835,3.831,22.851,78.8,14,Waypoint,
38.2848492,-120.3444632,4620.2907488992,238.517068,0,1.59770674404,29500,2018-05-08 20:15:35,17,0,23.042,4620.2907488992,238.517068,0.447388,1.78988850872,0,0,-0.671082,148.4, 0.9, 3.6,0,0,1024,1024,1024,1024,148.6,-90,96,3.801,3.861,3.84,3.835,3.835,3.831,22.851,78.8,14,Waypoint,
38.2848492,-120.3444632,4620.9469168992,239.173236,0,1.59770674404,29600,2018-05-08 20:15:35,17,0,23.042,4620.9469168992,239.173236,0.447388,1.78988850872,0,0,-0.671082,148.5, 0.9, 3.8,0,0,1024,1024,1024,1024,148.6,-90,96,3.801,3.861,3.84,3.835,3.835,3.831,22.851,78.8,14,Waypoint,
38.2848492,-120.3444632,4621.9311688992,240.157488,0,1.59770674404,29700,2018-05-08 20:15:35,17,0,23.042,4621.9311688992,240.157488,0.447388,1.78988850872,0,0,-0.671082,148.6, 1.1, 3.6,0,0,1024,1024,1024,1024,148.6,-89.9,96,3.801,3.861,3.84,3.835,3.835,3.831,22.851,78.8,14,Waypoint,
