latitude,longitude,altitude(feet),ascent(feet),speed(mph),distance(feet),time(millisecond),datetime(utc),satellites,gpslevel,voltage(v),max_altitude(feet),max_ascent(feet),max_speed(mph),max_distance(feet), xSpeed(mph), ySpeed(mph), zSpeed(mph), compass_heading(degrees), pitch(degrees), roll(degrees),isPhoto,isVideo,rc_elevator,rc_aileron,rc_throttle,rc_rudder,gimbal_heading(degrees),gimbal_pitch(degrees),battery_percent,voltageCell1,voltageCell2,voltageCell3,voltageCell4,voltageCell5,voltageCell6,current(A),battery_temperature(f),flycStateRaw,flycState,message
38.2848469,-120.344468,4381.6891769595,0,0.223694,0,3480,2018-05-08 19:55:42,15,0,0,4381.6891769595,0,0.223694,0,0,0,0,147.1, -0.1, -0.4,1,0,1024,1024,1024,1024,146.1,-89.9,98,4.149,4.143,4.132,4.176,4.168,4.158,0,75.2,11,AutoTakeoff,DJI_0001.jpg Starting Mission from Lat/Long: 38.28483/-120.34449 Camera: Zenmuse X3 - Overlap: 90/90 - Active Connection: No
38.2848469,-120.344468,4381.6891769595,0,0.223694,0,3500,2018-05-08 19:55:42,15,0,0,4381.6891769595,0,0.223694,0,0,0,0,147.1, -0.1, -0.4,0,0,1024,1024,1024,1024,146.1,-89.9,98,4.149,4.143,4.132,4.176,4.168,4.158,0,75.2,11,AutoTakeoff,
38.2848469,-120.3444679,4381.6891769595,0,0.223694,0.0286384851684,3600,2018-05-08 19:55:42,15,0,0,4381.6891769595,0,0.223694,0.0286384851684,0,0,0,147.1, 0, -0.3,0,0,1024,1024,1024,1024,146,-89.9,98,4.149,4.143,4.132,4.176,4.168,4.158,0,75.2,11,AutoTakeoff,
38.2848471,-120.3444674,4382.0172609595,0.328084,0.223694,0.186682748756,3800,2018-05-08 19:55:42,15,0,0,4382.0172609595,0.328084,0.223694,0.186682748756,0,0,0,147.2, 0.2, 0.7,0,0,1024,1024,1024,1024,146,-89.9,98,4.149,4.143,4.132,4.176,4.168,4.158,0,75.2,11,AutoTakeoff,
38.2848474,-120.3444668,4382.3453449595,0.656168,0.223694,0.38907809644,3900,2018-05-08 19:55:42,14,0,0,4382.3453449595,0.656168,0.223694,0.38907809644,0,0,0,147.2, 0.7, 2,0,0,1024,1024,1024,1024,146.1,-89.9,98,4.149,4.143,4.132,4.176,4.168,4.158,0,75.2,11,AutoTakeoff,
38.2848474,-120.3444665,4383.0015129595,1.312336,0.223694,0.46670605168,4100,2018-05-08 19:55:42,15,0,0,4383.0015129595,1.312336,0.223694,0.46670605168,0,0,0,147.2, 0.5, 2.2,0,0,1024,1024,1024,1024,146,-89.9,98,4.149,4.143,4.132,4.176,4.168,4.158,0,75.2,11,AutoTakeoff,
38.2848476,-120.344466,4383.3295969595,1.64042,0.223694,0.62712928516,4200,2018-05-08 19:55:42,15,0,0,4383.3295969595,1.64042,0.223694,0.62712928516,0,0,0,147.4, 1, 2,0,0,1024,1024,1024,1024,146,-89.9,98,4.149,4.143,4.132,4.176,4.168,4.158,0,75.2,11,AutoTakeoff,
38.2848476,-120.3444657,4383.6576809595,1.968504,0.223694,0.70646655804,4410,2018-05-08 19:55:43,15,0,0,4383.6576809595,1.968504,0.223694,0.70646655804,0,0,0,147.5, 0.9, 1.6,0,0,1024,1024,1024,1024,146,-89.9,98,4.149,4.143,4.132,4.176,4.168,4.158,0,75.2,11,AutoTakeoff,
38.2848477,-120.3444657,4383.6576809595,1.968504,0.223694,0.72045934064,4500,2018-05-08 19:55:43,15,0,0,4383.6576809595,1.968504,0.223694,0.72045934064,0,0,0,147.5, 0.8, 1.4,0,0,1024,1024,1024,1024,146,-89.9,98,4.149,4.143,4.132,4.176,4.168,4.158,0,75.2,11,AutoTakeoff,
38.2848478,-120.3444656,4383.9857649595,2.296588,0,0.76173230784,4700,2018-05-08 19:55:43,15,0,0,4383.9857649595,2.296588,0.223694,0.76173230784,0,0,-0.223694,147.5, 0.5, 1.3,0,0,1024,1024,1024,1024,146.1,-89.9,98,4.149,4.143,4.132,4.176,4.168,4.158,0,75.2,11,AutoTakeoff,
38.2848478,-120.3444654,4383.9857649595,2.296588,0.223694,0.81378939612,4800,2018-05-08 19:55:43,15,0,0,4383.9857649595,2.296588,0.223694,0.81378939612,0,0,-0.223694,147.5, 0.5, 1.4,0,0,1024,1024,1024,1024,146,-89.9,98,4.149,4.143,4.132,4.176,4.168,4.158,0,75.2,11,AutoTakeoff,
38.2848478,-120.3444652,4384.3138489595,2.624672,0.223694,0.86650593324,4900,2018-05-08 19:55:43,15,0,0,4384.3138489595,2.624672,0.223694,0.86650593324,0,0,-0.223694,147.5, 0.6, 1.6,0,0,1024,1024,1024,1024,146.1,-89.9,98,4.149,4.143,4.132,4.176,4.168,4.158,0,75.2,11,AutoTakeoff,
38.2848479,-120.3444651,4384.3138489595,2.624672,0.223694,0.90712273244,5000,2018-05-08 19:55:43,15,0,25.196,4384.3138489595,2.624672,0.223694,0.90712273244,0,0,-0.223694,147.5, 0.8, 1.7,0,0,1024,1024,1024,1024,146,-89.9,98,4.149,4.143,4.132,4.176,4.168,4.158,5.937,75.2,11,AutoTakeoff,
38.284848,-120.344465,4384.6419329595,2.952756,0,0.94827102772,5110,2018-05-08 19:55:43,15,0,25.196,4384.6419329595,2.952756,0.223694,0.94827102772,0,0,-0.223694,147.4, 0.9, 1.8,0,0,1024,1024,1024,1024,146.1,-89.9,98,4.149,4.143,4.132,4.176,4.168,4.158,5.937,75.2,14,Waypoint,
38.2848479,-120.3444649,4384.9700169595,3.28084,0,0.95983926956,5210,2018-05-08 19:55:43,15,0,25.196,4384.9700169595,3.28084,0.223694,0.95983926956,0,0,0,147.2, 1.2, 1.8,0,0,1024,1024,1024,1024,146.1,-89.9,98,4.149,4.143,4.132,4.176,4.168,4.158,5.937,75.2,14,Waypoint,
38.2848479,-120.3444648,4384.9700169595,3.28084,0,0.98638782684,5300,2018-05-08 19:55:43,15,0,25.196,4384.9700169595,3.28084,0.223694,0.98638782684,0,0,0,147, 1.5, 1.5,0,0,1024,1024,1024,1024,146.1,-89.9,98,4.149,4.143,4.132,4.176,4.168,4.158,5.937,75.2,14,Waypoint,
38.2848479,-120.3444648,4384.9700169595,3.28084,0,0.98638782684,5500,2018-05-08 19:55:44,15,0,25.196,4384.9700169595,3.28084,0.223694,0.98638782684,0,0,0,146.8, 1.4, 1.3,0,0,1024,1024,1024,1024,146.1,-89.9,98,4.149,4.143,4.132,4.176,4.168,4.158,5.937,75.2,14,Waypoint,
38.284848,-120.3444647,4385.2981009595,3.608924,0,1.0267552822,5610,2018-05-08 19:55:44,15,0,25.196,4385.2981009595,3.608924,0.223694,1.0267552822,0,0,0,146.5, 1, 1,0,0,1024,1024,1024,1024,146.1,-89.9,98,4.149,4.143,4.132,4.176,4.168,4.158,5.937,75.2,14,Waypoint,
38.2848481,-120.3444647,4385.2981009595,3.608924,0,1.04155843228,5700,2018-05-08 19:55:44,15,0,25.196,4385.2981009595,3.608924,0.223694,1.04155843228,0,0,-0.223694,146.5, 0.7, 1.1,0,0,1024,1024,1024,1024,146.1,-90,98,4.149,4.143,4.132,4.176,4.168,4.158,5.937,75.2,14,Waypoint,
38.2848481,-120.3444646,4385.6261849595,3.937008,0,1.06761158272,5900,2018-05-08 19:55:44,15,0,25.196,4385.6261849595,3.937008,0.223694,1.06761158272,0,0,-0.223694,146.4, 0.4, 1.1,0,0,1024,1024,1024,1024,146.1,-90,98,4.149,4.143,4.132,4.176,4.168,4.158,5.937,75.2,14,Waypoint,
38.2848481,-120.3444646,4385.9542689595,4.265092,0,1.06761158272,6000,2018-05-08 19:55:44,15,0,24.264,4385.9542689595,4.265092,0.223694,1.06761158272,0,0,-0.223694,146.4, 0.2, 1.1,0,0,1024,1024,1024,1024,146.1,-90,98,4.021,4.019,4.024,4.058,4.053,4.032,16.422,75.2,14,Waypoint,
38.2848482,-120.3444646,4386.2823529595,4.593176,0,1.08308402416,6100,2018-05-08 19:55:44,15,0,24.264,4386.2823529595,4.593176,0.223694,1.08308402416,0,0,-0.223694,146.4, 0.2, 1,0,0,1024,1024,1024,1024,146.1,-90,98,4.021,4.019,4.024,4.058,4.053,4.032,16.422,75.2,14,Waypoint,
38.2848482,-120.3444646,4386.9385209595,5.249344,0,1.08308402416,6200,2018-05-08 19:55:44,15,0,24.264,4386.9385209595,5.249344,0.223694,1.08308402416,0,0,-0.223694,146.4, 0.3, 1,0,0,1024,1024,1024,1024,146.1,-89.9,98,4.021,4.019,4.024,4.058,4.053,4.032,16.422,75.2,14,Waypoint,
38.2848482,-120.3444645,4387.2666049595,5.577428,0,1.10890423496,6300,2018-05-08 19:55:44,15,0,24.264,4387.2666049595,5.577428,0.223694,1.10890423496,0,0,-0.447388,146.5, 0.5, 1,0,0,1024,1024,1024,1024,146.1,-89.9,98,4.021,4.019,4.024,4.058,4.053,4.032,16.422,75.2,14,Waypoint,
38.2848482,-120.3444643,4389.2351089595,7.545932,0,1.16093507652,6400,2018-05-08 19:55:45,15,0,24.264,4389.2351089595,7.545932,0.223694,1.16093507652,0,0,-0.447388,146.7, 1.1, 1.3,0,0,1024,1024,1024,1024,146.1,-89.9,98,4.021,4.019,4.024,4.058,4.053,4.032,16.422,75.2,14,Waypoint,
38.2848482,-120.3444642,4390.2193609595,8.530184,0,1.18713258392,6500,2018-05-08 19:55:45,15,0,24.264,4390.2193609595,8.530184,0.223694,1.18713258392,0,0,-0.447388,146.6, 1, 1.2,0,0,1024,1024,1024,1024,146.1,-89.9,98,4.021,4.019,4.024,4.058,4.053,4.032,16.422,75.2,14,Waypoint,
38.2848482,-120.3444642,4390.8755289595,9.186352,0,1.18713258392,6600,2018-05-08 19:55:45,14,0,24.264,4390.8755289595,9.186352,0.223694,1.18713258392,0,0,-0.671082,146.6, 0.8, 1.1,0,0,1024,1024,1024,1024,146.1,-89.9,98,4.021,4.019,4.024,4.058,4.053,4.032,16.422,75.2,14,Waypoint,
38.2848482,-120.3444641,4391.8597809595,10.170604,0,1.21343835904,6700,2018-05-08 19:55:45,14,0,24.264,4391.8597809595,10.170604,0.223694,1.21343835904,0,0,-0.671082,146.7, 0.9, 1,0,0,1024,1024,1024,1024,146.1,-89.9,98,4.021,4.019,4.024,4.058,4.053,4.032,16.422,75.2,14,Waypoint,
38.2848481,-120.3444641,4393.8282849595,12.139108,0,1.19964898852,6800,2018-05-08 19:55:45,14,0,24.264,4393.8282849595,12.139108,0.223694,1.21343835904,0,0,-0.671082,146.9, 0.8, 1.3,0,0,1024,1024,1024,1024,146.1,-89.9,98,4.021,4.019,4.024,4.058,4.053,4.032,16.422,75.2,14,Waypoint,
38.2848481,-120.3444641,4394.8125369595,13.12336,0,1.19964898852,6900,2018-05-08 19:55:45,15,0,24.264,4394.8125369595,13.12336,0.223694,1.21343835904,0,0,-0.671082,147, 1, 0.9,0,0,1024,1024,1024,1024,146.1,-89.9,98,4.021,4.019,4.024,4.058,4.053,4.032,16.422,75.2,14,Waypoint,
38.284848,-120.3444641,4396.1248729595,14.435696,0,1.18681762328,7000,2018-05-08 19:55:45,15,0,23.871,4396.1248729595,14.435696,0.223694,1.21343835904,0,0,-0.671082,147, 1.1, 0.7,0,0,1024,1024,1024,1024,146.1,-89.9,97,3.879,3.959,3.92,4.002,3.987,3.944,23.834,75.2,14,Waypoint,
38.284848,-120.3444641,4397.1091249595,15.419948,0,1.18681762328,7100,2018-05-08 19:55:45,15,0,23.871,4397.1091249595,15.419948,0.223694,1.21343835904,0,0,-0.671082,147, 1.1, 0.6,0,0,1024,1024,1024,1024,146.1,-89.9,97,3.879,3.959,3.92,4.002,3.987,3.944,23.834,75.2,14,Waypoint,
38.2848479,-120.3444641,4398.4214609595,16.732284,0,1.1749836334,7200,2018-05-08 19:55:45,15,0,23.871,4398.4214609595,16.732284,0.223694,1.21343835904,0,0,-0.671082,146.9, 1.2, 0.4,0,0,1024,1024,1024,1024,146.1,-89.9,97,3.879,3.959,3.92,4.002,3.987,3.944,23.834,75.2,14,Waypoint,
38.2848479,-120.3444642,4399.4057129595,17.716536,0,1.14779531232,7300,2018-05-08 19:55:45,12,0,23.871,4399.4057129595,17.716536,0.223694,1.21343835904,0,0,-0.671082,146.7, 1.2, 0.2,0,0,1024,1024,1024,1024,146.1,-89.9,97,3.879,3.959,3.92,4.002,3.987,3.944,23.834,75.2,14,Waypoint,
38.284848,-120.3444643,4400.7180489595,19.028872,0,1.13308074492,7400,2018-05-08 19:55:46,12,0,23.871,4400.7180489595,19.028872,0.223694,1.21343835904,0,0,-0.671082,146.6, 1.1, 0.2,0,0,1024,1024,1024,1024,146.1,-89.9,97,3.879,3.959,3.92,4.002,3.987,3.944,23.834,75.2,14,Waypoint,
38.284848,-120.3444644,4401.7023009595,20.013124,0,1.10634517976,7500,2018-05-08 19:55:46,13,0,23.871,4401.7023009595,20.013124,0.223694,1.21343835904,0,0,-0.671082,146.5, 0.8, 0.2,0,0,1024,1024,1024,1024,146.1,-90,97,3.879,3.959,3.92,4.002,3.987,3.944,23.834,75.2,14,Waypoint,
38.284848,-120.3444645,4402.6865529595,20.997376,0,1.0797080398,7600,2018-05-08 19:55:46,13,0,23.871,4402.6865529595,20.997376,0.223694,1.21343835904,0,0,-0.671082,146.5, 0.3, 0.2,0,0,1024,1024,1024,1024,146.1,-90,97,3.879,3.959,3.92,4.002,3.987,3.944,23.834,75.2,14,Waypoint,
38.284848,-120.3444647,4403.6708049595,21.981628,0,1.0267552822,7700,2018-05-08 19:55:46,13,0,23.871,4403.6708049595,21.981628,0.223694,1.21343835904,0,0,-0.671082,146.5, 0.1, 0.1,0,0,1024,1024,1024,1024,146.1,-89.9,97,3.879,3.959,3.92,4.002,3.987,3.944,23.834,75.2,14,Waypoint,
38.2848479,-120.3444649,4404.9831409595,23.293964,0,0.95983926956,7800,2018-05-08 19:55:46,13,0,23.871,4404.9831409595,23.293964,0.223694,1.21343835904,0,0,-0.671082,146.6, 0.1, 0,0,0,1024,1024,1024,1024,146.1,-90,97,3.879,3.959,3.92,4.002,3.987,3.944,23.834,75.2,14,Waypoint,
38.2848478,-120.3444651,4405.9673929595,24.278216,0,0.89307417556,7900,2018-05-08 19:55:46,13,0,23.871,4405.9673929595,24.278216,0.223694,1.21343835904,0,0,-0.671082,146.7, 0.1, -0.6,0,0,1024,1024,1024,1024,146.1,-89.9,97,3.879,3.959,3.92,4.002,3.987,3.944,23.834,75.2,14,Waypoint,
38.2848477,-120.3444653,4406.9516449595,25.262468,0,0.8264928086,8100,2018-05-08 19:55:46,13,0,23.871,4406.9516449595,25.262468,0.223694,1.21343835904,0,0,-0.671082,146.7, 0.3, -0.9,0,0,1024,1024,1024,1024,146.1,-89.9,97,3.879,3.959,3.92,4.002,3.987,3.944,23.834,75.2,14,Waypoint,
38.2848476,-120.3444654,4408.2639809595,26.574804,0,0.78718178372,8200,2018-05-08 19:55:46,14,0,23.871,4408.2639809595,26.574804,0.223694,1.21343835904,0,0,-0.671082,146.8, 0.7, -1.1,0,0,1024,1024,1024,1024,146.1,-89.9,97,3.879,3.959,3.92,4.002,3.987,3.944,23.834,75.2,14,Waypoint,
38.2848476,-120.3444655,4409.2482329595,27.559056,0,0.76015094296,8300,2018-05-08 19:55:46,14,0,23.871,4409.2482329595,27.559056,0.223694,1.21343835904,0,0,-0.671082,147, 1, -1.3,0,0,1024,1024,1024,1024,146.1,-89.9,97,3.879,3.959,3.92,4.002,3.987,3.944,23.834,75.2,14,Waypoint,
38.2848476,-120.3444656,4410.2324849595,28.543308,0,0.73323821244,8410,2018-05-08 19:55:47,14,0,23.871,4410.2324849595,28.543308,0.223694,1.21343835904,0,0,-0.671082,147.2, 1.2, -1.2,0,0,1024,1024,1024,1024,146.1,-89.9,97,3.879,3.959,3.92,4.002,3.987,3.944,23.834,75.2,14,Waypoint,
38.2848476,-120.3444656,4410.2324849595,28.543308,0,0.73323821244,8500,2018-05-08 19:55:47,14,0,23.871,4410.2324849595,28.543308,0.223694,1.21343835904,0,0,-0.671082,147.2, 1.2, -1.2,0,0,1024,1024,1024,1024,146.1,-89.9,97,3.879,3.959,3.92,4.002,3.987,3.944,23.834,75.2,14,Waypoint,
38.2848475,-120.3444657,4411.2167369595,29.52756,0,0.6941109146,8600,2018-05-08 19:55:47,14,0,23.871,4411.2167369595,29.52756,0.223694,1.21343835904,0,0,-0.671082,147.4, 1.2, -0.8,0,0,1024,1024,1024,1024,146.1,-89.9,97,3.879,3.959,3.92,4.002,3.987,3.944,23.834,75.2,14,Waypoint,
38.2848475,-120.3444658,4412.5290729595,30.839896,0,0.666994772,8700,2018-05-08 19:55:47,15,0,23.871,4412.5290729595,30.839896,0.223694,1.21343835904,0,0,-0.671082,147.5, 1.3, -0.5,0,0,1024,1024,1024,1024,146.1,-89.9,97,3.879,3.959,3.92,4.002,3.987,3.944,23.834,75.2,14,Waypoint,
38.2848476,-120.3444658,4413.5133249595,31.824148,0,0.67984254144,8800,2018-05-08 19:55:47,15,0,23.871,4413.5133249595,31.824148,0.223694,1.21343835904,0,0,-0.671082,147.4, 1, -0.3,0,0,1024,1024,1024,1024,146.1,-89.9,97,3.879,3.959,3.92,4.002,3.987,3.944,23.834,75.2,14,Waypoint,
38.2848476,-120.3444658,4414.4975769595,32.8084,0,0.67984254144,8900,2018-05-08 19:55:47,15,0,23.871,4414.4975769595,32.8084,0.223694,1.21343835904,0,0,-0.671082,147.2, 0.7, -0.2,0,0,1024,1024,1024,1024,146.1,-89.9,97,3.879,3.959,3.92,4.002,3.987,3.944,23.834,75.2,14,Waypoint,
38.2848478,-120.3444658,4416.4660809595,34.776904,0,0.71047902536,9000,2018-05-08 19:55:47,15,0,23.72,4416.4660809595,34.776904,0.223694,1.21343835904,0,0,-0.671082,146.7, 0.3, 0.5,0,0,1024,1024,1024,1024,146.1,-90,97,3.934,3.942,3.934,3.984,3.955,3.897,19.366,75.2,14,Waypoint,
38.284848,-120.3444657,4417.4503329595,35.761156,0,0.77132220316,9200,2018-05-08 19:55:47,15,0,23.72,4417.4503329595,35.761156,0.223694,1.21343835904,0,0,-0.671082,146.4, 0.2, 0.7,0,0,1024,1024,1024,1024,146.1,-90,97,3.934,3.942,3.934,3.984,3.955,3.897,19.366,75.2,14,Waypoint,
38.2848481,-120.3444657,4418.7626689595,37.073492,0,0.79091866048,9400,2018-05-08 19:55:48,15,0,23.72,4418.7626689595,37.073492,0.223694,1.21343835904,0,0,-0.671082,146.3, 0, 0.9,0,0,1024,1024,1024,1024,146.1,-90,97,3.934,3.942,3.934,3.984,3.955,3.897,19.366,75.2,14,Waypoint,
38.2848483,-120.3444656,4419.7469209595,38.057744,0,0.85634189092,9500,2018-05-08 19:55:48,15,0,23.72,4419.7469209595,38.057744,0.223694,1.21343835904,0,0,-0.671082,146.3, -0.1, 1.1,0,0,1024,1024,1024,1024,146.1,-90,97,3.934,3.942,3.934,3.984,3.955,3.897,19.366,75.2,14,Waypoint,
38.2848483,-120.3444655,4420.7311729595,39.041996,0,0.87949149796,9600,2018-05-08 19:55:48,15,0,23.72,4420.7311729595,39.041996,0.223694,1.21343835904,0,0,-0.671082,146.4, 0, 1.3,0,0,1024,1024,1024,1024,146.1,-89.9,97,3.934,3.942,3.934,3.984,3.955,3.897,19.366,75.2,14,Waypoint,
38.2848484,-120.3444656,4421.7154249595,40.026248,0,0.8785925478,9700,2018-05-08 19:55:48,15,0,23.72,4421.7154249595,40.026248,0.223694,1.21343835904,0,0,-0.671082,146.5, 0.2, 1.4,0,0,1024,1024,1024,1024,146.1,-89.9,97,3.934,3.942,3.934,3.984,3.955,3.897,19.366,75.2,14,Waypoint,
38.2848484,-120.3444657,4422.6996769595,41.0105,0,0.85637469932,9800,2018-05-08 19:55:48,16,0,23.72,4422.6996769595,41.0105,0.223694,1.21343835904,0,0,-0.671082,146.5, 0.1, 1.2,0,0,1024,1024,1024,1024,146.1,-89.9,97,3.934,3.942,3.934,3.984,3.955,3.897,19.366,75.2,14,Waypoint,
38.2848484,-120.3444657,4423.6839289595,41.994752,0,0.85637469932,9900,2018-05-08 19:55:48,16,0,23.72,4423.6839289595,41.994752,0.223694,1.21343835904,0,0,-0.671082,146.5, 0.1, 0.9,0,0,1024,1024,1024,1024,146.1,-89.9,97,3.934,3.942,3.934,3.984,3.955,3.897,19.366,75.2,14,Waypoint,
38.2848484,-120.3444658,4424.6681809595,42.979004,0,0.8345472708,10000,2018-05-08 19:55:48,14,0,23.77,4424.6681809595,42.979004,0.223694,1.21343835904,0,0,-0.671082,146.4, 0.1, 0.5,0,0,1024,1024,1024,1024,146.1,-90,97,3.943,3.944,3.955,3.991,3.995,3.949,18.369,75.2,14,Waypoint,
38.2848486,-120.3444659,4426.6366849595,44.947508,0,0.86394031636,10100,2018-05-08 19:55:48,16,0,23.77,4426.6366849595,44.947508,0.223694,1.21343835904,0,0,-0.671082,146.4, -0.2, 0.3,0,0,1024,1024,1024,1024,146.1,-90,97,3.943,3.944,3.955,3.991,3.995,3.949,18.369,75.2,14,Waypoint,
38.2848489,-120.3444658,4428.6051889595,46.916012,0,0.96406499148,10220,2018-05-08 19:55:48,16,0,23.77,4428.6051889595,46.916012,0.223694,1.21343835904,0,0,-0.671082,146.5, -0.6, 1,0,0,1024,1024,1024,1024,146.1,-90,97,3.943,3.944,3.955,3.991,3.995,3.949,18.369,75.2,14,Waypoint,
38.2848489,-120.3444658,4429.5894409595,47.900264,0,0.96406499148,10300,2018-05-08 19:55:48,16,0,23.77,4429.5894409595,47.900264,0.223694,1.21343835904,0,0,-0.671082,146.4, -0.7, 1.4,0,0,1024,1024,1024,1024,146.1,-90,97,3.943,3.944,3.955,3.991,3.995,3.949,18.369,75.2,14,Waypoint,
38.2848489,-120.3444658,4431.5579449595,49.868768,0,0.96406499148,10400,2018-05-08 19:55:49,16,0,23.77,4431.5579449595,49.868768,0.223694,1.21343835904,0,0,-0.671082,146.3, -0.2, 1.6,0,0,1024,1024,1024,1024,146.1,-89.9,97,3.943,3.944,3.955,3.991,3.995,3.949,18.369,75.2,14,Waypoint,
38.2848489,-120.3444658,4432.5421969595,50.85302,0,0.96406499148,10500,2018-05-08 19:55:49,16,0,23.77,4432.5421969595,50.85302,0.223694,1.21343835904,0,0,-0.671082,146.4, 0, 1.5,0,0,1024,1024,1024,1024,146.1,-89.9,97,3.943,3.944,3.955,3.991,3.995,3.949,18.369,75.2,14,Waypoint,
38.2848489,-120.3444658,4433.5264489595,51.837272,0,0.96406499148,10600,2018-05-08 19:55:49,16,0,23.77,4433.5264489595,51.837272,0.223694,1.21343835904,0,0,-0.671082,146.5, 0.1, 1.3,0,0,1024,1024,1024,1024,146.1,-89.9,97,3.943,3.944,3.955,3.991,3.995,3.949,18.369,75.2,14,Waypoint,
38.2848488,-120.3444658,4434.5107009595,52.821524,0,0.93675199848,10700,2018-05-08 19:55:49,16,0,23.77,4434.5107009595,52.821524,0.223694,1.21343835904,0,0,-0.671082,146.6, 0.2, 1,0,0,1024,1024,1024,1024,146.1,-89.9,97,3.943,3.944,3.955,3.991,3.995,3.949,18.369,75.2,14,Waypoint,
38.2848488,-120.3444658,4435.4949529595,53.805776,0,0.93675199848,10800,2018-05-08 19:55:49,16,0,23.77,4435.4949529595,53.805776,0.223694,1.21343835904,0,0,-0.671082,146.7, 0.2, 0.8,0,0,1024,1024,1024,1024,146.1,-89.9,97,3.943,3.944,3.955,3.991,3.995,3.949,18.369,75.2,14,Waypoint,
38.2848487,-120.3444657,4436.4792049595,54.790028,0,0.93014110588,10900,2018-05-08 19:55:49,15,0,23.77,4436.4792049595,54.790028,0.223694,1.21343835904,0,0,-0.671082,146.8, 0.3, 0.7,0,0,1024,1024,1024,1024,146.1,-89.9,97,3.943,3.944,3.955,3.991,3.995,3.949,18.369,75.2,14,Waypoint,
38.2848487,-120.3444657,4437.4634569595,55.77428,0,0.93014110588,11000,2018-05-08 19:55:49,15,0,23.742,4437.4634569595,55.77428,0.223694,1.21343835904,0,0,-0.671082,146.9, 0.5, 0.8,0,0,1024,1024,1024,1024,146.1,-89.9,97,3.943,3.944,3.955,3.991,3.995,3.949,18.314,75.2,14,Waypoint,
38.2848488,-120.3444657,4438.1196249595,56.430448,0,0.9562500306,11200,2018-05-08 19:55:49,16,0,23.742,4438.1196249595,56.430448,0.223694,1.21343835904,0,0,-0.671082,147, 0.6, 0.9,0,0,1024,1024,1024,1024,146.1,-89.9,97,3.943,3.944,3.955,3.991,3.995,3.949,18.314,75.2,14,Waypoint,
38.2848488,-120.3444656,4439.1038769595,57.4147,0,0.9761975378,11300,2018-05-08 19:55:49,16,0,23.742,4439.1038769595,57.4147,0.223694,1.21343835904,0,0,-0.671082,147, 0.5, 1.2,0,0,1024,1024,1024,1024,146.1,-89.9,97,3.943,3.944,3.955,3.991,3.995,3.949,18.314,75.2,14,Waypoint,
38.2848488,-120.3444656,4440.0881289595,58.398952,0,0.9761975378,11400,2018-05-08 19:55:50,16,0,23.742,4440.0881289595,58.398952,0.223694,1.21343835904,0,0,-0.671082,146.9, 0.3, 1.4,0,0,1024,1024,1024,1024,146.1,-89.9,97,3.943,3.944,3.955,3.991,3.995,3.949,18.314,75.2,14,Waypoint,
38.2848488,-120.3444655,4441.0723809595,59.383204,0,0.99656827336,11500,2018-05-08 19:55:50,16,0,23.742,4441.0723809595,59.383204,0.223694,1.21343835904,0,0,-0.671082,146.9, 0.2, 1.6,0,0,1024,1024,1024,1024,146.1,-89.9,97,3.943,3.944,3.955,3.991,3.995,3.949,18.314,75.2,14,Waypoint,
38.2848488,-120.3444653,4443.0408849595,61.351708,0,1.03848100436,11600,2018-05-08 19:55:50,16,0,23.742,4443.0408849595,61.351708,0.223694,1.21343835904,0,0,-0.671082,146.7, 0.2, 1.6,0,0,1024,1024,1024,1024,146.1,-89.9,97,3.943,3.944,3.955,3.991,3.995,3.949,18.314,75.2,14,Waypoint,
38.2848488,-120.3444652,4444.0251369595,62.33596,0,1.05997706804,11700,2018-05-08 19:55:50,16,0,23.742,4444.0251369595,62.33596,0.223694,1.21343835904,0,0,-0.671082,146.7, 0.5, 1.8,0,0,1024,1024,1024,1024,146.1,-89.9,97,3.943,3.944,3.955,3.991,3.995,3.949,18.314,75.2,14,Waypoint,
38.2848488,-120.3444652,4445.0093889595,63.320212,0,1.05997706804,11800,2018-05-08 19:55:50,16,0,23.742,4445.0093889595,63.320212,0.223694,1.21343835904,0,0,-0.671082,146.6, 0.7, 1.9,0,0,1024,1024,1024,1024,146.1,-89.9,97,3.943,3.944,3.955,3.991,3.995,3.949,18.314,75.2,14,Waypoint,
38.2848487,-120.3444651,4446.9778929595,65.288716,0,1.05879596564,12000,2018-05-08 19:55:50,16,0,23.742,4446.9778929595,65.288716,0.223694,1.21343835904,0,0,-0.671082,146.6, 0.7, 1.6,0,0,1024,1024,1024,1024,146.1,-89.9,97,3.933,3.941,3.943,3.985,3.994,3.942,18.314,75.2,14,Waypoint,
38.2848487,-120.344465,4447.9621449595,66.272968,0,1.08140751492,12100,2018-05-08 19:55:50,16,0,23.742,4447.9621449595,66.272968,0.223694,1.21343835904,0,0,-0.671082,146.6, 0.7, 1.4,0,0,1024,1024,1024,1024,146.1,-89.9,97,3.933,3.941,3.943,3.985,3.994,3.942,18.314,75.2,14,Waypoint,
38.2848487,-120.344465,4448.9463969595,67.25722,0,1.08140751492,12200,2018-05-08 19:55:50,16,0,23.742,4448.9463969595,67.25722,0.223694,1.21343835904,0,0,-0.671082,146.7, 0.7, 1.4,0,0,1024,1024,1024,1024,146.1,-89.9,97,3.933,3.941,3.943,3.985,3.994,3.942,18.314,75.2,14,Waypoint,
38.2848487,-120.344465,4449.9306489595,68.241472,0,1.08140751492,12300,2018-05-08 19:55:50,15,0,23.742,4449.9306489595,68.241472,0.223694,1.21343835904,0,0,-0.671082,146.7, 0.5, 1.4,0,0,1024,1024,1024,1024,146.1,-89.9,97,3.933,3.941,3.943,3.985,3.994,3.942,18.314,75.2,14,Waypoint,
38.2848486,-120.344465,4450.9149009595,69.225724,0,1.0596457032,12400,2018-05-08 19:55:51,15,0,23.742,4450.9149009595,69.225724,0.223694,1.21343835904,0,0,-0.671082,146.9, 0.5, 1.6,0,0,1024,1024,1024,1024,146.1,-89.9,97,3.933,3.941,3.943,3.985,3.994,3.942,18.314,75.2,14,Waypoint,
38.2848486,-120.3444649,4451.8991529595,70.209976,0,1.08299544148,12500,2018-05-08 19:55:51,16,0,23.742,4451.8991529595,70.209976,0.223694,1.21343835904,0,0,-0.671082,147, 0.4, 1.4,0,0,1024,1024,1024,1024,146.1,-89.9,97,3.933,3.941,3.943,3.985,3.994,3.942,18.314,75.2,14,Waypoint,
38.2848486,-120.3444649,4452.8834049595,71.194228,0,1.08299544148,12600,2018-05-08 19:55:51,16,0,23.742,4452.8834049595,71.194228,0.223694,1.21343835904,0,0,-0.671082,147.1, 0.3, 1.1,0,0,1024,1024,1024,1024,146.1,-89.9,97,3.933,3.941,3.943,3.985,3.994,3.942,18.314,75.2,14,Waypoint,
38.2848486,-120.3444648,4453.8676569595,72.17848,0,1.1065945236,12700,2018-05-08 19:55:51,16,0,23.742,4453.8676569595,72.17848,0.223694,1.21343835904,0,0,-0.671082,147.1, 0.2, 1.1,0,0,1024,1024,1024,1024,146.1,-89.9,97,3.933,3.941,3.943,3.985,3.994,3.942,18.314,75.2,14,Waypoint,
38.2848486,-120.3444648,4454.8519089595,73.162732,0,1.1065945236,12800,2018-05-08 19:55:51,16,0,23.742,4454.8519089595,73.162732,0.223694,1.21343835904,0,0,-0.671082,147, 0.3, 1.4,0,0,1024,1024,1024,1024,146.1,-89.9,97,3.933,3.941,3.943,3.985,3.994,3.942,18.314,75.2,14,Waypoint,
38.2848486,-120.3444648,4455.8361609595,74.146984,0,1.1065945236,12900,2018-05-08 19:55:51,16,0,23.742,4455.8361609595,74.146984,0.223694,1.21343835904,0,0,-0.671082,146.9, 0.4, 1.6,0,0,1024,1024,1024,1024,146.1,-89.9,97,3.933,3.941,3.943,3.985,3.994,3.942,18.314,75.2,14,Waypoint,
38.2848485,-120.3444647,4456.8204129595,75.131236,0,1.1108268072,13000,2018-05-08 19:55:51,16,0,23.662,4456.8204129595,75.131236,0.223694,1.21343835904,0,0,-0.671082,146.9, 0.6, 1.7,0,0,1024,1024,1024,1024,146.1,-89.9,97,3.921,3.939,3.919,3.974,3.969,3.939,18.753,75.2,14,Waypoint,
38.2848485,-120.3444645,4458.7889169595,77.09974,0,1.15994754368,13200,2018-05-08 19:55:51,16,0,23.662,4458.7889169595,77.09974,0.223694,1.21343835904,0,0,-0.671082,146.8, 1, 1.9,0,0,1024,1024,1024,1024,146.1,-89.9,97,3.921,3.939,3.919,3.974,3.969,3.939,18.753,75.2,14,Waypoint,
38.2848485,-120.3444644,4459.7731689595,78.083992,0,1.18478022164,13300,2018-05-08 19:55:51,16,0,23.662,4459.7731689595,78.083992,0.223694,1.21343835904,0,0,-0.671082,146.7, 1.2, 1.9,0,0,1024,1024,1024,1024,146.1,-89.9,97,3.921,3.939,3.919,3.974,3.969,3.939,18.753,75.2,14,Waypoint,
38.2848484,-120.3444643,4461.7416729595,80.052496,0,1.19260830588,13500,2018-05-08 19:55:52,16,0,23.662,4461.7416729595,80.052496,0.223694,1.21343835904,0,0,-0.671082,146.8, 1.4, 1.8,0,0,1024,1024,1024,1024,146.1,-89.9,97,3.921,3.939,3.919,3.974,3.969,3.939,18.753,75.2,14,Waypoint,
38.2848483,-120.3444642,4463.7101769595,82.021,0,1.20217523532,13700,2018-05-08 19:55:52,16,0,23.662,4463.7101769595,82.021,0.223694,1.21343835904,0,0,-0.671082,146.8, 1.4, 2,0,0,1024,1024,1024,1024,146.1,-89.9,97,3.921,3.939,3.919,3.974,3.969,3.939,18.753,75.2,14,Waypoint,
38.2848483,-120.3444641,4464.6944289595,83.005252,0,1.22815948812,13900,2018-05-08 19:55:52,16,0,23.662,4464.6944289595,83.005252,0.223694,1.22815948812,0,0,-0.671082,146.8, 1.3, 2,0,0,1024,1024,1024,1024,146.1,-89.9,97,3.921,3.939,3.919,3.974,3.969,3.939,18.753,75.2,14,Waypoint,
38.2848483,-120.344464,4466.6629329595,84.973756,0,1.25425857032,14000,2018-05-08 19:55:52,16,0,23.662,4466.6629329595,84.973756,0.223694,1.25425857032,0,0,-0.671082,146.8, 1.1, 1.9,0,0,1024,1024,1024,1024,146.1,-89.9,97,3.921,3.939,3.919,3.974,3.969,3.939,18.753,75.2,14,Waypoint,
38.2848483,-120.3444639,4467.6471849595,85.958008,0,1.28046920108,14100,2018-05-08 19:55:52,16,0,23.662,4467.6471849595,85.958008,0.223694,1.28046920108,0,0,-0.671082,146.8, 1.1, 2,0,0,1024,1024,1024,1024,146.1,-89.9,97,3.921,3.939,3.919,3.974,3.969,3.939,18.753,75.2,14,Waypoint,
38.2848483,-120.3444638,4468.6314369595,86.94226,0,1.30678153788,14200,2018-05-08 19:55:52,16,0,23.662,4468.6314369595,86.94226,0.223694,1.30678153788,0,0,-0.671082,146.8, 1.2, 2,0,0,1024,1024,1024,1024,146.1,-89.9,97,3.921,3.939,3.919,3.974,3.969,3.939,18.753,75.2,14,Waypoint,
38.2848482,-120.3444638,4469.6156889595,87.926512,0,1.29295607812,14300,2018-05-08 19:55:52,16,0,23.662,4469.6156889595,87.926512,0.223694,1.30678153788,0,0,-0.671082,146.9, 1.4, 2,0,0,1024,1024,1024,1024,146.1,-89.9,97,3.921,3.939,3.919,3.974,3.969,3.939,18.753,75.2,14,Waypoint,
38.2848482,-120.3444637,4470.5999409595,88.910764,0,1.31963914984,14400,2018-05-08 19:55:53,16,0,23.662,4470.5999409595,88.910764,0.223694,1.31963914984,0,0,-0.671082,146.9, 1.6, 2.2,0,0,1024,1024,1024,1024,146.1,-89.9,97,3.921,3.939,3.919,3.974,3.969,3.939,18.753,75.2,14,Waypoint,
38.2848483,-120.3444635,4472.5684449595,90.879268,0,1.38626644856,14600,2018-05-08 19:55:53,16,0,23.662,4472.5684449595,90.879268,0.223694,1.38626644856,0,0,-0.671082,147, 1.5, 2.7,0,0,1024,1024,1024,1024,146.1,-89.9,97,3.921,3.939,3.919,3.974,3.969,3.939,18.753,75.2,14,Waypoint,
38.2848483,-120.3444634,4473.5526969595,91.86352,0,1.41292983524,14700,2018-05-08 19:55:53,16,0,23.662,4473.5526969595,91.86352,0.223694,1.41292983524,0,0,-0.671082,147, 1.5, 2.8,0,0,1024,1024,1024,1024,146.1,-89.9,97,3.921,3.939,3.919,3.974,3.969,3.939,18.753,75.2,14,Waypoint,
38.2848483,-120.3444634,4474.5369489595,92.847772,0,1.41292983524,14800,2018-05-08 19:55:53,16,0,23.662,4474.5369489595,92.847772,0.223694,1.41292983524,0,0,-0.671082,146.9, 1.5, 2.7,0,0,1024,1024,1024,1024,146.1,-89.9,97,3.921,3.939,3.919,3.974,3.969,3.939,18.753,75.2,14,Waypoint,
38.2848483,-120.3444634,4477.4897049595,95.800528,0,1.41292983524,15100,2018-05-08 19:55:53,16,0,23.662,4477.4897049595,95.800528,0.223694,1.41292983524,0,0,-0.671082,146.6, 1.6, 2.1,0,0,1024,1024,1024,1024,146.1,-89.9,97,3.921,3.939,3.919,3.974,3.969,3.939,18.753,75.2,14,Waypoint,
38.2848482,-120.3444634,4478.4739569595,96.78478,0,1.40015424428,15200,2018-05-08 19:55:53,16,0,23.662,4478.4739569595,96.78478,0.223694,1.41292983524,0,0,-0.671082,146.6, 1.7, 1.9,0,0,1024,1024,1024,1024,146.1,-89.9,97,3.921,3.939,3.919,3.974,3.969,3.939,18.753,75.2,14,Waypoint,
38.2848482,-120.3444634,4479.4582089595,97.769032,0,1.40015424428,15310,2018-05-08 19:55:53,16,0,23.662,4479.4582089595,97.769032,0.223694,1.41292983524,0,0,-0.671082,146.5, 1.7, 1.7,0,0,1024,1024,1024,1024,146.1,-89.9,97,3.921,3.939,3.919,3.974,3.969,3.939,18.753,75.2,14,Waypoint,
38.2848482,-120.3444634,4480.4424609595,98.753284,0,1.40015424428,15400,2018-05-08 19:55:54,16,0,23.662,4480.4424609595,98.753284,0.223694,1.41292983524,0,0,-0.671082,146.4, 1.8, 1.8,0,0,1024,1024,1024,1024,146.1,-89.9,97,3.921,3.939,3.919,3.974,3.969,3.939,18.753,75.2,14,Waypoint,
38.2848482,-120.3444634,4481.4267129595,99.737536,0,1.40015424428,15500,2018-05-08 19:55:54,16,0,23.662,4481.4267129595,99.737536,0.223694,1.41292983524,0,0,-0.671082,146.4, 1.7, 1.9,0,0,1024,1024,1024,1024,146.1,-89.9,97,3.921,3.939,3.919,3.974,3.969,3.939,18.753,75.2,14,Waypoint,
38.2848482,-120.3444635,4482.4109649595,100.721788,0,1.37324151376,15600,2018-05-08 19:55:54,16,0,23.662,4482.4109649595,100.721788,0.223694,1.41292983524,0,0,-0.671082,146.5, 1.7, 2,0,0,1024,1024,1024,1024,146.1,-89.9,97,3.921,3.939,3.919,3.974,3.969,3.939,18.753,75.2,14,Waypoint,
38.2848481,-120.3444635,4484.3794689595,102.690292,0,1.3610728782,15800,2018-05-08 19:55:54,16,0,23.662,4484.3794689595,102.690292,0.223694,1.41292983524,0,0,-0.671082,146.9, 1.8, 1.9,0,0,1024,1024,1024,1024,146.1,-89.9,97,3.921,3.939,3.919,3.974,3.969,3.939,18.753,75.2,14,Waypoint,
38.2848481,-120.3444635,4485.3637209595,103.674544,0,1.3610728782,16000,2018-05-08 19:55:54,16,0,23.574,4485.3637209595,103.674544,0.223694,1.41292983524,0,0,-0.671082,146.9, 1.9, 1.9,0,0,1024,1024,1024,1024,146.1,-89.9,97,3.908,3.916,3.91,3.959,3.965,3.913,19.122,75.2,14,Waypoint,
38.2848481,-120.3444635,4486.3479729595,104.658796,0,1.3610728782,16100,2018-05-08 19:55:54,16,0,23.574,4486.3479729595,104.658796,0.223694,1.41292983524,0,0,-0.671082,147, 1.9, 2,0,0,1024,1024,1024,1024,146.1,-89.9,97,3.908,3.916,3.91,3.959,3.965,3.913,19.122,75.2,14,Waypoint,
38.2848481,-120.3444635,4487.3322249595,105.643048,0,1.3610728782,16200,2018-05-08 19:55:54,16,0,23.574,4487.3322249595,105.643048,0.223694,1.41292983524,0,0,-0.671082,147, 1.8, 2.1,0,0,1024,1024,1024,1024,146.1,-89.9,97,3.908,3.916,3.91,3.959,3.965,3.913,19.122,75.2,14,Waypoint,
38.2848481,-120.3444635,4488.3164769595,106.6273,0,1.3610728782,16300,2018-05-08 19:55:54,16,0,23.574,4488.3164769595,106.6273,0.223694,1.41292983524,0,0,-0.671082,147, 1.7, 2.1,0,0,1024,1024,1024,1024,146.1,-89.9,97,3.908,3.916,3.91,3.959,3.965,3.913,19.122,75.2,14,Waypoint,
38.2848481,-120.3444637,4490.2849809595,108.595804,0,1.30696854576,16400,2018-05-08 19:55:55,16,0,23.574,4490.2849809595,108.595804,0.223694,1.41292983524,0,0,-0.671082,146.9, 1.4, 2.1,0,0,1024,1024,1024,1024,146.1,-89.9,97,3.908,3.916,3.91,3.959,3.965,3.913,19.122,75.2,14,Waypoint,
38.2848481,-120.3444638,4491.2692329595,109.580056,0,1.280019726,16500,2018-05-08 19:55:55,16,0,23.574,4491.2692329595,109.580056,0.223694,1.41292983524,0,0,-0.671082,146.8, 1.2, 2,0,0,1024,1024,1024,1024,146.1,-89.9,97,3.908,3.916,3.91,3.959,3.965,3.913,19.122,75.2,14,Waypoint,
38.2848482,-120.3444638,4492.5815689595,110.892392,0,1.29295607812,16600,2018-05-08 19:55:55,16,0,23.574,4492.5815689595,110.892392,0.223694,1.41292983524,0,0,-0.671082,146.7, 0.9, 1.7,0,0,1024,1024,1024,1024,146.1,-90,97,3.908,3.916,3.91,3.959,3.965,3.913,19.122,75.2,14,Waypoint,
38.2848483,-120.344464,4494.5500729595,112.860896,0,1.25425857032,16800,2018-05-08 19:55:55,16,0,23.574,4494.5500729595,112.860896,0.223694,1.41292983524,0,0,-0.671082,146.6, 0.1, 1.5,0,0,1024,1024,1024,1024,146.1,-90,97,3.908,3.916,3.91,3.959,3.965,3.913,19.122,75.2,14,Waypoint,
38.2848483,-120.3444641,4495.5343249595,113.845148,0,1.22815948812,16900,2018-05-08 19:55:55,16,0,23.574,4495.5343249595,113.845148,0.223694,1.41292983524,0,0,-0.671082,146.6, 0, 1.6,0,0,1024,1024,1024,1024,146.1,-90,97,3.908,3.916,3.91,3.959,3.965,3.913,19.122,75.2,14,Waypoint,
38.2848484,-120.3444642,4496.5185769595,114.8294,0,1.21812339856,17000,2018-05-08 19:55:55,16,0,23.497,4496.5185769595,114.8294,0.223694,1.41292983524,0,0,-0.671082,146.6, -0.2, 1.7,0,0,1024,1024,1024,1024,146.1,-90,96,3.903,3.9,3.903,3.944,3.945,3.902,19.872,77,14,Waypoint,
38.2848484,-120.3444643,4497.5028289595,115.813652,0,1.19260830588,17100,2018-05-08 19:55:55,16,0,23.497,4497.5028289595,115.813652,0.223694,1.41292983524,0,0,-0.671082,146.6, -0.2, 1.7,0,0,1024,1024,1024,1024,146.1,-89.9,96,3.903,3.9,3.903,3.944,3.945,3.902,19.872,77,14,Waypoint,
38.2848485,-120.3444643,4498.4870809595,116.797904,0,1.20978350328,17200,2018-05-08 19:55:55,16,0,23.497,4498.4870809595,116.797904,0.223694,1.41292983524,0,0,-0.671082,146.6, 0, 1.6,0,0,1024,1024,1024,1024,146.1,-89.9,96,3.903,3.9,3.903,3.944,3.945,3.902,19.872,77,14,Waypoint,
38.2848485,-120.3444643,4499.4713329595,117.782156,0,1.20978350328,17300,2018-05-08 19:55:55,16,0,23.497,4499.4713329595,117.782156,0.223694,1.41292983524,0,0,-0.671082,146.6, 0.2, 1.6,0,0,1024,1024,1024,1024,146.1,-89.9,96,3.903,3.9,3.903,3.944,3.945,3.902,19.872,77,14,Waypoint,
38.2848486,-120.3444643,4500.4555849595,118.766408,0,1.2278051574,17400,2018-05-08 19:55:56,16,0,23.497,4500.4555849595,118.766408,0.223694,1.41292983524,0,0,-0.671082,146.5, 0.2, 2.1,0,0,1024,1024,1024,1024,146.1,-89.9,96,3.903,3.9,3.903,3.944,3.945,3.902,19.872,77,14,Waypoint,
38.2848486,-120.3444643,4501.4398369595,119.75066,0,1.2278051574,17500,2018-05-08 19:55:56,16,0,23.497,4501.4398369595,119.75066,0.223694,1.41292983524,0,0,-0.671082,146.4, 0.1, 2.5,0,0,1024,1024,1024,1024,146.1,-89.9,96,3.903,3.9,3.903,3.944,3.945,3.902,19.872,77,14,Waypoint,
38.2848487,-120.3444643,4502.4240889595,120.734912,0,1.24663389816,17610,2018-05-08 19:55:56,16,0,23.497,4502.4240889595,120.734912,0.223694,1.41292983524,0,0,-0.671082,146.3, 0.1, 2.7,0,0,1024,1024,1024,1024,146.1,-89.9,96,3.903,3.9,3.903,3.944,3.945,3.902,19.872,77,14,Waypoint,
38.2848487,-120.3444643,4503.4083409595,121.719164,0,1.24663389816,17700,2018-05-08 19:55:56,16,0,23.497,4503.4083409595,121.719164,0.223694,1.41292983524,0,0,-0.671082,146.3, 0.2, 2.7,0,0,1024,1024,1024,1024,146.1,-89.9,96,3.903,3.9,3.903,3.944,3.945,3.902,19.872,77,14,Waypoint,
38.2848487,-120.3444644,4504.3925929595,122.703416,0,1.22238520972,17900,2018-05-08 19:55:56,16,0,23.497,4504.3925929595,122.703416,0.223694,1.41292983524,0,0,-0.671082,146.4, 0.2, 2.4,0,0,1024,1024,1024,1024,146.1,-89.9,96,3.903,3.9,3.903,3.944,3.945,3.902,19.872,77,14,Waypoint,
38.2848487,-120.3444644,4506.3610969595,124.67192,0,1.22238520972,18100,2018-05-08 19:55:56,16,0,23.497,4506.3610969595,124.67192,0.223694,1.41292983524,0,0,-0.671082,146.5, 0.3, 1.9,0,0,1024,1024,1024,1024,146.1,-89.9,96,3.903,3.9,3.903,3.944,3.945,3.902,19.872,77,14,Waypoint,
38.2848487,-120.3444645,4508.3296009595,126.640424,0,1.19833009084,18200,2018-05-08 19:55:56,16,0,23.497,4508.3296009595,126.640424,0.223694,1.41292983524,0,0,-0.671082,146.6, 0.3, 2,0,0,1024,1024,1024,1024,146.1,-89.9,96,3.903,3.9,3.903,3.944,3.945,3.902,19.872,77,14,Waypoint,
38.2848487,-120.3444645,4509.3138529595,127.624676,0,1.19833009084,18300,2018-05-08 19:55:56,16,0,23.497,4509.3138529595,127.624676,0.223694,1.41292983524,0,0,-0.671082,146.6, 0.3, 2.2,0,0,1024,1024,1024,1024,146.1,-90,96,3.903,3.9,3.903,3.944,3.945,3.902,19.872,77,14,Waypoint,
38.2848487,-120.3444645,4511.2823569595,129.59318,0,1.19833009084,18510,2018-05-08 19:55:57,16,0,23.497,4511.2823569595,129.59318,0.223694,1.41292983524,0,0,-0.671082,146.4, 0.3, 2.3,0,0,1024,1024,1024,1024,146.1,-89.9,96,3.903,3.9,3.903,3.944,3.945,3.902,19.872,77,14,Waypoint,
38.2848487,-120.3444645,4512.2666089595,130.577432,0,1.19833009084,18600,2018-05-08 19:55:57,16,0,23.497,4512.2666089595,130.577432,0.223694,1.41292983524,0,0,-0.671082,146.4, 0.4, 2.3,0,0,1024,1024,1024,1024,146.1,-89.9,96,3.903,3.9,3.903,3.944,3.945,3.902,19.872,77,14,Waypoint,
38.2848487,-120.3444645,4513.2508609595,131.561684,0,1.19833009084,18700,2018-05-08 19:55:57,16,0,23.497,4513.2508609595,131.561684,0.223694,1.41292983524,0,0,-0.671082,146.4, 0.3, 2.3,0,0,1024,1024,1024,1024,146.1,-89.9,96,3.903,3.9,3.903,3.944,3.945,3.902,19.872,77,14,Waypoint,
38.2848487,-120.3444645,4514.2351129595,132.545936,0,1.19833009084,18800,2018-05-08 19:55:57,16,0,23.497,4514.2351129595,132.545936,0.223694,1.41292983524,0,0,-0.671082,146.3, 0.3, 2.5,0,0,1024,1024,1024,1024,146.1,-89.9,96,3.903,3.9,3.903,3.944,3.945,3.902,19.872,77,14,Waypoint,
38.2848487,-120.3444645,4515.2193649595,133.530188,0,1.19833009084,18900,2018-05-08 19:55:57,16,0,23.497,4515.2193649595,133.530188,0.223694,1.41292983524,0,0,-0.671082,146.3, 0.3, 2.6,0,0,1024,1024,1024,1024,146.1,-89.9,96,3.903,3.9,3.903,3.944,3.945,3.902,19.872,77,14,Waypoint,
38.2848487,-120.3444645,4516.2036169595,134.51444,0,1.19833009084,19000,2018-05-08 19:55:57,16,0,23.384,4516.2036169595,134.51444,0.223694,1.41292983524,0,0,-0.671082,146.4, 0.2, 2.5,0,0,1024,1024,1024,1024,146.1,-89.9,96,3.879,3.879,3.863,3.924,3.917,3.876,20.411,77,14,Waypoint,
38.2848487,-120.3444645,4516.8597849595,135.170608,0,1.19833009084,19100,2018-05-08 19:55:57,16,0,23.384,4516.8597849595,135.170608,0.223694,1.41292983524,0,0,-0.671082,146.5, 0.1, 2.3,0,0,1024,1024,1024,1024,146.1,-89.9,96,3.879,3.879,3.863,3.924,3.917,3.876,20.411,77,14,Waypoint,
38.2848486,-120.3444645,4517.8440369595,136.15486,0,1.17873035268,19200,2018-05-08 19:55:57,16,0,23.384,4517.8440369595,136.15486,0.223694,1.41292983524,0,0,-0.671082,146.6, 0.1, 2.2,0,0,1024,1024,1024,1024,146.1,-89.9,96,3.879,3.879,3.863,3.924,3.917,3.876,20.411,77,14,Waypoint,
38.2848486,-120.3444645,4519.8125409595,138.123364,0,1.17873035268,19400,2018-05-08 19:55:58,16,0,23.384,4519.8125409595,138.123364,0.223694,1.41292983524,0,0,-0.671082,147, 0.1, 2.1,0,0,1024,1024,1024,1024,146.1,-89.9,96,3.879,3.879,3.863,3.924,3.917,3.876,20.411,77,14,Waypoint,
38.2848485,-120.3444645,4521.7810449595,140.091868,0,1.15994754368,19620,2018-05-08 19:55:58,16,0,23.384,4521.7810449595,140.091868,0.223694,1.41292983524,0,0,-0.671082,147.3, 0.5, 1.9,0,0,1024,1024,1024,1024,146.1,-89.9,96,3.879,3.879,3.863,3.924,3.917,3.876,20.411,77,14,Waypoint,
38.2848485,-120.3444645,4521.7810449595,140.091868,0,1.15994754368,19700,2018-05-08 19:55:58,16,0,23.384,4521.7810449595,140.091868,0.223694,1.41292983524,0,0,-0.671082,147.3, 0.5, 1.9,0,0,1024,1024,1024,1024,146.1,-89.9,96,3.879,3.879,3.863,3.924,3.917,3.876,20.411,77,14,Waypoint,
38.2848483,-120.3444645,4524.7338009595,143.044624,0,1.12499019348,19900,2018-05-08 19:55:58,16,0,23.384,4524.7338009595,143.044624,0.223694,1.41292983524,0,0,-0.671082,147.4, 0.9, 1.8,0,0,1024,1024,1024,1024,146.1,-89.9,96,3.879,3.879,3.863,3.924,3.917,3.876,20.411,77,14,Waypoint,
38.2848483,-120.3444645,4525.7180529595,144.028876,0,1.12499019348,20100,2018-05-08 19:55:58,16,0,23.384,4525.7180529595,144.028876,0.223694,1.41292983524,0,0,-0.671082,147.2, 0.8, 2.1,0,0,1024,1024,1024,1024,146.1,-89.9,96,3.879,3.879,3.863,3.924,3.917,3.876,20.411,77,14,Waypoint,
38.2848482,-120.3444645,4526.7023049595,145.013128,0,1.10890423496,20200,2018-05-08 19:55:58,16,0,23.384,4526.7023049595,145.013128,0.223694,1.41292983524,0,0,-0.671082,146.9, 0.9, 2.2,0,0,1024,1024,1024,1024,146.1,-89.9,96,3.879,3.879,3.863,3.924,3.917,3.876,20.411,77,14,Waypoint,
38.2848482,-120.3444645,4527.6865569595,145.99738,0,1.10890423496,20300,2018-05-08 19:55:58,16,0,23.384,4527.6865569595,145.99738,0.223694,1.41292983524,0,0,-0.671082,146.6, 0.7, 2.1,0,0,1024,1024,1024,1024,146.1,-90,96,3.879,3.879,3.863,3.924,3.917,3.876,20.411,77,14,Waypoint,
38.2848482,-120.3444645,4528.6708089595,146.981632,0,1.10890423496,20400,2018-05-08 19:55:59,16,0,23.384,4528.6708089595,146.981632,0.223694,1.41292983524,0,0,-0.671082,146.4, 0.3, 1.9,0,0,1024,1024,1024,1024,146.1,-89.9,96,3.879,3.879,3.863,3.924,3.917,3.876,20.411,77,14,Waypoint,
38.2848481,-120.3444645,4530.6393129595,148.950136,0,1.09379596676,20600,2018-05-08 19:55:59,16,0,23.384,4530.6393129595,148.950136,0.223694,1.41292983524,0,0,-0.671082,146.7, 0.2, 1.6,0,0,1024,1024,1024,1024,146.1,-89.9,96,3.879,3.879,3.863,3.924,3.917,3.876,20.411,77,14,Waypoint,
38.2848481,-120.3444644,4532.6078169595,150.91864,0,1.12009846104,20700,2018-05-08 19:55:59,16,0,23.384,4532.6078169595,150.91864,0.223694,1.41292983524,0,0,-0.671082,146.9, 0.8, 2.2,0,0,1024,1024,1024,1024,146.1,-89.9,96,3.879,3.879,3.863,3.924,3.917,3.876,20.411,77,14,Waypoint,
38.2848481,-120.3444644,4533.5920689595,151.902892,0,1.12009846104,20800,2018-05-08 19:55:59,16,0,23.384,4533.5920689595,151.902892,0.223694,1.41292983524,0,0,-0.671082,146.9, 1, 2.3,0,0,1024,1024,1024,1024,146.1,-89.9,96,3.879,3.879,3.863,3.924,3.917,3.876,20.411,77,14,Waypoint,
38.284848,-120.3444644,4535.5605729595,153.871396,0,1.10634517976,21000,2018-05-08 19:55:59,16,0,23.332,4535.5605729595,153.871396,0.223694,1.41292983524,0,0,-0.671082,146.9, 0.8, 2.4,0,0,1024,1024,1024,1024,146.1,-89.9,96,3.862,3.881,3.861,3.926,3.915,3.881,20.943,77,14,Waypoint,
38.284848,-120.3444644,4536.5448249595,154.855648,0,1.10634517976,21100,2018-05-08 19:55:59,16,0,23.332,4536.5448249595,154.855648,0.223694,1.41292983524,0,0,-0.671082,146.7, 0.7, 2.6,0,0,1024,1024,1024,1024,146.1,-89.9,96,3.862,3.881,3.861,3.926,3.915,3.881,20.943,77,14,Waypoint,
38.284848,-120.3444644,4538.5133289595,156.824152,0,1.10634517976,21300,2018-05-08 19:55:59,16,0,23.332,4538.5133289595,156.824152,0.223694,1.41292983524,0,0,-0.671082,146.5, 0.3, 2.3,0,0,1024,1024,1024,1024,146.1,-89.9,96,3.862,3.881,3.861,3.926,3.915,3.881,20.943,77,14,Waypoint,
38.2848479,-120.3444643,4539.4975809595,157.808404,0,1.12067916972,21400,2018-05-08 19:56:00,16,0,23.332,4539.4975809595,157.808404,0.223694,1.41292983524,0,0,-0.671082,146.6, 0.5, 2.2,0,0,1024,1024,1024,1024,146.1,-89.9,96,3.862,3.881,3.861,3.926,3.915,3.881,20.943,77,14,Waypoint,
38.2848479,-120.3444643,4540.4818329595,158.792656,0,1.12067916972,21500,2018-05-08 19:56:00,16,0,23.332,4540.4818329595,158.792656,0.223694,1.41292983524,0,0,-0.671082,146.8, 1, 2.2,0,0,1024,1024,1024,1024,146.1,-89.9,96,3.862,3.881,3.861,3.926,3.915,3.881,20.943,77,14,Waypoint,
38.2848478,-120.3444643,4541.4660849595,159.776908,0,1.10933730584,21600,2018-05-08 19:56:00,16,0,23.332,4541.4660849595,159.776908,0.223694,1.41292983524,0,0,-0.671082,146.9, 1.6, 2.2,0,0,1024,1024,1024,1024,146.1,-89.9,96,3.862,3.881,3.861,3.926,3.915,3.881,20.943,77,14,Waypoint,
38.2848477,-120.3444642,4542.4503369595,160.76116,0,1.12672575784,21700,2018-05-08 19:56:00,16,0,23.332,4542.4503369595,160.76116,0.223694,1.41292983524,0,0,-0.671082,147, 1.9, 2.1,0,0,1024,1024,1024,1024,146.1,-89.9,96,3.862,3.881,3.861,3.926,3.915,3.881,20.943,77,14,Waypoint,
38.2848476,-120.3444642,4543.4345889595,161.745412,0,1.11782811976,21800,2018-05-08 19:56:00,16,0,23.332,4543.4345889595,161.745412,0.223694,1.41292983524,0,0,-0.671082,147, 2.2, 1.9,0,0,1024,1024,1024,1024,146.1,-89.9,96,3.862,3.881,3.861,3.926,3.915,3.881,20.943,77,14,Waypoint,
38.2848476,-120.3444642,4544.0907569595,162.40158,0,1.11782811976,21900,2018-05-08 19:56:00,16,0,23.332,4544.0907569595,162.40158,0.223694,1.41292983524,0,0,-0.671082,146.9, 2.3, 1.8,0,0,1024,1024,1024,1024,146.1,-89.9,96,3.862,3.881,3.861,3.926,3.915,3.881,20.943,77,14,Waypoint,
38.2848475,-120.3444642,4545.0750089595,163.385832,0,1.11006237148,22100,2018-05-08 19:56:00,16,0,23.332,4545.0750089595,163.385832,0.223694,1.41292983524,0,0,-0.671082,146.8, 2.2, 1.6,0,0,1024,1024,1024,1024,146.1,-89.9,96,3.862,3.881,3.861,3.926,3.915,3.881,20.943,77,14,Waypoint,
38.2848474,-120.3444642,4546.0592609595,164.370084,0,1.10344819804,22200,2018-05-08 19:56:00,16,0,23.332,4546.0592609595,164.370084,0.223694,1.41292983524,0,0,-0.671082,146.7, 1.9, 1.7,0,0,1024,1024,1024,1024,146.1,-89.9,96,3.862,3.881,3.861,3.926,3.915,3.881,20.943,77,14,Waypoint,
38.2848473,-120.3444642,4548.3558489595,166.666672,0,1.09800528448,22300,2018-05-08 19:56:00,16,0,23.332,4548.3558489595,166.666672,0.223694,1.41292983524,0,0,-0.671082,146.5, 2.1, 1.4,0,0,1024,1024,1024,1024,146.1,-89.9,96,3.862,3.881,3.861,3.926,3.915,3.881,20.943,77,14,Waypoint,
38.2848473,-120.3444642,4549.3401009595,167.650924,0,1.09800528448,22400,2018-05-08 19:56:01,16,0,23.332,4549.3401009595,167.650924,0.223694,1.41292983524,0,0,-0.671082,146.3, 2.2, 1.4,0,0,1024,1024,1024,1024,146.1,-89.9,96,3.862,3.881,3.861,3.926,3.915,3.881,20.943,77,14,Waypoint,
38.2848473,-120.3444643,4550.3243529595,168.635176,0,1.06962601848,22600,2018-05-08 19:56:01,16,0,23.332,4550.3243529595,168.635176,0.223694,1.41292983524,0,0,-0.671082,146.2, 1.9, 1.3,0,0,1024,1024,1024,1024,146.1,-89.9,96,3.862,3.881,3.861,3.926,3.915,3.881,20.943,77,14,Waypoint,
38.2848473,-120.3444643,4551.3086049595,169.619428,0,1.06962601848,22700,2018-05-08 19:56:01,16,0,23.332,4551.3086049595,169.619428,0.223694,1.41292983524,0,0,-0.671082,146.1, 1.7, 1.1,0,0,1024,1024,1024,1024,146.1,-89.9,96,3.862,3.881,3.861,3.926,3.915,3.881,20.943,77,14,Waypoint,
38.2848472,-120.3444644,4553.2771089595,171.587932,0,1.0367782484,22900,2018-05-08 19:56:01,16,0,23.332,4553.2771089595,171.587932,0.223694,1.41292983524,0,0,-0.671082,145.9, 1.5, 0.5,0,0,1024,1024,1024,1024,146.1,-89.9,96,3.862,3.881,3.861,3.926,3.915,3.881,20.943,77,14,Waypoint,
38.2848472,-120.3444645,4555.2456129595,173.556436,0,1.00830711888,23010,2018-05-08 19:56:01,16,0,23.333,4555.2456129595,173.556436,0.223694,1.41292983524,0,0,-0.671082,145.9, 1.5, 1.1,0,0,1024,1024,1024,1024,146.1,-89.9,96,3.874,3.873,3.871,3.92,3.933,3.876,20.354,77,14,Waypoint,
38.2848472,-120.3444645,4556.5579489595,174.868772,0,1.00830711888,23100,2018-05-08 19:56:01,16,0,23.333,4556.5579489595,174.868772,0.223694,1.41292983524,0,0,-0.671082,146.1, 1.3, 1.4,0,0,1024,1024,1024,1024,146.1,-89.9,96,3.874,3.873,3.871,3.92,3.933,3.876,20.354,77,14,Waypoint,
38.2848473,-120.3444645,4557.5422009595,175.853024,0,1.01291669908,23200,2018-05-08 19:56:01,16,0,23.333,4557.5422009595,175.853024,0.223694,1.41292983524,0,0,-0.671082,146.2, 1.2, 1.6,0,0,1024,1024,1024,1024,146.1,-89.9,96,3.874,3.873,3.871,3.92,3.933,3.876,20.354,77,14,Waypoint,
38.2848473,-120.3444645,4558.5264529595,176.837276,0,1.01291669908,23300,2018-05-08 19:56:01,16,0,23.333,4558.5264529595,176.837276,0.223694,1.41292983524,0,0,-0.671082,146.4, 1.1, 1.8,0,0,1024,1024,1024,1024,146.1,-89.9,96,3.874,3.873,3.871,3.92,3.933,3.876,20.354,77,14,Waypoint,
38.2848474,-120.3444646,4560.4949569595,178.80578,0,0.990649638,23500,2018-05-08 19:56:02,16,0,23.333,4560.4949569595,178.80578,0.223694,1.41292983524,0,0,-0.671082,146.7, 1.1, 2.2,0,0,1024,1024,1024,1024,146.1,-89.9,96,3.874,3.873,3.871,3.92,3.933,3.876,20.354,77,14,Waypoint,
38.2848475,-120.3444647,4562.4634609595,180.774284,0,0.97009189456,23700,2018-05-08 19:56:02,16,0,23.333,4562.4634609595,180.774284,0.223694,1.41292983524,0,0,-0.671082,146.9, 0.7, 1.8,0,0,1024,1024,1024,1024,146.1,-90,96,3.874,3.873,3.871,3.92,3.933,3.876,20.354,77,14,Waypoint,
38.2848476,-120.3444647,4563.4477129595,181.758536,0,0.9789698476,23800,2018-05-08 19:56:02,16,0,23.333,4563.4477129595,181.758536,0.223694,1.41292983524,0,0,-0.671082,147, 0.6, 1.7,0,0,1024,1024,1024,1024,146.1,-89.9,96,3.874,3.873,3.871,3.92,3.933,3.876,20.354,77,14,Waypoint,
38.2848476,-120.3444648,4564.4319649595,182.742788,0,0.95135501732,23900,2018-05-08 19:56:02,16,0,23.333,4564.4319649595,182.742788,0.223694,1.41292983524,0,0,-0.671082,147, 0.5, 1.6,0,0,1024,1024,1024,1024,146.1,-89.9,96,3.874,3.873,3.871,3.92,3.933,3.876,20.354,77,14,Waypoint,
38.2848477,-120.3444648,4565.4162169595,183.72704,0,0.96179136936,24000,2018-05-08 19:56:02,16,0,23.441,4565.4162169595,183.72704,0.223694,1.41292983524,0,0,-0.671082,147, 0.4, 1.5,0,0,1024,1024,1024,1024,146.1,-89.9,96,3.874,3.881,3.869,3.924,3.926,3.885,18.301,77,14,Waypoint,
38.2848477,-120.3444648,4566.4004689595,184.711292,0,0.96179136936,24110,2018-05-08 19:56:02,16,0,23.441,4566.4004689595,184.711292,0.223694,1.41292983524,0,0,-0.671082,146.8, 0.4, 1.5,0,0,1024,1024,1024,1024,146.1,-90,96,3.874,3.881,3.869,3.924,3.926,3.885,18.301,77,14,Waypoint,
38.2848479,-120.3444649,4568.3689729595,186.679796,0,0.95983926956,24300,2018-05-08 19:56:02,16,0,23.441,4568.3689729595,186.679796,0.223694,1.41292983524,0,0,-0.671082,146.3, 0.3, 2,0,0,1024,1024,1024,1024,146.1,-90,96,3.874,3.881,3.869,3.924,3.926,3.885,18.301,77,14,Waypoint,
38.2848479,-120.3444649,4569.3532249595,187.664048,0,0.95983926956,24400,2018-05-08 19:56:03,16,0,23.441,4569.3532249595,187.664048,0.223694,1.41292983524,0,0,-0.671082,146.2, 0.4, 2.1,0,0,1024,1024,1024,1024,146.1,-90,96,3.874,3.881,3.869,3.924,3.926,3.885,18.301,77,14,Waypoint,
38.2848479,-120.3444649,4570.3374769595,188.6483,0,0.95983926956,24500,2018-05-08 19:56:03,16,0,23.441,4570.3374769595,188.6483,0.223694,1.41292983524,0,0,-0.671082,146.3, 0.3, 2.2,0,0,1024,1024,1024,1024,146.1,-90,96,3.874,3.881,3.869,3.924,3.926,3.885,18.301,77,14,Waypoint,
38.284848,-120.344465,4571.3217289595,189.632552,0,0.94827102772,24600,2018-05-08 19:56:03,16,0,23.441,4571.3217289595,189.632552,0.223694,1.41292983524,0,0,-0.671082,146.5, 0.3, 2.1,0,0,1024,1024,1024,1024,146.1,-90,96,3.874,3.881,3.869,3.924,3.926,3.885,18.301,77,14,Waypoint,
38.284848,-120.344465,4572.3059809595,190.616804,0,0.94827102772,24700,2018-05-08 19:56:03,16,0,23.441,4572.3059809595,190.616804,0.223694,1.41292983524,0,0,-0.671082,146.9, 0.3, 2.1,0,0,1024,1024,1024,1024,146.1,-90,96,3.874,3.881,3.869,3.924,3.926,3.885,18.301,77,14,Waypoint,
38.2848481,-120.344465,4573.2902329595,191.601056,0,0.96427824608,24800,2018-05-08 19:56:03,16,0,23.441,4573.2902329595,191.601056,0.223694,1.41292983524,0,0,-0.671082,147.1, 0.3, 2,0,0,1024,1024,1024,1024,146.1,-89.9,96,3.874,3.881,3.869,3.924,3.926,3.885,18.301,77,14,Waypoint,
38.2848481,-120.344465,4574.2744849595,192.585308,0,0.96427824608,25000,2018-05-08 19:56:03,16,0,23.441,4574.2744849595,192.585308,0.223694,1.41292983524,0,0,-0.671082,147.2, 0.4, 1.9,0,0,1024,1024,1024,1024,146.1,-89.9,96,3.888,3.885,3.892,3.943,3.943,3.902,18.301,77,14,Waypoint,
38.2848482,-120.344465,4577.2272409595,195.538064,0,0.981381265,25300,2018-05-08 19:56:03,16,0,23.441,4577.2272409595,195.538064,0.223694,1.41292983524,0,0,-0.671082,147, 0.4, 2.1,0,0,1024,1024,1024,1024,146.1,-89.9,96,3.888,3.885,3.892,3.943,3.943,3.902,18.301,77,14,Waypoint,
38.2848483,-120.344465,4578.2114929595,196.522316,0,0.99952759104,25400,2018-05-08 19:56:04,16,0,23.441,4578.2114929595,196.522316,0.223694,1.41292983524,0,0,-0.671082,146.8, 0.3, 2.3,0,0,1024,1024,1024,1024,146.1,-89.9,96,3.888,3.885,3.892,3.943,3.943,3.902,18.301,77,14,Waypoint,
38.2848483,-120.3444649,4580.1799969595,198.49082,0,1.02424872044,25500,2018-05-08 19:56:04,16,0,23.441,4580.1799969595,198.49082,0.223694,1.41292983524,0,0,-0.671082,146.6, 0.8, 2.3,0,0,1024,1024,1024,1024,146.1,-89.9,96,3.888,3.885,3.892,3.943,3.943,3.902,18.301,77,14,Waypoint,
38.2848483,-120.3444649,4581.1642489595,199.475072,0,1.02424872044,25600,2018-05-08 19:56:04,16,0,23.441,4581.1642489595,199.475072,0.223694,1.41292983524,0,0,-0.671082,146.6, 1, 2.4,0,0,1024,1024,1024,1024,146.1,-89.9,96,3.888,3.885,3.892,3.943,3.943,3.902,18.301,77,14,Waypoint,
38.2848483,-120.3444648,4583.1327529595,201.443576,0,1.04916670024,25800,2018-05-08 19:56:04,16,0,23.441,4583.1327529595,201.443576,0.223694,1.41292983524,0,0,-0.671082,146.6, 0.8, 2.6,0,0,1024,1024,1024,1024,146.1,-89.9,96,3.888,3.885,3.892,3.943,3.943,3.902,18.301,77,14,Waypoint,
38.2848484,-120.3444647,4584.7731729595,203.083996,0,1.0920932108,26000,2018-05-08 19:56:04,16,0,23.501,4584.7731729595,203.083996,0.223694,1.41292983524,0,0,-0.671082,146.6, 0.5, 2.5,0,0,1024,1024,1024,1024,146.1,-89.9,96,3.896,3.905,3.894,3.947,3.946,3.906,17.847,77,14,Waypoint,
38.2848484,-120.3444647,4586.0855089595,204.396332,0,1.0920932108,26100,2018-05-08 19:56:04,16,0,23.501,4586.0855089595,204.396332,0.223694,1.41292983524,0,0,-0.671082,146.7, 0.5, 2.7,0,0,1024,1024,1024,1024,146.1,-89.9,96,3.896,3.905,3.894,3.947,3.946,3.906,17.847,77,14,Waypoint,
38.2848485,-120.3444647,4587.0697609595,205.380584,0,1.1108268072,26200,2018-05-08 19:56:04,16,0,23.501,4587.0697609595,205.380584,0.223694,1.41292983524,0,0,-0.671082,146.7, 0.3, 2.7,0,0,1024,1024,1024,1024,146.1,-89.9,96,3.896,3.905,3.894,3.947,3.946,3.906,17.847,77,14,Waypoint,
38.2848485,-120.3444647,4588.0540129595,206.364836,0,1.1108268072,26300,2018-05-08 19:56:04,16,0,23.501,4588.0540129595,206.364836,0.223694,1.41292983524,0,0,-0.671082,146.8, 0.2, 2.6,0,0,1024,1024,1024,1024,146.1,-89.9,96,3.896,3.905,3.894,3.947,3.946,3.906,17.847,77,14,Waypoint,
38.2848486,-120.3444647,4589.6944329595,208.005256,0,1.13042654536,26510,2018-05-08 19:56:05,16,0,23.501,4589.6944329595,208.005256,0.223694,1.41292983524,0,0,-0.671082,147.1, 0, 2.6,0,0,1024,1024,1024,1024,146.1,-89.9,96,3.896,3.905,3.894,3.947,3.946,3.906,17.847,77,14,Waypoint,
38.2848486,-120.3444647,4591.0067689595,209.317592,0,1.13042654536,26600,2018-05-08 19:56:05,16,0,23.501,4591.0067689595,209.317592,0.223694,1.41292983524,0,0,-0.671082,147.2, 0.2, 2.7,0,0,1024,1024,1024,1024,146.1,-89.9,96,3.896,3.905,3.894,3.947,3.946,3.906,17.847,77,14,Waypoint,
38.2848486,-120.3444647,4591.6629369595,209.97376,0,1.13042654536,26700,2018-05-08 19:56:05,16,0,23.501,4591.6629369595,209.97376,0.223694,1.41292983524,0,0,-0.671082,147.1, 0.3, 2.9,0,0,1024,1024,1024,1024,146.1,-89.9,96,3.896,3.905,3.894,3.947,3.946,3.906,17.847,77,14,Waypoint,
38.2848487,-120.3444646,4592.6471889595,210.958012,0,1.17447838404,26800,2018-05-08 19:56:05,16,0,23.501,4592.6471889595,210.958012,0.223694,1.41292983524,0,0,-0.671082,146.9, 0.2, 2.9,0,0,1024,1024,1024,1024,146.1,-89.9,96,3.896,3.905,3.894,3.947,3.946,3.906,17.847,77,14,Waypoint,
38.2848487,-120.3444646,4593.6314409595,211.942264,0,1.17447838404,26900,2018-05-08 19:56:05,16,0,23.501,4593.6314409595,211.942264,0.223694,1.41292983524,0,0,-0.671082,146.8, 0, 3,0,0,1024,1024,1024,1024,146.1,-90,96,3.896,3.905,3.894,3.947,3.946,3.906,17.847,77,14,Waypoint,
38.2848488,-120.3444646,4594.6156929595,212.926516,0,1.19526250544,27000,2018-05-08 19:56:05,16,0,23.5,4594.6156929595,212.926516,0.223694,1.41292983524,0,0,-0.671082,146.6, -0.1, 3.1,0,0,1024,1024,1024,1024,146.1,-89.9,95,3.898,3.904,3.903,3.947,3.952,3.894,17.934,77,14,Waypoint,
38.2848488,-120.3444645,4595.5999449595,213.910768,0,1.21870738808,27100,2018-05-08 19:56:05,16,0,23.5,4595.5999449595,213.910768,0.223694,1.41292983524,0,0,-0.671082,146.4, -0.2, 3.2,0,0,1024,1024,1024,1024,146.1,-89.9,95,3.898,3.904,3.903,3.947,3.952,3.894,17.934,77,14,Waypoint,
38.2848488,-120.3444645,4596.5841969595,214.89502,0,1.21870738808,27200,2018-05-08 19:56:05,16,0,23.5,4596.5841969595,214.89502,0.223694,1.41292983524,0,0,-0.671082,146.3, -0.2, 3.2,0,0,1024,1024,1024,1024,146.1,-90,95,3.898,3.904,3.903,3.947,3.952,3.894,17.934,77,14,Waypoint,
38.2848488,-120.3444645,4597.5684489595,215.879272,0,1.21870738808,27300,2018-05-08 19:56:05,16,0,23.5,4597.5684489595,215.879272,0.223694,1.41292983524,0,0,-0.671082,146.4, -0.1, 3.2,0,0,1024,1024,1024,1024,146.1,-89.9,95,3.898,3.904,3.903,3.947,3.952,3.894,17.934,77,14,Waypoint,
38.2848488,-120.3444645,4598.5527009595,216.863524,0,1.21870738808,27400,2018-05-08 19:56:06,16,0,23.5,4598.5527009595,216.863524,0.223694,1.41292983524,0,0,-0.671082,146.5, 0.1, 3.3,0,0,1024,1024,1024,1024,146.1,-89.9,95,3.898,3.904,3.903,3.947,3.952,3.894,17.934,77,14,Waypoint,
38.2848488,-120.3444645,4599.5369529595,217.847776,0,1.21870738808,27600,2018-05-08 19:56:06,16,0,23.5,4599.5369529595,217.847776,0.223694,1.41292983524,0,0,-0.671082,146.6, 0.3, 3.3,0,0,1024,1024,1024,1024,146.1,-89.9,95,3.898,3.904,3.903,3.947,3.952,3.894,17.934,77,14,Waypoint,
38.2848488,-120.3444644,4600.5212049595,218.832028,0,1.24236880616,27700,2018-05-08 19:56:06,16,0,23.5,4600.5212049595,218.832028,0.223694,1.41292983524,0,0,-0.671082,146.7, 0.3, 3.3,0,0,1024,1024,1024,1024,146.1,-89.9,95,3.898,3.904,3.903,3.947,3.952,3.894,17.934,77,14,Waypoint,
38.2848488,-120.3444644,4603.4739609595,221.784784,0,1.24236880616,27900,2018-05-08 19:56:06,16,0,23.5,4603.4739609595,221.784784,0.223694,1.41292983524,0,0,-0.671082,146.7, 0.2, 3,0,0,1024,1024,1024,1024,146.1,-89.9,95,3.898,3.904,3.903,3.947,3.952,3.894,17.934,77,14,Waypoint,
38.2848488,-120.3444643,4604.4582129595,222.769036,0,1.26623363632,28000,2018-05-08 19:56:06,16,0,23.467,4604.4582129595,222.769036,0.223694,1.41292983524,0,0,-0.671082,146.8, 0.3, 3.1,0,0,1024,1024,1024,1024,146.1,-89.9,95,3.889,3.902,3.889,3.94,3.941,3.892,18.178,77,14,Waypoint,
38.2848487,-120.3444643,4606.4267169595,224.73754,0,1.24663389816,28200,2018-05-08 19:56:06,16,0,23.467,4606.4267169595,224.73754,0.223694,1.41292983524,0,0,-0.671082,146.9, 0.5, 3.2,0,0,1024,1024,1024,1024,146.1,-89.9,95,3.889,3.902,3.889,3.94,3.941,3.892,18.178,77,14,Waypoint,
38.2848487,-120.3444642,4607.4109689595,225.721792,0,1.27106631364,28300,2018-05-08 19:56:06,16,0,23.467,4607.4109689595,225.721792,0.223694,1.41292983524,0,0,-0.671082,146.7, 0.5, 3.3,0,0,1024,1024,1024,1024,146.1,-89.9,95,3.889,3.902,3.889,3.94,3.941,3.892,18.178,77,14,Waypoint,
38.2848486,-120.3444642,4609.3794729595,227.690296,0,1.25260502696,28500,2018-05-08 19:56:07,16,0,23.467,4609.3794729595,227.690296,0.223694,1.41292983524,0,0,-0.671082,146.4, 0.4, 3.2,0,0,1024,1024,1024,1024,146.1,-89.9,95,3.889,3.902,3.889,3.94,3.941,3.892,18.178,77,14,Waypoint,
38.2848486,-120.3444642,4610.3637249595,228.674548,0,1.25260502696,28600,2018-05-08 19:56:07,16,0,23.467,4610.3637249595,228.674548,0.223694,1.41292983524,0,0,-0.671082,146.4, 0.3, 3,0,0,1024,1024,1024,1024,146.1,-89.9,95,3.889,3.902,3.889,3.94,3.941,3.892,18.178,77,14,Waypoint,
38.2848486,-120.3444642,4612.3322289595,230.643052,0,1.25260502696,28800,2018-05-08 19:56:07,16,0,23.467,4612.3322289595,230.643052,0.223694,1.41292983524,0,0,-0.671082,146.6, 0.6, 2.8,0,0,1024,1024,1024,1024,146.1,-89.9,95,3.889,3.902,3.889,3.94,3.941,3.892,18.178,77,14,Waypoint,
38.2848486,-120.3444642,4613.3164809595,231.627304,0,1.25260502696,28900,2018-05-08 19:56:07,16,0,23.467,4613.3164809595,231.627304,0.223694,1.41292983524,0,0,-0.671082,146.7, 0.5, 3.2,0,0,1024,1024,1024,1024,146.1,-89.9,95,3.889,3.902,3.889,3.94,3.941,3.892,18.178,77,14,Waypoint,
38.2848486,-120.3444642,4614.3007329595,232.611556,0,1.25260502696,29000,2018-05-08 19:56:07,16,0,23.433,4614.3007329595,232.611556,0.223694,1.41292983524,0,0,-0.671082,146.7, 0.3, 3.3,0,0,1024,1024,1024,1024,146.1,-89.9,95,3.882,3.889,3.891,3.941,3.936,3.897,18.123,78.8,14,Waypoint,
38.2848486,-120.3444643,4615.2849849595,233.595808,0,1.2278051574,29100,2018-05-08 19:56:07,16,0,23.433,4615.2849849595,233.595808,0.223694,1.41292983524,0,0,-0.671082,146.7, 0, 3.4,0,0,1024,1024,1024,1024,146.1,-89.9,95,3.882,3.889,3.891,3.941,3.936,3.897,18.123,78.8,14,Waypoint,
38.2848486,-120.3444643,4616.2692369595,234.58006,0,1.2278051574,29200,2018-05-08 19:56:07,16,0,23.433,4616.2692369595,234.58006,0.223694,1.41292983524,0,0,-0.671082,146.6, -0.2, 3.7,0,0,1024,1024,1024,1024,146.1,-90,95,3.882,3.889,3.891,3.941,3.936,3.897,18.123,78.8,14,Waypoint,
38.2848486,-120.3444643,4618.2377409595,236.548564,0,1.2278051574,29400,2018-05-08 19:56:08,16,0,23.433,4618.2377409595,236.548564,0.223694,1.41292983524,0,0,-0.671082,146.7, -0.7, 3.4,0,0,1024,1024,1024,1024,146.1,-89.9,95,3.882,3.889,3.891,3.941,3.936,3.897,18.123,78.8,14,Waypoint,
