latitude,longitude,altitude(feet),ascent(feet),speed(mph),distance(feet),time(millisecond),datetime(utc),satellites,gpslevel,voltage(v),max_altitude(feet),max_ascent(feet),max_speed(mph),max_distance(feet), xSpeed(mph), ySpeed(mph), zSpeed(mph), compass_heading(degrees), pitch(degrees), roll(degrees),isPhoto,isVideo,rc_elevator,rc_aileron,rc_throttle,rc_rudder,gimbal_heading(degrees),gimbal_pitch(degrees),battery_percent,voltageCell1,voltageCell2,voltageCell3,voltageCell4,voltageCell5,voltageCell6,current(A),battery_temperature(f),flycStateRaw,flycState,message
38.2848409,-120.3444738,4381.7180122622,0,0.223694,0,3120,2018-05-08 21:35:46,13,0,0,4381.7180122622,0,0.223694,0,0,0,0,150.2, -1.4, -1.4,1,0,1024,1024,1024,1024,150,-89.9,96,3.956,3.971,3.974,3.986,4.006,3.971,0,75.2,11,AutoTakeoff,DJI_0384.jpg Starting Mission from Lat/Long: 38.28484/-120.34448 Camera: Zenmuse X3 - Overlap: 90/90 - Active Connection: No
38.284841,-120.3444736,4381.7180122622,0,0.223694,0.067910435244,3200,2018-05-08 21:35:46,13,0,0,4381.7180122622,0,0.223694,0.067910435244,0,0,0,150.4, -1.1, -1.1,0,0,1024,1024,1024,1024,150,-89.9,96,3.956,3.971,3.974,3.986,4.006,3.971,0,75.2,11,AutoTakeoff,
38.284841,-120.3444734,4381.7180122622,0,0.447388,0.120223757128,3300,2018-05-08 21:35:46,13,0,0,4381.7180122622,0,0.447388,0.120223757128,0,0,0,150.5, -0.4, -0.6,0,0,1024,1024,1024,1024,150,-89.9,96,3.956,3.971,3.974,3.986,4.006,3.971,0,75.2,11,AutoTakeoff,
38.2848411,-120.3444731,4382.0460962622,0.328084,0.447388,0.213336949084,3400,2018-05-08 21:35:46,14,0,0,4382.0460962622,0.328084,0.447388,0.213336949084,0,0,0,150.5, 0.1, 0,0,0,1024,1024,1024,1024,150,-89.9,96,3.956,3.971,3.974,3.986,4.006,3.971,0,75.2,11,AutoTakeoff,
38.2848412,-120.3444727,4382.0460962622,0.328084,0.671082,0.333497386,3500,2018-05-08 21:35:46,14,0,0,4382.0460962622,0.328084,0.671082,0.333497386,0,0,0,150.4, 0.6, 0.9,0,0,1024,1024,1024,1024,150,-89.9,96,3.956,3.971,3.974,3.986,4.006,3.971,0,75.2,11,AutoTakeoff,
38.2848413,-120.3444723,4382.3741802622,0.656168,0.671082,0.4536909594,3610,2018-05-08 21:35:46,17,0,0,4382.3741802622,0.656168,0.671082,0.4536909594,0,0,0,150.3, 0.7, 2,0,0,1024,1024,1024,1024,150,-89.9,96,3.956,3.971,3.974,3.986,4.006,3.971,0,75.2,11,AutoTakeoff,
38.2848415,-120.3444716,4382.7022642622,0.984252,0.447388,0.666994772,3800,2018-05-08 21:35:46,14,0,0,4382.7022642622,0.984252,0.671082,0.666994772,0,0,0,150.3, 1.2, 3.4,0,0,1024,1024,1024,1024,150,-89.9,96,3.956,3.971,3.974,3.986,4.006,3.971,0,75.2,11,AutoTakeoff,
38.2848417,-120.3444713,4382.7022642622,0.984252,0.447388,0.77317259692,3900,2018-05-08 21:35:46,14,0,0,4382.7022642622,0.984252,0.671082,0.77317259692,0,0,0,150.4, 1.1, 3.6,0,0,1024,1024,1024,1024,150,-89.9,96,3.956,3.971,3.974,3.986,4.006,3.971,0,75.2,11,AutoTakeoff,
38.2848419,-120.3444707,4383.0303482622,1.312336,0.223694,0.95983926956,4100,2018-05-08 21:35:47,15,0,0,4383.0303482622,1.312336,0.671082,0.95983926956,0,0,0,150.1, 0.4, 3.5,0,0,1024,1024,1024,1024,150,-89.9,96,3.956,3.971,3.974,3.986,4.006,3.971,0,75.2,11,AutoTakeoff,
38.2848419,-120.3444706,4383.0303482622,1.312336,0.223694,0.98638782684,4200,2018-05-08 21:35:47,14,0,0,4383.0303482622,1.312336,0.671082,0.98638782684,0,0,0,149.9, 0.3, 3.3,0,0,1024,1024,1024,1024,150,-90,96,3.956,3.971,3.974,3.986,4.006,3.971,0,75.2,11,AutoTakeoff,
38.284842,-120.3444705,4383.3584322622,1.64042,0.223694,1.0267552822,4300,2018-05-08 21:35:47,14,0,0,4383.3584322622,1.64042,0.671082,1.0267552822,0,0,0,149.6, 0.3, 2.9,0,0,1024,1024,1024,1024,150,-89.9,96,3.956,3.971,3.974,3.986,4.006,3.971,0,75.2,11,AutoTakeoff,
38.284842,-120.3444703,4383.3584322622,1.64042,0.223694,1.0797080398,4400,2018-05-08 21:35:47,14,0,0,4383.3584322622,1.64042,0.671082,1.0797080398,0,0,-0.223694,149.3, 0.3, 2.1,0,0,1024,1024,1024,1024,150,-89.9,96,3.956,3.971,3.974,3.986,4.006,3.971,0,75.2,11,AutoTakeoff,
38.2848419,-120.3444701,4383.6865162622,1.968504,0.223694,1.12067916972,4500,2018-05-08 21:35:47,14,0,0,4383.6865162622,1.968504,0.671082,1.12067916972,0,0,-0.223694,149.3, 0.3, 1.7,0,0,1024,1024,1024,1024,150,-89.9,96,3.956,3.971,3.974,3.986,4.006,3.971,0,75.2,11,AutoTakeoff,
38.284842,-120.3444699,4384.0146002622,2.296588,0.223694,1.18681762328,4600,2018-05-08 21:35:47,12,0,0,4384.0146002622,2.296588,0.671082,1.18681762328,0,0,-0.223694,149.3, 0.4, 1.7,0,0,1024,1024,1024,1024,150,-89.9,96,3.956,3.971,3.974,3.986,4.006,3.971,0,75.2,11,AutoTakeoff,
38.284842,-120.3444697,4384.3426842622,2.624672,0.223694,1.24087274312,4700,2018-05-08 21:35:47,12,0,0,4384.3426842622,2.624672,0.671082,1.24087274312,0,0,-0.223694,149.4, 0.6, 1.8,0,0,1024,1024,1024,1024,150,-89.9,96,3.956,3.971,3.974,3.986,4.006,3.971,0,75.2,11,AutoTakeoff,
38.284842,-120.3444695,4384.3426842622,2.624672,0.223694,1.29520345352,4800,2018-05-08 21:35:47,13,0,0,4384.3426842622,2.624672,0.671082,1.29520345352,0,0,-0.223694,149.6, 1, 1.9,0,0,1024,1024,1024,1024,150,-89.9,96,3.956,3.971,3.974,3.986,4.006,3.971,0,75.2,11,AutoTakeoff,
38.2848421,-120.3444693,4384.6707682622,2.952756,0.223694,1.3610728782,4900,2018-05-08 21:35:47,13,0,0,4384.6707682622,2.952756,0.671082,1.3610728782,0,0,-0.223694,149.8, 1.2, 2.2,0,0,1024,1024,1024,1024,150,-89.9,96,3.956,3.971,3.974,3.986,4.006,3.971,0,75.2,6,P-GPS,
38.2848421,-120.344469,4384.6707682622,2.952756,0.223694,1.44268705404,5000,2018-05-08 21:35:47,15,0,23.912,4384.6707682622,2.952756,0.671082,1.44268705404,0,0,-0.223694,150, 1.3, 2.6,0,0,1024,1024,1024,1024,150,-89.9,96,3.956,3.971,3.974,3.986,4.006,3.971,17.176,75.2,14,Waypoint,
38.2848423,-120.3444685,4384.9988522622,3.28084,0.223694,1.60148299088,5100,2018-05-08 21:35:48,15,0,23.912,4384.9988522622,3.28084,0.671082,1.60148299088,0,0,0,150.1, 1.3, 3,0,0,1024,1024,1024,1024,150,-89.9,96,3.956,3.971,3.974,3.986,4.006,3.971,17.176,75.2,14,Waypoint,
38.2848423,-120.3444684,4384.9988522622,3.28084,0.223694,1.62865162692,5200,2018-05-08 21:35:48,15,0,23.912,4384.9988522622,3.28084,0.671082,1.62865162692,0,0,0,150.2, 0.8, 3,0,0,1024,1024,1024,1024,150,-89.9,96,3.956,3.971,3.974,3.986,4.006,3.971,17.176,75.2,14,Waypoint,
38.2848423,-120.3444683,4384.9988522622,3.28084,0.223694,1.65586947556,5300,2018-05-08 21:35:48,15,0,23.912,4384.9988522622,3.28084,0.671082,1.65586947556,0,0,0,150.2, 0.7, 2.8,0,0,1024,1024,1024,1024,150,-89.9,96,3.956,3.971,3.974,3.986,4.006,3.971,17.176,75.2,14,Waypoint,
38.2848423,-120.3444681,4384.9988522622,3.28084,0,1.71044296812,5400,2018-05-08 21:35:48,14,0,23.912,4384.9988522622,3.28084,0.671082,1.71044296812,0,0,0,150.2, 0.7, 2.7,0,0,1024,1024,1024,1024,150,-89.9,96,3.956,3.971,3.974,3.986,4.006,3.971,17.176,75.2,14,Waypoint,
38.2848424,-120.344468,4385.3269362622,3.608924,0,1.7488681662,5500,2018-05-08 21:35:48,14,0,23.912,4385.3269362622,3.608924,0.671082,1.7488681662,0,0,-0.223694,150.1, 0.8, 2.4,0,0,1024,1024,1024,1024,150,-89.9,96,3.956,3.971,3.974,3.986,4.006,3.971,17.176,75.2,14,Waypoint,
38.2848424,-120.3444679,4385.6550202622,3.937008,0,1.77609257652,5600,2018-05-08 21:35:48,15,0,23.912,4385.6550202622,3.937008,0.671082,1.77609257652,0,0,-0.223694,150, 0.8, 2.3,0,0,1024,1024,1024,1024,150,-89.9,96,3.956,3.971,3.974,3.986,4.006,3.971,17.176,75.2,14,Waypoint,
38.2848424,-120.3444678,4385.6550202622,3.937008,0,1.80335635692,5700,2018-05-08 21:35:48,15,0,23.912,4385.6550202622,3.937008,0.671082,1.80335635692,0,0,-0.223694,150, 0.5, 2,0,0,1024,1024,1024,1024,150,-89.9,96,3.956,3.971,3.974,3.986,4.006,3.971,17.176,75.2,14,Waypoint,
38.2848425,-120.3444676,4386.3111882622,4.593176,0,1.86908470548,5800,2018-05-08 21:35:48,15,0,23.912,4386.3111882622,4.593176,0.671082,1.86908470548,0,0,-0.223694,150.1, 0.5, 2,0,0,1024,1024,1024,1024,150,-89.9,96,3.956,3.971,3.974,3.986,4.006,3.971,17.176,75.2,14,Waypoint,
38.2848426,-120.3444674,4386.6392722622,4.92126,0,1.93496725352,5900,2018-05-08 21:35:48,15,0,23.912,4386.6392722622,4.92126,0.671082,1.93496725352,0,0,-0.223694,150.2, 0.8, 2.4,0,0,1024,1024,1024,1024,150,-89.9,96,3.956,3.971,3.974,3.986,4.006,3.971,17.176,75.2,14,Waypoint,
38.2848427,-120.3444672,4386.9673562622,5.249344,0,2.00098103516,6000,2018-05-08 21:35:48,13,0,23.834,4386.9673562622,5.249344,0.671082,2.00098103516,0,0,-0.223694,150.2, 0.9, 3.1,0,0,1024,1024,1024,1024,150,-89.9,96,3.956,3.971,3.974,3.986,4.006,3.971,16.42,75.2,14,Waypoint,
38.2848428,-120.3444669,4387.9516082622,6.233596,0,2.09412080192,6200,2018-05-08 21:35:49,12,0,23.834,4387.9516082622,6.233596,0.671082,2.09412080192,0,0,-0.447388,150.3, 1.1, 3.8,0,0,1024,1024,1024,1024,150,-89.9,96,3.956,3.971,3.974,3.986,4.006,3.971,16.42,75.2,14,Waypoint,
38.2848428,-120.3444667,4388.6077762622,6.889764,0,2.14825138108,6400,2018-05-08 21:35:49,12,0,23.834,4388.6077762622,6.889764,0.671082,2.14825138108,0,0,-0.447388,150.4, 1.4, 3.6,0,0,1024,1024,1024,1024,150,-89.9,96,3.956,3.971,3.974,3.986,4.006,3.971,16.42,75.2,14,Waypoint,
38.2848428,-120.3444666,4389.2639442622,7.545932,0,2.17538064704,6500,2018-05-08 21:35:49,14,0,23.834,4389.2639442622,7.545932,0.671082,2.17538064704,0,0,-0.447388,150.4, 1.5, 3.1,0,0,1024,1024,1024,1024,150,-89.9,96,3.956,3.971,3.974,3.986,4.006,3.971,16.42,75.2,14,Waypoint,
38.2848429,-120.3444666,4390.2481962622,8.530184,0,2.18728025372,6600,2018-05-08 21:35:49,14,0,23.834,4390.2481962622,8.530184,0.671082,2.18728025372,0,0,-0.447388,150.3, 1.2, 2.7,0,0,1024,1024,1024,1024,150,-89.9,96,3.956,3.971,3.974,3.986,4.006,3.971,16.42,75.2,14,Waypoint,
38.284843,-120.344467,4392.2167002622,10.498688,0.223694,2.09271988324,6700,2018-05-08 21:35:49,13,0,23.834,4392.2167002622,10.498688,0.671082,2.18728025372,0,0,-0.671082,150.2, 0.2, 2.4,0,0,1024,1024,1024,1024,150,-90,96,3.956,3.971,3.974,3.986,4.006,3.971,16.42,75.2,14,Waypoint,
38.2848431,-120.3444671,4393.2009522622,11.48294,0.223694,2.07990164136,6800,2018-05-08 21:35:49,12,0,23.834,4393.2009522622,11.48294,0.671082,2.18728025372,0,0,-0.671082,150.2, 0, 1.8,0,0,1024,1024,1024,1024,150,-90,96,3.956,3.971,3.974,3.986,4.006,3.971,16.42,75.2,14,Waypoint,
38.2848432,-120.3444672,4394.1852042622,12.467192,0.223694,2.0680446856,6900,2018-05-08 21:35:49,12,0,23.834,4394.1852042622,12.467192,0.671082,2.18728025372,0,0,-0.671082,150.3, 0, 1.8,0,0,1024,1024,1024,1024,150,-89.9,96,3.956,3.971,3.974,3.986,4.006,3.971,16.42,75.2,14,Waypoint,
38.2848432,-120.3444672,4395.1694562622,13.451444,0.223694,2.0680446856,7000,2018-05-08 21:35:49,14,0,23.34,4395.1694562622,13.451444,0.671082,2.18728025372,0,0,-0.671082,150.3, 0.1, 1.9,0,0,1024,1024,1024,1024,150,-89.9,96,3.953,3.96,3.971,3.975,3.997,3.96,21.819,75.2,14,Waypoint,
38.2848432,-120.3444673,4396.4817922622,14.76378,0.223694,2.04190295248,7100,2018-05-08 21:35:50,14,0,23.34,4396.4817922622,14.76378,0.671082,2.18728025372,0,0,-0.671082,150.2, 0.2, 2,0,0,1024,1024,1024,1024,150,-89.9,96,3.953,3.96,3.971,3.975,3.997,3.96,21.819,75.2,14,Waypoint,
38.2848432,-120.3444674,4397.4660442622,15.748032,0.223694,2.015830117,7200,2018-05-08 21:35:50,14,0,23.34,4397.4660442622,15.748032,0.671082,2.18728025372,0,0,-0.671082,150.2, 0.3, 1.6,0,0,1024,1024,1024,1024,150,-89.9,96,3.953,3.96,3.971,3.975,3.997,3.96,21.819,75.2,14,Waypoint,
38.2848433,-120.3444676,4398.4502962622,16.732284,0.223694,1.97976056204,7300,2018-05-08 21:35:50,14,0,23.34,4398.4502962622,16.732284,0.671082,2.18728025372,0,0,-0.671082,150.3, 0.3, 1.1,0,0,1024,1024,1024,1024,150,-89.9,96,3.953,3.96,3.971,3.975,3.997,3.96,21.819,75.2,14,Waypoint,
38.2848433,-120.3444677,4399.7626322622,18.04462,0.223694,1.9541175166,7400,2018-05-08 21:35:50,14,0,23.34,4399.7626322622,18.04462,0.671082,2.18728025372,0,0,-0.671082,150.4, 0, 0.8,0,0,1024,1024,1024,1024,150,-89.9,96,3.953,3.96,3.971,3.975,3.997,3.96,21.819,75.2,14,Waypoint,
38.2848433,-120.3444678,4400.7468842622,19.028872,0,1.92855649216,7500,2018-05-08 21:35:50,14,0,23.34,4400.7468842622,19.028872,0.671082,2.18728025372,0,0,-0.671082,150.5, 0, 0.9,0,0,1024,1024,1024,1024,150,-89.9,96,3.953,3.96,3.971,3.975,3.997,3.96,21.819,75.2,14,Waypoint,
38.2848431,-120.3444681,4403.0434722622,21.32546,0.223694,1.819061738,7700,2018-05-08 21:35:50,13,0,23.34,4403.0434722622,21.32546,0.671082,2.18728025372,0,0,-0.671082,150.4, 0.2, 1,0,0,1024,1024,1024,1024,150,-89.9,96,3.953,3.96,3.971,3.975,3.997,3.96,21.819,75.2,14,Waypoint,
38.284843,-120.3444682,4404.0277242622,22.309712,0.223694,1.7773786658,7800,2018-05-08 21:35:50,13,0,23.34,4404.0277242622,22.309712,0.671082,2.18728025372,0,0,-0.671082,150.3, 0.4, 0.6,0,0,1024,1024,1024,1024,150,-89.9,96,3.953,3.96,3.971,3.975,3.997,3.96,21.819,75.2,14,Waypoint,
38.284843,-120.3444683,4405.0119762622,23.293964,0,1.75158142088,7900,2018-05-08 21:35:50,13,0,23.34,4405.0119762622,23.293964,0.671082,2.18728025372,0,0,-0.671082,150.1, 0.5, 0.4,0,0,1024,1024,1024,1024,150,-89.9,96,3.953,3.96,3.971,3.975,3.997,3.96,21.819,75.2,14,Waypoint,
38.2848429,-120.3444684,4406.3243122622,24.6063,0.223694,1.70998693136,8000,2018-05-08 21:35:50,14,0,23.34,4406.3243122622,24.6063,0.671082,2.18728025372,0,0,-0.671082,149.9, 0.6, 0.3,0,0,1024,1024,1024,1024,150,-89.9,96,3.869,3.876,3.865,3.865,3.895,3.851,21.819,75.2,14,Waypoint,
38.2848427,-120.3444685,4407.3085642622,25.590552,0.223694,1.6538222314,8100,2018-05-08 21:35:51,14,0,23.34,4407.3085642622,25.590552,0.671082,2.18728025372,0,0,-0.671082,149.8, 0.7, 0.3,0,0,1024,1024,1024,1024,150,-89.9,96,3.869,3.876,3.865,3.865,3.895,3.851,21.819,75.2,14,Waypoint,
38.2848426,-120.3444686,4408.6209002622,26.902888,0.223694,1.61320215136,8200,2018-05-08 21:35:51,13,0,23.34,4408.6209002622,26.902888,0.671082,2.18728025372,0,0,-0.671082,149.8, 0.7, 0.3,0,0,1024,1024,1024,1024,150,-89.9,96,3.869,3.876,3.865,3.865,3.895,3.851,21.819,75.2,14,Waypoint,
38.2848426,-120.3444687,4409.6051522622,27.88714,0.223694,1.58680451272,8300,2018-05-08 21:35:51,13,0,23.34,4409.6051522622,27.88714,0.671082,2.18728025372,0,0,-0.671082,149.8, 0.8, 0.1,0,0,1024,1024,1024,1024,150,-89.9,96,3.869,3.876,3.865,3.865,3.895,3.851,21.819,75.2,14,Waypoint,
38.2848424,-120.3444689,4411.9017402622,30.183728,0,1.50622708232,8500,2018-05-08 21:35:51,12,0,23.34,4411.9017402622,30.183728,0.671082,2.18728025372,0,0,-0.671082,149.8, 0.7, -0.3,0,0,1024,1024,1024,1024,150,-89.9,96,3.869,3.876,3.865,3.865,3.895,3.851,21.819,75.2,14,Waypoint,
38.2848421,-120.344469,4413.8702442622,32.152232,0,1.44268705404,8700,2018-05-08 21:35:51,12,0,23.34,4413.8702442622,32.152232,0.671082,2.18728025372,0,0,-0.671082,149.8, 1, -0.2,0,0,1024,1024,1024,1024,150,-89.9,96,3.869,3.876,3.865,3.865,3.895,3.851,21.819,75.2,14,Waypoint,
38.2848418,-120.3444691,4416.8230002622,35.104988,0,1.3854823278,8900,2018-05-08 21:35:51,13,0,23.34,4416.8230002622,35.104988,0.671082,2.18728025372,0,0,-0.671082,150.3, 1.2, -0.2,0,0,1024,1024,1024,1024,150,-89.9,96,3.869,3.876,3.865,3.865,3.895,3.851,21.819,75.2,14,Waypoint,
38.2848417,-120.3444691,4417.8072522622,36.08924,0,1.37729335116,9100,2018-05-08 21:35:52,13,0,23.34,4417.8072522622,36.08924,0.671082,2.18728025372,0,0,-0.671082,150.4, 1.2, 0,0,0,1024,1024,1024,1024,150,-89.9,96,3.869,3.876,3.865,3.865,3.895,3.851,21.819,75.2,14,Waypoint,
38.2848416,-120.344469,4419.1195882622,37.401576,0,1.39817261692,9200,2018-05-08 21:35:52,15,0,23.34,4419.1195882622,37.401576,0.671082,2.18728025372,0,0,-0.671082,150.4, 1.3, 0.2,0,0,1024,1024,1024,1024,150,-89.9,96,3.869,3.876,3.865,3.865,3.895,3.851,21.819,75.2,14,Waypoint,
38.2848416,-120.344469,4420.1038402622,38.385828,0,1.39817261692,9300,2018-05-08 21:35:52,15,0,23.34,4420.1038402622,38.385828,0.671082,2.18728025372,0,0,-0.671082,150.4, 1.4, 0.4,0,0,1024,1024,1024,1024,150,-89.9,96,3.869,3.876,3.865,3.865,3.895,3.851,21.819,75.2,14,Waypoint,
38.2848416,-120.3444691,4421.0880922622,39.37008,0,1.37002629056,9400,2018-05-08 21:35:52,15,0,23.34,4421.0880922622,39.37008,0.671082,2.18728025372,0,0,-0.671082,150.1, 1.3, 0.6,0,0,1024,1024,1024,1024,150,-89.9,96,3.869,3.876,3.865,3.865,3.895,3.851,21.819,75.2,14,Waypoint,
38.2848416,-120.3444693,4422.0723442622,40.354332,0,1.3137959738,9500,2018-05-08 21:35:52,15,0,23.34,4422.0723442622,40.354332,0.671082,2.18728025372,0,0,-0.671082,149.8, 1, 0.5,0,0,1024,1024,1024,1024,150,-89.9,96,3.869,3.876,3.865,3.865,3.895,3.851,21.819,75.2,14,Waypoint,
38.2848415,-120.3444693,4423.0565962622,41.338584,0,1.30719164288,9600,2018-05-08 21:35:52,14,0,23.34,4423.0565962622,41.338584,0.671082,2.18728025372,0,0,-0.671082,149.6, 0.8, 0.1,0,0,1024,1024,1024,1024,150,-89.9,96,3.869,3.876,3.865,3.865,3.895,3.851,21.819,75.2,14,Waypoint,
38.2848414,-120.3444693,4424.0408482622,42.322836,0,1.30158140648,9700,2018-05-08 21:35:52,14,0,23.34,4424.0408482622,42.322836,0.671082,2.18728025372,0,0,-0.671082,149.4, 0.9, 0,0,0,1024,1024,1024,1024,150,-89.9,96,3.869,3.876,3.865,3.865,3.895,3.851,21.819,75.2,14,Waypoint,
38.2848414,-120.3444692,4425.0251002622,43.307088,0,1.32994098744,9800,2018-05-08 21:35:52,13,0,23.34,4425.0251002622,43.307088,0.671082,2.18728025372,0,0,-0.671082,149.4, 1, 0,0,0,1024,1024,1024,1024,150,-89.9,96,3.869,3.876,3.865,3.865,3.895,3.851,21.819,75.2,14,Waypoint,
38.2848415,-120.3444692,4426.0093522622,44.29134,0,1.33543639444,9900,2018-05-08 21:35:52,13,0,23.34,4426.0093522622,44.29134,0.671082,2.18728025372,0,0,-0.671082,149.5, 0.9, 0.2,0,0,1024,1024,1024,1024,150,-89.9,96,3.869,3.876,3.865,3.865,3.895,3.851,21.819,75.2,14,Waypoint,
38.2848415,-120.3444691,4426.9936042622,45.275592,0,1.36369426936,10000,2018-05-08 21:35:52,14,0,23.43,4426.9936042622,45.275592,0.671082,2.18728025372,0,0,-0.671082,149.7, 0.9, 0.4,0,0,1024,1024,1024,1024,150,-89.9,96,3.891,3.892,3.905,3.914,3.933,3.895,18.657,75.2,14,Waypoint,
38.2848415,-120.3444691,4427.9778562622,46.259844,0,1.36369426936,10100,2018-05-08 21:35:53,14,0,23.43,4427.9778562622,46.259844,0.671082,2.18728025372,0,0,-0.671082,149.9, 0.9, 0.5,0,0,1024,1024,1024,1024,150,-89.9,96,3.891,3.892,3.905,3.914,3.933,3.895,18.657,75.2,14,Waypoint,
38.2848415,-120.344469,4428.9621082622,47.244096,0,1.39196854848,10200,2018-05-08 21:35:53,13,0,23.43,4428.9621082622,47.244096,0.671082,2.18728025372,0,0,-0.671082,150.1, 0.9, 0.5,0,0,1024,1024,1024,1024,150,-89.9,96,3.891,3.892,3.905,3.914,3.933,3.895,18.657,75.2,14,Waypoint,
38.2848416,-120.344469,4429.9463602622,48.228348,0,1.39817261692,10300,2018-05-08 21:35:53,13,0,23.43,4429.9463602622,48.228348,0.671082,2.18728025372,0,0,-0.671082,150.2, 0.7, 0.5,0,0,1024,1024,1024,1024,150,-89.9,96,3.891,3.892,3.905,3.914,3.933,3.895,18.657,75.2,14,Waypoint,
38.2848416,-120.344469,4430.9306122622,49.2126,0,1.39817261692,10400,2018-05-08 21:35:53,16,0,23.43,4430.9306122622,49.2126,0.671082,2.18728025372,0,0,-0.671082,150.3, 0.7, 0.4,0,0,1024,1024,1024,1024,150,-89.9,96,3.891,3.892,3.905,3.914,3.933,3.895,18.657,75.2,14,Waypoint,
38.2848416,-120.3444691,4431.9148642622,50.196852,0,1.37002629056,10500,2018-05-08 21:35:53,16,0,23.43,4431.9148642622,50.196852,0.671082,2.18728025372,0,0,-0.671082,150.4, 0.7, 0.3,0,0,1024,1024,1024,1024,150,-89.9,96,3.891,3.892,3.905,3.914,3.933,3.895,18.657,75.2,14,Waypoint,
38.2848417,-120.344469,4433.8833682622,52.165356,0,1.40529532056,10700,2018-05-08 21:35:53,16,0,23.43,4433.8833682622,52.165356,0.671082,2.18728025372,0,0,-0.671082,150.4, 0.6, 0.3,0,0,1024,1024,1024,1024,150,-89.9,96,3.891,3.892,3.905,3.914,3.933,3.895,18.657,75.2,14,Waypoint,
38.2848417,-120.344469,4434.8676202622,53.149608,0,1.40529532056,10800,2018-05-08 21:35:53,16,0,23.43,4434.8676202622,53.149608,0.671082,2.18728025372,0,0,-0.671082,150.4, 0.6, 0.4,0,0,1024,1024,1024,1024,150,-89.9,96,3.891,3.892,3.905,3.914,3.933,3.895,18.657,75.2,14,Waypoint,
38.2848417,-120.344469,4435.8518722622,54.13386,0,1.40529532056,11000,2018-05-08 21:35:53,16,0,23.393,4435.8518722622,54.13386,0.671082,2.18728025372,0,0,-0.671082,150.3, 0.6, 0.6,0,0,1024,1024,1024,1024,150,-90,96,3.886,3.897,3.898,3.9,3.929,3.885,18.747,75.2,14,Waypoint,
38.2848418,-120.344469,4436.8361242622,55.118112,0,1.41332353604,11100,2018-05-08 21:35:54,16,0,23.393,4436.8361242622,55.118112,0.671082,2.18728025372,0,0,-0.671082,150.2, 0.4, 0.8,0,0,1024,1024,1024,1024,150,-89.9,96,3.886,3.897,3.898,3.9,3.929,3.885,18.747,75.2,14,Waypoint,
38.2848418,-120.3444689,4437.8203762622,56.102364,0,1.44119427184,11200,2018-05-08 21:35:54,16,0,23.393,4437.8203762622,56.102364,0.671082,2.18728025372,0,0,-0.671082,150.3, 0.3, 0.5,0,0,1024,1024,1024,1024,150,-89.9,96,3.886,3.897,3.898,3.9,3.929,3.885,18.747,75.2,14,Waypoint,
38.2848418,-120.3444687,4439.7888802622,58.070868,0,1.49702104528,11310,2018-05-08 21:35:54,16,0,23.393,4439.7888802622,58.070868,0.671082,2.18728025372,0,0,-0.671082,150.4, 0.9, 1.5,0,0,1024,1024,1024,1024,150,-89.9,96,3.886,3.897,3.898,3.9,3.929,3.885,18.747,75.2,14,Waypoint,
38.2848417,-120.3444684,4441.7573842622,60.039372,0.223694,1.57378285876,11500,2018-05-08 21:35:54,15,0,23.393,4441.7573842622,60.039372,0.671082,2.18728025372,0,0,-0.671082,150.8, 2.2, 1.6,0,0,1024,1024,1024,1024,150,-89.9,96,3.886,3.897,3.898,3.9,3.929,3.885,18.747,75.2,14,Waypoint,
38.2848418,-120.3444682,4442.7416362622,61.023624,0.223694,1.63702761144,11600,2018-05-08 21:35:54,15,0,23.393,4442.7416362622,61.023624,0.671082,2.18728025372,0,0,-0.671082,150.8, 2.9, 1.9,0,0,1024,1024,1024,1024,150,-89.9,96,3.886,3.897,3.898,3.9,3.929,3.885,18.747,75.2,14,Waypoint,
38.2848419,-120.344468,4443.7258882622,62.007876,0.223694,1.70062997568,11700,2018-05-08 21:35:54,15,0,23.393,4443.7258882622,62.007876,0.671082,2.18728025372,0,0,-0.671082,150.8, 3.1, 2.4,0,0,1024,1024,1024,1024,150,-89.9,96,3.886,3.897,3.898,3.9,3.929,3.885,18.747,75.2,14,Waypoint,
38.2848419,-120.3444678,4444.7101402622,62.992128,0.223694,1.75661751028,11800,2018-05-08 21:35:54,15,0,23.393,4444.7101402622,62.992128,0.671082,2.18728025372,0,0,-0.671082,150.6, 3, 3.2,0,0,1024,1024,1024,1024,150,-89.9,96,3.886,3.897,3.898,3.9,3.929,3.885,18.747,75.2,14,Waypoint,
38.2848419,-120.3444675,4445.6943922622,63.97638,0.223694,1.84074480956,11900,2018-05-08 21:35:54,15,0,23.393,4445.6943922622,63.97638,0.671082,2.18728025372,0,0,-0.671082,150.4, 2.8, 3.7,0,0,1024,1024,1024,1024,150,-89.9,96,3.886,3.897,3.898,3.9,3.929,3.885,18.747,75.2,14,Waypoint,
38.284842,-120.3444673,4446.6786442622,64.960632,0.223694,1.90427499532,12000,2018-05-08 21:35:54,15,0,23.34,4446.6786442622,64.960632,0.671082,2.18728025372,0,0,-0.671082,150.2, 2.6, 3.9,0,0,1024,1024,1024,1024,150,-89.9,96,3.862,3.865,3.895,3.901,3.922,3.877,18.97,75.2,14,Waypoint,
38.2848421,-120.3444671,4447.6628962622,65.944884,0.223694,1.96809717584,12100,2018-05-08 21:35:55,15,0,23.34,4447.6628962622,65.944884,0.671082,2.18728025372,0,0,-0.671082,150.1, 2.5, 4.4,0,0,1024,1024,1024,1024,150,-89.9,96,3.862,3.865,3.895,3.901,3.922,3.877,18.97,75.2,14,Waypoint,
38.2848421,-120.3444668,4448.9752322622,67.25722,0.223694,2.05194888456,12200,2018-05-08 21:35:55,15,0,23.34,4448.9752322622,67.25722,0.671082,2.18728025372,0,0,-0.671082,150.2, 2.5, 5,0,0,1024,1024,1024,1024,150,-89.9,96,3.862,3.865,3.895,3.901,3.922,3.877,18.97,75.2,14,Waypoint,
38.2848422,-120.3444666,4449.9594842622,68.241472,0.223694,2.11582027768,12300,2018-05-08 21:35:55,15,0,23.34,4449.9594842622,68.241472,0.671082,2.18728025372,0,0,-0.671082,150.2, 2.5, 5.4,0,0,1024,1024,1024,1024,150,-89.9,96,3.862,3.865,3.895,3.901,3.922,3.877,18.97,75.2,14,Waypoint,
38.2848423,-120.3444663,4450.9437362622,69.225724,0.223694,2.20778878456,12400,2018-05-08 21:35:55,16,0,23.34,4450.9437362622,69.225724,0.671082,2.20778878456,0,0,-0.671082,150.3, 2.6, 5.6,0,0,1024,1024,1024,1024,150,-89.9,96,3.862,3.865,3.895,3.901,3.922,3.877,18.97,75.2,14,Waypoint,
38.2848424,-120.3444661,4451.9279882622,70.209976,0.223694,2.27206044016,12500,2018-05-08 21:35:55,16,0,23.34,4451.9279882622,70.209976,0.671082,2.27206044016,0,0,-0.671082,150.4, 2.7, 5.8,0,0,1024,1024,1024,1024,150,-89.9,96,3.862,3.865,3.895,3.901,3.922,3.877,18.97,75.2,14,Waypoint,
38.2848425,-120.3444658,4453.8964922622,72.17848,0,2.36428157172,12700,2018-05-08 21:35:55,17,0,23.34,4453.8964922622,72.17848,0.671082,2.36428157172,0,0,-0.671082,150.1, 2.5, 5.2,0,0,1024,1024,1024,1024,150,-89.9,96,3.862,3.865,3.895,3.901,3.922,3.877,18.97,75.2,14,Waypoint,
38.2848427,-120.3444656,4454.8807442622,73.162732,0,2.43845808328,12810,2018-05-08 21:35:55,17,0,23.34,4454.8807442622,73.162732,0.671082,2.43845808328,0,0,-0.671082,149.8, 1.9, 5.6,0,0,1024,1024,1024,1024,150,-90,96,3.862,3.865,3.895,3.901,3.922,3.877,18.97,75.2,14,Waypoint,
38.2848428,-120.3444654,4456.1930802622,74.475068,0,2.50352042132,12920,2018-05-08 21:35:55,17,0,23.34,4456.1930802622,74.475068,0.671082,2.50352042132,0,0,-0.671082,149.9, 1, 6.1,0,0,1024,1024,1024,1024,150,-90,96,3.862,3.865,3.895,3.901,3.922,3.877,18.97,75.2,14,Waypoint,
38.2848429,-120.3444653,4457.1773322622,75.45932,0,2.54128617056,13010,2018-05-08 21:35:55,16,0,23.233,4457.1773322622,75.45932,0.671082,2.54128617056,0,0,-0.671082,150.1, 0.8, 6,0,0,1024,1024,1024,1024,150,-90,96,3.862,3.865,3.895,3.901,3.922,3.877,19.697,75.2,14,Waypoint,
38.284843,-120.3444652,4457.8335002622,76.115488,0,2.57933407204,13110,2018-05-08 21:35:56,16,0,23.233,4457.8335002622,76.115488,0.671082,2.57933407204,0,0,-0.671082,150.2, 0.3, 5.6,0,0,1024,1024,1024,1024,150,-89.9,96,3.862,3.865,3.895,3.901,3.922,3.877,19.697,75.2,14,Waypoint,
38.2848432,-120.3444651,4458.8177522622,77.09974,0,2.6290683256,13300,2018-05-08 21:35:56,16,0,23.233,4458.8177522622,77.09974,0.671082,2.6290683256,0,0,-0.671082,150.3, 0.5, 5.6,0,0,1024,1024,1024,1024,150,-89.9,96,3.862,3.865,3.895,3.901,3.922,3.877,19.697,75.2,14,Waypoint,
38.2848433,-120.344465,4460.4581722622,78.74016,0,2.66797580716,13410,2018-05-08 21:35:56,16,0,23.233,4460.4581722622,78.74016,0.671082,2.66797580716,0,0,-0.671082,151, 1.7, 5.4,0,0,1024,1024,1024,1024,150,-89.9,96,3.862,3.865,3.895,3.901,3.922,3.877,19.697,75.2,14,Waypoint,
38.2848435,-120.3444651,4462.4266762622,80.708664,0,2.66602370736,13600,2018-05-08 21:35:56,17,0,23.233,4462.4266762622,80.708664,0.671082,2.66797580716,0,0,-0.671082,150.9, 1, 4.8,0,0,1024,1024,1024,1024,150,-90,96,3.862,3.865,3.895,3.901,3.922,3.877,19.697,75.2,14,Waypoint,
38.2848436,-120.3444651,4463.4109282622,81.692916,0,2.67922252668,13700,2018-05-08 21:35:56,17,0,23.233,4463.4109282622,81.692916,0.671082,2.67922252668,0,0,-0.671082,150.6, 0.4, 4.8,0,0,1024,1024,1024,1024,150,-90,96,3.862,3.865,3.895,3.901,3.922,3.877,19.697,75.2,14,Waypoint,
38.2848437,-120.3444651,4464.0670962622,82.349084,0,2.69285113604,13800,2018-05-08 21:35:56,16,0,23.233,4464.0670962622,82.349084,0.671082,2.69285113604,0,0,-0.671082,150.3, 0, 4.7,0,0,1024,1024,1024,1024,150,-90,96,3.862,3.865,3.895,3.901,3.922,3.877,19.697,75.2,14,Waypoint,
38.2848439,-120.3444649,4465.0513482622,83.333336,0,2.77390428824,13900,2018-05-08 21:35:56,16,0,23.233,4465.0513482622,83.333336,0.671082,2.77390428824,0,0,-0.671082,150.1, -0.1, 5.2,0,0,1024,1024,1024,1024,150,-89.9,96,3.862,3.865,3.895,3.901,3.922,3.877,19.697,75.2,14,Waypoint,
38.2848439,-120.344465,4466.0356002622,84.317588,0,2.74761491732,14000,2018-05-08 21:35:56,16,0,23.233,4466.0356002622,84.317588,0.671082,2.77390428824,0,0,-0.671082,149.8, -0.2, 5.7,0,0,1024,1024,1024,1024,150,-90,96,3.854,3.865,3.873,3.876,3.898,3.864,19.697,75.2,14,Waypoint,
38.284844,-120.3444652,4467.0198522622,85.30184,0.223694,2.71019693712,14100,2018-05-08 21:35:57,16,0,23.233,4467.0198522622,85.30184,0.671082,2.77390428824,0,0,-0.671082,149.5, -0.5, 5.3,0,0,1024,1024,1024,1024,150,-90,96,3.854,3.865,3.873,3.876,3.898,3.864,19.697,75.2,14,Waypoint,
38.284844,-120.3444652,4467.6760202622,85.958008,0.223694,2.71019693712,14200,2018-05-08 21:35:57,16,0,23.233,4467.6760202622,85.958008,0.671082,2.77390428824,0,0,-0.671082,149.3, -0.4, 4.5,0,0,1024,1024,1024,1024,150,-89.9,96,3.854,3.865,3.873,3.876,3.898,3.864,19.697,75.2,14,Waypoint,
38.2848441,-120.3444652,4468.6602722622,86.94226,0,2.7256234468,14300,2018-05-08 21:35:57,16,0,23.233,4468.6602722622,86.94226,0.671082,2.77390428824,0,0,-0.671082,149.3, -0.1, 4.1,0,0,1024,1024,1024,1024,150,-89.9,96,3.854,3.865,3.873,3.876,3.898,3.864,19.697,75.2,14,Waypoint,
38.2848441,-120.3444653,4469.3164402622,87.598428,0,2.69977370844,14400,2018-05-08 21:35:57,16,0,23.233,4469.3164402622,87.598428,0.671082,2.77390428824,0,0,-0.671082,149.6, 0.6, 4.4,0,0,1024,1024,1024,1024,150,-89.9,96,3.854,3.865,3.873,3.876,3.898,3.864,19.697,75.2,14,Waypoint,
38.284844,-120.3444653,4470.3006922622,88.58268,0.223694,2.68419956096,14500,2018-05-08 21:35:57,16,0,23.233,4470.3006922622,88.58268,0.671082,2.77390428824,0,0,-0.671082,150.1, 1.3, 4.2,0,0,1024,1024,1024,1024,150,-89.9,96,3.854,3.865,3.873,3.876,3.898,3.864,19.697,75.2,14,Waypoint,
38.2848439,-120.3444654,4471.9411122622,90.2231,0,2.64293643628,14700,2018-05-08 21:35:57,16,0,23.233,4471.9411122622,90.2231,0.671082,2.77390428824,0,0,-0.671082,150.7, 1.9, 4.2,0,0,1024,1024,1024,1024,150,-89.9,96,3.854,3.865,3.873,3.876,3.898,3.864,19.697,75.2,14,Waypoint,
38.2848439,-120.3444654,4472.9253642622,91.207352,0,2.64293643628,14800,2018-05-08 21:35:57,16,0,23.233,4472.9253642622,91.207352,0.671082,2.77390428824,0,0,-0.671082,150.7, 2, 4,0,0,1024,1024,1024,1024,150,-89.9,96,3.854,3.865,3.873,3.876,3.898,3.864,19.697,75.2,14,Waypoint,
38.2848439,-120.3444654,4473.9096162622,92.191604,0.223694,2.64293643628,14900,2018-05-08 21:35:57,16,0,23.233,4473.9096162622,92.191604,0.671082,2.77390428824,0,0,-0.671082,150.6, 2.1, 4.2,0,0,1024,1024,1024,1024,150,-89.9,96,3.854,3.865,3.873,3.876,3.898,3.864,19.697,75.2,14,Waypoint,
38.2848439,-120.3444655,4474.8938682622,93.175856,0.223694,2.6168964092,15000,2018-05-08 21:35:57,16,0,23.047,4474.8938682622,93.175856,0.671082,2.77390428824,0,0,-0.671082,150.3, 2.1, 4.1,0,0,1024,1024,1024,1024,150,-89.9,95,3.81,3.834,3.832,3.848,3.865,3.837,21.494,75.2,14,Waypoint,
38.2848439,-120.3444656,4476.2062042622,94.488192,0.223694,2.59090887556,15100,2018-05-08 21:35:58,16,0,23.047,4476.2062042622,94.488192,0.671082,2.77390428824,0,0,-0.671082,149.9, 1.6, 4.1,0,0,1024,1024,1024,1024,150,-89.9,95,3.81,3.834,3.832,3.848,3.865,3.837,21.494,75.2,14,Waypoint,
38.2848438,-120.3444657,4477.1904562622,95.472444,0.223694,2.54962606584,15200,2018-05-08 21:35:58,16,0,23.047,4477.1904562622,95.472444,0.671082,2.77390428824,0,0,-0.671082,149.6, 0.7, 4.1,0,0,1024,1024,1024,1024,150,-89.9,95,3.81,3.834,3.832,3.848,3.865,3.837,21.494,75.2,14,Waypoint,
38.2848438,-120.3444657,4478.1747082622,96.456696,0.223694,2.54962606584,15310,2018-05-08 21:35:58,16,0,23.047,4478.1747082622,96.456696,0.671082,2.77390428824,0,0,-0.671082,149.4, 0.2, 3.9,0,0,1024,1024,1024,1024,150,-90,95,3.81,3.834,3.832,3.848,3.865,3.837,21.494,75.2,14,Waypoint,
38.2848438,-120.3444659,4480.1432122622,98.4252,0.223694,2.49762803268,15500,2018-05-08 21:35:58,16,0,23.047,4480.1432122622,98.4252,0.671082,2.77390428824,0,0,-0.671082,149.2, 0, 4.5,0,0,1024,1024,1024,1024,150,-90,95,3.81,3.834,3.832,3.848,3.865,3.837,21.494,75.2,14,Waypoint,
38.2848437,-120.3444662,4482.1117162622,100.393704,0.223694,2.4043471898,15700,2018-05-08 21:35:58,16,0,23.047,4482.1117162622,100.393704,0.671082,2.77390428824,0,0,-0.671082,149.4, -0.3, 4,0,0,1024,1024,1024,1024,150,-89.9,95,3.81,3.834,3.832,3.848,3.865,3.837,21.494,75.2,14,Waypoint,
38.2848435,-120.3444665,4484.4083042622,102.690292,0.223694,2.29575794748,15900,2018-05-08 21:35:58,16,0,23.047,4484.4083042622,102.690292,0.671082,2.77390428824,0,0,-0.671082,150.1, 0.8, 3.2,0,0,1024,1024,1024,1024,150,-89.9,95,3.81,3.834,3.832,3.848,3.865,3.837,21.494,75.2,14,Waypoint,
38.2848433,-120.3444666,4486.0487242622,104.330712,0.223694,2.24019364124,16100,2018-05-08 21:35:59,16,0,23.047,4486.0487242622,104.330712,0.671082,2.77390428824,0,0,-0.671082,150.7, 1.6, 3,0,0,1024,1024,1024,1024,150,-89.9,95,3.81,3.834,3.832,3.848,3.865,3.837,21.494,75.2,14,Waypoint,
38.2848432,-120.3444667,4487.3610602622,105.643048,0.223694,2.1996883906,16200,2018-05-08 21:35:59,17,0,23.047,4487.3610602622,105.643048,0.671082,2.77390428824,0,0,-0.671082,150.8, 1.9, 3.4,0,0,1024,1024,1024,1024,150,-89.9,95,3.81,3.834,3.832,3.848,3.865,3.837,21.494,75.2,14,Waypoint,
38.2848431,-120.3444668,4489.3295642622,107.611552,0,2.1594160796,16400,2018-05-08 21:35:59,17,0,23.047,4489.3295642622,107.611552,0.671082,2.77390428824,0,0,-0.671082,150.7, 1.9, 4.2,0,0,1024,1024,1024,1024,150,-89.9,95,3.81,3.834,3.832,3.848,3.865,3.837,21.494,75.2,14,Waypoint,
38.2848431,-120.3444668,4490.3138162622,108.595804,0,2.1594160796,16500,2018-05-08 21:35:59,17,0,23.047,4490.3138162622,108.595804,0.671082,2.77390428824,0,0,-0.671082,150.5, 1.7, 4.3,0,0,1024,1024,1024,1024,150,-89.9,95,3.81,3.834,3.832,3.848,3.865,3.837,21.494,75.2,14,Waypoint,
38.2848431,-120.3444668,4491.2980682622,109.580056,0,2.1594160796,16600,2018-05-08 21:35:59,17,0,23.047,4491.2980682622,109.580056,0.671082,2.77390428824,0,0,-0.671082,150.4, 1.6, 4.3,0,0,1024,1024,1024,1024,150,-89.9,95,3.81,3.834,3.832,3.848,3.865,3.837,21.494,75.2,14,Waypoint,
38.2848431,-120.3444668,4492.2823202622,110.564308,0,2.1594160796,16800,2018-05-08 21:35:59,17,0,23.047,4492.2823202622,110.564308,0.671082,2.77390428824,0,0,-0.671082,150.3, 1.6, 4.4,0,0,1024,1024,1024,1024,150,-89.9,95,3.81,3.834,3.832,3.848,3.865,3.837,21.494,75.2,14,Waypoint,
38.2848431,-120.3444668,4493.2665722622,111.54856,0,2.1594160796,16900,2018-05-08 21:35:59,17,0,23.047,4493.2665722622,111.54856,0.671082,2.77390428824,0,0,-0.671082,150.2, 1.8, 4.7,0,0,1024,1024,1024,1024,150,-89.9,95,3.81,3.834,3.832,3.848,3.865,3.837,21.494,75.2,14,Waypoint,
38.2848431,-120.3444667,4494.5789082622,112.860896,0,2.18603025368,17000,2018-05-08 21:35:59,17,0,22.985,4494.5789082622,112.860896,0.671082,2.77390428824,0,0,-0.671082,150.1, 1.8, 5,0,0,1024,1024,1024,1024,150,-89.9,95,3.82,3.837,3.839,3.85,3.872,3.83,21.515,75.2,14,Waypoint,
38.2848431,-120.3444667,4495.5631602622,113.845148,0,2.18603025368,17120,2018-05-08 21:36:00,17,0,22.985,4495.5631602622,113.845148,0.671082,2.77390428824,0,0,-0.671082,150, 1.9, 5.1,0,0,1024,1024,1024,1024,150,-89.9,95,3.82,3.837,3.839,3.85,3.872,3.83,21.515,75.2,14,Waypoint,
38.2848431,-120.3444667,4495.5631602622,113.845148,0,2.18603025368,17200,2018-05-08 21:36:00,17,0,22.985,4495.5631602622,113.845148,0.671082,2.77390428824,0,0,-0.671082,150, 1.9, 5.1,0,0,1024,1024,1024,1024,150,-89.9,95,3.82,3.837,3.839,3.85,3.872,3.83,21.515,75.2,14,Waypoint,
38.2848431,-120.3444667,4496.5474122622,114.8294,0,2.18603025368,17300,2018-05-08 21:36:00,17,0,22.985,4496.5474122622,114.8294,0.671082,2.77390428824,0,0,-0.671082,150.1, 1.9, 4.9,0,0,1024,1024,1024,1024,150,-89.9,95,3.82,3.837,3.839,3.85,3.872,3.83,21.515,75.2,14,Waypoint,
38.2848431,-120.3444666,4497.5316642622,115.813652,0,2.21269364036,17400,2018-05-08 21:36:00,17,0,22.985,4497.5316642622,115.813652,0.671082,2.77390428824,0,0,-0.671082,150.1, 1.8, 5.4,0,0,1024,1024,1024,1024,150,-89.9,95,3.82,3.837,3.839,3.85,3.872,3.83,21.515,75.2,14,Waypoint,
38.2848431,-120.3444665,4498.5159162622,116.797904,0,2.2394029588,17500,2018-05-08 21:36:00,17,0,22.985,4498.5159162622,116.797904,0.671082,2.77390428824,0,0,-0.671082,150.2, 1.7, 6.1,0,0,1024,1024,1024,1024,150,-89.9,95,3.82,3.837,3.839,3.85,3.872,3.83,21.515,75.2,14,Waypoint,
38.2848431,-120.3444664,4499.5001682622,117.782156,0.223694,2.26616148984,17600,2018-05-08 21:36:00,17,0,22.985,4499.5001682622,117.782156,0.671082,2.77390428824,0,0,-0.671082,150.3, 1.9, 6.6,0,0,1024,1024,1024,1024,150,-89.9,95,3.82,3.837,3.839,3.85,3.872,3.83,21.515,75.2,14,Waypoint,
38.2848432,-120.3444662,4500.4844202622,118.766408,0.223694,2.33269036336,17700,2018-05-08 21:36:00,17,0,22.985,4500.4844202622,118.766408,0.671082,2.77390428824,0,0,-0.671082,150.2, 2.1, 6.3,0,0,1024,1024,1024,1024,150,-89.9,95,3.82,3.837,3.839,3.85,3.872,3.83,21.515,75.2,14,Waypoint,
38.2848432,-120.344466,4501.4686722622,119.75066,0.223694,2.3862205488,17800,2018-05-08 21:36:00,17,0,22.985,4501.4686722622,119.75066,0.671082,2.77390428824,0,0,-0.671082,150.2, 2.3, 6.7,0,0,1024,1024,1024,1024,150,-89.9,95,3.82,3.837,3.839,3.85,3.872,3.83,21.515,75.2,14,Waypoint,
38.2848432,-120.3444659,4502.4529242622,120.734912,0.223694,2.41305125832,17900,2018-05-08 21:36:00,17,0,22.985,4502.4529242622,120.734912,0.671082,2.77390428824,0,0,-0.671082,150.2, 2.3, 7.1,0,0,1024,1024,1024,1024,150,-89.9,95,3.82,3.837,3.839,3.85,3.872,3.83,21.515,75.2,14,Waypoint,
38.2848432,-120.3444658,4503.7652602622,122.047248,0,2.43992461876,18000,2018-05-08 21:36:00,17,0,23.145,4503.7652602622,122.047248,0.671082,2.77390428824,0,0,-0.671082,150.2, 2.5, 7.2,0,0,1024,1024,1024,1024,150,-89.9,95,3.834,3.839,3.839,3.861,3.88,3.828,19.715,75.2,14,Waypoint,
38.2848433,-120.3444657,4504.7495122622,123.0315,0,2.47948170664,18100,2018-05-08 21:36:01,17,0,23.145,4504.7495122622,123.0315,0.671082,2.77390428824,0,0,-0.671082,150.3, 2.6, 7.1,0,0,1024,1024,1024,1024,150,-89.9,95,3.834,3.839,3.839,3.861,3.88,3.828,19.715,75.2,14,Waypoint,
38.2848432,-120.3444656,4505.7337642622,124.015752,0,2.4937828882,18200,2018-05-08 21:36:01,17,0,23.145,4505.7337642622,124.015752,0.671082,2.77390428824,0,0,-0.671082,150.4, 2.6, 7.2,0,0,1024,1024,1024,1024,150,-89.9,95,3.834,3.839,3.839,3.861,3.88,3.828,19.715,75.2,14,Waypoint,
38.2848432,-120.3444656,4506.7180162622,125.000004,0,2.4937828882,18300,2018-05-08 21:36:01,17,0,23.145,4506.7180162622,125.000004,0.671082,2.77390428824,0,0,-0.671082,150.4, 2.7, 7.2,0,0,1024,1024,1024,1024,150,-89.9,95,3.834,3.839,3.839,3.861,3.88,3.828,19.715,75.2,14,Waypoint,
38.2848433,-120.3444655,4509.6707722622,127.95276,0,2.53314968736,18400,2018-05-08 21:36:01,17,0,23.145,4509.6707722622,127.95276,0.671082,2.77390428824,0,0,-0.671082,150.1, 2, 6.4,0,0,1024,1024,1024,1024,150,-89.9,95,3.834,3.839,3.839,3.861,3.88,3.828,19.715,75.2,14,Waypoint,
38.2848434,-120.3444655,4510.6550242622,128.937012,0,2.54599089512,18500,2018-05-08 21:36:01,17,0,23.145,4510.6550242622,128.937012,0.671082,2.77390428824,0,0,-0.671082,150.1, 1.6, 6.3,0,0,1024,1024,1024,1024,150,-90,95,3.834,3.839,3.839,3.861,3.88,3.828,19.715,75.2,14,Waypoint,
38.2848434,-120.3444656,4511.6392762622,129.921264,0,2.519275015,18600,2018-05-08 21:36:01,17,0,23.145,4511.6392762622,129.921264,0.671082,2.77390428824,0,0,-0.671082,150.3, 1.5, 6.2,0,0,1024,1024,1024,1024,150,-90,95,3.834,3.839,3.839,3.861,3.88,3.828,19.715,75.2,14,Waypoint,
38.2848434,-120.3444657,4512.2954442622,130.577432,0,2.4926017858,18700,2018-05-08 21:36:01,17,0,23.145,4512.2954442622,130.577432,0.671082,2.77390428824,0,0,-0.671082,150.4, 1.5, 6.2,0,0,1024,1024,1024,1024,150,-89.9,95,3.834,3.839,3.839,3.861,3.88,3.828,19.715,75.2,14,Waypoint,
38.2848434,-120.3444657,4513.2796962622,131.561684,0,2.4926017858,18800,2018-05-08 21:36:01,17,0,23.145,4513.2796962622,131.561684,0.671082,2.77390428824,0,0,-0.671082,150.4, 1.7, 6.1,0,0,1024,1024,1024,1024,150,-89.9,95,3.834,3.839,3.839,3.861,3.88,3.828,19.715,75.2,14,Waypoint,
38.2848433,-120.3444659,4515.2482002622,133.530188,0,2.42598104876,19000,2018-05-08 21:36:01,17,0,22.969,4515.2482002622,133.530188,0.671082,2.77390428824,0,0,-0.671082,150.3, 2.1, 5.3,0,0,1024,1024,1024,1024,150,-89.9,95,3.813,3.819,3.833,3.839,3.847,3.826,21.196,77,14,Waypoint,
38.2848433,-120.3444659,4516.2324522622,134.51444,0,2.42598104876,19100,2018-05-08 21:36:02,17,0,22.969,4516.2324522622,134.51444,0.671082,2.77390428824,0,0,-0.671082,150.2, 2, 5.7,0,0,1024,1024,1024,1024,150,-89.9,95,3.813,3.819,3.833,3.839,3.847,3.826,21.196,77,14,Waypoint,
38.2848434,-120.3444659,4517.2167042622,135.498692,0,2.439386561,19200,2018-05-08 21:36:02,17,0,22.969,4517.2167042622,135.498692,0.671082,2.77390428824,0,0,-0.671082,150.1, 1.9, 6.1,0,0,1024,1024,1024,1024,150,-89.9,95,3.813,3.819,3.833,3.839,3.847,3.826,21.196,77,14,Waypoint,
38.2848434,-120.344466,4518.5290402622,136.811028,0,2.41285112708,19300,2018-05-08 21:36:02,17,0,22.969,4518.5290402622,136.811028,0.671082,2.77390428824,0,0,-0.671082,150, 1.6, 6.3,0,0,1024,1024,1024,1024,150,-90,95,3.813,3.819,3.833,3.839,3.847,3.826,21.196,77,14,Waypoint,
38.2848434,-120.344466,4519.5132922622,137.79528,0,2.41285112708,19400,2018-05-08 21:36:02,17,0,22.969,4519.5132922622,137.79528,0.671082,2.77390428824,0,0,-0.671082,149.9, 1.2, 6.3,0,0,1024,1024,1024,1024,150,-89.9,95,3.813,3.819,3.833,3.839,3.847,3.826,21.196,77,14,Waypoint,
38.2848435,-120.344466,4520.4975442622,138.779532,0,2.42687671808,19500,2018-05-08 21:36:02,17,0,22.969,4520.4975442622,138.779532,0.671082,2.77390428824,0,0,-0.671082,149.8, 1.1, 6.2,0,0,1024,1024,1024,1024,150,-89.9,95,3.813,3.819,3.833,3.839,3.847,3.826,21.196,77,14,Waypoint,
38.2848435,-120.3444661,4521.4817962622,139.763784,0,2.40054469624,19600,2018-05-08 21:36:02,17,0,22.969,4521.4817962622,139.763784,0.671082,2.77390428824,0,0,-0.671082,149.8, 1, 6.2,0,0,1024,1024,1024,1024,150,-90,95,3.813,3.819,3.833,3.839,3.847,3.826,21.196,77,14,Waypoint,
38.2848436,-120.3444662,4522.4660482622,140.748036,0,2.3890748796,19700,2018-05-08 21:36:02,17,0,22.969,4522.4660482622,140.748036,0.671082,2.77390428824,0,0,-0.671082,149.9, 0.9, 6.2,0,0,1024,1024,1024,1024,150,-89.9,95,3.813,3.819,3.833,3.839,3.847,3.826,21.196,77,14,Waypoint,
38.2848436,-120.3444664,4523.4503002622,141.732288,0,2.33701122964,19800,2018-05-08 21:36:02,17,0,22.969,4523.4503002622,141.732288,0.671082,2.77390428824,0,0,-0.671082,150, 1, 6,0,0,1024,1024,1024,1024,150,-89.9,95,3.813,3.819,3.833,3.839,3.847,3.826,21.196,77,14,Waypoint,
38.2848436,-120.3444665,4524.4345522622,142.71654,0,2.3110729086,19910,2018-05-08 21:36:02,17,0,22.969,4524.4345522622,142.71654,0.671082,2.77390428824,0,0,-0.671082,150.1, 1.1, 5.9,0,0,1024,1024,1024,1024,150,-89.9,95,3.813,3.819,3.833,3.839,3.847,3.826,21.196,77,14,Waypoint,
38.2848436,-120.3444665,4525.4188042622,143.700792,0,2.3110729086,20000,2018-05-08 21:36:02,17,0,22.955,4525.4188042622,143.700792,0.671082,2.77390428824,0,0,-0.671082,150.2, 1.3, 5.9,0,0,1024,1024,1024,1024,150,-89.9,95,3.806,3.815,3.832,3.835,3.857,3.815,21.095,77,14,Waypoint,
38.2848436,-120.3444666,4527.3873082622,145.669296,0,2.28520020436,20200,2018-05-08 21:36:03,17,0,22.955,4527.3873082622,145.669296,0.671082,2.77390428824,0,0,-0.671082,150.2, 1.4, 6,0,0,1024,1024,1024,1024,150,-89.9,95,3.806,3.815,3.832,3.835,3.857,3.815,21.095,77,14,Waypoint,
38.2848436,-120.3444667,4528.3715602622,146.653548,0,2.25939311692,20320,2018-05-08 21:36:03,17,0,22.955,4528.3715602622,146.653548,0.671082,2.77390428824,0,0,-0.671082,150.1, 1.6, 6,0,0,1024,1024,1024,1024,150,-89.9,95,3.806,3.815,3.832,3.835,3.857,3.815,21.095,77,14,Waypoint,
38.2848436,-120.3444667,4529.3558122622,147.6378,0,2.25939311692,20400,2018-05-08 21:36:03,17,0,22.955,4529.3558122622,147.6378,0.671082,2.77390428824,0,0,-0.671082,150.1, 1.8, 6.1,0,0,1024,1024,1024,1024,150,-89.9,95,3.806,3.815,3.832,3.835,3.857,3.815,21.095,77,14,Waypoint,
38.2848435,-120.3444667,4530.3400642622,148.622052,0,2.24372382508,20600,2018-05-08 21:36:03,17,0,22.955,4530.3400642622,148.622052,0.671082,2.77390428824,0,0,-0.671082,150.1, 1.9, 6,0,0,1024,1024,1024,1024,150,-89.9,95,3.806,3.815,3.832,3.835,3.857,3.815,21.095,77,14,Waypoint,
38.2848435,-120.3444668,4531.3243162622,149.606304,0,2.21780518908,20700,2018-05-08 21:36:03,17,0,22.955,4531.3243162622,149.606304,0.671082,2.77390428824,0,0,-0.671082,150.2, 1.9, 5.8,0,0,1024,1024,1024,1024,150,-89.9,95,3.806,3.815,3.832,3.835,3.857,3.815,21.095,77,14,Waypoint,
38.2848435,-120.3444669,4532.9647362622,151.246724,0,2.19195216988,20800,2018-05-08 21:36:03,17,0,22.955,4532.9647362622,151.246724,0.671082,2.77390428824,0,0,-0.671082,150.3, 1.7, 5.5,0,0,1024,1024,1024,1024,150,-89.9,95,3.806,3.815,3.832,3.835,3.857,3.815,21.095,77,14,Waypoint,
38.2848435,-120.3444669,4533.9489882622,152.230976,0,2.19195216988,20900,2018-05-08 21:36:03,17,0,22.955,4533.9489882622,152.230976,0.671082,2.77390428824,0,0,-0.671082,150.3, 1.6, 5.8,0,0,1024,1024,1024,1024,150,-89.9,95,3.806,3.815,3.832,3.835,3.857,3.815,21.095,77,14,Waypoint,
38.2848435,-120.3444669,4534.9332402622,153.215228,0,2.19195216988,21000,2018-05-08 21:36:03,17,0,22.93,4534.9332402622,153.215228,0.671082,2.77390428824,0,0,-0.671082,150.3, 1.6, 6.1,0,0,1024,1024,1024,1024,150,-89.9,95,3.807,3.811,3.826,3.826,3.858,3.809,21.074,77,14,Waypoint,
38.2848434,-120.3444669,4535.9174922622,154.19948,0,2.1764108308,21100,2018-05-08 21:36:04,17,0,22.93,4535.9174922622,154.19948,0.671082,2.77390428824,0,0,-0.671082,150.3, 1.8, 6.1,0,0,1024,1024,1024,1024,150,-89.9,95,3.807,3.811,3.826,3.826,3.858,3.809,21.074,77,14,Waypoint,
38.2848434,-120.3444669,4536.9017442622,155.183732,0,2.1764108308,21200,2018-05-08 21:36:04,17,0,22.93,4536.9017442622,155.183732,0.671082,2.77390428824,0,0,-0.671082,150.3, 2, 6.1,0,0,1024,1024,1024,1024,150,-89.9,95,3.807,3.811,3.826,3.826,3.858,3.809,21.074,77,14,Waypoint,
38.2848434,-120.3444669,4537.8859962622,156.167984,0,2.1764108308,21300,2018-05-08 21:36:04,17,0,22.93,4537.8859962622,156.167984,0.671082,2.77390428824,0,0,-0.671082,150.4, 1.9, 6.1,0,0,1024,1024,1024,1024,150,-89.9,95,3.807,3.811,3.826,3.826,3.858,3.809,21.074,77,14,Waypoint,
38.2848434,-120.3444669,4538.8702482622,157.152236,0,2.1764108308,21400,2018-05-08 21:36:04,17,0,22.93,4538.8702482622,157.152236,0.671082,2.77390428824,0,0,-0.671082,150.5, 2, 6.2,0,0,1024,1024,1024,1024,150,-89.9,95,3.807,3.811,3.826,3.826,3.858,3.809,21.074,77,14,Waypoint,
38.2848434,-120.3444669,4539.8545002622,158.136488,0,2.1764108308,21500,2018-05-08 21:36:04,17,0,22.93,4539.8545002622,158.136488,0.671082,2.77390428824,0,0,-0.671082,150.5, 1.9, 5.9,0,0,1024,1024,1024,1024,150,-89.9,95,3.807,3.811,3.826,3.826,3.858,3.809,21.074,77,14,Waypoint,
38.2848434,-120.344467,4540.8387522622,159.12074,0,2.1504429822,21600,2018-05-08 21:36:04,17,0,22.93,4540.8387522622,159.12074,0.671082,2.77390428824,0,0,-0.671082,150.5, 2.1, 5.7,0,0,1024,1024,1024,1024,150,-89.9,95,3.807,3.811,3.826,3.826,3.858,3.809,21.074,77,14,Waypoint,
38.2848433,-120.344467,4541.8230042622,160.104992,0,2.13522316544,21700,2018-05-08 21:36:04,17,0,22.93,4541.8230042622,160.104992,0.671082,2.77390428824,0,0,-0.671082,150.5, 2.1, 5.7,0,0,1024,1024,1024,1024,150,-89.9,95,3.807,3.811,3.826,3.826,3.858,3.809,21.074,77,14,Waypoint,
38.2848433,-120.3444671,4542.8072562622,161.089244,0,2.1091372066,21800,2018-05-08 21:36:04,17,0,22.93,4542.8072562622,161.089244,0.671082,2.77390428824,0,0,-0.671082,150.5, 2.1, 5.8,0,0,1024,1024,1024,1024,150,-89.9,95,3.807,3.811,3.826,3.826,3.858,3.809,21.074,77,14,Waypoint,
38.2848432,-120.3444671,4543.7915082622,162.073496,0,2.09425203552,21900,2018-05-08 21:36:04,17,0,22.93,4543.7915082622,162.073496,0.671082,2.77390428824,0,0,-0.671082,150.3, 2.1, 5.7,0,0,1024,1024,1024,1024,150,-89.9,95,3.807,3.811,3.826,3.826,3.858,3.809,21.074,77,14,Waypoint,
38.2848432,-120.3444672,4545.7600122622,164.042,0,2.0680446856,22100,2018-05-08 21:36:05,17,0,22.93,4545.7600122622,164.042,0.671082,2.77390428824,0,0,-0.671082,150.2, 1.9, 5.2,0,0,1024,1024,1024,1024,150,-89.9,95,3.807,3.811,3.826,3.826,3.858,3.809,21.074,77,14,Waypoint,
38.2848431,-120.3444672,4546.7442642622,165.026252,0,2.0535105644,22200,2018-05-08 21:36:05,17,0,22.93,4546.7442642622,165.026252,0.671082,2.77390428824,0,0,-0.671082,150.1, 1.9, 5.3,0,0,1024,1024,1024,1024,150,-89.9,95,3.807,3.811,3.826,3.826,3.858,3.809,21.074,77,14,Waypoint,
38.2848431,-120.3444672,4547.7285162622,166.010504,0,2.0535105644,22300,2018-05-08 21:36:05,17,0,22.93,4547.7285162622,166.010504,0.671082,2.77390428824,0,0,-0.671082,150.1, 2, 5.7,0,0,1024,1024,1024,1024,150,-89.9,95,3.807,3.811,3.826,3.826,3.858,3.809,21.074,77,14,Waypoint,
38.2848431,-120.3444673,4548.7127682622,166.994756,0,2.0271818234,22400,2018-05-08 21:36:05,17,0,22.93,4548.7127682622,166.994756,0.671082,2.77390428824,0,0,-0.671082,150.2, 2, 5.8,0,0,1024,1024,1024,1024,150,-89.9,95,3.807,3.811,3.826,3.826,3.858,3.809,21.074,77,14,Waypoint,
38.284843,-120.3444673,4549.6970202622,167.979008,0,2.01301515628,22600,2018-05-08 21:36:05,17,0,22.93,4549.6970202622,167.979008,0.671082,2.77390428824,0,0,-0.671082,150.2, 2.1, 5.7,0,0,1024,1024,1024,1024,150,-89.9,95,3.807,3.811,3.826,3.826,3.858,3.809,21.074,77,14,Waypoint,
38.284843,-120.3444673,4550.6812722622,168.96326,0,2.01301515628,22700,2018-05-08 21:36:05,17,0,22.93,4550.6812722622,168.96326,0.671082,2.77390428824,0,0,-0.671082,150.2, 2.3, 5.6,0,0,1024,1024,1024,1024,150,-89.9,95,3.807,3.811,3.826,3.826,3.858,3.809,21.074,77,14,Waypoint,
38.2848429,-120.3444673,4551.6655242622,169.947512,0,1.99941279364,22800,2018-05-08 21:36:05,17,0,22.93,4551.6655242622,169.947512,0.671082,2.77390428824,0,0,-0.671082,150.2, 2.4, 5.8,0,0,1024,1024,1024,1024,150,-89.9,95,3.807,3.811,3.826,3.826,3.858,3.809,21.074,77,14,Waypoint,
38.2848429,-120.3444673,4552.6497762622,170.931764,0,1.99941279364,22900,2018-05-08 21:36:05,17,0,22.93,4552.6497762622,170.931764,0.671082,2.77390428824,0,0,-0.671082,150.2, 2.4, 5.9,0,0,1024,1024,1024,1024,150,-89.9,95,3.807,3.811,3.826,3.826,3.858,3.809,21.074,77,14,Waypoint,
38.2848429,-120.3444673,4553.6340282622,171.916016,0,1.99941279364,23000,2018-05-08 21:36:05,17,0,22.925,4553.6340282622,171.916016,0.671082,2.77390428824,0,0,-0.671082,150.2, 2.4, 5.7,0,0,1024,1024,1024,1024,150,-89.9,95,3.794,3.809,3.812,3.823,3.842,3.803,21.078,77,14,Waypoint,
38.2848428,-120.3444673,4555.6025322622,173.88452,0,1.98638785884,23100,2018-05-08 21:36:06,17,0,22.925,4555.6025322622,173.88452,0.671082,2.77390428824,0,0,-0.671082,150.2, 2.3, 6.1,0,0,1024,1024,1024,1024,150,-89.9,95,3.794,3.809,3.812,3.823,3.842,3.803,21.078,77,14,Waypoint,
38.2848428,-120.3444673,4556.5867842622,174.868772,0,1.98638785884,23200,2018-05-08 21:36:06,17,0,22.925,4556.5867842622,174.868772,0.671082,2.77390428824,0,0,-0.671082,150.2, 2.1, 6,0,0,1024,1024,1024,1024,150,-89.9,95,3.794,3.809,3.812,3.823,3.842,3.803,21.078,77,14,Waypoint,
38.2848428,-120.3444674,4557.8991202622,176.181108,0,1.95957683436,23300,2018-05-08 21:36:06,17,0,22.925,4557.8991202622,176.181108,0.671082,2.77390428824,0,0,-0.671082,150.1, 1.8, 5.8,0,0,1024,1024,1024,1024,150,-89.9,95,3.794,3.809,3.812,3.823,3.842,3.803,21.078,77,14,Waypoint,
38.2848428,-120.3444674,4558.8833722622,177.16536,0,1.95957683436,23400,2018-05-08 21:36:06,17,0,22.925,4558.8833722622,177.16536,0.671082,2.77390428824,0,0,-0.671082,150.1, 1.8, 5.8,0,0,1024,1024,1024,1024,150,-89.9,95,3.794,3.809,3.812,3.823,3.842,3.803,21.078,77,14,Waypoint,
38.2848427,-120.3444675,4559.8676242622,178.149612,0,1.92003286984,23500,2018-05-08 21:36:06,17,0,22.925,4559.8676242622,178.149612,0.671082,2.77390428824,0,0,-0.671082,150.1, 1.9, 5.7,0,0,1024,1024,1024,1024,150,-89.9,95,3.794,3.809,3.812,3.823,3.842,3.803,21.078,77,14,Waypoint,
38.2848427,-120.3444675,4560.8518762622,179.133864,0,1.92003286984,23600,2018-05-08 21:36:06,17,0,22.925,4560.8518762622,179.133864,0.671082,2.77390428824,0,0,-0.671082,150.1, 1.9, 5.7,0,0,1024,1024,1024,1024,150,-89.9,95,3.794,3.809,3.812,3.823,3.842,3.803,21.078,77,14,Waypoint,
38.2848427,-120.3444675,4562.8203802622,181.102368,0,1.92003286984,23800,2018-05-08 21:36:06,17,0,22.925,4562.8203802622,181.102368,0.671082,2.77390428824,0,0,-0.671082,150.1, 2.2, 5.4,0,0,1024,1024,1024,1024,150,-89.9,95,3.794,3.809,3.812,3.823,3.842,3.803,21.078,77,14,Waypoint,
38.2848426,-120.3444675,4563.8046322622,182.08662,0,1.90786095344,23900,2018-05-08 21:36:06,17,0,22.925,4563.8046322622,182.08662,0.671082,2.77390428824,0,0,-0.671082,150.1, 2.3, 5.2,0,0,1024,1024,1024,1024,150,-89.9,95,3.794,3.809,3.812,3.823,3.842,3.803,21.078,77,14,Waypoint,
38.2848426,-120.3444676,4566.1012202622,184.383208,0,1.88080058512,24100,2018-05-08 21:36:07,17,0,22.925,4566.1012202622,184.383208,0.671082,2.77390428824,0,0,-0.671082,150, 2.3, 5.2,0,0,1024,1024,1024,1024,150,-89.9,95,3.794,3.809,3.812,3.823,3.842,3.803,21.078,77,14,Waypoint,
38.2848425,-120.3444675,4567.0854722622,185.36746,0,1.89631239664,24200,2018-05-08 21:36:07,17,0,22.925,4567.0854722622,185.36746,0.671082,2.77390428824,0,0,-0.671082,150, 2.3, 5.4,0,0,1024,1024,1024,1024,150,-89.9,95,3.794,3.809,3.812,3.823,3.842,3.803,21.078,77,14,Waypoint,
38.2848425,-120.3444675,4568.0697242622,186.351712,0,1.89631239664,24300,2018-05-08 21:36:07,17,0,22.925,4568.0697242622,186.351712,0.671082,2.77390428824,0,0,-0.671082,150.1, 2.4, 5.4,0,0,1024,1024,1024,1024,150,-89.9,95,3.794,3.809,3.812,3.823,3.842,3.803,21.078,77,14,Waypoint,
38.2848425,-120.3444675,4569.7101442622,187.992132,0,1.89631239664,24500,2018-05-08 21:36:07,17,0,22.925,4569.7101442622,187.992132,0.671082,2.77390428824,0,0,-0.671082,150.2, 2.1, 5.1,0,0,1024,1024,1024,1024,150,-89.9,95,3.794,3.809,3.812,3.823,3.842,3.803,21.078,77,14,Waypoint,
38.2848425,-120.3444674,4571.6786482622,189.960636,0,1.92358273872,24700,2018-05-08 21:36:07,17,0,22.925,4571.6786482622,189.960636,0.671082,2.77390428824,0,0,-0.671082,150.3, 1.8, 5.3,0,0,1024,1024,1024,1024,150,-89.9,95,3.794,3.809,3.812,3.823,3.842,3.803,21.078,77,14,Waypoint,
38.2848426,-120.3444674,4573.6471522622,191.92914,0,1.93496725352,24910,2018-05-08 21:36:07,17,0,22.925,4573.6471522622,191.92914,0.671082,2.77390428824,0,0,-0.671082,150.3, 1.6, 5.2,0,0,1024,1024,1024,1024,150,-89.9,95,3.794,3.809,3.812,3.823,3.842,3.803,21.078,77,14,Waypoint,
38.2848427,-120.3444673,4574.6314042622,192.913392,0,1.9739501944,25100,2018-05-08 21:36:08,17,0,22.925,4574.6314042622,192.913392,0.671082,2.77390428824,0,0,-0.671082,150.3, 1.7, 5.8,0,0,1024,1024,1024,1024,150,-89.9,95,3.794,3.809,3.812,3.823,3.842,3.803,21.078,77,14,Waypoint,
38.2848428,-120.3444673,4575.2875722622,193.56956,0,1.98638785884,25200,2018-05-08 21:36:08,17,0,22.925,4575.2875722622,193.56956,0.671082,2.77390428824,0,0,-0.671082,150.2, 1.6, 6.4,0,0,1024,1024,1024,1024,150,-89.9,95,3.794,3.809,3.812,3.823,3.842,3.803,21.078,77,14,Waypoint,
38.2848428,-120.3444672,4576.2718242622,194.553812,0,2.01325137676,25300,2018-05-08 21:36:08,17,0,22.925,4576.2718242622,194.553812,0.671082,2.77390428824,0,0,-0.671082,150.2, 1.4, 6.3,0,0,1024,1024,1024,1024,150,-90,95,3.794,3.809,3.812,3.823,3.842,3.803,21.078,77,14,Waypoint,
38.2848429,-120.344467,4578.2403282622,196.522316,0,2.07963917416,25400,2018-05-08 21:36:08,17,0,22.925,4578.2403282622,196.522316,0.671082,2.77390428824,0,0,-0.671082,150.1, 1.4, 6.1,0,0,1024,1024,1024,1024,150,-89.9,95,3.794,3.809,3.812,3.823,3.842,3.803,21.078,77,14,Waypoint,
38.2848429,-120.344467,4579.2245802622,197.506568,0,2.07963917416,25500,2018-05-08 21:36:08,17,0,22.925,4579.2245802622,197.506568,0.671082,2.77390428824,0,0,-0.671082,150.1, 1.5, 6,0,0,1024,1024,1024,1024,150,-89.9,95,3.794,3.809,3.812,3.823,3.842,3.803,21.078,77,14,Waypoint,
38.284843,-120.344467,4580.2088322622,198.49082,0,2.09271988324,25600,2018-05-08 21:36:08,17,0,22.925,4580.2088322622,198.49082,0.671082,2.77390428824,0,0,-0.671082,150.1, 1.7, 5.9,0,0,1024,1024,1024,1024,150,-89.9,95,3.794,3.809,3.812,3.823,3.842,3.803,21.078,77,14,Waypoint,
38.284843,-120.3444669,4581.1930842622,199.475072,0,2.11939639328,25700,2018-05-08 21:36:08,17,0,22.925,4581.1930842622,199.475072,0.671082,2.77390428824,0,0,-0.671082,150.1, 1.8, 6.2,0,0,1024,1024,1024,1024,150,-89.9,95,3.794,3.809,3.812,3.823,3.842,3.803,21.078,77,14,Waypoint,
38.284843,-120.3444668,4582.1773362622,200.459324,0,2.14612211592,25800,2018-05-08 21:36:08,17,0,22.925,4582.1773362622,200.459324,0.671082,2.77390428824,0,0,-0.671082,150.1, 1.8, 6.6,0,0,1024,1024,1024,1024,150,-89.9,95,3.794,3.809,3.812,3.823,3.842,3.803,21.078,77,14,Waypoint,
38.2848431,-120.3444668,4583.1615882622,201.443576,0,2.1594160796,25900,2018-05-08 21:36:08,17,0,22.925,4583.1615882622,201.443576,0.671082,2.77390428824,0,0,-0.671082,150.2, 1.7, 7,0,0,1024,1024,1024,1024,150,-89.9,95,3.794,3.809,3.812,3.823,3.842,3.803,21.078,77,14,Waypoint,
38.2848431,-120.3444667,4585.1300922622,203.41208,0,2.18603025368,26100,2018-05-08 21:36:09,17,0,22.925,4585.1300922622,203.41208,0.671082,2.77390428824,0,0,-0.671082,150.3, 1.8, 7.2,0,0,1024,1024,1024,1024,150,-89.9,95,3.794,3.809,3.812,3.823,3.842,3.803,21.078,77,14,Waypoint,
38.2848431,-120.3444667,4586.1143442622,204.396332,0,2.18603025368,26200,2018-05-08 21:36:09,17,0,22.925,4586.1143442622,204.396332,0.671082,2.77390428824,0,0,-0.671082,150.3, 1.7, 7.1,0,0,1024,1024,1024,1024,150,-89.9,95,3.794,3.809,3.812,3.823,3.842,3.803,21.078,77,14,Waypoint,
38.2848431,-120.3444667,4587.0985962622,205.380584,0,2.18603025368,26300,2018-05-08 21:36:09,17,0,22.925,4587.0985962622,205.380584,0.671082,2.77390428824,0,0,-0.671082,150.2, 1.6, 6.8,0,0,1024,1024,1024,1024,150,-89.9,95,3.794,3.809,3.812,3.823,3.842,3.803,21.078,77,14,Waypoint,
38.2848431,-120.3444668,4588.4109322622,206.69292,0,2.1594160796,26400,2018-05-08 21:36:09,17,0,22.925,4588.4109322622,206.69292,0.671082,2.77390428824,0,0,-0.671082,150.2, 1.6, 6.8,0,0,1024,1024,1024,1024,150,-89.9,95,3.794,3.809,3.812,3.823,3.842,3.803,21.078,77,14,Waypoint,
38.2848431,-120.3444669,4589.3951842622,207.677172,0,2.1328576798,26500,2018-05-08 21:36:09,17,0,22.925,4589.3951842622,207.677172,0.671082,2.77390428824,0,0,-0.671082,150.1, 1.6, 6.7,0,0,1024,1024,1024,1024,150,-89.9,95,3.794,3.809,3.812,3.823,3.842,3.803,21.078,77,14,Waypoint,
38.284843,-120.344467,4590.3794362622,208.661424,0,2.09271988324,26600,2018-05-08 21:36:09,17,0,22.925,4590.3794362622,208.661424,0.671082,2.77390428824,0,0,-0.671082,150.1, 1.7, 6.6,0,0,1024,1024,1024,1024,150,-89.9,95,3.794,3.809,3.812,3.823,3.842,3.803,21.078,77,14,Waypoint,
38.284843,-120.3444671,4591.3636882622,209.645676,0,2.06609586664,26700,2018-05-08 21:36:09,17,0,22.925,4591.3636882622,209.645676,0.671082,2.77390428824,0,0,-0.671082,149.9, 1.8, 6.3,0,0,1024,1024,1024,1024,150,-90,95,3.794,3.809,3.812,3.823,3.842,3.803,21.078,77,14,Waypoint,
38.2848429,-120.3444673,4592.3479402622,210.629928,0,1.99941279364,26800,2018-05-08 21:36:09,17,0,22.925,4592.3479402622,210.629928,0.671082,2.77390428824,0,0,-0.671082,149.8, 1.5, 5.5,0,0,1024,1024,1024,1024,150,-89.9,95,3.794,3.809,3.812,3.823,3.842,3.803,21.078,77,14,Waypoint,
38.2848428,-120.3444675,4593.3321922622,211.61418,0,1.93281502248,26900,2018-05-08 21:36:09,17,0,22.925,4593.3321922622,211.61418,0.671082,2.77390428824,0,0,-0.671082,149.6, 1.4, 5.2,0,0,1024,1024,1024,1024,150,-89.9,95,3.794,3.809,3.812,3.823,3.842,3.803,21.078,77,14,Waypoint,
38.2848427,-120.3444679,4595.3006962622,213.582684,0,1.8128117378,27100,2018-05-08 21:36:10,17,0,22.925,4595.3006962622,213.582684,0.671082,2.77390428824,0,0,-0.671082,149.7, 1.8, 4.7,0,0,1024,1024,1024,1024,150,-89.9,95,3.794,3.809,3.812,3.823,3.842,3.803,21.078,77,14,Waypoint,
38.2848426,-120.3444683,4597.2692002622,215.551188,0,1.69283798068,27400,2018-05-08 21:36:10,17,0,22.925,4597.2692002622,215.551188,0.671082,2.77390428824,0,0,-0.671082,150, 1.4, 4.2,0,0,1024,1024,1024,1024,150,-90,95,3.794,3.809,3.812,3.823,3.842,3.803,21.078,77,14,Waypoint,
38.2848425,-120.3444686,4599.2377042622,217.519692,0,1.59953089108,27600,2018-05-08 21:36:10,17,0,22.925,4599.2377042622,217.519692,0.671082,2.77390428824,0,0,-0.671082,150.3, 1.2, 4.1,0,0,1024,1024,1024,1024,150,-89.9,95,3.794,3.809,3.812,3.823,3.842,3.803,21.078,77,14,Waypoint,
38.2848425,-120.3444686,4601.2062082622,219.488196,0,1.59953089108,27700,2018-05-08 21:36:10,17,0,22.925,4601.2062082622,219.488196,0.671082,2.77390428824,0,0,-0.671082,150.9, 1.3, 5.2,0,0,1024,1024,1024,1024,150,-89.9,95,3.794,3.809,3.812,3.823,3.842,3.803,21.078,77,14,Waypoint,
38.2848426,-120.3444686,4602.1904602622,220.472448,0,1.61320215136,27800,2018-05-08 21:36:10,17,0,22.925,4602.1904602622,220.472448,0.671082,2.77390428824,0,0,-0.671082,150.9, 1.4, 5.7,0,0,1024,1024,1024,1024,150,-89.9,95,3.794,3.809,3.812,3.823,3.842,3.803,21.078,77,14,Waypoint,
38.2848426,-120.3444686,4603.1747122622,221.4567,0,1.61320215136,27900,2018-05-08 21:36:10,17,0,22.925,4603.1747122622,221.4567,0.671082,2.77390428824,0,0,-0.671082,150.7, 1.4, 6.1,0,0,1024,1024,1024,1024,150,-89.9,95,3.794,3.809,3.812,3.823,3.842,3.803,21.078,77,14,Waypoint,
38.2848427,-120.3444685,4604.1589642622,222.440952,0,1.6538222314,28000,2018-05-08 21:36:10,17,0,22.821,4604.1589642622,222.440952,0.671082,2.77390428824,0,0,-0.671082,150.3, 1.5, 6.7,0,0,1024,1024,1024,1024,150,-89.9,94,3.782,3.8,3.805,3.807,3.836,3.799,20.753,77,14,Waypoint,
