latitude,longitude,altitude(feet),ascent(feet),speed(mph),distance(feet),time(millisecond),datetime(utc),satellites,gpslevel,voltage(v),max_altitude(feet),max_ascent(feet),max_speed(mph),max_distance(feet), xSpeed(mph), ySpeed(mph), zSpeed(mph), compass_heading(degrees), pitch(degrees), roll(degrees),isPhoto,isVideo,rc_elevator,rc_aileron,rc_throttle,rc_rudder,gimbal_heading(degrees),gimbal_pitch(degrees),battery_percent,voltageCell1,voltageCell2,voltageCell3,voltageCell4,voltageCell5,voltageCell6,current(A),battery_temperature(f),flycStateRaw,flycState,message
38.2848506,-120.3444713,4382.0207852378,0,0.223694,0,3020,2018-05-08 21:56:00,13,0,25.466,4382.0207852378,0,0.223694,0,0,0,0,149.1, -1.3, -0.8,1,0,1024,1024,1024,1024,147.2,-90,98,4.261,4.272,4.184,4.259,4.199,4.238,2.675,73.4,11,AutoTakeoff,DJI_0760.jpg Starting Mission from Lat/Long: 38.28487/-120.34447 Camera: Zenmuse X3 - Overlap: 90/90 - Active Connection: No
38.2848507,-120.3444712,4382.0207852378,0,0.223694,0.046382219332,3100,2018-05-08 21:56:00,13,0,25.466,4382.0207852378,0,0.223694,0.046382219332,0,0,0,149.4, -1.2, -0.3,0,0,1024,1024,1024,1024,147.3,-89.9,98,4.261,4.272,4.184,4.259,4.199,4.238,2.675,73.4,11,AutoTakeoff,
38.2848508,-120.3444707,4382.3488692378,0.328084,0.447388,0.186682748756,3300,2018-05-08 21:56:00,13,0,25.466,4382.3488692378,0.328084,0.447388,0.186682748756,0,0,0,149.5, 0, 0.5,0,0,1024,1024,1024,1024,147.3,-89.9,98,4.261,4.272,4.184,4.259,4.199,4.238,2.675,73.4,11,AutoTakeoff,
38.2848508,-120.3444705,4382.3488692378,0.328084,0.447388,0.240447514256,3400,2018-05-08 21:56:00,13,0,25.466,4382.3488692378,0.328084,0.447388,0.240447514256,0,0,0,149.4, 0.7, 1.4,0,0,1024,1024,1024,1024,147.3,-89.9,98,4.261,4.272,4.184,4.259,4.199,4.238,2.675,73.4,11,AutoTakeoff,
38.2848509,-120.3444702,4382.3488692378,0.328084,0.447388,0.333497386,3500,2018-05-08 21:56:00,13,0,25.466,4382.3488692378,0.328084,0.447388,0.333497386,0,0,0,149.4, 1.3, 2,0,0,1024,1024,1024,1024,147.3,-89.9,98,4.261,4.272,4.184,4.259,4.199,4.238,2.675,73.4,11,AutoTakeoff,
38.284851,-120.34447,4382.6769532378,0.656168,0.447388,0.39988190256,3600,2018-05-08 21:56:00,13,0,25.466,4382.6769532378,0.656168,0.447388,0.39988190256,0,0,0,149.2, 1.5, 2.3,0,0,1024,1024,1024,1024,147.4,-89.9,98,4.261,4.272,4.184,4.259,4.199,4.238,2.675,73.4,11,AutoTakeoff,
38.2848511,-120.3444698,4382.6769532378,0.656168,0.223694,0.46670605168,3710,2018-05-08 21:56:00,14,0,25.466,4382.6769532378,0.656168,0.447388,0.46670605168,0,0,0,149, 1.1, 2.3,0,0,1024,1024,1024,1024,147.4,-89.9,98,4.261,4.272,4.184,4.259,4.199,4.238,2.675,73.4,11,AutoTakeoff,
38.2848512,-120.3444696,4383.0050372378,0.984252,0.223694,0.53380579136,3810,2018-05-08 21:56:00,14,0,25.466,4383.0050372378,0.984252,0.447388,0.53380579136,0,0,0,148.8, 0.6, 2.4,0,0,1024,1024,1024,1024,147.4,-89.9,98,4.261,4.272,4.184,4.259,4.199,4.238,2.675,73.4,11,AutoTakeoff,
38.2848512,-120.3444694,4383.0050372378,0.984252,0.223694,0.5865157668,3900,2018-05-08 21:56:00,14,0,25.466,4383.0050372378,0.984252,0.447388,0.5865157668,0,0,0,148.5, 0.4, 1.9,0,0,1024,1024,1024,1024,147.4,-89.9,98,4.261,4.272,4.184,4.259,4.199,4.238,2.675,73.4,11,AutoTakeoff,
38.2848513,-120.3444692,4383.3331212378,1.312336,0.223694,0.65338912852,4100,2018-05-08 21:56:01,14,0,25.466,4383.3331212378,1.312336,0.447388,0.65338912852,0,0,0,148.2, 0.5, 1.9,0,0,1024,1024,1024,1024,147.4,-89.9,98,4.261,4.272,4.184,4.259,4.199,4.238,2.675,73.4,11,AutoTakeoff,
38.2848514,-120.344469,4383.3331212378,1.312336,0.223694,0.72045934064,4200,2018-05-08 21:56:01,13,0,25.466,4383.3331212378,1.312336,0.447388,0.72045934064,0,0,0,148.1, 0.6, 1.9,0,0,1024,1024,1024,1024,147.5,-89.9,98,4.261,4.272,4.184,4.259,4.199,4.238,2.675,73.4,11,AutoTakeoff,
38.2848515,-120.3444688,4383.6612052378,1.64042,0.223694,0.78767062888,4300,2018-05-08 21:56:01,13,0,25.466,4383.6612052378,1.64042,0.447388,0.78767062888,0,0,-0.223694,148.1, 0.6, 1.7,0,0,1024,1024,1024,1024,147.5,-89.9,98,4.261,4.272,4.184,4.259,4.199,4.238,2.675,73.4,11,AutoTakeoff,
38.2848515,-120.3444686,4383.6612052378,1.64042,0.223694,0.84007220536,4400,2018-05-08 21:56:01,14,0,25.466,4383.6612052378,1.64042,0.447388,0.84007220536,0,0,-0.223694,148.2, 0.7, 1.6,0,0,1024,1024,1024,1024,147.5,-89.9,98,4.261,4.272,4.184,4.259,4.199,4.238,2.675,73.4,11,AutoTakeoff,
38.2848515,-120.3444684,4383.9892892378,1.968504,0.223694,0.89307417556,4500,2018-05-08 21:56:01,14,0,25.466,4383.9892892378,1.968504,0.447388,0.89307417556,0,0,0,148.4, 0.8, 1.6,0,0,1024,1024,1024,1024,147.5,-89.9,98,4.261,4.272,4.184,4.259,4.199,4.238,2.675,73.4,11,AutoTakeoff,
38.2848516,-120.3444683,4383.9892892378,1.968504,0.223694,0.9334153842,4600,2018-05-08 21:56:01,14,0,25.466,4383.9892892378,1.968504,0.447388,0.9334153842,0,0,-0.223694,148.5, 0.9, 1.9,0,0,1024,1024,1024,1024,147.5,-89.9,98,4.261,4.272,4.184,4.259,4.199,4.238,2.675,73.4,11,AutoTakeoff,
38.2848516,-120.3444681,4384.3173732378,2.296588,0.223694,0.98638782684,4700,2018-05-08 21:56:01,14,0,25.466,4384.3173732378,2.296588,0.447388,0.98638782684,0,0,-0.223694,148.5, 1, 2,0,0,1024,1024,1024,1024,147.5,-89.9,98,4.261,4.272,4.184,4.259,4.199,4.238,2.675,73.4,11,AutoTakeoff,
38.2848516,-120.3444679,4384.6454572378,2.624672,0.223694,1.03981958708,4800,2018-05-08 21:56:01,14,0,25.466,4384.6454572378,2.624672,0.447388,1.03981958708,0,0,-0.223694,148.6, 0.9, 2,0,0,1024,1024,1024,1024,147.5,-89.9,98,4.261,4.272,4.184,4.259,4.199,4.238,2.675,73.4,11,AutoTakeoff,
38.2848516,-120.3444677,4384.6454572378,2.624672,0.223694,1.09363848644,4900,2018-05-08 21:56:01,14,0,25.466,4384.6454572378,2.624672,0.447388,1.09363848644,0,0,-0.223694,148.6, 1, 2.1,0,0,1024,1024,1024,1024,147.6,-89.9,98,4.261,4.272,4.184,4.259,4.199,4.238,2.675,73.4,11,AutoTakeoff,
38.2848516,-120.3444675,4384.9735412378,2.952756,0.223694,1.14779531232,5000,2018-05-08 21:56:01,14,0,24.757,4384.9735412378,2.952756,0.447388,1.14779531232,0,0,0,148.7, 1.3, 2.2,0,0,1024,1024,1024,1024,147.6,-89.9,98,4.033,4.014,4.056,4.059,4.078,4.05,16.914,73.4,6,P-GPS,
38.2848515,-120.3444674,4384.9735412378,2.952756,0,1.16416998476,5100,2018-05-08 21:56:02,14,0,24.757,4384.9735412378,2.952756,0.447388,1.16416998476,0,0,0,148.7, 1.5, 2.6,0,0,1024,1024,1024,1024,147.6,-89.9,98,4.033,4.014,4.056,4.059,4.078,4.05,16.914,73.4,14,Waypoint,
38.2848514,-120.3444672,4385.3016252378,3.28084,0,1.20991145604,5200,2018-05-08 21:56:02,13,0,24.757,4385.3016252378,3.28084,0.447388,1.20991145604,0,0,0,148.6, 1.7, 1.7,0,0,1024,1024,1024,1024,147.6,-89.9,98,4.033,4.014,4.056,4.059,4.078,4.05,16.914,73.4,14,Waypoint,
38.2848513,-120.3444671,4385.3016252378,3.28084,0,1.22963258528,5300,2018-05-08 21:56:02,13,0,24.757,4385.3016252378,3.28084,0.447388,1.22963258528,0,0,0,148.6, 1.6, 1.2,0,0,1024,1024,1024,1024,147.6,-89.9,98,4.033,4.014,4.056,4.059,4.078,4.05,16.914,73.4,14,Waypoint,
38.2848512,-120.3444671,4385.3016252378,3.28084,0,1.22257549844,5400,2018-05-08 21:56:02,13,0,24.757,4385.3016252378,3.28084,0.447388,1.22963258528,0,0,0,148.6, 1.5, 1,0,0,1024,1024,1024,1024,147.6,-89.9,98,4.033,4.014,4.056,4.059,4.078,4.05,16.914,73.4,14,Waypoint,
38.2848511,-120.3444671,4385.6297092378,3.608924,0,1.21657156124,5500,2018-05-08 21:56:02,10,0,24.757,4385.6297092378,3.608924,0.447388,1.22963258528,0,0,-0.223694,148.7, 1.5, 0.8,0,0,1024,1024,1024,1024,147.6,-89.9,98,4.033,4.014,4.056,4.059,4.078,4.05,16.914,73.4,14,Waypoint,
38.2848511,-120.344467,4386.6139612378,4.593176,0,1.24489505296,5800,2018-05-08 21:56:02,12,0,24.757,4386.6139612378,4.593176,0.447388,1.24489505296,0,0,-0.223694,149, 1.2, 1.3,0,0,1024,1024,1024,1024,147.6,-89.9,98,4.033,4.014,4.056,4.059,4.078,4.05,16.914,73.4,14,Waypoint,
38.2848512,-120.344467,4386.9420452378,4.92126,0,1.25076119488,5900,2018-05-08 21:56:02,12,0,24.757,4386.9420452378,4.92126,0.447388,1.25076119488,0,0,-0.223694,149, 1.2, 1.3,0,0,1024,1024,1024,1024,147.6,-90,98,4.033,4.014,4.056,4.059,4.078,4.05,16.914,73.4,14,Waypoint,
38.2848513,-120.3444668,4387.9262972378,5.905512,0,1.3137959738,6100,2018-05-08 21:56:03,13,0,24.757,4387.9262972378,5.905512,0.447388,1.3137959738,0,0,-0.447388,148.9, 0.8, 1.3,0,0,1024,1024,1024,1024,147.6,-90,98,4.033,4.014,4.056,4.059,4.078,4.05,16.914,73.4,14,Waypoint,
38.2848513,-120.3444667,4388.5824652378,6.56168,0,1.34189964924,6200,2018-05-08 21:56:03,13,0,24.757,4388.5824652378,6.56168,0.447388,1.34189964924,0,0,-0.447388,148.9, 0.9, 1.4,0,0,1024,1024,1024,1024,147.6,-89.9,98,4.033,4.014,4.056,4.059,4.078,4.05,16.914,73.4,14,Waypoint,
38.2848513,-120.3444666,4388.9105492378,6.889764,0,1.37002629056,6400,2018-05-08 21:56:03,14,0,24.757,4388.9105492378,6.889764,0.447388,1.37002629056,0,0,-0.447388,148.8, 1.2, 1.3,0,0,1024,1024,1024,1024,147.6,-89.9,98,4.033,4.014,4.056,4.059,4.078,4.05,16.914,73.4,14,Waypoint,
38.2848516,-120.3444666,4390.5509692378,8.530184,0,1.39458009712,6510,2018-05-08 21:56:03,13,0,24.757,4390.5509692378,8.530184,0.447388,1.39458009712,0,0,-0.671082,148.7, 1, 1.3,0,0,1024,1024,1024,1024,147.6,-90,98,4.033,4.014,4.056,4.059,4.078,4.05,16.914,73.4,14,Waypoint,
38.2848516,-120.3444665,4391.5352212378,9.514436,0,1.42224085916,6700,2018-05-08 21:56:03,13,0,24.757,4391.5352212378,9.514436,0.447388,1.42224085916,0,0,-0.671082,148.7, 0.7, 1.3,0,0,1024,1024,1024,1024,147.6,-89.9,98,4.033,4.014,4.056,4.059,4.078,4.05,16.914,73.4,14,Waypoint,
38.2848516,-120.3444664,4392.5194732378,10.498688,0,1.44994099128,6800,2018-05-08 21:56:03,14,0,24.757,4392.5194732378,10.498688,0.447388,1.44994099128,0,0,-0.671082,148.7, 0.9, 1.3,0,0,1024,1024,1024,1024,147.6,-89.9,98,4.033,4.014,4.056,4.059,4.078,4.05,16.914,73.4,14,Waypoint,
38.2848516,-120.3444664,4393.5037252378,11.48294,0,1.44994099128,6900,2018-05-08 21:56:03,14,0,24.757,4393.5037252378,11.48294,0.447388,1.44994099128,0,0,-0.671082,148.8, 1.1, 1.3,0,0,1024,1024,1024,1024,147.6,-89.9,98,4.033,4.014,4.056,4.059,4.078,4.05,16.914,73.4,14,Waypoint,
38.2848516,-120.3444664,4394.4879772378,12.467192,0,1.44994099128,7000,2018-05-08 21:56:03,14,0,23.813,4394.4879772378,12.467192,0.447388,1.44994099128,0,0,-0.671082,148.8, 1.1, 1.3,0,0,1024,1024,1024,1024,147.6,-89.9,98,3.931,3.939,3.902,3.948,3.977,3.957,19.469,73.4,14,Waypoint,
38.2848517,-120.3444663,4395.8003132378,13.779528,0,1.48710306596,7100,2018-05-08 21:56:04,14,0,23.813,4395.8003132378,13.779528,0.447388,1.48710306596,0,0,-0.671082,149, 1.1, 1.4,0,0,1024,1024,1024,1024,147.6,-89.9,98,3.931,3.939,3.902,3.948,3.977,3.957,19.469,73.4,14,Waypoint,
38.2848518,-120.3444663,4396.7845652378,14.76378,0,1.49736225264,7200,2018-05-08 21:56:04,13,0,23.813,4396.7845652378,14.76378,0.447388,1.49736225264,0,0,-0.671082,149, 1.2, 1.5,0,0,1024,1024,1024,1024,147.6,-89.9,98,3.931,3.939,3.902,3.948,3.977,3.957,19.469,73.4,14,Waypoint,
38.2848518,-120.3444661,4397.7688172378,15.748032,0,1.55222773996,7300,2018-05-08 21:56:04,13,0,23.813,4397.7688172378,15.748032,0.447388,1.55222773996,0,0,-0.671082,149.1, 1.2, 1.6,0,0,1024,1024,1024,1024,147.6,-89.9,98,3.931,3.939,3.902,3.948,3.977,3.957,19.469,73.4,14,Waypoint,
38.2848518,-120.3444661,4399.0811532378,17.060368,0,1.55222773996,7400,2018-05-08 21:56:04,14,0,23.813,4399.0811532378,17.060368,0.447388,1.55222773996,0,0,-0.671082,149, 1.2, 1.5,0,0,1024,1024,1024,1024,147.6,-89.9,98,3.931,3.939,3.902,3.948,3.977,3.957,19.469,73.4,14,Waypoint,
38.2848518,-120.3444661,4400.0654052378,18.04462,0,1.55222773996,7500,2018-05-08 21:56:04,14,0,23.813,4400.0654052378,18.04462,0.447388,1.55222773996,0,0,-0.671082,148.9, 1.1, 1.5,0,0,1024,1024,1024,1024,147.6,-89.9,98,3.931,3.939,3.902,3.948,3.977,3.957,19.469,73.4,14,Waypoint,
38.2848516,-120.344466,4402.3619932378,20.341208,0,1.56107616544,7600,2018-05-08 21:56:04,13,0,23.813,4402.3619932378,20.341208,0.447388,1.56107616544,0,0,-0.671082,148.5, 1.3, 0.9,0,0,1024,1024,1024,1024,147.6,-89.9,98,3.931,3.939,3.902,3.948,3.977,3.957,19.469,73.4,14,Waypoint,
38.2848514,-120.344466,4403.3462452378,21.32546,0,1.54564965576,7800,2018-05-08 21:56:04,13,0,23.813,4403.3462452378,21.32546,0.447388,1.56107616544,0,0,-0.671082,148.5, 1.8, 1,0,0,1024,1024,1024,1024,147.6,-89.9,98,3.931,3.939,3.902,3.948,3.977,3.957,19.469,73.4,14,Waypoint,
38.2848511,-120.3444661,4405.6428332378,23.622048,0.223694,1.50033469368,7910,2018-05-08 21:56:04,13,0,23.813,4405.6428332378,23.622048,0.447388,1.56107616544,0,0,-0.671082,148.4, 2.5, 0.5,0,0,1024,1024,1024,1024,147.6,-89.9,98,3.931,3.939,3.902,3.948,3.977,3.957,19.469,73.4,14,Waypoint,
38.284851,-120.3444662,4406.6270852378,24.6063,0,1.46783797348,8000,2018-05-08 21:56:04,13,0,23.359,4406.6270852378,24.6063,0.447388,1.56107616544,0,0,-0.671082,148.3, 2.7, 0.2,0,0,1024,1024,1024,1024,147.6,-89.9,98,3.905,3.91,3.866,3.906,3.934,3.913,23.907,73.4,14,Waypoint,
38.2848509,-120.3444663,4407.6113372378,25.590552,0,1.43610240816,8100,2018-05-08 21:56:05,13,0,23.359,4407.6113372378,25.590552,0.447388,1.56107616544,0,0,-0.671082,148.3, 2.6, 0,0,0,1024,1024,1024,1024,147.7,-89.9,98,3.905,3.91,3.866,3.906,3.934,3.913,23.907,73.4,14,Waypoint,
38.2848509,-120.3444665,4408.9236732378,26.902888,0,1.37899938796,8200,2018-05-08 21:56:05,13,0,23.359,4408.9236732378,26.902888,0.447388,1.56107616544,0,0,-0.671082,148.3, 2.5, -0.1,0,0,1024,1024,1024,1024,147.6,-89.9,98,3.905,3.91,3.866,3.906,3.934,3.913,23.907,73.4,14,Waypoint,
38.2848509,-120.3444667,4409.9079252378,27.88714,0,1.32190949112,8300,2018-05-08 21:56:05,12,0,23.359,4409.9079252378,27.88714,0.447388,1.56107616544,0,0,-0.671082,148.4, 2.1, -0.4,0,0,1024,1024,1024,1024,147.6,-89.9,98,3.905,3.91,3.866,3.906,3.934,3.913,23.907,73.4,14,Waypoint,
38.2848508,-120.3444669,4410.8921772378,28.871392,0,1.2622047648,8410,2018-05-08 21:56:05,12,0,23.359,4410.8921772378,28.871392,0.447388,1.56107616544,0,0,-0.671082,148.5, 1.7, -1,0,0,1024,1024,1024,1024,147.7,-90,98,3.905,3.91,3.866,3.906,3.934,3.913,23.907,73.4,14,Waypoint,
38.2848506,-120.3444671,4411.8764292378,29.855644,0,1.20281827996,8500,2018-05-08 21:56:05,13,0,23.359,4411.8764292378,29.855644,0.447388,1.56107616544,0,0,-0.671082,148.7, 1.4, -0.8,0,0,1024,1024,1024,1024,147.7,-89.9,98,3.905,3.91,3.866,3.906,3.934,3.913,23.907,73.4,14,Waypoint,
38.2848504,-120.3444673,4413.1887652378,31.16798,0,1.14786092912,8700,2018-05-08 21:56:05,13,0,23.359,4413.1887652378,31.16798,0.447388,1.56107616544,0,0,-0.671082,148.7, 1.7, -0.5,0,0,1024,1024,1024,1024,147.7,-89.9,98,3.905,3.91,3.866,3.906,3.934,3.913,23.907,73.4,14,Waypoint,
38.2848502,-120.3444674,4414.1730172378,32.152232,0,1.126394393,8800,2018-05-08 21:56:05,13,0,23.359,4414.1730172378,32.152232,0.447388,1.56107616544,0,0,-0.671082,148.8, 2, -0.6,0,0,1024,1024,1024,1024,147.7,-89.9,98,3.905,3.91,3.866,3.906,3.934,3.913,23.907,73.4,14,Waypoint,
38.28485,-120.3444675,4415.1572692378,33.136484,0,1.11006237148,8900,2018-05-08 21:56:05,13,0,23.359,4415.1572692378,33.136484,0.447388,1.56107616544,0,0,-0.671082,148.9, 2.6, -0.5,0,0,1024,1024,1024,1024,147.7,-89.9,98,3.905,3.91,3.866,3.906,3.934,3.913,23.907,73.4,14,Waypoint,
38.2848499,-120.3444676,4416.1415212378,34.120736,0,1.08996722648,9000,2018-05-08 21:56:05,13,0,23.606,4416.1415212378,34.120736,0.447388,1.56107616544,0,0,-0.671082,148.9, 3.4, -0.7,0,0,1024,1024,1024,1024,147.7,-89.9,98,3.934,3.926,3.909,3.935,3.979,3.95,19.677,73.4,14,Waypoint,
38.2848498,-120.3444677,4417.4538572378,35.433072,0,1.0715059398,9100,2018-05-08 21:56:06,13,0,23.606,4417.4538572378,35.433072,0.447388,1.56107616544,0,0,-0.671082,149, 3.8, -1.1,0,0,1024,1024,1024,1024,147.7,-89.9,98,3.934,3.926,3.909,3.935,3.979,3.95,19.677,73.4,14,Waypoint,
38.2848498,-120.3444678,4418.4381092378,36.417324,0,1.0439796922,9200,2018-05-08 21:56:06,13,0,23.606,4418.4381092378,36.417324,0.447388,1.56107616544,0,0,-0.671082,149.1, 3.5, -0.9,0,0,1024,1024,1024,1024,147.7,-89.9,98,3.934,3.926,3.909,3.935,3.979,3.95,19.677,73.4,14,Waypoint,
38.2848497,-120.3444679,4419.7504452378,37.72966,0,1.02758533472,9300,2018-05-08 21:56:06,13,0,23.606,4419.7504452378,37.72966,0.447388,1.56107616544,0,0,-0.671082,149.1, 3, -0.6,0,0,1024,1024,1024,1024,147.7,-89.9,98,3.934,3.926,3.909,3.935,3.979,3.95,19.677,73.4,14,Waypoint,
38.2848497,-120.344468,4420.7346972378,38.713912,0,1.000492158,9400,2018-05-08 21:56:06,14,0,23.606,4420.7346972378,38.713912,0.447388,1.56107616544,0,0,-0.671082,148.9, 2.6, -0.1,0,0,1024,1024,1024,1024,147.7,-90,98,3.934,3.926,3.909,3.935,3.979,3.95,19.677,73.4,14,Waypoint,
38.2848497,-120.344468,4421.7189492378,39.698164,0,1.000492158,9500,2018-05-08 21:56:06,14,0,23.606,4421.7189492378,39.698164,0.447388,1.56107616544,0,0,-0.671082,148.7, 2.1, 0.2,0,0,1024,1024,1024,1024,147.7,-90,98,3.934,3.926,3.909,3.935,3.979,3.95,19.677,73.4,14,Waypoint,
38.2848498,-120.3444681,4422.7032012378,40.682416,0,0.96179136936,9600,2018-05-08 21:56:06,13,0,23.606,4422.7032012378,40.682416,0.447388,1.56107616544,0,0,-0.671082,148.6, 1.6, 0.5,0,0,1024,1024,1024,1024,147.7,-90,98,3.934,3.926,3.909,3.935,3.979,3.95,19.677,73.4,14,Waypoint,
38.2848498,-120.3444681,4423.6874532378,41.666668,0,0.96179136936,9700,2018-05-08 21:56:06,13,0,23.606,4423.6874532378,41.666668,0.447388,1.56107616544,0,0,-0.671082,148.7, 1.1, 0.8,0,0,1024,1024,1024,1024,147.7,-90,98,3.934,3.926,3.909,3.935,3.979,3.95,19.677,73.4,14,Waypoint,
38.2848499,-120.3444682,4424.9997892378,42.979004,0,0.92379924216,9800,2018-05-08 21:56:06,14,0,23.606,4424.9997892378,42.979004,0.447388,1.56107616544,0,0,-0.671082,148.9, 1.2, 1.2,0,0,1024,1024,1024,1024,147.7,-89.9,98,3.934,3.926,3.909,3.935,3.979,3.95,19.677,73.4,14,Waypoint,
38.2848498,-120.3444682,4425.9840412378,43.963256,0,0.93454399316,9900,2018-05-08 21:56:06,14,0,23.606,4425.9840412378,43.963256,0.447388,1.56107616544,0,0,-0.671082,149.1, 1.7, 1.3,0,0,1024,1024,1024,1024,147.7,-89.9,98,3.934,3.926,3.909,3.935,3.979,3.95,19.677,73.4,14,Waypoint,
38.2848498,-120.3444683,4426.6402092378,44.619424,0,0.9073819188,10000,2018-05-08 21:56:06,14,0,23.598,4426.6402092378,44.619424,0.447388,1.56107616544,0,0,-0.671082,149.2, 2, 0.8,0,0,1024,1024,1024,1024,147.7,-89.9,98,3.939,3.926,3.893,3.921,3.963,3.936,19.794,73.4,14,Waypoint,
38.2848499,-120.3444683,4427.6244612378,45.603676,0,0.89631236464,10100,2018-05-08 21:56:07,14,0,23.598,4427.6244612378,45.603676,0.447388,1.56107616544,0,0,-0.671082,149.1, 2.3, 0,0,0,1024,1024,1024,1024,147.7,-89.9,98,3.939,3.926,3.893,3.921,3.963,3.936,19.794,73.4,14,Waypoint,
38.28485,-120.3444683,4428.6087132378,46.587928,0.223694,0.88660435908,10200,2018-05-08 21:56:07,14,0,23.598,4428.6087132378,46.587928,0.447388,1.56107616544,0,0,-0.671082,148.9, 2.3, -0.1,0,0,1024,1024,1024,1024,147.7,-89.9,98,3.939,3.926,3.893,3.921,3.963,3.936,19.794,73.4,14,Waypoint,
38.2848501,-120.3444681,4430.9053012378,48.884516,0.3131716,0.93441275956,10310,2018-05-08 21:56:07,14,0,23.598,4430.9053012378,48.884516,0.447388,1.56107616544,0,0,-0.671082,148.7, 1.3, 1.5,0,0,1024,1024,1024,1024,147.7,-90,98,3.939,3.926,3.893,3.921,3.963,3.936,19.794,73.4,14,Waypoint,
38.2848503,-120.3444679,4431.8895532378,49.868768,0.3131716,0.97984255104,10410,2018-05-08 21:56:07,14,0,23.598,4431.8895532378,49.868768,0.447388,1.56107616544,0,0,-0.671082,148.7, 1.2, 2.5,0,0,1024,1024,1024,1024,147.7,-90,98,3.939,3.926,3.893,3.921,3.963,3.936,19.794,73.4,14,Waypoint,
38.2848504,-120.3444678,4432.8738052378,50.85302,0.3131716,1.00500003216,10500,2018-05-08 21:56:07,14,0,23.598,4432.8738052378,50.85302,0.447388,1.56107616544,0,0,-0.671082,148.9, 1.4, 3.3,0,0,1024,1024,1024,1024,147.7,-89.9,98,3.939,3.926,3.893,3.921,3.963,3.936,19.794,73.4,14,Waypoint,
38.2848505,-120.3444678,4434.8423092378,52.821524,0.223694,1.00301184312,10710,2018-05-08 21:56:07,14,0,23.598,4434.8423092378,52.821524,0.447388,1.56107616544,0,0,-0.671082,148.9, 1.5, 2.5,0,0,1024,1024,1024,1024,147.7,-90,98,3.939,3.926,3.893,3.921,3.963,3.936,19.794,73.4,14,Waypoint,
38.2848506,-120.3444678,4435.4984772378,53.477692,0.223694,1.0023458326,10800,2018-05-08 21:56:07,14,0,23.598,4435.4984772378,53.477692,0.447388,1.56107616544,0,0,-0.671082,148.7, 1.3, 1.9,0,0,1024,1024,1024,1024,147.7,-90,98,3.939,3.926,3.893,3.921,3.963,3.936,19.794,73.4,14,Waypoint,
38.2848507,-120.3444678,4436.4827292378,54.461944,0.223694,1.00301184312,10900,2018-05-08 21:56:07,14,0,23.598,4436.4827292378,54.461944,0.447388,1.56107616544,0,0,-0.671082,148.5, 1, 1.1,0,0,1024,1024,1024,1024,147.7,-90,98,3.939,3.926,3.893,3.921,3.963,3.936,19.794,73.4,14,Waypoint,
38.2848508,-120.3444678,4437.4669812378,55.446196,0.223694,1.00500003216,11000,2018-05-08 21:56:07,14,0,23.536,4437.4669812378,55.446196,0.447388,1.56107616544,0,0,-0.671082,148.3, 0.5, 0.9,0,0,1024,1024,1024,1024,147.7,-89.9,98,3.939,3.926,3.893,3.921,3.963,3.936,19.686,73.4,14,Waypoint,
38.2848509,-120.3444678,4438.4512332378,56.430448,0.223694,1.00830711888,11100,2018-05-08 21:56:08,14,0,23.536,4438.4512332378,56.430448,0.447388,1.56107616544,0,0,-0.671082,148.2, 0.3, 1.3,0,0,1024,1024,1024,1024,147.7,-90,98,3.939,3.926,3.893,3.921,3.963,3.936,19.686,73.4,14,Waypoint,
38.284851,-120.3444678,4439.4354852378,57.4147,0.223694,1.01291669908,11200,2018-05-08 21:56:08,14,0,23.536,4439.4354852378,57.4147,0.447388,1.56107616544,0,0,-0.671082,148.3, -0.1, 1.7,0,0,1024,1024,1024,1024,147.7,-90,98,3.939,3.926,3.893,3.921,3.963,3.936,19.686,73.4,14,Waypoint,
38.2848512,-120.3444678,4440.4197372378,58.398952,0.3131716,1.02597444228,11300,2018-05-08 21:56:08,13,0,23.536,4440.4197372378,58.398952,0.447388,1.56107616544,0,0,-0.671082,148.5, -0.1, 2.3,0,0,1024,1024,1024,1024,147.7,-89.9,98,3.939,3.926,3.893,3.921,3.963,3.936,19.686,73.4,14,Waypoint,
38.2848512,-120.3444676,4441.0759052378,59.05512,0.3131716,1.08200134696,11400,2018-05-08 21:56:08,13,0,23.536,4441.0759052378,59.05512,0.447388,1.56107616544,0,0,-0.671082,148.7, 0.3, 2.8,0,0,1024,1024,1024,1024,147.7,-89.9,98,3.939,3.926,3.893,3.921,3.963,3.936,19.686,73.4,14,Waypoint,
38.2848513,-120.3444675,4442.0601572378,60.039372,0.223694,1.11782811976,11600,2018-05-08 21:56:08,13,0,23.536,4442.0601572378,60.039372,0.447388,1.56107616544,0,0,-0.671082,148.8, 0.7, 3.3,0,0,1024,1024,1024,1024,147.7,-89.9,98,3.939,3.926,3.893,3.921,3.963,3.936,19.686,73.4,14,Waypoint,
38.2848513,-120.3444674,4443.0444092378,61.023624,0.223694,1.14572838312,11700,2018-05-08 21:56:08,13,0,23.536,4443.0444092378,61.023624,0.447388,1.56107616544,0,0,-0.671082,148.8, 1.2, 3.5,0,0,1024,1024,1024,1024,147.7,-89.9,98,3.939,3.926,3.893,3.921,3.963,3.936,19.686,73.4,14,Waypoint,
38.2848513,-120.3444674,4444.0286612378,62.007876,0,1.14572838312,11800,2018-05-08 21:56:08,13,0,23.536,4444.0286612378,62.007876,0.447388,1.56107616544,0,0,-0.671082,148.7, 1.5, 3.2,0,0,1024,1024,1024,1024,147.7,-89.9,98,3.939,3.926,3.893,3.921,3.963,3.936,19.686,73.4,14,Waypoint,
38.2848514,-120.3444674,4444.6848292378,62.664044,0,1.15440948576,11900,2018-05-08 21:56:08,13,0,23.536,4444.6848292378,62.664044,0.447388,1.56107616544,0,0,-0.671082,148.7, 1.7, 2.6,0,0,1024,1024,1024,1024,147.7,-89.9,98,3.939,3.926,3.893,3.921,3.963,3.936,19.686,73.4,14,Waypoint,
38.2848514,-120.3444674,4445.6690812378,63.648296,0,1.15440948576,12000,2018-05-08 21:56:08,14,0,23.536,4445.6690812378,63.648296,0.447388,1.56107616544,0,0,-0.671082,148.6, 1.6, 1.9,0,0,1024,1024,1024,1024,147.7,-89.9,97,3.925,3.899,3.9,3.929,3.959,3.934,19.686,73.4,14,Waypoint,
38.2848513,-120.3444674,4446.6533332378,64.632548,0,1.14572838312,12100,2018-05-08 21:56:09,14,0,23.536,4446.6533332378,64.632548,0.447388,1.56107616544,0,0,-0.671082,148.6, 1.4, 1.5,0,0,1024,1024,1024,1024,147.7,-89.9,97,3.925,3.899,3.9,3.929,3.959,3.934,19.686,73.4,14,Waypoint,
38.2848514,-120.3444674,4447.6375852378,65.6168,0,1.15440948576,12200,2018-05-08 21:56:09,14,0,23.536,4447.6375852378,65.6168,0.447388,1.56107616544,0,0,-0.671082,148.6, 1.3, 1.3,0,0,1024,1024,1024,1024,147.7,-89.9,97,3.925,3.899,3.9,3.929,3.959,3.934,19.686,73.4,14,Waypoint,
38.2848514,-120.3444674,4448.2937532378,66.272968,0,1.15440948576,12300,2018-05-08 21:56:09,14,0,23.536,4448.2937532378,66.272968,0.447388,1.56107616544,0,0,-0.671082,148.6, 1.1, 1.3,0,0,1024,1024,1024,1024,147.7,-90,97,3.925,3.899,3.9,3.929,3.959,3.934,19.686,73.4,14,Waypoint,
38.2848515,-120.3444674,4449.2780052378,67.25722,0,1.16416998476,12400,2018-05-08 21:56:09,14,0,23.536,4449.2780052378,67.25722,0.447388,1.56107616544,0,0,-0.671082,148.7, 1, 1.7,0,0,1024,1024,1024,1024,147.7,-89.9,97,3.925,3.899,3.9,3.929,3.959,3.934,19.686,73.4,14,Waypoint,
38.2848515,-120.3444673,4450.2622572378,68.241472,0,1.19167326648,12500,2018-05-08 21:56:09,14,0,23.536,4450.2622572378,68.241472,0.447388,1.56107616544,0,0,-0.671082,148.7, 0.9, 2.1,0,0,1024,1024,1024,1024,147.7,-89.9,97,3.925,3.899,3.9,3.929,3.959,3.934,19.686,73.4,14,Waypoint,
38.2848515,-120.3444673,4451.2465092378,69.225724,0,1.19167326648,12600,2018-05-08 21:56:09,14,0,23.536,4451.2465092378,69.225724,0.447388,1.56107616544,0,0,-0.671082,148.7, 1, 2.2,0,0,1024,1024,1024,1024,147.7,-89.9,97,3.925,3.899,3.9,3.929,3.959,3.934,19.686,73.4,14,Waypoint,
38.2848515,-120.3444672,4452.2307612378,70.209976,0,1.21922904164,12700,2018-05-08 21:56:09,14,0,23.536,4452.2307612378,70.209976,0.447388,1.56107616544,0,0,-0.671082,148.7, 1.2, 2.1,0,0,1024,1024,1024,1024,147.7,-89.9,97,3.925,3.899,3.9,3.929,3.959,3.934,19.686,73.4,14,Waypoint,
38.2848515,-120.3444672,4453.2150132378,71.194228,0,1.21922904164,12800,2018-05-08 21:56:09,14,0,23.536,4453.2150132378,71.194228,0.447388,1.56107616544,0,0,-0.671082,148.7, 1.3, 1.9,0,0,1024,1024,1024,1024,147.7,-89.9,97,3.925,3.899,3.9,3.929,3.959,3.934,19.686,73.4,14,Waypoint,
38.2848515,-120.3444673,4455.1835172378,73.162732,0,1.19167326648,12900,2018-05-08 21:56:09,15,0,23.536,4455.1835172378,73.162732,0.447388,1.56107616544,0,0,-0.671082,148.6, 1.2, 1.7,0,0,1024,1024,1024,1024,147.7,-89.9,97,3.925,3.899,3.9,3.929,3.959,3.934,19.686,73.4,14,Waypoint,
38.2848515,-120.3444673,4456.1677692378,74.146984,0,1.19167326648,13000,2018-05-08 21:56:09,15,0,23.58,4456.1677692378,74.146984,0.447388,1.56107616544,0,0,-0.671082,148.6, 1.1, 1.6,0,0,1024,1024,1024,1024,147.7,-89.9,97,3.923,3.909,3.894,3.923,3.957,3.929,19.374,73.4,14,Waypoint,
38.2848515,-120.3444672,4457.1520212378,75.131236,0,1.21922904164,13100,2018-05-08 21:56:10,14,0,23.58,4457.1520212378,75.131236,0.447388,1.56107616544,0,0,-0.671082,148.6, 1.1, 1.6,0,0,1024,1024,1024,1024,147.7,-89.9,97,3.923,3.909,3.894,3.923,3.957,3.929,19.374,73.4,14,Waypoint,
38.2848515,-120.3444672,4458.1362732378,76.115488,0,1.21922904164,13200,2018-05-08 21:56:10,14,0,23.58,4458.1362732378,76.115488,0.447388,1.56107616544,0,0,-0.671082,148.5, 0.9, 1.4,0,0,1024,1024,1024,1024,147.7,-89.9,97,3.923,3.909,3.894,3.923,3.957,3.929,19.374,73.4,14,Waypoint,
38.2848515,-120.3444672,4459.1205252378,77.09974,0,1.21922904164,13300,2018-05-08 21:56:10,14,0,23.58,4459.1205252378,77.09974,0.447388,1.56107616544,0,0,-0.671082,148.5, 0.9, 1.5,0,0,1024,1024,1024,1024,147.7,-90,97,3.923,3.909,3.894,3.923,3.957,3.929,19.374,73.4,14,Waypoint,
38.2848515,-120.3444672,4460.4328612378,78.412076,0,1.21922904164,13400,2018-05-08 21:56:10,14,0,23.58,4460.4328612378,78.412076,0.447388,1.56107616544,0,0,-0.671082,148.4, 1, 1.7,0,0,1024,1024,1024,1024,147.7,-89.9,97,3.923,3.909,3.894,3.923,3.957,3.929,19.374,73.4,14,Waypoint,
38.2848515,-120.3444672,4461.4171132378,79.396328,0,1.21922904164,13500,2018-05-08 21:56:10,14,0,23.58,4461.4171132378,79.396328,0.447388,1.56107616544,0,0,-0.671082,148.4, 0.7, 2.1,0,0,1024,1024,1024,1024,147.7,-90,97,3.923,3.909,3.894,3.923,3.957,3.929,19.374,73.4,14,Waypoint,
38.2848515,-120.3444672,4462.4013652378,80.38058,0,1.21922904164,13600,2018-05-08 21:56:10,14,0,23.58,4462.4013652378,80.38058,0.447388,1.56107616544,0,0,-0.671082,148.4, 0.6, 2.2,0,0,1024,1024,1024,1024,147.7,-89.9,97,3.923,3.909,3.894,3.923,3.957,3.929,19.374,73.4,14,Waypoint,
38.2848515,-120.3444672,4463.3856172378,81.364832,0,1.21922904164,13700,2018-05-08 21:56:10,15,0,23.58,4463.3856172378,81.364832,0.447388,1.56107616544,0,0,-0.671082,148.5, 0.9, 1.8,0,0,1024,1024,1024,1024,147.7,-89.9,97,3.923,3.909,3.894,3.923,3.957,3.929,19.374,73.4,14,Waypoint,
38.2848514,-120.3444673,4464.3698692378,82.349084,0,1.18213914544,13800,2018-05-08 21:56:10,15,0,23.58,4464.3698692378,82.349084,0.447388,1.56107616544,0,0,-0.671082,148.6, 1.2, 1.2,0,0,1024,1024,1024,1024,147.7,-89.9,97,3.923,3.909,3.894,3.923,3.957,3.929,19.374,73.4,14,Waypoint,
38.2848514,-120.3444673,4465.3541212378,83.333336,0,1.18213914544,13910,2018-05-08 21:56:10,15,0,23.58,4465.3541212378,83.333336,0.447388,1.56107616544,0,0,-0.671082,148.6, 1.2, 0.7,0,0,1024,1024,1024,1024,147.7,-89.9,97,3.923,3.909,3.894,3.923,3.957,3.929,19.374,73.4,14,Waypoint,
38.2848514,-120.3444674,4466.3383732378,84.317588,0,1.15440948576,14010,2018-05-08 21:56:10,15,0,23.301,4466.3383732378,84.317588,0.447388,1.56107616544,0,0,-0.671082,148.7, 1.1, 0.8,0,0,1024,1024,1024,1024,147.7,-89.9,97,3.887,3.871,3.847,3.882,3.905,3.891,22.067,73.4,14,Waypoint,
38.2848514,-120.3444674,4467.3226252378,85.30184,0,1.15440948576,14100,2018-05-08 21:56:11,14,0,23.301,4467.3226252378,85.30184,0.447388,1.56107616544,0,0,-0.671082,148.7, 1.3, 1.2,0,0,1024,1024,1024,1024,147.7,-89.9,97,3.887,3.871,3.847,3.882,3.905,3.891,22.067,73.4,14,Waypoint,
38.2848514,-120.3444675,4468.6349612378,86.614176,0,1.12672575784,14300,2018-05-08 21:56:11,14,0,23.301,4468.6349612378,86.614176,0.447388,1.56107616544,0,0,-0.671082,148.6, 1.2, 1.1,0,0,1024,1024,1024,1024,147.7,-89.9,97,3.887,3.871,3.847,3.882,3.905,3.891,22.067,73.4,14,Waypoint,
38.2848514,-120.3444676,4469.6192132378,87.598428,0,1.09908796168,14400,2018-05-08 21:56:11,14,0,23.301,4469.6192132378,87.598428,0.447388,1.56107616544,0,0,-0.671082,148.6, 0.9, 1.1,0,0,1024,1024,1024,1024,147.7,-90,97,3.887,3.871,3.847,3.882,3.905,3.891,22.067,73.4,14,Waypoint,
38.2848514,-120.3444677,4470.6034652378,88.58268,0,1.0715059398,14500,2018-05-08 21:56:11,14,0,23.301,4470.6034652378,88.58268,0.447388,1.56107616544,0,0,-0.671082,148.5, 0.7, 0.8,0,0,1024,1024,1024,1024,147.7,-90,97,3.887,3.871,3.847,3.882,3.905,3.891,22.067,73.4,14,Waypoint,
38.2848513,-120.3444677,4471.5877172378,89.566932,0,1.06214898412,14600,2018-05-08 21:56:11,14,0,23.301,4471.5877172378,89.566932,0.447388,1.56107616544,0,0,-0.671082,148.5, 0.4, 0.7,0,0,1024,1024,1024,1024,147.7,-90,97,3.887,3.871,3.847,3.882,3.905,3.891,22.067,73.4,14,Waypoint,
38.2848513,-120.3444678,4472.5719692378,90.551184,0,1.03437339268,14700,2018-05-08 21:56:11,14,0,23.301,4472.5719692378,90.551184,0.447388,1.56107616544,0,0,-0.671082,148.5, 0, 0.6,0,0,1024,1024,1024,1024,147.7,-90,97,3.887,3.871,3.847,3.882,3.905,3.891,22.067,73.4,14,Waypoint,
38.2848512,-120.344468,4474.2123892378,92.191604,0,0.97009189456,14900,2018-05-08 21:56:11,15,0,23.301,4474.2123892378,92.191604,0.447388,1.56107616544,0,0,-0.671082,148.6, 1, 0.4,0,0,1024,1024,1024,1024,147.7,-89.9,97,3.887,3.871,3.847,3.882,3.905,3.891,22.067,73.4,14,Waypoint,
38.2848511,-120.3444681,4476.1808932378,94.160108,0,0.93441275956,15000,2018-05-08 21:56:11,15,0,23.219,4476.1808932378,94.160108,0.447388,1.56107616544,0,0,-0.671082,149, 1.1, 0.5,0,0,1024,1024,1024,1024,147.7,-89.9,97,3.876,3.855,3.833,3.865,3.907,3.88,22.612,73.4,14,Waypoint,
38.2848511,-120.3444682,4476.8370612378,94.816276,0,0.90634189252,15100,2018-05-08 21:56:12,15,0,23.219,4476.8370612378,94.816276,0.447388,1.56107616544,0,0,-0.671082,149, 1.4, 0.6,0,0,1024,1024,1024,1024,147.7,-89.9,97,3.876,3.855,3.833,3.865,3.907,3.88,22.612,73.4,14,Waypoint,
38.2848512,-120.3444682,4477.8213132378,95.800528,0,0.91438323136,15200,2018-05-08 21:56:12,15,0,23.219,4477.8213132378,95.800528,0.447388,1.56107616544,0,0,-0.671082,149, 1.4, 0.8,0,0,1024,1024,1024,1024,147.7,-89.9,97,3.876,3.855,3.833,3.865,3.907,3.88,22.612,73.4,14,Waypoint,
38.2848513,-120.3444682,4478.8055652378,96.78478,0,0.92379924216,15300,2018-05-08 21:56:12,15,0,23.219,4478.8055652378,96.78478,0.447388,1.56107616544,0,0,-0.671082,148.8, 0.8, 0.8,0,0,1024,1024,1024,1024,147.7,-89.9,97,3.876,3.855,3.833,3.865,3.907,3.88,22.612,73.4,14,Waypoint,
38.2848514,-120.3444682,4479.7898172378,97.769032,0,0.93454399316,15400,2018-05-08 21:56:12,15,0,23.219,4479.7898172378,97.769032,0.447388,1.56107616544,0,0,-0.671082,148.6, 0.3, 1,0,0,1024,1024,1024,1024,147.7,-90,97,3.876,3.855,3.833,3.865,3.907,3.88,22.612,73.4,14,Waypoint,
38.2848515,-120.3444682,4480.7740692378,98.753284,0.223694,0.9465715526,15500,2018-05-08 21:56:12,15,0,23.219,4480.7740692378,98.753284,0.447388,1.56107616544,0,0,-0.671082,148.5, 0, 1.2,0,0,1024,1024,1024,1024,147.7,-90,97,3.876,3.855,3.833,3.865,3.907,3.88,22.612,73.4,14,Waypoint,
38.2848516,-120.3444682,4481.7583212378,99.737536,0,0.95983926956,15600,2018-05-08 21:56:12,15,0,23.219,4481.7583212378,99.737536,0.447388,1.56107616544,0,0,-0.671082,148.3, -0.2, 1.6,0,0,1024,1024,1024,1024,147.7,-90,97,3.876,3.855,3.833,3.865,3.907,3.88,22.612,73.4,14,Waypoint,
38.2848517,-120.3444682,4482.7425732378,100.721788,0,0.97429136976,15700,2018-05-08 21:56:12,15,0,23.219,4482.7425732378,100.721788,0.447388,1.56107616544,0,0,-0.671082,148.1, -0.1, 1.8,0,0,1024,1024,1024,1024,147.7,-90,97,3.876,3.855,3.833,3.865,3.907,3.88,22.612,73.4,14,Waypoint,
38.2848517,-120.3444682,4483.7268252378,101.70604,0,0.97429136976,15800,2018-05-08 21:56:12,15,0,23.219,4483.7268252378,101.70604,0.447388,1.56107616544,0,0,-0.671082,148, 0, 1.6,0,0,1024,1024,1024,1024,147.7,-89.9,97,3.876,3.855,3.833,3.865,3.907,3.88,22.612,73.4,14,Waypoint,
38.2848517,-120.3444682,4484.7110772378,102.690292,0,0.97429136976,15900,2018-05-08 21:56:12,15,0,23.219,4484.7110772378,102.690292,0.447388,1.56107616544,0,0,-0.671082,148.1, 0.1, 1.5,0,0,1024,1024,1024,1024,147.7,-90,97,3.876,3.855,3.833,3.865,3.907,3.88,22.612,73.4,14,Waypoint,
38.2848517,-120.3444682,4485.6953292378,103.674544,0,0.97429136976,16010,2018-05-08 21:56:13,15,0,23.175,4485.6953292378,103.674544,0.447388,1.56107616544,0,0,-0.671082,148.3, 0, 1.3,0,0,1024,1024,1024,1024,147.7,-90,97,3.847,3.842,3.812,3.855,3.883,3.858,23.068,73.4,14,Waypoint,
38.2848517,-120.3444682,4486.6795812378,104.658796,0,0.97429136976,16110,2018-05-08 21:56:13,15,0,23.175,4486.6795812378,104.658796,0.447388,1.56107616544,0,0,-0.671082,148.6, 0, 1.1,0,0,1024,1024,1024,1024,147.7,-89.9,97,3.847,3.842,3.812,3.855,3.883,3.858,23.068,73.4,14,Waypoint,
38.2848517,-120.3444682,4487.6638332378,105.643048,0,0.97429136976,16200,2018-05-08 21:56:13,15,0,23.175,4487.6638332378,105.643048,0.447388,1.56107616544,0,0,-0.671082,148.8, 0.4, 0.8,0,0,1024,1024,1024,1024,147.7,-89.9,97,3.847,3.842,3.812,3.855,3.883,3.858,23.068,73.4,14,Waypoint,
38.2848517,-120.3444683,4489.6323372378,107.611552,0,0.94827102772,16500,2018-05-08 21:56:13,15,0,23.175,4489.6323372378,107.611552,0.447388,1.56107616544,0,0,-0.671082,148.8, 0.3, 0.8,0,0,1024,1024,1024,1024,147.7,-90,97,3.847,3.842,3.812,3.855,3.883,3.858,23.068,73.4,14,Waypoint,
38.2848517,-120.3444683,4490.6165892378,108.595804,0,0.94827102772,16600,2018-05-08 21:56:13,15,0,23.175,4490.6165892378,108.595804,0.447388,1.56107616544,0,0,-0.671082,148.8, 0.1, 0.8,0,0,1024,1024,1024,1024,147.7,-90,97,3.847,3.842,3.812,3.855,3.883,3.858,23.068,73.4,14,Waypoint,
38.2848517,-120.3444683,4491.6008412378,109.580056,0,0.94827102772,16700,2018-05-08 21:56:13,15,0,23.175,4491.6008412378,109.580056,0.447388,1.56107616544,0,0,-0.671082,148.8, 0.2, 0.9,0,0,1024,1024,1024,1024,147.7,-90,97,3.847,3.842,3.812,3.855,3.883,3.858,23.068,73.4,14,Waypoint,
38.2848517,-120.3444684,4492.5850932378,110.564308,0,0.92240160432,16800,2018-05-08 21:56:13,15,0,23.175,4492.5850932378,110.564308,0.447388,1.56107616544,0,0,-0.671082,148.8, 0.3, 0.7,0,0,1024,1024,1024,1024,147.7,-90,97,3.847,3.842,3.812,3.855,3.883,3.858,23.068,73.4,14,Waypoint,
38.2848516,-120.3444684,4493.5693452378,111.54856,0,0.90712273244,16900,2018-05-08 21:56:13,15,0,23.175,4493.5693452378,111.54856,0.447388,1.56107616544,0,0,-0.671082,148.8, 0.4, 0.4,0,0,1024,1024,1024,1024,147.7,-89.9,97,3.847,3.842,3.812,3.855,3.883,3.858,23.068,73.4,14,Waypoint,
38.2848516,-120.3444685,4494.5535972378,112.532812,0,0.88097771848,17000,2018-05-08 21:56:13,15,0,22.976,4494.5535972378,112.532812,0.447388,1.56107616544,0,0,-0.671082,148.9, 0.5, 0.2,0,0,1024,1024,1024,1024,147.7,-90,97,3.822,3.82,3.787,3.816,3.862,3.835,25.04,75.2,14,Waypoint,
38.2848516,-120.3444685,4495.5378492378,113.517064,0,0.88097771848,17100,2018-05-08 21:56:14,15,0,22.976,4495.5378492378,113.517064,0.447388,1.56107616544,0,0,-0.671082,149.1, 0.5, 0,0,0,1024,1024,1024,1024,147.7,-89.9,97,3.822,3.82,3.787,3.816,3.862,3.835,25.04,75.2,14,Waypoint,
38.2848515,-120.3444686,4496.5221012378,114.501316,0,0.84007220536,17210,2018-05-08 21:56:14,15,0,22.976,4496.5221012378,114.501316,0.447388,1.56107616544,0,0,-0.671082,149.1, 0.4, 0,0,0,1024,1024,1024,1024,147.7,-89.9,97,3.822,3.82,3.787,3.816,3.862,3.835,25.04,75.2,14,Waypoint,
38.2848515,-120.3444685,4497.5063532378,115.485568,0,0.86650593324,17300,2018-05-08 21:56:14,15,0,22.976,4497.5063532378,115.485568,0.447388,1.56107616544,0,0,-0.671082,149.1, 0.7, 0.1,0,0,1024,1024,1024,1024,147.7,-89.9,97,3.822,3.82,3.787,3.816,3.862,3.835,25.04,75.2,14,Waypoint,
38.2848515,-120.3444686,4498.4906052378,116.46982,0,0.84007220536,17400,2018-05-08 21:56:14,15,0,22.976,4498.4906052378,116.46982,0.447388,1.56107616544,0,0,-0.671082,149.1, 0.9, 0.1,0,0,1024,1024,1024,1024,147.7,-89.9,97,3.822,3.82,3.787,3.816,3.862,3.835,25.04,75.2,14,Waypoint,
38.2848514,-120.3444686,4499.4748572378,117.454072,0,0.8264928086,17500,2018-05-08 21:56:14,15,0,22.976,4499.4748572378,117.454072,0.447388,1.56107616544,0,0,-0.671082,149, 0.9, 0.1,0,0,1024,1024,1024,1024,147.7,-89.9,97,3.822,3.82,3.787,3.816,3.862,3.835,25.04,75.2,14,Waypoint,
38.2848512,-120.3444687,4504.7242012378,122.703416,0,0.77611222956,17900,2018-05-08 21:56:14,15,0,22.976,4504.7242012378,122.703416,0.447388,1.56107616544,0,0,-0.671082,148.4, 0.8, 0.2,0,0,1024,1024,1024,1024,147.7,-89.9,97,3.822,3.82,3.787,3.816,3.862,3.835,25.04,75.2,14,Waypoint,
38.2848511,-120.3444687,4505.7084532378,123.687668,0,0.76662075944,18000,2018-05-08 21:56:14,15,0,23.012,4505.7084532378,123.687668,0.447388,1.56107616544,0,0,-0.671082,148.4, 1.1, -0.1,0,0,1024,1024,1024,1024,147.7,-89.9,97,3.846,3.824,3.804,3.826,3.881,3.839,22.977,75.2,14,Waypoint,
38.2848511,-120.3444686,4506.6927052378,124.67192,0,0.79446852936,18100,2018-05-08 21:56:15,15,0,23.012,4506.6927052378,124.67192,0.447388,1.56107616544,0,0,-0.671082,148.5, 1.4, -0.3,0,0,1024,1024,1024,1024,147.7,-89.9,97,3.846,3.824,3.804,3.826,3.881,3.839,22.977,75.2,14,Waypoint,
38.2848511,-120.3444686,4507.6769572378,125.656172,0,0.79446852936,18200,2018-05-08 21:56:15,15,0,23.012,4507.6769572378,125.656172,0.447388,1.56107616544,0,0,-0.671082,148.5, 1.6, -0.3,0,0,1024,1024,1024,1024,147.7,-89.9,97,3.846,3.824,3.804,3.826,3.881,3.839,22.977,75.2,14,Waypoint,
38.284851,-120.3444686,4508.6612092378,126.640424,0,0.78688978896,18310,2018-05-08 21:56:15,15,0,23.012,4508.6612092378,126.640424,0.447388,1.56107616544,0,0,-0.671082,148.5, 1.7, -0.1,0,0,1024,1024,1024,1024,147.7,-89.9,97,3.846,3.824,3.804,3.826,3.881,3.839,22.977,75.2,14,Waypoint,
38.284851,-120.3444687,4509.6454612378,127.624676,0,0.75876970932,18400,2018-05-08 21:56:15,15,0,23.012,4509.6454612378,127.624676,0.447388,1.56107616544,0,0,-0.671082,148.5, 1.1, 0,0,0,1024,1024,1024,1024,147.7,-89.9,97,3.846,3.824,3.804,3.826,3.881,3.839,22.977,75.2,14,Waypoint,
38.284851,-120.3444687,4510.6297132378,128.608928,0,0.75876970932,18500,2018-05-08 21:56:15,15,0,23.012,4510.6297132378,128.608928,0.447388,1.56107616544,0,0,-0.671082,148.5, 0.6, 0,0,0,1024,1024,1024,1024,147.7,-90,97,3.846,3.824,3.804,3.826,3.881,3.839,22.977,75.2,14,Waypoint,
38.2848511,-120.3444687,4512.9263012378,130.905516,0,0.76662075944,18700,2018-05-08 21:56:15,15,0,23.012,4512.9263012378,130.905516,0.447388,1.56107616544,0,0,-0.671082,148.4, -0.3, 0.6,0,0,1024,1024,1024,1024,147.7,-90,97,3.846,3.824,3.804,3.826,3.881,3.839,22.977,75.2,14,Waypoint,
38.2848511,-120.3444688,4513.9105532378,131.889768,0,0.73883860632,18810,2018-05-08 21:56:15,15,0,23.012,4513.9105532378,131.889768,0.447388,1.56107616544,0,0,-0.671082,148.4, -0.4, 0.7,0,0,1024,1024,1024,1024,147.7,-90,97,3.846,3.824,3.804,3.826,3.881,3.839,22.977,75.2,14,Waypoint,
38.2848511,-120.3444688,4514.8948052378,132.87402,0,0.73883860632,18900,2018-05-08 21:56:15,15,0,23.012,4514.8948052378,132.87402,0.447388,1.56107616544,0,0,-0.671082,148.5, -0.2, 0.6,0,0,1024,1024,1024,1024,147.7,-90,97,3.846,3.824,3.804,3.826,3.881,3.839,22.977,75.2,14,Waypoint,
38.2848511,-120.3444688,4515.8790572378,133.858272,0,0.73883860632,19010,2018-05-08 21:56:15,15,0,23.047,4515.8790572378,133.858272,0.447388,1.56107616544,0,0,-0.671082,148.6, 0, 0.6,0,0,1024,1024,1024,1024,147.7,-89.9,97,3.845,3.823,3.816,3.836,3.889,3.852,22.514,75.2,14,Waypoint,
38.2848511,-120.3444687,4516.8633092378,134.842524,0,0.76662075944,19200,2018-05-08 21:56:16,15,0,23.047,4516.8633092378,134.842524,0.447388,1.56107616544,0,0,-0.671082,148.8, 0.3, 0.5,0,0,1024,1024,1024,1024,147.7,-89.9,97,3.845,3.823,3.816,3.836,3.889,3.852,22.514,75.2,14,Waypoint,
38.2848511,-120.3444687,4517.8475612378,135.826776,0,0.76662075944,19300,2018-05-08 21:56:16,15,0,23.047,4517.8475612378,135.826776,0.447388,1.56107616544,0,0,-0.671082,148.9, 0.4, 0.4,0,0,1024,1024,1024,1024,147.7,-89.9,97,3.845,3.823,3.816,3.836,3.889,3.852,22.514,75.2,14,Waypoint,
38.284851,-120.3444687,4519.8160652378,137.79528,0,0.75876970932,19500,2018-05-08 21:56:16,15,0,23.047,4519.8160652378,137.79528,0.447388,1.56107616544,0,0,-0.671082,148.9, 0.6, 0.6,0,0,1024,1024,1024,1024,147.7,-89.9,97,3.845,3.823,3.816,3.836,3.889,3.852,22.514,75.2,14,Waypoint,
38.2848511,-120.3444686,4520.8003172378,138.779532,0,0.79446852936,19600,2018-05-08 21:56:16,15,0,23.047,4520.8003172378,138.779532,0.447388,1.56107616544,0,0,-0.671082,148.7, 0.5, 0.6,0,0,1024,1024,1024,1024,147.7,-89.9,97,3.845,3.823,3.816,3.836,3.889,3.852,22.514,75.2,14,Waypoint,
38.2848511,-120.3444686,4521.7845692378,139.763784,0,0.79446852936,19700,2018-05-08 21:56:16,15,0,23.047,4521.7845692378,139.763784,0.447388,1.56107616544,0,0,-0.671082,148.6, 0.3, 0.7,0,0,1024,1024,1024,1024,147.7,-89.9,97,3.845,3.823,3.816,3.836,3.889,3.852,22.514,75.2,14,Waypoint,
38.2848511,-120.3444686,4522.7688212378,140.748036,0,0.79446852936,19800,2018-05-08 21:56:16,15,0,23.047,4522.7688212378,140.748036,0.447388,1.56107616544,0,0,-0.671082,148.5, 0.2, 0.8,0,0,1024,1024,1024,1024,147.7,-89.9,97,3.845,3.823,3.816,3.836,3.889,3.852,22.514,75.2,14,Waypoint,
38.2848511,-120.3444686,4523.4249892378,141.404204,0,0.79446852936,19900,2018-05-08 21:56:16,15,0,23.047,4523.4249892378,141.404204,0.447388,1.56107616544,0,0,-0.671082,148.4, 0.3, 0.9,0,0,1024,1024,1024,1024,147.7,-89.9,97,3.845,3.823,3.816,3.836,3.889,3.852,22.514,75.2,14,Waypoint,
38.284851,-120.3444685,4525.3934932378,143.372708,0,0.81504923868,20000,2018-05-08 21:56:16,15,0,23.099,4525.3934932378,143.372708,0.447388,1.56107616544,0,0,-0.671082,148.2, 0.6, 0,0,0,1024,1024,1024,1024,147.7,-89.9,96,3.859,3.835,3.822,3.844,3.894,3.855,21.706,75.2,14,Waypoint,
38.284851,-120.3444684,4527.3619972378,145.341212,0,0.8432414968,20200,2018-05-08 21:56:17,15,0,23.099,4527.3619972378,145.341212,0.447388,1.56107616544,0,0,-0.671082,148.3, 0.8, 0.3,0,0,1024,1024,1024,1024,147.7,-89.9,96,3.859,3.835,3.822,3.844,3.894,3.855,21.706,75.2,14,Waypoint,
38.284851,-120.3444684,4528.3462492378,146.325464,0,0.8432414968,20300,2018-05-08 21:56:17,15,0,23.099,4528.3462492378,146.325464,0.447388,1.56107616544,0,0,-0.671082,148.5, 0.6, 0.5,0,0,1024,1024,1024,1024,147.7,-89.9,96,3.859,3.835,3.822,3.844,3.894,3.855,21.706,75.2,14,Waypoint,
38.284851,-120.3444684,4529.3305012378,147.309716,0,0.8432414968,20400,2018-05-08 21:56:17,15,0,23.099,4529.3305012378,147.309716,0.447388,1.56107616544,0,0,-0.671082,148.7, 0.9, 0.5,0,0,1024,1024,1024,1024,147.7,-89.9,96,3.859,3.835,3.822,3.844,3.894,3.855,21.706,75.2,14,Waypoint,
38.284851,-120.3444684,4530.3147532378,148.293968,0,0.8432414968,20500,2018-05-08 21:56:17,15,0,23.099,4530.3147532378,148.293968,0.447388,1.56107616544,0,0,-0.671082,148.7, 1.2, 0.4,0,0,1024,1024,1024,1024,147.7,-89.9,96,3.859,3.835,3.822,3.844,3.894,3.855,21.706,75.2,14,Waypoint,
38.284851,-120.3444683,4531.2990052378,149.27822,0,0.87146328248,20600,2018-05-08 21:56:17,15,0,23.099,4531.2990052378,149.27822,0.447388,1.56107616544,0,0,-0.671082,148.7, 1.3, 0.4,0,0,1024,1024,1024,1024,147.7,-89.9,96,3.859,3.835,3.822,3.844,3.894,3.855,21.706,75.2,14,Waypoint,
38.284851,-120.3444683,4532.2832572378,150.262472,0,0.87146328248,20700,2018-05-08 21:56:17,15,0,23.099,4532.2832572378,150.262472,0.447388,1.56107616544,0,0,-0.671082,148.7, 1.3, 0.5,0,0,1024,1024,1024,1024,147.7,-89.9,96,3.859,3.835,3.822,3.844,3.894,3.855,21.706,75.2,14,Waypoint,
38.284851,-120.3444683,4533.2675092378,151.246724,0,0.87146328248,20800,2018-05-08 21:56:17,15,0,23.099,4533.2675092378,151.246724,0.447388,1.56107616544,0,0,-0.671082,148.7, 1.1, 0.6,0,0,1024,1024,1024,1024,147.7,-89.9,96,3.859,3.835,3.822,3.844,3.894,3.855,21.706,75.2,14,Waypoint,
38.284851,-120.3444683,4534.2517612378,152.230976,0,0.87146328248,20900,2018-05-08 21:56:17,15,0,23.099,4534.2517612378,152.230976,0.447388,1.56107616544,0,0,-0.671082,148.7, 1.1, 0.5,0,0,1024,1024,1024,1024,147.7,-89.9,96,3.859,3.835,3.822,3.844,3.894,3.855,21.706,75.2,14,Waypoint,
38.284851,-120.3444683,4535.2360132378,153.215228,0,0.87146328248,21000,2018-05-08 21:56:17,15,0,23.099,4535.2360132378,153.215228,0.447388,1.56107616544,0,0,-0.671082,148.7, 1, 0.2,0,0,1024,1024,1024,1024,147.7,-89.9,96,3.859,3.835,3.822,3.844,3.894,3.855,21.706,75.2,14,Waypoint,
38.284851,-120.3444683,4536.2202652378,154.19948,0,0.87146328248,21100,2018-05-08 21:56:18,15,0,23.099,4536.2202652378,154.19948,0.447388,1.56107616544,0,0,-0.671082,148.7, 1, 0,0,0,1024,1024,1024,1024,147.7,-89.9,96,3.859,3.835,3.822,3.844,3.894,3.855,21.706,75.2,14,Waypoint,
38.284851,-120.3444683,4537.2045172378,155.183732,0,0.87146328248,21200,2018-05-08 21:56:18,15,0,23.099,4537.2045172378,155.183732,0.447388,1.56107616544,0,0,-0.671082,148.6, 0.9, 0,0,0,1024,1024,1024,1024,147.7,-89.9,96,3.859,3.835,3.822,3.844,3.894,3.855,21.706,75.2,14,Waypoint,
38.284851,-120.3444683,4538.1887692378,156.167984,0,0.87146328248,21300,2018-05-08 21:56:18,15,0,23.099,4538.1887692378,156.167984,0.447388,1.56107616544,0,0,-0.671082,148.5, 0.8, 0.1,0,0,1024,1024,1024,1024,147.7,-90,96,3.859,3.835,3.822,3.844,3.894,3.855,21.706,75.2,14,Waypoint,
38.284851,-120.3444682,4539.1730212378,157.152236,0,0.89970803404,21400,2018-05-08 21:56:18,15,0,23.099,4539.1730212378,157.152236,0.447388,1.56107616544,0,0,-0.671082,148.6, 0.6, 0.3,0,0,1024,1024,1024,1024,147.7,-89.9,96,3.859,3.835,3.822,3.844,3.894,3.855,21.706,75.2,14,Waypoint,
38.2848511,-120.3444682,4540.1572732378,158.136488,0,0.90634189252,21500,2018-05-08 21:56:18,15,0,23.099,4540.1572732378,158.136488,0.447388,1.56107616544,0,0,-0.671082,148.6, 0.6, 0.4,0,0,1024,1024,1024,1024,147.7,-89.9,96,3.859,3.835,3.822,3.844,3.894,3.855,21.706,75.2,14,Waypoint,
38.2848511,-120.3444681,4541.1415252378,159.12074,0,0.93441275956,21700,2018-05-08 21:56:18,15,0,23.099,4541.1415252378,159.12074,0.447388,1.56107616544,0,0,-0.671082,148.7, 0.8, 0.6,0,0,1024,1024,1024,1024,147.7,-89.9,96,3.859,3.835,3.822,3.844,3.894,3.855,21.706,75.2,14,Waypoint,
38.2848511,-120.344468,4543.1100292378,161.089244,0,0.962516435,21800,2018-05-08 21:56:18,15,0,23.099,4543.1100292378,161.089244,0.447388,1.56107616544,0,0,-0.671082,149, 1.3, 1.2,0,0,1024,1024,1024,1024,147.7,-89.9,96,3.859,3.835,3.822,3.844,3.894,3.855,21.706,75.2,14,Waypoint,
38.2848511,-120.344468,4544.0942812378,162.073496,0,0.962516435,21900,2018-05-08 21:56:18,15,0,23.099,4544.0942812378,162.073496,0.447388,1.56107616544,0,0,-0.671082,149, 1.4, 1.3,0,0,1024,1024,1024,1024,147.7,-89.9,96,3.859,3.835,3.822,3.844,3.894,3.855,21.706,75.2,14,Waypoint,
38.2848511,-120.3444679,4545.0785332378,163.057748,0,0.990649638,22010,2018-05-08 21:56:18,15,0,23.114,4545.0785332378,163.057748,0.447388,1.56107616544,0,0,-0.671082,149.1, 1.4, 1.2,0,0,1024,1024,1024,1024,147.7,-89.9,96,3.85,3.832,3.823,3.841,3.897,3.854,21.296,75.2,14,Waypoint,
38.2848512,-120.3444679,4546.0627852378,164.042,0,0.99801184296,22200,2018-05-08 21:56:19,15,0,23.114,4546.0627852378,164.042,0.447388,1.56107616544,0,0,-0.671082,149.1, 1.2, 1.4,0,0,1024,1024,1024,1024,147.7,-89.9,96,3.85,3.832,3.823,3.841,3.897,3.854,21.296,75.2,14,Waypoint,
38.2848512,-120.3444679,4547.0470372378,165.026252,0,0.99801184296,22300,2018-05-08 21:56:19,15,0,23.114,4547.0470372378,165.026252,0.447388,1.56107616544,0,0,-0.671082,149, 1, 1.4,0,0,1024,1024,1024,1024,147.7,-89.9,96,3.85,3.832,3.823,3.841,3.897,3.854,21.296,75.2,14,Waypoint,
38.2848512,-120.3444679,4548.3593732378,166.338588,0,0.99801184296,22400,2018-05-08 21:56:19,15,0,23.114,4548.3593732378,166.338588,0.447388,1.56107616544,0,0,-0.671082,148.9, 0.7, 1.6,0,0,1024,1024,1024,1024,147.7,-90,96,3.85,3.832,3.823,3.841,3.897,3.854,21.296,75.2,14,Waypoint,
38.2848513,-120.3444678,4549.3436252378,167.32284,0,1.03437339268,22500,2018-05-08 21:56:19,15,0,23.114,4549.3436252378,167.32284,0.447388,1.56107616544,0,0,-0.671082,148.8, 0.4, 1.6,0,0,1024,1024,1024,1024,147.7,-90,96,3.85,3.832,3.823,3.841,3.897,3.854,21.296,75.2,14,Waypoint,
38.2848512,-120.3444678,4550.3278772378,168.307092,0,1.02597444228,22600,2018-05-08 21:56:19,15,0,23.114,4550.3278772378,168.307092,0.447388,1.56107616544,0,0,-0.671082,148.7, 0.4, 1.5,0,0,1024,1024,1024,1024,147.7,-89.9,96,3.85,3.832,3.823,3.841,3.897,3.854,21.296,75.2,14,Waypoint,
38.2848512,-120.3444678,4551.3121292378,169.291344,0,1.02597444228,22700,2018-05-08 21:56:19,15,0,23.114,4551.3121292378,169.291344,0.447388,1.56107616544,0,0,-0.671082,148.8, 0.9, 1.3,0,0,1024,1024,1024,1024,147.7,-89.9,96,3.85,3.832,3.823,3.841,3.897,3.854,21.296,75.2,14,Waypoint,
38.2848512,-120.3444678,4552.2963812378,170.275596,0,1.02597444228,22800,2018-05-08 21:56:19,15,0,23.114,4552.2963812378,170.275596,0.447388,1.56107616544,0,0,-0.671082,148.9, 1.1, 1,0,0,1024,1024,1024,1024,147.7,-89.9,96,3.85,3.832,3.823,3.841,3.897,3.854,21.296,75.2,14,Waypoint,
38.2848512,-120.3444678,4553.2806332378,171.259848,0,1.02597444228,22900,2018-05-08 21:56:19,15,0,23.114,4553.2806332378,171.259848,0.447388,1.56107616544,0,0,-0.671082,148.8, 1.1, 0.9,0,0,1024,1024,1024,1024,147.7,-89.9,96,3.85,3.832,3.823,3.841,3.897,3.854,21.296,75.2,14,Waypoint,
38.2848513,-120.3444677,4555.2491372378,173.228352,0,1.06214898412,23000,2018-05-08 21:56:19,15,0,23.114,4555.2491372378,173.228352,0.447388,1.56107616544,0,0,-0.671082,148.6, 0.9, 1.3,0,0,1024,1024,1024,1024,147.7,-89.9,96,3.849,3.843,3.827,3.849,3.889,3.867,21.296,75.2,14,Waypoint,
38.2848513,-120.3444677,4556.2333892378,174.212604,0,1.06214898412,23200,2018-05-08 21:56:20,15,0,23.114,4556.2333892378,174.212604,0.447388,1.56107616544,0,0,-0.671082,148.4, 0.8, 1.6,0,0,1024,1024,1024,1024,147.7,-89.9,96,3.849,3.843,3.827,3.849,3.889,3.867,21.296,75.2,14,Waypoint,
38.2848514,-120.3444676,4558.5299772378,176.509192,0,1.09908796168,23300,2018-05-08 21:56:20,15,0,23.114,4558.5299772378,176.509192,0.447388,1.56107616544,0,0,-0.671082,148.3, 0.7, 2.1,0,0,1024,1024,1024,1024,147.7,-89.9,96,3.849,3.843,3.827,3.849,3.889,3.867,21.296,75.2,14,Waypoint,
38.2848514,-120.3444676,4559.5142292378,177.493444,0,1.09908796168,23500,2018-05-08 21:56:20,15,0,23.114,4559.5142292378,177.493444,0.447388,1.56107616544,0,0,-0.671082,148.2, 0.6, 2.1,0,0,1024,1024,1024,1024,147.7,-89.9,96,3.849,3.843,3.827,3.849,3.889,3.867,21.296,75.2,14,Waypoint,
38.2848515,-120.3444676,4560.4984812378,178.477696,0,1.10933730584,23620,2018-05-08 21:56:20,15,0,23.114,4560.4984812378,178.477696,0.447388,1.56107616544,0,0,-0.671082,148.2, 0.4, 2,0,0,1024,1024,1024,1024,147.7,-90,96,3.849,3.843,3.827,3.849,3.889,3.867,21.296,75.2,14,Waypoint,
38.2848515,-120.3444676,4561.4827332378,179.461948,0,1.10933730584,23700,2018-05-08 21:56:20,15,0,23.114,4561.4827332378,179.461948,0.447388,1.56107616544,0,0,-0.671082,148.3, 0.5, 2.1,0,0,1024,1024,1024,1024,147.7,-90,96,3.849,3.843,3.827,3.849,3.889,3.867,21.296,75.2,14,Waypoint,
38.2848515,-120.3444676,4562.4669852378,180.4462,0,1.10933730584,23800,2018-05-08 21:56:20,15,0,23.114,4562.4669852378,180.4462,0.447388,1.56107616544,0,0,-0.671082,148.4, 0.8, 2,0,0,1024,1024,1024,1024,147.7,-89.9,96,3.849,3.843,3.827,3.849,3.889,3.867,21.296,75.2,14,Waypoint,
38.2848516,-120.3444676,4563.4512372378,181.430452,0,1.12067916972,23900,2018-05-08 21:56:20,15,0,23.114,4563.4512372378,181.430452,0.447388,1.56107616544,0,0,-0.671082,148.3, 0.5, 1.7,0,0,1024,1024,1024,1024,147.7,-90,96,3.849,3.843,3.827,3.849,3.889,3.867,21.296,75.2,14,Waypoint,
38.2848516,-120.3444676,4564.4354892378,182.414704,0,1.12067916972,24000,2018-05-08 21:56:20,15,0,23.177,4564.4354892378,182.414704,0.447388,1.56107616544,0,0,-0.671082,148.4, 0.5, 1.2,0,0,1024,1024,1024,1024,147.7,-89.9,96,3.865,3.847,3.828,3.856,3.901,3.874,20.492,75.2,14,Waypoint,
38.2848517,-120.3444676,4565.4197412378,183.398956,0,1.13308074492,24100,2018-05-08 21:56:21,15,0,23.177,4565.4197412378,183.398956,0.447388,1.56107616544,0,0,-0.671082,148.5, 0.4, 1.4,0,0,1024,1024,1024,1024,147.7,-89.9,96,3.865,3.847,3.828,3.856,3.901,3.874,20.492,75.2,14,Waypoint,
38.2848517,-120.3444675,4566.0759092378,184.055124,0.223694,1.1599081736,24200,2018-05-08 21:56:21,15,0,23.177,4566.0759092378,184.055124,0.447388,1.56107616544,0,0,-0.671082,148.8, 0.3, 2.4,0,0,1024,1024,1024,1024,147.7,-90,96,3.865,3.847,3.828,3.856,3.901,3.874,20.492,75.2,14,Waypoint,
38.2848517,-120.3444674,4567.0601612378,185.039376,0.223694,1.18681762328,24300,2018-05-08 21:56:21,15,0,23.177,4567.0601612378,185.039376,0.447388,1.56107616544,0,0,-0.671082,149.2, 0.5, 2.8,0,0,1024,1024,1024,1024,147.7,-89.9,96,3.865,3.847,3.828,3.856,3.901,3.874,20.492,75.2,14,Waypoint,
38.2848518,-120.3444673,4568.0444132378,186.023628,0.223694,1.22635502612,24400,2018-05-08 21:56:21,15,0,23.177,4568.0444132378,186.023628,0.447388,1.56107616544,0,0,-0.671082,149.3, 1.1, 2.4,0,0,1024,1024,1024,1024,147.7,-89.9,96,3.865,3.847,3.828,3.856,3.901,3.874,20.492,75.2,14,Waypoint,
38.2848518,-120.3444672,4569.0286652378,187.00788,0.223694,1.2531496464,24500,2018-05-08 21:56:21,15,0,23.177,4569.0286652378,187.00788,0.447388,1.56107616544,0,0,-0.671082,149.4, 1.7, 2.5,0,0,1024,1024,1024,1024,147.7,-89.9,96,3.865,3.847,3.828,3.856,3.901,3.874,20.492,75.2,14,Waypoint,
38.2848519,-120.3444671,4570.0129172378,187.992132,0.223694,1.29295607812,24600,2018-05-08 21:56:21,15,0,23.177,4570.0129172378,187.992132,0.447388,1.56107616544,0,0,-0.671082,149.2, 1.4, 3.1,0,0,1024,1024,1024,1024,147.7,-90,96,3.865,3.847,3.828,3.856,3.901,3.874,20.492,75.2,14,Waypoint,
38.284852,-120.344467,4571.3252532378,189.304468,0,1.3331857382,24700,2018-05-08 21:56:21,15,0,23.177,4571.3252532378,189.304468,0.447388,1.56107616544,0,0,-0.671082,149, 0.7, 3.6,0,0,1024,1024,1024,1024,147.7,-90,96,3.865,3.847,3.828,3.856,3.901,3.874,20.492,75.2,14,Waypoint,
38.2848521,-120.3444669,4572.3095052378,190.28872,0.223694,1.37380581824,24800,2018-05-08 21:56:21,15,0,23.177,4572.3095052378,190.28872,0.447388,1.56107616544,0,0,-0.671082,148.8, 0.1, 3.7,0,0,1024,1024,1024,1024,147.7,-90,96,3.865,3.847,3.828,3.856,3.901,3.874,20.492,75.2,14,Waypoint,
38.2848522,-120.3444669,4573.2937572378,191.272972,0,1.38874348276,24900,2018-05-08 21:56:21,15,0,23.177,4573.2937572378,191.272972,0.447388,1.56107616544,0,0,-0.671082,148.6, -0.2, 3.6,0,0,1024,1024,1024,1024,147.7,-90,96,3.865,3.847,3.828,3.856,3.901,3.874,20.492,75.2,14,Waypoint,
38.2848523,-120.3444668,4574.2780092378,192.257224,0,1.43022314288,25000,2018-05-08 21:56:21,15,0,23.209,4574.2780092378,192.257224,0.447388,1.56107616544,0,0,-0.671082,148.4, -0.3, 3.5,0,0,1024,1024,1024,1024,147.7,-90,96,3.87,3.865,3.843,3.867,3.9,3.887,19.525,75.2,14,Waypoint,
38.2848524,-120.3444668,4575.9184292378,193.897644,0,1.44641736912,25100,2018-05-08 21:56:22,15,0,23.209,4575.9184292378,193.897644,0.447388,1.56107616544,0,0,-0.671082,148.1, 0, 3.1,0,0,1024,1024,1024,1024,147.7,-90,96,3.87,3.865,3.843,3.867,3.9,3.887,19.525,75.2,14,Waypoint,
38.2848524,-120.3444667,4576.9026812378,194.881896,0,1.47199151692,25300,2018-05-08 21:56:22,15,0,23.209,4576.9026812378,194.881896,0.447388,1.56107616544,0,0,-0.671082,148.1, 0.1, 2.9,0,0,1024,1024,1024,1024,147.7,-89.9,96,3.87,3.865,3.843,3.867,3.9,3.887,19.525,75.2,14,Waypoint,
38.2848523,-120.3444666,4578.8711852378,196.8504,0,1.48204072984,25400,2018-05-08 21:56:22,15,0,23.209,4578.8711852378,196.8504,0.447388,1.56107616544,0,0,-0.671082,148.3, 0.5, 3,0,0,1024,1024,1024,1024,147.7,-89.9,96,3.87,3.865,3.843,3.867,3.9,3.887,19.525,75.2,14,Waypoint,
38.2848523,-120.3444666,4579.8554372378,197.834652,0,1.48204072984,25500,2018-05-08 21:56:22,15,0,23.209,4579.8554372378,197.834652,0.447388,1.56107616544,0,0,-0.671082,148.4, 0.5, 2.8,0,0,1024,1024,1024,1024,147.7,-89.9,96,3.87,3.865,3.843,3.867,3.9,3.887,19.525,75.2,14,Waypoint,
38.2848523,-120.3444665,4580.5116052378,198.49082,0,1.50809716112,25600,2018-05-08 21:56:22,15,0,23.209,4580.5116052378,198.49082,0.447388,1.56107616544,0,0,-0.671082,148.5, 0.8, 2.6,0,0,1024,1024,1024,1024,147.7,-89.9,96,3.87,3.865,3.843,3.867,3.9,3.887,19.525,75.2,14,Waypoint,
38.2848523,-120.3444665,4581.4958572378,199.475072,0,1.50809716112,25700,2018-05-08 21:56:22,15,0,23.209,4581.4958572378,199.475072,0.447388,1.56107616544,0,0,-0.671082,148.5, 0.8, 2.4,0,0,1024,1024,1024,1024,147.7,-89.9,96,3.87,3.865,3.843,3.867,3.9,3.887,19.525,75.2,14,Waypoint,
38.2848523,-120.3444664,4582.4801092378,200.459324,0,1.53424873676,25800,2018-05-08 21:56:22,15,0,23.209,4582.4801092378,200.459324,0.447388,1.56107616544,0,0,-0.671082,148.6, 0.7, 2.7,0,0,1024,1024,1024,1024,147.7,-89.9,96,3.87,3.865,3.843,3.867,3.9,3.887,19.525,75.2,14,Waypoint,
38.2848523,-120.3444663,4583.4643612378,201.443576,0,1.56048561424,25900,2018-05-08 21:56:22,15,0,23.209,4583.4643612378,201.443576,0.447388,1.56107616544,0,0,-0.671082,148.7, 0.8, 2.8,0,0,1024,1024,1024,1024,147.7,-89.9,96,3.87,3.865,3.843,3.867,3.9,3.887,19.525,75.2,14,Waypoint,
38.2848522,-120.3444663,4584.4486132378,202.427828,0,1.54634519384,26000,2018-05-08 21:56:22,15,0,23.227,4584.4486132378,202.427828,0.447388,1.56107616544,0,0,-0.671082,148.9, 0.9, 3,0,0,1024,1024,1024,1024,147.7,-89.9,96,3.854,3.848,3.828,3.867,3.906,3.872,19.728,75.2,14,Waypoint,
38.2848522,-120.3444662,4585.4328652378,203.41208,0,1.5729003128,26110,2018-05-08 21:56:23,15,0,23.227,4585.4328652378,203.41208,0.447388,1.5729003128,0,0,-0.671082,149.1, 1, 2.9,0,0,1024,1024,1024,1024,147.7,-89.9,96,3.854,3.848,3.828,3.867,3.906,3.872,19.728,75.2,14,Waypoint,
38.2848522,-120.3444662,4585.4328652378,203.41208,0,1.5729003128,26200,2018-05-08 21:56:23,15,0,23.227,4585.4328652378,203.41208,0.447388,1.5729003128,0,0,-0.671082,149.1, 1, 2.9,0,0,1024,1024,1024,1024,147.7,-89.9,96,3.854,3.848,3.828,3.867,3.906,3.872,19.728,75.2,14,Waypoint,
38.2848522,-120.3444661,4586.4171172378,204.396332,0,1.59953089108,26300,2018-05-08 21:56:23,15,0,23.227,4586.4171172378,204.396332,0.447388,1.59953089108,0,0,-0.671082,149.3, 1.1, 2.9,0,0,1024,1024,1024,1024,147.7,-89.9,96,3.854,3.848,3.828,3.867,3.906,3.872,19.728,75.2,14,Waypoint,
38.2848521,-120.344466,4587.4013692378,205.380584,0,1.61349086528,26400,2018-05-08 21:56:23,15,0,23.227,4587.4013692378,205.380584,0.447388,1.61349086528,0,0,-0.671082,149.4, 1.3, 3.1,0,0,1024,1024,1024,1024,147.7,-89.9,96,3.854,3.848,3.828,3.867,3.906,3.872,19.728,75.2,14,Waypoint,
38.2848521,-120.344466,4588.3856212378,206.364836,0,1.61349086528,26500,2018-05-08 21:56:23,15,0,23.227,4588.3856212378,206.364836,0.447388,1.61349086528,0,0,-0.671082,149.4, 1.6, 3,0,0,1024,1024,1024,1024,147.7,-89.9,96,3.854,3.848,3.828,3.867,3.906,3.872,19.728,75.2,14,Waypoint,
38.284852,-120.3444659,4589.0417892378,207.021004,0,1.62865162692,26600,2018-05-08 21:56:23,15,0,23.227,4589.0417892378,207.021004,0.447388,1.62865162692,0,0,-0.671082,149.3, 1.8, 2.8,0,0,1024,1024,1024,1024,147.7,-89.9,96,3.854,3.848,3.828,3.867,3.906,3.872,19.728,75.2,14,Waypoint,
