Latitude, Longitude, Altitude (m), Time, Sats, Speed (m/s), Range (m), Battery (%), Roll (deg), Pitch (deg), Yaw (deg), Images, HD Signal (%), RC Signal (%), Battery Temp (C), Battery Voltage (mV), Battery Current (mA), Battery Energy (mAh), Battery Capacity (mAh), Battery Discharges, flyState, timestamp (Unix), LastUpdate (ms), radioChannel, Rc_elevator, Rc_aileron, Rc_throttle, Rc_rudder, Rc_gyro, Dronetype, Battery_Cell1 (mV), Battery_Cell2 (mV), Battery_Cell3 (mV), Battery_Cell4 (mV), Battery_Cell5 (mV), Battery_Cell6 (mV), Video, isFlying, elapsedTime (ms), gimbalPitch (deg), gimbalRoll (deg), gimbalYaw (deg), VelocityX (m/s), VelocityY (m/s), VelocityZ (m/s), GroundSmear (cm), App Version, Aircraft Name, Aircraft Firmware, Aircraft Serial Number, Battery Serial Number, Battery Lifetime (%), App_Tip, App_Warning, CurrentFlightStartingIndex, CurrentFlightLastVisitedWaypoint, PreviousFlightEndingWaypointIndex
38.2848409, -120.3444738, 0.000, 14:35:45.612, 13, 0.10, 0.07, 96, -1.400, -1.400, 150.200, 590, 100, 100, 24, 25258, -3761, 5307, 5529, 9, 11, 1525815345.612, 58, 0, 1024, 1024, 1024, 1024, 0, 6, 4238, 4251, 4194, 4221, 4217, 4192, 0, 1, 3122, -89.900, 0.000, 150.000, 0.000, 0.100, -0.100, 0.0, MapPilot_2.8.1_04242018, Dendroctonus I, 1.3.1.00, 041DDC1887, 1058163200627, 98, DJI_0384.jpg, Starting Mission from Lat/Long: 38.28484/-120.34448 Camera: Zenmuse X3 - Overlap: 90/90 - Active Connection: No, 49, 49, 49
38.2848410, -120.3444736, 0.000, 14:35:45.691, 13, 0.10, 0.08, 96, -1.100, -1.100, 150.400, 590, 100, 100, 24, 25258, -3761, 5307, 5529, 9, 11, 1525815345.692, 8, 0, 1024, 1024, 1024, 1024, 0, 6, 4238, 4251, 4194, 4221, 4217, 4192, 0, 1, 3201, -89.900, 0.000, 150.000, 0.000, 0.100, -0.300, 0.0, , , , , , 98, , , 49, 49, 49
38.2848410, -120.3444734, 0.000, 14:35:45.791, 13, 0.20, 0.10, 96, -0.600, -0.400, 150.500, 590, 100, 100, 24, 25258, -3761, 5307, 5529, 9, 11, 1525815345.791, 13, 0, 1024, 1024, 1024, 1024, 0, 6, 4238, 4251, 4194, 4221, 4217, 4192, 0, 1, 3301, -89.900, 0.000, 150.000, 0.000, 0.200, -0.400, 0.1, , , , , , 98, , , 49, 49, 49
38.2848411, -120.3444731, 0.100, 14:35:45.894, 14, 0.20, 0.13, 96, 0.000, 0.100, 150.500, 590, 100, 100, 24, 25258, -3761, 5307, 5529, 9, 11, 1525815345.895, 5, 0, 1024, 1024, 1024, 1024, 0, 6, 4238, 4251, 4194, 4221, 4217, 4192, 0, 1, 3405, -89.900, 0.000, 150.000, 0.000, 0.200, -0.400, 0.1, , , , , , 98, , , 49, 49, 49
38.2848412, -120.3444727, 0.100, 14:35:45.993, 14, 0.30, 0.16, 96, 0.900, 0.600, 150.400, 590, 100, 100, 24, 25258, -3761, 5307, 5529, 9, 11, 1525815345.993, 5, 0, 1024, 1024, 1024, 1024, 0, 6, 4238, 4251, 4194, 4221, 4217, 4192, 0, 1, 3503, -89.900, 0.000, 150.000, 0.000, 0.300, -0.400, 0.1, , , , , , 98, , , 49, 49, 49
38.2848413, -120.3444723, 0.200, 14:35:46.097, 17, 0.30, 0.20, 96, 2.000, 0.700, 150.300, 590, 100, 100, 24, 25258, -3761, 5307, 5529, 9, 11, 1525815346.098, 7, 0, 1024, 1024, 1024, 1024, 0, 6, 4238, 4251, 4194, 4221, 4217, 4192, 0, 1, 3608, -89.900, 0.000, 150.000, 0.000, 0.300, -0.400, 0.1, , , , , , 98, , , 49, 49, 49
38.2848413, -120.3444723, 0.200, 14:35:46.191, 17, 0.30, 0.20, 96, 2.000, 0.700, 150.300, 590, 100, 100, 24, 25258, -3761, 5307, 5529, 9, 11, 1525815346.191, 100, 0, 1024, 1024, 1024, 1024, 0, 6, 4238, 4251, 4194, 4221, 4217, 4192, 0, 1, 3701, -89.900, 0.000, 150.000, 0.000, 0.300, -0.400, 0.1, , , , , , 98, , , 49, 49, 49
38.2848415, -120.3444716, 0.300, 14:35:46.294, 14, 0.20, 0.26, 96, 3.400, 1.200, 150.300, 590, 100, 100, 24, 25258, -3761, 5307, 5529, 9, 11, 1525815346.294, 5, 0, 1024, 1024, 1024, 1024, 0, 6, 4238, 4251, 4194, 4221, 4217, 4192, 0, 1, 3804, -89.900, 0.000, 150.000, 0.000, 0.200, -0.400, 0.1, , , , , , 98, , , 49, 49, 49
38.2848417, -120.3444713, 0.300, 14:35:46.391, 14, 0.20, 0.29, 96, 3.600, 1.100, 150.400, 590, 100, 100, 24, 25258, -3761, 5307, 5529, 9, 11, 1525815346.391, 10, 0, 1024, 1024, 1024, 1024, 0, 6, 4238, 4251, 4194, 4221, 4217, 4192, 0, 1, 3901, -89.900, 0.000, 150.000, 0.000, 0.200, -0.400, 0.1, , , , , , 98, , , 49, 49, 49
38.2848417, -120.3444713, 0.300, 14:35:46.491, 14, 0.20, 0.29, 96, 3.600, 1.100, 150.400, 590, 100, 100, 24, 25258, -3761, 5307, 5529, 9, 11, 1525815346.491, 110, 0, 1024, 1024, 1024, 1024, 0, 6, 4238, 4251, 4194, 4221, 4217, 4192, 0, 1, 4001, -89.900, 0.000, 150.000, 0.000, 0.200, -0.400, 0.1, , , , , , 98, , , 49, 49, 49
38.2848419, -120.3444707, 0.400, 14:35:46.591, 15, 0.10, 0.35, 96, 3.500, 0.400, 150.100, 590, 100, 100, 24, 24879, -7107, 5307, 5529, 9, 11, 1525815346.591, 79, 0, 1024, 1024, 1024, 1024, 0, 6, 4084, 4081, 4102, 4122, 4124, 4080, 0, 1, 4101, -89.900, 0.000, 150.000, 0.000, 0.100, -0.400, 0.0, , , , , , 98, , , 49, 49, 49
38.2848419, -120.3444706, 0.400, 14:35:46.691, 14, 0.10, 0.36, 96, 3.300, 0.300, 149.900, 590, 100, 97, 24, 24879, -7107, 5307, 5529, 9, 11, 1525815346.691, 87, 0, 1024, 1024, 1024, 1024, 0, 6, 4084, 4081, 4102, 4122, 4124, 4080, 0, 1, 4201, -90.000, 0.000, 150.000, 0.000, 0.100, -0.400, 0.0, , , , , , 98, , , 49, 49, 49
38.2848420, -120.3444705, 0.500, 14:35:46.791, 14, 0.10, 0.37, 96, 2.900, 0.300, 149.600, 590, 100, 97, 24, 24879, -7107, 5307, 5529, 9, 11, 1525815346.791, 79, 0, 1024, 1024, 1024, 1024, 0, 6, 4084, 4081, 4102, 4122, 4124, 4080, 0, 1, 4301, -89.900, 0.000, 150.000, 0.000, 0.100, -0.400, 0.0, , , , , , 98, , , 49, 49, 49
38.2848420, -120.3444703, 0.500, 14:35:46.890, 14, 0.10, 0.38, 96, 2.100, 0.300, 149.300, 590, 100, 97, 24, 24879, -7107, 5307, 5529, 9, 11, 1525815346.891, 71, 0, 1024, 1024, 1024, 1024, 0, 6, 4084, 4081, 4102, 4122, 4124, 4080, 0, 1, 4400, -89.900, 0.000, 150.000, 0.000, 0.100, -0.500, 0.0, , , , , , 98, , , 49, 49, 49
38.2848419, -120.3444701, 0.600, 14:35:46.991, 14, 0.10, 0.40, 96, 1.700, 0.300, 149.300, 590, 100, 97, 24, 24879, -7107, 5307, 5529, 9, 11, 1525815346.991, 66, 0, 1024, 1024, 1024, 1024, 0, 6, 4084, 4081, 4102, 4122, 4124, 4080, 0, 1, 4501, -89.900, 0.000, 150.000, 0.000, 0.100, -0.500, 0.0, , , , , , 98, , , 49, 49, 49
38.2848420, -120.3444699, 0.700, 14:35:47.091, 12, 0.10, 0.42, 96, 1.700, 0.400, 149.300, 590, 100, 97, 24, 24879, -7107, 5307, 5529, 9, 11, 1525815347.091, 84, 0, 1024, 1024, 1024, 1024, 0, 6, 4084, 4081, 4102, 4122, 4124, 4080, 0, 1, 4601, -89.900, 0.000, 150.000, 0.000, 0.100, -0.500, 0.0, , , , , , 98, , , 49, 49, 49
38.2848420, -120.3444697, 0.800, 14:35:47.190, 12, 0.10, 0.44, 96, 1.800, 0.600, 149.400, 590, 100, 97, 24, 24879, -7107, 5307, 5529, 9, 11, 1525815347.191, 51, 0, 1024, 1024, 1024, 1024, 0, 6, 4084, 4081, 4102, 4122, 4124, 4080, 0, 1, 4700, -89.900, 0.000, 150.000, 0.000, 0.100, -0.600, 0.0, , , , , , 98, , , 49, 49, 49
38.2848420, -120.3444695, 0.800, 14:35:47.291, 13, 0.10, 0.45, 96, 1.900, 1.000, 149.600, 590, 100, 97, 24, 24879, -7107, 5307, 5529, 9, 11, 1525815347.292, 54, 0, 1024, 1024, 1024, 1024, 0, 6, 4084, 4081, 4102, 4122, 4124, 4080, 0, 1, 4802, -89.900, 0.000, 150.000, 0.000, 0.100, -0.500, 0.0, , , , , , 98, , , 49, 49, 49
38.2848421, -120.3444693, 0.900, 14:35:47.391, 13, 0.10, 0.47, 96, 2.200, 1.200, 149.800, 590, 100, 97, 24, 24879, -7107, 5307, 5529, 9, 6, 1525815347.391, 47, 0, 1024, 1024, 1024, 1024, 0, 6, 4084, 4081, 4102, 4122, 4124, 4080, 0, 1, 4901, -89.900, 0.000, 150.000, 0.000, 0.100, -0.500, 0.0, , , , , , 98, , , 49, 49, 49
38.2848421, -120.3444690, 0.900, 14:35:47.490, 15, 0.10, 0.50, 96, 2.600, 1.300, 150.000, 590, 100, 97, 24, 23912, -17176, 5307, 5529, 9, 14, 1525815347.490, 50, 0, 1024, 1024, 1024, 1024, 0, 6, 3956, 3971, 3974, 3986, 4006, 3971, 0, 1, 5000, -89.900, 0.000, 150.000, 0.000, 0.100, -0.500, 0.0, , , , , , 98, , , 49, 49, 49
38.2848423, -120.3444685, 1.000, 14:35:47.590, 15, 0.10, 0.54, 96, 3.000, 1.300, 150.100, 590, 100, 99, 24, 23912, -17176, 5307, 5529, 9, 14, 1525815347.591, 50, 0, 1024, 1024, 1024, 1024, 0, 6, 3956, 3971, 3974, 3986, 4006, 3971, 0, 1, 5101, -89.900, 0.000, 150.000, 0.000, 0.100, -0.300, 0.0, , , , , , 98, , , 49, 49, 49
38.2848423, -120.3444684, 1.000, 14:35:47.690, 15, 0.10, 0.55, 96, 3.000, 0.800, 150.200, 590, 100, 99, 24, 23912, -17176, 5307, 5529, 9, 14, 1525815347.690, 53, 0, 1024, 1024, 1024, 1024, 0, 6, 3956, 3971, 3974, 3986, 4006, 3971, 0, 1, 5200, -89.900, 0.000, 150.000, 0.000, 0.100, -0.200, 0.0, , , , , , 98, , , 49, 49, 49
38.2848423, -120.3444683, 1.000, 14:35:47.791, 15, 0.10, 0.56, 96, 2.800, 0.700, 150.200, 590, 100, 99, 24, 23912, -17176, 5307, 5529, 9, 14, 1525815347.791, 59, 0, 1024, 1024, 1024, 1024, 0, 6, 3956, 3971, 3974, 3986, 4006, 3971, 0, 1, 5301, -89.900, 0.000, 150.000, 0.000, 0.100, -0.200, 0.0, , , , , , 98, , , 49, 49, 49
38.2848423, -120.3444681, 1.000, 14:35:47.891, 14, 0.00, 0.57, 96, 2.700, 0.700, 150.200, 590, 100, 99, 24, 23912, -17176, 5307, 5529, 9, 14, 1525815347.891, 29, 0, 1024, 1024, 1024, 1024, 0, 6, 3956, 3971, 3974, 3986, 4006, 3971, 0, 1, 5401, -89.900, 0.000, 150.000, 0.000, 0.000, -0.400, 0.0, , , , , , 98, , , 49, 49, 49
38.2848424, -120.3444680, 1.100, 14:35:47.991, 14, 0.00, 0.59, 96, 2.400, 0.800, 150.100, 590, 100, 99, 24, 23912, -17176, 5307, 5529, 9, 14, 1525815347.991, 16, 0, 1024, 1024, 1024, 1024, 0, 6, 3956, 3971, 3974, 3986, 4006, 3971, 0, 1, 5501, -89.900, 0.000, 150.000, 0.000, 0.000, -0.500, 0.0, , , , , , 98, , , 49, 49, 49
38.2848424, -120.3444679, 1.200, 14:35:48.091, 15, 0.00, 0.60, 96, 2.300, 0.800, 150.000, 590, 100, 100, 24, 23912, -17176, 5307, 5529, 9, 14, 1525815348.092, 18, 0, 1024, 1024, 1024, 1024, 0, 6, 3956, 3971, 3974, 3986, 4006, 3971, 0, 1, 5602, -89.900, 0.000, 150.000, 0.000, 0.000, -0.700, 0.0, , , , , , 98, , , 49, 49, 49
38.2848424, -120.3444678, 1.200, 14:35:48.191, 15, 0.00, 0.60, 96, 2.000, 0.500, 150.000, 590, 100, 100, 24, 23912, -17176, 5307, 5529, 9, 14, 1525815348.191, 15, 0, 1024, 1024, 1024, 1024, 0, 6, 3956, 3971, 3974, 3986, 4006, 3971, 0, 1, 5701, -89.900, 0.000, 150.000, 0.000, 0.000, -0.900, 0.0, , , , , , 98, , , 49, 49, 49
38.2848425, -120.3444676, 1.400, 14:35:48.294, 15, 0.00, 0.62, 96, 2.000, 0.500, 150.100, 590, 100, 100, 24, 23912, -17176, 5307, 5529, 9, 14, 1525815348.295, 4, 0, 1024, 1024, 1024, 1024, 0, 6, 3956, 3971, 3974, 3986, 4006, 3971, 0, 1, 5804, -89.900, 0.000, 150.000, 0.000, 0.000, -1.000, 0.0, , , , , , 98, , , 49, 49, 49
38.2848426, -120.3444674, 1.500, 14:35:48.391, 15, 0.00, 0.65, 96, 2.400, 0.800, 150.200, 590, 100, 100, 24, 23912, -17176, 5307, 5529, 9, 14, 1525815348.392, 27, 0, 1024, 1024, 1024, 1024, 0, 6, 3956, 3971, 3974, 3986, 4006, 3971, 0, 1, 5902, -89.900, 0.000, 150.000, 0.000, 0.000, -1.200, 0.0, , , , , , 98, , , 49, 49, 49
38.2848427, -120.3444672, 1.600, 14:35:48.493, 13, 0.00, 0.66, 96, 3.100, 0.900, 150.200, 590, 100, 100, 24, 23834, -16420, 5307, 5529, 9, 14, 1525815348.494, 8, 0, 1024, 1024, 1024, 1024, 0, 6, 3956, 3971, 3974, 3986, 4006, 3971, 0, 1, 6003, -89.900, 0.000, 150.000, 0.000, 0.000, -1.400, 0.0, , , , , , 98, , , 49, 49, 49
38.2848427, -120.3444672, 1.600, 14:35:48.590, 13, 0.00, 0.66, 96, 3.100, 0.900, 150.200, 590, 100, 100, 24, 23834, -16420, 5307, 5529, 9, 14, 1525815348.590, 105, 0, 1024, 1024, 1024, 1024, 0, 6, 3953, 3960, 3971, 3975, 3997, 3960, 0, 1, 6100, -89.900, 0.000, 150.000, 0.000, 0.000, -1.400, 0.0, , , , , , 98, , , 49, 49, 49
38.2848428, -120.3444669, 1.900, 14:35:48.690, 12, 0.00, 0.70, 96, 3.800, 1.100, 150.300, 590, 100, 100, 24, 23834, -16420, 5307, 5529, 9, 14, 1525815348.691, 12, 0, 1024, 1024, 1024, 1024, 0, 6, 3953, 3960, 3971, 3975, 3997, 3960, 0, 1, 6201, -89.900, 0.000, 150.000, 0.000, 0.000, -1.800, 0.0, , , , , , 98, , , 49, 49, 49
38.2848428, -120.3444669, 1.900, 14:35:48.791, 12, 0.00, 0.70, 96, 3.800, 1.100, 150.300, 590, 100, 100, 24, 23834, -16420, 5307, 5529, 9, 14, 1525815348.791, 112, 0, 1024, 1024, 1024, 1024, 0, 6, 3953, 3960, 3971, 3975, 3997, 3960, 0, 1, 6301, -89.900, 0.000, 150.000, 0.000, 0.000, -1.800, 0.0, , , , , , 98, , , 49, 49, 49
38.2848428, -120.3444667, 2.100, 14:35:48.890, 12, 0.00, 0.71, 96, 3.600, 1.400, 150.400, 590, 100, 100, 24, 23834, -16420, 5307, 5529, 9, 14, 1525815348.891, 76, 0, 1024, 1024, 1024, 1024, 0, 6, 3953, 3960, 3971, 3975, 3997, 3960, 0, 1, 6401, -89.900, 0.000, 150.000, 0.000, 0.000, -2.000, 0.0, , , , , , 98, , , 49, 49, 49
38.2848428, -120.3444666, 2.300, 14:35:48.991, 14, 0.00, 0.72, 96, 3.100, 1.500, 150.400, 590, 100, 100, 24, 23834, -16420, 5307, 5529, 9, 14, 1525815348.992, 89, 0, 1024, 1024, 1024, 1024, 0, 6, 3953, 3960, 3971, 3975, 3997, 3960, 0, 1, 6501, -89.900, 0.000, 150.000, 0.000, 0.000, -2.200, 0.0, , , , , , 98, , , 49, 49, 49
38.2848429, -120.3444666, 2.600, 14:35:49.091, 14, 0.00, 0.73, 96, 2.700, 1.200, 150.300, 590, 100, 100, 24, 23834, -16420, 5307, 5529, 9, 14, 1525815349.091, 81, 0, 1024, 1024, 1024, 1024, 0, 6, 3953, 3960, 3971, 3975, 3997, 3960, 0, 1, 6601, -89.900, 0.000, 150.000, 0.000, 0.000, -2.400, 0.0, , , , , , 98, , , 49, 49, 49
38.2848430, -120.3444670, 3.200, 14:35:49.191, 13, 0.10, 0.69, 96, 2.400, 0.200, 150.200, 590, 100, 100, 24, 23834, -16420, 5307, 5529, 9, 14, 1525815349.192, 70, 0, 1024, 1024, 1024, 1024, 0, 6, 3953, 3960, 3971, 3975, 3997, 3960, 0, 1, 6702, -90.000, 0.000, 150.000, 0.000, -0.100, -2.900, 0.1, , , , , , 98, , , 49, 49, 49
38.2848431, -120.3444671, 3.500, 14:35:49.291, 12, 0.10, 0.69, 96, 1.800, 0.000, 150.200, 590, 100, 100, 24, 23834, -16420, 5307, 5529, 9, 14, 1525815349.292, 49, 0, 1024, 1024, 1024, 1024, 0, 6, 3953, 3960, 3971, 3975, 3997, 3960, 0, 1, 6802, -90.000, 0.000, 150.000, 0.000, -0.100, -3.000, 0.1, , , , , , 98, , , 49, 49, 49
38.2848432, -120.3444672, 3.800, 14:35:49.391, 12, 0.10, 0.69, 96, 1.800, 0.000, 150.300, 590, 100, 100, 24, 23834, -16420, 5307, 5529, 9, 14, 1525815349.391, 69, 0, 1024, 1024, 1024, 1024, 0, 6, 3953, 3960, 3971, 3975, 3997, 3960, 0, 1, 6901, -89.900, 0.000, 150.000, 0.000, -0.100, -3.100, 0.1, , , , , , 98, , , 49, 49, 49
38.2848432, -120.3444672, 4.100, 14:35:49.491, 14, 0.10, 0.69, 96, 1.900, 0.100, 150.300, 590, 100, 100, 24, 23340, -21819, 5307, 5529, 9, 14, 1525815349.492, 68, 0, 1024, 1024, 1024, 1024, 0, 6, 3953, 3960, 3971, 3975, 3997, 3960, 0, 1, 7002, -89.900, 0.000, 150.000, 0.000, -0.100, -3.200, 0.1, , , , , , 98, , , 49, 49, 49
38.2848432, -120.3444673, 4.500, 14:35:49.591, 14, 0.10, 0.68, 96, 2.000, 0.200, 150.200, 590, 100, 100, 24, 23340, -21819, 5307, 5529, 9, 14, 1525815349.592, 69, 0, 1024, 1024, 1024, 1024, 0, 6, 3953, 3960, 3971, 3975, 3997, 3960, 0, 1, 7101, -89.900, 0.000, 150.000, 0.000, -0.100, -3.200, 0.1, , , , , , 98, , , 49, 49, 49
38.2848432, -120.3444674, 4.800, 14:35:49.690, 14, 0.10, 0.67, 96, 1.600, 0.300, 150.200, 590, 100, 100, 24, 23340, -21819, 5307, 5529, 9, 14, 1525815349.691, 67, 0, 1024, 1024, 1024, 1024, 0, 6, 3953, 3960, 3971, 3975, 3997, 3960, 0, 1, 7201, -89.900, 0.000, 150.000, 0.000, -0.100, -3.200, 0.1, , , , , , 98, , , 49, 49, 49
38.2848433, -120.3444676, 5.100, 14:35:49.791, 14, 0.10, 0.66, 96, 1.100, 0.300, 150.300, 590, 100, 100, 24, 23340, -21819, 5307, 5529, 9, 14, 1525815349.791, 70, 0, 1024, 1024, 1024, 1024, 0, 6, 3953, 3960, 3971, 3975, 3997, 3960, 0, 1, 7301, -89.900, 0.000, 150.000, 0.000, -0.100, -3.200, 0.1, , , , , , 98, , , 49, 49, 49
38.2848433, -120.3444677, 5.500, 14:35:49.891, 14, 0.10, 0.66, 96, 0.800, 0.000, 150.400, 590, 100, 100, 24, 23340, -21819, 5307, 5529, 9, 14, 1525815349.891, 58, 0, 1024, 1024, 1024, 1024, 0, 6, 3953, 3960, 3971, 3975, 3997, 3960, 0, 1, 7401, -89.900, 0.000, 150.000, 0.000, -0.100, -3.300, 0.1, , , , , , 98, , , 49, 49, 49
38.2848433, -120.3444678, 5.800, 14:35:49.990, 14, 0.00, 0.65, 96, 0.900, 0.000, 150.500, 590, 100, 100, 24, 23340, -21819, 5307, 5529, 9, 14, 1525815349.991, 59, 0, 1024, 1024, 1024, 1024, 0, 6, 3869, 3876, 3865, 3865, 3895, 3851, 0, 1, 7501, -89.900, 0.000, 150.000, 0.000, 0.000, -3.200, 0.0, , , , , , 98, , , 49, 49, 49
38.2848433, -120.3444678, 5.800, 14:35:50.091, 14, 0.00, 0.65, 96, 0.900, 0.000, 150.500, 590, 100, 100, 24, 23340, -21819, 5307, 5529, 9, 14, 1525815350.091, 159, 0, 1024, 1024, 1024, 1024, 0, 6, 3869, 3876, 3865, 3865, 3895, 3851, 0, 1, 7601, -89.900, 0.000, 150.000, 0.000, 0.000, -3.200, 0.0, , , , , , 98, , , 49, 49, 49
38.2848431, -120.3444681, 6.500, 14:35:50.191, 13, 0.10, 0.61, 96, 1.000, 0.200, 150.400, 590, 100, 100, 24, 23340, -21819, 5307, 5529, 9, 14, 1525815350.191, 59, 0, 1024, 1024, 1024, 1024, 0, 6, 3869, 3876, 3865, 3865, 3895, 3851, 0, 1, 7701, -89.900, 0.000, 150.000, 0.000, -0.100, -3.200, 0.1, , , , , , 98, , , 49, 49, 49
38.2848430, -120.3444682, 6.800, 14:35:50.290, 13, 0.10, 0.60, 96, 0.600, 0.400, 150.300, 590, 100, 100, 24, 23340, -21819, 5307, 5529, 9, 14, 1525815350.291, 50, 0, 1024, 1024, 1024, 1024, 0, 6, 3869, 3876, 3865, 3865, 3895, 3851, 0, 1, 7801, -89.900, 0.000, 150.000, 0.000, -0.100, -3.200, 0.1, , , , , , 98, , , 49, 49, 49
38.2848430, -120.3444683, 7.100, 14:35:50.391, 13, 0.00, 0.59, 96, 0.400, 0.500, 150.100, 590, 100, 100, 24, 23340, -21819, 5307, 5529, 9, 14, 1525815350.392, 7, 0, 1024, 1024, 1024, 1024, 0, 6, 3869, 3876, 3865, 3865, 3895, 3851, 0, 1, 7902, -89.900, 0.000, 150.000, 0.000, 0.000, -3.200, 0.0, , , , , , 98, , , 49, 49, 49
38.2848429, -120.3444684, 7.500, 14:35:50.491, 14, 0.10, 0.58, 96, 0.300, 0.600, 149.900, 590, 100, 100, 24, 23340, -21819, 5307, 5529, 9, 14, 1525815350.492, 28, 0, 1024, 1024, 1024, 1024, 0, 6, 3869, 3876, 3865, 3865, 3895, 3851, 0, 1, 8001, -89.900, 0.000, 150.000, -0.100, 0.000, -3.200, 0.1, , , , , , 98, , , 49, 49, 49
38.2848427, -120.3444685, 7.800, 14:35:50.591, 14, 0.10, 0.56, 96, 0.300, 0.700, 149.800, 590, 100, 100, 24, 23340, -21819, 5307, 5529, 9, 14, 1525815350.591, 31, 0, 1024, 1024, 1024, 1024, 0, 6, 3869, 3876, 3865, 3865, 3895, 3851, 0, 1, 8101, -89.900, 0.000, 150.000, -0.100, 0.000, -3.200, 0.1, , , , , , 98, , , 49, 49, 49
38.2848426, -120.3444686, 8.200, 14:35:50.690, 13, 0.10, 0.55, 96, 0.300, 0.700, 149.800, 590, 100, 100, 24, 23340, -21819, 5307, 5529, 9, 14, 1525815350.691, 28, 0, 1024, 1024, 1024, 1024, 0, 6, 3869, 3876, 3865, 3865, 3895, 3851, 0, 1, 8201, -89.900, 0.000, 150.000, -0.100, 0.000, -3.200, 0.1, , , , , , 98, , , 49, 49, 49
38.2848426, -120.3444687, 8.500, 14:35:50.791, 13, 0.10, 0.54, 96, 0.100, 0.800, 149.800, 590, 100, 100, 24, 23340, -21819, 5307, 5529, 9, 14, 1525815350.792, 20, 0, 1024, 1024, 1024, 1024, 0, 6, 3869, 3876, 3865, 3865, 3895, 3851, 0, 1, 8302, -89.900, 0.000, 150.000, -0.100, 0.000, -3.100, 0.1, , , , , , 98, , , 49, 49, 49
38.2848426, -120.3444687, 8.500, 14:35:50.890, 13, 0.10, 0.54, 96, 0.100, 0.800, 149.800, 590, 100, 100, 24, 23340, -21819, 5307, 5529, 9, 14, 1525815350.891, 119, 0, 1024, 1024, 1024, 1024, 0, 6, 3869, 3876, 3865, 3865, 3895, 3851, 0, 1, 8401, -89.900, 0.000, 150.000, -0.100, 0.000, -3.100, 0.1, , , , , , 98, , , 49, 49, 49
38.2848424, -120.3444689, 9.200, 14:35:50.990, 12, 0.00, 0.52, 96, -0.300, 0.700, 149.800, 590, 100, 100, 24, 23201, -22973, 5307, 5529, 9, 14, 1525815350.993, 12, 0, 1024, 1024, 1024, 1024, 0, 6, 3869, 3876, 3865, 3865, 3895, 3851, 0, 1, 8503, -89.900, 0.000, 150.000, 0.000, 0.000, -3.000, 0.0, , , , , , 98, , , 49, 49, 49
38.2848424, -120.3444689, 9.200, 14:35:51.090, 12, 0.00, 0.52, 96, -0.300, 0.700, 149.800, 590, 100, 100, 24, 23201, -22973, 5307, 5529, 9, 14, 1525815351.090, 110, 0, 1024, 1024, 1024, 1024, 0, 6, 3847, 3863, 3873, 3882, 3907, 3864, 0, 1, 8600, -89.900, 0.000, 150.000, 0.000, 0.000, -3.000, 0.0, , , , , , 98, , , 49, 49, 49
38.2848421, -120.3444690, 9.800, 14:35:51.191, 12, 0.00, 0.49, 96, -0.200, 1.000, 149.800, 590, 100, 100, 24, 23201, -22973, 5307, 5529, 9, 14, 1525815351.191, 8, 0, 1024, 1024, 1024, 1024, 0, 6, 3847, 3863, 3873, 3882, 3907, 3864, 0, 1, 8701, -89.900, 0.000, 150.000, 0.000, 0.000, -3.000, 0.0, , , , , , 98, , , 49, 49, 49
38.2848421, -120.3444690, 9.800, 14:35:51.291, 12, 0.00, 0.49, 96, -0.200, 1.000, 149.800, 590, 100, 100, 24, 23201, -22973, 5307, 5529, 9, 14, 1525815351.292, 108, 0, 1024, 1024, 1024, 1024, 0, 6, 3847, 3863, 3873, 3882, 3907, 3864, 0, 1, 8802, -89.900, 0.000, 150.000, 0.000, 0.000, -3.000, 0.0, , , , , , 98, , , 49, 49, 49
38.2848418, -120.3444691, 10.700, 14:35:51.391, 13, 0.00, 0.48, 96, -0.200, 1.200, 150.300, 590, 100, 100, 24, 23201, -22973, 5307, 5529, 9, 14, 1525815351.391, 6, 0, 1024, 1024, 1024, 1024, 0, 6, 3847, 3863, 3873, 3882, 3907, 3864, 0, 1, 8901, -89.900, 0.000, 150.000, 0.000, 0.000, -3.000, 0.0, , , , , , 98, , , 49, 49, 49
38.2848418, -120.3444691, 10.700, 14:35:51.491, 13, 0.00, 0.48, 96, -0.200, 1.200, 150.300, 590, 100, 100, 24, 23201, -22973, 5307, 5529, 9, 14, 1525815351.492, 107, 0, 1024, 1024, 1024, 1024, 0, 6, 3847, 3863, 3873, 3882, 3907, 3864, 0, 1, 9001, -89.900, 0.000, 150.000, 0.000, 0.000, -3.000, 0.0, , , , , , 98, , , 49, 49, 49
38.2848417, -120.3444691, 11.000, 14:35:51.591, 13, 0.00, 0.48, 96, 0.000, 1.200, 150.400, 590, 100, 100, 24, 23201, -22973, 5307, 5529, 9, 14, 1525815351.591, 76, 0, 1024, 1024, 1024, 1024, 0, 6, 3847, 3863, 3873, 3882, 3907, 3864, 0, 1, 9101, -89.900, 0.000, 150.000, 0.000, 0.000, -2.900, 0.0, , , , , , 98, , , 49, 49, 49
38.2848416, -120.3444690, 11.400, 14:35:51.691, 15, 0.00, 0.48, 96, 0.200, 1.300, 150.400, 590, 100, 99, 24, 23201, -22973, 5307, 5529, 9, 14, 1525815351.691, 78, 0, 1024, 1024, 1024, 1024, 0, 6, 3847, 3863, 3873, 3882, 3907, 3864, 0, 1, 9201, -89.900, 0.000, 150.000, 0.000, 0.000, -3.000, 0.0, , , , , , 98, , , 49, 49, 49
38.2848416, -120.3444690, 11.700, 14:35:51.791, 15, 0.00, 0.48, 96, 0.400, 1.400, 150.400, 590, 100, 99, 24, 23201, -22973, 5307, 5529, 9, 14, 1525815351.792, 82, 0, 1024, 1024, 1024, 1024, 0, 6, 3847, 3863, 3873, 3882, 3907, 3864, 0, 1, 9302, -89.900, 0.000, 150.000, 0.000, 0.000, -3.000, 0.0, , , , , , 98, , , 49, 49, 49
38.2848416, -120.3444691, 12.000, 14:35:51.891, 15, 0.00, 0.47, 96, 0.600, 1.300, 150.100, 590, 100, 99, 24, 23201, -22973, 5307, 5529, 9, 14, 1525815351.892, 60, 0, 1024, 1024, 1024, 1024, 0, 6, 3847, 3863, 3873, 3882, 3907, 3864, 0, 1, 9401, -89.900, 0.000, 150.000, 0.000, 0.000, -2.900, 0.0, , , , , , 98, , , 49, 49, 49
38.2848416, -120.3444693, 12.300, 14:35:51.991, 15, 0.00, 0.45, 96, 0.500, 1.000, 149.800, 590, 100, 99, 24, 23201, -22973, 5307, 5529, 9, 14, 1525815351.991, 65, 0, 1024, 1024, 1024, 1024, 0, 6, 3847, 3863, 3873, 3882, 3907, 3864, 0, 1, 9501, -89.900, 0.000, 150.000, 0.000, 0.000, -2.900, 0.0, , , , , , 98, , , 49, 49, 49
38.2848415, -120.3444693, 12.600, 14:35:52.090, 14, 0.00, 0.45, 96, 0.100, 0.800, 149.600, 590, 100, 99, 24, 23430, -18657, 5307, 5529, 9, 14, 1525815352.090, 64, 0, 1024, 1024, 1024, 1024, 0, 6, 3891, 3892, 3905, 3914, 3933, 3895, 0, 1, 9600, -89.900, 0.000, 150.000, 0.000, 0.000, -2.900, 0.0, , , , , , 98, , , 49, 49, 49
38.2848414, -120.3444693, 12.900, 14:35:52.191, 14, 0.00, 0.45, 96, 0.000, 0.900, 149.400, 590, 100, 99, 24, 23430, -18657, 5307, 5529, 9, 14, 1525815352.191, 79, 0, 1024, 1024, 1024, 1024, 0, 6, 3891, 3892, 3905, 3914, 3933, 3895, 0, 1, 9701, -89.900, 0.000, 150.000, 0.000, 0.000, -2.900, 0.0, , , , , , 98, , , 49, 49, 49
38.2848414, -120.3444692, 13.200, 14:35:52.291, 13, 0.00, 0.45, 96, 0.000, 1.000, 149.400, 590, 100, 99, 24, 23430, -18657, 5307, 5529, 9, 14, 1525815352.291, 69, 0, 1024, 1024, 1024, 1024, 0, 6, 3891, 3892, 3905, 3914, 3933, 3895, 0, 1, 9801, -89.900, 0.000, 150.000, 0.000, 0.000, -3.000, 0.0, , , , , , 98, , , 49, 49, 49
38.2848415, -120.3444692, 13.500, 14:35:52.390, 13, 0.00, 0.46, 96, 0.200, 0.900, 149.500, 590, 100, 99, 24, 23430, -18657, 5307, 5529, 9, 14, 1525815352.391, 52, 0, 1024, 1024, 1024, 1024, 0, 6, 3891, 3892, 3905, 3914, 3933, 3895, 0, 1, 9901, -89.900, 0.000, 150.000, 0.000, 0.000, -3.000, 0.0, , , , , , 98, , , 49, 49, 49
38.2848415, -120.3444691, 13.800, 14:35:52.490, 14, 0.00, 0.46, 96, 0.400, 0.900, 149.700, 590, 100, 99, 24, 23430, -18657, 5307, 5529, 9, 14, 1525815352.491, 32, 0, 1024, 1024, 1024, 1024, 0, 6, 3891, 3892, 3905, 3914, 3933, 3895, 0, 1, 10001, -89.900, 0.000, 150.000, 0.000, 0.000, -3.000, 0.0, , , , , , 98, , , 49, 49, 49
38.2848415, -120.3444691, 14.100, 14:35:52.590, 14, 0.00, 0.47, 96, 0.500, 0.900, 149.900, 590, 100, 99, 24, 23430, -18657, 5307, 5529, 9, 14, 1525815352.591, 36, 0, 1024, 1024, 1024, 1024, 0, 6, 3891, 3892, 3905, 3914, 3933, 3895, 0, 1, 10101, -89.900, 0.000, 150.000, 0.000, 0.000, -2.900, 0.0, , , , , , 98, , , 49, 49, 49
38.2848415, -120.3444690, 14.400, 14:35:52.691, 13, 0.00, 0.47, 96, 0.500, 0.900, 150.100, 590, 100, 99, 24, 23430, -18657, 5307, 5529, 9, 14, 1525815352.691, 32, 0, 1024, 1024, 1024, 1024, 0, 6, 3891, 3892, 3905, 3914, 3933, 3895, 0, 1, 10201, -89.900, 0.000, 150.000, 0.000, 0.000, -2.900, 0.0, , , , , , 98, , , 49, 49, 49
38.2848416, -120.3444690, 14.700, 14:35:52.791, 13, 0.00, 0.48, 96, 0.500, 0.700, 150.200, 590, 100, 99, 24, 23430, -18657, 5307, 5529, 9, 14, 1525815352.791, 27, 0, 1024, 1024, 1024, 1024, 0, 6, 3891, 3892, 3905, 3914, 3933, 3895, 0, 1, 10301, -89.900, 0.000, 150.000, 0.000, 0.000, -2.900, 0.0, , , , , , 98, , , 49, 49, 49
38.2848416, -120.3444690, 15.000, 14:35:52.894, 16, 0.00, 0.47, 96, 0.400, 0.700, 150.300, 590, 100, 99, 24, 23430, -18657, 5307, 5529, 9, 14, 1525815352.894, 5, 0, 1024, 1024, 1024, 1024, 0, 6, 3891, 3892, 3905, 3914, 3933, 3895, 0, 1, 10404, -89.900, 0.000, 150.000, 0.000, 0.000, -2.900, 0.0, , , , , , 98, , , 49, 49, 49
38.2848416, -120.3444691, 15.300, 14:35:52.991, 16, 0.00, 0.47, 96, 0.300, 0.700, 150.400, 590, 100, 99, 24, 23393, -18747, 5307, 5529, 9, 14, 1525815352.992, 30, 0, 1024, 1024, 1024, 1024, 0, 6, 3886, 3897, 3898, 3900, 3929, 3885, 0, 1, 10502, -89.900, 0.000, 150.000, 0.000, 0.000, -2.900, 0.0, , , , , , 98, , , 49, 49, 49
38.2848416, -120.3444691, 15.300, 14:35:53.090, 16, 0.00, 0.47, 96, 0.300, 0.700, 150.400, 590, 100, 99, 24, 23393, -18747, 5307, 5529, 9, 14, 1525815353.091, 128, 0, 1024, 1024, 1024, 1024, 0, 6, 3886, 3897, 3898, 3900, 3929, 3885, 0, 1, 10600, -89.900, 0.000, 150.000, 0.000, 0.000, -2.900, 0.0, , , , , , 98, , , 49, 49, 49
38.2848417, -120.3444690, 15.900, 14:35:53.190, 16, 0.00, 0.48, 96, 0.300, 0.600, 150.400, 590, 100, 98, 24, 23393, -18747, 5307, 5529, 9, 14, 1525815353.191, 9, 0, 1024, 1024, 1024, 1024, 0, 6, 3886, 3897, 3898, 3900, 3929, 3885, 0, 1, 10701, -89.900, 0.000, 150.000, 0.000, 0.000, -2.900, 0.0, , , , , , 98, , , 49, 49, 49
38.2848417, -120.3444690, 16.200, 14:35:53.290, 16, 0.00, 0.48, 96, 0.400, 0.600, 150.400, 590, 100, 98, 24, 23393, -18747, 5307, 5529, 9, 14, 1525815353.291, 9, 0, 1024, 1024, 1024, 1024, 0, 6, 3886, 3897, 3898, 3900, 3929, 3885, 0, 1, 10801, -89.900, 0.000, 150.000, 0.000, 0.000, -2.900, 0.0, , , , , , 98, , , 49, 49, 49
38.2848417, -120.3444690, 16.200, 14:35:53.391, 16, 0.00, 0.48, 96, 0.400, 0.600, 150.400, 590, 100, 98, 24, 23393, -18747, 5307, 5529, 9, 14, 1525815353.391, 110, 0, 1024, 1024, 1024, 1024, 0, 6, 3886, 3897, 3898, 3900, 3929, 3885, 0, 1, 10901, -89.900, 0.000, 150.000, 0.000, 0.000, -2.900, 0.0, , , , , , 98, , , 49, 49, 49
38.2848417, -120.3444690, 16.500, 14:35:53.490, 16, 0.00, 0.48, 96, 0.600, 0.600, 150.300, 590, 100, 98, 24, 23393, -18747, 5307, 5529, 9, 14, 1525815353.491, 72, 0, 1024, 1024, 1024, 1024, 0, 6, 3886, 3897, 3898, 3900, 3929, 3885, 0, 1, 11001, -90.000, 0.000, 150.000, 0.000, 0.000, -2.900, 0.0, , , , , , 98, , , 49, 49, 49
38.2848418, -120.3444690, 16.800, 14:35:53.590, 16, 0.00, 0.49, 96, 0.800, 0.400, 150.200, 590, 100, 98, 24, 23393, -18747, 5307, 5529, 9, 14, 1525815353.591, 89, 0, 1024, 1024, 1024, 1024, 0, 6, 3886, 3897, 3898, 3900, 3929, 3885, 0, 1, 11101, -89.900, 0.000, 150.000, 0.000, 0.000, -2.900, 0.0, , , , , , 98, , , 49, 49, 49
38.2848418, -120.3444689, 17.100, 14:35:53.691, 16, 0.00, 0.49, 96, 0.500, 0.300, 150.300, 590, 100, 98, 24, 23393, -18747, 5307, 5529, 9, 14, 1525815353.691, 95, 0, 1024, 1024, 1024, 1024, 0, 6, 3886, 3897, 3898, 3900, 3929, 3885, 0, 1, 11201, -89.900, 0.000, 150.000, 0.000, 0.000, -2.900, 0.0, , , , , , 98, , , 49, 49, 49
38.2848418, -120.3444687, 17.700, 14:35:53.804, 16, 0.00, 0.51, 96, 1.500, 0.900, 150.400, 590, 100, 98, 24, 23393, -18747, 5307, 5529, 9, 14, 1525815353.805, 13, 0, 1024, 1024, 1024, 1024, 0, 6, 3886, 3897, 3898, 3900, 3929, 3885, 0, 1, 11315, -89.900, 0.000, 150.000, 0.000, 0.000, -2.900, 0.0, , , , , , 98, , , 49, 49, 49
38.2848418, -120.3444687, 17.700, 14:35:53.891, 16, 0.00, 0.51, 96, 1.500, 0.900, 150.400, 590, 100, 98, 24, 23393, -18747, 5307, 5529, 9, 14, 1525815353.891, 100, 0, 1024, 1024, 1024, 1024, 0, 6, 3886, 3897, 3898, 3900, 3929, 3885, 0, 1, 11401, -89.900, 0.000, 150.000, 0.000, 0.000, -2.900, 0.0, , , , , , 98, , , 49, 49, 49
38.2848417, -120.3444684, 18.300, 14:35:53.991, 15, 0.10, 0.54, 96, 1.600, 2.200, 150.800, 590, 100, 98, 24, 23393, -18747, 5307, 5529, 9, 14, 1525815353.991, 79, 0, 1024, 1024, 1024, 1024, 0, 6, 3886, 3897, 3898, 3900, 3929, 3885, 0, 1, 11501, -89.900, 0.000, 150.000, 0.000, 0.100, -2.900, 0.0, , , , , , 98, , , 49, 49, 49
38.2848418, -120.3444682, 18.600, 14:35:54.091, 15, 0.10, 0.55, 96, 1.900, 2.900, 150.800, 590, 100, 98, 24, 23340, -18970, 5307, 5529, 9, 14, 1525815354.092, 92, 0, 1024, 1024, 1024, 1024, 0, 6, 3862, 3865, 3895, 3901, 3922, 3877, 0, 1, 11602, -89.900, 0.000, 150.000, 0.000, 0.100, -3.000, 0.0, , , , , , 98, , , 49, 49, 49
38.2848419, -120.3444680, 18.900, 14:35:54.190, 15, 0.10, 0.57, 96, 2.400, 3.100, 150.800, 590, 100, 100, 24, 23340, -18970, 5307, 5529, 9, 14, 1525815354.191, 47, 0, 1024, 1024, 1024, 1024, 0, 6, 3862, 3865, 3895, 3901, 3922, 3877, 0, 1, 11700, -89.900, 0.000, 150.000, 0.000, 0.100, -3.000, 0.0, , , , , , 98, , , 49, 49, 49
38.2848419, -120.3444678, 19.200, 14:35:54.291, 15, 0.10, 0.59, 96, 3.200, 3.000, 150.600, 590, 100, 100, 24, 23340, -18970, 5307, 5529, 9, 14, 1525815354.291, 66, 0, 1024, 1024, 1024, 1024, 0, 6, 3862, 3865, 3895, 3901, 3922, 3877, 0, 1, 11801, -89.900, 0.000, 150.000, 0.000, 0.100, -3.000, 0.0, , , , , , 98, , , 49, 49, 49
38.2848419, -120.3444675, 19.500, 14:35:54.391, 15, 0.10, 0.61, 96, 3.700, 2.800, 150.400, 590, 100, 100, 24, 23340, -18970, 5307, 5529, 9, 14, 1525815354.391, 43, 0, 1024, 1024, 1024, 1024, 0, 6, 3862, 3865, 3895, 3901, 3922, 3877, 0, 1, 11901, -89.900, 0.000, 150.000, 0.000, 0.100, -2.900, 0.0, , , , , , 98, , , 49, 49, 49
38.2848420, -120.3444673, 19.800, 14:35:54.490, 15, 0.10, 0.63, 96, 3.900, 2.600, 150.200, 590, 100, 100, 24, 23340, -18970, 5307, 5529, 9, 14, 1525815354.491, 63, 0, 1024, 1024, 1024, 1024, 0, 6, 3862, 3865, 3895, 3901, 3922, 3877, 0, 1, 12001, -89.900, 0.000, 150.000, 0.000, 0.100, -2.900, 0.0, , , , , , 98, , , 49, 49, 49
38.2848421, -120.3444671, 20.100, 14:35:54.590, 15, 0.10, 0.65, 96, 4.400, 2.500, 150.100, 590, 100, 100, 24, 23340, -18970, 5307, 5529, 9, 14, 1525815354.591, 33, 0, 1024, 1024, 1024, 1024, 0, 6, 3862, 3865, 3895, 3901, 3922, 3877, 0, 1, 12101, -89.900, 0.000, 150.000, 0.000, 0.100, -3.000, 0.0, , , , , , 98, , , 49, 49, 49
38.2848421, -120.3444668, 20.500, 14:35:54.691, 15, 0.10, 0.68, 96, 5.000, 2.500, 150.200, 590, 100, 100, 24, 23340, -18970, 5307, 5529, 9, 14, 1525815354.691, 49, 0, 1024, 1024, 1024, 1024, 0, 6, 3862, 3865, 3895, 3901, 3922, 3877, 0, 1, 12201, -89.900, 0.000, 150.000, 0.000, 0.100, -3.000, 0.0, , , , , , 98, , , 49, 49, 49
38.2848422, -120.3444666, 20.800, 14:35:54.790, 15, 0.10, 0.70, 96, 5.400, 2.500, 150.200, 590, 100, 100, 24, 23340, -18970, 5307, 5529, 9, 14, 1525815354.791, 17, 0, 1024, 1024, 1024, 1024, 0, 6, 3862, 3865, 3895, 3901, 3922, 3877, 0, 1, 12301, -89.900, 0.000, 150.000, 0.000, 0.100, -3.000, 0.0, , , , , , 98, , , 49, 49, 49
38.2848423, -120.3444663, 21.100, 14:35:54.890, 16, 0.10, 0.72, 96, 5.600, 2.600, 150.300, 590, 100, 100, 24, 23340, -18970, 5307, 5529, 9, 14, 1525815354.891, 31, 0, 1024, 1024, 1024, 1024, 0, 6, 3862, 3865, 3895, 3901, 3922, 3877, 0, 1, 12401, -89.900, 0.000, 150.000, 0.000, 0.100, -2.900, 0.1, , , , , , 98, , , 49, 49, 49
38.2848424, -120.3444661, 21.400, 14:35:54.991, 16, 0.10, 0.75, 96, 5.800, 2.700, 150.400, 590, 100, 100, 24, 23233, -19697, 5307, 5529, 9, 14, 1525815354.992, 22, 0, 1024, 1024, 1024, 1024, 0, 6, 3862, 3865, 3895, 3901, 3922, 3877, 0, 1, 12502, -89.900, 0.000, 150.000, 0.000, 0.100, -2.900, 0.1, , , , , , 98, , , 49, 49, 49
38.2848424, -120.3444661, 21.400, 14:35:55.091, 16, 0.10, 0.75, 96, 5.800, 2.700, 150.400, 590, 100, 100, 24, 23233, -19697, 5307, 5529, 9, 14, 1525815355.091, 121, 0, 1024, 1024, 1024, 1024, 0, 6, 3862, 3865, 3895, 3901, 3922, 3877, 0, 1, 12601, -89.900, 0.000, 150.000, 0.000, 0.100, -2.900, 0.1, , , , , , 98, , , 49, 49, 49
38.2848425, -120.3444658, 22.000, 14:35:55.190, 17, 0.00, 0.78, 96, 5.200, 2.500, 150.100, 590, 100, 99, 24, 23233, -19697, 5307, 5529, 9, 14, 1525815355.191, 14, 0, 1024, 1024, 1024, 1024, 0, 6, 3862, 3865, 3895, 3901, 3922, 3877, 0, 1, 12701, -89.900, 0.000, 150.000, 0.000, 0.000, -2.800, 0.0, , , , , , 98, , , 49, 49, 49
38.2848427, -120.3444656, 22.300, 14:35:55.298, 17, 0.00, 0.80, 96, 5.600, 1.900, 149.800, 590, 100, 99, 24, 23233, -19697, 5307, 5529, 9, 14, 1525815355.299, 10, 0, 1024, 1024, 1024, 1024, 0, 6, 3862, 3865, 3895, 3901, 3922, 3877, 0, 1, 12808, -90.000, 0.000, 150.000, 0.000, 0.000, -2.900, 0.0, , , , , , 98, , , 49, 49, 49
38.2848428, -120.3444654, 22.700, 14:35:55.413, 17, 0.00, 0.81, 96, 6.100, 1.000, 149.900, 590, 100, 99, 24, 23233, -19697, 5307, 5529, 9, 14, 1525815355.413, 5, 0, 1024, 1024, 1024, 1024, 0, 6, 3862, 3865, 3895, 3901, 3922, 3877, 0, 1, 12923, -90.000, 0.000, 150.000, 0.000, 0.000, -2.900, 0.0, , , , , , 98, , , 49, 49, 49
38.2848429, -120.3444653, 23.000, 14:35:55.498, 16, 0.00, 0.83, 96, 6.000, 0.800, 150.100, 590, 100, 99, 24, 23233, -19697, 5307, 5529, 9, 14, 1525815355.498, 8, 0, 1024, 1024, 1024, 1024, 0, 6, 3862, 3865, 3895, 3901, 3922, 3877, 0, 1, 13008, -90.000, 0.000, 150.000, 0.000, 0.000, -2.800, 0.0, , , , , , 98, , , 49, 49, 49
38.2848430, -120.3444652, 23.200, 14:35:55.596, 16, 0.00, 0.84, 96, 5.600, 0.300, 150.200, 590, 100, 98, 24, 23233, -19697, 5307, 5529, 9, 14, 1525815355.596, 5, 0, 1024, 1024, 1024, 1024, 0, 6, 3862, 3865, 3895, 3901, 3922, 3877, 0, 1, 13106, -89.900, 0.000, 150.000, 0.000, 0.000, -2.700, 0.0, , , , , , 98, , , 49, 49, 49
38.2848430, -120.3444652, 23.200, 14:35:55.691, 16, 0.00, 0.84, 96, 5.600, 0.300, 150.200, 590, 100, 98, 24, 23233, -19697, 5307, 5529, 9, 14, 1525815355.692, 100, 0, 1024, 1024, 1024, 1024, 0, 6, 3862, 3865, 3895, 3901, 3922, 3877, 0, 1, 13201, -89.900, 0.000, 150.000, 0.000, 0.000, -2.700, 0.0, , , , , , 98, , , 49, 49, 49
38.2848432, -120.3444651, 23.500, 14:35:55.791, 16, 0.00, 0.86, 96, 5.600, 0.500, 150.300, 590, 100, 98, 24, 23233, -19697, 5307, 5529, 9, 14, 1525815355.793, 91, 0, 1024, 1024, 1024, 1024, 0, 6, 3854, 3865, 3873, 3876, 3898, 3864, 0, 1, 13303, -89.900, 0.000, 150.000, 0.000, 0.000, -2.700, 0.0, , , , , , 98, , , 49, 49, 49
38.2848433, -120.3444650, 24.000, 14:35:55.897, 16, 0.00, 0.87, 96, 5.400, 1.700, 151.000, 590, 100, 98, 24, 23233, -19697, 5307, 5529, 9, 14, 1525815355.898, 9, 0, 1024, 1024, 1024, 1024, 0, 6, 3854, 3865, 3873, 3876, 3898, 3864, 0, 1, 13408, -89.900, 0.000, 150.000, 0.000, 0.000, -2.700, 0.0, , , , , , 98, , , 49, 49, 49
38.2848433, -120.3444650, 24.000, 14:35:55.991, 16, 0.00, 0.87, 96, 5.400, 1.700, 151.000, 590, 100, 98, 24, 23233, -19697, 5307, 5529, 9, 14, 1525815355.992, 103, 0, 1024, 1024, 1024, 1024, 0, 6, 3854, 3865, 3873, 3876, 3898, 3864, 0, 1, 13502, -89.900, 0.000, 150.000, 0.000, 0.000, -2.700, 0.0, , , , , , 98, , , 49, 49, 49
38.2848435, -120.3444651, 24.600, 14:35:56.091, 17, 0.00, 0.87, 96, 4.800, 1.000, 150.900, 590, 100, 98, 24, 23233, -19697, 5307, 5529, 9, 14, 1525815356.091, 66, 0, 1024, 1024, 1024, 1024, 0, 6, 3854, 3865, 3873, 3876, 3898, 3864, 0, 1, 13601, -90.000, 0.000, 150.000, 0.000, 0.000, -2.800, 0.0, , , , , , 98, , , 49, 49, 49
38.2848436, -120.3444651, 24.900, 14:35:56.191, 17, 0.00, 0.87, 96, 4.800, 0.400, 150.600, 590, 100, 98, 24, 23233, -19697, 5307, 5529, 9, 14, 1525815356.194, 68, 0, 1024, 1024, 1024, 1024, 0, 6, 3854, 3865, 3873, 3876, 3898, 3864, 0, 1, 13704, -90.000, 0.000, 150.000, 0.000, 0.000, -2.700, 0.0, , , , , , 98, , , 49, 49, 49
38.2848437, -120.3444651, 25.100, 14:35:56.291, 16, 0.00, 0.88, 96, 4.700, 0.000, 150.300, 590, 100, 98, 24, 23233, -19697, 5307, 5529, 9, 14, 1525815356.292, 80, 0, 1024, 1024, 1024, 1024, 0, 6, 3854, 3865, 3873, 3876, 3898, 3864, 0, 1, 13802, -90.000, 0.000, 150.000, 0.000, 0.000, -2.700, 0.0, , , , , , 98, , , 49, 49, 49
38.2848439, -120.3444649, 25.400, 14:35:56.391, 16, 0.00, 0.90, 96, 5.200, -0.100, 150.100, 590, 100, 98, 24, 23233, -19697, 5307, 5529, 9, 14, 1525815356.392, 66, 0, 1024, 1024, 1024, 1024, 0, 6, 3854, 3865, 3873, 3876, 3898, 3864, 0, 1, 13901, -89.900, 0.000, 150.000, 0.000, 0.000, -2.800, 0.0, , , , , , 98, , , 49, 49, 49
38.2848439, -120.3444650, 25.700, 14:35:56.490, 16, 0.00, 0.90, 96, 5.700, -0.200, 149.800, 590, 100, 98, 24, 23233, -19697, 5307, 5529, 9, 14, 1525815356.491, 79, 0, 1024, 1024, 1024, 1024, 0, 6, 3854, 3865, 3873, 3876, 3898, 3864, 0, 1, 14001, -90.000, 0.000, 150.000, 0.000, 0.000, -2.900, 0.0, , , , , , 98, , , 49, 49, 49
38.2848440, -120.3444652, 26.000, 14:35:56.591, 16, 0.10, 0.89, 96, 5.300, -0.500, 149.500, 590, 100, 100, 24, 23301, -18971, 5252, 5529, 9, 14, 1525815356.591, 82, 0, 1024, 1024, 1024, 1024, 0, 6, 3841, 3875, 3865, 3884, 3907, 3874, 0, 1, 14101, -90.000, 0.000, 150.000, 0.000, -0.100, -2.700, 0.1, , , , , , 98, , , 49, 49, 49
38.2848440, -120.3444652, 26.200, 14:35:56.690, 16, 0.10, 0.89, 96, 4.500, -0.400, 149.300, 590, 100, 100, 24, 23301, -18971, 5252, 5529, 9, 14, 1525815356.691, 71, 0, 1024, 1024, 1024, 1024, 0, 6, 3841, 3875, 3865, 3884, 3907, 3874, 0, 1, 14201, -89.900, 0.000, 150.000, 0.000, -0.100, -2.800, 0.1, , , , , , 98, , , 49, 49, 49
38.2848441, -120.3444652, 26.500, 14:35:56.791, 16, 0.00, 0.89, 96, 4.100, -0.100, 149.300, 590, 100, 100, 24, 23301, -18971, 5252, 5529, 9, 14, 1525815356.792, 28, 0, 1024, 1024, 1024, 1024, 0, 6, 3841, 3875, 3865, 3884, 3907, 3874, 0, 1, 14301, -89.900, 0.000, 150.000, 0.000, 0.000, -2.800, 0.0, , , , , , 98, , , 49, 49, 49
38.2848441, -120.3444653, 26.700, 14:35:56.891, 16, 0.00, 0.88, 96, 4.400, 0.600, 149.600, 590, 100, 100, 24, 23301, -18971, 5252, 5529, 9, 14, 1525815356.891, 48, 0, 1024, 1024, 1024, 1024, 0, 6, 3841, 3875, 3865, 3884, 3907, 3874, 0, 1, 14401, -89.900, 0.000, 150.000, 0.000, 0.000, -2.800, 0.0, , , , , , 98, , , 49, 49, 49
38.2848440, -120.3444653, 27.000, 14:35:56.991, 16, 0.10, 0.88, 95, 4.200, 1.300, 150.100, 590, 100, 100, 24, 23301, -18971, 5252, 5529, 9, 14, 1525815356.992, 48, 0, 1024, 1024, 1024, 1024, 0, 6, 3841, 3875, 3865, 3884, 3907, 3874, 0, 1, 14502, -89.900, 0.000, 150.000, -0.100, 0.000, -2.900, 0.1, , , , , , 98, , , 49, 49, 49
38.2848440, -120.3444653, 27.000, 14:35:57.091, 16, 0.10, 0.88, 95, 4.200, 1.300, 150.100, 590, 100, 100, 24, 23301, -18971, 5252, 5529, 9, 14, 1525815357.091, 147, 0, 1024, 1024, 1024, 1024, 0, 6, 3841, 3875, 3865, 3884, 3907, 3874, 0, 1, 14601, -89.900, 0.000, 150.000, -0.100, 0.000, -2.900, 0.1, , , , , , 98, , , 49, 49, 49
38.2848439, -120.3444654, 27.500, 14:35:57.191, 16, 0.00, 0.87, 95, 4.200, 1.900, 150.700, 590, 100, 99, 24, 23301, -18971, 5252, 5529, 9, 14, 1525815357.191, 7, 0, 1024, 1024, 1024, 1024, 0, 6, 3841, 3875, 3865, 3884, 3907, 3874, 0, 1, 14701, -89.900, 0.000, 150.000, 0.000, 0.000, -3.100, 0.0, , , , , , 98, , , 49, 49, 49
38.2848439, -120.3444654, 27.800, 14:35:57.291, 16, 0.00, 0.87, 95, 4.000, 2.000, 150.700, 590, 100, 99, 24, 23301, -18971, 5252, 5529, 9, 14, 1525815357.292, 19, 0, 1024, 1024, 1024, 1024, 0, 6, 3841, 3875, 3865, 3884, 3907, 3874, 0, 1, 14802, -89.900, 0.000, 150.000, 0.000, 0.000, -3.100, 0.0, , , , , , 98, , , 49, 49, 49
38.2848439, -120.3444654, 28.100, 14:35:57.391, 16, 0.10, 0.86, 95, 4.200, 2.100, 150.600, 590, 100, 99, 24, 23301, -18971, 5252, 5529, 9, 14, 1525815357.391, 19, 0, 1024, 1024, 1024, 1024, 0, 6, 3841, 3875, 3865, 3884, 3907, 3874, 0, 1, 14901, -89.900, 0.000, 150.000, 0.000, -0.100, -3.200, 0.1, , , , , , 98, , , 49, 49, 49
38.2848439, -120.3444655, 28.400, 14:35:57.491, 16, 0.10, 0.86, 95, 4.100, 2.100, 150.300, 590, 100, 99, 24, 23047, -21494, 5252, 5529, 9, 14, 1525815357.492, 14, 0, 1024, 1024, 1024, 1024, 0, 6, 3810, 3834, 3832, 3848, 3865, 3837, 0, 1, 15001, -89.900, 0.000, 150.000, 0.000, -0.100, -3.200, 0.1, , , , , , 98, , , 49, 49, 49
38.2848439, -120.3444656, 28.800, 14:35:57.591, 16, 0.10, 0.85, 95, 4.100, 1.600, 149.900, 590, 100, 98, 24, 23047, -21494, 5252, 5529, 9, 14, 1525815357.591, 28, 0, 1024, 1024, 1024, 1024, 0, 6, 3810, 3834, 3832, 3848, 3865, 3837, 0, 1, 15101, -89.900, 0.000, 150.000, 0.000, -0.100, -3.200, 0.1, , , , , , 98, , , 49, 49, 49
38.2848438, -120.3444657, 29.100, 14:35:57.691, 16, 0.10, 0.84, 95, 4.100, 0.700, 149.600, 590, 100, 98, 24, 23047, -21494, 5252, 5529, 9, 14, 1525815357.691, 18, 0, 1024, 1024, 1024, 1024, 0, 6, 3810, 3834, 3832, 3848, 3865, 3837, 0, 1, 15201, -89.900, 0.000, 150.000, 0.000, -0.100, -3.200, 0.1, , , , , , 98, , , 49, 49, 49
38.2848438, -120.3444657, 29.400, 14:35:57.797, 16, 0.10, 0.83, 95, 3.900, 0.200, 149.400, 590, 100, 98, 24, 23047, -21494, 5252, 5529, 9, 14, 1525815357.798, 9, 0, 1024, 1024, 1024, 1024, 0, 6, 3810, 3834, 3832, 3848, 3865, 3837, 0, 1, 15307, -90.000, 0.000, 150.000, 0.000, -0.100, -3.200, 0.1, , , , , , 98, , , 49, 49, 49
38.2848438, -120.3444657, 29.400, 14:35:57.890, 16, 0.10, 0.83, 95, 3.900, 0.200, 149.400, 590, 100, 98, 24, 23047, -21494, 5252, 5529, 9, 14, 1525815357.891, 103, 0, 1024, 1024, 1024, 1024, 0, 6, 3810, 3834, 3832, 3848, 3865, 3837, 0, 1, 15401, -90.000, 0.000, 150.000, 0.000, -0.100, -3.200, 0.1, , , , , , 98, , , 49, 49, 49
38.2848438, -120.3444659, 30.000, 14:35:57.990, 16, 0.10, 0.82, 95, 4.500, 0.000, 149.200, 590, 100, 98, 24, 23047, -21494, 5252, 5529, 9, 14, 1525815357.991, 12, 0, 1024, 1024, 1024, 1024, 0, 6, 3810, 3834, 3832, 3848, 3865, 3837, 0, 1, 15501, -90.000, 0.000, 150.000, 0.000, -0.100, -3.200, 0.1, , , , , , 98, , , 49, 49, 49
38.2848438, -120.3444659, 30.000, 14:35:58.090, 16, 0.10, 0.82, 95, 4.500, 0.000, 149.200, 590, 100, 98, 24, 23047, -21494, 5252, 5529, 9, 14, 1525815358.091, 112, 0, 1024, 1024, 1024, 1024, 0, 6, 3810, 3834, 3832, 3848, 3865, 3837, 0, 1, 15600, -90.000, 0.000, 150.000, 0.000, -0.100, -3.200, 0.1, , , , , , 98, , , 49, 49, 49
38.2848437, -120.3444662, 30.600, 14:35:58.191, 16, 0.10, 0.79, 95, 4.000, -0.300, 149.400, 590, 100, 98, 24, 23047, -21494, 5252, 5529, 9, 14, 1525815358.191, 9, 0, 1024, 1024, 1024, 1024, 0, 6, 3810, 3834, 3832, 3848, 3865, 3837, 0, 1, 15701, -89.900, 0.000, 150.000, 0.000, -0.100, -3.100, 0.1, , , , , , 98, , , 49, 49, 49
38.2848437, -120.3444662, 30.600, 14:35:58.290, 16, 0.10, 0.79, 95, 4.000, -0.300, 149.400, 590, 100, 98, 24, 23047, -21494, 5252, 5529, 9, 14, 1525815358.291, 109, 0, 1024, 1024, 1024, 1024, 0, 6, 3810, 3834, 3832, 3848, 3865, 3837, 0, 1, 15801, -89.900, 0.000, 150.000, 0.000, -0.100, -3.100, 0.1, , , , , , 98, , , 49, 49, 49
38.2848435, -120.3444665, 31.300, 14:35:58.391, 16, 0.10, 0.76, 95, 3.200, 0.800, 150.100, 590, 100, 98, 24, 23047, -21494, 5252, 5529, 9, 14, 1525815358.392, 55, 0, 1024, 1024, 1024, 1024, 0, 6, 3810, 3834, 3832, 3848, 3865, 3837, 0, 1, 15902, -89.900, 0.000, 150.000, -0.100, 0.000, -3.000, 0.1, , , , , , 98, , , 49, 49, 49
38.2848435, -120.3444665, 31.300, 14:35:58.491, 16, 0.10, 0.76, 95, 3.200, 0.800, 150.100, 590, 100, 98, 24, 23047, -21494, 5252, 5529, 9, 14, 1525815358.491, 154, 0, 1024, 1024, 1024, 1024, 0, 6, 3810, 3834, 3832, 3848, 3865, 3837, 0, 1, 16001, -89.900, 0.000, 150.000, -0.100, 0.000, -3.000, 0.1, , , , , , 98, , , 49, 49, 49
38.2848433, -120.3444666, 31.800, 14:35:58.590, 16, 0.10, 0.74, 95, 3.000, 1.600, 150.700, 590, 100, 98, 24, 22985, -21515, 5252, 5529, 9, 14, 1525815358.591, 74, 0, 1024, 1024, 1024, 1024, 0, 6, 3820, 3837, 3839, 3850, 3872, 3830, 0, 1, 16101, -89.900, 0.000, 150.000, -0.100, 0.000, -3.000, 0.1, , , , , , 98, , , 49, 49, 49
38.2848432, -120.3444667, 32.200, 14:35:58.691, 17, 0.10, 0.73, 95, 3.400, 1.900, 150.800, 590, 100, 97, 24, 22985, -21515, 5252, 5529, 9, 14, 1525815358.692, 60, 0, 1024, 1024, 1024, 1024, 0, 6, 3820, 3837, 3839, 3850, 3872, 3830, 0, 1, 16202, -89.900, 0.000, 150.000, -0.100, 0.000, -3.100, 0.1, , , , , , 98, , , 49, 49, 49
38.2848432, -120.3444667, 32.200, 14:35:58.791, 17, 0.10, 0.73, 95, 3.400, 1.900, 150.800, 590, 100, 97, 24, 22985, -21515, 5252, 5529, 9, 14, 1525815358.792, 159, 0, 1024, 1024, 1024, 1024, 0, 6, 3820, 3837, 3839, 3850, 3872, 3830, 0, 1, 16302, -89.900, 0.000, 150.000, -0.100, 0.000, -3.100, 0.1, , , , , , 98, , , 49, 49, 49
38.2848431, -120.3444668, 32.800, 14:35:58.891, 17, 0.00, 0.72, 95, 4.200, 1.900, 150.700, 590, 100, 97, 24, 22985, -21515, 5252, 5529, 9, 14, 1525815358.891, 77, 0, 1024, 1024, 1024, 1024, 0, 6, 3820, 3837, 3839, 3850, 3872, 3830, 0, 1, 16401, -89.900, 0.000, 150.000, 0.000, 0.000, -3.100, 0.0, , , , , , 98, , , 49, 49, 49
38.2848431, -120.3444668, 33.100, 14:35:58.990, 17, 0.00, 0.72, 95, 4.300, 1.700, 150.500, 590, 100, 97, 24, 22985, -21515, 5252, 5529, 9, 14, 1525815358.991, 65, 0, 1024, 1024, 1024, 1024, 0, 6, 3820, 3837, 3839, 3850, 3872, 3830, 0, 1, 16501, -89.900, 0.000, 150.000, 0.000, 0.000, -3.000, 0.0, , , , , , 98, , , 49, 49, 49
38.2848431, -120.3444668, 33.400, 14:35:59.091, 17, 0.00, 0.72, 95, 4.300, 1.600, 150.400, 590, 100, 96, 24, 22985, -21515, 5252, 5529, 9, 14, 1525815359.091, 50, 0, 1024, 1024, 1024, 1024, 0, 6, 3820, 3837, 3839, 3850, 3872, 3830, 0, 1, 16601, -89.900, 0.000, 150.000, 0.000, 0.000, -3.000, 0.0, , , , , , 98, , , 49, 49, 49
38.2848431, -120.3444668, 33.400, 14:35:59.193, 17, 0.00, 0.72, 95, 4.300, 1.600, 150.400, 590, 100, 96, 24, 22985, -21515, 5252, 5529, 9, 14, 1525815359.193, 152, 0, 1024, 1024, 1024, 1024, 0, 6, 3820, 3837, 3839, 3850, 3872, 3830, 0, 1, 16703, -89.900, 0.000, 150.000, 0.000, 0.000, -3.000, 0.0, , , , , , 98, , , 49, 49, 49
38.2848431, -120.3444668, 33.700, 14:35:59.291, 17, 0.00, 0.72, 95, 4.400, 1.600, 150.300, 590, 100, 96, 24, 22985, -21515, 5252, 5529, 9, 14, 1525815359.291, 17, 0, 1024, 1024, 1024, 1024, 0, 6, 3820, 3837, 3839, 3850, 3872, 3830, 0, 1, 16801, -89.900, 0.000, 150.000, 0.000, 0.000, -3.000, 0.0, , , , , , 98, , , 49, 49, 49
38.2848431, -120.3444668, 34.000, 14:35:59.390, 17, 0.00, 0.72, 95, 4.700, 1.800, 150.200, 590, 100, 96, 24, 22985, -21515, 5252, 5529, 9, 14, 1525815359.391, 27, 0, 1024, 1024, 1024, 1024, 0, 6, 3820, 3837, 3839, 3850, 3872, 3830, 0, 1, 16901, -89.900, 0.000, 150.000, 0.000, 0.000, -3.100, 0.0, , , , , , 98, , , 49, 49, 49
38.2848431, -120.3444667, 34.400, 14:35:59.491, 17, 0.00, 0.72, 95, 5.000, 1.800, 150.100, 590, 100, 96, 24, 22985, -21515, 5252, 5529, 9, 14, 1525815359.492, 18, 0, 1024, 1024, 1024, 1024, 0, 6, 3820, 3837, 3839, 3850, 3872, 3830, 0, 1, 17002, -89.900, 0.000, 150.000, 0.000, 0.000, -3.100, 0.0, , , , , , 98, , , 49, 49, 49
38.2848431, -120.3444667, 34.700, 14:35:59.609, 17, 0.00, 0.72, 95, 5.100, 1.900, 150.000, 590, 100, 96, 24, 23145, -19715, 5252, 5529, 9, 14, 1525815359.609, 9, 0, 1024, 1024, 1024, 1024, 0, 6, 3820, 3837, 3839, 3850, 3872, 3830, 0, 1, 17119, -89.900, 0.000, 150.000, 0.000, 0.000, -3.000, 0.0, , , , , , 98, , , 49, 49, 49
38.2848431, -120.3444667, 34.700, 14:35:59.691, 17, 0.00, 0.72, 95, 5.100, 1.900, 150.000, 590, 100, 96, 24, 23145, -19715, 5252, 5529, 9, 14, 1525815359.692, 92, 0, 1024, 1024, 1024, 1024, 0, 6, 3820, 3837, 3839, 3850, 3872, 3830, 0, 1, 17202, -89.900, 0.000, 150.000, 0.000, 0.000, -3.000, 0.0, , , , , , 98, , , 49, 49, 49
38.2848431, -120.3444667, 35.000, 14:35:59.790, 17, 0.00, 0.72, 95, 4.900, 1.900, 150.100, 590, 100, 96, 24, 23145, -19715, 5252, 5529, 9, 14, 1525815359.791, 68, 0, 1024, 1024, 1024, 1024, 0, 6, 3820, 3837, 3839, 3850, 3872, 3830, 0, 1, 17301, -89.900, 0.000, 150.000, 0.000, 0.000, -3.000, 0.0, , , , , , 98, , , 49, 49, 49
38.2848431, -120.3444666, 35.300, 14:35:59.890, 17, 0.00, 0.73, 95, 5.400, 1.800, 150.100, 590, 100, 96, 24, 23145, -19715, 5252, 5529, 9, 14, 1525815359.891, 95, 0, 1024, 1024, 1024, 1024, 0, 6, 3834, 3839, 3839, 3861, 3880, 3828, 0, 1, 17401, -89.900, 0.000, 150.000, 0.000, 0.000, -3.000, 0.0, , , , , , 98, , , 49, 49, 49
38.2848431, -120.3444665, 35.600, 14:35:59.990, 17, 0.00, 0.74, 95, 6.100, 1.700, 150.200, 590, 100, 96, 24, 23145, -19715, 5252, 5529, 9, 14, 1525815359.991, 62, 0, 1024, 1024, 1024, 1024, 0, 6, 3834, 3839, 3839, 3861, 3880, 3828, 0, 1, 17500, -89.900, 0.000, 150.000, 0.000, 0.000, -3.000, 0.0, , , , , , 98, , , 49, 49, 49
38.2848431, -120.3444664, 35.900, 14:36:00.090, 17, 0.10, 0.75, 95, 6.600, 1.900, 150.300, 590, 100, 96, 24, 23145, -19715, 5252, 5529, 9, 14, 1525815360.091, 90, 0, 1024, 1024, 1024, 1024, 0, 6, 3834, 3839, 3839, 3861, 3880, 3828, 0, 1, 17601, -89.900, 0.000, 150.000, 0.000, 0.100, -2.900, 0.1, , , , , , 98, , , 49, 49, 49
38.2848432, -120.3444662, 36.200, 14:36:00.190, 17, 0.10, 0.77, 95, 6.300, 2.100, 150.200, 590, 100, 96, 24, 23145, -19715, 5252, 5529, 9, 14, 1525815360.191, 39, 0, 1024, 1024, 1024, 1024, 0, 6, 3834, 3839, 3839, 3861, 3880, 3828, 0, 1, 17701, -89.900, 0.000, 150.000, 0.000, 0.100, -2.900, 0.1, , , , , , 98, , , 49, 49, 49
38.2848432, -120.3444660, 36.500, 14:36:00.290, 17, 0.10, 0.78, 95, 6.700, 2.300, 150.200, 590, 100, 97, 24, 23145, -19715, 5252, 5529, 9, 14, 1525815360.291, 30, 0, 1024, 1024, 1024, 1024, 0, 6, 3834, 3839, 3839, 3861, 3880, 3828, 0, 1, 17800, -89.900, 0.000, 150.000, 0.000, 0.100, -3.000, 0.1, , , , , , 98, , , 49, 49, 49
38.2848432, -120.3444659, 36.800, 14:36:00.390, 17, 0.10, 0.79, 95, 7.100, 2.300, 150.200, 590, 100, 97, 24, 23145, -19715, 5252, 5529, 9, 14, 1525815360.391, 28, 0, 1024, 1024, 1024, 1024, 0, 6, 3834, 3839, 3839, 3861, 3880, 3828, 0, 1, 17901, -89.900, 0.000, 150.000, 0.000, 0.100, -3.000, 0.1, , , , , , 98, , , 49, 49, 49
38.2848432, -120.3444658, 37.200, 14:36:00.490, 17, 0.00, 0.80, 95, 7.200, 2.500, 150.200, 590, 100, 97, 24, 23145, -19715, 5252, 5529, 9, 14, 1525815360.491, 37, 0, 1024, 1024, 1024, 1024, 0, 6, 3834, 3839, 3839, 3861, 3880, 3828, 0, 1, 18001, -89.900, 0.000, 150.000, 0.000, 0.000, -3.000, 0.0, , , , , , 98, , , 49, 49, 49
38.2848433, -120.3444657, 37.500, 14:36:00.591, 17, 0.00, 0.81, 95, 7.100, 2.600, 150.300, 590, 100, 97, 24, 23145, -19715, 5252, 5529, 9, 14, 1525815360.592, 64, 0, 1024, 1024, 1024, 1024, 0, 6, 3834, 3839, 3839, 3861, 3880, 3828, 0, 1, 18102, -89.900, 0.000, 150.000, 0.000, 0.000, -3.000, 0.0, , , , , , 98, , , 49, 49, 49
38.2848432, -120.3444656, 37.800, 14:36:00.691, 17, 0.00, 0.82, 95, 7.200, 2.600, 150.400, 590, 100, 97, 24, 22969, -21196, 5252, 5529, 9, 14, 1525815360.691, 73, 0, 1024, 1024, 1024, 1024, 0, 6, 3834, 3839, 3839, 3861, 3880, 3828, 0, 1, 18201, -89.900, 0.000, 150.000, 0.000, 0.000, -3.000, 0.0, , , , , , 98, , , 49, 49, 49
38.2848432, -120.3444656, 38.100, 14:36:00.791, 17, 0.00, 0.82, 95, 7.200, 2.700, 150.400, 590, 100, 96, 24, 22969, -21196, 5252, 5529, 9, 14, 1525815360.792, 68, 0, 1024, 1024, 1024, 1024, 0, 6, 3834, 3839, 3839, 3861, 3880, 3828, 0, 1, 18301, -89.900, 0.000, 150.000, 0.000, 0.000, -3.000, 0.0, , , , , , 98, , , 49, 49, 49
38.2848433, -120.3444655, 39.000, 14:36:00.892, 17, 0.00, 0.83, 95, 6.400, 2.000, 150.100, 590, 100, 96, 24, 22969, -21196, 5252, 5529, 9, 14, 1525815360.893, 8, 0, 1024, 1024, 1024, 1024, 0, 6, 3834, 3839, 3839, 3861, 3880, 3828, 0, 1, 18403, -89.900, 0.000, 150.000, 0.000, 0.000, -2.800, 0.0, , , , , , 98, , , 49, 49, 49
38.2848434, -120.3444655, 39.300, 14:36:00.991, 17, 0.00, 0.83, 95, 6.300, 1.600, 150.100, 590, 100, 96, 24, 22969, -21196, 5252, 5529, 9, 14, 1525815360.991, 43, 0, 1024, 1024, 1024, 1024, 0, 6, 3813, 3819, 3833, 3839, 3847, 3826, 0, 1, 18501, -90.000, 0.000, 150.000, 0.000, 0.000, -2.800, 0.0, , , , , , 98, , , 49, 49, 49
38.2848434, -120.3444656, 39.600, 14:36:01.092, 17, 0.00, 0.83, 95, 6.200, 1.500, 150.300, 590, 100, 96, 24, 22969, -21196, 5252, 5529, 9, 14, 1525815361.092, 34, 0, 1024, 1024, 1024, 1024, 0, 6, 3813, 3819, 3833, 3839, 3847, 3826, 0, 1, 18602, -90.000, 0.000, 150.000, 0.000, 0.000, -2.900, 0.0, , , , , , 98, , , 49, 49, 49
38.2848434, -120.3444657, 39.800, 14:36:01.191, 17, 0.00, 0.82, 95, 6.200, 1.500, 150.400, 590, 100, 96, 24, 22969, -21196, 5252, 5529, 9, 14, 1525815361.192, 71, 0, 1024, 1024, 1024, 1024, 0, 6, 3813, 3819, 3833, 3839, 3847, 3826, 0, 1, 18702, -89.900, 0.000, 150.000, 0.000, 0.000, -2.900, 0.0, , , , , , 98, , , 49, 49, 49
38.2848434, -120.3444657, 40.100, 14:36:01.290, 17, 0.00, 0.81, 95, 6.100, 1.700, 150.400, 590, 100, 96, 24, 22969, -21196, 5252, 5529, 9, 14, 1525815361.292, 52, 0, 1024, 1024, 1024, 1024, 0, 6, 3813, 3819, 3833, 3839, 3847, 3826, 0, 1, 18802, -89.900, 0.000, 150.000, 0.000, 0.000, -3.000, 0.0, , , , , , 98, , , 49, 49, 49
38.2848434, -120.3444657, 40.100, 14:36:01.390, 17, 0.00, 0.81, 95, 6.100, 1.700, 150.400, 590, 100, 96, 24, 22969, -21196, 5252, 5529, 9, 14, 1525815361.391, 151, 0, 1024, 1024, 1024, 1024, 0, 6, 3813, 3819, 3833, 3839, 3847, 3826, 0, 1, 18901, -89.900, 0.000, 150.000, 0.000, 0.000, -3.000, 0.0, , , , , , 98, , , 49, 49, 49
38.2848433, -120.3444659, 40.700, 14:36:01.490, 17, 0.00, 0.80, 95, 5.300, 2.100, 150.300, 590, 100, 96, 25, 22969, -21196, 5252, 5529, 9, 14, 1525815361.491, 49, 0, 1024, 1024, 1024, 1024, 0, 6, 3813, 3819, 3833, 3839, 3847, 3826, 0, 1, 19001, -89.900, 0.000, 150.000, 0.000, 0.000, -3.000, 0.0, , , , , , 98, , , 49, 49, 49
38.2848433, -120.3444659, 41.000, 14:36:01.590, 17, 0.00, 0.80, 95, 5.700, 2.000, 150.200, 590, 100, 94, 25, 22969, -21196, 5252, 5529, 9, 14, 1525815361.591, 62, 0, 1024, 1024, 1024, 1024, 0, 6, 3813, 3819, 3833, 3839, 3847, 3826, 0, 1, 19100, -89.900, 0.000, 150.000, 0.000, 0.000, -2.900, 0.0, , , , , , 98, , , 49, 49, 49
38.2848434, -120.3444659, 41.300, 14:36:01.690, 17, 0.00, 0.80, 95, 6.100, 1.900, 150.100, 590, 100, 94, 25, 22969, -21196, 5252, 5529, 9, 14, 1525815361.691, 33, 0, 1024, 1024, 1024, 1024, 0, 6, 3813, 3819, 3833, 3839, 3847, 3826, 0, 1, 19201, -89.900, 0.000, 150.000, 0.000, 0.000, -3.000, 0.0, , , , , , 98, , , 49, 49, 49
38.2848434, -120.3444660, 41.700, 14:36:01.791, 17, 0.00, 0.80, 95, 6.300, 1.600, 150.000, 590, 100, 94, 25, 22969, -21196, 5252, 5529, 9, 14, 1525815361.792, 55, 0, 1024, 1024, 1024, 1024, 0, 6, 3813, 3819, 3833, 3839, 3847, 3826, 0, 1, 19302, -90.000, 0.000, 150.000, 0.000, 0.000, -3.000, 0.0, , , , , , 98, , , 49, 49, 49
38.2848434, -120.3444660, 42.000, 14:36:01.891, 17, 0.00, 0.80, 95, 6.300, 1.200, 149.900, 590, 100, 94, 25, 22969, -21196, 5252, 5529, 9, 14, 1525815361.891, 51, 0, 1024, 1024, 1024, 1024, 0, 6, 3813, 3819, 3833, 3839, 3847, 3826, 0, 1, 19401, -89.900, 0.000, 150.000, 0.000, 0.000, -3.000, 0.0, , , , , , 98, , , 49, 49, 49
38.2848435, -120.3444660, 42.300, 14:36:01.990, 17, 0.00, 0.79, 95, 6.200, 1.100, 149.800, 590, 100, 94, 25, 22969, -21196, 5252, 5529, 9, 14, 1525815361.991, 30, 0, 1024, 1024, 1024, 1024, 0, 6, 3813, 3819, 3833, 3839, 3847, 3826, 0, 1, 19501, -89.900, 0.000, 150.000, 0.000, 0.000, -3.000, 0.0, , , , , , 98, , , 49, 49, 49
38.2848435, -120.3444661, 42.600, 14:36:02.090, 17, 0.00, 0.79, 95, 6.200, 1.000, 149.800, 590, 100, 93, 25, 22969, -21196, 5252, 5529, 9, 14, 1525815362.091, 47, 0, 1024, 1024, 1024, 1024, 0, 6, 3813, 3819, 3833, 3839, 3847, 3826, 0, 1, 19601, -90.000, 0.000, 150.000, 0.000, 0.000, -3.000, 0.0, , , , , , 98, , , 49, 49, 49
38.2848436, -120.3444662, 42.900, 14:36:02.190, 17, 0.00, 0.78, 95, 6.200, 0.900, 149.900, 590, 100, 93, 25, 22969, -21196, 5252, 5529, 9, 14, 1525815362.191, 29, 0, 1024, 1024, 1024, 1024, 0, 6, 3813, 3819, 3833, 3839, 3847, 3826, 0, 1, 19701, -89.900, 0.000, 150.000, 0.000, 0.000, -3.000, 0.0, , , , , , 98, , , 49, 49, 49
38.2848436, -120.3444664, 43.200, 14:36:02.291, 17, 0.00, 0.77, 95, 6.000, 1.000, 150.000, 590, 100, 93, 25, 22969, -21196, 5252, 5529, 9, 14, 1525815362.292, 30, 0, 1024, 1024, 1024, 1024, 0, 6, 3813, 3819, 3833, 3839, 3847, 3826, 0, 1, 19802, -89.900, 0.000, 150.000, 0.000, 0.000, -3.000, 0.0, , , , , , 98, , , 49, 49, 49
38.2848436, -120.3444665, 43.500, 14:36:02.396, 17, 0.00, 0.77, 95, 5.900, 1.100, 150.100, 590, 100, 93, 25, 22969, -21196, 5252, 5529, 9, 14, 1525815362.396, 4, 0, 1024, 1024, 1024, 1024, 0, 6, 3813, 3819, 3833, 3839, 3847, 3826, 0, 1, 19906, -89.900, 0.000, 150.000, 0.000, 0.000, -2.900, 0.0, , , , , , 98, , , 49, 49, 49
38.2848436, -120.3444665, 43.800, 14:36:02.491, 17, 0.00, 0.76, 95, 5.900, 1.300, 150.200, 590, 100, 93, 25, 22955, -21095, 5252, 5529, 9, 14, 1525815362.491, 27, 0, 1024, 1024, 1024, 1024, 0, 6, 3806, 3815, 3832, 3835, 3857, 3815, 0, 1, 20001, -89.900, 0.000, 150.000, 0.000, 0.000, -2.900, 0.0, , , , , , 98, , , 49, 49, 49
38.2848436, -120.3444665, 43.800, 14:36:02.591, 17, 0.00, 0.76, 95, 5.900, 1.300, 150.200, 590, 100, 92, 25, 22955, -21095, 5252, 5529, 9, 14, 1525815362.592, 127, 0, 1024, 1024, 1024, 1024, 0, 6, 3806, 3815, 3832, 3835, 3857, 3815, 0, 1, 20102, -89.900, 0.000, 150.000, 0.000, 0.000, -2.900, 0.0, , , , , , 98, , , 49, 49, 49
38.2848436, -120.3444666, 44.400, 14:36:02.694, 17, 0.00, 0.75, 95, 6.000, 1.400, 150.200, 590, 100, 92, 25, 22955, -21095, 5252, 5529, 9, 14, 1525815362.695, 12, 0, 1024, 1024, 1024, 1024, 0, 6, 3806, 3815, 3832, 3835, 3857, 3815, 0, 1, 20205, -89.900, 0.000, 150.000, 0.000, 0.000, -2.900, 0.0, , , , , , 98, , , 49, 49, 49
38.2848436, -120.3444667, 44.700, 14:36:02.815, 17, 0.00, 0.75, 95, 6.000, 1.600, 150.100, 590, 100, 92, 25, 22955, -21095, 5252, 5529, 9, 14, 1525815362.815, 10, 0, 1024, 1024, 1024, 1024, 0, 6, 3806, 3815, 3832, 3835, 3857, 3815, 0, 1, 20325, -89.900, 0.000, 150.000, 0.000, 0.000, -2.900, 0.0, , , , , , 98, , , 49, 49, 49
38.2848436, -120.3444667, 45.000, 14:36:02.894, 17, 0.00, 0.75, 95, 6.100, 1.800, 150.100, 590, 100, 92, 25, 22955, -21095, 5252, 5529, 9, 14, 1525815362.894, 6, 0, 1024, 1024, 1024, 1024, 0, 6, 3806, 3815, 3832, 3835, 3857, 3815, 0, 1, 20404, -89.900, 0.000, 150.000, 0.000, 0.000, -3.000, 0.0, , , , , , 98, , , 49, 49, 49
38.2848436, -120.3444667, 45.000, 14:36:02.991, 17, 0.00, 0.75, 95, 6.100, 1.800, 150.100, 590, 100, 92, 25, 22955, -21095, 5252, 5529, 9, 14, 1525815362.992, 104, 0, 1024, 1024, 1024, 1024, 0, 6, 3806, 3815, 3832, 3835, 3857, 3815, 0, 1, 20502, -89.900, 0.000, 150.000, 0.000, 0.000, -3.000, 0.0, , , , , , 98, , , 49, 49, 49
38.2848435, -120.3444667, 45.300, 14:36:03.090, 17, 0.00, 0.74, 95, 6.000, 1.900, 150.100, 590, 100, 92, 25, 22930, -21074, 5252, 5529, 9, 14, 1525815363.091, 83, 0, 1024, 1024, 1024, 1024, 0, 6, 3807, 3811, 3826, 3826, 3858, 3809, 0, 1, 20601, -89.900, 0.000, 150.000, 0.000, 0.000, -2.800, 0.0, , , , , , 98, , , 49, 49, 49
38.2848435, -120.3444668, 45.600, 14:36:03.191, 17, 0.00, 0.74, 95, 5.800, 1.900, 150.200, 590, 100, 94, 25, 22930, -21074, 5252, 5529, 9, 14, 1525815363.191, 55, 0, 1024, 1024, 1024, 1024, 0, 6, 3807, 3811, 3826, 3826, 3858, 3809, 0, 1, 20701, -89.900, 0.000, 150.000, 0.000, 0.000, -2.800, 0.0, , , , , , 98, , , 49, 49, 49
38.2848435, -120.3444669, 46.100, 14:36:03.291, 17, 0.00, 0.73, 95, 5.500, 1.700, 150.300, 590, 100, 94, 25, 22930, -21074, 5252, 5529, 9, 14, 1525815363.291, 59, 0, 1024, 1024, 1024, 1024, 0, 6, 3807, 3811, 3826, 3826, 3858, 3809, 0, 1, 20801, -89.900, 0.000, 150.000, 0.000, 0.000, -2.900, 0.0, , , , , , 98, , , 49, 49, 49
38.2848435, -120.3444669, 46.400, 14:36:03.391, 17, 0.00, 0.73, 95, 5.800, 1.600, 150.300, 590, 100, 94, 25, 22930, -21074, 5252, 5529, 9, 14, 1525815363.391, 78, 0, 1024, 1024, 1024, 1024, 0, 6, 3807, 3811, 3826, 3826, 3858, 3809, 0, 1, 20901, -89.900, 0.000, 150.000, 0.000, 0.000, -3.000, 0.0, , , , , , 98, , , 49, 49, 49
38.2848435, -120.3444669, 46.700, 14:36:03.491, 17, 0.00, 0.73, 95, 6.100, 1.600, 150.300, 590, 100, 94, 25, 22930, -21074, 5252, 5529, 9, 14, 1525815363.492, 53, 0, 1024, 1024, 1024, 1024, 0, 6, 3807, 3811, 3826, 3826, 3858, 3809, 0, 1, 21001, -89.900, 0.000, 150.000, 0.000, 0.000, -3.000, 0.0, , , , , , 98, , , 49, 49, 49
