Latitude, Longitude, Altitude (m), Time, Sats, Speed (m/s), Range (m), Battery (%), Roll (deg), Pitch (deg), Yaw (deg), Images, HD Signal (%), RC Signal (%), Battery Temp (C), Battery Voltage (mV), Battery Current (mA), Battery Energy (mAh), Battery Capacity (mAh), Battery Discharges, flyState, timestamp (Unix), LastUpdate (ms), radioChannel, Rc_elevator, Rc_aileron, Rc_throttle, Rc_rudder, Rc_gyro, Dronetype, Battery_Cell1 (mV), Battery_Cell2 (mV), Battery_Cell3 (mV), Battery_Cell4 (mV), Battery_Cell5 (mV), Battery_Cell6 (mV), Video, isFlying, elapsedTime (ms), gimbalPitch (deg), gimbalRoll (deg), gimbalYaw (deg), VelocityX (m/s), VelocityY (m/s), VelocityZ (m/s), GroundSmear (cm), App Version, Aircraft Name, Aircraft Firmware, Aircraft Serial Number, Battery Serial Number, Battery Lifetime (%), App_Tip, App_Warning, CurrentFlightStartingIndex, CurrentFlightLastVisitedWaypoint, PreviousFlightEndingWaypointIndex
38.2848469, -120.3444680, 0.000, 12:55:41.589, 15, 0.10, 0.14, 98, -0.400, -0.100, 147.100, 2, 100, 100, 24, 25382, -4018, 5399, 5510, 10, 11, 1525809341.589, 11, 0, 1024, 1024, 1024, 1024, 0, 6, 4245, 4255, 4218, 4282, 4281, 4245, 0, 1, 3475, -89.900, 0.000, 146.100, 0.000, 0.100, -0.300, 0.0, MapPilot_2.8.1_04242018, Dendroctonus I, 1.3.1.00, 041DDC1887, 1058163200505, 98, DJI_0001.jpg, Starting Mission from Lat/Long: 38.28483/-120.34449 Camera: Zenmuse X3 - Overlap: 90/90 - Active Connection: No, 0, 0, 0
38.2848469, -120.3444680, 0.000, 12:55:41.615, 15, 0.10, 0.14, 98, -0.400, -0.100, 147.100, 2, 100, 100, 24, 25382, -4018, 5399, 5510, 10, 11, 1525809341.616, 37, 0, 1024, 1024, 1024, 1024, 0, 6, 4245, 4255, 4218, 4282, 4281, 4245, 0, 1, 3501, -89.900, 0.000, 146.100, 0.000, 0.100, -0.300, 0.0, , , , , , 98, , , 0, 0, 0
38.2848469, -120.3444679, 0.000, 12:55:41.715, 15, 0.10, 0.15, 98, -0.300, 0.000, 147.100, 2, 100, 100, 24, 25382, -4018, 5399, 5510, 10, 11, 1525809341.718, 34, 0, 1024, 1024, 1024, 1024, 0, 6, 4245, 4255, 4218, 4282, 4281, 4245, 0, 1, 3604, -89.900, 0.000, 146.000, 0.000, 0.100, -0.300, 0.0, , , , , , 98, , , 0, 0, 0
38.2848469, -120.3444679, 0.000, 12:55:41.815, 15, 0.10, 0.15, 98, -0.300, 0.000, 147.100, 2, 100, 100, 24, 25382, -4018, 5399, 5510, 10, 11, 1525809341.818, 134, 0, 1024, 1024, 1024, 1024, 0, 6, 4245, 4255, 4218, 4282, 4281, 4245, 0, 1, 3704, -89.900, 0.000, 146.000, 0.000, 0.100, -0.300, 0.0, , , , , , 98, , , 0, 0, 0
38.2848471, -120.3444674, 0.100, 12:55:41.915, 15, 0.10, 0.17, 98, 0.700, 0.200, 147.200, 2, 100, 100, 24, 25382, -4018, 5399, 5510, 10, 11, 1525809341.917, 87, 0, 1024, 1024, 1024, 1024, 0, 6, 4245, 4255, 4218, 4282, 4281, 4245, 0, 1, 3803, -89.900, 0.000, 146.000, 0.000, 0.100, -0.400, 0.0, , , , , , 98, , , 0, 0, 0
38.2848474, -120.3444668, 0.200, 12:55:42.018, 14, 0.10, 0.21, 98, 2.000, 0.700, 147.200, 2, 100, 100, 24, 25382, -4018, 5399, 5510, 10, 11, 1525809342.019, 17, 0, 1024, 1024, 1024, 1024, 0, 6, 4245, 4255, 4218, 4282, 4281, 4245, 0, 1, 3905, -89.900, 0.000, 146.100, 0.000, 0.100, -0.400, 0.0, , , , , , 98, , , 0, 0, 0
38.2848474, -120.3444668, 0.200, 12:55:42.116, 14, 0.10, 0.21, 98, 2.000, 0.700, 147.200, 2, 100, 100, 24, 25382, -4018, 5399, 5510, 10, 11, 1525809342.116, 114, 0, 1024, 1024, 1024, 1024, 0, 6, 4245, 4255, 4218, 4282, 4281, 4245, 0, 1, 4002, -89.900, 0.000, 146.100, 0.000, 0.100, -0.400, 0.0, , , , , , 98, , , 0, 0, 0
38.2848474, -120.3444665, 0.400, 12:55:42.216, 15, 0.10, 0.23, 98, 2.200, 0.500, 147.200, 2, 100, 100, 24, 25382, -4018, 5399, 5510, 10, 11, 1525809342.217, 43, 0, 1024, 1024, 1024, 1024, 0, 6, 4245, 4255, 4218, 4282, 4281, 4245, 0, 1, 4103, -89.900, 0.000, 146.000, 0.000, 0.100, -0.400, 0.0, , , , , , 98, , , 0, 0, 0
38.2848476, -120.3444660, 0.500, 12:55:42.316, 15, 0.10, 0.27, 98, 2.000, 1.000, 147.400, 2, 100, 100, 24, 25196, -5937, 5399, 5510, 10, 11, 1525809342.318, 30, 0, 1024, 1024, 1024, 1024, 0, 6, 4245, 4255, 4218, 4282, 4281, 4245, 0, 1, 4203, -89.900, 0.000, 146.000, 0.000, 0.100, -0.400, 0.0, , , , , , 98, , , 0, 0, 0
38.2848476, -120.3444660, 0.500, 12:55:42.417, 15, 0.10, 0.27, 98, 2.000, 1.000, 147.400, 2, 100, 100, 24, 25196, -5937, 5399, 5510, 10, 11, 1525809342.418, 130, 0, 1024, 1024, 1024, 1024, 0, 6, 4149, 4143, 4132, 4176, 4168, 4158, 0, 1, 4304, -89.900, 0.000, 146.000, 0.000, 0.100, -0.400, 0.0, , , , , , 98, , , 0, 0, 0
38.2848476, -120.3444657, 0.600, 12:55:42.516, 15, 0.10, 0.28, 98, 1.600, 0.900, 147.500, 2, 100, 100, 24, 25196, -5937, 5399, 5510, 10, 11, 1525809342.520, 14, 0, 1024, 1024, 1024, 1024, 0, 6, 4149, 4143, 4132, 4176, 4168, 4158, 0, 1, 4405, -89.900, 0.000, 146.000, 0.000, 0.100, -0.400, 0.0, , , , , , 98, , , 0, 0, 0
38.2848477, -120.3444657, 0.600, 12:55:42.615, 15, 0.10, 0.29, 98, 1.400, 0.800, 147.500, 2, 100, 100, 24, 25196, -5937, 5399, 5510, 10, 11, 1525809342.617, 35, 0, 1024, 1024, 1024, 1024, 0, 6, 4149, 4143, 4132, 4176, 4168, 4158, 0, 1, 4503, -89.900, 0.000, 146.000, 0.000, 0.100, -0.400, 0.0, , , , , , 98, , , 0, 0, 0
38.2848477, -120.3444657, 0.600, 12:55:42.714, 15, 0.10, 0.29, 98, 1.400, 0.800, 147.500, 2, 100, 100, 24, 25196, -5937, 5399, 5510, 10, 11, 1525809342.715, 133, 0, 1024, 1024, 1024, 1024, 0, 6, 4149, 4143, 4132, 4176, 4168, 4158, 0, 1, 4601, -89.900, 0.000, 146.000, 0.000, 0.100, -0.400, 0.0, , , , , , 98, , , 0, 0, 0
38.2848478, -120.3444656, 0.700, 12:55:42.814, 15, 0.00, 0.30, 98, 1.300, 0.500, 147.500, 2, 100, 100, 24, 25196, -5937, 5399, 5510, 10, 11, 1525809342.815, 95, 0, 1024, 1024, 1024, 1024, 0, 6, 4149, 4143, 4132, 4176, 4168, 4158, 0, 1, 4701, -89.900, 0.000, 146.100, 0.000, 0.000, -0.500, 0.0, , , , , , 98, , , 0, 0, 0
38.2848478, -120.3444654, 0.700, 12:55:42.915, 15, 0.10, 0.31, 98, 1.400, 0.500, 147.500, 2, 100, 100, 24, 25196, -5937, 5399, 5510, 10, 11, 1525809342.918, 99, 0, 1024, 1024, 1024, 1024, 0, 6, 4149, 4143, 4132, 4176, 4168, 4158, 0, 1, 4803, -89.900, 0.000, 146.000, 0.000, 0.100, -0.500, 0.0, , , , , , 98, , , 0, 0, 0
38.2848478, -120.3444652, 0.800, 12:55:43.016, 15, 0.10, 0.32, 98, 1.600, 0.600, 147.500, 2, 100, 100, 24, 25196, -5937, 5399, 5510, 10, 11, 1525809343.018, 54, 0, 1024, 1024, 1024, 1024, 0, 6, 4149, 4143, 4132, 4176, 4168, 4158, 0, 1, 4904, -89.900, 0.000, 146.100, 0.000, 0.100, -0.500, 0.0, , , , , , 98, , , 0, 0, 0
38.2848479, -120.3444651, 0.800, 12:55:43.115, 15, 0.10, 0.34, 98, 1.700, 0.800, 147.500, 2, 100, 100, 24, 25196, -5937, 5399, 5510, 10, 11, 1525809343.118, 82, 0, 1024, 1024, 1024, 1024, 0, 6, 4149, 4143, 4132, 4176, 4168, 4158, 0, 1, 5004, -89.900, 0.000, 146.000, 0.000, 0.100, -0.500, 0.0, , , , , , 98, , , 0, 0, 0
38.2848480, -120.3444650, 0.900, 12:55:43.222, 15, 0.00, 0.35, 98, 1.800, 0.900, 147.400, 2, 100, 100, 24, 25196, -5937, 5399, 5510, 10, 14, 1525809343.223, 5, 0, 1024, 1024, 1024, 1024, 0, 6, 4149, 4143, 4132, 4176, 4168, 4158, 0, 1, 5109, -89.900, 0.000, 146.100, 0.000, 0.000, -0.500, 0.0, , , , , , 98, , , 0, 0, 0
38.2848479, -120.3444649, 1.000, 12:55:43.322, 15, 0.00, 0.36, 98, 1.800, 1.200, 147.200, 2, 100, 100, 24, 25196, -5937, 5399, 5510, 10, 14, 1525809343.322, 5, 0, 1024, 1024, 1024, 1024, 0, 6, 4149, 4143, 4132, 4176, 4168, 4158, 0, 1, 5208, -89.900, 0.000, 146.100, 0.000, 0.000, -0.400, 0.0, , , , , , 98, , , 0, 0, 0
38.2848479, -120.3444648, 1.000, 12:55:43.415, 15, 0.00, 0.36, 98, 1.500, 1.500, 147.000, 2, 100, 100, 24, 24264, -16422, 5399, 5510, 10, 14, 1525809343.416, 33, 0, 1024, 1024, 1024, 1024, 0, 6, 4021, 4019, 4024, 4058, 4053, 4032, 0, 1, 5302, -89.900, 0.000, 146.100, 0.000, 0.000, -0.200, 0.0, , , , , , 98, , , 0, 0, 0
38.2848479, -120.3444648, 1.000, 12:55:43.515, 15, 0.00, 0.36, 98, 1.500, 1.500, 147.000, 2, 100, 100, 24, 24264, -16422, 5399, 5510, 10, 14, 1525809343.516, 134, 0, 1024, 1024, 1024, 1024, 0, 6, 4021, 4019, 4024, 4058, 4053, 4032, 0, 1, 5402, -89.900, 0.000, 146.100, 0.000, 0.000, -0.200, 0.0, , , , , , 98, , , 0, 0, 0
38.2848479, -120.3444648, 1.000, 12:55:43.615, 15, 0.00, 0.36, 98, 1.300, 1.400, 146.800, 2, 100, 100, 24, 24264, -16422, 5399, 5510, 10, 14, 1525809343.616, 40, 0, 1024, 1024, 1024, 1024, 0, 6, 4021, 4019, 4024, 4058, 4053, 4032, 0, 1, 5501, -89.900, 0.000, 146.100, 0.000, 0.000, -0.200, 0.0, , , , , , 98, , , 0, 0, 0
38.2848480, -120.3444647, 1.100, 12:55:43.720, 15, 0.00, 0.37, 98, 1.000, 1.000, 146.500, 2, 100, 100, 24, 24264, -16422, 5399, 5510, 10, 14, 1525809343.721, 5, 0, 1024, 1024, 1024, 1024, 0, 6, 4021, 4019, 4024, 4058, 4053, 4032, 0, 1, 5607, -89.900, 0.000, 146.100, 0.000, 0.000, -0.400, 0.0, , , , , , 98, , , 0, 0, 0
38.2848481, -120.3444647, 1.100, 12:55:43.815, 15, 0.00, 0.38, 98, 1.100, 0.700, 146.500, 2, 100, 100, 24, 24264, -16422, 5399, 5510, 10, 14, 1525809343.815, 31, 0, 1024, 1024, 1024, 1024, 0, 6, 4021, 4019, 4024, 4058, 4053, 4032, 0, 1, 5701, -90.000, 0.000, 146.100, 0.000, 0.000, -0.500, 0.0, , , , , , 98, , , 0, 0, 0
38.2848481, -120.3444647, 1.100, 12:55:43.915, 15, 0.00, 0.38, 98, 1.100, 0.700, 146.500, 2, 100, 100, 24, 24264, -16422, 5399, 5510, 10, 14, 1525809343.915, 131, 0, 1024, 1024, 1024, 1024, 0, 6, 4021, 4019, 4024, 4058, 4053, 4032, 0, 1, 5801, -90.000, 0.000, 146.100, 0.000, 0.000, -0.500, 0.0, , , , , , 98, , , 0, 0, 0
38.2848481, -120.3444646, 1.200, 12:55:44.015, 15, 0.00, 0.38, 98, 1.100, 0.400, 146.400, 2, 100, 100, 24, 24264, -16422, 5399, 5510, 10, 14, 1525809344.017, 51, 0, 1024, 1024, 1024, 1024, 0, 6, 4021, 4019, 4024, 4058, 4053, 4032, 0, 1, 5902, -90.000, 0.000, 146.100, 0.000, 0.000, -0.700, 0.0, , , , , , 98, , , 0, 0, 0
38.2848481, -120.3444646, 1.300, 12:55:44.115, 15, 0.00, 0.39, 98, 1.100, 0.200, 146.400, 2, 100, 100, 24, 24264, -16422, 5399, 5510, 10, 14, 1525809344.116, 82, 0, 1024, 1024, 1024, 1024, 0, 6, 4021, 4019, 4024, 4058, 4053, 4032, 0, 1, 6001, -90.000, 0.000, 146.100, 0.000, 0.000, -0.900, 0.0, , , , , , 98, , , 0, 0, 0
38.2848482, -120.3444646, 1.400, 12:55:44.215, 15, 0.00, 0.39, 98, 1.000, 0.200, 146.400, 2, 100, 100, 24, 24264, -16422, 5399, 5510, 10, 14, 1525809344.215, 32, 0, 1024, 1024, 1024, 1024, 0, 6, 4021, 4019, 4024, 4058, 4053, 4032, 0, 1, 6101, -90.000, 0.000, 146.100, 0.000, 0.000, -1.100, 0.0, , , , , , 98, , , 0, 0, 0
38.2848482, -120.3444646, 1.600, 12:55:44.315, 15, 0.00, 0.40, 98, 1.000, 0.300, 146.400, 2, 100, 100, 24, 24264, -16422, 5399, 5510, 10, 14, 1525809344.315, 20, 0, 1024, 1024, 1024, 1024, 0, 6, 4021, 4019, 4024, 4058, 4053, 4032, 0, 1, 6201, -89.900, 0.000, 146.100, 0.000, 0.000, -1.300, 0.0, , , , , , 98, , , 0, 0, 0
38.2848482, -120.3444645, 1.700, 12:55:44.415, 15, 0.00, 0.41, 98, 1.000, 0.500, 146.500, 2, 100, 97, 24, 24144, -16634, 5344, 5510, 10, 14, 1525809344.415, 55, 0, 1024, 1024, 1024, 1024, 0, 6, 4004, 4012, 4006, 4051, 4049, 4010, 0, 1, 6301, -89.900, 0.000, 146.100, 0.000, 0.000, -1.500, 0.0, , , , , , 98, , , 0, 0, 0
38.2848482, -120.3444643, 2.300, 12:55:44.515, 15, 0.00, 0.41, 98, 1.300, 1.100, 146.700, 2, 100, 97, 24, 24144, -16634, 5344, 5510, 10, 14, 1525809344.516, 22, 0, 1024, 1024, 1024, 1024, 0, 6, 4004, 4012, 4006, 4051, 4049, 4010, 0, 1, 6401, -89.900, 0.000, 146.100, 0.000, 0.000, -2.200, 0.0, , , , , , 98, , , 0, 0, 0
38.2848482, -120.3444642, 2.600, 12:55:44.614, 15, 0.00, 0.42, 98, 1.200, 1.000, 146.600, 2, 100, 97, 24, 24144, -16634, 5344, 5510, 10, 14, 1525809344.615, 53, 0, 1024, 1024, 1024, 1024, 0, 6, 4004, 4012, 4006, 4051, 4049, 4010, 0, 1, 6500, -89.900, 0.000, 146.100, 0.000, 0.000, -2.400, 0.0, , , , , , 98, , , 0, 0, 0
38.2848482, -120.3444642, 2.800, 12:55:44.715, 14, 0.00, 0.42, 97, 1.100, 0.800, 146.600, 2, 100, 97, 24, 24144, -16634, 5344, 5510, 10, 14, 1525809344.715, 81, 0, 1024, 1024, 1024, 1024, 0, 6, 4004, 4012, 4006, 4051, 4049, 4010, 0, 1, 6601, -89.900, 0.000, 146.100, 0.000, 0.000, -2.600, 0.0, , , , , , 98, , , 0, 0, 0
38.2848482, -120.3444641, 3.100, 12:55:44.815, 14, 0.00, 0.43, 97, 1.000, 0.900, 146.700, 2, 100, 97, 24, 24144, -16634, 5344, 5510, 10, 14, 1525809344.816, 81, 0, 1024, 1024, 1024, 1024, 0, 6, 4004, 4012, 4006, 4051, 4049, 4010, 0, 1, 6701, -89.900, 0.000, 146.100, 0.000, 0.000, -2.800, 0.0, , , , , , 98, , , 0, 0, 0
38.2848481, -120.3444641, 3.700, 12:55:44.915, 14, 0.00, 0.42, 97, 1.300, 0.800, 146.900, 2, 100, 97, 24, 24144, -16634, 5344, 5510, 10, 14, 1525809344.916, 62, 0, 1024, 1024, 1024, 1024, 0, 6, 4004, 4012, 4006, 4051, 4049, 4010, 0, 1, 6801, -89.900, 0.000, 146.100, 0.000, 0.000, -3.100, 0.0, , , , , , 98, , , 0, 0, 0
38.2848481, -120.3444641, 4.000, 12:55:45.015, 15, 0.00, 0.42, 97, 0.900, 1.000, 147.000, 2, 100, 97, 24, 24144, -16634, 5344, 5510, 10, 14, 1525809345.015, 75, 0, 1024, 1024, 1024, 1024, 0, 6, 4004, 4012, 4006, 4051, 4049, 4010, 0, 1, 6901, -89.900, 0.000, 146.100, 0.000, 0.000, -3.200, 0.0, , , , , , 98, , , 0, 0, 0
38.2848480, -120.3444641, 4.400, 12:55:45.116, 15, 0.00, 0.42, 97, 0.700, 1.100, 147.000, 2, 100, 97, 24, 23871, -23834, 5344, 5510, 10, 14, 1525809345.116, 43, 0, 1024, 1024, 1024, 1024, 0, 6, 3879, 3959, 3920, 4002, 3987, 3944, 0, 1, 7002, -89.900, 0.000, 146.100, 0.000, 0.000, -3.200, 0.0, , , , , , 98, , , 0, 0, 0
38.2848480, -120.3444641, 4.700, 12:55:45.214, 15, 0.00, 0.41, 97, 0.600, 1.100, 147.000, 2, 100, 100, 24, 23871, -23834, 5344, 5510, 10, 14, 1525809345.214, 34, 0, 1024, 1024, 1024, 1024, 0, 6, 3879, 3959, 3920, 4002, 3987, 3944, 0, 1, 7100, -89.900, 0.000, 146.100, 0.000, 0.000, -3.200, 0.0, , , , , , 98, , , 0, 0, 0
38.2848479, -120.3444641, 5.100, 12:55:45.315, 15, 0.00, 0.41, 97, 0.400, 1.200, 146.900, 2, 100, 100, 24, 23871, -23834, 5344, 5510, 10, 14, 1525809345.316, 56, 0, 1024, 1024, 1024, 1024, 0, 6, 3879, 3959, 3920, 4002, 3987, 3944, 0, 1, 7201, -89.900, 0.000, 146.100, 0.000, 0.000, -3.200, 0.0, , , , , , 98, , , 0, 0, 0
38.2848479, -120.3444642, 5.400, 12:55:45.414, 12, 0.00, 0.40, 97, 0.200, 1.200, 146.700, 2, 100, 100, 24, 23871, -23834, 5344, 5510, 10, 14, 1525809345.415, 19, 0, 1024, 1024, 1024, 1024, 0, 6, 3879, 3959, 3920, 4002, 3987, 3944, 0, 1, 7301, -89.900, 0.000, 146.100, 0.000, 0.000, -3.200, 0.0, , , , , , 98, , , 0, 0, 0
38.2848480, -120.3444643, 5.800, 12:55:45.515, 12, 0.00, 0.40, 97, 0.200, 1.100, 146.600, 2, 100, 100, 24, 23871, -23834, 5344, 5510, 10, 14, 1525809345.515, 49, 0, 1024, 1024, 1024, 1024, 0, 6, 3879, 3959, 3920, 4002, 3987, 3944, 0, 1, 7401, -89.900, 0.000, 146.100, 0.000, 0.000, -3.200, 0.0, , , , , , 98, , , 0, 0, 0
38.2848480, -120.3444644, 6.100, 12:55:45.614, 13, 0.00, 0.39, 97, 0.200, 0.800, 146.500, 2, 100, 100, 24, 23871, -23834, 5344, 5510, 10, 14, 1525809345.615, 14, 0, 1024, 1024, 1024, 1024, 0, 6, 3879, 3959, 3920, 4002, 3987, 3944, 0, 1, 7501, -90.000, 0.000, 146.100, 0.000, 0.000, -3.100, 0.0, , , , , , 98, , , 0, 0, 0
38.2848480, -120.3444645, 6.400, 12:55:45.715, 13, 0.00, 0.38, 97, 0.200, 0.300, 146.500, 2, 100, 100, 24, 23871, -23834, 5344, 5510, 10, 14, 1525809345.715, 29, 0, 1024, 1024, 1024, 1024, 0, 6, 3879, 3959, 3920, 4002, 3987, 3944, 0, 1, 7601, -90.000, 0.000, 146.100, 0.000, 0.000, -3.100, 0.0, , , , , , 98, , , 0, 0, 0
38.2848480, -120.3444647, 6.700, 12:55:45.815, 13, 0.00, 0.37, 97, 0.100, 0.100, 146.500, 2, 100, 100, 24, 23871, -23834, 5344, 5510, 10, 14, 1525809345.815, 21, 0, 1024, 1024, 1024, 1024, 0, 6, 3879, 3959, 3920, 4002, 3987, 3944, 0, 1, 7701, -89.900, 0.000, 146.100, 0.000, 0.000, -3.200, 0.0, , , , , , 98, , , 0, 0, 0
38.2848479, -120.3444649, 7.100, 12:55:45.914, 13, 0.00, 0.35, 97, 0.000, 0.100, 146.600, 2, 100, 100, 24, 23871, -23834, 5344, 5510, 10, 14, 1525809345.915, 10, 0, 1024, 1024, 1024, 1024, 0, 6, 3879, 3959, 3920, 4002, 3987, 3944, 0, 1, 7801, -90.000, 0.000, 146.100, 0.000, 0.000, -3.100, 0.0, , , , , , 98, , , 0, 0, 0
38.2848478, -120.3444651, 7.400, 12:55:46.015, 13, 0.00, 0.33, 97, -0.600, 0.100, 146.700, 2, 100, 100, 24, 23871, -23834, 5344, 5510, 10, 14, 1525809346.016, 17, 0, 1024, 1024, 1024, 1024, 0, 6, 3879, 3959, 3920, 4002, 3987, 3944, 0, 1, 7901, -89.900, 0.000, 146.100, 0.000, 0.000, -3.100, 0.0, , , , , , 98, , , 0, 0, 0
38.2848478, -120.3444651, 7.400, 12:55:46.115, 13, 0.00, 0.33, 97, -0.600, 0.100, 146.700, 2, 100, 100, 24, 23871, -23834, 5344, 5510, 10, 14, 1525809346.115, 116, 0, 1024, 1024, 1024, 1024, 0, 6, 3879, 3959, 3920, 4002, 3987, 3944, 0, 1, 8001, -89.900, 0.000, 146.100, 0.000, 0.000, -3.100, 0.0, , , , , , 98, , , 0, 0, 0
38.2848477, -120.3444653, 7.700, 12:55:46.215, 13, 0.00, 0.31, 97, -0.900, 0.300, 146.700, 2, 100, 100, 24, 23720, -19366, 5344, 5510, 10, 14, 1525809346.216, 74, 0, 1024, 1024, 1024, 1024, 0, 6, 3879, 3959, 3920, 4002, 3987, 3944, 0, 1, 8102, -89.900, 0.000, 146.100, 0.000, 0.000, -3.100, 0.0, , , , , , 98, , , 0, 0, 0
38.2848476, -120.3444654, 8.100, 12:55:46.315, 14, 0.00, 0.30, 97, -1.100, 0.700, 146.800, 2, 100, 100, 24, 23720, -19366, 5344, 5510, 10, 14, 1525809346.316, 52, 0, 1024, 1024, 1024, 1024, 0, 6, 3879, 3959, 3920, 4002, 3987, 3944, 0, 1, 8201, -89.900, 0.000, 146.100, 0.000, 0.000, -3.100, 0.0, , , , , , 98, , , 0, 0, 0
38.2848476, -120.3444655, 8.400, 12:55:46.414, 14, 0.00, 0.29, 97, -1.300, 1.000, 147.000, 2, 100, 100, 24, 23720, -19366, 5344, 5510, 10, 14, 1525809346.415, 41, 0, 1024, 1024, 1024, 1024, 0, 6, 3879, 3959, 3920, 4002, 3987, 3944, 0, 1, 8301, -89.900, 0.000, 146.100, 0.000, 0.000, -3.100, 0.0, , , , , , 98, , , 0, 0, 0
38.2848476, -120.3444656, 8.700, 12:55:46.529, 14, 0.00, 0.28, 97, -1.200, 1.200, 147.200, 2, 100, 100, 24, 23720, -19366, 5344, 5510, 10, 14, 1525809346.529, 13, 0, 1024, 1024, 1024, 1024, 0, 6, 3879, 3959, 3920, 4002, 3987, 3944, 0, 1, 8415, -89.900, 0.000, 146.100, 0.000, 0.000, -3.100, 0.0, , , , , , 98, , , 0, 0, 0
38.2848476, -120.3444656, 8.700, 12:55:46.615, 14, 0.00, 0.28, 97, -1.200, 1.200, 147.200, 2, 100, 100, 24, 23720, -19366, 5344, 5510, 10, 14, 1525809346.615, 99, 0, 1024, 1024, 1024, 1024, 0, 6, 3879, 3959, 3920, 4002, 3987, 3944, 0, 1, 8501, -89.900, 0.000, 146.100, 0.000, 0.000, -3.100, 0.0, , , , , , 98, , , 0, 0, 0
38.2848475, -120.3444657, 9.000, 12:55:46.715, 14, 0.00, 0.27, 97, -0.800, 1.200, 147.400, 2, 100, 100, 24, 23720, -19366, 5344, 5510, 10, 14, 1525809346.715, 67, 0, 1024, 1024, 1024, 1024, 0, 6, 3879, 3959, 3920, 4002, 3987, 3944, 0, 1, 8601, -89.900, 0.000, 146.100, 0.000, 0.000, -3.100, 0.0, , , , , , 98, , , 0, 0, 0
38.2848475, -120.3444658, 9.400, 12:55:46.815, 15, 0.00, 0.27, 97, -0.500, 1.300, 147.500, 2, 100, 100, 24, 23720, -19366, 5344, 5510, 10, 14, 1525809346.816, 50, 0, 1024, 1024, 1024, 1024, 0, 6, 3934, 3942, 3934, 3984, 3955, 3897, 0, 1, 8701, -89.900, 0.000, 146.100, 0.000, 0.000, -3.000, 0.0, , , , , , 98, , , 0, 0, 0
38.2848476, -120.3444658, 9.700, 12:55:46.914, 15, 0.00, 0.27, 97, -0.300, 1.000, 147.400, 2, 100, 100, 24, 23720, -19366, 5344, 5510, 10, 14, 1525809346.915, 35, 0, 1024, 1024, 1024, 1024, 0, 6, 3934, 3942, 3934, 3984, 3955, 3897, 0, 1, 8801, -89.900, 0.000, 146.100, 0.000, 0.000, -3.000, 0.0, , , , , , 98, , , 0, 0, 0
38.2848476, -120.3444658, 10.000, 12:55:47.015, 15, 0.00, 0.28, 97, -0.200, 0.700, 147.200, 2, 100, 100, 24, 23720, -19366, 5344, 5510, 10, 14, 1525809347.015, 82, 0, 1024, 1024, 1024, 1024, 0, 6, 3934, 3942, 3934, 3984, 3955, 3897, 0, 1, 8901, -89.900, 0.000, 146.100, 0.000, 0.000, -3.000, 0.0, , , , , , 98, , , 0, 0, 0
38.2848478, -120.3444658, 10.600, 12:55:47.116, 15, 0.00, 0.30, 97, 0.500, 0.300, 146.700, 2, 100, 100, 24, 23720, -19366, 5344, 5510, 10, 14, 1525809347.117, 25, 0, 1024, 1024, 1024, 1024, 0, 6, 3934, 3942, 3934, 3984, 3955, 3897, 0, 1, 9003, -90.000, 0.000, 146.100, 0.000, 0.000, -3.000, 0.0, , , , , , 98, , , 0, 0, 0
38.2848478, -120.3444658, 10.600, 12:55:47.215, 15, 0.00, 0.30, 97, 0.500, 0.300, 146.700, 2, 100, 100, 24, 23720, -19366, 5344, 5510, 10, 14, 1525809347.216, 123, 0, 1024, 1024, 1024, 1024, 0, 6, 3934, 3942, 3934, 3984, 3955, 3897, 0, 1, 9101, -90.000, 0.000, 146.100, 0.000, 0.000, -3.000, 0.0, , , , , , 98, , , 0, 0, 0
38.2848480, -120.3444657, 10.900, 12:55:47.315, 15, 0.00, 0.31, 97, 0.700, 0.200, 146.400, 2, 100, 100, 24, 23720, -19366, 5344, 5510, 10, 14, 1525809347.315, 32, 0, 1024, 1024, 1024, 1024, 0, 6, 3934, 3942, 3934, 3984, 3955, 3897, 0, 1, 9201, -90.000, 0.000, 146.100, 0.000, 0.000, -2.900, 0.0, , , , , , 98, , , 0, 0, 0
38.2848480, -120.3444657, 10.900, 12:55:47.415, 15, 0.00, 0.31, 97, 0.700, 0.200, 146.400, 2, 100, 100, 24, 23720, -19366, 5344, 5510, 10, 14, 1525809347.416, 133, 0, 1024, 1024, 1024, 1024, 0, 6, 3934, 3942, 3934, 3984, 3955, 3897, 0, 1, 9302, -90.000, 0.000, 146.100, 0.000, 0.000, -2.900, 0.0, , , , , , 98, , , 0, 0, 0
38.2848481, -120.3444657, 11.300, 12:55:47.515, 15, 0.00, 0.33, 97, 0.900, 0.000, 146.300, 2, 100, 99, 24, 23720, -19366, 5344, 5510, 10, 14, 1525809347.516, 70, 0, 1024, 1024, 1024, 1024, 0, 6, 3934, 3942, 3934, 3984, 3955, 3897, 0, 1, 9401, -90.000, 0.000, 146.100, 0.000, 0.000, -3.000, 0.0, , , , , , 98, , , 0, 0, 0
38.2848483, -120.3444656, 11.600, 12:55:47.614, 15, 0.00, 0.35, 97, 1.100, -0.100, 146.300, 2, 100, 99, 24, 23720, -19366, 5344, 5510, 10, 14, 1525809347.615, 72, 0, 1024, 1024, 1024, 1024, 0, 6, 3934, 3942, 3934, 3984, 3955, 3897, 0, 1, 9501, -90.000, 0.000, 146.100, 0.000, 0.000, -3.000, 0.0, , , , , , 98, , , 0, 0, 0
38.2848483, -120.3444655, 11.900, 12:55:47.715, 15, 0.00, 0.36, 97, 1.300, 0.000, 146.400, 2, 100, 99, 24, 23720, -19366, 5344, 5510, 10, 14, 1525809347.716, 73, 0, 1024, 1024, 1024, 1024, 0, 6, 3934, 3942, 3934, 3984, 3955, 3897, 0, 1, 9602, -89.900, 0.000, 146.100, 0.000, 0.000, -3.000, 0.0, , , , , , 98, , , 0, 0, 0
38.2848484, -120.3444656, 12.200, 12:55:47.816, 15, 0.00, 0.36, 97, 1.400, 0.200, 146.500, 2, 100, 99, 24, 23720, -19366, 5344, 5510, 10, 14, 1525809347.817, 82, 0, 1024, 1024, 1024, 1024, 0, 6, 3934, 3942, 3934, 3984, 3955, 3897, 0, 1, 9703, -89.900, 0.000, 146.100, 0.000, 0.000, -2.900, 0.0, , , , , , 98, , , 0, 0, 0
38.2848484, -120.3444657, 12.500, 12:55:47.915, 16, 0.00, 0.35, 97, 1.200, 0.100, 146.500, 2, 100, 99, 24, 23770, -18369, 5344, 5510, 10, 14, 1525809347.916, 49, 0, 1024, 1024, 1024, 1024, 0, 6, 3943, 3944, 3955, 3991, 3995, 3949, 0, 1, 9801, -89.900, 0.000, 146.100, 0.000, 0.000, -2.900, 0.0, , , , , , 98, , , 0, 0, 0
38.2848484, -120.3444657, 12.800, 12:55:48.017, 16, 0.00, 0.35, 97, 0.900, 0.100, 146.500, 2, 100, 97, 24, 23770, -18369, 5344, 5510, 10, 14, 1525809348.018, 46, 0, 1024, 1024, 1024, 1024, 0, 6, 3943, 3944, 3955, 3991, 3995, 3949, 0, 1, 9904, -89.900, 0.000, 146.100, 0.000, 0.000, -2.900, 0.0, , , , , , 98, , , 0, 0, 0
38.2848484, -120.3444658, 13.100, 12:55:48.116, 14, 0.00, 0.35, 97, 0.500, 0.100, 146.400, 2, 100, 97, 24, 23770, -18369, 5344, 5510, 10, 14, 1525809348.116, 74, 0, 1024, 1024, 1024, 1024, 0, 6, 3943, 3944, 3955, 3991, 3995, 3949, 0, 1, 10002, -90.000, 0.000, 146.100, 0.000, 0.000, -2.900, 0.0, , , , , , 98, , , 0, 0, 0
38.2848486, -120.3444659, 13.700, 12:55:48.215, 16, 0.00, 0.36, 97, 0.300, -0.200, 146.400, 2, 100, 97, 24, 23770, -18369, 5344, 5510, 10, 14, 1525809348.215, 33, 0, 1024, 1024, 1024, 1024, 0, 6, 3943, 3944, 3955, 3991, 3995, 3949, 0, 1, 10101, -90.000, 0.000, 146.100, 0.000, 0.000, -2.900, 0.0, , , , , , 98, , , 0, 0, 0
38.2848489, -120.3444658, 14.300, 12:55:48.330, 16, 0.00, 0.40, 97, 1.000, -0.600, 146.500, 2, 100, 97, 24, 23770, -18369, 5344, 5510, 10, 14, 1525809348.330, 7, 0, 1024, 1024, 1024, 1024, 0, 6, 3943, 3944, 3955, 3991, 3995, 3949, 0, 1, 10216, -90.000, 0.000, 146.100, 0.000, 0.000, -2.900, 0.0, , , , , , 98, , , 0, 0, 0
38.2848489, -120.3444658, 14.600, 12:55:48.415, 16, 0.00, 0.40, 97, 1.400, -0.700, 146.400, 2, 100, 97, 24, 23770, -18369, 5344, 5510, 10, 14, 1525809348.416, 48, 0, 1024, 1024, 1024, 1024, 0, 6, 3943, 3944, 3955, 3991, 3995, 3949, 0, 1, 10302, -90.000, 0.000, 146.100, 0.000, 0.000, -2.900, 0.0, , , , , , 98, , , 0, 0, 0
38.2848489, -120.3444658, 15.200, 12:55:48.515, 16, 0.00, 0.40, 97, 1.600, -0.200, 146.300, 2, 100, 97, 24, 23770, -18369, 5344, 5510, 10, 14, 1525809348.515, 9, 0, 1024, 1024, 1024, 1024, 0, 6, 3943, 3944, 3955, 3991, 3995, 3949, 0, 1, 10401, -89.900, 0.000, 146.100, 0.000, 0.000, -2.900, 0.0, , , , , , 98, , , 0, 0, 0
38.2848489, -120.3444658, 15.500, 12:55:48.615, 16, 0.00, 0.40, 97, 1.500, 0.000, 146.400, 2, 100, 97, 24, 23742, -18314, 5344, 5510, 10, 14, 1525809348.615, 24, 0, 1024, 1024, 1024, 1024, 0, 6, 3943, 3944, 3955, 3991, 3995, 3949, 0, 1, 10501, -89.900, 0.000, 146.100, 0.000, 0.000, -2.900, 0.0, , , , , , 98, , , 0, 0, 0
38.2848489, -120.3444658, 15.800, 12:55:48.717, 16, 0.00, 0.40, 97, 1.300, 0.100, 146.500, 2, 100, 100, 24, 23742, -18314, 5344, 5510, 10, 14, 1525809348.717, 14, 0, 1024, 1024, 1024, 1024, 0, 6, 3943, 3944, 3955, 3991, 3995, 3949, 0, 1, 10603, -89.900, 0.000, 146.100, 0.000, 0.000, -2.900, 0.0, , , , , , 98, , , 0, 0, 0
38.2848488, -120.3444658, 16.100, 12:55:48.815, 16, 0.00, 0.39, 97, 1.000, 0.200, 146.600, 2, 100, 100, 24, 23742, -18314, 5344, 5510, 10, 14, 1525809348.816, 17, 0, 1024, 1024, 1024, 1024, 0, 6, 3943, 3944, 3955, 3991, 3995, 3949, 0, 1, 10701, -89.900, 0.000, 146.100, 0.000, 0.000, -2.900, 0.0, , , , , , 98, , , 0, 0, 0
38.2848488, -120.3444658, 16.400, 12:55:48.915, 16, 0.00, 0.39, 97, 0.800, 0.200, 146.700, 2, 100, 100, 24, 23742, -18314, 5344, 5510, 10, 14, 1525809348.915, 7, 0, 1024, 1024, 1024, 1024, 0, 6, 3943, 3944, 3955, 3991, 3995, 3949, 0, 1, 10801, -89.900, 0.000, 146.100, 0.000, 0.000, -2.900, 0.0, , , , , , 98, , , 0, 0, 0
38.2848487, -120.3444657, 16.700, 12:55:49.015, 15, 0.00, 0.39, 97, 0.700, 0.300, 146.800, 2, 100, 100, 24, 23742, -18314, 5344, 5510, 10, 14, 1525809349.015, 14, 0, 1024, 1024, 1024, 1024, 0, 6, 3943, 3944, 3955, 3991, 3995, 3949, 0, 1, 10901, -89.900, 0.000, 146.100, 0.000, 0.000, -2.900, 0.0, , , , , , 98, , , 0, 0, 0
38.2848487, -120.3444657, 17.000, 12:55:49.116, 15, 0.00, 0.39, 97, 0.800, 0.500, 146.900, 2, 100, 99, 24, 23742, -18314, 5344, 5510, 10, 14, 1525809349.116, 5, 0, 1024, 1024, 1024, 1024, 0, 6, 3943, 3944, 3955, 3991, 3995, 3949, 0, 1, 11002, -89.900, 0.000, 146.100, 0.000, 0.000, -2.900, 0.0, , , , , , 98, , , 0, 0, 0
38.2848487, -120.3444657, 17.000, 12:55:49.215, 15, 0.00, 0.39, 97, 0.800, 0.500, 146.900, 2, 100, 99, 24, 23742, -18314, 5344, 5510, 10, 14, 1525809349.216, 105, 0, 1024, 1024, 1024, 1024, 0, 6, 3933, 3941, 3943, 3985, 3994, 3942, 0, 1, 11102, -89.900, 0.000, 146.100, 0.000, 0.000, -2.900, 0.0, , , , , , 98, , , 0, 0, 0
38.2848488, -120.3444657, 17.200, 12:55:49.315, 16, 0.00, 0.39, 97, 0.900, 0.600, 147.000, 2, 100, 99, 24, 23742, -18314, 5344, 5510, 10, 14, 1525809349.315, 69, 0, 1024, 1024, 1024, 1024, 0, 6, 3933, 3941, 3943, 3985, 3994, 3942, 0, 1, 11201, -89.900, 0.000, 146.100, 0.000, 0.000, -2.900, 0.0, , , , , , 98, , , 0, 0, 0
38.2848488, -120.3444656, 17.500, 12:55:49.415, 16, 0.00, 0.40, 97, 1.200, 0.500, 147.000, 2, 100, 99, 24, 23742, -18314, 5344, 5510, 10, 14, 1525809349.416, 87, 0, 1024, 1024, 1024, 1024, 0, 6, 3933, 3941, 3943, 3985, 3994, 3942, 0, 1, 11301, -89.900, 0.000, 146.100, 0.000, 0.000, -2.900, 0.0, , , , , , 98, , , 0, 0, 0
38.2848488, -120.3444656, 17.800, 12:55:49.515, 16, 0.00, 0.40, 97, 1.400, 0.300, 146.900, 2, 100, 99, 24, 23742, -18314, 5344, 5510, 10, 14, 1525809349.516, 75, 0, 1024, 1024, 1024, 1024, 0, 6, 3933, 3941, 3943, 3985, 3994, 3942, 0, 1, 11401, -89.900, 0.000, 146.100, 0.000, 0.000, -3.000, 0.0, , , , , , 98, , , 0, 0, 0
38.2848488, -120.3444655, 18.100, 12:55:49.615, 16, 0.00, 0.40, 97, 1.600, 0.200, 146.900, 2, 100, 99, 24, 23742, -18314, 5344, 5510, 10, 14, 1525809349.615, 77, 0, 1024, 1024, 1024, 1024, 0, 6, 3933, 3941, 3943, 3985, 3994, 3942, 0, 1, 11501, -89.900, 0.000, 146.100, 0.000, 0.000, -2.900, 0.0, , , , , , 98, , , 0, 0, 0
38.2848488, -120.3444653, 18.700, 12:55:49.715, 16, 0.00, 0.41, 97, 1.600, 0.200, 146.700, 2, 100, 99, 24, 23742, -18314, 5344, 5510, 10, 14, 1525809349.715, 74, 0, 1024, 1024, 1024, 1024, 0, 6, 3933, 3941, 3943, 3985, 3994, 3942, 0, 1, 11601, -89.900, 0.000, 146.100, 0.000, 0.000, -2.900, 0.0, , , , , , 98, , , 0, 0, 0
38.2848488, -120.3444652, 19.000, 12:55:49.815, 16, 0.00, 0.42, 97, 1.800, 0.500, 146.700, 2, 100, 99, 24, 23742, -18314, 5344, 5510, 10, 14, 1525809349.815, 76, 0, 1024, 1024, 1024, 1024, 0, 6, 3933, 3941, 3943, 3985, 3994, 3942, 0, 1, 11701, -89.900, 0.000, 146.100, 0.000, 0.000, -2.900, 0.0, , , , , , 98, , , 0, 0, 0
38.2848488, -120.3444652, 19.300, 12:55:49.915, 16, 0.00, 0.41, 97, 1.900, 0.700, 146.600, 2, 100, 99, 24, 23742, -18314, 5344, 5510, 10, 14, 1525809349.915, 67, 0, 1024, 1024, 1024, 1024, 0, 6, 3933, 3941, 3943, 3985, 3994, 3942, 0, 1, 11801, -89.900, 0.000, 146.100, 0.000, 0.000, -2.900, 0.0, , , , , , 98, , , 0, 0, 0
38.2848488, -120.3444652, 19.300, 12:55:50.015, 16, 0.00, 0.41, 97, 1.900, 0.700, 146.600, 2, 100, 99, 24, 23742, -18314, 5344, 5510, 10, 14, 1525809350.015, 167, 0, 1024, 1024, 1024, 1024, 0, 6, 3933, 3941, 3943, 3985, 3994, 3942, 0, 1, 11901, -89.900, 0.000, 146.100, 0.000, 0.000, -2.900, 0.0, , , , , , 98, , , 0, 0, 0
38.2848487, -120.3444651, 19.900, 12:55:50.115, 16, 0.00, 0.41, 97, 1.600, 0.700, 146.600, 2, 100, 99, 24, 23742, -18314, 5344, 5510, 10, 14, 1525809350.115, 29, 0, 1024, 1024, 1024, 1024, 0, 6, 3933, 3941, 3943, 3985, 3994, 3942, 0, 1, 12001, -89.900, 0.000, 146.100, 0.000, 0.000, -2.900, 0.0, , , , , , 98, , , 0, 0, 0
38.2848487, -120.3444650, 20.200, 12:55:50.215, 16, 0.00, 0.41, 97, 1.400, 0.700, 146.600, 2, 100, 100, 24, 23750, -18242, 5344, 5510, 10, 14, 1525809350.215, 22, 0, 1024, 1024, 1024, 1024, 0, 6, 3933, 3941, 3943, 3985, 3994, 3942, 0, 1, 12101, -89.900, 0.000, 146.100, 0.000, 0.000, -2.900, 0.0, , , , , , 98, , , 0, 0, 0
38.2848487, -120.3444650, 20.500, 12:55:50.315, 16, 0.00, 0.42, 97, 1.400, 0.700, 146.700, 2, 100, 100, 24, 23750, -18242, 5344, 5510, 10, 14, 1525809350.315, 36, 0, 1024, 1024, 1024, 1024, 0, 6, 3939, 3943, 3938, 3989, 3984, 3943, 0, 1, 12201, -89.900, 0.000, 146.100, 0.000, 0.000, -2.900, 0.0, , , , , , 98, , , 0, 0, 0
38.2848487, -120.3444650, 20.800, 12:55:50.415, 15, 0.00, 0.42, 97, 1.400, 0.500, 146.700, 2, 100, 100, 24, 23750, -18242, 5344, 5510, 10, 14, 1525809350.416, 36, 0, 1024, 1024, 1024, 1024, 0, 6, 3939, 3943, 3938, 3989, 3984, 3943, 0, 1, 12302, -89.900, 0.000, 146.100, 0.000, 0.000, -2.800, 0.0, , , , , , 98, , , 0, 0, 0
38.2848486, -120.3444650, 21.100, 12:55:50.515, 15, 0.00, 0.41, 97, 1.600, 0.500, 146.900, 2, 100, 100, 24, 23750, -18242, 5344, 5510, 10, 14, 1525809350.515, 36, 0, 1024, 1024, 1024, 1024, 0, 6, 3939, 3943, 3938, 3989, 3984, 3943, 0, 1, 12401, -89.900, 0.000, 146.100, 0.000, 0.000, -2.900, 0.0, , , , , , 98, , , 0, 0, 0
38.2848486, -120.3444649, 21.400, 12:55:50.615, 16, 0.00, 0.41, 97, 1.400, 0.400, 147.000, 2, 100, 100, 24, 23750, -18242, 5344, 5510, 10, 14, 1525809350.615, 39, 0, 1024, 1024, 1024, 1024, 0, 6, 3939, 3943, 3938, 3989, 3984, 3943, 0, 1, 12501, -89.900, 0.000, 146.100, 0.000, 0.000, -2.900, 0.0, , , , , , 98, , , 0, 0, 0
38.2848486, -120.3444649, 21.700, 12:55:50.715, 16, 0.00, 0.41, 97, 1.100, 0.300, 147.100, 2, 100, 100, 24, 23750, -18242, 5344, 5510, 10, 14, 1525809350.715, 28, 0, 1024, 1024, 1024, 1024, 0, 6, 3939, 3943, 3938, 3989, 3984, 3943, 0, 1, 12601, -89.900, 0.000, 146.100, 0.000, 0.000, -2.800, 0.0, , , , , , 98, , , 0, 0, 0
38.2848486, -120.3444648, 22.000, 12:55:50.815, 16, 0.00, 0.42, 97, 1.100, 0.200, 147.100, 2, 100, 100, 24, 23750, -18242, 5344, 5510, 10, 14, 1525809350.815, 35, 0, 1024, 1024, 1024, 1024, 0, 6, 3939, 3943, 3938, 3989, 3984, 3943, 0, 1, 12701, -89.900, 0.000, 146.100, 0.000, 0.000, -2.900, 0.0, , , , , , 98, , , 0, 0, 0
38.2848486, -120.3444648, 22.300, 12:55:50.915, 16, 0.00, 0.42, 97, 1.400, 0.300, 147.000, 2, 100, 100, 24, 23750, -18242, 5344, 5510, 10, 14, 1525809350.915, 14, 0, 1024, 1024, 1024, 1024, 0, 6, 3939, 3943, 3938, 3989, 3984, 3943, 0, 1, 12801, -89.900, 0.000, 146.100, 0.000, 0.000, -2.900, 0.0, , , , , , 98, , , 0, 0, 0
38.2848486, -120.3444648, 22.600, 12:55:51.014, 16, 0.00, 0.42, 97, 1.600, 0.400, 146.900, 2, 100, 100, 24, 23750, -18242, 5344, 5510, 10, 14, 1525809351.014, 5, 0, 1024, 1024, 1024, 1024, 0, 6, 3939, 3943, 3938, 3989, 3984, 3943, 0, 1, 12900, -89.900, 0.000, 146.100, 0.000, 0.000, -2.900, 0.0, , , , , , 98, , , 0, 0, 0
38.2848485, -120.3444647, 22.900, 12:55:51.115, 16, 0.00, 0.42, 97, 1.700, 0.600, 146.900, 2, 100, 100, 24, 23662, -18753, 5344, 5510, 10, 14, 1525809351.116, 34, 0, 1024, 1024, 1024, 1024, 0, 6, 3921, 3939, 3919, 3974, 3969, 3939, 0, 1, 13001, -89.900, 0.000, 146.100, 0.000, 0.000, -3.000, 0.0, , , , , , 98, , , 0, 0, 0
38.2848485, -120.3444647, 22.900, 12:55:51.215, 16, 0.00, 0.42, 97, 1.700, 0.600, 146.900, 2, 100, 100, 24, 23662, -18753, 5344, 5510, 10, 14, 1525809351.216, 134, 0, 1024, 1024, 1024, 1024, 0, 6, 3921, 3939, 3919, 3974, 3969, 3939, 0, 1, 13101, -89.900, 0.000, 146.100, 0.000, 0.000, -3.000, 0.0, , , , , , 98, , , 0, 0, 0
38.2848485, -120.3444645, 23.500, 12:55:51.318, 16, 0.00, 0.42, 97, 1.900, 1.000, 146.800, 2, 100, 99, 24, 23662, -18753, 5344, 5510, 10, 14, 1525809351.318, 4, 0, 1024, 1024, 1024, 1024, 0, 6, 3921, 3939, 3919, 3974, 3969, 3939, 0, 1, 13204, -89.900, 0.000, 146.100, 0.000, 0.000, -3.000, 0.0, , , , , , 98, , , 0, 0, 0
38.2848485, -120.3444644, 23.800, 12:55:51.415, 16, 0.00, 0.43, 97, 1.900, 1.200, 146.700, 2, 100, 99, 24, 23662, -18753, 5344, 5510, 10, 14, 1525809351.415, 13, 0, 1024, 1024, 1024, 1024, 0, 6, 3921, 3939, 3919, 3974, 3969, 3939, 0, 1, 13301, -89.900, 0.000, 146.100, 0.000, 0.000, -3.000, 0.0, , , , , , 98, , , 0, 0, 0
38.2848485, -120.3444644, 23.800, 12:55:51.515, 16, 0.00, 0.43, 97, 1.900, 1.200, 146.700, 2, 100, 99, 24, 23662, -18753, 5344, 5510, 10, 14, 1525809351.515, 113, 0, 1024, 1024, 1024, 1024, 0, 6, 3921, 3939, 3919, 3974, 3969, 3939, 0, 1, 13401, -89.900, 0.000, 146.100, 0.000, 0.000, -3.000, 0.0, , , , , , 98, , , 0, 0, 0
38.2848484, -120.3444643, 24.400, 12:55:51.614, 16, 0.00, 0.43, 97, 1.800, 1.400, 146.800, 2, 100, 98, 24, 23662, -18753, 5344, 5510, 10, 14, 1525809351.614, 8, 0, 1024, 1024, 1024, 1024, 0, 6, 3921, 3939, 3919, 3974, 3969, 3939, 0, 1, 13500, -89.900, 0.000, 146.100, 0.000, 0.000, -3.000, 0.0, , , , , , 98, , , 0, 0, 0
38.2848484, -120.3444643, 24.400, 12:55:51.715, 16, 0.00, 0.43, 97, 1.800, 1.400, 146.800, 2, 100, 98, 24, 23662, -18753, 5344, 5510, 10, 14, 1525809351.715, 109, 0, 1024, 1024, 1024, 1024, 0, 6, 3921, 3939, 3919, 3974, 3969, 3939, 0, 1, 13601, -89.900, 0.000, 146.100, 0.000, 0.000, -3.000, 0.0, , , , , , 98, , , 0, 0, 0
38.2848483, -120.3444642, 25.000, 12:55:51.815, 16, 0.00, 0.43, 97, 2.000, 1.400, 146.800, 2, 100, 98, 24, 23662, -18753, 5344, 5510, 10, 14, 1525809351.815, 3, 0, 1024, 1024, 1024, 1024, 0, 6, 3921, 3939, 3919, 3974, 3969, 3939, 0, 1, 13701, -89.900, 0.000, 146.100, 0.000, 0.000, -3.000, 0.0, , , , , , 98, , , 0, 0, 0
38.2848483, -120.3444642, 25.000, 12:55:51.915, 16, 0.00, 0.43, 97, 2.000, 1.400, 146.800, 2, 100, 98, 24, 23662, -18753, 5344, 5510, 10, 14, 1525809351.916, 104, 0, 1024, 1024, 1024, 1024, 0, 6, 3921, 3939, 3919, 3974, 3969, 3939, 0, 1, 13801, -89.900, 0.000, 146.100, 0.000, 0.000, -3.000, 0.0, , , , , , 98, , , 0, 0, 0
38.2848483, -120.3444641, 25.300, 12:55:52.015, 16, 0.00, 0.44, 97, 2.000, 1.300, 146.800, 2, 100, 98, 24, 23662, -18753, 5344, 5510, 10, 14, 1525809352.015, 95, 0, 1024, 1024, 1024, 1024, 0, 6, 3921, 3939, 3919, 3974, 3969, 3939, 0, 1, 13901, -89.900, 0.000, 146.100, 0.000, 0.000, -3.000, 0.0, , , , , , 98, , , 0, 0, 0
38.2848483, -120.3444640, 25.900, 12:55:52.115, 16, 0.00, 0.44, 97, 1.900, 1.100, 146.800, 2, 100, 98, 24, 23662, -18753, 5344, 5510, 10, 14, 1525809352.116, 82, 0, 1024, 1024, 1024, 1024, 0, 6, 3921, 3939, 3919, 3974, 3969, 3939, 0, 1, 14001, -89.900, 0.000, 146.100, 0.000, 0.000, -3.000, 0.0, , , , , , 98, , , 0, 0, 0
38.2848483, -120.3444639, 26.200, 12:55:52.215, 16, 0.00, 0.45, 97, 2.000, 1.100, 146.800, 2, 100, 98, 24, 23548, -19631, 5344, 5510, 10, 14, 1525809352.215, 70, 0, 1024, 1024, 1024, 1024, 0, 6, 3898, 3912, 3902, 3960, 3962, 3913, 0, 1, 14101, -89.900, 0.000, 146.100, 0.000, 0.000, -3.000, 0.0, , , , , , 98, , , 0, 0, 0
38.2848483, -120.3444638, 26.500, 12:55:52.314, 16, 0.00, 0.45, 97, 2.000, 1.200, 146.800, 2, 100, 98, 24, 23548, -19631, 5344, 5510, 10, 14, 1525809352.315, 77, 0, 1024, 1024, 1024, 1024, 0, 6, 3898, 3912, 3902, 3960, 3962, 3913, 0, 1, 14200, -89.900, 0.000, 146.100, 0.000, 0.000, -2.900, 0.0, , , , , , 98, , , 0, 0, 0
38.2848482, -120.3444638, 26.800, 12:55:52.414, 16, 0.00, 0.45, 97, 2.000, 1.400, 146.900, 2, 100, 98, 24, 23548, -19631, 5344, 5510, 10, 14, 1525809352.415, 82, 0, 1024, 1024, 1024, 1024, 0, 6, 3898, 3912, 3902, 3960, 3962, 3913, 0, 1, 14300, -89.900, 0.000, 146.100, 0.000, 0.000, -2.900, 0.0, , , , , , 98, , , 0, 0, 0
38.2848482, -120.3444637, 27.100, 12:55:52.514, 16, 0.00, 0.46, 97, 2.200, 1.600, 146.900, 2, 100, 98, 24, 23548, -19631, 5344, 5510, 10, 14, 1525809352.515, 36, 0, 1024, 1024, 1024, 1024, 0, 6, 3898, 3912, 3902, 3960, 3962, 3913, 0, 1, 14400, -89.900, 0.000, 146.100, 0.000, 0.000, -2.900, 0.0, , , , , , 98, , , 0, 0, 0
38.2848482, -120.3444637, 27.100, 12:55:52.615, 16, 0.00, 0.46, 97, 2.200, 1.600, 146.900, 2, 100, 98, 24, 23548, -19631, 5344, 5510, 10, 14, 1525809352.615, 137, 0, 1024, 1024, 1024, 1024, 0, 6, 3898, 3912, 3902, 3960, 3962, 3913, 0, 1, 14501, -89.900, 0.000, 146.100, 0.000, 0.000, -2.900, 0.0, , , , , , 98, , , 0, 0, 0
38.2848483, -120.3444635, 27.700, 12:55:52.714, 16, 0.00, 0.47, 97, 2.700, 1.500, 147.000, 2, 100, 99, 24, 23548, -19631, 5344, 5510, 10, 14, 1525809352.715, 55, 0, 1024, 1024, 1024, 1024, 0, 6, 3898, 3912, 3902, 3960, 3962, 3913, 0, 1, 14600, -89.900, 0.000, 146.100, 0.000, 0.000, -2.900, 0.0, , , , , , 98, , , 0, 0, 0
38.2848483, -120.3444634, 28.000, 12:55:52.815, 16, 0.00, 0.48, 97, 2.800, 1.500, 147.000, 2, 100, 99, 24, 23548, -19631, 5344, 5510, 10, 14, 1525809352.815, 58, 0, 1024, 1024, 1024, 1024, 0, 6, 3898, 3912, 3902, 3960, 3962, 3913, 0, 1, 14701, -89.900, 0.000, 146.100, 0.000, 0.000, -2.900, 0.0, , , , , , 98, , , 0, 0, 0
38.2848483, -120.3444634, 28.300, 12:55:52.915, 16, 0.00, 0.48, 97, 2.700, 1.500, 146.900, 2, 100, 99, 24, 23548, -19631, 5344, 5510, 10, 14, 1525809352.916, 41, 0, 1024, 1024, 1024, 1024, 0, 6, 3898, 3912, 3902, 3960, 3962, 3913, 0, 1, 14801, -89.900, 0.000, 146.100, 0.000, 0.000, -2.900, 0.0, , , , , , 98, , , 0, 0, 0
38.2848483, -120.3444634, 28.300, 12:55:53.015, 16, 0.00, 0.48, 97, 2.700, 1.500, 146.900, 2, 100, 99, 24, 23548, -19631, 5344, 5510, 10, 14, 1525809353.015, 141, 0, 1024, 1024, 1024, 1024, 0, 6, 3898, 3912, 3902, 3960, 3962, 3913, 0, 1, 14901, -89.900, 0.000, 146.100, 0.000, 0.000, -2.900, 0.0, , , , , , 98, , , 0, 0, 0
38.2848483, -120.3444634, 28.300, 12:55:53.115, 16, 0.00, 0.48, 97, 2.700, 1.500, 146.900, 2, 100, 99, 24, 23548, -19631, 5344, 5510, 10, 14, 1525809353.115, 241, 0, 1024, 1024, 1024, 1024, 0, 6, 3898, 3912, 3902, 3960, 3962, 3913, 0, 1, 15001, -89.900, 0.000, 146.100, 0.000, 0.000, -2.900, 0.0, , , , , , 98, , , 0, 0, 0
38.2848483, -120.3444634, 29.200, 12:55:53.215, 16, 0.00, 0.48, 97, 2.100, 1.600, 146.600, 2, 100, 99, 24, 23574, -19122, 5344, 5510, 10, 14, 1525809353.216, 14, 0, 1024, 1024, 1024, 1024, 0, 6, 3908, 3916, 3910, 3959, 3965, 3913, 0, 1, 15101, -89.900, 0.000, 146.100, 0.000, 0.000, -3.000, 0.0, , , , , , 98, , , 0, 0, 0
38.2848482, -120.3444634, 29.500, 12:55:53.315, 16, 0.00, 0.48, 97, 1.900, 1.700, 146.600, 2, 100, 99, 24, 23574, -19122, 5344, 5510, 10, 14, 1525809353.316, 19, 0, 1024, 1024, 1024, 1024, 0, 6, 3908, 3916, 3910, 3959, 3965, 3913, 0, 1, 15201, -89.900, 0.000, 146.100, 0.000, 0.000, -3.000, 0.0, , , , , , 98, , , 0, 0, 0
38.2848482, -120.3444634, 29.800, 12:55:53.428, 16, 0.00, 0.47, 97, 1.700, 1.700, 146.500, 2, 100, 99, 24, 23574, -19122, 5344, 5510, 10, 14, 1525809353.429, 10, 0, 1024, 1024, 1024, 1024, 0, 6, 3908, 3916, 3910, 3959, 3965, 3913, 0, 1, 15314, -89.900, 0.000, 146.100, 0.000, 0.000, -3.000, 0.0, , , , , , 98, , , 0, 0, 0
38.2848482, -120.3444634, 30.100, 12:55:53.515, 16, 0.00, 0.47, 97, 1.800, 1.800, 146.400, 2, 100, 99, 24, 23574, -19122, 5344, 5510, 10, 14, 1525809353.515, 13, 0, 1024, 1024, 1024, 1024, 0, 6, 3908, 3916, 3910, 3959, 3965, 3913, 0, 1, 15401, -89.900, 0.000, 146.100, 0.000, 0.000, -3.000, 0.0, , , , , , 98, , , 0, 0, 0
38.2848482, -120.3444634, 30.400, 12:55:53.614, 16, 0.00, 0.47, 97, 1.900, 1.700, 146.400, 2, 100, 99, 24, 23574, -19122, 5344, 5510, 10, 14, 1525809353.615, 6, 0, 1024, 1024, 1024, 1024, 0, 6, 3908, 3916, 3910, 3959, 3965, 3913, 0, 1, 15501, -89.900, 0.000, 146.100, 0.000, 0.000, -2.900, 0.0, , , , , , 98, , , 0, 0, 0
38.2848482, -120.3444635, 30.700, 12:55:53.715, 16, 0.00, 0.47, 97, 2.000, 1.700, 146.500, 2, 100, 99, 24, 23574, -19122, 5344, 5510, 10, 14, 1525809353.715, 12, 0, 1024, 1024, 1024, 1024, 0, 6, 3908, 3916, 3910, 3959, 3965, 3913, 0, 1, 15601, -89.900, 0.000, 146.100, 0.000, 0.000, -2.900, 0.0, , , , , , 98, , , 0, 0, 0
38.2848482, -120.3444635, 30.700, 12:55:53.815, 16, 0.00, 0.47, 97, 2.000, 1.700, 146.500, 2, 100, 99, 24, 23574, -19122, 5344, 5510, 10, 14, 1525809353.816, 112, 0, 1024, 1024, 1024, 1024, 0, 6, 3908, 3916, 3910, 3959, 3965, 3913, 0, 1, 15701, -89.900, 0.000, 146.100, 0.000, 0.000, -2.900, 0.0, , , , , , 98, , , 0, 0, 0
38.2848481, -120.3444635, 31.300, 12:55:53.915, 16, 0.00, 0.46, 97, 1.900, 1.800, 146.900, 2, 100, 99, 24, 23574, -19122, 5344, 5510, 10, 14, 1525809353.916, 7, 0, 1024, 1024, 1024, 1024, 0, 6, 3908, 3916, 3910, 3959, 3965, 3913, 0, 1, 15801, -89.900, 0.000, 146.100, 0.000, 0.000, -3.000, 0.0, , , , , , 98, , , 0, 0, 0
38.2848481, -120.3444635, 31.300, 12:55:54.015, 16, 0.00, 0.46, 97, 1.900, 1.800, 146.900, 2, 100, 99, 24, 23574, -19122, 5344, 5510, 10, 14, 1525809354.015, 106, 0, 1024, 1024, 1024, 1024, 0, 6, 3908, 3916, 3910, 3959, 3965, 3913, 0, 1, 15901, -89.900, 0.000, 146.100, 0.000, 0.000, -3.000, 0.0, , , , , , 98, , , 0, 0, 0
38.2848481, -120.3444635, 31.600, 12:55:54.115, 16, 0.00, 0.46, 97, 1.900, 1.900, 146.900, 2, 100, 99, 24, 23574, -19122, 5344, 5510, 10, 14, 1525809354.115, 97, 0, 1024, 1024, 1024, 1024, 0, 6, 3908, 3916, 3910, 3959, 3965, 3913, 0, 1, 16001, -89.900, 0.000, 146.100, 0.000, 0.000, -3.000, 0.0, , , , , , 98, , , 0, 0, 0
38.2848481, -120.3444635, 31.900, 12:55:54.215, 16, 0.00, 0.46, 97, 2.000, 1.900, 147.000, 2, 100, 99, 25, 23497, -19872, 5344, 5510, 10, 14, 1525809354.215, 93, 0, 1024, 1024, 1024, 1024, 0, 6, 3908, 3916, 3910, 3959, 3965, 3913, 0, 1, 16101, -89.900, 0.000, 146.100, 0.000, 0.000, -3.000, 0.0, , , , , , 98, , , 0, 0, 0
38.2848481, -120.3444635, 32.200, 12:55:54.315, 16, 0.00, 0.46, 97, 2.100, 1.800, 147.000, 2, 100, 99, 25, 23497, -19872, 5344, 5510, 10, 14, 1525809354.315, 71, 0, 1024, 1024, 1024, 1024, 0, 6, 3908, 3916, 3910, 3959, 3965, 3913, 0, 1, 16201, -89.900, 0.000, 146.100, 0.000, 0.000, -3.000, 0.0, , , , , , 98, , , 0, 0, 0
38.2848481, -120.3444635, 32.500, 12:55:54.415, 16, 0.00, 0.46, 97, 2.100, 1.700, 147.000, 2, 100, 99, 25, 23497, -19872, 5344, 5510, 10, 14, 1525809354.416, 72, 0, 1024, 1024, 1024, 1024, 0, 6, 3908, 3916, 3910, 3959, 3965, 3913, 0, 1, 16301, -89.900, 0.000, 146.100, 0.000, 0.000, -3.000, 0.0, , , , , , 98, , , 0, 0, 0
38.2848481, -120.3444637, 33.100, 12:55:54.515, 16, 0.00, 0.45, 97, 2.100, 1.400, 146.900, 2, 100, 99, 25, 23497, -19872, 5344, 5510, 10, 14, 1525809354.515, 36, 0, 1024, 1024, 1024, 1024, 0, 6, 3908, 3916, 3910, 3959, 3965, 3913, 0, 1, 16401, -89.900, 0.000, 146.100, 0.000, 0.000, -3.100, 0.0, , , , , , 98, , , 0, 0, 0
38.2848481, -120.3444638, 33.400, 12:55:54.615, 16, 0.00, 0.44, 97, 2.000, 1.200, 146.800, 2, 100, 99, 25, 23497, -19872, 5344, 5510, 10, 14, 1525809354.615, 66, 0, 1024, 1024, 1024, 1024, 0, 6, 3908, 3916, 3910, 3959, 3965, 3913, 0, 1, 16501, -89.900, 0.000, 146.100, 0.000, 0.000, -3.100, 0.0, , , , , , 98, , , 0, 0, 0
38.2848482, -120.3444638, 33.800, 12:55:54.715, 16, 0.00, 0.44, 96, 1.700, 0.900, 146.700, 2, 100, 98, 25, 23497, -19872, 5289, 5510, 10, 14, 1525809354.716, 67, 0, 1024, 1024, 1024, 1024, 0, 6, 3903, 3900, 3903, 3944, 3945, 3902, 0, 1, 16601, -90.000, 0.000, 146.100, 0.000, 0.000, -3.000, 0.0, , , , , , 98, , , 0, 0, 0
38.2848482, -120.3444638, 33.800, 12:55:54.815, 16, 0.00, 0.44, 96, 1.700, 0.900, 146.700, 2, 100, 98, 25, 23497, -19872, 5289, 5510, 10, 14, 1525809354.815, 166, 0, 1024, 1024, 1024, 1024, 0, 6, 3903, 3900, 3903, 3944, 3945, 3902, 0, 1, 16701, -90.000, 0.000, 146.100, 0.000, 0.000, -3.000, 0.0, , , , , , 98, , , 0, 0, 0
38.2848483, -120.3444640, 34.400, 12:55:54.915, 16, 0.00, 0.44, 96, 1.500, 0.100, 146.600, 2, 100, 98, 25, 23497, -19872, 5289, 5510, 10, 14, 1525809354.916, 65, 0, 1024, 1024, 1024, 1024, 0, 6, 3903, 3900, 3903, 3944, 3945, 3902, 0, 1, 16801, -90.000, 0.000, 146.100, 0.000, 0.000, -2.900, 0.0, , , , , , 98, , , 0, 0, 0
38.2848483, -120.3444641, 34.700, 12:55:55.015, 16, 0.00, 0.43, 96, 1.600, 0.000, 146.600, 2, 100, 98, 25, 23497, -19872, 5289, 5510, 10, 14, 1525809355.015, 42, 0, 1024, 1024, 1024, 1024, 0, 6, 3903, 3900, 3903, 3944, 3945, 3902, 0, 1, 16901, -90.000, 0.000, 146.100, 0.000, 0.000, -2.900, 0.0, , , , , , 98, , , 0, 0, 0
38.2848484, -120.3444642, 35.000, 12:55:55.115, 16, 0.00, 0.43, 96, 1.700, -0.200, 146.600, 2, 100, 98, 25, 23497, -19872, 5289, 5510, 10, 14, 1525809355.115, 32, 0, 1024, 1024, 1024, 1024, 0, 6, 3903, 3900, 3903, 3944, 3945, 3902, 0, 1, 17001, -90.000, 0.000, 146.100, 0.000, 0.000, -2.900, 0.0, , , , , , 98, , , 0, 0, 0
38.2848484, -120.3444643, 35.300, 12:55:55.215, 16, 0.00, 0.43, 96, 1.700, -0.200, 146.600, 2, 100, 98, 25, 23497, -19872, 5289, 5510, 10, 14, 1525809355.216, 42, 0, 1024, 1024, 1024, 1024, 0, 6, 3903, 3900, 3903, 3944, 3945, 3902, 0, 1, 17101, -89.900, 0.000, 146.100, 0.000, 0.000, -2.800, 0.0, , , , , , 98, , , 0, 0, 0
38.2848485, -120.3444643, 35.600, 12:55:55.315, 16, 0.00, 0.44, 96, 1.600, 0.000, 146.600, 2, 100, 98, 25, 23497, -19872, 5289, 5510, 10, 14, 1525809355.315, 44, 0, 1024, 1024, 1024, 1024, 0, 6, 3903, 3900, 3903, 3944, 3945, 3902, 0, 1, 17201, -89.900, 0.000, 146.100, 0.000, 0.000, -2.800, 0.0, , , , , , 98, , , 0, 0, 0
38.2848485, -120.3444643, 35.900, 12:55:55.415, 16, 0.00, 0.44, 96, 1.600, 0.200, 146.600, 2, 100, 98, 25, 23497, -19872, 5289, 5510, 10, 14, 1525809355.415, 25, 0, 1024, 1024, 1024, 1024, 0, 6, 3903, 3900, 3903, 3944, 3945, 3902, 0, 1, 17301, -89.900, 0.000, 146.100, 0.000, 0.000, -2.800, 0.0, , , , , , 98, , , 0, 0, 0
38.2848486, -120.3444643, 36.200, 12:55:55.515, 16, 0.00, 0.44, 96, 2.100, 0.200, 146.500, 2, 100, 98, 25, 23497, -19872, 5289, 5510, 10, 14, 1525809355.515, 9, 0, 1024, 1024, 1024, 1024, 0, 6, 3903, 3900, 3903, 3944, 3945, 3902, 0, 1, 17401, -89.900, 0.000, 146.100, 0.000, 0.000, -2.900, 0.0, , , , , , 98, , , 0, 0, 0
38.2848486, -120.3444643, 36.500, 12:55:55.618, 16, 0.00, 0.45, 96, 2.500, 0.100, 146.400, 2, 100, 98, 25, 23497, -19872, 5289, 5510, 10, 14, 1525809355.618, 3, 0, 1024, 1024, 1024, 1024, 0, 6, 3903, 3900, 3903, 3944, 3945, 3902, 0, 1, 17504, -89.900, 0.000, 146.100, 0.000, 0.000, -2.900, 0.0, , , , , , 98, , , 0, 0, 0
38.2848487, -120.3444643, 36.800, 12:55:55.722, 16, 0.00, 0.45, 96, 2.700, 0.100, 146.300, 2, 100, 99, 25, 23472, -19635, 5289, 5510, 10, 14, 1525809355.722, 9, 0, 1024, 1024, 1024, 1024, 0, 6, 3898, 3902, 3891, 3943, 3937, 3893, 0, 1, 17608, -89.900, 0.000, 146.100, 0.000, 0.000, -2.900, 0.0, , , , , , 98, , , 0, 0, 0
38.2848487, -120.3444643, 37.100, 12:55:55.815, 16, 0.00, 0.45, 96, 2.700, 0.200, 146.300, 2, 100, 99, 25, 23472, -19635, 5289, 5510, 10, 14, 1525809355.816, 19, 0, 1024, 1024, 1024, 1024, 0, 6, 3898, 3902, 3891, 3943, 3937, 3893, 0, 1, 17701, -89.900, 0.000, 146.100, 0.000, 0.000, -2.900, 0.0, , , , , , 98, , , 0, 0, 0
38.2848487, -120.3444643, 37.100, 12:55:55.915, 16, 0.00, 0.45, 96, 2.700, 0.200, 146.300, 2, 100, 99, 25, 23472, -19635, 5289, 5510, 10, 14, 1525809355.916, 118, 0, 1024, 1024, 1024, 1024, 0, 6, 3898, 3902, 3891, 3943, 3937, 3893, 0, 1, 17801, -89.900, 0.000, 146.100, 0.000, 0.000, -2.900, 0.0, , , , , , 98, , , 0, 0, 0
38.2848487, -120.3444644, 37.400, 12:55:56.015, 16, 0.00, 0.45, 96, 2.400, 0.200, 146.400, 2, 100, 99, 25, 23472, -19635, 5289, 5510, 10, 14, 1525809356.016, 96, 0, 1024, 1024, 1024, 1024, 0, 6, 3898, 3902, 3891, 3943, 3937, 3893, 0, 1, 17901, -89.900, 0.000, 146.100, 0.000, 0.000, -2.900, 0.0, , , , , , 98, , , 0, 0, 0
38.2848487, -120.3444644, 37.400, 12:55:56.115, 16, 0.00, 0.45, 96, 2.400, 0.200, 146.400, 2, 100, 99, 25, 23472, -19635, 5289, 5510, 10, 14, 1525809356.115, 196, 0, 1024, 1024, 1024, 1024, 0, 6, 3898, 3902, 3891, 3943, 3937, 3893, 0, 1, 18001, -89.900, 0.000, 146.100, 0.000, 0.000, -2.900, 0.0, , , , , , 98, , , 0, 0, 0
38.2848487, -120.3444644, 38.000, 12:55:56.215, 16, 0.00, 0.45, 96, 1.900, 0.300, 146.500, 2, 100, 98, 25, 23472, -19635, 5289, 5510, 10, 14, 1525809356.216, 50, 0, 1024, 1024, 1024, 1024, 0, 6, 3898, 3902, 3891, 3943, 3937, 3893, 0, 1, 18101, -89.900, 0.000, 146.100, 0.000, 0.000, -2.900, 0.0, , , , , , 98, , , 0, 0, 0
38.2848487, -120.3444645, 38.600, 12:55:56.315, 16, 0.00, 0.44, 96, 2.000, 0.300, 146.600, 2, 100, 98, 25, 23472, -19635, 5289, 5510, 10, 14, 1525809356.315, 78, 0, 1024, 1024, 1024, 1024, 0, 6, 3898, 3902, 3891, 3943, 3937, 3893, 0, 1, 18201, -89.900, 0.000, 146.100, 0.000, 0.000, -2.900, 0.0, , , , , , 98, , , 0, 0, 0
38.2848487, -120.3444645, 38.900, 12:55:56.415, 16, 0.00, 0.44, 96, 2.200, 0.300, 146.600, 2, 100, 98, 25, 23472, -19635, 5289, 5510, 10, 14, 1525809356.415, 66, 0, 1024, 1024, 1024, 1024, 0, 6, 3898, 3902, 3891, 3943, 3937, 3893, 0, 1, 18301, -90.000, 0.000, 146.100, 0.000, 0.000, -2.900, 0.0, , , , , , 98, , , 0, 0, 0
38.2848487, -120.3444645, 38.900, 12:55:56.515, 16, 0.00, 0.44, 96, 2.200, 0.300, 146.600, 2, 100, 98, 25, 23472, -19635, 5289, 5510, 10, 14, 1525809356.515, 166, 0, 1024, 1024, 1024, 1024, 0, 6, 3898, 3902, 3891, 3943, 3937, 3893, 0, 1, 18401, -89.900, 0.000, 146.100, 0.000, 0.000, -2.900, 0.0, , , , , , 98, , , 0, 0, 0
38.2848487, -120.3444645, 39.500, 12:55:56.626, 16, 0.00, 0.44, 96, 2.300, 0.300, 146.400, 2, 100, 98, 25, 23472, -19635, 5289, 5510, 10, 14, 1525809356.627, 5, 0, 1024, 1024, 1024, 1024, 0, 6, 3898, 3902, 3891, 3943, 3937, 3893, 0, 1, 18513, -89.900, 0.000, 146.100, 0.000, 0.000, -2.900, 0.0, , , , , , 98, , , 0, 0, 0
38.2848487, -120.3444645, 39.800, 12:55:56.715, 16, 0.00, 0.44, 96, 2.300, 0.400, 146.400, 2, 100, 96, 25, 23384, -20411, 5289, 5510, 10, 14, 1525809356.715, 68, 0, 1024, 1024, 1024, 1024, 0, 6, 3898, 3902, 3891, 3943, 3937, 3893, 0, 1, 18601, -89.900, 0.000, 146.100, 0.000, 0.000, -2.900, 0.0, , , , , , 98, , , 0, 0, 0
38.2848487, -120.3444645, 40.100, 12:55:56.815, 16, 0.00, 0.44, 96, 2.300, 0.300, 146.400, 2, 100, 96, 25, 23384, -20411, 5289, 5510, 10, 14, 1525809356.815, 45, 0, 1024, 1024, 1024, 1024, 0, 6, 3879, 3879, 3863, 3924, 3917, 3876, 0, 1, 18701, -89.900, 0.000, 146.100, 0.000, 0.000, -2.900, 0.0, , , , , , 98, , , 0, 0, 0
38.2848487, -120.3444645, 40.400, 12:55:56.915, 16, 0.00, 0.44, 96, 2.500, 0.300, 146.300, 2, 100, 96, 25, 23384, -20411, 5289, 5510, 10, 14, 1525809356.915, 10, 0, 1024, 1024, 1024, 1024, 0, 6, 3879, 3879, 3863, 3924, 3917, 3876, 0, 1, 18801, -89.900, 0.000, 146.100, 0.000, 0.000, -2.900, 0.0, , , , , , 98, , , 0, 0, 0
38.2848487, -120.3444645, 40.700, 12:55:57.015, 16, 0.00, 0.44, 96, 2.600, 0.300, 146.300, 2, 100, 96, 25, 23384, -20411, 5289, 5510, 10, 14, 1525809357.015, 36, 0, 1024, 1024, 1024, 1024, 0, 6, 3879, 3879, 3863, 3924, 3917, 3876, 0, 1, 18901, -89.900, 0.000, 146.100, 0.000, 0.000, -2.900, 0.0, , , , , , 98, , , 0, 0, 0
38.2848487, -120.3444645, 41.000, 12:55:57.115, 16, 0.00, 0.44, 96, 2.500, 0.200, 146.400, 2, 100, 96, 25, 23384, -20411, 5289, 5510, 10, 14, 1525809357.116, 41, 0, 1024, 1024, 1024, 1024, 0, 6, 3879, 3879, 3863, 3924, 3917, 3876, 0, 1, 19001, -89.900, 0.000, 146.100, 0.000, 0.000, -3.000, 0.0, , , , , , 98, , , 0, 0, 0
38.2848487, -120.3444645, 41.200, 12:55:57.215, 16, 0.00, 0.44, 96, 2.300, 0.100, 146.500, 2, 100, 96, 25, 23384, -20411, 5289, 5510, 10, 14, 1525809357.215, 41, 0, 1024, 1024, 1024, 1024, 0, 6, 3879, 3879, 3863, 3924, 3917, 3876, 0, 1, 19101, -89.900, 0.000, 146.100, 0.000, 0.000, -2.900, 0.0, , , , , , 98, , , 0, 0, 0
38.2848486, -120.3444645, 41.500, 12:55:57.315, 16, 0.00, 0.44, 96, 2.200, 0.100, 146.600, 2, 100, 96, 25, 23384, -20411, 5289, 5510, 10, 14, 1525809357.316, 17, 0, 1024, 1024, 1024, 1024, 0, 6, 3879, 3879, 3863, 3924, 3917, 3876, 0, 1, 19201, -89.900, 0.000, 146.100, 0.000, 0.000, -2.900, 0.0, , , , , , 98, , , 0, 0, 0
38.2848486, -120.3444645, 41.500, 12:55:57.415, 16, 0.00, 0.44, 96, 2.200, 0.100, 146.600, 2, 100, 96, 25, 23384, -20411, 5289, 5510, 10, 14, 1525809357.416, 117, 0, 1024, 1024, 1024, 1024, 0, 6, 3879, 3879, 3863, 3924, 3917, 3876, 0, 1, 19301, -89.900, 0.000, 146.100, 0.000, 0.000, -2.900, 0.0, , , , , , 98, , , 0, 0, 0
38.2848486, -120.3444645, 42.100, 12:55:57.515, 16, 0.00, 0.43, 96, 2.100, 0.100, 147.000, 2, 100, 96, 25, 23384, -20411, 5289, 5510, 10, 14, 1525809357.515, 30, 0, 1024, 1024, 1024, 1024, 0, 6, 3879, 3879, 3863, 3924, 3917, 3876, 0, 1, 19401, -89.900, 0.000, 146.100, 0.000, 0.000, -3.000, 0.0, , , , , , 98, , , 0, 0, 0
38.2848486, -120.3444645, 42.100, 12:55:57.615, 16, 0.00, 0.43, 96, 2.100, 0.100, 147.000, 2, 100, 96, 25, 23332, -20943, 5289, 5510, 10, 14, 1525809357.615, 130, 0, 1024, 1024, 1024, 1024, 0, 6, 3879, 3879, 3863, 3924, 3917, 3876, 0, 1, 19501, -89.900, 0.000, 146.100, 0.000, 0.000, -3.000, 0.0, , , , , , 98, , , 0, 0, 0
38.2848485, -120.3444645, 42.700, 12:55:57.735, 16, 0.00, 0.42, 96, 1.900, 0.500, 147.300, 2, 100, 97, 25, 23332, -20943, 5289, 5510, 10, 14, 1525809357.735, 13, 0, 1024, 1024, 1024, 1024, 0, 6, 3879, 3879, 3863, 3924, 3917, 3876, 0, 1, 19621, -89.900, 0.000, 146.100, 0.000, 0.000, -2.900, 0.0, , , , , , 98, , , 0, 0, 0
38.2848485, -120.3444645, 42.700, 12:55:57.815, 16, 0.00, 0.42, 96, 1.900, 0.500, 147.300, 2, 100, 97, 25, 23332, -20943, 5289, 5510, 10, 14, 1525809357.815, 93, 0, 1024, 1024, 1024, 1024, 0, 6, 3862, 3881, 3861, 3926, 3915, 3881, 0, 1, 19701, -89.900, 0.000, 146.100, 0.000, 0.000, -2.900, 0.0, , , , , , 98, , , 0, 0, 0
38.2848485, -120.3444645, 42.700, 12:55:57.915, 16, 0.00, 0.42, 96, 1.900, 0.500, 147.300, 2, 100, 97, 25, 23332, -20943, 5289, 5510, 10, 14, 1525809357.916, 193, 0, 1024, 1024, 1024, 1024, 0, 6, 3862, 3881, 3861, 3926, 3915, 3881, 0, 1, 19801, -89.900, 0.000, 146.100, 0.000, 0.000, -2.900, 0.0, , , , , , 98, , , 0, 0, 0
38.2848483, -120.3444645, 43.600, 12:55:58.015, 16, 0.00, 0.41, 96, 1.800, 0.900, 147.400, 2, 100, 97, 25, 23332, -20943, 5289, 5510, 10, 14, 1525809358.015, 6, 0, 1024, 1024, 1024, 1024, 0, 6, 3862, 3881, 3861, 3926, 3915, 3881, 0, 1, 19901, -89.900, 0.000, 146.100, 0.000, 0.000, -3.000, 0.0, , , , , , 98, , , 0, 0, 0
38.2848483, -120.3444645, 43.600, 12:55:58.115, 16, 0.00, 0.41, 96, 1.800, 0.900, 147.400, 2, 100, 97, 25, 23332, -20943, 5289, 5510, 10, 14, 1525809358.116, 107, 0, 1024, 1024, 1024, 1024, 0, 6, 3862, 3881, 3861, 3926, 3915, 3881, 0, 1, 20001, -89.900, 0.000, 146.100, 0.000, 0.000, -3.000, 0.0, , , , , , 98, , , 0, 0, 0
38.2848483, -120.3444645, 43.900, 12:55:58.215, 16, 0.00, 0.41, 96, 2.100, 0.800, 147.200, 2, 100, 97, 25, 23332, -20943, 5289, 5510, 10, 14, 1525809358.216, 51, 0, 1024, 1024, 1024, 1024, 0, 6, 3862, 3881, 3861, 3926, 3915, 3881, 0, 1, 20102, -89.900, 0.000, 146.100, 0.000, 0.000, -2.900, 0.0, , , , , , 98, , , 0, 0, 0
38.2848482, -120.3444645, 44.200, 12:55:58.315, 16, 0.00, 0.40, 96, 2.200, 0.900, 146.900, 2, 100, 98, 25, 23332, -20943, 5289, 5510, 10, 14, 1525809358.315, 77, 0, 1024, 1024, 1024, 1024, 0, 6, 3862, 3881, 3861, 3926, 3915, 3881, 0, 1, 20201, -89.900, 0.000, 146.100, 0.000, 0.000, -3.000, 0.0, , , , , , 98, , , 0, 0, 0
38.2848482, -120.3444645, 44.500, 12:55:58.415, 16, 0.00, 0.40, 96, 2.100, 0.700, 146.600, 2, 100, 98, 25, 23332, -20943, 5289, 5510, 10, 14, 1525809358.415, 83, 0, 1024, 1024, 1024, 1024, 0, 6, 3862, 3881, 3861, 3926, 3915, 3881, 0, 1, 20301, -90.000, 0.000, 146.100, 0.000, 0.000, -3.000, 0.0, , , , , , 98, , , 0, 0, 0
38.2848482, -120.3444645, 44.800, 12:55:58.515, 16, 0.00, 0.40, 96, 1.900, 0.300, 146.400, 2, 100, 98, 25, 23332, -20943, 5289, 5510, 10, 14, 1525809358.515, 75, 0, 1024, 1024, 1024, 1024, 0, 6, 3862, 3881, 3861, 3926, 3915, 3881, 0, 1, 20401, -89.900, 0.000, 146.100, 0.000, 0.000, -2.900, 0.0, , , , , , 98, , , 0, 0, 0
38.2848482, -120.3444645, 44.800, 12:55:58.615, 16, 0.00, 0.40, 96, 1.900, 0.300, 146.400, 2, 100, 98, 25, 23332, -20943, 5289, 5510, 10, 14, 1525809358.616, 175, 0, 1024, 1024, 1024, 1024, 0, 6, 3862, 3881, 3861, 3926, 3915, 3881, 0, 1, 20501, -89.900, 0.000, 146.100, 0.000, 0.000, -2.900, 0.0, , , , , , 98, , , 0, 0, 0
38.2848481, -120.3444645, 45.400, 12:55:58.715, 16, 0.00, 0.40, 96, 1.600, 0.200, 146.700, 2, 100, 97, 25, 23332, -20943, 5289, 5510, 10, 14, 1525809358.715, 52, 0, 1024, 1024, 1024, 1024, 0, 6, 3862, 3881, 3861, 3926, 3915, 3881, 0, 1, 20601, -89.900, 0.000, 146.100, 0.000, 0.000, -2.900, 0.0, , , , , , 98, , , 0, 0, 0
38.2848481, -120.3444644, 46.000, 12:55:58.815, 16, 0.00, 0.40, 96, 2.200, 0.800, 146.900, 2, 100, 97, 25, 23332, -20943, 5289, 5510, 10, 14, 1525809358.816, 77, 0, 1024, 1024, 1024, 1024, 0, 6, 3862, 3881, 3861, 3926, 3915, 3881, 0, 1, 20702, -89.900, 0.000, 146.100, 0.000, 0.000, -3.000, 0.0, , , , , , 98, , , 0, 0, 0
38.2848481, -120.3444644, 46.300, 12:55:58.915, 16, 0.00, 0.40, 96, 2.300, 1.000, 146.900, 2, 100, 97, 25, 23332, -20943, 5289, 5510, 10, 14, 1525809358.915, 46, 0, 1024, 1024, 1024, 1024, 0, 6, 3862, 3881, 3861, 3926, 3915, 3881, 0, 1, 20801, -89.900, 0.000, 146.100, 0.000, 0.000, -3.000, 0.0, , , , , , 98, , , 0, 0, 0
38.2848481, -120.3444644, 46.300, 12:55:59.015, 16, 0.00, 0.40, 96, 2.300, 1.000, 146.900, 2, 100, 97, 25, 23332, -20943, 5289, 5510, 10, 14, 1525809359.016, 146, 0, 1024, 1024, 1024, 1024, 0, 6, 3862, 3881, 3861, 3926, 3915, 3881, 0, 1, 20901, -89.900, 0.000, 146.100, 0.000, 0.000, -3.000, 0.0, , , , , , 98, , , 0, 0, 0
38.2848480, -120.3444644, 46.900, 12:55:59.115, 16, 0.00, 0.40, 96, 2.400, 0.800, 146.900, 2, 100, 97, 25, 23332, -20943, 5289, 5510, 10, 14, 1525809359.116, 73, 0, 1024, 1024, 1024, 1024, 0, 6, 3862, 3881, 3861, 3926, 3915, 3881, 0, 1, 21001, -89.900, 0.000, 146.100, 0.000, 0.000, -3.000, 0.0, , , , , , 98, , , 0, 0, 0
38.2848480, -120.3444644, 47.200, 12:55:59.215, 16, 0.00, 0.40, 96, 2.600, 0.700, 146.700, 2, 100, 95, 25, 23332, -20943, 5289, 5510, 10, 14, 1525809359.215, 29, 0, 1024, 1024, 1024, 1024, 0, 6, 3862, 3881, 3861, 3926, 3915, 3881, 0, 1, 21101, -89.900, 0.000, 146.100, 0.000, 0.000, -3.000, 0.0, , , , , , 98, , , 0, 0, 0
38.2848480, -120.3444644, 47.200, 12:55:59.315, 16, 0.00, 0.40, 96, 2.600, 0.700, 146.700, 2, 100, 95, 25, 23332, -20943, 5289, 5510, 10, 14, 1525809359.316, 129, 0, 1024, 1024, 1024, 1024, 0, 6, 3862, 3881, 3861, 3926, 3915, 3881, 0, 1, 21201, -89.900, 0.000, 146.100, 0.000, 0.000, -3.000, 0.0, , , , , , 98, , , 0, 0, 0
38.2848480, -120.3444644, 47.800, 12:55:59.415, 16, 0.00, 0.39, 96, 2.300, 0.300, 146.500, 2, 100, 95, 25, 23332, -20943, 5289, 5510, 10, 14, 1525809359.416, 54, 0, 1024, 1024, 1024, 1024, 0, 6, 3862, 3881, 3861, 3926, 3915, 3881, 0, 1, 21301, -89.900, 0.000, 146.100, 0.000, 0.000, -2.900, 0.0, , , , , , 98, , , 0, 0, 0
38.2848479, -120.3444643, 48.100, 12:55:59.515, 16, 0.00, 0.39, 96, 2.200, 0.500, 146.600, 2, 100, 95, 25, 23332, -20943, 5289, 5510, 10, 14, 1525809359.516, 54, 0, 1024, 1024, 1024, 1024, 0, 6, 3862, 3881, 3861, 3926, 3915, 3881, 0, 1, 21401, -89.900, 0.000, 146.100, 0.000, 0.000, -2.900, 0.0, , , , , , 98, , , 0, 0, 0
38.2848479, -120.3444643, 48.400, 12:55:59.615, 16, 0.00, 0.39, 96, 2.200, 1.000, 146.800, 2, 100, 95, 25, 23332, -20943, 5289, 5510, 10, 14, 1525809359.616, 33, 0, 1024, 1024, 1024, 1024, 0, 6, 3862, 3881, 3861, 3926, 3915, 3881, 0, 1, 21501, -89.900, 0.000, 146.100, 0.000, 0.000, -2.900, 0.0, , , , , , 98, , , 0, 0, 0
