Latitude, Longitude, Altitude (m), Time, Sats, Speed (m/s), Range (m), Battery (%), Roll (deg), Pitch (deg), Yaw (deg), Images, HD Signal (%), RC Signal (%), Battery Temp (C), Battery Voltage (mV), Battery Current (mA), Battery Energy (mAh), Battery Capacity (mAh), Battery Discharges, flyState, timestamp (Unix), LastUpdate (ms), radioChannel, Rc_elevator, Rc_aileron, Rc_throttle, Rc_rudder, Rc_gyro, Dronetype, Battery_Cell1 (mV), Battery_Cell2 (mV), Battery_Cell3 (mV), Battery_Cell4 (mV), Battery_Cell5 (mV), Battery_Cell6 (mV), Video, isFlying, elapsedTime (ms), gimbalPitch (deg), gimbalRoll (deg), gimbalYaw (deg), VelocityX (m/s), VelocityY (m/s), VelocityZ (m/s), GroundSmear (cm), App Version, Aircraft Name, Aircraft Firmware, Aircraft Serial Number, Battery Serial Number, Battery Lifetime (%), App_Tip, App_Warning, CurrentFlightStartingIndex, CurrentFlightLastVisitedWaypoint, PreviousFlightEndingWaypointIndex
38.2848481, -120.3444687, 0.000, 13:15:08.453, 14, 0.00, 0.08, 100, -0.900, -1.100, 150.300, 391, 100, 100, 24, 25576, -3818, 5491, 5491, 11, 11, 1525810508.453, 151, 0, 1024, 1024, 1024, 1024, 0, 6, 4243, 4293, 4274, 4245, 4284, 4286, 0, 1, 2879, -90.000, 0.000, 147.800, 0.000, 0.000, -0.100, 0.0, MapPilot_2.8.1_04242018, Dendroctonus I, 1.3.1.00, 041DDC1887, 1058171200162, 98, Photo, Starting Mission from Lat/Long: 38.28484/-120.34447 Camera: Zenmuse X3 - Overlap: 90/90 - Active Connection: No, 15, 15, 15
38.2848481, -120.3444686, 0.000, 13:15:08.478, 14, 0.10, 0.09, 100, -0.800, -1.300, 150.500, 391, 100, 100, 24, 25576, -3818, 5491, 5491, 11, 11, 1525810508.479, 20, 0, 1024, 1024, 1024, 1024, 0, 6, 4243, 4293, 4274, 4245, 4284, 4286, 0, 1, 2905, -89.900, 0.000, 147.900, 0.000, 0.100, -0.300, 0.0, , , , , , 98, , , 15, 15, 15
38.2848482, -120.3444682, 0.000, 13:15:08.574, 14, 0.20, 0.09, 100, 0.000, 0.200, 150.400, 391, 100, 100, 24, 25391, -4653, 5491, 5491, 11, 11, 1525810508.575, 50, 0, 1024, 1024, 1024, 1024, 0, 6, 4243, 4293, 4274, 4245, 4284, 4286, 0, 1, 3001, -89.900, 0.000, 148.000, 0.000, 0.200, -0.400, 0.0, , , , , , 98, , , 15, 15, 15
38.2848482, -120.3444682, 0.000, 13:15:08.674, 14, 0.20, 0.09, 100, 0.000, 0.200, 150.400, 391, 100, 100, 24, 25391, -4653, 5491, 5491, 11, 11, 1525810508.675, 150, 0, 1024, 1024, 1024, 1024, 0, 6, 4243, 4293, 4274, 4245, 4284, 4286, 0, 1, 3101, -89.900, 0.000, 148.000, 0.000, 0.200, -0.400, 0.0, , , , , , 98, , , 15, 15, 15
38.2848482, -120.3444677, 0.100, 13:15:08.774, 13, 0.20, 0.11, 100, 1.600, 1.300, 150.100, 391, 100, 100, 24, 25391, -4653, 5491, 5491, 11, 11, 1525810508.775, 31, 0, 1024, 1024, 1024, 1024, 0, 6, 4243, 4293, 4274, 4245, 4284, 4286, 0, 1, 3201, -89.900, 0.000, 148.100, 0.000, 0.200, -0.400, 0.0, , , , , , 98, , , 15, 15, 15
38.2848482, -120.3444674, 0.100, 13:15:08.874, 12, 0.20, 0.13, 100, 2.000, 1.700, 150.100, 391, 100, 100, 24, 25391, -4653, 5491, 5491, 11, 11, 1525810508.875, 45, 0, 1024, 1024, 1024, 1024, 0, 6, 4243, 4293, 4274, 4245, 4284, 4286, 0, 1, 3301, -89.900, 0.000, 148.200, 0.000, 0.200, -0.400, 0.0, , , , , , 98, , , 15, 15, 15
38.2848482, -120.3444672, 0.200, 13:15:08.974, 12, 0.10, 0.14, 100, 2.200, 1.500, 150.000, 391, 100, 100, 24, 25391, -4653, 5491, 5491, 11, 11, 1525810508.975, 50, 0, 1024, 1024, 1024, 1024, 0, 6, 4220, 4237, 4225, 4197, 4193, 4184, 0, 1, 3401, -89.900, 0.000, 148.200, 0.000, 0.100, -0.400, 0.0, , , , , , 98, , , 15, 15, 15
38.2848483, -120.3444670, 0.200, 13:15:09.075, 13, 0.10, 0.17, 100, 2.200, 1.100, 150.000, 391, 100, 100, 24, 25391, -4653, 5491, 5491, 11, 11, 1525810509.076, 39, 0, 1024, 1024, 1024, 1024, 0, 6, 4220, 4237, 4225, 4197, 4193, 4184, 0, 1, 3502, -89.900, 0.000, 148.200, 0.000, 0.100, -0.400, 0.0, , , , , , 98, , , 15, 15, 15
38.2848485, -120.3444667, 0.300, 13:15:09.174, 13, 0.10, 0.19, 100, 2.200, 0.600, 150.000, 391, 100, 100, 24, 25391, -4653, 5491, 5491, 11, 11, 1525810509.175, 17, 0, 1024, 1024, 1024, 1024, 0, 6, 4220, 4237, 4225, 4197, 4193, 4184, 0, 1, 3601, -90.000, 0.000, 148.300, 0.000, 0.100, -0.400, 0.0, , , , , , 98, , , 15, 15, 15
38.2848485, -120.3444666, 0.300, 13:15:09.274, 13, 0.10, 0.20, 100, 2.100, 0.300, 150.000, 391, 100, 100, 24, 25391, -4653, 5491, 5491, 11, 11, 1525810509.275, 33, 0, 1024, 1024, 1024, 1024, 0, 6, 4220, 4237, 4225, 4197, 4193, 4184, 0, 1, 3701, -89.900, 0.000, 148.300, 0.000, 0.100, -0.500, 0.0, , , , , , 98, , , 15, 15, 15
38.2848486, -120.3444666, 0.400, 13:15:09.374, 13, 0.10, 0.21, 100, 1.800, 0.400, 150.000, 391, 100, 100, 24, 25391, -4653, 5491, 5491, 11, 11, 1525810509.375, 23, 0, 1024, 1024, 1024, 1024, 0, 6, 4220, 4237, 4225, 4197, 4193, 4184, 0, 1, 3801, -89.900, 0.000, 148.300, 0.000, 0.100, -0.500, 0.0, , , , , , 98, , , 15, 15, 15
38.2848487, -120.3444664, 0.400, 13:15:09.474, 12, 0.10, 0.23, 100, 1.300, 0.600, 150.100, 391, 100, 100, 24, 25391, -4653, 5491, 5491, 11, 11, 1525810509.475, 23, 0, 1024, 1024, 1024, 1024, 0, 6, 4220, 4237, 4225, 4197, 4193, 4184, 0, 1, 3901, -89.900, 0.000, 148.300, 0.000, 0.100, -0.500, 0.0, , , , , , 98, , , 15, 15, 15
38.2848488, -120.3444662, 0.500, 13:15:09.574, 12, 0.10, 0.25, 100, 1.200, 0.700, 150.200, 391, 100, 98, 24, 25391, -4653, 5491, 5491, 11, 11, 1525810509.575, 27, 0, 1024, 1024, 1024, 1024, 0, 6, 4220, 4237, 4225, 4197, 4193, 4184, 0, 1, 4001, -89.900, 0.000, 148.400, 0.000, 0.100, -0.500, 0.0, , , , , , 98, , , 15, 15, 15
38.2848489, -120.3444661, 0.500, 13:15:09.674, 13, 0.10, 0.27, 100, 1.300, 0.700, 150.300, 391, 100, 98, 24, 25391, -4653, 5491, 5491, 11, 11, 1525810509.675, 28, 0, 1024, 1024, 1024, 1024, 0, 6, 4220, 4237, 4225, 4197, 4193, 4184, 0, 1, 4101, -89.900, 0.000, 148.400, 0.000, 0.100, -0.400, 0.0, , , , , , 98, , , 15, 15, 15
38.2848490, -120.3444660, 0.600, 13:15:09.774, 13, 0.10, 0.28, 100, 1.500, 0.400, 150.500, 391, 100, 98, 24, 25391, -4653, 5491, 5491, 11, 11, 1525810509.775, 18, 0, 1024, 1024, 1024, 1024, 0, 6, 4220, 4237, 4225, 4197, 4193, 4184, 0, 1, 4201, -90.000, 0.000, 148.500, 0.000, 0.100, -0.500, 0.0, , , , , , 98, , , 15, 15, 15
38.2848490, -120.3444658, 0.600, 13:15:09.874, 14, 0.10, 0.30, 100, 1.700, 0.200, 150.500, 391, 100, 98, 24, 25391, -4653, 5491, 5491, 11, 11, 1525810509.875, 21, 0, 1024, 1024, 1024, 1024, 0, 6, 4220, 4237, 4225, 4197, 4193, 4184, 0, 1, 4301, -89.900, 0.000, 148.500, 0.000, 0.100, -0.500, 0.0, , , , , , 98, , , 15, 15, 15
38.2848490, -120.3444655, 0.700, 13:15:09.979, 14, 0.10, 0.31, 100, 2.000, 0.200, 150.400, 391, 100, 98, 24, 25391, -4653, 5491, 5491, 11, 11, 1525810509.979, 6, 0, 1024, 1024, 1024, 1024, 0, 6, 4220, 4237, 4225, 4197, 4193, 4184, 0, 1, 4405, -89.900, 0.000, 148.500, 0.000, 0.100, -0.500, 0.0, , , , , , 98, , , 15, 15, 15
38.2848491, -120.3444654, 0.700, 13:15:10.078, 15, 0.10, 0.33, 100, 2.200, 0.500, 150.300, 391, 100, 98, 24, 24359, -15612, 5381, 5491, 11, 11, 1525810510.079, 10, 0, 1024, 1024, 1024, 1024, 0, 6, 4030, 4083, 4048, 4057, 4072, 4054, 0, 1, 4506, -89.900, 0.000, 148.500, 0.000, 0.100, -0.500, 0.0, , , , , , 98, , , 15, 15, 15
38.2848491, -120.3444653, 0.800, 13:15:10.175, 15, 0.10, 0.34, 100, 2.300, 0.800, 150.100, 391, 100, 98, 24, 24359, -15612, 5381, 5491, 11, 11, 1525810510.175, 6, 0, 1024, 1024, 1024, 1024, 0, 6, 4030, 4083, 4048, 4057, 4072, 4054, 0, 1, 4601, -89.900, 0.000, 148.600, 0.000, 0.100, -0.500, 0.0, , , , , , 98, , , 15, 15, 15
38.2848491, -120.3444653, 0.800, 13:15:10.274, 15, 0.10, 0.34, 100, 2.300, 0.800, 150.100, 391, 100, 98, 24, 24359, -15612, 5381, 5491, 11, 11, 1525810510.275, 107, 0, 1024, 1024, 1024, 1024, 0, 6, 4030, 4083, 4048, 4057, 4072, 4054, 0, 1, 4702, -89.900, 0.000, 148.600, 0.000, 0.100, -0.500, 0.0, , , , , , 98, , , 15, 15, 15
38.2848491, -120.3444651, 0.800, 13:15:10.374, 13, 0.00, 0.35, 100, 2.500, 1.000, 149.900, 391, 100, 98, 24, 24359, -15612, 5381, 5491, 11, 11, 1525810510.375, 82, 0, 1024, 1024, 1024, 1024, 0, 6, 4030, 4083, 4048, 4057, 4072, 4054, 0, 1, 4801, -89.900, 0.000, 148.600, 0.000, 0.000, -0.500, 0.0, , , , , , 98, , , 15, 15, 15
38.2848490, -120.3444650, 0.900, 13:15:10.474, 13, 0.00, 0.35, 100, 2.500, 1.200, 149.600, 391, 100, 98, 24, 24359, -15612, 5381, 5491, 11, 14, 1525810510.475, 69, 0, 1024, 1024, 1024, 1024, 0, 6, 4030, 4083, 4048, 4057, 4072, 4054, 0, 1, 4901, -89.900, 0.000, 148.600, 0.000, 0.000, -0.500, 0.0, , , , , , 98, , , 15, 15, 15
38.2848490, -120.3444649, 0.900, 13:15:10.574, 13, 0.00, 0.36, 98, 2.400, 1.300, 149.300, 391, 100, 98, 24, 24359, -15612, 5381, 5491, 11, 14, 1525810510.575, 84, 0, 1024, 1024, 1024, 1024, 0, 6, 4030, 4083, 4048, 4057, 4072, 4054, 0, 1, 5001, -89.900, 0.000, 148.600, 0.000, 0.000, -0.400, 0.0, , , , , , 98, , , 15, 15, 15
38.2848490, -120.3444650, 1.000, 13:15:10.674, 13, 0.00, 0.36, 98, 1.400, 1.300, 148.900, 391, 100, 94, 24, 24359, -15612, 5381, 5491, 11, 14, 1525810510.675, 73, 0, 1024, 1024, 1024, 1024, 0, 6, 4030, 4083, 4048, 4057, 4072, 4054, 0, 1, 5101, -89.900, 0.000, 148.600, 0.000, 0.000, -0.200, 0.0, , , , , , 98, , , 15, 15, 15
38.2848491, -120.3444649, 1.000, 13:15:10.774, 13, 0.00, 0.36, 98, 0.900, 1.000, 148.600, 391, 100, 94, 24, 24359, -15612, 5381, 5491, 11, 14, 1525810510.775, 58, 0, 1024, 1024, 1024, 1024, 0, 6, 4030, 4083, 4048, 4057, 4072, 4054, 0, 1, 5201, -89.900, 0.000, 148.600, 0.000, 0.000, -0.200, 0.0, , , , , , 98, , , 15, 15, 15
38.2848492, -120.3444648, 1.100, 13:15:10.874, 13, 0.00, 0.38, 98, 0.900, 0.500, 148.100, 391, 100, 94, 24, 24359, -15612, 5381, 5491, 11, 14, 1525810510.875, 20, 0, 1024, 1024, 1024, 1024, 0, 6, 4030, 4083, 4048, 4057, 4072, 4054, 0, 1, 5301, -90.000, 0.000, 148.600, 0.000, 0.000, -0.500, 0.0, , , , , , 98, , , 15, 15, 15
38.2848494, -120.3444648, 1.200, 13:15:10.974, 13, 0.00, 0.39, 98, 1.400, 0.400, 148.000, 391, 100, 94, 24, 24359, -15612, 5381, 5491, 11, 14, 1525810510.975, 51, 0, 1024, 1024, 1024, 1024, 0, 6, 4030, 4083, 4048, 4057, 4072, 4054, 0, 1, 5401, -90.000, 0.000, 148.600, 0.000, 0.000, -0.600, 0.0, , , , , , 98, , , 15, 15, 15
38.2848494, -120.3444647, 1.200, 13:15:11.074, 14, 0.00, 0.40, 98, 1.800, 0.300, 148.100, 391, 100, 94, 24, 24246, -16300, 5381, 5491, 11, 14, 1525810511.075, 76, 0, 1024, 1024, 1024, 1024, 0, 6, 4030, 4083, 4048, 4057, 4072, 4054, 0, 1, 5501, -90.000, 0.000, 148.600, 0.000, 0.000, -0.700, 0.0, , , , , , 98, , , 15, 15, 15
38.2848494, -120.3444647, 1.200, 13:15:11.174, 14, 0.00, 0.40, 98, 1.800, 0.300, 148.100, 391, 100, 94, 24, 24246, -16300, 5381, 5491, 11, 14, 1525810511.174, 175, 0, 1024, 1024, 1024, 1024, 0, 6, 4030, 4083, 4048, 4057, 4072, 4054, 0, 1, 5600, -90.000, 0.000, 148.600, 0.000, 0.000, -0.700, 0.0, , , , , , 98, , , 15, 15, 15
38.2848494, -120.3444647, 1.300, 13:15:11.274, 14, 0.00, 0.40, 98, 1.900, 0.300, 148.200, 391, 100, 96, 24, 24246, -16300, 5381, 5491, 11, 14, 1525810511.275, 51, 0, 1024, 1024, 1024, 1024, 0, 6, 4023, 4058, 4046, 4047, 4046, 4043, 0, 1, 5702, -90.000, 0.000, 148.600, 0.000, 0.000, -0.800, 0.0, , , , , , 98, , , 15, 15, 15
38.2848495, -120.3444646, 1.400, 13:15:11.374, 13, 0.00, 0.41, 98, 1.900, 0.300, 148.300, 391, 100, 96, 24, 24246, -16300, 5381, 5491, 11, 14, 1525810511.375, 9, 0, 1024, 1024, 1024, 1024, 0, 6, 4023, 4058, 4046, 4047, 4046, 4043, 0, 1, 5801, -90.000, 0.000, 148.600, 0.000, 0.000, -1.000, 0.0, , , , , , 98, , , 15, 15, 15
38.2848495, -120.3444646, 1.500, 13:15:11.474, 13, 0.00, 0.42, 98, 1.800, 0.400, 148.400, 391, 100, 96, 24, 24246, -16300, 5381, 5491, 11, 14, 1525810511.475, 15, 0, 1024, 1024, 1024, 1024, 0, 6, 4023, 4058, 4046, 4047, 4046, 4043, 0, 1, 5901, -89.900, 0.000, 148.600, 0.000, 0.000, -1.100, 0.0, , , , , , 98, , , 15, 15, 15
38.2848496, -120.3444645, 1.600, 13:15:11.574, 13, 0.00, 0.42, 98, 1.600, 0.500, 148.400, 391, 100, 96, 24, 24246, -16300, 5381, 5491, 11, 14, 1525810511.575, 65, 0, 1024, 1024, 1024, 1024, 0, 6, 4023, 4058, 4046, 4047, 4046, 4043, 0, 1, 6001, -89.900, 0.000, 148.600, 0.000, 0.000, -1.400, 0.0, , , , , , 98, , , 15, 15, 15
38.2848496, -120.3444645, 1.800, 13:15:11.674, 13, 0.00, 0.42, 98, 1.400, 0.700, 148.400, 391, 100, 95, 24, 24246, -16300, 5381, 5491, 11, 14, 1525810511.675, 49, 0, 1024, 1024, 1024, 1024, 0, 6, 4023, 4058, 4046, 4047, 4046, 4043, 0, 1, 6102, -89.900, 0.000, 148.600, 0.000, 0.000, -1.700, 0.0, , , , , , 98, , , 15, 15, 15
38.2848496, -120.3444644, 2.000, 13:15:11.774, 12, 0.00, 0.43, 98, 1.300, 0.800, 148.400, 391, 100, 95, 24, 24246, -16300, 5381, 5491, 11, 14, 1525810511.775, 48, 0, 1024, 1024, 1024, 1024, 0, 6, 4023, 4058, 4046, 4047, 4046, 4043, 0, 1, 6201, -89.900, 0.000, 148.600, 0.000, 0.000, -1.900, 0.0, , , , , , 98, , , 15, 15, 15
38.2848496, -120.3444644, 2.000, 13:15:11.875, 12, 0.00, 0.43, 98, 1.300, 0.800, 148.400, 391, 100, 95, 24, 24246, -16300, 5381, 5491, 11, 14, 1525810511.876, 149, 0, 1024, 1024, 1024, 1024, 0, 6, 4023, 4058, 4046, 4047, 4046, 4043, 0, 1, 6302, -89.900, 0.000, 148.600, 0.000, 0.000, -1.900, 0.0, , , , , , 98, , , 15, 15, 15
38.2848496, -120.3444643, 2.200, 13:15:11.974, 12, 0.00, 0.44, 98, 1.200, 0.800, 148.400, 391, 100, 95, 24, 24246, -16300, 5381, 5491, 11, 14, 1525810511.975, 38, 0, 1024, 1024, 1024, 1024, 0, 6, 4023, 4058, 4046, 4047, 4046, 4043, 0, 1, 6401, -89.900, 0.000, 148.600, 0.000, 0.000, -2.200, 0.0, , , , , , 98, , , 15, 15, 15
38.2848495, -120.3444643, 2.400, 13:15:12.073, 13, 0.00, 0.43, 98, 1.200, 0.600, 148.400, 391, 100, 95, 24, 24246, -16300, 5381, 5491, 11, 14, 1525810512.074, 29, 0, 1024, 1024, 1024, 1024, 0, 6, 4023, 4058, 4046, 4047, 4046, 4043, 0, 1, 6500, -89.900, 0.000, 148.600, 0.000, 0.000, -2.400, 0.0, , , , , , 98, , , 15, 15, 15
38.2848494, -120.3444643, 2.700, 13:15:12.174, 13, 0.00, 0.42, 98, 1.100, 0.800, 148.400, 391, 100, 95, 24, 24116, -16186, 5381, 5491, 11, 14, 1525810512.175, 25, 0, 1024, 1024, 1024, 1024, 0, 6, 3985, 4025, 4007, 4001, 4014, 4002, 0, 1, 6602, -89.900, 0.000, 148.600, 0.000, 0.000, -2.600, 0.0, , , , , , 98, , , 15, 15, 15
38.2848493, -120.3444643, 2.900, 13:15:12.275, 14, 0.00, 0.42, 98, 0.900, 1.200, 148.400, 391, 100, 99, 24, 24116, -16186, 5381, 5491, 11, 14, 1525810512.275, 32, 0, 1024, 1024, 1024, 1024, 0, 6, 3985, 4025, 4007, 4001, 4014, 4002, 0, 1, 6701, -89.900, 0.000, 148.600, 0.000, 0.000, -2.700, 0.0, , , , , , 98, , , 15, 15, 15
38.2848492, -120.3444642, 3.200, 13:15:12.374, 14, 0.00, 0.42, 98, 0.700, 1.500, 148.500, 391, 100, 99, 24, 24116, -16186, 5381, 5491, 11, 14, 1525810512.374, 32, 0, 1024, 1024, 1024, 1024, 0, 6, 3985, 4025, 4007, 4001, 4014, 4002, 0, 1, 6800, -89.900, 0.000, 148.600, 0.000, 0.000, -2.900, 0.0, , , , , , 98, , , 15, 15, 15
38.2848489, -120.3444643, 3.500, 13:15:12.474, 14, 0.00, 0.40, 98, 0.600, 1.600, 148.700, 391, 100, 99, 24, 24116, -16186, 5381, 5491, 11, 14, 1525810512.474, 48, 0, 1024, 1024, 1024, 1024, 0, 6, 3985, 4025, 4007, 4001, 4014, 4002, 0, 1, 6901, -89.900, 0.000, 148.600, 0.000, 0.000, -3.100, 0.0, , , , , , 98, , , 15, 15, 15
38.2848486, -120.3444643, 3.900, 13:15:12.574, 14, 0.10, 0.38, 98, 0.100, 1.900, 148.700, 391, 100, 99, 24, 24116, -16186, 5381, 5491, 11, 14, 1525810512.575, 89, 0, 1024, 1024, 1024, 1024, 0, 6, 3985, 4025, 4007, 4001, 4014, 4002, 0, 1, 7001, -89.900, 0.000, 148.600, -0.100, 0.000, -3.200, 0.0, , , , , , 98, , , 15, 15, 15
38.2848485, -120.3444645, 4.200, 13:15:12.674, 14, 0.00, 0.36, 98, -0.200, 2.200, 148.700, 391, 100, 99, 24, 24116, -16186, 5381, 5491, 11, 14, 1525810512.674, 24, 0, 1024, 1024, 1024, 1024, 0, 6, 3985, 4025, 4007, 4001, 4014, 4002, 0, 1, 7100, -89.900, 0.000, 148.600, 0.000, 0.000, -3.300, 0.0, , , , , , 98, , , 15, 15, 15
38.2848485, -120.3444648, 4.600, 13:15:12.774, 14, 0.00, 0.34, 98, -0.600, 2.000, 148.600, 391, 100, 99, 24, 24116, -16186, 5381, 5491, 11, 14, 1525810512.775, 61, 0, 1024, 1024, 1024, 1024, 0, 6, 3985, 4025, 4007, 4001, 4014, 4002, 0, 1, 7201, -89.900, 0.000, 148.600, 0.000, 0.000, -3.300, 0.0, , , , , , 98, , , 15, 15, 15
38.2848484, -120.3444649, 4.900, 13:15:12.874, 14, 0.00, 0.33, 98, -0.700, 1.600, 148.600, 391, 100, 99, 24, 24116, -16186, 5381, 5491, 11, 14, 1525810512.875, 75, 0, 1024, 1024, 1024, 1024, 0, 6, 3985, 4025, 4007, 4001, 4014, 4002, 0, 1, 7301, -89.900, 0.000, 148.600, 0.000, 0.000, -3.300, 0.0, , , , , , 98, , , 15, 15, 15
38.2848483, -120.3444650, 5.300, 13:15:12.974, 14, 0.00, 0.32, 98, -0.700, 1.100, 148.500, 391, 100, 99, 24, 24116, -16186, 5381, 5491, 11, 14, 1525810512.974, 48, 0, 1024, 1024, 1024, 1024, 0, 6, 3985, 4025, 4007, 4001, 4014, 4002, 0, 1, 7401, -90.000, 0.000, 148.600, 0.000, 0.000, -3.300, 0.0, , , , , , 98, , , 15, 15, 15
38.2848482, -120.3444651, 6.000, 13:15:13.075, 13, 0.00, 0.30, 98, -0.400, 0.800, 148.300, 391, 100, 99, 24, 24116, -16186, 5381, 5491, 11, 14, 1525810513.075, 53, 0, 1024, 1024, 1024, 1024, 0, 6, 3985, 4025, 4007, 4001, 4014, 4002, 0, 1, 7501, -90.000, 0.000, 148.600, 0.000, 0.000, -3.300, 0.0, , , , , , 98, , , 15, 15, 15
38.2848482, -120.3444651, 6.000, 13:15:13.174, 13, 0.00, 0.30, 98, -0.400, 0.800, 148.300, 391, 100, 99, 24, 24116, -16186, 5381, 5491, 11, 14, 1525810513.175, 153, 0, 1024, 1024, 1024, 1024, 0, 6, 3985, 4025, 4007, 4001, 4014, 4002, 0, 1, 7601, -90.000, 0.000, 148.600, 0.000, 0.000, -3.300, 0.0, , , , , , 98, , , 15, 15, 15
38.2848483, -120.3444653, 6.300, 13:15:13.274, 13, 0.00, 0.30, 98, -0.300, 0.700, 148.200, 391, 100, 99, 24, 23671, -22225, 5381, 5491, 11, 14, 1525810513.274, 78, 0, 1024, 1024, 1024, 1024, 0, 6, 3906, 3940, 3936, 3937, 3924, 3934, 0, 1, 7700, -90.000, 0.000, 148.600, 0.000, 0.000, -3.200, 0.0, , , , , , 98, , , 15, 15, 15
38.2848484, -120.3444654, 6.700, 13:15:13.375, 13, 0.00, 0.29, 98, -0.300, 0.500, 148.200, 391, 100, 100, 24, 23671, -22225, 5381, 5491, 11, 14, 1525810513.375, 93, 0, 1024, 1024, 1024, 1024, 0, 6, 3906, 3940, 3936, 3937, 3924, 3934, 0, 1, 7801, -90.000, 0.000, 148.600, 0.000, 0.000, -3.200, 0.0, , , , , , 98, , , 15, 15, 15
38.2848484, -120.3444655, 7.000, 13:15:13.474, 13, 0.00, 0.28, 98, -0.200, 0.300, 148.100, 391, 100, 100, 24, 23671, -22225, 5381, 5491, 11, 14, 1525810513.475, 20, 0, 1024, 1024, 1024, 1024, 0, 6, 3906, 3940, 3936, 3937, 3924, 3934, 0, 1, 7901, -90.000, 0.000, 148.600, 0.000, 0.000, -3.200, 0.0, , , , , , 98, , , 15, 15, 15
38.2848485, -120.3444656, 7.300, 13:15:13.574, 13, 0.00, 0.28, 98, -0.200, 0.100, 148.100, 391, 100, 100, 24, 23671, -22225, 5381, 5491, 11, 14, 1525810513.574, 18, 0, 1024, 1024, 1024, 1024, 0, 6, 3906, 3940, 3936, 3937, 3924, 3934, 0, 1, 8001, -90.000, 0.000, 148.600, 0.000, 0.000, -3.100, 0.0, , , , , , 98, , , 15, 15, 15
38.2848486, -120.3444656, 7.600, 13:15:13.674, 15, 0.00, 0.28, 98, -0.100, 0.100, 148.000, 391, 100, 100, 24, 23671, -22225, 5381, 5491, 11, 14, 1525810513.675, 43, 0, 1024, 1024, 1024, 1024, 0, 6, 3906, 3940, 3936, 3937, 3924, 3934, 0, 1, 8101, -90.000, 0.000, 148.600, 0.000, 0.000, -3.100, 0.0, , , , , , 98, , , 15, 15, 15
38.2848487, -120.3444656, 8.000, 13:15:13.774, 15, 0.00, 0.29, 98, 0.000, 0.000, 148.000, 391, 100, 99, 24, 23671, -22225, 5381, 5491, 11, 14, 1525810513.774, 38, 0, 1024, 1024, 1024, 1024, 0, 6, 3906, 3940, 3936, 3937, 3924, 3934, 0, 1, 8201, -90.000, 0.000, 148.600, 0.000, 0.000, -3.100, 0.0, , , , , , 98, , , 15, 15, 15
38.2848488, -120.3444656, 8.300, 13:15:13.874, 15, 0.00, 0.30, 98, 0.100, -0.100, 148.100, 391, 100, 99, 24, 23671, -22225, 5381, 5491, 11, 14, 1525810513.874, 23, 0, 1024, 1024, 1024, 1024, 0, 6, 3906, 3940, 3936, 3937, 3924, 3934, 0, 1, 8301, -90.000, 0.000, 148.600, 0.000, 0.000, -3.100, 0.0, , , , , , 98, , , 15, 15, 15
38.2848490, -120.3444655, 8.900, 13:15:13.975, 15, 0.00, 0.31, 98, 0.000, 0.300, 148.200, 391, 100, 99, 24, 23671, -22225, 5381, 5491, 11, 14, 1525810513.975, 53, 0, 1024, 1024, 1024, 1024, 0, 6, 3906, 3940, 3936, 3937, 3924, 3934, 0, 1, 8401, -89.900, 0.000, 148.600, 0.000, 0.000, -3.100, 0.0, , , , , , 98, , , 15, 15, 15
38.2848490, -120.3444655, 8.900, 13:15:14.074, 15, 0.00, 0.31, 98, 0.000, 0.300, 148.200, 391, 100, 99, 24, 23671, -22225, 5381, 5491, 11, 14, 1525810514.075, 152, 0, 1024, 1024, 1024, 1024, 0, 6, 3906, 3940, 3936, 3937, 3924, 3934, 0, 1, 8501, -89.900, 0.000, 148.600, 0.000, 0.000, -3.100, 0.0, , , , , , 98, , , 15, 15, 15
38.2848492, -120.3444655, 9.600, 13:15:14.174, 15, 0.00, 0.33, 98, 0.000, 0.700, 148.400, 391, 100, 99, 24, 23658, -18521, 5381, 5491, 11, 14, 1525810514.175, 26, 0, 1024, 1024, 1024, 1024, 0, 6, 3906, 3940, 3936, 3937, 3924, 3934, 0, 1, 8601, -90.000, 0.000, 148.600, 0.000, 0.000, -3.100, 0.0, , , , , , 98, , , 15, 15, 15
38.2848492, -120.3444655, 9.600, 13:15:14.274, 15, 0.00, 0.33, 98, 0.000, 0.700, 148.400, 391, 100, 99, 24, 23658, -18521, 5381, 5491, 11, 14, 1525810514.274, 125, 0, 1024, 1024, 1024, 1024, 0, 6, 3906, 3940, 3936, 3937, 3924, 3934, 0, 1, 8701, -90.000, 0.000, 148.600, 0.000, 0.000, -3.100, 0.0, , , , , , 98, , , 15, 15, 15
38.2848496, -120.3444654, 10.200, 13:15:14.374, 14, 0.00, 0.36, 98, 1.300, 0.100, 148.600, 391, 100, 99, 24, 23658, -18521, 5381, 5491, 11, 14, 1525810514.375, 43, 0, 1024, 1024, 1024, 1024, 0, 6, 3906, 3940, 3936, 3937, 3924, 3934, 0, 1, 8801, -90.000, 0.000, 148.600, 0.000, 0.000, -2.900, 0.0, , , , , , 98, , , 15, 15, 15
38.2848497, -120.3444653, 10.500, 13:15:14.475, 14, 0.00, 0.38, 98, 1.700, 0.100, 148.500, 391, 100, 99, 24, 23658, -18521, 5381, 5491, 11, 14, 1525810514.475, 83, 0, 1024, 1024, 1024, 1024, 0, 6, 3906, 3940, 3936, 3937, 3924, 3934, 0, 1, 8902, -90.000, 0.000, 148.600, 0.000, 0.000, -2.900, 0.0, , , , , , 98, , , 15, 15, 15
38.2848500, -120.3444653, 11.100, 13:15:14.576, 14, 0.00, 0.40, 98, 1.900, 0.000, 148.100, 391, 100, 98, 24, 23658, -18521, 5381, 5491, 11, 14, 1525810514.576, 10, 0, 1024, 1024, 1024, 1024, 0, 6, 3941, 3980, 3975, 3977, 3971, 3977, 0, 1, 9003, -90.000, 0.000, 148.600, 0.000, 0.000, -3.000, 0.0, , , , , , 98, , , 15, 15, 15
38.2848502, -120.3444653, 11.400, 13:15:14.691, 14, 0.00, 0.41, 98, 1.800, -0.100, 148.000, 391, 100, 98, 24, 23658, -18521, 5381, 5491, 11, 14, 1525810514.691, 6, 0, 1024, 1024, 1024, 1024, 0, 6, 3941, 3980, 3975, 3977, 3971, 3977, 0, 1, 9117, -90.000, 0.000, 148.600, 0.000, 0.000, -2.900, 0.0, , , , , , 98, , , 15, 15, 15
38.2848502, -120.3444653, 11.400, 13:15:14.774, 14, 0.00, 0.41, 98, 1.800, -0.100, 148.000, 391, 100, 98, 24, 23658, -18521, 5381, 5491, 11, 14, 1525810514.774, 89, 0, 1024, 1024, 1024, 1024, 0, 6, 3941, 3980, 3975, 3977, 3971, 3977, 0, 1, 9200, -90.000, 0.000, 148.600, 0.000, 0.000, -2.900, 0.0, , , , , , 98, , , 15, 15, 15
38.2848503, -120.3444653, 11.800, 13:15:14.875, 14, 0.00, 0.42, 98, 1.400, -0.500, 147.900, 391, 100, 98, 24, 23658, -18521, 5381, 5491, 11, 14, 1525810514.875, 89, 0, 1024, 1024, 1024, 1024, 0, 6, 3941, 3980, 3975, 3977, 3971, 3977, 0, 1, 9301, -90.000, 0.000, 148.600, 0.000, 0.000, -3.000, 0.0, , , , , , 98, , , 15, 15, 15
38.2848503, -120.3444653, 12.100, 13:15:14.975, 16, 0.00, 0.43, 98, 1.300, -0.700, 147.900, 391, 100, 98, 24, 23658, -18521, 5381, 5491, 11, 14, 1525810514.975, 96, 0, 1024, 1024, 1024, 1024, 0, 6, 3941, 3980, 3975, 3977, 3971, 3977, 0, 1, 9401, -90.000, 0.000, 148.600, 0.000, 0.000, -3.000, 0.0, , , , , , 98, , , 15, 15, 15
38.2848504, -120.3444653, 12.400, 13:15:15.075, 16, 0.00, 0.43, 98, 1.100, -0.500, 147.900, 391, 100, 98, 24, 23658, -18521, 5381, 5491, 11, 14, 1525810515.076, 89, 0, 1024, 1024, 1024, 1024, 0, 6, 3941, 3980, 3975, 3977, 3971, 3977, 0, 1, 9502, -90.000, 0.000, 148.600, 0.000, 0.000, -2.900, 0.0, , , , , , 98, , , 15, 15, 15
38.2848506, -120.3444653, 13.000, 13:15:15.174, 16, 0.00, 0.45, 98, 1.000, -0.500, 148.000, 391, 100, 97, 24, 23658, -18521, 5381, 5491, 11, 14, 1525810515.176, 50, 0, 1024, 1024, 1024, 1024, 0, 6, 3941, 3980, 3975, 3977, 3971, 3977, 0, 1, 9602, -90.000, 0.000, 148.600, 0.000, 0.000, -2.900, 0.0, , , , , , 98, , , 15, 15, 15
38.2848506, -120.3444653, 13.000, 13:15:15.274, 16, 0.00, 0.45, 98, 1.000, -0.500, 148.000, 391, 100, 97, 24, 23658, -18521, 5381, 5491, 11, 14, 1525810515.275, 149, 0, 1024, 1024, 1024, 1024, 0, 6, 3941, 3980, 3975, 3977, 3971, 3977, 0, 1, 9701, -89.900, 0.000, 148.600, 0.000, 0.000, -2.900, 0.0, , , , , , 98, , , 15, 15, 15
38.2848507, -120.3444653, 13.300, 13:15:15.375, 16, 0.00, 0.46, 98, 1.200, -0.500, 148.100, 391, 100, 97, 24, 23658, -18521, 5381, 5491, 11, 14, 1525810515.376, 54, 0, 1024, 1024, 1024, 1024, 0, 6, 3941, 3980, 3975, 3977, 3971, 3977, 0, 1, 9803, -90.000, 0.000, 148.600, 0.000, 0.000, -2.900, 0.0, , , , , , 98, , , 15, 15, 15
38.2848508, -120.3444653, 13.600, 13:15:15.474, 16, 0.00, 0.47, 98, 1.200, -0.400, 148.200, 391, 100, 97, 24, 23658, -18521, 5381, 5491, 11, 14, 1525810515.475, 65, 0, 1024, 1024, 1024, 1024, 0, 6, 3941, 3980, 3975, 3977, 3971, 3977, 0, 1, 9901, -89.900, 0.000, 148.600, 0.000, 0.000, -2.900, 0.0, , , , , , 98, , , 15, 15, 15
38.2848507, -120.3444652, 14.200, 13:15:15.574, 16, 0.10, 0.46, 98, 0.600, 0.000, 148.300, 391, 100, 97, 24, 23760, -19176, 5381, 5491, 11, 14, 1525810515.574, 57, 0, 1024, 1024, 1024, 1024, 0, 6, 3934, 3975, 3965, 3962, 3954, 3971, 0, 1, 10001, -89.900, 0.000, 148.600, -0.100, 0.000, -3.000, 0.0, , , , , , 98, , , 15, 15, 15
38.2848506, -120.3444652, 14.500, 13:15:15.674, 16, 0.10, 0.46, 98, 0.400, 0.000, 148.300, 391, 100, 97, 24, 23760, -19176, 5381, 5491, 11, 14, 1525810515.675, 28, 0, 1024, 1024, 1024, 1024, 0, 6, 3934, 3975, 3965, 3962, 3954, 3971, 0, 1, 10101, -89.900, 0.000, 148.600, -0.100, 0.000, -3.000, 0.0, , , , , , 98, , , 15, 15, 15
38.2848506, -120.3444652, 14.500, 13:15:15.774, 16, 0.10, 0.46, 98, 0.400, 0.000, 148.300, 391, 100, 97, 24, 23760, -19176, 5381, 5491, 11, 14, 1525810515.775, 128, 0, 1024, 1024, 1024, 1024, 0, 6, 3934, 3975, 3965, 3962, 3954, 3971, 0, 1, 10201, -89.900, 0.000, 148.600, -0.100, 0.000, -3.000, 0.0, , , , , , 98, , , 15, 15, 15
38.2848505, -120.3444652, 15.100, 13:15:15.874, 15, 0.10, 0.45, 98, 1.100, 0.800, 148.300, 391, 100, 97, 24, 23760, -19176, 5381, 5491, 11, 14, 1525810515.875, 48, 0, 1024, 1024, 1024, 1024, 0, 6, 3934, 3975, 3965, 3962, 3954, 3971, 0, 1, 10301, -89.900, 0.000, 148.600, -0.100, 0.000, -2.900, 0.0, , , , , , 98, , , 15, 15, 15
38.2848505, -120.3444651, 15.400, 13:15:15.974, 15, 0.10, 0.45, 98, 0.900, 1.600, 148.300, 391, 100, 97, 24, 23760, -19176, 5381, 5491, 11, 14, 1525810515.974, 50, 0, 1024, 1024, 1024, 1024, 0, 6, 3934, 3975, 3965, 3962, 3954, 3971, 0, 1, 10401, -89.900, 0.000, 148.600, -0.100, 0.000, -2.900, 0.0, , , , , , 98, , , 15, 15, 15
38.2848504, -120.3444651, 15.700, 13:15:16.075, 16, 0.10, 0.45, 98, 0.900, 1.900, 148.200, 391, 100, 94, 24, 23760, -19176, 5381, 5491, 11, 14, 1525810516.075, 52, 0, 1024, 1024, 1024, 1024, 0, 6, 3934, 3975, 3965, 3962, 3954, 3971, 0, 1, 10502, -89.900, 0.000, 148.600, -0.100, 0.000, -2.900, 0.0, , , , , , 98, , , 15, 15, 15
38.2848504, -120.3444651, 15.700, 13:15:16.174, 16, 0.10, 0.45, 98, 0.900, 1.900, 148.200, 391, 100, 94, 24, 23760, -19176, 5381, 5491, 11, 14, 1525810516.175, 152, 0, 1024, 1024, 1024, 1024, 0, 6, 3934, 3975, 3965, 3962, 3954, 3971, 0, 1, 10601, -89.900, 0.000, 148.600, -0.100, 0.000, -2.900, 0.0, , , , , , 98, , , 15, 15, 15
38.2848504, -120.3444651, 16.000, 13:15:16.274, 16, 0.00, 0.44, 98, 1.300, 1.600, 148.000, 391, 100, 94, 24, 23760, -19176, 5381, 5491, 11, 14, 1525810516.275, 81, 0, 1024, 1024, 1024, 1024, 0, 6, 3934, 3975, 3965, 3962, 3954, 3971, 0, 1, 10701, -89.900, 0.000, 148.600, 0.000, 0.000, -3.000, 0.0, , , , , , 98, , , 15, 15, 15
38.2848504, -120.3444651, 16.300, 13:15:16.375, 16, 0.00, 0.44, 98, 1.400, 1.200, 147.800, 391, 100, 94, 24, 23760, -19176, 5381, 5491, 11, 14, 1525810516.375, 37, 0, 1024, 1024, 1024, 1024, 0, 6, 3934, 3975, 3965, 3962, 3954, 3971, 0, 1, 10802, -89.900, 0.000, 148.600, 0.000, 0.000, -3.000, 0.0, , , , , , 98, , , 15, 15, 15
38.2848504, -120.3444651, 16.300, 13:15:16.475, 16, 0.00, 0.44, 98, 1.400, 1.200, 147.800, 391, 100, 94, 24, 23760, -19176, 5381, 5491, 11, 14, 1525810516.475, 137, 0, 1024, 1024, 1024, 1024, 0, 6, 3934, 3975, 3965, 3962, 3954, 3971, 0, 1, 10901, -89.900, 0.000, 148.600, 0.000, 0.000, -3.000, 0.0, , , , , , 98, , , 15, 15, 15
38.2848504, -120.3444651, 16.600, 13:15:16.575, 16, 0.00, 0.44, 98, 1.400, 0.800, 147.700, 391, 100, 94, 24, 23760, -19176, 5381, 5491, 11, 14, 1525810516.575, 36, 0, 1024, 1024, 1024, 1024, 0, 6, 3934, 3975, 3965, 3962, 3954, 3971, 0, 1, 11002, -90.000, 0.000, 148.600, 0.000, 0.000, -2.900, 0.0, , , , , , 98, , , 15, 15, 15
38.2848504, -120.3444651, 16.600, 13:15:16.675, 16, 0.00, 0.44, 98, 1.400, 0.800, 147.700, 391, 100, 94, 24, 23689, -19599, 5381, 5491, 11, 14, 1525810516.675, 136, 0, 1024, 1024, 1024, 1024, 0, 6, 3934, 3975, 3965, 3962, 3954, 3971, 0, 1, 11102, -90.000, 0.000, 148.600, 0.000, 0.000, -2.900, 0.0, , , , , , 98, , , 15, 15, 15
38.2848504, -120.3444651, 16.600, 13:15:16.774, 16, 0.00, 0.44, 98, 1.400, 0.800, 147.700, 391, 100, 94, 24, 23689, -19599, 5381, 5491, 11, 14, 1525810516.775, 236, 0, 1024, 1024, 1024, 1024, 0, 6, 3934, 3975, 3965, 3962, 3954, 3971, 0, 1, 11201, -90.000, 0.000, 148.600, 0.000, 0.000, -2.900, 0.0, , , , , , 98, , , 15, 15, 15
38.2848504, -120.3444651, 17.300, 13:15:16.874, 17, 0.00, 0.44, 98, 1.000, 0.000, 147.800, 391, 100, 94, 24, 23689, -19599, 5381, 5491, 11, 14, 1525810516.875, 54, 0, 1024, 1024, 1024, 1024, 0, 6, 3921, 3976, 3960, 3964, 3941, 3948, 0, 1, 11301, -90.000, 0.000, 148.600, 0.000, 0.000, -2.900, 0.0, , , , , , 98, , , 15, 15, 15
38.2848503, -120.3444651, 17.600, 13:15:16.981, 16, 0.00, 0.44, 98, 1.000, 0.000, 147.900, 391, 100, 94, 24, 23689, -19599, 5381, 5491, 11, 14, 1525810516.982, 13, 0, 1024, 1024, 1024, 1024, 0, 6, 3921, 3976, 3960, 3964, 3941, 3948, 0, 1, 11408, -90.000, 0.000, 148.600, 0.000, 0.000, -2.900, 0.0, , , , , , 98, , , 15, 15, 15
38.2848503, -120.3444651, 17.600, 13:15:17.074, 16, 0.00, 0.44, 98, 1.000, 0.000, 147.900, 391, 100, 94, 24, 23689, -19599, 5381, 5491, 11, 14, 1525810517.075, 106, 0, 1024, 1024, 1024, 1024, 0, 6, 3921, 3976, 3960, 3964, 3941, 3948, 0, 1, 11501, -90.000, 0.000, 148.600, 0.000, 0.000, -2.900, 0.0, , , , , , 98, , , 15, 15, 15
38.2848503, -120.3444651, 17.900, 13:15:17.175, 16, 0.00, 0.43, 98, 0.900, 0.100, 148.000, 391, 100, 94, 24, 23689, -19599, 5381, 5491, 11, 14, 1525810517.189, 81, 0, 1024, 1024, 1024, 1024, 0, 6, 3921, 3976, 3960, 3964, 3941, 3948, 0, 1, 11615, -89.900, 0.000, 148.600, 0.000, 0.000, -2.900, 0.0, , , , , , 98, , , 15, 15, 15
38.2848503, -120.3444651, 17.900, 13:15:17.274, 16, 0.00, 0.43, 98, 0.900, 0.100, 148.000, 391, 100, 94, 24, 23689, -19599, 5381, 5491, 11, 14, 1525810517.276, 168, 0, 1024, 1024, 1024, 1024, 0, 6, 3921, 3976, 3960, 3964, 3941, 3948, 0, 1, 11702, -89.900, 0.000, 148.600, 0.000, 0.000, -2.900, 0.0, , , , , , 98, , , 15, 15, 15
38.2848503, -120.3444651, 17.900, 13:15:17.374, 16, 0.00, 0.43, 98, 0.900, 0.100, 148.000, 391, 100, 94, 24, 23689, -19599, 5381, 5491, 11, 14, 1525810517.375, 267, 0, 1024, 1024, 1024, 1024, 0, 6, 3921, 3976, 3960, 3964, 3941, 3948, 0, 1, 11801, -89.900, 0.000, 148.600, 0.000, 0.000, -2.900, 0.0, , , , , , 98, , , 15, 15, 15
38.2848502, -120.3444651, 18.500, 13:15:17.475, 16, 0.00, 0.42, 98, 0.600, 0.600, 148.200, 391, 100, 94, 24, 23689, -19599, 5381, 5491, 11, 14, 1525810517.475, 53, 0, 1024, 1024, 1024, 1024, 0, 6, 3921, 3976, 3960, 3964, 3941, 3948, 0, 1, 11901, -89.900, 0.000, 148.600, 0.000, 0.000, -2.800, 0.0, , , , , , 98, , , 15, 15, 15
38.2848501, -120.3444651, 18.800, 13:15:17.574, 16, 0.00, 0.42, 98, 0.500, 0.600, 148.200, 391, 100, 93, 24, 23689, -19599, 5381, 5491, 11, 14, 1525810517.574, 39, 0, 1024, 1024, 1024, 1024, 0, 6, 3921, 3976, 3960, 3964, 3941, 3948, 0, 1, 12001, -89.900, 0.000, 148.600, 0.000, 0.000, -2.800, 0.0, , , , , , 98, , , 15, 15, 15
38.2848500, -120.3444651, 19.400, 13:15:17.674, 16, 0.00, 0.41, 98, 0.900, 0.600, 148.100, 391, 100, 93, 24, 23689, -19599, 5381, 5491, 11, 14, 1525810517.675, 34, 0, 1024, 1024, 1024, 1024, 0, 6, 3921, 3976, 3960, 3964, 3941, 3948, 0, 1, 12101, -90.000, 0.000, 148.600, 0.000, 0.000, -2.900, 0.0, , , , , , 98, , , 15, 15, 15
38.2848500, -120.3444652, 19.700, 13:15:17.785, 16, 0.00, 0.41, 98, 1.200, 0.300, 148.000, 391, 100, 93, 24, 23689, -19599, 5381, 5491, 11, 14, 1525810517.786, 13, 0, 1024, 1024, 1024, 1024, 0, 6, 3921, 3976, 3960, 3964, 3941, 3948, 0, 1, 12212, -90.000, 0.000, 148.600, 0.000, 0.000, -2.900, 0.0, , , , , , 98, , , 15, 15, 15
38.2848500, -120.3444652, 20.200, 13:15:17.889, 16, 0.00, 0.41, 98, 1.100, -0.500, 147.800, 391, 100, 95, 24, 23689, -19599, 5381, 5491, 11, 14, 1525810517.889, 17, 0, 1024, 1024, 1024, 1024, 0, 6, 3921, 3976, 3960, 3964, 3941, 3948, 0, 1, 12315, -90.000, 0.000, 148.600, 0.000, 0.000, -2.800, 0.0, , , , , , 98, , , 15, 15, 15
38.2848500, -120.3444652, 20.200, 13:15:17.974, 16, 0.00, 0.41, 98, 1.100, -0.500, 147.800, 391, 100, 95, 24, 23689, -19599, 5381, 5491, 11, 14, 1525810517.975, 103, 0, 1024, 1024, 1024, 1024, 0, 6, 3921, 3976, 3960, 3964, 3941, 3948, 0, 1, 12401, -90.000, 0.000, 148.600, 0.000, 0.000, -2.800, 0.0, , , , , , 98, , , 15, 15, 15
38.2848500, -120.3444652, 20.200, 13:15:18.074, 16, 0.00, 0.41, 98, 1.100, -0.500, 147.800, 391, 100, 95, 24, 23689, -19599, 5381, 5491, 11, 14, 1525810518.075, 203, 0, 1024, 1024, 1024, 1024, 0, 6, 3921, 3976, 3960, 3964, 3941, 3948, 0, 1, 12501, -90.000, 0.000, 148.600, 0.000, 0.000, -2.800, 0.0, , , , , , 98, , , 15, 15, 15
38.2848500, -120.3444652, 20.200, 13:15:18.174, 16, 0.00, 0.41, 98, 1.100, -0.500, 147.800, 391, 100, 95, 24, 23689, -19599, 5381, 5491, 11, 14, 1525810518.175, 303, 0, 1024, 1024, 1024, 1024, 0, 6, 3921, 3976, 3960, 3964, 3941, 3948, 0, 1, 12601, -90.000, 0.000, 148.600, 0.000, 0.000, -2.800, 0.0, , , , , , 98, , , 15, 15, 15
38.2848501, -120.3444652, 20.500, 13:15:18.274, 17, 0.00, 0.41, 98, 0.900, -0.600, 147.900, 391, 100, 95, 24, 23689, -19599, 5381, 5491, 11, 14, 1525810518.275, 74, 0, 1024, 1024, 1024, 1024, 0, 6, 3921, 3976, 3960, 3964, 3941, 3948, 0, 1, 12701, -90.000, 0.000, 148.600, 0.000, 0.000, -2.800, 0.0, , , , , , 98, , , 15, 15, 15
38.2848500, -120.3444654, 21.400, 13:15:18.374, 17, 0.00, 0.40, 98, 0.300, -0.500, 148.200, 391, 100, 95, 24, 23689, -19599, 5381, 5491, 11, 14, 1525810518.375, 30, 0, 1024, 1024, 1024, 1024, 0, 6, 3921, 3976, 3960, 3964, 3941, 3948, 0, 1, 12801, -90.000, 0.000, 148.600, 0.000, 0.000, -3.000, 0.0, , , , , , 98, , , 15, 15, 15
38.2848500, -120.3444654, 21.700, 13:15:18.474, 17, 0.00, 0.39, 98, 0.400, -0.300, 148.300, 391, 100, 93, 24, 23689, -19599, 5381, 5491, 11, 14, 1525810518.475, 56, 0, 1024, 1024, 1024, 1024, 0, 6, 3921, 3976, 3960, 3964, 3941, 3948, 0, 1, 12901, -89.900, 0.000, 148.600, 0.000, 0.000, -3.000, 0.0, , , , , , 98, , , 15, 15, 15
38.2848498, -120.3444655, 22.300, 13:15:18.574, 17, 0.00, 0.37, 98, 0.200, 0.000, 148.200, 391, 100, 93, 24, 23689, -19599, 5381, 5491, 11, 14, 1525810518.575, 38, 0, 1024, 1024, 1024, 1024, 0, 6, 3921, 3976, 3960, 3964, 3941, 3948, 0, 1, 13001, -89.900, 0.000, 148.600, 0.000, 0.000, -2.900, 0.0, , , , , , 98, , , 15, 15, 15
38.2848496, -120.3444655, 22.900, 13:15:18.675, 17, 0.00, 0.36, 98, -0.100, 0.200, 148.200, 391, 100, 93, 24, 23566, -20419, 5381, 5491, 11, 14, 1525810518.678, 23, 0, 1024, 1024, 1024, 1024, 0, 6, 3921, 3976, 3960, 3964, 3941, 3948, 0, 1, 13104, -89.900, 0.000, 148.600, 0.000, 0.000, -2.900, 0.0, , , , , , 98, , , 15, 15, 15
38.2848496, -120.3444656, 23.200, 13:15:18.774, 17, 0.00, 0.35, 98, -0.200, 0.300, 148.100, 391, 100, 93, 24, 23566, -20419, 5381, 5491, 11, 14, 1525810518.775, 73, 0, 1024, 1024, 1024, 1024, 0, 6, 3898, 3946, 3935, 3936, 3924, 3928, 0, 1, 13201, -89.900, 0.000, 148.600, 0.000, 0.000, -2.900, 0.0, , , , , , 98, , , 15, 15, 15
38.2848495, -120.3444656, 23.500, 13:15:18.874, 17, 0.00, 0.34, 98, -0.100, 0.300, 148.100, 391, 100, 93, 24, 23566, -20419, 5381, 5491, 11, 14, 1525810518.875, 85, 0, 1024, 1024, 1024, 1024, 0, 6, 3898, 3946, 3935, 3936, 3924, 3928, 0, 1, 13301, -89.900, 0.000, 148.600, 0.000, 0.000, -3.000, 0.0, , , , , , 98, , , 15, 15, 15
38.2848495, -120.3444656, 23.800, 13:15:18.974, 17, 0.00, 0.34, 98, 0.000, 0.400, 148.100, 391, 100, 93, 24, 23566, -20419, 5381, 5491, 11, 14, 1525810518.975, 68, 0, 1024, 1024, 1024, 1024, 0, 6, 3898, 3946, 3935, 3936, 3924, 3928, 0, 1, 13401, -89.900, 0.000, 148.600, 0.000, 0.000, -3.000, 0.0, , , , , , 98, , , 15, 15, 15
38.2848494, -120.3444656, 24.400, 13:15:19.082, 17, 0.00, 0.33, 98, 0.000, 0.200, 148.100, 391, 100, 93, 24, 23566, -20419, 5381, 5491, 11, 14, 1525810519.083, 6, 0, 1024, 1024, 1024, 1024, 0, 6, 3898, 3946, 3935, 3936, 3924, 3928, 0, 1, 13509, -90.000, 0.000, 148.600, 0.000, 0.000, -2.900, 0.0, , , , , , 98, , , 15, 15, 15
38.2848494, -120.3444656, 24.400, 13:15:19.189, 17, 0.00, 0.33, 98, 0.000, 0.200, 148.100, 391, 100, 93, 24, 23566, -20419, 5381, 5491, 11, 14, 1525810519.193, 117, 0, 1024, 1024, 1024, 1024, 0, 6, 3898, 3946, 3935, 3936, 3924, 3928, 0, 1, 13620, -90.000, 0.000, 148.600, 0.000, 0.000, -2.900, 0.0, , , , , , 98, , , 15, 15, 15
38.2848493, -120.3444656, 25.000, 13:15:19.276, 17, 0.00, 0.33, 98, -0.200, 0.000, 148.200, 391, 100, 95, 24, 23566, -20419, 5381, 5491, 11, 14, 1525810519.277, 7, 0, 1024, 1024, 1024, 1024, 0, 6, 3898, 3946, 3935, 3936, 3924, 3928, 0, 1, 13703, -90.000, 0.000, 148.600, 0.000, 0.000, -2.900, 0.0, , , , , , 98, , , 15, 15, 15
38.2848493, -120.3444656, 25.300, 13:15:19.374, 17, 0.00, 0.33, 98, -0.100, 0.000, 148.200, 391, 100, 95, 24, 23566, -20419, 5381, 5491, 11, 14, 1525810519.375, 61, 0, 1024, 1024, 1024, 1024, 0, 6, 3898, 3946, 3935, 3936, 3924, 3928, 0, 1, 13801, -89.900, 0.000, 148.600, 0.000, 0.000, -2.900, 0.0, , , , , , 98, , , 15, 15, 15
38.2848492, -120.3444655, 25.600, 13:15:19.474, 17, 0.00, 0.33, 98, 0.000, 0.300, 148.200, 391, 100, 95, 24, 23566, -20419, 5381, 5491, 11, 14, 1525810519.475, 54, 0, 1024, 1024, 1024, 1024, 0, 6, 3898, 3946, 3935, 3936, 3924, 3928, 0, 1, 13901, -89.900, 0.000, 148.600, 0.000, 0.000, -2.900, 0.0, , , , , , 98, , , 15, 15, 15
38.2848492, -120.3444655, 25.900, 13:15:19.574, 17, 0.00, 0.32, 98, 0.000, 0.600, 148.300, 391, 100, 95, 24, 23569, -19866, 5381, 5491, 11, 14, 1525810519.575, 93, 0, 1024, 1024, 1024, 1024, 0, 6, 3898, 3946, 3935, 3936, 3924, 3928, 0, 1, 14001, -89.900, 0.000, 148.600, 0.000, 0.000, -3.000, 0.0, , , , , , 98, , , 15, 15, 15
38.2848491, -120.3444655, 26.200, 13:15:19.674, 17, 0.00, 0.32, 98, 0.000, 0.900, 148.400, 391, 100, 98, 24, 23569, -19866, 5381, 5491, 11, 14, 1525810519.674, 31, 0, 1024, 1024, 1024, 1024, 0, 6, 3898, 3946, 3935, 3936, 3924, 3928, 0, 1, 14101, -89.900, 0.000, 148.600, 0.000, 0.000, -2.900, 0.0, , , , , , 98, , , 15, 15, 15
38.2848491, -120.3444654, 26.500, 13:15:19.774, 17, 0.00, 0.33, 98, -0.200, 1.100, 148.600, 391, 100, 98, 24, 23569, -19866, 5381, 5491, 11, 14, 1525810519.775, 41, 0, 1024, 1024, 1024, 1024, 0, 6, 3898, 3946, 3935, 3936, 3924, 3928, 0, 1, 14201, -89.900, 0.000, 148.600, 0.000, 0.000, -2.900, 0.0, , , , , , 98, , , 15, 15, 15
38.2848491, -120.3444654, 26.800, 13:15:19.874, 17, 0.00, 0.33, 98, -0.200, 1.300, 148.800, 391, 100, 98, 24, 23569, -19866, 5381, 5491, 11, 14, 1525810519.875, 32, 0, 1024, 1024, 1024, 1024, 0, 6, 3898, 3946, 3935, 3936, 3924, 3928, 0, 1, 14301, -89.900, 0.000, 148.600, 0.000, 0.000, -2.900, 0.0, , , , , , 98, , , 15, 15, 15
38.2848491, -120.3444653, 27.200, 13:15:19.974, 17, 0.00, 0.34, 98, 0.100, 1.200, 148.900, 391, 100, 98, 24, 23569, -19866, 5381, 5491, 11, 14, 1525810519.975, 44, 0, 1024, 1024, 1024, 1024, 0, 6, 3898, 3946, 3935, 3936, 3924, 3928, 0, 1, 14401, -89.900, 0.000, 148.600, 0.000, 0.000, -3.000, 0.0, , , , , , 98, , , 15, 15, 15
38.2848492, -120.3444652, 27.500, 13:15:20.074, 17, 0.10, 0.35, 98, 0.800, 1.200, 148.900, 391, 100, 98, 24, 23569, -19866, 5381, 5491, 11, 14, 1525810520.075, 23, 0, 1024, 1024, 1024, 1024, 0, 6, 3898, 3946, 3935, 3936, 3924, 3928, 0, 1, 14501, -89.900, 0.000, 148.600, 0.000, 0.100, -3.000, 0.0, , , , , , 98, , , 15, 15, 15
38.2848492, -120.3444652, 27.500, 13:15:20.175, 17, 0.10, 0.35, 98, 0.800, 1.200, 148.900, 391, 100, 98, 24, 23569, -19866, 5381, 5491, 11, 14, 1525810520.175, 123, 0, 1024, 1024, 1024, 1024, 0, 6, 3898, 3946, 3935, 3936, 3924, 3928, 0, 1, 14601, -89.900, 0.000, 148.600, 0.000, 0.100, -3.000, 0.0, , , , , , 98, , , 15, 15, 15
38.2848494, -120.3444650, 28.100, 13:15:20.274, 17, 0.10, 0.37, 98, 2.300, 0.700, 148.400, 391, 100, 93, 24, 23569, -19866, 5381, 5491, 11, 14, 1525810520.275, 51, 0, 1024, 1024, 1024, 1024, 0, 6, 3898, 3946, 3935, 3936, 3924, 3928, 0, 1, 14701, -89.900, 0.000, 148.600, 0.000, 0.100, -2.900, 0.0, , , , , , 98, , , 15, 15, 15
38.2848494, -120.3444650, 28.100, 13:15:20.375, 17, 0.10, 0.37, 98, 2.300, 0.700, 148.400, 391, 100, 93, 24, 23569, -19866, 5381, 5491, 11, 14, 1525810520.376, 151, 0, 1024, 1024, 1024, 1024, 0, 6, 3898, 3946, 3935, 3936, 3924, 3928, 0, 1, 14802, -89.900, 0.000, 148.600, 0.000, 0.100, -2.900, 0.0, , , , , , 98, , , 15, 15, 15
38.2848494, -120.3444649, 28.400, 13:15:20.474, 17, 0.10, 0.39, 98, 2.900, 0.700, 148.000, 391, 100, 93, 24, 23569, -19866, 5381, 5491, 11, 14, 1525810520.474, 75, 0, 1024, 1024, 1024, 1024, 0, 6, 3898, 3946, 3935, 3936, 3924, 3928, 0, 1, 14901, -89.900, 0.000, 148.600, 0.000, 0.100, -3.000, 0.0, , , , , , 98, , , 15, 15, 15
38.2848495, -120.3444648, 28.700, 13:15:20.574, 17, 0.00, 0.40, 98, 3.100, 0.500, 147.600, 391, 100, 93, 24, 23569, -19866, 5381, 5491, 11, 14, 1525810520.575, 67, 0, 1024, 1024, 1024, 1024, 0, 6, 3898, 3946, 3935, 3936, 3924, 3928, 0, 1, 15001, -89.900, 0.000, 148.600, 0.000, 0.000, -2.900, 0.0, , , , , , 98, , , 15, 15, 15
38.2848496, -120.3444646, 29.200, 13:15:20.674, 17, 0.00, 0.42, 97, 2.700, 0.000, 147.500, 391, 100, 93, 25, 23569, -19866, 5326, 5491, 11, 14, 1525810520.675, 31, 0, 1024, 1024, 1024, 1024, 0, 6, 3898, 3946, 3935, 3936, 3924, 3928, 0, 1, 15101, -90.000, 0.000, 148.600, 0.000, 0.000, -2.900, 0.0, , , , , , 98, , , 15, 15, 15
38.2848497, -120.3444646, 29.500, 13:15:20.774, 17, 0.00, 0.42, 97, 2.900, 0.000, 147.600, 391, 100, 93, 25, 23569, -19866, 5326, 5491, 11, 14, 1525810520.775, 75, 0, 1024, 1024, 1024, 1024, 0, 6, 3898, 3946, 3935, 3936, 3924, 3928, 0, 1, 15201, -90.000, 0.000, 148.600, 0.000, 0.000, -2.900, 0.0, , , , , , 98, , , 15, 15, 15
38.2848498, -120.3444645, 29.800, 13:15:20.875, 17, 0.00, 0.43, 97, 3.100, 0.000, 147.800, 391, 100, 93, 25, 23569, -19866, 5326, 5491, 11, 14, 1525810520.875, 70, 0, 1024, 1024, 1024, 1024, 0, 6, 3898, 3946, 3935, 3936, 3924, 3928, 0, 1, 15301, -89.900, 0.000, 148.600, 0.000, 0.000, -2.900, 0.0, , , , , , 98, , , 15, 15, 15
38.2848498, -120.3444644, 30.100, 13:15:20.975, 17, 0.00, 0.44, 97, 2.900, 0.400, 148.100, 391, 100, 93, 25, 23569, -19866, 5326, 5491, 11, 14, 1525810520.975, 79, 0, 1024, 1024, 1024, 1024, 0, 6, 3903, 3942, 3933, 3929, 3931, 3929, 0, 1, 15401, -89.900, 0.000, 148.600, 0.000, 0.000, -2.900, 0.0, , , , , , 98, , , 15, 15, 15
38.2848498, -120.3444644, 30.100, 13:15:21.074, 17, 0.00, 0.44, 97, 2.900, 0.400, 148.100, 391, 100, 93, 25, 23569, -19866, 5326, 5491, 11, 14, 1525810521.075, 178, 0, 1024, 1024, 1024, 1024, 0, 6, 3903, 3942, 3933, 3929, 3931, 3929, 0, 1, 15501, -89.900, 0.000, 148.600, 0.000, 0.000, -2.900, 0.0, , , , , , 98, , , 15, 15, 15
38.2848499, -120.3444643, 30.700, 13:15:21.174, 17, 0.00, 0.46, 97, 2.800, 0.900, 148.300, 391, 100, 94, 25, 23540, -19817, 5326, 5491, 11, 14, 1525810521.174, 42, 0, 1024, 1024, 1024, 1024, 0, 6, 3903, 3942, 3933, 3929, 3931, 3929, 0, 1, 15601, -89.900, 0.000, 148.600, 0.000, 0.000, -2.900, 0.0, , , , , , 98, , , 15, 15, 15
38.2848500, -120.3444643, 31.000, 13:15:21.274, 17, 0.00, 0.46, 97, 3.100, 0.600, 148.200, 391, 100, 94, 25, 23540, -19817, 5326, 5491, 11, 14, 1525810521.275, 61, 0, 1024, 1024, 1024, 1024, 0, 6, 3898, 3930, 3934, 3927, 3936, 3920, 0, 1, 15701, -89.900, 0.000, 148.600, 0.000, 0.000, -2.900, 0.0, , , , , , 98, , , 15, 15, 15
38.2848500, -120.3444642, 31.300, 13:15:21.375, 17, 0.00, 0.47, 97, 3.100, 0.500, 148.000, 391, 100, 94, 25, 23540, -19817, 5326, 5491, 11, 14, 1525810521.375, 50, 0, 1024, 1024, 1024, 1024, 0, 6, 3898, 3930, 3934, 3927, 3936, 3920, 0, 1, 15801, -89.900, 0.000, 148.600, 0.000, 0.000, -2.900, 0.0, , , , , , 98, , , 15, 15, 15
38.2848501, -120.3444642, 31.600, 13:15:21.475, 17, 0.00, 0.48, 97, 2.800, 0.100, 147.800, 391, 100, 94, 25, 23540, -19817, 5326, 5491, 11, 14, 1525810521.475, 98, 0, 1024, 1024, 1024, 1024, 0, 6, 3898, 3930, 3934, 3927, 3936, 3920, 0, 1, 15902, -90.000, 0.000, 148.600, 0.000, 0.000, -3.000, 0.0, , , , , , 98, , , 15, 15, 15
38.2848501, -120.3444642, 31.900, 13:15:21.575, 17, 0.00, 0.48, 97, 2.100, 0.000, 147.700, 391, 100, 94, 25, 23540, -19817, 5326, 5491, 11, 14, 1525810521.576, 54, 0, 1024, 1024, 1024, 1024, 0, 6, 3898, 3930, 3934, 3927, 3936, 3920, 0, 1, 16002, -89.900, 0.000, 148.600, 0.000, 0.000, -2.900, 0.0, , , , , , 98, , , 15, 15, 15
38.2848502, -120.3444642, 32.200, 13:15:21.674, 17, 0.00, 0.48, 97, 1.900, 0.600, 147.800, 391, 100, 99, 25, 23540, -19817, 5326, 5491, 11, 14, 1525810521.675, 82, 0, 1024, 1024, 1024, 1024, 0, 6, 3898, 3930, 3934, 3927, 3936, 3920, 0, 1, 16102, -89.900, 0.000, 148.600, 0.000, 0.000, -2.900, 0.0, , , , , , 98, , , 15, 15, 15
38.2848502, -120.3444643, 32.500, 13:15:21.774, 17, 0.00, 0.48, 97, 1.800, 0.500, 147.900, 391, 100, 99, 25, 23540, -19817, 5326, 5491, 11, 14, 1525810521.775, 40, 0, 1024, 1024, 1024, 1024, 0, 6, 3898, 3930, 3934, 3927, 3936, 3920, 0, 1, 16201, -90.000, 0.000, 148.600, 0.000, 0.000, -2.900, 0.0, , , , , , 98, , , 15, 15, 15
38.2848503, -120.3444643, 32.800, 13:15:21.874, 17, 0.00, 0.48, 97, 2.300, -0.100, 147.900, 391, 100, 99, 25, 23540, -19817, 5326, 5491, 11, 14, 1525810521.875, 96, 0, 1024, 1024, 1024, 1024, 0, 6, 3898, 3930, 3934, 3927, 3936, 3920, 0, 1, 16301, -89.900, 0.000, 148.600, 0.000, 0.000, -2.900, 0.0, , , , , , 98, , , 15, 15, 15
38.2848503, -120.3444643, 32.800, 13:15:21.975, 17, 0.00, 0.48, 97, 2.300, -0.100, 147.900, 391, 100, 99, 25, 23540, -19817, 5326, 5491, 11, 14, 1525810521.975, 196, 0, 1024, 1024, 1024, 1024, 0, 6, 3898, 3930, 3934, 3927, 3936, 3920, 0, 1, 16402, -89.900, 0.000, 148.600, 0.000, 0.000, -2.900, 0.0, , , , , , 98, , , 15, 15, 15
38.2848504, -120.3444643, 33.100, 13:15:22.075, 17, 0.00, 0.49, 97, 2.700, -0.700, 147.800, 391, 100, 99, 25, 23540, -19817, 5326, 5491, 11, 14, 1525810522.075, 72, 0, 1024, 1024, 1024, 1024, 0, 6, 3898, 3930, 3934, 3927, 3936, 3920, 0, 1, 16501, -90.000, 0.000, 148.600, 0.000, 0.000, -2.900, 0.0, , , , , , 98, , , 15, 15, 15
38.2848505, -120.3444642, 33.400, 13:15:22.175, 17, 0.00, 0.51, 97, 2.900, -0.900, 147.800, 391, 100, 99, 25, 23610, -18629, 5326, 5491, 11, 14, 1525810522.175, 96, 0, 1024, 1024, 1024, 1024, 0, 6, 3898, 3930, 3934, 3927, 3936, 3920, 0, 1, 16602, -89.900, 0.000, 148.600, 0.000, 0.000, -3.000, 0.0, , , , , , 98, , , 15, 15, 15
38.2848506, -120.3444642, 33.700, 13:15:22.275, 17, 0.00, 0.52, 97, 3.600, -1.100, 147.800, 391, 100, 97, 25, 23610, -18629, 5326, 5491, 11, 14, 1525810522.275, 46, 0, 1024, 1024, 1024, 1024, 0, 6, 3911, 3951, 3945, 3932, 3931, 3939, 0, 1, 16701, -90.000, 0.000, 148.600, 0.000, 0.000, -2.900, 0.0, , , , , , 98, , , 15, 15, 15
38.2848507, -120.3444641, 34.000, 13:15:22.374, 17, 0.00, 0.53, 97, 3.800, -1.200, 148.000, 391, 100, 97, 25, 23610, -18629, 5326, 5491, 11, 14, 1525810522.375, 48, 0, 1024, 1024, 1024, 1024, 0, 6, 3911, 3951, 3945, 3932, 3931, 3939, 0, 1, 16801, -90.000, 0.000, 148.600, 0.000, 0.000, -2.800, 0.0, , , , , , 98, , , 15, 15, 15
38.2848508, -120.3444640, 34.300, 13:15:22.474, 17, 0.00, 0.54, 97, 3.700, -1.000, 148.200, 391, 100, 97, 25, 23610, -18629, 5326, 5491, 11, 14, 1525810522.475, 96, 0, 1024, 1024, 1024, 1024, 0, 6, 3911, 3951, 3945, 3932, 3931, 3939, 0, 1, 16901, -89.900, 0.000, 148.600, 0.000, 0.000, -2.800, 0.0, , , , , , 98, , , 15, 15, 15
38.2848509, -120.3444640, 34.500, 13:15:22.575, 17, 0.00, 0.55, 97, 3.400, -0.700, 148.200, 391, 100, 97, 25, 23610, -18629, 5326, 5491, 11, 14, 1525810522.575, 37, 0, 1024, 1024, 1024, 1024, 0, 6, 3911, 3951, 3945, 3932, 3931, 3939, 0, 1, 17002, -90.000, 0.000, 148.600, 0.000, 0.000, -2.800, 0.0, , , , , , 98, , , 15, 15, 15
38.2848510, -120.3444639, 35.100, 13:15:22.675, 17, 0.00, 0.56, 97, 3.700, -0.400, 148.000, 391, 100, 97, 25, 23610, -18629, 5326, 5491, 11, 14, 1525810522.675, 69, 0, 1024, 1024, 1024, 1024, 0, 6, 3911, 3951, 3945, 3932, 3931, 3939, 0, 1, 17101, -89.900, 0.000, 148.600, 0.000, 0.000, -2.900, 0.0, , , , , , 98, , , 15, 15, 15
38.2848510, -120.3444639, 35.100, 13:15:22.775, 17, 0.00, 0.56, 97, 3.700, -0.400, 148.000, 391, 100, 96, 25, 23610, -18629, 5326, 5491, 11, 14, 1525810522.775, 169, 0, 1024, 1024, 1024, 1024, 0, 6, 3911, 3951, 3945, 3932, 3931, 3939, 0, 1, 17201, -89.900, 0.000, 148.600, 0.000, 0.000, -2.900, 0.0, , , , , , 98, , , 15, 15, 15
38.2848511, -120.3444639, 35.700, 13:15:22.874, 17, 0.00, 0.57, 97, 3.300, 0.000, 147.500, 391, 100, 96, 25, 23610, -18629, 5326, 5491, 11, 14, 1525810522.875, 39, 0, 1024, 1024, 1024, 1024, 0, 6, 3911, 3951, 3945, 3932, 3931, 3939, 0, 1, 17301, -89.900, 0.000, 148.600, 0.000, 0.000, -2.900, 0.0, , , , , , 98, , , 15, 15, 15
38.2848511, -120.3444639, 36.000, 13:15:22.975, 17, 0.00, 0.57, 97, 3.100, -0.100, 147.500, 391, 100, 96, 25, 23610, -18629, 5326, 5491, 11, 14, 1525810522.975, 66, 0, 1024, 1024, 1024, 1024, 0, 6, 3911, 3951, 3945, 3932, 3931, 3939, 0, 1, 17401, -89.900, 0.000, 148.600, 0.000, 0.000, -2.900, 0.0, , , , , , 98, , , 15, 15, 15
38.2848510, -120.3444638, 36.300, 13:15:23.075, 17, 0.00, 0.57, 97, 3.000, 0.100, 147.600, 391, 100, 96, 25, 23547, -19473, 5326, 5491, 11, 14, 1525810523.075, 48, 0, 1024, 1024, 1024, 1024, 0, 6, 3911, 3951, 3945, 3932, 3931, 3939, 0, 1, 17501, -89.900, 0.000, 148.600, 0.000, 0.000, -3.000, 0.0, , , , , , 98, , , 15, 15, 15
38.2848510, -120.3444638, 36.300, 13:15:23.175, 17, 0.00, 0.57, 97, 3.000, 0.100, 147.600, 391, 100, 96, 25, 23547, -19473, 5326, 5491, 11, 14, 1525810523.175, 148, 0, 1024, 1024, 1024, 1024, 0, 6, 3911, 3951, 3945, 3932, 3931, 3939, 0, 1, 17602, -89.900, 0.000, 148.600, 0.000, 0.000, -3.000, 0.0, , , , , , 98, , , 15, 15, 15
38.2848510, -120.3444638, 36.900, 13:15:23.275, 17, 0.00, 0.57, 97, 3.100, -0.100, 147.900, 391, 100, 96, 25, 23547, -19473, 5326, 5491, 11, 14, 1525810523.276, 42, 0, 1024, 1024, 1024, 1024, 0, 6, 3897, 3933, 3924, 3918, 3912, 3917, 0, 1, 17702, -89.900, 0.000, 148.600, 0.000, 0.000, -3.000, 0.0, , , , , , 98, , , 15, 15, 15
38.2848510, -120.3444638, 36.900, 13:15:23.375, 17, 0.00, 0.57, 97, 3.100, -0.100, 147.900, 391, 100, 96, 25, 23547, -19473, 5326, 5491, 11, 14, 1525810523.375, 141, 0, 1024, 1024, 1024, 1024, 0, 6, 3897, 3933, 3924, 3918, 3912, 3917, 0, 1, 17801, -89.900, 0.000, 148.600, 0.000, 0.000, -3.000, 0.0, , , , , , 98, , , 15, 15, 15
38.2848510, -120.3444637, 37.200, 13:15:23.475, 17, 0.00, 0.58, 97, 3.400, -0.200, 148.100, 391, 100, 96, 25, 23547, -19473, 5326, 5491, 11, 14, 1525810523.475, 53, 0, 1024, 1024, 1024, 1024, 0, 6, 3897, 3933, 3924, 3918, 3912, 3917, 0, 1, 17902, -89.900, 0.000, 148.600, 0.000, 0.000, -3.000, 0.0, , , , , , 98, , , 15, 15, 15
38.2848509, -120.3444635, 37.800, 13:15:23.577, 17, 0.00, 0.58, 97, 4.100, 0.300, 148.500, 391, 100, 96, 25, 23547, -19473, 5326, 5491, 11, 14, 1525810523.577, 11, 0, 1024, 1024, 1024, 1024, 0, 6, 3897, 3933, 3924, 3918, 3912, 3917, 0, 1, 18004, -89.900, 0.000, 148.600, 0.000, 0.000, -3.000, 0.0, , , , , , 98, , , 15, 15, 15
38.2848509, -120.3444635, 37.800, 13:15:23.674, 17, 0.00, 0.58, 97, 4.100, 0.300, 148.500, 391, 100, 99, 25, 23547, -19473, 5326, 5491, 11, 14, 1525810523.675, 108, 0, 1024, 1024, 1024, 1024, 0, 6, 3897, 3933, 3924, 3918, 3912, 3917, 0, 1, 18101, -89.900, 0.000, 148.600, 0.000, 0.000, -3.000, 0.0, , , , , , 98, , , 15, 15, 15
38.2848509, -120.3444635, 37.800, 13:15:23.775, 17, 0.00, 0.58, 97, 4.100, 0.300, 148.500, 391, 100, 99, 25, 23547, -19473, 5326, 5491, 11, 14, 1525810523.778, 211, 0, 1024, 1024, 1024, 1024, 0, 6, 3897, 3933, 3924, 3918, 3912, 3917, 0, 1, 18204, -89.900, 0.000, 148.600, 0.000, 0.000, -3.000, 0.0, , , , , , 98, , , 15, 15, 15
38.2848508, -120.3444634, 38.400, 13:15:23.875, 17, 0.00, 0.58, 97, 4.100, 1.000, 148.700, 391, 100, 99, 25, 23547, -19473, 5326, 5491, 11, 14, 1525810523.875, 21, 0, 1024, 1024, 1024, 1024, 0, 6, 3897, 3933, 3924, 3918, 3912, 3917, 0, 1, 18301, -89.900, 0.000, 148.600, 0.000, 0.000, -2.900, 0.0, , , , , , 98, , , 15, 15, 15
38.2848508, -120.3444634, 38.700, 13:15:23.975, 17, 0.00, 0.58, 97, 4.000, 1.000, 148.600, 391, 100, 99, 25, 23547, -19473, 5326, 5491, 11, 14, 1525810523.975, 70, 0, 1024, 1024, 1024, 1024, 0, 6, 3897, 3933, 3924, 3918, 3912, 3917, 0, 1, 18401, -89.900, 0.000, 148.600, 0.000, 0.000, -2.900, 0.0, , , , , , 98, , , 15, 15, 15
38.2848507, -120.3444634, 39.000, 13:15:24.075, 17, 0.00, 0.58, 97, 3.800, 0.900, 148.500, 391, 100, 99, 25, 23547, -19473, 5326, 5491, 11, 14, 1525810524.075, 33, 0, 1024, 1024, 1024, 1024, 0, 6, 3897, 3933, 3924, 3918, 3912, 3917, 0, 1, 18501, -89.900, 0.000, 148.600, 0.000, 0.000, -2.900, 0.0, , , , , , 98, , , 15, 15, 15
38.2848507, -120.3444633, 39.300, 13:15:24.175, 17, 0.00, 0.58, 97, 3.800, 0.700, 148.400, 391, 100, 99, 25, 23382, -20932, 5326, 5491, 11, 14, 1525810524.175, 38, 0, 1024, 1024, 1024, 1024, 0, 6, 3874, 3922, 3906, 3895, 3895, 3906, 0, 1, 18601, -89.900, 0.000, 148.600, 0.000, 0.000, -2.900, 0.0, , , , , , 98, , , 15, 15, 15
38.2848507, -120.3444633, 39.300, 13:15:24.275, 17, 0.00, 0.58, 97, 3.800, 0.700, 148.400, 391, 100, 99, 25, 23382, -20932, 5326, 5491, 11, 14, 1525810524.275, 138, 0, 1024, 1024, 1024, 1024, 0, 6, 3874, 3922, 3906, 3895, 3895, 3906, 0, 1, 18701, -89.900, 0.000, 148.600, 0.000, 0.000, -2.900, 0.0, , , , , , 98, , , 15, 15, 15
38.2848506, -120.3444634, 39.800, 13:15:24.375, 17, 0.00, 0.57, 97, 3.500, 0.400, 148.200, 391, 100, 97, 25, 23382, -20932, 5326, 5491, 11, 14, 1525810524.379, 17, 0, 1024, 1024, 1024, 1024, 0, 6, 3874, 3922, 3906, 3895, 3895, 3906, 0, 1, 18805, -89.900, 0.000, 148.600, 0.000, 0.000, -2.900, 0.0, , , , , , 98, , , 15, 15, 15
38.2848506, -120.3444634, 39.800, 13:15:24.475, 17, 0.00, 0.57, 97, 3.500, 0.400, 148.200, 391, 100, 97, 25, 23382, -20932, 5326, 5491, 11, 14, 1525810524.475, 113, 0, 1024, 1024, 1024, 1024, 0, 6, 3874, 3922, 3906, 3895, 3895, 3906, 0, 1, 18901, -89.900, 0.000, 148.600, 0.000, 0.000, -2.900, 0.0, , , , , , 98, , , 15, 15, 15
38.2848506, -120.3444633, 40.400, 13:15:24.575, 17, 0.00, 0.57, 97, 3.300, 0.300, 148.300, 391, 100, 97, 25, 23382, -20932, 5326, 5491, 11, 14, 1525810524.575, 21, 0, 1024, 1024, 1024, 1024, 0, 6, 3874, 3922, 3906, 3895, 3895, 3906, 0, 1, 19001, -89.900, 0.000, 148.600, 0.000, 0.000, -3.000, 0.0, , , , , , 98, , , 15, 15, 15
38.2848506, -120.3444633, 40.400, 13:15:24.675, 17, 0.00, 0.57, 97, 3.300, 0.300, 148.300, 391, 100, 97, 25, 23382, -20932, 5326, 5491, 11, 14, 1525810524.675, 121, 0, 1024, 1024, 1024, 1024, 0, 6, 3874, 3922, 3906, 3895, 3895, 3906, 0, 1, 19102, -89.900, 0.000, 148.600, 0.000, 0.000, -3.000, 0.0, , , , , , 98, , , 15, 15, 15
38.2848505, -120.3444633, 41.000, 13:15:24.775, 17, 0.00, 0.56, 97, 3.300, 0.500, 148.500, 391, 100, 94, 25, 23382, -20932, 5326, 5491, 11, 14, 1525810524.775, 60, 0, 1024, 1024, 1024, 1024, 0, 6, 3874, 3922, 3906, 3895, 3895, 3906, 0, 1, 19202, -89.900, 0.000, 148.600, 0.000, 0.000, -3.000, 0.0, , , , , , 98, , , 15, 15, 15
38.2848505, -120.3444633, 41.000, 13:15:24.874, 17, 0.00, 0.56, 97, 3.300, 0.500, 148.500, 391, 100, 94, 25, 23382, -20932, 5326, 5491, 11, 14, 1525810524.875, 160, 0, 1024, 1024, 1024, 1024, 0, 6, 3874, 3922, 3906, 3895, 3895, 3906, 0, 1, 19301, -89.900, 0.000, 148.600, 0.000, 0.000, -3.000, 0.0, , , , , , 98, , , 15, 15, 15
38.2848505, -120.3444633, 41.000, 13:15:24.974, 17, 0.00, 0.56, 97, 3.300, 0.500, 148.500, 391, 100, 94, 25, 23382, -20932, 5326, 5491, 11, 14, 1525810524.974, 259, 0, 1024, 1024, 1024, 1024, 0, 6, 3874, 3922, 3906, 3895, 3895, 3906, 0, 1, 19400, -89.900, 0.000, 148.600, 0.000, 0.000, -3.000, 0.0, , , , , , 98, , , 15, 15, 15
38.2848502, -120.3444633, 42.200, 13:15:25.075, 17, 0.00, 0.55, 97, 3.300, 1.000, 148.400, 391, 100, 94, 25, 23382, -20932, 5326, 5491, 11, 14, 1525810525.076, 68, 0, 1024, 1024, 1024, 1024, 0, 6, 3874, 3922, 3906, 3895, 3895, 3906, 0, 1, 19502, -89.900, 0.000, 148.600, 0.000, 0.000, -2.900, 0.0, , , , , , 98, , , 15, 15, 15
38.2848502, -120.3444633, 42.200, 13:15:25.175, 17, 0.00, 0.55, 97, 3.300, 1.000, 148.400, 391, 100, 94, 25, 23362, -20408, 5326, 5491, 11, 14, 1525810525.175, 167, 0, 1024, 1024, 1024, 1024, 0, 6, 3874, 3922, 3906, 3895, 3895, 3906, 0, 1, 19601, -89.900, 0.000, 148.600, 0.000, 0.000, -2.900, 0.0, , , , , , 98, , , 15, 15, 15
38.2848502, -120.3444633, 42.200, 13:15:25.275, 17, 0.00, 0.55, 97, 3.300, 1.000, 148.400, 391, 100, 94, 25, 23362, -20408, 5326, 5491, 11, 14, 1525810525.275, 268, 0, 1024, 1024, 1024, 1024, 0, 6, 3874, 3922, 3906, 3895, 3895, 3906, 0, 1, 19702, -89.900, 0.000, 148.600, 0.000, 0.000, -2.900, 0.0, , , , , , 98, , , 15, 15, 15
38.2848502, -120.3444633, 42.800, 13:15:25.375, 17, 0.00, 0.55, 97, 3.300, 0.700, 148.300, 391, 100, 93, 25, 23362, -20408, 5326, 5491, 11, 14, 1525810525.375, 42, 0, 1024, 1024, 1024, 1024, 0, 6, 3874, 3922, 3906, 3895, 3895, 3906, 0, 1, 19802, -89.900, 0.000, 148.600, 0.000, 0.000, -2.900, 0.0, , , , , , 98, , , 15, 15, 15
38.2848501, -120.3444634, 43.400, 13:15:25.483, 17, 0.00, 0.54, 97, 3.000, 0.400, 148.200, 391, 100, 93, 25, 23362, -20408, 5326, 5491, 11, 14, 1525810525.483, 7, 0, 1024, 1024, 1024, 1024, 0, 6, 3874, 3922, 3906, 3895, 3895, 3906, 0, 1, 19910, -90.000, 0.000, 148.600, 0.000, 0.000, -2.900, 0.0, , , , , , 98, , , 15, 15, 15
38.2848501, -120.3444634, 43.400, 13:15:25.575, 17, 0.00, 0.54, 97, 3.000, 0.400, 148.200, 391, 100, 93, 25, 23362, -20408, 5326, 5491, 11, 14, 1525810525.575, 99, 0, 1024, 1024, 1024, 1024, 0, 6, 3874, 3922, 3906, 3895, 3895, 3906, 0, 1, 20001, -90.000, 0.000, 148.600, 0.000, 0.000, -2.900, 0.0, , , , , , 98, , , 15, 15, 15
38.2848501, -120.3444634, 43.700, 13:15:25.675, 17, 0.00, 0.53, 97, 3.000, 0.400, 148.200, 391, 100, 93, 25, 23362, -20408, 5326, 5491, 11, 14, 1525810525.675, 40, 0, 1024, 1024, 1024, 1024, 0, 6, 3869, 3910, 3907, 3892, 3884, 3891, 0, 1, 20101, -90.000, 0.000, 148.600, 0.000, 0.000, -3.000, 0.0, , , , , , 98, , , 15, 15, 15
38.2848500, -120.3444635, 44.300, 13:15:25.774, 17, 0.00, 0.52, 97, 3.200, 0.400, 148.000, 391, 100, 92, 25, 23362, -20408, 5326, 5491, 11, 14, 1525810525.774, 4, 0, 1024, 1024, 1024, 1024, 0, 6, 3869, 3910, 3907, 3892, 3884, 3891, 0, 1, 20200, -89.900, 0.000, 148.600, 0.000, 0.000, -3.100, 0.0, , , , , , 98, , , 15, 15, 15
38.2848500, -120.3444635, 44.300, 13:15:25.875, 17, 0.00, 0.52, 97, 3.200, 0.400, 148.000, 391, 100, 92, 25, 23362, -20408, 5326, 5491, 11, 14, 1525810525.876, 106, 0, 1024, 1024, 1024, 1024, 0, 6, 3869, 3910, 3907, 3892, 3884, 3891, 0, 1, 20302, -89.900, 0.000, 148.600, 0.000, 0.000, -3.100, 0.0, , , , , , 98, , , 15, 15, 15
38.2848499, -120.3444636, 44.900, 13:15:25.975, 17, 0.00, 0.50, 97, 2.600, 0.500, 148.100, 391, 100, 92, 25, 23362, -20408, 5326, 5491, 11, 14, 1525810525.975, 9, 0, 1024, 1024, 1024, 1024, 0, 6, 3869, 3910, 3907, 3892, 3884, 3891, 0, 1, 20402, -89.900, 0.000, 148.600, 0.000, 0.000, -3.100, 0.0, , , , , , 98, , , 15, 15, 15
38.2848499, -120.3444636, 44.900, 13:15:26.075, 17, 0.00, 0.50, 97, 2.600, 0.500, 148.100, 391, 100, 92, 25, 23362, -20408, 5326, 5491, 11, 14, 1525810526.076, 110, 0, 1024, 1024, 1024, 1024, 0, 6, 3869, 3910, 3907, 3892, 3884, 3891, 0, 1, 20503, -89.900, 0.000, 148.600, 0.000, 0.000, -3.100, 0.0, , , , , , 98, , , 15, 15, 15
38.2848499, -120.3444636, 44.900, 13:15:26.175, 17, 0.00, 0.50, 97, 2.600, 0.500, 148.100, 391, 100, 92, 25, 23362, -20408, 5326, 5491, 11, 14, 1525810526.175, 209, 0, 1024, 1024, 1024, 1024, 0, 6, 3869, 3910, 3907, 3892, 3884, 3891, 0, 1, 20602, -89.900, 0.000, 148.600, 0.000, 0.000, -3.100, 0.0, , , , , , 98, , , 15, 15, 15
38.2848498, -120.3444637, 45.200, 13:15:26.275, 17, 0.00, 0.50, 97, 2.600, 0.400, 148.200, 391, 100, 92, 25, 23362, -20408, 5326, 5491, 11, 14, 1525810526.275, 52, 0, 1024, 1024, 1024, 1024, 0, 6, 3869, 3910, 3907, 3892, 3884, 3891, 0, 1, 20701, -90.000, 0.000, 148.600, 0.000, 0.000, -3.000, 0.0, , , , , , 98, , , 15, 15, 15
