Latitude, Longitude, Altitude (m), Time, Sats, Speed (m/s), Range (m), Battery (%), Roll (deg), Pitch (deg), Yaw (deg), Images, HD Signal (%), RC Signal (%), Battery Temp (C), Battery Voltage (mV), Battery Current (mA), Battery Energy (mAh), Battery Capacity (mAh), Battery Discharges, flyState, timestamp (Unix), LastUpdate (ms), radioChannel, Rc_elevator, Rc_aileron, Rc_throttle, Rc_rudder, Rc_gyro, Dronetype, Battery_Cell1 (mV), Battery_Cell2 (mV), Battery_Cell3 (mV), Battery_Cell4 (mV), Battery_Cell5 (mV), Battery_Cell6 (mV), Video, isFlying, elapsedTime (ms), gimbalPitch (deg), gimbalRoll (deg), gimbalYaw (deg), VelocityX (m/s), VelocityY (m/s), VelocityZ (m/s), GroundSmear (cm), App Version, Aircraft Name, Aircraft Firmware, Aircraft Serial Number, Battery Serial Number, Battery Lifetime (%), App_Tip, App_Warning, CurrentFlightStartingIndex, CurrentFlightLastVisitedWaypoint, PreviousFlightEndingWaypointIndex
38.2848420, -120.3444837, 0.000, 13:35:53.268, 14, 0.00, 0.03, 98, -1.000, -0.100, 149.800, 782, 100, 100, 24, 25454, -5825, 5362, 5472, 12, 11, 1525811753.269, 109, 0, 1024, 1024, 1024, 1024, 0, 6, 4249, 4284, 4314, 4320, 4311, 4318, 0, 1, 2967, 0.000, 0.000, 0.000, 0.000, 0.000, -0.100, 0.0, MapPilot_2.8.1_04242018, Dendroctonus I, 1.3.1.00, 041DDC1887, 1058171200140, 97, Photo, Starting Mission from Lat/Long: 38.28485/-120.34447 Camera: Zenmuse X3 - Overlap: 90/90 - Active Connection: No, 29, 29, 29
38.2848420, -120.3444837, 0.000, 13:35:53.303, 14, 0.00, 0.03, 98, -1.000, -0.100, 149.800, 782, 100, 100, 24, 25454, -5825, 5362, 5472, 12, 11, 1525811753.303, 143, 0, 1024, 1024, 1024, 1024, 0, 6, 4219, 4227, 4244, 4259, 4224, 4280, 0, 1, 3001, 0.000, 0.000, 0.000, 0.000, 0.000, -0.100, 0.0, , , , , , 97, , , 29, 29, 29
38.2848420, -120.3444836, 0.000, 13:35:53.403, 13, 0.10, 0.04, 98, -0.700, -0.300, 149.900, 782, 100, 100, 24, 25454, -5825, 5362, 5472, 12, 11, 1525811753.403, 77, 0, 1024, 1024, 1024, 1024, 0, 6, 4219, 4227, 4244, 4259, 4224, 4280, 0, 1, 3101, 0.000, 0.000, 0.000, 0.000, 0.100, -0.200, 0.0, , , , , , 97, , , 29, 29, 29
38.2848421, -120.3444834, 0.000, 13:35:53.503, 13, 0.10, 0.05, 98, -0.400, -0.500, 149.900, 782, 100, 100, 24, 25454, -5825, 5362, 5472, 12, 11, 1525811753.503, 79, 0, 1024, 1024, 1024, 1024, 0, 6, 4219, 4227, 4244, 4259, 4224, 4280, 0, 1, 3202, 0.000, 0.000, 0.000, 0.000, 0.100, -0.300, 0.0, , , , , , 97, , , 29, 29, 29
38.2848421, -120.3444832, 0.100, 13:35:53.603, 14, 0.10, 0.07, 98, 0.000, -0.400, 149.900, 782, 100, 100, 24, 25454, -5825, 5362, 5472, 12, 11, 1525811753.603, 21, 0, 1024, 1024, 1024, 1024, 0, 6, 4219, 4227, 4244, 4259, 4224, 4280, 0, 1, 3301, 0.000, 0.000, 0.000, 0.000, 0.100, -0.400, 0.0, , , , , , 97, , , 29, 29, 29
38.2848421, -120.3444830, 0.100, 13:35:53.703, 14, 0.10, 0.09, 98, 0.600, 0.000, 149.800, 782, 100, 100, 24, 25454, -5825, 5362, 5472, 12, 11, 1525811753.703, 62, 0, 1024, 1024, 1024, 1024, 0, 6, 4219, 4227, 4244, 4259, 4224, 4280, 0, 1, 3401, 0.000, 0.000, 0.000, 0.000, 0.100, -0.400, 0.0, , , , , , 97, , , 29, 29, 29
38.2848421, -120.3444828, 0.100, 13:35:53.803, 14, 0.20, 0.11, 98, 1.300, 0.500, 149.700, 782, 100, 100, 24, 25454, -5825, 5362, 5472, 12, 11, 1525811753.803, 12, 0, 1024, 1024, 1024, 1024, 0, 6, 4219, 4227, 4244, 4259, 4224, 4280, 0, 1, 3501, 0.000, 0.000, 0.000, 0.000, 0.200, -0.400, 0.0, , , , , , 97, , , 29, 29, 29
38.2848421, -120.3444825, 0.200, 13:35:53.903, 14, 0.10, 0.13, 98, 1.700, 0.900, 149.600, 782, 100, 100, 24, 25454, -5825, 5362, 5472, 12, 11, 1525811753.904, 35, 0, 1024, 1024, 1024, 1024, 0, 6, 4219, 4227, 4244, 4259, 4224, 4280, 0, 1, 3602, 0.000, 0.000, 0.000, 0.000, 0.100, -0.400, 0.0, , , , , , 97, , , 29, 29, 29
38.2848421, -120.3444825, 0.200, 13:35:54.003, 14, 0.10, 0.13, 98, 1.700, 0.900, 149.600, 782, 100, 100, 24, 25454, -5825, 5362, 5472, 12, 11, 1525811754.003, 134, 0, 1024, 1024, 1024, 1024, 0, 6, 4219, 4227, 4244, 4259, 4224, 4280, 0, 1, 3701, 0.000, 0.000, 0.000, 0.000, 0.100, -0.400, 0.0, , , , , , 97, , , 29, 29, 29
38.2848421, -120.3444821, 0.300, 13:35:54.103, 12, 0.10, 0.16, 98, 1.900, 1.200, 149.500, 782, 100, 100, 24, 25454, -5825, 5362, 5472, 12, 11, 1525811754.103, 90, 0, 1024, 1024, 1024, 1024, 0, 6, 4219, 4227, 4244, 4259, 4224, 4280, 0, 1, 3801, 0.000, 0.000, 0.000, 0.000, 0.100, -0.400, 0.0, , , , , , 97, , , 29, 29, 29
38.2848420, -120.3444818, 0.400, 13:35:54.202, 13, 0.10, 0.19, 98, 1.600, 1.100, 149.600, 782, 100, 100, 24, 25454, -5825, 5362, 5472, 12, 11, 1525811754.203, 49, 0, 1024, 1024, 1024, 1024, 0, 6, 4219, 4227, 4244, 4259, 4224, 4280, 0, 1, 3901, 0.000, 0.000, 0.000, 0.000, 0.100, -0.400, 0.0, , , , , , 97, , , 29, 29, 29
38.2848420, -120.3444818, 0.400, 13:35:54.303, 13, 0.10, 0.19, 98, 1.600, 1.100, 149.600, 782, 100, 100, 24, 24608, -15765, 5362, 5472, 12, 11, 1525811754.303, 148, 0, 1024, 1024, 1024, 1024, 0, 6, 4219, 4227, 4244, 4259, 4224, 4280, 0, 1, 4001, 0.000, 0.000, 0.000, 0.000, 0.100, -0.400, 0.0, , , , , , 97, , , 29, 29, 29
38.2848420, -120.3444817, 0.500, 13:35:54.402, 14, 0.00, 0.20, 98, 0.900, 0.700, 149.800, 782, 100, 100, 24, 24608, -15765, 5362, 5472, 12, 11, 1525811754.404, 11, 0, 1024, 1024, 1024, 1024, 0, 6, 4082, 4091, 4110, 4119, 4084, 4111, 0, 1, 4102, 0.000, 0.000, 0.000, 0.000, 0.000, -0.400, 0.0, , , , , , 97, , , 29, 29, 29
38.2848420, -120.3444815, 0.500, 13:35:54.503, 14, 0.00, 0.21, 98, 0.900, 0.600, 149.900, 782, 100, 100, 24, 24608, -15765, 5362, 5472, 12, 11, 1525811754.503, 25, 0, 1024, 1024, 1024, 1024, 0, 6, 4082, 4091, 4110, 4119, 4084, 4111, 0, 1, 4201, 0.000, 0.000, 0.000, 0.000, 0.000, -0.500, 0.0, , , , , , 97, , , 29, 29, 29
38.2848420, -120.3444813, 0.600, 13:35:54.603, 14, 0.10, 0.23, 98, 1.000, 0.700, 150.000, 782, 100, 100, 24, 24608, -15765, 5362, 5472, 12, 11, 1525811754.603, 50, 0, 1024, 1024, 1024, 1024, 0, 6, 4082, 4091, 4110, 4119, 4084, 4111, 0, 1, 4301, 0.000, 0.000, 0.000, 0.000, 0.100, -0.500, 0.0, , , , , , 97, , , 29, 29, 29
38.2848420, -120.3444812, 0.600, 13:35:54.702, 12, 0.10, 0.25, 98, 1.100, 0.900, 150.100, 782, 100, 100, 24, 24608, -15765, 5362, 5472, 12, 11, 1525811754.703, 15, 0, 1024, 1024, 1024, 1024, 0, 6, 4082, 4091, 4110, 4119, 4084, 4111, 0, 1, 4401, 0.000, 0.000, 0.000, 0.000, 0.100, -0.500, 0.0, , , , , , 97, , , 29, 29, 29
38.2848420, -120.3444811, 0.700, 13:35:54.803, 12, 0.10, 0.25, 98, 1.100, 1.000, 150.100, 782, 100, 99, 24, 24608, -15765, 5362, 5472, 12, 11, 1525811754.803, 41, 0, 1024, 1024, 1024, 1024, 0, 6, 4082, 4091, 4110, 4119, 4084, 4111, 0, 1, 4501, 0.000, 0.000, 0.000, 0.000, 0.100, -0.500, 0.0, , , , , , 97, , , 29, 29, 29
38.2848420, -120.3444811, 0.700, 13:35:54.902, 12, 0.10, 0.25, 98, 1.100, 1.000, 150.100, 782, 100, 99, 24, 24608, -15765, 5362, 5472, 12, 11, 1525811754.903, 141, 0, 1024, 1024, 1024, 1024, 0, 6, 4082, 4091, 4110, 4119, 4084, 4111, 0, 1, 4601, 0.000, 0.000, 0.000, 0.000, 0.100, -0.500, 0.0, , , , , , 97, , , 29, 29, 29
38.2848419, -120.3444807, 0.800, 13:35:55.002, 14, 0.10, 0.28, 98, 1.300, 1.100, 150.200, 782, 100, 99, 24, 24608, -15765, 5362, 5472, 12, 11, 1525811755.002, 6, 0, 1024, 1024, 1024, 1024, 0, 6, 4082, 4091, 4110, 4119, 4084, 4111, 0, 1, 4700, 0.000, 0.000, 0.000, 0.000, 0.100, -0.400, 0.0, , , , , , 97, , , 29, 29, 29
38.2848419, -120.3444806, 0.900, 13:35:55.103, 14, 0.10, 0.29, 98, 1.400, 1.200, 150.200, 782, 100, 99, 24, 24608, -15765, 5362, 5472, 12, 11, 1525811755.103, 59, 0, 1024, 1024, 1024, 1024, 0, 6, 4082, 4091, 4110, 4119, 4084, 4111, 0, 1, 4801, 0.000, 0.000, 0.000, 0.000, 0.100, -0.500, 0.0, , , , , , 97, , , 29, 29, 29
38.2848419, -120.3444805, 0.900, 13:35:55.203, 14, 0.00, 0.30, 98, 1.600, 1.300, 150.000, 782, 100, 99, 24, 24432, -16347, 5362, 5472, 12, 14, 1525811755.203, 88, 0, 1024, 1024, 1024, 1024, 0, 6, 4053, 4075, 4076, 4082, 4059, 4088, 0, 1, 4901, 0.000, 0.000, 0.000, 0.000, 0.000, -0.500, 0.0, , , , , , 97, , , 29, 29, 29
38.2848418, -120.3444804, 1.000, 13:35:55.302, 15, 0.00, 0.31, 98, 1.800, 1.500, 149.800, 782, 100, 98, 24, 24432, -16347, 5362, 5472, 12, 14, 1525811755.304, 41, 0, 1024, 1024, 1024, 1024, 0, 6, 4053, 4075, 4076, 4082, 4059, 4088, 0, 1, 5002, 0.000, 0.000, 0.000, 0.000, 0.000, -0.300, 0.0, , , , , , 97, , , 29, 29, 29
38.2848418, -120.3444804, 1.000, 13:35:55.403, 15, 0.00, 0.31, 98, 1.800, 1.500, 149.800, 782, 100, 98, 24, 24432, -16347, 5362, 5472, 12, 14, 1525811755.404, 141, 0, 1024, 1024, 1024, 1024, 0, 6, 4053, 4075, 4076, 4082, 4059, 4088, 0, 1, 5102, 0.000, 0.000, 0.000, 0.000, 0.000, -0.300, 0.0, , , , , , 97, , , 29, 29, 29
38.2848419, -120.3444802, 1.000, 13:35:55.503, 15, 0.00, 0.33, 98, 1.600, 1.200, 149.700, 782, 100, 98, 24, 24432, -16347, 5362, 5472, 12, 14, 1525811755.503, 91, 0, 1024, 1024, 1024, 1024, 0, 6, 4053, 4075, 4076, 4082, 4059, 4088, 0, 1, 5201, 0.000, 0.000, 0.000, 0.000, 0.000, -0.200, 0.0, , , , , , 97, , , 29, 29, 29
38.2848419, -120.3444801, 1.000, 13:35:55.603, 16, 0.00, 0.34, 98, 1.600, 1.100, 149.600, 782, 100, 98, 24, 24432, -16347, 5362, 5472, 12, 14, 1525811755.604, 34, 0, 1024, 1024, 1024, 1024, 0, 6, 4053, 4075, 4076, 4082, 4059, 4088, 0, 1, 5302, 0.000, 0.000, 0.000, 0.000, 0.000, -0.200, 0.0, , , , , , 97, , , 29, 29, 29
38.2848419, -120.3444800, 1.100, 13:35:55.703, 16, 0.00, 0.34, 98, 1.600, 1.000, 149.600, 782, 100, 98, 24, 24432, -16347, 5362, 5472, 12, 14, 1525811755.703, 67, 0, 1024, 1024, 1024, 1024, 0, 6, 4053, 4075, 4076, 4082, 4059, 4088, 0, 1, 5401, 0.000, 0.000, 0.000, 0.000, 0.000, -0.300, 0.0, , , , , , 97, , , 29, 29, 29
38.2848419, -120.3444800, 1.100, 13:35:55.802, 16, 0.00, 0.34, 98, 1.600, 1.000, 149.600, 782, 100, 98, 24, 24432, -16347, 5362, 5472, 12, 14, 1525811755.802, 166, 0, 1024, 1024, 1024, 1024, 0, 6, 4053, 4075, 4076, 4082, 4059, 4088, 0, 1, 5500, 0.000, 0.000, 0.000, 0.000, 0.000, -0.300, 0.0, , , , , , 97, , , 29, 29, 29
38.2848418, -120.3444799, 1.200, 13:35:55.903, 16, 0.00, 0.35, 98, 1.400, 1.000, 149.600, 782, 100, 98, 24, 24432, -16347, 5362, 5472, 12, 14, 1525811755.904, 8, 0, 1024, 1024, 1024, 1024, 0, 6, 4053, 4075, 4076, 4082, 4059, 4088, 0, 1, 5602, 0.000, 0.000, 0.000, 0.000, 0.000, -0.600, 0.0, , , , , , 97, , , 29, 29, 29
38.2848418, -120.3444799, 1.200, 13:35:56.003, 16, 0.00, 0.35, 98, 1.400, 1.000, 149.600, 782, 100, 98, 24, 24432, -16347, 5362, 5472, 12, 14, 1525811756.003, 107, 0, 1024, 1024, 1024, 1024, 0, 6, 4053, 4075, 4076, 4082, 4059, 4088, 0, 1, 5701, 0.000, 0.000, 0.000, 0.000, 0.000, -0.600, 0.0, , , , , , 97, , , 29, 29, 29
38.2848418, -120.3444799, 1.200, 13:35:56.103, 15, 0.00, 0.36, 98, 1.400, 1.000, 149.700, 782, 100, 98, 24, 24432, -16347, 5362, 5472, 12, 14, 1525811756.103, 84, 0, 1024, 1024, 1024, 1024, 0, 6, 4053, 4075, 4076, 4082, 4059, 4088, 0, 1, 5801, 0.000, 0.000, 0.000, 0.000, 0.000, -0.700, 0.0, , , , , , 97, , , 29, 29, 29
38.2848418, -120.3444798, 1.300, 13:35:56.203, 15, 0.00, 0.36, 98, 1.500, 0.900, 149.700, 782, 100, 98, 24, 24432, -16347, 5362, 5472, 12, 14, 1525811756.203, 75, 0, 1024, 1024, 1024, 1024, 0, 6, 4053, 4075, 4076, 4082, 4059, 4088, 0, 1, 5902, 0.000, 0.000, 0.000, 0.000, 0.000, -1.000, 0.0, , , , , , 97, , , 29, 29, 29
38.2848417, -120.3444797, 1.500, 13:35:56.303, 15, 0.00, 0.38, 98, 1.300, 0.800, 149.700, 782, 100, 98, 24, 24397, -16292, 5362, 5472, 12, 14, 1525811756.304, 45, 0, 1024, 1024, 1024, 1024, 0, 6, 4053, 4075, 4076, 4082, 4059, 4088, 0, 1, 6002, 0.000, 0.000, 0.000, 0.000, 0.000, -1.200, 0.0, , , , , , 97, , , 29, 29, 29
38.2848416, -120.3444795, 1.900, 13:35:56.404, 16, 0.00, 0.39, 98, 1.100, 1.200, 149.700, 782, 100, 95, 24, 24397, -16292, 5362, 5472, 12, 14, 1525811756.404, 5, 0, 1024, 1024, 1024, 1024, 0, 6, 4053, 4075, 4076, 4082, 4059, 4088, 0, 1, 6102, 0.000, 0.000, 0.000, 0.000, 0.000, -1.800, 0.0, , , , , , 97, , , 29, 29, 29
38.2848416, -120.3444795, 1.900, 13:35:56.503, 16, 0.00, 0.39, 98, 1.100, 1.200, 149.700, 782, 100, 95, 24, 24397, -16292, 5362, 5472, 12, 14, 1525811756.504, 104, 0, 1024, 1024, 1024, 1024, 0, 6, 4053, 4075, 4076, 4082, 4059, 4088, 0, 1, 6202, 0.000, 0.000, 0.000, 0.000, 0.000, -1.800, 0.0, , , , , , 97, , , 29, 29, 29
38.2848416, -120.3444795, 2.100, 13:35:56.603, 16, 0.00, 0.39, 98, 1.200, 1.200, 149.600, 782, 100, 95, 24, 24397, -16292, 5362, 5472, 12, 14, 1525811756.604, 25, 0, 1024, 1024, 1024, 1024, 0, 6, 4053, 4075, 4076, 4082, 4059, 4088, 0, 1, 6302, 0.000, 0.000, 0.000, 0.000, 0.000, -2.100, 0.0, , , , , , 97, , , 29, 29, 29
38.2848414, -120.3444793, 2.500, 13:35:56.709, 16, 0.00, 0.41, 98, 1.300, 1.300, 149.700, 782, 100, 95, 24, 24397, -16292, 5362, 5472, 12, 14, 1525811756.710, 6, 0, 1024, 1024, 1024, 1024, 0, 6, 4053, 4075, 4076, 4082, 4059, 4088, 0, 1, 6408, 0.000, 0.000, 0.000, 0.000, 0.000, -2.500, 0.0, , , , , , 97, , , 29, 29, 29
38.2848414, -120.3444792, 2.800, 13:35:56.832, 16, 0.00, 0.42, 98, 1.300, 1.400, 149.700, 782, 100, 95, 24, 24397, -16292, 5362, 5472, 12, 14, 1525811756.833, 12, 0, 1024, 1024, 1024, 1024, 0, 6, 4045, 4094, 4053, 4041, 4036, 4063, 0, 1, 6531, 0.000, 0.000, 0.000, 0.000, 0.000, -2.700, 0.0, , , , , , 97, , , 29, 29, 29
38.2848414, -120.3444792, 2.800, 13:35:56.903, 16, 0.00, 0.42, 98, 1.300, 1.400, 149.700, 782, 100, 95, 24, 24397, -16292, 5362, 5472, 12, 14, 1525811756.904, 83, 0, 1024, 1024, 1024, 1024, 0, 6, 4045, 4094, 4053, 4041, 4036, 4063, 0, 1, 6602, 0.000, 0.000, 0.000, 0.000, 0.000, -2.700, 0.0, , , , , , 97, , , 29, 29, 29
38.2848413, -120.3444792, 3.100, 13:35:57.003, 16, 0.00, 0.42, 98, 1.300, 1.500, 149.800, 782, 100, 95, 24, 24397, -16292, 5362, 5472, 12, 14, 1525811757.003, 38, 0, 1024, 1024, 1024, 1024, 0, 6, 4045, 4094, 4053, 4041, 4036, 4063, 0, 1, 6701, 0.000, 0.000, 0.000, 0.000, 0.000, -2.900, 0.0, , , , , , 97, , , 29, 29, 29
38.2848412, -120.3444792, 3.400, 13:35:57.103, 16, 0.00, 0.43, 98, 1.300, 1.600, 149.800, 782, 100, 95, 24, 24397, -16292, 5362, 5472, 12, 14, 1525811757.104, 77, 0, 1024, 1024, 1024, 1024, 0, 6, 4045, 4094, 4053, 4041, 4036, 4063, 0, 1, 6802, 0.000, 0.000, 0.000, 0.000, 0.000, -3.000, 0.0, , , , , , 97, , , 29, 29, 29
38.2848412, -120.3444792, 3.400, 13:35:57.202, 16, 0.00, 0.43, 98, 1.300, 1.600, 149.800, 782, 100, 95, 24, 24397, -16292, 5362, 5472, 12, 14, 1525811757.203, 176, 0, 1024, 1024, 1024, 1024, 0, 6, 4045, 4094, 4053, 4041, 4036, 4063, 0, 1, 6901, 0.000, 0.000, 0.000, 0.000, 0.000, -3.000, 0.0, , , , , , 97, , , 29, 29, 29
38.2848408, -120.3444792, 4.000, 13:35:57.303, 16, 0.00, 0.43, 98, 0.500, 1.600, 150.000, 782, 100, 95, 24, 24397, -16292, 5362, 5472, 12, 14, 1525811757.303, 57, 0, 1024, 1024, 1024, 1024, 0, 6, 4045, 4094, 4053, 4041, 4036, 4063, 0, 1, 7001, 0.000, 0.000, 0.000, 0.000, 0.000, -3.200, 0.0, , , , , , 97, , , 29, 29, 29
38.2848407, -120.3444792, 4.400, 13:35:57.402, 17, 0.00, 0.43, 98, 0.100, 1.800, 150.000, 782, 100, 95, 24, 24397, -16292, 5362, 5472, 12, 14, 1525811757.403, 36, 0, 1024, 1024, 1024, 1024, 0, 6, 4045, 4094, 4053, 4041, 4036, 4063, 0, 1, 7101, 0.000, 0.000, 0.000, 0.000, 0.000, -3.200, 0.0, , , , , , 97, , , 29, 29, 29
38.2848406, -120.3444792, 5.100, 13:35:57.503, 15, 0.00, 0.44, 98, 0.300, 2.200, 149.900, 782, 100, 95, 24, 24397, -16292, 5362, 5472, 12, 14, 1525811757.503, 29, 0, 1024, 1024, 1024, 1024, 0, 6, 4045, 4094, 4053, 4041, 4036, 4063, 0, 1, 7201, 0.000, 0.000, 0.000, 0.000, 0.000, -3.300, 0.0, , , , , , 97, , , 29, 29, 29
38.2848406, -120.3444792, 5.100, 13:35:57.603, 15, 0.00, 0.44, 98, 0.300, 2.200, 149.900, 782, 100, 95, 24, 24397, -16292, 5362, 5472, 12, 14, 1525811757.603, 129, 0, 1024, 1024, 1024, 1024, 0, 6, 4045, 4094, 4053, 4041, 4036, 4063, 0, 1, 7301, 0.000, 0.000, 0.000, 0.000, 0.000, -3.300, 0.0, , , , , , 97, , , 29, 29, 29
38.2848404, -120.3444793, 5.700, 13:35:57.703, 14, 0.00, 0.44, 98, 0.600, 2.000, 150.000, 782, 100, 95, 24, 24397, -16292, 5362, 5472, 12, 14, 1525811757.703, 13, 0, 1024, 1024, 1024, 1024, 0, 6, 4045, 4094, 4053, 4041, 4036, 4063, 0, 1, 7401, 0.000, 0.000, 0.000, 0.000, 0.000, -3.200, 0.0, , , , , , 97, , , 29, 29, 29
38.2848405, -120.3444795, 6.100, 13:35:57.823, 14, 0.00, 0.42, 98, 0.400, 1.700, 150.000, 782, 100, 100, 24, 23849, -23240, 5362, 5472, 12, 14, 1525811757.823, 12, 0, 1024, 1024, 1024, 1024, 0, 6, 4045, 4094, 4053, 4041, 4036, 4063, 0, 1, 7521, 0.000, 0.000, 0.000, 0.000, 0.000, -3.200, 0.0, , , , , , 97, , , 29, 29, 29
38.2848406, -120.3444796, 6.400, 13:35:57.903, 15, 0.00, 0.41, 98, 0.200, 1.300, 150.000, 782, 100, 100, 24, 23849, -23240, 5362, 5472, 12, 14, 1525811757.904, 23, 0, 1024, 1024, 1024, 1024, 0, 6, 3942, 3958, 3982, 3979, 3957, 3986, 0, 1, 7602, 0.000, 0.000, 0.000, 0.000, 0.000, -3.200, 0.0, , , , , , 97, , , 29, 29, 29
38.2848406, -120.3444796, 6.400, 13:35:58.003, 15, 0.00, 0.41, 98, 0.200, 1.300, 150.000, 782, 100, 100, 24, 23849, -23240, 5362, 5472, 12, 14, 1525811758.003, 122, 0, 1024, 1024, 1024, 1024, 0, 6, 3942, 3958, 3982, 3979, 3957, 3986, 0, 1, 7701, 0.000, 0.000, 0.000, 0.000, 0.000, -3.200, 0.0, , , , , , 97, , , 29, 29, 29
38.2848407, -120.3444798, 6.700, 13:35:58.103, 15, 0.00, 0.39, 98, 0.100, 0.900, 149.900, 782, 100, 100, 24, 23849, -23240, 5362, 5472, 12, 14, 1525811758.103, 86, 0, 1024, 1024, 1024, 1024, 0, 6, 3942, 3958, 3982, 3979, 3957, 3986, 0, 1, 7801, 0.000, 0.000, 0.000, 0.000, 0.000, -3.200, 0.0, , , , , , 97, , , 29, 29, 29
38.2848407, -120.3444800, 7.100, 13:35:58.204, 13, 0.00, 0.37, 98, 0.000, 0.400, 150.000, 782, 100, 100, 24, 23849, -23240, 5362, 5472, 12, 14, 1525811758.204, 45, 0, 1024, 1024, 1024, 1024, 0, 6, 3942, 3958, 3982, 3979, 3957, 3986, 0, 1, 7902, 0.000, 0.000, 0.000, 0.000, 0.000, -3.200, 0.0, , , , , , 97, , , 29, 29, 29
38.2848408, -120.3444800, 7.400, 13:35:58.307, 13, 0.00, 0.36, 98, 0.000, 0.300, 149.900, 782, 100, 100, 24, 23849, -23240, 5362, 5472, 12, 14, 1525811758.307, 29, 0, 1024, 1024, 1024, 1024, 0, 6, 3942, 3958, 3982, 3979, 3957, 3986, 0, 1, 8005, 0.000, 0.000, 0.000, 0.000, 0.000, -3.100, 0.0, , , , , , 97, , , 29, 29, 29
38.2848408, -120.3444800, 7.400, 13:35:58.406, 13, 0.00, 0.36, 98, 0.000, 0.300, 149.900, 782, 100, 100, 24, 23849, -23240, 5362, 5472, 12, 14, 1525811758.406, 128, 0, 1024, 1024, 1024, 1024, 0, 6, 3942, 3958, 3982, 3979, 3957, 3986, 0, 1, 8104, 0.000, 0.000, 0.000, 0.000, 0.000, -3.100, 0.0, , , , , , 97, , , 29, 29, 29
38.2848409, -120.3444802, 7.700, 13:35:58.507, 13, 0.00, 0.35, 98, 0.000, 0.200, 149.900, 782, 100, 100, 24, 23849, -23240, 5362, 5472, 12, 14, 1525811758.507, 46, 0, 1024, 1024, 1024, 1024, 0, 6, 3942, 3958, 3982, 3979, 3957, 3986, 0, 1, 8205, 0.000, 0.000, 0.000, 0.000, 0.000, -3.100, 0.0, , , , , , 97, , , 29, 29, 29
38.2848409, -120.3444802, 7.700, 13:35:58.603, 13, 0.00, 0.35, 98, 0.000, 0.200, 149.900, 782, 100, 100, 24, 23849, -23240, 5362, 5472, 12, 14, 1525811758.604, 142, 0, 1024, 1024, 1024, 1024, 0, 6, 3942, 3958, 3982, 3979, 3957, 3986, 0, 1, 8302, 0.000, 0.000, 0.000, 0.000, 0.000, -3.100, 0.0, , , , , , 97, , , 29, 29, 29
38.2848411, -120.3444804, 8.400, 13:35:58.712, 14, 0.00, 0.33, 98, 0.100, 0.100, 149.800, 782, 100, 100, 24, 23849, -23240, 5362, 5472, 12, 14, 1525811758.713, 8, 0, 1024, 1024, 1024, 1024, 0, 6, 3942, 3958, 3982, 3979, 3957, 3986, 0, 1, 8411, 0.000, 0.000, 0.000, 0.000, 0.000, -3.100, 0.0, , , , , , 97, , , 29, 29, 29
38.2848411, -120.3444804, 8.400, 13:35:58.804, 14, 0.00, 0.33, 98, 0.100, 0.100, 149.800, 782, 100, 100, 24, 23849, -23240, 5362, 5472, 12, 14, 1525811758.804, 99, 0, 1024, 1024, 1024, 1024, 0, 6, 3942, 3958, 3982, 3979, 3957, 3986, 0, 1, 8502, 0.000, 0.000, 0.000, 0.000, 0.000, -3.100, 0.0, , , , , , 97, , , 29, 29, 29
38.2848412, -120.3444803, 9.000, 13:35:58.906, 14, 0.00, 0.33, 98, 0.300, 0.300, 149.700, 782, 100, 100, 24, 23973, -20151, 5362, 5472, 12, 14, 1525811758.906, 39, 0, 1024, 1024, 1024, 1024, 0, 6, 3942, 3958, 3982, 3979, 3957, 3986, 0, 1, 8604, 0.000, 0.000, 0.000, 0.000, 0.000, -3.100, 0.0, , , , , , 97, , , 29, 29, 29
38.2848412, -120.3444803, 9.000, 13:35:59.006, 14, 0.00, 0.33, 98, 0.300, 0.300, 149.700, 782, 100, 100, 24, 23973, -20151, 5362, 5472, 12, 14, 1525811759.007, 140, 0, 1024, 1024, 1024, 1024, 0, 6, 3978, 4006, 4003, 4017, 3983, 4014, 0, 1, 8705, 0.000, 0.000, 0.000, 0.000, 0.000, -3.100, 0.0, , , , , , 97, , , 29, 29, 29
38.2848412, -120.3444804, 9.300, 13:35:59.104, 14, 0.00, 0.32, 98, 0.400, 0.500, 149.700, 782, 100, 100, 24, 23973, -20151, 5362, 5472, 12, 14, 1525811759.104, 42, 0, 1024, 1024, 1024, 1024, 0, 6, 3978, 4006, 4003, 4017, 3983, 4014, 0, 1, 8802, 0.000, 0.000, 0.000, 0.000, 0.000, -3.100, 0.0, , , , , , 97, , , 29, 29, 29
38.2848412, -120.3444804, 9.300, 13:35:59.207, 14, 0.00, 0.32, 98, 0.400, 0.500, 149.700, 782, 100, 100, 24, 23973, -20151, 5362, 5472, 12, 14, 1525811759.207, 144, 0, 1024, 1024, 1024, 1024, 0, 6, 3978, 4006, 4003, 4017, 3983, 4014, 0, 1, 8905, 0.000, 0.000, 0.000, 0.000, 0.000, -3.100, 0.0, , , , , , 97, , , 29, 29, 29
38.2848413, -120.3444805, 10.000, 13:35:59.304, 16, 0.00, 0.31, 98, 0.100, 0.400, 149.700, 782, 100, 100, 24, 23973, -20151, 5362, 5472, 12, 14, 1525811759.304, 38, 0, 1024, 1024, 1024, 1024, 0, 6, 3978, 4006, 4003, 4017, 3983, 4014, 0, 1, 9002, 0.000, 0.000, 0.000, 0.000, 0.000, -3.100, 0.0, , , , , , 97, , , 29, 29, 29
38.2848413, -120.3444805, 10.000, 13:35:59.403, 16, 0.00, 0.31, 98, 0.100, 0.400, 149.700, 782, 100, 100, 24, 23973, -20151, 5362, 5472, 12, 14, 1525811759.404, 137, 0, 1024, 1024, 1024, 1024, 0, 6, 3978, 4006, 4003, 4017, 3983, 4014, 0, 1, 9102, 0.000, 0.000, 0.000, 0.000, 0.000, -3.100, 0.0, , , , , , 97, , , 29, 29, 29
38.2848415, -120.3444809, 10.900, 13:35:59.503, 15, 0.00, 0.27, 98, 0.000, 0.100, 149.700, 782, 100, 100, 24, 23973, -20151, 5362, 5472, 12, 14, 1525811759.504, 46, 0, 1024, 1024, 1024, 1024, 0, 6, 3978, 4006, 4003, 4017, 3983, 4014, 0, 1, 9202, 0.000, 0.000, 0.000, 0.000, 0.000, -3.000, 0.0, , , , , , 97, , , 29, 29, 29
38.2848416, -120.3444809, 11.300, 13:35:59.606, 15, 0.00, 0.27, 98, 0.000, 0.000, 149.700, 782, 100, 100, 24, 23973, -20151, 5362, 5472, 12, 14, 1525811759.606, 48, 0, 1024, 1024, 1024, 1024, 0, 6, 3978, 4006, 4003, 4017, 3983, 4014, 0, 1, 9304, 0.000, 0.000, 0.000, 0.000, 0.000, -3.000, 0.0, , , , , , 97, , , 29, 29, 29
38.2848417, -120.3444809, 11.900, 13:35:59.705, 14, 0.00, 0.26, 98, 0.000, 0.000, 149.800, 782, 100, 100, 24, 23973, -20151, 5362, 5472, 12, 14, 1525811759.706, 76, 0, 1024, 1024, 1024, 1024, 0, 6, 3978, 4006, 4003, 4017, 3983, 4014, 0, 1, 9404, 0.000, 0.000, 0.000, 0.000, 0.000, -2.900, 0.0, , , , , , 97, , , 29, 29, 29
38.2848417, -120.3444809, 11.900, 13:35:59.804, 14, 0.00, 0.26, 98, 0.000, 0.000, 149.800, 782, 100, 100, 24, 23973, -20151, 5362, 5472, 12, 14, 1525811759.805, 175, 0, 1024, 1024, 1024, 1024, 0, 6, 3978, 4006, 4003, 4017, 3983, 4014, 0, 1, 9503, 0.000, 0.000, 0.000, 0.000, 0.000, -2.900, 0.0, , , , , , 97, , , 29, 29, 29
38.2848417, -120.3444809, 11.900, 13:35:59.904, 14, 0.00, 0.26, 98, 0.000, 0.000, 149.800, 782, 100, 100, 24, 23973, -20151, 5362, 5472, 12, 14, 1525811759.905, 275, 0, 1024, 1024, 1024, 1024, 0, 6, 3978, 4006, 4003, 4017, 3983, 4014, 0, 1, 9603, 0.000, 0.000, 0.000, 0.000, 0.000, -2.900, 0.0, , , , , , 97, , , 29, 29, 29
38.2848417, -120.3444809, 11.900, 13:36:00.009, 14, 0.00, 0.26, 98, 0.000, 0.000, 149.800, 782, 100, 100, 24, 23973, -20151, 5362, 5472, 12, 14, 1525811760.010, 380, 0, 1024, 1024, 1024, 1024, 0, 6, 3978, 4006, 4003, 4017, 3983, 4014, 0, 1, 9708, 0.000, 0.000, 0.000, 0.000, 0.000, -2.900, 0.0, , , , , , 97, , , 29, 29, 29
38.2848416, -120.3444810, 12.800, 13:36:00.103, 16, 0.00, 0.26, 98, 0.100, 0.800, 150.000, 782, 100, 100, 24, 23973, -20151, 5362, 5472, 12, 14, 1525811760.104, 80, 0, 1024, 1024, 1024, 1024, 0, 6, 3978, 4006, 4003, 4017, 3983, 4014, 0, 1, 9802, 0.000, 0.000, 0.000, 0.000, 0.000, -2.900, 0.0, , , , , , 97, , , 29, 29, 29
38.2848416, -120.3444810, 13.000, 13:36:00.203, 16, 0.00, 0.26, 98, 0.000, 0.900, 150.100, 782, 100, 100, 24, 23973, -20151, 5362, 5472, 12, 14, 1525811760.204, 12, 0, 1024, 1024, 1024, 1024, 0, 6, 3978, 4006, 4003, 4017, 3983, 4014, 0, 1, 9902, 0.000, 0.000, 0.000, 0.000, 0.000, -2.900, 0.0, , , , , , 97, , , 29, 29, 29
38.2848417, -120.3444810, 13.700, 13:36:00.303, 16, 0.00, 0.26, 98, 0.000, 0.700, 150.000, 782, 100, 100, 24, 24051, -18533, 5362, 5472, 12, 14, 1525811760.304, 17, 0, 1024, 1024, 1024, 1024, 0, 6, 3978, 4006, 4003, 4017, 3983, 4014, 0, 1, 10002, 0.000, 0.000, 0.000, 0.000, 0.000, -3.000, 0.0, , , , , , 97, , , 29, 29, 29
38.2848418, -120.3444810, 14.000, 13:36:00.403, 16, 0.00, 0.26, 98, 0.000, 0.400, 150.000, 782, 100, 100, 24, 24051, -18533, 5362, 5472, 12, 14, 1525811760.403, 41, 0, 1024, 1024, 1024, 1024, 0, 6, 3985, 4015, 4012, 4027, 3986, 4014, 0, 1, 10101, 0.000, 0.000, 0.000, 0.000, 0.000, -3.000, 0.0, , , , , , 97, , , 29, 29, 29
38.2848418, -120.3444811, 14.600, 13:36:00.509, 17, 0.00, 0.25, 98, 0.100, 0.300, 149.800, 782, 100, 100, 24, 24051, -18533, 5362, 5472, 12, 14, 1525811760.510, 6, 0, 1024, 1024, 1024, 1024, 0, 6, 3985, 4015, 4012, 4027, 3986, 4014, 0, 1, 10208, 0.000, 0.000, 0.000, 0.000, 0.000, -2.900, 0.0, , , , , , 97, , , 29, 29, 29
38.2848418, -120.3444811, 14.900, 13:36:00.603, 17, 0.00, 0.25, 98, 0.100, 0.300, 149.800, 782, 100, 100, 24, 24051, -18533, 5362, 5472, 12, 14, 1525811760.603, 15, 0, 1024, 1024, 1024, 1024, 0, 6, 3985, 4015, 4012, 4027, 3986, 4014, 0, 1, 10301, 0.000, 0.000, 0.000, 0.000, 0.000, -3.000, 0.0, , , , , , 97, , , 29, 29, 29
38.2848418, -120.3444811, 15.200, 13:36:00.703, 15, 0.00, 0.25, 98, 0.000, 0.200, 149.700, 782, 100, 100, 24, 24037, -18364, 5307, 5472, 12, 14, 1525811760.703, 57, 0, 1024, 1024, 1024, 1024, 0, 6, 3974, 3999, 4005, 4019, 3982, 4024, 0, 1, 10401, 0.000, 0.000, 0.000, 0.000, 0.000, -3.000, 0.0, , , , , , 97, , , 29, 29, 29
38.2848418, -120.3444810, 15.500, 13:36:00.803, 15, 0.00, 0.25, 98, 0.000, 0.200, 149.600, 782, 100, 100, 24, 24037, -18364, 5307, 5472, 12, 14, 1525811760.804, 98, 0, 1024, 1024, 1024, 1024, 0, 6, 3974, 3999, 4005, 4019, 3982, 4024, 0, 1, 10502, 0.000, 0.000, 0.000, 0.000, 0.000, -3.000, 0.0, , , , , , 97, , , 29, 29, 29
38.2848418, -120.3444810, 15.800, 13:36:00.903, 17, 0.00, 0.26, 98, 0.100, 0.300, 149.500, 782, 100, 100, 24, 24037, -18364, 5307, 5472, 12, 14, 1525811760.903, 69, 0, 1024, 1024, 1024, 1024, 0, 6, 3974, 3999, 4005, 4019, 3982, 4024, 0, 1, 10601, 0.000, 0.000, 0.000, 0.000, 0.000, -2.900, 0.0, , , , , , 97, , , 29, 29, 29
38.2848417, -120.3444809, 16.100, 13:36:01.003, 17, 0.00, 0.26, 98, 0.200, 0.400, 149.500, 782, 100, 100, 24, 24037, -18364, 5307, 5472, 12, 14, 1525811761.003, 73, 0, 1024, 1024, 1024, 1024, 0, 6, 3974, 3999, 4005, 4019, 3982, 4024, 0, 1, 10701, 0.000, 0.000, 0.000, 0.000, 0.000, -3.000, 0.0, , , , , , 97, , , 29, 29, 29
38.2848417, -120.3444809, 16.400, 13:36:01.103, 17, 0.00, 0.27, 98, 0.200, 0.600, 149.500, 782, 100, 100, 24, 24037, -18364, 5307, 5472, 12, 14, 1525811761.103, 52, 0, 1024, 1024, 1024, 1024, 0, 6, 3974, 3999, 4005, 4019, 3982, 4024, 0, 1, 10801, 0.000, 0.000, 0.000, 0.000, 0.000, -2.900, 0.0, , , , , , 97, , , 29, 29, 29
38.2848417, -120.3444809, 16.800, 13:36:01.207, 17, 0.00, 0.27, 98, 0.300, 0.800, 149.500, 782, 100, 100, 24, 24037, -18364, 5307, 5472, 12, 14, 1525811761.208, 50, 0, 1024, 1024, 1024, 1024, 0, 6, 3974, 3999, 4005, 4019, 3982, 4024, 0, 1, 10906, 0.000, 0.000, 0.000, 0.000, 0.000, -2.900, 0.0, , , , , , 97, , , 29, 29, 29
38.2848417, -120.3444809, 16.800, 13:36:01.307, 17, 0.00, 0.27, 98, 0.300, 0.800, 149.500, 782, 100, 98, 24, 24037, -18364, 5307, 5472, 12, 14, 1525811761.307, 149, 0, 1024, 1024, 1024, 1024, 0, 6, 3974, 3999, 4005, 4019, 3982, 4024, 0, 1, 11005, 0.000, 0.000, 0.000, 0.000, 0.000, -2.900, 0.0, , , , , , 97, , , 29, 29, 29
38.2848417, -120.3444807, 17.300, 13:36:01.407, 18, 0.00, 0.28, 98, 0.300, 0.900, 149.600, 782, 100, 98, 24, 24037, -18364, 5307, 5472, 12, 14, 1525811761.407, 49, 0, 1024, 1024, 1024, 1024, 0, 6, 3974, 3999, 4005, 4019, 3982, 4024, 0, 1, 11105, 0.000, 0.000, 0.000, 0.000, 0.000, -2.900, 0.0, , , , , , 97, , , 29, 29, 29
38.2848417, -120.3444807, 17.600, 13:36:01.504, 17, 0.00, 0.29, 98, 0.300, 0.900, 149.700, 782, 100, 98, 24, 24037, -18364, 5307, 5472, 12, 14, 1525811761.505, 71, 0, 1024, 1024, 1024, 1024, 0, 6, 3974, 3999, 4005, 4019, 3982, 4024, 0, 1, 11203, 0.000, 0.000, 0.000, 0.000, 0.000, -2.900, 0.0, , , , , , 97, , , 29, 29, 29
38.2848417, -120.3444807, 17.900, 13:36:01.604, 17, 0.00, 0.29, 98, 0.300, 0.500, 149.700, 782, 100, 98, 24, 24037, -18364, 5307, 5472, 12, 14, 1525811761.605, 47, 0, 1024, 1024, 1024, 1024, 0, 6, 3974, 3999, 4005, 4019, 3982, 4024, 0, 1, 11303, 0.000, 0.000, 0.000, 0.000, 0.000, -2.800, 0.0, , , , , , 97, , , 29, 29, 29
38.2848417, -120.3444806, 18.200, 13:36:01.706, 16, 0.00, 0.29, 98, 0.200, 0.200, 149.900, 782, 100, 95, 24, 24034, -18567, 5307, 5472, 12, 14, 1525811761.707, 66, 0, 1024, 1024, 1024, 1024, 0, 6, 3974, 3999, 4005, 4019, 3982, 4024, 0, 1, 11405, 0.000, 0.000, 0.000, 0.000, 0.000, -2.900, 0.0, , , , , , 97, , , 29, 29, 29
38.2848417, -120.3444806, 18.500, 13:36:01.808, 16, 0.00, 0.30, 98, 0.300, 0.300, 150.000, 782, 100, 95, 24, 24034, -18567, 5307, 5472, 12, 14, 1525811761.808, 50, 0, 1024, 1024, 1024, 1024, 0, 6, 3974, 3999, 4005, 4019, 3982, 4024, 0, 1, 11506, 0.000, 0.000, 0.000, 0.000, 0.000, -2.900, 0.0, , , , , , 97, , , 29, 29, 29
38.2848417, -120.3444806, 18.500, 13:36:01.907, 16, 0.00, 0.30, 98, 0.300, 0.300, 150.000, 782, 100, 95, 24, 24034, -18567, 5307, 5472, 12, 14, 1525811761.907, 149, 0, 1024, 1024, 1024, 1024, 0, 6, 3974, 3999, 4005, 4019, 3982, 4024, 0, 1, 11605, 0.000, 0.000, 0.000, 0.000, 0.000, -2.900, 0.0, , , , , , 97, , , 29, 29, 29
38.2848417, -120.3444806, 18.500, 13:36:02.005, 16, 0.00, 0.30, 98, 0.300, 0.300, 150.000, 782, 100, 95, 24, 24034, -18567, 5307, 5472, 12, 14, 1525811762.005, 247, 0, 1024, 1024, 1024, 1024, 0, 6, 3974, 3999, 4005, 4019, 3982, 4024, 0, 1, 11703, 0.000, 0.000, 0.000, 0.000, 0.000, -2.900, 0.0, , , , , , 97, , , 29, 29, 29
38.2848417, -120.3444805, 18.800, 13:36:02.106, 18, 0.00, 0.30, 98, 0.500, 0.700, 150.100, 782, 100, 95, 24, 24034, -18567, 5307, 5472, 12, 14, 1525811762.107, 96, 0, 1024, 1024, 1024, 1024, 0, 6, 3974, 3999, 4005, 4019, 3982, 4024, 0, 1, 11805, 0.000, 0.000, 0.000, 0.000, 0.000, -2.900, 0.0, , , , , , 97, , , 29, 29, 29
38.2848416, -120.3444803, 19.400, 13:36:02.225, 19, 0.00, 0.32, 98, 0.900, 1.000, 150.200, 782, 100, 95, 24, 24034, -18567, 5307, 5472, 12, 14, 1525811762.226, 13, 0, 1024, 1024, 1024, 1024, 0, 6, 3974, 3999, 4005, 4019, 3982, 4024, 0, 1, 11924, 0.000, 0.000, 0.000, 0.000, 0.000, -2.900, 0.0, , , , , , 97, , , 29, 29, 29
38.2848416, -120.3444803, 19.400, 13:36:02.305, 19, 0.00, 0.32, 98, 0.900, 1.000, 150.200, 782, 100, 95, 24, 24034, -18567, 5307, 5472, 12, 14, 1525811762.305, 92, 0, 1024, 1024, 1024, 1024, 0, 6, 3974, 3999, 4005, 4019, 3982, 4024, 0, 1, 12003, 0.000, 0.000, 0.000, 0.000, 0.000, -2.900, 0.0, , , , , , 97, , , 29, 29, 29
38.2848416, -120.3444803, 19.400, 13:36:02.407, 19, 0.00, 0.32, 98, 0.900, 1.000, 150.200, 782, 100, 95, 24, 24034, -18567, 5307, 5472, 12, 14, 1525811762.408, 194, 0, 1024, 1024, 1024, 1024, 0, 6, 3974, 3999, 4005, 4019, 3982, 4024, 0, 1, 12106, 0.000, 0.000, 0.000, 0.000, 0.000, -2.900, 0.0, , , , , , 97, , , 29, 29, 29
38.2848417, -120.3444801, 20.000, 13:36:02.510, 18, 0.00, 0.33, 97, 0.900, 1.300, 150.100, 782, 100, 92, 24, 24034, -18567, 5307, 5472, 12, 14, 1525811762.511, 31, 0, 1024, 1024, 1024, 1024, 0, 6, 3974, 3999, 4005, 4019, 3982, 4024, 0, 1, 12209, 0.000, 0.000, 0.000, 0.000, 0.000, -2.900, 0.0, , , , , , 97, , , 29, 29, 29
38.2848417, -120.3444801, 20.000, 13:36:02.604, 18, 0.00, 0.33, 97, 0.900, 1.300, 150.100, 782, 100, 92, 24, 24034, -18567, 5307, 5472, 12, 14, 1525811762.605, 124, 0, 1024, 1024, 1024, 1024, 0, 6, 3974, 3999, 4005, 4019, 3982, 4024, 0, 1, 12303, 0.000, 0.000, 0.000, 0.000, 0.000, -2.900, 0.0, , , , , , 97, , , 29, 29, 29
38.2848416, -120.3444800, 20.600, 13:36:02.705, 20, 0.00, 0.35, 97, 1.100, 1.400, 149.700, 782, 100, 92, 24, 24034, -18567, 5307, 5472, 12, 14, 1525811762.705, 41, 0, 1024, 1024, 1024, 1024, 0, 6, 3991, 4006, 4011, 4019, 3994, 4009, 0, 1, 12403, 0.000, 0.000, 0.000, 0.000, 0.000, -3.000, 0.0, , , , , , 97, , , 29, 29, 29
38.2848416, -120.3444800, 20.600, 13:36:02.804, 20, 0.00, 0.35, 97, 1.100, 1.400, 149.700, 782, 100, 92, 24, 24034, -18567, 5307, 5472, 12, 14, 1525811762.805, 140, 0, 1024, 1024, 1024, 1024, 0, 6, 3991, 4006, 4011, 4019, 3994, 4009, 0, 1, 12503, 0.000, 0.000, 0.000, 0.000, 0.000, -3.000, 0.0, , , , , , 97, , , 29, 29, 29
38.2848416, -120.3444800, 20.600, 13:36:02.906, 20, 0.00, 0.35, 97, 1.100, 1.400, 149.700, 782, 100, 92, 24, 24034, -18567, 5307, 5472, 12, 14, 1525811762.907, 242, 0, 1024, 1024, 1024, 1024, 0, 6, 3991, 4006, 4011, 4019, 3994, 4009, 0, 1, 12605, 0.000, 0.000, 0.000, 0.000, 0.000, -3.000, 0.0, , , , , , 97, , , 29, 29, 29
38.2848414, -120.3444786, 28.100, 13:36:05.096, 20, 0.00, 0.47, 97, 2.000, 2.100, 150.000, 782, 100, 87, 25, 23940, -18514, 5307, 5472, 12, 14, 1525811765.096, 44, 0, 1024, 1024, 1024, 1024, 0, 6, 3966, 3999, 3993, 4007, 3971, 4012, 0, 1, 14794, 0.000, 0.000, 0.000, 0.000, 0.000, -3.000, 0.0, , , , , , 97, , , 29, 29, 29
38.2848414, -120.3444786, 28.100, 13:36:05.105, 20, 0.00, 0.47, 97, 2.000, 2.100, 150.000, 782, 100, 87, 25, 23940, -18514, 5307, 5472, 12, 14, 1525811765.106, 54, 0, 1024, 1024, 1024, 1024, 0, 6, 3966, 3999, 3993, 4007, 3971, 4012, 0, 1, 14804, 0.000, 0.000, 0.000, 0.000, 0.000, -3.000, 0.0, , , , , , 97, , , 29, 29, 29
38.2848414, -120.3444787, 28.700, 13:36:05.207, 20, 0.00, 0.47, 97, 2.000, 2.000, 150.000, 782, 100, 87, 25, 23940, -18514, 5307, 5472, 12, 14, 1525811765.208, 5, 0, 1024, 1024, 1024, 1024, 0, 6, 3966, 3999, 3993, 4007, 3971, 4012, 0, 1, 14906, 0.000, 0.000, 0.000, 0.000, 0.000, -3.000, 0.0, , , , , , 97, , , 29, 29, 29
38.2848414, -120.3444787, 29.000, 13:36:05.302, 20, 0.00, 0.46, 97, 2.100, 1.800, 149.800, 782, 100, 90, 25, 23950, -19409, 5307, 5472, 12, 14, 1525811765.303, 50, 0, 1024, 1024, 1024, 1024, 0, 6, 3936, 3970, 3983, 3998, 3973, 3990, 0, 1, 15001, 0.000, 0.000, 0.000, 0.000, 0.000, -2.900, 0.0, , , , , , 97, , , 29, 29, 29
38.2848414, -120.3444787, 29.300, 13:36:05.403, 20, 0.00, 0.46, 97, 2.000, 1.900, 149.700, 782, 100, 90, 25, 23950, -19409, 5307, 5472, 12, 14, 1525811765.404, 33, 0, 1024, 1024, 1024, 1024, 0, 6, 3936, 3970, 3983, 3998, 3973, 3990, 0, 1, 15102, 0.000, 0.000, 0.000, 0.000, 0.000, -2.900, 0.0, , , , , , 97, , , 29, 29, 29
38.2848414, -120.3444787, 29.300, 13:36:05.503, 20, 0.00, 0.46, 97, 2.000, 1.900, 149.700, 782, 100, 90, 25, 23950, -19409, 5307, 5472, 12, 14, 1525811765.504, 133, 0, 1024, 1024, 1024, 1024, 0, 6, 3936, 3970, 3983, 3998, 3973, 3990, 0, 1, 15202, 0.000, 0.000, 0.000, 0.000, 0.000, -2.900, 0.0, , , , , , 97, , , 29, 29, 29
38.2848414, -120.3444787, 29.300, 13:36:05.603, 20, 0.00, 0.46, 97, 2.000, 1.900, 149.700, 782, 100, 90, 25, 23950, -19409, 5307, 5472, 12, 14, 1525811765.603, 232, 0, 1024, 1024, 1024, 1024, 0, 6, 3936, 3970, 3983, 3998, 3973, 3990, 0, 1, 15301, 0.000, 0.000, 0.000, 0.000, 0.000, -2.900, 0.0, , , , , , 97, , , 29, 29, 29
38.2848414, -120.3444788, 30.200, 13:36:05.703, 20, 0.00, 0.46, 97, 1.200, 1.600, 149.500, 782, 100, 90, 25, 23950, -19409, 5307, 5472, 12, 14, 1525811765.704, 32, 0, 1024, 1024, 1024, 1024, 0, 6, 3936, 3970, 3983, 3998, 3973, 3990, 0, 1, 15402, 0.000, 0.000, 0.000, 0.000, 0.000, -3.000, 0.0, , , , , , 97, , , 29, 29, 29
38.2848414, -120.3444788, 30.500, 13:36:05.810, 20, 0.00, 0.45, 97, 1.200, 1.700, 149.600, 782, 100, 89, 25, 23950, -19409, 5307, 5472, 12, 14, 1525811765.810, 14, 0, 1024, 1024, 1024, 1024, 0, 6, 3936, 3970, 3983, 3998, 3973, 3990, 0, 1, 15508, 0.000, 0.000, 0.000, 0.000, 0.000, -2.900, 0.0, , , , , , 97, , , 29, 29, 29
38.2848414, -120.3444789, 30.800, 13:36:05.903, 20, 0.00, 0.45, 97, 1.300, 1.700, 149.600, 782, 100, 89, 25, 23950, -19409, 5307, 5472, 12, 14, 1525811765.903, 49, 0, 1024, 1024, 1024, 1024, 0, 6, 3936, 3970, 3983, 3998, 3973, 3990, 0, 1, 15601, 0.000, 0.000, 0.000, 0.000, 0.000, -3.000, 0.0, , , , , , 97, , , 29, 29, 29
38.2848414, -120.3444789, 31.100, 13:36:06.003, 20, 0.00, 0.45, 97, 1.300, 1.800, 149.700, 782, 100, 89, 25, 23950, -19409, 5307, 5472, 12, 14, 1525811766.004, 62, 0, 1024, 1024, 1024, 1024, 0, 6, 3936, 3970, 3983, 3998, 3973, 3990, 0, 1, 15702, 0.000, 0.000, 0.000, 0.000, 0.000, -3.000, 0.0, , , , , , 97, , , 29, 29, 29
38.2848413, -120.3444789, 31.700, 13:36:06.103, 20, 0.00, 0.45, 97, 1.000, 2.100, 149.900, 782, 100, 89, 25, 23758, -19838, 5307, 5472, 12, 14, 1525811766.104, 24, 0, 1024, 1024, 1024, 1024, 0, 6, 3936, 3970, 3983, 3998, 3973, 3990, 0, 1, 15802, 0.000, 0.000, 0.000, 0.000, 0.000, -2.900, 0.0, , , , , , 97, , , 29, 29, 29
38.2848413, -120.3444789, 31.700, 13:36:06.203, 20, 0.00, 0.45, 97, 1.000, 2.100, 149.900, 782, 100, 89, 25, 23758, -19838, 5307, 5472, 12, 14, 1525811766.203, 124, 0, 1024, 1024, 1024, 1024, 0, 6, 3922, 3960, 3960, 3978, 3937, 3984, 0, 1, 15901, 0.000, 0.000, 0.000, 0.000, 0.000, -2.900, 0.0, , , , , , 97, , , 29, 29, 29
38.2848412, -120.3444789, 32.000, 13:36:06.303, 20, 0.00, 0.45, 97, 1.200, 2.400, 150.000, 782, 100, 95, 25, 23758, -19838, 5307, 5472, 12, 14, 1525811766.305, 43, 0, 1024, 1024, 1024, 1024, 0, 6, 3922, 3960, 3960, 3978, 3937, 3984, 0, 1, 16003, 0.000, 0.000, 0.000, 0.000, 0.000, -2.900, 0.0, , , , , , 97, , , 29, 29, 29
38.2848412, -120.3444789, 32.300, 13:36:06.402, 20, 0.00, 0.45, 97, 1.200, 2.500, 150.000, 782, 100, 95, 25, 23758, -19838, 5307, 5472, 12, 14, 1525811766.403, 14, 0, 1024, 1024, 1024, 1024, 0, 6, 3922, 3960, 3960, 3978, 3937, 3984, 0, 1, 16101, 0.000, 0.000, 0.000, 0.000, 0.000, -2.900, 0.0, , , , , , 97, , , 29, 29, 29
38.2848411, -120.3444789, 32.600, 13:36:06.502, 20, 0.00, 0.45, 97, 1.200, 2.700, 150.000, 782, 100, 95, 25, 23758, -19838, 5307, 5472, 12, 14, 1525811766.503, 43, 0, 1024, 1024, 1024, 1024, 0, 6, 3922, 3960, 3960, 3978, 3937, 3984, 0, 1, 16201, 0.000, 0.000, 0.000, 0.000, 0.000, -3.000, 0.0, , , , , , 97, , , 29, 29, 29
38.2848411, -120.3444788, 32.900, 13:36:06.603, 20, 0.00, 0.46, 97, 1.400, 2.800, 150.000, 782, 100, 95, 25, 23758, -19838, 5307, 5472, 12, 14, 1525811766.603, 19, 0, 1024, 1024, 1024, 1024, 0, 6, 3922, 3960, 3960, 3978, 3937, 3984, 0, 1, 16301, 0.000, 0.000, 0.000, 0.000, 0.000, -3.000, 0.0, , , , , , 97, , , 29, 29, 29
38.2848411, -120.3444788, 32.900, 13:36:06.703, 20, 0.00, 0.46, 97, 1.400, 2.800, 150.000, 782, 100, 95, 25, 23758, -19838, 5307, 5472, 12, 14, 1525811766.703, 119, 0, 1024, 1024, 1024, 1024, 0, 6, 3922, 3960, 3960, 3978, 3937, 3984, 0, 1, 16401, 0.000, 0.000, 0.000, 0.000, 0.000, -3.000, 0.0, , , , , , 97, , , 29, 29, 29
38.2848411, -120.3444788, 33.200, 13:36:06.803, 20, 0.00, 0.46, 97, 1.700, 2.800, 150.000, 782, 100, 95, 25, 23758, -19838, 5307, 5472, 12, 14, 1525811766.804, 64, 0, 1024, 1024, 1024, 1024, 0, 6, 3922, 3960, 3960, 3978, 3937, 3984, 0, 1, 16502, 0.000, 0.000, 0.000, 0.000, 0.000, -3.000, 0.0, , , , , , 97, , , 29, 29, 29
38.2848411, -120.3444788, 33.500, 13:36:06.903, 20, 0.00, 0.46, 97, 1.900, 2.600, 150.000, 782, 100, 96, 25, 23758, -19838, 5307, 5472, 12, 14, 1525811766.904, 60, 0, 1024, 1024, 1024, 1024, 0, 6, 3922, 3960, 3960, 3978, 3937, 3984, 0, 1, 16602, 0.000, 0.000, 0.000, 0.000, 0.000, -3.000, 0.0, , , , , , 97, , , 29, 29, 29
38.2848411, -120.3444788, 33.800, 13:36:07.003, 20, 0.00, 0.46, 97, 2.200, 2.400, 149.900, 782, 100, 96, 25, 23758, -19838, 5307, 5472, 12, 14, 1525811767.003, 54, 0, 1024, 1024, 1024, 1024, 0, 6, 3922, 3960, 3960, 3978, 3937, 3984, 0, 1, 16701, 0.000, 0.000, 0.000, 0.000, 0.000, -3.000, 0.0, , , , , , 97, , , 29, 29, 29
38.2848411, -120.3444787, 34.100, 13:36:07.103, 20, 0.00, 0.47, 97, 2.300, 2.300, 149.900, 782, 100, 96, 25, 23758, -19838, 5307, 5472, 12, 14, 1525811767.103, 41, 0, 1024, 1024, 1024, 1024, 0, 6, 3922, 3960, 3960, 3978, 3937, 3984, 0, 1, 16801, 0.000, 0.000, 0.000, 0.000, 0.000, -2.900, 0.0, , , , , , 97, , , 29, 29, 29
38.2848411, -120.3444787, 34.100, 13:36:07.203, 20, 0.00, 0.47, 97, 2.300, 2.300, 149.900, 782, 100, 96, 25, 23758, -19838, 5307, 5472, 12, 14, 1525811767.204, 142, 0, 1024, 1024, 1024, 1024, 0, 6, 3922, 3960, 3960, 3978, 3937, 3984, 0, 1, 16902, 0.000, 0.000, 0.000, 0.000, 0.000, -2.900, 0.0, , , , , , 97, , , 29, 29, 29
38.2848411, -120.3444787, 34.700, 13:36:07.303, 20, 0.00, 0.47, 97, 2.500, 2.300, 149.800, 782, 100, 96, 25, 23762, -19447, 5307, 5472, 12, 14, 1525811767.303, 31, 0, 1024, 1024, 1024, 1024, 0, 6, 3922, 3960, 3960, 3978, 3937, 3984, 0, 1, 17002, 0.000, 0.000, 0.000, 0.000, 0.000, -2.900, 0.0, , , , , , 97, , , 29, 29, 29
38.2848411, -120.3444787, 35.000, 13:36:07.403, 20, 0.00, 0.47, 97, 2.200, 2.200, 149.800, 782, 100, 97, 25, 23762, -19447, 5307, 5472, 12, 14, 1525811767.404, 22, 0, 1024, 1024, 1024, 1024, 0, 6, 3922, 3960, 3960, 3978, 3937, 3984, 0, 1, 17102, 0.000, 0.000, 0.000, 0.000, 0.000, -2.900, 0.0, , , , , , 97, , , 29, 29, 29
38.2848411, -120.3444787, 35.000, 13:36:07.503, 20, 0.00, 0.47, 97, 2.200, 2.200, 149.800, 782, 100, 97, 25, 23762, -19447, 5307, 5472, 12, 14, 1525811767.504, 122, 0, 1024, 1024, 1024, 1024, 0, 6, 3922, 3960, 3960, 3978, 3937, 3984, 0, 1, 17202, 0.000, 0.000, 0.000, 0.000, 0.000, -2.900, 0.0, , , , , , 97, , , 29, 29, 29
38.2848411, -120.3444787, 35.300, 13:36:07.603, 20, 0.00, 0.46, 97, 1.900, 2.200, 149.800, 782, 100, 97, 25, 23762, -19447, 5307, 5472, 12, 14, 1525811767.604, 70, 0, 1024, 1024, 1024, 1024, 0, 6, 3922, 3960, 3960, 3978, 3937, 3984, 0, 1, 17302, 0.000, 0.000, 0.000, 0.000, 0.000, -3.000, 0.0, , , , , , 97, , , 29, 29, 29
38.2848411, -120.3444788, 35.600, 13:36:07.703, 20, 0.00, 0.46, 97, 1.600, 2.500, 149.800, 782, 100, 97, 25, 23762, -19447, 5307, 5472, 12, 14, 1525811767.704, 65, 0, 1024, 1024, 1024, 1024, 0, 6, 3922, 3960, 3960, 3978, 3937, 3984, 0, 1, 17402, 0.000, 0.000, 0.000, 0.000, 0.000, -2.900, 0.0, , , , , , 97, , , 29, 29, 29
38.2848410, -120.3444788, 35.900, 13:36:07.803, 20, 0.00, 0.46, 97, 1.500, 2.500, 149.800, 782, 100, 97, 25, 23762, -19447, 5307, 5472, 12, 14, 1525811767.803, 81, 0, 1024, 1024, 1024, 1024, 0, 6, 3922, 3960, 3960, 3978, 3937, 3984, 0, 1, 17501, 0.000, 0.000, 0.000, 0.000, 0.000, -2.900, 0.0, , , , , , 97, , , 29, 29, 29
38.2848410, -120.3444789, 36.200, 13:36:07.903, 20, 0.00, 0.45, 97, 1.200, 2.500, 149.700, 782, 100, 97, 25, 23762, -19447, 5307, 5472, 12, 14, 1525811767.904, 95, 0, 1024, 1024, 1024, 1024, 0, 6, 3924, 3958, 3974, 3990, 3934, 3981, 0, 1, 17602, 0.000, 0.000, 0.000, 0.000, 0.000, -3.000, 0.0, , , , , , 97, , , 29, 29, 29
38.2848410, -120.3444789, 36.800, 13:36:08.003, 20, 0.00, 0.45, 97, 1.400, 2.500, 149.900, 782, 100, 97, 25, 23762, -19447, 5307, 5472, 12, 14, 1525811768.003, 60, 0, 1024, 1024, 1024, 1024, 0, 6, 3924, 3958, 3974, 3990, 3934, 3981, 0, 1, 17701, 0.000, 0.000, 0.000, 0.000, 0.000, -3.000, 0.0, , , , , , 97, , , 29, 29, 29
38.2848410, -120.3444789, 36.800, 13:36:08.103, 20, 0.00, 0.45, 97, 1.400, 2.500, 149.900, 782, 100, 97, 25, 23762, -19447, 5307, 5472, 12, 14, 1525811768.104, 161, 0, 1024, 1024, 1024, 1024, 0, 6, 3924, 3958, 3974, 3990, 3934, 3981, 0, 1, 17802, 0.000, 0.000, 0.000, 0.000, 0.000, -3.000, 0.0, , , , , , 97, , , 29, 29, 29
38.2848409, -120.3444790, 37.400, 13:36:08.203, 20, 0.00, 0.45, 97, 1.500, 2.600, 150.000, 782, 100, 97, 25, 23762, -19447, 5307, 5472, 12, 14, 1525811768.204, 41, 0, 1024, 1024, 1024, 1024, 0, 6, 3924, 3958, 3974, 3990, 3934, 3981, 0, 1, 17902, 0.000, 0.000, 0.000, 0.000, 0.000, -2.900, 0.0, , , , , , 97, , , 29, 29, 29
38.2848409, -120.3444790, 37.700, 13:36:08.303, 20, 0.00, 0.45, 97, 1.500, 2.700, 149.900, 782, 100, 97, 25, 23762, -19447, 5307, 5472, 12, 14, 1525811768.304, 61, 0, 1024, 1024, 1024, 1024, 0, 6, 3924, 3958, 3974, 3990, 3934, 3981, 0, 1, 18002, 0.000, 0.000, 0.000, 0.000, 0.000, -2.900, 0.0, , , , , , 97, , , 29, 29, 29
38.2848409, -120.3444790, 37.700, 13:36:08.403, 20, 0.00, 0.45, 97, 1.500, 2.700, 149.900, 782, 100, 97, 25, 23762, -19447, 5307, 5472, 12, 14, 1525811768.404, 160, 0, 1024, 1024, 1024, 1024, 0, 6, 3924, 3958, 3974, 3990, 3934, 3981, 0, 1, 18102, 0.000, 0.000, 0.000, 0.000, 0.000, -2.900, 0.0, , , , , , 97, , , 29, 29, 29
38.2848409, -120.3444790, 38.200, 13:36:08.503, 20, 0.00, 0.45, 97, 1.400, 2.800, 149.800, 782, 100, 97, 25, 23762, -19447, 5307, 5472, 12, 14, 1525811768.505, 22, 0, 1024, 1024, 1024, 1024, 0, 6, 3924, 3958, 3974, 3990, 3934, 3981, 0, 1, 18203, 0.000, 0.000, 0.000, 0.000, 0.000, -3.000, 0.0, , , , , , 97, , , 29, 29, 29
38.2848409, -120.3444790, 38.600, 13:36:08.603, 20, 0.00, 0.45, 97, 1.400, 2.900, 149.800, 782, 100, 97, 25, 23762, -19447, 5307, 5472, 12, 14, 1525811768.604, 30, 0, 1024, 1024, 1024, 1024, 0, 6, 3924, 3958, 3974, 3990, 3934, 3981, 0, 1, 18302, 0.000, 0.000, 0.000, 0.000, 0.000, -3.000, 0.0, , , , , , 97, , , 29, 29, 29
38.2848409, -120.3444790, 38.900, 13:36:08.703, 20, 0.00, 0.44, 97, 1.500, 2.900, 149.800, 782, 100, 97, 25, 23762, -19447, 5307, 5472, 12, 14, 1525811768.703, 24, 0, 1024, 1024, 1024, 1024, 0, 6, 3924, 3958, 3974, 3990, 3934, 3981, 0, 1, 18401, 0.000, 0.000, 0.000, 0.000, 0.000, -3.000, 0.0, , , , , , 97, , , 29, 29, 29
38.2848409, -120.3444791, 39.200, 13:36:08.806, 20, 0.00, 0.44, 97, 1.700, 2.700, 149.800, 782, 100, 97, 25, 23721, -19848, 5307, 5472, 12, 14, 1525811768.806, 6, 0, 1024, 1024, 1024, 1024, 0, 6, 3924, 3958, 3974, 3990, 3934, 3981, 0, 1, 18504, 0.000, 0.000, 0.000, 0.000, 0.000, -3.000, 0.0, , , , , , 97, , , 29, 29, 29
38.2848409, -120.3444791, 39.500, 13:36:08.903, 20, 0.00, 0.44, 97, 1.800, 2.500, 149.800, 782, 100, 96, 25, 23721, -19848, 5307, 5472, 12, 14, 1525811768.903, 28, 0, 1024, 1024, 1024, 1024, 0, 6, 3932, 3949, 3958, 3975, 3943, 3962, 0, 1, 18602, 0.000, 0.000, 0.000, 0.000, 0.000, -3.000, 0.0, , , , , , 97, , , 29, 29, 29
38.2848409, -120.3444791, 39.800, 13:36:09.003, 20, 0.00, 0.44, 97, 1.700, 2.300, 149.800, 782, 100, 96, 25, 23721, -19848, 5307, 5472, 12, 14, 1525811769.004, 45, 0, 1024, 1024, 1024, 1024, 0, 6, 3932, 3949, 3958, 3975, 3943, 3962, 0, 1, 18702, 0.000, 0.000, 0.000, 0.000, 0.000, -3.000, 0.0, , , , , , 97, , , 29, 29, 29
38.2848410, -120.3444791, 40.100, 13:36:09.103, 20, 0.00, 0.44, 97, 1.700, 2.000, 149.700, 782, 100, 96, 25, 23721, -19848, 5307, 5472, 12, 14, 1525811769.105, 34, 0, 1024, 1024, 1024, 1024, 0, 6, 3932, 3949, 3958, 3975, 3943, 3962, 0, 1, 18803, 0.000, 0.000, 0.000, 0.000, 0.000, -2.900, 0.0, , , , , , 97, , , 29, 29, 29
38.2848410, -120.3444791, 40.400, 13:36:09.203, 20, 0.00, 0.44, 97, 1.700, 2.000, 149.700, 782, 100, 96, 25, 23721, -19848, 5307, 5472, 12, 14, 1525811769.203, 46, 0, 1024, 1024, 1024, 1024, 0, 6, 3932, 3949, 3958, 3975, 3943, 3962, 0, 1, 18901, 0.000, 0.000, 0.000, 0.000, 0.000, -3.000, 0.0, , , , , , 97, , , 29, 29, 29
38.2848410, -120.3444791, 40.400, 13:36:09.303, 20, 0.00, 0.44, 97, 1.700, 2.000, 149.700, 782, 100, 96, 25, 23721, -19848, 5307, 5472, 12, 14, 1525811769.303, 146, 0, 1024, 1024, 1024, 1024, 0, 6, 3932, 3949, 3958, 3975, 3943, 3962, 0, 1, 19001, 0.000, 0.000, 0.000, 0.000, 0.000, -3.000, 0.0, , , , , , 97, , , 29, 29, 29
38.2848410, -120.3444791, 41.000, 13:36:09.403, 20, 0.00, 0.43, 97, 2.000, 2.100, 149.700, 782, 100, 96, 25, 23721, -19848, 5307, 5472, 12, 14, 1525811769.404, 20, 0, 1024, 1024, 1024, 1024, 0, 6, 3932, 3949, 3958, 3975, 3943, 3962, 0, 1, 19102, 0.000, 0.000, 0.000, 0.000, 0.000, -2.900, 0.0, , , , , , 97, , , 29, 29, 29
38.2848410, -120.3444791, 41.000, 13:36:09.503, 20, 0.00, 0.43, 97, 2.000, 2.100, 149.700, 782, 100, 96, 25, 23721, -19848, 5307, 5472, 12, 14, 1525811769.504, 120, 0, 1024, 1024, 1024, 1024, 0, 6, 3932, 3949, 3958, 3975, 3943, 3962, 0, 1, 19202, 0.000, 0.000, 0.000, 0.000, 0.000, -2.900, 0.0, , , , , , 97, , , 29, 29, 29
38.2848411, -120.3444792, 41.600, 13:36:09.602, 20, 0.00, 0.43, 97, 1.600, 1.800, 149.700, 782, 100, 96, 25, 23721, -19848, 5307, 5472, 12, 14, 1525811769.603, 73, 0, 1024, 1024, 1024, 1024, 0, 6, 3932, 3949, 3958, 3975, 3943, 3962, 0, 1, 19301, 0.000, 0.000, 0.000, 0.000, 0.000, -2.900, 0.0, , , , , , 97, , , 29, 29, 29
38.2848411, -120.3444792, 41.600, 13:36:09.703, 20, 0.00, 0.43, 97, 1.600, 1.800, 149.700, 782, 100, 96, 25, 23721, -19848, 5307, 5472, 12, 14, 1525811769.704, 174, 0, 1024, 1024, 1024, 1024, 0, 6, 3932, 3949, 3958, 3975, 3943, 3962, 0, 1, 19402, 0.000, 0.000, 0.000, 0.000, 0.000, -2.900, 0.0, , , , , , 97, , , 29, 29, 29
38.2848412, -120.3444792, 42.200, 13:36:09.803, 20, 0.00, 0.42, 97, 1.500, 1.700, 149.500, 782, 100, 96, 25, 23774, -19115, 5307, 5472, 12, 14, 1525811769.803, 32, 0, 1024, 1024, 1024, 1024, 0, 6, 3936, 3964, 3972, 3985, 3944, 3977, 0, 1, 19501, 0.000, 0.000, 0.000, 0.000, 0.000, -2.900, 0.0, , , , , , 97, , , 29, 29, 29
38.2848412, -120.3444792, 42.500, 13:36:09.902, 20, 0.00, 0.42, 97, 1.700, 1.800, 149.600, 782, 100, 96, 25, 23774, -19115, 5307, 5472, 12, 14, 1525811769.903, 14, 0, 1024, 1024, 1024, 1024, 0, 6, 3936, 3964, 3972, 3985, 3944, 3977, 0, 1, 19601, 0.000, 0.000, 0.000, 0.000, 0.000, -2.900, 0.0, , , , , , 97, , , 29, 29, 29
38.2848413, -120.3444792, 42.800, 13:36:10.003, 20, 0.00, 0.42, 97, 1.900, 1.800, 149.700, 782, 100, 96, 25, 23774, -19115, 5307, 5472, 12, 14, 1525811770.004, 18, 0, 1024, 1024, 1024, 1024, 0, 6, 3936, 3964, 3972, 3985, 3944, 3977, 0, 1, 19702, 0.000, 0.000, 0.000, 0.000, 0.000, -2.900, 0.0, , , , , , 97, , , 29, 29, 29
38.2848413, -120.3444792, 43.100, 13:36:10.103, 20, 0.00, 0.43, 97, 2.000, 2.000, 149.700, 782, 100, 96, 25, 23774, -19115, 5307, 5472, 12, 14, 1525811770.103, 69, 0, 1024, 1024, 1024, 1024, 0, 6, 3936, 3964, 3972, 3985, 3944, 3977, 0, 1, 19801, 0.000, 0.000, 0.000, 0.000, 0.000, -2.900, 0.0, , , , , , 97, , , 29, 29, 29
38.2848413, -120.3444792, 43.100, 13:36:10.203, 20, 0.00, 0.43, 97, 2.000, 2.000, 149.700, 782, 100, 96, 25, 23774, -19115, 5307, 5472, 12, 14, 1525811770.203, 169, 0, 1024, 1024, 1024, 1024, 0, 6, 3936, 3964, 3972, 3985, 3944, 3977, 0, 1, 19901, 0.000, 0.000, 0.000, 0.000, 0.000, -2.900, 0.0, , , , , , 97, , , 29, 29, 29
38.2848413, -120.3444790, 44.300, 13:36:10.311, 20, 0.00, 0.44, 97, 2.400, 2.500, 150.000, 782, 100, 97, 25, 23774, -19115, 5307, 5472, 12, 14, 1525811770.311, 3, 0, 1024, 1024, 1024, 1024, 0, 6, 3936, 3964, 3972, 3985, 3944, 3977, 0, 1, 20009, 0.000, 0.000, 0.000, 0.000, 0.000, -2.900, 0.0, , , , , , 97, , , 29, 29, 29
38.2848413, -120.3444790, 44.300, 13:36:10.402, 20, 0.00, 0.44, 97, 2.400, 2.500, 150.000, 782, 100, 97, 25, 23774, -19115, 5307, 5472, 12, 14, 1525811770.402, 95, 0, 1024, 1024, 1024, 1024, 0, 6, 3936, 3964, 3972, 3985, 3944, 3977, 0, 1, 20100, 0.000, 0.000, 0.000, 0.000, 0.000, -2.900, 0.0, , , , , , 97, , , 29, 29, 29
38.2848413, -120.3444790, 44.300, 13:36:10.503, 20, 0.00, 0.44, 97, 2.400, 2.500, 150.000, 782, 100, 97, 25, 23774, -19115, 5307, 5472, 12, 14, 1525811770.504, 196, 0, 1024, 1024, 1024, 1024, 0, 6, 3936, 3964, 3972, 3985, 3944, 3977, 0, 1, 20202, 0.000, 0.000, 0.000, 0.000, 0.000, -2.900, 0.0, , , , , , 97, , , 29, 29, 29
38.2848414, -120.3444789, 44.600, 13:36:10.602, 20, 0.00, 0.44, 97, 2.400, 2.400, 150.000, 782, 100, 97, 25, 23774, -19115, 5307, 5472, 12, 14, 1525811770.602, 35, 0, 1024, 1024, 1024, 1024, 0, 6, 3936, 3964, 3972, 3985, 3944, 3977, 0, 1, 20300, 0.000, 0.000, 0.000, 0.000, 0.000, -2.900, 0.0, , , , , , 97, , , 29, 29, 29
38.2848414, -120.3444790, 44.900, 13:36:10.703, 20, 0.00, 0.44, 97, 2.600, 2.400, 150.100, 782, 100, 97, 25, 23774, -19115, 5307, 5472, 12, 14, 1525811770.704, 67, 0, 1024, 1024, 1024, 1024, 0, 6, 3936, 3964, 3972, 3985, 3944, 3977, 0, 1, 20402, 0.000, 0.000, 0.000, 0.000, 0.000, -2.900, 0.0, , , , , , 97, , , 29, 29, 29
38.2848414, -120.3444789, 45.200, 13:36:10.803, 20, 0.00, 0.44, 97, 2.700, 2.200, 150.100, 782, 100, 97, 25, 23718, -19036, 5253, 5472, 12, 14, 1525811770.803, 77, 0, 1024, 1024, 1024, 1024, 0, 6, 3936, 3964, 3972, 3985, 3944, 3977, 0, 1, 20501, 0.000, 0.000, 0.000, 0.000, 0.000, -3.000, 0.0, , , , , , 97, , , 29, 29, 29
38.2848414, -120.3444789, 45.200, 13:36:10.903, 20, 0.00, 0.44, 97, 2.700, 2.200, 150.100, 782, 100, 97, 25, 23718, -19036, 5253, 5472, 12, 14, 1525811770.904, 178, 0, 1024, 1024, 1024, 1024, 0, 6, 3921, 3946, 3964, 3981, 3931, 3970, 0, 1, 20602, 0.000, 0.000, 0.000, 0.000, 0.000, -3.000, 0.0, , , , , , 97, , , 29, 29, 29
38.2848415, -120.3444789, 45.800, 13:36:11.003, 20, 0.00, 0.45, 97, 2.800, 2.000, 150.000, 782, 100, 97, 25, 23718, -19036, 5253, 5472, 12, 14, 1525811771.003, 36, 0, 1024, 1024, 1024, 1024, 0, 6, 3921, 3946, 3964, 3981, 3931, 3970, 0, 1, 20701, 0.000, 0.000, 0.000, 0.000, 0.000, -3.000, 0.0, , , , , , 97, , , 29, 29, 29
38.2848415, -120.3444789, 46.100, 13:36:11.103, 20, 0.00, 0.45, 97, 2.700, 2.000, 150.000, 782, 100, 97, 25, 23718, -19036, 5253, 5472, 12, 14, 1525811771.104, 26, 0, 1024, 1024, 1024, 1024, 0, 6, 3921, 3946, 3964, 3981, 3931, 3970, 0, 1, 20802, 0.000, 0.000, 0.000, 0.000, 0.000, -3.000, 0.0, , , , , , 97, , , 29, 29, 29
38.2848416, -120.3444789, 46.400, 13:36:11.203, 20, 0.00, 0.44, 97, 2.700, 1.900, 150.000, 782, 100, 97, 25, 23718, -19036, 5253, 5472, 12, 14, 1525811771.204, 38, 0, 1024, 1024, 1024, 1024, 0, 6, 3921, 3946, 3964, 3981, 3931, 3970, 0, 1, 20902, 0.000, 0.000, 0.000, 0.000, 0.000, -3.000, 0.0, , , , , , 97, , , 29, 29, 29
38.2848416, -120.3444789, 46.700, 13:36:11.303, 20, 0.00, 0.44, 96, 2.700, 2.000, 149.900, 782, 100, 97, 25, 23718, -19036, 5253, 5472, 12, 14, 1525811771.305, 17, 0, 1024, 1024, 1024, 1024, 0, 6, 3921, 3946, 3964, 3981, 3931, 3970, 0, 1, 21003, 0.000, 0.000, 0.000, 0.000, 0.000, -3.000, 0.0, , , , , , 97, , , 29, 29, 29
38.2848416, -120.3444789, 46.700, 13:36:11.403, 20, 0.00, 0.44, 96, 2.700, 2.000, 149.900, 782, 100, 94, 25, 23718, -19036, 5253, 5472, 12, 14, 1525811771.404, 116, 0, 1024, 1024, 1024, 1024, 0, 6, 3921, 3946, 3964, 3981, 3931, 3970, 0, 1, 21102, 0.000, 0.000, 0.000, 0.000, 0.000, -3.000, 0.0, , , , , , 97, , , 29, 29, 29
38.2848416, -120.3444789, 46.700, 13:36:11.503, 20, 0.00, 0.44, 96, 2.700, 2.000, 149.900, 782, 100, 94, 25, 23718, -19036, 5253, 5472, 12, 14, 1525811771.503, 216, 0, 1024, 1024, 1024, 1024, 0, 6, 3921, 3946, 3964, 3981, 3931, 3970, 0, 1, 21201, 0.000, 0.000, 0.000, 0.000, 0.000, -3.000, 0.0, , , , , , 97, , , 29, 29, 29
38.2848417, -120.3444789, 47.600, 13:36:11.602, 20, 0.00, 0.44, 96, 2.600, 1.900, 149.500, 782, 100, 94, 25, 23718, -19036, 5253, 5472, 12, 14, 1525811771.603, 14, 0, 1024, 1024, 1024, 1024, 0, 6, 3921, 3946, 3964, 3981, 3931, 3970, 0, 1, 21301, 0.000, 0.000, 0.000, 0.000, 0.000, -2.900, 0.0, , , , , , 97, , , 29, 29, 29
38.2848417, -120.3444790, 47.900, 13:36:11.703, 20, 0.00, 0.44, 96, 2.300, 1.800, 149.400, 782, 100, 94, 25, 23718, -19036, 5253, 5472, 12, 14, 1525811771.705, 17, 0, 1024, 1024, 1024, 1024, 0, 6, 3921, 3946, 3964, 3981, 3931, 3970, 0, 1, 21403, 0.000, 0.000, 0.000, 0.000, 0.000, -2.900, 0.0, , , , , , 97, , , 29, 29, 29
38.2848417, -120.3444790, 48.100, 13:36:11.803, 20, 0.00, 0.44, 96, 2.100, 1.900, 149.400, 782, 100, 94, 25, 23667, -19526, 5253, 5472, 12, 14, 1525811771.805, 16, 0, 1024, 1024, 1024, 1024, 0, 6, 3913, 3945, 3955, 3969, 3924, 3966, 0, 1, 21503, 0.000, 0.000, 0.000, 0.000, 0.000, -2.900, 0.0, , , , , , 97, , , 29, 29, 29
38.2848417, -120.3444790, 48.100, 13:36:11.905, 20, 0.00, 0.44, 96, 2.100, 1.900, 149.400, 782, 100, 95, 25, 23667, -19526, 5253, 5472, 12, 14, 1525811771.905, 117, 0, 1024, 1024, 1024, 1024, 0, 6, 3913, 3945, 3955, 3969, 3924, 3966, 0, 1, 21603, 0.000, 0.000, 0.000, 0.000, 0.000, -2.900, 0.0, , , , , , 97, , , 29, 29, 29
38.2848416, -120.3444789, 48.700, 13:36:12.002, 20, 0.00, 0.44, 96, 2.100, 2.500, 149.400, 782, 100, 95, 25, 23667, -19526, 5253, 5472, 12, 14, 1525811772.003, 9, 0, 1024, 1024, 1024, 1024, 0, 6, 3913, 3945, 3955, 3969, 3924, 3966, 0, 1, 21701, 0.000, 0.000, 0.000, 0.000, 0.000, -2.900, 0.0, , , , , , 97, , , 29, 29, 29
38.2848416, -120.3444789, 48.700, 13:36:12.103, 20, 0.00, 0.44, 96, 2.100, 2.500, 149.400, 782, 100, 95, 25, 23667, -19526, 5253, 5472, 12, 14, 1525811772.104, 109, 0, 1024, 1024, 1024, 1024, 0, 6, 3913, 3945, 3955, 3969, 3924, 3966, 0, 1, 21802, 0.000, 0.000, 0.000, 0.000, 0.000, -2.900, 0.0, , , , , , 97, , , 29, 29, 29
38.2848416, -120.3444789, 48.700, 13:36:12.202, 20, 0.00, 0.44, 96, 2.100, 2.500, 149.400, 782, 100, 95, 25, 23667, -19526, 5253, 5472, 12, 14, 1525811772.203, 208, 0, 1024, 1024, 1024, 1024, 0, 6, 3913, 3945, 3955, 3969, 3924, 3966, 0, 1, 21901, 0.000, 0.000, 0.000, 0.000, 0.000, -2.900, 0.0, , , , , , 97, , , 29, 29, 29
38.2848414, -120.3444789, 49.900, 13:36:12.303, 20, 0.00, 0.45, 96, 1.900, 3.300, 149.800, 782, 100, 93, 25, 23667, -19526, 5253, 5472, 12, 14, 1525811772.303, 37, 0, 1024, 1024, 1024, 1024, 0, 6, 3913, 3945, 3955, 3969, 3924, 3966, 0, 1, 22001, 0.000, 0.000, 0.000, 0.000, 0.000, -3.000, 0.0, , , , , , 97, , , 29, 29, 29
38.2848414, -120.3444788, 50.200, 13:36:12.403, 20, 0.00, 0.45, 96, 2.000, 3.300, 150.000, 782, 100, 93, 25, 23667, -19526, 5253, 5472, 12, 14, 1525811772.403, 18, 0, 1024, 1024, 1024, 1024, 0, 6, 3913, 3945, 3955, 3969, 3924, 3966, 0, 1, 22101, 0.000, 0.000, 0.000, 0.000, 0.000, -3.000, 0.0, , , , , , 97, , , 29, 29, 29
38.2848414, -120.3444788, 50.200, 13:36:12.503, 20, 0.00, 0.45, 96, 2.000, 3.300, 150.000, 782, 100, 93, 25, 23667, -19526, 5253, 5472, 12, 14, 1525811772.503, 117, 0, 1024, 1024, 1024, 1024, 0, 6, 3913, 3945, 3955, 3969, 3924, 3966, 0, 1, 22201, 0.000, 0.000, 0.000, 0.000, 0.000, -3.000, 0.0, , , , , , 97, , , 29, 29, 29
38.2848413, -120.3444788, 50.800, 13:36:12.603, 20, 0.00, 0.46, 96, 2.400, 3.100, 150.100, 782, 100, 93, 25, 23667, -19526, 5253, 5472, 12, 14, 1525811772.603, 73, 0, 1024, 1024, 1024, 1024, 0, 6, 3913, 3945, 3955, 3969, 3924, 3966, 0, 1, 22301, 0.000, 0.000, 0.000, 0.000, 0.000, -3.100, 0.0, , , , , , 97, , , 29, 29, 29
38.2848413, -120.3444788, 51.100, 13:36:12.702, 20, 0.00, 0.46, 96, 2.300, 3.200, 150.100, 782, 100, 93, 25, 23684, -19206, 5253, 5472, 12, 14, 1525811772.703, 50, 0, 1024, 1024, 1024, 1024, 0, 6, 3913, 3945, 3955, 3969, 3924, 3966, 0, 1, 22401, 0.000, 0.000, 0.000, 0.000, 0.000, -3.000, 0.0, , , , , , 97, , , 29, 29, 29
38.2848412, -120.3444788, 51.500, 13:36:12.803, 20, 0.00, 0.46, 96, 2.000, 3.300, 150.100, 782, 100, 94, 25, 23684, -19206, 5253, 5472, 12, 14, 1525811772.804, 76, 0, 1024, 1024, 1024, 1024, 0, 6, 3913, 3945, 3955, 3969, 3924, 3966, 0, 1, 22502, 0.000, 0.000, 0.000, 0.000, 0.000, -3.000, 0.0, , , , , , 97, , , 29, 29, 29
38.2848412, -120.3444788, 51.800, 13:36:12.903, 20, 0.00, 0.46, 96, 1.700, 3.200, 150.100, 782, 100, 94, 25, 23684, -19206, 5253, 5472, 12, 14, 1525811772.904, 20, 0, 1024, 1024, 1024, 1024, 0, 6, 3913, 3945, 3955, 3969, 3924, 3966, 0, 1, 22602, 0.000, 0.000, 0.000, 0.000, 0.000, -2.900, 0.0, , , , , , 97, , , 29, 29, 29
38.2848412, -120.3444788, 52.100, 13:36:13.003, 20, 0.00, 0.46, 96, 1.600, 3.000, 150.000, 782, 100, 94, 25, 23684, -19206, 5253, 5472, 12, 14, 1525811773.003, 22, 0, 1024, 1024, 1024, 1024, 0, 6, 3913, 3945, 3955, 3969, 3924, 3966, 0, 1, 22701, 0.000, 0.000, 0.000, 0.000, 0.000, -3.000, 0.0, , , , , , 97, , , 29, 29, 29
38.2848412, -120.3444788, 52.400, 13:36:13.104, 20, 0.00, 0.46, 96, 1.600, 2.800, 150.000, 782, 100, 94, 25, 23684, -19206, 5253, 5472, 12, 14, 1525811773.104, 7, 0, 1024, 1024, 1024, 1024, 0, 6, 3913, 3945, 3955, 3969, 3924, 3966, 0, 1, 22802, 0.000, 0.000, 0.000, 0.000, 0.000, -3.000, 0.0, , , , , , 97, , , 29, 29, 29
38.2848412, -120.3444788, 52.700, 13:36:13.203, 20, 0.00, 0.46, 96, 1.900, 2.800, 149.900, 782, 100, 94, 25, 23684, -19206, 5253, 5472, 12, 14, 1525811773.204, 13, 0, 1024, 1024, 1024, 1024, 0, 6, 3913, 3945, 3955, 3969, 3924, 3966, 0, 1, 22902, 0.000, 0.000, 0.000, 0.000, 0.000, -3.000, 0.0, , , , , , 97, , , 29, 29, 29
38.2848412, -120.3444788, 52.700, 13:36:13.303, 20, 0.00, 0.46, 96, 1.900, 2.800, 149.900, 782, 100, 94, 25, 23684, -19206, 5253, 5472, 12, 14, 1525811773.303, 113, 0, 1024, 1024, 1024, 1024, 0, 6, 3915, 3950, 3949, 3977, 3924, 3968, 0, 1, 23001, 0.000, 0.000, 0.000, 0.000, 0.000, -3.000, 0.0, , , , , , 97, , , 29, 29, 29
