Latitude, Longitude, Altitude (m), Time, Sats, Speed (m/s), Range (m), Battery (%), Roll (deg), Pitch (deg), Yaw (deg), Images, HD Signal (%), RC Signal (%), Battery Temp (C), Battery Voltage (mV), Battery Current (mA), Battery Energy (mAh), Battery Capacity (mAh), Battery Discharges, flyState, timestamp (Unix), LastUpdate (ms), radioChannel, Rc_elevator, Rc_aileron, Rc_throttle, Rc_rudder, Rc_gyro, Dronetype, Battery_Cell1 (mV), Battery_Cell2 (mV), Battery_Cell3 (mV), Battery_Cell4 (mV), Battery_Cell5 (mV), Battery_Cell6 (mV), Video, isFlying, elapsedTime (ms), gimbalPitch (deg), gimbalRoll (deg), gimbalYaw (deg), VelocityX (m/s), VelocityY (m/s), VelocityZ (m/s), GroundSmear (cm), App Version, Aircraft Name, Aircraft Firmware, Aircraft Serial Number, Battery Serial Number, Battery Lifetime (%), App_Tip, App_Warning, CurrentFlightStartingIndex, CurrentFlightLastVisitedWaypoint, PreviousFlightEndingWaypointIndex
38.2848506, -120.3444713, 0.000, 14:55:59.512, 13, 0.10, 0.09, 98, -0.800, -1.300, 149.100, 967, 100, 100, 23, 25466, -2675, 5437, 5548, 8, 11, 1525816559.513, 44, 0, 1024, 1024, 1024, 1024, 0, 6, 4261, 4272, 4184, 4259, 4199, 4238, 0, 1, 3024, -90.000, 0.000, 147.200, 0.000, 0.100, -0.100, 0.0, MapPilot_2.8.1_04242018, Dendroctonus I, 1.3.1.00, 041DDC1887, 1058163200445, 98, DJI_0760.jpg, Starting Mission from Lat/Long: 38.28487/-120.34447 Camera: Zenmuse X3 - Overlap: 90/90 - Active Connection: No, 61, 61, 61
38.2848507, -120.3444712, 0.000, 14:55:59.589, 13, 0.10, 0.09, 98, -0.300, -1.200, 149.400, 967, 100, 100, 23, 25466, -2675, 5437, 5548, 8, 11, 1525816559.589, 26, 0, 1024, 1024, 1024, 1024, 0, 6, 4261, 4272, 4184, 4259, 4199, 4238, 0, 1, 3101, -89.900, 0.000, 147.300, 0.000, 0.100, -0.200, 0.0, , , , , , 98, , , 61, 61, 61
38.2848507, -120.3444712, 0.000, 14:55:59.691, 13, 0.10, 0.09, 98, -0.300, -1.200, 149.400, 967, 100, 100, 23, 25466, -2675, 5437, 5548, 8, 11, 1525816559.691, 128, 0, 1024, 1024, 1024, 1024, 0, 6, 4261, 4272, 4184, 4259, 4199, 4238, 0, 1, 3203, -89.900, 0.000, 147.300, 0.000, 0.100, -0.200, 0.0, , , , , , 98, , , 61, 61, 61
38.2848508, -120.3444707, 0.100, 14:55:59.790, 13, 0.20, 0.10, 98, 0.500, 0.000, 149.500, 967, 100, 100, 23, 25596, -2888, 5437, 5548, 8, 11, 1525816559.791, 12, 0, 1024, 1024, 1024, 1024, 0, 6, 4261, 4272, 4184, 4259, 4199, 4238, 0, 1, 3303, -89.900, 0.000, 147.300, 0.000, 0.200, -0.300, 0.1, , , , , , 98, , , 61, 61, 61
38.2848508, -120.3444705, 0.100, 14:55:59.888, 13, 0.20, 0.12, 98, 1.400, 0.700, 149.400, 967, 100, 100, 23, 25596, -2888, 5437, 5548, 8, 11, 1525816559.890, 9, 0, 1024, 1024, 1024, 1024, 0, 6, 4281, 4257, 4234, 4252, 4245, 4248, 0, 1, 3401, -89.900, 0.000, 147.300, 0.000, 0.200, -0.300, 0.1, , , , , , 98, , , 61, 61, 61
38.2848509, -120.3444702, 0.100, 14:55:59.988, 13, 0.20, 0.13, 98, 2.000, 1.300, 149.400, 967, 100, 100, 23, 25596, -2888, 5437, 5548, 8, 11, 1525816559.989, 12, 0, 1024, 1024, 1024, 1024, 0, 6, 4281, 4257, 4234, 4252, 4245, 4248, 0, 1, 3500, -89.900, 0.000, 147.300, 0.000, 0.200, -0.300, 0.1, , , , , , 98, , , 61, 61, 61
38.2848510, -120.3444700, 0.200, 14:56:00.089, 13, 0.20, 0.15, 98, 2.300, 1.500, 149.200, 967, 100, 100, 23, 25596, -2888, 5437, 5548, 8, 11, 1525816560.090, 13, 0, 1024, 1024, 1024, 1024, 0, 6, 4281, 4257, 4234, 4252, 4245, 4248, 0, 1, 3602, -89.900, 0.000, 147.400, 0.000, 0.200, -0.300, 0.1, , , , , , 98, , , 61, 61, 61
38.2848511, -120.3444698, 0.200, 14:56:00.199, 14, 0.10, 0.17, 98, 2.300, 1.100, 149.000, 967, 100, 100, 23, 25596, -2888, 5437, 5548, 8, 11, 1525816560.200, 10, 0, 1024, 1024, 1024, 1024, 0, 6, 4281, 4257, 4234, 4252, 4245, 4248, 0, 1, 3711, -89.900, 0.000, 147.400, 0.000, 0.100, -0.300, 0.0, , , , , , 98, , , 61, 61, 61
38.2848512, -120.3444696, 0.300, 14:56:00.293, 14, 0.10, 0.19, 98, 2.400, 0.600, 148.800, 967, 100, 100, 23, 25596, -2888, 5437, 5548, 8, 11, 1525816560.294, 4, 0, 1024, 1024, 1024, 1024, 0, 6, 4281, 4257, 4234, 4252, 4245, 4248, 0, 1, 3805, -89.900, 0.000, 147.400, 0.000, 0.100, -0.400, 0.0, , , , , , 98, , , 61, 61, 61
38.2848512, -120.3444694, 0.300, 14:56:00.392, 14, 0.10, 0.21, 98, 1.900, 0.400, 148.500, 967, 100, 100, 23, 25596, -2888, 5437, 5548, 8, 11, 1525816560.392, 7, 0, 1024, 1024, 1024, 1024, 0, 6, 4281, 4257, 4234, 4252, 4245, 4248, 0, 1, 3904, -89.900, 0.000, 147.400, 0.000, 0.100, -0.400, 0.0, , , , , , 98, , , 61, 61, 61
38.2848512, -120.3444694, 0.300, 14:56:00.488, 14, 0.10, 0.21, 98, 1.900, 0.400, 148.500, 967, 100, 100, 23, 25596, -2888, 5437, 5548, 8, 11, 1525816560.489, 103, 0, 1024, 1024, 1024, 1024, 0, 6, 4281, 4257, 4234, 4252, 4245, 4248, 0, 1, 4000, -89.900, 0.000, 147.400, 0.000, 0.100, -0.400, 0.0, , , , , , 98, , , 61, 61, 61
38.2848513, -120.3444692, 0.400, 14:56:00.589, 14, 0.10, 0.23, 98, 1.900, 0.500, 148.200, 967, 100, 100, 23, 25596, -2888, 5437, 5548, 8, 11, 1525816560.591, 91, 0, 1024, 1024, 1024, 1024, 0, 6, 4281, 4257, 4234, 4252, 4245, 4248, 0, 1, 4102, -89.900, 0.000, 147.400, 0.000, 0.100, -0.400, 0.0, , , , , , 98, , , 61, 61, 61
38.2848514, -120.3444690, 0.400, 14:56:00.689, 13, 0.10, 0.24, 98, 1.900, 0.600, 148.100, 967, 100, 100, 23, 25596, -2888, 5437, 5548, 8, 11, 1525816560.690, 81, 0, 1024, 1024, 1024, 1024, 0, 6, 4281, 4257, 4234, 4252, 4245, 4248, 0, 1, 4202, -89.900, 0.000, 147.500, 0.000, 0.100, -0.400, 0.0, , , , , , 98, , , 61, 61, 61
38.2848515, -120.3444688, 0.500, 14:56:00.789, 13, 0.10, 0.26, 98, 1.700, 0.600, 148.100, 967, 100, 100, 23, 24757, -16914, 5437, 5548, 8, 11, 1525816560.791, 70, 0, 1024, 1024, 1024, 1024, 0, 6, 4033, 4014, 4056, 4059, 4078, 4050, 0, 1, 4303, -89.900, 0.000, 147.500, 0.000, 0.100, -0.500, 0.0, , , , , , 98, , , 61, 61, 61
38.2848515, -120.3444686, 0.500, 14:56:00.889, 14, 0.10, 0.28, 98, 1.600, 0.700, 148.200, 967, 100, 100, 23, 24757, -16914, 5437, 5548, 8, 11, 1525816560.890, 81, 0, 1024, 1024, 1024, 1024, 0, 6, 4033, 4014, 4056, 4059, 4078, 4050, 0, 1, 4401, -89.900, 0.000, 147.500, 0.000, 0.100, -0.500, 0.0, , , , , , 98, , , 61, 61, 61
38.2848515, -120.3444684, 0.600, 14:56:00.989, 14, 0.10, 0.29, 98, 1.600, 0.800, 148.400, 967, 100, 100, 23, 24757, -16914, 5437, 5548, 8, 11, 1525816560.990, 69, 0, 1024, 1024, 1024, 1024, 0, 6, 4033, 4014, 4056, 4059, 4078, 4050, 0, 1, 4501, -89.900, 0.000, 147.500, 0.000, 0.100, -0.400, 0.0, , , , , , 98, , , 61, 61, 61
38.2848516, -120.3444683, 0.600, 14:56:01.089, 14, 0.10, 0.31, 98, 1.900, 0.900, 148.500, 967, 100, 100, 23, 24757, -16914, 5437, 5548, 8, 11, 1525816561.090, 70, 0, 1024, 1024, 1024, 1024, 0, 6, 4033, 4014, 4056, 4059, 4078, 4050, 0, 1, 4602, -89.900, 0.000, 147.500, 0.000, 0.100, -0.500, 0.0, , , , , , 98, , , 61, 61, 61
38.2848516, -120.3444681, 0.700, 14:56:01.189, 14, 0.10, 0.32, 98, 2.000, 1.000, 148.500, 967, 100, 100, 23, 24757, -16914, 5437, 5548, 8, 11, 1525816561.191, 69, 0, 1024, 1024, 1024, 1024, 0, 6, 4033, 4014, 4056, 4059, 4078, 4050, 0, 1, 4702, -89.900, 0.000, 147.500, 0.000, 0.100, -0.500, 0.0, , , , , , 98, , , 61, 61, 61
38.2848516, -120.3444679, 0.800, 14:56:01.289, 14, 0.10, 0.34, 98, 2.000, 0.900, 148.600, 967, 100, 100, 23, 24757, -16914, 5437, 5548, 8, 11, 1525816561.292, 71, 0, 1024, 1024, 1024, 1024, 0, 6, 4033, 4014, 4056, 4059, 4078, 4050, 0, 1, 4804, -89.900, 0.000, 147.500, 0.000, 0.100, -0.500, 0.0, , , , , , 98, , , 61, 61, 61
38.2848516, -120.3444677, 0.800, 14:56:01.389, 14, 0.10, 0.35, 98, 2.100, 1.000, 148.600, 967, 100, 100, 23, 24757, -16914, 5437, 5548, 8, 11, 1525816561.391, 45, 0, 1024, 1024, 1024, 1024, 0, 6, 4033, 4014, 4056, 4059, 4078, 4050, 0, 1, 4903, -89.900, 0.000, 147.600, 0.000, 0.100, -0.500, 0.0, , , , , , 98, , , 61, 61, 61
38.2848516, -120.3444675, 0.900, 14:56:01.489, 14, 0.10, 0.37, 98, 2.200, 1.300, 148.700, 967, 100, 100, 23, 24757, -16914, 5437, 5548, 8, 6, 1525816561.490, 60, 0, 1024, 1024, 1024, 1024, 0, 6, 4033, 4014, 4056, 4059, 4078, 4050, 0, 1, 5001, -89.900, 0.000, 147.600, 0.000, 0.100, -0.400, 0.0, , , , , , 98, , , 61, 61, 61
38.2848515, -120.3444674, 0.900, 14:56:01.589, 14, 0.00, 0.37, 98, 2.600, 1.500, 148.700, 967, 100, 100, 23, 24757, -16914, 5437, 5548, 8, 14, 1525816561.590, 61, 0, 1024, 1024, 1024, 1024, 0, 6, 4033, 4014, 4056, 4059, 4078, 4050, 0, 1, 5101, -89.900, 0.000, 147.600, 0.000, 0.000, -0.400, 0.0, , , , , , 98, , , 61, 61, 61
38.2848514, -120.3444672, 1.000, 14:56:01.689, 13, 0.00, 0.38, 98, 1.700, 1.700, 148.600, 967, 100, 100, 23, 24079, -16267, 5437, 5548, 8, 14, 1525816561.690, 36, 0, 1024, 1024, 1024, 1024, 0, 6, 4033, 4014, 4056, 4059, 4078, 4050, 0, 1, 5201, -89.900, 0.000, 147.600, 0.000, 0.000, -0.200, 0.0, , , , , , 98, , , 61, 61, 61
38.2848513, -120.3444671, 1.000, 14:56:01.789, 13, 0.00, 0.38, 98, 1.200, 1.600, 148.600, 967, 100, 100, 23, 24079, -16267, 5437, 5548, 8, 14, 1525816561.790, 42, 0, 1024, 1024, 1024, 1024, 0, 6, 4033, 4014, 4056, 4059, 4078, 4050, 0, 1, 5302, -89.900, 0.000, 147.600, 0.000, 0.000, -0.200, 0.0, , , , , , 98, , , 61, 61, 61
38.2848512, -120.3444671, 1.000, 14:56:01.889, 13, 0.00, 0.38, 98, 1.000, 1.500, 148.600, 967, 100, 100, 23, 24079, -16267, 5437, 5548, 8, 14, 1525816561.890, 45, 0, 1024, 1024, 1024, 1024, 0, 6, 4033, 4014, 4056, 4059, 4078, 4050, 0, 1, 5401, -89.900, 0.000, 147.600, 0.000, 0.000, -0.300, 0.0, , , , , , 98, , , 61, 61, 61
38.2848511, -120.3444671, 1.100, 14:56:01.989, 10, 0.00, 0.38, 98, 0.800, 1.500, 148.700, 967, 100, 100, 23, 24079, -16267, 5437, 5548, 8, 14, 1525816561.989, 38, 0, 1024, 1024, 1024, 1024, 0, 6, 4033, 4014, 4056, 4059, 4078, 4050, 0, 1, 5501, -89.900, 0.000, 147.600, 0.000, 0.000, -0.500, 0.0, , , , , , 98, , , 61, 61, 61
38.2848511, -120.3444671, 1.100, 14:56:02.089, 10, 0.00, 0.38, 98, 0.800, 1.500, 148.700, 967, 100, 100, 23, 24079, -16267, 5437, 5548, 8, 14, 1525816562.089, 137, 0, 1024, 1024, 1024, 1024, 0, 6, 4033, 4014, 4056, 4059, 4078, 4050, 0, 1, 5601, -89.900, 0.000, 147.600, 0.000, 0.000, -0.500, 0.0, , , , , , 98, , , 61, 61, 61
38.2848511, -120.3444671, 1.100, 14:56:02.189, 10, 0.00, 0.38, 98, 0.800, 1.500, 148.700, 967, 100, 100, 23, 24079, -16267, 5437, 5548, 8, 14, 1525816562.189, 237, 0, 1024, 1024, 1024, 1024, 0, 6, 4033, 4014, 4056, 4059, 4078, 4050, 0, 1, 5701, -89.900, 0.000, 147.600, 0.000, 0.000, -0.500, 0.0, , , , , , 98, , , 61, 61, 61
38.2848511, -120.3444670, 1.400, 14:56:02.289, 12, 0.00, 0.38, 98, 1.300, 1.200, 149.000, 967, 100, 96, 23, 24079, -16267, 5437, 5548, 8, 14, 1525816562.289, 16, 0, 1024, 1024, 1024, 1024, 0, 6, 4033, 4014, 4056, 4059, 4078, 4050, 0, 1, 5801, -89.900, 0.000, 147.600, 0.000, 0.000, -1.100, 0.0, , , , , , 98, , , 61, 61, 61
38.2848512, -120.3444670, 1.500, 14:56:02.389, 12, 0.00, 0.39, 98, 1.300, 1.200, 149.000, 967, 100, 96, 23, 24079, -16267, 5437, 5548, 8, 14, 1525816562.390, 30, 0, 1024, 1024, 1024, 1024, 0, 6, 4010, 4003, 3986, 4009, 4041, 4028, 0, 1, 5901, -90.000, 0.000, 147.600, 0.000, 0.000, -1.200, 0.0, , , , , , 98, , , 61, 61, 61
38.2848512, -120.3444670, 1.500, 14:56:02.489, 12, 0.00, 0.39, 98, 1.300, 1.200, 149.000, 967, 100, 96, 23, 24079, -16267, 5437, 5548, 8, 14, 1525816562.490, 130, 0, 1024, 1024, 1024, 1024, 0, 6, 4010, 4003, 3986, 4009, 4041, 4028, 0, 1, 6001, -90.000, 0.000, 147.600, 0.000, 0.000, -1.200, 0.0, , , , , , 98, , , 61, 61, 61
38.2848513, -120.3444668, 1.800, 14:56:02.589, 13, 0.00, 0.41, 98, 1.300, 0.800, 148.900, 967, 100, 96, 23, 24079, -16267, 5437, 5548, 8, 14, 1525816562.590, 27, 0, 1024, 1024, 1024, 1024, 0, 6, 4010, 4003, 3986, 4009, 4041, 4028, 0, 1, 6101, -90.000, 0.000, 147.600, 0.000, 0.000, -1.500, 0.0, , , , , , 98, , , 61, 61, 61
38.2848513, -120.3444667, 2.000, 14:56:02.688, 13, 0.00, 0.41, 98, 1.400, 0.900, 148.900, 967, 100, 96, 23, 24079, -16267, 5437, 5548, 8, 14, 1525816562.689, 18, 0, 1024, 1024, 1024, 1024, 0, 6, 4010, 4003, 3986, 4009, 4041, 4028, 0, 1, 6201, -89.900, 0.000, 147.600, 0.000, 0.000, -1.900, 0.0, , , , , , 98, , , 61, 61, 61
38.2848513, -120.3444667, 2.000, 14:56:02.790, 13, 0.00, 0.41, 98, 1.400, 0.900, 148.900, 967, 100, 96, 23, 24079, -16267, 5437, 5548, 8, 14, 1525816562.791, 120, 0, 1024, 1024, 1024, 1024, 0, 6, 4010, 4003, 3986, 4009, 4041, 4028, 0, 1, 6303, -89.900, 0.000, 147.600, 0.000, 0.000, -1.900, 0.0, , , , , , 98, , , 61, 61, 61
38.2848513, -120.3444666, 2.100, 14:56:02.889, 14, 0.00, 0.42, 98, 1.300, 1.200, 148.800, 967, 100, 93, 23, 24079, -16267, 5437, 5548, 8, 14, 1525816562.890, 84, 0, 1024, 1024, 1024, 1024, 0, 6, 4010, 4003, 3986, 4009, 4041, 4028, 0, 1, 6401, -89.900, 0.000, 147.600, 0.000, 0.000, -2.000, 0.0, , , , , , 98, , , 61, 61, 61
38.2848516, -120.3444666, 2.600, 14:56:02.995, 13, 0.00, 0.44, 98, 1.300, 1.000, 148.700, 967, 100, 93, 23, 24079, -16267, 5437, 5548, 8, 14, 1525816562.996, 8, 0, 1024, 1024, 1024, 1024, 0, 6, 4010, 4003, 3986, 4009, 4041, 4028, 0, 1, 6508, -90.000, 0.000, 147.600, 0.000, 0.000, -2.500, 0.0, , , , , , 98, , , 61, 61, 61
38.2848516, -120.3444666, 2.600, 14:56:03.089, 13, 0.00, 0.44, 98, 1.300, 1.000, 148.700, 967, 100, 93, 23, 24079, -16267, 5437, 5548, 8, 14, 1525816563.090, 101, 0, 1024, 1024, 1024, 1024, 0, 6, 4010, 4003, 3986, 4009, 4041, 4028, 0, 1, 6602, -90.000, 0.000, 147.600, 0.000, 0.000, -2.500, 0.0, , , , , , 98, , , 61, 61, 61
38.2848516, -120.3444665, 2.900, 14:56:03.189, 13, 0.00, 0.44, 98, 1.300, 0.700, 148.700, 967, 100, 93, 23, 24079, -16267, 5437, 5548, 8, 14, 1525816563.189, 72, 0, 1024, 1024, 1024, 1024, 0, 6, 4010, 4003, 3986, 4009, 4041, 4028, 0, 1, 6701, -89.900, 0.000, 147.600, 0.000, 0.000, -2.700, 0.0, , , , , , 98, , , 61, 61, 61
38.2848516, -120.3444664, 3.200, 14:56:03.289, 14, 0.00, 0.45, 98, 1.300, 0.900, 148.700, 967, 100, 93, 23, 23813, -19469, 5437, 5548, 8, 14, 1525816563.290, 89, 0, 1024, 1024, 1024, 1024, 0, 6, 3931, 3939, 3902, 3948, 3977, 3957, 0, 1, 6802, -89.900, 0.000, 147.600, 0.000, 0.000, -2.900, 0.0, , , , , , 98, , , 61, 61, 61
38.2848516, -120.3444664, 3.500, 14:56:03.389, 14, 0.00, 0.45, 98, 1.300, 1.100, 148.800, 967, 100, 92, 23, 23813, -19469, 5437, 5548, 8, 14, 1525816563.390, 77, 0, 1024, 1024, 1024, 1024, 0, 6, 3931, 3939, 3902, 3948, 3977, 3957, 0, 1, 6902, -89.900, 0.000, 147.600, 0.000, 0.000, -3.000, 0.0, , , , , , 98, , , 61, 61, 61
38.2848516, -120.3444664, 3.800, 14:56:03.489, 14, 0.00, 0.45, 98, 1.300, 1.100, 148.800, 967, 100, 92, 23, 23813, -19469, 5437, 5548, 8, 14, 1525816563.489, 50, 0, 1024, 1024, 1024, 1024, 0, 6, 3931, 3939, 3902, 3948, 3977, 3957, 0, 1, 7001, -89.900, 0.000, 147.600, 0.000, 0.000, -3.100, 0.0, , , , , , 98, , , 61, 61, 61
38.2848517, -120.3444663, 4.200, 14:56:03.589, 14, 0.00, 0.46, 98, 1.400, 1.100, 149.000, 967, 100, 92, 23, 23813, -19469, 5437, 5548, 8, 14, 1525816563.590, 58, 0, 1024, 1024, 1024, 1024, 0, 6, 3931, 3939, 3902, 3948, 3977, 3957, 0, 1, 7101, -89.900, 0.000, 147.600, 0.000, 0.000, -3.100, 0.0, , , , , , 98, , , 61, 61, 61
38.2848518, -120.3444663, 4.500, 14:56:03.689, 13, 0.00, 0.47, 98, 1.500, 1.200, 149.000, 967, 100, 92, 23, 23813, -19469, 5437, 5548, 8, 14, 1525816563.690, 86, 0, 1024, 1024, 1024, 1024, 0, 6, 3931, 3939, 3902, 3948, 3977, 3957, 0, 1, 7201, -89.900, 0.000, 147.600, 0.000, 0.000, -3.100, 0.0, , , , , , 98, , , 61, 61, 61
38.2848518, -120.3444661, 4.800, 14:56:03.789, 13, 0.00, 0.48, 98, 1.600, 1.200, 149.100, 967, 100, 96, 23, 23813, -19469, 5437, 5548, 8, 14, 1525816563.790, 52, 0, 1024, 1024, 1024, 1024, 0, 6, 3931, 3939, 3902, 3948, 3977, 3957, 0, 1, 7301, -89.900, 0.000, 147.600, 0.000, 0.000, -3.200, 0.0, , , , , , 98, , , 61, 61, 61
38.2848518, -120.3444661, 5.200, 14:56:03.889, 14, 0.00, 0.49, 98, 1.500, 1.200, 149.000, 967, 100, 96, 23, 23813, -19469, 5437, 5548, 8, 14, 1525816563.891, 53, 0, 1024, 1024, 1024, 1024, 0, 6, 3931, 3939, 3902, 3948, 3977, 3957, 0, 1, 7402, -89.900, 0.000, 147.600, 0.000, 0.000, -3.200, 0.0, , , , , , 98, , , 61, 61, 61
38.2848518, -120.3444661, 5.500, 14:56:03.988, 14, 0.00, 0.48, 98, 1.500, 1.100, 148.900, 967, 100, 96, 23, 23813, -19469, 5437, 5548, 8, 14, 1525816563.989, 45, 0, 1024, 1024, 1024, 1024, 0, 6, 3931, 3939, 3902, 3948, 3977, 3957, 0, 1, 7500, -89.900, 0.000, 147.600, 0.000, 0.000, -3.200, 0.0, , , , , , 98, , , 61, 61, 61
38.2848516, -120.3444660, 6.200, 14:56:04.089, 13, 0.00, 0.48, 98, 0.900, 1.300, 148.500, 967, 100, 96, 23, 23813, -19469, 5437, 5548, 8, 14, 1525816564.090, 46, 0, 1024, 1024, 1024, 1024, 0, 6, 3931, 3939, 3902, 3948, 3977, 3957, 0, 1, 7602, -89.900, 0.000, 147.600, 0.000, 0.000, -3.200, 0.0, , , , , , 98, , , 61, 61, 61
38.2848516, -120.3444660, 6.200, 14:56:04.189, 13, 0.00, 0.48, 98, 0.900, 1.300, 148.500, 967, 100, 96, 23, 23359, -23907, 5437, 5548, 8, 14, 1525816564.190, 146, 0, 1024, 1024, 1024, 1024, 0, 6, 3931, 3939, 3902, 3948, 3977, 3957, 0, 1, 7702, -89.900, 0.000, 147.600, 0.000, 0.000, -3.200, 0.0, , , , , , 98, , , 61, 61, 61
38.2848514, -120.3444660, 6.500, 14:56:04.289, 13, 0.00, 0.48, 98, 1.000, 1.800, 148.500, 967, 100, 99, 23, 23359, -23907, 5437, 5548, 8, 14, 1525816564.290, 55, 0, 1024, 1024, 1024, 1024, 0, 6, 3905, 3910, 3866, 3906, 3934, 3913, 0, 1, 7802, -89.900, 0.000, 147.600, 0.000, 0.000, -3.100, 0.0, , , , , , 98, , , 61, 61, 61
38.2848511, -120.3444661, 7.200, 14:56:04.401, 13, 0.10, 0.45, 98, 0.500, 2.500, 148.400, 967, 100, 99, 23, 23359, -23907, 5437, 5548, 8, 14, 1525816564.401, 6, 0, 1024, 1024, 1024, 1024, 0, 6, 3905, 3910, 3866, 3906, 3934, 3913, 0, 1, 7913, -89.900, 0.000, 147.600, -0.100, 0.000, -3.100, 0.0, , , , , , 98, , , 61, 61, 61
38.2848510, -120.3444662, 7.500, 14:56:04.489, 13, 0.00, 0.44, 98, 0.200, 2.700, 148.300, 967, 100, 99, 23, 23359, -23907, 5437, 5548, 8, 14, 1525816564.490, 34, 0, 1024, 1024, 1024, 1024, 0, 6, 3905, 3910, 3866, 3906, 3934, 3913, 0, 1, 8001, -89.900, 0.000, 147.600, 0.000, 0.000, -3.100, 0.0, , , , , , 98, , , 61, 61, 61
38.2848509, -120.3444663, 7.800, 14:56:04.589, 13, 0.00, 0.43, 98, 0.000, 2.600, 148.300, 967, 100, 99, 23, 23359, -23907, 5437, 5548, 8, 14, 1525816564.591, 15, 0, 1024, 1024, 1024, 1024, 0, 6, 3905, 3910, 3866, 3906, 3934, 3913, 0, 1, 8103, -89.900, 0.000, 147.700, 0.000, 0.000, -3.100, 0.0, , , , , , 98, , , 61, 61, 61
38.2848509, -120.3444665, 8.200, 14:56:04.689, 13, 0.00, 0.42, 98, -0.100, 2.500, 148.300, 967, 100, 99, 23, 23359, -23907, 5437, 5548, 8, 14, 1525816564.690, 29, 0, 1024, 1024, 1024, 1024, 0, 6, 3905, 3910, 3866, 3906, 3934, 3913, 0, 1, 8201, -89.900, 0.000, 147.600, 0.000, 0.000, -3.100, 0.0, , , , , , 98, , , 61, 61, 61
38.2848509, -120.3444667, 8.500, 14:56:04.789, 12, 0.00, 0.40, 98, -0.400, 2.100, 148.400, 967, 100, 100, 23, 23359, -23907, 5437, 5548, 8, 14, 1525816564.790, 21, 0, 1024, 1024, 1024, 1024, 0, 6, 3905, 3910, 3866, 3906, 3934, 3913, 0, 1, 8301, -89.900, 0.000, 147.600, 0.000, 0.000, -3.100, 0.0, , , , , , 98, , , 61, 61, 61
38.2848508, -120.3444669, 8.800, 14:56:04.893, 12, 0.00, 0.38, 98, -1.000, 1.700, 148.500, 967, 100, 100, 23, 23359, -23907, 5437, 5548, 8, 14, 1525816564.894, 12, 0, 1024, 1024, 1024, 1024, 0, 6, 3905, 3910, 3866, 3906, 3934, 3913, 0, 1, 8406, -90.000, 0.000, 147.700, 0.000, 0.000, -3.100, 0.0, , , , , , 98, , , 61, 61, 61
38.2848506, -120.3444671, 9.100, 14:56:04.990, 13, 0.00, 0.35, 98, -0.800, 1.400, 148.700, 967, 100, 100, 23, 23359, -23907, 5437, 5548, 8, 14, 1525816564.992, 8, 0, 1024, 1024, 1024, 1024, 0, 6, 3905, 3910, 3866, 3906, 3934, 3913, 0, 1, 8503, -89.900, 0.000, 147.700, 0.000, 0.000, -3.000, 0.0, , , , , , 98, , , 61, 61, 61
38.2848506, -120.3444671, 9.100, 14:56:05.089, 13, 0.00, 0.35, 98, -0.800, 1.400, 148.700, 967, 100, 100, 23, 23359, -23907, 5437, 5548, 8, 14, 1525816565.089, 106, 0, 1024, 1024, 1024, 1024, 0, 6, 3905, 3910, 3866, 3906, 3934, 3913, 0, 1, 8601, -89.900, 0.000, 147.700, 0.000, 0.000, -3.000, 0.0, , , , , , 98, , , 61, 61, 61
38.2848504, -120.3444673, 9.500, 14:56:05.189, 13, 0.00, 0.34, 98, -0.500, 1.700, 148.700, 967, 100, 100, 23, 23359, -23907, 5437, 5548, 8, 14, 1525816565.190, 91, 0, 1024, 1024, 1024, 1024, 0, 6, 3905, 3910, 3866, 3906, 3934, 3913, 0, 1, 8701, -89.900, 0.000, 147.700, 0.000, 0.000, -3.000, 0.0, , , , , , 98, , , 61, 61, 61
38.2848502, -120.3444674, 9.800, 14:56:05.289, 13, 0.00, 0.32, 98, -0.600, 2.000, 148.800, 967, 100, 100, 23, 23606, -19677, 5437, 5548, 8, 14, 1525816565.290, 97, 0, 1024, 1024, 1024, 1024, 0, 6, 3934, 3926, 3909, 3935, 3979, 3950, 0, 1, 8802, -89.900, 0.000, 147.700, 0.000, 0.000, -3.000, 0.0, , , , , , 98, , , 61, 61, 61
38.2848500, -120.3444675, 10.100, 14:56:05.389, 13, 0.00, 0.31, 98, -0.500, 2.600, 148.900, 967, 100, 100, 23, 23606, -19677, 5437, 5548, 8, 14, 1525816565.390, 72, 0, 1024, 1024, 1024, 1024, 0, 6, 3934, 3926, 3909, 3935, 3979, 3950, 0, 1, 8901, -89.900, 0.000, 147.700, 0.000, 0.000, -3.100, 0.0, , , , , , 98, , , 61, 61, 61
38.2848499, -120.3444676, 10.400, 14:56:05.488, 13, 0.00, 0.30, 98, -0.700, 3.400, 148.900, 967, 100, 100, 23, 23606, -19677, 5437, 5548, 8, 14, 1525816565.489, 65, 0, 1024, 1024, 1024, 1024, 0, 6, 3934, 3926, 3909, 3935, 3979, 3950, 0, 1, 9001, -89.900, 0.000, 147.700, 0.000, 0.000, -3.100, 0.0, , , , , , 98, , , 61, 61, 61
38.2848498, -120.3444677, 10.800, 14:56:05.589, 13, 0.00, 0.29, 98, -1.100, 3.800, 149.000, 967, 100, 100, 23, 23606, -19677, 5437, 5548, 8, 14, 1525816565.591, 95, 0, 1024, 1024, 1024, 1024, 0, 6, 3934, 3926, 3909, 3935, 3979, 3950, 0, 1, 9103, -89.900, 0.000, 147.700, 0.000, 0.000, -3.100, 0.0, , , , , , 98, , , 61, 61, 61
38.2848498, -120.3444678, 11.100, 14:56:05.689, 13, 0.00, 0.29, 98, -0.900, 3.500, 149.100, 967, 100, 100, 23, 23606, -19677, 5437, 5548, 8, 14, 1525816565.691, 89, 0, 1024, 1024, 1024, 1024, 0, 6, 3934, 3926, 3909, 3935, 3979, 3950, 0, 1, 9203, -89.900, 0.000, 147.700, 0.000, 0.000, -3.000, 0.0, , , , , , 98, , , 61, 61, 61
38.2848497, -120.3444679, 11.500, 14:56:05.789, 13, 0.00, 0.28, 98, -0.600, 3.000, 149.100, 967, 100, 100, 23, 23606, -19677, 5437, 5548, 8, 14, 1525816565.789, 75, 0, 1024, 1024, 1024, 1024, 0, 6, 3934, 3926, 3909, 3935, 3979, 3950, 0, 1, 9301, -89.900, 0.000, 147.700, 0.000, 0.000, -3.000, 0.0, , , , , , 98, , , 61, 61, 61
38.2848497, -120.3444680, 11.800, 14:56:05.889, 14, 0.00, 0.27, 98, -0.100, 2.600, 148.900, 967, 100, 100, 23, 23606, -19677, 5437, 5548, 8, 14, 1525816565.890, 74, 0, 1024, 1024, 1024, 1024, 0, 6, 3934, 3926, 3909, 3935, 3979, 3950, 0, 1, 9402, -90.000, 0.000, 147.700, 0.000, 0.000, -3.000, 0.0, , , , , , 98, , , 61, 61, 61
38.2848497, -120.3444680, 12.100, 14:56:05.989, 14, 0.00, 0.27, 98, 0.200, 2.100, 148.700, 967, 100, 100, 23, 23606, -19677, 5437, 5548, 8, 14, 1525816565.990, 51, 0, 1024, 1024, 1024, 1024, 0, 6, 3934, 3926, 3909, 3935, 3979, 3950, 0, 1, 9502, -90.000, 0.000, 147.700, 0.000, 0.000, -2.900, 0.0, , , , , , 98, , , 61, 61, 61
38.2848498, -120.3444681, 12.400, 14:56:06.090, 13, 0.00, 0.26, 98, 0.500, 1.600, 148.600, 967, 100, 100, 23, 23606, -19677, 5437, 5548, 8, 14, 1525816566.090, 53, 0, 1024, 1024, 1024, 1024, 0, 6, 3934, 3926, 3909, 3935, 3979, 3950, 0, 1, 9602, -90.000, 0.000, 147.700, 0.000, 0.000, -2.800, 0.0, , , , , , 98, , , 61, 61, 61
38.2848498, -120.3444681, 12.700, 14:56:06.189, 13, 0.00, 0.26, 98, 0.800, 1.100, 148.700, 967, 100, 100, 23, 23598, -19794, 5381, 5548, 8, 14, 1525816566.191, 55, 0, 1024, 1024, 1024, 1024, 0, 6, 3939, 3926, 3893, 3921, 3963, 3936, 0, 1, 9703, -90.000, 0.000, 147.700, 0.000, 0.000, -2.800, 0.0, , , , , , 98, , , 61, 61, 61
38.2848499, -120.3444682, 13.100, 14:56:06.289, 14, 0.00, 0.25, 98, 1.200, 1.200, 148.900, 967, 100, 100, 23, 23598, -19794, 5381, 5548, 8, 14, 1525816566.292, 38, 0, 1024, 1024, 1024, 1024, 0, 6, 3939, 3926, 3893, 3921, 3963, 3936, 0, 1, 9804, -89.900, 0.000, 147.700, 0.000, 0.000, -2.900, 0.0, , , , , , 98, , , 61, 61, 61
38.2848498, -120.3444682, 13.400, 14:56:06.389, 14, 0.00, 0.25, 98, 1.300, 1.700, 149.100, 967, 100, 100, 23, 23598, -19794, 5381, 5548, 8, 14, 1525816566.389, 52, 0, 1024, 1024, 1024, 1024, 0, 6, 3939, 3926, 3893, 3921, 3963, 3936, 0, 1, 9901, -89.900, 0.000, 147.700, 0.000, 0.000, -2.800, 0.0, , , , , , 98, , , 61, 61, 61
38.2848498, -120.3444683, 13.600, 14:56:06.489, 14, 0.00, 0.24, 98, 0.800, 2.000, 149.200, 967, 100, 100, 23, 23598, -19794, 5381, 5548, 8, 14, 1525816566.491, 44, 0, 1024, 1024, 1024, 1024, 0, 6, 3939, 3926, 3893, 3921, 3963, 3936, 0, 1, 10002, -89.900, 0.000, 147.700, 0.000, 0.000, -2.800, 0.0, , , , , , 98, , , 61, 61, 61
38.2848499, -120.3444683, 13.900, 14:56:06.589, 14, 0.00, 0.24, 98, 0.000, 2.300, 149.100, 967, 100, 100, 23, 23598, -19794, 5381, 5548, 8, 14, 1525816566.589, 56, 0, 1024, 1024, 1024, 1024, 0, 6, 3939, 3926, 3893, 3921, 3963, 3936, 0, 1, 10101, -89.900, 0.000, 147.700, 0.000, 0.000, -2.900, 0.0, , , , , , 98, , , 61, 61, 61
38.2848500, -120.3444683, 14.200, 14:56:06.689, 14, 0.10, 0.24, 98, -0.100, 2.300, 148.900, 967, 100, 100, 23, 23598, -19794, 5381, 5548, 8, 14, 1525816566.690, 28, 0, 1024, 1024, 1024, 1024, 0, 6, 3939, 3926, 3893, 3921, 3963, 3936, 0, 1, 10202, -89.900, 0.000, 147.700, 0.100, 0.000, -2.800, 0.0, , , , , , 98, , , 61, 61, 61
38.2848501, -120.3444681, 14.900, 14:56:06.796, 14, 0.14, 0.26, 98, 1.500, 1.300, 148.700, 967, 100, 99, 23, 23598, -19794, 5381, 5548, 8, 14, 1525816566.796, 8, 0, 1024, 1024, 1024, 1024, 0, 6, 3939, 3926, 3893, 3921, 3963, 3936, 0, 1, 10308, -90.000, 0.000, 147.700, 0.100, 0.100, -3.000, 0.0, , , , , , 98, , , 61, 61, 61
38.2848503, -120.3444679, 15.200, 14:56:06.894, 14, 0.14, 0.28, 98, 2.500, 1.200, 148.700, 967, 100, 99, 23, 23598, -19794, 5381, 5548, 8, 14, 1525816566.894, 7, 0, 1024, 1024, 1024, 1024, 0, 6, 3939, 3926, 3893, 3921, 3963, 3936, 0, 1, 10406, -90.000, 0.000, 147.700, 0.100, 0.100, -2.900, 0.0, , , , , , 98, , , 61, 61, 61
38.2848504, -120.3444678, 15.500, 14:56:06.989, 14, 0.14, 0.29, 98, 3.300, 1.400, 148.900, 967, 100, 99, 23, 23598, -19794, 5381, 5548, 8, 14, 1525816566.992, 15, 0, 1024, 1024, 1024, 1024, 0, 6, 3939, 3926, 3893, 3921, 3963, 3936, 0, 1, 10503, -89.900, 0.000, 147.700, 0.100, 0.100, -2.800, 0.0, , , , , , 98, , , 61, 61, 61
38.2848504, -120.3444678, 15.500, 14:56:07.088, 14, 0.14, 0.29, 98, 3.300, 1.400, 148.900, 967, 100, 99, 23, 23598, -19794, 5381, 5548, 8, 14, 1525816567.089, 112, 0, 1024, 1024, 1024, 1024, 0, 6, 3939, 3926, 3893, 3921, 3963, 3936, 0, 1, 10600, -89.900, 0.000, 147.700, 0.100, 0.100, -2.800, 0.0, , , , , , 98, , , 61, 61, 61
38.2848505, -120.3444678, 16.100, 14:56:07.198, 14, 0.10, 0.29, 98, 2.500, 1.500, 148.900, 967, 100, 99, 23, 23536, -19686, 5381, 5548, 8, 14, 1525816567.199, 14, 0, 1024, 1024, 1024, 1024, 0, 6, 3939, 3926, 3893, 3921, 3963, 3936, 0, 1, 10710, -90.000, 0.000, 147.700, 0.100, 0.000, -2.700, 0.0, , , , , , 98, , , 61, 61, 61
38.2848506, -120.3444678, 16.300, 14:56:07.288, 14, 0.10, 0.30, 98, 1.900, 1.300, 148.700, 967, 100, 98, 23, 23536, -19686, 5381, 5548, 8, 14, 1525816567.289, 12, 0, 1024, 1024, 1024, 1024, 0, 6, 3939, 3926, 3893, 3921, 3963, 3936, 0, 1, 10801, -90.000, 0.000, 147.700, 0.100, 0.000, -2.800, 0.0, , , , , , 98, , , 61, 61, 61
38.2848507, -120.3444678, 16.600, 14:56:07.388, 14, 0.10, 0.30, 98, 1.100, 1.000, 148.500, 967, 100, 98, 23, 23536, -19686, 5381, 5548, 8, 14, 1525816567.389, 4, 0, 1024, 1024, 1024, 1024, 0, 6, 3939, 3926, 3893, 3921, 3963, 3936, 0, 1, 10900, -90.000, 0.000, 147.700, 0.100, 0.000, -2.700, 0.0, , , , , , 98, , , 61, 61, 61
38.2848508, -120.3444678, 16.900, 14:56:07.489, 14, 0.10, 0.30, 98, 0.900, 0.500, 148.300, 967, 100, 98, 23, 23536, -19686, 5381, 5548, 8, 14, 1525816567.489, 19, 0, 1024, 1024, 1024, 1024, 0, 6, 3939, 3926, 3893, 3921, 3963, 3936, 0, 1, 11001, -89.900, 0.000, 147.700, 0.100, 0.000, -2.800, 0.0, , , , , , 98, , , 61, 61, 61
38.2848509, -120.3444678, 17.200, 14:56:07.590, 14, 0.10, 0.30, 98, 1.300, 0.300, 148.200, 967, 100, 98, 23, 23536, -19686, 5381, 5548, 8, 14, 1525816567.591, 7, 0, 1024, 1024, 1024, 1024, 0, 6, 3939, 3926, 3893, 3921, 3963, 3936, 0, 1, 11103, -90.000, 0.000, 147.700, 0.100, 0.000, -2.800, 0.0, , , , , , 98, , , 61, 61, 61
38.2848510, -120.3444678, 17.500, 14:56:07.689, 14, 0.10, 0.31, 97, 1.700, -0.100, 148.300, 967, 100, 98, 23, 23536, -19686, 5381, 5548, 8, 14, 1525816567.690, 11, 0, 1024, 1024, 1024, 1024, 0, 6, 3939, 3926, 3893, 3921, 3963, 3936, 0, 1, 11202, -90.000, 0.000, 147.700, 0.100, 0.000, -2.700, 0.0, , , , , , 98, , , 61, 61, 61
38.2848512, -120.3444678, 17.800, 14:56:07.791, 13, 0.14, 0.32, 97, 2.300, -0.100, 148.500, 967, 100, 98, 23, 23536, -19686, 5381, 5548, 8, 14, 1525816567.791, 8, 0, 1024, 1024, 1024, 1024, 0, 6, 3925, 3899, 3900, 3929, 3959, 3934, 0, 1, 11303, -89.900, 0.000, 147.700, 0.100, 0.100, -2.700, 0.0, , , , , , 98, , , 61, 61, 61
38.2848512, -120.3444676, 18.000, 14:56:07.888, 13, 0.14, 0.34, 97, 2.800, 0.300, 148.700, 967, 100, 98, 23, 23536, -19686, 5381, 5548, 8, 14, 1525816567.889, 9, 0, 1024, 1024, 1024, 1024, 0, 6, 3925, 3899, 3900, 3929, 3959, 3934, 0, 1, 11400, -89.900, 0.000, 147.700, 0.100, 0.100, -2.700, 0.0, , , , , , 98, , , 61, 61, 61
38.2848512, -120.3444676, 18.000, 14:56:07.989, 13, 0.14, 0.34, 97, 2.800, 0.300, 148.700, 967, 100, 98, 23, 23536, -19686, 5381, 5548, 8, 14, 1525816567.989, 109, 0, 1024, 1024, 1024, 1024, 0, 6, 3925, 3899, 3900, 3929, 3959, 3934, 0, 1, 11501, -89.900, 0.000, 147.700, 0.100, 0.100, -2.700, 0.0, , , , , , 98, , , 61, 61, 61
38.2848513, -120.3444675, 18.300, 14:56:08.089, 13, 0.10, 0.35, 97, 3.300, 0.700, 148.800, 967, 100, 98, 23, 23536, -19686, 5381, 5548, 8, 14, 1525816568.089, 78, 0, 1024, 1024, 1024, 1024, 0, 6, 3925, 3899, 3900, 3929, 3959, 3934, 0, 1, 11601, -89.900, 0.000, 147.700, 0.000, 0.100, -2.800, 0.0, , , , , , 98, , , 61, 61, 61
38.2848513, -120.3444674, 18.600, 14:56:08.188, 13, 0.10, 0.36, 97, 3.500, 1.200, 148.800, 967, 100, 98, 23, 23536, -19686, 5381, 5548, 8, 14, 1525816568.189, 79, 0, 1024, 1024, 1024, 1024, 0, 6, 3925, 3899, 3900, 3929, 3959, 3934, 0, 1, 11701, -89.900, 0.000, 147.700, 0.000, 0.100, -2.800, 0.0, , , , , , 98, , , 61, 61, 61
38.2848513, -120.3444674, 18.900, 14:56:08.289, 13, 0.00, 0.36, 97, 3.200, 1.500, 148.700, 967, 100, 98, 23, 23536, -19686, 5381, 5548, 8, 14, 1525816568.290, 71, 0, 1024, 1024, 1024, 1024, 0, 6, 3925, 3899, 3900, 3929, 3959, 3934, 0, 1, 11801, -89.900, 0.000, 147.700, 0.000, 0.000, -2.700, 0.0, , , , , , 98, , , 61, 61, 61
38.2848514, -120.3444674, 19.100, 14:56:08.389, 13, 0.00, 0.36, 97, 2.600, 1.700, 148.700, 967, 100, 100, 23, 23536, -19686, 5381, 5548, 8, 14, 1525816568.390, 88, 0, 1024, 1024, 1024, 1024, 0, 6, 3925, 3899, 3900, 3929, 3959, 3934, 0, 1, 11901, -89.900, 0.000, 147.700, 0.000, 0.000, -2.700, 0.0, , , , , , 98, , , 61, 61, 61
38.2848514, -120.3444674, 19.400, 14:56:08.489, 14, 0.00, 0.36, 97, 1.900, 1.600, 148.600, 967, 100, 100, 23, 23536, -19686, 5381, 5548, 8, 14, 1525816568.490, 64, 0, 1024, 1024, 1024, 1024, 0, 6, 3925, 3899, 3900, 3929, 3959, 3934, 0, 1, 12001, -89.900, 0.000, 147.700, 0.000, 0.000, -2.700, 0.0, , , , , , 98, , , 61, 61, 61
38.2848513, -120.3444674, 19.700, 14:56:08.589, 14, 0.00, 0.36, 97, 1.500, 1.400, 148.600, 967, 100, 100, 23, 23536, -19686, 5381, 5548, 8, 14, 1525816568.590, 76, 0, 1024, 1024, 1024, 1024, 0, 6, 3925, 3899, 3900, 3929, 3959, 3934, 0, 1, 12102, -89.900, 0.000, 147.700, 0.000, 0.000, -2.800, 0.0, , , , , , 98, , , 61, 61, 61
38.2848514, -120.3444674, 20.000, 14:56:08.689, 14, 0.00, 0.36, 97, 1.300, 1.300, 148.600, 967, 100, 100, 23, 23536, -19686, 5381, 5548, 8, 14, 1525816568.690, 75, 0, 1024, 1024, 1024, 1024, 0, 6, 3925, 3899, 3900, 3929, 3959, 3934, 0, 1, 12202, -89.900, 0.000, 147.700, 0.000, 0.000, -2.900, 0.0, , , , , , 98, , , 61, 61, 61
38.2848514, -120.3444674, 20.200, 14:56:08.789, 14, 0.00, 0.37, 97, 1.300, 1.100, 148.600, 967, 100, 100, 23, 23580, -19374, 5381, 5548, 8, 14, 1525816568.790, 40, 0, 1024, 1024, 1024, 1024, 0, 6, 3925, 3899, 3900, 3929, 3959, 3934, 0, 1, 12301, -90.000, 0.000, 147.700, 0.000, 0.000, -2.900, 0.0, , , , , , 98, , , 61, 61, 61
38.2848515, -120.3444674, 20.500, 14:56:08.889, 14, 0.00, 0.37, 97, 1.700, 1.000, 148.700, 967, 100, 100, 23, 23580, -19374, 5381, 5548, 8, 14, 1525816568.890, 68, 0, 1024, 1024, 1024, 1024, 0, 6, 3923, 3909, 3894, 3923, 3957, 3929, 0, 1, 12402, -89.900, 0.000, 147.700, 0.000, 0.000, -2.900, 0.0, , , , , , 98, , , 61, 61, 61
38.2848515, -120.3444673, 20.800, 14:56:08.989, 14, 0.00, 0.37, 97, 2.100, 0.900, 148.700, 967, 100, 100, 23, 23580, -19374, 5381, 5548, 8, 14, 1525816568.990, 31, 0, 1024, 1024, 1024, 1024, 0, 6, 3923, 3909, 3894, 3923, 3957, 3929, 0, 1, 12502, -89.900, 0.000, 147.700, 0.000, 0.000, -3.000, 0.0, , , , , , 98, , , 61, 61, 61
38.2848515, -120.3444673, 21.100, 14:56:09.089, 14, 0.00, 0.38, 97, 2.200, 1.000, 148.700, 967, 100, 100, 23, 23580, -19374, 5381, 5548, 8, 14, 1525816569.089, 54, 0, 1024, 1024, 1024, 1024, 0, 6, 3923, 3909, 3894, 3923, 3957, 3929, 0, 1, 12601, -89.900, 0.000, 147.700, 0.000, 0.000, -3.000, 0.0, , , , , , 98, , , 61, 61, 61
38.2848515, -120.3444672, 21.400, 14:56:09.189, 14, 0.00, 0.38, 97, 2.100, 1.200, 148.700, 967, 100, 100, 23, 23580, -19374, 5381, 5548, 8, 14, 1525816569.190, 41, 0, 1024, 1024, 1024, 1024, 0, 6, 3923, 3909, 3894, 3923, 3957, 3929, 0, 1, 12701, -89.900, 0.000, 147.700, 0.000, 0.000, -3.000, 0.0, , , , , , 98, , , 61, 61, 61
38.2848515, -120.3444672, 21.700, 14:56:09.289, 14, 0.00, 0.38, 97, 1.900, 1.300, 148.700, 967, 100, 100, 23, 23580, -19374, 5381, 5548, 8, 14, 1525816569.289, 52, 0, 1024, 1024, 1024, 1024, 0, 6, 3923, 3909, 3894, 3923, 3957, 3929, 0, 1, 12801, -89.900, 0.000, 147.700, 0.000, 0.000, -2.900, 0.0, , , , , , 98, , , 61, 61, 61
38.2848515, -120.3444673, 22.300, 14:56:09.389, 15, 0.00, 0.38, 97, 1.700, 1.200, 148.600, 967, 100, 100, 23, 23580, -19374, 5381, 5548, 8, 14, 1525816569.389, 12, 0, 1024, 1024, 1024, 1024, 0, 6, 3923, 3909, 3894, 3923, 3957, 3929, 0, 1, 12901, -89.900, 0.000, 147.700, 0.000, 0.000, -2.900, 0.0, , , , , , 98, , , 61, 61, 61
38.2848515, -120.3444673, 22.600, 14:56:09.489, 15, 0.00, 0.38, 97, 1.600, 1.100, 148.600, 967, 100, 100, 23, 23580, -19374, 5381, 5548, 8, 14, 1525816569.490, 42, 0, 1024, 1024, 1024, 1024, 0, 6, 3923, 3909, 3894, 3923, 3957, 3929, 0, 1, 13002, -89.900, 0.000, 147.700, 0.000, 0.000, -3.000, 0.0, , , , , , 98, , , 61, 61, 61
38.2848515, -120.3444672, 22.900, 14:56:09.589, 14, 0.00, 0.38, 97, 1.600, 1.100, 148.600, 967, 100, 100, 23, 23580, -19374, 5381, 5548, 8, 14, 1525816569.590, 24, 0, 1024, 1024, 1024, 1024, 0, 6, 3923, 3909, 3894, 3923, 3957, 3929, 0, 1, 13101, -89.900, 0.000, 147.700, 0.000, 0.000, -3.000, 0.0, , , , , , 98, , , 61, 61, 61
38.2848515, -120.3444672, 23.200, 14:56:09.689, 14, 0.00, 0.38, 97, 1.400, 0.900, 148.500, 967, 100, 100, 23, 23301, -22067, 5381, 5548, 8, 14, 1525816569.689, 20, 0, 1024, 1024, 1024, 1024, 0, 6, 3887, 3871, 3847, 3882, 3905, 3891, 0, 1, 13201, -89.900, 0.000, 147.700, 0.000, 0.000, -3.000, 0.0, , , , , , 98, , , 61, 61, 61
38.2848515, -120.3444672, 23.500, 14:56:09.788, 14, 0.00, 0.38, 97, 1.500, 0.900, 148.500, 967, 100, 100, 23, 23301, -22067, 5381, 5548, 8, 14, 1525816569.789, 20, 0, 1024, 1024, 1024, 1024, 0, 6, 3887, 3871, 3847, 3882, 3905, 3891, 0, 1, 13300, -90.000, 0.000, 147.700, 0.000, 0.000, -3.000, 0.0, , , , , , 98, , , 61, 61, 61
38.2848515, -120.3444672, 23.900, 14:56:09.889, 14, 0.00, 0.38, 97, 1.700, 1.000, 148.400, 967, 100, 100, 23, 23301, -22067, 5381, 5548, 8, 14, 1525816569.889, 22, 0, 1024, 1024, 1024, 1024, 0, 6, 3887, 3871, 3847, 3882, 3905, 3891, 0, 1, 13401, -89.900, 0.000, 147.700, 0.000, 0.000, -3.000, 0.0, , , , , , 98, , , 61, 61, 61
38.2848515, -120.3444672, 24.200, 14:56:09.989, 14, 0.00, 0.38, 97, 2.100, 0.700, 148.400, 967, 100, 100, 23, 23301, -22067, 5381, 5548, 8, 14, 1525816569.990, 37, 0, 1024, 1024, 1024, 1024, 0, 6, 3887, 3871, 3847, 3882, 3905, 3891, 0, 1, 13501, -90.000, 0.000, 147.700, 0.000, 0.000, -3.000, 0.0, , , , , , 98, , , 61, 61, 61
38.2848515, -120.3444672, 24.500, 14:56:10.089, 14, 0.00, 0.38, 97, 2.200, 0.600, 148.400, 967, 100, 100, 23, 23301, -22067, 5381, 5548, 8, 14, 1525816570.089, 17, 0, 1024, 1024, 1024, 1024, 0, 6, 3887, 3871, 3847, 3882, 3905, 3891, 0, 1, 13601, -89.900, 0.000, 147.700, 0.000, 0.000, -3.000, 0.0, , , , , , 98, , , 61, 61, 61
38.2848515, -120.3444672, 24.800, 14:56:10.188, 15, 0.00, 0.38, 97, 1.800, 0.900, 148.500, 967, 100, 100, 23, 23301, -22067, 5381, 5548, 8, 14, 1525816570.189, 24, 0, 1024, 1024, 1024, 1024, 0, 6, 3887, 3871, 3847, 3882, 3905, 3891, 0, 1, 13701, -89.900, 0.000, 147.700, 0.000, 0.000, -3.000, 0.0, , , , , , 98, , , 61, 61, 61
38.2848514, -120.3444673, 25.100, 14:56:10.289, 15, 0.00, 0.37, 97, 1.200, 1.200, 148.600, 967, 100, 100, 23, 23301, -22067, 5381, 5548, 8, 14, 1525816570.289, 10, 0, 1024, 1024, 1024, 1024, 0, 6, 3887, 3871, 3847, 3882, 3905, 3891, 0, 1, 13801, -89.900, 0.000, 147.700, 0.000, 0.000, -3.000, 0.0, , , , , , 98, , , 61, 61, 61
38.2848514, -120.3444673, 25.400, 14:56:10.402, 15, 0.00, 0.37, 97, 0.700, 1.200, 148.600, 967, 100, 100, 23, 23301, -22067, 5381, 5548, 8, 14, 1525816570.402, 5, 0, 1024, 1024, 1024, 1024, 0, 6, 3887, 3871, 3847, 3882, 3905, 3891, 0, 1, 13914, -89.900, 0.000, 147.700, 0.000, 0.000, -2.900, 0.0, , , , , , 98, , , 61, 61, 61
38.2848514, -120.3444674, 25.700, 14:56:10.493, 15, 0.00, 0.37, 97, 0.800, 1.100, 148.700, 967, 100, 100, 23, 23301, -22067, 5381, 5548, 8, 14, 1525816570.493, 12, 0, 1024, 1024, 1024, 1024, 0, 6, 3887, 3871, 3847, 3882, 3905, 3891, 0, 1, 14005, -89.900, 0.000, 147.700, 0.000, 0.000, -2.900, 0.0, , , , , , 98, , , 61, 61, 61
38.2848514, -120.3444674, 26.000, 14:56:10.589, 14, 0.00, 0.36, 97, 1.200, 1.300, 148.700, 967, 100, 100, 23, 23301, -22067, 5381, 5548, 8, 14, 1525816570.590, 8, 0, 1024, 1024, 1024, 1024, 0, 6, 3887, 3871, 3847, 3882, 3905, 3891, 0, 1, 14101, -89.900, 0.000, 147.700, 0.000, 0.000, -2.900, 0.0, , , , , , 98, , , 61, 61, 61
38.2848514, -120.3444674, 26.000, 14:56:10.689, 14, 0.00, 0.36, 97, 1.200, 1.300, 148.700, 967, 100, 100, 23, 23301, -22067, 5381, 5548, 8, 14, 1525816570.690, 108, 0, 1024, 1024, 1024, 1024, 0, 6, 3887, 3871, 3847, 3882, 3905, 3891, 0, 1, 14201, -89.900, 0.000, 147.700, 0.000, 0.000, -2.900, 0.0, , , , , , 98, , , 61, 61, 61
38.2848514, -120.3444675, 26.400, 14:56:10.789, 14, 0.00, 0.36, 97, 1.100, 1.200, 148.600, 967, 100, 100, 23, 23219, -22612, 5381, 5548, 8, 14, 1525816570.789, 96, 0, 1024, 1024, 1024, 1024, 0, 6, 3876, 3855, 3833, 3865, 3907, 3880, 0, 1, 14301, -89.900, 0.000, 147.700, 0.000, 0.000, -2.900, 0.0, , , , , , 98, , , 61, 61, 61
38.2848514, -120.3444676, 26.700, 14:56:10.888, 14, 0.00, 0.35, 97, 1.100, 0.900, 148.600, 967, 100, 98, 23, 23219, -22612, 5381, 5548, 8, 14, 1525816570.889, 85, 0, 1024, 1024, 1024, 1024, 0, 6, 3876, 3855, 3833, 3865, 3907, 3880, 0, 1, 14400, -90.000, 0.000, 147.700, 0.000, 0.000, -2.900, 0.0, , , , , , 98, , , 61, 61, 61
38.2848514, -120.3444677, 27.000, 14:56:10.989, 14, 0.00, 0.34, 97, 0.800, 0.700, 148.500, 967, 100, 98, 23, 23219, -22612, 5381, 5548, 8, 14, 1525816570.990, 52, 0, 1024, 1024, 1024, 1024, 0, 6, 3876, 3855, 3833, 3865, 3907, 3880, 0, 1, 14501, -90.000, 0.000, 147.700, 0.000, 0.000, -2.900, 0.0, , , , , , 98, , , 61, 61, 61
38.2848513, -120.3444677, 27.300, 14:56:11.089, 14, 0.00, 0.33, 97, 0.700, 0.400, 148.500, 967, 100, 98, 23, 23219, -22612, 5381, 5548, 8, 14, 1525816571.090, 80, 0, 1024, 1024, 1024, 1024, 0, 6, 3876, 3855, 3833, 3865, 3907, 3880, 0, 1, 14601, -90.000, 0.000, 147.700, 0.000, 0.000, -2.800, 0.0, , , , , , 98, , , 61, 61, 61
38.2848513, -120.3444678, 27.600, 14:56:11.189, 14, 0.00, 0.32, 97, 0.600, 0.000, 148.500, 967, 100, 98, 23, 23219, -22612, 5381, 5548, 8, 14, 1525816571.189, 38, 0, 1024, 1024, 1024, 1024, 0, 6, 3876, 3855, 3833, 3865, 3907, 3880, 0, 1, 14701, -90.000, 0.000, 147.700, 0.000, 0.000, -2.900, 0.0, , , , , , 98, , , 61, 61, 61
38.2848513, -120.3444678, 27.600, 14:56:11.289, 14, 0.00, 0.32, 97, 0.600, 0.000, 148.500, 967, 100, 98, 23, 23219, -22612, 5381, 5548, 8, 14, 1525816571.290, 138, 0, 1024, 1024, 1024, 1024, 0, 6, 3876, 3855, 3833, 3865, 3907, 3880, 0, 1, 14801, -90.000, 0.000, 147.700, 0.000, 0.000, -2.900, 0.0, , , , , , 98, , , 61, 61, 61
38.2848512, -120.3444680, 28.100, 14:56:11.389, 15, 0.00, 0.30, 97, 0.400, 1.000, 148.600, 967, 100, 98, 23, 23219, -22612, 5381, 5548, 8, 14, 1525816571.390, 67, 0, 1024, 1024, 1024, 1024, 0, 6, 3876, 3855, 3833, 3865, 3907, 3880, 0, 1, 14901, -89.900, 0.000, 147.700, 0.000, 0.000, -2.800, 0.0, , , , , , 98, , , 61, 61, 61
38.2848511, -120.3444681, 28.700, 14:56:11.489, 15, 0.00, 0.29, 97, 0.500, 1.100, 149.000, 967, 100, 98, 23, 23219, -22612, 5381, 5548, 8, 14, 1525816571.490, 24, 0, 1024, 1024, 1024, 1024, 0, 6, 3876, 3855, 3833, 3865, 3907, 3880, 0, 1, 15002, -89.900, 0.000, 147.700, 0.000, 0.000, -2.900, 0.0, , , , , , 98, , , 61, 61, 61
38.2848511, -120.3444682, 28.900, 14:56:11.589, 15, 0.00, 0.29, 97, 0.600, 1.400, 149.000, 967, 100, 98, 23, 23219, -22612, 5381, 5548, 8, 14, 1525816571.590, 32, 0, 1024, 1024, 1024, 1024, 0, 6, 3876, 3855, 3833, 3865, 3907, 3880, 0, 1, 15101, -89.900, 0.000, 147.700, 0.000, 0.000, -2.900, 0.0, , , , , , 98, , , 61, 61, 61
38.2848512, -120.3444682, 29.200, 14:56:11.689, 15, 0.00, 0.29, 97, 0.800, 1.400, 149.000, 967, 100, 98, 23, 23175, -23068, 5381, 5548, 8, 14, 1525816571.689, 58, 0, 1024, 1024, 1024, 1024, 0, 6, 3847, 3842, 3812, 3855, 3883, 3858, 0, 1, 15201, -89.900, 0.000, 147.700, 0.000, 0.000, -3.000, 0.0, , , , , , 98, , , 61, 61, 61
38.2848513, -120.3444682, 29.500, 14:56:11.789, 15, 0.00, 0.29, 97, 0.800, 0.800, 148.800, 967, 100, 95, 23, 23175, -23068, 5381, 5548, 8, 14, 1525816571.789, 18, 0, 1024, 1024, 1024, 1024, 0, 6, 3847, 3842, 3812, 3855, 3883, 3858, 0, 1, 15301, -89.900, 0.000, 147.700, 0.000, 0.000, -3.000, 0.0, , , , , , 98, , , 61, 61, 61
38.2848514, -120.3444682, 29.800, 14:56:11.889, 15, 0.00, 0.30, 97, 1.000, 0.300, 148.600, 967, 100, 95, 23, 23175, -23068, 5381, 5548, 8, 14, 1525816571.890, 25, 0, 1024, 1024, 1024, 1024, 0, 6, 3847, 3842, 3812, 3855, 3883, 3858, 0, 1, 15401, -90.000, 0.000, 147.700, 0.000, 0.000, -3.000, 0.0, , , , , , 98, , , 61, 61, 61
38.2848515, -120.3444682, 30.100, 14:56:11.989, 15, 0.10, 0.30, 97, 1.200, 0.000, 148.500, 967, 100, 95, 23, 23175, -23068, 5381, 5548, 8, 14, 1525816571.990, 27, 0, 1024, 1024, 1024, 1024, 0, 6, 3847, 3842, 3812, 3855, 3883, 3858, 0, 1, 15501, -90.000, 0.000, 147.700, 0.100, 0.000, -3.000, 0.0, , , , , , 98, , , 61, 61, 61
38.2848516, -120.3444682, 30.400, 14:56:12.089, 15, 0.00, 0.31, 97, 1.600, -0.200, 148.300, 967, 100, 95, 23, 23175, -23068, 5381, 5548, 8, 14, 1525816572.090, 22, 0, 1024, 1024, 1024, 1024, 0, 6, 3847, 3842, 3812, 3855, 3883, 3858, 0, 1, 15601, -90.000, 0.000, 147.700, 0.000, 0.000, -3.000, 0.0, , , , , , 98, , , 61, 61, 61
38.2848517, -120.3444682, 30.700, 14:56:12.188, 15, 0.00, 0.32, 97, 1.800, -0.100, 148.100, 967, 100, 95, 23, 23175, -23068, 5381, 5548, 8, 14, 1525816572.189, 7, 0, 1024, 1024, 1024, 1024, 0, 6, 3847, 3842, 3812, 3855, 3883, 3858, 0, 1, 15700, -90.000, 0.000, 147.700, 0.000, 0.000, -3.100, 0.0, , , , , , 98, , , 61, 61, 61
38.2848517, -120.3444682, 31.000, 14:56:12.288, 15, 0.00, 0.32, 97, 1.600, 0.000, 148.000, 967, 100, 95, 23, 23175, -23068, 5381, 5548, 8, 14, 1525816572.289, 6, 0, 1024, 1024, 1024, 1024, 0, 6, 3847, 3842, 3812, 3855, 3883, 3858, 0, 1, 15800, -89.900, 0.000, 147.700, 0.000, 0.000, -3.000, 0.0, , , , , , 98, , , 61, 61, 61
38.2848517, -120.3444682, 31.300, 14:56:12.389, 15, 0.00, 0.32, 97, 1.500, 0.100, 148.100, 967, 100, 95, 23, 23175, -23068, 5381, 5548, 8, 14, 1525816572.390, 9, 0, 1024, 1024, 1024, 1024, 0, 6, 3847, 3842, 3812, 3855, 3883, 3858, 0, 1, 15901, -90.000, 0.000, 147.700, 0.000, 0.000, -3.000, 0.0, , , , , , 98, , , 61, 61, 61
38.2848517, -120.3444682, 31.600, 14:56:12.501, 15, 0.00, 0.32, 97, 1.300, 0.000, 148.300, 967, 100, 95, 23, 23175, -23068, 5381, 5548, 8, 14, 1525816572.502, 6, 0, 1024, 1024, 1024, 1024, 0, 6, 3847, 3842, 3812, 3855, 3883, 3858, 0, 1, 16013, -90.000, 0.000, 147.700, 0.000, 0.000, -3.000, 0.0, , , , , , 98, , , 61, 61, 61
38.2848517, -120.3444682, 31.900, 14:56:12.601, 15, 0.00, 0.32, 97, 1.100, 0.000, 148.600, 967, 100, 95, 23, 23175, -23068, 5381, 5548, 8, 14, 1525816572.601, 13, 0, 1024, 1024, 1024, 1024, 0, 6, 3847, 3842, 3812, 3855, 3883, 3858, 0, 1, 16113, -89.900, 0.000, 147.700, 0.000, 0.000, -3.000, 0.0, , , , , , 98, , , 61, 61, 61
38.2848517, -120.3444682, 32.200, 14:56:12.689, 15, 0.00, 0.32, 97, 0.800, 0.400, 148.800, 967, 100, 95, 24, 22976, -25040, 5381, 5548, 8, 14, 1525816572.690, 11, 0, 1024, 1024, 1024, 1024, 0, 6, 3847, 3842, 3812, 3855, 3883, 3858, 0, 1, 16201, -89.900, 0.000, 147.700, 0.000, 0.000, -2.900, 0.0, , , , , , 98, , , 61, 61, 61
38.2848517, -120.3444682, 32.200, 14:56:12.789, 15, 0.00, 0.32, 97, 0.800, 0.400, 148.800, 967, 100, 95, 24, 22976, -25040, 5381, 5548, 8, 14, 1525816572.789, 111, 0, 1024, 1024, 1024, 1024, 0, 6, 3847, 3842, 3812, 3855, 3883, 3858, 0, 1, 16301, -89.900, 0.000, 147.700, 0.000, 0.000, -2.900, 0.0, , , , , , 98, , , 61, 61, 61
38.2848517, -120.3444682, 32.200, 14:56:12.889, 15, 0.00, 0.32, 97, 0.800, 0.400, 148.800, 967, 100, 98, 24, 22976, -25040, 5381, 5548, 8, 14, 1525816572.889, 211, 0, 1024, 1024, 1024, 1024, 0, 6, 3847, 3842, 3812, 3855, 3883, 3858, 0, 1, 16401, -89.900, 0.000, 147.700, 0.000, 0.000, -2.900, 0.0, , , , , , 98, , , 61, 61, 61
38.2848517, -120.3444683, 32.800, 14:56:12.989, 15, 0.00, 0.32, 97, 0.800, 0.300, 148.800, 967, 100, 98, 24, 22976, -25040, 5381, 5548, 8, 14, 1525816572.990, 89, 0, 1024, 1024, 1024, 1024, 0, 6, 3847, 3842, 3812, 3855, 3883, 3858, 0, 1, 16501, -90.000, 0.000, 147.700, 0.000, 0.000, -3.000, 0.0, , , , , , 98, , , 61, 61, 61
38.2848517, -120.3444683, 33.100, 14:56:13.089, 15, 0.00, 0.32, 97, 0.800, 0.100, 148.800, 967, 100, 98, 24, 22976, -25040, 5381, 5548, 8, 14, 1525816573.090, 74, 0, 1024, 1024, 1024, 1024, 0, 6, 3847, 3842, 3812, 3855, 3883, 3858, 0, 1, 16601, -90.000, 0.000, 147.700, 0.000, 0.000, -3.000, 0.0, , , , , , 98, , , 61, 61, 61
38.2848517, -120.3444683, 33.400, 14:56:13.189, 15, 0.00, 0.31, 97, 0.900, 0.200, 148.800, 967, 100, 98, 24, 22976, -25040, 5381, 5548, 8, 14, 1525816573.190, 34, 0, 1024, 1024, 1024, 1024, 0, 6, 3847, 3842, 3812, 3855, 3883, 3858, 0, 1, 16701, -90.000, 0.000, 147.700, 0.000, 0.000, -3.000, 0.0, , , , , , 98, , , 61, 61, 61
38.2848517, -120.3444684, 33.700, 14:56:13.289, 15, 0.00, 0.31, 97, 0.700, 0.300, 148.800, 967, 100, 98, 24, 22976, -25040, 5381, 5548, 8, 14, 1525816573.289, 34, 0, 1024, 1024, 1024, 1024, 0, 6, 3822, 3820, 3787, 3816, 3862, 3835, 0, 1, 16801, -90.000, 0.000, 147.700, 0.000, 0.000, -3.100, 0.0, , , , , , 98, , , 61, 61, 61
38.2848516, -120.3444684, 34.000, 14:56:13.389, 15, 0.00, 0.30, 97, 0.400, 0.400, 148.800, 967, 100, 95, 24, 22976, -25040, 5381, 5548, 8, 14, 1525816573.390, 10, 0, 1024, 1024, 1024, 1024, 0, 6, 3822, 3820, 3787, 3816, 3862, 3835, 0, 1, 16901, -89.900, 0.000, 147.700, 0.000, 0.000, -3.100, 0.0, , , , , , 98, , , 61, 61, 61
38.2848516, -120.3444685, 34.300, 14:56:13.489, 15, 0.00, 0.29, 97, 0.200, 0.500, 148.900, 967, 100, 95, 24, 22976, -25040, 5381, 5548, 8, 14, 1525816573.489, 12, 0, 1024, 1024, 1024, 1024, 0, 6, 3822, 3820, 3787, 3816, 3862, 3835, 0, 1, 17001, -90.000, 0.000, 147.700, 0.000, 0.000, -3.100, 0.0, , , , , , 98, , , 61, 61, 61
38.2848516, -120.3444685, 34.600, 14:56:13.589, 15, 0.00, 0.29, 97, 0.000, 0.500, 149.100, 967, 100, 95, 24, 22976, -25040, 5381, 5548, 8, 14, 1525816573.590, 59, 0, 1024, 1024, 1024, 1024, 0, 6, 3822, 3820, 3787, 3816, 3862, 3835, 0, 1, 17102, -89.900, 0.000, 147.700, 0.000, 0.000, -3.000, 0.0, , , , , , 98, , , 61, 61, 61
38.2848515, -120.3444686, 34.900, 14:56:13.702, 15, 0.00, 0.29, 97, 0.000, 0.400, 149.100, 967, 100, 95, 24, 22976, -25040, 5381, 5548, 8, 14, 1525816573.703, 5, 0, 1024, 1024, 1024, 1024, 0, 6, 3822, 3820, 3787, 3816, 3862, 3835, 0, 1, 17214, -89.900, 0.000, 147.700, 0.000, 0.000, -3.000, 0.0, , , , , , 98, , , 61, 61, 61
38.2848515, -120.3444685, 35.200, 14:56:13.789, 15, 0.00, 0.28, 97, 0.100, 0.700, 149.100, 967, 100, 97, 24, 22976, -25040, 5381, 5548, 8, 14, 1525816573.790, 49, 0, 1024, 1024, 1024, 1024, 0, 6, 3822, 3820, 3787, 3816, 3862, 3835, 0, 1, 17301, -89.900, 0.000, 147.700, 0.000, 0.000, -3.000, 0.0, , , , , , 98, , , 61, 61, 61
38.2848515, -120.3444686, 35.500, 14:56:13.889, 15, 0.00, 0.28, 97, 0.100, 0.900, 149.100, 967, 100, 97, 24, 22976, -25040, 5381, 5548, 8, 14, 1525816573.889, 45, 0, 1024, 1024, 1024, 1024, 0, 6, 3822, 3820, 3787, 3816, 3862, 3835, 0, 1, 17401, -89.900, 0.000, 147.700, 0.000, 0.000, -3.000, 0.0, , , , , , 98, , , 61, 61, 61
38.2848514, -120.3444686, 35.800, 14:56:13.989, 15, 0.00, 0.27, 97, 0.100, 0.900, 149.000, 967, 100, 97, 24, 22976, -25040, 5381, 5548, 8, 14, 1525816573.989, 34, 0, 1024, 1024, 1024, 1024, 0, 6, 3822, 3820, 3787, 3816, 3862, 3835, 0, 1, 17501, -89.900, 0.000, 147.700, 0.000, 0.000, -3.000, 0.0, , , , , , 98, , , 61, 61, 61
38.2848514, -120.3444686, 35.800, 14:56:14.089, 15, 0.00, 0.27, 97, 0.100, 0.900, 149.000, 967, 100, 97, 24, 22976, -25040, 5381, 5548, 8, 14, 1525816574.090, 134, 0, 1024, 1024, 1024, 1024, 0, 6, 3822, 3820, 3787, 3816, 3862, 3835, 0, 1, 17601, -89.900, 0.000, 147.700, 0.000, 0.000, -3.000, 0.0, , , , , , 98, , , 61, 61, 61
38.2848514, -120.3444686, 35.800, 14:56:14.189, 15, 0.00, 0.27, 97, 0.100, 0.900, 149.000, 967, 100, 97, 24, 22976, -25040, 5381, 5548, 8, 14, 1525816574.190, 234, 0, 1024, 1024, 1024, 1024, 0, 6, 3822, 3820, 3787, 3816, 3862, 3835, 0, 1, 17701, -89.900, 0.000, 147.700, 0.000, 0.000, -3.000, 0.0, , , , , , 98, , , 61, 61, 61
38.2848514, -120.3444686, 35.800, 14:56:14.289, 15, 0.00, 0.27, 97, 0.100, 0.900, 149.000, 967, 100, 97, 24, 23012, -22977, 5381, 5548, 8, 14, 1525816574.290, 334, 0, 1024, 1024, 1024, 1024, 0, 6, 3822, 3820, 3787, 3816, 3862, 3835, 0, 1, 17801, -89.900, 0.000, 147.700, 0.000, 0.000, -3.000, 0.0, , , , , , 98, , , 61, 61, 61
38.2848512, -120.3444687, 37.400, 14:56:14.391, 15, 0.00, 0.26, 97, 0.200, 0.800, 148.400, 967, 100, 98, 24, 23012, -22977, 5381, 5548, 8, 14, 1525816574.392, 5, 0, 1024, 1024, 1024, 1024, 0, 6, 3846, 3824, 3804, 3826, 3881, 3839, 0, 1, 17903, -89.900, 0.000, 147.700, 0.000, 0.000, -3.100, 0.0, , , , , , 98, , , 61, 61, 61
38.2848511, -120.3444687, 37.700, 14:56:14.489, 15, 0.00, 0.25, 97, -0.100, 1.100, 148.400, 967, 100, 98, 24, 23012, -22977, 5381, 5548, 8, 14, 1525816574.490, 22, 0, 1024, 1024, 1024, 1024, 0, 6, 3846, 3824, 3804, 3826, 3881, 3839, 0, 1, 18001, -89.900, 0.000, 147.700, 0.000, 0.000, -3.100, 0.0, , , , , , 98, , , 61, 61, 61
38.2848511, -120.3444686, 38.000, 14:56:14.589, 15, 0.00, 0.25, 97, -0.300, 1.400, 148.500, 967, 100, 98, 24, 23012, -22977, 5381, 5548, 8, 14, 1525816574.590, 20, 0, 1024, 1024, 1024, 1024, 0, 6, 3846, 3824, 3804, 3826, 3881, 3839, 0, 1, 18101, -89.900, 0.000, 147.700, 0.000, 0.000, -3.000, 0.0, , , , , , 98, , , 61, 61, 61
38.2848511, -120.3444686, 38.300, 14:56:14.689, 15, 0.00, 0.25, 97, -0.300, 1.600, 148.500, 967, 100, 98, 24, 23012, -22977, 5381, 5548, 8, 14, 1525816574.689, 25, 0, 1024, 1024, 1024, 1024, 0, 6, 3846, 3824, 3804, 3826, 3881, 3839, 0, 1, 18201, -89.900, 0.000, 147.700, 0.000, 0.000, -3.000, 0.0, , , , , , 98, , , 61, 61, 61
38.2848510, -120.3444686, 38.600, 14:56:14.794, 15, 0.00, 0.25, 97, -0.100, 1.700, 148.500, 967, 100, 100, 24, 23012, -22977, 5381, 5548, 8, 14, 1525816574.794, 3, 0, 1024, 1024, 1024, 1024, 0, 6, 3846, 3824, 3804, 3826, 3881, 3839, 0, 1, 18306, -89.900, 0.000, 147.700, 0.000, 0.000, -3.100, 0.0, , , , , , 98, , , 61, 61, 61
38.2848510, -120.3444687, 38.900, 14:56:14.889, 15, 0.00, 0.24, 97, 0.000, 1.100, 148.500, 967, 100, 100, 24, 23012, -22977, 5381, 5548, 8, 14, 1525816574.890, 23, 0, 1024, 1024, 1024, 1024, 0, 6, 3846, 3824, 3804, 3826, 3881, 3839, 0, 1, 18401, -89.900, 0.000, 147.700, 0.000, 0.000, -3.000, 0.0, , , , , , 98, , , 61, 61, 61
38.2848510, -120.3444687, 39.200, 14:56:14.989, 15, 0.00, 0.24, 97, 0.000, 0.600, 148.500, 967, 100, 100, 24, 23012, -22977, 5381, 5548, 8, 14, 1525816574.989, 13, 0, 1024, 1024, 1024, 1024, 0, 6, 3846, 3824, 3804, 3826, 3881, 3839, 0, 1, 18501, -90.000, 0.000, 147.700, 0.000, 0.000, -3.000, 0.0, , , , , , 98, , , 61, 61, 61
38.2848510, -120.3444687, 39.200, 14:56:15.089, 15, 0.00, 0.24, 97, 0.000, 0.600, 148.500, 967, 100, 100, 24, 23012, -22977, 5381, 5548, 8, 14, 1525816575.090, 113, 0, 1024, 1024, 1024, 1024, 0, 6, 3846, 3824, 3804, 3826, 3881, 3839, 0, 1, 18601, -90.000, 0.000, 147.700, 0.000, 0.000, -3.000, 0.0, , , , , , 98, , , 61, 61, 61
38.2848511, -120.3444687, 39.900, 14:56:15.189, 15, 0.00, 0.24, 97, 0.600, -0.300, 148.400, 967, 100, 100, 24, 23047, -22514, 5326, 5548, 8, 14, 1525816575.190, 11, 0, 1024, 1024, 1024, 1024, 0, 6, 3845, 3823, 3816, 3836, 3889, 3852, 0, 1, 18702, -90.000, 0.000, 147.700, 0.000, 0.000, -3.000, 0.0, , , , , , 98, , , 61, 61, 61
38.2848511, -120.3444688, 40.200, 14:56:15.299, 15, 0.00, 0.24, 97, 0.700, -0.400, 148.400, 967, 100, 99, 24, 23047, -22514, 5326, 5548, 8, 14, 1525816575.300, 9, 0, 1024, 1024, 1024, 1024, 0, 6, 3845, 3823, 3816, 3836, 3889, 3852, 0, 1, 18811, -90.000, 0.000, 147.700, 0.000, 0.000, -2.900, 0.0, , , , , , 98, , , 61, 61, 61
38.2848511, -120.3444688, 40.500, 14:56:15.390, 15, 0.00, 0.24, 97, 0.600, -0.200, 148.500, 967, 100, 99, 24, 23047, -22514, 5326, 5548, 8, 14, 1525816575.391, 3, 0, 1024, 1024, 1024, 1024, 0, 6, 3845, 3823, 3816, 3836, 3889, 3852, 0, 1, 18902, -90.000, 0.000, 147.700, 0.000, 0.000, -3.000, 0.0, , , , , , 98, , , 61, 61, 61
38.2848511, -120.3444688, 40.800, 14:56:15.495, 15, 0.00, 0.24, 97, 0.600, 0.000, 148.600, 967, 100, 99, 24, 23047, -22514, 5326, 5548, 8, 14, 1525816575.495, 7, 0, 1024, 1024, 1024, 1024, 0, 6, 3845, 3823, 3816, 3836, 3889, 3852, 0, 1, 19007, -89.900, 0.000, 147.700, 0.000, 0.000, -3.000, 0.0, , , , , , 98, , , 61, 61, 61
38.2848511, -120.3444688, 40.800, 14:56:15.589, 15, 0.00, 0.24, 97, 0.600, 0.000, 148.600, 967, 100, 99, 24, 23047, -22514, 5326, 5548, 8, 14, 1525816575.590, 101, 0, 1024, 1024, 1024, 1024, 0, 6, 3845, 3823, 3816, 3836, 3889, 3852, 0, 1, 19101, -89.900, 0.000, 147.700, 0.000, 0.000, -3.000, 0.0, , , , , , 98, , , 61, 61, 61
38.2848511, -120.3444687, 41.100, 14:56:15.689, 15, 0.00, 0.24, 97, 0.500, 0.300, 148.800, 967, 100, 99, 24, 23047, -22514, 5326, 5548, 8, 14, 1525816575.689, 89, 0, 1024, 1024, 1024, 1024, 0, 6, 3845, 3823, 3816, 3836, 3889, 3852, 0, 1, 19201, -89.900, 0.000, 147.700, 0.000, 0.000, -3.000, 0.0, , , , , , 98, , , 61, 61, 61
38.2848511, -120.3444687, 41.400, 14:56:15.789, 15, 0.00, 0.24, 96, 0.400, 0.400, 148.900, 967, 100, 99, 24, 23047, -22514, 5326, 5548, 8, 14, 1525816575.790, 84, 0, 1024, 1024, 1024, 1024, 0, 6, 3845, 3823, 3816, 3836, 3889, 3852, 0, 1, 19301, -89.900, 0.000, 147.700, 0.000, 0.000, -2.900, 0.0, , , , , , 98, , , 61, 61, 61
38.2848511, -120.3444687, 41.400, 14:56:15.889, 15, 0.00, 0.24, 96, 0.400, 0.400, 148.900, 967, 100, 98, 24, 23047, -22514, 5326, 5548, 8, 14, 1525816575.890, 184, 0, 1024, 1024, 1024, 1024, 0, 6, 3845, 3823, 3816, 3836, 3889, 3852, 0, 1, 19401, -89.900, 0.000, 147.700, 0.000, 0.000, -2.900, 0.0, , , , , , 98, , , 61, 61, 61
38.2848510, -120.3444687, 42.000, 14:56:15.989, 15, 0.00, 0.25, 96, 0.600, 0.600, 148.900, 967, 100, 98, 24, 23047, -22514, 5326, 5548, 8, 14, 1525816575.990, 73, 0, 1024, 1024, 1024, 1024, 0, 6, 3845, 3823, 3816, 3836, 3889, 3852, 0, 1, 19501, -89.900, 0.000, 147.700, 0.000, 0.000, -3.000, 0.0, , , , , , 98, , , 61, 61, 61
38.2848511, -120.3444686, 42.300, 14:56:16.089, 15, 0.00, 0.25, 96, 0.600, 0.500, 148.700, 967, 100, 98, 24, 23047, -22514, 5326, 5548, 8, 14, 1525816576.090, 65, 0, 1024, 1024, 1024, 1024, 0, 6, 3845, 3823, 3816, 3836, 3889, 3852, 0, 1, 19601, -89.900, 0.000, 147.700, 0.000, 0.000, -3.000, 0.0, , , , , , 98, , , 61, 61, 61
38.2848511, -120.3444686, 42.600, 14:56:16.189, 15, 0.00, 0.25, 96, 0.700, 0.300, 148.600, 967, 100, 98, 24, 23099, -21706, 5326, 5548, 8, 14, 1525816576.190, 74, 0, 1024, 1024, 1024, 1024, 0, 6, 3845, 3823, 3816, 3836, 3889, 3852, 0, 1, 19701, -89.900, 0.000, 147.700, 0.000, 0.000, -2.900, 0.0, , , , , , 98, , , 61, 61, 61
38.2848511, -120.3444686, 42.900, 14:56:16.289, 15, 0.00, 0.25, 96, 0.800, 0.200, 148.500, 967, 100, 96, 24, 23099, -21706, 5326, 5548, 8, 14, 1525816576.290, 59, 0, 1024, 1024, 1024, 1024, 0, 6, 3859, 3835, 3822, 3844, 3894, 3855, 0, 1, 19801, -89.900, 0.000, 147.700, 0.000, 0.000, -2.900, 0.0, , , , , , 98, , , 61, 61, 61
38.2848511, -120.3444686, 43.100, 14:56:16.389, 15, 0.00, 0.25, 96, 0.900, 0.300, 148.400, 967, 100, 96, 24, 23099, -21706, 5326, 5548, 8, 14, 1525816576.390, 56, 0, 1024, 1024, 1024, 1024, 0, 6, 3859, 3835, 3822, 3844, 3894, 3855, 0, 1, 19901, -89.900, 0.000, 147.700, 0.000, 0.000, -2.900, 0.0, , , , , , 98, , , 61, 61, 61
38.2848510, -120.3444685, 43.700, 14:56:16.489, 15, 0.00, 0.26, 96, 0.000, 0.600, 148.200, 967, 100, 96, 24, 23099, -21706, 5326, 5548, 8, 14, 1525816576.490, 54, 0, 1024, 1024, 1024, 1024, 0, 6, 3859, 3835, 3822, 3844, 3894, 3855, 0, 1, 20001, -89.900, 0.000, 147.700, 0.000, 0.000, -3.000, 0.0, , , , , , 98, , , 61, 61, 61
38.2848510, -120.3444685, 43.700, 14:56:16.589, 15, 0.00, 0.26, 96, 0.000, 0.600, 148.200, 967, 100, 96, 24, 23099, -21706, 5326, 5548, 8, 14, 1525816576.589, 154, 0, 1024, 1024, 1024, 1024, 0, 6, 3859, 3835, 3822, 3844, 3894, 3855, 0, 1, 20101, -89.900, 0.000, 147.700, 0.000, 0.000, -3.000, 0.0, , , , , , 98, , , 61, 61, 61
38.2848510, -120.3444684, 44.300, 14:56:16.689, 15, 0.00, 0.26, 96, 0.300, 0.800, 148.300, 967, 100, 96, 24, 23099, -21706, 5326, 5548, 8, 14, 1525816576.690, 45, 0, 1024, 1024, 1024, 1024, 0, 6, 3859, 3835, 3822, 3844, 3894, 3855, 0, 1, 20201, -89.900, 0.000, 147.700, 0.000, 0.000, -3.000, 0.0, , , , , , 98, , , 61, 61, 61
38.2848510, -120.3444684, 44.600, 14:56:16.789, 15, 0.00, 0.27, 96, 0.500, 0.600, 148.500, 967, 100, 96, 24, 23099, -21706, 5326, 5548, 8, 14, 1525816576.790, 44, 0, 1024, 1024, 1024, 1024, 0, 6, 3859, 3835, 3822, 3844, 3894, 3855, 0, 1, 20301, -89.900, 0.000, 147.700, 0.000, 0.000, -2.900, 0.0, , , , , , 98, , , 61, 61, 61
38.2848510, -120.3444684, 44.900, 14:56:16.889, 15, 0.00, 0.27, 96, 0.500, 0.900, 148.700, 967, 100, 96, 24, 23099, -21706, 5326, 5548, 8, 14, 1525816576.890, 56, 0, 1024, 1024, 1024, 1024, 0, 6, 3859, 3835, 3822, 3844, 3894, 3855, 0, 1, 20401, -89.900, 0.000, 147.700, 0.000, 0.000, -2.900, 0.0, , , , , , 98, , , 61, 61, 61
38.2848510, -120.3444684, 45.200, 14:56:16.989, 15, 0.00, 0.27, 96, 0.400, 1.200, 148.700, 967, 100, 96, 24, 23099, -21706, 5326, 5548, 8, 14, 1525816576.990, 19, 0, 1024, 1024, 1024, 1024, 0, 6, 3859, 3835, 3822, 3844, 3894, 3855, 0, 1, 20501, -89.900, 0.000, 147.700, 0.000, 0.000, -2.900, 0.0, , , , , , 98, , , 61, 61, 61
38.2848510, -120.3444683, 45.500, 14:56:17.090, 15, 0.00, 0.27, 96, 0.400, 1.300, 148.700, 967, 100, 96, 24, 23099, -21706, 5326, 5548, 8, 14, 1525816577.091, 44, 0, 1024, 1024, 1024, 1024, 0, 6, 3859, 3835, 3822, 3844, 3894, 3855, 0, 1, 20603, -89.900, 0.000, 147.700, 0.000, 0.000, -2.900, 0.0, , , , , , 98, , , 61, 61, 61
38.2848510, -120.3444683, 45.800, 14:56:17.189, 15, 0.00, 0.27, 96, 0.500, 1.300, 148.700, 967, 100, 96, 24, 23099, -21706, 5326, 5548, 8, 14, 1525816577.191, 31, 0, 1024, 1024, 1024, 1024, 0, 6, 3859, 3835, 3822, 3844, 3894, 3855, 0, 1, 20703, -89.900, 0.000, 147.700, 0.000, 0.000, -3.000, 0.0, , , , , , 98, , , 61, 61, 61
38.2848510, -120.3444683, 46.100, 14:56:17.289, 15, 0.00, 0.27, 96, 0.600, 1.100, 148.700, 967, 100, 97, 24, 23099, -21706, 5326, 5548, 8, 14, 1525816577.289, 26, 0, 1024, 1024, 1024, 1024, 0, 6, 3859, 3835, 3822, 3844, 3894, 3855, 0, 1, 20801, -89.900, 0.000, 147.700, 0.000, 0.000, -3.000, 0.0, , , , , , 98, , , 61, 61, 61
38.2848510, -120.3444683, 46.400, 14:56:17.388, 15, 0.00, 0.27, 96, 0.500, 1.100, 148.700, 967, 100, 97, 24, 23099, -21706, 5326, 5548, 8, 14, 1525816577.389, 17, 0, 1024, 1024, 1024, 1024, 0, 6, 3859, 3835, 3822, 3844, 3894, 3855, 0, 1, 20900, -89.900, 0.000, 147.700, 0.000, 0.000, -3.000, 0.0, , , , , , 98, , , 61, 61, 61
