Latitude, Longitude, Altitude (m), Time, Sats, Speed (m/s), Range (m), Battery (%), Roll (deg), Pitch (deg), Yaw (deg), Images, HD Signal (%), RC Signal (%), Battery Temp (C), Battery Voltage (mV), Battery Current (mA), Battery Energy (mAh), Battery Capacity (mAh), Battery Discharges, flyState, timestamp (Unix), LastUpdate (ms), radioChannel, Rc_elevator, Rc_aileron, Rc_throttle, Rc_rudder, Rc_gyro, Dronetype, Battery_Cell1 (mV), Battery_Cell2 (mV), Battery_Cell3 (mV), Battery_Cell4 (mV), Battery_Cell5 (mV), Battery_Cell6 (mV), Video, isFlying, elapsedTime (ms), gimbalPitch (deg), gimbalRoll (deg), gimbalYaw (deg), VelocityX (m/s), VelocityY (m/s), VelocityZ (m/s), GroundSmear (cm), App Version, Aircraft Name, Aircraft Firmware, Aircraft Serial Number, Battery Serial Number, Battery Lifetime (%), App_Tip, App_Warning, CurrentFlightStartingIndex, CurrentFlightLastVisitedWaypoint, PreviousFlightEndingWaypointIndex
37.3089287, -119.5776472, 0.000, 12:15:47.322, 13, 0.00, 0.09, 100, -0.100, -1.000, -27.300, 1385, 100, 100, 26, 25810, -1306, 5472, 5472, 12, 11, 1529176547.323, 75, 0, 1024, 1024, 1024, 1024, 0, 6, 4301, 4300, 4295, 4303, 4304, 4187, 0, 1, 3000, -90.000, 0.000, -28.200, 0.000, 0.000, -0.200, 0.0, MapPilot_2.8.1_04242018, Dendroctonus I, 1.3.1.00, 041DDC1887, 1058163200468, 97, DJI_0382.jpg, Starting Mission from Lat/Long: 37.30894/-119.57765 Camera: Zenmuse X3 - Overlap: 90/90 - Active Connection: No, 65, 65, 65
37.3089287, -119.5776472, 0.000, 12:15:47.423, 13, 0.00, 0.08, 100, -0.100, -0.900, -27.200, 1385, 100, 100, 26, 25810, -1306, 5472, 5472, 12, 11, 1529176547.423, 84, 0, 1024, 1024, 1024, 1024, 0, 6, 4301, 4300, 4295, 4303, 4304, 4187, 0, 1, 3100, -89.900, 0.000, -28.200, 0.000, 0.000, -0.300, 0.0, , , , , , 97, , , 65, 65, 65
37.3089287, -119.5776473, 0.000, 12:15:47.523, 13, 0.00, 0.08, 100, 0.100, -0.600, -27.100, 1385, 100, 100, 26, 25810, -1306, 5472, 5472, 12, 11, 1529176547.523, 83, 0, 1024, 1024, 1024, 1024, 0, 6, 4301, 4300, 4295, 4303, 4304, 4187, 0, 1, 3200, -89.900, 0.000, -28.200, 0.000, 0.000, -0.400, 0.0, , , , , , 97, , , 65, 65, 65
37.3089288, -119.5776473, 0.000, 12:15:47.623, 13, 0.00, 0.07, 100, 0.300, 0.000, -27.100, 1385, 100, 100, 26, 25810, -1306, 5472, 5472, 12, 11, 1529176547.623, 50, 0, 1024, 1024, 1024, 1024, 0, 6, 4301, 4300, 4295, 4303, 4304, 4187, 0, 1, 3300, -89.900, 0.000, -28.200, 0.000, 0.000, -0.500, 0.0, , , , , , 97, , , 65, 65, 65
37.3089289, -119.5776474, 0.100, 12:15:47.723, 13, 0.10, 0.06, 100, 0.300, 0.700, -27.000, 1385, 100, 100, 26, 25810, -1306, 5472, 5472, 12, 11, 1529176547.723, 51, 0, 1024, 1024, 1024, 1024, 0, 6, 4301, 4300, 4295, 4303, 4304, 4187, 0, 1, 3400, -89.900, 0.000, -28.200, 0.100, 0.000, -0.500, 0.0, , , , , , 97, , , 65, 65, 65
37.3089290, -119.5776474, 0.100, 12:15:47.823, 14, 0.10, 0.05, 100, 0.100, 1.000, -27.000, 1385, 100, 100, 26, 25707, -11280, 5472, 5472, 12, 11, 1529176547.823, 53, 0, 1024, 1024, 1024, 1024, 0, 6, 4128, 4115, 4256, 4269, 4299, 4264, 0, 1, 3500, -89.900, 0.000, -28.200, 0.100, 0.000, -0.500, 0.0, , , , , , 97, , , 65, 65, 65
37.3089291, -119.5776475, 0.200, 12:15:47.923, 14, 0.10, 0.04, 100, 0.000, 1.100, -26.900, 1385, 100, 100, 26, 25707, -11280, 5472, 5472, 12, 11, 1529176547.923, 49, 0, 1024, 1024, 1024, 1024, 0, 6, 4128, 4115, 4256, 4269, 4299, 4264, 0, 1, 3600, -89.900, 0.000, -28.200, 0.100, 0.000, -0.500, 0.0, , , , , , 97, , , 65, 65, 65
37.3089291, -119.5776475, 0.200, 12:15:48.023, 13, 0.00, 0.03, 100, -0.300, 1.100, -26.900, 1385, 100, 100, 26, 25707, -11280, 5472, 5472, 12, 11, 1529176548.023, 32, 0, 1024, 1024, 1024, 1024, 0, 6, 4128, 4115, 4256, 4269, 4299, 4264, 0, 1, 3700, -89.900, 0.000, -28.200, 0.000, 0.000, -0.400, 0.0, , , , , , 97, , , 65, 65, 65
37.3089292, -119.5776476, 0.300, 12:15:48.124, 13, 0.00, 0.02, 100, -0.400, 1.100, -26.800, 1385, 100, 100, 26, 25707, -11280, 5472, 5472, 12, 11, 1529176548.124, 47, 0, 1024, 1024, 1024, 1024, 0, 6, 4128, 4115, 4256, 4269, 4299, 4264, 0, 1, 3801, -89.900, 0.000, -28.200, 0.000, 0.000, -0.400, 0.0, , , , , , 97, , , 65, 65, 65
37.3089293, -119.5776477, 0.400, 12:15:48.224, 13, 0.00, 0.02, 100, -0.300, 1.300, -26.700, 1385, 100, 100, 26, 25707, -11280, 5472, 5472, 12, 11, 1529176548.224, 37, 0, 1024, 1024, 1024, 1024, 0, 6, 4128, 4115, 4256, 4269, 4299, 4264, 0, 1, 3901, -89.900, 0.000, -28.200, 0.000, 0.000, -0.400, 0.0, , , , , , 97, , , 65, 65, 65
37.3089293, -119.5776478, 0.400, 12:15:48.324, 13, 0.00, 0.03, 100, 0.000, 1.300, -26.800, 1385, 100, 100, 26, 25707, -11280, 5472, 5472, 12, 11, 1529176548.324, 54, 0, 1024, 1024, 1024, 1024, 0, 6, 4128, 4115, 4256, 4269, 4299, 4264, 0, 1, 4001, -89.900, 0.000, -28.200, 0.000, 0.000, -0.500, 0.0, , , , , , 97, , , 65, 65, 65
37.3089293, -119.5776479, 0.500, 12:15:48.424, 14, 0.00, 0.04, 100, 0.200, 1.100, -27.000, 1385, 100, 100, 26, 25707, -11280, 5472, 5472, 12, 11, 1529176548.424, 35, 0, 1024, 1024, 1024, 1024, 0, 6, 4128, 4115, 4256, 4269, 4299, 4264, 0, 1, 4102, -89.900, 0.000, -28.200, 0.000, 0.000, -0.500, 0.0, , , , , , 97, , , 65, 65, 65
37.3089293, -119.5776480, 0.500, 12:15:48.524, 14, 0.00, 0.05, 100, 0.300, 1.000, -27.300, 1385, 100, 100, 26, 25707, -11280, 5472, 5472, 12, 11, 1529176548.524, 42, 0, 1024, 1024, 1024, 1024, 0, 6, 4128, 4115, 4256, 4269, 4299, 4264, 0, 1, 4202, -89.900, 0.000, -28.200, 0.000, 0.000, -0.400, 0.0, , , , , , 97, , , 65, 65, 65
37.3089293, -119.5776481, 0.600, 12:15:48.624, 14, 0.00, 0.05, 100, 0.400, 1.000, -27.600, 1385, 100, 100, 26, 25707, -11280, 5472, 5472, 12, 11, 1529176548.624, 5, 0, 1024, 1024, 1024, 1024, 0, 6, 4128, 4115, 4256, 4269, 4299, 4264, 0, 1, 4302, -89.900, 0.000, -28.200, 0.000, 0.000, -0.400, 0.0, , , , , , 97, , , 65, 65, 65
37.3089293, -119.5776482, 0.600, 12:15:48.723, 14, 0.00, 0.07, 100, 0.300, 0.900, -27.700, 1385, 100, 100, 26, 25707, -11280, 5472, 5472, 12, 11, 1529176548.723, 31, 0, 1024, 1024, 1024, 1024, 0, 6, 4128, 4115, 4256, 4269, 4299, 4264, 0, 1, 4400, -89.900, 0.000, -28.200, 0.000, 0.000, -0.500, 0.0, , , , , , 97, , , 65, 65, 65
37.3089293, -119.5776483, 0.700, 12:15:48.824, 14, 0.00, 0.07, 100, 0.400, 1.000, -27.600, 1385, 100, 100, 26, 24356, -15760, 5362, 5472, 12, 11, 1529176548.824, 24, 0, 1024, 1024, 1024, 1024, 0, 6, 4046, 4041, 4052, 4054, 4135, 4118, 0, 1, 4501, -89.900, 0.000, -28.200, 0.000, 0.000, -0.400, 0.0, , , , , , 97, , , 65, 65, 65
37.3089293, -119.5776484, 0.700, 12:15:48.924, 14, 0.00, 0.08, 100, 0.700, 1.100, -27.500, 1385, 100, 100, 26, 24356, -15760, 5362, 5472, 12, 11, 1529176548.924, 27, 0, 1024, 1024, 1024, 1024, 0, 6, 4046, 4041, 4052, 4054, 4135, 4118, 0, 1, 4602, -89.900, 0.000, -28.200, 0.000, 0.000, -0.400, 0.0, , , , , , 97, , , 65, 65, 65
37.3089292, -119.5776484, 0.800, 12:15:49.024, 14, 0.00, 0.08, 100, 0.800, 1.200, -27.400, 1385, 100, 100, 26, 24356, -15760, 5362, 5472, 12, 11, 1529176549.024, 8, 0, 1024, 1024, 1024, 1024, 0, 6, 4046, 4041, 4052, 4054, 4135, 4118, 0, 1, 4702, -89.900, 0.000, -28.200, 0.000, 0.000, -0.400, 0.0, , , , , , 97, , , 65, 65, 65
37.3089292, -119.5776484, 0.800, 12:15:49.124, 14, 0.00, 0.08, 100, 0.800, 1.200, -27.400, 1385, 100, 100, 26, 24356, -15760, 5362, 5472, 12, 11, 1529176549.124, 108, 0, 1024, 1024, 1024, 1024, 0, 6, 4046, 4041, 4052, 4054, 4135, 4118, 0, 1, 4801, -89.900, 0.000, -28.200, 0.000, 0.000, -0.400, 0.0, , , , , , 97, , , 65, 65, 65
37.3089292, -119.5776485, 0.800, 12:15:49.223, 14, 0.00, 0.09, 100, 0.700, 1.100, -27.200, 1385, 100, 100, 26, 24356, -15760, 5362, 5472, 12, 11, 1529176549.223, 75, 0, 1024, 1024, 1024, 1024, 0, 6, 4046, 4041, 4052, 4054, 4135, 4118, 0, 1, 4900, -89.900, 0.000, -28.200, 0.000, 0.000, -0.400, 0.0, , , , , , 97, , , 65, 65, 65
37.3089292, -119.5776485, 0.900, 12:15:49.324, 14, 0.00, 0.09, 100, 0.700, 1.000, -27.100, 1385, 100, 100, 26, 24356, -15760, 5362, 5472, 12, 14, 1529176549.324, 67, 0, 1024, 1024, 1024, 1024, 0, 6, 4046, 4041, 4052, 4054, 4135, 4118, 0, 1, 5002, -89.900, 0.000, -28.200, 0.000, 0.000, -0.400, 0.0, , , , , , 97, , , 65, 65, 65
37.3089291, -119.5776485, 0.900, 12:15:49.424, 14, 0.00, 0.09, 100, 0.500, 0.900, -27.100, 1385, 100, 100, 26, 24356, -15760, 5362, 5472, 12, 14, 1529176549.424, 82, 0, 1024, 1024, 1024, 1024, 0, 6, 4046, 4041, 4052, 4054, 4135, 4118, 0, 1, 5101, -89.900, 0.000, -28.200, 0.000, 0.000, -0.400, 0.0, , , , , , 97, , , 65, 65, 65
37.3089291, -119.5776484, 1.000, 12:15:49.524, 14, 0.00, 0.09, 100, -0.500, 0.000, -27.000, 1385, 100, 100, 26, 24356, -15760, 5362, 5472, 12, 14, 1529176549.524, 93, 0, 1024, 1024, 1024, 1024, 0, 6, 4046, 4041, 4052, 4054, 4135, 4118, 0, 1, 5202, -90.000, 0.000, -28.200, 0.000, 0.000, -0.200, 0.0, , , , , , 97, , , 65, 65, 65
37.3089290, -119.5776485, 1.100, 12:15:49.629, 14, 0.00, 0.10, 100, -0.200, 0.000, -27.100, 1385, 100, 100, 26, 24356, -15760, 5362, 5472, 12, 14, 1529176549.629, 5, 0, 1024, 1024, 1024, 1024, 0, 6, 4046, 4041, 4052, 4054, 4135, 4118, 0, 1, 5307, -89.900, 0.000, -28.200, 0.000, 0.000, -0.400, 0.0, , , , , , 97, , , 65, 65, 65
37.3089290, -119.5776485, 1.100, 12:15:49.722, 14, 0.00, 0.10, 100, -0.200, 0.000, -27.100, 1385, 100, 100, 26, 24356, -15760, 5362, 5472, 12, 14, 1529176549.723, 98, 0, 1024, 1024, 1024, 1024, 0, 6, 4046, 4041, 4052, 4054, 4135, 4118, 0, 1, 5400, -89.900, 0.000, -28.200, 0.000, 0.000, -0.400, 0.0, , , , , , 97, , , 65, 65, 65
37.3089289, -119.5776486, 1.100, 12:15:49.824, 13, 0.00, 0.11, 100, -0.100, 0.000, -27.100, 1385, 100, 100, 26, 24356, -15760, 5362, 5472, 12, 14, 1529176549.824, 78, 0, 1024, 1024, 1024, 1024, 0, 6, 4046, 4041, 4052, 4054, 4135, 4118, 0, 1, 5501, -89.900, 0.000, -28.200, 0.000, 0.000, -0.600, 0.0, , , , , , 97, , , 65, 65, 65
37.3089288, -119.5776487, 1.200, 12:15:49.924, 13, 0.00, 0.12, 98, 0.100, 0.100, -27.100, 1385, 100, 100, 26, 24222, -15857, 5362, 5472, 12, 14, 1529176549.924, 77, 0, 1024, 1024, 1024, 1024, 0, 6, 4032, 4026, 4028, 4034, 4066, 4048, 0, 1, 5602, -89.900, 0.000, -28.100, 0.000, 0.000, -0.700, 0.0, , , , , , 97, , , 65, 65, 65
37.3089288, -119.5776487, 1.200, 12:15:50.024, 13, 0.00, 0.12, 98, 0.100, 0.100, -27.100, 1385, 100, 100, 26, 24222, -15857, 5362, 5472, 12, 14, 1529176550.024, 177, 0, 1024, 1024, 1024, 1024, 0, 6, 4032, 4026, 4028, 4034, 4066, 4048, 0, 1, 5702, -89.900, 0.000, -28.100, 0.000, 0.000, -0.700, 0.0, , , , , , 97, , , 65, 65, 65
37.3089288, -119.5776489, 1.400, 12:15:50.123, 13, 0.00, 0.14, 98, 0.700, 0.100, -27.200, 1385, 100, 100, 26, 24222, -15857, 5362, 5472, 12, 14, 1529176550.123, 76, 0, 1024, 1024, 1024, 1024, 0, 6, 4032, 4026, 4028, 4034, 4066, 4048, 0, 1, 5800, -89.900, 0.000, -28.100, 0.000, 0.000, -1.000, 0.0, , , , , , 97, , , 65, 65, 65
37.3089288, -119.5776489, 1.500, 12:15:50.222, 13, 0.00, 0.15, 98, 0.800, 0.200, -27.300, 1385, 100, 100, 26, 24222, -15857, 5362, 5472, 12, 14, 1529176550.223, 56, 0, 1024, 1024, 1024, 1024, 0, 6, 4032, 4026, 4028, 4034, 4066, 4048, 0, 1, 5900, -89.900, 0.000, -28.100, 0.000, 0.000, -1.300, 0.0, , , , , , 97, , , 65, 65, 65
37.3089288, -119.5776490, 1.700, 12:15:50.323, 13, 0.00, 0.15, 98, 0.700, 0.300, -27.300, 1385, 100, 100, 26, 24222, -15857, 5362, 5472, 12, 14, 1529176550.323, 70, 0, 1024, 1024, 1024, 1024, 0, 6, 4032, 4026, 4028, 4034, 4066, 4048, 0, 1, 6000, -89.900, 0.000, -28.100, 0.000, 0.000, -1.500, 0.0, , , , , , 97, , , 65, 65, 65
37.3089288, -119.5776490, 1.800, 12:15:50.423, 14, 0.00, 0.15, 98, 0.500, 0.300, -27.400, 1385, 100, 100, 26, 24222, -15857, 5362, 5472, 12, 14, 1529176550.423, 48, 0, 1024, 1024, 1024, 1024, 0, 6, 4032, 4026, 4028, 4034, 4066, 4048, 0, 1, 6100, -89.900, 0.000, -28.100, 0.000, 0.000, -1.700, 0.0, , , , , , 97, , , 65, 65, 65
37.3089288, -119.5776490, 2.000, 12:15:50.523, 14, 0.00, 0.14, 98, 0.500, 0.400, -27.500, 1385, 100, 100, 26, 24222, -15857, 5362, 5472, 12, 14, 1529176550.523, 57, 0, 1024, 1024, 1024, 1024, 0, 6, 4032, 4026, 4028, 4034, 4066, 4048, 0, 1, 6200, -89.900, 0.000, -28.100, 0.000, 0.000, -1.900, 0.0, , , , , , 97, , , 65, 65, 65
37.3089289, -119.5776489, 2.200, 12:15:50.623, 14, 0.00, 0.14, 98, 0.400, 0.600, -27.500, 1385, 100, 100, 26, 24222, -15857, 5362, 5472, 12, 14, 1529176550.623, 26, 0, 1024, 1024, 1024, 1024, 0, 6, 4032, 4026, 4028, 4034, 4066, 4048, 0, 1, 6300, -89.900, 0.000, -28.100, 0.000, 0.000, -2.100, 0.0, , , , , , 97, , , 65, 65, 65
37.3089290, -119.5776489, 2.500, 12:15:50.722, 14, 0.00, 0.13, 98, 0.100, 0.700, -27.300, 1385, 100, 100, 26, 24222, -15857, 5362, 5472, 12, 14, 1529176550.723, 41, 0, 1024, 1024, 1024, 1024, 0, 6, 4032, 4026, 4028, 4034, 4066, 4048, 0, 1, 6400, -89.900, 0.000, -28.000, 0.000, 0.000, -2.400, 0.0, , , , , , 97, , , 65, 65, 65
37.3089291, -119.5776488, 2.700, 12:15:50.822, 14, 0.00, 0.12, 98, -0.200, 0.700, -27.100, 1385, 100, 100, 26, 23831, -20244, 5362, 5472, 12, 14, 1529176550.823, 44, 0, 1024, 1024, 1024, 1024, 0, 6, 3962, 3952, 3943, 3952, 3950, 3974, 0, 1, 6500, -89.900, 0.000, -28.000, 0.000, 0.000, -2.600, 0.0, , , , , , 97, , , 65, 65, 65
37.3089292, -119.5776486, 3.000, 12:15:50.923, 14, 0.00, 0.10, 98, -0.400, 0.700, -26.800, 1385, 100, 100, 26, 23831, -20244, 5362, 5472, 12, 14, 1529176550.923, 24, 0, 1024, 1024, 1024, 1024, 0, 6, 3962, 3952, 3943, 3952, 3950, 3974, 0, 1, 6600, -89.900, 0.000, -28.100, 0.000, 0.000, -2.800, 0.0, , , , , , 97, , , 65, 65, 65
37.3089293, -119.5776484, 3.300, 12:15:51.023, 14, 0.00, 0.08, 98, -0.500, 0.600, -26.700, 1385, 100, 100, 26, 23831, -20244, 5362, 5472, 12, 14, 1529176551.023, 37, 0, 1024, 1024, 1024, 1024, 0, 6, 3962, 3952, 3943, 3952, 3950, 3974, 0, 1, 6700, -89.900, 0.000, -28.100, 0.000, 0.000, -3.000, 0.0, , , , , , 97, , , 65, 65, 65
37.3089294, -119.5776483, 3.600, 12:15:51.123, 14, 0.00, 0.07, 98, -0.600, 0.600, -26.600, 1385, 100, 100, 26, 23831, -20244, 5362, 5472, 12, 14, 1529176551.123, 27, 0, 1024, 1024, 1024, 1024, 0, 6, 3962, 3952, 3943, 3952, 3950, 3974, 0, 1, 6800, -89.900, 0.000, -28.000, 0.000, 0.000, -3.000, 0.0, , , , , , 97, , , 65, 65, 65
37.3089294, -119.5776483, 3.600, 12:15:51.222, 14, 0.00, 0.07, 98, -0.600, 0.600, -26.600, 1385, 100, 100, 26, 23831, -20244, 5362, 5472, 12, 14, 1529176551.223, 127, 0, 1024, 1024, 1024, 1024, 0, 6, 3962, 3952, 3943, 3952, 3950, 3974, 0, 1, 6900, -89.900, 0.000, -28.000, 0.000, 0.000, -3.000, 0.0, , , , , , 97, , , 65, 65, 65
37.3089297, -119.5776480, 4.300, 12:15:51.323, 13, 0.00, 0.05, 98, -0.900, 0.700, -26.600, 1385, 100, 100, 26, 23831, -20244, 5362, 5472, 12, 14, 1529176551.323, 14, 0, 1024, 1024, 1024, 1024, 0, 6, 3962, 3952, 3943, 3952, 3950, 3974, 0, 1, 7000, -89.900, 0.000, -28.000, 0.000, 0.000, -3.100, 0.0, , , , , , 97, , , 65, 65, 65
37.3089298, -119.5776479, 4.600, 12:15:51.423, 14, 0.00, 0.05, 98, -1.000, 0.700, -26.700, 1385, 100, 100, 26, 23831, -20244, 5362, 5472, 12, 14, 1529176551.423, 8, 0, 1024, 1024, 1024, 1024, 0, 6, 3962, 3952, 3943, 3952, 3950, 3974, 0, 1, 7100, -89.900, 0.000, -28.000, 0.000, 0.000, -3.100, 0.0, , , , , , 97, , , 65, 65, 65
37.3089298, -119.5776478, 4.900, 12:15:51.523, 14, 0.00, 0.05, 98, -0.900, 0.800, -26.800, 1385, 100, 100, 26, 23831, -20244, 5362, 5472, 12, 14, 1529176551.523, 16, 0, 1024, 1024, 1024, 1024, 0, 6, 3962, 3952, 3943, 3952, 3950, 3974, 0, 1, 7200, -89.900, 0.000, -28.000, 0.000, 0.000, -3.200, 0.0, , , , , , 97, , , 65, 65, 65
37.3089298, -119.5776478, 5.300, 12:15:51.623, 14, 0.00, 0.05, 98, -0.700, 0.800, -26.900, 1385, 100, 100, 26, 23831, -20244, 5362, 5472, 12, 14, 1529176551.623, 4, 0, 1024, 1024, 1024, 1024, 0, 6, 3962, 3952, 3943, 3952, 3950, 3974, 0, 1, 7301, -89.900, 0.000, -28.000, 0.000, 0.000, -3.200, 0.0, , , , , , 97, , , 65, 65, 65
37.3089298, -119.5776478, 5.300, 12:15:51.722, 14, 0.00, 0.05, 98, -0.700, 0.800, -26.900, 1385, 100, 100, 26, 23831, -20244, 5362, 5472, 12, 14, 1529176551.723, 104, 0, 1024, 1024, 1024, 1024, 0, 6, 3962, 3952, 3943, 3952, 3950, 3974, 0, 1, 7400, -89.900, 0.000, -28.000, 0.000, 0.000, -3.200, 0.0, , , , , , 97, , , 65, 65, 65
37.3089298, -119.5776478, 5.600, 12:15:51.823, 14, 0.00, 0.05, 98, -0.300, 0.700, -27.100, 1385, 100, 100, 26, 23831, -20244, 5362, 5472, 12, 14, 1529176551.823, 84, 0, 1024, 1024, 1024, 1024, 0, 6, 3962, 3952, 3943, 3952, 3950, 3974, 0, 1, 7500, -89.900, 0.000, -28.100, 0.000, 0.000, -3.200, 0.0, , , , , , 97, , , 65, 65, 65
37.3089298, -119.5776478, 5.900, 12:15:51.923, 14, 0.00, 0.05, 98, 0.100, 0.800, -27.200, 1385, 100, 100, 26, 23579, -22788, 5362, 5472, 12, 14, 1529176551.923, 85, 0, 1024, 1024, 1024, 1024, 0, 6, 3962, 3952, 3943, 3952, 3950, 3974, 0, 1, 7600, -89.900, 0.000, -28.000, 0.000, 0.000, -3.100, 0.0, , , , , , 97, , , 65, 65, 65
37.3089298, -119.5776479, 6.200, 12:15:52.023, 14, 0.00, 0.06, 98, 0.100, 1.100, -27.300, 1385, 100, 100, 26, 23579, -22788, 5362, 5472, 12, 14, 1529176552.023, 88, 0, 1024, 1024, 1024, 1024, 0, 6, 3962, 3952, 3943, 3952, 3950, 3974, 0, 1, 7700, -89.900, 0.000, -28.000, 0.000, 0.000, -3.100, 0.0, , , , , , 97, , , 65, 65, 65
37.3089297, -119.5776481, 6.900, 12:15:52.124, 14, 0.00, 0.06, 98, 0.300, 1.600, -27.100, 1385, 100, 100, 26, 23579, -22788, 5362, 5472, 12, 14, 1529176552.124, 94, 0, 1024, 1024, 1024, 1024, 0, 6, 3962, 3952, 3943, 3952, 3950, 3974, 0, 1, 7802, -89.900, 0.000, -28.000, 0.000, 0.000, -3.200, 0.0, , , , , , 97, , , 65, 65, 65
37.3089297, -119.5776481, 6.900, 12:15:52.222, 14, 0.00, 0.06, 98, 0.300, 1.600, -27.100, 1385, 100, 100, 26, 23579, -22788, 5362, 5472, 12, 14, 1529176552.222, 192, 0, 1024, 1024, 1024, 1024, 0, 6, 3962, 3952, 3943, 3952, 3950, 3974, 0, 1, 7900, -89.900, 0.000, -28.000, 0.000, 0.000, -3.200, 0.0, , , , , , 97, , , 65, 65, 65
37.3089295, -119.5776485, 7.500, 12:15:52.324, 13, 0.00, 0.09, 98, 0.500, 1.600, -26.600, 1385, 100, 100, 26, 23579, -22788, 5362, 5472, 12, 14, 1529176552.324, 76, 0, 1024, 1024, 1024, 1024, 0, 6, 3962, 3952, 3943, 3952, 3950, 3974, 0, 1, 8002, -89.900, 0.000, -28.000, 0.000, 0.000, -3.200, 0.0, , , , , , 97, , , 65, 65, 65
37.3089294, -119.5776488, 7.800, 12:15:52.424, 13, 0.00, 0.11, 98, 1.000, 1.500, -26.500, 1385, 100, 100, 26, 23579, -22788, 5362, 5472, 12, 14, 1529176552.424, 69, 0, 1024, 1024, 1024, 1024, 0, 6, 3926, 3936, 3932, 3934, 3939, 3963, 0, 1, 8101, -89.900, 0.000, -28.000, 0.000, 0.000, -3.300, 0.0, , , , , , 97, , , 65, 65, 65
37.3089294, -119.5776489, 8.200, 12:15:52.524, 13, 0.00, 0.12, 98, 1.500, 1.500, -26.400, 1385, 100, 100, 26, 23579, -22788, 5362, 5472, 12, 14, 1529176552.524, 71, 0, 1024, 1024, 1024, 1024, 0, 6, 3926, 3936, 3932, 3934, 3939, 3963, 0, 1, 8202, -89.900, 0.000, -28.000, 0.000, 0.000, -3.300, 0.0, , , , , , 97, , , 65, 65, 65
37.3089293, -119.5776491, 8.500, 12:15:52.624, 14, 0.00, 0.14, 98, 1.500, 1.300, -26.600, 1385, 100, 100, 26, 23579, -22788, 5362, 5472, 12, 14, 1529176552.624, 64, 0, 1024, 1024, 1024, 1024, 0, 6, 3926, 3936, 3932, 3934, 3939, 3963, 0, 1, 8302, -89.900, 0.000, -28.000, 0.000, 0.000, -3.200, 0.0, , , , , , 97, , , 65, 65, 65
37.3089291, -119.5776494, 8.900, 12:15:52.722, 14, 0.00, 0.17, 98, 1.300, 1.000, -26.800, 1385, 100, 100, 26, 23579, -22788, 5362, 5472, 12, 14, 1529176552.723, 68, 0, 1024, 1024, 1024, 1024, 0, 6, 3926, 3936, 3932, 3934, 3939, 3963, 0, 1, 8400, -89.900, 0.000, -28.000, 0.000, 0.000, -3.200, 0.0, , , , , , 97, , , 65, 65, 65
37.3089289, -119.5776496, 9.200, 12:15:52.824, 14, 0.00, 0.19, 98, 1.400, 1.000, -27.000, 1385, 100, 100, 26, 23579, -22788, 5362, 5472, 12, 14, 1529176552.824, 70, 0, 1024, 1024, 1024, 1024, 0, 6, 3926, 3936, 3932, 3934, 3939, 3963, 0, 1, 8502, -89.900, 0.000, -28.000, 0.000, 0.000, -3.100, 0.0, , , , , , 97, , , 65, 65, 65
37.3089288, -119.5776498, 9.500, 12:15:52.924, 14, 0.00, 0.21, 98, 1.700, 1.000, -27.300, 1385, 100, 100, 26, 23579, -22788, 5362, 5472, 12, 14, 1529176552.924, 74, 0, 1024, 1024, 1024, 1024, 0, 6, 3926, 3936, 3932, 3934, 3939, 3963, 0, 1, 8602, -89.900, 0.000, -28.000, 0.000, 0.000, -3.100, 0.0, , , , , , 97, , , 65, 65, 65
37.3089287, -119.5776500, 9.900, 12:15:53.024, 14, 0.00, 0.24, 98, 1.900, 0.900, -27.400, 1385, 100, 100, 26, 23579, -22788, 5362, 5472, 12, 14, 1529176553.024, 44, 0, 1024, 1024, 1024, 1024, 0, 6, 3926, 3936, 3932, 3934, 3939, 3963, 0, 1, 8702, -89.900, 0.000, -28.000, 0.000, 0.000, -3.100, 0.0, , , , , , 97, , , 65, 65, 65
37.3089285, -119.5776503, 10.200, 12:15:53.124, 14, 0.00, 0.27, 98, 2.200, 0.700, -27.400, 1385, 100, 100, 26, 23579, -22788, 5362, 5472, 12, 14, 1529176553.124, 59, 0, 1024, 1024, 1024, 1024, 0, 6, 3926, 3936, 3932, 3934, 3939, 3963, 0, 1, 8802, -89.900, 0.000, -28.000, 0.000, 0.000, -3.000, 0.0, , , , , , 97, , , 65, 65, 65
37.3089283, -119.5776506, 10.500, 12:15:53.222, 14, 0.00, 0.30, 98, 2.700, 0.600, -27.400, 1385, 100, 100, 26, 23579, -22788, 5362, 5472, 12, 14, 1529176553.223, 36, 0, 1024, 1024, 1024, 1024, 0, 6, 3926, 3936, 3932, 3934, 3939, 3963, 0, 1, 8900, -89.900, 0.000, -28.000, 0.000, 0.000, -3.000, 0.0, , , , , , 97, , , 65, 65, 65
37.3089283, -119.5776506, 10.500, 12:15:53.324, 14, 0.00, 0.30, 98, 2.700, 0.600, -27.400, 1385, 100, 100, 26, 23772, -18970, 5362, 5472, 12, 14, 1529176553.324, 138, 0, 1024, 1024, 1024, 1024, 0, 6, 3926, 3936, 3932, 3934, 3939, 3963, 0, 1, 9002, -90.000, 0.000, -28.000, 0.000, 0.000, -3.000, 0.0, , , , , , 97, , , 65, 65, 65
37.3089279, -119.5776510, 11.100, 12:15:53.424, 14, 0.00, 0.35, 98, 2.700, 0.300, -27.200, 1385, 100, 99, 26, 23772, -18970, 5362, 5472, 12, 14, 1529176553.424, 24, 0, 1024, 1024, 1024, 1024, 0, 6, 3963, 3966, 3958, 3967, 3962, 3993, 0, 1, 9102, -90.000, 0.000, -28.000, 0.000, 0.000, -3.000, 0.0, , , , , , 97, , , 65, 65, 65
37.3089277, -119.5776512, 11.400, 12:15:53.524, 14, 0.00, 0.38, 98, 2.600, 0.100, -27.200, 1385, 100, 99, 26, 23772, -18970, 5362, 5472, 12, 14, 1529176553.524, 40, 0, 1024, 1024, 1024, 1024, 0, 6, 3963, 3966, 3958, 3967, 3962, 3993, 0, 1, 9202, -90.000, 0.000, -28.000, 0.000, 0.000, -3.000, 0.0, , , , , , 97, , , 65, 65, 65
37.3089275, -119.5776515, 11.700, 12:15:53.624, 14, 0.00, 0.41, 98, 2.600, 0.000, -27.200, 1385, 100, 99, 26, 23772, -18970, 5362, 5472, 12, 14, 1529176553.624, 29, 0, 1024, 1024, 1024, 1024, 0, 6, 3963, 3966, 3958, 3967, 3962, 3993, 0, 1, 9302, -90.000, 0.000, -28.000, 0.000, 0.000, -3.000, 0.0, , , , , , 97, , , 65, 65, 65
37.3089274, -119.5776516, 12.000, 12:15:53.722, 14, 0.00, 0.42, 98, 2.600, 0.100, -27.100, 1385, 100, 99, 26, 23772, -18970, 5362, 5472, 12, 14, 1529176553.722, 8, 0, 1024, 1024, 1024, 1024, 0, 6, 3963, 3966, 3958, 3967, 3962, 3993, 0, 1, 9400, -89.900, 0.000, -28.000, 0.000, 0.000, -3.000, 0.0, , , , , , 97, , , 65, 65, 65
37.3089273, -119.5776517, 12.300, 12:15:53.823, 13, 0.00, 0.44, 98, 2.500, 0.100, -27.100, 1385, 100, 99, 26, 23772, -18970, 5362, 5472, 12, 14, 1529176553.823, 23, 0, 1024, 1024, 1024, 1024, 0, 6, 3963, 3966, 3958, 3967, 3962, 3993, 0, 1, 9500, -89.900, 0.000, -28.000, 0.000, 0.000, -3.000, 0.0, , , , , , 97, , , 65, 65, 65
37.3089272, -119.5776519, 12.600, 12:15:53.923, 13, 0.00, 0.46, 98, 2.200, 0.100, -27.100, 1385, 100, 97, 26, 23772, -18970, 5362, 5472, 12, 14, 1529176553.923, 15, 0, 1024, 1024, 1024, 1024, 0, 6, 3963, 3966, 3958, 3967, 3962, 3993, 0, 1, 9600, -89.900, 0.000, -28.000, 0.000, 0.000, -2.900, 0.0, , , , , , 97, , , 65, 65, 65
37.3089272, -119.5776520, 12.900, 12:15:54.023, 13, 0.00, 0.47, 98, 2.100, 0.400, -27.000, 1385, 100, 97, 26, 23772, -18970, 5362, 5472, 12, 14, 1529176554.023, 19, 0, 1024, 1024, 1024, 1024, 0, 6, 3963, 3966, 3958, 3967, 3962, 3993, 0, 1, 9700, -89.900, 0.000, -28.000, 0.000, 0.000, -2.900, 0.0, , , , , , 97, , , 65, 65, 65
37.3089271, -119.5776520, 13.200, 12:15:54.123, 13, 0.10, 0.48, 98, 1.800, 0.700, -27.000, 1385, 100, 97, 26, 23772, -18970, 5362, 5472, 12, 14, 1529176554.123, 11, 0, 1024, 1024, 1024, 1024, 0, 6, 3963, 3966, 3958, 3967, 3962, 3993, 0, 1, 9800, -89.900, 0.000, -28.000, 0.100, 0.000, -2.900, 0.0, , , , , , 97, , , 65, 65, 65
37.3089271, -119.5776520, 13.200, 12:15:54.222, 13, 0.10, 0.48, 98, 1.800, 0.700, -27.000, 1385, 100, 97, 26, 23772, -18970, 5362, 5472, 12, 14, 1529176554.222, 111, 0, 1024, 1024, 1024, 1024, 0, 6, 3963, 3966, 3958, 3967, 3962, 3993, 0, 1, 9900, -89.900, 0.000, -28.000, 0.100, 0.000, -2.900, 0.0, , , , , , 97, , , 65, 65, 65
37.3089271, -119.5776521, 13.500, 12:15:54.323, 15, 0.14, 0.48, 98, 1.500, 0.900, -27.100, 1385, 100, 97, 26, 23772, -18970, 5362, 5472, 12, 14, 1529176554.323, 95, 0, 1024, 1024, 1024, 1024, 0, 6, 3963, 3966, 3958, 3967, 3962, 3993, 0, 1, 10000, -89.900, 0.000, -28.000, 0.100, 0.100, -2.900, 0.0, , , , , , 97, , , 65, 65, 65
37.3089270, -119.5776521, 14.100, 12:15:54.425, 15, 0.14, 0.48, 98, 1.400, 1.100, -27.100, 1385, 100, 97, 27, 23905, -17243, 5362, 5472, 12, 14, 1529176554.425, 4, 0, 1024, 1024, 1024, 1024, 0, 6, 3980, 3975, 3971, 3983, 3978, 4002, 0, 1, 10102, -89.900, 0.000, -28.000, 0.100, 0.100, -2.900, 0.0, , , , , , 97, , , 65, 65, 65
37.3089271, -119.5776520, 14.400, 12:15:54.523, 15, 0.14, 0.48, 98, 1.400, 1.000, -27.100, 1385, 100, 97, 27, 23905, -17243, 5362, 5472, 12, 14, 1529176554.523, 96, 0, 1024, 1024, 1024, 1024, 0, 6, 3980, 3975, 3971, 3983, 3978, 4002, 0, 1, 10200, -89.900, 0.000, -28.000, 0.100, 0.100, -2.900, 0.0, , , , , , 97, , , 65, 65, 65
37.3089271, -119.5776520, 14.400, 12:15:54.623, 15, 0.14, 0.48, 98, 1.400, 1.000, -27.100, 1385, 100, 97, 27, 23905, -17243, 5362, 5472, 12, 14, 1529176554.623, 196, 0, 1024, 1024, 1024, 1024, 0, 6, 3980, 3975, 3971, 3983, 3978, 4002, 0, 1, 10300, -89.900, 0.000, -28.000, 0.100, 0.100, -2.900, 0.0, , , , , , 97, , , 65, 65, 65
37.3089271, -119.5776519, 15.000, 12:15:54.722, 15, 0.14, 0.47, 98, 1.200, 0.700, -27.000, 1385, 100, 97, 27, 23905, -17243, 5362, 5472, 12, 14, 1529176554.722, 87, 0, 1024, 1024, 1024, 1024, 0, 6, 3980, 3975, 3971, 3983, 3978, 4002, 0, 1, 10400, -89.900, 0.000, -28.000, 0.100, 0.100, -2.900, 0.0, , , , , , 97, , , 65, 65, 65
37.3089270, -119.5776518, 15.300, 12:15:54.822, 15, 0.14, 0.46, 98, 1.100, 0.500, -27.000, 1385, 100, 97, 27, 23905, -17243, 5362, 5472, 12, 14, 1529176554.823, 70, 0, 1024, 1024, 1024, 1024, 0, 6, 3980, 3975, 3971, 3983, 3978, 4002, 0, 1, 10500, -90.000, 0.000, -28.000, 0.100, 0.100, -2.900, 0.0, , , , , , 97, , , 65, 65, 65
37.3089270, -119.5776517, 15.600, 12:15:54.922, 15, 0.14, 0.45, 98, 1.100, 0.200, -27.000, 1385, 100, 94, 27, 23905, -17243, 5362, 5472, 12, 14, 1529176554.923, 86, 0, 1024, 1024, 1024, 1024, 0, 6, 3980, 3975, 3971, 3983, 3978, 4002, 0, 1, 10600, -90.000, 0.000, -28.000, 0.100, 0.100, -2.900, 0.0, , , , , , 97, , , 65, 65, 65
37.3089271, -119.5776515, 15.900, 12:15:55.023, 15, 0.14, 0.44, 98, 0.900, 0.100, -27.000, 1385, 100, 94, 27, 23905, -17243, 5362, 5472, 12, 14, 1529176555.023, 63, 0, 1024, 1024, 1024, 1024, 0, 6, 3980, 3975, 3971, 3983, 3978, 4002, 0, 1, 10700, -89.900, 0.000, -28.000, 0.100, 0.100, -2.800, 0.0, , , , , , 97, , , 65, 65, 65
37.3089272, -119.5776513, 16.200, 12:15:55.122, 15, 0.22, 0.42, 98, 0.400, 0.100, -27.000, 1385, 100, 94, 27, 23905, -17243, 5362, 5472, 12, 14, 1529176555.123, 82, 0, 1024, 1024, 1024, 1024, 0, 6, 3980, 3975, 3971, 3983, 3978, 4002, 0, 1, 10800, -89.900, 0.000, -28.000, 0.100, 0.200, -2.900, 0.0, , , , , , 97, , , 65, 65, 65
37.3089272, -119.5776511, 16.500, 12:15:55.222, 15, 0.22, 0.40, 98, 0.000, 0.300, -27.000, 1385, 100, 94, 27, 23905, -17243, 5362, 5472, 12, 14, 1529176555.222, 73, 0, 1024, 1024, 1024, 1024, 0, 6, 3980, 3975, 3971, 3983, 3978, 4002, 0, 1, 10900, -89.900, 0.000, -28.000, 0.100, 0.200, -3.000, 0.0, , , , , , 97, , , 65, 65, 65
37.3089273, -119.5776509, 16.800, 12:15:55.322, 15, 0.22, 0.38, 98, -0.200, 0.400, -27.000, 1385, 100, 94, 27, 23776, -18938, 5362, 5472, 12, 14, 1529176555.323, 53, 0, 1024, 1024, 1024, 1024, 0, 6, 3954, 3951, 3940, 3961, 3950, 3982, 0, 1, 11000, -89.900, 0.000, -28.000, 0.100, 0.200, -3.000, 0.0, , , , , , 97, , , 65, 65, 65
37.3089274, -119.5776507, 17.100, 12:15:55.423, 15, 0.14, 0.36, 98, -0.500, 0.400, -27.000, 1385, 100, 95, 27, 23776, -18938, 5362, 5472, 12, 14, 1529176555.423, 70, 0, 1024, 1024, 1024, 1024, 0, 6, 3954, 3951, 3940, 3961, 3950, 3982, 0, 1, 11100, -89.900, 0.000, -28.000, 0.100, 0.100, -3.000, 0.0, , , , , , 97, , , 65, 65, 65
37.3089275, -119.5776506, 17.400, 12:15:55.522, 15, 0.14, 0.35, 98, -0.400, 0.400, -27.000, 1385, 100, 95, 27, 23776, -18938, 5362, 5472, 12, 14, 1529176555.523, 74, 0, 1024, 1024, 1024, 1024, 0, 6, 3954, 3951, 3940, 3961, 3950, 3982, 0, 1, 11200, -89.900, 0.000, -28.000, 0.100, 0.100, -3.000, 0.0, , , , , , 97, , , 65, 65, 65
37.3089276, -119.5776505, 17.700, 12:15:55.622, 15, 0.14, 0.33, 98, -0.200, 0.600, -27.000, 1385, 100, 95, 27, 23776, -18938, 5362, 5472, 12, 14, 1529176555.623, 39, 0, 1024, 1024, 1024, 1024, 0, 6, 3954, 3951, 3940, 3961, 3950, 3982, 0, 1, 11300, -89.900, 0.000, -28.000, 0.100, 0.100, -3.000, 0.0, , , , , , 97, , , 65, 65, 65
37.3089277, -119.5776504, 18.000, 12:15:55.722, 15, 0.14, 0.31, 98, 0.100, 0.800, -27.000, 1385, 100, 95, 27, 23776, -18938, 5362, 5472, 12, 14, 1529176555.722, 43, 0, 1024, 1024, 1024, 1024, 0, 6, 3954, 3951, 3940, 3961, 3950, 3982, 0, 1, 11400, -89.900, 0.000, -28.000, 0.100, 0.100, -3.000, 0.0, , , , , , 97, , , 65, 65, 65
37.3089279, -119.5776502, 18.300, 12:15:55.822, 15, 0.14, 0.30, 98, 0.100, 0.900, -27.000, 1385, 100, 95, 27, 23776, -18938, 5362, 5472, 12, 14, 1529176555.823, 37, 0, 1024, 1024, 1024, 1024, 0, 6, 3954, 3951, 3940, 3961, 3950, 3982, 0, 1, 11500, -89.900, 0.000, -28.000, 0.100, 0.100, -3.000, 0.0, , , , , , 97, , , 65, 65, 65
37.3089280, -119.5776501, 18.600, 12:15:55.922, 15, 0.14, 0.28, 98, 0.000, 1.200, -26.900, 1385, 100, 95, 27, 23776, -18938, 5362, 5472, 12, 14, 1529176555.923, 34, 0, 1024, 1024, 1024, 1024, 0, 6, 3954, 3951, 3940, 3961, 3950, 3982, 0, 1, 11600, -89.900, 0.000, -28.000, 0.100, 0.100, -3.000, 0.0, , , , , , 97, , , 65, 65, 65
37.3089282, -119.5776500, 18.900, 12:15:56.022, 15, 0.14, 0.26, 98, -0.300, 1.500, -26.800, 1385, 100, 95, 27, 23776, -18938, 5362, 5472, 12, 14, 1529176556.023, 38, 0, 1024, 1024, 1024, 1024, 0, 6, 3954, 3951, 3940, 3961, 3950, 3982, 0, 1, 11700, -89.900, 0.000, -28.000, 0.100, 0.100, -3.000, 0.0, , , , , , 97, , , 65, 65, 65
37.3089283, -119.5776498, 19.200, 12:15:56.122, 15, 0.14, 0.24, 98, -0.700, 1.800, -26.800, 1385, 100, 95, 27, 23776, -18938, 5362, 5472, 12, 14, 1529176556.122, 32, 0, 1024, 1024, 1024, 1024, 0, 6, 3954, 3951, 3940, 3961, 3950, 3982, 0, 1, 11799, -89.900, 0.000, -28.000, 0.100, 0.100, -2.900, 0.0, , , , , , 97, , , 65, 65, 65
37.3089285, -119.5776496, 19.500, 12:15:56.222, 15, 0.14, 0.22, 98, -1.000, 1.800, -26.800, 1385, 100, 95, 27, 23776, -18938, 5362, 5472, 12, 14, 1529176556.222, 34, 0, 1024, 1024, 1024, 1024, 0, 6, 3954, 3951, 3940, 3961, 3950, 3982, 0, 1, 11900, -89.900, 0.000, -28.000, 0.100, 0.100, -2.900, 0.0, , , , , , 97, , , 65, 65, 65
37.3089286, -119.5776495, 19.800, 12:15:56.322, 15, 0.14, 0.20, 98, -1.100, 1.900, -27.000, 1385, 100, 95, 27, 23593, -20487, 5362, 5472, 12, 14, 1529176556.323, 38, 0, 1024, 1024, 1024, 1024, 0, 6, 3924, 3922, 3927, 3927, 3930, 3946, 0, 1, 12000, -89.900, 0.000, -28.000, 0.100, 0.100, -3.000, 0.0, , , , , , 97, , , 65, 65, 65
37.3089287, -119.5776494, 20.100, 12:15:56.422, 15, 0.14, 0.18, 98, -0.900, 1.700, -27.100, 1385, 100, 100, 27, 23593, -20487, 5362, 5472, 12, 14, 1529176556.423, 32, 0, 1024, 1024, 1024, 1024, 0, 6, 3924, 3922, 3927, 3927, 3930, 3946, 0, 1, 12100, -89.900, 0.000, -28.000, 0.100, 0.100, -3.000, 0.0, , , , , , 97, , , 65, 65, 65
37.3089288, -119.5776492, 20.400, 12:15:56.522, 15, 0.10, 0.16, 98, -0.800, 1.600, -27.200, 1385, 100, 100, 27, 23593, -20487, 5362, 5472, 12, 14, 1529176556.522, 24, 0, 1024, 1024, 1024, 1024, 0, 6, 3924, 3922, 3927, 3927, 3930, 3946, 0, 1, 12200, -89.900, 0.000, -28.000, 0.100, 0.000, -3.000, 0.0, , , , , , 97, , , 65, 65, 65
37.3089288, -119.5776492, 20.400, 12:15:56.622, 15, 0.10, 0.16, 98, -0.800, 1.600, -27.200, 1385, 100, 100, 27, 23593, -20487, 5362, 5472, 12, 14, 1529176556.623, 124, 0, 1024, 1024, 1024, 1024, 0, 6, 3924, 3922, 3927, 3927, 3930, 3946, 0, 1, 12300, -89.900, 0.000, -28.000, 0.100, 0.000, -3.000, 0.0, , , , , , 97, , , 65, 65, 65
37.3089290, -119.5776489, 21.100, 12:15:56.722, 15, 0.00, 0.13, 98, -0.500, 1.700, -27.300, 1385, 100, 100, 27, 23593, -20487, 5362, 5472, 12, 14, 1529176556.722, 22, 0, 1024, 1024, 1024, 1024, 0, 6, 3924, 3922, 3927, 3927, 3930, 3946, 0, 1, 12400, -89.900, 0.000, -28.000, 0.000, 0.000, -3.000, 0.0, , , , , , 97, , , 65, 65, 65
37.3089291, -119.5776488, 21.400, 12:15:56.822, 15, 0.00, 0.12, 98, -0.700, 1.600, -27.200, 1385, 100, 100, 27, 23593, -20487, 5362, 5472, 12, 14, 1529176556.823, 14, 0, 1024, 1024, 1024, 1024, 0, 6, 3924, 3922, 3927, 3927, 3930, 3946, 0, 1, 12500, -89.900, 0.000, -28.000, 0.000, 0.000, -3.000, 0.0, , , , , , 97, , , 65, 65, 65
37.3089292, -119.5776487, 21.700, 12:15:56.922, 15, 0.00, 0.11, 98, -0.800, 1.500, -27.200, 1385, 100, 98, 27, 23593, -20487, 5362, 5472, 12, 14, 1529176556.923, 4, 0, 1024, 1024, 1024, 1024, 0, 6, 3924, 3922, 3927, 3927, 3930, 3946, 0, 1, 12600, -89.900, 0.000, -28.000, 0.000, 0.000, -2.900, 0.0, , , , , , 97, , , 65, 65, 65
37.3089292, -119.5776486, 22.000, 12:15:57.022, 15, 0.00, 0.10, 98, -1.000, 1.400, -27.100, 1385, 100, 98, 27, 23593, -20487, 5362, 5472, 12, 14, 1529176557.023, 8, 0, 1024, 1024, 1024, 1024, 0, 6, 3924, 3922, 3927, 3927, 3930, 3946, 0, 1, 12700, -89.900, 0.000, -28.000, 0.000, 0.000, -3.000, 0.0, , , , , , 97, , , 65, 65, 65
37.3089292, -119.5776486, 22.000, 12:15:57.123, 15, 0.00, 0.10, 98, -1.000, 1.400, -27.100, 1385, 100, 98, 27, 23593, -20487, 5362, 5472, 12, 14, 1529176557.123, 108, 0, 1024, 1024, 1024, 1024, 0, 6, 3924, 3922, 3927, 3927, 3930, 3946, 0, 1, 12800, -90.000, 0.000, -28.000, 0.000, 0.000, -3.000, 0.0, , , , , , 97, , , 65, 65, 65
37.3089293, -119.5776485, 22.300, 12:15:57.222, 15, 0.00, 0.08, 98, -1.200, 1.100, -27.000, 1385, 100, 98, 27, 23593, -20487, 5362, 5472, 12, 14, 1529176557.222, 98, 0, 1024, 1024, 1024, 1024, 0, 6, 3924, 3922, 3927, 3927, 3930, 3946, 0, 1, 12900, -90.000, 0.000, -28.000, 0.000, 0.000, -3.000, 0.0, , , , , , 97, , , 65, 65, 65
37.3089295, -119.5776483, 22.900, 12:15:57.322, 15, 0.00, 0.07, 98, -1.100, 1.000, -26.700, 1385, 100, 98, 27, 23593, -20487, 5362, 5472, 12, 14, 1529176557.323, 92, 0, 1024, 1024, 1024, 1024, 0, 6, 3924, 3922, 3927, 3927, 3930, 3946, 0, 1, 13000, -89.900, 0.000, -28.000, 0.000, 0.000, -3.000, 0.0, , , , , , 97, , , 65, 65, 65
37.3089295, -119.5776483, 22.900, 12:15:57.421, 15, 0.00, 0.07, 98, -1.100, 1.000, -26.700, 1385, 100, 98, 27, 23570, -20408, 5362, 5472, 12, 14, 1529176557.422, 191, 0, 1024, 1024, 1024, 1024, 0, 6, 3924, 3922, 3927, 3927, 3930, 3946, 0, 1, 13099, -89.900, 0.000, -28.000, 0.000, 0.000, -3.000, 0.0, , , , , , 97, , , 65, 65, 65
37.3089295, -119.5776481, 23.500, 12:15:57.522, 15, 0.00, 0.06, 98, -0.700, 1.600, -26.700, 1385, 100, 98, 27, 23570, -20408, 5362, 5472, 12, 14, 1529176557.523, 82, 0, 1024, 1024, 1024, 1024, 0, 6, 3924, 3922, 3927, 3927, 3930, 3946, 0, 1, 13200, -89.900, 0.000, -28.000, 0.000, 0.000, -2.900, 0.0, , , , , , 97, , , 65, 65, 65
37.3089295, -119.5776481, 23.500, 12:15:57.622, 15, 0.00, 0.06, 98, -0.700, 1.600, -26.700, 1385, 100, 98, 27, 23570, -20408, 5362, 5472, 12, 14, 1529176557.623, 182, 0, 1024, 1024, 1024, 1024, 0, 6, 3924, 3922, 3927, 3927, 3930, 3946, 0, 1, 13300, -89.900, 0.000, -28.000, 0.000, 0.000, -2.900, 0.0, , , , , , 97, , , 65, 65, 65
37.3089297, -119.5776480, 24.100, 12:15:57.722, 15, 0.00, 0.05, 98, -0.700, 1.600, -27.000, 1385, 100, 98, 27, 23570, -20408, 5362, 5472, 12, 14, 1529176557.722, 82, 0, 1024, 1024, 1024, 1024, 0, 6, 3924, 3922, 3927, 3927, 3930, 3946, 0, 1, 13400, -89.900, 0.000, -28.000, 0.000, 0.000, -3.000, 0.0, , , , , , 97, , , 65, 65, 65
37.3089297, -119.5776480, 24.400, 12:15:57.822, 15, 0.00, 0.05, 98, -0.700, 1.700, -27.300, 1385, 100, 98, 27, 23570, -20408, 5362, 5472, 12, 14, 1529176557.823, 51, 0, 1024, 1024, 1024, 1024, 0, 6, 3929, 3918, 3915, 3927, 3922, 3955, 0, 1, 13500, -89.900, 0.000, -28.000, 0.000, 0.000, -2.900, 0.0, , , , , , 97, , , 65, 65, 65
37.3089297, -119.5776480, 24.700, 12:15:57.922, 15, 0.00, 0.05, 98, -0.600, 1.800, -27.500, 1385, 100, 98, 27, 23570, -20408, 5362, 5472, 12, 14, 1529176557.923, 61, 0, 1024, 1024, 1024, 1024, 0, 6, 3929, 3918, 3915, 3927, 3922, 3955, 0, 1, 13600, -89.900, 0.000, -28.000, 0.000, 0.000, -2.900, 0.0, , , , , , 97, , , 65, 65, 65
37.3089297, -119.5776479, 25.000, 12:15:58.022, 15, 0.00, 0.05, 98, -0.500, 1.500, -27.600, 1385, 100, 98, 27, 23570, -20408, 5362, 5472, 12, 14, 1529176558.023, 61, 0, 1024, 1024, 1024, 1024, 0, 6, 3929, 3918, 3915, 3927, 3922, 3955, 0, 1, 13700, -89.900, 0.000, -28.000, 0.000, 0.000, -2.900, 0.0, , , , , , 97, , , 65, 65, 65
37.3089297, -119.5776479, 25.300, 12:15:58.122, 15, 0.00, 0.05, 98, -0.600, 1.200, -27.600, 1385, 100, 98, 27, 23570, -20408, 5362, 5472, 12, 14, 1529176558.123, 42, 0, 1024, 1024, 1024, 1024, 0, 6, 3929, 3918, 3915, 3927, 3922, 3955, 0, 1, 13800, -89.900, 0.000, -28.000, 0.000, 0.000, -2.900, 0.0, , , , , , 97, , , 65, 65, 65
37.3089297, -119.5776479, 25.600, 12:15:58.222, 15, 0.00, 0.05, 98, -0.500, 1.200, -27.400, 1385, 100, 98, 27, 23570, -20408, 5362, 5472, 12, 14, 1529176558.222, 44, 0, 1024, 1024, 1024, 1024, 0, 6, 3929, 3918, 3915, 3927, 3922, 3955, 0, 1, 13900, -89.900, 0.000, -28.000, 0.000, 0.000, -2.900, 0.0, , , , , , 97, , , 65, 65, 65
37.3089297, -119.5776480, 25.900, 12:15:58.322, 15, 0.00, 0.05, 98, -0.300, 1.200, -27.100, 1385, 100, 98, 27, 23570, -20408, 5362, 5472, 12, 14, 1529176558.323, 48, 0, 1024, 1024, 1024, 1024, 0, 6, 3929, 3918, 3915, 3927, 3922, 3955, 0, 1, 14000, -90.000, 0.000, -28.000, 0.000, 0.000, -2.900, 0.0, , , , , , 97, , , 65, 65, 65
37.3089297, -119.5776480, 26.200, 12:15:58.422, 15, 0.00, 0.05, 98, -0.500, 0.900, -26.800, 1385, 100, 100, 27, 23570, -20408, 5362, 5472, 12, 14, 1529176558.423, 54, 0, 1024, 1024, 1024, 1024, 0, 6, 3929, 3918, 3915, 3927, 3922, 3955, 0, 1, 14100, -90.000, 0.000, -28.000, 0.000, 0.000, -2.900, 0.0, , , , , , 97, , , 65, 65, 65
37.3089296, -119.5776480, 26.500, 12:15:58.522, 15, 0.00, 0.05, 98, -0.500, 0.900, -26.800, 1385, 100, 100, 27, 23570, -20408, 5362, 5472, 12, 14, 1529176558.523, 19, 0, 1024, 1024, 1024, 1024, 0, 6, 3929, 3918, 3915, 3927, 3922, 3955, 0, 1, 14200, -90.000, 0.000, -28.000, 0.000, 0.000, -2.900, 0.0, , , , , , 97, , , 65, 65, 65
37.3089296, -119.5776480, 26.800, 12:15:58.622, 15, 0.00, 0.05, 98, 0.000, 0.900, -27.000, 1385, 100, 100, 27, 23570, -20408, 5362, 5472, 12, 14, 1529176558.622, 19, 0, 1024, 1024, 1024, 1024, 0, 6, 3929, 3918, 3915, 3927, 3922, 3955, 0, 1, 14300, -89.900, 0.000, -28.000, 0.000, 0.000, -2.900, 0.0, , , , , , 97, , , 65, 65, 65
37.3089296, -119.5776481, 27.000, 12:15:58.722, 15, 0.00, 0.06, 98, 0.000, 1.200, -27.200, 1385, 100, 100, 27, 23570, -20408, 5362, 5472, 12, 14, 1529176558.722, 24, 0, 1024, 1024, 1024, 1024, 0, 6, 3929, 3918, 3915, 3927, 3922, 3955, 0, 1, 14400, -89.900, 0.000, -28.000, 0.000, 0.000, -3.000, 0.0, , , , , , 97, , , 65, 65, 65
37.3089296, -119.5776482, 27.400, 12:15:58.822, 15, 0.00, 0.06, 98, 0.100, 1.600, -27.400, 1385, 100, 100, 27, 23581, -19942, 5307, 5472, 12, 14, 1529176558.823, 4, 0, 1024, 1024, 1024, 1024, 0, 6, 3920, 3923, 3920, 3926, 3926, 3953, 0, 1, 14500, -89.900, 0.000, -28.000, 0.000, 0.000, -3.000, 0.0, , , , , , 97, , , 65, 65, 65
37.3089296, -119.5776482, 27.700, 12:15:58.922, 15, 0.00, 0.06, 98, 0.000, 1.600, -27.600, 1385, 100, 99, 27, 23581, -19942, 5307, 5472, 12, 14, 1529176558.923, 20, 0, 1024, 1024, 1024, 1024, 0, 6, 3920, 3923, 3920, 3926, 3926, 3953, 0, 1, 14600, -89.900, 0.000, -28.000, 0.000, 0.000, -3.000, 0.0, , , , , , 97, , , 65, 65, 65
37.3089295, -119.5776481, 28.000, 12:15:59.022, 15, 0.00, 0.06, 98, -0.300, 1.400, -27.600, 1385, 100, 99, 27, 23581, -19942, 5307, 5472, 12, 14, 1529176559.022, 11, 0, 1024, 1024, 1024, 1024, 0, 6, 3920, 3923, 3920, 3926, 3926, 3953, 0, 1, 14700, -89.900, 0.000, -28.000, 0.000, 0.000, -3.000, 0.0, , , , , , 97, , , 65, 65, 65
37.3089295, -119.5776481, 28.000, 12:15:59.122, 15, 0.00, 0.06, 98, -0.300, 1.400, -27.600, 1385, 100, 99, 27, 23581, -19942, 5307, 5472, 12, 14, 1529176559.122, 112, 0, 1024, 1024, 1024, 1024, 0, 6, 3920, 3923, 3920, 3926, 3926, 3953, 0, 1, 14800, -89.900, 0.000, -28.000, 0.000, 0.000, -3.000, 0.0, , , , , , 97, , , 65, 65, 65
37.3089295, -119.5776481, 28.600, 12:15:59.222, 15, 0.00, 0.06, 98, -0.500, 0.800, -27.500, 1385, 100, 99, 27, 23581, -19942, 5307, 5472, 12, 14, 1529176559.222, 5, 0, 1024, 1024, 1024, 1024, 0, 6, 3920, 3923, 3920, 3926, 3926, 3953, 0, 1, 14900, -89.900, 0.000, -28.000, 0.000, 0.000, -3.000, 0.0, , , , , , 97, , , 65, 65, 65
37.3089295, -119.5776481, 28.600, 12:15:59.322, 15, 0.00, 0.06, 98, -0.500, 0.800, -27.500, 1385, 100, 99, 27, 23581, -19942, 5307, 5472, 12, 14, 1529176559.322, 106, 0, 1024, 1024, 1024, 1024, 0, 6, 3920, 3923, 3920, 3926, 3926, 3953, 0, 1, 15000, -89.900, 0.000, -28.000, 0.000, 0.000, -3.000, 0.0, , , , , , 97, , , 65, 65, 65
37.3089295, -119.5776481, 28.900, 12:15:59.422, 15, 0.00, 0.06, 98, -0.700, 1.000, -27.200, 1385, 100, 99, 27, 23581, -19942, 5307, 5472, 12, 14, 1529176559.422, 81, 0, 1024, 1024, 1024, 1024, 0, 6, 3920, 3923, 3920, 3926, 3926, 3953, 0, 1, 15100, -89.900, 0.000, -28.000, 0.000, 0.000, -3.000, 0.0, , , , , , 97, , , 65, 65, 65
37.3089295, -119.5776482, 29.500, 12:15:59.522, 15, 0.00, 0.06, 98, -0.500, 1.000, -26.800, 1385, 100, 98, 27, 23581, -19942, 5307, 5472, 12, 14, 1529176559.522, 43, 0, 1024, 1024, 1024, 1024, 0, 6, 3920, 3923, 3920, 3926, 3926, 3953, 0, 1, 15200, -89.900, 0.000, -28.000, 0.000, 0.000, -3.000, 0.0, , , , , , 97, , , 65, 65, 65
37.3089294, -119.5776482, 29.800, 12:15:59.622, 15, 0.00, 0.06, 98, -0.400, 0.900, -26.900, 1385, 100, 98, 27, 23581, -19942, 5307, 5472, 12, 14, 1529176559.622, 63, 0, 1024, 1024, 1024, 1024, 0, 6, 3920, 3923, 3920, 3926, 3926, 3953, 0, 1, 15300, -89.900, 0.000, -28.000, 0.000, 0.000, -2.900, 0.0, , , , , , 97, , , 65, 65, 65
37.3089294, -119.5776482, 30.100, 12:15:59.722, 15, 0.00, 0.06, 98, -0.300, 1.000, -27.100, 1385, 100, 98, 27, 23581, -19942, 5307, 5472, 12, 14, 1529176559.722, 69, 0, 1024, 1024, 1024, 1024, 0, 6, 3920, 3923, 3920, 3926, 3926, 3953, 0, 1, 15400, -89.900, 0.000, -28.000, 0.000, 0.000, -2.900, 0.0, , , , , , 97, , , 65, 65, 65
37.3089293, -119.5776483, 30.400, 12:15:59.822, 15, 0.00, 0.07, 97, -0.100, 1.000, -27.300, 1385, 100, 98, 27, 23579, -19646, 5307, 5472, 12, 14, 1529176559.823, 36, 0, 1024, 1024, 1024, 1024, 0, 6, 3925, 3922, 3920, 3931, 3927, 3947, 0, 1, 15500, -89.900, 0.000, -28.000, 0.000, 0.000, -2.900, 0.0, , , , , , 97, , , 65, 65, 65
37.3089293, -119.5776483, 30.700, 12:15:59.922, 15, 0.00, 0.07, 97, 0.000, 1.000, -27.400, 1385, 100, 97, 27, 23579, -19646, 5307, 5472, 12, 14, 1529176559.922, 53, 0, 1024, 1024, 1024, 1024, 0, 6, 3925, 3922, 3920, 3931, 3927, 3947, 0, 1, 15600, -89.900, 0.000, -28.000, 0.000, 0.000, -2.900, 0.0, , , , , , 97, , , 65, 65, 65
37.3089293, -119.5776484, 31.000, 12:16:00.022, 15, 0.00, 0.08, 97, 0.000, 1.200, -27.400, 1385, 100, 97, 27, 23579, -19646, 5307, 5472, 12, 14, 1529176560.022, 45, 0, 1024, 1024, 1024, 1024, 0, 6, 3925, 3922, 3920, 3931, 3927, 3947, 0, 1, 15700, -89.900, 0.000, -28.000, 0.000, 0.000, -2.900, 0.0, , , , , , 97, , , 65, 65, 65
37.3089293, -119.5776485, 31.300, 12:16:00.122, 15, 0.00, 0.09, 97, 0.000, 1.400, -27.300, 1385, 100, 97, 27, 23579, -19646, 5307, 5472, 12, 14, 1529176560.122, 47, 0, 1024, 1024, 1024, 1024, 0, 6, 3925, 3922, 3920, 3931, 3927, 3947, 0, 1, 15800, -89.900, 0.000, -28.000, 0.000, 0.000, -3.000, 0.0, , , , , , 97, , , 65, 65, 65
37.3089292, -119.5776486, 31.600, 12:16:00.222, 15, 0.00, 0.10, 97, 0.200, 1.500, -27.100, 1385, 100, 97, 27, 23579, -19646, 5307, 5472, 12, 14, 1529176560.222, 51, 0, 1024, 1024, 1024, 1024, 0, 6, 3925, 3922, 3920, 3931, 3927, 3947, 0, 1, 15900, -89.900, 0.000, -28.000, 0.000, 0.000, -3.000, 0.0, , , , , , 97, , , 65, 65, 65
37.3089292, -119.5776486, 31.900, 12:16:00.322, 15, 0.00, 0.10, 97, 0.200, 1.500, -26.900, 1385, 100, 97, 27, 23579, -19646, 5307, 5472, 12, 14, 1529176560.322, 28, 0, 1024, 1024, 1024, 1024, 0, 6, 3925, 3922, 3920, 3931, 3927, 3947, 0, 1, 16000, -89.900, 0.000, -28.000, 0.000, 0.000, -3.000, 0.0, , , , , , 97, , , 65, 65, 65
37.3089291, -119.5776487, 32.300, 12:16:00.422, 15, 0.00, 0.11, 97, 0.100, 1.000, -26.800, 1385, 100, 97, 27, 23579, -19646, 5307, 5472, 12, 14, 1529176560.422, 16, 0, 1024, 1024, 1024, 1024, 0, 6, 3925, 3922, 3920, 3931, 3927, 3947, 0, 1, 16100, -90.000, 0.000, -28.000, 0.000, 0.000, -2.900, 0.0, , , , , , 97, , , 65, 65, 65
37.3089290, -119.5776487, 32.600, 12:16:00.522, 15, 0.00, 0.12, 97, -0.100, 0.800, -26.700, 1385, 100, 97, 27, 23579, -19646, 5307, 5472, 12, 14, 1529176560.522, 6, 0, 1024, 1024, 1024, 1024, 0, 6, 3925, 3922, 3920, 3931, 3927, 3947, 0, 1, 16200, -90.000, 0.000, -28.000, 0.000, 0.000, -3.000, 0.0, , , , , , 97, , , 65, 65, 65
37.3089289, -119.5776488, 32.900, 12:16:00.623, 15, 0.00, 0.12, 97, -0.300, 0.400, -26.500, 1385, 100, 97, 27, 23579, -19646, 5307, 5472, 12, 14, 1529176560.624, 7, 0, 1024, 1024, 1024, 1024, 0, 6, 3925, 3922, 3920, 3931, 3927, 3947, 0, 1, 16301, -90.000, 0.000, -28.000, 0.000, 0.000, -3.000, 0.0, , , , , , 97, , , 65, 65, 65
37.3089288, -119.5776488, 33.200, 12:16:00.722, 15, 0.00, 0.13, 97, -0.100, 0.000, -26.400, 1385, 100, 97, 27, 23579, -19646, 5307, 5472, 12, 14, 1529176560.722, 9, 0, 1024, 1024, 1024, 1024, 0, 6, 3925, 3922, 3920, 3931, 3927, 3947, 0, 1, 16400, -90.000, 0.000, -28.000, 0.000, 0.000, -2.900, 0.0, , , , , , 97, , , 65, 65, 65
37.3089288, -119.5776488, 33.200, 12:16:00.822, 15, 0.00, 0.13, 97, -0.100, 0.000, -26.400, 1385, 100, 97, 27, 23579, -19646, 5307, 5472, 12, 14, 1529176560.822, 109, 0, 1024, 1024, 1024, 1024, 0, 6, 3925, 3922, 3920, 3931, 3927, 3947, 0, 1, 16500, -90.000, 0.000, -28.000, 0.000, 0.000, -2.900, 0.0, , , , , , 97, , , 65, 65, 65
37.3089287, -119.5776489, 33.800, 12:16:00.928, 15, 0.00, 0.15, 97, 0.300, -0.200, -26.600, 1385, 100, 98, 27, 23648, -18226, 5307, 5472, 12, 14, 1529176560.928, 5, 0, 1024, 1024, 1024, 1024, 0, 6, 3942, 3930, 3930, 3947, 3947, 3964, 0, 1, 16606, -89.900, 0.000, -28.000, 0.000, 0.000, -2.800, 0.0, , , , , , 97, , , 65, 65, 65
37.3089287, -119.5776489, 33.800, 12:16:01.022, 15, 0.00, 0.15, 97, 0.300, -0.200, -26.600, 1385, 100, 98, 27, 23648, -18226, 5307, 5472, 12, 14, 1529176561.022, 100, 0, 1024, 1024, 1024, 1024, 0, 6, 3942, 3930, 3930, 3947, 3947, 3964, 0, 1, 16700, -89.900, 0.000, -28.000, 0.000, 0.000, -2.800, 0.0, , , , , , 97, , , 65, 65, 65
37.3089285, -119.5776491, 34.300, 12:16:01.122, 15, 0.00, 0.17, 97, 0.800, 0.500, -26.800, 1385, 100, 98, 27, 23648, -18226, 5307, 5472, 12, 14, 1529176561.122, 85, 0, 1024, 1024, 1024, 1024, 0, 6, 3942, 3930, 3930, 3947, 3947, 3964, 0, 1, 16800, -89.900, 0.000, -28.000, 0.000, 0.000, -2.900, 0.0, , , , , , 97, , , 65, 65, 65
37.3089285, -119.5776491, 34.300, 12:16:01.222, 15, 0.00, 0.17, 97, 0.800, 0.500, -26.800, 1385, 100, 98, 27, 23648, -18226, 5307, 5472, 12, 14, 1529176561.222, 185, 0, 1024, 1024, 1024, 1024, 0, 6, 3942, 3930, 3930, 3947, 3947, 3964, 0, 1, 16900, -89.900, 0.000, -28.000, 0.000, 0.000, -2.900, 0.0, , , , , , 97, , , 65, 65, 65
37.3089284, -119.5776493, 34.900, 12:16:01.322, 15, 0.00, 0.20, 97, 1.100, 0.900, -27.000, 1385, 100, 98, 27, 23648, -18226, 5307, 5472, 12, 14, 1529176561.322, 57, 0, 1024, 1024, 1024, 1024, 0, 6, 3942, 3930, 3930, 3947, 3947, 3964, 0, 1, 17000, -89.900, 0.000, -28.000, 0.000, 0.000, -2.900, 0.0, , , , , , 97, , , 65, 65, 65
37.3089284, -119.5776494, 35.200, 12:16:01.422, 15, 0.00, 0.20, 97, 1.100, 0.900, -27.100, 1385, 100, 99, 27, 23648, -18226, 5307, 5472, 12, 14, 1529176561.422, 77, 0, 1024, 1024, 1024, 1024, 0, 6, 3942, 3930, 3930, 3947, 3947, 3964, 0, 1, 17100, -89.900, 0.000, -28.000, 0.000, 0.000, -2.900, 0.0, , , , , , 97, , , 65, 65, 65
37.3089284, -119.5776494, 35.500, 12:16:01.522, 15, 0.00, 0.21, 97, 1.000, 0.900, -27.100, 1385, 100, 99, 27, 23648, -18226, 5307, 5472, 12, 14, 1529176561.522, 46, 0, 1024, 1024, 1024, 1024, 0, 6, 3942, 3930, 3930, 3947, 3947, 3964, 0, 1, 17200, -89.900, 0.000, -28.000, 0.000, 0.000, -3.000, 0.0, , , , , , 97, , , 65, 65, 65
37.3089284, -119.5776495, 35.800, 12:16:01.622, 15, 0.00, 0.21, 97, 0.900, 0.800, -27.200, 1385, 100, 99, 27, 23648, -18226, 5307, 5472, 12, 14, 1529176561.622, 52, 0, 1024, 1024, 1024, 1024, 0, 6, 3942, 3930, 3930, 3947, 3947, 3964, 0, 1, 17300, -89.900, 0.000, -28.000, 0.000, 0.000, -3.000, 0.0, , , , , , 97, , , 65, 65, 65
37.3089284, -119.5776495, 36.100, 12:16:01.722, 15, 0.00, 0.21, 97, 0.500, 0.700, -27.100, 1385, 100, 99, 27, 23648, -18226, 5307, 5472, 12, 14, 1529176561.722, 53, 0, 1024, 1024, 1024, 1024, 0, 6, 3942, 3930, 3930, 3947, 3947, 3964, 0, 1, 17400, -89.900, 0.000, -28.000, 0.000, 0.000, -2.900, 0.0, , , , , , 97, , , 65, 65, 65
37.3089284, -119.5776495, 36.400, 12:16:01.822, 15, 0.00, 0.21, 97, 0.100, 0.800, -27.000, 1385, 100, 99, 27, 23624, -18145, 5307, 5472, 12, 14, 1529176561.822, 58, 0, 1024, 1024, 1024, 1024, 0, 6, 3927, 3933, 3926, 3936, 3941, 3963, 0, 1, 17500, -89.900, 0.000, -28.000, 0.000, 0.000, -2.900, 0.0, , , , , , 97, , , 65, 65, 65
37.3089283, -119.5776495, 36.700, 12:16:01.922, 15, 0.00, 0.21, 97, 0.000, 1.000, -26.900, 1385, 100, 99, 27, 23624, -18145, 5307, 5472, 12, 14, 1529176561.922, 57, 0, 1024, 1024, 1024, 1024, 0, 6, 3927, 3933, 3926, 3936, 3941, 3963, 0, 1, 17600, -89.900, 0.000, -28.000, 0.000, 0.000, -2.900, 0.0, , , , , , 97, , , 65, 65, 65
37.3089283, -119.5776495, 37.000, 12:16:02.022, 15, 0.00, 0.21, 97, 0.000, 0.800, -26.900, 1385, 100, 99, 27, 23624, -18145, 5307, 5472, 12, 14, 1529176562.022, 58, 0, 1024, 1024, 1024, 1024, 0, 6, 3927, 3933, 3926, 3936, 3941, 3963, 0, 1, 17700, -89.900, 0.000, -28.000, 0.000, 0.000, -2.900, 0.0, , , , , , 97, , , 65, 65, 65
37.3089283, -119.5776495, 37.300, 12:16:02.122, 15, 0.00, 0.21, 97, 0.300, 0.500, -27.000, 1385, 100, 99, 27, 23624, -18145, 5307, 5472, 12, 14, 1529176562.122, 61, 0, 1024, 1024, 1024, 1024, 0, 6, 3927, 3933, 3926, 3936, 3941, 3963, 0, 1, 17800, -89.900, 0.000, -28.000, 0.000, 0.000, -2.900, 0.0, , , , , , 97, , , 65, 65, 65
37.3089283, -119.5776495, 37.600, 12:16:02.222, 15, 0.00, 0.21, 97, 0.500, 0.600, -27.200, 1385, 100, 99, 27, 23624, -18145, 5307, 5472, 12, 14, 1529176562.222, 27, 0, 1024, 1024, 1024, 1024, 0, 6, 3927, 3933, 3926, 3936, 3941, 3963, 0, 1, 17899, -89.900, 0.000, -28.000, 0.000, 0.000, -2.900, 0.0, , , , , , 97, , , 65, 65, 65
37.3089283, -119.5776495, 37.900, 12:16:02.322, 15, 0.00, 0.21, 97, 0.300, 0.600, -27.300, 1385, 100, 99, 27, 23624, -18145, 5307, 5472, 12, 14, 1529176562.322, 35, 0, 1024, 1024, 1024, 1024, 0, 6, 3927, 3933, 3926, 3936, 3941, 3963, 0, 1, 18000, -89.900, 0.000, -28.000, 0.000, 0.000, -3.000, 0.0, , , , , , 97, , , 65, 65, 65
37.3089283, -119.5776494, 38.200, 12:16:02.422, 15, 0.00, 0.21, 97, 0.000, 0.500, -27.300, 1385, 100, 99, 27, 23624, -18145, 5307, 5472, 12, 14, 1529176562.422, 45, 0, 1024, 1024, 1024, 1024, 0, 6, 3927, 3933, 3926, 3936, 3941, 3963, 0, 1, 18100, -89.900, 0.000, -28.000, 0.000, 0.000, -2.900, 0.0, , , , , , 97, , , 65, 65, 65
37.3089283, -119.5776494, 38.500, 12:16:02.521, 15, 0.00, 0.21, 97, -0.200, 0.300, -27.400, 1385, 100, 99, 27, 23624, -18145, 5307, 5472, 12, 14, 1529176562.521, 36, 0, 1024, 1024, 1024, 1024, 0, 6, 3927, 3933, 3926, 3936, 3941, 3963, 0, 1, 18199, -89.900, 0.000, -28.000, 0.000, 0.000, -2.900, 0.0, , , , , , 97, , , 65, 65, 65
37.3089283, -119.5776494, 38.800, 12:16:02.621, 15, 0.00, 0.21, 97, 0.000, 0.200, -27.400, 1385, 100, 99, 27, 23624, -18145, 5307, 5472, 12, 14, 1529176562.622, 26, 0, 1024, 1024, 1024, 1024, 0, 6, 3927, 3933, 3926, 3936, 3941, 3963, 0, 1, 18299, -89.900, 0.000, -28.000, 0.000, 0.000, -2.900, 0.0, , , , , , 97, , , 65, 65, 65
37.3089283, -119.5776494, 39.100, 12:16:02.721, 15, 0.00, 0.21, 97, 0.100, 0.400, -27.500, 1385, 100, 99, 27, 23624, -18145, 5307, 5472, 12, 14, 1529176562.721, 27, 0, 1024, 1024, 1024, 1024, 0, 6, 3927, 3933, 3926, 3936, 3941, 3963, 0, 1, 18399, -89.900, 0.000, -28.000, 0.000, 0.000, -3.000, 0.0, , , , , , 97, , , 65, 65, 65
37.3089283, -119.5776494, 39.400, 12:16:02.831, 15, 0.00, 0.21, 97, 0.000, 0.700, -27.400, 1385, 100, 99, 27, 23612, -18141, 5307, 5472, 12, 14, 1529176562.831, 2, 0, 1024, 1024, 1024, 1024, 0, 6, 3927, 3933, 3926, 3936, 3941, 3963, 0, 1, 18509, -89.900, 0.000, -28.000, 0.000, 0.000, -2.900, 0.0, , , , , , 97, , , 65, 65, 65
37.3089283, -119.5776494, 39.400, 12:16:02.922, 15, 0.00, 0.21, 97, 0.000, 0.700, -27.400, 1385, 100, 99, 27, 23612, -18141, 5307, 5472, 12, 14, 1529176562.922, 93, 0, 1024, 1024, 1024, 1024, 0, 6, 3927, 3933, 3926, 3936, 3941, 3963, 0, 1, 18600, -89.900, 0.000, -28.000, 0.000, 0.000, -2.900, 0.0, , , , , , 97, , , 65, 65, 65
37.3089284, -119.5776493, 40.000, 12:16:03.022, 15, 0.10, 0.20, 97, -0.600, 1.000, -27.300, 1385, 100, 97, 27, 23612, -18141, 5307, 5472, 12, 14, 1529176563.022, 18, 0, 1024, 1024, 1024, 1024, 0, 6, 3927, 3933, 3926, 3936, 3941, 3963, 0, 1, 18700, -89.900, 0.000, -28.000, 0.100, 0.000, -2.900, 0.0, , , , , , 97, , , 65, 65, 65
37.3089284, -119.5776493, 40.000, 12:16:03.122, 15, 0.10, 0.20, 97, -0.600, 1.000, -27.300, 1385, 100, 97, 27, 23612, -18141, 5307, 5472, 12, 14, 1529176563.122, 118, 0, 1024, 1024, 1024, 1024, 0, 6, 3927, 3933, 3926, 3936, 3941, 3963, 0, 1, 18800, -89.900, 0.000, -28.000, 0.100, 0.000, -2.900, 0.0, , , , , , 97, , , 65, 65, 65
37.3089285, -119.5776493, 40.300, 12:16:03.222, 15, 0.10, 0.19, 97, -0.500, 1.100, -27.300, 1385, 100, 97, 27, 23612, -18141, 5307, 5472, 12, 14, 1529176563.222, 98, 0, 1024, 1024, 1024, 1024, 0, 6, 3927, 3933, 3926, 3936, 3941, 3963, 0, 1, 18899, -89.900, 0.000, -28.000, 0.100, 0.000, -2.900, 0.0, , , , , , 97, , , 65, 65, 65
37.3089285, -119.5776492, 40.600, 12:16:03.322, 15, 0.10, 0.18, 97, -0.600, 1.600, -27.300, 1385, 100, 97, 27, 23612, -18141, 5307, 5472, 12, 14, 1529176563.322, 91, 0, 1024, 1024, 1024, 1024, 0, 6, 3927, 3933, 3926, 3936, 3941, 3963, 0, 1, 19000, -89.900, 0.000, -28.000, 0.100, 0.000, -2.900, 0.0, , , , , , 97, , , 65, 65, 65
37.3089286, -119.5776492, 40.900, 12:16:03.422, 15, 0.10, 0.17, 97, -0.900, 2.300, -27.300, 1385, 100, 97, 27, 23612, -18141, 5307, 5472, 12, 14, 1529176563.422, 91, 0, 1024, 1024, 1024, 1024, 0, 6, 3927, 3933, 3926, 3936, 3941, 3963, 0, 1, 19100, -89.900, 0.000, -28.000, 0.100, 0.000, -2.900, 0.0, , , , , , 97, , , 65, 65, 65
37.3089288, -119.5776490, 41.500, 12:16:03.522, 15, 0.14, 0.15, 97, -1.700, 1.500, -27.100, 1385, 100, 98, 27, 23612, -18141, 5307, 5472, 12, 14, 1529176563.522, 75, 0, 1024, 1024, 1024, 1024, 0, 6, 3927, 3933, 3926, 3936, 3941, 3963, 0, 1, 19200, -89.900, 0.000, -28.000, 0.100, 0.100, -2.900, 0.0, , , , , , 97, , , 65, 65, 65
37.3089289, -119.5776489, 41.800, 12:16:03.622, 15, 0.10, 0.14, 97, -2.000, 1.800, -27.000, 1385, 100, 98, 27, 23612, -18141, 5307, 5472, 12, 14, 1529176563.622, 91, 0, 1024, 1024, 1024, 1024, 0, 6, 3927, 3933, 3926, 3936, 3941, 3963, 0, 1, 19300, -89.900, 0.000, -28.000, 0.100, 0.000, -2.900, 0.0, , , , , , 97, , , 65, 65, 65
37.3089290, -119.5776488, 42.100, 12:16:03.722, 15, 0.10, 0.13, 97, -2.100, 2.100, -27.000, 1385, 100, 98, 27, 23612, -18141, 5307, 5472, 12, 14, 1529176563.722, 68, 0, 1024, 1024, 1024, 1024, 0, 6, 3927, 3933, 3926, 3936, 3941, 3963, 0, 1, 19399, -89.900, 0.000, -28.000, 0.100, 0.000, -2.900, 0.0, , , , , , 97, , , 65, 65, 65
37.3089291, -119.5776488, 42.400, 12:16:03.822, 15, 0.10, 0.12, 97, -1.500, 2.400, -27.000, 1385, 100, 98, 27, 23599, -18285, 5307, 5472, 12, 14, 1529176563.822, 50, 0, 1024, 1024, 1024, 1024, 0, 6, 3927, 3933, 3926, 3936, 3941, 3963, 0, 1, 19500, -89.900, 0.000, -28.000, 0.100, 0.000, -2.900, 0.0, , , , , , 97, , , 65, 65, 65
37.3089292, -119.5776487, 42.700, 12:16:03.922, 15, 0.10, 0.11, 97, -1.500, 2.600, -27.100, 1385, 100, 99, 27, 23599, -18285, 5307, 5472, 12, 14, 1529176563.922, 64, 0, 1024, 1024, 1024, 1024, 0, 6, 3927, 3933, 3926, 3936, 3941, 3963, 0, 1, 19600, -89.900, 0.000, -28.000, 0.100, 0.000, -2.900, 0.0, , , , , , 97, , , 65, 65, 65
37.3089293, -119.5776487, 43.000, 12:16:04.022, 15, 0.10, 0.10, 97, -1.400, 2.800, -27.200, 1385, 100, 99, 27, 23599, -18285, 5307, 5472, 12, 14, 1529176564.022, 67, 0, 1024, 1024, 1024, 1024, 0, 6, 3927, 3933, 3926, 3936, 3941, 3963, 0, 1, 19700, -89.900, 0.000, -28.000, 0.100, 0.000, -2.900, 0.0, , , , , , 97, , , 65, 65, 65
37.3089294, -119.5776486, 43.300, 12:16:04.122, 15, 0.10, 0.10, 97, -1.600, 2.400, -27.200, 1385, 100, 99, 27, 23599, -18285, 5307, 5472, 12, 14, 1529176564.122, 60, 0, 1024, 1024, 1024, 1024, 0, 6, 3927, 3933, 3926, 3936, 3941, 3963, 0, 1, 19800, -89.900, 0.000, -28.000, 0.100, 0.000, -2.900, 0.0, , , , , , 97, , , 65, 65, 65
37.3089295, -119.5776486, 43.600, 12:16:04.222, 15, 0.10, 0.10, 97, -2.200, 2.100, -27.200, 1385, 100, 99, 27, 23599, -18285, 5307, 5472, 12, 14, 1529176564.222, 61, 0, 1024, 1024, 1024, 1024, 0, 6, 3927, 3933, 3926, 3936, 3941, 3963, 0, 1, 19899, -89.900, 0.000, -28.000, 0.100, 0.000, -3.000, 0.0, , , , , , 97, , , 65, 65, 65
37.3089296, -119.5776485, 43.900, 12:16:04.322, 15, 0.10, 0.09, 97, -2.600, 2.200, -27.300, 1385, 100, 99, 27, 23599, -18285, 5307, 5472, 12, 14, 1529176564.322, 28, 0, 1024, 1024, 1024, 1024, 0, 6, 3928, 3920, 3927, 3929, 3935, 3951, 0, 1, 20000, -89.900, 0.000, -28.000, 0.100, 0.000, -3.100, 0.0, , , , , , 97, , , 65, 65, 65
37.3089297, -119.5776485, 44.200, 12:16:04.422, 15, 0.10, 0.09, 97, -2.500, 2.600, -27.300, 1385, 100, 100, 27, 23599, -18285, 5307, 5472, 12, 14, 1529176564.422, 35, 0, 1024, 1024, 1024, 1024, 0, 6, 3928, 3920, 3927, 3929, 3935, 3951, 0, 1, 20100, -89.900, 0.000, -28.000, 0.100, 0.000, -3.000, 0.0, , , , , , 97, , , 65, 65, 65
37.3089298, -119.5776485, 44.500, 12:16:04.522, 15, 0.10, 0.10, 97, -2.400, 3.000, -27.200, 1385, 100, 100, 27, 23599, -18285, 5307, 5472, 12, 14, 1529176564.522, 22, 0, 1024, 1024, 1024, 1024, 0, 6, 3928, 3920, 3927, 3929, 3935, 3951, 0, 1, 20200, -89.900, 0.000, -28.000, 0.100, 0.000, -3.000, 0.0, , , , , , 97, , , 65, 65, 65
37.3089299, -119.5776484, 44.800, 12:16:04.622, 15, 0.10, 0.10, 97, -2.300, 3.100, -27.000, 1385, 100, 100, 27, 23599, -18285, 5307, 5472, 12, 14, 1529176564.622, 27, 0, 1024, 1024, 1024, 1024, 0, 6, 3928, 3920, 3927, 3929, 3935, 3951, 0, 1, 20300, -89.900, 0.000, -28.000, 0.100, 0.000, -2.900, 0.0, , , , , , 97, , , 65, 65, 65
37.3089300, -119.5776484, 45.200, 12:16:04.722, 15, 0.10, 0.11, 97, -2.100, 3.100, -26.900, 1385, 100, 100, 27, 23599, -18285, 5307, 5472, 12, 14, 1529176564.722, 16, 0, 1024, 1024, 1024, 1024, 0, 6, 3928, 3920, 3927, 3929, 3935, 3951, 0, 1, 20400, -89.900, 0.000, -28.000, 0.100, 0.000, -2.900, 0.0, , , , , , 97, , , 65, 65, 65
37.3089301, -119.5776485, 45.500, 12:16:04.831, 15, 0.10, 0.12, 97, -1.700, 3.200, -26.800, 1385, 100, 100, 27, 23599, -18285, 5307, 5472, 12, 14, 1529176564.831, 2, 0, 1024, 1024, 1024, 1024, 0, 6, 3928, 3920, 3927, 3929, 3935, 3951, 0, 1, 20509, -89.900, 0.000, -28.000, 0.100, 0.000, -3.000, 0.0, , , , , , 97, , , 65, 65, 65
37.3089302, -119.5776485, 45.800, 12:16:04.922, 15, 0.00, 0.12, 97, -1.800, 3.300, -26.800, 1385, 100, 98, 27, 23599, -18285, 5307, 5472, 12, 14, 1529176564.922, 19, 0, 1024, 1024, 1024, 1024, 0, 6, 3928, 3920, 3927, 3929, 3935, 3951, 0, 1, 20600, -89.900, 0.000, -28.000, 0.000, 0.000, -3.000, 0.0, , , , , , 97, , , 65, 65, 65
37.3089303, -119.5776485, 46.100, 12:16:05.022, 15, 0.00, 0.13, 97, -1.900, 3.400, -26.800, 1385, 100, 98, 27, 23599, -18285, 5307, 5472, 12, 14, 1529176565.022, 14, 0, 1024, 1024, 1024, 1024, 0, 6, 3928, 3920, 3927, 3929, 3935, 3951, 0, 1, 20700, -89.900, 0.000, -28.000, 0.000, 0.000, -3.000, 0.0, , , , , , 97, , , 65, 65, 65
37.3089304, -119.5776485, 46.400, 12:16:05.122, 15, 0.00, 0.14, 97, -1.700, 3.300, -26.900, 1385, 100, 98, 27, 23599, -18285, 5307, 5472, 12, 14, 1529176565.122, 6, 0, 1024, 1024, 1024, 1024, 0, 6, 3928, 3920, 3927, 3929, 3935, 3951, 0, 1, 20800, -89.900, 0.000, -28.000, 0.000, 0.000, -2.900, 0.0, , , , , , 97, , , 65, 65, 65
