latitude,longitude,altitude(feet),ascent(feet),speed(mph),distance(feet),time(millisecond),datetime(utc),satellites,gpslevel,voltage(v),max_altitude(feet),max_ascent(feet),max_speed(mph),max_distance(feet), xSpeed(mph), ySpeed(mph), zSpeed(mph), compass_heading(degrees), pitch(degrees), roll(degrees),isPhoto,isVideo,rc_elevator,rc_aileron,rc_throttle,rc_rudder,gimbal_heading(degrees),gimbal_pitch(degrees),battery_percent,voltageCell1,voltageCell2,voltageCell3,voltageCell4,voltageCell5,voltageCell6,current(A),battery_temperature(f),flycStateRaw,flycState,message
37.3089373,-119.5776511,3578.9858543569,-0.328084,0.223694,0,3040,2018-06-16 18:41:40,13,0,25.64,3578.9858543569,0,0.223694,0,0,0,0,341.9, 0.1, -0.5,1,0,1024,1024,1024,1024,340.5,-89.9,97,4.257,4.254,4.25,4.249,4.253,4.26,3.693,75.2,11,AutoTakeoff,DJI_0718.jpg Starting Mission from Lat/Long: 37.30893/-119.57765 Camera: Zenmuse X3 - Overlap: 90/90 - Active Connection: No
37.3089374,-119.5776512,3578.9858543569,-0.328084,0.223694,0.046618439812,3200,2018-06-16 18:41:41,13,0,25.64,3578.9858543569,0,0.223694,0.046618439812,0,0,0,342, 0.1, 0,0,0,1024,1024,1024,1024,340.5,-89.9,97,4.257,4.254,4.25,4.249,4.253,4.26,3.693,75.2,11,AutoTakeoff,
37.3089375,-119.5776514,3579.3139383569,0,0.223694,0.113594491824,3300,2018-06-16 18:41:41,11,0,25.64,3579.3139383569,0,0.223694,0.113594491824,0,0,-0.223694,342.1, 0.4, 0.6,0,0,1024,1024,1024,1024,340.6,-89.9,97,4.257,4.254,4.25,4.249,4.253,4.26,3.693,75.2,11,AutoTakeoff,
37.3089376,-119.5776516,3579.3139383569,0,0.223694,0.181750990068,3400,2018-06-16 18:41:41,11,0,25.64,3579.3139383569,0,0.223694,0.181750990068,0,0,-0.223694,342.2, 0.4, 0.9,0,0,1024,1024,1024,1024,340.6,-89.9,97,4.257,4.254,4.25,4.249,4.253,4.26,3.693,75.2,11,AutoTakeoff,
37.3089377,-119.5776518,3579.3139383569,0,0.223694,0.250125008004,3500,2018-06-16 18:41:41,11,0,25.64,3579.3139383569,0,0.223694,0.250125008004,0,0,-0.223694,342.2, 0.6, 1.1,0,0,1024,1024,1024,1024,340.6,-89.9,97,4.257,4.254,4.25,4.249,4.253,4.26,3.693,75.2,11,AutoTakeoff,
37.3089378,-119.577652,3579.6420223569,0.328084,0.223694,0.31857612568,3600,2018-06-16 18:41:41,11,0,25.64,3579.6420223569,0.328084,0.223694,0.31857612568,0,0,-0.223694,342.3, 0.8, 1.2,0,0,1024,1024,1024,1024,340.6,-89.9,97,4.257,4.254,4.25,4.249,4.253,4.26,3.693,75.2,11,AutoTakeoff,
37.3089379,-119.5776521,3579.6420223569,0.328084,0.223694,0.3635006678,3700,2018-06-16 18:41:41,11,0,25.64,3579.6420223569,0.328084,0.223694,0.3635006678,0,0,0,342.4, 0.9, 1,0,0,1024,1024,1024,1024,340.6,-89.9,97,4.257,4.254,4.25,4.249,4.253,4.26,3.693,75.2,11,AutoTakeoff,
37.3089379,-119.5776523,3579.9701063569,0.656168,0.223694,0.41132219164,3800,2018-06-16 18:41:41,11,0,25.64,3579.9701063569,0.656168,0.223694,0.41132219164,0,0,0,342.5, 0.8, 0.6,0,0,1024,1024,1024,1024,340.6,-89.9,97,4.257,4.254,4.25,4.249,4.253,4.26,3.693,75.2,11,AutoTakeoff,
37.308938,-119.5776525,3579.9701063569,0.656168,0.223694,0.47987862428,3900,2018-06-16 18:41:41,12,0,25.64,3579.9701063569,0.656168,0.223694,0.47987862428,0,0,0,342.5, 0.6, 0.4,0,0,1024,1024,1024,1024,340.6,-89.9,97,4.257,4.254,4.25,4.249,4.253,4.26,3.693,75.2,11,AutoTakeoff,
37.3089381,-119.5776526,3580.2981903569,0.984252,0.223694,0.52409122412,4000,2018-06-16 18:41:41,12,0,24.775,3580.2981903569,0.984252,0.223694,0.52409122412,0,0,0,342.5, 0.6, 0.6,0,0,1024,1024,1024,1024,340.7,-89.9,97,4.108,4.071,4.093,4.075,4.072,4.106,10.739,75.2,11,AutoTakeoff,
37.3089382,-119.5776528,3580.2981903569,0.984252,0.223694,0.5926181292,4100,2018-06-16 18:41:41,11,0,24.775,3580.2981903569,0.984252,0.223694,0.5926181292,0,0,0,342.3, 0.8, 0.8,0,0,1024,1024,1024,1024,340.7,-89.9,97,4.108,4.071,4.093,4.075,4.072,4.106,10.739,75.2,11,AutoTakeoff,
37.3089382,-119.5776529,3580.6262743569,1.312336,0.223694,0.61698492788,4200,2018-06-16 18:41:42,11,0,24.775,3580.6262743569,1.312336,0.223694,0.61698492788,0,0,0,342.2, 1, 0.7,0,0,1024,1024,1024,1024,340.7,-89.9,97,4.108,4.071,4.093,4.075,4.072,4.106,10.739,75.2,11,AutoTakeoff,
37.3089383,-119.5776531,3580.6262743569,1.312336,0,0.68553807968,4300,2018-06-16 18:41:42,11,0,24.775,3580.6262743569,1.312336,0.223694,0.68553807968,0,0,0,342.1, 1, 0.9,0,0,1024,1024,1024,1024,340.7,-89.9,97,4.108,4.071,4.093,4.075,4.072,4.106,10.739,75.2,11,AutoTakeoff,
37.3089383,-119.5776532,3580.9543583569,1.64042,0,0.71027561328,4400,2018-06-16 18:41:42,11,0,24.775,3580.9543583569,1.64042,0.223694,0.71027561328,0,0,0,342, 0.8, 0.9,0,0,1024,1024,1024,1024,340.7,-89.9,97,4.108,4.071,4.093,4.075,4.072,4.106,10.739,75.2,11,AutoTakeoff,
37.3089384,-119.5776533,3580.9543583569,1.64042,0,0.75409451232,4500,2018-06-16 18:41:42,12,0,24.775,3580.9543583569,1.64042,0.223694,0.75409451232,0,0,0,341.9, 0.8, 1.1,0,0,1024,1024,1024,1024,340.7,-89.9,97,4.108,4.071,4.093,4.075,4.072,4.106,10.739,75.2,11,AutoTakeoff,
37.3089384,-119.5776534,3581.2824423569,1.968504,0,0.77881564172,4600,2018-06-16 18:41:42,12,0,24.775,3581.2824423569,1.968504,0.223694,0.77881564172,0,0,0,341.8, 1, 1.3,0,0,1024,1024,1024,1024,340.8,-89.9,97,4.108,4.071,4.093,4.075,4.072,4.106,10.739,75.2,11,AutoTakeoff,
37.3089384,-119.5776536,3581.2824423569,1.968504,0,0.82909451472,4700,2018-06-16 18:41:42,12,0,24.775,3581.2824423569,1.968504,0.223694,0.82909451472,0,0,0,341.8, 1.2, 1.5,0,0,1024,1024,1024,1024,340.8,-89.9,97,4.108,4.071,4.093,4.075,4.072,4.106,10.739,75.2,11,AutoTakeoff,
37.3089384,-119.5776537,3581.6105263569,2.296588,0,0.85460304572,4800,2018-06-16 18:41:42,12,0,24.775,3581.6105263569,2.296588,0.223694,0.85460304572,0,0,0,341.8, 1.3, 1.6,0,0,1024,1024,1024,1024,340.8,-89.9,97,4.108,4.071,4.093,4.075,4.072,4.106,10.739,75.2,11,AutoTakeoff,
37.3089384,-119.5776537,3581.6105263569,2.296588,0,0.85460304572,4900,2018-06-16 18:41:42,13,0,24.775,3581.6105263569,2.296588,0.223694,0.85460304572,0,0,0,341.8, 1.2, 1.7,0,0,1024,1024,1024,1024,340.8,-89.9,97,4.108,4.071,4.093,4.075,4.072,4.106,10.739,75.2,11,AutoTakeoff,
37.3089384,-119.5776538,3581.9386103569,2.624672,0,0.88032811216,5000,2018-06-16 18:41:42,13,0,24.291,3581.9386103569,2.624672,0.223694,0.88032811216,0,0,0,341.8, 1, 1.7,0,0,1024,1024,1024,1024,340.8,-89.9,97,4.021,4.045,4.044,4.028,4.034,4.05,15.778,75.2,11,AutoTakeoff,
37.3089385,-119.5776537,3582.2666943569,2.952756,0,0.87232942424,5100,2018-06-16 18:41:42,13,0,24.291,3582.2666943569,2.952756,0.223694,0.88032811216,0,0,-0.223694,341.8, 1.1, 1.8,0,0,1024,1024,1024,1024,340.8,-89.9,97,4.021,4.045,4.044,4.028,4.034,4.05,15.778,75.2,11,AutoTakeoff,
37.3089384,-119.5776537,3582.2666943569,2.952756,0,0.85460304572,5200,2018-06-16 18:41:43,13,0,24.291,3582.2666943569,2.952756,0.223694,0.88032811216,0,0,0,341.8, 1.3, 1.7,0,0,1024,1024,1024,1024,340.8,-89.9,97,4.021,4.045,4.044,4.028,4.034,4.05,15.778,75.2,14,Waypoint,
37.3089383,-119.5776538,3582.5947783569,3.28084,0,0.8643044896,5400,2018-06-16 18:41:43,11,0,24.291,3582.5947783569,3.28084,0.223694,0.88032811216,0,0,0,341.6, -0.1, 0.3,0,0,1024,1024,1024,1024,340.8,-90,97,4.021,4.045,4.044,4.028,4.034,4.05,15.778,75.2,14,Waypoint,
37.3089383,-119.5776538,3582.5947783569,3.28084,0,0.8643044896,5500,2018-06-16 18:41:43,11,0,24.291,3582.5947783569,3.28084,0.223694,0.88032811216,0,0,0,341.6, -0.1, 0.3,0,0,1024,1024,1024,1024,340.8,-90,97,4.021,4.045,4.044,4.028,4.034,4.05,15.778,75.2,14,Waypoint,
37.3089383,-119.5776538,3582.5947783569,3.28084,0,0.8643044896,5600,2018-06-16 18:41:43,11,0,24.291,3582.5947783569,3.28084,0.223694,0.88032811216,0,0,0,341.5, -0.6, 0,0,0,1024,1024,1024,1024,340.8,-90,97,4.021,4.045,4.044,4.028,4.034,4.05,15.778,75.2,14,Waypoint,
37.3089382,-119.5776538,3582.5947783569,3.28084,0,0.84954727128,5700,2018-06-16 18:41:43,12,0,24.291,3582.5947783569,3.28084,0.223694,0.88032811216,0,0,0,341.5, -0.7, 0.2,0,0,1024,1024,1024,1024,340.8,-90,97,4.021,4.045,4.044,4.028,4.034,4.05,15.778,75.2,14,Waypoint,
37.3089382,-119.5776538,3582.9228623569,3.608924,0,0.84954727128,5800,2018-06-16 18:41:43,12,0,24.291,3582.9228623569,3.608924,0.223694,0.88032811216,0,0,-0.223694,341.5, -0.4, 0.7,0,0,1024,1024,1024,1024,340.8,-90,97,4.021,4.045,4.044,4.028,4.034,4.05,15.778,75.2,14,Waypoint,
37.3089382,-119.5776539,3583.2509463569,3.937008,0,0.87638454248,5900,2018-06-16 18:41:43,12,0,24.291,3583.2509463569,3.937008,0.223694,0.88032811216,0,0,-0.223694,341.5, 0, 0.9,0,0,1024,1024,1024,1024,340.8,-89.9,97,4.021,4.045,4.044,4.028,4.034,4.05,15.778,75.2,14,Waypoint,
37.3089381,-119.5776539,3583.2509463569,3.937008,0,0.86337601188,6000,2018-06-16 18:41:43,12,0,24.109,3583.2509463569,3.937008,0.223694,0.88032811216,0,0,-0.223694,341.4, 0.1, 1,0,0,1024,1024,1024,1024,340.8,-89.9,97,3.989,4.019,4.025,4.005,4.017,4.033,16.403,75.2,14,Waypoint,
37.3089381,-119.577654,3583.5790303569,4.265092,0,0.89074149832,6100,2018-06-16 18:41:43,12,0,24.109,3583.5790303569,4.265092,0.223694,0.89074149832,0,0,-0.223694,341.3, 0, 1.1,0,0,1024,1024,1024,1024,340.8,-90,97,3.989,4.019,4.025,4.005,4.017,4.033,16.403,75.2,14,Waypoint,
37.3089381,-119.5776541,3583.9071143569,4.593176,0,0.9182086908,6200,2018-06-16 18:41:44,12,0,24.109,3583.9071143569,4.593176,0.223694,0.9182086908,0,0,-0.223694,341.3, 0, 1.3,0,0,1024,1024,1024,1024,340.8,-90,97,3.989,4.019,4.025,4.005,4.017,4.033,16.403,75.2,14,Waypoint,
37.3089381,-119.5776541,3584.2351983569,4.92126,0,0.9182086908,6300,2018-06-16 18:41:44,12,0,24.109,3584.2351983569,4.92126,0.223694,0.9182086908,0,0,-0.223694,341.2, 0, 1.4,0,0,1024,1024,1024,1024,340.8,-90,97,3.989,4.019,4.025,4.005,4.017,4.033,16.403,75.2,14,Waypoint,
37.3089381,-119.5776541,3584.8913663569,5.577428,0,0.9182086908,6400,2018-06-16 18:41:44,12,0,24.109,3584.8913663569,5.577428,0.223694,0.9182086908,0,0,-0.447388,341.2, 0.1, 1.3,0,0,1024,1024,1024,1024,340.8,-89.9,97,3.989,4.019,4.025,4.005,4.017,4.033,16.403,75.2,14,Waypoint,
37.3089382,-119.5776541,3585.5475343569,6.233596,0,0.93044950484,6500,2018-06-16 18:41:44,13,0,24.109,3585.5475343569,6.233596,0.223694,0.93044950484,0,0,-0.447388,341.2, 0.3, 1,0,0,1024,1024,1024,1024,340.8,-89.9,97,3.989,4.019,4.025,4.005,4.017,4.033,16.403,75.2,14,Waypoint,
37.3089383,-119.5776541,3586.2037023569,6.889764,0,0.94394031892,6600,2018-06-16 18:41:44,13,0,24.109,3586.2037023569,6.889764,0.223694,0.94394031892,0,0,-0.447388,341.2, 0.6, 0.6,0,0,1024,1024,1024,1024,340.8,-89.9,97,3.989,4.019,4.025,4.005,4.017,4.033,16.403,75.2,14,Waypoint,
37.3089384,-119.577654,3586.8598703569,7.545932,0,0.93235895372,6700,2018-06-16 18:41:44,11,0,24.109,3586.8598703569,7.545932,0.223694,0.94394031892,0,0,-0.447388,341.3, 0.7, 0,0,0,1024,1024,1024,1024,340.8,-89.9,97,3.989,4.019,4.025,4.005,4.017,4.033,16.403,75.2,14,Waypoint,
37.3089384,-119.5776539,3587.5160383569,8.2021,0,0.90625330984,6800,2018-06-16 18:41:44,11,0,24.109,3587.5160383569,8.2021,0.223694,0.94394031892,0,0,-0.671082,341.6, 0.8, 0,0,0,1024,1024,1024,1024,340.8,-89.9,97,3.989,4.019,4.025,4.005,4.017,4.033,16.403,75.2,14,Waypoint,
37.3089386,-119.5776538,3588.5002903569,9.186352,0,0.91589897944,6900,2018-06-16 18:41:44,11,0,24.109,3588.5002903569,9.186352,0.223694,0.94394031892,0,0,-0.671082,341.9, 0.8, 0.2,0,0,1024,1024,1024,1024,340.8,-89.9,97,3.989,4.019,4.025,4.005,4.017,4.033,16.403,75.2,14,Waypoint,
37.3089389,-119.5776537,3589.4845423569,10.170604,0,0.95396656596,7000,2018-06-16 18:41:44,11,0,23.953,3589.4845423569,10.170604,0.223694,0.95396656596,0,0,-0.671082,342.2, 0.7, 0.1,0,0,1024,1024,1024,1024,340.8,-89.9,97,3.989,4.019,4.025,4.005,4.017,4.033,18.002,75.2,14,Waypoint,
37.3089392,-119.5776534,3591.7811303569,12.467192,0,0.9623031804,7100,2018-06-16 18:41:44,13,0,23.953,3591.7811303569,12.467192,0.223694,0.9623031804,0,0,-0.671082,342.4, 1.3, 0,0,0,1024,1024,1024,1024,340.8,-89.9,97,3.989,4.019,4.025,4.005,4.017,4.033,18.002,75.2,14,Waypoint,
37.3089393,-119.5776531,3592.7653823569,13.451444,0,0.93236879624,7200,2018-06-16 18:41:45,12,0,23.953,3592.7653823569,13.451444,0.223694,0.9623031804,0,0,-0.671082,342.2, 1.3, -0.1,0,0,1024,1024,1024,1024,340.8,-89.9,97,3.989,4.019,4.025,4.005,4.017,4.033,18.002,75.2,14,Waypoint,
37.3089393,-119.5776528,3594.0777183569,14.76378,0,0.88081367648,7300,2018-06-16 18:41:45,12,0,23.953,3594.0777183569,14.76378,0.223694,0.9623031804,0,0,-0.671082,342, 1, -0.3,0,0,1024,1024,1024,1024,340.8,-89.9,97,3.989,4.019,4.025,4.005,4.017,4.033,18.002,75.2,14,Waypoint,
37.3089394,-119.5776526,3595.0619703569,15.748032,0,0.8812008156,7400,2018-06-16 18:41:45,12,0,23.953,3595.0619703569,15.748032,0.223694,0.9623031804,0,0,-0.671082,341.8, 0.6, -0.5,0,0,1024,1024,1024,1024,340.8,-90,97,3.989,4.019,4.025,4.005,4.017,4.033,18.002,75.2,14,Waypoint,
37.3089395,-119.5776526,3596.3743063569,17.060368,0,0.91310042292,7500,2018-06-16 18:41:45,12,0,23.953,3596.3743063569,17.060368,0.223694,0.9623031804,0,0,-0.671082,341.7, 0.4, -0.7,0,0,1024,1024,1024,1024,340.8,-90,97,3.989,4.019,4.025,4.005,4.017,4.033,18.002,75.2,14,Waypoint,
37.3089395,-119.5776526,3597.3585583569,18.04462,0,0.91310042292,7700,2018-06-16 18:41:45,13,0,23.953,3597.3585583569,18.04462,0.223694,0.9623031804,0,0,-0.671082,341.6, 0.5, -0.5,0,0,1024,1024,1024,1024,340.8,-89.9,97,3.989,4.019,4.025,4.005,4.017,4.033,18.002,75.2,14,Waypoint,
37.3089394,-119.5776526,3598.6708943569,19.356956,0,0.8812008156,7800,2018-06-16 18:41:45,13,0,23.953,3598.6708943569,19.356956,0.223694,0.9623031804,0,0,-0.671082,341.5, 0.4, -0.4,0,0,1024,1024,1024,1024,340.8,-90,97,3.989,4.019,4.025,4.005,4.017,4.033,18.002,75.2,14,Waypoint,
37.3089394,-119.5776527,3599.6551463569,20.341208,0,0.89589241712,7900,2018-06-16 18:41:45,13,0,23.953,3599.6551463569,20.341208,0.223694,0.9623031804,0,0,-0.671082,341.3, 0.2, 0,0,0,1024,1024,1024,1024,340.8,-90,97,3.989,4.019,4.025,4.005,4.017,4.033,18.002,75.2,14,Waypoint,
37.3089393,-119.5776528,3600.6393983569,21.32546,0,0.88081367648,8000,2018-06-16 18:41:45,13,0,23.953,3600.6393983569,21.32546,0.223694,0.9623031804,0,0,-0.671082,341.3, 0.2, 0.5,0,0,1024,1024,1024,1024,340.8,-89.9,97,3.918,3.957,3.957,3.961,3.954,4.013,18.002,77,14,Waypoint,
37.3089392,-119.577653,3601.6236503569,22.309712,0,0.88574805984,8100,2018-06-16 18:41:45,14,0,23.953,3601.6236503569,22.309712,0.223694,0.9623031804,0,0,-0.671082,341.3, 0.3, 0.7,0,0,1024,1024,1024,1024,340.8,-89.9,97,3.918,3.957,3.957,3.961,3.954,4.013,18.002,77,14,Waypoint,
37.308939,-119.5776531,3602.6079023569,23.293964,0,0.8494422844,8200,2018-06-16 18:41:46,14,0,23.953,3602.6079023569,23.293964,0.223694,0.9623031804,0,0,-0.671082,341.4, 0.1, 0.7,0,0,1024,1024,1024,1024,340.8,-90,97,3.918,3.957,3.957,3.961,3.954,4.013,18.002,77,14,Waypoint,
37.3089388,-119.5776533,3603.9202383569,24.6063,0,0.84088913452,8300,2018-06-16 18:41:46,15,0,23.953,3603.9202383569,24.6063,0.223694,0.9623031804,0,0,-0.671082,341.5, -0.1, 0.9,0,0,1024,1024,1024,1024,340.8,-90,97,3.918,3.957,3.957,3.961,3.954,4.013,18.002,77,14,Waypoint,
37.3089386,-119.5776534,3604.9044903569,25.590552,0,0.81880908132,8400,2018-06-16 18:41:46,15,0,23.953,3604.9044903569,25.590552,0.223694,0.9623031804,0,0,-0.671082,341.7, -0.3, 1.2,0,0,1024,1024,1024,1024,340.8,-90,97,3.918,3.957,3.957,3.961,3.954,4.013,18.002,77,14,Waypoint,
37.3089384,-119.5776537,3605.8887423569,26.574804,0,0.85460304572,8500,2018-06-16 18:41:46,15,0,23.953,3605.8887423569,26.574804,0.223694,0.9623031804,0,0,-0.671082,341.8, -0.5, 1.4,0,0,1024,1024,1024,1024,340.8,-90,97,3.918,3.957,3.957,3.961,3.954,4.013,18.002,77,14,Waypoint,
37.3089382,-119.577654,3606.8729943569,27.559056,0.223694,0.90335304728,8600,2018-06-16 18:41:46,15,0,23.953,3606.8729943569,27.559056,0.223694,0.9623031804,0,0,-0.671082,341.9, -0.5, 1.9,0,0,1024,1024,1024,1024,340.8,-90,97,3.918,3.957,3.957,3.961,3.954,4.013,18.002,77,14,Waypoint,
37.308938,-119.5776542,3608.1853303569,28.871392,0.223694,0.93515094856,8700,2018-06-16 18:41:46,15,0,23.953,3608.1853303569,28.871392,0.223694,0.9623031804,0,0,-0.671082,341.9, -0.4, 2.1,0,0,1024,1024,1024,1024,340.8,-90,97,3.918,3.957,3.957,3.961,3.954,4.013,18.002,77,14,Waypoint,
37.3089379,-119.5776545,3609.1695823569,29.855644,0,1.01064963864,8800,2018-06-16 18:41:46,15,0,23.953,3609.1695823569,29.855644,0.223694,1.01064963864,0,0,-0.671082,341.8, -0.4, 2.4,0,0,1024,1024,1024,1024,340.8,-90,97,3.918,3.957,3.957,3.961,3.954,4.013,18.002,77,14,Waypoint,
37.3089377,-119.5776546,3610.1538343569,30.839896,0,1.02610895672,8900,2018-06-16 18:41:46,15,0,23.953,3610.1538343569,30.839896,0.223694,1.02610895672,0,0,-0.671082,341.8, -0.4, 2.4,0,0,1024,1024,1024,1024,340.8,-90,97,3.918,3.957,3.957,3.961,3.954,4.013,18.002,77,14,Waypoint,
37.3089376,-119.5776546,3611.1380863569,31.824148,0,1.02155843164,9000,2018-06-16 18:41:46,15,0,23.408,3611.1380863569,31.824148,0.223694,1.02610895672,0,0,-0.671082,341.7, -0.7, 2.2,0,0,1024,1024,1024,1024,340.8,-90,97,3.892,3.897,3.927,3.883,3.889,3.922,23.682,77,14,Waypoint,
37.3089374,-119.5776546,3612.1223383569,32.8084,0,1.01633205352,9100,2018-06-16 18:41:46,15,0,23.408,3612.1223383569,32.8084,0.223694,1.02610895672,0,0,-0.671082,341.7, -1, 1.9,0,0,1024,1024,1024,1024,340.8,-90,97,3.892,3.897,3.927,3.883,3.889,3.922,23.682,77,14,Waypoint,
37.3089373,-119.5776546,3613.1065903569,33.792652,0,1.01567588552,9200,2018-06-16 18:41:47,15,0,23.408,3613.1065903569,33.792652,0.223694,1.02610895672,0,0,-0.671082,341.7, -1, 1.6,0,0,1024,1024,1024,1024,340.8,-89.9,97,3.892,3.897,3.927,3.883,3.889,3.922,23.682,77,14,Waypoint,
37.3089373,-119.5776547,3614.0908423569,34.776904,0,1.04469819616,9300,2018-06-16 18:41:47,13,0,23.408,3614.0908423569,34.776904,0.223694,1.04469819616,0,0,-0.671082,341.7, -0.9, 1.5,0,0,1024,1024,1024,1024,340.8,-89.9,97,3.892,3.897,3.927,3.883,3.889,3.922,23.682,77,14,Waypoint,
37.3089372,-119.5776547,3615.0750943569,35.761156,0,1.04533467912,9400,2018-06-16 18:41:47,13,0,23.408,3615.0750943569,35.761156,0.223694,1.04533467912,0,0,-0.671082,341.7, -0.7, 1.5,0,0,1024,1024,1024,1024,340.8,-90,97,3.892,3.897,3.927,3.883,3.889,3.922,23.682,77,14,Waypoint,
37.3089371,-119.5776548,3616.3874303569,37.073492,0,1.07619426016,9500,2018-06-16 18:41:47,15,0,23.408,3616.3874303569,37.073492,0.223694,1.07619426016,0,0,-0.671082,341.7, -0.7, 1.6,0,0,1024,1024,1024,1024,340.8,-90,97,3.892,3.897,3.927,3.883,3.889,3.922,23.682,77,14,Waypoint,
37.308937,-119.5776549,3617.3716823569,38.057744,0,1.1081529226,9600,2018-06-16 18:41:47,15,0,23.408,3617.3716823569,38.057744,0.223694,1.1081529226,0,0,-0.671082,341.7, -0.8, 1.6,0,0,1024,1024,1024,1024,340.8,-90,97,3.892,3.897,3.927,3.883,3.889,3.922,23.682,77,14,Waypoint,
37.308937,-119.577655,3618.3559343569,39.041996,0,1.13703415712,9700,2018-06-16 18:41:47,15,0,23.408,3618.3559343569,39.041996,0.223694,1.13703415712,0,0,-0.671082,341.6, -0.8, 1.7,0,0,1024,1024,1024,1024,340.8,-90,97,3.892,3.897,3.927,3.883,3.889,3.922,23.682,77,14,Waypoint,
37.3089368,-119.5776551,3620.3244383569,41.0105,0,1.17502300348,9800,2018-06-16 18:41:47,15,0,23.408,3620.3244383569,41.0105,0.223694,1.17502300348,0,0,-0.671082,341.6, -0.6, 2,0,0,1024,1024,1024,1024,340.8,-90,97,3.892,3.897,3.927,3.883,3.889,3.922,23.682,77,14,Waypoint,
37.3089368,-119.5776551,3620.3244383569,41.0105,0,1.17502300348,9900,2018-06-16 18:41:47,15,0,23.408,3620.3244383569,41.0105,0.223694,1.17502300348,0,0,-0.671082,341.6, -0.6, 2,0,0,1024,1024,1024,1024,340.8,-90,97,3.892,3.897,3.927,3.883,3.889,3.922,23.682,77,14,Waypoint,
37.3089367,-119.5776553,3622.2929423569,42.979004,0,1.23831696876,10000,2018-06-16 18:41:47,15,0,23.721,3622.2929423569,42.979004,0.223694,1.23831696876,0,0,-0.671082,341.6, -0.4, 2.2,0,0,1024,1024,1024,1024,340.8,-89.9,97,3.926,3.963,3.956,3.948,3.963,3.969,18.225,77,14,Waypoint,
37.3089367,-119.5776553,3623.2771943569,43.963256,0,1.23831696876,10100,2018-06-16 18:41:47,15,0,23.721,3623.2771943569,43.963256,0.223694,1.23831696876,0,0,-0.671082,341.5, -0.3, 1.9,0,0,1024,1024,1024,1024,340.8,-89.9,97,3.926,3.963,3.956,3.948,3.963,3.969,18.225,77,14,Waypoint,
37.3089368,-119.5776552,3624.2614463569,44.947508,0,1.20369754508,10200,2018-06-16 18:41:48,15,0,23.721,3624.2614463569,44.947508,0.223694,1.23831696876,0,0,-0.671082,341.5, -0.3, 1.5,0,0,1024,1024,1024,1024,340.8,-89.9,97,3.926,3.963,3.956,3.948,3.963,3.969,18.225,77,14,Waypoint,
37.3089369,-119.5776551,3625.2456983569,45.93176,0,1.16991145476,10400,2018-06-16 18:41:48,15,0,23.721,3625.2456983569,45.93176,0.223694,1.23831696876,0,0,-0.671082,341.6, -0.3, 1.1,0,0,1024,1024,1024,1024,340.8,-90,97,3.926,3.963,3.956,3.948,3.963,3.969,18.225,77,14,Waypoint,
37.308937,-119.577655,3626.2299503569,46.916012,0,1.13703415712,10500,2018-06-16 18:41:48,16,0,23.721,3626.2299503569,46.916012,0.223694,1.23831696876,0,0,-0.671082,341.6, -0.1, 0.8,0,0,1024,1024,1024,1024,340.8,-90,97,3.926,3.963,3.956,3.948,3.963,3.969,18.225,77,14,Waypoint,
37.308937,-119.577655,3627.2142023569,47.900264,0,1.13703415712,10600,2018-06-16 18:41:48,16,0,23.721,3627.2142023569,47.900264,0.223694,1.23831696876,0,0,-0.671082,341.6, 0, 0.7,0,0,1024,1024,1024,1024,340.8,-89.9,97,3.926,3.963,3.956,3.948,3.963,3.969,18.225,77,14,Waypoint,
37.3089371,-119.577655,3628.1984543569,48.884516,0,1.134104367,10700,2018-06-16 18:41:48,15,0,23.721,3628.1984543569,48.884516,0.223694,1.23831696876,0,0,-0.671082,341.6, 0.1, 0.8,0,0,1024,1024,1024,1024,340.8,-90,97,3.926,3.963,3.956,3.948,3.963,3.969,18.225,77,14,Waypoint,
37.3089372,-119.577655,3629.1827063569,49.868768,0,1.13234255592,10800,2018-06-16 18:41:48,15,0,23.721,3629.1827063569,49.868768,0.223694,1.23831696876,0,0,-0.671082,341.6, 0.1, 0.9,0,0,1024,1024,1024,1024,340.8,-90,97,3.926,3.963,3.956,3.948,3.963,3.969,18.225,77,14,Waypoint,
37.3089373,-119.577655,3630.1669583569,50.85302,0,1.13175528556,10900,2018-06-16 18:41:48,16,0,23.721,3630.1669583569,50.85302,0.223694,1.23831696876,0,0,-0.671082,341.6, 0.3, 1,0,0,1024,1024,1024,1024,340.8,-89.9,97,3.926,3.963,3.956,3.948,3.963,3.969,18.225,77,14,Waypoint,
37.3089374,-119.5776551,3631.1512103569,51.837272,0,1.16134846236,11000,2018-06-16 18:41:48,16,0,23.68,3631.1512103569,51.837272,0.223694,1.23831696876,0,0,-0.671082,341.7, 0.4, 1.1,0,0,1024,1024,1024,1024,340.8,-89.9,97,3.914,3.949,3.958,3.942,3.945,3.963,19.043,77,14,Waypoint,
37.3089375,-119.577655,3632.4635463569,53.149608,0,1.134104367,11100,2018-06-16 18:41:48,16,0,23.68,3632.4635463569,53.149608,0.223694,1.23831696876,0,0,-0.671082,341.7, 0.6, 1.2,0,0,1024,1024,1024,1024,340.8,-89.9,97,3.914,3.949,3.958,3.942,3.945,3.963,19.043,77,14,Waypoint,
37.3089376,-119.577655,3633.4477983569,54.13386,0,1.13703415712,11200,2018-06-16 18:41:49,16,0,23.68,3633.4477983569,54.13386,0.223694,1.23831696876,0,0,-0.671082,341.7, 0.6, 1.2,0,0,1024,1024,1024,1024,340.8,-90,97,3.914,3.949,3.958,3.942,3.945,3.963,19.043,77,14,Waypoint,
37.3089377,-119.577655,3634.4320503569,55.118112,0,1.1411253646,11300,2018-06-16 18:41:49,15,0,23.68,3634.4320503569,55.118112,0.223694,1.23831696876,0,0,-0.671082,341.6, 0.5, 1,0,0,1024,1024,1024,1024,340.8,-90,97,3.914,3.949,3.958,3.942,3.945,3.963,19.043,77,14,Waypoint,
37.3089378,-119.577655,3635.0882183569,55.77428,0,1.14636158524,11400,2018-06-16 18:41:49,15,0,23.68,3635.0882183569,55.77428,0.223694,1.23831696876,0,0,-0.671082,341.6, 0.6, 0.9,0,0,1024,1024,1024,1024,340.8,-89.9,97,3.914,3.949,3.958,3.942,3.945,3.963,19.043,77,14,Waypoint,
37.3089379,-119.5776549,3636.0724703569,56.758532,0,1.12425528532,11500,2018-06-16 18:41:49,15,0,23.68,3636.0724703569,56.758532,0.223694,1.23831696876,0,0,-0.671082,341.6, 0.7, 0.9,0,0,1024,1024,1024,1024,340.8,-89.9,97,3.914,3.949,3.958,3.942,3.945,3.963,19.043,77,14,Waypoint,
37.3089381,-119.5776549,3637.0567223569,57.742784,0,1.14070869792,11600,2018-06-16 18:41:49,15,0,23.68,3637.0567223569,57.742784,0.223694,1.23831696876,0,0,-0.671082,341.7, 0.9, 0.9,0,0,1024,1024,1024,1024,340.8,-89.9,97,3.914,3.949,3.958,3.942,3.945,3.963,19.043,77,14,Waypoint,
37.3089382,-119.5776548,3638.0409743569,58.727036,0,1.12280515404,11700,2018-06-16 18:41:49,16,0,23.68,3638.0409743569,58.727036,0.223694,1.23831696876,0,0,-0.671082,341.7, 1.1, 0.6,0,0,1024,1024,1024,1024,340.8,-89.9,97,3.914,3.949,3.958,3.942,3.945,3.963,19.043,77,14,Waypoint,
37.3089383,-119.5776548,3639.0252263569,59.711288,0,1.13401250348,11800,2018-06-16 18:41:49,16,0,23.68,3639.0252263569,59.711288,0.223694,1.23831696876,0,0,-0.671082,341.7, 1.4, 0.4,0,0,1024,1024,1024,1024,340.8,-89.9,97,3.914,3.949,3.958,3.942,3.945,3.963,19.043,77,14,Waypoint,
37.3089385,-119.5776548,3640.0094783569,60.69554,0,1.1595472812,11900,2018-06-16 18:41:49,16,0,23.68,3640.0094783569,60.69554,0.223694,1.23831696876,0,0,-0.671082,341.8, 1.4, 0.4,0,0,1024,1024,1024,1024,340.8,-89.9,97,3.914,3.949,3.958,3.942,3.945,3.963,19.043,77,14,Waypoint,
37.3089386,-119.5776548,3640.9937303569,61.679792,0,1.17380909268,12000,2018-06-16 18:41:49,16,0,23.634,3640.9937303569,61.679792,0.223694,1.23831696876,0,0,-0.671082,341.8, 1.4, 0.3,0,0,1024,1024,1024,1024,340.8,-89.9,97,3.906,3.937,3.946,3.926,3.936,3.956,19.26,77,14,Waypoint,
37.3089386,-119.5776547,3641.9779823569,62.664044,0,1.1473261522,12100,2018-06-16 18:41:49,16,0,23.634,3641.9779823569,62.664044,0.223694,1.23831696876,0,0,-0.671082,341.8, 1.2, 0.3,0,0,1024,1024,1024,1024,340.8,-89.9,97,3.906,3.937,3.946,3.926,3.936,3.956,19.26,77,14,Waypoint,
37.3089388,-119.5776546,3642.9622343569,63.648296,0,1.15373691356,12200,2018-06-16 18:41:50,16,0,23.634,3642.9622343569,63.648296,0.223694,1.23831696876,0,0,-0.671082,341.9, 1, 0.2,0,0,1024,1024,1024,1024,340.8,-89.9,97,3.906,3.937,3.946,3.926,3.936,3.956,19.26,77,14,Waypoint,
37.3089388,-119.5776545,3643.9464863569,64.632548,0,1.12827431432,12300,2018-06-16 18:41:50,15,0,23.634,3643.9464863569,64.632548,0.223694,1.23831696876,0,0,-0.671082,341.9, 1.1, 0.1,0,0,1024,1024,1024,1024,340.8,-89.9,97,3.906,3.937,3.946,3.926,3.936,3.956,19.26,77,14,Waypoint,
37.3089389,-119.5776545,3644.9307383569,65.6168,0,1.14641407868,12400,2018-06-16 18:41:50,15,0,23.634,3644.9307383569,65.6168,0.223694,1.23831696876,0,0,-0.671082,341.9, 1.2, 0,0,0,1024,1024,1024,1024,340.8,-89.9,97,3.906,3.937,3.946,3.926,3.936,3.956,19.26,77,14,Waypoint,
37.308939,-119.5776545,3645.9149903569,66.601052,0,1.16541670396,12500,2018-06-16 18:41:50,16,0,23.634,3645.9149903569,66.601052,0.223694,1.23831696876,0,0,-0.671082,341.8, 1.1, 0.2,0,0,1024,1024,1024,1024,340.8,-89.9,97,3.906,3.937,3.946,3.926,3.936,3.956,19.26,77,14,Waypoint,
37.308939,-119.5776545,3646.8992423569,67.585304,0,1.16541670396,12600,2018-06-16 18:41:50,16,0,23.634,3646.8992423569,67.585304,0.223694,1.23831696876,0,0,-0.671082,341.7, 1.1, 0.3,0,0,1024,1024,1024,1024,340.8,-89.9,97,3.906,3.937,3.946,3.926,3.936,3.956,19.26,77,14,Waypoint,
37.3089391,-119.5776545,3648.8677463569,69.553808,0,1.1852362584,12700,2018-06-16 18:41:50,16,0,23.634,3648.8677463569,69.553808,0.223694,1.23831696876,0,0,-0.671082,341.6, 0.9, 0.4,0,0,1024,1024,1024,1024,340.8,-89.9,97,3.906,3.937,3.946,3.926,3.936,3.956,19.26,77,14,Waypoint,
37.3089392,-119.5776545,3649.8519983569,70.53806,0,1.20583665276,12900,2018-06-16 18:41:50,16,0,23.634,3649.8519983569,70.53806,0.223694,1.23831696876,0,0,-0.671082,341.6, 0.9, 0.6,0,0,1024,1024,1024,1024,340.8,-89.9,97,3.906,3.937,3.946,3.926,3.936,3.956,19.26,77,14,Waypoint,
37.3089393,-119.5776545,3650.8362503569,71.522312,0,1.22717195528,13000,2018-06-16 18:41:50,16,0,23.619,3650.8362503569,71.522312,0.223694,1.23831696876,0,0,-0.671082,341.5, 0.8, 0.6,0,0,1024,1024,1024,1024,340.8,-89.9,97,3.911,3.937,3.955,3.927,3.936,3.952,19.193,77,14,Waypoint,
37.3089393,-119.5776545,3651.8205023569,72.506564,0,1.22717195528,13100,2018-06-16 18:41:50,16,0,23.619,3651.8205023569,72.506564,0.223694,1.23831696876,0,0,-0.671082,341.5, 0.8, 0.5,0,0,1024,1024,1024,1024,340.8,-90,97,3.911,3.937,3.955,3.927,3.936,3.952,19.193,77,14,Waypoint,
37.3089393,-119.5776545,3652.8047543569,73.490816,0,1.22717195528,13200,2018-06-16 18:41:51,16,0,23.619,3652.8047543569,73.490816,0.223694,1.23831696876,0,0,-0.671082,341.5, 0.9, 0.6,0,0,1024,1024,1024,1024,340.8,-89.9,97,3.911,3.937,3.955,3.927,3.936,3.952,19.193,77,14,Waypoint,
37.3089394,-119.5776546,3653.7890063569,74.475068,0,1.27225725856,13300,2018-06-16 18:41:51,16,0,23.619,3653.7890063569,74.475068,0.223694,1.27225725856,0,0,-0.671082,341.5, 1, 0.6,0,0,1024,1024,1024,1024,340.8,-89.9,97,3.911,3.937,3.955,3.927,3.936,3.952,19.193,77,14,Waypoint,
37.3089394,-119.5776546,3654.7732583569,75.45932,0,1.27225725856,13400,2018-06-16 18:41:51,16,0,23.619,3654.7732583569,75.45932,0.223694,1.27225725856,0,0,-0.671082,341.6, 1.2, 0.7,0,0,1024,1024,1024,1024,340.8,-89.9,97,3.911,3.937,3.955,3.927,3.936,3.952,19.193,77,14,Waypoint,
37.3089395,-119.5776546,3655.7575103569,76.443572,0,1.29455712804,13500,2018-06-16 18:41:51,16,0,23.619,3655.7575103569,76.443572,0.223694,1.29455712804,0,0,-0.671082,341.6, 1.3, 0.8,0,0,1024,1024,1024,1024,340.8,-89.9,97,3.911,3.937,3.955,3.927,3.936,3.952,19.193,77,14,Waypoint,
37.3089395,-119.5776547,3656.7417623569,77.427824,0,1.31744754872,13600,2018-06-16 18:41:51,16,0,23.619,3656.7417623569,77.427824,0.223694,1.31744754872,0,0,-0.671082,341.7, 1.5, 0.8,0,0,1024,1024,1024,1024,340.8,-89.9,97,3.911,3.937,3.955,3.927,3.936,3.952,19.193,77,14,Waypoint,
37.3089395,-119.5776547,3658.0540983569,78.74016,0,1.31744754872,13700,2018-06-16 18:41:51,15,0,23.619,3658.0540983569,78.74016,0.223694,1.31744754872,0,0,-0.671082,341.8, 1.4, 1,0,0,1024,1024,1024,1024,340.8,-89.9,97,3.911,3.937,3.955,3.927,3.936,3.952,19.193,77,14,Waypoint,
37.3089396,-119.5776548,3659.0383503569,79.724412,0,1.36273298324,13800,2018-06-16 18:41:51,15,0,23.619,3659.0383503569,79.724412,0.223694,1.36273298324,0,0,-0.671082,341.8, 1.3, 1.1,0,0,1024,1024,1024,1024,340.8,-89.9,97,3.911,3.937,3.955,3.927,3.936,3.952,19.193,77,14,Waypoint,
37.3089396,-119.5776548,3660.0226023569,80.708664,0,1.36273298324,13900,2018-06-16 18:41:51,16,0,23.619,3660.0226023569,80.708664,0.223694,1.36273298324,0,0,-0.671082,341.9, 1.3, 0.9,0,0,1024,1024,1024,1024,340.8,-89.9,97,3.911,3.937,3.955,3.927,3.936,3.952,19.193,77,14,Waypoint,
37.3089396,-119.5776548,3661.0068543569,81.692916,0,1.36273298324,14000,2018-06-16 18:41:51,16,0,23.561,3661.0068543569,81.692916,0.223694,1.36273298324,0,0,-0.671082,341.9, 1.2, 0.8,0,0,1024,1024,1024,1024,340.8,-89.9,96,3.894,3.931,3.936,3.912,3.926,3.945,19.121,77,14,Waypoint,
37.3089396,-119.5776549,3661.9911063569,82.677168,0,1.38571526744,14100,2018-06-16 18:41:51,15,0,23.561,3661.9911063569,82.677168,0.223694,1.38571526744,0,0,-0.671082,341.8, 1.2, 0.8,0,0,1024,1024,1024,1024,340.8,-89.9,96,3.894,3.931,3.936,3.912,3.926,3.945,19.121,77,14,Waypoint,
37.3089396,-119.5776549,3662.9753583569,83.66142,0,1.38571526744,14200,2018-06-16 18:41:52,15,0,23.561,3662.9753583569,83.66142,0.223694,1.38571526744,0,0,-0.671082,341.7, 1.4, 0.7,0,0,1024,1024,1024,1024,340.8,-89.9,96,3.894,3.931,3.936,3.912,3.926,3.945,19.121,77,14,Waypoint,
37.3089397,-119.5776549,3663.9596103569,84.645672,0,1.40810700044,14300,2018-06-16 18:41:52,15,0,23.561,3663.9596103569,84.645672,0.223694,1.40810700044,0,0,-0.671082,341.7, 1.6, 0.7,0,0,1024,1024,1024,1024,340.8,-89.9,96,3.894,3.931,3.936,3.912,3.926,3.945,19.121,77,14,Waypoint,
37.3089397,-119.5776549,3664.9438623569,85.629924,0,1.40810700044,14400,2018-06-16 18:41:52,15,0,23.561,3664.9438623569,85.629924,0.223694,1.40810700044,0,0,-0.671082,341.6, 1.7, 0.7,0,0,1024,1024,1024,1024,340.8,-89.9,96,3.894,3.931,3.936,3.912,3.926,3.945,19.121,77,14,Waypoint,
37.3089396,-119.5776548,3666.9123663569,87.598428,0,1.36273298324,14500,2018-06-16 18:41:52,15,0,23.561,3666.9123663569,87.598428,0.223694,1.40810700044,0,0,-0.671082,341.6, 1.3, 0.5,0,0,1024,1024,1024,1024,340.8,-89.9,96,3.894,3.931,3.936,3.912,3.926,3.945,19.121,77,14,Waypoint,
37.3089396,-119.5776548,3667.8966183569,88.58268,0,1.36273298324,14600,2018-06-16 18:41:52,15,0,23.561,3667.8966183569,88.58268,0.223694,1.40810700044,0,0,-0.671082,341.6, 1, 0.4,0,0,1024,1024,1024,1024,340.8,-90,96,3.894,3.931,3.936,3.912,3.926,3.945,19.121,77,14,Waypoint,
37.3089396,-119.5776547,3668.8808703569,89.566932,0,1.33999020036,14700,2018-06-16 18:41:52,15,0,23.561,3668.8808703569,89.566932,0.223694,1.40810700044,0,0,-0.671082,341.5, 1, 0.3,0,0,1024,1024,1024,1024,340.8,-89.9,96,3.894,3.931,3.936,3.912,3.926,3.945,19.121,77,14,Waypoint,
37.3089395,-119.5776547,3669.8651223569,90.551184,0,1.31744754872,14900,2018-06-16 18:41:52,15,0,23.561,3669.8651223569,90.551184,0.223694,1.40810700044,0,0,-0.671082,341.5, 1, 0.2,0,0,1024,1024,1024,1024,340.8,-89.9,96,3.894,3.931,3.936,3.912,3.926,3.945,19.121,77,14,Waypoint,
37.3089395,-119.5776546,3670.8493743569,91.535436,0,1.29455712804,15000,2018-06-16 18:41:52,15,0,23.564,3670.8493743569,91.535436,0.223694,1.40810700044,0,0,-0.671082,341.5, 0.9, 0,0,0,1024,1024,1024,1024,340.8,-90,96,3.901,3.942,3.935,3.917,3.924,3.947,18.794,77,14,Waypoint,
37.3089395,-119.5776545,3671.8336263569,92.519688,0,1.2719160512,15100,2018-06-16 18:41:52,15,0,23.564,3671.8336263569,92.519688,0.223694,1.40810700044,0,0,-0.671082,341.5, 0.8, -0.1,0,0,1024,1024,1024,1024,340.8,-90,96,3.901,3.942,3.935,3.917,3.924,3.947,18.794,77,14,Waypoint,
37.3089395,-119.5776545,3672.8178783569,93.50394,0,1.2719160512,15200,2018-06-16 18:41:53,15,0,23.564,3672.8178783569,93.50394,0.223694,1.40810700044,0,0,-0.671082,341.6, 0.7, -0.2,0,0,1024,1024,1024,1024,340.8,-90,96,3.901,3.942,3.935,3.917,3.924,3.947,18.794,77,14,Waypoint,
37.3089395,-119.5776545,3673.8021303569,94.488192,0,1.2719160512,15300,2018-06-16 18:41:53,15,0,23.564,3673.8021303569,94.488192,0.223694,1.40810700044,0,0,-0.671082,341.7, 0.7, -0.1,0,0,1024,1024,1024,1024,340.8,-90,96,3.901,3.942,3.935,3.917,3.924,3.947,18.794,77,14,Waypoint,
37.3089395,-119.5776545,3674.7863823569,95.472444,0,1.2719160512,15400,2018-06-16 18:41:53,15,0,23.564,3674.7863823569,95.472444,0.223694,1.40810700044,0,0,-0.671082,341.8, 0.7, 0.5,0,0,1024,1024,1024,1024,340.8,-90,96,3.901,3.942,3.935,3.917,3.924,3.947,18.794,77,14,Waypoint,
37.3089395,-119.5776545,3675.7706343569,96.456696,0,1.2719160512,15500,2018-06-16 18:41:53,16,0,23.564,3675.7706343569,96.456696,0.223694,1.40810700044,0,0,-0.671082,341.7, 0.9, 1,0,0,1024,1024,1024,1024,340.8,-89.9,96,3.901,3.942,3.935,3.917,3.924,3.947,18.794,77,14,Waypoint,
37.3089394,-119.5776545,3676.7548863569,97.440948,0,1.2492126384,15600,2018-06-16 18:41:53,16,0,23.564,3676.7548863569,97.440948,0.223694,1.40810700044,0,0,-0.671082,341.6, 1.1, 0.6,0,0,1024,1024,1024,1024,340.8,-89.9,96,3.901,3.942,3.935,3.917,3.924,3.947,18.794,77,14,Waypoint,
37.3089394,-119.5776546,3677.7391383569,98.4252,0,1.27225725856,15700,2018-06-16 18:41:53,17,0,23.564,3677.7391383569,98.4252,0.223694,1.40810700044,0,0,-0.671082,341.6, 1.2, 0.4,0,0,1024,1024,1024,1024,340.8,-89.9,96,3.901,3.942,3.935,3.917,3.924,3.947,18.794,77,14,Waypoint,
37.3089394,-119.5776546,3678.7233903569,99.409452,0,1.27225725856,15800,2018-06-16 18:41:53,17,0,23.564,3678.7233903569,99.409452,0.223694,1.40810700044,0,0,-0.671082,341.6, 1.4, 0.7,0,0,1024,1024,1024,1024,340.8,-89.9,96,3.901,3.942,3.935,3.917,3.924,3.947,18.794,77,14,Waypoint,
37.3089394,-119.5776547,3679.7076423569,100.393704,0,1.29554138004,15900,2018-06-16 18:41:53,17,0,23.564,3679.7076423569,100.393704,0.223694,1.40810700044,0,0,-0.671082,341.6, 1.7, 1.2,0,0,1024,1024,1024,1024,340.8,-89.9,96,3.901,3.942,3.935,3.917,3.924,3.947,18.794,77,14,Waypoint,
37.3089393,-119.5776547,3680.6918943569,101.377956,0,1.27430450272,16000,2018-06-16 18:41:53,17,0,23.53,3680.6918943569,101.377956,0.223694,1.40810700044,0,0,-0.671082,341.7, 1.5, 1.5,0,0,1024,1024,1024,1024,340.8,-89.9,96,3.891,3.933,3.932,3.909,3.919,3.932,19.055,77,14,Waypoint,
37.3089393,-119.5776548,3681.6761463569,102.362208,0,1.29820214128,16100,2018-06-16 18:41:53,17,0,23.53,3681.6761463569,102.362208,0.223694,1.40810700044,0,0,-0.671082,341.6, 1.2, 1.4,0,0,1024,1024,1024,1024,340.8,-90,96,3.891,3.933,3.932,3.909,3.919,3.932,19.055,77,14,Waypoint,
37.3089393,-119.5776548,3682.6603983569,103.34646,0,1.29820214128,16200,2018-06-16 18:41:54,17,0,23.53,3682.6603983569,103.34646,0.223694,1.40810700044,0,0,-0.671082,341.7, 1.1, 0.8,0,0,1024,1024,1024,1024,340.8,-90,96,3.891,3.933,3.932,3.909,3.919,3.932,19.055,77,14,Waypoint,
37.3089392,-119.5776548,3684.6289023569,105.314964,0,1.278051222,16300,2018-06-16 18:41:54,17,0,23.53,3684.6289023569,105.314964,0.223694,1.40810700044,0,0,-0.671082,341.9, 0.9, 0.3,0,0,1024,1024,1024,1024,340.8,-89.9,96,3.891,3.933,3.932,3.909,3.919,3.932,19.055,77,14,Waypoint,
37.3089392,-119.5776549,3686.5974063569,107.283468,0,1.3025262884,16500,2018-06-16 18:41:54,16,0,23.53,3686.5974063569,107.283468,0.223694,1.40810700044,0,0,-0.671082,342.3, 1, 0.8,0,0,1024,1024,1024,1024,340.8,-89.9,96,3.891,3.933,3.932,3.909,3.919,3.932,19.055,77,14,Waypoint,
37.3089391,-119.577655,3687.5816583569,108.26772,0,1.3084974172,16600,2018-06-16 18:41:54,17,0,23.53,3687.5816583569,108.26772,0.223694,1.40810700044,0,0,-0.671082,342.4, 1.1, 1.4,0,0,1024,1024,1024,1024,340.8,-89.9,96,3.891,3.933,3.932,3.909,3.919,3.932,19.055,77,14,Waypoint,
37.3089391,-119.577655,3688.5659103569,109.251972,0,1.3084974172,16700,2018-06-16 18:41:54,17,0,23.53,3688.5659103569,109.251972,0.223694,1.40810700044,0,0,-0.671082,342.3, 0.8, 1.8,0,0,1024,1024,1024,1024,340.8,-90,96,3.891,3.933,3.932,3.909,3.919,3.932,19.055,77,14,Waypoint,
37.3089391,-119.5776551,3689.5501623569,110.236224,0,1.33367458336,16900,2018-06-16 18:41:54,17,0,23.53,3689.5501623569,110.236224,0.223694,1.40810700044,0,0,-0.671082,342.1, 0.7, 1.6,0,0,1024,1024,1024,1024,340.8,-90,96,3.891,3.933,3.932,3.909,3.919,3.932,19.055,77,14,Waypoint,
37.3089391,-119.5776551,3690.5344143569,111.220476,0,1.33367458336,17000,2018-06-16 18:41:54,17,0,23.464,3690.5344143569,111.220476,0.223694,1.40810700044,0,0,-0.671082,341.8, 1.1, 1.6,0,0,1024,1024,1024,1024,340.8,-90,96,3.88,3.917,3.921,3.898,3.914,3.926,19.425,77,14,Waypoint,
37.3089391,-119.5776552,3691.5186663569,112.204728,0,1.359005949,17100,2018-06-16 18:41:54,17,0,23.464,3691.5186663569,112.204728,0.223694,1.40810700044,0,0,-0.671082,341.6, 1.5, 1.5,0,0,1024,1024,1024,1024,340.8,-89.9,96,3.88,3.917,3.921,3.898,3.914,3.926,19.425,77,14,Waypoint,
37.3089392,-119.5776552,3692.5029183569,113.18898,0,1.37700791808,17200,2018-06-16 18:41:55,17,0,23.464,3692.5029183569,113.18898,0.223694,1.40810700044,0,0,-0.671082,341.4, 2, 1.2,0,0,1024,1024,1024,1024,340.8,-89.9,96,3.88,3.917,3.921,3.898,3.914,3.926,19.425,77,14,Waypoint,
37.3089392,-119.5776552,3693.4871703569,114.173232,0,1.37700791808,17300,2018-06-16 18:41:55,17,0,23.464,3693.4871703569,114.173232,0.223694,1.40810700044,0,0,-0.671082,341.2, 2.1, 1.1,0,0,1024,1024,1024,1024,340.8,-89.9,96,3.88,3.917,3.921,3.898,3.914,3.926,19.425,77,14,Waypoint,
37.3089392,-119.5776553,3694.4714223569,115.157484,0,1.40215883752,17400,2018-06-16 18:41:55,17,0,23.464,3694.4714223569,115.157484,0.223694,1.40810700044,0,0,-0.671082,341.1, 2.4, 1.3,0,0,1024,1024,1024,1024,340.8,-89.9,96,3.88,3.917,3.921,3.898,3.914,3.926,19.425,77,14,Waypoint,
37.3089393,-119.5776553,3695.4556743569,116.141736,0,1.42055122656,17500,2018-06-16 18:41:55,17,0,23.464,3695.4556743569,116.141736,0.223694,1.42055122656,0,0,-0.671082,341.2, 2.8, 1.3,0,0,1024,1024,1024,1024,340.8,-89.9,96,3.88,3.917,3.921,3.898,3.914,3.926,19.425,77,14,Waypoint,
37.3089393,-119.5776553,3696.4399263569,117.125988,0,1.42055122656,17600,2018-06-16 18:41:55,17,0,23.464,3696.4399263569,117.125988,0.223694,1.42055122656,0,0,-0.671082,341.3, 2.8, 1.1,0,0,1024,1024,1024,1024,340.8,-89.9,96,3.88,3.917,3.921,3.898,3.914,3.926,19.425,77,14,Waypoint,
37.3089393,-119.5776553,3697.4241783569,118.11024,0,1.42055122656,17700,2018-06-16 18:41:55,17,0,23.464,3697.4241783569,118.11024,0.223694,1.42055122656,0,0,-0.671082,341.5, 2.9, 1,0,0,1024,1024,1024,1024,340.8,-89.9,96,3.88,3.917,3.921,3.898,3.914,3.926,19.425,77,14,Waypoint,
37.3089393,-119.5776553,3698.4084303569,119.094492,0,1.42055122656,17800,2018-06-16 18:41:55,17,0,23.464,3698.4084303569,119.094492,0.223694,1.42055122656,0,0,-0.671082,341.6, 2.6, 1.1,0,0,1024,1024,1024,1024,340.8,-90,96,3.88,3.917,3.921,3.898,3.914,3.926,19.425,77,14,Waypoint,
37.3089393,-119.5776553,3699.3926823569,120.078744,0,1.42055122656,17900,2018-06-16 18:41:55,17,0,23.464,3699.3926823569,120.078744,0.223694,1.42055122656,0,0,-0.671082,341.8, 2, 1.1,0,0,1024,1024,1024,1024,340.8,-90,96,3.88,3.917,3.921,3.898,3.914,3.926,19.425,77,14,Waypoint,
37.3089393,-119.5776553,3700.3769343569,121.062996,0,1.42055122656,18000,2018-06-16 18:41:55,17,0,23.494,3700.3769343569,121.062996,0.223694,1.42055122656,0,0,-0.671082,341.9, 1.6, 1.2,0,0,1024,1024,1024,1024,340.8,-90,96,3.88,3.917,3.921,3.898,3.914,3.926,18.842,77,14,Waypoint,
37.3089392,-119.5776553,3701.3611863569,122.047248,0,1.40215883752,18100,2018-06-16 18:41:55,17,0,23.494,3701.3611863569,122.047248,0.223694,1.42055122656,0,0,-0.671082,342, 1.5, 1.5,0,0,1024,1024,1024,1024,340.8,-90,96,3.88,3.917,3.921,3.898,3.914,3.926,18.842,77,14,Waypoint,
37.3089392,-119.5776553,3703.6577743569,124.343836,0,1.40215883752,18200,2018-06-16 18:41:56,17,0,23.494,3703.6577743569,124.343836,0.223694,1.42055122656,0,0,-0.671082,342.3, 2, 1.5,0,0,1024,1024,1024,1024,340.8,-89.9,96,3.88,3.917,3.921,3.898,3.914,3.926,18.842,77,14,Waypoint,
37.3089392,-119.5776553,3704.3139423569,125.000004,0,1.40215883752,18300,2018-06-16 18:41:56,17,0,23.494,3704.3139423569,125.000004,0.223694,1.42055122656,0,0,-0.671082,342.3, 2.4, 1,0,0,1024,1024,1024,1024,340.8,-89.9,96,3.88,3.917,3.921,3.898,3.914,3.926,18.842,77,14,Waypoint,
37.3089393,-119.5776552,3705.2981943569,125.984256,0.223694,1.39573167196,18400,2018-06-16 18:41:56,17,0,23.494,3705.2981943569,125.984256,0.223694,1.42055122656,0,0,-0.671082,342.1, 2.3, 0.5,0,0,1024,1024,1024,1024,340.8,-89.9,96,3.88,3.917,3.921,3.898,3.914,3.926,18.842,77,14,Waypoint,
37.3089393,-119.5776551,3706.2824463569,126.968508,0.223694,1.3710794402,18600,2018-06-16 18:41:56,17,0,23.494,3706.2824463569,126.968508,0.223694,1.42055122656,0,0,-0.671082,341.8, 2.3, 0,0,0,1024,1024,1024,1024,340.8,-89.9,96,3.88,3.917,3.921,3.898,3.914,3.926,18.842,77,14,Waypoint,
37.3089394,-119.577655,3708.2509503569,128.937012,0.223694,1.36671264216,18700,2018-06-16 18:41:56,17,0,23.494,3708.2509503569,128.937012,0.223694,1.42055122656,0,0,-0.671082,341.1, 2.6, -0.4,0,0,1024,1024,1024,1024,340.8,-89.9,96,3.88,3.917,3.921,3.898,3.914,3.926,18.842,77,14,Waypoint,
37.3089394,-119.5776549,3709.2352023569,129.921264,0.223694,1.3427821952,18900,2018-06-16 18:41:56,17,0,23.494,3709.2352023569,129.921264,0.223694,1.42055122656,0,0,-0.671082,340.7, 2.8, -0.6,0,0,1024,1024,1024,1024,340.8,-89.9,96,3.88,3.917,3.921,3.898,3.914,3.926,18.842,77,14,Waypoint,
37.3089394,-119.5776548,3710.2194543569,130.905516,0.223694,1.31905516032,19000,2018-06-16 18:41:56,17,0,23.494,3710.2194543569,130.905516,0.223694,1.42055122656,0,0,-0.671082,340.6, 2.9, -0.9,0,0,1024,1024,1024,1024,340.8,-89.9,96,3.887,3.922,3.928,3.899,3.913,3.938,18.842,77,14,Waypoint,
37.3089395,-119.5776547,3711.2037063569,131.889768,0.223694,1.31744754872,19100,2018-06-16 18:41:56,17,0,23.494,3711.2037063569,131.889768,0.223694,1.42055122656,0,0,-0.671082,340.6, 2.9, -1.2,0,0,1024,1024,1024,1024,340.8,-89.9,96,3.887,3.922,3.928,3.899,3.913,3.938,18.842,77,14,Waypoint,
37.3089395,-119.5776546,3712.1879583569,132.87402,0.223694,1.29455712804,19200,2018-06-16 18:41:57,17,0,23.494,3712.1879583569,132.87402,0.223694,1.42055122656,0,0,-0.671082,340.8, 2.7, -1.2,0,0,1024,1024,1024,1024,340.8,-90,96,3.887,3.922,3.928,3.899,3.913,3.938,18.842,77,14,Waypoint,
37.3089395,-119.5776545,3713.1722103569,133.858272,0.223694,1.2719160512,19300,2018-06-16 18:41:57,17,0,23.494,3713.1722103569,133.858272,0.223694,1.42055122656,0,0,-0.671082,341, 2.5, -1.1,0,0,1024,1024,1024,1024,340.8,-89.9,96,3.887,3.922,3.928,3.899,3.913,3.938,18.842,77,14,Waypoint,
37.3089395,-119.5776544,3714.1564623569,134.842524,0.223694,1.2495407224,19400,2018-06-16 18:41:57,17,0,23.494,3714.1564623569,134.842524,0.223694,1.42055122656,0,0,-0.671082,341.3, 2.3, -1.1,0,0,1024,1024,1024,1024,340.8,-90,96,3.887,3.922,3.928,3.899,3.913,3.938,18.842,77,14,Waypoint,
37.3089395,-119.5776543,3714.8126303569,135.498692,0.223694,1.22744098416,19500,2018-06-16 18:41:57,17,0,23.494,3714.8126303569,135.498692,0.223694,1.42055122656,0,0,-0.671082,341.6, 2.2, -1.3,0,0,1024,1024,1024,1024,340.8,-90,96,3.887,3.922,3.928,3.899,3.913,3.938,18.842,77,14,Waypoint,
37.3089395,-119.5776542,3715.7968823569,136.482944,0,1.20563652152,19600,2018-06-16 18:41:57,17,0,23.494,3715.7968823569,136.482944,0.223694,1.42055122656,0,0,-0.671082,341.8, 2.1, -1.4,0,0,1024,1024,1024,1024,340.8,-89.9,96,3.887,3.922,3.928,3.899,3.913,3.938,18.842,77,14,Waypoint,
37.3089395,-119.5776541,3716.7811343569,137.467196,0,1.18414045784,19700,2018-06-16 18:41:57,17,0,23.494,3716.7811343569,137.467196,0.223694,1.42055122656,0,0,-0.671082,341.9, 2.2, -1.3,0,0,1024,1024,1024,1024,340.8,-89.9,96,3.887,3.922,3.928,3.899,3.913,3.938,18.842,77,14,Waypoint,
37.3089395,-119.5776541,3717.7653863569,138.451448,0,1.18414045784,19800,2018-06-16 18:41:57,17,0,23.494,3717.7653863569,138.451448,0.223694,1.42055122656,0,0,-0.671082,341.9, 2.4, -1.4,0,0,1024,1024,1024,1024,340.8,-89.9,96,3.887,3.922,3.928,3.899,3.913,3.938,18.842,77,14,Waypoint,
37.3089395,-119.5776541,3718.7496383569,139.4357,0,1.18414045784,19900,2018-06-16 18:41:57,17,0,23.494,3718.7496383569,139.4357,0.223694,1.42055122656,0,0,-0.671082,341.8, 2.4, -1.4,0,0,1024,1024,1024,1024,340.8,-89.9,96,3.887,3.922,3.928,3.899,3.913,3.938,18.842,77,14,Waypoint,
37.3089395,-119.577654,3719.7338903569,140.419952,0,1.16297247816,20000,2018-06-16 18:41:57,17,0,23.466,3719.7338903569,140.419952,0.223694,1.42055122656,0,0,-0.671082,341.6, 2.4, -1.4,0,0,1024,1024,1024,1024,340.8,-89.9,96,3.89,3.914,3.939,3.905,3.923,3.946,18.62,77,14,Waypoint,
37.3089395,-119.5776539,3721.7023943569,142.388456,0,1.14214898668,20200,2018-06-16 18:41:58,17,0,23.466,3721.7023943569,142.388456,0.223694,1.42055122656,0,0,-0.671082,341.2, 2.4, -1.3,0,0,1024,1024,1024,1024,340.8,-89.9,96,3.89,3.914,3.939,3.905,3.923,3.946,18.62,77,14,Waypoint,
37.3089395,-119.5776539,3722.6866463569,143.372708,0,1.14214898668,20300,2018-06-16 18:41:58,17,0,23.466,3722.6866463569,143.372708,0.223694,1.42055122656,0,0,-0.671082,341.2, 2.1, -1.2,0,0,1024,1024,1024,1024,340.8,-90,96,3.89,3.914,3.939,3.905,3.923,3.946,18.62,77,14,Waypoint,
37.3089395,-119.5776539,3723.6708983569,144.35696,0,1.14214898668,20400,2018-06-16 18:41:58,17,0,23.466,3723.6708983569,144.35696,0.223694,1.42055122656,0,0,-0.671082,341.2, 2.1, -1,0,0,1024,1024,1024,1024,340.8,-89.9,96,3.89,3.914,3.939,3.905,3.923,3.946,18.62,77,14,Waypoint,
37.3089395,-119.5776539,3724.3270663569,145.013128,0,1.14214898668,20500,2018-06-16 18:41:58,17,0,23.466,3724.3270663569,145.013128,0.223694,1.42055122656,0,0,-0.671082,341.3, 2.3, -0.9,0,0,1024,1024,1024,1024,340.8,-89.9,96,3.89,3.914,3.939,3.905,3.923,3.946,18.62,77,14,Waypoint,
37.3089395,-119.5776538,3725.3113183569,145.99738,0,1.12168966844,20600,2018-06-16 18:41:58,17,0,23.466,3725.3113183569,145.99738,0.223694,1.42055122656,0,0,-0.671082,341.3, 2.4, -0.9,0,0,1024,1024,1024,1024,340.8,-89.9,96,3.89,3.914,3.939,3.905,3.923,3.946,18.62,77,14,Waypoint,
37.3089395,-119.5776537,3727.2798223569,147.965884,0,1.10161420848,20700,2018-06-16 18:41:58,17,0,23.466,3727.2798223569,147.965884,0.223694,1.42055122656,0,0,-0.671082,341.6, 2.5, -1,0,0,1024,1024,1024,1024,340.8,-89.9,96,3.89,3.914,3.939,3.905,3.923,3.946,18.62,77,14,Waypoint,
37.3089395,-119.5776537,3728.2640743569,148.950136,0,1.10161420848,20900,2018-06-16 18:41:58,17,0,23.466,3728.2640743569,148.950136,0.223694,1.42055122656,0,0,-0.671082,341.8, 2.4, -1.1,0,0,1024,1024,1024,1024,340.8,-89.9,96,3.89,3.914,3.939,3.905,3.923,3.946,18.62,77,14,Waypoint,
37.3089394,-119.5776538,3731.2168303569,151.902892,0,1.09587601932,21100,2018-06-16 18:41:58,17,0,23.466,3731.2168303569,151.902892,0.223694,1.42055122656,0,0,-0.671082,342, 2.2, -0.6,0,0,1024,1024,1024,1024,340.8,-90,96,3.89,3.914,3.939,3.905,3.923,3.946,18.62,77,14,Waypoint,
37.3089394,-119.5776538,3731.2168303569,151.902892,0,1.09587601932,21200,2018-06-16 18:41:59,17,0,23.466,3731.2168303569,151.902892,0.223694,1.42055122656,0,0,-0.671082,342, 2.2, -0.6,0,0,1024,1024,1024,1024,340.8,-90,96,3.89,3.914,3.939,3.905,3.923,3.946,18.62,77,14,Waypoint,
37.3089394,-119.5776538,3732.2010823569,152.887144,0,1.09587601932,21300,2018-06-16 18:41:59,17,0,23.466,3732.2010823569,152.887144,0.223694,1.42055122656,0,0,-0.671082,342, 2.3, -0.7,0,0,1024,1024,1024,1024,340.8,-89.9,96,3.89,3.914,3.939,3.905,3.923,3.946,18.62,77,14,Waypoint,
37.3089394,-119.5776538,3733.1853343569,153.871396,0,1.09587601932,21400,2018-06-16 18:41:59,17,0,23.466,3733.1853343569,153.871396,0.223694,1.42055122656,0,0,-0.671082,341.9, 2.3, -0.7,0,0,1024,1024,1024,1024,340.8,-89.9,96,3.89,3.914,3.939,3.905,3.923,3.946,18.62,77,14,Waypoint,
37.3089394,-119.5776539,3734.1695863569,154.855648,0,1.11680777852,21500,2018-06-16 18:41:59,17,0,23.466,3734.1695863569,154.855648,0.223694,1.42055122656,0,0,-0.671082,341.8, 2.4, -0.7,0,0,1024,1024,1024,1024,340.8,-89.9,96,3.89,3.914,3.939,3.905,3.923,3.946,18.62,77,14,Waypoint,
37.3089394,-119.5776539,3735.1538383569,155.8399,0,1.11680777852,21600,2018-06-16 18:41:59,17,0,23.466,3735.1538383569,155.8399,0.223694,1.42055122656,0,0,-0.671082,341.7, 2.4, -0.6,0,0,1024,1024,1024,1024,340.8,-89.9,96,3.89,3.914,3.939,3.905,3.923,3.946,18.62,77,14,Waypoint,
37.3089394,-119.5776539,3736.1380903569,156.824152,0,1.11680777852,21700,2018-06-16 18:41:59,17,0,23.466,3736.1380903569,156.824152,0.223694,1.42055122656,0,0,-0.671082,341.7, 2.3, -0.7,0,0,1024,1024,1024,1024,340.8,-89.9,96,3.89,3.914,3.939,3.905,3.923,3.946,18.62,77,14,Waypoint,
37.3089394,-119.577654,3737.1223423569,157.808404,0,1.13809714928,21800,2018-06-16 18:41:59,17,0,23.466,3737.1223423569,157.808404,0.223694,1.42055122656,0,0,-0.671082,341.7, 2.4, -0.7,0,0,1024,1024,1024,1024,340.8,-89.9,96,3.89,3.914,3.939,3.905,3.923,3.946,18.62,77,14,Waypoint,
37.3089394,-119.577654,3738.1065943569,158.792656,0,1.13809714928,21900,2018-06-16 18:41:59,17,0,23.466,3738.1065943569,158.792656,0.223694,1.42055122656,0,0,-0.671082,341.7, 2.4, -0.5,0,0,1024,1024,1024,1024,340.8,-89.9,96,3.89,3.914,3.939,3.905,3.923,3.946,18.62,77,14,Waypoint,
37.3089394,-119.5776541,3739.0908463569,159.776908,0,1.15971788488,22000,2018-06-16 18:41:59,17,0,23.416,3739.0908463569,159.776908,0.223694,1.42055122656,0,0,-0.671082,341.6, 2.3, -0.3,0,0,1024,1024,1024,1024,340.8,-89.9,96,3.878,3.911,3.906,3.878,3.898,3.922,19.152,77,14,Waypoint,
37.3089394,-119.5776542,3740.0750983569,160.76116,0,1.1816601428,22100,2018-06-16 18:41:59,17,0,23.416,3740.0750983569,160.76116,0.223694,1.42055122656,0,0,-0.671082,341.6, 2.4, 0,0,0,1024,1024,1024,1024,340.8,-89.9,96,3.878,3.911,3.906,3.878,3.898,3.922,19.152,77,14,Waypoint,
37.3089394,-119.5776543,3741.0593503569,161.745412,0,1.20389767632,22200,2018-06-16 18:42:00,17,0,23.416,3741.0593503569,161.745412,0.223694,1.42055122656,0,0,-0.671082,341.6, 2.5, 0,0,0,1024,1024,1024,1024,340.8,-89.9,96,3.878,3.911,3.906,3.878,3.898,3.922,19.152,77,14,Waypoint,
37.3089394,-119.5776544,3742.0436023569,162.729664,0,1.22642064292,22300,2018-06-16 18:42:00,17,0,23.416,3742.0436023569,162.729664,0.223694,1.42055122656,0,0,-0.671082,341.6, 2.6, 0,0,0,1024,1024,1024,1024,340.8,-89.9,96,3.878,3.911,3.906,3.878,3.898,3.922,19.152,77,14,Waypoint,
37.3089394,-119.5776544,3743.0278543569,163.713916,0,1.22642064292,22400,2018-06-16 18:42:00,17,0,23.416,3743.0278543569,163.713916,0.223694,1.42055122656,0,0,-0.671082,341.6, 2.8, -0.1,0,0,1024,1024,1024,1024,340.8,-89.9,96,3.878,3.911,3.906,3.878,3.898,3.922,19.152,77,14,Waypoint,
37.3089395,-119.5776545,3744.0121063569,164.698168,0,1.2719160512,22500,2018-06-16 18:42:00,17,0,23.416,3744.0121063569,164.698168,0.223694,1.42055122656,0,0,-0.671082,341.6, 2.8, -0.3,0,0,1024,1024,1024,1024,340.8,-89.9,96,3.878,3.911,3.906,3.878,3.898,3.922,19.152,77,14,Waypoint,
37.3089395,-119.5776545,3744.9963583569,165.68242,0,1.2719160512,22600,2018-06-16 18:42:00,17,0,23.416,3744.9963583569,165.68242,0.223694,1.42055122656,0,0,-0.671082,341.7, 2.8, -0.4,0,0,1024,1024,1024,1024,340.8,-89.9,96,3.878,3.911,3.906,3.878,3.898,3.922,19.152,77,14,Waypoint,
37.3089395,-119.5776545,3745.9806103569,166.666672,0,1.2719160512,22700,2018-06-16 18:42:00,17,0,23.416,3745.9806103569,166.666672,0.223694,1.42055122656,0,0,-0.671082,341.8, 2.7, -0.4,0,0,1024,1024,1024,1024,340.8,-89.9,96,3.878,3.911,3.906,3.878,3.898,3.922,19.152,77,14,Waypoint,
37.3089395,-119.5776546,3747.2929463569,167.979008,0,1.29455712804,22800,2018-06-16 18:42:00,17,0,23.416,3747.2929463569,167.979008,0.223694,1.42055122656,0,0,-0.671082,341.8, 2.7, -0.3,0,0,1024,1024,1024,1024,340.8,-89.9,96,3.878,3.911,3.906,3.878,3.898,3.922,19.152,77,14,Waypoint,
37.3089395,-119.5776546,3747.9491143569,168.635176,0,1.29455712804,22900,2018-06-16 18:42:00,17,0,23.416,3747.9491143569,168.635176,0.223694,1.42055122656,0,0,-0.671082,341.8, 2.6, -0.2,0,0,1024,1024,1024,1024,340.8,-89.9,96,3.878,3.911,3.906,3.878,3.898,3.922,19.152,77,14,Waypoint,
37.3089395,-119.5776547,3748.9333663569,169.619428,0,1.31744754872,23000,2018-06-16 18:42:00,17,0,23.264,3748.9333663569,169.619428,0.223694,1.42055122656,0,0,-0.671082,341.8, 2.6, -0.2,0,0,1024,1024,1024,1024,340.8,-89.9,96,3.839,3.89,3.879,3.86,3.866,3.903,21.036,77,14,Waypoint,
37.3089395,-119.5776548,3750.9018703569,171.587932,0,1.34057418988,23100,2018-06-16 18:42:00,17,0,23.264,3750.9018703569,171.587932,0.223694,1.42055122656,0,0,-0.671082,341.7, 2.6, -0.1,0,0,1024,1024,1024,1024,340.8,-89.9,96,3.839,3.89,3.879,3.86,3.866,3.903,21.036,77,14,Waypoint,
37.3089395,-119.5776548,3751.8861223569,172.572184,0,1.34057418988,23300,2018-06-16 18:42:01,17,0,23.264,3751.8861223569,172.572184,0.223694,1.42055122656,0,0,-0.671082,341.6, 2.7, -0.2,0,0,1024,1024,1024,1024,340.8,-89.9,96,3.839,3.89,3.879,3.86,3.866,3.903,21.036,77,14,Waypoint,
37.3089395,-119.5776548,3753.1984583569,173.88452,0,1.34057418988,23400,2018-06-16 18:42:01,17,0,23.264,3753.1984583569,173.88452,0.223694,1.42055122656,0,0,-0.671082,341.6, 2.7, -0.2,0,0,1024,1024,1024,1024,340.8,-89.9,96,3.839,3.89,3.879,3.86,3.866,3.903,21.036,77,14,Waypoint,
37.3089395,-119.5776549,3754.1827103569,174.868772,0,1.36393048984,23500,2018-06-16 18:42:01,17,0,23.264,3754.1827103569,174.868772,0.223694,1.42055122656,0,0,-0.671082,341.6, 2.7, -0.1,0,0,1024,1024,1024,1024,340.8,-89.9,96,3.839,3.89,3.879,3.86,3.866,3.903,21.036,77,14,Waypoint,
37.3089394,-119.5776549,3755.1669623569,175.853024,0,1.3427821952,23600,2018-06-16 18:42:01,17,0,23.264,3755.1669623569,175.853024,0.223694,1.42055122656,0,0,-0.671082,341.6, 2.6, 0,0,0,1024,1024,1024,1024,340.8,-89.9,96,3.839,3.89,3.879,3.86,3.866,3.903,21.036,77,14,Waypoint,
37.3089394,-119.577655,3756.1512143569,176.837276,0,1.36671264216,23700,2018-06-16 18:42:01,17,0,23.264,3756.1512143569,176.837276,0.223694,1.42055122656,0,0,-0.671082,341.5, 2.5, 0,0,0,1024,1024,1024,1024,340.8,-89.9,96,3.839,3.89,3.879,3.86,3.866,3.903,21.036,77,14,Waypoint,
37.3089394,-119.577655,3757.1354663569,177.821528,0,1.36671264216,23800,2018-06-16 18:42:01,17,0,23.264,3757.1354663569,177.821528,0.223694,1.42055122656,0,0,-0.671082,341.5, 2.5, 0,0,0,1024,1024,1024,1024,340.8,-89.9,96,3.839,3.89,3.879,3.86,3.866,3.903,21.036,77,14,Waypoint,
37.3089394,-119.577655,3758.1197183569,178.80578,0,1.36671264216,23900,2018-06-16 18:42:01,17,0,23.264,3758.1197183569,178.80578,0.223694,1.42055122656,0,0,-0.671082,341.5, 2.6, 0,0,0,1024,1024,1024,1024,340.8,-89.9,96,3.839,3.89,3.879,3.86,3.866,3.903,21.036,77,14,Waypoint,
37.3089394,-119.577655,3759.1039703569,179.790032,0,1.36671264216,24000,2018-06-16 18:42:01,17,0,23.191,3759.1039703569,179.790032,0.223694,1.42055122656,0,0,-0.671082,341.5, 2.6, 0,0,0,1024,1024,1024,1024,340.8,-89.9,95,3.839,3.89,3.879,3.86,3.866,3.903,21.642,78.8,14,Waypoint,
37.3089394,-119.5776551,3760.0882223569,180.774284,0,1.39083993952,24100,2018-06-16 18:42:01,17,0,23.191,3760.0882223569,180.774284,0.223694,1.42055122656,0,0,-0.671082,341.6, 2.6, 0,0,0,1024,1024,1024,1024,340.8,-89.9,95,3.839,3.89,3.879,3.86,3.866,3.903,21.642,78.8,14,Waypoint,
37.3089394,-119.5776551,3761.0724743569,181.758536,0,1.39083993952,24200,2018-06-16 18:42:02,17,0,23.191,3761.0724743569,181.758536,0.223694,1.42055122656,0,0,-0.671082,341.6, 2.6, -0.1,0,0,1024,1024,1024,1024,340.8,-89.9,95,3.839,3.89,3.879,3.86,3.866,3.903,21.642,78.8,14,Waypoint,
37.3089394,-119.5776551,3762.0567263569,182.742788,0,1.39083993952,24300,2018-06-16 18:42:02,17,0,23.191,3762.0567263569,182.742788,0.223694,1.42055122656,0,0,-0.671082,341.6, 2.7, 0,0,0,1024,1024,1024,1024,340.8,-89.9,95,3.839,3.89,3.879,3.86,3.866,3.903,21.642,78.8,14,Waypoint,
37.3089394,-119.5776551,3763.0409783569,183.72704,0,1.39083993952,24400,2018-06-16 18:42:02,17,0,23.191,3763.0409783569,183.72704,0.223694,1.42055122656,0,0,-0.671082,341.7, 2.9, -0.1,0,0,1024,1024,1024,1024,340.8,-89.9,95,3.839,3.89,3.879,3.86,3.866,3.903,21.642,78.8,14,Waypoint,
37.3089394,-119.5776551,3764.0252303569,184.711292,0,1.39083993952,24500,2018-06-16 18:42:02,17,0,23.191,3764.0252303569,184.711292,0.223694,1.42055122656,0,0,-0.671082,341.6, 3, -0.1,0,0,1024,1024,1024,1024,340.8,-89.9,95,3.839,3.89,3.879,3.86,3.866,3.903,21.642,78.8,14,Waypoint,
37.3089394,-119.5776551,3765.0094823569,185.695544,0,1.39083993952,24600,2018-06-16 18:42:02,17,0,23.191,3765.0094823569,185.695544,0.223694,1.42055122656,0,0,-0.671082,341.6, 3.3, -0.2,0,0,1024,1024,1024,1024,340.8,-90,95,3.839,3.89,3.879,3.86,3.866,3.903,21.642,78.8,14,Waypoint,
37.3089395,-119.5776551,3765.9937343569,186.679796,0,1.41126644936,24700,2018-06-16 18:42:02,17,0,23.191,3765.9937343569,186.679796,0.223694,1.42055122656,0,0,-0.671082,341.7, 3.3, -0.3,0,0,1024,1024,1024,1024,340.8,-89.9,95,3.839,3.89,3.879,3.86,3.866,3.903,21.642,78.8,14,Waypoint,
37.3089395,-119.5776551,3766.9779863569,187.664048,0,1.41126644936,24800,2018-06-16 18:42:02,17,0,23.191,3766.9779863569,187.664048,0.223694,1.42055122656,0,0,-0.671082,341.8, 3.4, -0.4,0,0,1024,1024,1024,1024,340.8,-89.9,95,3.839,3.89,3.879,3.86,3.866,3.903,21.642,78.8,14,Waypoint,
37.3089395,-119.5776551,3767.9622383569,188.6483,0,1.41126644936,24900,2018-06-16 18:42:02,17,0,23.191,3767.9622383569,188.6483,0.223694,1.42055122656,0,0,-0.671082,341.7, 3.4, -0.5,0,0,1024,1024,1024,1024,340.8,-89.9,95,3.839,3.89,3.879,3.86,3.866,3.903,21.642,78.8,14,Waypoint,
37.3089395,-119.5776551,3768.9464903569,189.632552,0,1.41126644936,25000,2018-06-16 18:42:02,17,0,23.167,3768.9464903569,189.632552,0.223694,1.42055122656,0,0,-0.671082,341.5, 3.2, -0.3,0,0,1024,1024,1024,1024,340.8,-89.9,95,3.826,3.869,3.878,3.85,3.862,3.888,21.454,78.8,14,Waypoint,
37.3089395,-119.5776551,3770.2588263569,190.944888,0,1.41126644936,25100,2018-06-16 18:42:02,17,0,23.167,3770.2588263569,190.944888,0.223694,1.42055122656,0,0,-0.671082,341.3, 3.1, -0.1,0,0,1024,1024,1024,1024,340.8,-89.9,95,3.826,3.869,3.878,3.85,3.862,3.888,21.454,78.8,14,Waypoint,
37.3089395,-119.5776551,3771.2430783569,191.92914,0,1.41126644936,25200,2018-06-16 18:42:03,17,0,23.167,3771.2430783569,191.92914,0.223694,1.42055122656,0,0,-0.671082,341.3, 3.4, -0.1,0,0,1024,1024,1024,1024,340.8,-89.9,95,3.826,3.869,3.878,3.85,3.862,3.888,21.454,78.8,14,Waypoint,
37.3089395,-119.577655,3773.2115823569,193.897644,0.223694,1.38749676356,25300,2018-06-16 18:42:03,17,0,23.167,3773.2115823569,193.897644,0.223694,1.42055122656,0,0,-0.671082,341.5, 2.9, -0.7,0,0,1024,1024,1024,1024,340.8,-90,95,3.826,3.869,3.878,3.85,3.862,3.888,21.454,78.8,14,Waypoint,
37.3089395,-119.5776549,3774.1958343569,194.881896,0.223694,1.36393048984,25400,2018-06-16 18:42:03,17,0,23.167,3774.1958343569,194.881896,0.223694,1.42055122656,0,0,-0.671082,341.7, 2.8, -1.1,0,0,1024,1024,1024,1024,340.8,-90,95,3.826,3.869,3.878,3.85,3.862,3.888,21.454,78.8,14,Waypoint,
37.3089395,-119.5776548,3775.1800863569,195.866148,0.223694,1.34057418988,25500,2018-06-16 18:42:03,17,0,23.167,3775.1800863569,195.866148,0.223694,1.42055122656,0,0,-0.671082,341.8, 2.9, -1.4,0,0,1024,1024,1024,1024,340.8,-89.9,95,3.826,3.869,3.878,3.85,3.862,3.888,21.454,78.8,14,Waypoint,
