latitude,longitude,altitude(feet),ascent(feet),speed(mph),distance(feet),time(millisecond),datetime(utc),satellites,gpslevel,voltage(v),max_altitude(feet),max_ascent(feet),max_speed(mph),max_distance(feet), xSpeed(mph), ySpeed(mph), zSpeed(mph), compass_heading(degrees), pitch(degrees), roll(degrees),isPhoto,isVideo,rc_elevator,rc_aileron,rc_throttle,rc_rudder,gimbal_heading(degrees),gimbal_pitch(degrees),battery_percent,voltageCell1,voltageCell2,voltageCell3,voltageCell4,voltageCell5,voltageCell6,current(A),battery_temperature(f),flycStateRaw,flycState,message
37.3089141,-119.5776373,3579.033192613,0,0,0,2940,2018-06-16 18:04:51,13,0,0,3579.033192613,0,0,0,0,0,0,166.9, 1.4, 0.3,1,0,1024,1024,1024,1024,164.3,-89.9,98,4.287,4.282,4.305,4.266,4.279,4.269,0,71.6,11,AutoTakeoff,DJI_0001.jpg Starting Mission from Lat/Long: 37.30897/-119.57762 Camera: Zenmuse X3 - Overlap: 90/90 - Active Connection: No
37.3089141,-119.5776374,3579.033192613,0,0,0.029019357884,3000,2018-06-16 18:04:51,13,0,25.707,3579.033192613,0,0,0.029019357884,0,0,0,167.4, 1, 0,0,0,1024,1024,1024,1024,164.4,-89.9,98,4.287,4.282,4.305,4.266,4.279,4.269,3.038,71.6,11,AutoTakeoff,
37.3089141,-119.5776374,3579.033192613,0,0.223694,0.029019357884,3100,2018-06-16 18:04:51,13,0,25.707,3579.033192613,0,0.223694,0.029019357884,0,0,0,167.5, 0.3, -0.2,0,0,1024,1024,1024,1024,164.4,-90,98,4.287,4.282,4.305,4.266,4.279,4.269,3.038,71.6,11,AutoTakeoff,
37.3089143,-119.5776375,3579.033192613,0,0.223694,0.093236879624,3300,2018-06-16 18:04:52,13,0,25.707,3579.033192613,0,0.223694,0.093236879624,0,0,0,167.2, -1, -0.1,0,0,1024,1024,1024,1024,164.6,-89.9,98,4.287,4.282,4.305,4.266,4.279,4.269,3.038,71.6,11,AutoTakeoff,
37.3089143,-119.5776375,3579.361276613,0.328084,0,0.093236879624,3500,2018-06-16 18:04:52,13,0,25.707,3579.361276613,0.328084,0.223694,0.093236879624,0,0,0,167, -1, 0.1,0,0,1024,1024,1024,1024,164.7,-89.9,98,4.287,4.282,4.305,4.266,4.279,4.269,3.038,71.6,11,AutoTakeoff,
37.3089144,-119.5776376,3579.361276613,0.328084,0,0.139855319436,3600,2018-06-16 18:04:52,13,0,25.707,3579.361276613,0.328084,0.223694,0.139855319436,0,0,0,166.8, -0.8, 0.4,0,0,1024,1024,1024,1024,164.7,-89.9,98,4.287,4.282,4.305,4.266,4.279,4.269,3.038,71.6,11,AutoTakeoff,
37.3089144,-119.5776377,3579.689360613,0.656168,0,0.159544296444,3700,2018-06-16 18:04:52,13,0,25.707,3579.689360613,0.656168,0.223694,0.159544296444,0,0,0,166.7, -0.9, 0.7,0,0,1024,1024,1024,1024,164.7,-89.9,98,4.287,4.282,4.305,4.266,4.279,4.269,3.038,71.6,11,AutoTakeoff,
37.3089145,-119.5776378,3579.689360613,0.656168,0,0.205794954092,3800,2018-06-16 18:04:52,13,0,25.707,3579.689360613,0.656168,0.223694,0.205794954092,0,0,0,166.6, -0.8, 0.5,0,0,1024,1024,1024,1024,164.8,-89.9,98,4.287,4.282,4.305,4.266,4.279,4.269,3.038,71.6,11,AutoTakeoff,
37.3089145,-119.5776379,3580.017444613,0.984252,0,0.227188983648,3900,2018-06-16 18:04:52,13,0,25.707,3580.017444613,0.984252,0.223694,0.227188983648,0,0,0,166.6, -0.8, 0.3,0,0,1024,1024,1024,1024,164.8,-90,98,4.287,4.282,4.305,4.266,4.279,4.269,3.038,71.6,11,AutoTakeoff,
37.3089145,-119.5776381,3580.017444613,0.984252,0,0.27421588804,4000,2018-06-16 18:04:52,13,0,24.977,3580.017444613,0.984252,0.223694,0.27421588804,0,0,0,166.6, -0.8, -0.1,0,0,1024,1024,1024,1024,164.9,-89.9,98,4.154,4.176,4.139,4.118,4.105,4.124,11.602,71.6,11,AutoTakeoff,
37.3089145,-119.5776382,3580.345528613,1.312336,0,0.299182752356,4100,2018-06-16 18:04:52,13,0,24.977,3580.345528613,1.312336,0.223694,0.299182752356,0,0,0,166.5, -0.5, -0.5,0,0,1024,1024,1024,1024,164.9,-89.9,98,4.154,4.176,4.139,4.118,4.105,4.124,11.602,71.6,11,AutoTakeoff,
37.3089145,-119.5776383,3580.345528613,1.312336,0,0.324824157376,4200,2018-06-16 18:04:52,13,0,24.977,3580.345528613,1.312336,0.223694,0.324824157376,0,0,0,166.5, -0.3, -0.8,0,0,1024,1024,1024,1024,165,-89.9,98,4.154,4.176,4.139,4.118,4.105,4.124,11.602,71.6,11,AutoTakeoff,
37.3089146,-119.5776384,3580.673612613,1.64042,0,0.36766405376,4300,2018-06-16 18:04:53,13,0,24.977,3580.673612613,1.64042,0.223694,0.36766405376,0,0,0,166.5, -0.2, -0.9,0,0,1024,1024,1024,1024,165,-89.9,98,4.154,4.176,4.139,4.118,4.105,4.124,11.602,71.6,11,AutoTakeoff,
37.3089146,-119.5776385,3580.673612613,1.64042,0,0.39312009132,4400,2018-06-16 18:04:53,11,0,24.977,3580.673612613,1.64042,0.223694,0.39312009132,0,0,-0.223694,166.5, -0.3, -1,0,0,1024,1024,1024,1024,165,-89.9,98,4.154,4.176,4.139,4.118,4.105,4.124,11.602,71.6,11,AutoTakeoff,
37.3089146,-119.5776386,3581.001696613,1.968504,0,0.419045289,4500,2018-06-16 18:04:53,12,0,24.977,3581.001696613,1.968504,0.223694,0.419045289,0,0,0,166.6, -0.5, -1.1,0,0,1024,1024,1024,1024,165.1,-89.9,98,4.154,4.176,4.139,4.118,4.105,4.124,11.602,71.6,11,AutoTakeoff,
37.3089146,-119.5776387,3581.329780613,2.296588,0,0.44534778328,4700,2018-06-16 18:04:53,12,0,24.977,3581.329780613,2.296588,0.223694,0.44534778328,0,0,0,166.7, -0.5, -1.1,0,0,1024,1024,1024,1024,165.1,-89.9,98,4.154,4.176,4.139,4.118,4.105,4.124,11.602,71.6,11,AutoTakeoff,
37.3089146,-119.5776388,3581.329780613,2.296588,0,0.47197179988,4800,2018-06-16 18:04:53,12,0,24.977,3581.329780613,2.296588,0.223694,0.47197179988,0,0,0,167, -0.6, -0.9,0,0,1024,1024,1024,1024,165.1,-89.9,98,4.154,4.176,4.139,4.118,4.105,4.124,11.602,71.6,11,AutoTakeoff,
37.3089147,-119.5776387,3581.657864613,2.624672,0,0.46149607776,5000,2018-06-16 18:04:53,12,0,24.246,3581.657864613,2.624672,0.223694,0.47197179988,0,0,0,167.1, -0.7, -0.7,0,0,1024,1024,1024,1024,165.2,-89.9,98,4.023,4.057,4.038,4.047,4.032,4.029,15.734,71.6,11,AutoTakeoff,
37.3089146,-119.5776387,3581.985948613,2.952756,0,0.44534778328,5100,2018-06-16 18:04:53,11,0,24.246,3581.985948613,2.952756,0.223694,0.47197179988,0,0,0,167, -0.7, -0.6,0,0,1024,1024,1024,1024,165.2,-89.9,98,4.023,4.057,4.038,4.047,4.032,4.029,15.734,71.6,6,P-GPS,
37.3089146,-119.5776386,3581.985948613,2.952756,0,0.419045289,5200,2018-06-16 18:04:53,11,0,24.246,3581.985948613,2.952756,0.223694,0.47197179988,0,0,0,166.9, -0.6, -0.5,0,0,1024,1024,1024,1024,165.3,-89.9,98,4.023,4.057,4.038,4.047,4.032,4.029,15.734,71.6,14,Waypoint,
37.3089147,-119.5776386,3582.314032613,3.28084,0,0.43616471212,5300,2018-06-16 18:04:54,11,0,24.246,3582.314032613,3.28084,0.223694,0.47197179988,0,0,0,166.8, -0.4, 0,0,0,1024,1024,1024,1024,165.3,-89.9,98,4.023,4.057,4.038,4.047,4.032,4.029,15.734,71.6,14,Waypoint,
37.3089147,-119.5776386,3582.314032613,3.28084,0,0.43616471212,5400,2018-06-16 18:04:54,11,0,24.246,3582.314032613,3.28084,0.223694,0.47197179988,0,0,0,166.8, -0.2, 0.4,0,0,1024,1024,1024,1024,165.3,-89.9,98,4.023,4.057,4.038,4.047,4.032,4.029,15.734,71.6,14,Waypoint,
37.3089147,-119.5776385,3582.314032613,3.28084,0,0.41132219164,5500,2018-06-16 18:04:54,12,0,24.246,3582.314032613,3.28084,0.223694,0.47197179988,0,0,0,166.8, 0, 0.5,0,0,1024,1024,1024,1024,165.3,-89.9,98,4.023,4.057,4.038,4.047,4.032,4.029,15.734,71.6,14,Waypoint,
37.3089148,-119.5776385,3582.642116613,3.608924,0,0.43184712668,5600,2018-06-16 18:04:54,12,0,24.246,3582.642116613,3.608924,0.223694,0.47197179988,0,0,0,166.7, 0, 0.5,0,0,1024,1024,1024,1024,165.4,-89.9,98,4.023,4.057,4.038,4.047,4.032,4.029,15.734,71.6,14,Waypoint,
37.3089148,-119.5776384,3582.642116613,3.608924,0,0.40880578736,5700,2018-06-16 18:04:54,13,0,24.246,3582.642116613,3.608924,0.223694,0.47197179988,0,0,-0.223694,166.7, -0.1, 0.4,0,0,1024,1024,1024,1024,165.4,-89.9,98,4.023,4.057,4.038,4.047,4.032,4.029,15.734,71.6,14,Waypoint,
37.3089148,-119.5776385,3582.970200613,3.937008,0,0.43184712668,5800,2018-06-16 18:04:54,13,0,24.246,3582.970200613,3.937008,0.223694,0.47197179988,0,0,-0.223694,166.7, -0.3, 0.2,0,0,1024,1024,1024,1024,165.4,-89.9,98,4.023,4.057,4.038,4.047,4.032,4.029,15.734,71.6,14,Waypoint,
37.3089147,-119.5776385,3583.298284613,4.265092,0,0.41132219164,6000,2018-06-16 18:04:54,12,0,24.104,3583.298284613,4.265092,0.223694,0.47197179988,0,0,-0.223694,166.8, -0.4, 0,0,0,1024,1024,1024,1024,165.5,-90,98,4.023,4.057,4.038,4.047,4.032,4.029,15.734,71.6,14,Waypoint,
37.3089147,-119.5776386,3583.626368613,4.593176,0,0.43616471212,6100,2018-06-16 18:04:54,12,0,24.104,3583.626368613,4.593176,0.223694,0.47197179988,0,0,-0.223694,166.8, -0.4, -0.2,0,0,1024,1024,1024,1024,165.5,-89.9,98,4.023,4.057,4.038,4.047,4.032,4.029,15.734,71.6,14,Waypoint,
37.3089147,-119.5776386,3583.954452613,4.92126,0,0.43616471212,6200,2018-06-16 18:04:54,12,0,24.104,3583.954452613,4.92126,0.223694,0.47197179988,0,0,-0.223694,166.9, -0.4, -0.3,0,0,1024,1024,1024,1024,165.5,-89.9,98,4.023,4.057,4.038,4.047,4.032,4.029,15.734,71.6,14,Waypoint,
37.3089146,-119.5776387,3584.282536613,5.249344,0,0.44534778328,6300,2018-06-16 18:04:55,12,0,24.104,3584.282536613,5.249344,0.223694,0.47197179988,0,0,-0.223694,167, -0.2, -0.5,0,0,1024,1024,1024,1024,165.5,-89.9,98,4.023,4.057,4.038,4.047,4.032,4.029,15.734,71.6,14,Waypoint,
37.3089146,-119.5776387,3584.938704613,5.905512,0,0.44534778328,6400,2018-06-16 18:04:55,13,0,24.104,3584.938704613,5.905512,0.223694,0.47197179988,0,0,-0.447388,167.1, -0.1, -0.4,0,0,1024,1024,1024,1024,165.5,-89.9,98,4.023,4.057,4.038,4.047,4.032,4.029,15.734,71.6,14,Waypoint,
37.3089146,-119.5776387,3585.266788613,6.233596,0,0.44534778328,6500,2018-06-16 18:04:55,13,0,24.104,3585.266788613,6.233596,0.223694,0.47197179988,0,0,-0.447388,167.2, 0, -0.3,0,0,1024,1024,1024,1024,165.6,-89.9,98,4.023,4.057,4.038,4.047,4.032,4.029,15.734,71.6,14,Waypoint,
37.3089147,-119.5776387,3585.922956613,6.889764,0,0.46149607776,6600,2018-06-16 18:04:55,11,0,24.104,3585.922956613,6.889764,0.223694,0.47197179988,0,0,-0.447388,167.3, -0.1, 0,0,0,1024,1024,1024,1024,165.6,-89.9,98,4.023,4.057,4.038,4.047,4.032,4.029,15.734,71.6,14,Waypoint,
37.3089148,-119.5776387,3586.907208613,7.874016,0,0.47987862428,6700,2018-06-16 18:04:55,11,0,24.104,3586.907208613,7.874016,0.223694,0.47987862428,0,0,-0.447388,167.3, -0.2, 0.1,0,0,1024,1024,1024,1024,165.6,-89.9,98,4.023,4.057,4.038,4.047,4.032,4.029,15.734,71.6,14,Waypoint,
37.3089149,-119.5776387,3587.563376613,8.530184,0,0.50024935984,6800,2018-06-16 18:04:55,11,0,24.104,3587.563376613,8.530184,0.223694,0.50024935984,0,0,-0.671082,167.1, -0.3, 0.3,0,0,1024,1024,1024,1024,165.6,-89.9,98,4.023,4.057,4.038,4.047,4.032,4.029,15.734,71.6,14,Waypoint,
37.3089149,-119.5776386,3588.547628613,9.514436,0,0.47698164256,6900,2018-06-16 18:04:55,11,0,24.104,3588.547628613,9.514436,0.223694,0.50024935984,0,0,-0.671082,167, -0.4, 0.4,0,0,1024,1024,1024,1024,165.6,-90,98,4.023,4.057,4.038,4.047,4.032,4.029,15.734,71.6,14,Waypoint,
37.308915,-119.5776387,3589.531880613,10.498688,0,0.52237862564,7000,2018-06-16 18:04:55,11,0,24.104,3589.531880613,10.498688,0.223694,0.52237862564,0,0,-0.671082,166.9, -0.5, 0.4,0,0,1024,1024,1024,1024,165.6,-90,98,4.002,4.027,4.016,4.019,4.011,4.017,15.734,71.6,14,Waypoint,
37.3089151,-119.577639,3591.500384613,12.467192,0,0.61358597764,7100,2018-06-16 18:04:55,12,0,24.104,3591.500384613,12.467192,0.223694,0.61358597764,0,0,-0.671082,166.6, -0.9, -0.3,0,0,1024,1024,1024,1024,165.7,-90,98,4.002,4.027,4.016,4.019,4.011,4.017,15.734,71.6,14,Waypoint,
37.3089151,-119.5776388,3593.796972613,14.76378,0,0.56797245912,7300,2018-06-16 18:04:56,13,0,24.104,3593.796972613,14.76378,0.223694,0.61358597764,0,0,-0.671082,166.7, -0.5, -0.7,0,0,1024,1024,1024,1024,165.7,-89.9,98,4.002,4.027,4.016,4.019,4.011,4.017,15.734,71.6,14,Waypoint,
37.3089152,-119.5776387,3594.781224613,15.748032,0,0.57107285292,7400,2018-06-16 18:04:56,13,0,24.104,3594.781224613,15.748032,0.223694,0.61358597764,0,0,-0.671082,166.7, -0.2, -0.4,0,0,1024,1024,1024,1024,165.7,-89.9,98,4.002,4.027,4.016,4.019,4.011,4.017,15.734,71.6,14,Waypoint,
37.3089152,-119.5776386,3596.093560613,17.060368,0,0.55080710424,7500,2018-06-16 18:04:56,12,0,24.104,3596.093560613,17.060368,0.223694,0.61358597764,0,0,-0.671082,166.7, -0.1, 0.1,0,0,1024,1024,1024,1024,165.7,-89.9,98,4.002,4.027,4.016,4.019,4.011,4.017,15.734,71.6,14,Waypoint,
37.3089151,-119.5776383,3597.077812613,18.04462,0,0.46618439812,7600,2018-06-16 18:04:56,12,0,24.104,3597.077812613,18.04462,0.223694,0.61358597764,0,0,-0.671082,166.7, 0, 0.6,0,0,1024,1024,1024,1024,165.7,-89.9,98,4.002,4.027,4.016,4.019,4.011,4.017,15.734,71.6,14,Waypoint,
37.308915,-119.5776383,3598.390148613,19.356956,0,0.43821851796,7700,2018-06-16 18:04:56,12,0,24.104,3598.390148613,19.356956,0.223694,0.61358597764,0,0,-0.671082,166.8, 0.1, 1.1,0,0,1024,1024,1024,1024,165.7,-89.9,98,4.002,4.027,4.016,4.019,4.011,4.017,15.734,71.6,14,Waypoint,
37.308915,-119.5776384,3599.374400613,20.341208,0,0.45795277056,7800,2018-06-16 18:04:56,12,0,24.104,3599.374400613,20.341208,0.223694,0.61358597764,0,0,-0.671082,166.8, 0.1, 1.1,0,0,1024,1024,1024,1024,165.8,-89.9,98,4.002,4.027,4.016,4.019,4.011,4.017,15.734,71.6,14,Waypoint,
37.3089149,-119.5776385,3600.686736613,21.653544,0,0.45437665496,7900,2018-06-16 18:04:56,11,0,24.104,3600.686736613,21.653544,0.223694,0.61358597764,0,0,-0.671082,166.8, 0, 0.5,0,0,1024,1024,1024,1024,165.8,-89.9,98,4.002,4.027,4.016,4.019,4.011,4.017,15.734,71.6,14,Waypoint,
37.3089149,-119.5776385,3601.670988613,22.637796,0,0.45437665496,8000,2018-06-16 18:04:56,11,0,24.098,3601.670988613,22.637796,0.223694,0.61358597764,0,0,-0.671082,166.8, -0.1, -0.2,0,0,1024,1024,1024,1024,165.8,-89.9,98,3.881,3.896,3.96,3.979,3.958,3.957,23.652,71.6,14,Waypoint,
37.3089148,-119.5776385,3602.983324613,23.950132,0,0.43184712668,8100,2018-06-16 18:04:56,12,0,24.098,3602.983324613,23.950132,0.223694,0.61358597764,0,0,-0.671082,166.8, -0.1, -0.7,0,0,1024,1024,1024,1024,165.8,-89.9,98,3.881,3.896,3.96,3.979,3.958,3.957,23.652,71.6,14,Waypoint,
37.3089147,-119.5776387,3603.967576613,24.934384,0,0.46149607776,8200,2018-06-16 18:04:56,12,0,24.098,3603.967576613,24.934384,0.223694,0.61358597764,0,0,-0.671082,166.9, 0, -1,0,0,1024,1024,1024,1024,165.8,-89.9,98,3.881,3.896,3.96,3.979,3.958,3.957,23.652,71.6,14,Waypoint,
37.3089146,-119.5776388,3604.951828613,25.918636,0,0.47197179988,8300,2018-06-16 18:04:57,12,0,24.098,3604.951828613,25.918636,0.223694,0.61358597764,0,0,-0.671082,166.9, 0.2, -1.1,0,0,1024,1024,1024,1024,165.8,-89.9,98,3.881,3.896,3.96,3.979,3.958,3.957,23.652,71.6,14,Waypoint,
37.3089144,-119.5776388,3606.264164613,27.230972,0,0.44884187788,8500,2018-06-16 18:04:57,12,0,24.098,3606.264164613,27.230972,0.223694,0.61358597764,0,0,-0.671082,166.9, 0.4, -1.1,0,0,1024,1024,1024,1024,165.9,-89.9,98,3.881,3.896,3.96,3.979,3.958,3.957,23.652,71.6,14,Waypoint,
37.3089143,-119.5776388,3607.248416613,28.215224,0,0.44136484352,8600,2018-06-16 18:04:57,12,0,24.098,3607.248416613,28.215224,0.223694,0.61358597764,0,0,-0.671082,166.8, 0.6, -1.1,0,0,1024,1024,1024,1024,165.9,-89.9,98,3.881,3.896,3.96,3.979,3.958,3.957,23.652,71.6,14,Waypoint,
37.3089141,-119.5776389,3608.232668613,29.199476,0,0.46431103848,8700,2018-06-16 18:04:57,12,0,24.098,3608.232668613,29.199476,0.223694,0.61358597764,0,0,-0.671082,166.8, 0.8, -0.9,0,0,1024,1024,1024,1024,165.9,-89.9,98,3.881,3.896,3.96,3.979,3.958,3.957,23.652,71.6,14,Waypoint,
37.308914,-119.5776388,3609.216920613,30.183728,0,0.43681759928,8800,2018-06-16 18:04:57,13,0,24.098,3609.216920613,30.183728,0.223694,0.61358597764,0,0,-0.671082,166.8, 0.9, -0.5,0,0,1024,1024,1024,1024,165.9,-89.9,98,3.881,3.896,3.96,3.979,3.958,3.957,23.652,71.6,14,Waypoint,
37.3089139,-119.5776387,3610.529256613,31.496064,0,0.41277232292,8900,2018-06-16 18:04:57,13,0,24.098,3610.529256613,31.496064,0.223694,0.61358597764,0,0,-0.671082,166.7, 1.1, -0.3,0,0,1024,1024,1024,1024,165.8,-89.9,98,3.881,3.896,3.96,3.979,3.958,3.957,23.652,71.6,14,Waypoint,
37.3089139,-119.5776387,3611.513508613,32.480316,0,0.41277232292,9000,2018-06-16 18:04:57,14,0,23.694,3611.513508613,32.480316,0.223694,0.61358597764,0,0,-0.671082,166.6, 0.7, -0.2,0,0,1024,1024,1024,1024,165.9,-89.9,98,3.925,3.981,3.95,3.972,3.957,3.89,19.674,71.6,14,Waypoint,
37.3089139,-119.5776387,3612.497760613,33.464568,0,0.41277232292,9100,2018-06-16 18:04:57,14,0,23.694,3612.497760613,33.464568,0.223694,0.61358597764,0,0,-0.671082,166.8, 0.3, 0.2,0,0,1024,1024,1024,1024,165.9,-89.9,98,3.925,3.981,3.95,3.972,3.957,3.89,19.674,71.6,14,Waypoint,
37.3089138,-119.5776386,3613.482012613,34.44882,0,0.39280841152,9200,2018-06-16 18:04:57,13,0,23.694,3613.482012613,34.44882,0.223694,0.61358597764,0,0,-0.671082,166.9, 0.1, 0.7,0,0,1024,1024,1024,1024,165.9,-89.9,98,3.925,3.981,3.95,3.972,3.957,3.89,19.674,71.6,14,Waypoint,
37.3089138,-119.5776387,3614.466264613,35.433072,0,0.42075788748,9300,2018-06-16 18:04:58,13,0,23.694,3614.466264613,35.433072,0.223694,0.61358597764,0,0,-0.671082,166.9, 0, 0.6,0,0,1024,1024,1024,1024,165.9,-89.9,98,3.925,3.981,3.95,3.972,3.957,3.89,19.674,71.6,14,Waypoint,
37.3089138,-119.5776387,3615.450516613,36.417324,0,0.42075788748,9400,2018-06-16 18:04:58,12,0,23.694,3615.450516613,36.417324,0.223694,0.61358597764,0,0,-0.671082,166.9, 0.1, 0,0,0,1024,1024,1024,1024,165.9,-89.9,98,3.925,3.981,3.95,3.972,3.957,3.89,19.674,71.6,14,Waypoint,
37.3089138,-119.5776386,3616.434768613,37.401576,0,0.39280841152,9500,2018-06-16 18:04:58,12,0,23.694,3616.434768613,37.401576,0.223694,0.61358597764,0,0,-0.671082,167, 0, -0.1,0,0,1024,1024,1024,1024,165.9,-89.9,98,3.925,3.981,3.95,3.972,3.957,3.89,19.674,71.6,14,Waypoint,
37.3089137,-119.5776386,3617.419020613,38.385828,0,0.4044947636,9600,2018-06-16 18:04:58,14,0,23.694,3617.419020613,38.385828,0.223694,0.61358597764,0,0,-0.671082,167, 0.1, 0,0,0,1024,1024,1024,1024,165.9,-89.9,98,3.925,3.981,3.95,3.972,3.957,3.89,19.674,71.6,14,Waypoint,
37.3089137,-119.5776386,3618.403272613,39.37008,0,0.4044947636,9700,2018-06-16 18:04:58,14,0,23.694,3618.403272613,39.37008,0.223694,0.61358597764,0,0,-0.671082,167.2, 0.3, 0.1,0,0,1024,1024,1024,1024,165.9,-89.9,98,3.925,3.981,3.95,3.972,3.957,3.89,19.674,71.6,14,Waypoint,
37.3089136,-119.5776387,3620.371776613,41.338584,0,0.44534778328,9800,2018-06-16 18:04:58,14,0,23.694,3620.371776613,41.338584,0.223694,0.61358597764,0,0,-0.671082,167.1, 0.6, 0,0,0,1024,1024,1024,1024,165.9,-89.9,98,3.925,3.981,3.95,3.972,3.957,3.89,19.674,71.6,14,Waypoint,
37.3089135,-119.5776388,3621.356028613,42.322836,0,0.4872375484,9900,2018-06-16 18:04:58,13,0,23.694,3621.356028613,42.322836,0.223694,0.61358597764,0,0,-0.671082,166.9, 0.6, 0,0,0,1024,1024,1024,1024,165.9,-89.9,98,3.925,3.981,3.95,3.972,3.957,3.89,19.674,71.6,14,Waypoint,
37.3089134,-119.5776388,3622.340280613,43.307088,0,0.50468177468,10000,2018-06-16 18:04:58,13,0,23.784,3622.340280613,43.307088,0.223694,0.61358597764,0,0,-0.671082,166.9, 0.8, -0.2,0,0,1024,1024,1024,1024,165.9,-89.9,98,3.946,3.977,3.963,3.966,3.964,3.958,17.557,71.6,14,Waypoint,
37.3089134,-119.5776388,3623.324532613,44.29134,0,0.50468177468,10100,2018-06-16 18:04:58,13,0,23.784,3623.324532613,44.29134,0.223694,0.61358597764,0,0,-0.671082,166.8, 1.1, -0.1,0,0,1024,1024,1024,1024,165.9,-89.9,98,3.946,3.977,3.963,3.966,3.964,3.958,17.557,71.6,14,Waypoint,
37.3089134,-119.5776389,3624.308784613,45.275592,0,0.52991471512,10200,2018-06-16 18:04:58,13,0,23.784,3624.308784613,45.275592,0.223694,0.61358597764,0,0,-0.671082,166.8, 1.1, -0.1,0,0,1024,1024,1024,1024,165.8,-89.9,98,3.946,3.977,3.963,3.966,3.964,3.958,17.557,71.6,14,Waypoint,
37.3089135,-119.5776389,3625.293036613,46.259844,0,0.51332678808,10300,2018-06-16 18:04:59,13,0,23.784,3625.293036613,46.259844,0.223694,0.61358597764,0,0,-0.671082,166.8, 0.8, -0.2,0,0,1024,1024,1024,1024,165.9,-89.9,98,3.946,3.977,3.963,3.966,3.964,3.958,17.557,71.6,14,Waypoint,
37.3089135,-119.5776389,3626.277288613,47.244096,0,0.51332678808,10400,2018-06-16 18:04:59,13,0,23.784,3626.277288613,47.244096,0.223694,0.61358597764,0,0,-0.671082,166.8, 0.2, -0.4,0,0,1024,1024,1024,1024,165.9,-90,98,3.946,3.977,3.963,3.966,3.964,3.958,17.557,71.6,14,Waypoint,
37.3089136,-119.5776389,3627.261540613,48.228348,0,0.49886156452,10500,2018-06-16 18:04:59,12,0,23.784,3627.261540613,48.228348,0.223694,0.61358597764,0,0,-0.671082,166.8, 0, -0.3,0,0,1024,1024,1024,1024,165.9,-90,98,3.946,3.977,3.963,3.966,3.964,3.958,17.557,71.6,14,Waypoint,
37.3089136,-119.577639,3628.245792613,49.2126,0,0.52597770712,10600,2018-06-16 18:04:59,12,0,23.784,3628.245792613,49.2126,0.223694,0.61358597764,0,0,-0.671082,166.8, 0, -0.1,0,0,1024,1024,1024,1024,165.9,-90,98,3.946,3.977,3.963,3.966,3.964,3.958,17.557,71.6,14,Waypoint,
37.3089136,-119.577639,3629.230044613,50.196852,0,0.52597770712,10800,2018-06-16 18:04:59,13,0,23.784,3629.230044613,50.196852,0.223694,0.61358597764,0,0,-0.671082,166.7, 0, -0.3,0,0,1024,1024,1024,1024,165.9,-90,98,3.946,3.977,3.963,3.966,3.964,3.958,17.557,71.6,14,Waypoint,
37.3089137,-119.577639,3630.214296613,51.181104,0,0.51446195872,10900,2018-06-16 18:04:59,13,0,23.784,3630.214296613,51.181104,0.223694,0.61358597764,0,0,-0.671082,166.6, 0, -0.7,0,0,1024,1024,1024,1024,165.9,-89.9,98,3.946,3.977,3.963,3.966,3.964,3.958,17.557,71.6,14,Waypoint,
37.3089138,-119.577639,3631.198548613,52.165356,0,0.50532481932,11000,2018-06-16 18:04:59,13,0,23.644,3631.198548613,52.165356,0.223694,0.61358597764,0,0,-0.671082,166.5, -0.1, -0.7,0,0,1024,1024,1024,1024,165.9,-89.9,98,3.915,3.952,3.935,3.941,3.938,3.935,19.208,71.6,14,Waypoint,
37.3089139,-119.5776391,3632.182800613,53.149608,0,0.52742127672,11100,2018-06-16 18:04:59,13,0,23.644,3632.182800613,53.149608,0.223694,0.61358597764,0,0,-0.671082,166.5, 0, -0.6,0,0,1024,1024,1024,1024,165.9,-90,98,3.915,3.952,3.935,3.941,3.938,3.935,19.208,71.6,14,Waypoint,
37.3089139,-119.5776392,3633.167052613,54.13386,0,0.55617455848,11200,2018-06-16 18:04:59,13,0,23.644,3633.167052613,54.13386,0.223694,0.61358597764,0,0,-0.671082,166.6, -0.3, -0.4,0,0,1024,1024,1024,1024,165.9,-90,98,3.915,3.952,3.935,3.941,3.938,3.935,19.208,71.6,14,Waypoint,
37.308914,-119.5776392,3634.151304613,55.118112,0,0.55257219616,11300,2018-06-16 18:05:00,13,0,23.644,3634.151304613,55.118112,0.223694,0.61358597764,0,0,-0.671082,166.7, -0.4, -0.5,0,0,1024,1024,1024,1024,165.8,-90,98,3.915,3.952,3.935,3.941,3.938,3.935,19.208,71.6,14,Waypoint,
37.3089141,-119.5776392,3635.463640613,56.430448,0,0.55136812788,11400,2018-06-16 18:05:00,14,0,23.644,3635.463640613,56.430448,0.223694,0.61358597764,0,0,-0.671082,166.7, -0.6, -0.6,0,0,1024,1024,1024,1024,165.9,-90,98,3.915,3.952,3.935,3.941,3.938,3.935,19.208,71.6,14,Waypoint,
37.3089141,-119.5776393,3636.447892613,57.4147,0,0.58038715768,11500,2018-06-16 18:05:00,14,0,23.644,3636.447892613,57.4147,0.223694,0.61358597764,0,0,-0.671082,166.7, -0.6, -0.9,0,0,1024,1024,1024,1024,165.9,-89.9,98,3.915,3.952,3.935,3.941,3.938,3.935,19.208,71.6,14,Waypoint,
37.3089142,-119.5776393,3637.104060613,58.070868,0,0.58153217084,11600,2018-06-16 18:05:00,14,0,23.644,3637.104060613,58.070868,0.223694,0.61358597764,0,0,-0.671082,166.7, -0.6, -0.9,0,0,1024,1024,1024,1024,165.9,-90,98,3.915,3.952,3.935,3.941,3.938,3.935,19.208,71.6,14,Waypoint,
37.3089144,-119.5776394,3638.088312613,59.05512,0,0.61915684396,11700,2018-06-16 18:05:00,14,0,23.644,3638.088312613,59.05512,0.223694,0.61915684396,0,0,-0.671082,166.6, -0.7, -0.8,0,0,1024,1024,1024,1024,165.9,-89.9,98,3.915,3.952,3.935,3.941,3.938,3.935,19.208,71.6,14,Waypoint,
37.3089145,-119.5776394,3639.072564613,60.039372,0,0.62663715916,11800,2018-06-16 18:05:00,13,0,23.644,3639.072564613,60.039372,0.223694,0.62663715916,0,0,-0.671082,166.7, -1.1, -0.9,0,0,1024,1024,1024,1024,165.9,-89.9,98,3.915,3.952,3.935,3.941,3.938,3.935,19.208,71.6,14,Waypoint,
37.3089146,-119.5776393,3640.056816613,61.023624,0,0.6083825654,11900,2018-06-16 18:05:00,13,0,23.644,3640.056816613,61.023624,0.223694,0.62663715916,0,0,-0.671082,166.8, -1.3, -0.9,0,0,1024,1024,1024,1024,165.9,-89.9,98,3.915,3.952,3.935,3.941,3.938,3.935,19.208,71.6,14,Waypoint,
37.3089147,-119.5776394,3642.025320613,62.992128,0,0.64753282912,12000,2018-06-16 18:05:00,14,0,23.59,3642.025320613,62.992128,0.223694,0.64753282912,0,0,-0.671082,166.8, -1, -0.4,0,0,1024,1024,1024,1024,165.9,-89.9,97,3.906,3.946,3.935,3.933,3.934,3.928,19.067,71.6,14,Waypoint,
37.3089148,-119.5776395,3643.993824613,64.960632,0,0.6876148514,12200,2018-06-16 18:05:00,14,0,23.59,3643.993824613,64.960632,0.223694,0.6876148514,0,0,-0.671082,166.8, -0.7, -0.2,0,0,1024,1024,1024,1024,165.9,-89.9,97,3.906,3.946,3.935,3.933,3.934,3.928,19.067,71.6,14,Waypoint,
37.3089148,-119.5776396,3644.978076613,65.944884,0,0.71463913048,12300,2018-06-16 18:05:01,14,0,23.59,3644.978076613,65.944884,0.223694,0.71463913048,0,0,-0.671082,166.8, -0.6, -0.8,0,0,1024,1024,1024,1024,165.9,-89.9,97,3.906,3.946,3.935,3.933,3.934,3.928,19.067,71.6,14,Waypoint,
37.3089149,-119.5776396,3645.962328613,66.929136,0,0.72847443276,12400,2018-06-16 18:05:01,14,0,23.59,3645.962328613,66.929136,0.223694,0.72847443276,0,0,-0.671082,166.9, -0.5, -1.2,0,0,1024,1024,1024,1024,165.9,-89.9,97,3.906,3.946,3.935,3.933,3.934,3.928,19.067,71.6,14,Waypoint,
37.3089149,-119.5776396,3646.946580613,67.913388,0,0.72847443276,12500,2018-06-16 18:05:01,14,0,23.59,3646.946580613,67.913388,0.223694,0.72847443276,0,0,-0.671082,167, -0.6, -1.2,0,0,1024,1024,1024,1024,165.9,-89.9,97,3.906,3.946,3.935,3.933,3.934,3.928,19.067,71.6,14,Waypoint,
37.308915,-119.5776396,3647.930832613,68.89764,0,0.74384516816,12600,2018-06-16 18:05:01,14,0,23.59,3647.930832613,68.89764,0.223694,0.74384516816,0,0,-0.671082,167.1, -0.7, -1,0,0,1024,1024,1024,1024,165.9,-89.9,97,3.906,3.946,3.935,3.933,3.934,3.928,19.067,71.6,14,Waypoint,
37.308915,-119.5776396,3648.915084613,69.881892,0,0.74384516816,12700,2018-06-16 18:05:01,14,0,23.59,3648.915084613,69.881892,0.223694,0.74384516816,0,0,-0.671082,167.1, -0.7, -0.7,0,0,1024,1024,1024,1024,165.9,-89.9,97,3.906,3.946,3.935,3.933,3.934,3.928,19.067,71.6,14,Waypoint,
37.3089151,-119.5776396,3649.899336613,70.866144,0,0.76065619232,12800,2018-06-16 18:05:01,14,0,23.59,3649.899336613,70.866144,0.223694,0.76065619232,0,0,-0.671082,167.2, -0.7, -0.4,0,0,1024,1024,1024,1024,165.9,-89.9,97,3.906,3.946,3.935,3.933,3.934,3.928,19.067,71.6,14,Waypoint,
37.3089151,-119.5776396,3650.883588613,71.850396,0,0.76065619232,12900,2018-06-16 18:05:01,12,0,23.59,3650.883588613,71.850396,0.223694,0.76065619232,0,0,-0.671082,167.4, -1.1, -0.2,0,0,1024,1024,1024,1024,165.9,-89.9,97,3.906,3.946,3.935,3.933,3.934,3.928,19.067,71.6,14,Waypoint,
37.3089152,-119.5776396,3651.867840613,72.834648,0,0.77881564172,13000,2018-06-16 18:05:01,12,0,23.534,3651.867840613,72.834648,0.223694,0.77881564172,0,0,-0.671082,167.4, -1.3, -0.2,0,0,1024,1024,1024,1024,165.9,-89.9,97,3.895,3.932,3.927,3.928,3.923,3.915,19.34,71.6,14,Waypoint,
37.3089152,-119.5776396,3652.852092613,73.8189,0,0.77881564172,13100,2018-06-16 18:05:01,13,0,23.534,3652.852092613,73.8189,0.223694,0.77881564172,0,0,-0.671082,167.4, -1.2, -0.5,0,0,1024,1024,1024,1024,165.9,-89.9,97,3.895,3.932,3.927,3.928,3.923,3.915,19.34,71.6,14,Waypoint,
37.3089152,-119.5776397,3653.836344613,74.803152,0,0.8038222042,13200,2018-06-16 18:05:01,13,0,23.534,3653.836344613,74.803152,0.223694,0.8038222042,0,0,-0.671082,167.2, -1, -0.7,0,0,1024,1024,1024,1024,165.9,-89.9,97,3.895,3.932,3.927,3.928,3.923,3.915,19.34,71.6,14,Waypoint,
37.3089153,-119.5776397,3654.820596613,75.787404,0,0.82264766412,13310,2018-06-16 18:05:02,14,0,23.534,3654.820596613,75.787404,0.223694,0.82264766412,0,0,-0.671082,167, -0.8, -0.7,0,0,1024,1024,1024,1024,165.9,-89.9,97,3.895,3.932,3.927,3.928,3.923,3.915,19.34,71.6,14,Waypoint,
37.3089153,-119.5776397,3654.820596613,75.787404,0,0.82264766412,13400,2018-06-16 18:05:02,14,0,23.534,3654.820596613,75.787404,0.223694,0.82264766412,0,0,-0.671082,167, -0.8, -0.7,0,0,1024,1024,1024,1024,165.9,-89.9,97,3.895,3.932,3.927,3.928,3.923,3.915,19.34,71.6,14,Waypoint,
37.3089153,-119.5776398,3655.804848613,76.771656,0,0.84735567016,13500,2018-06-16 18:05:02,14,0,23.534,3655.804848613,76.771656,0.223694,0.84735567016,0,0,-0.671082,166.9, -0.7, -1,0,0,1024,1024,1024,1024,165.9,-89.9,97,3.895,3.932,3.927,3.928,3.923,3.915,19.34,71.6,14,Waypoint,
37.3089153,-119.5776398,3656.789100613,77.755908,0,0.84735567016,13600,2018-06-16 18:05:02,14,0,23.534,3656.789100613,77.755908,0.223694,0.84735567016,0,0,-0.671082,166.9, -0.7, -1.3,0,0,1024,1024,1024,1024,165.9,-89.9,97,3.895,3.932,3.927,3.928,3.923,3.915,19.34,71.6,14,Waypoint,
37.3089153,-119.5776399,3657.773352613,78.74016,0,0.87232942424,13700,2018-06-16 18:05:02,14,0,23.534,3657.773352613,78.74016,0.223694,0.87232942424,0,0,-0.671082,166.9, -0.7, -1.2,0,0,1024,1024,1024,1024,165.9,-89.9,97,3.895,3.932,3.927,3.928,3.923,3.915,19.34,71.6,14,Waypoint,
37.3089153,-119.5776399,3658.757604613,79.724412,0,0.87232942424,13800,2018-06-16 18:05:02,14,0,23.534,3658.757604613,79.724412,0.223694,0.87232942424,0,0,-0.671082,167, -0.5, -1.1,0,0,1024,1024,1024,1024,165.9,-89.9,97,3.895,3.932,3.927,3.928,3.923,3.915,19.34,71.6,14,Waypoint,
37.3089154,-119.57764,3659.741856613,80.708664,0,0.91589897944,13900,2018-06-16 18:05:02,14,0,23.534,3659.741856613,80.708664,0.223694,0.91589897944,0,0,-0.671082,167, -0.7, -0.9,0,0,1024,1024,1024,1024,165.9,-89.9,97,3.895,3.932,3.927,3.928,3.923,3.915,19.34,71.6,14,Waypoint,
37.3089154,-119.57764,3660.726108613,81.692916,0,0.91589897944,14000,2018-06-16 18:05:02,14,0,23.496,3660.726108613,81.692916,0.223694,0.91589897944,0,0,-0.671082,167, -1, -0.9,0,0,1024,1024,1024,1024,165.9,-89.9,97,3.899,3.935,3.923,3.916,3.915,3.917,19.708,71.6,14,Waypoint,
37.3089154,-119.5776401,3661.710360613,82.677168,0,0.9408464868,14100,2018-06-16 18:05:02,14,0,23.496,3661.710360613,82.677168,0.223694,0.9408464868,0,0,-0.671082,167.1, -1.1, -1,0,0,1024,1024,1024,1024,165.9,-90,97,3.899,3.935,3.923,3.916,3.915,3.917,19.708,71.6,14,Waypoint,
37.3089154,-119.5776401,3662.694612613,83.66142,0,0.9408464868,14200,2018-06-16 18:05:02,14,0,23.496,3662.694612613,83.66142,0.223694,0.9408464868,0,0,-0.671082,167, -1.1, -1.2,0,0,1024,1024,1024,1024,165.8,-89.9,97,3.899,3.935,3.923,3.916,3.915,3.917,19.708,71.6,14,Waypoint,
37.3089154,-119.5776401,3663.678864613,84.645672,0,0.9408464868,14300,2018-06-16 18:05:03,14,0,23.496,3663.678864613,84.645672,0.223694,0.9408464868,0,0,-0.671082,166.9, -1.1, -1.3,0,0,1024,1024,1024,1024,165.9,-89.9,97,3.899,3.935,3.923,3.916,3.915,3.917,19.708,71.6,14,Waypoint,
37.3089154,-119.5776402,3664.663116613,85.629924,0,0.96601709128,14400,2018-06-16 18:05:03,14,0,23.496,3664.663116613,85.629924,0.223694,0.96601709128,0,0,-0.671082,166.8, -0.9, -1.4,0,0,1024,1024,1024,1024,165.9,-89.9,97,3.899,3.935,3.923,3.916,3.915,3.917,19.708,71.6,14,Waypoint,
37.3089153,-119.5776402,3665.647368613,86.614176,0,0.94863520096,14500,2018-06-16 18:05:03,14,0,23.496,3665.647368613,86.614176,0.223694,0.96601709128,0,0,-0.671082,166.7, -0.8, -1.6,0,0,1024,1024,1024,1024,165.9,-89.9,97,3.899,3.935,3.923,3.916,3.915,3.917,19.708,71.6,14,Waypoint,
37.3089153,-119.5776402,3666.631620613,87.598428,0,0.94863520096,14600,2018-06-16 18:05:03,14,0,23.496,3666.631620613,87.598428,0.223694,0.96601709128,0,0,-0.671082,166.6, -0.7, -1.8,0,0,1024,1024,1024,1024,165.9,-89.9,97,3.899,3.935,3.923,3.916,3.915,3.917,19.708,71.6,14,Waypoint,
37.3089153,-119.5776403,3668.600124613,89.566932,0,0.97447181596,14700,2018-06-16 18:05:03,14,0,23.496,3668.600124613,89.566932,0.223694,0.97447181596,0,0,-0.671082,166.5, -0.8, -1.6,0,0,1024,1024,1024,1024,165.9,-89.9,97,3.899,3.935,3.923,3.916,3.915,3.917,19.708,71.6,14,Waypoint,
37.3089154,-119.5776403,3669.584376613,90.551184,0,0.99140095036,14800,2018-06-16 18:05:03,14,0,23.496,3669.584376613,90.551184,0.223694,0.99140095036,0,0,-0.671082,166.6, -0.8, -1.1,0,0,1024,1024,1024,1024,165.9,-89.9,97,3.899,3.935,3.923,3.916,3.915,3.917,19.708,71.6,14,Waypoint,
37.3089153,-119.5776403,3670.568628613,91.535436,0,0.97447181596,14900,2018-06-16 18:05:03,14,0,23.496,3670.568628613,91.535436,0.223694,0.99140095036,0,0,-0.671082,166.8, -0.6, -0.7,0,0,1024,1024,1024,1024,165.8,-89.9,97,3.899,3.935,3.923,3.916,3.915,3.917,19.708,71.6,14,Waypoint,
37.3089153,-119.5776402,3671.552880613,92.519688,0,0.94863520096,15000,2018-06-16 18:05:03,14,0,23.494,3671.552880613,92.519688,0.223694,0.99140095036,0,0,-0.671082,167, -0.5, -0.5,0,0,1024,1024,1024,1024,165.8,-89.9,97,3.892,3.932,3.924,3.916,3.918,3.915,19.206,71.6,14,Waypoint,
37.3089153,-119.5776402,3672.209048613,93.175856,0,0.94863520096,15100,2018-06-16 18:05:03,14,0,23.494,3672.209048613,93.175856,0.223694,0.99140095036,0,0,-0.671082,167.2, -0.7, -0.6,0,0,1024,1024,1024,1024,165.9,-90,97,3.892,3.932,3.924,3.916,3.918,3.915,19.206,71.6,14,Waypoint,
37.3089153,-119.5776402,3673.193300613,94.160108,0,0.94863520096,15200,2018-06-16 18:05:03,14,0,23.494,3673.193300613,94.160108,0.223694,0.99140095036,0,0,-0.671082,167.3, -0.9, -0.5,0,0,1024,1024,1024,1024,165.9,-89.9,97,3.892,3.932,3.924,3.916,3.918,3.915,19.206,71.6,14,Waypoint,
37.3089153,-119.5776402,3674.177552613,95.14436,0,0.94863520096,15300,2018-06-16 18:05:04,14,0,23.494,3674.177552613,95.14436,0.223694,0.99140095036,0,0,-0.671082,167.3, -1, -0.7,0,0,1024,1024,1024,1024,165.9,-89.9,97,3.892,3.932,3.924,3.916,3.918,3.915,19.206,71.6,14,Waypoint,
37.3089153,-119.5776402,3675.161804613,96.128612,0,0.94863520096,15400,2018-06-16 18:05:04,14,0,23.494,3675.161804613,96.128612,0.223694,0.99140095036,0,0,-0.671082,167.2, -1, -1,0,0,1024,1024,1024,1024,165.9,-89.9,97,3.892,3.932,3.924,3.916,3.918,3.915,19.206,71.6,14,Waypoint,
37.3089153,-119.5776403,3676.146056613,97.112864,0,0.97447181596,15500,2018-06-16 18:05:04,14,0,23.494,3676.146056613,97.112864,0.223694,0.99140095036,0,0,-0.671082,167.1, -0.9, -1,0,0,1024,1024,1024,1024,165.9,-89.9,97,3.892,3.932,3.924,3.916,3.918,3.915,19.206,71.6,14,Waypoint,
37.3089153,-119.5776403,3677.130308613,98.097116,0,0.97447181596,15600,2018-06-16 18:05:04,14,0,23.494,3677.130308613,98.097116,0.223694,0.99140095036,0,0,-0.671082,167, -0.8, -1,0,0,1024,1024,1024,1024,165.9,-89.9,97,3.892,3.932,3.924,3.916,3.918,3.915,19.206,71.6,14,Waypoint,
37.3089152,-119.5776403,3678.114560613,99.081368,0,0.95863520128,15800,2018-06-16 18:05:04,14,0,23.494,3678.114560613,99.081368,0.223694,0.99140095036,0,0,-0.671082,167, -0.8, -1,0,0,1024,1024,1024,1024,165.8,-89.9,97,3.892,3.932,3.924,3.916,3.918,3.915,19.206,71.6,14,Waypoint,
37.3089152,-119.5776403,3679.098812613,100.06562,0,0.95863520128,15900,2018-06-16 18:05:04,14,0,23.494,3679.098812613,100.06562,0.223694,0.99140095036,0,0,-0.671082,166.9, -0.9, -0.9,0,0,1024,1024,1024,1024,165.9,-89.9,97,3.892,3.932,3.924,3.916,3.918,3.915,19.206,71.6,14,Waypoint,
37.3089152,-119.5776403,3680.083064613,101.049872,0,0.95863520128,16000,2018-06-16 18:05:04,14,0,23.471,3680.083064613,101.049872,0.223694,0.99140095036,0,0,-0.671082,166.8, -0.9, -0.8,0,0,1024,1024,1024,1024,165.9,-90,97,3.893,3.923,3.916,3.916,3.909,3.905,19.04,71.6,14,Waypoint,
37.3089153,-119.5776403,3681.067316613,102.034124,0,0.97447181596,16100,2018-06-16 18:05:04,14,0,23.471,3681.067316613,102.034124,0.223694,0.99140095036,0,0,-0.671082,166.8, -0.9, -0.8,0,0,1024,1024,1024,1024,165.9,-89.9,97,3.893,3.923,3.916,3.916,3.909,3.905,19.04,71.6,14,Waypoint,
37.3089153,-119.5776403,3682.051568613,103.018376,0,0.97447181596,16200,2018-06-16 18:05:04,14,0,23.471,3682.051568613,103.018376,0.223694,0.99140095036,0,0,-0.671082,166.8, -0.9, -0.8,0,0,1024,1024,1024,1024,165.9,-89.9,97,3.893,3.923,3.916,3.916,3.909,3.905,19.04,71.6,14,Waypoint,
37.3089152,-119.5776403,3683.363904613,104.330712,0,0.95863520128,16300,2018-06-16 18:05:05,14,0,23.471,3683.363904613,104.330712,0.223694,0.99140095036,0,0,-0.671082,166.8, -0.8, -0.7,0,0,1024,1024,1024,1024,165.9,-89.9,97,3.893,3.923,3.916,3.916,3.909,3.905,19.04,71.6,14,Waypoint,
37.3089152,-119.5776403,3684.348156613,105.314964,0,0.95863520128,16400,2018-06-16 18:05:05,14,0,23.471,3684.348156613,105.314964,0.223694,0.99140095036,0,0,-0.671082,166.8, -0.8, -0.8,0,0,1024,1024,1024,1024,165.9,-89.9,97,3.893,3.923,3.916,3.916,3.909,3.905,19.04,71.6,14,Waypoint,
37.3089152,-119.5776403,3685.988576613,106.955384,0,0.95863520128,16600,2018-06-16 18:05:05,14,0,23.471,3685.988576613,106.955384,0.223694,0.99140095036,0,0,-0.671082,167, -0.6, -1.1,0,0,1024,1024,1024,1024,165.9,-89.9,97,3.893,3.923,3.916,3.916,3.909,3.905,19.04,71.6,14,Waypoint,
37.3089152,-119.5776403,3686.972828613,107.939636,0,0.95863520128,16700,2018-06-16 18:05:05,14,0,23.471,3686.972828613,107.939636,0.223694,0.99140095036,0,0,-0.671082,167.1, -0.6, -1,0,0,1024,1024,1024,1024,165.9,-89.9,97,3.893,3.923,3.916,3.916,3.909,3.905,19.04,71.6,14,Waypoint,
37.3089151,-119.5776402,3687.957080613,108.923888,0,0.91724740468,16800,2018-06-16 18:05:05,14,0,23.471,3687.957080613,108.923888,0.223694,0.99140095036,0,0,-0.671082,167.1, -0.6, -0.9,0,0,1024,1024,1024,1024,165.9,-89.9,97,3.893,3.923,3.916,3.916,3.909,3.905,19.04,71.6,14,Waypoint,
37.3089151,-119.5776401,3689.925584613,110.892392,0,0.89069556656,16900,2018-06-16 18:05:05,14,0,23.471,3689.925584613,110.892392,0.223694,0.99140095036,0,0,-0.671082,167.1, -0.5, -0.8,0,0,1024,1024,1024,1024,165.9,-89.9,97,3.893,3.923,3.916,3.916,3.909,3.905,19.04,71.6,14,Waypoint,
37.3089151,-119.5776401,3690.909836613,111.876644,0,0.89069556656,17000,2018-06-16 18:05:05,14,0,23.457,3690.909836613,111.876644,0.223694,0.99140095036,0,0,-0.671082,167.1, -0.4, -1.2,0,0,1024,1024,1024,1024,165.9,-89.9,97,3.893,3.923,3.916,3.916,3.909,3.905,18.909,71.6,14,Waypoint,
37.308915,-119.57764,3692.222172613,113.18898,0,0.84954727128,17100,2018-06-16 18:05:05,14,0,23.457,3692.222172613,113.18898,0.223694,0.99140095036,0,0,-0.671082,167.1, -0.4, -1.3,0,0,1024,1024,1024,1024,165.9,-89.9,97,3.893,3.923,3.916,3.916,3.909,3.905,18.909,71.6,14,Waypoint,
37.308915,-119.57764,3693.206424613,114.173232,0,0.84954727128,17200,2018-06-16 18:05:05,14,0,23.457,3693.206424613,114.173232,0.223694,0.99140095036,0,0,-0.671082,167.1, -0.5, -1.2,0,0,1024,1024,1024,1024,165.9,-89.9,97,3.893,3.923,3.916,3.916,3.909,3.905,18.909,71.6,14,Waypoint,
37.3089149,-119.5776399,3694.190676613,115.157484,0,0.80899280804,17300,2018-06-16 18:05:06,14,0,23.457,3694.190676613,115.157484,0.223694,0.99140095036,0,0,-0.671082,167.1, -0.1, -0.8,0,0,1024,1024,1024,1024,165.9,-89.9,97,3.893,3.923,3.916,3.916,3.909,3.905,18.909,71.6,14,Waypoint,
37.3089149,-119.5776399,3695.174928613,116.141736,0,0.80899280804,17400,2018-06-16 18:05:06,14,0,23.457,3695.174928613,116.141736,0.223694,0.99140095036,0,0,-0.671082,166.9, 0.2, -0.8,0,0,1024,1024,1024,1024,165.9,-89.9,97,3.893,3.923,3.916,3.916,3.909,3.905,18.909,71.6,14,Waypoint,
37.3089148,-119.5776398,3696.159180613,117.125988,0,0.76912404036,17500,2018-06-16 18:05:06,14,0,23.457,3696.159180613,117.125988,0.223694,0.99140095036,0,0,-0.671082,166.7, 0.4, -0.9,0,0,1024,1024,1024,1024,165.9,-89.9,97,3.893,3.923,3.916,3.916,3.909,3.905,18.909,71.6,14,Waypoint,
37.3089148,-119.5776398,3697.143432613,118.11024,0,0.76912404036,17600,2018-06-16 18:05:06,14,0,23.457,3697.143432613,118.11024,0.223694,0.99140095036,0,0,-0.671082,166.5, 0.4, -1.2,0,0,1024,1024,1024,1024,165.9,-89.9,97,3.893,3.923,3.916,3.916,3.909,3.905,18.909,71.6,14,Waypoint,
37.3089147,-119.5776398,3698.127684613,119.094492,0,0.757792019,17700,2018-06-16 18:05:06,14,0,23.457,3698.127684613,119.094492,0.223694,0.99140095036,0,0,-0.671082,166.4, 0.3, -1.6,0,0,1024,1024,1024,1024,165.9,-89.9,97,3.893,3.923,3.916,3.916,3.909,3.905,18.909,71.6,14,Waypoint,
37.3089147,-119.5776398,3699.111936613,120.078744,0,0.757792019,17800,2018-06-16 18:05:06,14,0,23.457,3699.111936613,120.078744,0.223694,0.99140095036,0,0,-0.671082,166.5, 0.2, -1.4,0,0,1024,1024,1024,1024,165.9,-89.9,97,3.893,3.923,3.916,3.916,3.909,3.905,18.909,71.6,14,Waypoint,
37.3089147,-119.5776398,3700.096188613,121.062996,0,0.757792019,17900,2018-06-16 18:05:06,14,0,23.457,3700.096188613,121.062996,0.223694,0.99140095036,0,0,-0.671082,166.6, 0, -1.3,0,0,1024,1024,1024,1024,165.9,-89.9,97,3.893,3.923,3.916,3.916,3.909,3.905,18.909,71.6,14,Waypoint,
37.3089147,-119.5776398,3701.080440613,122.047248,0,0.757792019,18000,2018-06-16 18:05:06,14,0,23.457,3701.080440613,122.047248,0.223694,0.99140095036,0,0,-0.671082,166.7, -0.1, -1.3,0,0,1024,1024,1024,1024,165.9,-89.9,97,3.892,3.923,3.918,3.911,3.903,3.916,18.909,73.4,14,Waypoint,
37.3089148,-119.5776398,3702.064692613,123.0315,0,0.76912404036,18200,2018-06-16 18:05:06,14,0,23.457,3702.064692613,123.0315,0.223694,0.99140095036,0,0,-0.671082,166.8, -0.2, -1.3,0,0,1024,1024,1024,1024,165.9,-89.9,97,3.892,3.923,3.918,3.911,3.903,3.916,18.909,73.4,14,Waypoint,
37.3089148,-119.5776399,3703.048944613,124.015752,0,0.7965551436,18300,2018-06-16 18:05:07,14,0,23.457,3703.048944613,124.015752,0.223694,0.99140095036,0,0,-0.671082,166.8, -0.5, -1.4,0,0,1024,1024,1024,1024,165.9,-90,97,3.892,3.923,3.918,3.911,3.903,3.916,18.909,73.4,14,Waypoint,
37.3089148,-119.5776399,3704.033196613,125.000004,0,0.7965551436,18400,2018-06-16 18:05:07,14,0,23.457,3704.033196613,125.000004,0.223694,0.99140095036,0,0,-0.671082,166.9, -0.7, -1.5,0,0,1024,1024,1024,1024,165.8,-90,97,3.892,3.923,3.918,3.911,3.903,3.916,18.909,73.4,14,Waypoint,
37.3089149,-119.5776399,3705.017448613,125.984256,0,0.80899280804,18500,2018-06-16 18:05:07,14,0,23.457,3705.017448613,125.984256,0.223694,0.99140095036,0,0,-0.671082,166.9, -0.8, -1.4,0,0,1024,1024,1024,1024,165.8,-90,97,3.892,3.923,3.918,3.911,3.903,3.916,18.909,73.4,14,Waypoint,
37.3089149,-119.5776399,3706.001700613,126.968508,0,0.80899280804,18600,2018-06-16 18:05:07,14,0,23.457,3706.001700613,126.968508,0.223694,0.99140095036,0,0,-0.671082,166.9, -0.8, -1.2,0,0,1024,1024,1024,1024,165.8,-90,97,3.892,3.923,3.918,3.911,3.903,3.916,18.909,73.4,14,Waypoint,
37.3089149,-119.5776399,3706.985952613,127.95276,0,0.80899280804,18700,2018-06-16 18:05:07,14,0,23.457,3706.985952613,127.95276,0.223694,0.99140095036,0,0,-0.671082,166.9, -0.8, -1.2,0,0,1024,1024,1024,1024,165.9,-90,97,3.892,3.923,3.918,3.911,3.903,3.916,18.909,73.4,14,Waypoint,
37.3089149,-119.57764,3707.970204613,128.937012,0,0.836122074,18800,2018-06-16 18:05:07,14,0,23.457,3707.970204613,128.937012,0.223694,0.99140095036,0,0,-0.671082,166.8, -0.8, -1.3,0,0,1024,1024,1024,1024,165.9,-90,97,3.892,3.923,3.918,3.911,3.903,3.916,18.909,73.4,14,Waypoint,
37.308915,-119.57764,3708.626372613,129.59318,0,0.84954727128,18900,2018-06-16 18:05:07,14,0,23.457,3708.626372613,129.59318,0.223694,0.99140095036,0,0,-0.671082,166.8, -0.9, -1.5,0,0,1024,1024,1024,1024,165.9,-90,97,3.892,3.923,3.918,3.911,3.903,3.916,18.909,73.4,14,Waypoint,
37.3089151,-119.5776401,3709.610624613,130.577432,0,0.89069556656,19000,2018-06-16 18:05:07,14,0,23.484,3709.610624613,130.577432,0.223694,0.99140095036,0,0,-0.671082,166.7, -1.3, -1.6,0,0,1024,1024,1024,1024,165.9,-90,97,3.894,3.935,3.92,3.918,3.914,3.923,18.348,73.4,14,Waypoint,
37.3089151,-119.5776401,3710.594876613,131.561684,0,0.89069556656,19100,2018-06-16 18:05:07,14,0,23.484,3710.594876613,131.561684,0.223694,0.99140095036,0,0,-0.671082,166.8, -1.6, -1.5,0,0,1024,1024,1024,1024,165.9,-89.9,97,3.894,3.935,3.92,3.918,3.914,3.923,18.348,73.4,14,Waypoint,
37.3089152,-119.5776401,3711.579128613,132.545936,0,0.90625330984,19200,2018-06-16 18:05:07,14,0,23.484,3711.579128613,132.545936,0.223694,0.99140095036,0,0,-0.671082,166.9, -2, -1.6,0,0,1024,1024,1024,1024,165.9,-90,97,3.894,3.935,3.92,3.918,3.914,3.923,18.348,73.4,14,Waypoint,
37.3089152,-119.5776402,3712.891464613,133.858272,0,0.93235895372,19300,2018-06-16 18:05:08,14,0,23.484,3712.891464613,133.858272,0.223694,0.99140095036,0,0,-0.671082,167.1, -2.1, -1.6,0,0,1024,1024,1024,1024,165.9,-89.9,97,3.894,3.935,3.92,3.918,3.914,3.923,18.348,73.4,14,Waypoint,
37.3089153,-119.5776403,3713.875716613,134.842524,0,0.97447181596,19400,2018-06-16 18:05:08,14,0,23.484,3713.875716613,134.842524,0.223694,0.99140095036,0,0,-0.671082,167.2, -2.2, -1.7,0,0,1024,1024,1024,1024,165.9,-89.9,97,3.894,3.935,3.92,3.918,3.914,3.923,18.348,73.4,14,Waypoint,
37.3089153,-119.5776404,3714.859968613,135.826776,0,1.00048231548,19500,2018-06-16 18:05:08,14,0,23.484,3714.859968613,135.826776,0.223694,1.00048231548,0,0,-0.671082,167.3, -2, -2,0,0,1024,1024,1024,1024,165.9,-89.9,97,3.894,3.935,3.92,3.918,3.914,3.923,18.348,73.4,14,Waypoint,
37.3089154,-119.5776406,3716.828472613,137.79528,0,1.06866145152,19600,2018-06-16 18:05:08,14,0,23.484,3716.828472613,137.79528,0.223694,1.06866145152,0,0,-0.671082,167, -1.8, -2.7,0,0,1024,1024,1024,1024,165.8,-89.9,97,3.894,3.935,3.92,3.918,3.914,3.923,18.348,73.4,14,Waypoint,
37.3089155,-119.5776408,3717.812724613,138.779532,0,1.13688323848,19700,2018-06-16 18:05:08,14,0,23.484,3717.812724613,138.779532,0.223694,1.13688323848,0,0,-0.671082,166.9, -2, -2.9,0,0,1024,1024,1024,1024,165.9,-89.9,97,3.894,3.935,3.92,3.918,3.914,3.923,18.348,73.4,14,Waypoint,
37.3089156,-119.5776409,3718.796976613,139.763784,0,1.1793635548,19800,2018-06-16 18:05:08,14,0,23.484,3718.796976613,139.763784,0.223694,1.1793635548,0,0,-0.671082,166.8, -2.3, -3.3,0,0,1024,1024,1024,1024,165.9,-89.9,97,3.894,3.935,3.92,3.918,3.914,3.923,18.348,73.4,14,Waypoint,
37.3089157,-119.5776411,3719.781228613,140.748036,0,1.2477198562,19900,2018-06-16 18:05:08,14,0,23.484,3719.781228613,140.748036,0.223694,1.2477198562,0,0,-0.671082,166.7, -2.7, -3.6,0,0,1024,1024,1024,1024,165.9,-89.9,97,3.894,3.935,3.92,3.918,3.914,3.923,18.348,73.4,14,Waypoint,
37.3089158,-119.5776413,3720.765480613,141.732288,0,1.3160925618,20000,2018-06-16 18:05:08,14,0,23.42,3720.765480613,141.732288,0.223694,1.3160925618,0,0,-0.671082,166.8, -3.2, -3.6,0,0,1024,1024,1024,1024,165.9,-90,97,3.882,3.913,3.91,3.901,3.9,3.899,18.348,73.4,14,Waypoint,
37.3089159,-119.5776414,3721.749732613,142.71654,0.223694,1.35900922984,20100,2018-06-16 18:05:08,14,0,23.42,3721.749732613,142.71654,0.223694,1.35900922984,0,0,-0.671082,166.8, -3.9, -3.5,0,0,1024,1024,1024,1024,165.9,-90,97,3.882,3.913,3.91,3.901,3.9,3.899,18.348,73.4,14,Waypoint,
37.308916,-119.5776415,3722.733984613,143.700792,0.223694,1.40215883752,20200,2018-06-16 18:05:08,14,0,23.42,3722.733984613,143.700792,0.223694,1.40215883752,0,0,-0.671082,166.9, -4.3, -3.6,0,0,1024,1024,1024,1024,165.8,-90,97,3.882,3.913,3.91,3.901,3.9,3.899,18.348,73.4,14,Waypoint,
37.3089161,-119.5776415,3723.718236613,144.685044,0.223694,1.42055122656,20300,2018-06-16 18:05:09,14,0,23.42,3723.718236613,144.685044,0.223694,1.42055122656,0,0,-0.671082,167, -4.4, -3.2,0,0,1024,1024,1024,1024,165.8,-89.9,97,3.882,3.913,3.91,3.901,3.9,3.899,18.348,73.4,14,Waypoint,
37.3089164,-119.5776416,3725.358656613,146.325464,0,1.50375004812,20510,2018-06-16 18:05:09,14,0,23.42,3725.358656613,146.325464,0.223694,1.50375004812,0,0,-0.671082,167.1, -4.7, -2.2,0,0,1024,1024,1024,1024,165.8,-90,97,3.882,3.913,3.91,3.901,3.9,3.899,18.348,73.4,14,Waypoint,
37.3089164,-119.5776416,3725.358656613,146.325464,0,1.50375004812,20600,2018-06-16 18:05:09,14,0,23.42,3725.358656613,146.325464,0.223694,1.50375004812,0,0,-0.671082,167.1, -4.7, -2.2,0,0,1024,1024,1024,1024,165.9,-89.9,97,3.882,3.913,3.91,3.901,3.9,3.899,18.348,73.4,14,Waypoint,
37.3089165,-119.5776416,3726.342908613,147.309716,0.223694,1.5244094976,20700,2018-06-16 18:05:09,14,0,23.42,3726.342908613,147.309716,0.223694,1.5244094976,0,0,-0.671082,167.2, -4.4, -1.7,0,0,1024,1024,1024,1024,165.9,-89.9,97,3.882,3.913,3.91,3.901,3.9,3.899,18.348,73.4,14,Waypoint,
37.3089166,-119.5776415,3726.999076613,147.965884,0.223694,1.5223261642,20800,2018-06-16 18:05:09,14,0,23.42,3726.999076613,147.965884,0.223694,1.5244094976,0,0,-0.671082,167.2, -4.3, -1,0,0,1024,1024,1024,1024,165.9,-89.9,97,3.882,3.913,3.91,3.901,3.9,3.899,18.348,73.4,14,Waypoint,
37.3089167,-119.5776415,3727.983328613,148.950136,0.223694,1.54446199168,20900,2018-06-16 18:05:09,14,0,23.42,3727.983328613,148.950136,0.223694,1.54446199168,0,0,-0.671082,167.1, -4.5, -0.7,0,0,1024,1024,1024,1024,165.9,-89.9,97,3.882,3.913,3.91,3.901,3.9,3.899,18.348,73.4,14,Waypoint,
37.3089167,-119.5776415,3728.967580613,149.934388,0.223694,1.54446199168,21000,2018-06-16 18:05:09,14,0,23.361,3728.967580613,149.934388,0.223694,1.54446199168,0,0,-0.671082,166.9, -4.5, -1,0,0,1024,1024,1024,1024,165.9,-89.9,97,3.894,3.938,3.907,3.9,3.891,3.907,17.346,73.4,14,Waypoint,
37.3089168,-119.5776414,3729.951832613,150.91864,0.223694,1.54467524628,21100,2018-06-16 18:05:09,14,0,23.361,3729.951832613,150.91864,0.223694,1.54467524628,0,0,-0.671082,166.8, -4.5, -1.3,0,0,1024,1024,1024,1024,165.9,-89.9,97,3.894,3.938,3.907,3.9,3.891,3.907,17.346,73.4,14,Waypoint,
37.3089169,-119.5776412,3731.592252613,152.55906,0.223694,1.52462931388,21300,2018-06-16 18:05:10,14,0,23.361,3731.592252613,152.55906,0.223694,1.54467524628,0,0,-0.671082,166.8, -3.8, -0.9,0,0,1024,1024,1024,1024,165.9,-89.9,97,3.894,3.938,3.907,3.9,3.891,3.907,17.346,73.4,14,Waypoint,
37.3089169,-119.5776411,3732.576504613,153.543312,0.223694,1.50321199036,21400,2018-06-16 18:05:10,14,0,23.361,3732.576504613,153.543312,0.223694,1.54467524628,0,0,-0.671082,166.8, -3.6, -0.4,0,0,1024,1024,1024,1024,165.9,-89.9,97,3.894,3.938,3.907,3.9,3.891,3.907,17.346,73.4,14,Waypoint,
37.308917,-119.577641,3733.232672613,154.19948,0.223694,1.50743771228,21500,2018-06-16 18:05:10,14,0,23.361,3733.232672613,154.19948,0.223694,1.54467524628,0,0,-0.671082,166.8, -3.9, 0.1,0,0,1024,1024,1024,1024,165.9,-89.9,97,3.894,3.938,3.907,3.9,3.891,3.907,17.346,73.4,14,Waypoint,
37.308917,-119.5776408,3734.216924613,155.183732,0.223694,1.46666343276,21600,2018-06-16 18:05:10,14,0,23.361,3734.216924613,155.183732,0.223694,1.54467524628,0,0,-0.671082,166.8, -3.8, 0.7,0,0,1024,1024,1024,1024,165.9,-89.9,97,3.894,3.938,3.907,3.9,3.891,3.907,17.346,73.4,14,Waypoint,
37.3089169,-119.5776404,3736.513512613,157.48032,0.447388,1.36121395432,21700,2018-06-16 18:05:10,14,0,23.361,3736.513512613,157.48032,0.447388,1.54467524628,0,0,-0.671082,166.7, -2.9, 0.9,0,0,1024,1024,1024,1024,165.9,-89.9,97,3.894,3.938,3.907,3.9,3.891,3.907,17.346,73.4,14,Waypoint,
37.3089169,-119.5776402,3737.497764613,158.464572,0.4921268,1.323572877,21800,2018-06-16 18:05:10,14,0,23.361,3737.497764613,158.464572,0.4921268,1.54467524628,0,0,-0.671082,166.6, -2.4, 1,0,0,1024,1024,1024,1024,165.9,-89.9,97,3.894,3.938,3.907,3.9,3.891,3.907,17.346,73.4,14,Waypoint,
37.3089168,-119.57764,3738.482016613,159.448824,0.4921268,1.25869754684,21900,2018-06-16 18:05:10,14,0,23.361,3738.482016613,159.448824,0.4921268,1.54467524628,0,0,-0.671082,166.5, -2.1, 1.2,0,0,1024,1024,1024,1024,165.9,-89.9,97,3.894,3.938,3.907,3.9,3.891,3.907,17.346,73.4,14,Waypoint,
37.3089168,-119.5776397,3739.466268613,160.433076,0.4921268,1.2064304848,22000,2018-06-16 18:05:10,14,0,23.325,3739.466268613,160.433076,0.4921268,1.54467524628,0,0,-0.671082,166.4, -2.1, 1.7,0,0,1024,1024,1024,1024,165.9,-89.9,96,3.862,3.905,3.877,3.871,3.882,3.923,19.108,73.4,14,Waypoint,
37.3089167,-119.5776394,3740.450520613,161.417328,0.4921268,1.12749019356,22100,2018-06-16 18:05:10,14,0,23.325,3740.450520613,161.417328,0.4921268,1.54467524628,0,0,-0.671082,166.4, -1.8, 2.3,0,0,1024,1024,1024,1024,165.9,-89.9,96,3.862,3.905,3.877,3.871,3.882,3.923,19.108,73.4,14,Waypoint,
37.3089166,-119.5776392,3741.434772613,162.40158,0.4921268,1.06582024408,22200,2018-06-16 18:05:10,14,0,23.325,3741.434772613,162.40158,0.4921268,1.54467524628,0,0,-0.671082,166.4, -1.3, 3,0,0,1024,1024,1024,1024,165.9,-89.9,96,3.862,3.905,3.877,3.871,3.882,3.923,19.108,73.4,14,Waypoint,
37.3089166,-119.577639,3742.419024613,163.385832,0.3131716,1.03698822216,22300,2018-06-16 18:05:11,14,0,23.325,3742.419024613,163.385832,0.4921268,1.54467524628,0,0,-0.671082,166.4, -1, 3.5,0,0,1024,1024,1024,1024,165.9,-89.9,96,3.862,3.905,3.877,3.871,3.882,3.923,19.108,73.4,14,Waypoint,
37.3089165,-119.5776388,3743.403276613,164.370084,0.3131716,0.97786420452,22500,2018-06-16 18:05:11,14,0,23.325,3743.403276613,164.370084,0.4921268,1.54467524628,0,0,-0.671082,166.2, -1.1, 3.1,0,0,1024,1024,1024,1024,165.9,-89.9,96,3.862,3.905,3.877,3.871,3.882,3.923,19.108,73.4,14,Waypoint,
37.3089164,-119.5776385,3745.699864613,166.666672,0.223694,0.90854005532,22610,2018-06-16 18:05:11,14,0,23.325,3745.699864613,166.666672,0.4921268,1.54467524628,0,0,-0.671082,165.7, -1.4, 1.8,0,0,1024,1024,1024,1024,165.9,-89.9,96,3.862,3.905,3.877,3.871,3.882,3.923,19.108,73.4,14,Waypoint,
37.3089163,-119.5776384,3746.684116613,167.650924,0.223694,0.8638123636,22700,2018-06-16 18:05:11,14,0,23.325,3746.684116613,167.650924,0.4921268,1.54467524628,0,0,-0.671082,165.8, -1.6, 1.6,0,0,1024,1024,1024,1024,165.9,-89.9,96,3.862,3.905,3.877,3.871,3.882,3.923,19.108,73.4,14,Waypoint,
37.3089163,-119.5776382,3747.668368613,168.635176,0.223694,0.84409123436,22800,2018-06-16 18:05:11,14,0,23.325,3747.668368613,168.635176,0.4921268,1.54467524628,0,0,-0.671082,166.2, -1.9, 1.8,0,0,1024,1024,1024,1024,165.9,-89.9,96,3.862,3.905,3.877,3.871,3.882,3.923,19.108,73.4,14,Waypoint,
37.3089163,-119.5776381,3748.652620613,169.619428,0.223694,0.83556761204,23000,2018-06-16 18:05:11,14,0,23.172,3748.652620613,169.619428,0.4921268,1.54467524628,0,0,-0.671082,166.6, -2.1, 2,0,0,1024,1024,1024,1024,165.9,-89.9,96,3.835,3.898,3.875,3.868,3.865,3.869,20.541,73.4,14,Waypoint,
37.3089163,-119.577638,3749.636872613,170.60368,0.223694,0.82797246744,23100,2018-06-16 18:05:11,14,0,23.172,3749.636872613,170.60368,0.4921268,1.54467524628,0,0,-0.671082,167.1, -2.1, 2.1,0,0,1024,1024,1024,1024,165.9,-89.9,96,3.835,3.898,3.875,3.868,3.865,3.869,20.541,73.4,14,Waypoint,
37.3089162,-119.5776379,3750.621124613,171.587932,0,0.78571852908,23200,2018-06-16 18:05:11,14,0,23.172,3750.621124613,171.587932,0.4921268,1.54467524628,0,0,-0.671082,167.5, -1.8, 2,0,0,1024,1024,1024,1024,165.9,-89.9,96,3.835,3.898,3.875,3.868,3.865,3.869,20.541,73.4,14,Waypoint,
37.3089162,-119.5776378,3751.605376613,172.572184,0,0.77980317456,23300,2018-06-16 18:05:12,14,0,23.172,3751.605376613,172.572184,0.4921268,1.54467524628,0,0,-0.671082,167.7, -1.5, 2,0,0,1024,1024,1024,1024,165.9,-89.9,96,3.835,3.898,3.875,3.868,3.865,3.869,20.541,73.4,14,Waypoint,
37.3089161,-119.5776377,3752.917712613,173.88452,0,0.73887469556,23400,2018-06-16 18:05:12,14,0,23.172,3752.917712613,173.88452,0.4921268,1.54467524628,0,0,-0.671082,167.7, -1.4, 2,0,0,1024,1024,1024,1024,165.9,-89.9,96,3.835,3.898,3.875,3.868,3.865,3.869,20.541,73.4,14,Waypoint,
37.3089161,-119.5776377,3753.901964613,174.868772,0,0.73887469556,23500,2018-06-16 18:05:12,14,0,23.172,3753.901964613,174.868772,0.4921268,1.54467524628,0,0,-0.671082,167.6, -1.6, 1.7,0,0,1024,1024,1024,1024,165.9,-89.9,96,3.835,3.898,3.875,3.868,3.865,3.869,20.541,73.4,14,Waypoint,
37.3089161,-119.5776376,3754.886216613,175.853024,0,0.7348753516,23600,2018-06-16 18:05:12,14,0,23.172,3754.886216613,175.853024,0.4921268,1.54467524628,0,0,-0.671082,167.2, -1.7, 1.6,0,0,1024,1024,1024,1024,165.9,-89.9,96,3.835,3.898,3.875,3.868,3.865,3.869,20.541,73.4,14,Waypoint,
37.3089161,-119.5776376,3755.870468613,176.837276,0,0.7348753516,23700,2018-06-16 18:05:12,14,0,23.172,3755.870468613,176.837276,0.4921268,1.54467524628,0,0,-0.671082,167, -1.9, 1.4,0,0,1024,1024,1024,1024,165.9,-89.9,96,3.835,3.898,3.875,3.868,3.865,3.869,20.541,73.4,14,Waypoint,
37.3089161,-119.5776375,3756.854720613,177.821528,0,0.7320046166,23800,2018-06-16 18:05:12,14,0,23.172,3756.854720613,177.821528,0.4921268,1.54467524628,0,0,-0.671082,166.8, -2.1, 1.7,0,0,1024,1024,1024,1024,165.9,-89.9,96,3.835,3.898,3.875,3.868,3.865,3.869,20.541,73.4,14,Waypoint,
37.3089161,-119.5776375,3757.838972613,178.80578,0,0.7320046166,23900,2018-06-16 18:05:12,14,0,23.172,3757.838972613,178.80578,0.4921268,1.54467524628,0,0,-0.671082,166.6, -2.1, 2.1,0,0,1024,1024,1024,1024,165.9,-89.9,96,3.835,3.898,3.875,3.868,3.865,3.869,20.541,73.4,14,Waypoint,
37.3089161,-119.5776374,3759.807476613,180.774284,0,0.73027561392,24000,2018-06-16 18:05:12,14,0,23.261,3759.807476613,180.774284,0.4921268,1.54467524628,0,0,-0.671082,166.5, -2, 2.4,0,0,1024,1024,1024,1024,165.9,-89.9,96,3.852,3.899,3.887,3.881,3.881,3.885,19.761,73.4,14,Waypoint,
37.308916,-119.5776374,3761.775980613,182.742788,0,0.69382220068,24200,2018-06-16 18:05:12,14,0,23.261,3761.775980613,182.742788,0.4921268,1.54467524628,0,0,-0.671082,166.7, -1.6, 2,0,0,1024,1024,1024,1024,165.9,-89.9,96,3.852,3.899,3.887,3.881,3.881,3.885,19.761,73.4,14,Waypoint,
37.308916,-119.5776374,3762.760232613,183.72704,0,0.69382220068,24300,2018-06-16 18:05:13,14,0,23.261,3762.760232613,183.72704,0.4921268,1.54467524628,0,0,-0.671082,166.8, -1.5, 1.8,0,0,1024,1024,1024,1024,165.9,-89.9,96,3.852,3.899,3.887,3.881,3.881,3.885,19.761,73.4,14,Waypoint,
37.308916,-119.5776375,3764.728736613,185.695544,0,0.69563978604,24500,2018-06-16 18:05:13,14,0,23.261,3764.728736613,185.695544,0.4921268,1.54467524628,0,0,-0.671082,166.9, -1.6, 1,0,0,1024,1024,1024,1024,165.9,-89.9,96,3.852,3.899,3.887,3.881,3.881,3.885,19.761,73.4,14,Waypoint,
37.308916,-119.5776376,3765.712988613,186.679796,0,0.69865815884,24600,2018-06-16 18:05:13,14,0,23.261,3765.712988613,186.679796,0.4921268,1.54467524628,0,0,-0.671082,167.1, -1.7, 1.2,0,0,1024,1024,1024,1024,165.9,-89.9,96,3.852,3.899,3.887,3.881,3.881,3.885,19.761,73.4,14,Waypoint,
37.308916,-119.5776376,3766.697240613,187.664048,0,0.69865815884,24700,2018-06-16 18:05:13,14,0,23.261,3766.697240613,187.664048,0.4921268,1.54467524628,0,0,-0.671082,167.1, -2.1, 1.3,0,0,1024,1024,1024,1024,165.9,-90,96,3.852,3.899,3.887,3.881,3.881,3.885,19.761,73.4,14,Waypoint,
37.308916,-119.5776376,3768.009576613,188.976384,0,0.69865815884,24800,2018-06-16 18:05:13,14,0,23.261,3768.009576613,188.976384,0.4921268,1.54467524628,0,0,-0.671082,167.1, -2.4, 1.3,0,0,1024,1024,1024,1024,165.9,-90,96,3.852,3.899,3.887,3.881,3.881,3.885,19.761,73.4,14,Waypoint,
37.3089161,-119.5776377,3768.993828613,189.960636,0,0.73887469556,24900,2018-06-16 18:05:13,14,0,23.261,3768.993828613,189.960636,0.4921268,1.54467524628,0,0,-0.671082,167.3, -2.7, 1.4,0,0,1024,1024,1024,1024,165.9,-90,96,3.852,3.899,3.887,3.881,3.881,3.885,19.761,73.4,14,Waypoint,
37.3089162,-119.5776378,3769.978080613,190.944888,0,0.77980317456,25000,2018-06-16 18:05:13,14,0,23.262,3769.978080613,190.944888,0.4921268,1.54467524628,0,0,-0.671082,167.3, -3.1, 1.3,0,0,1024,1024,1024,1024,165.9,-90,96,3.85,3.899,3.878,3.87,3.872,3.878,19.216,73.4,14,Waypoint,
37.3089162,-119.5776379,3770.962332613,191.92914,0,0.78571852908,25200,2018-06-16 18:05:13,14,0,23.262,3770.962332613,191.92914,0.4921268,1.54467524628,0,0,-0.671082,167.1, -3.3, 1.2,0,0,1024,1024,1024,1024,165.9,-90,96,3.85,3.899,3.878,3.87,3.872,3.878,19.216,73.4,14,Waypoint,
37.3089162,-119.577638,3771.946584613,192.913392,0,0.79265422484,25300,2018-06-16 18:05:14,14,0,23.262,3771.946584613,192.913392,0.4921268,1.54467524628,0,0,-0.671082,166.8, -3.5, 0.8,0,0,1024,1024,1024,1024,165.9,-90,96,3.85,3.899,3.878,3.87,3.872,3.878,19.216,73.4,14,Waypoint,
37.3089162,-119.5776381,3772.930836613,193.897644,0,0.80058401512,25400,2018-06-16 18:05:14,14,0,23.262,3772.930836613,193.897644,0.4921268,1.54467524628,0,0,-0.671082,166.6, -3.5, 0.5,0,0,1024,1024,1024,1024,165.9,-89.9,96,3.85,3.899,3.878,3.87,3.872,3.878,19.216,73.4,14,Waypoint,
37.3089162,-119.5776382,3773.915088613,194.881896,0,0.80947509152,25500,2018-06-16 18:05:14,14,0,23.262,3773.915088613,194.881896,0.4921268,1.54467524628,0,0,-0.671082,166.4, -2.8, 0.9,0,0,1024,1024,1024,1024,165.9,-89.9,96,3.85,3.899,3.878,3.87,3.872,3.878,19.216,73.4,14,Waypoint,
37.3089162,-119.5776383,3774.899340613,195.866148,0,0.81929792648,25600,2018-06-16 18:05:14,14,0,23.262,3774.899340613,195.866148,0.4921268,1.54467524628,0,0,-0.671082,166.4, -2.7, 0.8,0,0,1024,1024,1024,1024,165.9,-89.9,96,3.85,3.899,3.878,3.87,3.872,3.878,19.216,73.4,14,Waypoint,
37.3089162,-119.5776383,3775.883592613,196.8504,0,0.81929792648,25700,2018-06-16 18:05:14,14,0,23.262,3775.883592613,196.8504,0.4921268,1.54467524628,0,0,-0.671082,166.6, -2.8, 0.4,0,0,1024,1024,1024,1024,165.9,-89.9,96,3.85,3.899,3.878,3.87,3.872,3.878,19.216,73.4,14,Waypoint,
37.3089162,-119.5776384,3776.867844613,197.834652,0,0.8300197116,25800,2018-06-16 18:05:14,14,0,23.262,3776.867844613,197.834652,0.4921268,1.54467524628,0,0,-0.671082,166.7, -2.6, 0.5,0,0,1024,1024,1024,1024,165.9,-89.9,96,3.85,3.899,3.878,3.87,3.872,3.878,19.216,73.4,14,Waypoint,
