Latitude, Longitude, Altitude (m), Time, Sats, Speed (m/s), Range (m), Battery (%), Roll (deg), Pitch (deg), Yaw (deg), Images, HD Signal (%), RC Signal (%), Battery Temp (C), Battery Voltage (mV), Battery Current (mA), Battery Energy (mAh), Battery Capacity (mAh), Battery Discharges, flyState, timestamp (Unix), LastUpdate (ms), radioChannel, Rc_elevator, Rc_aileron, Rc_throttle, Rc_rudder, Rc_gyro, Dronetype, Battery_Cell1 (mV), Battery_Cell2 (mV), Battery_Cell3 (mV), Battery_Cell4 (mV), Battery_Cell5 (mV), Battery_Cell6 (mV), Video, isFlying, elapsedTime (ms), gimbalPitch (deg), gimbalRoll (deg), gimbalYaw (deg), VelocityX (m/s), VelocityY (m/s), VelocityZ (m/s), GroundSmear (cm), App Version, Aircraft Name, Aircraft Firmware, Aircraft Serial Number, Battery Serial Number, Battery Lifetime (%), App_Tip, App_Warning, CurrentFlightStartingIndex, CurrentFlightLastVisitedWaypoint, PreviousFlightEndingWaypointIndex
37.3089358, -119.5776720, 0.000, 11:57:22.029, 14, 0.10, 0.01, 98, 0.000, 2.600, -24.900, 1036, 100, 100, 24, 25726, -3004, 5325, 5434, 14, 11, 1529175442.029, 39, 0, 1024, 1024, 1024, 1024, 0, 6, 4282, 4267, 4302, 4273, 4279, 4159, 0, 1, 2921, -89.900, 0.000, -25.700, -0.100, 0.000, 0.000, 0.1, MapPilot_2.8.1_04242018, Dendroctonus I, 1.3.1.00, 041DDC1887, 1058171200149, 97, DJI_0034.jpg, Starting Mission from Lat/Long: 37.30893/-119.57767 Camera: Zenmuse X3 - Overlap: 90/90 - Active Connection: No, 49, 49, 49
37.3089357, -119.5776720, 0.000, 11:57:22.108, 14, 0.10, 0.02, 98, 0.000, 2.500, -24.800, 1036, 100, 100, 24, 25726, -3004, 5325, 5434, 14, 11, 1529175442.108, 25, 0, 1024, 1024, 1024, 1024, 0, 6, 4282, 4267, 4302, 4273, 4279, 4159, 0, 1, 3001, -90.000, 0.000, -25.700, -0.100, 0.000, -0.200, 0.1, , , , , , 97, , , 49, 49, 49
37.3089355, -119.5776719, 0.000, 11:57:22.208, 14, 0.10, 0.04, 98, 0.200, 1.500, -24.700, 1036, 100, 100, 24, 25726, -3004, 5325, 5434, 14, 11, 1529175442.208, 15, 0, 1024, 1024, 1024, 1024, 0, 6, 4282, 4267, 4302, 4273, 4279, 4159, 0, 1, 3100, -90.000, 0.000, -25.700, -0.100, 0.000, -0.300, 0.0, , , , , , 97, , , 49, 49, 49
37.3089355, -119.5776719, 0.000, 11:57:22.308, 14, 0.10, 0.04, 98, 0.200, 1.500, -24.700, 1036, 100, 100, 24, 25726, -3004, 5325, 5434, 14, 11, 1529175442.308, 115, 0, 1024, 1024, 1024, 1024, 0, 6, 4282, 4267, 4302, 4273, 4279, 4159, 0, 1, 3201, -90.000, 0.000, -25.700, -0.100, 0.000, -0.300, 0.0, , , , , , 97, , , 49, 49, 49
37.3089352, -119.5776717, 0.000, 11:57:22.408, 13, 0.10, 0.07, 98, 0.200, -0.900, -24.700, 1036, 100, 100, 24, 24891, -11350, 5325, 5434, 14, 11, 1529175442.408, 13, 0, 1024, 1024, 1024, 1024, 0, 6, 4282, 4267, 4302, 4273, 4279, 4159, 0, 1, 3301, -90.000, 0.000, -25.700, -0.100, 0.000, -0.400, 0.0, , , , , , 97, , , 49, 49, 49
37.3089351, -119.5776716, 0.100, 11:57:22.508, 13, 0.10, 0.09, 98, 0.200, -1.500, -24.700, 1036, 100, 100, 24, 24891, -11350, 5325, 5434, 14, 11, 1529175442.509, 8, 0, 1024, 1024, 1024, 1024, 0, 6, 4282, 4267, 4302, 4273, 4279, 4159, 0, 1, 3401, -90.000, 0.000, -25.700, -0.100, 0.000, -0.400, 0.0, , , , , , 97, , , 49, 49, 49
37.3089351, -119.5776716, 0.100, 11:57:22.608, 13, 0.10, 0.09, 98, 0.200, -1.500, -24.700, 1036, 100, 100, 24, 24891, -11350, 5325, 5434, 14, 11, 1529175442.608, 107, 0, 1024, 1024, 1024, 1024, 0, 6, 4282, 4267, 4302, 4273, 4279, 4159, 0, 1, 3501, -90.000, 0.000, -25.700, -0.100, 0.000, -0.400, 0.0, , , , , , 97, , , 49, 49, 49
37.3089350, -119.5776715, 0.100, 11:57:22.708, 10, 0.10, 0.10, 98, 0.000, -1.700, -24.700, 1036, 100, 100, 24, 24891, -11350, 5325, 5434, 14, 11, 1529175442.708, 96, 0, 1024, 1024, 1024, 1024, 0, 6, 4282, 4267, 4302, 4273, 4279, 4159, 0, 1, 3600, -89.900, 0.000, -25.700, -0.100, 0.000, -0.500, 0.0, , , , , , 97, , , 49, 49, 49
37.3089350, -119.5776713, 0.200, 11:57:22.808, 10, 0.10, 0.11, 98, -0.100, -1.400, -24.600, 1036, 100, 100, 24, 24891, -11350, 5325, 5434, 14, 11, 1529175442.808, 65, 0, 1024, 1024, 1024, 1024, 0, 6, 4282, 4267, 4302, 4273, 4279, 4159, 0, 1, 3701, -89.900, 0.000, -25.700, -0.100, 0.000, -0.500, 0.0, , , , , , 97, , , 49, 49, 49
37.3089349, -119.5776712, 0.200, 11:57:22.908, 12, 0.00, 0.12, 98, -0.400, -0.900, -24.600, 1036, 100, 100, 24, 24891, -11350, 5325, 5434, 14, 11, 1529175442.908, 67, 0, 1024, 1024, 1024, 1024, 0, 6, 4282, 4267, 4302, 4273, 4279, 4159, 0, 1, 3801, -89.900, 0.000, -25.700, 0.000, 0.000, -0.500, 0.0, , , , , , 97, , , 49, 49, 49
37.3089348, -119.5776711, 0.300, 11:57:23.008, 12, 0.00, 0.13, 98, -0.700, -1.000, -24.500, 1036, 100, 100, 24, 24891, -11350, 5325, 5434, 14, 11, 1529175443.008, 64, 0, 1024, 1024, 1024, 1024, 0, 6, 4129, 4118, 4116, 4109, 4111, 4115, 0, 1, 3901, -89.900, 0.000, -25.700, 0.000, 0.000, -0.400, 0.0, , , , , , 97, , , 49, 49, 49
37.3089347, -119.5776711, 0.300, 11:57:23.108, 12, 0.00, 0.14, 98, -0.700, -1.000, -24.400, 1036, 100, 100, 24, 24891, -11350, 5325, 5434, 14, 11, 1529175443.109, 69, 0, 1024, 1024, 1024, 1024, 0, 6, 4129, 4118, 4116, 4109, 4111, 4115, 0, 1, 4001, -89.900, 0.000, -25.700, 0.000, 0.000, -0.400, 0.0, , , , , , 97, , , 49, 49, 49
37.3089347, -119.5776712, 0.400, 11:57:23.207, 12, 0.00, 0.15, 98, -0.600, -1.200, -24.400, 1036, 100, 100, 24, 24891, -11350, 5325, 5434, 14, 11, 1529175443.208, 68, 0, 1024, 1024, 1024, 1024, 0, 6, 4129, 4118, 4116, 4109, 4111, 4115, 0, 1, 4100, -90.000, 0.000, -25.700, 0.000, 0.000, -0.500, 0.0, , , , , , 97, , , 49, 49, 49
37.3089346, -119.5776712, 0.400, 11:57:23.308, 13, 0.00, 0.15, 98, -0.200, -1.300, -24.600, 1036, 100, 100, 24, 24891, -11350, 5325, 5434, 14, 11, 1529175443.309, 69, 0, 1024, 1024, 1024, 1024, 0, 6, 4129, 4118, 4116, 4109, 4111, 4115, 0, 1, 4201, -89.900, 0.000, -25.700, 0.000, 0.000, -0.500, 0.0, , , , , , 97, , , 49, 49, 49
37.3089345, -119.5776711, 0.500, 11:57:23.408, 13, 0.00, 0.16, 98, 0.000, -1.200, -24.700, 1036, 100, 100, 24, 24891, -11350, 5325, 5434, 14, 11, 1529175443.408, 63, 0, 1024, 1024, 1024, 1024, 0, 6, 4129, 4118, 4116, 4109, 4111, 4115, 0, 1, 4300, -89.900, 0.000, -25.700, 0.000, 0.000, -0.400, 0.0, , , , , , 97, , , 49, 49, 49
37.3089345, -119.5776711, 0.500, 11:57:23.508, 13, 0.00, 0.17, 98, 0.300, -1.100, -24.800, 1036, 100, 100, 24, 24891, -11350, 5325, 5434, 14, 11, 1529175443.508, 65, 0, 1024, 1024, 1024, 1024, 0, 6, 4129, 4118, 4116, 4109, 4111, 4115, 0, 1, 4401, -89.900, 0.000, -25.700, 0.000, 0.000, -0.400, 0.0, , , , , , 97, , , 49, 49, 49
37.3089344, -119.5776712, 0.600, 11:57:23.608, 13, 0.00, 0.17, 98, 0.300, -1.200, -24.900, 1036, 100, 100, 24, 24891, -11350, 5325, 5434, 14, 11, 1529175443.608, 70, 0, 1024, 1024, 1024, 1024, 0, 6, 4129, 4118, 4116, 4109, 4111, 4115, 0, 1, 4501, -89.900, 0.000, -25.700, 0.000, 0.000, -0.400, 0.0, , , , , , 97, , , 49, 49, 49
37.3089343, -119.5776713, 0.700, 11:57:23.707, 11, 0.00, 0.18, 98, 0.600, -1.100, -25.100, 1036, 100, 100, 24, 24891, -11350, 5325, 5434, 14, 11, 1529175443.708, 55, 0, 1024, 1024, 1024, 1024, 0, 6, 4129, 4118, 4116, 4109, 4111, 4115, 0, 1, 4600, -89.900, 0.000, -25.700, 0.000, 0.000, -0.400, 0.0, , , , , , 97, , , 49, 49, 49
37.3089343, -119.5776713, 0.700, 11:57:23.808, 11, 0.00, 0.18, 98, 0.600, -1.100, -25.100, 1036, 100, 100, 24, 24891, -11350, 5325, 5434, 14, 11, 1529175443.808, 156, 0, 1024, 1024, 1024, 1024, 0, 6, 4129, 4118, 4116, 4109, 4111, 4115, 0, 1, 4700, -89.900, 0.000, -25.700, 0.000, 0.000, -0.400, 0.0, , , , , , 97, , , 49, 49, 49
37.3089342, -119.5776714, 0.800, 11:57:23.908, 11, 0.00, 0.19, 98, 1.000, -0.800, -25.300, 1036, 100, 100, 24, 24891, -11350, 5325, 5434, 14, 11, 1529175443.908, 47, 0, 1024, 1024, 1024, 1024, 0, 6, 4129, 4118, 4116, 4109, 4111, 4115, 0, 1, 4800, -89.900, 0.000, -25.700, 0.000, 0.000, -0.400, 0.0, , , , , , 97, , , 49, 49, 49
37.3089342, -119.5776715, 0.800, 11:57:24.008, 9, 0.00, 0.19, 98, 1.200, -0.700, -25.400, 1036, 100, 100, 24, 24462, -15649, 5325, 5434, 14, 11, 1529175444.008, 49, 0, 1024, 1024, 1024, 1024, 0, 6, 4060, 4055, 4080, 4069, 4081, 4069, 0, 1, 4900, -89.900, 0.000, -25.700, 0.000, 0.000, -0.400, 0.0, , , , , , 97, , , 49, 49, 49
37.3089342, -119.5776715, 0.800, 11:57:24.108, 9, 0.00, 0.19, 98, 1.200, -0.800, -25.300, 1036, 100, 100, 24, 24462, -15649, 5325, 5434, 14, 11, 1529175444.109, 53, 0, 1024, 1024, 1024, 1024, 0, 6, 4060, 4055, 4080, 4069, 4081, 4069, 0, 1, 5001, -89.900, 0.000, -25.700, 0.000, 0.000, -0.400, 0.0, , , , , , 97, , , 49, 49, 49
37.3089341, -119.5776716, 0.900, 11:57:24.207, 10, 0.00, 0.19, 98, 1.200, -0.800, -25.200, 1036, 100, 100, 24, 24462, -15649, 5325, 5434, 14, 14, 1529175444.208, 6, 0, 1024, 1024, 1024, 1024, 0, 6, 4060, 4055, 4080, 4069, 4081, 4069, 0, 1, 5100, -89.900, 0.000, -25.700, 0.000, 0.000, -0.400, 0.0, , , , , , 97, , , 49, 49, 49
37.3089341, -119.5776716, 0.900, 11:57:24.308, 10, 0.00, 0.19, 98, 1.000, -0.700, -25.200, 1036, 100, 100, 24, 24462, -15649, 5325, 5434, 14, 14, 1529175444.309, 21, 0, 1024, 1024, 1024, 1024, 0, 6, 4060, 4055, 4080, 4069, 4081, 4069, 0, 1, 5201, -89.900, 0.000, -25.700, 0.000, 0.000, -0.300, 0.0, , , , , , 97, , , 49, 49, 49
37.3089341, -119.5776716, 0.900, 11:57:24.408, 13, 0.00, 0.20, 98, 0.700, -0.200, -25.100, 1036, 100, 100, 24, 24462, -15649, 5325, 5434, 14, 14, 1529175444.409, 22, 0, 1024, 1024, 1024, 1024, 0, 6, 4060, 4055, 4080, 4069, 4081, 4069, 0, 1, 5301, -89.900, 0.000, -25.700, 0.000, 0.000, -0.200, 0.0, , , , , , 97, , , 49, 49, 49
37.3089341, -119.5776716, 1.000, 11:57:24.515, 13, 0.00, 0.20, 98, 0.400, 0.000, -25.100, 1036, 100, 100, 24, 24462, -15649, 5325, 5434, 14, 14, 1529175444.516, 5, 0, 1024, 1024, 1024, 1024, 0, 6, 4060, 4055, 4080, 4069, 4081, 4069, 0, 1, 5408, -89.900, 0.000, -25.700, 0.000, 0.000, -0.300, 0.0, , , , , , 97, , , 49, 49, 49
37.3089341, -119.5776717, 1.000, 11:57:24.608, 11, 0.00, 0.20, 98, 0.300, -0.100, -25.100, 1036, 100, 100, 24, 24462, -15649, 5325, 5434, 14, 14, 1529175444.608, 23, 0, 1024, 1024, 1024, 1024, 0, 6, 4060, 4055, 4080, 4069, 4081, 4069, 0, 1, 5500, -89.900, 0.000, -25.700, 0.000, 0.000, -0.300, 0.0, , , , , , 97, , , 49, 49, 49
37.3089341, -119.5776717, 1.000, 11:57:24.707, 11, 0.00, 0.20, 98, 0.300, -0.100, -25.200, 1036, 100, 100, 24, 24462, -15649, 5325, 5434, 14, 14, 1529175444.708, 16, 0, 1024, 1024, 1024, 1024, 0, 6, 4060, 4055, 4080, 4069, 4081, 4069, 0, 1, 5600, -89.900, 0.000, -25.700, 0.000, 0.000, -0.400, 0.0, , , , , , 97, , , 49, 49, 49
37.3089341, -119.5776718, 1.100, 11:57:24.808, 9, 0.00, 0.20, 98, 0.500, -0.100, -25.300, 1036, 100, 100, 24, 24462, -15649, 5325, 5434, 14, 14, 1529175444.808, 15, 0, 1024, 1024, 1024, 1024, 0, 6, 4060, 4055, 4080, 4069, 4081, 4069, 0, 1, 5701, -89.900, 0.000, -25.700, 0.000, 0.000, -0.600, 0.0, , , , , , 97, , , 49, 49, 49
37.3089341, -119.5776718, 1.100, 11:57:24.908, 9, 0.00, 0.20, 98, 0.500, -0.100, -25.300, 1036, 100, 100, 24, 24462, -15649, 5325, 5434, 14, 14, 1529175444.908, 115, 0, 1024, 1024, 1024, 1024, 0, 6, 4060, 4055, 4080, 4069, 4081, 4069, 0, 1, 5800, -89.900, 0.000, -25.700, 0.000, 0.000, -0.600, 0.0, , , , , , 97, , , 49, 49, 49
37.3089340, -119.5776719, 1.200, 11:57:25.012, 11, 0.00, 0.20, 98, 0.800, -0.100, -25.400, 1036, 100, 100, 24, 24345, -15915, 5325, 5434, 14, 14, 1529175445.012, 6, 0, 1024, 1024, 1024, 1024, 0, 6, 4043, 4033, 4073, 4056, 4075, 4046, 0, 1, 5904, -89.900, 0.000, -25.700, 0.000, 0.000, -0.900, 0.0, , , , , , 97, , , 49, 49, 49
37.3089340, -119.5776719, 1.200, 11:57:25.108, 11, 0.00, 0.20, 98, 0.800, -0.100, -25.400, 1036, 100, 100, 24, 24345, -15915, 5325, 5434, 14, 14, 1529175445.108, 102, 0, 1024, 1024, 1024, 1024, 0, 6, 4043, 4033, 4073, 4056, 4075, 4046, 0, 1, 6000, -89.900, 0.000, -25.700, 0.000, 0.000, -0.900, 0.0, , , , , , 97, , , 49, 49, 49
37.3089340, -119.5776720, 1.300, 11:57:25.207, 11, 0.00, 0.20, 98, 0.700, -0.100, -25.500, 1036, 100, 100, 24, 24345, -15915, 5325, 5434, 14, 14, 1529175445.208, 91, 0, 1024, 1024, 1024, 1024, 0, 6, 4043, 4033, 4073, 4056, 4075, 4046, 0, 1, 6100, -89.900, 0.000, -25.700, 0.000, 0.000, -1.100, 0.0, , , , , , 97, , , 49, 49, 49
37.3089341, -119.5776719, 1.400, 11:57:25.308, 11, 0.00, 0.20, 98, 0.500, -0.200, -25.400, 1036, 100, 100, 24, 24345, -15915, 5325, 5434, 14, 14, 1529175445.308, 95, 0, 1024, 1024, 1024, 1024, 0, 6, 4043, 4033, 4073, 4056, 4075, 4046, 0, 1, 6200, -89.900, 0.000, -25.700, 0.000, 0.000, -1.300, 0.0, , , , , , 97, , , 49, 49, 49
37.3089341, -119.5776718, 1.600, 11:57:25.408, 11, 0.00, 0.19, 98, 0.400, -0.200, -25.300, 1036, 100, 100, 24, 24345, -15915, 5325, 5434, 14, 14, 1529175445.408, 96, 0, 1024, 1024, 1024, 1024, 0, 6, 4043, 4033, 4073, 4056, 4075, 4046, 0, 1, 6300, -89.900, 0.000, -25.700, 0.000, 0.000, -1.600, 0.0, , , , , , 97, , , 49, 49, 49
37.3089342, -119.5776718, 1.800, 11:57:25.508, 10, 0.00, 0.19, 98, 0.300, -0.300, -25.100, 1036, 100, 100, 24, 24345, -15915, 5325, 5434, 14, 14, 1529175445.508, 63, 0, 1024, 1024, 1024, 1024, 0, 6, 4043, 4033, 4073, 4056, 4075, 4046, 0, 1, 6401, -89.900, 0.000, -25.700, 0.000, 0.000, -1.900, 0.0, , , , , , 97, , , 49, 49, 49
37.3089343, -119.5776717, 2.000, 11:57:25.608, 10, 0.00, 0.18, 98, 0.200, -0.100, -24.900, 1036, 100, 100, 24, 24345, -15915, 5325, 5434, 14, 14, 1529175445.608, 63, 0, 1024, 1024, 1024, 1024, 0, 6, 4043, 4033, 4073, 4056, 4075, 4046, 0, 1, 6501, -89.900, 0.000, -25.700, 0.000, 0.000, -2.100, 0.0, , , , , , 97, , , 49, 49, 49
37.3089344, -119.5776716, 2.200, 11:57:25.707, 11, 0.00, 0.17, 98, 0.000, 0.000, -24.800, 1036, 100, 100, 24, 24345, -15915, 5325, 5434, 14, 14, 1529175445.708, 70, 0, 1024, 1024, 1024, 1024, 0, 6, 4043, 4033, 4073, 4056, 4075, 4046, 0, 1, 6600, -89.900, 0.000, -25.700, 0.000, 0.000, -2.300, 0.0, , , , , , 97, , , 49, 49, 49
37.3089346, -119.5776715, 2.400, 11:57:25.808, 11, 0.00, 0.15, 98, -0.200, 0.200, -24.800, 1036, 100, 100, 24, 24345, -15915, 5325, 5434, 14, 14, 1529175445.808, 72, 0, 1024, 1024, 1024, 1024, 0, 6, 4043, 4033, 4073, 4056, 4075, 4046, 0, 1, 6700, -89.900, 0.000, -25.700, 0.000, 0.000, -2.400, 0.0, , , , , , 97, , , 49, 49, 49
37.3089346, -119.5776715, 2.400, 11:57:25.907, 11, 0.00, 0.15, 98, -0.200, 0.200, -24.800, 1036, 100, 100, 24, 24345, -15915, 5325, 5434, 14, 14, 1529175445.908, 171, 0, 1024, 1024, 1024, 1024, 0, 6, 4043, 4033, 4073, 4056, 4075, 4046, 0, 1, 6800, -89.900, 0.000, -25.700, 0.000, 0.000, -2.400, 0.0, , , , , , 97, , , 49, 49, 49
37.3089350, -119.5776712, 3.000, 11:57:26.008, 12, 0.00, 0.12, 98, -0.200, 0.600, -25.200, 1036, 100, 100, 24, 24072, -17820, 5325, 5434, 14, 14, 1529175446.008, 53, 0, 1024, 1024, 1024, 1024, 0, 6, 4003, 3994, 4001, 3985, 4013, 3982, 0, 1, 6900, -89.900, 0.000, -25.700, 0.000, 0.000, -2.900, 0.0, , , , , , 97, , , 49, 49, 49
37.3089351, -119.5776710, 3.300, 11:57:26.108, 12, 0.00, 0.12, 98, -0.200, 0.800, -25.300, 1036, 100, 97, 24, 24072, -17820, 5325, 5434, 14, 14, 1529175446.108, 45, 0, 1024, 1024, 1024, 1024, 0, 6, 4003, 3994, 4001, 3985, 4013, 3982, 0, 1, 7000, -89.900, 0.000, -25.700, 0.000, 0.000, -3.100, 0.0, , , , , , 97, , , 49, 49, 49
37.3089353, -119.5776708, 4.000, 11:57:26.207, 12, 0.00, 0.11, 98, -0.400, 0.700, -25.500, 1036, 100, 97, 24, 24072, -17820, 5325, 5434, 14, 14, 1529175446.208, 56, 0, 1024, 1024, 1024, 1024, 0, 6, 4003, 3994, 4001, 3985, 4013, 3982, 0, 1, 7100, -89.900, 0.000, -25.700, 0.000, 0.000, -3.200, 0.0, , , , , , 97, , , 49, 49, 49
37.3089356, -119.5776709, 4.300, 11:57:26.308, 12, 0.00, 0.10, 98, -0.600, 0.900, -25.600, 1036, 100, 97, 24, 24072, -17820, 5325, 5434, 14, 14, 1529175446.308, 30, 0, 1024, 1024, 1024, 1024, 0, 6, 4003, 3994, 4001, 3985, 4013, 3982, 0, 1, 7201, -89.900, 0.000, -25.700, 0.000, 0.000, -3.200, 0.0, , , , , , 97, , , 49, 49, 49
37.3089357, -119.5776709, 4.600, 11:57:26.408, 13, 0.00, 0.09, 98, -0.800, 1.300, -25.700, 1036, 100, 97, 24, 24072, -17820, 5325, 5434, 14, 14, 1529175446.409, 33, 0, 1024, 1024, 1024, 1024, 0, 6, 4003, 3994, 4001, 3985, 4013, 3982, 0, 1, 7301, -89.900, 0.000, -25.700, 0.000, 0.000, -3.200, 0.0, , , , , , 97, , , 49, 49, 49
37.3089359, -119.5776710, 5.000, 11:57:26.508, 13, 0.00, 0.08, 98, -0.700, 1.700, -25.700, 1036, 100, 97, 24, 24072, -17820, 5325, 5434, 14, 14, 1529175446.508, 32, 0, 1024, 1024, 1024, 1024, 0, 6, 4003, 3994, 4001, 3985, 4013, 3982, 0, 1, 7400, -89.900, 0.000, -25.700, 0.000, 0.000, -3.300, 0.0, , , , , , 97, , , 49, 49, 49
37.3089361, -119.5776711, 5.300, 11:57:26.608, 12, 0.00, 0.07, 98, -0.500, 2.100, -25.700, 1036, 100, 97, 24, 24072, -17820, 5325, 5434, 14, 14, 1529175446.609, 15, 0, 1024, 1024, 1024, 1024, 0, 6, 4003, 3994, 4001, 3985, 4013, 3982, 0, 1, 7501, -89.900, 0.000, -25.700, 0.000, 0.000, -3.300, 0.0, , , , , , 97, , , 49, 49, 49
37.3089362, -119.5776713, 5.700, 11:57:26.707, 12, 0.00, 0.06, 98, -0.200, 2.400, -25.500, 1036, 100, 97, 24, 24072, -17820, 5325, 5434, 14, 14, 1529175446.708, 4, 0, 1024, 1024, 1024, 1024, 0, 6, 4003, 3994, 4001, 3985, 4013, 3982, 0, 1, 7600, -89.900, 0.000, -25.700, 0.000, 0.000, -3.300, 0.0, , , , , , 97, , , 49, 49, 49
37.3089362, -119.5776717, 6.000, 11:57:26.808, 14, 0.10, 0.04, 98, 0.300, 2.500, -25.300, 1036, 100, 97, 24, 24072, -17820, 5325, 5434, 14, 14, 1529175446.808, 20, 0, 1024, 1024, 1024, 1024, 0, 6, 4003, 3994, 4001, 3985, 4013, 3982, 0, 1, 7700, -89.900, 0.000, -25.700, 0.000, -0.100, -3.200, 0.0, , , , , , 97, , , 49, 49, 49
37.3089362, -119.5776717, 6.000, 11:57:26.908, 14, 0.10, 0.04, 98, 0.300, 2.500, -25.300, 1036, 100, 97, 24, 24072, -17820, 5325, 5434, 14, 14, 1529175446.908, 120, 0, 1024, 1024, 1024, 1024, 0, 6, 4003, 3994, 4001, 3985, 4013, 3982, 0, 1, 7800, -89.900, 0.000, -25.700, 0.000, -0.100, -3.200, 0.0, , , , , , 97, , , 49, 49, 49
37.3089361, -119.5776726, 6.700, 11:57:27.009, 14, 0.10, 0.07, 98, 2.400, 2.100, -24.600, 1036, 100, 97, 24, 23602, -22836, 5325, 5434, 14, 14, 1529175447.010, 5, 0, 1024, 1024, 1024, 1024, 0, 6, 3911, 3932, 3974, 3957, 3975, 3956, 0, 1, 7902, -89.900, 0.000, -25.700, 0.000, -0.100, -3.200, 0.0, , , , , , 97, , , 49, 49, 49
37.3089361, -119.5776726, 6.700, 11:57:27.108, 14, 0.10, 0.07, 98, 2.400, 2.100, -24.600, 1036, 100, 97, 24, 23602, -22836, 5325, 5434, 14, 14, 1529175447.108, 104, 0, 1024, 1024, 1024, 1024, 0, 6, 3911, 3932, 3974, 3957, 3975, 3956, 0, 1, 8000, -89.900, 0.000, -25.700, 0.000, -0.100, -3.200, 0.0, , , , , , 97, , , 49, 49, 49
37.3089360, -119.5776728, 7.000, 11:57:27.207, 14, 0.10, 0.08, 98, 3.000, 1.800, -24.400, 1036, 100, 97, 24, 23602, -22836, 5325, 5434, 14, 14, 1529175447.208, 98, 0, 1024, 1024, 1024, 1024, 0, 6, 3911, 3932, 3974, 3957, 3975, 3956, 0, 1, 8100, -89.900, 0.000, -25.700, 0.000, -0.100, -3.100, 0.0, , , , , , 97, , , 49, 49, 49
37.3089358, -119.5776731, 7.300, 11:57:27.308, 14, 0.10, 0.10, 98, 3.100, 1.600, -24.400, 1036, 100, 97, 24, 23602, -22836, 5325, 5434, 14, 14, 1529175447.309, 99, 0, 1024, 1033, 1024, 1024, 0, 6, 3911, 3932, 3974, 3957, 3975, 3956, 0, 1, 8201, -89.900, 0.000, -25.700, -0.100, 0.000, -3.100, 0.0, , , , , , 97, , , 49, 49, 49
37.3089356, -119.5776733, 7.700, 11:57:27.408, 14, 0.10, 0.13, 98, 3.200, 1.200, -24.400, 1036, 100, 97, 24, 23602, -22836, 5325, 5434, 14, 14, 1529175447.408, 95, 0, 1024, 1037, 1024, 1024, 0, 6, 3911, 3932, 3974, 3957, 3975, 3956, 0, 1, 8301, -89.900, 0.000, -25.700, -0.100, 0.000, -3.100, 0.0, , , , , , 97, , , 49, 49, 49
37.3089354, -119.5776735, 8.000, 11:57:27.510, 14, 0.10, 0.15, 98, 3.000, 0.900, -24.600, 1036, 100, 97, 24, 23602, -22836, 5325, 5434, 14, 14, 1529175447.510, 97, 0, 1024, 1052, 1024, 1024, 0, 6, 3911, 3932, 3974, 3957, 3975, 3956, 0, 1, 8402, -89.900, 0.000, -25.700, -0.100, 0.000, -3.100, 0.0, , , , , , 97, , , 49, 49, 49
37.3089352, -119.5776736, 8.300, 11:57:27.608, 14, 0.10, 0.17, 98, 2.900, 0.500, -24.800, 1036, 100, 100, 24, 23602, -22836, 5325, 5434, 14, 14, 1529175447.608, 75, 0, 1024, 1090, 1024, 1024, 0, 6, 3911, 3932, 3974, 3957, 3975, 3956, 0, 1, 8500, -89.900, 0.100, -25.700, -0.100, 0.000, -3.100, 0.0, , , , , , 97, , , 49, 49, 49
37.3089350, -119.5776736, 8.700, 11:57:27.707, 15, 0.10, 0.18, 98, 2.500, 0.200, -25.000, 1036, 100, 100, 24, 23602, -22836, 5325, 5434, 14, 14, 1529175447.708, 54, 0, 1024, 1024, 1024, 1024, 0, 6, 3911, 3932, 3974, 3957, 3975, 3956, 0, 1, 8600, -89.900, 0.400, -25.700, -0.100, 0.000, -3.100, 0.0, , , , , , 97, , , 49, 49, 49
37.3089348, -119.5776735, 9.000, 11:57:27.808, 15, 0.10, 0.19, 98, 1.800, 0.000, -25.100, 1036, 100, 100, 24, 23602, -22836, 5325, 5434, 14, 14, 1529175447.808, 63, 0, 1024, 1024, 1024, 1024, 0, 6, 3911, 3932, 3974, 3957, 3975, 3956, 0, 1, 8700, -90.000, 0.400, -25.700, -0.100, 0.000, -3.000, 0.0, , , , , , 97, , , 49, 49, 49
37.3089345, -119.5776735, 9.300, 11:57:27.908, 15, 0.10, 0.20, 98, 1.300, -0.300, -25.200, 1036, 100, 100, 24, 23602, -22836, 5325, 5434, 14, 14, 1529175447.908, 65, 0, 1024, 1024, 1024, 1024, 0, 6, 3911, 3932, 3974, 3957, 3975, 3956, 0, 1, 8800, -90.000, 0.100, -25.700, -0.100, 0.000, -3.000, 0.0, , , , , , 97, , , 49, 49, 49
37.3089343, -119.5776735, 9.600, 11:57:28.008, 15, 0.10, 0.22, 98, 1.500, -0.600, -25.200, 1036, 100, 100, 24, 23960, -17974, 5325, 5434, 14, 14, 1529175448.008, 57, 0, 1024, 1024, 1024, 1024, 0, 6, 3911, 3932, 3974, 3957, 3975, 3956, 0, 1, 8900, -90.000, 0.000, -25.700, -0.100, 0.000, -3.000, 0.0, , , , , , 97, , , 49, 49, 49
37.3089341, -119.5776736, 9.900, 11:57:28.107, 16, 0.10, 0.25, 98, 1.700, -0.600, -25.100, 1036, 100, 100, 24, 23960, -17974, 5325, 5434, 14, 14, 1529175448.108, 59, 0, 1024, 1024, 1024, 1024, 0, 6, 3911, 3932, 3974, 3957, 3975, 3956, 0, 1, 9000, -90.000, 0.000, -25.700, -0.100, 0.000, -3.000, 0.0, , , , , , 97, , , 49, 49, 49
37.3089338, -119.5776737, 10.300, 11:57:28.207, 16, 0.10, 0.28, 98, 2.000, -0.800, -25.100, 1036, 100, 100, 24, 23960, -17974, 5325, 5434, 14, 14, 1529175448.208, 65, 0, 1024, 1024, 1024, 1024, 0, 6, 3911, 3932, 3974, 3957, 3975, 3956, 0, 1, 9100, -90.000, 0.000, -25.700, -0.100, 0.000, -3.000, 0.0, , , , , , 97, , , 49, 49, 49
37.3089336, -119.5776737, 10.600, 11:57:28.308, 16, 0.00, 0.30, 98, 2.200, -1.000, -25.200, 1036, 100, 100, 24, 23960, -17974, 5325, 5434, 14, 14, 1529175448.308, 54, 0, 1024, 1024, 1024, 1024, 0, 6, 3911, 3932, 3974, 3957, 3975, 3956, 0, 1, 9200, -90.000, 0.000, -25.700, 0.000, 0.000, -3.000, 0.0, , , , , , 97, , , 49, 49, 49
37.3089331, -119.5776737, 11.200, 11:57:28.408, 16, 0.00, 0.35, 98, 2.100, -1.300, -25.300, 1036, 100, 100, 24, 23960, -17974, 5325, 5434, 14, 14, 1529175448.408, 31, 0, 1024, 1024, 1024, 1024, 0, 6, 3911, 3932, 3974, 3957, 3975, 3956, 0, 1, 9300, -89.900, 0.000, -25.700, 0.000, 0.000, -2.900, 0.0, , , , , , 97, , , 49, 49, 49
37.3089328, -119.5776737, 11.500, 11:57:28.508, 16, 0.00, 0.38, 98, 2.100, -1.700, -25.200, 1036, 100, 100, 24, 23960, -17974, 5270, 5434, 14, 14, 1529175448.508, 29, 0, 1024, 1024, 1024, 1024, 0, 6, 3976, 3978, 4013, 3997, 4018, 3991, 0, 1, 9400, -90.000, 0.000, -25.700, 0.000, 0.000, -2.900, 0.0, , , , , , 97, , , 49, 49, 49
37.3089326, -119.5776737, 11.800, 11:57:28.608, 15, 0.00, 0.40, 98, 2.200, -2.000, -25.200, 1036, 100, 99, 24, 23960, -17974, 5270, 5434, 14, 14, 1529175448.608, 18, 0, 1024, 1024, 1024, 1024, 0, 6, 3976, 3978, 4013, 3997, 4018, 3991, 0, 1, 9500, -90.000, 0.000, -25.700, 0.000, 0.000, -3.000, 0.0, , , , , , 97, , , 49, 49, 49
37.3089324, -119.5776737, 12.100, 11:57:28.707, 15, 0.00, 0.42, 98, 2.100, -2.100, -25.300, 1036, 100, 99, 24, 23960, -17974, 5270, 5434, 14, 14, 1529175448.707, 23, 0, 1024, 1024, 1024, 1024, 0, 6, 3976, 3978, 4013, 3997, 4018, 3991, 0, 1, 9599, -90.000, 0.000, -25.700, 0.000, 0.000, -3.000, 0.0, , , , , , 97, , , 49, 49, 49
37.3089322, -119.5776737, 12.400, 11:57:28.808, 16, 0.00, 0.44, 98, 1.900, -2.100, -25.300, 1036, 100, 99, 24, 23960, -17974, 5270, 5434, 14, 14, 1529175448.809, 15, 0, 1024, 1024, 1024, 1024, 0, 6, 3976, 3978, 4013, 3997, 4018, 3991, 0, 1, 9701, -89.900, 0.000, -25.700, 0.000, 0.000, -3.000, 0.0, , , , , , 97, , , 49, 49, 49
37.3089321, -119.5776738, 12.700, 11:57:28.908, 16, 0.00, 0.45, 98, 1.900, -2.000, -25.300, 1036, 100, 99, 24, 23960, -17974, 5270, 5434, 14, 14, 1529175448.909, 31, 0, 1024, 1024, 1024, 1024, 0, 6, 3976, 3978, 4013, 3997, 4018, 3991, 0, 1, 9801, -89.900, 0.000, -25.700, 0.000, 0.000, -3.100, 0.0, , , , , , 97, , , 49, 49, 49
37.3089320, -119.5776737, 13.000, 11:57:29.008, 17, 0.00, 0.46, 97, 1.900, -1.400, -25.300, 1036, 100, 98, 24, 23960, -17974, 5270, 5434, 14, 14, 1529175449.008, 19, 0, 1024, 1024, 1024, 1024, 0, 6, 3976, 3978, 4013, 3997, 4018, 3991, 0, 1, 9900, -89.900, 0.000, -25.700, 0.000, 0.000, -3.000, 0.0, , , , , , 97, , , 49, 49, 49
37.3089319, -119.5776736, 13.300, 11:57:29.108, 17, 0.00, 0.46, 97, 1.800, -0.800, -25.100, 1036, 100, 98, 24, 23960, -17974, 5270, 5434, 14, 14, 1529175449.108, 20, 0, 1024, 1024, 1024, 1024, 0, 6, 3976, 3978, 4013, 3997, 4018, 3991, 0, 1, 10000, -89.900, 0.000, -25.700, 0.000, 0.000, -3.000, 0.0, , , , , , 97, , , 49, 49, 49
37.3089319, -119.5776735, 13.700, 11:57:29.207, 16, 0.10, 0.46, 97, 1.500, -0.500, -25.000, 1036, 100, 98, 24, 23960, -17974, 5270, 5434, 14, 14, 1529175449.207, 10, 0, 1024, 1024, 1024, 1024, 0, 6, 3976, 3978, 4013, 3997, 4018, 3991, 0, 1, 10100, -89.900, 0.000, -25.700, 0.000, 0.100, -3.000, 0.0, , , , , , 97, , , 49, 49, 49
37.3089319, -119.5776733, 14.000, 11:57:29.308, 16, 0.10, 0.46, 97, 1.200, -0.500, -24.900, 1036, 100, 98, 24, 23960, -17974, 5270, 5434, 14, 14, 1529175449.308, 15, 0, 1024, 1024, 1024, 1024, 0, 6, 3976, 3978, 4013, 3997, 4018, 3991, 0, 1, 10200, -89.900, 0.000, -25.700, 0.000, 0.100, -2.900, 0.0, , , , , , 97, , , 49, 49, 49
37.3089319, -119.5776732, 14.300, 11:57:29.410, 17, 0.10, 0.46, 97, 0.800, -0.600, -24.900, 1036, 100, 98, 24, 23960, -17974, 5270, 5434, 14, 14, 1529175449.410, 3, 0, 1024, 1024, 1024, 1024, 0, 6, 3976, 3978, 4013, 3997, 4018, 3991, 0, 1, 10302, -89.900, 0.000, -25.700, 0.000, 0.100, -3.000, 0.0, , , , , , 97, , , 49, 49, 49
37.3089318, -119.5776732, 14.600, 11:57:29.510, 17, 0.10, 0.46, 97, 0.700, -0.700, -25.000, 1036, 100, 98, 24, 23963, -17637, 5270, 5434, 14, 14, 1529175449.510, 7, 0, 1024, 1024, 1024, 1024, 0, 6, 3975, 3970, 4006, 3991, 4014, 3996, 0, 1, 10403, -89.900, 0.000, -25.700, 0.000, 0.100, -2.900, 0.0, , , , , , 97, , , 49, 49, 49
37.3089318, -119.5776732, 14.600, 11:57:29.608, 17, 0.10, 0.46, 97, 0.700, -0.700, -25.000, 1036, 100, 98, 24, 23963, -17637, 5270, 5434, 14, 14, 1529175449.608, 105, 0, 1024, 1024, 1024, 1024, 0, 6, 3975, 3970, 4006, 3991, 4014, 3996, 0, 1, 10500, -89.900, 0.000, -25.700, 0.000, 0.100, -2.900, 0.0, , , , , , 97, , , 49, 49, 49
37.3089319, -119.5776731, 14.900, 11:57:29.707, 17, 0.10, 0.46, 97, 0.700, -0.800, -25.200, 1036, 100, 98, 24, 23963, -17637, 5270, 5434, 14, 14, 1529175449.707, 87, 0, 1024, 1024, 1024, 1024, 0, 6, 3975, 3970, 4006, 3991, 4014, 3996, 0, 1, 10600, -89.900, 0.000, -25.700, 0.000, 0.100, -2.900, 0.0, , , , , , 97, , , 49, 49, 49
37.3089319, -119.5776729, 15.200, 11:57:29.808, 17, 0.10, 0.45, 97, 0.900, -1.000, -25.400, 1036, 100, 98, 24, 23963, -17637, 5270, 5434, 14, 14, 1529175449.808, 90, 0, 1024, 1024, 1024, 1024, 0, 6, 3975, 3970, 4006, 3991, 4014, 3996, 0, 1, 10700, -89.900, 0.000, -25.700, 0.100, 0.000, -2.900, 0.0, , , , , , 97, , , 49, 49, 49
37.3089319, -119.5776728, 15.500, 11:57:29.908, 17, 0.10, 0.45, 97, 0.800, -1.000, -25.300, 1036, 100, 98, 24, 23963, -17637, 5270, 5434, 14, 14, 1529175449.908, 77, 0, 1024, 1024, 1024, 1024, 0, 6, 3975, 3970, 4006, 3991, 4014, 3996, 0, 1, 10800, -89.900, 0.000, -25.700, 0.100, 0.000, -2.900, 0.0, , , , , , 97, , , 49, 49, 49
37.3089320, -119.5776727, 15.800, 11:57:30.008, 17, 0.10, 0.44, 97, 0.400, -0.900, -25.100, 1036, 100, 98, 24, 23963, -17637, 5270, 5434, 14, 14, 1529175450.008, 96, 0, 1024, 1024, 1024, 1024, 0, 6, 3975, 3970, 4006, 3991, 4014, 3996, 0, 1, 10900, -89.900, 0.000, -25.700, 0.100, 0.000, -2.900, 0.0, , , , , , 97, , , 49, 49, 49
37.3089321, -119.5776725, 16.100, 11:57:30.108, 16, 0.10, 0.42, 97, 0.200, -0.500, -24.800, 1036, 100, 99, 24, 23963, -17637, 5270, 5434, 14, 14, 1529175450.108, 85, 0, 1024, 1024, 1024, 1024, 0, 6, 3975, 3970, 4006, 3991, 4014, 3996, 0, 1, 11000, -89.900, 0.000, -25.700, 0.100, 0.000, -2.900, 0.0, , , , , , 97, , , 49, 49, 49
37.3089322, -119.5776724, 16.400, 11:57:30.207, 16, 0.10, 0.41, 97, 0.100, -0.200, -24.700, 1036, 100, 99, 24, 23963, -17637, 5270, 5434, 14, 14, 1529175450.207, 77, 0, 1024, 1024, 1024, 1024, 0, 6, 3975, 3970, 4006, 3991, 4014, 3996, 0, 1, 11100, -89.900, 0.000, -25.700, 0.100, 0.000, -2.900, 0.0, , , , , , 97, , , 49, 49, 49
37.3089323, -119.5776723, 16.700, 11:57:30.308, 16, 0.10, 0.40, 97, 0.200, 0.000, -24.600, 1036, 100, 99, 24, 23963, -17637, 5270, 5434, 14, 14, 1529175450.308, 83, 0, 1024, 1024, 1024, 1024, 0, 6, 3975, 3970, 4006, 3991, 4014, 3996, 0, 1, 11200, -89.900, 0.000, -25.700, 0.100, 0.000, -2.900, 0.0, , , , , , 97, , , 49, 49, 49
37.3089324, -119.5776723, 17.000, 11:57:30.408, 16, 0.10, 0.38, 97, 0.500, 0.400, -24.600, 1036, 100, 99, 24, 23963, -17637, 5270, 5434, 14, 14, 1529175450.408, 75, 0, 1024, 1024, 1024, 1024, 0, 6, 3975, 3970, 4006, 3991, 4014, 3996, 0, 1, 11300, -89.900, 0.000, -25.700, 0.100, 0.000, -2.900, 0.0, , , , , , 97, , , 49, 49, 49
37.3089326, -119.5776722, 17.300, 11:57:30.508, 16, 0.10, 0.36, 97, 0.800, 0.700, -24.600, 1036, 100, 99, 25, 23888, -18146, 5270, 5434, 14, 14, 1529175450.508, 78, 0, 1024, 1024, 1024, 1024, 0, 6, 3964, 3963, 4008, 3993, 4002, 3985, 0, 1, 11400, -89.900, 0.000, -25.700, 0.100, 0.000, -2.900, 0.0, , , , , , 97, , , 49, 49, 49
37.3089328, -119.5776721, 17.600, 11:57:30.608, 16, 0.10, 0.34, 97, 0.900, 1.000, -24.600, 1036, 100, 99, 25, 23888, -18146, 5270, 5434, 14, 14, 1529175450.608, 81, 0, 1024, 1024, 1024, 1024, 0, 6, 3964, 3963, 4008, 3993, 4002, 3985, 0, 1, 11500, -89.900, 0.000, -25.700, 0.100, 0.000, -2.900, 0.0, , , , , , 97, , , 49, 49, 49
37.3089329, -119.5776720, 17.900, 11:57:30.707, 16, 0.10, 0.32, 97, 0.600, 1.200, -24.700, 1036, 100, 99, 25, 23888, -18146, 5270, 5434, 14, 14, 1529175450.708, 73, 0, 1024, 1024, 1024, 1024, 0, 6, 3964, 3963, 4008, 3993, 4002, 3985, 0, 1, 11600, -89.900, 0.000, -25.700, 0.100, 0.000, -2.900, 0.0, , , , , , 97, , , 49, 49, 49
37.3089331, -119.5776719, 18.200, 11:57:30.808, 16, 0.10, 0.31, 97, 0.300, 1.100, -24.700, 1036, 100, 99, 25, 23888, -18146, 5270, 5434, 14, 14, 1529175450.808, 48, 0, 1024, 1024, 1024, 1024, 0, 6, 3964, 3963, 4008, 3993, 4002, 3985, 0, 1, 11700, -89.900, 0.000, -25.700, 0.100, 0.000, -2.900, 0.0, , , , , , 97, , , 49, 49, 49
37.3089331, -119.5776719, 18.200, 11:57:30.907, 16, 0.10, 0.31, 97, 0.300, 1.100, -24.700, 1036, 100, 99, 25, 23888, -18146, 5270, 5434, 14, 14, 1529175450.908, 148, 0, 1024, 1024, 1024, 1024, 0, 6, 3964, 3963, 4008, 3993, 4002, 3985, 0, 1, 11800, -89.900, 0.000, -25.700, 0.100, 0.000, -2.900, 0.0, , , , , , 97, , , 49, 49, 49
37.3089334, -119.5776717, 18.800, 11:57:31.007, 16, 0.10, 0.28, 97, -0.200, 0.900, -25.100, 1036, 100, 99, 25, 23888, -18146, 5270, 5434, 14, 14, 1529175451.007, 41, 0, 1024, 1024, 1024, 1024, 0, 6, 3964, 3963, 4008, 3993, 4002, 3985, 0, 1, 11899, -89.900, 0.000, -25.700, 0.100, 0.000, -2.900, 0.0, , , , , , 97, , , 49, 49, 49
37.3089337, -119.5776716, 19.400, 11:57:31.108, 17, 0.10, 0.24, 97, -0.300, 1.000, -25.400, 1036, 100, 97, 25, 23888, -18146, 5270, 5434, 14, 14, 1529175451.108, 29, 0, 1024, 1024, 1024, 1024, 0, 6, 3964, 3963, 4008, 3993, 4002, 3985, 0, 1, 12000, -89.900, 0.000, -25.700, 0.100, 0.000, -2.900, 0.0, , , , , , 97, , , 49, 49, 49
37.3089337, -119.5776716, 19.400, 11:57:31.207, 17, 0.10, 0.24, 97, -0.300, 1.000, -25.400, 1036, 100, 97, 25, 23888, -18146, 5270, 5434, 14, 14, 1529175451.208, 129, 0, 1024, 1024, 1024, 1024, 0, 6, 3964, 3963, 4008, 3993, 4002, 3985, 0, 1, 12100, -89.900, 0.000, -25.700, 0.100, 0.000, -2.900, 0.0, , , , , , 97, , , 49, 49, 49
37.3089340, -119.5776717, 20.000, 11:57:31.307, 16, 0.10, 0.21, 97, 0.500, 1.500, -25.800, 1036, 100, 97, 25, 23888, -18146, 5270, 5434, 14, 14, 1529175451.307, 41, 0, 1024, 1024, 1024, 1024, 0, 6, 3964, 3963, 4008, 3993, 4002, 3985, 0, 1, 12199, -89.900, 0.000, -25.700, 0.100, 0.000, -2.900, 0.0, , , , , , 97, , , 49, 49, 49
37.3089341, -119.5776718, 20.300, 11:57:31.408, 16, 0.10, 0.19, 97, 0.900, 1.800, -25.700, 1036, 100, 97, 25, 23888, -18146, 5270, 5434, 14, 14, 1529175451.408, 45, 0, 1024, 1024, 1024, 1024, 0, 6, 3964, 3963, 4008, 3993, 4002, 3985, 0, 1, 12300, -89.900, 0.000, -25.700, 0.100, 0.000, -2.900, 0.0, , , , , , 97, , , 49, 49, 49
37.3089342, -119.5776718, 20.600, 11:57:31.508, 16, 0.00, 0.18, 97, 0.800, 1.800, -25.600, 1036, 100, 97, 25, 23902, -17554, 5270, 5434, 14, 14, 1529175451.508, 37, 0, 1024, 1024, 1024, 1024, 0, 6, 3968, 3964, 4001, 3985, 4006, 3981, 0, 1, 12401, -89.900, 0.000, -25.700, 0.000, 0.000, -2.900, 0.0, , , , , , 97, , , 49, 49, 49
37.3089343, -119.5776718, 20.900, 11:57:31.608, 16, 0.00, 0.17, 97, 0.600, 1.700, -25.400, 1036, 100, 93, 25, 23902, -17554, 5270, 5434, 14, 14, 1529175451.608, 31, 0, 1024, 1024, 1024, 1024, 0, 6, 3968, 3964, 4001, 3985, 4006, 3981, 0, 1, 12501, -89.900, 0.000, -25.700, 0.000, 0.000, -3.000, 0.0, , , , , , 97, , , 49, 49, 49
37.3089344, -119.5776718, 21.300, 11:57:31.709, 16, 0.00, 0.16, 97, 0.600, 1.600, -25.200, 1036, 100, 93, 25, 23902, -17554, 5270, 5434, 14, 14, 1529175451.710, 4, 0, 1024, 1024, 1024, 1024, 0, 6, 3968, 3964, 4001, 3985, 4006, 3981, 0, 1, 12602, -89.900, 0.000, -25.700, 0.000, 0.000, -3.000, 0.0, , , , , , 97, , , 49, 49, 49
37.3089345, -119.5776718, 21.600, 11:57:31.808, 17, 0.00, 0.15, 97, 0.700, 1.700, -25.000, 1036, 100, 93, 25, 23902, -17554, 5270, 5434, 14, 14, 1529175451.808, 16, 0, 1024, 1024, 1024, 1024, 0, 6, 3968, 3964, 4001, 3985, 4006, 3981, 0, 1, 12701, -89.900, 0.000, -25.700, 0.000, 0.000, -2.900, 0.0, , , , , , 97, , , 49, 49, 49
37.3089346, -119.5776719, 21.900, 11:57:31.908, 17, 0.00, 0.14, 97, 0.900, 1.800, -24.800, 1036, 100, 93, 25, 23902, -17554, 5270, 5434, 14, 14, 1529175451.908, 7, 0, 1024, 1024, 1024, 1024, 0, 6, 3968, 3964, 4001, 3985, 4006, 3981, 0, 1, 12801, -89.900, 0.000, -25.700, 0.000, 0.000, -2.900, 0.0, , , , , , 97, , , 49, 49, 49
37.3089347, -119.5776720, 22.200, 11:57:32.008, 17, 0.00, 0.13, 97, 0.900, 1.800, -24.800, 1036, 100, 93, 25, 23902, -17554, 5270, 5434, 14, 14, 1529175452.008, 15, 0, 1024, 1024, 1024, 1024, 0, 6, 3968, 3964, 4001, 3985, 4006, 3981, 0, 1, 12901, -89.900, 0.000, -25.700, 0.000, 0.000, -2.900, 0.0, , , , , , 97, , , 49, 49, 49
37.3089348, -119.5776721, 22.500, 11:57:32.108, 17, 0.00, 0.12, 97, 1.200, 1.800, -25.000, 1036, 100, 93, 25, 23902, -17554, 5270, 5434, 14, 14, 1529175452.109, 5, 0, 1024, 1024, 1024, 1024, 0, 6, 3968, 3964, 4001, 3985, 4006, 3981, 0, 1, 13001, -89.900, 0.000, -25.700, 0.000, 0.000, -2.900, 0.0, , , , , , 97, , , 49, 49, 49
37.3089349, -119.5776722, 22.800, 11:57:32.207, 17, 0.00, 0.11, 97, 1.400, 1.900, -25.400, 1036, 100, 93, 25, 23902, -17554, 5270, 5434, 14, 14, 1529175452.208, 12, 0, 1024, 1024, 1024, 1024, 0, 6, 3968, 3964, 4001, 3985, 4006, 3981, 0, 1, 13100, -89.900, 0.000, -25.700, 0.000, 0.000, -2.900, 0.0, , , , , , 97, , , 49, 49, 49
37.3089349, -119.5776722, 22.800, 11:57:32.308, 17, 0.00, 0.11, 97, 1.400, 1.900, -25.400, 1036, 100, 93, 25, 23902, -17554, 5270, 5434, 14, 14, 1529175452.308, 112, 0, 1024, 1024, 1024, 1024, 0, 6, 3968, 3964, 4001, 3985, 4006, 3981, 0, 1, 13201, -89.900, 0.000, -25.700, 0.000, 0.000, -2.900, 0.0, , , , , , 97, , , 49, 49, 49
37.3089349, -119.5776722, 22.800, 11:57:32.408, 17, 0.00, 0.11, 97, 1.400, 1.900, -25.400, 1036, 100, 93, 25, 23902, -17554, 5270, 5434, 14, 14, 1529175452.409, 212, 0, 1024, 1024, 1024, 1024, 0, 6, 3968, 3964, 4001, 3985, 4006, 3981, 0, 1, 13301, -89.900, 0.000, -25.700, 0.000, 0.000, -2.900, 0.0, , , , , , 97, , , 49, 49, 49
37.3089350, -119.5776723, 23.400, 11:57:32.508, 17, 0.00, 0.10, 97, 1.700, 2.100, -26.300, 1036, 100, 93, 25, 23903, -17198, 5270, 5434, 14, 14, 1529175452.508, 80, 0, 1024, 1024, 1024, 1024, 0, 6, 3962, 3974, 3999, 3982, 4001, 3989, 0, 1, 13400, -89.900, 0.000, -25.700, 0.000, 0.000, -2.900, 0.0, , , , , , 97, , , 49, 49, 49
37.3089350, -119.5776723, 23.700, 11:57:32.608, 17, 0.00, 0.10, 97, 1.500, 2.000, -26.400, 1036, 100, 94, 25, 23903, -17198, 5270, 5434, 14, 14, 1529175452.608, 96, 0, 1024, 1024, 1024, 1024, 0, 6, 3962, 3974, 3999, 3982, 4001, 3989, 0, 1, 13500, -89.900, 0.000, -25.700, 0.000, 0.000, -2.800, 0.0, , , , , , 97, , , 49, 49, 49
37.3089351, -119.5776724, 24.000, 11:57:32.707, 17, 0.00, 0.10, 97, 1.300, 1.900, -26.400, 1036, 100, 94, 25, 23903, -17198, 5270, 5434, 14, 14, 1529175452.708, 64, 0, 1024, 1024, 1024, 1024, 0, 6, 3962, 3974, 3999, 3982, 4001, 3989, 0, 1, 13600, -89.900, 0.000, -25.700, 0.000, 0.000, -2.800, 0.0, , , , , , 97, , , 49, 49, 49
37.3089351, -119.5776725, 24.300, 11:57:32.808, 17, 0.00, 0.10, 97, 1.100, 1.900, -26.200, 1036, 100, 94, 25, 23903, -17198, 5270, 5434, 14, 14, 1529175452.808, 76, 0, 1024, 1024, 1024, 1024, 0, 6, 3962, 3974, 3999, 3982, 4001, 3989, 0, 1, 13700, -89.900, 0.000, -25.700, 0.000, 0.000, -2.700, 0.0, , , , , , 97, , , 49, 49, 49
37.3089352, -119.5776725, 24.600, 11:57:32.908, 17, 0.00, 0.09, 97, 1.200, 1.700, -25.900, 1036, 100, 94, 25, 23903, -17198, 5270, 5434, 14, 14, 1529175452.908, 57, 0, 1024, 1024, 1024, 1024, 0, 6, 3962, 3974, 3999, 3982, 4001, 3989, 0, 1, 13800, -89.900, 0.000, -25.700, 0.000, 0.000, -2.700, 0.0, , , , , , 97, , , 49, 49, 49
37.3089352, -119.5776724, 24.800, 11:57:33.008, 17, 0.00, 0.09, 97, 0.900, 1.600, -25.500, 1036, 100, 94, 25, 23903, -17198, 5270, 5434, 14, 14, 1529175453.008, 80, 0, 1024, 1024, 1024, 1024, 0, 6, 3962, 3974, 3999, 3982, 4001, 3989, 0, 1, 13900, -89.900, 0.000, -25.700, 0.000, 0.000, -2.700, 0.0, , , , , , 97, , , 49, 49, 49
37.3089353, -119.5776723, 25.100, 11:57:33.108, 17, 0.00, 0.08, 97, 0.400, 1.500, -25.100, 1036, 100, 98, 25, 23903, -17198, 5270, 5434, 14, 14, 1529175453.108, 74, 0, 1024, 1024, 1024, 1024, 0, 6, 3962, 3974, 3999, 3982, 4001, 3989, 0, 1, 14001, -89.900, 0.000, -25.700, 0.000, 0.000, -2.800, 0.0, , , , , , 97, , , 49, 49, 49
37.3089353, -119.5776723, 25.400, 11:57:33.207, 17, 0.00, 0.07, 97, 0.200, 1.500, -24.800, 1036, 100, 98, 25, 23903, -17198, 5270, 5434, 14, 14, 1529175453.208, 64, 0, 1024, 1024, 1024, 1024, 0, 6, 3962, 3974, 3999, 3982, 4001, 3989, 0, 1, 14100, -89.900, 0.000, -25.700, 0.000, 0.000, -2.700, 0.0, , , , , , 97, , , 49, 49, 49
37.3089353, -119.5776722, 25.700, 11:57:33.308, 17, 0.00, 0.07, 97, 0.000, 1.500, -24.600, 1036, 100, 98, 25, 23903, -17198, 5270, 5434, 14, 14, 1529175453.308, 55, 0, 1024, 1024, 1024, 1024, 0, 6, 3962, 3974, 3999, 3982, 4001, 3989, 0, 1, 14200, -89.900, 0.000, -25.700, 0.000, 0.000, -2.700, 0.0, , , , , , 97, , , 49, 49, 49
37.3089353, -119.5776721, 26.000, 11:57:33.408, 17, 0.00, 0.06, 97, -0.100, 1.600, -24.400, 1036, 100, 98, 25, 23903, -17198, 5270, 5434, 14, 14, 1529175453.408, 56, 0, 1024, 1024, 1024, 1024, 0, 6, 3962, 3974, 3999, 3982, 4001, 3989, 0, 1, 14300, -89.900, 0.000, -25.700, 0.000, 0.000, -2.800, 0.0, , , , , , 97, , , 49, 49, 49
37.3089354, -119.5776719, 26.500, 11:57:33.508, 17, 0.00, 0.05, 97, -0.700, 1.800, -24.400, 1036, 100, 98, 25, 23963, -17235, 5270, 5434, 14, 14, 1529175453.508, 47, 0, 1024, 1024, 1024, 1024, 0, 6, 3962, 3974, 3999, 3982, 4001, 3989, 0, 1, 14400, -89.900, 0.000, -25.700, 0.000, 0.000, -2.800, 0.0, , , , , , 97, , , 49, 49, 49
37.3089354, -119.5776718, 26.800, 11:57:33.608, 17, 0.00, 0.05, 97, -0.900, 1.700, -24.400, 1036, 100, 99, 25, 23963, -17235, 5270, 5434, 14, 14, 1529175453.608, 55, 0, 1024, 1024, 1024, 1024, 0, 6, 3962, 3974, 3999, 3982, 4001, 3989, 0, 1, 14500, -89.900, 0.000, -25.700, 0.000, 0.000, -2.800, 0.0, , , , , , 97, , , 49, 49, 49
37.3089355, -119.5776718, 27.100, 11:57:33.707, 17, 0.00, 0.05, 97, -1.100, 1.300, -24.400, 1036, 100, 99, 25, 23963, -17235, 5270, 5434, 14, 14, 1529175453.708, 47, 0, 1024, 1024, 1024, 1024, 0, 6, 3962, 3974, 3999, 3982, 4001, 3989, 0, 1, 14600, -89.900, 0.000, -25.700, 0.000, 0.000, -2.800, 0.0, , , , , , 97, , , 49, 49, 49
37.3089355, -119.5776718, 27.100, 11:57:33.807, 17, 0.00, 0.05, 97, -1.100, 1.300, -24.400, 1036, 100, 99, 25, 23963, -17235, 5270, 5434, 14, 14, 1529175453.807, 147, 0, 1024, 1024, 1024, 1024, 0, 6, 3962, 3974, 3999, 3982, 4001, 3989, 0, 1, 14700, -89.900, 0.000, -25.700, 0.000, 0.000, -2.800, 0.0, , , , , , 97, , , 49, 49, 49
37.3089354, -119.5776717, 27.700, 11:57:33.907, 17, 0.00, 0.05, 97, -0.600, 0.800, -24.400, 1036, 100, 99, 25, 23963, -17235, 5270, 5434, 14, 14, 1529175453.908, 27, 0, 1024, 1024, 1024, 1024, 0, 6, 3962, 3974, 3999, 3982, 4001, 3989, 0, 1, 14800, -89.900, 0.000, -25.700, 0.000, 0.000, -2.900, 0.0, , , , , , 97, , , 49, 49, 49
37.3089354, -119.5776718, 27.900, 11:57:34.008, 17, 0.00, 0.05, 97, -0.300, 0.800, -24.500, 1036, 100, 99, 25, 23963, -17235, 5270, 5434, 14, 14, 1529175454.008, 21, 0, 1024, 1024, 1024, 1024, 0, 6, 3956, 3955, 4015, 3997, 4007, 4000, 0, 1, 14900, -89.900, 0.000, -25.700, 0.000, 0.000, -2.900, 0.0, , , , , , 97, , , 49, 49, 49
37.3089354, -119.5776718, 28.200, 11:57:34.108, 17, 0.00, 0.05, 97, 0.000, 1.000, -24.800, 1036, 100, 98, 25, 23963, -17235, 5270, 5434, 14, 14, 1529175454.108, 35, 0, 1024, 1024, 1024, 1024, 0, 6, 3956, 3955, 4015, 3997, 4007, 4000, 0, 1, 15001, -89.900, 0.000, -25.700, 0.000, 0.000, -2.900, 0.0, , , , , , 97, , , 49, 49, 49
37.3089354, -119.5776718, 28.500, 11:57:34.207, 17, 0.00, 0.05, 97, 0.400, 1.200, -25.200, 1036, 100, 98, 25, 23963, -17235, 5270, 5434, 14, 14, 1529175454.208, 37, 0, 1024, 1024, 1024, 1024, 0, 6, 3956, 3955, 4015, 3997, 4007, 4000, 0, 1, 15100, -89.900, 0.000, -25.700, 0.000, 0.000, -3.000, 0.0, , , , , , 97, , , 49, 49, 49
37.3089354, -119.5776719, 28.800, 11:57:34.308, 17, 0.00, 0.05, 97, 0.600, 1.400, -25.600, 1036, 100, 98, 25, 23963, -17235, 5270, 5434, 14, 14, 1529175454.308, 7, 0, 1024, 1024, 1024, 1024, 0, 6, 3956, 3955, 4015, 3997, 4007, 4000, 0, 1, 15200, -89.900, 0.000, -25.700, 0.000, 0.000, -3.000, 0.0, , , , , , 97, , , 49, 49, 49
37.3089354, -119.5776719, 29.100, 11:57:34.408, 17, 0.00, 0.05, 97, 0.800, 1.500, -25.700, 1036, 100, 98, 25, 23963, -17235, 5270, 5434, 14, 14, 1529175454.408, 13, 0, 1024, 1024, 1024, 1024, 0, 6, 3956, 3955, 4015, 3997, 4007, 4000, 0, 1, 15301, -89.900, 0.000, -25.700, 0.000, 0.000, -3.000, 0.0, , , , , , 97, , , 49, 49, 49
37.3089354, -119.5776719, 29.100, 11:57:34.508, 17, 0.00, 0.05, 97, 0.800, 1.500, -25.700, 1036, 100, 97, 25, 23963, -17235, 5270, 5434, 14, 14, 1529175454.508, 112, 0, 1024, 1024, 1024, 1024, 0, 6, 3956, 3955, 4015, 3997, 4007, 4000, 0, 1, 15400, -89.900, 0.000, -25.700, 0.000, 0.000, -3.000, 0.0, , , , , , 97, , , 49, 49, 49
37.3089354, -119.5776719, 29.700, 11:57:34.609, 17, 0.00, 0.05, 97, 0.700, 1.900, -25.500, 1036, 100, 97, 25, 23963, -17235, 5270, 5434, 14, 14, 1529175454.610, 5, 0, 1024, 1024, 1024, 1024, 0, 6, 3956, 3955, 4015, 3997, 4007, 4000, 0, 1, 15502, -89.900, 0.000, -25.700, 0.000, 0.000, -3.000, 0.0, , , , , , 97, , , 49, 49, 49
37.3089354, -119.5776720, 30.000, 11:57:34.707, 17, 0.00, 0.05, 97, 0.600, 2.200, -25.300, 1036, 100, 97, 25, 23963, -17235, 5270, 5434, 14, 14, 1529175454.707, 4, 0, 1024, 1024, 1024, 1024, 0, 6, 3956, 3955, 4015, 3997, 4007, 4000, 0, 1, 15600, -89.900, 0.000, -25.700, 0.000, 0.000, -3.000, 0.0, , , , , , 97, , , 49, 49, 49
37.3089354, -119.5776720, 30.000, 11:57:34.808, 17, 0.00, 0.05, 97, 0.600, 2.200, -25.300, 1036, 100, 97, 25, 23963, -17235, 5270, 5434, 14, 14, 1529175454.808, 104, 0, 1024, 1024, 1024, 1024, 0, 6, 3956, 3955, 4015, 3997, 4007, 4000, 0, 1, 15700, -89.900, 0.000, -25.700, 0.000, 0.000, -3.000, 0.0, , , , , , 97, , , 49, 49, 49
37.3089354, -119.5776721, 30.300, 11:57:34.908, 17, 0.00, 0.05, 97, 0.500, 2.200, -25.000, 1036, 100, 97, 25, 23963, -17235, 5270, 5434, 14, 14, 1529175454.908, 93, 0, 1024, 1024, 1024, 1024, 0, 6, 3956, 3955, 4015, 3997, 4007, 4000, 0, 1, 15800, -89.900, 0.000, -25.700, 0.000, 0.000, -3.000, 0.0, , , , , , 97, , , 49, 49, 49
37.3089354, -119.5776721, 30.700, 11:57:35.008, 17, 0.00, 0.06, 97, 0.500, 2.000, -24.800, 1036, 100, 97, 25, 23704, -18681, 5270, 5434, 14, 14, 1529175455.008, 99, 0, 1024, 1024, 1024, 1024, 0, 6, 3929, 3931, 3971, 3951, 3977, 3958, 0, 1, 15900, -89.900, 0.000, -25.700, 0.000, 0.000, -3.100, 0.0, , , , , , 97, , , 49, 49, 49
37.3089353, -119.5776721, 31.000, 11:57:35.107, 17, 0.00, 0.07, 97, 0.800, 1.700, -24.600, 1036, 100, 96, 25, 23704, -18681, 5270, 5434, 14, 14, 1529175455.108, 72, 0, 1024, 1024, 1024, 1024, 0, 6, 3929, 3931, 3971, 3951, 3977, 3958, 0, 1, 16000, -89.900, 0.000, -25.700, 0.000, 0.000, -3.100, 0.0, , , , , , 97, , , 49, 49, 49
37.3089352, -119.5776722, 31.300, 11:57:35.207, 17, 0.00, 0.08, 97, 1.100, 1.400, -24.600, 1036, 100, 96, 25, 23704, -18681, 5270, 5434, 14, 14, 1529175455.207, 84, 0, 1024, 1024, 1024, 1024, 0, 6, 3929, 3931, 3971, 3951, 3977, 3958, 0, 1, 16099, -89.900, 0.000, -25.700, 0.000, 0.000, -3.000, 0.0, , , , , , 97, , , 49, 49, 49
37.3089351, -119.5776723, 31.600, 11:57:35.307, 17, 0.00, 0.09, 97, 1.400, 1.200, -24.600, 1036, 100, 96, 25, 23704, -18681, 5270, 5434, 14, 14, 1529175455.308, 87, 0, 1024, 1024, 1024, 1024, 0, 6, 3929, 3931, 3971, 3951, 3977, 3958, 0, 1, 16200, -89.900, 0.000, -25.700, 0.000, 0.000, -3.000, 0.0, , , , , , 97, , , 49, 49, 49
37.3089350, -119.5776723, 31.900, 11:57:35.408, 17, 0.00, 0.10, 97, 1.700, 1.000, -24.700, 1036, 100, 96, 25, 23704, -18681, 5270, 5434, 14, 14, 1529175455.408, 90, 0, 1024, 1024, 1024, 1024, 0, 6, 3929, 3931, 3971, 3951, 3977, 3958, 0, 1, 16300, -89.900, 0.000, -25.700, 0.000, 0.000, -3.000, 0.0, , , , , , 97, , , 49, 49, 49
37.3089349, -119.5776724, 32.200, 11:57:35.507, 17, 0.00, 0.11, 97, 1.900, 1.000, -24.900, 1036, 100, 96, 25, 23704, -18681, 5270, 5434, 14, 14, 1529175455.508, 56, 0, 1024, 1024, 1024, 1024, 0, 6, 3929, 3931, 3971, 3951, 3977, 3958, 0, 1, 16400, -89.900, 0.000, -25.700, 0.000, 0.000, -3.000, 0.0, , , , , , 97, , , 49, 49, 49
37.3089348, -119.5776725, 32.500, 11:57:35.607, 17, 0.00, 0.13, 97, 2.000, 0.900, -25.100, 1036, 100, 97, 25, 23704, -18681, 5270, 5434, 14, 14, 1529175455.608, 59, 0, 1024, 1024, 1024, 1024, 0, 6, 3929, 3931, 3971, 3951, 3977, 3958, 0, 1, 16500, -89.900, 0.000, -25.700, 0.000, 0.000, -3.000, 0.0, , , , , , 97, , , 49, 49, 49
37.3089347, -119.5776725, 32.800, 11:57:35.707, 17, 0.00, 0.14, 97, 1.900, 0.900, -25.300, 1036, 100, 97, 25, 23704, -18681, 5270, 5434, 14, 14, 1529175455.707, 52, 0, 1024, 1024, 1024, 1024, 0, 6, 3929, 3931, 3971, 3951, 3977, 3958, 0, 1, 16599, -89.900, 0.000, -25.700, 0.000, 0.000, -2.900, 0.0, , , , , , 97, , , 49, 49, 49
37.3089347, -119.5776725, 32.800, 11:57:35.808, 17, 0.00, 0.14, 97, 1.900, 0.900, -25.300, 1036, 100, 97, 25, 23704, -18681, 5270, 5434, 14, 14, 1529175455.808, 153, 0, 1024, 1024, 1024, 1024, 0, 6, 3929, 3931, 3971, 3951, 3977, 3958, 0, 1, 16700, -89.900, 0.000, -25.700, 0.000, 0.000, -2.900, 0.0, , , , , , 97, , , 49, 49, 49
37.3089346, -119.5776725, 33.400, 11:57:35.907, 17, 0.00, 0.16, 97, 1.600, 1.000, -25.300, 1036, 100, 97, 25, 23704, -18681, 5270, 5434, 14, 14, 1529175455.908, 58, 0, 1024, 1024, 1024, 1024, 0, 6, 3929, 3931, 3971, 3951, 3977, 3958, 0, 1, 16800, -89.900, 0.000, -25.700, 0.000, 0.000, -2.900, 0.0, , , , , , 97, , , 49, 49, 49
37.3089345, -119.5776726, 33.700, 11:57:36.007, 17, 0.00, 0.17, 97, 1.400, 1.000, -25.300, 1036, 100, 97, 25, 23797, -17454, 5270, 5434, 14, 14, 1529175456.008, 48, 0, 1024, 1024, 1024, 1024, 0, 6, 3946, 3947, 3988, 3964, 3990, 3968, 0, 1, 16900, -89.900, 0.000, -25.700, 0.000, 0.000, -3.000, 0.0, , , , , , 97, , , 49, 49, 49
37.3089343, -119.5776727, 34.300, 11:57:36.107, 17, 0.00, 0.19, 97, 1.800, 0.900, -25.100, 1036, 100, 97, 25, 23797, -17454, 5270, 5434, 14, 14, 1529175456.108, 37, 0, 1024, 1024, 1024, 1024, 0, 6, 3946, 3947, 3988, 3964, 3990, 3968, 0, 1, 17000, -89.900, 0.000, -25.700, 0.000, 0.000, -3.000, 0.0, , , , , , 97, , , 49, 49, 49
37.3089342, -119.5776727, 34.600, 11:57:36.207, 17, 0.00, 0.20, 97, 2.100, 0.900, -25.100, 1036, 100, 97, 25, 23797, -17454, 5270, 5434, 14, 14, 1529175456.207, 52, 0, 1024, 1024, 1024, 1024, 0, 6, 3946, 3947, 3988, 3964, 3990, 3968, 0, 1, 17099, -89.900, 0.000, -25.700, 0.000, 0.000, -3.000, 0.0, , , , , , 97, , , 49, 49, 49
37.3089341, -119.5776728, 35.000, 11:57:36.307, 17, 0.00, 0.21, 97, 2.200, 0.800, -25.200, 1036, 100, 97, 25, 23797, -17454, 5270, 5434, 14, 14, 1529175456.308, 40, 0, 1024, 1024, 1024, 1024, 0, 6, 3946, 3947, 3988, 3964, 3990, 3968, 0, 1, 17200, -89.900, 0.000, -25.700, 0.000, 0.000, -3.000, 0.0, , , , , , 97, , , 49, 49, 49
37.3089340, -119.5776728, 35.300, 11:57:36.407, 17, 0.00, 0.22, 97, 2.100, 0.800, -25.200, 1036, 100, 97, 25, 23797, -17454, 5270, 5434, 14, 14, 1529175456.408, 43, 0, 1024, 1024, 1024, 1024, 0, 6, 3946, 3947, 3988, 3964, 3990, 3968, 0, 1, 17300, -89.900, 0.000, -25.700, 0.000, 0.000, -2.900, 0.0, , , , , , 97, , , 49, 49, 49
37.3089339, -119.5776728, 35.600, 11:57:36.507, 17, 0.00, 0.23, 97, 1.900, 0.800, -25.200, 1036, 100, 97, 25, 23797, -17454, 5270, 5434, 14, 14, 1529175456.508, 12, 0, 1024, 1024, 1024, 1024, 0, 6, 3946, 3947, 3988, 3964, 3990, 3968, 0, 1, 17400, -89.900, 0.000, -25.700, 0.000, 0.000, -2.900, 0.0, , , , , , 97, , , 49, 49, 49
37.3089339, -119.5776728, 35.900, 11:57:36.607, 17, 0.00, 0.23, 97, 1.700, 0.900, -25.200, 1036, 100, 99, 25, 23797, -17454, 5270, 5434, 14, 14, 1529175456.608, 15, 0, 1024, 1024, 1024, 1024, 0, 6, 3946, 3947, 3988, 3964, 3990, 3968, 0, 1, 17500, -89.900, 0.000, -25.700, 0.000, 0.000, -3.000, 0.0, , , , , , 97, , , 49, 49, 49
37.3089339, -119.5776728, 35.900, 11:57:36.707, 17, 0.00, 0.23, 97, 1.700, 0.900, -25.200, 1036, 100, 99, 25, 23797, -17454, 5270, 5434, 14, 14, 1529175456.708, 115, 0, 1024, 1024, 1024, 1024, 0, 6, 3946, 3947, 3988, 3964, 3990, 3968, 0, 1, 17600, -89.900, 0.000, -25.700, 0.000, 0.000, -3.000, 0.0, , , , , , 97, , , 49, 49, 49
37.3089338, -119.5776728, 36.500, 11:57:36.808, 17, 0.00, 0.24, 97, 1.300, 1.000, -25.200, 1036, 100, 99, 25, 23797, -17454, 5270, 5434, 14, 14, 1529175456.808, 16, 0, 1024, 1024, 1024, 1024, 0, 6, 3946, 3947, 3988, 3964, 3990, 3968, 0, 1, 17701, -89.900, 0.000, -25.700, 0.000, 0.000, -3.000, 0.0, , , , , , 97, , , 49, 49, 49
37.3089338, -119.5776728, 36.500, 11:57:36.907, 17, 0.00, 0.24, 97, 1.300, 1.000, -25.200, 1036, 100, 99, 25, 23797, -17454, 5270, 5434, 14, 14, 1529175456.907, 115, 0, 1024, 1024, 1024, 1024, 0, 6, 3946, 3947, 3988, 3964, 3990, 3968, 0, 1, 17800, -89.900, 0.000, -25.700, 0.000, 0.000, -3.000, 0.0, , , , , , 97, , , 49, 49, 49
37.3089337, -119.5776728, 36.800, 11:57:37.007, 17, 0.00, 0.25, 97, 1.200, 0.900, -25.200, 1036, 100, 99, 25, 23844, -16921, 5270, 5434, 14, 14, 1529175457.008, 96, 0, 1024, 1024, 1024, 1024, 0, 6, 3958, 3955, 3992, 3974, 3993, 3970, 0, 1, 17900, -89.900, 0.000, -25.700, 0.000, 0.000, -2.900, 0.0, , , , , , 97, , , 49, 49, 49
37.3089337, -119.5776727, 37.100, 11:57:37.107, 17, 0.00, 0.26, 97, 1.200, 0.700, -25.300, 1036, 100, 98, 25, 23844, -16921, 5270, 5434, 14, 14, 1529175457.108, 97, 0, 1024, 1024, 1024, 1024, 0, 6, 3958, 3955, 3992, 3974, 3993, 3970, 0, 1, 18000, -89.900, 0.000, -25.700, 0.000, 0.000, -2.900, 0.0, , , , , , 97, , , 49, 49, 49
37.3089336, -119.5776727, 37.400, 11:57:37.207, 17, 0.00, 0.26, 97, 1.300, 0.600, -25.200, 1036, 100, 98, 25, 23844, -16921, 5270, 5434, 14, 14, 1529175457.207, 89, 0, 1024, 1024, 1024, 1024, 0, 6, 3958, 3955, 3992, 3974, 3993, 3970, 0, 1, 18099, -89.900, 0.000, -25.700, 0.000, 0.000, -2.900, 0.0, , , , , , 97, , , 49, 49, 49
37.3089335, -119.5776727, 37.700, 11:57:37.307, 17, 0.00, 0.27, 97, 1.400, 0.600, -25.200, 1036, 100, 98, 25, 23844, -16921, 5270, 5434, 14, 14, 1529175457.308, 84, 0, 1024, 1024, 1024, 1024, 0, 6, 3958, 3955, 3992, 3974, 3993, 3970, 0, 1, 18200, -89.900, 0.000, -25.700, 0.000, 0.000, -2.900, 0.0, , , , , , 97, , , 49, 49, 49
37.3089335, -119.5776726, 38.000, 11:57:37.407, 17, 0.00, 0.27, 97, 1.200, 0.600, -25.200, 1036, 100, 98, 25, 23844, -16921, 5270, 5434, 14, 14, 1529175457.408, 87, 0, 1024, 1024, 1024, 1024, 0, 6, 3958, 3955, 3992, 3974, 3993, 3970, 0, 1, 18300, -89.900, 0.000, -25.700, 0.000, 0.000, -2.800, 0.0, , , , , , 97, , , 49, 49, 49
37.3089334, -119.5776726, 38.300, 11:57:37.507, 17, 0.00, 0.28, 97, 1.200, 0.500, -25.200, 1036, 100, 98, 25, 23844, -16921, 5270, 5434, 14, 14, 1529175457.508, 76, 0, 1024, 1024, 1024, 1024, 0, 6, 3958, 3955, 3992, 3974, 3993, 3970, 0, 1, 18400, -89.900, 0.000, -25.700, 0.000, 0.000, -2.900, 0.0, , , , , , 97, , , 49, 49, 49
37.3089334, -119.5776725, 38.600, 11:57:37.607, 17, 0.00, 0.28, 97, 1.100, 0.500, -25.100, 1036, 100, 98, 25, 23844, -16921, 5270, 5434, 14, 14, 1529175457.608, 80, 0, 1024, 1024, 1024, 1024, 0, 6, 3958, 3955, 3992, 3974, 3993, 3970, 0, 1, 18500, -89.900, 0.000, -25.700, 0.000, 0.000, -2.900, 0.0, , , , , , 97, , , 49, 49, 49
37.3089334, -119.5776725, 38.600, 11:57:37.707, 17, 0.00, 0.28, 97, 1.100, 0.500, -25.100, 1036, 100, 98, 25, 23844, -16921, 5270, 5434, 14, 14, 1529175457.707, 179, 0, 1024, 1024, 1024, 1024, 0, 6, 3958, 3955, 3992, 3974, 3993, 3970, 0, 1, 18599, -89.900, 0.000, -25.700, 0.000, 0.000, -2.900, 0.0, , , , , , 97, , , 49, 49, 49
37.3089333, -119.5776725, 39.100, 11:57:37.807, 17, 0.00, 0.29, 97, 1.000, 0.700, -25.000, 1036, 100, 98, 25, 23844, -16921, 5270, 5434, 14, 14, 1529175457.808, 61, 0, 1024, 1024, 1024, 1024, 0, 6, 3958, 3955, 3992, 3974, 3993, 3970, 0, 1, 18700, -89.900, 0.000, -25.700, 0.000, 0.000, -2.900, 0.0, , , , , , 97, , , 49, 49, 49
37.3089333, -119.5776725, 39.100, 11:57:37.907, 17, 0.00, 0.29, 97, 1.000, 0.700, -25.000, 1036, 100, 98, 25, 23844, -16921, 5270, 5434, 14, 14, 1529175457.908, 161, 0, 1024, 1024, 1024, 1024, 0, 6, 3958, 3955, 3992, 3974, 3993, 3970, 0, 1, 18800, -89.900, 0.000, -25.700, 0.000, 0.000, -2.900, 0.0, , , , , , 97, , , 49, 49, 49
37.3089333, -119.5776724, 39.700, 11:57:38.007, 17, 0.00, 0.29, 97, 1.000, 0.600, -24.800, 1036, 100, 98, 25, 23795, -16970, 5270, 5434, 14, 14, 1529175458.008, 71, 0, 1024, 1024, 1024, 1024, 0, 6, 3944, 3948, 3989, 3963, 3975, 3969, 0, 1, 18900, -89.900, 0.000, -25.700, 0.000, 0.000, -2.900, 0.0, , , , , , 97, , , 49, 49, 49
37.3089333, -119.5776724, 40.000, 11:57:38.107, 17, 0.00, 0.29, 97, 1.100, 0.700, -24.900, 1036, 100, 93, 25, 23795, -16970, 5270, 5434, 14, 14, 1529175458.107, 61, 0, 1024, 1024, 1024, 1024, 0, 6, 3944, 3948, 3989, 3963, 3975, 3969, 0, 1, 18999, -89.900, 0.000, -25.700, 0.000, 0.000, -2.900, 0.0, , , , , , 97, , , 49, 49, 49
37.3089333, -119.5776724, 40.300, 11:57:38.207, 17, 0.00, 0.29, 97, 1.100, 0.800, -24.900, 1036, 100, 93, 25, 23795, -16970, 5270, 5434, 14, 14, 1529175458.207, 56, 0, 1024, 1024, 1024, 1024, 0, 6, 3944, 3948, 3989, 3963, 3975, 3969, 0, 1, 19099, -89.900, 0.000, -25.700, 0.000, 0.000, -2.900, 0.0, , , , , , 97, , , 49, 49, 49
37.3089334, -119.5776723, 40.900, 11:57:38.307, 17, 0.00, 0.28, 97, 1.000, 1.300, -24.900, 1036, 100, 93, 25, 23795, -16970, 5270, 5434, 14, 14, 1529175458.307, 56, 0, 1024, 1024, 1024, 1024, 0, 6, 3944, 3948, 3989, 3963, 3975, 3969, 0, 1, 19200, -89.900, 0.000, -25.700, 0.000, 0.000, -3.000, 0.0, , , , , , 97, , , 49, 49, 49
37.3089334, -119.5776723, 40.900, 11:57:38.407, 17, 0.00, 0.28, 97, 1.000, 1.300, -24.900, 1036, 100, 93, 25, 23795, -16970, 5270, 5434, 14, 14, 1529175458.407, 156, 0, 1024, 1024, 1024, 1024, 0, 6, 3944, 3948, 3989, 3963, 3975, 3969, 0, 1, 19300, -89.900, 0.000, -25.700, 0.000, 0.000, -3.000, 0.0, , , , , , 97, , , 49, 49, 49
37.3089334, -119.5776723, 41.500, 11:57:38.507, 17, 0.00, 0.27, 97, 1.200, 1.400, -25.100, 1036, 100, 93, 25, 23795, -16970, 5270, 5434, 14, 14, 1529175458.508, 33, 0, 1024, 1024, 1024, 1024, 0, 6, 3944, 3948, 3989, 3963, 3975, 3969, 0, 1, 19400, -89.900, 0.000, -25.700, 0.000, 0.000, -2.900, 0.0, , , , , , 97, , , 49, 49, 49
37.3089334, -119.5776723, 41.500, 11:57:38.607, 17, 0.00, 0.27, 97, 1.200, 1.400, -25.100, 1036, 100, 94, 25, 23795, -16970, 5270, 5434, 14, 14, 1529175458.607, 132, 0, 1024, 1024, 1024, 1024, 0, 6, 3944, 3948, 3989, 3963, 3975, 3969, 0, 1, 19499, -89.900, 0.000, -25.700, 0.000, 0.000, -2.900, 0.0, , , , , , 97, , , 49, 49, 49
37.3089334, -119.5776723, 42.100, 11:57:38.707, 17, 0.00, 0.27, 97, 1.300, 1.300, -25.000, 1036, 100, 94, 25, 23795, -16970, 5270, 5434, 14, 14, 1529175458.707, 28, 0, 1024, 1024, 1024, 1024, 0, 6, 3944, 3948, 3989, 3963, 3975, 3969, 0, 1, 19599, -89.900, 0.000, -25.700, 0.000, 0.000, -2.900, 0.0, , , , , , 97, , , 49, 49, 49
37.3089335, -119.5776723, 42.400, 11:57:38.807, 17, 0.00, 0.27, 97, 1.300, 1.300, -25.000, 1036, 100, 94, 25, 23795, -16970, 5270, 5434, 14, 14, 1529175458.808, 14, 0, 1024, 1024, 1024, 1024, 0, 6, 3944, 3948, 3989, 3963, 3975, 3969, 0, 1, 19700, -89.900, 0.000, -25.700, 0.000, 0.000, -2.900, 0.0, , , , , , 97, , , 49, 49, 49
37.3089335, -119.5776722, 42.700, 11:57:38.907, 17, 0.00, 0.27, 97, 1.200, 1.300, -25.000, 1036, 100, 94, 25, 23795, -16970, 5270, 5434, 14, 14, 1529175458.908, 29, 0, 1024, 1024, 1024, 1024, 0, 6, 3944, 3948, 3989, 3963, 3975, 3969, 0, 1, 19800, -89.900, 0.000, -25.700, 0.000, 0.000, -2.900, 0.0, , , , , , 97, , , 49, 49, 49
37.3089335, -119.5776722, 43.000, 11:57:39.006, 17, 0.00, 0.26, 97, 1.100, 1.200, -25.100, 1036, 100, 94, 25, 23723, -17927, 5270, 5434, 14, 14, 1529175459.007, 4, 0, 1024, 1024, 1024, 1024, 0, 6, 3944, 3948, 3989, 3963, 3975, 3969, 0, 1, 19899, -89.900, 0.000, -25.700, 0.000, 0.000, -2.900, 0.0, , , , , , 97, , , 49, 49, 49
37.3089335, -119.5776722, 43.300, 11:57:39.107, 17, 0.00, 0.26, 97, 1.200, 1.000, -25.100, 1036, 100, 93, 25, 23723, -17927, 5270, 5434, 14, 14, 1529175459.108, 21, 0, 1024, 1024, 1024, 1024, 0, 6, 3944, 3948, 3989, 3963, 3975, 3969, 0, 1, 20000, -89.900, 0.000, -25.700, 0.000, 0.000, -2.900, 0.0, , , , , , 97, , , 49, 49, 49
37.3089335, -119.5776721, 43.600, 11:57:39.207, 17, 0.00, 0.26, 97, 1.100, 1.000, -25.100, 1036, 100, 93, 25, 23723, -17927, 5270, 5434, 14, 14, 1529175459.207, 15, 0, 1024, 1024, 1024, 1024, 0, 6, 3944, 3948, 3989, 3963, 3975, 3969, 0, 1, 20100, -89.900, 0.000, -25.700, 0.000, 0.000, -2.900, 0.0, , , , , , 97, , , 49, 49, 49
37.3089336, -119.5776721, 44.000, 11:57:39.307, 17, 0.00, 0.26, 97, 1.100, 1.300, -25.100, 1036, 100, 93, 25, 23723, -17927, 5270, 5434, 14, 14, 1529175459.308, 16, 0, 1024, 1024, 1024, 1024, 0, 6, 3944, 3948, 3989, 3963, 3975, 3969, 0, 1, 20200, -89.900, 0.000, -25.700, 0.000, 0.000, -2.900, 0.0, , , , , , 97, , , 49, 49, 49
37.3089336, -119.5776721, 44.300, 11:57:39.409, 17, 0.00, 0.25, 97, 1.300, 1.400, -25.100, 1036, 100, 93, 25, 23723, -17927, 5216, 5434, 14, 14, 1529175459.409, 1, 0, 1024, 1024, 1024, 1024, 0, 6, 3944, 3948, 3989, 3963, 3975, 3969, 0, 1, 20302, -89.900, 0.000, -25.700, 0.000, 0.000, -2.900, 0.0, , , , , , 97, , , 49, 49, 49
37.3089336, -119.5776721, 44.300, 11:57:39.507, 17, 0.00, 0.25, 97, 1.300, 1.400, -25.100, 1036, 100, 93, 25, 23723, -17927, 5216, 5434, 14, 14, 1529175459.508, 99, 0, 1024, 1024, 1024, 1024, 0, 6, 3934, 3927, 3978, 3955, 3972, 3952, 0, 1, 20400, -89.900, 0.000, -25.700, 0.000, 0.000, -2.900, 0.0, , , , , , 97, , , 49, 49, 49
37.3089336, -119.5776721, 44.600, 11:57:39.607, 17, 0.00, 0.25, 97, 1.300, 1.500, -25.000, 1036, 100, 98, 25, 23723, -17927, 5216, 5434, 14, 14, 1529175459.608, 88, 0, 1024, 1024, 1024, 1024, 0, 6, 3934, 3927, 3978, 3955, 3972, 3952, 0, 1, 20500, -89.900, 0.000, -25.700, 0.000, 0.000, -2.900, 0.0, , , , , , 97, , , 49, 49, 49
37.3089336, -119.5776721, 44.800, 11:57:39.706, 17, 0.00, 0.25, 97, 1.200, 1.800, -25.000, 1036, 100, 98, 25, 23723, -17927, 5216, 5434, 14, 14, 1529175459.707, 80, 0, 1024, 1024, 1024, 1024, 0, 6, 3934, 3927, 3978, 3955, 3972, 3952, 0, 1, 20599, -89.900, 0.000, -25.700, 0.000, 0.000, -2.800, 0.0, , , , , , 97, , , 49, 49, 49
37.3089337, -119.5776721, 45.100, 11:57:39.807, 17, 0.00, 0.24, 97, 1.100, 2.000, -25.100, 1036, 100, 98, 25, 23723, -17927, 5216, 5434, 14, 14, 1529175459.807, 99, 0, 1024, 1024, 1024, 1024, 0, 6, 3934, 3927, 3978, 3955, 3972, 3952, 0, 1, 20700, -89.900, 0.000, -25.700, 0.000, 0.000, -2.800, 0.0, , , , , , 97, , , 49, 49, 49
