Latitude, Longitude, Altitude (m), Time, Sats, Speed (m/s), Range (m), Battery (%), Roll (deg), Pitch (deg), Yaw (deg), Images, HD Signal (%), RC Signal (%), Battery Temp (C), Battery Voltage (mV), Battery Current (mA), Battery Energy (mAh), Battery Capacity (mAh), Battery Discharges, flyState, timestamp (Unix), LastUpdate (ms), radioChannel, Rc_elevator, Rc_aileron, Rc_throttle, Rc_rudder, Rc_gyro, Dronetype, Battery_Cell1 (mV), Battery_Cell2 (mV), Battery_Cell3 (mV), Battery_Cell4 (mV), Battery_Cell5 (mV), Battery_Cell6 (mV), Video, isFlying, elapsedTime (ms), gimbalPitch (deg), gimbalRoll (deg), gimbalYaw (deg), VelocityX (m/s), VelocityY (m/s), VelocityZ (m/s), GroundSmear (cm), App Version, Aircraft Name, Aircraft Firmware, Aircraft Serial Number, Battery Serial Number, Battery Lifetime (%), App_Tip, App_Warning, CurrentFlightStartingIndex, CurrentFlightLastVisitedWaypoint, PreviousFlightEndingWaypointIndex
37.3088806, -119.5776634, 0.000, 12:37:27.652, 12, 0.00, 0.10, 98, -0.400, 1.000, -29.700, 1733, 100, 100, 29, 25678, -1266, 5306, 5415, 15, 11, 1529177847.653, 34, 0, 1024, 1024, 1024, 1024, 0, 6, 4295, 4306, 4272, 4276, 4286, 4284, 0, 1, 3027, -89.900, 0.000, -29.900, 0.000, 0.000, -0.100, 0.0, MapPilot_2.8.1_04242018, Dendroctonus I, 1.3.1.00, 041DDC1887, 1058163200563, 97, DJI_0731.jpg, Starting Mission from Lat/Long: 37.30887/-119.57767 Camera: Zenmuse X3 - Overlap: 90/90 - Active Connection: No, 81, 81, 81
37.3088806, -119.5776634, 0.000, 12:37:27.726, 12, 0.00, 0.10, 98, -0.400, 1.000, -29.700, 1733, 100, 100, 29, 25678, -1266, 5306, 5415, 15, 11, 1529177847.726, 108, 0, 1024, 1024, 1024, 1024, 0, 6, 4295, 4306, 4272, 4276, 4286, 4284, 0, 1, 3100, -89.900, 0.000, -29.900, 0.000, 0.000, -0.100, 0.0, , , , , , 97, , , 81, 81, 81
37.3088805, -119.5776634, 0.000, 12:37:27.827, 12, 0.00, 0.10, 98, -0.200, 1.000, -29.600, 1733, 100, 100, 29, 25678, -1266, 5306, 5415, 15, 11, 1529177847.827, 90, 0, 1024, 1024, 1024, 1024, 0, 6, 4295, 4306, 4272, 4276, 4286, 4284, 0, 1, 3201, -89.900, 0.000, -29.900, 0.000, 0.000, -0.300, 0.0, , , , , , 97, , , 81, 81, 81
37.3088805, -119.5776635, 0.100, 12:37:27.926, 12, 0.00, 0.10, 98, 0.300, 0.200, -29.400, 1733, 100, 100, 29, 25678, -1266, 5306, 5415, 15, 11, 1529177847.927, 86, 0, 1024, 1024, 1024, 1024, 0, 6, 4295, 4306, 4272, 4276, 4286, 4284, 0, 1, 3301, -89.900, 0.000, -30.000, 0.000, 0.000, -0.400, 0.0, , , , , , 97, , , 81, 81, 81
37.3088805, -119.5776635, 0.100, 12:37:28.028, 12, 0.00, 0.10, 98, 0.400, 0.000, -29.300, 1733, 100, 100, 29, 25678, -1266, 5306, 5415, 15, 11, 1529177848.029, 2, 0, 1024, 1024, 1024, 1024, 0, 6, 4295, 4306, 4272, 4276, 4286, 4284, 0, 1, 3403, -89.900, 0.000, -29.900, 0.000, 0.000, -0.400, 0.0, , , , , , 97, , , 81, 81, 81
37.3088805, -119.5776635, 0.200, 12:37:28.127, 12, 0.00, 0.09, 98, 0.600, -0.100, -29.400, 1733, 100, 100, 29, 25678, -1266, 5306, 5415, 15, 11, 1529177848.127, 2, 0, 1024, 1024, 1024, 1024, 0, 6, 4295, 4306, 4272, 4276, 4286, 4284, 0, 1, 3501, -89.900, 0.000, -30.000, 0.000, 0.000, -0.400, 0.0, , , , , , 97, , , 81, 81, 81
37.3088805, -119.5776635, 0.200, 12:37:28.226, 12, 0.00, 0.09, 98, 0.600, -0.100, -29.400, 1733, 100, 100, 29, 25678, -1266, 5306, 5415, 15, 11, 1529177848.226, 102, 0, 1024, 1024, 1024, 1024, 0, 6, 4295, 4306, 4272, 4276, 4286, 4284, 0, 1, 3600, -89.900, 0.000, -30.000, 0.000, 0.000, -0.400, 0.0, , , , , , 97, , , 81, 81, 81
37.3088805, -119.5776636, 0.200, 12:37:28.326, 12, 0.00, 0.09, 98, 0.700, -0.300, -29.500, 1733, 100, 100, 29, 25609, -14558, 5306, 5415, 15, 11, 1529177848.327, 81, 0, 1024, 1024, 1024, 1024, 0, 6, 4295, 4306, 4272, 4276, 4286, 4284, 0, 1, 3701, -89.900, 0.000, -30.000, 0.000, 0.000, -0.400, 0.0, , , , , , 97, , , 81, 81, 81
37.3088805, -119.5776636, 0.300, 12:37:28.426, 13, 0.00, 0.09, 98, 0.700, -0.300, -29.600, 1733, 100, 100, 29, 25609, -14558, 5306, 5415, 15, 11, 1529177848.427, 83, 0, 1024, 1024, 1024, 1024, 0, 6, 4295, 4306, 4272, 4276, 4286, 4284, 0, 1, 3801, -89.900, 0.000, -29.900, 0.000, 0.000, -0.400, 0.0, , , , , , 97, , , 81, 81, 81
37.3088806, -119.5776635, 0.300, 12:37:28.526, 13, 0.00, 0.10, 98, 0.200, 0.000, -29.700, 1733, 100, 100, 29, 25609, -14558, 5306, 5415, 15, 11, 1529177848.527, 73, 0, 1024, 1024, 1024, 1024, 0, 6, 4295, 4306, 4272, 4276, 4286, 4284, 0, 1, 3901, -89.900, 0.000, -30.000, 0.000, 0.000, -0.400, 0.0, , , , , , 97, , , 81, 81, 81
37.3088806, -119.5776635, 0.400, 12:37:28.626, 13, 0.00, 0.10, 98, 0.100, 0.100, -29.800, 1733, 100, 100, 29, 25609, -14558, 5306, 5415, 15, 11, 1529177848.627, 87, 0, 1024, 1024, 1024, 1024, 0, 6, 4295, 4306, 4272, 4276, 4286, 4284, 0, 1, 4001, -89.900, 0.000, -30.000, 0.000, 0.000, -0.400, 0.0, , , , , , 97, , , 81, 81, 81
37.3088806, -119.5776636, 0.400, 12:37:28.726, 13, 0.00, 0.10, 98, 0.000, 0.200, -29.800, 1733, 100, 100, 29, 25609, -14558, 5306, 5415, 15, 11, 1529177848.726, 81, 0, 1024, 1024, 1024, 1024, 0, 6, 4295, 4306, 4272, 4276, 4286, 4284, 0, 1, 4100, -89.900, 0.000, -30.000, 0.000, 0.000, -0.400, 0.0, , , , , , 97, , , 81, 81, 81
37.3088806, -119.5776636, 0.500, 12:37:28.826, 13, 0.00, 0.10, 98, 0.200, 0.000, -29.700, 1733, 100, 100, 29, 25609, -14558, 5306, 5415, 15, 11, 1529177848.826, 70, 0, 1024, 1024, 1024, 1024, 0, 6, 4129, 4121, 4201, 4228, 4238, 4210, 0, 1, 4200, -89.900, 0.000, -30.000, 0.000, 0.000, -0.500, 0.0, , , , , , 97, , , 81, 81, 81
37.3088806, -119.5776636, 0.500, 12:37:28.926, 13, 0.00, 0.10, 98, 0.100, -0.100, -29.600, 1733, 100, 100, 29, 25609, -14558, 5306, 5415, 15, 11, 1529177848.927, 53, 0, 1024, 1024, 1024, 1024, 0, 6, 4129, 4121, 4201, 4228, 4238, 4210, 0, 1, 4301, -89.900, 0.000, -30.000, 0.000, 0.000, -0.400, 0.0, , , , , , 97, , , 81, 81, 81
37.3088806, -119.5776636, 0.600, 12:37:29.026, 13, 0.00, 0.10, 98, 0.000, 0.000, -29.500, 1733, 100, 100, 29, 25609, -14558, 5306, 5415, 15, 11, 1529177849.027, 52, 0, 1024, 1024, 1024, 1024, 0, 6, 4129, 4121, 4201, 4228, 4238, 4210, 0, 1, 4401, -89.900, 0.000, -29.900, 0.000, 0.000, -0.400, 0.0, , , , , , 97, , , 81, 81, 81
37.3088807, -119.5776636, 0.600, 12:37:29.126, 13, 0.00, 0.10, 98, 0.100, 0.200, -29.300, 1733, 100, 100, 29, 25609, -14558, 5306, 5415, 15, 11, 1529177849.127, 61, 0, 1024, 1024, 1024, 1024, 0, 6, 4129, 4121, 4201, 4228, 4238, 4210, 0, 1, 4501, -89.900, 0.000, -30.000, 0.000, 0.000, -0.400, 0.0, , , , , , 97, , , 81, 81, 81
37.3088807, -119.5776636, 0.700, 12:37:29.226, 13, 0.00, 0.11, 98, 0.000, 0.400, -29.200, 1733, 100, 100, 29, 25609, -14558, 5306, 5415, 15, 11, 1529177849.226, 52, 0, 1024, 1024, 1024, 1024, 0, 6, 4129, 4121, 4201, 4228, 4238, 4210, 0, 1, 4600, -89.900, 0.000, -29.900, 0.000, 0.000, -0.400, 0.0, , , , , , 97, , , 81, 81, 81
37.3088807, -119.5776636, 0.700, 12:37:29.326, 13, 0.00, 0.11, 98, 0.000, 0.300, -29.300, 1733, 100, 100, 29, 25609, -14558, 5306, 5415, 15, 11, 1529177849.327, 55, 0, 1024, 1024, 1024, 1024, 0, 6, 4129, 4121, 4201, 4228, 4238, 4210, 0, 1, 4701, -89.900, 0.000, -30.000, 0.000, 0.000, -0.500, 0.0, , , , , , 97, , , 81, 81, 81
37.3088807, -119.5776636, 0.800, 12:37:29.426, 12, 0.00, 0.10, 98, 0.000, 0.200, -29.300, 1733, 100, 100, 29, 25609, -14558, 5306, 5415, 15, 11, 1529177849.427, 21, 0, 1024, 1024, 1024, 1024, 0, 6, 4129, 4121, 4201, 4228, 4238, 4210, 0, 1, 4801, -89.900, 0.000, -30.000, 0.000, 0.000, -0.400, 0.0, , , , , , 97, , , 81, 81, 81
37.3088807, -119.5776636, 0.800, 12:37:29.526, 12, 0.00, 0.11, 98, 0.100, 0.100, -29.200, 1733, 100, 100, 29, 25609, -14558, 5306, 5415, 15, 11, 1529177849.527, 26, 0, 1024, 1024, 1024, 1024, 0, 6, 4129, 4121, 4201, 4228, 4238, 4210, 0, 1, 4901, -89.900, 0.000, -30.000, 0.000, 0.000, -0.400, 0.0, , , , , , 97, , , 81, 81, 81
37.3088807, -119.5776636, 0.900, 12:37:29.626, 11, 0.00, 0.11, 98, 0.200, 0.000, -29.200, 1733, 100, 100, 29, 25609, -14558, 5306, 5415, 15, 6, 1529177849.627, 30, 0, 1024, 1024, 1024, 1024, 0, 6, 4129, 4121, 4201, 4228, 4238, 4210, 0, 1, 5001, -89.900, 0.000, -30.000, 0.000, 0.000, -0.400, 0.0, , , , , , 97, , , 81, 81, 81
37.3088806, -119.5776636, 0.900, 12:37:29.726, 11, 0.00, 0.10, 98, 0.300, 0.000, -29.400, 1733, 100, 100, 29, 25609, -14558, 5306, 5415, 15, 14, 1529177849.726, 30, 0, 1024, 1024, 1024, 1024, 0, 6, 4129, 4121, 4201, 4228, 4238, 4210, 0, 1, 5100, -89.900, 0.000, -30.000, 0.000, 0.000, -0.400, 0.0, , , , , , 97, , , 81, 81, 81
37.3088806, -119.5776637, 1.000, 12:37:29.826, 11, 0.00, 0.09, 98, 0.500, -0.100, -29.500, 1733, 100, 100, 29, 24652, -15864, 5306, 5415, 15, 14, 1529177849.827, 34, 0, 1024, 1024, 1024, 1024, 0, 6, 4094, 4092, 4105, 4102, 4114, 4147, 0, 1, 5201, -90.000, 0.000, -30.000, 0.000, 0.000, -0.300, 0.0, , , , , , 97, , , 81, 81, 81
37.3088806, -119.5776636, 1.000, 12:37:29.926, 11, 0.00, 0.10, 98, 0.500, -0.100, -29.600, 1733, 100, 100, 29, 24652, -15864, 5306, 5415, 15, 14, 1529177849.927, 9, 0, 1024, 1024, 1024, 1024, 0, 6, 4094, 4092, 4105, 4102, 4114, 4147, 0, 1, 5301, -89.900, 0.000, -30.000, 0.000, 0.000, -0.200, 0.0, , , , , , 97, , , 81, 81, 81
37.3088806, -119.5776636, 1.000, 12:37:30.026, 11, 0.00, 0.10, 98, 0.400, -0.100, -29.700, 1733, 100, 100, 29, 24652, -15864, 5306, 5415, 15, 14, 1529177850.027, 13, 0, 1024, 1024, 1024, 1024, 0, 6, 4094, 4092, 4105, 4102, 4114, 4147, 0, 1, 5400, -89.900, 0.000, -30.000, 0.000, 0.000, -0.300, 0.0, , , , , , 97, , , 81, 81, 81
37.3088807, -119.5776635, 1.100, 12:37:30.126, 11, 0.00, 0.11, 98, 0.100, 0.000, -29.800, 1733, 100, 100, 29, 24652, -15864, 5306, 5415, 15, 14, 1529177850.127, 11, 0, 1024, 1024, 1024, 1024, 0, 6, 4094, 4092, 4105, 4102, 4114, 4147, 0, 1, 5500, -89.900, 0.000, -30.000, 0.000, 0.000, -0.400, 0.0, , , , , , 97, , , 81, 81, 81
37.3088807, -119.5776634, 1.100, 12:37:30.226, 11, 0.00, 0.12, 98, -0.100, -0.100, -29.800, 1733, 100, 100, 29, 24652, -15864, 5306, 5415, 15, 14, 1529177850.226, 15, 0, 1024, 1024, 1024, 1024, 0, 6, 4094, 4092, 4105, 4102, 4114, 4147, 0, 1, 5600, -89.900, 0.000, -30.000, 0.000, 0.000, -0.500, 0.0, , , , , , 97, , , 81, 81, 81
37.3088808, -119.5776635, 1.300, 12:37:30.330, 11, 0.00, 0.12, 98, -0.300, 0.000, -29.900, 1733, 100, 100, 29, 24652, -15864, 5306, 5415, 15, 14, 1529177850.330, 3, 0, 1024, 1024, 1024, 1024, 0, 6, 4094, 4092, 4105, 4102, 4114, 4147, 0, 1, 5704, -89.900, 0.000, -30.000, 0.000, 0.000, -0.900, 0.0, , , , , , 97, , , 81, 81, 81
37.3088808, -119.5776634, 1.300, 12:37:30.426, 11, 0.00, 0.13, 98, -0.300, 0.200, -29.900, 1733, 100, 100, 29, 24652, -15864, 5306, 5415, 15, 14, 1529177850.427, 8, 0, 1024, 1024, 1024, 1024, 0, 6, 4094, 4092, 4105, 4102, 4114, 4147, 0, 1, 5801, -89.900, 0.000, -30.000, 0.000, 0.000, -1.000, 0.0, , , , , , 97, , , 81, 81, 81
37.3088809, -119.5776634, 1.500, 12:37:30.544, 10, 0.00, 0.14, 98, -0.300, 0.200, -29.900, 1733, 100, 100, 29, 24652, -15864, 5306, 5415, 15, 14, 1529177850.544, 5, 0, 1024, 1024, 1024, 1024, 0, 6, 4094, 4092, 4105, 4102, 4114, 4147, 0, 1, 5918, -89.900, 0.000, -29.900, 0.000, 0.000, -1.200, 0.0, , , , , , 97, , , 81, 81, 81
37.3088809, -119.5776634, 1.600, 12:37:30.626, 10, 0.00, 0.14, 98, -0.300, 0.200, -29.800, 1733, 100, 100, 29, 24652, -15864, 5306, 5415, 15, 14, 1529177850.627, 6, 0, 1024, 1024, 1024, 1024, 0, 6, 4094, 4092, 4105, 4102, 4114, 4147, 0, 1, 6000, -89.900, 0.000, -30.000, 0.000, 0.000, -1.500, 0.0, , , , , , 97, , , 81, 81, 81
37.3088809, -119.5776634, 1.600, 12:37:30.726, 10, 0.00, 0.14, 98, -0.300, 0.200, -29.800, 1733, 100, 100, 29, 24652, -15864, 5306, 5415, 15, 14, 1529177850.726, 106, 0, 1024, 1024, 1024, 1024, 0, 6, 4094, 4092, 4105, 4102, 4114, 4147, 0, 1, 6100, -89.900, 0.000, -30.000, 0.000, 0.000, -1.500, 0.0, , , , , , 97, , , 81, 81, 81
37.3088810, -119.5776634, 1.800, 12:37:30.826, 11, 0.00, 0.14, 98, -0.100, 0.200, -29.700, 1733, 100, 100, 29, 24717, -15947, 5306, 5415, 15, 14, 1529177850.826, 92, 0, 1024, 1024, 1024, 1024, 0, 6, 4079, 4060, 4113, 4091, 4088, 4114, 0, 1, 6200, -89.900, 0.000, -30.000, 0.000, 0.000, -1.700, 0.0, , , , , , 97, , , 81, 81, 81
37.3088810, -119.5776633, 1.900, 12:37:30.926, 11, 0.00, 0.15, 98, 0.000, 0.100, -29.600, 1733, 100, 100, 29, 24717, -15947, 5306, 5415, 15, 14, 1529177850.927, 22, 0, 1024, 1024, 1024, 1024, 0, 6, 4079, 4060, 4113, 4091, 4088, 4114, 0, 1, 6300, -89.900, 0.000, -30.000, 0.000, 0.000, -1.900, 0.0, , , , , , 97, , , 81, 81, 81
37.3088811, -119.5776633, 2.100, 12:37:31.026, 11, 0.00, 0.16, 98, -0.100, 0.200, -29.600, 1733, 100, 100, 29, 24717, -15947, 5306, 5415, 15, 14, 1529177851.026, 59, 0, 1024, 1024, 1024, 1024, 0, 6, 4079, 4060, 4113, 4091, 4088, 4114, 0, 1, 6400, -89.900, 0.000, -30.000, 0.000, 0.000, -2.100, 0.0, , , , , , 97, , , 81, 81, 81
37.3088812, -119.5776632, 2.400, 12:37:31.129, 11, 0.00, 0.17, 98, 0.000, 0.300, -29.400, 1733, 100, 100, 29, 24717, -15947, 5306, 5415, 15, 14, 1529177851.129, 62, 0, 1024, 1024, 1024, 1024, 0, 6, 4079, 4060, 4113, 4091, 4088, 4114, 0, 1, 6503, -89.900, 0.000, -30.000, 0.000, 0.000, -2.300, 0.0, , , , , , 97, , , 81, 81, 81
37.3088813, -119.5776632, 2.600, 12:37:31.229, 11, 0.00, 0.18, 98, 0.000, 0.400, -29.300, 1733, 100, 100, 29, 24717, -15947, 5306, 5415, 15, 14, 1529177851.229, 59, 0, 1024, 1024, 1024, 1024, 0, 6, 4079, 4060, 4113, 4091, 4088, 4114, 0, 1, 6603, -89.900, 0.000, -30.000, 0.000, 0.000, -2.600, 0.0, , , , , , 97, , , 81, 81, 81
37.3088814, -119.5776631, 2.900, 12:37:31.326, 11, 0.00, 0.20, 98, -0.100, 0.400, -29.300, 1733, 100, 100, 29, 24717, -15947, 5306, 5415, 15, 14, 1529177851.326, 45, 0, 1024, 1024, 1024, 1024, 0, 6, 4079, 4060, 4113, 4091, 4088, 4114, 0, 1, 6700, -89.900, 0.000, -29.900, 0.000, 0.000, -2.900, 0.0, , , , , , 97, , , 81, 81, 81
37.3088815, -119.5776631, 3.200, 12:37:31.429, 10, 0.00, 0.21, 98, -0.300, 0.600, -29.300, 1733, 100, 100, 29, 24717, -15947, 5306, 5415, 15, 14, 1529177851.429, 31, 0, 1024, 1024, 1024, 1024, 0, 6, 4079, 4060, 4113, 4091, 4088, 4114, 0, 1, 6803, -89.900, 0.000, -29.900, 0.000, 0.000, -3.000, 0.0, , , , , , 97, , , 81, 81, 81
37.3088816, -119.5776630, 3.500, 12:37:31.526, 10, 0.00, 0.23, 98, -0.400, 0.800, -29.300, 1733, 100, 100, 29, 24717, -15947, 5306, 5415, 15, 14, 1529177851.526, 43, 0, 1024, 1024, 1024, 1024, 0, 6, 4079, 4060, 4113, 4091, 4088, 4114, 0, 1, 6900, -89.900, 0.000, -30.000, 0.000, 0.000, -3.100, 0.0, , , , , , 97, , , 81, 81, 81
37.3088817, -119.5776629, 3.900, 12:37:31.626, 12, 0.00, 0.24, 98, -0.600, 1.000, -29.300, 1733, 100, 100, 29, 24717, -15947, 5306, 5415, 15, 14, 1529177851.626, 16, 0, 1024, 1024, 1024, 1024, 0, 6, 4079, 4060, 4113, 4091, 4088, 4114, 0, 1, 7000, -89.900, 0.000, -29.900, 0.000, 0.000, -3.200, 0.0, , , , , , 97, , , 81, 81, 81
37.3088819, -119.5776629, 4.200, 12:37:31.726, 12, 0.00, 0.25, 98, -0.700, 1.000, -29.400, 1733, 100, 100, 29, 24717, -15947, 5306, 5415, 15, 14, 1529177851.726, 32, 0, 1024, 1024, 1024, 1024, 0, 6, 4079, 4060, 4113, 4091, 4088, 4114, 0, 1, 7100, -89.900, 0.000, -29.900, 0.000, 0.000, -3.200, 0.0, , , , , , 97, , , 81, 81, 81
37.3088820, -119.5776629, 4.500, 12:37:31.826, 11, 0.00, 0.26, 98, -0.600, 1.000, -29.400, 1733, 100, 100, 29, 24148, -22122, 5306, 5415, 15, 14, 1529177851.826, 21, 0, 1024, 1024, 1024, 1024, 0, 6, 4001, 3992, 4017, 4011, 4022, 4022, 0, 1, 7200, -89.900, 0.000, -30.000, 0.000, 0.000, -3.200, 0.0, , , , , , 97, , , 81, 81, 81
37.3088821, -119.5776628, 4.900, 12:37:31.926, 11, 0.00, 0.28, 98, -0.400, 1.000, -29.400, 1733, 100, 100, 29, 24148, -22122, 5306, 5415, 15, 14, 1529177851.926, 24, 0, 1024, 1024, 1024, 1024, 0, 6, 4001, 3992, 4017, 4011, 4022, 4022, 0, 1, 7300, -89.900, 0.000, -30.000, 0.000, 0.000, -3.200, 0.0, , , , , , 97, , , 81, 81, 81
37.3088822, -119.5776626, 5.200, 12:37:32.026, 11, 0.00, 0.29, 98, -0.700, 1.100, -29.400, 1733, 100, 100, 29, 24148, -22122, 5306, 5415, 15, 14, 1529177852.026, 25, 0, 1024, 1024, 1024, 1024, 0, 6, 4001, 3992, 4017, 4011, 4022, 4022, 0, 1, 7400, -89.900, 0.000, -29.900, 0.000, 0.000, -3.200, 0.0, , , , , , 97, , , 81, 81, 81
37.3088821, -119.5776623, 5.600, 12:37:32.126, 11, 0.00, 0.30, 98, -1.000, 0.800, -29.400, 1733, 100, 100, 29, 24148, -22122, 5306, 5415, 15, 14, 1529177852.126, 26, 0, 1024, 1024, 1024, 1024, 0, 6, 4001, 3992, 4017, 4011, 4022, 4022, 0, 1, 7500, -90.000, 0.000, -29.900, 0.000, 0.000, -3.100, 0.0, , , , , , 97, , , 81, 81, 81
37.3088821, -119.5776623, 5.600, 12:37:32.226, 11, 0.00, 0.30, 98, -1.000, 0.800, -29.400, 1733, 100, 100, 29, 24148, -22122, 5306, 5415, 15, 14, 1529177852.226, 126, 0, 1024, 1024, 1024, 1024, 0, 6, 4001, 3992, 4017, 4011, 4022, 4022, 0, 1, 7600, -90.000, 0.000, -29.900, 0.000, 0.000, -3.100, 0.0, , , , , , 97, , , 81, 81, 81
37.3088820, -119.5776621, 5.900, 12:37:32.326, 11, 0.00, 0.31, 98, -1.300, 0.300, -29.400, 1733, 100, 100, 29, 24148, -22122, 5306, 5415, 15, 14, 1529177852.326, 93, 0, 1024, 1024, 1024, 1024, 0, 6, 4001, 3992, 4017, 4011, 4022, 4022, 0, 1, 7700, -90.000, 0.000, -30.000, 0.000, 0.000, -3.200, 0.0, , , , , , 97, , , 81, 81, 81
37.3088819, -119.5776620, 6.900, 12:37:32.428, 12, 0.00, 0.30, 98, -1.200, -0.300, -29.300, 1733, 100, 100, 29, 24148, -22122, 5306, 5415, 15, 14, 1529177852.428, 2, 0, 1024, 1024, 1024, 1024, 0, 6, 4001, 3992, 4017, 4011, 4022, 4022, 0, 1, 7802, -89.900, 0.000, -30.000, 0.000, 0.000, -3.100, 0.0, , , , , , 97, , , 81, 81, 81
37.3088819, -119.5776620, 6.900, 12:37:32.526, 12, 0.00, 0.30, 98, -1.200, -0.300, -29.300, 1733, 100, 100, 29, 24148, -22122, 5306, 5415, 15, 14, 1529177852.526, 100, 0, 1024, 1024, 1024, 1024, 0, 6, 4001, 3992, 4017, 4011, 4022, 4022, 0, 1, 7900, -89.900, 0.000, -30.000, 0.000, 0.000, -3.100, 0.0, , , , , , 97, , , 81, 81, 81
37.3088818, -119.5776620, 7.200, 12:37:32.625, 11, 0.00, 0.29, 98, -0.700, -0.100, -29.300, 1733, 100, 100, 29, 24148, -22122, 5306, 5415, 15, 14, 1529177852.626, 82, 0, 1024, 1024, 1024, 1024, 0, 6, 4001, 3992, 4017, 4011, 4022, 4022, 0, 1, 7999, -89.900, 0.000, -29.900, 0.000, 0.000, -3.100, 0.0, , , , , , 97, , , 81, 81, 81
37.3088817, -119.5776621, 7.500, 12:37:32.726, 11, 0.00, 0.27, 98, -0.300, -0.100, -29.400, 1733, 100, 100, 29, 24148, -22122, 5306, 5415, 15, 14, 1529177852.726, 99, 0, 1024, 1024, 1024, 1024, 0, 6, 4001, 3992, 4017, 4011, 4022, 4022, 0, 1, 8100, -89.900, 0.000, -30.000, 0.000, 0.000, -3.100, 0.0, , , , , , 97, , , 81, 81, 81
37.3088815, -119.5776622, 7.800, 12:37:32.826, 11, 0.14, 0.25, 98, 0.200, -0.100, -29.500, 1733, 100, 100, 29, 24179, -20678, 5306, 5415, 15, 14, 1529177852.826, 94, 0, 1024, 1024, 1024, 1024, 0, 6, 4031, 4023, 4042, 4038, 4050, 4043, 0, 1, 8200, -89.900, 0.000, -29.900, -0.100, -0.100, -3.100, 0.0, , , , , , 97, , , 81, 81, 81
37.3088814, -119.5776624, 8.200, 12:37:32.926, 11, 0.10, 0.23, 98, 0.800, -0.200, -29.500, 1733, 100, 100, 29, 24179, -20678, 5306, 5415, 15, 14, 1529177852.926, 87, 0, 1024, 1024, 1024, 1024, 0, 6, 4031, 4023, 4042, 4038, 4050, 4043, 0, 1, 8300, -89.900, 0.000, -30.000, 0.000, -0.100, -3.100, 0.0, , , , , , 97, , , 81, 81, 81
37.3088813, -119.5776626, 8.500, 12:37:33.026, 11, 0.10, 0.21, 98, 1.200, -0.100, -29.500, 1733, 100, 100, 29, 24179, -20678, 5306, 5415, 15, 14, 1529177853.026, 82, 0, 1024, 1024, 1024, 1024, 0, 6, 4031, 4023, 4042, 4038, 4050, 4043, 0, 1, 8400, -89.900, 0.000, -30.000, 0.000, -0.100, -3.100, 0.0, , , , , , 97, , , 81, 81, 81
37.3088812, -119.5776628, 8.800, 12:37:33.126, 11, 0.10, 0.19, 98, 1.700, 0.200, -29.400, 1733, 100, 100, 29, 24179, -20678, 5306, 5415, 15, 14, 1529177853.126, 60, 0, 1024, 1024, 1024, 1024, 0, 6, 4031, 4023, 4042, 4038, 4050, 4043, 0, 1, 8500, -89.900, 0.000, -30.000, 0.000, -0.100, -3.100, 0.0, , , , , , 97, , , 81, 81, 81
37.3088811, -119.5776629, 9.100, 12:37:33.226, 12, 0.00, 0.17, 98, 1.800, 0.200, -29.300, 1733, 100, 100, 29, 24179, -20678, 5306, 5415, 15, 14, 1529177853.226, 60, 0, 1024, 1024, 1024, 1024, 0, 6, 4031, 4023, 4042, 4038, 4050, 4043, 0, 1, 8600, -89.900, 0.000, -29.900, 0.000, 0.000, -3.100, 0.0, , , , , , 97, , , 81, 81, 81
37.3088810, -119.5776632, 9.400, 12:37:33.326, 12, 0.00, 0.15, 98, 1.400, 0.200, -29.300, 1733, 100, 100, 29, 24179, -20678, 5306, 5415, 15, 14, 1529177853.326, 74, 0, 1024, 1024, 1024, 1024, 0, 6, 4031, 4023, 4042, 4038, 4050, 4043, 0, 1, 8700, -89.900, 0.000, -30.000, 0.000, 0.000, -3.100, 0.0, , , , , , 97, , , 81, 81, 81
37.3088809, -119.5776634, 9.800, 12:37:33.426, 12, 0.00, 0.14, 98, 1.100, 0.500, -29.400, 1733, 100, 100, 29, 24179, -20678, 5306, 5415, 15, 14, 1529177853.426, 69, 0, 1024, 1024, 1024, 1024, 0, 6, 4031, 4023, 4042, 4038, 4050, 4043, 0, 1, 8800, -89.900, 0.000, -29.900, 0.000, 0.000, -3.100, 0.0, , , , , , 97, , , 81, 81, 81
37.3088808, -119.5776635, 10.100, 12:37:33.526, 12, 0.00, 0.12, 98, 1.000, 0.700, -29.500, 1733, 100, 100, 29, 24179, -20678, 5306, 5415, 15, 14, 1529177853.526, 49, 0, 1024, 1024, 1024, 1024, 0, 6, 4031, 4023, 4042, 4038, 4050, 4043, 0, 1, 8900, -89.900, 0.000, -29.900, 0.000, 0.000, -3.100, 0.0, , , , , , 97, , , 81, 81, 81
37.3088806, -119.5776636, 10.400, 12:37:33.626, 14, 0.00, 0.10, 98, 0.900, 0.400, -29.500, 1733, 100, 100, 29, 24179, -20678, 5306, 5415, 15, 14, 1529177853.626, 36, 0, 1024, 1024, 1024, 1024, 0, 6, 4031, 4023, 4042, 4038, 4050, 4043, 0, 1, 9000, -89.900, 0.000, -30.000, 0.000, 0.000, -3.100, 0.0, , , , , , 97, , , 81, 81, 81
37.3088805, -119.5776637, 10.700, 12:37:33.726, 14, 0.00, 0.09, 98, 0.700, 0.100, -29.500, 1733, 100, 100, 29, 24179, -20678, 5306, 5415, 15, 14, 1529177853.726, 39, 0, 1024, 1024, 1024, 1024, 0, 6, 4031, 4023, 4042, 4038, 4050, 4043, 0, 1, 9100, -89.900, 0.000, -29.900, 0.000, 0.000, -3.000, 0.0, , , , , , 97, , , 81, 81, 81
37.3088804, -119.5776637, 11.000, 12:37:33.826, 14, 0.00, 0.07, 98, 0.700, -0.100, -29.500, 1733, 100, 100, 29, 24241, -19070, 5306, 5415, 15, 14, 1529177853.826, 40, 0, 1024, 1024, 1024, 1024, 0, 6, 4031, 4023, 4042, 4038, 4050, 4043, 0, 1, 9200, -89.900, 0.000, -29.900, 0.000, 0.000, -3.000, 0.0, , , , , , 97, , , 81, 81, 81
37.3088803, -119.5776639, 11.300, 12:37:33.926, 14, 0.00, 0.06, 98, 0.700, -0.400, -29.500, 1733, 100, 100, 29, 24241, -19070, 5306, 5415, 15, 14, 1529177853.926, 41, 0, 1024, 1024, 1024, 1024, 0, 6, 4031, 4023, 4042, 4038, 4050, 4043, 0, 1, 9300, -89.900, 0.000, -30.000, 0.000, 0.000, -3.000, 0.0, , , , , , 97, , , 81, 81, 81
37.3088802, -119.5776641, 11.600, 12:37:34.026, 14, 0.00, 0.04, 98, 1.000, -0.500, -29.600, 1733, 100, 100, 29, 24241, -19070, 5306, 5415, 15, 14, 1529177854.026, 32, 0, 1024, 1024, 1024, 1024, 0, 6, 4031, 4023, 4042, 4038, 4050, 4043, 0, 1, 9400, -89.900, 0.000, -30.000, 0.000, 0.000, -3.000, 0.0, , , , , , 97, , , 81, 81, 81
37.3088801, -119.5776642, 11.900, 12:37:34.129, 14, 0.00, 0.03, 98, 1.400, -0.400, -29.600, 1733, 100, 100, 29, 24241, -19070, 5306, 5415, 15, 14, 1529177854.130, 35, 0, 1024, 1024, 1024, 1024, 0, 6, 4031, 4023, 4042, 4038, 4050, 4043, 0, 1, 9504, -89.900, 0.000, -30.000, 0.000, 0.000, -3.100, 0.0, , , , , , 97, , , 81, 81, 81
37.3088800, -119.5776643, 12.300, 12:37:34.226, 16, 0.00, 0.02, 98, 1.400, -0.400, -29.700, 1733, 100, 100, 29, 24241, -19070, 5306, 5415, 15, 14, 1529177854.226, 18, 0, 1024, 1024, 1024, 1024, 0, 6, 4031, 4023, 4042, 4038, 4050, 4043, 0, 1, 9600, -89.900, 0.000, -30.000, 0.000, 0.000, -3.100, 0.0, , , , , , 97, , , 81, 81, 81
37.3088799, -119.5776643, 12.600, 12:37:34.326, 16, 0.00, 0.01, 98, 1.300, -0.500, -29.700, 1733, 100, 100, 29, 24241, -19070, 5306, 5415, 15, 14, 1529177854.326, 12, 0, 1024, 1024, 1024, 1024, 0, 6, 4033, 4030, 4044, 4043, 4056, 4045, 0, 1, 9700, -89.900, 0.000, -29.900, 0.000, 0.000, -3.000, 0.0, , , , , , 97, , , 81, 81, 81
37.3088798, -119.5776643, 12.900, 12:37:34.430, 15, 0.00, 0.01, 98, 1.300, -0.600, -29.700, 1733, 100, 100, 29, 24241, -19070, 5306, 5415, 15, 14, 1529177854.430, 11, 0, 1024, 1024, 1024, 1024, 0, 6, 4033, 4030, 4044, 4043, 4056, 4045, 0, 1, 9804, -89.900, 0.000, -29.900, 0.000, 0.000, -2.900, 0.0, , , , , , 97, , , 81, 81, 81
37.3088798, -119.5776643, 13.200, 12:37:34.529, 15, 0.00, 0.02, 98, 1.100, -0.500, -29.700, 1733, 100, 100, 29, 24241, -19070, 5306, 5415, 15, 14, 1529177854.529, 11, 0, 1024, 1024, 1024, 1024, 0, 6, 4033, 4030, 4044, 4043, 4056, 4045, 0, 1, 9903, -89.900, 0.000, -29.900, 0.000, 0.000, -2.900, 0.0, , , , , , 97, , , 81, 81, 81
37.3088798, -119.5776644, 13.500, 12:37:34.640, 13, 0.00, 0.02, 98, 0.800, -0.500, -29.700, 1733, 100, 100, 29, 24241, -19070, 5306, 5415, 15, 14, 1529177854.641, 9, 0, 1024, 1024, 1024, 1024, 0, 6, 4033, 4030, 4044, 4043, 4056, 4045, 0, 1, 10015, -89.900, 0.000, -30.000, 0.000, 0.000, -3.000, 0.0, , , , , , 97, , , 81, 81, 81
37.3088798, -119.5776644, 13.500, 12:37:34.725, 13, 0.00, 0.02, 98, 0.800, -0.500, -29.700, 1733, 100, 100, 29, 24241, -19070, 5306, 5415, 15, 14, 1529177854.726, 94, 0, 1024, 1024, 1024, 1024, 0, 6, 4033, 4030, 4044, 4043, 4056, 4045, 0, 1, 10100, -89.900, 0.000, -30.000, 0.000, 0.000, -3.000, 0.0, , , , , , 97, , , 81, 81, 81
37.3088798, -119.5776645, 14.100, 12:37:34.826, 13, 0.00, 0.03, 98, 0.700, 0.000, -29.500, 1733, 100, 100, 29, 24241, -19070, 5306, 5415, 15, 14, 1529177854.826, 91, 0, 1024, 1024, 1024, 1024, 0, 6, 4033, 4030, 4044, 4043, 4056, 4045, 0, 1, 10200, -89.900, 0.000, -30.000, 0.000, 0.000, -2.900, 0.0, , , , , , 97, , , 81, 81, 81
37.3088798, -119.5776645, 14.100, 12:37:34.926, 13, 0.00, 0.03, 98, 0.700, 0.000, -29.500, 1733, 100, 100, 29, 24241, -19070, 5306, 5415, 15, 14, 1529177854.926, 191, 0, 1024, 1024, 1024, 1024, 0, 6, 4033, 4030, 4044, 4043, 4056, 4045, 0, 1, 10300, -89.900, 0.000, -30.000, 0.000, 0.000, -2.900, 0.0, , , , , , 97, , , 81, 81, 81
37.3088798, -119.5776645, 14.100, 12:37:35.025, 13, 0.00, 0.03, 98, 0.700, 0.000, -29.500, 1733, 100, 98, 29, 24241, -19070, 5306, 5415, 15, 14, 1529177855.026, 291, 0, 1024, 1024, 1024, 1024, 0, 6, 4033, 4030, 4044, 4043, 4056, 4045, 0, 1, 10400, -89.900, 0.000, -30.000, 0.000, 0.000, -2.900, 0.0, , , , , , 97, , , 81, 81, 81
37.3088798, -119.5776645, 15.000, 12:37:35.126, 13, 0.00, 0.03, 98, 0.700, 0.200, -29.300, 1733, 100, 98, 29, 24241, -19070, 5306, 5415, 15, 14, 1529177855.126, 77, 0, 1024, 1024, 1024, 1024, 0, 6, 4033, 4030, 4044, 4043, 4056, 4045, 0, 1, 10500, -89.900, 0.000, -29.900, 0.000, 0.000, -2.900, 0.0, , , , , , 97, , , 81, 81, 81
37.3088798, -119.5776645, 15.000, 12:37:35.225, 13, 0.00, 0.03, 98, 0.700, 0.200, -29.300, 1733, 100, 98, 29, 24241, -19070, 5306, 5415, 15, 14, 1529177855.226, 177, 0, 1024, 1024, 1024, 1024, 0, 6, 4033, 4030, 4044, 4043, 4056, 4045, 0, 1, 10600, -89.900, 0.000, -30.000, 0.000, 0.000, -2.900, 0.0, , , , , , 97, , , 81, 81, 81
37.3088799, -119.5776645, 15.600, 12:37:35.325, 13, 0.00, 0.02, 98, 0.400, 0.400, -29.300, 1733, 100, 98, 29, 24225, -18589, 5252, 5415, 15, 14, 1529177855.326, 84, 0, 1024, 1024, 1024, 1024, 0, 6, 4033, 4022, 4038, 4034, 4055, 4049, 0, 1, 10700, -89.900, 0.000, -29.900, 0.000, 0.000, -2.900, 0.0, , , , , , 97, , , 81, 81, 81
37.3088799, -119.5776644, 15.900, 12:37:35.425, 12, 0.00, 0.02, 98, 0.600, 0.500, -29.300, 1733, 100, 96, 29, 24225, -18589, 5252, 5415, 15, 14, 1529177855.426, 66, 0, 1024, 1024, 1024, 1024, 0, 6, 4033, 4022, 4038, 4034, 4055, 4049, 0, 1, 10800, -89.900, 0.000, -29.900, 0.000, 0.000, -2.900, 0.0, , , , , , 97, , , 81, 81, 81
37.3088799, -119.5776644, 16.200, 12:37:35.525, 12, 0.00, 0.02, 98, 0.800, 0.500, -29.200, 1733, 100, 96, 29, 24225, -18589, 5252, 5415, 15, 14, 1529177855.526, 78, 0, 1024, 1024, 1024, 1024, 0, 6, 4033, 4022, 4038, 4034, 4055, 4049, 0, 1, 10900, -89.900, 0.000, -30.000, 0.000, 0.000, -2.900, 0.0, , , , , , 97, , , 81, 81, 81
37.3088799, -119.5776643, 16.500, 12:37:35.625, 15, 0.00, 0.01, 98, 0.700, 0.300, -29.200, 1733, 100, 96, 29, 24225, -18589, 5252, 5415, 15, 14, 1529177855.626, 71, 0, 1024, 1024, 1024, 1024, 0, 6, 4033, 4022, 4038, 4034, 4055, 4049, 0, 1, 11000, -90.000, 0.000, -30.000, 0.000, 0.000, -2.900, 0.0, , , , , , 97, , , 81, 81, 81
37.3088800, -119.5776643, 16.800, 12:37:35.725, 15, 0.00, 0.02, 98, 0.400, 0.200, -29.100, 1733, 100, 96, 29, 24225, -18589, 5252, 5415, 15, 14, 1529177855.726, 71, 0, 1024, 1024, 1024, 1024, 0, 6, 4033, 4022, 4038, 4034, 4055, 4049, 0, 1, 11100, -89.900, 0.000, -29.900, 0.000, 0.000, -2.900, 0.0, , , , , , 97, , , 81, 81, 81
37.3088800, -119.5776643, 17.100, 12:37:35.826, 15, 0.00, 0.02, 97, 0.300, 0.200, -29.100, 1733, 100, 96, 29, 24225, -18589, 5252, 5415, 15, 14, 1529177855.826, 68, 0, 1024, 1024, 1024, 1024, 0, 6, 4033, 4022, 4038, 4034, 4055, 4049, 0, 1, 11200, -89.900, 0.000, -29.900, 0.000, 0.000, -2.900, 0.0, , , , , , 97, , , 81, 81, 81
37.3088801, -119.5776643, 17.400, 12:37:35.925, 15, 0.00, 0.02, 97, 0.500, 0.100, -29.200, 1733, 100, 96, 29, 24225, -18589, 5252, 5415, 15, 14, 1529177855.926, 70, 0, 1024, 1024, 1024, 1024, 0, 6, 4033, 4022, 4038, 4034, 4055, 4049, 0, 1, 11300, -89.900, 0.000, -30.000, 0.000, 0.000, -2.900, 0.0, , , , , , 97, , , 81, 81, 81
37.3088801, -119.5776642, 17.700, 12:37:36.025, 16, 0.00, 0.03, 97, 0.400, 0.000, -29.400, 1733, 100, 96, 29, 24225, -18589, 5252, 5415, 15, 14, 1529177856.026, 64, 0, 1024, 1024, 1024, 1024, 0, 6, 4033, 4022, 4038, 4034, 4055, 4049, 0, 1, 11400, -89.900, 0.000, -30.000, 0.000, 0.000, -2.900, 0.0, , , , , , 97, , , 81, 81, 81
37.3088802, -119.5776641, 18.000, 12:37:36.125, 16, 0.00, 0.03, 97, 0.200, 0.200, -29.500, 1733, 100, 96, 29, 24225, -18589, 5252, 5415, 15, 14, 1529177856.126, 54, 0, 1024, 1024, 1024, 1024, 0, 6, 4033, 4022, 4038, 4034, 4055, 4049, 0, 1, 11500, -89.900, 0.000, -30.000, 0.000, 0.000, -2.900, 0.0, , , , , , 97, , , 81, 81, 81
37.3088802, -119.5776641, 18.300, 12:37:36.225, 16, 0.00, 0.04, 97, 0.200, 0.400, -29.700, 1733, 100, 96, 29, 24225, -18589, 5252, 5415, 15, 14, 1529177856.226, 33, 0, 1024, 1024, 1024, 1024, 0, 6, 4033, 4022, 4038, 4034, 4055, 4049, 0, 1, 11600, -89.900, 0.000, -30.000, 0.000, 0.000, -3.000, 0.0, , , , , , 97, , , 81, 81, 81
37.3088803, -119.5776639, 18.600, 12:37:36.325, 16, 0.00, 0.06, 97, 0.000, 0.400, -29.700, 1733, 100, 96, 29, 24239, -18342, 5252, 5415, 15, 14, 1529177856.326, 35, 0, 1024, 1024, 1024, 1024, 0, 6, 4035, 4024, 4041, 4038, 4052, 4046, 0, 1, 11700, -89.900, 0.000, -30.000, 0.000, 0.000, -3.000, 0.0, , , , , , 97, , , 81, 81, 81
37.3088804, -119.5776638, 18.900, 12:37:36.426, 15, 0.00, 0.07, 97, -0.400, 0.400, -29.700, 1733, 100, 97, 29, 24239, -18342, 5252, 5415, 15, 14, 1529177856.426, 49, 0, 1024, 1024, 1024, 1024, 0, 6, 4035, 4024, 4041, 4038, 4052, 4046, 0, 1, 11800, -89.900, 0.000, -30.000, 0.000, 0.000, -2.900, 0.0, , , , , , 97, , , 81, 81, 81
37.3088805, -119.5776637, 19.200, 12:37:36.526, 15, 0.00, 0.08, 97, -0.600, 0.400, -29.500, 1733, 100, 97, 29, 24239, -18342, 5252, 5415, 15, 14, 1529177856.526, 30, 0, 1024, 1024, 1024, 1024, 0, 6, 4035, 4024, 4041, 4038, 4052, 4046, 0, 1, 11900, -89.900, 0.000, -30.000, 0.000, 0.000, -2.900, 0.0, , , , , , 97, , , 81, 81, 81
37.3088805, -119.5776637, 19.500, 12:37:36.626, 15, 0.00, 0.09, 97, -0.500, 0.400, -29.400, 1733, 100, 97, 29, 24239, -18342, 5252, 5415, 15, 14, 1529177856.626, 31, 0, 1024, 1024, 1024, 1024, 0, 6, 4035, 4024, 4041, 4038, 4052, 4046, 0, 1, 12000, -89.900, 0.000, -29.900, 0.000, 0.000, -2.900, 0.0, , , , , , 97, , , 81, 81, 81
37.3088806, -119.5776636, 19.900, 12:37:36.726, 15, 0.00, 0.10, 97, -0.300, 0.100, -29.300, 1733, 100, 97, 29, 24239, -18342, 5252, 5415, 15, 14, 1529177856.726, 36, 0, 1024, 1024, 1024, 1024, 0, 6, 4035, 4024, 4041, 4038, 4052, 4046, 0, 1, 12100, -89.900, 0.000, -29.900, 0.000, 0.000, -2.900, 0.0, , , , , , 97, , , 81, 81, 81
37.3088807, -119.5776635, 20.200, 12:37:36.841, 16, 0.00, 0.11, 97, -0.600, -0.200, -29.200, 1733, 100, 97, 29, 24239, -18342, 5252, 5415, 15, 14, 1529177856.841, 4, 0, 1024, 1024, 1024, 1024, 0, 6, 4035, 4024, 4041, 4038, 4052, 4046, 0, 1, 12215, -90.000, 0.000, -29.900, 0.000, 0.000, -2.900, 0.0, , , , , , 97, , , 81, 81, 81
37.3088809, -119.5776635, 20.400, 12:37:36.926, 16, 0.10, 0.13, 97, -0.900, 0.000, -29.200, 1733, 100, 99, 29, 24239, -18342, 5252, 5415, 15, 14, 1529177856.926, 17, 0, 1024, 1024, 1024, 1024, 0, 6, 4035, 4024, 4041, 4038, 4052, 4046, 0, 1, 12300, -89.900, 0.000, -30.000, 0.100, 0.000, -2.800, 0.0, , , , , , 97, , , 81, 81, 81
37.3088810, -119.5776634, 20.700, 12:37:37.026, 16, 0.10, 0.15, 97, -0.800, 0.700, -29.200, 1733, 100, 99, 29, 24239, -18342, 5252, 5415, 15, 14, 1529177857.026, 10, 0, 1024, 1024, 1024, 1024, 0, 6, 4035, 4024, 4041, 4038, 4052, 4046, 0, 1, 12400, -89.900, 0.000, -29.900, 0.100, 0.000, -2.800, 0.0, , , , , , 97, , , 81, 81, 81
37.3088812, -119.5776633, 21.000, 12:37:37.127, 16, 0.10, 0.17, 97, -0.700, 1.700, -29.300, 1733, 100, 99, 29, 24239, -18342, 5252, 5415, 15, 14, 1529177857.127, 3, 0, 1024, 1024, 1024, 1024, 0, 6, 4035, 4024, 4041, 4038, 4052, 4046, 0, 1, 12501, -89.900, 0.000, -30.000, 0.100, 0.000, -2.800, 0.0, , , , , , 97, , , 81, 81, 81
37.3088816, -119.5776632, 21.600, 12:37:37.227, 15, 0.10, 0.21, 97, -1.100, 2.900, -29.600, 1733, 100, 99, 29, 24239, -18342, 5252, 5415, 15, 14, 1529177857.227, 2, 0, 1024, 1024, 1024, 1024, 0, 6, 4035, 4024, 4041, 4038, 4052, 4046, 0, 1, 12601, -89.900, 0.000, -30.000, 0.100, 0.000, -2.800, 0.0, , , , , , 97, , , 81, 81, 81
37.3088818, -119.5776631, 21.900, 12:37:37.326, 15, 0.10, 0.23, 97, -1.200, 3.000, -29.700, 1733, 100, 100, 29, 24155, -19019, 5252, 5415, 15, 14, 1529177857.326, 5, 0, 1024, 1024, 1024, 1024, 0, 6, 4035, 4024, 4041, 4038, 4052, 4046, 0, 1, 12700, -89.900, 0.000, -30.000, 0.100, 0.000, -2.900, 0.0, , , , , , 97, , , 81, 81, 81
37.3088818, -119.5776631, 21.900, 12:37:37.426, 15, 0.10, 0.23, 97, -1.200, 3.000, -29.700, 1733, 100, 100, 29, 24155, -19019, 5252, 5415, 15, 14, 1529177857.426, 105, 0, 1024, 1024, 1024, 1024, 0, 6, 4016, 4013, 4031, 4029, 4044, 4036, 0, 1, 12800, -89.900, 0.000, -30.000, 0.100, 0.000, -2.900, 0.0, , , , , , 97, , , 81, 81, 81
37.3088819, -119.5776630, 22.100, 12:37:37.525, 15, 0.00, 0.25, 97, -1.500, 2.900, -29.600, 1733, 100, 100, 29, 24155, -19019, 5252, 5415, 15, 14, 1529177857.525, 94, 0, 1024, 1024, 1024, 1024, 0, 6, 4016, 4013, 4031, 4029, 4044, 4036, 0, 1, 12899, -89.900, 0.000, -30.000, 0.000, 0.000, -2.900, 0.0, , , , , , 97, , , 81, 81, 81
37.3088820, -119.5776630, 22.400, 12:37:37.626, 15, 0.00, 0.26, 97, -1.700, 2.400, -29.500, 1733, 100, 100, 29, 24155, -19019, 5252, 5415, 15, 14, 1529177857.626, 75, 0, 1024, 1024, 1024, 1024, 0, 6, 4016, 4013, 4031, 4029, 4044, 4036, 0, 1, 13000, -89.900, 0.000, -29.900, 0.000, 0.000, -2.900, 0.0, , , , , , 97, , , 81, 81, 81
37.3088821, -119.5776629, 22.700, 12:37:37.725, 15, 0.00, 0.27, 97, -1.900, 1.900, -29.500, 1733, 100, 100, 29, 24155, -19019, 5252, 5415, 15, 14, 1529177857.725, 80, 0, 1024, 1024, 1024, 1024, 0, 6, 4016, 4013, 4031, 4029, 4044, 4036, 0, 1, 13099, -89.900, 0.000, -30.000, 0.000, 0.000, -2.900, 0.0, , , , , , 97, , , 81, 81, 81
37.3088822, -119.5776628, 23.000, 12:37:37.826, 15, 0.00, 0.28, 97, -1.800, 1.800, -29.600, 1733, 100, 100, 29, 24155, -19019, 5252, 5415, 15, 14, 1529177857.826, 71, 0, 1024, 1024, 1024, 1024, 0, 6, 4016, 4013, 4031, 4029, 4044, 4036, 0, 1, 13200, -89.900, 0.000, -29.900, 0.000, 0.000, -3.000, 0.0, , , , , , 97, , , 81, 81, 81
37.3088822, -119.5776628, 23.000, 12:37:37.926, 15, 0.00, 0.28, 97, -1.800, 1.800, -29.600, 1733, 100, 99, 29, 24155, -19019, 5252, 5415, 15, 14, 1529177857.926, 171, 0, 1024, 1024, 1024, 1024, 0, 6, 4016, 4013, 4031, 4029, 4044, 4036, 0, 1, 13300, -89.900, 0.000, -30.000, 0.000, 0.000, -3.000, 0.0, , , , , , 97, , , 81, 81, 81
37.3088824, -119.5776628, 23.600, 12:37:38.026, 14, 0.00, 0.30, 97, -1.100, 1.800, -29.500, 1733, 100, 99, 29, 24155, -19019, 5252, 5415, 15, 14, 1529177858.026, 68, 0, 1024, 1024, 1024, 1024, 0, 6, 4016, 4013, 4031, 4029, 4044, 4036, 0, 1, 13400, -89.900, 0.000, -29.900, 0.000, 0.000, -3.000, 0.0, , , , , , 97, , , 81, 81, 81
37.3088824, -119.5776628, 23.900, 12:37:38.126, 14, 0.00, 0.31, 97, -0.700, 2.000, -29.400, 1733, 100, 99, 29, 24155, -19019, 5252, 5415, 15, 14, 1529177858.126, 72, 0, 1024, 1024, 1024, 1024, 0, 6, 4016, 4013, 4031, 4029, 4044, 4036, 0, 1, 13500, -89.900, 0.000, -30.000, 0.000, 0.000, -3.000, 0.0, , , , , , 97, , , 81, 81, 81
37.3088825, -119.5776628, 24.200, 12:37:38.226, 15, 0.00, 0.32, 97, -0.900, 2.200, -29.400, 1733, 100, 99, 29, 24155, -19019, 5252, 5415, 15, 14, 1529177858.226, 59, 0, 1024, 1024, 1024, 1024, 0, 6, 4016, 4013, 4031, 4029, 4044, 4036, 0, 1, 13600, -89.900, 0.000, -29.900, 0.000, 0.000, -3.000, 0.0, , , , , , 97, , , 81, 81, 81
37.3088826, -119.5776628, 24.500, 12:37:38.326, 15, 0.00, 0.32, 97, -1.000, 2.200, -29.500, 1733, 100, 99, 29, 24104, -19099, 5252, 5415, 15, 14, 1529177858.326, 60, 0, 1024, 1024, 1024, 1024, 0, 6, 4005, 3993, 4023, 4000, 4027, 4013, 0, 1, 13700, -89.900, 0.000, -30.000, 0.000, 0.000, -3.000, 0.0, , , , , , 97, , , 81, 81, 81
37.3088826, -119.5776628, 24.800, 12:37:38.426, 15, 0.00, 0.33, 97, -1.400, 2.200, -29.500, 1733, 100, 96, 29, 24104, -19099, 5252, 5415, 15, 14, 1529177858.426, 53, 0, 1024, 1024, 1024, 1024, 0, 6, 4005, 3993, 4023, 4000, 4027, 4013, 0, 1, 13800, -89.900, 0.000, -30.000, 0.000, 0.000, -3.000, 0.0, , , , , , 97, , , 81, 81, 81
37.3088826, -119.5776627, 25.200, 12:37:38.526, 15, 0.00, 0.33, 97, -1.600, 2.100, -29.500, 1733, 100, 96, 29, 24104, -19099, 5252, 5415, 15, 14, 1529177858.526, 57, 0, 1024, 1024, 1024, 1024, 0, 6, 4005, 3993, 4023, 4000, 4027, 4013, 0, 1, 13900, -89.900, 0.000, -29.900, 0.000, 0.000, -3.000, 0.0, , , , , , 97, , , 81, 81, 81
37.3088827, -119.5776627, 25.500, 12:37:38.626, 15, 0.00, 0.34, 97, -1.600, 2.000, -29.500, 1733, 100, 96, 29, 24104, -19099, 5252, 5415, 15, 14, 1529177858.626, 60, 0, 1024, 1024, 1024, 1024, 0, 6, 4005, 3993, 4023, 4000, 4027, 4013, 0, 1, 14000, -89.900, 0.000, -29.900, 0.000, 0.000, -3.000, 0.0, , , , , , 97, , , 81, 81, 81
37.3088827, -119.5776627, 25.800, 12:37:38.725, 15, 0.00, 0.34, 97, -1.500, 2.000, -29.500, 1733, 100, 96, 29, 24104, -19099, 5252, 5415, 15, 14, 1529177858.725, 40, 0, 1024, 1024, 1024, 1024, 0, 6, 4005, 3993, 4023, 4000, 4027, 4013, 0, 1, 14099, -89.900, 0.000, -30.000, 0.000, 0.000, -2.900, 0.0, , , , , , 97, , , 81, 81, 81
37.3088826, -119.5776627, 26.100, 12:37:38.826, 15, 0.00, 0.34, 97, -1.200, 1.800, -29.400, 1733, 100, 96, 29, 24104, -19099, 5252, 5415, 15, 14, 1529177858.826, 31, 0, 1024, 1024, 1024, 1024, 0, 6, 4005, 3993, 4023, 4000, 4027, 4013, 0, 1, 14200, -89.900, 0.000, -30.000, 0.000, 0.000, -3.000, 0.0, , , , , , 97, , , 81, 81, 81
37.3088826, -119.5776627, 26.400, 12:37:38.926, 15, 0.00, 0.33, 97, -1.000, 1.400, -29.300, 1733, 100, 94, 29, 24104, -19099, 5252, 5415, 15, 14, 1529177858.926, 15, 0, 1024, 1024, 1024, 1024, 0, 6, 4005, 3993, 4023, 4000, 4027, 4013, 0, 1, 14300, -89.900, 0.000, -29.900, 0.000, 0.000, -3.000, 0.0, , , , , , 97, , , 81, 81, 81
37.3088826, -119.5776627, 26.700, 12:37:39.026, 15, 0.00, 0.33, 97, -0.600, 1.100, -29.200, 1733, 100, 94, 29, 24104, -19099, 5252, 5415, 15, 14, 1529177859.026, 29, 0, 1024, 1024, 1024, 1024, 0, 6, 4005, 3993, 4023, 4000, 4027, 4013, 0, 1, 14400, -89.900, 0.000, -29.900, 0.000, 0.000, -3.000, 0.0, , , , , , 97, , , 81, 81, 81
37.3088825, -119.5776627, 27.000, 12:37:39.126, 15, 0.00, 0.33, 97, -0.400, 1.000, -29.300, 1733, 100, 94, 29, 24104, -19099, 5252, 5415, 15, 14, 1529177859.126, 30, 0, 1024, 1024, 1024, 1024, 0, 6, 4005, 3993, 4023, 4000, 4027, 4013, 0, 1, 14500, -89.900, 0.000, -30.000, 0.000, 0.000, -3.000, 0.0, , , , , , 97, , , 81, 81, 81
37.3088825, -119.5776626, 27.300, 12:37:39.226, 15, 0.00, 0.33, 97, -0.500, 0.900, -29.500, 1733, 100, 94, 29, 24104, -19099, 5252, 5415, 15, 14, 1529177859.226, 11, 0, 1024, 1024, 1024, 1024, 0, 6, 4005, 3993, 4023, 4000, 4027, 4013, 0, 1, 14600, -89.900, 0.000, -30.000, 0.000, 0.000, -3.100, 0.0, , , , , , 97, , , 81, 81, 81
37.3088825, -119.5776627, 27.600, 12:37:39.326, 15, 0.00, 0.32, 97, -1.100, 0.900, -29.700, 1733, 100, 94, 29, 24007, -20227, 5252, 5415, 15, 14, 1529177859.326, 17, 0, 1024, 1024, 1024, 1024, 0, 6, 4005, 3993, 4023, 4000, 4027, 4013, 0, 1, 14700, -90.000, 0.000, -30.000, 0.000, 0.000, -3.100, 0.0, , , , , , 97, , , 81, 81, 81
37.3088825, -119.5776627, 27.600, 12:37:39.426, 15, 0.00, 0.32, 97, -1.100, 0.900, -29.700, 1733, 100, 94, 29, 24007, -20227, 5252, 5415, 15, 14, 1529177859.426, 117, 0, 1024, 1024, 1024, 1024, 0, 6, 4005, 3993, 4023, 4000, 4027, 4013, 0, 1, 14800, -90.000, 0.000, -30.000, 0.000, 0.000, -3.100, 0.0, , , , , , 97, , , 81, 81, 81
37.3088825, -119.5776626, 28.200, 12:37:39.527, 15, 0.00, 0.32, 97, -1.400, 0.800, -30.000, 1733, 100, 95, 29, 24007, -20227, 5252, 5415, 15, 14, 1529177859.527, 1, 0, 1024, 1024, 1024, 1024, 0, 6, 4005, 3993, 4023, 4000, 4027, 4013, 0, 1, 14901, -89.900, 0.000, -30.000, 0.000, 0.000, -3.000, 0.0, , , , , , 97, , , 81, 81, 81
37.3088825, -119.5776625, 28.500, 12:37:39.626, 16, 0.00, 0.32, 97, -1.500, 1.000, -30.000, 1733, 100, 95, 29, 24007, -20227, 5252, 5415, 15, 14, 1529177859.626, 97, 0, 1024, 1024, 1024, 1024, 0, 6, 4005, 3993, 4023, 4000, 4027, 4013, 0, 1, 15000, -89.900, 0.000, -30.000, 0.000, 0.000, -3.000, 0.0, , , , , , 97, , , 81, 81, 81
37.3088825, -119.5776625, 28.900, 12:37:39.726, 16, 0.00, 0.33, 97, -1.900, 1.000, -30.000, 1733, 100, 95, 29, 24007, -20227, 5252, 5415, 15, 14, 1529177859.726, 79, 0, 1024, 1024, 1024, 1024, 0, 6, 4005, 3993, 4023, 4000, 4027, 4013, 0, 1, 15100, -89.900, 0.000, -30.000, 0.000, 0.000, -3.100, 0.0, , , , , , 97, , , 81, 81, 81
37.3088824, -119.5776624, 29.200, 12:37:39.826, 16, 0.00, 0.33, 97, -2.100, 0.800, -30.000, 1733, 100, 95, 29, 24007, -20227, 5252, 5415, 15, 14, 1529177859.826, 69, 0, 1024, 1024, 1024, 1024, 0, 6, 4005, 3993, 4023, 4000, 4027, 4013, 0, 1, 15200, -90.000, 0.000, -29.900, 0.000, 0.000, -3.000, 0.0, , , , , , 97, , , 81, 81, 81
37.3088824, -119.5776624, 29.500, 12:37:39.926, 16, 0.00, 0.32, 97, -2.000, 0.700, -29.900, 1733, 100, 96, 29, 24007, -20227, 5252, 5415, 15, 14, 1529177859.926, 62, 0, 1024, 1024, 1024, 1024, 0, 6, 4005, 3993, 4023, 4000, 4027, 4013, 0, 1, 15300, -89.900, 0.000, -30.000, 0.000, 0.000, -3.000, 0.0, , , , , , 97, , , 81, 81, 81
37.3088823, -119.5776623, 29.800, 12:37:40.026, 16, 0.00, 0.32, 97, -2.000, 0.600, -29.700, 1733, 100, 96, 29, 24007, -20227, 5252, 5415, 15, 14, 1529177860.026, 78, 0, 1024, 1024, 1024, 1024, 0, 6, 4005, 3993, 4023, 4000, 4027, 4013, 0, 1, 15400, -89.900, 0.000, -29.900, 0.000, 0.000, -3.000, 0.0, , , , , , 97, , , 81, 81, 81
37.3088823, -119.5776623, 30.100, 12:37:40.126, 16, 0.00, 0.32, 97, -1.700, 0.600, -29.500, 1733, 100, 96, 29, 24007, -20227, 5252, 5415, 15, 14, 1529177860.126, 76, 0, 1024, 1024, 1024, 1024, 0, 6, 4005, 3993, 4023, 4000, 4027, 4013, 0, 1, 15500, -89.900, 0.000, -30.000, 0.000, 0.000, -3.000, 0.0, , , , , , 97, , , 81, 81, 81
37.3088822, -119.5776623, 30.400, 12:37:40.225, 16, 0.00, 0.31, 97, -1.500, 0.700, -29.300, 1733, 100, 96, 29, 24007, -20227, 5252, 5415, 15, 14, 1529177860.226, 50, 0, 1024, 1024, 1024, 1024, 0, 6, 4005, 3993, 4023, 4000, 4027, 4013, 0, 1, 15600, -89.900, 0.000, -30.000, 0.000, 0.000, -3.000, 0.0, , , , , , 97, , , 81, 81, 81
37.3088822, -119.5776623, 30.700, 12:37:40.326, 16, 0.00, 0.31, 97, -1.500, 0.800, -29.100, 1733, 100, 96, 29, 24007, -20227, 5252, 5415, 15, 14, 1529177860.326, 50, 0, 1024, 1024, 1024, 1024, 0, 6, 3991, 3986, 4011, 4010, 4020, 4017, 0, 1, 15700, -89.900, 0.000, -29.900, 0.000, 0.000, -3.000, 0.0, , , , , , 97, , , 81, 81, 81
37.3088822, -119.5776623, 31.000, 12:37:40.426, 16, 0.00, 0.31, 97, -1.700, 0.700, -29.000, 1733, 100, 98, 29, 24007, -20227, 5252, 5415, 15, 14, 1529177860.426, 51, 0, 1024, 1024, 1024, 1024, 0, 6, 3991, 3986, 4011, 4010, 4020, 4017, 0, 1, 15800, -89.900, 0.000, -29.900, 0.000, 0.000, -3.000, 0.0, , , , , , 97, , , 81, 81, 81
37.3088821, -119.5776622, 31.400, 12:37:40.526, 16, 0.00, 0.31, 97, -2.000, 0.800, -29.100, 1733, 100, 98, 29, 24007, -20227, 5252, 5415, 15, 14, 1529177860.526, 53, 0, 1024, 1024, 1024, 1024, 0, 6, 3991, 3986, 4011, 4010, 4020, 4017, 0, 1, 15900, -89.900, 0.000, -29.900, 0.000, 0.000, -3.000, 0.0, , , , , , 97, , , 81, 81, 81
37.3088821, -119.5776622, 31.700, 12:37:40.626, 16, 0.00, 0.31, 97, -2.300, 0.800, -29.200, 1733, 100, 98, 29, 24007, -20227, 5252, 5415, 15, 14, 1529177860.626, 43, 0, 1024, 1024, 1024, 1024, 0, 6, 3991, 3986, 4011, 4010, 4020, 4017, 0, 1, 16000, -89.900, 0.000, -29.900, 0.000, 0.000, -3.100, 0.0, , , , , , 97, , , 81, 81, 81
37.3088821, -119.5776621, 32.000, 12:37:40.726, 16, 0.00, 0.31, 97, -2.500, 1.100, -29.200, 1733, 100, 98, 29, 24007, -20227, 5252, 5415, 15, 14, 1529177860.726, 45, 0, 1024, 1024, 1024, 1024, 0, 6, 3991, 3986, 4011, 4010, 4020, 4017, 0, 1, 16100, -89.900, 0.000, -29.900, 0.000, 0.000, -3.000, 0.0, , , , , , 97, , , 81, 81, 81
37.3088821, -119.5776620, 32.300, 12:37:40.826, 16, 0.00, 0.32, 97, -2.500, 1.100, -29.100, 1733, 100, 98, 29, 24066, -19309, 5252, 5415, 15, 14, 1529177860.826, 47, 0, 1024, 1024, 1024, 1024, 0, 6, 3999, 4002, 4019, 4020, 4027, 4022, 0, 1, 16200, -89.900, 0.000, -29.900, 0.000, 0.000, -3.000, 0.0, , , , , , 97, , , 81, 81, 81
37.3088821, -119.5776619, 32.700, 12:37:40.926, 16, 0.00, 0.32, 97, -2.700, 1.000, -29.000, 1733, 100, 99, 29, 24066, -19309, 5252, 5415, 15, 14, 1529177860.926, 15, 0, 1024, 1024, 1024, 1024, 0, 6, 3999, 4002, 4019, 4020, 4027, 4022, 0, 1, 16300, -89.900, 0.000, -29.900, 0.000, 0.000, -2.900, 0.0, , , , , , 97, , , 81, 81, 81
37.3088821, -119.5776618, 33.000, 12:37:41.026, 16, 0.00, 0.33, 97, -2.900, 0.600, -28.900, 1733, 100, 99, 29, 24066, -19309, 5252, 5415, 15, 14, 1529177861.026, 27, 0, 1024, 1024, 1024, 1024, 0, 6, 3999, 4002, 4019, 4020, 4027, 4022, 0, 1, 16400, -90.000, 0.000, -30.000, 0.000, 0.000, -2.900, 0.0, , , , , , 97, , , 81, 81, 81
37.3088821, -119.5776617, 33.300, 12:37:41.126, 16, 0.00, 0.33, 97, -3.100, 0.300, -28.900, 1733, 100, 99, 29, 24066, -19309, 5252, 5415, 15, 14, 1529177861.126, 31, 0, 1024, 1024, 1024, 1024, 0, 6, 3999, 4002, 4019, 4020, 4027, 4022, 0, 1, 16500, -90.000, 0.000, -30.000, 0.000, 0.000, -2.900, 0.0, , , , , , 97, , , 81, 81, 81
37.3088821, -119.5776616, 33.600, 12:37:41.225, 16, 0.00, 0.34, 97, -3.200, 0.400, -29.000, 1733, 100, 99, 29, 24066, -19309, 5252, 5415, 15, 14, 1529177861.226, 20, 0, 1024, 1024, 1024, 1024, 0, 6, 3999, 4002, 4019, 4020, 4027, 4022, 0, 1, 16600, -89.900, 0.000, -30.000, 0.000, 0.000, -2.900, 0.0, , , , , , 97, , , 81, 81, 81
37.3088820, -119.5776615, 33.900, 12:37:41.326, 16, 0.00, 0.34, 97, -3.400, 0.300, -29.100, 1733, 100, 99, 29, 24066, -19309, 5252, 5415, 15, 14, 1529177861.326, 13, 0, 1024, 1024, 1024, 1024, 0, 6, 3999, 4002, 4019, 4020, 4027, 4022, 0, 1, 16700, -90.000, 0.000, -30.000, 0.000, 0.000, -2.800, 0.0, , , , , , 97, , , 81, 81, 81
37.3088820, -119.5776615, 33.900, 12:37:41.426, 16, 0.00, 0.34, 97, -3.400, 0.300, -29.100, 1733, 100, 99, 29, 24066, -19309, 5252, 5415, 15, 14, 1529177861.426, 113, 0, 1024, 1024, 1024, 1024, 0, 6, 3999, 4002, 4019, 4020, 4027, 4022, 0, 1, 16800, -90.000, 0.000, -30.000, 0.000, 0.000, -2.800, 0.0, , , , , , 97, , , 81, 81, 81
37.3088819, -119.5776614, 34.500, 12:37:41.526, 16, 0.00, 0.34, 97, -3.000, 0.000, -29.400, 1733, 100, 100, 29, 24066, -19309, 5252, 5415, 15, 14, 1529177861.526, 6, 0, 1024, 1024, 1024, 1024, 0, 6, 3999, 4002, 4019, 4020, 4027, 4022, 0, 1, 16900, -89.900, 0.000, -30.000, 0.000, 0.000, -2.800, 0.0, , , , , , 97, , , 81, 81, 81
37.3088819, -119.5776614, 34.500, 12:37:41.626, 16, 0.00, 0.34, 97, -3.000, 0.000, -29.400, 1733, 100, 100, 29, 24066, -19309, 5252, 5415, 15, 14, 1529177861.626, 106, 0, 1024, 1024, 1024, 1024, 0, 6, 3999, 4002, 4019, 4020, 4027, 4022, 0, 1, 17000, -89.900, 0.000, -30.000, 0.000, 0.000, -2.800, 0.0, , , , , , 97, , , 81, 81, 81
37.3088819, -119.5776613, 34.800, 12:37:41.725, 16, 0.00, 0.34, 97, -2.900, 0.100, -29.500, 1733, 100, 100, 29, 24066, -19309, 5252, 5415, 15, 14, 1529177861.726, 94, 0, 1024, 1024, 1024, 1024, 0, 6, 3999, 4002, 4019, 4020, 4027, 4022, 0, 1, 17100, -89.900, 0.000, -30.000, 0.000, 0.000, -2.800, 0.0, , , , , , 97, , , 81, 81, 81
37.3088818, -119.5776613, 35.300, 12:37:41.826, 16, 0.00, 0.34, 97, -2.700, 0.100, -29.700, 1733, 100, 100, 29, 24066, -19309, 5252, 5415, 15, 14, 1529177861.826, 73, 0, 1024, 1024, 1024, 1024, 0, 6, 3999, 4002, 4019, 4020, 4027, 4022, 0, 1, 17200, -89.900, 0.000, -30.000, 0.000, 0.000, -2.800, 0.0, , , , , , 97, , , 81, 81, 81
37.3088818, -119.5776613, 35.600, 12:37:41.926, 16, 0.00, 0.34, 97, -2.900, 0.200, -29.800, 1733, 100, 100, 29, 24181, -15839, 5252, 5415, 15, 14, 1529177861.926, 82, 0, 1024, 1024, 1024, 1024, 0, 6, 4040, 4030, 4038, 4032, 4046, 4043, 0, 1, 17300, -89.900, 0.000, -30.000, 0.000, 0.000, -2.800, 0.0, , , , , , 97, , , 81, 81, 81
37.3088818, -119.5776612, 35.900, 12:37:42.026, 16, 0.00, 0.34, 97, -3.100, 0.200, -29.800, 1733, 100, 100, 29, 24181, -15839, 5252, 5415, 15, 14, 1529177862.026, 75, 0, 1024, 1024, 1024, 1024, 0, 6, 4040, 4030, 4038, 4032, 4046, 4043, 0, 1, 17400, -89.900, 0.000, -30.000, 0.000, 0.000, -2.800, 0.0, , , , , , 97, , , 81, 81, 81
37.3088817, -119.5776612, 36.200, 12:37:42.126, 16, 0.00, 0.33, 97, -3.000, 0.200, -29.700, 1733, 100, 100, 29, 24181, -15839, 5252, 5415, 15, 14, 1529177862.126, 64, 0, 1024, 1024, 1024, 1024, 0, 6, 4040, 4030, 4038, 4032, 4046, 4043, 0, 1, 17500, -89.900, 0.000, -29.900, 0.000, 0.000, -2.800, 0.0, , , , , , 97, , , 81, 81, 81
37.3088817, -119.5776613, 36.500, 12:37:42.225, 16, 0.00, 0.33, 97, -2.800, 0.000, -29.600, 1733, 100, 100, 29, 24181, -15839, 5252, 5415, 15, 14, 1529177862.225, 65, 0, 1024, 1024, 1024, 1024, 0, 6, 4040, 4030, 4038, 4032, 4046, 4043, 0, 1, 17599, -90.000, 0.000, -29.900, 0.000, 0.000, -2.800, 0.0, , , , , , 97, , , 81, 81, 81
37.3088817, -119.5776613, 36.500, 12:37:42.326, 16, 0.00, 0.33, 97, -2.800, 0.000, -29.600, 1733, 100, 100, 29, 24181, -15839, 5252, 5415, 15, 14, 1529177862.326, 166, 0, 1024, 1024, 1024, 1024, 0, 6, 4040, 4030, 4038, 4032, 4046, 4043, 0, 1, 17700, -90.000, 0.000, -29.900, 0.000, 0.000, -2.800, 0.0, , , , , , 97, , , 81, 81, 81
37.3088816, -119.5776612, 37.100, 12:37:42.426, 16, 0.00, 0.33, 97, -2.400, -0.200, -29.400, 1733, 100, 99, 29, 24181, -15839, 5252, 5415, 15, 14, 1529177862.426, 62, 0, 1024, 1024, 1024, 1024, 0, 6, 4040, 4030, 4038, 4032, 4046, 4043, 0, 1, 17800, -89.900, 0.000, -29.900, 0.000, 0.000, -2.800, 0.0, , , , , , 97, , , 81, 81, 81
37.3088816, -119.5776611, 37.400, 12:37:42.526, 16, 0.00, 0.33, 97, -2.700, -0.300, -29.200, 1733, 100, 99, 29, 24181, -15839, 5252, 5415, 15, 14, 1529177862.526, 69, 0, 1024, 1024, 1024, 1024, 0, 6, 4040, 4030, 4038, 4032, 4046, 4043, 0, 1, 17900, -90.000, 0.000, -29.900, 0.000, 0.000, -2.900, 0.0, , , , , , 97, , , 81, 81, 81
37.3088815, -119.5776611, 37.700, 12:37:42.626, 16, 0.00, 0.33, 97, -3.300, -0.600, -29.200, 1733, 100, 99, 29, 24181, -15839, 5252, 5415, 15, 14, 1529177862.626, 71, 0, 1024, 1024, 1024, 1024, 0, 6, 4040, 4030, 4038, 4032, 4046, 4043, 0, 1, 18000, -89.900, 0.000, -30.000, 0.000, 0.000, -2.900, 0.0, , , , , , 97, , , 81, 81, 81
37.3088815, -119.5776610, 38.000, 12:37:42.725, 16, 0.00, 0.34, 97, -3.500, -0.600, -29.100, 1733, 100, 99, 29, 24181, -15839, 5252, 5415, 15, 14, 1529177862.726, 60, 0, 1024, 1024, 1024, 1024, 0, 6, 4040, 4030, 4038, 4032, 4046, 4043, 0, 1, 18099, -89.900, 0.000, -30.000, 0.000, 0.000, -2.900, 0.0, , , , , , 97, , , 81, 81, 81
37.3088815, -119.5776610, 38.300, 12:37:42.825, 16, 0.00, 0.33, 97, -3.600, -0.600, -29.200, 1733, 100, 99, 29, 24262, -16316, 5252, 5415, 15, 14, 1529177862.825, 62, 0, 1024, 1024, 1024, 1024, 0, 6, 4035, 4024, 4042, 4034, 4051, 4049, 0, 1, 18199, -89.900, 0.000, -29.900, 0.000, 0.000, -2.900, 0.0, , , , , , 97, , , 81, 81, 81
37.3088814, -119.5776610, 38.600, 12:37:42.926, 16, 0.00, 0.33, 97, -3.400, -0.600, -29.200, 1733, 100, 98, 29, 24262, -16316, 5252, 5415, 15, 14, 1529177862.926, 43, 0, 1024, 1024, 1024, 1024, 0, 6, 4035, 4024, 4042, 4034, 4051, 4049, 0, 1, 18300, -89.900, 0.000, -30.000, 0.000, 0.000, -2.900, 0.0, , , , , , 97, , , 81, 81, 81
37.3088814, -119.5776610, 38.800, 12:37:43.026, 16, 0.00, 0.33, 97, -3.300, -0.600, -29.200, 1733, 100, 98, 29, 24262, -16316, 5252, 5415, 15, 14, 1529177863.026, 23, 0, 1024, 1024, 1024, 1024, 0, 6, 4035, 4024, 4042, 4034, 4051, 4049, 0, 1, 18400, -90.000, 0.000, -29.900, 0.000, 0.000, -2.800, 0.0, , , , , , 97, , , 81, 81, 81
37.3088813, -119.5776611, 39.100, 12:37:43.126, 16, 0.00, 0.32, 97, -3.300, -0.700, -29.200, 1733, 100, 98, 29, 24262, -16316, 5252, 5415, 15, 14, 1529177863.126, 34, 0, 1024, 1024, 1024, 1024, 0, 6, 4035, 4024, 4042, 4034, 4051, 4049, 0, 1, 18500, -89.900, 0.000, -30.000, 0.000, 0.000, -2.800, 0.0, , , , , , 97, , , 81, 81, 81
37.3088813, -119.5776612, 39.400, 12:37:43.225, 16, 0.00, 0.31, 97, -3.100, -0.400, -29.200, 1733, 100, 98, 29, 24262, -16316, 5252, 5415, 15, 14, 1529177863.226, 33, 0, 1024, 1024, 1024, 1024, 0, 6, 4035, 4024, 4042, 4034, 4051, 4049, 0, 1, 18599, -89.900, 0.000, -30.000, 0.000, 0.000, -2.800, 0.0, , , , , , 97, , , 81, 81, 81
37.3088813, -119.5776613, 39.600, 12:37:43.326, 16, 0.10, 0.31, 97, -2.900, 0.000, -29.200, 1733, 100, 98, 29, 24262, -16316, 5252, 5415, 15, 14, 1529177863.326, 34, 0, 1024, 1024, 1024, 1024, 0, 6, 4035, 4024, 4042, 4034, 4051, 4049, 0, 1, 18700, -89.900, 0.000, -29.900, 0.000, -0.100, -2.700, 0.0, , , , , , 97, , , 81, 81, 81
37.3088813, -119.5776614, 39.900, 12:37:43.426, 16, 0.10, 0.30, 97, -2.400, 0.600, -29.300, 1733, 100, 98, 29, 24262, -16316, 5252, 5415, 15, 14, 1529177863.426, 35, 0, 1024, 1024, 1024, 1024, 0, 6, 4035, 4024, 4042, 4034, 4051, 4049, 0, 1, 18800, -89.900, 0.000, -29.900, 0.000, -0.100, -2.600, 0.0, , , , , , 97, , , 81, 81, 81
37.3088813, -119.5776616, 40.100, 12:37:43.526, 16, 0.10, 0.28, 97, -1.800, 1.000, -29.400, 1733, 100, 98, 29, 24262, -16316, 5252, 5415, 15, 14, 1529177863.526, 13, 0, 1024, 1024, 1024, 1024, 0, 6, 4035, 4024, 4042, 4034, 4051, 4049, 0, 1, 18900, -89.900, 0.000, -29.900, 0.000, -0.100, -2.700, 0.0, , , , , , 97, , , 81, 81, 81
37.3088814, -119.5776618, 40.400, 12:37:43.626, 16, 0.10, 0.27, 97, -1.200, 1.500, -29.600, 1733, 100, 98, 29, 24262, -16316, 5252, 5415, 15, 14, 1529177863.626, 18, 0, 1024, 1024, 1024, 1024, 0, 6, 4035, 4024, 4042, 4034, 4051, 4049, 0, 1, 19000, -89.900, 0.000, -29.900, 0.000, -0.100, -2.700, 0.0, , , , , , 97, , , 81, 81, 81
37.3088814, -119.5776620, 40.600, 12:37:43.725, 16, 0.10, 0.26, 97, -0.700, 1.800, -29.700, 1733, 100, 98, 29, 24262, -16316, 5252, 5415, 15, 14, 1529177863.726, 21, 0, 1024, 1024, 1024, 1024, 0, 6, 4035, 4024, 4042, 4034, 4051, 4049, 0, 1, 19099, -89.900, 0.000, -30.000, 0.000, -0.100, -2.800, 0.0, , , , , , 97, , , 81, 81, 81
37.3088815, -119.5776622, 40.900, 12:37:43.826, 16, 0.10, 0.25, 97, -1.000, 2.200, -29.800, 1733, 100, 98, 29, 24262, -16316, 5252, 5415, 15, 14, 1529177863.827, 2, 0, 1024, 1024, 1024, 1024, 0, 6, 4035, 4024, 4042, 4034, 4051, 4049, 0, 1, 19200, -89.900, 0.000, -30.000, 0.000, -0.100, -2.900, 0.0, , , , , , 97, , , 81, 81, 81
37.3088816, -119.5776624, 41.200, 12:37:43.927, 16, 0.10, 0.25, 97, -1.200, 2.500, -29.700, 1733, 100, 98, 30, 24272, -16113, 5252, 5415, 15, 14, 1529177863.928, 4, 0, 1024, 1024, 1024, 1024, 0, 6, 4031, 4025, 4038, 4037, 4048, 4037, 0, 1, 19301, -89.900, 0.000, -29.900, 0.000, -0.100, -3.000, 0.0, , , , , , 97, , , 81, 81, 81
37.3088816, -119.5776624, 41.200, 12:37:44.026, 16, 0.10, 0.25, 97, -1.200, 2.500, -29.700, 1733, 100, 99, 30, 24272, -16113, 5252, 5415, 15, 14, 1529177864.026, 102, 0, 1024, 1024, 1024, 1024, 0, 6, 4031, 4025, 4038, 4037, 4048, 4037, 0, 1, 19400, -89.900, 0.000, -29.900, 0.000, -0.100, -3.000, 0.0, , , , , , 97, , , 81, 81, 81
37.3088816, -119.5776625, 41.400, 12:37:44.126, 16, 0.10, 0.25, 97, -1.200, 2.600, -29.700, 1733, 100, 99, 30, 24272, -16113, 5252, 5415, 15, 14, 1529177864.126, 83, 0, 1024, 1024, 1024, 1024, 0, 6, 4031, 4025, 4038, 4037, 4048, 4037, 0, 1, 19500, -89.900, 0.000, -30.000, 0.000, -0.100, -2.900, 0.0, , , , , , 97, , , 81, 81, 81
37.3088818, -119.5776628, 42.300, 12:37:44.227, 16, 0.10, 0.25, 97, -0.900, 2.700, -29.800, 1733, 100, 99, 30, 24272, -16113, 5252, 5415, 15, 14, 1529177864.227, 1, 0, 1024, 1024, 1024, 1024, 0, 6, 4031, 4025, 4038, 4037, 4048, 4037, 0, 1, 19601, -89.900, 0.000, -30.000, 0.000, -0.100, -3.000, 0.0, , , , , , 97, , , 81, 81, 81
37.3088818, -119.5776628, 42.300, 12:37:44.326, 16, 0.10, 0.25, 97, -0.900, 2.700, -29.800, 1733, 100, 99, 30, 24272, -16113, 5252, 5415, 15, 14, 1529177864.326, 100, 0, 1024, 1024, 1024, 1024, 0, 6, 4031, 4025, 4038, 4037, 4048, 4037, 0, 1, 19700, -89.900, 0.000, -30.000, 0.000, -0.100, -3.000, 0.0, , , , , , 97, , , 81, 81, 81
37.3088819, -119.5776630, 42.600, 12:37:44.425, 16, 0.10, 0.25, 97, -0.400, 2.600, -29.700, 1733, 100, 97, 30, 24272, -16113, 5252, 5415, 15, 14, 1529177864.425, 92, 0, 1024, 1024, 1024, 1024, 0, 6, 4031, 4025, 4038, 4037, 4048, 4037, 0, 1, 19799, -89.900, 0.000, -30.000, 0.000, -0.100, -3.000, 0.0, , , , , , 97, , , 81, 81, 81
37.3088820, -119.5776631, 42.900, 12:37:44.526, 16, 0.10, 0.25, 97, -0.200, 3.100, -29.400, 1733, 100, 97, 30, 24272, -16113, 5252, 5415, 15, 14, 1529177864.526, 73, 0, 1024, 1024, 1024, 1024, 0, 6, 4031, 4025, 4038, 4037, 4048, 4037, 0, 1, 19900, -89.900, 0.000, -29.900, 0.000, -0.100, -3.000, 0.0, , , , , , 97, , , 81, 81, 81
37.3088820, -119.5776632, 43.200, 12:37:44.626, 16, 0.00, 0.25, 97, -0.300, 3.200, -29.300, 1733, 100, 97, 30, 24272, -16113, 5252, 5415, 15, 14, 1529177864.626, 61, 0, 1024, 1024, 1024, 1024, 0, 6, 4031, 4025, 4038, 4037, 4048, 4037, 0, 1, 20000, -89.900, 0.000, -29.900, 0.000, 0.000, -3.100, 0.0, , , , , , 97, , , 81, 81, 81
37.3088820, -119.5776633, 43.500, 12:37:44.725, 16, 0.00, 0.26, 97, -0.500, 2.900, -29.300, 1733, 100, 97, 30, 24272, -16113, 5252, 5415, 15, 14, 1529177864.725, 74, 0, 1024, 1024, 1024, 1024, 0, 6, 4031, 4025, 4038, 4037, 4048, 4037, 0, 1, 20099, -89.900, 0.000, -29.900, 0.000, 0.000, -3.100, 0.0, , , , , , 97, , , 81, 81, 81
37.3088821, -119.5776633, 43.800, 12:37:44.826, 16, 0.00, 0.26, 97, -0.800, 2.500, -29.300, 1733, 100, 97, 30, 24060, -19142, 5252, 5415, 15, 14, 1529177864.826, 76, 0, 1024, 1024, 1024, 1024, 0, 6, 4031, 4025, 4038, 4037, 4048, 4037, 0, 1, 20200, -89.900, 0.000, -30.000, 0.000, 0.000, -3.100, 0.0, , , , , , 97, , , 81, 81, 81
37.3088821, -119.5776633, 44.100, 12:37:44.925, 16, 0.00, 0.26, 97, -1.100, 2.000, -29.200, 1733, 100, 97, 30, 24060, -19142, 5252, 5415, 15, 14, 1529177864.925, 68, 0, 1024, 1024, 1024, 1024, 0, 6, 4031, 4025, 4038, 4037, 4048, 4037, 0, 1, 20299, -89.900, 0.000, -30.000, 0.000, 0.000, -3.100, 0.0, , , , , , 97, , , 81, 81, 81
37.3088821, -119.5776634, 44.400, 12:37:45.026, 16, 0.00, 0.25, 97, -1.300, 1.800, -29.100, 1733, 100, 97, 30, 24060, -19142, 5252, 5415, 15, 14, 1529177865.026, 65, 0, 1024, 1024, 1024, 1024, 0, 6, 4031, 4025, 4038, 4037, 4048, 4037, 0, 1, 20400, -89.900, 0.000, -29.900, 0.000, 0.000, -3.100, 0.0, , , , , , 97, , , 81, 81, 81
37.3088821, -119.5776634, 44.700, 12:37:45.126, 16, 0.00, 0.25, 97, -1.200, 1.800, -29.100, 1733, 100, 97, 30, 24060, -19142, 5252, 5415, 15, 14, 1529177865.126, 44, 0, 1024, 1024, 1024, 1024, 0, 6, 4031, 4025, 4038, 4037, 4048, 4037, 0, 1, 20500, -89.900, 0.000, -30.000, 0.000, 0.000, -3.100, 0.0, , , , , , 97, , , 81, 81, 81
37.3088821, -119.5776635, 45.100, 12:37:45.225, 16, 0.00, 0.26, 97, -0.700, 1.800, -29.100, 1733, 100, 97, 30, 24060, -19142, 5252, 5415, 15, 14, 1529177865.225, 59, 0, 1024, 1024, 1024, 1024, 0, 6, 4031, 4025, 4038, 4037, 4048, 4037, 0, 1, 20599, -89.900, 0.000, -30.000, 0.000, 0.000, -3.100, 0.0, , , , , , 97, , , 81, 81, 81
37.3088821, -119.5776635, 45.400, 12:37:45.326, 16, 0.00, 0.26, 97, -0.800, 1.800, -29.000, 1733, 100, 97, 30, 24060, -19142, 5252, 5415, 15, 14, 1529177865.326, 52, 0, 1024, 1024, 1024, 1024, 0, 6, 3987, 3987, 4005, 4008, 4012, 4010, 0, 1, 20700, -89.900, 0.000, -29.900, 0.000, 0.000, -3.200, 0.0, , , , , , 97, , , 81, 81, 81
37.3088822, -119.5776636, 45.700, 12:37:45.425, 16, 0.00, 0.26, 97, -1.300, 2.000, -29.000, 1733, 100, 97, 30, 24060, -19142, 5252, 5415, 15, 14, 1529177865.426, 42, 0, 1024, 1024, 1024, 1024, 0, 6, 3987, 3987, 4005, 4008, 4012, 4010, 0, 1, 20800, -89.900, 0.000, -30.000, 0.000, 0.000, -3.100, 0.0, , , , , , 97, , , 81, 81, 81
