latitude,longitude,altitude(feet),ascent(feet),speed(mph),distance(feet),time(millisecond),datetime(utc),satellites,gpslevel,voltage(v),max_altitude(feet),max_ascent(feet),max_speed(mph),max_distance(feet), xSpeed(mph), ySpeed(mph), zSpeed(mph), compass_heading(degrees), pitch(degrees), roll(degrees),isPhoto,isVideo,rc_elevator,rc_aileron,rc_throttle,rc_rudder,gimbal_heading(degrees),gimbal_pitch(degrees),battery_percent,voltageCell1,voltageCell2,voltageCell3,voltageCell4,voltageCell5,voltageCell6,current(A),battery_temperature(f),flycStateRaw,flycState,message
37.3089287,-119.5776472,3579.1889846128,0,0,0,3000,2018-06-16 19:15:47,13,0,25.81,3579.1889846128,0,0,0,0,0,0,332.7, -1, -0.1,1,0,1024,1024,1024,1024,331.8,-90,100,4.301,4.3,4.295,4.303,4.304,4.187,1.306,78.8,11,AutoTakeoff,DJI_0382.jpg Starting Mission from Lat/Long: 37.30894/-119.57765 Camera: Zenmuse X3 - Overlap: 90/90 - Active Connection: No
37.3089287,-119.5776472,3579.1889846128,0,0,0,3100,2018-06-16 19:15:47,13,0,25.81,3579.1889846128,0,0,0,0,0,0,332.8, -0.9, -0.1,0,0,1024,1024,1024,1024,331.8,-89.9,100,4.301,4.3,4.295,4.303,4.304,4.187,1.306,78.8,11,AutoTakeoff,
37.3089287,-119.5776473,3579.1889846128,0,0,0.029019357884,3200,2018-06-16 19:15:48,13,0,25.81,3579.1889846128,0,0,0.029019357884,0,0,0,332.9, -0.6, 0.1,0,0,1024,1024,1024,1024,331.8,-89.9,100,4.301,4.3,4.295,4.303,4.304,4.187,1.306,78.8,11,AutoTakeoff,
37.3089288,-119.5776473,3579.1889846128,0,0,0.046618439812,3300,2018-06-16 19:15:48,13,0,25.81,3579.1889846128,0,0,0.046618439812,0,0,-0.223694,332.9, 0, 0.3,0,0,1024,1024,1024,1024,331.8,-89.9,100,4.301,4.3,4.295,4.303,4.304,4.187,1.306,78.8,11,AutoTakeoff,
37.3089289,-119.5776474,3579.5170686128,0.328084,0.223694,0.093236879624,3400,2018-06-16 19:15:48,13,0,25.81,3579.5170686128,0.328084,0.223694,0.093236879624,0,0,-0.223694,333, 0.7, 0.3,0,0,1024,1024,1024,1024,331.8,-89.9,100,4.301,4.3,4.295,4.303,4.304,4.187,1.306,78.8,11,AutoTakeoff,
37.308929,-119.5776474,3579.5170686128,0.328084,0.223694,0.123890423912,3500,2018-06-16 19:15:48,14,0,25.81,3579.5170686128,0.328084,0.223694,0.123890423912,0,0,-0.223694,333, 1, 0.1,0,0,1024,1024,1024,1024,331.8,-89.9,100,4.301,4.3,4.295,4.303,4.304,4.187,1.306,78.8,11,AutoTakeoff,
37.3089291,-119.5776475,3579.8451526128,0.656168,0.223694,0.169933732472,3600,2018-06-16 19:15:48,14,0,25.81,3579.8451526128,0.656168,0.223694,0.169933732472,0,0,-0.223694,333.1, 1.1, 0,0,0,1024,1024,1024,1024,331.8,-89.9,100,4.301,4.3,4.295,4.303,4.304,4.187,1.306,78.8,11,AutoTakeoff,
37.3089291,-119.5776475,3579.8451526128,0.656168,0,0.169933732472,3700,2018-06-16 19:15:48,13,0,25.81,3579.8451526128,0.656168,0.223694,0.169933732472,0,0,0,333.1, 1.1, -0.3,0,0,1024,1024,1024,1024,331.8,-89.9,100,4.301,4.3,4.295,4.303,4.304,4.187,1.306,78.8,11,AutoTakeoff,
37.3089292,-119.5776476,3580.1732366128,0.984252,0,0.2162237602,3800,2018-06-16 19:15:48,13,0,25.81,3580.1732366128,0.984252,0.223694,0.2162237602,0,0,0,333.2, 1.1, -0.4,0,0,1024,1024,1024,1024,331.8,-89.9,100,4.301,4.3,4.295,4.303,4.304,4.187,1.306,78.8,11,AutoTakeoff,
37.3089293,-119.5776477,3580.5013206128,1.312336,0,0.262629929664,3900,2018-06-16 19:15:48,13,0,25.81,3580.5013206128,1.312336,0.223694,0.262629929664,0,0,0,333.3, 1.3, -0.3,0,0,1024,1024,1024,1024,331.8,-89.9,100,4.301,4.3,4.295,4.303,4.304,4.187,1.306,78.8,11,AutoTakeoff,
37.3089293,-119.5776478,3580.5013206128,1.312336,0,0.279710310788,4000,2018-06-16 19:15:48,13,0,25.707,3580.5013206128,1.312336,0.223694,0.279710310788,0,0,-0.223694,333.2, 1.3, 0,0,0,1024,1024,1024,1024,331.8,-89.9,100,4.128,4.115,4.256,4.269,4.299,4.264,11.28,78.8,11,AutoTakeoff,
37.3089293,-119.5776479,3580.8294046128,1.64042,0,0.298639445252,4100,2018-06-16 19:15:48,14,0,25.707,3580.8294046128,1.64042,0.223694,0.298639445252,0,0,-0.223694,333, 1.1, 0.2,0,0,1024,1024,1024,1024,331.8,-89.9,100,4.128,4.115,4.256,4.269,4.299,4.264,11.28,78.8,11,AutoTakeoff,
37.3089293,-119.577648,3580.8294046128,1.64042,0,0.319088264804,4200,2018-06-16 19:15:49,14,0,25.707,3580.8294046128,1.64042,0.223694,0.319088264804,0,0,0,332.7, 1, 0.3,0,0,1024,1024,1024,1024,331.8,-89.9,100,4.128,4.115,4.256,4.269,4.299,4.264,11.28,78.8,11,AutoTakeoff,
37.3089293,-119.5776481,3581.1574886128,1.968504,0,0.34078413164,4300,2018-06-16 19:15:49,14,0,25.707,3581.1574886128,1.968504,0.223694,0.34078413164,0,0,0,332.4, 1, 0.4,0,0,1024,1024,1024,1024,331.8,-89.9,100,4.128,4.115,4.256,4.269,4.299,4.264,11.28,78.8,11,AutoTakeoff,
37.3089293,-119.5776482,3581.1574886128,1.968504,0,0.3635006678,4400,2018-06-16 19:15:49,14,0,25.707,3581.1574886128,1.968504,0.223694,0.3635006678,0,0,-0.223694,332.3, 0.9, 0.3,0,0,1024,1024,1024,1024,331.8,-89.9,100,4.128,4.115,4.256,4.269,4.299,4.264,11.28,78.8,11,AutoTakeoff,
37.3089293,-119.5776483,3581.4855726128,2.296588,0,0.38706366068,4500,2018-06-16 19:15:49,14,0,25.707,3581.4855726128,2.296588,0.223694,0.38706366068,0,0,0,332.4, 1, 0.4,0,0,1024,1024,1024,1024,331.8,-89.9,100,4.128,4.115,4.256,4.269,4.299,4.264,11.28,78.8,11,AutoTakeoff,
37.3089293,-119.5776484,3581.4855726128,2.296588,0,0.41132219164,4600,2018-06-16 19:15:49,14,0,25.707,3581.4855726128,2.296588,0.223694,0.41132219164,0,0,0,332.5, 1.1, 0.7,0,0,1024,1024,1024,1024,331.8,-89.9,100,4.128,4.115,4.256,4.269,4.299,4.264,11.28,78.8,11,AutoTakeoff,
37.3089292,-119.5776484,3581.8136566128,2.624672,0,0.39312009132,4700,2018-06-16 19:15:49,14,0,25.707,3581.8136566128,2.624672,0.223694,0.41132219164,0,0,0,332.6, 1.2, 0.8,0,0,1024,1024,1024,1024,331.8,-89.9,100,4.128,4.115,4.256,4.269,4.299,4.264,11.28,78.8,11,AutoTakeoff,
37.3089292,-119.5776485,3581.8136566128,2.624672,0,0.41904200816,4900,2018-06-16 19:15:49,14,0,25.707,3581.8136566128,2.624672,0.223694,0.41904200816,0,0,0,332.8, 1.1, 0.7,0,0,1024,1024,1024,1024,331.8,-89.9,100,4.128,4.115,4.256,4.269,4.299,4.264,11.28,78.8,11,AutoTakeoff,
37.3089292,-119.5776485,3582.1417406128,2.952756,0,0.41904200816,5000,2018-06-16 19:15:49,14,0,24.356,3582.1417406128,2.952756,0.223694,0.41904200816,0,0,0,332.9, 1, 0.7,0,0,1024,1024,1024,1024,331.8,-89.9,100,4.046,4.041,4.052,4.054,4.135,4.118,15.76,78.8,14,Waypoint,
37.3089291,-119.5776485,3582.1417406128,2.952756,0,0.4044947636,5100,2018-06-16 19:15:49,14,0,24.356,3582.1417406128,2.952756,0.223694,0.41904200816,0,0,0,332.9, 0.9, 0.5,0,0,1024,1024,1024,1024,331.8,-89.9,100,4.046,4.041,4.052,4.054,4.135,4.118,15.76,78.8,14,Waypoint,
37.3089291,-119.5776484,3582.4698246128,3.28084,0,0.3775754714,5200,2018-06-16 19:15:50,14,0,24.356,3582.4698246128,3.28084,0.223694,0.41904200816,0,0,0,333, 0, -0.5,0,0,1024,1024,1024,1024,331.8,-90,100,4.046,4.041,4.052,4.054,4.135,4.118,15.76,78.8,14,Waypoint,
37.308929,-119.5776485,3582.7979086128,3.608924,0,0.39280841152,5310,2018-06-16 19:15:50,14,0,24.356,3582.7979086128,3.608924,0.223694,0.41904200816,0,0,0,332.9, 0, -0.2,0,0,1024,1024,1024,1024,331.8,-89.9,100,4.046,4.041,4.052,4.054,4.135,4.118,15.76,78.8,14,Waypoint,
37.308929,-119.5776485,3582.7979086128,3.608924,0,0.39280841152,5400,2018-06-16 19:15:50,14,0,24.356,3582.7979086128,3.608924,0.223694,0.41904200816,0,0,0,332.9, 0, -0.2,0,0,1024,1024,1024,1024,331.8,-89.9,100,4.046,4.041,4.052,4.054,4.135,4.118,15.76,78.8,14,Waypoint,
37.3089289,-119.5776486,3582.7979086128,3.608924,0,0.41277232292,5500,2018-06-16 19:15:50,13,0,24.356,3582.7979086128,3.608924,0.223694,0.41904200816,0,0,-0.223694,332.9, 0, -0.1,0,0,1024,1024,1024,1024,331.8,-89.9,100,4.046,4.041,4.052,4.054,4.135,4.118,15.76,78.8,14,Waypoint,
37.3089288,-119.5776487,3583.1259926128,3.937008,0,0.43681759928,5600,2018-06-16 19:15:50,13,0,24.356,3583.1259926128,3.937008,0.223694,0.43681759928,0,0,-0.223694,332.9, 0.1, 0.1,0,0,1024,1024,1024,1024,331.9,-89.9,100,4.046,4.041,4.052,4.054,4.135,4.118,15.76,78.8,14,Waypoint,
37.3089288,-119.5776489,3583.7821606128,4.593176,0,0.49467521268,5800,2018-06-16 19:15:50,13,0,24.356,3583.7821606128,4.593176,0.223694,0.49467521268,0,0,-0.223694,332.8, 0.1, 0.7,0,0,1024,1024,1024,1024,331.9,-89.9,100,4.046,4.041,4.052,4.054,4.135,4.118,15.76,78.8,14,Waypoint,
37.3089288,-119.5776489,3584.1102446128,4.92126,0,0.49467521268,5900,2018-06-16 19:15:50,13,0,24.356,3584.1102446128,4.92126,0.223694,0.49467521268,0,0,-0.223694,332.7, 0.2, 0.8,0,0,1024,1024,1024,1024,331.9,-89.9,100,4.046,4.041,4.052,4.054,4.135,4.118,15.76,78.8,14,Waypoint,
37.3089288,-119.577649,3584.7664126128,5.577428,0,0.523622064,6000,2018-06-16 19:15:50,13,0,24.222,3584.7664126128,5.577428,0.223694,0.523622064,0,0,-0.447388,332.7, 0.3, 0.7,0,0,1024,1024,1024,1024,331.9,-89.9,98,4.032,4.026,4.028,4.034,4.066,4.048,15.857,78.8,14,Waypoint,
37.3089288,-119.577649,3585.0944966128,5.905512,0,0.523622064,6100,2018-06-16 19:15:50,14,0,24.222,3585.0944966128,5.905512,0.223694,0.523622064,0,0,-0.447388,332.6, 0.3, 0.5,0,0,1024,1024,1024,1024,331.9,-89.9,98,4.032,4.026,4.028,4.034,4.066,4.048,15.857,78.8,14,Waypoint,
37.3089288,-119.577649,3585.7506646128,6.56168,0,0.523622064,6200,2018-06-16 19:15:51,14,0,24.222,3585.7506646128,6.56168,0.223694,0.523622064,0,0,-0.447388,332.5, 0.4, 0.5,0,0,1024,1024,1024,1024,331.9,-89.9,98,4.032,4.026,4.028,4.034,4.066,4.048,15.857,78.8,14,Waypoint,
37.3089289,-119.5776489,3586.4068326128,7.217848,0,0.49869752252,6300,2018-06-16 19:15:51,14,0,24.222,3586.4068326128,7.217848,0.223694,0.523622064,0,0,-0.447388,332.5, 0.6, 0.4,0,0,1024,1024,1024,1024,331.9,-89.9,98,4.032,4.026,4.028,4.034,4.066,4.048,15.857,78.8,14,Waypoint,
37.308929,-119.5776489,3587.3910846128,8.2021,0,0.50532481932,6400,2018-06-16 19:15:51,14,0,24.222,3587.3910846128,8.2021,0.223694,0.523622064,0,0,-0.447388,332.7, 0.7, 0.1,0,0,1024,1024,1024,1024,332,-89.9,98,4.032,4.026,4.028,4.034,4.066,4.048,15.857,78.8,14,Waypoint,
37.3089291,-119.5776488,3588.0472526128,8.858268,0,0.48670605232,6500,2018-06-16 19:15:51,14,0,24.222,3588.0472526128,8.858268,0.223694,0.523622064,0,0,-0.671082,332.9, 0.7, -0.2,0,0,1024,1024,1024,1024,332,-89.9,98,4.032,4.026,4.028,4.034,4.066,4.048,15.857,78.8,14,Waypoint,
37.3089292,-119.5776486,3589.0315046128,9.84252,0,0.44534778328,6600,2018-06-16 19:15:51,14,0,24.222,3589.0315046128,9.84252,0.223694,0.523622064,0,0,-0.671082,333.2, 0.7, -0.4,0,0,1024,1024,1024,1024,331.9,-89.9,98,4.032,4.026,4.028,4.034,4.066,4.048,15.857,78.8,14,Waypoint,
37.3089293,-119.5776484,3590.0157566128,10.826772,0,0.41132219164,6700,2018-06-16 19:15:51,14,0,24.222,3590.0157566128,10.826772,0.223694,0.523622064,0,0,-0.671082,333.3, 0.6, -0.5,0,0,1024,1024,1024,1024,331.9,-89.9,98,4.032,4.026,4.028,4.034,4.066,4.048,15.857,78.8,14,Waypoint,
37.3089294,-119.5776483,3591.0000086128,11.811024,0,0.40880578736,6800,2018-06-16 19:15:51,14,0,24.222,3591.0000086128,11.811024,0.223694,0.523622064,0,0,-0.671082,333.4, 0.6, -0.6,0,0,1024,1024,1024,1024,332,-89.9,98,4.032,4.026,4.028,4.034,4.066,4.048,15.857,78.8,14,Waypoint,
37.3089297,-119.577648,3593.2965966128,14.107612,0,0.4324475204,7000,2018-06-16 19:15:51,13,0,23.831,3593.2965966128,14.107612,0.223694,0.523622064,0,0,-0.671082,333.4, 0.7, -0.9,0,0,1024,1024,1024,1024,332,-89.9,98,3.962,3.952,3.943,3.952,3.95,3.974,20.244,78.8,14,Waypoint,
37.3089298,-119.5776479,3594.2808486128,15.091864,0,0.44981628736,7100,2018-06-16 19:15:51,14,0,23.831,3594.2808486128,15.091864,0.223694,0.523622064,0,0,-0.671082,333.3, 0.7, -1,0,0,1024,1024,1024,1024,332,-89.9,98,3.962,3.952,3.943,3.952,3.95,3.974,20.244,78.8,14,Waypoint,
37.3089298,-119.5776478,3595.2651006128,16.076116,0,0.43747704812,7200,2018-06-16 19:15:52,14,0,23.831,3595.2651006128,16.076116,0.223694,0.523622064,0,0,-0.671082,333.2, 0.8, -0.9,0,0,1024,1024,1024,1024,332,-89.9,98,3.962,3.952,3.943,3.952,3.95,3.974,20.244,78.8,14,Waypoint,
37.3089298,-119.5776478,3596.5774366128,17.388452,0,0.43747704812,7300,2018-06-16 19:15:52,14,0,23.831,3596.5774366128,17.388452,0.223694,0.523622064,0,0,-0.671082,333.1, 0.8, -0.7,0,0,1024,1024,1024,1024,332,-89.9,98,3.962,3.952,3.943,3.952,3.95,3.974,20.244,78.8,14,Waypoint,
37.3089298,-119.5776478,3597.5616886128,18.372704,0,0.43747704812,7500,2018-06-16 19:15:52,14,0,23.831,3597.5616886128,18.372704,0.223694,0.523622064,0,0,-0.671082,332.9, 0.7, -0.3,0,0,1024,1024,1024,1024,331.9,-89.9,98,3.962,3.952,3.943,3.952,3.95,3.974,20.244,78.8,14,Waypoint,
37.3089298,-119.5776478,3598.5459406128,19.356956,0,0.43747704812,7600,2018-06-16 19:15:52,14,0,23.831,3598.5459406128,19.356956,0.223694,0.523622064,0,0,-0.671082,332.8, 0.8, 0.1,0,0,1024,1024,1024,1024,332,-89.9,98,3.962,3.952,3.943,3.952,3.95,3.974,20.244,78.8,14,Waypoint,
37.3089298,-119.5776479,3599.5301926128,20.341208,0,0.44981628736,7700,2018-06-16 19:15:52,14,0,23.831,3599.5301926128,20.341208,0.223694,0.523622064,0,0,-0.671082,332.7, 1.1, 0.1,0,0,1024,1024,1024,1024,332,-89.9,98,3.962,3.952,3.943,3.952,3.95,3.974,20.244,78.8,14,Waypoint,
37.3089297,-119.5776481,3601.8267806128,22.637796,0,0.44869424008,7800,2018-06-16 19:15:52,14,0,23.831,3601.8267806128,22.637796,0.223694,0.523622064,0,0,-0.671082,332.9, 1.6, 0.3,0,0,1024,1024,1024,1024,332,-89.9,98,3.962,3.952,3.943,3.952,3.95,3.974,20.244,78.8,14,Waypoint,
37.3089295,-119.5776485,3603.7952846128,24.6063,0,0.47698164256,8000,2018-06-16 19:15:52,13,0,23.579,3603.7952846128,24.6063,0.223694,0.523622064,0,0,-0.671082,333.4, 1.6, 0.5,0,0,1024,1024,1024,1024,332,-89.9,98,3.962,3.952,3.943,3.952,3.95,3.974,22.788,78.8,14,Waypoint,
37.3089294,-119.5776488,3604.7795366128,25.590552,0,0.52991471512,8100,2018-06-16 19:15:52,13,0,23.579,3604.7795366128,25.590552,0.223694,0.52991471512,0,0,-0.671082,333.5, 1.5, 1,0,0,1024,1024,1024,1024,332,-89.9,98,3.962,3.952,3.943,3.952,3.95,3.974,22.788,78.8,14,Waypoint,
37.3089294,-119.5776489,3606.0918726128,26.902888,0,0.55551839048,8200,2018-06-16 19:15:53,13,0,23.579,3606.0918726128,26.902888,0.223694,0.55551839048,0,0,-0.671082,333.6, 1.5, 1.5,0,0,1024,1024,1024,1024,332,-89.9,98,3.962,3.952,3.943,3.952,3.95,3.974,22.788,78.8,14,Waypoint,
37.3089293,-119.5776491,3607.0761246128,27.88714,0,0.59323492712,8300,2018-06-16 19:15:53,14,0,23.579,3607.0761246128,27.88714,0.223694,0.59323492712,0,0,-0.671082,333.4, 1.3, 1.5,0,0,1024,1024,1024,1024,332,-89.9,98,3.962,3.952,3.943,3.952,3.95,3.974,22.788,78.8,14,Waypoint,
37.3089291,-119.5776494,3608.3884606128,29.199476,0,0.65489503408,8400,2018-06-16 19:15:53,14,0,23.579,3608.3884606128,29.199476,0.223694,0.65489503408,0,0,-0.671082,333.2, 1, 1.3,0,0,1024,1024,1024,1024,332,-89.9,98,3.962,3.952,3.943,3.952,3.95,3.974,22.788,78.8,14,Waypoint,
37.3089289,-119.5776496,3609.3727126128,30.183728,0,0.70027561296,8500,2018-06-16 19:15:53,14,0,23.579,3609.3727126128,30.183728,0.223694,0.70027561296,0,0,-0.671082,333, 1, 1.4,0,0,1024,1024,1024,1024,332,-89.9,98,3.962,3.952,3.943,3.952,3.95,3.974,22.788,78.8,14,Waypoint,
37.3089288,-119.5776498,3610.3569646128,31.16798,0,0.75538388244,8600,2018-06-16 19:15:53,14,0,23.579,3610.3569646128,31.16798,0.223694,0.75538388244,0,0,-0.671082,332.7, 1, 1.7,0,0,1024,1024,1024,1024,332,-89.9,98,3.962,3.952,3.943,3.952,3.95,3.974,22.788,78.8,14,Waypoint,
37.3089287,-119.57765,3611.6693006128,32.480316,0,0.81254267692,8700,2018-06-16 19:15:53,14,0,23.579,3611.6693006128,32.480316,0.223694,0.81254267692,0,0,-0.671082,332.6, 0.9, 1.9,0,0,1024,1024,1024,1024,332,-89.9,98,3.962,3.952,3.943,3.952,3.95,3.974,22.788,78.8,14,Waypoint,
37.3089285,-119.5776503,3612.6535526128,33.464568,0,0.90255580316,8800,2018-06-16 19:15:53,14,0,23.579,3612.6535526128,33.464568,0.223694,0.90255580316,0,0,-0.671082,332.6, 0.7, 2.2,0,0,1024,1024,1024,1024,332,-89.9,98,3.962,3.952,3.943,3.952,3.95,3.974,22.788,78.8,14,Waypoint,
37.3089283,-119.5776506,3613.6378046128,34.44882,0,0.9973917642,8900,2018-06-16 19:15:53,14,0,23.579,3613.6378046128,34.44882,0.223694,0.9973917642,0,0,-0.671082,332.6, 0.6, 2.7,0,0,1024,1024,1024,1024,332,-89.9,98,3.962,3.952,3.943,3.952,3.95,3.974,22.788,78.8,14,Waypoint,
37.3089279,-119.577651,3615.6063086128,36.417324,0,1.14070869792,9100,2018-06-16 19:15:53,14,0,23.579,3615.6063086128,36.417324,0.223694,1.14070869792,0,0,-0.671082,332.8, 0.3, 2.7,0,0,1024,1024,1024,1024,332,-90,98,3.962,3.952,3.943,3.952,3.95,3.974,22.788,78.8,14,Waypoint,
37.3089277,-119.5776512,3616.5905606128,37.401576,0,1.21676184996,9200,2018-06-16 19:15:54,14,0,23.579,3616.5905606128,37.401576,0.223694,1.21676184996,0,0,-0.671082,332.8, 0.1, 2.6,0,0,1024,1024,1024,1024,332,-90,98,3.962,3.952,3.943,3.952,3.95,3.974,22.788,78.8,14,Waypoint,
37.3089275,-119.5776515,3617.5748126128,38.385828,0,1.32241145964,9300,2018-06-16 19:15:54,14,0,23.579,3617.5748126128,38.385828,0.223694,1.32241145964,0,0,-0.671082,332.8, 0, 2.6,0,0,1024,1024,1024,1024,332,-90,98,3.962,3.952,3.943,3.952,3.95,3.974,22.788,78.8,14,Waypoint,
37.3089274,-119.5776516,3618.5590646128,39.37008,0,1.36209978112,9400,2018-06-16 19:15:54,14,0,23.579,3618.5590646128,39.37008,0.223694,1.36209978112,0,0,-0.671082,332.9, 0.1, 2.6,0,0,1024,1024,1024,1024,332,-89.9,98,3.962,3.952,3.943,3.952,3.95,3.974,22.788,78.8,14,Waypoint,
37.3089273,-119.5776517,3619.5433166128,40.354332,0,1.4022146118,9500,2018-06-16 19:15:54,13,0,23.579,3619.5433166128,40.354332,0.223694,1.4022146118,0,0,-0.671082,332.9, 0.1, 2.5,0,0,1024,1024,1024,1024,332,-89.9,98,3.962,3.952,3.943,3.952,3.95,3.974,22.788,78.8,14,Waypoint,
37.3089272,-119.5776519,3620.5275686128,41.338584,0,1.46961290792,9600,2018-06-16 19:15:54,13,0,23.579,3620.5275686128,41.338584,0.223694,1.46961290792,0,0,-0.671082,332.9, 0.1, 2.2,0,0,1024,1024,1024,1024,332,-89.9,98,3.962,3.952,3.943,3.952,3.95,3.974,22.788,78.8,14,Waypoint,
37.3089272,-119.577652,3621.5118206128,42.322836,0,1.49658141272,9700,2018-06-16 19:15:54,13,0,23.579,3621.5118206128,42.322836,0.223694,1.49658141272,0,0,-0.671082,333, 0.4, 2.1,0,0,1024,1024,1024,1024,332,-89.9,98,3.962,3.952,3.943,3.952,3.95,3.974,22.788,78.8,14,Waypoint,
37.3089271,-119.577652,3622.4960726128,43.307088,0.223694,1.51030516644,9800,2018-06-16 19:15:54,13,0,23.579,3622.4960726128,43.307088,0.223694,1.51030516644,0,0,-0.671082,333, 0.7, 1.8,0,0,1024,1024,1024,1024,332,-89.9,98,3.962,3.952,3.943,3.952,3.95,3.974,22.788,78.8,14,Waypoint,
37.3089271,-119.5776521,3623.4803246128,44.29134,0.3131716,1.53711291008,10000,2018-06-16 19:15:54,15,0,23.772,3623.4803246128,44.29134,0.3131716,1.53711291008,0,0,-0.671082,332.9, 0.9, 1.5,0,0,1024,1024,1024,1024,332,-89.9,98,3.963,3.966,3.958,3.967,3.962,3.993,18.97,78.8,14,Waypoint,
37.308927,-119.5776521,3625.4488286128,46.259844,0.3131716,1.55133535148,10100,2018-06-16 19:15:54,15,0,23.772,3625.4488286128,46.259844,0.3131716,1.55133535148,0,0,-0.671082,332.9, 1.1, 1.4,0,0,1024,1024,1024,1024,332,-89.9,98,3.963,3.966,3.958,3.967,3.962,3.993,18.97,78.8,14,Waypoint,
37.3089271,-119.577652,3626.4330806128,47.244096,0.3131716,1.51030516644,10200,2018-06-16 19:15:55,15,0,23.772,3626.4330806128,47.244096,0.3131716,1.55133535148,0,0,-0.671082,332.9, 1, 1.4,0,0,1024,1024,1024,1024,332,-89.9,98,3.963,3.966,3.958,3.967,3.962,3.993,18.97,78.8,14,Waypoint,
37.3089271,-119.5776519,3628.4015846128,49.2126,0.3131716,1.48358600548,10400,2018-06-16 19:15:55,15,0,23.772,3628.4015846128,49.2126,0.3131716,1.55133535148,0,0,-0.671082,333, 0.7, 1.2,0,0,1024,1024,1024,1024,332,-89.9,98,3.963,3.966,3.958,3.967,3.962,3.993,18.97,78.8,14,Waypoint,
37.308927,-119.5776518,3629.3858366128,50.196852,0.3131716,1.471948866,10500,2018-06-16 19:15:55,15,0,23.772,3629.3858366128,50.196852,0.3131716,1.55133535148,0,0,-0.671082,333, 0.5, 1.1,0,0,1024,1024,1024,1024,332,-90,98,3.963,3.966,3.958,3.967,3.962,3.993,18.97,78.8,14,Waypoint,
37.308927,-119.5776517,3630.3700886128,51.181104,0.3131716,1.44568246096,10600,2018-06-16 19:15:55,15,0,23.772,3630.3700886128,51.181104,0.3131716,1.55133535148,0,0,-0.671082,333, 0.2, 1.1,0,0,1024,1024,1024,1024,332,-90,98,3.963,3.966,3.958,3.967,3.962,3.993,18.97,78.8,14,Waypoint,
37.3089271,-119.5776515,3631.3543406128,52.165356,0.3131716,1.37762799684,10700,2018-06-16 19:15:55,15,0,23.772,3631.3543406128,52.165356,0.3131716,1.55133535148,0,0,-0.671082,333, 0.1, 0.9,0,0,1024,1024,1024,1024,332,-89.9,98,3.963,3.966,3.958,3.967,3.962,3.993,18.97,78.8,14,Waypoint,
37.3089272,-119.5776513,3632.3385926128,53.149608,0.4921268,1.30962602616,10800,2018-06-16 19:15:55,15,0,23.772,3632.3385926128,53.149608,0.4921268,1.55133535148,0,0,-0.671082,333, 0.1, 0.4,0,0,1024,1024,1024,1024,332,-89.9,98,3.963,3.966,3.958,3.967,3.962,3.993,18.97,78.8,14,Waypoint,
37.3089272,-119.5776511,3633.3228446128,54.13386,0.4921268,1.25712930532,10900,2018-06-16 19:15:55,15,0,23.772,3633.3228446128,54.13386,0.4921268,1.55133535148,0,0,-0.671082,333, 0.3, 0,0,0,1024,1024,1024,1024,332,-89.9,98,3.963,3.966,3.958,3.967,3.962,3.993,18.97,78.8,14,Waypoint,
37.3089273,-119.5776509,3634.3070966128,55.118112,0.4921268,1.18902234776,11000,2018-06-16 19:15:55,15,0,23.776,3634.3070966128,55.118112,0.4921268,1.55133535148,0,0,-0.671082,333, 0.4, -0.2,0,0,1024,1024,1024,1024,332,-89.9,98,3.954,3.951,3.94,3.961,3.95,3.982,18.938,80.6,14,Waypoint,
37.3089274,-119.5776507,3635.2913486128,56.102364,0.3131716,1.12096788364,11100,2018-06-16 19:15:55,15,0,23.776,3635.2913486128,56.102364,0.4921268,1.55133535148,0,0,-0.671082,333, 0.4, -0.5,0,0,1024,1024,1024,1024,332,-89.9,98,3.954,3.951,3.94,3.961,3.95,3.982,18.938,80.6,14,Waypoint,
37.3089275,-119.5776506,3636.2756006128,57.086616,0.3131716,1.07943573008,11200,2018-06-16 19:15:56,15,0,23.776,3636.2756006128,57.086616,0.4921268,1.55133535148,0,0,-0.671082,333, 0.4, -0.4,0,0,1024,1024,1024,1024,332,-89.9,98,3.954,3.951,3.94,3.961,3.95,3.982,18.938,80.6,14,Waypoint,
37.3089276,-119.5776505,3637.2598526128,58.070868,0.3131716,1.0383366474,11300,2018-06-16 19:15:56,15,0,23.776,3637.2598526128,58.070868,0.4921268,1.55133535148,0,0,-0.671082,333, 0.6, -0.2,0,0,1024,1024,1024,1024,332,-89.9,98,3.954,3.951,3.94,3.961,3.95,3.982,18.938,80.6,14,Waypoint,
37.3089277,-119.5776504,3638.2441046128,59.05512,0.3131716,0.99772312904,11400,2018-06-16 19:15:56,15,0,23.776,3638.2441046128,59.05512,0.4921268,1.55133535148,0,0,-0.671082,333, 0.8, 0.1,0,0,1024,1024,1024,1024,332,-89.9,98,3.954,3.951,3.94,3.961,3.95,3.982,18.938,80.6,14,Waypoint,
37.3089279,-119.5776502,3639.2283566128,60.039372,0.3131716,0.9182086908,11500,2018-06-16 19:15:56,15,0,23.776,3639.2283566128,60.039372,0.4921268,1.55133535148,0,0,-0.671082,333, 0.9, 0.1,0,0,1024,1024,1024,1024,332,-89.9,98,3.954,3.951,3.94,3.961,3.95,3.982,18.938,80.6,14,Waypoint,
37.308928,-119.5776501,3640.2126086128,61.023624,0.3131716,0.8794619704,11600,2018-06-16 19:15:56,15,0,23.776,3640.2126086128,61.023624,0.4921268,1.55133535148,0,0,-0.671082,333.1, 1.2, 0,0,0,1024,1024,1024,1024,332,-89.9,98,3.954,3.951,3.94,3.961,3.95,3.982,18.938,80.6,14,Waypoint,
37.3089282,-119.57765,3641.1968606128,62.007876,0.3131716,0.83276905552,11700,2018-06-16 19:15:56,15,0,23.776,3641.1968606128,62.007876,0.4921268,1.55133535148,0,0,-0.671082,333.2, 1.5, -0.3,0,0,1024,1024,1024,1024,332,-89.9,98,3.954,3.951,3.94,3.961,3.95,3.982,18.938,80.6,14,Waypoint,
37.3089283,-119.5776498,3642.1811126128,62.992128,0.3131716,0.7684875574,11800,2018-06-16 19:15:56,15,0,23.776,3642.1811126128,62.992128,0.4921268,1.55133535148,0,0,-0.671082,333.2, 1.8, -0.7,0,0,1024,1024,1024,1024,332,-89.9,98,3.954,3.951,3.94,3.961,3.95,3.982,18.938,80.6,14,Waypoint,
37.3089285,-119.5776496,3643.1653646128,63.97638,0.3131716,0.70027561296,11900,2018-06-16 19:15:56,15,0,23.776,3643.1653646128,63.97638,0.4921268,1.55133535148,0,0,-0.671082,333.2, 1.8, -1,0,0,1024,1024,1024,1024,332,-89.9,98,3.954,3.951,3.94,3.961,3.95,3.982,18.938,80.6,14,Waypoint,
37.3089286,-119.5776495,3644.1496166128,64.960632,0.3131716,0.66844162244,12000,2018-06-16 19:15:56,15,0,23.593,3644.1496166128,64.960632,0.4921268,1.55133535148,0,0,-0.671082,333, 1.9, -1.1,0,0,1024,1024,1024,1024,332,-89.9,98,3.924,3.922,3.927,3.927,3.93,3.946,20.487,80.6,14,Waypoint,
37.3089287,-119.5776494,3645.1338686128,65.944884,0.3131716,0.63842521728,12100,2018-06-16 19:15:56,15,0,23.593,3645.1338686128,65.944884,0.4921268,1.55133535148,0,0,-0.671082,332.9, 1.7, -0.9,0,0,1024,1024,1024,1024,332,-89.9,98,3.924,3.922,3.927,3.927,3.93,3.946,20.487,80.6,14,Waypoint,
37.3089288,-119.5776492,3646.1181206128,66.929136,0.223694,0.58153217084,12200,2018-06-16 19:15:57,15,0,23.593,3646.1181206128,66.929136,0.4921268,1.55133535148,0,0,-0.671082,332.8, 1.6, -0.8,0,0,1024,1024,1024,1024,332,-89.9,98,3.924,3.922,3.927,3.927,3.93,3.946,20.487,80.6,14,Waypoint,
37.308929,-119.5776489,3648.4147086128,69.225724,0,0.50532481932,12400,2018-06-16 19:15:57,15,0,23.593,3648.4147086128,69.225724,0.4921268,1.55133535148,0,0,-0.671082,332.7, 1.7, -0.5,0,0,1024,1024,1024,1024,332,-89.9,98,3.924,3.922,3.927,3.927,3.93,3.946,20.487,80.6,14,Waypoint,
37.3089291,-119.5776488,3649.3989606128,70.209976,0,0.48670605232,12500,2018-06-16 19:15:57,15,0,23.593,3649.3989606128,70.209976,0.4921268,1.55133535148,0,0,-0.671082,332.8, 1.6, -0.7,0,0,1024,1024,1024,1024,332,-89.9,98,3.924,3.922,3.927,3.927,3.93,3.946,20.487,80.6,14,Waypoint,
37.3089292,-119.5776487,3650.3832126128,71.194228,0,0.47197179988,12600,2018-06-16 19:15:57,15,0,23.593,3650.3832126128,71.194228,0.4921268,1.55133535148,0,0,-0.671082,332.8, 1.5, -0.8,0,0,1024,1024,1024,1024,332,-89.9,98,3.924,3.922,3.927,3.927,3.93,3.946,20.487,80.6,14,Waypoint,
37.3089292,-119.5776486,3651.3674646128,72.17848,0,0.44534778328,12700,2018-06-16 19:15:57,15,0,23.593,3651.3674646128,72.17848,0.4921268,1.55133535148,0,0,-0.671082,332.9, 1.4, -1,0,0,1024,1024,1024,1024,332,-89.9,98,3.924,3.922,3.927,3.927,3.93,3.946,20.487,80.6,14,Waypoint,
37.3089293,-119.5776485,3652.3517166128,73.162732,0,0.43616471212,12900,2018-06-16 19:15:57,15,0,23.593,3652.3517166128,73.162732,0.4921268,1.55133535148,0,0,-0.671082,333, 1.1, -1.2,0,0,1024,1024,1024,1024,332,-90,98,3.924,3.922,3.927,3.927,3.93,3.946,20.487,80.6,14,Waypoint,
37.3089295,-119.5776483,3654.3202206128,75.131236,0,0.43253938392,13000,2018-06-16 19:15:57,15,0,23.593,3654.3202206128,75.131236,0.4921268,1.55133535148,0,0,-0.671082,333.3, 1, -1.1,0,0,1024,1024,1024,1024,332,-89.9,98,3.924,3.922,3.927,3.927,3.93,3.946,20.487,80.6,14,Waypoint,
37.3089295,-119.5776481,3656.2887246128,77.09974,0,0.39166996004,13200,2018-06-16 19:15:58,15,0,23.593,3656.2887246128,77.09974,0.4921268,1.55133535148,0,0,-0.671082,333.3, 1.6, -0.7,0,0,1024,1024,1024,1024,332,-89.9,98,3.924,3.922,3.927,3.927,3.93,3.946,20.487,80.6,14,Waypoint,
37.3089297,-119.577648,3658.2572286128,79.068244,0,0.4324475204,13400,2018-06-16 19:15:58,15,0,23.593,3658.2572286128,79.068244,0.4921268,1.55133535148,0,0,-0.671082,333, 1.6, -0.7,0,0,1024,1024,1024,1024,332,-89.9,98,3.924,3.922,3.927,3.927,3.93,3.946,20.487,80.6,14,Waypoint,
37.3089297,-119.577648,3659.2414806128,80.052496,0,0.4324475204,13500,2018-06-16 19:15:58,15,0,23.593,3659.2414806128,80.052496,0.4921268,1.55133535148,0,0,-0.671082,332.7, 1.7, -0.7,0,0,1024,1024,1024,1024,332,-89.9,98,3.924,3.922,3.927,3.927,3.93,3.946,20.487,80.6,14,Waypoint,
37.3089297,-119.577648,3660.2257326128,81.036748,0,0.4324475204,13600,2018-06-16 19:15:58,15,0,23.593,3660.2257326128,81.036748,0.4921268,1.55133535148,0,0,-0.671082,332.5, 1.8, -0.6,0,0,1024,1024,1024,1024,332,-89.9,98,3.924,3.922,3.927,3.927,3.93,3.946,20.487,80.6,14,Waypoint,
37.3089297,-119.5776479,3661.2099846128,82.021,0,0.41758859604,13700,2018-06-16 19:15:58,15,0,23.593,3661.2099846128,82.021,0.4921268,1.55133535148,0,0,-0.671082,332.4, 1.5, -0.5,0,0,1024,1024,1024,1024,332,-89.9,98,3.924,3.922,3.927,3.927,3.93,3.946,20.487,80.6,14,Waypoint,
37.3089297,-119.5776479,3662.1942366128,83.005252,0,0.41758859604,13800,2018-06-16 19:15:58,15,0,23.593,3662.1942366128,83.005252,0.4921268,1.55133535148,0,0,-0.671082,332.4, 1.2, -0.6,0,0,1024,1024,1024,1024,332,-89.9,98,3.924,3.922,3.927,3.927,3.93,3.946,20.487,80.6,14,Waypoint,
37.3089297,-119.5776479,3663.1784886128,83.989504,0,0.41758859604,13900,2018-06-16 19:15:58,15,0,23.593,3663.1784886128,83.989504,0.4921268,1.55133535148,0,0,-0.671082,332.6, 1.2, -0.5,0,0,1024,1024,1024,1024,332,-89.9,98,3.924,3.922,3.927,3.927,3.93,3.946,20.487,80.6,14,Waypoint,
37.3089297,-119.577648,3664.1627406128,84.973756,0,0.4324475204,14000,2018-06-16 19:15:58,15,0,23.57,3664.1627406128,84.973756,0.4921268,1.55133535148,0,0,-0.671082,332.9, 1.2, -0.3,0,0,1024,1024,1024,1024,332,-90,98,3.929,3.918,3.915,3.927,3.922,3.955,20.408,80.6,14,Waypoint,
37.3089297,-119.577648,3665.1469926128,85.958008,0,0.4324475204,14100,2018-06-16 19:15:58,15,0,23.57,3665.1469926128,85.958008,0.4921268,1.55133535148,0,0,-0.671082,333.2, 0.9, -0.5,0,0,1024,1024,1024,1024,332,-90,98,3.929,3.918,3.915,3.927,3.922,3.955,20.408,80.6,14,Waypoint,
37.3089296,-119.577648,3666.1312446128,86.94226,0,0.40214240132,14200,2018-06-16 19:15:59,15,0,23.57,3666.1312446128,86.94226,0.4921268,1.55133535148,0,0,-0.671082,333.2, 0.9, -0.5,0,0,1024,1024,1024,1024,332,-90,98,3.929,3.918,3.915,3.927,3.922,3.955,20.408,80.6,14,Waypoint,
37.3089296,-119.577648,3667.1154966128,87.926512,0,0.40214240132,14300,2018-06-16 19:15:59,15,0,23.57,3667.1154966128,87.926512,0.4921268,1.55133535148,0,0,-0.671082,333, 0.9, 0,0,0,1024,1024,1024,1024,332,-89.9,98,3.929,3.918,3.915,3.927,3.922,3.955,20.408,80.6,14,Waypoint,
37.3089296,-119.5776481,3667.7716646128,88.58268,0,0.41956694256,14400,2018-06-16 19:15:59,15,0,23.57,3667.7716646128,88.58268,0.4921268,1.55133535148,0,0,-0.671082,332.8, 1.2, 0,0,0,1024,1024,1024,1024,332,-89.9,98,3.929,3.918,3.915,3.927,3.922,3.955,20.408,80.6,14,Waypoint,
37.3089296,-119.5776482,3669.0840006128,89.895016,0,0.43821851796,14500,2018-06-16 19:15:59,15,0,23.57,3669.0840006128,89.895016,0.4921268,1.55133535148,0,0,-0.671082,332.6, 1.6, 0.1,0,0,1024,1024,1024,1024,332,-89.9,98,3.929,3.918,3.915,3.927,3.922,3.955,20.408,80.6,14,Waypoint,
37.3089296,-119.5776482,3670.0682526128,90.879268,0,0.43821851796,14600,2018-06-16 19:15:59,15,0,23.57,3670.0682526128,90.879268,0.4921268,1.55133535148,0,0,-0.671082,332.4, 1.6, 0,0,0,1024,1024,1024,1024,332,-89.9,98,3.929,3.918,3.915,3.927,3.922,3.955,20.408,80.6,14,Waypoint,
37.3089295,-119.5776481,3671.0525046128,91.86352,0,0.39166996004,14700,2018-06-16 19:15:59,15,0,23.57,3671.0525046128,91.86352,0.4921268,1.55133535148,0,0,-0.671082,332.4, 1.4, -0.3,0,0,1024,1024,1024,1024,332,-89.9,98,3.929,3.918,3.915,3.927,3.922,3.955,20.408,80.6,14,Waypoint,
37.3089295,-119.5776481,3673.0210086128,93.832024,0,0.39166996004,14900,2018-06-16 19:15:59,15,0,23.57,3673.0210086128,93.832024,0.4921268,1.55133535148,0,0,-0.671082,332.5, 0.8, -0.5,0,0,1024,1024,1024,1024,332,-89.9,98,3.929,3.918,3.915,3.927,3.922,3.955,20.408,80.6,14,Waypoint,
37.3089295,-119.5776481,3674.0052606128,94.816276,0,0.39166996004,15100,2018-06-16 19:15:59,15,0,23.57,3674.0052606128,94.816276,0.4921268,1.55133535148,0,0,-0.671082,332.8, 1, -0.7,0,0,1024,1024,1024,1024,332,-89.9,98,3.929,3.918,3.915,3.927,3.922,3.955,20.408,80.6,14,Waypoint,
37.3089295,-119.5776482,3675.9737646128,96.78478,0,0.41158793968,15200,2018-06-16 19:16:00,15,0,23.57,3675.9737646128,96.78478,0.4921268,1.55133535148,0,0,-0.671082,333.2, 1, -0.5,0,0,1024,1024,1024,1024,332,-89.9,98,3.929,3.918,3.915,3.927,3.922,3.955,20.408,80.6,14,Waypoint,
37.3089294,-119.5776482,3676.9580166128,97.769032,0,0.38657153468,15300,2018-06-16 19:16:00,15,0,23.57,3676.9580166128,97.769032,0.4921268,1.55133535148,0,0,-0.671082,333.1, 0.9, -0.4,0,0,1024,1024,1024,1024,332,-89.9,98,3.929,3.918,3.915,3.927,3.922,3.955,20.408,80.6,14,Waypoint,
37.3089294,-119.5776482,3677.9422686128,98.753284,0,0.38657153468,15400,2018-06-16 19:16:00,15,0,23.57,3677.9422686128,98.753284,0.4921268,1.55133535148,0,0,-0.671082,332.9, 1, -0.3,0,0,1024,1024,1024,1024,332,-89.9,98,3.929,3.918,3.915,3.927,3.922,3.955,20.408,80.6,14,Waypoint,
37.3089293,-119.5776483,3678.9265206128,99.737536,0,0.38706366068,15500,2018-06-16 19:16:00,15,0,23.57,3678.9265206128,99.737536,0.4921268,1.55133535148,0,0,-0.671082,332.7, 1, -0.1,0,0,1024,1024,1024,1024,332,-89.9,98,3.929,3.918,3.915,3.927,3.922,3.955,20.408,80.6,14,Waypoint,
37.3089293,-119.5776483,3679.9107726128,100.721788,0,0.38706366068,15600,2018-06-16 19:16:00,15,0,23.57,3679.9107726128,100.721788,0.4921268,1.55133535148,0,0,-0.671082,332.6, 1, 0,0,0,1024,1024,1024,1024,332,-89.9,98,3.929,3.918,3.915,3.927,3.922,3.955,20.408,80.6,14,Waypoint,
37.3089293,-119.5776484,3680.8950246128,101.70604,0,0.41132219164,15700,2018-06-16 19:16:00,15,0,23.57,3680.8950246128,101.70604,0.4921268,1.55133535148,0,0,-0.671082,332.6, 1.2, 0,0,0,1024,1024,1024,1024,332,-89.9,98,3.929,3.918,3.915,3.927,3.922,3.955,20.408,80.6,14,Waypoint,
37.3089293,-119.5776485,3681.8792766128,102.690292,0,0.43616471212,15800,2018-06-16 19:16:00,15,0,23.57,3681.8792766128,102.690292,0.4921268,1.55133535148,0,0,-0.671082,332.7, 1.4, 0,0,0,1024,1024,1024,1024,332,-89.9,98,3.929,3.918,3.915,3.927,3.922,3.955,20.408,80.6,14,Waypoint,
37.3089292,-119.5776486,3682.8635286128,103.674544,0,0.44534778328,15900,2018-06-16 19:16:00,15,0,23.57,3682.8635286128,103.674544,0.4921268,1.55133535148,0,0,-0.671082,332.9, 1.5, 0.2,0,0,1024,1024,1024,1024,332,-89.9,98,3.929,3.918,3.915,3.927,3.922,3.955,20.408,80.6,14,Waypoint,
37.3089292,-119.5776486,3683.8477806128,104.658796,0,0.44534778328,16000,2018-06-16 19:16:00,15,0,23.579,3683.8477806128,104.658796,0.4921268,1.55133535148,0,0,-0.671082,333.1, 1.5, 0.2,0,0,1024,1024,1024,1024,332,-89.9,97,3.925,3.922,3.92,3.931,3.927,3.947,19.646,80.6,14,Waypoint,
37.3089291,-119.5776487,3685.1601166128,105.971132,0,0.4591043454,16100,2018-06-16 19:16:00,15,0,23.579,3685.1601166128,105.971132,0.4921268,1.55133535148,0,0,-0.671082,333.2, 1, 0.1,0,0,1024,1024,1024,1024,332,-90,97,3.925,3.922,3.92,3.931,3.927,3.947,19.646,80.6,14,Waypoint,
37.308929,-119.5776487,3686.1443686128,106.955384,0,0.44884187788,16200,2018-06-16 19:16:01,15,0,23.579,3686.1443686128,106.955384,0.4921268,1.55133535148,0,0,-0.671082,333.3, 0.8, -0.1,0,0,1024,1024,1024,1024,332,-90,97,3.925,3.922,3.92,3.931,3.927,3.947,19.646,80.6,14,Waypoint,
37.3089289,-119.5776488,3687.1286206128,107.939636,0,0.47000985756,16300,2018-06-16 19:16:01,15,0,23.579,3687.1286206128,107.939636,0.4921268,1.55133535148,0,0,-0.671082,333.5, 0.4, -0.3,0,0,1024,1024,1024,1024,332,-90,97,3.925,3.922,3.92,3.931,3.927,3.947,19.646,80.6,14,Waypoint,
37.3089288,-119.5776488,3688.1128726128,108.923888,0,0.46574148472,16400,2018-06-16 19:16:01,15,0,23.579,3688.1128726128,108.923888,0.4921268,1.55133535148,0,0,-0.671082,333.6, 0, -0.1,0,0,1024,1024,1024,1024,332,-90,97,3.925,3.922,3.92,3.931,3.927,3.947,19.646,80.6,14,Waypoint,
37.3089287,-119.5776489,3690.0813766128,110.892392,0,0.49333006828,16610,2018-06-16 19:16:01,15,0,23.579,3690.0813766128,110.892392,0.4921268,1.55133535148,0,0,-0.671082,333.4, -0.2, 0.3,0,0,1024,1024,1024,1024,332,-89.9,97,3.925,3.922,3.92,3.931,3.927,3.947,19.646,80.6,14,Waypoint,
37.3089285,-119.5776491,3691.7217966128,112.532812,0,0.55617455848,16800,2018-06-16 19:16:01,15,0,23.579,3691.7217966128,112.532812,0.4921268,1.55133535148,0,0,-0.671082,333.2, 0.5, 0.8,0,0,1024,1024,1024,1024,332,-89.9,97,3.925,3.922,3.92,3.931,3.927,3.947,19.646,80.6,14,Waypoint,
37.3089284,-119.5776493,3693.6903006128,114.501316,0,0.61915684396,17000,2018-06-16 19:16:01,15,0,23.648,3693.6903006128,114.501316,0.4921268,1.55133535148,0,0,-0.671082,333, 0.9, 1.1,0,0,1024,1024,1024,1024,332,-89.9,97,3.942,3.93,3.93,3.947,3.947,3.964,18.226,80.6,14,Waypoint,
37.3089284,-119.5776494,3694.6745526128,115.485568,0,0.64773952204,17100,2018-06-16 19:16:01,15,0,23.648,3694.6745526128,115.485568,0.4921268,1.55133535148,0,0,-0.671082,332.9, 0.9, 1.1,0,0,1024,1024,1024,1024,332,-89.9,97,3.942,3.93,3.93,3.947,3.947,3.964,18.226,80.6,14,Waypoint,
37.3089284,-119.5776494,3695.6588046128,116.46982,0,0.64773952204,17200,2018-06-16 19:16:02,15,0,23.648,3695.6588046128,116.46982,0.4921268,1.55133535148,0,0,-0.671082,332.9, 0.9, 1,0,0,1024,1024,1024,1024,332,-89.9,97,3.942,3.93,3.93,3.947,3.947,3.964,18.226,80.6,14,Waypoint,
37.3089284,-119.5776495,3696.6430566128,117.454072,0,0.6763615702,17300,2018-06-16 19:16:02,15,0,23.648,3696.6430566128,117.454072,0.4921268,1.55133535148,0,0,-0.671082,332.8, 0.8, 0.9,0,0,1024,1024,1024,1024,332,-89.9,97,3.942,3.93,3.93,3.947,3.947,3.964,18.226,80.6,14,Waypoint,
37.3089284,-119.5776495,3697.6273086128,118.438324,0,0.6763615702,17400,2018-06-16 19:16:02,15,0,23.648,3697.6273086128,118.438324,0.4921268,1.55133535148,0,0,-0.671082,332.9, 0.7, 0.5,0,0,1024,1024,1024,1024,332,-89.9,97,3.942,3.93,3.93,3.947,3.947,3.964,18.226,80.6,14,Waypoint,
37.3089284,-119.5776495,3698.6115606128,119.422576,0,0.6763615702,17500,2018-06-16 19:16:02,15,0,23.648,3698.6115606128,119.422576,0.4921268,1.55133535148,0,0,-0.671082,333, 0.8, 0.1,0,0,1024,1024,1024,1024,332,-89.9,97,3.942,3.93,3.93,3.947,3.947,3.964,18.226,80.6,14,Waypoint,
37.3089283,-119.5776495,3699.5958126128,120.406828,0,0.68321524496,17600,2018-06-16 19:16:02,15,0,23.648,3699.5958126128,120.406828,0.4921268,1.55133535148,0,0,-0.671082,333.1, 1, 0,0,0,1024,1024,1024,1024,332,-89.9,97,3.942,3.93,3.93,3.947,3.947,3.964,18.226,80.6,14,Waypoint,
37.3089283,-119.5776495,3700.5800646128,121.39108,0,0.68321524496,17700,2018-06-16 19:16:02,15,0,23.648,3700.5800646128,121.39108,0.4921268,1.55133535148,0,0,-0.671082,333.1, 0.8, 0,0,0,1024,1024,1024,1024,332,-89.9,97,3.942,3.93,3.93,3.947,3.947,3.964,18.226,80.6,14,Waypoint,
37.3089283,-119.5776495,3701.5643166128,122.375332,0,0.68321524496,17800,2018-06-16 19:16:02,15,0,23.648,3701.5643166128,122.375332,0.4921268,1.55133535148,0,0,-0.671082,333, 0.5, 0.3,0,0,1024,1024,1024,1024,332,-89.9,97,3.942,3.93,3.93,3.947,3.947,3.964,18.226,80.6,14,Waypoint,
37.3089283,-119.5776495,3702.5485686128,123.359584,0,0.68321524496,17900,2018-06-16 19:16:02,15,0,23.648,3702.5485686128,123.359584,0.4921268,1.55133535148,0,0,-0.671082,332.8, 0.6, 0.5,0,0,1024,1024,1024,1024,332,-89.9,97,3.942,3.93,3.93,3.947,3.947,3.964,18.226,80.6,14,Waypoint,
37.3089283,-119.5776495,3703.5328206128,124.343836,0,0.68321524496,18000,2018-06-16 19:16:02,15,0,23.624,3703.5328206128,124.343836,0.4921268,1.55133535148,0,0,-0.671082,332.7, 0.6, 0.3,0,0,1024,1024,1024,1024,332,-89.9,97,3.927,3.933,3.926,3.936,3.941,3.963,18.145,80.6,14,Waypoint,
37.3089283,-119.5776494,3704.5170726128,125.328088,0,0.65489503408,18100,2018-06-16 19:16:02,15,0,23.624,3704.5170726128,125.328088,0.4921268,1.55133535148,0,0,-0.671082,332.7, 0.5, 0,0,0,1024,1024,1024,1024,332,-89.9,97,3.927,3.933,3.926,3.936,3.941,3.963,18.145,80.6,14,Waypoint,
37.3089283,-119.5776494,3705.5013246128,126.31234,0,0.65489503408,18200,2018-06-16 19:16:03,15,0,23.624,3705.5013246128,126.31234,0.4921268,1.55133535148,0,0,-0.671082,332.6, 0.3, -0.2,0,0,1024,1024,1024,1024,332,-89.9,97,3.927,3.933,3.926,3.936,3.941,3.963,18.145,80.6,14,Waypoint,
37.3089283,-119.5776494,3706.4855766128,127.296592,0,0.65489503408,18300,2018-06-16 19:16:03,15,0,23.624,3706.4855766128,127.296592,0.4921268,1.55133535148,0,0,-0.671082,332.6, 0.2, 0,0,0,1024,1024,1024,1024,332,-89.9,97,3.927,3.933,3.926,3.936,3.941,3.963,18.145,80.6,14,Waypoint,
37.3089283,-119.5776494,3707.4698286128,128.280844,0,0.65489503408,18400,2018-06-16 19:16:03,15,0,23.624,3707.4698286128,128.280844,0.4921268,1.55133535148,0,0,-0.671082,332.5, 0.4, 0.1,0,0,1024,1024,1024,1024,332,-89.9,97,3.927,3.933,3.926,3.936,3.941,3.963,18.145,80.6,14,Waypoint,
37.3089283,-119.5776494,3708.4540806128,129.265096,0,0.65489503408,18510,2018-06-16 19:16:03,15,0,23.624,3708.4540806128,129.265096,0.4921268,1.55133535148,0,0,-0.671082,332.6, 0.7, 0,0,0,1024,1024,1024,1024,332,-89.9,97,3.927,3.933,3.926,3.936,3.941,3.963,18.145,80.6,14,Waypoint,
37.3089283,-119.5776494,3708.4540806128,129.265096,0,0.65489503408,18600,2018-06-16 19:16:03,15,0,23.624,3708.4540806128,129.265096,0.4921268,1.55133535148,0,0,-0.671082,332.6, 0.7, 0,0,0,1024,1024,1024,1024,332,-89.9,97,3.927,3.933,3.926,3.936,3.941,3.963,18.145,80.6,14,Waypoint,
37.3089284,-119.5776493,3710.4225846128,131.2336,0.223694,0.61915684396,18700,2018-06-16 19:16:03,15,0,23.624,3710.4225846128,131.2336,0.4921268,1.55133535148,0,0,-0.671082,332.7, 1, -0.6,0,0,1024,1024,1024,1024,332,-89.9,97,3.927,3.933,3.926,3.936,3.941,3.963,18.145,80.6,14,Waypoint,
37.3089285,-119.5776493,3711.4068366128,132.217852,0.223694,0.61375986216,18900,2018-06-16 19:16:03,15,0,23.624,3711.4068366128,132.217852,0.4921268,1.55133535148,0,0,-0.671082,332.7, 1.1, -0.5,0,0,1024,1024,1024,1024,332,-89.9,97,3.927,3.933,3.926,3.936,3.941,3.963,18.145,80.6,14,Waypoint,
37.3089285,-119.5776492,3712.3910886128,133.202104,0.223694,0.5849573678,19000,2018-06-16 19:16:03,15,0,23.612,3712.3910886128,133.202104,0.4921268,1.55133535148,0,0,-0.671082,332.7, 1.6, -0.6,0,0,1024,1024,1024,1024,332,-89.9,97,3.927,3.933,3.926,3.936,3.941,3.963,18.141,80.6,14,Waypoint,
37.3089286,-119.5776492,3713.3753406128,134.186356,0.223694,0.58153217084,19100,2018-06-16 19:16:03,15,0,23.612,3713.3753406128,134.186356,0.4921268,1.55133535148,0,0,-0.671082,332.7, 2.3, -0.9,0,0,1024,1024,1024,1024,332,-89.9,97,3.927,3.933,3.926,3.936,3.941,3.963,18.141,80.6,14,Waypoint,
37.3089288,-119.577649,3715.3438446128,136.15486,0.3131716,0.523622064,19200,2018-06-16 19:16:04,15,0,23.612,3715.3438446128,136.15486,0.4921268,1.55133535148,0,0,-0.671082,332.9, 1.5, -1.7,0,0,1024,1024,1024,1024,332,-89.9,97,3.927,3.933,3.926,3.936,3.941,3.963,18.141,80.6,14,Waypoint,
37.3089289,-119.5776489,3716.3280966128,137.139112,0.223694,0.49869752252,19300,2018-06-16 19:16:04,15,0,23.612,3716.3280966128,137.139112,0.4921268,1.55133535148,0,0,-0.671082,333, 1.8, -2,0,0,1024,1024,1024,1024,332,-89.9,97,3.927,3.933,3.926,3.936,3.941,3.963,18.141,80.6,14,Waypoint,
37.308929,-119.5776488,3717.3123486128,138.123364,0.223694,0.47703741684,19400,2018-06-16 19:16:04,15,0,23.612,3717.3123486128,138.123364,0.4921268,1.55133535148,0,0,-0.671082,333, 2.1, -2.1,0,0,1024,1024,1024,1024,332,-89.9,97,3.927,3.933,3.926,3.936,3.941,3.963,18.141,80.6,14,Waypoint,
37.3089291,-119.5776488,3718.2966006128,139.107616,0.223694,0.48670605232,19500,2018-06-16 19:16:04,15,0,23.612,3718.2966006128,139.107616,0.4921268,1.55133535148,0,0,-0.671082,333, 2.4, -1.5,0,0,1024,1024,1024,1024,332,-89.9,97,3.927,3.933,3.926,3.936,3.941,3.963,18.141,80.6,14,Waypoint,
37.3089292,-119.5776487,3719.2808526128,140.091868,0.223694,0.47197179988,19600,2018-06-16 19:16:04,15,0,23.612,3719.2808526128,140.091868,0.4921268,1.55133535148,0,0,-0.671082,332.9, 2.6, -1.5,0,0,1024,1024,1024,1024,332,-89.9,97,3.927,3.933,3.926,3.936,3.941,3.963,18.141,80.6,14,Waypoint,
37.3089293,-119.5776487,3720.2651046128,141.07612,0.223694,0.4872375484,19700,2018-06-16 19:16:04,15,0,23.612,3720.2651046128,141.07612,0.4921268,1.55133535148,0,0,-0.671082,332.8, 2.8, -1.4,0,0,1024,1024,1024,1024,332,-89.9,97,3.927,3.933,3.926,3.936,3.941,3.963,18.141,80.6,14,Waypoint,
37.3089294,-119.5776486,3721.2493566128,142.060372,0.223694,0.47987862428,19800,2018-06-16 19:16:04,15,0,23.612,3721.2493566128,142.060372,0.4921268,1.55133535148,0,0,-0.671082,332.8, 2.4, -1.6,0,0,1024,1024,1024,1024,332,-89.9,97,3.927,3.933,3.926,3.936,3.941,3.963,18.141,80.6,14,Waypoint,
37.3089295,-119.5776486,3722.2336086128,143.044624,0.223694,0.50024935984,19900,2018-06-16 19:16:04,15,0,23.612,3722.2336086128,143.044624,0.4921268,1.55133535148,0,0,-0.671082,332.8, 2.1, -2.2,0,0,1024,1024,1024,1024,332,-89.9,97,3.927,3.933,3.926,3.936,3.941,3.963,18.141,80.6,14,Waypoint,
37.3089296,-119.5776485,3723.2178606128,144.028876,0.223694,0.50014109212,20000,2018-06-16 19:16:04,15,0,23.599,3723.2178606128,144.028876,0.4921268,1.55133535148,0,0,-0.671082,332.7, 2.2, -2.6,0,0,1024,1024,1024,1024,332,-89.9,97,3.928,3.92,3.927,3.929,3.935,3.951,18.285,80.6,14,Waypoint,
37.3089297,-119.5776485,3724.2021126128,145.013128,0.223694,0.5248195706,20100,2018-06-16 19:16:04,15,0,23.599,3724.2021126128,145.013128,0.4921268,1.55133535148,0,0,-0.671082,332.7, 2.6, -2.5,0,0,1024,1024,1024,1024,332,-89.9,97,3.928,3.92,3.927,3.929,3.935,3.951,18.285,80.6,14,Waypoint,
37.3089298,-119.5776485,3725.1863646128,145.99738,0.223694,0.55080710424,20200,2018-06-16 19:16:05,15,0,23.599,3725.1863646128,145.99738,0.4921268,1.55133535148,0,0,-0.671082,332.8, 3, -2.4,0,0,1024,1024,1024,1024,332,-89.9,97,3.928,3.92,3.927,3.929,3.935,3.951,18.285,80.6,14,Waypoint,
37.3089299,-119.5776484,3726.1706166128,146.981632,0.223694,0.55941930924,20300,2018-06-16 19:16:05,15,0,23.599,3726.1706166128,146.981632,0.4921268,1.55133535148,0,0,-0.671082,333, 3.1, -2.3,0,0,1024,1024,1024,1024,332,-89.9,97,3.928,3.92,3.927,3.929,3.935,3.951,18.285,80.6,14,Waypoint,
37.30893,-119.5776484,3727.4829526128,148.293968,0.223694,0.58841209232,20400,2018-06-16 19:16:05,15,0,23.599,3727.4829526128,148.293968,0.4921268,1.55133535148,0,0,-0.671082,333.1, 3.1, -2.1,0,0,1024,1024,1024,1024,332,-89.9,97,3.928,3.92,3.927,3.929,3.935,3.951,18.285,80.6,14,Waypoint,
37.3089301,-119.5776485,3728.4672046128,149.27822,0.223694,0.63500002032,20510,2018-06-16 19:16:05,15,0,23.599,3728.4672046128,149.27822,0.4921268,1.55133535148,0,0,-0.671082,333.2, 3.2, -1.7,0,0,1024,1024,1024,1024,332,-89.9,97,3.928,3.92,3.927,3.929,3.935,3.951,18.285,80.6,14,Waypoint,
37.3089302,-119.5776485,3729.4514566128,150.262472,0,0.66470146484,20600,2018-06-16 19:16:05,15,0,23.599,3729.4514566128,150.262472,0.4921268,1.55133535148,0,0,-0.671082,333.2, 3.3, -1.8,0,0,1024,1024,1024,1024,332,-89.9,97,3.928,3.92,3.927,3.929,3.935,3.951,18.285,80.6,14,Waypoint,
37.3089303,-119.5776485,3730.4357086128,151.246724,0,0.69504923484,20700,2018-06-16 19:16:05,15,0,23.599,3730.4357086128,151.246724,0.4921268,1.55133535148,0,0,-0.671082,333.2, 3.4, -1.9,0,0,1024,1024,1024,1024,332,-89.9,97,3.928,3.92,3.927,3.929,3.935,3.951,18.285,80.6,14,Waypoint,
37.3089304,-119.5776485,3731.4199606128,152.230976,0,0.72596130932,20800,2018-06-16 19:16:05,15,0,23.599,3731.4199606128,152.230976,0.4921268,1.55133535148,0,0,-0.671082,333.1, 3.3, -1.7,0,0,1024,1024,1024,1024,332,-89.9,97,3.928,3.92,3.927,3.929,3.935,3.951,18.285,80.6,14,Waypoint,
37.3089304,-119.5776486,3732.4042126128,153.215228,0,0.74145671664,20900,2018-06-16 19:16:05,15,0,23.599,3732.4042126128,153.215228,0.4921268,1.55133535148,0,0,-0.671082,333, 3.5, -1.6,0,0,1024,1024,1024,1024,332,-89.9,97,3.928,3.92,3.927,3.929,3.935,3.951,18.285,80.6,14,Waypoint,
37.3089305,-119.5776486,3733.3884646128,154.19948,0,0.77223755752,21000,2018-06-16 19:16:05,15,0,23.599,3733.3884646128,154.19948,0.4921268,1.55133535148,0,0,-0.671082,332.9, 3.5, -1.5,0,0,1024,1024,1024,1024,332,-89.9,97,3.928,3.92,3.927,3.929,3.935,3.951,18.198,80.6,14,Waypoint,
37.3089307,-119.5776487,3735.0288846128,155.8399,0.223694,0.84966866236,21200,2018-06-16 19:16:06,15,0,23.599,3735.0288846128,155.8399,0.4921268,1.55133535148,0,0,-0.671082,332.6, 3.8, -2,0,0,1024,1024,1024,1024,332,-89.9,97,3.928,3.92,3.927,3.929,3.935,3.951,18.198,80.6,14,Waypoint,
37.3089308,-119.5776488,3736.0131366128,156.824152,0,0.89589241712,21300,2018-06-16 19:16:06,15,0,23.599,3736.0131366128,156.824152,0.4921268,1.55133535148,0,0,-0.671082,332.5, 4.1, -2.2,0,0,1024,1024,1024,1024,332,-89.9,97,3.928,3.92,3.927,3.929,3.935,3.951,18.198,80.6,14,Waypoint,
37.3089309,-119.5776488,3736.9973886128,157.808404,0,0.92728677508,21400,2018-06-16 19:16:06,15,0,23.599,3736.9973886128,157.808404,0.4921268,1.55133535148,0,0,-0.671082,332.5, 4.1, -2.1,0,0,1024,1024,1024,1024,332,-89.9,97,3.928,3.92,3.927,3.929,3.935,3.951,18.198,80.6,14,Waypoint,
37.308931,-119.5776488,3737.9816406128,158.792656,0,0.95904202544,21500,2018-06-16 19:16:06,15,0,23.599,3737.9816406128,158.792656,0.4921268,1.55133535148,0,0,-0.671082,332.5, 4, -2.1,0,0,1024,1024,1024,1024,332,-89.9,97,3.928,3.92,3.927,3.929,3.935,3.951,18.198,80.6,14,Waypoint,
37.308931,-119.5776488,3738.9658926128,159.776908,0,0.95904202544,21600,2018-06-16 19:16:06,15,0,23.599,3738.9658926128,159.776908,0.4921268,1.55133535148,0,0,-0.671082,332.7, 3.7, -2.3,0,0,1024,1024,1024,1024,332,-89.9,97,3.928,3.92,3.927,3.929,3.935,3.951,18.198,80.6,14,Waypoint,
37.308931,-119.5776487,3739.9501446128,160.76116,0,0.94533467592,21700,2018-06-16 19:16:06,15,0,23.599,3739.9501446128,160.76116,0.4921268,1.55133535148,0,0,-0.671082,333, 3.4, -2.8,0,0,1024,1024,1024,1024,332,-89.9,97,3.928,3.92,3.927,3.929,3.935,3.951,18.198,80.6,14,Waypoint,
37.3089311,-119.5776487,3740.9343966128,161.745412,0,0.97786420452,21800,2018-06-16 19:16:06,15,0,23.599,3740.9343966128,161.745412,0.4921268,1.55133535148,0,0,-0.671082,333.3, 3.4, -2.8,0,0,1024,1024,1024,1024,332,-89.9,97,3.928,3.92,3.927,3.929,3.935,3.951,18.198,80.6,14,Waypoint,
37.3089311,-119.5776487,3741.9186486128,162.729664,0,0.97786420452,21900,2018-06-16 19:16:06,15,0,23.599,3741.9186486128,162.729664,0.4921268,1.55133535148,0,0,-0.671082,333.3, 3.5, -2.6,0,0,1024,1024,1024,1024,332,-89.9,97,3.928,3.92,3.927,3.929,3.935,3.951,18.198,80.6,14,Waypoint,
37.3089311,-119.5776487,3742.9029006128,163.713916,0,0.97786420452,22000,2018-06-16 19:16:06,15,0,23.607,3742.9029006128,163.713916,0.4921268,1.55133535148,0,0,-0.671082,333.2, 3.5, -2.3,0,0,1024,1024,1024,1024,332,-89.9,97,3.929,3.938,3.919,3.925,3.93,3.953,17.885,82.4,14,Waypoint,
37.3089312,-119.5776488,3743.8871526128,164.698168,0,1.02350068892,22100,2018-06-16 19:16:06,15,0,23.607,3743.8871526128,164.698168,0.4921268,1.55133535148,0,0,-0.671082,333.1, 3.5, -2.2,0,0,1024,1024,1024,1024,332,-89.9,97,3.929,3.938,3.919,3.925,3.93,3.953,17.885,82.4,14,Waypoint,
37.3089312,-119.5776489,3744.8714046128,165.68242,0,1.03698822216,22200,2018-06-16 19:16:07,15,0,23.607,3744.8714046128,165.68242,0.4921268,1.55133535148,0,0,-0.671082,333, 3.8, -2.2,0,0,1024,1024,1024,1024,332,-89.9,97,3.929,3.938,3.919,3.925,3.93,3.953,17.885,82.4,14,Waypoint,
37.3089313,-119.5776489,3745.8556566128,166.666672,0,1.06921919432,22300,2018-06-16 19:16:07,15,0,23.607,3745.8556566128,166.666672,0.4921268,1.55133535148,0,0,-0.671082,332.8, 4.1, -2,0,0,1024,1024,1024,1024,332,-89.9,97,3.929,3.938,3.919,3.925,3.93,3.953,17.885,82.4,14,Waypoint,
37.3089313,-119.577649,3746.8399086128,167.650924,0,1.08291670132,22400,2018-06-16 19:16:07,15,0,23.607,3746.8399086128,167.650924,0.4921268,1.55133535148,0,0,-0.671082,332.7, 4.2, -2.1,0,0,1024,1024,1024,1024,332,-89.9,97,3.929,3.938,3.919,3.925,3.93,3.953,17.885,82.4,14,Waypoint,
37.3089313,-119.5776491,3747.8241606128,168.635176,0,1.09720804036,22500,2018-06-16 19:16:07,15,0,23.607,3747.8241606128,168.635176,0.4921268,1.55133535148,0,0,-0.671082,332.5, 4.5, -1.7,0,0,1024,1024,1024,1024,332,-89.9,97,3.929,3.938,3.919,3.925,3.93,3.953,17.885,82.4,14,Waypoint,
37.3089313,-119.5776491,3748.8084126128,169.619428,0,1.09720804036,22600,2018-06-16 19:16:07,15,0,23.607,3748.8084126128,169.619428,0.4921268,1.55133535148,0,0,-0.671082,332.5, 4.6, -1.5,0,0,1024,1024,1024,1024,332,-89.9,97,3.929,3.938,3.919,3.925,3.93,3.953,17.885,82.4,14,Waypoint,
37.3089313,-119.5776492,3749.7926646128,170.60368,0,1.1120735264,22700,2018-06-16 19:16:07,15,0,23.607,3749.7926646128,170.60368,0.4921268,1.55133535148,0,0,-0.671082,332.5, 4.4, -1.5,0,0,1024,1024,1024,1024,332,-89.9,97,3.929,3.938,3.919,3.925,3.93,3.953,17.885,82.4,14,Waypoint,
37.3089313,-119.5776492,3750.7769166128,171.587932,0,1.1120735264,22800,2018-06-16 19:16:07,15,0,23.607,3750.7769166128,171.587932,0.4921268,1.55133535148,0,0,-0.671082,332.5, 4.1, -1.4,0,0,1024,1024,1024,1024,332,-89.9,97,3.929,3.938,3.919,3.925,3.93,3.953,17.885,82.4,14,Waypoint,
37.3089313,-119.5776493,3751.4330846128,172.2441,0,1.12749019356,22900,2018-06-16 19:16:07,15,0,23.607,3751.4330846128,172.2441,0.4921268,1.55133535148,0,0,-0.671082,332.7, 4, -1.5,0,0,1024,1024,1024,1024,332,-89.9,97,3.929,3.938,3.919,3.925,3.93,3.953,17.885,82.4,14,Waypoint,
37.3089312,-119.5776493,3754.7139246128,175.52494,0,1.09697181988,23200,2018-06-16 19:16:08,15,0,23.607,3754.7139246128,175.52494,0.4921268,1.55133535148,0,0,-0.671082,333.3, 4.1, -1.4,0,0,1024,1024,1024,1024,332,-89.9,97,3.929,3.938,3.919,3.925,3.93,3.953,17.885,82.4,14,Waypoint,
37.3089311,-119.5776494,3756.6824286128,177.493444,0,1.08366473284,23400,2018-06-16 19:16:08,15,0,23.607,3756.6824286128,177.493444,0.4921268,1.55133535148,0,0,-0.671082,333.9, 4.1, -1.1,0,0,1024,1024,1024,1024,332,-89.9,97,3.929,3.938,3.919,3.925,3.93,3.953,17.885,82.4,14,Waypoint,
37.3089311,-119.5776495,3757.6666806128,178.477696,0,1.10101053392,23500,2018-06-16 19:16:08,15,0,23.607,3757.6666806128,178.477696,0.4921268,1.55133535148,0,0,-0.671082,334.1, 3.9, -0.9,0,0,1024,1024,1024,1024,332,-90,97,3.929,3.938,3.919,3.925,3.93,3.953,17.885,82.4,14,Waypoint,
37.3089309,-119.5776496,3759.6351846128,180.4462,0,1.06270344608,23700,2018-06-16 19:16:08,15,0,23.607,3759.6351846128,180.4462,0.4921268,1.55133535148,0,0,-0.671082,333.9, 3.2, -0.4,0,0,1024,1024,1024,1024,332,-89.9,97,3.929,3.938,3.919,3.925,3.93,3.953,17.885,82.4,14,Waypoint,
37.3089308,-119.5776496,3760.6194366128,181.430452,0,1.03542326148,23800,2018-06-16 19:16:08,15,0,23.607,3760.6194366128,181.430452,0.4921268,1.55133535148,0,0,-0.671082,333.6, 3.1, -0.3,0,0,1024,1024,1024,1024,332,-89.9,97,3.929,3.938,3.919,3.925,3.93,3.953,17.885,82.4,14,Waypoint,
37.3089307,-119.5776497,3761.6036886128,182.414704,0,1.02897313004,23900,2018-06-16 19:16:08,15,0,23.607,3761.6036886128,182.414704,0.4921268,1.55133535148,0,0,-0.671082,333.2, 3.2, -0.3,0,0,1024,1024,1024,1024,332,-89.9,97,3.929,3.938,3.919,3.925,3.93,3.953,17.885,82.4,14,Waypoint,
37.3089306,-119.5776497,3762.5879406128,183.398956,0,1.00343179064,24000,2018-06-16 19:16:08,15,0,23.49,3762.5879406128,183.398956,0.4921268,1.55133535148,0,0,-0.671082,332.8, 3.1, -0.1,0,0,1024,1024,1024,1024,332,-89.9,97,3.912,3.907,3.911,3.921,3.924,3.939,18.826,82.4,14,Waypoint,
37.3089305,-119.5776498,3763.5721926128,184.383208,0,1.00028546508,24100,2018-06-16 19:16:08,15,0,23.49,3763.5721926128,184.383208,0.4921268,1.55133535148,0,0,-0.671082,332.5, 3.2, 0,0,0,1024,1024,1024,1024,332,-89.9,97,3.912,3.907,3.911,3.921,3.924,3.939,18.826,82.4,14,Waypoint,
37.3089304,-119.5776498,3764.5564446128,185.36746,0,0.97671919136,24200,2018-06-16 19:16:09,15,0,23.49,3764.5564446128,185.36746,0.4921268,1.55133535148,0,0,-0.671082,332.4, 3.3, 0,0,0,1024,1024,1024,1024,332,-89.9,97,3.912,3.907,3.911,3.921,3.924,3.939,18.826,82.4,14,Waypoint,
37.3089303,-119.5776498,3765.5406966128,186.351712,0,0.95396656596,24300,2018-06-16 19:16:09,15,0,23.49,3765.5406966128,186.351712,0.4921268,1.55133535148,0,0,-0.671082,332.3, 3.2, -0.2,0,0,1024,1024,1024,1024,332,-89.9,97,3.912,3.907,3.911,3.921,3.924,3.939,18.826,82.4,14,Waypoint,
37.3089303,-119.5776499,3766.5249486128,187.335964,0,0.97708008376,24400,2018-06-16 19:16:09,15,0,23.49,3766.5249486128,187.335964,0.4921268,1.55133535148,0,0,-0.671082,332.3, 3, -0.3,0,0,1024,1024,1024,1024,332,-89.9,97,3.912,3.907,3.911,3.921,3.924,3.939,18.826,82.4,14,Waypoint,
37.3089302,-119.5776499,3767.5092006128,188.320216,0,0.95572837704,24500,2018-06-16 19:16:09,15,0,23.49,3767.5092006128,188.320216,0.4921268,1.55133535148,0,0,-0.671082,332.4, 3, -0.3,0,0,1024,1024,1024,1024,332,-89.9,97,3.912,3.907,3.911,3.921,3.924,3.939,18.826,82.4,14,Waypoint,
37.3089301,-119.5776499,3768.4934526128,189.304468,0,0.93531499056,24600,2018-06-16 19:16:09,15,0,23.49,3768.4934526128,189.304468,0.4921268,1.55133535148,0,0,-0.671082,332.4, 2.9, -0.4,0,0,1024,1024,1024,1024,332,-89.9,97,3.912,3.907,3.911,3.921,3.924,3.939,18.826,82.4,14,Waypoint,
37.30893,-119.5776499,3769.4777046128,190.28872,0,0.91589897944,24700,2018-06-16 19:16:09,15,0,23.49,3769.4777046128,190.28872,0.4921268,1.55133535148,0,0,-0.671082,332.5, 2.6, -0.6,0,0,1024,1024,1024,1024,332,-89.9,97,3.912,3.907,3.911,3.921,3.924,3.939,18.826,82.4,14,Waypoint,
37.3089299,-119.5776499,3770.4619566128,191.272972,0,0.89754924132,24800,2018-06-16 19:16:09,15,0,23.49,3770.4619566128,191.272972,0.4921268,1.55133535148,0,0,-0.671082,332.4, 2.5, -0.6,0,0,1024,1024,1024,1024,332,-89.9,97,3.912,3.907,3.911,3.921,3.924,3.939,18.826,82.4,14,Waypoint,
37.3089298,-119.57765,3771.4462086128,192.257224,0,0.90625330984,24900,2018-06-16 19:16:09,15,0,23.49,3771.4462086128,192.257224,0.4921268,1.55133535148,0,0,-0.671082,332.4, 2.5, -0.2,0,0,1024,1024,1024,1024,332,-89.9,97,3.912,3.907,3.911,3.921,3.924,3.939,18.826,82.4,14,Waypoint,
37.3089296,-119.57765,3773.4147126128,194.225728,0,0.87638454248,25100,2018-06-16 19:16:09,15,0,23.49,3773.4147126128,194.225728,0.4921268,1.55133535148,0,0,-0.671082,332.3, 1.9, 0.5,0,0,1024,1024,1024,1024,332,-89.9,97,3.912,3.907,3.911,3.921,3.924,3.939,18.826,82.4,14,Waypoint,
37.3089295,-119.57765,3774.3989646128,195.20998,0,0.86337601188,25200,2018-06-16 19:16:10,15,0,23.49,3774.3989646128,195.20998,0.4921268,1.55133535148,0,0,-0.671082,332.3, 2, 0.4,0,0,1024,1024,1024,1024,332,-89.9,97,3.912,3.907,3.911,3.921,3.924,3.939,18.826,82.4,14,Waypoint,
37.3089294,-119.57765,3775.3832166128,196.194232,0,0.85173559156,25300,2018-06-16 19:16:10,15,0,23.49,3775.3832166128,196.194232,0.4921268,1.55133535148,0,0,-0.671082,332.3, 2.2, 0.2,0,0,1024,1024,1024,1024,332,-89.9,97,3.912,3.907,3.911,3.921,3.924,3.939,18.826,82.4,14,Waypoint,
37.3089294,-119.57765,3776.3674686128,197.178484,0,0.85173559156,25400,2018-06-16 19:16:10,15,0,23.49,3776.3674686128,197.178484,0.4921268,1.55133535148,0,0,-0.671082,332.4, 2.4, 0,0,0,1024,1024,1024,1024,332,-89.9,97,3.912,3.907,3.911,3.921,3.924,3.939,18.826,82.4,14,Waypoint,
37.3089293,-119.57765,3777.3517206128,198.162736,0,0.84151249412,25600,2018-06-16 19:16:10,15,0,23.49,3777.3517206128,198.162736,0.4921268,1.55133535148,0,0,-0.671082,332.7, 2.2, 0.1,0,0,1024,1024,1024,1024,332,-89.9,97,3.912,3.907,3.911,3.921,3.924,3.939,18.826,82.4,14,Waypoint,
37.3089292,-119.57765,3778.3359726128,199.146988,0,0.83276905552,25700,2018-06-16 19:16:10,15,0,23.49,3778.3359726128,199.146988,0.4921268,1.55133535148,0,0,-0.671082,332.9, 2.1, 0.2,0,0,1024,1024,1024,1024,332,-89.9,97,3.912,3.907,3.911,3.921,3.924,3.939,18.826,82.4,14,Waypoint,
37.308929,-119.57765,3780.3044766128,201.115492,0,0.819881916,25800,2018-06-16 19:16:10,15,0,23.49,3780.3044766128,201.115492,0.4921268,1.55133535148,0,0,-0.671082,333.3, 2, 0.4,0,0,1024,1024,1024,1024,332,-90,97,3.912,3.907,3.911,3.921,3.924,3.939,18.826,82.4,14,Waypoint,
37.308929,-119.57765,3781.2887286128,202.099744,0,0.819881916,25900,2018-06-16 19:16:10,15,0,23.49,3781.2887286128,202.099744,0.4921268,1.55133535148,0,0,-0.671082,333.5, 1.9, 0.3,0,0,1024,1024,1024,1024,332,-90,97,3.912,3.907,3.911,3.921,3.924,3.939,18.826,82.4,14,Waypoint,
37.3089289,-119.57765,3782.2729806128,203.083996,0,0.81581039356,26000,2018-06-16 19:16:10,15,0,23.589,3782.2729806128,203.083996,0.4921268,1.55133535148,0,0,-0.671082,333.8, 1.6, 0.3,0,0,1024,1024,1024,1024,332,-89.9,97,3.922,3.926,3.916,3.925,3.93,3.949,17.661,82.4,14,Waypoint,
37.3089288,-119.5776499,3783.2572326128,204.068248,0,0.78437010384,26100,2018-06-16 19:16:10,15,0,23.589,3783.2572326128,204.068248,0.4921268,1.55133535148,0,0,-0.671082,334, 1.7, 0.1,0,0,1024,1024,1024,1024,332,-89.9,97,3.922,3.926,3.916,3.925,3.93,3.949,17.661,82.4,14,Waypoint,
37.3089288,-119.5776499,3783.9134006128,204.724416,0,0.78437010384,26200,2018-06-16 19:16:11,15,0,23.589,3783.9134006128,204.724416,0.4921268,1.55133535148,0,0,-0.671082,334.1, 1.9, 0.1,0,0,1024,1024,1024,1024,332,-89.9,97,3.922,3.926,3.916,3.925,3.93,3.949,17.661,82.4,14,Waypoint,
37.3089287,-119.5776499,3784.8976526128,205.708668,0,0.78352364712,26300,2018-06-16 19:16:11,15,0,23.589,3784.8976526128,205.708668,0.4921268,1.55133535148,0,0,-0.671082,334.1, 2, 0.3,0,0,1024,1024,1024,1024,332,-89.9,97,3.922,3.926,3.916,3.925,3.93,3.949,17.661,82.4,14,Waypoint,
37.3089287,-119.5776499,3785.8819046128,206.69292,0,0.78352364712,26400,2018-06-16 19:16:11,15,0,23.589,3785.8819046128,206.69292,0.4921268,1.55133535148,0,0,-0.671082,333.9, 2.1, 0.4,0,0,1024,1024,1024,1024,332,-89.9,97,3.922,3.926,3.916,3.925,3.93,3.949,17.661,82.4,14,Waypoint,
37.3089286,-119.5776499,3786.8661566128,207.677172,0,0.78437010384,26500,2018-06-16 19:16:11,15,0,23.589,3786.8661566128,207.677172,0.4921268,1.55133535148,0,0,-0.671082,333.6, 2, 0.5,0,0,1024,1024,1024,1024,332,-89.9,97,3.922,3.926,3.916,3.925,3.93,3.949,17.661,82.4,14,Waypoint,
