latitude,longitude,altitude(feet),ascent(feet),speed(mph),distance(feet),time(millisecond),datetime(utc),satellites,gpslevel,voltage(v),max_altitude(feet),max_ascent(feet),max_speed(mph),max_distance(feet), xSpeed(mph), ySpeed(mph), zSpeed(mph), compass_heading(degrees), pitch(degrees), roll(degrees),isPhoto,isVideo,rc_elevator,rc_aileron,rc_throttle,rc_rudder,gimbal_heading(degrees),gimbal_pitch(degrees),battery_percent,voltageCell1,voltageCell2,voltageCell3,voltageCell4,voltageCell5,voltageCell6,current(A),battery_temperature(f),flycStateRaw,flycState,message
37.3089358,-119.577672,3580.1637848408,0,0.223694,0,2920,2018-06-16 18:57:22,14,0,0,3580.1637848408,0,0.223694,0,0,0,0,335.1, 2.6, 0,1,0,1024,1024,1024,1024,334.3,-89.9,98,4.282,4.267,4.302,4.273,4.279,4.159,0,75.2,11,AutoTakeoff,DJI_0034.jpg Starting Mission from Lat/Long: 37.30893/-119.57767 Camera: Zenmuse X3 - Overlap: 90/90 - Active Connection: No
37.3089357,-119.577672,3580.1637848408,0,0.223694,0.036484909304,3000,2018-06-16 18:57:22,14,0,25.726,3580.1637848408,0,0.223694,0.036484909304,0,0,0,335.2, 2.5, 0,0,0,1024,1024,1024,1024,334.3,-90,98,4.282,4.267,4.302,4.273,4.279,4.159,3.004,75.2,11,AutoTakeoff,
37.3089355,-119.5776719,3580.1637848408,0,0.223694,0.11323655218,3100,2018-06-16 18:57:22,14,0,25.726,3580.1637848408,0,0.223694,0.11323655218,0,0,0,335.3, 1.5, 0.2,0,0,1024,1024,1024,1024,334.3,-90,98,4.282,4.267,4.302,4.273,4.279,4.159,3.004,75.2,11,AutoTakeoff,
37.3089352,-119.5776717,3580.1637848408,0,0.223694,0.23558563746,3300,2018-06-16 18:57:22,13,0,25.726,3580.1637848408,0,0.223694,0.23558563746,0,0,0,335.3, -0.9, 0.2,0,0,1024,1024,1024,1024,334.3,-90,98,4.282,4.267,4.302,4.273,4.279,4.159,3.004,75.2,11,AutoTakeoff,
37.3089351,-119.5776716,3580.4918688408,0.328084,0.223694,0.280535770132,3400,2018-06-16 18:57:23,13,0,25.726,3580.4918688408,0.328084,0.223694,0.280535770132,0,0,0,335.3, -1.5, 0.2,0,0,1024,1024,1024,1024,334.3,-90,98,4.282,4.267,4.302,4.273,4.279,4.159,3.004,75.2,11,AutoTakeoff,
37.308935,-119.5776715,3580.4918688408,0.328084,0.223694,0.325955062924,3600,2018-06-16 18:57:23,10,0,25.726,3580.4918688408,0.328084,0.223694,0.325955062924,0,0,-0.223694,335.3, -1.7, 0,0,0,1024,1024,1024,1024,334.3,-89.9,98,4.282,4.267,4.302,4.273,4.279,4.159,3.004,75.2,11,AutoTakeoff,
37.308935,-119.5776713,3580.8199528408,0.656168,0.223694,0.3556102476,3700,2018-06-16 18:57:23,10,0,25.726,3580.8199528408,0.656168,0.223694,0.3556102476,0,0,-0.223694,335.4, -1.4, -0.1,0,0,1024,1024,1024,1024,334.3,-89.9,98,4.282,4.267,4.302,4.273,4.279,4.159,3.004,75.2,11,AutoTakeoff,
37.3089349,-119.5776712,3580.8199528408,0.656168,0,0.40214240132,3800,2018-06-16 18:57:23,12,0,25.726,3580.8199528408,0.656168,0.223694,0.40214240132,0,0,-0.223694,335.4, -0.9, -0.4,0,0,1024,1024,1024,1024,334.3,-89.9,98,4.282,4.267,4.302,4.273,4.279,4.159,3.004,75.2,11,AutoTakeoff,
37.3089348,-119.5776711,3581.1480368408,0.984252,0,0.44869424008,3900,2018-06-16 18:57:23,12,0,25.726,3581.1480368408,0.984252,0.223694,0.44869424008,0,0,0,335.5, -1, -0.7,0,0,1024,1024,1024,1024,334.3,-89.9,98,4.282,4.267,4.302,4.273,4.279,4.159,3.004,75.2,11,AutoTakeoff,
37.3089347,-119.5776711,3581.1480368408,0.984252,0,0.47883203632,4000,2018-06-16 18:57:23,12,0,24.891,3581.1480368408,0.984252,0.223694,0.47883203632,0,0,0,335.6, -1, -0.7,0,0,1024,1024,1024,1024,334.3,-89.9,98,4.129,4.118,4.116,4.109,4.111,4.115,11.35,75.2,11,AutoTakeoff,
37.3089347,-119.5776712,3581.4761208408,1.312336,0,0.46364174712,4100,2018-06-16 18:57:23,12,0,24.891,3581.4761208408,1.312336,0.223694,0.47883203632,0,0,-0.223694,335.6, -1.2, -0.6,0,0,1024,1024,1024,1024,334.3,-90,98,4.129,4.118,4.116,4.109,4.111,4.115,11.35,75.2,11,AutoTakeoff,
37.3089346,-119.5776712,3581.4761208408,1.312336,0,0.49556103948,4200,2018-06-16 18:57:23,13,0,24.891,3581.4761208408,1.312336,0.223694,0.49556103948,0,0,-0.223694,335.4, -1.3, -0.2,0,0,1024,1024,1024,1024,334.3,-89.9,98,4.129,4.118,4.116,4.109,4.111,4.115,11.35,75.2,11,AutoTakeoff,
37.3089345,-119.5776711,3581.8042048408,1.64042,0,0.54145671024,4300,2018-06-16 18:57:23,13,0,24.891,3581.8042048408,1.64042,0.223694,0.54145671024,0,0,0,335.3, -1.2, 0,0,0,1024,1024,1024,1024,334.3,-89.9,98,4.129,4.118,4.116,4.109,4.111,4.115,11.35,75.2,11,AutoTakeoff,
37.3089345,-119.5776711,3581.8042048408,1.64042,0,0.54145671024,4400,2018-06-16 18:57:24,13,0,24.891,3581.8042048408,1.64042,0.223694,0.54145671024,0,0,0,335.2, -1.1, 0.3,0,0,1024,1024,1024,1024,334.3,-89.9,98,4.129,4.118,4.116,4.109,4.111,4.115,11.35,75.2,11,AutoTakeoff,
37.3089344,-119.5776712,3582.1322888408,1.968504,0,0.5610728526,4500,2018-06-16 18:57:24,13,0,24.891,3582.1322888408,1.968504,0.223694,0.5610728526,0,0,0,335.1, -1.2, 0.3,0,0,1024,1024,1024,1024,334.3,-89.9,98,4.129,4.118,4.116,4.109,4.111,4.115,11.35,75.2,11,AutoTakeoff,
37.3089343,-119.5776713,3582.4603728408,2.296588,0,0.58375658036,4600,2018-06-16 18:57:24,11,0,24.891,3582.4603728408,2.296588,0.223694,0.58375658036,0,0,0,334.9, -1.1, 0.6,0,0,1024,1024,1024,1024,334.3,-89.9,98,4.129,4.118,4.116,4.109,4.111,4.115,11.35,75.2,11,AutoTakeoff,
37.3089342,-119.5776714,3582.7884568408,2.624672,0,0.60917324784,4800,2018-06-16 18:57:24,11,0,24.891,3582.7884568408,2.624672,0.223694,0.60917324784,0,0,0,334.7, -0.8, 1,0,0,1024,1024,1024,1024,334.3,-89.9,98,4.129,4.118,4.116,4.109,4.111,4.115,11.35,75.2,11,AutoTakeoff,
37.3089342,-119.5776715,3582.7884568408,2.624672,0,0.60152232896,4900,2018-06-16 18:57:24,9,0,24.891,3582.7884568408,2.624672,0.223694,0.60917324784,0,0,0,334.6, -0.7, 1.2,0,0,1024,1024,1024,1024,334.3,-89.9,98,4.129,4.118,4.116,4.109,4.111,4.115,11.35,75.2,11,AutoTakeoff,
37.3089342,-119.5776715,3582.7884568408,2.624672,0,0.60152232896,5000,2018-06-16 18:57:24,9,0,24.462,3582.7884568408,2.624672,0.223694,0.60917324784,0,0,0,334.7, -0.8, 1.2,0,0,1024,1024,1024,1024,334.3,-89.9,98,4.06,4.055,4.08,4.069,4.081,4.069,15.649,75.2,11,AutoTakeoff,
37.3089341,-119.5776716,3583.1165408408,2.952756,0,0.63101379972,5100,2018-06-16 18:57:24,10,0,24.462,3583.1165408408,2.952756,0.223694,0.63101379972,0,0,0,334.8, -0.8, 1.2,0,0,1024,1024,1024,1024,334.3,-89.9,98,4.06,4.055,4.08,4.069,4.081,4.069,15.649,75.2,14,Waypoint,
37.3089341,-119.5776716,3583.1165408408,2.952756,0,0.63101379972,5200,2018-06-16 18:57:24,10,0,24.462,3583.1165408408,2.952756,0.223694,0.63101379972,0,0,0,334.8, -0.7, 1,0,0,1024,1024,1024,1024,334.3,-89.9,98,4.06,4.055,4.08,4.069,4.081,4.069,15.649,75.2,14,Waypoint,
37.3089341,-119.5776716,3583.1165408408,2.952756,0,0.63101379972,5300,2018-06-16 18:57:24,13,0,24.462,3583.1165408408,2.952756,0.223694,0.63101379972,0,0,0,334.9, -0.2, 0.7,0,0,1024,1024,1024,1024,334.3,-89.9,98,4.06,4.055,4.08,4.069,4.081,4.069,15.649,75.2,14,Waypoint,
37.3089341,-119.5776716,3583.4446248408,3.28084,0,0.63101379972,5410,2018-06-16 18:57:25,13,0,24.462,3583.4446248408,3.28084,0.223694,0.63101379972,0,0,0,334.9, 0, 0.4,0,0,1024,1024,1024,1024,334.3,-89.9,98,4.06,4.055,4.08,4.069,4.081,4.069,15.649,75.2,14,Waypoint,
37.3089341,-119.5776717,3583.4446248408,3.28084,0,0.62632547936,5500,2018-06-16 18:57:25,11,0,24.462,3583.4446248408,3.28084,0.223694,0.63101379972,0,0,0,334.9, -0.1, 0.3,0,0,1024,1024,1024,1024,334.3,-89.9,98,4.06,4.055,4.08,4.069,4.081,4.069,15.649,75.2,14,Waypoint,
37.3089341,-119.5776717,3583.4446248408,3.28084,0,0.62632547936,5600,2018-06-16 18:57:25,11,0,24.462,3583.4446248408,3.28084,0.223694,0.63101379972,0,0,0,334.8, -0.1, 0.3,0,0,1024,1024,1024,1024,334.3,-89.9,98,4.06,4.055,4.08,4.069,4.081,4.069,15.649,75.2,14,Waypoint,
37.3089341,-119.5776718,3583.7727088408,3.608924,0,0.62295277584,5700,2018-06-16 18:57:25,9,0,24.462,3583.7727088408,3.608924,0.223694,0.63101379972,0,0,-0.223694,334.7, -0.1, 0.5,0,0,1024,1024,1024,1024,334.3,-89.9,98,4.06,4.055,4.08,4.069,4.081,4.069,15.649,75.2,14,Waypoint,
37.308934,-119.5776719,3584.1007928408,3.937008,0,0.65736878744,5900,2018-06-16 18:57:25,11,0,24.462,3584.1007928408,3.937008,0.223694,0.65736878744,0,0,-0.223694,334.6, -0.1, 0.8,0,0,1024,1024,1024,1024,334.3,-89.9,98,4.06,4.055,4.08,4.069,4.081,4.069,15.649,75.2,14,Waypoint,
37.308934,-119.577672,3584.4288768408,4.265092,0,0.65672902364,6100,2018-06-16 18:57:25,11,0,24.462,3584.4288768408,4.265092,0.223694,0.65736878744,0,0,-0.223694,334.5, -0.1, 0.7,0,0,1024,1024,1024,1024,334.3,-89.9,98,4.06,4.055,4.08,4.069,4.081,4.069,15.649,75.2,14,Waypoint,
37.3089341,-119.5776719,3584.7569608408,4.593176,0,0.62092193588,6200,2018-06-16 18:57:25,11,0,24.462,3584.7569608408,4.593176,0.223694,0.65736878744,0,0,-0.223694,334.6, -0.2, 0.5,0,0,1024,1024,1024,1024,334.3,-89.9,98,4.06,4.055,4.08,4.069,4.081,4.069,15.649,75.2,14,Waypoint,
37.3089341,-119.5776718,3585.4131288408,5.249344,0,0.62295277584,6300,2018-06-16 18:57:25,11,0,24.462,3585.4131288408,5.249344,0.223694,0.65736878744,0,0,-0.447388,334.7, -0.2, 0.4,0,0,1024,1024,1024,1024,334.3,-89.9,98,4.06,4.055,4.08,4.069,4.081,4.069,15.649,75.2,14,Waypoint,
37.3089342,-119.5776718,3586.0692968408,5.905512,0,0.58663715788,6400,2018-06-16 18:57:26,10,0,24.462,3586.0692968408,5.905512,0.223694,0.65736878744,0,0,-0.447388,334.9, -0.3, 0.3,0,0,1024,1024,1024,1024,334.3,-89.9,98,4.06,4.055,4.08,4.069,4.081,4.069,15.649,75.2,14,Waypoint,
37.3089343,-119.5776717,3586.7254648408,6.56168,0,0.55415684188,6500,2018-06-16 18:57:26,10,0,24.462,3586.7254648408,6.56168,0.223694,0.65736878744,0,0,-0.447388,335.1, -0.1, 0.2,0,0,1024,1024,1024,1024,334.3,-89.9,98,4.06,4.055,4.08,4.069,4.081,4.069,15.649,75.2,14,Waypoint,
37.3089344,-119.5776716,3587.3816328408,7.217848,0,0.52381235272,6600,2018-06-16 18:57:26,11,0,24.462,3587.3816328408,7.217848,0.223694,0.65736878744,0,0,-0.447388,335.2, 0, 0,0,0,1024,1024,1024,1024,334.3,-89.9,98,4.06,4.055,4.08,4.069,4.081,4.069,15.649,75.2,14,Waypoint,
37.3089346,-119.5776715,3588.0378008408,7.874016,0,0.4612368914,6700,2018-06-16 18:57:26,11,0,24.462,3588.0378008408,7.874016,0.223694,0.65736878744,0,0,-0.447388,335.2, 0.2, -0.2,0,0,1024,1024,1024,1024,334.3,-89.9,98,4.06,4.055,4.08,4.069,4.081,4.069,15.649,75.2,14,Waypoint,
37.308935,-119.5776712,3590.0063048408,9.84252,0,0.37294620616,6900,2018-06-16 18:57:26,12,0,24.462,3590.0063048408,9.84252,0.223694,0.65736878744,0,0,-0.671082,334.8, 0.6, -0.2,0,0,1024,1024,1024,1024,334.3,-89.9,98,4.06,4.055,4.08,4.069,4.081,4.069,15.649,75.2,14,Waypoint,
37.3089351,-119.577671,3590.9905568408,10.826772,0,0.38657153468,7000,2018-06-16 18:57:26,12,0,24.072,3590.9905568408,10.826772,0.223694,0.65736878744,0,0,-0.671082,334.7, 0.8, -0.2,0,0,1024,1024,1024,1024,334.3,-89.9,98,4.003,3.994,4.001,3.985,4.013,3.982,17.82,75.2,14,Waypoint,
37.3089353,-119.5776708,3593.2871448408,13.12336,0,0.39312009132,7100,2018-06-16 18:57:26,12,0,24.072,3593.2871448408,13.12336,0.223694,0.65736878744,0,0,-0.671082,334.5, 0.7, -0.4,0,0,1024,1024,1024,1024,334.3,-89.9,98,4.003,3.994,4.001,3.985,4.013,3.982,17.82,75.2,14,Waypoint,
37.3089356,-119.5776709,3594.2713968408,14.107612,0,0.327446860872,7200,2018-06-16 18:57:26,12,0,24.072,3594.2713968408,14.107612,0.223694,0.65736878744,0,0,-0.671082,334.4, 0.9, -0.6,0,0,1024,1024,1024,1024,334.3,-89.9,98,4.003,3.994,4.001,3.985,4.013,3.982,17.82,75.2,14,Waypoint,
37.3089357,-119.5776709,3595.2556488408,15.091864,0,0.321291348864,7300,2018-06-16 18:57:26,13,0,24.072,3595.2556488408,15.091864,0.223694,0.65736878744,0,0,-0.671082,334.3, 1.3, -0.8,0,0,1024,1024,1024,1024,334.3,-89.9,98,4.003,3.994,4.001,3.985,4.013,3.982,17.82,75.2,14,Waypoint,
37.3089359,-119.577671,3596.5679848408,16.4042,0,0.292478027732,7400,2018-06-16 18:57:27,13,0,24.072,3596.5679848408,16.4042,0.223694,0.65736878744,0,0,-0.671082,334.3, 1.7, -0.7,0,0,1024,1024,1024,1024,334.3,-89.9,98,4.003,3.994,4.001,3.985,4.013,3.982,17.82,75.2,14,Waypoint,
37.3089361,-119.5776711,3597.5522368408,17.388452,0,0.28318242376,7500,2018-06-16 18:57:27,12,0,24.072,3597.5522368408,17.388452,0.223694,0.65736878744,0,0,-0.671082,334.3, 2.1, -0.5,0,0,1024,1024,1024,1024,334.3,-89.9,98,4.003,3.994,4.001,3.985,4.013,3.982,17.82,75.2,14,Waypoint,
37.3089362,-119.5776713,3598.8645728408,18.700788,0,0.250125008004,7600,2018-06-16 18:57:27,12,0,24.072,3598.8645728408,18.700788,0.223694,0.65736878744,0,0,-0.671082,334.5, 2.4, -0.2,0,0,1024,1024,1024,1024,334.3,-89.9,98,4.003,3.994,4.001,3.985,4.013,3.982,17.82,75.2,14,Waypoint,
37.3089362,-119.5776717,3599.8488248408,19.68504,0.223694,0.169933732472,7700,2018-06-16 18:57:27,14,0,24.072,3599.8488248408,19.68504,0.223694,0.65736878744,0,0,-0.671082,334.7, 2.5, 0.3,0,0,1024,1024,1024,1024,334.3,-89.9,98,4.003,3.994,4.001,3.985,4.013,3.982,17.82,75.2,14,Waypoint,
37.3089361,-119.5776726,3602.1454128408,21.981628,0.223694,0.205661751988,7900,2018-06-16 18:57:27,14,0,24.072,3602.1454128408,21.981628,0.223694,0.65736878744,0,0,-0.671082,335.4, 2.1, 2.4,0,0,1024,1024,1024,1024,334.3,-89.9,98,4.003,3.994,4.001,3.985,4.013,3.982,17.82,75.2,14,Waypoint,
37.308936,-119.5776728,3603.1296648408,22.96588,0.223694,0.243352698076,8100,2018-06-16 18:57:27,14,0,24.072,3603.1296648408,22.96588,0.223694,0.65736878744,0,0,-0.671082,335.6, 1.8, 3,0,0,1024,1024,1024,1024,334.3,-89.9,98,4.003,3.994,4.001,3.985,4.013,3.982,17.82,75.2,14,Waypoint,
37.3089358,-119.5776731,3604.1139168408,23.950132,0.223694,0.319212936724,8200,2018-06-16 18:57:27,14,0,24.072,3604.1139168408,23.950132,0.223694,0.65736878744,0,0,-0.671082,335.6, 1.6, 3.1,0,0,1024,1033,1024,1024,334.3,-89.9,98,4.003,3.994,4.001,3.985,4.013,3.982,17.82,75.2,14,Waypoint,
37.3089356,-119.5776733,3605.4262528408,25.262468,0.223694,0.38424541912,8300,2018-06-16 18:57:27,14,0,24.072,3605.4262528408,25.262468,0.223694,0.65736878744,0,0,-0.671082,335.6, 1.2, 3.2,0,0,1024,1037,1024,1024,334.3,-89.9,98,4.003,3.994,4.001,3.985,4.013,3.982,17.82,75.2,14,Waypoint,
37.3089354,-119.5776735,3606.4105048408,26.24672,0.223694,0.4591043454,8400,2018-06-16 18:57:28,14,0,24.072,3606.4105048408,26.24672,0.223694,0.65736878744,0,0,-0.671082,335.4, 0.9, 3,0,0,1024,1052,1024,1024,334.3,-89.9,98,4.003,3.994,4.001,3.985,4.013,3.982,17.82,75.2,14,Waypoint,
37.3089352,-119.5776736,3607.3947568408,27.230972,0.223694,0.51332678808,8500,2018-06-16 18:57:28,14,0,24.072,3607.3947568408,27.230972,0.223694,0.65736878744,0,0,-0.671082,335.2, 0.5, 2.9,0,0,1024,1090,1024,1024,334.3,-89.9,98,4.003,3.994,4.001,3.985,4.013,3.982,17.82,75.2,14,Waypoint,
37.308935,-119.5776736,3608.7070928408,28.543308,0.223694,0.54843177608,8600,2018-06-16 18:57:28,15,0,24.072,3608.7070928408,28.543308,0.223694,0.65736878744,0,0,-0.671082,335, 0.2, 2.5,0,0,1024,1024,1024,1024,334.3,-89.9,98,4.003,3.994,4.001,3.985,4.013,3.982,17.82,75.2,14,Waypoint,
37.3089348,-119.5776735,3609.6913448408,29.52756,0.223694,0.56797245912,8700,2018-06-16 18:57:28,15,0,24.072,3609.6913448408,29.52756,0.223694,0.65736878744,0,0,-0.671082,334.9, 0, 1.8,0,0,1024,1024,1024,1024,334.3,-90,98,4.003,3.994,4.001,3.985,4.013,3.982,17.82,75.2,14,Waypoint,
37.3089345,-119.5776735,3610.6755968408,30.511812,0.223694,0.64377298648,8800,2018-06-16 18:57:28,15,0,24.072,3610.6755968408,30.511812,0.223694,0.65736878744,0,0,-0.671082,334.8, -0.3, 1.3,0,0,1024,1024,1024,1024,334.3,-90,98,4.003,3.994,4.001,3.985,4.013,3.982,17.82,75.2,14,Waypoint,
37.3089343,-119.5776735,3611.6598488408,31.496064,0.223694,0.69927495676,8900,2018-06-16 18:57:28,15,0,24.072,3611.6598488408,31.496064,0.223694,0.69927495676,0,0,-0.671082,334.8, -0.6, 1.5,0,0,1024,1024,1024,1024,334.3,-90,98,4.003,3.994,4.001,3.985,4.013,3.982,17.82,75.2,14,Waypoint,
37.3089341,-119.5776736,3612.6441008408,32.480316,0.223694,0.77478020852,9000,2018-06-16 18:57:28,16,0,23.96,3612.6441008408,32.480316,0.223694,0.77478020852,0,0,-0.671082,334.9, -0.6, 1.7,0,0,1024,1024,1024,1024,334.3,-90,98,3.911,3.932,3.974,3.957,3.975,3.956,17.974,75.2,14,Waypoint,
37.3089338,-119.5776737,3613.9564368408,33.792652,0.223694,0.88081367648,9100,2018-06-16 18:57:28,16,0,23.96,3613.9564368408,33.792652,0.223694,0.88081367648,0,0,-0.671082,334.9, -0.8, 2,0,0,1024,1024,1024,1024,334.3,-90,98,3.911,3.932,3.974,3.957,3.975,3.956,17.974,75.2,14,Waypoint,
37.3089336,-119.5776737,3614.9406888408,34.776904,0,0.94215226112,9200,2018-06-16 18:57:28,16,0,23.96,3614.9406888408,34.776904,0.223694,0.94215226112,0,0,-0.671082,334.8, -1, 2.2,0,0,1024,1024,1024,1024,334.3,-90,98,3.911,3.932,3.974,3.957,3.975,3.956,17.974,75.2,14,Waypoint,
37.3089331,-119.5776737,3616.9091928408,36.745408,0,1.10171919536,9300,2018-06-16 18:57:28,16,0,23.96,3616.9091928408,36.745408,0.223694,1.10171919536,0,0,-0.671082,334.7, -1.3, 2.1,0,0,1024,1024,1024,1024,334.3,-89.9,98,3.911,3.932,3.974,3.957,3.975,3.956,17.974,75.2,14,Waypoint,
37.3089328,-119.5776737,3617.8934448408,37.72966,0,1.20058730876,9400,2018-06-16 18:57:29,16,0,23.96,3617.8934448408,37.72966,0.223694,1.20058730876,0,0,-0.671082,334.8, -1.7, 2.1,0,0,1024,1024,1024,1024,334.3,-90,98,3.911,3.932,3.974,3.957,3.975,3.956,17.974,75.2,14,Waypoint,
37.3089326,-119.5776737,3618.8776968408,38.713912,0,1.26746723216,9500,2018-06-16 18:57:29,15,0,23.96,3618.8776968408,38.713912,0.223694,1.26746723216,0,0,-0.671082,334.8, -2, 2.2,0,0,1024,1024,1024,1024,334.3,-90,98,3.911,3.932,3.974,3.957,3.975,3.956,17.974,75.2,14,Waypoint,
37.3089324,-119.5776737,3619.8619488408,39.698164,0,1.33498363852,9600,2018-06-16 18:57:29,15,0,23.96,3619.8619488408,39.698164,0.223694,1.33498363852,0,0,-0.671082,334.7, -2.1, 2.1,0,0,1024,1024,1024,1024,334.3,-90,98,3.911,3.932,3.974,3.957,3.975,3.956,17.974,75.2,14,Waypoint,
37.3089322,-119.5776737,3620.8462008408,40.682416,0,1.40304794516,9700,2018-06-16 18:57:29,16,0,23.96,3620.8462008408,40.682416,0.223694,1.40304794516,0,0,-0.671082,334.7, -2.1, 1.9,0,0,1024,1024,1024,1024,334.3,-89.9,98,3.911,3.932,3.974,3.957,3.975,3.956,17.974,75.2,14,Waypoint,
37.3089321,-119.5776738,3621.8304528408,41.666668,0,1.44747708044,9800,2018-06-16 18:57:29,16,0,23.96,3621.8304528408,41.666668,0.223694,1.44747708044,0,0,-0.671082,334.7, -2, 1.9,0,0,1024,1024,1024,1024,334.3,-89.9,98,3.911,3.932,3.974,3.957,3.975,3.956,17.974,75.2,14,Waypoint,
37.308932,-119.5776737,3622.8147048408,42.65092,0,1.47158141192,9900,2018-06-16 18:57:29,17,0,23.96,3622.8147048408,42.65092,0.223694,1.47158141192,0,0,-0.671082,334.7, -1.4, 1.9,0,0,1024,1024,1024,1024,334.3,-89.9,98,3.911,3.932,3.974,3.957,3.975,3.956,17.974,75.2,14,Waypoint,
37.3089319,-119.5776736,3623.7989568408,43.635172,0,1.4967520164,10000,2018-06-16 18:57:29,17,0,23.96,3623.7989568408,43.635172,0.223694,1.4967520164,0,0,-0.671082,334.9, -0.8, 1.8,0,0,1024,1024,1024,1024,334.3,-89.9,97,3.976,3.978,4.013,3.997,4.018,3.991,17.974,75.2,14,Waypoint,
37.3089319,-119.5776735,3625.1112928408,44.947508,0.223694,1.48800529696,10100,2018-06-16 18:57:29,16,0,23.96,3625.1112928408,44.947508,0.223694,1.4967520164,0,0,-0.671082,335, -0.5, 1.5,0,0,1024,1024,1024,1024,334.3,-89.9,97,3.976,3.978,4.013,3.997,4.018,3.991,17.974,75.2,14,Waypoint,
37.3089319,-119.5776733,3626.0955448408,45.93176,0.223694,1.47207353792,10200,2018-06-16 18:57:29,16,0,23.96,3626.0955448408,45.93176,0.223694,1.4967520164,0,0,-0.671082,335.1, -0.5, 1.2,0,0,1024,1024,1024,1024,334.3,-89.9,97,3.976,3.978,4.013,3.997,4.018,3.991,17.974,75.2,14,Waypoint,
37.3089319,-119.5776732,3627.0797968408,46.916012,0.223694,1.46490490252,10300,2018-06-16 18:57:29,17,0,23.96,3627.0797968408,46.916012,0.223694,1.4967520164,0,0,-0.671082,335.1, -0.6, 0.8,0,0,1024,1024,1024,1024,334.3,-89.9,97,3.976,3.978,4.013,3.997,4.018,3.991,17.974,75.2,14,Waypoint,
37.3089318,-119.5776732,3628.0640488408,47.900264,0.223694,1.50036750208,10400,2018-06-16 18:57:30,17,0,23.96,3628.0640488408,47.900264,0.223694,1.50036750208,0,0,-0.671082,335, -0.7, 0.7,0,0,1024,1024,1024,1024,334.3,-89.9,97,3.976,3.978,4.013,3.997,4.018,3.991,17.974,75.2,14,Waypoint,
37.3089319,-119.5776731,3629.0483008408,48.884516,0.223694,1.45827760572,10600,2018-06-16 18:57:30,17,0,23.96,3629.0483008408,48.884516,0.223694,1.50036750208,0,0,-0.671082,334.8, -0.8, 0.7,0,0,1024,1024,1024,1024,334.3,-89.9,97,3.976,3.978,4.013,3.997,4.018,3.991,17.974,75.2,14,Waypoint,
37.3089319,-119.5776729,3630.0325528408,49.868768,0.223694,1.44668311716,10700,2018-06-16 18:57:30,17,0,23.96,3630.0325528408,49.868768,0.223694,1.50036750208,0,0,-0.671082,334.6, -1, 0.9,0,0,1024,1024,1024,1024,334.3,-89.9,97,3.976,3.978,4.013,3.997,4.018,3.991,17.974,75.2,14,Waypoint,
37.3089319,-119.5776728,3631.0168048408,50.85302,0.223694,1.44172576792,10800,2018-06-16 18:57:30,17,0,23.96,3631.0168048408,50.85302,0.223694,1.50036750208,0,0,-0.671082,334.7, -1, 0.8,0,0,1024,1024,1024,1024,334.3,-89.9,97,3.976,3.978,4.013,3.997,4.018,3.991,17.974,75.2,14,Waypoint,
37.308932,-119.5776727,3632.0010568408,51.837272,0.223694,1.4012303598,10900,2018-06-16 18:57:30,17,0,23.96,3632.0010568408,51.837272,0.223694,1.50036750208,0,0,-0.671082,334.9, -0.9, 0.4,0,0,1024,1024,1024,1024,334.3,-89.9,97,3.976,3.978,4.013,3.997,4.018,3.991,17.974,75.2,14,Waypoint,
37.3089321,-119.5776725,3632.9853088408,52.821524,0.223694,1.35771657888,11000,2018-06-16 18:57:30,16,0,23.963,3632.9853088408,52.821524,0.223694,1.50036750208,0,0,-0.671082,335.2, -0.5, 0.2,0,0,1024,1024,1024,1024,334.3,-89.9,97,3.975,3.97,4.006,3.991,4.014,3.996,17.637,75.2,14,Waypoint,
37.3089322,-119.5776724,3633.9695608408,53.805776,0.223694,1.31857615768,11100,2018-06-16 18:57:30,16,0,23.963,3633.9695608408,53.805776,0.223694,1.50036750208,0,0,-0.671082,335.3, -0.2, 0.1,0,0,1024,1024,1024,1024,334.3,-89.9,97,3.975,3.97,4.006,3.991,4.014,3.996,17.637,75.2,14,Waypoint,
37.3089323,-119.5776723,3634.9538128408,54.790028,0.223694,1.279937705,11200,2018-06-16 18:57:30,16,0,23.963,3634.9538128408,54.790028,0.223694,1.50036750208,0,0,-0.671082,335.4, 0, 0.2,0,0,1024,1024,1024,1024,334.3,-89.9,97,3.975,3.97,4.006,3.991,4.014,3.996,17.637,75.2,14,Waypoint,
37.3089324,-119.5776723,3635.9380648408,55.77428,0.223694,1.24354006604,11300,2018-06-16 18:57:30,16,0,23.963,3635.9380648408,55.77428,0.223694,1.50036750208,0,0,-0.671082,335.4, 0.4, 0.5,0,0,1024,1024,1024,1024,334.3,-89.9,97,3.975,3.97,4.006,3.991,4.014,3.996,17.637,75.2,14,Waypoint,
37.3089326,-119.5776722,3636.9223168408,56.758532,0.223694,1.16896001116,11400,2018-06-16 18:57:31,16,0,23.963,3636.9223168408,56.758532,0.223694,1.50036750208,0,0,-0.671082,335.4, 0.7, 0.8,0,0,1024,1024,1024,1024,334.3,-89.9,97,3.975,3.97,4.006,3.991,4.014,3.996,17.637,75.2,14,Waypoint,
37.3089328,-119.5776721,3637.9065688408,57.742784,0.223694,1.09493441824,11500,2018-06-16 18:57:31,16,0,23.963,3637.9065688408,57.742784,0.223694,1.50036750208,0,0,-0.671082,335.4, 1, 0.9,0,0,1024,1024,1024,1024,334.3,-89.9,97,3.975,3.97,4.006,3.991,4.014,3.996,17.637,75.2,14,Waypoint,
37.3089329,-119.577672,3638.8908208408,58.727036,0.223694,1.05806433832,11600,2018-06-16 18:57:31,16,0,23.963,3638.8908208408,58.727036,0.223694,1.50036750208,0,0,-0.671082,335.3, 1.2, 0.6,0,0,1024,1024,1024,1024,334.3,-89.9,97,3.975,3.97,4.006,3.991,4.014,3.996,17.637,75.2,14,Waypoint,
37.3089331,-119.5776719,3639.8750728408,59.711288,0.223694,0.98552168508,11700,2018-06-16 18:57:31,16,0,23.963,3639.8750728408,59.711288,0.223694,1.50036750208,0,0,-0.671082,335.3, 1.1, 0.3,0,0,1024,1024,1024,1024,334.3,-89.9,97,3.975,3.97,4.006,3.991,4.014,3.996,17.637,75.2,14,Waypoint,
37.3089334,-119.5776717,3641.8435768408,61.679792,0.223694,0.87995737724,11900,2018-06-16 18:57:31,16,0,23.963,3641.8435768408,61.679792,0.223694,1.50036750208,0,0,-0.671082,334.9, 0.9, -0.2,0,0,1024,1024,1024,1024,334.3,-89.9,97,3.975,3.97,4.006,3.991,4.014,3.996,17.637,75.2,14,Waypoint,
37.3089337,-119.5776716,3643.8120808408,63.648296,0.223694,0.77492784632,12000,2018-06-16 18:57:31,17,0,23.888,3643.8120808408,63.648296,0.223694,1.50036750208,0,0,-0.671082,334.6, 1, -0.3,0,0,1024,1024,1024,1024,334.3,-89.9,97,3.964,3.963,4.008,3.993,4.002,3.985,18.146,77,14,Waypoint,
37.308934,-119.5776717,3645.7805848408,65.6168,0.223694,0.66247377448,12200,2018-06-16 18:57:31,16,0,23.888,3645.7805848408,65.6168,0.223694,1.50036750208,0,0,-0.671082,334.2, 1.5, 0.5,0,0,1024,1024,1024,1024,334.3,-89.9,97,3.964,3.963,4.008,3.993,4.002,3.985,18.146,77,14,Waypoint,
37.3089341,-119.5776718,3646.7648368408,66.601052,0.223694,0.62295277584,12300,2018-06-16 18:57:31,16,0,23.888,3646.7648368408,66.601052,0.223694,1.50036750208,0,0,-0.671082,334.3, 1.8, 0.9,0,0,1024,1024,1024,1024,334.3,-89.9,97,3.964,3.963,4.008,3.993,4.002,3.985,18.146,77,14,Waypoint,
37.3089342,-119.5776718,3647.7490888408,67.585304,0,0.58663715788,12400,2018-06-16 18:57:32,16,0,23.888,3647.7490888408,67.585304,0.223694,1.50036750208,0,0,-0.671082,334.4, 1.8, 0.8,0,0,1024,1024,1024,1024,334.3,-89.9,97,3.964,3.963,4.008,3.993,4.002,3.985,18.146,77,14,Waypoint,
37.3089343,-119.5776718,3648.7333408408,68.569556,0,0.5503445058,12500,2018-06-16 18:57:32,16,0,23.888,3648.7333408408,68.569556,0.223694,1.50036750208,0,0,-0.671082,334.6, 1.7, 0.6,0,0,1024,1024,1024,1024,334.3,-89.9,97,3.964,3.963,4.008,3.993,4.002,3.985,18.146,77,14,Waypoint,
37.3089344,-119.5776718,3650.0456768408,69.881892,0,0.5140748196,12600,2018-06-16 18:57:32,16,0,23.888,3650.0456768408,69.881892,0.223694,1.50036750208,0,0,-0.671082,334.8, 1.6, 0.6,0,0,1024,1024,1024,1024,334.3,-89.9,97,3.964,3.963,4.008,3.993,4.002,3.985,18.146,77,14,Waypoint,
37.3089345,-119.5776718,3651.0299288408,70.866144,0,0.47784122264,12700,2018-06-16 18:57:32,17,0,23.888,3651.0299288408,70.866144,0.223694,1.50036750208,0,0,-0.671082,335, 1.7, 0.7,0,0,1024,1024,1024,1024,334.3,-89.9,97,3.964,3.963,4.008,3.993,4.002,3.985,18.146,77,14,Waypoint,
37.3089346,-119.5776719,3652.0141808408,71.850396,0,0.4387795416,12800,2018-06-16 18:57:32,17,0,23.888,3652.0141808408,71.850396,0.223694,1.50036750208,0,0,-0.671082,335.2, 1.8, 0.9,0,0,1024,1024,1024,1024,334.3,-89.9,97,3.964,3.963,4.008,3.993,4.002,3.985,18.146,77,14,Waypoint,
37.3089347,-119.577672,3652.9984328408,72.834648,0,0.40133531468,12900,2018-06-16 18:57:32,17,0,23.888,3652.9984328408,72.834648,0.223694,1.50036750208,0,0,-0.671082,335.2, 1.8, 0.9,0,0,1024,1024,1024,1024,334.3,-89.9,97,3.964,3.963,4.008,3.993,4.002,3.985,18.146,77,14,Waypoint,
37.3089348,-119.5776721,3653.9826848408,73.8189,0,0.36600066788,13000,2018-06-16 18:57:32,17,0,23.902,3653.9826848408,73.8189,0.223694,1.50036750208,0,0,-0.671082,335, 1.8, 1.2,0,0,1024,1024,1024,1024,334.3,-89.9,97,3.968,3.964,4.001,3.985,4.006,3.981,17.554,77,14,Waypoint,
37.3089349,-119.5776722,3654.9669368408,74.803152,0,0.33345473508,13100,2018-06-16 18:57:32,17,0,23.902,3654.9669368408,74.803152,0.223694,1.50036750208,0,0,-0.671082,334.6, 1.9, 1.4,0,0,1024,1024,1024,1024,334.3,-89.9,97,3.968,3.964,4.001,3.985,4.006,3.981,17.554,77,14,Waypoint,
37.308935,-119.5776723,3656.9354408408,76.771656,0,0.304586295836,13400,2018-06-16 18:57:33,17,0,23.902,3656.9354408408,76.771656,0.223694,1.50036750208,0,0,-0.671082,333.7, 2.1, 1.7,0,0,1024,1024,1024,1024,334.3,-89.9,97,3.968,3.964,4.001,3.985,4.006,3.981,17.554,77,14,Waypoint,
37.308935,-119.5776723,3657.9196928408,77.755908,0,0.304586295836,13500,2018-06-16 18:57:33,17,0,23.902,3657.9196928408,77.755908,0.223694,1.50036750208,0,0,-0.671082,333.6, 2, 1.5,0,0,1024,1024,1024,1024,334.3,-89.9,97,3.968,3.964,4.001,3.985,4.006,3.981,17.554,77,14,Waypoint,
37.3089351,-119.5776724,3658.9039448408,78.74016,0,0.280535770132,13600,2018-06-16 18:57:33,17,0,23.902,3658.9039448408,78.74016,0.223694,1.50036750208,0,0,-0.671082,333.6, 1.9, 1.3,0,0,1024,1024,1024,1024,334.3,-89.9,97,3.968,3.964,4.001,3.985,4.006,3.981,17.554,77,14,Waypoint,
37.3089351,-119.5776725,3659.8881968408,79.724412,0,0.2937336052,13700,2018-06-16 18:57:33,17,0,23.902,3659.8881968408,79.724412,0.223694,1.50036750208,0,0,-0.671082,333.8, 1.9, 1.1,0,0,1024,1024,1024,1024,334.3,-89.9,97,3.968,3.964,4.001,3.985,4.006,3.981,17.554,77,14,Waypoint,
37.3089352,-119.5776725,3660.8724488408,80.708664,0,0.262629929664,13800,2018-06-16 18:57:33,17,0,23.902,3660.8724488408,80.708664,0.223694,1.50036750208,0,0,-0.671082,334.1, 1.7, 1.2,0,0,1024,1024,1024,1024,334.3,-89.9,97,3.968,3.964,4.001,3.985,4.006,3.981,17.554,77,14,Waypoint,
37.3089352,-119.5776724,3661.5286168408,81.364832,0,0.247780847824,13900,2018-06-16 18:57:33,17,0,23.902,3661.5286168408,81.364832,0.223694,1.50036750208,0,0,-0.671082,334.5, 1.6, 0.9,0,0,1024,1024,1024,1024,334.3,-89.9,97,3.968,3.964,4.001,3.985,4.006,3.981,17.554,77,14,Waypoint,
37.3089353,-119.5776723,3662.5128688408,82.349084,0,0.202133208568,14000,2018-06-16 18:57:33,17,0,23.903,3662.5128688408,82.349084,0.223694,1.50036750208,0,0,-0.671082,334.9, 1.5, 0.4,0,0,1024,1024,1024,1024,334.3,-89.9,97,3.962,3.974,3.999,3.982,4.001,3.989,17.198,77,14,Waypoint,
37.3089353,-119.5776723,3663.4971208408,83.333336,0,0.202133208568,14100,2018-06-16 18:57:33,17,0,23.903,3663.4971208408,83.333336,0.223694,1.50036750208,0,0,-0.671082,335.2, 1.5, 0.2,0,0,1024,1024,1024,1024,334.3,-89.9,97,3.962,3.974,3.999,3.982,4.001,3.989,17.198,77,14,Waypoint,
37.3089353,-119.5776722,3664.4813728408,84.317588,0,0.191434717412,14200,2018-06-16 18:57:33,17,0,23.903,3664.4813728408,84.317588,0.223694,1.50036750208,0,0,-0.671082,335.4, 1.5, 0,0,0,1024,1024,1024,1024,334.3,-89.9,97,3.962,3.974,3.999,3.982,4.001,3.989,17.198,77,14,Waypoint,
37.3089353,-119.5776721,3665.4656248408,85.30184,0,0.184718509848,14300,2018-06-16 18:57:33,17,0,23.903,3665.4656248408,85.30184,0.223694,1.50036750208,0,0,-0.671082,335.6, 1.6, -0.1,0,0,1024,1024,1024,1024,334.3,-89.9,97,3.962,3.974,3.999,3.982,4.001,3.989,17.198,77,14,Waypoint,
37.3089354,-119.5776719,3667.1060448408,86.94226,0,0.148796920772,14400,2018-06-16 18:57:34,17,0,23.903,3667.1060448408,86.94226,0.223694,1.50036750208,0,0,-0.671082,335.6, 1.8, -0.7,0,0,1024,1024,1024,1024,334.3,-89.9,97,3.962,3.974,3.999,3.982,4.001,3.989,17.198,77,14,Waypoint,
37.3089354,-119.5776718,3668.0902968408,87.926512,0,0.15705709164,14500,2018-06-16 18:57:34,17,0,23.903,3668.0902968408,87.926512,0.223694,1.50036750208,0,0,-0.671082,335.6, 1.7, -0.9,0,0,1024,1024,1024,1024,334.3,-89.9,97,3.962,3.974,3.999,3.982,4.001,3.989,17.198,77,14,Waypoint,
37.3089355,-119.5776718,3669.0745488408,88.910764,0,0.123890423912,14600,2018-06-16 18:57:34,17,0,23.903,3669.0745488408,88.910764,0.223694,1.50036750208,0,0,-0.671082,335.6, 1.3, -1.1,0,0,1024,1024,1024,1024,334.3,-89.9,97,3.962,3.974,3.999,3.982,4.001,3.989,17.198,77,14,Waypoint,
37.3089354,-119.5776717,3671.0430528408,90.879268,0,0.169933732472,14800,2018-06-16 18:57:34,17,0,23.903,3671.0430528408,90.879268,0.223694,1.50036750208,0,0,-0.671082,335.6, 0.8, -0.6,0,0,1024,1024,1024,1024,334.3,-89.9,97,3.962,3.974,3.999,3.982,4.001,3.989,17.198,77,14,Waypoint,
37.3089354,-119.5776718,3671.6992208408,91.535436,0,0.15705709164,14900,2018-06-16 18:57:34,17,0,23.903,3671.6992208408,91.535436,0.223694,1.50036750208,0,0,-0.671082,335.5, 0.8, -0.3,0,0,1024,1024,1024,1024,334.3,-89.9,97,3.962,3.974,3.999,3.982,4.001,3.989,17.198,77,14,Waypoint,
37.3089354,-119.5776718,3672.6834728408,92.519688,0,0.15705709164,15000,2018-06-16 18:57:34,17,0,23.963,3672.6834728408,92.519688,0.223694,1.50036750208,0,0,-0.671082,335.2, 1, 0,0,0,1024,1024,1024,1024,334.3,-89.9,97,3.956,3.955,4.015,3.997,4.007,4,17.235,77,14,Waypoint,
37.3089354,-119.5776718,3673.6677248408,93.50394,0,0.15705709164,15100,2018-06-16 18:57:34,17,0,23.963,3673.6677248408,93.50394,0.223694,1.50036750208,0,0,-0.671082,334.8, 1.2, 0.4,0,0,1024,1024,1024,1024,334.3,-89.9,97,3.956,3.955,4.015,3.997,4.007,4,17.235,77,14,Waypoint,
37.3089354,-119.5776719,3674.6519768408,94.488192,0,0.148796920772,15200,2018-06-16 18:57:34,17,0,23.963,3674.6519768408,94.488192,0.223694,1.50036750208,0,0,-0.671082,334.4, 1.4, 0.6,0,0,1024,1024,1024,1024,334.3,-89.9,97,3.956,3.955,4.015,3.997,4.007,4,17.235,77,14,Waypoint,
37.3089354,-119.5776719,3675.6362288408,95.472444,0,0.148796920772,15300,2018-06-16 18:57:34,17,0,23.963,3675.6362288408,95.472444,0.223694,1.50036750208,0,0,-0.671082,334.3, 1.5, 0.8,0,0,1024,1024,1024,1024,334.3,-89.9,97,3.956,3.955,4.015,3.997,4.007,4,17.235,77,14,Waypoint,
37.3089354,-119.5776719,3677.6047328408,97.440948,0,0.148796920772,15500,2018-06-16 18:57:35,17,0,23.963,3677.6047328408,97.440948,0.223694,1.50036750208,0,0,-0.671082,334.5, 1.9, 0.7,0,0,1024,1024,1024,1024,334.3,-89.9,97,3.956,3.955,4.015,3.997,4.007,4,17.235,77,14,Waypoint,
37.3089354,-119.577672,3678.5889848408,98.4252,0,0.145939637216,15600,2018-06-16 18:57:35,17,0,23.963,3678.5889848408,98.4252,0.223694,1.50036750208,0,0,-0.671082,334.7, 2.2, 0.6,0,0,1024,1024,1024,1024,334.3,-89.9,97,3.956,3.955,4.015,3.997,4.007,4,17.235,77,14,Waypoint,
37.3089354,-119.5776721,3679.5732368408,99.409452,0,0.148796920772,15800,2018-06-16 18:57:35,17,0,23.963,3679.5732368408,99.409452,0.223694,1.50036750208,0,0,-0.671082,335, 2.2, 0.5,0,0,1024,1024,1024,1024,334.3,-89.9,97,3.956,3.955,4.015,3.997,4.007,4,17.235,77,14,Waypoint,
37.3089354,-119.5776721,3680.8855728408,100.721788,0,0.148796920772,15900,2018-06-16 18:57:35,17,0,23.963,3680.8855728408,100.721788,0.223694,1.50036750208,0,0,-0.671082,335.2, 2, 0.5,0,0,1024,1024,1024,1024,334.3,-89.9,97,3.956,3.955,4.015,3.997,4.007,4,17.235,77,14,Waypoint,
37.3089353,-119.5776721,3681.8698248408,101.70604,0,0.184718509848,16000,2018-06-16 18:57:35,17,0,23.704,3681.8698248408,101.70604,0.223694,1.50036750208,0,0,-0.671082,335.4, 1.7, 0.8,0,0,1024,1024,1024,1024,334.3,-89.9,97,3.929,3.931,3.971,3.951,3.977,3.958,18.681,77,14,Waypoint,
37.3089352,-119.5776722,3682.8540768408,102.690292,0,0.226472776276,16100,2018-06-16 18:57:35,17,0,23.704,3682.8540768408,102.690292,0.223694,1.50036750208,0,0,-0.671082,335.4, 1.4, 1.1,0,0,1024,1024,1024,1024,334.3,-89.9,97,3.929,3.931,3.971,3.951,3.977,3.958,18.681,77,14,Waypoint,
37.3089351,-119.5776723,3683.8383288408,103.674544,0,0.269824811784,16200,2018-06-16 18:57:35,17,0,23.704,3683.8383288408,103.674544,0.223694,1.50036750208,0,0,-0.671082,335.4, 1.2, 1.4,0,0,1024,1024,1024,1024,334.3,-89.9,97,3.929,3.931,3.971,3.951,3.977,3.958,18.681,77,14,Waypoint,
37.308935,-119.5776723,3684.8225808408,104.658796,0,0.304586295836,16300,2018-06-16 18:57:35,17,0,23.704,3684.8225808408,104.658796,0.223694,1.50036750208,0,0,-0.671082,335.3, 1, 1.7,0,0,1024,1024,1024,1024,334.3,-89.9,97,3.929,3.931,3.971,3.951,3.977,3.958,18.681,77,14,Waypoint,
37.3089349,-119.5776724,3685.8068328408,105.643048,0,0.3482775702,16400,2018-06-16 18:57:36,17,0,23.704,3685.8068328408,105.643048,0.223694,1.50036750208,0,0,-0.671082,335.1, 1, 1.9,0,0,1024,1024,1024,1024,334.3,-89.9,97,3.929,3.931,3.971,3.951,3.977,3.958,18.681,77,14,Waypoint,
37.3089348,-119.5776725,3686.7910848408,106.6273,0,0.39264108868,16500,2018-06-16 18:57:36,17,0,23.704,3686.7910848408,106.6273,0.223694,1.50036750208,0,0,-0.671082,334.9, 0.9, 2,0,0,1024,1024,1024,1024,334.3,-89.9,97,3.929,3.931,3.971,3.951,3.977,3.958,18.681,77,14,Waypoint,
37.3089347,-119.5776725,3687.7753368408,107.611552,0,0.42675854384,16600,2018-06-16 18:57:36,17,0,23.704,3687.7753368408,107.611552,0.223694,1.50036750208,0,0,-0.671082,334.7, 0.9, 1.9,0,0,1024,1024,1024,1024,334.3,-89.9,97,3.929,3.931,3.971,3.951,3.977,3.958,18.681,77,14,Waypoint,
37.3089346,-119.5776725,3689.7438408408,109.580056,0,0.4612368914,16800,2018-06-16 18:57:36,17,0,23.704,3689.7438408408,109.580056,0.223694,1.50036750208,0,0,-0.671082,334.7, 1, 1.6,0,0,1024,1024,1024,1024,334.3,-89.9,97,3.929,3.931,3.971,3.951,3.977,3.958,18.681,77,14,Waypoint,
37.3089345,-119.5776726,3690.7280928408,110.564308,0,0.50525264084,16900,2018-06-16 18:57:36,17,0,23.704,3690.7280928408,110.564308,0.223694,1.50036750208,0,0,-0.671082,334.7, 1, 1.4,0,0,1024,1024,1024,1024,334.3,-89.9,97,3.929,3.931,3.971,3.951,3.977,3.958,18.681,77,14,Waypoint,
37.3089343,-119.5776727,3692.6965968408,112.532812,0,0.58375658036,17000,2018-06-16 18:57:36,17,0,23.797,3692.6965968408,112.532812,0.223694,1.50036750208,0,0,-0.671082,334.9, 0.9, 1.8,0,0,1024,1024,1024,1024,334.3,-89.9,97,3.946,3.947,3.988,3.964,3.99,3.968,17.454,77,14,Waypoint,
37.3089342,-119.5776727,3693.6808488408,113.517064,0,0.6180938518,17100,2018-06-16 18:57:36,17,0,23.797,3693.6808488408,113.517064,0.223694,1.50036750208,0,0,-0.671082,334.9, 0.9, 2.1,0,0,1024,1024,1024,1024,334.3,-89.9,97,3.946,3.947,3.988,3.964,3.99,3.968,17.454,77,14,Waypoint,
37.3089341,-119.5776728,3694.9931848408,114.8294,0,0.66226708156,17200,2018-06-16 18:57:36,17,0,23.797,3694.9931848408,114.8294,0.223694,1.50036750208,0,0,-0.671082,334.8, 0.8, 2.2,0,0,1024,1024,1024,1024,334.3,-89.9,97,3.946,3.947,3.988,3.964,3.99,3.968,17.454,77,14,Waypoint,
37.308934,-119.5776728,3695.9774368408,115.813652,0,0.6965551404,17300,2018-06-16 18:57:36,17,0,23.797,3695.9774368408,115.813652,0.223694,1.50036750208,0,0,-0.671082,334.8, 0.8, 2.1,0,0,1024,1024,1024,1024,334.3,-89.9,97,3.946,3.947,3.988,3.964,3.99,3.968,17.454,77,14,Waypoint,
37.3089339,-119.5776728,3696.9616888408,116.797904,0,0.73105645384,17400,2018-06-16 18:57:37,17,0,23.797,3696.9616888408,116.797904,0.223694,1.50036750208,0,0,-0.671082,334.8, 0.8, 1.9,0,0,1024,1024,1024,1024,334.3,-89.9,97,3.946,3.947,3.988,3.964,3.99,3.968,17.454,77,14,Waypoint,
37.3089339,-119.5776728,3697.9459408408,117.782156,0,0.73105645384,17500,2018-06-16 18:57:37,17,0,23.797,3697.9459408408,117.782156,0.223694,1.50036750208,0,0,-0.671082,334.8, 0.9, 1.7,0,0,1024,1024,1024,1024,334.3,-89.9,97,3.946,3.947,3.988,3.964,3.99,3.968,17.454,77,14,Waypoint,
37.3089338,-119.5776728,3699.9144448408,119.75066,0,0.76573821348,17700,2018-06-16 18:57:37,17,0,23.797,3699.9144448408,119.75066,0.223694,1.50036750208,0,0,-0.671082,334.8, 1, 1.3,0,0,1024,1024,1024,1024,334.3,-89.9,97,3.946,3.947,3.988,3.964,3.99,3.968,17.454,77,14,Waypoint,
37.3089337,-119.5776728,3700.8986968408,120.734912,0,0.80058401512,17900,2018-06-16 18:57:37,17,0,23.797,3700.8986968408,120.734912,0.223694,1.50036750208,0,0,-0.671082,334.8, 0.9, 1.2,0,0,1024,1024,1024,1024,334.3,-89.9,97,3.946,3.947,3.988,3.964,3.99,3.968,17.454,77,14,Waypoint,
37.3089337,-119.5776727,3701.8829488408,121.719164,0,0.79265422484,18000,2018-06-16 18:57:37,17,0,23.844,3701.8829488408,121.719164,0.223694,1.50036750208,0,0,-0.671082,334.7, 0.7, 1.2,0,0,1024,1024,1024,1024,334.3,-89.9,97,3.958,3.955,3.992,3.974,3.993,3.97,16.921,77,14,Waypoint,
37.3089336,-119.5776727,3702.8672008408,122.703416,0,0.82797246744,18100,2018-06-16 18:57:37,17,0,23.844,3702.8672008408,122.703416,0.223694,1.50036750208,0,0,-0.671082,334.8, 0.6, 1.3,0,0,1024,1024,1024,1024,334.3,-89.9,97,3.958,3.955,3.992,3.974,3.993,3.97,16.921,77,14,Waypoint,
37.3089335,-119.5776727,3703.8514528408,123.687668,0,0.86338913524,18200,2018-06-16 18:57:37,17,0,23.844,3703.8514528408,123.687668,0.223694,1.50036750208,0,0,-0.671082,334.8, 0.6, 1.4,0,0,1024,1024,1024,1024,334.3,-89.9,97,3.958,3.955,3.992,3.974,3.993,3.97,16.921,77,14,Waypoint,
37.3089335,-119.5776726,3704.8357048408,124.67192,0,0.85702758648,18300,2018-06-16 18:57:37,17,0,23.844,3704.8357048408,124.67192,0.223694,1.50036750208,0,0,-0.671082,334.8, 0.6, 1.2,0,0,1024,1024,1024,1024,334.3,-89.9,97,3.958,3.955,3.992,3.974,3.993,3.97,16.921,77,14,Waypoint,
37.3089334,-119.5776726,3705.8199568408,125.656172,0,0.8927821808,18400,2018-06-16 18:57:38,17,0,23.844,3705.8199568408,125.656172,0.223694,1.50036750208,0,0,-0.671082,334.8, 0.5, 1.2,0,0,1024,1024,1024,1024,334.3,-89.9,97,3.958,3.955,3.992,3.974,3.993,3.97,16.921,77,14,Waypoint,
37.3089334,-119.5776725,3706.8042088408,126.640424,0,0.88757876856,18500,2018-06-16 18:57:38,17,0,23.844,3706.8042088408,126.640424,0.223694,1.50036750208,0,0,-0.671082,334.9, 0.5, 1.1,0,0,1024,1024,1024,1024,334.3,-89.9,97,3.958,3.955,3.992,3.974,3.993,3.97,16.921,77,14,Waypoint,
37.3089333,-119.5776725,3708.4446288408,128.280844,0,0.92359254924,18700,2018-06-16 18:57:38,17,0,23.844,3708.4446288408,128.280844,0.223694,1.50036750208,0,0,-0.671082,335, 0.7, 1,0,0,1024,1024,1024,1024,334.3,-89.9,97,3.958,3.955,3.992,3.974,3.993,3.97,16.921,77,14,Waypoint,
37.3089333,-119.5776724,3710.4131328408,130.249348,0,0.91947837588,18900,2018-06-16 18:57:38,17,0,23.844,3710.4131328408,130.249348,0.223694,1.50036750208,0,0,-0.671082,335.2, 0.6, 1,0,0,1024,1024,1024,1024,334.3,-89.9,97,3.958,3.955,3.992,3.974,3.993,3.97,16.921,77,14,Waypoint,
37.3089333,-119.5776724,3711.3973848408,131.2336,0,0.91947837588,19000,2018-06-16 18:57:38,17,0,23.795,3711.3973848408,131.2336,0.223694,1.50036750208,0,0,-0.671082,335.1, 0.7, 1.1,0,0,1024,1024,1024,1024,334.3,-89.9,97,3.944,3.948,3.989,3.963,3.975,3.969,16.97,77,14,Waypoint,
37.3089333,-119.5776724,3712.3816368408,132.217852,0,0.91947837588,19100,2018-06-16 18:57:38,17,0,23.795,3712.3816368408,132.217852,0.223694,1.50036750208,0,0,-0.671082,335.1, 0.8, 1.1,0,0,1024,1024,1024,1024,334.3,-89.9,97,3.944,3.948,3.989,3.963,3.975,3.969,16.97,77,14,Waypoint,
37.3089334,-119.5776723,3714.3501408408,134.186356,0,0.87995737724,19200,2018-06-16 18:57:38,17,0,23.795,3714.3501408408,134.186356,0.223694,1.50036750208,0,0,-0.671082,335.1, 1.3, 1,0,0,1024,1024,1024,1024,334.3,-89.9,97,3.944,3.948,3.989,3.963,3.975,3.969,16.97,77,14,Waypoint,
37.3089334,-119.5776723,3716.3186448408,136.15486,0,0.87995737724,19400,2018-06-16 18:57:39,17,0,23.795,3716.3186448408,136.15486,0.223694,1.50036750208,0,0,-0.671082,334.9, 1.4, 1.2,0,0,1024,1024,1024,1024,334.3,-89.9,97,3.944,3.948,3.989,3.963,3.975,3.969,16.97,77,14,Waypoint,
37.3089334,-119.5776723,3718.2871488408,138.123364,0,0.87995737724,19600,2018-06-16 18:57:39,17,0,23.795,3718.2871488408,138.123364,0.223694,1.50036750208,0,0,-0.671082,335, 1.3, 1.3,0,0,1024,1024,1024,1024,334.3,-89.9,97,3.944,3.948,3.989,3.963,3.975,3.969,16.97,77,14,Waypoint,
37.3089335,-119.5776723,3719.2714008408,139.107616,0,0.84365816348,19700,2018-06-16 18:57:39,17,0,23.795,3719.2714008408,139.107616,0.223694,1.50036750208,0,0,-0.671082,335, 1.3, 1.3,0,0,1024,1024,1024,1024,334.3,-89.9,97,3.944,3.948,3.989,3.963,3.975,3.969,16.97,77,14,Waypoint,
37.3089335,-119.5776722,3720.2556528408,140.091868,0,0.8411581634,19800,2018-06-16 18:57:39,17,0,23.795,3720.2556528408,140.091868,0.223694,1.50036750208,0,0,-0.671082,335, 1.3, 1.2,0,0,1024,1024,1024,1024,334.3,-89.9,97,3.944,3.948,3.989,3.963,3.975,3.969,16.97,77,14,Waypoint,
37.3089335,-119.5776722,3721.2399048408,141.07612,0,0.8411581634,19900,2018-06-16 18:57:39,17,0,23.795,3721.2399048408,141.07612,0.223694,1.50036750208,0,0,-0.671082,334.9, 1.2, 1.1,0,0,1024,1024,1024,1024,334.3,-89.9,97,3.944,3.948,3.989,3.963,3.975,3.969,16.97,77,14,Waypoint,
37.3089335,-119.5776722,3722.2241568408,142.060372,0,0.8411581634,20000,2018-06-16 18:57:39,17,0,23.723,3722.2241568408,142.060372,0.223694,1.50036750208,0,0,-0.671082,334.9, 1, 1.2,0,0,1024,1024,1024,1024,334.3,-89.9,97,3.944,3.948,3.989,3.963,3.975,3.969,17.927,77,14,Waypoint,
37.3089335,-119.5776721,3723.2084088408,143.044624,0,0.83965553868,20100,2018-06-16 18:57:39,17,0,23.723,3723.2084088408,143.044624,0.223694,1.50036750208,0,0,-0.671082,334.9, 1, 1.1,0,0,1024,1024,1024,1024,334.3,-89.9,97,3.944,3.948,3.989,3.963,3.975,3.969,17.927,77,14,Waypoint,
37.3089336,-119.5776721,3724.5207448408,144.35696,0,0.80319228292,20200,2018-06-16 18:57:39,17,0,23.723,3724.5207448408,144.35696,0.223694,1.50036750208,0,0,-0.671082,334.9, 1.3, 1.1,0,0,1024,1024,1024,1024,334.3,-89.9,97,3.944,3.948,3.989,3.963,3.975,3.969,17.927,77,14,Waypoint,
37.3089336,-119.5776721,3725.5049968408,145.341212,0,0.80319228292,20300,2018-06-16 18:57:39,17,0,23.723,3725.5049968408,145.341212,0.223694,1.50036750208,0,0,-0.671082,334.9, 1.4, 1.3,0,0,1024,1024,1024,1024,334.3,-89.9,97,3.944,3.948,3.989,3.963,3.975,3.969,17.927,77,14,Waypoint,
37.3089336,-119.5776721,3725.5049968408,145.341212,0,0.80319228292,20400,2018-06-16 18:57:40,17,0,23.723,3725.5049968408,145.341212,0.223694,1.50036750208,0,0,-0.671082,334.9, 1.4, 1.3,0,0,1024,1024,1024,1024,334.3,-89.9,97,3.944,3.948,3.989,3.963,3.975,3.969,17.927,77,14,Waypoint,
37.3089336,-119.5776721,3726.4892488408,146.325464,0,0.80319228292,20500,2018-06-16 18:57:40,17,0,23.723,3726.4892488408,146.325464,0.223694,1.50036750208,0,0,-0.671082,335, 1.5, 1.3,0,0,1024,1024,1024,1024,334.3,-89.9,97,3.944,3.948,3.989,3.963,3.975,3.969,17.927,77,14,Waypoint,
37.3089336,-119.5776721,3727.1454168408,146.981632,0,0.80319228292,20600,2018-06-16 18:57:40,17,0,23.723,3727.1454168408,146.981632,0.223694,1.50036750208,0,0,-0.671082,335, 1.8, 1.2,0,0,1024,1024,1024,1024,334.3,-89.9,97,3.944,3.948,3.989,3.963,3.975,3.969,17.927,77,14,Waypoint,
37.3089337,-119.5776721,3728.1296688408,147.965884,0,0.766732308,20700,2018-06-16 18:57:40,17,0,23.723,3728.1296688408,147.965884,0.223694,1.50036750208,0,0,-0.671082,334.9, 2, 1.1,0,0,1024,1024,1024,1024,334.3,-89.9,97,3.944,3.948,3.989,3.963,3.975,3.969,17.927,77,14,Waypoint,
37.3089337,-119.5776721,3729.1139208408,148.950136,0,0.766732308,20800,2018-06-16 18:57:40,17,0,23.723,3729.1139208408,148.950136,0.223694,1.50036750208,0,0,-0.671082,334.7, 2, 1.2,0,0,1024,1024,1024,1024,334.3,-89.9,97,3.944,3.948,3.989,3.963,3.975,3.969,17.927,77,14,Waypoint,
37.3089338,-119.5776721,3730.0981728408,149.934388,0,0.73027561392,20900,2018-06-16 18:57:40,17,0,23.723,3730.0981728408,149.934388,0.223694,1.50036750208,0,0,-0.671082,334.6, 1.8, 1.3,0,0,1024,1024,1024,1024,334.3,-89.9,97,3.944,3.948,3.989,3.963,3.975,3.969,17.927,77,14,Waypoint,
37.3089338,-119.5776721,3731.0824248408,150.91864,0,0.73027561392,21000,2018-06-16 18:57:40,17,0,23.723,3731.0824248408,150.91864,0.223694,1.50036750208,0,0,-0.671082,334.6, 1.6, 1.4,0,0,1024,1024,1024,1024,334.3,-89.9,96,3.934,3.927,3.978,3.955,3.972,3.952,17.927,77,14,Waypoint,
37.3089338,-119.5776721,3732.0666768408,151.902892,0,0.73027561392,21100,2018-06-16 18:57:40,17,0,23.723,3732.0666768408,151.902892,0.223694,1.50036750208,0,0,-0.671082,334.6, 1.5, 1.3,0,0,1024,1024,1024,1024,334.3,-89.9,96,3.934,3.927,3.978,3.955,3.972,3.952,17.927,77,14,Waypoint,
37.3089339,-119.577672,3733.0509288408,152.887144,0,0.69321524528,21200,2018-06-16 18:57:40,17,0,23.723,3733.0509288408,152.887144,0.223694,1.50036750208,0,0,-0.671082,334.6, 1.6, 1.2,0,0,1024,1024,1024,1024,334.3,-89.9,96,3.934,3.927,3.978,3.955,3.972,3.952,17.927,77,14,Waypoint,
37.308934,-119.577672,3734.0351808408,153.871396,0,0.65672902364,21300,2018-06-16 18:57:40,17,0,23.723,3734.0351808408,153.871396,0.223694,1.50036750208,0,0,-0.671082,334.6, 1.8, 1,0,0,1024,1024,1024,1024,334.3,-89.9,96,3.934,3.927,3.978,3.955,3.972,3.952,17.927,77,14,Waypoint,
37.308934,-119.5776719,3735.0194328408,154.855648,0,0.65736878744,21400,2018-06-16 18:57:41,17,0,23.723,3735.0194328408,154.855648,0.223694,1.50036750208,0,0,-0.671082,334.7, 1.9, 0.5,0,0,1024,1024,1024,1024,334.3,-89.9,96,3.934,3.927,3.978,3.955,3.972,3.952,17.927,77,14,Waypoint,
37.3089341,-119.5776719,3736.0036848408,155.8399,0,0.62092193588,21500,2018-06-16 18:57:41,17,0,23.723,3736.0036848408,155.8399,0.223694,1.50036750208,0,0,-0.671082,334.8, 2.1, 0.1,0,0,1024,1024,1024,1024,334.3,-89.9,96,3.934,3.927,3.978,3.955,3.972,3.952,17.927,77,14,Waypoint,
37.3089341,-119.5776718,3736.9879368408,156.824152,0,0.62295277584,21600,2018-06-16 18:57:41,17,0,23.723,3736.9879368408,156.824152,0.223694,1.50036750208,0,0,-0.671082,334.9, 2.1, 0,0,0,1024,1024,1024,1024,334.3,-89.9,96,3.934,3.927,3.978,3.955,3.972,3.952,17.927,77,14,Waypoint,
37.3089342,-119.5776718,3737.9721888408,157.808404,0,0.58663715788,21700,2018-06-16 18:57:41,17,0,23.723,3737.9721888408,157.808404,0.223694,1.50036750208,0,0,-0.671082,335, 1.9, 0,0,0,1024,1024,1024,1024,334.3,-89.9,96,3.934,3.927,3.978,3.955,3.972,3.952,17.927,77,14,Waypoint,
37.3089343,-119.5776717,3739.9406928408,159.776908,0,0.55415684188,21800,2018-06-16 18:57:41,17,0,23.723,3739.9406928408,159.776908,0.223694,1.50036750208,0,0,-0.671082,335.2, 2, 0,0,0,1024,1024,1024,1024,334.3,-89.9,96,3.934,3.927,3.978,3.955,3.972,3.952,17.927,77,14,Waypoint,
37.3089344,-119.5776717,3740.9249448408,160.76116,0,0.51815618456,21900,2018-06-16 18:57:41,17,0,23.723,3740.9249448408,160.76116,0.223694,1.50036750208,0,0,-0.671082,335.3, 1.9, 0.1,0,0,1024,1024,1024,1024,334.3,-89.9,96,3.934,3.927,3.978,3.955,3.972,3.952,17.927,77,14,Waypoint,
37.3089344,-119.5776718,3741.9091968408,161.745412,0,0.5140748196,22000,2018-06-16 18:57:41,17,0,23.657,3741.9091968408,161.745412,0.223694,1.50036750208,0,0,-0.671082,335.3, 1.9, 0.4,0,0,1024,1024,1024,1024,334.3,-89.9,96,3.921,3.92,3.966,3.947,3.953,3.949,18.174,77,14,Waypoint,
37.3089345,-119.5776718,3742.8934488408,162.729664,0,0.47784122264,22100,2018-06-16 18:57:41,17,0,23.657,3742.8934488408,162.729664,0.223694,1.50036750208,0,0,-0.671082,335.4, 2, 0.5,0,0,1024,1024,1024,1024,334.3,-89.9,96,3.921,3.92,3.966,3.947,3.953,3.949,18.174,77,14,Waypoint,
37.3089346,-119.5776719,3744.8619528408,164.698168,0,0.4387795416,22300,2018-06-16 18:57:41,17,0,23.657,3744.8619528408,164.698168,0.223694,1.50036750208,0,0,-0.671082,335.4, 2.3, 0.7,0,0,1024,1024,1024,1024,334.3,-89.9,96,3.921,3.92,3.966,3.947,3.953,3.949,18.174,77,14,Waypoint,
37.3089346,-119.577672,3745.8462048408,165.68242,0,0.43781825548,22400,2018-06-16 18:57:42,17,0,23.657,3745.8462048408,165.68242,0.223694,1.50036750208,0,0,-0.671082,335.3, 2.3, 0.8,0,0,1024,1024,1024,1024,334.3,-89.9,96,3.921,3.92,3.966,3.947,3.953,3.949,18.174,77,14,Waypoint,
37.3089346,-119.577672,3746.8304568408,166.666672,0,0.43781825548,22500,2018-06-16 18:57:42,17,0,23.657,3746.8304568408,166.666672,0.223694,1.50036750208,0,0,-0.671082,335.2, 2.4, 1,0,0,1024,1024,1024,1024,334.3,-89.9,96,3.921,3.92,3.966,3.947,3.953,3.949,18.174,77,14,Waypoint,
37.3089346,-119.5776721,3747.8147088408,167.650924,0,0.4387795416,22700,2018-06-16 18:57:42,17,0,23.657,3747.8147088408,167.650924,0.223694,1.50036750208,0,0,-0.671082,335, 2.4, 1.3,0,0,1024,1024,1024,1024,334.3,-89.9,96,3.921,3.92,3.966,3.947,3.953,3.949,18.174,77,14,Waypoint,
37.3089346,-119.5776721,3748.7989608408,168.635176,0,0.4387795416,22800,2018-06-16 18:57:42,17,0,23.657,3748.7989608408,168.635176,0.223694,1.50036750208,0,0,-0.671082,335, 2.3, 1.3,0,0,1024,1024,1024,1024,334.3,-89.9,96,3.921,3.92,3.966,3.947,3.953,3.949,18.174,77,14,Waypoint,
37.3089346,-119.5776722,3751.0955488408,170.931764,0,0.4416502766,22900,2018-06-16 18:57:42,17,0,23.657,3751.0955488408,170.931764,0.223694,1.50036750208,0,0,-0.671082,334.9, 2.1, 0.8,0,0,1024,1024,1024,1024,334.2,-89.9,96,3.921,3.92,3.966,3.947,3.953,3.949,18.174,77,14,Waypoint,
37.3089345,-119.5776722,3752.0798008408,171.916016,0,0.47784122264,23100,2018-06-16 18:57:42,17,0,23.657,3752.0798008408,171.916016,0.223694,1.50036750208,0,0,-0.671082,334.9, 2, 1,0,0,1024,1024,1024,1024,334.3,-89.9,96,3.921,3.92,3.966,3.947,3.953,3.949,18.174,77,14,Waypoint,
37.3089345,-119.5776723,3753.0640528408,172.900268,0,0.48222770572,23200,2018-06-16 18:57:42,17,0,23.657,3753.0640528408,172.900268,0.223694,1.50036750208,0,0,-0.671082,334.7, 1.8, 1.2,0,0,1024,1024,1024,1024,334.3,-89.9,96,3.921,3.92,3.966,3.947,3.953,3.949,18.174,77,14,Waypoint,
37.3089344,-119.5776723,3754.0483048408,173.88452,0,0.51815618456,23300,2018-06-16 18:57:42,17,0,23.657,3754.0483048408,173.88452,0.223694,1.50036750208,0,0,-0.671082,334.6, 1.6, 1.2,0,0,1024,1024,1024,1024,334.3,-89.9,96,3.921,3.92,3.966,3.947,3.953,3.949,18.174,77,14,Waypoint,
37.3089344,-119.5776723,3755.0325568408,174.868772,0,0.51815618456,23400,2018-06-16 18:57:43,17,0,23.657,3755.0325568408,174.868772,0.223694,1.50036750208,0,0,-0.671082,334.5, 1.4, 1.5,0,0,1024,1024,1024,1024,334.3,-89.9,96,3.921,3.92,3.966,3.947,3.953,3.949,18.174,77,14,Waypoint,
37.3089343,-119.5776724,3756.0168088408,175.853024,0,0.5594488368,23500,2018-06-16 18:57:43,17,0,23.657,3756.0168088408,175.853024,0.223694,1.50036750208,0,0,-0.671082,334.4, 1.3, 1.7,0,0,1024,1024,1024,1024,334.3,-89.9,96,3.921,3.92,3.966,3.947,3.953,3.949,18.174,77,14,Waypoint,
37.3089342,-119.5776724,3757.0010608408,176.837276,0,0.59518702692,23600,2018-06-16 18:57:43,17,0,23.657,3757.0010608408,176.837276,0.223694,1.50036750208,0,0,-0.671082,334.5, 1.2, 1.7,0,0,1024,1024,1024,1024,334.3,-89.9,96,3.921,3.92,3.966,3.947,3.953,3.949,18.174,77,14,Waypoint,
37.3089342,-119.5776725,3757.9853128408,177.821528,0,0.60152232896,23700,2018-06-16 18:57:43,17,0,23.657,3757.9853128408,177.821528,0.223694,1.50036750208,0,0,-0.671082,334.6, 1.3, 1.6,0,0,1024,1024,1024,1024,334.3,-89.9,96,3.921,3.92,3.966,3.947,3.953,3.949,18.174,77,14,Waypoint,
37.3089341,-119.5776725,3758.9695648408,178.80578,0,0.63698820936,23800,2018-06-16 18:57:43,17,0,23.657,3758.9695648408,178.80578,0.223694,1.50036750208,0,0,-0.671082,334.7, 1.5, 1.7,0,0,1024,1024,1024,1024,334.3,-89.9,96,3.921,3.92,3.966,3.947,3.953,3.949,18.174,77,14,Waypoint,
37.3089341,-119.5776726,3759.9538168408,179.790032,0,0.64421918072,23900,2018-06-16 18:57:43,17,0,23.657,3759.9538168408,179.790032,0.223694,1.50036750208,0,0,-0.671082,334.7, 1.5, 1.7,0,0,1024,1024,1024,1024,334.3,-89.9,96,3.921,3.92,3.966,3.947,3.953,3.949,18.174,77,14,Waypoint,
37.308934,-119.5776726,3761.5942368408,181.430452,0,0.67941931308,24000,2018-06-16 18:57:43,17,0,23.547,3761.5942368408,181.430452,0.223694,1.50036750208,0,0,-0.671082,334.8, 1.2, 1.5,0,0,1024,1024,1024,1024,334.3,-89.9,96,3.9,3.91,3.944,3.924,3.941,3.925,19.18,77,14,Waypoint,
37.3089339,-119.5776726,3762.5784888408,182.414704,0,0.7147473982,24200,2018-06-16 18:57:43,17,0,23.547,3762.5784888408,182.414704,0.223694,1.50036750208,0,0,-0.671082,334.8, 1.1, 1.4,0,0,1024,1024,1024,1024,334.3,-89.9,96,3.9,3.91,3.944,3.924,3.941,3.925,19.18,77,14,Waypoint,
37.3089339,-119.5776725,3764.5469928408,184.383208,0,0.7082349308,24300,2018-06-16 18:57:43,17,0,23.547,3764.5469928408,184.383208,0.223694,1.50036750208,0,0,-0.671082,334.9, 1.2, 1.1,0,0,1024,1024,1024,1024,334.3,-89.9,96,3.9,3.91,3.944,3.924,3.941,3.925,19.18,77,14,Waypoint,
37.3089339,-119.5776725,3765.5312448408,185.36746,0,0.7082349308,24400,2018-06-16 18:57:44,17,0,23.547,3765.5312448408,185.36746,0.223694,1.50036750208,0,0,-0.671082,334.9, 1.3, 1,0,0,1024,1024,1024,1024,334.3,-89.9,96,3.9,3.91,3.944,3.924,3.941,3.925,19.18,77,14,Waypoint,
37.3089338,-119.5776725,3766.5154968408,186.351712,0,0.74398624428,24500,2018-06-16 18:57:44,17,0,23.547,3766.5154968408,186.351712,0.223694,1.50036750208,0,0,-0.671082,334.9, 1.3, 1.1,0,0,1024,1024,1024,1024,334.3,-89.9,96,3.9,3.91,3.944,3.924,3.941,3.925,19.18,77,14,Waypoint,
37.3089338,-119.5776725,3767.4997488408,187.335964,0,0.74398624428,24600,2018-06-16 18:57:44,17,0,23.547,3767.4997488408,187.335964,0.223694,1.50036750208,0,0,-0.671082,334.9, 1.4, 1.1,0,0,1024,1024,1024,1024,334.3,-89.9,96,3.9,3.91,3.944,3.924,3.941,3.925,19.18,77,14,Waypoint,
37.3089338,-119.5776725,3768.4840008408,188.320216,0,0.74398624428,24700,2018-06-16 18:57:44,17,0,23.547,3768.4840008408,188.320216,0.223694,1.50036750208,0,0,-0.671082,334.9, 1.5, 1.2,0,0,1024,1024,1024,1024,334.3,-89.9,96,3.9,3.91,3.944,3.924,3.941,3.925,19.18,77,14,Waypoint,
37.3089338,-119.5776724,3769.4682528408,189.304468,0,0.73887469556,24800,2018-06-16 18:57:44,17,0,23.547,3769.4682528408,189.304468,0.223694,1.50036750208,0,0,-0.671082,335, 1.6, 1.2,0,0,1024,1024,1024,1024,334.3,-89.9,96,3.9,3.91,3.944,3.924,3.941,3.925,19.18,77,14,Waypoint,
37.3089338,-119.5776724,3770.4525048408,190.28872,0,0.73887469556,24900,2018-06-16 18:57:44,17,0,23.547,3770.4525048408,190.28872,0.223694,1.50036750208,0,0,-0.671082,335, 1.6, 1.2,0,0,1024,1024,1024,1024,334.3,-89.9,96,3.9,3.91,3.944,3.924,3.941,3.925,19.18,77,14,Waypoint,
37.3089338,-119.5776724,3771.4367568408,191.272972,0,0.73887469556,25000,2018-06-16 18:57:44,17,0,23.614,3771.4367568408,191.272972,0.223694,1.50036750208,0,0,-0.671082,335, 1.3, 1.3,0,0,1024,1024,1024,1024,334.3,-89.9,96,3.911,3.918,3.965,3.939,3.95,3.946,17.871,77,14,Waypoint,
37.3089338,-119.5776722,3774.3895128408,194.225728,0,0.7320046166,25300,2018-06-16 18:57:44,17,0,23.614,3774.3895128408,194.225728,0.223694,1.50036750208,0,0,-0.671082,334.9, 1.6, 0.9,0,0,1024,1024,1024,1024,334.3,-89.9,96,3.911,3.918,3.965,3.939,3.95,3.946,17.871,77,14,Waypoint,
37.3089338,-119.5776722,3776.3580168408,196.194232,0,0.7320046166,25510,2018-06-16 18:57:45,17,0,23.614,3776.3580168408,196.194232,0.223694,1.50036750208,0,0,-0.671082,334.7, 1.9, 1,0,0,1024,1024,1024,1024,334.3,-89.9,96,3.911,3.918,3.965,3.939,3.95,3.946,17.871,77,14,Waypoint,
37.3089338,-119.5776722,3776.3580168408,196.194232,0,0.7320046166,25600,2018-06-16 18:57:45,17,0,23.614,3776.3580168408,196.194232,0.223694,1.50036750208,0,0,-0.671082,334.7, 1.9, 1,0,0,1024,1024,1024,1024,334.3,-89.9,96,3.911,3.918,3.965,3.939,3.95,3.946,17.871,77,14,Waypoint,
37.3089338,-119.5776722,3777.3422688408,197.178484,0,0.7320046166,25700,2018-06-16 18:57:45,17,0,23.614,3777.3422688408,197.178484,0.223694,1.50036750208,0,0,-0.671082,334.6, 1.8, 1,0,0,1024,1024,1024,1024,334.3,-89.9,96,3.911,3.918,3.965,3.939,3.95,3.946,17.871,77,14,Waypoint,
37.3089338,-119.5776721,3778.3265208408,198.162736,0,0.73027561392,25800,2018-06-16 18:57:45,17,0,23.614,3778.3265208408,198.162736,0.223694,1.50036750208,0,0,-0.671082,334.7, 1.7, 1,0,0,1024,1024,1024,1024,334.3,-89.9,96,3.911,3.918,3.965,3.939,3.95,3.946,17.871,77,14,Waypoint,
37.3089338,-119.5776721,3779.3107728408,199.146988,0,0.73027561392,25900,2018-06-16 18:57:45,17,0,23.614,3779.3107728408,199.146988,0.223694,1.50036750208,0,0,-0.671082,334.8, 1.6, 0.9,0,0,1024,1024,1024,1024,334.3,-89.9,96,3.911,3.918,3.965,3.939,3.95,3.946,17.871,77,14,Waypoint,
37.3089338,-119.577672,3780.2950248408,200.13124,0,0.72969818608,26000,2018-06-16 18:57:45,17,0,23.539,3780.2950248408,200.13124,0.223694,1.50036750208,0,0,-0.671082,334.8, 1.6, 0.5,0,0,1024,1024,1024,1024,334.3,-89.9,96,3.9,3.904,3.948,3.922,3.935,3.924,18.73,77,14,Waypoint,
37.3089338,-119.5776719,3782.2635288408,202.099744,0,0.73027561392,26200,2018-06-16 18:57:45,17,0,23.539,3782.2635288408,202.099744,0.223694,1.50036750208,0,0,-0.671082,334.7, 1.4, 0.6,0,0,1024,1024,1024,1024,334.3,-89.9,96,3.9,3.904,3.948,3.922,3.935,3.924,18.73,77,14,Waypoint,
37.3089338,-119.5776719,3783.2477808408,203.083996,0,0.73027561392,26300,2018-06-16 18:57:45,17,0,23.539,3783.2477808408,203.083996,0.223694,1.50036750208,0,0,-0.671082,334.6, 1.3, 0.6,0,0,1024,1024,1024,1024,334.3,-90,96,3.9,3.904,3.948,3.922,3.935,3.924,18.73,77,14,Waypoint,
37.3089338,-119.5776718,3785.2162848408,205.0525,0,0.7320046166,26400,2018-06-16 18:57:46,17,0,23.539,3785.2162848408,205.0525,0.223694,1.50036750208,0,0,-0.671082,334.7, 1, 0.5,0,0,1024,1024,1024,1024,334.3,-89.9,96,3.9,3.904,3.948,3.922,3.935,3.924,18.73,77,14,Waypoint,
37.3089338,-119.5776717,3787.1847888408,207.021004,0,0.7348753516,26600,2018-06-16 18:57:46,17,0,23.539,3787.1847888408,207.021004,0.223694,1.50036750208,0,0,-0.671082,334.8, 0.8, 0.6,0,0,1024,1024,1024,1024,334.3,-90,96,3.9,3.904,3.948,3.922,3.935,3.924,18.73,77,14,Waypoint,
37.3089337,-119.5776717,3788.1690408408,208.005256,0,0.77111551024,26710,2018-06-16 18:57:46,17,0,23.539,3788.1690408408,208.005256,0.223694,1.50036750208,0,0,-0.671082,334.9, 0.5, 0.7,0,0,1024,1024,1024,1024,334.3,-89.9,96,3.9,3.904,3.948,3.922,3.935,3.924,18.73,77,14,Waypoint,
37.3089337,-119.5776717,3789.1532928408,208.989508,0,0.77111551024,26800,2018-06-16 18:57:46,17,0,23.539,3789.1532928408,208.989508,0.223694,1.50036750208,0,0,-0.671082,335, 0.4, 0.9,0,0,1024,1024,1024,1024,334.3,-89.9,96,3.9,3.904,3.948,3.922,3.935,3.924,18.73,77,14,Waypoint,
37.3089337,-119.5776716,3790.1375448408,209.97376,0,0.77492784632,26900,2018-06-16 18:57:46,17,0,23.539,3790.1375448408,209.97376,0.223694,1.50036750208,0,0,-0.671082,335.1, 0.7, 1,0,0,1024,1024,1024,1024,334.3,-89.9,96,3.9,3.904,3.948,3.922,3.935,3.924,18.73,77,14,Waypoint,
37.3089337,-119.5776716,3791.1217968408,210.958012,0,0.77492784632,27010,2018-06-16 18:57:46,17,0,23.524,3791.1217968408,210.958012,0.223694,1.50036750208,0,0,-0.671082,335.1, 1.1, 1,0,0,1024,1024,1024,1024,334.3,-89.9,96,3.901,3.904,3.947,3.917,3.942,3.927,18.532,78.8,14,Waypoint,
37.3089337,-119.5776716,3792.1060488408,211.942264,0,0.77492784632,27100,2018-06-16 18:57:46,17,0,23.524,3792.1060488408,211.942264,0.223694,1.50036750208,0,0,-0.671082,335.1, 1.4, 1,0,0,1024,1024,1024,1024,334.3,-89.9,96,3.901,3.904,3.947,3.917,3.942,3.927,18.532,78.8,14,Waypoint,
