latitude,longitude,altitude(feet),ascent(feet),speed(mph),distance(feet),time(millisecond),datetime(utc),satellites,gpslevel,voltage(v),max_altitude(feet),max_ascent(feet),max_speed(mph),max_distance(feet), xSpeed(mph), ySpeed(mph), zSpeed(mph), compass_heading(degrees), pitch(degrees), roll(degrees),isPhoto,isVideo,rc_elevator,rc_aileron,rc_throttle,rc_rudder,gimbal_heading(degrees),gimbal_pitch(degrees),battery_percent,voltageCell1,voltageCell2,voltageCell3,voltageCell4,voltageCell5,voltageCell6,current(A),battery_temperature(f),flycStateRaw,flycState,message
37.3088806,-119.5776634,3580.4301129333,0,0,0,3030,2018-06-16 19:37:28,12,0,25.678,3580.4301129333,0,0,0,0,0,0,330.3, 1, -0.4,1,0,1024,1024,1024,1024,330.1,-89.9,98,4.295,4.306,4.272,4.276,4.286,4.284,1.266,84.2,11,AutoTakeoff,DJI_0731.jpg Starting Mission from Lat/Long: 37.30887/-119.57767 Camera: Zenmuse X3 - Overlap: 90/90 - Active Connection: No
37.3088805,-119.5776634,3580.4301129333,0,0,0.036484909304,3200,2018-06-16 19:37:28,12,0,25.678,3580.4301129333,0,0,0.036484909304,0,0,0,330.4, 1, -0.2,0,0,1024,1024,1024,1024,330.1,-89.9,98,4.295,4.306,4.272,4.276,4.286,4.284,1.266,84.2,11,AutoTakeoff,
37.3088805,-119.5776635,3580.7581969333,0.328084,0,0.046618439812,3300,2018-06-16 19:37:28,12,0,25.678,3580.7581969333,0.328084,0,0.046618439812,0,0,0,330.6, 0.2, 0.3,0,0,1024,1024,1024,1024,330,-89.9,98,4.295,4.306,4.272,4.276,4.286,4.284,1.266,84.2,11,AutoTakeoff,
37.3088805,-119.5776635,3580.7581969333,0.328084,0,0.046618439812,3400,2018-06-16 19:37:28,12,0,25.678,3580.7581969333,0.328084,0,0.046618439812,0,0,0,330.7, 0, 0.4,0,0,1024,1024,1024,1024,330.1,-89.9,98,4.295,4.306,4.272,4.276,4.286,4.284,1.266,84.2,11,AutoTakeoff,
37.3088805,-119.5776635,3581.0862809333,0.656168,0,0.046618439812,3500,2018-06-16 19:37:28,12,0,25.678,3581.0862809333,0.656168,0,0.046618439812,0,0,0,330.6, -0.1, 0.6,0,0,1024,1024,1024,1024,330,-89.9,98,4.295,4.306,4.272,4.276,4.286,4.284,1.266,84.2,11,AutoTakeoff,
37.3088805,-119.5776636,3581.0862809333,0.656168,0,0.068554136052,3700,2018-06-16 19:37:28,12,0,25.678,3581.0862809333,0.656168,0,0.068554136052,0,0,0,330.5, -0.3, 0.7,0,0,1024,1024,1024,1024,330,-89.9,98,4.295,4.306,4.272,4.276,4.286,4.284,1.266,84.2,11,AutoTakeoff,
37.3088805,-119.5776636,3581.4143649333,0.984252,0,0.068554136052,3800,2018-06-16 19:37:28,13,0,25.678,3581.4143649333,0.984252,0,0.068554136052,0,0,0,330.4, -0.3, 0.7,0,0,1024,1024,1024,1024,330.1,-89.9,98,4.295,4.306,4.272,4.276,4.286,4.284,1.266,84.2,11,AutoTakeoff,
37.3088806,-119.5776635,3581.4143649333,0.984252,0,0.029019357884,3900,2018-06-16 19:37:29,13,0,25.678,3581.4143649333,0.984252,0,0.068554136052,0,0,0,330.3, 0, 0.2,0,0,1024,1024,1024,1024,330,-89.9,98,4.295,4.306,4.272,4.276,4.286,4.284,1.266,84.2,11,AutoTakeoff,
37.3088806,-119.5776635,3581.7424489333,1.312336,0,0.029019357884,4000,2018-06-16 19:37:29,13,0,25.609,3581.7424489333,1.312336,0,0.068554136052,0,0,0,330.2, 0.1, 0.1,0,0,1024,1024,1024,1024,330,-89.9,98,4.295,4.306,4.272,4.276,4.286,4.284,14.558,84.2,11,AutoTakeoff,
37.3088806,-119.5776636,3581.7424489333,1.312336,0,0.058038715768,4100,2018-06-16 19:37:29,13,0,25.609,3581.7424489333,1.312336,0,0.068554136052,0,0,0,330.2, 0.2, 0,0,0,1024,1024,1024,1024,330,-89.9,98,4.295,4.306,4.272,4.276,4.286,4.284,14.558,84.2,11,AutoTakeoff,
37.3088806,-119.5776636,3582.0705329333,1.64042,0,0.058038715768,4200,2018-06-16 19:37:29,13,0,25.609,3582.0705329333,1.64042,0,0.068554136052,0,0,-0.223694,330.3, 0, 0.2,0,0,1024,1024,1024,1024,330,-89.9,98,4.295,4.306,4.272,4.276,4.286,4.284,14.558,84.2,11,AutoTakeoff,
37.3088806,-119.5776636,3582.0705329333,1.64042,0,0.058038715768,4300,2018-06-16 19:37:29,13,0,25.609,3582.0705329333,1.64042,0,0.068554136052,0,0,0,330.4, -0.1, 0.1,0,0,1024,1024,1024,1024,330,-89.9,98,4.295,4.306,4.272,4.276,4.286,4.284,14.558,84.2,11,AutoTakeoff,
37.3088806,-119.5776636,3582.3986169333,1.968504,0,0.058038715768,4400,2018-06-16 19:37:29,13,0,25.609,3582.3986169333,1.968504,0,0.068554136052,0,0,0,330.5, 0, 0,0,0,1024,1024,1024,1024,330.1,-89.9,98,4.295,4.306,4.272,4.276,4.286,4.284,14.558,84.2,11,AutoTakeoff,
37.3088807,-119.5776636,3582.3986169333,1.968504,0,0.068554136052,4500,2018-06-16 19:37:29,13,0,25.609,3582.3986169333,1.968504,0,0.068554136052,0,0,0,330.7, 0.2, 0.1,0,0,1024,1024,1024,1024,330,-89.9,98,4.295,4.306,4.272,4.276,4.286,4.284,14.558,84.2,11,AutoTakeoff,
37.3088807,-119.5776636,3582.7267009333,2.296588,0,0.068554136052,4600,2018-06-16 19:37:29,13,0,25.609,3582.7267009333,2.296588,0,0.068554136052,0,0,0,330.8, 0.4, 0,0,0,1024,1024,1024,1024,330.1,-89.9,98,4.295,4.306,4.272,4.276,4.286,4.284,14.558,84.2,11,AutoTakeoff,
37.3088807,-119.5776636,3582.7267009333,2.296588,0,0.068554136052,4700,2018-06-16 19:37:29,13,0,25.609,3582.7267009333,2.296588,0,0.068554136052,0,0,-0.223694,330.7, 0.3, 0,0,0,1024,1024,1024,1024,330,-89.9,98,4.295,4.306,4.272,4.276,4.286,4.284,14.558,84.2,11,AutoTakeoff,
37.3088807,-119.5776636,3583.0547849333,2.624672,0,0.068554136052,4800,2018-06-16 19:37:29,12,0,25.609,3583.0547849333,2.624672,0,0.068554136052,0,0,0,330.7, 0.2, 0,0,0,1024,1024,1024,1024,330,-89.9,98,4.295,4.306,4.272,4.276,4.286,4.284,14.558,84.2,11,AutoTakeoff,
37.3088807,-119.5776636,3583.0547849333,2.624672,0,0.068554136052,4900,2018-06-16 19:37:30,12,0,25.609,3583.0547849333,2.624672,0,0.068554136052,0,0,0,330.8, 0.1, 0.1,0,0,1024,1024,1024,1024,330,-89.9,98,4.295,4.306,4.272,4.276,4.286,4.284,14.558,84.2,11,AutoTakeoff,
37.3088807,-119.5776636,3583.3828689333,2.952756,0,0.068554136052,5000,2018-06-16 19:37:30,11,0,25.609,3583.3828689333,2.952756,0,0.068554136052,0,0,0,330.8, 0, 0.2,0,0,1024,1024,1024,1024,330,-89.9,98,4.129,4.121,4.201,4.228,4.238,4.21,14.558,84.2,6,P-GPS,
37.3088806,-119.5776636,3583.3828689333,2.952756,0,0.058038715768,5100,2018-06-16 19:37:30,11,0,25.609,3583.3828689333,2.952756,0,0.068554136052,0,0,0,330.6, 0, 0.3,0,0,1024,1024,1024,1024,330,-89.9,98,4.129,4.121,4.201,4.228,4.238,4.21,14.558,84.2,14,Waypoint,
37.3088806,-119.5776637,3583.7109529333,3.28084,0,0.087058073652,5200,2018-06-16 19:37:30,11,0,25.609,3583.7109529333,3.28084,0,0.087058073652,0,0,0,330.5, -0.1, 0.5,0,0,1024,1024,1024,1024,330,-90,98,4.129,4.121,4.201,4.228,4.238,4.21,14.558,84.2,14,Waypoint,
37.3088806,-119.5776636,3583.7109529333,3.28084,0,0.058038715768,5300,2018-06-16 19:37:30,11,0,25.609,3583.7109529333,3.28084,0,0.087058073652,0,0,0,330.4, -0.1, 0.5,0,0,1024,1024,1024,1024,330,-89.9,98,4.129,4.121,4.201,4.228,4.238,4.21,14.558,84.2,14,Waypoint,
37.3088806,-119.5776636,3583.7109529333,3.28084,0,0.058038715768,5400,2018-06-16 19:37:30,11,0,25.609,3583.7109529333,3.28084,0,0.087058073652,0,0,0,330.3, -0.1, 0.4,0,0,1024,1024,1024,1024,330,-89.9,98,4.129,4.121,4.201,4.228,4.238,4.21,14.558,84.2,14,Waypoint,
37.3088807,-119.5776635,3584.0390369333,3.608924,0,0.046618439812,5500,2018-06-16 19:37:30,11,0,25.609,3584.0390369333,3.608924,0,0.087058073652,0,0,0,330.2, 0, 0.1,0,0,1024,1024,1024,1024,330,-89.9,98,4.129,4.121,4.201,4.228,4.238,4.21,14.558,84.2,14,Waypoint,
37.3088807,-119.5776634,3584.0390369333,3.608924,0,0.036484909304,5600,2018-06-16 19:37:30,11,0,25.609,3584.0390369333,3.608924,0,0.087058073652,0,0,-0.223694,330.2, -0.1, -0.1,0,0,1024,1024,1024,1024,330,-89.9,98,4.129,4.121,4.201,4.228,4.238,4.21,14.558,84.2,14,Waypoint,
37.3088808,-119.5776635,3584.6952049333,4.265092,0,0.07852854582,5700,2018-06-16 19:37:30,11,0,25.609,3584.6952049333,4.265092,0,0.087058073652,0,0,-0.223694,330.1, 0, -0.3,0,0,1024,1024,1024,1024,330,-89.9,98,4.129,4.121,4.201,4.228,4.238,4.21,14.558,84.2,14,Waypoint,
37.3088808,-119.5776634,3584.6952049333,4.265092,0,0.072969818608,5800,2018-06-16 19:37:30,11,0,25.609,3584.6952049333,4.265092,0,0.087058073652,0,0,-0.223694,330.1, 0.2, -0.3,0,0,1024,1024,1024,1024,330,-89.9,98,4.129,4.121,4.201,4.228,4.238,4.21,14.558,84.2,14,Waypoint,
37.3088809,-119.5776634,3585.3513729333,4.92126,0,0.109454727912,5920,2018-06-16 19:37:31,10,0,25.609,3585.3513729333,4.92126,0,0.109454727912,0,0,-0.223694,330.1, 0.2, -0.3,0,0,1024,1024,1024,1024,330.1,-89.9,98,4.129,4.121,4.201,4.228,4.238,4.21,14.558,84.2,14,Waypoint,
37.3088809,-119.5776634,3585.6794569333,5.249344,0,0.109454727912,6000,2018-06-16 19:37:31,10,0,24.652,3585.6794569333,5.249344,0,0.109454727912,0,0,-0.447388,330.2, 0.2, -0.3,0,0,1024,1024,1024,1024,330,-89.9,98,4.094,4.092,4.105,4.102,4.114,4.147,15.864,84.2,14,Waypoint,
37.308881,-119.5776634,3586.3356249333,5.905512,0,0.145939637216,6200,2018-06-16 19:37:31,11,0,24.652,3586.3356249333,5.905512,0,0.145939637216,0,0,-0.447388,330.3, 0.2, -0.1,0,0,1024,1024,1024,1024,330,-89.9,98,4.094,4.092,4.105,4.102,4.114,4.147,15.864,84.2,14,Waypoint,
37.308881,-119.5776633,3586.6637089333,6.233596,0,0.148796920772,6300,2018-06-16 19:37:31,11,0,24.652,3586.6637089333,6.233596,0,0.148796920772,0,0,-0.447388,330.4, 0.1, 0,0,0,1024,1024,1024,1024,330,-89.9,98,4.094,4.092,4.105,4.102,4.114,4.147,15.864,84.2,14,Waypoint,
37.3088811,-119.5776633,3587.3198769333,6.889764,0,0.184718509848,6400,2018-06-16 19:37:31,11,0,24.652,3587.3198769333,6.889764,0,0.184718509848,0,0,-0.447388,330.4, 0.2, -0.1,0,0,1024,1024,1024,1024,330,-89.9,98,4.094,4.092,4.105,4.102,4.114,4.147,15.864,84.2,14,Waypoint,
37.3088812,-119.5776632,3588.3041289333,7.874016,0,0.226472776276,6500,2018-06-16 19:37:31,11,0,24.652,3588.3041289333,7.874016,0,0.226472776276,0,0,-0.447388,330.6, 0.3, 0,0,0,1024,1024,1024,1024,330,-89.9,98,4.094,4.092,4.105,4.102,4.114,4.147,15.864,84.2,14,Waypoint,
37.3088813,-119.5776632,3588.9602969333,8.530184,0,0.26190617636,6600,2018-06-16 19:37:31,11,0,24.652,3588.9602969333,8.530184,0,0.26190617636,0,0,-0.671082,330.7, 0.4, 0,0,0,1024,1024,1024,1024,330,-89.9,98,4.094,4.092,4.105,4.102,4.114,4.147,15.864,84.2,14,Waypoint,
37.3088814,-119.5776631,3589.9445489333,9.514436,0,0.304586295836,6700,2018-06-16 19:37:31,11,0,24.652,3589.9445489333,9.514436,0,0.304586295836,0,0,-0.671082,330.7, 0.4, -0.1,0,0,1024,1024,1024,1024,330.1,-89.9,98,4.094,4.092,4.105,4.102,4.114,4.147,15.864,84.2,14,Waypoint,
37.3088815,-119.5776631,3590.9288009333,10.498688,0,0.33970801612,6800,2018-06-16 19:37:31,10,0,24.652,3590.9288009333,10.498688,0,0.33970801612,0,0,-0.671082,330.7, 0.6, -0.3,0,0,1024,1024,1024,1024,330.1,-89.9,98,4.094,4.092,4.105,4.102,4.114,4.147,15.864,84.2,14,Waypoint,
37.3088816,-119.577663,3591.9130529333,11.48294,0,0.38287074716,6900,2018-06-16 19:37:32,10,0,24.652,3591.9130529333,11.48294,0,0.38287074716,0,0,-0.671082,330.7, 0.8, -0.4,0,0,1024,1024,1024,1024,330,-89.9,98,4.094,4.092,4.105,4.102,4.114,4.147,15.864,84.2,14,Waypoint,
37.3088817,-119.5776629,3593.2253889333,12.795276,0,0.42675854384,7000,2018-06-16 19:37:32,12,0,24.717,3593.2253889333,12.795276,0,0.42675854384,0,0,-0.671082,330.7, 1, -0.6,0,0,1024,1024,1024,1024,330.1,-89.9,98,4.079,4.06,4.113,4.091,4.088,4.114,15.947,84.2,14,Waypoint,
37.3088819,-119.5776629,3594.2096409333,13.779528,0,0.49600067204,7100,2018-06-16 19:37:32,12,0,24.717,3594.2096409333,13.779528,0,0.49600067204,0,0,-0.671082,330.6, 1, -0.7,0,0,1024,1024,1024,1024,330.1,-89.9,98,4.079,4.06,4.113,4.091,4.088,4.114,15.947,84.2,14,Waypoint,
37.308882,-119.5776629,3595.1938929333,14.76378,0,0.53099739232,7200,2018-06-16 19:37:32,11,0,24.717,3595.1938929333,14.76378,0,0.53099739232,0,0,-0.671082,330.6, 1, -0.6,0,0,1024,1024,1024,1024,330,-89.9,98,4.079,4.06,4.113,4.091,4.088,4.114,15.947,84.2,14,Waypoint,
37.3088821,-119.5776628,3596.5062289333,16.076116,0,0.57430448032,7300,2018-06-16 19:37:32,11,0,24.717,3596.5062289333,16.076116,0,0.57430448032,0,0,-0.671082,330.6, 1, -0.4,0,0,1024,1024,1024,1024,330,-89.9,98,4.079,4.06,4.113,4.091,4.088,4.114,15.947,84.2,14,Waypoint,
37.3088822,-119.5776626,3597.4904809333,17.060368,0,0.62822836656,7400,2018-06-16 19:37:32,11,0,24.717,3597.4904809333,17.060368,0,0.62822836656,0,0,-0.671082,330.6, 1.1, -0.7,0,0,1024,1024,1024,1024,330.1,-89.9,98,4.079,4.06,4.113,4.091,4.088,4.114,15.947,84.2,14,Waypoint,
37.3088821,-119.5776623,3598.8028169333,18.372704,0,0.63356629324,7500,2018-06-16 19:37:32,11,0,24.717,3598.8028169333,18.372704,0,0.63356629324,0,0,-0.671082,330.6, 0.8, -1,0,0,1024,1024,1024,1024,330.1,-90,98,4.079,4.06,4.113,4.091,4.088,4.114,15.947,84.2,14,Waypoint,
37.308882,-119.5776621,3599.7870689333,19.356956,0,0.63500002032,7700,2018-06-16 19:37:32,11,0,24.717,3599.7870689333,19.356956,0,0.63500002032,0,0,-0.671082,330.6, 0.3, -1.3,0,0,1024,1024,1024,1024,330,-90,98,4.079,4.06,4.113,4.091,4.088,4.114,15.947,84.2,14,Waypoint,
37.3088819,-119.577662,3603.0679089333,22.637796,0,0.62451773652,7800,2018-06-16 19:37:32,12,0,24.717,3603.0679089333,22.637796,0,0.63500002032,0,0,-0.671082,330.7, -0.3, -1.2,0,0,1024,1024,1024,1024,330,-89.9,98,4.079,4.06,4.113,4.091,4.088,4.114,15.947,84.2,14,Waypoint,
37.3088818,-119.577662,3604.0521609333,23.622048,0,0.59728020284,8000,2018-06-16 19:37:33,11,0,24.148,3604.0521609333,23.622048,0,0.63500002032,0,0,-0.671082,330.7, -0.1, -0.7,0,0,1024,1024,1024,1024,330.1,-89.9,98,4.001,3.992,4.017,4.011,4.022,4.022,22.122,84.2,14,Waypoint,
37.3088817,-119.5776621,3605.0364129333,24.6063,0,0.55080710424,8100,2018-06-16 19:37:33,11,0,24.148,3605.0364129333,24.6063,0,0.63500002032,0,0,-0.671082,330.6, -0.1, -0.3,0,0,1024,1024,1024,1024,330,-89.9,98,4.001,3.992,4.017,4.011,4.022,4.022,22.122,84.2,14,Waypoint,
37.3088815,-119.5776622,3606.0206649333,25.590552,0.3131716,0.47863190508,8200,2018-06-16 19:37:33,11,0,24.148,3606.0206649333,25.590552,0.3131716,0.63500002032,0,0,-0.671082,330.5, -0.1, 0.2,0,0,1024,1024,1024,1024,330.1,-89.9,98,4.001,3.992,4.017,4.011,4.022,4.022,22.122,84.2,14,Waypoint,
37.3088814,-119.5776624,3607.3330009333,26.902888,0.223694,0.41159122052,8300,2018-06-16 19:37:33,11,0,24.148,3607.3330009333,26.902888,0.3131716,0.63500002032,0,0,-0.671082,330.5, -0.2, 0.8,0,0,1024,1024,1024,1024,330,-89.9,98,4.001,3.992,4.017,4.011,4.022,4.022,22.122,84.2,14,Waypoint,
37.3088813,-119.5776626,3608.3172529333,27.88714,0.223694,0.34514108716,8400,2018-06-16 19:37:33,11,0,24.148,3608.3172529333,27.88714,0.3131716,0.63500002032,0,0,-0.671082,330.5, -0.1, 1.2,0,0,1024,1024,1024,1024,330,-89.9,98,4.001,3.992,4.017,4.011,4.022,4.022,22.122,84.2,14,Waypoint,
37.3088812,-119.5776628,3609.3015049333,28.871392,0.223694,0.279710310788,8500,2018-06-16 19:37:33,11,0,24.148,3609.3015049333,28.871392,0.3131716,0.63500002032,0,0,-0.671082,330.6, 0.2, 1.7,0,0,1024,1024,1024,1024,330,-89.9,98,4.001,3.992,4.017,4.011,4.022,4.022,22.122,84.2,14,Waypoint,
37.3088811,-119.5776629,3610.2857569333,29.855644,0,0.233091870976,8600,2018-06-16 19:37:33,12,0,24.148,3610.2857569333,29.855644,0.3131716,0.63500002032,0,0,-0.671082,330.7, 0.2, 1.8,0,0,1024,1024,1024,1024,330.1,-89.9,98,4.001,3.992,4.017,4.011,4.022,4.022,22.122,84.2,14,Waypoint,
37.308881,-119.5776632,3611.2700089333,30.839896,0,0.15705709164,8700,2018-06-16 19:37:33,12,0,24.148,3611.2700089333,30.839896,0.3131716,0.63500002032,0,0,-0.671082,330.7, 0.2, 1.4,0,0,1024,1024,1024,1024,330,-89.9,98,4.001,3.992,4.017,4.011,4.022,4.022,22.122,84.2,14,Waypoint,
37.3088809,-119.5776634,3612.5823449333,32.152232,0,0.109454727912,8800,2018-06-16 19:37:33,12,0,24.148,3612.5823449333,32.152232,0.3131716,0.63500002032,0,0,-0.671082,330.6, 0.5, 1.1,0,0,1024,1024,1024,1024,330.1,-89.9,98,4.001,3.992,4.017,4.011,4.022,4.022,22.122,84.2,14,Waypoint,
37.3088808,-119.5776635,3613.5665969333,33.136484,0,0.07852854582,8900,2018-06-16 19:37:34,12,0,24.148,3613.5665969333,33.136484,0.3131716,0.63500002032,0,0,-0.671082,330.5, 0.7, 1,0,0,1024,1024,1024,1024,330.1,-89.9,98,4.001,3.992,4.017,4.011,4.022,4.022,22.122,84.2,14,Waypoint,
37.3088806,-119.5776636,3614.5508489333,34.120736,0,0.058038715768,9000,2018-06-16 19:37:34,14,0,24.179,3614.5508489333,34.120736,0.3131716,0.63500002032,0,0,-0.671082,330.5, 0.4, 0.9,0,0,1024,1024,1024,1024,330,-89.9,98,4.031,4.023,4.042,4.038,4.05,4.043,20.678,84.2,14,Waypoint,
37.3088805,-119.5776637,3615.5351009333,35.104988,0,0.094394359976,9100,2018-06-16 19:37:34,14,0,24.179,3615.5351009333,35.104988,0.3131716,0.63500002032,0,0,-0.671082,330.5, 0.1, 0.7,0,0,1024,1024,1024,1024,330.1,-89.9,98,4.031,4.023,4.042,4.038,4.05,4.043,20.678,84.2,14,Waypoint,
37.3088804,-119.5776637,3616.5193529333,36.08924,0,0.113594491824,9200,2018-06-16 19:37:34,14,0,24.179,3616.5193529333,36.08924,0.3131716,0.63500002032,0,0,-0.671082,330.5, -0.1, 0.7,0,0,1024,1024,1024,1024,330.1,-89.9,98,4.031,4.023,4.042,4.038,4.05,4.043,20.678,84.2,14,Waypoint,
37.3088803,-119.5776639,3617.5036049333,37.073492,0,0.181750990068,9300,2018-06-16 19:37:34,14,0,24.179,3617.5036049333,37.073492,0.3131716,0.63500002032,0,0,-0.671082,330.5, -0.4, 0.7,0,0,1024,1024,1024,1024,330,-89.9,98,4.031,4.023,4.042,4.038,4.05,4.043,20.678,84.2,14,Waypoint,
37.3088802,-119.5776641,3618.4878569333,38.057744,0,0.250125008004,9400,2018-06-16 19:37:34,14,0,24.179,3618.4878569333,38.057744,0.3131716,0.63500002032,0,0,-0.671082,330.4, -0.5, 1,0,0,1024,1024,1024,1024,330,-89.9,98,4.031,4.023,4.042,4.038,4.05,4.043,20.678,84.2,14,Waypoint,
37.3088801,-119.5776642,3619.4721089333,39.041996,0,0.295253618372,9500,2018-06-16 19:37:34,14,0,24.179,3619.4721089333,39.041996,0.3131716,0.63500002032,0,0,-0.671082,330.4, -0.4, 1.4,0,0,1024,1024,1024,1024,330,-89.9,98,4.031,4.023,4.042,4.038,4.05,4.043,20.678,84.2,14,Waypoint,
37.30888,-119.5776643,3620.7844449333,40.354332,0,0.34078413164,9600,2018-06-16 19:37:34,16,0,24.179,3620.7844449333,40.354332,0.3131716,0.63500002032,0,0,-0.671082,330.3, -0.4, 1.4,0,0,1024,1024,1024,1024,330,-89.9,98,4.031,4.023,4.042,4.038,4.05,4.043,20.678,84.2,14,Waypoint,
37.3088799,-119.5776643,3621.7686969333,41.338584,0,0.36529200644,9700,2018-06-16 19:37:34,16,0,24.179,3621.7686969333,41.338584,0.3131716,0.63500002032,0,0,-0.671082,330.3, -0.5, 1.3,0,0,1024,1024,1024,1024,330.1,-89.9,98,4.031,4.023,4.042,4.038,4.05,4.043,20.678,84.2,14,Waypoint,
37.3088798,-119.5776643,3622.7529489333,42.322836,0,0.39166996004,9800,2018-06-16 19:37:34,15,0,24.179,3622.7529489333,42.322836,0.3131716,0.63500002032,0,0,-0.671082,330.3, -0.6, 1.3,0,0,1024,1024,1024,1024,330.1,-89.9,98,4.031,4.023,4.042,4.038,4.05,4.043,20.678,84.2,14,Waypoint,
37.3088798,-119.5776643,3623.7372009333,43.307088,0,0.39166996004,9900,2018-06-16 19:37:35,15,0,24.179,3623.7372009333,43.307088,0.3131716,0.63500002032,0,0,-0.671082,330.3, -0.5, 1.1,0,0,1024,1024,1024,1024,330.1,-89.9,98,4.031,4.023,4.042,4.038,4.05,4.043,20.678,84.2,14,Waypoint,
37.3088798,-119.5776644,3624.7214529333,44.29134,0,0.41159122052,10020,2018-06-16 19:37:35,13,0,24.241,3624.7214529333,44.29134,0.3131716,0.63500002032,0,0,-0.671082,330.3, -0.5, 0.8,0,0,1024,1024,1024,1024,330,-89.9,98,4.033,4.03,4.044,4.043,4.056,4.045,19.07,84.2,14,Waypoint,
37.3088798,-119.5776644,3624.7214529333,44.29134,0,0.41159122052,10100,2018-06-16 19:37:35,13,0,24.241,3624.7214529333,44.29134,0.3131716,0.63500002032,0,0,-0.671082,330.3, -0.5, 0.8,0,0,1024,1024,1024,1024,330,-89.9,98,4.033,4.03,4.044,4.043,4.056,4.045,19.07,84.2,14,Waypoint,
37.3088798,-119.5776645,3626.6899569333,46.259844,0,0.43253938392,10200,2018-06-16 19:37:35,13,0,24.241,3626.6899569333,46.259844,0.3131716,0.63500002032,0,0,-0.671082,330.5, 0, 0.7,0,0,1024,1024,1024,1024,330,-89.9,98,4.033,4.03,4.044,4.043,4.056,4.045,19.07,84.2,14,Waypoint,
37.3088798,-119.5776645,3629.6427129333,49.2126,0,0.43253938392,10500,2018-06-16 19:37:35,13,0,24.241,3629.6427129333,49.2126,0.3131716,0.63500002032,0,0,-0.671082,330.7, 0.2, 0.7,0,0,1024,1024,1024,1024,330.1,-89.9,98,4.033,4.03,4.044,4.043,4.056,4.045,19.07,84.2,14,Waypoint,
37.3088799,-119.5776645,3631.6112169333,51.181104,0,0.40880578736,10700,2018-06-16 19:37:35,13,0,24.241,3631.6112169333,51.181104,0.3131716,0.63500002032,0,0,-0.671082,330.7, 0.4, 0.4,0,0,1024,1024,1024,1024,330.1,-89.9,98,4.033,4.03,4.044,4.043,4.056,4.045,19.07,84.2,14,Waypoint,
37.3088799,-119.5776644,3632.5954689333,52.165356,0,0.38657153468,10800,2018-06-16 19:37:35,12,0,24.241,3632.5954689333,52.165356,0.3131716,0.63500002032,0,0,-0.671082,330.7, 0.5, 0.6,0,0,1024,1024,1024,1024,330.1,-89.9,98,4.033,4.03,4.044,4.043,4.056,4.045,19.07,84.2,14,Waypoint,
37.3088799,-119.5776644,3633.5797209333,53.149608,0,0.38657153468,10900,2018-06-16 19:37:36,12,0,24.241,3633.5797209333,53.149608,0.3131716,0.63500002032,0,0,-0.671082,330.8, 0.5, 0.8,0,0,1024,1024,1024,1024,330,-89.9,98,4.033,4.03,4.044,4.043,4.056,4.045,19.07,84.2,14,Waypoint,
37.3088799,-119.5776643,3634.5639729333,54.13386,0,0.36529200644,11000,2018-06-16 19:37:36,15,0,24.225,3634.5639729333,54.13386,0.3131716,0.63500002032,0,0,-0.671082,330.8, 0.3, 0.7,0,0,1024,1024,1024,1024,330,-90,98,4.033,4.022,4.038,4.034,4.055,4.049,18.589,84.2,14,Waypoint,
37.30888,-119.5776643,3635.5482249333,55.118112,0,0.34078413164,11100,2018-06-16 19:37:36,15,0,24.225,3635.5482249333,55.118112,0.3131716,0.63500002032,0,0,-0.671082,330.9, 0.2, 0.4,0,0,1024,1024,1024,1024,330.1,-89.9,98,4.033,4.022,4.038,4.034,4.055,4.049,18.589,84.2,14,Waypoint,
37.30888,-119.5776643,3636.5324769333,56.102364,0,0.34078413164,11200,2018-06-16 19:37:36,15,0,24.225,3636.5324769333,56.102364,0.3131716,0.63500002032,0,0,-0.671082,330.9, 0.2, 0.3,0,0,1024,1024,1024,1024,330.1,-89.9,98,4.033,4.022,4.038,4.034,4.055,4.049,18.589,84.2,14,Waypoint,
37.3088801,-119.5776643,3637.5167289333,57.086616,0,0.31857612568,11300,2018-06-16 19:37:36,15,0,24.225,3637.5167289333,57.086616,0.3131716,0.63500002032,0,0,-0.671082,330.8, 0.1, 0.5,0,0,1024,1024,1024,1024,330,-89.9,98,4.033,4.022,4.038,4.034,4.055,4.049,18.589,84.2,14,Waypoint,
37.3088801,-119.5776642,3638.5009809333,58.070868,0,0.295253618372,11400,2018-06-16 19:37:36,16,0,24.225,3638.5009809333,58.070868,0.3131716,0.63500002032,0,0,-0.671082,330.6, 0, 0.4,0,0,1024,1024,1024,1024,330,-89.9,98,4.033,4.022,4.038,4.034,4.055,4.049,18.589,84.2,14,Waypoint,
37.3088802,-119.5776641,3639.4852329333,59.05512,0,0.250125008004,11500,2018-06-16 19:37:36,16,0,24.225,3639.4852329333,59.05512,0.3131716,0.63500002032,0,0,-0.671082,330.5, 0.2, 0.2,0,0,1024,1024,1024,1024,330,-89.9,98,4.033,4.022,4.038,4.034,4.055,4.049,18.589,84.2,14,Waypoint,
37.3088802,-119.5776641,3640.4694849333,60.039372,0,0.250125008004,11600,2018-06-16 19:37:36,16,0,24.225,3640.4694849333,60.039372,0.3131716,0.63500002032,0,0,-0.671082,330.3, 0.4, 0.2,0,0,1024,1024,1024,1024,330,-89.9,98,4.033,4.022,4.038,4.034,4.055,4.049,18.589,84.2,14,Waypoint,
37.3088803,-119.5776639,3641.4537369333,61.023624,0,0.181750990068,11700,2018-06-16 19:37:36,16,0,24.225,3641.4537369333,61.023624,0.3131716,0.63500002032,0,0,-0.671082,330.3, 0.4, 0,0,0,1024,1024,1024,1024,330,-89.9,98,4.033,4.022,4.038,4.034,4.055,4.049,18.589,84.2,14,Waypoint,
37.3088804,-119.5776638,3642.4379889333,62.007876,0,0.13710794402,11800,2018-06-16 19:37:36,15,0,24.225,3642.4379889333,62.007876,0.3131716,0.63500002032,0,0,-0.671082,330.3, 0.4, -0.4,0,0,1024,1024,1024,1024,330,-89.9,98,4.033,4.022,4.038,4.034,4.055,4.049,18.589,84.2,14,Waypoint,
37.3088805,-119.5776637,3643.4222409333,62.992128,0,0.094394359976,11900,2018-06-16 19:37:37,15,0,24.225,3643.4222409333,62.992128,0.3131716,0.63500002032,0,0,-0.671082,330.5, 0.4, -0.6,0,0,1024,1024,1024,1024,330,-89.9,98,4.033,4.022,4.038,4.034,4.055,4.049,18.589,84.2,14,Waypoint,
37.3088805,-119.5776637,3644.4064929333,63.97638,0,0.094394359976,12000,2018-06-16 19:37:37,15,0,24.239,3644.4064929333,63.97638,0.3131716,0.63500002032,0,0,-0.671082,330.6, 0.4, -0.5,0,0,1024,1024,1024,1024,330.1,-89.9,97,4.035,4.024,4.041,4.038,4.052,4.046,18.342,84.2,14,Waypoint,
37.3088806,-119.5776636,3645.7188289333,65.288716,0,0.058038715768,12100,2018-06-16 19:37:37,15,0,24.239,3645.7188289333,65.288716,0.3131716,0.63500002032,0,0,-0.671082,330.7, 0.1, -0.3,0,0,1024,1024,1024,1024,330.1,-89.9,97,4.035,4.024,4.041,4.038,4.052,4.046,18.342,84.2,14,Waypoint,
37.3088807,-119.5776635,3646.7030809333,66.272968,0,0.046618439812,12210,2018-06-16 19:37:37,16,0,24.239,3646.7030809333,66.272968,0.3131716,0.63500002032,0,0,-0.671082,330.8, -0.2, -0.6,0,0,1024,1024,1024,1024,330.1,-90,97,4.035,4.024,4.041,4.038,4.052,4.046,18.342,84.2,14,Waypoint,
37.3088809,-119.5776635,3647.3592489333,66.929136,0.223694,0.11323655218,12300,2018-06-16 19:37:37,16,0,24.239,3647.3592489333,66.929136,0.3131716,0.63500002032,0,0,-0.671082,330.8, 0, -0.9,0,0,1024,1024,1024,1024,330,-89.9,97,4.035,4.024,4.041,4.038,4.052,4.046,18.342,84.2,14,Waypoint,
37.308881,-119.5776634,3648.3435009333,67.913388,0.223694,0.145939637216,12400,2018-06-16 19:37:37,16,0,24.239,3648.3435009333,67.913388,0.3131716,0.63500002032,0,0,-0.671082,330.8, 0.7, -0.8,0,0,1024,1024,1024,1024,330.1,-89.9,97,4.035,4.024,4.041,4.038,4.052,4.046,18.342,84.2,14,Waypoint,
37.3088812,-119.5776633,3649.3277529333,68.89764,0.223694,0.220824810216,12500,2018-06-16 19:37:37,16,0,24.239,3649.3277529333,68.89764,0.3131716,0.63500002032,0,0,-0.671082,330.7, 1.7, -0.7,0,0,1024,1024,1024,1024,330,-89.9,97,4.035,4.024,4.041,4.038,4.052,4.046,18.342,84.2,14,Waypoint,
37.3088816,-119.5776632,3651.2962569333,70.866144,0.223694,0.36943570736,12600,2018-06-16 19:37:37,15,0,24.239,3651.2962569333,70.866144,0.3131716,0.63500002032,0,0,-0.671082,330.4, 2.9, -1.1,0,0,1024,1024,1024,1024,330,-89.9,97,4.035,4.024,4.041,4.038,4.052,4.046,18.342,84.2,14,Waypoint,
37.3088818,-119.5776631,3652.2805089333,71.850396,0.223694,0.4463910904,12700,2018-06-16 19:37:37,15,0,24.239,3652.2805089333,71.850396,0.3131716,0.63500002032,0,0,-0.671082,330.3, 3, -1.2,0,0,1024,1024,1024,1024,330,-89.9,97,4.035,4.024,4.041,4.038,4.052,4.046,18.342,84.2,14,Waypoint,
37.3088819,-119.577663,3652.9366769333,72.506564,0,0.48830054056,12900,2018-06-16 19:37:38,15,0,24.239,3652.9366769333,72.506564,0.3131716,0.63500002032,0,0,-0.671082,330.4, 2.9, -1.5,0,0,1024,1024,1024,1024,330,-89.9,97,4.035,4.024,4.041,4.038,4.052,4.046,18.342,84.2,14,Waypoint,
37.308882,-119.577663,3653.9209289333,73.490816,0,0.52381235272,13000,2018-06-16 19:37:38,15,0,24.155,3653.9209289333,73.490816,0.3131716,0.63500002032,0,0,-0.671082,330.5, 2.4, -1.7,0,0,1024,1024,1024,1024,330.1,-89.9,97,4.016,4.013,4.031,4.029,4.044,4.036,19.019,84.2,14,Waypoint,
37.3088821,-119.5776629,3654.9051809333,74.475068,0,0.56618112048,13100,2018-06-16 19:37:38,15,0,24.155,3654.9051809333,74.475068,0.3131716,0.63500002032,0,0,-0.671082,330.5, 1.9, -1.9,0,0,1024,1024,1024,1024,330,-89.9,97,4.016,4.013,4.031,4.029,4.044,4.036,19.019,84.2,14,Waypoint,
37.3088822,-119.5776628,3655.8894329333,75.45932,0,0.60917324784,13200,2018-06-16 19:37:38,15,0,24.155,3655.8894329333,75.45932,0.3131716,0.63500002032,0,0,-0.671082,330.4, 1.8, -1.8,0,0,1024,1024,1024,1024,330.1,-89.9,97,4.016,4.013,4.031,4.029,4.044,4.036,19.019,84.2,14,Waypoint,
37.3088824,-119.5776628,3657.8579369333,77.427824,0,0.67941931308,13400,2018-06-16 19:37:38,14,0,24.155,3657.8579369333,77.427824,0.3131716,0.67941931308,0,0,-0.671082,330.5, 1.8, -1.1,0,0,1024,1024,1024,1024,330.1,-89.9,97,4.016,4.013,4.031,4.029,4.044,4.036,19.019,84.2,14,Waypoint,
37.3088824,-119.5776628,3658.8421889333,78.412076,0,0.67941931308,13500,2018-06-16 19:37:38,14,0,24.155,3658.8421889333,78.412076,0.3131716,0.67941931308,0,0,-0.671082,330.6, 2, -0.7,0,0,1024,1024,1024,1024,330,-89.9,97,4.016,4.013,4.031,4.029,4.044,4.036,19.019,84.2,14,Waypoint,
37.3088825,-119.5776628,3659.8264409333,79.396328,0,0.7147473982,13600,2018-06-16 19:37:38,15,0,24.155,3659.8264409333,79.396328,0.3131716,0.7147473982,0,0,-0.671082,330.6, 2.2, -0.9,0,0,1024,1024,1024,1024,330.1,-89.9,97,4.016,4.013,4.031,4.029,4.044,4.036,19.019,84.2,14,Waypoint,
37.3088826,-119.5776628,3660.8106929333,80.38058,0,0.75018375104,13700,2018-06-16 19:37:38,15,0,24.155,3660.8106929333,80.38058,0.3131716,0.75018375104,0,0,-0.671082,330.5, 2.2, -1,0,0,1024,1024,1024,1024,330,-89.9,97,4.016,4.013,4.031,4.029,4.044,4.036,19.019,84.2,14,Waypoint,
37.3088826,-119.5776628,3661.7949449333,81.364832,0,0.75018375104,13800,2018-06-16 19:37:38,15,0,24.155,3661.7949449333,81.364832,0.3131716,0.75018375104,0,0,-0.671082,330.5, 2.2, -1.4,0,0,1024,1024,1024,1024,330,-89.9,97,4.016,4.013,4.031,4.029,4.044,4.036,19.019,84.2,14,Waypoint,
37.3088826,-119.5776627,3663.1072809333,82.677168,0,0.7574475308,13900,2018-06-16 19:37:39,15,0,24.155,3663.1072809333,82.677168,0.3131716,0.7574475308,0,0,-0.671082,330.5, 2.1, -1.6,0,0,1024,1024,1024,1024,330.1,-89.9,97,4.016,4.013,4.031,4.029,4.044,4.036,19.019,84.2,14,Waypoint,
37.3088827,-119.5776627,3664.0915329333,83.66142,0,0.79265422484,14000,2018-06-16 19:37:39,15,0,24.104,3664.0915329333,83.66142,0.3131716,0.79265422484,0,0,-0.671082,330.5, 2, -1.6,0,0,1024,1024,1024,1024,330.1,-89.9,97,4.005,3.993,4.023,4,4.027,4.013,19.099,84.2,14,Waypoint,
37.3088827,-119.5776627,3665.0757849333,84.645672,0,0.79265422484,14100,2018-06-16 19:37:39,15,0,24.104,3665.0757849333,84.645672,0.3131716,0.79265422484,0,0,-0.671082,330.5, 2, -1.5,0,0,1024,1024,1024,1024,330,-89.9,97,4.005,3.993,4.023,4,4.027,4.013,19.099,84.2,14,Waypoint,
37.3088826,-119.5776627,3666.0600369333,85.629924,0,0.7574475308,14200,2018-06-16 19:37:39,15,0,24.104,3666.0600369333,85.629924,0.3131716,0.79265422484,0,0,-0.671082,330.6, 1.8, -1.2,0,0,1024,1024,1024,1024,330,-89.9,97,4.005,3.993,4.023,4,4.027,4.013,19.099,84.2,14,Waypoint,
37.3088826,-119.5776627,3667.0442889333,86.614176,0,0.7574475308,14300,2018-06-16 19:37:39,15,0,24.104,3667.0442889333,86.614176,0.3131716,0.79265422484,0,0,-0.671082,330.7, 1.4, -1,0,0,1024,1024,1024,1024,330.1,-89.9,97,4.005,3.993,4.023,4,4.027,4.013,19.099,84.2,14,Waypoint,
37.3088826,-119.5776627,3668.0285409333,87.598428,0,0.7574475308,14400,2018-06-16 19:37:39,15,0,24.104,3668.0285409333,87.598428,0.3131716,0.79265422484,0,0,-0.671082,330.8, 1.1, -0.6,0,0,1024,1024,1024,1024,330.1,-89.9,97,4.005,3.993,4.023,4,4.027,4.013,19.099,84.2,14,Waypoint,
37.3088825,-119.5776627,3669.0127929333,88.58268,0,0.72236550868,14500,2018-06-16 19:37:39,15,0,24.104,3669.0127929333,88.58268,0.3131716,0.79265422484,0,0,-0.671082,330.7, 1, -0.4,0,0,1024,1024,1024,1024,330,-89.9,97,4.005,3.993,4.023,4,4.027,4.013,19.099,84.2,14,Waypoint,
37.3088825,-119.5776626,3669.9970449333,89.566932,0,0.73105645384,14600,2018-06-16 19:37:39,15,0,24.104,3669.9970449333,89.566932,0.3131716,0.79265422484,0,0,-0.671082,330.5, 0.9, -0.5,0,0,1024,1024,1024,1024,330,-89.9,97,4.005,3.993,4.023,4,4.027,4.013,19.099,84.2,14,Waypoint,
37.3088825,-119.5776627,3670.9812969333,90.551184,0,0.72236550868,14700,2018-06-16 19:37:39,15,0,24.104,3670.9812969333,90.551184,0.3131716,0.79265422484,0,0,-0.671082,330.3, 0.9, -1.1,0,0,1024,1024,1024,1024,330,-90,97,4.005,3.993,4.023,4,4.027,4.013,19.099,84.2,14,Waypoint,
37.3088825,-119.5776626,3672.9498009333,92.519688,0,0.73105645384,14900,2018-06-16 19:37:40,15,0,24.104,3672.9498009333,92.519688,0.3131716,0.79265422484,0,0,-0.671082,330, 0.8, -1.4,0,0,1024,1024,1024,1024,330,-89.9,97,4.005,3.993,4.023,4,4.027,4.013,19.099,84.2,14,Waypoint,
37.3088825,-119.5776625,3673.9340529333,93.50394,0,0.7407808636,15000,2018-06-16 19:37:40,16,0,24.007,3673.9340529333,93.50394,0.3131716,0.79265422484,0,0,-0.671082,330, 1, -1.5,0,0,1024,1024,1024,1024,330,-89.9,97,4.005,3.993,4.023,4,4.027,4.013,20.227,84.2,14,Waypoint,
37.3088825,-119.5776625,3675.2463889333,94.816276,0,0.7407808636,15100,2018-06-16 19:37:40,16,0,24.007,3675.2463889333,94.816276,0.3131716,0.79265422484,0,0,-0.671082,330, 1, -1.9,0,0,1024,1024,1024,1024,330,-89.9,97,4.005,3.993,4.023,4,4.027,4.013,20.227,84.2,14,Waypoint,
37.3088824,-119.5776624,3676.2306409333,95.800528,0,0.71798558728,15200,2018-06-16 19:37:40,16,0,24.007,3676.2306409333,95.800528,0.3131716,0.79265422484,0,0,-0.671082,330, 0.8, -2.1,0,0,1024,1024,1024,1024,330.1,-90,97,4.005,3.993,4.023,4,4.027,4.013,20.227,84.2,14,Waypoint,
37.3088824,-119.5776624,3677.2148929333,96.78478,0,0.71798558728,15300,2018-06-16 19:37:40,16,0,24.007,3677.2148929333,96.78478,0.3131716,0.79265422484,0,0,-0.671082,330.1, 0.7, -2,0,0,1024,1024,1024,1024,330,-89.9,97,4.005,3.993,4.023,4,4.027,4.013,20.227,84.2,14,Waypoint,
37.3088823,-119.5776623,3678.1991449333,97.769032,0,0.69756563912,15400,2018-06-16 19:37:40,16,0,24.007,3678.1991449333,97.769032,0.3131716,0.79265422484,0,0,-0.671082,330.3, 0.6, -2,0,0,1024,1024,1024,1024,330.1,-89.9,97,4.005,3.993,4.023,4,4.027,4.013,20.227,84.2,14,Waypoint,
37.3088823,-119.5776623,3679.1833969333,98.753284,0,0.69756563912,15500,2018-06-16 19:37:40,16,0,24.007,3679.1833969333,98.753284,0.3131716,0.79265422484,0,0,-0.671082,330.5, 0.6, -1.7,0,0,1024,1024,1024,1024,330,-89.9,97,4.005,3.993,4.023,4,4.027,4.013,20.227,84.2,14,Waypoint,
37.3088822,-119.5776623,3680.1676489333,99.737536,0,0.66533466696,15600,2018-06-16 19:37:40,16,0,24.007,3680.1676489333,99.737536,0.3131716,0.79265422484,0,0,-0.671082,330.7, 0.7, -1.5,0,0,1024,1024,1024,1024,330,-89.9,97,4.005,3.993,4.023,4,4.027,4.013,20.227,84.2,14,Waypoint,
37.3088822,-119.5776623,3681.1519009333,100.721788,0,0.66533466696,15700,2018-06-16 19:37:40,16,0,24.007,3681.1519009333,100.721788,0.3131716,0.79265422484,0,0,-0.671082,330.9, 0.8, -1.5,0,0,1024,1024,1024,1024,330.1,-89.9,97,4.005,3.993,4.023,4,4.027,4.013,20.227,84.2,14,Waypoint,
37.3088822,-119.5776623,3682.1361529333,101.70604,0,0.66533466696,15800,2018-06-16 19:37:40,16,0,24.007,3682.1361529333,101.70604,0.3131716,0.79265422484,0,0,-0.671082,331, 0.7, -1.7,0,0,1024,1024,1024,1024,330.1,-89.9,97,4.005,3.993,4.023,4,4.027,4.013,20.227,84.2,14,Waypoint,
37.3088821,-119.5776622,3683.4484889333,103.018376,0,0.6486712806,15900,2018-06-16 19:37:41,16,0,24.007,3683.4484889333,103.018376,0.3131716,0.79265422484,0,0,-0.671082,330.9, 0.8, -2,0,0,1024,1024,1024,1024,330.1,-89.9,97,4.005,3.993,4.023,4,4.027,4.013,20.227,84.2,14,Waypoint,
37.3088821,-119.5776622,3684.4327409333,104.002628,0,0.6486712806,16000,2018-06-16 19:37:41,16,0,24.007,3684.4327409333,104.002628,0.3131716,0.79265422484,0,0,-0.671082,330.8, 0.8, -2.3,0,0,1024,1024,1024,1024,330.1,-89.9,97,3.991,3.986,4.011,4.01,4.02,4.017,20.227,84.2,14,Waypoint,
37.3088821,-119.5776621,3685.4169929333,104.98688,0,0.66470146484,16100,2018-06-16 19:37:41,16,0,24.007,3685.4169929333,104.98688,0.3131716,0.79265422484,0,0,-0.671082,330.8, 1.1, -2.5,0,0,1024,1024,1024,1024,330.1,-89.9,97,3.991,3.986,4.011,4.01,4.02,4.017,20.227,84.2,14,Waypoint,
37.3088821,-119.577662,3686.4012449333,105.971132,0,0.68159122916,16200,2018-06-16 19:37:41,16,0,24.007,3686.4012449333,105.971132,0.3131716,0.79265422484,0,0,-0.671082,330.9, 1.1, -2.5,0,0,1024,1024,1024,1024,330.1,-89.9,97,3.991,3.986,4.011,4.01,4.02,4.017,20.227,84.2,14,Waypoint,
37.3088821,-119.5776619,3687.7135809333,107.283468,0,0.69927495676,16300,2018-06-16 19:37:41,16,0,24.007,3687.7135809333,107.283468,0.3131716,0.79265422484,0,0,-0.671082,331, 1, -2.7,0,0,1024,1024,1024,1024,330.1,-89.9,97,3.991,3.986,4.011,4.01,4.02,4.017,20.227,84.2,14,Waypoint,
37.3088821,-119.5776618,3688.6978329333,108.26772,0,0.7177001542,16400,2018-06-16 19:37:41,16,0,24.007,3688.6978329333,108.26772,0.3131716,0.79265422484,0,0,-0.671082,331.1, 0.6, -2.9,0,0,1024,1024,1024,1024,330,-90,97,3.991,3.986,4.011,4.01,4.02,4.017,20.227,84.2,14,Waypoint,
37.3088821,-119.5776617,3689.6820849333,109.251972,0,0.73680448552,16500,2018-06-16 19:37:41,16,0,24.007,3689.6820849333,109.251972,0.3131716,0.79265422484,0,0,-0.671082,331.1, 0.3, -3.1,0,0,1024,1024,1024,1024,330,-90,97,3.991,3.986,4.011,4.01,4.02,4.017,20.227,84.2,14,Waypoint,
37.3088821,-119.5776616,3690.6663369333,110.236224,0,0.75654201896,16600,2018-06-16 19:37:41,16,0,24.007,3690.6663369333,110.236224,0.3131716,0.79265422484,0,0,-0.671082,331, 0.4, -3.2,0,0,1024,1024,1024,1024,330,-89.9,97,3.991,3.986,4.011,4.01,4.02,4.017,20.227,84.2,14,Waypoint,
37.308882,-119.5776615,3691.6505889333,111.220476,0,0.7516076356,16700,2018-06-16 19:37:41,16,0,24.007,3691.6505889333,111.220476,0.3131716,0.79265422484,0,0,-0.671082,330.9, 0.3, -3.4,0,0,1024,1024,1024,1024,330,-90,97,3.991,3.986,4.011,4.01,4.02,4.017,20.227,84.2,14,Waypoint,
37.3088819,-119.5776614,3693.6190929333,113.18898,0,0.74954398724,16900,2018-06-16 19:37:42,16,0,24.007,3693.6190929333,113.18898,0.3131716,0.79265422484,0,0,-0.671082,330.6, 0, -3,0,0,1024,1024,1024,1024,330,-89.9,97,3.991,3.986,4.011,4.01,4.02,4.017,20.227,84.2,14,Waypoint,
37.3088819,-119.5776613,3694.6033449333,114.173232,0,0.77223099584,17100,2018-06-16 19:37:42,16,0,24.007,3694.6033449333,114.173232,0.3131716,0.79265422484,0,0,-0.671082,330.5, 0.1, -2.9,0,0,1024,1024,1024,1024,330,-89.9,97,3.991,3.986,4.011,4.01,4.02,4.017,20.227,84.2,14,Waypoint,
37.3088818,-119.5776613,3696.2437649333,115.813652,0,0.75037403976,17200,2018-06-16 19:37:42,16,0,24.007,3696.2437649333,115.813652,0.3131716,0.79265422484,0,0,-0.671082,330.3, 0.1, -2.7,0,0,1024,1024,1024,1024,330,-89.9,97,3.991,3.986,4.011,4.01,4.02,4.017,20.227,84.2,14,Waypoint,
37.3088818,-119.5776613,3697.2280169333,116.797904,0,0.75037403976,17300,2018-06-16 19:37:42,16,0,24.007,3697.2280169333,116.797904,0.3131716,0.79265422484,0,0,-0.671082,330.2, 0.2, -2.9,0,0,1024,1024,1024,1024,330,-89.9,97,3.991,3.986,4.011,4.01,4.02,4.017,20.227,84.2,14,Waypoint,
37.3088818,-119.5776612,3698.2122689333,117.782156,0,0.77412732136,17400,2018-06-16 19:37:42,16,0,24.007,3698.2122689333,117.782156,0.3131716,0.79265422484,0,0,-0.671082,330.2, 0.2, -3.1,0,0,1024,1024,1024,1024,330,-89.9,97,3.991,3.986,4.011,4.01,4.02,4.017,20.227,84.2,14,Waypoint,
37.3088817,-119.5776612,3699.1965209333,118.766408,0,0.75409451232,17500,2018-06-16 19:37:42,16,0,24.007,3699.1965209333,118.766408,0.3131716,0.79265422484,0,0,-0.671082,330.3, 0.2, -3,0,0,1024,1024,1024,1024,330.1,-89.9,97,3.991,3.986,4.011,4.01,4.02,4.017,20.227,84.2,14,Waypoint,
37.3088817,-119.5776613,3700.1807729333,119.75066,0,0.72968834356,17600,2018-06-16 19:37:42,16,0,24.007,3700.1807729333,119.75066,0.3131716,0.79265422484,0,0,-0.671082,330.4, 0, -2.8,0,0,1024,1024,1024,1024,330.1,-90,97,3.991,3.986,4.011,4.01,4.02,4.017,20.227,84.2,14,Waypoint,
37.3088816,-119.5776612,3702.1492769333,121.719164,0,0.73532482668,17800,2018-06-16 19:37:42,16,0,24.007,3702.1492769333,121.719164,0.3131716,0.79265422484,0,0,-0.671082,330.6, -0.2, -2.4,0,0,1024,1024,1024,1024,330.1,-89.9,97,3.991,3.986,4.011,4.01,4.02,4.017,20.227,84.2,14,Waypoint,
37.3088816,-119.5776611,3703.1335289333,122.703416,0,0.76065619232,17900,2018-06-16 19:37:43,16,0,24.007,3703.1335289333,122.703416,0.3131716,0.79265422484,0,0,-0.671082,330.8, -0.3, -2.7,0,0,1024,1024,1024,1024,330.1,-90,97,3.991,3.986,4.011,4.01,4.02,4.017,20.227,84.2,14,Waypoint,
37.3088815,-119.5776611,3704.1177809333,123.687668,0,0.74384516816,18000,2018-06-16 19:37:43,16,0,24.181,3704.1177809333,123.687668,0.3131716,0.79265422484,0,0,-0.671082,330.8, -0.6, -3.3,0,0,1024,1024,1024,1024,330,-89.9,97,4.04,4.03,4.038,4.032,4.046,4.043,15.839,84.2,14,Waypoint,
37.3088815,-119.577661,3705.1020329333,124.67192,0,0.76999018212,18100,2018-06-16 19:37:43,16,0,24.181,3705.1020329333,124.67192,0.3131716,0.79265422484,0,0,-0.671082,330.9, -0.6, -3.5,0,0,1024,1024,1024,1024,330,-89.9,97,4.04,4.03,4.038,4.032,4.046,4.043,15.839,84.2,14,Waypoint,
37.3088815,-119.577661,3706.0862849333,125.656172,0,0.76999018212,18200,2018-06-16 19:37:43,16,0,24.181,3706.0862849333,125.656172,0.3131716,0.79265422484,0,0,-0.671082,330.8, -0.6, -3.6,0,0,1024,1024,1024,1024,330.1,-89.9,97,4.04,4.03,4.038,4.032,4.046,4.043,15.839,84.2,14,Waypoint,
37.3088814,-119.577661,3707.0705369333,126.640424,0,0.75515422364,18300,2018-06-16 19:37:43,16,0,24.181,3707.0705369333,126.640424,0.3131716,0.79265422484,0,0,-0.671082,330.8, -0.6, -3.4,0,0,1024,1024,1024,1024,330,-89.9,97,4.04,4.03,4.038,4.032,4.046,4.043,15.839,84.2,14,Waypoint,
37.3088814,-119.577661,3707.7267049333,127.296592,0,0.75515422364,18400,2018-06-16 19:37:43,16,0,24.181,3707.7267049333,127.296592,0.3131716,0.79265422484,0,0,-0.671082,330.8, -0.6, -3.3,0,0,1024,1024,1024,1024,330.1,-90,97,4.04,4.03,4.038,4.032,4.046,4.043,15.839,84.2,14,Waypoint,
37.3088813,-119.5776611,3708.7109569333,128.280844,0,0.71463913048,18500,2018-06-16 19:37:43,16,0,24.181,3708.7109569333,128.280844,0.3131716,0.79265422484,0,0,-0.671082,330.8, -0.7, -3.3,0,0,1024,1024,1024,1024,330,-89.9,97,4.04,4.03,4.038,4.032,4.046,4.043,15.839,84.2,14,Waypoint,
37.3088813,-119.5776612,3709.6952089333,129.265096,0,0.6876148514,18600,2018-06-16 19:37:43,16,0,24.181,3709.6952089333,129.265096,0.3131716,0.79265422484,0,0,-0.671082,330.8, -0.4, -3.1,0,0,1024,1024,1024,1024,330,-89.9,97,4.04,4.03,4.038,4.032,4.046,4.043,15.839,84.2,14,Waypoint,
37.3088813,-119.5776613,3710.3513769333,129.921264,0.223694,0.660761176,18700,2018-06-16 19:37:43,16,0,24.181,3710.3513769333,129.921264,0.3131716,0.79265422484,0,0,-0.671082,330.8, 0, -2.9,0,0,1024,1024,1024,1024,330.1,-89.9,97,4.04,4.03,4.038,4.032,4.046,4.043,15.839,84.2,14,Waypoint,
37.3088813,-119.5776614,3711.3356289333,130.905516,0.223694,0.63409450848,18800,2018-06-16 19:37:43,16,0,24.181,3711.3356289333,130.905516,0.3131716,0.79265422484,0,0,-0.671082,330.7, 0.6, -2.4,0,0,1024,1024,1024,1024,330.1,-89.9,97,4.04,4.03,4.038,4.032,4.046,4.043,15.839,84.2,14,Waypoint,
37.3088813,-119.5776616,3711.9917969333,131.561684,0.223694,0.58144030732,18900,2018-06-16 19:37:44,16,0,24.181,3711.9917969333,131.561684,0.3131716,0.79265422484,0,0,-0.671082,330.6, 1, -1.8,0,0,1024,1024,1024,1024,330.1,-89.9,97,4.04,4.03,4.038,4.032,4.046,4.043,15.839,84.2,14,Waypoint,
37.3088814,-119.5776618,3712.9760489333,132.545936,0.223694,0.54843177608,19000,2018-06-16 19:37:44,16,0,24.262,3712.9760489333,132.545936,0.3131716,0.79265422484,0,0,-0.671082,330.4, 1.5, -1.2,0,0,1024,1024,1024,1024,330.1,-89.9,97,4.035,4.024,4.042,4.034,4.051,4.049,16.316,84.2,14,Waypoint,
37.3088814,-119.577662,3713.6322169333,133.202104,0.223694,0.50024935984,19100,2018-06-16 19:37:44,16,0,24.262,3713.6322169333,133.202104,0.3131716,0.79265422484,0,0,-0.671082,330.3, 1.8, -0.7,0,0,1024,1024,1024,1024,330,-89.9,97,4.035,4.024,4.042,4.034,4.051,4.049,16.316,84.2,14,Waypoint,
37.3088815,-119.5776622,3714.6164689333,134.186356,0.223694,0.47863190508,19200,2018-06-16 19:37:44,16,0,24.262,3714.6164689333,134.186356,0.3131716,0.79265422484,0,0,-0.671082,330.2, 2.2, -1,0,0,1024,1024,1024,1024,330,-89.9,97,4.035,4.024,4.042,4.034,4.051,4.049,16.316,84.2,14,Waypoint,
37.3088816,-119.5776624,3715.6007209333,135.170608,0.223694,0.46618439812,19300,2018-06-16 19:37:44,16,0,24.262,3715.6007209333,135.170608,0.3131716,0.79265422484,0,0,-0.671082,330.3, 2.5, -1.2,0,0,1024,1024,1024,1024,330.1,-89.9,97,4.035,4.024,4.042,4.034,4.051,4.049,16.316,84.2,14,Waypoint,
37.3088816,-119.5776625,3716.2568889333,135.826776,0.223694,0.44869424008,19500,2018-06-16 19:37:44,16,0,24.262,3716.2568889333,135.826776,0.3131716,0.79265422484,0,0,-0.671082,330.3, 2.6, -1.2,0,0,1024,1024,1024,1024,330,-89.9,97,4.035,4.024,4.042,4.034,4.051,4.049,16.316,84.2,14,Waypoint,
37.3088818,-119.5776628,3719.2096449333,138.779532,0.223694,0.47117127492,19600,2018-06-16 19:37:44,16,0,24.262,3719.2096449333,138.779532,0.3131716,0.79265422484,0,0,-0.671082,330.2, 2.7, -0.9,0,0,1024,1024,1024,1024,330,-89.9,97,4.035,4.024,4.042,4.034,4.051,4.049,16.316,84.2,14,Waypoint,
37.3088819,-119.577663,3720.1938969333,139.763784,0.223694,0.48830054056,19800,2018-06-16 19:37:44,16,0,24.262,3720.1938969333,139.763784,0.3131716,0.79265422484,0,0,-0.671082,330.3, 2.6, -0.4,0,0,1024,1024,1024,1024,330,-89.9,97,4.035,4.024,4.042,4.034,4.051,4.049,16.316,84.2,14,Waypoint,
37.308882,-119.5776631,3721.1781489333,140.748036,0.223694,0.51815618456,19900,2018-06-16 19:37:45,16,0,24.262,3721.1781489333,140.748036,0.3131716,0.79265422484,0,0,-0.671082,330.6, 3.1, -0.2,0,0,1024,1024,1024,1024,330.1,-89.9,97,4.035,4.024,4.042,4.034,4.051,4.049,16.316,84.2,14,Waypoint,
37.308882,-119.5776632,3722.1624009333,141.732288,0,0.5140748196,20000,2018-06-16 19:37:45,16,0,24.272,3722.1624009333,141.732288,0.3131716,0.79265422484,0,0,-0.671082,330.7, 3.2, -0.3,0,0,1024,1024,1024,1024,330.1,-89.9,97,4.031,4.025,4.038,4.037,4.048,4.037,16.113,86,14,Waypoint,
37.308882,-119.5776633,3723.1466529333,142.71654,0,0.5116141896,20100,2018-06-16 19:37:45,16,0,24.272,3723.1466529333,142.71654,0.3131716,0.79265422484,0,0,-0.671082,330.7, 2.9, -0.5,0,0,1024,1024,1024,1024,330.1,-89.9,97,4.031,4.025,4.038,4.037,4.048,4.037,16.113,86,14,Waypoint,
37.3088821,-119.5776633,3724.1309049333,143.700792,0,0.54804135612,20200,2018-06-16 19:37:45,16,0,24.272,3724.1309049333,143.700792,0.3131716,0.79265422484,0,0,-0.671082,330.7, 2.5, -0.8,0,0,1024,1024,1024,1024,330,-89.9,97,4.031,4.025,4.038,4.037,4.048,4.037,16.113,86,14,Waypoint,
37.3088821,-119.5776633,3725.1151569333,144.685044,0,0.54804135612,20300,2018-06-16 19:37:45,16,0,24.272,3725.1151569333,144.685044,0.3131716,0.79265422484,0,0,-0.671082,330.8, 2, -1.1,0,0,1024,1024,1024,1024,330,-89.9,97,4.031,4.025,4.038,4.037,4.048,4.037,16.113,86,14,Waypoint,
37.3088821,-119.5776634,3726.0994089333,145.669296,0,0.54727363956,20400,2018-06-16 19:37:45,16,0,24.272,3726.0994089333,145.669296,0.3131716,0.79265422484,0,0,-0.671082,330.9, 1.8, -1.3,0,0,1024,1024,1024,1024,330.1,-89.9,97,4.031,4.025,4.038,4.037,4.048,4.037,16.113,86,14,Waypoint,
37.3088821,-119.5776634,3727.0836609333,146.653548,0,0.54727363956,20500,2018-06-16 19:37:45,16,0,24.272,3727.0836609333,146.653548,0.3131716,0.79265422484,0,0,-0.671082,330.9, 1.8, -1.2,0,0,1024,1024,1024,1024,330,-89.9,97,4.031,4.025,4.038,4.037,4.048,4.037,16.113,86,14,Waypoint,
37.3088821,-119.5776635,3728.3959969333,147.965884,0,0.54804135612,20600,2018-06-16 19:37:45,16,0,24.272,3728.3959969333,147.965884,0.3131716,0.79265422484,0,0,-0.671082,330.9, 1.8, -0.7,0,0,1024,1024,1024,1024,330,-89.9,97,4.031,4.025,4.038,4.037,4.048,4.037,16.113,86,14,Waypoint,
37.3088821,-119.5776635,3729.3802489333,148.950136,0,0.54804135612,20700,2018-06-16 19:37:45,16,0,24.272,3729.3802489333,148.950136,0.3131716,0.79265422484,0,0,-0.671082,331, 1.8, -0.8,0,0,1024,1024,1024,1024,330.1,-89.9,97,4.031,4.025,4.038,4.037,4.048,4.037,16.113,86,14,Waypoint,
37.3088822,-119.5776636,3730.3645009333,149.934388,0,0.58663715788,20800,2018-06-16 19:37:45,16,0,24.272,3730.3645009333,149.934388,0.3131716,0.79265422484,0,0,-0.671082,331, 2, -1.3,0,0,1024,1024,1024,1024,330,-89.9,97,4.031,4.025,4.038,4.037,4.048,4.037,16.113,86,14,Waypoint,
37.3088822,-119.5776636,3731.3487529333,150.91864,0,0.58663715788,20900,2018-06-16 19:37:46,16,0,24.272,3731.3487529333,150.91864,0.3131716,0.79265422484,0,0,-0.671082,331, 2.6, -1.6,0,0,1024,1024,1024,1024,330.1,-89.9,97,4.031,4.025,4.038,4.037,4.048,4.037,16.113,86,14,Waypoint,
37.3088823,-119.5776636,3732.6610889333,152.230976,0,0.62295277584,21000,2018-06-16 19:37:46,16,0,24.06,3732.6610889333,152.230976,0.3131716,0.79265422484,0,0,-0.671082,330.8, 3, -1.8,0,0,1024,1024,1024,1024,330,-89.9,97,3.987,3.987,4.005,4.008,4.012,4.01,19.142,86,14,Waypoint,
37.3088823,-119.5776636,3733.6453409333,153.215228,0,0.62295277584,21100,2018-06-16 19:37:46,16,0,24.06,3733.6453409333,153.215228,0.3131716,0.79265422484,0,0,-0.671082,330.6, 3.2, -2,0,0,1024,1024,1024,1024,330,-89.9,97,3.987,3.987,4.005,4.008,4.012,4.01,19.142,86,14,Waypoint,
37.3088823,-119.5776636,3734.6295929333,154.19948,0,0.62295277584,21200,2018-06-16 19:37:46,16,0,24.06,3734.6295929333,154.19948,0.3131716,0.79265422484,0,0,-0.671082,330.4, 3, -2.2,0,0,1024,1024,1024,1024,330,-89.9,97,3.987,3.987,4.005,4.008,4.012,4.01,19.142,86,14,Waypoint,
37.3088823,-119.5776635,3735.6138449333,155.183732,0,0.62092193588,21300,2018-06-16 19:37:46,16,0,24.06,3735.6138449333,155.183732,0.3131716,0.79265422484,0,0,-0.671082,330.2, 3, -2.3,0,0,1024,1024,1024,1024,330.1,-89.9,97,3.987,3.987,4.005,4.008,4.012,4.01,19.142,86,14,Waypoint,
37.3088823,-119.5776635,3737.5823489333,157.152236,0,0.62092193588,21500,2018-06-16 19:37:46,16,0,24.06,3737.5823489333,157.152236,0.3131716,0.79265422484,0,0,-0.671082,329.9, 3.1, -2.1,0,0,1024,1024,1024,1024,330,-89.9,97,3.987,3.987,4.005,4.008,4.012,4.01,19.142,86,14,Waypoint,
37.3088823,-119.5776635,3739.5508529333,159.12074,0,0.62092193588,21700,2018-06-16 19:37:46,16,0,24.06,3739.5508529333,159.12074,0.3131716,0.79265422484,0,0,-0.671082,330, 2.6, -1.7,0,0,1024,1024,1024,1024,330,-90,97,3.987,3.987,4.005,4.008,4.012,4.01,19.142,86,14,Waypoint,
37.3088823,-119.5776634,3740.8631889333,160.433076,0,0.620242802,21900,2018-06-16 19:37:47,16,0,24.06,3740.8631889333,160.433076,0.3131716,0.79265422484,0,0,-0.671082,330.2, 2.4, -1.8,0,0,1024,1024,1024,1024,330.1,-89.9,97,3.987,3.987,4.005,4.008,4.012,4.01,19.142,86,14,Waypoint,
37.3088823,-119.5776634,3741.8474409333,161.417328,0,0.620242802,22000,2018-06-16 19:37:47,16,0,23.993,3741.8474409333,161.417328,0.3131716,0.79265422484,0,0,-0.671082,330.4, 2.2, -2.1,0,0,1024,1024,1024,1024,330.1,-89.9,97,3.988,3.987,4.009,4.003,4.025,4.01,19.435,86,14,Waypoint,
37.3088823,-119.5776633,3743.8159449333,163.385832,0,0.62092193588,22100,2018-06-16 19:37:47,16,0,23.993,3743.8159449333,163.385832,0.3131716,0.79265422484,0,0,-0.671082,330.5, 2.6, -2.8,0,0,1024,1024,1024,1024,330,-89.9,97,3.988,3.987,4.009,4.003,4.025,4.01,19.435,86,14,Waypoint,
37.3088825,-119.5776631,3746.1125329333,165.68242,0,0.69865815884,22300,2018-06-16 19:37:47,16,0,23.993,3746.1125329333,165.68242,0.3131716,0.79265422484,0,0,-0.671082,330.3, 3.3, -3.3,0,0,1024,1024,1024,1024,330,-89.9,97,3.988,3.987,4.009,4.003,4.025,4.01,19.435,86,14,Waypoint,
37.3088825,-119.577663,3747.0967849333,166.666672,0,0.70286419572,22400,2018-06-16 19:37:47,16,0,23.993,3747.0967849333,166.666672,0.3131716,0.79265422484,0,0,-0.671082,330.1, 3.8, -3.3,0,0,1024,1024,1024,1024,330,-89.9,97,3.988,3.987,4.009,4.003,4.025,4.01,19.435,86,14,Waypoint,
37.3088826,-119.577663,3748.0810369333,167.650924,0,0.73887469556,22500,2018-06-16 19:37:47,16,0,23.993,3748.0810369333,167.650924,0.3131716,0.79265422484,0,0,-0.671082,329.9, 4.2, -3.5,0,0,1024,1024,1024,1024,330,-89.9,97,3.988,3.987,4.009,4.003,4.025,4.01,19.435,86,14,Waypoint,
37.3088827,-119.5776629,3749.0652889333,168.635176,0,0.77980317456,22600,2018-06-16 19:37:47,16,0,23.993,3749.0652889333,168.635176,0.3131716,0.79265422484,0,0,-0.671082,329.7, 4.5, -3.9,0,0,1024,1024,1024,1024,330,-89.9,97,3.988,3.987,4.009,4.003,4.025,4.01,19.435,86,14,Waypoint,
37.3088827,-119.5776628,3750.3776249333,169.947512,0,0.78571852908,22700,2018-06-16 19:37:47,16,0,23.993,3750.3776249333,169.947512,0.3131716,0.79265422484,0,0,-0.671082,329.6, 4.4, -4.5,0,0,1024,1024,1024,1024,330.1,-89.9,97,3.988,3.987,4.009,4.003,4.025,4.01,19.435,86,14,Waypoint,
37.3088827,-119.5776627,3751.3618769333,170.931764,0,0.79265422484,22800,2018-06-16 19:37:47,16,0,23.993,3751.3618769333,170.931764,0.3131716,0.79265422484,0,0,-0.671082,329.7, 3.8, -5,0,0,1024,1024,1024,1024,330,-89.9,97,3.988,3.987,4.009,4.003,4.025,4.01,19.435,86,14,Waypoint,
37.3088827,-119.5776626,3752.3461289333,171.916016,0,0.80058401512,22900,2018-06-16 19:37:48,16,0,23.993,3752.3461289333,171.916016,0.3131716,0.80058401512,0,0,-0.671082,330, 3, -5.1,0,0,1024,1024,1024,1024,330.1,-90,97,3.988,3.987,4.009,4.003,4.025,4.01,19.435,86,14,Waypoint,
37.3088827,-119.5776625,3753.3303809333,172.900268,0,0.80947509152,23000,2018-06-16 19:37:48,16,0,24.046,3753.3303809333,172.900268,0.3131716,0.80947509152,0,0,-0.671082,330.3, 2.2, -4.7,0,0,1024,1024,1024,1024,330.1,-90,96,4.005,3.996,4.016,4.005,4.026,4.01,17.996,86,14,Waypoint,
37.3088826,-119.5776625,3753.9865489333,173.556436,0,0.77502955236,23100,2018-06-16 19:37:48,16,0,24.046,3753.9865489333,173.556436,0.3131716,0.80947509152,0,0,-0.671082,330.7, 1.8, -4.1,0,0,1024,1024,1024,1024,330.1,-90,96,4.005,3.996,4.016,4.005,4.026,4.01,17.996,86,14,Waypoint,
37.3088826,-119.5776625,3754.9708009333,174.540688,0,0.77502955236,23200,2018-06-16 19:37:48,16,0,24.046,3754.9708009333,174.540688,0.3131716,0.80947509152,0,0,-0.671082,330.9, 2.2, -3.3,0,0,1024,1024,1024,1024,330,-89.9,96,4.005,3.996,4.016,4.005,4.026,4.01,17.996,86,14,Waypoint,
37.3088825,-119.5776625,3755.9550529333,175.52494,0,0.7407808636,23300,2018-06-16 19:37:48,16,0,24.046,3755.9550529333,175.52494,0.3131716,0.80947509152,0,0,-0.671082,331.1, 2.6, -2.2,0,0,1024,1024,1024,1024,330.1,-89.9,96,4.005,3.996,4.016,4.005,4.026,4.01,17.996,86,14,Waypoint,
37.3088824,-119.5776626,3756.9393049333,176.509192,0,0.6965551404,23400,2018-06-16 19:37:48,16,0,24.046,3756.9393049333,176.509192,0.3131716,0.80947509152,0,0,-0.671082,331.2, 2.6, -1.7,0,0,1024,1024,1024,1024,330,-89.9,96,4.005,3.996,4.016,4.005,4.026,4.01,17.996,86,14,Waypoint,
37.3088823,-119.5776627,3757.5954729333,177.16536,0,0.65266078204,23500,2018-06-16 19:37:48,16,0,24.046,3757.5954729333,177.16536,0.3131716,0.80947509152,0,0,-0.671082,331.2, 2.4, -1.5,0,0,1024,1024,1024,1024,330.1,-89.9,96,4.005,3.996,4.016,4.005,4.026,4.01,17.996,86,14,Waypoint,
37.3088823,-119.5776627,3758.5797249333,178.149612,0,0.65266078204,23600,2018-06-16 19:37:48,16,0,24.046,3758.5797249333,178.149612,0.3131716,0.80947509152,0,0,-0.671082,331.1, 2.3, -1.4,0,0,1024,1024,1024,1024,330.1,-89.9,96,4.005,3.996,4.016,4.005,4.026,4.01,17.996,86,14,Waypoint,
37.3088822,-119.5776627,3759.5639769333,179.133864,0,0.6180938518,23700,2018-06-16 19:37:48,16,0,24.046,3759.5639769333,179.133864,0.3131716,0.80947509152,0,0,-0.671082,331, 2.3, -1.4,0,0,1024,1024,1024,1024,330,-89.9,96,4.005,3.996,4.016,4.005,4.026,4.01,17.996,86,14,Waypoint,
37.3088821,-119.5776628,3760.2201449333,179.790032,0,0.57430448032,23800,2018-06-16 19:37:48,16,0,24.046,3760.2201449333,179.790032,0.3131716,0.80947509152,0,0,-0.671082,330.9, 2.3, -1.5,0,0,1024,1024,1024,1024,330.1,-89.9,96,4.005,3.996,4.016,4.005,4.026,4.01,17.996,86,14,Waypoint,
37.3088821,-119.5776628,3761.2043969333,180.774284,0,0.57430448032,23900,2018-06-16 19:37:49,16,0,24.046,3761.2043969333,180.774284,0.3131716,0.80947509152,0,0,-0.671082,330.9, 2.3, -1.8,0,0,1024,1024,1024,1024,330,-89.9,96,4.005,3.996,4.016,4.005,4.026,4.01,17.996,86,14,Waypoint,
37.308882,-119.5776628,3762.1886489333,181.758536,0,0.5396489674,24000,2018-06-16 19:37:49,16,0,24.18,3762.1886489333,181.758536,0.3131716,0.80947509152,0,0,-0.671082,330.9, 2.3, -1.8,0,0,1024,1024,1024,1024,330,-89.9,96,4.029,4.013,4.039,4.03,4.049,4.034,16.073,86,14,Waypoint,
37.308882,-119.5776628,3763.1729009333,182.742788,0,0.5396489674,24100,2018-06-16 19:37:49,16,0,24.18,3763.1729009333,182.742788,0.3131716,0.80947509152,0,0,-0.671082,330.8, 2.3, -1.7,0,0,1024,1024,1024,1024,330.1,-89.9,96,4.029,4.013,4.039,4.03,4.049,4.034,16.073,86,14,Waypoint,
37.308882,-119.5776628,3764.4852369333,184.055124,0,0.5396489674,24200,2018-06-16 19:37:49,16,0,24.18,3764.4852369333,184.055124,0.3131716,0.80947509152,0,0,-0.671082,330.7, 2.5, -2,0,0,1024,1024,1024,1024,330.1,-89.9,96,4.029,4.013,4.039,4.03,4.049,4.034,16.073,86,14,Waypoint,
37.308882,-119.5776628,3765.4694889333,185.039376,0,0.5396489674,24300,2018-06-16 19:37:49,16,0,24.18,3765.4694889333,185.039376,0.3131716,0.80947509152,0,0,-0.671082,330.6, 2.6, -2.2,0,0,1024,1024,1024,1024,330.1,-89.9,96,4.029,4.013,4.039,4.03,4.049,4.034,16.073,86,14,Waypoint,
37.3088821,-119.5776628,3767.4379929333,187.00788,0,0.57430448032,24500,2018-06-16 19:37:49,16,0,24.18,3767.4379929333,187.00788,0.3131716,0.80947509152,0,0,-0.671082,330.7, 2.8, -1.9,0,0,1024,1024,1024,1024,330.1,-89.9,96,4.029,4.013,4.039,4.03,4.049,4.034,16.073,86,14,Waypoint,
37.3088821,-119.5776628,3768.4222449333,187.992132,0,0.57430448032,24600,2018-06-16 19:37:49,16,0,24.18,3768.4222449333,187.992132,0.3131716,0.80947509152,0,0,-0.671082,330.7, 2.8, -1.9,0,0,1024,1024,1024,1024,330.1,-89.9,96,4.029,4.013,4.039,4.03,4.049,4.034,16.073,86,14,Waypoint,
37.3088821,-119.5776628,3769.4064969333,188.976384,0,0.57430448032,24700,2018-06-16 19:37:49,16,0,24.18,3769.4064969333,188.976384,0.3131716,0.80947509152,0,0,-0.671082,330.6, 2.6, -2.1,0,0,1024,1024,1024,1024,330.1,-89.9,96,4.029,4.013,4.039,4.03,4.049,4.034,16.073,86,14,Waypoint,
37.3088821,-119.5776628,3770.3907489333,189.960636,0,0.57430448032,24800,2018-06-16 19:37:49,16,0,24.18,3770.3907489333,189.960636,0.3131716,0.80947509152,0,0,-0.671082,330.4, 2.6, -2.3,0,0,1024,1024,1024,1024,330,-89.9,96,4.029,4.013,4.039,4.03,4.049,4.034,16.073,86,14,Waypoint,
37.308882,-119.5776628,3771.3750009333,190.944888,0,0.5396489674,24900,2018-06-16 19:37:50,16,0,24.18,3771.3750009333,190.944888,0.3131716,0.80947509152,0,0,-0.671082,330.1, 2.7, -2.3,0,0,1024,1024,1024,1024,330.1,-89.9,96,4.029,4.013,4.039,4.03,4.049,4.034,16.073,86,14,Waypoint,
37.308882,-119.5776628,3772.6873369333,192.257224,0,0.5396489674,25000,2018-06-16 19:37:50,16,0,23.954,3772.6873369333,192.257224,0.3131716,0.80947509152,0,0,-0.671082,329.9, 2.9, -2.4,0,0,1024,1024,1024,1024,330,-89.9,96,3.968,3.975,3.993,3.982,3.997,3.995,19.942,86,14,Waypoint,
37.3088821,-119.5776628,3773.6715889333,193.241476,0,0.57430448032,25100,2018-06-16 19:37:50,16,0,23.954,3773.6715889333,193.241476,0.3131716,0.80947509152,0,0,-0.671082,329.8, 3, -2.6,0,0,1024,1024,1024,1024,330,-89.9,96,3.968,3.975,3.993,3.982,3.997,3.995,19.942,86,14,Waypoint,
37.3088821,-119.5776628,3774.6558409333,194.225728,0,0.57430448032,25200,2018-06-16 19:37:50,16,0,23.954,3774.6558409333,194.225728,0.3131716,0.80947509152,0,0,-0.671082,329.8, 3, -2.7,0,0,1024,1024,1024,1024,330,-89.9,96,3.968,3.975,3.993,3.982,3.997,3.995,19.942,86,14,Waypoint,
37.3088821,-119.5776628,3775.6400929333,195.20998,0,0.57430448032,25300,2018-06-16 19:37:50,16,0,23.954,3775.6400929333,195.20998,0.3131716,0.80947509152,0,0,-0.671082,330, 2.8, -2.4,0,0,1024,1024,1024,1024,330.1,-89.9,96,3.968,3.975,3.993,3.982,3.997,3.995,19.942,86,14,Waypoint,
37.308882,-119.5776628,3776.6243449333,196.194232,0,0.5396489674,25400,2018-06-16 19:37:50,16,0,23.954,3776.6243449333,196.194232,0.3131716,0.80947509152,0,0,-0.671082,330.2, 2.9, -2.3,0,0,1024,1024,1024,1024,330,-89.9,96,3.968,3.975,3.993,3.982,3.997,3.995,19.942,86,14,Waypoint,
37.308882,-119.5776628,3777.6085969333,197.178484,0,0.5396489674,25500,2018-06-16 19:37:50,16,0,23.954,3777.6085969333,197.178484,0.3131716,0.80947509152,0,0,-0.671082,330.4, 2.8, -2.7,0,0,1024,1024,1024,1024,330,-89.9,96,3.968,3.975,3.993,3.982,3.997,3.995,19.942,86,14,Waypoint,
37.308882,-119.5776628,3778.5928489333,198.162736,0,0.5396489674,25600,2018-06-16 19:37:50,16,0,23.954,3778.5928489333,198.162736,0.3131716,0.80947509152,0,0,-0.671082,330.7, 2.5, -2.7,0,0,1024,1024,1024,1024,330,-89.9,96,3.968,3.975,3.993,3.982,3.997,3.995,19.942,86,14,Waypoint,
37.3088819,-119.5776629,3779.5771009333,199.146988,0,0.49600067204,25700,2018-06-16 19:37:50,16,0,23.954,3779.5771009333,199.146988,0.3131716,0.80947509152,0,0,-0.671082,330.9, 2.4, -2.3,0,0,1024,1024,1024,1024,330.1,-89.9,96,3.968,3.975,3.993,3.982,3.997,3.995,19.942,86,14,Waypoint,
37.3088819,-119.5776629,3780.5613529333,200.13124,0,0.49600067204,25800,2018-06-16 19:37:50,16,0,23.954,3780.5613529333,200.13124,0.3131716,0.80947509152,0,0,-0.671082,330.9, 2.7, -1.9,0,0,1024,1024,1024,1024,330.1,-89.9,96,3.968,3.975,3.993,3.982,3.997,3.995,19.942,86,14,Waypoint,
37.3088819,-119.5776629,3781.5456049333,201.115492,0,0.49600067204,25900,2018-06-16 19:37:51,16,0,23.954,3781.5456049333,201.115492,0.3131716,0.80947509152,0,0,-0.671082,330.8, 2.8, -1.6,0,0,1024,1024,1024,1024,330.1,-89.9,96,3.968,3.975,3.993,3.982,3.997,3.995,19.942,86,14,Waypoint,
37.3088819,-119.577663,3782.5298569333,202.099744,0,0.48830054056,26000,2018-06-16 19:37:51,16,0,24.034,3782.5298569333,202.099744,0.3131716,0.80947509152,0,0,-0.671082,330.8, 3, -1.5,0,0,1024,1024,1024,1024,330.1,-89.9,96,3.968,3.975,3.993,3.982,3.997,3.995,17.466,86,14,Waypoint,
37.3088819,-119.577663,3783.5141089333,203.083996,0,0.48830054056,26100,2018-06-16 19:37:51,16,0,24.034,3783.5141089333,203.083996,0.3131716,0.80947509152,0,0,-0.671082,330.7, 3.3, -1.8,0,0,1024,1024,1024,1024,330.1,-89.9,96,3.968,3.975,3.993,3.982,3.997,3.995,17.466,86,14,Waypoint,
37.3088819,-119.577663,3784.4983609333,204.068248,0,0.48830054056,26200,2018-06-16 19:37:51,16,0,24.034,3784.4983609333,204.068248,0.3131716,0.80947509152,0,0,-0.671082,330.7, 3.1, -2,0,0,1024,1024,1024,1024,330,-89.9,96,3.968,3.975,3.993,3.982,3.997,3.995,17.466,86,14,Waypoint,
