latitude,longitude,altitude(feet),ascent(feet),speed(mph),distance(feet),time(millisecond),datetime(utc),satellites,gpslevel,voltage(v),max_altitude(feet),max_ascent(feet),max_speed(mph),max_distance(feet), xSpeed(mph), ySpeed(mph), zSpeed(mph), compass_heading(degrees), pitch(degrees), roll(degrees),isPhoto,isVideo,rc_elevator,rc_aileron,rc_throttle,rc_rudder,gimbal_heading(degrees),gimbal_pitch(degrees),battery_percent,voltageCell1,voltageCell2,voltageCell3,voltageCell4,voltageCell5,voltageCell6,current(A),battery_temperature(f),flycStateRaw,flycState,message
37.3089524,-119.5776644,3579.7985351572,0,0,0,2930,2018-06-16 18:23:49,14,0,0,3579.7985351572,0,0,0,0,0,0,349.8, -0.8, -1,1,0,1024,1024,1024,1024,350.4,-89.9,98,4.229,4.275,4.266,4.23,4.297,4.306,0,77,11,AutoTakeoff,DJI_0382.jpg Starting Mission from Lat/Long: 37.30895/-119.57766 Camera: Zenmuse X3 - Overlap: 90/90 - Active Connection: No
37.3089525,-119.5776645,3579.7985351572,0,0.3131716,0.046618439812,3000,2018-06-16 18:23:49,13,0,25.622,3579.7985351572,0,0.3131716,0.046618439812,0,0,0,349.9, -0.7, -1.1,0,0,1024,1024,1024,1024,350.5,-89.9,98,4.229,4.275,4.266,4.23,4.297,4.306,2.925,77,11,AutoTakeoff,
37.3089526,-119.5776646,3579.7985351572,0,0.3131716,0.093236879624,3100,2018-06-16 18:23:49,13,0,25.622,3579.7985351572,0,0.3131716,0.093236879624,0,0,0,349.9, 0, -0.7,0,0,1024,1024,1024,1024,350.5,-89.9,98,4.229,4.275,4.266,4.23,4.297,4.306,2.925,77,11,AutoTakeoff,
37.3089527,-119.5776648,3579.7985351572,0,0.3131716,0.15954396836,3200,2018-06-16 18:23:49,13,0,25.622,3579.7985351572,0,0.3131716,0.15954396836,0,0,0,350, 0.5, -0.1,0,0,1024,1024,1024,1024,350.5,-89.9,98,4.229,4.275,4.266,4.23,4.297,4.306,2.925,77,11,AutoTakeoff,
37.3089527,-119.5776649,3579.7985351572,0,0.3131716,0.181750990068,3300,2018-06-16 18:23:49,13,0,25.622,3579.7985351572,0,0.3131716,0.181750990068,0,0,0,350.1, 0.7, 0.1,0,0,1024,1024,1024,1024,350.5,-89.9,98,4.229,4.275,4.266,4.23,4.297,4.306,2.925,77,11,AutoTakeoff,
37.308953,-119.5776652,3580.1266191572,0.328084,0.3131716,0.319088264804,3400,2018-06-16 18:23:49,13,0,25.622,3580.1266191572,0.328084,0.3131716,0.319088264804,0,0,0,350.2, 1.2, 0.8,0,0,1024,1024,1024,1024,350.4,-89.9,98,4.229,4.275,4.266,4.23,4.297,4.306,2.925,77,11,AutoTakeoff,
37.3089531,-119.5776654,3580.4547031572,0.656168,0.3131716,0.38657153468,3500,2018-06-16 18:23:50,12,0,25.622,3580.4547031572,0.656168,0.3131716,0.38657153468,0,0,0,350.2, 1.2, 0.9,0,0,1024,1024,1024,1024,350.4,-89.9,98,4.229,4.275,4.266,4.23,4.297,4.306,2.925,77,11,AutoTakeoff,
37.3089532,-119.5776656,3580.4547031572,0.656168,0.223694,0.45437665496,3600,2018-06-16 18:23:50,12,0,25.622,3580.4547031572,0.656168,0.3131716,0.45437665496,0,0,0,350.2, 1.2, 1.1,0,0,1024,1024,1024,1024,350.4,-89.9,98,4.229,4.275,4.266,4.23,4.297,4.306,2.925,77,11,AutoTakeoff,
37.3089533,-119.5776659,3580.7827871572,0.984252,0,0.54525264212,3800,2018-06-16 18:23:50,12,0,25.622,3580.7827871572,0.984252,0.3131716,0.54525264212,0,0,-0.223694,350, 0.7, 1,0,0,1024,1024,1024,1024,350.4,-89.9,98,4.229,4.275,4.266,4.23,4.297,4.306,2.925,77,11,AutoTakeoff,
37.3089534,-119.577666,3581.1108711572,1.312336,0,0.59050854908,4000,2018-06-16 18:23:50,12,0,25.568,3581.1108711572,1.312336,0.3131716,0.59050854908,0,0,-0.223694,349.9, 0.6, 0.8,0,0,1024,1024,1024,1024,350.4,-89.9,98,4.248,4.239,4.21,4.209,4.259,4.241,3.455,77,11,AutoTakeoff,
37.3089534,-119.5776662,3581.4389551572,1.64042,0,0.63715225136,4100,2018-06-16 18:23:50,12,0,25.568,3581.4389551572,1.64042,0.3131716,0.63715225136,0,0,0,349.8, 0.9, 1,0,0,1024,1024,1024,1024,350.4,-89.9,98,4.248,4.239,4.21,4.209,4.259,4.241,3.455,77,11,AutoTakeoff,
37.3089535,-119.5776663,3581.4389551572,1.64042,0,0.68196524492,4200,2018-06-16 18:23:50,11,0,25.568,3581.4389551572,1.64042,0.3131716,0.68196524492,0,0,0,349.8, 1.1, 1.2,0,0,1024,1024,1024,1024,350.4,-89.9,98,4.248,4.239,4.21,4.209,4.259,4.241,3.455,77,11,AutoTakeoff,
37.3089536,-119.5776665,3581.7670391572,1.968504,0,0.75037403976,4300,2018-06-16 18:23:50,11,0,25.568,3581.7670391572,1.968504,0.3131716,0.75037403976,0,0,-0.223694,349.8, 1.3, 1.2,0,0,1024,1024,1024,1024,350.5,-89.9,98,4.248,4.239,4.21,4.209,4.259,4.241,3.455,77,11,AutoTakeoff,
37.3089537,-119.5776666,3581.7670391572,1.968504,0,0.79533139028,4400,2018-06-16 18:23:50,11,0,25.568,3581.7670391572,1.968504,0.3131716,0.79533139028,0,0,-0.223694,349.7, 1.5, 1.2,0,0,1024,1024,1024,1024,350.5,-89.9,98,4.248,4.239,4.21,4.209,4.259,4.241,3.455,77,11,AutoTakeoff,
37.3089537,-119.5776667,3582.0951231572,2.296588,0,0.81880908132,4500,2018-06-16 18:23:51,11,0,25.568,3582.0951231572,2.296588,0.3131716,0.81880908132,0,0,0,349.6, 1.7, 1.1,0,0,1024,1024,1024,1024,350.4,-89.9,98,4.248,4.239,4.21,4.209,4.259,4.241,3.455,77,11,AutoTakeoff,
37.3089538,-119.5776667,3582.0951231572,2.296588,0,0.840469187,4600,2018-06-16 18:23:51,12,0,25.568,3582.0951231572,2.296588,0.3131716,0.840469187,0,0,0,349.5, 1.7, 0.9,0,0,1024,1024,1024,1024,350.5,-89.9,98,4.248,4.239,4.21,4.209,4.259,4.241,3.455,77,11,AutoTakeoff,
37.3089538,-119.5776668,3582.4232071572,2.624672,0,0.86369425336,4700,2018-06-16 18:23:51,12,0,25.568,3582.4232071572,2.624672,0.3131716,0.86369425336,0,0,-0.223694,349.4, 1.6, 0.8,0,0,1024,1024,1024,1024,350.4,-89.9,98,4.248,4.239,4.21,4.209,4.259,4.241,3.455,77,11,AutoTakeoff,
37.3089538,-119.5776668,3582.4232071572,2.624672,0,0.86369425336,4800,2018-06-16 18:23:51,11,0,25.568,3582.4232071572,2.624672,0.3131716,0.86369425336,0,0,0,349.4, 1.4, 0.9,0,0,1024,1024,1024,1024,350.4,-89.9,98,4.248,4.239,4.21,4.209,4.259,4.241,3.455,77,11,AutoTakeoff,
37.3089538,-119.5776669,3582.7512911572,2.952756,0,0.88726052708,4900,2018-06-16 18:23:51,11,0,25.568,3582.7512911572,2.952756,0.3131716,0.88726052708,0,0,0,349.3, 1.3, 0.9,0,0,1024,1024,1024,1024,350.4,-89.9,98,4.248,4.239,4.21,4.209,4.259,4.241,3.455,77,14,Waypoint,
37.3089538,-119.5776669,3582.7512911572,2.952756,0,0.88726052708,5000,2018-06-16 18:23:51,13,0,24.515,3582.7512911572,2.952756,0.3131716,0.88726052708,0,0,0,349.3, 1.3, 0.9,0,0,1024,1024,1024,1024,350.4,-89.9,98,4.08,4.082,4.058,4.062,4.09,4.085,15.753,77,14,Waypoint,
37.3089538,-119.5776668,3583.0793751572,3.28084,0,0.86369425336,5100,2018-06-16 18:23:51,13,0,24.515,3583.0793751572,3.28084,0.3131716,0.88726052708,0,0,0,349.2, 0.7, 0.1,0,0,1024,1024,1024,1024,350.4,-90,98,4.08,4.082,4.058,4.062,4.09,4.085,15.753,77,14,Waypoint,
37.3089537,-119.5776668,3583.0793751572,3.28084,0,0.84263126056,5200,2018-06-16 18:23:51,13,0,24.515,3583.0793751572,3.28084,0.3131716,0.88726052708,0,0,0,349.2, 0.4, -0.1,0,0,1024,1024,1024,1024,350.4,-90,98,4.08,4.082,4.058,4.062,4.09,4.085,15.753,77,14,Waypoint,
37.3089537,-119.5776669,3583.0793751572,3.28084,0,0.86677168128,5300,2018-06-16 18:23:51,13,0,24.515,3583.0793751572,3.28084,0.3131716,0.88726052708,0,0,0,349.2, 0.3, -0.1,0,0,1024,1024,1024,1024,350.4,-90,98,4.08,4.082,4.058,4.062,4.09,4.085,15.753,77,14,Waypoint,
37.3089537,-119.5776669,3583.4074591572,3.608924,0,0.86677168128,5400,2018-06-16 18:23:51,12,0,24.515,3583.4074591572,3.608924,0.3131716,0.88726052708,0,0,0,349.2, 0.3, 0,0,0,1024,1024,1024,1024,350.4,-90,98,4.08,4.082,4.058,4.062,4.09,4.085,15.753,77,14,Waypoint,
37.3089536,-119.5776668,3583.7355431572,3.937008,0,0.82264766412,5500,2018-06-16 18:23:52,12,0,24.515,3583.7355431572,3.937008,0.3131716,0.88726052708,0,0,-0.223694,349.1, 0.4, 0,0,0,1024,1024,1024,1024,350.4,-90,98,4.08,4.082,4.058,4.062,4.09,4.085,15.753,77,14,Waypoint,
37.3089536,-119.5776668,3583.7355431572,3.937008,0,0.82264766412,5600,2018-06-16 18:23:52,12,0,24.515,3583.7355431572,3.937008,0.3131716,0.88726052708,0,0,-0.223694,348.9, 0.3, -0.3,0,0,1024,1024,1024,1024,350.3,-89.9,98,4.08,4.082,4.058,4.062,4.09,4.085,15.753,77,14,Waypoint,
37.3089535,-119.5776667,3584.0636271572,4.265092,0,0.77881564172,5700,2018-06-16 18:23:52,12,0,24.515,3584.0636271572,4.265092,0.3131716,0.88726052708,0,0,-0.223694,348.7, 0.3, -0.4,0,0,1024,1024,1024,1024,350.3,-89.9,98,4.08,4.082,4.058,4.062,4.09,4.085,15.753,77,14,Waypoint,
37.3089535,-119.5776667,3584.7197951572,4.92126,0,0.77881564172,5900,2018-06-16 18:23:52,13,0,24.515,3584.7197951572,4.92126,0.3131716,0.88726052708,0,0,-0.223694,348.5, 0.4, -0.4,0,0,1024,1024,1024,1024,350.3,-89.9,98,4.08,4.082,4.058,4.062,4.09,4.085,15.753,77,14,Waypoint,
37.3089535,-119.5776667,3585.3759631572,5.577428,0,0.77881564172,6000,2018-06-16 18:23:52,13,0,24.347,3585.3759631572,5.577428,0.3131716,0.88726052708,0,0,-0.447388,348.2, 0.2, 0.1,0,0,1024,1024,1024,1024,350.2,-90,98,4.066,4.044,4.044,4.048,4.07,4.062,16.126,77,14,Waypoint,
37.3089535,-119.577667,3586.6882991572,6.889764,0,0.85460304572,6100,2018-06-16 18:23:52,13,0,24.347,3586.6882991572,6.889764,0.3131716,0.88726052708,0,0,-0.447388,348.4, 0.9, 1.5,0,0,1024,1024,1024,1024,350.2,-89.9,98,4.066,4.044,4.044,4.048,4.07,4.062,16.126,77,14,Waypoint,
37.3089536,-119.5776671,3587.3444671572,7.545932,0,0.89754924132,6200,2018-06-16 18:23:52,13,0,24.347,3587.3444671572,7.545932,0.3131716,0.89754924132,0,0,-0.447388,348.6, 1.6, 2,0,0,1024,1024,1024,1024,350.1,-89.9,98,4.066,4.044,4.044,4.048,4.07,4.062,16.126,77,14,Waypoint,
37.3089538,-119.5776672,3588.3287191572,8.530184,0,0.95975396772,6300,2018-06-16 18:23:52,14,0,24.347,3588.3287191572,8.530184,0.3131716,0.95975396772,0,0,-0.671082,349, 1.7, 1.8,0,0,1024,1024,1024,1024,350.1,-89.9,98,4.066,4.044,4.044,4.048,4.07,4.062,16.126,77,14,Waypoint,
37.308954,-119.5776674,3588.9848871572,9.186352,0,1.04818244824,6410,2018-06-16 18:23:52,14,0,24.347,3588.9848871572,9.186352,0.3131716,1.04818244824,0,0,-0.671082,349.3, 1.6, 1.4,0,0,1024,1024,1024,1024,350.1,-89.9,98,4.066,4.044,4.044,4.048,4.07,4.062,16.126,77,14,Waypoint,
37.308954,-119.5776674,3588.9848871572,9.186352,0,1.04818244824,6500,2018-06-16 18:23:53,14,0,24.347,3588.9848871572,9.186352,0.3131716,1.04818244824,0,0,-0.671082,349.3, 1.6, 1.4,0,0,1024,1024,1024,1024,350.1,-89.9,98,4.066,4.044,4.044,4.048,4.07,4.062,16.126,77,14,Waypoint,
37.3089542,-119.5776676,3589.9691391572,10.170604,0,1.13737536448,6600,2018-06-16 18:23:53,13,0,24.347,3589.9691391572,10.170604,0.3131716,1.13737536448,0,0,-0.671082,349.4, 1.6, 1.1,0,0,1024,1024,1024,1024,350,-89.9,98,4.066,4.044,4.044,4.048,4.07,4.062,16.126,77,14,Waypoint,
37.3089544,-119.5776679,3590.9533911572,11.154856,0,1.2506233996,6700,2018-06-16 18:23:53,13,0,24.347,3590.9533911572,11.154856,0.3131716,1.2506233996,0,0,-0.671082,349.4, 1.7, 1.2,0,0,1024,1024,1024,1024,350,-89.9,98,4.066,4.044,4.044,4.048,4.07,4.062,16.126,77,14,Waypoint,
37.3089545,-119.5776681,3592.2657271572,12.467192,0.223694,1.31905516032,6800,2018-06-16 18:23:53,13,0,24.347,3592.2657271572,12.467192,0.3131716,1.31905516032,0,0,-0.671082,349.3, 1.9, 1.4,0,0,1024,1024,1024,1024,350,-89.9,98,4.066,4.044,4.044,4.048,4.07,4.062,16.126,77,14,Waypoint,
37.3089547,-119.5776684,3593.2499791572,13.451444,0.223694,1.432332723,6900,2018-06-16 18:23:53,13,0,24.347,3593.2499791572,13.451444,0.3131716,1.432332723,0,0,-0.671082,349.2, 2.2, 1.6,0,0,1024,1024,1024,1024,350,-89.9,98,4.066,4.044,4.044,4.048,4.07,4.062,16.126,77,14,Waypoint,
37.3089548,-119.5776688,3594.5623151572,14.76378,0.223694,1.54825464272,7000,2018-06-16 18:23:53,12,0,24.18,3594.5623151572,14.76378,0.3131716,1.54825464272,0,0,-0.671082,348.7, 2.2, 2.8,0,0,1024,1024,1024,1024,349.9,-89.9,98,4.034,4.041,3.99,3.998,4.04,3.989,18.018,77,14,Waypoint,
37.3089549,-119.5776691,3595.5465671572,15.748032,0.223694,1.6407972966,7100,2018-06-16 18:23:53,12,0,24.18,3595.5465671572,15.748032,0.3131716,1.6407972966,0,0,-0.671082,348.3, 2, 4.2,0,0,1024,1024,1024,1024,349.9,-89.9,98,4.034,4.041,3.99,3.998,4.04,3.989,18.018,77,14,Waypoint,
37.3089549,-119.5776694,3596.8589031572,17.060368,0,1.71384848004,7200,2018-06-16 18:23:53,12,0,24.18,3596.8589031572,17.060368,0.3131716,1.71384848004,0,0,-0.671082,348.1, 2.1, 4.6,0,0,1024,1024,1024,1024,349.9,-89.9,98,4.034,4.041,3.99,3.998,4.04,3.989,18.018,77,14,Waypoint,
37.3089549,-119.5776696,3597.8431551572,18.04462,0,1.7632546496,7300,2018-06-16 18:23:53,12,0,24.18,3597.8431551572,18.04462,0.3131716,1.7632546496,0,0,-0.671082,348.1, 2.2, 3.8,0,0,1024,1024,1024,1024,349.9,-89.9,98,4.034,4.041,3.99,3.998,4.04,3.989,18.018,77,14,Waypoint,
37.3089549,-119.5776697,3598.8274071572,19.028872,0,1.78815294436,7400,2018-06-16 18:23:53,14,0,24.18,3598.8274071572,19.028872,0.3131716,1.78815294436,0,0,-0.671082,348.1, 2, 2.9,0,0,1024,1024,1024,1024,349.8,-89.9,98,4.034,4.041,3.99,3.998,4.04,3.989,18.018,77,14,Waypoint,
37.3089548,-119.5776698,3599.8116591572,20.013124,0,1.7950952018,7500,2018-06-16 18:23:54,14,0,24.18,3599.8116591572,20.013124,0.3131716,1.7950952018,0,0,-0.671082,348, 2, 2.3,0,0,1024,1024,1024,1024,349.8,-89.9,98,4.034,4.041,3.99,3.998,4.04,3.989,18.018,77,14,Waypoint,
37.3089546,-119.5776697,3600.7959111572,20.997376,0,1.73487866444,7600,2018-06-16 18:23:54,13,0,24.18,3600.7959111572,20.997376,0.3131716,1.7950952018,0,0,-0.671082,348.1, 1.9, 2,0,0,1024,1024,1024,1024,349.8,-89.9,98,4.034,4.041,3.99,3.998,4.04,3.989,18.018,77,14,Waypoint,
37.3089544,-119.5776694,3601.7801631572,21.981628,0.223694,1.62412078688,7700,2018-06-16 18:23:54,13,0,24.18,3601.7801631572,21.981628,0.3131716,1.7950952018,0,0,-0.671082,348.4, 1.4, 1.6,0,0,1024,1024,1024,1024,349.8,-89.9,98,4.034,4.041,3.99,3.998,4.04,3.989,18.018,77,14,Waypoint,
37.3089542,-119.5776691,3602.7644151572,22.96588,0.223694,1.51378285684,7800,2018-06-16 18:23:54,14,0,24.18,3602.7644151572,22.96588,0.3131716,1.7950952018,0,0,-0.671082,348.7, 0.8, 1,0,0,1024,1024,1024,1024,349.8,-90,98,4.034,4.041,3.99,3.998,4.04,3.989,18.018,77,14,Waypoint,
37.3089534,-119.5776683,3605.0610031572,25.262468,0.3131716,1.18911093044,8000,2018-06-16 18:23:54,13,0,23.662,3605.0610031572,25.262468,0.3131716,1.7950952018,0,0,-0.671082,349.1, -1, 0.3,0,0,1024,1024,1024,1024,349.7,-89.9,98,3.952,3.935,3.923,3.933,3.959,3.941,23.509,77,14,Waypoint,
37.3089531,-119.5776679,3606.3733391572,26.574804,0.3131716,1.0472933406,8100,2018-06-16 18:23:54,13,0,23.662,3606.3733391572,26.574804,0.3131716,1.7950952018,0,0,-0.671082,349.1, -1.9, -0.8,0,0,1024,1024,1024,1024,349.7,-89.9,98,3.952,3.935,3.923,3.933,3.959,3.941,23.509,77,14,Waypoint,
37.3089525,-119.5776671,3608.3418431572,28.543308,0.3131716,0.78437010384,8200,2018-06-16 18:23:54,14,0,23.662,3608.3418431572,28.543308,0.3131716,1.7950952018,0,0,-0.671082,349, -2.5, -1.7,0,0,1024,1024,1024,1024,349.7,-90,98,3.952,3.935,3.923,3.933,3.959,3.941,23.509,77,14,Waypoint,
37.3089521,-119.5776667,3609.6541791572,29.855644,0.223694,0.6763615702,8300,2018-06-16 18:23:54,14,0,23.662,3609.6541791572,29.855644,0.3131716,1.7950952018,0,0,-0.671082,348.9, -2.4, -1.2,0,0,1024,1024,1024,1024,349.6,-89.9,98,3.952,3.935,3.923,3.933,3.959,3.941,23.509,77,14,Waypoint,
37.3089518,-119.5776663,3610.6384311572,30.839896,0,0.59323492712,8400,2018-06-16 18:23:54,14,0,23.662,3610.6384311572,30.839896,0.3131716,1.7950952018,0,0,-0.671082,348.7, -2.7, -0.4,0,0,1024,1024,1024,1024,349.6,-89.9,98,3.952,3.935,3.923,3.933,3.959,3.941,23.509,77,14,Waypoint,
37.3089515,-119.577666,3611.6226831572,31.824148,0,0.56868768224,8500,2018-06-16 18:23:55,14,0,23.662,3611.6226831572,31.824148,0.3131716,1.7950952018,0,0,-0.671082,348.6, -2.9, 0,0,0,1024,1024,1024,1024,349.6,-89.9,98,3.952,3.935,3.923,3.933,3.959,3.941,23.509,77,14,Waypoint,
37.308951,-119.5776656,3613.9192711572,34.120736,0,0.61819883868,8700,2018-06-16 18:23:55,14,0,23.662,3613.9192711572,34.120736,0.3131716,1.7950952018,0,0,-0.671082,348.4, -2.7, 0.2,0,0,1024,1024,1024,1024,349.6,-89.9,98,3.952,3.935,3.923,3.933,3.959,3.941,23.509,77,14,Waypoint,
37.3089508,-119.5776654,3614.9035231572,35.104988,0,0.65190946968,8900,2018-06-16 18:23:55,14,0,23.662,3614.9035231572,35.104988,0.3131716,1.7950952018,0,0,-0.671082,348.3, -2.6, 0,0,0,1024,1024,1024,1024,349.6,-89.9,98,3.952,3.935,3.923,3.933,3.959,3.941,23.509,77,14,Waypoint,
37.3089506,-119.5776652,3615.8877751572,36.08924,0,0.6965551404,9000,2018-06-16 18:23:55,15,0,23.662,3615.8877751572,36.08924,0.3131716,1.7950952018,0,0,-0.671082,348.3, -2.7, -0.1,0,0,1024,1024,1024,1024,349.6,-89.9,98,3.952,3.935,3.923,3.933,3.959,3.941,23.509,77,14,Waypoint,
37.3089505,-119.577665,3616.8720271572,37.073492,0,0.7147473982,9100,2018-06-16 18:23:55,15,0,23.662,3616.8720271572,37.073492,0.3131716,1.7950952018,0,0,-0.671082,348.4, -2.7, -0.2,0,0,1024,1024,1024,1024,349.6,-89.9,98,3.952,3.935,3.923,3.933,3.959,3.941,23.509,77,14,Waypoint,
37.3089504,-119.5776649,3617.8562791572,38.057744,0,0.74398624428,9200,2018-06-16 18:23:55,15,0,23.662,3617.8562791572,38.057744,0.3131716,1.7950952018,0,0,-0.671082,348.4, -2.2, -0.3,0,0,1024,1024,1024,1024,349.5,-89.9,98,3.952,3.935,3.923,3.933,3.959,3.941,23.509,77,14,Waypoint,
37.3089503,-119.5776647,3619.8247831572,40.026248,0.223694,0.77111551024,9400,2018-06-16 18:23:55,15,0,23.662,3619.8247831572,40.026248,0.3131716,1.7950952018,0,0,-0.671082,348.1, -1.4, 0.4,0,0,1024,1024,1024,1024,349.5,-89.9,98,3.952,3.935,3.923,3.933,3.959,3.941,23.509,77,14,Waypoint,
37.3089504,-119.5776646,3620.8090351572,41.0105,0.223694,0.7320046166,9500,2018-06-16 18:23:56,15,0,23.662,3620.8090351572,41.0105,0.3131716,1.7950952018,0,0,-0.671082,348.1, -1.3, 0.5,0,0,1024,1024,1024,1024,349.5,-89.9,98,3.952,3.935,3.923,3.933,3.959,3.941,23.509,77,14,Waypoint,
37.3089504,-119.5776646,3622.1213711572,42.322836,0.3131716,0.7320046166,9600,2018-06-16 18:23:56,15,0,23.662,3622.1213711572,42.322836,0.3131716,1.7950952018,0,0,-0.671082,348.3, -1.4, 0.3,0,0,1024,1024,1024,1024,349.5,-89.9,98,3.952,3.935,3.923,3.933,3.959,3.941,23.509,77,14,Waypoint,
37.3089504,-119.5776646,3623.1056231572,43.307088,0.3131716,0.7320046166,9700,2018-06-16 18:23:56,15,0,23.662,3623.1056231572,43.307088,0.3131716,1.7950952018,0,0,-0.671082,348.5, -1.3, 0.3,0,0,1024,1024,1024,1024,349.5,-89.9,98,3.952,3.935,3.923,3.933,3.959,3.941,23.509,77,14,Waypoint,
37.3089505,-119.5776647,3624.0898751572,44.29134,0.3131716,0.69865815884,9800,2018-06-16 18:23:56,15,0,23.662,3624.0898751572,44.29134,0.3131716,1.7950952018,0,0,-0.671082,348.6, -1, 0.7,0,0,1024,1024,1024,1024,349.5,-89.9,98,3.952,3.935,3.923,3.933,3.959,3.941,23.509,77,14,Waypoint,
37.3089506,-119.5776648,3625.0741271572,45.275592,0.4921268,0.66690947016,9900,2018-06-16 18:23:56,15,0,23.662,3625.0741271572,45.275592,0.4921268,1.7950952018,0,0,-0.671082,348.6, -0.7, 0.9,0,0,1024,1024,1024,1024,349.5,-89.9,98,3.952,3.935,3.923,3.933,3.959,3.941,23.509,77,14,Waypoint,
37.3089507,-119.5776649,3626.0583791572,46.259844,0.4921268,0.63698820936,10000,2018-06-16 18:23:56,15,0,23.771,3626.0583791572,46.259844,0.4921268,1.7950952018,0,0,-0.671082,348.5, -0.5, 1.2,0,0,1024,1024,1024,1024,349.5,-89.9,98,3.969,3.954,3.951,3.948,3.986,3.973,19.941,77,14,Waypoint,
37.3089508,-119.5776651,3627.0426311572,47.244096,0.4921268,0.6180938518,10100,2018-06-16 18:23:56,15,0,23.771,3627.0426311572,47.244096,0.4921268,1.7950952018,0,0,-0.671082,348.3, -0.2, 1.5,0,0,1024,1024,1024,1024,349.5,-89.9,98,3.969,3.954,3.951,3.948,3.986,3.973,19.941,77,14,Waypoint,
37.3089509,-119.5776653,3628.0268831572,48.228348,0.4921268,0.60640093804,10200,2018-06-16 18:23:56,15,0,23.771,3628.0268831572,48.228348,0.4921268,1.7950952018,0,0,-0.671082,348.2, 0, 1.7,0,0,1024,1024,1024,1024,349.5,-89.9,98,3.969,3.954,3.951,3.948,3.986,3.973,19.941,77,14,Waypoint,
37.308951,-119.5776654,3629.0111351572,49.2126,0.4921268,0.5874672104,10300,2018-06-16 18:23:56,15,0,23.771,3629.0111351572,49.2126,0.4921268,1.7950952018,0,0,-0.671082,348.1, 0.1, 2,0,0,1024,1024,1024,1024,349.5,-89.9,98,3.969,3.954,3.951,3.948,3.986,3.973,19.941,77,14,Waypoint,
37.3089512,-119.5776656,3630.9796391572,51.181104,0.3131716,0.55941930924,10500,2018-06-16 18:23:57,15,0,23.771,3630.9796391572,51.181104,0.4921268,1.7950952018,0,0,-0.671082,347.9, 0, 2.2,0,0,1024,1024,1024,1024,349.5,-89.9,98,3.969,3.954,3.951,3.948,3.986,3.973,19.941,77,14,Waypoint,
37.3089516,-119.5776658,3632.9481431572,53.149608,0.4921268,0.50024935984,10600,2018-06-16 18:23:57,15,0,23.771,3632.9481431572,53.149608,0.4921268,1.7950952018,0,0,-0.671082,348.1, 0.3, 1.4,0,0,1024,1024,1024,1024,349.4,-89.9,98,3.969,3.954,3.951,3.948,3.986,3.973,19.941,77,14,Waypoint,
37.308952,-119.5776664,3635.5728151572,55.77428,0.4921268,0.59845474356,10900,2018-06-16 18:23:57,15,0,23.771,3635.5728151572,55.77428,0.4921268,1.7950952018,0,0,-0.671082,348.3, 1, 1.4,0,0,1024,1024,1024,1024,349.4,-89.9,98,3.969,3.954,3.951,3.948,3.986,3.973,19.941,77,14,Waypoint,
37.3089522,-119.5776666,3636.5570671572,56.758532,0.447388,0.64258204156,11000,2018-06-16 18:23:57,15,0,23.916,3636.5570671572,56.758532,0.4921268,1.7950952018,0,0,-0.671082,348.3, 1.1, 1.6,0,0,1024,1024,1024,1024,349.4,-89.9,98,4.002,3.98,3.973,3.985,4.01,3.992,18.465,77,14,Waypoint,
37.3089524,-119.5776667,3637.5413191572,57.742784,0.223694,0.66744424708,11200,2018-06-16 18:23:57,15,0,23.916,3637.5413191572,57.742784,0.4921268,1.7950952018,0,0,-0.671082,348.3, 1.1, 1.4,0,0,1024,1024,1024,1024,349.4,-89.9,98,4.002,3.98,3.973,3.985,4.01,3.992,18.465,77,14,Waypoint,
37.3089525,-119.5776668,3638.5255711572,58.727036,0.223694,0.69741800132,11300,2018-06-16 18:23:57,15,0,23.916,3638.5255711572,58.727036,0.4921268,1.7950952018,0,0,-0.671082,348.3, 1.3, 1.3,0,0,1024,1024,1024,1024,349.4,-89.9,98,4.002,3.98,3.973,3.985,4.01,3.992,18.465,77,14,Waypoint,
37.3089527,-119.5776669,3639.5098231572,59.711288,0.223694,0.7336942492,11400,2018-06-16 18:23:57,15,0,23.916,3639.5098231572,59.711288,0.4921268,1.7950952018,0,0,-0.671082,348.4, 1.4, 1.2,0,0,1024,1024,1024,1024,349.5,-89.9,98,4.002,3.98,3.973,3.985,4.01,3.992,18.465,77,14,Waypoint,
37.3089529,-119.577667,3640.4940751572,60.69554,0.223694,0.77624346316,11500,2018-06-16 18:23:58,15,0,23.916,3640.4940751572,60.69554,0.4921268,1.7950952018,0,0,-0.671082,348.5, 1.4, 1.3,0,0,1024,1024,1024,1024,349.4,-89.9,98,4.002,3.98,3.973,3.985,4.01,3.992,18.465,77,14,Waypoint,
37.308953,-119.5776672,3641.4783271572,61.679792,0.223694,0.84151249412,11600,2018-06-16 18:23:58,15,0,23.916,3641.4783271572,61.679792,0.4921268,1.7950952018,0,0,-0.671082,348.8, 1.4, 1.6,0,0,1024,1024,1024,1024,349.4,-89.9,98,4.002,3.98,3.973,3.985,4.01,3.992,18.465,77,14,Waypoint,
37.3089532,-119.5776673,3642.4625791572,62.664044,0.223694,0.89074149832,11700,2018-06-16 18:23:58,15,0,23.916,3642.4625791572,62.664044,0.4921268,1.7950952018,0,0,-0.671082,349, 1.4, 2,0,0,1024,1024,1024,1024,349.4,-89.9,98,4.002,3.98,3.973,3.985,4.01,3.992,18.465,77,14,Waypoint,
37.3089533,-119.5776674,3643.4468311572,63.648296,0.223694,0.93044950484,11800,2018-06-16 18:23:58,15,0,23.916,3643.4468311572,63.648296,0.4921268,1.7950952018,0,0,-0.671082,349.1, 1.5, 2.1,0,0,1024,1024,1024,1024,349.4,-89.9,98,4.002,3.98,3.973,3.985,4.01,3.992,18.465,77,14,Waypoint,
37.3089533,-119.5776675,3644.4310831572,64.632548,0,0.95765423012,11900,2018-06-16 18:23:58,15,0,23.916,3644.4310831572,64.632548,0.4921268,1.7950952018,0,0,-0.671082,349.1, 1.5, 2.1,0,0,1024,1024,1024,1024,349.4,-89.9,98,4.002,3.98,3.973,3.985,4.01,3.992,18.465,77,14,Waypoint,
37.3089534,-119.5776676,3645.4153351572,65.6168,0,0.99772312904,12100,2018-06-16 18:23:58,15,0,23.916,3645.4153351572,65.6168,0.4921268,1.7950952018,0,0,-0.671082,349, 1.4, 1.9,0,0,1024,1024,1024,1024,349.4,-89.9,98,4.002,3.98,3.973,3.985,4.01,3.992,18.465,77,14,Waypoint,
37.3089536,-119.5776677,3647.3838391572,67.585304,0,1.05297575548,12200,2018-06-16 18:23:58,15,0,23.916,3647.3838391572,67.585304,0.4921268,1.7950952018,0,0,-0.671082,348.7, 1.1, 1.3,0,0,1024,1024,1024,1024,349.4,-89.9,98,4.002,3.98,3.973,3.985,4.01,3.992,18.465,77,14,Waypoint,
37.3089536,-119.5776677,3648.3680911572,68.569556,0,1.05297575548,12300,2018-06-16 18:23:58,15,0,23.916,3648.3680911572,68.569556,0.4921268,1.7950952018,0,0,-0.671082,348.5, 1, 1.1,0,0,1024,1024,1024,1024,349.4,-89.9,98,4.002,3.98,3.973,3.985,4.01,3.992,18.465,77,14,Waypoint,
37.3089536,-119.5776677,3649.3523431572,69.553808,0,1.05297575548,12400,2018-06-16 18:23:58,15,0,23.916,3649.3523431572,69.553808,0.4921268,1.7950952018,0,0,-0.671082,348.3, 0.9, 1,0,0,1024,1024,1024,1024,349.4,-89.9,98,4.002,3.98,3.973,3.985,4.01,3.992,18.465,77,14,Waypoint,
37.3089537,-119.5776677,3650.3365951572,70.53806,0,1.06866145152,12500,2018-06-16 18:23:59,15,0,23.916,3650.3365951572,70.53806,0.4921268,1.7950952018,0,0,-0.671082,348.2, 0.8, 1,0,0,1024,1024,1024,1024,349.4,-89.9,98,4.002,3.98,3.973,3.985,4.01,3.992,18.465,77,14,Waypoint,
37.3089537,-119.5776677,3651.3208471572,71.522312,0,1.06866145152,12600,2018-06-16 18:23:59,15,0,23.916,3651.3208471572,71.522312,0.4921268,1.7950952018,0,0,-0.671082,348.2, 0.8, 0.9,0,0,1024,1024,1024,1024,349.4,-89.9,98,4.002,3.98,3.973,3.985,4.01,3.992,18.465,77,14,Waypoint,
37.3089538,-119.5776677,3652.3050991572,72.506564,0,1.08534780376,12700,2018-06-16 18:23:59,15,0,23.916,3652.3050991572,72.506564,0.4921268,1.7950952018,0,0,-0.671082,348.3, 0.9, 0.6,0,0,1024,1024,1024,1024,349.4,-89.9,98,4.002,3.98,3.973,3.985,4.01,3.992,18.465,77,14,Waypoint,
37.3089538,-119.5776678,3653.2893511572,73.490816,0,1.11103678096,12800,2018-06-16 18:23:59,16,0,23.916,3653.2893511572,73.490816,0.4921268,1.7950952018,0,0,-0.671082,348.5, 0.9, 0.5,0,0,1024,1024,1024,1024,349.4,-89.9,98,4.002,3.98,3.973,3.985,4.01,3.992,18.465,77,14,Waypoint,
37.3089539,-119.5776678,3655.2578551572,75.45932,0,1.12827431432,13000,2018-06-16 18:23:59,16,0,23.821,3655.2578551572,75.45932,0.4921268,1.7950952018,0,0,-0.671082,348.5, 1.2, 0.2,0,0,1024,1024,1024,1024,349.4,-89.9,97,3.972,3.953,3.948,3.953,3.996,3.965,18.634,77,14,Waypoint,
37.3089539,-119.5776678,3656.2421071572,76.443572,0,1.12827431432,13100,2018-06-16 18:23:59,16,0,23.821,3656.2421071572,76.443572,0.4921268,1.7950952018,0,0,-0.671082,348.5, 1.1, 0.5,0,0,1024,1024,1024,1024,349.4,-89.9,97,3.972,3.953,3.948,3.953,3.996,3.965,18.634,77,14,Waypoint,
37.308954,-119.5776679,3657.2263591572,77.427824,0,1.17148297712,13200,2018-06-16 18:23:59,16,0,23.821,3657.2263591572,77.427824,0.4921268,1.7950952018,0,0,-0.671082,348.5, 1.2, 0.6,0,0,1024,1024,1024,1024,349.4,-89.9,97,3.972,3.953,3.948,3.953,3.996,3.965,18.634,77,14,Waypoint,
37.308954,-119.577668,3659.1948631572,79.396328,0,1.19673232176,13300,2018-06-16 18:23:59,16,0,23.821,3659.1948631572,79.396328,0.4921268,1.7950952018,0,0,-0.671082,348.6, 1.4, 0.9,0,0,1024,1024,1024,1024,349.4,-89.9,97,3.972,3.953,3.948,3.953,3.996,3.965,18.634,77,14,Waypoint,
37.308954,-119.577668,3660.1791151572,80.38058,0,1.19673232176,13500,2018-06-16 18:24:00,16,0,23.821,3660.1791151572,80.38058,0.4921268,1.7950952018,0,0,-0.671082,348.7, 1.8, 1.1,0,0,1024,1024,1024,1024,349.4,-89.9,97,3.972,3.953,3.948,3.953,3.996,3.965,18.634,77,14,Waypoint,
37.308954,-119.577668,3661.1633671572,81.364832,0,1.19673232176,13600,2018-06-16 18:24:00,16,0,23.821,3661.1633671572,81.364832,0.4921268,1.7950952018,0,0,-0.671082,348.6, 2.1, 0.8,0,0,1024,1024,1024,1024,349.4,-89.9,97,3.972,3.953,3.948,3.953,3.996,3.965,18.634,77,14,Waypoint,
37.308954,-119.577668,3662.1476191572,82.349084,0,1.19673232176,13700,2018-06-16 18:24:00,16,0,23.821,3662.1476191572,82.349084,0.4921268,1.7950952018,0,0,-0.671082,348.4, 1.9, 0.7,0,0,1024,1024,1024,1024,349.4,-89.9,97,3.972,3.953,3.948,3.953,3.996,3.965,18.634,77,14,Waypoint,
37.308954,-119.577668,3663.1318711572,83.333336,0,1.19673232176,13800,2018-06-16 18:24:00,16,0,23.821,3663.1318711572,83.333336,0.4921268,1.7950952018,0,0,-0.671082,348.4, 1.4, 0.8,0,0,1024,1024,1024,1024,349.4,-89.9,97,3.972,3.953,3.948,3.953,3.996,3.965,18.634,77,14,Waypoint,
37.308954,-119.577668,3664.1161231572,84.317588,0,1.19673232176,13900,2018-06-16 18:24:00,16,0,23.821,3664.1161231572,84.317588,0.4921268,1.7950952018,0,0,-0.671082,348.5, 0.8, 0.7,0,0,1024,1024,1024,1024,349.4,-89.9,97,3.972,3.953,3.948,3.953,3.996,3.965,18.634,77,14,Waypoint,
37.3089539,-119.577668,3665.1003751572,85.30184,0,1.1793635548,14000,2018-06-16 18:24:00,16,0,23.879,3665.1003751572,85.30184,0.4921268,1.7950952018,0,0,-0.671082,348.6, 0.5, 0.6,0,0,1024,1024,1024,1024,349.4,-89.9,97,3.99,3.962,3.962,3.964,3.997,3.984,17.794,77,14,Waypoint,
37.3089538,-119.577668,3666.0846271572,86.286092,0,1.16288389548,14100,2018-06-16 18:24:00,16,0,23.879,3666.0846271572,86.286092,0.4921268,1.7950952018,0,0,-0.671082,348.6, 0.3, 0.6,0,0,1024,1024,1024,1024,349.4,-89.9,97,3.99,3.962,3.962,3.964,3.997,3.984,17.794,77,14,Waypoint,
37.3089538,-119.577668,3667.0688791572,87.270344,0,1.16288389548,14200,2018-06-16 18:24:00,16,0,23.879,3667.0688791572,87.270344,0.4921268,1.7950952018,0,0,-0.671082,348.6, 0.2, 0.8,0,0,1024,1024,1024,1024,349.4,-89.9,97,3.99,3.962,3.962,3.964,3.997,3.984,17.794,77,14,Waypoint,
37.3089537,-119.577668,3668.0531311572,88.254596,0,1.1473261522,14300,2018-06-16 18:24:00,16,0,23.879,3668.0531311572,88.254596,0.4921268,1.7950952018,0,0,-0.671082,348.4, 0.1, 1,0,0,1024,1024,1024,1024,349.4,-89.9,97,3.99,3.962,3.962,3.964,3.997,3.984,17.794,77,14,Waypoint,
37.3089537,-119.577668,3669.0373831572,89.238848,0,1.1473261522,14400,2018-06-16 18:24:00,16,0,23.879,3669.0373831572,89.238848,0.4921268,1.7950952018,0,0,-0.671082,348.3, 0.4, 0.9,0,0,1024,1024,1024,1024,349.4,-89.9,97,3.99,3.962,3.962,3.964,3.997,3.984,17.794,77,14,Waypoint,
37.3089538,-119.577668,3671.0058871572,91.207352,0,1.16288389548,14600,2018-06-16 18:24:01,16,0,23.879,3671.0058871572,91.207352,0.4921268,1.7950952018,0,0,-0.671082,348.1, 1.6, 0.6,0,0,1024,1024,1024,1024,349.4,-89.9,97,3.99,3.962,3.962,3.964,3.997,3.984,17.794,77,14,Waypoint,
37.3089538,-119.577668,3672.6463071572,92.847772,0,1.16288389548,14800,2018-06-16 18:24:01,16,0,23.879,3672.6463071572,92.847772,0.4921268,1.7950952018,0,0,-0.671082,348.2, 2, 0.6,0,0,1024,1024,1024,1024,349.4,-89.9,97,3.99,3.962,3.962,3.964,3.997,3.984,17.794,77,14,Waypoint,
37.3089538,-119.5776679,3673.6305591572,93.832024,0,1.13688323848,14900,2018-06-16 18:24:01,16,0,23.879,3673.6305591572,93.832024,0.4921268,1.7950952018,0,0,-0.671082,348.4, 2, 0.5,0,0,1024,1024,1024,1024,349.4,-89.9,97,3.99,3.962,3.962,3.964,3.997,3.984,17.794,77,14,Waypoint,
37.3089537,-119.5776678,3675.5990631572,95.800528,0,1.09474084868,15110,2018-06-16 18:24:01,16,0,23.879,3675.5990631572,95.800528,0.4921268,1.7950952018,0,0,-0.671082,348.6, 1.7, 0.4,0,0,1024,1024,1024,1024,349.4,-89.9,97,3.99,3.962,3.962,3.964,3.997,3.984,17.794,77,14,Waypoint,
37.3089536,-119.5776678,3676.5833151572,96.78478,0,1.07943573008,15210,2018-06-16 18:24:01,16,0,23.879,3676.5833151572,96.78478,0.4921268,1.7950952018,0,0,-0.671082,348.7, 1.1, 0.4,0,0,1024,1024,1024,1024,349.4,-89.9,97,3.99,3.962,3.962,3.964,3.997,3.984,17.794,77,14,Waypoint,
37.3089536,-119.5776677,3677.5675671572,97.769032,0,1.05297575548,15300,2018-06-16 18:24:01,16,0,23.879,3677.5675671572,97.769032,0.4921268,1.7950952018,0,0,-0.671082,348.8, 0.7, 0.3,0,0,1024,1024,1024,1024,349.4,-89.9,97,3.99,3.962,3.962,3.964,3.997,3.984,17.794,77,14,Waypoint,
37.3089535,-119.5776676,3678.5518191572,98.753284,0,1.01163389064,15400,2018-06-16 18:24:01,16,0,23.879,3678.5518191572,98.753284,0.4921268,1.7950952018,0,0,-0.671082,348.9, 0.7, 0.1,0,0,1024,1024,1024,1024,349.4,-89.9,97,3.99,3.962,3.962,3.964,3.997,3.984,17.794,77,14,Waypoint,
37.3089534,-119.5776676,3679.8641551572,100.06562,0,0.99772312904,15510,2018-06-16 18:24:02,16,0,23.879,3679.8641551572,100.06562,0.4921268,1.7950952018,0,0,-0.671082,349, 0.7, 0,0,0,1024,1024,1024,1024,349.4,-89.9,97,3.99,3.962,3.962,3.964,3.997,3.984,17.794,77,14,Waypoint,
37.3089533,-119.5776675,3681.8326591572,102.034124,0,0.95765423012,15610,2018-06-16 18:24:02,16,0,23.879,3681.8326591572,102.034124,0.4921268,1.7950952018,0,0,-0.671082,348.7, 0.8, 0,0,0,1024,1024,1024,1024,349.4,-89.9,97,3.99,3.962,3.962,3.964,3.997,3.984,17.794,77,14,Waypoint,
37.3089533,-119.5776675,3682.8169111572,103.018376,0,0.95765423012,15710,2018-06-16 18:24:02,16,0,23.879,3682.8169111572,103.018376,0.4921268,1.7950952018,0,0,-0.671082,348.6, 0.6, 0.2,0,0,1024,1024,1024,1024,349.4,-89.9,97,3.99,3.962,3.962,3.964,3.997,3.984,17.794,77,14,Waypoint,
37.3089532,-119.5776674,3683.8011631572,104.002628,0,0.91820540996,15800,2018-06-16 18:24:02,16,0,23.879,3683.8011631572,104.002628,0.4921268,1.7950952018,0,0,-0.671082,348.5, 0.5, 0.3,0,0,1024,1024,1024,1024,349.4,-90,97,3.99,3.962,3.962,3.964,3.997,3.984,17.794,77,14,Waypoint,
37.3089532,-119.5776674,3685.1134991572,105.314964,0,0.91820540996,16010,2018-06-16 18:24:02,16,0,23.84,3685.1134991572,105.314964,0.4921268,1.7950952018,0,0,-0.671082,348.4, 0.5, 0.2,0,0,1024,1024,1024,1024,349.4,-89.9,97,3.982,3.959,3.956,3.961,3.988,3.976,17.911,77,14,Waypoint,
37.3089531,-119.5776673,3686.0977511572,106.299216,0,0.8794619704,16110,2018-06-16 18:24:02,16,0,23.84,3686.0977511572,106.299216,0.4921268,1.7950952018,0,0,-0.671082,348.3, 0.4, 0.3,0,0,1024,1024,1024,1024,349.4,-90,97,3.982,3.959,3.956,3.961,3.988,3.976,17.911,77,14,Waypoint,
37.3089531,-119.5776673,3687.0820031572,107.283468,0,0.8794619704,16210,2018-06-16 18:24:02,16,0,23.84,3687.0820031572,107.283468,0.4921268,1.7950952018,0,0,-0.671082,348.3, 0.1, 0.2,0,0,1024,1024,1024,1024,349.4,-90,97,3.982,3.959,3.956,3.961,3.988,3.976,17.911,77,14,Waypoint,
37.308953,-119.5776672,3689.0505071572,109.251972,0,0.84151249412,16410,2018-06-16 18:24:02,16,0,23.84,3689.0505071572,109.251972,0.4921268,1.7950952018,0,0,-0.671082,348.6, -0.3, 0.3,0,0,1024,1024,1024,1024,349.4,-89.9,97,3.982,3.959,3.956,3.961,3.988,3.976,17.911,77,14,Waypoint,
37.3089529,-119.5776672,3690.0347591572,110.236224,0,0.83276905552,16510,2018-06-16 18:24:03,16,0,23.84,3690.0347591572,110.236224,0.4921268,1.7950952018,0,0,-0.671082,348.9, -0.3, 0,0,0,1024,1024,1024,1024,349.4,-90,97,3.982,3.959,3.956,3.961,3.988,3.976,17.911,77,14,Waypoint,
37.3089529,-119.5776671,3691.0190111572,111.220476,0,0.8044783722,16610,2018-06-16 18:24:03,16,0,23.84,3691.0190111572,111.220476,0.4921268,1.7950952018,0,0,-0.671082,349.2, -0.1, 0,0,0,1024,1024,1024,1024,349.4,-90,97,3.982,3.959,3.956,3.961,3.988,3.976,17.911,77,14,Waypoint,
37.3089529,-119.5776671,3692.0032631572,112.204728,0,0.8044783722,16710,2018-06-16 18:24:03,16,0,23.84,3692.0032631572,112.204728,0.4921268,1.7950952018,0,0,-0.671082,349.2, 0.1, 0,0,0,1024,1024,1024,1024,349.4,-89.9,97,3.982,3.959,3.956,3.961,3.988,3.976,17.911,77,14,Waypoint,
37.3089529,-119.5776671,3692.9875151572,113.18898,0,0.8044783722,16810,2018-06-16 18:24:03,16,0,23.84,3692.9875151572,113.18898,0.4921268,1.7950952018,0,0,-0.671082,349.2, 0.6, 0.3,0,0,1024,1024,1024,1024,349.4,-89.9,97,3.982,3.959,3.956,3.961,3.988,3.976,17.911,77,14,Waypoint,
37.308953,-119.5776671,3693.9717671572,114.173232,0,0.81353020976,16910,2018-06-16 18:24:03,16,0,23.84,3693.9717671572,114.173232,0.4921268,1.7950952018,0,0,-0.671082,349.1, 1.1, 0.7,0,0,1024,1024,1024,1024,349.4,-89.9,97,3.982,3.959,3.956,3.961,3.988,3.976,17.911,77,14,Waypoint,
37.308953,-119.5776672,3694.6279351572,114.8294,0,0.84151249412,17010,2018-06-16 18:24:03,16,0,23.795,3694.6279351572,114.8294,0.4921268,1.7950952018,0,0,-0.671082,349, 1.2, 1,0,0,1024,1024,1024,1024,349.4,-89.9,97,3.982,3.962,3.954,3.96,3.995,3.976,17.709,77,14,Waypoint,
37.308953,-119.5776672,3695.6121871572,115.813652,0,0.84151249412,17110,2018-06-16 18:24:03,16,0,23.795,3695.6121871572,115.813652,0.4921268,1.7950952018,0,0,-0.671082,348.9, 1, 1,0,0,1024,1024,1024,1024,349.4,-89.9,97,3.982,3.962,3.954,3.96,3.995,3.976,17.709,77,14,Waypoint,
37.308953,-119.5776672,3696.5964391572,116.797904,0,0.84151249412,17210,2018-06-16 18:24:03,16,0,23.795,3696.5964391572,116.797904,0.4921268,1.7950952018,0,0,-0.671082,348.9, 1.1, 0.8,0,0,1024,1024,1024,1024,349.4,-89.9,97,3.982,3.962,3.954,3.96,3.995,3.976,17.709,77,14,Waypoint,
37.308953,-119.5776673,3697.5806911572,117.782156,0,0.86956695696,17310,2018-06-16 18:24:03,16,0,23.795,3697.5806911572,117.782156,0.4921268,1.7950952018,0,0,-0.671082,348.8, 1.4, 1.1,0,0,1024,1024,1024,1024,349.4,-89.9,97,3.982,3.962,3.954,3.96,3.995,3.976,17.709,77,14,Waypoint,
37.308953,-119.5776673,3698.5649431572,118.766408,0,0.86956695696,17410,2018-06-16 18:24:03,16,0,23.795,3698.5649431572,118.766408,0.4921268,1.7950952018,0,0,-0.671082,348.6, 1.2, 1.2,0,0,1024,1024,1024,1024,349.4,-89.9,97,3.982,3.962,3.954,3.96,3.995,3.976,17.709,77,14,Waypoint,
37.3089531,-119.5776673,3699.2211111572,119.422576,0,0.8794619704,17510,2018-06-16 18:24:04,16,0,23.795,3699.2211111572,119.422576,0.4921268,1.7950952018,0,0,-0.671082,348.4, 0.7, 1.2,0,0,1024,1024,1024,1024,349.4,-89.9,97,3.982,3.962,3.954,3.96,3.995,3.976,17.709,77,14,Waypoint,
37.3089531,-119.5776673,3700.2053631572,120.406828,0,0.8794619704,17610,2018-06-16 18:24:04,16,0,23.795,3700.2053631572,120.406828,0.4921268,1.7950952018,0,0,-0.671082,348.2, 0.7, 1.3,0,0,1024,1024,1024,1024,349.4,-89.9,97,3.982,3.962,3.954,3.96,3.995,3.976,17.709,77,14,Waypoint,
37.3089531,-119.5776674,3701.1896151572,121.39108,0,0.90727037024,17710,2018-06-16 18:24:04,16,0,23.795,3701.1896151572,121.39108,0.4921268,1.7950952018,0,0,-0.671082,347.9, 1.6, 1.4,0,0,1024,1024,1024,1024,349.4,-89.9,97,3.982,3.962,3.954,3.96,3.995,3.976,17.709,77,14,Waypoint,
37.3089531,-119.5776674,3702.1738671572,122.375332,0,0.90727037024,17810,2018-06-16 18:24:04,16,0,23.795,3702.1738671572,122.375332,0.4921268,1.7950952018,0,0,-0.671082,347.6, 1.8, 1.6,0,0,1024,1024,1024,1024,349.4,-89.9,97,3.982,3.962,3.954,3.96,3.995,3.976,17.709,77,14,Waypoint,
37.3089531,-119.5776673,3703.1581191572,123.359584,0.223694,0.8794619704,17910,2018-06-16 18:24:04,16,0,23.795,3703.1581191572,123.359584,0.4921268,1.7950952018,0,0,-0.671082,347.5, 1.5, 1.4,0,0,1024,1024,1024,1024,349.4,-89.9,97,3.982,3.962,3.954,3.96,3.995,3.976,17.709,77,14,Waypoint,
37.3089532,-119.5776673,3704.1423711572,124.343836,0.223694,0.89074149832,18010,2018-06-16 18:24:04,16,0,23.857,3704.1423711572,124.343836,0.4921268,1.7950952018,0,0,-0.671082,347.6, 1.4, 1,0,0,1024,1024,1024,1024,349.4,-89.9,97,3.987,3.967,3.957,3.961,3.99,3.984,16.876,77,14,Waypoint,
37.3089532,-119.5776673,3705.1266231572,125.328088,0.223694,0.89074149832,18110,2018-06-16 18:24:04,16,0,23.857,3705.1266231572,125.328088,0.4921268,1.7950952018,0,0,-0.671082,347.8, 1.4, 0.4,0,0,1024,1024,1024,1024,349.4,-89.9,97,3.987,3.967,3.957,3.961,3.99,3.984,16.876,77,14,Waypoint,
37.3089533,-119.5776673,3706.1108751572,126.31234,0.223694,0.90335304728,18210,2018-06-16 18:24:04,16,0,23.857,3706.1108751572,126.31234,0.4921268,1.7950952018,0,0,-0.671082,348.1, 1.5, 0,0,0,1024,1024,1024,1024,349.4,-89.9,97,3.987,3.967,3.957,3.961,3.99,3.984,16.876,77,14,Waypoint,
37.3089534,-119.5776673,3707.0951271572,127.296592,0.223694,0.91724740468,18310,2018-06-16 18:24:04,16,0,23.857,3707.0951271572,127.296592,0.4921268,1.7950952018,0,0,-0.671082,348.4, 1.9, 0.3,0,0,1024,1024,1024,1024,349.4,-89.9,97,3.987,3.967,3.957,3.961,3.99,3.984,16.876,77,14,Waypoint,
37.3089535,-119.5776673,3708.0793791572,128.280844,0.223694,0.93235895372,18410,2018-06-16 18:24:04,16,0,23.857,3708.0793791572,128.280844,0.4921268,1.7950952018,0,0,-0.671082,348.7, 2.5, 0.7,0,0,1024,1024,1024,1024,349.4,-89.9,97,3.987,3.967,3.957,3.961,3.99,3.984,16.876,77,14,Waypoint,
37.3089536,-119.5776674,3709.0636311572,129.265096,0.223694,0.97447181596,18510,2018-06-16 18:24:05,16,0,23.857,3709.0636311572,129.265096,0.4921268,1.7950952018,0,0,-0.671082,348.9, 3, 0.9,0,0,1024,1024,1024,1024,349.4,-89.9,97,3.987,3.967,3.957,3.961,3.99,3.984,16.876,77,14,Waypoint,
37.3089536,-119.5776674,3710.0478831572,130.249348,0.223694,0.97447181596,18610,2018-06-16 18:24:05,16,0,23.857,3710.0478831572,130.249348,0.4921268,1.7950952018,0,0,-0.671082,349, 3.2, 1.1,0,0,1024,1024,1024,1024,349.4,-89.9,97,3.987,3.967,3.957,3.961,3.99,3.984,16.876,77,14,Waypoint,
37.3089537,-119.5776675,3711.3602191572,131.561684,0.223694,1.016978379,18710,2018-06-16 18:24:05,16,0,23.857,3711.3602191572,131.561684,0.4921268,1.7950952018,0,0,-0.671082,348.9, 3, 1.2,0,0,1024,1024,1024,1024,349.4,-89.9,97,3.987,3.967,3.957,3.961,3.99,3.984,16.876,77,14,Waypoint,
37.3089538,-119.5776676,3713.3287231572,133.530188,0,1.05982943024,18810,2018-06-16 18:24:05,16,0,23.857,3713.3287231572,133.530188,0.4921268,1.7950952018,0,0,-0.671082,348.7, 2.7, 1.1,0,0,1024,1024,1024,1024,349.4,-89.9,97,3.987,3.967,3.957,3.961,3.99,3.984,16.876,77,14,Waypoint,
37.3089538,-119.5776676,3714.3129751572,134.51444,0,1.05982943024,19010,2018-06-16 18:24:05,16,0,23.729,3714.3129751572,134.51444,0.4921268,1.7950952018,0,0,-0.671082,348.5, 2.6, 1.1,0,0,1024,1024,1024,1024,349.4,-89.9,97,3.952,3.934,3.933,3.944,3.974,3.947,18.218,78.8,14,Waypoint,
37.3089539,-119.5776678,3716.2814791572,136.482944,0,1.12827431432,19110,2018-06-16 18:24:05,16,0,23.729,3716.2814791572,136.482944,0.4921268,1.7950952018,0,0,-0.671082,348.4, 2.5, 1.3,0,0,1024,1024,1024,1024,349.4,-89.9,97,3.952,3.934,3.933,3.944,3.974,3.947,18.218,78.8,14,Waypoint,
37.3089539,-119.5776678,3717.2657311572,137.467196,0,1.12827431432,19210,2018-06-16 18:24:05,16,0,23.729,3717.2657311572,137.467196,0.4921268,1.7950952018,0,0,-0.671082,348.4, 2.5, 1.6,0,0,1024,1024,1024,1024,349.4,-89.9,97,3.952,3.934,3.933,3.944,3.974,3.947,18.218,78.8,14,Waypoint,
37.308954,-119.577668,3719.2342351572,139.4357,0,1.19673232176,19410,2018-06-16 18:24:05,16,0,23.729,3719.2342351572,139.4357,0.4921268,1.7950952018,0,0,-0.671082,348.7, 2.2, 1.8,0,0,1024,1024,1024,1024,349.4,-89.9,97,3.952,3.934,3.933,3.944,3.974,3.947,18.218,78.8,14,Waypoint,
37.308954,-119.577668,3720.5465711572,140.748036,0,1.19673232176,19510,2018-06-16 18:24:06,16,0,23.729,3720.5465711572,140.748036,0.4921268,1.7950952018,0,0,-0.671082,349, 2.4, 1.7,0,0,1024,1024,1024,1024,349.4,-89.9,97,3.952,3.934,3.933,3.944,3.974,3.947,18.218,78.8,14,Waypoint,
37.308954,-119.5776681,3721.5308231572,141.732288,0,1.2221457084,19610,2018-06-16 18:24:06,16,0,23.729,3721.5308231572,141.732288,0.4921268,1.7950952018,0,0,-0.671082,349.2, 2.5, 1.5,0,0,1024,1024,1024,1024,349.4,-89.9,97,3.952,3.934,3.933,3.944,3.974,3.947,18.218,78.8,14,Waypoint,
37.308954,-119.5776681,3722.5150751572,142.71654,0,1.2221457084,19810,2018-06-16 18:24:06,16,0,23.729,3722.5150751572,142.71654,0.4921268,1.7950952018,0,0,-0.671082,349.3, 2.6, 1.4,0,0,1024,1024,1024,1024,349.4,-89.9,97,3.952,3.934,3.933,3.944,3.974,3.947,18.218,78.8,14,Waypoint,
37.3089541,-119.5776682,3723.4993271572,143.700792,0.223694,1.26520017172,19910,2018-06-16 18:24:06,16,0,23.729,3723.4993271572,143.700792,0.4921268,1.7950952018,0,0,-0.671082,349.2, 2.8, 1.3,0,0,1024,1024,1024,1024,349.4,-89.9,97,3.952,3.934,3.933,3.944,3.974,3.947,18.218,78.8,14,Waypoint,
37.3089542,-119.5776683,3724.4835791572,144.685044,0.223694,1.3084974172,20010,2018-06-16 18:24:06,16,0,23.726,3724.4835791572,144.685044,0.4921268,1.7950952018,0,0,-0.671082,348.9, 3.2, 1.5,0,0,1024,1024,1024,1024,349.4,-89.9,97,3.972,3.95,3.94,3.947,3.983,3.975,17.993,78.8,14,Waypoint,
37.3089543,-119.5776683,3725.4678311572,145.669296,0.223694,1.327181801,20110,2018-06-16 18:24:06,16,0,23.726,3725.4678311572,145.669296,0.4921268,1.7950952018,0,0,-0.671082,348.6, 3.6, 1.5,0,0,1024,1024,1024,1024,349.4,-89.9,97,3.972,3.95,3.94,3.947,3.983,3.975,17.993,78.8,14,Waypoint,
37.3089543,-119.5776683,3726.4520831572,146.653548,0.223694,1.327181801,20210,2018-06-16 18:24:06,16,0,23.726,3726.4520831572,146.653548,0.4921268,1.7950952018,0,0,-0.671082,348.2, 3.9, 1.6,0,0,1024,1024,1024,1024,349.4,-89.9,97,3.972,3.95,3.94,3.947,3.983,3.975,17.993,78.8,14,Waypoint,
37.3089544,-119.5776684,3727.4363351572,147.6378,0.223694,1.3710794402,20310,2018-06-16 18:24:06,16,0,23.726,3727.4363351572,147.6378,0.4921268,1.7950952018,0,0,-0.671082,347.9, 3.9, 1.6,0,0,1024,1024,1024,1024,349.4,-89.9,97,3.972,3.95,3.94,3.947,3.983,3.975,17.993,78.8,14,Waypoint,
37.3089545,-119.5776684,3728.0925031572,148.293968,0,1.39083993952,20410,2018-06-16 18:24:06,16,0,23.726,3728.0925031572,148.293968,0.4921268,1.7950952018,0,0,-0.671082,347.7, 3.8, 1.4,0,0,1024,1024,1024,1024,349.4,-89.9,97,3.972,3.95,3.94,3.947,3.983,3.975,17.993,78.8,14,Waypoint,
37.3089545,-119.5776684,3729.0767551572,149.27822,0,1.39083993952,20510,2018-06-16 18:24:07,16,0,23.726,3729.0767551572,149.27822,0.4921268,1.7950952018,0,0,-0.671082,347.6, 3.8, 1.3,0,0,1024,1024,1024,1024,349.4,-89.9,97,3.972,3.95,3.94,3.947,3.983,3.975,17.993,78.8,14,Waypoint,
37.3089545,-119.5776684,3730.0610071572,150.262472,0,1.39083993952,20610,2018-06-16 18:24:07,16,0,23.726,3730.0610071572,150.262472,0.4921268,1.7950952018,0,0,-0.671082,347.7, 3.8, 1,0,0,1024,1024,1024,1024,349.4,-89.9,97,3.972,3.95,3.94,3.947,3.983,3.975,17.993,78.8,14,Waypoint,
37.3089546,-119.5776684,3731.0452591572,151.246724,0,1.41126644936,20710,2018-06-16 18:24:07,16,0,23.726,3731.0452591572,151.246724,0.4921268,1.7950952018,0,0,-0.671082,347.9, 3.6, 0.8,0,0,1024,1024,1024,1024,349.4,-89.9,97,3.972,3.95,3.94,3.947,3.983,3.975,17.993,78.8,14,Waypoint,
37.3089545,-119.5776683,3732.0295111572,152.230976,0,1.36671264216,20810,2018-06-16 18:24:07,16,0,23.726,3732.0295111572,152.230976,0.4921268,1.7950952018,0,0,-0.671082,348, 3.2, 0.8,0,0,1024,1024,1024,1024,349.4,-89.9,97,3.972,3.95,3.94,3.947,3.983,3.975,17.993,78.8,14,Waypoint,
37.3089545,-119.5776683,3732.6856791572,152.887144,0,1.36671264216,20910,2018-06-16 18:24:07,16,0,23.726,3732.6856791572,152.887144,0.4921268,1.7950952018,0,0,-0.671082,347.9, 2.9, 1,0,0,1024,1024,1024,1024,349.4,-89.9,97,3.972,3.95,3.94,3.947,3.983,3.975,17.993,78.8,14,Waypoint,
37.3089545,-119.5776682,3733.6699311572,153.871396,0,1.3427821952,21010,2018-06-16 18:24:07,16,0,23.779,3733.6699311572,153.871396,0.4921268,1.7950952018,0,0,-0.671082,347.7, 2.7, 1.1,0,0,1024,1024,1024,1024,349.4,-89.9,97,3.976,3.958,3.95,3.959,3.99,3.978,16.838,78.8,14,Waypoint,
37.3089545,-119.5776682,3734.6541831572,154.855648,0,1.3427821952,21110,2018-06-16 18:24:07,16,0,23.779,3734.6541831572,154.855648,0.4921268,1.7950952018,0,0,-0.671082,347.5, 2.3, 0.7,0,0,1024,1024,1024,1024,349.4,-89.9,97,3.976,3.958,3.95,3.959,3.99,3.978,16.838,78.8,14,Waypoint,
37.3089544,-119.5776681,3735.6384351572,155.8399,0.223694,1.29820214128,21210,2018-06-16 18:24:07,16,0,23.779,3735.6384351572,155.8399,0.4921268,1.7950952018,0,0,-0.671082,347.5, 2.3, 0.2,0,0,1024,1024,1024,1024,349.4,-89.9,97,3.976,3.958,3.95,3.959,3.99,3.978,16.838,78.8,14,Waypoint,
37.3089544,-119.577668,3736.6226871572,156.824152,0.223694,1.27430450272,21310,2018-06-16 18:24:07,16,0,23.779,3736.6226871572,156.824152,0.4921268,1.7950952018,0,0,-0.671082,347.7, 2.4, -0.1,0,0,1024,1024,1024,1024,349.4,-89.9,97,3.976,3.958,3.95,3.959,3.99,3.978,16.838,78.8,14,Waypoint,
37.3089544,-119.5776678,3738.5911911572,158.792656,0,1.22717195528,21410,2018-06-16 18:24:07,16,0,23.779,3738.5911911572,158.792656,0.4921268,1.7950952018,0,0,-0.671082,348.4, 2.6, -0.4,0,0,1024,1024,1024,1024,349.4,-89.9,97,3.976,3.958,3.95,3.959,3.99,3.978,16.838,78.8,14,Waypoint,
37.3089544,-119.5776678,3739.5754431572,159.776908,0,1.22717195528,21510,2018-06-16 18:24:08,16,0,23.779,3739.5754431572,159.776908,0.4921268,1.7950952018,0,0,-0.671082,348.7, 2.8, -0.5,0,0,1024,1024,1024,1024,349.4,-89.9,97,3.976,3.958,3.95,3.959,3.99,3.978,16.838,78.8,14,Waypoint,
37.3089544,-119.5776677,3740.5596951572,160.76116,0,1.20396657396,21610,2018-06-16 18:24:08,16,0,23.779,3740.5596951572,160.76116,0.4921268,1.7950952018,0,0,-0.671082,348.7, 3, -0.6,0,0,1024,1024,1024,1024,349.4,-89.9,97,3.976,3.958,3.95,3.959,3.99,3.978,16.838,78.8,14,Waypoint,
37.3089544,-119.5776676,3741.5439471572,161.745412,0,1.18101381732,21710,2018-06-16 18:24:08,16,0,23.779,3741.5439471572,161.745412,0.4921268,1.7950952018,0,0,-0.671082,348.6, 3.1, -0.6,0,0,1024,1024,1024,1024,349.4,-89.9,97,3.976,3.958,3.95,3.959,3.99,3.978,16.838,78.8,14,Waypoint,
37.3089544,-119.5776676,3742.5281991572,162.729664,0,1.18101381732,21910,2018-06-16 18:24:08,16,0,23.779,3742.5281991572,162.729664,0.4921268,1.7950952018,0,0,-0.671082,348.4, 3.2, -0.6,0,0,1024,1024,1024,1024,349.4,-89.9,97,3.976,3.958,3.95,3.959,3.99,3.978,16.838,78.8,14,Waypoint,
37.3089544,-119.5776675,3743.5124511572,163.713916,0,1.15833665124,22010,2018-06-16 18:24:08,16,0,23.779,3743.5124511572,163.713916,0.4921268,1.7950952018,0,0,-0.671082,348.3, 2.8, -0.4,0,0,1024,1024,1024,1024,349.4,-89.9,97,3.976,3.958,3.95,3.959,3.99,3.978,16.838,78.8,14,Waypoint,
37.3089544,-119.5776675,3744.4967031572,164.698168,0,1.15833665124,22110,2018-06-16 18:24:08,16,0,23.779,3744.4967031572,164.698168,0.4921268,1.7950952018,0,0,-0.671082,348.2, 2.7, -0.1,0,0,1024,1024,1024,1024,349.4,-89.9,97,3.976,3.958,3.95,3.959,3.99,3.978,16.838,78.8,14,Waypoint,
37.3089544,-119.5776674,3745.4809551572,165.68242,0,1.13594491824,22210,2018-06-16 18:24:08,16,0,23.779,3745.4809551572,165.68242,0.4921268,1.7950952018,0,0,-0.671082,348.2, 2.8, 0,0,0,1024,1024,1024,1024,349.4,-89.9,97,3.976,3.958,3.95,3.959,3.99,3.978,16.838,78.8,14,Waypoint,
37.3089544,-119.5776674,3747.4494591572,167.650924,0,1.13594491824,22410,2018-06-16 18:24:08,16,0,23.779,3747.4494591572,167.650924,0.4921268,1.7950952018,0,0,-0.671082,348.4, 3.2, -0.1,0,0,1024,1024,1024,1024,349.4,-89.9,97,3.976,3.958,3.95,3.959,3.99,3.978,16.838,78.8,14,Waypoint,
37.3089544,-119.5776673,3748.4337111572,168.635176,0,1.1138615842,22510,2018-06-16 18:24:09,16,0,23.779,3748.4337111572,168.635176,0.4921268,1.7950952018,0,0,-0.671082,348.5, 3.3, -0.5,0,0,1024,1024,1024,1024,349.4,-89.9,97,3.976,3.958,3.95,3.959,3.99,3.978,16.838,78.8,14,Waypoint,
37.3089544,-119.5776672,3749.4179631572,169.619428,0,1.09209977248,22610,2018-06-16 18:24:09,16,0,23.779,3749.4179631572,169.619428,0.4921268,1.7950952018,0,0,-0.671082,348.5, 3.1, -0.8,0,0,1024,1024,1024,1024,349.4,-89.9,97,3.976,3.958,3.95,3.959,3.99,3.978,16.838,78.8,14,Waypoint,
37.3089544,-119.5776671,3750.4022151572,170.60368,0,1.0706857298,22710,2018-06-16 18:24:09,16,0,23.779,3750.4022151572,170.60368,0.4921268,1.7950952018,0,0,-0.671082,348.5, 2.9, -0.8,0,0,1024,1024,1024,1024,349.4,-89.9,97,3.976,3.958,3.95,3.959,3.99,3.978,16.838,78.8,14,Waypoint,
37.3089544,-119.5776671,3751.7145511572,171.916016,0,1.0706857298,22810,2018-06-16 18:24:09,16,0,23.779,3751.7145511572,171.916016,0.4921268,1.7950952018,0,0,-0.671082,348.4, 2.6, -0.7,0,0,1024,1024,1024,1024,349.4,-89.9,97,3.976,3.958,3.95,3.959,3.99,3.978,16.838,78.8,14,Waypoint,
37.3089543,-119.577667,3752.6988031572,172.900268,0,1.024606332,22910,2018-06-16 18:24:09,16,0,23.779,3752.6988031572,172.900268,0.4921268,1.7950952018,0,0,-0.671082,348.5, 2.3, -0.4,0,0,1024,1024,1024,1024,349.4,-89.9,97,3.976,3.958,3.95,3.959,3.99,3.978,16.838,78.8,14,Waypoint,
37.3089543,-119.577667,3753.6830551572,173.88452,0,1.024606332,23010,2018-06-16 18:24:09,16,0,23.732,3753.6830551572,173.88452,0.4921268,1.7950952018,0,0,-0.671082,348.5, 2.1, -0.3,0,0,1024,1024,1024,1024,349.4,-89.9,97,3.965,3.929,3.94,3.937,3.98,3.957,17.669,78.8,14,Waypoint,
37.3089542,-119.5776669,3754.6673071572,174.868772,0,0.97857942764,23110,2018-06-16 18:24:09,16,0,23.732,3754.6673071572,174.868772,0.4921268,1.7950952018,0,0,-0.671082,348.5, 2.2, -0.5,0,0,1024,1024,1024,1024,349.4,-89.9,97,3.965,3.929,3.94,3.937,3.98,3.957,17.669,78.8,14,Waypoint,
37.3089542,-119.5776668,3755.6515591572,175.853024,0,0.95726381016,23210,2018-06-16 18:24:09,16,0,23.732,3755.6515591572,175.853024,0.4921268,1.7950952018,0,0,-0.671082,348.6, 2.2, -0.6,0,0,1024,1024,1024,1024,349.4,-89.9,97,3.965,3.929,3.94,3.937,3.98,3.957,17.669,78.8,14,Waypoint,
37.3089541,-119.5776668,3756.6358111572,176.837276,0,0.9326115784,23310,2018-06-16 18:24:09,16,0,23.732,3756.6358111572,176.837276,0.4921268,1.7950952018,0,0,-0.671082,348.6, 2.1, -0.7,0,0,1024,1024,1024,1024,349.4,-89.9,97,3.965,3.929,3.94,3.937,3.98,3.957,17.669,78.8,14,Waypoint,
37.3089541,-119.5776667,3757.6200631572,177.821528,0,0.91114504228,23410,2018-06-16 18:24:09,16,0,23.732,3757.6200631572,177.821528,0.4921268,1.7950952018,0,0,-0.671082,348.7, 2.1, -0.8,0,0,1024,1024,1024,1024,349.4,-89.9,97,3.965,3.929,3.94,3.937,3.98,3.957,17.669,78.8,14,Waypoint,
37.3089541,-119.5776667,3758.6043151572,178.80578,0,0.91114504228,23510,2018-06-16 18:24:10,16,0,23.732,3758.6043151572,178.80578,0.4921268,1.7950952018,0,0,-0.671082,348.7, 2, -0.8,0,0,1024,1024,1024,1024,349.4,-89.9,97,3.965,3.929,3.94,3.937,3.98,3.957,17.669,78.8,14,Waypoint,
37.308954,-119.5776666,3759.5885671572,179.790032,0,0.86507876784,23610,2018-06-16 18:24:10,16,0,23.732,3759.5885671572,179.790032,0.4921268,1.7950952018,0,0,-0.671082,348.8, 2, -0.8,0,0,1024,1024,1024,1024,349.4,-89.9,97,3.965,3.929,3.94,3.937,3.98,3.957,17.669,78.8,14,Waypoint,
37.308954,-119.5776666,3760.5728191572,180.774284,0,0.86507876784,23710,2018-06-16 18:24:10,16,0,23.732,3760.5728191572,180.774284,0.4921268,1.7950952018,0,0,-0.671082,348.9, 2.1, -0.5,0,0,1024,1024,1024,1024,349.4,-89.9,97,3.965,3.929,3.94,3.937,3.98,3.957,17.669,78.8,14,Waypoint,
37.3089539,-119.5776666,3762.5413231572,182.742788,0,0.84088913452,23810,2018-06-16 18:24:10,16,0,23.732,3762.5413231572,182.742788,0.4921268,1.7950952018,0,0,-0.671082,348.8, 2.2, -0.8,0,0,1024,1024,1024,1024,349.4,-89.9,97,3.965,3.929,3.94,3.937,3.98,3.957,17.669,78.8,14,Waypoint,
37.3089538,-119.5776667,3764.5098271572,184.711292,0,0.840469187,24010,2018-06-16 18:24:10,16,0,23.735,3764.5098271572,184.711292,0.4921268,1.7950952018,0,0,-0.671082,348.6, 1.8, 0,0,0,1024,1024,1024,1024,349.4,-89.9,96,3.969,3.939,3.945,3.948,3.992,3.963,16.968,78.8,14,Waypoint,
37.3089538,-119.5776668,3765.1659951572,185.36746,0,0.86369425336,24310,2018-06-16 18:24:10,16,0,23.735,3765.1659951572,185.36746,0.4921268,1.7950952018,0,0,-0.671082,348.5, 1.9, 0.3,0,0,1024,1024,1024,1024,349.4,-89.9,96,3.969,3.939,3.945,3.948,3.992,3.963,16.968,78.8,14,Waypoint,
37.3089537,-119.5776669,3767.1344991572,187.335964,0,0.86677168128,24410,2018-06-16 18:24:10,16,0,23.735,3767.1344991572,187.335964,0.4921268,1.7950952018,0,0,-0.671082,348.3, 1.7, 0.4,0,0,1024,1024,1024,1024,349.4,-89.9,96,3.969,3.939,3.945,3.948,3.992,3.963,16.968,78.8,14,Waypoint,
37.3089536,-119.577667,3769.1030031572,189.304468,0,0.87232942424,24610,2018-06-16 18:24:11,16,0,23.735,3769.1030031572,189.304468,0.4921268,1.7950952018,0,0,-0.671082,348.3, 0.9, 0.1,0,0,1024,1024,1024,1024,349.4,-90,96,3.969,3.939,3.945,3.948,3.992,3.963,16.968,78.8,14,Waypoint,
37.3089535,-119.577667,3770.0872551572,190.28872,0,0.85460304572,24710,2018-06-16 18:24:11,16,0,23.735,3770.0872551572,190.28872,0.4921268,1.7950952018,0,0,-0.671082,348.1, 0.8, -0.1,0,0,1024,1024,1024,1024,349.4,-89.9,96,3.969,3.939,3.945,3.948,3.992,3.963,16.968,78.8,14,Waypoint,
37.3089534,-119.5776671,3771.0715071572,191.272972,0,0.8643044896,24810,2018-06-16 18:24:11,16,0,23.735,3771.0715071572,191.272972,0.4921268,1.7950952018,0,0,-0.671082,347.9, 0.8, 0.2,0,0,1024,1024,1024,1024,349.4,-89.9,96,3.969,3.939,3.945,3.948,3.992,3.963,16.968,78.8,14,Waypoint,
37.3089534,-119.5776671,3772.0557591572,192.257224,0,0.8643044896,24910,2018-06-16 18:24:11,16,0,23.735,3772.0557591572,192.257224,0.4921268,1.7950952018,0,0,-0.671082,347.7, 0.8, 0.7,0,0,1024,1024,1024,1024,349.4,-89.9,96,3.969,3.939,3.945,3.948,3.992,3.963,16.968,78.8,14,Waypoint,
37.3089534,-119.5776672,3773.0400111572,193.241476,0,0.89069556656,25010,2018-06-16 18:24:11,16,0,23.736,3773.0400111572,193.241476,0.4921268,1.7950952018,0,0,-0.671082,347.7, 1, 0.9,0,0,1024,1024,1024,1024,349.4,-89.9,96,3.969,3.939,3.945,3.948,3.992,3.963,16.673,78.8,14,Waypoint,
37.3089533,-119.5776673,3774.0242631572,194.225728,0,0.90335304728,25110,2018-06-16 18:24:11,16,0,23.736,3774.0242631572,194.225728,0.4921268,1.7950952018,0,0,-0.671082,347.8, 1.4, 1.1,0,0,1024,1024,1024,1024,349.4,-89.9,96,3.969,3.939,3.945,3.948,3.992,3.963,16.673,78.8,14,Waypoint,
37.3089533,-119.5776673,3775.0085151572,195.20998,0,0.90335304728,25210,2018-06-16 18:24:11,16,0,23.736,3775.0085151572,195.20998,0.4921268,1.7950952018,0,0,-0.671082,348, 1.6, 1.1,0,0,1024,1024,1024,1024,349.4,-89.9,96,3.969,3.939,3.945,3.948,3.992,3.963,16.673,78.8,14,Waypoint,
37.3089534,-119.5776674,3775.9927671572,196.194232,0,0.94394031892,25310,2018-06-16 18:24:11,16,0,23.736,3775.9927671572,196.194232,0.4921268,1.7950952018,0,0,-0.671082,348.3, 1.9, 0.9,0,0,1024,1024,1024,1024,349.4,-89.9,96,3.969,3.939,3.945,3.948,3.992,3.963,16.673,78.8,14,Waypoint,
37.3089534,-119.5776674,3776.9770191572,197.178484,0,0.94394031892,25410,2018-06-16 18:24:11,16,0,23.736,3776.9770191572,197.178484,0.4921268,1.7950952018,0,0,-0.671082,348.7, 1.9, 0.4,0,0,1024,1024,1024,1024,349.4,-89.9,96,3.969,3.939,3.945,3.948,3.992,3.963,16.673,78.8,14,Waypoint,
37.3089534,-119.5776674,3777.9612711572,198.162736,0,0.94394031892,25510,2018-06-16 18:24:12,16,0,23.736,3777.9612711572,198.162736,0.4921268,1.7950952018,0,0,-0.671082,348.9, 2, 0.2,0,0,1024,1024,1024,1024,349.4,-89.9,96,3.969,3.939,3.945,3.948,3.992,3.963,16.673,78.8,14,Waypoint,
37.3089534,-119.5776674,3778.9455231572,199.146988,0,0.94394031892,25610,2018-06-16 18:24:12,16,0,23.736,3778.9455231572,199.146988,0.4921268,1.7950952018,0,0,-0.671082,349, 2.1, 0.2,0,0,1024,1024,1024,1024,349.4,-89.9,96,3.969,3.939,3.945,3.948,3.992,3.963,16.673,78.8,14,Waypoint,
37.3089535,-119.5776674,3779.9297751572,200.13124,0,0.95863520128,25710,2018-06-16 18:24:12,16,0,23.736,3779.9297751572,200.13124,0.4921268,1.7950952018,0,0,-0.671082,349, 2.3, 0.4,0,0,1024,1024,1024,1024,349.4,-89.9,96,3.969,3.939,3.945,3.948,3.992,3.963,16.673,78.8,14,Waypoint,
37.3089535,-119.5776674,3781.2421111572,201.443576,0,0.95863520128,25810,2018-06-16 18:24:12,16,0,23.736,3781.2421111572,201.443576,0.4921268,1.7950952018,0,0,-0.671082,348.8, 2.4, 0.6,0,0,1024,1024,1024,1024,349.4,-89.9,96,3.969,3.939,3.945,3.948,3.992,3.963,16.673,78.8,14,Waypoint,
37.3089535,-119.5776674,3781.8982791572,202.099744,0,0.95863520128,25910,2018-06-16 18:24:12,16,0,23.736,3781.8982791572,202.099744,0.4921268,1.7950952018,0,0,-0.671082,348.6, 2.5, 0.5,0,0,1024,1024,1024,1024,349.4,-89.9,96,3.969,3.939,3.945,3.948,3.992,3.963,16.673,78.8,14,Waypoint,
37.3089536,-119.5776674,3783.2106151572,203.41208,0,0.97447181596,26010,2018-06-16 18:24:12,16,0,23.736,3783.2106151572,203.41208,0.4921268,1.7950952018,0,0,-0.671082,348.4, 2.6, 0.4,0,0,1024,1024,1024,1024,349.4,-89.9,96,3.967,3.936,3.925,3.93,3.978,3.95,16.673,78.8,14,Waypoint,
37.3089537,-119.5776674,3785.1791191572,205.380584,0,0.99140095036,26110,2018-06-16 18:24:12,16,0,23.736,3785.1791191572,205.380584,0.4921268,1.7950952018,0,0,-0.671082,348.2, 2.8, 0.5,0,0,1024,1024,1024,1024,349.4,-89.9,96,3.967,3.936,3.925,3.93,3.978,3.95,16.673,78.8,14,Waypoint,
37.3089537,-119.5776674,3786.1633711572,206.364836,0,0.99140095036,26410,2018-06-16 18:24:12,16,0,23.736,3786.1633711572,206.364836,0.4921268,1.7950952018,0,0,-0.671082,348.3, 2.7, 0.7,0,0,1024,1024,1024,1024,349.4,-89.9,96,3.967,3.936,3.925,3.93,3.978,3.95,16.673,78.8,14,Waypoint,
37.3089537,-119.5776674,3787.8037911572,208.005256,0,0.99140095036,26510,2018-06-16 18:24:13,16,0,23.736,3787.8037911572,208.005256,0.4921268,1.7950952018,0,0,-0.671082,348.3, 2.3, 1,0,0,1024,1024,1024,1024,349.4,-89.9,96,3.967,3.936,3.925,3.93,3.978,3.95,16.673,78.8,14,Waypoint,
37.3089538,-119.5776674,3788.7880431572,208.989508,0,1.00936354936,26610,2018-06-16 18:24:13,16,0,23.736,3788.7880431572,208.989508,0.4921268,1.7950952018,0,0,-0.671082,348.2, 2.3, 0.9,0,0,1024,1024,1024,1024,349.4,-89.9,96,3.967,3.936,3.925,3.93,3.978,3.95,16.673,78.8,14,Waypoint,
37.3089538,-119.5776674,3789.7722951572,209.97376,0,1.00936354936,26710,2018-06-16 18:24:13,16,0,23.736,3789.7722951572,209.97376,0.4921268,1.7950952018,0,0,-0.671082,348.2, 2.4, 0.4,0,0,1024,1024,1024,1024,349.4,-89.9,96,3.967,3.936,3.925,3.93,3.978,3.95,16.673,78.8,14,Waypoint,
37.3089538,-119.5776673,3790.7565471572,210.958012,0,0.98444556956,26810,2018-06-16 18:24:13,16,0,23.736,3790.7565471572,210.958012,0.4921268,1.7950952018,0,0,-0.671082,348.3, 2.6, -0.2,0,0,1024,1024,1024,1024,349.4,-89.9,96,3.967,3.936,3.925,3.93,3.978,3.95,16.673,78.8,14,Waypoint,
37.3089539,-119.5776672,3791.7407991572,211.942264,0,0.979658824,26910,2018-06-16 18:24:13,16,0,23.736,3791.7407991572,211.942264,0.4921268,1.7950952018,0,0,-0.671082,348.4, 2.8, -0.7,0,0,1024,1024,1024,1024,349.4,-89.9,96,3.967,3.936,3.925,3.93,3.978,3.95,16.673,78.8,14,Waypoint,
