Latitude, Longitude, Altitude (m), Time, Sats, Speed (m/s), Range (m), Battery (%), Roll (deg), Pitch (deg), Yaw (deg), Images, HD Signal (%), RC Signal (%), Battery Temp (C), Battery Voltage (mV), Battery Current (mA), Battery Energy (mAh), Battery Capacity (mAh), Battery Discharges, flyState, timestamp (Unix), LastUpdate (ms), radioChannel, Rc_elevator, Rc_aileron, Rc_throttle, Rc_rudder, Rc_gyro, Dronetype, Battery_Cell1 (mV), Battery_Cell2 (mV), Battery_Cell3 (mV), Battery_Cell4 (mV), Battery_Cell5 (mV), Battery_Cell6 (mV), Video, isFlying, elapsedTime (ms), gimbalPitch (deg), gimbalRoll (deg), gimbalYaw (deg), VelocityX (m/s), VelocityY (m/s), VelocityZ (m/s), GroundSmear (cm), App Version, Aircraft Name, Aircraft Firmware, Aircraft Serial Number, Battery Serial Number, Battery Lifetime (%), App_Tip, App_Warning, CurrentFlightStartingIndex, CurrentFlightLastVisitedWaypoint, PreviousFlightEndingWaypointIndex
37.3089524, -119.5776644, 0.000, 11:23:48.966, 14, 0.00, 0.06, 98, -1.000, -0.800, -10.200, 384, 100, 100, 25, 25622, -2925, 5306, 5415, 15, 11, 1529173428.966, 48, 0, 1024, 1024, 1024, 1024, 0, 6, 4229, 4275, 4266, 4230, 4297, 4306, 0, 1, 2927, -89.900, 0.000, -9.600, 0.000, 0.000, -0.100, 0.0, MapPilot_2.8.1_04242018, Dendroctonus I, 1.3.1.00, 041DDC1887, 1058171200279, 97, DJI_0382.jpg, Starting Mission from Lat/Long: 37.30895/-119.57766 Camera: Zenmuse X3 - Overlap: 90/90 - Active Connection: No, 19, 19, 19
37.3089525, -119.5776645, 0.000, 11:23:49.039, 13, 0.14, 0.06, 98, -1.100, -0.700, -10.100, 384, 100, 100, 25, 25622, -2925, 5306, 5415, 15, 11, 1529173429.040, 38, 0, 1024, 1024, 1024, 1024, 0, 6, 4229, 4275, 4266, 4230, 4297, 4306, 0, 1, 3001, -89.900, 0.000, -9.500, 0.100, -0.100, -0.300, 0.0, , , , , , 97, , , 19, 19, 19
37.3089526, -119.5776646, 0.000, 11:23:49.139, 13, 0.14, 0.06, 98, -0.700, 0.000, -10.100, 384, 100, 100, 25, 25622, -2925, 5306, 5415, 15, 11, 1529173429.139, 30, 0, 1024, 1024, 1024, 1024, 0, 6, 4229, 4275, 4266, 4230, 4297, 4306, 0, 1, 3101, -89.900, 0.000, -9.500, 0.100, -0.100, -0.400, 0.0, , , , , , 97, , , 19, 19, 19
37.3089527, -119.5776648, 0.000, 11:23:49.238, 13, 0.14, 0.07, 98, -0.100, 0.500, -10.000, 384, 100, 100, 25, 25622, -2925, 5306, 5415, 15, 11, 1529173429.239, 32, 0, 1024, 1024, 1024, 1024, 0, 6, 4229, 4275, 4266, 4230, 4297, 4306, 0, 1, 3200, -89.900, 0.000, -9.500, 0.100, -0.100, -0.400, 0.0, , , , , , 97, , , 19, 19, 19
37.3089527, -119.5776649, 0.000, 11:23:49.338, 13, 0.14, 0.08, 98, 0.100, 0.700, -9.900, 384, 100, 100, 25, 25622, -2925, 5306, 5415, 15, 11, 1529173429.339, 8, 0, 1024, 1024, 1024, 1024, 0, 6, 4229, 4275, 4266, 4230, 4297, 4306, 0, 1, 3300, -89.900, 0.000, -9.500, 0.100, -0.100, -0.400, 0.0, , , , , , 97, , , 19, 19, 19
37.3089530, -119.5776652, 0.100, 11:23:49.438, 13, 0.14, 0.11, 98, 0.800, 1.200, -9.800, 384, 100, 100, 25, 25622, -2925, 5306, 5415, 15, 11, 1529173429.439, 11, 0, 1024, 1024, 1024, 1024, 0, 6, 4229, 4275, 4266, 4230, 4297, 4306, 0, 1, 3400, -89.900, 0.000, -9.600, 0.100, -0.100, -0.400, 0.0, , , , , , 97, , , 19, 19, 19
37.3089531, -119.5776654, 0.200, 11:23:49.538, 12, 0.14, 0.13, 98, 0.900, 1.200, -9.800, 384, 100, 100, 25, 25568, -3455, 5306, 5415, 15, 11, 1529173429.539, 14, 0, 1024, 1024, 1024, 1024, 0, 6, 4248, 4239, 4210, 4209, 4259, 4241, 0, 1, 3500, -89.900, 0.000, -9.600, 0.100, -0.100, -0.400, 0.0, , , , , , 97, , , 19, 19, 19
37.3089532, -119.5776656, 0.200, 11:23:49.638, 12, 0.10, 0.14, 98, 1.100, 1.200, -9.800, 384, 100, 100, 25, 25568, -3455, 5306, 5415, 15, 11, 1529173429.639, 8, 0, 1024, 1024, 1024, 1024, 0, 6, 4248, 4239, 4210, 4209, 4259, 4241, 0, 1, 3600, -89.900, 0.000, -9.600, 0.000, -0.100, -0.400, 0.0, , , , , , 97, , , 19, 19, 19
37.3089532, -119.5776656, 0.200, 11:23:49.739, 12, 0.10, 0.14, 98, 1.100, 1.200, -9.800, 384, 100, 100, 25, 25568, -3455, 5306, 5415, 15, 11, 1529173429.739, 108, 0, 1024, 1024, 1024, 1024, 0, 6, 4248, 4239, 4210, 4209, 4259, 4241, 0, 1, 3700, -89.900, 0.000, -9.600, 0.000, -0.100, -0.400, 0.0, , , , , , 97, , , 19, 19, 19
37.3089533, -119.5776659, 0.300, 11:23:49.839, 12, 0.00, 0.17, 98, 1.000, 0.700, -10.000, 384, 100, 100, 25, 25568, -3455, 5306, 5415, 15, 11, 1529173429.839, 5, 0, 1024, 1024, 1024, 1024, 0, 6, 4248, 4239, 4210, 4209, 4259, 4241, 0, 1, 3800, -89.900, 0.000, -9.600, 0.000, 0.000, -0.500, 0.0, , , , , , 97, , , 19, 19, 19
37.3089533, -119.5776659, 0.300, 11:23:49.938, 12, 0.00, 0.17, 98, 1.000, 0.700, -10.000, 384, 100, 100, 25, 25568, -3455, 5306, 5415, 15, 11, 1529173429.939, 105, 0, 1024, 1024, 1024, 1024, 0, 6, 4248, 4239, 4210, 4209, 4259, 4241, 0, 1, 3900, -89.900, 0.000, -9.600, 0.000, 0.000, -0.500, 0.0, , , , , , 97, , , 19, 19, 19
37.3089534, -119.5776660, 0.400, 11:23:50.039, 12, 0.00, 0.19, 98, 0.800, 0.600, -10.100, 384, 100, 100, 25, 25568, -3455, 5306, 5415, 15, 11, 1529173430.039, 74, 0, 1024, 1024, 1024, 1024, 0, 6, 4248, 4239, 4210, 4209, 4259, 4241, 0, 1, 4000, -89.900, 0.000, -9.600, 0.000, 0.000, -0.500, 0.0, , , , , , 97, , , 19, 19, 19
37.3089534, -119.5776662, 0.500, 11:23:50.140, 12, 0.00, 0.20, 98, 1.000, 0.900, -10.200, 384, 100, 100, 25, 25568, -3455, 5306, 5415, 15, 11, 1529173430.140, 91, 0, 1024, 1024, 1024, 1024, 0, 6, 4248, 4239, 4210, 4209, 4259, 4241, 0, 1, 4101, -89.900, 0.000, -9.600, 0.000, 0.000, -0.400, 0.0, , , , , , 97, , , 19, 19, 19
37.3089535, -119.5776663, 0.500, 11:23:50.239, 11, 0.00, 0.22, 98, 1.200, 1.100, -10.200, 384, 100, 100, 25, 25568, -3455, 5306, 5415, 15, 11, 1529173430.239, 70, 0, 1024, 1024, 1024, 1024, 0, 6, 4248, 4239, 4210, 4209, 4259, 4241, 0, 1, 4200, -89.900, 0.000, -9.600, 0.000, 0.000, -0.400, 0.0, , , , , , 97, , , 19, 19, 19
37.3089536, -119.5776665, 0.600, 11:23:50.338, 11, 0.00, 0.24, 98, 1.200, 1.300, -10.200, 384, 100, 100, 25, 25568, -3455, 5306, 5415, 15, 11, 1529173430.339, 82, 0, 1024, 1024, 1024, 1024, 0, 6, 4248, 4239, 4210, 4209, 4259, 4241, 0, 1, 4300, -89.900, 0.000, -9.500, 0.000, 0.000, -0.500, 0.0, , , , , , 97, , , 19, 19, 19
37.3089537, -119.5776666, 0.600, 11:23:50.438, 11, 0.00, 0.25, 98, 1.200, 1.500, -10.300, 384, 100, 100, 25, 25568, -3455, 5306, 5415, 15, 11, 1529173430.439, 87, 0, 1024, 1024, 1024, 1024, 0, 6, 4248, 4239, 4210, 4209, 4259, 4241, 0, 1, 4400, -89.900, 0.000, -9.500, 0.000, 0.000, -0.500, 0.0, , , , , , 97, , , 19, 19, 19
37.3089537, -119.5776667, 0.700, 11:23:50.539, 11, 0.00, 0.26, 98, 1.100, 1.700, -10.400, 384, 100, 100, 25, 24515, -15753, 5306, 5415, 15, 11, 1529173430.539, 63, 0, 1024, 1024, 1024, 1024, 0, 6, 4080, 4082, 4058, 4062, 4090, 4085, 0, 1, 4500, -89.900, 0.000, -9.600, 0.000, 0.000, -0.400, 0.0, , , , , , 97, , , 19, 19, 19
37.3089538, -119.5776667, 0.700, 11:23:50.639, 12, 0.00, 0.26, 98, 0.900, 1.700, -10.500, 384, 100, 100, 25, 24515, -15753, 5306, 5415, 15, 11, 1529173430.639, 79, 0, 1024, 1024, 1024, 1024, 0, 6, 4080, 4082, 4058, 4062, 4090, 4085, 0, 1, 4600, -89.900, 0.000, -9.500, 0.000, 0.000, -0.400, 0.0, , , , , , 97, , , 19, 19, 19
37.3089538, -119.5776668, 0.800, 11:23:50.739, 12, 0.00, 0.27, 98, 0.800, 1.600, -10.600, 384, 100, 100, 25, 24515, -15753, 5306, 5415, 15, 11, 1529173430.739, 68, 0, 1024, 1024, 1024, 1024, 0, 6, 4080, 4082, 4058, 4062, 4090, 4085, 0, 1, 4700, -89.900, 0.000, -9.600, 0.000, 0.000, -0.500, 0.0, , , , , , 97, , , 19, 19, 19
37.3089538, -119.5776668, 0.800, 11:23:50.838, 11, 0.00, 0.27, 98, 0.900, 1.400, -10.600, 384, 100, 100, 25, 24515, -15753, 5306, 5415, 15, 11, 1529173430.839, 51, 0, 1024, 1024, 1024, 1024, 0, 6, 4080, 4082, 4058, 4062, 4090, 4085, 0, 1, 4800, -89.900, 0.000, -9.600, 0.000, 0.000, -0.400, 0.0, , , , , , 97, , , 19, 19, 19
37.3089538, -119.5776669, 0.900, 11:23:50.939, 11, 0.00, 0.27, 98, 0.900, 1.300, -10.700, 384, 100, 100, 25, 24515, -15753, 5306, 5415, 15, 14, 1529173430.939, 65, 0, 1024, 1024, 1024, 1024, 0, 6, 4080, 4082, 4058, 4062, 4090, 4085, 0, 1, 4900, -89.900, 0.000, -9.600, 0.000, 0.000, -0.400, 0.0, , , , , , 97, , , 19, 19, 19
37.3089538, -119.5776669, 0.900, 11:23:51.039, 13, 0.00, 0.27, 98, 0.900, 1.300, -10.700, 384, 100, 100, 25, 24515, -15753, 5306, 5415, 15, 14, 1529173431.039, 54, 0, 1024, 1024, 1024, 1024, 0, 6, 4080, 4082, 4058, 4062, 4090, 4085, 0, 1, 5000, -89.900, 0.000, -9.600, 0.000, 0.000, -0.300, 0.0, , , , , , 97, , , 19, 19, 19
37.3089538, -119.5776668, 1.000, 11:23:51.140, 13, 0.00, 0.27, 98, 0.100, 0.700, -10.800, 384, 100, 100, 25, 24515, -15753, 5306, 5415, 15, 14, 1529173431.140, 54, 0, 1024, 1024, 1024, 1024, 0, 6, 4080, 4082, 4058, 4062, 4090, 4085, 0, 1, 5101, -90.000, 0.000, -9.600, 0.000, 0.000, -0.200, 0.0, , , , , , 97, , , 19, 19, 19
37.3089537, -119.5776668, 1.000, 11:23:51.238, 13, 0.00, 0.27, 98, -0.100, 0.400, -10.800, 384, 100, 100, 25, 24515, -15753, 5306, 5415, 15, 14, 1529173431.239, 37, 0, 1024, 1024, 1024, 1024, 0, 6, 4080, 4082, 4058, 4062, 4090, 4085, 0, 1, 5200, -90.000, 0.000, -9.600, 0.000, 0.000, -0.200, 0.0, , , , , , 97, , , 19, 19, 19
37.3089537, -119.5776669, 1.000, 11:23:51.338, 13, 0.00, 0.27, 98, -0.100, 0.300, -10.800, 384, 100, 100, 25, 24515, -15753, 5306, 5415, 15, 14, 1529173431.339, 57, 0, 1024, 1024, 1024, 1024, 0, 6, 4080, 4082, 4058, 4062, 4090, 4085, 0, 1, 5300, -90.000, 0.000, -9.600, 0.000, 0.000, -0.300, 0.0, , , , , , 97, , , 19, 19, 19
37.3089537, -119.5776669, 1.100, 11:23:51.438, 12, 0.00, 0.27, 98, 0.000, 0.300, -10.800, 384, 100, 100, 25, 24515, -15753, 5306, 5415, 15, 14, 1529173431.439, 25, 0, 1024, 1024, 1024, 1024, 0, 6, 4080, 4082, 4058, 4062, 4090, 4085, 0, 1, 5400, -90.000, 0.000, -9.600, 0.000, 0.000, -0.400, 0.0, , , , , , 97, , , 19, 19, 19
37.3089536, -119.5776668, 1.200, 11:23:51.538, 12, 0.00, 0.26, 98, 0.000, 0.400, -10.900, 384, 100, 100, 25, 24347, -16126, 5306, 5415, 15, 14, 1529173431.539, 18, 0, 1024, 1024, 1024, 1024, 0, 6, 4066, 4044, 4044, 4048, 4070, 4062, 0, 1, 5500, -90.000, 0.000, -9.600, 0.000, 0.000, -0.600, 0.0, , , , , , 97, , , 19, 19, 19
37.3089536, -119.5776668, 1.200, 11:23:51.638, 12, 0.00, 0.26, 98, -0.300, 0.300, -11.100, 384, 100, 100, 25, 24347, -16126, 5306, 5415, 15, 14, 1529173431.639, 24, 0, 1024, 1024, 1024, 1024, 0, 6, 4066, 4044, 4044, 4048, 4070, 4062, 0, 1, 5600, -89.900, 0.000, -9.700, 0.000, 0.000, -0.800, 0.0, , , , , , 97, , , 19, 19, 19
37.3089535, -119.5776667, 1.300, 11:23:51.738, 12, 0.00, 0.25, 98, -0.400, 0.300, -11.300, 384, 100, 100, 25, 24347, -16126, 5306, 5415, 15, 14, 1529173431.739, 22, 0, 1024, 1024, 1024, 1024, 0, 6, 4066, 4044, 4044, 4048, 4070, 4062, 0, 1, 5700, -89.900, 0.000, -9.700, 0.000, 0.000, -1.000, 0.0, , , , , , 97, , , 19, 19, 19
37.3089535, -119.5776667, 1.300, 11:23:51.838, 12, 0.00, 0.25, 98, -0.400, 0.300, -11.300, 384, 100, 100, 25, 24347, -16126, 5306, 5415, 15, 14, 1529173431.839, 122, 0, 1024, 1024, 1024, 1024, 0, 6, 4066, 4044, 4044, 4048, 4070, 4062, 0, 1, 5800, -89.900, 0.000, -9.700, 0.000, 0.000, -1.000, 0.0, , , , , , 97, , , 19, 19, 19
37.3089535, -119.5776667, 1.500, 11:23:51.938, 13, 0.00, 0.25, 98, -0.400, 0.400, -11.500, 384, 100, 100, 25, 24347, -16126, 5306, 5415, 15, 14, 1529173431.939, 75, 0, 1024, 1024, 1024, 1024, 0, 6, 4066, 4044, 4044, 4048, 4070, 4062, 0, 1, 5900, -89.900, 0.000, -9.700, 0.000, 0.000, -1.200, 0.0, , , , , , 97, , , 19, 19, 19
37.3089535, -119.5776667, 1.700, 11:23:52.038, 13, 0.00, 0.25, 98, 0.100, 0.200, -11.800, 384, 100, 100, 25, 24347, -16126, 5306, 5415, 15, 14, 1529173432.039, 92, 0, 1024, 1024, 1024, 1024, 0, 6, 4066, 4044, 4044, 4048, 4070, 4062, 0, 1, 6000, -90.000, 0.000, -9.800, 0.000, 0.000, -1.500, 0.0, , , , , , 97, , , 19, 19, 19
37.3089535, -119.5776670, 2.100, 11:23:52.138, 13, 0.00, 0.27, 98, 1.500, 0.900, -11.600, 384, 100, 100, 25, 24347, -16126, 5306, 5415, 15, 14, 1529173432.138, 2, 0, 1024, 1024, 1024, 1024, 0, 6, 4066, 4044, 4044, 4048, 4070, 4062, 0, 1, 6099, -89.900, 0.000, -9.800, 0.000, 0.000, -1.900, 0.0, , , , , , 97, , , 19, 19, 19
37.3089536, -119.5776671, 2.300, 11:23:52.238, 13, 0.00, 0.29, 98, 2.000, 1.600, -11.400, 384, 100, 100, 25, 24347, -16126, 5306, 5415, 15, 14, 1529173432.239, 7, 0, 1024, 1024, 1024, 1024, 0, 6, 4066, 4044, 4044, 4048, 4070, 4062, 0, 1, 6200, -89.900, 0.000, -9.900, 0.000, 0.000, -2.200, 0.0, , , , , , 97, , , 19, 19, 19
37.3089538, -119.5776672, 2.600, 11:23:52.338, 14, 0.00, 0.31, 98, 1.800, 1.700, -11.000, 384, 100, 100, 25, 24347, -16126, 5306, 5415, 15, 14, 1529173432.338, 7, 0, 1024, 1024, 1024, 1024, 0, 6, 4066, 4044, 4044, 4048, 4070, 4062, 0, 1, 6300, -89.900, 0.000, -9.900, 0.000, 0.000, -2.500, 0.0, , , , , , 97, , , 19, 19, 19
37.3089540, -119.5776674, 2.800, 11:23:52.447, 14, 0.00, 0.33, 98, 1.400, 1.600, -10.700, 384, 100, 100, 25, 24347, -16126, 5306, 5415, 15, 14, 1529173432.447, 3, 0, 1024, 1024, 1024, 1024, 0, 6, 4066, 4044, 4044, 4048, 4070, 4062, 0, 1, 6409, -89.900, 0.000, -9.900, 0.000, 0.000, -2.600, 0.0, , , , , , 97, , , 19, 19, 19
37.3089540, -119.5776674, 2.800, 11:23:52.538, 14, 0.00, 0.33, 98, 1.400, 1.600, -10.700, 384, 100, 100, 25, 24347, -16126, 5306, 5415, 15, 14, 1529173432.539, 95, 0, 1024, 1024, 1024, 1024, 0, 6, 4066, 4044, 4044, 4048, 4070, 4062, 0, 1, 6500, -89.900, 0.000, -9.900, 0.000, 0.000, -2.600, 0.0, , , , , , 97, , , 19, 19, 19
37.3089542, -119.5776676, 3.100, 11:23:52.638, 13, 0.00, 0.35, 98, 1.100, 1.600, -10.600, 384, 100, 100, 25, 24180, -18018, 5306, 5415, 15, 14, 1529173432.639, 89, 0, 1024, 1024, 1024, 1024, 0, 6, 4034, 4041, 3990, 3998, 4040, 3989, 0, 1, 6600, -89.900, 0.000, -10.000, 0.000, 0.000, -2.800, 0.0, , , , , , 97, , , 19, 19, 19
37.3089544, -119.5776679, 3.400, 11:23:52.739, 13, 0.00, 0.38, 98, 1.200, 1.700, -10.600, 384, 100, 100, 25, 24180, -18018, 5306, 5415, 15, 14, 1529173432.739, 79, 0, 1024, 1024, 1024, 1024, 0, 6, 4034, 4041, 3990, 3998, 4040, 3989, 0, 1, 6700, -89.900, 0.000, -10.000, 0.000, 0.000, -2.900, 0.0, , , , , , 97, , , 19, 19, 19
37.3089545, -119.5776681, 3.800, 11:23:52.838, 13, 0.10, 0.41, 98, 1.400, 1.900, -10.700, 384, 100, 100, 25, 24180, -18018, 5306, 5415, 15, 14, 1529173432.839, 83, 0, 1024, 1024, 1024, 1024, 0, 6, 4034, 4041, 3990, 3998, 4040, 3989, 0, 1, 6800, -89.900, 0.000, -10.000, 0.000, -0.100, -3.100, 0.0, , , , , , 97, , , 19, 19, 19
37.3089547, -119.5776684, 4.100, 11:23:52.938, 13, 0.10, 0.44, 98, 1.600, 2.200, -10.800, 384, 100, 100, 25, 24180, -18018, 5306, 5415, 15, 14, 1529173432.939, 78, 0, 1024, 1024, 1024, 1024, 0, 6, 4034, 4041, 3990, 3998, 4040, 3989, 0, 1, 6900, -89.900, 0.000, -10.000, 0.000, -0.100, -3.100, 0.0, , , , , , 97, , , 19, 19, 19
37.3089548, -119.5776688, 4.500, 11:23:53.038, 12, 0.10, 0.47, 98, 2.800, 2.200, -11.300, 384, 100, 100, 25, 24180, -18018, 5306, 5415, 15, 14, 1529173433.039, 71, 0, 1024, 1024, 1024, 1024, 0, 6, 4034, 4041, 3990, 3998, 4040, 3989, 0, 1, 7000, -89.900, 0.000, -10.100, 0.000, -0.100, -3.200, 0.0, , , , , , 97, , , 19, 19, 19
37.3089549, -119.5776691, 4.800, 11:23:53.139, 12, 0.10, 0.50, 98, 4.200, 2.000, -11.700, 384, 100, 100, 25, 24180, -18018, 5306, 5415, 15, 14, 1529173433.139, 76, 0, 1024, 1024, 1024, 1024, 0, 6, 4034, 4041, 3990, 3998, 4040, 3989, 0, 1, 7101, -89.900, 0.000, -10.100, 0.000, -0.100, -3.200, 0.0, , , , , , 97, , , 19, 19, 19
37.3089549, -119.5776694, 5.200, 11:23:53.238, 12, 0.00, 0.53, 98, 4.600, 2.100, -11.900, 384, 100, 100, 25, 24180, -18018, 5306, 5415, 15, 14, 1529173433.239, 78, 0, 1024, 1024, 1024, 1024, 0, 6, 4034, 4041, 3990, 3998, 4040, 3989, 0, 1, 7200, -89.900, 0.000, -10.100, 0.000, 0.000, -3.100, 0.0, , , , , , 97, , , 19, 19, 19
37.3089549, -119.5776696, 5.500, 11:23:53.339, 12, 0.00, 0.55, 98, 3.800, 2.200, -11.900, 384, 100, 100, 25, 24180, -18018, 5306, 5415, 15, 14, 1529173433.339, 58, 0, 1024, 1024, 1024, 1024, 0, 6, 4034, 4041, 3990, 3998, 4040, 3989, 0, 1, 7300, -89.900, 0.000, -10.100, 0.000, 0.000, -3.000, 0.0, , , , , , 97, , , 19, 19, 19
37.3089549, -119.5776697, 5.800, 11:23:53.439, 14, 0.00, 0.56, 98, 2.900, 2.000, -11.900, 384, 100, 100, 25, 24180, -18018, 5306, 5415, 15, 14, 1529173433.439, 38, 0, 1024, 1024, 1024, 1024, 0, 6, 4034, 4041, 3990, 3998, 4040, 3989, 0, 1, 7400, -89.900, 0.000, -10.200, 0.000, 0.000, -3.000, 0.0, , , , , , 97, , , 19, 19, 19
37.3089548, -119.5776698, 6.100, 11:23:53.538, 14, 0.00, 0.55, 98, 2.300, 2.000, -12.000, 384, 100, 100, 25, 23662, -23509, 5306, 5415, 15, 14, 1529173433.539, 29, 0, 1024, 1024, 1024, 1024, 0, 6, 4034, 4041, 3990, 3998, 4040, 3989, 0, 1, 7500, -89.900, 0.000, -10.200, 0.000, 0.000, -3.000, 0.0, , , , , , 97, , , 19, 19, 19
37.3089546, -119.5776697, 6.400, 11:23:53.638, 13, 0.00, 0.54, 98, 2.000, 1.900, -11.900, 384, 100, 100, 25, 23662, -23509, 5306, 5415, 15, 14, 1529173433.639, 45, 0, 1024, 1024, 1024, 1024, 0, 6, 4034, 4041, 3990, 3998, 4040, 3989, 0, 1, 7600, -89.900, 0.000, -10.200, 0.000, 0.000, -3.000, 0.0, , , , , , 97, , , 19, 19, 19
37.3089544, -119.5776694, 6.700, 11:23:53.739, 13, 0.10, 0.51, 98, 1.600, 1.400, -11.600, 384, 100, 100, 25, 23662, -23509, 5306, 5415, 15, 14, 1529173433.739, 33, 0, 1024, 1024, 1024, 1024, 0, 6, 4034, 4041, 3990, 3998, 4040, 3989, 0, 1, 7700, -89.900, 0.000, -10.200, 0.000, 0.100, -3.000, 0.0, , , , , , 97, , , 19, 19, 19
37.3089542, -119.5776691, 7.000, 11:23:53.838, 14, 0.10, 0.47, 98, 1.000, 0.800, -11.300, 384, 100, 100, 25, 23662, -23509, 5306, 5415, 15, 14, 1529173433.839, 36, 0, 1024, 1024, 1024, 1024, 0, 6, 4034, 4041, 3990, 3998, 4040, 3989, 0, 1, 7800, -90.000, 0.000, -10.200, 0.000, 0.100, -3.000, 0.0, , , , , , 97, , , 19, 19, 19
37.3089542, -119.5776691, 7.000, 11:23:53.939, 14, 0.10, 0.47, 98, 1.000, 0.800, -11.300, 384, 100, 100, 25, 23662, -23509, 5306, 5415, 15, 14, 1529173433.939, 136, 0, 1024, 1024, 1024, 1024, 0, 6, 4034, 4041, 3990, 3998, 4040, 3989, 0, 1, 7901, -89.900, 0.000, -10.300, 0.000, 0.100, -3.000, 0.0, , , , , , 97, , , 19, 19, 19
37.3089534, -119.5776683, 7.700, 11:23:54.038, 13, 0.14, 0.39, 98, 0.300, -1.000, -10.900, 384, 100, 100, 25, 23662, -23509, 5306, 5415, 15, 14, 1529173434.039, 31, 0, 1024, 1024, 1024, 1024, 0, 6, 3952, 3935, 3923, 3933, 3959, 3941, 0, 1, 8000, -89.900, 0.000, -10.300, -0.100, 0.100, -3.200, 0.0, , , , , , 97, , , 19, 19, 19
37.3089531, -119.5776679, 8.100, 11:23:54.138, 13, 0.14, 0.34, 98, -0.800, -1.900, -10.900, 384, 100, 96, 25, 23662, -23509, 5306, 5415, 15, 14, 1529173434.139, 8, 0, 1024, 1024, 1024, 1024, 0, 6, 3952, 3935, 3923, 3933, 3959, 3941, 0, 1, 8100, -89.900, 0.000, -10.300, -0.100, 0.100, -3.200, 0.0, , , , , , 97, , , 19, 19, 19
37.3089525, -119.5776671, 8.700, 11:23:54.239, 14, 0.14, 0.28, 98, -1.700, -2.500, -11.000, 384, 100, 96, 25, 23662, -23509, 5306, 5415, 15, 14, 1529173434.239, 18, 0, 1024, 1024, 1024, 1024, 0, 6, 3952, 3935, 3923, 3933, 3959, 3941, 0, 1, 8200, -90.000, 0.000, -10.300, -0.100, 0.100, -3.100, 0.0, , , , , , 97, , , 19, 19, 19
37.3089521, -119.5776667, 9.100, 11:23:54.339, 14, 0.10, 0.25, 98, -1.200, -2.400, -11.100, 384, 100, 96, 25, 23662, -23509, 5306, 5415, 15, 14, 1529173434.339, 9, 0, 1024, 1024, 1024, 1024, 0, 6, 3952, 3935, 3923, 3933, 3959, 3941, 0, 1, 8300, -89.900, 0.000, -10.400, -0.100, 0.000, -3.100, 0.0, , , , , , 97, , , 19, 19, 19
37.3089518, -119.5776663, 9.400, 11:23:54.439, 14, 0.00, 0.24, 98, -0.400, -2.700, -11.300, 384, 100, 96, 25, 23662, -23509, 5306, 5415, 15, 14, 1529173434.439, 11, 0, 1024, 1024, 1024, 1024, 0, 6, 3952, 3935, 3923, 3933, 3959, 3941, 0, 1, 8400, -89.900, 0.000, -10.400, 0.000, 0.000, -3.100, 0.0, , , , , , 97, , , 19, 19, 19
37.3089515, -119.5776660, 9.700, 11:23:54.539, 14, 0.00, 0.24, 98, 0.000, -2.900, -11.400, 384, 100, 96, 25, 23662, -23509, 5306, 5415, 15, 14, 1529173434.539, 2, 0, 1024, 1024, 1024, 1024, 0, 6, 3952, 3935, 3923, 3933, 3959, 3941, 0, 1, 8501, -89.900, 0.000, -10.400, 0.000, 0.000, -3.100, 0.0, , , , , , 97, , , 19, 19, 19
37.3089515, -119.5776660, 9.700, 11:23:54.638, 14, 0.00, 0.24, 98, 0.000, -2.900, -11.400, 384, 100, 96, 25, 23662, -23509, 5306, 5415, 15, 14, 1529173434.639, 101, 0, 1024, 1024, 1024, 1024, 0, 6, 3952, 3935, 3923, 3933, 3959, 3941, 0, 1, 8600, -89.900, 0.000, -10.400, 0.000, 0.000, -3.100, 0.0, , , , , , 97, , , 19, 19, 19
37.3089510, -119.5776656, 10.400, 11:23:54.738, 14, 0.00, 0.25, 98, 0.200, -2.700, -11.600, 384, 100, 96, 25, 23662, -23509, 5306, 5415, 15, 14, 1529173434.738, 7, 0, 1024, 1024, 1024, 1024, 0, 6, 3952, 3935, 3923, 3933, 3959, 3941, 0, 1, 8700, -89.900, 0.000, -10.400, 0.000, 0.000, -2.900, 0.0, , , , , , 97, , , 19, 19, 19
37.3089510, -119.5776656, 10.400, 11:23:54.838, 14, 0.00, 0.25, 98, 0.200, -2.700, -11.600, 384, 100, 96, 25, 23662, -23509, 5306, 5415, 15, 14, 1529173434.839, 108, 0, 1024, 1024, 1024, 1024, 0, 6, 3952, 3935, 3923, 3933, 3959, 3941, 0, 1, 8800, -89.900, 0.000, -10.400, 0.000, 0.000, -2.900, 0.0, , , , , , 97, , , 19, 19, 19
37.3089508, -119.5776654, 10.700, 11:23:54.939, 14, 0.00, 0.26, 98, 0.000, -2.600, -11.700, 384, 100, 96, 25, 23662, -23509, 5306, 5415, 15, 14, 1529173434.939, 92, 0, 1024, 1024, 1024, 1024, 0, 6, 3952, 3935, 3923, 3933, 3959, 3941, 0, 1, 8900, -89.900, 0.000, -10.400, 0.000, 0.000, -2.900, 0.0, , , , , , 97, , , 19, 19, 19
37.3089506, -119.5776652, 11.000, 11:23:55.038, 15, 0.00, 0.27, 98, -0.100, -2.700, -11.700, 384, 100, 96, 25, 23662, -23509, 5306, 5415, 15, 14, 1529173435.039, 60, 0, 1024, 1024, 1024, 1024, 0, 6, 3952, 3935, 3923, 3933, 3959, 3941, 0, 1, 9000, -89.900, 0.000, -10.400, 0.000, 0.000, -2.900, 0.0, , , , , , 97, , , 19, 19, 19
37.3089505, -119.5776650, 11.300, 11:23:55.138, 15, 0.00, 0.28, 98, -0.200, -2.700, -11.600, 384, 100, 96, 25, 23771, -19941, 5306, 5415, 15, 14, 1529173435.139, 64, 0, 1024, 1024, 1024, 1024, 0, 6, 3969, 3954, 3951, 3948, 3986, 3973, 0, 1, 9100, -89.900, 0.000, -10.400, 0.000, 0.000, -2.900, 0.0, , , , , , 97, , , 19, 19, 19
37.3089504, -119.5776649, 11.600, 11:23:55.238, 15, 0.00, 0.29, 98, -0.300, -2.200, -11.600, 384, 100, 96, 25, 23771, -19941, 5306, 5415, 15, 14, 1529173435.238, 70, 0, 1024, 1024, 1024, 1024, 0, 6, 3969, 3954, 3951, 3948, 3986, 3973, 0, 1, 9200, -89.900, 0.000, -10.500, 0.000, 0.000, -2.900, 0.0, , , , , , 97, , , 19, 19, 19
37.3089504, -119.5776649, 11.600, 11:23:55.338, 15, 0.00, 0.29, 98, -0.300, -2.200, -11.600, 384, 100, 96, 25, 23771, -19941, 5306, 5415, 15, 14, 1529173435.339, 170, 0, 1024, 1024, 1024, 1024, 0, 6, 3969, 3954, 3951, 3948, 3986, 3973, 0, 1, 9300, -89.900, 0.000, -10.500, 0.000, 0.000, -2.900, 0.0, , , , , , 97, , , 19, 19, 19
37.3089503, -119.5776647, 12.200, 11:23:55.438, 15, 0.10, 0.29, 98, 0.400, -1.400, -11.900, 384, 100, 96, 25, 23771, -19941, 5306, 5415, 15, 14, 1529173435.439, 69, 0, 1024, 1024, 1024, 1024, 0, 6, 3969, 3954, 3951, 3948, 3986, 3973, 0, 1, 9400, -89.900, 0.000, -10.500, 0.100, 0.000, -2.900, 0.0, , , , , , 97, , , 19, 19, 19
37.3089504, -119.5776646, 12.500, 11:23:55.538, 15, 0.10, 0.28, 98, 0.500, -1.300, -11.900, 384, 100, 96, 25, 23771, -19941, 5306, 5415, 15, 14, 1529173435.539, 58, 0, 1024, 1024, 1024, 1024, 0, 6, 3969, 3954, 3951, 3948, 3986, 3973, 0, 1, 9500, -89.900, 0.000, -10.500, 0.100, 0.000, -3.000, 0.0, , , , , , 97, , , 19, 19, 19
37.3089504, -119.5776646, 12.900, 11:23:55.639, 15, 0.14, 0.28, 98, 0.300, -1.400, -11.700, 384, 100, 100, 25, 23771, -19941, 5306, 5415, 15, 14, 1529173435.639, 58, 0, 1024, 1024, 1024, 1024, 0, 6, 3969, 3954, 3951, 3948, 3986, 3973, 0, 1, 9600, -89.900, 0.000, -10.500, 0.100, -0.100, -3.000, 0.0, , , , , , 97, , , 19, 19, 19
37.3089504, -119.5776646, 13.200, 11:23:55.738, 15, 0.14, 0.28, 98, 0.300, -1.300, -11.500, 384, 100, 100, 25, 23771, -19941, 5306, 5415, 15, 14, 1529173435.739, 51, 0, 1024, 1024, 1024, 1024, 0, 6, 3969, 3954, 3951, 3948, 3986, 3973, 0, 1, 9700, -89.900, 0.000, -10.500, 0.100, -0.100, -3.000, 0.0, , , , , , 97, , , 19, 19, 19
37.3089505, -119.5776647, 13.500, 11:23:55.838, 15, 0.14, 0.27, 98, 0.700, -1.000, -11.400, 384, 100, 100, 25, 23771, -19941, 5306, 5415, 15, 14, 1529173435.839, 62, 0, 1024, 1024, 1024, 1024, 0, 6, 3969, 3954, 3951, 3948, 3986, 3973, 0, 1, 9800, -89.900, 0.000, -10.500, 0.100, -0.100, -3.000, 0.0, , , , , , 97, , , 19, 19, 19
37.3089506, -119.5776648, 13.800, 11:23:55.938, 15, 0.22, 0.26, 98, 0.900, -0.700, -11.400, 384, 100, 100, 25, 23771, -19941, 5306, 5415, 15, 14, 1529173435.939, 49, 0, 1024, 1024, 1024, 1024, 0, 6, 3969, 3954, 3951, 3948, 3986, 3973, 0, 1, 9900, -89.900, 0.000, -10.500, 0.200, -0.100, -2.900, 0.0, , , , , , 97, , , 19, 19, 19
37.3089507, -119.5776649, 14.100, 11:23:56.038, 15, 0.22, 0.25, 98, 1.200, -0.500, -11.500, 384, 100, 100, 25, 23771, -19941, 5306, 5415, 15, 14, 1529173436.039, 53, 0, 1024, 1024, 1024, 1024, 0, 6, 3969, 3954, 3951, 3948, 3986, 3973, 0, 1, 10000, -89.900, 0.000, -10.500, 0.200, -0.100, -2.900, 0.0, , , , , , 97, , , 19, 19, 19
37.3089508, -119.5776651, 14.400, 11:23:56.138, 15, 0.22, 0.25, 98, 1.500, -0.200, -11.700, 384, 100, 100, 25, 23771, -19941, 5306, 5415, 15, 14, 1529173436.139, 19, 0, 1024, 1024, 1024, 1024, 0, 6, 3969, 3954, 3951, 3948, 3986, 3973, 0, 1, 10100, -89.900, 0.000, -10.500, 0.200, -0.100, -2.900, 0.0, , , , , , 97, , , 19, 19, 19
37.3089509, -119.5776653, 14.700, 11:23:56.238, 15, 0.22, 0.25, 98, 1.700, 0.000, -11.800, 384, 100, 100, 25, 23771, -19941, 5306, 5415, 15, 14, 1529173436.239, 26, 0, 1024, 1024, 1024, 1024, 0, 6, 3969, 3954, 3951, 3948, 3986, 3973, 0, 1, 10200, -89.900, 0.000, -10.500, 0.200, -0.100, -2.900, 0.0, , , , , , 97, , , 19, 19, 19
37.3089510, -119.5776654, 15.000, 11:23:56.338, 15, 0.22, 0.24, 98, 2.000, 0.100, -11.900, 384, 100, 100, 25, 23771, -19941, 5306, 5415, 15, 14, 1529173436.339, 38, 0, 1024, 1024, 1024, 1024, 0, 6, 3969, 3954, 3951, 3948, 3986, 3973, 0, 1, 10300, -89.900, 0.000, -10.500, 0.200, -0.100, -2.800, 0.0, , , , , , 97, , , 19, 19, 19
37.3089510, -119.5776654, 15.000, 11:23:56.438, 15, 0.22, 0.24, 98, 2.000, 0.100, -11.900, 384, 100, 100, 25, 23771, -19941, 5306, 5415, 15, 14, 1529173436.439, 138, 0, 1024, 1024, 1024, 1024, 0, 6, 3969, 3954, 3951, 3948, 3986, 3973, 0, 1, 10400, -89.900, 0.000, -10.500, 0.200, -0.100, -2.800, 0.0, , , , , , 97, , , 19, 19, 19
37.3089512, -119.5776656, 15.600, 11:23:56.538, 15, 0.14, 0.23, 98, 2.200, 0.000, -12.100, 384, 100, 100, 25, 23875, -18884, 5306, 5415, 15, 14, 1529173436.539, 20, 0, 1024, 1024, 1024, 1024, 0, 6, 3983, 3973, 3966, 3964, 3996, 3981, 0, 1, 10500, -89.900, 0.000, -10.500, 0.100, -0.100, -2.800, 0.0, , , , , , 97, , , 19, 19, 19
37.3089516, -119.5776658, 16.200, 11:23:56.638, 15, 0.22, 0.22, 98, 1.400, 0.300, -11.900, 384, 100, 91, 25, 23875, -18884, 5306, 5415, 15, 14, 1529173436.639, 16, 0, 1024, 1024, 1024, 1024, 0, 6, 3983, 3973, 3966, 3964, 3996, 3981, 0, 1, 10600, -89.900, 0.000, -10.600, 0.200, -0.100, -2.700, 0.0, , , , , , 97, , , 19, 19, 19
37.3089516, -119.5776658, 16.200, 11:23:56.738, 15, 0.22, 0.22, 98, 1.400, 0.300, -11.900, 384, 100, 91, 25, 23875, -18884, 5306, 5415, 15, 14, 1529173436.739, 116, 0, 1024, 1024, 1024, 1024, 0, 6, 3983, 3973, 3966, 3964, 3996, 3981, 0, 1, 10700, -89.900, 0.000, -10.500, 0.200, -0.100, -2.700, 0.0, , , , , , 97, , , 19, 19, 19
37.3089516, -119.5776658, 16.200, 11:23:56.838, 15, 0.22, 0.22, 98, 1.400, 0.300, -11.900, 384, 100, 91, 25, 23875, -18884, 5306, 5415, 15, 14, 1529173436.839, 216, 0, 1024, 1024, 1024, 1024, 0, 6, 3983, 3973, 3966, 3964, 3996, 3981, 0, 1, 10800, -89.900, 0.000, -10.500, 0.200, -0.100, -2.700, 0.0, , , , , , 97, , , 19, 19, 19
37.3089520, -119.5776664, 17.000, 11:23:56.938, 15, 0.22, 0.23, 98, 1.400, 1.000, -11.700, 384, 100, 91, 25, 23875, -18884, 5306, 5415, 15, 14, 1529173436.939, 18, 0, 1024, 1024, 1024, 1024, 0, 6, 3983, 3973, 3966, 3964, 3996, 3981, 0, 1, 10900, -89.900, 0.000, -10.600, 0.200, -0.100, -2.800, 0.0, , , , , , 97, , , 19, 19, 19
37.3089522, -119.5776666, 17.300, 11:23:57.038, 15, 0.20, 0.24, 98, 1.600, 1.100, -11.700, 384, 100, 91, 25, 23916, -18465, 5306, 5415, 15, 14, 1529173437.039, 7, 0, 1024, 1024, 1024, 1024, 0, 6, 4002, 3980, 3973, 3985, 4010, 3992, 0, 1, 11000, -89.900, 0.000, -10.600, 0.200, 0.000, -2.800, 0.0, , , , , , 97, , , 19, 19, 19
37.3089522, -119.5776666, 17.300, 11:23:57.139, 15, 0.20, 0.24, 98, 1.600, 1.100, -11.700, 384, 100, 91, 25, 23916, -18465, 5306, 5415, 15, 14, 1529173437.139, 107, 0, 1024, 1024, 1024, 1024, 0, 6, 4002, 3980, 3973, 3985, 4010, 3992, 0, 1, 11100, -89.900, 0.000, -10.600, 0.200, 0.000, -2.800, 0.0, , , , , , 97, , , 19, 19, 19
37.3089524, -119.5776667, 17.600, 11:23:57.239, 15, 0.10, 0.24, 98, 1.400, 1.100, -11.700, 384, 100, 91, 25, 23916, -18465, 5306, 5415, 15, 14, 1529173437.239, 87, 0, 1024, 1024, 1024, 1024, 0, 6, 4002, 3980, 3973, 3985, 4010, 3992, 0, 1, 11200, -89.900, 0.000, -10.600, 0.100, 0.000, -2.800, 0.0, , , , , , 97, , , 19, 19, 19
37.3089525, -119.5776668, 17.900, 11:23:57.339, 15, 0.10, 0.25, 98, 1.300, 1.300, -11.700, 384, 100, 91, 25, 23916, -18465, 5306, 5415, 15, 14, 1529173437.339, 91, 0, 1024, 1024, 1024, 1024, 0, 6, 4002, 3980, 3973, 3985, 4010, 3992, 0, 1, 11300, -89.900, 0.000, -10.600, 0.100, 0.000, -2.900, 0.0, , , , , , 97, , , 19, 19, 19
37.3089527, -119.5776669, 18.200, 11:23:57.439, 15, 0.10, 0.25, 98, 1.200, 1.400, -11.600, 384, 100, 91, 25, 23916, -18465, 5306, 5415, 15, 14, 1529173437.439, 86, 0, 1024, 1024, 1024, 1024, 0, 6, 4002, 3980, 3973, 3985, 4010, 3992, 0, 1, 11400, -89.900, 0.000, -10.500, 0.100, 0.000, -2.900, 0.0, , , , , , 97, , , 19, 19, 19
37.3089529, -119.5776670, 18.500, 11:23:57.539, 15, 0.10, 0.27, 98, 1.300, 1.400, -11.500, 384, 100, 91, 25, 23916, -18465, 5306, 5415, 15, 14, 1529173437.539, 82, 0, 1024, 1024, 1024, 1024, 0, 6, 4002, 3980, 3973, 3985, 4010, 3992, 0, 1, 11501, -89.900, 0.000, -10.600, 0.100, 0.000, -3.000, 0.0, , , , , , 97, , , 19, 19, 19
37.3089530, -119.5776672, 18.800, 11:23:57.639, 15, 0.10, 0.28, 98, 1.600, 1.400, -11.200, 384, 100, 93, 25, 23916, -18465, 5306, 5415, 15, 14, 1529173437.639, 75, 0, 1024, 1024, 1024, 1024, 0, 6, 4002, 3980, 3973, 3985, 4010, 3992, 0, 1, 11601, -89.900, 0.000, -10.600, 0.100, 0.000, -3.000, 0.0, , , , , , 97, , , 19, 19, 19
37.3089532, -119.5776673, 19.100, 11:23:57.739, 15, 0.10, 0.30, 98, 2.000, 1.400, -11.000, 384, 100, 93, 25, 23916, -18465, 5306, 5415, 15, 14, 1529173437.739, 64, 0, 1024, 1024, 1024, 1024, 0, 6, 4002, 3980, 3973, 3985, 4010, 3992, 0, 1, 11701, -89.900, 0.000, -10.600, 0.100, 0.000, -3.000, 0.0, , , , , , 97, , , 19, 19, 19
37.3089533, -119.5776674, 19.400, 11:23:57.839, 15, 0.10, 0.31, 98, 2.100, 1.500, -10.900, 384, 100, 93, 25, 23916, -18465, 5306, 5415, 15, 14, 1529173437.839, 68, 0, 1024, 1024, 1024, 1024, 0, 6, 4002, 3980, 3973, 3985, 4010, 3992, 0, 1, 11801, -89.900, 0.000, -10.600, 0.100, 0.000, -3.000, 0.0, , , , , , 97, , , 19, 19, 19
37.3089533, -119.5776675, 19.700, 11:23:57.939, 15, 0.00, 0.32, 98, 2.100, 1.500, -10.900, 384, 100, 93, 25, 23916, -18465, 5306, 5415, 15, 14, 1529173437.940, 58, 0, 1024, 1024, 1024, 1024, 0, 6, 4002, 3980, 3973, 3985, 4010, 3992, 0, 1, 11901, -89.900, 0.000, -10.600, 0.000, 0.000, -3.000, 0.0, , , , , , 97, , , 19, 19, 19
37.3089533, -119.5776675, 19.700, 11:23:58.039, 15, 0.00, 0.32, 98, 2.100, 1.500, -10.900, 384, 100, 93, 25, 23916, -18465, 5306, 5415, 15, 14, 1529173438.039, 157, 0, 1024, 1024, 1024, 1024, 0, 6, 4002, 3980, 3973, 3985, 4010, 3992, 0, 1, 12000, -89.900, 0.000, -10.600, 0.000, 0.000, -3.000, 0.0, , , , , , 97, , , 19, 19, 19
37.3089534, -119.5776676, 20.000, 11:23:58.140, 15, 0.00, 0.32, 98, 1.900, 1.400, -11.000, 384, 100, 93, 25, 23821, -18634, 5252, 5415, 15, 14, 1529173438.140, 63, 0, 1024, 1024, 1024, 1024, 0, 6, 3972, 3953, 3948, 3953, 3996, 3965, 0, 1, 12101, -89.900, 0.000, -10.600, 0.000, 0.000, -2.900, 0.0, , , , , , 97, , , 19, 19, 19
37.3089536, -119.5776677, 20.600, 11:23:58.240, 15, 0.00, 0.33, 98, 1.300, 1.100, -11.300, 384, 100, 99, 25, 23821, -18634, 5252, 5415, 15, 14, 1529173438.241, 3, 0, 1024, 1024, 1024, 1024, 0, 6, 3972, 3953, 3948, 3953, 3996, 3965, 0, 1, 12202, -89.900, 0.000, -10.600, 0.000, 0.000, -2.900, 0.0, , , , , , 97, , , 19, 19, 19
37.3089536, -119.5776677, 20.900, 11:23:58.340, 15, 0.00, 0.34, 98, 1.100, 1.000, -11.500, 384, 100, 99, 25, 23821, -18634, 5252, 5415, 15, 14, 1529173438.340, 41, 0, 1024, 1024, 1024, 1024, 0, 6, 3972, 3953, 3948, 3953, 3996, 3965, 0, 1, 12302, -89.900, 0.000, -10.600, 0.000, 0.000, -2.900, 0.0, , , , , , 97, , , 19, 19, 19
37.3089536, -119.5776677, 21.200, 11:23:58.440, 15, 0.00, 0.34, 98, 1.000, 0.900, -11.700, 384, 100, 99, 25, 23821, -18634, 5252, 5415, 15, 14, 1529173438.440, 7, 0, 1024, 1024, 1024, 1024, 0, 6, 3972, 3953, 3948, 3953, 3996, 3965, 0, 1, 12402, -89.900, 0.000, -10.600, 0.000, 0.000, -3.000, 0.0, , , , , , 97, , , 19, 19, 19
37.3089537, -119.5776677, 21.500, 11:23:58.540, 15, 0.00, 0.34, 97, 1.000, 0.800, -11.800, 384, 100, 99, 25, 23821, -18634, 5252, 5415, 15, 14, 1529173438.540, 20, 0, 1024, 1024, 1024, 1024, 0, 6, 3972, 3953, 3948, 3953, 3996, 3965, 0, 1, 12502, -89.900, 0.000, -10.600, 0.000, 0.000, -3.000, 0.0, , , , , , 97, , , 19, 19, 19
37.3089537, -119.5776677, 21.800, 11:23:58.640, 15, 0.00, 0.34, 97, 0.900, 0.800, -11.800, 384, 100, 97, 25, 23821, -18634, 5252, 5415, 15, 14, 1529173438.640, 36, 0, 1024, 1024, 1024, 1024, 0, 6, 3972, 3953, 3948, 3953, 3996, 3965, 0, 1, 12602, -89.900, 0.000, -10.600, 0.000, 0.000, -2.900, 0.0, , , , , , 97, , , 19, 19, 19
37.3089538, -119.5776677, 22.100, 11:23:58.740, 15, 0.00, 0.35, 97, 0.600, 0.900, -11.700, 384, 100, 97, 25, 23821, -18634, 5252, 5415, 15, 14, 1529173438.740, 25, 0, 1024, 1024, 1024, 1024, 0, 6, 3972, 3953, 3948, 3953, 3996, 3965, 0, 1, 12702, -89.900, 0.000, -10.600, 0.000, 0.000, -2.900, 0.0, , , , , , 97, , , 19, 19, 19
37.3089538, -119.5776678, 22.400, 11:23:58.841, 16, 0.00, 0.35, 97, 0.500, 0.900, -11.500, 384, 100, 97, 25, 23821, -18634, 5252, 5415, 15, 14, 1529173438.841, 5, 0, 1024, 1024, 1024, 1024, 0, 6, 3972, 3953, 3948, 3953, 3996, 3965, 0, 1, 12803, -89.900, 0.000, -10.600, 0.000, 0.000, -2.900, 0.0, , , , , , 97, , , 19, 19, 19
37.3089538, -119.5776678, 22.400, 11:23:58.940, 16, 0.00, 0.35, 97, 0.500, 0.900, -11.500, 384, 100, 97, 25, 23821, -18634, 5252, 5415, 15, 14, 1529173438.941, 104, 0, 1024, 1024, 1024, 1024, 0, 6, 3972, 3953, 3948, 3953, 3996, 3965, 0, 1, 12902, -89.900, 0.000, -10.600, 0.000, 0.000, -2.900, 0.0, , , , , , 97, , , 19, 19, 19
37.3089539, -119.5776678, 23.000, 11:23:59.041, 16, 0.00, 0.36, 97, 0.200, 1.200, -11.500, 384, 100, 97, 25, 23821, -18634, 5252, 5415, 15, 14, 1529173439.041, 82, 0, 1024, 1024, 1024, 1024, 0, 6, 3972, 3953, 3948, 3953, 3996, 3965, 0, 1, 13002, -89.900, 0.000, -10.600, 0.000, 0.000, -2.900, 0.0, , , , , , 97, , , 19, 19, 19
37.3089539, -119.5776678, 23.300, 11:23:59.141, 16, 0.00, 0.36, 97, 0.500, 1.100, -11.500, 384, 100, 97, 25, 23879, -17794, 5252, 5415, 15, 14, 1529173439.141, 95, 0, 1024, 1024, 1024, 1024, 0, 6, 3972, 3953, 3948, 3953, 3996, 3965, 0, 1, 13102, -89.900, 0.000, -10.600, 0.000, 0.000, -2.900, 0.0, , , , , , 97, , , 19, 19, 19
37.3089540, -119.5776679, 23.600, 11:23:59.240, 16, 0.00, 0.36, 97, 0.600, 1.200, -11.500, 384, 100, 97, 25, 23879, -17794, 5252, 5415, 15, 14, 1529173439.241, 95, 0, 1024, 1024, 1024, 1024, 0, 6, 3972, 3953, 3948, 3953, 3996, 3965, 0, 1, 13202, -89.900, 0.000, -10.600, 0.000, 0.000, -2.900, 0.0, , , , , , 97, , , 19, 19, 19
37.3089540, -119.5776680, 24.200, 11:23:59.343, 16, 0.00, 0.37, 97, 0.900, 1.400, -11.400, 384, 100, 97, 25, 23879, -17794, 5252, 5415, 15, 14, 1529173439.344, 2, 0, 1024, 1024, 1024, 1024, 0, 6, 3972, 3953, 3948, 3953, 3996, 3965, 0, 1, 13305, -89.900, 0.000, -10.600, 0.000, 0.000, -2.900, 0.0, , , , , , 97, , , 19, 19, 19
37.3089540, -119.5776680, 24.200, 11:23:59.441, 16, 0.00, 0.37, 97, 0.900, 1.400, -11.400, 384, 100, 97, 25, 23879, -17794, 5252, 5415, 15, 14, 1529173439.441, 100, 0, 1024, 1024, 1024, 1024, 0, 6, 3972, 3953, 3948, 3953, 3996, 3965, 0, 1, 13403, -89.900, 0.000, -10.600, 0.000, 0.000, -2.900, 0.0, , , , , , 97, , , 19, 19, 19
37.3089540, -119.5776680, 24.500, 11:23:59.541, 16, 0.00, 0.38, 97, 1.100, 1.800, -11.300, 384, 100, 97, 25, 23879, -17794, 5252, 5415, 15, 14, 1529173439.541, 88, 0, 1024, 1024, 1024, 1024, 0, 6, 3990, 3962, 3962, 3964, 3997, 3984, 0, 1, 13503, -89.900, 0.000, -10.600, 0.000, 0.000, -2.900, 0.0, , , , , , 97, , , 19, 19, 19
37.3089540, -119.5776680, 24.800, 11:23:59.641, 16, 0.00, 0.38, 97, 0.800, 2.100, -11.400, 384, 100, 96, 25, 23879, -17794, 5252, 5415, 15, 14, 1529173439.642, 81, 0, 1024, 1024, 1024, 1024, 0, 6, 3990, 3962, 3962, 3964, 3997, 3984, 0, 1, 13603, -89.900, 0.000, -10.600, 0.000, 0.000, -2.900, 0.0, , , , , , 97, , , 19, 19, 19
37.3089540, -119.5776680, 25.100, 11:23:59.741, 16, 0.00, 0.38, 97, 0.700, 1.900, -11.600, 384, 100, 96, 25, 23879, -17794, 5252, 5415, 15, 14, 1529173439.741, 80, 0, 1024, 1024, 1024, 1024, 0, 6, 3990, 3962, 3962, 3964, 3997, 3984, 0, 1, 13702, -89.900, 0.000, -10.600, 0.000, 0.000, -2.900, 0.0, , , , , , 97, , , 19, 19, 19
37.3089540, -119.5776680, 25.400, 11:23:59.842, 16, 0.00, 0.38, 97, 0.800, 1.400, -11.600, 384, 100, 96, 25, 23879, -17794, 5252, 5415, 15, 14, 1529173439.842, 94, 0, 1024, 1024, 1024, 1024, 0, 6, 3990, 3962, 3962, 3964, 3997, 3984, 0, 1, 13804, -89.900, 0.000, -10.600, 0.000, 0.000, -3.000, 0.0, , , , , , 97, , , 19, 19, 19
37.3089540, -119.5776680, 25.700, 11:23:59.942, 16, 0.00, 0.37, 97, 0.700, 0.800, -11.500, 384, 100, 96, 25, 23879, -17794, 5252, 5415, 15, 14, 1529173439.942, 70, 0, 1024, 1024, 1024, 1024, 0, 6, 3990, 3962, 3962, 3964, 3997, 3984, 0, 1, 13904, -89.900, 0.000, -10.600, 0.000, 0.000, -3.000, 0.0, , , , , , 97, , , 19, 19, 19
37.3089539, -119.5776680, 26.000, 11:24:00.042, 16, 0.00, 0.37, 97, 0.600, 0.500, -11.400, 384, 100, 96, 25, 23879, -17794, 5252, 5415, 15, 14, 1529173440.042, 84, 0, 1024, 1024, 1024, 1024, 0, 6, 3990, 3962, 3962, 3964, 3997, 3984, 0, 1, 14004, -89.900, 0.000, -10.600, 0.000, 0.000, -2.900, 0.0, , , , , , 97, , , 19, 19, 19
37.3089538, -119.5776680, 26.300, 11:24:00.142, 16, 0.00, 0.37, 97, 0.600, 0.300, -11.400, 384, 100, 99, 25, 23879, -17794, 5252, 5415, 15, 14, 1529173440.142, 72, 0, 1024, 1024, 1024, 1024, 0, 6, 3990, 3962, 3962, 3964, 3997, 3984, 0, 1, 14104, -89.900, 0.000, -10.600, 0.000, 0.000, -2.900, 0.0, , , , , , 97, , , 19, 19, 19
37.3089538, -119.5776680, 26.600, 11:24:00.242, 16, 0.00, 0.37, 97, 0.800, 0.200, -11.400, 384, 100, 99, 25, 23879, -17794, 5252, 5415, 15, 14, 1529173440.242, 72, 0, 1024, 1024, 1024, 1024, 0, 6, 3990, 3962, 3962, 3964, 3997, 3984, 0, 1, 14204, -89.900, 0.000, -10.600, 0.000, 0.000, -2.900, 0.0, , , , , , 97, , , 19, 19, 19
37.3089537, -119.5776680, 26.900, 11:24:00.342, 16, 0.00, 0.37, 97, 1.000, 0.100, -11.600, 384, 100, 99, 25, 23879, -17794, 5252, 5415, 15, 14, 1529173440.343, 76, 0, 1024, 1024, 1024, 1024, 0, 6, 3990, 3962, 3962, 3964, 3997, 3984, 0, 1, 14304, -89.900, 0.000, -10.600, 0.000, 0.000, -2.900, 0.0, , , , , , 97, , , 19, 19, 19
37.3089537, -119.5776680, 27.200, 11:24:00.442, 16, 0.00, 0.37, 97, 0.900, 0.400, -11.700, 384, 100, 99, 25, 23879, -17794, 5252, 5415, 15, 14, 1529173440.443, 67, 0, 1024, 1024, 1024, 1024, 0, 6, 3990, 3962, 3962, 3964, 3997, 3984, 0, 1, 14404, -89.900, 0.000, -10.600, 0.000, 0.000, -2.900, 0.0, , , , , , 97, , , 19, 19, 19
37.3089537, -119.5776680, 27.200, 11:24:00.542, 16, 0.00, 0.37, 97, 0.900, 0.400, -11.700, 384, 100, 99, 25, 23840, -17911, 5252, 5415, 15, 14, 1529173440.543, 167, 0, 1024, 1024, 1024, 1024, 0, 6, 3990, 3962, 3962, 3964, 3997, 3984, 0, 1, 14504, -89.900, 0.000, -10.600, 0.000, 0.000, -2.900, 0.0, , , , , , 97, , , 19, 19, 19
37.3089538, -119.5776680, 27.800, 11:24:00.642, 16, 0.00, 0.37, 97, 0.600, 1.600, -11.900, 384, 100, 98, 25, 23840, -17911, 5252, 5415, 15, 14, 1529173440.643, 60, 0, 1024, 1024, 1024, 1024, 0, 6, 3982, 3959, 3956, 3961, 3988, 3976, 0, 1, 14604, -89.900, 0.000, -10.600, 0.000, 0.000, -2.900, 0.0, , , , , , 97, , , 19, 19, 19
37.3089538, -119.5776680, 27.800, 11:24:00.742, 16, 0.00, 0.37, 97, 0.600, 1.600, -11.900, 384, 100, 98, 25, 23840, -17911, 5252, 5415, 15, 14, 1529173440.743, 160, 0, 1024, 1024, 1024, 1024, 0, 6, 3982, 3959, 3956, 3961, 3988, 3976, 0, 1, 14704, -89.900, 0.000, -10.600, 0.000, 0.000, -2.900, 0.0, , , , , , 97, , , 19, 19, 19
37.3089538, -119.5776680, 28.300, 11:24:00.843, 16, 0.00, 0.36, 97, 0.600, 2.000, -11.800, 384, 100, 98, 25, 23840, -17911, 5252, 5415, 15, 14, 1529173440.843, 41, 0, 1024, 1024, 1024, 1024, 0, 6, 3982, 3959, 3956, 3961, 3988, 3976, 0, 1, 14804, -89.900, 0.000, -10.600, 0.000, 0.000, -2.900, 0.0, , , , , , 97, , , 19, 19, 19
37.3089538, -119.5776679, 28.600, 11:24:00.943, 16, 0.00, 0.36, 97, 0.500, 2.000, -11.600, 384, 100, 98, 25, 23840, -17911, 5252, 5415, 15, 14, 1529173440.943, 58, 0, 1024, 1024, 1024, 1024, 0, 6, 3982, 3959, 3956, 3961, 3988, 3976, 0, 1, 14904, -89.900, 0.000, -10.600, 0.000, 0.000, -2.900, 0.0, , , , , , 97, , , 19, 19, 19
37.3089538, -119.5776679, 28.600, 11:24:01.043, 16, 0.00, 0.36, 97, 0.500, 2.000, -11.600, 384, 100, 98, 25, 23840, -17911, 5252, 5415, 15, 14, 1529173441.043, 158, 0, 1024, 1024, 1024, 1024, 0, 6, 3982, 3959, 3956, 3961, 3988, 3976, 0, 1, 15004, -89.900, 0.000, -10.600, 0.000, 0.000, -2.900, 0.0, , , , , , 97, , , 19, 19, 19
37.3089537, -119.5776678, 29.200, 11:24:01.143, 16, 0.00, 0.35, 97, 0.400, 1.700, -11.400, 384, 100, 98, 25, 23840, -17911, 5252, 5415, 15, 14, 1529173441.143, 28, 0, 1024, 1024, 1024, 1024, 0, 6, 3982, 3959, 3956, 3961, 3988, 3976, 0, 1, 15105, -89.900, 0.000, -10.600, 0.000, 0.000, -2.900, 0.0, , , , , , 97, , , 19, 19, 19
37.3089536, -119.5776678, 29.500, 11:24:01.243, 16, 0.00, 0.34, 97, 0.400, 1.100, -11.300, 384, 100, 98, 25, 23840, -17911, 5252, 5415, 15, 14, 1529173441.243, 20, 0, 1024, 1024, 1024, 1024, 0, 6, 3982, 3959, 3956, 3961, 3988, 3976, 0, 1, 15205, -89.900, 0.000, -10.600, 0.000, 0.000, -3.000, 0.0, , , , , , 97, , , 19, 19, 19
37.3089536, -119.5776677, 29.800, 11:24:01.343, 16, 0.00, 0.33, 97, 0.300, 0.700, -11.200, 384, 100, 98, 25, 23840, -17911, 5252, 5415, 15, 14, 1529173441.344, 8, 0, 1024, 1024, 1024, 1024, 0, 6, 3982, 3959, 3956, 3961, 3988, 3976, 0, 1, 15305, -89.900, 0.000, -10.600, 0.000, 0.000, -3.000, 0.0, , , , , , 97, , , 19, 19, 19
37.3089535, -119.5776676, 30.100, 11:24:01.443, 16, 0.00, 0.33, 97, 0.100, 0.700, -11.100, 384, 100, 98, 25, 23840, -17911, 5252, 5415, 15, 14, 1529173441.443, 21, 0, 1024, 1024, 1024, 1024, 0, 6, 3982, 3959, 3956, 3961, 3988, 3976, 0, 1, 15405, -89.900, 0.000, -10.600, 0.000, 0.000, -3.000, 0.0, , , , , , 97, , , 19, 19, 19
37.3089534, -119.5776676, 30.500, 11:24:01.543, 16, 0.00, 0.32, 97, 0.000, 0.700, -11.000, 384, 100, 98, 25, 23840, -17911, 5252, 5415, 15, 14, 1529173441.544, 12, 0, 1024, 1024, 1024, 1024, 0, 6, 3982, 3959, 3956, 3961, 3988, 3976, 0, 1, 15505, -89.900, 0.000, -10.600, 0.000, 0.000, -3.000, 0.0, , , , , , 97, , , 19, 19, 19
37.3089533, -119.5776675, 31.100, 11:24:01.643, 16, 0.00, 0.31, 97, 0.000, 0.800, -11.300, 384, 100, 98, 25, 23840, -17911, 5252, 5415, 15, 14, 1529173441.644, 26, 0, 1024, 1024, 1024, 1024, 0, 6, 3982, 3959, 3956, 3961, 3988, 3976, 0, 1, 15605, -89.900, 0.000, -10.600, 0.000, 0.000, -3.000, 0.0, , , , , , 97, , , 19, 19, 19
37.3089533, -119.5776675, 31.400, 11:24:01.743, 16, 0.00, 0.31, 97, 0.200, 0.600, -11.400, 384, 100, 98, 25, 23840, -17911, 5252, 5415, 15, 14, 1529173441.744, 4, 0, 1024, 1024, 1024, 1024, 0, 6, 3982, 3959, 3956, 3961, 3988, 3976, 0, 1, 15705, -89.900, 0.000, -10.600, 0.000, 0.000, -3.000, 0.0, , , , , , 97, , , 19, 19, 19
37.3089532, -119.5776674, 31.700, 11:24:01.842, 16, 0.00, 0.31, 97, 0.300, 0.500, -11.500, 384, 100, 98, 25, 23840, -17911, 5252, 5415, 15, 14, 1529173441.843, 6, 0, 1024, 1024, 1024, 1024, 0, 6, 3982, 3959, 3956, 3961, 3988, 3976, 0, 1, 15804, -90.000, 0.000, -10.600, 0.000, 0.000, -2.900, 0.0, , , , , , 97, , , 19, 19, 19
37.3089532, -119.5776674, 31.700, 11:24:01.944, 16, 0.00, 0.31, 97, 0.300, 0.500, -11.500, 384, 100, 98, 25, 23840, -17911, 5252, 5415, 15, 14, 1529173441.944, 107, 0, 1024, 1024, 1024, 1024, 0, 6, 3982, 3959, 3956, 3961, 3988, 3976, 0, 1, 15905, -90.000, 0.000, -10.600, 0.000, 0.000, -2.900, 0.0, , , , , , 97, , , 19, 19, 19
37.3089532, -119.5776674, 32.100, 11:24:02.044, 16, 0.00, 0.30, 97, 0.200, 0.500, -11.600, 384, 100, 98, 25, 23840, -17911, 5252, 5415, 15, 14, 1529173442.044, 96, 0, 1024, 1024, 1024, 1024, 0, 6, 3982, 3959, 3956, 3961, 3988, 3976, 0, 1, 16006, -89.900, 0.000, -10.600, 0.000, 0.000, -2.900, 0.0, , , , , , 97, , , 19, 19, 19
37.3089531, -119.5776673, 32.400, 11:24:02.144, 16, 0.00, 0.30, 97, 0.300, 0.400, -11.700, 384, 100, 98, 25, 23798, -18162, 5252, 5415, 15, 14, 1529173442.144, 97, 0, 1024, 1024, 1024, 1024, 0, 6, 3983, 3959, 3956, 3961, 3988, 3976, 0, 1, 16106, -90.000, 0.000, -10.600, 0.000, 0.000, -2.900, 0.0, , , , , , 97, , , 19, 19, 19
37.3089531, -119.5776673, 32.700, 11:24:02.244, 16, 0.00, 0.29, 97, 0.200, 0.100, -11.700, 384, 100, 99, 25, 23798, -18162, 5252, 5415, 15, 14, 1529173442.244, 75, 0, 1024, 1024, 1024, 1024, 0, 6, 3983, 3959, 3956, 3961, 3988, 3976, 0, 1, 16206, -90.000, 0.000, -10.600, 0.000, 0.000, -2.900, 0.0, , , , , , 97, , , 19, 19, 19
37.3089531, -119.5776673, 32.700, 11:24:02.344, 16, 0.00, 0.29, 97, 0.200, 0.100, -11.700, 384, 100, 99, 25, 23798, -18162, 5252, 5415, 15, 14, 1529173442.344, 175, 0, 1024, 1024, 1024, 1024, 0, 6, 3983, 3959, 3956, 3961, 3988, 3976, 0, 1, 16306, -90.000, 0.000, -10.600, 0.000, 0.000, -2.900, 0.0, , , , , , 97, , , 19, 19, 19
37.3089530, -119.5776672, 33.300, 11:24:02.444, 16, 0.00, 0.28, 97, 0.300, -0.300, -11.400, 384, 100, 99, 25, 23798, -18162, 5252, 5415, 15, 14, 1529173442.444, 90, 0, 1024, 1024, 1024, 1024, 0, 6, 3983, 3959, 3956, 3961, 3988, 3976, 0, 1, 16406, -89.900, 0.000, -10.600, 0.000, 0.000, -2.800, 0.0, , , , , , 97, , , 19, 19, 19
37.3089529, -119.5776672, 33.600, 11:24:02.544, 16, 0.00, 0.28, 97, 0.000, -0.300, -11.100, 384, 100, 99, 25, 23795, -17709, 5252, 5415, 15, 14, 1529173442.545, 91, 0, 1024, 1024, 1024, 1024, 0, 6, 3982, 3962, 3954, 3960, 3995, 3976, 0, 1, 16506, -90.000, 0.000, -10.600, 0.000, 0.000, -2.800, 0.0, , , , , , 97, , , 19, 19, 19
37.3089529, -119.5776671, 33.900, 11:24:02.644, 16, 0.00, 0.28, 97, 0.000, -0.100, -10.800, 384, 100, 99, 25, 23795, -17709, 5252, 5415, 15, 14, 1529173442.644, 83, 0, 1024, 1024, 1024, 1024, 0, 6, 3982, 3962, 3954, 3960, 3995, 3976, 0, 1, 16606, -90.000, 0.000, -10.600, 0.000, 0.000, -2.800, 0.0, , , , , , 97, , , 19, 19, 19
37.3089529, -119.5776671, 34.200, 11:24:02.744, 16, 0.00, 0.28, 97, 0.000, 0.100, -10.800, 384, 100, 99, 25, 23795, -17709, 5252, 5415, 15, 14, 1529173442.744, 69, 0, 1024, 1024, 1024, 1024, 0, 6, 3982, 3962, 3954, 3960, 3995, 3976, 0, 1, 16706, -89.900, 0.000, -10.600, 0.000, 0.000, -2.800, 0.0, , , , , , 97, , , 19, 19, 19
37.3089529, -119.5776671, 34.500, 11:24:02.844, 16, 0.00, 0.28, 97, 0.300, 0.600, -10.800, 384, 100, 99, 25, 23795, -17709, 5252, 5415, 15, 14, 1529173442.845, 86, 0, 1024, 1024, 1024, 1024, 0, 6, 3982, 3962, 3954, 3960, 3995, 3976, 0, 1, 16806, -89.900, 0.000, -10.600, 0.000, 0.000, -2.900, 0.0, , , , , , 97, , , 19, 19, 19
37.3089530, -119.5776671, 34.800, 11:24:02.944, 16, 0.00, 0.28, 97, 0.700, 1.100, -10.900, 384, 100, 99, 25, 23795, -17709, 5252, 5415, 15, 14, 1529173442.944, 50, 0, 1024, 1024, 1024, 1024, 0, 6, 3982, 3962, 3954, 3960, 3995, 3976, 0, 1, 16906, -89.900, 0.000, -10.600, 0.000, 0.000, -2.800, 0.0, , , , , , 97, , , 19, 19, 19
37.3089530, -119.5776672, 35.000, 11:24:03.045, 16, 0.00, 0.28, 97, 1.000, 1.200, -11.000, 384, 100, 99, 25, 23795, -17709, 5252, 5415, 15, 14, 1529173443.045, 30, 0, 1024, 1024, 1024, 1024, 0, 6, 3982, 3962, 3954, 3960, 3995, 3976, 0, 1, 17006, -89.900, 0.000, -10.600, 0.000, 0.000, -2.800, 0.0, , , , , , 97, , , 19, 19, 19
37.3089530, -119.5776672, 35.300, 11:24:03.144, 16, 0.00, 0.28, 97, 1.000, 1.000, -11.100, 384, 100, 97, 25, 23795, -17709, 5252, 5415, 15, 14, 1529173443.144, 69, 0, 1024, 1024, 1024, 1024, 0, 6, 3982, 3962, 3954, 3960, 3995, 3976, 0, 1, 17105, -89.900, 0.000, -10.600, 0.000, 0.000, -2.800, 0.0, , , , , , 97, , , 19, 19, 19
37.3089530, -119.5776672, 35.600, 11:24:03.245, 16, 0.00, 0.28, 97, 0.800, 1.100, -11.100, 384, 100, 97, 25, 23795, -17709, 5252, 5415, 15, 14, 1529173443.245, 76, 0, 1024, 1024, 1024, 1024, 0, 6, 3982, 3962, 3954, 3960, 3995, 3976, 0, 1, 17207, -89.900, 0.000, -10.600, 0.000, 0.000, -2.800, 0.0, , , , , , 97, , , 19, 19, 19
37.3089530, -119.5776673, 35.900, 11:24:03.345, 16, 0.00, 0.29, 97, 1.100, 1.400, -11.200, 384, 100, 97, 25, 23795, -17709, 5252, 5415, 15, 14, 1529173443.345, 34, 0, 1024, 1024, 1024, 1024, 0, 6, 3982, 3962, 3954, 3960, 3995, 3976, 0, 1, 17307, -89.900, 0.000, -10.600, 0.000, 0.000, -2.800, 0.0, , , , , , 97, , , 19, 19, 19
37.3089530, -119.5776673, 36.200, 11:24:03.445, 16, 0.00, 0.29, 97, 1.200, 1.200, -11.400, 384, 100, 97, 25, 23795, -17709, 5252, 5415, 15, 14, 1529173443.445, 46, 0, 1024, 1024, 1024, 1024, 0, 6, 3982, 3962, 3954, 3960, 3995, 3976, 0, 1, 17407, -89.900, 0.000, -10.600, 0.000, 0.000, -2.800, 0.0, , , , , , 97, , , 19, 19, 19
37.3089531, -119.5776673, 36.400, 11:24:03.545, 16, 0.00, 0.29, 97, 1.200, 0.700, -11.600, 384, 100, 97, 25, 23857, -16876, 5252, 5415, 15, 14, 1529173443.545, 57, 0, 1024, 1024, 1024, 1024, 0, 6, 3987, 3967, 3957, 3961, 3990, 3984, 0, 1, 17507, -89.900, 0.000, -10.600, 0.000, 0.000, -2.800, 0.0, , , , , , 97, , , 19, 19, 19
37.3089531, -119.5776673, 36.700, 11:24:03.645, 16, 0.00, 0.30, 97, 1.300, 0.700, -11.800, 384, 100, 97, 25, 23857, -16876, 5252, 5415, 15, 14, 1529173443.645, 49, 0, 1024, 1024, 1024, 1024, 0, 6, 3987, 3967, 3957, 3961, 3990, 3984, 0, 1, 17607, -89.900, 0.000, -10.600, 0.000, 0.000, -2.800, 0.0, , , , , , 97, , , 19, 19, 19
37.3089531, -119.5776674, 37.000, 11:24:03.744, 16, 0.00, 0.30, 97, 1.400, 1.600, -12.100, 384, 100, 97, 25, 23857, -16876, 5252, 5415, 15, 14, 1529173443.745, 37, 0, 1024, 1024, 1024, 1024, 0, 6, 3987, 3967, 3957, 3961, 3990, 3984, 0, 1, 17706, -89.900, 0.000, -10.600, 0.000, 0.000, -2.900, 0.0, , , , , , 97, , , 19, 19, 19
37.3089531, -119.5776674, 37.300, 11:24:03.845, 16, 0.00, 0.30, 97, 1.600, 1.800, -12.400, 384, 100, 97, 25, 23857, -16876, 5252, 5415, 15, 14, 1529173443.846, 40, 0, 1024, 1024, 1024, 1024, 0, 6, 3987, 3967, 3957, 3961, 3990, 3984, 0, 1, 17807, -89.900, 0.000, -10.600, 0.000, 0.000, -2.900, 0.0, , , , , , 97, , , 19, 19, 19
37.3089531, -119.5776673, 37.600, 11:24:03.945, 16, 0.10, 0.30, 97, 1.400, 1.500, -12.500, 384, 100, 97, 25, 23857, -16876, 5252, 5415, 15, 14, 1529173443.946, 43, 0, 1024, 1024, 1024, 1024, 0, 6, 3987, 3967, 3957, 3961, 3990, 3984, 0, 1, 17907, -89.900, 0.000, -10.600, 0.100, 0.000, -2.900, 0.0, , , , , , 97, , , 19, 19, 19
37.3089532, -119.5776673, 37.900, 11:24:04.045, 16, 0.10, 0.30, 97, 1.000, 1.400, -12.400, 384, 100, 97, 25, 23857, -16876, 5252, 5415, 15, 14, 1529173444.045, 44, 0, 1024, 1024, 1024, 1024, 0, 6, 3987, 3967, 3957, 3961, 3990, 3984, 0, 1, 18006, -89.900, 0.000, -10.600, 0.100, 0.000, -2.900, 0.0, , , , , , 97, , , 19, 19, 19
37.3089532, -119.5776673, 38.200, 11:24:04.145, 16, 0.10, 0.30, 97, 0.400, 1.400, -12.200, 384, 100, 98, 25, 23857, -16876, 5252, 5415, 15, 14, 1529173444.146, 40, 0, 1024, 1024, 1024, 1024, 0, 6, 3987, 3967, 3957, 3961, 3990, 3984, 0, 1, 18107, -89.900, 0.000, -10.600, 0.100, 0.000, -2.900, 0.0, , , , , , 97, , , 19, 19, 19
37.3089533, -119.5776673, 38.500, 11:24:04.245, 16, 0.10, 0.30, 97, 0.000, 1.500, -11.900, 384, 100, 98, 25, 23857, -16876, 5252, 5415, 15, 14, 1529173444.245, 42, 0, 1024, 1024, 1024, 1024, 0, 6, 3987, 3967, 3957, 3961, 3990, 3984, 0, 1, 18207, -89.900, 0.000, -10.600, 0.100, 0.000, -2.900, 0.0, , , , , , 97, , , 19, 19, 19
37.3089534, -119.5776673, 38.800, 11:24:04.346, 16, 0.10, 0.30, 97, 0.300, 1.900, -11.600, 384, 100, 98, 25, 23857, -16876, 5252, 5415, 15, 14, 1529173444.346, 29, 0, 1024, 1024, 1024, 1024, 0, 6, 3987, 3967, 3957, 3961, 3990, 3984, 0, 1, 18308, -89.900, 0.000, -10.600, 0.100, 0.000, -3.000, 0.0, , , , , , 97, , , 19, 19, 19
37.3089535, -119.5776673, 39.100, 11:24:04.446, 16, 0.10, 0.30, 97, 0.700, 2.500, -11.300, 384, 100, 98, 25, 23857, -16876, 5252, 5415, 15, 14, 1529173444.446, 33, 0, 1024, 1024, 1024, 1024, 0, 6, 3987, 3967, 3957, 3961, 3990, 3984, 0, 1, 18408, -89.900, 0.000, -10.600, 0.100, 0.000, -3.100, 0.0, , , , , , 97, , , 19, 19, 19
37.3089536, -119.5776674, 39.400, 11:24:04.546, 16, 0.10, 0.31, 97, 0.900, 3.000, -11.100, 384, 100, 98, 26, 23729, -18218, 5252, 5415, 15, 14, 1529173444.546, 37, 0, 1024, 1024, 1024, 1024, 0, 6, 3952, 3934, 3933, 3944, 3974, 3947, 0, 1, 18508, -89.900, 0.000, -10.600, 0.100, 0.000, -3.100, 0.0, , , , , , 97, , , 19, 19, 19
37.3089536, -119.5776674, 39.700, 11:24:04.645, 16, 0.10, 0.32, 97, 1.100, 3.200, -11.000, 384, 100, 98, 26, 23729, -18218, 5252, 5415, 15, 14, 1529173444.646, 27, 0, 1024, 1024, 1024, 1024, 0, 6, 3952, 3934, 3933, 3944, 3974, 3947, 0, 1, 18607, -89.900, 0.000, -10.600, 0.100, 0.000, -3.100, 0.0, , , , , , 97, , , 19, 19, 19
37.3089537, -119.5776675, 40.100, 11:24:04.746, 16, 0.10, 0.32, 97, 1.200, 3.000, -11.100, 384, 100, 98, 26, 23729, -18218, 5252, 5415, 15, 14, 1529173444.746, 18, 0, 1024, 1024, 1024, 1024, 0, 6, 3952, 3934, 3933, 3944, 3974, 3947, 0, 1, 18708, -89.900, 0.000, -10.600, 0.100, 0.000, -3.100, 0.0, , , , , , 97, , , 19, 19, 19
37.3089538, -119.5776676, 40.700, 11:24:04.846, 16, 0.00, 0.33, 97, 1.100, 2.700, -11.300, 384, 100, 98, 26, 23729, -18218, 5252, 5415, 15, 14, 1529173444.846, 7, 0, 1024, 1024, 1024, 1024, 0, 6, 3952, 3934, 3933, 3944, 3974, 3947, 0, 1, 18808, -89.900, 0.000, -10.600, 0.000, 0.000, -3.000, 0.0, , , , , , 97, , , 19, 19, 19
37.3089538, -119.5776676, 40.700, 11:24:04.946, 16, 0.00, 0.33, 97, 1.100, 2.700, -11.300, 384, 100, 98, 26, 23729, -18218, 5252, 5415, 15, 14, 1529173444.947, 107, 0, 1024, 1024, 1024, 1024, 0, 6, 3952, 3934, 3933, 3944, 3974, 3947, 0, 1, 18908, -89.900, 0.000, -10.600, 0.000, 0.000, -3.000, 0.0, , , , , , 97, , , 19, 19, 19
37.3089538, -119.5776676, 41.000, 11:24:05.046, 16, 0.00, 0.34, 97, 1.100, 2.600, -11.500, 384, 100, 98, 26, 23729, -18218, 5252, 5415, 15, 14, 1529173445.046, 15, 0, 1024, 1024, 1024, 1024, 0, 6, 3952, 3934, 3933, 3944, 3974, 3947, 0, 1, 19008, -89.900, 0.000, -10.600, 0.000, 0.000, -3.000, 0.0, , , , , , 97, , , 19, 19, 19
37.3089539, -119.5776678, 41.600, 11:24:05.146, 16, 0.00, 0.35, 97, 1.300, 2.500, -11.600, 384, 100, 96, 26, 23729, -18218, 5252, 5415, 15, 14, 1529173445.146, 7, 0, 1024, 1024, 1024, 1024, 0, 6, 3952, 3934, 3933, 3944, 3974, 3947, 0, 1, 19108, -89.900, 0.000, -10.600, 0.000, 0.000, -2.900, 0.0, , , , , , 97, , , 19, 19, 19
37.3089539, -119.5776678, 41.900, 11:24:05.246, 16, 0.00, 0.36, 97, 1.600, 2.500, -11.600, 384, 100, 96, 26, 23729, -18218, 5252, 5415, 15, 14, 1529173445.246, 5, 0, 1024, 1024, 1024, 1024, 0, 6, 3952, 3934, 3933, 3944, 3974, 3947, 0, 1, 19208, -89.900, 0.000, -10.600, 0.000, 0.000, -2.900, 0.0, , , , , , 97, , , 19, 19, 19
37.3089539, -119.5776678, 41.900, 11:24:05.346, 16, 0.00, 0.36, 97, 1.600, 2.500, -11.600, 384, 100, 96, 26, 23729, -18218, 5252, 5415, 15, 14, 1529173445.347, 105, 0, 1024, 1024, 1024, 1024, 0, 6, 3952, 3934, 3933, 3944, 3974, 3947, 0, 1, 19308, -89.900, 0.000, -10.600, 0.000, 0.000, -2.900, 0.0, , , , , , 97, , , 19, 19, 19
37.3089540, -119.5776680, 42.500, 11:24:05.447, 16, 0.00, 0.37, 97, 1.800, 2.200, -11.300, 384, 100, 96, 26, 23729, -18218, 5252, 5415, 15, 14, 1529173445.447, 1, 0, 1024, 1024, 1024, 1024, 0, 6, 3952, 3934, 3933, 3944, 3974, 3947, 0, 1, 19409, -89.900, 0.000, -10.600, 0.000, 0.000, -3.000, 0.0, , , , , , 97, , , 19, 19, 19
37.3089540, -119.5776680, 42.900, 11:24:05.547, 16, 0.00, 0.38, 97, 1.700, 2.400, -11.000, 384, 100, 96, 26, 23726, -17993, 5252, 5415, 15, 14, 1529173445.548, 4, 0, 1024, 1024, 1024, 1024, 0, 6, 3952, 3934, 3933, 3944, 3974, 3947, 0, 1, 19509, -89.900, 0.000, -10.600, 0.000, 0.000, -3.000, 0.0, , , , , , 97, , , 19, 19, 19
37.3089540, -119.5776681, 43.200, 11:24:05.646, 16, 0.00, 0.38, 97, 1.500, 2.500, -10.800, 384, 100, 96, 26, 23726, -17993, 5252, 5415, 15, 14, 1529173445.646, 2, 0, 1024, 1024, 1024, 1024, 0, 6, 3952, 3934, 3933, 3944, 3974, 3947, 0, 1, 19607, -89.900, 0.000, -10.600, 0.000, 0.000, -2.900, 0.0, , , , , , 97, , , 19, 19, 19
37.3089540, -119.5776681, 43.200, 11:24:05.746, 16, 0.00, 0.38, 97, 1.500, 2.500, -10.800, 384, 100, 96, 26, 23726, -17993, 5252, 5415, 15, 14, 1529173445.746, 103, 0, 1024, 1024, 1024, 1024, 0, 6, 3952, 3934, 3933, 3944, 3974, 3947, 0, 1, 19708, -89.900, 0.000, -10.600, 0.000, 0.000, -2.900, 0.0, , , , , , 97, , , 19, 19, 19
37.3089540, -119.5776681, 43.500, 11:24:05.847, 16, 0.00, 0.39, 97, 1.400, 2.600, -10.700, 384, 100, 96, 26, 23726, -17993, 5252, 5415, 15, 14, 1529173445.847, 83, 0, 1024, 1024, 1024, 1024, 0, 6, 3952, 3934, 3933, 3944, 3974, 3947, 0, 1, 19809, -89.900, 0.000, -10.600, 0.000, 0.000, -2.900, 0.0, , , , , , 97, , , 19, 19, 19
37.3089541, -119.5776682, 43.800, 11:24:05.947, 16, 0.10, 0.40, 97, 1.300, 2.800, -10.800, 384, 100, 96, 26, 23726, -17993, 5252, 5415, 15, 14, 1529173445.947, 79, 0, 1024, 1024, 1024, 1024, 0, 6, 3952, 3934, 3933, 3944, 3974, 3947, 0, 1, 19909, -89.900, 0.000, -10.600, 0.100, 0.000, -2.900, 0.0, , , , , , 97, , , 19, 19, 19
37.3089542, -119.5776683, 44.100, 11:24:06.046, 16, 0.10, 0.40, 97, 1.500, 3.200, -11.100, 384, 100, 96, 26, 23726, -17993, 5252, 5415, 15, 14, 1529173446.046, 96, 0, 1024, 1024, 1024, 1024, 0, 6, 3972, 3950, 3940, 3947, 3983, 3975, 0, 1, 20008, -89.900, 0.000, -10.600, 0.100, 0.000, -2.900, 0.0, , , , , , 97, , , 19, 19, 19
37.3089543, -119.5776683, 44.400, 11:24:06.147, 16, 0.10, 0.41, 97, 1.500, 3.600, -11.400, 384, 100, 100, 26, 23726, -17993, 5252, 5415, 15, 14, 1529173446.147, 63, 0, 1024, 1024, 1024, 1024, 0, 6, 3972, 3950, 3940, 3947, 3983, 3975, 0, 1, 20109, -89.900, 0.000, -10.600, 0.100, 0.000, -2.900, 0.0, , , , , , 97, , , 19, 19, 19
37.3089543, -119.5776683, 44.700, 11:24:06.247, 16, 0.10, 0.42, 97, 1.600, 3.900, -11.800, 384, 100, 100, 26, 23726, -17993, 5252, 5415, 15, 14, 1529173446.247, 52, 0, 1024, 1024, 1024, 1024, 0, 6, 3972, 3950, 3940, 3947, 3983, 3975, 0, 1, 20209, -89.900, 0.000, -10.600, 0.100, 0.000, -2.900, 0.0, , , , , , 97, , , 19, 19, 19
37.3089544, -119.5776684, 45.000, 11:24:06.347, 16, 0.10, 0.42, 97, 1.600, 3.900, -12.100, 384, 100, 100, 26, 23726, -17993, 5252, 5415, 15, 14, 1529173446.347, 45, 0, 1024, 1024, 1024, 1024, 0, 6, 3972, 3950, 3940, 3947, 3983, 3975, 0, 1, 20309, -89.900, 0.000, -10.600, 0.100, 0.000, -2.900, 0.0, , , , , , 97, , , 19, 19, 19
37.3089545, -119.5776684, 45.200, 11:24:06.447, 16, 0.00, 0.43, 97, 1.400, 3.800, -12.300, 384, 100, 100, 26, 23726, -17993, 5252, 5415, 15, 14, 1529173446.447, 51, 0, 1024, 1024, 1024, 1024, 0, 6, 3972, 3950, 3940, 3947, 3983, 3975, 0, 1, 20409, -89.900, 0.000, -10.600, 0.000, 0.000, -2.800, 0.0, , , , , , 97, , , 19, 19, 19
37.3089545, -119.5776684, 45.500, 11:24:06.547, 16, 0.00, 0.43, 97, 1.300, 3.800, -12.400, 384, 100, 100, 26, 23726, -17993, 5252, 5415, 15, 14, 1529173446.548, 56, 0, 1024, 1024, 1024, 1024, 0, 6, 3972, 3950, 3940, 3947, 3983, 3975, 0, 1, 20509, -89.900, 0.000, -10.600, 0.000, 0.000, -2.800, 0.0, , , , , , 97, , , 19, 19, 19
37.3089545, -119.5776684, 45.800, 11:24:06.647, 16, 0.00, 0.43, 97, 1.000, 3.800, -12.300, 384, 100, 99, 26, 23726, -17993, 5252, 5415, 15, 14, 1529173446.647, 48, 0, 1024, 1024, 1024, 1024, 0, 6, 3972, 3950, 3940, 3947, 3983, 3975, 0, 1, 20609, -89.900, 0.000, -10.600, 0.000, 0.000, -2.800, 0.0, , , , , , 97, , , 19, 19, 19
37.3089546, -119.5776684, 46.100, 11:24:06.747, 16, 0.00, 0.43, 97, 0.800, 3.600, -12.100, 384, 100, 99, 26, 23726, -17993, 5252, 5415, 15, 14, 1529173446.748, 53, 0, 1024, 1024, 1024, 1024, 0, 6, 3972, 3950, 3940, 3947, 3983, 3975, 0, 1, 20709, -89.900, 0.000, -10.600, 0.000, 0.000, -2.800, 0.0, , , , , , 97, , , 19, 19, 19
37.3089545, -119.5776683, 46.400, 11:24:06.847, 16, 0.00, 0.42, 97, 0.800, 3.200, -12.000, 384, 100, 99, 26, 23726, -17993, 5252, 5415, 15, 14, 1529173446.848, 20, 0, 1024, 1024, 1024, 1024, 0, 6, 3972, 3950, 3940, 3947, 3983, 3975, 0, 1, 20809, -89.900, 0.000, -10.600, 0.000, 0.000, -2.800, 0.0, , , , , , 97, , , 19, 19, 19
