Latitude, Longitude, Altitude (m), Time, Sats, Speed (m/s), Range (m), Battery (%), Roll (deg), Pitch (deg), Yaw (deg), Images, HD Signal (%), RC Signal (%), Battery Temp (C), Battery Voltage (mV), Battery Current (mA), Battery Energy (mAh), Battery Capacity (mAh), Battery Discharges, flyState, timestamp (Unix), LastUpdate (ms), radioChannel, Rc_elevator, Rc_aileron, Rc_throttle, Rc_rudder, Rc_gyro, Dronetype, Battery_Cell1 (mV), Battery_Cell2 (mV), Battery_Cell3 (mV), Battery_Cell4 (mV), Battery_Cell5 (mV), Battery_Cell6 (mV), Video, isFlying, elapsedTime (ms), gimbalPitch (deg), gimbalRoll (deg), gimbalYaw (deg), VelocityX (m/s), VelocityY (m/s), VelocityZ (m/s), GroundSmear (cm), App Version, Aircraft Name, Aircraft Firmware, Aircraft Serial Number, Battery Serial Number, Battery Lifetime (%), App_Tip, App_Warning, CurrentFlightStartingIndex, CurrentFlightLastVisitedWaypoint, PreviousFlightEndingWaypointIndex
37.3089373, -119.5776511, -0.100, 11:41:40.395, 13, 0.10, 0.12, 97, -0.500, 0.100, -18.100, 720, 100, 100, 24, 25640, -3693, 5234, 5396, 16, 11, 1529174500.395, 48, 0, 1024, 1024, 1024, 1024, 0, 6, 4257, 4254, 4250, 4249, 4253, 4260, 0, 1, 3041, -89.900, 0.000, -19.500, 0.000, -0.100, -0.200, 0.1, MapPilot_2.8.1_04242018, Dendroctonus I, 1.3.1.00, 041DDC1887, 1058163200459, 96, DJI_0718.jpg, Starting Mission from Lat/Long: 37.30893/-119.57765 Camera: Zenmuse X3 - Overlap: 90/90 - Active Connection: No, 33, 33, 33
37.3089373, -119.5776511, -0.100, 11:41:40.454, 13, 0.10, 0.12, 97, -0.500, 0.100, -18.100, 720, 100, 100, 24, 25640, -3693, 5234, 5396, 16, 11, 1529174500.454, 107, 0, 1024, 1024, 1024, 1024, 0, 6, 4257, 4254, 4250, 4249, 4253, 4260, 0, 1, 3100, -89.900, 0.000, -19.500, 0.000, -0.100, -0.200, 0.1, , , , , , 96, , , 33, 33, 33
37.3089374, -119.5776512, -0.100, 11:41:40.554, 13, 0.10, 0.13, 97, 0.000, 0.100, -18.000, 720, 100, 100, 24, 25640, -3693, 5234, 5396, 16, 11, 1529174500.554, 98, 0, 1024, 1024, 1024, 1024, 0, 6, 4257, 4254, 4250, 4249, 4253, 4260, 0, 1, 3200, -89.900, 0.000, -19.500, 0.000, -0.100, -0.400, 0.1, , , , , , 96, , , 33, 33, 33
37.3089375, -119.5776514, 0.000, 11:41:40.654, 11, 0.10, 0.15, 97, 0.600, 0.400, -17.900, 720, 100, 100, 24, 25640, -3693, 5234, 5396, 16, 11, 1529174500.654, 88, 0, 1024, 1024, 1024, 1024, 0, 6, 4257, 4254, 4250, 4249, 4253, 4260, 0, 1, 3300, -89.900, 0.000, -19.400, 0.000, -0.100, -0.500, 0.0, , , , , , 96, , , 33, 33, 33
37.3089376, -119.5776516, 0.000, 11:41:40.754, 11, 0.10, 0.17, 97, 0.900, 0.400, -17.800, 720, 100, 100, 24, 25640, -3693, 5234, 5396, 16, 11, 1529174500.754, 80, 0, 1024, 1024, 1024, 1024, 0, 6, 4257, 4254, 4250, 4249, 4253, 4260, 0, 1, 3400, -89.900, 0.000, -19.400, 0.000, -0.100, -0.500, 0.0, , , , , , 96, , , 33, 33, 33
37.3089377, -119.5776518, 0.000, 11:41:40.854, 11, 0.10, 0.18, 97, 1.100, 0.600, -17.800, 720, 100, 100, 24, 25640, -3693, 5234, 5396, 16, 11, 1529174500.855, 63, 0, 1024, 1024, 1024, 1024, 0, 6, 4257, 4254, 4250, 4249, 4253, 4260, 0, 1, 3500, -89.900, 0.000, -19.400, 0.000, -0.100, -0.500, 0.0, , , , , , 96, , , 33, 33, 33
37.3089378, -119.5776520, 0.100, 11:41:40.954, 11, 0.10, 0.20, 97, 1.200, 0.800, -17.700, 720, 100, 100, 24, 25640, -3693, 5234, 5396, 16, 11, 1529174500.955, 77, 0, 1024, 1024, 1024, 1024, 0, 6, 4257, 4254, 4250, 4249, 4253, 4260, 0, 1, 3600, -89.900, 0.000, -19.400, 0.000, -0.100, -0.500, 0.0, , , , , , 96, , , 33, 33, 33
37.3089379, -119.5776521, 0.100, 11:41:41.054, 11, 0.10, 0.22, 97, 1.000, 0.900, -17.600, 720, 100, 100, 24, 25640, -3693, 5234, 5396, 16, 11, 1529174501.055, 55, 0, 1024, 1024, 1024, 1024, 0, 6, 4257, 4254, 4250, 4249, 4253, 4260, 0, 1, 3700, -89.900, 0.000, -19.400, 0.000, -0.100, -0.400, 0.0, , , , , , 96, , , 33, 33, 33
37.3089379, -119.5776523, 0.200, 11:41:41.154, 11, 0.10, 0.24, 97, 0.600, 0.800, -17.500, 720, 100, 100, 24, 24775, -10739, 5234, 5396, 16, 11, 1529174501.154, 69, 0, 1024, 1024, 1024, 1024, 0, 6, 4108, 4071, 4093, 4075, 4072, 4106, 0, 1, 3800, -89.900, 0.000, -19.400, 0.000, -0.100, -0.400, 0.0, , , , , , 96, , , 33, 33, 33
37.3089380, -119.5776525, 0.200, 11:41:41.254, 12, 0.10, 0.25, 97, 0.400, 0.600, -17.500, 720, 100, 99, 24, 24775, -10739, 5234, 5396, 16, 11, 1529174501.255, 63, 0, 1024, 1024, 1024, 1024, 0, 6, 4108, 4071, 4093, 4075, 4072, 4106, 0, 1, 3900, -89.900, 0.000, -19.400, 0.000, -0.100, -0.400, 0.0, , , , , , 96, , , 33, 33, 33
37.3089381, -119.5776526, 0.300, 11:41:41.354, 12, 0.10, 0.27, 97, 0.600, 0.600, -17.500, 720, 100, 99, 24, 24775, -10739, 5234, 5396, 16, 11, 1529174501.355, 47, 0, 1024, 1024, 1024, 1024, 0, 6, 4108, 4071, 4093, 4075, 4072, 4106, 0, 1, 4000, -89.900, 0.000, -19.300, 0.000, -0.100, -0.400, 0.0, , , , , , 96, , , 33, 33, 33
37.3089382, -119.5776528, 0.300, 11:41:41.454, 11, 0.10, 0.29, 97, 0.800, 0.800, -17.700, 720, 100, 99, 24, 24775, -10739, 5234, 5396, 16, 11, 1529174501.454, 33, 0, 1024, 1024, 1024, 1024, 0, 6, 4108, 4071, 4093, 4075, 4072, 4106, 0, 1, 4100, -89.900, 0.000, -19.300, 0.000, -0.100, -0.400, 0.0, , , , , , 96, , , 33, 33, 33
37.3089382, -119.5776529, 0.400, 11:41:41.554, 11, 0.10, 0.30, 97, 0.700, 1.000, -17.800, 720, 100, 99, 24, 24775, -10739, 5234, 5396, 16, 11, 1529174501.554, 42, 0, 1024, 1024, 1024, 1024, 0, 6, 4108, 4071, 4093, 4075, 4072, 4106, 0, 1, 4200, -89.900, 0.000, -19.300, 0.000, -0.100, -0.400, 0.0, , , , , , 96, , , 33, 33, 33
37.3089383, -119.5776531, 0.400, 11:41:41.654, 11, 0.00, 0.31, 97, 0.900, 1.000, -17.900, 720, 100, 99, 24, 24775, -10739, 5234, 5396, 16, 11, 1529174501.655, 44, 0, 1024, 1024, 1024, 1024, 0, 6, 4108, 4071, 4093, 4075, 4072, 4106, 0, 1, 4300, -89.900, 0.000, -19.300, 0.000, 0.000, -0.400, 0.0, , , , , , 96, , , 33, 33, 33
37.3089383, -119.5776532, 0.500, 11:41:41.754, 11, 0.00, 0.33, 97, 0.900, 0.800, -18.000, 720, 100, 99, 24, 24775, -10739, 5234, 5396, 16, 11, 1529174501.754, 46, 0, 1024, 1024, 1024, 1024, 0, 6, 4108, 4071, 4093, 4075, 4072, 4106, 0, 1, 4400, -89.900, 0.000, -19.300, 0.000, 0.000, -0.400, 0.0, , , , , , 96, , , 33, 33, 33
37.3089384, -119.5776533, 0.500, 11:41:41.854, 12, 0.00, 0.34, 97, 1.100, 0.800, -18.100, 720, 100, 99, 24, 24775, -10739, 5234, 5396, 16, 11, 1529174501.855, 16, 0, 1024, 1024, 1024, 1024, 0, 6, 4108, 4071, 4093, 4075, 4072, 4106, 0, 1, 4500, -89.900, 0.000, -19.300, 0.000, 0.000, -0.400, 0.0, , , , , , 96, , , 33, 33, 33
37.3089384, -119.5776534, 0.600, 11:41:41.954, 12, 0.00, 0.35, 97, 1.300, 1.000, -18.200, 720, 100, 99, 24, 24775, -10739, 5234, 5396, 16, 11, 1529174501.954, 44, 0, 1024, 1024, 1024, 1024, 0, 6, 4108, 4071, 4093, 4075, 4072, 4106, 0, 1, 4600, -89.900, 0.000, -19.200, 0.000, 0.000, -0.400, 0.0, , , , , , 96, , , 33, 33, 33
37.3089384, -119.5776536, 0.600, 11:41:42.054, 12, 0.00, 0.36, 97, 1.500, 1.200, -18.200, 720, 100, 99, 24, 24775, -10739, 5234, 5396, 16, 11, 1529174502.055, 23, 0, 1024, 1024, 1024, 1024, 0, 6, 4108, 4071, 4093, 4075, 4072, 4106, 0, 1, 4700, -89.900, 0.000, -19.200, 0.000, 0.000, -0.400, 0.0, , , , , , 96, , , 33, 33, 33
37.3089384, -119.5776537, 0.700, 11:41:42.154, 12, 0.00, 0.37, 97, 1.600, 1.300, -18.200, 720, 100, 99, 24, 24291, -15778, 5234, 5396, 16, 11, 1529174502.154, 26, 0, 1024, 1024, 1024, 1024, 0, 6, 4021, 4045, 4044, 4028, 4034, 4050, 0, 1, 4800, -89.900, 0.000, -19.200, 0.000, 0.000, -0.400, 0.0, , , , , , 96, , , 33, 33, 33
37.3089384, -119.5776537, 0.700, 11:41:42.256, 13, 0.00, 0.37, 97, 1.700, 1.200, -18.200, 720, 100, 99, 24, 24291, -15778, 5234, 5396, 16, 11, 1529174502.256, 5, 0, 1024, 1024, 1024, 1024, 0, 6, 4021, 4045, 4044, 4028, 4034, 4050, 0, 1, 4902, -89.900, 0.000, -19.200, 0.000, 0.000, -0.400, 0.0, , , , , , 96, , , 33, 33, 33
37.3089384, -119.5776538, 0.800, 11:41:42.354, 13, 0.00, 0.37, 97, 1.700, 1.000, -18.200, 720, 100, 99, 24, 24291, -15778, 5234, 5396, 16, 11, 1529174502.354, 5, 0, 1024, 1024, 1024, 1024, 0, 6, 4021, 4045, 4044, 4028, 4034, 4050, 0, 1, 5000, -89.900, 0.000, -19.200, 0.000, 0.000, -0.400, 0.0, , , , , , 96, , , 33, 33, 33
37.3089385, -119.5776537, 0.900, 11:41:42.454, 13, 0.00, 0.37, 97, 1.800, 1.100, -18.200, 720, 100, 99, 24, 24291, -15778, 5234, 5396, 16, 11, 1529174502.454, 7, 0, 1024, 1024, 1024, 1024, 0, 6, 4021, 4045, 4044, 4028, 4034, 4050, 0, 1, 5100, -89.900, 0.000, -19.200, 0.000, 0.000, -0.500, 0.0, , , , , , 96, , , 33, 33, 33
37.3089384, -119.5776537, 0.900, 11:41:42.554, 13, 0.00, 0.37, 97, 1.700, 1.300, -18.200, 720, 100, 99, 24, 24291, -15778, 5234, 5396, 16, 14, 1529174502.554, 8, 0, 1024, 1024, 1024, 1024, 0, 6, 4021, 4045, 4044, 4028, 4034, 4050, 0, 1, 5200, -89.900, 0.000, -19.200, 0.000, 0.000, -0.400, 0.0, , , , , , 96, , , 33, 33, 33
37.3089384, -119.5776537, 0.900, 11:41:42.654, 13, 0.00, 0.37, 97, 1.700, 1.300, -18.200, 720, 100, 99, 24, 24291, -15778, 5234, 5396, 16, 14, 1529174502.654, 108, 0, 1024, 1024, 1024, 1024, 0, 6, 4021, 4045, 4044, 4028, 4034, 4050, 0, 1, 5300, -89.900, 0.000, -19.200, 0.000, 0.000, -0.400, 0.0, , , , , , 96, , , 33, 33, 33
37.3089383, -119.5776538, 1.000, 11:41:42.757, 11, 0.00, 0.37, 97, 0.300, -0.100, -18.400, 720, 100, 100, 24, 24291, -15778, 5234, 5396, 16, 14, 1529174502.758, 3, 0, 1024, 1024, 1024, 1024, 0, 6, 4021, 4045, 4044, 4028, 4034, 4050, 0, 1, 5403, -90.000, 0.000, -19.200, 0.000, 0.000, -0.200, 0.0, , , , , , 96, , , 33, 33, 33
37.3089383, -119.5776538, 1.000, 11:41:42.854, 11, 0.00, 0.37, 97, 0.300, -0.100, -18.400, 720, 100, 100, 24, 24291, -15778, 5234, 5396, 16, 14, 1529174502.855, 99, 0, 1024, 1024, 1024, 1024, 0, 6, 4021, 4045, 4044, 4028, 4034, 4050, 0, 1, 5500, -90.000, 0.000, -19.200, 0.000, 0.000, -0.200, 0.0, , , , , , 96, , , 33, 33, 33
37.3089383, -119.5776538, 1.000, 11:41:42.954, 11, 0.00, 0.37, 97, 0.000, -0.600, -18.500, 720, 100, 100, 24, 24291, -15778, 5234, 5396, 16, 14, 1529174502.954, 69, 0, 1024, 1024, 1024, 1024, 0, 6, 4021, 4045, 4044, 4028, 4034, 4050, 0, 1, 5600, -90.000, 0.000, -19.200, 0.000, 0.000, -0.200, 0.0, , , , , , 96, , , 33, 33, 33
37.3089382, -119.5776538, 1.000, 11:41:43.054, 12, 0.00, 0.37, 97, 0.200, -0.700, -18.500, 720, 100, 100, 24, 24291, -15778, 5234, 5396, 16, 14, 1529174503.054, 66, 0, 1024, 1024, 1024, 1024, 0, 6, 4021, 4045, 4044, 4028, 4034, 4050, 0, 1, 5700, -90.000, 0.000, -19.200, 0.000, 0.000, -0.400, 0.0, , , , , , 96, , , 33, 33, 33
37.3089382, -119.5776538, 1.100, 11:41:43.154, 12, 0.00, 0.36, 97, 0.700, -0.400, -18.500, 720, 100, 100, 24, 24109, -16403, 5234, 5396, 16, 14, 1529174503.154, 79, 0, 1024, 1024, 1024, 1024, 0, 6, 3989, 4019, 4025, 4005, 4017, 4033, 0, 1, 5800, -90.000, 0.000, -19.200, 0.000, 0.000, -0.500, 0.0, , , , , , 96, , , 33, 33, 33
37.3089382, -119.5776539, 1.200, 11:41:43.254, 12, 0.00, 0.37, 97, 0.900, 0.000, -18.500, 720, 100, 100, 24, 24109, -16403, 5234, 5396, 16, 14, 1529174503.254, 64, 0, 1024, 1024, 1024, 1024, 0, 6, 3989, 4019, 4025, 4005, 4017, 4033, 0, 1, 5900, -89.900, 0.000, -19.200, 0.000, 0.000, -0.600, 0.0, , , , , , 96, , , 33, 33, 33
37.3089381, -119.5776539, 1.200, 11:41:43.354, 12, 0.00, 0.37, 97, 1.000, 0.100, -18.600, 720, 100, 100, 24, 24109, -16403, 5234, 5396, 16, 14, 1529174503.354, 61, 0, 1024, 1024, 1024, 1024, 0, 6, 3989, 4019, 4025, 4005, 4017, 4033, 0, 1, 6000, -89.900, 0.000, -19.200, 0.000, 0.000, -0.700, 0.0, , , , , , 96, , , 33, 33, 33
37.3089381, -119.5776540, 1.300, 11:41:43.454, 12, 0.00, 0.37, 97, 1.100, 0.000, -18.700, 720, 100, 100, 24, 24109, -16403, 5234, 5396, 16, 14, 1529174503.454, 68, 0, 1024, 1024, 1024, 1024, 0, 6, 3989, 4019, 4025, 4005, 4017, 4033, 0, 1, 6100, -90.000, 0.000, -19.200, 0.000, 0.000, -0.900, 0.0, , , , , , 96, , , 33, 33, 33
37.3089381, -119.5776541, 1.400, 11:41:43.554, 12, 0.00, 0.37, 97, 1.300, 0.000, -18.700, 720, 100, 100, 24, 24109, -16403, 5234, 5396, 16, 14, 1529174503.554, 46, 0, 1024, 1024, 1024, 1024, 0, 6, 3989, 4019, 4025, 4005, 4017, 4033, 0, 1, 6200, -90.000, 0.000, -19.200, 0.000, 0.000, -1.200, 0.0, , , , , , 96, , , 33, 33, 33
37.3089381, -119.5776541, 1.500, 11:41:43.654, 12, 0.00, 0.38, 97, 1.400, 0.000, -18.800, 720, 100, 100, 24, 24109, -16403, 5234, 5396, 16, 14, 1529174503.654, 41, 0, 1024, 1024, 1024, 1024, 0, 6, 3989, 4019, 4025, 4005, 4017, 4033, 0, 1, 6300, -90.000, 0.000, -19.200, 0.000, 0.000, -1.400, 0.0, , , , , , 96, , , 33, 33, 33
37.3089381, -119.5776541, 1.700, 11:41:43.754, 12, 0.00, 0.38, 97, 1.300, 0.100, -18.800, 720, 100, 100, 24, 24109, -16403, 5234, 5396, 16, 14, 1529174503.754, 46, 0, 1024, 1024, 1024, 1024, 0, 6, 3989, 4019, 4025, 4005, 4017, 4033, 0, 1, 6400, -89.900, 0.000, -19.200, 0.000, 0.000, -1.600, 0.0, , , , , , 96, , , 33, 33, 33
37.3089382, -119.5776541, 1.900, 11:41:43.854, 13, 0.00, 0.38, 97, 1.000, 0.300, -18.800, 720, 100, 100, 24, 24109, -16403, 5234, 5396, 16, 14, 1529174503.854, 40, 0, 1024, 1024, 1024, 1024, 0, 6, 3989, 4019, 4025, 4005, 4017, 4033, 0, 1, 6500, -89.900, 0.000, -19.200, 0.000, 0.000, -1.900, 0.0, , , , , , 96, , , 33, 33, 33
37.3089383, -119.5776541, 2.100, 11:41:43.954, 13, 0.00, 0.39, 97, 0.600, 0.600, -18.800, 720, 100, 100, 24, 24109, -16403, 5234, 5396, 16, 14, 1529174503.954, 42, 0, 1024, 1024, 1024, 1024, 0, 6, 3989, 4019, 4025, 4005, 4017, 4033, 0, 1, 6600, -89.900, 0.000, -19.200, 0.000, 0.000, -2.000, 0.0, , , , , , 96, , , 33, 33, 33
37.3089384, -119.5776540, 2.300, 11:41:44.054, 11, 0.00, 0.38, 97, 0.000, 0.700, -18.700, 720, 100, 100, 24, 24109, -16403, 5234, 5396, 16, 14, 1529174504.054, 34, 0, 1024, 1024, 1024, 1024, 0, 6, 3989, 4019, 4025, 4005, 4017, 4033, 0, 1, 6700, -89.900, 0.000, -19.200, 0.000, 0.000, -2.300, 0.0, , , , , , 96, , , 33, 33, 33
37.3089384, -119.5776539, 2.500, 11:41:44.154, 11, 0.00, 0.38, 97, 0.000, 0.800, -18.400, 720, 100, 100, 24, 23953, -18002, 5234, 5396, 16, 14, 1529174504.154, 23, 0, 1024, 1024, 1024, 1024, 0, 6, 3989, 4019, 4025, 4005, 4017, 4033, 0, 1, 6800, -89.900, 0.000, -19.200, 0.000, 0.000, -2.500, 0.0, , , , , , 96, , , 33, 33, 33
37.3089386, -119.5776538, 2.800, 11:41:44.254, 11, 0.00, 0.38, 97, 0.200, 0.800, -18.100, 720, 100, 100, 24, 23953, -18002, 5234, 5396, 16, 14, 1529174504.254, 17, 0, 1024, 1024, 1024, 1024, 0, 6, 3989, 4019, 4025, 4005, 4017, 4033, 0, 1, 6900, -89.900, 0.000, -19.200, 0.000, 0.000, -2.800, 0.0, , , , , , 96, , , 33, 33, 33
37.3089389, -119.5776537, 3.100, 11:41:44.354, 11, 0.00, 0.40, 97, 0.100, 0.700, -17.800, 720, 100, 100, 24, 23953, -18002, 5234, 5396, 16, 14, 1529174504.354, 29, 0, 1024, 1024, 1024, 1024, 0, 6, 3989, 4019, 4025, 4005, 4017, 4033, 0, 1, 7000, -89.900, 0.000, -19.200, 0.000, 0.000, -3.000, 0.0, , , , , , 96, , , 33, 33, 33
37.3089392, -119.5776534, 3.800, 11:41:44.454, 13, 0.00, 0.41, 97, 0.000, 1.300, -17.600, 720, 100, 100, 24, 23953, -18002, 5234, 5396, 16, 14, 1529174504.454, 14, 0, 1024, 1024, 1024, 1024, 0, 6, 3989, 4019, 4025, 4005, 4017, 4033, 0, 1, 7100, -89.900, 0.000, -19.200, 0.000, 0.000, -3.200, 0.0, , , , , , 96, , , 33, 33, 33
37.3089393, -119.5776531, 4.100, 11:41:44.554, 12, 0.00, 0.40, 97, -0.100, 1.300, -17.800, 720, 100, 100, 24, 23953, -18002, 5234, 5396, 16, 14, 1529174504.554, 23, 0, 1024, 1024, 1024, 1024, 0, 6, 3989, 4019, 4025, 4005, 4017, 4033, 0, 1, 7200, -89.900, 0.000, -19.200, 0.000, 0.000, -3.200, 0.0, , , , , , 96, , , 33, 33, 33
37.3089393, -119.5776528, 4.500, 11:41:44.654, 12, 0.00, 0.38, 97, -0.300, 1.000, -18.000, 720, 100, 100, 24, 23953, -18002, 5234, 5396, 16, 14, 1529174504.654, 12, 0, 1024, 1024, 1024, 1024, 0, 6, 3918, 3957, 3957, 3961, 3954, 4013, 0, 1, 7300, -89.900, 0.000, -19.200, 0.000, 0.000, -3.300, 0.0, , , , , , 96, , , 33, 33, 33
37.3089394, -119.5776526, 4.800, 11:41:44.753, 12, 0.00, 0.38, 97, -0.500, 0.600, -18.200, 720, 100, 100, 24, 23953, -18002, 5234, 5396, 16, 14, 1529174504.754, 6, 0, 1024, 1024, 1024, 1024, 0, 6, 3918, 3957, 3957, 3961, 3954, 4013, 0, 1, 7400, -90.000, 0.000, -19.200, 0.000, 0.000, -3.200, 0.0, , , , , , 96, , , 33, 33, 33
37.3089395, -119.5776526, 5.200, 11:41:44.854, 12, 0.00, 0.39, 97, -0.700, 0.400, -18.300, 720, 100, 100, 24, 23953, -18002, 5234, 5396, 16, 14, 1529174504.854, 9, 0, 1024, 1024, 1024, 1024, 0, 6, 3918, 3957, 3957, 3961, 3954, 4013, 0, 1, 7500, -90.000, 0.000, -19.200, 0.000, 0.000, -3.300, 0.0, , , , , , 96, , , 33, 33, 33
37.3089395, -119.5776526, 5.200, 11:41:44.954, 12, 0.00, 0.39, 97, -0.700, 0.400, -18.300, 720, 100, 100, 24, 23953, -18002, 5234, 5396, 16, 14, 1529174504.954, 109, 0, 1024, 1024, 1024, 1024, 0, 6, 3918, 3957, 3957, 3961, 3954, 4013, 0, 1, 7600, -90.000, 0.000, -19.200, 0.000, 0.000, -3.300, 0.0, , , , , , 96, , , 33, 33, 33
37.3089395, -119.5776526, 5.500, 11:41:45.054, 13, 0.00, 0.39, 97, -0.500, 0.500, -18.400, 720, 100, 100, 24, 23953, -18002, 5234, 5396, 16, 14, 1529174505.054, 90, 0, 1024, 1024, 1024, 1024, 0, 6, 3918, 3957, 3957, 3961, 3954, 4013, 0, 1, 7700, -89.900, 0.000, -19.200, 0.000, 0.000, -3.200, 0.0, , , , , , 96, , , 33, 33, 33
37.3089394, -119.5776526, 5.900, 11:41:45.154, 13, 0.00, 0.39, 97, -0.400, 0.400, -18.500, 720, 100, 100, 24, 23953, -18002, 5234, 5396, 16, 14, 1529174505.154, 85, 0, 1024, 1024, 1024, 1024, 0, 6, 3918, 3957, 3957, 3961, 3954, 4013, 0, 1, 7800, -90.000, 0.000, -19.200, 0.000, 0.000, -3.200, 0.0, , , , , , 96, , , 33, 33, 33
37.3089394, -119.5776527, 6.200, 11:41:45.254, 13, 0.00, 0.38, 97, 0.000, 0.200, -18.700, 720, 100, 100, 25, 23953, -18002, 5234, 5396, 16, 14, 1529174505.254, 82, 0, 1024, 1024, 1024, 1024, 0, 6, 3918, 3957, 3957, 3961, 3954, 4013, 0, 1, 7899, -90.000, 0.000, -19.200, 0.000, 0.000, -3.200, 0.0, , , , , , 96, , , 33, 33, 33
37.3089393, -119.5776528, 6.500, 11:41:45.354, 13, 0.00, 0.39, 97, 0.500, 0.200, -18.700, 720, 100, 100, 25, 23953, -18002, 5234, 5396, 16, 14, 1529174505.354, 86, 0, 1024, 1024, 1024, 1024, 0, 6, 3918, 3957, 3957, 3961, 3954, 4013, 0, 1, 8000, -89.900, 0.000, -19.200, 0.000, 0.000, -3.100, 0.0, , , , , , 96, , , 33, 33, 33
37.3089392, -119.5776530, 6.800, 11:41:45.454, 14, 0.00, 0.38, 97, 0.700, 0.300, -18.700, 720, 100, 100, 25, 23953, -18002, 5234, 5396, 16, 14, 1529174505.454, 69, 0, 1024, 1024, 1024, 1024, 0, 6, 3918, 3957, 3957, 3961, 3954, 4013, 0, 1, 8100, -89.900, 0.000, -19.200, 0.000, 0.000, -3.100, 0.0, , , , , , 96, , , 33, 33, 33
37.3089390, -119.5776531, 7.100, 11:41:45.554, 14, 0.00, 0.37, 97, 0.700, 0.100, -18.600, 720, 100, 100, 25, 23953, -18002, 5234, 5396, 16, 14, 1529174505.554, 71, 0, 1024, 1024, 1024, 1024, 0, 6, 3918, 3957, 3957, 3961, 3954, 4013, 0, 1, 8200, -90.000, 0.000, -19.200, 0.000, 0.000, -3.100, 0.0, , , , , , 96, , , 33, 33, 33
37.3089388, -119.5776533, 7.500, 11:41:45.654, 15, 0.00, 0.36, 97, 0.900, -0.100, -18.500, 720, 100, 100, 25, 23408, -23682, 5234, 5396, 16, 14, 1529174505.654, 75, 0, 1024, 1024, 1024, 1024, 0, 6, 3892, 3897, 3927, 3883, 3889, 3922, 0, 1, 8300, -90.000, 0.000, -19.200, 0.000, 0.000, -3.000, 0.0, , , , , , 96, , , 33, 33, 33
37.3089386, -119.5776534, 7.800, 11:41:45.754, 15, 0.00, 0.36, 97, 1.200, -0.300, -18.300, 720, 100, 100, 25, 23408, -23682, 5234, 5396, 16, 14, 1529174505.754, 75, 0, 1024, 1024, 1024, 1024, 0, 6, 3892, 3897, 3927, 3883, 3889, 3922, 0, 1, 8400, -90.000, 0.000, -19.200, 0.000, 0.000, -3.100, 0.0, , , , , , 96, , , 33, 33, 33
37.3089384, -119.5776537, 8.100, 11:41:45.854, 15, 0.00, 0.36, 97, 1.400, -0.500, -18.200, 720, 100, 100, 25, 23408, -23682, 5234, 5396, 16, 14, 1529174505.854, 55, 0, 1024, 1024, 1024, 1024, 0, 6, 3892, 3897, 3927, 3883, 3889, 3922, 0, 1, 8500, -90.000, 0.000, -19.200, 0.000, 0.000, -3.100, 0.0, , , , , , 96, , , 33, 33, 33
37.3089382, -119.5776540, 8.400, 11:41:45.954, 15, 0.10, 0.37, 97, 1.900, -0.500, -18.100, 720, 100, 100, 25, 23408, -23682, 5234, 5396, 16, 14, 1529174505.954, 51, 0, 1024, 1024, 1024, 1024, 0, 6, 3892, 3897, 3927, 3883, 3889, 3922, 0, 1, 8600, -90.000, 0.000, -19.200, 0.000, -0.100, -3.100, 0.0, , , , , , 96, , , 33, 33, 33
37.3089380, -119.5776542, 8.800, 11:41:46.053, 15, 0.10, 0.38, 97, 2.100, -0.400, -18.100, 720, 100, 100, 25, 23408, -23682, 5234, 5396, 16, 14, 1529174506.054, 50, 0, 1024, 1024, 1024, 1024, 0, 6, 3892, 3897, 3927, 3883, 3889, 3922, 0, 1, 8699, -90.000, 0.000, -19.200, 0.000, -0.100, -3.100, 0.0, , , , , , 96, , , 33, 33, 33
37.3089379, -119.5776545, 9.100, 11:41:46.154, 15, 0.00, 0.40, 97, 2.400, -0.400, -18.200, 720, 100, 100, 25, 23408, -23682, 5234, 5396, 16, 14, 1529174506.154, 18, 0, 1024, 1024, 1024, 1024, 0, 6, 3892, 3897, 3927, 3883, 3889, 3922, 0, 1, 8800, -90.000, 0.000, -19.200, 0.000, 0.000, -3.000, 0.0, , , , , , 96, , , 33, 33, 33
37.3089377, -119.5776546, 9.400, 11:41:46.254, 15, 0.00, 0.40, 97, 2.400, -0.400, -18.200, 720, 100, 100, 25, 23408, -23682, 5234, 5396, 16, 14, 1529174506.254, 31, 0, 1024, 1024, 1024, 1024, 0, 6, 3892, 3897, 3927, 3883, 3889, 3922, 0, 1, 8900, -90.000, 0.000, -19.200, 0.000, 0.000, -3.000, 0.0, , , , , , 96, , , 33, 33, 33
37.3089376, -119.5776546, 9.700, 11:41:46.354, 15, 0.00, 0.39, 97, 2.200, -0.700, -18.300, 720, 100, 100, 25, 23408, -23682, 5234, 5396, 16, 14, 1529174506.354, 44, 0, 1024, 1024, 1024, 1024, 0, 6, 3892, 3897, 3927, 3883, 3889, 3922, 0, 1, 9000, -90.000, 0.000, -19.200, 0.000, 0.000, -3.000, 0.0, , , , , , 96, , , 33, 33, 33
37.3089374, -119.5776546, 10.000, 11:41:46.454, 15, 0.00, 0.39, 97, 1.900, -1.000, -18.300, 720, 100, 100, 25, 23408, -23682, 5234, 5396, 16, 14, 1529174506.454, 21, 0, 1024, 1024, 1024, 1024, 0, 6, 3892, 3897, 3927, 3883, 3889, 3922, 0, 1, 9100, -90.000, 0.000, -19.200, 0.000, 0.000, -3.000, 0.0, , , , , , 96, , , 33, 33, 33
37.3089373, -119.5776546, 10.300, 11:41:46.554, 15, 0.00, 0.39, 97, 1.600, -1.000, -18.300, 720, 100, 100, 25, 23408, -23682, 5234, 5396, 16, 14, 1529174506.554, 37, 0, 1024, 1024, 1024, 1024, 0, 6, 3892, 3897, 3927, 3883, 3889, 3922, 0, 1, 9200, -89.900, 0.000, -19.200, 0.000, 0.000, -2.900, 0.0, , , , , , 96, , , 33, 33, 33
37.3089373, -119.5776547, 10.600, 11:41:46.654, 13, 0.00, 0.39, 97, 1.500, -0.900, -18.300, 720, 100, 100, 25, 23721, -18225, 5234, 5396, 16, 14, 1529174506.654, 33, 0, 1024, 1024, 1024, 1024, 0, 6, 3926, 3963, 3956, 3948, 3963, 3969, 0, 1, 9300, -89.900, 0.000, -19.200, 0.000, 0.000, -3.000, 0.0, , , , , , 96, , , 33, 33, 33
37.3089372, -119.5776547, 10.900, 11:41:46.754, 13, 0.00, 0.39, 97, 1.500, -0.700, -18.300, 720, 100, 100, 25, 23721, -18225, 5234, 5396, 16, 14, 1529174506.754, 25, 0, 1024, 1024, 1024, 1024, 0, 6, 3926, 3963, 3956, 3948, 3963, 3969, 0, 1, 9400, -90.000, 0.000, -19.200, 0.000, 0.000, -3.000, 0.0, , , , , , 96, , , 33, 33, 33
37.3089371, -119.5776548, 11.300, 11:41:46.854, 15, 0.00, 0.40, 97, 1.600, -0.700, -18.300, 720, 100, 100, 25, 23721, -18225, 5234, 5396, 16, 14, 1529174506.854, 13, 0, 1024, 1024, 1024, 1024, 0, 6, 3926, 3963, 3956, 3948, 3963, 3969, 0, 1, 9500, -90.000, 0.000, -19.200, 0.000, 0.000, -3.000, 0.0, , , , , , 96, , , 33, 33, 33
37.3089370, -119.5776549, 11.600, 11:41:46.954, 15, 0.00, 0.41, 97, 1.600, -0.800, -18.300, 720, 100, 100, 25, 23721, -18225, 5234, 5396, 16, 14, 1529174506.954, 26, 0, 1024, 1024, 1024, 1024, 0, 6, 3926, 3963, 3956, 3948, 3963, 3969, 0, 1, 9600, -90.000, 0.000, -19.200, 0.000, 0.000, -3.000, 0.0, , , , , , 96, , , 33, 33, 33
37.3089370, -119.5776550, 11.900, 11:41:47.054, 15, 0.00, 0.41, 97, 1.700, -0.800, -18.400, 720, 100, 100, 25, 23721, -18225, 5234, 5396, 16, 14, 1529174507.054, 21, 0, 1024, 1024, 1024, 1024, 0, 6, 3926, 3963, 3956, 3948, 3963, 3969, 0, 1, 9700, -90.000, 0.000, -19.200, 0.000, 0.000, -3.000, 0.0, , , , , , 96, , , 33, 33, 33
37.3089368, -119.5776551, 12.500, 11:41:47.157, 15, 0.00, 0.43, 97, 2.000, -0.600, -18.400, 720, 100, 100, 25, 23721, -18225, 5234, 5396, 16, 14, 1529174507.158, 3, 0, 1024, 1024, 1024, 1024, 0, 6, 3926, 3963, 3956, 3948, 3963, 3969, 0, 1, 9803, -90.000, 0.000, -19.200, 0.000, 0.000, -2.900, 0.0, , , , , , 96, , , 33, 33, 33
37.3089368, -119.5776551, 12.500, 11:41:47.254, 15, 0.00, 0.43, 97, 2.000, -0.600, -18.400, 720, 100, 100, 25, 23721, -18225, 5234, 5396, 16, 14, 1529174507.254, 99, 0, 1024, 1024, 1024, 1024, 0, 6, 3926, 3963, 3956, 3948, 3963, 3969, 0, 1, 9900, -90.000, 0.000, -19.200, 0.000, 0.000, -2.900, 0.0, , , , , , 96, , , 33, 33, 33
37.3089367, -119.5776553, 13.100, 11:41:47.354, 15, 0.00, 0.44, 97, 2.200, -0.400, -18.400, 720, 100, 100, 25, 23721, -18225, 5234, 5396, 16, 14, 1529174507.354, 9, 0, 1024, 1024, 1024, 1024, 0, 6, 3926, 3963, 3956, 3948, 3963, 3969, 0, 1, 10000, -89.900, 0.000, -19.200, 0.000, 0.000, -2.900, 0.0, , , , , , 96, , , 33, 33, 33
37.3089367, -119.5776553, 13.400, 11:41:47.454, 15, 0.00, 0.44, 97, 1.900, -0.300, -18.500, 720, 100, 100, 25, 23721, -18225, 5234, 5396, 16, 14, 1529174507.454, 11, 0, 1024, 1024, 1024, 1024, 0, 6, 3926, 3963, 3956, 3948, 3963, 3969, 0, 1, 10100, -89.900, 0.000, -19.200, 0.000, 0.000, -2.900, 0.0, , , , , , 96, , , 33, 33, 33
37.3089368, -119.5776552, 13.700, 11:41:47.554, 15, 0.00, 0.43, 97, 1.500, -0.300, -18.500, 720, 100, 100, 25, 23721, -18225, 5234, 5396, 16, 14, 1529174507.554, 4, 0, 1024, 1024, 1024, 1024, 0, 6, 3926, 3963, 3956, 3948, 3963, 3969, 0, 1, 10200, -89.900, 0.000, -19.200, 0.000, 0.000, -2.900, 0.0, , , , , , 96, , , 33, 33, 33
37.3089368, -119.5776552, 13.700, 11:41:47.654, 15, 0.00, 0.43, 97, 1.500, -0.300, -18.500, 720, 100, 100, 25, 23721, -18225, 5234, 5396, 16, 14, 1529174507.654, 104, 0, 1024, 1024, 1024, 1024, 0, 6, 3926, 3963, 3956, 3948, 3963, 3969, 0, 1, 10300, -89.900, 0.000, -19.200, 0.000, 0.000, -2.900, 0.0, , , , , , 96, , , 33, 33, 33
37.3089369, -119.5776551, 14.000, 11:41:47.754, 15, 0.00, 0.42, 97, 1.100, -0.300, -18.400, 720, 100, 100, 25, 23680, -19043, 5234, 5396, 16, 14, 1529174507.754, 95, 0, 1024, 1024, 1024, 1024, 0, 6, 3914, 3949, 3958, 3942, 3945, 3963, 0, 1, 10400, -90.000, 0.000, -19.200, 0.000, 0.000, -2.900, 0.0, , , , , , 96, , , 33, 33, 33
37.3089370, -119.5776550, 14.300, 11:41:47.854, 16, 0.00, 0.42, 97, 0.800, -0.100, -18.400, 720, 100, 99, 25, 23680, -19043, 5234, 5396, 16, 14, 1529174507.854, 98, 0, 1024, 1024, 1024, 1024, 0, 6, 3914, 3949, 3958, 3942, 3945, 3963, 0, 1, 10500, -90.000, 0.000, -19.200, 0.000, 0.000, -2.900, 0.0, , , , , , 96, , , 33, 33, 33
37.3089370, -119.5776550, 14.600, 11:41:47.954, 16, 0.00, 0.42, 97, 0.700, 0.000, -18.400, 720, 100, 99, 25, 23680, -19043, 5234, 5396, 16, 14, 1529174507.954, 92, 0, 1024, 1024, 1024, 1024, 0, 6, 3914, 3949, 3958, 3942, 3945, 3963, 0, 1, 10600, -89.900, 0.000, -19.200, 0.000, 0.000, -3.000, 0.0, , , , , , 96, , , 33, 33, 33
37.3089371, -119.5776550, 14.900, 11:41:48.053, 15, 0.00, 0.42, 97, 0.800, 0.100, -18.400, 720, 100, 99, 25, 23680, -19043, 5234, 5396, 16, 14, 1529174508.054, 69, 0, 1024, 1024, 1024, 1024, 0, 6, 3914, 3949, 3958, 3942, 3945, 3963, 0, 1, 10699, -90.000, 0.000, -19.200, 0.000, 0.000, -2.900, 0.0, , , , , , 96, , , 33, 33, 33
37.3089372, -119.5776550, 15.200, 11:41:48.154, 15, 0.00, 0.42, 97, 0.900, 0.100, -18.400, 720, 100, 99, 25, 23680, -19043, 5234, 5396, 16, 14, 1529174508.154, 76, 0, 1024, 1024, 1024, 1024, 0, 6, 3914, 3949, 3958, 3942, 3945, 3963, 0, 1, 10800, -90.000, 0.000, -19.200, 0.000, 0.000, -3.000, 0.0, , , , , , 96, , , 33, 33, 33
37.3089373, -119.5776550, 15.500, 11:41:48.254, 16, 0.00, 0.42, 97, 1.000, 0.300, -18.400, 720, 100, 99, 25, 23680, -19043, 5234, 5396, 16, 14, 1529174508.254, 59, 0, 1024, 1024, 1024, 1024, 0, 6, 3914, 3949, 3958, 3942, 3945, 3963, 0, 1, 10900, -89.900, 0.000, -19.200, 0.000, 0.000, -3.000, 0.0, , , , , , 96, , , 33, 33, 33
37.3089374, -119.5776551, 15.800, 11:41:48.354, 16, 0.00, 0.43, 97, 1.100, 0.400, -18.300, 720, 100, 99, 25, 23680, -19043, 5234, 5396, 16, 14, 1529174508.354, 71, 0, 1024, 1024, 1024, 1024, 0, 6, 3914, 3949, 3958, 3942, 3945, 3963, 0, 1, 11000, -89.900, 0.000, -19.200, 0.000, 0.000, -2.900, 0.0, , , , , , 96, , , 33, 33, 33
37.3089375, -119.5776550, 16.200, 11:41:48.454, 16, 0.00, 0.43, 97, 1.200, 0.600, -18.300, 720, 100, 99, 25, 23680, -19043, 5234, 5396, 16, 14, 1529174508.454, 75, 0, 1024, 1024, 1024, 1024, 0, 6, 3914, 3949, 3958, 3942, 3945, 3963, 0, 1, 11100, -89.900, 0.000, -19.200, 0.000, 0.000, -3.000, 0.0, , , , , , 96, , , 33, 33, 33
37.3089376, -119.5776550, 16.500, 11:41:48.554, 16, 0.00, 0.43, 97, 1.200, 0.600, -18.300, 720, 100, 99, 25, 23680, -19043, 5234, 5396, 16, 14, 1529174508.554, 46, 0, 1024, 1024, 1024, 1024, 0, 6, 3914, 3949, 3958, 3942, 3945, 3963, 0, 1, 11200, -90.000, 0.000, -19.200, 0.000, 0.000, -2.900, 0.0, , , , , , 96, , , 33, 33, 33
37.3089377, -119.5776550, 16.800, 11:41:48.654, 15, 0.00, 0.43, 97, 1.000, 0.500, -18.400, 720, 100, 99, 25, 23634, -19260, 5234, 5396, 16, 14, 1529174508.654, 53, 0, 1024, 1024, 1024, 1024, 0, 6, 3906, 3937, 3946, 3926, 3936, 3956, 0, 1, 11300, -90.000, 0.000, -19.200, 0.000, 0.000, -2.900, 0.0, , , , , , 96, , , 33, 33, 33
37.3089378, -119.5776550, 17.000, 11:41:48.754, 15, 0.00, 0.43, 97, 0.900, 0.600, -18.400, 720, 100, 99, 25, 23634, -19260, 5234, 5396, 16, 14, 1529174508.754, 55, 0, 1024, 1024, 1024, 1024, 0, 6, 3906, 3937, 3946, 3926, 3936, 3956, 0, 1, 11400, -89.900, 0.000, -19.200, 0.000, 0.000, -2.900, 0.0, , , , , , 96, , , 33, 33, 33
37.3089379, -119.5776549, 17.300, 11:41:48.854, 15, 0.00, 0.44, 97, 0.900, 0.700, -18.400, 720, 100, 99, 25, 23634, -19260, 5234, 5396, 16, 14, 1529174508.854, 55, 0, 1024, 1024, 1024, 1024, 0, 6, 3906, 3937, 3946, 3926, 3936, 3956, 0, 1, 11500, -89.900, 0.000, -19.200, 0.000, 0.000, -2.800, 0.0, , , , , , 96, , , 33, 33, 33
37.3089381, -119.5776549, 17.600, 11:41:48.953, 15, 0.00, 0.44, 97, 0.900, 0.900, -18.300, 720, 100, 99, 25, 23634, -19260, 5234, 5396, 16, 14, 1529174508.954, 43, 0, 1024, 1024, 1024, 1024, 0, 6, 3906, 3937, 3946, 3926, 3936, 3956, 0, 1, 11599, -89.900, 0.000, -19.200, 0.000, 0.000, -2.900, 0.0, , , , , , 96, , , 33, 33, 33
37.3089382, -119.5776548, 17.900, 11:41:49.054, 16, 0.00, 0.44, 97, 0.600, 1.100, -18.300, 720, 100, 99, 25, 23634, -19260, 5234, 5396, 16, 14, 1529174509.054, 60, 0, 1024, 1024, 1024, 1024, 0, 6, 3906, 3937, 3946, 3926, 3936, 3956, 0, 1, 11700, -89.900, 0.000, -19.200, 0.000, 0.000, -2.900, 0.0, , , , , , 96, , , 33, 33, 33
37.3089383, -119.5776548, 18.200, 11:41:49.154, 16, 0.00, 0.45, 97, 0.400, 1.400, -18.300, 720, 100, 99, 25, 23634, -19260, 5234, 5396, 16, 14, 1529174509.154, 51, 0, 1024, 1024, 1024, 1024, 0, 6, 3906, 3937, 3946, 3926, 3936, 3956, 0, 1, 11800, -89.900, 0.000, -19.200, 0.000, 0.000, -2.900, 0.0, , , , , , 96, , , 33, 33, 33
37.3089385, -119.5776548, 18.500, 11:41:49.254, 16, 0.00, 0.45, 97, 0.400, 1.400, -18.200, 720, 100, 99, 25, 23634, -19260, 5234, 5396, 16, 14, 1529174509.254, 39, 0, 1024, 1024, 1024, 1024, 0, 6, 3906, 3937, 3946, 3926, 3936, 3956, 0, 1, 11900, -89.900, 0.000, -19.200, 0.000, 0.000, -2.900, 0.0, , , , , , 96, , , 33, 33, 33
37.3089386, -119.5776548, 18.800, 11:41:49.354, 16, 0.00, 0.45, 97, 0.300, 1.400, -18.200, 720, 100, 99, 25, 23634, -19260, 5234, 5396, 16, 14, 1529174509.354, 30, 0, 1024, 1024, 1024, 1024, 0, 6, 3906, 3937, 3946, 3926, 3936, 3956, 0, 1, 12000, -89.900, 0.000, -19.200, 0.000, 0.000, -2.900, 0.0, , , , , , 96, , , 33, 33, 33
37.3089386, -119.5776547, 19.100, 11:41:49.454, 16, 0.00, 0.46, 97, 0.300, 1.200, -18.200, 720, 100, 99, 25, 23634, -19260, 5234, 5396, 16, 14, 1529174509.454, 33, 0, 1024, 1024, 1024, 1024, 0, 6, 3906, 3937, 3946, 3926, 3936, 3956, 0, 1, 12100, -89.900, 0.000, -19.200, 0.000, 0.000, -2.900, 0.0, , , , , , 96, , , 33, 33, 33
37.3089388, -119.5776546, 19.400, 11:41:49.554, 16, 0.00, 0.46, 97, 0.200, 1.000, -18.100, 720, 100, 99, 25, 23634, -19260, 5234, 5396, 16, 14, 1529174509.554, 39, 0, 1024, 1024, 1024, 1024, 0, 6, 3906, 3937, 3946, 3926, 3936, 3956, 0, 1, 12200, -89.900, 0.000, -19.200, 0.000, 0.000, -2.900, 0.0, , , , , , 96, , , 33, 33, 33
37.3089388, -119.5776545, 19.700, 11:41:49.654, 15, 0.00, 0.46, 97, 0.100, 1.100, -18.100, 720, 100, 99, 25, 23619, -19193, 5234, 5396, 16, 14, 1529174509.654, 20, 0, 1024, 1024, 1024, 1024, 0, 6, 3906, 3937, 3946, 3926, 3936, 3956, 0, 1, 12300, -89.900, 0.000, -19.200, 0.000, 0.000, -2.900, 0.0, , , , , , 96, , , 33, 33, 33
37.3089389, -119.5776545, 20.000, 11:41:49.754, 15, 0.00, 0.46, 97, 0.000, 1.200, -18.100, 720, 100, 99, 25, 23619, -19193, 5234, 5396, 16, 14, 1529174509.754, 24, 0, 1024, 1024, 1024, 1024, 0, 6, 3906, 3937, 3946, 3926, 3936, 3956, 0, 1, 12400, -89.900, 0.000, -19.200, 0.000, 0.000, -2.900, 0.0, , , , , , 96, , , 33, 33, 33
37.3089390, -119.5776545, 20.300, 11:41:49.853, 16, 0.00, 0.46, 97, 0.200, 1.100, -18.200, 720, 100, 99, 25, 23619, -19193, 5234, 5396, 16, 14, 1529174509.853, 15, 0, 1024, 1024, 1024, 1024, 0, 6, 3906, 3937, 3946, 3926, 3936, 3956, 0, 1, 12499, -89.900, 0.000, -19.200, 0.000, 0.000, -3.000, 0.0, , , , , , 96, , , 33, 33, 33
37.3089390, -119.5776545, 20.600, 11:41:49.954, 16, 0.00, 0.47, 97, 0.300, 1.100, -18.300, 720, 100, 99, 25, 23619, -19193, 5234, 5396, 16, 14, 1529174509.954, 20, 0, 1024, 1024, 1024, 1024, 0, 6, 3906, 3937, 3946, 3926, 3936, 3956, 0, 1, 12600, -89.900, 0.000, -19.200, 0.000, 0.000, -3.000, 0.0, , , , , , 96, , , 33, 33, 33
37.3089391, -119.5776545, 21.200, 11:41:50.054, 16, 0.00, 0.48, 97, 0.400, 0.900, -18.400, 720, 100, 99, 25, 23619, -19193, 5234, 5396, 16, 14, 1529174510.054, 2, 0, 1024, 1024, 1024, 1024, 0, 6, 3906, 3937, 3946, 3926, 3936, 3956, 0, 1, 12700, -89.900, 0.000, -19.200, 0.000, 0.000, -3.000, 0.0, , , , , , 96, , , 33, 33, 33
37.3089391, -119.5776545, 21.200, 11:41:50.154, 16, 0.00, 0.48, 97, 0.400, 0.900, -18.400, 720, 100, 99, 25, 23619, -19193, 5234, 5396, 16, 14, 1529174510.154, 102, 0, 1024, 1024, 1024, 1024, 0, 6, 3906, 3937, 3946, 3926, 3936, 3956, 0, 1, 12800, -89.900, 0.000, -19.200, 0.000, 0.000, -3.000, 0.0, , , , , , 96, , , 33, 33, 33
37.3089392, -119.5776545, 21.500, 11:41:50.254, 16, 0.00, 0.48, 97, 0.600, 0.900, -18.400, 720, 100, 99, 25, 23619, -19193, 5180, 5396, 16, 14, 1529174510.254, 77, 0, 1024, 1024, 1024, 1024, 0, 6, 3911, 3937, 3955, 3927, 3936, 3952, 0, 1, 12900, -89.900, 0.000, -19.200, 0.000, 0.000, -3.000, 0.0, , , , , , 96, , , 33, 33, 33
37.3089393, -119.5776545, 21.800, 11:41:50.354, 16, 0.00, 0.49, 97, 0.600, 0.800, -18.500, 720, 100, 99, 25, 23619, -19193, 5180, 5396, 16, 14, 1529174510.354, 80, 0, 1024, 1024, 1024, 1024, 0, 6, 3911, 3937, 3955, 3927, 3936, 3952, 0, 1, 13000, -89.900, 0.000, -19.200, 0.000, 0.000, -3.000, 0.0, , , , , , 96, , , 33, 33, 33
37.3089393, -119.5776545, 22.100, 11:41:50.454, 16, 0.00, 0.49, 97, 0.500, 0.800, -18.500, 720, 100, 99, 25, 23619, -19193, 5180, 5396, 16, 14, 1529174510.454, 88, 0, 1024, 1024, 1024, 1024, 0, 6, 3911, 3937, 3955, 3927, 3936, 3952, 0, 1, 13100, -90.000, 0.000, -19.200, 0.000, 0.000, -3.000, 0.0, , , , , , 96, , , 33, 33, 33
37.3089393, -119.5776545, 22.400, 11:41:50.553, 16, 0.00, 0.49, 97, 0.600, 0.900, -18.500, 720, 100, 99, 25, 23619, -19193, 5180, 5396, 16, 14, 1529174510.554, 81, 0, 1024, 1024, 1024, 1024, 0, 6, 3911, 3937, 3955, 3927, 3936, 3952, 0, 1, 13199, -89.900, 0.000, -19.200, 0.000, 0.000, -3.000, 0.0, , , , , , 96, , , 33, 33, 33
37.3089394, -119.5776546, 22.700, 11:41:50.654, 16, 0.00, 0.49, 96, 0.600, 1.000, -18.500, 720, 100, 99, 25, 23619, -19193, 5180, 5396, 16, 14, 1529174510.654, 48, 0, 1024, 1024, 1024, 1024, 0, 6, 3911, 3937, 3955, 3927, 3936, 3952, 0, 1, 13300, -89.900, 0.000, -19.200, 0.000, 0.000, -3.000, 0.0, , , , , , 96, , , 33, 33, 33
37.3089394, -119.5776546, 23.000, 11:41:50.753, 16, 0.00, 0.50, 96, 0.700, 1.200, -18.400, 720, 100, 100, 25, 23619, -19193, 5180, 5396, 16, 14, 1529174510.753, 49, 0, 1024, 1024, 1024, 1024, 0, 6, 3911, 3937, 3955, 3927, 3936, 3952, 0, 1, 13399, -89.900, 0.000, -19.200, 0.000, 0.000, -3.000, 0.0, , , , , , 96, , , 33, 33, 33
37.3089395, -119.5776546, 23.300, 11:41:50.854, 16, 0.00, 0.50, 96, 0.800, 1.300, -18.400, 720, 100, 100, 25, 23619, -19193, 5180, 5396, 16, 14, 1529174510.854, 55, 0, 1024, 1024, 1024, 1024, 0, 6, 3911, 3937, 3955, 3927, 3936, 3952, 0, 1, 13500, -89.900, 0.000, -19.200, 0.000, 0.000, -2.900, 0.0, , , , , , 96, , , 33, 33, 33
37.3089395, -119.5776547, 23.600, 11:41:50.954, 16, 0.00, 0.51, 96, 0.800, 1.500, -18.300, 720, 100, 100, 25, 23619, -19193, 5180, 5396, 16, 14, 1529174510.954, 56, 0, 1024, 1024, 1024, 1024, 0, 6, 3911, 3937, 3955, 3927, 3936, 3952, 0, 1, 13600, -89.900, 0.000, -19.200, 0.000, 0.000, -2.900, 0.0, , , , , , 96, , , 33, 33, 33
37.3089395, -119.5776547, 24.000, 11:41:51.053, 15, 0.00, 0.51, 96, 1.000, 1.400, -18.200, 720, 100, 100, 25, 23619, -19193, 5180, 5396, 16, 14, 1529174511.054, 59, 0, 1024, 1024, 1024, 1024, 0, 6, 3911, 3937, 3955, 3927, 3936, 3952, 0, 1, 13699, -89.900, 0.000, -19.200, 0.000, 0.000, -2.900, 0.0, , , , , , 96, , , 33, 33, 33
37.3089396, -119.5776548, 24.300, 11:41:51.154, 15, 0.00, 0.52, 96, 1.100, 1.300, -18.200, 720, 100, 100, 25, 23561, -19121, 5180, 5396, 16, 14, 1529174511.154, 31, 0, 1024, 1024, 1024, 1024, 0, 6, 3894, 3931, 3936, 3912, 3926, 3945, 0, 1, 13800, -89.900, 0.000, -19.200, 0.000, 0.000, -2.900, 0.0, , , , , , 96, , , 33, 33, 33
37.3089396, -119.5776548, 24.600, 11:41:51.254, 16, 0.00, 0.53, 96, 0.900, 1.300, -18.100, 720, 100, 99, 25, 23561, -19121, 5180, 5396, 16, 14, 1529174511.254, 35, 0, 1024, 1024, 1024, 1024, 0, 6, 3894, 3931, 3936, 3912, 3926, 3945, 0, 1, 13900, -89.900, 0.000, -19.200, 0.000, 0.000, -2.900, 0.0, , , , , , 96, , , 33, 33, 33
37.3089396, -119.5776548, 24.900, 11:41:51.354, 16, 0.00, 0.53, 96, 0.800, 1.200, -18.100, 720, 100, 99, 25, 23561, -19121, 5180, 5396, 16, 14, 1529174511.354, 17, 0, 1024, 1024, 1024, 1024, 0, 6, 3894, 3931, 3936, 3912, 3926, 3945, 0, 1, 14000, -89.900, 0.000, -19.200, 0.000, 0.000, -3.000, 0.0, , , , , , 96, , , 33, 33, 33
37.3089396, -119.5776549, 25.200, 11:41:51.454, 15, 0.00, 0.53, 96, 0.800, 1.200, -18.200, 720, 100, 99, 25, 23561, -19121, 5180, 5396, 16, 14, 1529174511.454, 33, 0, 1024, 1024, 1024, 1024, 0, 6, 3894, 3931, 3936, 3912, 3926, 3945, 0, 1, 14100, -89.900, 0.000, -19.200, 0.000, 0.000, -2.900, 0.0, , , , , , 96, , , 33, 33, 33
37.3089396, -119.5776549, 25.500, 11:41:51.553, 15, 0.00, 0.54, 96, 0.700, 1.400, -18.300, 720, 100, 99, 25, 23561, -19121, 5180, 5396, 16, 14, 1529174511.554, 6, 0, 1024, 1024, 1024, 1024, 0, 6, 3894, 3931, 3936, 3912, 3926, 3945, 0, 1, 14199, -89.900, 0.000, -19.200, 0.000, 0.000, -2.900, 0.0, , , , , , 96, , , 33, 33, 33
37.3089397, -119.5776549, 25.800, 11:41:51.654, 15, 0.00, 0.54, 96, 0.700, 1.600, -18.300, 720, 100, 99, 25, 23561, -19121, 5180, 5396, 16, 14, 1529174511.654, 13, 0, 1024, 1024, 1024, 1024, 0, 6, 3894, 3931, 3936, 3912, 3926, 3945, 0, 1, 14300, -89.900, 0.000, -19.200, 0.000, 0.000, -2.900, 0.0, , , , , , 96, , , 33, 33, 33
37.3089397, -119.5776549, 26.100, 11:41:51.754, 15, 0.00, 0.54, 96, 0.700, 1.700, -18.400, 720, 100, 99, 25, 23561, -19121, 5180, 5396, 16, 14, 1529174511.754, 14, 0, 1024, 1024, 1024, 1024, 0, 6, 3894, 3931, 3936, 3912, 3926, 3945, 0, 1, 14400, -89.900, 0.000, -19.200, 0.000, 0.000, -2.900, 0.0, , , , , , 96, , , 33, 33, 33
37.3089396, -119.5776548, 26.700, 11:41:51.854, 15, 0.00, 0.53, 96, 0.500, 1.300, -18.400, 720, 100, 99, 25, 23561, -19121, 5180, 5396, 16, 14, 1529174511.854, 14, 0, 1024, 1024, 1024, 1024, 0, 6, 3894, 3931, 3936, 3912, 3926, 3945, 0, 1, 14500, -89.900, 0.000, -19.200, 0.000, 0.000, -2.900, 0.0, , , , , , 96, , , 33, 33, 33
37.3089396, -119.5776548, 27.000, 11:41:51.954, 15, 0.00, 0.52, 96, 0.400, 1.000, -18.400, 720, 100, 99, 25, 23561, -19121, 5180, 5396, 16, 14, 1529174511.954, 13, 0, 1024, 1024, 1024, 1024, 0, 6, 3894, 3931, 3936, 3912, 3926, 3945, 0, 1, 14600, -90.000, 0.000, -19.200, 0.000, 0.000, -2.900, 0.0, , , , , , 96, , , 33, 33, 33
37.3089396, -119.5776547, 27.300, 11:41:52.054, 15, 0.00, 0.52, 96, 0.300, 1.000, -18.500, 720, 100, 99, 25, 23561, -19121, 5180, 5396, 16, 14, 1529174512.054, 14, 0, 1024, 1024, 1024, 1024, 0, 6, 3894, 3931, 3936, 3912, 3926, 3945, 0, 1, 14700, -89.900, 0.000, -19.200, 0.000, 0.000, -2.900, 0.0, , , , , , 96, , , 33, 33, 33
37.3089396, -119.5776547, 27.300, 11:41:52.154, 15, 0.00, 0.52, 96, 0.300, 1.000, -18.500, 720, 100, 99, 25, 23561, -19121, 5180, 5396, 16, 14, 1529174512.154, 114, 0, 1024, 1024, 1024, 1024, 0, 6, 3894, 3931, 3936, 3912, 3926, 3945, 0, 1, 14799, -89.900, 0.000, -19.200, 0.000, 0.000, -2.900, 0.0, , , , , , 96, , , 33, 33, 33
37.3089395, -119.5776547, 27.600, 11:41:52.254, 15, 0.00, 0.51, 96, 0.200, 1.000, -18.500, 720, 100, 99, 25, 23564, -18794, 5180, 5396, 16, 14, 1529174512.254, 67, 0, 1024, 1024, 1024, 1024, 0, 6, 3901, 3942, 3935, 3917, 3924, 3947, 0, 1, 14900, -89.900, 0.000, -19.200, 0.000, 0.000, -2.900, 0.0, , , , , , 96, , , 33, 33, 33
37.3089395, -119.5776546, 27.900, 11:41:52.353, 15, 0.00, 0.51, 96, 0.000, 0.900, -18.500, 720, 100, 98, 25, 23564, -18794, 5180, 5396, 16, 14, 1529174512.353, 75, 0, 1024, 1024, 1024, 1024, 0, 6, 3901, 3942, 3935, 3917, 3924, 3947, 0, 1, 14999, -90.000, 0.000, -19.200, 0.000, 0.000, -2.900, 0.0, , , , , , 96, , , 33, 33, 33
37.3089395, -119.5776545, 28.200, 11:41:52.454, 15, 0.00, 0.50, 96, -0.100, 0.800, -18.500, 720, 100, 98, 25, 23564, -18794, 5180, 5396, 16, 14, 1529174512.454, 78, 0, 1024, 1024, 1024, 1024, 0, 6, 3901, 3942, 3935, 3917, 3924, 3947, 0, 1, 15100, -90.000, 0.000, -19.200, 0.000, 0.000, -2.900, 0.0, , , , , , 96, , , 33, 33, 33
37.3089395, -119.5776545, 28.500, 11:41:52.554, 15, 0.00, 0.50, 96, -0.200, 0.700, -18.400, 720, 100, 98, 25, 23564, -18794, 5180, 5396, 16, 14, 1529174512.554, 81, 0, 1024, 1024, 1024, 1024, 0, 6, 3901, 3942, 3935, 3917, 3924, 3947, 0, 1, 15199, -90.000, 0.000, -19.200, 0.000, 0.000, -2.900, 0.0, , , , , , 96, , , 33, 33, 33
37.3089395, -119.5776545, 28.800, 11:41:52.653, 15, 0.00, 0.50, 96, -0.100, 0.700, -18.300, 720, 100, 98, 25, 23564, -18794, 5180, 5396, 16, 14, 1529174512.654, 63, 0, 1024, 1024, 1024, 1024, 0, 6, 3901, 3942, 3935, 3917, 3924, 3947, 0, 1, 15299, -90.000, 0.000, -19.200, 0.000, 0.000, -2.900, 0.0, , , , , , 96, , , 33, 33, 33
37.3089395, -119.5776545, 29.100, 11:41:52.754, 15, 0.00, 0.50, 96, 0.500, 0.700, -18.200, 720, 100, 98, 25, 23564, -18794, 5180, 5396, 16, 14, 1529174512.754, 51, 0, 1024, 1024, 1024, 1024, 0, 6, 3901, 3942, 3935, 3917, 3924, 3947, 0, 1, 15399, -90.000, 0.000, -19.200, 0.000, 0.000, -3.000, 0.0, , , , , , 96, , , 33, 33, 33
37.3089395, -119.5776545, 29.400, 11:41:52.854, 16, 0.00, 0.50, 96, 1.000, 0.900, -18.300, 720, 100, 98, 25, 23564, -18794, 5180, 5396, 16, 14, 1529174512.854, 54, 0, 1024, 1024, 1024, 1024, 0, 6, 3901, 3942, 3935, 3917, 3924, 3947, 0, 1, 15500, -89.900, 0.000, -19.200, 0.000, 0.000, -2.900, 0.0, , , , , , 96, , , 33, 33, 33
37.3089394, -119.5776545, 29.700, 11:41:52.954, 16, 0.00, 0.50, 96, 0.600, 1.100, -18.400, 720, 100, 98, 25, 23564, -18794, 5180, 5396, 16, 14, 1529174512.954, 67, 0, 1024, 1024, 1024, 1024, 0, 6, 3901, 3942, 3935, 3917, 3924, 3947, 0, 1, 15599, -89.900, 0.000, -19.200, 0.000, 0.000, -2.800, 0.0, , , , , , 96, , , 33, 33, 33
37.3089394, -119.5776546, 30.000, 11:41:53.054, 17, 0.00, 0.50, 96, 0.400, 1.200, -18.400, 720, 100, 98, 25, 23564, -18794, 5180, 5396, 16, 14, 1529174513.054, 50, 0, 1024, 1024, 1024, 1024, 0, 6, 3901, 3942, 3935, 3917, 3924, 3947, 0, 1, 15700, -89.900, 0.000, -19.200, 0.000, 0.000, -2.900, 0.0, , , , , , 96, , , 33, 33, 33
37.3089394, -119.5776546, 30.300, 11:41:53.154, 17, 0.00, 0.50, 96, 0.700, 1.400, -18.400, 720, 100, 98, 25, 23530, -19055, 5180, 5396, 16, 14, 1529174513.154, 19, 0, 1024, 1024, 1024, 1024, 0, 6, 3891, 3933, 3932, 3909, 3919, 3932, 0, 1, 15799, -89.900, 0.000, -19.200, 0.000, 0.000, -2.900, 0.0, , , , , , 96, , , 33, 33, 33
37.3089394, -119.5776547, 30.600, 11:41:53.254, 17, 0.00, 0.50, 96, 1.200, 1.700, -18.400, 720, 100, 98, 25, 23530, -19055, 5180, 5396, 16, 14, 1529174513.254, 38, 0, 1024, 1024, 1024, 1024, 0, 6, 3891, 3933, 3932, 3909, 3919, 3932, 0, 1, 15899, -89.900, 0.000, -19.200, 0.000, 0.000, -2.900, 0.0, , , , , , 96, , , 33, 33, 33
37.3089393, -119.5776547, 30.900, 11:41:53.354, 17, 0.00, 0.50, 96, 1.500, 1.500, -18.300, 720, 100, 98, 25, 23530, -19055, 5180, 5396, 16, 14, 1529174513.354, 51, 0, 1024, 1024, 1024, 1024, 0, 6, 3891, 3933, 3932, 3909, 3919, 3932, 0, 1, 15999, -89.900, 0.000, -19.200, 0.000, 0.000, -2.900, 0.0, , , , , , 96, , , 33, 33, 33
37.3089393, -119.5776548, 31.200, 11:41:53.454, 17, 0.00, 0.50, 96, 1.400, 1.200, -18.400, 720, 100, 98, 25, 23530, -19055, 5180, 5396, 16, 14, 1529174513.454, 32, 0, 1024, 1024, 1024, 1024, 0, 6, 3891, 3933, 3932, 3909, 3919, 3932, 0, 1, 16099, -90.000, 0.000, -19.200, 0.000, 0.000, -2.900, 0.0, , , , , , 96, , , 33, 33, 33
37.3089393, -119.5776548, 31.500, 11:41:53.554, 17, 0.00, 0.50, 96, 0.800, 1.100, -18.300, 720, 100, 98, 25, 23530, -19055, 5180, 5396, 16, 14, 1529174513.554, 36, 0, 1024, 1024, 1024, 1024, 0, 6, 3891, 3933, 3932, 3909, 3919, 3932, 0, 1, 16199, -90.000, 0.000, -19.200, 0.000, 0.000, -2.900, 0.0, , , , , , 96, , , 33, 33, 33
37.3089392, -119.5776548, 32.100, 11:41:53.654, 17, 0.00, 0.50, 96, 0.300, 0.900, -18.100, 720, 100, 98, 25, 23530, -19055, 5180, 5396, 16, 14, 1529174513.654, 10, 0, 1024, 1024, 1024, 1024, 0, 6, 3891, 3933, 3932, 3909, 3919, 3932, 0, 1, 16299, -89.900, 0.000, -19.200, 0.000, 0.000, -3.000, 0.0, , , , , , 96, , , 33, 33, 33
37.3089392, -119.5776548, 32.100, 11:41:53.753, 17, 0.00, 0.50, 96, 0.300, 0.900, -18.100, 720, 100, 98, 25, 23530, -19055, 5180, 5396, 16, 14, 1529174513.754, 110, 0, 1024, 1024, 1024, 1024, 0, 6, 3891, 3933, 3932, 3909, 3919, 3932, 0, 1, 16399, -89.900, 0.000, -19.200, 0.000, 0.000, -3.000, 0.0, , , , , , 96, , , 33, 33, 33
37.3089392, -119.5776549, 32.700, 11:41:53.854, 16, 0.00, 0.50, 96, 0.800, 1.000, -17.700, 720, 100, 99, 25, 23530, -19055, 5180, 5396, 16, 14, 1529174513.854, 14, 0, 1024, 1024, 1024, 1024, 0, 6, 3891, 3933, 3932, 3909, 3919, 3932, 0, 1, 16500, -89.900, 0.000, -19.200, 0.000, 0.000, -2.900, 0.0, , , , , , 96, , , 33, 33, 33
37.3089391, -119.5776550, 33.000, 11:41:53.953, 17, 0.00, 0.51, 96, 1.400, 1.100, -17.600, 720, 100, 99, 25, 23530, -19055, 5180, 5396, 16, 14, 1529174513.954, 1, 0, 1024, 1024, 1024, 1024, 0, 6, 3891, 3933, 3932, 3909, 3919, 3932, 0, 1, 16599, -89.900, 0.000, -19.200, 0.000, 0.000, -2.900, 0.0, , , , , , 96, , , 33, 33, 33
37.3089391, -119.5776550, 33.300, 11:41:54.054, 17, 0.00, 0.51, 96, 1.800, 0.800, -17.700, 720, 100, 99, 25, 23530, -19055, 5180, 5396, 16, 14, 1529174514.054, 7, 0, 1024, 1024, 1024, 1024, 0, 6, 3891, 3933, 3932, 3909, 3919, 3932, 0, 1, 16699, -90.000, 0.000, -19.200, 0.000, 0.000, -2.900, 0.0, , , , , , 96, , , 33, 33, 33
37.3089391, -119.5776550, 33.300, 11:41:54.153, 17, 0.00, 0.51, 96, 1.800, 0.800, -17.700, 720, 100, 99, 25, 23530, -19055, 5180, 5396, 16, 14, 1529174514.154, 107, 0, 1024, 1024, 1024, 1024, 0, 6, 3891, 3933, 3932, 3909, 3919, 3932, 0, 1, 16799, -90.000, 0.000, -19.200, 0.000, 0.000, -2.900, 0.0, , , , , , 96, , , 33, 33, 33
37.3089391, -119.5776551, 33.600, 11:41:54.254, 17, 0.00, 0.51, 96, 1.600, 0.700, -17.900, 720, 100, 99, 25, 23464, -19425, 5180, 5396, 16, 14, 1529174514.254, 86, 0, 1024, 1024, 1024, 1024, 0, 6, 3880, 3917, 3921, 3898, 3914, 3926, 0, 1, 16899, -90.000, 0.000, -19.200, 0.000, 0.000, -2.800, 0.0, , , , , , 96, , , 33, 33, 33
37.3089391, -119.5776551, 33.900, 11:41:54.354, 17, 0.00, 0.52, 96, 1.600, 1.100, -18.200, 720, 100, 99, 25, 23464, -19425, 5180, 5396, 16, 14, 1529174514.354, 67, 0, 1024, 1024, 1024, 1024, 0, 6, 3880, 3917, 3921, 3898, 3914, 3926, 0, 1, 16999, -90.000, 0.000, -19.200, 0.000, 0.000, -2.900, 0.0, , , , , , 96, , , 33, 33, 33
37.3089391, -119.5776552, 34.200, 11:41:54.453, 17, 0.00, 0.52, 96, 1.500, 1.500, -18.400, 720, 100, 99, 25, 23464, -19425, 5180, 5396, 16, 14, 1529174514.454, 76, 0, 1024, 1024, 1024, 1024, 0, 6, 3880, 3917, 3921, 3898, 3914, 3926, 0, 1, 17099, -89.900, 0.000, -19.200, 0.000, 0.000, -2.900, 0.0, , , , , , 96, , , 33, 33, 33
37.3089392, -119.5776552, 34.500, 11:41:54.553, 17, 0.00, 0.52, 96, 1.200, 2.000, -18.600, 720, 100, 99, 25, 23464, -19425, 5180, 5396, 16, 14, 1529174514.553, 65, 0, 1024, 1024, 1024, 1024, 0, 6, 3880, 3917, 3921, 3898, 3914, 3926, 0, 1, 17199, -89.900, 0.000, -19.200, 0.000, 0.000, -2.900, 0.0, , , , , , 96, , , 33, 33, 33
37.3089392, -119.5776552, 34.800, 11:41:54.653, 17, 0.00, 0.53, 96, 1.100, 2.100, -18.800, 720, 100, 99, 25, 23464, -19425, 5180, 5396, 16, 14, 1529174514.654, 61, 0, 1024, 1024, 1024, 1024, 0, 6, 3880, 3917, 3921, 3898, 3914, 3926, 0, 1, 17299, -89.900, 0.000, -19.200, 0.000, 0.000, -2.900, 0.0, , , , , , 96, , , 33, 33, 33
37.3089392, -119.5776553, 35.100, 11:41:54.753, 17, 0.00, 0.53, 96, 1.300, 2.400, -18.900, 720, 100, 99, 25, 23464, -19425, 5180, 5396, 16, 14, 1529174514.754, 63, 0, 1024, 1024, 1024, 1024, 0, 6, 3880, 3917, 3921, 3898, 3914, 3926, 0, 1, 17399, -89.900, 0.000, -19.200, 0.000, 0.000, -2.800, 0.0, , , , , , 96, , , 33, 33, 33
37.3089393, -119.5776553, 35.400, 11:41:54.854, 17, 0.00, 0.54, 96, 1.300, 2.800, -18.800, 720, 100, 99, 25, 23464, -19425, 5180, 5396, 16, 14, 1529174514.854, 55, 0, 1024, 1024, 1024, 1024, 0, 6, 3880, 3917, 3921, 3898, 3914, 3926, 0, 1, 17499, -89.900, 0.000, -19.200, 0.000, 0.000, -2.900, 0.0, , , , , , 96, , , 33, 33, 33
37.3089393, -119.5776553, 35.700, 11:41:54.953, 17, 0.00, 0.54, 96, 1.100, 2.800, -18.700, 720, 100, 99, 25, 23464, -19425, 5180, 5396, 16, 14, 1529174514.954, 31, 0, 1024, 1024, 1024, 1024, 0, 6, 3880, 3917, 3921, 3898, 3914, 3926, 0, 1, 17599, -89.900, 0.000, -19.200, 0.000, 0.000, -2.900, 0.0, , , , , , 96, , , 33, 33, 33
37.3089393, -119.5776553, 36.000, 11:41:55.053, 17, 0.00, 0.54, 96, 1.000, 2.900, -18.500, 720, 100, 99, 25, 23464, -19425, 5180, 5396, 16, 14, 1529174515.054, 46, 0, 1024, 1024, 1024, 1024, 0, 6, 3880, 3917, 3921, 3898, 3914, 3926, 0, 1, 17699, -89.900, 0.000, -19.200, 0.000, 0.000, -2.800, 0.0, , , , , , 96, , , 33, 33, 33
37.3089393, -119.5776553, 36.300, 11:41:55.153, 17, 0.00, 0.54, 96, 1.100, 2.600, -18.400, 720, 100, 99, 25, 23494, -18842, 5180, 5396, 16, 14, 1529174515.154, 49, 0, 1024, 1024, 1024, 1024, 0, 6, 3880, 3917, 3921, 3898, 3914, 3926, 0, 1, 17799, -90.000, 0.000, -19.200, 0.000, 0.000, -2.900, 0.0, , , , , , 96, , , 33, 33, 33
37.3089393, -119.5776553, 36.600, 11:41:55.254, 17, 0.00, 0.54, 96, 1.100, 2.000, -18.200, 720, 100, 100, 25, 23494, -18842, 5180, 5396, 16, 14, 1529174515.254, 42, 0, 1024, 1024, 1024, 1024, 0, 6, 3880, 3917, 3921, 3898, 3914, 3926, 0, 1, 17899, -90.000, 0.000, -19.200, 0.000, 0.000, -2.900, 0.0, , , , , , 96, , , 33, 33, 33
37.3089393, -119.5776553, 36.900, 11:41:55.353, 17, 0.00, 0.54, 96, 1.200, 1.600, -18.100, 720, 100, 100, 25, 23494, -18842, 5180, 5396, 16, 14, 1529174515.354, 21, 0, 1024, 1024, 1024, 1024, 0, 6, 3880, 3917, 3921, 3898, 3914, 3926, 0, 1, 17999, -90.000, 0.000, -19.200, 0.000, 0.000, -2.900, 0.0, , , , , , 96, , , 33, 33, 33
37.3089392, -119.5776553, 37.200, 11:41:55.453, 17, 0.00, 0.54, 96, 1.500, 1.500, -18.000, 720, 100, 100, 25, 23494, -18842, 5180, 5396, 16, 14, 1529174515.453, 7, 0, 1024, 1024, 1024, 1024, 0, 6, 3880, 3917, 3921, 3898, 3914, 3926, 0, 1, 18099, -90.000, 0.000, -19.200, 0.000, 0.000, -3.000, 0.0, , , , , , 96, , , 33, 33, 33
37.3089392, -119.5776553, 37.900, 11:41:55.553, 17, 0.00, 0.54, 96, 1.500, 2.000, -17.700, 720, 100, 100, 25, 23494, -18842, 5180, 5396, 16, 14, 1529174515.553, 6, 0, 1024, 1024, 1024, 1024, 0, 6, 3880, 3917, 3921, 3898, 3914, 3926, 0, 1, 18199, -89.900, 0.000, -19.200, 0.000, 0.000, -3.000, 0.0, , , , , , 96, , , 33, 33, 33
37.3089392, -119.5776553, 38.100, 11:41:55.653, 17, 0.00, 0.53, 96, 1.000, 2.400, -17.700, 720, 100, 100, 25, 23494, -18842, 5180, 5396, 16, 14, 1529174515.654, 12, 0, 1024, 1024, 1024, 1024, 0, 6, 3887, 3922, 3928, 3899, 3913, 3938, 0, 1, 18299, -89.900, 0.000, -19.200, 0.000, 0.000, -2.800, 0.0, , , , , , 96, , , 33, 33, 33
37.3089393, -119.5776552, 38.400, 11:41:55.753, 17, 0.10, 0.53, 96, 0.500, 2.300, -17.900, 720, 100, 100, 25, 23494, -18842, 5180, 5396, 16, 14, 1529174515.754, 3, 0, 1024, 1024, 1024, 1024, 0, 6, 3887, 3922, 3928, 3899, 3913, 3938, 0, 1, 18399, -89.900, 0.000, -19.200, 0.000, 0.100, -2.900, 0.0, , , , , , 96, , , 33, 33, 33
37.3089393, -119.5776552, 38.400, 11:41:55.854, 17, 0.10, 0.53, 96, 0.500, 2.300, -17.900, 720, 100, 100, 25, 23494, -18842, 5180, 5396, 16, 14, 1529174515.854, 103, 0, 1024, 1024, 1024, 1024, 0, 6, 3887, 3922, 3928, 3899, 3913, 3938, 0, 1, 18500, -89.900, 0.000, -19.200, 0.000, 0.100, -2.900, 0.0, , , , , , 96, , , 33, 33, 33
37.3089393, -119.5776551, 38.700, 11:41:55.953, 17, 0.10, 0.53, 96, 0.000, 2.300, -18.200, 720, 100, 100, 25, 23494, -18842, 5180, 5396, 16, 14, 1529174515.954, 92, 0, 1024, 1024, 1024, 1024, 0, 6, 3887, 3922, 3928, 3899, 3913, 3938, 0, 1, 18600, -89.900, 0.000, -19.200, 0.000, 0.100, -2.900, 0.0, , , , , , 96, , , 33, 33, 33
37.3089394, -119.5776550, 39.300, 11:41:56.055, 17, 0.10, 0.52, 96, -0.400, 2.600, -18.900, 720, 100, 100, 25, 23494, -18842, 5180, 5396, 16, 14, 1529174516.055, 1, 0, 1024, 1024, 1024, 1024, 0, 6, 3887, 3922, 3928, 3899, 3913, 3938, 0, 1, 18701, -89.900, 0.000, -19.200, 0.000, 0.100, -2.900, 0.0, , , , , , 96, , , 33, 33, 33
37.3089394, -119.5776550, 39.300, 11:41:56.153, 17, 0.10, 0.52, 96, -0.400, 2.600, -18.900, 720, 100, 100, 25, 23494, -18842, 5180, 5396, 16, 14, 1529174516.154, 100, 0, 1024, 1024, 1024, 1024, 0, 6, 3887, 3922, 3928, 3899, 3913, 3938, 0, 1, 18799, -89.900, 0.000, -19.200, 0.000, 0.100, -2.900, 0.0, , , , , , 96, , , 33, 33, 33
37.3089394, -119.5776549, 39.600, 11:41:56.253, 17, 0.10, 0.52, 96, -0.600, 2.800, -19.300, 720, 100, 100, 25, 23494, -18842, 5180, 5396, 16, 14, 1529174516.254, 78, 0, 1024, 1024, 1024, 1024, 0, 6, 3887, 3922, 3928, 3899, 3913, 3938, 0, 1, 18899, -89.900, 0.000, -19.200, 0.000, 0.100, -2.900, 0.0, , , , , , 96, , , 33, 33, 33
37.3089394, -119.5776548, 39.900, 11:41:56.353, 17, 0.10, 0.51, 96, -0.900, 2.900, -19.400, 720, 100, 99, 25, 23494, -18842, 5180, 5396, 16, 14, 1529174516.354, 74, 0, 1024, 1024, 1024, 1024, 0, 6, 3887, 3922, 3928, 3899, 3913, 3938, 0, 1, 18999, -89.900, 0.000, -19.200, 0.000, 0.100, -2.800, 0.0, , , , , , 96, , , 33, 33, 33
37.3089395, -119.5776547, 40.200, 11:41:56.453, 17, 0.10, 0.51, 96, -1.200, 2.900, -19.400, 720, 100, 99, 25, 23494, -18842, 5180, 5396, 16, 14, 1529174516.454, 72, 0, 1024, 1024, 1024, 1024, 0, 6, 3887, 3922, 3928, 3899, 3913, 3938, 0, 1, 19099, -89.900, 0.000, -19.200, 0.000, 0.100, -2.900, 0.0, , , , , , 96, , , 33, 33, 33
37.3089395, -119.5776546, 40.500, 11:41:56.553, 17, 0.10, 0.50, 96, -1.200, 2.700, -19.200, 720, 100, 99, 25, 23494, -18842, 5180, 5396, 16, 14, 1529174516.554, 75, 0, 1024, 1024, 1024, 1024, 0, 6, 3887, 3922, 3928, 3899, 3913, 3938, 0, 1, 19199, -90.000, 0.000, -19.200, 0.000, 0.100, -2.900, 0.0, , , , , , 96, , , 33, 33, 33
37.3089395, -119.5776545, 40.800, 11:41:56.653, 17, 0.10, 0.50, 96, -1.100, 2.500, -19.000, 720, 100, 99, 25, 23466, -18620, 5180, 5396, 16, 14, 1529174516.654, 69, 0, 1024, 1024, 1024, 1024, 0, 6, 3887, 3922, 3928, 3899, 3913, 3938, 0, 1, 19299, -89.900, 0.000, -19.200, 0.000, 0.100, -2.900, 0.0, , , , , , 96, , , 33, 33, 33
37.3089395, -119.5776544, 41.100, 11:41:56.753, 17, 0.10, 0.49, 96, -1.100, 2.300, -18.700, 720, 100, 99, 25, 23466, -18620, 5180, 5396, 16, 14, 1529174516.754, 61, 0, 1024, 1024, 1024, 1024, 0, 6, 3890, 3914, 3939, 3905, 3923, 3946, 0, 1, 19399, -90.000, 0.000, -19.200, 0.000, 0.100, -2.900, 0.0, , , , , , 96, , , 33, 33, 33
37.3089395, -119.5776543, 41.300, 11:41:56.854, 17, 0.10, 0.49, 96, -1.300, 2.200, -18.400, 720, 100, 99, 25, 23466, -18620, 5180, 5396, 16, 14, 1529174516.854, 55, 0, 1024, 1024, 1024, 1024, 0, 6, 3890, 3914, 3939, 3905, 3923, 3946, 0, 1, 19500, -90.000, 0.000, -19.200, 0.000, 0.100, -2.800, 0.0, , , , , , 96, , , 33, 33, 33
37.3089395, -119.5776542, 41.600, 11:41:56.953, 17, 0.00, 0.48, 96, -1.400, 2.100, -18.200, 720, 100, 99, 25, 23466, -18620, 5180, 5396, 16, 14, 1529174516.954, 44, 0, 1024, 1024, 1024, 1024, 0, 6, 3890, 3914, 3939, 3905, 3923, 3946, 0, 1, 19600, -89.900, 0.000, -19.200, 0.000, 0.000, -2.800, 0.0, , , , , , 96, , , 33, 33, 33
37.3089395, -119.5776541, 41.900, 11:41:57.053, 17, 0.00, 0.47, 96, -1.300, 2.200, -18.100, 720, 100, 99, 25, 23466, -18620, 5180, 5396, 16, 14, 1529174517.054, 63, 0, 1024, 1024, 1024, 1024, 0, 6, 3890, 3914, 3939, 3905, 3923, 3946, 0, 1, 19699, -89.900, 0.000, -19.200, 0.000, 0.000, -2.800, 0.0, , , , , , 96, , , 33, 33, 33
37.3089395, -119.5776541, 42.200, 11:41:57.153, 17, 0.00, 0.47, 96, -1.400, 2.400, -18.100, 720, 100, 99, 25, 23466, -18620, 5180, 5396, 16, 14, 1529174517.154, 31, 0, 1024, 1024, 1024, 1024, 0, 6, 3890, 3914, 3939, 3905, 3923, 3946, 0, 1, 19799, -89.900, 0.000, -19.200, 0.000, 0.000, -2.900, 0.0, , , , , , 96, , , 33, 33, 33
37.3089395, -119.5776541, 42.500, 11:41:57.253, 17, 0.00, 0.47, 96, -1.400, 2.400, -18.200, 720, 100, 99, 25, 23466, -18620, 5180, 5396, 16, 14, 1529174517.254, 43, 0, 1024, 1024, 1024, 1024, 0, 6, 3890, 3914, 3939, 3905, 3923, 3946, 0, 1, 19899, -89.900, 0.000, -19.200, 0.000, 0.000, -2.900, 0.0, , , , , , 96, , , 33, 33, 33
37.3089395, -119.5776540, 42.800, 11:41:57.353, 17, 0.00, 0.47, 96, -1.400, 2.400, -18.400, 720, 100, 99, 25, 23466, -18620, 5180, 5396, 16, 14, 1529174517.353, 23, 0, 1024, 1024, 1024, 1024, 0, 6, 3890, 3914, 3939, 3905, 3923, 3946, 0, 1, 19999, -89.900, 0.000, -19.200, 0.000, 0.000, -2.900, 0.0, , , , , , 96, , , 33, 33, 33
37.3089395, -119.5776540, 42.800, 11:41:57.453, 17, 0.00, 0.47, 96, -1.400, 2.400, -18.400, 720, 100, 99, 25, 23466, -18620, 5180, 5396, 16, 14, 1529174517.453, 123, 0, 1024, 1024, 1024, 1024, 0, 6, 3890, 3914, 3939, 3905, 3923, 3946, 0, 1, 20099, -89.900, 0.000, -19.200, 0.000, 0.000, -2.900, 0.0, , , , , , 96, , , 33, 33, 33
37.3089395, -119.5776539, 43.400, 11:41:57.553, 17, 0.00, 0.47, 96, -1.300, 2.400, -18.800, 720, 100, 99, 25, 23466, -18620, 5180, 5396, 16, 14, 1529174517.554, 26, 0, 1024, 1024, 1024, 1024, 0, 6, 3890, 3914, 3939, 3905, 3923, 3946, 0, 1, 20199, -89.900, 0.000, -19.200, 0.000, 0.000, -2.900, 0.0, , , , , , 96, , , 33, 33, 33
37.3089395, -119.5776539, 43.700, 11:41:57.653, 17, 0.00, 0.46, 96, -1.200, 2.100, -18.800, 720, 100, 99, 25, 23506, -18403, 5180, 5396, 16, 14, 1529174517.653, 17, 0, 1024, 1024, 1024, 1024, 0, 6, 3890, 3926, 3927, 3906, 3922, 3931, 0, 1, 20299, -90.000, 0.000, -19.200, 0.000, 0.000, -2.800, 0.0, , , , , , 96, , , 33, 33, 33
37.3089395, -119.5776539, 44.000, 11:41:57.753, 17, 0.00, 0.46, 96, -1.000, 2.100, -18.800, 720, 100, 98, 25, 23506, -18403, 5180, 5396, 16, 14, 1529174517.754, 26, 0, 1024, 1024, 1024, 1024, 0, 6, 3890, 3926, 3927, 3906, 3922, 3931, 0, 1, 20399, -89.900, 0.000, -19.200, 0.000, 0.000, -2.800, 0.0, , , , , , 96, , , 33, 33, 33
37.3089395, -119.5776539, 44.200, 11:41:57.853, 17, 0.00, 0.46, 96, -0.900, 2.300, -18.700, 720, 100, 98, 25, 23506, -18403, 5180, 5396, 16, 14, 1529174517.854, 31, 0, 1024, 1024, 1024, 1024, 0, 6, 3890, 3926, 3927, 3906, 3922, 3931, 0, 1, 20499, -89.900, 0.000, -19.200, 0.000, 0.000, -2.800, 0.0, , , , , , 96, , , 33, 33, 33
37.3089395, -119.5776538, 44.500, 11:41:57.953, 17, 0.00, 0.46, 96, -0.900, 2.400, -18.700, 720, 100, 98, 25, 23506, -18403, 5180, 5396, 16, 14, 1529174517.954, 24, 0, 1024, 1024, 1024, 1024, 0, 6, 3890, 3926, 3927, 3906, 3922, 3931, 0, 1, 20599, -89.900, 0.000, -19.200, 0.000, 0.000, -2.800, 0.0, , , , , , 96, , , 33, 33, 33
37.3089395, -119.5776537, 45.100, 11:41:58.053, 17, 0.00, 0.45, 96, -1.000, 2.500, -18.400, 720, 100, 98, 25, 23506, -18403, 5180, 5396, 16, 14, 1529174518.053, 13, 0, 1024, 1024, 1024, 1024, 0, 6, 3890, 3926, 3927, 3906, 3922, 3931, 0, 1, 20699, -89.900, 0.000, -19.200, 0.000, 0.000, -2.900, 0.0, , , , , , 96, , , 33, 33, 33
37.3089395, -119.5776537, 45.100, 11:41:58.153, 17, 0.00, 0.45, 96, -1.000, 2.500, -18.400, 720, 100, 98, 25, 23506, -18403, 5180, 5396, 16, 14, 1529174518.153, 113, 0, 1024, 1024, 1024, 1024, 0, 6, 3890, 3926, 3927, 3906, 3922, 3931, 0, 1, 20799, -89.900, 0.000, -19.200, 0.000, 0.000, -2.900, 0.0, , , , , , 96, , , 33, 33, 33
37.3089395, -119.5776537, 45.400, 11:41:58.253, 17, 0.00, 0.45, 96, -1.100, 2.400, -18.200, 720, 100, 98, 25, 23506, -18403, 5180, 5396, 16, 14, 1529174518.253, 1, 0, 1024, 1024, 1024, 1024, 0, 6, 3890, 3926, 3927, 3906, 3922, 3931, 0, 1, 20899, -89.900, 0.000, -19.200, 0.000, 0.000, -2.900, 0.0, , , , , , 96, , , 33, 33, 33
