Latitude, Longitude, Altitude (m), Time, Sats, Speed (m/s), Range (m), Battery (%), Roll (deg), Pitch (deg), Yaw (deg), Images, HD Signal (%), RC Signal (%), Battery Temp (C), Battery Voltage (mV), Battery Current (mA), Battery Energy (mAh), Battery Capacity (mAh), Battery Discharges, flyState, timestamp (Unix), LastUpdate (ms), radioChannel, Rc_elevator, Rc_aileron, Rc_throttle, Rc_rudder, Rc_gyro, Dronetype, Battery_Cell1 (mV), Battery_Cell2 (mV), Battery_Cell3 (mV), Battery_Cell4 (mV), Battery_Cell5 (mV), Battery_Cell6 (mV), Video, isFlying, elapsedTime (ms), gimbalPitch (deg), gimbalRoll (deg), gimbalYaw (deg), VelocityX (m/s), VelocityY (m/s), VelocityZ (m/s), GroundSmear (cm), App Version, Aircraft Name, Aircraft Firmware, Aircraft Serial Number, Battery Serial Number, Battery Lifetime (%), App_Tip, App_Warning, CurrentFlightStartingIndex, CurrentFlightLastVisitedWaypoint, PreviousFlightEndingWaypointIndex
37.3089141, -119.5776373, 0.000, 11:04:51.212, 13, 0.00, 0.12, 98, 0.300, 1.400, 166.900, 2, 100, 100, 22, 25707, -3038, 5213, 5320, 20, 11, 1529172291.212, 53, 0, 1024, 1024, 1024, 1024, 0, 6, 4287, 4282, 4305, 4266, 4279, 4269, 0, 1, 2937, -89.900, 0.000, 164.300, 0.000, 0.000, 0.000, 0.0, MapPilot_2.8.1_04242018, Dendroctonus I, 1.3.1.00, 041DDC1887, 1058171200162, 95, DJI_0001.jpg, Starting Mission from Lat/Long: 37.30897/-119.57762 Camera: Zenmuse X3 - Overlap: 90/90 - Active Connection: No, 0, 0, 0
37.3089141, -119.5776374, 0.000, 11:04:51.275, 13, 0.00, 0.12, 98, 0.000, 1.000, 167.400, 2, 100, 100, 22, 25707, -3038, 5213, 5320, 20, 11, 1529172291.275, 3, 0, 1024, 1024, 1024, 1024, 0, 6, 4287, 4282, 4305, 4266, 4279, 4269, 0, 1, 3000, -89.900, 0.000, 164.400, 0.000, 0.000, -0.200, 0.0, , , , , , 95, , , 0, 0, 0
37.3089141, -119.5776374, 0.000, 11:04:51.375, 13, 0.10, 0.12, 98, -0.200, 0.300, 167.500, 2, 100, 100, 22, 25707, -3038, 5213, 5320, 20, 11, 1529172291.375, 3, 0, 1024, 1024, 1024, 1024, 0, 6, 4287, 4282, 4305, 4266, 4279, 4269, 0, 1, 3100, -90.000, 0.000, 164.400, 0.100, 0.000, -0.300, 0.1, , , , , , 95, , , 0, 0, 0
37.3089141, -119.5776374, 0.000, 11:04:51.475, 13, 0.10, 0.12, 98, -0.200, 0.300, 167.500, 2, 100, 100, 22, 25707, -3038, 5213, 5320, 20, 11, 1529172291.475, 103, 0, 1024, 1024, 1024, 1024, 0, 6, 4287, 4282, 4305, 4266, 4279, 4269, 0, 1, 3200, -90.000, 0.000, 164.400, 0.100, 0.000, -0.300, 0.1, , , , , , 95, , , 0, 0, 0
37.3089143, -119.5776375, 0.000, 11:04:51.574, 13, 0.10, 0.11, 98, -0.100, -1.000, 167.200, 2, 100, 100, 22, 25707, -3038, 5213, 5320, 20, 11, 1529172291.574, 2, 0, 1024, 1024, 1024, 1024, 0, 6, 4287, 4282, 4305, 4266, 4279, 4269, 0, 1, 3300, -89.900, 0.000, 164.600, 0.100, 0.000, -0.400, 0.0, , , , , , 95, , , 0, 0, 0
37.3089143, -119.5776375, 0.000, 11:04:51.675, 13, 0.10, 0.11, 98, -0.100, -1.000, 167.200, 2, 100, 100, 22, 25707, -3038, 5213, 5320, 20, 11, 1529172291.675, 102, 0, 1024, 1024, 1024, 1024, 0, 6, 4287, 4282, 4305, 4266, 4279, 4269, 0, 1, 3400, -89.900, 0.000, 164.600, 0.100, 0.000, -0.400, 0.0, , , , , , 95, , , 0, 0, 0
37.3089143, -119.5776375, 0.100, 11:04:51.775, 13, 0.00, 0.11, 98, 0.100, -1.000, 167.000, 2, 100, 100, 22, 25707, -3038, 5213, 5320, 20, 11, 1529172291.775, 94, 0, 1024, 1024, 1024, 1024, 0, 6, 4287, 4282, 4305, 4266, 4279, 4269, 0, 1, 3500, -89.900, 0.000, 164.700, 0.000, 0.000, -0.400, 0.0, , , , , , 95, , , 0, 0, 0
37.3089144, -119.5776376, 0.100, 11:04:51.875, 13, 0.00, 0.10, 98, 0.400, -0.800, 166.800, 2, 100, 100, 22, 25707, -3038, 5213, 5320, 20, 11, 1529172291.875, 96, 0, 1024, 1024, 1024, 1024, 0, 6, 4287, 4282, 4305, 4266, 4279, 4269, 0, 1, 3600, -89.900, 0.000, 164.700, 0.000, 0.000, -0.400, 0.0, , , , , , 95, , , 0, 0, 0
37.3089144, -119.5776377, 0.200, 11:04:51.975, 13, 0.00, 0.11, 98, 0.700, -0.900, 166.700, 2, 100, 100, 22, 25707, -3038, 5213, 5320, 20, 11, 1529172291.975, 89, 0, 1024, 1024, 1024, 1024, 0, 6, 4287, 4282, 4305, 4266, 4279, 4269, 0, 1, 3700, -89.900, 0.000, 164.700, 0.000, 0.000, -0.400, 0.0, , , , , , 95, , , 0, 0, 0
37.3089145, -119.5776378, 0.200, 11:04:52.075, 13, 0.00, 0.12, 98, 0.500, -0.800, 166.600, 2, 100, 100, 22, 25707, -3038, 5213, 5320, 20, 11, 1529172292.075, 80, 0, 1024, 1024, 1024, 1024, 0, 6, 4287, 4282, 4305, 4266, 4279, 4269, 0, 1, 3800, -89.900, 0.000, 164.800, 0.000, 0.000, -0.400, 0.0, , , , , , 95, , , 0, 0, 0
37.3089145, -119.5776379, 0.300, 11:04:52.175, 13, 0.00, 0.13, 98, 0.300, -0.800, 166.600, 2, 100, 100, 22, 25707, -3038, 5213, 5320, 20, 11, 1529172292.175, 69, 0, 1024, 1024, 1024, 1024, 0, 6, 4287, 4282, 4305, 4266, 4279, 4269, 0, 1, 3900, -90.000, 0.000, 164.800, 0.000, 0.000, -0.400, 0.0, , , , , , 95, , , 0, 0, 0
37.3089145, -119.5776381, 0.300, 11:04:52.275, 13, 0.00, 0.14, 98, -0.100, -0.800, 166.600, 2, 100, 100, 22, 24977, -11602, 5213, 5320, 20, 11, 1529172292.275, 74, 0, 1024, 1024, 1024, 1024, 0, 6, 4154, 4176, 4139, 4118, 4105, 4124, 0, 1, 4000, -89.900, 0.000, 164.900, 0.000, 0.000, -0.400, 0.0, , , , , , 95, , , 0, 0, 0
37.3089145, -119.5776382, 0.400, 11:04:52.375, 13, 0.00, 0.15, 98, -0.500, -0.500, 166.500, 2, 100, 100, 22, 24977, -11602, 5213, 5320, 20, 11, 1529172292.375, 76, 0, 1024, 1024, 1024, 1024, 0, 6, 4154, 4176, 4139, 4118, 4105, 4124, 0, 1, 4100, -89.900, 0.000, 164.900, 0.000, 0.000, -0.400, 0.0, , , , , , 95, , , 0, 0, 0
37.3089145, -119.5776383, 0.400, 11:04:52.475, 13, 0.00, 0.16, 98, -0.800, -0.300, 166.500, 2, 100, 100, 22, 24977, -11602, 5213, 5320, 20, 11, 1529172292.475, 54, 0, 1024, 1024, 1024, 1024, 0, 6, 4154, 4176, 4139, 4118, 4105, 4124, 0, 1, 4200, -89.900, 0.000, 165.000, 0.000, 0.000, -0.400, 0.0, , , , , , 95, , , 0, 0, 0
37.3089146, -119.5776384, 0.500, 11:04:52.575, 13, 0.00, 0.16, 98, -0.900, -0.200, 166.500, 2, 100, 100, 22, 24977, -11602, 5213, 5320, 20, 11, 1529172292.575, 57, 0, 1024, 1024, 1024, 1024, 0, 6, 4154, 4176, 4139, 4118, 4105, 4124, 0, 1, 4300, -89.900, 0.000, 165.000, 0.000, 0.000, -0.400, 0.0, , , , , , 95, , , 0, 0, 0
37.3089146, -119.5776385, 0.500, 11:04:52.675, 11, 0.00, 0.17, 98, -1.000, -0.300, 166.500, 2, 100, 100, 22, 24977, -11602, 5213, 5320, 20, 11, 1529172292.675, 48, 0, 1024, 1024, 1024, 1024, 0, 6, 4154, 4176, 4139, 4118, 4105, 4124, 0, 1, 4400, -89.900, 0.000, 165.000, 0.000, 0.000, -0.500, 0.0, , , , , , 95, , , 0, 0, 0
37.3089146, -119.5776386, 0.600, 11:04:52.775, 12, 0.00, 0.18, 98, -1.100, -0.500, 166.600, 2, 100, 100, 22, 24977, -11602, 5213, 5320, 20, 11, 1529172292.775, 38, 0, 1024, 1024, 1024, 1024, 0, 6, 4154, 4176, 4139, 4118, 4105, 4124, 0, 1, 4500, -89.900, 0.000, 165.100, 0.000, 0.000, -0.400, 0.0, , , , , , 95, , , 0, 0, 0
37.3089146, -119.5776386, 0.600, 11:04:52.875, 12, 0.00, 0.18, 98, -1.100, -0.500, 166.600, 2, 100, 100, 22, 24977, -11602, 5213, 5320, 20, 11, 1529172292.875, 138, 0, 1024, 1024, 1024, 1024, 0, 6, 4154, 4176, 4139, 4118, 4105, 4124, 0, 1, 4600, -90.000, 0.000, 165.100, 0.000, 0.000, -0.400, 0.0, , , , , , 95, , , 0, 0, 0
37.3089146, -119.5776387, 0.700, 11:04:52.975, 12, 0.00, 0.19, 98, -1.100, -0.500, 166.700, 2, 100, 100, 22, 24977, -11602, 5213, 5320, 20, 11, 1529172292.975, 45, 0, 1024, 1024, 1024, 1024, 0, 6, 4154, 4176, 4139, 4118, 4105, 4124, 0, 1, 4700, -89.900, 0.000, 165.100, 0.000, 0.000, -0.400, 0.0, , , , , , 95, , , 0, 0, 0
37.3089146, -119.5776388, 0.700, 11:04:53.075, 12, 0.00, 0.19, 98, -0.900, -0.600, 167.000, 2, 100, 100, 22, 24977, -11602, 5213, 5320, 20, 11, 1529172293.075, 46, 0, 1024, 1024, 1024, 1024, 0, 6, 4154, 4176, 4139, 4118, 4105, 4124, 0, 1, 4800, -89.900, 0.000, 165.100, 0.000, 0.000, -0.400, 0.0, , , , , , 95, , , 0, 0, 0
37.3089146, -119.5776388, 0.700, 11:04:53.175, 12, 0.00, 0.19, 98, -0.900, -0.600, 167.000, 2, 100, 100, 22, 24977, -11602, 5213, 5320, 20, 11, 1529172293.175, 146, 0, 1024, 1024, 1024, 1024, 0, 6, 4154, 4176, 4139, 4118, 4105, 4124, 0, 1, 4900, -90.000, 0.000, 165.200, 0.000, 0.000, -0.400, 0.0, , , , , , 95, , , 0, 0, 0
37.3089147, -119.5776387, 0.800, 11:04:53.275, 12, 0.00, 0.19, 98, -0.700, -0.700, 167.100, 2, 100, 100, 22, 24246, -15734, 5213, 5320, 20, 11, 1529172293.275, 40, 0, 1024, 1024, 1024, 1024, 0, 6, 4023, 4057, 4038, 4047, 4032, 4029, 0, 1, 5000, -89.900, 0.000, 165.200, 0.000, 0.000, -0.400, 0.0, , , , , , 95, , , 0, 0, 0
37.3089146, -119.5776387, 0.900, 11:04:53.375, 11, 0.00, 0.18, 98, -0.600, -0.700, 167.000, 2, 100, 100, 22, 24246, -15734, 5213, 5320, 20, 6, 1529172293.375, 36, 0, 1024, 1024, 1024, 1024, 0, 6, 4023, 4057, 4038, 4047, 4032, 4029, 0, 1, 5100, -89.900, 0.000, 165.200, 0.000, 0.000, -0.400, 0.0, , , , , , 95, , , 0, 0, 0
37.3089146, -119.5776386, 0.900, 11:04:53.475, 11, 0.00, 0.18, 98, -0.500, -0.600, 166.900, 2, 100, 100, 22, 24246, -15734, 5213, 5320, 20, 14, 1529172293.475, 26, 0, 1024, 1024, 1024, 1024, 0, 6, 4023, 4057, 4038, 4047, 4032, 4029, 0, 1, 5200, -89.900, 0.000, 165.300, 0.000, 0.000, -0.400, 0.0, , , , , , 95, , , 0, 0, 0
37.3089147, -119.5776386, 1.000, 11:04:53.575, 11, 0.00, 0.17, 98, 0.000, -0.400, 166.800, 2, 100, 100, 22, 24246, -15734, 5213, 5320, 20, 14, 1529172293.575, 23, 0, 1024, 1024, 1024, 1024, 0, 6, 4023, 4057, 4038, 4047, 4032, 4029, 0, 1, 5300, -89.900, 0.000, 165.300, 0.000, 0.000, -0.300, 0.0, , , , , , 95, , , 0, 0, 0
37.3089147, -119.5776386, 1.000, 11:04:53.675, 11, 0.00, 0.17, 98, 0.400, -0.200, 166.800, 2, 100, 100, 22, 24246, -15734, 5213, 5320, 20, 14, 1529172293.675, 26, 0, 1024, 1024, 1024, 1024, 0, 6, 4023, 4057, 4038, 4047, 4032, 4029, 0, 1, 5400, -89.900, 0.000, 165.300, 0.000, 0.000, -0.200, 0.0, , , , , , 95, , , 0, 0, 0
37.3089147, -119.5776385, 1.000, 11:04:53.775, 12, 0.00, 0.17, 98, 0.500, 0.000, 166.800, 2, 100, 100, 22, 24246, -15734, 5213, 5320, 20, 14, 1529172293.775, 29, 0, 1024, 1024, 1024, 1024, 0, 6, 4023, 4057, 4038, 4047, 4032, 4029, 0, 1, 5500, -89.900, 0.000, 165.300, 0.000, 0.000, -0.200, 0.0, , , , , , 95, , , 0, 0, 0
37.3089148, -119.5776385, 1.100, 11:04:53.875, 12, 0.00, 0.16, 98, 0.500, 0.000, 166.700, 2, 100, 100, 22, 24246, -15734, 5213, 5320, 20, 14, 1529172293.875, 20, 0, 1024, 1024, 1024, 1024, 0, 6, 4023, 4057, 4038, 4047, 4032, 4029, 0, 1, 5600, -89.900, 0.000, 165.400, 0.000, 0.000, -0.300, 0.0, , , , , , 95, , , 0, 0, 0
37.3089148, -119.5776384, 1.100, 11:04:53.979, 13, 0.00, 0.16, 98, 0.400, -0.100, 166.700, 2, 100, 100, 22, 24246, -15734, 5213, 5320, 20, 14, 1529172293.979, 2, 0, 1024, 1024, 1024, 1024, 0, 6, 4023, 4057, 4038, 4047, 4032, 4029, 0, 1, 5704, -89.900, 0.000, 165.400, 0.000, 0.000, -0.500, 0.0, , , , , , 95, , , 0, 0, 0
37.3089148, -119.5776385, 1.200, 11:04:54.075, 13, 0.00, 0.17, 98, 0.200, -0.300, 166.700, 2, 100, 100, 22, 24246, -15734, 5213, 5320, 20, 14, 1529172294.076, 2, 0, 1024, 1024, 1024, 1024, 0, 6, 4023, 4057, 4038, 4047, 4032, 4029, 0, 1, 5801, -89.900, 0.000, 165.400, 0.000, 0.000, -0.700, 0.0, , , , , , 95, , , 0, 0, 0
37.3089148, -119.5776385, 1.200, 11:04:54.175, 13, 0.00, 0.17, 98, 0.200, -0.300, 166.700, 2, 100, 100, 22, 24246, -15734, 5213, 5320, 20, 14, 1529172294.175, 101, 0, 1024, 1024, 1024, 1024, 0, 6, 4023, 4057, 4038, 4047, 4032, 4029, 0, 1, 5900, -89.900, 0.000, 165.400, 0.000, 0.000, -0.700, 0.0, , , , , , 95, , , 0, 0, 0
37.3089147, -119.5776385, 1.300, 11:04:54.275, 12, 0.00, 0.17, 98, 0.000, -0.400, 166.800, 2, 100, 100, 22, 24104, -15734, 5213, 5320, 20, 14, 1529172294.275, 93, 0, 1024, 1024, 1024, 1024, 0, 6, 4023, 4057, 4038, 4047, 4032, 4029, 0, 1, 6000, -90.000, 0.000, 165.500, 0.000, 0.000, -0.800, 0.0, , , , , , 95, , , 0, 0, 0
37.3089147, -119.5776386, 1.400, 11:04:54.375, 12, 0.00, 0.17, 98, -0.200, -0.400, 166.800, 2, 100, 100, 22, 24104, -15734, 5213, 5320, 20, 14, 1529172294.375, 97, 0, 1024, 1024, 1024, 1024, 0, 6, 4023, 4057, 4038, 4047, 4032, 4029, 0, 1, 6100, -89.900, 0.000, 165.500, 0.000, 0.000, -1.000, 0.0, , , , , , 95, , , 0, 0, 0
37.3089147, -119.5776386, 1.500, 11:04:54.475, 12, 0.00, 0.18, 98, -0.300, -0.400, 166.900, 2, 100, 100, 22, 24104, -15734, 5213, 5320, 20, 14, 1529172294.475, 77, 0, 1024, 1024, 1024, 1024, 0, 6, 4023, 4057, 4038, 4047, 4032, 4029, 0, 1, 6200, -89.900, 0.000, 165.500, 0.000, 0.000, -1.200, 0.0, , , , , , 95, , , 0, 0, 0
37.3089146, -119.5776387, 1.600, 11:04:54.575, 12, 0.00, 0.18, 98, -0.500, -0.200, 167.000, 2, 100, 100, 22, 24104, -15734, 5213, 5320, 20, 14, 1529172294.575, 91, 0, 1024, 1024, 1024, 1024, 0, 6, 4023, 4057, 4038, 4047, 4032, 4029, 0, 1, 6300, -89.900, 0.000, 165.500, 0.000, 0.000, -1.300, 0.0, , , , , , 95, , , 0, 0, 0
37.3089146, -119.5776387, 1.800, 11:04:54.675, 13, 0.00, 0.19, 98, -0.400, -0.100, 167.100, 2, 100, 100, 22, 24104, -15734, 5213, 5320, 20, 14, 1529172294.675, 77, 0, 1024, 1024, 1024, 1024, 0, 6, 4023, 4057, 4038, 4047, 4032, 4029, 0, 1, 6400, -89.900, 0.000, 165.500, 0.000, 0.000, -1.600, 0.0, , , , , , 95, , , 0, 0, 0
37.3089146, -119.5776387, 1.900, 11:04:54.775, 13, 0.00, 0.19, 98, -0.300, 0.000, 167.200, 2, 100, 100, 22, 24104, -15734, 5213, 5320, 20, 14, 1529172294.775, 73, 0, 1024, 1024, 1024, 1024, 0, 6, 4002, 4027, 4016, 4019, 4011, 4017, 0, 1, 6500, -89.900, 0.000, 165.600, 0.000, 0.000, -1.800, 0.0, , , , , , 95, , , 0, 0, 0
37.3089147, -119.5776387, 2.100, 11:04:54.875, 11, 0.00, 0.19, 98, 0.000, -0.100, 167.300, 2, 100, 100, 22, 24104, -15734, 5213, 5320, 20, 14, 1529172294.875, 50, 0, 1024, 1024, 1024, 1024, 0, 6, 4002, 4027, 4016, 4019, 4011, 4017, 0, 1, 6601, -89.900, 0.000, 165.600, 0.000, 0.000, -2.100, 0.0, , , , , , 95, , , 0, 0, 0
37.3089148, -119.5776387, 2.400, 11:04:54.975, 11, 0.00, 0.19, 98, 0.100, -0.200, 167.300, 2, 100, 100, 22, 24104, -15734, 5213, 5320, 20, 14, 1529172294.975, 60, 0, 1024, 1024, 1024, 1024, 0, 6, 4002, 4027, 4016, 4019, 4011, 4017, 0, 1, 6700, -89.900, 0.000, 165.600, 0.000, 0.000, -2.300, 0.0, , , , , , 95, , , 0, 0, 0
37.3089149, -119.5776387, 2.600, 11:04:55.075, 11, 0.00, 0.19, 98, 0.300, -0.300, 167.100, 2, 100, 100, 22, 24104, -15734, 5213, 5320, 20, 14, 1529172295.075, 56, 0, 1024, 1024, 1024, 1024, 0, 6, 4002, 4027, 4016, 4019, 4011, 4017, 0, 1, 6800, -89.900, 0.000, 165.600, 0.000, 0.000, -2.500, 0.0, , , , , , 95, , , 0, 0, 0
37.3089149, -119.5776386, 2.900, 11:04:55.175, 11, 0.00, 0.18, 98, 0.400, -0.400, 167.000, 2, 100, 100, 22, 24104, -15734, 5213, 5320, 20, 14, 1529172295.175, 59, 0, 1024, 1024, 1024, 1024, 0, 6, 4002, 4027, 4016, 4019, 4011, 4017, 0, 1, 6900, -90.000, 0.000, 165.600, 0.000, 0.000, -2.700, 0.0, , , , , , 95, , , 0, 0, 0
37.3089150, -119.5776387, 3.200, 11:04:55.275, 11, 0.00, 0.18, 98, 0.400, -0.500, 166.900, 2, 100, 100, 22, 24104, -15734, 5213, 5320, 20, 14, 1529172295.275, 54, 0, 1024, 1024, 1024, 1024, 0, 6, 4002, 4027, 4016, 4019, 4011, 4017, 0, 1, 7000, -90.000, 0.000, 165.600, 0.000, 0.000, -2.900, 0.0, , , , , , 95, , , 0, 0, 0
37.3089151, -119.5776390, 3.800, 11:04:55.375, 12, 0.00, 0.21, 98, -0.300, -0.900, 166.600, 2, 100, 100, 22, 24104, -15734, 5213, 5320, 20, 14, 1529172295.375, 41, 0, 1024, 1024, 1024, 1024, 0, 6, 4002, 4027, 4016, 4019, 4011, 4017, 0, 1, 7100, -90.000, 0.000, 165.700, 0.000, 0.000, -3.200, 0.0, , , , , , 95, , , 0, 0, 0
37.3089151, -119.5776390, 3.800, 11:04:55.475, 12, 0.00, 0.21, 98, -0.300, -0.900, 166.600, 2, 100, 100, 22, 24104, -15734, 5213, 5320, 20, 14, 1529172295.475, 141, 0, 1024, 1024, 1024, 1024, 0, 6, 4002, 4027, 4016, 4019, 4011, 4017, 0, 1, 7200, -90.000, 0.000, 165.700, 0.000, 0.000, -3.200, 0.0, , , , , , 95, , , 0, 0, 0
37.3089151, -119.5776388, 4.500, 11:04:55.575, 13, 0.00, 0.19, 98, -0.700, -0.500, 166.700, 2, 100, 100, 22, 24104, -15734, 5213, 5320, 20, 14, 1529172295.575, 27, 0, 1024, 1024, 1024, 1024, 0, 6, 4002, 4027, 4016, 4019, 4011, 4017, 0, 1, 7300, -89.900, 0.000, 165.700, 0.000, 0.000, -3.300, 0.0, , , , , , 95, , , 0, 0, 0
37.3089152, -119.5776387, 4.800, 11:04:55.675, 13, 0.00, 0.19, 98, -0.400, -0.200, 166.700, 2, 100, 100, 22, 24104, -15734, 5213, 5320, 20, 14, 1529172295.675, 31, 0, 1024, 1024, 1024, 1024, 0, 6, 4002, 4027, 4016, 4019, 4011, 4017, 0, 1, 7400, -89.900, 0.000, 165.700, 0.000, 0.000, -3.200, 0.0, , , , , , 95, , , 0, 0, 0
37.3089152, -119.5776386, 5.200, 11:04:55.775, 12, 0.00, 0.17, 98, 0.100, -0.100, 166.700, 2, 100, 100, 22, 24098, -23652, 5213, 5320, 20, 14, 1529172295.775, 33, 0, 1024, 1024, 1024, 1024, 0, 6, 3881, 3896, 3960, 3979, 3958, 3957, 0, 1, 7500, -89.900, 0.000, 165.700, 0.000, 0.000, -3.300, 0.0, , , , , , 95, , , 0, 0, 0
37.3089151, -119.5776383, 5.500, 11:04:55.875, 12, 0.00, 0.15, 98, 0.600, 0.000, 166.700, 2, 100, 100, 22, 24098, -23652, 5213, 5320, 20, 14, 1529172295.875, 36, 0, 1024, 1024, 1024, 1024, 0, 6, 3881, 3896, 3960, 3979, 3958, 3957, 0, 1, 7600, -89.900, 0.000, 165.700, 0.000, 0.000, -3.200, 0.0, , , , , , 95, , , 0, 0, 0
37.3089150, -119.5776383, 5.900, 11:04:55.975, 12, 0.00, 0.15, 98, 1.100, 0.100, 166.800, 2, 100, 100, 22, 24098, -23652, 5213, 5320, 20, 14, 1529172295.975, 40, 0, 1024, 1024, 1024, 1024, 0, 6, 3881, 3896, 3960, 3979, 3958, 3957, 0, 1, 7700, -89.900, 0.000, 165.700, 0.000, 0.000, -3.300, 0.0, , , , , , 95, , , 0, 0, 0
37.3089150, -119.5776384, 6.200, 11:04:56.075, 12, 0.00, 0.16, 98, 1.100, 0.100, 166.800, 2, 100, 100, 22, 24098, -23652, 5213, 5320, 20, 14, 1529172296.075, 26, 0, 1024, 1024, 1024, 1024, 0, 6, 3881, 3896, 3960, 3979, 3958, 3957, 0, 1, 7800, -89.900, 0.000, 165.800, 0.000, 0.000, -3.300, 0.0, , , , , , 95, , , 0, 0, 0
37.3089149, -119.5776385, 6.600, 11:04:56.175, 11, 0.00, 0.17, 98, 0.500, 0.000, 166.800, 2, 100, 100, 22, 24098, -23652, 5213, 5320, 20, 14, 1529172296.175, 6, 0, 1024, 1024, 1024, 1024, 0, 6, 3881, 3896, 3960, 3979, 3958, 3957, 0, 1, 7900, -89.900, 0.000, 165.800, 0.000, 0.000, -3.300, 0.0, , , , , , 95, , , 0, 0, 0
37.3089149, -119.5776385, 6.900, 11:04:56.275, 11, 0.00, 0.16, 98, -0.200, -0.100, 166.800, 2, 100, 100, 22, 24098, -23652, 5213, 5320, 20, 14, 1529172296.275, 12, 0, 1024, 1024, 1024, 1024, 0, 6, 3881, 3896, 3960, 3979, 3958, 3957, 0, 1, 8000, -89.900, 0.000, 165.800, 0.000, 0.000, -3.300, 0.0, , , , , , 95, , , 0, 0, 0
37.3089148, -119.5776385, 7.300, 11:04:56.375, 12, 0.00, 0.17, 98, -0.700, -0.100, 166.800, 2, 100, 100, 22, 24098, -23652, 5213, 5320, 20, 14, 1529172296.375, 17, 0, 1024, 1024, 1024, 1024, 0, 6, 3881, 3896, 3960, 3979, 3958, 3957, 0, 1, 8100, -89.900, 0.000, 165.800, 0.000, 0.000, -3.200, 0.0, , , , , , 95, , , 0, 0, 0
37.3089147, -119.5776387, 7.600, 11:04:56.475, 12, 0.00, 0.18, 98, -1.000, 0.000, 166.900, 2, 100, 100, 22, 24098, -23652, 5213, 5320, 20, 14, 1529172296.475, 21, 0, 1024, 1024, 1024, 1024, 0, 6, 3881, 3896, 3960, 3979, 3958, 3957, 0, 1, 8200, -89.900, 0.000, 165.800, 0.000, 0.000, -3.100, 0.0, , , , , , 95, , , 0, 0, 0
37.3089146, -119.5776388, 7.900, 11:04:56.575, 12, 0.00, 0.19, 98, -1.100, 0.200, 166.900, 2, 100, 100, 22, 24098, -23652, 5213, 5320, 20, 14, 1529172296.575, 6, 0, 1024, 1024, 1024, 1024, 0, 6, 3881, 3896, 3960, 3979, 3958, 3957, 0, 1, 8300, -89.900, 0.000, 165.800, 0.000, 0.000, -3.100, 0.0, , , , , , 95, , , 0, 0, 0
37.3089146, -119.5776388, 7.900, 11:04:56.675, 12, 0.00, 0.19, 98, -1.100, 0.200, 166.900, 2, 100, 100, 22, 24098, -23652, 5213, 5320, 20, 14, 1529172296.675, 106, 0, 1024, 1024, 1024, 1024, 0, 6, 3881, 3896, 3960, 3979, 3958, 3957, 0, 1, 8400, -89.900, 0.000, 165.800, 0.000, 0.000, -3.100, 0.0, , , , , , 95, , , 0, 0, 0
37.3089144, -119.5776388, 8.300, 11:04:56.775, 12, 0.00, 0.20, 98, -1.100, 0.400, 166.900, 2, 100, 100, 22, 23694, -19674, 5213, 5320, 20, 14, 1529172296.775, 94, 0, 1024, 1024, 1024, 1024, 0, 6, 3925, 3981, 3950, 3972, 3957, 3890, 0, 1, 8500, -89.900, 0.000, 165.900, 0.000, 0.000, -3.100, 0.0, , , , , , 95, , , 0, 0, 0
37.3089143, -119.5776388, 8.600, 11:04:56.875, 12, 0.00, 0.21, 98, -1.100, 0.600, 166.800, 2, 100, 100, 22, 23694, -19674, 5213, 5320, 20, 14, 1529172296.875, 84, 0, 1024, 1024, 1024, 1024, 0, 6, 3925, 3981, 3950, 3972, 3957, 3890, 0, 1, 8600, -89.900, 0.000, 165.900, 0.000, 0.000, -3.000, 0.0, , , , , , 95, , , 0, 0, 0
37.3089141, -119.5776389, 8.900, 11:04:56.975, 12, 0.00, 0.22, 98, -0.900, 0.800, 166.800, 2, 100, 100, 22, 23694, -19674, 5213, 5320, 20, 14, 1529172296.975, 90, 0, 1024, 1024, 1024, 1024, 0, 6, 3925, 3981, 3950, 3972, 3957, 3890, 0, 1, 8700, -89.900, 0.000, 165.900, 0.000, 0.000, -3.000, 0.0, , , , , , 95, , , 0, 0, 0
37.3089140, -119.5776388, 9.200, 11:04:57.074, 13, 0.00, 0.22, 98, -0.500, 0.900, 166.800, 2, 100, 100, 22, 23694, -19674, 5213, 5320, 20, 14, 1529172297.074, 78, 0, 1024, 1024, 1024, 1024, 0, 6, 3925, 3981, 3950, 3972, 3957, 3890, 0, 1, 8800, -89.900, 0.000, 165.900, 0.000, 0.000, -3.000, 0.0, , , , , , 95, , , 0, 0, 0
37.3089139, -119.5776387, 9.600, 11:04:57.176, 13, 0.00, 0.22, 98, -0.300, 1.100, 166.700, 2, 100, 100, 22, 23694, -19674, 5213, 5320, 20, 14, 1529172297.176, 85, 0, 1024, 1024, 1024, 1024, 0, 6, 3925, 3981, 3950, 3972, 3957, 3890, 0, 1, 8901, -89.900, 0.000, 165.800, 0.000, 0.000, -3.000, 0.0, , , , , , 95, , , 0, 0, 0
37.3089139, -119.5776387, 9.900, 11:04:57.276, 14, 0.00, 0.22, 98, -0.200, 0.700, 166.600, 2, 100, 100, 22, 23694, -19674, 5213, 5320, 20, 14, 1529172297.276, 61, 0, 1024, 1024, 1024, 1024, 0, 6, 3925, 3981, 3950, 3972, 3957, 3890, 0, 1, 9002, -89.900, 0.000, 165.900, 0.000, 0.000, -3.000, 0.0, , , , , , 95, , , 0, 0, 0
37.3089139, -119.5776387, 10.200, 11:04:57.376, 14, 0.00, 0.22, 98, 0.200, 0.300, 166.800, 2, 100, 100, 22, 23694, -19674, 5213, 5320, 20, 14, 1529172297.376, 59, 0, 1024, 1024, 1024, 1024, 0, 6, 3925, 3981, 3950, 3972, 3957, 3890, 0, 1, 9101, -89.900, 0.000, 165.900, 0.000, 0.000, -2.900, 0.0, , , , , , 95, , , 0, 0, 0
37.3089138, -119.5776386, 10.500, 11:04:57.475, 13, 0.00, 0.22, 98, 0.700, 0.100, 166.900, 2, 100, 100, 22, 23694, -19674, 5213, 5320, 20, 14, 1529172297.476, 53, 0, 1024, 1024, 1024, 1024, 0, 6, 3925, 3981, 3950, 3972, 3957, 3890, 0, 1, 9201, -89.900, 0.000, 165.900, 0.000, 0.000, -2.900, 0.0, , , , , , 95, , , 0, 0, 0
37.3089138, -119.5776387, 10.800, 11:04:57.576, 13, 0.00, 0.22, 98, 0.600, 0.000, 166.900, 2, 100, 100, 22, 23694, -19674, 5213, 5320, 20, 14, 1529172297.576, 56, 0, 1024, 1024, 1024, 1024, 0, 6, 3925, 3981, 3950, 3972, 3957, 3890, 0, 1, 9301, -89.900, 0.000, 165.900, 0.000, 0.000, -2.800, 0.0, , , , , , 95, , , 0, 0, 0
37.3089138, -119.5776387, 11.100, 11:04:57.676, 12, 0.00, 0.22, 98, 0.000, 0.100, 166.900, 2, 100, 100, 22, 23694, -19674, 5213, 5320, 20, 14, 1529172297.676, 49, 0, 1024, 1024, 1024, 1024, 0, 6, 3925, 3981, 3950, 3972, 3957, 3890, 0, 1, 9401, -89.900, 0.000, 165.900, 0.000, 0.000, -2.900, 0.0, , , , , , 95, , , 0, 0, 0
37.3089138, -119.5776386, 11.400, 11:04:57.776, 12, 0.00, 0.22, 98, -0.100, 0.000, 167.000, 2, 100, 100, 22, 23784, -17557, 5213, 5320, 20, 14, 1529172297.776, 50, 0, 1024, 1024, 1024, 1024, 0, 6, 3946, 3977, 3963, 3966, 3964, 3958, 0, 1, 9501, -89.900, 0.000, 165.900, 0.000, 0.000, -2.900, 0.0, , , , , , 95, , , 0, 0, 0
37.3089137, -119.5776386, 11.700, 11:04:57.876, 14, 0.00, 0.22, 98, 0.000, 0.100, 167.000, 2, 100, 100, 22, 23784, -17557, 5213, 5320, 20, 14, 1529172297.876, 53, 0, 1024, 1024, 1024, 1024, 0, 6, 3946, 3977, 3963, 3966, 3964, 3958, 0, 1, 9601, -89.900, 0.000, 165.900, 0.000, 0.000, -2.900, 0.0, , , , , , 95, , , 0, 0, 0
37.3089137, -119.5776386, 12.000, 11:04:57.975, 14, 0.00, 0.23, 98, 0.100, 0.300, 167.200, 2, 100, 100, 22, 23784, -17557, 5213, 5320, 20, 14, 1529172297.976, 57, 0, 1024, 1024, 1024, 1024, 0, 6, 3946, 3977, 3963, 3966, 3964, 3958, 0, 1, 9701, -89.900, 0.000, 165.900, 0.000, 0.000, -2.800, 0.0, , , , , , 95, , , 0, 0, 0
37.3089136, -119.5776387, 12.600, 11:04:58.075, 14, 0.00, 0.24, 98, 0.000, 0.600, 167.100, 2, 100, 100, 22, 23784, -17557, 5213, 5320, 20, 14, 1529172298.076, 41, 0, 1024, 1024, 1024, 1024, 0, 6, 3946, 3977, 3963, 3966, 3964, 3958, 0, 1, 9801, -89.900, 0.000, 165.900, 0.000, 0.000, -2.900, 0.0, , , , , , 95, , , 0, 0, 0
37.3089135, -119.5776388, 12.900, 11:04:58.176, 13, 0.00, 0.25, 98, 0.000, 0.600, 166.900, 2, 100, 100, 22, 23784, -17557, 5213, 5320, 20, 14, 1529172298.176, 38, 0, 1024, 1024, 1024, 1024, 0, 6, 3946, 3977, 3963, 3966, 3964, 3958, 0, 1, 9901, -89.900, 0.000, 165.900, 0.000, 0.000, -3.000, 0.0, , , , , , 95, , , 0, 0, 0
37.3089134, -119.5776388, 13.200, 11:04:58.275, 13, 0.00, 0.25, 98, -0.200, 0.800, 166.900, 2, 100, 100, 22, 23784, -17557, 5213, 5320, 20, 14, 1529172298.276, 18, 0, 1024, 1024, 1024, 1024, 0, 6, 3946, 3977, 3963, 3966, 3964, 3958, 0, 1, 10001, -89.900, 0.000, 165.900, 0.000, 0.000, -3.000, 0.0, , , , , , 95, , , 0, 0, 0
37.3089134, -119.5776388, 13.500, 11:04:58.375, 13, 0.00, 0.26, 98, -0.100, 1.100, 166.800, 2, 100, 100, 22, 23784, -17557, 5213, 5320, 20, 14, 1529172298.376, 18, 0, 1024, 1024, 1024, 1024, 0, 6, 3946, 3977, 3963, 3966, 3964, 3958, 0, 1, 10101, -89.900, 0.000, 165.900, 0.000, 0.000, -2.900, 0.0, , , , , , 95, , , 0, 0, 0
37.3089134, -119.5776389, 13.800, 11:04:58.475, 13, 0.00, 0.26, 98, -0.100, 1.100, 166.800, 2, 100, 100, 22, 23784, -17557, 5213, 5320, 20, 14, 1529172298.476, 29, 0, 1024, 1024, 1024, 1024, 0, 6, 3946, 3977, 3963, 3966, 3964, 3958, 0, 1, 10201, -89.900, 0.000, 165.800, 0.000, 0.000, -2.900, 0.0, , , , , , 95, , , 0, 0, 0
37.3089135, -119.5776389, 14.100, 11:04:58.575, 13, 0.00, 0.26, 98, -0.200, 0.800, 166.800, 2, 100, 100, 22, 23784, -17557, 5213, 5320, 20, 14, 1529172298.576, 11, 0, 1024, 1024, 1024, 1024, 0, 6, 3946, 3977, 3963, 3966, 3964, 3958, 0, 1, 10301, -89.900, 0.000, 165.900, 0.000, 0.000, -2.900, 0.0, , , , , , 95, , , 0, 0, 0
37.3089135, -119.5776389, 14.400, 11:04:58.675, 13, 0.00, 0.26, 98, -0.400, 0.200, 166.800, 2, 100, 100, 22, 23784, -17557, 5213, 5320, 20, 14, 1529172298.676, 20, 0, 1024, 1024, 1024, 1024, 0, 6, 3946, 3977, 3963, 3966, 3964, 3958, 0, 1, 10401, -90.000, 0.000, 165.900, 0.000, 0.000, -2.900, 0.0, , , , , , 95, , , 0, 0, 0
37.3089136, -119.5776389, 14.700, 11:04:58.776, 12, 0.00, 0.26, 98, -0.300, 0.000, 166.800, 2, 100, 100, 22, 23644, -19208, 5213, 5320, 20, 14, 1529172298.776, 12, 0, 1024, 1024, 1024, 1024, 0, 6, 3915, 3952, 3935, 3941, 3938, 3935, 0, 1, 10501, -90.000, 0.000, 165.900, 0.000, 0.000, -2.900, 0.0, , , , , , 95, , , 0, 0, 0
37.3089136, -119.5776390, 15.000, 11:04:58.876, 12, 0.00, 0.26, 98, -0.100, 0.000, 166.800, 2, 100, 100, 22, 23644, -19208, 5213, 5320, 20, 14, 1529172298.877, 6, 0, 1024, 1024, 1024, 1024, 0, 6, 3915, 3952, 3935, 3941, 3938, 3935, 0, 1, 10602, -90.000, 0.000, 165.900, 0.000, 0.000, -2.900, 0.0, , , , , , 95, , , 0, 0, 0
37.3089136, -119.5776390, 15.000, 11:04:58.975, 12, 0.00, 0.26, 98, -0.100, 0.000, 166.800, 2, 100, 100, 22, 23644, -19208, 5213, 5320, 20, 14, 1529172298.975, 104, 0, 1024, 1024, 1024, 1024, 0, 6, 3915, 3952, 3935, 3941, 3938, 3935, 0, 1, 10700, -90.000, 0.000, 165.900, 0.000, 0.000, -2.900, 0.0, , , , , , 95, , , 0, 0, 0
37.3089136, -119.5776390, 15.300, 11:04:59.073, 13, 0.00, 0.26, 98, -0.300, 0.000, 166.700, 2, 100, 100, 22, 23644, -19208, 5213, 5320, 20, 14, 1529172299.074, 94, 0, 1024, 1024, 1024, 1024, 0, 6, 3915, 3952, 3935, 3941, 3938, 3935, 0, 1, 10799, -90.000, 0.000, 165.900, 0.000, 0.000, -2.900, 0.0, , , , , , 95, , , 0, 0, 0
37.3089137, -119.5776390, 15.600, 11:04:59.175, 13, 0.00, 0.25, 98, -0.700, 0.000, 166.600, 2, 100, 100, 22, 23644, -19208, 5213, 5320, 20, 14, 1529172299.175, 99, 0, 1024, 1024, 1024, 1024, 0, 6, 3915, 3952, 3935, 3941, 3938, 3935, 0, 1, 10900, -89.900, 0.000, 165.900, 0.000, 0.000, -2.900, 0.0, , , , , , 95, , , 0, 0, 0
37.3089138, -119.5776390, 15.900, 11:04:59.275, 13, 0.00, 0.25, 98, -0.700, -0.100, 166.500, 2, 100, 100, 22, 23644, -19208, 5213, 5320, 20, 14, 1529172299.275, 88, 0, 1024, 1024, 1024, 1024, 0, 6, 3915, 3952, 3935, 3941, 3938, 3935, 0, 1, 11000, -89.900, 0.000, 165.900, 0.000, 0.000, -2.900, 0.0, , , , , , 95, , , 0, 0, 0
37.3089139, -119.5776391, 16.200, 11:04:59.375, 13, 0.00, 0.25, 98, -0.600, 0.000, 166.500, 2, 100, 100, 22, 23644, -19208, 5213, 5320, 20, 14, 1529172299.375, 92, 0, 1024, 1024, 1024, 1024, 0, 6, 3915, 3952, 3935, 3941, 3938, 3935, 0, 1, 11100, -90.000, 0.000, 165.900, 0.000, 0.000, -2.900, 0.0, , , , , , 95, , , 0, 0, 0
37.3089139, -119.5776392, 16.500, 11:04:59.475, 13, 0.00, 0.25, 98, -0.400, -0.300, 166.600, 2, 100, 100, 22, 23644, -19208, 5213, 5320, 20, 14, 1529172299.475, 81, 0, 1024, 1024, 1024, 1024, 0, 6, 3915, 3952, 3935, 3941, 3938, 3935, 0, 1, 11200, -90.000, 0.000, 165.900, 0.000, 0.000, -2.900, 0.0, , , , , , 95, , , 0, 0, 0
37.3089140, -119.5776392, 16.800, 11:04:59.574, 13, 0.00, 0.25, 98, -0.500, -0.400, 166.700, 2, 100, 100, 22, 23644, -19208, 5213, 5320, 20, 14, 1529172299.574, 76, 0, 1024, 1024, 1024, 1024, 0, 6, 3915, 3952, 3935, 3941, 3938, 3935, 0, 1, 11300, -90.000, 0.000, 165.800, 0.000, 0.000, -2.900, 0.0, , , , , , 95, , , 0, 0, 0
37.3089141, -119.5776392, 17.200, 11:04:59.675, 14, 0.00, 0.25, 98, -0.600, -0.600, 166.700, 2, 100, 100, 22, 23644, -19208, 5213, 5320, 20, 14, 1529172299.675, 69, 0, 1024, 1024, 1024, 1024, 0, 6, 3915, 3952, 3935, 3941, 3938, 3935, 0, 1, 11400, -90.000, 0.000, 165.900, 0.000, 0.000, -3.000, 0.0, , , , , , 95, , , 0, 0, 0
37.3089141, -119.5776393, 17.500, 11:04:59.774, 14, 0.00, 0.25, 98, -0.900, -0.600, 166.700, 2, 100, 100, 22, 23590, -19067, 5213, 5320, 20, 14, 1529172299.775, 68, 0, 1024, 1024, 1024, 1024, 0, 6, 3915, 3952, 3935, 3941, 3938, 3935, 0, 1, 11500, -89.900, 0.000, 165.900, 0.000, 0.000, -2.900, 0.0, , , , , , 95, , , 0, 0, 0
37.3089142, -119.5776393, 17.700, 11:04:59.874, 14, 0.00, 0.25, 98, -0.900, -0.600, 166.700, 2, 100, 100, 22, 23590, -19067, 5213, 5320, 20, 14, 1529172299.875, 62, 0, 1024, 1024, 1024, 1024, 0, 6, 3915, 3952, 3935, 3941, 3938, 3935, 0, 1, 11600, -90.000, 0.000, 165.900, 0.000, 0.000, -2.800, 0.0, , , , , , 95, , , 0, 0, 0
37.3089144, -119.5776394, 18.000, 11:04:59.974, 14, 0.00, 0.25, 98, -0.800, -0.700, 166.600, 2, 100, 100, 22, 23590, -19067, 5213, 5320, 20, 14, 1529172299.975, 63, 0, 1024, 1024, 1024, 1024, 0, 6, 3915, 3952, 3935, 3941, 3938, 3935, 0, 1, 11700, -89.900, 0.000, 165.900, 0.000, 0.000, -2.800, 0.0, , , , , , 95, , , 0, 0, 0
37.3089145, -119.5776394, 18.300, 11:05:00.074, 13, 0.00, 0.25, 98, -0.900, -1.100, 166.700, 2, 100, 100, 22, 23590, -19067, 5213, 5320, 20, 14, 1529172300.075, 45, 0, 1024, 1024, 1024, 1024, 0, 6, 3915, 3952, 3935, 3941, 3938, 3935, 0, 1, 11800, -89.900, 0.000, 165.900, 0.000, 0.000, -2.900, 0.0, , , , , , 95, , , 0, 0, 0
37.3089146, -119.5776393, 18.600, 11:05:00.174, 13, 0.00, 0.24, 98, -0.900, -1.300, 166.800, 2, 100, 100, 22, 23590, -19067, 5213, 5320, 20, 14, 1529172300.175, 62, 0, 1024, 1024, 1024, 1024, 0, 6, 3915, 3952, 3935, 3941, 3938, 3935, 0, 1, 11900, -89.900, 0.000, 165.900, 0.000, 0.000, -2.800, 0.0, , , , , , 95, , , 0, 0, 0
37.3089147, -119.5776394, 19.200, 11:05:00.274, 14, 0.00, 0.24, 97, -0.400, -1.000, 166.800, 2, 100, 100, 22, 23590, -19067, 5160, 5320, 20, 14, 1529172300.275, 50, 0, 1024, 1024, 1024, 1024, 0, 6, 3906, 3946, 3935, 3933, 3934, 3928, 0, 1, 12000, -89.900, 0.000, 165.900, 0.000, 0.000, -2.900, 0.0, , , , , , 95, , , 0, 0, 0
37.3089147, -119.5776394, 19.200, 11:05:00.374, 14, 0.00, 0.24, 97, -0.400, -1.000, 166.800, 2, 100, 100, 22, 23590, -19067, 5160, 5320, 20, 14, 1529172300.374, 150, 0, 1024, 1024, 1024, 1024, 0, 6, 3906, 3946, 3935, 3933, 3934, 3928, 0, 1, 12099, -89.900, 0.000, 165.900, 0.000, 0.000, -2.900, 0.0, , , , , , 95, , , 0, 0, 0
37.3089148, -119.5776395, 19.800, 11:05:00.474, 14, 0.00, 0.25, 97, -0.200, -0.700, 166.800, 2, 100, 100, 22, 23590, -19067, 5160, 5320, 20, 14, 1529172300.475, 30, 0, 1024, 1024, 1024, 1024, 0, 6, 3906, 3946, 3935, 3933, 3934, 3928, 0, 1, 12200, -89.900, 0.000, 165.900, 0.000, 0.000, -2.900, 0.0, , , , , , 95, , , 0, 0, 0
37.3089148, -119.5776396, 20.100, 11:05:00.574, 14, 0.00, 0.26, 97, -0.800, -0.600, 166.800, 2, 100, 100, 22, 23590, -19067, 5160, 5320, 20, 14, 1529172300.575, 37, 0, 1024, 1024, 1024, 1024, 0, 6, 3906, 3946, 3935, 3933, 3934, 3928, 0, 1, 12300, -89.900, 0.000, 165.900, 0.000, 0.000, -2.800, 0.0, , , , , , 95, , , 0, 0, 0
37.3089149, -119.5776396, 20.400, 11:05:00.674, 14, 0.00, 0.26, 97, -1.200, -0.500, 166.900, 2, 100, 100, 22, 23590, -19067, 5160, 5320, 20, 14, 1529172300.675, 49, 0, 1024, 1024, 1024, 1024, 0, 6, 3906, 3946, 3935, 3933, 3934, 3928, 0, 1, 12400, -89.900, 0.000, 165.900, 0.000, 0.000, -2.900, 0.0, , , , , , 95, , , 0, 0, 0
37.3089149, -119.5776396, 20.700, 11:05:00.774, 14, 0.00, 0.26, 97, -1.200, -0.600, 167.000, 2, 100, 99, 22, 23590, -19067, 5160, 5320, 20, 14, 1529172300.775, 16, 0, 1024, 1024, 1024, 1024, 0, 6, 3906, 3946, 3935, 3933, 3934, 3928, 0, 1, 12500, -89.900, 0.000, 165.900, 0.000, 0.000, -2.900, 0.0, , , , , , 95, , , 0, 0, 0
37.3089150, -119.5776396, 21.000, 11:05:00.875, 14, 0.00, 0.26, 97, -1.000, -0.700, 167.100, 2, 100, 99, 22, 23590, -19067, 5160, 5320, 20, 14, 1529172300.875, 18, 0, 1024, 1024, 1024, 1024, 0, 6, 3906, 3946, 3935, 3933, 3934, 3928, 0, 1, 12600, -89.900, 0.000, 165.900, 0.000, 0.000, -2.900, 0.0, , , , , , 95, , , 0, 0, 0
37.3089150, -119.5776396, 21.300, 11:05:00.974, 14, 0.00, 0.26, 97, -0.700, -0.700, 167.100, 2, 100, 99, 22, 23590, -19067, 5160, 5320, 20, 14, 1529172300.975, 19, 0, 1024, 1024, 1024, 1024, 0, 6, 3906, 3946, 3935, 3933, 3934, 3928, 0, 1, 12700, -89.900, 0.000, 165.900, 0.000, 0.000, -2.900, 0.0, , , , , , 95, , , 0, 0, 0
37.3089151, -119.5776396, 21.600, 11:05:01.074, 14, 0.00, 0.26, 97, -0.400, -0.700, 167.200, 2, 100, 99, 22, 23590, -19067, 5160, 5320, 20, 14, 1529172301.075, 16, 0, 1024, 1024, 1024, 1024, 0, 6, 3906, 3946, 3935, 3933, 3934, 3928, 0, 1, 12800, -89.900, 0.000, 165.900, 0.000, 0.000, -3.000, 0.0, , , , , , 95, , , 0, 0, 0
37.3089151, -119.5776396, 21.900, 11:05:01.174, 12, 0.00, 0.26, 97, -0.200, -1.100, 167.400, 2, 100, 99, 22, 23590, -19067, 5160, 5320, 20, 14, 1529172301.174, 21, 0, 1024, 1024, 1024, 1024, 0, 6, 3906, 3946, 3935, 3933, 3934, 3928, 0, 1, 12900, -89.900, 0.000, 165.900, 0.000, 0.000, -2.900, 0.0, , , , , , 95, , , 0, 0, 0
37.3089152, -119.5776396, 22.200, 11:05:01.274, 12, 0.00, 0.27, 97, -0.200, -1.300, 167.400, 2, 100, 99, 22, 23534, -19340, 5160, 5320, 20, 14, 1529172301.275, 8, 0, 1024, 1024, 1024, 1024, 0, 6, 3895, 3932, 3927, 3928, 3923, 3915, 0, 1, 13000, -89.900, 0.000, 165.900, 0.000, 0.000, -2.900, 0.0, , , , , , 95, , , 0, 0, 0
37.3089152, -119.5776396, 22.500, 11:05:01.374, 13, 0.00, 0.27, 97, -0.500, -1.200, 167.400, 2, 100, 99, 22, 23534, -19340, 5160, 5320, 20, 14, 1529172301.375, 17, 0, 1024, 1024, 1024, 1024, 0, 6, 3895, 3932, 3927, 3928, 3923, 3915, 0, 1, 13100, -89.900, 0.000, 165.900, 0.000, 0.000, -2.900, 0.0, , , , , , 95, , , 0, 0, 0
37.3089152, -119.5776397, 22.800, 11:05:01.474, 13, 0.00, 0.27, 97, -0.700, -1.000, 167.200, 2, 100, 99, 22, 23534, -19340, 5160, 5320, 20, 14, 1529172301.475, 9, 0, 1024, 1024, 1024, 1024, 0, 6, 3895, 3932, 3927, 3928, 3923, 3915, 0, 1, 13200, -89.900, 0.000, 165.900, 0.000, 0.000, -3.000, 0.0, , , , , , 95, , , 0, 0, 0
37.3089153, -119.5776397, 23.100, 11:05:01.589, 14, 0.00, 0.27, 97, -0.700, -0.800, 167.000, 2, 100, 99, 22, 23534, -19340, 5160, 5320, 20, 14, 1529172301.589, 3, 0, 1024, 1024, 1024, 1024, 0, 6, 3895, 3932, 3927, 3928, 3923, 3915, 0, 1, 13315, -89.900, 0.000, 165.900, 0.000, 0.000, -2.900, 0.0, , , , , , 95, , , 0, 0, 0
37.3089153, -119.5776397, 23.100, 11:05:01.674, 14, 0.00, 0.27, 97, -0.700, -0.800, 167.000, 2, 100, 99, 22, 23534, -19340, 5160, 5320, 20, 14, 1529172301.675, 89, 0, 1024, 1024, 1024, 1024, 0, 6, 3895, 3932, 3927, 3928, 3923, 3915, 0, 1, 13400, -89.900, 0.000, 165.900, 0.000, 0.000, -2.900, 0.0, , , , , , 95, , , 0, 0, 0
37.3089153, -119.5776398, 23.400, 11:05:01.774, 14, 0.00, 0.28, 97, -1.000, -0.700, 166.900, 2, 100, 99, 22, 23534, -19340, 5160, 5320, 20, 14, 1529172301.775, 95, 0, 1024, 1024, 1024, 1024, 0, 6, 3895, 3932, 3927, 3928, 3923, 3915, 0, 1, 13500, -89.900, 0.000, 165.900, 0.000, 0.000, -2.900, 0.0, , , , , , 95, , , 0, 0, 0
37.3089153, -119.5776398, 23.700, 11:05:01.874, 14, 0.00, 0.29, 97, -1.300, -0.700, 166.900, 2, 100, 99, 22, 23534, -19340, 5160, 5320, 20, 14, 1529172301.875, 66, 0, 1024, 1024, 1024, 1024, 0, 6, 3895, 3932, 3927, 3928, 3923, 3915, 0, 1, 13600, -89.900, 0.000, 165.900, 0.000, 0.000, -2.900, 0.0, , , , , , 95, , , 0, 0, 0
37.3089153, -119.5776399, 24.000, 11:05:01.974, 14, 0.00, 0.29, 97, -1.200, -0.700, 166.900, 2, 100, 99, 22, 23534, -19340, 5160, 5320, 20, 14, 1529172301.975, 96, 0, 1024, 1024, 1024, 1024, 0, 6, 3895, 3932, 3927, 3928, 3923, 3915, 0, 1, 13700, -89.900, 0.000, 165.900, 0.000, 0.000, -2.900, 0.0, , , , , , 95, , , 0, 0, 0
37.3089153, -119.5776399, 24.300, 11:05:02.074, 14, 0.00, 0.29, 97, -1.100, -0.500, 167.000, 2, 100, 99, 22, 23534, -19340, 5160, 5320, 20, 14, 1529172302.075, 89, 0, 1024, 1024, 1024, 1024, 0, 6, 3895, 3932, 3927, 3928, 3923, 3915, 0, 1, 13800, -89.900, 0.000, 165.900, 0.000, 0.000, -2.900, 0.0, , , , , , 95, , , 0, 0, 0
37.3089154, -119.5776400, 24.600, 11:05:02.174, 14, 0.00, 0.30, 97, -0.900, -0.700, 167.000, 2, 100, 99, 22, 23534, -19340, 5160, 5320, 20, 14, 1529172302.175, 77, 0, 1024, 1024, 1024, 1024, 0, 6, 3895, 3932, 3927, 3928, 3923, 3915, 0, 1, 13900, -89.900, 0.000, 165.900, 0.000, 0.000, -2.900, 0.0, , , , , , 95, , , 0, 0, 0
37.3089154, -119.5776400, 24.900, 11:05:02.274, 14, 0.00, 0.31, 97, -0.900, -1.000, 167.000, 2, 100, 99, 22, 23496, -19708, 5160, 5320, 20, 14, 1529172302.274, 89, 0, 1024, 1024, 1024, 1024, 0, 6, 3899, 3935, 3923, 3916, 3915, 3917, 0, 1, 14000, -89.900, 0.000, 165.900, 0.000, 0.000, -2.900, 0.0, , , , , , 95, , , 0, 0, 0
37.3089154, -119.5776401, 25.200, 11:05:02.374, 14, 0.00, 0.31, 97, -1.000, -1.100, 167.100, 2, 100, 100, 22, 23496, -19708, 5160, 5320, 20, 14, 1529172302.375, 90, 0, 1024, 1024, 1024, 1024, 0, 6, 3899, 3935, 3923, 3916, 3915, 3917, 0, 1, 14100, -90.000, 0.000, 165.900, 0.000, 0.000, -2.900, 0.0, , , , , , 95, , , 0, 0, 0
37.3089154, -119.5776401, 25.500, 11:05:02.474, 14, 0.00, 0.31, 97, -1.200, -1.100, 167.000, 2, 100, 100, 22, 23496, -19708, 5160, 5320, 20, 14, 1529172302.475, 60, 0, 1024, 1024, 1024, 1024, 0, 6, 3899, 3935, 3923, 3916, 3915, 3917, 0, 1, 14200, -89.900, 0.000, 165.800, 0.000, 0.000, -2.900, 0.0, , , , , , 95, , , 0, 0, 0
37.3089154, -119.5776401, 25.800, 11:05:02.574, 14, 0.00, 0.31, 97, -1.300, -1.100, 166.900, 2, 100, 100, 22, 23496, -19708, 5160, 5320, 20, 14, 1529172302.575, 63, 0, 1024, 1024, 1024, 1024, 0, 6, 3899, 3935, 3923, 3916, 3915, 3917, 0, 1, 14300, -89.900, 0.000, 165.900, 0.000, 0.000, -2.900, 0.0, , , , , , 95, , , 0, 0, 0
37.3089154, -119.5776402, 26.100, 11:05:02.674, 14, 0.00, 0.32, 97, -1.400, -0.900, 166.800, 2, 100, 100, 22, 23496, -19708, 5160, 5320, 20, 14, 1529172302.674, 47, 0, 1024, 1024, 1024, 1024, 0, 6, 3899, 3935, 3923, 3916, 3915, 3917, 0, 1, 14400, -89.900, 0.000, 165.900, 0.000, 0.000, -2.900, 0.0, , , , , , 95, , , 0, 0, 0
37.3089153, -119.5776402, 26.400, 11:05:02.774, 14, 0.00, 0.32, 97, -1.600, -0.800, 166.700, 2, 100, 100, 22, 23496, -19708, 5160, 5320, 20, 14, 1529172302.775, 59, 0, 1024, 1024, 1024, 1024, 0, 6, 3899, 3935, 3923, 3916, 3915, 3917, 0, 1, 14500, -89.900, 0.000, 165.900, 0.000, 0.000, -2.900, 0.0, , , , , , 95, , , 0, 0, 0
37.3089153, -119.5776402, 26.700, 11:05:02.874, 14, 0.00, 0.32, 97, -1.800, -0.700, 166.600, 2, 100, 100, 22, 23496, -19708, 5160, 5320, 20, 14, 1529172302.875, 38, 0, 1024, 1024, 1024, 1024, 0, 6, 3899, 3935, 3923, 3916, 3915, 3917, 0, 1, 14600, -89.900, 0.000, 165.900, 0.000, 0.000, -2.900, 0.0, , , , , , 95, , , 0, 0, 0
37.3089153, -119.5776403, 27.300, 11:05:02.974, 14, 0.00, 0.33, 97, -1.600, -0.800, 166.500, 2, 100, 100, 22, 23496, -19708, 5160, 5320, 20, 14, 1529172302.975, 34, 0, 1024, 1024, 1024, 1024, 0, 6, 3899, 3935, 3923, 3916, 3915, 3917, 0, 1, 14700, -89.900, 0.000, 165.900, 0.000, 0.000, -2.900, 0.0, , , , , , 95, , , 0, 0, 0
37.3089154, -119.5776403, 27.600, 11:05:03.074, 14, 0.00, 0.33, 97, -1.100, -0.800, 166.600, 2, 100, 100, 22, 23496, -19708, 5160, 5320, 20, 14, 1529172303.075, 42, 0, 1024, 1024, 1024, 1024, 0, 6, 3899, 3935, 3923, 3916, 3915, 3917, 0, 1, 14800, -89.900, 0.000, 165.900, 0.000, 0.000, -2.900, 0.0, , , , , , 95, , , 0, 0, 0
37.3089153, -119.5776403, 27.900, 11:05:03.174, 14, 0.00, 0.33, 97, -0.700, -0.600, 166.800, 2, 100, 100, 22, 23496, -19708, 5160, 5320, 20, 14, 1529172303.175, 34, 0, 1024, 1024, 1024, 1024, 0, 6, 3899, 3935, 3923, 3916, 3915, 3917, 0, 1, 14900, -89.900, 0.000, 165.800, 0.000, 0.000, -2.900, 0.0, , , , , , 95, , , 0, 0, 0
37.3089153, -119.5776402, 28.200, 11:05:03.274, 14, 0.00, 0.32, 97, -0.500, -0.500, 167.000, 2, 100, 100, 22, 23494, -19206, 5160, 5320, 20, 14, 1529172303.275, 37, 0, 1024, 1024, 1024, 1024, 0, 6, 3892, 3932, 3924, 3916, 3918, 3915, 0, 1, 15000, -89.900, 0.000, 165.800, 0.000, 0.000, -2.900, 0.0, , , , , , 95, , , 0, 0, 0
37.3089153, -119.5776402, 28.400, 11:05:03.374, 14, 0.00, 0.32, 97, -0.600, -0.700, 167.200, 2, 100, 100, 22, 23494, -19206, 5160, 5320, 20, 14, 1529172303.375, 26, 0, 1024, 1024, 1024, 1024, 0, 6, 3892, 3932, 3924, 3916, 3918, 3915, 0, 1, 15100, -90.000, 0.000, 165.900, 0.000, 0.000, -2.900, 0.0, , , , , , 95, , , 0, 0, 0
37.3089153, -119.5776402, 28.700, 11:05:03.474, 14, 0.00, 0.32, 97, -0.500, -0.900, 167.300, 2, 100, 100, 22, 23494, -19206, 5160, 5320, 20, 14, 1529172303.474, 17, 0, 1024, 1024, 1024, 1024, 0, 6, 3892, 3932, 3924, 3916, 3918, 3915, 0, 1, 15200, -89.900, 0.000, 165.900, 0.000, 0.000, -2.900, 0.0, , , , , , 95, , , 0, 0, 0
37.3089153, -119.5776402, 29.000, 11:05:03.574, 14, 0.00, 0.32, 97, -0.700, -1.000, 167.300, 2, 100, 100, 22, 23494, -19206, 5160, 5320, 20, 14, 1529172303.574, 8, 0, 1024, 1024, 1024, 1024, 0, 6, 3892, 3932, 3924, 3916, 3918, 3915, 0, 1, 15300, -89.900, 0.000, 165.900, 0.000, 0.000, -2.900, 0.0, , , , , , 95, , , 0, 0, 0
37.3089153, -119.5776402, 29.300, 11:05:03.674, 14, 0.00, 0.32, 97, -1.000, -1.000, 167.200, 2, 100, 100, 22, 23494, -19206, 5160, 5320, 20, 14, 1529172303.675, 19, 0, 1024, 1024, 1024, 1024, 0, 6, 3892, 3932, 3924, 3916, 3918, 3915, 0, 1, 15400, -89.900, 0.000, 165.900, 0.000, 0.000, -2.900, 0.0, , , , , , 95, , , 0, 0, 0
37.3089153, -119.5776403, 29.600, 11:05:03.774, 14, 0.00, 0.32, 97, -1.000, -0.900, 167.100, 2, 100, 100, 22, 23494, -19206, 5160, 5320, 20, 14, 1529172303.774, 14, 0, 1024, 1024, 1024, 1024, 0, 6, 3892, 3932, 3924, 3916, 3918, 3915, 0, 1, 15499, -89.900, 0.000, 165.900, 0.000, 0.000, -2.900, 0.0, , , , , , 95, , , 0, 0, 0
37.3089153, -119.5776403, 29.900, 11:05:03.876, 14, 0.00, 0.33, 97, -1.000, -0.800, 167.000, 2, 100, 100, 22, 23494, -19206, 5160, 5320, 20, 14, 1529172303.876, 3, 0, 1024, 1024, 1024, 1024, 0, 6, 3892, 3932, 3924, 3916, 3918, 3915, 0, 1, 15602, -89.900, 0.000, 165.900, 0.000, 0.000, -2.900, 0.0, , , , , , 95, , , 0, 0, 0
37.3089153, -119.5776403, 29.900, 11:05:03.974, 14, 0.00, 0.33, 97, -1.000, -0.800, 167.000, 2, 100, 100, 22, 23494, -19206, 5160, 5320, 20, 14, 1529172303.975, 102, 0, 1024, 1024, 1024, 1024, 0, 6, 3892, 3932, 3924, 3916, 3918, 3915, 0, 1, 15700, -89.900, 0.000, 165.900, 0.000, 0.000, -2.900, 0.0, , , , , , 95, , , 0, 0, 0
37.3089152, -119.5776403, 30.200, 11:05:04.074, 14, 0.00, 0.33, 97, -1.000, -0.800, 167.000, 2, 100, 100, 22, 23494, -19206, 5160, 5320, 20, 14, 1529172304.074, 89, 0, 1024, 1024, 1024, 1024, 0, 6, 3892, 3932, 3924, 3916, 3918, 3915, 0, 1, 15800, -89.900, 0.000, 165.800, 0.000, 0.000, -2.900, 0.0, , , , , , 95, , , 0, 0, 0
37.3089152, -119.5776403, 30.500, 11:05:04.173, 14, 0.00, 0.32, 97, -0.900, -0.900, 166.900, 2, 100, 100, 22, 23494, -19206, 5160, 5320, 20, 14, 1529172304.174, 83, 0, 1024, 1024, 1024, 1024, 0, 6, 3892, 3932, 3924, 3916, 3918, 3915, 0, 1, 15899, -89.900, 0.000, 165.900, 0.000, 0.000, -3.000, 0.0, , , , , , 95, , , 0, 0, 0
37.3089152, -119.5776403, 30.800, 11:05:04.274, 14, 0.00, 0.32, 97, -0.800, -0.900, 166.800, 2, 100, 100, 22, 23471, -19040, 5160, 5320, 20, 14, 1529172304.274, 86, 0, 1024, 1024, 1024, 1024, 0, 6, 3893, 3923, 3916, 3916, 3909, 3905, 0, 1, 16000, -90.000, 0.000, 165.900, 0.000, 0.000, -3.000, 0.0, , , , , , 95, , , 0, 0, 0
37.3089153, -119.5776403, 31.100, 11:05:04.374, 14, 0.00, 0.33, 97, -0.800, -0.900, 166.800, 2, 100, 100, 22, 23471, -19040, 5160, 5320, 20, 14, 1529172304.374, 90, 0, 1024, 1024, 1024, 1024, 0, 6, 3893, 3923, 3916, 3916, 3909, 3905, 0, 1, 16099, -89.900, 0.000, 165.900, 0.000, 0.000, -3.000, 0.0, , , , , , 95, , , 0, 0, 0
37.3089153, -119.5776403, 31.400, 11:05:04.473, 14, 0.00, 0.33, 97, -0.800, -0.900, 166.800, 2, 100, 100, 22, 23471, -19040, 5160, 5320, 20, 14, 1529172304.474, 81, 0, 1024, 1024, 1024, 1024, 0, 6, 3893, 3923, 3916, 3916, 3909, 3905, 0, 1, 16199, -89.900, 0.000, 165.900, 0.000, 0.000, -3.000, 0.0, , , , , , 95, , , 0, 0, 0
37.3089152, -119.5776403, 31.800, 11:05:04.574, 14, 0.00, 0.33, 97, -0.700, -0.800, 166.800, 2, 100, 100, 22, 23471, -19040, 5160, 5320, 20, 14, 1529172304.574, 71, 0, 1024, 1024, 1024, 1024, 0, 6, 3893, 3923, 3916, 3916, 3909, 3905, 0, 1, 16300, -89.900, 0.000, 165.900, 0.000, 0.000, -3.000, 0.0, , , , , , 95, , , 0, 0, 0
37.3089152, -119.5776403, 32.100, 11:05:04.674, 14, 0.00, 0.33, 97, -0.800, -0.800, 166.800, 2, 100, 100, 22, 23471, -19040, 5160, 5320, 20, 14, 1529172304.674, 55, 0, 1024, 1024, 1024, 1024, 0, 6, 3893, 3923, 3916, 3916, 3909, 3905, 0, 1, 16400, -89.900, 0.000, 165.900, 0.000, 0.000, -2.900, 0.0, , , , , , 95, , , 0, 0, 0
37.3089152, -119.5776403, 32.100, 11:05:04.774, 14, 0.00, 0.33, 97, -0.800, -0.800, 166.800, 2, 100, 100, 22, 23471, -19040, 5160, 5320, 20, 14, 1529172304.775, 155, 0, 1024, 1024, 1024, 1024, 0, 6, 3893, 3923, 3916, 3916, 3909, 3905, 0, 1, 16500, -89.900, 0.000, 165.900, 0.000, 0.000, -2.900, 0.0, , , , , , 95, , , 0, 0, 0
37.3089152, -119.5776403, 32.600, 11:05:04.874, 14, 0.00, 0.32, 97, -1.100, -0.600, 167.000, 2, 100, 98, 22, 23471, -19040, 5160, 5320, 20, 14, 1529172304.875, 57, 0, 1024, 1024, 1024, 1024, 0, 6, 3893, 3923, 3916, 3916, 3909, 3905, 0, 1, 16600, -89.900, 0.000, 165.900, 0.000, 0.000, -2.900, 0.0, , , , , , 95, , , 0, 0, 0
37.3089152, -119.5776403, 32.900, 11:05:04.974, 14, 0.00, 0.32, 97, -1.000, -0.600, 167.100, 2, 100, 98, 22, 23471, -19040, 5160, 5320, 20, 14, 1529172304.974, 58, 0, 1024, 1024, 1024, 1024, 0, 6, 3893, 3923, 3916, 3916, 3909, 3905, 0, 1, 16700, -89.900, 0.000, 165.900, 0.000, 0.000, -3.000, 0.0, , , , , , 95, , , 0, 0, 0
37.3089151, -119.5776402, 33.200, 11:05:05.074, 14, 0.00, 0.32, 97, -0.900, -0.600, 167.100, 2, 100, 98, 22, 23471, -19040, 5160, 5320, 20, 14, 1529172305.074, 36, 0, 1024, 1024, 1024, 1024, 0, 6, 3893, 3923, 3916, 3916, 3909, 3905, 0, 1, 16800, -89.900, 0.000, 165.900, 0.000, 0.000, -3.000, 0.0, , , , , , 95, , , 0, 0, 0
37.3089151, -119.5776401, 33.800, 11:05:05.174, 14, 0.00, 0.31, 97, -0.800, -0.500, 167.100, 2, 100, 98, 22, 23471, -19040, 5160, 5320, 20, 14, 1529172305.174, 37, 0, 1024, 1024, 1024, 1024, 0, 6, 3893, 3923, 3916, 3916, 3909, 3905, 0, 1, 16899, -89.900, 0.000, 165.900, 0.000, 0.000, -3.000, 0.0, , , , , , 95, , , 0, 0, 0
37.3089151, -119.5776401, 34.100, 11:05:05.274, 14, 0.00, 0.31, 97, -1.200, -0.400, 167.100, 2, 100, 98, 22, 23457, -18909, 5160, 5320, 20, 14, 1529172305.274, 51, 0, 1024, 1024, 1024, 1024, 0, 6, 3893, 3923, 3916, 3916, 3909, 3905, 0, 1, 17000, -89.900, 0.000, 165.900, 0.000, 0.000, -3.000, 0.0, , , , , , 95, , , 0, 0, 0
37.3089150, -119.5776400, 34.500, 11:05:05.374, 14, 0.00, 0.30, 97, -1.300, -0.400, 167.100, 2, 100, 98, 22, 23457, -18909, 5160, 5320, 20, 14, 1529172305.374, 26, 0, 1024, 1024, 1024, 1024, 0, 6, 3893, 3923, 3916, 3916, 3909, 3905, 0, 1, 17099, -89.900, 0.000, 165.900, 0.000, 0.000, -3.000, 0.0, , , , , , 95, , , 0, 0, 0
37.3089150, -119.5776400, 34.800, 11:05:05.474, 14, 0.00, 0.30, 97, -1.200, -0.500, 167.100, 2, 100, 98, 22, 23457, -18909, 5160, 5320, 20, 14, 1529172305.474, 43, 0, 1024, 1024, 1024, 1024, 0, 6, 3893, 3923, 3916, 3916, 3909, 3905, 0, 1, 17199, -89.900, 0.000, 165.900, 0.000, 0.000, -3.000, 0.0, , , , , , 95, , , 0, 0, 0
37.3089149, -119.5776399, 35.100, 11:05:05.574, 14, 0.00, 0.29, 97, -0.800, -0.100, 167.100, 2, 100, 98, 22, 23457, -18909, 5160, 5320, 20, 14, 1529172305.574, 46, 0, 1024, 1024, 1024, 1024, 0, 6, 3893, 3923, 3916, 3916, 3909, 3905, 0, 1, 17300, -89.900, 0.000, 165.900, 0.000, 0.000, -2.900, 0.0, , , , , , 95, , , 0, 0, 0
37.3089149, -119.5776399, 35.400, 11:05:05.674, 14, 0.00, 0.29, 97, -0.800, 0.200, 166.900, 2, 100, 98, 22, 23457, -18909, 5160, 5320, 20, 14, 1529172305.674, 11, 0, 1024, 1024, 1024, 1024, 0, 6, 3893, 3923, 3916, 3916, 3909, 3905, 0, 1, 17400, -89.900, 0.000, 165.900, 0.000, 0.000, -3.000, 0.0, , , , , , 95, , , 0, 0, 0
37.3089148, -119.5776398, 35.700, 11:05:05.773, 14, 0.00, 0.28, 97, -0.900, 0.400, 166.700, 2, 100, 98, 22, 23457, -18909, 5160, 5320, 20, 14, 1529172305.774, 15, 0, 1024, 1024, 1024, 1024, 0, 6, 3892, 3923, 3918, 3911, 3903, 3916, 0, 1, 17499, -89.900, 0.000, 165.900, 0.000, 0.000, -2.900, 0.0, , , , , , 95, , , 0, 0, 0
37.3089148, -119.5776398, 36.000, 11:05:05.874, 14, 0.00, 0.28, 97, -1.200, 0.400, 166.500, 2, 100, 98, 22, 23457, -18909, 5160, 5320, 20, 14, 1529172305.874, 6, 0, 1024, 1024, 1024, 1024, 0, 6, 3892, 3923, 3918, 3911, 3903, 3916, 0, 1, 17599, -89.900, 0.000, 165.900, 0.000, 0.000, -2.900, 0.0, , , , , , 95, , , 0, 0, 0
37.3089147, -119.5776398, 36.300, 11:05:05.975, 14, 0.00, 0.28, 97, -1.600, 0.300, 166.400, 2, 100, 98, 22, 23457, -18909, 5160, 5320, 20, 14, 1529172305.975, 6, 0, 1024, 1024, 1024, 1024, 0, 6, 3892, 3923, 3918, 3911, 3903, 3916, 0, 1, 17701, -89.900, 0.000, 165.900, 0.000, 0.000, -2.900, 0.0, , , , , , 95, , , 0, 0, 0
37.3089147, -119.5776398, 36.600, 11:05:06.073, 14, 0.00, 0.28, 97, -1.400, 0.200, 166.500, 2, 100, 98, 22, 23457, -18909, 5160, 5320, 20, 14, 1529172306.074, 8, 0, 1024, 1024, 1024, 1024, 0, 6, 3892, 3923, 3918, 3911, 3903, 3916, 0, 1, 17799, -89.900, 0.000, 165.900, 0.000, 0.000, -2.900, 0.0, , , , , , 95, , , 0, 0, 0
37.3089147, -119.5776398, 36.900, 11:05:06.174, 14, 0.00, 0.28, 97, -1.300, 0.000, 166.600, 2, 100, 98, 22, 23457, -18909, 5160, 5320, 20, 14, 1529172306.174, 13, 0, 1024, 1024, 1024, 1024, 0, 6, 3892, 3923, 3918, 3911, 3903, 3916, 0, 1, 17899, -89.900, 0.000, 165.900, 0.000, 0.000, -2.900, 0.0, , , , , , 95, , , 0, 0, 0
37.3089147, -119.5776398, 37.200, 11:05:06.274, 14, 0.00, 0.28, 97, -1.300, -0.100, 166.700, 2, 100, 100, 23, 23457, -18909, 5160, 5320, 20, 14, 1529172306.274, 8, 0, 1024, 1024, 1024, 1024, 0, 6, 3892, 3923, 3918, 3911, 3903, 3916, 0, 1, 18000, -89.900, 0.000, 165.900, 0.000, 0.000, -2.900, 0.0, , , , , , 95, , , 0, 0, 0
37.3089147, -119.5776398, 37.200, 11:05:06.374, 14, 0.00, 0.28, 97, -1.300, -0.100, 166.700, 2, 100, 100, 23, 23457, -18909, 5160, 5320, 20, 14, 1529172306.374, 109, 0, 1024, 1024, 1024, 1024, 0, 6, 3892, 3923, 3918, 3911, 3903, 3916, 0, 1, 18100, -89.900, 0.000, 165.900, 0.000, 0.000, -2.900, 0.0, , , , , , 95, , , 0, 0, 0
37.3089148, -119.5776398, 37.500, 11:05:06.474, 14, 0.00, 0.29, 97, -1.300, -0.200, 166.800, 2, 100, 100, 23, 23457, -18909, 5160, 5320, 20, 14, 1529172306.474, 90, 0, 1024, 1024, 1024, 1024, 0, 6, 3892, 3923, 3918, 3911, 3903, 3916, 0, 1, 18200, -89.900, 0.000, 165.900, 0.000, 0.000, -2.900, 0.0, , , , , , 95, , , 0, 0, 0
37.3089148, -119.5776399, 37.800, 11:05:06.574, 14, 0.00, 0.29, 97, -1.400, -0.500, 166.800, 2, 100, 100, 23, 23457, -18909, 5160, 5320, 20, 14, 1529172306.574, 91, 0, 1024, 1024, 1024, 1024, 0, 6, 3892, 3923, 3918, 3911, 3903, 3916, 0, 1, 18300, -90.000, 0.000, 165.900, 0.000, 0.000, -2.900, 0.0, , , , , , 95, , , 0, 0, 0
37.3089148, -119.5776399, 38.100, 11:05:06.674, 14, 0.00, 0.29, 97, -1.500, -0.700, 166.900, 2, 100, 100, 23, 23457, -18909, 5160, 5320, 20, 14, 1529172306.674, 96, 0, 1024, 1024, 1024, 1024, 0, 6, 3892, 3923, 3918, 3911, 3903, 3916, 0, 1, 18399, -90.000, 0.000, 165.800, 0.000, 0.000, -2.900, 0.0, , , , , , 95, , , 0, 0, 0
37.3089149, -119.5776399, 38.400, 11:05:06.773, 14, 0.00, 0.29, 97, -1.400, -0.800, 166.900, 2, 100, 100, 23, 23484, -18348, 5160, 5320, 20, 14, 1529172306.773, 77, 0, 1024, 1024, 1024, 1024, 0, 6, 3894, 3935, 3920, 3918, 3914, 3923, 0, 1, 18499, -90.000, 0.000, 165.800, 0.000, 0.000, -3.000, 0.0, , , , , , 95, , , 0, 0, 0
37.3089149, -119.5776399, 38.700, 11:05:06.874, 14, 0.00, 0.29, 97, -1.200, -0.800, 166.900, 2, 100, 100, 23, 23484, -18348, 5160, 5320, 20, 14, 1529172306.874, 91, 0, 1024, 1024, 1024, 1024, 0, 6, 3894, 3935, 3920, 3918, 3914, 3923, 0, 1, 18600, -90.000, 0.000, 165.800, 0.000, 0.000, -2.900, 0.0, , , , , , 95, , , 0, 0, 0
37.3089149, -119.5776399, 39.000, 11:05:06.974, 14, 0.00, 0.29, 97, -1.200, -0.800, 166.900, 2, 100, 100, 23, 23484, -18348, 5160, 5320, 20, 14, 1529172306.974, 87, 0, 1024, 1024, 1024, 1024, 0, 6, 3894, 3935, 3920, 3918, 3914, 3923, 0, 1, 18700, -90.000, 0.000, 165.900, 0.000, 0.000, -2.900, 0.0, , , , , , 95, , , 0, 0, 0
37.3089149, -119.5776400, 39.300, 11:05:07.074, 14, 0.00, 0.30, 97, -1.300, -0.800, 166.800, 2, 100, 100, 23, 23484, -18348, 5160, 5320, 20, 14, 1529172307.074, 79, 0, 1024, 1024, 1024, 1024, 0, 6, 3894, 3935, 3920, 3918, 3914, 3923, 0, 1, 18800, -90.000, 0.000, 165.900, 0.000, 0.000, -2.900, 0.0, , , , , , 95, , , 0, 0, 0
37.3089150, -119.5776400, 39.500, 11:05:07.174, 14, 0.00, 0.30, 97, -1.500, -0.900, 166.800, 2, 100, 100, 23, 23484, -18348, 5160, 5320, 20, 14, 1529172307.174, 59, 0, 1024, 1024, 1024, 1024, 0, 6, 3894, 3935, 3920, 3918, 3914, 3923, 0, 1, 18900, -90.000, 0.000, 165.900, 0.000, 0.000, -2.900, 0.0, , , , , , 95, , , 0, 0, 0
37.3089151, -119.5776401, 39.800, 11:05:07.274, 14, 0.00, 0.30, 97, -1.600, -1.300, 166.700, 2, 100, 100, 23, 23484, -18348, 5160, 5320, 20, 14, 1529172307.274, 67, 0, 1024, 1024, 1024, 1024, 0, 6, 3894, 3935, 3920, 3918, 3914, 3923, 0, 1, 19000, -90.000, 0.000, 165.900, 0.000, 0.000, -2.900, 0.0, , , , , , 95, , , 0, 0, 0
37.3089151, -119.5776401, 40.100, 11:05:07.374, 14, 0.00, 0.31, 97, -1.500, -1.600, 166.800, 2, 100, 100, 23, 23484, -18348, 5160, 5320, 20, 14, 1529172307.374, 59, 0, 1024, 1024, 1024, 1024, 0, 6, 3894, 3935, 3920, 3918, 3914, 3923, 0, 1, 19100, -89.900, 0.000, 165.900, 0.000, 0.000, -3.000, 0.0, , , , , , 95, , , 0, 0, 0
37.3089152, -119.5776401, 40.400, 11:05:07.474, 14, 0.00, 0.31, 97, -1.600, -2.000, 166.900, 2, 100, 100, 23, 23484, -18348, 5160, 5320, 20, 14, 1529172307.474, 65, 0, 1024, 1024, 1024, 1024, 0, 6, 3894, 3935, 3920, 3918, 3914, 3923, 0, 1, 19200, -90.000, 0.000, 165.900, 0.000, 0.000, -3.000, 0.0, , , , , , 95, , , 0, 0, 0
37.3089152, -119.5776402, 40.800, 11:05:07.574, 14, 0.00, 0.32, 97, -1.600, -2.100, 167.100, 2, 100, 100, 23, 23484, -18348, 5160, 5320, 20, 14, 1529172307.574, 28, 0, 1024, 1024, 1024, 1024, 0, 6, 3894, 3935, 3920, 3918, 3914, 3923, 0, 1, 19300, -89.900, 0.000, 165.900, 0.000, 0.000, -3.000, 0.0, , , , , , 95, , , 0, 0, 0
37.3089153, -119.5776403, 41.100, 11:05:07.674, 14, 0.00, 0.32, 97, -1.700, -2.200, 167.200, 2, 100, 100, 23, 23484, -18348, 5160, 5320, 20, 14, 1529172307.674, 42, 0, 1024, 1024, 1024, 1024, 0, 6, 3894, 3935, 3920, 3918, 3914, 3923, 0, 1, 19399, -89.900, 0.000, 165.900, 0.000, 0.000, -3.100, 0.0, , , , , , 95, , , 0, 0, 0
37.3089153, -119.5776404, 41.400, 11:05:07.774, 14, 0.00, 0.33, 97, -2.000, -2.000, 167.300, 2, 100, 100, 23, 23420, -18348, 5160, 5320, 20, 14, 1529172307.774, 22, 0, 1024, 1024, 1024, 1024, 0, 6, 3882, 3913, 3910, 3901, 3900, 3899, 0, 1, 19500, -89.900, 0.000, 165.900, 0.000, 0.000, -3.000, 0.0, , , , , , 95, , , 0, 0, 0
37.3089154, -119.5776406, 42.000, 11:05:07.874, 14, 0.00, 0.36, 97, -2.700, -1.800, 167.000, 2, 100, 100, 23, 23420, -18348, 5160, 5320, 20, 14, 1529172307.874, 48, 0, 1024, 1024, 1024, 1024, 0, 6, 3882, 3913, 3910, 3901, 3900, 3899, 0, 1, 19600, -89.900, 0.000, 165.800, 0.000, 0.000, -3.000, 0.0, , , , , , 95, , , 0, 0, 0
37.3089155, -119.5776408, 42.300, 11:05:07.974, 14, 0.00, 0.37, 97, -2.900, -2.000, 166.900, 2, 100, 100, 23, 23420, -18348, 5160, 5320, 20, 14, 1529172307.974, 27, 0, 1024, 1024, 1024, 1024, 0, 6, 3882, 3913, 3910, 3901, 3900, 3899, 0, 1, 19700, -89.900, 0.000, 165.900, 0.000, 0.000, -3.000, 0.0, , , , , , 95, , , 0, 0, 0
37.3089156, -119.5776409, 42.600, 11:05:08.074, 14, 0.00, 0.39, 97, -3.300, -2.300, 166.800, 2, 100, 100, 23, 23420, -18348, 5160, 5320, 20, 14, 1529172308.074, 30, 0, 1024, 1024, 1024, 1024, 0, 6, 3882, 3913, 3910, 3901, 3900, 3899, 0, 1, 19800, -89.900, 0.000, 165.900, 0.000, 0.000, -3.000, 0.0, , , , , , 95, , , 0, 0, 0
37.3089157, -119.5776411, 42.900, 11:05:08.174, 14, 0.00, 0.40, 97, -3.600, -2.700, 166.700, 2, 100, 100, 23, 23420, -18348, 5160, 5320, 20, 14, 1529172308.174, 37, 0, 1024, 1024, 1024, 1024, 0, 6, 3882, 3913, 3910, 3901, 3900, 3899, 0, 1, 19900, -89.900, 0.000, 165.900, 0.000, 0.000, -3.000, 0.0, , , , , , 95, , , 0, 0, 0
37.3089158, -119.5776413, 43.200, 11:05:08.274, 14, 0.00, 0.42, 97, -3.600, -3.200, 166.800, 2, 100, 99, 23, 23420, -18348, 5160, 5320, 20, 14, 1529172308.274, 16, 0, 1024, 1024, 1024, 1024, 0, 6, 3882, 3913, 3910, 3901, 3900, 3899, 0, 1, 19999, -90.000, 0.000, 165.900, 0.000, 0.000, -2.900, 0.0, , , , , , 95, , , 0, 0, 0
37.3089159, -119.5776414, 43.500, 11:05:08.374, 14, 0.10, 0.43, 97, -3.500, -3.900, 166.800, 2, 100, 99, 23, 23420, -18348, 5160, 5320, 20, 14, 1529172308.374, 19, 0, 1024, 1024, 1024, 1024, 0, 6, 3882, 3913, 3910, 3901, 3900, 3899, 0, 1, 20100, -90.000, 0.000, 165.900, 0.100, 0.000, -2.900, 0.0, , , , , , 95, , , 0, 0, 0
37.3089160, -119.5776415, 43.800, 11:05:08.474, 14, 0.10, 0.45, 97, -3.600, -4.300, 166.900, 2, 100, 99, 23, 23420, -18348, 5160, 5320, 20, 14, 1529172308.474, 6, 0, 1024, 1024, 1024, 1024, 0, 6, 3882, 3913, 3910, 3901, 3900, 3899, 0, 1, 20200, -90.000, 0.000, 165.800, 0.100, 0.000, -2.800, 0.0, , , , , , 95, , , 0, 0, 0
37.3089161, -119.5776415, 44.100, 11:05:08.574, 14, 0.10, 0.45, 97, -3.200, -4.400, 167.000, 2, 100, 99, 23, 23420, -18348, 5160, 5320, 20, 14, 1529172308.574, 10, 0, 1024, 1024, 1024, 1024, 0, 6, 3882, 3913, 3910, 3901, 3900, 3899, 0, 1, 20300, -89.900, 0.000, 165.800, 0.100, 0.000, -2.800, 0.0, , , , , , 95, , , 0, 0, 0
37.3089161, -119.5776415, 44.100, 11:05:08.674, 14, 0.10, 0.45, 97, -3.200, -4.400, 167.000, 2, 100, 99, 23, 23420, -18348, 5160, 5320, 20, 14, 1529172308.674, 110, 0, 1024, 1024, 1024, 1024, 0, 6, 3882, 3913, 3910, 3901, 3900, 3899, 0, 1, 20400, -89.900, 0.000, 165.800, 0.100, 0.000, -2.800, 0.0, , , , , , 95, , , 0, 0, 0
37.3089164, -119.5776416, 44.600, 11:05:08.782, 14, 0.00, 0.47, 97, -2.200, -4.700, 167.100, 2, 100, 98, 23, 23361, -17346, 5160, 5320, 20, 14, 1529172308.782, 4, 0, 1024, 1024, 1024, 1024, 0, 6, 3894, 3938, 3907, 3900, 3891, 3907, 0, 1, 20508, -90.000, 0.000, 165.800, 0.000, 0.000, -2.800, 0.0, , , , , , 95, , , 0, 0, 0
37.3089164, -119.5776416, 44.600, 11:05:08.874, 14, 0.00, 0.47, 97, -2.200, -4.700, 167.100, 2, 100, 98, 23, 23361, -17346, 5160, 5320, 20, 14, 1529172308.874, 96, 0, 1024, 1024, 1024, 1024, 0, 6, 3894, 3938, 3907, 3900, 3891, 3907, 0, 1, 20600, -89.900, 0.000, 165.900, 0.000, 0.000, -2.800, 0.0, , , , , , 95, , , 0, 0, 0
37.3089165, -119.5776416, 44.900, 11:05:08.974, 14, 0.10, 0.47, 97, -1.700, -4.400, 167.200, 2, 100, 98, 23, 23361, -17346, 5160, 5320, 20, 14, 1529172308.974, 86, 0, 1024, 1024, 1024, 1024, 0, 6, 3894, 3938, 3907, 3900, 3891, 3907, 0, 1, 20700, -89.900, 0.000, 165.900, 0.000, 0.100, -2.800, 0.0, , , , , , 95, , , 0, 0, 0
37.3089166, -119.5776415, 45.100, 11:05:09.074, 14, 0.10, 0.47, 97, -1.000, -4.300, 167.200, 2, 100, 98, 23, 23361, -17346, 5160, 5320, 20, 14, 1529172309.074, 62, 0, 1024, 1024, 1024, 1024, 0, 6, 3894, 3938, 3907, 3900, 3891, 3907, 0, 1, 20799, -89.900, 0.000, 165.900, 0.000, 0.100, -2.800, 0.0, , , , , , 95, , , 0, 0, 0
37.3089167, -119.5776415, 45.400, 11:05:09.174, 14, 0.10, 0.47, 97, -0.700, -4.500, 167.100, 2, 100, 98, 23, 23361, -17346, 5160, 5320, 20, 14, 1529172309.174, 77, 0, 1024, 1024, 1024, 1024, 0, 6, 3894, 3938, 3907, 3900, 3891, 3907, 0, 1, 20899, -89.900, 0.000, 165.900, 0.000, 0.100, -2.900, 0.0, , , , , , 95, , , 0, 0, 0
37.3089167, -119.5776415, 45.700, 11:05:09.274, 14, 0.10, 0.47, 97, -1.000, -4.500, 166.900, 2, 100, 98, 23, 23361, -17346, 5160, 5320, 20, 14, 1529172309.274, 78, 0, 1024, 1024, 1024, 1024, 0, 6, 3894, 3938, 3907, 3900, 3891, 3907, 0, 1, 20999, -89.900, 0.000, 165.900, 0.000, 0.100, -2.900, 0.0, , , , , , 95, , , 0, 0, 0
