latitude,longitude,altitude(feet),ascent(feet),speed(mph),distance(feet),time(millisecond),datetime(utc),satellites,gpslevel,voltage(v),max_altitude(feet),max_ascent(feet),max_speed(mph),max_distance(feet), xSpeed(mph), ySpeed(mph), zSpeed(mph), compass_heading(degrees), pitch(degrees), roll(degrees),isPhoto,isVideo,rc_elevator,rc_aileron,rc_throttle,rc_rudder,gimbal_heading(degrees),gimbal_pitch(degrees),battery_percent,voltageCell1,voltageCell2,voltageCell3,voltageCell4,voltageCell5,voltageCell6,current(A),battery_temperature(f),flycStateRaw,flycState,message
37.0516737,-119.2428143,3724.4714843406,0,0,0,3200,2018-06-18 17:11:23,15,0,0,3724.4714843406,0,0,0,0,0,0,313.6, -1.4, -0.2,1,0,1024,1024,1024,1024,312,-89.9,98,4.225,4.197,4.175,4.224,4.204,4.2,0,59,11,AutoTakeoff,DJI_0677.jpg Starting Mission from Lat/Long: 37.05168/-119.24281 Camera: Zenmuse X3 - Overlap: 90/90 - Active Connection: No
37.0516737,-119.2428144,3724.4714843406,0,0,0.0291183408268,3300,2018-06-18 17:11:23,15,0,0,3724.4714843406,0,0,0.0291183408268,0,0,0,313.8, -1.7, 0.1,0,0,1024,1024,1024,1024,312,-89.9,98,4.225,4.197,4.175,4.224,4.204,4.2,0,59,11,AutoTakeoff,
37.0516736,-119.2428144,3724.4714843406,0,0,0.046680119604,3400,2018-06-18 17:11:23,15,0,0,3724.4714843406,0,0,0.046680119604,0,0,0,313.9, -1.1, 0.3,0,0,1024,1024,1024,1024,312,-89.9,98,4.225,4.197,4.175,4.224,4.204,4.2,0,59,11,AutoTakeoff,
37.0516735,-119.2428145,3724.4714843406,0,0,0.093360239208,3500,2018-06-18 17:11:23,15,0,0,3724.4714843406,0,0,0.093360239208,0,0,0,313.8, -0.2, 0.3,0,0,1024,1024,1024,1024,312,-89.9,98,4.225,4.197,4.175,4.224,4.204,4.2,0,59,11,AutoTakeoff,
37.0516735,-119.2428146,3724.7995683406,0.328084,0,0.11382218212,3600,2018-06-18 17:11:23,15,0,0,3724.7995683406,0.328084,0,0.11382218212,0,0,0,313.6, 0.1, 0.2,0,0,1024,1024,1024,1024,312,-89.9,98,4.225,4.197,4.175,4.224,4.204,4.2,0,59,11,AutoTakeoff,
37.0516734,-119.2428147,3724.7995683406,0.328084,0,0.159832354196,3700,2018-06-18 17:11:23,14,0,0,3724.7995683406,0.328084,0,0.159832354196,0,0,0,313.4, 0.3, 0.5,0,0,1024,1024,1024,1024,312.1,-89.9,98,4.225,4.197,4.175,4.224,4.204,4.2,0,59,11,AutoTakeoff,
37.0516733,-119.2428149,3725.1276523406,0.656168,0,0.227644692324,3800,2018-06-18 17:11:24,14,0,0,3725.1276523406,0.656168,0,0.227644692324,0,0,0,313.3, 0.7, 0.6,0,0,1024,1024,1024,1024,312.1,-89.9,98,4.225,4.197,4.175,4.224,4.204,4.2,0,59,11,AutoTakeoff,
37.0516733,-119.242815,3725.1276523406,0.656168,0,0.250688000148,3900,2018-06-18 17:11:24,14,0,0,3725.1276523406,0.656168,0,0.250688000148,0,0,0,313.2, 0.8, 0.8,0,0,1024,1024,1024,1024,312.1,-89.9,98,4.225,4.197,4.175,4.224,4.204,4.2,0,59,11,AutoTakeoff,
37.0516732,-119.2428152,3725.4557363406,0.984252,0,0.319307096832,4000,2018-06-18 17:11:24,15,0,24.357,3725.4557363406,0.984252,0,0.319307096832,0,0,0,313.1, 0.3, 0.6,0,0,1024,1024,1024,1024,312.1,-89.9,98,4.225,4.197,4.175,4.224,4.204,4.2,7.368,59,11,AutoTakeoff,
37.0516731,-119.2428154,3725.7838203406,1.312336,0,0.38796261084,4200,2018-06-18 17:11:24,15,0,24.357,3725.7838203406,1.312336,0,0.38796261084,0,0,0,313, 0.5, 0.9,0,0,1024,1024,1024,1024,312.2,-89.9,98,4.225,4.197,4.175,4.224,4.204,4.2,7.368,59,11,AutoTakeoff,
37.0516731,-119.2428155,3726.1119043406,1.64042,0,0.41232940952,4300,2018-06-18 17:11:24,15,0,24.357,3726.1119043406,1.64042,0,0.41232940952,0,0,-0.223694,313, 0.8, 1.2,0,0,1024,1024,1024,1024,312.2,-89.9,98,4.225,4.197,4.175,4.224,4.204,4.2,7.368,59,11,AutoTakeoff,
37.0516731,-119.2428157,3726.4399883406,1.968504,0,0.46271655024,4400,2018-06-18 17:11:24,15,0,24.357,3726.4399883406,1.968504,0,0.46271655024,0,0,-0.223694,313.1, 1.1, 1.2,0,0,1024,1024,1024,1024,312.2,-89.9,98,4.225,4.197,4.175,4.224,4.204,4.2,7.368,59,11,AutoTakeoff,
37.0516731,-119.2428158,3726.4399883406,1.968504,0,0.48856300776,4500,2018-06-18 17:11:24,15,0,24.357,3726.4399883406,1.968504,0,0.48856300776,0,0,0,313.2, 1.2, 1.3,0,0,1024,1024,1024,1024,312.2,-89.9,98,4.225,4.197,4.175,4.224,4.204,4.2,7.368,59,11,AutoTakeoff,
37.0516731,-119.2428159,3726.7680723406,2.296588,0,0.51476051516,4600,2018-06-18 17:11:24,15,0,24.357,3726.7680723406,2.296588,0,0.51476051516,0,0,0,313.4, 1.3, 1.5,0,0,1024,1024,1024,1024,312.2,-89.9,98,4.225,4.197,4.175,4.224,4.204,4.2,7.368,59,11,AutoTakeoff,
37.0516731,-119.242816,3726.7680723406,2.296588,0,0.541256579,4700,2018-06-18 17:11:24,15,0,24.357,3726.7680723406,2.296588,0,0.541256579,0,0,0,313.6, 1.4, 1.5,0,0,1024,1024,1024,1024,312.3,-89.9,98,4.225,4.197,4.175,4.224,4.204,4.2,7.368,59,11,AutoTakeoff,
37.0516732,-119.2428161,3727.0961563406,2.624672,0,0.5549704902,4900,2018-06-18 17:11:25,14,0,24.357,3727.0961563406,2.624672,0,0.5549704902,0,0,0,313.8, 1.5, 1.4,0,0,1024,1024,1024,1024,312.3,-89.9,98,4.225,4.197,4.175,4.224,4.204,4.2,7.368,59,11,AutoTakeoff,
37.0516732,-119.2428161,3727.4242403406,2.952756,0,0.5549704902,5000,2018-06-18 17:11:25,15,0,24.357,3727.4242403406,2.952756,0,0.5549704902,0,0,-0.223694,313.8, 1.6, 1.3,0,0,1024,1024,1024,1024,312.3,-89.9,98,4.071,4.045,3.973,4.01,3.993,4.042,7.368,59,6,P-GPS,
37.0516733,-119.2428162,3727.4242403406,2.952756,0,0.57217193432,5100,2018-06-18 17:11:25,15,0,24.357,3727.4242403406,2.952756,0,0.57217193432,0,0,0,313.7, 1.7, 1.3,0,0,1024,1024,1024,1024,312.3,-89.9,98,4.071,4.045,3.973,4.01,3.993,4.042,7.368,59,14,Waypoint,
37.0516733,-119.2428162,3727.7523243406,3.28084,0,0.57217193432,5300,2018-06-18 17:11:25,16,0,24.357,3727.7523243406,3.28084,0,0.57217193432,0,0,0,313.7, 1.7, 0.5,0,0,1024,1024,1024,1024,312.3,-89.9,98,4.071,4.045,3.973,4.01,3.993,4.042,7.368,59,14,Waypoint,
37.0516734,-119.2428162,3727.7523243406,3.28084,0,0.56397311516,5400,2018-06-18 17:11:25,16,0,24.357,3727.7523243406,3.28084,0,0.57217193432,0,0,0,313.6, 1.3, -0.1,0,0,1024,1024,1024,1024,312.3,-89.9,98,4.071,4.045,3.973,4.01,3.993,4.042,7.368,59,14,Waypoint,
37.0516734,-119.2428162,3727.7523243406,3.28084,0,0.56397311516,5500,2018-06-18 17:11:25,17,0,24.357,3727.7523243406,3.28084,0,0.57217193432,0,0,0,313.6, 1, -0.5,0,0,1024,1024,1024,1024,312.4,-89.9,98,4.071,4.045,3.973,4.01,3.993,4.042,7.368,59,14,Waypoint,
37.0516734,-119.2428162,3728.0804083406,3.608924,0,0.56397311516,5600,2018-06-18 17:11:25,17,0,24.357,3728.0804083406,3.608924,0,0.57217193432,0,0,0,313.5, 0.9, -0.4,0,0,1024,1024,1024,1024,312.4,-89.9,98,4.071,4.045,3.973,4.01,3.993,4.042,7.368,59,14,Waypoint,
37.0516734,-119.2428163,3728.0804083406,3.608924,0,0.59256235492,5700,2018-06-18 17:11:25,17,0,24.357,3728.0804083406,3.608924,0,0.59256235492,0,0,0,313.5, 0.9, -0.1,0,0,1024,1024,1024,1024,312.4,-90,98,4.071,4.045,3.973,4.01,3.993,4.042,7.368,59,14,Waypoint,
37.0516735,-119.2428163,3728.0804083406,3.608924,0,0.58691931012,5800,2018-06-18 17:11:26,17,0,24.357,3728.0804083406,3.608924,0,0.59256235492,0,0,-0.223694,313.4, 1, 0.1,0,0,1024,1024,1024,1024,312.4,-89.9,98,4.071,4.045,3.973,4.01,3.993,4.042,7.368,59,14,Waypoint,
37.0516735,-119.2428164,3728.4084923406,3.937008,0,0.61582351052,5900,2018-06-18 17:11:26,16,0,24.357,3728.4084923406,3.937008,0,0.61582351052,0,0,-0.223694,313.4, 1.1, 0.3,0,0,1024,1024,1024,1024,312.4,-89.9,98,4.071,4.045,3.973,4.01,3.993,4.042,7.368,59,14,Waypoint,
37.0516735,-119.2428166,3729.0646603406,4.593176,0,0.67368440476,6000,2018-06-18 17:11:26,16,0,23.302,3729.0646603406,4.593176,0,0.67368440476,0,0,-0.223694,313.2, 1.3, 0.5,0,0,1024,1024,1024,1024,312.4,-89.9,98,3.832,3.826,3.858,3.861,3.842,3.883,16.766,59,14,Waypoint,
37.0516734,-119.2428167,3729.7208283406,5.249344,0,0.70735894652,6100,2018-06-18 17:11:26,16,0,23.302,3729.7208283406,5.249344,0,0.70735894652,0,0,-0.223694,313.1, 1.5, 0.6,0,0,1024,1024,1024,1024,312.5,-89.9,98,3.832,3.826,3.858,3.861,3.842,3.883,16.766,59,14,Waypoint,
37.0516733,-119.2428168,3730.7050803406,6.233596,0,0.74244424948,6300,2018-06-18 17:11:26,17,0,23.302,3730.7050803406,6.233596,0,0.74244424948,0,0,-0.447388,313.1, 1.4, 0.9,0,0,1024,1024,1024,1024,312.5,-89.9,98,3.832,3.826,3.858,3.861,3.842,3.883,16.766,59,14,Waypoint,
37.0516732,-119.2428169,3731.3612483406,6.889764,0,0.77874674408,6400,2018-06-18 17:11:26,15,0,23.302,3731.3612483406,6.889764,0,0.77874674408,0,0,-0.447388,313.3, 1.3, 0.9,0,0,1024,1024,1024,1024,312.5,-89.9,98,3.832,3.826,3.858,3.861,3.842,3.883,16.766,59,14,Waypoint,
37.0516732,-119.242817,3732.0174163406,7.545932,0,0.80708335916,6500,2018-06-18 17:11:26,15,0,23.302,3732.0174163406,7.545932,0,0.80708335916,0,0,-0.447388,313.5, 1.1, 0.8,0,0,1024,1024,1024,1024,312.5,-89.9,98,3.832,3.826,3.858,3.861,3.842,3.883,16.766,59,14,Waypoint,
37.0516731,-119.2428171,3733.0016683406,8.530184,0,0.84418965956,6600,2018-06-18 17:11:26,16,0,23.302,3733.0016683406,8.530184,0,0.84418965956,0,0,-0.671082,313.7, 1.1, 0.9,0,0,1024,1024,1024,1024,312.5,-89.9,98,3.832,3.826,3.858,3.861,3.842,3.883,16.766,59,14,Waypoint,
37.051673,-119.2428172,3733.6578363406,9.186352,0,0.88220803348,6700,2018-06-18 17:11:26,16,0,23.302,3733.6578363406,9.186352,0,0.88220803348,0,0,-0.671082,313.8, 1.3, 1,0,0,1024,1024,1024,1024,312.6,-89.9,98,3.832,3.826,3.858,3.861,3.842,3.883,16.766,59,14,Waypoint,
37.051673,-119.2428173,3734.6420883406,10.170604,0,0.91011813936,6800,2018-06-18 17:11:27,16,0,23.302,3734.6420883406,10.170604,0,0.91011813936,0,0,-0.671082,313.9, 1.4, 0.9,0,0,1024,1024,1024,1024,312.6,-89.9,98,3.832,3.826,3.858,3.861,3.842,3.883,16.766,59,14,Waypoint,
37.0516728,-119.2428175,3736.9386763406,12.467192,0,0.98795278752,7000,2018-06-18 17:11:27,17,0,22.914,3736.9386763406,12.467192,0,0.98795278752,0,0,-0.671082,314.3, 1.5, 0.9,0,0,1024,1024,1024,1024,312.6,-89.9,98,3.838,3.754,3.76,3.767,3.786,3.856,17.412,59,14,Waypoint,
37.0516728,-119.2428176,3739.2352643406,14.76378,0,1.01546263092,7210,2018-06-18 17:11:27,18,0,22.914,3739.2352643406,14.76378,0,1.01546263092,0,0,-0.671082,314.4, 1.4, 0.7,0,0,1024,1024,1024,1024,312.6,-89.9,98,3.838,3.754,3.76,3.767,3.786,3.856,17.412,59,14,Waypoint,
37.0516728,-119.2428176,3739.2352643406,14.76378,0,1.01546263092,7300,2018-06-18 17:11:27,18,0,22.914,3739.2352643406,14.76378,0,1.01546263092,0,0,-0.671082,314.4, 1.4, 0.7,0,0,1024,1024,1024,1024,312.6,-89.9,98,3.838,3.754,3.76,3.767,3.786,3.856,17.412,59,14,Waypoint,
37.0516727,-119.2428175,3741.5318523406,17.060368,0,1.0006726042,7400,2018-06-18 17:11:27,18,0,22.914,3741.5318523406,17.060368,0,1.01546263092,0,0,-0.671082,314.3, 1.2, 0.3,0,0,1024,1024,1024,1024,312.6,-89.9,98,3.838,3.754,3.76,3.767,3.786,3.856,17.412,59,14,Waypoint,
37.0516727,-119.2428174,3742.5161043406,18.04462,0,0.97361551672,7600,2018-06-18 17:11:27,18,0,22.914,3742.5161043406,18.04462,0,1.01546263092,0,0,-0.671082,314.1, 0.9, 0.1,0,0,1024,1024,1024,1024,312.6,-89.9,98,3.838,3.754,3.76,3.767,3.786,3.856,17.412,59,14,Waypoint,
37.0516727,-119.2428173,3743.8284403406,19.356956,0,0.94667982032,7700,2018-06-18 17:11:27,17,0,22.914,3743.8284403406,19.356956,0,1.01546263092,0,0,-0.671082,313.8, 0.7, 0,0,0,1024,1024,1024,1024,312.6,-90,98,3.838,3.754,3.76,3.767,3.786,3.856,17.412,59,14,Waypoint,
37.0516728,-119.2428172,3744.8126923406,20.341208,0.223694,0.90603021272,7800,2018-06-18 17:11:28,17,0,22.914,3744.8126923406,20.341208,0.223694,1.01546263092,0,0,-0.671082,313.6, 0.5, -0.2,0,0,1024,1024,1024,1024,312.6,-90,98,3.838,3.754,3.76,3.767,3.786,3.856,17.412,59,14,Waypoint,
37.0516728,-119.242817,3746.1250283406,21.653544,0.223694,0.85201446296,7900,2018-06-18 17:11:28,18,0,22.914,3746.1250283406,21.653544,0.223694,1.01546263092,0,0,-0.671082,313.5, 0.5, -0.5,0,0,1024,1024,1024,1024,312.6,-90,98,3.838,3.754,3.76,3.767,3.786,3.856,17.412,59,14,Waypoint,
37.0516729,-119.2428168,3747.1092803406,22.637796,0.223694,0.78429464452,8000,2018-06-18 17:11:28,18,0,22.071,3747.1092803406,22.637796,0.223694,1.01546263092,0,0,-0.671082,313.3, 0.3, -0.9,0,0,1024,1024,1024,1024,312.6,-90,98,3.683,3.658,3.634,3.649,3.662,3.698,24.69,59,14,Waypoint,
37.0516729,-119.2428166,3748.4216163406,23.950132,0.223694,0.730561047,8100,2018-06-18 17:11:28,18,0,22.071,3748.4216163406,23.950132,0.223694,1.01546263092,0,0,-0.671082,313.2, 0.2, -1.1,0,0,1024,1024,1024,1024,312.6,-90,98,3.683,3.658,3.634,3.649,3.662,3.698,24.69,59,14,Waypoint,
37.051673,-119.2428164,3749.4058683406,24.934384,0.223694,0.66267718656,8200,2018-06-18 17:11:28,18,0,22.071,3749.4058683406,24.934384,0.223694,1.01546263092,0,0,-0.671082,313.1, 0.1, -1.1,0,0,1024,1024,1024,1024,312.6,-90,98,3.683,3.658,3.634,3.649,3.662,3.698,24.69,59,14,Waypoint,
37.0516731,-119.2428162,3750.7182043406,26.24672,0.223694,0.59498361484,8300,2018-06-18 17:11:28,18,0,22.071,3750.7182043406,26.24672,0.223694,1.01546263092,0,0,-0.671082,313, 0, -1.3,0,0,1024,1024,1024,1024,312.6,-90,98,3.683,3.658,3.634,3.649,3.662,3.698,24.69,59,14,Waypoint,
37.0516731,-119.2428161,3751.7024563406,27.230972,0,0.56800854836,8400,2018-06-18 17:11:28,18,0,22.071,3751.7024563406,27.230972,0.223694,1.01546263092,0,0,-0.671082,313, 0, -1.3,0,0,1024,1024,1024,1024,312.6,-90,98,3.683,3.658,3.634,3.649,3.662,3.698,24.69,59,14,Waypoint,
37.0516732,-119.2428159,3752.6867083406,28.215224,0,0.50033466168,8500,2018-06-18 17:11:28,18,0,22.071,3752.6867083406,28.215224,0.223694,1.01546263092,0,0,-0.671082,313.1, 0, -1.4,0,0,1024,1024,1024,1024,312.6,-90,98,3.683,3.658,3.634,3.649,3.662,3.698,24.69,59,14,Waypoint,
37.0516733,-119.2428156,3754.9832963406,30.511812,0,0.40569555104,8600,2018-06-18 17:11:28,18,0,22.071,3754.9832963406,30.511812,0.223694,1.01546263092,0,0,-0.671082,313.6, -0.1, -0.6,0,0,1024,1024,1024,1024,312.6,-90,98,3.683,3.658,3.634,3.649,3.662,3.698,24.69,59,14,Waypoint,
37.0516734,-119.2428154,3755.9675483406,31.496064,0,0.33848754364,8700,2018-06-18 17:11:28,18,0,22.071,3755.9675483406,31.496064,0.223694,1.01546263092,0,0,-0.671082,313.9, -0.3, -0.8,0,0,1024,1024,1024,1024,312.6,-90,98,3.683,3.658,3.634,3.649,3.662,3.698,24.69,59,14,Waypoint,
37.0516736,-119.2428152,3757.9360523406,33.464568,0,0.264592856236,8900,2018-06-18 17:11:29,18,0,22.071,3757.9360523406,33.464568,0.223694,1.01546263092,0,0,-0.671082,314.4, 0, -1.4,0,0,1024,1024,1024,1024,312.6,-89.9,98,3.683,3.658,3.634,3.649,3.662,3.698,24.69,59,14,Waypoint,
37.0516736,-119.2428151,3758.9203043406,34.44882,0,0.235786752952,9000,2018-06-18 17:11:29,18,0,22.412,3758.9203043406,34.44882,0.223694,1.01546263092,0,0,-0.671082,314.5, 0.1, -1.8,0,0,1024,1024,1024,1024,312.6,-89.9,98,3.757,3.75,3.738,3.752,3.75,3.783,20.189,59,14,Waypoint,
37.0516737,-119.242815,3759.9045563406,35.433072,0,0.203828418596,9100,2018-06-18 17:11:29,18,0,22.412,3759.9045563406,35.433072,0.223694,1.01546263092,0,0,-0.671082,314.4, 0.2, -1.9,0,0,1024,1024,1024,1024,312.6,-89.9,98,3.757,3.75,3.738,3.752,3.75,3.783,20.189,59,14,Waypoint,
37.0516738,-119.242815,3760.8888083406,36.417324,0,0.207068248096,9200,2018-06-18 17:11:29,18,0,22.412,3760.8888083406,36.417324,0.223694,1.01546263092,0,0,-0.671082,314.3, 0.3, -1.8,0,0,1024,1024,1024,1024,312.6,-89.9,98,3.757,3.75,3.738,3.752,3.75,3.783,20.189,59,14,Waypoint,
37.0516739,-119.2428149,3761.8730603406,37.401576,0,0.189336292148,9300,2018-06-18 17:11:29,18,0,22.412,3761.8730603406,37.401576,0.223694,1.01546263092,0,0,-0.671082,314, 0.5, -1.8,0,0,1024,1024,1024,1024,312.6,-89.9,98,3.757,3.75,3.738,3.752,3.75,3.783,20.189,59,14,Waypoint,
37.051674,-119.2428149,3763.1853963406,38.713912,0,0.206165032844,9400,2018-06-18 17:11:29,18,0,22.412,3763.1853963406,38.713912,0.223694,1.01546263092,0,0,-0.671082,313.7, 0.5, -1.7,0,0,1024,1024,1024,1024,312.6,-89.9,98,3.757,3.75,3.738,3.752,3.75,3.783,20.189,59,14,Waypoint,
37.051674,-119.2428149,3764.1696483406,39.698164,0,0.206165032844,9500,2018-06-18 17:11:29,18,0,22.412,3764.1696483406,39.698164,0.223694,1.01546263092,0,0,-0.671082,313.5, 0.5, -1.6,0,0,1024,1024,1024,1024,312.6,-89.9,98,3.757,3.75,3.738,3.752,3.75,3.783,20.189,59,14,Waypoint,
37.0516741,-119.2428149,3764.8258163406,40.354332,0,0.227644692324,9600,2018-06-18 17:11:29,18,0,22.412,3764.8258163406,40.354332,0.223694,1.01546263092,0,0,-0.671082,313.3, 0.5, -1.5,0,0,1024,1024,1024,1024,312.6,-89.9,98,3.757,3.75,3.738,3.752,3.75,3.783,20.189,59,14,Waypoint,
37.0516741,-119.2428149,3765.8100683406,41.338584,0,0.227644692324,9700,2018-06-18 17:11:29,18,0,22.412,3765.8100683406,41.338584,0.223694,1.01546263092,0,0,-0.671082,313.2, 0.7, -1.4,0,0,1024,1024,1024,1024,312.6,-89.9,98,3.757,3.75,3.738,3.752,3.75,3.783,20.189,59,14,Waypoint,
37.051674,-119.242815,3766.7943203406,42.322836,0,0.231357618952,9900,2018-06-18 17:11:30,18,0,22.412,3766.7943203406,42.322836,0.223694,1.01546263092,0,0,-0.671082,313.3, 0.8, -1,0,0,1024,1024,1024,1024,312.6,-89.9,98,3.757,3.75,3.738,3.752,3.75,3.783,20.189,59,14,Waypoint,
37.051674,-119.2428151,3767.7785723406,43.307088,0,0.25738025758,10000,2018-06-18 17:11:30,18,0,22.685,3767.7785723406,43.307088,0.223694,1.01546263092,0,0,-0.671082,313.4, 0.8, -0.6,0,0,1024,1024,1024,1024,312.6,-89.9,98,3.787,3.779,3.777,3.789,3.789,3.808,16.913,59,14,Waypoint,
37.051674,-119.2428152,3768.7628243406,44.29134,0,0.28400427418,10100,2018-06-18 17:11:30,18,0,22.685,3768.7628243406,44.29134,0.223694,1.01546263092,0,0,-0.671082,313.7, 0.6, -0.2,0,0,1024,1024,1024,1024,312.6,-89.9,98,3.787,3.779,3.777,3.789,3.789,3.808,16.913,59,14,Waypoint,
37.0516739,-119.2428153,3769.7470763406,45.275592,0,0.300187345564,10200,2018-06-18 17:11:30,18,0,22.685,3769.7470763406,45.275592,0.223694,1.01546263092,0,0,-0.671082,313.9, 0.5, 0.1,0,0,1024,1024,1024,1024,312.6,-89.9,98,3.787,3.779,3.777,3.789,3.789,3.808,16.913,59,14,Waypoint,
37.0516738,-119.2428154,3770.7313283406,46.259844,0,0.322373041812,10300,2018-06-18 17:11:30,18,0,22.685,3770.7313283406,46.259844,0.223694,1.01546263092,0,0,-0.671082,314.1, 0.5, 0.4,0,0,1024,1024,1024,1024,312.7,-89.9,98,3.787,3.779,3.777,3.789,3.789,3.808,16.913,59,14,Waypoint,
37.0516737,-119.2428155,3771.7155803406,47.244096,0,0.34941930252,10400,2018-06-18 17:11:30,18,0,22.685,3771.7155803406,47.244096,0.223694,1.01546263092,0,0,-0.671082,314.1, 0.6, 0.5,0,0,1024,1024,1024,1024,312.7,-89.9,98,3.787,3.779,3.777,3.789,3.789,3.808,16.913,59,14,Waypoint,
37.0516737,-119.2428156,3772.6998323406,48.228348,0.223694,0.37854003836,10500,2018-06-18 17:11:30,18,0,22.685,3772.6998323406,48.228348,0.223694,1.01546263092,0,0,-0.671082,314.1, 0.7, 0.5,0,0,1024,1024,1024,1024,312.7,-89.9,98,3.787,3.779,3.777,3.789,3.789,3.808,16.913,59,14,Waypoint,
37.0516736,-119.2428158,3773.6840843406,49.2126,0.223694,0.43829725812,10600,2018-06-18 17:11:30,18,0,22.685,3773.6840843406,49.2126,0.223694,1.01546263092,0,0,-0.671082,313.9, 0.8, 0.7,0,0,1024,1024,1024,1024,312.6,-89.9,98,3.787,3.779,3.777,3.789,3.789,3.808,16.913,59,14,Waypoint,
37.0516735,-119.2428159,3774.6683363406,50.196852,0.223694,0.47157481824,10700,2018-06-18 17:11:30,18,0,22.685,3774.6683363406,50.196852,0.223694,1.01546263092,0,0,-0.671082,313.7, 0.9, 1.1,0,0,1024,1024,1024,1024,312.6,-89.9,98,3.787,3.779,3.777,3.789,3.789,3.808,16.913,59,14,Waypoint,
37.0516734,-119.2428161,3775.6525883406,51.181104,0.223694,0.53543636884,10800,2018-06-18 17:11:31,18,0,22.685,3775.6525883406,51.181104,0.223694,1.01546263092,0,0,-0.671082,313.6, 0.9, 1.5,0,0,1024,1024,1024,1024,312.6,-89.9,98,3.787,3.779,3.777,3.789,3.789,3.808,16.913,59,14,Waypoint,
37.0516733,-119.2428162,3776.6368403406,52.165356,0.223694,0.57217193432,10900,2018-06-18 17:11:31,18,0,22.685,3776.6368403406,52.165356,0.223694,1.01546263092,0,0,-0.671082,313.4, 1.1, 1.6,0,0,1024,1024,1024,1024,312.6,-89.9,98,3.787,3.779,3.777,3.789,3.789,3.808,16.913,59,14,Waypoint,
37.0516731,-119.2428165,3778.6053443406,54.13386,0,0.67697508728,11000,2018-06-18 17:11:31,18,0,22.737,3778.6053443406,54.13386,0.223694,1.01546263092,0,0,-0.671082,313.1, 0.9, 1.6,0,0,1024,1024,1024,1024,312.6,-89.9,98,3.776,3.763,3.768,3.784,3.779,3.805,16.734,59,14,Waypoint,
37.0516729,-119.2428168,3780.5738483406,56.102364,0,0.78429464452,11200,2018-06-18 17:11:31,18,0,22.737,3780.5738483406,56.102364,0.223694,1.01546263092,0,0,-0.671082,313.5, 1.1, 1.8,0,0,1024,1024,1024,1024,312.6,-89.9,98,3.776,3.763,3.768,3.784,3.779,3.805,16.734,59,14,Waypoint,
37.0516728,-119.2428169,3781.5581003406,57.086616,0,0.82521984268,11300,2018-06-18 17:11:31,18,0,22.737,3781.5581003406,57.086616,0.223694,1.01546263092,0,0,-0.671082,313.9, 1, 1.9,0,0,1024,1024,1024,1024,312.6,-89.9,98,3.776,3.763,3.768,3.784,3.779,3.805,16.734,59,14,Waypoint,
37.0516727,-119.242817,3782.5423523406,58.070868,0,0.86672903036,11400,2018-06-18 17:11:31,18,0,22.737,3782.5423523406,58.070868,0.223694,1.01546263092,0,0,-0.671082,314.3, 0.8, 1.8,0,0,1024,1024,1024,1024,312.7,-89.9,98,3.776,3.763,3.768,3.784,3.779,3.805,16.734,59,14,Waypoint,
37.0516725,-119.2428172,3784.5108563406,60.039372,0,0.95118441364,11600,2018-06-18 17:11:31,18,0,22.737,3784.5108563406,60.039372,0.223694,1.01546263092,0,0,-0.671082,314.6, 0.8, 2.2,0,0,1024,1024,1024,1024,312.6,-89.9,98,3.776,3.763,3.768,3.784,3.779,3.805,16.734,59,14,Waypoint,
37.0516724,-119.2428172,3785.4951083406,61.023624,0,0.9685203722,11700,2018-06-18 17:11:31,18,0,22.737,3785.4951083406,61.023624,0.223694,1.01546263092,0,0,-0.671082,314.4, 0.5, 2.1,0,0,1024,1024,1024,1024,312.6,-89.9,98,3.776,3.763,3.768,3.784,3.779,3.805,16.734,59,14,Waypoint,
37.0516723,-119.2428172,3787.4636123406,62.992128,0,0.98689963788,12000,2018-06-18 17:11:32,18,0,22.737,3787.4636123406,62.992128,0.223694,1.01546263092,0,0,-0.671082,313.9, 0, 1.6,0,0,1024,1024,1024,1024,312.6,-90,98,3.776,3.763,3.768,3.784,3.779,3.805,16.734,59,14,Waypoint,
37.0516721,-119.2428173,3789.4321163406,64.960632,0,1.05064963992,12100,2018-06-18 17:11:32,17,0,22.737,3789.4321163406,64.960632,0.223694,1.05064963992,0,0,-0.671082,313.4, -0.1, 1.3,0,0,1024,1024,1024,1024,312.6,-89.9,98,3.776,3.763,3.768,3.784,3.779,3.805,16.734,59,14,Waypoint,
37.0516721,-119.2428173,3790.4163683406,65.944884,0,1.05064963992,12300,2018-06-18 17:11:32,17,0,22.737,3790.4163683406,65.944884,0.223694,1.05064963992,0,0,-0.671082,313.2, -0.1, 1.3,0,0,1024,1024,1024,1024,312.6,-89.9,98,3.776,3.763,3.768,3.784,3.779,3.805,16.734,59,14,Waypoint,
37.051672,-119.2428173,3791.4006203406,66.929136,0,1.07135174032,12400,2018-06-18 17:11:32,17,0,22.737,3791.4006203406,66.929136,0.223694,1.07135174032,0,0,-0.671082,313.2, 0, 1.3,0,0,1024,1024,1024,1024,312.6,-89.9,98,3.776,3.763,3.768,3.784,3.779,3.805,16.734,59,14,Waypoint,
37.0516719,-119.2428173,3792.0567883406,67.585304,0,1.09287733156,12500,2018-06-18 17:11:32,17,0,22.737,3792.0567883406,67.585304,0.223694,1.09287733156,0,0,-0.671082,313.2, -0.1, 1.5,0,0,1024,1024,1024,1024,312.6,-90,98,3.776,3.763,3.768,3.784,3.779,3.805,16.734,59,14,Waypoint,
37.0516719,-119.2428173,3793.0410403406,68.569556,0,1.09287733156,12600,2018-06-18 17:11:32,17,0,22.737,3793.0410403406,68.569556,0.223694,1.09287733156,0,0,-0.671082,313.2, 0, 1.5,0,0,1024,1024,1024,1024,312.6,-89.9,98,3.776,3.763,3.768,3.784,3.779,3.805,16.734,59,14,Waypoint,
37.0516718,-119.2428174,3794.3533763406,69.881892,0,1.13813651936,12700,2018-06-18 17:11:32,17,0,22.737,3794.3533763406,69.881892,0.223694,1.13813651936,0,0,-0.671082,313.3, 0, 1.6,0,0,1024,1024,1024,1024,312.7,-89.9,98,3.776,3.763,3.768,3.784,3.779,3.805,16.734,59,14,Waypoint,
37.0516718,-119.2428174,3795.3376283406,70.866144,0,1.13813651936,12800,2018-06-18 17:11:33,17,0,22.737,3795.3376283406,70.866144,0.223694,1.13813651936,0,0,-0.671082,313.4, 0.1, 1.6,0,0,1024,1024,1024,1024,312.6,-89.9,98,3.776,3.763,3.768,3.784,3.779,3.805,16.734,59,14,Waypoint,
37.0516718,-119.2428174,3796.3218803406,71.850396,0,1.13813651936,12900,2018-06-18 17:11:33,17,0,22.737,3796.3218803406,71.850396,0.223694,1.13813651936,0,0,-0.671082,313.5, 0.3, 1.5,0,0,1024,1024,1024,1024,312.6,-89.9,98,3.776,3.763,3.768,3.784,3.779,3.805,16.734,59,14,Waypoint,
37.0516718,-119.2428174,3796.9780483406,72.506564,0,1.13813651936,13000,2018-06-18 17:11:33,17,0,22.569,3796.9780483406,72.506564,0.223694,1.13813651936,0,0,-0.671082,313.6, 0.5, 1.4,0,0,1024,1024,1024,1024,312.7,-89.9,98,3.755,3.743,3.747,3.763,3.749,3.786,17.818,59,14,Waypoint,
37.0516718,-119.2428174,3797.9623003406,73.490816,0,1.13813651936,13100,2018-06-18 17:11:33,18,0,22.569,3797.9623003406,73.490816,0.223694,1.13813651936,0,0,-0.671082,313.6, 0.6, 1.3,0,0,1024,1024,1024,1024,312.7,-89.9,98,3.755,3.743,3.747,3.763,3.749,3.786,17.818,59,14,Waypoint,
37.0516718,-119.2428173,3798.9465523406,74.475068,0,1.11518376272,13200,2018-06-18 17:11:33,18,0,22.569,3798.9465523406,74.475068,0.223694,1.13813651936,0,0,-0.671082,313.7, 0.7, 1,0,0,1024,1024,1024,1024,312.6,-89.9,98,3.755,3.743,3.747,3.763,3.749,3.786,17.818,59,14,Waypoint,
37.0516719,-119.2428172,3800.9150563406,76.443572,0,1.06974740956,13300,2018-06-18 17:11:33,17,0,22.569,3800.9150563406,76.443572,0.223694,1.13813651936,0,0,-0.671082,313.8, 0.5, 0.7,0,0,1024,1024,1024,1024,312.7,-89.9,98,3.755,3.743,3.747,3.763,3.749,3.786,17.818,59,14,Waypoint,
37.0516719,-119.2428172,3801.8993083406,77.427824,0,1.06974740956,13400,2018-06-18 17:11:33,17,0,22.569,3801.8993083406,77.427824,0.223694,1.13813651936,0,0,-0.671082,313.8, 0.4, 0.6,0,0,1024,1024,1024,1024,312.6,-89.9,98,3.755,3.743,3.747,3.763,3.749,3.786,17.818,59,14,Waypoint,
37.051672,-119.2428171,3802.8835603406,78.412076,0.223694,1.02442260496,13500,2018-06-18 17:11:33,17,0,22.569,3802.8835603406,78.412076,0.223694,1.13813651936,0,0,-0.671082,313.8, 0.4, 0.6,0,0,1024,1024,1024,1024,312.6,-89.9,98,3.755,3.743,3.747,3.763,3.749,3.786,17.818,59,14,Waypoint,
37.0516721,-119.242817,3805.8363163406,81.364832,0.223694,0.97922247228,13800,2018-06-18 17:11:34,17,0,22.569,3805.8363163406,81.364832,0.223694,1.13813651936,0,0,-0.671082,314, 1.2, 0.2,0,0,1024,1024,1024,1024,312.6,-89.9,98,3.755,3.743,3.747,3.763,3.749,3.786,17.818,59,14,Waypoint,
37.0516722,-119.242817,3806.8205683406,82.349084,0.223694,0.95791997816,13900,2018-06-18 17:11:34,17,0,22.569,3806.8205683406,82.349084,0.223694,1.13813651936,0,0,-0.671082,313.9, 1.5, 0.2,0,0,1024,1024,1024,1024,312.6,-89.9,98,3.755,3.743,3.747,3.763,3.749,3.786,17.818,59,14,Waypoint,
37.0516723,-119.2428169,3808.7890723406,84.317588,0.223694,0.91327430744,14200,2018-06-18 17:11:34,18,0,22.569,3808.7890723406,84.317588,0.223694,1.13813651936,0,0,-0.671082,313.7, 1.4, 0.5,0,0,1024,1024,1024,1024,312.6,-89.9,98,3.755,3.743,3.747,3.763,3.749,3.786,17.818,59,14,Waypoint,
37.0516724,-119.2428169,3809.7733243406,85.30184,0.223694,0.89338257452,14300,2018-06-18 17:11:34,18,0,22.569,3809.7733243406,85.30184,0.223694,1.13813651936,0,0,-0.671082,313.7, 1.5, 0.5,0,0,1024,1024,1024,1024,312.6,-89.9,98,3.755,3.743,3.747,3.763,3.749,3.786,17.818,59,14,Waypoint,
37.0516724,-119.2428169,3810.7575763406,86.286092,0,0.89338257452,14400,2018-06-18 17:11:34,18,0,22.569,3810.7575763406,86.286092,0.223694,1.13813651936,0,0,-0.671082,313.6, 1.4, 0.2,0,0,1024,1024,1024,1024,312.6,-89.9,98,3.755,3.743,3.747,3.763,3.749,3.786,17.818,59,14,Waypoint,
37.0516725,-119.2428168,3811.7418283406,87.270344,0,0.8494750928,14500,2018-06-18 17:11:34,18,0,22.569,3811.7418283406,87.270344,0.223694,1.13813651936,0,0,-0.671082,313.6, 1.3, 0.1,0,0,1024,1024,1024,1024,312.6,-89.9,98,3.755,3.743,3.747,3.763,3.749,3.786,17.818,59,14,Waypoint,
37.0516725,-119.2428168,3812.7260803406,88.254596,0,0.8494750928,14600,2018-06-18 17:11:34,18,0,22.569,3812.7260803406,88.254596,0.223694,1.13813651936,0,0,-0.671082,313.6, 1.3, 0,0,0,1024,1024,1024,1024,312.6,-89.9,98,3.755,3.743,3.747,3.763,3.749,3.786,17.818,59,14,Waypoint,
37.0516726,-119.2428167,3813.7103323406,89.238848,0,0.80588257172,14700,2018-06-18 17:11:34,18,0,22.569,3813.7103323406,89.238848,0.223694,1.13813651936,0,0,-0.671082,313.5, 1.5, 0,0,0,1024,1024,1024,1024,312.7,-89.9,98,3.755,3.743,3.747,3.763,3.749,3.786,17.818,59,14,Waypoint,
37.0516726,-119.2428167,3814.6945843406,90.2231,0,0.80588257172,14800,2018-06-18 17:11:35,18,0,22.569,3814.6945843406,90.2231,0.223694,1.13813651936,0,0,-0.671082,313.4, 1.4, 0.1,0,0,1024,1024,1024,1024,312.6,-89.9,98,3.755,3.743,3.747,3.763,3.749,3.786,17.818,59,14,Waypoint,
37.0516727,-119.2428167,3815.6788363406,91.207352,0,0.78834976276,14900,2018-06-18 17:11:35,17,0,22.569,3815.6788363406,91.207352,0.223694,1.13813651936,0,0,-0.671082,313.3, 1.2, 0.3,0,0,1024,1024,1024,1024,312.6,-89.9,98,3.755,3.743,3.747,3.763,3.749,3.786,17.818,59,14,Waypoint,
37.0516727,-119.2428167,3816.6630883406,92.191604,0,0.78834976276,15000,2018-06-18 17:11:35,17,0,22.485,3816.6630883406,92.191604,0.223694,1.13813651936,0,0,-0.671082,313.3, 0.9, 0.4,0,0,1024,1024,1024,1024,312.6,-89.9,97,3.756,3.744,3.742,3.756,3.756,3.776,18.175,60.8,14,Waypoint,
37.0516727,-119.2428167,3817.6473403406,93.175856,0,0.78834976276,15100,2018-06-18 17:11:35,18,0,22.485,3817.6473403406,93.175856,0.223694,1.13813651936,0,0,-0.671082,313.2, 0.8, 0.5,0,0,1024,1024,1024,1024,312.6,-89.9,97,3.756,3.744,3.742,3.756,3.756,3.776,18.175,60.8,14,Waypoint,
37.0516729,-119.2428166,3819.6158443406,95.14436,0,0.730561047,15200,2018-06-18 17:11:35,18,0,22.485,3819.6158443406,95.14436,0.223694,1.13813651936,0,0,-0.671082,313.2, 0.9, 0.7,0,0,1024,1024,1024,1024,312.6,-89.9,97,3.756,3.744,3.742,3.756,3.756,3.776,18.175,60.8,14,Waypoint,
37.051673,-119.2428165,3821.5843483406,97.112864,0.223694,0.68963584884,15400,2018-06-18 17:11:35,18,0,22.485,3821.5843483406,97.112864,0.223694,1.13813651936,0,0,-0.671082,313.2, 1, 0.1,0,0,1024,1024,1024,1024,312.7,-89.9,97,3.756,3.744,3.742,3.756,3.756,3.776,18.175,60.8,14,Waypoint,
37.0516731,-119.2428165,3822.5686003406,98.097116,0.223694,0.67697508728,15510,2018-06-18 17:11:35,18,0,22.485,3822.5686003406,98.097116,0.223694,1.13813651936,0,0,-0.671082,313.4, 1.3, -0.1,0,0,1024,1024,1024,1024,312.7,-89.9,97,3.756,3.744,3.742,3.756,3.756,3.776,18.175,60.8,14,Waypoint,
37.0516732,-119.2428164,3823.5528523406,99.081368,0,0.63811681832,15600,2018-06-18 17:11:35,18,0,22.485,3823.5528523406,99.081368,0.223694,1.13813651936,0,0,-0.671082,313.6, 1.7, -0.5,0,0,1024,1024,1024,1024,312.7,-89.9,97,3.756,3.744,3.742,3.756,3.756,3.776,18.175,60.8,14,Waypoint,
37.0516732,-119.2428164,3824.5371043406,100.06562,0,0.63811681832,15700,2018-06-18 17:11:35,18,0,22.485,3824.5371043406,100.06562,0.223694,1.13813651936,0,0,-0.671082,313.8, 2, -0.7,0,0,1024,1024,1024,1024,312.7,-89.9,97,3.756,3.744,3.742,3.756,3.756,3.776,18.175,60.8,14,Waypoint,
37.0516733,-119.2428164,3825.5213563406,101.049872,0,0.6286581566,15800,2018-06-18 17:11:36,18,0,22.485,3825.5213563406,101.049872,0.223694,1.13813651936,0,0,-0.671082,313.9, 1.8, -0.9,0,0,1024,1024,1024,1024,312.7,-89.9,97,3.756,3.744,3.742,3.756,3.756,3.776,18.175,60.8,14,Waypoint,
37.0516733,-119.2428163,3826.5056083406,102.034124,0,0.60037403496,15900,2018-06-18 17:11:36,18,0,22.485,3826.5056083406,102.034124,0.223694,1.13813651936,0,0,-0.671082,313.9, 1.5, -1,0,0,1024,1024,1024,1024,312.7,-89.9,97,3.756,3.744,3.742,3.756,3.756,3.776,18.175,60.8,14,Waypoint,
37.0516733,-119.2428163,3827.4898603406,103.018376,0,0.60037403496,16000,2018-06-18 17:11:36,18,0,22.485,3827.4898603406,103.018376,0.223694,1.13813651936,0,0,-0.671082,314, 1.2, -0.8,0,0,1024,1024,1024,1024,312.7,-90,97,3.746,3.736,3.735,3.744,3.735,3.773,18.175,60.8,14,Waypoint,
37.0516734,-119.2428162,3828.4741123406,104.002628,0,0.56397311516,16200,2018-06-18 17:11:36,18,0,22.485,3828.4741123406,104.002628,0.223694,1.13813651936,0,0,-0.671082,314, 0.8, -0.7,0,0,1024,1024,1024,1024,312.7,-90,97,3.746,3.736,3.735,3.744,3.735,3.773,18.175,60.8,14,Waypoint,
37.0516734,-119.2428162,3829.4583643406,104.98688,0,0.56397311516,16300,2018-06-18 17:11:36,18,0,22.485,3829.4583643406,104.98688,0.223694,1.13813651936,0,0,-0.671082,314.1, 0.7, -0.5,0,0,1024,1024,1024,1024,312.7,-90,97,3.746,3.736,3.735,3.744,3.735,3.773,18.175,60.8,14,Waypoint,
37.0516734,-119.2428162,3830.4426163406,105.971132,0,0.56397311516,16400,2018-06-18 17:11:36,18,0,22.485,3830.4426163406,105.971132,0.223694,1.13813651936,0,0,-0.671082,314.2, 0.8, -0.3,0,0,1024,1024,1024,1024,312.7,-89.9,97,3.746,3.736,3.735,3.744,3.735,3.773,18.175,60.8,14,Waypoint,
37.0516733,-119.2428162,3831.4268683406,106.955384,0,0.57217193432,16500,2018-06-18 17:11:36,18,0,22.485,3831.4268683406,106.955384,0.223694,1.13813651936,0,0,-0.671082,314.1, 0.8, -0.2,0,0,1024,1024,1024,1024,312.7,-89.9,97,3.746,3.736,3.735,3.744,3.735,3.773,18.175,60.8,14,Waypoint,
37.0516733,-119.2428162,3832.4111203406,107.939636,0,0.57217193432,16600,2018-06-18 17:11:36,18,0,22.485,3832.4111203406,107.939636,0.223694,1.13813651936,0,0,-0.671082,314, 0.8, 0,0,0,1024,1024,1024,1024,312.6,-89.9,97,3.746,3.736,3.735,3.744,3.735,3.773,18.175,60.8,14,Waypoint,
37.0516733,-119.2428162,3833.3953723406,108.923888,0,0.57217193432,16700,2018-06-18 17:11:36,18,0,22.485,3833.3953723406,108.923888,0.223694,1.13813651936,0,0,-0.671082,313.9, 0.7, 0.3,0,0,1024,1024,1024,1024,312.7,-90,97,3.746,3.736,3.735,3.744,3.735,3.773,18.175,60.8,14,Waypoint,
37.0516733,-119.2428162,3834.3796243406,109.90814,0,0.57217193432,16800,2018-06-18 17:11:37,18,0,22.485,3834.3796243406,109.90814,0.223694,1.13813651936,0,0,-0.671082,313.8, 0.6, 0.5,0,0,1024,1024,1024,1024,312.6,-89.9,97,3.746,3.736,3.735,3.744,3.735,3.773,18.175,60.8,14,Waypoint,
37.0516732,-119.2428163,3835.3638763406,110.892392,0,0.6102690484,16900,2018-06-18 17:11:37,18,0,22.485,3835.3638763406,110.892392,0.223694,1.13813651936,0,0,-0.671082,313.8, 0.8, 0.6,0,0,1024,1024,1024,1024,312.6,-89.9,97,3.746,3.736,3.735,3.744,3.735,3.773,18.175,60.8,14,Waypoint,
37.0516732,-119.2428163,3836.3481283406,111.876644,0,0.6102690484,17000,2018-06-18 17:11:37,18,0,22.405,3836.3481283406,111.876644,0.223694,1.13813651936,0,0,-0.671082,313.7, 1, 0.6,0,0,1024,1024,1024,1024,312.6,-89.9,97,3.725,3.721,3.714,3.732,3.73,3.753,18.378,60.8,14,Waypoint,
37.0516732,-119.2428164,3837.3323803406,112.860896,0,0.63811681832,17100,2018-06-18 17:11:37,18,0,22.405,3837.3323803406,112.860896,0.223694,1.13813651936,0,0,-0.671082,313.6, 1.1, 0.7,0,0,1024,1024,1024,1024,312.6,-89.9,97,3.725,3.721,3.714,3.732,3.73,3.753,18.378,60.8,14,Waypoint,
37.0516731,-119.2428165,3839.3008843406,114.8294,0,0.67697508728,17200,2018-06-18 17:11:37,18,0,22.405,3839.3008843406,114.8294,0.223694,1.13813651936,0,0,-0.671082,313.5, 1.2, 0.8,0,0,1024,1024,1024,1024,312.7,-89.9,97,3.725,3.721,3.714,3.732,3.73,3.753,18.378,60.8,14,Waypoint,
37.0516731,-119.2428166,3840.2851363406,115.813652,0,0.70458991756,17300,2018-06-18 17:11:37,18,0,22.405,3840.2851363406,115.813652,0.223694,1.13813651936,0,0,-0.671082,313.5, 1.4, 1,0,0,1024,1024,1024,1024,312.7,-89.9,97,3.725,3.721,3.714,3.732,3.73,3.753,18.378,60.8,14,Waypoint,
37.051673,-119.2428166,3841.2693883406,116.797904,0,0.7167651148,17400,2018-06-18 17:11:37,18,0,22.405,3841.2693883406,116.797904,0.223694,1.13813651936,0,0,-0.671082,313.6, 1.4, 1.1,0,0,1024,1024,1024,1024,312.6,-89.9,97,3.725,3.721,3.714,3.732,3.73,3.753,18.378,60.8,14,Waypoint,
37.051673,-119.2428166,3842.2536403406,117.782156,0,0.7167651148,17500,2018-06-18 17:11:37,18,0,22.405,3842.2536403406,117.782156,0.223694,1.13813651936,0,0,-0.671082,313.7, 1.3, 1.2,0,0,1024,1024,1024,1024,312.7,-89.9,97,3.725,3.721,3.714,3.732,3.73,3.753,18.378,60.8,14,Waypoint,
37.0516729,-119.2428167,3843.2378923406,118.766408,0,0.75734582476,17600,2018-06-18 17:11:37,18,0,22.405,3843.2378923406,118.766408,0.223694,1.13813651936,0,0,-0.671082,313.8, 1.2, 1.1,0,0,1024,1024,1024,1024,312.6,-89.9,97,3.725,3.721,3.714,3.732,3.73,3.753,18.378,60.8,14,Waypoint,
37.0516729,-119.2428167,3844.2221443406,119.75066,0,0.75734582476,17700,2018-06-18 17:11:37,18,0,22.405,3844.2221443406,119.75066,0.223694,1.13813651936,0,0,-0.671082,313.8, 1.1, 1,0,0,1024,1024,1024,1024,312.6,-89.9,97,3.725,3.721,3.714,3.732,3.73,3.753,18.378,60.8,14,Waypoint,
37.0516729,-119.2428167,3845.2063963406,120.734912,0,0.75734582476,17800,2018-06-18 17:11:38,17,0,22.405,3845.2063963406,120.734912,0.223694,1.13813651936,0,0,-0.671082,313.7, 1.1, 1,0,0,1024,1024,1024,1024,312.7,-89.9,97,3.725,3.721,3.714,3.732,3.73,3.753,18.378,60.8,14,Waypoint,
37.0516728,-119.2428168,3846.1906483406,121.719164,0,0.7985892644,17900,2018-06-18 17:11:38,17,0,22.405,3846.1906483406,121.719164,0.223694,1.13813651936,0,0,-0.671082,313.7, 1.1, 0.9,0,0,1024,1024,1024,1024,312.6,-89.9,97,3.725,3.721,3.714,3.732,3.73,3.753,18.378,60.8,14,Waypoint,
37.0516728,-119.2428168,3847.1749003406,122.703416,0,0.7985892644,18000,2018-06-18 17:11:38,18,0,22.336,3847.1749003406,122.703416,0.223694,1.13813651936,0,0,-0.671082,313.6, 1.3, 1,0,0,1024,1024,1024,1024,312.7,-89.9,97,3.718,3.711,3.714,3.718,3.717,3.758,18.801,60.8,14,Waypoint,
37.0516728,-119.2428169,3848.1591523406,123.687668,0,0.82521984268,18100,2018-06-18 17:11:38,18,0,22.336,3848.1591523406,123.687668,0.223694,1.13813651936,0,0,-0.671082,313.6, 1.3, 1,0,0,1024,1024,1024,1024,312.7,-89.9,97,3.718,3.711,3.714,3.718,3.717,3.758,18.801,60.8,14,Waypoint,
37.0516727,-119.2428169,3849.1434043406,124.67192,0,0.84040685104,18300,2018-06-18 17:11:38,18,0,22.336,3849.1434043406,124.67192,0.223694,1.13813651936,0,0,-0.671082,313.6, 1.2, 1,0,0,1024,1024,1024,1024,312.6,-89.9,97,3.718,3.711,3.714,3.718,3.717,3.758,18.801,60.8,14,Waypoint,
37.0516727,-119.2428169,3850.1276563406,125.656172,0,0.84040685104,18400,2018-06-18 17:11:38,18,0,22.336,3850.1276563406,125.656172,0.223694,1.13813651936,0,0,-0.671082,313.5, 1.1, 1,0,0,1024,1024,1024,1024,312.7,-89.9,97,3.718,3.711,3.714,3.718,3.717,3.758,18.801,60.8,14,Waypoint,
37.0516727,-119.2428169,3851.1119083406,126.640424,0,0.84040685104,18500,2018-06-18 17:11:38,17,0,22.336,3851.1119083406,126.640424,0.223694,1.13813651936,0,0,-0.671082,313.5, 1.1, 1,0,0,1024,1024,1024,1024,312.7,-89.9,97,3.718,3.711,3.714,3.718,3.717,3.758,18.801,60.8,14,Waypoint,
37.0516727,-119.2428169,3852.0961603406,127.624676,0,0.84040685104,18600,2018-06-18 17:11:38,17,0,22.336,3852.0961603406,127.624676,0.223694,1.13813651936,0,0,-0.671082,313.6, 1.1, 0.9,0,0,1024,1024,1024,1024,312.7,-89.9,97,3.718,3.711,3.714,3.718,3.717,3.758,18.801,60.8,14,Waypoint,
37.0516726,-119.2428169,3853.0804123406,128.608928,0,0.85687666784,18700,2018-06-18 17:11:38,17,0,22.336,3853.0804123406,128.608928,0.223694,1.13813651936,0,0,-0.671082,313.6, 1.1, 0.9,0,0,1024,1024,1024,1024,312.7,-89.9,97,3.718,3.711,3.714,3.718,3.717,3.758,18.801,60.8,14,Waypoint,
37.0516726,-119.2428169,3854.0646643406,129.59318,0,0.85687666784,18800,2018-06-18 17:11:39,17,0,22.336,3854.0646643406,129.59318,0.223694,1.13813651936,0,0,-0.671082,313.7, 1, 0.9,0,0,1024,1024,1024,1024,312.7,-89.9,97,3.718,3.711,3.714,3.718,3.717,3.758,18.801,60.8,14,Waypoint,
37.0516725,-119.2428169,3855.0489163406,130.577432,0,0.8745571146,18900,2018-06-18 17:11:39,17,0,22.336,3855.0489163406,130.577432,0.223694,1.13813651936,0,0,-0.671082,313.7, 0.9, 1,0,0,1024,1024,1024,1024,312.7,-90,97,3.718,3.711,3.714,3.718,3.717,3.758,18.801,60.8,14,Waypoint,
37.0516725,-119.2428169,3856.0331683406,131.561684,0,0.8745571146,19000,2018-06-18 17:11:39,17,0,22.253,3856.0331683406,131.561684,0.223694,1.13813651936,0,0,-0.671082,313.8, 0.9, 1.1,0,0,1024,1024,1024,1024,312.7,-89.9,97,3.688,3.685,3.693,3.702,3.694,3.737,19.882,60.8,14,Waypoint,
37.0516724,-119.2428169,3858.0016723406,133.530188,0,0.89338257452,19100,2018-06-18 17:11:39,17,0,22.253,3858.0016723406,133.530188,0.223694,1.13813651936,0,0,-0.671082,313.8, 1.1, 1.1,0,0,1024,1024,1024,1024,312.6,-89.9,97,3.688,3.685,3.693,3.702,3.694,3.737,19.882,60.8,14,Waypoint,
37.0516724,-119.2428168,3858.9859243406,134.51444,0,0.86884189132,19200,2018-06-18 17:11:39,17,0,22.253,3858.9859243406,134.51444,0.223694,1.13813651936,0,0,-0.671082,313.8, 0.9, 0.9,0,0,1024,1024,1024,1024,312.7,-89.9,97,3.688,3.685,3.693,3.702,3.694,3.737,19.882,60.8,14,Waypoint,
37.0516724,-119.2428168,3859.9701763406,135.498692,0,0.86884189132,19300,2018-06-18 17:11:39,17,0,22.253,3859.9701763406,135.498692,0.223694,1.13813651936,0,0,-0.671082,313.8, 0.7, 0.8,0,0,1024,1024,1024,1024,312.7,-89.9,97,3.688,3.685,3.693,3.702,3.694,3.737,19.882,60.8,14,Waypoint,
37.0516724,-119.2428167,3862.2667643406,137.79528,0,0.84459648372,19500,2018-06-18 17:11:39,17,0,22.253,3862.2667643406,137.79528,0.223694,1.13813651936,0,0,-0.671082,313.7, 0.8, 0.7,0,0,1024,1024,1024,1024,312.6,-89.9,97,3.688,3.685,3.693,3.702,3.694,3.737,19.882,60.8,14,Waypoint,
37.0516724,-119.2428165,3864.2352683406,139.763784,0,0.797080078,19700,2018-06-18 17:11:39,17,0,22.253,3864.2352683406,139.763784,0.223694,1.13813651936,0,0,-0.671082,313.7, 0.7, 0.4,0,0,1024,1024,1024,1024,312.7,-90,97,3.688,3.685,3.693,3.702,3.694,3.737,19.882,60.8,14,Waypoint,
37.0516724,-119.2428165,3865.2195203406,140.748036,0,0.797080078,19800,2018-06-18 17:11:40,17,0,22.253,3865.2195203406,140.748036,0.223694,1.13813651936,0,0,-0.671082,313.8, 0.5, 0.4,0,0,1024,1024,1024,1024,312.7,-90,97,3.688,3.685,3.693,3.702,3.694,3.737,19.882,60.8,14,Waypoint,
37.0516724,-119.2428165,3866.2037723406,141.732288,0,0.797080078,20000,2018-06-18 17:11:40,17,0,22.114,3866.2037723406,141.732288,0.223694,1.13813651936,0,0,-0.671082,313.8, 0.5, 0.4,0,0,1024,1024,1024,1024,312.7,-90,97,3.681,3.67,3.678,3.683,3.683,3.732,20.02,60.8,14,Waypoint,
37.0516724,-119.2428164,3867.1880243406,142.71654,0,0.77387141584,20100,2018-06-18 17:11:40,17,0,22.114,3867.1880243406,142.71654,0.223694,1.13813651936,0,0,-0.671082,313.8, 0.6, 0.4,0,0,1024,1024,1024,1024,312.6,-89.9,97,3.681,3.67,3.678,3.683,3.683,3.732,20.02,60.8,14,Waypoint,
37.0516724,-119.2428164,3869.1565283406,144.685044,0,0.77387141584,20300,2018-06-18 17:11:40,18,0,22.114,3869.1565283406,144.685044,0.223694,1.13813651936,0,0,-0.671082,313.7, 1.1, 0.8,0,0,1024,1024,1024,1024,312.7,-89.9,97,3.681,3.67,3.678,3.683,3.683,3.732,20.02,60.8,14,Waypoint,
37.0516723,-119.2428164,3870.1407803406,145.669296,0,0.79675527484,20400,2018-06-18 17:11:40,18,0,22.114,3870.1407803406,145.669296,0.223694,1.13813651936,0,0,-0.671082,313.7, 1, 1,0,0,1024,1024,1024,1024,312.6,-89.9,97,3.681,3.67,3.678,3.683,3.683,3.732,20.02,60.8,14,Waypoint,
37.0516723,-119.2428164,3871.1250323406,146.653548,0,0.79675527484,20500,2018-06-18 17:11:40,18,0,22.114,3871.1250323406,146.653548,0.223694,1.13813651936,0,0,-0.671082,313.6, 0.9, 1,0,0,1024,1024,1024,1024,312.7,-89.9,97,3.681,3.67,3.678,3.683,3.683,3.732,20.02,60.8,14,Waypoint,
37.0516723,-119.2428164,3872.1092843406,147.6378,0,0.79675527484,20600,2018-06-18 17:11:40,18,0,22.114,3872.1092843406,147.6378,0.223694,1.13813651936,0,0,-0.671082,313.6, 0.7, 1,0,0,1024,1024,1024,1024,312.7,-89.9,97,3.681,3.67,3.678,3.683,3.683,3.732,20.02,60.8,14,Waypoint,
37.0516723,-119.2428164,3873.0935363406,148.622052,0,0.79675527484,20700,2018-06-18 17:11:40,17,0,22.114,3873.0935363406,148.622052,0.223694,1.13813651936,0,0,-0.671082,313.5, 0.7, 1.1,0,0,1024,1024,1024,1024,312.6,-89.9,97,3.681,3.67,3.678,3.683,3.683,3.732,20.02,60.8,14,Waypoint,
37.0516723,-119.2428164,3874.0777883406,149.606304,0,0.79675527484,20800,2018-06-18 17:11:41,17,0,22.114,3874.0777883406,149.606304,0.223694,1.13813651936,0,0,-0.671082,313.4, 0.9, 1.1,0,0,1024,1024,1024,1024,312.7,-89.9,97,3.681,3.67,3.678,3.683,3.683,3.732,20.02,60.8,14,Waypoint,
37.0516723,-119.2428163,3875.0620403406,150.590556,0,0.77463257072,20900,2018-06-18 17:11:41,17,0,22.114,3875.0620403406,150.590556,0.223694,1.13813651936,0,0,-0.671082,313.3, 1.1, 1,0,0,1024,1024,1024,1024,312.6,-89.9,97,3.681,3.67,3.678,3.683,3.683,3.732,20.02,60.8,14,Waypoint,
37.0516723,-119.2428163,3876.0462923406,151.574808,0,0.77463257072,21000,2018-06-18 17:11:41,17,0,22.166,3876.0462923406,151.574808,0.223694,1.13813651936,0,0,-0.671082,313.2, 1.1, 1.1,0,0,1024,1024,1024,1024,312.7,-89.9,97,3.693,3.678,3.679,3.689,3.687,3.726,19.593,60.8,14,Waypoint,
37.0516724,-119.2428163,3877.6867123406,153.215228,0,0.75107613952,21200,2018-06-18 17:11:41,17,0,22.166,3877.6867123406,153.215228,0.223694,1.13813651936,0,0,-0.671082,313.4, 1, 0.7,0,0,1024,1024,1024,1024,312.7,-89.9,97,3.693,3.678,3.679,3.689,3.687,3.726,19.593,60.8,14,Waypoint,
37.0516724,-119.2428162,3878.9990483406,154.527564,0,0.72873033828,21300,2018-06-18 17:11:41,17,0,22.166,3878.9990483406,154.527564,0.223694,1.13813651936,0,0,-0.671082,313.5, 0.9, 0.5,0,0,1024,1024,1024,1024,312.7,-89.9,97,3.693,3.678,3.679,3.689,3.687,3.726,19.593,60.8,14,Waypoint,
37.0516725,-119.2428162,3879.9833003406,155.511816,0,0.7055282378,21400,2018-06-18 17:11:41,17,0,22.166,3879.9833003406,155.511816,0.223694,1.13813651936,0,0,-0.671082,313.5, 1, 0.3,0,0,1024,1024,1024,1024,312.7,-89.9,97,3.693,3.678,3.679,3.689,3.687,3.726,19.593,60.8,14,Waypoint,
37.0516726,-119.2428161,3881.9518043406,157.48032,0.223694,0.6601378164,21500,2018-06-18 17:11:41,17,0,22.166,3881.9518043406,157.48032,0.223694,1.13813651936,0,0,-0.671082,313.4, 1.5, 0.1,0,0,1024,1024,1024,1024,312.6,-89.9,97,3.693,3.678,3.679,3.689,3.687,3.726,19.593,60.8,14,Waypoint,
37.0516727,-119.242816,3882.9360563406,158.464572,0.223694,0.61494096456,21600,2018-06-18 17:11:41,17,0,22.166,3882.9360563406,158.464572,0.223694,1.13813651936,0,0,-0.671082,313.5, 1.5, -0.1,0,0,1024,1024,1024,1024,312.7,-89.9,97,3.693,3.678,3.679,3.689,3.687,3.726,19.593,60.8,14,Waypoint,
37.0516728,-119.242816,3883.9203083406,159.448824,0.223694,0.59401904788,21700,2018-06-18 17:11:41,17,0,22.166,3883.9203083406,159.448824,0.223694,1.13813651936,0,0,-0.671082,313.5, 1.6, -0.4,0,0,1024,1024,1024,1024,312.7,-89.9,97,3.693,3.678,3.679,3.689,3.687,3.726,19.593,60.8,14,Waypoint,
37.0516729,-119.242816,3884.9045603406,160.433076,0.223694,0.5746555302,21800,2018-06-18 17:11:42,17,0,22.166,3884.9045603406,160.433076,0.223694,1.13813651936,0,0,-0.671082,313.6, 1.6, -0.5,0,0,1024,1024,1024,1024,312.7,-89.9,97,3.693,3.678,3.679,3.689,3.687,3.726,19.593,60.8,14,Waypoint,
37.0516729,-119.242816,3885.8888123406,161.417328,0,0.5746555302,21900,2018-06-18 17:11:42,17,0,22.166,3885.8888123406,161.417328,0.223694,1.13813651936,0,0,-0.671082,313.6, 1.6, -0.6,0,0,1024,1024,1024,1024,312.7,-89.9,97,3.693,3.678,3.679,3.689,3.687,3.726,19.593,60.8,14,Waypoint,
37.0516731,-119.2428159,3887.8573163406,163.385832,0,0.51476051516,22100,2018-06-18 17:11:42,17,0,22.166,3887.8573163406,163.385832,0.223694,1.13813651936,0,0,-0.671082,313.7, 1.5, -0.5,0,0,1024,1024,1024,1024,312.6,-89.9,97,3.693,3.678,3.679,3.689,3.687,3.726,19.593,60.8,14,Waypoint,
37.0516731,-119.2428159,3888.8415683406,164.370084,0,0.51476051516,22200,2018-06-18 17:11:42,17,0,22.166,3888.8415683406,164.370084,0.223694,1.13813651936,0,0,-0.671082,313.6, 1.5, -0.4,0,0,1024,1024,1024,1024,312.6,-89.9,97,3.693,3.678,3.679,3.689,3.687,3.726,19.593,60.8,14,Waypoint,
37.0516732,-119.2428159,3889.8258203406,165.354336,0,0.50033466168,22400,2018-06-18 17:11:42,17,0,22.166,3889.8258203406,165.354336,0.223694,1.13813651936,0,0,-0.671082,313.5, 1.5, -0.5,0,0,1024,1024,1024,1024,312.6,-89.9,97,3.693,3.678,3.679,3.689,3.687,3.726,19.593,60.8,14,Waypoint,
37.0516732,-119.2428159,3890.8100723406,166.338588,0,0.50033466168,22500,2018-06-18 17:11:42,17,0,22.166,3890.8100723406,166.338588,0.223694,1.13813651936,0,0,-0.671082,313.5, 1.6, -0.4,0,0,1024,1024,1024,1024,312.7,-89.9,97,3.693,3.678,3.679,3.689,3.687,3.726,19.593,60.8,14,Waypoint,
37.0516733,-119.2428159,3891.7943243406,167.32284,0,0.48821523872,22600,2018-06-18 17:11:42,17,0,22.166,3891.7943243406,167.32284,0.223694,1.13813651936,0,0,-0.671082,313.4, 1.8, -0.4,0,0,1024,1024,1024,1024,312.6,-89.9,97,3.693,3.678,3.679,3.689,3.687,3.726,19.593,60.8,14,Waypoint,
37.0516733,-119.2428159,3892.7785763406,168.307092,0,0.48821523872,22700,2018-06-18 17:11:42,17,0,22.166,3892.7785763406,168.307092,0.223694,1.13813651936,0,0,-0.671082,313.4, 2, -0.4,0,0,1024,1024,1024,1024,312.6,-89.9,97,3.693,3.678,3.679,3.689,3.687,3.726,19.593,60.8,14,Waypoint,
37.0516734,-119.2428159,3893.7628283406,169.291344,0,0.47857941164,22800,2018-06-18 17:11:43,17,0,22.166,3893.7628283406,169.291344,0.223694,1.13813651936,0,0,-0.671082,313.4, 2.1, -0.4,0,0,1024,1024,1024,1024,312.7,-89.9,97,3.693,3.678,3.679,3.689,3.687,3.726,19.593,60.8,14,Waypoint,
37.0516734,-119.2428159,3894.7470803406,170.275596,0,0.47857941164,22900,2018-06-18 17:11:43,17,0,22.166,3894.7470803406,170.275596,0.223694,1.13813651936,0,0,-0.671082,313.5, 2, -0.5,0,0,1024,1024,1024,1024,312.6,-89.9,97,3.693,3.678,3.679,3.689,3.687,3.726,19.593,60.8,14,Waypoint,
37.0516735,-119.2428159,3895.7313323406,171.259848,0,0.47157481824,23000,2018-06-18 17:11:43,17,0,22.246,3895.7313323406,171.259848,0.223694,1.13813651936,0,0,-0.671082,313.5, 1.8, -0.6,0,0,1024,1024,1024,1024,312.7,-89.9,97,3.712,3.698,3.695,3.709,3.708,3.747,18.386,60.8,14,Waypoint,
37.0516735,-119.2428159,3896.7155843406,172.2441,0,0.47157481824,23100,2018-06-18 17:11:43,17,0,22.246,3896.7155843406,172.2441,0.223694,1.13813651936,0,0,-0.671082,313.5, 1.8, -0.6,0,0,1024,1024,1024,1024,312.7,-89.9,97,3.712,3.698,3.695,3.709,3.708,3.747,18.386,60.8,14,Waypoint,
37.0516736,-119.2428159,3897.6998363406,173.228352,0,0.46731956876,23200,2018-06-18 17:11:43,17,0,22.246,3897.6998363406,173.228352,0.223694,1.13813651936,0,0,-0.671082,313.5, 2, -0.3,0,0,1024,1024,1024,1024,312.7,-89.9,97,3.712,3.698,3.695,3.709,3.708,3.747,18.386,60.8,14,Waypoint,
37.0516736,-119.2428159,3898.6840883406,174.212604,0,0.46731956876,23300,2018-06-18 17:11:43,17,0,22.246,3898.6840883406,174.212604,0.223694,1.13813651936,0,0,-0.671082,313.6, 2.1, 0,0,0,1024,1024,1024,1024,312.6,-89.9,97,3.712,3.698,3.695,3.709,3.708,3.747,18.386,60.8,14,Waypoint,
37.0516736,-119.242816,3899.6683403406,175.196856,0,0.49635500276,23400,2018-06-18 17:11:43,17,0,22.246,3899.6683403406,175.196856,0.223694,1.13813651936,0,0,-0.671082,313.7, 2, 0.1,0,0,1024,1024,1024,1024,312.7,-89.9,97,3.712,3.698,3.695,3.709,3.708,3.747,18.386,60.8,14,Waypoint,
37.0516736,-119.242816,3900.6525923406,176.181108,0,0.49635500276,23500,2018-06-18 17:11:43,17,0,22.246,3900.6525923406,176.181108,0.223694,1.13813651936,0,0,-0.671082,313.8, 1.9, 0,0,0,1024,1024,1024,1024,312.7,-89.9,97,3.712,3.698,3.695,3.709,3.708,3.747,18.386,60.8,14,Waypoint,
37.0516736,-119.242816,3901.3087603406,176.837276,0,0.49635500276,23600,2018-06-18 17:11:43,17,0,22.246,3901.3087603406,176.837276,0.223694,1.13813651936,0,0,-0.671082,313.9, 1.9, -0.2,0,0,1024,1024,1024,1024,312.7,-89.9,97,3.712,3.698,3.695,3.709,3.708,3.747,18.386,60.8,14,Waypoint,
37.0516736,-119.242816,3903.2772643406,178.80578,0,0.49635500276,23700,2018-06-18 17:11:43,17,0,22.246,3903.2772643406,178.80578,0.223694,1.13813651936,0,0,-0.671082,313.9, 1.5, -0.3,0,0,1024,1024,1024,1024,312.7,-89.9,97,3.712,3.698,3.695,3.709,3.708,3.747,18.386,60.8,14,Waypoint,
37.0516736,-119.242816,3904.2615163406,179.790032,0,0.49635500276,23800,2018-06-18 17:11:44,17,0,22.246,3904.2615163406,179.790032,0.223694,1.13813651936,0,0,-0.671082,313.8, 1.5, -0.2,0,0,1024,1024,1024,1024,312.7,-89.9,97,3.712,3.698,3.695,3.709,3.708,3.747,18.386,60.8,14,Waypoint,
37.0516736,-119.242816,3905.2457683406,180.774284,0,0.49635500276,23900,2018-06-18 17:11:44,17,0,22.246,3905.2457683406,180.774284,0.223694,1.13813651936,0,0,-0.671082,313.7, 1.5, 0,0,0,1024,1024,1024,1024,312.7,-89.9,97,3.712,3.698,3.695,3.709,3.708,3.747,18.386,60.8,14,Waypoint,
37.0516736,-119.242816,3906.2300203406,181.758536,0,0.49635500276,24000,2018-06-18 17:11:44,17,0,22.274,3906.2300203406,181.758536,0.223694,1.13813651936,0,0,-0.671082,313.6, 1.4, 0,0,0,1024,1024,1024,1024,312.7,-89.9,97,3.705,3.7,3.686,3.698,3.7,3.737,18.24,62.6,14,Waypoint,
37.0516736,-119.242816,3907.2142723406,182.742788,0,0.49635500276,24100,2018-06-18 17:11:44,17,0,22.274,3907.2142723406,182.742788,0.223694,1.13813651936,0,0,-0.671082,313.6, 1.4, -0.1,0,0,1024,1024,1024,1024,312.6,-89.9,97,3.705,3.7,3.686,3.698,3.7,3.737,18.24,62.6,14,Waypoint,
37.0516735,-119.2428161,3909.1827763406,184.711292,0,0.52918636864,24300,2018-06-18 17:11:44,17,0,22.274,3909.1827763406,184.711292,0.223694,1.13813651936,0,0,-0.671082,313.6, 1.4, -0.2,0,0,1024,1024,1024,1024,312.6,-89.9,97,3.705,3.7,3.686,3.698,3.7,3.737,18.24,62.6,14,Waypoint,
37.0516735,-119.2428161,3910.1670283406,185.695544,0,0.52918636864,24400,2018-06-18 17:11:44,17,0,22.274,3910.1670283406,185.695544,0.223694,1.13813651936,0,0,-0.671082,313.7, 1.4, 0,0,0,1024,1024,1024,1024,312.7,-89.9,97,3.705,3.7,3.686,3.698,3.7,3.737,18.24,62.6,14,Waypoint,
37.0516735,-119.2428161,3911.1512803406,186.679796,0,0.52918636864,24500,2018-06-18 17:11:44,17,0,22.274,3911.1512803406,186.679796,0.223694,1.13813651936,0,0,-0.671082,313.7, 1.4, 0,0,0,1024,1024,1024,1024,312.7,-89.9,97,3.705,3.7,3.686,3.698,3.7,3.737,18.24,62.6,14,Waypoint,
37.0516734,-119.2428162,3912.1355323406,187.664048,0,0.56397311516,24600,2018-06-18 17:11:44,17,0,22.274,3912.1355323406,187.664048,0.223694,1.13813651936,0,0,-0.671082,313.7, 1.4, 0,0,0,1024,1024,1024,1024,312.7,-89.9,97,3.705,3.7,3.686,3.698,3.7,3.737,18.24,62.6,14,Waypoint,
37.0516734,-119.2428162,3913.1197843406,188.6483,0,0.56397311516,24700,2018-06-18 17:11:44,17,0,22.274,3913.1197843406,188.6483,0.223694,1.13813651936,0,0,-0.671082,313.7, 1.4, 0.2,0,0,1024,1024,1024,1024,312.7,-89.9,97,3.705,3.7,3.686,3.698,3.7,3.737,18.24,62.6,14,Waypoint,
37.0516733,-119.2428162,3914.1040363406,189.632552,0,0.57217193432,24800,2018-06-18 17:11:45,17,0,22.274,3914.1040363406,189.632552,0.223694,1.13813651936,0,0,-0.671082,313.7, 1.5, 0.4,0,0,1024,1024,1024,1024,312.6,-89.9,97,3.705,3.7,3.686,3.698,3.7,3.737,18.24,62.6,14,Waypoint,
37.0516733,-119.2428163,3915.0882883406,190.616804,0,0.60037403496,24900,2018-06-18 17:11:45,17,0,22.274,3915.0882883406,190.616804,0.223694,1.13813651936,0,0,-0.671082,313.7, 1.6, 0.5,0,0,1024,1024,1024,1024,312.7,-89.9,97,3.705,3.7,3.686,3.698,3.7,3.737,18.24,62.6,14,Waypoint,
37.0516733,-119.2428163,3916.0725403406,191.601056,0,0.60037403496,25000,2018-06-18 17:11:45,17,0,22.172,3916.0725403406,191.601056,0.223694,1.13813651936,0,0,-0.671082,313.7, 1.5, 0.4,0,0,1024,1024,1024,1024,312.7,-89.9,97,3.69,3.681,3.682,3.695,3.694,3.733,18.775,62.6,14,Waypoint,
37.0516732,-119.2428163,3917.0567923406,192.585308,0,0.6102690484,25100,2018-06-18 17:11:45,17,0,22.172,3917.0567923406,192.585308,0.223694,1.13813651936,0,0,-0.671082,313.8, 1.5, 0.3,0,0,1024,1024,1024,1024,312.7,-89.9,97,3.69,3.681,3.682,3.695,3.694,3.733,18.775,62.6,14,Waypoint,
37.0516732,-119.2428163,3917.0567923406,192.585308,0,0.6102690484,25200,2018-06-18 17:11:45,17,0,22.172,3917.0567923406,192.585308,0.223694,1.13813651936,0,0,-0.671082,313.8, 1.5, 0.3,0,0,1024,1024,1024,1024,312.7,-89.9,97,3.69,3.681,3.682,3.695,3.694,3.733,18.775,62.6,14,Waypoint,
37.0516732,-119.2428163,3918.0410443406,193.56956,0,0.6102690484,25300,2018-06-18 17:11:45,17,0,22.172,3918.0410443406,193.56956,0.223694,1.13813651936,0,0,-0.671082,313.8, 1.3, 0.2,0,0,1024,1024,1024,1024,312.6,-90,97,3.69,3.681,3.682,3.695,3.694,3.733,18.775,62.6,14,Waypoint,
37.0516732,-119.2428163,3919.0252963406,194.553812,0,0.6102690484,25400,2018-06-18 17:11:45,17,0,22.172,3919.0252963406,194.553812,0.223694,1.13813651936,0,0,-0.671082,313.7, 1.1, 0.1,0,0,1024,1024,1024,1024,312.7,-90,97,3.69,3.681,3.682,3.695,3.694,3.733,18.775,62.6,14,Waypoint,
37.0516731,-119.2428163,3920.0095483406,195.538064,0,0.62215225088,25500,2018-06-18 17:11:45,17,0,22.172,3920.0095483406,195.538064,0.223694,1.13813651936,0,0,-0.671082,313.7, 1.1, 0,0,0,1024,1024,1024,1024,312.7,-89.9,97,3.69,3.681,3.682,3.695,3.694,3.733,18.775,62.6,14,Waypoint,
37.0516731,-119.2428163,3920.9938003406,196.522316,0,0.62215225088,25600,2018-06-18 17:11:45,17,0,22.172,3920.9938003406,196.522316,0.223694,1.13813651936,0,0,-0.671082,313.7, 1.1, 0.1,0,0,1024,1024,1024,1024,312.7,-89.9,97,3.69,3.681,3.682,3.695,3.694,3.733,18.775,62.6,14,Waypoint,
37.0516731,-119.2428163,3921.9780523406,197.506568,0,0.62215225088,25700,2018-06-18 17:11:45,17,0,22.172,3921.9780523406,197.506568,0.223694,1.13813651936,0,0,-0.671082,313.7, 1.2, 0.1,0,0,1024,1024,1024,1024,312.7,-89.9,97,3.69,3.681,3.682,3.695,3.694,3.733,18.775,62.6,14,Waypoint,
37.0516731,-119.2428163,3922.9623043406,198.49082,0,0.62215225088,25800,2018-06-18 17:11:46,17,0,22.172,3922.9623043406,198.49082,0.223694,1.13813651936,0,0,-0.671082,313.7, 1.2, 0.1,0,0,1024,1024,1024,1024,312.6,-89.9,97,3.69,3.681,3.682,3.695,3.694,3.733,18.775,62.6,14,Waypoint,
37.051673,-119.2428163,3923.9465563406,199.475072,0,0.63590553216,25900,2018-06-18 17:11:46,17,0,22.172,3923.9465563406,199.475072,0.223694,1.13813651936,0,0,-0.671082,313.7, 1.4, 0.1,0,0,1024,1024,1024,1024,312.6,-89.9,97,3.69,3.681,3.682,3.695,3.694,3.733,18.775,62.6,14,Waypoint,
37.051673,-119.2428163,3924.9308083406,200.459324,0,0.63590553216,26000,2018-06-18 17:11:46,17,0,22.192,3924.9308083406,200.459324,0.223694,1.13813651936,0,0,-0.671082,313.7, 1.4, 0.1,0,0,1024,1024,1024,1024,312.7,-89.9,96,3.69,3.681,3.682,3.695,3.694,3.733,18.6,62.6,14,Waypoint,
37.051673,-119.2428163,3925.9150603406,201.443576,0,0.63590553216,26100,2018-06-18 17:11:46,17,0,22.192,3925.9150603406,201.443576,0.223694,1.13813651936,0,0,-0.671082,313.7, 1.4, 0,0,0,1024,1024,1024,1024,312.7,-89.9,96,3.69,3.681,3.682,3.695,3.694,3.733,18.6,62.6,14,Waypoint,
37.051673,-119.2428163,3926.8993123406,202.427828,0,0.63590553216,26200,2018-06-18 17:11:46,17,0,22.192,3926.8993123406,202.427828,0.223694,1.13813651936,0,0,-0.671082,313.6, 1.4, 0,0,0,1024,1024,1024,1024,312.7,-89.9,96,3.69,3.681,3.682,3.695,3.694,3.733,18.6,62.6,14,Waypoint,
37.051673,-119.2428162,3928.8678163406,204.396332,0,0.60935369404,26300,2018-06-18 17:11:46,17,0,22.192,3928.8678163406,204.396332,0.223694,1.13813651936,0,0,-0.671082,313.5, 1.2, -0.1,0,0,1024,1024,1024,1024,312.7,-89.9,96,3.69,3.681,3.682,3.695,3.694,3.733,18.6,62.6,14,Waypoint,
37.051673,-119.2428161,3929.8520683406,205.380584,0,0.58304135724,26400,2018-06-18 17:11:46,17,0,22.192,3929.8520683406,205.380584,0.223694,1.13813651936,0,0,-0.671082,313.4, 1.1, -0.2,0,0,1024,1024,1024,1024,312.7,-90,96,3.69,3.681,3.682,3.695,3.694,3.733,18.6,62.6,14,Waypoint,
37.051673,-119.2428161,3930.8363203406,206.364836,0,0.58304135724,26600,2018-06-18 17:11:46,17,0,22.192,3930.8363203406,206.364836,0.223694,1.13813651936,0,0,-0.671082,313.5, 1, -0.2,0,0,1024,1024,1024,1024,312.7,-90,96,3.69,3.681,3.682,3.695,3.694,3.733,18.6,62.6,14,Waypoint,
37.0516729,-119.2428159,3933.1329083406,208.661424,0,0.54977363964,26700,2018-06-18 17:11:46,17,0,22.192,3933.1329083406,208.661424,0.223694,1.13813651936,0,0,-0.671082,313.7, 0.9, -0.2,0,0,1024,1024,1024,1024,312.6,-90,96,3.69,3.681,3.682,3.695,3.694,3.733,18.6,62.6,14,Waypoint,
37.0516729,-119.2428159,3934.1171603406,209.645676,0,0.54977363964,26800,2018-06-18 17:11:47,17,0,22.192,3934.1171603406,209.645676,0.223694,1.13813651936,0,0,-0.671082,313.6, 0.8, -0.4,0,0,1024,1024,1024,1024,312.6,-90,96,3.69,3.681,3.682,3.695,3.694,3.733,18.6,62.6,14,Waypoint,
37.0516729,-119.2428158,3935.1014123406,210.629928,0,0.52532481996,26900,2018-06-18 17:11:47,17,0,22.192,3935.1014123406,210.629928,0.223694,1.13813651936,0,0,-0.671082,313.5, 0.4, -0.5,0,0,1024,1024,1024,1024,312.7,-90,96,3.69,3.681,3.682,3.695,3.694,3.733,18.6,62.6,14,Waypoint,
37.0516729,-119.2428157,3936.0856643406,211.61418,0,0.50137468796,27000,2018-06-18 17:11:47,17,0,22.192,3936.0856643406,211.61418,0.223694,1.13813651936,0,0,-0.671082,313.4, 0.2, -0.6,0,0,1024,1024,1024,1024,312.7,-90,96,3.708,3.684,3.686,3.695,3.698,3.735,18.6,62.6,14,Waypoint,
37.0516729,-119.2428157,3937.0699163406,212.598432,0,0.50137468796,27100,2018-06-18 17:11:47,17,0,22.192,3937.0699163406,212.598432,0.223694,1.13813651936,0,0,-0.671082,313.3, 0.3, -0.6,0,0,1024,1024,1024,1024,312.6,-90,96,3.708,3.684,3.686,3.695,3.698,3.735,18.6,62.6,14,Waypoint,
37.0516729,-119.2428156,3938.0541683406,213.582684,0,0.4780019838,27210,2018-06-18 17:11:47,17,0,22.192,3938.0541683406,213.582684,0.223694,1.13813651936,0,0,-0.671082,313.1, 0.5, -0.5,0,0,1024,1024,1024,1024,312.6,-90,96,3.708,3.684,3.686,3.695,3.698,3.735,18.6,62.6,14,Waypoint,
37.0516729,-119.2428156,3939.0384203406,214.566936,0,0.4780019838,27300,2018-06-18 17:11:47,17,0,22.192,3939.0384203406,214.566936,0.223694,1.13813651936,0,0,-0.671082,313, 0.6, -0.5,0,0,1024,1024,1024,1024,312.6,-90,96,3.708,3.684,3.686,3.695,3.698,3.735,18.6,62.6,14,Waypoint,
37.0516729,-119.2428155,3940.0226723406,215.551188,0,0.45528872848,27400,2018-06-18 17:11:47,17,0,22.192,3940.0226723406,215.551188,0.223694,1.13813651936,0,0,-0.671082,313, 0.7, -0.5,0,0,1024,1024,1024,1024,312.7,-89.9,96,3.708,3.684,3.686,3.695,3.698,3.735,18.6,62.6,14,Waypoint,
