latitude,longitude,altitude(feet),ascent(feet),speed(mph),distance(feet),time(millisecond),datetime(utc),satellites,gpslevel,voltage(v),max_altitude(feet),max_ascent(feet),max_speed(mph),max_distance(feet), xSpeed(mph), ySpeed(mph), zSpeed(mph), compass_heading(degrees), pitch(degrees), roll(degrees),isPhoto,isVideo,rc_elevator,rc_aileron,rc_throttle,rc_rudder,gimbal_heading(degrees),gimbal_pitch(degrees),battery_percent,voltageCell1,voltageCell2,voltageCell3,voltageCell4,voltageCell5,voltageCell6,current(A),battery_temperature(f),flycStateRaw,flycState,message
37.0516633,-119.2428187,3723.9960988267,0,0.447388,0,3000,2018-06-18 17:30:38,13,0,25.721,3723.9960988267,0,0.447388,0,0,0,0,304.7, 0.5, -1.5,1,0,1024,1024,1024,1024,305.9,-90,100,4.295,4.286,4.254,4.282,4.291,4.266,2.69,64.4,11,AutoTakeoff,DJI_0114.jpg Starting Mission from Lat/Long: 37.05166/-119.24282 Camera: Zenmuse X3 - Overlap: 90/90 - Active Connection: No
37.051663,-119.2428186,3723.9960988267,0,0.447388,0.113261814648,3100,2018-06-18 17:30:38,13,0,25.721,3723.9960988267,0,0.447388,0.113261814648,0,0,0,304.5, -0.4, -0.9,0,0,1024,1024,1024,1024,305.9,-89.9,100,4.295,4.286,4.254,4.282,4.291,4.266,2.69,64.4,11,AutoTakeoff,
37.0516628,-119.2428186,3723.9960988267,0,0.447388,0.184733929796,3200,2018-06-18 17:30:38,13,0,25.721,3723.9960988267,0,0.447388,0.184733929796,0,0,0,304.3, -0.7, -0.1,0,0,1024,1024,1024,1024,305.9,-89.9,100,4.295,4.286,4.254,4.282,4.291,4.266,2.69,64.4,11,AutoTakeoff,
37.0516626,-119.2428186,3723.9960988267,0,0.447388,0.257049220824,3300,2018-06-18 17:30:38,13,0,25.721,3723.9960988267,0,0.447388,0.257049220824,0,0,0,304.1, -0.9, 0.6,0,0,1024,1024,1024,1024,305.9,-89.9,100,4.295,4.286,4.254,4.282,4.291,4.266,2.69,64.4,11,AutoTakeoff,
37.0516623,-119.2428187,3724.3241828267,0.328084,0.447388,0.36484909304,3400,2018-06-18 17:30:38,13,0,25.721,3724.3241828267,0.328084,0.447388,0.36484909304,0,0,0,304, -1, 1.2,0,0,1024,1024,1024,1024,305.9,-89.9,100,4.295,4.286,4.254,4.282,4.291,4.266,2.69,64.4,11,AutoTakeoff,
37.0516619,-119.2428188,3724.6522668267,0.656168,0.223694,0.51161747044,3500,2018-06-18 17:30:38,14,0,25.721,3724.6522668267,0.656168,0.447388,0.51161747044,0,0,0,304.1, -1, 1.9,0,0,1024,1024,1024,1024,305.9,-89.9,100,4.295,4.286,4.254,4.282,4.291,4.266,2.69,64.4,11,AutoTakeoff,
37.0516618,-119.2428189,3724.6522668267,0.656168,0.223694,0.55036419084,3600,2018-06-18 17:30:38,16,0,25.721,3724.6522668267,0.656168,0.447388,0.55036419084,0,0,0,304.3, -0.5, 2,0,0,1024,1024,1024,1024,305.9,-89.9,100,4.295,4.286,4.254,4.282,4.291,4.266,2.69,64.4,11,AutoTakeoff,
37.0516615,-119.2428191,3724.9803508267,0.984252,0.223694,0.6669783678,3800,2018-06-18 17:30:38,16,0,25.721,3724.9803508267,0.984252,0.447388,0.6669783678,0,0,0,304.9, 0, 1.5,0,0,1024,1024,1024,1024,305.9,-89.9,100,4.295,4.286,4.254,4.282,4.291,4.266,2.69,64.4,11,AutoTakeoff,
37.0516614,-119.2428191,3725.3084348267,1.312336,0,0.70292981252,3900,2018-06-18 17:30:38,16,0,25.721,3725.3084348267,1.312336,0.447388,0.70292981252,0,0,0,305.2, 0.2, 1.1,0,0,1024,1024,1024,1024,305.9,-89.9,100,4.295,4.286,4.254,4.282,4.291,4.266,2.69,64.4,11,AutoTakeoff,
37.0516614,-119.2428191,3725.3084348267,1.312336,0,0.70292981252,4000,2018-06-18 17:30:39,16,0,25.566,3725.3084348267,1.312336,0.447388,0.70292981252,0,0,0,305.2, 0.2, 0.9,0,0,1024,1024,1024,1024,305.9,-89.9,100,4.241,4.222,4.239,4.219,4.212,4.245,3.053,64.4,11,AutoTakeoff,
37.0516613,-119.2428192,3725.6365188267,1.64042,0,0.74408138864,4100,2018-06-18 17:30:39,16,0,25.566,3725.6365188267,1.64042,0.447388,0.74408138864,0,0,0,305.2, 0.3, 1,0,0,1024,1024,1024,1024,305.9,-89.9,100,4.241,4.222,4.239,4.219,4.212,4.245,3.053,64.4,11,AutoTakeoff,
37.0516611,-119.2428193,3725.6365188267,1.64042,0,0.82146328088,4200,2018-06-18 17:30:39,14,0,25.566,3725.6365188267,1.64042,0.447388,0.82146328088,0,0,0,305, 0.2, 1.5,0,0,1024,1024,1024,1024,305.9,-89.9,100,4.241,4.222,4.239,4.219,4.212,4.245,3.053,64.4,11,AutoTakeoff,
37.051661,-119.2428194,3725.9646028267,1.968504,0,0.86355317724,4300,2018-06-18 17:30:39,14,0,25.566,3725.9646028267,1.968504,0.447388,0.86355317724,0,0,0,304.9, 0.2, 2.1,0,0,1024,1024,1024,1024,305.9,-89.9,100,4.241,4.222,4.239,4.219,4.212,4.245,3.053,64.4,11,AutoTakeoff,
37.0516609,-119.2428194,3726.2926868267,2.296588,0,0.8990485852,4500,2018-06-18 17:30:39,16,0,25.566,3726.2926868267,2.296588,0.447388,0.8990485852,0,0,0,304.9, 0.1, 2.1,0,0,1024,1024,1024,1024,305.9,-89.9,100,4.241,4.222,4.239,4.219,4.212,4.245,3.053,64.4,11,AutoTakeoff,
37.0516609,-119.2428194,3726.2926868267,2.296588,0,0.8990485852,4600,2018-06-18 17:30:39,16,0,25.566,3726.2926868267,2.296588,0.447388,0.8990485852,0,0,-0.223694,305.1, 0.1, 1.6,0,0,1024,1024,1024,1024,305.9,-89.9,100,4.241,4.222,4.239,4.219,4.212,4.245,3.053,64.4,11,AutoTakeoff,
37.051661,-119.2428193,3726.6207708267,2.624672,0,0.85714897756,4700,2018-06-18 17:30:39,16,0,25.566,3726.6207708267,2.624672,0.447388,0.8990485852,0,0,-0.223694,305.4, 0, 1,0,0,1024,1024,1024,1024,305.9,-89.9,100,4.241,4.222,4.239,4.219,4.212,4.245,3.053,64.4,11,AutoTakeoff,
37.0516611,-119.2428192,3726.6207708267,2.624672,0,0.8157644618,4800,2018-06-18 17:30:39,16,0,25.566,3726.6207708267,2.624672,0.447388,0.8990485852,0,0,0,305.6, 0, 0.5,0,0,1024,1024,1024,1024,305.9,-89.9,100,4.241,4.222,4.239,4.219,4.212,4.245,3.053,64.4,11,AutoTakeoff,
37.0516612,-119.2428192,3726.9488548267,2.952756,0,0.77989503808,5000,2018-06-18 17:30:40,16,0,24.072,3726.9488548267,2.952756,0.447388,0.8990485852,0,0,0,305.9, 0.1, 0.1,0,0,1024,1024,1024,1024,305.9,-89.9,100,4.003,3.997,4.023,4,3.984,4.024,13.889,64.4,14,Waypoint,
37.0516612,-119.2428192,3727.2769388267,3.28084,0,0.77989503808,5100,2018-06-18 17:30:40,16,0,24.072,3727.2769388267,3.28084,0.447388,0.8990485852,0,0,0,306.1, 0.4, -0.3,0,0,1024,1024,1024,1024,305.9,-89.9,100,4.003,3.997,4.023,4,3.984,4.024,13.889,64.4,14,Waypoint,
37.0516613,-119.2428192,3727.2769388267,3.28084,0,0.74408138864,5300,2018-06-18 17:30:40,16,0,24.072,3727.2769388267,3.28084,0.447388,0.8990485852,0,0,0,306.3, 0.7, -0.6,0,0,1024,1024,1024,1024,305.9,-89.9,100,4.003,3.997,4.023,4,3.984,4.024,13.889,64.4,14,Waypoint,
37.0516614,-119.2428191,3727.6050228267,3.608924,0,0.70292981252,5400,2018-06-18 17:30:40,16,0,24.072,3727.6050228267,3.608924,0.447388,0.8990485852,0,0,0,306.4, 0.9, -0.6,0,0,1024,1024,1024,1024,305.9,-89.9,100,4.003,3.997,4.023,4,3.984,4.024,13.889,64.4,14,Waypoint,
37.0516614,-119.2428191,3727.6050228267,3.608924,0,0.70292981252,5500,2018-06-18 17:30:40,16,0,24.072,3727.6050228267,3.608924,0.447388,0.8990485852,0,0,0,306.5, 1, -0.6,0,0,1024,1024,1024,1024,305.9,-89.9,100,4.003,3.997,4.023,4,3.984,4.024,13.889,64.4,14,Waypoint,
37.0516616,-119.242819,3727.9331068267,3.937008,0,0.62636484944,5600,2018-06-18 17:30:40,16,0,24.072,3727.9331068267,3.937008,0.447388,0.8990485852,0,0,-0.223694,306.4, 0.8, -0.6,0,0,1024,1024,1024,1024,305.9,-89.9,100,4.003,3.997,4.023,4,3.984,4.024,13.889,64.4,14,Waypoint,
37.0516617,-119.2428189,3728.2611908267,4.265092,0,0.58665684292,5700,2018-06-18 17:30:40,16,0,24.072,3728.2611908267,4.265092,0.447388,0.8990485852,0,0,-0.223694,306.3, 0.5, -0.8,0,0,1024,1024,1024,1024,305.9,-90,100,4.003,3.997,4.023,4,3.984,4.024,13.889,64.4,14,Waypoint,
37.0516617,-119.2428188,3728.5892748267,4.593176,0,0.58448492684,5800,2018-06-18 17:30:40,16,0,24.072,3728.5892748267,4.593176,0.447388,0.8990485852,0,0,-0.223694,306.1, 0.1, -0.7,0,0,1024,1024,1024,1024,305.9,-90,100,4.003,3.997,4.023,4,3.984,4.024,13.889,64.4,14,Waypoint,
37.0516617,-119.2428187,3728.9173588267,4.92126,0,0.5837598612,5900,2018-06-18 17:30:40,16,0,24.072,3728.9173588267,4.92126,0.447388,0.8990485852,0,0,-0.223694,305.9, -0.1, -0.5,0,0,1024,1024,1024,1024,305.9,-90,100,4.003,3.997,4.023,4,3.984,4.024,13.889,64.4,14,Waypoint,
37.0516617,-119.2428186,3729.9016108267,5.905512,0,0.58448492684,6000,2018-06-18 17:30:41,15,0,23.793,3729.9016108267,5.905512,0.447388,0.8990485852,0,0,-0.447388,305.7, -0.1, -0.6,0,0,1024,1024,1024,1024,305.9,-90,100,3.952,3.95,3.975,3.954,3.935,3.978,16.232,64.4,14,Waypoint,
37.0516617,-119.2428186,3730.5577788267,6.56168,0,0.58448492684,6100,2018-06-18 17:30:41,15,0,23.793,3730.5577788267,6.56168,0.447388,0.8990485852,0,0,-0.447388,305.7, -0.3, -0.7,0,0,1024,1024,1024,1024,305.9,-90,100,3.952,3.95,3.975,3.954,3.935,3.978,16.232,64.4,14,Waypoint,
37.0516617,-119.2428186,3731.2139468267,7.217848,0,0.58448492684,6200,2018-06-18 17:30:41,16,0,23.793,3731.2139468267,7.217848,0.447388,0.8990485852,0,0,-0.447388,305.7, -0.5, -0.5,0,0,1024,1024,1024,1024,305.9,-90,100,3.952,3.95,3.975,3.954,3.935,3.978,16.232,64.4,14,Waypoint,
37.0516618,-119.2428185,3731.8701148267,7.874016,0,0.55036419084,6300,2018-06-18 17:30:41,16,0,23.793,3731.8701148267,7.874016,0.447388,0.8990485852,0,0,-0.447388,305.8, -0.3, -0.7,0,0,1024,1024,1024,1024,305.9,-89.9,100,3.952,3.95,3.975,3.954,3.935,3.978,16.232,64.4,14,Waypoint,
37.0516618,-119.2428185,3732.5262828267,8.530184,0,0.55036419084,6400,2018-06-18 17:30:41,17,0,23.793,3732.5262828267,8.530184,0.447388,0.8990485852,0,0,-0.447388,306, -0.1, -1.1,0,0,1024,1024,1024,1024,305.9,-89.9,100,3.952,3.95,3.975,3.954,3.935,3.978,16.232,64.4,14,Waypoint,
37.0516617,-119.2428185,3733.5105348267,9.514436,0,0.58665684292,6500,2018-06-18 17:30:41,17,0,23.793,3733.5105348267,9.514436,0.447388,0.8990485852,0,0,-0.671082,306, 0, -1.7,0,0,1024,1024,1024,1024,305.9,-89.9,100,3.952,3.95,3.975,3.954,3.935,3.978,16.232,64.4,14,Waypoint,
37.0516617,-119.2428185,3734.4947868267,10.498688,0,0.58665684292,6600,2018-06-18 17:30:41,17,0,23.793,3734.4947868267,10.498688,0.447388,0.8990485852,0,0,-0.671082,306, 0, -1.6,0,0,1024,1024,1024,1024,305.9,-89.9,100,3.952,3.95,3.975,3.954,3.935,3.978,16.232,64.4,14,Waypoint,
37.0516616,-119.2428186,3735.4790388267,11.48294,0,0.62092849756,6700,2018-06-18 17:30:41,17,0,23.793,3735.4790388267,11.48294,0.447388,0.8990485852,0,0,-0.671082,305.9, 0.1, -0.8,0,0,1024,1024,1024,1024,305.9,-89.9,100,3.952,3.95,3.975,3.954,3.935,3.978,16.232,64.4,14,Waypoint,
37.0516616,-119.2428186,3736.4632908267,12.467192,0,0.62092849756,6800,2018-06-18 17:30:41,17,0,23.793,3736.4632908267,12.467192,0.447388,0.8990485852,0,0,-0.671082,305.9, 0, -0.2,0,0,1024,1024,1024,1024,305.9,-90,100,3.952,3.95,3.975,3.954,3.935,3.978,16.232,64.4,14,Waypoint,
37.0516615,-119.2428187,3737.7756268267,13.779528,0,0.65672902364,6900,2018-06-18 17:30:41,17,0,23.793,3737.7756268267,13.779528,0.447388,0.8990485852,0,0,-0.671082,305.9, -0.2, 0.2,0,0,1024,1024,1024,1024,305.9,-90,100,3.952,3.95,3.975,3.954,3.935,3.978,16.232,64.4,14,Waypoint,
37.0516614,-119.2428187,3738.7598788267,14.76378,0,0.69321524528,7100,2018-06-18 17:30:42,16,0,23.793,3738.7598788267,14.76378,0.447388,0.8990485852,0,0,-0.671082,305.9, -0.4, 0.6,0,0,1024,1024,1024,1024,305.9,-90,100,3.952,3.95,3.975,3.954,3.935,3.978,16.232,64.4,14,Waypoint,
37.0516614,-119.2428187,3739.7441308267,15.748032,0,0.69321524528,7200,2018-06-18 17:30:42,16,0,23.793,3739.7441308267,15.748032,0.447388,0.8990485852,0,0,-0.671082,305.9, -0.6, 0.6,0,0,1024,1024,1024,1024,305.9,-90,100,3.952,3.95,3.975,3.954,3.935,3.978,16.232,64.4,14,Waypoint,
37.0516614,-119.2428187,3741.0564668267,17.060368,0,0.69321524528,7300,2018-06-18 17:30:42,17,0,23.793,3741.0564668267,17.060368,0.447388,0.8990485852,0,0,-0.671082,306, -0.6, 0.4,0,0,1024,1024,1024,1024,305.9,-90,100,3.952,3.95,3.975,3.954,3.935,3.978,16.232,64.4,14,Waypoint,
37.0516614,-119.2428186,3742.0407188267,18.04462,0,0.69382548152,7400,2018-06-18 17:30:42,17,0,23.793,3742.0407188267,18.04462,0.447388,0.8990485852,0,0,-0.671082,306.2, -0.8, 0,0,0,1024,1024,1024,1024,305.9,-90,100,3.952,3.95,3.975,3.954,3.935,3.978,16.232,64.4,14,Waypoint,
37.0516614,-119.2428185,3743.3530548267,19.356956,0,0.69565619024,7500,2018-06-18 17:30:42,16,0,23.793,3743.3530548267,19.356956,0.447388,0.8990485852,0,0,-0.671082,306.3, -0.9, -0.1,0,0,1024,1024,1024,1024,305.9,-89.9,100,3.952,3.95,3.975,3.954,3.935,3.978,16.232,64.4,14,Waypoint,
37.0516614,-119.2428185,3744.3373068267,20.341208,0,0.69565619024,7600,2018-06-18 17:30:42,16,0,23.793,3744.3373068267,20.341208,0.447388,0.8990485852,0,0,-0.671082,306.3, -0.8, -0.3,0,0,1024,1024,1024,1024,305.9,-89.9,100,3.952,3.95,3.975,3.954,3.935,3.978,16.232,64.4,14,Waypoint,
37.0516615,-119.2428184,3745.3215588267,21.32546,0,0.66251314456,7700,2018-06-18 17:30:42,17,0,23.793,3745.3215588267,21.32546,0.447388,0.8990485852,0,0,-0.671082,306.2, -0.6, -0.6,0,0,1024,1024,1024,1024,305.9,-89.9,100,3.952,3.95,3.975,3.954,3.935,3.978,16.232,64.4,14,Waypoint,
37.0516616,-119.2428184,3746.3058108267,22.309712,0,0.62636484944,7800,2018-06-18 17:30:42,17,0,23.793,3746.3058108267,22.309712,0.447388,0.8990485852,0,0,-0.671082,306.1, -0.4, -0.9,0,0,1024,1024,1024,1024,305.9,-89.9,100,3.952,3.95,3.975,3.954,3.935,3.978,16.232,64.4,14,Waypoint,
37.0516617,-119.2428183,3748.6023988267,24.6063,0,0.59526576708,7900,2018-06-18 17:30:42,17,0,23.793,3748.6023988267,24.6063,0.447388,0.8990485852,0,0,-0.671082,305.9, -0.3, -1.4,0,0,1024,1024,1024,1024,305.9,-89.9,100,3.952,3.95,3.975,3.954,3.935,3.978,16.232,64.4,14,Waypoint,
37.0516618,-119.2428182,3749.5866508267,25.590552,0,0.56630907324,8000,2018-06-18 17:30:43,17,0,23.038,3749.5866508267,25.590552,0.447388,0.8990485852,0,0,-0.671082,305.8, -0.1, -1.1,0,0,1024,1024,1024,1024,305.9,-89.9,100,3.832,3.825,3.833,3.827,3.812,3.833,23.285,64.4,14,Waypoint,
37.0516619,-119.2428182,3751.5551548267,27.559056,0,0.53113190676,8200,2018-06-18 17:30:43,17,0,23.038,3751.5551548267,27.559056,0.447388,0.8990485852,0,0,-0.671082,305.7, 0, -0.8,0,0,1024,1024,1024,1024,305.9,-89.9,100,3.832,3.825,3.833,3.827,3.812,3.833,23.285,64.4,14,Waypoint,
37.0516619,-119.2428182,3752.8674908267,28.871392,0,0.53113190676,8300,2018-06-18 17:30:43,17,0,23.038,3752.8674908267,28.871392,0.447388,0.8990485852,0,0,-0.671082,305.7, -0.1, -0.8,0,0,1024,1024,1024,1024,305.9,-90,100,3.832,3.825,3.833,3.827,3.812,3.833,23.285,64.4,14,Waypoint,
37.0516619,-119.2428182,3753.8517428267,29.855644,0,0.53113190676,8400,2018-06-18 17:30:43,17,0,23.038,3753.8517428267,29.855644,0.447388,0.8990485852,0,0,-0.671082,305.8, -0.2, -0.9,0,0,1024,1024,1024,1024,305.9,-89.9,100,3.832,3.825,3.833,3.827,3.812,3.833,23.285,64.4,14,Waypoint,
37.051662,-119.2428182,3754.8359948267,30.839896,0,0.496145029,8500,2018-06-18 17:30:43,17,0,23.038,3754.8359948267,30.839896,0.447388,0.8990485852,0,0,-0.671082,305.8, -0.2, -0.8,0,0,1024,1024,1024,1024,305.9,-89.9,100,3.832,3.825,3.833,3.827,3.812,3.833,23.285,64.4,14,Waypoint,
37.051662,-119.2428182,3755.8202468267,31.824148,0,0.496145029,8600,2018-06-18 17:30:43,16,0,23.038,3755.8202468267,31.824148,0.447388,0.8990485852,0,0,-0.671082,305.9, -0.2, -0.5,0,0,1024,1024,1024,1024,305.9,-90,100,3.832,3.825,3.833,3.827,3.812,3.833,23.285,64.4,14,Waypoint,
37.051662,-119.2428182,3757.1325828267,33.136484,0,0.496145029,8700,2018-06-18 17:30:43,16,0,23.038,3757.1325828267,33.136484,0.447388,0.8990485852,0,0,-0.671082,305.9, -0.2, -0.6,0,0,1024,1024,1024,1024,305.9,-90,100,3.832,3.825,3.833,3.827,3.812,3.833,23.285,64.4,14,Waypoint,
37.051662,-119.2428182,3758.1168348267,34.120736,0,0.496145029,8800,2018-06-18 17:30:43,17,0,23.038,3758.1168348267,34.120736,0.447388,0.8990485852,0,0,-0.671082,306, -0.1, -0.5,0,0,1024,1024,1024,1024,305.9,-89.9,100,3.832,3.825,3.833,3.827,3.812,3.833,23.285,64.4,14,Waypoint,
37.0516621,-119.2428182,3760.0853388267,36.08924,0,0.46139109088,9000,2018-06-18 17:30:44,17,0,23.275,3760.0853388267,36.08924,0.447388,0.8990485852,0,0,-0.671082,306, 0.2, -0.3,0,0,1024,1024,1024,1024,305.9,-89.9,100,3.832,3.825,3.833,3.827,3.812,3.833,18.742,64.4,14,Waypoint,
37.0516621,-119.2428182,3761.0695908267,37.073492,0,0.46139109088,9200,2018-06-18 17:30:44,17,0,23.275,3761.0695908267,37.073492,0.447388,0.8990485852,0,0,-0.671082,305.9, 0.1, -0.6,0,0,1024,1024,1024,1024,305.9,-89.9,100,3.832,3.825,3.833,3.827,3.812,3.833,18.742,64.4,14,Waypoint,
37.0516622,-119.2428182,3762.3819268267,38.385828,0,0.42692586668,9300,2018-06-18 17:30:44,17,0,23.275,3762.3819268267,38.385828,0.447388,0.8990485852,0,0,-0.671082,305.8, 0, -0.7,0,0,1024,1024,1024,1024,305.9,-90,100,3.832,3.825,3.833,3.827,3.812,3.833,18.742,64.4,14,Waypoint,
37.0516622,-119.2428182,3763.3661788267,39.37008,0,0.42692586668,9400,2018-06-18 17:30:44,17,0,23.275,3763.3661788267,39.37008,0.447388,0.8990485852,0,0,-0.671082,305.8, -0.1, -0.9,0,0,1024,1024,1024,1024,305.9,-89.9,100,3.832,3.825,3.833,3.827,3.812,3.833,18.742,64.4,14,Waypoint,
37.0516622,-119.2428182,3764.3504308267,40.354332,0,0.42692586668,9500,2018-06-18 17:30:44,17,0,23.275,3764.3504308267,40.354332,0.447388,0.8990485852,0,0,-0.671082,305.8, -0.1, -1,0,0,1024,1024,1024,1024,305.9,-89.9,100,3.832,3.825,3.833,3.827,3.812,3.833,18.742,64.4,14,Waypoint,
37.0516623,-119.2428182,3765.3346828267,41.338584,0,0.39282481572,9600,2018-06-18 17:30:44,17,0,23.275,3765.3346828267,41.338584,0.447388,0.8990485852,0,0,-0.671082,305.9, 0, -1.2,0,0,1024,1024,1024,1024,305.9,-89.9,100,3.832,3.825,3.833,3.827,3.812,3.833,18.742,64.4,14,Waypoint,
37.0516623,-119.2428182,3767.3031868267,43.307088,0,0.39282481572,9700,2018-06-18 17:30:44,17,0,23.275,3767.3031868267,43.307088,0.447388,0.8990485852,0,0,-0.671082,306, 0.3, -1.1,0,0,1024,1024,1024,1024,305.9,-89.9,100,3.832,3.825,3.833,3.827,3.812,3.833,18.742,64.4,14,Waypoint,
37.0516623,-119.2428183,3768.2874388267,44.29134,0,0.3829888574,9800,2018-06-18 17:30:44,16,0,23.275,3768.2874388267,44.29134,0.447388,0.8990485852,0,0,-0.671082,306, 0.3, -0.9,0,0,1024,1024,1024,1024,305.9,-89.9,100,3.832,3.825,3.833,3.827,3.812,3.833,18.742,64.4,14,Waypoint,
37.0516623,-119.2428183,3769.2716908267,45.275592,0,0.3829888574,9900,2018-06-18 17:30:44,16,0,23.275,3769.2716908267,45.275592,0.447388,0.8990485852,0,0,-0.671082,306.1, 0.3, -0.7,0,0,1024,1024,1024,1024,305.9,-89.9,100,3.832,3.825,3.833,3.827,3.812,3.833,18.742,64.4,14,Waypoint,
37.0516623,-119.2428183,3770.2559428267,46.259844,0,0.3829888574,10000,2018-06-18 17:30:45,17,0,23.275,3770.2559428267,46.259844,0.447388,0.8990485852,0,0,-0.671082,306.1, 0.1, -0.7,0,0,1024,1024,1024,1024,305.9,-89.9,100,3.87,3.875,3.9,3.876,3.862,3.902,18.742,64.4,14,Waypoint,
37.0516623,-119.2428183,3771.2401948267,47.244096,0,0.3829888574,10100,2018-06-18 17:30:45,17,0,23.275,3771.2401948267,47.244096,0.447388,0.8990485852,0,0,-0.671082,306, 0.1, -0.8,0,0,1024,1024,1024,1024,305.9,-89.9,100,3.87,3.875,3.9,3.876,3.862,3.902,18.742,64.4,14,Waypoint,
37.0516622,-119.2428183,3772.2244468267,48.228348,0,0.41789371416,10200,2018-06-18 17:30:45,17,0,23.275,3772.2244468267,48.228348,0.447388,0.8990485852,0,0,-0.671082,306, 0.1, -1,0,0,1024,1024,1024,1024,305.9,-89.9,100,3.87,3.875,3.9,3.876,3.862,3.902,18.742,64.4,14,Waypoint,
37.0516622,-119.2428183,3773.2086988267,49.2126,0,0.41789371416,10300,2018-06-18 17:30:45,17,0,23.275,3773.2086988267,49.2126,0.447388,0.8990485852,0,0,-0.671082,306, 0, -1,0,0,1024,1024,1024,1024,305.9,-89.9,100,3.87,3.875,3.9,3.876,3.862,3.902,18.742,64.4,14,Waypoint,
37.0516622,-119.2428183,3774.1929508267,50.196852,0,0.41789371416,10400,2018-06-18 17:30:45,17,0,23.275,3774.1929508267,50.196852,0.447388,0.8990485852,0,0,-0.671082,305.9, 0, -1,0,0,1024,1024,1024,1024,305.9,-89.9,100,3.87,3.875,3.9,3.876,3.862,3.902,18.742,64.4,14,Waypoint,
37.0516621,-119.2428183,3775.1772028267,51.181104,0,0.45304791476,10500,2018-06-18 17:30:45,17,0,23.275,3775.1772028267,51.181104,0.447388,0.8990485852,0,0,-0.671082,305.9, 0, -0.8,0,0,1024,1024,1024,1024,305.9,-89.9,100,3.87,3.875,3.9,3.876,3.862,3.902,18.742,64.4,14,Waypoint,
37.051662,-119.2428183,3776.1614548267,52.165356,0,0.48839568492,10600,2018-06-18 17:30:45,17,0,23.275,3776.1614548267,52.165356,0.447388,0.8990485852,0,0,-0.671082,305.9, 0, -0.4,0,0,1024,1024,1024,1024,305.9,-89.9,100,3.87,3.875,3.9,3.876,3.862,3.902,18.742,64.4,14,Waypoint,
37.051662,-119.2428183,3777.1457068267,53.149608,0,0.48839568492,10700,2018-06-18 17:30:45,17,0,23.275,3777.1457068267,53.149608,0.447388,0.8990485852,0,0,-0.671082,305.9, -0.1, -0.3,0,0,1024,1024,1024,1024,305.9,-90,100,3.87,3.875,3.9,3.876,3.862,3.902,18.742,64.4,14,Waypoint,
37.0516619,-119.2428183,3778.1299588267,54.13386,0,0.5239009354,10800,2018-06-18 17:30:45,17,0,23.275,3778.1299588267,54.13386,0.447388,0.8990485852,0,0,-0.671082,305.9, -0.1, -0.4,0,0,1024,1024,1024,1024,305.9,-90,100,3.87,3.875,3.9,3.876,3.862,3.902,18.742,64.4,14,Waypoint,
37.0516618,-119.2428183,3779.1142108267,55.118112,0,0.5595308578,10900,2018-06-18 17:30:45,17,0,23.275,3779.1142108267,55.118112,0.447388,0.8990485852,0,0,-0.671082,306, -0.4, -0.4,0,0,1024,1024,1024,1024,305.9,-90,100,3.87,3.875,3.9,3.876,3.862,3.902,18.742,64.4,14,Waypoint,
37.0516617,-119.2428183,3780.0984628267,56.102364,0,0.59526576708,11000,2018-06-18 17:30:46,17,0,23.282,3780.0984628267,56.102364,0.447388,0.8990485852,0,0,-0.671082,306.1, -0.8, -0.3,0,0,1024,1024,1024,1024,305.9,-90,98,3.883,3.886,3.884,3.869,3.861,3.875,18.167,64.4,14,Waypoint,
37.0516616,-119.2428183,3781.0827148267,57.086616,0,0.6310859782,11100,2018-06-18 17:30:46,17,0,23.282,3781.0827148267,57.086616,0.447388,0.8990485852,0,0,-0.671082,306.2, -1.1, -0.3,0,0,1024,1024,1024,1024,305.9,-90,98,3.883,3.886,3.884,3.869,3.861,3.875,18.167,64.4,14,Waypoint,
37.0516615,-119.2428182,3782.0669668267,58.070868,0,0.67267390604,11300,2018-06-18 17:30:46,17,0,23.282,3782.0669668267,58.070868,0.447388,0.8990485852,0,0,-0.671082,306.2, -1.2, -0.1,0,0,1024,1024,1024,1024,305.9,-89.9,98,3.883,3.886,3.884,3.869,3.861,3.875,18.167,64.4,14,Waypoint,
37.0516615,-119.2428182,3783.0512188267,59.05512,0,0.67267390604,11400,2018-06-18 17:30:46,17,0,23.282,3783.0512188267,59.05512,0.447388,0.8990485852,0,0,-0.671082,306.3, -1.2, -0.1,0,0,1024,1024,1024,1024,305.9,-89.9,98,3.883,3.886,3.884,3.869,3.861,3.875,18.167,64.4,14,Waypoint,
37.0516615,-119.2428181,3784.0354708267,60.039372,0,0.67957023172,11500,2018-06-18 17:30:46,17,0,23.282,3784.0354708267,60.039372,0.447388,0.8990485852,0,0,-0.671082,306.3, -0.9, -0.5,0,0,1024,1024,1024,1024,305.9,-89.9,98,3.883,3.886,3.884,3.869,3.861,3.875,18.167,64.4,14,Waypoint,
37.0516615,-119.2428181,3785.0197228267,61.023624,0,0.67957023172,11600,2018-06-18 17:30:46,17,0,23.282,3785.0197228267,61.023624,0.447388,0.8990485852,0,0,-0.671082,306.1, -0.7, -0.8,0,0,1024,1024,1024,1024,305.9,-89.9,98,3.883,3.886,3.884,3.869,3.861,3.875,18.167,64.4,14,Waypoint,
37.0516614,-119.2428182,3786.0039748267,62.007876,0,0.70833663684,11700,2018-06-18 17:30:46,17,0,23.282,3786.0039748267,62.007876,0.447388,0.8990485852,0,0,-0.671082,306, -0.6, -1,0,0,1024,1024,1024,1024,305.9,-89.9,98,3.883,3.886,3.884,3.869,3.861,3.875,18.167,64.4,14,Waypoint,
37.0516614,-119.2428181,3786.9882268267,62.992128,0,0.71489175516,11800,2018-06-18 17:30:46,18,0,23.282,3786.9882268267,62.992128,0.447388,0.8990485852,0,0,-0.671082,305.9, -0.6, -1,0,0,1024,1024,1024,1024,305.9,-89.9,98,3.883,3.886,3.884,3.869,3.861,3.875,18.167,64.4,14,Waypoint,
37.0516613,-119.2428181,3788.9567308267,64.960632,0,0.75032154632,11900,2018-06-18 17:30:46,18,0,23.282,3788.9567308267,64.960632,0.447388,0.8990485852,0,0,-0.671082,305.7, -0.5, -0.8,0,0,1024,1024,1024,1024,305.9,-89.9,98,3.883,3.886,3.884,3.869,3.861,3.875,18.167,64.4,14,Waypoint,
37.0516612,-119.2428181,3790.9252348267,66.929136,0,0.78584976268,12100,2018-06-18 17:30:47,18,0,23.282,3790.9252348267,66.929136,0.447388,0.8990485852,0,0,-0.671082,305.7, -0.7, -0.6,0,0,1024,1024,1024,1024,305.9,-89.9,98,3.883,3.886,3.884,3.869,3.861,3.875,18.167,64.4,14,Waypoint,
37.0516612,-119.2428181,3791.5814028267,67.585304,0,0.78584976268,12200,2018-06-18 17:30:47,18,0,23.282,3791.5814028267,67.585304,0.447388,0.8990485852,0,0,-0.671082,305.7, -0.8, -0.6,0,0,1024,1024,1024,1024,305.9,-90,98,3.883,3.886,3.884,3.869,3.861,3.875,18.167,64.4,14,Waypoint,
37.0516612,-119.2428181,3792.5656548267,68.569556,0,0.78584976268,12300,2018-06-18 17:30:47,18,0,23.282,3792.5656548267,68.569556,0.447388,0.8990485852,0,0,-0.671082,305.8, -0.7, -0.6,0,0,1024,1024,1024,1024,305.9,-89.9,98,3.883,3.886,3.884,3.869,3.861,3.875,18.167,64.4,14,Waypoint,
37.0516612,-119.2428181,3793.5499068267,69.553808,0,0.78584976268,12400,2018-06-18 17:30:47,18,0,23.282,3793.5499068267,69.553808,0.447388,0.8990485852,0,0,-0.671082,305.8, -0.4, -0.3,0,0,1024,1024,1024,1024,305.9,-89.9,98,3.883,3.886,3.884,3.869,3.861,3.875,18.167,64.4,14,Waypoint,
37.0516612,-119.2428181,3794.5341588267,70.53806,0,0.78584976268,12500,2018-06-18 17:30:47,18,0,23.282,3794.5341588267,70.53806,0.447388,0.8990485852,0,0,-0.671082,305.8, -0.3, -1.1,0,0,1024,1024,1024,1024,305.9,-89.9,98,3.883,3.886,3.884,3.869,3.861,3.875,18.167,64.4,14,Waypoint,
37.0516613,-119.242818,3795.8464948267,71.850396,0,0.75763125784,12600,2018-06-18 17:30:47,18,0,23.282,3795.8464948267,71.850396,0.447388,0.8990485852,0,0,-0.671082,305.8, -0.5, -1.9,0,0,1024,1024,1024,1024,305.9,-89.9,98,3.883,3.886,3.884,3.869,3.861,3.875,18.167,64.4,14,Waypoint,
37.0516613,-119.242818,3796.8307468267,72.834648,0,0.75763125784,12700,2018-06-18 17:30:47,18,0,23.282,3796.8307468267,72.834648,0.447388,0.8990485852,0,0,-0.671082,305.9, -0.5, -2.5,0,0,1024,1024,1024,1024,305.9,-89.9,98,3.883,3.886,3.884,3.869,3.861,3.875,18.167,64.4,14,Waypoint,
37.0516614,-119.2428179,3797.8149988267,73.8189,0,0.73130579768,12800,2018-06-18 17:30:47,18,0,23.282,3797.8149988267,73.8189,0.447388,0.8990485852,0,0,-0.671082,305.9, -0.3, -2.6,0,0,1024,1024,1024,1024,305.9,-89.9,98,3.883,3.886,3.884,3.869,3.861,3.875,18.167,64.4,14,Waypoint,
37.0516614,-119.2428179,3798.7992508267,74.803152,0,0.73130579768,12900,2018-06-18 17:30:47,18,0,23.282,3798.7992508267,74.803152,0.447388,0.8990485852,0,0,-0.671082,306, -0.1, -2.3,0,0,1024,1024,1024,1024,305.9,-89.9,98,3.883,3.886,3.884,3.869,3.861,3.875,18.167,64.4,14,Waypoint,
37.0516614,-119.2428179,3799.7835028267,75.787404,0,0.73130579768,13000,2018-06-18 17:30:48,18,0,23.096,3799.7835028267,75.787404,0.447388,0.8990485852,0,0,-0.671082,305.9, 0, -2.3,0,0,1024,1024,1024,1024,305.9,-89.9,98,3.846,3.854,3.864,3.842,3.837,3.851,19.573,66.2,14,Waypoint,
37.0516614,-119.2428179,3800.7677548267,76.771656,0,0.73130579768,13100,2018-06-18 17:30:48,18,0,23.096,3800.7677548267,76.771656,0.447388,0.8990485852,0,0,-0.671082,305.8, -0.1, -2.1,0,0,1024,1024,1024,1024,305.9,-89.9,98,3.846,3.854,3.864,3.842,3.837,3.851,19.573,66.2,14,Waypoint,
37.0516614,-119.2428179,3801.4239228267,77.427824,0,0.73130579768,13200,2018-06-18 17:30:48,18,0,23.096,3801.4239228267,77.427824,0.447388,0.8990485852,0,0,-0.671082,305.8, -0.3, -2,0,0,1024,1024,1024,1024,305.9,-90,98,3.846,3.854,3.864,3.842,3.837,3.851,19.573,66.2,14,Waypoint,
37.0516615,-119.2428179,3803.3924268267,79.396328,0,0.69682088844,13400,2018-06-18 17:30:48,18,0,23.096,3803.3924268267,79.396328,0.447388,0.8990485852,0,0,-0.671082,305.6, 0, -1.7,0,0,1024,1024,1024,1024,305.9,-89.9,98,3.846,3.854,3.864,3.842,3.837,3.851,19.573,66.2,14,Waypoint,
37.0516615,-119.242818,3804.3766788267,80.38058,0,0.6876312556,13500,2018-06-18 17:30:48,18,0,23.096,3804.3766788267,80.38058,0.447388,0.8990485852,0,0,-0.671082,305.5, 0.1, -1.7,0,0,1024,1024,1024,1024,305.9,-89.9,98,3.846,3.854,3.864,3.842,3.837,3.851,19.573,66.2,14,Waypoint,
37.0516615,-119.242818,3805.3609308267,81.364832,0,0.6876312556,13600,2018-06-18 17:30:48,18,0,23.096,3805.3609308267,81.364832,0.447388,0.8990485852,0,0,-0.671082,305.4, 0.5, -1.6,0,0,1024,1024,1024,1024,305.9,-89.9,98,3.846,3.854,3.864,3.842,3.837,3.851,19.573,66.2,14,Waypoint,
37.0516614,-119.2428181,3806.3451828267,82.349084,0,0.71489175516,13700,2018-06-18 17:30:48,18,0,23.096,3806.3451828267,82.349084,0.447388,0.8990485852,0,0,-0.671082,305.5, 0.6, -1.5,0,0,1024,1024,1024,1024,305.9,-89.9,98,3.846,3.854,3.864,3.842,3.837,3.851,19.573,66.2,14,Waypoint,
37.0516614,-119.2428182,3807.0013508267,83.005252,0,0.70833663684,13900,2018-06-18 17:30:48,18,0,23.096,3807.0013508267,83.005252,0.447388,0.8990485852,0,0,-0.671082,305.5, 0.6, -1.2,0,0,1024,1024,1024,1024,305.9,-89.9,98,3.846,3.854,3.864,3.842,3.837,3.851,19.573,66.2,14,Waypoint,
37.0516614,-119.2428183,3807.9856028267,83.989504,0,0.70292981252,14000,2018-06-18 17:30:49,18,0,23.096,3807.9856028267,83.989504,0.447388,0.8990485852,0,0,-0.671082,305.6, 0.7, -0.9,0,0,1024,1024,1024,1024,305.9,-89.9,98,3.846,3.854,3.864,3.842,3.837,3.851,19.573,66.2,14,Waypoint,
37.0516614,-119.2428184,3808.9698548267,84.973756,0,0.69869752892,14100,2018-06-18 17:30:49,18,0,23.096,3808.9698548267,84.973756,0.447388,0.8990485852,0,0,-0.671082,305.7, 0.7, -1.2,0,0,1024,1024,1024,1024,305.9,-89.9,98,3.846,3.854,3.864,3.842,3.837,3.851,19.573,66.2,14,Waypoint,
37.0516614,-119.2428184,3810.2821908267,86.286092,0,0.69869752892,14200,2018-06-18 17:30:49,18,0,23.096,3810.2821908267,86.286092,0.447388,0.8990485852,0,0,-0.671082,305.8, 0.5, -1.3,0,0,1024,1024,1024,1024,305.9,-89.9,98,3.846,3.854,3.864,3.842,3.837,3.851,19.573,66.2,14,Waypoint,
37.0516614,-119.2428184,3811.2664428267,87.270344,0,0.69869752892,14300,2018-06-18 17:30:49,18,0,23.096,3811.2664428267,87.270344,0.447388,0.8990485852,0,0,-0.671082,306, 0.2, -1.3,0,0,1024,1024,1024,1024,305.9,-89.9,98,3.846,3.854,3.864,3.842,3.837,3.851,19.573,66.2,14,Waypoint,
37.0516615,-119.2428185,3812.2506948267,88.254596,0,0.65930448304,14400,2018-06-18 17:30:49,18,0,23.096,3812.2506948267,88.254596,0.447388,0.8990485852,0,0,-0.671082,306.1, 0.2, -1.6,0,0,1024,1024,1024,1024,305.9,-89.9,98,3.846,3.854,3.864,3.842,3.837,3.851,19.573,66.2,14,Waypoint,
37.0516615,-119.2428185,3814.2191988267,90.2231,0,0.65930448304,14500,2018-06-18 17:30:49,18,0,23.096,3814.2191988267,90.2231,0.447388,0.8990485852,0,0,-0.671082,306, 0.3, -2,0,0,1024,1024,1024,1024,305.9,-89.9,98,3.846,3.854,3.864,3.842,3.837,3.851,19.573,66.2,14,Waypoint,
37.0516615,-119.2428185,3816.1877028267,92.191604,0,0.65930448304,14700,2018-06-18 17:30:49,18,0,23.096,3816.1877028267,92.191604,0.447388,0.8990485852,0,0,-0.671082,305.8, 0.9, -1.7,0,0,1024,1024,1024,1024,305.9,-89.9,98,3.846,3.854,3.864,3.842,3.837,3.851,19.573,66.2,14,Waypoint,
37.0516615,-119.2428186,3817.1719548267,93.175856,0,0.65737534912,14800,2018-06-18 17:30:49,18,0,23.096,3817.1719548267,93.175856,0.447388,0.8990485852,0,0,-0.671082,305.7, 0.9, -1.4,0,0,1024,1024,1024,1024,305.9,-89.9,98,3.846,3.854,3.864,3.842,3.837,3.851,19.573,66.2,14,Waypoint,
37.0516615,-119.2428185,3817.8281228267,93.832024,0,0.65930448304,14900,2018-06-18 17:30:49,18,0,23.096,3817.8281228267,93.832024,0.447388,0.8990485852,0,0,-0.671082,305.7, 0.6, -1.2,0,0,1024,1024,1024,1024,305.9,-89.9,98,3.846,3.854,3.864,3.842,3.837,3.851,19.573,66.2,14,Waypoint,
37.0516615,-119.2428185,3818.8123748267,94.816276,0,0.65930448304,15000,2018-06-18 17:30:50,18,0,23.043,3818.8123748267,94.816276,0.447388,0.8990485852,0,0,-0.671082,305.8, 0.3, -1.3,0,0,1024,1024,1024,1024,305.9,-89.9,98,3.835,3.839,3.854,3.84,3.828,3.834,19.586,66.2,14,Waypoint,
37.0516615,-119.2428185,3819.7966268267,95.800528,0,0.65930448304,15100,2018-06-18 17:30:50,18,0,23.043,3819.7966268267,95.800528,0.447388,0.8990485852,0,0,-0.671082,305.9, 0, -1.3,0,0,1024,1024,1024,1024,305.9,-90,98,3.835,3.839,3.854,3.84,3.828,3.834,19.586,66.2,14,Waypoint,
37.0516615,-119.2428185,3820.7808788267,96.78478,0,0.65930448304,15200,2018-06-18 17:30:50,18,0,23.043,3820.7808788267,96.78478,0.447388,0.8990485852,0,0,-0.671082,306.1, 0, -1.3,0,0,1024,1024,1024,1024,305.9,-89.9,98,3.835,3.839,3.854,3.84,3.828,3.834,19.586,66.2,14,Waypoint,
37.0516614,-119.2428184,3821.7651308267,97.769032,0,0.69869752892,15300,2018-06-18 17:30:50,18,0,23.043,3821.7651308267,97.769032,0.447388,0.8990485852,0,0,-0.671082,306.2, 0, -1.2,0,0,1024,1024,1024,1024,305.9,-89.9,98,3.835,3.839,3.854,3.84,3.828,3.834,19.586,66.2,14,Waypoint,
37.0516614,-119.2428184,3822.7493828267,98.753284,0,0.69869752892,15400,2018-06-18 17:30:50,18,0,23.043,3822.7493828267,98.753284,0.447388,0.8990485852,0,0,-0.671082,306.2, 0, -1.1,0,0,1024,1024,1024,1024,305.9,-89.9,98,3.835,3.839,3.854,3.84,3.828,3.834,19.586,66.2,14,Waypoint,
37.0516614,-119.2428184,3823.7336348267,99.737536,0,0.69869752892,15500,2018-06-18 17:30:50,18,0,23.043,3823.7336348267,99.737536,0.447388,0.8990485852,0,0,-0.671082,306.2, 0, -1.3,0,0,1024,1024,1024,1024,305.9,-89.9,98,3.835,3.839,3.854,3.84,3.828,3.834,19.586,66.2,14,Waypoint,
37.0516614,-119.2428184,3824.7178868267,100.721788,0,0.69869752892,15600,2018-06-18 17:30:50,18,0,23.043,3824.7178868267,100.721788,0.447388,0.8990485852,0,0,-0.671082,306.2, 0, -1.6,0,0,1024,1024,1024,1024,305.9,-89.9,98,3.835,3.839,3.854,3.84,3.828,3.834,19.586,66.2,14,Waypoint,
37.0516614,-119.2428183,3825.7021388267,101.70604,0,0.70292981252,15700,2018-06-18 17:30:50,18,0,23.043,3825.7021388267,101.70604,0.447388,0.8990485852,0,0,-0.671082,306.2, 0, -1.7,0,0,1024,1024,1024,1024,305.9,-90,98,3.835,3.839,3.854,3.84,3.828,3.834,19.586,66.2,14,Waypoint,
37.0516614,-119.2428183,3826.6863908267,102.690292,0,0.70292981252,15800,2018-06-18 17:30:50,18,0,23.043,3826.6863908267,102.690292,0.447388,0.8990485852,0,0,-0.671082,306.1, -0.1, -1.7,0,0,1024,1024,1024,1024,305.9,-89.9,98,3.835,3.839,3.854,3.84,3.828,3.834,19.586,66.2,14,Waypoint,
37.0516614,-119.2428183,3827.6706428267,103.674544,0,0.70292981252,16000,2018-06-18 17:30:51,18,0,22.927,3827.6706428267,103.674544,0.447388,0.8990485852,0,0,-0.671082,306, -0.2, -1.6,0,0,1024,1024,1024,1024,305.9,-90,98,3.805,3.817,3.827,3.822,3.806,3.822,20.656,66.2,14,Waypoint,
37.0516613,-119.2428183,3828.6548948267,104.658796,0,0.73893703152,16100,2018-06-18 17:30:51,18,0,22.927,3828.6548948267,104.658796,0.447388,0.8990485852,0,0,-0.671082,305.8, -0.2, -1.5,0,0,1024,1024,1024,1024,305.9,-89.9,98,3.805,3.817,3.827,3.822,3.806,3.822,20.656,66.2,14,Waypoint,
37.0516613,-119.2428183,3829.6391468267,105.643048,0,0.73893703152,16200,2018-06-18 17:30:51,18,0,22.927,3829.6391468267,105.643048,0.447388,0.8990485852,0,0,-0.671082,305.8, -0.1, -1.5,0,0,1024,1024,1024,1024,305.9,-89.9,98,3.805,3.817,3.827,3.822,3.806,3.822,20.656,66.2,14,Waypoint,
37.0516613,-119.2428183,3830.6233988267,106.6273,0,0.73893703152,16300,2018-06-18 17:30:51,18,0,22.927,3830.6233988267,106.6273,0.447388,0.8990485852,0,0,-0.671082,305.9, 0, -1.5,0,0,1024,1024,1024,1024,305.9,-89.9,98,3.805,3.817,3.827,3.822,3.806,3.822,20.656,66.2,14,Waypoint,
37.0516613,-119.2428182,3831.9357348267,107.939636,0,0.74408138864,16400,2018-06-18 17:30:51,18,0,22.927,3831.9357348267,107.939636,0.447388,0.8990485852,0,0,-0.671082,305.9, 0, -1.6,0,0,1024,1024,1024,1024,305.9,-89.9,98,3.805,3.817,3.827,3.822,3.806,3.822,20.656,66.2,14,Waypoint,
37.0516613,-119.2428182,3832.9199868267,108.923888,0,0.74408138864,16500,2018-06-18 17:30:51,18,0,22.927,3832.9199868267,108.923888,0.447388,0.8990485852,0,0,-0.671082,305.8, 0, -1.6,0,0,1024,1024,1024,1024,305.9,-90,98,3.805,3.817,3.827,3.822,3.806,3.822,20.656,66.2,14,Waypoint,
37.0516614,-119.2428181,3834.8884908267,110.892392,0,0.71489175516,16600,2018-06-18 17:30:51,18,0,22.927,3834.8884908267,110.892392,0.447388,0.8990485852,0,0,-0.671082,305.8, -0.1, -1.9,0,0,1024,1024,1024,1024,305.9,-89.9,98,3.805,3.817,3.827,3.822,3.806,3.822,20.656,66.2,14,Waypoint,
37.0516614,-119.2428181,3835.8727428267,111.876644,0,0.71489175516,16700,2018-06-18 17:30:51,18,0,22.927,3835.8727428267,111.876644,0.447388,0.8990485852,0,0,-0.671082,305.9, -0.1, -2.3,0,0,1024,1024,1024,1024,305.9,-89.9,98,3.805,3.817,3.827,3.822,3.806,3.822,20.656,66.2,14,Waypoint,
37.0516615,-119.242818,3836.8569948267,112.860896,0,0.6876312556,16800,2018-06-18 17:30:51,18,0,22.927,3836.8569948267,112.860896,0.447388,0.8990485852,0,0,-0.671082,306.1, -0.1, -2.4,0,0,1024,1024,1024,1024,305.9,-90,98,3.805,3.817,3.827,3.822,3.806,3.822,20.656,66.2,14,Waypoint,
37.0516615,-119.242818,3837.8412468267,113.845148,0,0.6876312556,16900,2018-06-18 17:30:51,18,0,22.927,3837.8412468267,113.845148,0.447388,0.8990485852,0,0,-0.671082,306.2, -0.1, -2.3,0,0,1024,1024,1024,1024,305.9,-90,98,3.805,3.817,3.827,3.822,3.806,3.822,20.656,66.2,14,Waypoint,
37.0516616,-119.242818,3838.8254988267,114.8294,0,0.65287731748,17000,2018-06-18 17:30:52,18,0,22.8,3838.8254988267,114.8294,0.447388,0.8990485852,0,0,-0.671082,306.2, 0, -2.2,0,0,1024,1024,1024,1024,305.9,-89.9,98,3.794,3.809,3.813,3.792,3.789,3.804,21.402,66.2,14,Waypoint,
37.0516616,-119.242818,3839.8097508267,115.813652,0,0.65287731748,17100,2018-06-18 17:30:52,18,0,22.8,3839.8097508267,115.813652,0.447388,0.8990485852,0,0,-0.671082,306.1, 0, -2.3,0,0,1024,1024,1024,1024,305.9,-89.9,98,3.794,3.809,3.813,3.792,3.789,3.804,21.402,66.2,14,Waypoint,
37.0516616,-119.242818,3840.7940028267,116.797904,0,0.65287731748,17200,2018-06-18 17:30:52,18,0,22.8,3840.7940028267,116.797904,0.447388,0.8990485852,0,0,-0.671082,305.9, 0.1, -2.2,0,0,1024,1024,1024,1024,305.9,-89.9,98,3.794,3.809,3.813,3.792,3.789,3.804,21.402,66.2,14,Waypoint,
37.0516617,-119.2428181,3841.7782548267,117.782156,0,0.60934385152,17300,2018-06-18 17:30:52,18,0,22.8,3841.7782548267,117.782156,0.447388,0.8990485852,0,0,-0.671082,305.8, 0.4, -2.1,0,0,1024,1024,1024,1024,305.9,-89.9,98,3.794,3.809,3.813,3.792,3.789,3.804,21.402,66.2,14,Waypoint,
37.0516617,-119.2428181,3842.4344228267,118.438324,0,0.60934385152,17400,2018-06-18 17:30:52,18,0,22.8,3842.4344228267,118.438324,0.447388,0.8990485852,0,0,-0.671082,305.6, 0.8, -2.1,0,0,1024,1024,1024,1024,305.9,-89.9,98,3.794,3.809,3.813,3.792,3.789,3.804,21.402,66.2,14,Waypoint,
37.0516618,-119.2428182,3843.4186748267,119.422576,0,0.56630907324,17500,2018-06-18 17:30:52,18,0,22.8,3843.4186748267,119.422576,0.447388,0.8990485852,0,0,-0.671082,305.5, 1, -2,0,0,1024,1024,1024,1024,305.9,-89.9,98,3.794,3.809,3.813,3.792,3.789,3.804,21.402,66.2,14,Waypoint,
37.0516618,-119.2428183,3844.4029268267,120.406828,0,0.5595308578,17600,2018-06-18 17:30:52,18,0,22.8,3844.4029268267,120.406828,0.447388,0.8990485852,0,0,-0.671082,305.4, 1, -1.8,0,0,1024,1024,1024,1024,305.9,-89.9,98,3.794,3.809,3.813,3.792,3.789,3.804,21.402,66.2,14,Waypoint,
37.0516618,-119.2428184,3845.3871788267,121.39108,0,0.55420277364,17700,2018-06-18 17:30:52,18,0,22.8,3845.3871788267,121.39108,0.447388,0.8990485852,0,0,-0.671082,305.4, 0.9, -1.9,0,0,1024,1024,1024,1024,305.9,-89.9,98,3.794,3.809,3.813,3.792,3.789,3.804,21.402,66.2,14,Waypoint,
37.0516618,-119.2428185,3846.3714308267,122.375332,0,0.55036419084,17900,2018-06-18 17:30:52,18,0,22.8,3846.3714308267,122.375332,0.447388,0.8990485852,0,0,-0.671082,305.5, 0.8, -2.1,0,0,1024,1024,1024,1024,305.9,-89.9,98,3.794,3.809,3.813,3.792,3.789,3.804,21.402,66.2,14,Waypoint,
37.0516618,-119.2428185,3847.3556828267,123.359584,0,0.55036419084,18000,2018-06-18 17:30:53,18,0,22.891,3847.3556828267,123.359584,0.447388,0.8990485852,0,0,-0.671082,305.7, 0.8, -2,0,0,1024,1024,1024,1024,305.9,-89.9,98,3.812,3.809,3.829,3.815,3.796,3.822,19.977,66.2,14,Waypoint,
37.0516618,-119.2428186,3848.3399348267,124.343836,0,0.5480479178,18100,2018-06-18 17:30:53,18,0,22.891,3848.3399348267,124.343836,0.447388,0.8990485852,0,0,-0.671082,305.9, 0.8, -1.7,0,0,1024,1024,1024,1024,305.9,-89.9,98,3.812,3.809,3.829,3.815,3.796,3.822,19.977,66.2,14,Waypoint,
37.0516618,-119.2428187,3848.9961028267,125.000004,0,0.54727363956,18200,2018-06-18 17:30:53,18,0,22.891,3848.9961028267,125.000004,0.447388,0.8990485852,0,0,-0.671082,306.1, 1, -1.4,0,0,1024,1024,1024,1024,305.9,-89.9,98,3.812,3.809,3.829,3.815,3.796,3.822,19.977,66.2,14,Waypoint,
37.0516619,-119.2428188,3849.9803548267,125.984256,0,0.51161747044,18300,2018-06-18 17:30:53,18,0,22.891,3849.9803548267,125.984256,0.447388,0.8990485852,0,0,-0.671082,306.3, 1, -1.3,0,0,1024,1024,1024,1024,305.9,-89.9,98,3.812,3.809,3.829,3.815,3.796,3.822,19.977,66.2,14,Waypoint,
37.0516618,-119.2428188,3851.2926908267,127.296592,0,0.5480479178,18400,2018-06-18 17:30:53,18,0,22.891,3851.2926908267,127.296592,0.447388,0.8990485852,0,0,-0.671082,306.6, 1.2, -1.1,0,0,1024,1024,1024,1024,305.9,-89.9,98,3.812,3.809,3.829,3.815,3.796,3.822,19.977,66.2,14,Waypoint,
37.0516618,-119.242819,3853.2611948267,129.265096,0,0.55420277364,18600,2018-06-18 17:30:53,18,0,22.891,3853.2611948267,129.265096,0.447388,0.8990485852,0,0,-0.671082,306.8, 0.9, -1.4,0,0,1024,1024,1024,1024,305.9,-89.9,98,3.812,3.809,3.829,3.815,3.796,3.822,19.977,66.2,14,Waypoint,
37.0516617,-119.2428191,3855.2296988267,131.2336,0,0.59526576708,18700,2018-06-18 17:30:53,18,0,22.891,3855.2296988267,131.2336,0.447388,0.8990485852,0,0,-0.671082,306.3, 0.7, -1.6,0,0,1024,1024,1024,1024,305.9,-89.9,98,3.812,3.809,3.829,3.815,3.796,3.822,19.977,66.2,14,Waypoint,
37.0516617,-119.2428191,3856.2139508267,132.217852,0,0.59526576708,18800,2018-06-18 17:30:53,18,0,22.891,3856.2139508267,132.217852,0.447388,0.8990485852,0,0,-0.671082,305.9, 0.6, -1.4,0,0,1024,1024,1024,1024,305.9,-89.9,98,3.812,3.809,3.829,3.815,3.796,3.822,19.977,66.2,14,Waypoint,
37.0516617,-119.2428192,3857.1982028267,133.202104,0,0.6016404392,18900,2018-06-18 17:30:53,18,0,22.891,3857.1982028267,133.202104,0.447388,0.8990485852,0,0,-0.671082,305.6, 1, -1.4,0,0,1024,1024,1024,1024,305.9,-89.9,98,3.812,3.809,3.829,3.815,3.796,3.822,19.977,66.2,14,Waypoint,
37.0516617,-119.2428194,3858.1824548267,134.186356,0,0.61832022976,19000,2018-06-18 17:30:54,18,0,22.824,3858.1824548267,134.186356,0.447388,0.8990485852,0,0,-0.671082,305.4, 1.3, -1.2,0,0,1024,1024,1024,1024,305.9,-89.9,98,3.792,3.808,3.815,3.802,3.783,3.814,20.476,66.2,14,Waypoint,
37.0516617,-119.2428195,3859.1667068267,135.170608,0,0.62852036132,19100,2018-06-18 17:30:54,18,0,22.824,3859.1667068267,135.170608,0.447388,0.8990485852,0,0,-0.671082,305.2, 1.7, -0.9,0,0,1024,1024,1024,1024,305.9,-89.9,98,3.792,3.808,3.815,3.802,3.783,3.814,20.476,66.2,14,Waypoint,
37.0516617,-119.2428196,3860.1509588267,136.15486,0,0.63988519108,19200,2018-06-18 17:30:54,18,0,22.824,3860.1509588267,136.15486,0.447388,0.8990485852,0,0,-0.671082,305.1, 2, -0.6,0,0,1024,1024,1024,1024,305.9,-89.9,98,3.792,3.808,3.815,3.802,3.783,3.814,20.476,66.2,14,Waypoint,
37.0516616,-119.2428197,3861.1352108267,137.139112,0,0.68519359148,19300,2018-06-18 17:30:54,18,0,22.824,3861.1352108267,137.139112,0.447388,0.8990485852,0,0,-0.671082,305, 2.1, -0.6,0,0,1024,1024,1024,1024,305.9,-89.9,98,3.792,3.808,3.815,3.802,3.783,3.814,20.476,66.2,14,Waypoint,
37.0516616,-119.2428197,3862.1194628267,138.123364,0,0.68519359148,19400,2018-06-18 17:30:54,18,0,22.824,3862.1194628267,138.123364,0.447388,0.8990485852,0,0,-0.671082,305.1, 2.1, -0.8,0,0,1024,1024,1024,1024,305.9,-89.9,98,3.792,3.808,3.815,3.802,3.783,3.814,20.476,66.2,14,Waypoint,
37.0516617,-119.2428196,3864.4160508267,140.419952,0,0.63988519108,19600,2018-06-18 17:30:54,18,0,22.824,3864.4160508267,140.419952,0.447388,0.8990485852,0,0,-0.671082,305.3, 1.6, -1.5,0,0,1024,1024,1024,1024,305.9,-89.9,98,3.792,3.808,3.815,3.802,3.783,3.814,20.476,66.2,14,Waypoint,
37.0516617,-119.2428195,3866.3845548267,142.388456,0,0.62852036132,19900,2018-06-18 17:30:54,18,0,22.824,3866.3845548267,142.388456,0.447388,0.8990485852,0,0,-0.671082,305.5, 0.9, -2.3,0,0,1024,1024,1024,1024,305.9,-89.9,98,3.792,3.808,3.815,3.802,3.783,3.814,20.476,66.2,14,Waypoint,
37.0516617,-119.2428194,3867.3688068267,143.372708,0,0.61832022976,20000,2018-06-18 17:30:55,18,0,22.824,3867.3688068267,143.372708,0.447388,0.8990485852,0,0,-0.671082,305.6, 0.7, -2.2,0,0,1024,1024,1024,1024,305.9,-90,98,3.792,3.808,3.815,3.802,3.783,3.814,20.476,66.2,14,Waypoint,
37.0516617,-119.2428193,3869.3373108267,145.341212,0,0.60934385152,20200,2018-06-18 17:30:55,18,0,22.824,3869.3373108267,145.341212,0.447388,0.8990485852,0,0,-0.671082,305.7, 0.5, -1.9,0,0,1024,1024,1024,1024,305.9,-90,98,3.792,3.808,3.815,3.802,3.783,3.814,20.476,66.2,14,Waypoint,
37.0516616,-119.2428193,3870.3215628267,146.325464,0,0.64437994188,20300,2018-06-18 17:30:55,18,0,22.824,3870.3215628267,146.325464,0.447388,0.8990485852,0,0,-0.671082,305.8, 0.6, -1.6,0,0,1024,1024,1024,1024,305.9,-89.9,98,3.792,3.808,3.815,3.802,3.783,3.814,20.476,66.2,14,Waypoint,
37.0516616,-119.2428192,3871.3058148267,147.309716,0,0.63710303876,20400,2018-06-18 17:30:55,18,0,22.824,3871.3058148267,147.309716,0.447388,0.8990485852,0,0,-0.671082,306, 0.6, -1.5,0,0,1024,1024,1024,1024,305.9,-90,98,3.792,3.808,3.815,3.802,3.783,3.814,20.476,66.2,14,Waypoint,
37.0516615,-119.2428191,3872.2900668267,148.293968,0,0.6669783678,20500,2018-06-18 17:30:55,18,0,22.824,3872.2900668267,148.293968,0.447388,0.8990485852,0,0,-0.671082,306.2, 0.3, -1.5,0,0,1024,1024,1024,1024,305.9,-90,98,3.792,3.808,3.815,3.802,3.783,3.814,20.476,66.2,14,Waypoint,
37.0516615,-119.242819,3873.2743188267,149.27822,0,0.66251314456,20600,2018-06-18 17:30:55,18,0,22.824,3873.2743188267,149.27822,0.447388,0.8990485852,0,0,-0.671082,306.3, 0, -1.6,0,0,1024,1024,1024,1024,305.9,-90,98,3.792,3.808,3.815,3.802,3.783,3.814,20.476,66.2,14,Waypoint,
37.0516614,-119.2428189,3874.2585708267,150.262472,0,0.69565619024,20700,2018-06-18 17:30:55,18,0,22.824,3874.2585708267,150.262472,0.447388,0.8990485852,0,0,-0.671082,306.4, -0.1, -1.8,0,0,1024,1024,1024,1024,305.9,-90,98,3.792,3.808,3.815,3.802,3.783,3.814,20.476,66.2,14,Waypoint,
37.0516613,-119.2428187,3876.2270748267,152.230976,0,0.72969818608,20800,2018-06-18 17:30:55,18,0,22.824,3876.2270748267,152.230976,0.447388,0.8990485852,0,0,-0.671082,306.4, -0.2, -2,0,0,1024,1024,1024,1024,305.9,-90,98,3.792,3.808,3.815,3.802,3.783,3.814,20.476,66.2,14,Waypoint,
37.0516612,-119.2428185,3878.1955788267,154.19948,0,0.76839241304,21000,2018-06-18 17:30:56,18,0,22.865,3878.1955788267,154.19948,0.447388,0.8990485852,0,0,-0.671082,306.2, -0.2, -1.7,0,0,1024,1024,1024,1024,305.9,-90,97,3.8,3.816,3.832,3.816,3.799,3.824,19.601,66.2,14,Waypoint,
37.0516611,-119.2428184,3880.1640828267,156.167984,0,0.80740816232,21200,2018-06-18 17:30:56,18,0,22.865,3880.1640828267,156.167984,0.447388,0.8990485852,0,0,-0.671082,306, -0.4, -1.4,0,0,1024,1024,1024,1024,305.9,-89.9,97,3.8,3.816,3.832,3.816,3.799,3.824,19.601,66.2,14,Waypoint,
37.0516611,-119.2428184,3881.1483348267,157.152236,0,0.80740816232,21300,2018-06-18 17:30:56,18,0,22.865,3881.1483348267,157.152236,0.447388,0.8990485852,0,0,-0.671082,305.9, -0.4, -1.2,0,0,1024,1024,1024,1024,305.9,-90,97,3.8,3.816,3.832,3.816,3.799,3.824,19.601,66.2,14,Waypoint,
37.051661,-119.2428183,3882.1325868267,158.136488,0,0.84719818984,21400,2018-06-18 17:30:56,18,0,22.865,3882.1325868267,158.136488,0.447388,0.8990485852,0,0,-0.671082,305.8, -0.4, -1.2,0,0,1024,1024,1024,1024,305.9,-90,97,3.8,3.816,3.832,3.816,3.799,3.824,19.601,66.2,14,Waypoint,
37.051661,-119.2428183,3883.1168388267,159.12074,0,0.84719818984,21500,2018-06-18 17:30:56,18,0,22.865,3883.1168388267,159.12074,0.447388,0.8990485852,0,0,-0.671082,305.8, -0.4, -1.4,0,0,1024,1024,1024,1024,305.9,-90,97,3.8,3.816,3.832,3.816,3.799,3.824,19.601,66.2,14,Waypoint,
37.0516609,-119.2428182,3885.0853428267,161.089244,0,0.88766078956,21700,2018-06-18 17:30:56,18,0,22.865,3885.0853428267,161.089244,0.447388,0.8990485852,0,0,-0.671082,305.8, -0.1, -1.6,0,0,1024,1024,1024,1024,305.9,-89.9,97,3.8,3.816,3.832,3.816,3.799,3.824,19.601,66.2,14,Waypoint,
37.0516609,-119.2428182,3886.0695948267,162.073496,0,0.88766078956,21800,2018-06-18 17:30:56,18,0,22.865,3886.0695948267,162.073496,0.447388,0.8990485852,0,0,-0.671082,305.8, 0, -1.5,0,0,1024,1024,1024,1024,305.9,-89.9,97,3.8,3.816,3.832,3.816,3.799,3.824,19.601,66.2,14,Waypoint,
37.0516609,-119.2428182,3887.0538468267,163.057748,0,0.88766078956,21900,2018-06-18 17:30:56,18,0,22.865,3887.0538468267,163.057748,0.447388,0.8990485852,0,0,-0.671082,305.8, 0.1, -1.6,0,0,1024,1024,1024,1024,305.9,-89.9,97,3.8,3.816,3.832,3.816,3.799,3.824,19.601,66.2,14,Waypoint,
37.0516609,-119.2428181,3888.0380988267,164.042,0,0.8928970102,22000,2018-06-18 17:30:57,18,0,22.84,3888.0380988267,164.042,0.447388,0.8990485852,0,0,-0.671082,305.9, 0.1, -1.6,0,0,1024,1024,1024,1024,305.9,-90,97,3.803,3.814,3.819,3.803,3.782,3.806,19.71,66.2,14,Waypoint,
37.0516609,-119.2428181,3889.0223508267,165.026252,0,0.8928970102,22100,2018-06-18 17:30:57,18,0,22.84,3889.0223508267,165.026252,0.447388,0.8990485852,0,0,-0.671082,305.9, 0.1, -1.7,0,0,1024,1024,1024,1024,305.9,-89.9,97,3.803,3.814,3.819,3.803,3.782,3.806,19.71,66.2,14,Waypoint,
37.0516609,-119.2428181,3889.6785188267,165.68242,0,0.8928970102,22200,2018-06-18 17:30:57,18,0,22.84,3889.6785188267,165.68242,0.447388,0.8990485852,0,0,-0.671082,305.9, 0, -1.8,0,0,1024,1024,1024,1024,305.9,-90,97,3.803,3.814,3.819,3.803,3.782,3.806,19.71,66.2,14,Waypoint,
37.0516609,-119.2428181,3890.6627708267,166.666672,0,0.8928970102,22300,2018-06-18 17:30:57,18,0,22.84,3890.6627708267,166.666672,0.447388,0.8990485852,0,0,-0.671082,306, 0, -1.7,0,0,1024,1024,1024,1024,305.9,-89.9,97,3.803,3.814,3.819,3.803,3.782,3.806,19.71,66.2,14,Waypoint,
37.0516608,-119.2428181,3892.6312748267,168.635176,0,0.92870409796,22500,2018-06-18 17:30:57,18,0,22.84,3892.6312748267,168.635176,0.447388,0.92870409796,0,0,-0.671082,306.2, -0.1, -1.1,0,0,1024,1024,1024,1024,305.9,-89.9,97,3.803,3.814,3.819,3.803,3.782,3.806,19.71,66.2,14,Waypoint,
37.0516607,-119.2428181,3893.6155268267,169.619428,0,0.96456367916,22600,2018-06-18 17:30:57,18,0,22.84,3893.6155268267,169.619428,0.447388,0.96456367916,0,0,-0.671082,306.3, -0.4, -1,0,0,1024,1024,1024,1024,305.9,-89.9,97,3.803,3.814,3.819,3.803,3.782,3.806,19.71,66.2,14,Waypoint,
37.0516607,-119.2428181,3894.5997788267,170.60368,0,0.96456367916,22700,2018-06-18 17:30:57,18,0,22.84,3894.5997788267,170.60368,0.447388,0.96456367916,0,0,-0.671082,306.2, -0.6, -0.8,0,0,1024,1024,1024,1024,305.9,-89.9,97,3.803,3.814,3.819,3.803,3.782,3.806,19.71,66.2,14,Waypoint,
37.0516606,-119.2428181,3895.5840308267,171.587932,0,1.00046591128,22900,2018-06-18 17:30:57,18,0,22.84,3895.5840308267,171.587932,0.447388,1.00046591128,0,0,-0.671082,306.1, -0.6, -0.7,0,0,1024,1024,1024,1024,305.9,-89.9,97,3.803,3.814,3.819,3.803,3.782,3.806,19.71,66.2,14,Waypoint,
37.0516606,-119.2428181,3896.5682828267,172.572184,0,1.00046591128,23000,2018-06-18 17:30:58,18,0,22.84,3896.5682828267,172.572184,0.447388,1.00046591128,0,0,-0.671082,305.9, -0.2, -0.9,0,0,1024,1024,1024,1024,305.9,-89.9,97,3.803,3.814,3.819,3.803,3.782,3.806,19.71,66.2,14,Waypoint,
37.0516606,-119.2428181,3897.5525348267,173.556436,0,1.00046591128,23100,2018-06-18 17:30:58,18,0,22.84,3897.5525348267,173.556436,0.447388,1.00046591128,0,0,-0.671082,305.8, 0, -1,0,0,1024,1024,1024,1024,305.9,-89.9,97,3.803,3.814,3.819,3.803,3.782,3.806,19.71,66.2,14,Waypoint,
37.0516606,-119.2428182,3898.5367868267,174.540688,0,0.99579399512,23200,2018-06-18 17:30:58,18,0,22.84,3898.5367868267,174.540688,0.447388,1.00046591128,0,0,-0.671082,305.8, -0.1, -1.4,0,0,1024,1024,1024,1024,305.9,-89.9,97,3.803,3.814,3.819,3.803,3.782,3.806,19.71,66.2,14,Waypoint,
37.0516606,-119.2428182,3899.5210388267,175.52494,0,0.99579399512,23300,2018-06-18 17:30:58,18,0,22.84,3899.5210388267,175.52494,0.447388,1.00046591128,0,0,-0.671082,305.7, -0.2, -1.4,0,0,1024,1024,1024,1024,305.9,-89.9,97,3.803,3.814,3.819,3.803,3.782,3.806,19.71,66.2,14,Waypoint,
37.0516606,-119.2428182,3900.5052908267,176.509192,0,0.99579399512,23400,2018-06-18 17:30:58,18,0,22.84,3900.5052908267,176.509192,0.447388,1.00046591128,0,0,-0.671082,305.6, 0, -1.3,0,0,1024,1024,1024,1024,305.9,-89.9,97,3.803,3.814,3.819,3.803,3.782,3.806,19.71,66.2,14,Waypoint,
37.0516606,-119.2428182,3901.4895428267,177.493444,0,0.99579399512,23500,2018-06-18 17:30:58,18,0,22.84,3901.4895428267,177.493444,0.447388,1.00046591128,0,0,-0.671082,305.5, 0, -1.3,0,0,1024,1024,1024,1024,305.9,-89.9,97,3.803,3.814,3.819,3.803,3.782,3.806,19.71,66.2,14,Waypoint,
37.0516607,-119.2428182,3903.4580468267,179.461948,0,0.95971459764,23600,2018-06-18 17:30:58,18,0,22.84,3903.4580468267,179.461948,0.447388,1.00046591128,0,0,-0.671082,305.6, 0.4, -1.4,0,0,1024,1024,1024,1024,305.9,-89.9,97,3.803,3.814,3.819,3.803,3.782,3.806,19.71,66.2,14,Waypoint,
37.0516607,-119.2428183,3904.4422988267,180.4462,0,0.95573165788,23700,2018-06-18 17:30:58,18,0,22.84,3904.4422988267,180.4462,0.447388,1.00046591128,0,0,-0.671082,305.7, 0.3, -1.3,0,0,1024,1024,1024,1024,305.9,-89.9,97,3.803,3.814,3.819,3.803,3.782,3.806,19.71,66.2,14,Waypoint,
37.0516607,-119.2428183,3905.4265508267,181.430452,0,0.95573165788,23800,2018-06-18 17:30:58,18,0,22.84,3905.4265508267,181.430452,0.447388,1.00046591128,0,0,-0.671082,305.8, 0.4, -1.3,0,0,1024,1024,1024,1024,305.9,-89.9,97,3.803,3.814,3.819,3.803,3.782,3.806,19.71,66.2,14,Waypoint,
37.0516607,-119.2428184,3906.7388868267,182.742788,0,0.95262142156,23900,2018-06-18 17:30:58,18,0,22.84,3906.7388868267,182.742788,0.447388,1.00046591128,0,0,-0.671082,305.8, 0.5, -1.3,0,0,1024,1024,1024,1024,305.9,-89.9,97,3.803,3.814,3.819,3.803,3.782,3.806,19.71,66.2,14,Waypoint,
37.0516606,-119.2428184,3907.3950548267,183.398956,0,0.9889600054,24000,2018-06-18 17:30:59,18,0,22.712,3907.3950548267,183.398956,0.447388,1.00046591128,0,0,-0.671082,305.9, 0.4, -1.4,0,0,1024,1024,1024,1024,305.9,-89.9,97,3.781,3.801,3.794,3.78,3.769,3.792,20.456,68,14,Waypoint,
37.0516606,-119.2428184,3908.3793068267,184.383208,0,0.9889600054,24100,2018-06-18 17:30:59,18,0,22.712,3908.3793068267,184.383208,0.447388,1.00046591128,0,0,-0.671082,305.9, 0.3, -1.2,0,0,1024,1024,1024,1024,305.9,-90,97,3.781,3.801,3.794,3.78,3.769,3.792,20.456,68,14,Waypoint,
37.0516606,-119.2428185,3909.3635588267,185.36746,0,0.98681433604,24200,2018-06-18 17:30:59,18,0,22.712,3909.3635588267,185.36746,0.447388,1.00046591128,0,0,-0.671082,305.9, 0.3, -1.1,0,0,1024,1024,1024,1024,305.9,-89.9,97,3.781,3.801,3.794,3.78,3.769,3.792,20.456,68,14,Waypoint,
37.0516606,-119.2428185,3910.3478108267,186.351712,0,0.98681433604,24400,2018-06-18 17:30:59,18,0,22.712,3910.3478108267,186.351712,0.447388,1.00046591128,0,0,-0.671082,306, 0.1, -1.1,0,0,1024,1024,1024,1024,305.9,-89.9,97,3.781,3.801,3.794,3.78,3.769,3.792,20.456,68,14,Waypoint,
37.0516605,-119.2428185,3911.3320628267,187.335964,0,1.02323822172,24500,2018-06-18 17:30:59,18,0,22.712,3911.3320628267,187.335964,0.447388,1.02323822172,0,0,-0.671082,306, 0, -0.9,0,0,1024,1024,1024,1024,305.9,-90,97,3.781,3.801,3.794,3.78,3.769,3.792,20.456,68,14,Waypoint,
37.0516605,-119.2428186,3912.3163148267,188.320216,0,1.02199478336,24600,2018-06-18 17:30:59,18,0,22.712,3912.3163148267,188.320216,0.447388,1.02323822172,0,0,-0.671082,306, -0.2, -0.7,0,0,1024,1024,1024,1024,305.9,-89.9,97,3.781,3.801,3.794,3.78,3.769,3.792,20.456,68,14,Waypoint,
37.0516604,-119.2428186,3913.3005668267,189.304468,0,1.0584646008,24700,2018-06-18 17:30:59,18,0,22.712,3913.3005668267,189.304468,0.447388,1.0584646008,0,0,-0.671082,305.9, -0.1, -0.5,0,0,1024,1024,1024,1024,305.9,-89.9,97,3.781,3.801,3.794,3.78,3.769,3.792,20.456,68,14,Waypoint,
37.0516604,-119.2428187,3914.2848188267,190.28872,0,1.05806433832,24800,2018-06-18 17:30:59,18,0,22.712,3914.2848188267,190.28872,0.447388,1.0584646008,0,0,-0.671082,306, -0.1, -0.3,0,0,1024,1024,1024,1024,305.9,-89.9,97,3.781,3.801,3.794,3.78,3.769,3.792,20.456,68,14,Waypoint,
37.0516603,-119.2428187,3915.2690708267,191.272972,0,1.09454727912,24900,2018-06-18 17:30:59,18,0,22.712,3915.2690708267,191.272972,0.447388,1.09454727912,0,0,-0.671082,306, -0.2, -0.3,0,0,1024,1024,1024,1024,305.9,-89.9,97,3.781,3.801,3.794,3.78,3.769,3.792,20.456,68,14,Waypoint,
37.0516603,-119.2428188,3916.5814068267,192.585308,0,1.09493441824,25000,2018-06-18 17:31:00,18,0,22.712,3916.5814068267,192.585308,0.447388,1.09493441824,0,0,-0.671082,306.1, -0.3, -0.5,0,0,1024,1024,1024,1024,305.9,-89.9,97,3.781,3.801,3.794,3.78,3.769,3.792,20.456,68,14,Waypoint,
37.0516603,-119.2428188,3917.5656588267,193.56956,0,1.09493441824,25100,2018-06-18 17:31:00,18,0,22.712,3917.5656588267,193.56956,0.447388,1.09493441824,0,0,-0.671082,306, -0.4, -0.7,0,0,1024,1024,1024,1024,305.9,-89.9,97,3.781,3.801,3.794,3.78,3.769,3.792,20.456,68,14,Waypoint,
37.0516603,-119.2428188,3918.5499108267,194.553812,0,1.09493441824,25200,2018-06-18 17:31:00,18,0,22.712,3918.5499108267,194.553812,0.447388,1.09493441824,0,0,-0.671082,305.9, -0.2, -0.8,0,0,1024,1024,1024,1024,305.9,-89.9,97,3.781,3.801,3.794,3.78,3.769,3.792,20.456,68,14,Waypoint,
37.0516603,-119.2428189,3919.5341628267,195.538064,0,1.0960958356,25300,2018-06-18 17:31:00,18,0,22.712,3919.5341628267,195.538064,0.447388,1.0960958356,0,0,-0.671082,305.8, 0, -0.7,0,0,1024,1024,1024,1024,305.9,-89.9,97,3.781,3.801,3.794,3.78,3.769,3.792,20.456,68,14,Waypoint,
37.0516603,-119.2428189,3920.5184148267,196.522316,0,1.0960958356,25400,2018-06-18 17:31:00,18,0,22.712,3920.5184148267,196.522316,0.447388,1.0960958356,0,0,-0.671082,305.7, 0, -0.7,0,0,1024,1024,1024,1024,305.9,-89.9,97,3.781,3.801,3.794,3.78,3.769,3.792,20.456,68,14,Waypoint,
37.0516603,-119.2428189,3921.5026668267,197.506568,0,1.0960958356,25500,2018-06-18 17:31:00,18,0,22.712,3921.5026668267,197.506568,0.447388,1.0960958356,0,0,-0.671082,305.7, 0.2, -0.6,0,0,1024,1024,1024,1024,305.9,-89.9,97,3.781,3.801,3.794,3.78,3.769,3.792,20.456,68,14,Waypoint,
37.0516603,-119.242819,3923.4711708267,199.475072,0,1.09802825036,25600,2018-06-18 17:31:00,18,0,22.712,3923.4711708267,199.475072,0.447388,1.09802825036,0,0,-0.671082,306, 0.2, -0.8,0,0,1024,1024,1024,1024,305.9,-89.9,97,3.781,3.801,3.794,3.78,3.769,3.792,20.456,68,14,Waypoint,
37.0516603,-119.2428191,3925.4396748267,201.443576,0,1.10072838168,25800,2018-06-18 17:31:00,18,0,22.712,3925.4396748267,201.443576,0.447388,1.10072838168,0,0,-0.671082,306.3, 0, -0.8,0,0,1024,1024,1024,1024,305.9,-89.9,97,3.781,3.801,3.794,3.78,3.769,3.792,20.456,68,14,Waypoint,
37.0516603,-119.2428191,3926.4239268267,202.427828,0,1.10072838168,25900,2018-06-18 17:31:00,18,0,22.712,3926.4239268267,202.427828,0.447388,1.10072838168,0,0,-0.671082,306.4, 0, -0.8,0,0,1024,1024,1024,1024,305.9,-89.9,97,3.781,3.801,3.794,3.78,3.769,3.792,20.456,68,14,Waypoint,
37.0516603,-119.2428191,3928.3924308267,204.396332,0,1.10072838168,26100,2018-06-18 17:31:01,18,0,22.712,3928.3924308267,204.396332,0.447388,1.10072838168,0,0,-0.671082,306.4, 0.1, -0.8,0,0,1024,1024,1024,1024,305.9,-89.9,97,3.781,3.801,3.794,3.78,3.769,3.792,20.456,68,14,Waypoint,
37.0516603,-119.2428191,3929.3766828267,205.380584,0,1.10072838168,26200,2018-06-18 17:31:01,18,0,22.712,3929.3766828267,205.380584,0.447388,1.10072838168,0,0,-0.671082,306.4, 0.1, -0.9,0,0,1024,1024,1024,1024,305.9,-89.9,97,3.781,3.801,3.794,3.78,3.769,3.792,20.456,68,14,Waypoint,
37.0516604,-119.2428191,3930.3609348267,206.364836,0,1.06445541464,26300,2018-06-18 17:31:01,18,0,22.712,3930.3609348267,206.364836,0.447388,1.10072838168,0,0,-0.671082,306.3, 0, -1.4,0,0,1024,1024,1024,1024,305.9,-90,97,3.781,3.801,3.794,3.78,3.769,3.792,20.456,68,14,Waypoint,
37.0516604,-119.2428191,3931.3451868267,207.349088,0,1.06445541464,26400,2018-06-18 17:31:01,18,0,22.712,3931.3451868267,207.349088,0.447388,1.10072838168,0,0,-0.671082,306.2, 0, -1.6,0,0,1024,1024,1024,1024,305.9,-89.9,97,3.781,3.801,3.794,3.78,3.769,3.792,20.456,68,14,Waypoint,
37.0516604,-119.2428192,3932.3294388267,208.33334,0,1.06803481108,26500,2018-06-18 17:31:01,18,0,22.712,3932.3294388267,208.33334,0.447388,1.10072838168,0,0,-0.671082,306.1, 0, -1.6,0,0,1024,1024,1024,1024,305.9,-89.9,97,3.781,3.801,3.794,3.78,3.769,3.792,20.456,68,14,Waypoint,
37.0516604,-119.2428192,3932.9856068267,208.989508,0,1.06803481108,26600,2018-06-18 17:31:01,18,0,22.712,3932.9856068267,208.989508,0.447388,1.10072838168,0,0,-0.671082,306, 0.1, -1.3,0,0,1024,1024,1024,1024,305.9,-89.9,97,3.781,3.801,3.794,3.78,3.769,3.792,20.456,68,14,Waypoint,
37.0516604,-119.2428193,3933.9698588267,209.97376,0,1.0723917666,26700,2018-06-18 17:31:01,18,0,22.712,3933.9698588267,209.97376,0.447388,1.10072838168,0,0,-0.671082,305.9, 0.2, -1,0,0,1024,1024,1024,1024,305.9,-89.9,97,3.781,3.801,3.794,3.78,3.769,3.792,20.456,68,14,Waypoint,
37.0516604,-119.2428193,3934.9541108267,210.958012,0,1.0723917666,26800,2018-06-18 17:31:01,18,0,22.712,3934.9541108267,210.958012,0.447388,1.10072838168,0,0,-0.671082,305.7, 0.3, -0.7,0,0,1024,1024,1024,1024,305.9,-89.9,97,3.781,3.801,3.794,3.78,3.769,3.792,20.456,68,14,Waypoint,
