latitude,longitude,altitude(feet),ascent(feet),speed(mph),distance(feet),time(millisecond),datetime(utc),satellites,gpslevel,voltage(v),max_altitude(feet),max_ascent(feet),max_speed(mph),max_distance(feet), xSpeed(mph), ySpeed(mph), zSpeed(mph), compass_heading(degrees), pitch(degrees), roll(degrees),isPhoto,isVideo,rc_elevator,rc_aileron,rc_throttle,rc_rudder,gimbal_heading(degrees),gimbal_pitch(degrees),battery_percent,voltageCell1,voltageCell2,voltageCell3,voltageCell4,voltageCell5,voltageCell6,current(A),battery_temperature(f),flycStateRaw,flycState,message
37.0516793,-119.2428327,3724.3160128789,-0.328084,0.223694,0,3100,2018-06-18 16:51:24,18,0,0,3724.3160128789,0,0.223694,0,0,0,0,317.8, -2.1, -0.7,1,0,1024,1024,1024,1024,315.1,-90,100,4.2,4.244,4.275,4.248,4.242,4.242,0,57.2,11,AutoTakeoff,DJI_0269.jpg Starting Mission from Lat/Long: 37.05168/-119.24283 Camera: Zenmuse X3 - Overlap: 90/90 - Active Connection: No
37.0516793,-119.2428329,3724.3160128789,-0.328084,0.223694,0.05823655042,3200,2018-06-18 16:51:25,18,0,0,3724.3160128789,0,0.223694,0.05823655042,0,0,0,317.9, -1.6, -0.1,0,0,1024,1024,1024,1024,315.2,-89.9,100,4.2,4.244,4.275,4.248,4.242,4.242,0,57.2,11,AutoTakeoff,
37.0516792,-119.2428331,3724.6440968789,0,0.223694,0.122054137764,3300,2018-06-18 16:51:25,18,0,0,3724.6440968789,0,0.223694,0.122054137764,0,0,0,317.9, -0.7, 0.3,0,0,1024,1024,1024,1024,315.2,-89.9,100,4.2,4.244,4.275,4.248,4.242,4.242,0,57.2,11,AutoTakeoff,
37.0516792,-119.2428333,3724.6440968789,0,0.223694,0.178479008336,3400,2018-06-18 16:51:25,18,0,0,3724.6440968789,0,0.223694,0.178479008336,0,0,0,317.7, -0.1, 0.7,0,0,1024,1024,1024,1024,315.4,-89.9,100,4.2,4.244,4.275,4.248,4.242,4.242,0,57.2,11,AutoTakeoff,
37.0516792,-119.2428335,3724.6440968789,0,0.223694,0.235786752952,3500,2018-06-18 16:51:25,18,0,0,3724.6440968789,0,0.223694,0.235786752952,0,0,0,317.5, 0.4, 1,0,0,1024,1024,1024,1024,315.4,-89.9,100,4.2,4.244,4.275,4.248,4.242,4.242,0,57.2,11,AutoTakeoff,
37.0516791,-119.2428337,3724.6440968789,0,0.223694,0.300187345564,3600,2018-06-18 16:51:25,18,0,0,3724.6440968789,0,0.223694,0.300187345564,0,0,0,317.4, 0.9, 1.3,0,0,1024,1024,1024,1024,315.5,-89.9,100,4.2,4.244,4.275,4.248,4.242,4.242,0,57.2,11,AutoTakeoff,
37.0516791,-119.2428339,3724.9721808789,0.328084,0.223694,0.35695867284,3700,2018-06-18 16:51:25,17,0,0,3724.9721808789,0.328084,0.223694,0.35695867284,0,0,0,317.2, 1.2, 1.3,0,0,1024,1024,1024,1024,315.5,-89.9,100,4.2,4.244,4.275,4.248,4.242,4.242,0,57.2,11,AutoTakeoff,
37.0516791,-119.2428341,3724.9721808789,0.328084,0.223694,0.41413715236,3800,2018-06-18 16:51:25,17,0,0,3724.9721808789,0.328084,0.223694,0.41413715236,0,0,0,317.2, 1.3, 1.5,0,0,1024,1024,1024,1024,315.6,-89.9,100,4.2,4.244,4.275,4.248,4.242,4.242,0,57.2,11,AutoTakeoff,
37.0516791,-119.2428343,3724.9721808789,0.328084,0.223694,0.47157481824,3900,2018-06-18 16:51:25,18,0,0,3724.9721808789,0.328084,0.223694,0.47157481824,0,0,0,317.1, 1.2, 1.5,0,0,1024,1024,1024,1024,315.6,-89.9,100,4.2,4.244,4.275,4.248,4.242,4.242,0,57.2,11,AutoTakeoff,
37.0516791,-119.2428345,3725.3002648789,0.656168,0.223694,0.52918636864,4000,2018-06-18 16:51:25,18,0,25.483,3725.3002648789,0.656168,0.223694,0.52918636864,0,0,0,317.1, 1.2, 1.7,0,0,1024,1024,1024,1024,315.7,-89.9,100,4.2,4.244,4.275,4.248,4.242,4.242,3.92,57.2,11,AutoTakeoff,
37.0516791,-119.2428347,3725.3002648789,0.656168,0.223694,0.58691931012,4100,2018-06-18 16:51:25,17,0,25.483,3725.3002648789,0.656168,0.223694,0.58691931012,0,0,0,317.3, 1.3, 1.5,0,0,1024,1024,1024,1024,315.7,-90,100,4.2,4.244,4.275,4.248,4.242,4.242,3.92,57.2,11,AutoTakeoff,
37.0516791,-119.2428349,3725.6283488789,0.984252,0.223694,0.64474739596,4200,2018-06-18 16:51:26,17,0,25.483,3725.6283488789,0.984252,0.223694,0.64474739596,0,0,0,317.6, 1.5, 1.6,0,0,1024,1024,1024,1024,315.8,-89.9,100,4.2,4.244,4.275,4.248,4.242,4.242,3.92,57.2,11,AutoTakeoff,
37.0516792,-119.2428351,3725.6283488789,0.984252,0.223694,0.69979332948,4300,2018-06-18 16:51:26,17,0,25.483,3725.6283488789,0.984252,0.223694,0.69979332948,0,0,0,317.9, 1.8, 1.3,0,0,1024,1024,1024,1024,315.8,-89.9,100,4.2,4.244,4.275,4.248,4.242,4.242,3.92,57.2,11,AutoTakeoff,
37.0516793,-119.2428353,3725.9564328789,1.312336,0.223694,0.75707679588,4500,2018-06-18 16:51:26,17,0,25.483,3725.9564328789,1.312336,0.223694,0.75707679588,0,0,-0.223694,318.3, 1.7, 1,0,0,1024,1024,1024,1024,315.8,-89.9,100,4.2,4.244,4.275,4.248,4.242,4.242,3.92,57.2,11,AutoTakeoff,
37.0516793,-119.2428355,3726.2845168789,1.64042,0.223694,0.81531498672,4600,2018-06-18 16:51:26,16,0,25.483,3726.2845168789,1.64042,0.223694,0.81531498672,0,0,-0.223694,318.6, 1.5, 0.8,0,0,1024,1024,1024,1024,315.9,-89.9,100,4.2,4.244,4.275,4.248,4.242,4.242,3.92,57.2,11,AutoTakeoff,
37.0516793,-119.2428356,3726.2845168789,1.64042,0.223694,0.84443244172,4700,2018-06-18 16:51:26,16,0,25.483,3726.2845168789,1.64042,0.223694,0.84443244172,0,0,-0.223694,318.8, 1.4, 0.8,0,0,1024,1024,1024,1024,315.9,-89.9,100,4.2,4.244,4.275,4.248,4.242,4.242,3.92,57.2,11,AutoTakeoff,
37.0516794,-119.2428358,3726.6126008789,1.968504,0.223694,0.90340554072,4800,2018-06-18 16:51:26,15,0,25.483,3726.6126008789,1.968504,0.223694,0.90340554072,0,0,-0.223694,318.8, 1.6, 1,0,0,1024,1024,1024,1024,316,-89.9,100,4.2,4.244,4.275,4.248,4.242,4.242,3.92,57.2,11,AutoTakeoff,
37.0516795,-119.2428363,3726.9406848789,2.296588,0.223694,1.05079727772,4900,2018-06-18 16:51:26,16,0,25.483,3726.9406848789,2.296588,0.223694,1.05079727772,0,0,0,318.5, 2, 1.4,0,0,1024,1024,1024,1024,316,-89.9,100,4.2,4.244,4.275,4.248,4.242,4.242,3.92,57.2,11,AutoTakeoff,
37.0516796,-119.2428366,3727.2687688789,2.624672,0.223694,1.1408793016,5000,2018-06-18 16:51:26,16,0,24.499,3727.2687688789,2.624672,0.223694,1.1408793016,0,0,-0.223694,318.3, 2.5, 1.5,0,0,1024,1024,1024,1024,316,-89.9,100,4.025,4.003,4.003,4.022,4.023,4.032,8.32,57.2,11,AutoTakeoff,
37.0516796,-119.2428368,3727.5968528789,2.952756,0.223694,1.19885830608,5100,2018-06-18 16:51:26,15,0,24.499,3727.5968528789,2.952756,0.223694,1.19885830608,0,0,-0.223694,318.1, 3.1, 1.7,0,0,1024,1024,1024,1024,316,-89.9,100,4.025,4.003,4.003,4.022,4.023,4.032,8.32,57.2,11,AutoTakeoff,
37.0516797,-119.2428369,3727.5968528789,2.952756,0.223694,1.23164702104,5200,2018-06-18 16:51:27,15,0,24.499,3727.5968528789,2.952756,0.223694,1.23164702104,0,0,-0.223694,318.1, 3.5, 1.6,0,0,1024,1024,1024,1024,316.1,-89.9,100,4.025,4.003,4.003,4.022,4.023,4.032,8.32,57.2,14,Waypoint,
37.0516798,-119.2428372,3727.9249368789,3.28084,0.223694,1.32296264076,5300,2018-06-18 16:51:27,16,0,24.499,3727.9249368789,3.28084,0.223694,1.32296264076,0,0,0,318, 3.5, 1.3,0,0,1024,1024,1024,1024,316.1,-89.9,100,4.025,4.003,4.003,4.022,4.023,4.032,8.32,57.2,14,Waypoint,
37.05168,-119.2428374,3728.2530208789,3.608924,0.223694,1.39218836476,5410,2018-06-18 16:51:27,16,0,24.499,3728.2530208789,3.608924,0.223694,1.39218836476,0,0,0,317.8, 3.3, 0.7,0,0,1024,1024,1024,1024,316.1,-90,100,4.025,4.003,4.003,4.022,4.023,4.032,8.32,57.2,14,Waypoint,
37.0516801,-119.2428375,3728.2530208789,3.608924,0.223694,1.42783141052,5500,2018-06-18 16:51:27,16,0,24.499,3728.2530208789,3.608924,0.223694,1.42783141052,0,0,0,317.7, 3, 0.5,0,0,1024,1024,1024,1024,316.2,-90,100,4.025,4.003,4.003,4.022,4.023,4.032,8.32,57.2,14,Waypoint,
37.0516802,-119.2428375,3728.5811048789,3.937008,0,1.43573495408,5610,2018-06-18 16:51:27,16,0,24.499,3728.5811048789,3.937008,0.223694,1.43573495408,0,0,0,317.6, 2.7, 0.6,0,0,1024,1024,1024,1024,316.2,-90,100,4.025,4.003,4.003,4.022,4.023,4.032,8.32,57.2,14,Waypoint,
37.0516803,-119.2428377,3728.5811048789,3.937008,0,1.50093836824,5710,2018-06-18 16:51:27,17,0,24.499,3728.5811048789,3.937008,0.223694,1.50093836824,0,0,0,317.5, 2.7, 0.6,0,0,1024,1024,1024,1024,316.3,-89.9,100,4.025,4.003,4.003,4.022,4.023,4.032,8.32,57.2,14,Waypoint,
37.0516805,-119.2428378,3728.9091888789,4.265092,0,1.54823167684,5800,2018-06-18 16:51:27,17,0,24.499,3728.9091888789,4.265092,0.223694,1.54823167684,0,0,-0.223694,317.6, 3, 0.5,0,0,1024,1024,1024,1024,316.3,-89.9,100,4.025,4.003,4.003,4.022,4.023,4.032,8.32,57.2,14,Waypoint,
37.0516806,-119.242838,3728.9091888789,4.265092,0,1.61451448736,5910,2018-06-18 16:51:27,16,0,24.499,3728.9091888789,4.265092,0.223694,1.61451448736,0,0,-0.223694,317.7, 3.3, 0.5,0,0,1024,1024,1024,1024,316.3,-89.9,100,4.025,4.003,4.003,4.022,4.023,4.032,8.32,57.2,14,Waypoint,
37.0516807,-119.2428381,3729.2372728789,4.593176,0,1.65327433112,6000,2018-06-18 16:51:27,16,0,23.666,3729.2372728789,4.593176,0.223694,1.65327433112,0,0,-0.223694,317.7, 3.2, 0.6,0,0,1024,1024,1024,1024,316.4,-90,100,3.921,3.891,3.935,3.924,3.941,3.923,15.711,57.2,14,Waypoint,
37.0516807,-119.2428382,3729.5653568789,4.92126,0,1.68099414828,6110,2018-06-18 16:51:27,16,0,23.666,3729.5653568789,4.92126,0.223694,1.68099414828,0,0,-0.223694,317.7, 3, 0.7,0,0,1024,1024,1024,1024,316.4,-90,100,3.921,3.891,3.935,3.924,3.941,3.923,15.711,57.2,14,Waypoint,
37.0516808,-119.2428381,3729.8934408789,5.249344,0,1.66490818976,6210,2018-06-18 16:51:28,16,0,23.666,3729.8934408789,5.249344,0.223694,1.68099414828,0,0,-0.223694,317.7, 2.8, 0.7,0,0,1024,1024,1024,1024,316.4,-90,100,3.921,3.891,3.935,3.924,3.941,3.923,15.711,57.2,14,Waypoint,
37.0516808,-119.2428381,3730.5496088789,5.905512,0,1.66490818976,6300,2018-06-18 16:51:28,16,0,23.666,3730.5496088789,5.905512,0.223694,1.68099414828,0,0,-0.447388,317.8, 2.7, 0.5,0,0,1024,1024,1024,1024,316.4,-89.9,100,3.921,3.891,3.935,3.924,3.941,3.923,15.711,57.2,14,Waypoint,
37.0516808,-119.2428381,3730.8776928789,6.233596,0,1.66490818976,6410,2018-06-18 16:51:28,16,0,23.666,3730.8776928789,6.233596,0.223694,1.68099414828,0,0,-0.447388,318.1, 2.7, 0.1,0,0,1024,1024,1024,1024,316.5,-90,100,3.921,3.891,3.935,3.924,3.941,3.923,15.711,57.2,14,Waypoint,
37.0516808,-119.2428382,3732.1900288789,7.545932,0,1.6924377182,6620,2018-06-18 16:51:28,16,0,23.666,3732.1900288789,7.545932,0.223694,1.6924377182,0,0,-0.447388,318.5, 2.5, 0,0,0,1024,1024,1024,1024,316.5,-90,100,3.921,3.891,3.935,3.924,3.941,3.923,15.711,57.2,14,Waypoint,
37.0516808,-119.2428382,3733.1742808789,8.530184,0,1.6924377182,6710,2018-06-18 16:51:28,16,0,23.666,3733.1742808789,8.530184,0.223694,1.6924377182,0,0,-0.447388,318.5, 2.5, 0,0,0,1024,1024,1024,1024,316.5,-90,100,3.921,3.891,3.935,3.924,3.941,3.923,15.711,57.2,14,Waypoint,
37.0516807,-119.2428382,3734.8147008789,10.170604,0,1.68099414828,6910,2018-06-18 16:51:28,17,0,23.666,3734.8147008789,10.170604,0.223694,1.6924377182,0,0,-0.671082,318, 2.3, 0.4,0,0,1024,1024,1024,1024,316.6,-90,100,3.921,3.891,3.935,3.924,3.941,3.923,15.711,57.2,14,Waypoint,
37.0516807,-119.2428381,3735.7989528789,11.154856,0,1.65327433112,7010,2018-06-18 16:51:28,17,0,23.285,3735.7989528789,11.154856,0.223694,1.6924377182,0,0,-0.671082,317.7, 2.2, 0.1,0,0,1024,1024,1024,1024,316.6,-90,100,3.891,3.872,3.961,3.912,3.925,3.907,18.087,57.2,14,Waypoint,
37.0516806,-119.2428382,3737.1112888789,12.467192,0,1.67026908232,7110,2018-06-18 16:51:28,17,0,23.285,3737.1112888789,12.467192,0.223694,1.6924377182,0,0,-0.671082,317.6, 1.9, 0,0,0,1024,1024,1024,1024,316.6,-90,100,3.891,3.872,3.961,3.912,3.925,3.907,18.087,57.2,14,Waypoint,
37.0516806,-119.2428381,3739.4078768789,14.76378,0,1.64236881896,7310,2018-06-18 16:51:29,16,0,23.285,3739.4078768789,14.76378,0.223694,1.6924377182,0,0,-0.671082,317.4, 1.4, 0,0,0,1024,1024,1024,1024,316.6,-90,100,3.891,3.872,3.961,3.912,3.925,3.907,18.087,57.2,14,Waypoint,
37.0516806,-119.2428379,3740.3921288789,15.748032,0.223694,1.58670280668,7410,2018-06-18 16:51:29,16,0,23.285,3740.3921288789,15.748032,0.223694,1.6924377182,0,0,-0.671082,317.5, 1.2, -0.1,0,0,1024,1024,1024,1024,316.6,-90,100,3.891,3.872,3.961,3.912,3.925,3.907,18.087,57.2,14,Waypoint,
37.0516806,-119.2428378,3741.7044648789,17.060368,0.223694,1.5589403386,7510,2018-06-18 16:51:29,16,0,23.285,3741.7044648789,17.060368,0.223694,1.6924377182,0,0,-0.671082,317.7, 1.2, -0.6,0,0,1024,1024,1024,1024,316.7,-90,100,3.891,3.872,3.961,3.912,3.925,3.907,18.087,57.2,14,Waypoint,
37.0516805,-119.2428377,3742.6887168789,18.04462,0,1.52032157096,7610,2018-06-18 16:51:29,16,0,23.285,3742.6887168789,18.04462,0.223694,1.6924377182,0,0,-0.671082,317.8, 1.6, -0.7,0,0,1024,1024,1024,1024,316.7,-89.9,100,3.891,3.872,3.961,3.912,3.925,3.907,18.087,57.2,14,Waypoint,
37.0516805,-119.2428376,3744.0010528789,19.356956,0,1.49246067768,7710,2018-06-18 16:51:29,17,0,23.285,3744.0010528789,19.356956,0.223694,1.6924377182,0,0,-0.671082,318, 1.3, -0.8,0,0,1024,1024,1024,1024,316.7,-90,100,3.891,3.872,3.961,3.912,3.925,3.907,18.087,57.2,14,Waypoint,
37.0516805,-119.2428375,3744.9853048789,20.341208,0,1.464648997,7800,2018-06-18 16:51:29,17,0,23.285,3744.9853048789,20.341208,0.223694,1.6924377182,0,0,-0.671082,318.2, 0.9, -0.6,0,0,1024,1024,1024,1024,316.7,-90,100,3.891,3.872,3.961,3.912,3.925,3.907,18.087,57.2,14,Waypoint,
37.0516805,-119.2428374,3745.9695568789,21.32546,0,1.43688980976,7910,2018-06-18 16:51:29,17,0,23.285,3745.9695568789,21.32546,0.223694,1.6924377182,0,0,-0.671082,318.3, 0.3, -0.5,0,0,1024,1024,1024,1024,316.7,-90,100,3.891,3.872,3.961,3.912,3.925,3.907,18.087,57.2,14,Waypoint,
37.0516805,-119.2428374,3747.2818928789,22.637796,0,1.43688980976,8010,2018-06-18 16:51:29,17,0,23.285,3747.2818928789,22.637796,0.223694,1.6924377182,0,0,-0.671082,318.3, 0.1, -0.4,0,0,1024,1024,1024,1024,316.8,-90,100,3.842,3.819,3.836,3.83,3.839,3.852,18.087,57.2,14,Waypoint,
37.0516805,-119.2428374,3748.2661448789,23.622048,0,1.43688980976,8110,2018-06-18 16:51:29,17,0,23.285,3748.2661448789,23.622048,0.223694,1.6924377182,0,0,-0.671082,318.3, 0.5, -0.3,0,0,1024,1024,1024,1024,316.8,-89.9,100,3.842,3.819,3.836,3.83,3.839,3.852,18.087,57.2,14,Waypoint,
37.0516805,-119.2428374,3749.2503968789,24.6063,0,1.43688980976,8210,2018-06-18 16:51:30,17,0,23.285,3749.2503968789,24.6063,0.223694,1.6924377182,0,0,-0.671082,318.2, 0.9, -0.3,0,0,1024,1024,1024,1024,316.8,-89.9,100,3.842,3.819,3.836,3.83,3.839,3.852,18.087,57.2,14,Waypoint,
37.0516806,-119.2428375,3750.5627328789,25.918636,0,1.475967895,8310,2018-06-18 16:51:30,17,0,23.285,3750.5627328789,25.918636,0.223694,1.6924377182,0,0,-0.671082,318.1, 1.3, -0.4,0,0,1024,1024,1024,1024,316.8,-89.9,100,3.842,3.819,3.836,3.83,3.839,3.852,18.087,57.2,14,Waypoint,
37.0516806,-119.2428375,3751.5469848789,26.902888,0,1.475967895,8410,2018-06-18 16:51:30,17,0,23.285,3751.5469848789,26.902888,0.223694,1.6924377182,0,0,-0.671082,318, 1.6, -0.4,0,0,1024,1024,1024,1024,316.8,-89.9,100,3.842,3.819,3.836,3.83,3.839,3.852,18.087,57.2,14,Waypoint,
37.0516807,-119.2428375,3752.5312368789,27.88714,0,1.4880905988,8510,2018-06-18 16:51:30,17,0,23.285,3752.5312368789,27.88714,0.223694,1.6924377182,0,0,-0.671082,317.9, 1.8, -0.3,0,0,1024,1024,1024,1024,316.8,-89.9,100,3.842,3.819,3.836,3.83,3.839,3.852,18.087,57.2,14,Waypoint,
37.0516808,-119.2428375,3753.5154888789,28.871392,0,1.50100726588,8610,2018-06-18 16:51:30,17,0,23.285,3753.5154888789,28.871392,0.223694,1.6924377182,0,0,-0.671082,317.9, 2, -0.3,0,0,1024,1024,1024,1024,316.8,-89.9,100,3.842,3.819,3.836,3.83,3.839,3.852,18.087,57.2,14,Waypoint,
37.0516808,-119.2428375,3754.4997408789,29.855644,0,1.50100726588,8710,2018-06-18 16:51:30,17,0,23.285,3754.4997408789,29.855644,0.223694,1.6924377182,0,0,-0.671082,317.9, 1.9, -0.3,0,0,1024,1024,1024,1024,316.9,-89.9,100,3.842,3.819,3.836,3.83,3.839,3.852,18.087,57.2,14,Waypoint,
37.0516808,-119.2428376,3755.8120768789,31.16798,0,1.52815621688,8810,2018-06-18 16:51:30,17,0,23.285,3755.8120768789,31.16798,0.223694,1.6924377182,0,0,-0.671082,318, 2, -0.1,0,0,1024,1024,1024,1024,316.9,-89.9,100,3.842,3.819,3.836,3.83,3.839,3.852,18.087,57.2,14,Waypoint,
37.0516809,-119.2428376,3756.7963288789,32.152232,0,1.5416010992,8910,2018-06-18 16:51:30,17,0,23.285,3756.7963288789,32.152232,0.223694,1.6924377182,0,0,-0.671082,318, 2.2, 0,0,0,1024,1024,1024,1024,316.9,-89.9,100,3.842,3.819,3.836,3.83,3.839,3.852,18.087,57.2,14,Waypoint,
37.0516809,-119.2428376,3757.7805808789,33.136484,0,1.5416010992,9010,2018-06-18 16:51:30,17,0,22.481,3757.7805808789,33.136484,0.223694,1.6924377182,0,0,-0.671082,318, 2.1, 0.2,0,0,1024,1024,1024,1024,316.9,-89.9,100,3.773,3.754,3.795,3.776,3.789,3.764,20.162,57.2,14,Waypoint,
37.0516809,-119.2428376,3758.7648328789,34.120736,0,1.5416010992,9110,2018-06-18 16:51:30,17,0,22.481,3758.7648328789,34.120736,0.223694,1.6924377182,0,0,-0.671082,318, 2, 0.1,0,0,1024,1024,1024,1024,316.9,-89.9,100,3.773,3.754,3.795,3.776,3.789,3.764,20.162,57.2,14,Waypoint,
37.0516809,-119.2428376,3760.0771688789,35.433072,0,1.5416010992,9210,2018-06-18 16:51:31,17,0,22.481,3760.0771688789,35.433072,0.223694,1.6924377182,0,0,-0.671082,318, 1.7, 0,0,0,1024,1024,1024,1024,316.9,-90,100,3.773,3.754,3.795,3.776,3.789,3.764,20.162,57.2,14,Waypoint,
37.0516809,-119.2428376,3761.0614208789,36.417324,0,1.5416010992,9410,2018-06-18 16:51:31,17,0,22.481,3761.0614208789,36.417324,0.223694,1.6924377182,0,0,-0.671082,318, 1.6, -0.1,0,0,1024,1024,1024,1024,316.9,-90,100,3.773,3.754,3.795,3.776,3.789,3.764,20.162,57.2,14,Waypoint,
37.051681,-119.2428376,3762.0456728789,37.401576,0,1.55578088968,9510,2018-06-18 16:51:31,17,0,22.481,3762.0456728789,37.401576,0.223694,1.6924377182,0,0,-0.671082,318, 1.5, -0.2,0,0,1024,1024,1024,1024,316.9,-89.9,100,3.773,3.754,3.795,3.776,3.789,3.764,20.162,57.2,14,Waypoint,
37.051681,-119.2428376,3763.0299248789,38.385828,0,1.55578088968,9610,2018-06-18 16:51:31,17,0,22.481,3763.0299248789,38.385828,0.223694,1.6924377182,0,0,-0.671082,318, 1.6, -0.4,0,0,1024,1024,1024,1024,316.9,-89.9,100,3.773,3.754,3.795,3.776,3.789,3.764,20.162,57.2,14,Waypoint,
37.051681,-119.2428376,3764.0141768789,39.37008,0,1.55578088968,9710,2018-06-18 16:51:31,17,0,22.481,3764.0141768789,39.37008,0.223694,1.6924377182,0,0,-0.671082,318, 1.7, -0.3,0,0,1024,1024,1024,1024,316.9,-89.9,100,3.773,3.754,3.795,3.776,3.789,3.764,20.162,57.2,14,Waypoint,
37.051681,-119.2428377,3766.3107648789,41.666668,0,1.5825295782,9810,2018-06-18 16:51:31,18,0,22.481,3766.3107648789,41.666668,0.223694,1.6924377182,0,0,-0.671082,317.9, 2, 0.2,0,0,1024,1024,1024,1024,316.9,-89.9,100,3.773,3.754,3.795,3.776,3.789,3.764,20.162,57.2,14,Waypoint,
37.051681,-119.2428377,3767.2950168789,42.65092,0,1.5825295782,9910,2018-06-18 16:51:31,18,0,22.481,3767.2950168789,42.65092,0.223694,1.6924377182,0,0,-0.671082,317.8, 2.1, 0.2,0,0,1024,1024,1024,1024,316.9,-89.9,100,3.773,3.754,3.795,3.776,3.789,3.764,20.162,57.2,14,Waypoint,
37.051681,-119.2428378,3768.2792688789,43.635172,0,1.60935700688,10010,2018-06-18 16:51:31,18,0,22.749,3768.2792688789,43.635172,0.223694,1.6924377182,0,0,-0.671082,317.8, 2.2, 0.2,0,0,1024,1024,1024,1024,316.9,-89.9,98,3.78,3.765,3.814,3.802,3.818,3.79,19.998,57.2,14,Waypoint,
37.051681,-119.2428378,3769.2635208789,44.619424,0,1.60935700688,10110,2018-06-18 16:51:31,18,0,22.749,3769.2635208789,44.619424,0.223694,1.6924377182,0,0,-0.671082,317.8, 2.3, 0.3,0,0,1024,1024,1024,1024,316.9,-89.9,98,3.78,3.765,3.814,3.802,3.818,3.79,19.998,57.2,14,Waypoint,
37.0516809,-119.2428379,3770.2477728789,45.603676,0,1.622785485,10210,2018-06-18 16:51:32,18,0,22.749,3770.2477728789,45.603676,0.223694,1.6924377182,0,0,-0.671082,317.9, 2.2, 0.4,0,0,1024,1024,1024,1024,316.9,-89.9,98,3.78,3.765,3.814,3.802,3.818,3.79,19.998,57.2,14,Waypoint,
37.0516809,-119.2428379,3771.2320248789,46.587928,0,1.622785485,10310,2018-06-18 16:51:32,18,0,22.749,3771.2320248789,46.587928,0.223694,1.6924377182,0,0,-0.671082,317.9, 2.3, 0.5,0,0,1024,1024,1024,1024,316.9,-89.9,98,3.78,3.765,3.814,3.802,3.818,3.79,19.998,57.2,14,Waypoint,
37.0516809,-119.2428379,3772.2162768789,47.57218,0,1.622785485,10410,2018-06-18 16:51:32,18,0,22.749,3772.2162768789,47.57218,0.223694,1.6924377182,0,0,-0.671082,317.9, 2.3, 0.4,0,0,1024,1024,1024,1024,316.9,-89.9,98,3.78,3.765,3.814,3.802,3.818,3.79,19.998,57.2,14,Waypoint,
37.0516809,-119.242838,3773.2005288789,48.556432,0,1.64999021028,10510,2018-06-18 16:51:32,18,0,22.749,3773.2005288789,48.556432,0.223694,1.6924377182,0,0,-0.671082,317.9, 2.4, 0.8,0,0,1024,1024,1024,1024,316.9,-89.9,98,3.78,3.765,3.814,3.802,3.818,3.79,19.998,57.2,14,Waypoint,
37.0516809,-119.242838,3774.5128648789,49.868768,0,1.64999021028,10610,2018-06-18 16:51:32,18,0,22.749,3774.5128648789,49.868768,0.223694,1.6924377182,0,0,-0.671082,317.9, 2.6, 0.8,0,0,1024,1024,1024,1024,316.9,-89.9,98,3.78,3.765,3.814,3.802,3.818,3.79,19.998,57.2,14,Waypoint,
37.0516809,-119.242838,3775.4971168789,50.85302,0,1.64999021028,10710,2018-06-18 16:51:32,18,0,22.749,3775.4971168789,50.85302,0.223694,1.6924377182,0,0,-0.671082,317.8, 2.7, 0.4,0,0,1024,1024,1024,1024,316.9,-89.9,98,3.78,3.765,3.814,3.802,3.818,3.79,19.998,57.2,14,Waypoint,
37.0516809,-119.242838,3776.4813688789,51.837272,0,1.64999021028,10810,2018-06-18 16:51:32,18,0,22.749,3776.4813688789,51.837272,0.223694,1.6924377182,0,0,-0.671082,317.7, 2.6, 0,0,0,1024,1024,1024,1024,316.9,-89.9,98,3.78,3.765,3.814,3.802,3.818,3.79,19.998,57.2,14,Waypoint,
37.0516809,-119.2428379,3777.4656208789,52.821524,0,1.622785485,10910,2018-06-18 16:51:32,18,0,22.749,3777.4656208789,52.821524,0.223694,1.6924377182,0,0,-0.671082,317.5, 2.2, -0.2,0,0,1024,1024,1024,1024,316.9,-90,98,3.78,3.765,3.814,3.802,3.818,3.79,19.998,57.2,14,Waypoint,
37.0516809,-119.2428379,3778.4498728789,53.805776,0,1.622785485,11010,2018-06-18 16:51:32,18,0,22.841,3778.4498728789,53.805776,0.223694,1.6924377182,0,0,-0.671082,317.4, 2.1, -0.3,0,0,1024,1024,1024,1024,316.9,-90,98,3.793,3.78,3.825,3.805,3.822,3.806,19.041,59,14,Waypoint,
37.0516808,-119.2428379,3779.1060408789,54.461944,0,1.6100230174,11110,2018-06-18 16:51:32,18,0,22.841,3779.1060408789,54.461944,0.223694,1.6924377182,0,0,-0.671082,317.4, 1.8, -0.2,0,0,1024,1024,1024,1024,316.9,-90,98,3.793,3.78,3.825,3.805,3.822,3.806,19.041,59,14,Waypoint,
37.0516808,-119.2428378,3780.0902928789,55.446196,0,1.58266737348,11210,2018-06-18 16:51:33,18,0,22.841,3780.0902928789,55.446196,0.223694,1.6924377182,0,0,-0.671082,317.6, 1.3, -0.2,0,0,1024,1024,1024,1024,316.9,-90,98,3.793,3.78,3.825,3.805,3.822,3.806,19.041,59,14,Waypoint,
37.0516807,-119.2428377,3781.0745448789,56.430448,0,1.54291999688,11310,2018-06-18 16:51:33,18,0,22.841,3781.0745448789,56.430448,0.223694,1.6924377182,0,0,-0.671082,317.8, 1.2, -0.4,0,0,1024,1024,1024,1024,316.9,-90,98,3.793,3.78,3.825,3.805,3.822,3.806,19.041,59,14,Waypoint,
37.0516807,-119.2428377,3782.0587968789,57.4147,0,1.54291999688,11410,2018-06-18 16:51:33,18,0,22.841,3782.0587968789,57.4147,0.223694,1.6924377182,0,0,-0.671082,317.9, 1.3, -0.6,0,0,1024,1024,1024,1024,316.9,-90,98,3.793,3.78,3.825,3.805,3.822,3.806,19.041,59,14,Waypoint,
37.0516807,-119.2428376,3783.0430488789,58.398952,0,1.51547248944,11610,2018-06-18 16:51:33,18,0,22.841,3783.0430488789,58.398952,0.223694,1.6924377182,0,0,-0.671082,317.9, 1.5, -0.6,0,0,1024,1024,1024,1024,316.9,-89.9,98,3.793,3.78,3.825,3.805,3.822,3.806,19.041,59,14,Waypoint,
37.0516806,-119.2428376,3784.0273008789,59.383204,0,1.50356960192,11710,2018-06-18 16:51:33,18,0,22.841,3784.0273008789,59.383204,0.223694,1.6924377182,0,0,-0.671082,318, 1.7, -0.4,0,0,1024,1024,1024,1024,316.9,-89.9,98,3.793,3.78,3.825,3.805,3.822,3.806,19.041,59,14,Waypoint,
37.0516806,-119.2428376,3785.0115528789,60.367456,0,1.50356960192,11810,2018-06-18 16:51:33,18,0,22.841,3785.0115528789,60.367456,0.223694,1.6924377182,0,0,-0.671082,318, 2, -0.4,0,0,1024,1024,1024,1024,316.9,-89.9,98,3.793,3.78,3.825,3.805,3.822,3.806,19.041,59,14,Waypoint,
37.0516806,-119.2428375,3785.9958048789,61.351708,0,1.475967895,11910,2018-06-18 16:51:33,18,0,22.841,3785.9958048789,61.351708,0.223694,1.6924377182,0,0,-0.671082,318, 2, -0.4,0,0,1024,1024,1024,1024,316.9,-89.9,98,3.793,3.78,3.825,3.805,3.822,3.806,19.041,59,14,Waypoint,
37.0516806,-119.2428374,3787.9643088789,63.320212,0,1.44842196236,12010,2018-06-18 16:51:33,18,0,22.758,3787.9643088789,63.320212,0.223694,1.6924377182,0,0,-0.671082,318, 1.8, -0.6,0,0,1024,1024,1024,1024,316.9,-90,98,3.78,3.764,3.801,3.789,3.805,3.793,19.708,59,14,Waypoint,
37.0516806,-119.2428373,3788.9485608789,64.304464,0,1.42094164652,12110,2018-06-18 16:51:33,18,0,22.758,3788.9485608789,64.304464,0.223694,1.6924377182,0,0,-0.671082,317.9, 1.6, -1.1,0,0,1024,1024,1024,1024,316.9,-90,98,3.78,3.764,3.801,3.789,3.805,3.793,19.708,59,14,Waypoint,
37.0516806,-119.2428372,3789.9328128789,65.288716,0,1.39352694748,12210,2018-06-18 16:51:34,18,0,22.758,3789.9328128789,65.288716,0.223694,1.6924377182,0,0,-0.671082,318, 1.5, -1.7,0,0,1024,1024,1024,1024,316.9,-90,98,3.78,3.764,3.801,3.789,3.805,3.793,19.708,59,14,Waypoint,
37.0516806,-119.2428371,3790.9170648789,66.272968,0,1.36618442692,12310,2018-06-18 16:51:34,18,0,22.758,3790.9170648789,66.272968,0.223694,1.6924377182,0,0,-0.671082,318, 1.4, -2,0,0,1024,1024,1024,1024,316.9,-90,98,3.78,3.764,3.801,3.789,3.805,3.793,19.708,59,14,Waypoint,
37.0516807,-119.2428369,3791.9013168789,67.25722,0,1.32535437312,12410,2018-06-18 16:51:34,18,0,22.758,3791.9013168789,67.25722,0.223694,1.6924377182,0,0,-0.671082,318, 1.6, -2.2,0,0,1024,1024,1024,1024,317,-89.9,98,3.78,3.764,3.801,3.789,3.805,3.793,19.708,59,14,Waypoint,
37.0516807,-119.2428369,3792.5574848789,67.913388,0,1.32535437312,12510,2018-06-18 16:51:34,18,0,22.758,3792.5574848789,67.913388,0.223694,1.6924377182,0,0,-0.671082,317.9, 1.8, -2.1,0,0,1024,1024,1024,1024,317,-89.9,98,3.78,3.764,3.801,3.789,3.805,3.793,19.708,59,14,Waypoint,
37.0516807,-119.2428369,3793.5417368789,68.89764,0,1.32535437312,12610,2018-06-18 16:51:34,18,0,22.758,3793.5417368789,68.89764,0.223694,1.6924377182,0,0,-0.671082,317.8, 2, -1.8,0,0,1024,1024,1024,1024,317,-89.9,98,3.78,3.764,3.801,3.789,3.805,3.793,19.708,59,14,Waypoint,
37.0516807,-119.2428368,3794.5259888789,69.881892,0,1.29853350612,12710,2018-06-18 16:51:34,18,0,22.758,3794.5259888789,69.881892,0.223694,1.6924377182,0,0,-0.671082,317.8, 2.4, -1.3,0,0,1024,1024,1024,1024,317,-89.9,98,3.78,3.764,3.801,3.789,3.805,3.793,19.708,59,14,Waypoint,
37.0516807,-119.2428368,3795.5102408789,70.866144,0,1.29853350612,12810,2018-06-18 16:51:34,18,0,22.758,3795.5102408789,70.866144,0.223694,1.6924377182,0,0,-0.671082,317.8, 2.5, -0.9,0,0,1024,1024,1024,1024,317,-89.9,98,3.78,3.764,3.801,3.789,3.805,3.793,19.708,59,14,Waypoint,
37.0516807,-119.2428367,3796.4944928789,71.850396,0,1.27181434516,12910,2018-06-18 16:51:34,18,0,22.758,3796.4944928789,71.850396,0.223694,1.6924377182,0,0,-0.671082,317.9, 2.4, -1,0,0,1024,1024,1024,1024,317,-89.9,98,3.78,3.764,3.801,3.789,3.805,3.793,19.708,59,14,Waypoint,
37.0516807,-119.2428367,3797.4787448789,72.834648,0,1.27181434516,13010,2018-06-18 16:51:34,18,0,22.691,3797.4787448789,72.834648,0.223694,1.6924377182,0,0,-0.671082,318, 2.2, -1.1,0,0,1024,1024,1024,1024,317,-90,98,3.78,3.764,3.801,3.789,3.805,3.793,20.028,59,14,Waypoint,
37.0516807,-119.2428366,3798.4629968789,73.8189,0,1.24520345192,13110,2018-06-18 16:51:34,18,0,22.691,3798.4629968789,73.8189,0.223694,1.6924377182,0,0,-0.671082,318, 2, -1.2,0,0,1024,1024,1024,1024,316.9,-90,98,3.78,3.764,3.801,3.789,3.805,3.793,20.028,59,14,Waypoint,
37.0516807,-119.2428364,3799.4472488789,74.803152,0,1.19232943448,13210,2018-06-18 16:51:35,18,0,22.691,3799.4472488789,74.803152,0.223694,1.6924377182,0,0,-0.671082,318, 1.9, -1.5,0,0,1024,1024,1024,1024,317,-90,98,3.78,3.764,3.801,3.789,3.805,3.793,20.028,59,14,Waypoint,
37.0516808,-119.2428363,3800.4315008789,75.787404,0,1.18252300372,13310,2018-06-18 16:51:35,18,0,22.691,3800.4315008789,75.787404,0.223694,1.6924377182,0,0,-0.671082,317.9, 1.8, -2.1,0,0,1024,1024,1024,1024,317,-90,98,3.78,3.764,3.801,3.789,3.805,3.793,20.028,59,14,Waypoint,
37.0516808,-119.2428362,3801.4157528789,76.771656,0,1.15678809476,13410,2018-06-18 16:51:35,18,0,22.691,3801.4157528789,76.771656,0.223694,1.6924377182,0,0,-0.671082,318, 1.6, -2.8,0,0,1024,1024,1024,1024,317,-90,98,3.78,3.764,3.801,3.789,3.805,3.793,20.028,59,14,Waypoint,
37.0516808,-119.2428361,3802.4000048789,77.755908,0,1.13122050864,13510,2018-06-18 16:51:35,18,0,22.691,3802.4000048789,77.755908,0.223694,1.6924377182,0,0,-0.671082,318.1, 1.3, -3.2,0,0,1024,1024,1024,1024,317,-90,98,3.78,3.764,3.801,3.789,3.805,3.793,20.028,59,14,Waypoint,
37.0516808,-119.242836,3803.3842568789,78.74016,0,1.1058235262,13610,2018-06-18 16:51:35,18,0,22.691,3803.3842568789,78.74016,0.223694,1.6924377182,0,0,-0.671082,318.1, 1.3, -3.2,0,0,1024,1024,1024,1024,317,-90,98,3.78,3.764,3.801,3.789,3.805,3.793,20.028,59,14,Waypoint,
37.0516809,-119.2428359,3804.3685088789,79.724412,0,1.09954727928,13710,2018-06-18 16:51:35,18,0,22.691,3804.3685088789,79.724412,0.223694,1.6924377182,0,0,-0.671082,318.1, 1.5, -3,0,0,1024,1024,1024,1024,317,-90,98,3.78,3.764,3.801,3.789,3.805,3.793,20.028,59,14,Waypoint,
37.0516809,-119.2428358,3805.3527608789,80.708664,0,1.07498034936,13810,2018-06-18 16:51:35,18,0,22.691,3805.3527608789,80.708664,0.223694,1.6924377182,0,0,-0.671082,318, 1.6, -2.7,0,0,1024,1024,1024,1024,317,-90,98,3.78,3.764,3.801,3.789,3.805,3.793,20.028,59,14,Waypoint,
37.0516809,-119.2428358,3806.3370128789,81.692916,0,1.07498034936,13910,2018-06-18 16:51:35,18,0,22.691,3806.3370128789,81.692916,0.223694,1.6924377182,0,0,-0.671082,318, 1.8, -2.5,0,0,1024,1024,1024,1024,317,-89.9,98,3.78,3.764,3.801,3.789,3.805,3.793,20.028,59,14,Waypoint,
37.0516809,-119.2428358,3807.3212648789,82.677168,0,1.07498034936,14010,2018-06-18 16:51:35,18,0,22.691,3807.3212648789,82.677168,0.223694,1.6924377182,0,0,-0.671082,318.1, 2.1, -2.4,0,0,1024,1024,1024,1024,317,-89.9,98,3.764,3.753,3.789,3.776,3.784,3.784,20.028,59,14,Waypoint,
37.0516809,-119.2428358,3808.3055168789,83.66142,0,1.07498034936,14210,2018-06-18 16:51:36,18,0,22.691,3808.3055168789,83.66142,0.223694,1.6924377182,0,0,-0.671082,318.1, 2.4, -2.2,0,0,1024,1024,1024,1024,317,-89.9,98,3.764,3.753,3.789,3.776,3.784,3.784,20.028,59,14,Waypoint,
37.0516809,-119.2428358,3809.2897688789,84.645672,0,1.07498034936,14310,2018-06-18 16:51:36,18,0,22.691,3809.2897688789,84.645672,0.223694,1.6924377182,0,0,-0.671082,318.1, 2.4, -2,0,0,1024,1024,1024,1024,317,-89.9,98,3.764,3.753,3.789,3.776,3.784,3.784,20.028,59,14,Waypoint,
37.0516809,-119.2428358,3809.9459368789,85.30184,0,1.07498034936,14410,2018-06-18 16:51:36,18,0,22.691,3809.9459368789,85.30184,0.223694,1.6924377182,0,0,-0.671082,318.1, 2.2, -1.8,0,0,1024,1024,1024,1024,317,-89.9,98,3.764,3.753,3.789,3.776,3.784,3.784,20.028,59,14,Waypoint,
37.0516808,-119.2428358,3810.9301888789,86.286092,0,1.05561355084,14510,2018-06-18 16:51:36,18,0,22.691,3810.9301888789,86.286092,0.223694,1.6924377182,0,0,-0.671082,318, 2, -1.5,0,0,1024,1024,1024,1024,317,-90,98,3.764,3.753,3.789,3.776,3.784,3.784,20.028,59,14,Waypoint,
37.0516808,-119.2428358,3811.9144408789,87.270344,0,1.05561355084,14610,2018-06-18 16:51:36,18,0,22.691,3811.9144408789,87.270344,0.223694,1.6924377182,0,0,-0.671082,317.9, 1.9, -1.3,0,0,1024,1024,1024,1024,317,-90,98,3.764,3.753,3.789,3.776,3.784,3.784,20.028,59,14,Waypoint,
37.0516807,-119.2428359,3813.8829448789,89.238848,0,1.06260830172,14710,2018-06-18 16:51:36,18,0,22.691,3813.8829448789,89.238848,0.223694,1.6924377182,0,0,-0.671082,317.7, 1.9, -1.2,0,0,1024,1024,1024,1024,317,-89.9,98,3.764,3.753,3.789,3.776,3.784,3.784,20.028,59,14,Waypoint,
37.0516806,-119.2428359,3814.8671968789,90.2231,0,1.04555777624,14810,2018-06-18 16:51:36,18,0,22.691,3814.8671968789,90.2231,0.223694,1.6924377182,0,0,-0.671082,317.7, 1.8, -1.3,0,0,1024,1024,1024,1024,317,-90,98,3.764,3.753,3.789,3.776,3.784,3.784,20.028,59,14,Waypoint,
37.0516806,-119.2428359,3815.8514488789,91.207352,0,1.04555777624,14910,2018-06-18 16:51:36,18,0,22.691,3815.8514488789,91.207352,0.223694,1.6924377182,0,0,-0.671082,317.7, 1.6, -1.3,0,0,1024,1024,1024,1024,317,-90,98,3.764,3.753,3.789,3.776,3.784,3.784,20.028,59,14,Waypoint,
37.0516805,-119.2428359,3816.8357008789,92.191604,0,1.02952103032,15010,2018-06-18 16:51:36,18,0,22.478,3816.8357008789,92.191604,0.223694,1.6924377182,0,0,-0.671082,317.7, 1.6, -1.2,0,0,1024,1024,1024,1024,317,-89.9,98,3.727,3.714,3.778,3.752,3.776,3.749,21.398,59,14,Waypoint,
37.0516805,-119.2428359,3817.8199528789,93.175856,0,1.02952103032,15110,2018-06-18 16:51:36,18,0,22.478,3817.8199528789,93.175856,0.223694,1.6924377182,0,0,-0.671082,317.7, 1.6, -1.1,0,0,1024,1024,1024,1024,317,-90,98,3.727,3.714,3.778,3.752,3.776,3.749,21.398,59,14,Waypoint,
37.0516804,-119.2428359,3818.8042048789,94.160108,0,1.01454399572,15210,2018-06-18 16:51:37,18,0,22.478,3818.8042048789,94.160108,0.223694,1.6924377182,0,0,-0.671082,317.7, 1.6, -1.2,0,0,1024,1024,1024,1024,317,-90,98,3.727,3.714,3.778,3.752,3.776,3.749,21.398,59,14,Waypoint,
37.0516804,-119.242836,3819.7884568789,95.14436,0,1.04134845852,15310,2018-06-18 16:51:37,18,0,22.478,3819.7884568789,95.14436,0.223694,1.6924377182,0,0,-0.671082,317.8, 1.6, -1,0,0,1024,1024,1024,1024,317,-90,98,3.727,3.714,3.778,3.752,3.776,3.749,21.398,59,14,Waypoint,
37.0516804,-119.242836,3821.1007928789,96.456696,0,1.04134845852,15410,2018-06-18 16:51:37,18,0,22.478,3821.1007928789,96.456696,0.223694,1.6924377182,0,0,-0.671082,317.8, 1.6, -0.7,0,0,1024,1024,1024,1024,317,-89.9,98,3.727,3.714,3.778,3.752,3.776,3.749,21.398,59,14,Waypoint,
37.0516803,-119.242836,3822.0850448789,97.440948,0,1.02784124024,15510,2018-06-18 16:51:37,18,0,22.478,3822.0850448789,97.440948,0.223694,1.6924377182,0,0,-0.671082,317.9, 1.6, -0.8,0,0,1024,1024,1024,1024,317,-90,98,3.727,3.714,3.778,3.752,3.776,3.749,21.398,59,14,Waypoint,
37.0516803,-119.242836,3823.0692968789,98.4252,0,1.02784124024,15610,2018-06-18 16:51:37,18,0,22.478,3823.0692968789,98.4252,0.223694,1.6924377182,0,0,-0.671082,317.9, 1.5, -1.1,0,0,1024,1024,1024,1024,317,-90,98,3.727,3.714,3.778,3.752,3.776,3.749,21.398,59,14,Waypoint,
37.0516803,-119.242836,3824.0535488789,99.409452,0,1.02784124024,15710,2018-06-18 16:51:37,18,0,22.478,3824.0535488789,99.409452,0.223694,1.6924377182,0,0,-0.671082,318, 1.5, -1.1,0,0,1024,1024,1024,1024,317,-89.9,98,3.727,3.714,3.778,3.752,3.776,3.749,21.398,59,14,Waypoint,
37.0516803,-119.242836,3825.0378008789,100.393704,0,1.02784124024,15810,2018-06-18 16:51:37,18,0,22.478,3825.0378008789,100.393704,0.223694,1.6924377182,0,0,-0.671082,318, 1.7, -1,0,0,1024,1024,1024,1024,317,-90,98,3.727,3.714,3.778,3.752,3.776,3.749,21.398,59,14,Waypoint,
37.0516803,-119.242836,3826.0220528789,101.377956,0,1.02784124024,15910,2018-06-18 16:51:37,18,0,22.478,3826.0220528789,101.377956,0.223694,1.6924377182,0,0,-0.671082,318, 1.7, -1.1,0,0,1024,1024,1024,1024,317,-89.9,98,3.727,3.714,3.778,3.752,3.776,3.749,21.398,59,14,Waypoint,
37.0516803,-119.2428361,3827.0063048789,102.362208,0,1.05511158232,16110,2018-06-18 16:51:37,18,0,22.478,3827.0063048789,102.362208,0.223694,1.6924377182,0,0,-0.671082,318, 1.7, -1.1,0,0,1024,1024,1024,1024,317,-90,98,3.727,3.714,3.778,3.752,3.776,3.749,21.398,59,14,Waypoint,
37.0516803,-119.2428361,3827.9905568789,103.34646,0,1.05511158232,16210,2018-06-18 16:51:38,18,0,22.478,3827.9905568789,103.34646,0.223694,1.6924377182,0,0,-0.671082,318, 1.7, -1,0,0,1024,1024,1024,1024,317,-90,98,3.727,3.714,3.778,3.752,3.776,3.749,21.398,59,14,Waypoint,
37.0516803,-119.2428361,3828.9748088789,104.330712,0,1.05511158232,16310,2018-06-18 16:51:38,18,0,22.478,3828.9748088789,104.330712,0.223694,1.6924377182,0,0,-0.671082,317.9, 1.7, -1,0,0,1024,1024,1024,1024,317,-89.9,98,3.727,3.714,3.778,3.752,3.776,3.749,21.398,59,14,Waypoint,
37.0516803,-119.2428361,3829.9590608789,105.314964,0,1.05511158232,16410,2018-06-18 16:51:38,18,0,22.478,3829.9590608789,105.314964,0.223694,1.6924377182,0,0,-0.671082,317.8, 1.7, -1,0,0,1024,1024,1024,1024,317,-89.9,98,3.727,3.714,3.778,3.752,3.776,3.749,21.398,59,14,Waypoint,
37.0516803,-119.2428361,3831.9275648789,107.283468,0,1.05511158232,16510,2018-06-18 16:51:38,18,0,22.478,3831.9275648789,107.283468,0.223694,1.6924377182,0,0,-0.671082,317.7, 1.6, -1.2,0,0,1024,1024,1024,1024,317,-89.9,98,3.727,3.714,3.778,3.752,3.776,3.749,21.398,59,14,Waypoint,
37.0516803,-119.2428361,3832.9118168789,108.26772,0,1.05511158232,16710,2018-06-18 16:51:38,18,0,22.478,3832.9118168789,108.26772,0.223694,1.6924377182,0,0,-0.671082,317.6, 1.6, -1.3,0,0,1024,1024,1024,1024,317,-90,98,3.727,3.714,3.778,3.752,3.776,3.749,21.398,59,14,Waypoint,
37.0516802,-119.242836,3834.8803208789,110.236224,0,1.01546263092,16810,2018-06-18 16:51:38,18,0,22.478,3834.8803208789,110.236224,0.223694,1.6924377182,0,0,-0.671082,317.8, 1.3, -1.4,0,0,1024,1024,1024,1024,317,-90,98,3.727,3.714,3.778,3.752,3.776,3.749,21.398,59,14,Waypoint,
37.0516802,-119.242836,3835.8645728789,111.220476,0,1.01546263092,16910,2018-06-18 16:51:38,18,0,22.478,3835.8645728789,111.220476,0.223694,1.6924377182,0,0,-0.671082,317.8, 1.2, -1.5,0,0,1024,1024,1024,1024,317,-90,98,3.727,3.714,3.778,3.752,3.776,3.749,21.398,59,14,Waypoint,
37.0516802,-119.242836,3836.8488248789,112.204728,0,1.01546263092,17010,2018-06-18 16:51:38,18,0,22.509,3836.8488248789,112.204728,0.223694,1.6924377182,0,0,-0.671082,317.8, 1.2, -1.6,0,0,1024,1024,1024,1024,317,-90,98,3.738,3.716,3.778,3.753,3.774,3.752,20.582,59,14,Waypoint,
37.0516802,-119.2428359,3837.8330768789,113.18898,0,0.98795278752,17110,2018-06-18 16:51:38,18,0,22.509,3837.8330768789,113.18898,0.223694,1.6924377182,0,0,-0.671082,317.7, 1.3, -1.8,0,0,1024,1024,1024,1024,317,-90,98,3.738,3.716,3.778,3.753,3.774,3.752,20.582,59,14,Waypoint,
37.0516803,-119.2428358,3838.8173288789,114.173232,0,0.97361551672,17210,2018-06-18 16:51:39,18,0,22.509,3838.8173288789,114.173232,0.223694,1.6924377182,0,0,-0.671082,317.7, 1.2, -2.1,0,0,1024,1024,1024,1024,317,-90,98,3.738,3.716,3.778,3.753,3.774,3.752,20.582,59,14,Waypoint,
37.0516803,-119.2428358,3839.8015808789,115.157484,0,0.97361551672,17310,2018-06-18 16:51:39,18,0,22.509,3839.8015808789,115.157484,0.223694,1.6924377182,0,0,-0.671082,317.7, 1.3, -2.5,0,0,1024,1024,1024,1024,317,-90,98,3.738,3.716,3.778,3.753,3.774,3.752,20.582,59,14,Waypoint,
37.0516803,-119.2428357,3840.7858328789,116.141736,0,0.94667982032,17410,2018-06-18 16:51:39,18,0,22.509,3840.7858328789,116.141736,0.223694,1.6924377182,0,0,-0.671082,317.7, 1.4, -2.6,0,0,1024,1024,1024,1024,317,-90,98,3.738,3.716,3.778,3.753,3.774,3.752,20.582,59,14,Waypoint,
37.0516803,-119.2428357,3841.7700848789,117.125988,0,0.94667982032,17510,2018-06-18 16:51:39,18,0,22.509,3841.7700848789,117.125988,0.223694,1.6924377182,0,0,-0.671082,317.7, 1.4, -2.5,0,0,1024,1024,1024,1024,317,-89.9,98,3.738,3.716,3.778,3.753,3.774,3.752,20.582,59,14,Waypoint,
37.0516803,-119.2428356,3842.7543368789,118.11024,0,0.9198819192,17610,2018-06-18 16:51:39,18,0,22.509,3842.7543368789,118.11024,0.223694,1.6924377182,0,0,-0.671082,317.8, 1.4, -2.3,0,0,1024,1024,1024,1024,317,-90,98,3.738,3.716,3.778,3.753,3.774,3.752,20.582,59,14,Waypoint,
37.0516803,-119.2428355,3843.7385888789,119.094492,0,0.8932250942,17710,2018-06-18 16:51:39,18,0,22.509,3843.7385888789,119.094492,0.223694,1.6924377182,0,0,-0.671082,317.9, 1.3, -1.9,0,0,1024,1024,1024,1024,317,-90,98,3.738,3.716,3.778,3.753,3.774,3.752,20.582,59,14,Waypoint,
37.0516803,-119.2428354,3844.7228408789,120.078744,0,0.86672903036,17810,2018-06-18 16:51:39,18,0,22.509,3844.7228408789,120.078744,0.223694,1.6924377182,0,0,-0.671082,317.9, 1, -1.7,0,0,1024,1024,1024,1024,317,-90,98,3.738,3.716,3.778,3.753,3.774,3.752,20.582,59,14,Waypoint,
37.0516803,-119.2428354,3845.7070928789,121.062996,0,0.86672903036,17910,2018-06-18 16:51:39,18,0,22.509,3845.7070928789,121.062996,0.223694,1.6924377182,0,0,-0.671082,318, 1, -1.9,0,0,1024,1024,1024,1024,317,-90,98,3.738,3.716,3.778,3.753,3.774,3.752,20.582,59,14,Waypoint,
37.0516803,-119.2428354,3846.6913448789,122.047248,0,0.86672903036,18010,2018-06-18 16:51:39,18,0,22.506,3846.6913448789,122.047248,0.223694,1.6924377182,0,0,-0.671082,318.2, 0.9, -2.1,0,0,1024,1024,1024,1024,317,-90,98,3.742,3.722,3.781,3.756,3.763,3.757,19.74,59,14,Waypoint,
37.0516803,-119.2428353,3848.6598488789,124.015752,0,0.8404035702,18210,2018-06-18 16:51:40,18,0,22.506,3848.6598488789,124.015752,0.223694,1.6924377182,0,0,-0.671082,318.2, 1, -2.2,0,0,1024,1024,1024,1024,317,-90,98,3.742,3.722,3.781,3.756,3.763,3.757,19.74,59,14,Waypoint,
37.0516803,-119.2428352,3849.6441008789,125.000004,0,0.8142716796,18310,2018-06-18 16:51:40,18,0,22.506,3849.6441008789,125.000004,0.223694,1.6924377182,0,0,-0.671082,318.1, 1, -2.3,0,0,1024,1024,1024,1024,317,-90,98,3.742,3.722,3.781,3.756,3.763,3.757,19.74,59,14,Waypoint,
37.0516803,-119.2428351,3851.6126048789,126.968508,0,0.78834976276,18510,2018-06-18 16:51:40,18,0,22.506,3851.6126048789,126.968508,0.223694,1.6924377182,0,0,-0.671082,317.9, 0.9, -2.7,0,0,1024,1024,1024,1024,317,-90,98,3.742,3.722,3.781,3.756,3.763,3.757,19.74,59,14,Waypoint,
37.0516803,-119.242835,3852.5968568789,127.95276,0,0.76265422388,18710,2018-06-18 16:51:40,18,0,22.506,3852.5968568789,127.95276,0.223694,1.6924377182,0,0,-0.671082,317.8, 0.7, -3,0,0,1024,1024,1024,1024,317,-90,98,3.742,3.722,3.781,3.756,3.763,3.757,19.74,59,14,Waypoint,
37.0516803,-119.242835,3853.5811088789,128.937012,0,0.76265422388,18810,2018-06-18 16:51:40,18,0,22.506,3853.5811088789,128.937012,0.223694,1.6924377182,0,0,-0.671082,317.8, 0.5, -2.8,0,0,1024,1024,1024,1024,317,-90,98,3.742,3.722,3.781,3.756,3.763,3.757,19.74,59,14,Waypoint,
37.0516803,-119.242835,3854.5653608789,129.921264,0,0.76265422388,18910,2018-06-18 16:51:40,18,0,22.506,3854.5653608789,129.921264,0.223694,1.6924377182,0,0,-0.671082,317.8, 0.5, -2.6,0,0,1024,1024,1024,1024,317,-90,98,3.742,3.722,3.781,3.756,3.763,3.757,19.74,59,14,Waypoint,
37.0516803,-119.242835,3856.2057808789,131.561684,0,0.76265422388,19010,2018-06-18 16:51:40,18,0,22.569,3856.2057808789,131.561684,0.223694,1.6924377182,0,0,-0.671082,317.7, 0.8, -2.6,0,0,1024,1024,1024,1024,317,-90,98,3.742,3.73,3.796,3.773,3.786,3.768,18.911,59,14,Waypoint,
37.0516803,-119.242835,3857.1900328789,132.545936,0,0.76265422388,19110,2018-06-18 16:51:40,18,0,22.569,3857.1900328789,132.545936,0.223694,1.6924377182,0,0,-0.671082,317.7, 1, -2.6,0,0,1024,1024,1024,1024,317,-89.9,98,3.742,3.73,3.796,3.773,3.786,3.768,18.911,59,14,Waypoint,
37.0516803,-119.242835,3858.1742848789,133.530188,0,0.76265422388,19210,2018-06-18 16:51:41,18,0,22.569,3858.1742848789,133.530188,0.223694,1.6924377182,0,0,-0.671082,317.7, 1.3, -2.5,0,0,1024,1024,1024,1024,317,-90,98,3.742,3.73,3.796,3.773,3.786,3.768,18.911,59,14,Waypoint,
37.0516803,-119.242835,3859.1585368789,134.51444,0,0.76265422388,19310,2018-06-18 16:51:41,18,0,22.569,3859.1585368789,134.51444,0.223694,1.6924377182,0,0,-0.671082,317.8, 1.5, -2.4,0,0,1024,1024,1024,1024,317,-89.9,98,3.742,3.73,3.796,3.773,3.786,3.768,18.911,59,14,Waypoint,
37.0516804,-119.2428351,3860.1427888789,135.498692,0,0.80588257172,19410,2018-06-18 16:51:41,18,0,22.569,3860.1427888789,135.498692,0.223694,1.6924377182,0,0,-0.671082,317.8, 1.6, -2.4,0,0,1024,1024,1024,1024,317,-89.9,98,3.742,3.73,3.796,3.773,3.786,3.768,18.911,59,14,Waypoint,
37.0516804,-119.2428351,3860.7989568789,136.15486,0,0.80588257172,19510,2018-06-18 16:51:41,18,0,22.569,3860.7989568789,136.15486,0.223694,1.6924377182,0,0,-0.671082,317.8, 1.7, -2.4,0,0,1024,1024,1024,1024,317,-89.9,98,3.742,3.73,3.796,3.773,3.786,3.768,18.911,59,14,Waypoint,
37.0516804,-119.2428352,3861.7832088789,137.139112,0,0.83125986912,19610,2018-06-18 16:51:41,18,0,22.569,3861.7832088789,137.139112,0.223694,1.6924377182,0,0,-0.671082,317.7, 1.8, -2.3,0,0,1024,1024,1024,1024,317,-89.9,98,3.742,3.73,3.796,3.773,3.786,3.768,18.911,59,14,Waypoint,
37.0516804,-119.2428352,3862.7674608789,138.123364,0,0.83125986912,19710,2018-06-18 16:51:41,18,0,22.569,3862.7674608789,138.123364,0.223694,1.6924377182,0,0,-0.671082,317.7, 1.7, -2.5,0,0,1024,1024,1024,1024,317,-89.9,98,3.742,3.73,3.796,3.773,3.786,3.768,18.911,59,14,Waypoint,
37.0516805,-119.2428352,3863.7517128789,139.107616,0,0.8494750928,19810,2018-06-18 16:51:41,18,0,22.569,3863.7517128789,139.107616,0.223694,1.6924377182,0,0,-0.671082,317.6, 1.7, -2.6,0,0,1024,1024,1024,1024,317,-89.9,98,3.742,3.73,3.796,3.773,3.786,3.768,18.911,59,14,Waypoint,
37.0516805,-119.2428352,3864.7359648789,140.091868,0,0.8494750928,19910,2018-06-18 16:51:41,18,0,22.569,3864.7359648789,140.091868,0.223694,1.6924377182,0,0,-0.671082,317.6, 1.7, -2.7,0,0,1024,1024,1024,1024,317,-89.9,98,3.742,3.73,3.796,3.773,3.786,3.768,18.911,59,14,Waypoint,
37.0516805,-119.2428352,3865.7202168789,141.07612,0,0.8494750928,20010,2018-06-18 16:51:41,18,0,22.625,3865.7202168789,141.07612,0.223694,1.6924377182,0,0,-0.671082,317.6, 1.6, -2.7,0,0,1024,1024,1024,1024,317,-89.9,97,3.758,3.731,3.801,3.767,3.799,3.771,18.67,59,14,Waypoint,
37.0516805,-119.2428353,3867.6887208789,143.044624,0,0.8745571146,20210,2018-06-18 16:51:42,18,0,22.625,3867.6887208789,143.044624,0.223694,1.6924377182,0,0,-0.671082,317.7, 1.9, -2.4,0,0,1024,1024,1024,1024,317,-89.9,97,3.758,3.731,3.801,3.767,3.799,3.771,18.67,59,14,Waypoint,
37.0516804,-119.2428354,3868.3448888789,143.700792,0,0.88270672116,20310,2018-06-18 16:51:42,18,0,22.625,3868.3448888789,143.700792,0.223694,1.6924377182,0,0,-0.671082,317.8, 2, -2.1,0,0,1024,1024,1024,1024,317,-89.9,97,3.758,3.731,3.801,3.767,3.799,3.771,18.67,59,14,Waypoint,
37.0516804,-119.2428355,3869.3291408789,144.685044,0,0.90874018656,20410,2018-06-18 16:51:42,18,0,22.625,3869.3291408789,144.685044,0.223694,1.6924377182,0,0,-0.671082,317.9, 1.9, -1.7,0,0,1024,1024,1024,1024,317,-89.9,97,3.758,3.731,3.801,3.767,3.799,3.771,18.67,59,14,Waypoint,
37.0516804,-119.2428355,3870.3133928789,145.669296,0,0.90874018656,20510,2018-06-18 16:51:42,18,0,22.625,3870.3133928789,145.669296,0.223694,1.6924377182,0,0,-0.671082,318, 1.8, -1.6,0,0,1024,1024,1024,1024,317,-90,97,3.758,3.731,3.801,3.767,3.799,3.771,18.67,59,14,Waypoint,
37.0516804,-119.2428356,3871.2976448789,146.653548,0,0.93495081732,20610,2018-06-18 16:51:42,18,0,22.625,3871.2976448789,146.653548,0.223694,1.6924377182,0,0,-0.671082,318.1, 1.7, -1.5,0,0,1024,1024,1024,1024,317,-89.9,97,3.758,3.731,3.801,3.767,3.799,3.771,18.67,59,14,Waypoint,
37.0516804,-119.2428356,3872.6099808789,147.965884,0,0.93495081732,20710,2018-06-18 16:51:42,18,0,22.625,3872.6099808789,147.965884,0.223694,1.6924377182,0,0,-0.671082,318.2, 1.7, -1.7,0,0,1024,1024,1024,1024,317,-90,97,3.758,3.731,3.801,3.767,3.799,3.771,18.67,59,14,Waypoint,
37.0516804,-119.2428357,3873.5942328789,148.950136,0,0.96133205176,20810,2018-06-18 16:51:42,18,0,22.625,3873.5942328789,148.950136,0.223694,1.6924377182,0,0,-0.671082,318.2, 1.6, -1.7,0,0,1024,1024,1024,1024,317,-90,97,3.758,3.731,3.801,3.767,3.799,3.771,18.67,59,14,Waypoint,
37.0516803,-119.2428357,3874.5784848789,149.934388,0,0.94667982032,20910,2018-06-18 16:51:42,18,0,22.625,3874.5784848789,149.934388,0.223694,1.6924377182,0,0,-0.671082,318.1, 1.5, -1.8,0,0,1024,1024,1024,1024,317,-90,97,3.758,3.731,3.801,3.767,3.799,3.771,18.67,59,14,Waypoint,
37.0516803,-119.2428357,3875.5627368789,150.91864,0,0.94667982032,21010,2018-06-18 16:51:42,18,0,22.551,3875.5627368789,150.91864,0.223694,1.6924377182,0,0,-0.671082,318.1, 1.5, -1.8,0,0,1024,1024,1024,1024,317,-90,97,3.743,3.708,3.781,3.746,3.773,3.754,19.382,59,14,Waypoint,
37.0516803,-119.2428357,3876.5469888789,151.902892,0,0.94667982032,21110,2018-06-18 16:51:42,18,0,22.551,3876.5469888789,151.902892,0.223694,1.6924377182,0,0,-0.671082,318, 1.4, -1.7,0,0,1024,1024,1024,1024,317,-89.9,97,3.743,3.708,3.781,3.746,3.773,3.754,19.382,59,14,Waypoint,
37.0516802,-119.2428358,3878.5154928789,153.871396,0,0.96053808848,21310,2018-06-18 16:51:43,18,0,22.551,3878.5154928789,153.871396,0.223694,1.6924377182,0,0,-0.671082,317.8, 1.7, -1.6,0,0,1024,1024,1024,1024,317,-89.9,97,3.743,3.708,3.781,3.746,3.773,3.754,19.382,59,14,Waypoint,
37.0516802,-119.2428359,3879.4997448789,154.855648,0,0.98795278752,21410,2018-06-18 16:51:43,18,0,22.551,3879.4997448789,154.855648,0.223694,1.6924377182,0,0,-0.671082,317.8, 1.8, -1.6,0,0,1024,1024,1024,1024,317,-89.9,97,3.743,3.708,3.781,3.746,3.773,3.754,19.382,59,14,Waypoint,
37.0516802,-119.2428359,3880.4839968789,155.8399,0,0.98795278752,21610,2018-06-18 16:51:43,18,0,22.551,3880.4839968789,155.8399,0.223694,1.6924377182,0,0,-0.671082,317.8, 1.8, -1.5,0,0,1024,1024,1024,1024,317,-90,97,3.743,3.708,3.781,3.746,3.773,3.754,19.382,59,14,Waypoint,
37.0516802,-119.242836,3882.7805848789,158.136488,0,1.01546263092,21710,2018-06-18 16:51:43,18,0,22.551,3882.7805848789,158.136488,0.223694,1.6924377182,0,0,-0.671082,318, 1.6, -1.6,0,0,1024,1024,1024,1024,317,-89.9,97,3.743,3.708,3.781,3.746,3.773,3.754,19.382,59,14,Waypoint,
37.0516801,-119.242836,3884.7490888789,160.104992,0,1.00425856232,21910,2018-06-18 16:51:43,18,0,22.551,3884.7490888789,160.104992,0.223694,1.6924377182,0,0,-0.671082,318.2, 1.5, -1.4,0,0,1024,1024,1024,1024,317,-90,97,3.743,3.708,3.781,3.746,3.773,3.754,19.382,59,14,Waypoint,
37.0516801,-119.242836,3885.7333408789,161.089244,0,1.00425856232,22010,2018-06-18 16:51:43,18,0,22.393,3885.7333408789,161.089244,0.223694,1.6924377182,0,0,-0.671082,318.3, 1.4, -1.5,0,0,1024,1024,1024,1024,317,-90,97,3.724,3.704,3.761,3.729,3.751,3.736,19.638,59,14,Waypoint,
37.0516801,-119.242836,3886.7175928789,162.073496,0,1.00425856232,22110,2018-06-18 16:51:43,18,0,22.393,3886.7175928789,162.073496,0.223694,1.6924377182,0,0,-0.671082,318.3, 1.3, -1.7,0,0,1024,1024,1024,1024,317,-90,97,3.724,3.704,3.761,3.729,3.751,3.736,19.638,59,14,Waypoint,
37.05168,-119.242836,3888.0299288789,163.385832,0,0.99426512368,22210,2018-06-18 16:51:44,18,0,22.393,3888.0299288789,163.385832,0.223694,1.6924377182,0,0,-0.671082,318.4, 1.3, -1.8,0,0,1024,1024,1024,1024,317,-90,97,3.724,3.704,3.761,3.729,3.751,3.736,19.638,59,14,Waypoint,
37.05168,-119.242836,3889.0141808789,164.370084,0,0.99426512368,22310,2018-06-18 16:51:44,18,0,22.393,3889.0141808789,164.370084,0.223694,1.6924377182,0,0,-0.671082,318.3, 1.2, -1.8,0,0,1024,1024,1024,1024,317,-90,97,3.724,3.704,3.761,3.729,3.751,3.736,19.638,59,14,Waypoint,
37.05168,-119.2428359,3889.9984328789,165.354336,0,0.96615488656,22410,2018-06-18 16:51:44,18,0,22.393,3889.9984328789,165.354336,0.223694,1.6924377182,0,0,-0.671082,318.3, 1.2, -2,0,0,1024,1024,1024,1024,317,-90,97,3.724,3.704,3.761,3.729,3.751,3.736,19.638,59,14,Waypoint,
37.05168,-119.2428359,3890.9826848789,166.338588,0,0.96615488656,22510,2018-06-18 16:51:44,18,0,22.393,3890.9826848789,166.338588,0.223694,1.6924377182,0,0,-0.671082,318.2, 1.3, -2.1,0,0,1024,1024,1024,1024,317,-90,97,3.724,3.704,3.761,3.729,3.751,3.736,19.638,59,14,Waypoint,
37.05168,-119.2428359,3891.9669368789,167.32284,0,0.96615488656,22610,2018-06-18 16:51:44,18,0,22.393,3891.9669368789,167.32284,0.223694,1.6924377182,0,0,-0.671082,318.1, 1.4, -2.1,0,0,1024,1024,1024,1024,317,-90,97,3.724,3.704,3.761,3.729,3.751,3.736,19.638,59,14,Waypoint,
37.05168,-119.2428359,3892.6231048789,167.979008,0,0.96615488656,22710,2018-06-18 16:51:44,18,0,22.393,3892.6231048789,167.979008,0.223694,1.6924377182,0,0,-0.671082,317.9, 1.6, -2,0,0,1024,1024,1024,1024,317,-89.9,97,3.724,3.704,3.761,3.729,3.751,3.736,19.638,59,14,Waypoint,
37.0516801,-119.242836,3893.6073568789,168.96326,0,1.00425856232,22810,2018-06-18 16:51:44,18,0,22.393,3893.6073568789,168.96326,0.223694,1.6924377182,0,0,-0.671082,317.9, 1.8, -1.8,0,0,1024,1024,1024,1024,317,-89.9,97,3.724,3.704,3.761,3.729,3.751,3.736,19.638,59,14,Waypoint,
37.0516801,-119.242836,3894.5916088789,169.947512,0,1.00425856232,22910,2018-06-18 16:51:44,18,0,22.393,3894.5916088789,169.947512,0.223694,1.6924377182,0,0,-0.671082,317.9, 1.8, -1.7,0,0,1024,1024,1024,1024,317,-89.9,97,3.724,3.704,3.761,3.729,3.751,3.736,19.638,59,14,Waypoint,
37.0516801,-119.2428361,3895.5758608789,170.931764,0,1.032152264,23010,2018-06-18 16:51:44,18,0,22.487,3895.5758608789,170.931764,0.223694,1.6924377182,0,0,-0.671082,318, 1.8, -1.8,0,0,1024,1024,1024,1024,317,-89.9,97,3.727,3.719,3.793,3.759,3.77,3.736,18.458,60.8,14,Waypoint,
37.0516801,-119.2428361,3896.5601128789,171.916016,0,1.032152264,23110,2018-06-18 16:51:44,18,0,22.487,3896.5601128789,171.916016,0.223694,1.6924377182,0,0,-0.671082,318.1, 1.8, -1.8,0,0,1024,1024,1024,1024,317,-89.9,97,3.727,3.719,3.793,3.759,3.77,3.736,18.458,60.8,14,Waypoint,
37.0516801,-119.2428362,3897.5443648789,172.900268,0,1.06011486332,23210,2018-06-18 16:51:45,18,0,22.487,3897.5443648789,172.900268,0.223694,1.6924377182,0,0,-0.671082,318.2, 1.9, -1.7,0,0,1024,1024,1024,1024,317,-89.9,97,3.727,3.719,3.793,3.759,3.77,3.736,18.458,60.8,14,Waypoint,
37.0516801,-119.2428362,3898.5286168789,173.88452,0,1.06011486332,23310,2018-06-18 16:51:45,18,0,22.487,3898.5286168789,173.88452,0.223694,1.6924377182,0,0,-0.671082,318.2, 2, -1.6,0,0,1024,1024,1024,1024,317,-89.9,97,3.727,3.719,3.793,3.759,3.77,3.736,18.458,60.8,14,Waypoint,
37.05168,-119.2428363,3899.5128688789,174.868772,0,1.07892391904,23410,2018-06-18 16:51:45,18,0,22.487,3899.5128688789,174.868772,0.223694,1.6924377182,0,0,-0.671082,318.2, 2.1, -1.3,0,0,1024,1024,1024,1024,317,-89.9,97,3.727,3.719,3.793,3.759,3.77,3.736,18.458,60.8,14,Waypoint,
37.05168,-119.2428363,3900.4971208789,175.853024,0,1.07892391904,23510,2018-06-18 16:51:45,18,0,22.487,3900.4971208789,175.853024,0.223694,1.6924377182,0,0,-0.671082,318.1, 2, -1.4,0,0,1024,1024,1024,1024,317,-89.9,97,3.727,3.719,3.793,3.759,3.77,3.736,18.458,60.8,14,Waypoint,
37.05168,-119.2428363,3901.4813728789,176.837276,0,1.07892391904,23610,2018-06-18 16:51:45,18,0,22.487,3901.4813728789,176.837276,0.223694,1.6924377182,0,0,-0.671082,318.1, 1.9, -1.5,0,0,1024,1024,1024,1024,317,-90,97,3.727,3.719,3.793,3.759,3.77,3.736,18.458,60.8,14,Waypoint,
37.05168,-119.2428364,3902.4656248789,177.821528,0,1.10723756824,23710,2018-06-18 16:51:45,18,0,22.487,3902.4656248789,177.821528,0.223694,1.6924377182,0,0,-0.671082,318, 1.7, -1.5,0,0,1024,1024,1024,1024,317,-89.9,97,3.727,3.719,3.793,3.759,3.77,3.736,18.458,60.8,14,Waypoint,
37.05168,-119.2428364,3903.4498768789,178.80578,0,1.10723756824,23910,2018-06-18 16:51:45,18,0,22.487,3903.4498768789,178.80578,0.223694,1.6924377182,0,0,-0.671082,317.9, 1.8, -1.4,0,0,1024,1024,1024,1024,317,-89.9,97,3.727,3.719,3.793,3.759,3.77,3.736,18.458,60.8,14,Waypoint,
37.05168,-119.2428365,3904.4341288789,179.790032,0,1.13559058752,24010,2018-06-18 16:51:45,18,0,22.486,3904.4341288789,179.790032,0.223694,1.6924377182,0,0,-0.671082,317.9, 1.8, -1.1,0,0,1024,1024,1024,1024,317,-89.9,97,3.727,3.719,3.793,3.759,3.77,3.736,18.669,60.8,14,Waypoint,
37.05168,-119.2428366,3906.4026328789,181.758536,0,1.16397969604,24110,2018-06-18 16:51:45,18,0,22.486,3906.4026328789,181.758536,0.223694,1.6924377182,0,0,-0.671082,317.7, 2, -0.9,0,0,1024,1024,1024,1024,317,-89.9,97,3.727,3.719,3.793,3.759,3.77,3.736,18.669,60.8,14,Waypoint,
37.05168,-119.2428366,3907.3868848789,182.742788,0,1.16397969604,24210,2018-06-18 16:51:46,18,0,22.486,3907.3868848789,182.742788,0.223694,1.6924377182,0,0,-0.671082,317.7, 2.1, -1,0,0,1024,1024,1024,1024,317,-89.9,97,3.727,3.719,3.793,3.759,3.77,3.736,18.669,60.8,14,Waypoint,
37.05168,-119.2428366,3909.3553888789,184.711292,0,1.16397969604,24410,2018-06-18 16:51:46,18,0,22.486,3909.3553888789,184.711292,0.223694,1.6924377182,0,0,-0.671082,317.7, 2, -1.2,0,0,1024,1024,1024,1024,317,-89.9,97,3.727,3.719,3.793,3.759,3.77,3.736,18.669,60.8,14,Waypoint,
37.05168,-119.2428366,3910.3396408789,185.695544,0,1.16397969604,24510,2018-06-18 16:51:46,18,0,22.486,3910.3396408789,185.695544,0.223694,1.6924377182,0,0,-0.671082,317.8, 1.9, -1.4,0,0,1024,1024,1024,1024,317,-89.9,97,3.727,3.719,3.793,3.759,3.77,3.736,18.669,60.8,14,Waypoint,
37.0516801,-119.2428367,3911.3238928789,186.679796,0,1.20074806992,24610,2018-06-18 16:51:46,18,0,22.486,3911.3238928789,186.679796,0.223694,1.6924377182,0,0,-0.671082,317.8, 2, -1.4,0,0,1024,1024,1024,1024,317,-89.9,97,3.727,3.719,3.793,3.759,3.77,3.736,18.669,60.8,14,Waypoint,
37.0516801,-119.2428366,3912.3081448789,187.664048,0,1.17252628424,24710,2018-06-18 16:51:46,18,0,22.486,3912.3081448789,187.664048,0.223694,1.6924377182,0,0,-0.671082,317.8, 1.9, -1.4,0,0,1024,1024,1024,1024,317,-89.9,97,3.727,3.719,3.793,3.759,3.77,3.736,18.669,60.8,14,Waypoint,
37.0516801,-119.2428366,3913.2923968789,188.6483,0,1.17252628424,24810,2018-06-18 16:51:46,18,0,22.486,3913.2923968789,188.6483,0.223694,1.6924377182,0,0,-0.671082,317.8, 2, -1.6,0,0,1024,1024,1024,1024,317,-89.9,97,3.727,3.719,3.793,3.759,3.77,3.736,18.669,60.8,14,Waypoint,
37.0516801,-119.2428366,3914.2766488789,189.632552,0,1.17252628424,24910,2018-06-18 16:51:46,18,0,22.486,3914.2766488789,189.632552,0.223694,1.6924377182,0,0,-0.671082,317.8, 2, -1.6,0,0,1024,1024,1024,1024,317,-89.9,97,3.727,3.719,3.793,3.759,3.77,3.736,18.669,60.8,14,Waypoint,
37.0516802,-119.2428366,3915.2609008789,190.616804,0,1.1821358646,25010,2018-06-18 16:51:46,18,0,22.486,3915.2609008789,190.616804,0.223694,1.6924377182,0,0,-0.671082,317.8, 2.2, -1.7,0,0,1024,1024,1024,1024,317,-89.9,97,3.729,3.707,3.783,3.752,3.77,3.75,18.669,60.8,14,Waypoint,
37.0516802,-119.2428366,3916.2451528789,191.601056,0,1.1821358646,25110,2018-06-18 16:51:46,18,0,22.486,3916.2451528789,191.601056,0.223694,1.6924377182,0,0,-0.671082,317.8, 2.3, -1.8,0,0,1024,1024,1024,1024,317,-89.9,97,3.729,3.707,3.783,3.752,3.77,3.75,18.669,60.8,14,Waypoint,
37.0516802,-119.2428366,3917.2294048789,192.585308,0,1.1821358646,25210,2018-06-18 16:51:47,18,0,22.486,3917.2294048789,192.585308,0.223694,1.6924377182,0,0,-0.671082,317.8, 2.4, -1.9,0,0,1024,1024,1024,1024,317,-89.9,97,3.729,3.707,3.783,3.752,3.77,3.75,18.669,60.8,14,Waypoint,
37.0516803,-119.2428365,3918.5417408789,193.897644,0,1.16509846248,25310,2018-06-18 16:51:47,18,0,22.486,3918.5417408789,193.897644,0.223694,1.6924377182,0,0,-0.671082,317.9, 2.4, -1.9,0,0,1024,1024,1024,1024,317,-89.9,97,3.729,3.707,3.783,3.752,3.77,3.75,18.669,60.8,14,Waypoint,
37.0516803,-119.2428365,3919.5259928789,194.881896,0,1.16509846248,25410,2018-06-18 16:51:47,18,0,22.486,3919.5259928789,194.881896,0.223694,1.6924377182,0,0,-0.671082,317.9, 2.3, -2,0,0,1024,1024,1024,1024,317,-89.9,97,3.729,3.707,3.783,3.752,3.77,3.75,18.669,60.8,14,Waypoint,
37.0516804,-119.2428364,3920.5102448789,195.866148,0,1.14970148036,25510,2018-06-18 16:51:47,18,0,22.486,3920.5102448789,195.866148,0.223694,1.6924377182,0,0,-0.671082,317.8, 2.3, -2,0,0,1024,1024,1024,1024,317,-89.9,97,3.729,3.707,3.783,3.752,3.77,3.75,18.669,60.8,14,Waypoint,
37.0516804,-119.2428364,3921.4944968789,196.8504,0,1.14970148036,25610,2018-06-18 16:51:47,18,0,22.486,3921.4944968789,196.8504,0.223694,1.6924377182,0,0,-0.671082,317.9, 2.2, -2.1,0,0,1024,1024,1024,1024,317,-89.9,97,3.729,3.707,3.783,3.752,3.77,3.75,18.669,60.8,14,Waypoint,
37.0516805,-119.2428364,3922.4787488789,197.834652,0,1.16293966976,25710,2018-06-18 16:51:47,18,0,22.486,3922.4787488789,197.834652,0.223694,1.6924377182,0,0,-0.671082,317.8, 2.1, -2.1,0,0,1024,1024,1024,1024,317,-89.9,97,3.729,3.707,3.783,3.752,3.77,3.75,18.669,60.8,14,Waypoint,
37.0516805,-119.2428363,3923.4630008789,198.818904,0,1.13601709672,25810,2018-06-18 16:51:47,18,0,22.486,3923.4630008789,198.818904,0.223694,1.6924377182,0,0,-0.671082,317.8, 2.1, -2.1,0,0,1024,1024,1024,1024,317,-89.9,97,3.729,3.707,3.783,3.752,3.77,3.75,18.669,60.8,14,Waypoint,
37.0516806,-119.2428363,3924.1191688789,199.475072,0,1.15057090296,25910,2018-06-18 16:51:47,18,0,22.486,3924.1191688789,199.475072,0.223694,1.6924377182,0,0,-0.671082,317.7, 2.2, -2.1,0,0,1024,1024,1024,1024,317,-89.9,97,3.729,3.707,3.783,3.752,3.77,3.75,18.669,60.8,14,Waypoint,
37.0516806,-119.2428363,3925.1034208789,200.459324,0,1.15057090296,26010,2018-06-18 16:51:47,18,0,22.465,3925.1034208789,200.459324,0.223694,1.6924377182,0,0,-0.671082,317.8, 2.4, -2.1,0,0,1024,1024,1024,1024,317,-89.9,97,3.726,3.704,3.775,3.744,3.764,3.743,18.896,60.8,14,Waypoint,
37.0516806,-119.2428363,3926.0876728789,201.443576,0,1.15057090296,26110,2018-06-18 16:51:47,18,0,22.465,3926.0876728789,201.443576,0.223694,1.6924377182,0,0,-0.671082,317.8, 2.5, -2,0,0,1024,1024,1024,1024,317,-89.9,97,3.726,3.704,3.775,3.744,3.764,3.743,18.896,60.8,14,Waypoint,
