Latitude, Longitude, Altitude (m), Time, Sats, Speed (m/s), Range (m), Battery (%), Roll (deg), Pitch (deg), Yaw (deg), Images, HD Signal (%), RC Signal (%), Battery Temp (C), Battery Voltage (mV), Battery Current (mA), Battery Energy (mAh), Battery Capacity (mAh), Battery Discharges, flyState, timestamp (Unix), LastUpdate (ms), radioChannel, Rc_elevator, Rc_aileron, Rc_throttle, Rc_rudder, Rc_gyro, Dronetype, Battery_Cell1 (mV), Battery_Cell2 (mV), Battery_Cell3 (mV), Battery_Cell4 (mV), Battery_Cell5 (mV), Battery_Cell6 (mV), Video, isFlying, elapsedTime (ms), gimbalPitch (deg), gimbalRoll (deg), gimbalYaw (deg), VelocityX (m/s), VelocityY (m/s), VelocityZ (m/s), GroundSmear (cm), App Version, Aircraft Name, Aircraft Firmware, Aircraft Serial Number, Battery Serial Number, Battery Lifetime (%), App_Tip, App_Warning, CurrentFlightStartingIndex, CurrentFlightLastVisitedWaypoint, PreviousFlightEndingWaypointIndex
37.0516694, -119.2428396, 0.000, 09:33:07.836, 17, 0.10, 0.01, 98, -0.400, -0.200, -45.700, 2, 100, 100, 14, 25296, -3295, 5306, 5415, 15, 11, 1529339587.836, 59, 0, 1024, 1024, 1024, 1024, 0, 6, 4266, 4164, 4126, 4185, 4266, 4188, 0, 1, 3205, -90.000, 0.000, -48.800, -0.100, 0.000, -0.200, 0.0, MapPilot_2.8.1_04242018, Dendroctonus I, 1.3.1.00, 041DDC1887, 1058163200445, 97, DJI_0001.jpg, Starting Mission from Lat/Long: 37.05167/-119.24284 Camera: Zenmuse X3 - Overlap: 90/90 - Active Connection: No, 0, 0, 0
37.0516692, -119.2428396, 0.000, 09:33:07.930, 17, 0.10, 0.03, 98, 0.000, -0.900, -45.600, 2, 100, 100, 14, 25296, -3295, 5306, 5415, 15, 11, 1529339587.931, 72, 0, 1024, 1024, 1024, 1024, 0, 6, 4266, 4164, 4126, 4185, 4266, 4188, 0, 1, 3300, -89.900, 0.000, -48.700, -0.100, 0.000, -0.300, 0.0, , , , , , 97, , , 0, 0, 0
37.0516690, -119.2428396, 0.000, 09:33:08.030, 17, 0.10, 0.05, 98, 0.700, -1.300, -45.600, 2, 100, 100, 14, 25046, -5485, 5306, 5415, 15, 11, 1529339588.030, 78, 0, 1024, 1024, 1024, 1024, 0, 6, 4266, 4164, 4126, 4185, 4266, 4188, 0, 1, 3400, -90.000, 0.000, -48.600, -0.100, 0.000, -0.400, 0.0, , , , , , 97, , , 0, 0, 0
37.0516689, -119.2428396, 0.000, 09:33:08.130, 17, 0.10, 0.07, 98, 1.000, -1.600, -45.700, 2, 100, 100, 14, 25046, -5485, 5306, 5415, 15, 11, 1529339588.130, 69, 0, 1024, 1024, 1024, 1024, 0, 6, 4266, 4164, 4126, 4185, 4266, 4188, 0, 1, 3500, -89.900, 0.000, -48.500, -0.100, 0.000, -0.400, 0.0, , , , , , 97, , , 0, 0, 0
37.0516687, -119.2428396, 0.100, 09:33:08.230, 17, 0.10, 0.09, 98, 1.300, -1.500, -45.800, 2, 100, 100, 14, 25046, -5485, 5306, 5415, 15, 11, 1529339588.230, 75, 0, 1024, 1024, 1024, 1024, 0, 6, 4266, 4164, 4126, 4185, 4266, 4188, 0, 1, 3600, -89.900, 0.000, -48.400, -0.100, 0.000, -0.400, 0.0, , , , , , 97, , , 0, 0, 0
37.0516686, -119.2428397, 0.100, 09:33:08.330, 17, 0.10, 0.10, 98, 1.700, -1.300, -46.000, 2, 100, 100, 14, 25046, -5485, 5306, 5415, 15, 11, 1529339588.330, 51, 0, 1024, 1024, 1024, 1024, 0, 6, 4266, 4164, 4126, 4185, 4266, 4188, 0, 1, 3700, -89.900, 0.000, -48.400, -0.100, 0.000, -0.400, 0.0, , , , , , 97, , , 0, 0, 0
37.0516685, -119.2428397, 0.200, 09:33:08.430, 18, 0.10, 0.12, 98, 1.400, -0.900, -46.000, 2, 100, 100, 14, 25046, -5485, 5306, 5415, 15, 11, 1529339588.430, 68, 0, 1024, 1024, 1024, 1024, 0, 6, 4196, 4166, 4130, 4121, 4136, 4140, 0, 1, 3800, -89.900, 0.000, -48.300, -0.100, 0.000, -0.400, 0.0, , , , , , 97, , , 0, 0, 0
37.0516683, -119.2428398, 0.300, 09:33:08.530, 18, 0.00, 0.13, 98, 1.100, -0.500, -46.000, 2, 100, 100, 14, 25046, -5485, 5306, 5415, 15, 11, 1529339588.530, 35, 0, 1024, 1024, 1024, 1024, 0, 6, 4196, 4166, 4130, 4121, 4136, 4140, 0, 1, 3900, -89.900, 0.000, -48.200, 0.000, 0.000, -0.400, 0.0, , , , , , 97, , , 0, 0, 0
37.0516683, -119.2428398, 0.300, 09:33:08.630, 18, 0.00, 0.14, 98, 1.100, -0.100, -46.000, 2, 100, 100, 14, 25046, -5485, 5306, 5415, 15, 11, 1529339588.631, 49, 0, 1024, 1024, 1024, 1024, 0, 6, 4196, 4166, 4130, 4121, 4136, 4140, 0, 1, 4000, -89.900, 0.000, -48.200, 0.000, 0.000, -0.400, 0.0, , , , , , 97, , , 0, 0, 0
37.0516682, -119.2428400, 0.400, 09:33:08.730, 18, 0.00, 0.15, 98, 1.100, 0.100, -45.900, 2, 100, 100, 14, 25046, -5485, 5306, 5415, 15, 11, 1529339588.731, 42, 0, 1024, 1024, 1024, 1024, 0, 6, 4196, 4166, 4130, 4121, 4136, 4140, 0, 1, 4100, -89.900, 0.000, -48.100, 0.000, 0.000, -0.400, 0.0, , , , , , 97, , , 0, 0, 0
37.0516681, -119.2428400, 0.400, 09:33:08.830, 18, 0.00, 0.16, 98, 0.900, 0.100, -45.900, 2, 100, 100, 14, 25046, -5485, 5306, 5415, 15, 11, 1529339588.831, 47, 0, 1024, 1024, 1024, 1024, 0, 6, 4196, 4166, 4130, 4121, 4136, 4140, 0, 1, 4200, -89.900, 0.000, -48.000, 0.000, 0.000, -0.400, 0.0, , , , , , 97, , , 0, 0, 0
37.0516681, -119.2428400, 0.500, 09:33:08.930, 18, 0.00, 0.16, 98, 1.000, 0.000, -45.800, 2, 100, 100, 14, 25046, -5485, 5306, 5415, 15, 11, 1529339588.930, 10, 0, 1024, 1024, 1024, 1024, 0, 6, 4196, 4166, 4130, 4121, 4136, 4140, 0, 1, 4300, -89.900, 0.000, -48.000, 0.000, 0.000, -0.400, 0.0, , , , , , 97, , , 0, 0, 0
37.0516680, -119.2428401, 0.500, 09:33:09.030, 17, 0.00, 0.17, 98, 1.000, 0.000, -45.800, 2, 100, 100, 14, 25046, -5485, 5306, 5415, 15, 11, 1529339589.031, 31, 0, 1024, 1024, 1024, 1024, 0, 6, 4196, 4166, 4130, 4121, 4136, 4140, 0, 1, 4400, -89.900, 0.000, -47.900, 0.000, 0.000, -0.500, 0.0, , , , , , 97, , , 0, 0, 0
37.0516679, -119.2428402, 0.600, 09:33:09.130, 17, 0.00, 0.18, 98, 1.000, -0.100, -45.800, 2, 100, 100, 14, 25046, -5485, 5306, 5415, 15, 11, 1529339589.130, 23, 0, 1024, 1024, 1024, 1024, 0, 6, 4196, 4166, 4130, 4121, 4136, 4140, 0, 1, 4500, -89.900, 0.000, -47.900, 0.000, 0.000, -0.400, 0.0, , , , , , 97, , , 0, 0, 0
37.0516679, -119.2428402, 0.600, 09:33:09.230, 17, 0.00, 0.19, 98, 1.100, -0.200, -45.700, 2, 100, 100, 14, 25046, -5485, 5306, 5415, 15, 11, 1529339589.230, 25, 0, 1024, 1024, 1024, 1024, 0, 6, 4196, 4166, 4130, 4121, 4136, 4140, 0, 1, 4599, -89.900, 0.000, -47.800, 0.000, 0.000, -0.400, 0.0, , , , , , 97, , , 0, 0, 0
37.0516678, -119.2428403, 0.700, 09:33:09.330, 17, 0.00, 0.20, 98, 1.200, -0.100, -45.600, 2, 100, 100, 14, 25046, -5485, 5306, 5415, 15, 11, 1529339589.330, 3, 0, 1024, 1024, 1024, 1024, 0, 6, 4196, 4166, 4130, 4121, 4136, 4140, 0, 1, 4699, -89.900, 0.000, -47.800, 0.000, 0.000, -0.400, 0.0, , , , , , 97, , , 0, 0, 0
37.0516678, -119.2428403, 0.700, 09:33:09.430, 17, 0.00, 0.20, 98, 1.200, -0.100, -45.600, 2, 100, 100, 14, 23527, -15495, 5306, 5415, 15, 11, 1529339589.430, 103, 0, 1024, 1024, 1024, 1024, 0, 6, 4196, 4166, 4130, 4121, 4136, 4140, 0, 1, 4800, -89.900, 0.000, -47.800, 0.000, 0.000, -0.400, 0.0, , , , , , 97, , , 0, 0, 0
37.0516678, -119.2428405, 0.800, 09:33:09.530, 17, 0.00, 0.21, 98, 1.200, 0.000, -45.400, 2, 100, 100, 14, 23527, -15495, 5306, 5415, 15, 11, 1529339589.530, 6, 0, 1024, 1024, 1024, 1024, 0, 6, 3924, 3917, 3877, 3928, 3942, 3925, 0, 1, 4899, -89.900, 0.000, -47.700, 0.000, 0.000, -0.400, 0.0, , , , , , 97, , , 0, 0, 0
37.0516677, -119.2428405, 0.900, 09:33:09.630, 17, 0.00, 0.21, 98, 1.200, 0.100, -45.400, 2, 100, 100, 14, 23527, -15495, 5306, 5415, 15, 6, 1529339589.630, 11, 0, 1024, 1024, 1024, 1024, 0, 6, 3924, 3917, 3877, 3928, 3942, 3925, 0, 1, 4999, -89.900, 0.000, -47.600, 0.000, 0.000, -0.500, 0.0, , , , , , 97, , , 0, 0, 0
37.0516677, -119.2428405, 0.900, 09:33:09.730, 17, 0.00, 0.21, 98, 1.200, 0.100, -45.400, 2, 100, 100, 14, 23527, -15495, 5306, 5415, 15, 6, 1529339589.730, 112, 0, 1024, 1024, 1024, 1024, 0, 6, 3924, 3917, 3877, 3928, 3942, 3925, 0, 1, 5100, -89.900, 0.000, -47.600, 0.000, 0.000, -0.500, 0.0, , , , , , 97, , , 0, 0, 0
37.0516678, -119.2428406, 0.900, 09:33:09.830, 16, 0.00, 0.21, 98, 1.300, 0.200, -45.400, 2, 100, 100, 14, 23527, -15495, 5306, 5415, 15, 14, 1529339589.830, 89, 0, 1024, 1024, 1024, 1024, 0, 6, 3924, 3917, 3877, 3928, 3942, 3925, 0, 1, 5199, -89.900, 0.000, -47.600, 0.000, 0.000, -0.400, 0.0, , , , , , 97, , , 0, 0, 0
37.0516678, -119.2428406, 1.000, 09:33:09.930, 16, 0.00, 0.21, 98, 0.800, 0.300, -45.400, 2, 100, 100, 14, 23527, -15495, 5306, 5415, 15, 14, 1529339589.930, 76, 0, 1024, 1024, 1024, 1024, 0, 6, 3924, 3917, 3877, 3928, 3942, 3925, 0, 1, 5300, -89.900, 0.000, -47.600, 0.000, 0.000, -0.200, 0.0, , , , , , 97, , , 0, 0, 0
37.0516679, -119.2428406, 1.000, 09:33:10.030, 16, 0.00, 0.20, 98, 0.500, 0.400, -45.400, 2, 100, 100, 14, 23527, -15495, 5306, 5415, 15, 14, 1529339590.030, 85, 0, 1024, 1024, 1024, 1024, 0, 6, 3924, 3917, 3877, 3928, 3942, 3925, 0, 1, 5400, -89.900, 0.000, -47.500, 0.000, 0.000, -0.200, 0.0, , , , , , 97, , , 0, 0, 0
37.0516679, -119.2428406, 1.000, 09:33:10.130, 16, 0.00, 0.20, 98, 0.300, 0.400, -45.300, 2, 100, 100, 14, 23527, -15495, 5306, 5415, 15, 14, 1529339590.130, 78, 0, 1024, 1024, 1024, 1024, 0, 6, 3924, 3917, 3877, 3928, 3942, 3925, 0, 1, 5500, -89.900, 0.000, -47.500, 0.000, 0.000, -0.200, 0.0, , , , , , 97, , , 0, 0, 0
37.0516679, -119.2428406, 1.100, 09:33:10.230, 16, 0.00, 0.20, 98, 0.200, 0.300, -45.300, 2, 100, 100, 14, 23527, -15495, 5306, 5415, 15, 14, 1529339590.230, 85, 0, 1024, 1024, 1024, 1024, 0, 6, 3924, 3917, 3877, 3928, 3942, 3925, 0, 1, 5599, -89.900, 0.000, -47.400, 0.000, 0.000, -0.300, 0.0, , , , , , 97, , , 0, 0, 0
37.0516679, -119.2428407, 1.100, 09:33:10.330, 16, 0.00, 0.20, 98, 0.300, 0.400, -45.200, 2, 100, 100, 14, 23527, -15495, 5306, 5415, 15, 14, 1529339590.330, 73, 0, 1024, 1024, 1024, 1024, 0, 6, 3924, 3917, 3877, 3928, 3942, 3925, 0, 1, 5700, -89.900, 0.000, -47.400, 0.000, 0.000, -0.500, 0.0, , , , , , 97, , , 0, 0, 0
37.0516679, -119.2428408, 1.200, 09:33:10.430, 16, 0.00, 0.20, 98, 0.400, 0.400, -45.200, 2, 100, 100, 14, 23527, -15495, 5306, 5415, 15, 14, 1529339590.430, 53, 0, 1024, 1024, 1024, 1024, 0, 6, 3924, 3917, 3877, 3928, 3942, 3925, 0, 1, 5799, -89.900, 0.000, -47.300, 0.000, 0.000, -0.600, 0.0, , , , , , 97, , , 0, 0, 0
37.0516680, -119.2428408, 1.200, 09:33:10.530, 16, 0.00, 0.20, 98, 0.600, 0.500, -45.300, 2, 100, 100, 14, 23288, -16227, 5306, 5415, 15, 14, 1529339590.530, 60, 0, 1024, 1024, 1024, 1024, 0, 6, 3875, 3871, 3846, 3878, 3910, 3883, 0, 1, 5899, -89.900, 0.000, -47.300, 0.000, 0.000, -0.700, 0.0, , , , , , 97, , , 0, 0, 0
37.0516680, -119.2428408, 1.300, 09:33:10.630, 15, 0.00, 0.20, 98, 0.500, 0.500, -45.400, 2, 100, 100, 14, 23288, -16227, 5306, 5415, 15, 14, 1529339590.630, 51, 0, 1024, 1024, 1024, 1024, 0, 6, 3875, 3871, 3846, 3878, 3910, 3883, 0, 1, 5999, -89.900, 0.000, -47.200, 0.000, 0.000, -0.900, 0.0, , , , , , 97, , , 0, 0, 0
37.0516679, -119.2428408, 1.400, 09:33:10.730, 15, 0.00, 0.21, 98, 0.200, 0.500, -45.500, 2, 100, 100, 14, 23288, -16227, 5306, 5415, 15, 14, 1529339590.730, 55, 0, 1024, 1024, 1024, 1024, 0, 6, 3875, 3871, 3846, 3878, 3910, 3883, 0, 1, 6099, -89.900, 0.000, -47.200, 0.000, 0.000, -1.200, 0.0, , , , , , 97, , , 0, 0, 0
37.0516679, -119.2428408, 1.500, 09:33:10.830, 15, 0.00, 0.21, 98, 0.000, 0.400, -45.600, 2, 100, 100, 14, 23288, -16227, 5306, 5415, 15, 14, 1529339590.830, 31, 0, 1024, 1024, 1024, 1024, 0, 6, 3875, 3871, 3846, 3878, 3910, 3883, 0, 1, 6199, -89.900, 0.000, -47.200, 0.000, 0.000, -1.400, 0.0, , , , , , 97, , , 0, 0, 0
37.0516679, -119.2428408, 1.700, 09:33:10.930, 15, 0.00, 0.21, 98, 0.100, 0.400, -45.700, 2, 100, 100, 14, 23288, -16227, 5306, 5415, 15, 14, 1529339590.930, 50, 0, 1024, 1024, 1024, 1024, 0, 6, 3875, 3871, 3846, 3878, 3910, 3883, 0, 1, 6300, -89.900, 0.000, -47.100, 0.000, 0.000, -1.600, 0.0, , , , , , 97, , , 0, 0, 0
37.0516679, -119.2428409, 1.900, 09:33:11.030, 16, 0.00, 0.21, 98, 0.400, 0.200, -45.900, 2, 100, 100, 14, 23288, -16227, 5306, 5415, 15, 14, 1529339591.030, 30, 0, 1024, 1024, 1024, 1024, 0, 6, 3875, 3871, 3846, 3878, 3910, 3883, 0, 1, 6399, -89.900, 0.000, -47.100, 0.000, 0.000, -1.900, 0.0, , , , , , 97, , , 0, 0, 0
37.0516679, -119.2428409, 2.100, 09:33:11.130, 16, 0.00, 0.21, 98, 0.600, 0.200, -45.900, 2, 100, 100, 14, 23288, -16227, 5306, 5415, 15, 14, 1529339591.130, 35, 0, 1024, 1024, 1024, 1024, 0, 6, 3875, 3871, 3846, 3878, 3910, 3883, 0, 1, 6499, -89.900, 0.000, -47.100, 0.000, 0.000, -2.100, 0.0, , , , , , 97, , , 0, 0, 0
37.0516678, -119.2428409, 2.300, 09:33:11.230, 17, 0.00, 0.22, 98, 0.600, 0.100, -46.000, 2, 100, 100, 14, 23288, -16227, 5306, 5415, 15, 14, 1529339591.230, 38, 0, 1024, 1024, 1024, 1024, 0, 6, 3875, 3871, 3846, 3878, 3910, 3883, 0, 1, 6599, -89.900, 0.000, -47.000, 0.000, 0.000, -2.300, 0.0, , , , , , 97, , , 0, 0, 0
37.0516678, -119.2428409, 2.600, 09:33:11.330, 17, 0.00, 0.22, 98, 0.600, 0.100, -45.900, 2, 100, 100, 14, 23288, -16227, 5306, 5415, 15, 14, 1529339591.330, 27, 0, 1024, 1024, 1024, 1024, 0, 6, 3875, 3871, 3846, 3878, 3910, 3883, 0, 1, 6699, -89.900, 0.000, -47.000, 0.000, 0.000, -2.600, 0.0, , , , , , 97, , , 0, 0, 0
37.0516678, -119.2428409, 2.800, 09:33:11.430, 17, 0.00, 0.22, 98, 0.600, 0.100, -45.800, 2, 100, 100, 14, 23353, -22907, 5306, 5415, 15, 14, 1529339591.430, 30, 0, 1024, 1024, 1024, 1024, 0, 6, 3760, 3730, 3818, 3849, 3847, 3814, 0, 1, 6799, -89.900, 0.000, -47.000, 0.000, 0.000, -2.800, 0.0, , , , , , 97, , , 0, 0, 0
37.0516678, -119.2428409, 3.100, 09:33:11.530, 17, 0.00, 0.22, 98, 0.600, 0.100, -45.700, 2, 100, 100, 14, 23353, -22907, 5306, 5415, 15, 14, 1529339591.530, 10, 0, 1024, 1024, 1024, 1024, 0, 6, 3760, 3730, 3818, 3849, 3847, 3814, 0, 1, 6900, -89.900, 0.000, -47.000, 0.000, 0.000, -3.000, 0.0, , , , , , 97, , , 0, 0, 0
37.0516677, -119.2428408, 3.500, 09:33:11.630, 17, 0.00, 0.22, 98, 0.700, 0.000, -45.500, 2, 100, 100, 14, 23353, -22907, 5306, 5415, 15, 14, 1529339591.630, 13, 0, 1024, 1024, 1024, 1024, 0, 6, 3760, 3730, 3818, 3849, 3847, 3814, 0, 1, 6999, -89.900, 0.000, -46.900, 0.000, 0.000, -3.200, 0.0, , , , , , 97, , , 0, 0, 0
37.0516677, -119.2428408, 3.800, 09:33:11.730, 17, 0.00, 0.22, 98, 0.500, 0.000, -45.300, 2, 100, 100, 14, 23353, -22907, 5306, 5415, 15, 14, 1529339591.730, 29, 0, 1024, 1024, 1024, 1024, 0, 6, 3760, 3730, 3818, 3849, 3847, 3814, 0, 1, 7099, -89.900, 0.000, -46.900, 0.000, 0.000, -3.200, 0.0, , , , , , 97, , , 0, 0, 0
37.0516677, -119.2428406, 4.500, 09:33:11.836, 17, 0.00, 0.22, 98, 0.100, 0.000, -45.100, 2, 100, 100, 14, 23353, -22907, 5306, 5415, 15, 14, 1529339591.836, 2, 0, 1024, 1024, 1024, 1024, 0, 6, 3760, 3730, 3818, 3849, 3847, 3814, 0, 1, 7205, -89.900, 0.000, -46.900, 0.000, 0.000, -3.300, 0.0, , , , , , 97, , , 0, 0, 0
37.0516677, -119.2428406, 4.500, 09:33:11.930, 17, 0.00, 0.22, 98, 0.100, 0.000, -45.100, 2, 100, 100, 14, 23353, -22907, 5306, 5415, 15, 14, 1529339591.930, 96, 0, 1024, 1024, 1024, 1024, 0, 6, 3760, 3730, 3818, 3849, 3847, 3814, 0, 1, 7299, -89.900, 0.000, -46.900, 0.000, 0.000, -3.300, 0.0, , , , , , 97, , , 0, 0, 0
37.0516677, -119.2428406, 4.500, 09:33:12.030, 17, 0.00, 0.22, 98, 0.100, 0.000, -45.100, 2, 100, 100, 14, 23353, -22907, 5306, 5415, 15, 14, 1529339592.030, 196, 0, 1024, 1024, 1024, 1024, 0, 6, 3760, 3730, 3818, 3849, 3847, 3814, 0, 1, 7399, -89.900, 0.000, -46.900, 0.000, 0.000, -3.300, 0.0, , , , , , 97, , , 0, 0, 0
37.0516678, -119.2428405, 5.200, 09:33:12.130, 17, 0.00, 0.21, 98, -0.300, 0.000, -45.100, 2, 100, 100, 14, 23353, -22907, 5306, 5415, 15, 14, 1529339592.130, 82, 0, 1024, 1024, 1024, 1024, 0, 6, 3760, 3730, 3818, 3849, 3847, 3814, 0, 1, 7499, -89.900, 0.000, -46.800, 0.000, 0.000, -3.300, 0.0, , , , , , 97, , , 0, 0, 0
37.0516678, -119.2428405, 5.500, 09:33:12.230, 17, 0.00, 0.20, 98, -0.300, 0.000, -45.200, 2, 100, 100, 14, 23353, -22907, 5306, 5415, 15, 14, 1529339592.231, 87, 0, 1024, 1024, 1024, 1024, 0, 6, 3760, 3730, 3818, 3849, 3847, 3814, 0, 1, 7600, -89.900, 0.000, -46.800, 0.000, 0.000, -3.300, 0.0, , , , , , 97, , , 0, 0, 0
37.0516678, -119.2428405, 5.900, 09:33:12.330, 17, 0.00, 0.20, 98, -0.200, 0.000, -45.300, 2, 100, 100, 14, 23353, -22907, 5306, 5415, 15, 14, 1529339592.330, 90, 0, 1024, 1024, 1024, 1024, 0, 6, 3760, 3730, 3818, 3849, 3847, 3814, 0, 1, 7699, -89.900, 0.000, -46.800, 0.000, 0.000, -3.300, 0.0, , , , , , 97, , , 0, 0, 0
37.0516679, -119.2428405, 6.200, 09:33:12.430, 17, 0.00, 0.20, 98, -0.200, 0.100, -45.400, 2, 100, 100, 14, 23353, -22907, 5306, 5415, 15, 14, 1529339592.430, 70, 0, 1024, 1024, 1024, 1024, 0, 6, 3760, 3730, 3818, 3849, 3847, 3814, 0, 1, 7799, -89.900, 0.000, -46.800, 0.000, 0.000, -3.300, 0.0, , , , , , 97, , , 0, 0, 0
37.0516679, -119.2428405, 6.600, 09:33:12.530, 17, 0.00, 0.20, 98, -0.200, 0.300, -45.400, 2, 100, 100, 14, 22482, -22502, 5306, 5415, 15, 14, 1529339592.530, 85, 0, 1024, 1024, 1024, 1024, 0, 6, 3758, 3758, 3733, 3759, 3799, 3749, 0, 1, 7899, -89.900, 0.000, -46.700, 0.000, 0.000, -3.300, 0.0, , , , , , 97, , , 0, 0, 0
37.0516679, -119.2428406, 6.900, 09:33:12.630, 17, 0.00, 0.20, 98, -0.300, 0.400, -45.300, 2, 100, 100, 14, 22482, -22502, 5306, 5415, 15, 14, 1529339592.630, 88, 0, 1024, 1024, 1024, 1024, 0, 6, 3758, 3758, 3733, 3759, 3799, 3749, 0, 1, 7999, -89.900, 0.000, -46.700, 0.000, 0.000, -3.200, 0.0, , , , , , 97, , , 0, 0, 0
37.0516680, -119.2428406, 7.200, 09:33:12.730, 17, 0.00, 0.19, 98, -0.100, 0.300, -45.200, 2, 100, 100, 14, 22482, -22502, 5306, 5415, 15, 14, 1529339592.730, 54, 0, 1024, 1024, 1024, 1024, 0, 6, 3758, 3758, 3733, 3759, 3799, 3749, 0, 1, 8099, -89.900, 0.000, -46.700, 0.000, 0.000, -3.200, 0.0, , , , , , 97, , , 0, 0, 0
37.0516680, -119.2428407, 7.600, 09:33:12.830, 17, 0.00, 0.19, 98, 0.000, 0.300, -45.200, 2, 100, 100, 14, 22482, -22502, 5306, 5415, 15, 14, 1529339592.830, 58, 0, 1024, 1024, 1024, 1024, 0, 6, 3758, 3758, 3733, 3759, 3799, 3749, 0, 1, 8199, -89.900, 0.000, -46.700, 0.000, 0.000, -3.200, 0.0, , , , , , 97, , , 0, 0, 0
37.0516681, -119.2428408, 7.900, 09:33:12.930, 17, 0.00, 0.19, 98, 0.000, 0.500, -45.200, 2, 100, 100, 14, 22482, -22502, 5306, 5415, 15, 14, 1529339592.930, 45, 0, 1024, 1024, 1024, 1024, 0, 6, 3758, 3758, 3733, 3759, 3799, 3749, 0, 1, 8299, -89.900, 0.000, -46.700, 0.000, 0.000, -3.200, 0.0, , , , , , 97, , , 0, 0, 0
37.0516682, -119.2428409, 8.200, 09:33:13.030, 17, 0.00, 0.19, 98, 0.000, 0.800, -45.200, 2, 100, 100, 14, 22482, -22502, 5306, 5415, 15, 14, 1529339593.030, 24, 0, 1024, 1024, 1024, 1024, 0, 6, 3758, 3758, 3733, 3759, 3799, 3749, 0, 1, 8399, -89.900, 0.000, -46.600, 0.000, 0.000, -3.100, 0.0, , , , , , 97, , , 0, 0, 0
37.0516682, -119.2428411, 8.600, 09:33:13.130, 17, 0.00, 0.19, 98, 0.100, 1.100, -45.300, 2, 100, 100, 14, 22482, -22502, 5306, 5415, 15, 14, 1529339593.130, 65, 0, 1024, 1024, 1024, 1024, 0, 6, 3758, 3758, 3733, 3759, 3799, 3749, 0, 1, 8499, -89.900, 0.000, -46.600, 0.000, 0.000, -3.100, 0.0, , , , , , 97, , , 0, 0, 0
37.0516683, -119.2428412, 8.900, 09:33:13.230, 17, 0.00, 0.19, 98, 0.200, 1.200, -45.400, 2, 100, 100, 14, 22482, -22502, 5306, 5415, 15, 14, 1529339593.230, 32, 0, 1024, 1024, 1024, 1024, 0, 6, 3758, 3758, 3733, 3759, 3799, 3749, 0, 1, 8599, -89.900, 0.000, -46.600, 0.000, 0.000, -3.100, 0.0, , , , , , 97, , , 0, 0, 0
37.0516684, -119.2428412, 9.200, 09:33:13.330, 17, 0.00, 0.19, 98, 0.100, 1.300, -45.400, 2, 100, 100, 14, 22482, -22502, 5306, 5415, 15, 14, 1529339593.330, 37, 0, 1024, 1024, 1024, 1024, 0, 6, 3758, 3758, 3733, 3759, 3799, 3749, 0, 1, 8699, -89.900, 0.000, -46.600, 0.000, 0.000, -3.100, 0.0, , , , , , 97, , , 0, 0, 0
37.0516684, -119.2428413, 9.600, 09:33:13.430, 17, 0.00, 0.19, 98, 0.000, 1.300, -45.500, 2, 100, 100, 15, 22738, -18498, 5306, 5415, 15, 14, 1529339593.430, 27, 0, 1024, 1024, 1024, 1024, 0, 6, 3758, 3758, 3733, 3759, 3799, 3749, 0, 1, 8799, -89.900, 0.000, -46.600, 0.000, 0.000, -3.100, 0.0, , , , , , 97, , , 0, 0, 0
37.0516685, -119.2428414, 9.900, 09:33:13.530, 17, 0.00, 0.19, 98, -0.200, 1.300, -45.500, 2, 100, 100, 15, 22738, -18498, 5306, 5415, 15, 14, 1529339593.530, 20, 0, 1024, 1024, 1024, 1024, 0, 6, 3758, 3758, 3733, 3759, 3799, 3749, 0, 1, 8899, -89.900, 0.000, -46.600, 0.000, 0.000, -3.100, 0.0, , , , , , 97, , , 0, 0, 0
37.0516686, -119.2428414, 10.200, 09:33:13.630, 17, 0.00, 0.19, 98, -0.300, 1.300, -45.500, 2, 100, 100, 15, 22738, -18498, 5306, 5415, 15, 14, 1529339593.630, 21, 0, 1024, 1024, 1024, 1024, 0, 6, 3758, 3758, 3733, 3759, 3799, 3749, 0, 1, 8999, -89.900, 0.000, -46.600, 0.000, 0.000, -3.100, 0.0, , , , , , 97, , , 0, 0, 0
37.0516687, -119.2428415, 10.500, 09:33:13.730, 17, 0.00, 0.19, 98, -0.400, 1.400, -45.400, 2, 100, 100, 15, 22738, -18498, 5306, 5415, 15, 14, 1529339593.730, 34, 0, 1024, 1024, 1024, 1024, 0, 6, 3758, 3758, 3733, 3759, 3799, 3749, 0, 1, 9099, -89.900, 0.000, -46.500, 0.000, 0.000, -3.000, 0.0, , , , , , 97, , , 0, 0, 0
37.0516688, -119.2428415, 10.900, 09:33:13.830, 17, 0.00, 0.19, 98, -0.600, 1.600, -45.400, 2, 100, 100, 15, 22738, -18498, 5306, 5415, 15, 14, 1529339593.830, 30, 0, 1024, 1024, 1024, 1024, 0, 6, 3758, 3758, 3733, 3759, 3799, 3749, 0, 1, 9199, -89.900, 0.000, -46.500, 0.000, 0.000, -3.000, 0.0, , , , , , 97, , , 0, 0, 0
37.0516689, -119.2428416, 11.200, 09:33:13.930, 17, 0.00, 0.19, 98, -0.700, 1.800, -45.500, 2, 100, 100, 15, 22738, -18498, 5306, 5415, 15, 14, 1529339593.930, 25, 0, 1024, 1024, 1024, 1024, 0, 6, 3799, 3775, 3766, 3793, 3829, 3806, 0, 1, 9299, -89.900, 0.000, -46.500, 0.000, 0.000, -3.000, 0.0, , , , , , 97, , , 0, 0, 0
37.0516690, -119.2428417, 11.500, 09:33:14.030, 17, 0.00, 0.19, 98, -0.700, 1.900, -45.600, 2, 100, 100, 15, 22738, -18498, 5306, 5415, 15, 14, 1529339594.030, 26, 0, 1024, 1024, 1024, 1024, 0, 6, 3799, 3775, 3766, 3793, 3829, 3806, 0, 1, 9399, -89.900, 0.000, -46.500, 0.000, 0.000, -2.900, 0.0, , , , , , 97, , , 0, 0, 0
37.0516690, -119.2428417, 11.500, 09:33:14.130, 17, 0.00, 0.19, 98, -0.700, 1.900, -45.600, 2, 100, 100, 15, 22738, -18498, 5306, 5415, 15, 14, 1529339594.130, 126, 0, 1024, 1024, 1024, 1024, 0, 6, 3799, 3775, 3766, 3793, 3829, 3806, 0, 1, 9499, -89.900, 0.000, -46.500, 0.000, 0.000, -2.900, 0.0, , , , , , 97, , , 0, 0, 0
37.0516691, -119.2428417, 11.800, 09:33:14.230, 17, 0.00, 0.19, 98, -0.700, 2.200, -45.600, 2, 100, 100, 15, 22738, -18498, 5306, 5415, 15, 14, 1529339594.230, 91, 0, 1024, 1024, 1024, 1024, 0, 6, 3799, 3775, 3766, 3793, 3829, 3806, 0, 1, 9599, -89.900, 0.000, -46.500, 0.000, 0.000, -2.900, 0.0, , , , , , 97, , , 0, 0, 0
37.0516692, -119.2428416, 12.300, 09:33:14.330, 17, 0.00, 0.18, 98, -1.000, 2.100, -45.500, 2, 100, 100, 15, 22738, -18498, 5306, 5415, 15, 14, 1529339594.330, 92, 0, 1024, 1024, 1024, 1024, 0, 6, 3799, 3775, 3766, 3793, 3829, 3806, 0, 1, 9699, -89.900, 0.000, -46.500, 0.000, 0.000, -2.900, 0.0, , , , , , 97, , , 0, 0, 0
37.0516693, -119.2428416, 12.600, 09:33:14.431, 17, 0.00, 0.18, 98, -1.200, 1.800, -45.500, 2, 100, 100, 15, 22738, -18498, 5306, 5415, 15, 14, 1529339594.432, 2, 0, 1024, 1024, 1024, 1024, 0, 6, 3799, 3775, 3766, 3793, 3829, 3806, 0, 1, 9801, -89.900, 0.000, -46.400, 0.000, 0.000, -2.900, 0.0, , , , , , 97, , , 0, 0, 0
37.0516693, -119.2428416, 12.600, 09:33:14.530, 17, 0.00, 0.18, 98, -1.200, 1.800, -45.500, 2, 100, 100, 15, 22738, -18498, 5306, 5415, 15, 14, 1529339594.530, 101, 0, 1024, 1024, 1024, 1024, 0, 6, 3799, 3775, 3766, 3793, 3829, 3806, 0, 1, 9899, -89.900, 0.000, -46.400, 0.000, 0.000, -2.900, 0.0, , , , , , 97, , , 0, 0, 0
37.0516693, -119.2428414, 13.300, 09:33:14.630, 17, 0.00, 0.16, 98, -1.700, 1.300, -45.500, 2, 100, 100, 15, 22738, -18498, 5306, 5415, 15, 14, 1529339594.630, 89, 0, 1024, 1024, 1024, 1024, 0, 6, 3799, 3775, 3766, 3793, 3829, 3806, 0, 1, 9999, -89.900, 0.000, -46.400, 0.000, 0.000, -3.000, 0.0, , , , , , 97, , , 0, 0, 0
37.0516693, -119.2428413, 13.600, 09:33:14.730, 17, 0.00, 0.15, 98, -1.900, 1.000, -45.500, 2, 100, 100, 15, 22738, -18498, 5306, 5415, 15, 14, 1529339594.730, 95, 0, 1024, 1024, 1024, 1024, 0, 6, 3799, 3775, 3766, 3793, 3829, 3806, 0, 1, 10099, -90.000, 0.000, -46.400, 0.000, 0.000, -3.000, 0.0, , , , , , 97, , , 0, 0, 0
37.0516694, -119.2428412, 13.900, 09:33:14.830, 17, 0.00, 0.14, 98, -1.900, 0.800, -45.500, 2, 100, 100, 15, 22738, -18498, 5306, 5415, 15, 14, 1529339594.830, 88, 0, 1024, 1024, 1024, 1024, 0, 6, 3799, 3775, 3766, 3793, 3829, 3806, 0, 1, 10199, -90.000, 0.000, -46.400, 0.000, 0.000, -3.000, 0.0, , , , , , 97, , , 0, 0, 0
37.0516694, -119.2428411, 14.200, 09:33:14.930, 17, 0.00, 0.13, 98, -1.900, 0.700, -45.600, 2, 100, 100, 15, 22738, -18498, 5306, 5415, 15, 14, 1529339594.930, 78, 0, 1024, 1024, 1024, 1024, 0, 6, 3799, 3775, 3766, 3793, 3829, 3806, 0, 1, 10299, -90.000, 0.000, -46.400, 0.000, 0.000, -3.000, 0.0, , , , , , 97, , , 0, 0, 0
37.0516694, -119.2428410, 14.600, 09:33:15.030, 17, 0.00, 0.12, 98, -1.900, 0.700, -45.700, 2, 100, 100, 15, 22856, -17701, 5306, 5415, 15, 14, 1529339595.030, 78, 0, 1024, 1024, 1024, 1024, 0, 6, 3818, 3784, 3764, 3798, 3841, 3808, 0, 1, 10399, -90.000, 0.000, -46.400, 0.000, 0.000, -2.900, 0.0, , , , , , 97, , , 0, 0, 0
37.0516694, -119.2428409, 14.900, 09:33:15.130, 17, 0.00, 0.12, 98, -1.900, 0.500, -45.700, 2, 100, 100, 15, 22856, -17701, 5306, 5415, 15, 14, 1529339595.130, 69, 0, 1024, 1024, 1024, 1024, 0, 6, 3818, 3784, 3764, 3798, 3841, 3808, 0, 1, 10499, -90.000, 0.000, -46.400, 0.000, 0.000, -3.000, 0.0, , , , , , 97, , , 0, 0, 0
37.0516694, -119.2428408, 15.200, 09:33:15.230, 17, 0.00, 0.11, 98, -2.000, 0.400, -45.600, 2, 100, 100, 15, 22856, -17701, 5306, 5415, 15, 14, 1529339595.230, 57, 0, 1024, 1024, 1024, 1024, 0, 6, 3818, 3784, 3764, 3798, 3841, 3808, 0, 1, 10599, -90.000, 0.000, -46.400, 0.000, 0.000, -2.900, 0.0, , , , , , 97, , , 0, 0, 0
37.0516694, -119.2428408, 15.500, 09:33:15.330, 17, 0.00, 0.10, 98, -1.900, 0.400, -45.500, 2, 100, 100, 15, 22856, -17701, 5306, 5415, 15, 14, 1529339595.330, 61, 0, 1024, 1024, 1024, 1024, 0, 6, 3818, 3784, 3764, 3798, 3841, 3808, 0, 1, 10699, -89.900, 0.000, -46.400, 0.000, 0.000, -2.800, 0.0, , , , , , 97, , , 0, 0, 0
37.0516694, -119.2428407, 15.800, 09:33:15.430, 17, 0.00, 0.10, 98, -1.700, 0.600, -45.400, 2, 100, 100, 15, 22856, -17701, 5306, 5415, 15, 14, 1529339595.430, 65, 0, 1024, 1024, 1024, 1024, 0, 6, 3818, 3784, 3764, 3798, 3841, 3808, 0, 1, 10799, -89.900, 0.000, -46.400, 0.000, 0.000, -2.800, 0.0, , , , , , 97, , , 0, 0, 0
37.0516695, -119.2428406, 16.100, 09:33:15.530, 17, 0.00, 0.09, 98, -1.800, 0.900, -45.400, 2, 100, 100, 15, 22856, -17701, 5306, 5415, 15, 14, 1529339595.530, 60, 0, 1024, 1024, 1024, 1024, 0, 6, 3818, 3784, 3764, 3798, 3841, 3808, 0, 1, 10899, -89.900, 0.000, -46.400, 0.000, 0.000, -2.800, 0.0, , , , , , 97, , , 0, 0, 0
37.0516695, -119.2428406, 16.300, 09:33:15.630, 17, 0.00, 0.09, 98, -2.000, 1.000, -45.400, 2, 100, 100, 15, 22856, -17701, 5306, 5415, 15, 14, 1529339595.630, 55, 0, 1024, 1024, 1024, 1024, 0, 6, 3818, 3784, 3764, 3798, 3841, 3808, 0, 1, 10999, -89.900, 0.000, -46.400, 0.000, 0.000, -2.800, 0.0, , , , , , 97, , , 0, 0, 0
37.0516695, -119.2428405, 16.600, 09:33:15.730, 17, 0.00, 0.08, 98, -2.100, 1.000, -45.400, 2, 100, 100, 15, 22856, -17701, 5306, 5415, 15, 14, 1529339595.730, 59, 0, 1024, 1024, 1024, 1024, 0, 6, 3818, 3784, 3764, 3798, 3841, 3808, 0, 1, 11099, -89.900, 0.000, -46.400, 0.000, 0.000, -2.800, 0.0, , , , , , 97, , , 0, 0, 0
37.0516696, -119.2428405, 16.900, 09:33:15.830, 17, 0.00, 0.08, 98, -2.200, 1.100, -45.300, 2, 100, 100, 15, 22856, -17701, 5306, 5415, 15, 14, 1529339595.830, 41, 0, 1024, 1024, 1024, 1024, 0, 6, 3818, 3784, 3764, 3798, 3841, 3808, 0, 1, 11199, -89.900, 0.000, -46.400, 0.000, 0.000, -2.800, 0.0, , , , , , 97, , , 0, 0, 0
37.0516696, -119.2428405, 17.200, 09:33:15.930, 17, 0.00, 0.08, 98, -2.000, 1.200, -45.300, 2, 100, 100, 15, 22854, -17462, 5306, 5415, 15, 14, 1529339595.930, 32, 0, 1024, 1024, 1024, 1024, 0, 6, 3818, 3784, 3764, 3798, 3841, 3808, 0, 1, 11299, -89.900, 0.000, -46.400, 0.000, 0.000, -2.800, 0.0, , , , , , 97, , , 0, 0, 0
37.0516696, -119.2428404, 17.500, 09:33:16.030, 17, 0.00, 0.07, 98, -1.800, 1.400, -45.300, 2, 100, 100, 15, 22854, -17462, 5306, 5415, 15, 14, 1529339596.030, 23, 0, 1024, 1024, 1024, 1024, 0, 6, 3818, 3784, 3764, 3798, 3841, 3808, 0, 1, 11399, -89.900, 0.000, -46.400, 0.000, 0.000, -2.800, 0.0, , , , , , 97, , , 0, 0, 0
37.0516696, -119.2428404, 17.700, 09:33:16.130, 17, 0.00, 0.07, 98, -1.600, 1.600, -45.400, 2, 100, 100, 15, 22854, -17462, 5306, 5415, 15, 14, 1529339596.130, 24, 0, 1024, 1024, 1024, 1024, 0, 6, 3818, 3784, 3764, 3798, 3841, 3808, 0, 1, 11499, -89.900, 0.000, -46.400, 0.000, 0.000, -2.800, 0.0, , , , , , 97, , , 0, 0, 0
37.0516696, -119.2428404, 18.000, 09:33:16.230, 17, 0.00, 0.07, 98, -1.500, 1.600, -45.500, 2, 100, 100, 15, 22854, -17462, 5306, 5415, 15, 14, 1529339596.230, 27, 0, 1024, 1024, 1024, 1024, 0, 6, 3818, 3784, 3764, 3798, 3841, 3808, 0, 1, 11599, -89.900, 0.000, -46.400, 0.000, 0.000, -2.800, 0.0, , , , , , 97, , , 0, 0, 0
37.0516696, -119.2428405, 18.300, 09:33:16.330, 17, 0.00, 0.08, 98, -1.400, 1.600, -45.400, 2, 100, 100, 15, 22854, -17462, 5306, 5415, 15, 14, 1529339596.330, 29, 0, 1024, 1024, 1024, 1024, 0, 6, 3818, 3784, 3764, 3798, 3841, 3808, 0, 1, 11699, -89.900, 0.000, -46.400, 0.000, 0.000, -2.800, 0.0, , , , , , 97, , , 0, 0, 0
37.0516696, -119.2428405, 18.600, 09:33:16.430, 17, 0.00, 0.08, 98, -1.200, 1.700, -45.300, 2, 100, 100, 15, 22854, -17462, 5306, 5415, 15, 14, 1529339596.430, 33, 0, 1024, 1024, 1024, 1024, 0, 6, 3818, 3784, 3764, 3798, 3841, 3808, 0, 1, 11799, -89.900, 0.000, -46.400, 0.000, 0.000, -2.900, 0.0, , , , , , 97, , , 0, 0, 0
37.0516696, -119.2428405, 18.900, 09:33:16.530, 17, 0.00, 0.08, 98, -1.100, 1.800, -45.100, 2, 100, 100, 15, 22854, -17462, 5306, 5415, 15, 14, 1529339596.530, 22, 0, 1024, 1024, 1024, 1024, 0, 6, 3818, 3784, 3764, 3798, 3841, 3808, 0, 1, 11899, -89.900, 0.000, -46.400, 0.000, 0.000, -2.900, 0.0, , , , , , 97, , , 0, 0, 0
37.0516696, -119.2428405, 18.900, 09:33:16.630, 17, 0.00, 0.08, 98, -1.100, 1.800, -45.100, 2, 100, 100, 15, 22854, -17462, 5306, 5415, 15, 14, 1529339596.630, 122, 0, 1024, 1024, 1024, 1024, 0, 6, 3818, 3784, 3764, 3798, 3841, 3808, 0, 1, 11999, -89.900, 0.000, -46.400, 0.000, 0.000, -2.900, 0.0, , , , , , 97, , , 0, 0, 0
37.0516695, -119.2428405, 19.200, 09:33:16.730, 17, 0.00, 0.08, 98, -1.000, 1.600, -45.000, 2, 100, 100, 15, 22854, -17462, 5306, 5415, 15, 14, 1529339596.730, 92, 0, 1024, 1024, 1024, 1024, 0, 6, 3818, 3784, 3764, 3798, 3841, 3808, 0, 1, 12099, -89.900, 0.000, -46.400, 0.000, 0.000, -2.900, 0.0, , , , , , 97, , , 0, 0, 0
37.0516695, -119.2428406, 19.500, 09:33:16.830, 17, 0.00, 0.09, 98, -0.600, 1.600, -45.000, 2, 100, 100, 15, 22854, -17462, 5306, 5415, 15, 14, 1529339596.830, 92, 0, 1024, 1024, 1024, 1024, 0, 6, 3818, 3784, 3764, 3798, 3841, 3808, 0, 1, 12199, -89.900, 0.000, -46.400, 0.000, 0.000, -2.900, 0.0, , , , , , 97, , , 0, 0, 0
37.0516693, -119.2428407, 20.100, 09:33:16.930, 17, 0.00, 0.10, 98, 0.000, 1.600, -45.300, 2, 100, 100, 15, 22854, -17462, 5306, 5415, 15, 14, 1529339596.930, 74, 0, 1024, 1024, 1024, 1024, 0, 6, 3818, 3784, 3764, 3798, 3841, 3808, 0, 1, 12299, -89.900, 0.000, -46.400, 0.000, 0.000, -2.900, 0.0, , , , , , 97, , , 0, 0, 0
37.0516693, -119.2428408, 20.300, 09:33:17.030, 17, 0.00, 0.10, 98, 0.100, 1.700, -45.400, 2, 100, 100, 15, 22704, -18618, 5306, 5415, 15, 14, 1529339597.030, 88, 0, 1024, 1024, 1024, 1024, 0, 6, 3786, 3760, 3745, 3780, 3809, 3781, 0, 1, 12399, -89.900, 0.000, -46.400, 0.000, 0.000, -2.900, 0.0, , , , , , 97, , , 0, 0, 0
37.0516692, -119.2428408, 20.600, 09:33:17.130, 17, 0.00, 0.11, 98, 0.200, 1.800, -45.400, 2, 100, 99, 15, 22704, -18618, 5306, 5415, 15, 14, 1529339597.130, 79, 0, 1024, 1024, 1024, 1024, 0, 6, 3786, 3760, 3745, 3780, 3809, 3781, 0, 1, 12499, -89.900, 0.000, -46.400, 0.000, 0.000, -2.900, 0.0, , , , , , 97, , , 0, 0, 0
37.0516691, -119.2428408, 20.900, 09:33:17.230, 17, 0.00, 0.12, 98, 0.300, 1.600, -45.400, 2, 100, 99, 15, 22704, -18618, 5306, 5415, 15, 14, 1529339597.230, 86, 0, 1024, 1024, 1024, 1024, 0, 6, 3786, 3760, 3745, 3780, 3809, 3781, 0, 1, 12599, -89.900, 0.000, -46.400, 0.000, 0.000, -2.900, 0.0, , , , , , 97, , , 0, 0, 0
37.0516691, -119.2428409, 21.200, 09:33:17.330, 17, 0.00, 0.12, 98, 0.300, 1.500, -45.400, 2, 100, 99, 15, 22704, -18618, 5306, 5415, 15, 14, 1529339597.330, 65, 0, 1024, 1024, 1024, 1024, 0, 6, 3786, 3760, 3745, 3780, 3809, 3781, 0, 1, 12699, -89.900, 0.000, -46.400, 0.000, 0.000, -3.000, 0.0, , , , , , 97, , , 0, 0, 0
37.0516691, -119.2428409, 21.200, 09:33:17.430, 17, 0.00, 0.12, 98, 0.300, 1.500, -45.400, 2, 100, 99, 15, 22704, -18618, 5306, 5415, 15, 14, 1529339597.430, 165, 0, 1024, 1024, 1024, 1024, 0, 6, 3786, 3760, 3745, 3780, 3809, 3781, 0, 1, 12799, -89.900, 0.000, -46.400, 0.000, 0.000, -3.000, 0.0, , , , , , 97, , , 0, 0, 0
37.0516689, -119.2428410, 21.800, 09:33:17.530, 17, 0.00, 0.14, 98, 0.400, 1.400, -45.400, 2, 100, 99, 15, 22704, -18618, 5306, 5415, 15, 14, 1529339597.530, 63, 0, 1024, 1024, 1024, 1024, 0, 6, 3786, 3760, 3745, 3780, 3809, 3781, 0, 1, 12899, -89.900, 0.000, -46.400, 0.000, 0.000, -3.000, 0.0, , , , , , 97, , , 0, 0, 0
37.0516689, -119.2428410, 22.100, 09:33:17.630, 17, 0.00, 0.14, 98, 0.300, 1.200, -45.500, 2, 100, 99, 15, 22704, -18618, 5306, 5415, 15, 14, 1529339597.630, 55, 0, 1024, 1024, 1024, 1024, 0, 6, 3786, 3760, 3745, 3780, 3809, 3781, 0, 1, 12999, -90.000, 0.000, -46.400, 0.000, 0.000, -3.100, 0.0, , , , , , 97, , , 0, 0, 0
37.0516688, -119.2428410, 22.400, 09:33:17.730, 17, 0.00, 0.15, 98, 0.200, 1.000, -45.500, 2, 100, 99, 15, 22704, -18618, 5306, 5415, 15, 14, 1529339597.730, 56, 0, 1024, 1024, 1024, 1024, 0, 6, 3786, 3760, 3745, 3780, 3809, 3781, 0, 1, 13099, -89.900, 0.000, -46.400, 0.000, 0.000, -3.000, 0.0, , , , , , 97, , , 0, 0, 0
37.0516687, -119.2428410, 22.700, 09:33:17.830, 17, 0.00, 0.15, 98, 0.200, 1.000, -45.600, 2, 100, 99, 15, 22704, -18618, 5306, 5415, 15, 14, 1529339597.830, 46, 0, 1024, 1024, 1024, 1024, 0, 6, 3786, 3760, 3745, 3780, 3809, 3781, 0, 1, 13199, -90.000, 0.000, -46.400, 0.000, 0.000, -3.100, 0.0, , , , , , 97, , , 0, 0, 0
37.0516687, -119.2428411, 23.100, 09:33:17.930, 17, 0.00, 0.16, 98, 0.200, 1.000, -45.700, 2, 100, 99, 15, 22614, -19128, 5252, 5415, 15, 14, 1529339597.930, 39, 0, 1024, 1024, 1024, 1024, 0, 6, 3786, 3760, 3745, 3780, 3809, 3781, 0, 1, 13299, -89.900, 0.000, -46.400, 0.000, 0.000, -3.100, 0.0, , , , , , 97, , , 0, 0, 0
37.0516686, -119.2428411, 23.400, 09:33:18.030, 17, 0.00, 0.16, 98, 0.300, 1.200, -45.700, 2, 100, 99, 15, 22614, -19128, 5252, 5415, 15, 14, 1529339598.030, 31, 0, 1024, 1024, 1024, 1024, 0, 6, 3776, 3750, 3739, 3768, 3802, 3779, 0, 1, 13399, -89.900, 0.000, -46.400, 0.000, 0.000, -3.000, 0.0, , , , , , 97, , , 0, 0, 0
37.0516686, -119.2428412, 23.700, 09:33:18.130, 17, 0.00, 0.17, 98, 0.400, 1.300, -45.700, 2, 100, 99, 15, 22614, -19128, 5252, 5415, 15, 14, 1529339598.130, 49, 0, 1024, 1024, 1024, 1024, 0, 6, 3776, 3750, 3739, 3768, 3802, 3779, 0, 1, 13499, -89.900, 0.000, -46.400, 0.000, 0.000, -3.000, 0.0, , , , , , 97, , , 0, 0, 0
37.0516686, -119.2428413, 24.000, 09:33:18.230, 17, 0.00, 0.18, 98, 0.400, 1.500, -45.600, 2, 100, 99, 15, 22614, -19128, 5252, 5415, 15, 14, 1529339598.230, 45, 0, 1024, 1024, 1024, 1024, 0, 6, 3776, 3750, 3739, 3768, 3802, 3779, 0, 1, 13599, -89.900, 0.000, -46.400, 0.000, 0.000, -3.000, 0.0, , , , , , 97, , , 0, 0, 0
37.0516686, -119.2428413, 24.000, 09:33:18.330, 17, 0.00, 0.18, 98, 0.400, 1.500, -45.600, 2, 100, 99, 15, 22614, -19128, 5252, 5415, 15, 14, 1529339598.330, 145, 0, 1024, 1024, 1024, 1024, 0, 6, 3776, 3750, 3739, 3768, 3802, 3779, 0, 1, 13699, -89.900, 0.000, -46.400, 0.000, 0.000, -3.000, 0.0, , , , , , 97, , , 0, 0, 0
37.0516685, -119.2428414, 24.600, 09:33:18.430, 17, 0.00, 0.19, 98, 0.400, 1.700, -45.400, 2, 100, 99, 15, 22614, -19128, 5252, 5415, 15, 14, 1529339598.430, 13, 0, 1024, 1024, 1024, 1024, 0, 6, 3776, 3750, 3739, 3768, 3802, 3779, 0, 1, 13799, -89.900, 0.000, -46.400, 0.000, 0.000, -3.000, 0.0, , , , , , 97, , , 0, 0, 0
37.0516685, -119.2428415, 24.900, 09:33:18.530, 17, 0.00, 0.20, 98, 0.700, 1.900, -45.400, 2, 100, 100, 15, 22614, -19128, 5252, 5415, 15, 14, 1529339598.530, 16, 0, 1024, 1024, 1024, 1024, 0, 6, 3776, 3750, 3739, 3768, 3802, 3779, 0, 1, 13899, -89.900, 0.000, -46.400, 0.000, 0.000, -3.000, 0.0, , , , , , 97, , , 0, 0, 0
37.0516685, -119.2428416, 25.200, 09:33:18.630, 17, 0.00, 0.20, 98, 0.600, 1.900, -45.300, 2, 100, 100, 15, 22614, -19128, 5252, 5415, 15, 14, 1529339598.630, 17, 0, 1024, 1024, 1024, 1024, 0, 6, 3776, 3750, 3739, 3768, 3802, 3779, 0, 1, 13999, -89.900, 0.000, -46.400, 0.000, 0.000, -3.000, 0.0, , , , , , 97, , , 0, 0, 0
37.0516685, -119.2428416, 25.500, 09:33:18.730, 17, 0.00, 0.21, 98, 0.500, 1.900, -45.300, 2, 100, 100, 15, 22614, -19128, 5252, 5415, 15, 14, 1529339598.730, 5, 0, 1024, 1024, 1024, 1024, 0, 6, 3776, 3750, 3739, 3768, 3802, 3779, 0, 1, 14099, -89.900, 0.000, -46.400, 0.000, 0.000, -3.000, 0.0, , , , , , 97, , , 0, 0, 0
37.0516685, -119.2428417, 26.100, 09:33:18.830, 17, 0.00, 0.21, 98, 0.200, 2.100, -45.400, 2, 100, 100, 15, 22614, -19128, 5252, 5415, 15, 14, 1529339598.830, 2, 0, 1024, 1024, 1024, 1024, 0, 6, 3776, 3750, 3739, 3768, 3802, 3779, 0, 1, 14199, -89.900, 0.000, -46.400, 0.000, 0.000, -2.900, 0.0, , , , , , 97, , , 0, 0, 0
37.0516685, -119.2428417, 26.100, 09:33:18.930, 17, 0.00, 0.21, 97, 0.200, 2.100, -45.400, 2, 100, 100, 15, 22652, -18268, 5252, 5415, 15, 14, 1529339598.930, 102, 0, 1024, 1024, 1024, 1024, 0, 6, 3776, 3750, 3739, 3768, 3802, 3779, 0, 1, 14299, -89.900, 0.000, -46.400, 0.000, 0.000, -2.900, 0.0, , , , , , 97, , , 0, 0, 0
37.0516685, -119.2428417, 26.100, 09:33:19.030, 17, 0.00, 0.21, 97, 0.200, 2.100, -45.400, 2, 100, 100, 15, 22652, -18268, 5252, 5415, 15, 14, 1529339599.030, 202, 0, 1024, 1024, 1024, 1024, 0, 6, 3776, 3750, 3739, 3768, 3802, 3779, 0, 1, 14399, -89.900, 0.000, -46.400, 0.000, 0.000, -2.900, 0.0, , , , , , 97, , , 0, 0, 0
37.0516686, -119.2428417, 26.700, 09:33:19.130, 17, 0.00, 0.22, 97, 0.000, 2.000, -45.300, 2, 100, 100, 15, 22652, -18268, 5252, 5415, 15, 14, 1529339599.130, 69, 0, 1024, 1024, 1024, 1024, 0, 6, 3776, 3758, 3743, 3767, 3806, 3778, 0, 1, 14499, -89.900, 0.000, -46.400, 0.000, 0.000, -3.000, 0.0, , , , , , 97, , , 0, 0, 0
37.0516686, -119.2428418, 27.100, 09:33:19.230, 17, 0.00, 0.21, 97, -0.200, 1.900, -45.200, 2, 100, 100, 15, 22652, -18268, 5252, 5415, 15, 14, 1529339599.230, 75, 0, 1024, 1024, 1024, 1024, 0, 6, 3776, 3758, 3743, 3767, 3806, 3778, 0, 1, 14599, -89.900, 0.000, -46.400, 0.000, 0.000, -3.000, 0.0, , , , , , 97, , , 0, 0, 0
37.0516686, -119.2428418, 27.100, 09:33:19.330, 17, 0.00, 0.21, 97, -0.200, 1.900, -45.200, 2, 100, 100, 15, 22652, -18268, 5252, 5415, 15, 14, 1529339599.330, 175, 0, 1024, 1024, 1024, 1024, 0, 6, 3776, 3758, 3743, 3767, 3806, 3778, 0, 1, 14699, -89.900, 0.000, -46.400, 0.000, 0.000, -3.000, 0.0, , , , , , 97, , , 0, 0, 0
37.0516687, -119.2428417, 27.700, 09:33:19.430, 17, 0.00, 0.21, 97, -0.400, 2.200, -45.200, 2, 100, 100, 15, 22652, -18268, 5252, 5415, 15, 14, 1529339599.430, 51, 0, 1024, 1024, 1024, 1024, 0, 6, 3776, 3758, 3743, 3767, 3806, 3778, 0, 1, 14799, -89.900, 0.000, -46.400, 0.000, 0.000, -3.000, 0.0, , , , , , 97, , , 0, 0, 0
37.0516687, -119.2428417, 28.000, 09:33:19.530, 17, 0.00, 0.21, 97, -0.600, 2.100, -45.300, 2, 100, 100, 15, 22652, -18268, 5252, 5415, 15, 14, 1529339599.530, 65, 0, 1024, 1024, 1024, 1024, 0, 6, 3776, 3758, 3743, 3767, 3806, 3778, 0, 1, 14899, -89.900, 0.000, -46.400, 0.000, 0.000, -3.000, 0.0, , , , , , 97, , , 0, 0, 0
37.0516687, -119.2428417, 28.300, 09:33:19.630, 17, 0.00, 0.21, 97, -0.700, 2.100, -45.500, 2, 100, 100, 15, 22652, -18268, 5252, 5415, 15, 14, 1529339599.630, 79, 0, 1024, 1024, 1024, 1024, 0, 6, 3776, 3758, 3743, 3767, 3806, 3778, 0, 1, 14999, -89.900, 0.000, -46.400, 0.000, 0.000, -3.000, 0.0, , , , , , 97, , , 0, 0, 0
37.0516688, -119.2428417, 28.600, 09:33:19.730, 17, 0.00, 0.20, 97, -0.700, 2.400, -45.600, 2, 100, 100, 15, 22652, -18268, 5252, 5415, 15, 14, 1529339599.730, 84, 0, 1024, 1024, 1024, 1024, 0, 6, 3776, 3758, 3743, 3767, 3806, 3778, 0, 1, 15099, -89.900, 0.000, -46.400, 0.000, 0.000, -2.900, 0.0, , , , , , 97, , , 0, 0, 0
37.0516688, -119.2428417, 28.900, 09:33:19.830, 17, 0.00, 0.20, 97, -0.700, 2.600, -45.700, 2, 100, 100, 15, 22652, -18268, 5252, 5415, 15, 14, 1529339599.830, 72, 0, 1024, 1024, 1024, 1024, 0, 6, 3776, 3758, 3743, 3767, 3806, 3778, 0, 1, 15199, -89.900, 0.000, -46.400, 0.000, 0.000, -2.900, 0.0, , , , , , 97, , , 0, 0, 0
37.0516688, -119.2428416, 29.200, 09:33:19.930, 17, 0.00, 0.19, 97, -0.700, 2.400, -45.800, 2, 100, 100, 15, 22638, -18308, 5252, 5415, 15, 14, 1529339599.930, 67, 0, 1024, 1024, 1024, 1024, 0, 6, 3776, 3758, 3743, 3767, 3806, 3778, 0, 1, 15299, -89.900, 0.000, -46.400, 0.000, 0.000, -2.800, 0.0, , , , , , 97, , , 0, 0, 0
37.0516688, -119.2428415, 29.500, 09:33:20.030, 17, 0.00, 0.19, 97, -0.800, 1.800, -45.800, 2, 100, 99, 15, 22638, -18308, 5252, 5415, 15, 14, 1529339600.030, 70, 0, 1024, 1024, 1024, 1024, 0, 6, 3776, 3758, 3743, 3767, 3806, 3778, 0, 1, 15399, -90.000, 0.000, -46.400, 0.000, 0.000, -2.800, 0.0, , , , , , 97, , , 0, 0, 0
37.0516688, -119.2428415, 29.700, 09:33:20.130, 17, 0.00, 0.18, 97, -0.700, 1.400, -45.800, 2, 100, 99, 15, 22638, -18308, 5252, 5415, 15, 14, 1529339600.130, 35, 0, 1024, 1024, 1024, 1024, 0, 6, 3776, 3758, 3743, 3767, 3806, 3778, 0, 1, 15499, -90.000, 0.000, -46.400, 0.000, 0.000, -2.800, 0.0, , , , , , 97, , , 0, 0, 0
37.0516688, -119.2428414, 30.000, 09:33:20.230, 17, 0.00, 0.18, 97, -0.500, 1.300, -45.700, 2, 100, 99, 15, 22638, -18308, 5252, 5415, 15, 14, 1529339600.230, 60, 0, 1024, 1024, 1024, 1024, 0, 6, 3776, 3758, 3743, 3767, 3806, 3778, 0, 1, 15599, -89.900, 0.000, -46.400, 0.000, 0.000, -2.800, 0.0, , , , , , 97, , , 0, 0, 0
37.0516688, -119.2428414, 30.300, 09:33:20.330, 17, 0.00, 0.18, 97, -0.400, 1.300, -45.600, 2, 100, 99, 15, 22638, -18308, 5252, 5415, 15, 14, 1529339600.330, 68, 0, 1024, 1024, 1024, 1024, 0, 6, 3776, 3758, 3743, 3767, 3806, 3778, 0, 1, 15699, -89.900, 0.000, -46.400, 0.000, 0.000, -2.900, 0.0, , , , , , 97, , , 0, 0, 0
37.0516687, -119.2428413, 30.600, 09:33:20.430, 17, 0.00, 0.17, 97, -0.600, 1.300, -45.400, 2, 100, 99, 15, 22638, -18308, 5252, 5415, 15, 14, 1529339600.430, 34, 0, 1024, 1024, 1024, 1024, 0, 6, 3772, 3751, 3738, 3762, 3801, 3779, 0, 1, 15799, -90.000, 0.000, -46.400, 0.000, 0.000, -2.900, 0.0, , , , , , 97, , , 0, 0, 0
37.0516687, -119.2428412, 30.900, 09:33:20.530, 17, 0.00, 0.17, 97, -0.800, 1.300, -45.300, 2, 100, 98, 15, 22638, -18308, 5252, 5415, 15, 14, 1529339600.530, 50, 0, 1024, 1024, 1024, 1024, 0, 6, 3772, 3751, 3738, 3762, 3801, 3779, 0, 1, 15899, -89.900, 0.000, -46.400, 0.000, 0.000, -2.900, 0.0, , , , , , 97, , , 0, 0, 0
37.0516687, -119.2428411, 31.200, 09:33:20.630, 17, 0.00, 0.16, 97, -0.700, 1.100, -45.200, 2, 100, 98, 15, 22638, -18308, 5252, 5415, 15, 14, 1529339600.630, 40, 0, 1024, 1024, 1024, 1024, 0, 6, 3772, 3751, 3738, 3762, 3801, 3779, 0, 1, 15999, -90.000, 0.000, -46.400, 0.000, 0.000, -2.900, 0.0, , , , , , 97, , , 0, 0, 0
37.0516687, -119.2428411, 31.500, 09:33:20.729, 17, 0.00, 0.16, 97, -0.600, 0.800, -45.200, 2, 100, 98, 15, 22638, -18308, 5252, 5415, 15, 14, 1529339600.730, 42, 0, 1024, 1024, 1024, 1024, 0, 6, 3772, 3751, 3738, 3762, 3801, 3779, 0, 1, 16099, -90.000, 0.000, -46.400, 0.000, 0.000, -2.800, 0.0, , , , , , 97, , , 0, 0, 0
37.0516686, -119.2428410, 31.800, 09:33:20.829, 17, 0.00, 0.16, 97, -0.600, 0.600, -45.100, 2, 100, 98, 15, 22638, -18308, 5252, 5415, 15, 14, 1529339600.830, 32, 0, 1024, 1024, 1024, 1024, 0, 6, 3772, 3751, 3738, 3762, 3801, 3779, 0, 1, 16199, -90.000, 0.000, -46.400, 0.000, 0.000, -2.800, 0.0, , , , , , 97, , , 0, 0, 0
37.0516686, -119.2428410, 32.000, 09:33:20.929, 17, 0.00, 0.16, 97, -0.400, 0.500, -45.200, 2, 100, 98, 15, 22638, -18308, 5252, 5415, 15, 14, 1529339600.930, 35, 0, 1024, 1024, 1024, 1024, 0, 6, 3772, 3751, 3738, 3762, 3801, 3779, 0, 1, 16299, -89.900, 0.000, -46.400, 0.000, 0.000, -2.800, 0.0, , , , , , 97, , , 0, 0, 0
37.0516686, -119.2428410, 32.300, 09:33:21.029, 17, 0.00, 0.16, 97, -0.200, 0.700, -45.200, 2, 100, 98, 15, 22638, -18308, 5252, 5415, 15, 14, 1529339601.030, 18, 0, 1024, 1024, 1024, 1024, 0, 6, 3772, 3751, 3738, 3762, 3801, 3779, 0, 1, 16399, -89.900, 0.000, -46.400, 0.000, 0.000, -2.900, 0.0, , , , , , 97, , , 0, 0, 0
37.0516686, -119.2428410, 32.300, 09:33:21.130, 17, 0.00, 0.16, 97, -0.200, 0.700, -45.200, 2, 100, 98, 15, 22638, -18308, 5252, 5415, 15, 14, 1529339601.130, 118, 0, 1024, 1024, 1024, 1024, 0, 6, 3772, 3751, 3738, 3762, 3801, 3779, 0, 1, 16499, -89.900, 0.000, -46.400, 0.000, 0.000, -2.900, 0.0, , , , , , 97, , , 0, 0, 0
37.0516686, -119.2428410, 33.200, 09:33:21.230, 17, 0.00, 0.16, 97, 0.700, 1.500, -45.500, 2, 100, 98, 15, 22638, -18308, 5252, 5415, 15, 14, 1529339601.230, 24, 0, 1024, 1024, 1024, 1024, 0, 6, 3772, 3751, 3738, 3762, 3801, 3779, 0, 1, 16599, -89.900, 0.000, -46.400, 0.000, 0.000, -3.000, 0.0, , , , , , 97, , , 0, 0, 0
37.0516686, -119.2428410, 33.200, 09:33:21.329, 17, 0.00, 0.16, 97, 0.700, 1.500, -45.500, 2, 100, 98, 15, 22638, -18308, 5252, 5415, 15, 14, 1529339601.330, 123, 0, 1024, 1024, 1024, 1024, 0, 6, 3772, 3751, 3738, 3762, 3801, 3779, 0, 1, 16699, -89.900, 0.000, -46.400, 0.000, 0.000, -3.000, 0.0, , , , , , 97, , , 0, 0, 0
37.0516686, -119.2428410, 33.200, 09:33:21.429, 17, 0.00, 0.16, 97, 0.700, 1.500, -45.500, 2, 100, 98, 15, 22638, -18308, 5252, 5415, 15, 14, 1529339601.430, 224, 0, 1024, 1024, 1024, 1024, 0, 6, 3772, 3751, 3738, 3762, 3801, 3779, 0, 1, 16799, -89.900, 0.000, -46.400, 0.000, 0.000, -3.000, 0.0, , , , , , 97, , , 0, 0, 0
37.0516686, -119.2428409, 33.500, 09:33:21.529, 17, 0.00, 0.16, 97, 0.600, 1.600, -45.800, 2, 100, 98, 15, 22653, -17967, 5252, 5415, 15, 14, 1529339601.530, 87, 0, 1024, 1024, 1024, 1024, 0, 6, 3773, 3739, 3742, 3751, 3805, 3776, 0, 1, 16899, -89.900, 0.000, -46.400, 0.000, 0.000, -3.100, 0.0, , , , , , 97, , , 0, 0, 0
37.0516686, -119.2428409, 34.100, 09:33:21.629, 17, 0.00, 0.15, 97, -0.500, 2.000, -46.300, 2, 100, 99, 15, 22653, -17967, 5252, 5415, 15, 14, 1529339601.630, 90, 0, 1024, 1024, 1024, 1024, 0, 6, 3773, 3739, 3742, 3751, 3805, 3776, 0, 1, 16999, -89.900, 0.000, -46.400, 0.000, 0.000, -3.000, 0.0, , , , , , 97, , , 0, 0, 0
37.0516686, -119.2428408, 34.500, 09:33:21.729, 17, 0.00, 0.14, 97, -0.900, 1.900, -46.300, 2, 100, 99, 15, 22653, -17967, 5252, 5415, 15, 14, 1529339601.730, 80, 0, 1024, 1024, 1024, 1024, 0, 6, 3773, 3739, 3742, 3751, 3805, 3776, 0, 1, 17099, -89.900, 0.000, -46.400, 0.000, 0.000, -3.000, 0.0, , , , , , 97, , , 0, 0, 0
37.0516687, -119.2428407, 34.800, 09:33:21.829, 17, 0.00, 0.14, 97, -1.100, 1.600, -46.000, 2, 100, 99, 15, 22653, -17967, 5252, 5415, 15, 14, 1529339601.830, 76, 0, 1024, 1024, 1024, 1024, 0, 6, 3773, 3739, 3742, 3751, 3805, 3776, 0, 1, 17199, -89.900, 0.000, -46.400, 0.000, 0.000, -3.100, 0.0, , , , , , 97, , , 0, 0, 0
37.0516687, -119.2428407, 35.100, 09:33:21.929, 17, 0.00, 0.13, 97, -1.000, 1.400, -45.700, 2, 100, 99, 15, 22653, -17967, 5252, 5415, 15, 14, 1529339601.930, 68, 0, 1024, 1024, 1024, 1024, 0, 6, 3773, 3739, 3742, 3751, 3805, 3776, 0, 1, 17299, -89.900, 0.000, -46.400, 0.000, 0.000, -3.100, 0.0, , , , , , 97, , , 0, 0, 0
37.0516687, -119.2428406, 35.400, 09:33:22.029, 17, 0.00, 0.13, 97, -1.200, 1.300, -45.400, 2, 100, 98, 15, 22653, -17967, 5252, 5415, 15, 14, 1529339602.030, 75, 0, 1024, 1024, 1024, 1024, 0, 6, 3773, 3739, 3742, 3751, 3805, 3776, 0, 1, 17399, -90.000, 0.000, -46.400, 0.000, 0.000, -3.000, 0.0, , , , , , 97, , , 0, 0, 0
37.0516687, -119.2428406, 35.700, 09:33:22.129, 17, 0.00, 0.12, 97, -1.400, 1.000, -45.200, 2, 100, 98, 15, 22653, -17967, 5252, 5415, 15, 14, 1529339602.130, 50, 0, 1024, 1024, 1024, 1024, 0, 6, 3773, 3739, 3742, 3751, 3805, 3776, 0, 1, 17499, -90.000, 0.000, -46.400, 0.000, 0.000, -3.000, 0.0, , , , , , 97, , , 0, 0, 0
37.0516687, -119.2428405, 36.000, 09:33:22.229, 17, 0.00, 0.12, 97, -1.400, 0.700, -45.100, 2, 100, 98, 15, 22653, -17967, 5252, 5415, 15, 14, 1529339602.230, 48, 0, 1024, 1024, 1024, 1024, 0, 6, 3773, 3739, 3742, 3751, 3805, 3776, 0, 1, 17599, -90.000, 0.000, -46.400, 0.000, 0.000, -3.000, 0.0, , , , , , 97, , , 0, 0, 0
37.0516688, -119.2428404, 36.300, 09:33:22.329, 17, 0.00, 0.11, 97, -1.300, 0.800, -45.000, 2, 100, 98, 15, 22653, -17967, 5252, 5415, 15, 14, 1529339602.330, 62, 0, 1024, 1024, 1024, 1024, 0, 6, 3773, 3739, 3742, 3751, 3805, 3776, 0, 1, 17699, -89.900, 0.000, -46.400, 0.000, 0.000, -2.900, 0.0, , , , , , 97, , , 0, 0, 0
37.0516688, -119.2428404, 36.600, 09:33:22.429, 17, 0.00, 0.11, 97, -1.300, 1.000, -45.100, 2, 100, 98, 15, 22464, -19338, 5252, 5415, 15, 14, 1529339602.430, 40, 0, 1024, 1024, 1024, 1024, 0, 6, 3752, 3732, 3717, 3739, 3780, 3758, 0, 1, 17799, -90.000, 0.000, -46.400, 0.000, 0.000, -2.900, 0.0, , , , , , 97, , , 0, 0, 0
37.0516688, -119.2428404, 36.900, 09:33:22.529, 17, 0.00, 0.11, 97, -1.400, 1.000, -45.200, 2, 100, 98, 15, 22464, -19338, 5252, 5415, 15, 14, 1529339602.530, 32, 0, 1024, 1024, 1024, 1024, 0, 6, 3752, 3732, 3717, 3739, 3780, 3758, 0, 1, 17899, -89.900, 0.000, -46.400, 0.000, 0.000, -2.900, 0.0, , , , , , 97, , , 0, 0, 0
37.0516688, -119.2428404, 37.200, 09:33:22.629, 17, 0.00, 0.11, 97, -1.200, 1.000, -45.400, 2, 100, 98, 15, 22464, -19338, 5252, 5415, 15, 14, 1529339602.630, 45, 0, 1024, 1024, 1024, 1024, 0, 6, 3752, 3732, 3717, 3739, 3780, 3758, 0, 1, 17999, -89.900, 0.000, -46.400, 0.000, 0.000, -3.000, 0.0, , , , , , 97, , , 0, 0, 0
37.0516688, -119.2428403, 37.500, 09:33:22.729, 17, 0.00, 0.10, 97, -1.000, 1.100, -45.600, 2, 100, 98, 15, 22464, -19338, 5252, 5415, 15, 14, 1529339602.730, 45, 0, 1024, 1024, 1024, 1024, 0, 6, 3752, 3732, 3717, 3739, 3780, 3758, 0, 1, 18099, -90.000, 0.000, -46.400, 0.000, 0.000, -3.000, 0.0, , , , , , 97, , , 0, 0, 0
37.0516688, -119.2428403, 37.800, 09:33:22.830, 17, 0.00, 0.10, 97, -1.000, 1.100, -45.600, 2, 100, 98, 15, 22464, -19338, 5252, 5415, 15, 14, 1529339602.830, 29, 0, 1024, 1024, 1024, 1024, 0, 6, 3752, 3732, 3717, 3739, 3780, 3758, 0, 1, 18199, -89.900, 0.000, -46.400, 0.000, 0.000, -2.900, 0.0, , , , , , 97, , , 0, 0, 0
37.0516688, -119.2428403, 38.100, 09:33:22.929, 17, 0.00, 0.10, 97, -1.000, 1.200, -45.600, 2, 100, 98, 15, 22464, -19338, 5252, 5415, 15, 14, 1529339602.930, 35, 0, 1024, 1024, 1024, 1024, 0, 6, 3752, 3732, 3717, 3739, 3780, 3758, 0, 1, 18299, -89.900, 0.000, -46.400, 0.000, 0.000, -2.900, 0.0, , , , , , 97, , , 0, 0, 0
37.0516688, -119.2428403, 38.400, 09:33:23.029, 17, 0.00, 0.10, 97, -0.900, 1.100, -45.500, 2, 100, 98, 15, 22464, -19338, 5252, 5415, 15, 14, 1529339603.030, 28, 0, 1024, 1024, 1024, 1024, 0, 6, 3752, 3732, 3717, 3739, 3780, 3758, 0, 1, 18399, -90.000, 0.000, -46.400, 0.000, 0.000, -2.900, 0.0, , , , , , 97, , , 0, 0, 0
37.0516688, -119.2428403, 38.700, 09:33:23.129, 17, 0.00, 0.10, 97, -0.800, 1.200, -45.400, 2, 100, 98, 15, 22464, -19338, 5252, 5415, 15, 14, 1529339603.130, 6, 0, 1024, 1024, 1024, 1024, 0, 6, 3752, 3732, 3717, 3739, 3780, 3758, 0, 1, 18499, -89.900, 0.000, -46.400, 0.000, 0.000, -2.900, 0.0, , , , , , 97, , , 0, 0, 0
37.0516688, -119.2428403, 39.400, 09:33:23.235, 17, 0.00, 0.10, 97, -0.800, 1.000, -45.200, 2, 100, 98, 15, 22464, -19338, 5252, 5415, 15, 14, 1529339603.235, 3, 0, 1024, 1024, 1024, 1024, 0, 6, 3752, 3732, 3717, 3739, 3780, 3758, 0, 1, 18605, -90.000, 0.000, -46.400, 0.000, 0.000, -3.000, 0.0, , , , , , 97, , , 0, 0, 0
37.0516688, -119.2428403, 39.400, 09:33:23.329, 17, 0.00, 0.10, 97, -0.800, 1.000, -45.200, 2, 100, 98, 15, 22464, -19338, 5252, 5415, 15, 14, 1529339603.330, 97, 0, 1024, 1024, 1024, 1024, 0, 6, 3752, 3732, 3717, 3739, 3780, 3758, 0, 1, 18699, -89.900, 0.000, -46.400, 0.000, 0.000, -3.000, 0.0, , , , , , 97, , , 0, 0, 0
37.0516688, -119.2428403, 39.400, 09:33:23.429, 17, 0.00, 0.10, 97, -0.800, 1.000, -45.200, 2, 100, 98, 15, 22464, -19338, 5252, 5415, 15, 14, 1529339603.430, 197, 0, 1024, 1024, 1024, 1024, 0, 6, 3752, 3732, 3717, 3739, 3780, 3758, 0, 1, 18799, -89.900, 0.000, -46.400, 0.000, 0.000, -3.000, 0.0, , , , , , 97, , , 0, 0, 0
37.0516687, -119.2428403, 40.300, 09:33:23.530, 17, 0.00, 0.10, 97, -1.000, 1.000, -45.200, 2, 100, 98, 15, 22596, -17701, 5252, 5415, 15, 14, 1529339603.530, 5, 0, 1024, 1024, 1024, 1024, 0, 6, 3775, 3748, 3732, 3759, 3798, 3774, 0, 1, 18899, -89.900, 0.000, -46.400, 0.000, 0.000, -2.900, 0.0, , , , , , 97, , , 0, 0, 0
37.0516687, -119.2428403, 40.300, 09:33:23.629, 17, 0.00, 0.10, 97, -1.000, 1.000, -45.200, 2, 100, 98, 15, 22596, -17701, 5252, 5415, 15, 14, 1529339603.629, 105, 0, 1024, 1024, 1024, 1024, 0, 6, 3775, 3748, 3732, 3759, 3798, 3774, 0, 1, 18999, -89.900, 0.000, -46.400, 0.000, 0.000, -2.900, 0.0, , , , , , 97, , , 0, 0, 0
37.0516687, -119.2428403, 40.600, 09:33:23.729, 17, 0.00, 0.10, 97, -1.100, 1.200, -45.200, 2, 100, 98, 15, 22596, -17701, 5252, 5415, 15, 14, 1529339603.729, 87, 0, 1024, 1024, 1024, 1024, 0, 6, 3775, 3748, 3732, 3759, 3798, 3774, 0, 1, 19099, -89.900, 0.000, -46.400, 0.000, 0.000, -2.800, 0.0, , , , , , 97, , , 0, 0, 0
37.0516688, -119.2428403, 40.900, 09:33:23.829, 17, 0.00, 0.10, 97, -1.000, 1.200, -45.300, 2, 100, 98, 15, 22596, -17701, 5252, 5415, 15, 14, 1529339603.829, 87, 0, 1024, 1024, 1024, 1024, 0, 6, 3775, 3748, 3732, 3759, 3798, 3774, 0, 1, 19199, -89.900, 0.000, -46.400, 0.000, 0.000, -2.900, 0.0, , , , , , 97, , , 0, 0, 0
37.0516688, -119.2428403, 41.100, 09:33:23.929, 17, 0.00, 0.10, 97, -0.900, 1.200, -45.400, 2, 100, 98, 15, 22596, -17701, 5252, 5415, 15, 14, 1529339603.930, 76, 0, 1024, 1024, 1024, 1024, 0, 6, 3775, 3748, 3732, 3759, 3798, 3774, 0, 1, 19299, -89.900, 0.000, -46.400, 0.000, 0.000, -2.900, 0.0, , , , , , 97, , , 0, 0, 0
37.0516688, -119.2428404, 41.400, 09:33:24.029, 17, 0.00, 0.11, 97, -0.800, 1.200, -45.500, 2, 100, 99, 15, 22596, -17701, 5252, 5415, 15, 14, 1529339604.029, 69, 0, 1024, 1024, 1024, 1024, 0, 6, 3775, 3748, 3732, 3759, 3798, 3774, 0, 1, 19399, -89.900, 0.000, -46.400, 0.000, 0.000, -2.900, 0.0, , , , , , 97, , , 0, 0, 0
37.0516687, -119.2428404, 41.700, 09:33:24.129, 17, 0.00, 0.11, 97, -0.800, 1.300, -45.500, 2, 100, 99, 15, 22596, -17701, 5252, 5415, 15, 14, 1529339604.129, 70, 0, 1024, 1024, 1024, 1024, 0, 6, 3775, 3748, 3732, 3759, 3798, 3774, 0, 1, 19499, -89.900, 0.000, -46.400, 0.000, 0.000, -2.900, 0.0, , , , , , 97, , , 0, 0, 0
37.0516687, -119.2428404, 42.000, 09:33:24.229, 17, 0.00, 0.11, 97, -0.700, 1.300, -45.600, 2, 100, 99, 15, 22596, -17701, 5252, 5415, 15, 14, 1529339604.229, 71, 0, 1024, 1024, 1024, 1024, 0, 6, 3775, 3748, 3732, 3759, 3798, 3774, 0, 1, 19599, -89.900, 0.000, -46.400, 0.000, 0.000, -3.000, 0.0, , , , , , 97, , , 0, 0, 0
37.0516687, -119.2428405, 42.300, 09:33:24.329, 17, 0.00, 0.11, 97, -0.700, 1.300, -45.600, 2, 100, 99, 15, 22596, -17701, 5252, 5415, 15, 14, 1529339604.329, 54, 0, 1024, 1024, 1024, 1024, 0, 6, 3775, 3748, 3732, 3759, 3798, 3774, 0, 1, 19699, -89.900, 0.000, -46.400, 0.000, 0.000, -2.900, 0.0, , , , , , 97, , , 0, 0, 0
37.0516687, -119.2428405, 42.600, 09:33:24.429, 17, 0.00, 0.12, 97, -0.700, 1.500, -45.600, 2, 100, 99, 15, 22596, -17701, 5252, 5415, 15, 14, 1529339604.429, 50, 0, 1024, 1024, 1024, 1024, 0, 6, 3775, 3748, 3732, 3759, 3798, 3774, 0, 1, 19799, -89.900, 0.000, -46.400, 0.000, 0.000, -2.900, 0.0, , , , , , 97, , , 0, 0, 0
37.0516687, -119.2428405, 42.900, 09:33:24.529, 17, 0.00, 0.12, 97, -0.600, 1.700, -45.500, 2, 100, 99, 15, 22640, -17439, 5252, 5415, 15, 14, 1529339604.529, 39, 0, 1024, 1024, 1024, 1024, 0, 6, 3777, 3755, 3746, 3770, 3807, 3790, 0, 1, 19899, -89.900, 0.000, -46.400, 0.000, 0.000, -2.900, 0.0, , , , , , 97, , , 0, 0, 0
37.0516687, -119.2428406, 43.200, 09:33:24.629, 17, 0.00, 0.12, 97, -0.700, 1.800, -45.400, 2, 100, 99, 15, 22640, -17439, 5252, 5415, 15, 14, 1529339604.629, 46, 0, 1024, 1024, 1024, 1024, 0, 6, 3777, 3755, 3746, 3770, 3807, 3790, 0, 1, 19999, -89.900, 0.000, -46.400, 0.000, 0.000, -2.900, 0.0, , , , , , 97, , , 0, 0, 0
37.0516688, -119.2428406, 43.500, 09:33:24.729, 17, 0.00, 0.12, 97, -0.600, 1.900, -45.300, 2, 100, 99, 15, 22640, -17439, 5252, 5415, 15, 14, 1529339604.730, 38, 0, 1024, 1024, 1024, 1024, 0, 6, 3777, 3755, 3746, 3770, 3807, 3790, 0, 1, 20099, -89.900, 0.000, -46.400, 0.000, 0.000, -2.900, 0.0, , , , , , 97, , , 0, 0, 0
37.0516688, -119.2428407, 43.800, 09:33:24.829, 17, 0.00, 0.12, 97, -0.700, 1.900, -45.300, 2, 100, 99, 15, 22640, -17439, 5252, 5415, 15, 14, 1529339604.830, 53, 0, 1024, 1024, 1024, 1024, 0, 6, 3777, 3755, 3746, 3770, 3807, 3790, 0, 1, 20199, -89.900, 0.000, -46.400, 0.000, 0.000, -2.900, 0.0, , , , , , 97, , , 0, 0, 0
37.0516688, -119.2428407, 44.100, 09:33:24.929, 17, 0.00, 0.13, 97, -0.800, 1.800, -45.300, 2, 100, 99, 15, 22640, -17439, 5252, 5415, 15, 14, 1529339604.930, 11, 0, 1024, 1024, 1024, 1024, 0, 6, 3777, 3755, 3746, 3770, 3807, 3790, 0, 1, 20299, -89.900, 0.000, -46.400, 0.000, 0.000, -2.900, 0.0, , , , , , 97, , , 0, 0, 0
37.0516688, -119.2428407, 44.400, 09:33:25.029, 17, 0.00, 0.13, 97, -0.900, 1.800, -45.400, 2, 100, 100, 15, 22640, -17439, 5252, 5415, 15, 14, 1529339605.029, 25, 0, 1024, 1024, 1024, 1024, 0, 6, 3777, 3755, 3746, 3770, 3807, 3790, 0, 1, 20399, -89.900, 0.000, -46.400, 0.000, 0.000, -2.900, 0.0, , , , , , 97, , , 0, 0, 0
37.0516688, -119.2428408, 44.700, 09:33:25.129, 17, 0.00, 0.13, 97, -0.800, 1.600, -45.500, 2, 100, 100, 15, 22640, -17439, 5252, 5415, 15, 14, 1529339605.129, 30, 0, 1024, 1024, 1024, 1024, 0, 6, 3777, 3755, 3746, 3770, 3807, 3790, 0, 1, 20499, -89.900, 0.000, -46.400, 0.000, 0.000, -2.900, 0.0, , , , , , 97, , , 0, 0, 0
37.0516688, -119.2428408, 45.000, 09:33:25.229, 17, 0.00, 0.13, 97, -0.700, 1.500, -45.600, 2, 100, 100, 15, 22640, -17439, 5252, 5415, 15, 14, 1529339605.229, 23, 0, 1024, 1024, 1024, 1024, 0, 6, 3777, 3755, 3746, 3770, 3807, 3790, 0, 1, 20599, -90.000, 0.000, -46.400, 0.000, 0.000, -2.900, 0.0, , , , , , 97, , , 0, 0, 0
37.0516688, -119.2428408, 45.300, 09:33:25.329, 17, 0.00, 0.13, 97, -0.600, 1.600, -45.400, 2, 100, 100, 15, 22640, -17439, 5252, 5415, 15, 14, 1529339605.329, 4, 0, 1024, 1024, 1024, 1024, 0, 6, 3777, 3755, 3746, 3770, 3807, 3790, 0, 1, 20699, -89.900, 0.000, -46.400, 0.000, 0.000, -2.900, 0.0, , , , , , 97, , , 0, 0, 0
37.0516688, -119.2428408, 45.600, 09:33:25.429, 17, 0.00, 0.13, 97, -0.700, 1.700, -45.300, 2, 100, 100, 15, 22655, -17265, 5252, 5415, 15, 14, 1529339605.429, 26, 0, 1024, 1024, 1024, 1024, 0, 6, 3777, 3755, 3746, 3770, 3807, 3790, 0, 1, 20799, -89.900, 0.000, -46.400, 0.000, 0.000, -2.800, 0.0, , , , , , 97, , , 0, 0, 0
37.0516688, -119.2428408, 45.900, 09:33:25.529, 17, 0.00, 0.13, 97, -1.000, 1.700, -45.100, 2, 100, 100, 15, 22655, -17265, 5252, 5415, 15, 14, 1529339605.529, 16, 0, 1024, 1024, 1024, 1024, 0, 6, 3777, 3755, 3746, 3770, 3807, 3790, 0, 1, 20898, -89.900, 0.000, -46.400, 0.000, 0.000, -2.900, 0.0, , , , , , 97, , , 0, 0, 0
37.0516688, -119.2428408, 46.200, 09:33:25.631, 17, 0.00, 0.13, 97, -1.300, 1.500, -45.000, 2, 100, 100, 15, 22655, -17265, 5252, 5415, 15, 14, 1529339605.631, 1, 0, 1024, 1024, 1024, 1024, 0, 6, 3777, 3755, 3746, 3770, 3807, 3790, 0, 1, 21000, -89.900, 0.000, -46.400, 0.000, 0.000, -2.900, 0.0, , , , , , 97, , , 0, 0, 0
37.0516688, -119.2428408, 46.200, 09:33:25.729, 17, 0.00, 0.13, 97, -1.300, 1.500, -45.000, 2, 100, 100, 15, 22655, -17265, 5252, 5415, 15, 14, 1529339605.730, 100, 0, 1024, 1024, 1024, 1024, 0, 6, 3777, 3755, 3746, 3770, 3807, 3790, 0, 1, 21099, -90.000, 0.000, -46.400, 0.000, 0.000, -2.900, 0.0, , , , , , 97, , , 0, 0, 0
37.0516687, -119.2428407, 46.800, 09:33:25.829, 17, 0.00, 0.13, 97, -1.100, 0.900, -44.900, 2, 100, 100, 15, 22655, -17265, 5252, 5415, 15, 14, 1529339605.830, 76, 0, 1024, 1024, 1024, 1024, 0, 6, 3777, 3755, 3746, 3770, 3807, 3790, 0, 1, 21199, -90.000, 0.000, -46.400, 0.000, 0.000, -2.900, 0.0, , , , , , 97, , , 0, 0, 0
37.0516686, -119.2428408, 47.400, 09:33:25.931, 17, 0.00, 0.14, 97, -0.300, 0.800, -45.200, 2, 100, 100, 15, 22655, -17265, 5252, 5415, 15, 14, 1529339605.931, 2, 0, 1024, 1024, 1024, 1024, 0, 6, 3777, 3755, 3746, 3770, 3807, 3790, 0, 1, 21300, -90.000, 0.000, -46.400, 0.000, 0.000, -2.900, 0.0, , , , , , 97, , , 0, 0, 0
