Latitude, Longitude, Altitude (m), Time, Sats, Speed (m/s), Range (m), Battery (%), Roll (deg), Pitch (deg), Yaw (deg), Images, HD Signal (%), RC Signal (%), Battery Temp (C), Battery Voltage (mV), Battery Current (mA), Battery Energy (mAh), Battery Capacity (mAh), Battery Discharges, flyState, timestamp (Unix), LastUpdate (ms), radioChannel, Rc_elevator, Rc_aileron, Rc_throttle, Rc_rudder, Rc_gyro, Dronetype, Battery_Cell1 (mV), Battery_Cell2 (mV), Battery_Cell3 (mV), Battery_Cell4 (mV), Battery_Cell5 (mV), Battery_Cell6 (mV), Video, isFlying, elapsedTime (ms), gimbalPitch (deg), gimbalRoll (deg), gimbalYaw (deg), VelocityX (m/s), VelocityY (m/s), VelocityZ (m/s), GroundSmear (cm), App Version, Aircraft Name, Aircraft Firmware, Aircraft Serial Number, Battery Serial Number, Battery Lifetime (%), App_Tip, App_Warning, CurrentFlightStartingIndex, CurrentFlightLastVisitedWaypoint, PreviousFlightEndingWaypointIndex
37.0516793, -119.2428327, -0.100, 09:51:24.462, 18, 0.10, 0.03, 100, -0.700, -2.100, -42.200, 272, 100, 100, 14, 25483, -3920, 5415, 5415, 15, 11, 1529340684.462, 84, 0, 1024, 1024, 1024, 1024, 0, 6, 4200, 4244, 4275, 4248, 4242, 4242, 0, 1, 3103, -90.000, 0.000, -44.900, 0.000, -0.100, 0.000, 0.0, MapPilot_2.8.1_04242018, Dendroctonus I, 1.3.1.00, 041DDC1887, 1058171200149, 97, DJI_0269.jpg, Starting Mission from Lat/Long: 37.05168/-119.24283 Camera: Zenmuse X3 - Overlap: 90/90 - Active Connection: No, 9, 9, 9
37.0516793, -119.2428329, -0.100, 09:51:24.562, 18, 0.10, 0.04, 100, -0.100, -1.600, -42.100, 272, 100, 100, 14, 25483, -3920, 5415, 5415, 15, 11, 1529340684.562, 77, 0, 1024, 1024, 1024, 1024, 0, 6, 4200, 4244, 4275, 4248, 4242, 4242, 0, 1, 3203, -89.900, 0.000, -44.800, 0.000, -0.100, -0.200, 0.0, , , , , , 97, , , 9, 9, 9
37.0516792, -119.2428331, 0.000, 09:51:24.662, 18, 0.10, 0.05, 100, 0.300, -0.700, -42.100, 272, 100, 100, 14, 25483, -3920, 5415, 5415, 15, 11, 1529340684.662, 52, 0, 1024, 1024, 1024, 1024, 0, 6, 4200, 4244, 4275, 4248, 4242, 4242, 0, 1, 3303, -89.900, 0.000, -44.800, 0.000, -0.100, -0.300, 0.0, , , , , , 97, , , 9, 9, 9
37.0516792, -119.2428333, 0.000, 09:51:24.762, 18, 0.10, 0.07, 100, 0.700, -0.100, -42.300, 272, 100, 100, 14, 25483, -3920, 5415, 5415, 15, 11, 1529340684.762, 57, 0, 1024, 1024, 1024, 1024, 0, 6, 4200, 4244, 4275, 4248, 4242, 4242, 0, 1, 3403, -89.900, 0.000, -44.600, 0.000, -0.100, -0.300, 0.0, , , , , , 97, , , 9, 9, 9
37.0516792, -119.2428335, 0.000, 09:51:24.861, 18, 0.10, 0.09, 100, 1.000, 0.400, -42.500, 272, 100, 100, 14, 25483, -3920, 5415, 5415, 15, 11, 1529340684.861, 52, 0, 1024, 1024, 1024, 1024, 0, 6, 4200, 4244, 4275, 4248, 4242, 4242, 0, 1, 3503, -89.900, 0.000, -44.600, 0.000, -0.100, -0.300, 0.0, , , , , , 97, , , 9, 9, 9
37.0516791, -119.2428337, 0.000, 09:51:24.962, 18, 0.10, 0.11, 100, 1.300, 0.900, -42.600, 272, 100, 100, 14, 25483, -3920, 5415, 5415, 15, 11, 1529340684.962, 55, 0, 1024, 1024, 1024, 1024, 0, 6, 4200, 4244, 4275, 4248, 4242, 4242, 0, 1, 3604, -89.900, 0.000, -44.500, 0.000, -0.100, -0.300, 0.0, , , , , , 97, , , 9, 9, 9
37.0516791, -119.2428339, 0.100, 09:51:25.062, 17, 0.10, 0.12, 100, 1.300, 1.200, -42.800, 272, 100, 100, 14, 25483, -3920, 5415, 5415, 15, 11, 1529340685.063, 30, 0, 1024, 1024, 1024, 1024, 0, 6, 4200, 4244, 4275, 4248, 4242, 4242, 0, 1, 3704, -89.900, 0.000, -44.500, 0.000, -0.100, -0.300, 0.0, , , , , , 97, , , 9, 9, 9
37.0516791, -119.2428341, 0.100, 09:51:25.162, 17, 0.10, 0.14, 100, 1.500, 1.300, -42.800, 272, 100, 100, 14, 25483, -3920, 5415, 5415, 15, 11, 1529340685.163, 48, 0, 1024, 1024, 1024, 1024, 0, 6, 4200, 4244, 4275, 4248, 4242, 4242, 0, 1, 3804, -89.900, 0.000, -44.400, 0.000, -0.100, -0.300, 0.0, , , , , , 97, , , 9, 9, 9
37.0516791, -119.2428343, 0.100, 09:51:25.262, 18, 0.10, 0.16, 100, 1.500, 1.200, -42.900, 272, 100, 100, 14, 25483, -3920, 5415, 5415, 15, 11, 1529340685.262, 23, 0, 1024, 1024, 1024, 1024, 0, 6, 4200, 4244, 4275, 4248, 4242, 4242, 0, 1, 3904, -89.900, 0.000, -44.400, 0.000, -0.100, -0.300, 0.0, , , , , , 97, , , 9, 9, 9
37.0516791, -119.2428345, 0.200, 09:51:25.362, 18, 0.10, 0.18, 100, 1.700, 1.200, -42.900, 272, 100, 100, 14, 25483, -3920, 5415, 5415, 15, 11, 1529340685.363, 39, 0, 1024, 1024, 1024, 1024, 0, 6, 4200, 4244, 4275, 4248, 4242, 4242, 0, 1, 4004, -89.900, 0.000, -44.300, 0.000, -0.100, -0.300, 0.0, , , , , , 97, , , 9, 9, 9
37.0516791, -119.2428347, 0.200, 09:51:25.462, 17, 0.10, 0.19, 100, 1.500, 1.300, -42.700, 272, 100, 100, 14, 24499, -8320, 5415, 5415, 15, 11, 1529340685.463, 42, 0, 1024, 1024, 1024, 1024, 0, 6, 4025, 4003, 4003, 4022, 4023, 4032, 0, 1, 4104, -90.000, 0.000, -44.300, 0.000, -0.100, -0.300, 0.0, , , , , , 97, , , 9, 9, 9
37.0516791, -119.2428349, 0.300, 09:51:25.562, 17, 0.10, 0.21, 100, 1.600, 1.500, -42.400, 272, 100, 100, 14, 24499, -8320, 5415, 5415, 15, 11, 1529340685.563, 30, 0, 1024, 1024, 1024, 1024, 0, 6, 4025, 4003, 4003, 4022, 4023, 4032, 0, 1, 4204, -89.900, 0.000, -44.200, 0.000, -0.100, -0.400, 0.0, , , , , , 97, , , 9, 9, 9
37.0516792, -119.2428351, 0.300, 09:51:25.662, 17, 0.10, 0.23, 100, 1.300, 1.800, -42.100, 272, 100, 100, 14, 24499, -8320, 5415, 5415, 15, 11, 1529340685.663, 22, 0, 1024, 1024, 1024, 1024, 0, 6, 4025, 4003, 4003, 4022, 4023, 4032, 0, 1, 4304, -89.900, 0.000, -44.200, 0.000, -0.100, -0.400, 0.0, , , , , , 97, , , 9, 9, 9
37.0516792, -119.2428351, 0.300, 09:51:25.763, 17, 0.10, 0.23, 100, 1.300, 1.800, -42.100, 272, 100, 100, 14, 24499, -8320, 5415, 5415, 15, 11, 1529340685.763, 122, 0, 1024, 1024, 1024, 1024, 0, 6, 4025, 4003, 4003, 4022, 4023, 4032, 0, 1, 4404, -89.900, 0.000, -44.200, 0.000, -0.100, -0.400, 0.0, , , , , , 97, , , 9, 9, 9
37.0516793, -119.2428353, 0.400, 09:51:25.862, 17, 0.10, 0.24, 100, 1.000, 1.700, -41.700, 272, 100, 100, 14, 24499, -8320, 5415, 5415, 15, 11, 1529340685.862, 97, 0, 1024, 1024, 1024, 1024, 0, 6, 4025, 4003, 4003, 4022, 4023, 4032, 0, 1, 4503, -89.900, 0.000, -44.200, 0.000, -0.100, -0.500, 0.0, , , , , , 97, , , 9, 9, 9
37.0516793, -119.2428355, 0.500, 09:51:25.963, 16, 0.10, 0.25, 100, 0.800, 1.500, -41.400, 272, 100, 100, 14, 24499, -8320, 5415, 5415, 15, 11, 1529340685.963, 77, 0, 1024, 1024, 1024, 1024, 0, 6, 4025, 4003, 4003, 4022, 4023, 4032, 0, 1, 4604, -89.900, 0.000, -44.100, 0.000, -0.100, -0.500, 0.0, , , , , , 97, , , 9, 9, 9
37.0516793, -119.2428356, 0.500, 09:51:26.063, 16, 0.10, 0.27, 100, 0.800, 1.400, -41.200, 272, 100, 100, 14, 24499, -8320, 5415, 5415, 15, 11, 1529340686.063, 80, 0, 1024, 1024, 1024, 1024, 0, 6, 4025, 4003, 4003, 4022, 4023, 4032, 0, 1, 4704, -89.900, 0.000, -44.100, 0.000, -0.100, -0.500, 0.0, , , , , , 97, , , 9, 9, 9
37.0516794, -119.2428358, 0.600, 09:51:26.163, 15, 0.10, 0.28, 100, 1.000, 1.600, -41.200, 272, 100, 100, 14, 24499, -8320, 5415, 5415, 15, 11, 1529340686.164, 85, 0, 1024, 1024, 1024, 1024, 0, 6, 4025, 4003, 4003, 4022, 4023, 4032, 0, 1, 4805, -89.900, 0.000, -44.000, 0.000, -0.100, -0.500, 0.0, , , , , , 97, , , 9, 9, 9
37.0516795, -119.2428363, 0.700, 09:51:26.262, 16, 0.10, 0.33, 100, 1.400, 2.000, -41.500, 272, 100, 100, 14, 24499, -8320, 5415, 5415, 15, 11, 1529340686.263, 77, 0, 1024, 1024, 1024, 1024, 0, 6, 4025, 4003, 4003, 4022, 4023, 4032, 0, 1, 4904, -89.900, 0.000, -44.000, 0.000, -0.100, -0.400, 0.0, , , , , , 97, , , 9, 9, 9
37.0516796, -119.2428366, 0.800, 09:51:26.363, 16, 0.10, 0.35, 100, 1.500, 2.500, -41.700, 272, 100, 100, 14, 24499, -8320, 5415, 5415, 15, 11, 1529340686.363, 72, 0, 1024, 1024, 1024, 1024, 0, 6, 4025, 4003, 4003, 4022, 4023, 4032, 0, 1, 5004, -89.900, 0.000, -44.000, 0.000, -0.100, -0.500, 0.0, , , , , , 97, , , 9, 9, 9
37.0516796, -119.2428368, 0.900, 09:51:26.463, 15, 0.10, 0.37, 100, 1.700, 3.100, -41.900, 272, 100, 100, 14, 23666, -15711, 5415, 5415, 15, 11, 1529340686.463, 71, 0, 1024, 1024, 1024, 1024, 0, 6, 3921, 3891, 3935, 3924, 3941, 3923, 0, 1, 5104, -89.900, 0.000, -44.000, 0.000, -0.100, -0.500, 0.0, , , , , , 97, , , 9, 9, 9
37.0516797, -119.2428369, 0.900, 09:51:26.563, 15, 0.10, 0.38, 100, 1.600, 3.500, -41.900, 272, 100, 100, 14, 23666, -15711, 5415, 5415, 15, 14, 1529340686.563, 64, 0, 1024, 1024, 1024, 1024, 0, 6, 3921, 3891, 3935, 3924, 3941, 3923, 0, 1, 5204, -89.900, 0.000, -43.900, 0.000, -0.100, -0.500, 0.0, , , , , , 97, , , 9, 9, 9
37.0516798, -119.2428372, 1.000, 09:51:26.663, 16, 0.10, 0.40, 100, 1.300, 3.500, -42.000, 272, 100, 100, 14, 23666, -15711, 5415, 5415, 15, 14, 1529340686.663, 67, 0, 1024, 1024, 1024, 1024, 0, 6, 3921, 3891, 3935, 3924, 3941, 3923, 0, 1, 5304, -89.900, 0.000, -43.900, 0.000, -0.100, -0.400, 0.0, , , , , , 97, , , 9, 9, 9
37.0516800, -119.2428374, 1.100, 09:51:26.763, 16, 0.10, 0.43, 100, 0.700, 3.300, -42.200, 272, 100, 100, 14, 23666, -15711, 5415, 5415, 15, 14, 1529340686.763, 58, 0, 1024, 1024, 1024, 1024, 0, 6, 3921, 3891, 3935, 3924, 3941, 3923, 0, 1, 5405, -90.000, 0.000, -43.900, 0.000, -0.100, -0.200, 0.0, , , , , , 97, , , 9, 9, 9
37.0516801, -119.2428375, 1.100, 09:51:26.863, 16, 0.10, 0.43, 100, 0.500, 3.000, -42.300, 272, 100, 100, 14, 23666, -15711, 5415, 5415, 15, 14, 1529340686.864, 53, 0, 1024, 1024, 1024, 1024, 0, 6, 3921, 3891, 3935, 3924, 3941, 3923, 0, 1, 5505, -90.000, 0.000, -43.800, 0.000, -0.100, -0.200, 0.0, , , , , , 97, , , 9, 9, 9
37.0516802, -119.2428375, 1.200, 09:51:26.963, 16, 0.00, 0.44, 100, 0.600, 2.700, -42.400, 272, 100, 100, 14, 23666, -15711, 5415, 5415, 15, 14, 1529340686.964, 58, 0, 1024, 1024, 1024, 1024, 0, 6, 3921, 3891, 3935, 3924, 3941, 3923, 0, 1, 5605, -90.000, 0.000, -43.800, 0.000, 0.000, -0.200, 0.0, , , , , , 97, , , 9, 9, 9
37.0516803, -119.2428377, 1.200, 09:51:27.063, 17, 0.00, 0.45, 100, 0.600, 2.700, -42.500, 272, 100, 100, 14, 23666, -15711, 5415, 5415, 15, 14, 1529340687.063, 37, 0, 1024, 1024, 1024, 1024, 0, 6, 3921, 3891, 3935, 3924, 3941, 3923, 0, 1, 5705, -89.900, 0.000, -43.700, 0.000, 0.000, -0.300, 0.0, , , , , , 97, , , 9, 9, 9
37.0516805, -119.2428378, 1.300, 09:51:27.163, 17, 0.00, 0.47, 100, 0.500, 3.000, -42.400, 272, 100, 100, 14, 23666, -15711, 5415, 5415, 15, 14, 1529340687.164, 33, 0, 1024, 1024, 1024, 1024, 0, 6, 3921, 3891, 3935, 3924, 3941, 3923, 0, 1, 5805, -89.900, 0.000, -43.700, 0.000, 0.000, -0.500, 0.0, , , , , , 97, , , 9, 9, 9
37.0516806, -119.2428380, 1.300, 09:51:27.263, 16, 0.00, 0.49, 100, 0.500, 3.300, -42.300, 272, 100, 100, 14, 23666, -15711, 5415, 5415, 15, 14, 1529340687.263, 37, 0, 1024, 1024, 1024, 1024, 0, 6, 3921, 3891, 3935, 3924, 3941, 3923, 0, 1, 5905, -89.900, 0.000, -43.700, 0.000, 0.000, -0.600, 0.0, , , , , , 97, , , 9, 9, 9
37.0516807, -119.2428381, 1.400, 09:51:27.363, 16, 0.00, 0.50, 100, 0.600, 3.200, -42.300, 272, 100, 100, 14, 23666, -15711, 5415, 5415, 15, 14, 1529340687.364, 29, 0, 1024, 1024, 1024, 1024, 0, 6, 3921, 3891, 3935, 3924, 3941, 3923, 0, 1, 6005, -90.000, 0.000, -43.600, 0.000, 0.000, -0.800, 0.0, , , , , , 97, , , 9, 9, 9
37.0516807, -119.2428382, 1.500, 09:51:27.463, 16, 0.00, 0.51, 100, 0.700, 3.000, -42.300, 272, 100, 100, 14, 23425, -16154, 5415, 5415, 15, 14, 1529340687.464, 36, 0, 1024, 1024, 1024, 1024, 0, 6, 3891, 3872, 3961, 3912, 3925, 3907, 0, 1, 6105, -90.000, 0.000, -43.600, 0.000, 0.000, -0.900, 0.0, , , , , , 97, , , 9, 9, 9
37.0516808, -119.2428381, 1.600, 09:51:27.564, 16, 0.00, 0.51, 100, 0.700, 2.800, -42.300, 272, 100, 100, 14, 23425, -16154, 5415, 5415, 15, 14, 1529340687.564, 30, 0, 1024, 1024, 1024, 1024, 0, 6, 3891, 3872, 3961, 3912, 3925, 3907, 0, 1, 6205, -90.000, 0.000, -43.600, 0.000, 0.000, -1.300, 0.0, , , , , , 97, , , 9, 9, 9
37.0516808, -119.2428381, 1.800, 09:51:27.664, 16, 0.00, 0.51, 100, 0.500, 2.700, -42.200, 272, 100, 100, 14, 23425, -16154, 5415, 5415, 15, 14, 1529340687.664, 23, 0, 1024, 1024, 1024, 1024, 0, 6, 3891, 3872, 3961, 3912, 3925, 3907, 0, 1, 6305, -89.900, 0.000, -43.600, 0.000, 0.000, -1.500, 0.0, , , , , , 97, , , 9, 9, 9
37.0516808, -119.2428381, 1.900, 09:51:27.764, 16, 0.00, 0.51, 100, 0.100, 2.700, -41.900, 272, 100, 100, 14, 23425, -16154, 5415, 5415, 15, 14, 1529340687.764, 23, 0, 1024, 1024, 1024, 1024, 0, 6, 3891, 3872, 3961, 3912, 3925, 3907, 0, 1, 6405, -90.000, 0.000, -43.500, 0.000, 0.000, -1.700, 0.0, , , , , , 97, , , 9, 9, 9
37.0516808, -119.2428381, 1.900, 09:51:27.864, 16, 0.00, 0.51, 100, 0.100, 2.700, -41.900, 272, 100, 100, 14, 23425, -16154, 5415, 5415, 15, 14, 1529340687.864, 123, 0, 1024, 1024, 1024, 1024, 0, 6, 3891, 3872, 3961, 3912, 3925, 3907, 0, 1, 6505, -90.000, 0.000, -43.500, 0.000, 0.000, -1.700, 0.0, , , , , , 97, , , 9, 9, 9
37.0516808, -119.2428382, 2.300, 09:51:27.974, 16, 0.00, 0.51, 100, 0.000, 2.500, -41.500, 272, 100, 100, 14, 23425, -16154, 5415, 5415, 15, 14, 1529340687.974, 3, 0, 1024, 1024, 1024, 1024, 0, 6, 3891, 3872, 3961, 3912, 3925, 3907, 0, 1, 6615, -90.000, 0.000, -43.500, 0.000, 0.000, -2.200, 0.0, , , , , , 97, , , 9, 9, 9
37.0516808, -119.2428382, 2.600, 09:51:28.064, 16, 0.00, 0.51, 100, 0.000, 2.500, -41.500, 272, 100, 100, 14, 23425, -16154, 5415, 5415, 15, 14, 1529340688.065, 7, 0, 1024, 1024, 1024, 1024, 0, 6, 3891, 3872, 3961, 3912, 3925, 3907, 0, 1, 6706, -90.000, 0.000, -43.500, 0.000, 0.000, -2.400, 0.0, , , , , , 97, , , 9, 9, 9
37.0516808, -119.2428382, 2.600, 09:51:28.164, 16, 0.00, 0.51, 100, 0.000, 2.500, -41.500, 272, 100, 100, 14, 23425, -16154, 5415, 5415, 15, 14, 1529340688.165, 107, 0, 1024, 1024, 1024, 1024, 0, 6, 3891, 3872, 3961, 3912, 3925, 3907, 0, 1, 6806, -90.000, 0.000, -43.500, 0.000, 0.000, -2.400, 0.0, , , , , , 97, , , 9, 9, 9
37.0516807, -119.2428382, 3.100, 09:51:28.267, 17, 0.00, 0.51, 100, 0.400, 2.300, -42.000, 272, 100, 100, 14, 23425, -16154, 5415, 5415, 15, 14, 1529340688.267, 3, 0, 1024, 1024, 1024, 1024, 0, 6, 3891, 3872, 3961, 3912, 3925, 3907, 0, 1, 6908, -90.000, 0.000, -43.400, 0.000, 0.000, -2.800, 0.0, , , , , , 97, , , 9, 9, 9
37.0516807, -119.2428381, 3.400, 09:51:28.364, 17, 0.00, 0.50, 100, 0.100, 2.200, -42.300, 272, 100, 100, 14, 23285, -18087, 5415, 5415, 15, 14, 1529340688.365, 4, 0, 1024, 1024, 1024, 1024, 0, 6, 3891, 3872, 3961, 3912, 3925, 3907, 0, 1, 7006, -90.000, 0.000, -43.400, 0.000, 0.000, -3.000, 0.0, , , , , , 97, , , 9, 9, 9
37.0516806, -119.2428382, 3.800, 09:51:28.464, 17, 0.00, 0.50, 100, 0.000, 1.900, -42.400, 272, 100, 100, 14, 23285, -18087, 5415, 5415, 15, 14, 1529340688.465, 6, 0, 1024, 1024, 1024, 1024, 0, 6, 3891, 3872, 3961, 3912, 3925, 3907, 0, 1, 7106, -90.000, 0.000, -43.400, 0.000, 0.000, -3.100, 0.0, , , , , , 97, , , 9, 9, 9
37.0516806, -119.2428382, 3.800, 09:51:28.564, 17, 0.00, 0.50, 100, 0.000, 1.900, -42.400, 272, 100, 100, 14, 23285, -18087, 5415, 5415, 15, 14, 1529340688.565, 106, 0, 1024, 1024, 1024, 1024, 0, 6, 3891, 3872, 3961, 3912, 3925, 3907, 0, 1, 7206, -90.000, 0.000, -43.400, 0.000, 0.000, -3.100, 0.0, , , , , , 97, , , 9, 9, 9
37.0516806, -119.2428381, 4.500, 09:51:28.664, 16, 0.00, 0.49, 100, 0.000, 1.400, -42.600, 272, 100, 100, 14, 23285, -18087, 5415, 5415, 15, 14, 1529340688.665, 90, 0, 1024, 1024, 1024, 1024, 0, 6, 3891, 3872, 3961, 3912, 3925, 3907, 0, 1, 7306, -90.000, 0.000, -43.400, 0.000, 0.000, -3.200, 0.0, , , , , , 97, , , 9, 9, 9
37.0516806, -119.2428379, 4.800, 09:51:28.764, 16, 0.10, 0.48, 100, -0.100, 1.200, -42.500, 272, 100, 100, 14, 23285, -18087, 5415, 5415, 15, 14, 1529340688.765, 98, 0, 1024, 1024, 1024, 1024, 0, 6, 3891, 3872, 3961, 3912, 3925, 3907, 0, 1, 7406, -90.000, 0.000, -43.400, 0.000, 0.100, -3.200, 0.0, , , , , , 97, , , 9, 9, 9
37.0516806, -119.2428378, 5.200, 09:51:28.864, 16, 0.10, 0.47, 100, -0.600, 1.200, -42.300, 272, 100, 100, 14, 23285, -18087, 5415, 5415, 15, 14, 1529340688.865, 69, 0, 1024, 1024, 1024, 1024, 0, 6, 3891, 3872, 3961, 3912, 3925, 3907, 0, 1, 7506, -90.000, 0.000, -43.300, 0.000, 0.100, -3.200, 0.0, , , , , , 97, , , 9, 9, 9
37.0516805, -119.2428377, 5.500, 09:51:28.964, 16, 0.00, 0.46, 100, -0.700, 1.600, -42.200, 272, 100, 100, 14, 23285, -18087, 5415, 5415, 15, 14, 1529340688.965, 50, 0, 1024, 1024, 1024, 1024, 0, 6, 3842, 3819, 3836, 3830, 3839, 3852, 0, 1, 7606, -89.900, 0.000, -43.300, 0.000, 0.000, -3.200, 0.0, , , , , , 97, , , 9, 9, 9
37.0516805, -119.2428376, 5.900, 09:51:29.064, 17, 0.00, 0.45, 100, -0.800, 1.300, -42.000, 272, 100, 100, 14, 23285, -18087, 5415, 5415, 15, 14, 1529340689.065, 64, 0, 1024, 1024, 1024, 1024, 0, 6, 3842, 3819, 3836, 3830, 3839, 3852, 0, 1, 7706, -90.000, 0.000, -43.300, 0.000, 0.000, -3.200, 0.0, , , , , , 97, , , 9, 9, 9
37.0516805, -119.2428375, 6.200, 09:51:29.163, 17, 0.00, 0.44, 100, -0.600, 0.900, -41.800, 272, 100, 100, 14, 23285, -18087, 5415, 5415, 15, 14, 1529340689.164, 68, 0, 1024, 1024, 1024, 1024, 0, 6, 3842, 3819, 3836, 3830, 3839, 3852, 0, 1, 7805, -90.000, 0.000, -43.300, 0.000, 0.000, -3.100, 0.0, , , , , , 97, , , 9, 9, 9
37.0516805, -119.2428374, 6.500, 09:51:29.264, 17, 0.00, 0.44, 100, -0.500, 0.300, -41.700, 272, 100, 100, 14, 23285, -18087, 5415, 5415, 15, 14, 1529340689.265, 72, 0, 1024, 1024, 1024, 1024, 0, 6, 3842, 3819, 3836, 3830, 3839, 3852, 0, 1, 7906, -90.000, 0.000, -43.300, 0.000, 0.000, -3.100, 0.0, , , , , , 97, , , 9, 9, 9
37.0516805, -119.2428374, 6.900, 09:51:29.365, 17, 0.00, 0.43, 100, -0.400, 0.100, -41.700, 272, 100, 100, 14, 23285, -18087, 5415, 5415, 15, 14, 1529340689.365, 40, 0, 1024, 1024, 1024, 1024, 0, 6, 3842, 3819, 3836, 3830, 3839, 3852, 0, 1, 8006, -90.000, 0.000, -43.200, 0.000, 0.000, -3.100, 0.0, , , , , , 97, , , 9, 9, 9
37.0516805, -119.2428374, 7.200, 09:51:29.465, 17, 0.00, 0.44, 100, -0.300, 0.500, -41.700, 272, 100, 100, 14, 23285, -18087, 5415, 5415, 15, 14, 1529340689.465, 57, 0, 1024, 1024, 1024, 1024, 0, 6, 3842, 3819, 3836, 3830, 3839, 3852, 0, 1, 8106, -89.900, 0.000, -43.200, 0.000, 0.000, -3.100, 0.0, , , , , , 97, , , 9, 9, 9
37.0516805, -119.2428374, 7.500, 09:51:29.565, 17, 0.00, 0.44, 100, -0.300, 0.900, -41.800, 272, 100, 100, 14, 23285, -18087, 5415, 5415, 15, 14, 1529340689.565, 48, 0, 1024, 1024, 1024, 1024, 0, 6, 3842, 3819, 3836, 3830, 3839, 3852, 0, 1, 8206, -89.900, 0.000, -43.200, 0.000, 0.000, -3.100, 0.0, , , , , , 97, , , 9, 9, 9
37.0516806, -119.2428375, 7.900, 09:51:29.664, 17, 0.00, 0.44, 100, -0.400, 1.300, -41.900, 272, 100, 100, 14, 23285, -18087, 5415, 5415, 15, 14, 1529340689.665, 54, 0, 1024, 1024, 1024, 1024, 0, 6, 3842, 3819, 3836, 3830, 3839, 3852, 0, 1, 8306, -89.900, 0.000, -43.200, 0.000, 0.000, -3.100, 0.0, , , , , , 97, , , 9, 9, 9
37.0516806, -119.2428375, 8.200, 09:51:29.765, 17, 0.00, 0.45, 100, -0.400, 1.600, -42.000, 272, 100, 100, 14, 23285, -18087, 5415, 5415, 15, 14, 1529340689.765, 33, 0, 1024, 1024, 1024, 1024, 0, 6, 3842, 3819, 3836, 3830, 3839, 3852, 0, 1, 8407, -89.900, 0.000, -43.200, 0.000, 0.000, -3.000, 0.0, , , , , , 97, , , 9, 9, 9
37.0516807, -119.2428375, 8.500, 09:51:29.865, 17, 0.00, 0.45, 100, -0.300, 1.800, -42.100, 272, 100, 100, 14, 23285, -18087, 5415, 5415, 15, 14, 1529340689.866, 24, 0, 1024, 1024, 1024, 1024, 0, 6, 3842, 3819, 3836, 3830, 3839, 3852, 0, 1, 8507, -89.900, 0.000, -43.200, 0.000, 0.000, -3.000, 0.0, , , , , , 97, , , 9, 9, 9
37.0516808, -119.2428375, 8.800, 09:51:29.965, 17, 0.00, 0.45, 100, -0.300, 2.000, -42.100, 272, 100, 100, 14, 22481, -20162, 5306, 5415, 15, 14, 1529340689.966, 19, 0, 1024, 1024, 1024, 1024, 0, 6, 3773, 3754, 3795, 3776, 3789, 3764, 0, 1, 8607, -89.900, 0.000, -43.200, 0.000, 0.000, -3.000, 0.0, , , , , , 97, , , 9, 9, 9
37.0516808, -119.2428375, 9.100, 09:51:30.065, 17, 0.00, 0.46, 100, -0.300, 1.900, -42.100, 272, 100, 100, 14, 22481, -20162, 5306, 5415, 15, 14, 1529340690.065, 23, 0, 1024, 1024, 1024, 1024, 0, 6, 3773, 3754, 3795, 3776, 3789, 3764, 0, 1, 8707, -89.900, 0.000, -43.100, 0.000, 0.000, -3.100, 0.0, , , , , , 97, , , 9, 9, 9
37.0516808, -119.2428376, 9.500, 09:51:30.165, 17, 0.00, 0.46, 100, -0.100, 2.000, -42.000, 272, 100, 100, 14, 22481, -20162, 5306, 5415, 15, 14, 1529340690.166, 15, 0, 1024, 1024, 1024, 1024, 0, 6, 3773, 3754, 3795, 3776, 3789, 3764, 0, 1, 8807, -89.900, 0.000, -43.100, 0.000, 0.000, -3.000, 0.0, , , , , , 97, , , 9, 9, 9
37.0516809, -119.2428376, 9.800, 09:51:30.265, 17, 0.00, 0.46, 100, 0.000, 2.200, -42.000, 272, 100, 100, 14, 22481, -20162, 5306, 5415, 15, 14, 1529340690.265, 20, 0, 1024, 1024, 1024, 1024, 0, 6, 3773, 3754, 3795, 3776, 3789, 3764, 0, 1, 8906, -89.900, 0.000, -43.100, 0.000, 0.000, -3.100, 0.0, , , , , , 97, , , 9, 9, 9
37.0516809, -119.2428376, 10.100, 09:51:30.365, 17, 0.00, 0.47, 100, 0.200, 2.100, -42.000, 272, 100, 100, 14, 22481, -20162, 5306, 5415, 15, 14, 1529340690.366, 15, 0, 1024, 1024, 1024, 1024, 0, 6, 3773, 3754, 3795, 3776, 3789, 3764, 0, 1, 9007, -89.900, 0.000, -43.100, 0.000, 0.000, -3.000, 0.0, , , , , , 97, , , 9, 9, 9
37.0516809, -119.2428376, 10.400, 09:51:30.465, 17, 0.00, 0.47, 98, 0.100, 2.000, -42.000, 272, 100, 100, 14, 22481, -20162, 5306, 5415, 15, 14, 1529340690.466, 16, 0, 1024, 1024, 1024, 1024, 0, 6, 3773, 3754, 3795, 3776, 3789, 3764, 0, 1, 9107, -89.900, 0.000, -43.100, 0.000, 0.000, -3.000, 0.0, , , , , , 97, , , 9, 9, 9
37.0516809, -119.2428376, 10.800, 09:51:30.565, 17, 0.00, 0.47, 98, 0.000, 1.700, -42.000, 272, 100, 100, 14, 22481, -20162, 5306, 5415, 15, 14, 1529340690.566, 7, 0, 1024, 1024, 1024, 1024, 0, 6, 3773, 3754, 3795, 3776, 3789, 3764, 0, 1, 9207, -90.000, 0.000, -43.100, 0.000, 0.000, -3.000, 0.0, , , , , , 97, , , 9, 9, 9
37.0516809, -119.2428376, 10.800, 09:51:30.665, 17, 0.00, 0.47, 98, 0.000, 1.700, -42.000, 272, 100, 100, 14, 22481, -20162, 5306, 5415, 15, 14, 1529340690.665, 107, 0, 1024, 1024, 1024, 1024, 0, 6, 3773, 3754, 3795, 3776, 3789, 3764, 0, 1, 9307, -90.000, 0.000, -43.100, 0.000, 0.000, -3.000, 0.0, , , , , , 97, , , 9, 9, 9
37.0516809, -119.2428376, 11.100, 09:51:30.765, 17, 0.00, 0.47, 98, -0.100, 1.600, -42.000, 272, 100, 100, 14, 22481, -20162, 5306, 5415, 15, 14, 1529340690.766, 87, 0, 1024, 1024, 1024, 1024, 0, 6, 3773, 3754, 3795, 3776, 3789, 3764, 0, 1, 9407, -90.000, 0.000, -43.100, 0.000, 0.000, -3.000, 0.0, , , , , , 97, , , 9, 9, 9
37.0516810, -119.2428376, 11.400, 09:51:30.865, 17, 0.00, 0.46, 98, -0.200, 1.500, -42.000, 272, 100, 100, 14, 22481, -20162, 5306, 5415, 15, 14, 1529340690.866, 81, 0, 1024, 1024, 1024, 1024, 0, 6, 3773, 3754, 3795, 3776, 3789, 3764, 0, 1, 9507, -89.900, 0.000, -43.100, 0.000, 0.000, -3.000, 0.0, , , , , , 97, , , 9, 9, 9
37.0516810, -119.2428376, 11.700, 09:51:30.965, 17, 0.00, 0.47, 98, -0.400, 1.600, -42.000, 272, 100, 100, 14, 22749, -19998, 5306, 5415, 15, 14, 1529340690.965, 73, 0, 1024, 1024, 1024, 1024, 0, 6, 3780, 3765, 3814, 3802, 3818, 3790, 0, 1, 9607, -89.900, 0.000, -43.100, 0.000, 0.000, -3.000, 0.0, , , , , , 97, , , 9, 9, 9
37.0516810, -119.2428376, 12.000, 09:51:31.065, 17, 0.00, 0.47, 98, -0.300, 1.700, -42.000, 272, 100, 100, 14, 22749, -19998, 5306, 5415, 15, 14, 1529340691.066, 65, 0, 1024, 1024, 1024, 1024, 0, 6, 3780, 3765, 3814, 3802, 3818, 3790, 0, 1, 9707, -89.900, 0.000, -43.100, 0.000, 0.000, -3.000, 0.0, , , , , , 97, , , 9, 9, 9
37.0516810, -119.2428377, 12.700, 09:51:31.165, 18, 0.00, 0.48, 98, 0.200, 2.000, -42.100, 272, 100, 100, 14, 22749, -19998, 5306, 5415, 15, 14, 1529340691.166, 87, 0, 1024, 1024, 1024, 1024, 0, 6, 3780, 3765, 3814, 3802, 3818, 3790, 0, 1, 9807, -89.900, 0.000, -43.100, 0.000, 0.000, -2.900, 0.0, , , , , , 97, , , 9, 9, 9
37.0516810, -119.2428377, 13.000, 09:51:31.265, 18, 0.00, 0.48, 98, 0.200, 2.100, -42.200, 272, 100, 100, 14, 22749, -19998, 5306, 5415, 15, 14, 1529340691.266, 83, 0, 1024, 1024, 1024, 1024, 0, 6, 3780, 3765, 3814, 3802, 3818, 3790, 0, 1, 9907, -89.900, 0.000, -43.100, 0.000, 0.000, -2.900, 0.0, , , , , , 97, , , 9, 9, 9
37.0516810, -119.2428378, 13.300, 09:51:31.365, 18, 0.00, 0.48, 98, 0.200, 2.200, -42.200, 272, 100, 100, 14, 22749, -19998, 5306, 5415, 15, 14, 1529340691.366, 73, 0, 1024, 1024, 1024, 1024, 0, 6, 3780, 3765, 3814, 3802, 3818, 3790, 0, 1, 10007, -89.900, 0.000, -43.100, 0.000, 0.000, -2.900, 0.0, , , , , , 97, , , 9, 9, 9
37.0516810, -119.2428378, 13.600, 09:51:31.465, 18, 0.00, 0.49, 98, 0.300, 2.300, -42.200, 272, 100, 100, 14, 22749, -19998, 5306, 5415, 15, 14, 1529340691.466, 73, 0, 1024, 1024, 1024, 1024, 0, 6, 3780, 3765, 3814, 3802, 3818, 3790, 0, 1, 10107, -89.900, 0.000, -43.100, 0.000, 0.000, -2.800, 0.0, , , , , , 97, , , 9, 9, 9
37.0516809, -119.2428379, 13.900, 09:51:31.565, 18, 0.00, 0.49, 98, 0.400, 2.200, -42.100, 272, 100, 100, 14, 22749, -19998, 5306, 5415, 15, 14, 1529340691.565, 63, 0, 1024, 1024, 1024, 1024, 0, 6, 3780, 3765, 3814, 3802, 3818, 3790, 0, 1, 10207, -89.900, 0.000, -43.100, 0.000, 0.000, -2.900, 0.0, , , , , , 97, , , 9, 9, 9
37.0516809, -119.2428379, 14.200, 09:51:31.666, 18, 0.00, 0.49, 98, 0.500, 2.300, -42.100, 272, 100, 100, 14, 22749, -19998, 5306, 5415, 15, 14, 1529340691.666, 60, 0, 1024, 1024, 1024, 1024, 0, 6, 3780, 3765, 3814, 3802, 3818, 3790, 0, 1, 10307, -89.900, 0.000, -43.100, 0.000, 0.000, -2.800, 0.0, , , , , , 97, , , 9, 9, 9
37.0516809, -119.2428379, 14.500, 09:51:31.765, 18, 0.00, 0.49, 98, 0.400, 2.300, -42.100, 272, 100, 100, 14, 22749, -19998, 5306, 5415, 15, 14, 1529340691.766, 65, 0, 1024, 1024, 1024, 1024, 0, 6, 3780, 3765, 3814, 3802, 3818, 3790, 0, 1, 10407, -89.900, 0.000, -43.100, 0.000, 0.000, -2.900, 0.0, , , , , , 97, , , 9, 9, 9
37.0516809, -119.2428380, 14.800, 09:51:31.865, 18, 0.00, 0.50, 98, 0.800, 2.400, -42.100, 272, 100, 100, 14, 22749, -19998, 5306, 5415, 15, 14, 1529340691.866, 54, 0, 1024, 1024, 1024, 1024, 0, 6, 3780, 3765, 3814, 3802, 3818, 3790, 0, 1, 10507, -89.900, 0.000, -43.100, 0.000, 0.000, -2.900, 0.0, , , , , , 97, , , 9, 9, 9
37.0516809, -119.2428380, 15.200, 09:51:31.966, 18, 0.00, 0.50, 98, 0.800, 2.600, -42.100, 272, 100, 100, 15, 22841, -19041, 5306, 5415, 15, 14, 1529340691.966, 20, 0, 1024, 1024, 1024, 1024, 0, 6, 3793, 3780, 3825, 3805, 3822, 3806, 0, 1, 10607, -89.900, 0.000, -43.100, 0.000, 0.000, -2.900, 0.0, , , , , , 97, , , 9, 9, 9
37.0516809, -119.2428380, 15.500, 09:51:32.066, 18, 0.00, 0.50, 98, 0.400, 2.700, -42.200, 272, 100, 99, 15, 22841, -19041, 5306, 5415, 15, 14, 1529340692.066, 36, 0, 1024, 1024, 1024, 1024, 0, 6, 3793, 3780, 3825, 3805, 3822, 3806, 0, 1, 10707, -89.900, 0.000, -43.100, 0.000, 0.000, -2.900, 0.0, , , , , , 97, , , 9, 9, 9
37.0516809, -119.2428380, 15.800, 09:51:32.166, 18, 0.00, 0.49, 98, 0.000, 2.600, -42.300, 272, 100, 99, 15, 22841, -19041, 5306, 5415, 15, 14, 1529340692.166, 28, 0, 1024, 1024, 1024, 1024, 0, 6, 3793, 3780, 3825, 3805, 3822, 3806, 0, 1, 10807, -89.900, 0.000, -43.100, 0.000, 0.000, -2.800, 0.0, , , , , , 97, , , 9, 9, 9
37.0516809, -119.2428379, 16.100, 09:51:32.266, 18, 0.00, 0.49, 98, -0.200, 2.200, -42.500, 272, 100, 99, 15, 22841, -19041, 5306, 5415, 15, 14, 1529340692.266, 10, 0, 1024, 1024, 1024, 1024, 0, 6, 3793, 3780, 3825, 3805, 3822, 3806, 0, 1, 10907, -90.000, 0.000, -43.100, 0.000, 0.000, -2.700, 0.0, , , , , , 97, , , 9, 9, 9
37.0516809, -119.2428379, 16.400, 09:51:32.366, 18, 0.00, 0.49, 98, -0.300, 2.100, -42.600, 272, 100, 99, 15, 22841, -19041, 5306, 5415, 15, 14, 1529340692.366, 13, 0, 1024, 1024, 1024, 1024, 0, 6, 3793, 3780, 3825, 3805, 3822, 3806, 0, 1, 11007, -90.000, 0.000, -43.100, 0.000, 0.000, -2.800, 0.0, , , , , , 97, , , 9, 9, 9
37.0516808, -119.2428379, 16.600, 09:51:32.466, 18, 0.00, 0.48, 98, -0.200, 1.800, -42.600, 272, 100, 99, 15, 22841, -19041, 5306, 5415, 15, 14, 1529340692.466, 15, 0, 1024, 1024, 1024, 1024, 0, 6, 3793, 3780, 3825, 3805, 3822, 3806, 0, 1, 11107, -90.000, 0.000, -43.100, 0.000, 0.000, -2.800, 0.0, , , , , , 97, , , 9, 9, 9
37.0516808, -119.2428378, 16.900, 09:51:32.566, 18, 0.00, 0.48, 98, -0.200, 1.300, -42.400, 272, 100, 98, 15, 22841, -19041, 5306, 5415, 15, 14, 1529340692.566, 12, 0, 1024, 1024, 1024, 1024, 0, 6, 3793, 3780, 3825, 3805, 3822, 3806, 0, 1, 11208, -90.000, 0.000, -43.100, 0.000, 0.000, -2.800, 0.0, , , , , , 97, , , 9, 9, 9
37.0516807, -119.2428377, 17.200, 09:51:32.666, 18, 0.00, 0.47, 98, -0.400, 1.200, -42.200, 272, 100, 98, 15, 22841, -19041, 5306, 5415, 15, 14, 1529340692.666, 15, 0, 1024, 1024, 1024, 1024, 0, 6, 3793, 3780, 3825, 3805, 3822, 3806, 0, 1, 11307, -90.000, 0.000, -43.100, 0.000, 0.000, -2.800, 0.0, , , , , , 97, , , 9, 9, 9
37.0516807, -119.2428377, 17.500, 09:51:32.766, 18, 0.00, 0.46, 98, -0.600, 1.300, -42.100, 272, 100, 98, 15, 22841, -19041, 5306, 5415, 15, 14, 1529340692.766, 3, 0, 1024, 1024, 1024, 1024, 0, 6, 3793, 3780, 3825, 3805, 3822, 3806, 0, 1, 11407, -90.000, 0.000, -43.100, 0.000, 0.000, -2.800, 0.0, , , , , , 97, , , 9, 9, 9
37.0516807, -119.2428377, 17.500, 09:51:32.866, 18, 0.00, 0.46, 98, -0.600, 1.300, -42.100, 272, 100, 98, 15, 22841, -19041, 5306, 5415, 15, 14, 1529340692.866, 103, 0, 1024, 1024, 1024, 1024, 0, 6, 3793, 3780, 3825, 3805, 3822, 3806, 0, 1, 11507, -90.000, 0.000, -43.100, 0.000, 0.000, -2.800, 0.0, , , , , , 97, , , 9, 9, 9
37.0516807, -119.2428376, 17.800, 09:51:32.966, 18, 0.00, 0.46, 98, -0.600, 1.500, -42.100, 272, 100, 98, 15, 22758, -19708, 5306, 5415, 15, 14, 1529340692.966, 82, 0, 1024, 1024, 1024, 1024, 0, 6, 3780, 3764, 3801, 3789, 3805, 3793, 0, 1, 11607, -89.900, 0.000, -43.100, 0.000, 0.000, -2.900, 0.0, , , , , , 97, , , 9, 9, 9
37.0516806, -119.2428376, 18.100, 09:51:33.066, 18, 0.00, 0.45, 98, -0.400, 1.700, -42.000, 272, 100, 98, 15, 22758, -19708, 5306, 5415, 15, 14, 1529340693.066, 81, 0, 1024, 1024, 1024, 1024, 0, 6, 3780, 3764, 3801, 3789, 3805, 3793, 0, 1, 11708, -89.900, 0.000, -43.100, 0.000, 0.000, -2.800, 0.0, , , , , , 97, , , 9, 9, 9
37.0516806, -119.2428376, 18.400, 09:51:33.166, 18, 0.00, 0.45, 98, -0.400, 2.000, -42.000, 272, 100, 98, 15, 22758, -19708, 5306, 5415, 15, 14, 1529340693.167, 91, 0, 1024, 1024, 1024, 1024, 0, 6, 3780, 3764, 3801, 3789, 3805, 3793, 0, 1, 11808, -89.900, 0.000, -43.100, 0.000, 0.000, -2.800, 0.0, , , , , , 97, , , 9, 9, 9
37.0516806, -119.2428375, 18.700, 09:51:33.266, 18, 0.00, 0.45, 98, -0.400, 2.000, -42.000, 272, 100, 98, 15, 22758, -19708, 5306, 5415, 15, 14, 1529340693.266, 83, 0, 1024, 1024, 1024, 1024, 0, 6, 3780, 3764, 3801, 3789, 3805, 3793, 0, 1, 11907, -89.900, 0.000, -43.100, 0.000, 0.000, -2.800, 0.0, , , , , , 97, , , 9, 9, 9
37.0516806, -119.2428374, 19.300, 09:51:33.366, 18, 0.00, 0.43, 98, -0.600, 1.800, -42.000, 272, 100, 98, 15, 22758, -19708, 5306, 5415, 15, 14, 1529340693.367, 85, 0, 1024, 1024, 1024, 1024, 0, 6, 3780, 3764, 3801, 3789, 3805, 3793, 0, 1, 12008, -90.000, 0.000, -43.100, 0.000, 0.000, -2.800, 0.0, , , , , , 97, , , 9, 9, 9
37.0516806, -119.2428373, 19.600, 09:51:33.466, 18, 0.00, 0.43, 98, -1.100, 1.600, -42.100, 272, 100, 98, 15, 22758, -19708, 5306, 5415, 15, 14, 1529340693.466, 72, 0, 1024, 1024, 1024, 1024, 0, 6, 3780, 3764, 3801, 3789, 3805, 3793, 0, 1, 12108, -90.000, 0.000, -43.100, 0.000, 0.000, -2.800, 0.0, , , , , , 97, , , 9, 9, 9
37.0516806, -119.2428372, 19.900, 09:51:33.566, 18, 0.00, 0.42, 98, -1.700, 1.500, -42.000, 272, 100, 99, 15, 22758, -19708, 5306, 5415, 15, 14, 1529340693.566, 87, 0, 1024, 1024, 1024, 1024, 0, 6, 3780, 3764, 3801, 3789, 3805, 3793, 0, 1, 12207, -90.000, 0.000, -43.100, 0.000, 0.000, -2.700, 0.0, , , , , , 97, , , 9, 9, 9
37.0516806, -119.2428371, 20.200, 09:51:33.666, 18, 0.00, 0.41, 98, -2.000, 1.400, -42.000, 272, 100, 99, 15, 22758, -19708, 5306, 5415, 15, 14, 1529340693.667, 76, 0, 1024, 1024, 1024, 1024, 0, 6, 3780, 3764, 3801, 3789, 3805, 3793, 0, 1, 12308, -90.000, 0.000, -43.100, 0.000, 0.000, -2.700, 0.0, , , , , , 97, , , 9, 9, 9
37.0516807, -119.2428369, 20.500, 09:51:33.766, 18, 0.00, 0.40, 98, -2.200, 1.600, -42.000, 272, 100, 99, 15, 22758, -19708, 5306, 5415, 15, 14, 1529340693.766, 67, 0, 1024, 1024, 1024, 1024, 0, 6, 3780, 3764, 3801, 3789, 3805, 3793, 0, 1, 12408, -89.900, 0.000, -43.000, 0.000, 0.000, -2.800, 0.0, , , , , , 97, , , 9, 9, 9
37.0516807, -119.2428369, 20.700, 09:51:33.866, 18, 0.00, 0.40, 98, -2.100, 1.800, -42.100, 272, 100, 99, 15, 22758, -19708, 5306, 5415, 15, 14, 1529340693.866, 53, 0, 1024, 1024, 1024, 1024, 0, 6, 3780, 3764, 3801, 3789, 3805, 3793, 0, 1, 12508, -89.900, 0.000, -43.000, 0.000, 0.000, -2.700, 0.0, , , , , , 97, , , 9, 9, 9
37.0516807, -119.2428369, 21.000, 09:51:33.966, 18, 0.00, 0.39, 98, -1.800, 2.000, -42.200, 272, 100, 99, 15, 22691, -20028, 5306, 5415, 15, 14, 1529340693.967, 47, 0, 1024, 1024, 1024, 1024, 0, 6, 3780, 3764, 3801, 3789, 3805, 3793, 0, 1, 12608, -89.900, 0.000, -43.000, 0.000, 0.000, -2.800, 0.0, , , , , , 97, , , 9, 9, 9
37.0516807, -119.2428368, 21.300, 09:51:34.066, 18, 0.00, 0.39, 98, -1.300, 2.400, -42.200, 272, 100, 99, 15, 22691, -20028, 5306, 5415, 15, 14, 1529340694.067, 58, 0, 1024, 1024, 1024, 1024, 0, 6, 3780, 3764, 3801, 3789, 3805, 3793, 0, 1, 12708, -89.900, 0.000, -43.000, 0.000, 0.000, -2.800, 0.0, , , , , , 97, , , 9, 9, 9
37.0516807, -119.2428368, 21.600, 09:51:34.166, 18, 0.00, 0.39, 98, -0.900, 2.500, -42.200, 272, 100, 99, 15, 22691, -20028, 5306, 5415, 15, 14, 1529340694.167, 63, 0, 1024, 1024, 1024, 1024, 0, 6, 3780, 3764, 3801, 3789, 3805, 3793, 0, 1, 12808, -89.900, 0.000, -43.000, 0.000, 0.000, -2.800, 0.0, , , , , , 97, , , 9, 9, 9
37.0516807, -119.2428367, 21.900, 09:51:34.266, 18, 0.00, 0.38, 98, -1.000, 2.400, -42.100, 272, 100, 99, 15, 22691, -20028, 5306, 5415, 15, 14, 1529340694.267, 43, 0, 1024, 1024, 1024, 1024, 0, 6, 3780, 3764, 3801, 3789, 3805, 3793, 0, 1, 12908, -89.900, 0.000, -43.000, 0.000, 0.000, -2.900, 0.0, , , , , , 97, , , 9, 9, 9
37.0516807, -119.2428367, 22.200, 09:51:34.366, 18, 0.00, 0.38, 98, -1.100, 2.200, -42.000, 272, 100, 99, 15, 22691, -20028, 5306, 5415, 15, 14, 1529340694.367, 56, 0, 1024, 1024, 1024, 1024, 0, 6, 3780, 3764, 3801, 3789, 3805, 3793, 0, 1, 13008, -90.000, 0.000, -43.000, 0.000, 0.000, -2.900, 0.0, , , , , , 97, , , 9, 9, 9
37.0516807, -119.2428366, 22.500, 09:51:34.467, 18, 0.00, 0.37, 98, -1.200, 2.000, -42.000, 272, 100, 99, 15, 22691, -20028, 5306, 5415, 15, 14, 1529340694.467, 43, 0, 1024, 1024, 1024, 1024, 0, 6, 3764, 3753, 3789, 3776, 3784, 3784, 0, 1, 13108, -90.000, 0.000, -43.100, 0.000, 0.000, -2.900, 0.0, , , , , , 97, , , 9, 9, 9
37.0516807, -119.2428364, 22.800, 09:51:34.567, 18, 0.00, 0.36, 98, -1.500, 1.900, -42.000, 272, 100, 99, 15, 22691, -20028, 5306, 5415, 15, 14, 1529340694.567, 23, 0, 1024, 1024, 1024, 1024, 0, 6, 3764, 3753, 3789, 3776, 3784, 3784, 0, 1, 13208, -90.000, 0.000, -43.000, 0.000, 0.000, -2.800, 0.0, , , , , , 97, , , 9, 9, 9
37.0516808, -119.2428363, 23.100, 09:51:34.667, 18, 0.00, 0.35, 98, -2.100, 1.800, -42.100, 272, 100, 99, 15, 22691, -20028, 5306, 5415, 15, 14, 1529340694.667, 34, 0, 1024, 1024, 1024, 1024, 0, 6, 3764, 3753, 3789, 3776, 3784, 3784, 0, 1, 13308, -90.000, 0.000, -43.000, 0.000, 0.000, -2.800, 0.0, , , , , , 97, , , 9, 9, 9
37.0516808, -119.2428362, 23.400, 09:51:34.767, 18, 0.00, 0.34, 98, -2.800, 1.600, -42.000, 272, 100, 99, 15, 22691, -20028, 5306, 5415, 15, 14, 1529340694.767, 39, 0, 1024, 1024, 1024, 1024, 0, 6, 3764, 3753, 3789, 3776, 3784, 3784, 0, 1, 13409, -90.000, 0.000, -43.000, 0.000, 0.000, -2.800, 0.0, , , , , , 97, , , 9, 9, 9
37.0516808, -119.2428361, 23.700, 09:51:34.867, 18, 0.00, 0.33, 98, -3.200, 1.300, -41.900, 272, 100, 99, 15, 22691, -20028, 5306, 5415, 15, 14, 1529340694.867, 38, 0, 1024, 1024, 1024, 1024, 0, 6, 3764, 3753, 3789, 3776, 3784, 3784, 0, 1, 13508, -90.000, 0.000, -43.000, 0.000, 0.000, -2.800, 0.0, , , , , , 97, , , 9, 9, 9
37.0516808, -119.2428360, 24.000, 09:51:34.967, 18, 0.00, 0.33, 98, -3.200, 1.300, -41.900, 272, 100, 99, 15, 22691, -20028, 5306, 5415, 15, 14, 1529340694.967, 19, 0, 1024, 1024, 1024, 1024, 0, 6, 3764, 3753, 3789, 3776, 3784, 3784, 0, 1, 13609, -90.000, 0.000, -43.000, 0.000, 0.000, -2.900, 0.0, , , , , , 97, , , 9, 9, 9
37.0516809, -119.2428359, 24.300, 09:51:35.067, 18, 0.00, 0.32, 98, -3.000, 1.500, -41.900, 272, 100, 96, 15, 22691, -20028, 5306, 5415, 15, 14, 1529340695.067, 21, 0, 1024, 1024, 1024, 1024, 0, 6, 3764, 3753, 3789, 3776, 3784, 3784, 0, 1, 13709, -90.000, 0.000, -43.000, 0.000, 0.000, -2.900, 0.0, , , , , , 97, , , 9, 9, 9
37.0516809, -119.2428358, 24.600, 09:51:35.167, 18, 0.00, 0.32, 98, -2.700, 1.600, -42.000, 272, 100, 96, 15, 22691, -20028, 5306, 5415, 15, 14, 1529340695.167, 24, 0, 1024, 1024, 1024, 1024, 0, 6, 3764, 3753, 3789, 3776, 3784, 3784, 0, 1, 13809, -90.000, 0.000, -43.000, 0.000, 0.000, -2.900, 0.0, , , , , , 97, , , 9, 9, 9
37.0516809, -119.2428358, 24.900, 09:51:35.267, 18, 0.00, 0.31, 98, -2.500, 1.800, -42.000, 272, 100, 96, 15, 22691, -20028, 5306, 5415, 15, 14, 1529340695.268, 15, 0, 1024, 1024, 1024, 1024, 0, 6, 3764, 3753, 3789, 3776, 3784, 3784, 0, 1, 13909, -89.900, 0.000, -43.000, 0.000, 0.000, -2.900, 0.0, , , , , , 97, , , 9, 9, 9
37.0516809, -119.2428358, 25.200, 09:51:35.367, 18, 0.00, 0.31, 98, -2.400, 2.100, -41.900, 272, 100, 96, 15, 22691, -20028, 5306, 5415, 15, 14, 1529340695.367, 9, 0, 1024, 1024, 1024, 1024, 0, 6, 3764, 3753, 3789, 3776, 3784, 3784, 0, 1, 14009, -89.900, 0.000, -43.000, 0.000, 0.000, -2.800, 0.0, , , , , , 97, , , 9, 9, 9
37.0516809, -119.2428358, 25.200, 09:51:35.467, 18, 0.00, 0.31, 98, -2.400, 2.100, -41.900, 272, 100, 96, 15, 22691, -20028, 5306, 5415, 15, 14, 1529340695.467, 109, 0, 1024, 1024, 1024, 1024, 0, 6, 3764, 3753, 3789, 3776, 3784, 3784, 0, 1, 14109, -89.900, 0.000, -43.000, 0.000, 0.000, -2.800, 0.0, , , , , , 97, , , 9, 9, 9
37.0516809, -119.2428358, 25.500, 09:51:35.567, 18, 0.00, 0.31, 98, -2.200, 2.400, -41.900, 272, 100, 98, 15, 22478, -21398, 5306, 5415, 15, 14, 1529340695.568, 95, 0, 1024, 1024, 1024, 1024, 0, 6, 3727, 3714, 3778, 3752, 3776, 3749, 0, 1, 14209, -89.900, 0.000, -43.000, 0.000, 0.000, -2.900, 0.0, , , , , , 97, , , 9, 9, 9
37.0516809, -119.2428358, 25.800, 09:51:35.667, 18, 0.00, 0.32, 98, -2.000, 2.400, -41.900, 272, 100, 98, 15, 22478, -21398, 5306, 5415, 15, 14, 1529340695.668, 98, 0, 1024, 1024, 1024, 1024, 0, 6, 3727, 3714, 3778, 3752, 3776, 3749, 0, 1, 14309, -89.900, 0.000, -43.000, 0.000, 0.000, -2.900, 0.0, , , , , , 97, , , 9, 9, 9
37.0516809, -119.2428358, 26.000, 09:51:35.767, 18, 0.00, 0.31, 98, -1.800, 2.200, -41.900, 272, 100, 98, 15, 22478, -21398, 5306, 5415, 15, 14, 1529340695.768, 89, 0, 1024, 1024, 1024, 1024, 0, 6, 3727, 3714, 3778, 3752, 3776, 3749, 0, 1, 14409, -89.900, 0.000, -43.000, 0.000, 0.000, -2.800, 0.0, , , , , , 97, , , 9, 9, 9
37.0516808, -119.2428358, 26.300, 09:51:35.867, 18, 0.00, 0.31, 98, -1.500, 2.000, -42.000, 272, 100, 98, 15, 22478, -21398, 5306, 5415, 15, 14, 1529340695.868, 78, 0, 1024, 1024, 1024, 1024, 0, 6, 3727, 3714, 3778, 3752, 3776, 3749, 0, 1, 14509, -90.000, 0.000, -43.000, 0.000, 0.000, -2.900, 0.0, , , , , , 97, , , 9, 9, 9
37.0516808, -119.2428358, 26.600, 09:51:35.967, 18, 0.00, 0.31, 98, -1.300, 1.900, -42.100, 272, 100, 98, 15, 22478, -21398, 5306, 5415, 15, 14, 1529340695.968, 93, 0, 1024, 1024, 1024, 1024, 0, 6, 3727, 3714, 3778, 3752, 3776, 3749, 0, 1, 14609, -90.000, 0.000, -43.000, 0.000, 0.000, -2.900, 0.0, , , , , , 97, , , 9, 9, 9
37.0516807, -119.2428359, 27.200, 09:51:36.067, 18, 0.00, 0.31, 98, -1.200, 1.900, -42.300, 272, 100, 99, 15, 22478, -21398, 5306, 5415, 15, 14, 1529340696.068, 74, 0, 1024, 1024, 1024, 1024, 0, 6, 3727, 3714, 3778, 3752, 3776, 3749, 0, 1, 14709, -89.900, 0.000, -43.000, 0.000, 0.000, -3.000, 0.0, , , , , , 97, , , 9, 9, 9
37.0516806, -119.2428359, 27.500, 09:51:36.167, 18, 0.00, 0.31, 98, -1.300, 1.800, -42.300, 272, 100, 99, 15, 22478, -21398, 5306, 5415, 15, 14, 1529340696.168, 45, 0, 1024, 1024, 1024, 1024, 0, 6, 3727, 3714, 3778, 3752, 3776, 3749, 0, 1, 14809, -90.000, 0.000, -43.000, 0.000, 0.000, -3.000, 0.0, , , , , , 97, , , 9, 9, 9
37.0516806, -119.2428359, 27.800, 09:51:36.267, 18, 0.00, 0.31, 98, -1.300, 1.600, -42.300, 272, 100, 99, 15, 22478, -21398, 5306, 5415, 15, 14, 1529340696.268, 63, 0, 1024, 1024, 1024, 1024, 0, 6, 3727, 3714, 3778, 3752, 3776, 3749, 0, 1, 14909, -90.000, 0.000, -43.000, 0.000, 0.000, -3.000, 0.0, , , , , , 97, , , 9, 9, 9
37.0516805, -119.2428359, 28.100, 09:51:36.367, 18, 0.00, 0.31, 98, -1.200, 1.600, -42.300, 272, 100, 99, 15, 22478, -21398, 5306, 5415, 15, 14, 1529340696.367, 54, 0, 1024, 1024, 1024, 1024, 0, 6, 3727, 3714, 3778, 3752, 3776, 3749, 0, 1, 15008, -89.900, 0.000, -43.000, 0.000, 0.000, -3.000, 0.0, , , , , , 97, , , 9, 9, 9
37.0516805, -119.2428359, 28.400, 09:51:36.467, 18, 0.00, 0.31, 98, -1.100, 1.600, -42.300, 272, 100, 99, 15, 22450, -21091, 5306, 5415, 15, 14, 1529340696.467, 46, 0, 1024, 1024, 1024, 1024, 0, 6, 3725, 3716, 3770, 3747, 3768, 3741, 0, 1, 15109, -90.000, 0.000, -43.000, 0.000, 0.000, -3.000, 0.0, , , , , , 97, , , 9, 9, 9
37.0516804, -119.2428359, 28.700, 09:51:36.567, 18, 0.00, 0.31, 98, -1.200, 1.600, -42.300, 272, 100, 99, 15, 22450, -21091, 5306, 5415, 15, 14, 1529340696.567, 47, 0, 1024, 1024, 1024, 1024, 0, 6, 3725, 3716, 3770, 3747, 3768, 3741, 0, 1, 15209, -90.000, 0.000, -43.000, 0.000, 0.000, -3.000, 0.0, , , , , , 97, , , 9, 9, 9
37.0516804, -119.2428360, 29.000, 09:51:36.667, 18, 0.00, 0.31, 98, -1.000, 1.600, -42.200, 272, 100, 99, 15, 22450, -21091, 5306, 5415, 15, 14, 1529340696.667, 52, 0, 1024, 1024, 1024, 1024, 0, 6, 3725, 3716, 3770, 3747, 3768, 3741, 0, 1, 15308, -90.000, 0.000, -43.000, 0.000, 0.000, -3.000, 0.0, , , , , , 97, , , 9, 9, 9
37.0516804, -119.2428360, 29.400, 09:51:36.767, 18, 0.00, 0.31, 98, -0.700, 1.600, -42.200, 272, 100, 99, 15, 22450, -21091, 5306, 5415, 15, 14, 1529340696.767, 32, 0, 1024, 1024, 1024, 1024, 0, 6, 3725, 3716, 3770, 3747, 3768, 3741, 0, 1, 15408, -89.900, 0.000, -43.000, 0.000, 0.000, -3.000, 0.0, , , , , , 97, , , 9, 9, 9
37.0516803, -119.2428360, 29.700, 09:51:36.867, 18, 0.00, 0.31, 98, -0.800, 1.600, -42.100, 272, 100, 99, 15, 22450, -21091, 5306, 5415, 15, 14, 1529340696.867, 23, 0, 1024, 1024, 1024, 1024, 0, 6, 3725, 3716, 3770, 3747, 3768, 3741, 0, 1, 15508, -90.000, 0.000, -43.000, 0.000, 0.000, -3.000, 0.0, , , , , , 97, , , 9, 9, 9
37.0516803, -119.2428360, 30.000, 09:51:36.967, 18, 0.00, 0.31, 98, -1.100, 1.500, -42.100, 272, 100, 99, 15, 22450, -21091, 5306, 5415, 15, 14, 1529340696.967, 15, 0, 1024, 1024, 1024, 1024, 0, 6, 3725, 3716, 3770, 3747, 3768, 3741, 0, 1, 15609, -90.000, 0.000, -43.000, 0.000, 0.000, -2.900, 0.0, , , , , , 97, , , 9, 9, 9
37.0516803, -119.2428360, 30.300, 09:51:37.067, 18, 0.00, 0.31, 98, -1.100, 1.500, -42.000, 272, 100, 100, 15, 22450, -21091, 5306, 5415, 15, 14, 1529340697.068, 27, 0, 1024, 1024, 1024, 1024, 0, 6, 3725, 3716, 3770, 3747, 3768, 3741, 0, 1, 15709, -89.900, 0.000, -43.000, 0.000, 0.000, -2.900, 0.0, , , , , , 97, , , 9, 9, 9
37.0516803, -119.2428360, 30.600, 09:51:37.167, 18, 0.00, 0.31, 98, -1.000, 1.700, -42.000, 272, 100, 100, 15, 22450, -21091, 5306, 5415, 15, 14, 1529340697.168, 18, 0, 1024, 1024, 1024, 1024, 0, 6, 3725, 3716, 3770, 3747, 3768, 3741, 0, 1, 15809, -90.000, 0.000, -43.000, 0.000, 0.000, -2.900, 0.0, , , , , , 97, , , 9, 9, 9
37.0516803, -119.2428360, 30.900, 09:51:37.267, 18, 0.00, 0.31, 98, -1.100, 1.700, -42.000, 272, 100, 100, 15, 22450, -21091, 5306, 5415, 15, 14, 1529340697.268, 23, 0, 1024, 1024, 1024, 1024, 0, 6, 3725, 3716, 3770, 3747, 3768, 3741, 0, 1, 15909, -89.900, 0.000, -43.000, 0.000, 0.000, -2.900, 0.0, , , , , , 97, , , 9, 9, 9
37.0516803, -119.2428360, 30.900, 09:51:37.367, 18, 0.00, 0.31, 98, -1.100, 1.700, -42.000, 272, 100, 100, 15, 22450, -21091, 5306, 5415, 15, 14, 1529340697.368, 123, 0, 1024, 1024, 1024, 1024, 0, 6, 3725, 3716, 3770, 3747, 3768, 3741, 0, 1, 16009, -89.900, 0.000, -43.000, 0.000, 0.000, -2.900, 0.0, , , , , , 97, , , 9, 9, 9
37.0516803, -119.2428361, 31.200, 09:51:37.467, 18, 0.00, 0.32, 98, -1.100, 1.700, -42.000, 272, 100, 100, 15, 22450, -21091, 5306, 5415, 15, 14, 1529340697.468, 91, 0, 1024, 1024, 1024, 1024, 0, 6, 3725, 3716, 3770, 3747, 3768, 3741, 0, 1, 16109, -90.000, 0.000, -43.000, 0.000, 0.000, -2.900, 0.0, , , , , , 97, , , 9, 9, 9
37.0516803, -119.2428361, 31.500, 09:51:37.567, 18, 0.00, 0.32, 98, -1.000, 1.700, -42.000, 272, 100, 100, 15, 22509, -20582, 5306, 5415, 15, 14, 1529340697.568, 92, 0, 1024, 1024, 1024, 1024, 0, 6, 3738, 3716, 3778, 3753, 3774, 3752, 0, 1, 16209, -90.000, 0.000, -43.000, 0.000, 0.000, -3.000, 0.0, , , , , , 97, , , 9, 9, 9
37.0516803, -119.2428361, 31.800, 09:51:37.667, 18, 0.00, 0.32, 98, -1.000, 1.700, -42.100, 272, 100, 100, 15, 22509, -20582, 5306, 5415, 15, 14, 1529340697.668, 97, 0, 1024, 1024, 1024, 1024, 0, 6, 3738, 3716, 3778, 3753, 3774, 3752, 0, 1, 16309, -89.900, 0.000, -43.000, 0.000, 0.000, -2.900, 0.0, , , , , , 97, , , 9, 9, 9
37.0516803, -119.2428361, 32.100, 09:51:37.767, 18, 0.00, 0.32, 98, -1.000, 1.700, -42.200, 272, 100, 100, 15, 22509, -20582, 5306, 5415, 15, 14, 1529340697.768, 93, 0, 1024, 1024, 1024, 1024, 0, 6, 3738, 3716, 3778, 3753, 3774, 3752, 0, 1, 16409, -89.900, 0.000, -43.000, 0.000, 0.000, -2.900, 0.0, , , , , , 97, , , 9, 9, 9
37.0516803, -119.2428361, 32.700, 09:51:37.867, 18, 0.00, 0.32, 98, -1.200, 1.600, -42.300, 272, 100, 100, 15, 22509, -20582, 5306, 5415, 15, 14, 1529340697.867, 3, 0, 1024, 1024, 1024, 1024, 0, 6, 3738, 3716, 3778, 3753, 3774, 3752, 0, 1, 16509, -89.900, 0.000, -43.000, 0.000, 0.000, -3.000, 0.0, , , , , , 97, , , 9, 9, 9
37.0516803, -119.2428361, 32.700, 09:51:37.967, 18, 0.00, 0.32, 98, -1.200, 1.600, -42.300, 272, 100, 100, 15, 22509, -20582, 5306, 5415, 15, 14, 1529340697.968, 104, 0, 1024, 1024, 1024, 1024, 0, 6, 3738, 3716, 3778, 3753, 3774, 3752, 0, 1, 16609, -89.900, 0.000, -43.000, 0.000, 0.000, -3.000, 0.0, , , , , , 97, , , 9, 9, 9
37.0516803, -119.2428361, 33.000, 09:51:38.067, 18, 0.00, 0.31, 98, -1.300, 1.600, -42.400, 272, 100, 100, 15, 22509, -20582, 5306, 5415, 15, 14, 1529340698.068, 85, 0, 1024, 1024, 1024, 1024, 0, 6, 3738, 3716, 3778, 3753, 3774, 3752, 0, 1, 16709, -90.000, 0.000, -43.000, 0.000, 0.000, -2.900, 0.0, , , , , , 97, , , 9, 9, 9
37.0516802, -119.2428360, 33.600, 09:51:38.168, 18, 0.00, 0.31, 98, -1.400, 1.300, -42.200, 272, 100, 100, 15, 22509, -20582, 5306, 5415, 15, 14, 1529340698.168, 73, 0, 1024, 1024, 1024, 1024, 0, 6, 3738, 3716, 3778, 3753, 3774, 3752, 0, 1, 16810, -90.000, 0.000, -43.000, 0.000, 0.000, -2.900, 0.0, , , , , , 97, , , 9, 9, 9
37.0516802, -119.2428360, 33.900, 09:51:38.267, 18, 0.00, 0.30, 98, -1.500, 1.200, -42.200, 272, 100, 100, 15, 22509, -20582, 5306, 5415, 15, 14, 1529340698.268, 72, 0, 1024, 1024, 1024, 1024, 0, 6, 3738, 3716, 3778, 3753, 3774, 3752, 0, 1, 16909, -90.000, 0.000, -43.000, 0.000, 0.000, -2.900, 0.0, , , , , , 97, , , 9, 9, 9
37.0516802, -119.2428360, 34.200, 09:51:38.367, 18, 0.00, 0.30, 98, -1.600, 1.200, -42.200, 272, 100, 100, 15, 22509, -20582, 5306, 5415, 15, 14, 1529340698.368, 73, 0, 1024, 1024, 1024, 1024, 0, 6, 3738, 3716, 3778, 3753, 3774, 3752, 0, 1, 17009, -90.000, 0.000, -43.000, 0.000, 0.000, -2.900, 0.0, , , , , , 97, , , 9, 9, 9
37.0516802, -119.2428359, 34.500, 09:51:38.467, 18, 0.00, 0.30, 98, -1.800, 1.300, -42.300, 272, 100, 100, 15, 22506, -19740, 5306, 5415, 15, 14, 1529340698.468, 39, 0, 1024, 1024, 1024, 1024, 0, 6, 3742, 3722, 3781, 3756, 3763, 3757, 0, 1, 17109, -90.000, 0.000, -43.000, 0.000, 0.000, -2.900, 0.0, , , , , , 97, , , 9, 9, 9
37.0516803, -119.2428358, 34.800, 09:51:38.567, 18, 0.00, 0.29, 98, -2.100, 1.200, -42.300, 272, 100, 100, 15, 22506, -19740, 5306, 5415, 15, 14, 1529340698.568, 72, 0, 1024, 1024, 1024, 1024, 0, 6, 3742, 3722, 3781, 3756, 3763, 3757, 0, 1, 17209, -90.000, 0.000, -43.000, 0.000, 0.000, -3.000, 0.0, , , , , , 97, , , 9, 9, 9
37.0516803, -119.2428358, 35.100, 09:51:38.668, 18, 0.00, 0.29, 98, -2.500, 1.300, -42.300, 272, 100, 100, 15, 22506, -19740, 5306, 5415, 15, 14, 1529340698.668, 39, 0, 1024, 1024, 1024, 1024, 0, 6, 3742, 3722, 3781, 3756, 3763, 3757, 0, 1, 17309, -90.000, 0.000, -43.000, 0.000, 0.000, -3.000, 0.0, , , , , , 97, , , 9, 9, 9
37.0516803, -119.2428357, 35.400, 09:51:38.767, 18, 0.00, 0.28, 98, -2.600, 1.400, -42.300, 272, 100, 100, 15, 22506, -19740, 5306, 5415, 15, 14, 1529340698.767, 41, 0, 1024, 1024, 1024, 1024, 0, 6, 3742, 3722, 3781, 3756, 3763, 3757, 0, 1, 17408, -90.000, 0.000, -43.000, 0.000, 0.000, -2.900, 0.0, , , , , , 97, , , 9, 9, 9
37.0516803, -119.2428357, 35.700, 09:51:38.868, 18, 0.00, 0.28, 98, -2.500, 1.400, -42.300, 272, 100, 100, 15, 22506, -19740, 5306, 5415, 15, 14, 1529340698.868, 47, 0, 1024, 1024, 1024, 1024, 0, 6, 3742, 3722, 3781, 3756, 3763, 3757, 0, 1, 17509, -89.900, 0.000, -43.000, 0.000, 0.000, -2.900, 0.0, , , , , , 97, , , 9, 9, 9
37.0516803, -119.2428356, 36.000, 09:51:38.968, 18, 0.00, 0.28, 98, -2.300, 1.400, -42.200, 272, 100, 100, 15, 22506, -19740, 5306, 5415, 15, 14, 1529340698.968, 30, 0, 1024, 1024, 1024, 1024, 0, 6, 3742, 3722, 3781, 3756, 3763, 3757, 0, 1, 17610, -90.000, 0.000, -43.000, 0.000, 0.000, -2.800, 0.0, , , , , , 97, , , 9, 9, 9
37.0516803, -119.2428355, 36.300, 09:51:39.068, 18, 0.00, 0.27, 98, -1.900, 1.300, -42.100, 272, 100, 100, 15, 22506, -19740, 5306, 5415, 15, 14, 1529340699.068, 27, 0, 1024, 1024, 1024, 1024, 0, 6, 3742, 3722, 3781, 3756, 3763, 3757, 0, 1, 17709, -90.000, 0.000, -43.000, 0.000, 0.000, -2.900, 0.0, , , , , , 97, , , 9, 9, 9
37.0516803, -119.2428354, 36.600, 09:51:39.167, 18, 0.00, 0.26, 98, -1.700, 1.000, -42.100, 272, 100, 100, 15, 22506, -19740, 5306, 5415, 15, 14, 1529340699.167, 36, 0, 1024, 1024, 1024, 1024, 0, 6, 3742, 3722, 3781, 3756, 3763, 3757, 0, 1, 17809, -90.000, 0.000, -43.000, 0.000, 0.000, -2.900, 0.0, , , , , , 97, , , 9, 9, 9
37.0516803, -119.2428354, 36.900, 09:51:39.268, 18, 0.00, 0.26, 98, -1.900, 1.000, -42.000, 272, 100, 100, 15, 22506, -19740, 5306, 5415, 15, 14, 1529340699.268, 39, 0, 1024, 1024, 1024, 1024, 0, 6, 3742, 3722, 3781, 3756, 3763, 3757, 0, 1, 17910, -90.000, 0.000, -43.000, 0.000, 0.000, -3.000, 0.0, , , , , , 97, , , 9, 9, 9
37.0516803, -119.2428354, 37.200, 09:51:39.368, 18, 0.00, 0.26, 98, -2.100, 0.900, -41.800, 272, 100, 100, 15, 22506, -19740, 5306, 5415, 15, 14, 1529340699.368, 28, 0, 1024, 1024, 1024, 1024, 0, 6, 3742, 3722, 3781, 3756, 3763, 3757, 0, 1, 18009, -90.000, 0.000, -43.000, 0.000, 0.000, -3.000, 0.0, , , , , , 97, , , 9, 9, 9
37.0516803, -119.2428354, 37.200, 09:51:39.468, 18, 0.00, 0.26, 98, -2.100, 0.900, -41.800, 272, 100, 100, 15, 22506, -19740, 5306, 5415, 15, 14, 1529340699.468, 128, 0, 1024, 1024, 1024, 1024, 0, 6, 3742, 3722, 3781, 3756, 3763, 3757, 0, 1, 18109, -90.000, 0.000, -43.000, 0.000, 0.000, -3.000, 0.0, , , , , , 97, , , 9, 9, 9
37.0516803, -119.2428353, 37.800, 09:51:39.568, 18, 0.00, 0.25, 98, -2.200, 1.000, -41.800, 272, 100, 100, 15, 22569, -18911, 5306, 5415, 15, 14, 1529340699.568, 24, 0, 1024, 1024, 1024, 1024, 0, 6, 3742, 3722, 3781, 3756, 3763, 3757, 0, 1, 18209, -90.000, 0.000, -43.000, 0.000, 0.000, -2.900, 0.0, , , , , , 97, , , 9, 9, 9
37.0516803, -119.2428352, 38.100, 09:51:39.668, 18, 0.00, 0.24, 98, -2.300, 1.000, -41.900, 272, 100, 100, 15, 22569, -18911, 5306, 5415, 15, 14, 1529340699.668, 15, 0, 1024, 1024, 1024, 1024, 0, 6, 3742, 3722, 3781, 3756, 3763, 3757, 0, 1, 18309, -90.000, 0.000, -43.000, 0.000, 0.000, -2.900, 0.0, , , , , , 97, , , 9, 9, 9
37.0516803, -119.2428352, 38.100, 09:51:39.768, 18, 0.00, 0.24, 98, -2.300, 1.000, -41.900, 272, 100, 100, 15, 22569, -18911, 5306, 5415, 15, 14, 1529340699.768, 115, 0, 1024, 1024, 1024, 1024, 0, 6, 3742, 3722, 3781, 3756, 3763, 3757, 0, 1, 18409, -90.000, 0.000, -43.000, 0.000, 0.000, -2.900, 0.0, , , , , , 97, , , 9, 9, 9
37.0516803, -119.2428351, 38.700, 09:51:39.868, 18, 0.00, 0.23, 98, -2.700, 0.900, -42.100, 272, 100, 100, 15, 22569, -18911, 5252, 5415, 15, 14, 1529340699.868, 2, 0, 1024, 1024, 1024, 1024, 0, 6, 3742, 3730, 3796, 3773, 3786, 3768, 0, 1, 18509, -90.000, 0.000, -43.000, 0.000, 0.000, -2.800, 0.0, , , , , , 97, , , 9, 9, 9
37.0516803, -119.2428351, 38.700, 09:51:39.967, 18, 0.00, 0.23, 98, -2.700, 0.900, -42.100, 272, 100, 100, 15, 22569, -18911, 5252, 5415, 15, 14, 1529340699.968, 102, 0, 1024, 1024, 1024, 1024, 0, 6, 3742, 3730, 3796, 3773, 3786, 3768, 0, 1, 18609, -90.000, 0.000, -43.000, 0.000, 0.000, -2.800, 0.0, , , , , , 97, , , 9, 9, 9
37.0516803, -119.2428350, 39.000, 09:51:40.068, 18, 0.00, 0.23, 98, -3.000, 0.700, -42.200, 272, 100, 100, 15, 22569, -18911, 5252, 5415, 15, 14, 1529340700.068, 81, 0, 1024, 1024, 1024, 1024, 0, 6, 3742, 3730, 3796, 3773, 3786, 3768, 0, 1, 18709, -90.000, 0.000, -43.000, 0.000, 0.000, -2.800, 0.0, , , , , , 97, , , 9, 9, 9
37.0516803, -119.2428350, 39.300, 09:51:40.168, 18, 0.00, 0.22, 98, -2.800, 0.500, -42.200, 272, 100, 100, 15, 22569, -18911, 5252, 5415, 15, 14, 1529340700.168, 95, 0, 1024, 1024, 1024, 1024, 0, 6, 3742, 3730, 3796, 3773, 3786, 3768, 0, 1, 18810, -90.000, 0.000, -43.000, 0.000, 0.000, -2.800, 0.0, , , , , , 97, , , 9, 9, 9
37.0516803, -119.2428350, 39.600, 09:51:40.268, 18, 0.00, 0.22, 98, -2.600, 0.500, -42.200, 272, 100, 100, 15, 22569, -18911, 5252, 5415, 15, 14, 1529340700.268, 74, 0, 1024, 1024, 1024, 1024, 0, 6, 3742, 3730, 3796, 3773, 3786, 3768, 0, 1, 18910, -90.000, 0.000, -43.000, 0.000, 0.000, -2.800, 0.0, , , , , , 97, , , 9, 9, 9
37.0516803, -119.2428350, 40.100, 09:51:40.368, 18, 0.00, 0.22, 98, -2.600, 0.800, -42.300, 272, 100, 100, 15, 22569, -18911, 5252, 5415, 15, 14, 1529340700.368, 86, 0, 1024, 1024, 1024, 1024, 0, 6, 3742, 3730, 3796, 3773, 3786, 3768, 0, 1, 19009, -90.000, 0.000, -43.000, 0.000, 0.000, -2.800, 0.0, , , , , , 97, , , 9, 9, 9
37.0516803, -119.2428350, 40.400, 09:51:40.468, 18, 0.00, 0.22, 97, -2.600, 1.000, -42.300, 272, 100, 100, 15, 22569, -18911, 5252, 5415, 15, 14, 1529340700.468, 87, 0, 1024, 1024, 1024, 1024, 0, 6, 3742, 3730, 3796, 3773, 3786, 3768, 0, 1, 19110, -89.900, 0.000, -43.000, 0.000, 0.000, -2.800, 0.0, , , , , , 97, , , 9, 9, 9
37.0516803, -119.2428350, 40.700, 09:51:40.568, 18, 0.00, 0.22, 97, -2.500, 1.300, -42.300, 272, 100, 100, 15, 22569, -18911, 5252, 5415, 15, 14, 1529340700.568, 85, 0, 1024, 1024, 1024, 1024, 0, 6, 3742, 3730, 3796, 3773, 3786, 3768, 0, 1, 19209, -90.000, 0.000, -43.000, 0.000, 0.000, -2.900, 0.0, , , , , , 97, , , 9, 9, 9
37.0516803, -119.2428350, 41.000, 09:51:40.668, 18, 0.00, 0.23, 97, -2.400, 1.500, -42.200, 272, 100, 100, 15, 22569, -18911, 5252, 5415, 15, 14, 1529340700.668, 81, 0, 1024, 1024, 1024, 1024, 0, 6, 3742, 3730, 3796, 3773, 3786, 3768, 0, 1, 19310, -89.900, 0.000, -43.000, 0.000, 0.000, -2.900, 0.0, , , , , , 97, , , 9, 9, 9
37.0516804, -119.2428351, 41.300, 09:51:40.768, 18, 0.00, 0.23, 97, -2.400, 1.600, -42.200, 272, 100, 100, 15, 22569, -18911, 5252, 5415, 15, 14, 1529340700.768, 87, 0, 1024, 1024, 1024, 1024, 0, 6, 3742, 3730, 3796, 3773, 3786, 3768, 0, 1, 19409, -89.900, 0.000, -43.000, 0.000, 0.000, -2.900, 0.0, , , , , , 97, , , 9, 9, 9
37.0516804, -119.2428351, 41.500, 09:51:40.868, 18, 0.00, 0.24, 97, -2.400, 1.700, -42.200, 272, 100, 100, 15, 22569, -18911, 5252, 5415, 15, 14, 1529340700.868, 79, 0, 1024, 1024, 1024, 1024, 0, 6, 3742, 3730, 3796, 3773, 3786, 3768, 0, 1, 19509, -89.900, 0.000, -43.000, 0.000, 0.000, -2.800, 0.0, , , , , , 97, , , 9, 9, 9
37.0516804, -119.2428352, 41.800, 09:51:40.968, 18, 0.00, 0.24, 97, -2.300, 1.800, -42.300, 272, 100, 100, 15, 22625, -18670, 5252, 5415, 15, 14, 1529340700.969, 54, 0, 1024, 1024, 1024, 1024, 0, 6, 3758, 3731, 3801, 3767, 3799, 3771, 0, 1, 19610, -89.900, 0.000, -43.000, 0.000, 0.000, -2.800, 0.0, , , , , , 97, , , 9, 9, 9
37.0516804, -119.2428352, 42.100, 09:51:41.068, 18, 0.00, 0.25, 97, -2.500, 1.700, -42.300, 272, 100, 99, 15, 22625, -18670, 5252, 5415, 15, 14, 1529340701.069, 65, 0, 1024, 1024, 1024, 1024, 0, 6, 3758, 3731, 3801, 3767, 3799, 3771, 0, 1, 19710, -89.900, 0.000, -43.000, 0.000, 0.000, -2.800, 0.0, , , , , , 97, , , 9, 9, 9
37.0516805, -119.2428352, 42.400, 09:51:41.168, 18, 0.00, 0.25, 97, -2.600, 1.700, -42.400, 272, 100, 99, 15, 22625, -18670, 5252, 5415, 15, 14, 1529340701.169, 56, 0, 1024, 1024, 1024, 1024, 0, 6, 3758, 3731, 3801, 3767, 3799, 3771, 0, 1, 19810, -89.900, 0.000, -43.000, 0.000, 0.000, -2.900, 0.0, , , , , , 97, , , 9, 9, 9
37.0516805, -119.2428352, 42.700, 09:51:41.268, 18, 0.00, 0.25, 97, -2.700, 1.700, -42.400, 272, 100, 99, 15, 22625, -18670, 5252, 5415, 15, 14, 1529340701.269, 60, 0, 1024, 1024, 1024, 1024, 0, 6, 3758, 3731, 3801, 3767, 3799, 3771, 0, 1, 19910, -89.900, 0.000, -43.000, 0.000, 0.000, -3.000, 0.0, , , , , , 97, , , 9, 9, 9
37.0516805, -119.2428352, 43.000, 09:51:41.368, 18, 0.00, 0.25, 97, -2.700, 1.600, -42.400, 272, 100, 99, 15, 22625, -18670, 5252, 5415, 15, 14, 1529340701.369, 48, 0, 1024, 1024, 1024, 1024, 0, 6, 3758, 3731, 3801, 3767, 3799, 3771, 0, 1, 20010, -89.900, 0.000, -43.000, 0.000, 0.000, -3.000, 0.0, , , , , , 97, , , 9, 9, 9
37.0516805, -119.2428352, 43.000, 09:51:41.468, 18, 0.00, 0.25, 97, -2.700, 1.600, -42.400, 272, 100, 99, 15, 22625, -18670, 5252, 5415, 15, 14, 1529340701.468, 148, 0, 1024, 1024, 1024, 1024, 0, 6, 3758, 3731, 3801, 3767, 3799, 3771, 0, 1, 20109, -89.900, 0.000, -43.000, 0.000, 0.000, -3.000, 0.0, , , , , , 97, , , 9, 9, 9
37.0516805, -119.2428353, 43.600, 09:51:41.568, 18, 0.00, 0.26, 97, -2.400, 1.900, -42.300, 272, 100, 98, 15, 22625, -18670, 5252, 5415, 15, 14, 1529340701.568, 48, 0, 1024, 1024, 1024, 1024, 0, 6, 3758, 3731, 3801, 3767, 3799, 3771, 0, 1, 20210, -89.900, 0.000, -43.000, 0.000, 0.000, -3.000, 0.0, , , , , , 97, , , 9, 9, 9
37.0516804, -119.2428354, 43.800, 09:51:41.668, 18, 0.00, 0.26, 97, -2.100, 2.000, -42.200, 272, 100, 98, 15, 22625, -18670, 5252, 5415, 15, 14, 1529340701.668, 52, 0, 1024, 1024, 1024, 1024, 0, 6, 3758, 3731, 3801, 3767, 3799, 3771, 0, 1, 20309, -89.900, 0.000, -43.000, 0.000, 0.000, -3.000, 0.0, , , , , , 97, , , 9, 9, 9
37.0516804, -119.2428355, 44.100, 09:51:41.768, 18, 0.00, 0.27, 97, -1.700, 1.900, -42.100, 272, 100, 98, 15, 22625, -18670, 5252, 5415, 15, 14, 1529340701.769, 56, 0, 1024, 1024, 1024, 1024, 0, 6, 3758, 3731, 3801, 3767, 3799, 3771, 0, 1, 20410, -89.900, 0.000, -43.000, 0.000, 0.000, -3.000, 0.0, , , , , , 97, , , 9, 9, 9
37.0516804, -119.2428355, 44.400, 09:51:41.868, 18, 0.00, 0.27, 97, -1.600, 1.800, -42.000, 272, 100, 98, 15, 22625, -18670, 5252, 5415, 15, 14, 1529340701.868, 19, 0, 1024, 1024, 1024, 1024, 0, 6, 3758, 3731, 3801, 3767, 3799, 3771, 0, 1, 20509, -90.000, 0.000, -43.000, 0.000, 0.000, -3.000, 0.0, , , , , , 97, , , 9, 9, 9
37.0516804, -119.2428356, 44.700, 09:51:41.968, 18, 0.00, 0.28, 97, -1.500, 1.700, -41.900, 272, 100, 98, 15, 22551, -19382, 5252, 5415, 15, 14, 1529340701.968, 23, 0, 1024, 1024, 1024, 1024, 0, 6, 3743, 3708, 3781, 3746, 3773, 3754, 0, 1, 20610, -89.900, 0.000, -43.000, 0.000, 0.000, -3.000, 0.0, , , , , , 97, , , 9, 9, 9
37.0516804, -119.2428356, 45.100, 09:51:42.067, 18, 0.00, 0.28, 97, -1.700, 1.700, -41.800, 272, 100, 98, 15, 22551, -19382, 5252, 5415, 15, 14, 1529340702.068, 11, 0, 1024, 1024, 1024, 1024, 0, 6, 3743, 3708, 3781, 3746, 3773, 3754, 0, 1, 20709, -90.000, 0.000, -43.000, 0.000, 0.000, -3.100, 0.0, , , , , , 97, , , 9, 9, 9
37.0516804, -119.2428357, 45.400, 09:51:42.168, 18, 0.00, 0.28, 97, -1.700, 1.600, -41.800, 272, 100, 98, 15, 22551, -19382, 5252, 5415, 15, 14, 1529340702.169, 25, 0, 1024, 1024, 1024, 1024, 0, 6, 3743, 3708, 3781, 3746, 3773, 3754, 0, 1, 20810, -90.000, 0.000, -43.000, 0.000, 0.000, -3.100, 0.0, , , , , , 97, , , 9, 9, 9
37.0516803, -119.2428357, 45.700, 09:51:42.268, 18, 0.00, 0.28, 97, -1.800, 1.500, -41.900, 272, 100, 98, 15, 22551, -19382, 5252, 5415, 15, 14, 1529340702.268, 2, 0, 1024, 1024, 1024, 1024, 0, 6, 3743, 3708, 3781, 3746, 3773, 3754, 0, 1, 20910, -90.000, 0.000, -43.000, 0.000, 0.000, -3.100, 0.0, , , , , , 97, , , 9, 9, 9
37.0516803, -119.2428357, 46.000, 09:51:42.368, 18, 0.00, 0.28, 97, -1.800, 1.500, -41.900, 272, 100, 98, 15, 22551, -19382, 5252, 5415, 15, 14, 1529340702.368, 32, 0, 1024, 1024, 1024, 1024, 0, 6, 3743, 3708, 3781, 3746, 3773, 3754, 0, 1, 21010, -90.000, 0.000, -43.000, 0.000, 0.000, -3.100, 0.0, , , , , , 97, , , 9, 9, 9
37.0516803, -119.2428357, 46.300, 09:51:42.468, 18, 0.00, 0.29, 97, -1.700, 1.400, -42.000, 272, 100, 99, 15, 22551, -19382, 5252, 5415, 15, 14, 1529340702.468, 13, 0, 1024, 1024, 1024, 1024, 0, 6, 3743, 3708, 3781, 3746, 3773, 3754, 0, 1, 21110, -89.900, 0.000, -43.000, 0.000, 0.000, -3.000, 0.0, , , , , , 97, , , 9, 9, 9
