latitude,longitude,altitude(feet),ascent(feet),speed(mph),distance(feet),time(millisecond),datetime(utc),satellites,gpslevel,voltage(v),max_altitude(feet),max_ascent(feet),max_speed(mph),max_distance(feet), xSpeed(mph), ySpeed(mph), zSpeed(mph), compass_heading(degrees), pitch(degrees), roll(degrees),isPhoto,isVideo,rc_elevator,rc_aileron,rc_throttle,rc_rudder,gimbal_heading(degrees),gimbal_pitch(degrees),battery_percent,voltageCell1,voltageCell2,voltageCell3,voltageCell4,voltageCell5,voltageCell6,current(A),battery_temperature(f),flycStateRaw,flycState,message
37.0516694,-119.2428396,3724.1731168769,0,0.223694,0,3210,2018-06-18 16:33:08,17,0,0,3724.1731168769,0,0.223694,0,0,0,0,314.3, -0.2, -0.4,1,0,1024,1024,1024,1024,311.2,-90,98,4.196,4.166,4.13,4.121,4.136,4.14,0,57.2,11,AutoTakeoff,DJI_0001.jpg Starting Mission from Lat/Long: 37.05167/-119.24284 Camera: Zenmuse X3 - Overlap: 90/90 - Active Connection: No
37.0516692,-119.2428396,3724.1731168769,0,0.223694,0.072969818608,3300,2018-06-18 16:33:08,17,0,0,3724.1731168769,0,0.223694,0.072969818608,0,0,0,314.4, -0.9, 0,0,0,1024,1024,1024,1024,311.3,-89.9,98,4.196,4.166,4.13,4.121,4.136,4.14,0,57.2,11,AutoTakeoff,
37.051669,-119.2428396,3724.1731168769,0,0.223694,0.145939637216,3400,2018-06-18 16:33:08,17,0,0,3724.1731168769,0,0.223694,0.145939637216,0,0,0,314.4, -1.3, 0.7,0,0,1024,1024,1024,1024,311.4,-90,98,4.196,4.166,4.13,4.121,4.136,4.14,0,57.2,11,AutoTakeoff,
37.0516689,-119.2428396,3724.1731168769,0,0.223694,0.18242454652,3500,2018-06-18 16:33:08,17,0,0,3724.1731168769,0,0.223694,0.18242454652,0,0,0,314.3, -1.6, 1,0,0,1024,1024,1024,1024,311.5,-89.9,98,4.196,4.166,4.13,4.121,4.136,4.14,0,57.2,11,AutoTakeoff,
37.0516687,-119.2428396,3724.5012008769,0.328084,0.223694,0.255394693212,3600,2018-06-18 16:33:08,17,0,0,3724.5012008769,0.328084,0.223694,0.255394693212,0,0,0,314.2, -1.5, 1.3,0,0,1024,1024,1024,1024,311.6,-89.9,98,4.196,4.166,4.13,4.121,4.136,4.14,0,57.2,11,AutoTakeoff,
37.0516686,-119.2428397,3724.5012008769,0.328084,0.223694,0.29332842146,3700,2018-06-18 16:33:08,17,0,0,3724.5012008769,0.328084,0.223694,0.29332842146,0,0,0,314, -1.3, 1.7,0,0,1024,1024,1024,1024,311.6,-89.9,98,4.196,4.166,4.13,4.121,4.136,4.14,0,57.2,11,AutoTakeoff,
37.0516685,-119.2428397,3724.8292848769,0.656168,0.223694,0.32965224152,3800,2018-06-18 16:33:08,18,0,0,3724.8292848769,0.656168,0.223694,0.32965224152,0,0,0,314, -0.9, 1.4,0,0,1024,1024,1024,1024,311.7,-89.9,98,4.196,4.166,4.13,4.121,4.136,4.14,0,57.2,11,AutoTakeoff,
37.0516683,-119.2428398,3725.1573688769,0.984252,0,0.40553807072,3900,2018-06-18 16:33:09,18,0,0,3725.1573688769,0.984252,0.223694,0.40553807072,0,0,0,314, -0.5, 1.1,0,0,1024,1024,1024,1024,311.8,-89.9,98,4.196,4.166,4.13,4.121,4.136,4.14,0,57.2,11,AutoTakeoff,
37.0516683,-119.2428398,3725.1573688769,0.984252,0,0.40553807072,4000,2018-06-18 16:33:09,18,0,25.046,3725.1573688769,0.984252,0.223694,0.40553807072,0,0,0,314, -0.1, 1.1,0,0,1024,1024,1024,1024,311.8,-89.9,98,4.196,4.166,4.13,4.121,4.136,4.14,5.485,57.2,11,AutoTakeoff,
37.0516682,-119.24284,3725.4854528769,1.312336,0,0.45304791476,4100,2018-06-18 16:33:09,18,0,25.046,3725.4854528769,1.312336,0.223694,0.45304791476,0,0,0,314.1, 0.1, 1.1,0,0,1024,1024,1024,1024,311.9,-89.9,98,4.196,4.166,4.13,4.121,4.136,4.14,5.485,57.2,11,AutoTakeoff,
37.0516681,-119.24284,3725.4854528769,1.312336,0,0.48839568492,4200,2018-06-18 16:33:09,18,0,25.046,3725.4854528769,1.312336,0.223694,0.48839568492,0,0,0,314.1, 0.1, 0.9,0,0,1024,1024,1024,1024,312,-89.9,98,4.196,4.166,4.13,4.121,4.136,4.14,5.485,57.2,11,AutoTakeoff,
37.0516681,-119.24284,3725.8135368769,1.64042,0,0.48839568492,4300,2018-06-18 16:33:09,18,0,25.046,3725.8135368769,1.64042,0.223694,0.48839568492,0,0,0,314.2, 0, 1,0,0,1024,1024,1024,1024,312,-89.9,98,4.196,4.166,4.13,4.121,4.136,4.14,5.485,57.2,11,AutoTakeoff,
37.051668,-119.2428401,3725.8135368769,1.64042,0,0.53113190676,4400,2018-06-18 16:33:09,17,0,25.046,3725.8135368769,1.64042,0.223694,0.53113190676,0,0,-0.223694,314.2, 0, 1,0,0,1024,1024,1024,1024,312.1,-89.9,98,4.196,4.166,4.13,4.121,4.136,4.14,5.485,57.2,11,AutoTakeoff,
37.0516679,-119.2428402,3726.1416208769,1.968504,0,0.57448492652,4500,2018-06-18 16:33:09,17,0,25.046,3726.1416208769,1.968504,0.223694,0.57448492652,0,0,0,314.2, -0.1, 1,0,0,1024,1024,1024,1024,312.1,-89.9,98,4.196,4.166,4.13,4.121,4.136,4.14,5.485,57.2,11,AutoTakeoff,
37.0516679,-119.2428402,3726.1416208769,1.968504,0,0.57448492652,4600,2018-06-18 16:33:09,17,0,25.046,3726.1416208769,1.968504,0.223694,0.57448492652,0,0,0,314.3, -0.2, 1.1,0,0,1024,1024,1024,1024,312.2,-89.9,98,4.196,4.166,4.13,4.121,4.136,4.14,5.485,57.2,11,AutoTakeoff,
37.0516678,-119.2428403,3726.4697048769,2.296588,0,0.61832022976,4700,2018-06-18 16:33:09,17,0,25.046,3726.4697048769,2.296588,0.223694,0.61832022976,0,0,0,314.4, -0.1, 1.2,0,0,1024,1024,1024,1024,312.2,-89.9,98,4.196,4.166,4.13,4.121,4.136,4.14,5.485,57.2,11,AutoTakeoff,
37.0516678,-119.2428405,3726.7977888769,2.624672,0,0.63988519108,4900,2018-06-18 16:33:10,17,0,25.046,3726.7977888769,2.624672,0.223694,0.63988519108,0,0,0,314.6, 0, 1.2,0,0,1024,1024,1024,1024,312.3,-89.9,98,4.196,4.166,4.13,4.121,4.136,4.14,5.485,57.2,11,AutoTakeoff,
37.0516677,-119.2428405,3727.1258728769,2.952756,0,0.67333663572,5000,2018-06-18 16:33:10,17,0,23.527,3727.1258728769,2.952756,0.223694,0.67333663572,0,0,-0.223694,314.6, 0.1, 1.2,0,0,1024,1024,1024,1024,312.4,-89.9,98,3.924,3.917,3.877,3.928,3.942,3.925,15.495,57.2,6,P-GPS,
37.0516678,-119.2428406,3727.1258728769,2.952756,0,0.65235238308,5200,2018-06-18 16:33:10,16,0,23.527,3727.1258728769,2.952756,0.223694,0.67333663572,0,0,0,314.6, 0.2, 1.3,0,0,1024,1024,1024,1024,312.4,-89.9,98,3.924,3.917,3.877,3.928,3.942,3.925,15.495,57.2,14,Waypoint,
37.0516678,-119.2428406,3727.4539568769,3.28084,0,0.65235238308,5300,2018-06-18 16:33:10,16,0,23.527,3727.4539568769,3.28084,0.223694,0.67333663572,0,0,0,314.6, 0.3, 0.8,0,0,1024,1024,1024,1024,312.4,-89.9,98,3.924,3.917,3.877,3.928,3.942,3.925,15.495,57.2,14,Waypoint,
37.0516679,-119.2428406,3727.4539568769,3.28084,0,0.61991799884,5400,2018-06-18 16:33:10,16,0,23.527,3727.4539568769,3.28084,0.223694,0.67333663572,0,0,0,314.6, 0.4, 0.5,0,0,1024,1024,1024,1024,312.5,-89.9,98,3.924,3.917,3.877,3.928,3.942,3.925,15.495,57.2,14,Waypoint,
37.0516679,-119.2428406,3727.4539568769,3.28084,0,0.61991799884,5500,2018-06-18 16:33:10,16,0,23.527,3727.4539568769,3.28084,0.223694,0.67333663572,0,0,0,314.7, 0.4, 0.3,0,0,1024,1024,1024,1024,312.5,-89.9,98,3.924,3.917,3.877,3.928,3.942,3.925,15.495,57.2,14,Waypoint,
37.0516679,-119.2428406,3727.7820408769,3.608924,0,0.61991799884,5600,2018-06-18 16:33:10,16,0,23.527,3727.7820408769,3.608924,0.223694,0.67333663572,0,0,0,314.7, 0.3, 0.2,0,0,1024,1024,1024,1024,312.6,-89.9,98,3.924,3.917,3.877,3.928,3.942,3.925,15.495,57.2,14,Waypoint,
37.0516679,-119.2428407,3727.7820408769,3.608924,0,0.63411419352,5700,2018-06-18 16:33:10,16,0,23.527,3727.7820408769,3.608924,0.223694,0.67333663572,0,0,-0.223694,314.8, 0.4, 0.3,0,0,1024,1024,1024,1024,312.6,-89.9,98,3.924,3.917,3.877,3.928,3.942,3.925,15.495,57.2,14,Waypoint,
37.0516679,-119.2428408,3728.1101248769,3.937008,0,0.6493110444,5800,2018-06-18 16:33:10,16,0,23.527,3728.1101248769,3.937008,0.223694,0.67333663572,0,0,-0.223694,314.8, 0.4, 0.4,0,0,1024,1024,1024,1024,312.7,-89.9,98,3.924,3.917,3.877,3.928,3.942,3.925,15.495,57.2,14,Waypoint,
37.051668,-119.2428408,3728.1101248769,3.937008,0,0.61887141088,5900,2018-06-18 16:33:11,16,0,23.527,3728.1101248769,3.937008,0.223694,0.67333663572,0,0,-0.223694,314.7, 0.5, 0.6,0,0,1024,1024,1024,1024,312.7,-89.9,98,3.924,3.917,3.877,3.928,3.942,3.925,15.495,57.2,14,Waypoint,
37.051668,-119.2428408,3728.4382088769,4.265092,0,0.61887141088,6000,2018-06-18 16:33:11,15,0,23.288,3728.4382088769,4.265092,0.223694,0.67333663572,0,0,-0.223694,314.6, 0.5, 0.5,0,0,1024,1024,1024,1024,312.8,-89.9,98,3.875,3.871,3.846,3.878,3.91,3.883,16.227,57.2,14,Waypoint,
37.0516679,-119.2428408,3728.7662928769,4.593176,0,0.6493110444,6100,2018-06-18 16:33:11,15,0,23.288,3728.7662928769,4.593176,0.223694,0.67333663572,0,0,-0.223694,314.5, 0.5, 0.2,0,0,1024,1024,1024,1024,312.8,-89.9,98,3.875,3.871,3.846,3.878,3.91,3.883,16.227,57.2,14,Waypoint,
37.0516679,-119.2428408,3729.0943768769,4.92126,0,0.6493110444,6200,2018-06-18 16:33:11,15,0,23.288,3729.0943768769,4.92126,0.223694,0.67333663572,0,0,-0.223694,314.4, 0.4, 0,0,0,1024,1024,1024,1024,312.8,-89.9,98,3.875,3.871,3.846,3.878,3.91,3.883,16.227,57.2,14,Waypoint,
37.0516679,-119.2428408,3729.7505448769,5.577428,0,0.6493110444,6300,2018-06-18 16:33:11,15,0,23.288,3729.7505448769,5.577428,0.223694,0.67333663572,0,0,-0.447388,314.3, 0.4, 0.1,0,0,1024,1024,1024,1024,312.9,-89.9,98,3.875,3.871,3.846,3.878,3.91,3.883,16.227,57.2,14,Waypoint,
37.0516679,-119.2428409,3730.4067128769,6.233596,0,0.66543309216,6400,2018-06-18 16:33:11,16,0,23.288,3730.4067128769,6.233596,0.223694,0.67333663572,0,0,-0.447388,314.1, 0.2, 0.4,0,0,1024,1024,1024,1024,312.9,-89.9,98,3.875,3.871,3.846,3.878,3.91,3.883,16.227,57.2,14,Waypoint,
37.0516679,-119.2428409,3731.0628808769,6.889764,0,0.66543309216,6500,2018-06-18 16:33:11,16,0,23.288,3731.0628808769,6.889764,0.223694,0.67333663572,0,0,-0.447388,314.1, 0.2, 0.6,0,0,1024,1024,1024,1024,312.9,-89.9,98,3.875,3.871,3.846,3.878,3.91,3.883,16.227,57.2,14,Waypoint,
37.0516678,-119.2428409,3731.7190488769,7.545932,0,0.69574805376,6600,2018-06-18 16:33:11,17,0,23.288,3731.7190488769,7.545932,0.223694,0.69574805376,0,0,-0.447388,314, 0.1, 0.6,0,0,1024,1024,1024,1024,313,-89.9,98,3.875,3.871,3.846,3.878,3.91,3.883,16.227,57.2,14,Waypoint,
37.0516678,-119.2428409,3732.7033008769,8.530184,0,0.69574805376,6700,2018-06-18 16:33:11,17,0,23.288,3732.7033008769,8.530184,0.223694,0.69574805376,0,0,-0.671082,314.1, 0.1, 0.6,0,0,1024,1024,1024,1024,313,-89.9,98,3.875,3.871,3.846,3.878,3.91,3.883,16.227,57.2,14,Waypoint,
37.0516678,-119.2428409,3733.3594688769,9.186352,0,0.69574805376,6800,2018-06-18 16:33:11,17,0,23.288,3733.3594688769,9.186352,0.223694,0.69574805376,0,0,-0.671082,314.2, 0.1, 0.6,0,0,1024,1024,1024,1024,313,-89.9,98,3.875,3.871,3.846,3.878,3.91,3.883,16.227,57.2,14,Waypoint,
37.0516678,-119.2428409,3734.3437208769,10.170604,0,0.69574805376,6900,2018-06-18 16:33:12,17,0,23.288,3734.3437208769,10.170604,0.223694,0.69574805376,0,0,-0.671082,314.3, 0.1, 0.6,0,0,1024,1024,1024,1024,313,-89.9,98,3.875,3.871,3.846,3.878,3.91,3.883,16.227,57.2,14,Waypoint,
37.0516677,-119.2428408,3735.6560568769,11.48294,0,0.71189634824,7000,2018-06-18 16:33:12,17,0,23.353,3735.6560568769,11.48294,0.223694,0.71189634824,0,0,-0.671082,314.5, 0, 0.7,0,0,1024,1024,1024,1024,313.1,-89.9,98,3.76,3.73,3.818,3.849,3.847,3.814,22.907,57.2,14,Waypoint,
37.0516677,-119.2428408,3736.6403088769,12.467192,0,0.71189634824,7100,2018-06-18 16:33:12,17,0,23.353,3736.6403088769,12.467192,0.223694,0.71189634824,0,0,-0.671082,314.7, 0, 0.5,0,0,1024,1024,1024,1024,313.1,-89.9,98,3.76,3.73,3.818,3.849,3.847,3.814,22.907,57.2,14,Waypoint,
37.0516677,-119.2428406,3738.9368968769,14.76378,0,0.68519359148,7210,2018-06-18 16:33:12,17,0,23.353,3738.9368968769,14.76378,0.223694,0.71189634824,0,0,-0.671082,314.9, 0, 0.1,0,0,1024,1024,1024,1024,313.1,-89.9,98,3.76,3.73,3.818,3.849,3.847,3.814,22.907,57.2,14,Waypoint,
37.0516677,-119.2428406,3738.9368968769,14.76378,0,0.68519359148,7300,2018-06-18 16:33:12,17,0,23.353,3738.9368968769,14.76378,0.223694,0.71189634824,0,0,-0.671082,314.9, 0, 0.1,0,0,1024,1024,1024,1024,313.1,-89.9,98,3.76,3.73,3.818,3.849,3.847,3.814,22.907,57.2,14,Waypoint,
37.0516678,-119.2428405,3741.2334848769,17.060368,0,0.63988519108,7500,2018-06-18 16:33:12,17,0,23.353,3741.2334848769,17.060368,0.223694,0.71189634824,0,0,-0.671082,314.9, 0, -0.3,0,0,1024,1024,1024,1024,313.2,-89.9,98,3.76,3.73,3.818,3.849,3.847,3.814,22.907,57.2,14,Waypoint,
37.0516678,-119.2428405,3742.2177368769,18.04462,0,0.63988519108,7600,2018-06-18 16:33:12,17,0,23.353,3742.2177368769,18.04462,0.223694,0.71189634824,0,0,-0.671082,314.8, 0, -0.3,0,0,1024,1024,1024,1024,313.2,-89.9,98,3.76,3.73,3.818,3.849,3.847,3.814,22.907,57.2,14,Waypoint,
37.0516678,-119.2428405,3743.5300728769,19.356956,0,0.63988519108,7700,2018-06-18 16:33:12,17,0,23.353,3743.5300728769,19.356956,0.223694,0.71189634824,0,0,-0.671082,314.7, 0, -0.2,0,0,1024,1024,1024,1024,313.2,-89.9,98,3.76,3.73,3.818,3.849,3.847,3.814,22.907,57.2,14,Waypoint,
37.0516679,-119.2428405,3744.5143248769,20.341208,0,0.60678479632,7800,2018-06-18 16:33:12,17,0,23.353,3744.5143248769,20.341208,0.223694,0.71189634824,0,0,-0.671082,314.6, 0.1, -0.2,0,0,1024,1024,1024,1024,313.2,-89.9,98,3.76,3.73,3.818,3.849,3.847,3.814,22.907,57.2,14,Waypoint,
37.0516679,-119.2428405,3745.8266608769,21.653544,0,0.60678479632,7900,2018-06-18 16:33:13,17,0,23.353,3745.8266608769,21.653544,0.223694,0.71189634824,0,0,-0.671082,314.6, 0.3, -0.2,0,0,1024,1024,1024,1024,313.3,-89.9,98,3.76,3.73,3.818,3.849,3.847,3.814,22.907,57.2,14,Waypoint,
37.0516679,-119.2428406,3746.8109128769,22.637796,0,0.61991799884,8000,2018-06-18 16:33:13,17,0,22.482,3746.8109128769,22.637796,0.223694,0.71189634824,0,0,-0.671082,314.7, 0.4, -0.3,0,0,1024,1024,1024,1024,313.3,-89.9,98,3.758,3.758,3.733,3.759,3.799,3.749,22.502,57.2,14,Waypoint,
37.051668,-119.2428406,3747.7951648769,23.622048,0,0.58795605556,8100,2018-06-18 16:33:13,17,0,22.482,3747.7951648769,23.622048,0.223694,0.71189634824,0,0,-0.671082,314.8, 0.3, -0.1,0,0,1024,1024,1024,1024,313.3,-89.9,98,3.758,3.758,3.733,3.759,3.799,3.749,22.502,57.2,14,Waypoint,
37.051668,-119.2428407,3749.1075008769,24.934384,0,0.60291012428,8200,2018-06-18 16:33:13,17,0,22.482,3749.1075008769,24.934384,0.223694,0.71189634824,0,0,-0.671082,314.8, 0.3, 0,0,0,1024,1024,1024,1024,313.3,-89.9,98,3.758,3.758,3.733,3.759,3.799,3.749,22.502,57.2,14,Waypoint,
37.0516681,-119.2428408,3750.0917528769,25.918636,0,0.58911747292,8300,2018-06-18 16:33:13,17,0,22.482,3750.0917528769,25.918636,0.223694,0.71189634824,0,0,-0.671082,314.8, 0.5, 0,0,0,1024,1024,1024,1024,313.3,-89.9,98,3.758,3.758,3.733,3.759,3.799,3.749,22.502,57.2,14,Waypoint,
37.0516682,-119.2428409,3751.0760048769,26.902888,0,0.5787729844,8400,2018-06-18 16:33:13,17,0,22.482,3751.0760048769,26.902888,0.223694,0.71189634824,0,0,-0.671082,314.8, 0.8, 0,0,0,1024,1024,1024,1024,313.4,-89.9,98,3.758,3.758,3.733,3.759,3.799,3.749,22.502,57.2,14,Waypoint,
37.0516682,-119.2428411,3752.3883408769,28.215224,0,0.61843177832,8500,2018-06-18 16:33:13,17,0,22.482,3752.3883408769,28.215224,0.223694,0.71189634824,0,0,-0.671082,314.7, 1.1, 0.1,0,0,1024,1024,1024,1024,313.4,-89.9,98,3.758,3.758,3.733,3.759,3.799,3.749,22.502,57.2,14,Waypoint,
37.0516683,-119.2428412,3753.3725928769,29.199476,0,0.61492127952,8600,2018-06-18 16:33:13,17,0,22.482,3753.3725928769,29.199476,0.223694,0.71189634824,0,0,-0.671082,314.6, 1.2, 0.2,0,0,1024,1024,1024,1024,313.4,-89.9,98,3.758,3.758,3.733,3.759,3.799,3.749,22.502,57.2,14,Waypoint,
37.0516684,-119.2428412,3754.3568448769,30.183728,0,0.59175198744,8700,2018-06-18 16:33:13,17,0,22.482,3754.3568448769,30.183728,0.223694,0.71189634824,0,0,-0.671082,314.6, 1.3, 0.1,0,0,1024,1024,1024,1024,313.4,-89.9,98,3.758,3.758,3.733,3.759,3.799,3.749,22.502,57.2,14,Waypoint,
37.0516684,-119.2428413,3755.6691808769,31.496064,0,0.61494096456,8800,2018-06-18 16:33:13,17,0,22.482,3755.6691808769,31.496064,0.223694,0.71189634824,0,0,-0.671082,314.5, 1.3, 0,0,0,1024,1024,1024,1024,313.4,-89.9,98,3.758,3.758,3.733,3.759,3.799,3.749,22.502,57.2,14,Waypoint,
37.0516685,-119.2428414,3756.6534328769,32.480316,0,0.61849411428,8900,2018-06-18 16:33:14,17,0,22.482,3756.6534328769,32.480316,0.223694,0.71189634824,0,0,-0.671082,314.5, 1.3, -0.2,0,0,1024,1024,1024,1024,313.4,-89.9,98,3.758,3.758,3.733,3.759,3.799,3.749,22.502,57.2,14,Waypoint,
37.0516686,-119.2428414,3757.6376848769,33.464568,0,0.59992127904,9000,2018-06-18 16:33:14,17,0,22.738,3757.6376848769,33.464568,0.223694,0.71189634824,0,0,-0.671082,314.5, 1.3, -0.3,0,0,1024,1024,1024,1024,313.4,-89.9,98,3.758,3.758,3.733,3.759,3.799,3.749,18.498,59,14,Waypoint,
37.0516687,-119.2428415,3758.6219368769,34.44882,0,0.60935369404,9100,2018-06-18 16:33:14,17,0,22.738,3758.6219368769,34.44882,0.223694,0.71189634824,0,0,-0.671082,314.6, 1.4, -0.4,0,0,1024,1024,1024,1024,313.5,-89.9,98,3.758,3.758,3.733,3.759,3.799,3.749,18.498,59,14,Waypoint,
37.0516688,-119.2428415,3759.9342728769,35.761156,0,0.59498361484,9200,2018-06-18 16:33:14,17,0,22.738,3759.9342728769,35.761156,0.223694,0.71189634824,0,0,-0.671082,314.6, 1.6, -0.6,0,0,1024,1024,1024,1024,313.5,-89.9,98,3.758,3.758,3.733,3.759,3.799,3.749,18.498,59,14,Waypoint,
37.0516689,-119.2428416,3760.9185248769,36.745408,0,0.6102690484,9300,2018-06-18 16:33:14,17,0,22.738,3760.9185248769,36.745408,0.223694,0.71189634824,0,0,-0.671082,314.5, 1.8, -0.7,0,0,1024,1024,1024,1024,313.5,-89.9,98,3.758,3.758,3.733,3.759,3.799,3.749,18.498,59,14,Waypoint,
37.051669,-119.2428417,3761.9027768769,37.72966,0,0.6286581566,9400,2018-06-18 16:33:14,17,0,22.738,3761.9027768769,37.72966,0.223694,0.71189634824,0,0,-0.671082,314.4, 1.9, -0.7,0,0,1024,1024,1024,1024,313.5,-89.9,98,3.758,3.758,3.733,3.759,3.799,3.749,18.498,59,14,Waypoint,
37.0516691,-119.2428417,3762.8870288769,38.713912,0,0.62120408812,9600,2018-06-18 16:33:14,17,0,22.738,3762.8870288769,38.713912,0.223694,0.71189634824,0,0,-0.671082,314.4, 2.2, -0.7,0,0,1024,1024,1024,1024,313.5,-89.9,98,3.758,3.758,3.733,3.759,3.799,3.749,18.498,59,14,Waypoint,
37.0516692,-119.2428416,3764.5274488769,40.354332,0,0.58691931012,9700,2018-06-18 16:33:14,17,0,22.738,3764.5274488769,40.354332,0.223694,0.71189634824,0,0,-0.671082,314.5, 2.1, -1,0,0,1024,1024,1024,1024,313.5,-89.9,98,3.758,3.758,3.733,3.759,3.799,3.749,18.498,59,14,Waypoint,
37.0516693,-119.2428416,3765.5117008769,41.338584,0,0.58351051736,9800,2018-06-18 16:33:14,17,0,22.738,3765.5117008769,41.338584,0.223694,0.71189634824,0,0,-0.671082,314.5, 1.8, -1.2,0,0,1024,1024,1024,1024,313.6,-89.9,98,3.758,3.758,3.733,3.759,3.799,3.749,18.498,59,14,Waypoint,
37.0516693,-119.2428414,3767.8082888769,43.635172,0,0.52540027928,10000,2018-06-18 16:33:15,17,0,22.738,3767.8082888769,43.635172,0.223694,0.71189634824,0,0,-0.671082,314.5, 1.3, -1.7,0,0,1024,1024,1024,1024,313.6,-89.9,98,3.799,3.775,3.766,3.793,3.829,3.806,18.498,59,14,Waypoint,
37.0516693,-119.2428413,3768.7925408769,44.619424,0,0.49635500276,10100,2018-06-18 16:33:15,17,0,22.738,3768.7925408769,44.619424,0.223694,0.71189634824,0,0,-0.671082,314.5, 1, -1.9,0,0,1024,1024,1024,1024,313.6,-90,98,3.799,3.775,3.766,3.793,3.829,3.806,18.498,59,14,Waypoint,
37.0516694,-119.2428412,3769.7767928769,45.603676,0,0.46589240336,10200,2018-06-18 16:33:15,17,0,22.738,3769.7767928769,45.603676,0.223694,0.71189634824,0,0,-0.671082,314.5, 0.8, -1.9,0,0,1024,1024,1024,1024,313.6,-90,98,3.799,3.775,3.766,3.793,3.829,3.806,18.498,59,14,Waypoint,
37.0516694,-119.2428411,3770.7610448769,46.587928,0,0.43677494836,10300,2018-06-18 16:33:15,17,0,22.738,3770.7610448769,46.587928,0.223694,0.71189634824,0,0,-0.671082,314.4, 0.7, -1.9,0,0,1024,1024,1024,1024,313.6,-90,98,3.799,3.775,3.766,3.793,3.829,3.806,18.498,59,14,Waypoint,
37.0516694,-119.242841,3772.0733808769,47.900264,0,0.40765749336,10400,2018-06-18 16:33:15,17,0,22.738,3772.0733808769,47.900264,0.223694,0.71189634824,0,0,-0.671082,314.3, 0.7, -1.9,0,0,1024,1024,1024,1024,313.6,-90,98,3.799,3.775,3.766,3.793,3.829,3.806,18.498,59,14,Waypoint,
37.0516694,-119.2428409,3773.0576328769,48.884516,0,0.37854003836,10500,2018-06-18 16:33:15,17,0,22.738,3773.0576328769,48.884516,0.223694,0.71189634824,0,0,-0.671082,314.3, 0.5, -1.9,0,0,1024,1024,1024,1024,313.6,-90,98,3.799,3.775,3.766,3.793,3.829,3.806,18.498,59,14,Waypoint,
37.0516694,-119.2428408,3774.0418848769,49.868768,0,0.34941930252,10600,2018-06-18 16:33:15,17,0,22.738,3774.0418848769,49.868768,0.223694,0.71189634824,0,0,-0.671082,314.4, 0.4, -2,0,0,1024,1024,1024,1024,313.6,-90,98,3.799,3.775,3.766,3.793,3.829,3.806,18.498,59,14,Waypoint,
37.0516694,-119.2428408,3775.0261368769,50.85302,0,0.34941930252,10700,2018-06-18 16:33:15,17,0,22.738,3775.0261368769,50.85302,0.223694,0.71189634824,0,0,-0.671082,314.5, 0.4, -1.9,0,0,1024,1024,1024,1024,313.6,-89.9,98,3.799,3.775,3.766,3.793,3.829,3.806,18.498,59,14,Waypoint,
37.0516694,-119.2428407,3776.0103888769,51.837272,0,0.32030184752,10800,2018-06-18 16:33:15,17,0,22.738,3776.0103888769,51.837272,0.223694,0.71189634824,0,0,-0.671082,314.6, 0.6, -1.7,0,0,1024,1024,1024,1024,313.6,-89.9,98,3.799,3.775,3.766,3.793,3.829,3.806,18.498,59,14,Waypoint,
37.0516695,-119.2428406,3776.9946408769,52.821524,0,0.293460311228,10900,2018-06-18 16:33:16,17,0,22.738,3776.9946408769,52.821524,0.223694,0.71189634824,0,0,-0.671082,314.6, 0.9, -1.8,0,0,1024,1024,1024,1024,313.6,-89.9,98,3.799,3.775,3.766,3.793,3.829,3.806,18.498,59,14,Waypoint,
37.0516695,-119.2428406,3777.6508088769,53.477692,0,0.293460311228,11000,2018-06-18 16:33:16,17,0,22.856,3777.6508088769,53.477692,0.223694,0.71189634824,0,0,-0.671082,314.6, 1, -2,0,0,1024,1024,1024,1024,313.6,-89.9,98,3.818,3.784,3.764,3.798,3.841,3.808,17.701,59,14,Waypoint,
37.0516695,-119.2428405,3778.6350608769,54.461944,0,0.264592856236,11100,2018-06-18 16:33:16,17,0,22.856,3778.6350608769,54.461944,0.223694,0.71189634824,0,0,-0.671082,314.6, 1, -2.1,0,0,1024,1024,1024,1024,313.6,-89.9,98,3.818,3.784,3.764,3.798,3.841,3.808,17.701,59,14,Waypoint,
37.0516696,-119.2428405,3779.6193128769,55.446196,0,0.272034457524,11200,2018-06-18 16:33:16,17,0,22.856,3779.6193128769,55.446196,0.223694,0.71189634824,0,0,-0.671082,314.7, 1.1, -2.2,0,0,1024,1024,1024,1024,313.6,-89.9,98,3.818,3.784,3.764,3.798,3.841,3.808,17.701,59,14,Waypoint,
37.0516696,-119.2428405,3780.6035648769,56.430448,0,0.272034457524,11300,2018-06-18 16:33:16,17,0,22.856,3780.6035648769,56.430448,0.223694,0.71189634824,0,0,-0.671082,314.7, 1.2, -2,0,0,1024,1024,1024,1024,313.6,-89.9,98,3.818,3.784,3.764,3.798,3.841,3.808,17.701,59,14,Waypoint,
37.0516696,-119.2428404,3781.5878168769,57.4147,0,0.244108275528,11400,2018-06-18 16:33:16,17,0,22.856,3781.5878168769,57.4147,0.223694,0.71189634824,0,0,-0.671082,314.7, 1.4, -1.8,0,0,1024,1024,1024,1024,313.6,-89.9,98,3.818,3.784,3.764,3.798,3.841,3.808,17.701,59,14,Waypoint,
37.0516696,-119.2428404,3782.2439848769,58.070868,0,0.244108275528,11500,2018-06-18 16:33:16,17,0,22.856,3782.2439848769,58.070868,0.223694,0.71189634824,0,0,-0.671082,314.6, 1.6, -1.6,0,0,1024,1024,1024,1024,313.6,-89.9,98,3.818,3.784,3.764,3.798,3.841,3.808,17.701,59,14,Waypoint,
37.0516696,-119.2428404,3783.2282368769,59.05512,0,0.244108275528,11600,2018-06-18 16:33:16,17,0,22.856,3783.2282368769,59.05512,0.223694,0.71189634824,0,0,-0.671082,314.5, 1.6, -1.5,0,0,1024,1024,1024,1024,313.6,-89.9,98,3.818,3.784,3.764,3.798,3.841,3.808,17.701,59,14,Waypoint,
37.0516696,-119.2428405,3784.2124888769,60.039372,0,0.272034457524,11700,2018-06-18 16:33:16,17,0,22.856,3784.2124888769,60.039372,0.223694,0.71189634824,0,0,-0.671082,314.6, 1.6, -1.4,0,0,1024,1024,1024,1024,313.6,-89.9,98,3.818,3.784,3.764,3.798,3.841,3.808,17.701,59,14,Waypoint,
37.0516696,-119.2428405,3785.1967408769,61.023624,0,0.272034457524,11800,2018-06-18 16:33:16,17,0,22.856,3785.1967408769,61.023624,0.223694,0.71189634824,0,0,-0.671082,314.7, 1.7, -1.2,0,0,1024,1024,1024,1024,313.6,-89.9,98,3.818,3.784,3.764,3.798,3.841,3.808,17.701,59,14,Waypoint,
37.0516696,-119.2428405,3786.1809928769,62.007876,0,0.272034457524,11900,2018-06-18 16:33:17,17,0,22.856,3786.1809928769,62.007876,0.223694,0.71189634824,0,0,-0.671082,314.9, 1.8, -1.1,0,0,1024,1024,1024,1024,313.6,-89.9,98,3.818,3.784,3.764,3.798,3.841,3.808,17.701,59,14,Waypoint,
37.0516695,-119.2428405,3787.1652448769,62.992128,0,0.264592856236,12100,2018-06-18 16:33:17,17,0,22.856,3787.1652448769,62.992128,0.223694,0.71189634824,0,0,-0.671082,315, 1.6, -1,0,0,1024,1024,1024,1024,313.6,-89.9,98,3.818,3.784,3.764,3.798,3.841,3.808,17.701,59,14,Waypoint,
37.0516695,-119.2428406,3788.1494968769,63.97638,0,0.293460311228,12200,2018-06-18 16:33:17,17,0,22.856,3788.1494968769,63.97638,0.223694,0.71189634824,0,0,-0.671082,315, 1.6, -0.6,0,0,1024,1024,1024,1024,313.6,-89.9,98,3.818,3.784,3.764,3.798,3.841,3.808,17.701,59,14,Waypoint,
37.0516693,-119.2428407,3790.1180008769,65.944884,0,0.322373041812,12300,2018-06-18 16:33:17,17,0,22.856,3790.1180008769,65.944884,0.223694,0.71189634824,0,0,-0.671082,314.7, 1.6, 0,0,0,1024,1024,1024,1024,313.6,-89.9,98,3.818,3.784,3.764,3.798,3.841,3.808,17.701,59,14,Waypoint,
37.0516693,-119.2428408,3790.7741688769,66.601052,0,0.35131890888,12400,2018-06-18 16:33:17,17,0,22.856,3790.7741688769,66.601052,0.223694,0.71189634824,0,0,-0.671082,314.6, 1.7, 0.1,0,0,1024,1024,1024,1024,313.6,-89.9,98,3.818,3.784,3.764,3.798,3.841,3.808,17.701,59,14,Waypoint,
37.0516692,-119.2428408,3791.7584208769,67.585304,0,0.35695867284,12500,2018-06-18 16:33:17,17,0,22.856,3791.7584208769,67.585304,0.223694,0.71189634824,0,0,-0.671082,314.6, 1.8, 0.2,0,0,1024,1024,1024,1024,313.6,-89.9,98,3.818,3.784,3.764,3.798,3.841,3.808,17.701,59,14,Waypoint,
37.0516691,-119.2428408,3792.7426728769,68.569556,0,0.36616142904,12600,2018-06-18 16:33:17,17,0,22.856,3792.7426728769,68.569556,0.223694,0.71189634824,0,0,-0.671082,314.6, 1.6, 0.3,0,0,1024,1024,1024,1024,313.6,-89.9,98,3.818,3.784,3.764,3.798,3.841,3.808,17.701,59,14,Waypoint,
37.0516691,-119.2428409,3793.7269248769,69.553808,0,0.3940452882,12700,2018-06-18 16:33:17,17,0,22.856,3793.7269248769,69.553808,0.223694,0.71189634824,0,0,-0.671082,314.6, 1.5, 0.3,0,0,1024,1024,1024,1024,313.6,-89.9,98,3.818,3.784,3.764,3.798,3.841,3.808,17.701,59,14,Waypoint,
37.0516689,-119.242841,3795.6954288769,71.522312,0,0.44661418752,12900,2018-06-18 16:33:18,17,0,22.856,3795.6954288769,71.522312,0.223694,0.71189634824,0,0,-0.671082,314.6, 1.4, 0.4,0,0,1024,1024,1024,1024,313.6,-89.9,98,3.818,3.784,3.764,3.798,3.841,3.808,17.701,59,14,Waypoint,
37.0516689,-119.242841,3796.6796808769,72.506564,0,0.44661418752,13000,2018-06-18 16:33:18,17,0,22.704,3796.6796808769,72.506564,0.223694,0.71189634824,0,0,-0.671082,314.5, 1.2, 0.3,0,0,1024,1024,1024,1024,313.6,-90,98,3.786,3.76,3.745,3.78,3.809,3.781,18.618,59,14,Waypoint,
37.0516688,-119.242841,3797.6639328769,73.490816,0,0.46271655024,13100,2018-06-18 16:33:18,17,0,22.704,3797.6639328769,73.490816,0.223694,0.71189634824,0,0,-0.671082,314.5, 1, 0.2,0,0,1024,1024,1024,1024,313.6,-89.9,98,3.786,3.76,3.745,3.78,3.809,3.781,18.618,59,14,Waypoint,
37.0516687,-119.242841,3798.6481848769,74.475068,0,0.481053165,13200,2018-06-18 16:33:18,17,0,22.704,3798.6481848769,74.475068,0.223694,0.71189634824,0,0,-0.671082,314.4, 1, 0.2,0,0,1024,1024,1024,1024,313.6,-90,98,3.786,3.76,3.745,3.78,3.809,3.781,18.618,59,14,Waypoint,
37.0516687,-119.2428411,3799.9605208769,75.787404,0,0.50596458312,13300,2018-06-18 16:33:18,17,0,22.704,3799.9605208769,75.787404,0.223694,0.71189634824,0,0,-0.671082,314.3, 1, 0.2,0,0,1024,1024,1024,1024,313.6,-89.9,98,3.786,3.76,3.745,3.78,3.809,3.781,18.618,59,14,Waypoint,
37.0516686,-119.2428411,3800.9447728769,76.771656,0,0.52532481996,13400,2018-06-18 16:33:18,17,0,22.704,3800.9447728769,76.771656,0.223694,0.71189634824,0,0,-0.671082,314.3, 1.2, 0.3,0,0,1024,1024,1024,1024,313.6,-89.9,98,3.786,3.76,3.745,3.78,3.809,3.781,18.618,59,14,Waypoint,
37.0516686,-119.2428412,3801.9290248769,77.755908,0,0.54977363964,13500,2018-06-18 16:33:18,17,0,22.704,3801.9290248769,77.755908,0.223694,0.71189634824,0,0,-0.671082,314.3, 1.3, 0.4,0,0,1024,1024,1024,1024,313.6,-89.9,98,3.786,3.76,3.745,3.78,3.809,3.781,18.618,59,14,Waypoint,
37.0516686,-119.2428413,3802.9132768769,78.74016,0,0.5746555302,13600,2018-06-18 16:33:18,17,0,22.704,3802.9132768769,78.74016,0.223694,0.71189634824,0,0,-0.671082,314.4, 1.5, 0.4,0,0,1024,1024,1024,1024,313.6,-89.9,98,3.786,3.76,3.745,3.78,3.809,3.781,18.618,59,14,Waypoint,
37.0516685,-119.2428414,3804.8817808769,80.708664,0,0.61849411428,13800,2018-06-18 16:33:18,17,0,22.704,3804.8817808769,80.708664,0.223694,0.71189634824,0,0,-0.671082,314.6, 1.7, 0.4,0,0,1024,1024,1024,1024,313.6,-89.9,98,3.786,3.76,3.745,3.78,3.809,3.781,18.618,59,14,Waypoint,
37.0516685,-119.2428415,3805.8660328769,81.692916,0,0.6433563198,13900,2018-06-18 16:33:19,17,0,22.704,3805.8660328769,81.692916,0.223694,0.71189634824,0,0,-0.671082,314.6, 1.9, 0.7,0,0,1024,1024,1024,1024,313.6,-89.9,98,3.786,3.76,3.745,3.78,3.809,3.781,18.618,59,14,Waypoint,
37.0516685,-119.2428416,3806.8502848769,82.677168,0,0.66856301352,14000,2018-06-18 16:33:19,17,0,22.614,3806.8502848769,82.677168,0.223694,0.71189634824,0,0,-0.671082,314.7, 1.9, 0.6,0,0,1024,1024,1024,1024,313.6,-89.9,98,3.776,3.75,3.739,3.768,3.802,3.779,19.128,59,14,Waypoint,
37.0516685,-119.2428416,3807.8345368769,83.66142,0,0.66856301352,14100,2018-06-18 16:33:19,17,0,22.614,3807.8345368769,83.66142,0.223694,0.71189634824,0,0,-0.671082,314.7, 1.9, 0.5,0,0,1024,1024,1024,1024,313.6,-89.9,98,3.776,3.75,3.739,3.768,3.802,3.779,19.128,59,14,Waypoint,
37.0516685,-119.2428417,3809.8030408769,85.629924,0,0.69407482536,14200,2018-06-18 16:33:19,17,0,22.614,3809.8030408769,85.629924,0.223694,0.71189634824,0,0,-0.671082,314.6, 2.1, 0.2,0,0,1024,1024,1024,1024,313.6,-89.9,98,3.776,3.75,3.739,3.768,3.802,3.779,19.128,59,14,Waypoint,
37.0516686,-119.2428417,3811.7715448769,87.598428,0,0.677575481,14500,2018-06-18 16:33:19,17,0,22.614,3811.7715448769,87.598428,0.223694,0.71189634824,0,0,-0.671082,314.7, 2, 0,0,0,1024,1024,1024,1024,313.6,-89.9,98,3.776,3.75,3.739,3.768,3.802,3.779,19.128,59,14,Waypoint,
37.0516686,-119.2428418,3813.0838808769,88.910764,0,0.70396655796,14600,2018-06-18 16:33:19,17,0,22.614,3813.0838808769,88.910764,0.223694,0.71189634824,0,0,-0.671082,314.8, 1.9, -0.2,0,0,1024,1024,1024,1024,313.6,-89.9,98,3.776,3.75,3.739,3.768,3.802,3.779,19.128,59,14,Waypoint,
37.0516687,-119.2428417,3815.0523848769,90.879268,0,0.66267718656,14800,2018-06-18 16:33:19,17,0,22.614,3815.0523848769,90.879268,0.223694,0.71189634824,0,0,-0.671082,314.8, 2.2, -0.4,0,0,1024,1024,1024,1024,313.6,-89.9,98,3.776,3.75,3.739,3.768,3.802,3.779,19.128,59,14,Waypoint,
37.0516687,-119.2428417,3816.0366368769,91.86352,0,0.66267718656,14900,2018-06-18 16:33:20,17,0,22.614,3816.0366368769,91.86352,0.223694,0.71189634824,0,0,-0.671082,314.7, 2.1, -0.6,0,0,1024,1024,1024,1024,313.6,-89.9,98,3.776,3.75,3.739,3.768,3.802,3.779,19.128,59,14,Waypoint,
37.0516687,-119.2428417,3817.0208888769,92.847772,0,0.66267718656,15000,2018-06-18 16:33:20,17,0,22.652,3817.0208888769,92.847772,0.223694,0.71189634824,0,0,-0.671082,314.5, 2.1, -0.7,0,0,1024,1024,1024,1024,313.6,-89.9,97,3.776,3.758,3.743,3.767,3.806,3.778,18.268,59,14,Waypoint,
37.0516688,-119.2428417,3818.0051408769,93.832024,0,0.64948820976,15100,2018-06-18 16:33:20,17,0,22.652,3818.0051408769,93.832024,0.223694,0.71189634824,0,0,-0.671082,314.4, 2.4, -0.7,0,0,1024,1024,1024,1024,313.6,-89.9,97,3.776,3.758,3.743,3.767,3.806,3.778,18.268,59,14,Waypoint,
37.0516688,-119.2428417,3818.9893928769,94.816276,0,0.64948820976,15200,2018-06-18 16:33:20,17,0,22.652,3818.9893928769,94.816276,0.223694,0.71189634824,0,0,-0.671082,314.3, 2.6, -0.7,0,0,1024,1024,1024,1024,313.6,-89.9,97,3.776,3.758,3.743,3.767,3.806,3.778,18.268,59,14,Waypoint,
37.0516688,-119.2428416,3819.9736448769,95.800528,0,0.62215225088,15300,2018-06-18 16:33:20,17,0,22.652,3819.9736448769,95.800528,0.223694,0.71189634824,0,0,-0.671082,314.2, 2.4, -0.7,0,0,1024,1024,1024,1024,313.6,-89.9,97,3.776,3.758,3.743,3.767,3.806,3.778,18.268,59,14,Waypoint,
37.0516688,-119.2428415,3820.9578968769,96.78478,0,0.59498361484,15400,2018-06-18 16:33:20,17,0,22.652,3820.9578968769,96.78478,0.223694,0.71189634824,0,0,-0.671082,314.2, 1.8, -0.8,0,0,1024,1024,1024,1024,313.6,-90,97,3.776,3.758,3.743,3.767,3.806,3.778,18.268,59,14,Waypoint,
37.0516688,-119.2428415,3821.6140648769,97.440948,0,0.59498361484,15500,2018-06-18 16:33:20,17,0,22.652,3821.6140648769,97.440948,0.223694,0.71189634824,0,0,-0.671082,314.2, 1.4, -0.7,0,0,1024,1024,1024,1024,313.6,-90,97,3.776,3.758,3.743,3.767,3.806,3.778,18.268,59,14,Waypoint,
37.0516688,-119.2428414,3822.5983168769,98.4252,0,0.56800854836,15600,2018-06-18 16:33:20,17,0,22.652,3822.5983168769,98.4252,0.223694,0.71189634824,0,0,-0.671082,314.3, 1.3, -0.5,0,0,1024,1024,1024,1024,313.6,-89.9,97,3.776,3.758,3.743,3.767,3.806,3.778,18.268,59,14,Waypoint,
37.0516688,-119.2428414,3823.5825688769,99.409452,0,0.56800854836,15700,2018-06-18 16:33:20,17,0,22.652,3823.5825688769,99.409452,0.223694,0.71189634824,0,0,-0.671082,314.4, 1.3, -0.4,0,0,1024,1024,1024,1024,313.6,-89.9,97,3.776,3.758,3.743,3.767,3.806,3.778,18.268,59,14,Waypoint,
37.0516687,-119.2428413,3824.5668208769,100.393704,0,0.55701445352,15800,2018-06-18 16:33:20,17,0,22.652,3824.5668208769,100.393704,0.223694,0.71189634824,0,0,-0.671082,314.6, 1.3, -0.6,0,0,1024,1024,1024,1024,313.6,-90,97,3.776,3.758,3.743,3.767,3.806,3.778,18.268,59,14,Waypoint,
37.0516687,-119.2428412,3825.5510728769,101.377956,0,0.53130251044,15900,2018-06-18 16:33:21,17,0,22.652,3825.5510728769,101.377956,0.223694,0.71189634824,0,0,-0.671082,314.7, 1.3, -0.8,0,0,1024,1024,1024,1024,313.6,-89.9,97,3.776,3.758,3.743,3.767,3.806,3.778,18.268,59,14,Waypoint,
37.0516687,-119.2428411,3826.5353248769,102.362208,0,0.50596458312,16000,2018-06-18 16:33:21,17,0,22.638,3826.5353248769,102.362208,0.223694,0.71189634824,0,0,-0.671082,314.8, 1.1, -0.7,0,0,1024,1024,1024,1024,313.6,-90,97,3.772,3.751,3.738,3.762,3.801,3.779,18.308,59,14,Waypoint,
37.0516687,-119.2428411,3827.5195768769,103.34646,0,0.50596458312,16100,2018-06-18 16:33:21,17,0,22.638,3827.5195768769,103.34646,0.223694,0.71189634824,0,0,-0.671082,314.8, 0.8, -0.6,0,0,1024,1024,1024,1024,313.6,-90,97,3.772,3.751,3.738,3.762,3.801,3.779,18.308,59,14,Waypoint,
37.0516686,-119.242841,3828.5038288769,104.330712,0,0.50137468796,16200,2018-06-18 16:33:21,17,0,22.638,3828.5038288769,104.330712,0.223694,0.71189634824,0,0,-0.671082,314.9, 0.6, -0.6,0,0,1024,1024,1024,1024,313.6,-90,97,3.772,3.751,3.738,3.762,3.801,3.779,18.308,59,14,Waypoint,
37.0516686,-119.242841,3829.1599968769,104.98688,0,0.50137468796,16300,2018-06-18 16:33:21,17,0,22.638,3829.1599968769,104.98688,0.223694,0.71189634824,0,0,-0.671082,314.8, 0.5, -0.4,0,0,1024,1024,1024,1024,313.6,-89.9,97,3.772,3.751,3.738,3.762,3.801,3.779,18.308,59,14,Waypoint,
37.0516686,-119.242841,3830.1442488769,105.971132,0,0.50137468796,16400,2018-06-18 16:33:21,17,0,22.638,3830.1442488769,105.971132,0.223694,0.71189634824,0,0,-0.671082,314.8, 0.7, -0.2,0,0,1024,1024,1024,1024,313.6,-89.9,97,3.772,3.751,3.738,3.762,3.801,3.779,18.308,59,14,Waypoint,
37.0516686,-119.242841,3833.0970048769,108.923888,0,0.50137468796,16600,2018-06-18 16:33:21,17,0,22.638,3833.0970048769,108.923888,0.223694,0.71189634824,0,0,-0.671082,314.5, 1.5, 0.7,0,0,1024,1024,1024,1024,313.6,-89.9,97,3.772,3.751,3.738,3.762,3.801,3.779,18.308,59,14,Waypoint,
37.0516686,-119.2428409,3834.0812568769,109.90814,0,0.4780019838,16900,2018-06-18 16:33:22,17,0,22.638,3834.0812568769,109.90814,0.223694,0.71189634824,0,0,-0.671082,314.2, 1.6, 0.6,0,0,1024,1024,1024,1024,313.6,-89.9,97,3.772,3.751,3.738,3.762,3.801,3.779,18.308,59,14,Waypoint,
37.0516686,-119.2428409,3836.0497608769,111.876644,0,0.4780019838,17000,2018-06-18 16:33:22,17,0,22.653,3836.0497608769,111.876644,0.223694,0.71189634824,0,0,-0.671082,313.7, 2, -0.5,0,0,1024,1024,1024,1024,313.6,-89.9,97,3.773,3.739,3.742,3.751,3.805,3.776,17.967,59,14,Waypoint,
37.0516686,-119.2428408,3837.3620968769,113.18898,0,0.45528872848,17100,2018-06-18 16:33:22,17,0,22.653,3837.3620968769,113.18898,0.223694,0.71189634824,0,0,-0.671082,313.7, 1.9, -0.9,0,0,1024,1024,1024,1024,313.6,-89.9,97,3.773,3.739,3.742,3.751,3.805,3.776,17.967,59,14,Waypoint,
37.0516687,-119.2428407,3838.3463488769,114.173232,0,0.40965880576,17200,2018-06-18 16:33:22,17,0,22.653,3838.3463488769,114.173232,0.223694,0.71189634824,0,0,-0.671082,314, 1.6, -1.1,0,0,1024,1024,1024,1024,313.6,-89.9,97,3.773,3.739,3.742,3.751,3.805,3.776,17.967,59,14,Waypoint,
37.0516687,-119.2428407,3839.3306008769,115.157484,0,0.40965880576,17300,2018-06-18 16:33:22,17,0,22.653,3839.3306008769,115.157484,0.223694,0.71189634824,0,0,-0.671082,314.3, 1.4, -1,0,0,1024,1024,1024,1024,313.6,-89.9,97,3.773,3.739,3.742,3.751,3.805,3.776,17.967,59,14,Waypoint,
37.0516687,-119.2428406,3840.3148528769,116.141736,0,0.38731628536,17400,2018-06-18 16:33:22,17,0,22.653,3840.3148528769,116.141736,0.223694,0.71189634824,0,0,-0.671082,314.6, 1.3, -1.2,0,0,1024,1024,1024,1024,313.6,-90,97,3.773,3.739,3.742,3.751,3.805,3.776,17.967,59,14,Waypoint,
37.0516687,-119.2428406,3841.2991048769,117.125988,0,0.38731628536,17500,2018-06-18 16:33:22,17,0,22.653,3841.2991048769,117.125988,0.223694,0.71189634824,0,0,-0.671082,314.8, 1, -1.4,0,0,1024,1024,1024,1024,313.6,-90,97,3.773,3.739,3.742,3.751,3.805,3.776,17.967,59,14,Waypoint,
37.0516687,-119.2428405,3842.2833568769,118.11024,0,0.3659284894,17600,2018-06-18 16:33:22,17,0,22.653,3842.2833568769,118.11024,0.223694,0.71189634824,0,0,-0.671082,314.9, 0.7, -1.4,0,0,1024,1024,1024,1024,313.6,-90,97,3.773,3.739,3.742,3.751,3.805,3.776,17.967,59,14,Waypoint,
37.0516688,-119.2428404,3843.2676088769,119.094492,0,0.319665036476,17700,2018-06-18 16:33:22,17,0,22.653,3843.2676088769,119.094492,0.223694,0.71189634824,0,0,-0.671082,315, 0.8, -1.3,0,0,1024,1024,1024,1024,313.6,-89.9,97,3.773,3.739,3.742,3.751,3.805,3.776,17.967,59,14,Waypoint,
37.0516688,-119.2428404,3844.2518608769,120.078744,0,0.319665036476,17800,2018-06-18 16:33:22,17,0,22.653,3844.2518608769,120.078744,0.223694,0.71189634824,0,0,-0.671082,314.9, 1, -1.3,0,0,1024,1024,1024,1024,313.6,-90,97,3.773,3.739,3.742,3.751,3.805,3.776,17.967,59,14,Waypoint,
37.0516688,-119.2428404,3845.2361128769,121.062996,0,0.319665036476,17900,2018-06-18 16:33:23,17,0,22.653,3845.2361128769,121.062996,0.223694,0.71189634824,0,0,-0.671082,314.8, 1, -1.4,0,0,1024,1024,1024,1024,313.6,-89.9,97,3.773,3.739,3.742,3.751,3.805,3.776,17.967,59,14,Waypoint,
37.0516688,-119.2428404,3846.2203648769,122.047248,0,0.319665036476,18000,2018-06-18 16:33:23,17,0,22.464,3846.2203648769,122.047248,0.223694,0.71189634824,0,0,-0.671082,314.6, 1, -1.2,0,0,1024,1024,1024,1024,313.6,-89.9,97,3.752,3.732,3.717,3.739,3.78,3.758,19.338,59,14,Waypoint,
37.0516688,-119.2428403,3847.2046168769,123.0315,0,0.299111230044,18100,2018-06-18 16:33:23,17,0,22.464,3847.2046168769,123.0315,0.223694,0.71189634824,0,0,-0.671082,314.4, 1.1, -1,0,0,1024,1024,1024,1024,313.6,-90,97,3.752,3.732,3.717,3.739,3.78,3.758,19.338,59,14,Waypoint,
37.0516688,-119.2428403,3848.1888688769,124.015752,0,0.299111230044,18200,2018-06-18 16:33:23,17,0,22.464,3848.1888688769,124.015752,0.223694,0.71189634824,0,0,-0.671082,314.4, 1.1, -1,0,0,1024,1024,1024,1024,313.6,-89.9,97,3.752,3.732,3.717,3.739,3.78,3.758,19.338,59,14,Waypoint,
37.0516688,-119.2428403,3849.1731208769,125.000004,0,0.299111230044,18300,2018-06-18 16:33:23,17,0,22.464,3849.1731208769,125.000004,0.223694,0.71189634824,0,0,-0.671082,314.4, 1.2, -1,0,0,1024,1024,1024,1024,313.6,-89.9,97,3.752,3.732,3.717,3.739,3.78,3.758,19.338,59,14,Waypoint,
37.0516688,-119.2428403,3850.1573728769,125.984256,0,0.299111230044,18400,2018-06-18 16:33:23,17,0,22.464,3850.1573728769,125.984256,0.223694,0.71189634824,0,0,-0.671082,314.5, 1.1, -0.9,0,0,1024,1024,1024,1024,313.6,-90,97,3.752,3.732,3.717,3.739,3.78,3.758,19.338,59,14,Waypoint,
37.0516688,-119.2428403,3851.1416248769,126.968508,0,0.299111230044,18500,2018-06-18 16:33:23,17,0,22.464,3851.1416248769,126.968508,0.223694,0.71189634824,0,0,-0.671082,314.6, 1.2, -0.8,0,0,1024,1024,1024,1024,313.6,-89.9,97,3.752,3.732,3.717,3.739,3.78,3.758,19.338,59,14,Waypoint,
37.0516688,-119.2428403,3853.4382128769,129.265096,0,0.299111230044,18610,2018-06-18 16:33:23,17,0,22.464,3853.4382128769,129.265096,0.223694,0.71189634824,0,0,-0.671082,314.8, 1, -0.8,0,0,1024,1024,1024,1024,313.6,-90,97,3.752,3.732,3.717,3.739,3.78,3.758,19.338,59,14,Waypoint,
37.0516688,-119.2428403,3853.4382128769,129.265096,0,0.299111230044,18700,2018-06-18 16:33:23,17,0,22.464,3853.4382128769,129.265096,0.223694,0.71189634824,0,0,-0.671082,314.8, 1, -0.8,0,0,1024,1024,1024,1024,313.6,-89.9,97,3.752,3.732,3.717,3.739,3.78,3.758,19.338,59,14,Waypoint,
37.0516687,-119.2428403,3856.3909688769,132.217852,0,0.326760509144,18900,2018-06-18 16:33:24,17,0,22.464,3856.3909688769,132.217852,0.223694,0.71189634824,0,0,-0.671082,314.8, 1, -1,0,0,1024,1024,1024,1024,313.6,-89.9,97,3.752,3.732,3.717,3.739,3.78,3.758,19.338,59,14,Waypoint,
37.0516687,-119.2428403,3857.3752208769,133.202104,0,0.326760509144,19100,2018-06-18 16:33:24,17,0,22.464,3857.3752208769,133.202104,0.223694,0.71189634824,0,0,-0.671082,314.8, 1.2, -1.1,0,0,1024,1024,1024,1024,313.6,-89.9,97,3.752,3.732,3.717,3.739,3.78,3.758,19.338,59,14,Waypoint,
37.0516688,-119.2428403,3858.3594728769,134.186356,0,0.299111230044,19200,2018-06-18 16:33:24,17,0,22.464,3858.3594728769,134.186356,0.223694,0.71189634824,0,0,-0.671082,314.7, 1.2, -1,0,0,1024,1024,1024,1024,313.6,-89.9,97,3.752,3.732,3.717,3.739,3.78,3.758,19.338,59,14,Waypoint,
37.0516688,-119.2428403,3859.0156408769,134.842524,0,0.299111230044,19300,2018-06-18 16:33:24,17,0,22.464,3859.0156408769,134.842524,0.223694,0.71189634824,0,0,-0.671082,314.6, 1.2, -0.9,0,0,1024,1024,1024,1024,313.6,-89.9,97,3.752,3.732,3.717,3.739,3.78,3.758,19.338,59,14,Waypoint,
37.0516688,-119.2428404,3859.9998928769,135.826776,0,0.319665036476,19400,2018-06-18 16:33:24,17,0,22.464,3859.9998928769,135.826776,0.223694,0.71189634824,0,0,-0.671082,314.5, 1.2, -0.8,0,0,1024,1024,1024,1024,313.6,-89.9,97,3.752,3.732,3.717,3.739,3.78,3.758,19.338,59,14,Waypoint,
37.0516687,-119.2428404,3860.9841448769,136.811028,0,0.34567258324,19500,2018-06-18 16:33:24,17,0,22.464,3860.9841448769,136.811028,0.223694,0.71189634824,0,0,-0.671082,314.5, 1.3, -0.8,0,0,1024,1024,1024,1024,313.6,-89.9,97,3.752,3.732,3.717,3.739,3.78,3.758,19.338,59,14,Waypoint,
37.0516687,-119.2428404,3861.9683968769,137.79528,0,0.34567258324,19600,2018-06-18 16:33:24,17,0,22.464,3861.9683968769,137.79528,0.223694,0.71189634824,0,0,-0.671082,314.4, 1.3, -0.7,0,0,1024,1024,1024,1024,313.6,-89.9,97,3.752,3.732,3.717,3.739,3.78,3.758,19.338,59,14,Waypoint,
37.0516687,-119.2428405,3862.9526488769,138.779532,0,0.3659284894,19700,2018-06-18 16:33:24,17,0,22.464,3862.9526488769,138.779532,0.223694,0.71189634824,0,0,-0.671082,314.4, 1.3, -0.7,0,0,1024,1024,1024,1024,313.6,-89.9,97,3.752,3.732,3.717,3.739,3.78,3.758,19.338,59,14,Waypoint,
37.0516687,-119.2428405,3863.9369008769,139.763784,0,0.3659284894,19800,2018-06-18 16:33:24,17,0,22.464,3863.9369008769,139.763784,0.223694,0.71189634824,0,0,-0.671082,314.4, 1.5, -0.7,0,0,1024,1024,1024,1024,313.6,-89.9,97,3.752,3.732,3.717,3.739,3.78,3.758,19.338,59,14,Waypoint,
37.0516687,-119.2428405,3864.9211528769,140.748036,0,0.3659284894,19900,2018-06-18 16:33:25,17,0,22.464,3864.9211528769,140.748036,0.223694,0.71189634824,0,0,-0.671082,314.5, 1.7, -0.6,0,0,1024,1024,1024,1024,313.6,-89.9,97,3.752,3.732,3.717,3.739,3.78,3.758,19.338,59,14,Waypoint,
37.0516687,-119.2428406,3865.9054048769,141.732288,0,0.38731628536,20000,2018-06-18 16:33:25,17,0,22.64,3865.9054048769,141.732288,0.223694,0.71189634824,0,0,-0.671082,314.6, 1.8, -0.7,0,0,1024,1024,1024,1024,313.6,-89.9,97,3.777,3.755,3.746,3.77,3.807,3.79,17.439,59,14,Waypoint,
37.0516688,-119.2428406,3866.8896568769,142.71654,0,0.36429135024,20100,2018-06-18 16:33:25,17,0,22.64,3866.8896568769,142.71654,0.223694,0.71189634824,0,0,-0.671082,314.7, 1.9, -0.6,0,0,1024,1024,1024,1024,313.6,-89.9,97,3.777,3.755,3.746,3.77,3.807,3.79,17.439,59,14,Waypoint,
37.0516688,-119.2428407,3867.8739088769,143.700792,0,0.38796261084,20200,2018-06-18 16:33:25,17,0,22.64,3867.8739088769,143.700792,0.223694,0.71189634824,0,0,-0.671082,314.7, 1.9, -0.7,0,0,1024,1024,1024,1024,313.6,-89.9,97,3.777,3.755,3.746,3.77,3.807,3.79,17.439,59,14,Waypoint,
37.0516688,-119.2428407,3868.8581608769,144.685044,0,0.38796261084,20300,2018-06-18 16:33:25,17,0,22.64,3868.8581608769,144.685044,0.223694,0.71189634824,0,0,-0.671082,314.7, 1.8, -0.8,0,0,1024,1024,1024,1024,313.6,-89.9,97,3.777,3.755,3.746,3.77,3.807,3.79,17.439,59,14,Waypoint,
37.0516688,-119.2428407,3869.8424128769,145.669296,0,0.38796261084,20400,2018-06-18 16:33:25,17,0,22.64,3869.8424128769,145.669296,0.223694,0.71189634824,0,0,-0.671082,314.6, 1.8, -0.9,0,0,1024,1024,1024,1024,313.6,-89.9,97,3.777,3.755,3.746,3.77,3.807,3.79,17.439,59,14,Waypoint,
37.0516688,-119.2428408,3870.8266648769,146.653548,0,0.41232940952,20500,2018-06-18 16:33:25,17,0,22.64,3870.8266648769,146.653548,0.223694,0.71189634824,0,0,-0.671082,314.5, 1.6, -0.8,0,0,1024,1024,1024,1024,313.6,-89.9,97,3.777,3.755,3.746,3.77,3.807,3.79,17.439,59,14,Waypoint,
37.0516688,-119.2428408,3871.8109168769,147.6378,0,0.41232940952,20600,2018-06-18 16:33:25,17,0,22.64,3871.8109168769,147.6378,0.223694,0.71189634824,0,0,-0.671082,314.4, 1.5, -0.7,0,0,1024,1024,1024,1024,313.6,-90,97,3.777,3.755,3.746,3.77,3.807,3.79,17.439,59,14,Waypoint,
37.0516688,-119.2428408,3872.7951688769,148.622052,0,0.41232940952,20700,2018-06-18 16:33:25,17,0,22.64,3872.7951688769,148.622052,0.223694,0.71189634824,0,0,-0.671082,314.6, 1.6, -0.6,0,0,1024,1024,1024,1024,313.6,-89.9,97,3.777,3.755,3.746,3.77,3.807,3.79,17.439,59,14,Waypoint,
37.0516688,-119.2428408,3873.7794208769,149.606304,0,0.41232940952,20800,2018-06-18 16:33:25,17,0,22.64,3873.7794208769,149.606304,0.223694,0.71189634824,0,0,-0.671082,314.7, 1.7, -0.7,0,0,1024,1024,1024,1024,313.6,-89.9,97,3.777,3.755,3.746,3.77,3.807,3.79,17.439,59,14,Waypoint,
37.0516688,-119.2428408,3874.7636728769,150.590556,0,0.41232940952,20900,2018-06-18 16:33:26,17,0,22.64,3874.7636728769,150.590556,0.223694,0.71189634824,0,0,-0.671082,314.9, 1.7, -1,0,0,1024,1024,1024,1024,313.6,-89.9,97,3.777,3.755,3.746,3.77,3.807,3.79,17.439,59,14,Waypoint,
37.0516688,-119.2428408,3875.7479248769,151.574808,0,0.41232940952,21000,2018-06-18 16:33:26,17,0,22.655,3875.7479248769,151.574808,0.223694,0.71189634824,0,0,-0.671082,315, 1.5, -1.3,0,0,1024,1024,1024,1024,313.6,-89.9,97,3.777,3.755,3.746,3.77,3.807,3.79,17.265,59,14,Waypoint,
37.0516687,-119.2428407,3877.7164288769,153.543312,0,0.40965880576,21200,2018-06-18 16:33:26,17,0,22.655,3877.7164288769,153.543312,0.223694,0.71189634824,0,0,-0.671082,315.1, 0.9, -1.1,0,0,1024,1024,1024,1024,313.6,-90,97,3.777,3.755,3.746,3.77,3.807,3.79,17.265,59,14,Waypoint,
37.0516686,-119.2428408,3879.6849328769,155.511816,0,0.45528872848,21300,2018-06-18 16:33:26,17,0,22.655,3879.6849328769,155.511816,0.223694,0.71189634824,0,0,-0.671082,314.8, 0.8, -0.3,0,0,1024,1024,1024,1024,313.6,-90,97,3.777,3.755,3.746,3.77,3.807,3.79,17.265,59,14,Waypoint,
37.0516686,-119.2428408,3880.6691848769,156.496068,0,0.45528872848,21500,2018-06-18 16:33:26,17,0,22.655,3880.6691848769,156.496068,0.223694,0.71189634824,0,0,-0.671082,314.6, 0.8, -0.2,0,0,1024,1024,1024,1024,313.6,-90,97,3.777,3.755,3.746,3.77,3.807,3.79,17.265,59,14,Waypoint,
37.0516685,-119.2428408,3881.6534368769,157.48032,0,0.47949804684,21600,2018-06-18 16:33:26,17,0,22.655,3881.6534368769,157.48032,0.223694,0.71189634824,0,0,-0.671082,314.4, 0.8, -0.3,0,0,1024,1024,1024,1024,313.6,-90,97,3.777,3.755,3.746,3.77,3.807,3.79,17.265,59,14,Waypoint,
37.0516685,-119.2428407,3882.3096048769,158.136488,0,0.4587106446,21700,2018-06-18 16:33:26,17,0,22.655,3882.3096048769,158.136488,0.223694,0.71189634824,0,0,-0.671082,314.3, 0.7, -0.5,0,0,1024,1024,1024,1024,313.6,-90,97,3.777,3.755,3.746,3.77,3.807,3.79,17.265,59,14,Waypoint,
37.0516685,-119.2428407,3883.2938568769,159.12074,0,0.4587106446,21800,2018-06-18 16:33:26,17,0,22.655,3883.2938568769,159.12074,0.223694,0.71189634824,0,0,-0.671082,314.3, 0.8, -0.6,0,0,1024,1024,1024,1024,313.6,-90,97,3.777,3.755,3.746,3.77,3.807,3.79,17.265,59,14,Waypoint,
37.0516685,-119.2428407,3884.2781088769,160.104992,0,0.4587106446,21900,2018-06-18 16:33:27,17,0,22.655,3884.2781088769,160.104992,0.223694,0.71189634824,0,0,-0.671082,314.3, 0.9, -0.8,0,0,1024,1024,1024,1024,313.6,-89.9,97,3.777,3.755,3.746,3.77,3.807,3.79,17.265,59,14,Waypoint,
37.0516685,-119.2428407,3885.2623608769,161.089244,0,0.4587106446,22000,2018-06-18 16:33:27,17,0,22.655,3885.2623608769,161.089244,0.223694,0.71189634824,0,0,-0.671082,314.3, 1, -0.8,0,0,1024,1024,1024,1024,313.6,-89.9,97,3.776,3.756,3.746,3.771,3.811,3.782,17.265,59,14,Waypoint,
37.0516685,-119.2428408,3886.2466128769,162.073496,0,0.47949804684,22100,2018-06-18 16:33:27,17,0,22.655,3886.2466128769,162.073496,0.223694,0.71189634824,0,0,-0.671082,314.4, 1.1, -0.7,0,0,1024,1024,1024,1024,313.6,-90,97,3.776,3.756,3.746,3.771,3.811,3.782,17.265,59,14,Waypoint,
37.0516684,-119.2428408,3887.2308648769,163.057748,0,0.5051837432,22200,2018-06-18 16:33:27,17,0,22.655,3887.2308648769,163.057748,0.223694,0.71189634824,0,0,-0.671082,314.4, 1.2, -0.7,0,0,1024,1024,1024,1024,313.6,-89.9,97,3.776,3.756,3.746,3.771,3.811,3.782,17.265,59,14,Waypoint,
37.0516684,-119.2428408,3888.2151168769,164.042,0,0.5051837432,22300,2018-06-18 16:33:27,17,0,22.655,3888.2151168769,164.042,0.223694,0.71189634824,0,0,-0.671082,314.5, 1.2, -0.6,0,0,1024,1024,1024,1024,313.6,-89.9,97,3.776,3.756,3.746,3.771,3.811,3.782,17.265,59,14,Waypoint,
37.0516684,-119.2428408,3889.1993688769,165.026252,0,0.5051837432,22400,2018-06-18 16:33:27,17,0,22.655,3889.1993688769,165.026252,0.223694,0.71189634824,0,0,-0.671082,314.5, 1.2, -0.5,0,0,1024,1024,1024,1024,313.6,-89.9,97,3.776,3.756,3.746,3.771,3.811,3.782,17.265,59,14,Waypoint,
37.0516684,-119.2428408,3891.1678728769,166.994756,0,0.5051837432,22600,2018-06-18 16:33:27,17,0,22.655,3891.1678728769,166.994756,0.223694,0.71189634824,0,0,-0.671082,314.6, 1.1, -0.4,0,0,1024,1024,1024,1024,313.6,-89.9,97,3.776,3.756,3.746,3.771,3.811,3.782,17.265,59,14,Waypoint,
37.0516683,-119.2428409,3892.1521248769,167.979008,0,0.5516896502,22700,2018-06-18 16:33:27,17,0,22.655,3892.1521248769,167.979008,0.223694,0.71189634824,0,0,-0.671082,314.7, 1, -0.3,0,0,1024,1024,1024,1024,313.6,-89.9,97,3.776,3.756,3.746,3.771,3.811,3.782,17.265,59,14,Waypoint,
37.0516683,-119.2428409,3893.1363768769,168.96326,0,0.5516896502,22800,2018-06-18 16:33:27,17,0,22.655,3893.1363768769,168.96326,0.223694,0.71189634824,0,0,-0.671082,314.7, 1.1, -0.3,0,0,1024,1024,1024,1024,313.6,-89.9,97,3.776,3.756,3.746,3.771,3.811,3.782,17.265,59,14,Waypoint,
37.0516683,-119.242841,3896.0891328769,171.916016,0,0.57206038576,23100,2018-06-18 16:33:28,17,0,22.655,3896.0891328769,171.916016,0.223694,0.71189634824,0,0,-0.671082,314.7, 1.3, -0.3,0,0,1024,1024,1024,1024,313.6,-89.9,97,3.776,3.756,3.746,3.771,3.811,3.782,17.265,59,14,Waypoint,
37.0516682,-119.242841,3897.0733848769,172.900268,0,0.59822180392,23200,2018-06-18 16:33:28,17,0,22.655,3897.0733848769,172.900268,0.223694,0.71189634824,0,0,-0.671082,314.7, 1.3, -0.4,0,0,1024,1024,1024,1024,313.6,-89.9,97,3.776,3.756,3.746,3.771,3.811,3.782,17.265,59,14,Waypoint,
37.0516682,-119.242841,3899.0418888769,174.868772,0,0.59822180392,23300,2018-06-18 16:33:28,17,0,22.655,3899.0418888769,174.868772,0.223694,0.71189634824,0,0,-0.671082,314.7, 1.1, -0.2,0,0,1024,1024,1024,1024,313.6,-89.9,97,3.776,3.756,3.746,3.771,3.811,3.782,17.265,59,14,Waypoint,
37.0516682,-119.242841,3900.0261408769,175.853024,0,0.59822180392,23500,2018-06-18 16:33:28,17,0,22.655,3900.0261408769,175.853024,0.223694,0.71189634824,0,0,-0.671082,314.7, 1.1, -0.2,0,0,1024,1024,1024,1024,313.6,-89.9,97,3.776,3.756,3.746,3.771,3.811,3.782,17.265,59,14,Waypoint,
37.0516682,-119.2428411,3901.0103928769,176.837276,0,0.61843177832,23600,2018-06-18 16:33:28,17,0,22.655,3901.0103928769,176.837276,0.223694,0.71189634824,0,0,-0.671082,314.6, 1.2, -0.2,0,0,1024,1024,1024,1024,313.6,-89.9,97,3.776,3.756,3.746,3.771,3.811,3.782,17.265,59,14,Waypoint,
37.0516682,-119.2428411,3901.9946448769,177.821528,0,0.61843177832,23700,2018-06-18 16:33:28,17,0,22.655,3901.9946448769,177.821528,0.223694,0.71189634824,0,0,-0.671082,314.5, 1.5, -0.1,0,0,1024,1024,1024,1024,313.6,-89.9,97,3.776,3.756,3.746,3.771,3.811,3.782,17.265,59,14,Waypoint,
37.0516682,-119.2428411,3902.9788968769,178.80578,0,0.61843177832,23800,2018-06-18 16:33:28,17,0,22.655,3902.9788968769,178.80578,0.223694,0.71189634824,0,0,-0.671082,314.4, 1.6, -0.1,0,0,1024,1024,1024,1024,313.6,-89.9,97,3.776,3.756,3.746,3.771,3.811,3.782,17.265,59,14,Waypoint,
37.0516681,-119.2428411,3903.9631488769,179.790032,0,0.64477692352,23900,2018-06-18 16:33:29,17,0,22.655,3903.9631488769,179.790032,0.223694,0.71189634824,0,0,-0.671082,314.4, 1.4, -0.2,0,0,1024,1024,1024,1024,313.6,-89.9,97,3.776,3.756,3.746,3.771,3.811,3.782,17.265,59,14,Waypoint,
37.0516681,-119.2428411,3904.9474008769,180.774284,0,0.64477692352,24000,2018-06-18 16:33:29,17,0,22.34,3904.9474008769,180.774284,0.223694,0.71189634824,0,0,-0.671082,314.4, 1.1, -0.2,0,0,1024,1024,1024,1024,313.6,-90,97,3.725,3.704,3.686,3.715,3.756,3.737,19.675,59,14,Waypoint,
37.0516681,-119.2428411,3905.9316528769,181.758536,0,0.64477692352,24100,2018-06-18 16:33:29,17,0,22.34,3905.9316528769,181.758536,0.223694,0.71189634824,0,0,-0.671082,314.4, 1.1, -0.2,0,0,1024,1024,1024,1024,313.6,-89.9,97,3.725,3.704,3.686,3.715,3.756,3.737,19.675,59,14,Waypoint,
37.051668,-119.242841,3907.2439888769,183.070872,0,0.65352036212,24200,2018-06-18 16:33:29,17,0,22.34,3907.2439888769,183.070872,0.223694,0.71189634824,0,0,-0.671082,314.4, 1, 0,0,0,1024,1024,1024,1024,313.6,-90,97,3.725,3.704,3.686,3.715,3.756,3.737,19.675,59,14,Waypoint,
37.051668,-119.242841,3908.2282408769,184.055124,0,0.65352036212,24300,2018-06-18 16:33:29,17,0,22.34,3908.2282408769,184.055124,0.223694,0.71189634824,0,0,-0.671082,314.4, 0.9, -0.2,0,0,1024,1024,1024,1024,313.6,-90,97,3.725,3.704,3.686,3.715,3.756,3.737,19.675,59,14,Waypoint,
37.051668,-119.242841,3909.2124928769,185.039376,0,0.65352036212,24400,2018-06-18 16:33:29,17,0,22.34,3909.2124928769,185.039376,0.223694,0.71189634824,0,0,-0.671082,314.4, 0.8, -0.4,0,0,1024,1024,1024,1024,313.6,-90,97,3.725,3.704,3.686,3.715,3.756,3.737,19.675,59,14,Waypoint,
37.051668,-119.2428409,3911.1809968769,187.00788,0,0.63576445604,24600,2018-06-18 16:33:29,17,0,22.34,3911.1809968769,187.00788,0.223694,0.71189634824,0,0,-0.671082,314.7, 0.8, -0.8,0,0,1024,1024,1024,1024,313.6,-90,97,3.725,3.704,3.686,3.715,3.756,3.737,19.675,59,14,Waypoint,
37.051668,-119.2428409,3912.1652488769,187.992132,0,0.63576445604,24700,2018-06-18 16:33:29,17,0,22.34,3912.1652488769,187.992132,0.223694,0.71189634824,0,0,-0.671082,314.8, 0.8, -0.7,0,0,1024,1024,1024,1024,313.6,-90,97,3.725,3.704,3.686,3.715,3.756,3.737,19.675,59,14,Waypoint,
37.051668,-119.2428409,3913.1495008769,188.976384,0,0.63576445604,24800,2018-06-18 16:33:29,17,0,22.34,3913.1495008769,188.976384,0.223694,0.71189634824,0,0,-0.671082,314.9, 0.8, -0.5,0,0,1024,1024,1024,1024,313.6,-89.9,97,3.725,3.704,3.686,3.715,3.756,3.737,19.675,59,14,Waypoint,
37.0516679,-119.2428409,3914.1337528769,189.960636,0,0.66543309216,24900,2018-06-18 16:33:30,17,0,22.34,3914.1337528769,189.960636,0.223694,0.71189634824,0,0,-0.671082,314.9, 0.9, -0.3,0,0,1024,1024,1024,1024,313.6,-89.9,97,3.725,3.704,3.686,3.715,3.756,3.737,19.675,59,14,Waypoint,
37.0516679,-119.2428409,3915.1180048769,190.944888,0,0.66543309216,25000,2018-06-18 16:33:30,17,0,22.279,3915.1180048769,190.944888,0.223694,0.71189634824,0,0,-0.671082,314.9, 0.9, -0.4,0,0,1024,1024,1024,1024,313.6,-89.9,97,3.719,3.7,3.674,3.705,3.753,3.722,19.883,60.8,14,Waypoint,
37.0516679,-119.2428409,3916.1022568769,191.92914,0,0.66543309216,25100,2018-06-18 16:33:30,17,0,22.279,3916.1022568769,191.92914,0.223694,0.71189634824,0,0,-0.671082,314.7, 1, -0.1,0,0,1024,1024,1024,1024,313.6,-89.9,97,3.719,3.7,3.674,3.705,3.753,3.722,19.883,60.8,14,Waypoint,
37.0516679,-119.2428409,3917.0865088769,192.913392,0,0.66543309216,25210,2018-06-18 16:33:30,17,0,22.279,3917.0865088769,192.913392,0.223694,0.71189634824,0,0,-0.671082,314.5, 1, 0,0,0,1024,1024,1024,1024,313.6,-89.9,97,3.719,3.7,3.674,3.705,3.753,3.722,19.883,60.8,14,Waypoint,
37.0516678,-119.2428408,3918.0707608769,193.897644,0,0.68034450996,25300,2018-06-18 16:33:30,17,0,22.279,3918.0707608769,193.897644,0.223694,0.71189634824,0,0,-0.671082,314.2, 0.9, 0,0,0,1024,1024,1024,1024,313.6,-90,97,3.719,3.7,3.674,3.705,3.753,3.722,19.883,60.8,14,Waypoint,
37.0516678,-119.2428408,3919.0550128769,194.881896,0,0.68034450996,25400,2018-06-18 16:33:30,17,0,22.279,3919.0550128769,194.881896,0.223694,0.71189634824,0,0,-0.671082,314, 0.8, -0.1,0,0,1024,1024,1024,1024,313.6,-89.9,97,3.719,3.7,3.674,3.705,3.753,3.722,19.883,60.8,14,Waypoint,
37.0516679,-119.2428407,3920.0392648769,195.866148,0,0.63411419352,25500,2018-06-18 16:33:30,17,0,22.279,3920.0392648769,195.866148,0.223694,0.71189634824,0,0,-0.671082,313.9, 0.9, -0.5,0,0,1024,1024,1024,1024,313.6,-89.9,97,3.719,3.7,3.674,3.705,3.753,3.722,19.883,60.8,14,Waypoint,
37.0516679,-119.2428405,3922.0077688769,197.834652,0,0.60678479632,25700,2018-06-18 16:33:30,17,0,22.279,3922.0077688769,197.834652,0.223694,0.71189634824,0,0,-0.671082,314.2, 0.7, -1.6,0,0,1024,1024,1024,1024,313.6,-89.9,97,3.719,3.7,3.674,3.705,3.753,3.722,19.883,60.8,14,Waypoint,
37.0516679,-119.2428405,3922.9920208769,198.818904,0,0.60678479632,25800,2018-06-18 16:33:30,17,0,22.279,3922.9920208769,198.818904,0.223694,0.71189634824,0,0,-0.671082,314.4, 0.4, -1.4,0,0,1024,1024,1024,1024,313.6,-89.9,97,3.719,3.7,3.674,3.705,3.753,3.722,19.883,60.8,14,Waypoint,
37.0516679,-119.2428404,3924.9605248769,200.787408,0,0.59478676444,26000,2018-06-18 16:33:31,17,0,22.303,3924.9605248769,200.787408,0.223694,0.71189634824,0,0,-0.671082,314.9, 0.7, -1,0,0,1024,1024,1024,1024,313.6,-89.9,96,3.721,3.699,3.682,3.711,3.752,3.73,19.567,60.8,14,Waypoint,
37.0516679,-119.2428404,3925.9447768769,201.77166,0,0.59478676444,26100,2018-06-18 16:33:31,17,0,22.303,3925.9447768769,201.77166,0.223694,0.71189634824,0,0,-0.671082,315.1, 0.9, -1.2,0,0,1024,1024,1024,1024,313.6,-89.9,96,3.721,3.699,3.682,3.711,3.752,3.73,19.567,60.8,14,Waypoint,
37.0516679,-119.2428403,3926.9290288769,202.755912,0,0.58399936252,26200,2018-06-18 16:33:31,17,0,22.303,3926.9290288769,202.755912,0.223694,0.71189634824,0,0,-0.671082,315.2, 0.9, -1.2,0,0,1024,1024,1024,1024,313.6,-89.9,96,3.721,3.699,3.682,3.711,3.752,3.73,19.567,60.8,14,Waypoint,
37.0516679,-119.2428403,3927.9132808769,203.740164,0,0.58399936252,26300,2018-06-18 16:33:31,17,0,22.303,3927.9132808769,203.740164,0.223694,0.71189634824,0,0,-0.671082,315.2, 0.8, -1.1,0,0,1024,1024,1024,1024,313.6,-90,96,3.721,3.699,3.682,3.711,3.752,3.73,19.567,60.8,14,Waypoint,
37.0516679,-119.2428403,3928.8975328769,204.724416,0,0.58399936252,26400,2018-06-18 16:33:31,17,0,22.303,3928.8975328769,204.724416,0.223694,0.71189634824,0,0,-0.671082,315.1, 0.6, -1,0,0,1024,1024,1024,1024,313.6,-90,96,3.721,3.699,3.682,3.711,3.752,3.73,19.567,60.8,14,Waypoint,
37.0516679,-119.2428403,3929.8817848769,205.708668,0,0.58399936252,26500,2018-06-18 16:33:31,17,0,22.303,3929.8817848769,205.708668,0.223694,0.71189634824,0,0,-0.671082,314.9, 0.5, -0.8,0,0,1024,1024,1024,1024,313.6,-89.9,96,3.721,3.699,3.682,3.711,3.752,3.73,19.567,60.8,14,Waypoint,
37.0516679,-119.2428402,3930.8660368769,206.69292,0,0.57448492652,26600,2018-06-18 16:33:31,17,0,22.303,3930.8660368769,206.69292,0.223694,0.71189634824,0,0,-0.671082,314.8, 0.5, -0.6,0,0,1024,1024,1024,1024,313.6,-89.9,96,3.721,3.699,3.682,3.711,3.752,3.73,19.567,60.8,14,Waypoint,
37.0516679,-119.2428403,3931.8502888769,207.677172,0,0.58399936252,26700,2018-06-18 16:33:31,17,0,22.303,3931.8502888769,207.677172,0.223694,0.71189634824,0,0,-0.671082,314.7, 0.6, -0.5,0,0,1024,1024,1024,1024,313.6,-89.9,96,3.721,3.699,3.682,3.711,3.752,3.73,19.567,60.8,14,Waypoint,
37.0516679,-119.2428403,3932.8345408769,208.661424,0,0.58399936252,26800,2018-06-18 16:33:31,17,0,22.303,3932.8345408769,208.661424,0.223694,0.71189634824,0,0,-0.671082,314.6, 0.8, -0.7,0,0,1024,1024,1024,1024,313.6,-89.9,96,3.721,3.699,3.682,3.711,3.752,3.73,19.567,60.8,14,Waypoint,
