Latitude, Longitude, Altitude (m), Time, Sats, Speed (m/s), Range (m), Battery (%), Roll (deg), Pitch (deg), Yaw (deg), Images, HD Signal (%), RC Signal (%), Battery Temp (C), Battery Voltage (mV), Battery Current (mA), Battery Energy (mAh), Battery Capacity (mAh), Battery Discharges, flyState, timestamp (Unix), LastUpdate (ms), radioChannel, Rc_elevator, Rc_aileron, Rc_throttle, Rc_rudder, Rc_gyro, Dronetype, Battery_Cell1 (mV), Battery_Cell2 (mV), Battery_Cell3 (mV), Battery_Cell4 (mV), Battery_Cell5 (mV), Battery_Cell6 (mV), Video, isFlying, elapsedTime (ms), gimbalPitch (deg), gimbalRoll (deg), gimbalYaw (deg), VelocityX (m/s), VelocityY (m/s), VelocityZ (m/s), GroundSmear (cm), App Version, Aircraft Name, Aircraft Firmware, Aircraft Serial Number, Battery Serial Number, Battery Lifetime (%), App_Tip, App_Warning, CurrentFlightStartingIndex, CurrentFlightLastVisitedWaypoint, PreviousFlightEndingWaypointIndex
37.0516737, -119.2428143, 0.000, 10:11:22.937, 15, 0.00, 0.07, 98, -0.200, -1.400, -46.400, 681, 100, 100, 15, 25248, -3786, 5343, 5453, 13, 11, 1529341882.937, 70, 0, 1024, 1024, 1024, 1024, 0, 6, 4225, 4197, 4175, 4224, 4204, 4200, 0, 1, 3200, -89.900, 0.000, -48.000, 0.000, 0.000, -0.100, 0.0, MapPilot_2.8.1_04242018, Dendroctonus I, 1.3.1.00, 041DDC1887, 1058163200468, 97, DJI_0677.jpg, Starting Mission from Lat/Long: 37.05168/-119.24281 Camera: Zenmuse X3 - Overlap: 90/90 - Active Connection: No, 25, 25, 25
37.0516737, -119.2428144, 0.000, 10:11:23.036, 15, 0.00, 0.08, 98, 0.100, -1.700, -46.200, 681, 100, 100, 15, 25248, -3786, 5343, 5453, 13, 11, 1529341883.036, 86, 0, 1024, 1024, 1024, 1024, 0, 6, 4225, 4197, 4175, 4224, 4204, 4200, 0, 1, 3300, -89.900, 0.000, -48.000, 0.000, 0.000, -0.300, 0.0, , , , , , 97, , , 25, 25, 25
37.0516736, -119.2428144, 0.000, 10:11:23.137, 15, 0.00, 0.08, 98, 0.300, -1.100, -46.100, 681, 100, 100, 15, 25248, -3786, 5343, 5453, 13, 11, 1529341883.137, 91, 0, 1024, 1024, 1024, 1024, 0, 6, 4225, 4197, 4175, 4224, 4204, 4200, 0, 1, 3401, -89.900, 0.000, -48.000, 0.000, 0.000, -0.400, 0.0, , , , , , 97, , , 25, 25, 25
37.0516735, -119.2428145, 0.000, 10:11:23.237, 15, 0.00, 0.09, 98, 0.300, -0.200, -46.200, 681, 100, 100, 15, 25248, -3786, 5343, 5453, 13, 11, 1529341883.237, 68, 0, 1024, 1024, 1024, 1024, 0, 6, 4225, 4197, 4175, 4224, 4204, 4200, 0, 1, 3501, -89.900, 0.000, -48.000, 0.000, 0.000, -0.400, 0.0, , , , , , 97, , , 25, 25, 25
37.0516735, -119.2428146, 0.100, 10:11:23.337, 15, 0.00, 0.09, 98, 0.200, 0.100, -46.400, 681, 100, 100, 15, 25248, -3786, 5343, 5453, 13, 11, 1529341883.337, 72, 0, 1024, 1024, 1024, 1024, 0, 6, 4225, 4197, 4175, 4224, 4204, 4200, 0, 1, 3601, -89.900, 0.000, -48.000, 0.000, 0.000, -0.400, 0.0, , , , , , 97, , , 25, 25, 25
37.0516734, -119.2428147, 0.100, 10:11:23.437, 14, 0.00, 0.10, 98, 0.500, 0.300, -46.600, 681, 100, 100, 15, 25248, -3786, 5343, 5453, 13, 11, 1529341883.437, 65, 0, 1024, 1024, 1024, 1024, 0, 6, 4225, 4197, 4175, 4224, 4204, 4200, 0, 1, 3700, -89.900, 0.000, -47.900, 0.000, 0.000, -0.400, 0.0, , , , , , 97, , , 25, 25, 25
37.0516733, -119.2428149, 0.200, 10:11:23.537, 14, 0.00, 0.11, 98, 0.600, 0.700, -46.700, 681, 100, 100, 15, 25248, -3786, 5343, 5453, 13, 11, 1529341883.537, 71, 0, 1024, 1024, 1024, 1024, 0, 6, 4225, 4197, 4175, 4224, 4204, 4200, 0, 1, 3800, -89.900, 0.000, -47.900, 0.000, 0.000, -0.400, 0.0, , , , , , 97, , , 25, 25, 25
37.0516733, -119.2428150, 0.200, 10:11:23.637, 14, 0.00, 0.13, 98, 0.800, 0.800, -46.800, 681, 100, 100, 15, 24357, -7368, 5343, 5453, 13, 11, 1529341883.637, 60, 0, 1024, 1024, 1024, 1024, 0, 6, 4225, 4197, 4175, 4224, 4204, 4200, 0, 1, 3901, -89.900, 0.000, -47.900, 0.000, 0.000, -0.300, 0.0, , , , , , 97, , , 25, 25, 25
37.0516732, -119.2428152, 0.300, 10:11:23.737, 15, 0.00, 0.14, 98, 0.600, 0.300, -46.900, 681, 100, 100, 15, 24357, -7368, 5343, 5453, 13, 11, 1529341883.737, 45, 0, 1024, 1024, 1024, 1024, 0, 6, 4225, 4197, 4175, 4224, 4204, 4200, 0, 1, 4001, -89.900, 0.000, -47.900, 0.000, 0.000, -0.400, 0.0, , , , , , 97, , , 25, 25, 25
37.0516732, -119.2428152, 0.300, 10:11:23.837, 15, 0.00, 0.14, 98, 0.600, 0.300, -46.900, 681, 100, 100, 15, 24357, -7368, 5343, 5453, 13, 11, 1529341883.837, 145, 0, 1024, 1024, 1024, 1024, 0, 6, 4225, 4197, 4175, 4224, 4204, 4200, 0, 1, 4101, -89.900, 0.000, -47.900, 0.000, 0.000, -0.400, 0.0, , , , , , 97, , , 25, 25, 25
37.0516731, -119.2428154, 0.400, 10:11:23.937, 15, 0.00, 0.15, 98, 0.900, 0.500, -47.000, 681, 100, 100, 15, 24357, -7368, 5343, 5453, 13, 11, 1529341883.937, 36, 0, 1024, 1024, 1024, 1024, 0, 6, 4225, 4197, 4175, 4224, 4204, 4200, 0, 1, 4200, -89.900, 0.000, -47.800, 0.000, 0.000, -0.400, 0.0, , , , , , 97, , , 25, 25, 25
37.0516731, -119.2428155, 0.500, 10:11:24.036, 15, 0.00, 0.16, 98, 1.200, 0.800, -47.000, 681, 100, 100, 15, 24357, -7368, 5343, 5453, 13, 11, 1529341884.037, 12, 0, 1024, 1024, 1024, 1024, 0, 6, 4225, 4197, 4175, 4224, 4204, 4200, 0, 1, 4300, -89.900, 0.000, -47.800, 0.000, 0.000, -0.500, 0.0, , , , , , 97, , , 25, 25, 25
37.0516731, -119.2428157, 0.600, 10:11:24.137, 15, 0.00, 0.17, 98, 1.200, 1.100, -46.900, 681, 100, 100, 15, 24357, -7368, 5343, 5453, 13, 11, 1529341884.137, 28, 0, 1024, 1024, 1024, 1024, 0, 6, 4071, 4045, 3973, 4010, 3993, 4042, 0, 1, 4400, -89.900, 0.000, -47.800, 0.000, 0.000, -0.500, 0.0, , , , , , 97, , , 25, 25, 25
37.0516731, -119.2428158, 0.600, 10:11:24.237, 15, 0.00, 0.18, 98, 1.300, 1.200, -46.800, 681, 100, 100, 15, 24357, -7368, 5343, 5453, 13, 11, 1529341884.237, 20, 0, 1024, 1024, 1024, 1024, 0, 6, 4071, 4045, 3973, 4010, 3993, 4042, 0, 1, 4501, -89.900, 0.000, -47.800, 0.000, 0.000, -0.400, 0.0, , , , , , 97, , , 25, 25, 25
37.0516731, -119.2428159, 0.700, 10:11:24.337, 15, 0.00, 0.19, 98, 1.500, 1.300, -46.600, 681, 100, 100, 15, 24357, -7368, 5343, 5453, 13, 11, 1529341884.337, 9, 0, 1024, 1024, 1024, 1024, 0, 6, 4071, 4045, 3973, 4010, 3993, 4042, 0, 1, 4601, -89.900, 0.000, -47.800, 0.000, 0.000, -0.400, 0.0, , , , , , 97, , , 25, 25, 25
37.0516731, -119.2428160, 0.700, 10:11:24.437, 15, 0.00, 0.18, 98, 1.500, 1.400, -46.400, 681, 100, 100, 15, 24357, -7368, 5343, 5453, 13, 11, 1529341884.437, 9, 0, 1024, 1024, 1024, 1024, 0, 6, 4071, 4045, 3973, 4010, 3993, 4042, 0, 1, 4700, -89.900, 0.000, -47.700, 0.000, 0.000, -0.400, 0.0, , , , , , 97, , , 25, 25, 25
37.0516731, -119.2428160, 0.700, 10:11:24.537, 15, 0.00, 0.18, 98, 1.500, 1.400, -46.400, 681, 100, 100, 15, 24357, -7368, 5343, 5453, 13, 11, 1529341884.537, 109, 0, 1024, 1024, 1024, 1024, 0, 6, 4071, 4045, 3973, 4010, 3993, 4042, 0, 1, 4800, -89.900, 0.000, -47.700, 0.000, 0.000, -0.400, 0.0, , , , , , 97, , , 25, 25, 25
37.0516732, -119.2428161, 0.800, 10:11:24.637, 14, 0.00, 0.19, 98, 1.400, 1.500, -46.200, 681, 100, 100, 15, 24357, -7368, 5343, 5453, 13, 11, 1529341884.637, 8, 0, 1024, 1024, 1024, 1024, 0, 6, 4071, 4045, 3973, 4010, 3993, 4042, 0, 1, 4900, -89.900, 0.000, -47.700, 0.000, 0.000, -0.400, 0.0, , , , , , 97, , , 25, 25, 25
37.0516732, -119.2428161, 0.900, 10:11:24.737, 15, 0.00, 0.19, 98, 1.300, 1.600, -46.200, 681, 100, 100, 15, 24357, -7368, 5343, 5453, 13, 6, 1529341884.738, 9, 0, 1024, 1024, 1024, 1024, 0, 6, 4071, 4045, 3973, 4010, 3993, 4042, 0, 1, 5001, -89.900, 0.000, -47.700, 0.000, 0.000, -0.500, 0.0, , , , , , 97, , , 25, 25, 25
37.0516733, -119.2428162, 0.900, 10:11:24.837, 15, 0.00, 0.19, 98, 1.300, 1.700, -46.300, 681, 100, 100, 15, 24357, -7368, 5343, 5453, 13, 14, 1529341884.837, 9, 0, 1024, 1024, 1024, 1024, 0, 6, 4071, 4045, 3973, 4010, 3993, 4042, 0, 1, 5101, -89.900, 0.000, -47.700, 0.000, 0.000, -0.400, 0.0, , , , , , 97, , , 25, 25, 25
37.0516733, -119.2428162, 0.900, 10:11:24.937, 15, 0.00, 0.19, 98, 1.300, 1.700, -46.300, 681, 100, 100, 15, 24357, -7368, 5343, 5453, 13, 14, 1529341884.937, 109, 0, 1024, 1024, 1024, 1024, 0, 6, 4071, 4045, 3973, 4010, 3993, 4042, 0, 1, 5200, -89.900, 0.000, -47.700, 0.000, 0.000, -0.400, 0.0, , , , , , 97, , , 25, 25, 25
37.0516733, -119.2428162, 1.000, 10:11:25.037, 16, 0.00, 0.19, 98, 0.500, 1.700, -46.300, 681, 100, 100, 15, 24357, -7368, 5343, 5453, 13, 14, 1529341885.037, 78, 0, 1024, 1024, 1024, 1024, 0, 6, 4071, 4045, 3973, 4010, 3993, 4042, 0, 1, 5300, -89.900, 0.000, -47.700, 0.000, 0.000, -0.300, 0.0, , , , , , 97, , , 25, 25, 25
37.0516734, -119.2428162, 1.000, 10:11:25.137, 16, 0.00, 0.18, 98, -0.100, 1.300, -46.400, 681, 100, 100, 15, 23302, -16766, 5343, 5453, 13, 14, 1529341885.137, 81, 0, 1024, 1024, 1024, 1024, 0, 6, 3832, 3826, 3858, 3861, 3842, 3883, 0, 1, 5401, -89.900, 0.000, -47.700, 0.000, 0.000, -0.200, 0.0, , , , , , 97, , , 25, 25, 25
37.0516734, -119.2428162, 1.000, 10:11:25.237, 17, 0.00, 0.18, 98, -0.500, 1.000, -46.400, 681, 100, 100, 15, 23302, -16766, 5343, 5453, 13, 14, 1529341885.237, 77, 0, 1024, 1024, 1024, 1024, 0, 6, 3832, 3826, 3858, 3861, 3842, 3883, 0, 1, 5500, -89.900, 0.000, -47.600, 0.000, 0.000, -0.200, 0.0, , , , , , 97, , , 25, 25, 25
37.0516734, -119.2428162, 1.100, 10:11:25.337, 17, 0.00, 0.18, 98, -0.400, 0.900, -46.500, 681, 100, 100, 15, 23302, -16766, 5343, 5453, 13, 14, 1529341885.337, 79, 0, 1024, 1024, 1024, 1024, 0, 6, 3832, 3826, 3858, 3861, 3842, 3883, 0, 1, 5600, -89.900, 0.000, -47.600, 0.000, 0.000, -0.300, 0.0, , , , , , 97, , , 25, 25, 25
37.0516734, -119.2428163, 1.100, 10:11:25.437, 17, 0.00, 0.19, 98, -0.100, 0.900, -46.500, 681, 100, 100, 15, 23302, -16766, 5343, 5453, 13, 14, 1529341885.437, 78, 0, 1024, 1024, 1024, 1024, 0, 6, 3832, 3826, 3858, 3861, 3842, 3883, 0, 1, 5700, -90.000, 0.000, -47.600, 0.000, 0.000, -0.400, 0.0, , , , , , 97, , , 25, 25, 25
37.0516735, -119.2428163, 1.100, 10:11:25.537, 17, 0.00, 0.19, 98, 0.100, 1.000, -46.600, 681, 100, 100, 15, 23302, -16766, 5343, 5453, 13, 14, 1529341885.537, 79, 0, 1024, 1024, 1024, 1024, 0, 6, 3832, 3826, 3858, 3861, 3842, 3883, 0, 1, 5801, -89.900, 0.000, -47.600, 0.000, 0.000, -0.600, 0.0, , , , , , 97, , , 25, 25, 25
37.0516735, -119.2428164, 1.200, 10:11:25.637, 16, 0.00, 0.19, 98, 0.300, 1.100, -46.600, 681, 100, 100, 15, 23302, -16766, 5343, 5453, 13, 14, 1529341885.637, 71, 0, 1024, 1024, 1024, 1024, 0, 6, 3832, 3826, 3858, 3861, 3842, 3883, 0, 1, 5900, -89.900, 0.000, -47.600, 0.000, 0.000, -0.700, 0.0, , , , , , 97, , , 25, 25, 25
37.0516735, -119.2428166, 1.400, 10:11:25.737, 16, 0.00, 0.20, 98, 0.500, 1.300, -46.800, 681, 100, 100, 15, 23302, -16766, 5343, 5453, 13, 14, 1529341885.737, 60, 0, 1024, 1024, 1024, 1024, 0, 6, 3832, 3826, 3858, 3861, 3842, 3883, 0, 1, 6000, -89.900, 0.000, -47.600, 0.000, 0.000, -1.200, 0.0, , , , , , 97, , , 25, 25, 25
37.0516734, -119.2428167, 1.600, 10:11:25.837, 16, 0.00, 0.21, 98, 0.600, 1.500, -46.900, 681, 100, 100, 15, 23302, -16766, 5343, 5453, 13, 14, 1529341885.837, 58, 0, 1024, 1024, 1024, 1024, 0, 6, 3832, 3826, 3858, 3861, 3842, 3883, 0, 1, 6100, -89.900, 0.000, -47.500, 0.000, 0.000, -1.400, 0.0, , , , , , 97, , , 25, 25, 25
37.0516734, -119.2428167, 1.600, 10:11:25.937, 16, 0.00, 0.21, 98, 0.600, 1.500, -46.900, 681, 100, 100, 15, 23302, -16766, 5343, 5453, 13, 14, 1529341885.937, 158, 0, 1024, 1024, 1024, 1024, 0, 6, 3832, 3826, 3858, 3861, 3842, 3883, 0, 1, 6200, -89.900, 0.000, -47.500, 0.000, 0.000, -1.400, 0.0, , , , , , 97, , , 25, 25, 25
37.0516733, -119.2428168, 1.900, 10:11:26.037, 17, 0.00, 0.23, 98, 0.900, 1.400, -46.900, 681, 100, 100, 15, 23302, -16766, 5343, 5453, 13, 14, 1529341886.037, 39, 0, 1024, 1024, 1024, 1024, 0, 6, 3832, 3826, 3858, 3861, 3842, 3883, 0, 1, 6300, -89.900, 0.000, -47.500, 0.000, 0.000, -1.800, 0.0, , , , , , 97, , , 25, 25, 25
37.0516732, -119.2428169, 2.100, 10:11:26.137, 15, 0.00, 0.24, 98, 0.900, 1.300, -46.700, 681, 100, 100, 15, 22914, -17412, 5343, 5453, 13, 14, 1529341886.137, 33, 0, 1024, 1024, 1024, 1024, 0, 6, 3838, 3754, 3760, 3767, 3786, 3856, 0, 1, 6400, -89.900, 0.000, -47.500, 0.000, 0.000, -2.000, 0.0, , , , , , 97, , , 25, 25, 25
37.0516732, -119.2428170, 2.300, 10:11:26.237, 15, 0.00, 0.26, 98, 0.800, 1.100, -46.500, 681, 100, 100, 15, 22914, -17412, 5343, 5453, 13, 14, 1529341886.237, 28, 0, 1024, 1024, 1024, 1024, 0, 6, 3838, 3754, 3760, 3767, 3786, 3856, 0, 1, 6500, -89.900, 0.000, -47.500, 0.000, 0.000, -2.200, 0.0, , , , , , 97, , , 25, 25, 25
37.0516731, -119.2428171, 2.600, 10:11:26.337, 16, 0.00, 0.27, 98, 0.900, 1.100, -46.300, 681, 100, 100, 15, 22914, -17412, 5343, 5453, 13, 14, 1529341886.337, 33, 0, 1024, 1024, 1024, 1024, 0, 6, 3838, 3754, 3760, 3767, 3786, 3856, 0, 1, 6600, -89.900, 0.000, -47.500, 0.000, 0.000, -2.500, 0.0, , , , , , 97, , , 25, 25, 25
37.0516730, -119.2428172, 2.800, 10:11:26.437, 16, 0.00, 0.28, 98, 1.000, 1.300, -46.200, 681, 100, 100, 15, 22914, -17412, 5343, 5453, 13, 14, 1529341886.437, 26, 0, 1024, 1024, 1024, 1024, 0, 6, 3838, 3754, 3760, 3767, 3786, 3856, 0, 1, 6700, -89.900, 0.000, -47.400, 0.000, 0.000, -2.700, 0.0, , , , , , 97, , , 25, 25, 25
37.0516730, -119.2428173, 3.100, 10:11:26.537, 16, 0.00, 0.29, 98, 0.900, 1.400, -46.100, 681, 100, 100, 15, 22914, -17412, 5343, 5453, 13, 14, 1529341886.537, 18, 0, 1024, 1024, 1024, 1024, 0, 6, 3838, 3754, 3760, 3767, 3786, 3856, 0, 1, 6800, -89.900, 0.000, -47.400, 0.000, 0.000, -2.900, 0.0, , , , , , 97, , , 25, 25, 25
37.0516730, -119.2428173, 3.100, 10:11:26.637, 16, 0.00, 0.29, 98, 0.900, 1.400, -46.100, 681, 100, 100, 15, 22914, -17412, 5343, 5453, 13, 14, 1529341886.637, 118, 0, 1024, 1024, 1024, 1024, 0, 6, 3838, 3754, 3760, 3767, 3786, 3856, 0, 1, 6900, -89.900, 0.000, -47.400, 0.000, 0.000, -2.900, 0.0, , , , , , 97, , , 25, 25, 25
37.0516728, -119.2428175, 3.800, 10:11:26.737, 17, 0.00, 0.31, 98, 0.900, 1.500, -45.700, 681, 100, 100, 15, 22914, -17412, 5343, 5453, 13, 14, 1529341886.737, 16, 0, 1024, 1024, 1024, 1024, 0, 6, 3838, 3754, 3760, 3767, 3786, 3856, 0, 1, 7000, -89.900, 0.000, -47.400, 0.000, 0.000, -3.200, 0.0, , , , , , 97, , , 25, 25, 25
37.0516728, -119.2428175, 3.800, 10:11:26.837, 17, 0.00, 0.31, 98, 0.900, 1.500, -45.700, 681, 100, 100, 15, 22914, -17412, 5343, 5453, 13, 14, 1529341886.837, 116, 0, 1024, 1024, 1024, 1024, 0, 6, 3838, 3754, 3760, 3767, 3786, 3856, 0, 1, 7100, -89.900, 0.000, -47.400, 0.000, 0.000, -3.200, 0.0, , , , , , 97, , , 25, 25, 25
37.0516728, -119.2428176, 4.500, 10:11:26.948, 18, 0.00, 0.32, 98, 0.700, 1.400, -45.600, 681, 100, 100, 15, 22914, -17412, 5343, 5453, 13, 14, 1529341886.948, 3, 0, 1024, 1024, 1024, 1024, 0, 6, 3838, 3754, 3760, 3767, 3786, 3856, 0, 1, 7211, -89.900, 0.000, -47.400, 0.000, 0.000, -3.300, 0.0, , , , , , 97, , , 25, 25, 25
37.0516728, -119.2428176, 4.500, 10:11:27.037, 18, 0.00, 0.32, 98, 0.700, 1.400, -45.600, 681, 100, 100, 15, 22914, -17412, 5343, 5453, 13, 14, 1529341887.037, 92, 0, 1024, 1024, 1024, 1024, 0, 6, 3838, 3754, 3760, 3767, 3786, 3856, 0, 1, 7300, -89.900, 0.000, -47.400, 0.000, 0.000, -3.300, 0.0, , , , , , 97, , , 25, 25, 25
37.0516727, -119.2428175, 5.200, 10:11:27.137, 18, 0.00, 0.32, 98, 0.300, 1.200, -45.700, 681, 100, 100, 15, 22071, -24690, 5343, 5453, 13, 14, 1529341887.137, 5, 0, 1024, 1024, 1024, 1024, 0, 6, 3683, 3658, 3634, 3649, 3662, 3698, 0, 1, 7400, -89.900, 0.000, -47.400, 0.000, 0.000, -3.300, 0.0, , , , , , 97, , , 25, 25, 25
37.0516727, -119.2428175, 5.200, 10:11:27.237, 18, 0.00, 0.32, 98, 0.300, 1.200, -45.700, 681, 100, 100, 15, 22071, -24690, 5343, 5453, 13, 14, 1529341887.237, 105, 0, 1024, 1024, 1024, 1024, 0, 6, 3683, 3658, 3634, 3649, 3662, 3698, 0, 1, 7500, -89.900, 0.000, -47.400, 0.000, 0.000, -3.300, 0.0, , , , , , 97, , , 25, 25, 25
37.0516727, -119.2428174, 5.500, 10:11:27.337, 18, 0.00, 0.31, 98, 0.100, 0.900, -45.900, 681, 100, 100, 15, 22071, -24690, 5343, 5453, 13, 14, 1529341887.337, 86, 0, 1024, 1024, 1024, 1024, 0, 6, 3683, 3658, 3634, 3649, 3662, 3698, 0, 1, 7600, -89.900, 0.000, -47.400, 0.000, 0.000, -3.300, 0.0, , , , , , 97, , , 25, 25, 25
37.0516727, -119.2428173, 5.900, 10:11:27.437, 17, 0.00, 0.30, 98, 0.000, 0.700, -46.200, 681, 100, 100, 15, 22071, -24690, 5343, 5453, 13, 14, 1529341887.437, 90, 0, 1024, 1024, 1024, 1024, 0, 6, 3683, 3658, 3634, 3649, 3662, 3698, 0, 1, 7700, -90.000, 0.000, -47.400, 0.000, 0.000, -3.300, 0.0, , , , , , 97, , , 25, 25, 25
37.0516728, -119.2428172, 6.200, 10:11:27.537, 17, 0.10, 0.29, 98, -0.200, 0.500, -46.400, 681, 100, 100, 15, 22071, -24690, 5343, 5453, 13, 14, 1529341887.537, 71, 0, 1024, 1024, 1024, 1024, 0, 6, 3683, 3658, 3634, 3649, 3662, 3698, 0, 1, 7800, -90.000, 0.000, -47.400, 0.000, 0.100, -3.300, 0.0, , , , , , 97, , , 25, 25, 25
37.0516728, -119.2428170, 6.600, 10:11:27.637, 18, 0.10, 0.28, 98, -0.500, 0.500, -46.500, 681, 100, 100, 15, 22071, -24690, 5343, 5453, 13, 14, 1529341887.637, 86, 0, 1024, 1024, 1024, 1024, 0, 6, 3683, 3658, 3634, 3649, 3662, 3698, 0, 1, 7900, -90.000, 0.000, -47.400, 0.000, 0.100, -3.300, 0.0, , , , , , 97, , , 25, 25, 25
37.0516729, -119.2428168, 6.900, 10:11:27.737, 18, 0.10, 0.26, 98, -0.900, 0.300, -46.700, 681, 100, 97, 15, 22071, -24690, 5343, 5453, 13, 14, 1529341887.737, 89, 0, 1024, 1024, 1024, 1024, 0, 6, 3683, 3658, 3634, 3649, 3662, 3698, 0, 1, 8000, -90.000, 0.000, -47.400, 0.000, 0.100, -3.300, 0.0, , , , , , 97, , , 25, 25, 25
37.0516729, -119.2428166, 7.300, 10:11:27.837, 18, 0.10, 0.24, 98, -1.100, 0.200, -46.800, 681, 100, 97, 15, 22071, -24690, 5343, 5453, 13, 14, 1529341887.837, 53, 0, 1024, 1024, 1024, 1024, 0, 6, 3683, 3658, 3634, 3649, 3662, 3698, 0, 1, 8100, -90.000, 0.000, -47.400, 0.000, 0.100, -3.200, 0.0, , , , , , 97, , , 25, 25, 25
37.0516730, -119.2428164, 7.600, 10:11:27.937, 18, 0.10, 0.22, 98, -1.100, 0.100, -46.900, 681, 100, 97, 15, 22071, -24690, 5343, 5453, 13, 14, 1529341887.937, 57, 0, 1024, 1024, 1024, 1024, 0, 6, 3683, 3658, 3634, 3649, 3662, 3698, 0, 1, 8200, -90.000, 0.000, -47.400, 0.000, 0.100, -3.200, 0.0, , , , , , 97, , , 25, 25, 25
37.0516731, -119.2428162, 8.000, 10:11:28.037, 18, 0.10, 0.20, 98, -1.300, 0.000, -47.000, 681, 100, 97, 15, 22071, -24690, 5343, 5453, 13, 14, 1529341888.037, 50, 0, 1024, 1024, 1024, 1024, 0, 6, 3683, 3658, 3634, 3649, 3662, 3698, 0, 1, 8300, -90.000, 0.000, -47.400, 0.000, 0.100, -3.100, 0.0, , , , , , 97, , , 25, 25, 25
37.0516731, -119.2428161, 8.300, 10:11:28.137, 18, 0.00, 0.19, 98, -1.300, 0.000, -47.000, 681, 100, 97, 15, 22412, -20189, 5343, 5453, 13, 14, 1529341888.137, 59, 0, 1024, 1024, 1024, 1024, 0, 6, 3757, 3750, 3738, 3752, 3750, 3783, 0, 1, 8400, -90.000, 0.000, -47.400, 0.000, 0.000, -3.100, 0.0, , , , , , 97, , , 25, 25, 25
37.0516732, -119.2428159, 8.600, 10:11:28.237, 18, 0.00, 0.17, 98, -1.400, 0.000, -46.900, 681, 100, 97, 15, 22412, -20189, 5343, 5453, 13, 14, 1529341888.237, 67, 0, 1024, 1024, 1024, 1024, 0, 6, 3757, 3750, 3738, 3752, 3750, 3783, 0, 1, 8500, -90.000, 0.000, -47.400, 0.000, 0.000, -3.100, 0.0, , , , , , 97, , , 25, 25, 25
37.0516733, -119.2428156, 9.300, 10:11:28.336, 18, 0.00, 0.14, 98, -0.600, -0.100, -46.400, 681, 100, 97, 15, 22412, -20189, 5343, 5453, 13, 14, 1529341888.337, 56, 0, 1024, 1024, 1024, 1024, 0, 6, 3757, 3750, 3738, 3752, 3750, 3783, 0, 1, 8600, -90.000, 0.000, -47.400, 0.000, 0.000, -3.100, 0.0, , , , , , 97, , , 25, 25, 25
37.0516734, -119.2428154, 9.600, 10:11:28.437, 18, 0.00, 0.13, 98, -0.800, -0.300, -46.100, 681, 100, 97, 15, 22412, -20189, 5343, 5453, 13, 14, 1529341888.437, 57, 0, 1024, 1024, 1024, 1024, 0, 6, 3757, 3750, 3738, 3752, 3750, 3783, 0, 1, 8700, -90.000, 0.000, -47.400, 0.000, 0.000, -3.100, 0.0, , , , , , 97, , , 25, 25, 25
37.0516734, -119.2428154, 9.600, 10:11:28.537, 18, 0.00, 0.13, 98, -0.800, -0.300, -46.100, 681, 100, 97, 15, 22412, -20189, 5343, 5453, 13, 14, 1529341888.537, 158, 0, 1024, 1024, 1024, 1024, 0, 6, 3757, 3750, 3738, 3752, 3750, 3783, 0, 1, 8800, -90.000, 0.000, -47.400, 0.000, 0.000, -3.100, 0.0, , , , , , 97, , , 25, 25, 25
37.0516736, -119.2428152, 10.200, 10:11:28.637, 18, 0.00, 0.10, 98, -1.400, 0.000, -45.600, 681, 100, 97, 15, 22412, -20189, 5343, 5453, 13, 14, 1529341888.637, 26, 0, 1024, 1024, 1024, 1024, 0, 6, 3757, 3750, 3738, 3752, 3750, 3783, 0, 1, 8901, -89.900, 0.000, -47.400, 0.000, 0.000, -3.000, 0.0, , , , , , 97, , , 25, 25, 25
37.0516736, -119.2428151, 10.500, 10:11:28.737, 18, 0.00, 0.09, 98, -1.800, 0.100, -45.500, 681, 100, 99, 15, 22412, -20189, 5343, 5453, 13, 14, 1529341888.737, 29, 0, 1024, 1024, 1024, 1024, 0, 6, 3757, 3750, 3738, 3752, 3750, 3783, 0, 1, 9000, -89.900, 0.000, -47.400, 0.000, 0.000, -2.900, 0.0, , , , , , 97, , , 25, 25, 25
37.0516737, -119.2428150, 10.800, 10:11:28.837, 18, 0.00, 0.08, 98, -1.900, 0.200, -45.600, 681, 100, 99, 15, 22412, -20189, 5343, 5453, 13, 14, 1529341888.837, 20, 0, 1024, 1024, 1024, 1024, 0, 6, 3757, 3750, 3738, 3752, 3750, 3783, 0, 1, 9100, -89.900, 0.000, -47.400, 0.000, 0.000, -2.900, 0.0, , , , , , 97, , , 25, 25, 25
37.0516738, -119.2428150, 11.100, 10:11:28.937, 18, 0.00, 0.07, 98, -1.800, 0.300, -45.700, 681, 100, 99, 15, 22412, -20189, 5343, 5453, 13, 14, 1529341888.937, 14, 0, 1024, 1024, 1024, 1024, 0, 6, 3757, 3750, 3738, 3752, 3750, 3783, 0, 1, 9200, -89.900, 0.000, -47.400, 0.000, 0.000, -2.900, 0.0, , , , , , 97, , , 25, 25, 25
37.0516739, -119.2428149, 11.400, 10:11:29.037, 18, 0.00, 0.06, 98, -1.800, 0.500, -46.000, 681, 100, 99, 15, 22412, -20189, 5343, 5453, 13, 14, 1529341889.037, 29, 0, 1024, 1024, 1024, 1024, 0, 6, 3757, 3750, 3738, 3752, 3750, 3783, 0, 1, 9301, -89.900, 0.000, -47.400, 0.000, 0.000, -3.000, 0.0, , , , , , 97, , , 25, 25, 25
37.0516740, -119.2428149, 11.800, 10:11:29.137, 18, 0.00, 0.05, 98, -1.700, 0.500, -46.300, 681, 100, 99, 15, 22685, -16913, 5343, 5453, 13, 14, 1529341889.137, 20, 0, 1024, 1024, 1024, 1024, 0, 6, 3757, 3750, 3738, 3752, 3750, 3783, 0, 1, 9400, -89.900, 0.000, -47.400, 0.000, 0.000, -3.000, 0.0, , , , , , 97, , , 25, 25, 25
37.0516740, -119.2428149, 12.100, 10:11:29.237, 18, 0.00, 0.05, 98, -1.600, 0.500, -46.500, 681, 100, 100, 15, 22685, -16913, 5343, 5453, 13, 14, 1529341889.237, 27, 0, 1024, 1024, 1024, 1024, 0, 6, 3757, 3750, 3738, 3752, 3750, 3783, 0, 1, 9500, -89.900, 0.000, -47.400, 0.000, 0.000, -2.900, 0.0, , , , , , 97, , , 25, 25, 25
37.0516741, -119.2428149, 12.300, 10:11:29.337, 18, 0.00, 0.04, 98, -1.500, 0.500, -46.700, 681, 100, 100, 15, 22685, -16913, 5343, 5453, 13, 14, 1529341889.337, 18, 0, 1024, 1024, 1024, 1024, 0, 6, 3757, 3750, 3738, 3752, 3750, 3783, 0, 1, 9600, -89.900, 0.000, -47.400, 0.000, 0.000, -2.800, 0.0, , , , , , 97, , , 25, 25, 25
37.0516741, -119.2428149, 12.600, 10:11:29.437, 18, 0.00, 0.05, 98, -1.400, 0.700, -46.800, 681, 100, 100, 15, 22685, -16913, 5343, 5453, 13, 14, 1529341889.437, 20, 0, 1024, 1024, 1024, 1024, 0, 6, 3757, 3750, 3738, 3752, 3750, 3783, 0, 1, 9700, -89.900, 0.000, -47.400, 0.000, 0.000, -2.900, 0.0, , , , , , 97, , , 25, 25, 25
37.0516741, -119.2428149, 12.600, 10:11:29.537, 18, 0.00, 0.05, 98, -1.400, 0.700, -46.800, 681, 100, 100, 15, 22685, -16913, 5343, 5453, 13, 14, 1529341889.537, 120, 0, 1024, 1024, 1024, 1024, 0, 6, 3757, 3750, 3738, 3752, 3750, 3783, 0, 1, 9800, -89.900, 0.000, -47.400, 0.000, 0.000, -2.900, 0.0, , , , , , 97, , , 25, 25, 25
37.0516740, -119.2428150, 12.900, 10:11:29.637, 18, 0.00, 0.05, 98, -1.000, 0.800, -46.700, 681, 100, 100, 15, 22685, -16913, 5343, 5453, 13, 14, 1529341889.637, 99, 0, 1024, 1024, 1024, 1024, 0, 6, 3787, 3779, 3777, 3789, 3789, 3808, 0, 1, 9900, -89.900, 0.000, -47.400, 0.000, 0.000, -2.900, 0.0, , , , , , 97, , , 25, 25, 25
37.0516740, -119.2428151, 13.200, 10:11:29.737, 18, 0.00, 0.06, 98, -0.600, 0.800, -46.600, 681, 100, 100, 15, 22685, -16913, 5343, 5453, 13, 14, 1529341889.737, 92, 0, 1024, 1024, 1024, 1024, 0, 6, 3787, 3779, 3777, 3789, 3789, 3808, 0, 1, 10000, -89.900, 0.000, -47.400, 0.000, 0.000, -2.900, 0.0, , , , , , 97, , , 25, 25, 25
37.0516740, -119.2428152, 13.500, 10:11:29.837, 18, 0.00, 0.07, 98, -0.200, 0.600, -46.300, 681, 100, 100, 15, 22685, -16913, 5343, 5453, 13, 14, 1529341889.837, 98, 0, 1024, 1024, 1024, 1024, 0, 6, 3787, 3779, 3777, 3789, 3789, 3808, 0, 1, 10100, -89.900, 0.000, -47.400, 0.000, 0.000, -2.900, 0.0, , , , , , 97, , , 25, 25, 25
37.0516739, -119.2428153, 13.800, 10:11:29.937, 18, 0.00, 0.08, 98, 0.100, 0.500, -46.100, 681, 100, 100, 15, 22685, -16913, 5343, 5453, 13, 14, 1529341889.937, 89, 0, 1024, 1024, 1024, 1024, 0, 6, 3787, 3779, 3777, 3789, 3789, 3808, 0, 1, 10200, -89.900, 0.000, -47.400, 0.000, 0.000, -2.900, 0.0, , , , , , 97, , , 25, 25, 25
37.0516738, -119.2428154, 14.100, 10:11:30.037, 18, 0.00, 0.10, 98, 0.400, 0.500, -45.900, 681, 100, 100, 15, 22685, -16913, 5343, 5453, 13, 14, 1529341890.037, 81, 0, 1024, 1024, 1024, 1024, 0, 6, 3787, 3779, 3777, 3789, 3789, 3808, 0, 1, 10300, -89.900, 0.000, -47.300, 0.000, 0.000, -3.000, 0.0, , , , , , 97, , , 25, 25, 25
37.0516737, -119.2428155, 14.400, 10:11:30.137, 18, 0.00, 0.11, 98, 0.500, 0.600, -45.900, 681, 100, 100, 15, 22685, -16913, 5343, 5453, 13, 14, 1529341890.137, 90, 0, 1024, 1024, 1024, 1024, 0, 6, 3787, 3779, 3777, 3789, 3789, 3808, 0, 1, 10400, -89.900, 0.000, -47.300, 0.000, 0.000, -3.000, 0.0, , , , , , 97, , , 25, 25, 25
37.0516737, -119.2428156, 14.700, 10:11:30.237, 18, 0.10, 0.12, 98, 0.500, 0.700, -45.900, 681, 100, 99, 15, 22685, -16913, 5343, 5453, 13, 14, 1529341890.237, 59, 0, 1024, 1024, 1024, 1024, 0, 6, 3787, 3779, 3777, 3789, 3789, 3808, 0, 1, 10500, -89.900, 0.000, -47.300, 0.000, -0.100, -2.900, 0.0, , , , , , 97, , , 25, 25, 25
37.0516736, -119.2428158, 15.000, 10:11:30.337, 18, 0.10, 0.14, 98, 0.700, 0.800, -46.100, 681, 100, 99, 15, 22685, -16913, 5343, 5453, 13, 14, 1529341890.337, 59, 0, 1024, 1024, 1024, 1024, 0, 6, 3787, 3779, 3777, 3789, 3789, 3808, 0, 1, 10600, -89.900, 0.000, -47.400, 0.000, -0.100, -2.800, 0.0, , , , , , 97, , , 25, 25, 25
37.0516735, -119.2428159, 15.300, 10:11:30.437, 18, 0.10, 0.15, 98, 1.100, 0.900, -46.300, 681, 100, 99, 15, 22685, -16913, 5343, 5453, 13, 14, 1529341890.437, 53, 0, 1024, 1024, 1024, 1024, 0, 6, 3787, 3779, 3777, 3789, 3789, 3808, 0, 1, 10700, -89.900, 0.000, -47.400, 0.000, -0.100, -2.900, 0.0, , , , , , 97, , , 25, 25, 25
37.0516734, -119.2428161, 15.600, 10:11:30.537, 18, 0.10, 0.17, 98, 1.500, 0.900, -46.400, 681, 100, 99, 15, 22685, -16913, 5343, 5453, 13, 14, 1529341890.537, 58, 0, 1024, 1024, 1024, 1024, 0, 6, 3787, 3779, 3777, 3789, 3789, 3808, 0, 1, 10800, -89.900, 0.000, -47.400, 0.000, -0.100, -2.900, 0.0, , , , , , 97, , , 25, 25, 25
37.0516733, -119.2428162, 15.900, 10:11:30.637, 18, 0.10, 0.19, 98, 1.600, 1.100, -46.600, 681, 100, 99, 15, 22737, -16734, 5343, 5453, 13, 14, 1529341890.637, 59, 0, 1024, 1024, 1024, 1024, 0, 6, 3776, 3763, 3768, 3784, 3779, 3805, 0, 1, 10900, -89.900, 0.000, -47.400, 0.000, -0.100, -2.900, 0.0, , , , , , 97, , , 25, 25, 25
37.0516731, -119.2428165, 16.500, 10:11:30.737, 18, 0.00, 0.22, 98, 1.600, 0.900, -46.900, 681, 100, 99, 15, 22737, -16734, 5343, 5453, 13, 14, 1529341890.737, 48, 0, 1024, 1024, 1024, 1024, 0, 6, 3776, 3763, 3768, 3784, 3779, 3805, 0, 1, 11000, -89.900, 0.000, -47.400, 0.000, 0.000, -2.900, 0.0, , , , , , 97, , , 25, 25, 25
37.0516731, -119.2428165, 16.500, 10:11:30.837, 18, 0.00, 0.22, 98, 1.600, 0.900, -46.900, 681, 100, 99, 15, 22737, -16734, 5343, 5453, 13, 14, 1529341890.837, 148, 0, 1024, 1024, 1024, 1024, 0, 6, 3776, 3763, 3768, 3784, 3779, 3805, 0, 1, 11100, -89.900, 0.000, -47.400, 0.000, 0.000, -2.900, 0.0, , , , , , 97, , , 25, 25, 25
37.0516729, -119.2428168, 17.100, 10:11:30.937, 18, 0.00, 0.25, 98, 1.800, 1.100, -46.500, 681, 100, 99, 15, 22737, -16734, 5343, 5453, 13, 14, 1529341890.937, 41, 0, 1024, 1024, 1024, 1024, 0, 6, 3776, 3763, 3768, 3784, 3779, 3805, 0, 1, 11200, -89.900, 0.000, -47.400, 0.000, 0.000, -2.900, 0.0, , , , , , 97, , , 25, 25, 25
37.0516728, -119.2428169, 17.400, 10:11:31.037, 18, 0.00, 0.27, 98, 1.900, 1.000, -46.100, 681, 100, 99, 15, 22737, -16734, 5343, 5453, 13, 14, 1529341891.037, 23, 0, 1024, 1024, 1024, 1024, 0, 6, 3776, 3763, 3768, 3784, 3779, 3805, 0, 1, 11300, -89.900, 0.000, -47.400, 0.000, 0.000, -2.900, 0.0, , , , , , 97, , , 25, 25, 25
37.0516727, -119.2428170, 17.700, 10:11:31.137, 18, 0.00, 0.28, 98, 1.800, 0.800, -45.700, 681, 100, 99, 15, 22737, -16734, 5343, 5453, 13, 14, 1529341891.137, 27, 0, 1024, 1024, 1024, 1024, 0, 6, 3776, 3763, 3768, 3784, 3779, 3805, 0, 1, 11400, -89.900, 0.000, -47.300, 0.000, 0.000, -2.900, 0.0, , , , , , 97, , , 25, 25, 25
37.0516727, -119.2428170, 17.700, 10:11:31.237, 18, 0.00, 0.28, 98, 1.800, 0.800, -45.700, 681, 100, 99, 15, 22737, -16734, 5343, 5453, 13, 14, 1529341891.237, 127, 0, 1024, 1024, 1024, 1024, 0, 6, 3776, 3763, 3768, 3784, 3779, 3805, 0, 1, 11500, -89.900, 0.000, -47.400, 0.000, 0.000, -2.900, 0.0, , , , , , 97, , , 25, 25, 25
37.0516725, -119.2428172, 18.300, 10:11:31.337, 18, 0.00, 0.31, 98, 2.200, 0.800, -45.400, 681, 100, 99, 15, 22737, -16734, 5343, 5453, 13, 14, 1529341891.337, 23, 0, 1024, 1024, 1024, 1024, 0, 6, 3776, 3763, 3768, 3784, 3779, 3805, 0, 1, 11600, -89.900, 0.000, -47.400, 0.000, 0.000, -2.900, 0.0, , , , , , 97, , , 25, 25, 25
37.0516724, -119.2428172, 18.600, 10:11:31.437, 18, 0.00, 0.32, 98, 2.100, 0.500, -45.600, 681, 100, 99, 15, 22737, -16734, 5343, 5453, 13, 14, 1529341891.437, 13, 0, 1024, 1024, 1024, 1024, 0, 6, 3776, 3763, 3768, 3784, 3779, 3805, 0, 1, 11700, -89.900, 0.000, -47.400, 0.000, 0.000, -2.900, 0.0, , , , , , 97, , , 25, 25, 25
37.0516724, -119.2428172, 18.600, 10:11:31.537, 18, 0.00, 0.32, 98, 2.100, 0.500, -45.600, 681, 100, 99, 15, 22737, -16734, 5343, 5453, 13, 14, 1529341891.537, 113, 0, 1024, 1024, 1024, 1024, 0, 6, 3776, 3763, 3768, 3784, 3779, 3805, 0, 1, 11800, -90.000, 0.000, -47.300, 0.000, 0.000, -2.900, 0.0, , , , , , 97, , , 25, 25, 25
37.0516724, -119.2428172, 18.600, 10:11:31.637, 18, 0.00, 0.32, 98, 2.100, 0.500, -45.600, 681, 100, 99, 15, 22737, -16734, 5343, 5453, 13, 14, 1529341891.637, 213, 0, 1024, 1024, 1024, 1024, 0, 6, 3776, 3763, 3768, 3784, 3779, 3805, 0, 1, 11900, -90.000, 0.000, -47.300, 0.000, 0.000, -2.900, 0.0, , , , , , 97, , , 25, 25, 25
37.0516723, -119.2428172, 19.200, 10:11:31.737, 18, 0.00, 0.33, 98, 1.600, 0.000, -46.100, 681, 100, 94, 15, 22737, -16734, 5343, 5453, 13, 14, 1529341891.737, 96, 0, 1024, 1024, 1024, 1024, 0, 6, 3776, 3763, 3768, 3784, 3779, 3805, 0, 1, 12000, -90.000, 0.000, -47.400, 0.000, 0.000, -2.800, 0.0, , , , , , 97, , , 25, 25, 25
37.0516721, -119.2428173, 19.800, 10:11:31.840, 17, 0.00, 0.34, 98, 1.300, -0.100, -46.600, 681, 100, 94, 15, 22737, -16734, 5343, 5453, 13, 14, 1529341891.840, 3, 0, 1024, 1024, 1024, 1024, 0, 6, 3776, 3763, 3768, 3784, 3779, 3805, 0, 1, 12103, -89.900, 0.000, -47.400, 0.000, 0.000, -2.900, 0.0, , , , , , 97, , , 25, 25, 25
37.0516721, -119.2428173, 19.800, 10:11:31.937, 17, 0.00, 0.34, 98, 1.300, -0.100, -46.600, 681, 100, 94, 15, 22737, -16734, 5343, 5453, 13, 14, 1529341891.937, 100, 0, 1024, 1024, 1024, 1024, 0, 6, 3776, 3763, 3768, 3784, 3779, 3805, 0, 1, 12200, -89.900, 0.000, -47.400, 0.000, 0.000, -2.900, 0.0, , , , , , 97, , , 25, 25, 25
37.0516721, -119.2428173, 20.100, 10:11:32.037, 17, 0.00, 0.35, 98, 1.300, -0.100, -46.800, 681, 100, 94, 15, 22737, -16734, 5343, 5453, 13, 14, 1529341892.037, 88, 0, 1024, 1024, 1024, 1024, 0, 6, 3776, 3763, 3768, 3784, 3779, 3805, 0, 1, 12300, -89.900, 0.000, -47.400, 0.000, 0.000, -2.900, 0.0, , , , , , 97, , , 25, 25, 25
37.0516720, -119.2428173, 20.400, 10:11:32.137, 17, 0.00, 0.36, 98, 1.300, 0.000, -46.800, 681, 100, 94, 15, 22737, -16734, 5343, 5453, 13, 14, 1529341892.137, 89, 0, 1024, 1024, 1024, 1024, 0, 6, 3776, 3763, 3768, 3784, 3779, 3805, 0, 1, 12400, -89.900, 0.000, -47.400, 0.000, 0.000, -2.900, 0.0, , , , , , 97, , , 25, 25, 25
37.0516719, -119.2428173, 20.600, 10:11:32.237, 17, 0.00, 0.36, 98, 1.500, -0.100, -46.800, 681, 100, 93, 15, 22737, -16734, 5343, 5453, 13, 14, 1529341892.237, 80, 0, 1024, 1024, 1024, 1024, 0, 6, 3776, 3763, 3768, 3784, 3779, 3805, 0, 1, 12500, -90.000, 0.000, -47.400, 0.000, 0.000, -2.900, 0.0, , , , , , 97, , , 25, 25, 25
37.0516719, -119.2428173, 20.900, 10:11:32.337, 17, 0.00, 0.37, 98, 1.500, 0.000, -46.800, 681, 100, 93, 15, 22737, -16734, 5343, 5453, 13, 14, 1529341892.337, 64, 0, 1024, 1024, 1024, 1024, 0, 6, 3776, 3763, 3768, 3784, 3779, 3805, 0, 1, 12600, -89.900, 0.000, -47.400, 0.000, 0.000, -2.900, 0.0, , , , , , 97, , , 25, 25, 25
37.0516718, -119.2428174, 21.300, 10:11:32.437, 17, 0.00, 0.37, 98, 1.600, 0.000, -46.700, 681, 100, 93, 15, 22737, -16734, 5343, 5453, 13, 14, 1529341892.437, 80, 0, 1024, 1024, 1024, 1024, 0, 6, 3776, 3763, 3768, 3784, 3779, 3805, 0, 1, 12700, -89.900, 0.000, -47.300, 0.000, 0.000, -3.000, 0.0, , , , , , 97, , , 25, 25, 25
37.0516718, -119.2428174, 21.600, 10:11:32.537, 17, 0.00, 0.37, 98, 1.600, 0.100, -46.600, 681, 100, 93, 15, 22737, -16734, 5343, 5453, 13, 14, 1529341892.537, 58, 0, 1024, 1024, 1024, 1024, 0, 6, 3776, 3763, 3768, 3784, 3779, 3805, 0, 1, 12800, -89.900, 0.000, -47.400, 0.000, 0.000, -3.000, 0.0, , , , , , 97, , , 25, 25, 25
37.0516718, -119.2428174, 21.900, 10:11:32.637, 17, 0.00, 0.37, 98, 1.500, 0.300, -46.500, 681, 100, 93, 15, 22569, -17818, 5343, 5453, 13, 14, 1529341892.637, 76, 0, 1024, 1024, 1024, 1024, 0, 6, 3755, 3743, 3747, 3763, 3749, 3786, 0, 1, 12900, -89.900, 0.000, -47.400, 0.000, 0.000, -2.900, 0.0, , , , , , 97, , , 25, 25, 25
37.0516718, -119.2428174, 22.100, 10:11:32.737, 17, 0.00, 0.38, 98, 1.400, 0.500, -46.400, 681, 100, 95, 15, 22569, -17818, 5343, 5453, 13, 14, 1529341892.737, 68, 0, 1024, 1024, 1024, 1024, 0, 6, 3755, 3743, 3747, 3763, 3749, 3786, 0, 1, 13000, -89.900, 0.000, -47.300, 0.000, 0.000, -2.900, 0.0, , , , , , 97, , , 25, 25, 25
37.0516718, -119.2428174, 22.400, 10:11:32.837, 18, 0.00, 0.37, 98, 1.300, 0.600, -46.400, 681, 100, 95, 15, 22569, -17818, 5343, 5453, 13, 14, 1529341892.837, 58, 0, 1024, 1024, 1024, 1024, 0, 6, 3755, 3743, 3747, 3763, 3749, 3786, 0, 1, 13100, -89.900, 0.000, -47.300, 0.000, 0.000, -2.900, 0.0, , , , , , 97, , , 25, 25, 25
37.0516718, -119.2428173, 22.700, 10:11:32.936, 18, 0.00, 0.37, 98, 1.000, 0.700, -46.300, 681, 100, 95, 15, 22569, -17818, 5343, 5453, 13, 14, 1529341892.937, 46, 0, 1024, 1024, 1024, 1024, 0, 6, 3755, 3743, 3747, 3763, 3749, 3786, 0, 1, 13200, -89.900, 0.000, -47.400, 0.000, 0.000, -3.000, 0.0, , , , , , 97, , , 25, 25, 25
37.0516719, -119.2428172, 23.300, 10:11:33.037, 17, 0.00, 0.36, 98, 0.700, 0.500, -46.200, 681, 100, 95, 15, 22569, -17818, 5343, 5453, 13, 14, 1529341893.037, 58, 0, 1024, 1024, 1024, 1024, 0, 6, 3755, 3743, 3747, 3763, 3749, 3786, 0, 1, 13300, -89.900, 0.000, -47.300, 0.000, 0.000, -2.900, 0.0, , , , , , 97, , , 25, 25, 25
37.0516719, -119.2428172, 23.600, 10:11:33.138, 17, 0.00, 0.35, 98, 0.600, 0.400, -46.200, 681, 100, 95, 15, 22569, -17818, 5343, 5453, 13, 14, 1529341893.138, 42, 0, 1024, 1024, 1024, 1024, 0, 6, 3755, 3743, 3747, 3763, 3749, 3786, 0, 1, 13401, -89.900, 0.000, -47.400, 0.000, 0.000, -2.900, 0.0, , , , , , 97, , , 25, 25, 25
37.0516720, -119.2428171, 23.900, 10:11:33.237, 17, 0.10, 0.35, 98, 0.600, 0.400, -46.200, 681, 100, 95, 15, 22569, -17818, 5343, 5453, 13, 14, 1529341893.237, 26, 0, 1024, 1024, 1024, 1024, 0, 6, 3755, 3743, 3747, 3763, 3749, 3786, 0, 1, 13500, -89.900, 0.000, -47.400, 0.100, 0.000, -3.000, 0.0, , , , , , 97, , , 25, 25, 25
37.0516720, -119.2428171, 23.900, 10:11:33.337, 17, 0.10, 0.35, 98, 0.600, 0.400, -46.200, 681, 100, 95, 15, 22569, -17818, 5343, 5453, 13, 14, 1529341893.337, 126, 0, 1024, 1024, 1024, 1024, 0, 6, 3755, 3743, 3747, 3763, 3749, 3786, 0, 1, 13600, -89.900, 0.000, -47.300, 0.100, 0.000, -3.000, 0.0, , , , , , 97, , , 25, 25, 25
37.0516720, -119.2428171, 23.900, 10:11:33.436, 17, 0.10, 0.35, 98, 0.600, 0.400, -46.200, 681, 100, 95, 15, 22569, -17818, 5343, 5453, 13, 14, 1529341893.437, 225, 0, 1024, 1024, 1024, 1024, 0, 6, 3755, 3743, 3747, 3763, 3749, 3786, 0, 1, 13700, -89.900, 0.000, -47.400, 0.100, 0.000, -3.000, 0.0, , , , , , 97, , , 25, 25, 25
37.0516721, -119.2428170, 24.800, 10:11:33.537, 17, 0.10, 0.33, 98, 0.200, 1.200, -46.000, 681, 100, 95, 15, 22569, -17818, 5343, 5453, 13, 14, 1529341893.537, 19, 0, 1024, 1024, 1024, 1024, 0, 6, 3755, 3743, 3747, 3763, 3749, 3786, 0, 1, 13800, -89.900, 0.000, -47.400, 0.100, 0.000, -2.900, 0.0, , , , , , 97, , , 25, 25, 25
37.0516722, -119.2428170, 25.100, 10:11:33.636, 17, 0.10, 0.32, 98, 0.200, 1.500, -46.100, 681, 100, 96, 15, 22536, -17835, 5289, 5453, 13, 14, 1529341893.637, 9, 0, 1024, 1024, 1024, 1024, 0, 6, 3756, 3744, 3742, 3756, 3756, 3776, 0, 1, 13900, -89.900, 0.000, -47.400, 0.100, 0.000, -2.900, 0.0, , , , , , 97, , , 25, 25, 25
37.0516722, -119.2428170, 25.100, 10:11:33.737, 17, 0.10, 0.32, 98, 0.200, 1.500, -46.100, 681, 100, 96, 15, 22536, -17835, 5289, 5453, 13, 14, 1529341893.737, 109, 0, 1024, 1024, 1024, 1024, 0, 6, 3756, 3744, 3742, 3756, 3756, 3776, 0, 1, 14000, -89.900, 0.000, -47.400, 0.100, 0.000, -2.900, 0.0, , , , , , 97, , , 25, 25, 25
37.0516722, -119.2428170, 25.100, 10:11:33.836, 17, 0.10, 0.32, 98, 0.200, 1.500, -46.100, 681, 100, 96, 15, 22536, -17835, 5289, 5453, 13, 14, 1529341893.837, 208, 0, 1024, 1024, 1024, 1024, 0, 6, 3756, 3744, 3742, 3756, 3756, 3776, 0, 1, 14100, -89.900, 0.000, -47.400, 0.100, 0.000, -2.900, 0.0, , , , , , 97, , , 25, 25, 25
37.0516723, -119.2428169, 25.700, 10:11:33.936, 18, 0.10, 0.31, 98, 0.500, 1.400, -46.300, 681, 100, 96, 15, 22536, -17835, 5289, 5453, 13, 14, 1529341893.937, 94, 0, 1024, 1024, 1024, 1024, 0, 6, 3756, 3744, 3742, 3756, 3756, 3776, 0, 1, 14200, -89.900, 0.000, -47.400, 0.100, 0.000, -3.000, 0.0, , , , , , 97, , , 25, 25, 25
37.0516724, -119.2428169, 26.000, 10:11:34.036, 18, 0.10, 0.30, 98, 0.500, 1.500, -46.300, 681, 100, 96, 15, 22536, -17835, 5289, 5453, 13, 14, 1529341894.037, 98, 0, 1024, 1024, 1024, 1024, 0, 6, 3756, 3744, 3742, 3756, 3756, 3776, 0, 1, 14300, -89.900, 0.000, -47.400, 0.100, 0.000, -3.000, 0.0, , , , , , 97, , , 25, 25, 25
37.0516724, -119.2428169, 26.300, 10:11:34.136, 18, 0.00, 0.29, 98, 0.200, 1.400, -46.400, 681, 100, 96, 15, 22536, -17835, 5289, 5453, 13, 14, 1529341894.137, 99, 0, 1024, 1024, 1024, 1024, 0, 6, 3756, 3744, 3742, 3756, 3756, 3776, 0, 1, 14400, -89.900, 0.000, -47.400, 0.000, 0.000, -3.000, 0.0, , , , , , 97, , , 25, 25, 25
37.0516725, -119.2428168, 26.600, 10:11:34.237, 18, 0.00, 0.29, 98, 0.100, 1.300, -46.400, 681, 100, 94, 15, 22536, -17835, 5289, 5453, 13, 14, 1529341894.237, 82, 0, 1024, 1024, 1024, 1024, 0, 6, 3756, 3744, 3742, 3756, 3756, 3776, 0, 1, 14500, -89.900, 0.000, -47.400, 0.000, 0.000, -3.000, 0.0, , , , , , 97, , , 25, 25, 25
37.0516725, -119.2428168, 26.900, 10:11:34.336, 18, 0.00, 0.28, 98, 0.000, 1.300, -46.400, 681, 100, 94, 15, 22536, -17835, 5289, 5453, 13, 14, 1529341894.337, 74, 0, 1024, 1024, 1024, 1024, 0, 6, 3756, 3744, 3742, 3756, 3756, 3776, 0, 1, 14600, -89.900, 0.000, -47.400, 0.000, 0.000, -3.000, 0.0, , , , , , 97, , , 25, 25, 25
37.0516726, -119.2428167, 27.200, 10:11:34.436, 18, 0.00, 0.27, 98, 0.000, 1.500, -46.500, 681, 100, 94, 15, 22536, -17835, 5289, 5453, 13, 14, 1529341894.437, 63, 0, 1024, 1024, 1024, 1024, 0, 6, 3756, 3744, 3742, 3756, 3756, 3776, 0, 1, 14700, -89.900, 0.000, -47.300, 0.000, 0.000, -3.000, 0.0, , , , , , 97, , , 25, 25, 25
37.0516726, -119.2428167, 27.500, 10:11:34.536, 18, 0.00, 0.27, 98, 0.100, 1.400, -46.600, 681, 100, 94, 15, 22536, -17835, 5289, 5453, 13, 14, 1529341894.536, 56, 0, 1024, 1024, 1024, 1024, 0, 6, 3756, 3744, 3742, 3756, 3756, 3776, 0, 1, 14799, -89.900, 0.000, -47.400, 0.000, 0.000, -3.000, 0.0, , , , , , 97, , , 25, 25, 25
37.0516727, -119.2428167, 27.800, 10:11:34.636, 17, 0.00, 0.26, 97, 0.300, 1.200, -46.700, 681, 100, 94, 16, 22485, -18175, 5289, 5453, 13, 14, 1529341894.637, 69, 0, 1024, 1024, 1024, 1024, 0, 6, 3756, 3744, 3742, 3756, 3756, 3776, 0, 1, 14900, -89.900, 0.000, -47.400, 0.000, 0.000, -3.000, 0.0, , , , , , 97, , , 25, 25, 25
37.0516727, -119.2428167, 28.100, 10:11:34.736, 17, 0.00, 0.26, 97, 0.400, 0.900, -46.700, 681, 100, 94, 16, 22485, -18175, 5289, 5453, 13, 14, 1529341894.736, 58, 0, 1024, 1024, 1024, 1024, 0, 6, 3756, 3744, 3742, 3756, 3756, 3776, 0, 1, 14999, -89.900, 0.000, -47.400, 0.000, 0.000, -3.000, 0.0, , , , , , 97, , , 25, 25, 25
37.0516727, -119.2428167, 28.400, 10:11:34.836, 18, 0.00, 0.26, 97, 0.500, 0.800, -46.800, 681, 100, 94, 16, 22485, -18175, 5289, 5453, 13, 14, 1529341894.837, 48, 0, 1024, 1024, 1024, 1024, 0, 6, 3756, 3744, 3742, 3756, 3756, 3776, 0, 1, 15100, -89.900, 0.000, -47.400, 0.000, 0.000, -2.900, 0.0, , , , , , 97, , , 25, 25, 25
37.0516729, -119.2428166, 29.000, 10:11:34.937, 18, 0.00, 0.25, 97, 0.700, 0.900, -46.800, 681, 100, 94, 16, 22485, -18175, 5289, 5453, 13, 14, 1529341894.937, 58, 0, 1024, 1024, 1024, 1024, 0, 6, 3756, 3744, 3742, 3756, 3756, 3776, 0, 1, 15200, -89.900, 0.000, -47.400, 0.000, 0.000, -2.900, 0.0, , , , , , 97, , , 25, 25, 25
37.0516729, -119.2428166, 29.000, 10:11:35.036, 18, 0.00, 0.25, 97, 0.700, 0.900, -46.800, 681, 100, 94, 16, 22485, -18175, 5289, 5453, 13, 14, 1529341895.037, 158, 0, 1024, 1024, 1024, 1024, 0, 6, 3756, 3744, 3742, 3756, 3756, 3776, 0, 1, 15300, -89.900, 0.000, -47.400, 0.000, 0.000, -2.900, 0.0, , , , , , 97, , , 25, 25, 25
37.0516730, -119.2428165, 29.600, 10:11:35.136, 18, 0.10, 0.23, 97, 0.100, 1.000, -46.800, 681, 100, 94, 16, 22485, -18175, 5289, 5453, 13, 14, 1529341895.136, 40, 0, 1024, 1024, 1024, 1024, 0, 6, 3746, 3736, 3735, 3744, 3735, 3773, 0, 1, 15399, -89.900, 0.000, -47.300, 0.100, 0.000, -3.000, 0.0, , , , , , 97, , , 25, 25, 25
37.0516731, -119.2428165, 29.900, 10:11:35.242, 18, 0.10, 0.22, 97, -0.100, 1.300, -46.600, 681, 100, 95, 16, 22485, -18175, 5289, 5453, 13, 14, 1529341895.242, 26, 0, 1024, 1024, 1024, 1024, 0, 6, 3746, 3736, 3735, 3744, 3735, 3773, 0, 1, 15505, -89.900, 0.000, -47.300, 0.100, 0.000, -3.000, 0.0, , , , , , 97, , , 25, 25, 25
37.0516732, -119.2428164, 30.200, 10:11:35.336, 18, 0.00, 0.21, 97, -0.500, 1.700, -46.400, 681, 100, 95, 16, 22485, -18175, 5289, 5453, 13, 14, 1529341895.337, 23, 0, 1024, 1024, 1024, 1024, 0, 6, 3746, 3736, 3735, 3744, 3735, 3773, 0, 1, 15600, -89.900, 0.000, -47.300, 0.000, 0.000, -3.000, 0.0, , , , , , 97, , , 25, 25, 25
37.0516732, -119.2428164, 30.500, 10:11:35.436, 18, 0.00, 0.21, 97, -0.700, 2.000, -46.200, 681, 100, 95, 16, 22485, -18175, 5289, 5453, 13, 14, 1529341895.436, 14, 0, 1024, 1024, 1024, 1024, 0, 6, 3746, 3736, 3735, 3744, 3735, 3773, 0, 1, 15700, -89.900, 0.000, -47.300, 0.000, 0.000, -3.000, 0.0, , , , , , 97, , , 25, 25, 25
37.0516733, -119.2428164, 30.800, 10:11:35.537, 18, 0.00, 0.20, 97, -0.900, 1.800, -46.100, 681, 100, 95, 16, 22485, -18175, 5289, 5453, 13, 14, 1529341895.538, 7, 0, 1024, 1024, 1024, 1024, 0, 6, 3746, 3736, 3735, 3744, 3735, 3773, 0, 1, 15801, -89.900, 0.000, -47.300, 0.000, 0.000, -3.000, 0.0, , , , , , 97, , , 25, 25, 25
37.0516733, -119.2428163, 31.100, 10:11:35.636, 18, 0.00, 0.19, 97, -1.000, 1.500, -46.100, 681, 100, 95, 16, 22485, -18175, 5289, 5453, 13, 14, 1529341895.637, 21, 0, 1024, 1024, 1024, 1024, 0, 6, 3746, 3736, 3735, 3744, 3735, 3773, 0, 1, 15900, -89.900, 0.000, -47.300, 0.000, 0.000, -3.000, 0.0, , , , , , 97, , , 25, 25, 25
37.0516733, -119.2428163, 31.400, 10:11:35.737, 18, 0.00, 0.19, 97, -0.800, 1.200, -46.000, 681, 100, 94, 16, 22485, -18175, 5289, 5453, 13, 14, 1529341895.737, 10, 0, 1024, 1024, 1024, 1024, 0, 6, 3746, 3736, 3735, 3744, 3735, 3773, 0, 1, 16001, -90.000, 0.000, -47.300, 0.000, 0.000, -3.000, 0.0, , , , , , 97, , , 25, 25, 25
37.0516733, -119.2428163, 31.400, 10:11:35.836, 18, 0.00, 0.19, 97, -0.800, 1.200, -46.000, 681, 100, 94, 16, 22485, -18175, 5289, 5453, 13, 14, 1529341895.837, 109, 0, 1024, 1024, 1024, 1024, 0, 6, 3746, 3736, 3735, 3744, 3735, 3773, 0, 1, 16100, -90.000, 0.000, -47.300, 0.000, 0.000, -3.000, 0.0, , , , , , 97, , , 25, 25, 25
37.0516734, -119.2428162, 31.700, 10:11:35.936, 18, 0.00, 0.18, 97, -0.700, 0.800, -46.000, 681, 100, 94, 16, 22485, -18175, 5289, 5453, 13, 14, 1529341895.936, 88, 0, 1024, 1024, 1024, 1024, 0, 6, 3746, 3736, 3735, 3744, 3735, 3773, 0, 1, 16200, -90.000, 0.000, -47.300, 0.000, 0.000, -2.900, 0.0, , , , , , 97, , , 25, 25, 25
37.0516734, -119.2428162, 32.000, 10:11:36.036, 18, 0.00, 0.18, 97, -0.500, 0.700, -45.900, 681, 100, 94, 16, 22485, -18175, 5289, 5453, 13, 14, 1529341896.037, 90, 0, 1024, 1024, 1024, 1024, 0, 6, 3746, 3736, 3735, 3744, 3735, 3773, 0, 1, 16300, -90.000, 0.000, -47.300, 0.000, 0.000, -2.900, 0.0, , , , , , 97, , , 25, 25, 25
37.0516734, -119.2428162, 32.300, 10:11:36.136, 18, 0.00, 0.18, 97, -0.300, 0.800, -45.800, 681, 100, 94, 16, 22405, -18378, 5289, 5453, 13, 14, 1529341896.137, 94, 0, 1024, 1024, 1024, 1024, 0, 6, 3725, 3721, 3714, 3732, 3730, 3753, 0, 1, 16400, -89.900, 0.000, -47.300, 0.000, 0.000, -2.900, 0.0, , , , , , 97, , , 25, 25, 25
37.0516733, -119.2428162, 32.600, 10:11:36.236, 18, 0.00, 0.18, 97, -0.200, 0.800, -45.900, 681, 100, 94, 16, 22405, -18378, 5289, 5453, 13, 14, 1529341896.237, 84, 0, 1024, 1024, 1024, 1024, 0, 6, 3725, 3721, 3714, 3732, 3730, 3753, 0, 1, 16500, -89.900, 0.000, -47.300, 0.000, 0.000, -2.900, 0.0, , , , , , 97, , , 25, 25, 25
37.0516733, -119.2428162, 32.900, 10:11:36.336, 18, 0.00, 0.19, 97, 0.000, 0.800, -46.000, 681, 100, 94, 16, 22405, -18378, 5289, 5453, 13, 14, 1529341896.337, 86, 0, 1024, 1024, 1024, 1024, 0, 6, 3725, 3721, 3714, 3732, 3730, 3753, 0, 1, 16600, -89.900, 0.000, -47.400, 0.000, 0.000, -2.900, 0.0, , , , , , 97, , , 25, 25, 25
37.0516733, -119.2428162, 33.200, 10:11:36.436, 18, 0.00, 0.19, 97, 0.300, 0.700, -46.100, 681, 100, 94, 16, 22405, -18378, 5289, 5453, 13, 14, 1529341896.436, 85, 0, 1024, 1024, 1024, 1024, 0, 6, 3725, 3721, 3714, 3732, 3730, 3753, 0, 1, 16700, -90.000, 0.000, -47.300, 0.000, 0.000, -2.900, 0.0, , , , , , 97, , , 25, 25, 25
37.0516733, -119.2428162, 33.500, 10:11:36.536, 18, 0.00, 0.19, 97, 0.500, 0.600, -46.200, 681, 100, 94, 16, 22405, -18378, 5289, 5453, 13, 14, 1529341896.536, 73, 0, 1024, 1024, 1024, 1024, 0, 6, 3725, 3721, 3714, 3732, 3730, 3753, 0, 1, 16800, -89.900, 0.000, -47.400, 0.000, 0.000, -2.900, 0.0, , , , , , 97, , , 25, 25, 25
37.0516732, -119.2428163, 33.800, 10:11:36.636, 18, 0.00, 0.20, 97, 0.600, 0.800, -46.200, 681, 100, 94, 16, 22405, -18378, 5289, 5453, 13, 14, 1529341896.637, 69, 0, 1024, 1024, 1024, 1024, 0, 6, 3725, 3721, 3714, 3732, 3730, 3753, 0, 1, 16900, -89.900, 0.000, -47.400, 0.000, 0.000, -2.900, 0.0, , , , , , 97, , , 25, 25, 25
37.0516732, -119.2428163, 34.100, 10:11:36.736, 18, 0.00, 0.20, 97, 0.600, 1.000, -46.300, 681, 100, 94, 16, 22405, -18378, 5289, 5453, 13, 14, 1529341896.736, 58, 0, 1024, 1024, 1024, 1024, 0, 6, 3725, 3721, 3714, 3732, 3730, 3753, 0, 1, 17000, -89.900, 0.000, -47.400, 0.000, 0.000, -2.900, 0.0, , , , , , 97, , , 25, 25, 25
37.0516732, -119.2428164, 34.400, 10:11:36.836, 18, 0.00, 0.21, 97, 0.700, 1.100, -46.400, 681, 100, 94, 16, 22405, -18378, 5289, 5453, 13, 14, 1529341896.837, 60, 0, 1024, 1024, 1024, 1024, 0, 6, 3725, 3721, 3714, 3732, 3730, 3753, 0, 1, 17100, -89.900, 0.000, -47.400, 0.000, 0.000, -2.900, 0.0, , , , , , 97, , , 25, 25, 25
37.0516731, -119.2428165, 35.000, 10:11:36.936, 18, 0.00, 0.22, 97, 0.800, 1.200, -46.500, 681, 100, 94, 16, 22405, -18378, 5289, 5453, 13, 14, 1529341896.936, 48, 0, 1024, 1024, 1024, 1024, 0, 6, 3725, 3721, 3714, 3732, 3730, 3753, 0, 1, 17200, -89.900, 0.000, -47.300, 0.000, 0.000, -2.900, 0.0, , , , , , 97, , , 25, 25, 25
37.0516731, -119.2428166, 35.300, 10:11:37.035, 18, 0.00, 0.23, 97, 1.000, 1.400, -46.500, 681, 100, 94, 16, 22405, -18378, 5289, 5453, 13, 14, 1529341897.036, 30, 0, 1024, 1024, 1024, 1024, 0, 6, 3725, 3721, 3714, 3732, 3730, 3753, 0, 1, 17299, -89.900, 0.000, -47.300, 0.000, 0.000, -2.900, 0.0, , , , , , 97, , , 25, 25, 25
37.0516730, -119.2428166, 35.600, 10:11:37.136, 18, 0.00, 0.23, 97, 1.100, 1.400, -46.400, 681, 100, 94, 16, 22336, -18801, 5289, 5453, 13, 14, 1529341897.137, 35, 0, 1024, 1024, 1024, 1024, 0, 6, 3718, 3711, 3714, 3718, 3717, 3758, 0, 1, 17400, -89.900, 0.000, -47.400, 0.000, 0.000, -2.900, 0.0, , , , , , 97, , , 25, 25, 25
37.0516730, -119.2428166, 35.900, 10:11:37.236, 18, 0.00, 0.24, 97, 1.200, 1.300, -46.300, 681, 100, 98, 16, 22336, -18801, 5289, 5453, 13, 14, 1529341897.236, 38, 0, 1024, 1024, 1024, 1024, 0, 6, 3718, 3711, 3714, 3718, 3717, 3758, 0, 1, 17500, -89.900, 0.000, -47.300, 0.000, 0.000, -2.900, 0.0, , , , , , 97, , , 25, 25, 25
37.0516729, -119.2428167, 36.200, 10:11:37.336, 18, 0.00, 0.24, 97, 1.100, 1.200, -46.200, 681, 100, 98, 16, 22336, -18801, 5289, 5453, 13, 14, 1529341897.336, 41, 0, 1024, 1024, 1024, 1024, 0, 6, 3718, 3711, 3714, 3718, 3717, 3758, 0, 1, 17600, -89.900, 0.000, -47.400, 0.000, 0.000, -3.000, 0.0, , , , , , 97, , , 25, 25, 25
37.0516729, -119.2428167, 36.500, 10:11:37.436, 18, 0.00, 0.25, 97, 1.000, 1.100, -46.200, 681, 100, 98, 16, 22336, -18801, 5289, 5453, 13, 14, 1529341897.436, 32, 0, 1024, 1024, 1024, 1024, 0, 6, 3718, 3711, 3714, 3718, 3717, 3758, 0, 1, 17700, -89.900, 0.000, -47.400, 0.000, 0.000, -3.000, 0.0, , , , , , 97, , , 25, 25, 25
37.0516729, -119.2428167, 36.800, 10:11:37.536, 17, 0.00, 0.25, 97, 1.000, 1.100, -46.300, 681, 100, 98, 16, 22336, -18801, 5289, 5453, 13, 14, 1529341897.536, 16, 0, 1024, 1024, 1024, 1024, 0, 6, 3718, 3711, 3714, 3718, 3717, 3758, 0, 1, 17800, -89.900, 0.000, -47.300, 0.000, 0.000, -3.000, 0.0, , , , , , 97, , , 25, 25, 25
37.0516728, -119.2428168, 37.100, 10:11:37.636, 17, 0.00, 0.26, 97, 0.900, 1.100, -46.300, 681, 100, 98, 16, 22336, -18801, 5289, 5453, 13, 14, 1529341897.636, 18, 0, 1024, 1024, 1024, 1024, 0, 6, 3718, 3711, 3714, 3718, 3717, 3758, 0, 1, 17900, -89.900, 0.000, -47.400, 0.000, 0.000, -2.900, 0.0, , , , , , 97, , , 25, 25, 25
37.0516728, -119.2428168, 37.400, 10:11:37.736, 18, 0.00, 0.27, 97, 1.000, 1.300, -46.400, 681, 100, 99, 16, 22336, -18801, 5289, 5453, 13, 14, 1529341897.737, 7, 0, 1024, 1024, 1024, 1024, 0, 6, 3718, 3711, 3714, 3718, 3717, 3758, 0, 1, 18000, -89.900, 0.000, -47.300, 0.000, 0.000, -3.000, 0.0, , , , , , 97, , , 25, 25, 25
37.0516728, -119.2428169, 37.700, 10:11:37.836, 18, 0.00, 0.27, 97, 1.000, 1.300, -46.400, 681, 100, 99, 16, 22336, -18801, 5289, 5453, 13, 14, 1529341897.837, 9, 0, 1024, 1024, 1024, 1024, 0, 6, 3718, 3711, 3714, 3718, 3717, 3758, 0, 1, 18100, -89.900, 0.000, -47.300, 0.000, 0.000, -3.000, 0.0, , , , , , 97, , , 25, 25, 25
37.0516728, -119.2428169, 37.700, 10:11:37.936, 18, 0.00, 0.27, 97, 1.000, 1.300, -46.400, 681, 100, 99, 16, 22336, -18801, 5289, 5453, 13, 14, 1529341897.937, 109, 0, 1024, 1024, 1024, 1024, 0, 6, 3718, 3711, 3714, 3718, 3717, 3758, 0, 1, 18200, -89.900, 0.000, -47.300, 0.000, 0.000, -3.000, 0.0, , , , , , 97, , , 25, 25, 25
37.0516727, -119.2428169, 38.000, 10:11:38.035, 18, 0.00, 0.27, 97, 1.000, 1.200, -46.400, 681, 100, 99, 16, 22336, -18801, 5289, 5453, 13, 14, 1529341898.036, 73, 0, 1024, 1024, 1024, 1024, 0, 6, 3718, 3711, 3714, 3718, 3717, 3758, 0, 1, 18300, -89.900, 0.000, -47.400, 0.000, 0.000, -3.000, 0.0, , , , , , 97, , , 25, 25, 25
37.0516727, -119.2428169, 38.300, 10:11:38.136, 18, 0.00, 0.27, 97, 1.000, 1.100, -46.500, 681, 100, 99, 16, 22253, -19882, 5289, 5453, 13, 14, 1529341898.136, 68, 0, 1024, 1024, 1024, 1024, 0, 6, 3688, 3685, 3693, 3702, 3694, 3737, 0, 1, 18400, -89.900, 0.000, -47.300, 0.000, 0.000, -3.000, 0.0, , , , , , 97, , , 25, 25, 25
37.0516727, -119.2428169, 38.600, 10:11:38.236, 17, 0.00, 0.27, 97, 1.000, 1.100, -46.500, 681, 100, 100, 16, 22253, -19882, 5289, 5453, 13, 14, 1529341898.236, 73, 0, 1024, 1024, 1024, 1024, 0, 6, 3688, 3685, 3693, 3702, 3694, 3737, 0, 1, 18500, -89.900, 0.000, -47.300, 0.000, 0.000, -3.000, 0.0, , , , , , 97, , , 25, 25, 25
37.0516727, -119.2428169, 38.900, 10:11:38.336, 17, 0.00, 0.28, 97, 0.900, 1.100, -46.400, 681, 100, 100, 16, 22253, -19882, 5289, 5453, 13, 14, 1529341898.336, 61, 0, 1024, 1024, 1024, 1024, 0, 6, 3688, 3685, 3693, 3702, 3694, 3737, 0, 1, 18600, -89.900, 0.000, -47.300, 0.000, 0.000, -2.900, 0.0, , , , , , 97, , , 25, 25, 25
37.0516726, -119.2428169, 39.200, 10:11:38.436, 17, 0.00, 0.28, 97, 0.900, 1.100, -46.400, 681, 100, 100, 16, 22253, -19882, 5289, 5453, 13, 14, 1529341898.436, 61, 0, 1024, 1024, 1024, 1024, 0, 6, 3688, 3685, 3693, 3702, 3694, 3737, 0, 1, 18699, -89.900, 0.000, -47.300, 0.000, 0.000, -2.900, 0.0, , , , , , 97, , , 25, 25, 25
37.0516726, -119.2428169, 39.500, 10:11:38.536, 17, 0.00, 0.29, 97, 0.900, 1.000, -46.300, 681, 100, 100, 16, 22253, -19882, 5289, 5453, 13, 14, 1529341898.536, 53, 0, 1024, 1024, 1024, 1024, 0, 6, 3688, 3685, 3693, 3702, 3694, 3737, 0, 1, 18800, -89.900, 0.000, -47.300, 0.000, 0.000, -2.900, 0.0, , , , , , 97, , , 25, 25, 25
37.0516725, -119.2428169, 39.800, 10:11:38.636, 17, 0.00, 0.29, 97, 1.000, 0.900, -46.300, 681, 100, 100, 16, 22253, -19882, 5289, 5453, 13, 14, 1529341898.636, 56, 0, 1024, 1024, 1024, 1024, 0, 6, 3688, 3685, 3693, 3702, 3694, 3737, 0, 1, 18900, -90.000, 0.000, -47.300, 0.000, 0.000, -3.000, 0.0, , , , , , 97, , , 25, 25, 25
37.0516725, -119.2428169, 40.100, 10:11:38.736, 17, 0.00, 0.29, 97, 1.100, 0.900, -46.200, 681, 100, 100, 16, 22253, -19882, 5289, 5453, 13, 14, 1529341898.736, 43, 0, 1024, 1024, 1024, 1024, 0, 6, 3688, 3685, 3693, 3702, 3694, 3737, 0, 1, 19000, -89.900, 0.000, -47.300, 0.000, 0.000, -3.000, 0.0, , , , , , 97, , , 25, 25, 25
37.0516724, -119.2428169, 40.700, 10:11:38.836, 17, 0.00, 0.30, 97, 1.100, 1.100, -46.200, 681, 100, 100, 16, 22253, -19882, 5289, 5453, 13, 14, 1529341898.837, 55, 0, 1024, 1024, 1024, 1024, 0, 6, 3688, 3685, 3693, 3702, 3694, 3737, 0, 1, 19100, -89.900, 0.000, -47.400, 0.000, 0.000, -3.000, 0.0, , , , , , 97, , , 25, 25, 25
37.0516724, -119.2428168, 41.000, 10:11:38.936, 17, 0.00, 0.29, 97, 0.900, 0.900, -46.200, 681, 100, 100, 16, 22253, -19882, 5289, 5453, 13, 14, 1529341898.936, 24, 0, 1024, 1024, 1024, 1024, 0, 6, 3688, 3685, 3693, 3702, 3694, 3737, 0, 1, 19200, -89.900, 0.000, -47.300, 0.000, 0.000, -3.000, 0.0, , , , , , 97, , , 25, 25, 25
37.0516724, -119.2428168, 41.300, 10:11:39.036, 17, 0.00, 0.29, 97, 0.800, 0.700, -46.200, 681, 100, 100, 16, 22253, -19882, 5289, 5453, 13, 14, 1529341899.036, 40, 0, 1024, 1024, 1024, 1024, 0, 6, 3688, 3685, 3693, 3702, 3694, 3737, 0, 1, 19300, -89.900, 0.000, -47.300, 0.000, 0.000, -3.000, 0.0, , , , , , 97, , , 25, 25, 25
37.0516724, -119.2428168, 41.300, 10:11:39.136, 17, 0.00, 0.29, 97, 0.800, 0.700, -46.200, 681, 100, 100, 16, 22253, -19882, 5289, 5453, 13, 14, 1529341899.136, 140, 0, 1024, 1024, 1024, 1024, 0, 6, 3688, 3685, 3693, 3702, 3694, 3737, 0, 1, 19400, -89.900, 0.000, -47.300, 0.000, 0.000, -3.000, 0.0, , , , , , 97, , , 25, 25, 25
37.0516724, -119.2428167, 42.000, 10:11:39.236, 17, 0.00, 0.29, 97, 0.700, 0.800, -46.300, 681, 100, 99, 16, 22114, -20020, 5289, 5453, 13, 14, 1529341899.236, 13, 0, 1024, 1024, 1024, 1024, 0, 6, 3681, 3670, 3678, 3683, 3683, 3732, 0, 1, 19500, -89.900, 0.000, -47.400, 0.000, 0.000, -3.000, 0.0, , , , , , 97, , , 25, 25, 25
37.0516724, -119.2428167, 42.000, 10:11:39.336, 17, 0.00, 0.29, 97, 0.700, 0.800, -46.300, 681, 100, 99, 16, 22114, -20020, 5289, 5453, 13, 14, 1529341899.336, 113, 0, 1024, 1024, 1024, 1024, 0, 6, 3681, 3670, 3678, 3683, 3683, 3732, 0, 1, 19600, -89.900, 0.000, -47.400, 0.000, 0.000, -3.000, 0.0, , , , , , 97, , , 25, 25, 25
37.0516724, -119.2428165, 42.600, 10:11:39.436, 17, 0.00, 0.28, 97, 0.400, 0.700, -46.300, 681, 100, 99, 16, 22114, -20020, 5289, 5453, 13, 14, 1529341899.437, 11, 0, 1024, 1024, 1024, 1024, 0, 6, 3681, 3670, 3678, 3683, 3683, 3732, 0, 1, 19700, -90.000, 0.000, -47.300, 0.000, 0.000, -2.900, 0.0, , , , , , 97, , , 25, 25, 25
37.0516724, -119.2428165, 42.900, 10:11:39.537, 17, 0.00, 0.28, 97, 0.400, 0.500, -46.200, 681, 100, 99, 16, 22114, -20020, 5289, 5453, 13, 14, 1529341899.537, 3, 0, 1024, 1024, 1024, 1024, 0, 6, 3681, 3670, 3678, 3683, 3683, 3732, 0, 1, 19801, -90.000, 0.000, -47.300, 0.000, 0.000, -2.900, 0.0, , , , , , 97, , , 25, 25, 25
37.0516724, -119.2428165, 42.900, 10:11:39.636, 17, 0.00, 0.28, 97, 0.400, 0.500, -46.200, 681, 100, 99, 16, 22114, -20020, 5289, 5453, 13, 14, 1529341899.636, 102, 0, 1024, 1024, 1024, 1024, 0, 6, 3681, 3670, 3678, 3683, 3683, 3732, 0, 1, 19900, -90.000, 0.000, -47.300, 0.000, 0.000, -2.900, 0.0, , , , , , 97, , , 25, 25, 25
37.0516724, -119.2428165, 43.200, 10:11:39.736, 17, 0.00, 0.28, 97, 0.400, 0.500, -46.200, 681, 100, 99, 16, 22114, -20020, 5289, 5453, 13, 14, 1529341899.736, 92, 0, 1024, 1024, 1024, 1024, 0, 6, 3681, 3670, 3678, 3683, 3683, 3732, 0, 1, 20000, -90.000, 0.000, -47.300, 0.000, 0.000, -2.900, 0.0, , , , , , 97, , , 25, 25, 25
37.0516724, -119.2428164, 43.500, 10:11:39.836, 17, 0.00, 0.28, 97, 0.400, 0.600, -46.200, 681, 100, 99, 16, 22114, -20020, 5289, 5453, 13, 14, 1529341899.836, 98, 0, 1024, 1024, 1024, 1024, 0, 6, 3681, 3670, 3678, 3683, 3683, 3732, 0, 1, 20100, -89.900, 0.000, -47.400, 0.000, 0.000, -2.900, 0.0, , , , , , 97, , , 25, 25, 25
37.0516724, -119.2428164, 43.500, 10:11:39.935, 17, 0.00, 0.28, 97, 0.400, 0.600, -46.200, 681, 100, 99, 16, 22114, -20020, 5289, 5453, 13, 14, 1529341899.935, 197, 0, 1024, 1024, 1024, 1024, 0, 6, 3681, 3670, 3678, 3683, 3683, 3732, 0, 1, 20199, -89.900, 0.000, -47.300, 0.000, 0.000, -2.900, 0.0, , , , , , 97, , , 25, 25, 25
37.0516724, -119.2428164, 44.100, 10:11:40.036, 18, 0.00, 0.27, 97, 0.800, 1.100, -46.300, 681, 100, 99, 16, 22114, -20020, 5289, 5453, 13, 14, 1529341900.036, 99, 0, 1024, 1024, 1024, 1024, 0, 6, 3681, 3670, 3678, 3683, 3683, 3732, 0, 1, 20300, -89.900, 0.000, -47.300, 0.000, 0.000, -3.000, 0.0, , , , , , 97, , , 25, 25, 25
37.0516723, -119.2428164, 44.400, 10:11:40.136, 18, 0.00, 0.28, 97, 1.000, 1.000, -46.300, 681, 100, 99, 16, 22166, -19593, 5289, 5453, 13, 14, 1529341900.136, 92, 0, 1024, 1024, 1024, 1024, 0, 6, 3681, 3670, 3678, 3683, 3683, 3732, 0, 1, 20400, -89.900, 0.000, -47.400, 0.000, 0.000, -2.900, 0.0, , , , , , 97, , , 25, 25, 25
37.0516723, -119.2428164, 44.700, 10:11:40.236, 18, 0.00, 0.28, 97, 1.000, 0.900, -46.400, 681, 100, 98, 16, 22166, -19593, 5289, 5453, 13, 14, 1529341900.236, 93, 0, 1024, 1024, 1024, 1024, 0, 6, 3681, 3670, 3678, 3683, 3683, 3732, 0, 1, 20500, -89.900, 0.000, -47.300, 0.000, 0.000, -2.900, 0.0, , , , , , 97, , , 25, 25, 25
37.0516723, -119.2428164, 45.000, 10:11:40.336, 18, 0.00, 0.28, 97, 1.000, 0.700, -46.400, 681, 100, 98, 16, 22166, -19593, 5289, 5453, 13, 14, 1529341900.336, 71, 0, 1024, 1024, 1024, 1024, 0, 6, 3681, 3670, 3678, 3683, 3683, 3732, 0, 1, 20599, -89.900, 0.000, -47.300, 0.000, 0.000, -2.900, 0.0, , , , , , 97, , , 25, 25, 25
37.0516723, -119.2428164, 45.300, 10:11:40.436, 17, 0.00, 0.28, 97, 1.100, 0.700, -46.500, 681, 100, 98, 16, 22166, -19593, 5289, 5453, 13, 14, 1529341900.436, 83, 0, 1024, 1024, 1024, 1024, 0, 6, 3681, 3670, 3678, 3683, 3683, 3732, 0, 1, 20699, -89.900, 0.000, -47.400, 0.000, 0.000, -2.900, 0.0, , , , , , 97, , , 25, 25, 25
37.0516723, -119.2428164, 45.600, 10:11:40.536, 17, 0.00, 0.28, 97, 1.100, 0.900, -46.600, 681, 100, 98, 16, 22166, -19593, 5289, 5453, 13, 14, 1529341900.536, 60, 0, 1024, 1024, 1024, 1024, 0, 6, 3681, 3670, 3678, 3683, 3683, 3732, 0, 1, 20800, -89.900, 0.000, -47.300, 0.000, 0.000, -2.900, 0.0, , , , , , 97, , , 25, 25, 25
37.0516723, -119.2428163, 45.900, 10:11:40.636, 17, 0.00, 0.27, 97, 1.000, 1.100, -46.700, 681, 100, 98, 16, 22166, -19593, 5289, 5453, 13, 14, 1529341900.636, 79, 0, 1024, 1024, 1024, 1024, 0, 6, 3693, 3678, 3679, 3689, 3687, 3726, 0, 1, 20900, -89.900, 0.000, -47.400, 0.000, 0.000, -2.900, 0.0, , , , , , 97, , , 25, 25, 25
37.0516723, -119.2428163, 46.200, 10:11:40.736, 17, 0.00, 0.27, 97, 1.100, 1.100, -46.800, 681, 100, 98, 16, 22166, -19593, 5289, 5453, 13, 14, 1529341900.736, 59, 0, 1024, 1024, 1024, 1024, 0, 6, 3693, 3678, 3679, 3689, 3687, 3726, 0, 1, 21000, -89.900, 0.000, -47.300, 0.000, 0.000, -3.000, 0.0, , , , , , 97, , , 25, 25, 25
37.0516723, -119.2428163, 46.200, 10:11:40.836, 17, 0.00, 0.27, 97, 1.100, 1.100, -46.800, 681, 100, 98, 16, 22166, -19593, 5289, 5453, 13, 14, 1529341900.836, 159, 0, 1024, 1024, 1024, 1024, 0, 6, 3693, 3678, 3679, 3689, 3687, 3726, 0, 1, 21100, -89.900, 0.000, -47.400, 0.000, 0.000, -3.000, 0.0, , , , , , 97, , , 25, 25, 25
