Latitude, Longitude, Altitude (m), Time, Sats, Speed (m/s), Range (m), Battery (%), Roll (deg), Pitch (deg), Yaw (deg), Images, HD Signal (%), RC Signal (%), Battery Temp (C), Battery Voltage (mV), Battery Current (mA), Battery Energy (mAh), Battery Capacity (mAh), Battery Discharges, flyState, timestamp (Unix), LastUpdate (ms), radioChannel, Rc_elevator, Rc_aileron, Rc_throttle, Rc_rudder, Rc_gyro, Dronetype, Battery_Cell1 (mV), Battery_Cell2 (mV), Battery_Cell3 (mV), Battery_Cell4 (mV), Battery_Cell5 (mV), Battery_Cell6 (mV), Video, isFlying, elapsedTime (ms), gimbalPitch (deg), gimbalRoll (deg), gimbalYaw (deg), VelocityX (m/s), VelocityY (m/s), VelocityZ (m/s), GroundSmear (cm), App Version, Aircraft Name, Aircraft Firmware, Aircraft Serial Number, Battery Serial Number, Battery Lifetime (%), App_Tip, App_Warning, CurrentFlightStartingIndex, CurrentFlightLastVisitedWaypoint, PreviousFlightEndingWaypointIndex
37.0262487, -119.2351947, 0.000, 14:43:46.998, 12, 0.14, 0.04, 100, 0.400, 1.000, -26.000, 1219, 100, 100, 27, 25873, -1287, 5301, 5301, 21, 11, 1529358226.998, 35, 0, 1024, 1024, 1024, 1024, 0, 6, 4307, 4315, 4312, 4312, 4315, 4266, 0, 1, 3031, -90.000, 0.000, -29.800, -0.100, 0.100, 0.000, 0.0, MapPilot_2.8.1_04242018, Dendroctonus I, 1.3.1.00, 041DDC1887, 1058171200162, 95, DJI_0216.jpg, Starting Mission from Lat/Long: 37.02625/-119.23520 Camera: Zenmuse X3 - Overlap: 90/90 - Active Connection: No, 47, 47, 47
37.0262487, -119.2351947, 0.000, 14:43:47.068, 12, 0.14, 0.04, 100, 0.400, 1.000, -26.000, 1219, 100, 100, 27, 25873, -1287, 5301, 5301, 21, 11, 1529358227.068, 105, 0, 1024, 1024, 1024, 1024, 0, 6, 4307, 4315, 4312, 4312, 4315, 4266, 0, 1, 3100, -89.900, 0.000, -29.600, -0.100, 0.100, 0.000, 0.0, , , , , , 95, , , 47, 47, 47
37.0262484, -119.2351945, 0.000, 14:43:47.168, 11, 0.10, 0.08, 100, -0.400, -0.500, -25.400, 1219, 100, 100, 27, 25751, -7491, 5301, 5301, 21, 11, 1529358227.168, 78, 0, 1024, 1024, 1024, 1024, 0, 6, 4307, 4315, 4312, 4312, 4315, 4266, 0, 1, 3200, -90.000, 0.000, -29.500, -0.100, 0.000, -0.200, 0.0, , , , , , 95, , , 47, 47, 47
37.0262483, -119.2351944, 0.000, 14:43:47.268, 11, 0.10, 0.10, 100, -0.100, -0.800, -25.300, 1219, 100, 100, 27, 25751, -7491, 5301, 5301, 21, 11, 1529358227.268, 85, 0, 1024, 1024, 1024, 1024, 0, 6, 4307, 4315, 4312, 4312, 4315, 4266, 0, 1, 3300, -90.000, 0.000, -29.400, -0.100, 0.000, -0.300, 0.0, , , , , , 95, , , 47, 47, 47
37.0262481, -119.2351944, 0.000, 14:43:47.368, 11, 0.10, 0.11, 100, 0.000, -0.800, -25.500, 1219, 100, 100, 27, 25751, -7491, 5301, 5301, 21, 11, 1529358227.368, 76, 0, 1024, 1024, 1024, 1024, 0, 6, 4307, 4315, 4312, 4312, 4315, 4266, 0, 1, 3400, -89.900, 0.000, -29.300, -0.100, 0.000, -0.300, 0.0, , , , , , 95, , , 47, 47, 47
37.0262479, -119.2351944, 0.000, 14:43:47.468, 11, 0.10, 0.13, 100, 0.300, -1.200, -25.700, 1219, 100, 100, 27, 25751, -7491, 5301, 5301, 21, 11, 1529358227.469, 55, 0, 1024, 1024, 1024, 1024, 0, 6, 4307, 4315, 4312, 4312, 4315, 4266, 0, 1, 3501, -90.000, 0.000, -29.200, -0.100, 0.000, -0.300, 0.0, , , , , , 95, , , 47, 47, 47
37.0262478, -119.2351944, 0.100, 14:43:47.568, 11, 0.10, 0.15, 100, 0.400, -1.600, -25.800, 1219, 100, 100, 27, 25751, -7491, 5301, 5301, 21, 11, 1529358227.568, 71, 0, 1024, 1024, 1024, 1024, 0, 6, 4307, 4315, 4312, 4312, 4315, 4266, 0, 1, 3600, -90.000, 0.000, -29.100, -0.100, 0.000, -0.300, 0.0, , , , , , 95, , , 47, 47, 47
37.0262477, -119.2351944, 0.100, 14:43:47.668, 11, 0.10, 0.15, 100, 0.500, -1.000, -25.900, 1219, 100, 100, 27, 25751, -7491, 5301, 5301, 21, 11, 1529358227.669, 61, 0, 1024, 1024, 1024, 1024, 0, 6, 4162, 4180, 4290, 4276, 4282, 4274, 0, 1, 3701, -89.900, 0.000, -29.000, -0.100, 0.000, -0.300, 0.0, , , , , , 95, , , 47, 47, 47
37.0262477, -119.2351944, 0.200, 14:43:47.768, 10, 0.00, 0.16, 100, 0.600, -0.700, -25.800, 1219, 100, 100, 27, 25751, -7491, 5301, 5301, 21, 11, 1529358227.768, 73, 0, 1024, 1024, 1024, 1024, 0, 6, 4162, 4180, 4290, 4276, 4282, 4274, 0, 1, 3800, -89.900, 0.000, -28.900, 0.000, 0.000, -0.300, 0.0, , , , , , 95, , , 47, 47, 47
37.0262475, -119.2351945, 0.200, 14:43:47.868, 10, 0.10, 0.17, 100, 0.700, -0.400, -25.700, 1219, 100, 100, 27, 25751, -7491, 5301, 5301, 21, 11, 1529358227.868, 64, 0, 1024, 1024, 1024, 1024, 0, 6, 4162, 4180, 4290, 4276, 4282, 4274, 0, 1, 3901, -89.900, 0.000, -28.800, -0.100, 0.000, -0.300, 0.0, , , , , , 95, , , 47, 47, 47
37.0262473, -119.2351946, 0.300, 14:43:47.968, 10, 0.10, 0.19, 100, 0.900, -0.400, -25.600, 1219, 100, 100, 27, 25751, -7491, 5301, 5301, 21, 11, 1529358227.969, 33, 0, 1024, 1024, 1024, 1024, 0, 6, 4162, 4180, 4290, 4276, 4282, 4274, 0, 1, 4001, -89.900, 0.000, -28.700, -0.100, 0.000, -0.400, 0.0, , , , , , 95, , , 47, 47, 47
37.0262472, -119.2351947, 0.300, 14:43:48.068, 10, 0.10, 0.20, 100, 0.900, -0.600, -25.600, 1219, 100, 100, 27, 25751, -7491, 5301, 5301, 21, 11, 1529358228.068, 60, 0, 1024, 1024, 1024, 1024, 0, 6, 4162, 4180, 4290, 4276, 4282, 4274, 0, 1, 4100, -89.900, 0.000, -28.700, -0.100, 0.000, -0.400, 0.0, , , , , , 95, , , 47, 47, 47
37.0262471, -119.2351947, 0.400, 14:43:48.168, 10, 0.10, 0.21, 100, 1.000, -0.700, -25.500, 1219, 100, 100, 27, 25751, -7491, 5301, 5301, 21, 11, 1529358228.168, 54, 0, 1024, 1024, 1024, 1024, 0, 6, 4162, 4180, 4290, 4276, 4282, 4274, 0, 1, 4201, -89.900, 0.000, -28.600, -0.100, 0.000, -0.400, 0.0, , , , , , 95, , , 47, 47, 47
37.0262471, -119.2351948, 0.400, 14:43:48.268, 10, 0.00, 0.22, 100, 1.200, -0.800, -25.600, 1219, 100, 100, 27, 25751, -7491, 5301, 5301, 21, 11, 1529358228.269, 36, 0, 1024, 1024, 1024, 1024, 0, 6, 4162, 4180, 4290, 4276, 4282, 4274, 0, 1, 4301, -89.900, 0.000, -28.500, 0.000, 0.000, -0.400, 0.0, , , , , , 95, , , 47, 47, 47
37.0262470, -119.2351949, 0.500, 14:43:48.368, 10, 0.00, 0.22, 100, 1.300, -0.700, -25.600, 1219, 100, 100, 27, 25751, -7491, 5301, 5301, 21, 11, 1529358228.369, 14, 0, 1024, 1024, 1024, 1024, 0, 6, 4162, 4180, 4290, 4276, 4282, 4274, 0, 1, 4401, -90.000, 0.000, -28.500, 0.000, 0.000, -0.400, 0.0, , , , , , 95, , , 47, 47, 47
37.0262469, -119.2351949, 0.500, 14:43:48.468, 10, 0.00, 0.23, 100, 1.400, -0.700, -25.800, 1219, 100, 100, 27, 25751, -7491, 5301, 5301, 21, 11, 1529358228.469, 41, 0, 1024, 1024, 1024, 1024, 0, 6, 4162, 4180, 4290, 4276, 4282, 4274, 0, 1, 4501, -90.000, 0.000, -28.400, 0.000, 0.000, -0.400, 0.0, , , , , , 95, , , 47, 47, 47
37.0262469, -119.2351949, 0.600, 14:43:48.568, 11, 0.00, 0.24, 100, 1.400, -0.700, -26.000, 1219, 100, 100, 27, 24622, -16235, 5301, 5301, 21, 11, 1529358228.568, 33, 0, 1024, 1024, 1024, 1024, 0, 6, 4084, 4116, 4109, 4108, 4091, 4125, 0, 1, 4600, -90.000, 0.000, -28.300, 0.000, 0.000, -0.400, 0.0, , , , , , 95, , , 47, 47, 47
37.0262468, -119.2351950, 0.700, 14:43:48.668, 11, 0.00, 0.25, 100, 1.300, -0.900, -26.100, 1219, 100, 100, 27, 24622, -16235, 5301, 5301, 21, 11, 1529358228.668, 34, 0, 1024, 1024, 1024, 1024, 0, 6, 4084, 4116, 4109, 4108, 4091, 4125, 0, 1, 4700, -90.000, 0.000, -28.300, 0.000, 0.000, -0.500, 0.0, , , , , , 95, , , 47, 47, 47
37.0262467, -119.2351951, 0.700, 14:43:48.768, 10, 0.00, 0.26, 100, 1.700, -1.000, -26.200, 1219, 100, 100, 27, 24622, -16235, 5301, 5301, 21, 11, 1529358228.768, 35, 0, 1024, 1024, 1024, 1024, 0, 6, 4084, 4116, 4109, 4108, 4091, 4125, 0, 1, 4800, -89.900, 0.000, -28.200, 0.000, 0.000, -0.500, 0.0, , , , , , 95, , , 47, 47, 47
37.0262466, -119.2351952, 0.800, 14:43:48.868, 10, 0.00, 0.26, 100, 2.100, -0.900, -26.400, 1219, 100, 100, 27, 24622, -16235, 5301, 5301, 21, 11, 1529358228.868, 26, 0, 1024, 1024, 1024, 1024, 0, 6, 4084, 4116, 4109, 4108, 4091, 4125, 0, 1, 4901, -90.000, 0.000, -28.100, 0.000, 0.000, -0.500, 0.0, , , , , , 95, , , 47, 47, 47
37.0262466, -119.2351952, 0.800, 14:43:48.968, 10, 0.00, 0.26, 100, 2.100, -0.900, -26.400, 1219, 100, 100, 27, 24622, -16235, 5301, 5301, 21, 11, 1529358228.969, 126, 0, 1024, 1024, 1024, 1024, 0, 6, 4084, 4116, 4109, 4108, 4091, 4125, 0, 1, 5001, -90.000, 0.000, -28.100, 0.000, 0.000, -0.500, 0.0, , , , , , 95, , , 47, 47, 47
37.0262466, -119.2351953, 0.900, 14:43:49.068, 11, 0.00, 0.27, 100, 2.300, -0.900, -26.600, 1219, 100, 100, 27, 24622, -16235, 5301, 5301, 21, 11, 1529358229.068, 85, 0, 1024, 1024, 1024, 1024, 0, 6, 4084, 4116, 4109, 4108, 4091, 4125, 0, 1, 5100, -89.900, 0.000, -28.100, 0.000, 0.000, -0.500, 0.0, , , , , , 95, , , 47, 47, 47
37.0262467, -119.2351952, 1.000, 14:43:49.170, 9, 0.00, 0.26, 100, 1.400, -0.600, -27.200, 1219, 100, 100, 27, 24622, -16235, 5301, 5301, 21, 14, 1529358229.170, 3, 0, 1024, 1024, 1024, 1024, 0, 6, 4084, 4116, 4109, 4108, 4091, 4125, 0, 1, 5202, -89.900, 0.000, -28.100, 0.000, 0.000, -0.400, 0.0, , , , , , 95, , , 47, 47, 47
37.0262467, -119.2351952, 1.100, 14:43:49.269, 9, 0.00, 0.26, 100, 0.300, 0.000, -27.800, 1219, 100, 99, 27, 24622, -16235, 5301, 5301, 21, 14, 1529358229.269, 3, 0, 1024, 1024, 1024, 1024, 0, 6, 4084, 4116, 4109, 4108, 4091, 4125, 0, 1, 5301, -89.900, 0.000, -28.100, 0.000, 0.000, -0.300, 0.0, , , , , , 95, , , 47, 47, 47
37.0262467, -119.2351952, 1.100, 14:43:49.375, 10, 0.00, 0.25, 100, -0.100, 0.200, -28.400, 1219, 100, 99, 27, 24622, -16235, 5301, 5301, 21, 14, 1529358229.376, 4, 0, 1024, 1024, 1024, 1024, 0, 6, 4084, 4116, 4109, 4108, 4091, 4125, 0, 1, 5408, -89.900, 0.000, -28.100, 0.000, 0.000, -0.300, 0.0, , , , , , 95, , , 47, 47, 47
37.0262467, -119.2351952, 1.100, 14:43:49.468, 10, 0.00, 0.25, 100, -0.100, 0.200, -28.400, 1219, 100, 99, 27, 24622, -16235, 5301, 5301, 21, 14, 1529358229.468, 96, 0, 1024, 1024, 1024, 1024, 0, 6, 4084, 4116, 4109, 4108, 4091, 4125, 0, 1, 5501, -89.900, 0.000, -28.100, 0.000, 0.000, -0.300, 0.0, , , , , , 95, , , 47, 47, 47
37.0262468, -119.2351951, 1.200, 14:43:49.567, 10, 0.00, 0.25, 100, -0.300, 0.500, -28.900, 1219, 100, 99, 27, 24622, -16235, 5301, 5301, 21, 14, 1529358229.568, 86, 0, 1024, 1024, 1024, 1024, 0, 6, 4084, 4116, 4109, 4108, 4091, 4125, 0, 1, 5600, -89.900, 0.000, -28.100, 0.000, 0.000, -0.400, 0.0, , , , , , 95, , , 47, 47, 47
37.0262468, -119.2351951, 1.200, 14:43:49.668, 10, 0.00, 0.24, 100, -0.300, 0.600, -29.400, 1219, 100, 99, 27, 24499, -16537, 5301, 5301, 21, 14, 1529358229.668, 93, 0, 1024, 1024, 1024, 1024, 0, 6, 4064, 4100, 4083, 4085, 4081, 4083, 0, 1, 5701, -89.900, 0.000, -28.100, 0.000, 0.000, -0.400, 0.0, , , , , , 95, , , 47, 47, 47
37.0262468, -119.2351952, 1.400, 14:43:49.768, 9, 0.00, 0.25, 100, 0.300, 0.300, -30.300, 1219, 100, 99, 27, 24499, -16537, 5301, 5301, 21, 14, 1529358229.768, 86, 0, 1024, 1024, 1024, 1024, 0, 6, 4064, 4100, 4083, 4085, 4081, 4083, 0, 1, 5800, -89.900, 0.000, -28.100, 0.000, 0.000, -0.800, 0.0, , , , , , 95, , , 47, 47, 47
37.0262468, -119.2351952, 1.400, 14:43:49.868, 9, 0.00, 0.25, 100, 0.300, 0.300, -30.300, 1219, 100, 99, 27, 24499, -16537, 5301, 5301, 21, 14, 1529358229.868, 186, 0, 1024, 1024, 1024, 1024, 0, 6, 4064, 4100, 4083, 4085, 4081, 4083, 0, 1, 5900, -90.000, 0.000, -28.200, 0.000, 0.000, -0.800, 0.0, , , , , , 95, , , 47, 47, 47
37.0262469, -119.2351953, 1.600, 14:43:49.968, 10, 0.00, 0.24, 100, 0.800, 0.000, -31.100, 1219, 100, 99, 27, 24499, -16537, 5301, 5301, 21, 14, 1529358229.968, 88, 0, 1024, 1024, 1024, 1024, 0, 6, 4064, 4100, 4083, 4085, 4081, 4083, 0, 1, 6000, -90.000, 0.000, -28.200, 0.000, 0.000, -1.100, 0.0, , , , , , 95, , , 47, 47, 47
37.0262470, -119.2351954, 1.800, 14:43:50.067, 10, 0.00, 0.23, 100, 0.900, 0.100, -31.500, 1219, 100, 99, 27, 24499, -16537, 5301, 5301, 21, 14, 1529358230.068, 63, 0, 1024, 1024, 1024, 1024, 0, 6, 4064, 4100, 4083, 4085, 4081, 4083, 0, 1, 6100, -89.900, 0.000, -28.300, 0.000, 0.000, -1.400, 0.0, , , , , , 95, , , 47, 47, 47
37.0262470, -119.2351956, 2.000, 14:43:50.168, 11, 0.00, 0.22, 100, 0.900, 0.300, -31.700, 1219, 100, 99, 27, 24499, -16537, 5301, 5301, 21, 14, 1529358230.168, 67, 0, 1024, 1024, 1024, 1024, 0, 6, 4064, 4100, 4083, 4085, 4081, 4083, 0, 1, 6200, -89.900, 0.000, -28.400, 0.000, 0.000, -1.600, 0.0, , , , , , 95, , , 47, 47, 47
37.0262470, -119.2351958, 2.200, 14:43:50.268, 11, 0.00, 0.23, 100, 1.100, 0.400, -31.800, 1219, 100, 99, 27, 24499, -16537, 5301, 5301, 21, 14, 1529358230.268, 72, 0, 1024, 1024, 1024, 1024, 0, 6, 4064, 4100, 4083, 4085, 4081, 4083, 0, 1, 6300, -89.900, 0.000, -28.500, 0.000, 0.000, -1.800, 0.0, , , , , , 95, , , 47, 47, 47
37.0262471, -119.2351959, 2.400, 14:43:50.368, 12, 0.00, 0.23, 100, 1.000, 0.400, -31.800, 1219, 100, 99, 27, 24499, -16537, 5301, 5301, 21, 14, 1529358230.368, 32, 0, 1024, 1024, 1024, 1024, 0, 6, 4064, 4100, 4083, 4085, 4081, 4083, 0, 1, 6400, -89.900, 0.000, -28.600, 0.000, 0.000, -2.000, 0.0, , , , , , 95, , , 47, 47, 47
37.0262472, -119.2351961, 2.600, 14:43:50.468, 12, 0.00, 0.22, 100, 1.000, 0.600, -31.700, 1219, 100, 99, 27, 24499, -16537, 5301, 5301, 21, 14, 1529358230.468, 49, 0, 1024, 1024, 1024, 1024, 0, 6, 4064, 4100, 4083, 4085, 4081, 4083, 0, 1, 6500, -89.900, 0.000, -28.700, 0.000, 0.000, -2.200, 0.0, , , , , , 95, , , 47, 47, 47
37.0262474, -119.2351963, 2.900, 14:43:50.567, 12, 0.00, 0.21, 100, 1.000, 0.800, -31.600, 1219, 100, 99, 27, 24287, -18094, 5301, 5301, 21, 14, 1529358230.567, 26, 0, 1024, 1024, 1024, 1024, 0, 6, 4026, 4053, 4064, 4052, 4033, 4009, 0, 1, 6599, -89.900, 0.000, -28.800, 0.000, 0.000, -2.400, 0.0, , , , , , 95, , , 47, 47, 47
37.0262475, -119.2351966, 3.200, 14:43:50.668, 12, 0.00, 0.21, 100, 0.900, 1.100, -31.300, 1219, 100, 100, 27, 24287, -18094, 5301, 5301, 21, 14, 1529358230.668, 41, 0, 1024, 1024, 1024, 1024, 0, 6, 4026, 4053, 4064, 4052, 4033, 4009, 0, 1, 6700, -89.900, 0.000, -28.900, 0.000, 0.000, -2.600, 0.0, , , , , , 95, , , 47, 47, 47
37.0262476, -119.2351968, 3.500, 14:43:50.768, 12, 0.00, 0.22, 100, 0.600, 1.300, -31.000, 1219, 100, 100, 27, 24287, -18094, 5301, 5301, 21, 14, 1529358230.768, 27, 0, 1024, 1024, 1024, 1024, 0, 6, 4026, 4053, 4064, 4052, 4033, 4009, 0, 1, 6800, -89.900, 0.000, -28.900, 0.000, 0.000, -2.800, 0.0, , , , , , 95, , , 47, 47, 47
37.0262477, -119.2351971, 3.800, 14:43:50.868, 12, 0.00, 0.23, 100, 0.400, 1.700, -30.700, 1219, 100, 100, 27, 24287, -18094, 5301, 5301, 21, 14, 1529358230.868, 18, 0, 1024, 1024, 1024, 1024, 0, 6, 4026, 4053, 4064, 4052, 4033, 4009, 0, 1, 6900, -89.900, 0.000, -29.000, 0.000, 0.000, -2.900, 0.0, , , , , , 95, , , 47, 47, 47
37.0262478, -119.2351973, 4.200, 14:43:50.968, 13, 0.00, 0.24, 100, 0.700, 2.100, -30.600, 1219, 100, 100, 27, 24287, -18094, 5301, 5301, 21, 14, 1529358230.968, 24, 0, 1024, 1024, 1024, 1024, 0, 6, 4026, 4053, 4064, 4052, 4033, 4009, 0, 1, 7000, -89.900, 0.000, -29.100, 0.000, 0.000, -3.000, 0.0, , , , , , 95, , , 47, 47, 47
37.0262480, -119.2351974, 4.500, 14:43:51.067, 13, 0.00, 0.23, 100, 1.100, 2.400, -30.500, 1219, 100, 100, 27, 24287, -18094, 5301, 5301, 21, 14, 1529358231.068, 15, 0, 1024, 1024, 1024, 1024, 0, 6, 4026, 4053, 4064, 4052, 4033, 4009, 0, 1, 7100, -89.900, 0.000, -29.200, 0.000, 0.000, -3.000, 0.0, , , , , , 95, , , 47, 47, 47
37.0262481, -119.2351975, 4.800, 14:43:51.168, 13, 0.00, 0.24, 100, 1.200, 2.500, -30.500, 1219, 100, 100, 27, 24287, -18094, 5301, 5301, 21, 14, 1529358231.168, 21, 0, 1024, 1024, 1024, 1024, 0, 6, 4026, 4053, 4064, 4052, 4033, 4009, 0, 1, 7200, -89.900, 0.000, -29.300, 0.000, 0.000, -3.000, 0.0, , , , , , 95, , , 47, 47, 47
37.0262480, -119.2351976, 5.200, 14:43:51.268, 13, 0.00, 0.25, 100, 1.200, 2.500, -30.600, 1219, 100, 100, 27, 24287, -18094, 5301, 5301, 21, 14, 1529358231.269, 14, 0, 1024, 1024, 1024, 1024, 0, 6, 4026, 4053, 4064, 4052, 4033, 4009, 0, 1, 7301, -89.900, 0.000, -29.300, 0.000, 0.000, -3.000, 0.0, , , , , , 95, , , 47, 47, 47
37.0262480, -119.2351977, 5.500, 14:43:51.368, 13, 0.00, 0.26, 100, 1.200, 2.300, -30.800, 1219, 100, 100, 27, 24287, -18094, 5301, 5301, 21, 14, 1529358231.369, 7, 0, 1024, 1024, 1024, 1024, 0, 6, 4026, 4053, 4064, 4052, 4033, 4009, 0, 1, 7401, -90.000, 0.000, -29.400, 0.000, 0.000, -3.000, 0.0, , , , , , 95, , , 47, 47, 47
37.0262480, -119.2351976, 5.900, 14:43:51.468, 13, 0.00, 0.25, 100, 1.100, 1.900, -31.000, 1219, 100, 100, 27, 24287, -18094, 5301, 5301, 21, 14, 1529358231.469, 9, 0, 1024, 1024, 1024, 1024, 0, 6, 4026, 4053, 4064, 4052, 4033, 4009, 0, 1, 7501, -90.000, 0.000, -29.400, 0.000, 0.000, -3.000, 0.0, , , , , , 95, , , 47, 47, 47
37.0262480, -119.2351976, 5.900, 14:43:51.567, 13, 0.00, 0.25, 100, 1.100, 1.900, -31.000, 1219, 100, 100, 27, 24287, -18094, 5301, 5301, 21, 14, 1529358231.568, 107, 0, 1024, 1024, 1024, 1024, 0, 6, 4026, 4053, 4064, 4052, 4033, 4009, 0, 1, 7600, -90.000, 0.000, -29.400, 0.000, 0.000, -3.000, 0.0, , , , , , 95, , , 47, 47, 47
37.0262480, -119.2351976, 6.200, 14:43:51.668, 13, 0.00, 0.26, 100, 1.000, 1.600, -31.300, 1219, 100, 100, 27, 23972, -21920, 5194, 5301, 21, 14, 1529358231.668, 88, 0, 1024, 1024, 1024, 1024, 0, 6, 3973, 4025, 3988, 4008, 4010, 4022, 0, 1, 7700, -90.000, 0.000, -29.500, 0.000, 0.000, -3.000, 0.0, , , , , , 95, , , 47, 47, 47
37.0262479, -119.2351977, 6.600, 14:43:51.768, 13, 0.00, 0.27, 100, 0.900, 1.400, -31.500, 1219, 100, 100, 27, 23972, -21920, 5194, 5301, 21, 14, 1529358231.768, 92, 0, 1024, 1024, 1024, 1024, 0, 6, 3973, 4025, 3988, 4008, 4010, 4022, 0, 1, 7800, -90.000, 0.000, -29.500, 0.000, 0.000, -3.000, 0.0, , , , , , 95, , , 47, 47, 47
37.0262478, -119.2351978, 6.900, 14:43:51.868, 13, 0.00, 0.28, 100, 1.000, 1.200, -31.500, 1219, 100, 100, 27, 23972, -21920, 5194, 5301, 21, 14, 1529358231.868, 92, 0, 1024, 1024, 1024, 1024, 0, 6, 3973, 4025, 3988, 4008, 4010, 4022, 0, 1, 7900, -89.900, 0.000, -29.500, 0.000, 0.000, -3.000, 0.0, , , , , , 95, , , 47, 47, 47
37.0262478, -119.2351977, 7.200, 14:43:51.968, 13, 0.00, 0.27, 100, 1.200, 1.000, -31.400, 1219, 100, 100, 27, 23972, -21920, 5194, 5301, 21, 14, 1529358231.968, 94, 0, 1024, 1024, 1024, 1024, 0, 6, 3973, 4025, 3988, 4008, 4010, 4022, 0, 1, 8000, -90.000, 0.000, -29.600, 0.000, 0.000, -3.000, 0.0, , , , , , 95, , , 47, 47, 47
37.0262475, -119.2351974, 7.900, 14:43:52.067, 13, 0.10, 0.26, 100, 1.100, 0.400, -31.100, 1219, 100, 100, 27, 23972, -21920, 5194, 5301, 21, 14, 1529358232.068, 81, 0, 1024, 1024, 1024, 1024, 0, 6, 3973, 4025, 3988, 4008, 4010, 4022, 0, 1, 8100, -90.000, 0.000, -29.600, 0.000, 0.100, -3.000, 0.0, , , , , , 95, , , 47, 47, 47
37.0262474, -119.2351972, 8.200, 14:43:52.168, 13, 0.14, 0.26, 98, 1.000, 0.000, -31.000, 1219, 100, 99, 27, 23972, -21920, 5194, 5301, 21, 14, 1529358232.168, 79, 0, 1024, 1024, 1024, 1024, 0, 6, 3973, 4025, 3988, 4008, 4010, 4022, 0, 1, 8200, -90.000, 0.000, -29.700, -0.100, 0.100, -2.900, 0.0, , , , , , 95, , , 47, 47, 47
37.0262473, -119.2351970, 8.600, 14:43:52.268, 13, 0.14, 0.26, 98, 1.000, -0.200, -31.000, 1219, 100, 99, 27, 23972, -21920, 5194, 5301, 21, 14, 1529358232.268, 82, 0, 1024, 1024, 1024, 1024, 0, 6, 3973, 4025, 3988, 4008, 4010, 4022, 0, 1, 8300, -90.000, 0.000, -29.700, -0.100, 0.100, -2.900, 0.0, , , , , , 95, , , 47, 47, 47
37.0262471, -119.2351969, 8.900, 14:43:52.368, 14, 0.10, 0.26, 98, 0.800, -0.500, -31.000, 1219, 100, 99, 27, 23972, -21920, 5194, 5301, 21, 14, 1529358232.368, 77, 0, 1024, 1024, 1024, 1024, 0, 6, 3973, 4025, 3988, 4008, 4010, 4022, 0, 1, 8400, -90.000, 0.000, -29.700, 0.000, 0.100, -2.900, 0.0, , , , , , 95, , , 47, 47, 47
37.0262470, -119.2351967, 9.200, 14:43:52.468, 14, 0.10, 0.26, 98, 0.600, -0.800, -31.100, 1219, 100, 99, 27, 23972, -21920, 5194, 5301, 21, 14, 1529358232.468, 62, 0, 1024, 1024, 1024, 1024, 0, 6, 3973, 4025, 3988, 4008, 4010, 4022, 0, 1, 8500, -90.000, 0.000, -29.800, 0.000, 0.100, -2.800, 0.0, , , , , , 95, , , 47, 47, 47
37.0262469, -119.2351965, 9.500, 14:43:52.567, 14, 0.10, 0.27, 98, 0.500, -1.000, -31.100, 1219, 100, 99, 27, 24255, -17339, 5194, 5301, 21, 14, 1529358232.568, 75, 0, 1024, 1024, 1024, 1024, 0, 6, 3973, 4025, 3988, 4008, 4010, 4022, 0, 1, 8600, -90.000, 0.000, -29.800, 0.000, 0.100, -2.800, 0.0, , , , , , 95, , , 47, 47, 47
37.0262468, -119.2351963, 9.900, 14:43:52.668, 14, 0.10, 0.27, 98, 0.400, -1.000, -31.200, 1219, 100, 98, 27, 24255, -17339, 5194, 5301, 21, 14, 1529358232.668, 77, 0, 1024, 1024, 1024, 1024, 0, 6, 3973, 4025, 3988, 4008, 4010, 4022, 0, 1, 8700, -90.000, 0.000, -29.800, 0.000, 0.100, -2.800, 0.0, , , , , , 95, , , 47, 47, 47
37.0262467, -119.2351962, 10.200, 14:43:52.768, 13, 0.10, 0.27, 98, 0.300, -0.800, -31.300, 1219, 100, 98, 27, 24255, -17339, 5194, 5301, 21, 14, 1529358232.768, 44, 0, 1024, 1024, 1024, 1024, 0, 6, 3973, 4025, 3988, 4008, 4010, 4022, 0, 1, 8800, -90.000, 0.000, -29.900, 0.000, 0.100, -2.800, 0.0, , , , , , 95, , , 47, 47, 47
37.0262466, -119.2351959, 10.500, 14:43:52.868, 13, 0.10, 0.27, 98, 0.300, -0.700, -31.500, 1219, 100, 98, 27, 24255, -17339, 5194, 5301, 21, 14, 1529358232.868, 43, 0, 1024, 1024, 1024, 1024, 0, 6, 3973, 4025, 3988, 4008, 4010, 4022, 0, 1, 8900, -90.000, 0.000, -29.900, 0.000, 0.100, -2.700, 0.0, , , , , , 95, , , 47, 47, 47
37.0262466, -119.2351957, 10.800, 14:43:52.968, 13, 0.10, 0.28, 98, 0.100, -0.700, -31.700, 1219, 100, 98, 27, 24255, -17339, 5194, 5301, 21, 14, 1529358232.968, 48, 0, 1024, 1024, 1024, 1024, 0, 6, 3973, 4025, 3988, 4008, 4010, 4022, 0, 1, 9000, -90.000, 0.000, -29.900, 0.000, 0.100, -2.800, 0.0, , , , , , 95, , , 47, 47, 47
37.0262466, -119.2351955, 11.100, 14:43:53.067, 13, 0.10, 0.27, 98, -0.200, -0.600, -31.700, 1219, 100, 98, 27, 24255, -17339, 5194, 5301, 21, 14, 1529358233.068, 61, 0, 1024, 1024, 1024, 1024, 0, 6, 4016, 4057, 4049, 4045, 4050, 4049, 0, 1, 9100, -89.900, 0.000, -29.900, 0.000, 0.100, -2.700, 0.0, , , , , , 95, , , 47, 47, 47
37.0262466, -119.2351953, 11.400, 14:43:53.168, 14, 0.00, 0.27, 98, -0.600, -0.400, -31.700, 1219, 100, 98, 27, 24255, -17339, 5194, 5301, 21, 14, 1529358233.168, 50, 0, 1024, 1024, 1024, 1024, 0, 6, 4016, 4057, 4049, 4045, 4050, 4049, 0, 1, 9200, -90.000, 0.000, -30.000, 0.000, 0.000, -2.700, 0.0, , , , , , 95, , , 47, 47, 47
37.0262466, -119.2351951, 11.700, 14:43:53.268, 14, 0.00, 0.27, 98, -0.800, -0.300, -31.500, 1219, 100, 98, 27, 24255, -17339, 5194, 5301, 21, 14, 1529358233.269, 30, 0, 1024, 1024, 1024, 1024, 0, 6, 4016, 4057, 4049, 4045, 4050, 4049, 0, 1, 9301, -90.000, 0.000, -30.000, 0.000, 0.000, -2.700, 0.0, , , , , , 95, , , 47, 47, 47
37.0262466, -119.2351950, 12.000, 14:43:53.368, 13, 0.00, 0.27, 98, -0.800, -0.100, -31.300, 1219, 100, 98, 27, 24255, -17339, 5194, 5301, 21, 14, 1529358233.368, 33, 0, 1024, 1024, 1024, 1024, 0, 6, 4016, 4057, 4049, 4045, 4050, 4049, 0, 1, 9400, -89.900, 0.000, -30.000, 0.000, 0.000, -2.800, 0.0, , , , , , 95, , , 47, 47, 47
37.0262466, -119.2351949, 12.300, 14:43:53.468, 13, 0.00, 0.27, 98, -0.700, -0.200, -31.200, 1219, 100, 98, 27, 24255, -17339, 5194, 5301, 21, 14, 1529358233.468, 38, 0, 1024, 1024, 1024, 1024, 0, 6, 4016, 4057, 4049, 4045, 4050, 4049, 0, 1, 9500, -90.000, 0.000, -30.000, 0.000, 0.000, -2.800, 0.0, , , , , , 95, , , 47, 47, 47
37.0262466, -119.2351947, 12.600, 14:43:53.567, 14, 0.00, 0.27, 98, -0.500, -0.300, -31.100, 1219, 100, 98, 27, 24255, -17339, 5194, 5301, 21, 14, 1529358233.568, 30, 0, 1024, 1024, 1024, 1024, 0, 6, 4016, 4057, 4049, 4045, 4050, 4049, 0, 1, 9600, -90.000, 0.000, -30.000, 0.000, 0.000, -2.800, 0.0, , , , , , 95, , , 47, 47, 47
37.0262465, -119.2351947, 12.900, 14:43:53.667, 14, 0.00, 0.28, 98, -0.500, -0.200, -31.000, 1219, 100, 97, 27, 24255, -17339, 5194, 5301, 21, 14, 1529358233.668, 6, 0, 1024, 1024, 1024, 1024, 0, 6, 4016, 4057, 4049, 4045, 4050, 4049, 0, 1, 9700, -90.000, 0.000, -30.100, 0.000, 0.000, -2.700, 0.0, , , , , , 95, , , 47, 47, 47
37.0262465, -119.2351946, 13.200, 14:43:53.768, 13, 0.00, 0.28, 98, -0.400, -0.100, -31.000, 1219, 100, 97, 27, 24255, -17339, 5194, 5301, 21, 14, 1529358233.768, 22, 0, 1024, 1024, 1024, 1024, 0, 6, 4016, 4057, 4049, 4045, 4050, 4049, 0, 1, 9800, -90.000, 0.000, -30.100, 0.000, 0.000, -2.700, 0.0, , , , , , 95, , , 47, 47, 47
37.0262465, -119.2351946, 13.500, 14:43:53.868, 13, 0.00, 0.28, 98, -0.200, 0.000, -31.100, 1219, 100, 97, 27, 24255, -17339, 5194, 5301, 21, 14, 1529358233.868, 12, 0, 1024, 1024, 1024, 1024, 0, 6, 4016, 4057, 4049, 4045, 4050, 4049, 0, 1, 9900, -89.900, 0.000, -30.100, 0.000, 0.000, -2.700, 0.0, , , , , , 95, , , 47, 47, 47
37.0262466, -119.2351946, 13.800, 14:43:53.968, 13, 0.00, 0.28, 98, 0.000, 0.100, -31.200, 1219, 100, 97, 27, 24255, -17339, 5194, 5301, 21, 14, 1529358233.968, 19, 0, 1024, 1024, 1024, 1024, 0, 6, 4016, 4057, 4049, 4045, 4050, 4049, 0, 1, 10000, -89.900, 0.000, -30.100, 0.000, 0.000, -2.700, 0.0, , , , , , 95, , , 47, 47, 47
37.0262466, -119.2351946, 14.100, 14:43:54.067, 13, 0.00, 0.27, 98, 0.100, 0.400, -31.400, 1219, 100, 97, 27, 24287, -16883, 5194, 5301, 21, 14, 1529358234.067, 20, 0, 1024, 1024, 1024, 1024, 0, 6, 4028, 4054, 4053, 4044, 4049, 4039, 0, 1, 10100, -89.900, 0.000, -30.200, 0.000, 0.000, -2.700, 0.0, , , , , , 95, , , 47, 47, 47
37.0262466, -119.2351946, 14.400, 14:43:54.171, 13, 0.00, 0.27, 98, 0.100, 0.700, -31.600, 1219, 100, 97, 27, 24287, -16883, 5194, 5301, 21, 14, 1529358234.171, 4, 0, 1024, 1024, 1024, 1024, 0, 6, 4028, 4054, 4053, 4044, 4049, 4039, 0, 1, 10203, -89.900, 0.000, -30.200, 0.000, 0.000, -2.700, 0.0, , , , , , 95, , , 47, 47, 47
37.0262467, -119.2351946, 14.700, 14:43:54.267, 13, 0.00, 0.26, 98, 0.100, 1.100, -31.700, 1219, 100, 97, 27, 24287, -16883, 5194, 5301, 21, 14, 1529358234.268, 6, 0, 1024, 1024, 1024, 1024, 0, 6, 4028, 4054, 4053, 4044, 4049, 4039, 0, 1, 10300, -89.900, 0.000, -30.200, 0.000, 0.000, -2.800, 0.0, , , , , , 95, , , 47, 47, 47
37.0262467, -119.2351946, 14.700, 14:43:54.368, 13, 0.00, 0.26, 98, 0.100, 1.100, -31.700, 1219, 100, 97, 27, 24287, -16883, 5194, 5301, 21, 14, 1529358234.368, 106, 0, 1024, 1024, 1024, 1024, 0, 6, 4028, 4054, 4053, 4044, 4049, 4039, 0, 1, 10400, -89.900, 0.000, -30.200, 0.000, 0.000, -2.800, 0.0, , , , , , 95, , , 47, 47, 47
37.0262468, -119.2351946, 15.100, 14:43:54.468, 13, 0.00, 0.25, 98, 0.100, 1.200, -31.700, 1219, 100, 97, 27, 24287, -16883, 5194, 5301, 21, 14, 1529358234.468, 89, 0, 1024, 1024, 1024, 1024, 0, 6, 4028, 4054, 4053, 4044, 4049, 4039, 0, 1, 10500, -89.900, 0.000, -30.200, 0.000, 0.000, -2.800, 0.0, , , , , , 95, , , 47, 47, 47
37.0262468, -119.2351946, 15.400, 14:43:54.567, 13, 0.00, 0.24, 98, 0.000, 1.500, -31.600, 1219, 100, 97, 27, 24287, -16883, 5194, 5301, 21, 14, 1529358234.567, 79, 0, 1024, 1024, 1024, 1024, 0, 6, 4028, 4054, 4053, 4044, 4049, 4039, 0, 1, 10600, -89.900, 0.000, -30.300, 0.000, 0.000, -2.700, 0.0, , , , , , 95, , , 47, 47, 47
37.0262469, -119.2351947, 15.700, 14:43:54.668, 13, 0.00, 0.24, 98, -0.300, 1.500, -31.600, 1219, 100, 97, 27, 24287, -16883, 5194, 5301, 21, 14, 1529358234.668, 92, 0, 1024, 1024, 1024, 1024, 0, 6, 4028, 4054, 4053, 4044, 4049, 4039, 0, 1, 10700, -89.900, 0.000, -30.300, 0.000, 0.000, -2.700, 0.0, , , , , , 95, , , 47, 47, 47
37.0262469, -119.2351948, 16.000, 14:43:54.768, 13, 0.00, 0.23, 98, -0.400, 1.300, -31.600, 1219, 100, 97, 27, 24287, -16883, 5194, 5301, 21, 14, 1529358234.768, 94, 0, 1024, 1024, 1024, 1024, 0, 6, 4028, 4054, 4053, 4044, 4049, 4039, 0, 1, 10800, -89.900, 0.000, -30.300, 0.000, 0.000, -2.700, 0.0, , , , , , 95, , , 47, 47, 47
37.0262470, -119.2351949, 16.600, 14:43:54.868, 14, 0.00, 0.22, 98, -0.100, 1.300, -31.700, 1219, 100, 97, 27, 24287, -16883, 5194, 5301, 21, 14, 1529358234.868, 80, 0, 1024, 1024, 1024, 1024, 0, 6, 4028, 4054, 4053, 4044, 4049, 4039, 0, 1, 10900, -89.900, 0.000, -30.300, 0.000, 0.000, -2.700, 0.0, , , , , , 95, , , 47, 47, 47
37.0262470, -119.2351950, 16.900, 14:43:54.968, 14, 0.00, 0.22, 98, 0.000, 1.400, -31.600, 1219, 100, 97, 27, 24287, -16883, 5194, 5301, 21, 14, 1529358234.968, 77, 0, 1024, 1024, 1024, 1024, 0, 6, 4028, 4054, 4053, 4044, 4049, 4039, 0, 1, 11000, -89.900, 0.000, -30.300, 0.000, 0.000, -2.700, 0.0, , , , , , 95, , , 47, 47, 47
37.0262470, -119.2351951, 17.200, 14:43:55.067, 14, 0.00, 0.22, 98, 0.300, 1.500, -31.600, 1219, 100, 97, 27, 24252, -17032, 5194, 5301, 21, 14, 1529358235.068, 81, 0, 1024, 1024, 1024, 1024, 0, 6, 4016, 4061, 4048, 4038, 4043, 4040, 0, 1, 11100, -89.900, 0.000, -30.300, 0.000, 0.000, -2.700, 0.0, , , , , , 95, , , 47, 47, 47
37.0262471, -119.2351952, 17.500, 14:43:55.168, 13, 0.00, 0.22, 98, 0.600, 1.500, -31.500, 1219, 100, 100, 27, 24252, -17032, 5194, 5301, 21, 14, 1529358235.168, 64, 0, 1024, 1024, 1024, 1024, 0, 6, 4016, 4061, 4048, 4038, 4043, 4040, 0, 1, 11201, -89.900, 0.000, -30.300, 0.000, 0.000, -2.800, 0.0, , , , , , 95, , , 47, 47, 47
37.0262471, -119.2351953, 17.800, 14:43:55.268, 13, 0.00, 0.21, 98, 0.800, 1.500, -31.500, 1219, 100, 100, 27, 24252, -17032, 5194, 5301, 21, 14, 1529358235.268, 67, 0, 1024, 1024, 1024, 1024, 0, 6, 4016, 4061, 4048, 4038, 4043, 4040, 0, 1, 11300, -89.900, 0.000, -30.400, 0.000, 0.000, -2.800, 0.0, , , , , , 95, , , 47, 47, 47
37.0262471, -119.2351953, 17.800, 14:43:55.368, 13, 0.00, 0.21, 98, 0.800, 1.500, -31.500, 1219, 100, 100, 27, 24252, -17032, 5194, 5301, 21, 14, 1529358235.368, 167, 0, 1024, 1024, 1024, 1024, 0, 6, 4016, 4061, 4048, 4038, 4043, 4040, 0, 1, 11400, -89.900, 0.000, -30.400, 0.000, 0.000, -2.800, 0.0, , , , , , 95, , , 47, 47, 47
37.0262471, -119.2351955, 18.400, 14:43:55.468, 15, 0.00, 0.22, 98, 1.000, 1.200, -31.500, 1219, 100, 100, 27, 24252, -17032, 5194, 5301, 21, 14, 1529358235.468, 33, 0, 1024, 1024, 1024, 1024, 0, 6, 4016, 4061, 4048, 4038, 4043, 4040, 0, 1, 11500, -89.900, 0.000, -30.400, 0.000, 0.000, -2.700, 0.0, , , , , , 95, , , 47, 47, 47
37.0262470, -119.2351956, 18.700, 14:43:55.567, 13, 0.00, 0.22, 98, 1.200, 0.900, -31.500, 1219, 100, 100, 27, 24252, -17032, 5194, 5301, 21, 14, 1529358235.568, 49, 0, 1024, 1024, 1024, 1024, 0, 6, 4016, 4061, 4048, 4038, 4043, 4040, 0, 1, 11600, -89.900, 0.000, -30.400, 0.000, 0.000, -2.700, 0.0, , , , , , 95, , , 47, 47, 47
37.0262470, -119.2351956, 19.000, 14:43:55.668, 13, 0.00, 0.23, 98, 1.300, 0.800, -31.500, 1219, 100, 99, 27, 24252, -17032, 5194, 5301, 21, 14, 1529358235.668, 49, 0, 1024, 1024, 1024, 1024, 0, 6, 4016, 4061, 4048, 4038, 4043, 4040, 0, 1, 11700, -90.000, 0.000, -30.400, 0.000, 0.000, -2.700, 0.0, , , , , , 95, , , 47, 47, 47
37.0262470, -119.2351957, 19.300, 14:43:55.767, 13, 0.00, 0.23, 98, 1.100, 0.700, -31.500, 1219, 100, 99, 27, 24252, -17032, 5194, 5301, 21, 14, 1529358235.767, 51, 0, 1024, 1024, 1024, 1024, 0, 6, 4016, 4061, 4048, 4038, 4043, 4040, 0, 1, 11799, -89.900, 0.000, -30.400, 0.000, 0.000, -2.700, 0.0, , , , , , 95, , , 47, 47, 47
37.0262470, -119.2351958, 19.600, 14:43:55.868, 13, 0.00, 0.23, 98, 0.800, 0.600, -31.500, 1219, 100, 99, 27, 24252, -17032, 5194, 5301, 21, 14, 1529358235.868, 29, 0, 1024, 1024, 1024, 1024, 0, 6, 4016, 4061, 4048, 4038, 4043, 4040, 0, 1, 11900, -90.000, 0.000, -30.400, 0.000, 0.000, -2.700, 0.0, , , , , , 95, , , 47, 47, 47
37.0262470, -119.2351958, 19.900, 14:43:55.968, 16, 0.00, 0.23, 98, 0.500, 0.800, -31.500, 1219, 100, 99, 27, 24252, -17032, 5194, 5301, 21, 14, 1529358235.968, 32, 0, 1024, 1024, 1024, 1024, 0, 6, 4016, 4061, 4048, 4038, 4043, 4040, 0, 1, 12000, -89.900, 0.000, -30.400, 0.000, 0.000, -2.700, 0.0, , , , , , 95, , , 47, 47, 47
37.0262470, -119.2351959, 20.200, 14:43:56.067, 16, 0.00, 0.23, 98, 0.400, 1.000, -31.500, 1219, 100, 99, 27, 24218, -17064, 5194, 5301, 21, 14, 1529358236.067, 20, 0, 1024, 1024, 1024, 1024, 0, 6, 4013, 4045, 4043, 4038, 4040, 4027, 0, 1, 12099, -89.900, 0.000, -30.500, 0.000, 0.000, -2.700, 0.0, , , , , , 95, , , 47, 47, 47
37.0262470, -119.2351959, 20.500, 14:43:56.167, 16, 0.00, 0.24, 98, 0.300, 1.100, -31.500, 1219, 100, 99, 27, 24218, -17064, 5194, 5301, 21, 14, 1529358236.167, 21, 0, 1024, 1024, 1024, 1024, 0, 6, 4013, 4045, 4043, 4038, 4040, 4027, 0, 1, 12199, -89.900, 0.000, -30.500, 0.000, 0.000, -2.700, 0.0, , , , , , 95, , , 47, 47, 47
37.0262469, -119.2351960, 20.700, 14:43:56.268, 16, 0.00, 0.24, 98, 0.600, 1.200, -31.400, 1219, 100, 99, 27, 24218, -17064, 5194, 5301, 21, 14, 1529358236.268, 35, 0, 1024, 1024, 1024, 1024, 0, 6, 4013, 4045, 4043, 4038, 4040, 4027, 0, 1, 12300, -89.900, 0.000, -30.500, 0.000, 0.000, -2.600, 0.0, , , , , , 95, , , 47, 47, 47
37.0262469, -119.2351961, 21.000, 14:43:56.367, 16, 0.00, 0.25, 98, 0.900, 1.200, -31.300, 1219, 100, 99, 27, 24218, -17064, 5194, 5301, 21, 14, 1529358236.367, 3, 0, 1024, 1024, 1024, 1024, 0, 6, 4013, 4045, 4043, 4038, 4040, 4027, 0, 1, 12399, -89.900, 0.000, -30.500, 0.000, 0.000, -2.600, 0.0, , , , , , 95, , , 47, 47, 47
37.0262468, -119.2351961, 21.300, 14:43:56.467, 16, 0.00, 0.26, 98, 1.000, 1.000, -31.200, 1219, 100, 99, 27, 24218, -17064, 5194, 5301, 21, 14, 1529358236.467, 7, 0, 1024, 1024, 1024, 1024, 0, 6, 4013, 4045, 4043, 4038, 4040, 4027, 0, 1, 12500, -90.000, 0.000, -30.500, 0.000, 0.000, -2.700, 0.0, , , , , , 95, , , 47, 47, 47
37.0262468, -119.2351961, 21.300, 14:43:56.567, 16, 0.00, 0.26, 98, 1.000, 1.000, -31.200, 1219, 100, 99, 27, 24218, -17064, 5194, 5301, 21, 14, 1529358236.568, 108, 0, 1024, 1024, 1024, 1024, 0, 6, 4013, 4045, 4043, 4038, 4040, 4027, 0, 1, 12600, -90.000, 0.000, -30.500, 0.000, 0.000, -2.700, 0.0, , , , , , 95, , , 47, 47, 47
37.0262468, -119.2351962, 21.600, 14:43:56.668, 16, 0.00, 0.26, 98, 1.000, 0.700, -31.200, 1219, 100, 99, 27, 24218, -17064, 5194, 5301, 21, 14, 1529358236.668, 74, 0, 1024, 1024, 1024, 1024, 0, 6, 4013, 4045, 4043, 4038, 4040, 4027, 0, 1, 12700, -90.000, 0.000, -30.500, 0.000, 0.000, -2.800, 0.0, , , , , , 95, , , 47, 47, 47
37.0262468, -119.2351963, 22.200, 14:43:56.768, 16, 0.00, 0.27, 98, 0.800, 0.400, -31.100, 1219, 100, 99, 27, 24218, -17064, 5194, 5301, 21, 14, 1529358236.768, 92, 0, 1024, 1024, 1024, 1024, 0, 6, 4013, 4045, 4043, 4038, 4040, 4027, 0, 1, 12800, -90.000, 0.000, -30.500, 0.000, 0.000, -2.700, 0.0, , , , , , 95, , , 47, 47, 47
37.0262468, -119.2351964, 22.600, 14:43:56.869, 16, 0.00, 0.28, 98, 0.900, 0.500, -31.100, 1219, 100, 99, 27, 24218, -17064, 5194, 5301, 21, 14, 1529358236.869, 3, 0, 1024, 1024, 1024, 1024, 0, 6, 4013, 4045, 4043, 4038, 4040, 4027, 0, 1, 12901, -90.000, 0.000, -30.500, 0.000, 0.000, -2.800, 0.0, , , , , , 95, , , 47, 47, 47
37.0262467, -119.2351964, 22.900, 14:43:56.967, 16, 0.00, 0.28, 98, 1.000, 0.500, -31.300, 1219, 100, 99, 27, 24218, -17064, 5194, 5301, 21, 14, 1529358236.967, 97, 0, 1024, 1024, 1024, 1024, 0, 6, 4013, 4045, 4043, 4038, 4040, 4027, 0, 1, 12999, -90.000, 0.000, -30.500, 0.000, 0.000, -2.700, 0.0, , , , , , 95, , , 47, 47, 47
37.0262466, -119.2351965, 23.200, 14:43:57.067, 16, 0.00, 0.29, 98, 1.100, 0.300, -31.400, 1219, 100, 99, 27, 24218, -17064, 5194, 5301, 21, 14, 1529358237.068, 63, 0, 1024, 1024, 1024, 1024, 0, 6, 4013, 4045, 4043, 4038, 4040, 4027, 0, 1, 13100, -89.900, 0.000, -30.500, 0.000, 0.000, -2.700, 0.0, , , , , , 95, , , 47, 47, 47
37.0262466, -119.2351965, 23.500, 14:43:57.168, 16, 0.00, 0.30, 98, 1.200, 0.200, -31.500, 1219, 100, 100, 27, 24184, -17171, 5194, 5301, 21, 14, 1529358237.168, 69, 0, 1024, 1024, 1024, 1024, 0, 6, 4000, 4044, 4028, 4031, 4031, 4023, 0, 1, 13200, -90.000, 0.000, -30.500, 0.000, 0.000, -2.700, 0.0, , , , , , 95, , , 47, 47, 47
37.0262465, -119.2351964, 23.800, 14:43:57.268, 16, 0.00, 0.30, 98, 1.200, 0.200, -31.500, 1219, 100, 100, 27, 24184, -17171, 5194, 5301, 21, 14, 1529358237.269, 68, 0, 1024, 1024, 1024, 1024, 0, 6, 4000, 4044, 4028, 4031, 4031, 4023, 0, 1, 13301, -89.900, 0.000, -30.500, 0.000, 0.000, -2.700, 0.0, , , , , , 95, , , 47, 47, 47
37.0262465, -119.2351964, 24.000, 14:43:57.367, 16, 0.00, 0.30, 98, 1.200, 0.100, -31.500, 1219, 100, 100, 27, 24184, -17171, 5194, 5301, 21, 14, 1529358237.367, 55, 0, 1024, 1024, 1024, 1024, 0, 6, 4000, 4044, 4028, 4031, 4031, 4023, 0, 1, 13400, -89.900, 0.000, -30.500, 0.000, 0.000, -2.600, 0.0, , , , , , 95, , , 47, 47, 47
37.0262465, -119.2351963, 24.300, 14:43:57.468, 16, 0.00, 0.30, 98, 0.900, 0.000, -31.500, 1219, 100, 100, 27, 24184, -17171, 5194, 5301, 21, 14, 1529358237.468, 41, 0, 1024, 1024, 1024, 1024, 0, 6, 4000, 4044, 4028, 4031, 4031, 4023, 0, 1, 13500, -90.000, 0.000, -30.500, 0.000, 0.000, -2.600, 0.0, , , , , , 95, , , 47, 47, 47
37.0262465, -119.2351963, 24.300, 14:43:57.567, 16, 0.00, 0.30, 98, 0.900, 0.000, -31.500, 1219, 100, 100, 27, 24184, -17171, 5194, 5301, 21, 14, 1529358237.568, 141, 0, 1024, 1024, 1024, 1024, 0, 6, 4000, 4044, 4028, 4031, 4031, 4023, 0, 1, 13600, -90.000, 0.000, -30.500, 0.000, 0.000, -2.600, 0.0, , , , , , 95, , , 47, 47, 47
37.0262466, -119.2351962, 24.900, 14:43:57.668, 16, 0.00, 0.29, 98, 0.200, 0.100, -31.500, 1219, 100, 98, 27, 24184, -17171, 5194, 5301, 21, 14, 1529358237.668, 57, 0, 1024, 1024, 1024, 1024, 0, 6, 4000, 4044, 4028, 4031, 4031, 4023, 0, 1, 13700, -89.900, 0.000, -30.500, 0.000, 0.000, -2.600, 0.0, , , , , , 95, , , 47, 47, 47
37.0262466, -119.2351961, 25.200, 14:43:57.767, 16, 0.00, 0.29, 98, 0.000, 0.100, -31.400, 1219, 100, 98, 27, 24184, -17171, 5194, 5301, 21, 14, 1529358237.767, 68, 0, 1024, 1024, 1024, 1024, 0, 6, 4000, 4044, 4028, 4031, 4031, 4023, 0, 1, 13799, -90.000, 0.000, -30.500, 0.000, 0.000, -2.700, 0.0, , , , , , 95, , , 47, 47, 47
37.0262465, -119.2351961, 25.500, 14:43:57.868, 16, 0.00, 0.29, 98, 0.000, 0.000, -31.400, 1219, 100, 98, 27, 24184, -17171, 5194, 5301, 21, 14, 1529358237.868, 59, 0, 1024, 1024, 1024, 1024, 0, 6, 4000, 4044, 4028, 4031, 4031, 4023, 0, 1, 13900, -90.000, 0.000, -30.500, 0.000, 0.000, -2.700, 0.0, , , , , , 95, , , 47, 47, 47
37.0262465, -119.2351960, 25.700, 14:43:57.968, 16, 0.00, 0.29, 98, 0.000, -0.200, -31.300, 1219, 100, 98, 27, 24184, -17171, 5194, 5301, 21, 14, 1529358237.968, 24, 0, 1024, 1024, 1024, 1024, 0, 6, 4000, 4044, 4028, 4031, 4031, 4023, 0, 1, 14000, -90.000, 0.000, -30.500, 0.000, 0.000, -2.700, 0.0, , , , , , 95, , , 47, 47, 47
37.0262466, -119.2351959, 26.000, 14:43:58.067, 16, 0.00, 0.28, 98, 0.000, 0.000, -31.300, 1219, 100, 98, 27, 24138, -17579, 5194, 5301, 21, 14, 1529358238.067, 25, 0, 1024, 1024, 1024, 1024, 0, 6, 4000, 4044, 4028, 4031, 4031, 4023, 0, 1, 14099, -89.900, 0.000, -30.500, 0.000, 0.000, -2.700, 0.0, , , , , , 95, , , 47, 47, 47
37.0262466, -119.2351959, 26.300, 14:43:58.168, 16, 0.00, 0.28, 98, 0.000, 0.100, -31.300, 1219, 100, 98, 27, 24138, -17579, 5194, 5301, 21, 14, 1529358238.168, 30, 0, 1024, 1024, 1024, 1024, 0, 6, 4000, 4044, 4028, 4031, 4031, 4023, 0, 1, 14200, -89.900, 0.000, -30.500, 0.000, 0.000, -2.700, 0.0, , , , , , 95, , , 47, 47, 47
37.0262466, -119.2351958, 26.600, 14:43:58.268, 16, 0.00, 0.28, 98, -0.100, 0.300, -31.300, 1219, 100, 98, 27, 24138, -17579, 5194, 5301, 21, 14, 1529358238.268, 34, 0, 1024, 1024, 1024, 1024, 0, 6, 4000, 4044, 4028, 4031, 4031, 4023, 0, 1, 14300, -89.900, 0.000, -30.500, 0.000, 0.000, -2.800, 0.0, , , , , , 95, , , 47, 47, 47
37.0262466, -119.2351958, 26.900, 14:43:58.368, 16, 0.00, 0.28, 98, -0.200, 0.300, -31.200, 1219, 100, 98, 27, 24138, -17579, 5194, 5301, 21, 14, 1529358238.368, 36, 0, 1024, 1024, 1024, 1024, 0, 6, 4000, 4044, 4028, 4031, 4031, 4023, 0, 1, 14400, -89.900, 0.000, -30.500, 0.000, 0.000, -2.800, 0.0, , , , , , 95, , , 47, 47, 47
37.0262466, -119.2351957, 27.300, 14:43:58.467, 16, 0.10, 0.27, 98, -0.200, 0.100, -31.200, 1219, 100, 98, 27, 24138, -17579, 5194, 5301, 21, 14, 1529358238.468, 10, 0, 1024, 1024, 1024, 1024, 0, 6, 4000, 4044, 4028, 4031, 4031, 4023, 0, 1, 14500, -90.000, 0.000, -30.500, 0.000, 0.100, -2.800, 0.0, , , , , , 95, , , 47, 47, 47
37.0262466, -119.2351956, 27.600, 14:43:58.577, 16, 0.10, 0.27, 98, -0.200, -0.100, -31.300, 1219, 100, 98, 27, 24138, -17579, 5194, 5301, 21, 14, 1529358238.578, 3, 0, 1024, 1024, 1024, 1024, 0, 6, 4000, 4044, 4028, 4031, 4031, 4023, 0, 1, 14610, -90.000, 0.000, -30.500, 0.000, 0.100, -2.800, 0.0, , , , , , 95, , , 47, 47, 47
37.0262466, -119.2351956, 27.600, 14:43:58.668, 16, 0.10, 0.27, 98, -0.200, -0.100, -31.300, 1219, 100, 98, 27, 24138, -17579, 5194, 5301, 21, 14, 1529358238.668, 93, 0, 1024, 1024, 1024, 1024, 0, 6, 3996, 4034, 4020, 4017, 4024, 4017, 0, 1, 14700, -90.000, 0.000, -30.500, 0.000, 0.100, -2.800, 0.0, , , , , , 95, , , 47, 47, 47
37.0262465, -119.2351952, 28.200, 14:43:58.768, 16, 0.10, 0.27, 98, -1.000, -1.000, -31.400, 1219, 100, 97, 27, 24138, -17579, 5194, 5301, 21, 14, 1529358238.768, 12, 0, 1024, 1024, 1024, 1024, 0, 6, 3996, 4034, 4020, 4017, 4024, 4017, 0, 1, 14801, -90.000, 0.000, -30.500, 0.000, 0.100, -2.800, 0.0, , , , , , 95, , , 47, 47, 47
37.0262465, -119.2351951, 28.500, 14:43:58.868, 16, 0.10, 0.28, 98, -1.700, -1.300, -31.500, 1219, 100, 97, 27, 24138, -17579, 5194, 5301, 21, 14, 1529358238.868, 12, 0, 1024, 1024, 1024, 1024, 0, 6, 3996, 4034, 4020, 4017, 4024, 4017, 0, 1, 14900, -90.000, 0.000, -30.500, 0.000, 0.100, -2.700, 0.0, , , , , , 95, , , 47, 47, 47
37.0262465, -119.2351949, 28.800, 14:43:58.972, 16, 0.10, 0.28, 98, -1.900, -1.200, -31.500, 1219, 100, 97, 27, 24138, -17579, 5194, 5301, 21, 14, 1529358238.972, 6, 0, 1024, 1024, 1024, 1024, 0, 6, 3996, 4034, 4020, 4017, 4024, 4017, 0, 1, 15004, -90.000, 0.000, -30.500, 0.000, 0.100, -2.700, 0.0, , , , , , 95, , , 47, 47, 47
37.0262465, -119.2351947, 29.100, 14:43:59.070, 16, 0.10, 0.28, 98, -2.100, -1.100, -31.500, 1219, 100, 97, 27, 24138, -17579, 5194, 5301, 21, 14, 1529358239.071, 4, 0, 1024, 1024, 1024, 1024, 0, 6, 3996, 4034, 4020, 4017, 4024, 4017, 0, 1, 15103, -90.000, 0.000, -30.500, 0.000, 0.100, -2.700, 0.0, , , , , , 95, , , 47, 47, 47
37.0262465, -119.2351947, 29.100, 14:43:59.167, 16, 0.10, 0.28, 98, -2.100, -1.100, -31.500, 1219, 100, 97, 27, 24138, -17579, 5194, 5301, 21, 14, 1529358239.168, 101, 0, 1024, 1024, 1024, 1024, 0, 6, 3996, 4034, 4020, 4017, 4024, 4017, 0, 1, 15200, -90.000, 0.000, -30.500, 0.000, 0.100, -2.700, 0.0, , , , , , 95, , , 47, 47, 47
37.0262465, -119.2351944, 29.700, 14:43:59.268, 16, 0.10, 0.29, 98, -1.900, -0.900, -31.500, 1219, 100, 99, 27, 24138, -17579, 5194, 5301, 21, 14, 1529358239.268, 77, 0, 1024, 1024, 1024, 1024, 0, 6, 3996, 4034, 4020, 4017, 4024, 4017, 0, 1, 15300, -90.000, 0.000, -30.500, 0.000, 0.100, -2.700, 0.0, , , , , , 95, , , 47, 47, 47
37.0262465, -119.2351944, 29.700, 14:43:59.368, 16, 0.10, 0.29, 98, -1.900, -0.900, -31.500, 1219, 100, 99, 27, 24138, -17579, 5194, 5301, 21, 14, 1529358239.368, 177, 0, 1024, 1024, 1024, 1024, 0, 6, 3996, 4034, 4020, 4017, 4024, 4017, 0, 1, 15400, -90.000, 0.000, -30.500, 0.000, 0.100, -2.700, 0.0, , , , , , 95, , , 47, 47, 47
37.0262464, -119.2351941, 30.200, 14:43:59.467, 16, 0.10, 0.30, 98, -2.000, -1.200, -31.500, 1219, 100, 99, 27, 24138, -17579, 5194, 5301, 21, 14, 1529358239.468, 73, 0, 1024, 1024, 1024, 1024, 0, 6, 3996, 4034, 4020, 4017, 4024, 4017, 0, 1, 15500, -90.000, 0.000, -30.500, 0.000, 0.100, -2.700, 0.0, , , , , , 95, , , 47, 47, 47
37.0262464, -119.2351940, 30.500, 14:43:59.567, 16, 0.10, 0.31, 98, -1.900, -1.600, -31.400, 1219, 100, 99, 27, 24138, -17579, 5194, 5301, 21, 14, 1529358239.567, 64, 0, 1024, 1024, 1024, 1024, 0, 6, 3996, 4034, 4020, 4017, 4024, 4017, 0, 1, 15599, -90.000, 0.000, -30.500, 0.000, 0.100, -2.800, 0.0, , , , , , 95, , , 47, 47, 47
37.0262463, -119.2351939, 30.800, 14:43:59.668, 16, 0.00, 0.32, 98, -1.700, -1.900, -31.300, 1219, 100, 98, 27, 24006, -18995, 5194, 5301, 21, 14, 1529358239.668, 72, 0, 1024, 1024, 1024, 1024, 0, 6, 3975, 4022, 3993, 3987, 4005, 3999, 0, 1, 15700, -90.000, 0.000, -30.500, 0.000, 0.000, -2.700, 0.0, , , , , , 95, , , 47, 47, 47
37.0262463, -119.2351938, 31.100, 14:43:59.768, 16, 0.00, 0.32, 98, -1.800, -2.100, -31.200, 1219, 100, 98, 27, 24006, -18995, 5194, 5301, 21, 14, 1529358239.768, 81, 0, 1024, 1024, 1024, 1024, 0, 6, 3975, 4022, 3993, 3987, 4005, 3999, 0, 1, 15800, -90.000, 0.000, -30.500, 0.000, 0.000, -2.700, 0.0, , , , , , 95, , , 47, 47, 47
37.0262463, -119.2351937, 31.400, 14:43:59.868, 16, 0.00, 0.33, 98, -1.700, -2.100, -31.200, 1219, 100, 98, 27, 24006, -18995, 5194, 5301, 21, 14, 1529358239.868, 73, 0, 1024, 1024, 1024, 1024, 0, 6, 3975, 4022, 3993, 3987, 4005, 3999, 0, 1, 15900, -90.000, 0.000, -30.500, 0.000, 0.000, -2.700, 0.0, , , , , , 95, , , 47, 47, 47
37.0262463, -119.2351937, 31.700, 14:43:59.968, 16, 0.00, 0.33, 98, -1.500, -1.800, -31.200, 1219, 100, 98, 27, 24006, -18995, 5194, 5301, 21, 14, 1529358239.968, 51, 0, 1024, 1024, 1024, 1024, 0, 6, 3975, 4022, 3993, 3987, 4005, 3999, 0, 1, 16000, -89.900, 0.000, -30.500, 0.000, 0.000, -2.700, 0.0, , , , , , 95, , , 47, 47, 47
37.0262463, -119.2351937, 32.000, 14:44:00.067, 16, 0.00, 0.33, 98, -1.400, -1.500, -31.200, 1219, 100, 98, 27, 24006, -18995, 5194, 5301, 21, 14, 1529358240.067, 56, 0, 1024, 1024, 1024, 1024, 0, 6, 3975, 4022, 3993, 3987, 4005, 3999, 0, 1, 16099, -89.900, 0.000, -30.500, 0.000, 0.000, -2.700, 0.0, , , , , , 95, , , 47, 47, 47
37.0262463, -119.2351936, 32.300, 14:44:00.167, 16, 0.00, 0.33, 98, -1.200, -0.900, -31.300, 1219, 100, 98, 27, 24006, -18995, 5194, 5301, 21, 14, 1529358240.168, 54, 0, 1024, 1024, 1024, 1024, 0, 6, 3975, 4022, 3993, 3987, 4005, 3999, 0, 1, 16200, -89.900, 0.000, -30.500, 0.000, 0.000, -2.700, 0.0, , , , , , 95, , , 47, 47, 47
37.0262463, -119.2351937, 32.600, 14:44:00.268, 16, 0.00, 0.32, 98, -1.200, -0.500, -31.300, 1219, 100, 98, 27, 24006, -18995, 5194, 5301, 21, 14, 1529358240.268, 57, 0, 1024, 1024, 1024, 1024, 0, 6, 3975, 4022, 3993, 3987, 4005, 3999, 0, 1, 16300, -89.900, 0.000, -30.500, 0.000, 0.000, -2.600, 0.0, , , , , , 95, , , 47, 47, 47
37.0262464, -119.2351937, 32.800, 14:44:00.368, 16, 0.00, 0.32, 98, -1.000, -0.200, -31.300, 1219, 100, 98, 27, 24006, -18995, 5194, 5301, 21, 14, 1529358240.368, 57, 0, 1024, 1024, 1024, 1024, 0, 6, 3975, 4022, 3993, 3987, 4005, 3999, 0, 1, 16400, -89.900, 0.000, -30.500, 0.000, 0.000, -2.700, 0.0, , , , , , 95, , , 47, 47, 47
37.0262464, -119.2351938, 33.100, 14:44:00.467, 16, 0.00, 0.31, 98, -0.900, -0.200, -31.300, 1219, 100, 98, 27, 24006, -18995, 5194, 5301, 21, 14, 1529358240.468, 57, 0, 1024, 1024, 1024, 1024, 0, 6, 3975, 4022, 3993, 3987, 4005, 3999, 0, 1, 16500, -89.900, 0.000, -30.500, 0.000, 0.000, -2.800, 0.0, , , , , , 95, , , 47, 47, 47
37.0262464, -119.2351939, 33.400, 14:44:00.567, 16, 0.00, 0.31, 98, -0.800, -0.300, -31.300, 1219, 100, 98, 27, 24005, -19644, 5194, 5301, 21, 14, 1529358240.567, 38, 0, 1024, 1024, 1024, 1024, 0, 6, 3952, 4002, 3993, 3989, 3995, 3986, 0, 1, 16599, -89.900, 0.000, -30.500, 0.000, 0.000, -2.700, 0.0, , , , , , 95, , , 47, 47, 47
37.0262464, -119.2351939, 33.700, 14:44:00.667, 16, 0.00, 0.30, 98, -0.700, -0.300, -31.200, 1219, 100, 98, 27, 24005, -19644, 5194, 5301, 21, 14, 1529358240.668, 34, 0, 1024, 1024, 1024, 1024, 0, 6, 3952, 4002, 3993, 3989, 3995, 3986, 0, 1, 16700, -89.900, 0.000, -30.500, 0.000, 0.000, -2.700, 0.0, , , , , , 95, , , 47, 47, 47
37.0262465, -119.2351939, 34.000, 14:44:00.768, 16, 0.00, 0.30, 98, -0.900, -0.400, -31.200, 1219, 100, 98, 27, 24005, -19644, 5194, 5301, 21, 14, 1529358240.768, 26, 0, 1024, 1024, 1024, 1024, 0, 6, 3952, 4002, 3993, 3989, 3995, 3986, 0, 1, 16800, -89.900, 0.000, -30.500, 0.000, 0.000, -2.800, 0.0, , , , , , 95, , , 47, 47, 47
37.0262465, -119.2351938, 34.300, 14:44:00.869, 16, 0.00, 0.30, 98, -1.400, -0.500, -31.400, 1219, 100, 98, 27, 24005, -19644, 5194, 5301, 21, 14, 1529358240.870, 6, 0, 1024, 1024, 1024, 1024, 0, 6, 3952, 4002, 3993, 3989, 3995, 3986, 0, 1, 16902, -89.900, 0.000, -30.500, 0.000, 0.000, -2.800, 0.0, , , , , , 95, , , 47, 47, 47
37.0262465, -119.2351938, 34.600, 14:44:00.967, 16, 0.00, 0.30, 98, -1.600, -0.700, -31.500, 1219, 100, 98, 27, 24005, -19644, 5194, 5301, 21, 14, 1529358240.968, 7, 0, 1024, 1024, 1024, 1024, 0, 6, 3952, 4002, 3993, 3989, 3995, 3986, 0, 1, 17000, -89.900, 0.000, -30.500, 0.000, 0.000, -2.800, 0.0, , , , , , 95, , , 47, 47, 47
37.0262465, -119.2351938, 34.600, 14:44:01.067, 16, 0.00, 0.30, 98, -1.600, -0.700, -31.500, 1219, 100, 98, 27, 24005, -19644, 5194, 5301, 21, 14, 1529358241.067, 106, 0, 1024, 1024, 1024, 1024, 0, 6, 3952, 4002, 3993, 3989, 3995, 3986, 0, 1, 17099, -89.900, 0.000, -30.500, 0.000, 0.000, -2.800, 0.0, , , , , , 95, , , 47, 47, 47
37.0262465, -119.2351938, 34.900, 14:44:01.167, 16, 0.00, 0.30, 98, -1.500, -0.700, -31.500, 1219, 100, 98, 27, 24005, -19644, 5194, 5301, 21, 14, 1529358241.168, 99, 0, 1024, 1024, 1024, 1024, 0, 6, 3952, 4002, 3993, 3989, 3995, 3986, 0, 1, 17200, -90.000, 0.000, -30.500, 0.000, 0.000, -2.800, 0.0, , , , , , 95, , , 47, 47, 47
37.0262465, -119.2351938, 35.200, 14:44:01.267, 16, 0.00, 0.30, 98, -1.600, -0.700, -31.500, 1219, 100, 100, 27, 24005, -19644, 5194, 5301, 21, 14, 1529358241.268, 89, 0, 1024, 1024, 1024, 1024, 0, 6, 3952, 4002, 3993, 3989, 3995, 3986, 0, 1, 17300, -89.900, 0.000, -30.500, 0.000, 0.000, -2.800, 0.0, , , , , , 95, , , 47, 47, 47
37.0262466, -119.2351940, 36.100, 14:44:01.367, 16, 0.00, 0.29, 98, -0.900, -0.300, -31.500, 1219, 100, 100, 27, 24005, -19644, 5194, 5301, 21, 14, 1529358241.368, 4, 0, 1024, 1024, 1024, 1024, 0, 6, 3952, 4002, 3993, 3989, 3995, 3986, 0, 1, 17400, -89.900, 0.000, -30.500, 0.000, 0.000, -2.800, 0.0, , , , , , 95, , , 47, 47, 47
37.0262466, -119.2351940, 36.100, 14:44:01.468, 16, 0.00, 0.29, 98, -0.900, -0.300, -31.500, 1219, 100, 100, 27, 24005, -19644, 5194, 5301, 21, 14, 1529358241.468, 104, 0, 1024, 1024, 1024, 1024, 0, 6, 3952, 4002, 3993, 3989, 3995, 3986, 0, 1, 17500, -89.900, 0.000, -30.500, 0.000, 0.000, -2.800, 0.0, , , , , , 95, , , 47, 47, 47
37.0262466, -119.2351940, 36.400, 14:44:01.567, 16, 0.00, 0.29, 98, -1.000, -0.200, -31.500, 1219, 100, 100, 27, 24005, -19644, 5194, 5301, 21, 14, 1529358241.568, 96, 0, 1024, 1024, 1024, 1024, 0, 6, 3952, 4002, 3993, 3989, 3995, 3986, 0, 1, 17600, -89.900, 0.000, -30.500, 0.000, 0.000, -2.800, 0.0, , , , , , 95, , , 47, 47, 47
37.0262466, -119.2351941, 36.700, 14:44:01.667, 16, 0.00, 0.28, 98, -1.000, -0.300, -31.500, 1219, 100, 100, 28, 23756, -21408, 5194, 5301, 21, 14, 1529358241.668, 76, 0, 1024, 1024, 1024, 1024, 0, 6, 3940, 3977, 3967, 3963, 3967, 3974, 0, 1, 17700, -89.900, 0.000, -30.500, 0.000, 0.000, -2.900, 0.0, , , , , , 95, , , 47, 47, 47
37.0262466, -119.2351942, 37.000, 14:44:01.767, 16, 0.00, 0.28, 98, -0.800, -0.400, -31.500, 1219, 100, 100, 28, 23756, -21408, 5194, 5301, 21, 14, 1529358241.768, 69, 0, 1024, 1024, 1024, 1024, 0, 6, 3940, 3977, 3967, 3963, 3967, 3974, 0, 1, 17800, -89.900, 0.000, -30.500, 0.000, 0.000, -2.800, 0.0, , , , , , 95, , , 47, 47, 47
37.0262466, -119.2351942, 37.300, 14:44:01.867, 16, 0.00, 0.28, 98, -0.800, -0.400, -31.500, 1219, 100, 100, 28, 23756, -21408, 5194, 5301, 21, 14, 1529358241.868, 74, 0, 1024, 1024, 1024, 1024, 0, 6, 3940, 3977, 3967, 3963, 3967, 3974, 0, 1, 17900, -89.900, 0.000, -30.500, 0.000, 0.000, -2.800, 0.0, , , , , , 95, , , 47, 47, 47
37.0262466, -119.2351942, 37.600, 14:44:01.967, 16, 0.00, 0.28, 98, -0.800, -0.500, -31.500, 1219, 100, 100, 28, 23756, -21408, 5194, 5301, 21, 14, 1529358241.968, 76, 0, 1024, 1024, 1024, 1024, 0, 6, 3940, 3977, 3967, 3963, 3967, 3974, 0, 1, 18000, -89.900, 0.000, -30.500, 0.000, 0.000, -2.800, 0.0, , , , , , 95, , , 47, 47, 47
37.0262465, -119.2351943, 37.900, 14:44:02.067, 16, 0.00, 0.28, 98, -0.800, -0.500, -31.500, 1219, 100, 100, 28, 23756, -21408, 5194, 5301, 21, 14, 1529358242.067, 67, 0, 1024, 1024, 1024, 1024, 0, 6, 3940, 3977, 3967, 3963, 3967, 3974, 0, 1, 18099, -89.900, 0.000, -30.500, 0.000, 0.000, -2.800, 0.0, , , , , , 95, , , 47, 47, 47
37.0262465, -119.2351944, 38.100, 14:44:02.167, 16, 0.00, 0.28, 98, -0.600, -0.600, -31.500, 1219, 100, 100, 28, 23756, -21408, 5194, 5301, 21, 14, 1529358242.168, 69, 0, 1024, 1024, 1024, 1024, 0, 6, 3940, 3977, 3967, 3963, 3967, 3974, 0, 1, 18200, -90.000, 0.000, -30.500, 0.000, 0.000, -2.800, 0.0, , , , , , 95, , , 47, 47, 47
37.0262465, -119.2351944, 38.400, 14:44:02.267, 16, 0.00, 0.28, 98, -0.600, -0.500, -31.500, 1219, 100, 100, 28, 23756, -21408, 5194, 5301, 21, 14, 1529358242.268, 69, 0, 1024, 1024, 1024, 1024, 0, 6, 3940, 3977, 3967, 3963, 3967, 3974, 0, 1, 18300, -89.900, 0.000, -30.500, 0.000, 0.000, -2.800, 0.0, , , , , , 95, , , 47, 47, 47
37.0262465, -119.2351944, 38.400, 14:44:02.367, 16, 0.00, 0.28, 98, -0.600, -0.500, -31.500, 1219, 100, 100, 28, 23756, -21408, 5194, 5301, 21, 14, 1529358242.368, 169, 0, 1024, 1024, 1024, 1024, 0, 6, 3940, 3977, 3967, 3963, 3967, 3974, 0, 1, 18400, -89.900, 0.000, -30.500, 0.000, 0.000, -2.800, 0.0, , , , , , 95, , , 47, 47, 47
37.0262465, -119.2351945, 39.000, 14:44:02.467, 16, 0.00, 0.28, 98, -0.600, -0.500, -31.400, 1219, 100, 100, 28, 23756, -21408, 5194, 5301, 21, 14, 1529358242.468, 41, 0, 1024, 1024, 1024, 1024, 0, 6, 3940, 3977, 3967, 3963, 3967, 3974, 0, 1, 18500, -89.900, 0.000, -30.500, 0.000, 0.000, -2.900, 0.0, , , , , , 95, , , 47, 47, 47
37.0262465, -119.2351945, 39.300, 14:44:02.567, 16, 0.00, 0.28, 98, -0.700, -0.400, -31.400, 1219, 100, 100, 28, 23684, -21008, 5141, 5301, 21, 14, 1529358242.567, 55, 0, 1024, 1024, 1024, 1024, 0, 6, 3919, 3967, 3937, 3932, 3952, 3945, 0, 1, 18599, -89.900, 0.000, -30.500, 0.000, 0.000, -2.900, 0.0, , , , , , 95, , , 47, 47, 47
37.0262465, -119.2351945, 39.600, 14:44:02.667, 16, 0.00, 0.28, 98, -1.100, -0.400, -31.400, 1219, 100, 100, 28, 23684, -21008, 5141, 5301, 21, 14, 1529358242.668, 44, 0, 1024, 1024, 1024, 1024, 0, 6, 3919, 3967, 3937, 3932, 3952, 3945, 0, 1, 18700, -89.900, 0.000, -30.500, 0.000, 0.000, -2.800, 0.0, , , , , , 95, , , 47, 47, 47
37.0262465, -119.2351945, 39.900, 14:44:02.767, 16, 0.00, 0.28, 98, -1.400, -0.800, -31.400, 1219, 100, 100, 28, 23684, -21008, 5141, 5301, 21, 14, 1529358242.768, 34, 0, 1024, 1024, 1024, 1024, 0, 6, 3919, 3967, 3937, 3932, 3952, 3945, 0, 1, 18800, -90.000, 0.000, -30.500, 0.000, 0.000, -2.900, 0.0, , , , , , 95, , , 47, 47, 47
37.0262465, -119.2351945, 40.200, 14:44:02.867, 16, 0.00, 0.28, 98, -1.400, -0.900, -31.500, 1219, 100, 100, 28, 23684, -21008, 5141, 5301, 21, 14, 1529358242.868, 16, 0, 1024, 1024, 1024, 1024, 0, 6, 3919, 3967, 3937, 3932, 3952, 3945, 0, 1, 18900, -90.000, 0.000, -30.500, 0.000, 0.000, -2.900, 0.0, , , , , , 95, , , 47, 47, 47
37.0262465, -119.2351945, 40.500, 14:44:02.967, 16, 0.00, 0.28, 98, -1.300, -0.800, -31.500, 1219, 100, 100, 28, 23684, -21008, 5141, 5301, 21, 14, 1529358242.968, 31, 0, 1024, 1024, 1024, 1024, 0, 6, 3919, 3967, 3937, 3932, 3952, 3945, 0, 1, 19000, -89.900, 0.000, -30.500, 0.000, 0.000, -2.900, 0.0, , , , , , 95, , , 47, 47, 47
37.0262465, -119.2351944, 40.800, 14:44:03.066, 16, 0.00, 0.28, 97, -1.400, -0.600, -31.500, 1219, 100, 100, 28, 23684, -21008, 5141, 5301, 21, 14, 1529358243.067, 19, 0, 1024, 1024, 1024, 1024, 0, 6, 3919, 3967, 3937, 3932, 3952, 3945, 0, 1, 19099, -89.900, 0.000, -30.500, 0.000, 0.000, -2.900, 0.0, , , , , , 95, , , 47, 47, 47
37.0262465, -119.2351944, 40.800, 14:44:03.167, 16, 0.00, 0.28, 97, -1.400, -0.600, -31.500, 1219, 100, 100, 28, 23684, -21008, 5141, 5301, 21, 14, 1529358243.167, 120, 0, 1024, 1024, 1024, 1024, 0, 6, 3919, 3967, 3937, 3932, 3952, 3945, 0, 1, 19200, -89.900, 0.000, -30.500, 0.000, 0.000, -2.900, 0.0, , , , , , 95, , , 47, 47, 47
37.0262465, -119.2351944, 40.800, 14:44:03.267, 16, 0.00, 0.28, 97, -1.400, -0.600, -31.500, 1219, 100, 100, 28, 23684, -21008, 5141, 5301, 21, 14, 1529358243.268, 220, 0, 1024, 1024, 1024, 1024, 0, 6, 3919, 3967, 3937, 3932, 3952, 3945, 0, 1, 19300, -89.900, 0.000, -30.500, 0.000, 0.000, -2.900, 0.0, , , , , , 95, , , 47, 47, 47
37.0262466, -119.2351944, 41.400, 14:44:03.367, 16, 0.00, 0.28, 97, -1.400, -0.700, -31.600, 1219, 100, 100, 28, 23684, -21008, 5141, 5301, 21, 14, 1529358243.368, 89, 0, 1024, 1024, 1024, 1024, 0, 6, 3919, 3967, 3937, 3932, 3952, 3945, 0, 1, 19400, -89.900, 0.000, -30.500, 0.000, 0.000, -2.800, 0.0, , , , , , 95, , , 47, 47, 47
37.0262466, -119.2351944, 41.700, 14:44:03.467, 16, 0.00, 0.28, 97, -1.300, -0.600, -31.600, 1219, 100, 100, 28, 23684, -21008, 5141, 5301, 21, 14, 1529358243.468, 94, 0, 1024, 1024, 1024, 1024, 0, 6, 3919, 3967, 3937, 3932, 3952, 3945, 0, 1, 19500, -90.000, 0.000, -30.500, 0.000, 0.000, -2.800, 0.0, , , , , , 95, , , 47, 47, 47
37.0262466, -119.2351943, 42.300, 14:44:03.567, 16, 0.00, 0.28, 97, -1.600, -0.700, -31.700, 1219, 100, 100, 28, 23684, -21008, 5141, 5301, 21, 14, 1529358243.567, 85, 0, 1024, 1024, 1024, 1024, 0, 6, 3919, 3967, 3937, 3932, 3952, 3945, 0, 1, 19599, -89.900, 0.000, -30.500, 0.000, 0.000, -2.900, 0.0, , , , , , 95, , , 47, 47, 47
37.0262466, -119.2351942, 42.600, 14:44:03.667, 16, 0.00, 0.27, 97, -2.100, -0.700, -31.600, 1219, 100, 100, 28, 23684, -21008, 5141, 5301, 21, 14, 1529358243.668, 80, 0, 1024, 1024, 1024, 1024, 0, 6, 3919, 3967, 3937, 3932, 3952, 3945, 0, 1, 19700, -89.900, 0.000, -30.500, 0.000, 0.000, -2.900, 0.0, , , , , , 95, , , 47, 47, 47
37.0262467, -119.2351942, 42.900, 14:44:03.767, 16, 0.00, 0.27, 97, -2.300, -0.600, -31.400, 1219, 100, 100, 28, 23684, -21008, 5141, 5301, 21, 14, 1529358243.768, 85, 0, 1024, 1024, 1024, 1024, 0, 6, 3919, 3967, 3937, 3932, 3952, 3945, 0, 1, 19800, -89.900, 0.000, -30.500, 0.000, 0.000, -2.900, 0.0, , , , , , 95, , , 47, 47, 47
37.0262467, -119.2351942, 42.900, 14:44:03.867, 16, 0.00, 0.27, 97, -2.300, -0.600, -31.400, 1219, 100, 100, 28, 23684, -21008, 5141, 5301, 21, 14, 1529358243.868, 185, 0, 1024, 1024, 1024, 1024, 0, 6, 3919, 3967, 3937, 3932, 3952, 3945, 0, 1, 19900, -89.900, 0.000, -30.500, 0.000, 0.000, -2.900, 0.0, , , , , , 95, , , 47, 47, 47
37.0262467, -119.2351941, 43.600, 14:44:03.967, 16, 0.00, 0.27, 97, -2.200, -0.500, -31.200, 1219, 100, 100, 28, 23684, -21008, 5141, 5301, 21, 14, 1529358243.968, 73, 0, 1024, 1024, 1024, 1024, 0, 6, 3919, 3967, 3937, 3932, 3952, 3945, 0, 1, 20000, -89.900, 0.000, -30.500, 0.000, 0.000, -2.900, 0.0, , , , , , 95, , , 47, 47, 47
37.0262467, -119.2351941, 43.800, 14:44:04.067, 16, 0.00, 0.26, 97, -2.000, -0.200, -31.200, 1219, 100, 100, 28, 23684, -21008, 5141, 5301, 21, 14, 1529358244.067, 38, 0, 1024, 1024, 1024, 1024, 0, 6, 3919, 3967, 3937, 3932, 3952, 3945, 0, 1, 20099, -89.900, 0.000, -30.500, 0.000, 0.000, -2.800, 0.0, , , , , , 95, , , 47, 47, 47
37.0262467, -119.2351941, 43.800, 14:44:04.167, 16, 0.00, 0.26, 97, -2.000, -0.200, -31.200, 1219, 100, 99, 28, 23684, -21008, 5141, 5301, 21, 14, 1529358244.168, 139, 0, 1024, 1024, 1024, 1024, 0, 6, 3919, 3967, 3937, 3932, 3952, 3945, 0, 1, 20200, -89.900, 0.000, -30.500, 0.000, 0.000, -2.800, 0.0, , , , , , 95, , , 47, 47, 47
37.0262468, -119.2351940, 44.400, 14:44:04.267, 16, 0.00, 0.26, 97, -2.000, -0.200, -31.500, 1219, 100, 99, 28, 23684, -21008, 5141, 5301, 21, 14, 1529358244.267, 70, 0, 1024, 1024, 1024, 1024, 0, 6, 3919, 3967, 3937, 3932, 3952, 3945, 0, 1, 20300, -89.900, 0.000, -30.500, 0.000, 0.000, -2.900, 0.0, , , , , , 95, , , 47, 47, 47
37.0262468, -119.2351940, 44.700, 14:44:04.367, 16, 0.00, 0.26, 97, -2.100, -0.400, -31.600, 1219, 100, 99, 28, 23684, -21008, 5141, 5301, 21, 14, 1529358244.367, 36, 0, 1024, 1024, 1024, 1024, 0, 6, 3919, 3967, 3937, 3932, 3952, 3945, 0, 1, 20400, -89.900, 0.000, -30.500, 0.000, 0.000, -2.900, 0.0, , , , , , 95, , , 47, 47, 47
37.0262468, -119.2351939, 45.000, 14:44:04.467, 16, 0.00, 0.26, 97, -2.200, -0.500, -31.700, 1219, 100, 99, 28, 23684, -21008, 5141, 5301, 21, 14, 1529358244.468, 50, 0, 1024, 1024, 1024, 1024, 0, 6, 3919, 3967, 3937, 3932, 3952, 3945, 0, 1, 20500, -90.000, 0.000, -30.500, 0.000, 0.000, -2.900, 0.0, , , , , , 95, , , 47, 47, 47
37.0262468, -119.2351939, 45.300, 14:44:04.567, 16, 0.00, 0.26, 97, -2.500, -0.600, -31.700, 1219, 100, 99, 28, 23736, -20675, 5141, 5301, 21, 14, 1529358244.567, 42, 0, 1024, 1024, 1024, 1024, 0, 6, 3919, 3967, 3937, 3932, 3952, 3945, 0, 1, 20599, -89.900, 0.000, -30.500, 0.000, 0.000, -2.900, 0.0, , , , , , 95, , , 47, 47, 47
37.0262469, -119.2351938, 45.600, 14:44:04.667, 16, 0.00, 0.26, 97, -2.600, -0.600, -31.600, 1219, 100, 98, 28, 23736, -20675, 5141, 5301, 21, 14, 1529358244.667, 31, 0, 1024, 1024, 1024, 1024, 0, 6, 3919, 3967, 3937, 3932, 3952, 3945, 0, 1, 20700, -89.900, 0.000, -30.500, 0.000, 0.000, -2.800, 0.0, , , , , , 95, , , 47, 47, 47
