latitude,longitude,altitude(feet),ascent(feet),speed(mph),distance(feet),time(millisecond),datetime(utc),satellites,gpslevel,voltage(v),max_altitude(feet),max_ascent(feet),max_speed(mph),max_distance(feet), xSpeed(mph), ySpeed(mph), zSpeed(mph), compass_heading(degrees), pitch(degrees), roll(degrees),isPhoto,isVideo,rc_elevator,rc_aileron,rc_throttle,rc_rudder,gimbal_heading(degrees),gimbal_pitch(degrees),battery_percent,voltageCell1,voltageCell2,voltageCell3,voltageCell4,voltageCell5,voltageCell6,current(A),battery_temperature(f),flycStateRaw,flycState,message
37.0262327,-119.2351925,3457.2620446875,0,0.223694,0,2920,2018-06-18 22:02:41,10,0,0,3457.2620446875,0,0.223694,0,0,0,0,337.5, 0.5, 1.3,1,0,1024,1024,1024,1024,335.4,-90,98,4.305,4.19,4.305,4.303,4.31,4.295,0,80.6,11,AutoTakeoff,DJI_0610.jpg Starting Mission from Lat/Long: 37.02623/-119.23519 Camera: Zenmuse X3 - Overlap: 90/90 - Active Connection: No
37.0262326,-119.2351923,3457.2620446875,0,0.3131716,0.068738191176,3000,2018-06-18 22:02:41,10,0,25.7,3457.2620446875,0,0.3131716,0.068738191176,0,0,0,337.7, -0.2, 0.5,0,0,1024,1024,1024,1024,335.4,-89.9,98,4.305,4.19,4.305,4.303,4.31,4.295,2.904,80.6,11,AutoTakeoff,
37.0262325,-119.2351921,3457.2620446875,0,0.223694,0.137476382352,3200,2018-06-18 22:02:41,10,0,25.7,3457.2620446875,0,0.3131716,0.137476382352,0,0,0,337.7, -0.6, 0,0,0,1024,1024,1024,1024,335.5,-90,98,4.305,4.19,4.305,4.303,4.31,4.295,2.904,80.6,11,AutoTakeoff,
37.0262324,-119.2351919,3457.5901286875,0.328084,0.223694,0.206214573528,3300,2018-06-18 22:02:41,10,0,25.7,3457.5901286875,0.328084,0.3131716,0.206214573528,0,0,0,337.7, -0.9, -0.2,0,0,1024,1024,1024,1024,335.5,-90,98,4.305,4.19,4.305,4.303,4.31,4.295,2.904,80.6,11,AutoTakeoff,
37.0262323,-119.2351917,3457.5901286875,0.328084,0.223694,0.274952764704,3400,2018-06-18 22:02:41,11,0,25.7,3457.5901286875,0.328084,0.3131716,0.274952764704,0,0,0,337.5, -0.9, -0.4,0,0,1024,1024,1024,1024,335.6,-89.9,98,4.305,4.19,4.305,4.303,4.31,4.295,2.904,80.6,11,AutoTakeoff,
37.0262322,-119.2351916,3457.5901286875,0.328084,0.223694,0.319378947228,3500,2018-06-18 22:02:41,11,0,25.7,3457.5901286875,0.328084,0.3131716,0.319378947228,0,0,0,337.4, -0.9, -0.5,0,0,1024,1024,1024,1024,335.6,-90,98,4.305,4.19,4.305,4.303,4.31,4.295,2.904,80.6,11,AutoTakeoff,
37.0262322,-119.2351915,3457.9182126875,0.656168,0.223694,0.34369095588,3600,2018-06-18 22:02:41,11,0,25.7,3457.9182126875,0.656168,0.3131716,0.34369095588,0,0,0,337.3, -0.8, -0.5,0,0,1024,1024,1024,1024,335.6,-89.9,98,4.305,4.19,4.305,4.303,4.31,4.295,2.904,80.6,11,AutoTakeoff,
37.0262321,-119.2351913,3457.9182126875,0.656168,0,0.41242783472,3700,2018-06-18 22:02:41,11,0,25.7,3457.9182126875,0.656168,0.3131716,0.41242783472,0,0,0,337.4, -0.6, -0.4,0,0,1024,1024,1024,1024,335.7,-89.9,98,4.305,4.19,4.305,4.303,4.31,4.295,2.904,80.6,11,AutoTakeoff,
37.0262321,-119.2351912,3458.2462966875,0.984252,0,0.43738846544,3800,2018-06-18 22:02:41,11,0,25.7,3458.2462966875,0.984252,0.3131716,0.43738846544,0,0,0,337.4, -0.4, -0.5,0,0,1024,1024,1024,1024,335.7,-89.9,98,4.305,4.19,4.305,4.303,4.31,4.295,2.904,80.6,11,AutoTakeoff,
37.0262321,-119.2351912,3458.2462966875,0.984252,0,0.43738846544,3900,2018-06-18 22:02:42,11,0,25.7,3458.2462966875,0.984252,0.3131716,0.43738846544,0,0,0,337.5, -0.3, -0.7,0,0,1024,1024,1024,1024,335.7,-89.9,98,4.305,4.19,4.305,4.303,4.31,4.295,2.904,80.6,11,AutoTakeoff,
37.0262322,-119.2351912,3458.5743806875,1.312336,0,0.42031825492,4000,2018-06-18 22:02:42,11,0,25.638,3458.5743806875,1.312336,0.3131716,0.43738846544,0,0,0,337.5, 0, -0.8,0,0,1024,1024,1024,1024,335.8,-89.9,98,4.284,4.276,4.258,4.252,4.24,4.255,3.332,80.6,11,AutoTakeoff,
37.0262322,-119.2351912,3458.5743806875,1.312336,0,0.42031825492,4100,2018-06-18 22:02:42,11,0,25.638,3458.5743806875,1.312336,0.3131716,0.43738846544,0,0,0,337.4, 0.2, -0.7,0,0,1024,1024,1024,1024,335.8,-89.9,98,4.284,4.276,4.258,4.252,4.24,4.255,3.332,80.6,11,AutoTakeoff,
37.0262322,-119.2351913,3458.9024646875,1.64042,0,0.39427822784,4200,2018-06-18 22:02:42,12,0,25.638,3458.9024646875,1.64042,0.3131716,0.43738846544,0,0,0,337.4, 0.3, -0.4,0,0,1024,1024,1024,1024,335.8,-89.9,98,4.284,4.276,4.258,4.252,4.24,4.255,3.332,80.6,11,AutoTakeoff,
37.0262322,-119.2351913,3458.9024646875,1.64042,0,0.39427822784,4300,2018-06-18 22:02:42,12,0,25.638,3458.9024646875,1.64042,0.3131716,0.43738846544,0,0,0,337.3, 0.5, -0.1,0,0,1024,1024,1024,1024,335.8,-89.9,98,4.284,4.276,4.258,4.252,4.24,4.255,3.332,80.6,11,AutoTakeoff,
37.0262323,-119.2351914,3459.2305486875,1.968504,0,0.35208006376,4400,2018-06-18 22:02:42,12,0,25.638,3459.2305486875,1.968504,0.3131716,0.43738846544,0,0,0,337.2, 0.6, 0.1,0,0,1024,1024,1024,1024,335.9,-89.9,98,4.284,4.276,4.258,4.252,4.24,4.255,3.332,80.6,11,AutoTakeoff,
37.0262322,-119.2351915,3459.2305486875,1.968504,0,0.34369095588,4500,2018-06-18 22:02:42,12,0,25.638,3459.2305486875,1.968504,0.3131716,0.43738846544,0,0,0,337.1, 0.7, 0.2,0,0,1024,1024,1024,1024,335.9,-89.9,98,4.284,4.276,4.258,4.252,4.24,4.255,3.332,80.6,11,AutoTakeoff,
37.0262323,-119.2351916,3459.5586326875,2.296588,0,0.30003773926,4600,2018-06-18 22:02:42,12,0,25.638,3459.5586326875,2.296588,0.3131716,0.43738846544,0,0,0,337.1, 0.5, 0.4,0,0,1024,1024,1024,1024,335.9,-89.9,98,4.284,4.276,4.258,4.252,4.24,4.255,3.332,80.6,11,AutoTakeoff,
37.0262324,-119.2351917,3459.8867166875,2.624672,0,0.25745079564,4800,2018-06-18 22:02:42,11,0,25.638,3459.8867166875,2.624672,0.3131716,0.43738846544,0,0,0,337.1, 0.7, 0.3,0,0,1024,1024,1024,1024,336,-89.9,98,4.284,4.276,4.258,4.252,4.24,4.255,3.332,80.6,11,AutoTakeoff,
37.0262324,-119.2351917,3460.2148006875,2.952756,0,0.25745079564,4900,2018-06-18 22:02:43,12,0,25.638,3460.2148006875,2.952756,0.3131716,0.43738846544,0,0,-0.223694,337.2, 0.7, 0.1,0,0,1024,1024,1024,1024,336,-89.9,98,4.284,4.276,4.258,4.252,4.24,4.255,3.332,80.6,6,P-GPS,
37.0262324,-119.2351918,3460.2148006875,2.952756,0,0.231417986408,5000,2018-06-18 22:02:43,12,0,24.853,3460.2148006875,2.952756,0.3131716,0.43738846544,0,0,0,337.3, 0.7, 0.1,0,0,1024,1024,1024,1024,336,-89.9,98,4.148,4.15,4.142,4.138,4.131,4.145,13.495,80.6,14,Waypoint,
37.0262325,-119.2351919,3460.5428846875,3.28084,0,0.189390426008,5100,2018-06-18 22:02:43,12,0,24.853,3460.5428846875,3.28084,0.3131716,0.43738846544,0,0,0,337.3, 0.9, 0.1,0,0,1024,1024,1024,1024,336,-89.9,98,4.148,4.15,4.142,4.138,4.131,4.145,13.495,80.6,14,Waypoint,
37.0262326,-119.2351919,3460.5428846875,3.28084,0,0.178536423036,5200,2018-06-18 22:02:43,12,0,24.853,3460.5428846875,3.28084,0.3131716,0.43738846544,0,0,0,337.3, 1, 0.3,0,0,1024,1024,1024,1024,336,-89.9,98,4.148,4.15,4.142,4.138,4.131,4.145,13.495,80.6,14,Waypoint,
37.0262326,-119.2351919,3460.5428846875,3.28084,0,0.178536423036,5300,2018-06-18 22:02:43,11,0,24.853,3460.5428846875,3.28084,0.3131716,0.43738846544,0,0,0,337.3, 1.1, 0.2,0,0,1024,1024,1024,1024,336,-89.9,98,4.148,4.15,4.142,4.138,4.131,4.145,13.495,80.6,14,Waypoint,
37.0262326,-119.235192,3460.8709686875,3.608924,0,0.15014108092,5400,2018-06-18 22:02:43,11,0,24.853,3460.8709686875,3.608924,0.3131716,0.43738846544,0,0,0,337.3, 1.2, 0.1,0,0,1024,1024,1024,1024,336.1,-89.9,98,4.148,4.15,4.142,4.138,4.131,4.145,13.495,80.6,14,Waypoint,
37.0262326,-119.235192,3460.8709686875,3.608924,0,0.15014108092,5500,2018-06-18 22:02:43,11,0,24.853,3460.8709686875,3.608924,0.3131716,0.43738846544,0,0,-0.223694,337.3, 1.1, 0,0,0,1024,1024,1024,1024,336.1,-89.9,98,4.148,4.15,4.142,4.138,4.131,4.145,13.495,80.6,14,Waypoint,
37.0262326,-119.2351921,3461.1990526875,3.937008,0,0.122091211256,5600,2018-06-18 22:02:43,11,0,24.853,3461.1990526875,3.937008,0.3131716,0.43738846544,0,0,-0.223694,337.3, 1, 0,0,0,1024,1024,1024,1024,336.1,-89.9,98,4.148,4.15,4.142,4.138,4.131,4.145,13.495,80.6,14,Waypoint,
37.0262326,-119.2351922,3461.5271366875,4.265092,0,0.094695213004,5800,2018-06-18 22:02:43,11,0,24.853,3461.5271366875,4.265092,0.3131716,0.43738846544,0,0,-0.223694,337.3, 0.9, 0,0,0,1024,1024,1024,1024,336.1,-89.9,98,4.148,4.15,4.142,4.138,4.131,4.145,13.495,80.6,14,Waypoint,
37.0262327,-119.2351923,3461.8552206875,4.593176,0,0.05825623546,5900,2018-06-18 22:02:44,11,0,24.853,3461.8552206875,4.593176,0.3131716,0.43738846544,0,0,-0.223694,337.4, 0.9, 0.3,0,0,1024,1024,1024,1024,336.1,-89.9,98,4.148,4.15,4.142,4.138,4.131,4.145,13.495,80.6,14,Waypoint,
37.0262327,-119.2351924,3462.1833046875,4.92126,0,0.02912811773,6000,2018-06-18 22:02:44,12,0,24.678,3462.1833046875,4.92126,0.3131716,0.43738846544,0,0,-0.223694,337.5, 0.9, 0.5,0,0,1024,1024,1024,1024,336.1,-89.9,98,4.1,4.116,4.114,4.113,4.113,4.11,14.941,80.6,14,Waypoint,
37.0262326,-119.2351925,3462.8394726875,5.577428,0,0.036484909304,6100,2018-06-18 22:02:44,12,0,24.678,3462.8394726875,5.577428,0.3131716,0.43738846544,0,0,-0.447388,337.6, 1, 0.7,0,0,1024,1024,1024,1024,336.2,-89.9,98,4.1,4.116,4.114,4.113,4.113,4.11,14.941,80.6,14,Waypoint,
37.0262326,-119.2351926,3463.1675566875,5.905512,0,0.046686025116,6200,2018-06-18 22:02:44,12,0,24.678,3463.1675566875,5.905512,0.3131716,0.43738846544,0,0,-0.447388,337.6, 1, 0.7,0,0,1024,1024,1024,1024,336.2,-89.9,98,4.1,4.116,4.114,4.113,4.113,4.11,14.941,80.6,14,Waypoint,
37.0262327,-119.2351927,3463.8237246875,6.56168,0,0.05825623546,6300,2018-06-18 22:02:44,12,0,24.678,3463.8237246875,6.56168,0.3131716,0.43738846544,0,0,-0.447388,337.5, 1, 0.6,0,0,1024,1024,1024,1024,336.2,-89.9,98,4.1,4.116,4.114,4.113,4.113,4.11,14.941,80.6,14,Waypoint,
37.0262328,-119.2351928,3464.4798926875,7.217848,0,0.094695213004,6400,2018-06-18 22:02:44,13,0,24.678,3464.4798926875,7.217848,0.3131716,0.43738846544,0,0,-0.447388,337.4, 1.3, 0.5,0,0,1024,1024,1024,1024,336.2,-89.9,98,4.1,4.116,4.114,4.113,4.113,4.11,14.941,80.6,14,Waypoint,
37.0262328,-119.235193,3465.4641446875,8.2021,0,0.15014108092,6500,2018-06-18 22:02:44,13,0,24.678,3465.4641446875,8.2021,0.3131716,0.43738846544,0,0,-0.447388,337.3, 1.5, 0.2,0,0,1024,1024,1024,1024,336.2,-89.9,98,4.1,4.116,4.114,4.113,4.113,4.11,14.941,80.6,14,Waypoint,
37.0262328,-119.2351932,3466.4483966875,9.186352,0,0.207135505316,6600,2018-06-18 22:02:44,13,0,24.678,3466.4483966875,9.186352,0.3131716,0.43738846544,0,0,-0.671082,337.3, 1.6, 0.1,0,0,1024,1024,1024,1024,336.2,-89.9,98,4.1,4.116,4.114,4.113,4.113,4.11,14.941,80.6,14,Waypoint,
37.0262328,-119.2351932,3467.1045646875,9.84252,0,0.207135505316,6700,2018-06-18 22:02:44,13,0,24.678,3467.1045646875,9.84252,0.3131716,0.43738846544,0,0,-0.671082,337.3, 1.6, 0.2,0,0,1024,1024,1024,1024,336.2,-89.9,98,4.1,4.116,4.114,4.113,4.113,4.11,14.941,80.6,14,Waypoint,
37.0262329,-119.2351933,3469.4011526875,12.139108,0,0.244182750596,6800,2018-06-18 22:02:44,12,0,24.678,3469.4011526875,12.139108,0.3131716,0.43738846544,0,0,-0.671082,337.4, 1.3, 0.3,0,0,1024,1024,1024,1024,336.3,-89.9,98,4.1,4.116,4.114,4.113,4.113,4.11,14.941,80.6,14,Waypoint,
37.0262329,-119.2351934,3470.3854046875,13.12336,0,0.272119103196,6900,2018-06-18 22:02:45,12,0,24.678,3470.3854046875,13.12336,0.3131716,0.43738846544,0,0,-0.671082,337.4, 1.5, 0.5,0,0,1024,1024,1024,1024,336.3,-89.9,98,4.1,4.116,4.114,4.113,4.113,4.11,14.941,80.6,14,Waypoint,
37.026233,-119.2351934,3471.3696566875,14.107612,0,0.284085639012,7000,2018-06-18 22:02:45,12,0,24.628,3471.3696566875,14.107612,0.3131716,0.43738846544,0,0,-0.671082,337.4, 1.7, 0.5,0,0,1024,1024,1024,1024,336.3,-89.9,98,4.095,4.109,4.094,4.1,4.084,4.154,15.422,80.6,14,Waypoint,
37.0262331,-119.2351935,3472.6819926875,15.419948,0,0.325796270268,7100,2018-06-18 22:02:45,12,0,24.628,3472.6819926875,15.419948,0.3131716,0.43738846544,0,0,-0.671082,337.3, 1.9, 0.6,0,0,1024,1024,1024,1024,336.3,-89.9,98,4.095,4.109,4.094,4.1,4.084,4.154,15.422,80.6,14,Waypoint,
37.0262331,-119.2351936,3473.6662446875,16.4042,0,0.35208006376,7200,2018-06-18 22:02:45,12,0,24.628,3473.6662446875,16.4042,0.3131716,0.43738846544,0,0,-0.671082,337.3, 2.1, 0.6,0,0,1024,1024,1024,1024,336.3,-89.9,98,4.095,4.109,4.094,4.1,4.084,4.154,15.422,80.6,14,Waypoint,
37.0262332,-119.2351936,3474.6504966875,17.388452,0,0.3687007992,7300,2018-06-18 22:02:45,12,0,24.628,3474.6504966875,17.388452,0.3131716,0.43738846544,0,0,-0.671082,337.2, 2.3, 0.5,0,0,1024,1024,1024,1024,336.3,-89.9,98,4.095,4.109,4.094,4.1,4.084,4.154,15.422,80.6,14,Waypoint,
37.0262331,-119.2351936,3475.6347486875,18.372704,0,0.35208006376,7400,2018-06-18 22:02:45,12,0,24.628,3475.6347486875,18.372704,0.3131716,0.43738846544,0,0,-0.671082,337.1, 2, 0.4,0,0,1024,1024,1024,1024,336.3,-89.9,98,4.095,4.109,4.094,4.1,4.084,4.154,15.422,80.6,14,Waypoint,
37.0262331,-119.2351937,3476.9470846875,19.68504,0,0.37877953968,7500,2018-06-18 22:02:45,11,0,24.628,3476.9470846875,19.68504,0.3131716,0.43738846544,0,0,-0.671082,337, 1.8, 0.6,0,0,1024,1024,1024,1024,336.3,-89.9,98,4.095,4.109,4.094,4.1,4.084,4.154,15.422,80.6,14,Waypoint,
37.026233,-119.2351937,3477.9313366875,20.669292,0,0.3662729776,7600,2018-06-18 22:02:45,11,0,24.628,3477.9313366875,20.669292,0.3131716,0.43738846544,0,0,-0.671082,337, 1.5, 0.7,0,0,1024,1024,1024,1024,336.3,-89.9,98,4.095,4.109,4.094,4.1,4.084,4.154,15.422,80.6,14,Waypoint,
37.0262329,-119.2351937,3478.9155886875,21.653544,0,0.35707350224,7800,2018-06-18 22:02:45,11,0,24.628,3478.9155886875,21.653544,0.3131716,0.43738846544,0,0,-0.671082,337, 1.4, 0.8,0,0,1024,1024,1024,1024,336.3,-89.9,98,4.095,4.109,4.094,4.1,4.084,4.154,15.422,80.6,14,Waypoint,
37.0262329,-119.2351936,3480.2279246875,22.96588,0,0.32861221524,7900,2018-06-18 22:02:46,11,0,24.628,3480.2279246875,22.96588,0.3131716,0.43738846544,0,0,-0.671082,337.1, 1.1, 0.8,0,0,1024,1024,1024,1024,336.3,-89.9,98,4.095,4.109,4.094,4.1,4.084,4.154,15.422,80.6,14,Waypoint,
37.0262329,-119.2351935,3481.2121766875,23.950132,0,0.30028216184,8000,2018-06-18 22:02:46,12,0,24.278,3481.2121766875,23.950132,0.3131716,0.43738846544,0,0,-0.671082,337.2, 1.2, 0.6,0,0,1024,1024,1024,1024,336.3,-90,98,4.029,4.027,4.021,4.022,4.04,4.044,19.07,80.6,14,Waypoint,
37.0262329,-119.2351936,3482.1964286875,24.934384,0,0.32861221524,8100,2018-06-18 22:02:46,12,0,24.278,3482.1964286875,24.934384,0.3131716,0.43738846544,0,0,-0.671082,337.3, 1.4, 0.5,0,0,1024,1024,1024,1024,336.3,-89.9,98,4.029,4.027,4.021,4.022,4.04,4.044,19.07,80.6,14,Waypoint,
37.0262329,-119.2351936,3483.1806806875,25.918636,0,0.32861221524,8200,2018-06-18 22:02:46,12,0,24.278,3483.1806806875,25.918636,0.3131716,0.43738846544,0,0,-0.671082,337.4, 1.5, 0.4,0,0,1024,1024,1024,1024,336.3,-89.9,98,4.029,4.027,4.021,4.022,4.04,4.044,19.07,80.6,14,Waypoint,
37.0262328,-119.2351936,3484.4930166875,27.230972,0,0.322479669112,8300,2018-06-18 22:02:46,12,0,24.278,3484.4930166875,27.230972,0.3131716,0.43738846544,0,0,-0.671082,337.5, 1.6, 0.6,0,0,1024,1024,1024,1024,336.3,-89.9,98,4.029,4.027,4.021,4.022,4.04,4.044,19.07,80.6,14,Waypoint,
37.0262327,-119.2351936,3485.4772686875,28.215224,0,0.320409130988,8400,2018-06-18 22:02:46,12,0,24.278,3485.4772686875,28.215224,0.3131716,0.43738846544,0,0,-0.671082,337.6, 1.6, 0.7,0,0,1024,1024,1024,1024,336.3,-90,98,4.029,4.027,4.021,4.022,4.04,4.044,19.07,80.6,14,Waypoint,
37.0262327,-119.2351935,3486.4615206875,29.199476,0,0.2912811773,8500,2018-06-18 22:02:46,12,0,24.278,3486.4615206875,29.199476,0.3131716,0.43738846544,0,0,-0.671082,337.6, 1.4, 0.6,0,0,1024,1024,1024,1024,336.3,-90,98,4.029,4.027,4.021,4.022,4.04,4.044,19.07,80.6,14,Waypoint,
37.0262326,-119.2351934,3487.4457726875,30.183728,0,0.264679798496,8600,2018-06-18 22:02:46,12,0,24.278,3487.4457726875,30.183728,0.3131716,0.43738846544,0,0,-0.671082,337.5, 0.9, 0.5,0,0,1024,1024,1024,1024,336.3,-89.9,98,4.029,4.027,4.021,4.022,4.04,4.044,19.07,80.6,14,Waypoint,
37.0262325,-119.2351934,3488.4300246875,31.16798,0,0.272119103196,8700,2018-06-18 22:02:46,12,0,24.278,3488.4300246875,31.16798,0.3131716,0.43738846544,0,0,-0.671082,337.5, 0.4, 0.4,0,0,1024,1024,1024,1024,336.3,-90,98,4.029,4.027,4.021,4.022,4.04,4.044,19.07,80.6,14,Waypoint,
37.0262323,-119.2351934,3489.7423606875,32.480316,0,0.30003773926,8800,2018-06-18 22:02:46,12,0,24.278,3489.7423606875,32.480316,0.3131716,0.43738846544,0,0,-0.671082,337.5, 0.1, 0.5,0,0,1024,1024,1024,1024,336.3,-90,98,4.029,4.027,4.021,4.022,4.04,4.044,19.07,80.6,14,Waypoint,
37.0262322,-119.2351934,3490.7266126875,33.464568,0,0.319378947228,8900,2018-06-18 22:02:47,12,0,24.278,3490.7266126875,33.464568,0.3131716,0.43738846544,0,0,-0.671082,337.4, 0, 0.8,0,0,1024,1024,1024,1024,336.3,-90,98,4.029,4.027,4.021,4.022,4.04,4.044,19.07,80.6,14,Waypoint,
37.0262322,-119.2351934,3491.7108646875,34.44882,0,0.319378947228,9000,2018-06-18 22:02:47,11,0,24.204,3491.7108646875,34.44882,0.3131716,0.43738846544,0,0,-0.671082,337.4, 0, 0.9,0,0,1024,1024,1024,1024,336.3,-89.9,98,4.019,4.029,4.046,4.033,4.042,4.044,20.189,80.6,14,Waypoint,
37.026232,-119.2351935,3493.6793686875,36.417324,0,0.38739174468,9100,2018-06-18 22:02:47,12,0,24.204,3493.6793686875,36.417324,0.3131716,0.43738846544,0,0,-0.671082,337.3, 0.3, 1.2,0,0,1024,1024,1024,1024,336.3,-89.9,98,4.019,4.029,4.046,4.033,4.042,4.044,20.189,80.6,14,Waypoint,
37.026232,-119.2351935,3494.9917046875,37.72966,0,0.38739174468,9200,2018-06-18 22:02:47,12,0,24.204,3494.9917046875,37.72966,0.3131716,0.43738846544,0,0,-0.671082,337.3, 0.5, 1.4,0,0,1024,1024,1024,1024,336.3,-89.9,98,4.019,4.029,4.046,4.033,4.042,4.044,20.189,80.6,14,Waypoint,
37.026232,-119.2351934,3495.9759566875,38.713912,0,0.3659941062,9300,2018-06-18 22:02:47,12,0,24.204,3495.9759566875,38.713912,0.3131716,0.43738846544,0,0,-0.671082,337.3, 0.6, 1.4,0,0,1024,1024,1024,1024,336.3,-89.9,98,4.019,4.029,4.046,4.033,4.042,4.044,20.189,80.6,14,Waypoint,
37.0262319,-119.2351935,3496.9602086875,39.698164,0,0.41235565624,9400,2018-06-18 22:02:47,12,0,24.204,3496.9602086875,39.698164,0.3131716,0.43738846544,0,0,-0.671082,337.3, 0.5, 1.5,0,0,1024,1024,1024,1024,336.3,-89.9,98,4.019,4.029,4.046,4.033,4.042,4.044,20.189,80.6,14,Waypoint,
37.0262318,-119.2351935,3497.9444606875,40.682416,0,0.43894030276,9500,2018-06-18 22:02:47,12,0,24.204,3497.9444606875,40.682416,0.3131716,0.43894030276,0,0,-0.671082,337.2, 0.3, 1.6,0,0,1024,1024,1024,1024,336.3,-90,98,4.019,4.029,4.046,4.033,4.042,4.044,20.189,80.6,14,Waypoint,
37.0262317,-119.2351935,3498.9287126875,41.666668,0,0.46686025116,9700,2018-06-18 22:02:47,12,0,24.204,3498.9287126875,41.666668,0.3131716,0.46686025116,0,0,-0.671082,337.2, 0.1, 1.4,0,0,1024,1024,1024,1024,336.3,-90,98,4.019,4.029,4.046,4.033,4.042,4.044,20.189,80.6,14,Waypoint,
37.0262317,-119.2351934,3499.9129646875,42.65092,0,0.44926510624,9800,2018-06-18 22:02:47,12,0,24.204,3499.9129646875,42.65092,0.3131716,0.46686025116,0,0,-0.671082,337.2, 0.2, 1.1,0,0,1024,1024,1024,1024,336.3,-90,98,4.019,4.029,4.046,4.033,4.042,4.044,20.189,80.6,14,Waypoint,
37.0262316,-119.2351934,3501.8814686875,44.619424,0,0.47936681324,9900,2018-06-18 22:02:48,13,0,24.204,3501.8814686875,44.619424,0.3131716,0.47936681324,0,0,-0.671082,337.3, 0, 0.7,0,0,1024,1024,1024,1024,336.3,-89.9,98,4.019,4.029,4.046,4.033,4.042,4.044,20.189,80.6,14,Waypoint,
37.0262316,-119.2351933,3502.8657206875,45.603676,0,0.46407809884,10100,2018-06-18 22:02:48,13,0,24.204,3502.8657206875,45.603676,0.3131716,0.47936681324,0,0,-0.671082,337.3, 0, 0.6,0,0,1024,1024,1024,1024,336.3,-90,98,4.019,4.029,4.046,4.033,4.042,4.044,20.189,80.6,14,Waypoint,
37.0262316,-119.2351932,3503.8499726875,46.587928,0,0.45015749472,10200,2018-06-18 22:02:48,13,0,24.204,3503.8499726875,46.587928,0.3131716,0.47936681324,0,0,-0.671082,337.3, 0.2, 0.5,0,0,1024,1024,1024,1024,336.3,-89.9,98,4.019,4.029,4.046,4.033,4.042,4.044,20.189,80.6,14,Waypoint,
37.0262315,-119.2351932,3504.8342246875,47.57218,0,0.48296917556,10300,2018-06-18 22:02:48,13,0,24.204,3504.8342246875,47.57218,0.3131716,0.48296917556,0,0,-0.671082,337.3, 0.4, 0.6,0,0,1024,1024,1024,1024,336.3,-89.9,98,4.019,4.029,4.046,4.033,4.042,4.044,20.189,80.6,14,Waypoint,
37.0262315,-119.2351933,3505.4903926875,48.228348,0,0.49597114448,10400,2018-06-18 22:02:48,13,0,24.204,3505.4903926875,48.228348,0.3131716,0.49597114448,0,0,-0.671082,337.3, 0.5, 0.6,0,0,1024,1024,1024,1024,336.3,-89.9,98,4.019,4.029,4.046,4.033,4.042,4.044,20.189,80.6,14,Waypoint,
37.0262315,-119.2351933,3506.4746446875,49.2126,0,0.49597114448,10500,2018-06-18 22:02:48,13,0,24.204,3506.4746446875,49.2126,0.3131716,0.49597114448,0,0,-0.671082,337.3, 0.5, 0.9,0,0,1024,1024,1024,1024,336.3,-89.9,98,4.019,4.029,4.046,4.033,4.042,4.044,20.189,80.6,14,Waypoint,
37.0262315,-119.2351933,3507.4588966875,50.196852,0,0.49597114448,10600,2018-06-18 22:02:48,13,0,24.204,3507.4588966875,50.196852,0.3131716,0.49597114448,0,0,-0.671082,337.2, 0.6, 1.2,0,0,1024,1024,1024,1024,336.3,-90,98,4.019,4.029,4.046,4.033,4.042,4.044,20.189,80.6,14,Waypoint,
37.0262315,-119.2351932,3508.4431486875,51.181104,0,0.48296917556,10700,2018-06-18 22:02:48,13,0,24.204,3508.4431486875,51.181104,0.3131716,0.49597114448,0,0,-0.671082,337.3, 0.5, 1.1,0,0,1024,1024,1024,1024,336.3,-90,98,4.019,4.029,4.046,4.033,4.042,4.044,20.189,80.6,14,Waypoint,
37.0262316,-119.2351931,3509.4274006875,52.165356,0,0.43773623448,10800,2018-06-18 22:02:48,13,0,24.204,3509.4274006875,52.165356,0.3131716,0.49597114448,0,0,-0.671082,337.4, 0.4, 0.6,0,0,1024,1024,1024,1024,336.3,-89.9,98,4.019,4.029,4.046,4.033,4.042,4.044,20.189,80.6,14,Waypoint,
37.0262317,-119.235193,3510.4116526875,53.149608,0,0.39284450076,10900,2018-06-18 22:02:49,13,0,24.204,3510.4116526875,53.149608,0.3131716,0.49597114448,0,0,-0.671082,337.4, 0.6, 0.1,0,0,1024,1024,1024,1024,336.3,-89.9,98,4.019,4.029,4.046,4.033,4.042,4.044,20.189,80.6,14,Waypoint,
37.0262317,-119.2351929,3511.3959046875,54.13386,0,0.38300198076,11000,2018-06-18 22:02:49,13,0,24.287,3511.3959046875,54.13386,0.3131716,0.49597114448,0,0,-0.671082,337.4, 0.8, -0.1,0,0,1024,1024,1024,1024,336.3,-89.9,97,4.034,4.048,4.046,4.048,4.054,4.052,17.255,80.6,14,Waypoint,
37.0262319,-119.2351928,3512.3801566875,55.118112,0.223694,0.304679799776,11100,2018-06-18 22:02:49,13,0,24.287,3512.3801566875,55.118112,0.3131716,0.49597114448,0,0,-0.671082,337.5, 1, -0.1,0,0,1024,1024,1024,1024,336.3,-89.9,97,4.034,4.048,4.046,4.048,4.054,4.052,17.255,80.6,14,Waypoint,
37.026232,-119.2351926,3513.3644086875,56.102364,0.223694,0.257050205076,11200,2018-06-18 22:02:49,13,0,24.287,3513.3644086875,56.102364,0.3131716,0.49597114448,0,0,-0.671082,337.5, 1.1, -0.3,0,0,1024,1024,1024,1024,336.3,-89.9,97,4.034,4.048,4.046,4.048,4.054,4.052,17.255,80.6,14,Waypoint,
37.026232,-119.2351926,3514.3486606875,57.086616,0,0.257050205076,11300,2018-06-18 22:02:49,13,0,24.287,3514.3486606875,57.086616,0.3131716,0.49597114448,0,0,-0.671082,337.4, 1.2, -0.4,0,0,1024,1024,1024,1024,336.3,-89.9,97,4.034,4.048,4.046,4.048,4.054,4.052,17.255,80.6,14,Waypoint,
37.0262322,-119.2351924,3516.3171646875,59.05512,0,0.184735570216,11400,2018-06-18 22:02:49,13,0,24.287,3516.3171646875,59.05512,0.3131716,0.49597114448,0,0,-0.671082,337.2, 1.2, -0.3,0,0,1024,1024,1024,1024,336.3,-89.9,97,4.034,4.048,4.046,4.048,4.054,4.052,17.255,80.6,14,Waypoint,
37.0262322,-119.2351923,3517.3014166875,60.039372,0,0.191500662296,11500,2018-06-18 22:02:49,13,0,24.287,3517.3014166875,60.039372,0.3131716,0.49597114448,0,0,-0.671082,337.1, 1.2, -0.3,0,0,1024,1024,1024,1024,336.3,-89.9,97,4.034,4.048,4.046,4.048,4.054,4.052,17.255,80.6,14,Waypoint,
37.0262322,-119.2351922,3518.2856686875,61.023624,0,0.202273956604,11600,2018-06-18 22:02:49,13,0,24.287,3518.2856686875,61.023624,0.3131716,0.49597114448,0,0,-0.671082,337.1, 1.3, -0.2,0,0,1024,1024,1024,1024,336.3,-89.9,97,4.034,4.048,4.046,4.048,4.054,4.052,17.255,80.6,14,Waypoint,
37.0262323,-119.2351922,3519.2699206875,62.007876,0,0.170101383396,11700,2018-06-18 22:02:49,13,0,24.287,3519.2699206875,62.007876,0.3131716,0.49597114448,0,0,-0.671082,337.1, 1.3, -0.1,0,0,1024,1024,1024,1024,336.3,-89.9,97,4.034,4.048,4.046,4.048,4.054,4.052,17.255,80.6,14,Waypoint,
37.0262323,-119.2351921,3520.2541726875,62.992128,0,0.186744756632,11810,2018-06-18 22:02:49,13,0,24.287,3520.2541726875,62.992128,0.3131716,0.49597114448,0,0,-0.671082,337.2, 1.2, -0.3,0,0,1024,1024,1024,1024,336.3,-89.9,97,4.034,4.048,4.046,4.048,4.054,4.052,17.255,80.6,14,Waypoint,
37.0262323,-119.2351921,3520.2541726875,62.992128,0,0.186744756632,11900,2018-06-18 22:02:50,13,0,24.287,3520.2541726875,62.992128,0.3131716,0.49597114448,0,0,-0.671082,337.2, 1.2, -0.3,0,0,1024,1024,1024,1024,336.3,-89.9,97,4.034,4.048,4.046,4.048,4.054,4.052,17.255,80.6,14,Waypoint,
37.0262323,-119.235192,3522.2226766875,64.960632,0,0.206178484288,12000,2018-06-18 22:02:50,13,0,24.174,3522.2226766875,64.960632,0.3131716,0.49597114448,0,0,-0.671082,337.4, 1, -0.4,0,0,1024,1024,1024,1024,336.3,-89.9,97,4.013,4.02,4.035,4.028,4.035,4.03,18.783,80.6,14,Waypoint,
37.0262323,-119.2351919,3523.2069286875,65.944884,0,0.227689639832,12100,2018-06-18 22:02:50,13,0,24.174,3523.2069286875,65.944884,0.3131716,0.49597114448,0,0,-0.671082,337.5, 1, -0.3,0,0,1024,1024,1024,1024,336.3,-89.9,97,4.013,4.02,4.035,4.028,4.035,4.03,18.783,80.6,14,Waypoint,
37.0262324,-119.2351919,3524.1911806875,66.929136,0,0.206214573528,12300,2018-06-18 22:02:50,13,0,24.174,3524.1911806875,66.929136,0.3131716,0.49597114448,0,0,-0.671082,337.6, 1, -0.1,0,0,1024,1024,1024,1024,336.3,-89.9,97,4.013,4.02,4.035,4.028,4.035,4.03,18.783,80.6,14,Waypoint,
37.0262325,-119.2351918,3525.5035166875,68.241472,0,0.216560702468,12400,2018-06-18 22:02:50,13,0,24.174,3525.5035166875,68.241472,0.3131716,0.49597114448,0,0,-0.671082,337.5, 1, -0.2,0,0,1024,1024,1024,1024,336.3,-89.9,97,4.013,4.02,4.035,4.028,4.035,4.03,18.783,80.6,14,Waypoint,
37.0262324,-119.2351918,3526.4877686875,69.225724,0,0.231417986408,12500,2018-06-18 22:02:50,13,0,24.174,3526.4877686875,69.225724,0.3131716,0.49597114448,0,0,-0.671082,337.4, 1, -0.2,0,0,1024,1024,1024,1024,336.3,-89.9,97,4.013,4.02,4.035,4.028,4.035,4.03,18.783,80.6,14,Waypoint,
37.0262324,-119.2351918,3527.4720206875,70.209976,0,0.231417986408,12600,2018-06-18 22:02:50,13,0,24.174,3527.4720206875,70.209976,0.3131716,0.49597114448,0,0,-0.671082,337.3, 1.1, -0.1,0,0,1024,1024,1024,1024,336.3,-89.9,97,4.013,4.02,4.035,4.028,4.035,4.03,18.783,80.6,14,Waypoint,
37.0262324,-119.2351918,3528.4562726875,71.194228,0,0.231417986408,12700,2018-06-18 22:02:50,13,0,24.174,3528.4562726875,71.194228,0.3131716,0.49597114448,0,0,-0.671082,337.2, 1, 0,0,0,1024,1024,1024,1024,336.3,-89.9,97,4.013,4.02,4.035,4.028,4.035,4.03,18.783,80.6,14,Waypoint,
37.0262324,-119.2351918,3529.4405246875,72.17848,0,0.231417986408,12800,2018-06-18 22:02:50,14,0,24.174,3529.4405246875,72.17848,0.3131716,0.49597114448,0,0,-0.671082,337.1, 0.8, -0.1,0,0,1024,1024,1024,1024,336.3,-89.9,97,4.013,4.02,4.035,4.028,4.035,4.03,18.783,80.6,14,Waypoint,
37.0262324,-119.2351918,3530.4247766875,73.162732,0,0.231417986408,12900,2018-06-18 22:02:51,14,0,24.174,3530.4247766875,73.162732,0.3131716,0.49597114448,0,0,-0.671082,337.1, 0.8, -0.1,0,0,1024,1024,1024,1024,336.3,-89.9,97,4.013,4.02,4.035,4.028,4.035,4.03,18.783,80.6,14,Waypoint,
37.0262324,-119.2351919,3531.4090286875,74.146984,0,0.206214573528,13000,2018-06-18 22:02:51,14,0,24.151,3531.4090286875,74.146984,0.3131716,0.49597114448,0,0,-0.671082,337.1, 0.9, 0.2,0,0,1024,1024,1024,1024,336.3,-89.9,97,4.013,4.02,4.035,4.028,4.035,4.03,18.639,80.6,14,Waypoint,
37.0262324,-119.2351919,3532.3932806875,75.131236,0,0.206214573528,13100,2018-06-18 22:02:51,14,0,24.151,3532.3932806875,75.131236,0.3131716,0.49597114448,0,0,-0.671082,337.2, 1, 0.4,0,0,1024,1024,1024,1024,336.3,-89.9,97,4.013,4.02,4.035,4.028,4.035,4.03,18.639,80.6,14,Waypoint,
37.0262324,-119.2351919,3533.3775326875,76.115488,0,0.206214573528,13200,2018-06-18 22:02:51,14,0,24.151,3533.3775326875,76.115488,0.3131716,0.49597114448,0,0,-0.671082,337.3, 1, 0.2,0,0,1024,1024,1024,1024,336.3,-89.9,97,4.013,4.02,4.035,4.028,4.035,4.03,18.639,80.6,14,Waypoint,
37.0262324,-119.2351918,3534.3617846875,77.09974,0,0.231417986408,13300,2018-06-18 22:02:51,14,0,24.151,3534.3617846875,77.09974,0.3131716,0.49597114448,0,0,-0.671082,337.4, 1, 0.1,0,0,1024,1024,1024,1024,336.3,-89.9,97,4.013,4.02,4.035,4.028,4.035,4.03,18.639,80.6,14,Waypoint,
37.0262324,-119.2351918,3536.3302886875,79.068244,0,0.231417986408,13400,2018-06-18 22:02:51,14,0,24.151,3536.3302886875,79.068244,0.3131716,0.49597114448,0,0,-0.671082,337.5, 0.8, 0.1,0,0,1024,1024,1024,1024,336.3,-89.9,97,4.013,4.02,4.035,4.028,4.035,4.03,18.639,80.6,14,Waypoint,
37.0262324,-119.2351917,3537.3145406875,80.052496,0,0.25745079564,13500,2018-06-18 22:02:51,14,0,24.151,3537.3145406875,80.052496,0.3131716,0.49597114448,0,0,-0.671082,337.5, 0.8, 0,0,0,1024,1024,1024,1024,336.3,-89.9,97,4.013,4.02,4.035,4.028,4.035,4.03,18.639,80.6,14,Waypoint,
37.0262324,-119.2351917,3538.2987926875,81.036748,0,0.25745079564,13700,2018-06-18 22:02:51,14,0,24.151,3538.2987926875,81.036748,0.3131716,0.49597114448,0,0,-0.671082,337.4, 0.7, -0.3,0,0,1024,1024,1024,1024,336.3,-89.9,97,4.013,4.02,4.035,4.028,4.035,4.03,18.639,80.6,14,Waypoint,
37.0262325,-119.2351916,3540.2672966875,83.005252,0,0.272119103196,13800,2018-06-18 22:02:51,14,0,24.151,3540.2672966875,83.005252,0.3131716,0.49597114448,0,0,-0.671082,337.1, 0.9, -0.7,0,0,1024,1024,1024,1024,336.3,-89.9,97,4.013,4.02,4.035,4.028,4.035,4.03,18.639,80.6,14,Waypoint,
37.0262325,-119.2351915,3541.2515486875,83.989504,0,0.30028216184,13900,2018-06-18 22:02:52,14,0,24.151,3541.2515486875,83.989504,0.3131716,0.49597114448,0,0,-0.671082,337, 1, -0.7,0,0,1024,1024,1024,1024,336.3,-89.9,97,4.013,4.02,4.035,4.028,4.035,4.03,18.639,80.6,14,Waypoint,
37.0262325,-119.2351915,3542.2358006875,84.973756,0,0.30028216184,14000,2018-06-18 22:02:52,14,0,24.151,3542.2358006875,84.973756,0.3131716,0.49597114448,0,0,-0.671082,337, 1.2, -0.6,0,0,1024,1024,1024,1024,336.3,-89.9,97,4.018,4.025,4.031,4.019,4.034,4.031,18.639,80.6,14,Waypoint,
37.0262325,-119.2351915,3543.2200526875,85.958008,0,0.30028216184,14100,2018-06-18 22:02:52,15,0,24.151,3543.2200526875,85.958008,0.3131716,0.49597114448,0,0,-0.671082,337, 1.3, -0.4,0,0,1024,1024,1024,1024,336.3,-89.9,97,4.018,4.025,4.031,4.019,4.034,4.031,18.639,80.6,14,Waypoint,
37.0262325,-119.2351915,3544.2043046875,86.94226,0,0.30028216184,14200,2018-06-18 22:02:52,15,0,24.151,3544.2043046875,86.94226,0.3131716,0.49597114448,0,0,-0.671082,337.1, 1.3, -0.3,0,0,1024,1024,1024,1024,336.3,-89.9,97,4.018,4.025,4.031,4.019,4.034,4.031,18.639,80.6,14,Waypoint,
37.0262325,-119.2351915,3545.1885566875,87.926512,0,0.30028216184,14300,2018-06-18 22:02:52,16,0,24.151,3545.1885566875,87.926512,0.3131716,0.49597114448,0,0,-0.671082,337.1, 1.1, -0.3,0,0,1024,1024,1024,1024,336.3,-89.9,97,4.018,4.025,4.031,4.019,4.034,4.031,18.639,80.6,14,Waypoint,
37.0262325,-119.2351915,3546.1728086875,88.910764,0,0.30028216184,14400,2018-06-18 22:02:52,16,0,24.151,3546.1728086875,88.910764,0.3131716,0.49597114448,0,0,-0.671082,337.2, 0.9, -0.3,0,0,1024,1024,1024,1024,336.3,-89.9,97,4.018,4.025,4.031,4.019,4.034,4.031,18.639,80.6,14,Waypoint,
37.0262324,-119.2351915,3547.1570606875,89.895016,0,0.311167332792,14500,2018-06-18 22:02:52,16,0,24.151,3547.1570606875,89.895016,0.3131716,0.49597114448,0,0,-0.671082,337.3, 0.7, -0.3,0,0,1024,1024,1024,1024,336.3,-89.9,97,4.018,4.025,4.031,4.019,4.034,4.031,18.639,80.6,14,Waypoint,
37.0262324,-119.2351914,3548.1413126875,90.879268,0,0.33858924968,14600,2018-06-18 22:02:52,16,0,24.151,3548.1413126875,90.879268,0.3131716,0.49597114448,0,0,-0.671082,337.3, 0.4, -0.4,0,0,1024,1024,1024,1024,336.3,-89.9,97,4.018,4.025,4.031,4.019,4.034,4.031,18.639,80.6,14,Waypoint,
37.0262324,-119.2351914,3549.1255646875,91.86352,0,0.33858924968,14800,2018-06-18 22:02:52,16,0,24.151,3549.1255646875,91.86352,0.3131716,0.49597114448,0,0,-0.671082,337.3, 0, -0.5,0,0,1024,1024,1024,1024,336.3,-90,97,4.018,4.025,4.031,4.019,4.034,4.031,18.639,80.6,14,Waypoint,
37.0262324,-119.2351914,3550.1098166875,92.847772,0,0.33858924968,14900,2018-06-18 22:02:53,16,0,24.151,3550.1098166875,92.847772,0.3131716,0.49597114448,0,0,-0.671082,337.1, -0.1, -0.2,0,0,1024,1024,1024,1024,336.3,-89.9,97,4.018,4.025,4.031,4.019,4.034,4.031,18.639,80.6,14,Waypoint,
37.0262324,-119.2351914,3551.0940686875,93.832024,0,0.33858924968,15000,2018-06-18 22:02:53,16,0,24.143,3551.0940686875,93.832024,0.3131716,0.49597114448,0,0,-0.671082,336.9, 0, -0.1,0,0,1024,1024,1024,1024,336.3,-89.9,97,4.007,4.023,4.033,4.024,4.02,4.024,18.19,80.6,14,Waypoint,
37.0262324,-119.2351914,3552.0783206875,94.816276,0,0.33858924968,15100,2018-06-18 22:02:53,16,0,24.143,3552.0783206875,94.816276,0.3131716,0.49597114448,0,0,-0.671082,336.7, 0.2, -0.2,0,0,1024,1024,1024,1024,336.3,-89.9,97,4.007,4.023,4.033,4.024,4.02,4.024,18.19,80.6,14,Waypoint,
37.0262323,-119.2351914,3553.0625726875,95.800528,0,0.35208006376,15200,2018-06-18 22:02:53,16,0,24.143,3553.0625726875,95.800528,0.3131716,0.49597114448,0,0,-0.671082,336.7, 0.5, -0.2,0,0,1024,1024,1024,1024,336.3,-89.9,97,4.007,4.023,4.033,4.024,4.02,4.024,18.19,80.6,14,Waypoint,
37.0262323,-119.2351915,3554.0468246875,96.78478,0,0.325796270268,15300,2018-06-18 22:02:53,16,0,24.143,3554.0468246875,96.78478,0.3131716,0.49597114448,0,0,-0.671082,336.8, 0.9, -0.1,0,0,1024,1024,1024,1024,336.3,-89.9,97,4.007,4.023,4.033,4.024,4.02,4.024,18.19,80.6,14,Waypoint,
37.0262323,-119.2351915,3555.0310766875,97.769032,0,0.325796270268,15400,2018-06-18 22:02:53,16,0,24.143,3555.0310766875,97.769032,0.3131716,0.49597114448,0,0,-0.671082,337.1, 1.1, -0.1,0,0,1024,1024,1024,1024,336.3,-89.9,97,4.007,4.023,4.033,4.024,4.02,4.024,18.19,80.6,14,Waypoint,
37.0262323,-119.2351915,3555.6872446875,98.4252,0,0.325796270268,15500,2018-06-18 22:02:53,16,0,24.143,3555.6872446875,98.4252,0.3131716,0.49597114448,0,0,-0.671082,337.3, 1.2, 0,0,0,1024,1024,1024,1024,336.3,-89.9,97,4.007,4.023,4.033,4.024,4.02,4.024,18.19,80.6,14,Waypoint,
37.0262323,-119.2351915,3556.9995806875,99.737536,0,0.325796270268,15600,2018-06-18 22:02:53,16,0,24.143,3556.9995806875,99.737536,0.3131716,0.49597114448,0,0,-0.671082,337.4, 1.1, 0,0,0,1024,1024,1024,1024,336.3,-89.9,97,4.007,4.023,4.033,4.024,4.02,4.024,18.19,80.6,14,Waypoint,
37.0262323,-119.2351916,3557.9838326875,100.721788,0,0.30003773926,15700,2018-06-18 22:02:53,16,0,24.143,3557.9838326875,100.721788,0.3131716,0.49597114448,0,0,-0.671082,337.5, 0.9, 0.1,0,0,1024,1024,1024,1024,336.3,-89.9,97,4.007,4.023,4.033,4.024,4.02,4.024,18.19,80.6,14,Waypoint,
37.0262323,-119.2351916,3558.9680846875,101.70604,0,0.30003773926,15800,2018-06-18 22:02:53,16,0,24.143,3558.9680846875,101.70604,0.3131716,0.49597114448,0,0,-0.671082,337.6, 0.6, 0,0,0,1024,1024,1024,1024,336.3,-89.9,97,4.007,4.023,4.033,4.024,4.02,4.024,18.19,80.6,14,Waypoint,
37.0262322,-119.2351916,3559.9523366875,102.690292,0,0.319378947228,15900,2018-06-18 22:02:54,16,0,24.143,3559.9523366875,102.690292,0.3131716,0.49597114448,0,0,-0.671082,337.7, 0.5, 0,0,0,1024,1024,1024,1024,336.3,-89.9,97,4.007,4.023,4.033,4.024,4.02,4.024,18.19,80.6,14,Waypoint,
37.0262322,-119.2351916,3560.9365886875,103.674544,0,0.319378947228,16000,2018-06-18 22:02:54,16,0,24.044,3560.9365886875,103.674544,0.3131716,0.49597114448,0,0,-0.671082,337.7, 0.4, 0,0,0,1024,1024,1024,1024,336.3,-89.9,97,3.998,4.007,4.007,4.003,4.014,4.008,18.966,80.6,14,Waypoint,
37.0262321,-119.2351916,3561.9208406875,104.658796,0,0.341535444,16100,2018-06-18 22:02:54,16,0,24.044,3561.9208406875,104.658796,0.3131716,0.49597114448,0,0,-0.671082,337.6, 0.4, 0.1,0,0,1024,1024,1024,1024,336.3,-89.9,97,3.998,4.007,4.007,4.003,4.014,4.008,18.966,80.6,14,Waypoint,
37.0262321,-119.2351916,3562.9050926875,105.643048,0,0.341535444,16200,2018-06-18 22:02:54,16,0,24.044,3562.9050926875,105.643048,0.3131716,0.49597114448,0,0,-0.671082,337.5, 0.3, 0,0,0,1024,1024,1024,1024,336.3,-89.9,97,3.998,4.007,4.007,4.003,4.014,4.008,18.966,80.6,14,Waypoint,
37.026232,-119.2351916,3564.8735966875,107.611552,0,0.3659941062,16300,2018-06-18 22:02:54,16,0,24.044,3564.8735966875,107.611552,0.3131716,0.49597114448,0,0,-0.671082,337.4, 0, 0.1,0,0,1024,1024,1024,1024,336.3,-90,97,3.998,4.007,4.007,4.003,4.014,4.008,18.966,80.6,14,Waypoint,
37.0262319,-119.2351917,3565.8578486875,108.595804,0,0.3734908256,16400,2018-06-18 22:02:54,16,0,24.044,3565.8578486875,108.595804,0.3131716,0.49597114448,0,0,-0.671082,337.4, -0.1, 0.3,0,0,1024,1024,1024,1024,336.3,-90,97,3.998,4.007,4.007,4.003,4.014,4.008,18.966,80.6,14,Waypoint,
37.0262319,-119.2351917,3566.8421006875,109.580056,0,0.3734908256,16500,2018-06-18 22:02:54,17,0,24.044,3566.8421006875,109.580056,0.3131716,0.49597114448,0,0,-0.671082,337.4, -0.2, 0.4,0,0,1024,1024,1024,1024,336.3,-90,97,3.998,4.007,4.007,4.003,4.014,4.008,18.966,80.6,14,Waypoint,
37.0262318,-119.2351916,3567.8263526875,110.564308,0,0.42017389796,16600,2018-06-18 22:02:54,17,0,24.044,3567.8263526875,110.564308,0.3131716,0.49597114448,0,0,-0.671082,337.4, -0.2, 0.3,0,0,1024,1024,1024,1024,336.3,-89.9,97,3.998,4.007,4.007,4.003,4.014,4.008,18.966,80.6,14,Waypoint,
37.0262318,-119.2351916,3568.8106046875,111.54856,0,0.42017389796,16700,2018-06-18 22:02:54,17,0,24.044,3568.8106046875,111.54856,0.3131716,0.49597114448,0,0,-0.671082,337.4, -0.1, 0.2,0,0,1024,1024,1024,1024,336.3,-90,97,3.998,4.007,4.007,4.003,4.014,4.008,18.966,80.6,14,Waypoint,
37.0262318,-119.2351916,3569.7948566875,112.532812,0,0.42017389796,16800,2018-06-18 22:02:54,17,0,24.044,3569.7948566875,112.532812,0.3131716,0.49597114448,0,0,-0.671082,337.3, 0, 0,0,0,1024,1024,1024,1024,336.3,-89.9,97,3.998,4.007,4.007,4.003,4.014,4.008,18.966,80.6,14,Waypoint,
37.0262318,-119.2351916,3570.7791086875,113.517064,0,0.42017389796,17000,2018-06-18 22:02:55,17,0,24.064,3570.7791086875,113.517064,0.3131716,0.49597114448,0,0,-0.671082,337.3, 0, -0.1,0,0,1024,1024,1024,1024,336.3,-89.9,96,3.997,4.019,4.007,4.017,4.011,4.009,18.788,80.6,14,Waypoint,
37.0262317,-119.2351916,3571.7633606875,114.501316,0,0.44926510624,17100,2018-06-18 22:02:55,17,0,24.064,3571.7633606875,114.501316,0.3131716,0.49597114448,0,0,-0.671082,337.3, -0.1, -0.1,0,0,1024,1024,1024,1024,336.3,-89.9,96,3.997,4.019,4.007,4.017,4.011,4.009,18.788,80.6,14,Waypoint,
37.0262317,-119.2351915,3572.7476126875,115.485568,0,0.46686025116,17200,2018-06-18 22:02:55,17,0,24.064,3572.7476126875,115.485568,0.3131716,0.49597114448,0,0,-0.671082,337.1, -0.1, -0.2,0,0,1024,1024,1024,1024,336.3,-90,96,3.997,4.019,4.007,4.017,4.011,4.009,18.788,80.6,14,Waypoint,
37.0262317,-119.2351915,3573.7318646875,116.46982,0,0.46686025116,17300,2018-06-18 22:02:55,17,0,24.064,3573.7318646875,116.46982,0.3131716,0.49597114448,0,0,-0.671082,337, -0.2, -0.3,0,0,1024,1024,1024,1024,336.3,-90,96,3.997,4.019,4.007,4.017,4.011,4.009,18.788,80.6,14,Waypoint,
37.0262316,-119.2351915,3574.7161166875,117.454072,0,0.49589568516,17400,2018-06-18 22:02:55,17,0,24.064,3574.7161166875,117.454072,0.3131716,0.49597114448,0,0,-0.671082,336.9, -0.2, 0,0,0,1024,1024,1024,1024,336.3,-89.9,96,3.997,4.019,4.007,4.017,4.011,4.009,18.788,80.6,14,Waypoint,
37.0262316,-119.2351915,3575.7003686875,118.438324,0,0.49589568516,17500,2018-06-18 22:02:55,17,0,24.064,3575.7003686875,118.438324,0.3131716,0.49597114448,0,0,-0.671082,337, -0.3, 0,0,0,1024,1024,1024,1024,336.3,-90,96,3.997,4.019,4.007,4.017,4.011,4.009,18.788,80.6,14,Waypoint,
37.0262316,-119.2351915,3576.6846206875,119.422576,0,0.49589568516,17600,2018-06-18 22:02:55,17,0,24.064,3576.6846206875,119.422576,0.3131716,0.49597114448,0,0,-0.671082,337.1, -0.4, 0.2,0,0,1024,1024,1024,1024,336.3,-90,96,3.997,4.019,4.007,4.017,4.011,4.009,18.788,80.6,14,Waypoint,
37.0262316,-119.2351915,3577.3407886875,120.078744,0,0.49589568516,17700,2018-06-18 22:02:55,17,0,24.064,3577.3407886875,120.078744,0.3131716,0.49597114448,0,0,-0.671082,337.3, -0.4, 0.5,0,0,1024,1024,1024,1024,336.3,-89.9,96,3.997,4.019,4.007,4.017,4.011,4.009,18.788,80.6,14,Waypoint,
37.0262316,-119.2351915,3578.3250406875,121.062996,0,0.49589568516,17800,2018-06-18 22:02:55,17,0,24.064,3578.3250406875,121.062996,0.3131716,0.49597114448,0,0,-0.671082,337.6, -0.3, 0.5,0,0,1024,1024,1024,1024,336.3,-89.9,96,3.997,4.019,4.007,4.017,4.011,4.009,18.788,80.6,14,Waypoint,
37.0262316,-119.2351915,3579.3092926875,122.047248,0,0.49589568516,17900,2018-06-18 22:02:56,17,0,24.064,3579.3092926875,122.047248,0.3131716,0.49597114448,0,0,-0.671082,338, -0.3, 0.5,0,0,1024,1024,1024,1024,336.3,-89.9,96,3.997,4.019,4.007,4.017,4.011,4.009,18.788,80.6,14,Waypoint,
37.0262316,-119.2351915,3580.6216286875,123.359584,0,0.49589568516,18000,2018-06-18 22:02:56,17,0,24.075,3580.6216286875,123.359584,0.3131716,0.49597114448,0,0,-0.671082,338.5, -0.2, 0.2,0,0,1024,1024,1024,1024,336.3,-89.9,96,3.999,4.016,4.005,4.015,4.02,4.012,18.097,80.6,14,Waypoint,
37.0262316,-119.2351914,3581.6058806875,124.343836,0,0.51354660436,18100,2018-06-18 22:02:56,17,0,24.075,3581.6058806875,124.343836,0.3131716,0.51354660436,0,0,-0.671082,338.7, -0.1, -0.2,0,0,1024,1024,1024,1024,336.3,-89.9,96,3.999,4.016,4.005,4.015,4.02,4.012,18.097,80.6,14,Waypoint,
37.0262316,-119.2351914,3582.5901326875,125.328088,0,0.51354660436,18200,2018-06-18 22:02:56,17,0,24.075,3582.5901326875,125.328088,0.3131716,0.51354660436,0,0,-0.671082,338.5, 0.1, -0.7,0,0,1024,1024,1024,1024,336.3,-89.9,96,3.999,4.016,4.005,4.015,4.02,4.012,18.097,80.6,14,Waypoint,
37.0262317,-119.2351913,3584.5586366875,127.296592,0,0.50526248336,18300,2018-06-18 22:02:56,17,0,24.075,3584.5586366875,127.296592,0.3131716,0.51354660436,0,0,-0.671082,337.5, 0.1, -1.3,0,0,1024,1024,1024,1024,336.3,-89.9,96,3.999,4.016,4.005,4.015,4.02,4.012,18.097,80.6,14,Waypoint,
37.0262318,-119.2351912,3585.5428886875,128.280844,0,0.50121064596,18400,2018-06-18 22:02:56,17,0,24.075,3585.5428886875,128.280844,0.3131716,0.51354660436,0,0,-0.671082,337.1, 0.2, -1.2,0,0,1024,1024,1024,1024,336.3,-89.9,96,3.999,4.016,4.005,4.015,4.02,4.012,18.097,80.6,14,Waypoint,
37.0262318,-119.2351912,3586.1990566875,128.937012,0,0.50121064596,18500,2018-06-18 22:02:56,17,0,24.075,3586.1990566875,128.937012,0.3131716,0.51354660436,0,0,-0.671082,336.8, 0.1, -1,0,0,1024,1024,1024,1024,336.3,-89.9,96,3.999,4.016,4.005,4.015,4.02,4.012,18.097,80.6,14,Waypoint,
37.0262318,-119.2351911,3587.1833086875,129.921264,0,0.52356300888,18600,2018-06-18 22:02:56,17,0,24.075,3587.1833086875,129.921264,0.3131716,0.52356300888,0,0,-0.671082,336.6, 0, -0.9,0,0,1024,1024,1024,1024,336.3,-90,96,3.999,4.016,4.005,4.015,4.02,4.012,18.097,80.6,14,Waypoint,
37.0262318,-119.235191,3588.1675606875,130.905516,0,0.5465551356,18700,2018-06-18 22:02:56,17,0,24.075,3588.1675606875,130.905516,0.3131716,0.5465551356,0,0,-0.671082,336.7, -0.1, -0.9,0,0,1024,1024,1024,1024,336.3,-90,96,3.999,4.016,4.005,4.015,4.02,4.012,18.097,80.6,14,Waypoint,
37.0262318,-119.235191,3589.1518126875,131.889768,0,0.5465551356,18800,2018-06-18 22:02:56,17,0,24.075,3589.1518126875,131.889768,0.3131716,0.5465551356,0,0,-0.671082,336.7, -0.2, -0.9,0,0,1024,1024,1024,1024,336.3,-89.9,96,3.999,4.016,4.005,4.015,4.02,4.012,18.097,80.6,14,Waypoint,
37.0262319,-119.235191,3590.1360646875,132.87402,0,0.52544621104,18900,2018-06-18 22:02:57,17,0,24.075,3590.1360646875,132.87402,0.3131716,0.5465551356,0,0,-0.671082,336.8, -0.2, -1,0,0,1024,1024,1024,1024,336.3,-90,96,3.999,4.016,4.005,4.015,4.02,4.012,18.097,80.6,14,Waypoint,
37.0262319,-119.235191,3591.1203166875,133.858272,0,0.52544621104,19000,2018-06-18 22:02:57,17,0,24.029,3591.1203166875,133.858272,0.3131716,0.5465551356,0,0,-0.671082,337, -0.3, -1,0,0,1024,1024,1024,1024,336.3,-90,96,3.995,4.004,4.01,4.008,4.012,4.007,18.405,80.6,14,Waypoint,
37.0262318,-119.235191,3592.1045686875,134.842524,0,0.5465551356,19100,2018-06-18 22:02:57,17,0,24.029,3592.1045686875,134.842524,0.3131716,0.5465551356,0,0,-0.671082,337.2, -0.5, -0.9,0,0,1024,1024,1024,1024,336.3,-90,96,3.995,4.004,4.01,4.008,4.012,4.007,18.405,80.6,14,Waypoint,
37.0262319,-119.235191,3593.0888206875,135.826776,0,0.52544621104,19300,2018-06-18 22:02:57,17,0,24.029,3593.0888206875,135.826776,0.3131716,0.5465551356,0,0,-0.671082,337.4, -0.4, -0.6,0,0,1024,1024,1024,1024,336.3,-89.9,96,3.995,4.004,4.01,4.008,4.012,4.007,18.405,80.6,14,Waypoint,
37.0262319,-119.2351909,3595.0573246875,137.79528,0,0.54990487324,19400,2018-06-18 22:02:57,17,0,24.029,3595.0573246875,137.79528,0.3131716,0.54990487324,0,0,-0.671082,337.6, -0.2, -0.2,0,0,1024,1024,1024,1024,336.3,-89.9,96,3.995,4.004,4.01,4.008,4.012,4.007,18.405,80.6,14,Waypoint,
37.0262319,-119.2351908,3596.0415766875,138.779532,0,0.57479988716,19500,2018-06-18 22:02:57,17,0,24.029,3596.0415766875,138.779532,0.3131716,0.57479988716,0,0,-0.671082,337.6, -0.3, -0.5,0,0,1024,1024,1024,1024,336.3,-89.9,96,3.995,4.004,4.01,4.008,4.012,4.007,18.405,80.6,14,Waypoint,
37.026232,-119.2351907,3597.0258286875,139.763784,0,0.5832021184,19700,2018-06-18 22:02:57,17,0,24.029,3597.0258286875,139.763784,0.3131716,0.5832021184,0,0,-0.671082,337.5, -0.2, -1,0,0,1024,1024,1024,1024,336.3,-89.9,96,3.995,4.004,4.01,4.008,4.012,4.007,18.405,80.6,14,Waypoint,
37.026232,-119.2351907,3598.0100806875,140.748036,0,0.5832021184,19800,2018-06-18 22:02:57,17,0,24.029,3598.0100806875,140.748036,0.3131716,0.5832021184,0,0,-0.671082,337.4, -0.2, -1.5,0,0,1024,1024,1024,1024,336.3,-89.9,96,3.995,4.004,4.01,4.008,4.012,4.007,18.405,80.6,14,Waypoint,
37.026232,-119.2351905,3598.9943326875,141.732288,0,0.63608597836,19900,2018-06-18 22:02:58,17,0,24.029,3598.9943326875,141.732288,0.3131716,0.63608597836,0,0,-0.671082,337.3, -0.2, -1.7,0,0,1024,1024,1024,1024,336.3,-89.9,96,3.995,4.004,4.01,4.008,4.012,4.007,18.405,80.6,14,Waypoint,
37.026232,-119.2351905,3599.9785846875,142.71654,0,0.63608597836,20000,2018-06-18 22:02:58,17,0,24.068,3599.9785846875,142.71654,0.3131716,0.63608597836,0,0,-0.671082,337.2, -0.4, -1.9,0,0,1024,1024,1024,1024,336.3,-90,96,3.996,4.011,4.012,4.009,4.014,4.01,17.737,82.4,14,Waypoint,
37.026232,-119.2351904,3600.9628366875,143.700792,0,0.66286747528,20100,2018-06-18 22:02:58,17,0,24.068,3600.9628366875,143.700792,0.3131716,0.66286747528,0,0,-0.671082,337.1, -0.6, -1.8,0,0,1024,1024,1024,1024,336.3,-90,96,3.996,4.011,4.012,4.009,4.014,4.01,17.737,82.4,14,Waypoint,
37.0262321,-119.2351903,3601.9470886875,144.685044,0,0.67717849936,20200,2018-06-18 22:02:58,17,0,24.068,3601.9470886875,144.685044,0.3131716,0.67717849936,0,0,-0.671082,337.1, -0.7, -1.6,0,0,1024,1024,1024,1024,336.3,-89.9,96,3.996,4.011,4.012,4.009,4.014,4.01,17.737,82.4,14,Waypoint,
37.0262321,-119.2351903,3602.9313406875,145.669296,0,0.67717849936,20300,2018-06-18 22:02:58,17,0,24.068,3602.9313406875,145.669296,0.3131716,0.67717849936,0,0,-0.671082,337.2, -0.5, -1.2,0,0,1024,1024,1024,1024,336.3,-89.9,96,3.996,4.011,4.012,4.009,4.014,4.01,17.737,82.4,14,Waypoint,
37.0262321,-119.2351903,3603.9155926875,146.653548,0,0.67717849936,20400,2018-06-18 22:02:58,17,0,24.068,3603.9155926875,146.653548,0.3131716,0.67717849936,0,0,-0.671082,337.4, -0.3, -0.8,0,0,1024,1024,1024,1024,336.3,-89.9,96,3.996,4.011,4.012,4.009,4.014,4.01,17.737,82.4,14,Waypoint,
37.0262321,-119.2351902,3605.8840966875,148.622052,0,0.704806453,20500,2018-06-18 22:02:58,17,0,24.068,3605.8840966875,148.622052,0.3131716,0.704806453,0,0,-0.671082,337.6, 0, -1,0,0,1024,1024,1024,1024,336.3,-89.9,96,3.996,4.011,4.012,4.009,4.014,4.01,17.737,82.4,14,Waypoint,
37.0262322,-119.2351902,3606.5402646875,149.27822,0,0.6943405734,20700,2018-06-18 22:02:58,17,0,24.068,3606.5402646875,149.27822,0.3131716,0.704806453,0,0,-0.671082,337.6, -0.2, -1.2,0,0,1024,1024,1024,1024,336.3,-89.9,96,3.996,4.011,4.012,4.009,4.014,4.01,17.737,82.4,14,Waypoint,
37.0262322,-119.2351902,3608.8368526875,151.574808,0,0.6943405734,20800,2018-06-18 22:02:58,17,0,24.068,3608.8368526875,151.574808,0.3131716,0.704806453,0,0,-0.671082,337.6, -0.2, -1.4,0,0,1024,1024,1024,1024,336.3,-89.9,96,3.996,4.011,4.012,4.009,4.014,4.01,17.737,82.4,14,Waypoint,
37.0262322,-119.2351902,3610.8053566875,153.543312,0,0.6943405734,21000,2018-06-18 22:02:59,17,0,24.026,3610.8053566875,153.543312,0.3131716,0.704806453,0,0,-0.671082,337.6, -0.3, -1.3,0,0,1024,1024,1024,1024,336.3,-89.9,96,3.996,4.016,4.008,4.008,4.013,4.004,17.893,82.4,14,Waypoint,
37.0262322,-119.2351902,3611.7896086875,154.527564,0,0.6943405734,21100,2018-06-18 22:02:59,17,0,24.026,3611.7896086875,154.527564,0.3131716,0.704806453,0,0,-0.671082,337.5, -0.2, -1.3,0,0,1024,1024,1024,1024,336.3,-89.9,96,3.996,4.016,4.008,4.008,4.013,4.004,17.893,82.4,14,Waypoint,
37.0262322,-119.2351902,3612.7738606875,155.511816,0,0.6943405734,21200,2018-06-18 22:02:59,17,0,24.026,3612.7738606875,155.511816,0.3131716,0.704806453,0,0,-0.671082,337.3, -0.1, -1.4,0,0,1024,1024,1024,1024,336.3,-89.9,96,3.996,4.016,4.008,4.008,4.013,4.004,17.893,82.4,14,Waypoint,
37.0262322,-119.2351902,3613.4300286875,156.167984,0,0.6943405734,21300,2018-06-18 22:02:59,17,0,24.026,3613.4300286875,156.167984,0.3131716,0.704806453,0,0,-0.671082,337, 0, -1.4,0,0,1024,1024,1024,1024,336.3,-89.9,96,3.996,4.016,4.008,4.008,4.013,4.004,17.893,82.4,14,Waypoint,
37.0262323,-119.2351901,3614.7423646875,157.48032,0,0.71414700448,21400,2018-06-18 22:02:59,17,0,24.026,3614.7423646875,157.48032,0.3131716,0.71414700448,0,0,-0.671082,336.8, -0.1, -1.4,0,0,1024,1024,1024,1024,336.3,-89.9,96,3.996,4.016,4.008,4.008,4.013,4.004,17.893,82.4,14,Waypoint,
37.0262323,-119.2351901,3615.7266166875,158.464572,0,0.71414700448,21600,2018-06-18 22:02:59,17,0,24.026,3615.7266166875,158.464572,0.3131716,0.71414700448,0,0,-0.671082,336.6, -0.1, -1.4,0,0,1024,1024,1024,1024,336.3,-89.9,96,3.996,4.016,4.008,4.008,4.013,4.004,17.893,82.4,14,Waypoint,
37.0262323,-119.2351901,3616.7108686875,159.448824,0,0.71414700448,21700,2018-06-18 22:02:59,17,0,24.026,3616.7108686875,159.448824,0.3131716,0.71414700448,0,0,-0.671082,336.4, -0.1, -1.5,0,0,1024,1024,1024,1024,336.3,-89.9,96,3.996,4.016,4.008,4.008,4.013,4.004,17.893,82.4,14,Waypoint,
37.0262323,-119.2351901,3617.6951206875,160.433076,0,0.71414700448,21800,2018-06-18 22:02:59,17,0,24.026,3617.6951206875,160.433076,0.3131716,0.71414700448,0,0,-0.671082,336.3, 0, -1.5,0,0,1024,1024,1024,1024,336.3,-89.9,96,3.996,4.016,4.008,4.008,4.013,4.004,17.893,82.4,14,Waypoint,
37.0262323,-119.2351901,3618.6793726875,161.417328,0,0.71414700448,21900,2018-06-18 22:03:00,17,0,24.026,3618.6793726875,161.417328,0.3131716,0.71414700448,0,0,-0.671082,336.4, 0, -1.4,0,0,1024,1024,1024,1024,336.3,-89.9,96,3.996,4.016,4.008,4.008,4.013,4.004,17.893,82.4,14,Waypoint,
37.0262323,-119.2351902,3619.6636246875,162.40158,0,0.68565947076,22000,2018-06-18 22:03:00,17,0,24.043,3619.6636246875,162.40158,0.3131716,0.71414700448,0,0,-0.671082,336.5, 0, -1.2,0,0,1024,1024,1024,1024,336.3,-89.9,96,3.983,4.002,4.003,4,4.008,3.995,18.467,82.4,14,Waypoint,
37.0262323,-119.2351902,3620.6478766875,163.385832,0,0.68565947076,22100,2018-06-18 22:03:00,17,0,24.043,3620.6478766875,163.385832,0.3131716,0.71414700448,0,0,-0.671082,336.8, -0.1, -1.2,0,0,1024,1024,1024,1024,336.3,-89.9,96,3.983,4.002,4.003,4,4.008,3.995,18.467,82.4,14,Waypoint,
37.0262323,-119.2351902,3621.6321286875,164.370084,0,0.68565947076,22200,2018-06-18 22:03:00,17,0,24.043,3621.6321286875,164.370084,0.3131716,0.71414700448,0,0,-0.671082,337.2, -0.3, -1.4,0,0,1024,1024,1024,1024,336.3,-90,96,3.983,4.002,4.003,4,4.008,3.995,18.467,82.4,14,Waypoint,
37.0262323,-119.2351902,3622.6163806875,165.354336,0,0.68565947076,22300,2018-06-18 22:03:00,17,0,24.043,3622.6163806875,165.354336,0.3131716,0.71414700448,0,0,-0.671082,337.6, -0.5, -1.5,0,0,1024,1024,1024,1024,336.3,-90,96,3.983,4.002,4.003,4,4.008,3.995,18.467,82.4,14,Waypoint,
37.0262323,-119.2351902,3623.6006326875,166.338588,0,0.68565947076,22400,2018-06-18 22:03:00,17,0,24.043,3623.6006326875,166.338588,0.3131716,0.71414700448,0,0,-0.671082,337.8, -0.7, -1.4,0,0,1024,1024,1024,1024,336.3,-90,96,3.983,4.002,4.003,4,4.008,3.995,18.467,82.4,14,Waypoint,
37.0262323,-119.2351901,3625.8972206875,168.635176,0,0.71414700448,22500,2018-06-18 22:03:00,17,0,24.043,3625.8972206875,168.635176,0.3131716,0.71414700448,0,0,-0.671082,337.8, -0.6, -1.4,0,0,1024,1024,1024,1024,336.3,-89.9,96,3.983,4.002,4.003,4,4.008,3.995,18.467,82.4,14,Waypoint,
37.0262323,-119.2351902,3626.8814726875,169.619428,0,0.68565947076,22600,2018-06-18 22:03:00,17,0,24.043,3626.8814726875,169.619428,0.3131716,0.71414700448,0,0,-0.671082,337.6, -0.3, -1.4,0,0,1024,1024,1024,1024,336.3,-89.9,96,3.983,4.002,4.003,4,4.008,3.995,18.467,82.4,14,Waypoint,
37.0262324,-119.2351902,3628.8499766875,171.587932,0,0.67882876188,22800,2018-06-18 22:03:00,17,0,24.043,3628.8499766875,171.587932,0.3131716,0.71414700448,0,0,-0.671082,337.4, 0.6, -1.4,0,0,1024,1024,1024,1024,336.3,-89.9,96,3.983,4.002,4.003,4,4.008,3.995,18.467,82.4,14,Waypoint,
37.0262325,-119.2351903,3629.8342286875,172.572184,0,0.64496065056,22900,2018-06-18 22:03:01,17,0,24.043,3629.8342286875,172.572184,0.3131716,0.71414700448,0,0,-0.671082,337.3, 0.7, -1.3,0,0,1024,1024,1024,1024,336.3,-89.9,96,3.983,4.002,4.003,4,4.008,3.995,18.467,82.4,14,Waypoint,
37.0262325,-119.2351904,3631.4746486875,174.212604,0,0.6160269226,23100,2018-06-18 22:03:01,17,0,24.043,3631.4746486875,174.212604,0.3131716,0.71414700448,0,0,-0.671082,337.3, 0.6, -1,0,0,1024,1024,1024,1024,336.3,-89.9,96,3.983,4.002,4.003,4,4.008,3.995,18.467,82.4,14,Waypoint,
37.0262325,-119.2351904,3632.4589006875,175.196856,0,0.6160269226,23200,2018-06-18 22:03:01,17,0,24.043,3632.4589006875,175.196856,0.3131716,0.71414700448,0,0,-0.671082,337.3, 0.4, -0.9,0,0,1024,1024,1024,1024,336.3,-89.9,96,3.983,4.002,4.003,4,4.008,3.995,18.467,82.4,14,Waypoint,
37.0262325,-119.2351905,3633.4431526875,176.181108,0,0.58711287968,23300,2018-06-18 22:03:01,17,0,24.043,3633.4431526875,176.181108,0.3131716,0.71414700448,0,0,-0.671082,337.2, 0.2, -0.7,0,0,1024,1024,1024,1024,336.3,-89.9,96,3.983,4.002,4.003,4,4.008,3.995,18.467,82.4,14,Waypoint,
37.0262325,-119.2351905,3634.4274046875,177.16536,0,0.58711287968,23400,2018-06-18 22:03:01,17,0,24.043,3634.4274046875,177.16536,0.3131716,0.71414700448,0,0,-0.671082,337.1, 0, -0.6,0,0,1024,1024,1024,1024,336.3,-89.9,96,3.983,4.002,4.003,4,4.008,3.995,18.467,82.4,14,Waypoint,
37.0262325,-119.2351906,3635.0835726875,177.821528,0,0.55822508348,23500,2018-06-18 22:03:01,17,0,24.043,3635.0835726875,177.821528,0.3131716,0.71414700448,0,0,-0.671082,337, 0, -0.5,0,0,1024,1024,1024,1024,336.3,-89.9,96,3.983,4.002,4.003,4,4.008,3.995,18.467,82.4,14,Waypoint,
37.0262325,-119.2351906,3636.0678246875,178.80578,0,0.55822508348,23600,2018-06-18 22:03:01,17,0,24.043,3636.0678246875,178.80578,0.3131716,0.71414700448,0,0,-0.671082,337, 0, -0.6,0,0,1024,1024,1024,1024,336.3,-89.9,96,3.983,4.002,4.003,4,4.008,3.995,18.467,82.4,14,Waypoint,
37.0262325,-119.2351907,3637.0520766875,179.790032,0,0.52936025316,23700,2018-06-18 22:03:01,17,0,24.043,3637.0520766875,179.790032,0.3131716,0.71414700448,0,0,-0.671082,337, 0.2, -0.7,0,0,1024,1024,1024,1024,336.3,-89.9,96,3.983,4.002,4.003,4,4.008,3.995,18.467,82.4,14,Waypoint,
37.0262325,-119.2351908,3638.0363286875,180.774284,0,0.5005249504,23900,2018-06-18 22:03:02,17,0,24.043,3638.0363286875,180.774284,0.3131716,0.71414700448,0,0,-0.671082,337.1, 0.4, -0.7,0,0,1024,1024,1024,1024,336.3,-89.9,96,3.983,4.002,4.003,4,4.008,3.995,18.467,82.4,14,Waypoint,
37.0262325,-119.2351909,3639.0205806875,181.758536,0,0.47172901772,24000,2018-06-18 22:03:02,17,0,23.965,3639.0205806875,181.758536,0.3131716,0.71414700448,0,0,-0.671082,337.3, 0.6, -0.4,0,0,1024,1024,1024,1024,336.3,-89.9,96,3.994,4.011,4.003,3.999,4.007,3.998,17.735,82.4,14,Waypoint,
37.0262325,-119.235191,3640.0048326875,182.742788,0,0.44297245512,24100,2018-06-18 22:03:02,17,0,23.965,3640.0048326875,182.742788,0.3131716,0.71414700448,0,0,-0.671082,337.4, 0.7, 0,0,0,1024,1024,1024,1024,336.3,-89.9,96,3.994,4.011,4.003,3.999,4.007,3.998,17.735,82.4,14,Waypoint,
37.0262325,-119.2351911,3640.9890846875,183.72704,0,0.4142716668,24200,2018-06-18 22:03:02,17,0,23.965,3640.9890846875,183.72704,0.3131716,0.71414700448,0,0,-0.671082,337.4, 0.8, 0.1,0,0,1024,1024,1024,1024,336.3,-89.9,96,3.994,4.011,4.003,3.999,4.007,3.998,17.735,82.4,14,Waypoint,
37.0262325,-119.2351911,3641.9733366875,184.711292,0,0.4142716668,24300,2018-06-18 22:03:02,17,0,23.965,3641.9733366875,184.711292,0.3131716,0.71414700448,0,0,-0.671082,337.4, 0.9, 0,0,0,1024,1024,1024,1024,336.3,-89.9,96,3.994,4.011,4.003,3.999,4.007,3.998,17.735,82.4,14,Waypoint,
37.0262325,-119.2351912,3642.9575886875,185.695544,0,0.38563321444,24400,2018-06-18 22:03:02,17,0,23.965,3642.9575886875,185.695544,0.3131716,0.71414700448,0,0,-0.671082,337.2, 0.9, 0,0,0,1024,1024,1024,1024,336.3,-89.9,96,3.994,4.011,4.003,3.999,4.007,3.998,17.735,82.4,14,Waypoint,
37.0262325,-119.2351913,3643.9418406875,186.679796,0,0.35707350224,24500,2018-06-18 22:03:02,17,0,23.965,3643.9418406875,186.679796,0.3131716,0.71414700448,0,0,-0.671082,337.1, 0.8, -0.1,0,0,1024,1024,1024,1024,336.3,-89.9,96,3.994,4.011,4.003,3.999,4.007,3.998,17.735,82.4,14,Waypoint,
37.0262325,-119.2351913,3644.9260926875,187.664048,0,0.35707350224,24600,2018-06-18 22:03:02,17,0,23.965,3644.9260926875,187.664048,0.3131716,0.71414700448,0,0,-0.671082,337, 0.8, -0.2,0,0,1024,1024,1024,1024,336.3,-89.9,96,3.994,4.011,4.003,3.999,4.007,3.998,17.735,82.4,14,Waypoint,
37.0262325,-119.2351913,3645.9103446875,188.6483,0,0.35707350224,24700,2018-06-18 22:03:02,17,0,23.965,3645.9103446875,188.6483,0.3131716,0.71414700448,0,0,-0.671082,336.9, 0.7, -0.1,0,0,1024,1024,1024,1024,336.3,-89.9,96,3.994,4.011,4.003,3.999,4.007,3.998,17.735,82.4,14,Waypoint,
37.0262325,-119.2351913,3647.2226806875,189.960636,0,0.35707350224,24800,2018-06-18 22:03:02,17,0,23.965,3647.2226806875,189.960636,0.3131716,0.71414700448,0,0,-0.671082,336.9, 0.7, -0.2,0,0,1024,1024,1024,1024,336.3,-89.9,96,3.994,4.011,4.003,3.999,4.007,3.998,17.735,82.4,14,Waypoint,
37.0262325,-119.2351913,3649.1911846875,191.92914,0,0.35707350224,24900,2018-06-18 22:03:03,17,0,23.965,3649.1911846875,191.92914,0.3131716,0.71414700448,0,0,-0.671082,336.9, 0.7, -0.7,0,0,1024,1024,1024,1024,336.3,-89.9,96,3.994,4.011,4.003,3.999,4.007,3.998,17.735,82.4,14,Waypoint,
37.0262325,-119.2351913,3650.1754366875,192.913392,0,0.35707350224,25000,2018-06-18 22:03:03,17,0,23.965,3650.1754366875,192.913392,0.3131716,0.71414700448,0,0,-0.671082,337, 0.6, -0.9,0,0,1024,1024,1024,1024,336.3,-89.9,95,3.988,3.99,4.003,3.988,3.999,3.99,17.735,82.4,14,Waypoint,
37.0262324,-119.2351912,3651.1596886875,193.897644,0,0.39416667928,25100,2018-06-18 22:03:03,17,0,23.965,3651.1596886875,193.897644,0.3131716,0.71414700448,0,0,-0.671082,337.2, 0.5, -1.2,0,0,1024,1024,1024,1024,336.3,-89.9,95,3.988,3.99,4.003,3.988,3.999,3.99,17.735,82.4,14,Waypoint,
37.0262324,-119.2351912,3652.1439406875,194.881896,0,0.39416667928,25200,2018-06-18 22:03:03,17,0,23.965,3652.1439406875,194.881896,0.3131716,0.71414700448,0,0,-0.671082,337.3, 0.4, -1.2,0,0,1024,1024,1024,1024,336.3,-89.9,95,3.988,3.99,4.003,3.988,3.999,3.99,17.735,82.4,14,Waypoint,
37.0262324,-119.2351912,3653.1281926875,195.866148,0,0.39416667928,25300,2018-06-18 22:03:03,17,0,23.965,3653.1281926875,195.866148,0.3131716,0.71414700448,0,0,-0.671082,337.5, 0.2, -1.2,0,0,1024,1024,1024,1024,336.3,-89.9,95,3.988,3.99,4.003,3.988,3.999,3.99,17.735,82.4,14,Waypoint,
37.0262324,-119.2351911,3654.1124446875,196.8504,0,0.4222277038,25400,2018-06-18 22:03:03,17,0,23.965,3654.1124446875,196.8504,0.3131716,0.71414700448,0,0,-0.671082,337.6, 0, -1.2,0,0,1024,1024,1024,1024,336.3,-90,95,3.988,3.99,4.003,3.988,3.999,3.99,17.735,82.4,14,Waypoint,
37.0262323,-119.2351911,3655.0966966875,197.834652,0,0.4331200926,25500,2018-06-18 22:03:03,17,0,23.965,3655.0966966875,197.834652,0.3131716,0.71414700448,0,0,-0.671082,337.6, -0.2, -1.1,0,0,1024,1024,1024,1024,336.3,-90,95,3.988,3.99,4.003,3.988,3.999,3.99,17.735,82.4,14,Waypoint,
37.0262323,-119.2351911,3655.0966966875,197.834652,0,0.4331200926,25600,2018-06-18 22:03:03,17,0,23.965,3655.0966966875,197.834652,0.3131716,0.71414700448,0,0,-0.671082,337.6, -0.2, -1.1,0,0,1024,1024,1024,1024,336.3,-90,95,3.988,3.99,4.003,3.988,3.999,3.99,17.735,82.4,14,Waypoint,
