Latitude, Longitude, Altitude (m), Time, Sats, Speed (m/s), Range (m), Battery (%), Roll (deg), Pitch (deg), Yaw (deg), Images, HD Signal (%), RC Signal (%), Battery Temp (C), Battery Voltage (mV), Battery Current (mA), Battery Energy (mAh), Battery Capacity (mAh), Battery Discharges, flyState, timestamp (Unix), LastUpdate (ms), radioChannel, Rc_elevator, Rc_aileron, Rc_throttle, Rc_rudder, Rc_gyro, Dronetype, Battery_Cell1 (mV), Battery_Cell2 (mV), Battery_Cell3 (mV), Battery_Cell4 (mV), Battery_Cell5 (mV), Battery_Cell6 (mV), Video, isFlying, elapsedTime (ms), gimbalPitch (deg), gimbalRoll (deg), gimbalYaw (deg), VelocityX (m/s), VelocityY (m/s), VelocityZ (m/s), GroundSmear (cm), App Version, Aircraft Name, Aircraft Firmware, Aircraft Serial Number, Battery Serial Number, Battery Lifetime (%), App_Tip, App_Warning, CurrentFlightStartingIndex, CurrentFlightLastVisitedWaypoint, PreviousFlightEndingWaypointIndex
37.0262837, -119.2351953, 0.000, 14:26:53.653, 11, 0.20, 0.07, 98, -0.700, 2.600, -26.100, 838, 100, 100, 26, 25733, -3207, 5194, 5301, 21, 11, 1529357213.654, 92, 0, 1024, 1024, 1024, 1024, 0, 6, 4303, 4311, 4311, 4191, 4308, 4303, 0, 1, 3000, -90.000, 0.000, -29.500, -0.200, 0.000, 0.000, 0.0, MapPilot_2.8.1_04242018, Dendroctonus I, 1.3.1.00, 041DDC1887, 1058171200140, 95, DJI_0835.jpg, Starting Mission from Lat/Long: 37.02628/-119.23520 Camera: Zenmuse X3 - Overlap: 90/90 - Active Connection: No, 32, 32, 32
37.0262835, -119.2351952, 0.000, 14:26:53.754, 11, 0.30, 0.10, 98, -0.400, 1.000, -25.800, 838, 100, 100, 26, 25733, -3207, 5194, 5301, 21, 11, 1529357213.754, 99, 0, 1024, 1024, 1024, 1024, 0, 6, 4303, 4311, 4311, 4191, 4308, 4303, 0, 1, 3100, -90.000, 0.000, -29.400, -0.300, 0.000, -0.200, 0.0, , , , , , 95, , , 32, 32, 32
37.0262832, -119.2351951, 0.000, 14:26:53.854, 11, 0.30, 0.13, 98, 0.000, -0.100, -25.800, 838, 100, 100, 26, 25733, -3207, 5194, 5301, 21, 11, 1529357213.854, 87, 0, 1024, 1024, 1024, 1024, 0, 6, 4280, 4298, 4283, 4298, 4286, 4285, 0, 1, 3201, -89.900, 0.000, -29.300, -0.300, 0.000, -0.300, 0.0, , , , , , 95, , , 32, 32, 32
37.0262829, -119.2351950, 0.000, 14:26:53.954, 11, 0.30, 0.16, 98, 0.300, -1.100, -25.900, 838, 100, 100, 26, 25733, -3207, 5194, 5301, 21, 11, 1529357213.954, 91, 0, 1024, 1024, 1024, 1024, 0, 6, 4280, 4298, 4283, 4298, 4286, 4285, 0, 1, 3301, -90.000, 0.000, -29.200, -0.300, 0.000, -0.300, 0.0, , , , , , 95, , , 32, 32, 32
37.0262826, -119.2351950, 0.000, 14:26:54.054, 11, 0.30, 0.20, 98, 0.800, -2.000, -25.900, 838, 100, 100, 26, 25733, -3207, 5194, 5301, 21, 11, 1529357214.054, 82, 0, 1024, 1024, 1024, 1024, 0, 6, 4280, 4298, 4283, 4298, 4286, 4285, 0, 1, 3400, -90.000, 0.000, -29.100, -0.300, 0.000, -0.300, 0.0, , , , , , 95, , , 32, 32, 32
37.0262823, -119.2351950, 0.100, 14:26:54.154, 11, 0.20, 0.23, 98, 1.200, -2.500, -26.000, 838, 100, 100, 26, 25733, -3207, 5194, 5301, 21, 11, 1529357214.154, 74, 0, 1024, 1024, 1024, 1024, 0, 6, 4280, 4298, 4283, 4298, 4286, 4285, 0, 1, 3500, -90.000, 0.000, -29.000, -0.200, 0.000, -0.400, 0.0, , , , , , 95, , , 32, 32, 32
37.0262820, -119.2351951, 0.100, 14:26:54.254, 11, 0.20, 0.25, 98, 1.500, -2.600, -26.200, 838, 100, 100, 26, 25733, -3207, 5194, 5301, 21, 11, 1529357214.254, 43, 0, 1024, 1024, 1024, 1024, 0, 6, 4280, 4298, 4283, 4298, 4286, 4285, 0, 1, 3600, -90.000, 0.000, -28.900, -0.200, 0.000, -0.300, 0.0, , , , , , 95, , , 32, 32, 32
37.0262818, -119.2351952, 0.100, 14:26:54.354, 11, 0.20, 0.28, 98, 1.800, -2.300, -26.200, 838, 100, 100, 26, 25733, -3207, 5194, 5301, 21, 11, 1529357214.354, 61, 0, 1024, 1024, 1024, 1024, 0, 6, 4280, 4298, 4283, 4298, 4286, 4285, 0, 1, 3700, -89.900, 0.000, -28.800, -0.200, 0.000, -0.300, 0.0, , , , , , 95, , , 32, 32, 32
37.0262816, -119.2351952, 0.200, 14:26:54.454, 11, 0.10, 0.29, 98, 1.700, -1.900, -26.100, 838, 100, 100, 26, 25733, -3207, 5194, 5301, 21, 11, 1529357214.454, 63, 0, 1024, 1024, 1024, 1024, 0, 6, 4280, 4298, 4283, 4298, 4286, 4285, 0, 1, 3800, -89.900, 0.000, -28.800, -0.100, 0.000, -0.300, 0.0, , , , , , 95, , , 32, 32, 32
37.0262816, -119.2351951, 0.200, 14:26:54.554, 11, 0.10, 0.30, 98, 1.500, -1.400, -26.100, 838, 100, 100, 26, 25733, -3207, 5194, 5301, 21, 11, 1529357214.554, 54, 0, 1024, 1024, 1024, 1024, 0, 6, 4280, 4298, 4283, 4298, 4286, 4285, 0, 1, 3900, -89.900, 0.000, -28.700, -0.100, 0.000, -0.300, 0.0, , , , , , 95, , , 32, 32, 32
37.0262814, -119.2351951, 0.300, 14:26:54.654, 11, 0.10, 0.32, 98, 1.000, -0.900, -26.100, 838, 100, 100, 26, 25733, -3207, 5194, 5301, 21, 11, 1529357214.654, 45, 0, 1024, 1024, 1024, 1024, 0, 6, 4280, 4298, 4283, 4298, 4286, 4285, 0, 1, 4000, -89.900, 0.000, -28.600, -0.100, 0.000, -0.400, 0.0, , , , , , 95, , , 32, 32, 32
37.0262813, -119.2351951, 0.300, 14:26:54.754, 11, 0.10, 0.33, 98, 0.700, -0.700, -26.100, 838, 100, 100, 26, 25149, -10682, 5194, 5301, 21, 11, 1529357214.754, 39, 0, 1024, 1024, 1024, 1024, 0, 6, 4103, 4159, 4136, 4186, 4158, 4141, 0, 1, 4100, -89.900, 0.000, -28.600, -0.100, 0.000, -0.400, 0.0, , , , , , 95, , , 32, 32, 32
37.0262812, -119.2351951, 0.400, 14:26:54.854, 12, 0.10, 0.35, 98, 0.600, -0.800, -26.200, 838, 100, 100, 26, 25149, -10682, 5194, 5301, 21, 11, 1529357214.854, 39, 0, 1024, 1024, 1024, 1024, 0, 6, 4103, 4159, 4136, 4186, 4158, 4141, 0, 1, 4200, -89.900, 0.000, -28.500, -0.100, 0.000, -0.500, 0.0, , , , , , 95, , , 32, 32, 32
37.0262811, -119.2351952, 0.400, 14:26:54.954, 12, 0.00, 0.36, 98, 0.800, -0.800, -26.200, 838, 100, 100, 26, 25149, -10682, 5194, 5301, 21, 11, 1529357214.954, 41, 0, 1024, 1024, 1024, 1024, 0, 6, 4103, 4159, 4136, 4186, 4158, 4141, 0, 1, 4300, -89.900, 0.000, -28.400, 0.000, 0.000, -0.500, 0.0, , , , , , 95, , , 32, 32, 32
37.0262809, -119.2351952, 0.500, 14:26:55.054, 11, 0.00, 0.37, 98, 1.000, -0.800, -26.200, 838, 100, 100, 26, 25149, -10682, 5194, 5301, 21, 11, 1529357215.054, 31, 0, 1024, 1024, 1024, 1024, 0, 6, 4103, 4159, 4136, 4186, 4158, 4141, 0, 1, 4400, -89.900, 0.000, -28.400, 0.000, 0.000, -0.500, 0.0, , , , , , 95, , , 32, 32, 32
37.0262808, -119.2351952, 0.600, 14:26:55.154, 11, 0.00, 0.38, 98, 1.000, -1.000, -26.100, 838, 100, 100, 26, 25149, -10682, 5194, 5301, 21, 11, 1529357215.154, 19, 0, 1024, 1024, 1024, 1024, 0, 6, 4103, 4159, 4136, 4186, 4158, 4141, 0, 1, 4500, -90.000, 0.000, -28.300, 0.000, 0.000, -0.500, 0.0, , , , , , 95, , , 32, 32, 32
37.0262808, -119.2351952, 0.600, 14:26:55.254, 11, 0.00, 0.39, 98, 0.900, -1.100, -26.100, 838, 100, 100, 26, 25149, -10682, 5194, 5301, 21, 11, 1529357215.254, 13, 0, 1024, 1024, 1024, 1024, 0, 6, 4103, 4159, 4136, 4186, 4158, 4141, 0, 1, 4600, -90.000, 0.000, -28.300, 0.000, 0.000, -0.400, 0.0, , , , , , 95, , , 32, 32, 32
37.0262807, -119.2351952, 0.700, 14:26:55.354, 11, 0.00, 0.40, 98, 0.800, -1.200, -26.000, 838, 100, 100, 26, 25149, -10682, 5194, 5301, 21, 11, 1529357215.354, 18, 0, 1024, 1024, 1024, 1024, 0, 6, 4103, 4159, 4136, 4186, 4158, 4141, 0, 1, 4700, -90.000, 0.000, -28.200, 0.000, 0.000, -0.500, 0.0, , , , , , 95, , , 32, 32, 32
37.0262806, -119.2351951, 0.700, 14:26:55.454, 10, 0.00, 0.41, 98, 0.700, -1.400, -26.000, 838, 100, 100, 26, 25149, -10682, 5194, 5301, 21, 11, 1529357215.454, 11, 0, 1024, 1024, 1024, 1024, 0, 6, 4103, 4159, 4136, 4186, 4158, 4141, 0, 1, 4800, -90.000, 0.000, -28.100, 0.000, 0.000, -0.500, 0.0, , , , , , 95, , , 32, 32, 32
37.0262806, -119.2351950, 0.800, 14:26:55.554, 10, 0.00, 0.41, 98, 0.600, -1.500, -25.900, 838, 100, 100, 26, 25149, -10682, 5194, 5301, 21, 11, 1529357215.554, 14, 0, 1024, 1024, 1024, 1024, 0, 6, 4103, 4159, 4136, 4186, 4158, 4141, 0, 1, 4900, -90.000, 0.000, -28.100, 0.000, 0.000, -0.500, 0.0, , , , , , 95, , , 32, 32, 32
37.0262805, -119.2351950, 0.800, 14:26:55.654, 10, 0.00, 0.42, 98, 0.500, -1.600, -25.900, 838, 100, 100, 26, 25149, -10682, 5194, 5301, 21, 11, 1529357215.654, 16, 0, 1024, 1024, 1024, 1024, 0, 6, 4103, 4159, 4136, 4186, 4158, 4141, 0, 1, 5000, -90.000, 0.000, -28.100, 0.000, 0.000, -0.500, 0.0, , , , , , 95, , , 32, 32, 32
37.0262805, -119.2351950, 0.800, 14:26:55.754, 10, 0.00, 0.42, 98, 0.500, -1.600, -25.900, 838, 100, 100, 26, 25149, -10682, 5194, 5301, 21, 11, 1529357215.754, 116, 0, 1024, 1024, 1024, 1024, 0, 6, 4103, 4159, 4136, 4186, 4158, 4141, 0, 1, 5100, -90.000, 0.000, -28.100, 0.000, 0.000, -0.500, 0.0, , , , , , 95, , , 32, 32, 32
37.0262805, -119.2351949, 0.900, 14:26:55.854, 10, 0.00, 0.42, 98, 0.400, -1.600, -26.000, 838, 100, 100, 26, 24559, -16612, 5194, 5301, 21, 14, 1529357215.854, 94, 0, 1024, 1024, 1024, 1024, 0, 6, 4050, 4081, 4078, 4105, 4070, 4075, 0, 1, 5200, -90.000, 0.000, -28.000, 0.000, 0.000, -0.500, 0.0, , , , , , 95, , , 32, 32, 32
37.0262805, -119.2351949, 1.000, 14:26:55.954, 11, 0.00, 0.42, 98, -0.200, -0.900, -26.200, 838, 100, 100, 26, 24559, -16612, 5194, 5301, 21, 14, 1529357215.954, 92, 0, 1024, 1024, 1024, 1024, 0, 6, 4050, 4081, 4078, 4105, 4070, 4075, 0, 1, 5300, -89.900, 0.000, -28.000, 0.000, 0.000, -0.200, 0.0, , , , , , 95, , , 32, 32, 32
37.0262805, -119.2351948, 1.100, 14:26:56.054, 11, 0.00, 0.42, 98, -0.500, -0.500, -26.200, 838, 100, 100, 26, 24559, -16612, 5194, 5301, 21, 14, 1529357216.054, 88, 0, 1024, 1024, 1024, 1024, 0, 6, 4050, 4081, 4078, 4105, 4070, 4075, 0, 1, 5400, -89.900, 0.000, -27.900, 0.000, 0.000, -0.300, 0.0, , , , , , 95, , , 32, 32, 32
37.0262805, -119.2351948, 1.100, 14:26:56.154, 11, 0.00, 0.42, 98, -0.500, -0.500, -26.300, 838, 100, 100, 26, 24559, -16612, 5194, 5301, 21, 14, 1529357216.154, 91, 0, 1024, 1024, 1024, 1024, 0, 6, 4050, 4081, 4078, 4105, 4070, 4075, 0, 1, 5500, -89.900, 0.000, -27.900, 0.000, 0.000, -0.400, 0.0, , , , , , 95, , , 32, 32, 32
37.0262805, -119.2351948, 1.200, 14:26:56.254, 11, 0.00, 0.42, 98, -0.200, -0.500, -26.300, 838, 100, 100, 26, 24559, -16612, 5194, 5301, 21, 14, 1529357216.254, 74, 0, 1024, 1024, 1024, 1024, 0, 6, 4050, 4081, 4078, 4105, 4070, 4075, 0, 1, 5600, -89.900, 0.000, -27.900, 0.000, 0.000, -0.500, 0.0, , , , , , 95, , , 32, 32, 32
37.0262805, -119.2351949, 1.200, 14:26:56.353, 11, 0.00, 0.42, 98, 0.100, -0.300, -26.500, 838, 100, 100, 26, 24559, -16612, 5194, 5301, 21, 14, 1529357216.354, 93, 0, 1024, 1024, 1024, 1024, 0, 6, 4050, 4081, 4078, 4105, 4070, 4075, 0, 1, 5700, -89.900, 0.000, -27.800, 0.000, 0.000, -0.600, 0.0, , , , , , 95, , , 32, 32, 32
37.0262805, -119.2351950, 1.300, 14:26:56.453, 10, 0.00, 0.42, 98, 0.400, -0.200, -26.700, 838, 100, 100, 26, 24559, -16612, 5194, 5301, 21, 14, 1529357216.453, 84, 0, 1024, 1024, 1024, 1024, 0, 6, 4050, 4081, 4078, 4105, 4070, 4075, 0, 1, 5800, -89.900, 0.000, -27.800, 0.000, 0.000, -0.800, 0.0, , , , , , 95, , , 32, 32, 32
37.0262806, -119.2351951, 1.400, 14:26:56.553, 10, 0.00, 0.42, 98, 0.500, -0.100, -27.000, 838, 100, 100, 26, 24559, -16612, 5194, 5301, 21, 14, 1529357216.554, 92, 0, 1024, 1024, 1024, 1024, 0, 6, 4050, 4081, 4078, 4105, 4070, 4075, 0, 1, 5900, -89.900, 0.000, -27.800, 0.000, 0.000, -0.900, 0.0, , , , , , 95, , , 32, 32, 32
37.0262806, -119.2351951, 1.600, 14:26:56.653, 11, 0.00, 0.41, 98, 0.500, 0.000, -27.200, 838, 100, 100, 26, 24559, -16612, 5194, 5301, 21, 14, 1529357216.654, 72, 0, 1024, 1024, 1024, 1024, 0, 6, 4050, 4081, 4078, 4105, 4070, 4075, 0, 1, 6000, -89.900, 0.000, -27.800, 0.000, 0.000, -1.100, 0.0, , , , , , 95, , , 32, 32, 32
37.0262806, -119.2351952, 1.700, 14:26:56.754, 11, 0.00, 0.41, 98, 0.600, 0.000, -27.400, 838, 100, 100, 26, 24382, -16100, 5194, 5301, 21, 14, 1529357216.754, 73, 0, 1024, 1024, 1024, 1024, 0, 6, 4042, 4065, 4071, 4079, 4052, 4073, 0, 1, 6100, -89.900, 0.000, -27.800, 0.000, 0.000, -1.300, 0.0, , , , , , 95, , , 32, 32, 32
37.0262807, -119.2351955, 1.900, 14:26:56.854, 11, 0.00, 0.39, 98, 0.800, 0.100, -27.500, 838, 100, 100, 26, 24382, -16100, 5194, 5301, 21, 14, 1529357216.854, 56, 0, 1024, 1024, 1024, 1024, 0, 6, 4042, 4065, 4071, 4079, 4052, 4073, 0, 1, 6200, -89.900, 0.000, -27.800, 0.000, 0.000, -1.500, 0.0, , , , , , 95, , , 32, 32, 32
37.0262808, -119.2351957, 2.000, 14:26:56.953, 11, 0.00, 0.38, 98, 1.100, 0.400, -27.500, 838, 100, 100, 26, 24382, -16100, 5194, 5301, 21, 14, 1529357216.954, 47, 0, 1024, 1024, 1024, 1024, 0, 6, 4042, 4065, 4071, 4079, 4052, 4073, 0, 1, 6300, -89.900, 0.000, -27.800, 0.000, 0.000, -1.700, 0.0, , , , , , 95, , , 32, 32, 32
37.0262808, -119.2351958, 2.300, 14:26:57.053, 12, 0.00, 0.38, 98, 1.400, 0.600, -27.400, 838, 100, 100, 26, 24382, -16100, 5194, 5301, 21, 14, 1529357217.054, 63, 0, 1024, 1024, 1024, 1024, 0, 6, 4042, 4065, 4071, 4079, 4052, 4073, 0, 1, 6400, -89.900, 0.000, -27.800, 0.000, 0.000, -2.000, 0.0, , , , , , 95, , , 32, 32, 32
37.0262809, -119.2351959, 2.500, 14:26:57.153, 12, 0.00, 0.38, 98, 1.500, 0.600, -27.200, 838, 100, 100, 26, 24382, -16100, 5194, 5301, 21, 14, 1529357217.154, 52, 0, 1024, 1024, 1024, 1024, 0, 6, 4042, 4065, 4071, 4079, 4052, 4073, 0, 1, 6500, -89.900, 0.000, -27.800, 0.000, 0.000, -2.200, 0.0, , , , , , 95, , , 32, 32, 32
37.0262808, -119.2351960, 2.700, 14:26:57.253, 10, 0.00, 0.38, 98, 1.500, 0.400, -27.000, 838, 100, 100, 26, 24382, -16100, 5194, 5301, 21, 14, 1529357217.254, 32, 0, 1024, 1024, 1024, 1024, 0, 6, 4042, 4065, 4071, 4079, 4052, 4073, 0, 1, 6600, -89.900, 0.000, -27.800, 0.000, 0.000, -2.400, 0.0, , , , , , 95, , , 32, 32, 32
37.0262808, -119.2351960, 3.000, 14:26:57.353, 10, 0.00, 0.39, 98, 1.600, 0.200, -26.800, 838, 100, 100, 26, 24382, -16100, 5194, 5301, 21, 14, 1529357217.354, 47, 0, 1024, 1024, 1024, 1024, 0, 6, 4042, 4065, 4071, 4079, 4052, 4073, 0, 1, 6700, -89.900, 0.000, -27.800, 0.000, 0.000, -2.600, 0.0, , , , , , 95, , , 32, 32, 32
37.0262808, -119.2351959, 3.300, 14:26:57.453, 10, 0.00, 0.39, 98, 1.400, 0.000, -26.700, 838, 100, 100, 26, 24382, -16100, 5194, 5301, 21, 14, 1529357217.454, 22, 0, 1024, 1024, 1024, 1024, 0, 6, 4042, 4065, 4071, 4079, 4052, 4073, 0, 1, 6800, -89.900, 0.000, -27.800, 0.000, 0.000, -2.800, 0.0, , , , , , 95, , , 32, 32, 32
37.0262808, -119.2351957, 3.600, 14:26:57.553, 10, 0.00, 0.38, 98, 0.800, -0.200, -26.800, 838, 100, 100, 26, 24382, -16100, 5194, 5301, 21, 14, 1529357217.554, 26, 0, 1024, 1024, 1024, 1024, 0, 6, 4042, 4065, 4071, 4079, 4052, 4073, 0, 1, 6900, -90.000, 0.000, -27.800, 0.000, 0.000, -2.900, 0.0, , , , , , 95, , , 32, 32, 32
37.0262808, -119.2351955, 4.000, 14:26:57.653, 9, 0.00, 0.39, 98, 0.000, -0.300, -26.900, 838, 100, 100, 26, 24382, -16100, 5194, 5301, 21, 14, 1529357217.654, 23, 0, 1024, 1024, 1024, 1024, 0, 6, 4042, 4065, 4071, 4079, 4052, 4073, 0, 1, 7000, -90.000, 0.000, -27.800, 0.000, 0.000, -3.000, 0.0, , , , , , 95, , , 32, 32, 32
37.0262808, -119.2351955, 4.000, 14:26:57.753, 9, 0.00, 0.39, 98, 0.000, -0.300, -26.900, 838, 100, 100, 26, 24382, -16100, 5194, 5301, 21, 14, 1529357217.754, 123, 0, 1024, 1024, 1024, 1024, 0, 6, 4042, 4065, 4071, 4079, 4052, 4073, 0, 1, 7100, -90.000, 0.000, -27.800, 0.000, 0.000, -3.000, 0.0, , , , , , 95, , , 32, 32, 32
37.0262807, -119.2351952, 4.300, 14:26:57.853, 9, 0.00, 0.40, 98, -0.600, -0.500, -27.100, 838, 100, 100, 26, 24332, -16100, 5194, 5301, 21, 14, 1529357217.854, 98, 0, 1024, 1024, 1024, 1024, 0, 6, 4003, 4040, 4022, 4057, 4036, 4016, 0, 1, 7200, -90.000, 0.000, -27.800, 0.000, 0.000, -3.000, 0.0, , , , , , 95, , , 32, 32, 32
37.0262808, -119.2351946, 5.000, 14:26:57.953, 11, 0.00, 0.40, 98, -1.100, -0.800, -27.400, 838, 100, 100, 26, 24332, -16100, 5194, 5301, 21, 14, 1529357217.954, 3, 0, 1024, 1024, 1024, 1024, 0, 6, 4003, 4040, 4022, 4057, 4036, 4016, 0, 1, 7300, -90.000, 0.000, -27.800, 0.000, 0.000, -3.000, 0.0, , , , , , 95, , , 32, 32, 32
37.0262808, -119.2351946, 5.000, 14:26:58.053, 11, 0.00, 0.40, 98, -1.100, -0.800, -27.400, 838, 100, 100, 26, 24332, -16100, 5194, 5301, 21, 14, 1529357218.054, 103, 0, 1024, 1024, 1024, 1024, 0, 6, 4003, 4040, 4022, 4057, 4036, 4016, 0, 1, 7400, -90.000, 0.000, -27.800, 0.000, 0.000, -3.000, 0.0, , , , , , 95, , , 32, 32, 32
37.0262806, -119.2351942, 5.600, 14:26:58.153, 9, 0.00, 0.43, 98, -0.800, -0.800, -27.600, 838, 100, 100, 26, 24332, -16100, 5194, 5301, 21, 14, 1529357218.154, 85, 0, 1024, 1024, 1024, 1024, 0, 6, 4003, 4040, 4022, 4057, 4036, 4016, 0, 1, 7500, -90.000, 0.000, -27.800, 0.000, 0.000, -3.100, 0.0, , , , , , 95, , , 32, 32, 32
37.0262806, -119.2351942, 6.000, 14:26:58.253, 12, 0.00, 0.43, 98, -0.200, -0.900, -27.600, 838, 100, 100, 26, 24332, -16100, 5194, 5301, 21, 14, 1529357218.254, 32, 0, 1024, 1024, 1024, 1024, 0, 6, 4003, 4040, 4022, 4057, 4036, 4016, 0, 1, 7600, -90.000, 0.000, -27.800, 0.000, 0.000, -3.100, 0.0, , , , , , 95, , , 32, 32, 32
37.0262806, -119.2351942, 6.300, 14:26:58.353, 12, 0.00, 0.43, 98, 0.000, -0.800, -27.600, 838, 100, 100, 26, 24332, -16100, 5194, 5301, 21, 14, 1529357218.354, 94, 0, 1024, 1024, 1024, 1024, 0, 6, 4003, 4040, 4022, 4057, 4036, 4016, 0, 1, 7700, -90.000, 0.000, -27.800, 0.000, 0.000, -3.100, 0.0, , , , , , 95, , , 32, 32, 32
37.0262809, -119.2351948, 7.000, 14:26:58.453, 12, 0.00, 0.39, 98, 0.600, 0.100, -27.500, 838, 100, 100, 26, 24332, -16100, 5194, 5301, 21, 14, 1529357218.454, 1, 0, 1024, 1024, 1024, 1024, 0, 6, 4003, 4040, 4022, 4057, 4036, 4016, 0, 1, 7800, -89.900, 0.000, -27.800, 0.000, 0.000, -3.100, 0.0, , , , , , 95, , , 32, 32, 32
37.0262809, -119.2351948, 7.000, 14:26:58.553, 12, 0.00, 0.39, 98, 0.600, 0.100, -27.500, 838, 100, 100, 26, 24332, -16100, 5194, 5301, 21, 14, 1529357218.554, 101, 0, 1024, 1024, 1024, 1024, 0, 6, 4003, 4040, 4022, 4057, 4036, 4016, 0, 1, 7900, -89.900, 0.000, -27.800, 0.000, 0.000, -3.100, 0.0, , , , , , 95, , , 32, 32, 32
37.0262810, -119.2351950, 7.300, 14:26:58.653, 12, 0.00, 0.37, 98, 1.000, 0.900, -27.400, 838, 100, 100, 26, 24332, -16100, 5194, 5301, 21, 14, 1529357218.654, 74, 0, 1024, 1024, 1024, 1024, 0, 6, 4003, 4040, 4022, 4057, 4036, 4016, 0, 1, 8000, -89.900, 0.000, -27.800, 0.000, 0.000, -3.100, 0.0, , , , , , 95, , , 32, 32, 32
37.0262811, -119.2351952, 7.700, 14:26:58.753, 12, 0.00, 0.35, 98, 1.200, 1.200, -27.400, 838, 100, 100, 26, 24332, -16100, 5194, 5301, 21, 14, 1529357218.754, 83, 0, 1024, 1024, 1024, 1024, 0, 6, 4003, 4040, 4022, 4057, 4036, 4016, 0, 1, 8100, -89.900, 0.000, -27.800, 0.000, 0.000, -3.000, 0.0, , , , , , 95, , , 32, 32, 32
37.0262812, -119.2351955, 8.000, 14:26:58.853, 13, 0.00, 0.34, 98, 1.200, 1.300, -27.300, 838, 100, 100, 26, 23844, -18285, 5194, 5301, 21, 14, 1529357218.854, 69, 0, 1024, 1024, 1024, 1024, 0, 6, 4003, 4040, 4022, 4057, 4036, 4016, 0, 1, 8200, -89.900, 0.000, -27.800, 0.000, 0.000, -3.000, 0.0, , , , , , 95, , , 32, 32, 32
37.0262814, -119.2351958, 8.300, 14:26:58.953, 13, 0.00, 0.32, 98, 1.400, 1.500, -27.200, 838, 100, 100, 26, 23844, -18285, 5194, 5301, 21, 14, 1529357218.954, 70, 0, 1024, 1024, 1024, 1024, 0, 6, 4003, 4040, 4022, 4057, 4036, 4016, 0, 1, 8300, -89.900, 0.000, -27.800, 0.000, 0.000, -2.900, 0.0, , , , , , 95, , , 32, 32, 32
37.0262815, -119.2351960, 8.600, 14:26:59.053, 13, 0.00, 0.32, 98, 1.500, 1.500, -27.200, 838, 100, 100, 26, 23844, -18285, 5194, 5301, 21, 14, 1529357219.054, 61, 0, 1024, 1024, 1024, 1024, 0, 6, 4003, 4040, 4022, 4057, 4036, 4016, 0, 1, 8400, -89.900, 0.000, -27.800, 0.000, 0.000, -2.900, 0.0, , , , , , 95, , , 32, 32, 32
37.0262815, -119.2351963, 9.000, 14:26:59.153, 13, 0.00, 0.31, 98, 1.600, 1.400, -27.200, 838, 100, 100, 26, 23844, -18285, 5194, 5301, 21, 14, 1529357219.153, 67, 0, 1024, 1024, 1024, 1024, 0, 6, 4003, 4040, 4022, 4057, 4036, 4016, 0, 1, 8500, -89.900, 0.000, -27.800, 0.000, 0.000, -2.900, 0.0, , , , , , 95, , , 32, 32, 32
37.0262816, -119.2351964, 9.300, 14:26:59.253, 12, 0.00, 0.31, 98, 1.700, 1.300, -27.100, 838, 100, 100, 26, 23844, -18285, 5194, 5301, 21, 14, 1529357219.253, 69, 0, 1024, 1024, 1024, 1024, 0, 6, 4003, 4040, 4022, 4057, 4036, 4016, 0, 1, 8600, -89.900, 0.000, -27.800, 0.000, 0.000, -2.900, 0.0, , , , , , 95, , , 32, 32, 32
37.0262816, -119.2351965, 9.600, 14:26:59.353, 12, 0.00, 0.30, 98, 1.700, 1.300, -27.100, 838, 100, 100, 26, 23844, -18285, 5194, 5301, 21, 14, 1529357219.353, 49, 0, 1024, 1024, 1024, 1024, 0, 6, 3987, 4017, 4010, 4005, 3967, 4004, 0, 1, 8700, -89.900, 0.000, -27.800, 0.000, 0.000, -3.000, 0.0, , , , , , 95, , , 32, 32, 32
37.0262816, -119.2351967, 10.000, 14:26:59.453, 13, 0.00, 0.31, 98, 1.500, 1.200, -27.200, 838, 100, 100, 26, 23844, -18285, 5194, 5301, 21, 14, 1529357219.453, 51, 0, 1024, 1024, 1024, 1024, 0, 6, 3987, 4017, 4010, 4005, 3967, 4004, 0, 1, 8800, -89.900, 0.000, -27.800, 0.000, 0.000, -2.900, 0.0, , , , , , 95, , , 32, 32, 32
37.0262817, -119.2351968, 10.300, 14:26:59.553, 13, 0.00, 0.31, 98, 1.500, 1.100, -27.200, 838, 100, 100, 26, 23844, -18285, 5194, 5301, 21, 14, 1529357219.553, 61, 0, 1024, 1024, 1024, 1024, 0, 6, 3987, 4017, 4010, 4005, 3967, 4004, 0, 1, 8900, -89.900, 0.000, -27.800, 0.000, 0.000, -2.900, 0.0, , , , , , 95, , , 32, 32, 32
37.0262816, -119.2351969, 10.600, 14:26:59.653, 13, 0.00, 0.32, 98, 1.500, 1.100, -27.300, 838, 100, 100, 26, 23844, -18285, 5194, 5301, 21, 14, 1529357219.654, 39, 0, 1024, 1024, 1024, 1024, 0, 6, 3987, 4017, 4010, 4005, 3967, 4004, 0, 1, 9000, -89.900, 0.000, -27.800, 0.000, 0.000, -2.800, 0.0, , , , , , 95, , , 32, 32, 32
37.0262815, -119.2351969, 10.900, 14:26:59.753, 13, 0.00, 0.32, 98, 1.500, 0.800, -27.300, 838, 100, 100, 26, 23844, -18285, 5194, 5301, 21, 14, 1529357219.753, 51, 0, 1024, 1024, 1024, 1024, 0, 6, 3987, 4017, 4010, 4005, 3967, 4004, 0, 1, 9100, -89.900, 0.000, -27.800, 0.000, 0.000, -2.800, 0.0, , , , , , 95, , , 32, 32, 32
37.0262815, -119.2351970, 11.200, 14:26:59.853, 13, 0.00, 0.34, 98, 1.400, 0.400, -27.300, 838, 100, 100, 26, 23844, -18285, 5194, 5301, 21, 14, 1529357219.853, 51, 0, 1024, 1024, 1024, 1024, 0, 6, 3987, 4017, 4010, 4005, 3967, 4004, 0, 1, 9200, -89.900, 0.000, -27.800, 0.000, 0.000, -2.900, 0.0, , , , , , 95, , , 32, 32, 32
37.0262814, -119.2351971, 11.500, 14:26:59.953, 13, 0.00, 0.35, 98, 1.100, 0.000, -27.300, 838, 100, 100, 26, 23844, -18285, 5194, 5301, 21, 14, 1529357219.954, 25, 0, 1024, 1024, 1024, 1024, 0, 6, 3987, 4017, 4010, 4005, 3967, 4004, 0, 1, 9300, -90.000, 0.000, -27.800, 0.000, 0.000, -2.900, 0.0, , , , , , 95, , , 32, 32, 32
37.0262813, -119.2351970, 11.800, 14:27:00.053, 13, 0.00, 0.35, 98, 0.900, -0.500, -27.400, 838, 100, 100, 26, 23844, -18285, 5194, 5301, 21, 14, 1529357220.053, 17, 0, 1024, 1024, 1024, 1024, 0, 6, 3987, 4017, 4010, 4005, 3967, 4004, 0, 1, 9400, -90.000, 0.000, -27.800, 0.000, 0.000, -2.800, 0.0, , , , , , 95, , , 32, 32, 32
37.0262812, -119.2351969, 12.100, 14:27:00.153, 13, 0.00, 0.36, 98, 0.800, -0.500, -27.400, 838, 100, 100, 26, 23844, -18285, 5194, 5301, 21, 14, 1529357220.153, 19, 0, 1024, 1024, 1024, 1024, 0, 6, 3987, 4017, 4010, 4005, 3967, 4004, 0, 1, 9500, -90.000, 0.000, -27.800, 0.000, 0.000, -2.800, 0.0, , , , , , 95, , , 32, 32, 32
37.0262811, -119.2351970, 12.400, 14:27:00.253, 13, 0.00, 0.37, 98, 0.800, -0.500, -27.500, 838, 100, 100, 26, 24100, -17688, 5141, 5301, 21, 14, 1529357220.253, 12, 0, 1024, 1024, 1024, 1024, 0, 6, 3999, 4018, 4025, 4041, 4006, 4022, 0, 1, 9600, -90.000, 0.000, -27.800, 0.000, 0.000, -2.800, 0.0, , , , , , 95, , , 32, 32, 32
37.0262810, -119.2351970, 12.700, 14:27:00.353, 13, 0.00, 0.39, 98, 1.000, -0.600, -27.500, 838, 100, 100, 26, 24100, -17688, 5141, 5301, 21, 14, 1529357220.353, 5, 0, 1024, 1024, 1024, 1024, 0, 6, 3999, 4018, 4025, 4041, 4006, 4022, 0, 1, 9700, -90.000, 0.000, -27.800, 0.000, 0.000, -2.800, 0.0, , , , , , 95, , , 32, 32, 32
37.0262809, -119.2351970, 13.000, 14:27:00.453, 13, 0.00, 0.40, 98, 1.300, -0.700, -27.500, 838, 100, 100, 26, 24100, -17688, 5141, 5301, 21, 14, 1529357220.453, 10, 0, 1024, 1024, 1024, 1024, 0, 6, 3999, 4018, 4025, 4041, 4006, 4022, 0, 1, 9800, -90.000, 0.000, -27.800, 0.000, 0.000, -2.800, 0.0, , , , , , 95, , , 32, 32, 32
37.0262808, -119.2351969, 13.300, 14:27:00.552, 13, 0.10, 0.40, 98, 1.200, -0.700, -27.400, 838, 100, 100, 26, 24100, -17688, 5141, 5301, 21, 14, 1529357220.553, 3, 0, 1024, 1024, 1024, 1024, 0, 6, 3999, 4018, 4025, 4041, 4006, 4022, 0, 1, 9899, -90.000, 0.000, -27.800, 0.000, 0.100, -2.800, 0.0, , , , , , 95, , , 32, 32, 32
37.0262807, -119.2351968, 13.600, 14:27:00.657, 13, 0.10, 0.41, 98, 1.000, -0.900, -27.300, 838, 100, 100, 26, 24100, -17688, 5141, 5301, 21, 14, 1529357220.658, 2, 0, 1024, 1024, 1024, 1024, 0, 6, 3999, 4018, 4025, 4041, 4006, 4022, 0, 1, 10004, -90.000, 0.000, -27.800, 0.000, 0.100, -2.800, 0.0, , , , , , 95, , , 32, 32, 32
37.0262806, -119.2351965, 14.300, 14:27:00.755, 13, 0.10, 0.42, 97, 0.500, -1.400, -27.100, 838, 100, 100, 26, 24100, -17688, 5141, 5301, 21, 14, 1529357220.755, 2, 0, 1024, 1024, 1024, 1024, 0, 6, 3999, 4018, 4025, 4041, 4006, 4022, 0, 1, 10101, -90.000, 0.000, -27.800, 0.000, 0.100, -2.800, 0.0, , , , , , 95, , , 32, 32, 32
37.0262806, -119.2351965, 14.300, 14:27:00.853, 13, 0.10, 0.42, 97, 0.500, -1.400, -27.100, 838, 100, 100, 26, 24100, -17688, 5141, 5301, 21, 14, 1529357220.853, 101, 0, 1024, 1024, 1024, 1024, 0, 6, 3999, 4018, 4025, 4041, 4006, 4022, 0, 1, 10200, -90.000, 0.000, -27.800, 0.000, 0.100, -2.800, 0.0, , , , , , 95, , , 32, 32, 32
37.0262805, -119.2351963, 14.600, 14:27:00.953, 13, 0.10, 0.42, 97, 0.000, -1.800, -27.000, 838, 100, 99, 26, 24100, -17688, 5141, 5301, 21, 14, 1529357220.953, 80, 0, 1024, 1024, 1024, 1024, 0, 6, 3999, 4018, 4025, 4041, 4006, 4022, 0, 1, 10300, -90.000, 0.000, -27.800, 0.000, 0.100, -2.800, 0.0, , , , , , 95, , , 32, 32, 32
37.0262805, -119.2351961, 14.900, 14:27:01.053, 13, 0.10, 0.42, 97, -0.400, -1.600, -27.000, 838, 100, 99, 26, 24100, -17688, 5141, 5301, 21, 14, 1529357221.053, 85, 0, 1024, 1024, 1024, 1024, 0, 6, 3999, 4018, 4025, 4041, 4006, 4022, 0, 1, 10400, -90.000, 0.000, -27.800, 0.000, 0.100, -2.900, 0.0, , , , , , 95, , , 32, 32, 32
37.0262805, -119.2351960, 15.200, 14:27:01.153, 13, 0.10, 0.42, 97, -0.600, -1.100, -27.100, 838, 100, 99, 26, 24100, -17688, 5141, 5301, 21, 14, 1529357221.153, 87, 0, 1024, 1024, 1024, 1024, 0, 6, 3999, 4018, 4025, 4041, 4006, 4022, 0, 1, 10500, -90.000, 0.000, -27.800, 0.000, 0.100, -2.800, 0.0, , , , , , 95, , , 32, 32, 32
37.0262804, -119.2351958, 15.500, 14:27:01.253, 13, 0.10, 0.43, 97, -0.700, -0.500, -27.200, 838, 100, 99, 26, 24100, -17688, 5141, 5301, 21, 14, 1529357221.253, 76, 0, 1024, 1024, 1024, 1024, 0, 6, 3999, 4018, 4025, 4041, 4006, 4022, 0, 1, 10600, -89.900, 0.000, -27.800, 0.000, 0.100, -2.700, 0.0, , , , , , 95, , , 32, 32, 32
37.0262803, -119.2351956, 15.800, 14:27:01.353, 13, 0.10, 0.44, 97, -0.800, -0.700, -27.300, 838, 100, 99, 27, 24051, -18042, 5141, 5301, 21, 14, 1529357221.353, 79, 0, 1024, 1024, 1024, 1024, 0, 6, 3984, 4006, 4017, 4028, 3995, 4017, 0, 1, 10700, -90.000, 0.000, -27.800, 0.000, 0.100, -2.700, 0.0, , , , , , 95, , , 32, 32, 32
37.0262803, -119.2351956, 15.800, 14:27:01.453, 13, 0.10, 0.44, 97, -0.800, -0.700, -27.300, 838, 100, 99, 27, 24051, -18042, 5141, 5301, 21, 14, 1529357221.454, 179, 0, 1024, 1024, 1024, 1024, 0, 6, 3984, 4006, 4017, 4028, 3995, 4017, 0, 1, 10800, -90.000, 0.000, -27.800, 0.000, 0.100, -2.700, 0.0, , , , , , 95, , , 32, 32, 32
37.0262803, -119.2351956, 15.800, 14:27:01.553, 13, 0.10, 0.44, 97, -0.800, -0.700, -27.300, 838, 100, 99, 27, 24051, -18042, 5141, 5301, 21, 14, 1529357221.553, 279, 0, 1024, 1024, 1024, 1024, 0, 6, 3984, 4006, 4017, 4028, 3995, 4017, 0, 1, 10900, -90.000, 0.000, -27.800, 0.000, 0.100, -2.700, 0.0, , , , , , 95, , , 32, 32, 32
37.0262801, -119.2351949, 16.700, 14:27:01.653, 13, 0.10, 0.47, 97, -1.200, -1.900, -27.500, 838, 100, 99, 27, 24051, -18042, 5141, 5301, 21, 14, 1529357221.653, 52, 0, 1024, 1024, 1024, 1024, 0, 6, 3984, 4006, 4017, 4028, 3995, 4017, 0, 1, 11000, -90.000, 0.000, -27.800, 0.000, 0.100, -2.600, 0.0, , , , , , 95, , , 32, 32, 32
37.0262800, -119.2351947, 17.000, 14:27:01.753, 13, 0.10, 0.48, 97, -1.400, -2.000, -27.500, 838, 100, 99, 27, 24051, -18042, 5141, 5301, 21, 14, 1529357221.753, 42, 0, 1024, 1024, 1024, 1024, 0, 6, 3984, 4006, 4017, 4028, 3995, 4017, 0, 1, 11100, -90.000, 0.000, -27.800, 0.000, 0.100, -2.600, 0.0, , , , , , 95, , , 32, 32, 32
37.0262799, -119.2351945, 17.300, 14:27:01.853, 13, 0.10, 0.49, 97, -1.400, -2.100, -27.400, 838, 100, 97, 27, 24051, -18042, 5141, 5301, 21, 14, 1529357221.853, 46, 0, 1024, 1024, 1024, 1024, 0, 6, 3984, 4006, 4017, 4028, 3995, 4017, 0, 1, 11200, -89.900, 0.000, -27.800, 0.000, 0.100, -2.700, 0.0, , , , , , 95, , , 32, 32, 32
37.0262799, -119.2351944, 17.600, 14:27:01.953, 13, 0.00, 0.50, 97, -1.100, -2.000, -27.300, 838, 100, 97, 27, 24051, -18042, 5141, 5301, 21, 14, 1529357221.953, 30, 0, 1024, 1024, 1024, 1024, 0, 6, 3984, 4006, 4017, 4028, 3995, 4017, 0, 1, 11300, -89.900, 0.000, -27.800, 0.000, 0.000, -2.700, 0.0, , , , , , 95, , , 32, 32, 32
37.0262798, -119.2351942, 17.900, 14:27:02.053, 13, 0.00, 0.51, 97, -1.200, -1.600, -27.300, 838, 100, 97, 27, 24051, -18042, 5141, 5301, 21, 14, 1529357222.053, 30, 0, 1024, 1024, 1024, 1024, 0, 6, 3984, 4006, 4017, 4028, 3995, 4017, 0, 1, 11400, -89.900, 0.000, -27.800, 0.000, 0.000, -2.700, 0.0, , , , , , 95, , , 32, 32, 32
37.0262798, -119.2351941, 18.200, 14:27:02.153, 13, 0.00, 0.52, 97, -1.200, -1.200, -27.200, 838, 100, 97, 27, 24051, -18042, 5141, 5301, 21, 14, 1529357222.153, 25, 0, 1024, 1024, 1024, 1024, 0, 6, 3984, 4006, 4017, 4028, 3995, 4017, 0, 1, 11500, -89.900, 0.000, -27.800, 0.000, 0.000, -2.700, 0.0, , , , , , 95, , , 32, 32, 32
37.0262798, -119.2351939, 18.500, 14:27:02.253, 13, 0.00, 0.52, 97, -1.200, -0.900, -27.300, 838, 100, 97, 27, 23967, -18507, 5141, 5301, 21, 14, 1529357222.253, 30, 0, 1024, 1024, 1024, 1024, 0, 6, 3976, 3993, 3999, 4019, 3980, 3991, 0, 1, 11600, -89.900, 0.000, -27.800, 0.000, 0.000, -2.700, 0.0, , , , , , 95, , , 32, 32, 32
37.0262798, -119.2351938, 18.800, 14:27:02.353, 13, 0.00, 0.52, 97, -1.500, -0.900, -27.300, 838, 100, 97, 27, 23967, -18507, 5141, 5301, 21, 14, 1529357222.353, 25, 0, 1024, 1024, 1024, 1024, 0, 6, 3976, 3993, 3999, 4019, 3980, 3991, 0, 1, 11700, -89.900, 0.000, -27.800, 0.000, 0.000, -2.800, 0.0, , , , , , 95, , , 32, 32, 32
37.0262797, -119.2351937, 19.100, 14:27:02.453, 13, 0.00, 0.53, 97, -1.600, -1.100, -27.300, 838, 100, 97, 27, 23967, -18507, 5141, 5301, 21, 14, 1529357222.453, 27, 0, 1024, 1024, 1024, 1024, 0, 6, 3976, 3993, 3999, 4019, 3980, 3991, 0, 1, 11800, -90.000, 0.000, -27.800, 0.000, 0.000, -2.800, 0.0, , , , , , 95, , , 32, 32, 32
37.0262797, -119.2351936, 19.400, 14:27:02.553, 13, 0.00, 0.54, 97, -1.700, -1.300, -27.300, 838, 100, 97, 27, 23967, -18507, 5141, 5301, 21, 14, 1529357222.553, 32, 0, 1024, 1024, 1024, 1024, 0, 6, 3976, 3993, 3999, 4019, 3980, 3991, 0, 1, 11900, -90.000, 0.000, -27.800, 0.000, 0.000, -2.800, 0.0, , , , , , 95, , , 32, 32, 32
37.0262796, -119.2351935, 19.700, 14:27:02.655, 13, 0.00, 0.55, 97, -1.300, -1.700, -27.400, 838, 100, 97, 27, 23967, -18507, 5141, 5301, 21, 14, 1529357222.655, 1, 0, 1024, 1024, 1024, 1024, 0, 6, 3976, 3993, 3999, 4019, 3980, 3991, 0, 1, 12002, -90.000, 0.000, -27.800, 0.000, 0.000, -2.800, 0.0, , , , , , 95, , , 32, 32, 32
37.0262796, -119.2351935, 19.700, 14:27:02.753, 13, 0.00, 0.55, 97, -1.300, -1.700, -27.400, 838, 100, 97, 27, 23967, -18507, 5141, 5301, 21, 14, 1529357222.753, 100, 0, 1024, 1024, 1024, 1024, 0, 6, 3976, 3993, 3999, 4019, 3980, 3991, 0, 1, 12100, -90.000, 0.000, -27.800, 0.000, 0.000, -2.800, 0.0, , , , , , 95, , , 32, 32, 32
37.0262795, -119.2351933, 20.300, 14:27:02.853, 13, 0.00, 0.57, 97, -1.100, -2.400, -27.300, 838, 100, 98, 27, 23967, -18507, 5141, 5301, 21, 14, 1529357222.853, 9, 0, 1024, 1024, 1024, 1024, 0, 6, 3976, 3993, 3999, 4019, 3980, 3991, 0, 1, 12200, -90.000, 0.000, -27.800, 0.000, 0.000, -2.700, 0.0, , , , , , 95, , , 32, 32, 32
37.0262794, -119.2351932, 20.600, 14:27:02.953, 13, 0.00, 0.58, 97, -1.300, -2.500, -27.300, 838, 100, 98, 27, 23967, -18507, 5141, 5301, 21, 14, 1529357222.953, 1, 0, 1024, 1024, 1024, 1024, 0, 6, 3976, 3993, 3999, 4019, 3980, 3991, 0, 1, 12300, -90.000, 0.000, -27.800, 0.000, 0.000, -2.700, 0.0, , , , , , 95, , , 32, 32, 32
37.0262794, -119.2351932, 20.900, 14:27:03.053, 13, 0.00, 0.59, 97, -1.300, -2.500, -27.300, 838, 100, 98, 27, 23967, -18507, 5141, 5301, 21, 14, 1529357223.054, 99, 0, 1024, 1024, 1024, 1024, 0, 6, 3976, 3993, 3999, 4019, 3980, 3991, 0, 1, 12400, -90.000, 0.000, -27.800, 0.000, 0.000, -2.700, 0.0, , , , , , 95, , , 32, 32, 32
37.0262794, -119.2351931, 21.500, 14:27:03.154, 13, 0.00, 0.59, 97, -1.200, -2.100, -27.400, 838, 100, 98, 27, 23967, -18507, 5141, 5301, 21, 14, 1529357223.154, 2, 0, 1024, 1024, 1024, 1024, 0, 6, 3976, 3993, 3999, 4019, 3980, 3991, 0, 1, 12501, -89.900, 0.000, -27.800, 0.000, 0.000, -2.700, 0.0, , , , , , 95, , , 32, 32, 32
37.0262794, -119.2351931, 21.500, 14:27:03.253, 13, 0.00, 0.59, 97, -1.200, -2.100, -27.400, 838, 100, 98, 27, 23967, -18507, 5141, 5301, 21, 14, 1529357223.254, 102, 0, 1024, 1024, 1024, 1024, 0, 6, 3976, 3993, 3999, 4019, 3980, 3991, 0, 1, 12600, -89.900, 0.000, -27.800, 0.000, 0.000, -2.700, 0.0, , , , , , 95, , , 32, 32, 32
37.0262794, -119.2351931, 21.800, 14:27:03.353, 13, 0.00, 0.59, 97, -1.200, -1.800, -27.400, 838, 100, 98, 27, 23863, -19878, 5141, 5301, 21, 14, 1529357223.353, 87, 0, 1024, 1024, 1024, 1024, 0, 6, 3953, 3975, 3990, 3999, 3963, 3987, 0, 1, 12700, -89.900, 0.000, -27.800, 0.000, 0.000, -2.700, 0.0, , , , , , 95, , , 32, 32, 32
37.0262794, -119.2351930, 22.100, 14:27:03.453, 13, 0.00, 0.59, 97, -1.100, -1.500, -27.500, 838, 100, 100, 27, 23863, -19878, 5141, 5301, 21, 14, 1529357223.453, 90, 0, 1024, 1024, 1024, 1024, 0, 6, 3953, 3975, 3990, 3999, 3963, 3987, 0, 1, 12800, -89.900, 0.000, -27.800, 0.000, 0.000, -2.700, 0.0, , , , , , 95, , , 32, 32, 32
37.0262794, -119.2351930, 22.400, 14:27:03.553, 13, 0.00, 0.59, 97, -1.200, -1.100, -27.500, 838, 100, 100, 27, 23863, -19878, 5141, 5301, 21, 14, 1529357223.553, 71, 0, 1024, 1024, 1024, 1024, 0, 6, 3953, 3975, 3990, 3999, 3963, 3987, 0, 1, 12900, -89.900, 0.000, -27.800, 0.000, 0.000, -2.700, 0.0, , , , , , 95, , , 32, 32, 32
37.0262795, -119.2351930, 22.700, 14:27:03.653, 13, 0.10, 0.58, 97, -1.500, -0.900, -27.500, 838, 100, 100, 27, 23863, -19878, 5141, 5301, 21, 14, 1529357223.654, 47, 0, 1024, 1024, 1024, 1024, 0, 6, 3953, 3975, 3990, 3999, 3963, 3987, 0, 1, 13000, -89.900, 0.000, -27.800, 0.100, 0.000, -2.700, 0.0, , , , , , 95, , , 32, 32, 32
37.0262796, -119.2351930, 23.000, 14:27:03.753, 13, 0.10, 0.57, 97, -1.600, -0.700, -27.500, 838, 100, 100, 27, 23863, -19878, 5141, 5301, 21, 14, 1529357223.753, 51, 0, 1024, 1024, 1024, 1024, 0, 6, 3953, 3975, 3990, 3999, 3963, 3987, 0, 1, 13100, -89.900, 0.000, -27.800, 0.100, 0.000, -2.700, 0.0, , , , , , 95, , , 32, 32, 32
37.0262796, -119.2351930, 23.300, 14:27:03.853, 13, 0.10, 0.57, 97, -1.900, -0.700, -27.500, 838, 100, 100, 27, 23863, -19878, 5141, 5301, 21, 14, 1529357223.853, 59, 0, 1024, 1024, 1024, 1024, 0, 6, 3953, 3975, 3990, 3999, 3963, 3987, 0, 1, 13200, -89.900, 0.000, -27.800, 0.100, 0.000, -2.700, 0.0, , , , , , 95, , , 32, 32, 32
37.0262797, -119.2351929, 23.600, 14:27:03.953, 13, 0.10, 0.57, 97, -1.900, -0.900, -27.400, 838, 100, 100, 27, 23863, -19878, 5141, 5301, 21, 14, 1529357223.953, 60, 0, 1024, 1024, 1024, 1024, 0, 6, 3953, 3975, 3990, 3999, 3963, 3987, 0, 1, 13300, -89.900, 0.000, -27.800, 0.100, 0.000, -2.700, 0.0, , , , , , 95, , , 32, 32, 32
37.0262797, -119.2351929, 23.800, 14:27:04.053, 13, 0.10, 0.56, 97, -1.800, -1.100, -27.500, 838, 100, 100, 27, 23863, -19878, 5141, 5301, 21, 14, 1529357224.053, 59, 0, 1024, 1024, 1024, 1024, 0, 6, 3953, 3975, 3990, 3999, 3963, 3987, 0, 1, 13400, -89.900, 0.000, -27.800, 0.100, 0.000, -2.700, 0.0, , , , , , 95, , , 32, 32, 32
37.0262798, -119.2351929, 24.100, 14:27:04.153, 13, 0.10, 0.56, 97, -1.500, -0.900, -27.500, 838, 100, 100, 27, 23863, -19878, 5141, 5301, 21, 14, 1529357224.153, 50, 0, 1024, 1024, 1024, 1024, 0, 6, 3953, 3975, 3990, 3999, 3963, 3987, 0, 1, 13500, -89.900, 0.000, -27.800, 0.100, 0.000, -2.700, 0.0, , , , , , 95, , , 32, 32, 32
37.0262798, -119.2351929, 24.400, 14:27:04.253, 13, 0.10, 0.55, 97, -1.600, -0.600, -27.400, 838, 100, 100, 27, 23800, -20123, 5141, 5301, 21, 14, 1529357224.253, 32, 0, 1024, 1024, 1024, 1024, 0, 6, 3953, 3975, 3990, 3999, 3963, 3987, 0, 1, 13600, -89.900, 0.000, -27.800, 0.100, 0.000, -2.700, 0.0, , , , , , 95, , , 32, 32, 32
37.0262799, -119.2351929, 24.700, 14:27:04.353, 13, 0.10, 0.54, 97, -1.900, -0.500, -27.300, 838, 100, 100, 27, 23800, -20123, 5141, 5301, 21, 14, 1529357224.353, 48, 0, 1024, 1024, 1024, 1024, 0, 6, 3953, 3975, 3990, 3999, 3963, 3987, 0, 1, 13700, -89.900, 0.000, -27.800, 0.100, 0.000, -2.700, 0.0, , , , , , 95, , , 32, 32, 32
37.0262800, -119.2351928, 25.000, 14:27:04.453, 13, 0.10, 0.54, 97, -2.300, -0.300, -27.200, 838, 100, 100, 27, 23800, -20123, 5141, 5301, 21, 14, 1529357224.453, 33, 0, 1024, 1024, 1024, 1024, 0, 6, 3953, 3975, 3990, 3999, 3963, 3987, 0, 1, 13800, -89.900, 0.000, -27.800, 0.100, 0.000, -2.700, 0.0, , , , , , 95, , , 32, 32, 32
37.0262801, -119.2351928, 25.300, 14:27:04.553, 13, 0.10, 0.53, 97, -2.700, 0.000, -27.200, 838, 100, 100, 27, 23800, -20123, 5141, 5301, 21, 14, 1529357224.553, 38, 0, 1024, 1024, 1024, 1024, 0, 6, 3953, 3975, 3990, 3999, 3963, 3987, 0, 1, 13900, -89.900, 0.000, -27.800, 0.100, 0.000, -2.700, 0.0, , , , , , 95, , , 32, 32, 32
37.0262802, -119.2351927, 25.600, 14:27:04.652, 13, 0.10, 0.52, 97, -2.800, 0.100, -27.100, 838, 100, 100, 27, 23800, -20123, 5141, 5301, 21, 14, 1529357224.653, 6, 0, 1024, 1024, 1024, 1024, 0, 6, 3953, 3975, 3990, 3999, 3963, 3987, 0, 1, 13999, -89.900, 0.000, -27.800, 0.100, 0.000, -2.700, 0.0, , , , , , 95, , , 32, 32, 32
37.0262803, -119.2351927, 25.900, 14:27:04.753, 13, 0.10, 0.52, 97, -2.700, 0.200, -27.100, 838, 100, 100, 27, 23800, -20123, 5141, 5301, 21, 14, 1529357224.753, 10, 0, 1024, 1024, 1024, 1024, 0, 6, 3942, 3966, 3974, 3991, 3957, 3969, 0, 1, 14100, -89.900, 0.000, -27.800, 0.100, 0.000, -2.600, 0.0, , , , , , 95, , , 32, 32, 32
37.0262803, -119.2351927, 26.200, 14:27:04.865, 13, 0.00, 0.51, 97, -2.700, 0.100, -27.200, 838, 100, 100, 27, 23800, -20123, 5141, 5301, 21, 14, 1529357224.865, 2, 0, 1024, 1024, 1024, 1024, 0, 6, 3942, 3966, 3974, 3991, 3957, 3969, 0, 1, 14212, -89.900, 0.000, -27.800, 0.000, 0.000, -2.700, 0.0, , , , , , 95, , , 32, 32, 32
37.0262803, -119.2351927, 26.500, 14:27:04.954, 13, 0.00, 0.51, 97, -2.800, 0.000, -27.200, 838, 100, 100, 27, 23800, -20123, 5141, 5301, 21, 14, 1529357224.954, 2, 0, 1024, 1024, 1024, 1024, 0, 6, 3942, 3966, 3974, 3991, 3957, 3969, 0, 1, 14301, -89.900, 0.000, -27.800, 0.000, 0.000, -2.800, 0.0, , , , , , 95, , , 32, 32, 32
37.0262804, -119.2351926, 26.800, 14:27:05.053, 13, 0.00, 0.51, 97, -3.000, -0.100, -27.200, 838, 100, 100, 27, 23800, -20123, 5141, 5301, 21, 14, 1529357225.053, 96, 0, 1024, 1024, 1024, 1024, 0, 6, 3942, 3966, 3974, 3991, 3957, 3969, 0, 1, 14400, -89.900, 0.000, -27.800, 0.000, 0.000, -2.800, 0.0, , , , , , 95, , , 32, 32, 32
37.0262804, -119.2351926, 27.000, 14:27:05.153, 13, 0.00, 0.51, 97, -3.000, -0.100, -27.300, 838, 100, 100, 27, 23800, -20123, 5141, 5301, 21, 14, 1529357225.153, 80, 0, 1024, 1024, 1024, 1024, 0, 6, 3942, 3966, 3974, 3991, 3957, 3969, 0, 1, 14500, -89.900, 0.000, -27.800, 0.000, 0.000, -2.800, 0.0, , , , , , 95, , , 32, 32, 32
37.0262804, -119.2351926, 27.300, 14:27:05.252, 13, 0.00, 0.50, 97, -3.000, -0.200, -27.400, 838, 100, 100, 27, 23800, -20123, 5141, 5301, 21, 14, 1529357225.253, 85, 0, 1024, 1024, 1024, 1024, 0, 6, 3942, 3966, 3974, 3991, 3957, 3969, 0, 1, 14599, -89.900, 0.000, -27.800, 0.000, 0.000, -2.700, 0.0, , , , , , 95, , , 32, 32, 32
37.0262805, -119.2351926, 27.600, 14:27:05.353, 13, 0.00, 0.50, 97, -2.700, -0.500, -27.500, 838, 100, 100, 27, 23800, -20123, 5141, 5301, 21, 14, 1529357225.354, 75, 0, 1024, 1024, 1024, 1024, 0, 6, 3942, 3966, 3974, 3991, 3957, 3969, 0, 1, 14700, -90.000, 0.000, -27.800, 0.000, 0.000, -2.700, 0.0, , , , , , 95, , , 32, 32, 32
37.0262804, -119.2351927, 27.900, 14:27:05.453, 13, 0.00, 0.50, 97, -2.400, -0.700, -27.700, 838, 100, 100, 27, 23800, -20123, 5141, 5301, 21, 14, 1529357225.453, 81, 0, 1024, 1024, 1024, 1024, 0, 6, 3942, 3966, 3974, 3991, 3957, 3969, 0, 1, 14800, -89.900, 0.000, -27.800, 0.000, 0.000, -2.800, 0.0, , , , , , 95, , , 32, 32, 32
37.0262804, -119.2351927, 28.200, 14:27:05.553, 13, 0.00, 0.50, 97, -2.100, -0.700, -27.700, 838, 100, 100, 27, 23800, -20123, 5141, 5301, 21, 14, 1529357225.554, 71, 0, 1024, 1024, 1024, 1024, 0, 6, 3942, 3966, 3974, 3991, 3957, 3969, 0, 1, 14900, -90.000, 0.000, -27.800, 0.000, 0.000, -2.800, 0.0, , , , , , 95, , , 32, 32, 32
37.0262804, -119.2351927, 28.500, 14:27:05.653, 13, 0.00, 0.50, 97, -1.800, -0.800, -27.600, 838, 100, 100, 27, 23800, -20123, 5141, 5301, 21, 14, 1529357225.654, 64, 0, 1024, 1024, 1024, 1024, 0, 6, 3942, 3966, 3974, 3991, 3957, 3969, 0, 1, 15000, -89.900, 0.000, -27.800, 0.000, 0.000, -2.800, 0.0, , , , , , 95, , , 32, 32, 32
37.0262804, -119.2351927, 28.800, 14:27:05.753, 13, 0.00, 0.50, 97, -1.600, -0.900, -27.500, 838, 100, 100, 27, 23800, -20123, 5141, 5301, 21, 14, 1529357225.753, 54, 0, 1024, 1024, 1024, 1024, 0, 6, 3942, 3966, 3974, 3991, 3957, 3969, 0, 1, 15100, -89.900, 0.000, -27.800, 0.000, 0.000, -2.700, 0.0, , , , , , 95, , , 32, 32, 32
37.0262804, -119.2351928, 29.100, 14:27:05.853, 13, 0.00, 0.50, 97, -1.800, -0.600, -27.400, 838, 100, 100, 27, 23707, -21273, 5141, 5301, 21, 14, 1529357225.853, 51, 0, 1024, 1024, 1024, 1024, 0, 6, 3915, 3950, 3965, 3976, 3923, 3944, 0, 1, 15200, -89.900, 0.000, -27.800, 0.000, 0.000, -2.800, 0.0, , , , , , 95, , , 32, 32, 32
37.0262804, -119.2351928, 29.300, 14:27:05.953, 13, 0.00, 0.50, 97, -2.300, -0.500, -27.300, 838, 100, 100, 27, 23707, -21273, 5141, 5301, 21, 14, 1529357225.953, 61, 0, 1024, 1024, 1024, 1024, 0, 6, 3915, 3950, 3965, 3976, 3923, 3944, 0, 1, 15300, -89.900, 0.000, -27.800, 0.000, 0.000, -2.700, 0.0, , , , , , 95, , , 32, 32, 32
37.0262804, -119.2351928, 29.600, 14:27:06.053, 13, 0.00, 0.50, 97, -2.500, -0.600, -27.200, 838, 100, 100, 27, 23707, -21273, 5141, 5301, 21, 14, 1529357226.053, 62, 0, 1024, 1024, 1024, 1024, 0, 6, 3915, 3950, 3965, 3976, 3923, 3944, 0, 1, 15400, -89.900, 0.000, -27.800, 0.000, 0.000, -2.800, 0.0, , , , , , 95, , , 32, 32, 32
37.0262804, -119.2351928, 29.900, 14:27:06.153, 13, 0.00, 0.50, 97, -2.400, -0.600, -27.200, 838, 100, 100, 27, 23707, -21273, 5141, 5301, 21, 14, 1529357226.153, 70, 0, 1024, 1024, 1024, 1024, 0, 6, 3915, 3950, 3965, 3976, 3923, 3944, 0, 1, 15500, -89.900, 0.000, -27.800, 0.000, 0.000, -2.900, 0.0, , , , , , 95, , , 32, 32, 32
37.0262804, -119.2351929, 30.200, 14:27:06.253, 13, 0.00, 0.49, 97, -2.300, -0.300, -27.200, 838, 100, 100, 27, 23707, -21273, 5141, 5301, 21, 14, 1529357226.253, 36, 0, 1024, 1024, 1024, 1024, 0, 6, 3915, 3950, 3965, 3976, 3923, 3944, 0, 1, 15600, -89.900, 0.000, -27.800, 0.000, 0.000, -2.900, 0.0, , , , , , 95, , , 32, 32, 32
37.0262805, -119.2351930, 30.500, 14:27:06.353, 13, 0.00, 0.48, 97, -2.000, -0.100, -27.200, 838, 100, 100, 27, 23707, -21273, 5141, 5301, 21, 14, 1529357226.353, 50, 0, 1024, 1024, 1024, 1024, 0, 6, 3915, 3950, 3965, 3976, 3923, 3944, 0, 1, 15700, -89.900, 0.000, -27.800, 0.000, 0.000, -2.900, 0.0, , , , , , 95, , , 32, 32, 32
37.0262805, -119.2351930, 30.800, 14:27:06.453, 13, 0.00, 0.48, 97, -2.000, -0.100, -27.200, 838, 100, 100, 27, 23707, -21273, 5141, 5301, 21, 14, 1529357226.453, 43, 0, 1024, 1024, 1024, 1024, 0, 6, 3915, 3950, 3965, 3976, 3923, 3944, 0, 1, 15800, -89.900, 0.000, -27.800, 0.000, 0.000, -2.900, 0.0, , , , , , 95, , , 32, 32, 32
37.0262805, -119.2351931, 31.100, 14:27:06.553, 13, 0.00, 0.48, 97, -1.900, -0.300, -27.300, 838, 100, 100, 27, 23707, -21273, 5141, 5301, 21, 14, 1529357226.553, 35, 0, 1024, 1024, 1024, 1024, 0, 6, 3915, 3950, 3965, 3976, 3923, 3944, 0, 1, 15900, -89.900, 0.000, -27.800, 0.000, 0.000, -2.900, 0.0, , , , , , 95, , , 32, 32, 32
37.0262805, -119.2351931, 31.400, 14:27:06.653, 13, 0.00, 0.48, 97, -1.700, -0.400, -27.400, 838, 100, 100, 27, 23707, -21273, 5141, 5301, 21, 14, 1529357226.653, 41, 0, 1024, 1024, 1024, 1024, 0, 6, 3915, 3950, 3965, 3976, 3923, 3944, 0, 1, 16000, -89.900, 0.000, -27.800, 0.000, 0.000, -2.900, 0.0, , , , , , 95, , , 32, 32, 32
37.0262805, -119.2351932, 31.700, 14:27:06.753, 13, 0.00, 0.47, 97, -1.800, -0.200, -27.600, 838, 100, 100, 27, 23535, -22573, 5141, 5301, 21, 14, 1529357226.753, 10, 0, 1024, 1024, 1024, 1024, 0, 6, 3895, 3918, 3936, 3950, 3901, 3932, 0, 1, 16100, -89.900, 0.000, -27.800, 0.000, 0.000, -2.900, 0.0, , , , , , 95, , , 32, 32, 32
37.0262804, -119.2351932, 32.000, 14:27:06.853, 13, 0.00, 0.48, 97, -1.600, -0.200, -27.800, 838, 100, 100, 27, 23535, -22573, 5141, 5301, 21, 14, 1529357226.853, 16, 0, 1024, 1024, 1024, 1024, 0, 6, 3895, 3918, 3936, 3950, 3901, 3932, 0, 1, 16199, -89.900, 0.000, -27.800, 0.000, 0.000, -2.900, 0.0, , , , , , 95, , , 32, 32, 32
37.0262804, -119.2351932, 32.300, 14:27:06.953, 13, 0.00, 0.48, 97, -1.500, 0.000, -27.900, 838, 100, 100, 27, 23535, -22573, 5141, 5301, 21, 14, 1529357226.953, 6, 0, 1024, 1024, 1024, 1024, 0, 6, 3895, 3918, 3936, 3950, 3901, 3932, 0, 1, 16300, -89.900, 0.000, -27.800, 0.000, 0.000, -2.800, 0.0, , , , , , 95, , , 32, 32, 32
37.0262804, -119.2351932, 32.600, 14:27:07.053, 13, 0.00, 0.48, 97, -2.000, 0.100, -27.800, 838, 100, 100, 27, 23535, -22573, 5141, 5301, 21, 14, 1529357227.053, 22, 0, 1024, 1024, 1024, 1024, 0, 6, 3895, 3918, 3936, 3950, 3901, 3932, 0, 1, 16400, -89.900, 0.000, -27.800, 0.000, 0.000, -2.800, 0.0, , , , , , 95, , , 32, 32, 32
37.0262804, -119.2351932, 32.600, 14:27:07.153, 13, 0.00, 0.48, 97, -2.000, 0.100, -27.800, 838, 100, 100, 27, 23535, -22573, 5141, 5301, 21, 14, 1529357227.153, 122, 0, 1024, 1024, 1024, 1024, 0, 6, 3895, 3918, 3936, 3950, 3901, 3932, 0, 1, 16500, -89.900, 0.000, -27.800, 0.000, 0.000, -2.800, 0.0, , , , , , 95, , , 32, 32, 32
37.0262802, -119.2351933, 33.400, 14:27:07.253, 13, 0.00, 0.50, 97, -2.200, -0.400, -27.200, 838, 100, 100, 27, 23535, -22573, 5141, 5301, 21, 14, 1529357227.253, 5, 0, 1024, 1024, 1024, 1024, 0, 6, 3895, 3918, 3936, 3950, 3901, 3932, 0, 1, 16600, -89.900, 0.000, -27.800, 0.000, 0.000, -2.800, 0.0, , , , , , 95, , , 32, 32, 32
37.0262802, -119.2351933, 33.700, 14:27:07.355, 13, 0.00, 0.50, 97, -2.200, -0.400, -27.100, 838, 100, 99, 27, 23535, -22573, 5141, 5301, 21, 14, 1529357227.355, 2, 0, 1024, 1024, 1024, 1024, 0, 6, 3895, 3918, 3936, 3950, 3901, 3932, 0, 1, 16702, -89.900, 0.000, -27.800, 0.000, 0.000, -2.900, 0.0, , , , , , 95, , , 32, 32, 32
37.0262802, -119.2351933, 33.700, 14:27:07.453, 13, 0.00, 0.50, 97, -2.200, -0.400, -27.100, 838, 100, 99, 27, 23535, -22573, 5141, 5301, 21, 14, 1529357227.453, 100, 0, 1024, 1024, 1024, 1024, 0, 6, 3895, 3918, 3936, 3950, 3901, 3932, 0, 1, 16800, -89.900, 0.000, -27.800, 0.000, 0.000, -2.900, 0.0, , , , , , 95, , , 32, 32, 32
37.0262801, -119.2351934, 34.000, 14:27:07.553, 13, 0.00, 0.50, 97, -2.200, -0.500, -27.200, 838, 100, 99, 27, 23535, -22573, 5141, 5301, 21, 14, 1529357227.553, 91, 0, 1024, 1024, 1024, 1024, 0, 6, 3895, 3918, 3936, 3950, 3901, 3932, 0, 1, 16900, -90.000, 0.000, -27.800, 0.000, 0.000, -2.900, 0.0, , , , , , 95, , , 32, 32, 32
37.0262801, -119.2351935, 34.300, 14:27:07.653, 13, 0.00, 0.50, 97, -2.000, -0.700, -27.400, 838, 100, 99, 27, 23535, -22573, 5141, 5301, 21, 14, 1529357227.653, 82, 0, 1024, 1024, 1024, 1024, 0, 6, 3895, 3918, 3936, 3950, 3901, 3932, 0, 1, 17000, -90.000, 0.000, -27.800, 0.000, 0.000, -2.800, 0.0, , , , , , 95, , , 32, 32, 32
37.0262801, -119.2351935, 34.600, 14:27:07.753, 13, 0.00, 0.50, 97, -1.800, -0.700, -27.600, 838, 100, 99, 27, 23535, -22573, 5141, 5301, 21, 14, 1529357227.753, 82, 0, 1024, 1024, 1024, 1024, 0, 6, 3895, 3918, 3936, 3950, 3901, 3932, 0, 1, 17100, -89.900, 0.000, -27.800, 0.000, 0.000, -2.800, 0.0, , , , , , 95, , , 32, 32, 32
37.0262801, -119.2351936, 34.900, 14:27:07.853, 13, 0.00, 0.50, 97, -1.400, -0.300, -27.800, 838, 100, 99, 27, 23502, -22607, 5141, 5301, 21, 14, 1529357227.853, 76, 0, 1024, 1024, 1024, 1024, 0, 6, 3883, 3910, 3927, 3942, 3892, 3926, 0, 1, 17200, -89.900, 0.000, -27.800, 0.000, 0.000, -2.800, 0.0, , , , , , 95, , , 32, 32, 32
37.0262801, -119.2351937, 35.100, 14:27:07.953, 13, 0.10, 0.50, 97, -1.500, 0.100, -27.800, 838, 100, 99, 27, 23502, -22607, 5141, 5301, 21, 14, 1529357227.953, 70, 0, 1024, 1024, 1024, 1024, 0, 6, 3883, 3910, 3927, 3942, 3892, 3926, 0, 1, 17300, -89.900, 0.000, -27.800, 0.100, 0.000, -2.800, 0.0, , , , , , 95, , , 32, 32, 32
37.0262801, -119.2351938, 35.400, 14:27:08.053, 13, 0.10, 0.49, 97, -1.600, 0.500, -27.800, 838, 100, 99, 27, 23502, -22607, 5141, 5301, 21, 14, 1529357228.053, 49, 0, 1024, 1024, 1024, 1024, 0, 6, 3883, 3910, 3927, 3942, 3892, 3926, 0, 1, 17400, -89.900, 0.000, -27.800, 0.100, 0.000, -2.900, 0.0, , , , , , 95, , , 32, 32, 32
37.0262802, -119.2351939, 35.700, 14:27:08.153, 13, 0.10, 0.48, 97, -1.700, 0.700, -27.800, 838, 100, 99, 27, 23502, -22607, 5141, 5301, 21, 14, 1529357228.153, 41, 0, 1024, 1024, 1024, 1024, 0, 6, 3883, 3910, 3927, 3942, 3892, 3926, 0, 1, 17500, -89.900, 0.000, -27.800, 0.100, 0.000, -3.000, 0.0, , , , , , 95, , , 32, 32, 32
37.0262802, -119.2351940, 36.000, 14:27:08.252, 13, 0.10, 0.47, 97, -1.900, 0.800, -27.800, 838, 100, 99, 27, 23502, -22607, 5141, 5301, 21, 14, 1529357228.252, 57, 0, 1024, 1024, 1024, 1024, 0, 6, 3883, 3910, 3927, 3942, 3892, 3926, 0, 1, 17599, -89.900, 0.000, -27.800, 0.100, 0.000, -2.900, 0.0, , , , , , 95, , , 32, 32, 32
37.0262802, -119.2351942, 36.300, 14:27:08.353, 13, 0.10, 0.47, 97, -1.700, 0.600, -27.800, 838, 100, 99, 27, 23502, -22607, 5141, 5301, 21, 14, 1529357228.353, 59, 0, 1024, 1024, 1024, 1024, 0, 6, 3883, 3910, 3927, 3942, 3892, 3926, 0, 1, 17700, -89.900, 0.000, -27.800, 0.100, 0.000, -2.900, 0.0, , , , , , 95, , , 32, 32, 32
37.0262803, -119.2351943, 36.600, 14:27:08.453, 13, 0.10, 0.46, 97, -1.400, 1.200, -27.900, 838, 100, 99, 27, 23502, -22607, 5141, 5301, 21, 14, 1529357228.453, 52, 0, 1024, 1024, 1024, 1024, 0, 6, 3883, 3910, 3927, 3942, 3892, 3926, 0, 1, 17800, -89.900, 0.000, -27.800, 0.100, 0.000, -2.900, 0.0, , , , , , 95, , , 32, 32, 32
37.0262803, -119.2351944, 36.800, 14:27:08.553, 13, 0.14, 0.45, 97, -1.200, 1.600, -28.000, 838, 100, 99, 27, 23502, -22607, 5141, 5301, 21, 14, 1529357228.553, 42, 0, 1024, 1024, 1024, 1024, 0, 6, 3883, 3910, 3927, 3942, 3892, 3926, 0, 1, 17900, -89.900, 0.000, -27.800, 0.100, -0.100, -2.900, 0.0, , , , , , 95, , , 32, 32, 32
37.0262804, -119.2351946, 37.100, 14:27:08.653, 13, 0.14, 0.44, 97, -1.100, 1.600, -27.900, 838, 100, 99, 27, 23502, -22607, 5141, 5301, 21, 14, 1529357228.653, 21, 0, 1024, 1024, 1024, 1024, 0, 6, 3883, 3910, 3927, 3942, 3892, 3926, 0, 1, 18000, -89.900, 0.000, -27.800, 0.100, -0.100, -3.000, 0.0, , , , , , 95, , , 32, 32, 32
37.0262804, -119.2351948, 37.400, 14:27:08.753, 13, 0.10, 0.44, 97, -1.100, 1.700, -27.800, 838, 100, 99, 27, 23502, -22607, 5141, 5301, 21, 14, 1529357228.753, 30, 0, 1024, 1024, 1024, 1024, 0, 6, 3883, 3910, 3927, 3942, 3892, 3926, 0, 1, 18100, -89.900, 0.000, -27.800, 0.000, -0.100, -3.000, 0.0, , , , , , 95, , , 32, 32, 32
37.0262804, -119.2351949, 37.700, 14:27:08.853, 13, 0.10, 0.44, 97, -1.000, 1.500, -27.700, 838, 100, 99, 27, 23502, -22607, 5141, 5301, 21, 14, 1529357228.853, 21, 0, 1024, 1024, 1024, 1024, 0, 6, 3883, 3910, 3927, 3942, 3892, 3926, 0, 1, 18200, -89.900, 0.000, -27.800, 0.000, -0.100, -3.000, 0.0, , , , , , 95, , , 32, 32, 32
37.0262804, -119.2351950, 38.000, 14:27:08.953, 13, 0.00, 0.44, 97, -0.500, 1.400, -27.400, 838, 100, 99, 27, 23502, -22607, 5141, 5301, 21, 14, 1529357228.953, 12, 0, 1024, 1024, 1024, 1024, 0, 6, 3883, 3910, 3927, 3942, 3892, 3926, 0, 1, 18300, -89.900, 0.000, -27.800, 0.000, 0.000, -2.900, 0.0, , , , , , 95, , , 32, 32, 32
37.0262804, -119.2351951, 38.300, 14:27:09.053, 13, 0.00, 0.44, 97, 0.000, 1.500, -27.200, 838, 100, 99, 27, 23502, -22607, 5141, 5301, 21, 14, 1529357229.053, 21, 0, 1024, 1024, 1024, 1024, 0, 6, 3883, 3910, 3927, 3942, 3892, 3926, 0, 1, 18400, -89.900, 0.000, -27.800, 0.000, 0.000, -2.900, 0.0, , , , , , 95, , , 32, 32, 32
37.0262804, -119.2351951, 38.300, 14:27:09.153, 13, 0.00, 0.44, 97, 0.000, 1.500, -27.200, 838, 100, 99, 27, 23502, -22607, 5141, 5301, 21, 14, 1529357229.153, 121, 0, 1024, 1024, 1024, 1024, 0, 6, 3883, 3910, 3927, 3942, 3892, 3926, 0, 1, 18500, -89.900, 0.000, -27.800, 0.000, 0.000, -2.900, 0.0, , , , , , 95, , , 32, 32, 32
37.0262804, -119.2351952, 38.600, 14:27:09.253, 13, 0.00, 0.44, 97, 0.000, 1.600, -26.900, 838, 100, 99, 27, 23502, -22607, 5141, 5301, 21, 14, 1529357229.253, 92, 0, 1024, 1024, 1024, 1024, 0, 6, 3883, 3910, 3927, 3942, 3892, 3926, 0, 1, 18600, -89.900, 0.000, -27.800, 0.000, 0.000, -3.100, 0.0, , , , , , 95, , , 32, 32, 32
37.0262804, -119.2351953, 39.200, 14:27:09.353, 13, 0.00, 0.43, 97, -0.300, 1.200, -26.700, 838, 100, 99, 27, 23413, -23435, 5141, 5301, 21, 14, 1529357229.353, 89, 0, 1024, 1024, 1024, 1024, 0, 6, 3874, 3897, 3908, 3935, 3879, 3906, 0, 1, 18700, -89.900, 0.000, -27.800, 0.000, 0.000, -3.100, 0.0, , , , , , 95, , , 32, 32, 32
37.0262804, -119.2351953, 39.500, 14:27:09.453, 13, 0.00, 0.43, 97, -0.900, 1.300, -26.700, 838, 100, 98, 27, 23413, -23435, 5141, 5301, 21, 14, 1529357229.453, 91, 0, 1024, 1024, 1024, 1024, 0, 6, 3874, 3897, 3908, 3935, 3879, 3906, 0, 1, 18800, -89.900, 0.000, -27.800, 0.000, 0.000, -3.100, 0.0, , , , , , 95, , , 32, 32, 32
37.0262804, -119.2351954, 39.800, 14:27:09.553, 13, 0.00, 0.43, 97, -1.200, 1.400, -26.700, 838, 100, 98, 27, 23413, -23435, 5141, 5301, 21, 14, 1529357229.554, 93, 0, 1024, 1024, 1024, 1024, 0, 6, 3874, 3897, 3908, 3935, 3879, 3906, 0, 1, 18900, -89.900, 0.000, -27.800, 0.000, 0.000, -3.200, 0.0, , , , , , 95, , , 32, 32, 32
37.0262804, -119.2351955, 40.100, 14:27:09.653, 13, 0.00, 0.43, 97, -1.100, 1.800, -26.700, 838, 100, 98, 27, 23413, -23435, 5141, 5301, 21, 14, 1529357229.653, 84, 0, 1024, 1024, 1024, 1024, 0, 6, 3874, 3897, 3908, 3935, 3879, 3906, 0, 1, 19000, -89.900, 0.000, -27.800, 0.000, 0.000, -3.200, 0.0, , , , , , 95, , , 32, 32, 32
37.0262804, -119.2351955, 40.400, 14:27:09.753, 13, 0.00, 0.43, 97, -0.900, 1.900, -27.000, 838, 100, 98, 27, 23413, -23435, 5141, 5301, 21, 14, 1529357229.753, 88, 0, 1024, 1024, 1024, 1024, 0, 6, 3874, 3897, 3908, 3935, 3879, 3906, 0, 1, 19100, -89.900, 0.000, -27.800, 0.000, 0.000, -3.200, 0.0, , , , , , 95, , , 32, 32, 32
37.0262804, -119.2351956, 40.800, 14:27:09.853, 13, 0.00, 0.43, 97, -0.700, 1.900, -27.300, 838, 100, 98, 27, 23299, -23876, 5141, 5301, 21, 14, 1529357229.853, 78, 0, 1024, 1024, 1024, 1024, 0, 6, 3874, 3897, 3908, 3935, 3879, 3906, 0, 1, 19200, -89.900, 0.000, -27.800, 0.000, 0.000, -3.200, 0.0, , , , , , 95, , , 32, 32, 32
37.0262803, -119.2351957, 41.100, 14:27:09.953, 13, 0.00, 0.44, 97, -0.500, 2.000, -27.500, 838, 100, 98, 27, 23299, -23876, 5141, 5301, 21, 14, 1529357229.953, 53, 0, 1024, 1024, 1024, 1024, 0, 6, 3874, 3897, 3908, 3935, 3879, 3906, 0, 1, 19300, -89.900, 0.000, -27.800, 0.000, 0.000, -3.200, 0.0, , , , , , 95, , , 32, 32, 32
37.0262803, -119.2351957, 41.400, 14:27:10.053, 13, 0.00, 0.44, 97, -0.400, 1.900, -27.600, 838, 100, 98, 27, 23299, -23876, 5141, 5301, 21, 14, 1529357230.053, 65, 0, 1024, 1024, 1024, 1024, 0, 6, 3874, 3897, 3908, 3935, 3879, 3906, 0, 1, 19400, -90.000, 0.000, -27.800, 0.000, 0.000, -3.200, 0.0, , , , , , 95, , , 32, 32, 32
37.0262803, -119.2351957, 41.800, 14:27:10.153, 13, 0.00, 0.44, 97, -0.500, 1.900, -27.600, 838, 100, 98, 27, 23299, -23876, 5141, 5301, 21, 14, 1529357230.153, 70, 0, 1024, 1024, 1024, 1024, 0, 6, 3874, 3897, 3908, 3935, 3879, 3906, 0, 1, 19500, -89.900, 0.000, -27.800, 0.000, 0.000, -3.200, 0.0, , , , , , 95, , , 32, 32, 32
37.0262803, -119.2351957, 42.100, 14:27:10.253, 13, 0.00, 0.44, 96, -0.400, 1.700, -27.400, 838, 100, 98, 27, 23299, -23876, 5088, 5301, 21, 14, 1529357230.253, 68, 0, 1024, 1024, 1024, 1024, 0, 6, 3844, 3878, 3894, 3919, 3859, 3891, 0, 1, 19600, -89.900, 0.000, -27.800, 0.000, 0.000, -3.100, 0.0, , , , , , 95, , , 32, 32, 32
37.0262803, -119.2351957, 42.400, 14:27:10.353, 13, 0.00, 0.44, 96, -0.300, 1.600, -27.300, 838, 100, 98, 27, 23299, -23876, 5088, 5301, 21, 14, 1529357230.353, 47, 0, 1024, 1024, 1024, 1024, 0, 6, 3844, 3878, 3894, 3919, 3859, 3891, 0, 1, 19700, -89.900, 0.000, -27.800, 0.000, 0.000, -3.100, 0.0, , , , , , 95, , , 32, 32, 32
37.0262803, -119.2351957, 42.700, 14:27:10.453, 13, 0.00, 0.45, 96, -0.500, 1.700, -27.300, 838, 100, 98, 27, 23299, -23876, 5088, 5301, 21, 14, 1529357230.453, 54, 0, 1024, 1024, 1024, 1024, 0, 6, 3844, 3878, 3894, 3919, 3859, 3891, 0, 1, 19800, -89.900, 0.000, -27.800, 0.000, 0.000, -3.200, 0.0, , , , , , 95, , , 32, 32, 32
37.0262803, -119.2351957, 43.100, 14:27:10.553, 13, 0.10, 0.45, 96, -0.900, 1.800, -27.400, 838, 100, 98, 27, 23299, -23876, 5088, 5301, 21, 14, 1529357230.553, 33, 0, 1024, 1024, 1024, 1024, 0, 6, 3844, 3878, 3894, 3919, 3859, 3891, 0, 1, 19900, -89.900, 0.000, -27.800, 0.100, 0.000, -3.200, 0.0, , , , , , 95, , , 32, 32, 32
37.0262803, -119.2351957, 43.400, 14:27:10.653, 14, 0.10, 0.44, 96, -1.200, 1.900, -27.700, 838, 100, 98, 27, 23299, -23876, 5088, 5301, 21, 14, 1529357230.653, 35, 0, 1024, 1024, 1024, 1024, 0, 6, 3844, 3878, 3894, 3919, 3859, 3891, 0, 1, 20000, -89.900, 0.000, -27.800, 0.100, 0.000, -3.100, 0.0, , , , , , 95, , , 32, 32, 32
37.0262803, -119.2351957, 43.800, 14:27:10.753, 14, 0.10, 0.44, 96, -1.600, 2.200, -27.900, 838, 100, 98, 27, 23299, -23876, 5088, 5301, 21, 14, 1529357230.753, 39, 0, 1024, 1024, 1024, 1024, 0, 6, 3844, 3878, 3894, 3919, 3859, 3891, 0, 1, 20099, -89.900, 0.000, -27.800, 0.100, 0.000, -3.200, 0.0, , , , , , 95, , , 32, 32, 32
37.0262803, -119.2351956, 44.100, 14:27:10.853, 14, 0.10, 0.44, 96, -1.800, 2.100, -28.000, 838, 100, 97, 27, 23299, -23876, 5088, 5301, 21, 14, 1529357230.853, 32, 0, 1024, 1024, 1024, 1024, 0, 6, 3844, 3878, 3894, 3919, 3859, 3891, 0, 1, 20199, -89.900, 0.000, -27.800, 0.100, 0.000, -3.100, 0.0, , , , , , 95, , , 32, 32, 32
37.0262803, -119.2351955, 44.400, 14:27:10.953, 14, 0.10, 0.44, 96, -1.900, 2.100, -28.100, 838, 100, 97, 27, 23299, -23876, 5088, 5301, 21, 14, 1529357230.953, 24, 0, 1024, 1024, 1024, 1024, 0, 6, 3844, 3878, 3894, 3919, 3859, 3891, 0, 1, 20299, -89.900, 0.000, -27.800, 0.100, 0.000, -3.100, 0.0, , , , , , 95, , , 32, 32, 32
37.0262803, -119.2351954, 44.700, 14:27:11.053, 14, 0.10, 0.44, 96, -2.000, 2.000, -28.100, 838, 100, 97, 27, 23299, -23876, 5088, 5301, 21, 14, 1529357231.054, 26, 0, 1024, 1024, 1024, 1024, 0, 6, 3844, 3878, 3894, 3919, 3859, 3891, 0, 1, 20400, -89.900, 0.000, -27.800, 0.100, 0.000, -3.000, 0.0, , , , , , 95, , , 32, 32, 32
37.0262803, -119.2351953, 45.100, 14:27:11.153, 14, 0.10, 0.44, 96, -2.100, 1.800, -28.100, 838, 100, 97, 27, 23299, -23876, 5088, 5301, 21, 14, 1529357231.153, 30, 0, 1024, 1024, 1024, 1024, 0, 6, 3844, 3878, 3894, 3919, 3859, 3891, 0, 1, 20500, -90.000, 0.000, -27.800, 0.100, 0.000, -3.000, 0.0, , , , , , 95, , , 32, 32, 32
37.0262803, -119.2351952, 45.400, 14:27:11.253, 14, 0.10, 0.44, 96, -2.000, 1.800, -27.900, 838, 100, 97, 27, 23329, -23362, 5088, 5301, 21, 14, 1529357231.253, 9, 0, 1024, 1024, 1024, 1024, 0, 6, 3866, 3891, 3916, 3929, 3873, 3915, 0, 1, 20600, -89.900, 0.000, -27.800, 0.100, 0.000, -2.900, 0.0, , , , , , 95, , , 32, 32, 32
37.0262803, -119.2351952, 45.700, 14:27:11.352, 14, 0.10, 0.44, 96, -2.300, 2.000, -27.800, 838, 100, 97, 27, 23329, -23362, 5088, 5301, 21, 14, 1529357231.352, 9, 0, 1024, 1024, 1024, 1024, 0, 6, 3866, 3891, 3916, 3929, 3873, 3915, 0, 1, 20699, -89.900, 0.000, -27.800, 0.100, 0.000, -2.900, 0.0, , , , , , 95, , , 32, 32, 32
37.0262802, -119.2351950, 46.300, 14:27:11.454, 14, 0.00, 0.45, 96, -1.600, 2.100, -28.100, 838, 100, 97, 27, 23329, -23362, 5088, 5301, 21, 14, 1529357231.455, 1, 0, 1024, 1024, 1024, 1024, 0, 6, 3866, 3891, 3916, 3929, 3873, 3915, 0, 1, 20801, -89.900, 0.000, -27.800, 0.000, 0.000, -3.000, 0.0, , , , , , 95, , , 32, 32, 32
