latitude,longitude,altitude(feet),ascent(feet),speed(mph),distance(feet),time(millisecond),datetime(utc),satellites,gpslevel,voltage(v),max_altitude(feet),max_ascent(feet),max_speed(mph),max_distance(feet), xSpeed(mph), ySpeed(mph), zSpeed(mph), compass_heading(degrees), pitch(degrees), roll(degrees),isPhoto,isVideo,rc_elevator,rc_aileron,rc_throttle,rc_rudder,gimbal_heading(degrees),gimbal_pitch(degrees),battery_percent,voltageCell1,voltageCell2,voltageCell3,voltageCell4,voltageCell5,voltageCell6,current(A),battery_temperature(f),flycStateRaw,flycState,message
37.026263,-119.2351665,3451.6226202944,-0.328084,0.223694,0,3040,2018-06-18 21:08:31,11,0,25.444,3451.6226202944,0,0.223694,0,0,0,0,332.8, -1.3, 2.9,1,0,1024,1024,1024,1024,331.1,-90,100,4.159,4.246,4.28,4.219,4.273,4.197,3.769,80.6,11,AutoTakeoff,DJI_0426.jpg Starting Mission from Lat/Long: 37.02626/-119.23517 Camera: Zenmuse X3 - Overlap: 90/90 - Active Connection: No
37.0262631,-119.2351663,3451.6226202944,-0.328084,0.4921268,0.068738191176,3100,2018-06-18 21:08:31,11,0,25.444,3451.6226202944,0,0.4921268,0.068738191176,0,0,0,333, -0.9, 1.3,0,0,1024,1024,1024,1024,331.2,-89.9,100,4.159,4.246,4.28,4.219,4.273,4.197,3.769,80.6,11,AutoTakeoff,
37.0262632,-119.2351661,3451.9507042944,0,0.4921268,0.137476382352,3200,2018-06-18 21:08:31,11,0,25.444,3451.9507042944,0,0.4921268,0.137476382352,0,0,0,333.3, -0.4, 0.3,0,0,1024,1024,1024,1024,331.2,-89.9,100,4.159,4.246,4.28,4.219,4.273,4.197,3.769,80.6,11,AutoTakeoff,
37.0262633,-119.2351658,3451.9507042944,0,0.4921268,0.231417986408,3300,2018-06-18 21:08:31,11,0,25.444,3451.9507042944,0,0.4921268,0.231417986408,0,0,0,333.5, 0.1, -0.6,0,0,1024,1024,1024,1024,331.2,-89.9,100,4.159,4.246,4.28,4.219,4.273,4.197,3.769,80.6,11,AutoTakeoff,
37.0262634,-119.2351657,3451.9507042944,0,0.3131716,0.274952764704,3400,2018-06-18 21:08:31,11,0,25.444,3451.9507042944,0,0.4921268,0.274952764704,0,0,0,333.5, 0.6, -1.3,0,0,1024,1024,1024,1024,331.2,-89.9,100,4.159,4.246,4.28,4.219,4.273,4.197,3.769,80.6,11,AutoTakeoff,
37.0262635,-119.2351656,3451.9507042944,0,0.3131716,0.319378947228,3500,2018-06-18 21:08:31,11,0,25.444,3451.9507042944,0,0.4921268,0.319378947228,0,0,0,333.3, 0.9, -1.9,0,0,1024,1024,1024,1024,331.2,-89.9,100,4.159,4.246,4.28,4.219,4.273,4.197,3.769,80.6,11,AutoTakeoff,
37.0262638,-119.2351656,3452.2787882944,0.328084,0.223694,0.3923228472,3700,2018-06-18 21:08:31,11,0,25.444,3452.2787882944,0.328084,0.4921268,0.3923228472,0,0,0,332.9, 1, -1.9,0,0,1024,1024,1024,1024,331.3,-89.9,100,4.159,4.246,4.28,4.219,4.273,4.197,3.769,80.6,11,AutoTakeoff,
37.0262639,-119.2351655,3452.2787882944,0.328084,0.223694,0.43894030276,3800,2018-06-18 21:08:31,12,0,25.444,3452.2787882944,0.328084,0.4921268,0.43894030276,0,0,0,332.9, 1.5, -1.8,0,0,1024,1024,1024,1024,331.3,-89.9,100,4.159,4.246,4.28,4.219,4.273,4.197,3.769,80.6,11,AutoTakeoff,
37.026264,-119.2351654,3452.6068722944,0.656168,0.223694,0.48556760084,4000,2018-06-18 21:08:32,12,0,25.444,3452.6068722944,0.656168,0.4921268,0.48556760084,0,0,0,332.8, 1.6, -1.6,0,0,1024,1024,1024,1024,331.3,-89.9,100,4.242,4.244,4.23,4.254,4.259,4.183,3.769,80.6,11,AutoTakeoff,
37.0262641,-119.2351654,3452.9349562944,0.984252,0.223694,0.51354660436,4100,2018-06-18 21:08:32,12,0,25.444,3452.9349562944,0.984252,0.4921268,0.51354660436,0,0,-0.223694,332.7, 1.4, -1.3,0,0,1024,1024,1024,1024,331.4,-89.9,100,4.242,4.244,4.23,4.254,4.259,4.183,3.769,80.6,11,AutoTakeoff,
37.0262642,-119.2351657,3453.2630402944,1.312336,0.223694,0.49597114448,4200,2018-06-18 21:08:32,12,0,25.444,3453.2630402944,1.312336,0.4921268,0.51354660436,0,0,-0.223694,332.3, 1.2, -0.5,0,0,1024,1024,1024,1024,331.4,-89.9,100,4.242,4.244,4.23,4.254,4.259,4.183,3.769,80.6,11,AutoTakeoff,
37.0262642,-119.235166,3453.9192082944,1.968504,0.223694,0.46140749508,4400,2018-06-18 21:08:32,12,0,25.444,3453.9192082944,1.968504,0.4921268,0.51354660436,0,0,-0.223694,331.9, 1, 0.6,0,0,1024,1024,1024,1024,331.4,-89.9,100,4.242,4.244,4.23,4.254,4.259,4.183,3.769,80.6,11,AutoTakeoff,
37.0262643,-119.2351662,3453.9192082944,1.968504,0.223694,0.48228676084,4500,2018-06-18 21:08:32,12,0,25.444,3453.9192082944,1.968504,0.4921268,0.51354660436,0,0,0,331.8, 1.3, 1,0,0,1024,1024,1024,1024,331.4,-89.9,100,4.242,4.244,4.23,4.254,4.259,4.183,3.769,80.6,11,AutoTakeoff,
37.0262644,-119.2351664,3454.2472922944,2.296588,0.223694,0.51161747044,4600,2018-06-18 21:08:32,11,0,25.444,3454.2472922944,2.296588,0.4921268,0.51354660436,0,0,0,331.9, 1.8, 1.2,0,0,1024,1024,1024,1024,331.5,-89.9,100,4.242,4.244,4.23,4.254,4.259,4.183,3.769,80.6,11,AutoTakeoff,
37.0262646,-119.2351665,3454.2472922944,2.296588,0,0.5837598612,4700,2018-06-18 21:08:32,11,0,25.444,3454.2472922944,2.296588,0.4921268,0.5837598612,0,0,-0.223694,332.2, 2.2, 1,0,0,1024,1024,1024,1024,331.5,-89.9,100,4.242,4.244,4.23,4.254,4.259,4.183,3.769,80.6,11,AutoTakeoff,
37.0262646,-119.2351664,3454.5753762944,2.624672,0,0.58448492684,4800,2018-06-18 21:08:32,12,0,25.444,3454.5753762944,2.624672,0.4921268,0.58448492684,0,0,-0.223694,332.5, 2.3, 0.8,0,0,1024,1024,1024,1024,331.5,-89.9,100,4.242,4.244,4.23,4.254,4.259,4.183,3.769,80.6,11,AutoTakeoff,
37.0262647,-119.2351664,3454.9034602944,2.952756,0,0.62092849756,4900,2018-06-18 21:08:32,12,0,25.444,3454.9034602944,2.952756,0.4921268,0.62092849756,0,0,-0.223694,332.7, 2.2, 0.6,0,0,1024,1024,1024,1024,331.5,-89.9,100,4.242,4.244,4.23,4.254,4.259,4.183,3.769,80.6,14,Waypoint,
37.0262647,-119.2351665,3455.2315442944,3.28084,0,0.620242802,5000,2018-06-18 21:08:33,12,0,24.398,3455.2315442944,3.28084,0.4921268,0.62092849756,0,0,-0.223694,332.8, 2, 0.3,0,0,1024,1024,1024,1024,331.5,-89.9,100,4.065,4.07,4.042,4.061,4.095,4.046,12.616,80.6,14,Waypoint,
37.0262648,-119.2351665,3455.2315442944,3.28084,0,0.65672902364,5100,2018-06-18 21:08:33,12,0,24.398,3455.2315442944,3.28084,0.4921268,0.65672902364,0,0,0,332.9, 1.9, 0,0,0,1024,1024,1024,1024,331.6,-89.9,100,4.065,4.07,4.042,4.061,4.095,4.046,12.616,80.6,14,Waypoint,
37.0262649,-119.2351667,3455.5596282944,3.608924,0,0.69565619024,5200,2018-06-18 21:08:33,11,0,24.398,3455.5596282944,3.608924,0.4921268,0.69565619024,0,0,0,333, 2, 0,0,0,1024,1024,1024,1024,331.6,-90,100,4.065,4.07,4.042,4.061,4.095,4.046,12.616,80.6,14,Waypoint,
37.0262651,-119.2351668,3455.5596282944,3.608924,0,0.77115159948,5300,2018-06-18 21:08:33,11,0,24.398,3455.5596282944,3.608924,0.4921268,0.77115159948,0,0,0,333.1, 2.2, 0.2,0,0,1024,1024,1024,1024,331.6,-89.9,100,4.065,4.07,4.042,4.061,4.095,4.046,12.616,80.6,14,Waypoint,
37.0262651,-119.2351669,3455.8877122944,3.937008,0,0.77499346312,5400,2018-06-18 21:08:33,11,0,24.398,3455.8877122944,3.937008,0.4921268,0.77499346312,0,0,0,333.2, 2.2, 0.3,0,0,1024,1024,1024,1024,331.6,-90,100,4.065,4.07,4.042,4.061,4.095,4.046,12.616,80.6,14,Waypoint,
37.0262651,-119.235167,3455.8877122944,3.937008,0,0.77990159976,5500,2018-06-18 21:08:33,11,0,24.398,3455.8877122944,3.937008,0.4921268,0.77990159976,0,0,0,333.2, 1.9, 0.2,0,0,1024,1024,1024,1024,331.6,-90,100,4.065,4.07,4.042,4.061,4.095,4.046,12.616,80.6,14,Waypoint,
37.0262652,-119.235167,3456.2157962944,4.265092,0,0.81577430432,5700,2018-06-18 21:08:33,11,0,24.398,3456.2157962944,4.265092,0.4921268,0.81577430432,0,0,-0.223694,333.1, 1.9, 0,0,0,1024,1024,1024,1024,331.6,-90,100,4.065,4.07,4.042,4.061,4.095,4.046,12.616,80.6,14,Waypoint,
37.0262653,-119.2351671,3456.5438802944,4.593176,0,0.85715882008,5800,2018-06-18 21:08:33,11,0,24.398,3456.5438802944,4.593176,0.4921268,0.85715882008,0,0,-0.223694,333.1, 2.1, 0.2,0,0,1024,1024,1024,1024,331.7,-89.9,100,4.065,4.07,4.042,4.061,4.095,4.046,12.616,80.6,14,Waypoint,
37.0262654,-119.2351672,3456.8719642944,4.92126,0,0.8990649894,5900,2018-06-18 21:08:33,11,0,24.398,3456.8719642944,4.92126,0.4921268,0.8990649894,0,0,-0.223694,333.1, 2.2, 0.5,0,0,1024,1024,1024,1024,331.7,-89.9,100,4.065,4.07,4.042,4.061,4.095,4.046,12.616,80.6,14,Waypoint,
37.0262654,-119.2351673,3457.2000482944,5.249344,0,0.90611551456,6000,2018-06-18 21:08:34,11,0,24.213,3457.2000482944,5.249344,0.4921268,0.90611551456,0,0,-0.223694,333, 2.4, 0.8,0,0,1024,1024,1024,1024,331.7,-89.9,100,4.02,4.037,4.027,4.034,4.051,4.028,15.718,80.6,14,Waypoint,
37.0262654,-119.2351674,3457.5281322944,5.577428,0,0.91403874316,6100,2018-06-18 21:08:34,11,0,24.213,3457.5281322944,5.577428,0.4921268,0.91403874316,0,0,-0.223694,332.9, 2.5, 0.9,0,0,1024,1024,1024,1024,331.7,-89.9,100,4.02,4.037,4.027,4.034,4.051,4.028,15.718,80.6,14,Waypoint,
37.0262654,-119.2351675,3458.1843002944,6.233596,0,0.92281499016,6200,2018-06-18 21:08:34,11,0,24.213,3458.1843002944,6.233596,0.4921268,0.92281499016,0,0,-0.447388,332.7, 2.3, 0.8,0,0,1024,1024,1024,1024,331.7,-89.9,100,4.02,4.037,4.027,4.034,4.051,4.028,15.718,80.6,14,Waypoint,
37.0262655,-119.2351676,3458.8404682944,6.889764,0,0.96676184196,6300,2018-06-18 21:08:34,11,0,24.213,3458.8404682944,6.889764,0.4921268,0.96676184196,0,0,-0.447388,332.6, 2.3, 0.6,0,0,1024,1024,1024,1024,331.7,-89.9,100,4.02,4.037,4.027,4.034,4.051,4.028,15.718,80.6,14,Waypoint,
37.0262656,-119.2351677,3460.1528042944,8.2021,0,1.0109580376,6400,2018-06-18 21:08:34,11,0,24.213,3460.1528042944,8.2021,0.4921268,1.0109580376,0,0,-0.447388,332.5, 2.4, 0.1,0,0,1024,1024,1024,1024,331.8,-89.9,100,4.02,4.037,4.027,4.034,4.051,4.028,15.718,80.6,14,Waypoint,
37.0262656,-119.2351678,3461.7932242944,9.84252,0,1.02139438964,6600,2018-06-18 21:08:34,11,0,24.213,3461.7932242944,9.84252,0.4921268,1.02139438964,0,0,-0.671082,332.6, 2.1, 0.2,0,0,1024,1024,1024,1024,331.8,-90,100,4.02,4.037,4.027,4.034,4.051,4.028,15.718,80.6,14,Waypoint,
37.0262656,-119.2351679,3462.7774762944,10.826772,0,1.0325459648,6700,2018-06-18 21:08:34,11,0,24.213,3462.7774762944,10.826772,0.4921268,1.0325459648,0,0,-0.671082,332.7, 2.2, 0.4,0,0,1024,1024,1024,1024,331.8,-89.9,100,4.02,4.037,4.027,4.034,4.051,4.028,15.718,80.6,14,Waypoint,
37.0262656,-119.235168,3464.0898122944,12.139108,0,1.04439307804,6800,2018-06-18 21:08:34,12,0,24.213,3464.0898122944,12.139108,0.4921268,1.04439307804,0,0,-0.671082,332.8, 2.2, 0.5,0,0,1024,1024,1024,1024,331.8,-89.9,100,4.02,4.037,4.027,4.034,4.051,4.028,15.718,80.6,14,Waypoint,
37.0262656,-119.2351681,3465.0740642944,13.12336,0,1.05690948264,6900,2018-06-18 21:08:34,12,0,24.213,3465.0740642944,13.12336,0.4921268,1.05690948264,0,0,-0.671082,333, 2.3, 0.6,0,0,1024,1024,1024,1024,331.8,-89.9,100,4.02,4.037,4.027,4.034,4.051,4.028,15.718,80.6,14,Waypoint,
37.0262656,-119.2351682,3466.0583162944,14.107612,0,1.07007549356,7000,2018-06-18 21:08:35,12,0,24.24,3466.0583162944,14.107612,0.4921268,1.07007549356,0,0,-0.671082,333.2, 2.2, 0.7,0,0,1024,1024,1024,1024,331.8,-89.9,100,3.998,3.977,3.997,4.049,4.026,3.994,15.897,80.6,14,Waypoint,
37.0262656,-119.2351682,3467.3706522944,15.419948,0,1.07007549356,7100,2018-06-18 21:08:35,12,0,24.24,3467.3706522944,15.419948,0.4921268,1.07007549356,0,0,-0.671082,333.2, 2, 0.7,0,0,1024,1024,1024,1024,331.9,-89.9,100,3.998,3.977,3.997,4.049,4.026,3.994,15.897,80.6,14,Waypoint,
37.0262655,-119.2351683,3468.3549042944,16.4042,0,1.05207680532,7200,2018-06-18 21:08:35,12,0,24.24,3468.3549042944,16.4042,0.4921268,1.07007549356,0,0,-0.671082,333.2, 1.6, 0.6,0,0,1024,1024,1024,1024,331.8,-90,100,3.998,3.977,3.997,4.049,4.026,3.994,15.897,80.6,14,Waypoint,
37.0262654,-119.2351685,3469.3391562944,17.388452,0,1.0517224746,7300,2018-06-18 21:08:35,12,0,24.24,3469.3391562944,17.388452,0.4921268,1.07007549356,0,0,-0.671082,333.2, 1.4, 0.8,0,0,1024,1024,1024,1024,331.9,-90,100,3.998,3.977,3.997,4.049,4.026,3.994,15.897,80.6,14,Waypoint,
37.0262653,-119.2351685,3470.6514922944,18.700788,0,1.02154530828,7400,2018-06-18 21:08:35,12,0,24.24,3470.6514922944,18.700788,0.4921268,1.07007549356,0,0,-0.671082,333.1, 1.2, 0.8,0,0,1024,998,1024,1024,331.8,-90,100,3.998,3.977,3.997,4.049,4.026,3.994,15.897,80.6,14,Waypoint,
37.0262652,-119.2351685,3471.6357442944,19.68504,0,0.99179465116,7500,2018-06-18 21:08:35,12,0,24.24,3471.6357442944,19.68504,0.4921268,1.07007549356,0,0,-0.671082,333, 1.1, 0.9,0,0,1024,1012,1024,1024,331.9,-90,100,3.998,3.977,3.997,4.049,4.026,3.994,15.897,80.6,14,Waypoint,
37.0262652,-119.2351686,3472.9480802944,20.997376,0,1.00917982232,7600,2018-06-18 21:08:35,12,0,24.24,3472.9480802944,20.997376,0.4921268,1.07007549356,0,0,-0.671082,332.9, 1.2, 1.1,0,0,1024,1024,1024,1024,331.9,-89.9,100,3.998,3.977,3.997,4.049,4.026,3.994,15.897,80.6,14,Waypoint,
37.0262652,-119.2351687,3474.9165842944,22.96588,0,1.02709648956,7810,2018-06-18 21:08:35,12,0,24.24,3474.9165842944,22.96588,0.4921268,1.07007549356,0,0,-0.671082,332.9, 1.6, 1.2,0,0,1024,1024,1024,1024,331.9,-89.9,100,3.998,3.977,3.997,4.049,4.026,3.994,15.897,80.6,14,Waypoint,
37.0262652,-119.2351687,3474.9165842944,22.96588,0,1.02709648956,7900,2018-06-18 21:08:35,12,0,24.24,3474.9165842944,22.96588,0.4921268,1.07007549356,0,0,-0.671082,332.9, 1.6, 1.2,0,0,1024,1024,1024,1024,331.9,-89.9,100,3.998,3.977,3.997,4.049,4.026,3.994,15.897,80.6,14,Waypoint,
37.0262651,-119.2351687,3476.2289202944,24.278216,0,0.99884189548,8000,2018-06-18 21:08:36,12,0,23.544,3476.2289202944,24.278216,0.4921268,1.07007549356,0,0,-0.671082,332.9, 1.7, 0.9,0,0,1024,1024,1024,1024,331.9,-89.9,100,3.878,3.887,3.909,3.917,3.933,3.891,23.649,80.6,14,Waypoint,
37.0262651,-119.2351686,3477.2131722944,25.262468,0,0.98041013636,8100,2018-06-18 21:08:36,12,0,23.544,3477.2131722944,25.262468,0.4921268,1.07007549356,0,0,-0.671082,332.9, 1.6, 0.5,0,0,1024,1024,1024,1024,331.8,-89.9,100,3.878,3.887,3.909,3.917,3.933,3.891,23.649,80.6,14,Waypoint,
37.0262651,-119.2351686,3478.1974242944,26.24672,0,0.98041013636,8200,2018-06-18 21:08:36,12,0,23.544,3478.1974242944,26.24672,0.4921268,1.07007549356,0,0,-0.671082,332.9, 1.7, 0.4,0,0,1024,1024,1024,1024,331.9,-89.9,100,3.878,3.887,3.909,3.917,3.933,3.891,23.649,80.6,14,Waypoint,
37.0262651,-119.2351684,3479.5097602944,27.559056,0.223694,0.9451607914,8300,2018-06-18 21:08:36,12,0,23.544,3479.5097602944,27.559056,0.4921268,1.07007549356,0,0,-0.671082,332.9, 1.6, 0.1,0,0,1024,1024,1024,1024,331.9,-90,100,3.878,3.887,3.909,3.917,3.933,3.891,23.649,80.6,14,Waypoint,
37.0262649,-119.2351682,3481.4782642944,29.52756,0.223694,0.85190619524,8400,2018-06-18 21:08:36,12,0,23.544,3481.4782642944,29.52756,0.4921268,1.07007549356,0,0,-0.671082,333, 1, -0.1,0,0,1024,1024,1024,1024,331.9,-90,100,3.878,3.887,3.909,3.917,3.933,3.891,23.649,80.6,14,Waypoint,
37.0262648,-119.2351681,3483.7748522944,31.824148,0,0.80529202052,8600,2018-06-18 21:08:36,12,0,23.544,3483.7748522944,31.824148,0.4921268,1.07007549356,0,0,-0.671082,333.1, 0.3, 0,0,0,1024,1024,1024,1024,331.9,-90,100,3.878,3.887,3.909,3.917,3.933,3.891,23.649,80.6,14,Waypoint,
37.0262647,-119.2351681,3484.7591042944,32.8084,0,0.77582679648,8700,2018-06-18 21:08:36,12,0,23.544,3484.7591042944,32.8084,0.4921268,1.07007549356,0,0,-0.671082,333.1, 0.4, 0.4,0,0,1024,1024,1024,1024,331.9,-89.9,100,3.878,3.887,3.909,3.917,3.933,3.891,23.649,80.6,14,Waypoint,
37.0262647,-119.235168,3485.7433562944,33.792652,0,0.75868440748,8800,2018-06-18 21:08:36,12,0,23.544,3485.7433562944,33.792652,0.4921268,1.07007549356,0,0,-0.671082,333, 0.6, 0.4,0,0,1024,1024,1024,1024,331.9,-89.9,100,3.878,3.887,3.909,3.917,3.933,3.891,23.649,80.6,14,Waypoint,
37.0262646,-119.235168,3486.7276082944,34.776904,0,0.72916012832,8900,2018-06-18 21:08:36,12,0,23.544,3486.7276082944,34.776904,0.4921268,1.07007549356,0,0,-0.671082,333, 0.8, 0.5,0,0,1024,1024,1024,1024,331.9,-89.9,100,3.878,3.887,3.909,3.917,3.933,3.891,23.649,80.6,14,Waypoint,
37.0262646,-119.235168,3488.0399442944,36.08924,0,0.72916012832,9000,2018-06-18 21:08:37,13,0,23.634,3488.0399442944,36.08924,0.4921268,1.07007549356,0,0,-0.671082,333, 0.9, 0.7,0,0,1024,1024,1024,1024,331.9,-89.9,100,3.878,3.887,3.909,3.917,3.933,3.891,20.25,80.6,14,Waypoint,
37.0262646,-119.235168,3489.0241962944,37.073492,0,0.72916012832,9100,2018-06-18 21:08:37,13,0,23.634,3489.0241962944,37.073492,0.4921268,1.07007549356,0,0,-0.671082,332.9, 1, 0.7,0,0,1024,1024,1024,1024,331.9,-89.9,100,3.878,3.887,3.909,3.917,3.933,3.891,20.25,80.6,14,Waypoint,
37.0262645,-119.235168,3490.0084482944,38.057744,0,0.70029201716,9200,2018-06-18 21:08:37,13,0,23.634,3490.0084482944,38.057744,0.4921268,1.07007549356,0,0,-0.671082,332.9, 0.9, 0.7,0,0,1024,1024,1024,1024,331.9,-90,100,3.878,3.887,3.909,3.917,3.933,3.891,20.25,80.6,14,Waypoint,
37.0262645,-119.235168,3490.9927002944,39.041996,0,0.70029201716,9300,2018-06-18 21:08:37,13,0,23.634,3490.9927002944,39.041996,0.4921268,1.07007549356,0,0,-0.671082,332.8, 0.8, 0.8,0,0,1024,1024,1024,1024,331.9,-90,100,3.878,3.887,3.909,3.917,3.933,3.891,20.25,80.6,14,Waypoint,
37.0262645,-119.2351679,3491.9769522944,40.026248,0,0.68250002184,9400,2018-06-18 21:08:37,13,0,23.634,3491.9769522944,40.026248,0.4921268,1.07007549356,0,0,-0.671082,332.8, 0.8, 0.9,0,0,1024,1024,1024,1024,331.9,-90,100,3.878,3.887,3.909,3.917,3.933,3.891,20.25,80.6,14,Waypoint,
37.0262645,-119.2351677,3493.2892882944,41.338584,0,0.64937338036,9500,2018-06-18 21:08:37,13,0,23.634,3493.2892882944,41.338584,0.4921268,1.07007549356,0,0,-0.671082,332.7, 0.8, 0.6,0,0,1024,1024,1024,1024,331.9,-89.9,100,3.878,3.887,3.909,3.917,3.933,3.891,20.25,80.6,14,Waypoint,
37.0262645,-119.2351676,3493.9454562944,41.994752,0,0.6341699678,9600,2018-06-18 21:08:37,13,0,23.634,3493.9454562944,41.994752,0.4921268,1.07007549356,0,0,-0.671082,332.7, 0.9, 0.2,0,0,1024,1024,1024,1024,331.9,-89.9,100,3.878,3.887,3.909,3.917,3.933,3.891,20.25,80.6,14,Waypoint,
37.0262645,-119.2351675,3494.9297082944,42.979004,0,0.6199639306,9700,2018-06-18 21:08:37,13,0,23.634,3494.9297082944,42.979004,0.4921268,1.07007549356,0,0,-0.671082,332.7, 0.9, -0.1,0,0,1024,1024,1024,1024,331.9,-90,100,3.878,3.887,3.909,3.917,3.933,3.891,20.25,80.6,14,Waypoint,
37.0262645,-119.2351674,3496.2420442944,44.29134,0,0.60682088556,9900,2018-06-18 21:08:37,13,0,23.634,3496.2420442944,44.29134,0.4921268,1.07007549356,0,0,-0.671082,332.8, 0.8, -0.4,0,0,1024,1024,1024,1024,331.9,-89.9,100,3.878,3.887,3.909,3.917,3.933,3.891,20.25,80.6,14,Waypoint,
37.0262645,-119.2351673,3497.2262962944,45.275592,0,0.59481957284,10000,2018-06-18 21:08:38,13,0,23.634,3497.2262962944,45.275592,0.4921268,1.07007549356,0,0,-0.671082,332.8, 0.6, -0.5,0,0,1024,1024,1024,1024,331.9,-90,98,3.924,3.935,3.956,3.958,3.969,3.942,20.25,80.6,14,Waypoint,
37.0262645,-119.2351672,3498.2105482944,46.259844,0,0.5840223284,10100,2018-06-18 21:08:38,13,0,23.634,3498.2105482944,46.259844,0.4921268,1.07007549356,0,0,-0.671082,332.8, 0.6, -0.5,0,0,1024,1024,1024,1024,331.9,-90,98,3.924,3.935,3.956,3.958,3.969,3.942,20.25,80.6,14,Waypoint,
37.0262645,-119.2351672,3499.1948002944,47.244096,0,0.5840223284,10200,2018-06-18 21:08:38,13,0,23.634,3499.1948002944,47.244096,0.4921268,1.07007549356,0,0,-0.671082,332.8, 0.7, -0.4,0,0,1024,1024,1024,1024,331.9,-90,98,3.924,3.935,3.956,3.958,3.969,3.942,20.25,80.6,14,Waypoint,
37.0262645,-119.2351672,3500.1790522944,48.228348,0,0.5840223284,10300,2018-06-18 21:08:38,12,0,23.634,3500.1790522944,48.228348,0.4921268,1.07007549356,0,0,-0.671082,332.9, 0.6, -0.3,0,0,1024,1024,1024,1024,331.9,-90,98,3.924,3.935,3.956,3.958,3.969,3.942,20.25,80.6,14,Waypoint,
37.0262645,-119.2351671,3500.8352202944,48.884516,0,0.57450133072,10400,2018-06-18 21:08:38,12,0,23.634,3500.8352202944,48.884516,0.4921268,1.07007549356,0,0,-0.671082,332.9, 0.6, -0.3,0,0,1024,1024,1024,1024,331.9,-89.9,98,3.924,3.935,3.956,3.958,3.969,3.942,20.25,80.6,14,Waypoint,
37.0262645,-119.235167,3502.1475562944,50.196852,0,0.5663221966,10500,2018-06-18 21:08:38,12,0,23.634,3502.1475562944,50.196852,0.4921268,1.07007549356,0,0,-0.671082,333, 0.8, -0.2,0,0,1024,1024,1024,1024,331.9,-89.9,98,3.924,3.935,3.956,3.958,3.969,3.942,20.25,80.6,14,Waypoint,
37.0262645,-119.235167,3503.1318082944,51.181104,0,0.5663221966,10600,2018-06-18 21:08:38,12,0,23.634,3503.1318082944,51.181104,0.4921268,1.07007549356,0,0,-0.671082,333.1, 1, 0,0,0,1024,1024,1024,1024,331.9,-90,98,3.924,3.935,3.956,3.958,3.969,3.942,20.25,80.6,14,Waypoint,
37.0262646,-119.2351669,3504.7722282944,52.821524,0,0.59527232876,10700,2018-06-18 21:08:38,13,0,23.634,3504.7722282944,52.821524,0.4921268,1.07007549356,0,0,-0.671082,333.1, 0.8, -0.1,0,0,1024,1024,1024,1024,331.9,-89.9,98,3.924,3.935,3.956,3.958,3.969,3.942,20.25,80.6,14,Waypoint,
37.0262646,-119.2351669,3505.7564802944,53.805776,0,0.59527232876,10800,2018-06-18 21:08:38,13,0,23.634,3505.7564802944,53.805776,0.4921268,1.07007549356,0,0,-0.671082,333.1, 0.8, 0,0,0,1024,1024,1024,1024,331.9,-89.9,98,3.924,3.935,3.956,3.958,3.969,3.942,20.25,80.6,14,Waypoint,
37.0262646,-119.2351668,3506.7407322944,54.790028,0,0.59026248608,10900,2018-06-18 21:08:38,13,0,23.634,3506.7407322944,54.790028,0.4921268,1.07007549356,0,0,-0.671082,333, 0.7, -0.2,0,0,1024,1024,1024,1024,331.9,-90,98,3.924,3.935,3.956,3.958,3.969,3.942,20.25,80.6,14,Waypoint,
37.0262646,-119.2351668,3507.7249842944,55.77428,0,0.59026248608,11000,2018-06-18 21:08:39,13,0,23.719,3507.7249842944,55.77428,0.4921268,1.07007549356,0,0,-0.671082,332.9, 0.8, -0.4,0,0,1024,1024,1024,1024,331.9,-89.9,98,3.939,3.946,3.958,3.946,3.965,3.945,19.102,80.6,14,Waypoint,
37.0262647,-119.2351668,3508.7092362944,56.758532,0,0.62636813028,11100,2018-06-18 21:08:39,13,0,23.719,3508.7092362944,56.758532,0.4921268,1.07007549356,0,0,-0.671082,332.9, 1.1, -0.4,0,0,1024,1024,1024,1024,331.9,-89.9,98,3.939,3.946,3.958,3.946,3.965,3.945,19.102,80.6,14,Waypoint,
37.0262647,-119.2351668,3509.6934882944,57.742784,0,0.62636813028,11200,2018-06-18 21:08:39,13,0,23.719,3509.6934882944,57.742784,0.4921268,1.07007549356,0,0,-0.671082,332.8, 1.4, -0.3,0,0,1024,1024,1024,1024,331.9,-89.9,98,3.939,3.946,3.958,3.946,3.965,3.945,19.102,80.6,14,Waypoint,
37.0262647,-119.2351668,3510.6777402944,58.727036,0,0.62636813028,11300,2018-06-18 21:08:39,13,0,23.719,3510.6777402944,58.727036,0.4921268,1.07007549356,0,0,-0.671082,332.8, 1.3, -0.3,0,0,1024,1024,1024,1024,331.9,-89.9,98,3.939,3.946,3.958,3.946,3.965,3.945,19.102,80.6,14,Waypoint,
37.0262648,-119.2351668,3511.6619922944,59.711288,0,0.6625164254,11400,2018-06-18 21:08:39,13,0,23.719,3511.6619922944,59.711288,0.4921268,1.07007549356,0,0,-0.671082,332.7, 1.2, -0.3,0,0,1024,1024,1024,1024,331.9,-90,98,3.939,3.946,3.958,3.946,3.965,3.945,19.102,80.6,14,Waypoint,
37.0262648,-119.2351669,3512.6462442944,60.69554,0,0.66698492948,11500,2018-06-18 21:08:39,13,0,23.719,3512.6462442944,60.69554,0.4921268,1.07007549356,0,0,-0.671082,332.7, 1.2, -0.2,0,0,1024,1024,1024,1024,331.9,-89.9,98,3.939,3.946,3.958,3.946,3.965,3.945,19.102,80.6,14,Waypoint,
37.0262648,-119.2351669,3513.6304962944,61.679792,0,0.66698492948,11600,2018-06-18 21:08:39,13,0,23.719,3513.6304962944,61.679792,0.4921268,1.07007549356,0,0,-0.671082,332.7, 1.1, 0,0,0,1024,1024,1024,1024,331.9,-89.9,98,3.939,3.946,3.958,3.946,3.965,3.945,19.102,80.6,14,Waypoint,
37.0262648,-119.2351669,3514.9428322944,62.992128,0,0.66698492948,11700,2018-06-18 21:08:39,13,0,23.719,3514.9428322944,62.992128,0.4921268,1.07007549356,0,0,-0.671082,332.8, 1, -0.1,0,0,1024,1024,1024,1024,331.9,-89.9,98,3.939,3.946,3.958,3.946,3.965,3.945,19.102,80.6,14,Waypoint,
37.0262648,-119.2351669,3516.9113362944,64.960632,0,0.66698492948,11900,2018-06-18 21:08:39,13,0,23.719,3516.9113362944,64.960632,0.4921268,1.07007549356,0,0,-0.671082,333, 0.9, 0,0,0,1024,1024,1024,1024,331.9,-90,98,3.939,3.946,3.958,3.946,3.965,3.945,19.102,80.6,14,Waypoint,
37.0262648,-119.2351669,3517.8955882944,65.944884,0,0.66698492948,12100,2018-06-18 21:08:40,13,0,23.719,3517.8955882944,65.944884,0.4921268,1.07007549356,0,0,-0.671082,333.1, 0.8, 0,0,0,1024,1024,1024,1024,331.9,-90,98,3.939,3.946,3.958,3.946,3.965,3.945,19.102,80.6,14,Waypoint,
37.0262648,-119.2351669,3519.8640922944,67.913388,0,0.66698492948,12200,2018-06-18 21:08:40,13,0,23.719,3519.8640922944,67.913388,0.4921268,1.07007549356,0,0,-0.671082,333, 0.8, 0.2,0,0,1024,1024,1024,1024,331.9,-90,98,3.939,3.946,3.958,3.946,3.965,3.945,19.102,80.6,14,Waypoint,
37.0262648,-119.2351669,3520.8483442944,68.89764,0,0.66698492948,12400,2018-06-18 21:08:40,13,0,23.719,3520.8483442944,68.89764,0.4921268,1.07007549356,0,0,-0.671082,333, 0.6, 0.1,0,0,1024,1024,1024,1024,331.9,-90,98,3.939,3.946,3.958,3.946,3.965,3.945,19.102,80.6,14,Waypoint,
37.0262648,-119.2351669,3521.8325962944,69.881892,0,0.66698492948,12500,2018-06-18 21:08:40,13,0,23.719,3521.8325962944,69.881892,0.4921268,1.07007549356,0,0,-0.671082,333.1, 0.5, 0.1,0,0,1024,1024,1024,1024,331.9,-90,98,3.939,3.946,3.958,3.946,3.965,3.945,19.102,80.6,14,Waypoint,
37.0262648,-119.2351669,3522.8168482944,70.866144,0,0.66698492948,12600,2018-06-18 21:08:40,13,0,23.719,3522.8168482944,70.866144,0.4921268,1.07007549356,0,0,-0.671082,333.2, 0.6, 0.1,0,0,1024,1024,1024,1024,331.9,-89.9,98,3.939,3.946,3.958,3.946,3.965,3.945,19.102,80.6,14,Waypoint,
37.0262648,-119.2351668,3523.4730162944,71.522312,0,0.6625164254,12700,2018-06-18 21:08:40,13,0,23.719,3523.4730162944,71.522312,0.4921268,1.07007549356,0,0,-0.671082,333.2, 0.7, -0.1,0,0,1024,1024,1024,1024,331.9,-89.9,98,3.939,3.946,3.958,3.946,3.965,3.945,19.102,80.6,14,Waypoint,
37.0262649,-119.2351667,3525.4415202944,73.490816,0,0.69565619024,12800,2018-06-18 21:08:40,13,0,23.719,3525.4415202944,73.490816,0.4921268,1.07007549356,0,0,-0.671082,333, 1, -1,0,0,1024,1024,1024,1024,331.9,-90,98,3.939,3.946,3.958,3.946,3.965,3.945,19.102,80.6,14,Waypoint,
37.026265,-119.2351666,3527.4100242944,75.45932,0,0.73027889476,13000,2018-06-18 21:08:41,13,0,23.554,3527.4100242944,75.45932,0.4921268,1.07007549356,0,0,-0.671082,332.6, 1.2, -1.4,0,0,1024,1024,1024,1024,331.9,-89.9,98,3.905,3.918,3.931,3.935,3.937,3.912,20.48,80.6,14,Waypoint,
37.0262651,-119.2351667,3528.3942762944,76.443572,0,0.76839569388,13100,2018-06-18 21:08:41,13,0,23.554,3528.3942762944,76.443572,0.4921268,1.07007549356,0,0,-0.671082,332.5, 1.4, -1.2,0,0,1024,1024,1024,1024,331.9,-89.9,98,3.905,3.918,3.931,3.935,3.937,3.912,20.48,80.6,14,Waypoint,
37.0262651,-119.2351667,3529.3785282944,77.427824,0,0.76839569388,13200,2018-06-18 21:08:41,13,0,23.554,3529.3785282944,77.427824,0.4921268,1.07007549356,0,0,-0.671082,332.5, 1.5, -0.9,0,0,1024,1024,1024,1024,331.9,-89.9,98,3.905,3.918,3.931,3.935,3.937,3.912,20.48,80.6,14,Waypoint,
37.0262652,-119.2351668,3530.3627802944,78.412076,0,0.80741144316,13300,2018-06-18 21:08:41,13,0,23.554,3530.3627802944,78.412076,0.4921268,1.07007549356,0,0,-0.671082,332.4, 1.6, -0.8,0,0,1024,1024,1024,1024,331.9,-89.9,98,3.905,3.918,3.931,3.935,3.937,3.912,20.48,80.6,14,Waypoint,
37.0262652,-119.2351668,3531.3470322944,79.396328,0,0.80741144316,13400,2018-06-18 21:08:41,13,0,23.554,3531.3470322944,79.396328,0.4921268,1.07007549356,0,0,-0.671082,332.5, 1.7, -0.6,0,0,1024,1024,1024,1024,331.9,-89.9,98,3.905,3.918,3.931,3.935,3.937,3.912,20.48,80.6,14,Waypoint,
37.0262653,-119.2351668,3532.3312842944,80.38058,0,0.84369097188,13500,2018-06-18 21:08:41,13,0,23.554,3532.3312842944,80.38058,0.4921268,1.07007549356,0,0,-0.671082,332.6, 1.7, -0.7,0,0,1024,1024,1024,1024,331.9,-89.9,98,3.905,3.918,3.931,3.935,3.937,3.912,20.48,80.6,14,Waypoint,
37.0262653,-119.2351668,3533.3155362944,81.364832,0,0.84369097188,13600,2018-06-18 21:08:41,13,0,23.554,3533.3155362944,81.364832,0.4921268,1.07007549356,0,0,-0.671082,332.7, 1.2, -0.9,0,0,1024,1024,1024,1024,331.9,-89.9,98,3.905,3.918,3.931,3.935,3.937,3.912,20.48,80.6,14,Waypoint,
37.0262653,-119.2351669,3534.2997882944,82.349084,0,0.84720475152,13700,2018-06-18 21:08:41,13,0,23.554,3534.2997882944,82.349084,0.4921268,1.07007549356,0,0,-0.671082,332.9, 1.1, -0.9,0,0,1024,1024,1024,1024,331.9,-89.9,98,3.905,3.918,3.931,3.935,3.937,3.912,20.48,80.6,14,Waypoint,
37.0262653,-119.2351669,3535.2840402944,83.333336,0,0.84720475152,13810,2018-06-18 21:08:41,13,0,23.554,3535.2840402944,83.333336,0.4921268,1.07007549356,0,0,-0.671082,333.1, 1.2, -0.6,0,0,1024,1024,1024,1024,331.9,-89.9,98,3.905,3.918,3.931,3.935,3.937,3.912,20.48,80.6,14,Waypoint,
37.0262653,-119.2351669,3535.9402082944,83.989504,0,0.84720475152,13900,2018-06-18 21:08:41,13,0,23.554,3535.9402082944,83.989504,0.4921268,1.07007549356,0,0,-0.671082,333.2, 1.3, -0.3,0,0,1024,1024,1024,1024,331.9,-89.9,98,3.905,3.918,3.931,3.935,3.937,3.912,20.48,80.6,14,Waypoint,
37.0262652,-119.235167,3536.9244602944,84.973756,0,0.81577430432,14000,2018-06-18 21:08:42,13,0,23.452,3536.9244602944,84.973756,0.4921268,1.07007549356,0,0,-0.671082,333.2, 1.5, -0.1,0,0,1024,1024,1024,1024,331.9,-89.9,98,3.914,3.919,3.921,3.928,3.95,3.907,20.709,80.6,14,Waypoint,
37.0262652,-119.235167,3537.9087122944,85.958008,0,0.81577430432,14100,2018-06-18 21:08:42,13,0,23.452,3537.9087122944,85.958008,0.4921268,1.07007549356,0,0,-0.671082,333.1, 1.5, 0,0,0,1024,1024,1024,1024,331.9,-89.9,98,3.914,3.919,3.921,3.928,3.95,3.907,20.709,80.6,14,Waypoint,
37.0262652,-119.235167,3538.8929642944,86.94226,0,0.81577430432,14200,2018-06-18 21:08:42,13,0,23.452,3538.8929642944,86.94226,0.4921268,1.07007549356,0,0,-0.671082,333, 1.5, 0,0,0,1024,1024,1024,1024,331.9,-89.9,98,3.914,3.919,3.921,3.928,3.95,3.907,20.709,80.6,14,Waypoint,
37.0262652,-119.235167,3539.8772162944,87.926512,0,0.81577430432,14300,2018-06-18 21:08:42,13,0,23.452,3539.8772162944,87.926512,0.4921268,1.07007549356,0,0,-0.671082,332.9, 1.3, -0.3,0,0,1024,1024,1024,1024,331.9,-89.9,98,3.914,3.919,3.921,3.928,3.95,3.907,20.709,80.6,14,Waypoint,
37.0262652,-119.235167,3541.8457202944,89.895016,0,0.81577430432,14500,2018-06-18 21:08:42,13,0,23.452,3541.8457202944,89.895016,0.4921268,1.07007549356,0,0,-0.671082,332.7, 1.1, -0.8,0,0,1024,1024,1024,1024,331.9,-89.9,98,3.914,3.919,3.921,3.928,3.95,3.907,20.709,80.6,14,Waypoint,
37.0262653,-119.2351669,3542.8299722944,90.879268,0,0.84720475152,14700,2018-06-18 21:08:42,13,0,23.452,3542.8299722944,90.879268,0.4921268,1.07007549356,0,0,-0.671082,332.6, 1.3, -1.1,0,0,1024,1024,1024,1024,331.9,-89.9,98,3.914,3.919,3.921,3.928,3.95,3.907,20.709,80.6,14,Waypoint,
37.0262653,-119.2351669,3543.8142242944,91.86352,0,0.84720475152,14800,2018-06-18 21:08:42,13,0,23.452,3543.8142242944,91.86352,0.4921268,1.07007549356,0,0,-0.671082,332.6, 1.5, -1.2,0,0,1024,1024,1024,1024,331.9,-89.9,98,3.914,3.919,3.921,3.928,3.95,3.907,20.709,80.6,14,Waypoint,
37.0262653,-119.2351669,3544.7984762944,92.847772,0,0.84720475152,14900,2018-06-18 21:08:42,13,0,23.452,3544.7984762944,92.847772,0.4921268,1.07007549356,0,0,-0.671082,332.6, 1.6, -1.2,0,0,1024,1024,1024,1024,331.9,-89.9,98,3.914,3.919,3.921,3.928,3.95,3.907,20.709,80.6,14,Waypoint,
37.0262654,-119.2351669,3546.7669802944,94.816276,0,0.88335632748,15000,2018-06-18 21:08:43,13,0,23.452,3546.7669802944,94.816276,0.4921268,1.07007549356,0,0,-0.671082,332.6, 1.8, -1.5,0,0,1024,1024,1024,1024,331.9,-89.9,98,3.903,3.915,3.919,3.915,3.939,3.916,20.709,80.6,14,Waypoint,
37.0262654,-119.2351669,3547.7512322944,95.800528,0,0.88335632748,15100,2018-06-18 21:08:43,13,0,23.452,3547.7512322944,95.800528,0.4921268,1.07007549356,0,0,-0.671082,332.5, 2, -1.2,0,0,1024,1024,1024,1024,331.9,-89.9,98,3.903,3.915,3.919,3.915,3.939,3.916,20.709,80.6,14,Waypoint,
37.0262654,-119.2351669,3548.7354842944,96.78478,0,0.88335632748,15200,2018-06-18 21:08:43,13,0,23.452,3548.7354842944,96.78478,0.4921268,1.07007549356,0,0,-0.671082,332.5, 2.1, -1.3,0,0,1024,1024,1024,1024,331.9,-89.9,98,3.903,3.915,3.919,3.915,3.939,3.916,20.709,80.6,14,Waypoint,
37.0262655,-119.2351669,3549.7197362944,97.769032,0,0.91953415016,15300,2018-06-18 21:08:43,13,0,23.452,3549.7197362944,97.769032,0.4921268,1.07007549356,0,0,-0.671082,332.5, 2.3, -1.5,0,0,1024,1024,1024,1024,331.9,-89.9,98,3.903,3.915,3.919,3.915,3.939,3.916,20.709,80.6,14,Waypoint,
37.0262655,-119.2351668,3550.7039882944,98.753284,0,0.91629924192,15400,2018-06-18 21:08:43,13,0,23.452,3550.7039882944,98.753284,0.4921268,1.07007549356,0,0,-0.671082,332.6, 2.2, -1.7,0,0,1024,1024,1024,1024,331.9,-89.9,98,3.903,3.915,3.919,3.915,3.939,3.916,20.709,80.6,14,Waypoint,
37.0262655,-119.2351667,3551.6882402944,99.737536,0,0.91398296888,15500,2018-06-18 21:08:43,13,0,23.452,3551.6882402944,99.737536,0.4921268,1.07007549356,0,0,-0.671082,332.6, 2.1, -1.8,0,0,1024,1024,1024,1024,331.9,-89.9,98,3.903,3.915,3.919,3.915,3.939,3.916,20.709,80.6,14,Waypoint,
37.0262655,-119.2351666,3552.6724922944,100.721788,0,0.91258861188,15600,2018-06-18 21:08:43,13,0,23.452,3552.6724922944,100.721788,0.4921268,1.07007549356,0,0,-0.671082,332.6, 2, -1.9,0,0,1024,1024,1024,1024,331.9,-89.9,98,3.903,3.915,3.919,3.915,3.939,3.916,20.709,80.6,14,Waypoint,
37.0262655,-119.2351666,3553.6567442944,101.70604,0,0.91258861188,15700,2018-06-18 21:08:43,13,0,23.452,3553.6567442944,101.70604,0.4921268,1.07007549356,0,0,-0.671082,332.8, 1.7, -1.8,0,0,1024,1024,1024,1024,331.9,-90,98,3.903,3.915,3.919,3.915,3.939,3.916,20.709,80.6,14,Waypoint,
37.0262654,-119.2351665,3554.6409962944,102.690292,0,0.8756397918,15810,2018-06-18 21:08:43,13,0,23.452,3554.6409962944,102.690292,0.4921268,1.07007549356,0,0,-0.671082,332.9, 1.3, -1.8,0,0,1024,1024,1024,1024,331.9,-90,98,3.903,3.915,3.919,3.915,3.939,3.916,20.709,80.6,14,Waypoint,
37.0262654,-119.2351665,3555.6252482944,103.674544,0,0.8756397918,15900,2018-06-18 21:08:43,13,0,23.452,3555.6252482944,103.674544,0.4921268,1.07007549356,0,0,-0.671082,332.9, 0.9, -1.7,0,0,1024,1024,1024,1024,331.9,-90,98,3.903,3.915,3.919,3.915,3.939,3.916,20.709,80.6,14,Waypoint,
37.0262653,-119.2351664,3556.9375842944,104.98688,0,0.83965881952,16000,2018-06-18 21:08:44,13,0,23.454,3556.9375842944,104.98688,0.4921268,1.07007549356,0,0,-0.671082,333, 0.9, -1.9,0,0,1024,1024,1024,1024,331.9,-90,98,3.895,3.902,3.912,3.908,3.927,3.896,20.387,80.6,14,Waypoint,
37.0262652,-119.2351663,3557.9218362944,105.971132,0.223694,0.80478020948,16100,2018-06-18 21:08:44,13,0,23.454,3557.9218362944,105.971132,0.4921268,1.07007549356,0,0,-0.671082,333, 0.6, -1.9,0,0,1024,1024,1024,1024,331.9,-90,98,3.895,3.902,3.912,3.908,3.927,3.896,20.387,80.6,14,Waypoint,
37.0262652,-119.2351662,3559.2341722944,107.283468,0.223694,0.80741144316,16300,2018-06-18 21:08:44,13,0,23.454,3559.2341722944,107.283468,0.4921268,1.07007549356,0,0,-0.671082,333, 0.1, -1.9,0,0,1024,1024,1024,1024,331.9,-90,98,3.895,3.902,3.912,3.908,3.927,3.896,20.387,80.6,14,Waypoint,
37.0262652,-119.2351661,3560.2184242944,108.26772,0.223694,0.81107942228,16400,2018-06-18 21:08:44,13,0,23.454,3560.2184242944,108.26772,0.4921268,1.07007549356,0,0,-0.671082,332.9, 0, -2.1,0,0,1024,1024,1024,1024,331.9,-90,98,3.895,3.902,3.912,3.908,3.927,3.896,20.387,80.6,14,Waypoint,
37.0262652,-119.235166,3561.2026762944,109.251972,0.223694,0.81577430432,16500,2018-06-18 21:08:44,13,0,23.454,3561.2026762944,109.251972,0.4921268,1.07007549356,0,0,-0.671082,333, 0, -2.4,0,0,1024,1024,1024,1024,331.9,-90,98,3.895,3.902,3.912,3.908,3.927,3.896,20.387,80.6,14,Waypoint,
37.0262651,-119.2351659,3562.5150122944,110.564308,0.223694,0.78586288604,16600,2018-06-18 21:08:44,13,0,23.454,3562.5150122944,110.564308,0.4921268,1.07007549356,0,0,-0.671082,333.2, 0, -2,0,0,1024,1024,1024,1024,331.9,-90,98,3.895,3.902,3.912,3.908,3.927,3.896,20.387,80.6,14,Waypoint,
37.0262651,-119.2351657,3563.4992642944,111.54856,0.223694,0.8008366398,16700,2018-06-18 21:08:44,13,0,23.454,3563.4992642944,111.54856,0.4921268,1.07007549356,0,0,-0.671082,333.5, 0.1, -2.3,0,0,1024,1024,1024,1024,331.9,-90,98,3.895,3.902,3.912,3.908,3.927,3.896,20.387,80.6,14,Waypoint,
37.0262652,-119.2351656,3564.4835162944,112.532812,0.223694,0.84439307164,16800,2018-06-18 21:08:44,13,0,23.454,3564.4835162944,112.532812,0.4921268,1.07007549356,0,0,-0.671082,333.9, 0.3, -2.7,0,0,1024,1024,1024,1024,331.9,-89.9,98,3.895,3.902,3.912,3.908,3.927,3.896,20.387,80.6,14,Waypoint,
37.0262652,-119.2351654,3565.4677682944,113.517064,0.223694,0.864255277,16900,2018-06-18 21:08:44,13,0,23.454,3565.4677682944,113.517064,0.4921268,1.07007549356,0,0,-0.671082,334.1, 0.5, -3.2,0,0,1024,1024,1024,1024,331.9,-89.9,98,3.895,3.902,3.912,3.908,3.927,3.896,20.387,80.6,14,Waypoint,
37.0262652,-119.235165,3567.1081882944,115.157484,0.223694,0.91388126284,17000,2018-06-18 21:08:45,13,0,23.431,3567.1081882944,115.157484,0.4921268,1.07007549356,0,0,-0.671082,333.7, 0.6, -4,0,0,1024,1024,1024,1024,331.9,-90,98,3.883,3.896,3.912,3.909,3.929,3.895,20.226,80.6,14,Waypoint,
37.0262652,-119.2351647,3569.0766922944,117.125988,0.223694,0.95873690732,17200,2018-06-18 21:08:45,13,0,23.431,3569.0766922944,117.125988,0.4921268,1.07007549356,0,0,-0.671082,333.1, 0.4, -3.8,0,0,1024,1024,1024,1024,331.9,-90,98,3.883,3.896,3.912,3.909,3.929,3.895,20.226,80.6,14,Waypoint,
37.0262652,-119.2351645,3569.7328602944,117.782156,0.223694,0.99179465116,17300,2018-06-18 21:08:45,13,0,23.431,3569.7328602944,117.782156,0.4921268,1.07007549356,0,0,-0.671082,332.9, 0.1, -4.1,0,0,1024,1024,1024,1024,331.9,-90,98,3.883,3.896,3.912,3.909,3.929,3.895,20.226,80.6,14,Waypoint,
37.0262652,-119.2351644,3570.7171122944,118.766408,0,1.00917982232,17400,2018-06-18 21:08:45,14,0,23.431,3570.7171122944,118.766408,0.4921268,1.07007549356,0,0,-0.671082,332.7, 0, -4.2,0,0,1024,1024,1024,1024,331.9,-90,98,3.883,3.896,3.912,3.909,3.929,3.895,20.226,80.6,14,Waypoint,
37.0262652,-119.2351644,3571.7013642944,119.75066,0,1.00917982232,17500,2018-06-18 21:08:45,14,0,23.431,3571.7013642944,119.75066,0.4921268,1.07007549356,0,0,-0.671082,332.5, 0, -4.2,0,0,1024,1024,1024,1024,331.9,-89.9,98,3.883,3.896,3.912,3.909,3.929,3.895,20.226,80.6,14,Waypoint,
37.0262652,-119.2351644,3572.6856162944,120.734912,0,1.00917982232,17600,2018-06-18 21:08:45,14,0,23.431,3572.6856162944,120.734912,0.4921268,1.07007549356,0,0,-0.671082,332.4, 0, -3.9,0,0,1024,1024,1024,1024,331.9,-89.9,98,3.883,3.896,3.912,3.909,3.929,3.895,20.226,80.6,14,Waypoint,
37.0262652,-119.2351644,3573.6698682944,121.719164,0,1.00917982232,17700,2018-06-18 21:08:45,14,0,23.431,3573.6698682944,121.719164,0.4921268,1.07007549356,0,0,-0.671082,332.3, 0.1, -3.5,0,0,1024,1024,1024,1024,331.9,-89.9,98,3.883,3.896,3.912,3.909,3.929,3.895,20.226,80.6,14,Waypoint,
37.0262652,-119.2351644,3574.3260362944,122.375332,0,1.00917982232,17800,2018-06-18 21:08:45,14,0,23.431,3574.3260362944,122.375332,0.4921268,1.07007549356,0,0,-0.671082,332.4, 0, -2.9,0,0,1024,1024,1024,1024,331.9,-89.9,98,3.883,3.896,3.912,3.909,3.929,3.895,20.226,80.6,14,Waypoint,
37.0262651,-119.2351644,3575.3102882944,123.359584,0,0.98041013636,17900,2018-06-18 21:08:45,14,0,23.431,3575.3102882944,123.359584,0.4921268,1.07007549356,0,0,-0.671082,332.3, 0.1, -2.9,0,0,1024,1024,1024,1024,331.9,-90,98,3.883,3.896,3.912,3.909,3.929,3.895,20.226,80.6,14,Waypoint,
37.0262651,-119.2351645,3576.2945402944,124.343836,0,0.96250659248,18000,2018-06-18 21:08:46,14,0,23.492,3576.2945402944,124.343836,0.4921268,1.07007549356,0,0,-0.671082,332.4, -0.1, -2.9,0,0,1024,1024,1024,1024,331.9,-90,98,3.903,3.908,3.91,3.92,3.931,3.904,19.642,80.6,14,Waypoint,
37.026265,-119.2351645,3577.2787922944,125.328088,0.223694,0.93372378316,18100,2018-06-18 21:08:46,14,0,23.492,3577.2787922944,125.328088,0.4921268,1.07007549356,0,0,-0.671082,332.6, -0.7, -2.5,0,0,1024,1024,1024,1024,331.9,-90,98,3.903,3.908,3.91,3.92,3.931,3.904,19.642,80.6,14,Waypoint,
37.0262649,-119.2351646,3578.2630442944,126.31234,0.223694,0.88703742996,18200,2018-06-18 21:08:46,14,0,23.492,3578.2630442944,126.31234,0.4921268,1.07007549356,0,0,-0.671082,332.8, -1.4, -1.8,0,0,1024,1024,1024,1024,331.9,-90,98,3.903,3.908,3.91,3.92,3.931,3.904,19.642,80.6,14,Waypoint,
37.0262649,-119.2351646,3579.2472962944,127.296592,0.223694,0.88703742996,18300,2018-06-18 21:08:46,14,0,23.492,3579.2472962944,127.296592,0.4921268,1.07007549356,0,0,-0.671082,332.9, -1.7, -1.2,0,0,1024,1024,1024,1024,331.9,-90,98,3.903,3.908,3.91,3.92,3.931,3.904,19.642,80.6,14,Waypoint,
37.0262648,-119.2351647,3580.2315482944,128.280844,0.223694,0.84035107676,18400,2018-06-18 21:08:46,14,0,23.492,3580.2315482944,128.280844,0.4921268,1.07007549356,0,0,-0.671082,333, -1.6, -1,0,0,1024,1024,1024,1024,331.9,-89.9,98,3.903,3.908,3.91,3.92,3.931,3.904,19.642,80.6,14,Waypoint,
37.0262647,-119.2351648,3581.2158002944,129.265096,0.223694,0.79366472356,18500,2018-06-18 21:08:46,14,0,23.492,3581.2158002944,129.265096,0.4921268,1.07007549356,0,0,-0.671082,333.2, -1.5, -0.8,0,0,1024,1024,1024,1024,331.9,-89.9,98,3.903,3.908,3.91,3.92,3.931,3.904,19.642,80.6,14,Waypoint,
37.0262646,-119.2351649,3581.8719682944,129.921264,0.223694,0.74697837036,18700,2018-06-18 21:08:46,14,0,23.492,3581.8719682944,129.921264,0.4921268,1.07007549356,0,0,-0.671082,333.3, -1.1, -0.7,0,0,1024,1024,1024,1024,331.9,-89.9,98,3.903,3.908,3.91,3.92,3.931,3.904,19.642,80.6,14,Waypoint,
37.0262645,-119.235165,3582.8562202944,130.905516,0.223694,0.70029201716,18800,2018-06-18 21:08:46,14,0,23.492,3582.8562202944,130.905516,0.4921268,1.07007549356,0,0,-0.671082,333.3, -0.8, -0.8,0,0,1024,1024,1024,1024,331.9,-89.9,98,3.903,3.908,3.91,3.92,3.931,3.904,19.642,80.6,14,Waypoint,
37.0262644,-119.2351651,3583.8404722944,131.889768,0.223694,0.65360566396,18900,2018-06-18 21:08:46,14,0,23.492,3583.8404722944,131.889768,0.4921268,1.07007549356,0,0,-0.671082,333.2, -1.3, -0.5,0,0,1024,1024,1024,1024,331.9,-89.9,98,3.903,3.908,3.91,3.92,3.931,3.904,19.642,80.6,14,Waypoint,
37.0262644,-119.2351653,3584.8247242944,132.87402,0.223694,0.61893702768,19000,2018-06-18 21:08:47,14,0,23.267,3584.8247242944,132.87402,0.4921268,1.07007549356,0,0,-0.671082,333.2, -1.3, 0.2,0,0,1024,1024,1024,1024,331.9,-89.9,97,3.859,3.875,3.877,3.884,3.905,3.867,21.782,80.6,14,Waypoint,
37.0262643,-119.2351653,3585.8089762944,133.858272,0.223694,0.58918637056,19100,2018-06-18 21:08:47,14,0,23.267,3585.8089762944,133.858272,0.4921268,1.07007549356,0,0,-0.671082,333.4, -1.2, 0.3,0,0,1024,1024,1024,1024,331.9,-89.9,97,3.859,3.875,3.877,3.884,3.905,3.867,21.782,80.6,14,Waypoint,
37.0262641,-119.2351655,3587.7774802944,135.826776,0,0.49589568516,19200,2018-06-18 21:08:47,14,0,23.267,3587.7774802944,135.826776,0.4921268,1.07007549356,0,0,-0.671082,333.5, -1.2, 0.1,0,0,1024,1024,1024,1024,331.9,-89.9,97,3.859,3.875,3.877,3.884,3.905,3.867,21.782,80.6,14,Waypoint,
37.026264,-119.2351656,3589.7459842944,137.79528,0,0.44926510624,19400,2018-06-18 21:08:47,14,0,23.267,3589.7459842944,137.79528,0.4921268,1.07007549356,0,0,-0.671082,333.4, -1.1, -0.2,0,0,1024,1024,1024,1024,331.9,-90,97,3.859,3.875,3.877,3.884,3.905,3.867,21.782,80.6,14,Waypoint,
37.0262638,-119.2351656,3591.3864042944,139.4357,0,0.3923228472,19600,2018-06-18 21:08:47,14,0,23.267,3591.3864042944,139.4357,0.4921268,1.07007549356,0,0,-0.671082,333, -2.1, -0.9,0,0,1024,1024,1024,1024,331.9,-90,97,3.859,3.875,3.877,3.884,3.905,3.867,21.782,80.6,14,Waypoint,
37.0262637,-119.2351656,3592.3706562944,140.419952,0,0.3659941062,19700,2018-06-18 21:08:47,14,0,23.267,3592.3706562944,140.419952,0.4921268,1.07007549356,0,0,-0.671082,332.8, -2.4, -1.3,0,0,1024,1024,1024,1024,331.9,-90,97,3.859,3.875,3.877,3.884,3.905,3.867,21.782,80.6,14,Waypoint,
37.0262636,-119.2351656,3593.3549082944,141.404204,0,0.341535444,19800,2018-06-18 21:08:47,14,0,23.267,3593.3549082944,141.404204,0.4921268,1.07007549356,0,0,-0.671082,332.5, -2.7, -0.9,0,0,1024,1024,1024,1024,331.9,-90,97,3.859,3.875,3.877,3.884,3.905,3.867,21.782,80.6,14,Waypoint,
37.0262635,-119.2351657,3594.6672442944,142.71654,0,0.295938001596,19900,2018-06-18 21:08:47,14,0,23.267,3594.6672442944,142.71654,0.4921268,1.07007549356,0,0,-0.671082,332.3, -2.6, -0.3,0,0,1024,1024,1024,1024,331.9,-90,97,3.859,3.875,3.877,3.884,3.905,3.867,21.782,80.6,14,Waypoint,
37.0262634,-119.2351658,3595.6514962944,143.700792,0,0.250743446344,20000,2018-06-18 21:08:48,14,0,23.208,3595.6514962944,143.700792,0.4921268,1.07007549356,0,0,-0.671082,332.3, -2.2, -0.2,0,0,1024,1024,1024,1024,331.9,-89.9,97,3.859,3.875,3.877,3.884,3.905,3.867,21.834,80.6,14,Waypoint,
37.0262634,-119.235166,3596.6357482944,144.685044,0,0.206178484288,20100,2018-06-18 21:08:48,14,0,23.208,3596.6357482944,144.685044,0.4921268,1.07007549356,0,0,-0.671082,332.4, -1.8, 0.1,0,0,1024,1024,1024,1024,331.9,-89.9,97,3.859,3.875,3.877,3.884,3.905,3.867,21.834,80.6,14,Waypoint,
37.0262633,-119.2351661,3597.6200002944,145.669296,0,0.159860897504,20200,2018-06-18 21:08:48,14,0,23.208,3597.6200002944,145.669296,0.4921268,1.07007549356,0,0,-0.671082,332.6, -1.5, 0.1,0,0,1024,1024,1024,1024,331.9,-89.9,97,3.859,3.875,3.877,3.884,3.905,3.867,21.834,80.6,14,Waypoint,
37.0262633,-119.2351663,3598.6042522944,146.653548,0,0.123992458036,20300,2018-06-18 21:08:48,14,0,23.208,3598.6042522944,146.653548,0.4921268,1.07007549356,0,0,-0.671082,332.7, -1.4, 0.2,0,0,1024,1024,1024,1024,331.9,-89.9,97,3.859,3.875,3.877,3.884,3.905,3.867,21.834,80.6,14,Waypoint,
37.0262632,-119.2351664,3599.5885042944,147.6378,0,0.078568900152,20400,2018-06-18 21:08:48,14,0,23.208,3599.5885042944,147.6378,0.4921268,1.07007549356,0,0,-0.671082,332.8, -1.2, 0.9,0,0,1024,1024,1024,1024,331.9,-89.9,97,3.859,3.875,3.877,3.884,3.905,3.867,21.834,80.6,14,Waypoint,
37.0262631,-119.2351665,3600.5727562944,148.622052,0,0.036484909304,20500,2018-06-18 21:08:48,14,0,23.208,3600.5727562944,148.622052,0.4921268,1.07007549356,0,0,-0.671082,332.8, -1.4, 1.2,0,0,1024,1024,1024,1024,331.9,-89.9,97,3.859,3.875,3.877,3.884,3.905,3.867,21.834,80.6,14,Waypoint,
37.0262631,-119.2351667,3601.8850922944,149.934388,0,0.068738191176,20600,2018-06-18 21:08:48,14,0,23.208,3601.8850922944,149.934388,0.4921268,1.07007549356,0,0,-0.671082,332.9, -1.6, 1.3,0,0,1024,1024,1024,1024,331.9,-89.9,97,3.859,3.875,3.877,3.884,3.905,3.867,21.834,80.6,14,Waypoint,
37.026263,-119.2351668,3602.8693442944,150.91864,0,0.087384189148,20700,2018-06-18 21:08:48,14,0,23.208,3602.8693442944,150.91864,0.4921268,1.07007549356,0,0,-0.671082,333, -1.8, 1.4,0,0,1024,1024,1024,1024,331.9,-90,97,3.859,3.875,3.877,3.884,3.905,3.867,21.834,80.6,14,Waypoint,
37.0262629,-119.2351669,3603.8535962944,151.902892,0,0.122091211256,20810,2018-06-18 21:08:48,14,0,23.208,3603.8535962944,151.902892,0.4921268,1.07007549356,0,0,-0.671082,333.1, -1.6, 1.6,0,0,1024,1024,1024,1024,331.9,-89.9,97,3.859,3.875,3.877,3.884,3.905,3.867,21.834,80.6,14,Waypoint,
37.0262629,-119.2351669,3603.8535962944,151.902892,0,0.122091211256,20900,2018-06-18 21:08:48,14,0,23.208,3603.8535962944,151.902892,0.4921268,1.07007549356,0,0,-0.671082,333.1, -1.6, 1.6,0,0,1024,1024,1024,1024,331.9,-89.9,97,3.859,3.875,3.877,3.884,3.905,3.867,21.834,80.6,14,Waypoint,
37.0262628,-119.235167,3605.8221002944,153.871396,0,0.162897971092,21100,2018-06-18 21:08:49,14,0,23.208,3605.8221002944,153.871396,0.4921268,1.07007549356,0,0,-0.671082,333, -1.3, 1,0,0,1024,1024,1024,1024,331.9,-89.9,97,3.859,3.875,3.877,3.884,3.905,3.867,21.834,80.6,14,Waypoint,
37.0262628,-119.2351671,3606.8063522944,154.855648,0,0.189390426008,21200,2018-06-18 21:08:49,14,0,23.208,3606.8063522944,154.855648,0.4921268,1.07007549356,0,0,-0.671082,333, -1.5, 0.9,0,0,1024,1024,1024,1024,331.9,-89.9,97,3.859,3.875,3.877,3.884,3.905,3.867,21.834,80.6,14,Waypoint,
37.0262628,-119.2351671,3607.7906042944,155.8399,0,0.189390426008,21300,2018-06-18 21:08:49,14,0,23.208,3607.7906042944,155.8399,0.4921268,1.07007549356,0,0,-0.671082,333.1, -1.4, 0.9,0,0,1024,1024,1024,1024,331.9,-89.9,97,3.859,3.875,3.877,3.884,3.905,3.867,21.834,80.6,14,Waypoint,
37.0262628,-119.2351671,3608.7748562944,156.824152,0,0.189390426008,21400,2018-06-18 21:08:49,14,0,23.208,3608.7748562944,156.824152,0.4921268,1.07007549356,0,0,-0.671082,333.1, -0.9, 0.6,0,0,1024,1024,1024,1024,331.9,-89.9,97,3.859,3.875,3.877,3.884,3.905,3.867,21.834,80.6,14,Waypoint,
37.0262628,-119.2351672,3609.7591082944,157.808404,0,0.216560702468,21500,2018-06-18 21:08:49,14,0,23.208,3609.7591082944,157.808404,0.4921268,1.07007549356,0,0,-0.671082,333.2, -0.6, 0.3,0,0,1024,1024,1024,1024,331.9,-89.9,97,3.859,3.875,3.877,3.884,3.905,3.867,21.834,80.6,14,Waypoint,
37.0262627,-119.2351672,3612.7118642944,160.76116,0,0.231417986408,21700,2018-06-18 21:08:49,14,0,23.208,3612.7118642944,160.76116,0.4921268,1.07007549356,0,0,-0.671082,333.1, -2.2, 1.2,0,0,1024,1024,1024,1024,331.9,-90,97,3.859,3.875,3.877,3.884,3.905,3.867,21.834,80.6,14,Waypoint,
37.0262626,-119.2351672,3614.0242002944,162.073496,0,0.250743446344,21800,2018-06-18 21:08:49,14,0,23.208,3614.0242002944,162.073496,0.4921268,1.07007549356,0,0,-0.671082,332.9, -2.4, 1.2,0,0,1024,1024,1024,1024,331.9,-90,97,3.859,3.875,3.877,3.884,3.905,3.867,21.834,80.6,14,Waypoint,
37.0262626,-119.2351673,3615.0084522944,163.057748,0,0.274952764704,21900,2018-06-18 21:08:49,14,0,23.208,3615.0084522944,163.057748,0.4921268,1.07007549356,0,0,-0.671082,332.3, -2.7, 0.6,0,0,1024,1024,1024,1024,331.9,-90,97,3.859,3.875,3.877,3.884,3.905,3.867,21.834,80.6,14,Waypoint,
37.0262626,-119.2351673,3617.3050402944,165.354336,0,0.274952764704,22100,2018-06-18 21:08:50,14,0,23.208,3617.3050402944,165.354336,0.4921268,1.07007549356,0,0,-0.671082,331.8, -2, 1.1,0,0,1024,1024,1024,1024,331.9,-89.9,97,3.859,3.875,3.877,3.884,3.905,3.867,21.834,80.6,14,Waypoint,
37.0262626,-119.2351673,3618.2892922944,166.338588,0,0.274952764704,22200,2018-06-18 21:08:50,14,0,23.208,3618.2892922944,166.338588,0.4921268,1.07007549356,0,0,-0.671082,331.9, -1.8, 1.5,0,0,1024,1024,1024,1024,331.9,-89.9,97,3.859,3.875,3.877,3.884,3.905,3.867,21.834,80.6,14,Waypoint,
37.0262626,-119.2351673,3619.2735442944,167.32284,0,0.274952764704,22300,2018-06-18 21:08:50,14,0,23.208,3619.2735442944,167.32284,0.4921268,1.07007549356,0,0,-0.671082,332.3, -1.9, 1.6,0,0,1024,1024,1024,1024,331.9,-89.9,97,3.859,3.875,3.877,3.884,3.905,3.867,21.834,80.6,14,Waypoint,
37.0262625,-119.2351673,3620.2577962944,168.307092,0,0.295938001596,22400,2018-06-18 21:08:50,14,0,23.208,3620.2577962944,168.307092,0.4921268,1.07007549356,0,0,-0.671082,332.6, -2, 1.7,0,0,1024,1024,1024,1024,331.9,-90,97,3.859,3.875,3.877,3.884,3.905,3.867,21.834,80.6,14,Waypoint,
37.0262625,-119.2351673,3621.2420482944,169.291344,0,0.295938001596,22500,2018-06-18 21:08:50,14,0,23.208,3621.2420482944,169.291344,0.4921268,1.07007549356,0,0,-0.671082,333, -1.9, 1.8,0,0,1024,1024,1024,1024,331.9,-89.9,97,3.859,3.875,3.877,3.884,3.905,3.867,21.834,80.6,14,Waypoint,
37.0262625,-119.2351672,3621.8982162944,169.947512,0,0.273592200356,22600,2018-06-18 21:08:50,14,0,23.208,3621.8982162944,169.947512,0.4921268,1.07007549356,0,0,-0.671082,333.3, -1.6, 1.5,0,0,1024,1024,1024,1024,331.9,-89.9,97,3.859,3.875,3.877,3.884,3.905,3.867,21.834,80.6,14,Waypoint,
37.0262625,-119.2351672,3622.8824682944,170.931764,0,0.273592200356,22700,2018-06-18 21:08:50,14,0,23.208,3622.8824682944,170.931764,0.4921268,1.07007549356,0,0,-0.671082,333.5, -1.7, 1.4,0,0,1024,1024,1024,1024,331.9,-90,97,3.859,3.875,3.877,3.884,3.905,3.867,21.834,80.6,14,Waypoint,
37.0262625,-119.2351671,3623.8667202944,171.916016,0,0.252631897848,22800,2018-06-18 21:08:50,14,0,23.208,3623.8667202944,171.916016,0.4921268,1.07007549356,0,0,-0.671082,333.5, -1.9, 0.9,0,0,1024,1024,1024,1024,331.9,-90,97,3.859,3.875,3.877,3.884,3.905,3.867,21.834,80.6,14,Waypoint,
37.0262626,-119.235167,3625.8352242944,173.88452,0,0.206178484288,23000,2018-06-18 21:08:51,14,0,23.292,3625.8352242944,173.88452,0.4921268,1.07007549356,0,0,-0.671082,333.3, -2, 0.6,0,0,1024,1024,1024,1024,331.9,-89.9,97,3.864,3.87,3.895,3.884,3.903,3.873,20.347,82.4,14,Waypoint,
37.0262627,-119.2351669,3626.8194762944,174.868772,0,0.159860897504,23200,2018-06-18 21:08:51,14,0,23.292,3626.8194762944,174.868772,0.4921268,1.07007549356,0,0,-0.671082,333.1, -2.1, 0.3,0,0,1024,1024,1024,1024,331.9,-89.9,97,3.864,3.87,3.895,3.884,3.903,3.873,20.347,82.4,14,Waypoint,
37.0262627,-119.2351669,3627.8037282944,175.853024,0,0.159860897504,23300,2018-06-18 21:08:51,14,0,23.292,3627.8037282944,175.853024,0.4921268,1.07007549356,0,0,-0.671082,332.9, -1.7, 0.1,0,0,1024,1024,1024,1024,331.9,-89.9,97,3.864,3.87,3.895,3.884,3.903,3.873,20.347,82.4,14,Waypoint,
37.0262628,-119.2351669,3628.4598962944,176.509192,0,0.137476382352,23400,2018-06-18 21:08:51,14,0,23.292,3628.4598962944,176.509192,0.4921268,1.07007549356,0,0,-0.671082,332.8, -1.3, 0.1,0,0,1024,1024,1024,1024,331.9,-89.9,97,3.864,3.87,3.895,3.884,3.903,3.873,20.347,82.4,14,Waypoint,
37.0262629,-119.2351669,3629.4441482944,177.493444,0.223694,0.122091211256,23500,2018-06-18 21:08:51,14,0,23.292,3629.4441482944,177.493444,0.4921268,1.07007549356,0,0,-0.671082,332.7, -1, 0,0,0,1024,1024,1024,1024,331.9,-89.9,97,3.864,3.87,3.895,3.884,3.903,3.873,20.347,82.4,14,Waypoint,
37.026263,-119.235167,3630.4284002944,178.477696,0.223694,0.145640424608,23600,2018-06-18 21:08:51,14,0,23.292,3630.4284002944,178.477696,0.4921268,1.07007549356,0,0,-0.671082,332.6, -0.8, 0.1,0,0,1024,1024,1024,1024,331.9,-89.9,97,3.864,3.87,3.895,3.884,3.903,3.873,20.347,82.4,14,Waypoint,
37.0262631,-119.235167,3631.4126522944,179.461948,0,0.15014108092,23700,2018-06-18 21:08:51,14,0,23.292,3631.4126522944,179.461948,0.4921268,1.07007549356,0,0,-0.671082,332.7, -0.6, 0.3,0,0,1024,1024,1024,1024,331.9,-89.9,97,3.864,3.87,3.895,3.884,3.903,3.873,20.347,82.4,14,Waypoint,
37.0262632,-119.235167,3632.3969042944,180.4462,0,0.162897971092,23800,2018-06-18 21:08:51,14,0,23.292,3632.3969042944,180.4462,0.4921268,1.07007549356,0,0,-0.671082,332.7, -0.4, 0.4,0,0,1024,1024,1024,1024,331.9,-89.9,97,3.864,3.87,3.895,3.884,3.903,3.873,20.347,82.4,14,Waypoint,
37.0262634,-119.2351671,3634.3654082944,182.414704,0,0.227689311748,24000,2018-06-18 21:08:52,14,0,23.292,3634.3654082944,182.414704,0.4921268,1.07007549356,0,0,-0.671082,332.6, 0, 0.3,0,0,1024,1024,1024,1024,331.9,-89.9,97,3.864,3.87,3.895,3.884,3.903,3.873,20.347,82.4,14,Waypoint,
37.0262634,-119.2351671,3635.3496602944,183.398956,0,0.227689311748,24100,2018-06-18 21:08:52,14,0,23.292,3635.3496602944,183.398956,0.4921268,1.07007549356,0,0,-0.671082,332.4, -0.1, 0.2,0,0,1024,1024,1024,1024,331.9,-89.9,97,3.864,3.87,3.895,3.884,3.903,3.873,20.347,82.4,14,Waypoint,
37.0262635,-119.2351671,3637.3181642944,185.36746,0,0.252631897848,24200,2018-06-18 21:08:52,14,0,23.292,3637.3181642944,185.36746,0.4921268,1.07007549356,0,0,-0.671082,332.3, -0.9, 0.2,0,0,1024,1024,1024,1024,331.9,-89.9,97,3.864,3.87,3.895,3.884,3.903,3.873,20.347,82.4,14,Waypoint,
37.0262636,-119.2351671,3639.2866682944,187.335964,0,0.280116806864,24400,2018-06-18 21:08:52,14,0,23.292,3639.2866682944,187.335964,0.4921268,1.07007549356,0,0,-0.671082,332.5, -0.8, 0.5,0,0,1024,1024,1024,1024,331.9,-89.9,97,3.864,3.87,3.895,3.884,3.903,3.873,20.347,82.4,14,Waypoint,
37.0262636,-119.2351671,3640.2709202944,188.320216,0,0.280116806864,24500,2018-06-18 21:08:52,14,0,23.292,3640.2709202944,188.320216,0.4921268,1.07007549356,0,0,-0.671082,332.7, -0.9, 0.4,0,0,1024,1024,1024,1024,331.9,-89.9,97,3.864,3.87,3.895,3.884,3.903,3.873,20.347,82.4,14,Waypoint,
37.0262636,-119.235167,3641.2551722944,189.304468,0,0.262930782692,24600,2018-06-18 21:08:52,14,0,23.292,3641.2551722944,189.304468,0.4921268,1.07007549356,0,0,-0.671082,332.9, -0.8, 0.2,0,0,1024,1024,1024,1024,331.9,-89.9,97,3.864,3.87,3.895,3.884,3.903,3.873,20.347,82.4,14,Waypoint,
37.0262636,-119.235167,3642.2394242944,190.28872,0,0.262930782692,24700,2018-06-18 21:08:52,14,0,23.292,3642.2394242944,190.28872,0.4921268,1.07007549356,0,0,-0.671082,333.1, -0.9, 0.2,0,0,1024,1024,1024,1024,331.9,-89.9,97,3.864,3.87,3.895,3.884,3.903,3.873,20.347,82.4,14,Waypoint,
37.0262636,-119.235167,3643.2236762944,191.272972,0,0.262930782692,24800,2018-06-18 21:08:52,14,0,23.292,3643.2236762944,191.272972,0.4921268,1.07007549356,0,0,-0.671082,333.2, -0.9, 0.2,0,0,1024,1024,1024,1024,331.9,-89.9,97,3.864,3.87,3.895,3.884,3.903,3.873,20.347,82.4,14,Waypoint,
37.0262636,-119.235167,3644.2079282944,192.257224,0,0.262930782692,24900,2018-06-18 21:08:52,14,0,23.292,3644.2079282944,192.257224,0.4921268,1.07007549356,0,0,-0.671082,333.1, -0.6, 0,0,0,1024,1024,1024,1024,331.9,-89.9,97,3.864,3.87,3.895,3.884,3.903,3.873,20.347,82.4,14,Waypoint,
37.0262636,-119.235167,3645.1921802944,193.241476,0,0.262930782692,25000,2018-06-18 21:08:53,14,0,23.211,3645.1921802944,193.241476,0.4921268,1.07007549356,0,0,-0.671082,333.2, -1, 0.1,0,0,1024,1024,1024,1024,331.9,-90,97,3.85,3.855,3.874,3.872,3.896,3.858,21.116,82.4,14,Waypoint,
37.0262636,-119.235167,3646.1764322944,194.225728,0,0.262930782692,25100,2018-06-18 21:08:53,14,0,23.211,3646.1764322944,194.225728,0.4921268,1.07007549356,0,0,-0.671082,333.4, -1.9, 0.3,0,0,1024,1024,1024,1024,331.9,-90,97,3.85,3.855,3.874,3.872,3.896,3.858,21.116,82.4,14,Waypoint,
37.0262636,-119.235167,3647.1606842944,195.20998,0,0.262930782692,25200,2018-06-18 21:08:53,14,0,23.211,3647.1606842944,195.20998,0.4921268,1.07007549356,0,0,-0.671082,333.5, -2.1, 0.5,0,0,1024,1024,1024,1024,331.9,-90,97,3.85,3.855,3.874,3.872,3.896,3.858,21.116,82.4,14,Waypoint,
37.0262636,-119.235167,3648.1449362944,196.194232,0,0.262930782692,25300,2018-06-18 21:08:53,14,0,23.211,3648.1449362944,196.194232,0.4921268,1.07007549356,0,0,-0.671082,333.6, -1.8, 0.6,0,0,1024,1024,1024,1024,331.9,-90,97,3.85,3.855,3.874,3.872,3.896,3.858,21.116,82.4,14,Waypoint,
37.0262636,-119.235167,3649.1291882944,197.178484,0,0.262930782692,25400,2018-06-18 21:08:53,14,0,23.211,3649.1291882944,197.178484,0.4921268,1.07007549356,0,0,-0.671082,333.6, -1.6, 0.6,0,0,1024,1024,1024,1024,331.9,-89.9,97,3.85,3.855,3.874,3.872,3.896,3.858,21.116,82.4,14,Waypoint,
37.0262637,-119.2351669,3651.0976922944,199.146988,0,0.280716216332,25600,2018-06-18 21:08:53,14,0,23.211,3651.0976922944,199.146988,0.4921268,1.07007549356,0,0,-0.671082,333.3, -1.2, 0.1,0,0,1024,1024,1024,1024,331.9,-89.9,97,3.85,3.855,3.874,3.872,3.896,3.858,21.116,82.4,14,Waypoint,
37.0262637,-119.2351669,3652.0819442944,200.13124,0,0.280716216332,25800,2018-06-18 21:08:53,14,0,23.211,3652.0819442944,200.13124,0.4921268,1.07007549356,0,0,-0.671082,333.3, -0.6, 0,0,0,1024,1024,1024,1024,331.9,-89.9,97,3.85,3.855,3.874,3.872,3.896,3.858,21.116,82.4,14,Waypoint,
37.0262638,-119.2351668,3653.0661962944,201.115492,0,0.304679471692,25900,2018-06-18 21:08:53,14,0,23.211,3653.0661962944,201.115492,0.4921268,1.07007549356,0,0,-0.671082,333.3, -0.3, 0,0,0,1024,1024,1024,1024,331.9,-89.9,97,3.85,3.855,3.874,3.872,3.896,3.858,21.116,82.4,14,Waypoint,
37.0262638,-119.2351666,3654.0504482944,202.099744,0.223694,0.293329405712,26000,2018-06-18 21:08:54,14,0,23.211,3654.0504482944,202.099744,0.4921268,1.07007549356,0,0,-0.671082,333.3, 0.1, -0.4,0,0,1024,1024,1024,1024,331.9,-89.9,97,3.853,3.866,3.867,3.878,3.896,3.862,21.116,82.4,14,Waypoint,
37.0262638,-119.2351665,3655.0347002944,203.083996,0.223694,0.291879602516,26100,2018-06-18 21:08:54,14,0,23.211,3655.0347002944,203.083996,0.4921268,1.07007549356,0,0,-0.671082,333.2, -0.7, -0.8,0,0,1024,1024,1024,1024,331.9,-90,97,3.853,3.866,3.867,3.878,3.896,3.862,21.116,82.4,14,Waypoint,
37.0262638,-119.2351663,3656.0189522944,204.068248,0.223694,0.297636492464,26200,2018-06-18 21:08:54,14,0,23.211,3656.0189522944,204.068248,0.4921268,1.07007549356,0,0,-0.671082,333.2, -1.5, -1.3,0,0,1024,1024,1024,1024,331.9,-90,97,3.853,3.866,3.867,3.878,3.896,3.862,21.116,82.4,14,Waypoint,
37.0262638,-119.2351659,3658.9717082944,207.021004,0,0.34020342296,26400,2018-06-18 21:08:54,14,0,23.211,3658.9717082944,207.021004,0.4921268,1.07007549356,0,0,-0.671082,333.1, -2.4, -2,0,0,1024,1024,1024,1024,331.9,-90,97,3.853,3.866,3.867,3.878,3.896,3.862,21.116,82.4,14,Waypoint,
37.0262638,-119.2351658,3660.9402122944,208.989508,0,0.35604331848,26600,2018-06-18 21:08:54,14,0,23.211,3660.9402122944,208.989508,0.4921268,1.07007549356,0,0,-0.671082,332.5, -1.7, -0.7,0,0,1024,1024,1024,1024,331.9,-89.9,97,3.853,3.866,3.867,3.878,3.896,3.862,21.116,82.4,14,Waypoint,
37.0262639,-119.2351658,3662.9087162944,210.958012,0,0.38651904124,26800,2018-06-18 21:08:54,14,0,23.211,3662.9087162944,210.958012,0.4921268,1.07007549356,0,0,-0.671082,331.7, -1.5, -1,0,0,1024,1024,1024,1024,331.9,-89.9,97,3.853,3.866,3.867,3.878,3.896,3.862,21.116,82.4,14,Waypoint,
37.0262639,-119.2351658,3663.8929682944,211.942264,0,0.38651904124,26900,2018-06-18 21:08:54,14,0,23.211,3663.8929682944,211.942264,0.4921268,1.07007549356,0,0,-0.671082,331.4, -1.5, 0,0,0,1024,1024,1024,1024,331.9,-89.9,97,3.853,3.866,3.867,3.878,3.896,3.862,21.116,82.4,14,Waypoint,
