Latitude, Longitude, Altitude (m), Time, Sats, Speed (m/s), Range (m), Battery (%), Roll (deg), Pitch (deg), Yaw (deg), Images, HD Signal (%), RC Signal (%), Battery Temp (C), Battery Voltage (mV), Battery Current (mA), Battery Energy (mAh), Battery Capacity (mAh), Battery Discharges, flyState, timestamp (Unix), LastUpdate (ms), radioChannel, Rc_elevator, Rc_aileron, Rc_throttle, Rc_rudder, Rc_gyro, Dronetype, Battery_Cell1 (mV), Battery_Cell2 (mV), Battery_Cell3 (mV), Battery_Cell4 (mV), Battery_Cell5 (mV), Battery_Cell6 (mV), Video, isFlying, elapsedTime (ms), gimbalPitch (deg), gimbalRoll (deg), gimbalYaw (deg), VelocityX (m/s), VelocityY (m/s), VelocityZ (m/s), GroundSmear (cm), App Version, Aircraft Name, Aircraft Firmware, Aircraft Serial Number, Battery Serial Number, Battery Lifetime (%), App_Tip, App_Warning, CurrentFlightStartingIndex, CurrentFlightLastVisitedWaypoint, PreviousFlightEndingWaypointIndex
37.0263021, -119.2351608, 0.000, 13:48:56.808, 11, 0.14, 0.06, 100, 0.000, 2.400, -23.100, 2, 100, 100, 29, 25726, -2962, 5320, 5320, 20, 11, 1529354936.808, 53, 0, 1024, 1024, 1024, 1024, 0, 6, 4305, 4303, 4272, 4298, 4311, 4262, 0, 1, 2849, -90.000, 0.000, -24.800, -0.100, 0.100, -0.100, 0.0, MapPilot_2.8.1_04242018, Dendroctonus I, 1.3.1.00, 041DDC1887, 1058163200505, 95, DJI_0001.jpg, Starting Mission from Lat/Long: 37.02630/-119.23515 Camera: Zenmuse X3 - Overlap: 90/90 - Active Connection: No, 0, 0, 0
37.0263019, -119.2351606, 0.000, 13:48:56.860, 11, 0.14, 0.08, 100, 0.000, 1.200, -22.800, 2, 100, 100, 29, 25726, -2962, 5320, 5320, 20, 11, 1529354936.860, 31, 0, 1024, 1024, 1024, 1024, 0, 6, 4305, 4303, 4272, 4298, 4311, 4262, 0, 1, 2901, -90.000, 0.000, -24.800, -0.100, 0.100, -0.200, 0.0, , , , , , 95, , , 0, 0, 0
37.0263017, -119.2351605, 0.000, 13:48:56.960, 11, 0.14, 0.10, 100, 0.200, 0.100, -22.600, 2, 100, 100, 29, 25726, -2962, 5320, 5320, 20, 11, 1529354936.960, 22, 0, 1024, 1024, 1024, 1024, 0, 6, 4305, 4303, 4272, 4298, 4311, 4262, 0, 1, 3001, -89.900, 0.000, -24.700, -0.100, 0.100, -0.300, 0.0, , , , , , 95, , , 0, 0, 0
37.0263015, -119.2351603, 0.000, 13:48:57.060, 12, 0.14, 0.12, 100, 0.200, -0.500, -22.700, 2, 100, 100, 29, 25669, -4092, 5320, 5320, 20, 11, 1529354937.060, 21, 0, 1024, 1024, 1024, 1024, 0, 6, 4241, 4257, 4247, 4283, 4272, 4246, 0, 1, 3101, -90.000, 0.000, -24.700, -0.100, 0.100, -0.300, 0.0, , , , , , 95, , , 0, 0, 0
37.0263015, -119.2351603, 0.000, 13:48:57.160, 12, 0.14, 0.12, 100, 0.200, -0.500, -22.700, 2, 100, 100, 29, 25669, -4092, 5320, 5320, 20, 11, 1529354937.160, 121, 0, 1024, 1024, 1024, 1024, 0, 6, 4241, 4257, 4247, 4283, 4272, 4246, 0, 1, 3201, -90.000, 0.000, -24.700, -0.100, 0.100, -0.300, 0.0, , , , , , 95, , , 0, 0, 0
37.0263013, -119.2351602, 0.100, 13:48:57.259, 12, 0.14, 0.15, 100, 0.200, -1.000, -22.800, 2, 100, 100, 29, 25669, -4092, 5320, 5320, 20, 11, 1529354937.259, 96, 0, 1024, 1024, 1024, 1024, 0, 6, 4241, 4257, 4247, 4283, 4272, 4246, 0, 1, 3300, -90.000, 0.000, -24.700, -0.100, 0.100, -0.400, 0.0, , , , , , 95, , , 0, 0, 0
37.0263011, -119.2351601, 0.100, 13:48:57.359, 12, 0.14, 0.17, 100, 0.000, -1.500, -23.000, 2, 100, 100, 29, 25669, -4092, 5320, 5320, 20, 11, 1529354937.359, 99, 0, 1024, 1024, 1024, 1024, 0, 6, 4241, 4257, 4247, 4283, 4272, 4246, 0, 1, 3400, -90.000, 0.000, -24.700, -0.100, 0.100, -0.400, 0.0, , , , , , 95, , , 0, 0, 0
37.0263009, -119.2351600, 0.200, 13:48:57.459, 12, 0.14, 0.19, 100, -0.200, -2.000, -23.300, 2, 100, 100, 29, 25669, -4092, 5320, 5320, 20, 11, 1529354937.459, 99, 0, 1024, 1024, 1024, 1024, 0, 6, 4241, 4257, 4247, 4283, 4272, 4246, 0, 1, 3500, -89.900, 0.000, -24.600, -0.100, 0.100, -0.400, 0.0, , , , , , 95, , , 0, 0, 0
37.0263008, -119.2351600, 0.200, 13:48:57.559, 11, 0.00, 0.21, 100, -0.300, -1.900, -23.500, 2, 100, 100, 29, 25669, -4092, 5320, 5320, 20, 11, 1529354937.559, 89, 0, 1024, 1024, 1024, 1024, 0, 6, 4241, 4257, 4247, 4283, 4272, 4246, 0, 1, 3600, -89.900, 0.000, -24.600, 0.000, 0.000, -0.400, 0.0, , , , , , 95, , , 0, 0, 0
37.0263007, -119.2351600, 0.300, 13:48:57.659, 11, 0.00, 0.22, 100, -0.200, -1.100, -23.600, 2, 100, 100, 29, 25669, -4092, 5320, 5320, 20, 11, 1529354937.659, 91, 0, 1024, 1024, 1024, 1024, 0, 6, 4241, 4257, 4247, 4283, 4272, 4246, 0, 1, 3700, -89.900, 0.000, -24.600, 0.000, 0.000, -0.400, 0.0, , , , , , 95, , , 0, 0, 0
37.0263007, -119.2351600, 0.300, 13:48:57.759, 11, 0.00, 0.22, 100, -0.100, -0.500, -23.700, 2, 100, 100, 29, 25669, -4092, 5320, 5320, 20, 11, 1529354937.759, 88, 0, 1024, 1024, 1024, 1024, 0, 6, 4241, 4257, 4247, 4283, 4272, 4246, 0, 1, 3800, -89.900, 0.000, -24.600, 0.000, 0.000, -0.300, 0.0, , , , , , 95, , , 0, 0, 0
37.0263006, -119.2351600, 0.400, 13:48:57.859, 12, 0.00, 0.23, 100, -0.200, 0.000, -23.600, 2, 100, 100, 29, 25669, -4092, 5320, 5320, 20, 11, 1529354937.859, 55, 0, 1024, 1024, 1024, 1024, 0, 6, 4241, 4257, 4247, 4283, 4272, 4246, 0, 1, 3900, -89.900, 0.000, -24.500, 0.000, 0.000, -0.400, 0.0, , , , , , 95, , , 0, 0, 0
37.0263006, -119.2351601, 0.500, 13:48:57.959, 12, 0.00, 0.23, 100, -0.200, 0.000, -23.400, 2, 100, 100, 29, 25669, -4092, 5320, 5320, 20, 11, 1529354937.959, 72, 0, 1024, 1024, 1024, 1024, 0, 6, 4241, 4257, 4247, 4283, 4272, 4246, 0, 1, 4000, -89.900, 0.000, -24.500, 0.000, 0.000, -0.400, 0.0, , , , , , 95, , , 0, 0, 0
37.0263006, -119.2351601, 0.500, 13:48:58.059, 12, 0.00, 0.23, 100, -0.100, 0.200, -23.200, 2, 100, 100, 29, 24716, -15021, 5320, 5320, 20, 11, 1529354938.059, 61, 0, 1024, 1024, 1024, 1024, 0, 6, 4241, 4257, 4247, 4283, 4272, 4246, 0, 1, 4100, -89.900, 0.000, -24.500, 0.000, 0.000, -0.400, 0.0, , , , , , 95, , , 0, 0, 0
37.0263006, -119.2351601, 0.600, 13:48:58.159, 12, 0.00, 0.23, 100, 0.000, 0.200, -23.000, 2, 100, 100, 29, 24716, -15021, 5320, 5320, 20, 11, 1529354938.159, 52, 0, 1024, 1024, 1024, 1024, 0, 6, 4241, 4257, 4247, 4283, 4272, 4246, 0, 1, 4200, -89.900, 0.000, -24.500, 0.000, 0.000, -0.400, 0.0, , , , , , 95, , , 0, 0, 0
37.0263006, -119.2351602, 0.600, 13:48:58.258, 12, 0.00, 0.23, 100, 0.000, 0.200, -22.700, 2, 100, 100, 29, 24716, -15021, 5320, 5320, 20, 11, 1529354938.259, 44, 0, 1024, 1024, 1024, 1024, 0, 6, 4241, 4257, 4247, 4283, 4272, 4246, 0, 1, 4300, -89.900, 0.000, -24.500, 0.000, 0.000, -0.400, 0.0, , , , , , 95, , , 0, 0, 0
37.0263005, -119.2351602, 0.700, 13:48:58.358, 12, 0.00, 0.23, 100, 0.100, 0.100, -22.600, 2, 100, 100, 29, 24716, -15021, 5320, 5320, 20, 11, 1529354938.359, 48, 0, 1024, 1024, 1024, 1024, 0, 6, 4241, 4257, 4247, 4283, 4272, 4246, 0, 1, 4400, -89.900, 0.000, -24.400, 0.000, 0.000, -0.400, 0.0, , , , , , 95, , , 0, 0, 0
37.0263005, -119.2351603, 0.700, 13:48:58.458, 12, 0.00, 0.23, 100, 0.200, 0.000, -22.700, 2, 100, 100, 29, 24716, -15021, 5320, 5320, 20, 11, 1529354938.459, 29, 0, 1024, 1024, 1024, 1024, 0, 6, 4241, 4257, 4247, 4283, 4272, 4246, 0, 1, 4500, -89.900, 0.000, -24.400, 0.000, 0.000, -0.500, 0.0, , , , , , 95, , , 0, 0, 0
37.0263005, -119.2351605, 0.800, 13:48:58.558, 12, 0.00, 0.23, 100, 0.400, 0.100, -22.800, 2, 100, 100, 29, 24716, -15021, 5213, 5320, 20, 11, 1529354938.559, 39, 0, 1024, 1024, 1024, 1024, 0, 6, 4104, 4095, 4109, 4137, 4129, 4109, 0, 1, 4600, -89.900, 0.000, -24.400, 0.000, 0.000, -0.500, 0.0, , , , , , 95, , , 0, 0, 0
37.0263005, -119.2351606, 0.800, 13:48:58.659, 11, 0.00, 0.24, 100, 0.600, 0.200, -23.000, 2, 100, 100, 29, 24716, -15021, 5213, 5320, 20, 11, 1529354938.659, 43, 0, 1024, 1024, 1024, 1024, 0, 6, 4104, 4095, 4109, 4137, 4129, 4109, 0, 1, 4700, -89.900, 0.000, -24.400, 0.000, 0.000, -0.400, 0.0, , , , , , 95, , , 0, 0, 0
37.0263004, -119.2351606, 0.900, 13:48:58.758, 11, 0.00, 0.25, 100, 0.800, 0.100, -23.100, 2, 100, 100, 29, 24716, -15021, 5213, 5320, 20, 6, 1529354938.759, 25, 0, 1024, 1024, 1024, 1024, 0, 6, 4104, 4095, 4109, 4137, 4129, 4109, 0, 1, 4800, -89.900, 0.000, -24.400, 0.000, 0.000, -0.400, 0.0, , , , , , 95, , , 0, 0, 0
37.0263004, -119.2351607, 0.900, 13:48:58.859, 12, 0.00, 0.25, 100, 0.800, 0.000, -23.200, 2, 100, 100, 29, 24716, -15021, 5213, 5320, 20, 14, 1529354938.859, 19, 0, 1024, 1024, 1024, 1024, 0, 6, 4104, 4095, 4109, 4137, 4129, 4109, 0, 1, 4900, -89.900, 0.000, -24.400, 0.000, 0.000, -0.400, 0.0, , , , , , 95, , , 0, 0, 0
37.0263004, -119.2351607, 0.900, 13:48:58.959, 12, 0.00, 0.25, 100, 0.800, 0.000, -23.200, 2, 100, 100, 29, 24716, -15021, 5213, 5320, 20, 14, 1529354938.959, 119, 0, 1024, 1024, 1024, 1024, 0, 6, 4104, 4095, 4109, 4137, 4129, 4109, 0, 1, 5000, -89.900, 0.000, -24.400, 0.000, 0.000, -0.400, 0.0, , , , , , 95, , , 0, 0, 0
37.0263004, -119.2351608, 1.000, 13:48:59.058, 12, 0.00, 0.25, 100, 0.500, 0.000, -23.400, 2, 100, 100, 29, 24716, -15021, 5213, 5320, 20, 14, 1529354939.059, 87, 0, 1024, 1024, 1024, 1024, 0, 6, 4104, 4095, 4109, 4137, 4129, 4109, 0, 1, 5100, -89.900, 0.000, -24.400, 0.000, 0.000, -0.200, 0.0, , , , , , 95, , , 0, 0, 0
37.0263004, -119.2351608, 1.000, 13:48:59.158, 12, 0.00, 0.25, 100, 0.400, 0.200, -23.400, 2, 100, 100, 29, 24716, -15021, 5213, 5320, 20, 14, 1529354939.159, 85, 0, 1024, 1024, 1024, 1024, 0, 6, 4104, 4095, 4109, 4137, 4129, 4109, 0, 1, 5200, -89.900, 0.000, -24.300, 0.000, 0.000, -0.200, 0.0, , , , , , 95, , , 0, 0, 0
37.0263004, -119.2351609, 1.000, 13:48:59.259, 12, 0.00, 0.25, 100, 0.300, 0.300, -23.400, 2, 100, 100, 29, 24716, -15021, 5213, 5320, 20, 14, 1529354939.259, 87, 0, 1024, 1024, 1024, 1024, 0, 6, 4104, 4095, 4109, 4137, 4129, 4109, 0, 1, 5300, -89.900, 0.000, -24.300, 0.000, 0.000, -0.200, 0.0, , , , , , 95, , , 0, 0, 0
37.0263005, -119.2351609, 1.100, 13:48:59.359, 12, 0.00, 0.24, 100, 0.200, 0.500, -23.400, 2, 100, 100, 29, 24716, -15021, 5213, 5320, 20, 14, 1529354939.359, 91, 0, 1024, 1024, 1024, 1024, 0, 6, 4104, 4095, 4109, 4137, 4129, 4109, 0, 1, 5400, -89.900, 0.000, -24.300, 0.000, 0.000, -0.400, 0.0, , , , , , 95, , , 0, 0, 0
37.0263005, -119.2351610, 1.100, 13:48:59.458, 12, 0.00, 0.24, 100, 0.200, 0.700, -23.400, 2, 100, 100, 29, 24716, -15021, 5213, 5320, 20, 14, 1529354939.459, 91, 0, 1024, 1024, 1024, 1024, 0, 6, 4104, 4095, 4109, 4137, 4129, 4109, 0, 1, 5500, -89.900, 0.000, -24.300, 0.000, 0.000, -0.500, 0.0, , , , , , 95, , , 0, 0, 0
37.0263005, -119.2351611, 1.300, 13:48:59.559, 12, 0.00, 0.24, 98, 0.100, 0.800, -23.200, 2, 100, 100, 29, 24537, -16261, 5213, 5320, 20, 14, 1529354939.559, 87, 0, 1024, 1024, 1024, 1024, 0, 6, 4070, 4074, 4076, 4107, 4105, 4078, 0, 1, 5600, -89.900, 0.000, -24.300, 0.000, 0.000, -0.900, 0.0, , , , , , 95, , , 0, 0, 0
37.0263005, -119.2351611, 1.300, 13:48:59.659, 12, 0.00, 0.24, 98, 0.100, 0.800, -23.200, 2, 100, 100, 29, 24537, -16261, 5213, 5320, 20, 14, 1529354939.659, 187, 0, 1024, 1024, 1024, 1024, 0, 6, 4070, 4074, 4076, 4107, 4105, 4078, 0, 1, 5700, -89.900, 0.000, -24.300, 0.000, 0.000, -0.900, 0.0, , , , , , 95, , , 0, 0, 0
37.0263005, -119.2351611, 1.400, 13:48:59.758, 11, 0.00, 0.24, 98, 0.100, 0.600, -23.100, 2, 100, 100, 29, 24537, -16261, 5213, 5320, 20, 14, 1529354939.759, 54, 0, 1024, 1024, 1024, 1024, 0, 6, 4070, 4074, 4076, 4107, 4105, 4078, 0, 1, 5800, -89.900, 0.000, -24.300, 0.000, 0.000, -1.100, 0.0, , , , , , 95, , , 0, 0, 0
37.0263005, -119.2351614, 1.600, 13:48:59.858, 11, 0.00, 0.25, 98, 0.300, 0.400, -23.000, 2, 100, 100, 29, 24537, -16261, 5213, 5320, 20, 14, 1529354939.859, 54, 0, 1024, 1024, 1024, 1024, 0, 6, 4070, 4074, 4076, 4107, 4105, 4078, 0, 1, 5900, -89.900, 0.000, -24.300, 0.000, 0.000, -1.500, 0.0, , , , , , 95, , , 0, 0, 0
37.0263004, -119.2351616, 1.800, 13:48:59.959, 11, 0.00, 0.27, 98, 0.600, 0.400, -23.200, 2, 100, 100, 29, 24537, -16261, 5213, 5320, 20, 14, 1529354939.959, 36, 0, 1024, 1024, 1024, 1024, 0, 6, 4070, 4074, 4076, 4107, 4105, 4078, 0, 1, 6000, -89.900, 0.000, -24.300, 0.000, 0.000, -1.700, 0.0, , , , , , 95, , , 0, 0, 0
37.0263004, -119.2351618, 2.000, 13:49:00.059, 11, 0.00, 0.27, 98, 0.900, 0.400, -23.400, 2, 100, 100, 29, 24537, -16261, 5213, 5320, 20, 14, 1529354940.059, 62, 0, 1024, 1024, 1024, 1024, 0, 6, 4070, 4074, 4076, 4107, 4105, 4078, 0, 1, 6100, -89.900, 0.000, -24.300, 0.000, 0.000, -2.000, 0.0, , , , , , 95, , , 0, 0, 0
37.0263004, -119.2351620, 2.200, 13:49:00.159, 11, 0.00, 0.28, 98, 1.100, 0.500, -23.600, 2, 100, 100, 29, 24537, -16261, 5213, 5320, 20, 14, 1529354940.159, 53, 0, 1024, 1024, 1024, 1024, 0, 6, 4070, 4074, 4076, 4107, 4105, 4078, 0, 1, 6200, -89.900, 0.000, -24.300, 0.000, 0.000, -2.200, 0.0, , , , , , 95, , , 0, 0, 0
37.0263004, -119.2351621, 2.500, 13:49:00.259, 11, 0.00, 0.28, 98, 1.000, 0.600, -23.700, 2, 100, 100, 29, 24537, -16261, 5213, 5320, 20, 14, 1529354940.259, 19, 0, 1024, 1024, 1024, 1024, 0, 6, 4070, 4074, 4076, 4107, 4105, 4078, 0, 1, 6300, -89.900, 0.000, -24.300, 0.000, 0.000, -2.400, 0.0, , , , , , 95, , , 0, 0, 0
37.0263004, -119.2351621, 2.700, 13:49:00.359, 11, 0.00, 0.29, 98, 0.800, 0.500, -23.700, 2, 100, 100, 29, 24537, -16261, 5213, 5320, 20, 14, 1529354940.359, 34, 0, 1024, 1024, 1024, 1024, 0, 6, 4070, 4074, 4076, 4107, 4105, 4078, 0, 1, 6400, -89.900, 0.000, -24.300, 0.000, 0.000, -2.500, 0.0, , , , , , 95, , , 0, 0, 0
37.0263003, -119.2351622, 3.000, 13:49:00.458, 11, 0.00, 0.30, 98, 0.700, 0.400, -23.600, 2, 100, 100, 29, 24537, -16261, 5213, 5320, 20, 14, 1529354940.459, 24, 0, 1024, 1024, 1024, 1024, 0, 6, 4070, 4074, 4076, 4107, 4105, 4078, 0, 1, 6500, -89.900, 0.000, -24.300, 0.000, 0.000, -2.700, 0.0, , , , , , 95, , , 0, 0, 0
37.0263002, -119.2351623, 3.300, 13:49:00.558, 11, 0.00, 0.31, 98, 0.600, 0.300, -23.500, 2, 100, 100, 29, 24403, -16867, 5213, 5320, 20, 14, 1529354940.559, 28, 0, 1024, 1024, 1024, 1024, 0, 6, 4048, 4040, 4053, 4058, 4053, 4051, 0, 1, 6600, -89.900, 0.000, -24.300, 0.000, 0.000, -3.000, 0.0, , , , , , 95, , , 0, 0, 0
37.0263002, -119.2351624, 3.600, 13:49:00.658, 11, 0.00, 0.33, 98, 0.700, 0.300, -23.400, 2, 100, 100, 29, 24403, -16867, 5213, 5320, 20, 14, 1529354940.659, 19, 0, 1024, 1024, 1024, 1024, 0, 6, 4048, 4040, 4053, 4058, 4053, 4051, 0, 1, 6700, -89.900, 0.000, -24.300, 0.000, 0.000, -3.000, 0.0, , , , , , 95, , , 0, 0, 0
37.0263001, -119.2351626, 4.000, 13:49:00.759, 11, 0.00, 0.33, 98, 1.000, 0.500, -23.300, 2, 100, 100, 29, 24403, -16867, 5213, 5320, 20, 14, 1529354940.759, 22, 0, 1024, 1024, 1024, 1024, 0, 6, 4048, 4040, 4053, 4058, 4053, 4051, 0, 1, 6800, -89.900, 0.000, -24.300, 0.000, 0.000, -3.100, 0.0, , , , , , 95, , , 0, 0, 0
37.0263001, -119.2351628, 4.300, 13:49:00.859, 11, 0.00, 0.35, 98, 1.100, 0.700, -23.200, 2, 100, 100, 29, 24403, -16867, 5213, 5320, 20, 14, 1529354940.859, 11, 0, 1024, 1024, 1024, 1024, 0, 6, 4048, 4040, 4053, 4058, 4053, 4051, 0, 1, 6900, -89.900, 0.000, -24.300, 0.000, 0.000, -3.200, 0.0, , , , , , 95, , , 0, 0, 0
37.0263001, -119.2351628, 4.300, 13:49:00.959, 11, 0.00, 0.35, 98, 1.100, 0.700, -23.200, 2, 100, 100, 29, 24403, -16867, 5213, 5320, 20, 14, 1529354940.959, 111, 0, 1024, 1024, 1024, 1024, 0, 6, 4048, 4040, 4053, 4058, 4053, 4051, 0, 1, 7000, -89.900, 0.000, -24.300, 0.000, 0.000, -3.200, 0.0, , , , , , 95, , , 0, 0, 0
37.0263001, -119.2351629, 4.600, 13:49:01.059, 11, 0.00, 0.36, 98, 1.300, 0.700, -23.200, 2, 100, 100, 29, 24403, -16867, 5213, 5320, 20, 14, 1529354941.059, 47, 0, 1024, 1024, 1024, 1024, 0, 6, 4048, 4040, 4053, 4058, 4053, 4051, 0, 1, 7100, -89.900, 0.000, -24.300, 0.000, 0.000, -3.100, 0.0, , , , , , 95, , , 0, 0, 0
37.0263000, -119.2351630, 5.000, 13:49:01.158, 11, 0.00, 0.37, 98, 1.400, 0.600, -23.100, 2, 100, 100, 29, 24403, -16867, 5213, 5320, 20, 14, 1529354941.159, 97, 0, 1024, 1024, 1024, 1024, 0, 6, 4048, 4040, 4053, 4058, 4053, 4051, 0, 1, 7200, -89.900, 0.000, -24.300, 0.000, 0.000, -3.100, 0.0, , , , , , 95, , , 0, 0, 0
37.0262999, -119.2351630, 5.300, 13:49:01.259, 11, 0.00, 0.38, 98, 1.500, 0.400, -23.100, 2, 100, 100, 29, 24403, -16867, 5213, 5320, 20, 14, 1529354941.259, 89, 0, 1024, 1024, 1024, 1024, 0, 6, 4048, 4040, 4053, 4058, 4053, 4051, 0, 1, 7300, -89.900, 0.000, -24.300, 0.000, 0.000, -3.100, 0.0, , , , , , 95, , , 0, 0, 0
37.0262999, -119.2351631, 5.700, 13:49:01.358, 10, 0.00, 0.39, 98, 1.500, 0.300, -23.100, 2, 100, 100, 29, 24403, -16867, 5213, 5320, 20, 14, 1529354941.359, 82, 0, 1024, 1024, 1024, 1024, 0, 6, 4048, 4040, 4053, 4058, 4053, 4051, 0, 1, 7400, -89.900, 0.000, -24.300, 0.000, 0.000, -3.100, 0.0, , , , , , 95, , , 0, 0, 0
37.0262998, -119.2351632, 6.000, 13:49:01.458, 10, 0.00, 0.40, 98, 1.600, 0.200, -23.000, 2, 100, 100, 29, 24403, -16867, 5213, 5320, 20, 14, 1529354941.459, 87, 0, 1024, 1024, 1024, 1024, 0, 6, 4048, 4040, 4053, 4058, 4053, 4051, 0, 1, 7500, -89.900, 0.000, -24.300, 0.000, 0.000, -3.100, 0.0, , , , , , 95, , , 0, 0, 0
37.0262998, -119.2351633, 6.300, 13:49:01.559, 11, 0.00, 0.40, 98, 1.600, 0.200, -23.100, 2, 100, 100, 29, 24403, -16867, 5213, 5320, 20, 14, 1529354941.559, 87, 0, 1024, 1024, 1024, 1024, 0, 6, 4048, 4040, 4053, 4058, 4053, 4051, 0, 1, 7600, -89.900, 0.000, -24.300, 0.000, 0.000, -3.000, 0.0, , , , , , 95, , , 0, 0, 0
37.0262998, -119.2351633, 6.600, 13:49:01.658, 11, 0.00, 0.40, 98, 1.500, 0.300, -23.200, 2, 100, 100, 29, 23973, -22933, 5213, 5320, 20, 14, 1529354941.659, 91, 0, 1024, 1024, 1024, 1024, 0, 6, 3977, 3987, 3969, 4000, 4017, 3966, 0, 1, 7700, -89.900, 0.000, -24.300, 0.000, 0.000, -3.100, 0.0, , , , , , 95, , , 0, 0, 0
37.0262998, -119.2351633, 6.900, 13:49:01.758, 12, 0.00, 0.40, 98, 1.500, 0.300, -23.200, 2, 100, 100, 29, 23973, -22933, 5213, 5320, 20, 14, 1529354941.759, 81, 0, 1024, 1024, 1024, 1024, 0, 6, 3977, 3987, 3969, 4000, 4017, 3966, 0, 1, 7800, -89.900, 0.000, -24.300, 0.000, 0.000, -3.100, 0.0, , , , , , 95, , , 0, 0, 0
37.0262999, -119.2351632, 7.300, 13:49:01.858, 12, 0.10, 0.39, 98, 1.200, 0.300, -23.300, 2, 100, 100, 29, 23973, -22933, 5213, 5320, 20, 14, 1529354941.859, 59, 0, 1024, 1024, 1024, 1024, 0, 6, 3977, 3987, 3969, 4000, 4017, 3966, 0, 1, 7900, -89.900, 0.000, -24.300, 0.000, 0.100, -3.100, 0.0, , , , , , 95, , , 0, 0, 0
37.0263001, -119.2351632, 7.600, 13:49:01.958, 10, 0.10, 0.37, 98, 0.900, 0.500, -23.300, 2, 100, 100, 29, 23973, -22933, 5213, 5320, 20, 14, 1529354941.959, 89, 0, 1024, 1024, 1024, 1024, 0, 6, 3977, 3987, 3969, 4000, 4017, 3966, 0, 1, 8000, -89.900, 0.000, -24.300, 0.000, 0.100, -3.100, 0.0, , , , , , 95, , , 0, 0, 0
37.0263003, -119.2351630, 8.200, 13:49:02.058, 12, 0.10, 0.34, 98, 0.400, 0.900, -23.400, 2, 100, 100, 29, 23973, -22933, 5213, 5320, 20, 14, 1529354942.059, 48, 0, 1024, 1024, 1024, 1024, 0, 6, 3977, 3987, 3969, 4000, 4017, 3966, 0, 1, 8100, -89.900, 0.000, -24.300, 0.000, 0.100, -3.000, 0.0, , , , , , 95, , , 0, 0, 0
37.0263003, -119.2351628, 8.500, 13:49:02.158, 12, 0.10, 0.33, 98, 0.100, 0.800, -23.400, 2, 100, 100, 29, 23973, -22933, 5213, 5320, 20, 14, 1529354942.159, 49, 0, 1024, 1024, 1024, 1024, 0, 6, 3977, 3987, 3969, 4000, 4017, 3966, 0, 1, 8200, -89.900, 0.000, -24.300, 0.000, 0.100, -3.100, 0.0, , , , , , 95, , , 0, 0, 0
37.0263004, -119.2351627, 8.900, 13:49:02.260, 12, 0.10, 0.32, 98, 0.000, 0.700, -23.500, 2, 100, 100, 29, 23973, -22933, 5213, 5320, 20, 14, 1529354942.260, 59, 0, 1024, 1024, 1024, 1024, 0, 6, 3977, 3987, 3969, 4000, 4017, 3966, 0, 1, 8301, -89.900, 0.000, -24.300, 0.000, 0.100, -3.100, 0.0, , , , , , 95, , , 0, 0, 0
37.0263005, -119.2351626, 9.200, 13:49:02.360, 12, 0.10, 0.31, 98, 0.000, 0.800, -23.600, 2, 100, 100, 29, 23973, -22933, 5213, 5320, 20, 14, 1529354942.360, 62, 0, 1024, 1024, 1024, 1024, 0, 6, 3977, 3987, 3969, 4000, 4017, 3966, 0, 1, 8401, -89.900, 0.000, -24.300, 0.000, 0.100, -3.000, 0.0, , , , , , 95, , , 0, 0, 0
37.0263006, -119.2351626, 9.500, 13:49:02.459, 12, 0.00, 0.30, 98, 0.000, 1.000, -23.700, 2, 100, 100, 29, 23973, -22933, 5213, 5320, 20, 14, 1529354942.460, 63, 0, 1024, 1024, 1024, 1024, 0, 6, 3977, 3987, 3969, 4000, 4017, 3966, 0, 1, 8501, -89.900, 0.000, -24.300, 0.000, 0.000, -3.000, 0.0, , , , , , 95, , , 0, 0, 0
37.0263007, -119.2351625, 9.800, 13:49:02.560, 12, 0.00, 0.29, 98, -0.100, 1.200, -23.700, 2, 100, 100, 29, 24122, -19122, 5213, 5320, 20, 14, 1529354942.560, 55, 0, 1024, 1024, 1024, 1024, 0, 6, 4003, 4008, 4009, 4042, 4049, 4008, 0, 1, 8601, -89.900, 0.000, -24.300, 0.000, 0.000, -3.000, 0.0, , , , , , 95, , , 0, 0, 0
37.0263007, -119.2351625, 10.100, 13:49:02.659, 12, 0.00, 0.28, 98, -0.100, 1.500, -23.600, 2, 100, 100, 29, 24122, -19122, 5213, 5320, 20, 14, 1529354942.660, 60, 0, 1024, 1024, 1024, 1024, 0, 6, 4003, 4008, 4009, 4042, 4049, 4008, 0, 1, 8701, -89.900, 0.000, -24.300, 0.000, 0.000, -3.000, 0.0, , , , , , 95, , , 0, 0, 0
37.0263008, -119.2351625, 10.400, 13:49:02.759, 12, 0.00, 0.27, 98, 0.100, 1.600, -23.400, 2, 100, 100, 29, 24122, -19122, 5213, 5320, 20, 14, 1529354942.760, 62, 0, 1024, 1024, 1024, 1024, 0, 6, 4003, 4008, 4009, 4042, 4049, 4008, 0, 1, 8801, -89.900, 0.000, -24.300, 0.000, 0.000, -3.000, 0.0, , , , , , 95, , , 0, 0, 0
37.0263009, -119.2351625, 10.700, 13:49:02.860, 12, 0.00, 0.27, 98, 0.500, 1.400, -23.200, 2, 100, 100, 29, 24122, -19122, 5213, 5320, 20, 14, 1529354942.860, 44, 0, 1024, 1024, 1024, 1024, 0, 6, 4003, 4008, 4009, 4042, 4049, 4008, 0, 1, 8901, -89.900, 0.000, -24.300, 0.000, 0.000, -3.000, 0.0, , , , , , 95, , , 0, 0, 0
37.0263009, -119.2351624, 11.000, 13:49:02.960, 12, 0.00, 0.26, 98, 0.900, 1.300, -23.100, 2, 100, 100, 29, 24122, -19122, 5213, 5320, 20, 14, 1529354942.960, 18, 0, 1024, 1024, 1024, 1024, 0, 6, 4003, 4008, 4009, 4042, 4049, 4008, 0, 1, 9001, -89.900, 0.000, -24.300, 0.000, 0.000, -3.000, 0.0, , , , , , 95, , , 0, 0, 0
37.0263010, -119.2351624, 11.300, 13:49:03.059, 12, 0.00, 0.25, 98, 1.100, 1.400, -23.000, 2, 100, 100, 29, 24122, -19122, 5213, 5320, 20, 14, 1529354943.059, 17, 0, 1024, 1024, 1024, 1024, 0, 6, 4003, 4008, 4009, 4042, 4049, 4008, 0, 1, 9101, -89.900, 0.000, -24.300, 0.000, 0.000, -3.000, 0.0, , , , , , 95, , , 0, 0, 0
37.0263010, -119.2351624, 11.700, 13:49:03.160, 12, 0.00, 0.25, 98, 0.700, 1.200, -23.000, 2, 100, 100, 29, 24122, -19122, 5213, 5320, 20, 14, 1529354943.160, 34, 0, 1024, 1024, 1024, 1024, 0, 6, 4003, 4008, 4009, 4042, 4049, 4008, 0, 1, 9201, -89.900, 0.000, -24.300, 0.000, 0.000, -3.100, 0.0, , , , , , 95, , , 0, 0, 0
37.0263010, -119.2351623, 12.000, 13:49:03.259, 12, 0.00, 0.24, 98, 0.600, 1.000, -23.000, 2, 100, 100, 29, 24122, -19122, 5213, 5320, 20, 14, 1529354943.259, 24, 0, 1024, 1024, 1024, 1024, 0, 6, 4003, 4008, 4009, 4042, 4049, 4008, 0, 1, 9301, -90.000, 0.000, -24.300, 0.000, 0.000, -3.000, 0.0, , , , , , 95, , , 0, 0, 0
37.0263011, -119.2351622, 12.300, 13:49:03.360, 12, 0.00, 0.23, 98, 0.400, 0.800, -23.000, 2, 100, 100, 29, 24122, -19122, 5213, 5320, 20, 14, 1529354943.360, 13, 0, 1024, 1024, 1024, 1024, 0, 6, 4003, 4008, 4009, 4042, 4049, 4008, 0, 1, 9401, -90.000, 0.000, -24.300, 0.000, 0.000, -3.000, 0.0, , , , , , 95, , , 0, 0, 0
37.0263011, -119.2351621, 12.600, 13:49:03.460, 12, 0.00, 0.23, 98, 0.000, 0.400, -22.900, 2, 100, 100, 29, 24122, -19122, 5213, 5320, 20, 14, 1529354943.460, 8, 0, 1024, 1024, 1024, 1024, 0, 6, 4003, 4008, 4009, 4042, 4049, 4008, 0, 1, 9501, -90.000, 0.000, -24.300, 0.000, 0.000, -3.100, 0.0, , , , , , 95, , , 0, 0, 0
37.0263011, -119.2351622, 12.900, 13:49:03.560, 12, 0.00, 0.23, 98, 0.000, 0.400, -22.900, 2, 100, 100, 29, 24098, -19005, 5213, 5320, 20, 14, 1529354943.560, 13, 0, 1024, 1024, 1024, 1024, 0, 6, 4003, 4008, 4009, 4042, 4049, 4008, 0, 1, 9601, -90.000, 0.000, -24.300, 0.000, 0.000, -3.000, 0.0, , , , , , 95, , , 0, 0, 0
37.0263011, -119.2351622, 13.200, 13:49:03.662, 11, 0.00, 0.23, 98, 0.300, 0.700, -23.100, 2, 100, 99, 29, 24098, -19005, 5213, 5320, 20, 14, 1529354943.662, 5, 0, 1024, 1024, 1024, 1024, 0, 6, 4003, 4008, 4009, 4042, 4049, 4008, 0, 1, 9703, -89.900, 0.000, -24.300, 0.000, 0.000, -3.000, 0.0, , , , , , 95, , , 0, 0, 0
37.0263011, -119.2351622, 13.500, 13:49:03.759, 11, 0.00, 0.23, 98, 0.600, 0.900, -23.300, 2, 100, 99, 29, 24098, -19005, 5213, 5320, 20, 14, 1529354943.760, 6, 0, 1024, 1024, 1024, 1024, 0, 6, 4003, 4008, 4009, 4042, 4049, 4008, 0, 1, 9801, -89.900, 0.000, -24.300, 0.000, 0.000, -2.900, 0.0, , , , , , 95, , , 0, 0, 0
37.0263011, -119.2351622, 13.500, 13:49:03.859, 11, 0.00, 0.23, 98, 0.600, 0.900, -23.300, 2, 100, 99, 29, 24098, -19005, 5213, 5320, 20, 14, 1529354943.860, 106, 0, 1024, 1024, 1024, 1024, 0, 6, 4003, 4008, 4009, 4042, 4049, 4008, 0, 1, 9901, -89.900, 0.000, -24.300, 0.000, 0.000, -2.900, 0.0, , , , , , 95, , , 0, 0, 0
37.0263011, -119.2351622, 13.500, 13:49:03.959, 11, 0.00, 0.23, 98, 0.600, 0.900, -23.300, 2, 100, 99, 29, 24098, -19005, 5213, 5320, 20, 14, 1529354943.960, 206, 0, 1024, 1024, 1024, 1024, 0, 6, 4003, 4008, 4009, 4042, 4049, 4008, 0, 1, 10001, -89.900, 0.000, -24.300, 0.000, 0.000, -2.900, 0.0, , , , , , 95, , , 0, 0, 0
37.0263011, -119.2351622, 14.100, 13:49:04.060, 12, 0.00, 0.23, 98, 1.000, 1.100, -23.400, 2, 100, 99, 29, 24098, -19005, 5213, 5320, 20, 14, 1529354944.060, 81, 0, 1024, 1024, 1024, 1024, 0, 6, 4003, 4008, 4009, 4042, 4049, 4008, 0, 1, 10101, -89.900, 0.000, -24.300, 0.000, 0.000, -2.900, 0.0, , , , , , 95, , , 0, 0, 0
37.0263011, -119.2351622, 14.400, 13:49:04.160, 12, 0.00, 0.23, 98, 0.900, 1.200, -23.300, 2, 100, 99, 29, 24098, -19005, 5213, 5320, 20, 14, 1529354944.160, 77, 0, 1024, 1024, 1024, 1024, 0, 6, 3999, 4007, 4004, 4039, 4042, 4003, 0, 1, 10201, -89.900, 0.000, -24.300, 0.000, 0.000, -2.900, 0.0, , , , , , 95, , , 0, 0, 0
37.0263011, -119.2351622, 14.700, 13:49:04.258, 12, 0.00, 0.23, 98, 0.900, 1.100, -23.300, 2, 100, 98, 29, 24098, -19005, 5213, 5320, 20, 14, 1529354944.259, 84, 0, 1024, 1024, 1024, 1024, 0, 6, 3999, 4007, 4004, 4039, 4042, 4003, 0, 1, 10300, -89.900, 0.000, -24.300, 0.000, 0.000, -2.900, 0.0, , , , , , 95, , , 0, 0, 0
37.0263011, -119.2351622, 15.400, 13:49:04.358, 12, 0.00, 0.23, 98, 0.900, 1.000, -23.300, 2, 100, 98, 29, 24098, -19005, 5213, 5320, 20, 14, 1529354944.359, 64, 0, 1024, 1024, 1024, 1024, 0, 6, 3999, 4007, 4004, 4039, 4042, 4003, 0, 1, 10400, -89.900, 0.000, -24.300, 0.000, 0.000, -3.000, 0.0, , , , , , 95, , , 0, 0, 0
37.0263010, -119.2351621, 15.700, 13:49:04.458, 12, 0.00, 0.23, 98, 0.800, 0.900, -23.200, 2, 100, 98, 29, 24098, -19005, 5213, 5320, 20, 14, 1529354944.459, 69, 0, 1024, 1024, 1024, 1024, 0, 6, 3999, 4007, 4004, 4039, 4042, 4003, 0, 1, 10500, -90.000, 0.000, -24.300, 0.000, 0.000, -2.900, 0.0, , , , , , 95, , , 0, 0, 0
37.0263010, -119.2351621, 16.000, 13:49:04.559, 12, 0.00, 0.24, 98, 0.600, 0.600, -23.000, 2, 100, 98, 29, 24098, -19005, 5213, 5320, 20, 14, 1529354944.559, 73, 0, 1024, 1024, 1024, 1024, 0, 6, 3999, 4007, 4004, 4039, 4042, 4003, 0, 1, 10600, -89.900, 0.000, -24.300, 0.000, 0.000, -2.900, 0.0, , , , , , 95, , , 0, 0, 0
37.0263010, -119.2351621, 16.200, 13:49:04.659, 12, 0.00, 0.24, 98, 0.800, 0.700, -22.800, 2, 100, 98, 29, 24098, -19005, 5213, 5320, 20, 14, 1529354944.659, 50, 0, 1024, 1024, 1024, 1024, 0, 6, 3999, 4007, 4004, 4039, 4042, 4003, 0, 1, 10700, -89.900, 0.000, -24.300, 0.000, 0.000, -2.900, 0.0, , , , , , 95, , , 0, 0, 0
37.0263010, -119.2351621, 16.500, 13:49:04.758, 12, 0.00, 0.24, 98, 1.000, 0.900, -22.900, 2, 100, 98, 29, 24098, -19005, 5213, 5320, 20, 14, 1529354944.759, 66, 0, 1024, 1024, 1024, 1024, 0, 6, 3999, 4007, 4004, 4039, 4042, 4003, 0, 1, 10800, -89.900, 0.000, -24.300, 0.000, 0.000, -2.900, 0.0, , , , , , 95, , , 0, 0, 0
37.0263009, -119.2351621, 16.800, 13:49:04.858, 12, 0.00, 0.24, 98, 0.800, 1.200, -23.200, 2, 100, 98, 29, 24098, -19005, 5213, 5320, 20, 14, 1529354944.859, 54, 0, 1024, 1024, 1024, 1024, 0, 6, 3999, 4007, 4004, 4039, 4042, 4003, 0, 1, 10900, -89.900, 0.000, -24.300, 0.000, 0.000, -2.800, 0.0, , , , , , 95, , , 0, 0, 0
37.0263009, -119.2351621, 17.100, 13:49:04.959, 12, 0.00, 0.24, 98, 0.100, 1.000, -23.500, 2, 100, 98, 29, 24098, -19005, 5213, 5320, 20, 14, 1529354944.959, 59, 0, 1024, 1024, 1024, 1024, 0, 6, 3999, 4007, 4004, 4039, 4042, 4003, 0, 1, 11000, -89.900, 0.000, -24.300, 0.000, 0.000, -2.900, 0.0, , , , , , 95, , , 0, 0, 0
37.0263008, -119.2351620, 17.400, 13:49:05.058, 12, 0.00, 0.24, 98, 0.000, 0.700, -23.700, 2, 100, 98, 29, 24114, -18312, 5213, 5320, 20, 14, 1529354945.059, 27, 0, 1024, 1024, 1024, 1024, 0, 6, 4013, 4008, 4009, 4041, 4044, 4008, 0, 1, 11100, -90.000, 0.000, -24.300, 0.000, 0.000, -3.000, 0.0, , , , , , 95, , , 0, 0, 0
37.0263008, -119.2351620, 17.700, 13:49:05.158, 12, 0.00, 0.24, 98, 0.000, 0.700, -23.900, 2, 100, 97, 29, 24114, -18312, 5213, 5320, 20, 14, 1529354945.159, 26, 0, 1024, 1024, 1024, 1024, 0, 6, 4013, 4008, 4009, 4041, 4044, 4008, 0, 1, 11200, -89.900, 0.000, -24.300, 0.000, 0.000, -3.000, 0.0, , , , , , 95, , , 0, 0, 0
37.0263008, -119.2351620, 18.000, 13:49:05.260, 12, 0.00, 0.25, 98, 0.200, 0.800, -23.900, 2, 100, 97, 29, 24114, -18312, 5213, 5320, 20, 14, 1529354945.260, 29, 0, 1024, 1024, 1024, 1024, 0, 6, 4013, 4008, 4009, 4041, 4044, 4008, 0, 1, 11301, -89.900, 0.000, -24.300, 0.000, 0.000, -3.000, 0.0, , , , , , 95, , , 0, 0, 0
37.0263007, -119.2351621, 18.300, 13:49:05.360, 12, 0.00, 0.26, 98, 0.400, 0.700, -23.800, 2, 100, 97, 29, 24114, -18312, 5213, 5320, 20, 14, 1529354945.360, 34, 0, 1024, 1024, 1024, 1024, 0, 6, 4013, 4008, 4009, 4041, 4044, 4008, 0, 1, 11401, -89.900, 0.000, -24.300, 0.000, 0.000, -3.000, 0.0, , , , , , 95, , , 0, 0, 0
37.0263006, -119.2351621, 18.600, 13:49:05.460, 12, 0.00, 0.27, 98, 0.700, 0.600, -23.700, 2, 100, 97, 29, 24114, -18312, 5213, 5320, 20, 14, 1529354945.460, 16, 0, 1024, 1024, 1024, 1024, 0, 6, 4013, 4008, 4009, 4041, 4044, 4008, 0, 1, 11501, -90.000, 0.000, -24.300, 0.000, 0.000, -3.000, 0.0, , , , , , 95, , , 0, 0, 0
37.0263006, -119.2351621, 18.900, 13:49:05.560, 12, 0.00, 0.27, 98, 0.900, 0.300, -23.500, 2, 100, 97, 29, 24114, -18312, 5213, 5320, 20, 14, 1529354945.560, 17, 0, 1024, 1024, 1024, 1024, 0, 6, 4013, 4008, 4009, 4041, 4044, 4008, 0, 1, 11601, -90.000, 0.000, -24.300, 0.000, 0.000, -3.000, 0.0, , , , , , 95, , , 0, 0, 0
37.0263005, -119.2351622, 19.200, 13:49:05.659, 12, 0.00, 0.28, 98, 0.800, 0.200, -23.300, 2, 100, 98, 29, 24114, -18312, 5213, 5320, 20, 14, 1529354945.660, 15, 0, 1024, 1024, 1024, 1024, 0, 6, 4013, 4008, 4009, 4041, 4044, 4008, 0, 1, 11701, -90.000, 0.000, -24.300, 0.000, 0.000, -3.000, 0.0, , , , , , 95, , , 0, 0, 0
37.0263005, -119.2351622, 19.500, 13:49:05.759, 12, 0.00, 0.28, 98, 0.700, 0.300, -23.000, 2, 100, 98, 29, 24114, -18312, 5213, 5320, 20, 14, 1529354945.760, 30, 0, 1024, 1024, 1024, 1024, 0, 6, 4013, 4008, 4009, 4041, 4044, 4008, 0, 1, 11801, -89.900, 0.000, -24.300, 0.000, 0.000, -3.000, 0.0, , , , , , 95, , , 0, 0, 0
37.0263005, -119.2351623, 19.800, 13:49:05.860, 12, 0.00, 0.29, 98, 0.900, 0.600, -22.800, 2, 100, 98, 29, 24114, -18312, 5213, 5320, 20, 14, 1529354945.860, 21, 0, 1024, 1024, 1024, 1024, 0, 6, 4013, 4008, 4009, 4041, 4044, 4008, 0, 1, 11901, -89.900, 0.000, -24.300, 0.000, 0.000, -3.000, 0.0, , , , , , 95, , , 0, 0, 0
37.0263004, -119.2351624, 20.100, 13:49:05.960, 12, 0.00, 0.30, 98, 1.300, 0.900, -22.800, 2, 100, 98, 29, 24114, -18312, 5213, 5320, 20, 14, 1529354945.960, 21, 0, 1024, 1024, 1024, 1024, 0, 6, 4013, 4008, 4009, 4041, 4044, 4008, 0, 1, 12001, -89.900, 0.000, -24.300, 0.000, 0.000, -3.000, 0.0, , , , , , 95, , , 0, 0, 0
37.0263004, -119.2351624, 20.100, 13:49:06.059, 12, 0.00, 0.30, 98, 1.300, 0.900, -22.800, 2, 100, 98, 29, 24114, -18312, 5213, 5320, 20, 14, 1529354946.060, 121, 0, 1024, 1024, 1024, 1024, 0, 6, 4013, 4008, 4009, 4041, 4044, 4008, 0, 1, 12101, -89.900, 0.000, -24.300, 0.000, 0.000, -3.000, 0.0, , , , , , 95, , , 0, 0, 0
37.0263004, -119.2351625, 20.400, 13:49:06.159, 12, 0.00, 0.31, 98, 1.500, 1.100, -22.900, 2, 100, 98, 29, 24067, -18785, 5213, 5320, 20, 14, 1529354946.160, 80, 0, 1024, 1024, 1024, 1024, 0, 6, 3983, 4004, 3992, 4036, 4045, 3988, 0, 1, 12201, -89.900, 0.000, -24.300, 0.000, 0.000, -3.000, 0.0, , , , , , 95, , , 0, 0, 0
37.0263004, -119.2351625, 20.700, 13:49:06.260, 12, 0.00, 0.31, 98, 1.600, 1.100, -23.000, 2, 100, 99, 29, 24067, -18785, 5213, 5320, 20, 14, 1529354946.260, 93, 0, 1024, 1024, 1024, 1024, 0, 6, 3983, 4004, 3992, 4036, 4045, 3988, 0, 1, 12301, -89.900, 0.000, -24.300, 0.000, 0.000, -2.900, 0.0, , , , , , 95, , , 0, 0, 0
37.0263003, -119.2351625, 21.000, 13:49:06.360, 12, 0.00, 0.31, 98, 1.600, 1.100, -23.200, 2, 100, 99, 29, 24067, -18785, 5213, 5320, 20, 14, 1529354946.360, 83, 0, 1024, 1024, 1024, 1024, 0, 6, 3983, 4004, 3992, 4036, 4045, 3988, 0, 1, 12401, -89.900, 0.000, -24.300, 0.000, 0.000, -2.900, 0.0, , , , , , 95, , , 0, 0, 0
37.0263003, -119.2351625, 21.300, 13:49:06.459, 12, 0.00, 0.32, 98, 1.600, 1.100, -23.400, 2, 100, 99, 29, 24067, -18785, 5213, 5320, 20, 14, 1529354946.460, 90, 0, 1024, 1024, 1024, 1024, 0, 6, 3983, 4004, 3992, 4036, 4045, 3988, 0, 1, 12501, -89.900, 0.000, -24.300, 0.000, 0.000, -2.900, 0.0, , , , , , 95, , , 0, 0, 0
37.0263003, -119.2351626, 21.600, 13:49:06.559, 12, 0.00, 0.32, 98, 1.700, 1.100, -23.500, 2, 100, 99, 29, 24067, -18785, 5213, 5320, 20, 14, 1529354946.560, 95, 0, 1024, 1024, 1024, 1024, 0, 6, 3983, 4004, 3992, 4036, 4045, 3988, 0, 1, 12601, -89.900, 0.000, -24.300, 0.000, 0.000, -2.900, 0.0, , , , , , 95, , , 0, 0, 0
37.0263003, -119.2351626, 21.900, 13:49:06.659, 12, 0.00, 0.32, 98, 1.700, 1.100, -23.600, 2, 100, 99, 29, 24067, -18785, 5213, 5320, 20, 14, 1529354946.660, 74, 0, 1024, 1024, 1024, 1024, 0, 6, 3983, 4004, 3992, 4036, 4045, 3988, 0, 1, 12701, -89.900, 0.000, -24.300, 0.000, 0.000, -2.900, 0.0, , , , , , 95, , , 0, 0, 0
37.0263003, -119.2351627, 22.200, 13:49:06.759, 12, 0.00, 0.32, 98, 1.600, 1.200, -23.500, 2, 100, 100, 29, 24067, -18785, 5213, 5320, 20, 14, 1529354946.760, 79, 0, 1024, 1024, 1024, 1024, 0, 6, 3983, 4004, 3992, 4036, 4045, 3988, 0, 1, 12801, -89.900, 0.000, -24.300, 0.000, 0.000, -2.900, 0.0, , , , , , 95, , , 0, 0, 0
37.0263003, -119.2351627, 22.500, 13:49:06.859, 12, 0.00, 0.33, 98, 1.400, 1.400, -23.500, 2, 100, 100, 29, 24067, -18785, 5213, 5320, 20, 14, 1529354946.860, 93, 0, 1024, 1024, 1024, 1024, 0, 6, 3983, 4004, 3992, 4036, 4045, 3988, 0, 1, 12901, -89.900, 0.000, -24.300, 0.000, 0.000, -2.900, 0.0, , , , , , 95, , , 0, 0, 0
37.0263002, -119.2351627, 22.800, 13:49:06.960, 12, 0.00, 0.33, 98, 1.500, 1.300, -23.500, 2, 100, 100, 29, 24067, -18785, 5213, 5320, 20, 14, 1529354946.960, 75, 0, 1024, 1024, 1024, 1024, 0, 6, 3983, 4004, 3992, 4036, 4045, 3988, 0, 1, 13001, -89.900, 0.000, -24.300, 0.000, 0.000, -2.900, 0.0, , , , , , 95, , , 0, 0, 0
37.0263002, -119.2351628, 23.100, 13:49:07.060, 12, 0.00, 0.34, 98, 1.700, 1.200, -23.500, 2, 100, 100, 29, 24067, -18785, 5213, 5320, 20, 14, 1529354947.060, 75, 0, 1024, 1024, 1024, 1024, 0, 6, 3983, 4004, 3992, 4036, 4045, 3988, 0, 1, 13101, -89.900, 0.000, -24.300, 0.000, 0.000, -3.000, 0.0, , , , , , 95, , , 0, 0, 0
37.0263002, -119.2351627, 23.700, 13:49:07.159, 12, 0.00, 0.34, 98, 1.700, 1.000, -23.400, 2, 100, 97, 29, 24066, -18063, 5213, 5320, 20, 14, 1529354947.160, 75, 0, 1024, 1024, 1024, 1024, 0, 6, 3998, 4014, 4000, 4045, 4043, 4002, 0, 1, 13201, -89.900, 0.000, -24.300, 0.000, 0.000, -2.900, 0.0, , , , , , 95, , , 0, 0, 0
37.0263002, -119.2351627, 24.000, 13:49:07.258, 12, 0.00, 0.34, 98, 1.600, 1.100, -23.300, 2, 100, 97, 29, 24066, -18063, 5213, 5320, 20, 14, 1529354947.259, 53, 0, 1024, 1024, 1024, 1024, 0, 6, 3998, 4014, 4000, 4045, 4043, 4002, 0, 1, 13300, -89.900, 0.000, -24.300, 0.000, 0.000, -3.000, 0.0, , , , , , 95, , , 0, 0, 0
37.0263001, -119.2351628, 24.300, 13:49:07.358, 12, 0.00, 0.35, 98, 1.700, 1.100, -23.300, 2, 100, 97, 29, 24066, -18063, 5213, 5320, 20, 14, 1529354947.359, 58, 0, 1024, 1024, 1024, 1024, 0, 6, 3998, 4014, 4000, 4045, 4043, 4002, 0, 1, 13400, -89.900, 0.000, -24.300, 0.000, 0.000, -3.000, 0.0, , , , , , 95, , , 0, 0, 0
37.0263001, -119.2351628, 24.600, 13:49:07.458, 12, 0.00, 0.35, 98, 1.900, 1.100, -23.200, 2, 100, 97, 29, 24066, -18063, 5213, 5320, 20, 14, 1529354947.459, 59, 0, 1024, 1024, 1024, 1024, 0, 6, 3998, 4014, 4000, 4045, 4043, 4002, 0, 1, 13500, -89.900, 0.000, -24.300, 0.000, 0.000, -2.900, 0.0, , , , , , 95, , , 0, 0, 0
37.0263000, -119.2351629, 24.900, 13:49:07.558, 12, 0.00, 0.36, 98, 1.800, 1.100, -23.200, 2, 100, 97, 29, 24066, -18063, 5213, 5320, 20, 14, 1529354947.559, 49, 0, 1024, 1024, 1024, 1024, 0, 6, 3998, 4014, 4000, 4045, 4043, 4002, 0, 1, 13600, -89.900, 0.000, -24.300, 0.000, 0.000, -2.900, 0.0, , , , , , 95, , , 0, 0, 0
37.0263000, -119.2351629, 25.200, 13:49:07.658, 12, 0.00, 0.37, 98, 1.900, 1.000, -23.100, 2, 100, 97, 29, 24066, -18063, 5213, 5320, 20, 14, 1529354947.659, 51, 0, 1024, 1024, 1024, 1024, 0, 6, 3998, 4014, 4000, 4045, 4043, 4002, 0, 1, 13700, -89.900, 0.000, -24.300, 0.000, 0.000, -2.900, 0.0, , , , , , 95, , , 0, 0, 0
37.0263000, -119.2351630, 25.500, 13:49:07.758, 12, 0.00, 0.37, 98, 2.100, 1.200, -23.100, 2, 100, 97, 29, 24066, -18063, 5213, 5320, 20, 14, 1529354947.759, 42, 0, 1024, 1024, 1024, 1024, 0, 6, 3998, 4014, 4000, 4045, 4043, 4002, 0, 1, 13800, -89.900, 0.000, -24.300, 0.000, 0.000, -2.900, 0.0, , , , , , 95, , , 0, 0, 0
37.0263000, -119.2351630, 25.800, 13:49:07.858, 12, 0.00, 0.37, 98, 2.400, 1.500, -23.100, 2, 100, 97, 29, 24066, -18063, 5213, 5320, 20, 14, 1529354947.859, 29, 0, 1024, 1024, 1024, 1024, 0, 6, 3998, 4014, 4000, 4045, 4043, 4002, 0, 1, 13900, -89.900, 0.000, -24.300, 0.000, 0.000, -2.900, 0.0, , , , , , 95, , , 0, 0, 0
37.0263000, -119.2351630, 26.100, 13:49:07.958, 12, 0.00, 0.37, 98, 2.500, 1.600, -23.200, 2, 100, 97, 29, 24066, -18063, 5213, 5320, 20, 14, 1529354947.959, 45, 0, 1024, 1024, 1024, 1024, 0, 6, 3998, 4014, 4000, 4045, 4043, 4002, 0, 1, 14000, -89.900, 0.000, -24.300, 0.000, 0.000, -3.000, 0.0, , , , , , 95, , , 0, 0, 0
37.0262999, -119.2351630, 26.400, 13:49:08.058, 12, 0.00, 0.38, 98, 2.400, 1.700, -23.300, 2, 100, 97, 29, 24022, -18655, 5213, 5320, 20, 14, 1529354948.059, 5, 0, 1024, 1024, 1024, 1024, 0, 6, 3986, 3997, 3987, 4033, 4028, 3990, 0, 1, 14100, -89.900, 0.000, -24.300, 0.000, 0.000, -3.000, 0.0, , , , , , 95, , , 0, 0, 0
37.0262999, -119.2351631, 26.700, 13:49:08.159, 12, 0.00, 0.38, 98, 2.200, 1.500, -23.400, 2, 100, 98, 29, 24022, -18655, 5213, 5320, 20, 14, 1529354948.159, 19, 0, 1024, 1024, 1024, 1024, 0, 6, 3986, 3997, 3987, 4033, 4028, 3990, 0, 1, 14200, -90.000, 0.000, -24.300, 0.000, 0.000, -3.000, 0.0, , , , , , 95, , , 0, 0, 0
37.0262999, -119.2351630, 27.000, 13:49:08.258, 12, 0.00, 0.38, 98, 2.200, 1.000, -23.600, 2, 100, 98, 29, 24022, -18655, 5213, 5320, 20, 14, 1529354948.259, 9, 0, 1024, 1024, 1024, 1024, 0, 6, 3986, 3997, 3987, 4033, 4028, 3990, 0, 1, 14300, -90.000, 0.000, -24.300, 0.000, 0.000, -3.000, 0.0, , , , , , 95, , , 0, 0, 0
37.0262998, -119.2351630, 27.300, 13:49:08.358, 12, 0.00, 0.38, 98, 2.000, 0.900, -23.700, 2, 100, 98, 29, 24022, -18655, 5213, 5320, 20, 14, 1529354948.359, 12, 0, 1024, 1024, 1024, 1024, 0, 6, 3986, 3997, 3987, 4033, 4028, 3990, 0, 1, 14400, -90.000, 0.000, -24.300, 0.000, 0.000, -2.900, 0.0, , , , , , 95, , , 0, 0, 0
37.0262998, -119.2351629, 27.600, 13:49:08.458, 12, 0.10, 0.38, 98, 1.500, 0.800, -23.800, 2, 100, 98, 29, 24022, -18655, 5213, 5320, 20, 14, 1529354948.459, 13, 0, 1024, 1024, 1024, 1024, 0, 6, 3986, 3997, 3987, 4033, 4028, 3990, 0, 1, 14500, -89.900, 0.000, -24.300, 0.000, 0.100, -2.800, 0.0, , , , , , 95, , , 0, 0, 0
37.0262998, -119.2351628, 27.900, 13:49:08.558, 12, 0.10, 0.38, 98, 1.200, 1.000, -23.700, 2, 100, 98, 29, 24022, -18655, 5213, 5320, 20, 14, 1529354948.558, 4, 0, 1024, 1024, 1024, 1024, 0, 6, 3986, 3997, 3987, 4033, 4028, 3990, 0, 1, 14599, -89.900, 0.000, -24.300, 0.000, 0.100, -2.900, 0.0, , , , , , 95, , , 0, 0, 0
37.0262998, -119.2351628, 28.200, 13:49:08.658, 12, 0.10, 0.37, 98, 1.100, 1.300, -23.600, 2, 100, 99, 29, 24022, -18655, 5213, 5320, 20, 14, 1529354948.658, 4, 0, 1024, 1024, 1024, 1024, 0, 6, 3986, 3997, 3987, 4033, 4028, 3990, 0, 1, 14699, -89.900, 0.000, -24.300, 0.000, 0.100, -2.900, 0.0, , , , , , 95, , , 0, 0, 0
37.0262998, -119.2351628, 28.200, 13:49:08.758, 12, 0.10, 0.37, 98, 1.100, 1.300, -23.600, 2, 100, 99, 29, 24022, -18655, 5213, 5320, 20, 14, 1529354948.759, 105, 0, 1024, 1024, 1024, 1024, 0, 6, 3986, 3997, 3987, 4033, 4028, 3990, 0, 1, 14800, -89.900, 0.000, -24.300, 0.000, 0.100, -2.900, 0.0, , , , , , 95, , , 0, 0, 0
37.0262998, -119.2351626, 28.700, 13:49:08.858, 12, 0.00, 0.36, 98, 0.900, 1.400, -23.400, 2, 100, 99, 29, 24022, -18655, 5213, 5320, 20, 14, 1529354948.859, 14, 0, 1024, 1024, 1024, 1024, 0, 6, 3986, 3997, 3987, 4033, 4028, 3990, 0, 1, 14900, -89.900, 0.000, -24.300, 0.000, 0.000, -2.900, 0.0, , , , , , 95, , , 0, 0, 0
37.0262998, -119.2351626, 28.700, 13:49:08.958, 12, 0.00, 0.36, 98, 0.900, 1.400, -23.400, 2, 100, 99, 29, 24022, -18655, 5213, 5320, 20, 14, 1529354948.959, 114, 0, 1024, 1024, 1024, 1024, 0, 6, 3986, 3997, 3987, 4033, 4028, 3990, 0, 1, 15000, -89.900, 0.000, -24.300, 0.000, 0.000, -2.900, 0.0, , , , , , 95, , , 0, 0, 0
37.0262998, -119.2351626, 29.000, 13:49:09.058, 12, 0.00, 0.36, 98, 0.800, 1.200, -23.300, 2, 100, 99, 29, 24022, -18655, 5213, 5320, 20, 14, 1529354949.059, 96, 0, 1024, 1024, 1024, 1024, 0, 6, 3986, 3997, 3987, 4033, 4028, 3990, 0, 1, 15100, -89.900, 0.000, -24.300, 0.000, 0.000, -2.900, 0.0, , , , , , 95, , , 0, 0, 0
37.0262998, -119.2351626, 29.000, 13:49:09.158, 12, 0.00, 0.36, 98, 0.800, 1.200, -23.300, 2, 100, 99, 29, 24022, -18655, 5213, 5320, 20, 14, 1529354949.159, 196, 0, 1024, 1024, 1024, 1024, 0, 6, 3986, 3997, 3987, 4033, 4028, 3990, 0, 1, 15200, -89.900, 0.000, -24.300, 0.000, 0.000, -2.900, 0.0, , , , , , 95, , , 0, 0, 0
37.0262998, -119.2351625, 29.600, 13:49:09.258, 12, 0.00, 0.37, 98, 1.100, 1.100, -23.200, 2, 100, 98, 29, 24022, -18655, 5213, 5320, 20, 14, 1529354949.259, 83, 0, 1024, 1024, 1024, 1024, 0, 6, 3986, 3997, 3987, 4033, 4028, 3990, 0, 1, 15300, -89.900, 0.000, -24.300, 0.000, 0.000, -3.000, 0.0, , , , , , 95, , , 0, 0, 0
37.0262998, -119.2351625, 29.600, 13:49:09.358, 12, 0.00, 0.37, 98, 1.100, 1.100, -23.200, 2, 100, 98, 29, 24022, -18655, 5213, 5320, 20, 14, 1529354949.359, 183, 0, 1024, 1024, 1024, 1024, 0, 6, 3986, 3997, 3987, 4033, 4028, 3990, 0, 1, 15400, -90.000, 0.000, -24.300, 0.000, 0.000, -3.000, 0.0, , , , , , 95, , , 0, 0, 0
37.0262997, -119.2351624, 30.200, 13:49:09.458, 12, 0.00, 0.37, 98, 0.900, 1.000, -23.200, 2, 100, 98, 29, 24022, -18655, 5213, 5320, 20, 14, 1529354949.459, 82, 0, 1024, 1024, 1024, 1024, 0, 6, 3986, 3997, 3987, 4033, 4028, 3990, 0, 1, 15500, -89.900, 0.000, -24.300, 0.000, 0.000, -3.000, 0.0, , , , , , 95, , , 0, 0, 0
37.0262997, -119.2351624, 30.500, 13:49:09.558, 12, 0.00, 0.37, 98, 1.200, 1.200, -23.200, 2, 100, 98, 29, 24022, -18655, 5213, 5320, 20, 14, 1529354949.559, 84, 0, 1024, 1024, 1024, 1024, 0, 6, 3986, 3997, 3987, 4033, 4028, 3990, 0, 1, 15600, -89.900, 0.000, -24.300, 0.000, 0.000, -3.000, 0.0, , , , , , 95, , , 0, 0, 0
37.0262997, -119.2351624, 30.800, 13:49:09.658, 12, 0.00, 0.37, 98, 1.500, 1.300, -23.200, 2, 100, 96, 29, 23972, -18893, 5160, 5320, 20, 14, 1529354949.659, 88, 0, 1024, 1024, 1024, 1024, 0, 6, 3978, 3984, 3981, 4022, 4023, 3979, 0, 1, 15700, -89.900, 0.000, -24.300, 0.000, 0.000, -3.000, 0.0, , , , , , 95, , , 0, 0, 0
37.0262997, -119.2351625, 31.200, 13:49:09.759, 12, 0.00, 0.37, 98, 1.400, 1.300, -23.100, 2, 100, 96, 29, 23972, -18893, 5160, 5320, 20, 14, 1529354949.759, 80, 0, 1024, 1024, 1024, 1024, 0, 6, 3978, 3984, 3981, 4022, 4023, 3979, 0, 1, 15800, -89.900, 0.000, -24.300, 0.000, 0.000, -3.000, 0.0, , , , , , 95, , , 0, 0, 0
37.0262998, -119.2351626, 31.700, 13:49:09.859, 12, 0.10, 0.37, 98, 1.800, 1.600, -23.100, 2, 100, 96, 29, 23972, -18893, 5160, 5320, 20, 14, 1529354949.859, 67, 0, 1024, 1024, 1024, 1024, 0, 6, 3978, 3984, 3981, 4022, 4023, 3979, 0, 1, 15900, -89.900, 0.000, -24.300, 0.100, 0.000, -3.000, 0.0, , , , , , 95, , , 0, 0, 0
37.0262999, -119.2351626, 32.000, 13:49:09.958, 12, 0.10, 0.36, 98, 1.900, 2.100, -23.200, 2, 100, 96, 29, 23972, -18893, 5160, 5320, 20, 14, 1529354949.959, 59, 0, 1024, 1024, 1024, 1024, 0, 6, 3978, 3984, 3981, 4022, 4023, 3979, 0, 1, 16000, -89.900, 0.000, -24.300, 0.100, 0.000, -3.000, 0.0, , , , , , 95, , , 0, 0, 0
37.0262999, -119.2351626, 32.300, 13:49:10.058, 12, 0.10, 0.36, 98, 1.900, 2.500, -23.300, 2, 100, 96, 29, 23972, -18893, 5160, 5320, 20, 14, 1529354950.059, 63, 0, 1024, 1024, 1024, 1024, 0, 6, 3978, 3984, 3981, 4022, 4023, 3979, 0, 1, 16100, -89.900, 0.000, -24.300, 0.100, 0.000, -3.000, 0.0, , , , , , 95, , , 0, 0, 0
37.0262999, -119.2351627, 32.700, 13:49:10.158, 12, 0.10, 0.36, 98, 1.500, 2.800, -23.300, 2, 100, 96, 29, 23972, -18893, 5160, 5320, 20, 14, 1529354950.159, 54, 0, 1024, 1024, 1024, 1024, 0, 6, 3978, 3984, 3981, 4022, 4023, 3979, 0, 1, 16200, -89.900, 0.000, -24.300, 0.100, 0.000, -3.000, 0.0, , , , , , 95, , , 0, 0, 0
37.0263000, -119.2351627, 33.000, 13:49:10.258, 12, 0.00, 0.35, 98, 1.100, 2.700, -23.400, 2, 100, 96, 29, 23972, -18893, 5160, 5320, 20, 14, 1529354950.259, 35, 0, 1024, 1024, 1024, 1024, 0, 6, 3978, 3984, 3981, 4022, 4023, 3979, 0, 1, 16300, -89.900, 0.000, -24.300, 0.000, 0.000, -3.000, 0.0, , , , , , 95, , , 0, 0, 0
37.0263000, -119.2351626, 33.300, 13:49:10.358, 12, 0.00, 0.35, 98, 1.100, 2.600, -23.500, 2, 100, 96, 29, 23972, -18893, 5160, 5320, 20, 14, 1529354950.359, 49, 0, 1024, 1024, 1024, 1024, 0, 6, 3978, 3984, 3981, 4022, 4023, 3979, 0, 1, 16400, -89.900, 0.000, -24.300, 0.000, 0.000, -3.000, 0.0, , , , , , 95, , , 0, 0, 0
37.0263000, -119.2351626, 33.600, 13:49:10.458, 12, 0.00, 0.35, 98, 1.400, 2.400, -23.600, 2, 100, 96, 29, 23972, -18893, 5160, 5320, 20, 14, 1529354950.459, 50, 0, 1024, 1024, 1024, 1024, 0, 6, 3978, 3984, 3981, 4022, 4023, 3979, 0, 1, 16500, -89.900, 0.000, -24.300, 0.000, 0.000, -3.000, 0.0, , , , , , 95, , , 0, 0, 0
37.0262999, -119.2351626, 33.900, 13:49:10.558, 12, 0.00, 0.36, 97, 1.600, 2.200, -23.600, 2, 100, 96, 29, 23875, -19906, 5160, 5320, 20, 14, 1529354950.559, 50, 0, 1024, 1024, 1024, 1024, 0, 6, 3953, 3970, 3964, 4011, 4012, 3961, 0, 1, 16600, -89.900, 0.000, -24.300, 0.000, 0.000, -3.000, 0.0, , , , , , 95, , , 0, 0, 0
37.0262999, -119.2351627, 34.200, 13:49:10.658, 12, 0.00, 0.36, 97, 1.900, 2.100, -23.400, 2, 100, 96, 29, 23875, -19906, 5160, 5320, 20, 14, 1529354950.659, 29, 0, 1024, 1024, 1024, 1024, 0, 6, 3953, 3970, 3964, 4011, 4012, 3961, 0, 1, 16700, -89.900, 0.000, -24.300, 0.000, 0.000, -3.000, 0.0, , , , , , 95, , , 0, 0, 0
37.0262998, -119.2351627, 34.500, 13:49:10.758, 12, 0.00, 0.37, 97, 2.200, 1.900, -23.200, 2, 100, 96, 29, 23875, -19906, 5160, 5320, 20, 14, 1529354950.759, 20, 0, 1024, 1024, 1024, 1024, 0, 6, 3953, 3970, 3964, 4011, 4012, 3961, 0, 1, 16800, -89.900, 0.000, -24.300, 0.000, 0.000, -3.000, 0.0, , , , , , 95, , , 0, 0, 0
37.0262998, -119.2351627, 34.800, 13:49:10.858, 12, 0.00, 0.38, 97, 2.300, 1.600, -23.100, 2, 100, 96, 29, 23875, -19906, 5160, 5320, 20, 14, 1529354950.859, 20, 0, 1024, 1024, 1024, 1024, 0, 6, 3953, 3970, 3964, 4011, 4012, 3961, 0, 1, 16900, -90.000, 0.000, -24.300, 0.000, 0.000, -3.000, 0.0, , , , , , 95, , , 0, 0, 0
37.0262997, -119.2351628, 35.100, 13:49:10.958, 12, 0.00, 0.38, 97, 2.300, 1.300, -23.000, 2, 100, 96, 29, 23875, -19906, 5160, 5320, 20, 14, 1529354950.959, 9, 0, 1024, 1024, 1024, 1024, 0, 6, 3953, 3970, 3964, 4011, 4012, 3961, 0, 1, 17000, -90.000, 0.000, -24.300, 0.000, 0.000, -3.100, 0.0, , , , , , 95, , , 0, 0, 0
37.0262997, -119.2351628, 35.100, 13:49:11.058, 12, 0.00, 0.38, 97, 2.300, 1.300, -23.000, 2, 100, 96, 29, 23875, -19906, 5160, 5320, 20, 14, 1529354951.059, 109, 0, 1024, 1024, 1024, 1024, 0, 6, 3953, 3970, 3964, 4011, 4012, 3961, 0, 1, 17100, -90.000, 0.000, -24.300, 0.000, 0.000, -3.100, 0.0, , , , , , 95, , , 0, 0, 0
37.0262996, -119.2351628, 35.400, 13:49:11.158, 12, 0.00, 0.39, 97, 2.600, 1.100, -23.000, 2, 100, 96, 29, 23875, -19906, 5160, 5320, 20, 14, 1529354951.159, 97, 0, 1024, 1024, 1024, 1024, 0, 6, 3953, 3970, 3964, 4011, 4012, 3961, 0, 1, 17200, -90.000, 0.000, -24.300, 0.000, 0.000, -3.000, 0.0, , , , , , 95, , , 0, 0, 0
37.0262996, -119.2351628, 35.700, 13:49:11.258, 12, 0.00, 0.40, 97, 2.600, 0.700, -23.000, 2, 100, 98, 29, 23875, -19906, 5160, 5320, 20, 14, 1529354951.258, 86, 0, 1024, 1024, 1024, 1024, 0, 6, 3953, 3970, 3964, 4011, 4012, 3961, 0, 1, 17299, -89.900, 0.000, -24.300, 0.000, 0.000, -3.000, 0.0, , , , , , 95, , , 0, 0, 0
37.0262995, -119.2351628, 36.000, 13:49:11.358, 12, 0.00, 0.40, 97, 2.400, 0.600, -23.200, 2, 100, 98, 29, 23875, -19906, 5160, 5320, 20, 14, 1529354951.358, 81, 0, 1024, 1024, 1024, 1024, 0, 6, 3953, 3970, 3964, 4011, 4012, 3961, 0, 1, 17399, -89.900, 0.000, -24.300, 0.000, 0.000, -3.000, 0.0, , , , , , 95, , , 0, 0, 0
37.0262995, -119.2351628, 36.300, 13:49:11.458, 12, 0.00, 0.40, 97, 2.400, 0.900, -23.500, 2, 100, 98, 29, 23875, -19906, 5160, 5320, 20, 14, 1529354951.458, 92, 0, 1024, 1024, 1024, 1024, 0, 6, 3953, 3970, 3964, 4011, 4012, 3961, 0, 1, 17499, -89.900, 0.000, -24.300, 0.000, 0.000, -3.000, 0.0, , , , , , 95, , , 0, 0, 0
37.0262995, -119.2351628, 36.700, 13:49:11.558, 12, 0.00, 0.40, 97, 2.200, 1.200, -23.800, 2, 100, 98, 29, 23875, -19906, 5160, 5320, 20, 14, 1529354951.558, 91, 0, 1024, 1024, 1024, 1024, 0, 6, 3953, 3970, 3964, 4011, 4012, 3961, 0, 1, 17599, -89.900, 0.000, -24.300, 0.000, 0.000, -3.000, 0.0, , , , , , 95, , , 0, 0, 0
37.0262996, -119.2351627, 37.300, 13:49:11.663, 12, 0.00, 0.39, 97, 1.600, 1.200, -24.400, 2, 100, 98, 30, 23908, -19050, 5160, 5320, 20, 14, 1529354951.664, 5, 0, 1024, 1024, 1024, 1024, 0, 6, 3963, 3980, 3966, 4023, 4020, 3973, 0, 1, 17705, -90.000, 0.000, -24.300, 0.000, 0.000, -3.000, 0.0, , , , , , 95, , , 0, 0, 0
37.0262996, -119.2351627, 37.300, 13:49:11.758, 12, 0.00, 0.39, 97, 1.600, 1.200, -24.400, 2, 100, 98, 30, 23908, -19050, 5160, 5320, 20, 14, 1529354951.758, 99, 0, 1024, 1024, 1024, 1024, 0, 6, 3963, 3980, 3966, 4023, 4020, 3973, 0, 1, 17800, -89.900, 0.000, -24.300, 0.000, 0.000, -3.000, 0.0, , , , , , 95, , , 0, 0, 0
37.0262997, -119.2351626, 37.500, 13:49:11.858, 12, 0.14, 0.38, 97, 1.400, 1.700, -24.500, 2, 100, 98, 30, 23908, -19050, 5160, 5320, 20, 14, 1529354951.859, 64, 0, 1024, 1024, 1024, 1024, 0, 6, 3963, 3980, 3966, 4023, 4020, 3973, 0, 1, 17900, -89.900, 0.000, -24.300, 0.100, 0.100, -2.900, 0.0, , , , , , 95, , , 0, 0, 0
37.0262997, -119.2351625, 37.800, 13:49:11.958, 12, 0.14, 0.37, 97, 1.200, 2.100, -24.600, 2, 100, 98, 30, 23908, -19050, 5160, 5320, 20, 14, 1529354951.958, 67, 0, 1024, 1024, 1024, 1024, 0, 6, 3963, 3980, 3966, 4023, 4020, 3973, 0, 1, 17999, -89.900, 0.000, -24.300, 0.100, 0.100, -2.900, 0.0, , , , , , 95, , , 0, 0, 0
37.0262999, -119.2351622, 38.400, 13:49:12.058, 12, 0.14, 0.34, 97, 0.500, 1.100, -24.100, 2, 100, 98, 30, 23908, -19050, 5160, 5320, 20, 14, 1529354952.059, 57, 0, 1024, 1024, 1024, 1024, 0, 6, 3963, 3980, 3966, 4023, 4020, 3973, 0, 1, 18100, -89.900, 0.000, -24.300, 0.100, 0.100, -2.900, 0.0, , , , , , 95, , , 0, 0, 0
37.0262999, -119.2351622, 38.400, 13:49:12.158, 12, 0.14, 0.34, 97, 0.500, 1.100, -24.100, 2, 100, 97, 30, 23908, -19050, 5160, 5320, 20, 14, 1529354952.158, 156, 0, 1024, 1024, 1024, 1024, 0, 6, 3963, 3980, 3966, 4023, 4020, 3973, 0, 1, 18199, -89.900, 0.000, -24.300, 0.100, 0.100, -2.900, 0.0, , , , , , 95, , , 0, 0, 0
37.0263000, -119.2351619, 39.000, 13:49:12.258, 12, 0.14, 0.32, 97, -0.200, 1.900, -23.400, 2, 100, 97, 30, 23908, -19050, 5160, 5320, 20, 14, 1529354952.259, 38, 0, 1024, 1024, 1024, 1024, 0, 6, 3963, 3980, 3966, 4023, 4020, 3973, 0, 1, 18300, -89.900, 0.000, -24.300, 0.100, 0.100, -3.000, 0.0, , , , , , 95, , , 0, 0, 0
37.0263001, -119.2351618, 39.300, 13:49:12.358, 12, 0.14, 0.30, 97, -0.700, 2.600, -23.200, 2, 100, 97, 30, 23908, -19050, 5160, 5320, 20, 14, 1529354952.359, 45, 0, 1024, 1024, 1024, 1024, 0, 6, 3963, 3980, 3966, 4023, 4020, 3973, 0, 1, 18400, -89.900, 0.000, -24.300, 0.100, 0.100, -3.000, 0.0, , , , , , 95, , , 0, 0, 0
37.0263002, -119.2351617, 39.600, 13:49:12.458, 12, 0.14, 0.29, 97, -1.200, 2.900, -23.100, 2, 100, 97, 30, 23908, -19050, 5160, 5320, 20, 14, 1529354952.458, 44, 0, 1024, 1024, 1024, 1024, 0, 6, 3963, 3980, 3966, 4023, 4020, 3973, 0, 1, 18499, -89.900, 0.000, -24.300, 0.100, 0.100, -3.000, 0.0, , , , , , 95, , , 0, 0, 0
37.0263003, -119.2351616, 39.900, 13:49:12.558, 12, 0.14, 0.28, 97, -1.100, 3.000, -23.200, 2, 100, 97, 30, 24011, -17542, 5160, 5320, 20, 14, 1529354952.559, 49, 0, 1024, 1024, 1024, 1024, 0, 6, 3982, 3991, 3996, 4032, 4032, 3988, 0, 1, 18600, -89.900, 0.000, -24.300, 0.100, 0.100, -3.000, 0.0, , , , , , 95, , , 0, 0, 0
37.0263003, -119.2351615, 40.200, 13:49:12.657, 12, 0.14, 0.27, 97, -0.800, 2.800, -23.200, 2, 100, 97, 30, 24011, -17542, 5160, 5320, 20, 14, 1529354952.658, 48, 0, 1024, 1024, 1024, 1024, 0, 6, 3982, 3991, 3996, 4032, 4032, 3988, 0, 1, 18699, -89.900, 0.000, -24.300, 0.100, 0.100, -2.900, 0.0, , , , , , 95, , , 0, 0, 0
37.0263004, -119.2351613, 40.500, 13:49:12.758, 12, 0.10, 0.26, 97, -1.200, 2.700, -23.100, 2, 100, 97, 30, 24011, -17542, 5160, 5320, 20, 14, 1529354952.758, 50, 0, 1024, 1024, 1024, 1024, 0, 6, 3982, 3991, 3996, 4032, 4032, 3988, 0, 1, 18799, -89.900, 0.000, -24.300, 0.000, 0.100, -2.900, 0.0, , , , , , 95, , , 0, 0, 0
37.0263004, -119.2351612, 40.800, 13:49:12.858, 12, 0.10, 0.26, 97, -1.200, 2.300, -23.100, 2, 100, 97, 30, 24011, -17542, 5160, 5320, 20, 14, 1529354952.858, 41, 0, 1024, 1024, 1024, 1024, 0, 6, 3982, 3991, 3996, 4032, 4032, 3988, 0, 1, 18899, -90.000, 0.000, -24.300, 0.000, 0.100, -2.900, 0.0, , , , , , 95, , , 0, 0, 0
37.0263004, -119.2351610, 41.100, 13:49:12.958, 12, 0.10, 0.25, 97, -1.200, 1.600, -23.000, 2, 100, 97, 30, 24011, -17542, 5160, 5320, 20, 14, 1529354952.958, 9, 0, 1024, 1024, 1024, 1024, 0, 6, 3982, 3991, 3996, 4032, 4032, 3988, 0, 1, 18999, -90.000, 0.000, -24.300, 0.000, 0.100, -2.900, 0.0, , , , , , 95, , , 0, 0, 0
37.0263004, -119.2351608, 41.400, 13:49:13.058, 12, 0.10, 0.25, 97, -1.400, 1.300, -23.100, 2, 100, 97, 30, 24011, -17542, 5160, 5320, 20, 14, 1529354953.058, 39, 0, 1024, 1024, 1024, 1024, 0, 6, 3982, 3991, 3996, 4032, 4032, 3988, 0, 1, 19099, -90.000, 0.000, -24.300, 0.000, 0.100, -2.900, 0.0, , , , , , 95, , , 0, 0, 0
37.0263004, -119.2351606, 41.700, 13:49:13.158, 12, 0.10, 0.25, 97, -1.800, 1.000, -23.100, 2, 100, 98, 30, 24011, -17542, 5160, 5320, 20, 14, 1529354953.158, 27, 0, 1024, 1024, 1024, 1024, 0, 6, 3982, 3991, 3996, 4032, 4032, 3988, 0, 1, 19199, -90.000, 0.000, -24.300, 0.000, 0.100, -2.900, 0.0, , , , , , 95, , , 0, 0, 0
37.0263004, -119.2351604, 42.000, 13:49:13.263, 12, 0.10, 0.25, 97, -2.000, 0.600, -23.200, 2, 100, 98, 30, 24011, -17542, 5160, 5320, 20, 14, 1529354953.263, 2, 0, 1024, 1024, 1024, 1024, 0, 6, 3982, 3991, 3996, 4032, 4032, 3988, 0, 1, 19304, -90.000, 0.000, -24.300, 0.000, 0.100, -2.900, 0.0, , , , , , 95, , , 0, 0, 0
37.0263004, -119.2351602, 42.300, 13:49:13.358, 12, 0.10, 0.25, 97, -1.800, 0.800, -23.200, 2, 100, 98, 30, 24011, -17542, 5160, 5320, 20, 14, 1529354953.358, 4, 0, 1024, 1024, 1024, 1024, 0, 6, 3982, 3991, 3996, 4032, 4032, 3988, 0, 1, 19399, -89.900, 0.000, -24.300, 0.000, 0.100, -2.900, 0.0, , , , , , 95, , , 0, 0, 0
37.0263004, -119.2351601, 42.600, 13:49:13.458, 12, 0.10, 0.25, 97, -1.600, 1.000, -23.200, 2, 100, 98, 30, 24011, -17542, 5160, 5320, 20, 14, 1529354953.459, 9, 0, 1024, 1024, 1024, 1024, 0, 6, 3982, 3991, 3996, 4032, 4032, 3988, 0, 1, 19500, -90.000, 0.000, -24.300, 0.000, 0.100, -2.800, 0.0, , , , , , 95, , , 0, 0, 0
37.0263004, -119.2351601, 42.600, 13:49:13.558, 12, 0.10, 0.25, 97, -1.600, 1.000, -23.200, 2, 100, 98, 30, 24011, -17542, 5160, 5320, 20, 14, 1529354953.558, 109, 0, 1024, 1024, 1024, 1024, 0, 6, 3982, 3991, 3996, 4032, 4032, 3988, 0, 1, 19599, -90.000, 0.000, -24.300, 0.000, 0.100, -2.800, 0.0, , , , , , 95, , , 0, 0, 0
37.0263004, -119.2351600, 42.900, 13:49:13.658, 12, 0.00, 0.24, 97, -1.500, 1.200, -23.300, 2, 100, 98, 30, 24015, -17279, 5160, 5320, 20, 14, 1529354953.658, 94, 0, 1024, 1024, 1024, 1024, 0, 6, 3980, 4002, 3984, 4028, 4027, 3987, 0, 1, 19699, -89.900, 0.000, -24.300, 0.000, 0.000, -2.900, 0.0, , , , , , 95, , , 0, 0, 0
37.0263006, -119.2351599, 43.500, 13:49:13.758, 12, 0.00, 0.23, 97, -1.600, 1.900, -23.400, 2, 100, 97, 30, 24015, -17279, 5160, 5320, 20, 14, 1529354953.758, 3, 0, 1024, 1024, 1024, 1024, 0, 6, 3980, 4002, 3984, 4028, 4027, 3987, 0, 1, 19799, -89.900, 0.000, -24.300, 0.000, 0.000, -2.900, 0.0, , , , , , 95, , , 0, 0, 0
37.0263006, -119.2351599, 43.500, 13:49:13.858, 12, 0.00, 0.23, 97, -1.600, 1.900, -23.400, 2, 100, 97, 30, 24015, -17279, 5160, 5320, 20, 14, 1529354953.859, 103, 0, 1024, 1024, 1024, 1024, 0, 6, 3980, 4002, 3984, 4028, 4027, 3987, 0, 1, 19900, -89.900, 0.000, -24.300, 0.000, 0.000, -2.900, 0.0, , , , , , 95, , , 0, 0, 0
37.0263006, -119.2351598, 43.800, 13:49:13.958, 12, 0.10, 0.23, 97, -1.800, 1.800, -23.400, 2, 100, 97, 30, 24015, -17279, 5160, 5320, 20, 14, 1529354953.959, 79, 0, 1024, 1024, 1024, 1024, 0, 6, 3980, 4002, 3984, 4028, 4027, 3987, 0, 1, 20000, -89.900, 0.000, -24.300, 0.100, 0.000, -2.800, 0.0, , , , , , 95, , , 0, 0, 0
37.0263007, -119.2351598, 44.100, 13:49:14.058, 12, 0.10, 0.22, 97, -2.000, 2.000, -23.300, 2, 100, 97, 30, 24015, -17279, 5160, 5320, 20, 14, 1529354954.059, 80, 0, 1024, 1024, 1024, 1024, 0, 6, 3980, 4002, 3984, 4028, 4027, 3987, 0, 1, 20100, -89.900, 0.000, -24.300, 0.100, 0.000, -2.900, 0.0, , , , , , 95, , , 0, 0, 0
37.0263008, -119.2351598, 44.400, 13:49:14.158, 12, 0.10, 0.21, 97, -2.200, 1.800, -23.300, 2, 100, 98, 30, 24015, -17279, 5160, 5320, 20, 14, 1529354954.159, 74, 0, 1024, 1024, 1024, 1024, 0, 6, 3980, 4002, 3984, 4028, 4027, 3987, 0, 1, 20200, -89.900, 0.000, -24.300, 0.100, 0.000, -2.900, 0.0, , , , , , 95, , , 0, 0, 0
37.0263009, -119.2351597, 44.700, 13:49:14.258, 12, 0.10, 0.20, 97, -1.800, 2.000, -23.400, 2, 100, 98, 30, 24015, -17279, 5160, 5320, 20, 14, 1529354954.258, 76, 0, 1024, 1024, 1024, 1024, 0, 6, 3980, 4002, 3984, 4028, 4027, 3987, 0, 1, 20299, -89.900, 0.000, -24.300, 0.100, 0.000, -2.900, 0.0, , , , , , 95, , , 0, 0, 0
37.0263010, -119.2351599, 45.300, 13:49:14.358, 12, 0.10, 0.19, 97, -1.000, 3.400, -23.400, 2, 100, 98, 30, 24015, -17279, 5160, 5320, 20, 14, 1529354954.359, 56, 0, 1024, 1024, 1024, 1024, 0, 6, 3980, 4002, 3984, 4028, 4027, 3987, 0, 1, 20400, -89.900, 0.000, -24.300, 0.100, 0.000, -2.900, 0.0, , , , , , 95, , , 0, 0, 0
37.0263010, -119.2351600, 45.600, 13:49:14.458, 12, 0.00, 0.18, 97, -0.400, 3.500, -23.200, 2, 100, 98, 30, 24015, -17279, 5160, 5320, 20, 14, 1529354954.458, 73, 0, 1024, 1024, 1024, 1024, 0, 6, 3980, 4002, 3984, 4028, 4027, 3987, 0, 1, 20499, -89.900, 0.000, -24.300, 0.000, 0.000, -2.900, 0.0, , , , , , 95, , , 0, 0, 0
37.0263011, -119.2351600, 45.900, 13:49:14.558, 12, 0.00, 0.18, 97, -0.200, 3.400, -23.300, 2, 100, 98, 30, 23869, -18848, 5160, 5320, 20, 14, 1529354954.558, 67, 0, 1024, 1024, 1024, 1024, 0, 6, 3980, 4002, 3984, 4028, 4027, 3987, 0, 1, 20599, -89.900, 0.000, -24.300, 0.000, 0.000, -3.000, 0.0, , , , , , 95, , , 0, 0, 0
37.0263011, -119.2351601, 46.200, 13:49:14.658, 12, 0.00, 0.17, 97, -0.400, 3.100, -23.500, 2, 100, 99, 30, 23869, -18848, 5160, 5320, 20, 14, 1529354954.659, 49, 0, 1024, 1024, 1024, 1024, 0, 6, 3980, 4002, 3984, 4028, 4027, 3987, 0, 1, 20700, -89.900, 0.000, -24.300, 0.000, 0.000, -2.900, 0.0, , , , , , 95, , , 0, 0, 0
37.0263011, -119.2351601, 46.500, 13:49:14.758, 12, 0.00, 0.17, 97, -0.500, 2.800, -23.700, 2, 100, 99, 30, 23869, -18848, 5160, 5320, 20, 14, 1529354954.759, 50, 0, 1024, 1024, 1024, 1024, 0, 6, 3980, 4002, 3984, 4028, 4027, 3987, 0, 1, 20800, -89.900, 0.000, -24.300, 0.000, 0.000, -3.000, 0.0, , , , , , 95, , , 0, 0, 0
37.0263011, -119.2351601, 46.800, 13:49:14.857, 12, 0.00, 0.17, 97, -0.800, 2.300, -23.900, 2, 100, 99, 30, 23869, -18848, 5160, 5320, 20, 14, 1529354954.858, 48, 0, 1024, 1024, 1024, 1024, 0, 6, 3980, 4002, 3984, 4028, 4027, 3987, 0, 1, 20899, -90.000, 0.000, -24.300, 0.000, 0.000, -3.000, 0.0, , , , , , 95, , , 0, 0, 0
