latitude,longitude,altitude(feet),ascent(feet),speed(mph),distance(feet),time(millisecond),datetime(utc),satellites,gpslevel,voltage(v),max_altitude(feet),max_ascent(feet),max_speed(mph),max_distance(feet), xSpeed(mph), ySpeed(mph), zSpeed(mph), compass_heading(degrees), pitch(degrees), roll(degrees),isPhoto,isVideo,rc_elevator,rc_aileron,rc_throttle,rc_rudder,gimbal_heading(degrees),gimbal_pitch(degrees),battery_percent,voltageCell1,voltageCell2,voltageCell3,voltageCell4,voltageCell5,voltageCell6,current(A),battery_temperature(f),flycStateRaw,flycState,message
37.0263021,-119.2351608,3448.2333268789,0,0.3131716,0,2850,2018-06-18 20:48:57,11,0,0,3448.2333268789,0,0.3131716,0,0,0,0,336.9, 2.4, 0,1,0,1024,1024,1024,1024,335.2,-90,100,4.305,4.303,4.272,4.298,4.311,4.262,0,84.2,11,AutoTakeoff,DJI_0001.jpg Starting Mission from Lat/Long: 37.02630/-119.23515 Camera: Zenmuse X3 - Overlap: 90/90 - Active Connection: No
37.0263019,-119.2351606,3448.2333268789,0,0.3131716,0.093372378316,2900,2018-06-18 20:48:57,11,0,0,3448.2333268789,0,0.3131716,0.093372378316,0,0,0,337.2, 1.2, 0,0,0,1024,1024,1024,1024,335.2,-90,100,4.305,4.303,4.272,4.298,4.311,4.262,0,84.2,11,AutoTakeoff,
37.0263017,-119.2351605,3448.2333268789,0,0.3131716,0.170101383396,3000,2018-06-18 20:48:57,11,0,25.726,3448.2333268789,0,0.3131716,0.170101383396,0,0,0,337.4, 0.1, 0.2,0,0,1024,1024,1024,1024,335.3,-89.9,100,4.305,4.303,4.272,4.298,4.311,4.262,2.962,84.2,11,AutoTakeoff,
37.0263015,-119.2351603,3448.2333268789,0,0.3131716,0.262930782692,3100,2018-06-18 20:48:57,12,0,25.726,3448.2333268789,0,0.3131716,0.262930782692,0,0,0,337.3, -0.5, 0.2,0,0,1024,1024,1024,1024,335.3,-90,100,4.305,4.303,4.272,4.298,4.311,4.262,2.962,84.2,11,AutoTakeoff,
37.0263013,-119.2351602,3448.5614108789,0.328084,0.3131716,0.34020342296,3300,2018-06-18 20:48:57,12,0,25.726,3448.5614108789,0.328084,0.3131716,0.34020342296,0,0,0,337.2, -1, 0.2,0,0,1024,1024,1024,1024,335.3,-90,100,4.305,4.303,4.272,4.298,4.311,4.262,2.962,84.2,11,AutoTakeoff,
37.0263011,-119.2351601,3448.5614108789,0.328084,0.3131716,0.41795933096,3400,2018-06-18 20:48:57,12,0,25.726,3448.5614108789,0.328084,0.3131716,0.41795933096,0,0,0,337, -1.5, 0,0,0,1024,1024,1024,1024,335.3,-90,100,4.305,4.303,4.272,4.298,4.311,4.262,2.962,84.2,11,AutoTakeoff,
37.0263009,-119.23516,3448.8894948789,0.656168,0.3131716,0.49597114448,3500,2018-06-18 20:48:57,12,0,25.726,3448.8894948789,0.656168,0.3131716,0.49597114448,0,0,0,336.7, -2, -0.2,0,0,1024,1024,1024,1024,335.4,-89.9,100,4.305,4.303,4.272,4.298,4.311,4.262,2.962,84.2,11,AutoTakeoff,
37.0263008,-119.23516,3448.8894948789,0.656168,0,0.52845474132,3600,2018-06-18 20:48:58,11,0,25.726,3448.8894948789,0.656168,0.3131716,0.52845474132,0,0,0,336.5, -1.9, -0.3,0,0,1024,1024,1024,1024,335.4,-89.9,100,4.305,4.303,4.272,4.298,4.311,4.262,2.962,84.2,11,AutoTakeoff,
37.0263007,-119.23516,3449.2175788789,0.984252,0,0.561433745,3700,2018-06-18 20:48:58,11,0,25.726,3449.2175788789,0.984252,0.3131716,0.561433745,0,0,0,336.4, -1.1, -0.2,0,0,1024,1024,1024,1024,335.4,-89.9,100,4.305,4.303,4.272,4.298,4.311,4.262,2.962,84.2,11,AutoTakeoff,
37.0263007,-119.23516,3449.2175788789,0.984252,0,0.561433745,3800,2018-06-18 20:48:58,11,0,25.726,3449.2175788789,0.984252,0.3131716,0.561433745,0,0,0,336.3, -0.5, -0.1,0,0,1024,1024,1024,1024,335.4,-89.9,100,4.305,4.303,4.272,4.298,4.311,4.262,2.962,84.2,11,AutoTakeoff,
37.0263006,-119.23516,3449.5456628789,1.312336,0,0.59481957284,3900,2018-06-18 20:48:58,12,0,25.726,3449.5456628789,1.312336,0.3131716,0.59481957284,0,0,0,336.4, 0, -0.2,0,0,1024,1024,1024,1024,335.5,-89.9,100,4.305,4.303,4.272,4.298,4.311,4.262,2.962,84.2,11,AutoTakeoff,
37.0263006,-119.2351601,3449.8737468789,1.64042,0,0.5840223284,4000,2018-06-18 20:48:58,12,0,25.669,3449.8737468789,1.64042,0.3131716,0.59481957284,0,0,0,336.6, 0, -0.2,0,0,1024,1024,1024,1024,335.5,-89.9,100,4.241,4.257,4.247,4.283,4.272,4.246,4.092,84.2,11,AutoTakeoff,
37.0263006,-119.2351601,3449.8737468789,1.64042,0,0.5840223284,4100,2018-06-18 20:48:58,12,0,25.669,3449.8737468789,1.64042,0.3131716,0.59481957284,0,0,0,336.8, 0.2, -0.1,0,0,1024,1024,1024,1024,335.5,-89.9,100,4.241,4.257,4.247,4.283,4.272,4.246,4.092,84.2,11,AutoTakeoff,
37.0263006,-119.2351601,3450.2018308789,1.968504,0,0.5840223284,4200,2018-06-18 20:48:58,12,0,25.669,3450.2018308789,1.968504,0.3131716,0.59481957284,0,0,0,337, 0.2, 0,0,0,1024,1024,1024,1024,335.5,-89.9,100,4.241,4.257,4.247,4.283,4.272,4.246,4.092,84.2,11,AutoTakeoff,
37.0263006,-119.2351602,3450.2018308789,1.968504,0,0.57450133072,4300,2018-06-18 20:48:58,12,0,25.669,3450.2018308789,1.968504,0.3131716,0.59481957284,0,0,0,337.3, 0.2, 0,0,0,1024,1024,1024,1024,335.5,-89.9,100,4.241,4.257,4.247,4.283,4.272,4.246,4.092,84.2,11,AutoTakeoff,
37.0263005,-119.2351602,3450.5299148789,2.296588,0,0.60936025572,4400,2018-06-18 20:48:58,12,0,25.669,3450.5299148789,2.296588,0.3131716,0.60936025572,0,0,0,337.4, 0.1, 0.1,0,0,1024,1024,1024,1024,335.6,-89.9,100,4.241,4.257,4.247,4.283,4.272,4.246,4.092,84.2,11,AutoTakeoff,
37.0263005,-119.2351603,3450.5299148789,2.296588,0,0.60165356256,4500,2018-06-18 20:48:58,12,0,25.669,3450.5299148789,2.296588,0.3131716,0.60936025572,0,0,-0.223694,337.3, 0, 0.2,0,0,1024,1024,1024,1024,335.6,-89.9,100,4.241,4.257,4.247,4.283,4.272,4.246,4.092,84.2,11,AutoTakeoff,
37.0263005,-119.2351605,3450.8579988789,2.624672,0,0.59026248608,4600,2018-06-18 20:48:59,12,0,25.669,3450.8579988789,2.624672,0.3131716,0.60936025572,0,0,-0.223694,337.2, 0.1, 0.4,0,0,1024,1024,1024,1024,335.6,-89.9,100,4.241,4.257,4.247,4.283,4.272,4.246,4.092,84.2,11,AutoTakeoff,
37.0263005,-119.2351606,3450.8579988789,2.624672,0,0.58666012376,4700,2018-06-18 20:48:59,11,0,25.669,3450.8579988789,2.624672,0.3131716,0.60936025572,0,0,0,337, 0.2, 0.6,0,0,1024,1024,1024,1024,335.6,-89.9,100,4.241,4.257,4.247,4.283,4.272,4.246,4.092,84.2,11,AutoTakeoff,
37.0263004,-119.2351606,3451.1860828789,2.952756,0,0.62297246088,4800,2018-06-18 20:48:59,11,0,25.669,3451.1860828789,2.952756,0.3131716,0.62297246088,0,0,0,336.9, 0.1, 0.8,0,0,1024,1024,1024,1024,335.6,-89.9,100,4.241,4.257,4.247,4.283,4.272,4.246,4.092,84.2,6,P-GPS,
37.0263004,-119.2351607,3451.1860828789,2.952756,0,0.62092849756,4900,2018-06-18 20:48:59,12,0,25.669,3451.1860828789,2.952756,0.3131716,0.62297246088,0,0,0,336.8, 0, 0.8,0,0,1024,1024,1024,1024,335.6,-89.9,100,4.241,4.257,4.247,4.283,4.272,4.246,4.092,84.2,14,Waypoint,
37.0263004,-119.2351608,3451.5141668789,3.28084,0,0.620242802,5100,2018-06-18 20:48:59,12,0,25.669,3451.5141668789,3.28084,0.3131716,0.62297246088,0,0,0,336.6, 0, 0.5,0,0,1024,1024,1024,1024,335.6,-89.9,100,4.241,4.257,4.247,4.283,4.272,4.246,4.092,84.2,14,Waypoint,
37.0263004,-119.2351608,3451.5141668789,3.28084,0,0.620242802,5200,2018-06-18 20:48:59,12,0,25.669,3451.5141668789,3.28084,0.3131716,0.62297246088,0,0,0,336.6, 0.2, 0.4,0,0,1024,1024,1024,1024,335.7,-89.9,100,4.241,4.257,4.247,4.283,4.272,4.246,4.092,84.2,14,Waypoint,
37.0263004,-119.2351609,3451.5141668789,3.28084,0,0.62092849756,5300,2018-06-18 20:48:59,12,0,25.669,3451.5141668789,3.28084,0.3131716,0.62297246088,0,0,0,336.6, 0.3, 0.3,0,0,1024,1024,1024,1024,335.7,-89.9,100,4.241,4.257,4.247,4.283,4.272,4.246,4.092,84.2,14,Waypoint,
37.0263005,-119.2351609,3451.8422508789,3.608924,0,0.58448492684,5400,2018-06-18 20:48:59,12,0,25.669,3451.8422508789,3.608924,0.3131716,0.62297246088,0,0,0,336.6, 0.5, 0.2,0,0,1024,1024,1024,1024,335.7,-89.9,100,4.241,4.257,4.247,4.283,4.272,4.246,4.092,84.2,14,Waypoint,
37.0263005,-119.235161,3451.8422508789,3.608924,0,0.58666012376,5500,2018-06-18 20:48:59,12,0,25.669,3451.8422508789,3.608924,0.3131716,0.62297246088,0,0,-0.223694,336.6, 0.7, 0.2,0,0,1024,1024,1024,1024,335.7,-89.9,100,4.241,4.257,4.247,4.283,4.272,4.246,4.092,84.2,14,Waypoint,
37.0263005,-119.2351611,3452.4984188789,4.265092,0,0.59026248608,5600,2018-06-18 20:49:00,12,0,25.669,3452.4984188789,4.265092,0.3131716,0.62297246088,0,0,-0.223694,336.8, 0.8, 0.1,0,0,1024,1024,1024,1024,335.7,-89.9,100,4.241,4.257,4.247,4.283,4.272,4.246,4.092,84.2,14,Waypoint,
37.0263005,-119.2351611,3452.8265028789,4.593176,0,0.59026248608,5800,2018-06-18 20:49:00,11,0,25.669,3452.8265028789,4.593176,0.3131716,0.62297246088,0,0,-0.223694,336.9, 0.6, 0.1,0,0,1024,1024,1024,1024,335.7,-89.9,100,4.241,4.257,4.247,4.283,4.272,4.246,4.092,84.2,14,Waypoint,
37.0263005,-119.2351614,3453.4826708789,5.249344,0,0.60936025572,5900,2018-06-18 20:49:00,11,0,25.669,3453.4826708789,5.249344,0.3131716,0.62297246088,0,0,-0.447388,337, 0.4, 0.3,0,0,1024,1024,1024,1024,335.7,-89.9,100,4.241,4.257,4.247,4.283,4.272,4.246,4.092,84.2,14,Waypoint,
37.0263004,-119.2351616,3454.1388388789,5.905512,0,0.66257219968,6000,2018-06-18 20:49:00,11,0,24.537,3454.1388388789,5.905512,0.3131716,0.66257219968,0,0,-0.447388,336.8, 0.4, 0.6,0,0,1024,1024,1024,1024,335.7,-89.9,98,4.07,4.074,4.076,4.107,4.105,4.078,16.261,84.2,14,Waypoint,
37.0263004,-119.2351618,3454.7950068789,6.56168,0,0.6852362424,6100,2018-06-18 20:49:00,11,0,24.537,3454.7950068789,6.56168,0.3131716,0.6852362424,0,0,-0.447388,336.6, 0.4, 0.9,0,0,1024,1024,1024,1024,335.7,-89.9,98,4.07,4.074,4.076,4.107,4.105,4.078,16.261,84.2,14,Waypoint,
37.0263004,-119.235162,3455.4511748789,7.217848,0,0.71195540336,6200,2018-06-18 20:49:00,11,0,24.537,3455.4511748789,7.217848,0.3131716,0.71195540336,0,0,-0.447388,336.4, 0.5, 1.1,0,0,1024,1024,1024,1024,335.7,-89.9,98,4.07,4.074,4.076,4.107,4.105,4.078,16.261,84.2,14,Waypoint,
37.0263004,-119.2351621,3456.4354268789,8.2021,0,0.72669949832,6300,2018-06-18 20:49:00,11,0,24.537,3456.4354268789,8.2021,0.3131716,0.72669949832,0,0,-0.447388,336.3, 0.6, 1,0,0,1024,1024,1024,1024,335.7,-89.9,98,4.07,4.074,4.076,4.107,4.105,4.078,16.261,84.2,14,Waypoint,
37.0263004,-119.2351621,3457.0915948789,8.858268,0,0.72669949832,6400,2018-06-18 20:49:00,11,0,24.537,3457.0915948789,8.858268,0.3131716,0.72669949832,0,0,-0.671082,336.3, 0.5, 0.8,0,0,1024,1024,1024,1024,335.7,-89.9,98,4.07,4.074,4.076,4.107,4.105,4.078,16.261,84.2,14,Waypoint,
37.0263003,-119.2351622,3458.0758468789,9.84252,0,0.77303808248,6500,2018-06-18 20:49:00,11,0,24.537,3458.0758468789,9.84252,0.3131716,0.77303808248,0,0,-0.671082,336.4, 0.4, 0.7,0,0,1024,1024,1024,1024,335.7,-89.9,98,4.07,4.074,4.076,4.107,4.105,4.078,16.261,84.2,14,Waypoint,
37.0263002,-119.2351623,3459.0600988789,10.826772,0,0.81941931756,6600,2018-06-18 20:49:01,11,0,24.537,3459.0600988789,10.826772,0.3131716,0.81941931756,0,0,-0.671082,336.5, 0.3, 0.6,0,0,1024,1024,1024,1024,335.7,-89.9,98,4.07,4.074,4.076,4.107,4.105,4.078,16.261,84.2,14,Waypoint,
37.0263002,-119.2351624,3460.0443508789,11.811024,0,0.83531170652,6700,2018-06-18 20:49:01,11,0,24.537,3460.0443508789,11.811024,0.3131716,0.83531170652,0,0,-0.671082,336.6, 0.3, 0.7,0,0,1024,1024,1024,1024,335.7,-89.9,98,4.07,4.074,4.076,4.107,4.105,4.078,16.261,84.2,14,Waypoint,
37.0263001,-119.2351626,3461.3566868789,13.12336,0,0.89853021248,6800,2018-06-18 20:49:01,11,0,24.537,3461.3566868789,13.12336,0.3131716,0.89853021248,0,0,-0.671082,336.7, 0.5, 1,0,0,1024,1024,1024,1024,335.7,-89.9,98,4.07,4.074,4.076,4.107,4.105,4.078,16.261,84.2,14,Waypoint,
37.0263001,-119.2351628,3462.3409388789,14.107612,0,0.93372378316,6900,2018-06-18 20:49:01,11,0,24.537,3462.3409388789,14.107612,0.3131716,0.93372378316,0,0,-0.671082,336.8, 0.7, 1.1,0,0,1024,1024,1024,1024,335.7,-89.9,98,4.07,4.074,4.076,4.107,4.105,4.078,16.261,84.2,14,Waypoint,
37.0263001,-119.2351629,3463.3251908789,15.091864,0,0.95216866564,7100,2018-06-18 20:49:01,11,0,24.537,3463.3251908789,15.091864,0.3131716,0.95216866564,0,0,-0.671082,336.8, 0.7, 1.3,0,0,1024,1024,1024,1024,335.7,-89.9,98,4.07,4.074,4.076,4.107,4.105,4.078,16.261,84.2,14,Waypoint,
37.0263,-119.235163,3464.6375268789,16.4042,0,0.99884189548,7200,2018-06-18 20:49:01,11,0,24.537,3464.6375268789,16.4042,0.3131716,0.99884189548,0,0,-0.671082,336.9, 0.6, 1.4,0,0,1024,1024,1024,1024,335.7,-89.9,98,4.07,4.074,4.076,4.107,4.105,4.078,16.261,84.2,14,Waypoint,
37.0262999,-119.235163,3465.6217788789,17.388452,0,1.02709648956,7300,2018-06-18 20:49:01,11,0,24.537,3465.6217788789,17.388452,0.3131716,1.02709648956,0,0,-0.671082,336.9, 0.4, 1.5,0,0,1024,1024,1024,1024,335.7,-89.9,98,4.07,4.074,4.076,4.107,4.105,4.078,16.261,84.2,14,Waypoint,
37.0262999,-119.2351631,3466.9341148789,18.700788,0,1.04551512532,7400,2018-06-18 20:49:01,10,0,24.537,3466.9341148789,18.700788,0.3131716,1.04551512532,0,0,-0.671082,336.9, 0.3, 1.5,0,0,1024,1024,1024,1024,335.7,-89.9,98,4.07,4.074,4.076,4.107,4.105,4.078,16.261,84.2,14,Waypoint,
37.0262998,-119.2351632,3467.9183668789,19.68504,0,1.092191636,7500,2018-06-18 20:49:01,10,0,24.537,3467.9183668789,19.68504,0.3131716,1.092191636,0,0,-0.671082,337, 0.2, 1.6,0,0,1024,1024,1024,1024,335.7,-89.9,98,4.07,4.074,4.076,4.107,4.105,4.078,16.261,84.2,14,Waypoint,
37.0262998,-119.2351633,3468.9026188789,20.669292,0,1.11105974684,7600,2018-06-18 20:49:02,11,0,24.537,3468.9026188789,20.669292,0.3131716,1.11105974684,0,0,-0.671082,336.9, 0.2, 1.6,0,0,1024,1024,1024,1024,335.7,-89.9,98,4.07,4.074,4.076,4.107,4.105,4.078,16.261,84.2,14,Waypoint,
37.0262998,-119.2351633,3469.8868708789,21.653544,0,1.11105974684,7700,2018-06-18 20:49:02,11,0,24.537,3469.8868708789,21.653544,0.3131716,1.11105974684,0,0,-0.671082,336.8, 0.3, 1.5,0,0,1024,1024,1024,1024,335.7,-89.9,98,4.07,4.074,4.076,4.107,4.105,4.078,16.261,84.2,14,Waypoint,
37.0262998,-119.2351633,3470.8711228789,22.637796,0,1.11105974684,7800,2018-06-18 20:49:02,12,0,24.537,3470.8711228789,22.637796,0.3131716,1.11105974684,0,0,-0.671082,336.8, 0.3, 1.5,0,0,1024,1024,1024,1024,335.7,-89.9,98,4.07,4.074,4.076,4.107,4.105,4.078,16.261,84.2,14,Waypoint,
37.0262999,-119.2351632,3472.1834588789,23.950132,0.223694,1.06441604456,7900,2018-06-18 20:49:02,12,0,24.537,3472.1834588789,23.950132,0.3131716,1.11105974684,0,0,-0.671082,336.7, 0.3, 1.2,0,0,1024,1024,1024,1024,335.7,-89.9,98,4.07,4.074,4.076,4.107,4.105,4.078,16.261,84.2,14,Waypoint,
37.0263001,-119.2351632,3473.1677108789,24.934384,0.223694,1.01052824756,8000,2018-06-18 20:49:02,10,0,23.973,3473.1677108789,24.934384,0.3131716,1.11105974684,0,0,-0.671082,336.7, 0.5, 0.9,0,0,1024,1024,1024,1024,335.7,-89.9,98,3.977,3.987,3.969,4,4.017,3.966,22.933,84.2,14,Waypoint,
37.0263003,-119.235163,3475.1362148789,26.902888,0.223694,0.91757220784,8100,2018-06-18 20:49:02,12,0,23.973,3475.1362148789,26.902888,0.3131716,1.11105974684,0,0,-0.671082,336.6, 0.9, 0.4,0,0,1024,1024,1024,1024,335.7,-89.9,98,3.977,3.987,3.969,4,4.017,3.966,22.933,84.2,14,Waypoint,
37.0263003,-119.2351628,3476.1204668789,27.88714,0.223694,0.87787732468,8200,2018-06-18 20:49:02,12,0,23.973,3476.1204668789,27.88714,0.3131716,1.11105974684,0,0,-0.671082,336.6, 0.8, 0.1,0,0,1024,1024,1024,1024,335.7,-89.9,98,3.977,3.987,3.969,4,4.017,3.966,22.933,84.2,14,Waypoint,
37.0263004,-119.2351627,3477.4328028789,29.199476,0.223694,0.83125986912,8300,2018-06-18 20:49:02,12,0,23.973,3477.4328028789,29.199476,0.3131716,1.11105974684,0,0,-0.671082,336.5, 0.7, 0,0,0,1024,1024,1024,1024,335.7,-89.9,98,3.977,3.987,3.969,4,4.017,3.966,22.933,84.2,14,Waypoint,
37.0263005,-119.2351626,3478.4170548789,30.183728,0.223694,0.7846456944,8400,2018-06-18 20:49:02,12,0,23.973,3478.4170548789,30.183728,0.3131716,1.11105974684,0,0,-0.671082,336.4, 0.8, 0,0,0,1024,1024,1024,1024,335.7,-89.9,98,3.977,3.987,3.969,4,4.017,3.966,22.933,84.2,14,Waypoint,
37.0263006,-119.2351626,3479.4013068789,31.16798,0,0.75789372504,8500,2018-06-18 20:49:02,12,0,23.973,3479.4013068789,31.16798,0.3131716,1.11105974684,0,0,-0.671082,336.3, 1, 0,0,0,1024,1024,1024,1024,335.7,-89.9,98,3.977,3.987,3.969,4,4.017,3.966,22.933,84.2,14,Waypoint,
37.0263007,-119.2351625,3480.3855588789,32.152232,0,0.71141078392,8600,2018-06-18 20:49:03,12,0,23.973,3480.3855588789,32.152232,0.3131716,1.11105974684,0,0,-0.671082,336.3, 1.2, -0.1,0,0,1024,1024,1024,1024,335.7,-89.9,98,3.977,3.987,3.969,4,4.017,3.966,22.933,84.2,14,Waypoint,
37.0263007,-119.2351625,3481.3698108789,33.136484,0,0.71141078392,8700,2018-06-18 20:49:03,12,0,23.973,3481.3698108789,33.136484,0.3131716,1.11105974684,0,0,-0.671082,336.4, 1.5, -0.1,0,0,1024,1024,1024,1024,335.7,-89.9,98,3.977,3.987,3.969,4,4.017,3.966,22.933,84.2,14,Waypoint,
37.0263008,-119.2351625,3482.3540628789,34.120736,0,0.68568571748,8800,2018-06-18 20:49:03,12,0,23.973,3482.3540628789,34.120736,0.3131716,1.11105974684,0,0,-0.671082,336.6, 1.6, 0.1,0,0,1024,1024,1024,1024,335.7,-89.9,98,3.977,3.987,3.969,4,4.017,3.966,22.933,84.2,14,Waypoint,
37.0263009,-119.2351625,3483.3383148789,35.104988,0,0.6609744306,8900,2018-06-18 20:49:03,12,0,23.973,3483.3383148789,35.104988,0.3131716,1.11105974684,0,0,-0.671082,336.8, 1.4, 0.5,0,0,1024,1024,1024,1024,335.7,-89.9,98,3.977,3.987,3.969,4,4.017,3.966,22.933,84.2,14,Waypoint,
37.0263009,-119.2351624,3484.3225668789,36.08924,0,0.63944227768,9000,2018-06-18 20:49:03,12,0,24.122,3484.3225668789,36.08924,0.3131716,1.11105974684,0,0,-0.671082,336.9, 1.3, 0.9,0,0,1024,1024,1024,1024,335.7,-89.9,98,4.003,4.008,4.009,4.042,4.049,4.008,19.122,84.2,14,Waypoint,
37.026301,-119.2351624,3485.3068188789,37.073492,0,0.61503610892,9100,2018-06-18 20:49:03,12,0,24.122,3485.3068188789,37.073492,0.3131716,1.11105974684,0,0,-0.671082,337, 1.4, 1.1,0,0,1024,1024,1024,1024,335.7,-89.9,98,4.003,4.008,4.009,4.042,4.049,4.008,19.122,84.2,14,Waypoint,
37.026301,-119.2351624,3486.6191548789,38.385828,0,0.61503610892,9200,2018-06-18 20:49:03,12,0,24.122,3486.6191548789,38.385828,0.3131716,1.11105974684,0,0,-0.671082,337, 1.2, 0.7,0,0,1024,1024,1024,1024,335.7,-89.9,98,4.003,4.008,4.009,4.042,4.049,4.008,19.122,84.2,14,Waypoint,
37.026301,-119.2351623,3487.6034068789,39.37008,0,0.59327101636,9300,2018-06-18 20:49:03,12,0,24.122,3487.6034068789,39.37008,0.3131716,1.11105974684,0,0,-0.671082,337, 1, 0.6,0,0,1024,1024,1024,1024,335.7,-90,98,4.003,4.008,4.009,4.042,4.049,4.008,19.122,84.2,14,Waypoint,
37.0263011,-119.2351622,3488.5876588789,40.354332,0,0.54718505688,9400,2018-06-18 20:49:03,12,0,24.122,3488.5876588789,40.354332,0.3131716,1.11105974684,0,0,-0.671082,337, 0.8, 0.4,0,0,1024,1024,1024,1024,335.7,-90,98,4.003,4.008,4.009,4.042,4.049,4.008,19.122,84.2,14,Waypoint,
37.0263011,-119.2351621,3489.5719108789,41.338584,0,0.52583335016,9500,2018-06-18 20:49:03,12,0,24.122,3489.5719108789,41.338584,0.3131716,1.11105974684,0,0,-0.671082,337.1, 0.4, 0,0,0,1024,1024,1024,1024,335.7,-90,98,4.003,4.008,4.009,4.042,4.049,4.008,19.122,84.2,14,Waypoint,
37.0263011,-119.2351622,3490.5561628789,42.322836,0,0.54718505688,9600,2018-06-18 20:49:04,12,0,24.122,3490.5561628789,42.322836,0.3131716,1.11105974684,0,0,-0.671082,337.1, 0.4, 0,0,0,1024,1024,1024,1024,335.7,-90,98,4.003,4.008,4.009,4.042,4.049,4.008,19.122,84.2,14,Waypoint,
37.0263011,-119.2351622,3491.5404148789,43.307088,0,0.54718505688,9700,2018-06-18 20:49:04,11,0,24.122,3491.5404148789,43.307088,0.3131716,1.11105974684,0,0,-0.671082,336.9, 0.7, 0.3,0,0,1024,1024,1024,1024,335.7,-89.9,98,4.003,4.008,4.009,4.042,4.049,4.008,19.122,84.2,14,Waypoint,
37.0263011,-119.2351622,3492.5246668789,44.29134,0,0.54718505688,9800,2018-06-18 20:49:04,11,0,24.122,3492.5246668789,44.29134,0.3131716,1.11105974684,0,0,-0.671082,336.7, 0.9, 0.6,0,0,1024,1024,1024,1024,335.7,-89.9,98,4.003,4.008,4.009,4.042,4.049,4.008,19.122,84.2,14,Waypoint,
37.0263011,-119.2351622,3494.4931708789,46.259844,0,0.54718505688,10100,2018-06-18 20:49:04,12,0,24.122,3494.4931708789,46.259844,0.3131716,1.11105974684,0,0,-0.671082,336.6, 1.1, 1,0,0,1024,1024,1024,1024,335.7,-89.9,98,4.003,4.008,4.009,4.042,4.049,4.008,19.122,84.2,14,Waypoint,
37.0263011,-119.2351622,3495.4774228789,47.244096,0,0.54718505688,10200,2018-06-18 20:49:04,12,0,24.122,3495.4774228789,47.244096,0.3131716,1.11105974684,0,0,-0.671082,336.7, 1.2, 0.9,0,0,1024,1024,1024,1024,335.7,-89.9,98,4.003,4.008,4.009,4.042,4.049,4.008,19.122,84.2,14,Waypoint,
37.0263011,-119.2351622,3496.4616748789,48.228348,0,0.54718505688,10300,2018-06-18 20:49:04,12,0,24.122,3496.4616748789,48.228348,0.3131716,1.11105974684,0,0,-0.671082,336.7, 1.1, 0.9,0,0,1024,1024,1024,1024,335.7,-89.9,98,4.003,4.008,4.009,4.042,4.049,4.008,19.122,84.2,14,Waypoint,
37.0263011,-119.2351622,3498.7582628789,50.524936,0,0.54718505688,10400,2018-06-18 20:49:04,12,0,24.122,3498.7582628789,50.524936,0.3131716,1.11105974684,0,0,-0.671082,336.7, 1, 0.9,0,0,1024,1024,1024,1024,335.7,-89.9,98,4.003,4.008,4.009,4.042,4.049,4.008,19.122,84.2,14,Waypoint,
37.026301,-119.2351621,3499.7425148789,51.509188,0,0.55177495204,10500,2018-06-18 20:49:04,12,0,24.122,3499.7425148789,51.509188,0.3131716,1.11105974684,0,0,-0.671082,336.8, 0.9, 0.8,0,0,1024,1024,1024,1024,335.7,-90,98,4.003,4.008,4.009,4.042,4.049,4.008,19.122,84.2,14,Waypoint,
37.026301,-119.2351621,3500.7267668789,52.49344,0,0.55177495204,10600,2018-06-18 20:49:05,12,0,24.122,3500.7267668789,52.49344,0.3131716,1.11105974684,0,0,-0.671082,337, 0.6, 0.6,0,0,1024,1024,1024,1024,335.7,-89.9,98,4.003,4.008,4.009,4.042,4.049,4.008,19.122,84.2,14,Waypoint,
37.026301,-119.2351621,3501.3829348789,53.149608,0,0.55177495204,10700,2018-06-18 20:49:05,12,0,24.122,3501.3829348789,53.149608,0.3131716,1.11105974684,0,0,-0.671082,337.2, 0.7, 0.8,0,0,1024,1024,1024,1024,335.7,-89.9,98,4.003,4.008,4.009,4.042,4.049,4.008,19.122,84.2,14,Waypoint,
37.026301,-119.2351621,3502.3671868789,54.13386,0,0.55177495204,10800,2018-06-18 20:49:05,12,0,24.122,3502.3671868789,54.13386,0.3131716,1.11105974684,0,0,-0.671082,337.1, 0.9, 1,0,0,1024,1024,1024,1024,335.7,-89.9,98,4.003,4.008,4.009,4.042,4.049,4.008,19.122,84.2,14,Waypoint,
37.0263009,-119.2351621,3503.3514388789,55.118112,0,0.5788550054,10900,2018-06-18 20:49:05,12,0,24.122,3503.3514388789,55.118112,0.3131716,1.11105974684,0,0,-0.671082,336.8, 1.2, 0.8,0,0,1024,1024,1024,1024,335.7,-89.9,98,4.003,4.008,4.009,4.042,4.049,4.008,19.122,84.2,14,Waypoint,
37.0263009,-119.2351621,3504.3356908789,56.102364,0,0.5788550054,11000,2018-06-18 20:49:05,12,0,24.098,3504.3356908789,56.102364,0.3131716,1.11105974684,0,0,-0.671082,336.5, 1, 0.1,0,0,1024,1024,1024,1024,335.7,-89.9,98,3.999,4.007,4.004,4.039,4.042,4.003,19.005,84.2,14,Waypoint,
37.0263008,-119.235162,3505.3199428789,57.086616,0,0.58918637056,11100,2018-06-18 20:49:05,12,0,24.098,3505.3199428789,57.086616,0.3131716,1.11105974684,0,0,-0.671082,336.3, 0.7, 0,0,0,1024,1024,1024,1024,335.7,-90,98,3.999,4.007,4.004,4.039,4.042,4.003,19.005,84.2,14,Waypoint,
37.0263008,-119.235162,3506.3041948789,58.070868,0,0.58918637056,11200,2018-06-18 20:49:05,12,0,24.098,3506.3041948789,58.070868,0.3131716,1.11105974684,0,0,-0.671082,336.1, 0.7, 0,0,0,1024,1024,1024,1024,335.7,-89.9,98,3.999,4.007,4.004,4.039,4.042,4.003,19.005,84.2,14,Waypoint,
37.0263008,-119.235162,3507.2884468789,59.05512,0,0.58918637056,11300,2018-06-18 20:49:05,12,0,24.098,3507.2884468789,59.05512,0.3131716,1.11105974684,0,0,-0.671082,336.1, 0.8, 0.2,0,0,1024,1024,1024,1024,335.7,-89.9,98,3.999,4.007,4.004,4.039,4.042,4.003,19.005,84.2,14,Waypoint,
37.0263007,-119.2351621,3508.2726988789,60.039372,0,0.63583991536,11400,2018-06-18 20:49:05,12,0,24.098,3508.2726988789,60.039372,0.3131716,1.11105974684,0,0,-0.671082,336.2, 0.7, 0.4,0,0,1024,1024,1024,1024,335.7,-89.9,98,3.999,4.007,4.004,4.039,4.042,4.003,19.005,84.2,14,Waypoint,
37.0263006,-119.2351621,3509.2569508789,61.023624,0,0.66550527064,11500,2018-06-18 20:49:05,12,0,24.098,3509.2569508789,61.023624,0.3131716,1.11105974684,0,0,-0.671082,336.3, 0.6, 0.7,0,0,1024,1024,1024,1024,335.7,-90,98,3.999,4.007,4.004,4.039,4.042,4.003,19.005,84.2,14,Waypoint,
37.0263006,-119.2351621,3510.2412028789,62.007876,0,0.66550527064,11600,2018-06-18 20:49:06,12,0,24.098,3510.2412028789,62.007876,0.3131716,1.11105974684,0,0,-0.671082,336.5, 0.3, 0.9,0,0,1024,1024,1024,1024,335.7,-90,98,3.999,4.007,4.004,4.039,4.042,4.003,19.005,84.2,14,Waypoint,
37.0263005,-119.2351622,3511.2254548789,62.992128,0,0.7120899178,11700,2018-06-18 20:49:06,12,0,24.098,3511.2254548789,62.992128,0.3131716,1.11105974684,0,0,-0.671082,336.7, 0.2, 0.8,0,0,1024,1024,1024,1024,335.7,-90,98,3.999,4.007,4.004,4.039,4.042,4.003,19.005,84.2,14,Waypoint,
37.0263005,-119.2351622,3512.2097068789,63.97638,0,0.7120899178,11800,2018-06-18 20:49:06,12,0,24.098,3512.2097068789,63.97638,0.3131716,1.11105974684,0,0,-0.671082,337, 0.3, 0.7,0,0,1024,1024,1024,1024,335.7,-89.9,98,3.999,4.007,4.004,4.039,4.042,4.003,19.005,84.2,14,Waypoint,
37.0263005,-119.2351623,3513.1939588789,64.960632,0,0.72916012832,11900,2018-06-18 20:49:06,12,0,24.098,3513.1939588789,64.960632,0.3131716,1.11105974684,0,0,-0.671082,337.2, 0.6, 0.9,0,0,1024,1024,1024,1024,335.7,-89.9,98,3.999,4.007,4.004,4.039,4.042,4.003,19.005,84.2,14,Waypoint,
37.0263004,-119.2351624,3514.1782108789,65.944884,0,0.77582679648,12000,2018-06-18 20:49:06,12,0,24.114,3514.1782108789,65.944884,0.3131716,1.11105974684,0,0,-0.671082,337.2, 0.9, 1.3,0,0,1024,1024,1024,1024,335.7,-89.9,98,4.013,4.008,4.009,4.041,4.044,4.008,18.312,84.2,14,Waypoint,
37.0263004,-119.2351625,3515.1624628789,66.929136,0,0.79366472356,12200,2018-06-18 20:49:06,12,0,24.114,3515.1624628789,66.929136,0.3131716,1.11105974684,0,0,-0.671082,337.1, 1.1, 1.5,0,0,1024,1024,1024,1024,335.7,-89.9,98,4.013,4.008,4.009,4.041,4.044,4.008,18.312,84.2,14,Waypoint,
37.0263004,-119.2351625,3516.1467148789,67.913388,0,0.79366472356,12300,2018-06-18 20:49:06,12,0,24.114,3516.1467148789,67.913388,0.3131716,1.11105974684,0,0,-0.671082,337, 1.1, 1.6,0,0,1024,1024,1024,1024,335.7,-89.9,98,4.013,4.008,4.009,4.041,4.044,4.008,18.312,84.2,14,Waypoint,
37.0263003,-119.2351625,3517.1309668789,68.89764,0,0.82249346464,12400,2018-06-18 20:49:06,12,0,24.114,3517.1309668789,68.89764,0.3131716,1.11105974684,0,0,-0.671082,336.8, 1.1, 1.6,0,0,1024,1024,1024,1024,335.7,-89.9,98,4.013,4.008,4.009,4.041,4.044,4.008,18.312,84.2,14,Waypoint,
37.0263003,-119.2351625,3518.1152188789,69.881892,0,0.82249346464,12500,2018-06-18 20:49:06,12,0,24.114,3518.1152188789,69.881892,0.3131716,1.11105974684,0,0,-0.671082,336.6, 1.1, 1.6,0,0,1024,1024,1024,1024,335.7,-89.9,98,4.013,4.008,4.009,4.041,4.044,4.008,18.312,84.2,14,Waypoint,
37.0263003,-119.2351626,3519.0994708789,70.866144,0,0.84035107676,12600,2018-06-18 20:49:07,12,0,24.114,3519.0994708789,70.866144,0.3131716,1.11105974684,0,0,-0.671082,336.5, 1.1, 1.7,0,0,1024,1024,1024,1024,335.7,-89.9,98,4.013,4.008,4.009,4.041,4.044,4.008,18.312,84.2,14,Waypoint,
37.0263003,-119.2351626,3520.0837228789,71.850396,0,0.84035107676,12700,2018-06-18 20:49:07,12,0,24.114,3520.0837228789,71.850396,0.3131716,1.11105974684,0,0,-0.671082,336.4, 1.1, 1.7,0,0,1024,1024,1024,1024,335.7,-89.9,98,4.013,4.008,4.009,4.041,4.044,4.008,18.312,84.2,14,Waypoint,
37.0263003,-119.2351627,3521.0679748789,72.834648,0,0.8588254868,12800,2018-06-18 20:49:07,12,0,24.114,3521.0679748789,72.834648,0.3131716,1.11105974684,0,0,-0.671082,336.5, 1.2, 1.6,0,0,1024,1024,1024,1024,335.7,-89.9,98,4.013,4.008,4.009,4.041,4.044,4.008,18.312,84.2,14,Waypoint,
37.0263003,-119.2351627,3522.0522268789,73.8189,0,0.8588254868,12900,2018-06-18 20:49:07,12,0,24.114,3522.0522268789,73.8189,0.3131716,1.11105974684,0,0,-0.671082,336.5, 1.4, 1.4,0,0,1024,1024,1024,1024,335.7,-89.9,98,4.013,4.008,4.009,4.041,4.044,4.008,18.312,84.2,14,Waypoint,
37.0263002,-119.2351627,3523.0364788789,74.803152,0,0.88703742996,13000,2018-06-18 20:49:07,12,0,24.067,3523.0364788789,74.803152,0.3131716,1.11105974684,0,0,-0.671082,336.5, 1.3, 1.5,0,0,1024,1024,1024,1024,335.7,-89.9,98,3.983,4.004,3.992,4.036,4.045,3.988,18.785,84.2,14,Waypoint,
37.0263002,-119.2351628,3524.0207308789,75.787404,0,0.9054954358,13100,2018-06-18 20:49:07,12,0,24.067,3524.0207308789,75.787404,0.3131716,1.11105974684,0,0,-0.671082,336.5, 1.2, 1.7,0,0,1024,1024,1024,1024,335.7,-89.9,98,3.983,4.004,3.992,4.036,4.045,3.988,18.785,84.2,14,Waypoint,
37.0263002,-119.2351627,3525.9892348789,77.755908,0,0.88703742996,13200,2018-06-18 20:49:07,12,0,24.067,3525.9892348789,77.755908,0.3131716,1.11105974684,0,0,-0.671082,336.6, 1, 1.7,0,0,1024,1024,1024,1024,335.7,-89.9,98,3.983,4.004,3.992,4.036,4.045,3.988,18.785,84.2,14,Waypoint,
37.0263002,-119.2351627,3526.9734868789,78.74016,0,0.88703742996,13300,2018-06-18 20:49:07,12,0,24.067,3526.9734868789,78.74016,0.3131716,1.11105974684,0,0,-0.671082,336.7, 1.1, 1.6,0,0,1024,1024,1024,1024,335.7,-89.9,98,3.983,4.004,3.992,4.036,4.045,3.988,18.785,84.2,14,Waypoint,
37.0263001,-119.2351628,3527.9577388789,79.724412,0,0.93372378316,13400,2018-06-18 20:49:07,12,0,24.067,3527.9577388789,79.724412,0.3131716,1.11105974684,0,0,-0.671082,336.7, 1.1, 1.7,0,0,1024,1024,1024,1024,335.7,-89.9,98,3.983,4.004,3.992,4.036,4.045,3.988,18.785,84.2,14,Waypoint,
37.0263001,-119.2351628,3528.9419908789,80.708664,0,0.93372378316,13500,2018-06-18 20:49:07,12,0,24.067,3528.9419908789,80.708664,0.3131716,1.11105974684,0,0,-0.671082,336.8, 1.1, 1.9,0,0,1024,1024,1024,1024,335.7,-89.9,98,3.983,4.004,3.992,4.036,4.045,3.988,18.785,84.2,14,Waypoint,
37.0263,-119.2351629,3529.9262428789,81.692916,0,0.98041013636,13600,2018-06-18 20:49:08,12,0,24.067,3529.9262428789,81.692916,0.3131716,1.11105974684,0,0,-0.671082,336.8, 1.1, 1.8,0,0,1024,1024,1024,1024,335.7,-89.9,98,3.983,4.004,3.992,4.036,4.045,3.988,18.785,84.2,14,Waypoint,
37.0263,-119.2351629,3530.9104948789,82.677168,0,0.98041013636,13700,2018-06-18 20:49:08,12,0,24.067,3530.9104948789,82.677168,0.3131716,1.11105974684,0,0,-0.671082,336.9, 1, 1.9,0,0,1024,1024,1024,1024,335.7,-89.9,98,3.983,4.004,3.992,4.036,4.045,3.988,18.785,84.2,14,Waypoint,
37.0263,-119.235163,3531.8947468789,83.66142,0,0.99884189548,13800,2018-06-18 20:49:08,12,0,24.067,3531.8947468789,83.66142,0.3131716,1.11105974684,0,0,-0.671082,336.9, 1.2, 2.1,0,0,1024,1024,1024,1024,335.7,-89.9,98,3.983,4.004,3.992,4.036,4.045,3.988,18.785,84.2,14,Waypoint,
37.0263,-119.235163,3532.8789988789,84.645672,0,0.99884189548,13900,2018-06-18 20:49:08,12,0,24.067,3532.8789988789,84.645672,0.3131716,1.11105974684,0,0,-0.671082,336.9, 1.5, 2.4,0,0,1024,1024,1024,1024,335.7,-89.9,98,3.983,4.004,3.992,4.036,4.045,3.988,18.785,84.2,14,Waypoint,
37.0263,-119.235163,3533.8632508789,85.629924,0,0.99884189548,14000,2018-06-18 20:49:08,12,0,24.066,3533.8632508789,85.629924,0.3131716,1.11105974684,0,0,-0.671082,336.8, 1.6, 2.5,0,0,1024,1024,1024,1024,335.7,-89.9,98,3.998,4.014,4,4.045,4.043,4.002,18.063,84.2,14,Waypoint,
37.0262999,-119.235163,3534.8475028789,86.614176,0,1.02709648956,14100,2018-06-18 20:49:08,12,0,24.066,3534.8475028789,86.614176,0.3131716,1.11105974684,0,0,-0.671082,336.7, 1.7, 2.4,0,0,1024,1024,1024,1024,335.7,-89.9,98,3.998,4.014,4,4.045,4.043,4.002,18.063,84.2,14,Waypoint,
37.0262999,-119.2351631,3535.8317548789,87.598428,0,1.04551512532,14200,2018-06-18 20:49:08,12,0,24.066,3535.8317548789,87.598428,0.3131716,1.11105974684,0,0,-0.671082,336.6, 1.5, 2.2,0,0,1024,1024,1024,1024,335.7,-90,98,3.998,4.014,4,4.045,4.043,4.002,18.063,84.2,14,Waypoint,
37.0262999,-119.235163,3536.8160068789,88.58268,0,1.02709648956,14300,2018-06-18 20:49:08,12,0,24.066,3536.8160068789,88.58268,0.3131716,1.11105974684,0,0,-0.671082,336.4, 1, 2.2,0,0,1024,1024,1024,1024,335.7,-90,98,3.998,4.014,4,4.045,4.043,4.002,18.063,84.2,14,Waypoint,
37.0262998,-119.235163,3537.8002588789,89.566932,0,1.05585305216,14400,2018-06-18 20:49:08,12,0,24.066,3537.8002588789,89.566932,0.3131716,1.11105974684,0,0,-0.671082,336.3, 0.9, 2,0,0,1024,1024,1024,1024,335.7,-90,98,3.998,4.014,4,4.045,4.043,4.002,18.063,84.2,14,Waypoint,
37.0262998,-119.2351629,3538.7845108789,90.551184,0.223694,1.03843179176,14500,2018-06-18 20:49:08,12,0,24.066,3538.7845108789,90.551184,0.3131716,1.11105974684,0,0,-0.671082,336.2, 0.8, 1.5,0,0,1024,1024,1024,1024,335.7,-89.9,98,3.998,4.014,4,4.045,4.043,4.002,18.063,84.2,14,Waypoint,
37.0262998,-119.2351628,3539.7687628789,91.535436,0.223694,1.02154530828,14600,2018-06-18 20:49:09,12,0,24.066,3539.7687628789,91.535436,0.3131716,1.11105974684,0,0,-0.671082,336.3, 1, 1.2,0,0,1024,1024,1024,1024,335.7,-89.9,98,3.998,4.014,4,4.045,4.043,4.002,18.063,84.2,14,Waypoint,
37.0262998,-119.2351628,3540.7530148789,92.519688,0.223694,1.02154530828,14700,2018-06-18 20:49:09,12,0,24.066,3540.7530148789,92.519688,0.3131716,1.11105974684,0,0,-0.671082,336.4, 1.3, 1.1,0,0,1024,1024,1024,1024,335.7,-89.9,98,3.998,4.014,4,4.045,4.043,4.002,18.063,84.2,14,Waypoint,
37.0262998,-119.2351626,3542.3934348789,94.160108,0,0.98948165896,14900,2018-06-18 20:49:09,12,0,24.066,3542.3934348789,94.160108,0.3131716,1.11105974684,0,0,-0.671082,336.6, 1.4, 0.9,0,0,1024,1024,1024,1024,335.7,-89.9,98,3.998,4.014,4,4.045,4.043,4.002,18.063,84.2,14,Waypoint,
37.0262998,-119.2351626,3543.3776868789,95.14436,0,0.98948165896,15100,2018-06-18 20:49:09,12,0,24.066,3543.3776868789,95.14436,0.3131716,1.11105974684,0,0,-0.671082,336.7, 1.2, 0.8,0,0,1024,1024,1024,1024,335.7,-89.9,98,3.998,4.014,4,4.045,4.043,4.002,18.063,84.2,14,Waypoint,
37.0262998,-119.2351625,3545.3461908789,97.112864,0,0.9743602674,15300,2018-06-18 20:49:09,12,0,24.066,3545.3461908789,97.112864,0.3131716,1.11105974684,0,0,-0.671082,336.8, 1.1, 1.1,0,0,1024,1024,1024,1024,335.7,-89.9,98,3.998,4.014,4,4.045,4.043,4.002,18.063,84.2,14,Waypoint,
37.0262997,-119.2351624,3547.3146948789,99.081368,0,0.99193900812,15500,2018-06-18 20:49:09,12,0,24.066,3547.3146948789,99.081368,0.3131716,1.11105974684,0,0,-0.671082,336.8, 1, 0.9,0,0,1024,1024,1024,1024,335.7,-89.9,98,3.998,4.014,4,4.045,4.043,4.002,18.063,84.2,14,Waypoint,
37.0262997,-119.2351624,3548.2989468789,100.06562,0,0.99193900812,15600,2018-06-18 20:49:10,12,0,24.066,3548.2989468789,100.06562,0.3131716,1.11105974684,0,0,-0.671082,336.8, 1.2, 1.2,0,0,1024,1024,1024,1024,335.7,-89.9,98,3.998,4.014,4,4.045,4.043,4.002,18.063,84.2,14,Waypoint,
37.0262997,-119.2351624,3549.2831988789,101.049872,0,0.99193900812,15700,2018-06-18 20:49:10,12,0,24.066,3549.2831988789,101.049872,0.3131716,1.11105974684,0,0,-0.671082,336.8, 1.3, 1.5,0,0,1024,1024,1024,1024,335.7,-89.9,98,3.998,4.014,4,4.045,4.043,4.002,18.063,84.2,14,Waypoint,
37.0262997,-119.2351625,3550.5955348789,102.362208,0,1.0059547566,15800,2018-06-18 20:49:10,12,0,24.066,3550.5955348789,102.362208,0.3131716,1.11105974684,0,0,-0.671082,336.9, 1.3, 1.4,0,0,1024,1024,1024,1024,335.7,-89.9,98,3.998,4.014,4,4.045,4.043,4.002,18.063,84.2,14,Waypoint,
37.0262998,-119.2351626,3552.2359548789,104.002628,0.223694,0.98948165896,15900,2018-06-18 20:49:10,12,0,24.066,3552.2359548789,104.002628,0.3131716,1.11105974684,0,0,-0.671082,336.9, 1.6, 1.8,0,0,1024,1024,1024,1024,335.7,-89.9,98,3.998,4.014,4,4.045,4.043,4.002,18.063,84.2,14,Waypoint,
37.0262999,-119.2351626,3553.2202068789,104.98688,0.223694,0.95873362648,16000,2018-06-18 20:49:10,12,0,23.972,3553.2202068789,104.98688,0.3131716,1.11105974684,0,0,-0.671082,336.8, 2.1, 1.9,0,0,1024,1024,1024,1024,335.7,-89.9,98,3.978,3.984,3.981,4.022,4.023,3.979,18.893,84.2,14,Waypoint,
37.0262999,-119.2351626,3554.2044588789,105.971132,0.223694,0.95873362648,16100,2018-06-18 20:49:10,12,0,23.972,3554.2044588789,105.971132,0.3131716,1.11105974684,0,0,-0.671082,336.7, 2.5, 1.9,0,0,1024,1024,1024,1024,335.7,-89.9,98,3.978,3.984,3.981,4.022,4.023,3.979,18.893,84.2,14,Waypoint,
37.0262999,-119.2351627,3555.5167948789,107.283468,0.223694,0.97497050364,16200,2018-06-18 20:49:10,12,0,23.972,3555.5167948789,107.283468,0.3131716,1.11105974684,0,0,-0.671082,336.7, 2.8, 1.5,0,0,1024,1024,1024,1024,335.7,-89.9,98,3.978,3.984,3.981,4.022,4.023,3.979,18.893,84.2,14,Waypoint,
37.0263,-119.2351627,3556.5010468789,108.26772,0,0.9451607914,16300,2018-06-18 20:49:10,12,0,23.972,3556.5010468789,108.26772,0.3131716,1.11105974684,0,0,-0.671082,336.6, 2.7, 1.1,0,0,1024,1024,1024,1024,335.7,-89.9,98,3.978,3.984,3.981,4.022,4.023,3.979,18.893,84.2,14,Waypoint,
37.0263,-119.2351626,3557.4852988789,109.251972,0,0.92840554152,16400,2018-06-18 20:49:10,12,0,23.972,3557.4852988789,109.251972,0.3131716,1.11105974684,0,0,-0.671082,336.5, 2.6, 1.1,0,0,1024,1024,1024,1024,335.7,-89.9,98,3.978,3.984,3.981,4.022,4.023,3.979,18.893,84.2,14,Waypoint,
37.0263,-119.2351626,3558.4695508789,110.236224,0,0.92840554152,16500,2018-06-18 20:49:10,12,0,23.972,3558.4695508789,110.236224,0.3131716,1.11105974684,0,0,-0.671082,336.4, 2.4, 1.4,0,0,1024,1024,1024,1024,335.7,-89.9,98,3.978,3.984,3.981,4.022,4.023,3.979,18.893,84.2,14,Waypoint,
37.0262999,-119.2351626,3559.4538028789,111.220476,0,0.95873362648,16600,2018-06-18 20:49:11,12,0,23.972,3559.4538028789,111.220476,0.3131716,1.11105974684,0,0,-0.671082,336.4, 2.2, 1.6,0,0,1024,1024,1024,1024,335.7,-89.9,98,3.978,3.984,3.981,4.022,4.023,3.979,18.893,84.2,14,Waypoint,
37.0262999,-119.2351627,3560.4380548789,112.204728,0,0.97497050364,16700,2018-06-18 20:49:11,12,0,23.972,3560.4380548789,112.204728,0.3131716,1.11105974684,0,0,-0.671082,336.6, 2.1, 1.9,0,0,1024,1024,1024,1024,335.7,-89.9,98,3.978,3.984,3.981,4.022,4.023,3.979,18.893,84.2,14,Waypoint,
37.0262998,-119.2351627,3561.4223068789,113.18898,0,1.00521984844,16800,2018-06-18 20:49:11,12,0,23.972,3561.4223068789,113.18898,0.3131716,1.11105974684,0,0,-0.671082,336.8, 1.9, 2.2,0,0,1024,1024,1024,1024,335.7,-89.9,98,3.978,3.984,3.981,4.022,4.023,3.979,18.893,84.2,14,Waypoint,
37.0262998,-119.2351627,3562.4065588789,114.173232,0,1.00521984844,16900,2018-06-18 20:49:11,12,0,23.972,3562.4065588789,114.173232,0.3131716,1.11105974684,0,0,-0.671082,336.9, 1.6, 2.3,0,0,1024,1024,1024,1024,335.7,-90,98,3.978,3.984,3.981,4.022,4.023,3.979,18.893,84.2,14,Waypoint,
37.0262997,-119.2351628,3563.3908108789,115.157484,0,1.0517224746,17000,2018-06-18 20:49:11,12,0,23.875,3563.3908108789,115.157484,0.3131716,1.11105974684,0,0,-0.671082,337, 1.3, 2.3,0,0,1024,1024,1024,1024,335.7,-90,97,3.953,3.97,3.964,4.011,4.012,3.961,19.906,84.2,14,Waypoint,
37.0262996,-119.2351628,3564.3750628789,116.141736,0,1.08228678004,17200,2018-06-18 20:49:11,12,0,23.875,3564.3750628789,116.141736,0.3131716,1.11105974684,0,0,-0.671082,337, 1.1, 2.6,0,0,1024,1024,1024,1024,335.7,-90,97,3.953,3.97,3.964,4.011,4.012,3.961,19.906,84.2,14,Waypoint,
37.0262996,-119.2351628,3565.3593148789,117.125988,0,1.08228678004,17300,2018-06-18 20:49:11,12,0,23.875,3565.3593148789,117.125988,0.3131716,1.11105974684,0,0,-0.671082,337, 0.7, 2.6,0,0,1024,1024,1024,1024,335.7,-89.9,97,3.953,3.97,3.964,4.011,4.012,3.961,19.906,84.2,14,Waypoint,
37.0262995,-119.2351628,3566.3435668789,118.11024,0,1.11320869704,17400,2018-06-18 20:49:11,12,0,23.875,3566.3435668789,118.11024,0.3131716,1.11320869704,0,0,-0.671082,336.8, 0.6, 2.4,0,0,1024,1024,1024,1024,335.7,-89.9,97,3.953,3.97,3.964,4.011,4.012,3.961,19.906,84.2,14,Waypoint,
37.0262995,-119.2351628,3567.3278188789,119.094492,0,1.11320869704,17500,2018-06-18 20:49:11,12,0,23.875,3567.3278188789,119.094492,0.3131716,1.11320869704,0,0,-0.671082,336.5, 0.9, 2.4,0,0,1024,1024,1024,1024,335.7,-89.9,97,3.953,3.97,3.964,4.011,4.012,3.961,19.906,84.2,14,Waypoint,
37.0262995,-119.2351628,3568.6401548789,120.406828,0,1.11320869704,17600,2018-06-18 20:49:12,12,0,23.875,3568.6401548789,120.406828,0.3131716,1.11320869704,0,0,-0.671082,336.2, 1.2, 2.2,0,0,1024,1024,1024,1024,335.7,-89.9,97,3.953,3.97,3.964,4.011,4.012,3.961,19.906,84.2,14,Waypoint,
37.0262996,-119.2351627,3570.6086588789,122.375332,0,1.06689307876,17700,2018-06-18 20:49:12,12,0,23.875,3570.6086588789,122.375332,0.3131716,1.11320869704,0,0,-0.671082,335.6, 1.2, 1.6,0,0,1024,1024,1024,1024,335.7,-90,97,3.953,3.97,3.964,4.011,4.012,3.961,19.906,84.2,14,Waypoint,
37.0262996,-119.2351627,3570.6086588789,122.375332,0,1.06689307876,17800,2018-06-18 20:49:12,12,0,23.875,3570.6086588789,122.375332,0.3131716,1.11320869704,0,0,-0.671082,335.6, 1.2, 1.6,0,0,1024,1024,1024,1024,335.7,-89.9,97,3.953,3.97,3.964,4.011,4.012,3.961,19.906,84.2,14,Waypoint,
37.0262997,-119.2351626,3571.2648268789,123.0315,0.3131716,1.02060698804,17900,2018-06-18 20:49:12,12,0,23.875,3571.2648268789,123.0315,0.3131716,1.11320869704,0,0,-0.671082,335.5, 1.7, 1.4,0,0,1024,1024,1024,1024,335.7,-89.9,97,3.953,3.97,3.964,4.011,4.012,3.961,19.906,84.2,14,Waypoint,
37.0262997,-119.2351625,3572.2490788789,124.015752,0.3131716,1.0059547566,18000,2018-06-18 20:49:12,12,0,23.908,3572.2490788789,124.015752,0.3131716,1.11320869704,0,0,-0.671082,335.4, 2.1, 1.2,0,0,1024,1024,1024,1024,335.7,-89.9,97,3.963,3.98,3.966,4.023,4.02,3.973,19.05,86,14,Waypoint,
37.0262999,-119.2351622,3574.2175828789,125.984256,0.3131716,0.90031827028,18100,2018-06-18 20:49:12,12,0,23.908,3574.2175828789,125.984256,0.3131716,1.11320869704,0,0,-0.671082,335.9, 1.1, 0.5,0,0,1024,1024,1024,1024,335.7,-89.9,97,3.963,3.98,3.966,4.023,4.02,3.973,19.05,86,14,Waypoint,
37.0263,-119.2351619,3576.1860868789,127.95276,0.3131716,0.83048231004,18300,2018-06-18 20:49:12,12,0,23.908,3576.1860868789,127.95276,0.3131716,1.11320869704,0,0,-0.671082,336.6, 1.9, -0.2,0,0,1024,1024,1024,1024,335.7,-89.9,97,3.963,3.98,3.966,4.023,4.02,3.973,19.05,86,14,Waypoint,
37.0263001,-119.2351618,3577.1703388789,128.937012,0.3131716,0.78568900152,18400,2018-06-18 20:49:12,12,0,23.908,3577.1703388789,128.937012,0.3131716,1.11320869704,0,0,-0.671082,336.8, 2.6, -0.7,0,0,1024,1024,1024,1024,335.7,-89.9,97,3.963,3.98,3.966,4.023,4.02,3.973,19.05,86,14,Waypoint,
37.0263002,-119.2351617,3578.1545908789,129.921264,0.3131716,0.74112863264,18500,2018-06-18 20:49:12,12,0,23.908,3578.1545908789,129.921264,0.3131716,1.11320869704,0,0,-0.671082,336.9, 2.9, -1.2,0,0,1024,1024,1024,1024,335.7,-89.9,97,3.963,3.98,3.966,4.023,4.02,3.973,19.05,86,14,Waypoint,
37.0263003,-119.2351616,3579.1388428789,130.905516,0.3131716,0.69684385432,18600,2018-06-18 20:49:13,12,0,23.908,3579.1388428789,130.905516,0.3131716,1.11320869704,0,0,-0.671082,336.8, 3, -1.1,0,0,1024,1024,1024,1024,335.7,-89.9,97,3.963,3.98,3.966,4.023,4.02,3.973,19.05,86,14,Waypoint,
37.0263003,-119.2351615,3580.1230948789,131.889768,0.3131716,0.68765422148,18700,2018-06-18 20:49:13,12,0,23.908,3580.1230948789,131.889768,0.3131716,1.11320869704,0,0,-0.671082,336.8, 2.8, -0.8,0,0,1024,1024,1024,1024,335.7,-89.9,97,3.963,3.98,3.966,4.023,4.02,3.973,19.05,86,14,Waypoint,
37.0263004,-119.2351613,3581.1073468789,132.87402,0.223694,0.63711288128,18800,2018-06-18 20:49:13,12,0,23.908,3581.1073468789,132.87402,0.3131716,1.11320869704,0,0,-0.671082,336.9, 2.7, -1.2,0,0,1024,1024,1024,1024,335.7,-89.9,97,3.963,3.98,3.966,4.023,4.02,3.973,19.05,86,14,Waypoint,
37.0263004,-119.2351612,3582.0915988789,133.858272,0.223694,0.63109253988,18900,2018-06-18 20:49:13,12,0,23.908,3582.0915988789,133.858272,0.3131716,1.11320869704,0,0,-0.671082,336.9, 2.3, -1.2,0,0,1024,1024,1024,1024,335.7,-90,97,3.963,3.98,3.966,4.023,4.02,3.973,19.05,86,14,Waypoint,
37.0263004,-119.235161,3583.0758508789,134.842524,0.223694,0.62297246088,19000,2018-06-18 20:49:13,12,0,24.011,3583.0758508789,134.842524,0.3131716,1.11320869704,0,0,-0.671082,337, 1.6, -1.2,0,0,1024,1024,1024,1024,335.7,-90,97,3.982,3.991,3.996,4.032,4.032,3.988,17.542,86,14,Waypoint,
37.0263004,-119.2351608,3584.0601028789,135.826776,0.223694,0.620242802,19100,2018-06-18 20:49:13,12,0,24.011,3584.0601028789,135.826776,0.3131716,1.11320869704,0,0,-0.671082,336.9, 1.3, -1.4,0,0,1024,1024,1024,1024,335.7,-90,97,3.982,3.991,3.996,4.032,4.032,3.988,17.542,86,14,Waypoint,
37.0263004,-119.2351606,3585.0443548789,136.811028,0.223694,0.62297246088,19200,2018-06-18 20:49:13,12,0,24.011,3585.0443548789,136.811028,0.3131716,1.11320869704,0,0,-0.671082,336.9, 1, -1.8,0,0,1024,1024,1024,1024,335.7,-90,97,3.982,3.991,3.996,4.032,4.032,3.988,17.542,86,14,Waypoint,
37.0263004,-119.2351604,3586.0286068789,137.79528,0.223694,0.63109253988,19300,2018-06-18 20:49:13,12,0,24.011,3586.0286068789,137.79528,0.3131716,1.11320869704,0,0,-0.671082,336.8, 0.6, -2,0,0,1024,1024,1024,1024,335.7,-90,97,3.982,3.991,3.996,4.032,4.032,3.988,17.542,86,14,Waypoint,
37.0263004,-119.2351602,3587.0128588789,138.779532,0.223694,0.64439634608,19400,2018-06-18 20:49:13,12,0,24.011,3587.0128588789,138.779532,0.3131716,1.11320869704,0,0,-0.671082,336.8, 0.8, -1.8,0,0,1024,1024,1024,1024,335.7,-89.9,97,3.982,3.991,3.996,4.032,4.032,3.988,17.542,86,14,Waypoint,
37.0263004,-119.2351601,3587.9971108789,139.763784,0.223694,0.65289700252,19500,2018-06-18 20:49:13,12,0,24.011,3587.9971108789,139.763784,0.3131716,1.11320869704,0,0,-0.671082,336.8, 1, -1.6,0,0,1024,1024,1024,1024,335.7,-90,97,3.982,3.991,3.996,4.032,4.032,3.988,17.542,86,14,Waypoint,
37.0263004,-119.23516,3588.9813628789,140.748036,0,0.66257219968,19700,2018-06-18 20:49:14,12,0,24.011,3588.9813628789,140.748036,0.3131716,1.11320869704,0,0,-0.671082,336.7, 1.2, -1.5,0,0,1024,1024,1024,1024,335.7,-89.9,97,3.982,3.991,3.996,4.032,4.032,3.988,17.542,86,14,Waypoint,
37.0263006,-119.2351599,3590.9498668789,142.71654,0,0.60682088556,19800,2018-06-18 20:49:14,12,0,24.011,3590.9498668789,142.71654,0.3131716,1.11320869704,0,0,-0.671082,336.6, 1.9, -1.6,0,0,1024,1024,1024,1024,335.7,-89.9,97,3.982,3.991,3.996,4.032,4.032,3.988,17.542,86,14,Waypoint,
37.0263006,-119.2351598,3591.9341188789,143.700792,0.223694,0.6199639306,20000,2018-06-18 20:49:14,12,0,24.015,3591.9341188789,143.700792,0.3131716,1.11320869704,0,0,-0.671082,336.6, 1.8, -1.8,0,0,1024,1024,1024,1024,335.7,-89.9,97,3.98,4.002,3.984,4.028,4.027,3.987,17.279,86,14,Waypoint,
37.0263007,-119.2351598,3592.9183708789,144.685044,0.223694,0.58800526816,20100,2018-06-18 20:49:14,12,0,24.015,3592.9183708789,144.685044,0.3131716,1.11320869704,0,0,-0.671082,336.7, 2, -2,0,0,1024,1024,1024,1024,335.7,-89.9,97,3.98,4.002,3.984,4.028,4.027,3.987,17.279,86,14,Waypoint,
37.0263008,-119.2351598,3593.9026228789,145.669296,0.223694,0.55660434852,20200,2018-06-18 20:49:14,12,0,24.015,3593.9026228789,145.669296,0.3131716,1.11320869704,0,0,-0.671082,336.7, 1.8, -2.2,0,0,1024,1024,1024,1024,335.7,-89.9,97,3.98,4.002,3.984,4.028,4.027,3.987,17.279,86,14,Waypoint,
37.0263009,-119.2351597,3594.8868748789,146.653548,0.223694,0.54253938744,20300,2018-06-18 20:49:14,12,0,24.015,3594.8868748789,146.653548,0.3131716,1.11320869704,0,0,-0.671082,336.6, 2, -1.8,0,0,1024,1024,1024,1024,335.7,-89.9,97,3.98,4.002,3.984,4.028,4.027,3.987,17.279,86,14,Waypoint,
37.026301,-119.2351599,3596.8553788789,148.622052,0.223694,0.47936681324,20400,2018-06-18 20:49:14,12,0,24.015,3596.8553788789,148.622052,0.3131716,1.11320869704,0,0,-0.671082,336.6, 3.4, -1,0,0,1024,1024,1024,1024,335.7,-89.9,97,3.98,4.002,3.984,4.028,4.027,3.987,17.279,86,14,Waypoint,
37.026301,-119.23516,3597.8396308789,149.606304,0,0.46407809884,20500,2018-06-18 20:49:14,12,0,24.015,3597.8396308789,149.606304,0.3131716,1.11320869704,0,0,-0.671082,336.8, 3.5, -0.4,0,0,1024,1024,1024,1024,335.7,-89.9,97,3.98,4.002,3.984,4.028,4.027,3.987,17.279,86,14,Waypoint,
37.0263011,-119.23516,3598.8238828789,150.590556,0,0.43291668052,20600,2018-06-18 20:49:15,12,0,24.015,3598.8238828789,150.590556,0.3131716,1.11320869704,0,0,-0.671082,336.7, 3.4, -0.2,0,0,1024,1024,1024,1024,335.7,-89.9,97,3.98,4.002,3.984,4.028,4.027,3.987,17.279,86,14,Waypoint,
37.0263011,-119.2351601,3599.8081348789,151.574808,0,0.41795933096,20700,2018-06-18 20:49:15,12,0,24.015,3599.8081348789,151.574808,0.3131716,1.11320869704,0,0,-0.671082,336.5, 3.1, -0.4,0,0,1024,1024,1024,1024,335.7,-89.9,97,3.98,4.002,3.984,4.028,4.027,3.987,17.279,86,14,Waypoint,
37.0263011,-119.2351601,3600.7923868789,152.55906,0,0.41795933096,20800,2018-06-18 20:49:15,12,0,24.015,3600.7923868789,152.55906,0.3131716,1.11320869704,0,0,-0.671082,336.3, 2.8, -0.5,0,0,1024,1024,1024,1024,335.7,-89.9,97,3.98,4.002,3.984,4.028,4.027,3.987,17.279,86,14,Waypoint,
37.0263011,-119.2351601,3601.7766388789,153.543312,0,0.41795933096,20900,2018-06-18 20:49:15,12,0,24.015,3601.7766388789,153.543312,0.3131716,1.11320869704,0,0,-0.671082,336.1, 2.3, -0.8,0,0,1024,1024,1024,1024,335.7,-90,97,3.98,4.002,3.984,4.028,4.027,3.987,17.279,86,14,Waypoint,
37.0263011,-119.23516,3602.7608908789,154.527564,0,0.43291668052,21000,2018-06-18 20:49:15,12,0,23.869,3602.7608908789,154.527564,0.3131716,1.11320869704,0,0,-0.671082,336.1, 2.1, -1.2,0,0,1024,1024,1024,1024,335.7,-89.9,97,3.98,4.002,3.984,4.028,4.027,3.987,18.848,86,14,Waypoint,
37.0263011,-119.23516,3603.7451428789,155.511816,0,0.43291668052,21100,2018-06-18 20:49:15,12,0,23.869,3603.7451428789,155.511816,0.3131716,1.11320869704,0,0,-0.671082,336.1, 2, -1.6,0,0,1024,1024,1024,1024,335.7,-90,97,3.98,4.002,3.984,4.028,4.027,3.987,18.848,86,14,Waypoint,
37.0263011,-119.2351599,3604.7293948789,156.496068,0,0.44926510624,21200,2018-06-18 20:49:15,12,0,23.869,3604.7293948789,156.496068,0.3131716,1.11320869704,0,0,-0.671082,336.3, 1.9, -1.9,0,0,1024,1024,1024,1024,335.7,-90,97,3.98,4.002,3.984,4.028,4.027,3.987,18.848,86,14,Waypoint,
37.0263011,-119.2351598,3605.7136468789,157.48032,0,0.46686025116,21300,2018-06-18 20:49:15,12,0,23.869,3605.7136468789,157.48032,0.3131716,1.11320869704,0,0,-0.671082,336.5, 1.7, -1.9,0,0,1024,1024,1024,1024,335.7,-90,97,3.98,4.002,3.984,4.028,4.027,3.987,18.848,86,14,Waypoint,
37.0263012,-119.2351597,3606.6978988789,158.464572,0,0.45878610392,21400,2018-06-18 20:49:15,12,0,23.869,3606.6978988789,158.464572,0.3131716,1.11320869704,0,0,-0.671082,336.7, 1.9, -2,0,0,1024,1024,1024,1024,335.7,-89.9,97,3.98,4.002,3.984,4.028,4.027,3.987,18.848,86,14,Waypoint,
37.0263012,-119.2351597,3607.6821508789,159.448824,0,0.45878610392,21500,2018-06-18 20:49:15,12,0,23.869,3607.6821508789,159.448824,0.3131716,1.11320869704,0,0,-0.671082,337, 2.3, -2.3,0,0,1024,1024,1024,1024,335.7,-89.9,97,3.98,4.002,3.984,4.028,4.027,3.987,18.848,86,14,Waypoint,
37.0263013,-119.2351596,3608.6664028789,160.433076,0.223694,0.45537731116,21600,2018-06-18 20:49:16,12,0,23.869,3608.6664028789,160.433076,0.3131716,1.11320869704,0,0,-0.671082,337.1, 2.7, -2.7,0,0,1024,1024,1024,1024,335.7,-89.9,97,3.98,4.002,3.984,4.028,4.027,3.987,18.848,86,14,Waypoint,
37.0263014,-119.2351596,3609.6506548789,161.417328,0.223694,0.43290027632,21700,2018-06-18 20:49:16,12,0,23.869,3609.6506548789,161.417328,0.3131716,1.11320869704,0,0,-0.671082,337, 3, -2.9,0,0,1024,1024,1024,1024,335.8,-89.9,97,3.98,4.002,3.984,4.028,4.027,3.987,18.848,86,14,Waypoint,
37.0263015,-119.2351596,3610.6349068789,162.40158,0.223694,0.41242783472,21900,2018-06-18 20:49:16,12,0,23.869,3610.6349068789,162.40158,0.3131716,1.11320869704,0,0,-0.671082,336.9, 3, -3,0,0,1024,1024,1024,1024,335.8,-89.9,97,3.98,4.002,3.984,4.028,4.027,3.987,18.848,86,14,Waypoint,
37.0263015,-119.2351595,3611.6191588789,163.385832,0.223694,0.43738846544,22000,2018-06-18 20:49:16,12,0,23.869,3611.6191588789,163.385832,0.3131716,1.11320869704,0,0,-0.671082,336.9, 3, -3.1,0,0,1024,1024,1024,1024,335.8,-89.9,97,3.948,3.973,3.965,4.007,4.01,3.962,18.848,86,14,Waypoint,
37.0263016,-119.2351594,3612.6034108789,164.370084,0.223694,0.4467355786,22100,2018-06-18 20:49:16,12,0,23.869,3612.6034108789,164.370084,0.3131716,1.11320869704,0,0,-0.671082,336.9, 3.2, -3.1,0,0,1024,1024,1024,1024,335.8,-89.9,97,3.948,3.973,3.965,4.007,4.01,3.962,18.848,86,14,Waypoint,
37.0263017,-119.2351594,3613.5876628789,165.354336,0,0.4331200926,22200,2018-06-18 20:49:16,12,0,23.869,3613.5876628789,165.354336,0.3131716,1.11320869704,0,0,-0.671082,336.9, 3.2, -3.3,0,0,1024,1024,1024,1024,335.8,-89.9,97,3.948,3.973,3.965,4.007,4.01,3.962,18.848,86,14,Waypoint,
37.0263017,-119.2351594,3614.5719148789,166.338588,0,0.4331200926,22300,2018-06-18 20:49:16,12,0,23.869,3614.5719148789,166.338588,0.3131716,1.11320869704,0,0,-0.671082,337.1, 3.1, -3.1,0,0,1024,1024,1024,1024,335.8,-89.9,97,3.948,3.973,3.965,4.007,4.01,3.962,18.848,86,14,Waypoint,
37.0263017,-119.2351594,3615.5561668789,167.32284,0,0.4331200926,22400,2018-06-18 20:49:16,12,0,23.869,3615.5561668789,167.32284,0.3131716,1.11320869704,0,0,-0.671082,337.1, 3.3, -2.7,0,0,1024,1024,1024,1024,335.8,-89.9,97,3.948,3.973,3.965,4.007,4.01,3.962,18.848,86,14,Waypoint,
37.0263018,-119.2351596,3617.5246708789,169.291344,0,0.3662729776,22500,2018-06-18 20:49:16,12,0,23.869,3617.5246708789,169.291344,0.3131716,1.11320869704,0,0,-0.671082,336.8, 3.4, -2.9,0,0,1024,1024,1024,1024,335.8,-89.9,97,3.948,3.973,3.965,4.007,4.01,3.962,18.848,86,14,Waypoint,
37.0263018,-119.2351597,3620.4774268789,172.2441,0,0.33858924968,22800,2018-06-18 20:49:17,12,0,23.869,3620.4774268789,172.2441,0.3131716,1.11320869704,0,0,-0.671082,336, 3.9, -3,0,0,1024,1024,1024,1024,335.8,-89.9,97,3.948,3.973,3.965,4.007,4.01,3.962,18.848,86,14,Waypoint,
37.0263018,-119.2351597,3621.4616788789,173.228352,0,0.33858924968,22900,2018-06-18 20:49:17,12,0,23.869,3621.4616788789,173.228352,0.3131716,1.11320869704,0,0,-0.671082,335.7, 3.7, -2.7,0,0,1024,1024,1024,1024,335.8,-89.9,97,3.948,3.973,3.965,4.007,4.01,3.962,18.848,86,14,Waypoint,
37.0263018,-119.2351598,3622.4459308789,174.212604,0,0.311167004708,23000,2018-06-18 20:49:17,12,0,23.833,3622.4459308789,174.212604,0.3131716,1.11320869704,0,0,-0.671082,335.3, 3.3, -2.4,0,0,1024,1024,1024,1024,335.8,-89.9,97,3.949,3.968,3.954,4.003,4.001,3.962,19.325,86,14,Waypoint,
37.0263018,-119.2351598,3623.4301828789,175.196856,0,0.311167004708,23100,2018-06-18 20:49:17,12,0,23.833,3623.4301828789,175.196856,0.3131716,1.11320869704,0,0,-0.671082,335.1, 2.9, -2.3,0,0,1024,1024,1024,1024,335.8,-89.9,97,3.949,3.968,3.954,4.003,4.001,3.962,19.325,86,14,Waypoint,
37.0263017,-119.2351599,3624.4144348789,176.181108,0,0.300037411176,23200,2018-06-18 20:49:17,12,0,23.833,3624.4144348789,176.181108,0.3131716,1.11320869704,0,0,-0.671082,335, 2.7, -2.1,0,0,1024,1024,1024,1024,335.8,-89.9,97,3.949,3.968,3.954,4.003,4.001,3.962,19.325,86,14,Waypoint,
37.0263017,-119.23516,3625.3986868789,177.16536,0,0.27495243662,23300,2018-06-18 20:49:17,12,0,23.833,3625.3986868789,177.16536,0.3131716,1.11320869704,0,0,-0.671082,335.1, 2.9, -2.1,0,0,1024,1024,1024,1024,335.8,-89.9,97,3.949,3.968,3.954,4.003,4.001,3.962,19.325,86,14,Waypoint,
37.0263016,-119.2351601,3626.3829388789,178.149612,0,0.273591872272,23400,2018-06-18 20:49:17,12,0,23.833,3626.3829388789,178.149612,0.3131716,1.11320869704,0,0,-0.671082,335.3, 2.7, -2,0,0,1024,1024,1024,1024,335.8,-90,97,3.949,3.968,3.954,4.003,4.001,3.962,19.325,86,14,Waypoint,
37.0263015,-119.2351602,3627.3671908789,179.133864,0,0.280116806864,23500,2018-06-18 20:49:17,12,0,23.833,3627.3671908789,179.133864,0.3131716,1.11320869704,0,0,-0.671082,335.7, 2.5, -1.6,0,0,1024,1024,1024,1024,335.8,-89.9,97,3.949,3.968,3.954,4.003,4.001,3.962,19.325,86,14,Waypoint,
37.0263014,-119.2351603,3628.3514428789,180.118116,0,0.29400263408,23600,2018-06-18 20:49:18,12,0,23.833,3628.3514428789,180.118116,0.3131716,1.11320869704,0,0,-0.671082,336.3, 2.4, -1.4,0,0,1024,1024,1024,1024,335.8,-90,97,3.949,3.968,3.954,4.003,4.001,3.962,19.325,86,14,Waypoint,
37.0263012,-119.2351606,3630.3199468789,182.08662,0,0.33349082432,23800,2018-06-18 20:49:18,12,0,23.833,3630.3199468789,182.08662,0.3131716,1.11320869704,0,0,-0.671082,336.9, 2.4, -0.3,0,0,1024,1024,1024,1024,335.8,-89.9,97,3.949,3.968,3.954,4.003,4.001,3.962,19.325,86,14,Waypoint,
37.0263011,-119.2351607,3631.3041988789,183.070872,0,0.3660105104,23900,2018-06-18 20:49:18,12,0,23.833,3631.3041988789,183.070872,0.3131716,1.11320869704,0,0,-0.671082,337.1, 2.6, 0.3,0,0,1024,1024,1024,1024,335.8,-89.9,97,3.949,3.968,3.954,4.003,4.001,3.962,19.325,86,14,Waypoint,
37.026301,-119.2351609,3632.2884508789,184.055124,0,0.40238846432,24000,2018-06-18 20:49:18,12,0,23.864,3632.2884508789,184.055124,0.3131716,1.11320869704,0,0,-0.671082,337.1, 2.7, 0.6,0,0,1024,1024,1024,1024,335.8,-89.9,97,3.95,3.973,3.963,4,4.006,3.967,18.636,86,14,Waypoint,
37.0263009,-119.235161,3633.2727028789,185.039376,0,0.44167652332,24100,2018-06-18 20:49:18,12,0,23.864,3633.2727028789,185.039376,0.3131716,1.11320869704,0,0,-0.671082,337.2, 2.6, 0.8,0,0,1024,1024,1024,1024,335.8,-90,97,3.95,3.973,3.963,4,4.006,3.967,18.636,86,14,Waypoint,
37.0263008,-119.2351612,3635.2412068789,187.00788,0,0.48840552744,24300,2018-06-18 20:49:18,12,0,23.864,3635.2412068789,187.00788,0.3131716,1.11320869704,0,0,-0.671082,337.1, 2.1, 0.4,0,0,1024,1024,1024,1024,335.8,-90,97,3.95,3.973,3.963,4,4.006,3.967,18.636,86,14,Waypoint,
37.0263008,-119.2351612,3636.2254588789,187.992132,0,0.48840552744,24410,2018-06-18 20:49:18,12,0,23.864,3636.2254588789,187.992132,0.3131716,1.11320869704,0,0,-0.671082,337, 2, -0.1,0,0,1024,1024,1024,1024,335.8,-90,97,3.95,3.973,3.963,4,4.006,3.967,18.636,86,14,Waypoint,
37.0263007,-119.2351612,3636.8816268789,188.6483,0,0.52390749708,24500,2018-06-18 20:49:18,12,0,23.864,3636.8816268789,188.6483,0.3131716,1.11320869704,0,0,-0.671082,337.1, 2.3, -0.9,0,0,1024,1024,1024,1024,335.8,-89.9,97,3.95,3.973,3.963,4,4.006,3.967,18.636,86,14,Waypoint,
37.0263007,-119.2351611,3637.8658788789,189.632552,0,0.518208678,24700,2018-06-18 20:49:19,12,0,23.864,3637.8658788789,189.632552,0.3131716,1.11320869704,0,0,-0.671082,337.2, 2.6, -1.5,0,0,1024,1024,1024,1024,335.8,-89.9,97,3.95,3.973,3.963,4,4.006,3.967,18.636,86,14,Waypoint,
37.0263006,-119.2351611,3638.8501308789,190.616804,0,0.55420605448,24800,2018-06-18 20:49:19,12,0,23.864,3638.8501308789,190.616804,0.3131716,1.11320869704,0,0,-0.671082,337.3, 2.4, -1.7,0,0,1024,1024,1024,1024,335.8,-89.9,97,3.95,3.973,3.963,4,4.006,3.967,18.636,86,14,Waypoint,
37.0263006,-119.2351611,3639.8343828789,191.601056,0,0.55420605448,24900,2018-06-18 20:49:19,12,0,23.864,3639.8343828789,191.601056,0.3131716,1.11320869704,0,0,-0.671082,337.5, 2, -1.3,0,0,1024,1024,1024,1024,335.8,-89.9,97,3.95,3.973,3.963,4,4.006,3.967,18.636,86,14,Waypoint,
37.0263005,-119.2351611,3641.8028868789,193.56956,0,0.59026248608,25000,2018-06-18 20:49:19,12,0,23.858,3641.8028868789,193.56956,0.3131716,1.11320869704,0,0,-0.671082,337.6, 1.8, -0.8,0,0,1024,1024,1024,1024,335.8,-89.9,97,3.951,3.965,3.961,3.997,4.002,3.957,18.299,86,14,Waypoint,
37.0263004,-119.2351612,3642.7871388789,194.553812,0,0.63109253988,25100,2018-06-18 20:49:19,12,0,23.858,3642.7871388789,194.553812,0.3131716,1.11320869704,0,0,-0.671082,337.5, 2.1, -0.4,0,0,1024,1024,1024,1024,335.8,-89.9,97,3.951,3.965,3.961,3.997,4.002,3.957,18.299,86,14,Waypoint,
37.0263004,-119.2351613,3645.0837268789,196.8504,0,0.63711288128,25300,2018-06-18 20:49:19,12,0,23.858,3645.0837268789,196.8504,0.3131716,1.11320869704,0,0,-0.671082,337.2, 2.9, -0.8,0,0,1024,1024,1024,1024,335.8,-89.9,97,3.951,3.965,3.961,3.997,4.002,3.957,18.299,86,14,Waypoint,
37.0263004,-119.2351613,3646.0679788789,197.834652,0.223694,0.63711288128,25400,2018-06-18 20:49:19,12,0,23.858,3646.0679788789,197.834652,0.3131716,1.11320869704,0,0,-0.671082,337.1, 3.4, -1.1,0,0,1024,1024,1024,1024,335.8,-89.9,97,3.951,3.965,3.961,3.997,4.002,3.957,18.299,86,14,Waypoint,
37.0263005,-119.2351613,3647.0522308789,198.818904,0.223694,0.60165356256,25500,2018-06-18 20:49:19,12,0,23.858,3647.0522308789,198.818904,0.3131716,1.11320869704,0,0,-0.671082,337, 3.8, -1.4,0,0,1024,1024,1024,1024,335.8,-89.9,97,3.951,3.965,3.961,3.997,4.002,3.957,18.299,86,14,Waypoint,
37.0263005,-119.2351613,3648.0364828789,199.803156,0.223694,0.60165356256,25600,2018-06-18 20:49:20,12,0,23.858,3648.0364828789,199.803156,0.3131716,1.11320869704,0,0,-0.671082,336.9, 4, -1.6,0,0,1024,1024,1024,1024,335.8,-89.9,97,3.951,3.965,3.961,3.997,4.002,3.957,18.299,86,14,Waypoint,
37.0263006,-119.2351613,3649.0207348789,200.787408,0,0.5663221966,25700,2018-06-18 20:49:20,12,0,23.858,3649.0207348789,200.787408,0.3131716,1.11320869704,0,0,-0.671082,336.8, 4, -1.7,0,0,1024,1024,1024,1024,335.8,-89.9,97,3.951,3.965,3.961,3.997,4.002,3.957,18.299,86,14,Waypoint,
37.0263006,-119.2351613,3650.0049868789,201.77166,0,0.5663221966,25800,2018-06-18 20:49:20,12,0,23.858,3650.0049868789,201.77166,0.3131716,1.11320869704,0,0,-0.671082,336.8, 3.9, -1.4,0,0,1024,1024,1024,1024,335.8,-89.9,97,3.951,3.965,3.961,3.997,4.002,3.957,18.299,86,14,Waypoint,
37.0263005,-119.2351613,3650.9892388789,202.755912,0,0.60165356256,25900,2018-06-18 20:49:20,12,0,23.858,3650.9892388789,202.755912,0.3131716,1.11320869704,0,0,-0.671082,336.8, 3.4, -0.9,0,0,1024,1024,1024,1024,335.8,-89.9,97,3.951,3.965,3.961,3.997,4.002,3.957,18.299,86,14,Waypoint,
