latitude,longitude,altitude(feet),ascent(feet),speed(mph),distance(feet),time(millisecond),datetime(utc),satellites,gpslevel,voltage(v),max_altitude(feet),max_ascent(feet),max_speed(mph),max_distance(feet), xSpeed(mph), ySpeed(mph), zSpeed(mph), compass_heading(degrees), pitch(degrees), roll(degrees),isPhoto,isVideo,rc_elevator,rc_aileron,rc_throttle,rc_rudder,gimbal_heading(degrees),gimbal_pitch(degrees),battery_percent,voltageCell1,voltageCell2,voltageCell3,voltageCell4,voltageCell5,voltageCell6,current(A),battery_temperature(f),flycStateRaw,flycState,message
37.0262487,-119.2351947,3456.7017546433,0,0.3131716,0,3030,2018-06-18 21:43:47,12,0,25.873,3456.7017546433,0,0.3131716,0,0,0,0,334, 1, 0.4,1,0,1024,1024,1024,1024,330.2,-90,100,4.307,4.315,4.312,4.312,4.315,4.266,1.287,80.6,11,AutoTakeoff,DJI_0216.jpg Starting Mission from Lat/Long: 37.02625/-119.23520 Camera: Zenmuse X3 - Overlap: 90/90 - Active Connection: No
37.0262484,-119.2351945,3456.7017546433,0,0.223694,0.123992458036,3200,2018-06-18 21:43:47,11,0,25.873,3456.7017546433,0,0.3131716,0.123992458036,0,0,0,334.6, -0.5, -0.4,0,0,1024,1024,1024,1024,330.5,-90,100,4.307,4.315,4.312,4.312,4.315,4.266,1.287,80.6,11,AutoTakeoff,
37.0262483,-119.2351944,3456.7017546433,0,0.223694,0.170101383396,3300,2018-06-18 21:43:47,11,0,25.873,3456.7017546433,0,0.3131716,0.170101383396,0,0,0,334.7, -0.8, -0.1,0,0,1024,1024,1024,1024,330.6,-90,100,4.307,4.315,4.312,4.312,4.315,4.266,1.287,80.6,11,AutoTakeoff,
37.0262481,-119.2351944,3456.7017546433,0,0.223694,0.235706372372,3400,2018-06-18 21:43:47,11,0,25.873,3456.7017546433,0,0.3131716,0.235706372372,0,0,0,334.5, -0.8, 0,0,0,1024,1024,1024,1024,330.7,-89.9,100,4.307,4.315,4.312,4.312,4.315,4.266,1.287,80.6,11,AutoTakeoff,
37.0262479,-119.2351944,3456.7017546433,0,0.223694,0.304679471692,3500,2018-06-18 21:43:47,11,0,25.873,3456.7017546433,0,0.3131716,0.304679471692,0,0,0,334.3, -1.2, 0.3,0,0,1024,1024,1024,1024,330.8,-90,100,4.307,4.315,4.312,4.312,4.315,4.266,1.287,80.6,11,AutoTakeoff,
37.0262478,-119.2351944,3457.0298386433,0.328084,0.223694,0.33979331796,3600,2018-06-18 21:43:48,11,0,25.873,3457.0298386433,0.328084,0.3131716,0.33979331796,0,0,0,334.2, -1.6, 0.4,0,0,1024,1024,1024,1024,330.9,-90,100,4.307,4.315,4.312,4.312,4.315,4.266,1.287,80.6,11,AutoTakeoff,
37.0262477,-119.2351944,3457.0298386433,0.328084,0.223694,0.37516733484,3700,2018-06-18 21:43:48,11,0,25.873,3457.0298386433,0.328084,0.3131716,0.37516733484,0,0,0,334.1, -1, 0.5,0,0,1024,1024,1024,1024,331,-89.9,100,4.307,4.315,4.312,4.312,4.315,4.266,1.287,80.6,11,AutoTakeoff,
37.0262477,-119.2351944,3457.3579226433,0.656168,0,0.37516733484,3800,2018-06-18 21:43:48,10,0,25.873,3457.3579226433,0.656168,0.3131716,0.37516733484,0,0,0,334.2, -0.7, 0.6,0,0,1024,1024,1024,1024,331.1,-89.9,100,4.307,4.315,4.312,4.312,4.315,4.266,1.287,80.6,11,AutoTakeoff,
37.0262475,-119.2351945,3457.3579226433,0.656168,0.223694,0.44167652332,3900,2018-06-18 21:43:48,10,0,25.873,3457.3579226433,0.656168,0.3131716,0.44167652332,0,0,0,334.3, -0.4, 0.7,0,0,1024,1024,1024,1024,331.2,-89.9,100,4.307,4.315,4.312,4.312,4.315,4.266,1.287,80.6,11,AutoTakeoff,
37.0262473,-119.2351946,3457.6860066433,0.984252,0.223694,0.51161747044,4000,2018-06-18 21:43:48,10,0,25.751,3457.6860066433,0.984252,0.3131716,0.51161747044,0,0,0,334.4, -0.4, 0.9,0,0,1024,1024,1024,1024,331.3,-89.9,100,4.162,4.18,4.29,4.276,4.282,4.274,7.491,80.6,11,AutoTakeoff,
37.0262472,-119.2351947,3457.6860066433,0.984252,0.223694,0.54727363956,4100,2018-06-18 21:43:48,10,0,25.751,3457.6860066433,0.984252,0.3131716,0.54727363956,0,0,0,334.4, -0.6, 0.9,0,0,1024,1024,1024,1024,331.3,-89.9,100,4.162,4.18,4.29,4.276,4.282,4.274,7.491,80.6,11,AutoTakeoff,
37.0262471,-119.2351947,3458.0140906433,1.312336,0.223694,0.5837598612,4200,2018-06-18 21:43:48,10,0,25.751,3458.0140906433,1.312336,0.3131716,0.5837598612,0,0,0,334.5, -0.7, 1,0,0,1024,1024,1024,1024,331.4,-89.9,100,4.162,4.18,4.29,4.276,4.282,4.274,7.491,80.6,11,AutoTakeoff,
37.0262471,-119.2351948,3458.0140906433,1.312336,0,0.58448492684,4300,2018-06-18 21:43:48,10,0,25.751,3458.0140906433,1.312336,0.3131716,0.58448492684,0,0,0,334.4, -0.8, 1.2,0,0,1024,1024,1024,1024,331.5,-89.9,100,4.162,4.18,4.29,4.276,4.282,4.274,7.491,80.6,11,AutoTakeoff,
37.026247,-119.2351949,3458.3421746433,1.64042,0,0.62297246088,4400,2018-06-18 21:43:48,10,0,25.751,3458.3421746433,1.64042,0.3131716,0.62297246088,0,0,0,334.4, -0.7, 1.3,0,0,1024,1024,1024,1024,331.5,-90,100,4.162,4.18,4.29,4.276,4.282,4.274,7.491,80.6,11,AutoTakeoff,
37.0262469,-119.2351949,3458.3421746433,1.64042,0,0.65930776388,4500,2018-06-18 21:43:48,10,0,25.751,3458.3421746433,1.64042,0.3131716,0.65930776388,0,0,0,334.2, -0.7, 1.4,0,0,1024,1024,1024,1024,331.6,-90,100,4.162,4.18,4.29,4.276,4.282,4.274,7.491,80.6,11,AutoTakeoff,
37.0262469,-119.2351949,3458.6702586433,1.968504,0,0.65930776388,4600,2018-06-18 21:43:49,11,0,25.751,3458.6702586433,1.968504,0.3131716,0.65930776388,0,0,0,334, -0.7, 1.4,0,0,1024,1024,1024,1024,331.7,-90,100,4.162,4.18,4.29,4.276,4.282,4.274,7.491,80.6,11,AutoTakeoff,
37.0262468,-119.235195,3458.9983426433,2.296588,0,0.69870080976,4700,2018-06-18 21:43:49,11,0,25.751,3458.9983426433,2.296588,0.3131716,0.69870080976,0,0,-0.223694,333.9, -0.9, 1.3,0,0,1024,1024,1024,1024,331.7,-90,100,4.162,4.18,4.29,4.276,4.282,4.274,7.491,80.6,11,AutoTakeoff,
37.0262467,-119.2351951,3458.9983426433,2.296588,0,0.7389435932,4800,2018-06-18 21:43:49,10,0,25.751,3458.9983426433,2.296588,0.3131716,0.7389435932,0,0,-0.223694,333.8, -1, 1.7,0,0,1024,1024,1024,1024,331.8,-89.9,100,4.162,4.18,4.29,4.276,4.282,4.274,7.491,80.6,11,AutoTakeoff,
37.0262466,-119.2351952,3459.3264266433,2.624672,0,0.77990159976,4900,2018-06-18 21:43:49,10,0,25.751,3459.3264266433,2.624672,0.3131716,0.77990159976,0,0,-0.223694,333.6, -0.9, 2.1,0,0,1024,1024,1024,1024,331.9,-90,100,4.162,4.18,4.29,4.276,4.282,4.274,7.491,80.6,11,AutoTakeoff,
37.0262466,-119.2351953,3459.6545106433,2.952756,0,0.78586288604,5100,2018-06-18 21:43:49,11,0,25.751,3459.6545106433,2.952756,0.3131716,0.78586288604,0,0,-0.223694,333.4, -0.9, 2.3,0,0,1024,1024,1024,1024,331.9,-89.9,100,4.162,4.18,4.29,4.276,4.282,4.274,7.491,80.6,11,AutoTakeoff,
37.0262467,-119.2351952,3459.9825946433,3.28084,0,0.74409123116,5200,2018-06-18 21:43:49,9,0,25.751,3459.9825946433,3.28084,0.3131716,0.78586288604,0,0,0,332.8, -0.6, 1.4,0,0,1024,1024,1024,1024,331.9,-89.9,100,4.162,4.18,4.29,4.276,4.282,4.274,7.491,80.6,14,Waypoint,
37.0262467,-119.2351952,3460.3106786433,3.608924,0,0.74409123116,5300,2018-06-18 21:43:49,9,0,25.751,3460.3106786433,3.608924,0.3131716,0.78586288604,0,0,0,332.2, 0, 0.3,0,0,1024,1024,1024,1024,331.9,-89.9,100,4.162,4.18,4.29,4.276,4.282,4.274,7.491,80.6,14,Waypoint,
37.0262467,-119.2351952,3460.3106786433,3.608924,0,0.74409123116,5410,2018-06-18 21:43:49,10,0,25.751,3460.3106786433,3.608924,0.3131716,0.78586288604,0,0,0,331.6, 0.2, -0.1,0,0,1024,1024,1024,1024,331.9,-89.9,100,4.162,4.18,4.29,4.276,4.282,4.274,7.491,80.6,14,Waypoint,
37.0262467,-119.2351952,3460.3106786433,3.608924,0,0.74409123116,5500,2018-06-18 21:43:49,10,0,25.751,3460.3106786433,3.608924,0.3131716,0.78586288604,0,0,0,331.6, 0.2, -0.1,0,0,1024,1024,1024,1024,331.9,-89.9,100,4.162,4.18,4.29,4.276,4.282,4.274,7.491,80.6,14,Waypoint,
37.0262468,-119.2351951,3460.6387626433,3.937008,0,0.7029363742,5600,2018-06-18 21:43:50,10,0,25.751,3460.6387626433,3.937008,0.3131716,0.78586288604,0,0,0,331.1, 0.5, -0.3,0,0,1024,1024,1024,1024,331.9,-89.9,100,4.162,4.18,4.29,4.276,4.282,4.274,7.491,80.6,14,Waypoint,
37.0262468,-119.2351951,3460.6387626433,3.937008,0,0.7029363742,5700,2018-06-18 21:43:50,10,0,25.751,3460.6387626433,3.937008,0.3131716,0.78586288604,0,0,0,330.6, 0.6, -0.3,0,0,1024,1024,1024,1024,331.9,-89.9,100,4.162,4.18,4.29,4.276,4.282,4.274,7.491,80.6,14,Waypoint,
37.0262468,-119.2351952,3461.2949306433,4.593176,0,0.70834647936,5800,2018-06-18 21:43:50,9,0,25.751,3461.2949306433,4.593176,0.3131716,0.78586288604,0,0,-0.223694,329.7, 0.3, 0.3,0,0,1024,1024,1024,1024,331.9,-89.9,100,4.162,4.18,4.29,4.276,4.282,4.274,7.491,80.6,14,Waypoint,
37.0262469,-119.2351953,3461.9510986433,5.249344,0,0.67958663592,6000,2018-06-18 21:43:50,10,0,24.499,3461.9510986433,5.249344,0.3131716,0.78586288604,0,0,-0.223694,328.9, 0, 0.8,0,0,1024,1024,1024,1024,331.8,-90,100,4.064,4.1,4.083,4.085,4.081,4.083,16.537,80.6,14,Waypoint,
37.026247,-119.2351954,3462.6072666433,5.905512,0,0.65289700252,6100,2018-06-18 21:43:50,10,0,24.499,3462.6072666433,5.905512,0.3131716,0.78586288604,0,0,-0.223694,328.5, 0.1, 0.9,0,0,1024,1024,1024,1024,331.7,-89.9,100,4.064,4.1,4.083,4.085,4.081,4.083,16.537,80.6,14,Waypoint,
37.026247,-119.2351956,3463.2634346433,6.56168,0,0.67336944412,6200,2018-06-18 21:43:50,11,0,24.499,3463.2634346433,6.56168,0.3131716,0.78586288604,0,0,-0.447388,328.3, 0.3, 0.9,0,0,1024,1024,1024,1024,331.6,-89.9,100,4.064,4.1,4.083,4.085,4.081,4.083,16.537,80.6,14,Waypoint,
37.026247,-119.2351958,3463.9196026433,7.217848,0,0.6981135394,6300,2018-06-18 21:43:50,11,0,24.499,3463.9196026433,7.217848,0.3131716,0.78586288604,0,0,-0.447388,328.2, 0.4, 1.1,0,0,1024,1024,1024,1024,331.5,-89.9,100,4.064,4.1,4.083,4.085,4.081,4.083,16.537,80.6,14,Waypoint,
37.0262471,-119.2351959,3464.5757706433,7.874016,0,0.68040356508,6400,2018-06-18 21:43:50,12,0,24.499,3464.5757706433,7.874016,0.3131716,0.78586288604,0,0,-0.447388,328.2, 0.4, 1,0,0,1024,1024,1024,1024,331.4,-89.9,100,4.064,4.1,4.083,4.085,4.081,4.083,16.537,80.6,14,Waypoint,
37.0262472,-119.2351961,3465.2319386433,8.530184,0,0.68250002184,6500,2018-06-18 21:43:50,12,0,24.499,3465.2319386433,8.530184,0.3131716,0.78586288604,0,0,-0.447388,328.3, 0.6, 1,0,0,1024,1024,1024,1024,331.3,-89.9,100,4.064,4.1,4.083,4.085,4.081,4.083,16.537,80.6,14,Waypoint,
37.0262474,-119.2351963,3466.2161906433,9.514436,0,0.66495737036,6600,2018-06-18 21:43:51,12,0,24.499,3466.2161906433,9.514436,0.3131716,0.78586288604,0,0,-0.447388,328.4, 0.8, 1,0,0,1024,1024,1024,1024,331.2,-89.9,100,4.064,4.1,4.083,4.085,4.081,4.083,16.537,80.6,14,Waypoint,
37.0262475,-119.2351966,3467.2004426433,10.498688,0,0.70567259476,6700,2018-06-18 21:43:51,12,0,24.499,3467.2004426433,10.498688,0.3131716,0.78586288604,0,0,-0.671082,328.7, 1.1, 0.9,0,0,1024,1024,1024,1024,331.1,-89.9,100,4.064,4.1,4.083,4.085,4.081,4.083,16.537,80.6,14,Waypoint,
37.0262476,-119.2351968,3468.1846946433,11.48294,0,0.73159779244,6800,2018-06-18 21:43:51,12,0,24.499,3468.1846946433,11.48294,0.3131716,0.78586288604,0,0,-0.671082,329, 1.3, 0.6,0,0,1024,1024,1024,1024,331.1,-89.9,100,4.064,4.1,4.083,4.085,4.081,4.083,16.537,80.6,14,Waypoint,
37.0262477,-119.2351971,3469.1689466433,12.467192,0,0.78855645568,6900,2018-06-18 21:43:51,12,0,24.499,3469.1689466433,12.467192,0.3131716,0.78855645568,0,0,-0.671082,329.3, 1.7, 0.4,0,0,1024,1024,1024,1024,331,-89.9,100,4.064,4.1,4.083,4.085,4.081,4.083,16.537,80.6,14,Waypoint,
37.0262478,-119.2351973,3470.4812826433,13.779528,0,0.82545278232,7000,2018-06-18 21:43:51,13,0,24.287,3470.4812826433,13.779528,0.3131716,0.82545278232,0,0,-0.671082,329.4, 2.1, 0.7,0,0,1024,1024,1024,1024,330.9,-89.9,100,4.026,4.053,4.064,4.052,4.033,4.009,18.094,80.6,14,Waypoint,
37.026248,-119.2351974,3471.4655346433,14.76378,0,0.8268865094,7100,2018-06-18 21:43:51,13,0,24.287,3471.4655346433,14.76378,0.3131716,0.8268865094,0,0,-0.671082,329.5, 2.4, 1.1,0,0,1024,1024,1024,1024,330.8,-89.9,100,4.026,4.053,4.064,4.052,4.033,4.009,18.094,80.6,14,Waypoint,
37.0262481,-119.2351975,3472.4497866433,15.748032,0,0.8444554076,7200,2018-06-18 21:43:51,13,0,24.287,3472.4497866433,15.748032,0.3131716,0.8444554076,0,0,-0.671082,329.5, 2.5, 1.2,0,0,1024,1024,1024,1024,330.7,-89.9,100,4.026,4.053,4.064,4.052,4.033,4.009,18.094,80.6,14,Waypoint,
37.026248,-119.2351976,3473.7621226433,17.060368,0,0.8824803432,7300,2018-06-18 21:43:51,13,0,24.287,3473.7621226433,17.060368,0.3131716,0.8824803432,0,0,-0.671082,329.4, 2.5, 1.2,0,0,1024,1024,1024,1024,330.7,-89.9,100,4.026,4.053,4.064,4.052,4.033,4.009,18.094,80.6,14,Waypoint,
37.026248,-119.2351977,3474.7463746433,18.04462,0,0.9104002916,7400,2018-06-18 21:43:51,13,0,24.287,3474.7463746433,18.04462,0.3131716,0.9104002916,0,0,-0.671082,329.2, 2.3, 1.2,0,0,1024,1024,1024,1024,330.6,-90,100,4.026,4.053,4.064,4.052,4.033,4.009,18.094,80.6,14,Waypoint,
37.026248,-119.2351976,3476.0587106433,19.356956,0,0.8824803432,7500,2018-06-18 21:43:51,13,0,24.287,3476.0587106433,19.356956,0.3131716,0.9104002916,0,0,-0.671082,329, 1.9, 1.1,0,0,1024,1024,1024,1024,330.6,-90,100,4.026,4.053,4.064,4.052,4.033,4.009,18.094,80.6,14,Waypoint,
37.026248,-119.2351976,3477.0429626433,20.341208,0,0.8824803432,7700,2018-06-18 21:43:52,13,0,24.287,3477.0429626433,20.341208,0.3131716,0.9104002916,0,0,-0.671082,328.7, 1.6, 1,0,0,1024,1024,1024,1024,330.5,-90,100,4.026,4.053,4.064,4.052,4.033,4.009,18.094,80.6,14,Waypoint,
37.0262479,-119.2351977,3478.3552986433,21.653544,0,0.92130252292,7800,2018-06-18 21:43:52,13,0,24.287,3478.3552986433,21.653544,0.3131716,0.92130252292,0,0,-0.671082,328.5, 1.4, 0.9,0,0,1024,1024,1024,1024,330.5,-90,100,4.026,4.053,4.064,4.052,4.033,4.009,18.094,80.6,14,Waypoint,
37.0262478,-119.2351978,3479.3395506433,22.637796,0,0.96082352156,7900,2018-06-18 21:43:52,13,0,24.287,3479.3395506433,22.637796,0.3131716,0.96082352156,0,0,-0.671082,328.5, 1.2, 1,0,0,1024,1024,1024,1024,330.5,-89.9,100,4.026,4.053,4.064,4.052,4.033,4.009,18.094,80.6,14,Waypoint,
37.0262478,-119.2351977,3480.3238026433,23.622048,0,0.93350068604,8000,2018-06-18 21:43:52,13,0,23.972,3480.3238026433,23.622048,0.3131716,0.96082352156,0,0,-0.671082,328.6, 1, 1.2,0,0,1024,1024,1024,1024,330.4,-90,100,3.973,4.025,3.988,4.008,4.01,4.022,21.92,80.6,14,Waypoint,
37.0262475,-119.2351974,3482.6203906433,25.918636,0.223694,0.90011157736,8100,2018-06-18 21:43:52,13,0,23.972,3482.6203906433,25.918636,0.3131716,0.96082352156,0,0,-0.671082,328.9, 0.4, 1.1,0,0,1024,1024,1024,1024,330.4,-90,100,3.973,4.025,3.988,4.008,4.01,4.022,21.92,80.6,14,Waypoint,
37.0262474,-119.2351972,3483.6046426433,26.902888,0.3131716,0.86904858424,8200,2018-06-18 21:43:52,13,0,23.972,3483.6046426433,26.902888,0.3131716,0.96082352156,0,0,-0.671082,329, 0, 1,0,0,1024,1024,1024,1024,330.3,-90,100,3.973,4.025,3.988,4.008,4.01,4.022,21.92,80.6,14,Waypoint,
37.0262473,-119.235197,3484.9169786433,28.215224,0.3131716,0.84245737604,8300,2018-06-18 21:43:52,13,0,23.972,3484.9169786433,28.215224,0.3131716,0.96082352156,0,0,-0.671082,329, -0.2, 1,0,0,1024,1024,1024,1024,330.3,-90,100,3.973,4.025,3.988,4.008,4.01,4.022,21.92,80.6,14,Waypoint,
37.0262471,-119.2351969,3485.9012306433,29.199476,0.223694,0.8668471406,8400,2018-06-18 21:43:52,14,0,23.972,3485.9012306433,29.199476,0.3131716,0.96082352156,0,0,-0.671082,329, -0.5, 0.8,0,0,1024,1024,1024,1024,330.3,-90,100,3.973,4.025,3.988,4.008,4.01,4.022,21.92,80.6,14,Waypoint,
37.026247,-119.2351967,3486.8854826433,30.183728,0.223694,0.85092850492,8500,2018-06-18 21:43:52,14,0,23.972,3486.8854826433,30.183728,0.3131716,0.96082352156,0,0,-0.671082,328.9, -0.8, 0.6,0,0,1024,1024,1024,1024,330.2,-90,100,3.973,4.025,3.988,4.008,4.01,4.022,21.92,80.6,14,Waypoint,
37.0262469,-119.2351965,3487.8697346433,31.16798,0.223694,0.84035107676,8600,2018-06-18 21:43:53,14,0,23.972,3487.8697346433,31.16798,0.3131716,0.96082352156,0,0,-0.671082,328.9, -1, 0.5,0,0,1024,1024,1024,1024,330.2,-90,100,3.973,4.025,3.988,4.008,4.01,4.022,21.92,80.6,14,Waypoint,
37.0262468,-119.2351963,3489.1820706433,32.480316,0.223694,0.83531170652,8700,2018-06-18 21:43:53,14,0,23.972,3489.1820706433,32.480316,0.3131716,0.96082352156,0,0,-0.671082,328.8, -1, 0.4,0,0,1024,1024,1024,1024,330.2,-90,100,3.973,4.025,3.988,4.008,4.01,4.022,21.92,80.6,14,Waypoint,
37.0262467,-119.2351962,3490.1663226433,33.464568,0.223694,0.85050527656,8800,2018-06-18 21:43:53,13,0,23.972,3490.1663226433,33.464568,0.3131716,0.96082352156,0,0,-0.671082,328.7, -0.8, 0.3,0,0,1024,1024,1024,1024,330.1,-90,100,3.973,4.025,3.988,4.008,4.01,4.022,21.92,80.6,14,Waypoint,
37.0262466,-119.2351959,3491.1505746433,34.44882,0.223694,0.84214897708,8900,2018-06-18 21:43:53,13,0,23.972,3491.1505746433,34.44882,0.3131716,0.96082352156,0,0,-0.671082,328.5, -0.7, 0.3,0,0,1024,1024,1024,1024,330.1,-90,100,3.973,4.025,3.988,4.008,4.01,4.022,21.92,80.6,14,Waypoint,
37.0262466,-119.2351957,3492.1348266433,35.433072,0.223694,0.8196850656,9000,2018-06-18 21:43:53,13,0,24.255,3492.1348266433,35.433072,0.3131716,0.96082352156,0,0,-0.671082,328.3, -0.7, 0.1,0,0,1024,1024,1024,1024,330.1,-90,98,3.973,4.025,3.988,4.008,4.01,4.022,17.339,80.6,14,Waypoint,
37.0262466,-119.2351955,3493.1190786433,36.417324,0.223694,0.8008366398,9100,2018-06-18 21:43:53,13,0,24.255,3493.1190786433,36.417324,0.3131716,0.96082352156,0,0,-0.671082,328.3, -0.6, -0.2,0,0,1024,1024,1024,1024,330.1,-89.9,98,3.973,4.025,3.988,4.008,4.01,4.022,17.339,80.6,14,Waypoint,
37.0262466,-119.2351953,3494.1033306433,37.401576,0,0.78586288604,9200,2018-06-18 21:43:53,14,0,24.255,3494.1033306433,37.401576,0.3131716,0.96082352156,0,0,-0.671082,328.3, -0.4, -0.6,0,0,1024,1024,1024,1024,330,-90,98,3.973,4.025,3.988,4.008,4.01,4.022,17.339,80.6,14,Waypoint,
37.0262466,-119.2351951,3495.0875826433,38.385828,0,0.77499346312,9300,2018-06-18 21:43:53,14,0,24.255,3495.0875826433,38.385828,0.3131716,0.96082352156,0,0,-0.671082,328.5, -0.3, -0.8,0,0,1024,1024,1024,1024,330,-90,98,3.973,4.025,3.988,4.008,4.01,4.022,17.339,80.6,14,Waypoint,
37.0262466,-119.235195,3496.0718346433,39.37008,0,0.77115159948,9400,2018-06-18 21:43:53,13,0,24.255,3496.0718346433,39.37008,0.3131716,0.96082352156,0,0,-0.671082,328.7, -0.1, -0.8,0,0,1024,1024,1024,1024,330,-89.9,98,3.973,4.025,3.988,4.008,4.01,4.022,17.339,80.6,14,Waypoint,
37.0262466,-119.2351949,3497.0560866433,40.354332,0,0.76839569388,9500,2018-06-18 21:43:53,13,0,24.255,3497.0560866433,40.354332,0.3131716,0.96082352156,0,0,-0.671082,328.8, -0.2, -0.7,0,0,1024,1024,1024,1024,330,-90,98,3.973,4.025,3.988,4.008,4.01,4.022,17.339,80.6,14,Waypoint,
37.0262466,-119.2351947,3498.0403386433,41.338584,0,0.76618440772,9600,2018-06-18 21:43:54,14,0,24.255,3498.0403386433,41.338584,0.3131716,0.96082352156,0,0,-0.671082,328.9, -0.3, -0.5,0,0,1024,1024,1024,1024,330,-90,98,3.973,4.025,3.988,4.008,4.01,4.022,17.339,80.6,14,Waypoint,
37.0262465,-119.2351947,3499.0245906433,42.322836,0,0.80266734852,9700,2018-06-18 21:43:54,14,0,24.255,3499.0245906433,42.322836,0.3131716,0.96082352156,0,0,-0.671082,329, -0.2, -0.5,0,0,1024,1024,1024,1024,329.9,-90,98,3.973,4.025,3.988,4.008,4.01,4.022,17.339,80.6,14,Waypoint,
37.0262465,-119.2351946,3500.0088426433,43.307088,0,0.80319556376,9800,2018-06-18 21:43:54,13,0,24.255,3500.0088426433,43.307088,0.3131716,0.96082352156,0,0,-0.671082,329, -0.1, -0.4,0,0,1024,1024,1024,1024,329.9,-90,98,3.973,4.025,3.988,4.008,4.01,4.022,17.339,80.6,14,Waypoint,
37.0262465,-119.2351946,3500.9930946433,44.29134,0,0.80319556376,9900,2018-06-18 21:43:54,13,0,24.255,3500.9930946433,44.29134,0.3131716,0.96082352156,0,0,-0.671082,328.9, 0, -0.2,0,0,1024,1024,1024,1024,329.9,-89.9,98,3.973,4.025,3.988,4.008,4.01,4.022,17.339,80.6,14,Waypoint,
37.0262466,-119.2351946,3501.9773466433,45.275592,0,0.76673558884,10000,2018-06-18 21:43:54,13,0,24.255,3501.9773466433,45.275592,0.3131716,0.96082352156,0,0,-0.671082,328.8, 0.1, 0,0,0,1024,1024,1024,1024,329.9,-89.9,98,4.016,4.057,4.049,4.045,4.05,4.049,17.339,80.6,14,Waypoint,
37.0262466,-119.2351946,3502.9615986433,46.259844,0,0.76673558884,10100,2018-06-18 21:43:54,13,0,24.255,3502.9615986433,46.259844,0.3131716,0.96082352156,0,0,-0.671082,328.6, 0.4, 0.1,0,0,1024,1024,1024,1024,329.8,-89.9,98,4.016,4.057,4.049,4.045,4.05,4.049,17.339,80.6,14,Waypoint,
37.0262466,-119.2351946,3503.9458506433,47.244096,0,0.76673558884,10200,2018-06-18 21:43:54,13,0,24.255,3503.9458506433,47.244096,0.3131716,0.96082352156,0,0,-0.671082,328.4, 0.7, 0.1,0,0,1024,1024,1024,1024,329.8,-89.9,98,4.016,4.057,4.049,4.045,4.05,4.049,17.339,80.6,14,Waypoint,
37.0262467,-119.2351946,3504.9301026433,48.228348,0,0.73027889476,10300,2018-06-18 21:43:54,13,0,24.255,3504.9301026433,48.228348,0.3131716,0.96082352156,0,0,-0.671082,328.3, 1.1, 0.1,0,0,1024,1024,1024,1024,329.8,-89.9,98,4.016,4.057,4.049,4.045,4.05,4.049,17.339,80.6,14,Waypoint,
37.0262468,-119.2351946,3506.2424386433,49.540684,0,0.69382548152,10500,2018-06-18 21:43:54,13,0,24.255,3506.2424386433,49.540684,0.3131716,0.96082352156,0,0,-0.671082,328.3, 1.2, 0.1,0,0,1024,1024,1024,1024,329.8,-89.9,98,4.016,4.057,4.049,4.045,4.05,4.049,17.339,80.6,14,Waypoint,
37.0262468,-119.2351946,3507.2266906433,50.524936,0,0.69382548152,10600,2018-06-18 21:43:55,13,0,24.255,3507.2266906433,50.524936,0.3131716,0.96082352156,0,0,-0.671082,328.4, 1.5, 0,0,0,1024,1024,1024,1024,329.7,-89.9,98,4.016,4.057,4.049,4.045,4.05,4.049,17.339,80.6,14,Waypoint,
37.0262469,-119.2351947,3508.2109426433,51.509188,0,0.65672902364,10700,2018-06-18 21:43:55,13,0,24.255,3508.2109426433,51.509188,0.3131716,0.96082352156,0,0,-0.671082,328.4, 1.5, -0.3,0,0,1024,1024,1024,1024,329.7,-89.9,98,4.016,4.057,4.049,4.045,4.05,4.049,17.339,80.6,14,Waypoint,
37.0262469,-119.2351948,3509.1951946433,52.49344,0,0.65737534912,10800,2018-06-18 21:43:55,13,0,24.255,3509.1951946433,52.49344,0.3131716,0.96082352156,0,0,-0.671082,328.4, 1.3, -0.4,0,0,1024,1024,1024,1024,329.7,-89.9,98,4.016,4.057,4.049,4.045,4.05,4.049,17.339,80.6,14,Waypoint,
37.026247,-119.2351949,3511.1636986433,54.461944,0,0.62297246088,10900,2018-06-18 21:43:55,14,0,24.255,3511.1636986433,54.461944,0.3131716,0.96082352156,0,0,-0.671082,328.3, 1.3, -0.1,0,0,1024,1024,1024,1024,329.7,-89.9,98,4.016,4.057,4.049,4.045,4.05,4.049,17.339,80.6,14,Waypoint,
37.026247,-119.235195,3512.1479506433,55.446196,0,0.62636813028,11000,2018-06-18 21:43:55,14,0,24.287,3512.1479506433,55.446196,0.3131716,0.96082352156,0,0,-0.671082,328.4, 1.4, 0,0,0,1024,1024,1024,1024,329.7,-89.9,98,4.028,4.054,4.053,4.044,4.049,4.039,16.883,80.6,14,Waypoint,
37.026247,-119.2351951,3513.1322026433,56.430448,0,0.63109253988,11100,2018-06-18 21:43:55,14,0,24.287,3513.1322026433,56.430448,0.3131716,0.96082352156,0,0,-0.671082,328.4, 1.5, 0.3,0,0,1024,1024,1024,1024,329.7,-89.9,98,4.028,4.054,4.053,4.044,4.049,4.039,16.883,80.6,14,Waypoint,
37.0262471,-119.2351952,3514.1164546433,57.4147,0,0.60165356256,11200,2018-06-18 21:43:55,13,0,24.287,3514.1164546433,57.4147,0.3131716,0.96082352156,0,0,-0.671082,328.5, 1.5, 0.6,0,0,1024,1024,1024,1024,329.7,-89.9,98,4.028,4.054,4.053,4.044,4.049,4.039,16.883,80.6,14,Waypoint,
37.0262471,-119.2351953,3515.1007066433,58.398952,0,0.60936025572,11300,2018-06-18 21:43:55,13,0,24.287,3515.1007066433,58.398952,0.3131716,0.96082352156,0,0,-0.671082,328.5, 1.5, 0.8,0,0,1024,1024,1024,1024,329.6,-89.9,98,4.028,4.054,4.053,4.044,4.049,4.039,16.883,80.6,14,Waypoint,
37.0262471,-119.2351955,3517.0692106433,60.367456,0,0.62854988888,11500,2018-06-18 21:43:55,15,0,24.287,3517.0692106433,60.367456,0.3131716,0.96082352156,0,0,-0.671082,328.5, 1.2, 1,0,0,1024,1024,1024,1024,329.6,-89.9,98,4.028,4.054,4.053,4.044,4.049,4.039,16.883,80.6,14,Waypoint,
37.026247,-119.2351956,3518.0534626433,61.351708,0,0.67336944412,11600,2018-06-18 21:43:56,13,0,24.287,3518.0534626433,61.351708,0.3131716,0.96082352156,0,0,-0.671082,328.5, 0.9, 1.2,0,0,1024,1024,1024,1024,329.6,-89.9,98,4.028,4.054,4.053,4.044,4.049,4.039,16.883,80.6,14,Waypoint,
37.026247,-119.2351956,3519.0377146433,62.33596,0,0.67336944412,11700,2018-06-18 21:43:56,13,0,24.287,3519.0377146433,62.33596,0.3131716,0.96082352156,0,0,-0.671082,328.5, 0.8, 1.3,0,0,1024,1024,1024,1024,329.6,-90,98,4.028,4.054,4.053,4.044,4.049,4.039,16.883,80.6,14,Waypoint,
37.026247,-119.2351957,3520.0219666433,63.320212,0,0.6852362424,11800,2018-06-18 21:43:56,13,0,24.287,3520.0219666433,63.320212,0.3131716,0.96082352156,0,0,-0.671082,328.5, 0.7, 1.1,0,0,1024,1024,1024,1024,329.6,-89.9,98,4.028,4.054,4.053,4.044,4.049,4.039,16.883,80.6,14,Waypoint,
37.026247,-119.2351958,3521.0062186433,64.304464,0,0.6981135394,11900,2018-06-18 21:43:56,13,0,24.287,3521.0062186433,64.304464,0.3131716,0.96082352156,0,0,-0.671082,328.5, 0.6, 0.8,0,0,1024,1024,1024,1024,329.6,-90,98,4.028,4.054,4.053,4.044,4.049,4.039,16.883,80.6,14,Waypoint,
37.026247,-119.2351958,3521.9904706433,65.288716,0,0.6981135394,12000,2018-06-18 21:43:56,16,0,24.252,3521.9904706433,65.288716,0.3131716,0.96082352156,0,0,-0.671082,328.5, 0.8, 0.5,0,0,1024,1024,1024,1024,329.6,-89.9,98,4.016,4.061,4.048,4.038,4.043,4.04,17.032,80.6,14,Waypoint,
37.026247,-119.2351959,3522.9747226433,66.272968,0,0.71195540336,12100,2018-06-18 21:43:56,16,0,24.252,3522.9747226433,66.272968,0.3131716,0.96082352156,0,0,-0.671082,328.5, 1, 0.4,0,0,1024,1024,1024,1024,329.5,-89.9,98,4.016,4.061,4.048,4.038,4.043,4.04,17.032,80.6,14,Waypoint,
37.026247,-119.2351959,3523.9589746433,67.25722,0,0.71195540336,12200,2018-06-18 21:43:56,16,0,24.252,3523.9589746433,67.25722,0.3131716,0.96082352156,0,0,-0.671082,328.5, 1.1, 0.3,0,0,1024,1024,1024,1024,329.5,-89.9,98,4.016,4.061,4.048,4.038,4.043,4.04,17.032,80.6,14,Waypoint,
37.0262469,-119.235196,3524.6151426433,67.913388,0,0.75807745208,12300,2018-06-18 21:43:56,16,0,24.252,3524.6151426433,67.913388,0.3131716,0.96082352156,0,0,-0.671082,328.6, 1.2, 0.6,0,0,1024,1024,1024,1024,329.5,-89.9,98,4.016,4.061,4.048,4.038,4.043,4.04,17.032,80.6,14,Waypoint,
37.0262469,-119.2351961,3525.5993946433,68.89764,0,0.77303808248,12400,2018-06-18 21:43:56,16,0,24.252,3525.5993946433,68.89764,0.3131716,0.96082352156,0,0,-0.671082,328.7, 1.2, 0.9,0,0,1024,1024,1024,1024,329.5,-89.9,98,4.016,4.061,4.048,4.038,4.043,4.04,17.032,80.6,14,Waypoint,
37.0262468,-119.2351961,3526.5836466433,69.881892,0,0.8042651176,12500,2018-06-18 21:43:56,16,0,24.252,3526.5836466433,69.881892,0.3131716,0.96082352156,0,0,-0.671082,328.8, 1, 1,0,0,1024,1024,1024,1024,329.5,-90,98,4.016,4.061,4.048,4.038,4.043,4.04,17.032,80.6,14,Waypoint,
37.0262468,-119.2351962,3527.5678986433,70.866144,0,0.81941931756,12700,2018-06-18 21:43:57,16,0,24.252,3527.5678986433,70.866144,0.3131716,0.96082352156,0,0,-0.671082,328.8, 0.7, 1,0,0,1024,1024,1024,1024,329.5,-90,98,4.016,4.061,4.048,4.038,4.043,4.04,17.032,80.6,14,Waypoint,
37.0262468,-119.2351963,3529.5364026433,72.834648,0,0.83531170652,12800,2018-06-18 21:43:57,16,0,24.252,3529.5364026433,72.834648,0.3131716,0.96082352156,0,0,-0.671082,328.9, 0.4, 0.8,0,0,1024,1024,1024,1024,329.5,-90,98,4.016,4.061,4.048,4.038,4.043,4.04,17.032,80.6,14,Waypoint,
37.0262468,-119.2351964,3530.8487386433,74.146984,0,0.85190619524,12900,2018-06-18 21:43:57,16,0,24.252,3530.8487386433,74.146984,0.3131716,0.96082352156,0,0,-0.671082,328.9, 0.5, 0.9,0,0,1024,1024,1024,1024,329.5,-90,98,4.016,4.061,4.048,4.038,4.043,4.04,17.032,80.6,14,Waypoint,
37.0262467,-119.2351964,3531.8329906433,75.131236,0,0.88185042192,13000,2018-06-18 21:43:57,16,0,24.218,3531.8329906433,75.131236,0.3131716,0.96082352156,0,0,-0.671082,328.7, 0.5, 1,0,0,1024,1024,1024,1024,329.5,-90,98,4.013,4.045,4.043,4.038,4.04,4.027,17.064,80.6,14,Waypoint,
37.0262466,-119.2351965,3532.8172426433,76.115488,0,0.92840554152,13100,2018-06-18 21:43:57,16,0,24.218,3532.8172426433,76.115488,0.3131716,0.96082352156,0,0,-0.671082,328.6, 0.3, 1.1,0,0,1024,1024,1024,1024,329.5,-89.9,98,4.013,4.045,4.043,4.038,4.04,4.027,17.064,80.6,14,Waypoint,
37.0262466,-119.2351965,3533.8014946433,77.09974,0,0.92840554152,13200,2018-06-18 21:43:57,16,0,24.218,3533.8014946433,77.09974,0.3131716,0.96082352156,0,0,-0.671082,328.5, 0.2, 1.2,0,0,1024,1024,1024,1024,329.5,-90,98,4.013,4.045,4.043,4.038,4.04,4.027,17.064,80.6,14,Waypoint,
37.0262465,-119.2351964,3534.7857466433,78.083992,0,0.94312010892,13300,2018-06-18 21:43:57,16,0,24.218,3534.7857466433,78.083992,0.3131716,0.96082352156,0,0,-0.671082,328.5, 0.2, 1.2,0,0,1024,1024,1024,1024,329.5,-89.9,98,4.013,4.045,4.043,4.038,4.04,4.027,17.064,80.6,14,Waypoint,
37.0262465,-119.2351964,3535.4419146433,78.74016,0,0.94312010892,13400,2018-06-18 21:43:57,16,0,24.218,3535.4419146433,78.74016,0.3131716,0.96082352156,0,0,-0.671082,328.5, 0.1, 1.2,0,0,1024,1024,1024,1024,329.5,-89.9,98,4.013,4.045,4.043,4.038,4.04,4.027,17.064,80.6,14,Waypoint,
37.0262465,-119.2351963,3536.4261666433,79.724412,0,0.92815947852,13500,2018-06-18 21:43:57,16,0,24.218,3536.4261666433,79.724412,0.3131716,0.96082352156,0,0,-0.671082,328.5, 0, 0.9,0,0,1024,1024,1024,1024,329.5,-90,98,4.013,4.045,4.043,4.038,4.04,4.027,17.064,80.6,14,Waypoint,
37.0262466,-119.2351962,3538.3946706433,81.692916,0,0.88200790224,13700,2018-06-18 21:43:58,16,0,24.218,3538.3946706433,81.692916,0.3131716,0.96082352156,0,0,-0.671082,328.5, 0.1, 0.2,0,0,1024,1024,1024,1024,329.5,-89.9,98,4.013,4.045,4.043,4.038,4.04,4.027,17.064,80.6,14,Waypoint,
37.0262466,-119.2351961,3539.3789226433,82.677168,0,0.867946222,13800,2018-06-18 21:43:58,16,0,24.218,3539.3789226433,82.677168,0.3131716,0.96082352156,0,0,-0.671082,328.6, 0.1, 0,0,0,1024,1024,1024,1024,329.5,-90,98,4.013,4.045,4.043,4.038,4.04,4.027,17.064,80.6,14,Waypoint,
37.0262465,-119.2351961,3540.3631746433,83.66142,0,0.90031827028,13900,2018-06-18 21:43:58,16,0,24.218,3540.3631746433,83.66142,0.3131716,0.96082352156,0,0,-0.671082,328.6, 0, 0,0,0,1024,1024,1024,1024,329.5,-90,98,4.013,4.045,4.043,4.038,4.04,4.027,17.064,80.6,14,Waypoint,
37.0262465,-119.235196,3541.0193426433,84.317588,0,0.88750330924,14000,2018-06-18 21:43:58,16,0,24.184,3541.0193426433,84.317588,0.3131716,0.96082352156,0,0,-0.671082,328.7, -0.2, 0,0,0,1024,1024,1024,1024,329.5,-90,98,4,4.044,4.028,4.031,4.031,4.023,17.171,80.6,14,Waypoint,
37.0262466,-119.2351959,3542.0035946433,85.30184,0,0.84214897708,14100,2018-06-18 21:43:58,16,0,24.184,3542.0035946433,85.30184,0.3131716,0.96082352156,0,0,-0.671082,328.7, 0, 0,0,0,1024,1024,1024,1024,329.5,-89.9,98,4,4.044,4.028,4.031,4.031,4.023,17.171,80.6,14,Waypoint,
37.0262466,-119.2351959,3542.9878466433,86.286092,0,0.84214897708,14200,2018-06-18 21:43:58,16,0,24.184,3542.9878466433,86.286092,0.3131716,0.96082352156,0,0,-0.671082,328.7, 0.1, 0,0,0,1024,1024,1024,1024,329.5,-89.9,98,4,4.044,4.028,4.031,4.031,4.023,17.171,80.6,14,Waypoint,
37.0262466,-119.2351958,3543.9720986433,87.270344,0,0.83048231004,14300,2018-06-18 21:43:58,16,0,24.184,3543.9720986433,87.270344,0.3131716,0.96082352156,0,0,-0.671082,328.7, 0.3, -0.1,0,0,1024,1024,1024,1024,329.5,-89.9,98,4,4.044,4.028,4.031,4.031,4.023,17.171,80.6,14,Waypoint,
37.0262466,-119.2351958,3544.9563506433,88.254596,0,0.83048231004,14400,2018-06-18 21:43:58,16,0,24.184,3544.9563506433,88.254596,0.3131716,0.96082352156,0,0,-0.671082,328.8, 0.3, -0.2,0,0,1024,1024,1024,1024,329.5,-89.9,98,4,4.044,4.028,4.031,4.031,4.023,17.171,80.6,14,Waypoint,
37.0262466,-119.2351957,3546.2686866433,89.566932,0.223694,0.8196850656,14500,2018-06-18 21:43:58,16,0,24.184,3546.2686866433,89.566932,0.3131716,0.96082352156,0,0,-0.671082,328.8, 0.1, -0.2,0,0,1024,1024,1024,1024,329.5,-90,98,4,4.044,4.028,4.031,4.031,4.023,17.171,80.6,14,Waypoint,
37.0262466,-119.2351956,3547.2529386433,90.551184,0.223694,0.80979005216,14610,2018-06-18 21:43:59,16,0,24.184,3547.2529386433,90.551184,0.3131716,0.96082352156,0,0,-0.671082,328.7, -0.1, -0.2,0,0,1024,1024,1024,1024,329.5,-90,98,4,4.044,4.028,4.031,4.031,4.023,17.171,80.6,14,Waypoint,
37.0262466,-119.2351956,3547.2529386433,90.551184,0.223694,0.80979005216,14700,2018-06-18 21:43:59,16,0,24.184,3547.2529386433,90.551184,0.3131716,0.96082352156,0,0,-0.671082,328.7, -0.1, -0.2,0,0,1024,1024,1024,1024,329.5,-90,98,4,4.044,4.028,4.031,4.031,4.023,17.171,80.6,14,Waypoint,
37.0262465,-119.2351952,3549.2214426433,92.519688,0.223694,0.81577430432,14800,2018-06-18 21:43:59,16,0,24.184,3549.2214426433,92.519688,0.3131716,0.96082352156,0,0,-0.671082,328.6, -1, -1,0,0,1024,1024,1024,1024,329.5,-90,98,4,4.044,4.028,4.031,4.031,4.023,17.171,80.6,14,Waypoint,
37.0262465,-119.2351951,3550.2056946433,93.50394,0.223694,0.81107942228,14900,2018-06-18 21:43:59,16,0,24.184,3550.2056946433,93.50394,0.3131716,0.96082352156,0,0,-0.671082,328.5, -1.3, -1.7,0,0,1024,1024,1024,1024,329.5,-90,98,4,4.044,4.028,4.031,4.031,4.023,17.171,80.6,14,Waypoint,
37.0262465,-119.2351949,3551.1899466433,94.488192,0.223694,0.80478020948,15000,2018-06-18 21:43:59,16,0,24.138,3551.1899466433,94.488192,0.3131716,0.96082352156,0,0,-0.671082,328.5, -1.2, -1.9,0,0,1024,1024,1024,1024,329.5,-90,98,3.996,4.034,4.02,4.017,4.024,4.017,17.579,80.6,14,Waypoint,
37.0262465,-119.2351947,3552.1741986433,95.472444,0.223694,0.80266734852,15100,2018-06-18 21:43:59,16,0,24.138,3552.1741986433,95.472444,0.3131716,0.96082352156,0,0,-0.671082,328.5, -1.1, -2.1,0,0,1024,1024,1024,1024,329.5,-90,98,3.996,4.034,4.02,4.017,4.024,4.017,17.579,80.6,14,Waypoint,
37.0262465,-119.2351944,3554.1427026433,97.440948,0.223694,0.80741144316,15300,2018-06-18 21:43:59,16,0,24.138,3554.1427026433,97.440948,0.3131716,0.96082352156,0,0,-0.671082,328.5, -0.9, -1.9,0,0,1024,1024,1024,1024,329.5,-90,98,3.996,4.034,4.02,4.017,4.024,4.017,17.579,80.6,14,Waypoint,
37.0262464,-119.2351941,3555.7831226433,99.081368,0.223694,0.85715882008,15500,2018-06-18 21:43:59,16,0,24.138,3555.7831226433,99.081368,0.3131716,0.96082352156,0,0,-0.671082,328.5, -1.2, -2,0,0,1024,1024,1024,1024,329.5,-90,98,3.996,4.034,4.02,4.017,4.024,4.017,17.579,80.6,14,Waypoint,
37.0262464,-119.235194,3556.7673746433,100.06562,0.223694,0.86356958144,15600,2018-06-18 21:44:00,16,0,24.138,3556.7673746433,100.06562,0.3131716,0.96082352156,0,0,-0.671082,328.6, -1.6, -1.9,0,0,1024,1024,1024,1024,329.5,-90,98,3.996,4.034,4.02,4.017,4.024,4.017,17.579,80.6,14,Waypoint,
37.0262463,-119.2351939,3557.7516266433,101.049872,0,0.90611551456,15700,2018-06-18 21:44:00,16,0,24.138,3557.7516266433,101.049872,0.3131716,0.96082352156,0,0,-0.671082,328.7, -1.9, -1.7,0,0,1024,1024,1024,1024,329.5,-90,98,3.996,4.034,4.02,4.017,4.024,4.017,17.579,80.6,14,Waypoint,
37.0262463,-119.2351938,3558.7358786433,102.034124,0,0.91403874316,15800,2018-06-18 21:44:00,16,0,24.138,3558.7358786433,102.034124,0.3131716,0.96082352156,0,0,-0.671082,328.8, -2.1, -1.8,0,0,1024,1024,1024,1024,329.5,-90,98,3.996,4.034,4.02,4.017,4.024,4.017,17.579,80.6,14,Waypoint,
37.0262463,-119.2351937,3559.7201306433,103.018376,0,0.92281499016,15900,2018-06-18 21:44:00,16,0,24.138,3559.7201306433,103.018376,0.3131716,0.96082352156,0,0,-0.671082,328.8, -2.1, -1.7,0,0,1024,1024,1024,1024,329.5,-90,98,3.996,4.034,4.02,4.017,4.024,4.017,17.579,80.6,14,Waypoint,
37.0262463,-119.2351937,3560.7043826433,104.002628,0,0.92281499016,16000,2018-06-18 21:44:00,16,0,24.006,3560.7043826433,104.002628,0.3131716,0.96082352156,0,0,-0.671082,328.8, -1.8, -1.5,0,0,1024,1024,1024,1024,329.5,-89.9,98,3.975,4.022,3.993,3.987,4.005,3.999,18.995,80.6,14,Waypoint,
37.0262463,-119.2351937,3561.6886346433,104.98688,0,0.92281499016,16100,2018-06-18 21:44:00,16,0,24.006,3561.6886346433,104.98688,0.3131716,0.96082352156,0,0,-0.671082,328.8, -1.5, -1.4,0,0,1024,1024,1024,1024,329.5,-89.9,98,3.975,4.022,3.993,3.987,4.005,3.999,18.995,80.6,14,Waypoint,
37.0262463,-119.2351936,3562.6728866433,105.971132,0,0.93241800884,16200,2018-06-18 21:44:00,16,0,24.006,3562.6728866433,105.971132,0.3131716,0.96082352156,0,0,-0.671082,328.7, -0.9, -1.2,0,0,1024,1024,1024,1024,329.5,-89.9,98,3.975,4.022,3.993,3.987,4.005,3.999,18.995,80.6,14,Waypoint,
37.0262463,-119.2351937,3563.6571386433,106.955384,0,0.92281499016,16300,2018-06-18 21:44:00,16,0,24.006,3563.6571386433,106.955384,0.3131716,0.96082352156,0,0,-0.671082,328.7, -0.5, -1.2,0,0,1024,1024,1024,1024,329.5,-89.9,98,3.975,4.022,3.993,3.987,4.005,3.999,18.995,80.6,14,Waypoint,
37.0262464,-119.2351937,3564.3133066433,107.611552,0,0.8882710258,16400,2018-06-18 21:44:00,16,0,24.006,3564.3133066433,107.611552,0.3131716,0.96082352156,0,0,-0.671082,328.7, -0.2, -1,0,0,1024,1024,1024,1024,329.5,-89.9,98,3.975,4.022,3.993,3.987,4.005,3.999,18.995,80.6,14,Waypoint,
37.0262464,-119.2351938,3565.2975586433,108.595804,0,0.8791502906,16500,2018-06-18 21:44:00,16,0,24.006,3565.2975586433,108.595804,0.3131716,0.96082352156,0,0,-0.671082,328.7, -0.2, -0.9,0,0,1024,1024,1024,1024,329.5,-89.9,98,3.975,4.022,3.993,3.987,4.005,3.999,18.995,80.6,14,Waypoint,
37.0262464,-119.2351939,3566.2818106433,109.580056,0,0.87090882052,16600,2018-06-18 21:44:01,16,0,24.006,3566.2818106433,109.580056,0.3131716,0.96082352156,0,0,-0.671082,328.7, -0.3, -0.8,0,0,1024,1024,1024,1024,329.5,-89.9,98,3.975,4.022,3.993,3.987,4.005,3.999,18.995,80.6,14,Waypoint,
37.0262464,-119.2351939,3567.2660626433,110.564308,0,0.87090882052,16700,2018-06-18 21:44:01,16,0,24.006,3567.2660626433,110.564308,0.3131716,0.96082352156,0,0,-0.671082,328.8, -0.3, -0.7,0,0,1024,1024,1024,1024,329.5,-89.9,98,3.975,4.022,3.993,3.987,4.005,3.999,18.995,80.6,14,Waypoint,
37.0262465,-119.2351939,3568.2503146433,111.54856,0,0.8358103942,16800,2018-06-18 21:44:01,16,0,24.006,3568.2503146433,111.54856,0.3131716,0.96082352156,0,0,-0.671082,328.8, -0.4, -0.9,0,0,1024,1024,1024,1024,329.5,-89.9,98,3.975,4.022,3.993,3.987,4.005,3.999,18.995,80.6,14,Waypoint,
37.0262465,-119.2351938,3569.2345666433,112.532812,0,0.84439307164,16900,2018-06-18 21:44:01,16,0,24.006,3569.2345666433,112.532812,0.3131716,0.96082352156,0,0,-0.671082,328.6, -0.5, -1.4,0,0,1024,1024,1024,1024,329.5,-89.9,98,3.975,4.022,3.993,3.987,4.005,3.999,18.995,80.6,14,Waypoint,
37.0262465,-119.2351938,3570.2188186433,113.517064,0,0.84439307164,17000,2018-06-18 21:44:01,16,0,24.005,3570.2188186433,113.517064,0.3131716,0.96082352156,0,0,-0.671082,328.5, -0.7, -1.6,0,0,1024,1024,1024,1024,329.5,-89.9,98,3.952,4.002,3.993,3.989,3.995,3.986,19.644,80.6,14,Waypoint,
37.0262465,-119.2351938,3571.2030706433,114.501316,0,0.84439307164,17200,2018-06-18 21:44:01,16,0,24.005,3571.2030706433,114.501316,0.3131716,0.96082352156,0,0,-0.671082,328.5, -0.7, -1.5,0,0,1024,1024,1024,1024,329.5,-90,98,3.952,4.002,3.993,3.989,3.995,3.986,19.644,80.6,14,Waypoint,
37.0262465,-119.2351938,3572.1873226433,115.485568,0,0.84439307164,17300,2018-06-18 21:44:01,16,0,24.005,3572.1873226433,115.485568,0.3131716,0.96082352156,0,0,-0.671082,328.5, -0.7, -1.6,0,0,1024,1024,1024,1024,329.5,-89.9,98,3.952,4.002,3.993,3.989,3.995,3.986,19.644,80.6,14,Waypoint,
37.0262466,-119.235194,3575.1400786433,118.438324,0,0.79285107524,17400,2018-06-18 21:44:01,16,0,24.005,3575.1400786433,118.438324,0.3131716,0.96082352156,0,0,-0.671082,328.5, -0.3, -0.9,0,0,1024,1024,1024,1024,329.5,-89.9,98,3.952,4.002,3.993,3.989,3.995,3.986,19.644,80.6,14,Waypoint,
37.0262466,-119.235194,3576.1243306433,119.422576,0,0.79285107524,17600,2018-06-18 21:44:02,16,0,24.005,3576.1243306433,119.422576,0.3131716,0.96082352156,0,0,-0.671082,328.5, -0.2, -1,0,0,1024,1024,1024,1024,329.5,-89.9,98,3.952,4.002,3.993,3.989,3.995,3.986,19.644,80.6,14,Waypoint,
37.0262466,-119.2351941,3577.1085826433,120.406828,0,0.78586288604,17700,2018-06-18 21:44:02,16,0,24.005,3577.1085826433,120.406828,0.3131716,0.96082352156,0,0,-0.671082,328.5, -0.3, -1,0,0,1024,1024,1024,1024,329.5,-89.9,98,3.952,4.002,3.993,3.989,3.995,3.986,19.644,80.6,14,Waypoint,
37.0262466,-119.2351942,3578.0928346433,121.39108,0,0.77990159976,17800,2018-06-18 21:44:02,16,0,24.005,3578.0928346433,121.39108,0.3131716,0.96082352156,0,0,-0.671082,328.5, -0.4, -0.8,0,0,1024,1024,1024,1024,329.5,-89.9,98,3.952,4.002,3.993,3.989,3.995,3.986,19.644,80.6,14,Waypoint,
37.0262466,-119.2351942,3579.0770866433,122.375332,0,0.77990159976,17900,2018-06-18 21:44:02,16,0,24.005,3579.0770866433,122.375332,0.3131716,0.96082352156,0,0,-0.671082,328.5, -0.4, -0.8,0,0,1024,1024,1024,1024,329.5,-89.9,98,3.952,4.002,3.993,3.989,3.995,3.986,19.644,80.6,14,Waypoint,
37.0262466,-119.2351942,3580.0613386433,123.359584,0,0.77990159976,18000,2018-06-18 21:44:02,16,0,23.756,3580.0613386433,123.359584,0.3131716,0.96082352156,0,0,-0.671082,328.5, -0.5, -0.8,0,0,1024,1024,1024,1024,329.5,-89.9,98,3.94,3.977,3.967,3.963,3.967,3.974,21.408,82.4,14,Waypoint,
37.0262465,-119.2351943,3581.0455906433,124.343836,0,0.81107942228,18100,2018-06-18 21:44:02,16,0,23.756,3581.0455906433,124.343836,0.3131716,0.96082352156,0,0,-0.671082,328.5, -0.5, -0.8,0,0,1024,1024,1024,1024,329.5,-89.9,98,3.94,3.977,3.967,3.963,3.967,3.974,21.408,82.4,14,Waypoint,
37.0262465,-119.2351944,3581.7017586433,125.000004,0,0.80741144316,18200,2018-06-18 21:44:02,16,0,23.756,3581.7017586433,125.000004,0.3131716,0.96082352156,0,0,-0.671082,328.5, -0.6, -0.6,0,0,1024,1024,1024,1024,329.5,-90,98,3.94,3.977,3.967,3.963,3.967,3.974,21.408,82.4,14,Waypoint,
37.0262465,-119.2351944,3582.6860106433,125.984256,0,0.80741144316,18300,2018-06-18 21:44:02,16,0,23.756,3582.6860106433,125.984256,0.3131716,0.96082352156,0,0,-0.671082,328.5, -0.5, -0.6,0,0,1024,1024,1024,1024,329.5,-89.9,98,3.94,3.977,3.967,3.963,3.967,3.974,21.408,82.4,14,Waypoint,
37.0262465,-119.2351945,3584.6545146433,127.95276,0,0.80478020948,18500,2018-06-18 21:44:02,16,0,23.756,3584.6545146433,127.95276,0.3131716,0.96082352156,0,0,-0.671082,328.6, -0.5, -0.6,0,0,1024,1024,1024,1024,329.5,-89.9,98,3.94,3.977,3.967,3.963,3.967,3.974,21.408,82.4,14,Waypoint,
37.0262465,-119.2351945,3585.6387666433,128.937012,0,0.80478020948,18600,2018-06-18 21:44:03,16,0,23.756,3585.6387666433,128.937012,0.3131716,0.96082352156,0,0,-0.671082,328.6, -0.4, -0.7,0,0,1024,1024,1024,1024,329.5,-89.9,98,3.94,3.977,3.967,3.963,3.967,3.974,21.408,82.4,14,Waypoint,
37.0262465,-119.2351945,3586.6230186433,129.921264,0,0.80478020948,18700,2018-06-18 21:44:03,16,0,23.756,3586.6230186433,129.921264,0.3131716,0.96082352156,0,0,-0.671082,328.6, -0.4, -1.1,0,0,1024,1024,1024,1024,329.5,-89.9,98,3.94,3.977,3.967,3.963,3.967,3.974,21.408,82.4,14,Waypoint,
37.0262465,-119.2351945,3587.6072706433,130.905516,0,0.80478020948,18800,2018-06-18 21:44:03,16,0,23.756,3587.6072706433,130.905516,0.3131716,0.96082352156,0,0,-0.671082,328.6, -0.8, -1.4,0,0,1024,1024,1024,1024,329.5,-90,98,3.94,3.977,3.967,3.963,3.967,3.974,21.408,82.4,14,Waypoint,
37.0262465,-119.2351945,3588.5915226433,131.889768,0,0.80478020948,18900,2018-06-18 21:44:03,16,0,23.756,3588.5915226433,131.889768,0.3131716,0.96082352156,0,0,-0.671082,328.5, -0.9, -1.4,0,0,1024,1024,1024,1024,329.5,-90,98,3.94,3.977,3.967,3.963,3.967,3.974,21.408,82.4,14,Waypoint,
37.0262465,-119.2351945,3589.5757746433,132.87402,0,0.80478020948,19000,2018-06-18 21:44:03,16,0,23.684,3589.5757746433,132.87402,0.3131716,0.96082352156,0,0,-0.671082,328.5, -0.8, -1.3,0,0,1024,1024,1024,1024,329.5,-89.9,98,3.919,3.967,3.937,3.932,3.952,3.945,21.008,82.4,14,Waypoint,
37.0262465,-119.2351944,3590.5600266433,133.858272,0,0.80741144316,19100,2018-06-18 21:44:03,16,0,23.684,3590.5600266433,133.858272,0.3131716,0.96082352156,0,0,-0.671082,328.5, -0.6, -1.4,0,0,1024,1024,1024,1024,329.5,-89.9,98,3.919,3.967,3.937,3.932,3.952,3.945,21.008,82.4,14,Waypoint,
37.0262466,-119.2351944,3592.5285306433,135.826776,0,0.77115159948,19400,2018-06-18 21:44:03,16,0,23.684,3592.5285306433,135.826776,0.3131716,0.96082352156,0,0,-0.671082,328.4, -0.7, -1.4,0,0,1024,1024,1024,1024,329.5,-89.9,98,3.919,3.967,3.937,3.932,3.952,3.945,21.008,82.4,14,Waypoint,
37.0262466,-119.2351944,3593.5127826433,136.811028,0,0.77115159948,19500,2018-06-18 21:44:03,16,0,23.684,3593.5127826433,136.811028,0.3131716,0.96082352156,0,0,-0.671082,328.4, -0.6, -1.3,0,0,1024,1024,1024,1024,329.5,-90,98,3.919,3.967,3.937,3.932,3.952,3.945,21.008,82.4,14,Waypoint,
37.0262466,-119.2351943,3595.4812866433,138.779532,0,0.77499346312,19600,2018-06-18 21:44:04,16,0,23.684,3595.4812866433,138.779532,0.3131716,0.96082352156,0,0,-0.671082,328.3, -0.7, -1.6,0,0,1024,1024,1024,1024,329.5,-89.9,98,3.919,3.967,3.937,3.932,3.952,3.945,21.008,82.4,14,Waypoint,
37.0262466,-119.2351942,3596.4655386433,139.763784,0,0.77990159976,19700,2018-06-18 21:44:04,16,0,23.684,3596.4655386433,139.763784,0.3131716,0.96082352156,0,0,-0.671082,328.4, -0.7, -2.1,0,0,1024,1024,1024,1024,329.5,-89.9,98,3.919,3.967,3.937,3.932,3.952,3.945,21.008,82.4,14,Waypoint,
37.0262467,-119.2351942,3597.4497906433,140.748036,0,0.74409123116,19800,2018-06-18 21:44:04,16,0,23.684,3597.4497906433,140.748036,0.3131716,0.96082352156,0,0,-0.671082,328.6, -0.6, -2.3,0,0,1024,1024,1024,1024,329.5,-89.9,98,3.919,3.967,3.937,3.932,3.952,3.945,21.008,82.4,14,Waypoint,
37.0262467,-119.2351941,3599.7463786433,143.044624,0,0.75033466968,20000,2018-06-18 21:44:04,16,0,23.684,3599.7463786433,143.044624,0.3131716,0.96082352156,0,0,-0.671082,328.8, -0.5, -2.2,0,0,1024,1024,1024,1024,329.5,-89.9,97,3.919,3.967,3.937,3.932,3.952,3.945,21.008,82.4,14,Waypoint,
37.0262467,-119.2351941,3600.4025466433,143.700792,0,0.75033466968,20100,2018-06-18 21:44:04,16,0,23.684,3600.4025466433,143.700792,0.3131716,0.96082352156,0,0,-0.671082,328.8, -0.2, -2,0,0,1024,1024,1024,1024,329.5,-89.9,97,3.919,3.967,3.937,3.932,3.952,3.945,21.008,82.4,14,Waypoint,
37.0262468,-119.235194,3602.3710506433,145.669296,0,0.72257876328,20300,2018-06-18 21:44:04,16,0,23.684,3602.3710506433,145.669296,0.3131716,0.96082352156,0,0,-0.671082,328.5, -0.2, -2,0,0,1024,1024,1024,1024,329.5,-89.9,97,3.919,3.967,3.937,3.932,3.952,3.945,21.008,82.4,14,Waypoint,
37.0262468,-119.235194,3603.3553026433,146.653548,0,0.72257876328,20400,2018-06-18 21:44:04,16,0,23.684,3603.3553026433,146.653548,0.3131716,0.96082352156,0,0,-0.671082,328.4, -0.4, -2.1,0,0,1024,1024,1024,1024,329.5,-89.9,97,3.919,3.967,3.937,3.932,3.952,3.945,21.008,82.4,14,Waypoint,
37.0262468,-119.2351939,3604.3395546433,147.6378,0,0.7313320444,20500,2018-06-18 21:44:04,16,0,23.684,3604.3395546433,147.6378,0.3131716,0.96082352156,0,0,-0.671082,328.3, -0.5, -2.2,0,0,1024,1024,1024,1024,329.5,-90,97,3.919,3.967,3.937,3.932,3.952,3.945,21.008,82.4,14,Waypoint,
37.0262468,-119.2351939,3605.3238066433,148.622052,0,0.7313320444,20600,2018-06-18 21:44:05,16,0,23.684,3605.3238066433,148.622052,0.3131716,0.96082352156,0,0,-0.671082,328.3, -0.6, -2.5,0,0,1024,1024,1024,1024,329.5,-89.9,97,3.919,3.967,3.937,3.932,3.952,3.945,21.008,82.4,14,Waypoint,
37.0262469,-119.2351938,3606.3080586433,149.606304,0,0.7071194452,20700,2018-06-18 21:44:05,16,0,23.684,3606.3080586433,149.606304,0.3131716,0.96082352156,0,0,-0.671082,328.4, -0.6, -2.6,0,0,1024,1024,1024,1024,329.5,-89.9,97,3.919,3.967,3.937,3.932,3.952,3.945,21.008,82.4,14,Waypoint,
37.0262469,-119.2351938,3607.2923106433,150.590556,0,0.7071194452,20800,2018-06-18 21:44:05,16,0,23.684,3607.2923106433,150.590556,0.3131716,0.96082352156,0,0,-0.671082,328.5, -0.6, -2.6,0,0,1024,1024,1024,1024,329.5,-90,97,3.919,3.967,3.937,3.932,3.952,3.945,21.008,82.4,14,Waypoint,
37.0262469,-119.2351937,3608.2765626433,151.574808,0,0.71842850068,20900,2018-06-18 21:44:05,16,0,23.684,3608.2765626433,151.574808,0.3131716,0.96082352156,0,0,-0.671082,328.6, -0.7, -2.5,0,0,1024,1024,1024,1024,329.5,-89.9,97,3.919,3.967,3.937,3.932,3.952,3.945,21.008,82.4,14,Waypoint,
37.0262469,-119.2351937,3609.2608146433,152.55906,0,0.71842850068,21000,2018-06-18 21:44:05,16,0,23.736,3609.2608146433,152.55906,0.3131716,0.96082352156,0,0,-0.671082,328.6, -0.8, -2.4,0,0,1024,1024,1024,1024,329.5,-90,97,3.919,3.967,3.937,3.932,3.952,3.945,20.675,82.4,14,Waypoint,
37.0262468,-119.2351937,3610.2450666433,153.543312,0,0.75192587708,21100,2018-06-18 21:44:05,16,0,23.736,3610.2450666433,153.543312,0.3131716,0.96082352156,0,0,-0.671082,328.6, -0.8, -2.2,0,0,1024,1024,1024,1024,329.5,-90,97,3.919,3.967,3.937,3.932,3.952,3.945,20.675,82.4,14,Waypoint,
37.0262468,-119.2351938,3611.2293186433,154.527564,0,0.74112863264,21200,2018-06-18 21:44:05,16,0,23.736,3611.2293186433,154.527564,0.3131716,0.96082352156,0,0,-0.671082,328.7, -0.7, -1.9,0,0,1024,1024,1024,1024,329.5,-89.9,97,3.919,3.967,3.937,3.932,3.952,3.945,20.675,82.4,14,Waypoint,
37.0262468,-119.2351938,3612.2135706433,155.511816,0,0.74112863264,21300,2018-06-18 21:44:05,16,0,23.736,3612.2135706433,155.511816,0.3131716,0.96082352156,0,0,-0.671082,328.7, -0.6, -1.6,0,0,1024,1024,1024,1024,329.5,-89.9,97,3.919,3.967,3.937,3.932,3.952,3.945,20.675,82.4,14,Waypoint,
37.0262467,-119.2351939,3613.1978226433,156.496068,0,0.76600396152,21400,2018-06-18 21:44:05,16,0,23.736,3613.1978226433,156.496068,0.3131716,0.96082352156,0,0,-0.671082,328.6, -0.6, -1.5,0,0,1024,1024,1024,1024,329.5,-89.9,97,3.919,3.967,3.937,3.932,3.952,3.945,20.675,82.4,14,Waypoint,
37.0262467,-119.2351939,3614.1820746433,157.48032,0,0.76600396152,21500,2018-06-18 21:44:05,16,0,23.736,3614.1820746433,157.48032,0.3131716,0.96082352156,0,0,-0.671082,328.6, -0.7, -1.5,0,0,1024,1024,1024,1024,329.5,-89.9,97,3.919,3.967,3.937,3.932,3.952,3.945,20.675,82.4,14,Waypoint,
37.0262467,-119.235194,3615.1663266433,158.464572,0,0.75765094288,21700,2018-06-18 21:44:06,16,0,23.736,3615.1663266433,158.464572,0.3131716,0.96082352156,0,0,-0.671082,328.6, -0.7, -1.8,0,0,1024,1024,1024,1024,329.5,-90,97,3.919,3.967,3.937,3.932,3.952,3.945,20.675,82.4,14,Waypoint,
37.0262467,-119.235194,3616.1505786433,159.448824,0,0.75765094288,21800,2018-06-18 21:44:06,16,0,23.736,3616.1505786433,159.448824,0.3131716,0.96082352156,0,0,-0.671082,328.6, -0.6, -1.8,0,0,1024,1024,1024,1024,329.5,-89.9,97,3.919,3.967,3.937,3.932,3.952,3.945,20.675,82.4,14,Waypoint,
37.0262467,-119.235194,3617.1348306433,160.433076,0,0.75765094288,21900,2018-06-18 21:44:06,16,0,23.736,3617.1348306433,160.433076,0.3131716,0.96082352156,0,0,-0.671082,328.6, -0.5, -1.8,0,0,1024,1024,1024,1024,329.5,-89.9,97,3.919,3.967,3.937,3.932,3.952,3.945,20.675,82.4,14,Waypoint,
37.0262466,-119.2351941,3619.1033346433,162.40158,0,0.78586288604,22000,2018-06-18 21:44:06,16,0,23.736,3619.1033346433,162.40158,0.3131716,0.96082352156,0,0,-0.671082,328.7, -0.4, -1.7,0,0,1024,1024,1024,1024,329.5,-89.9,97,3.933,3.978,3.959,3.954,3.958,3.952,20.675,82.4,14,Waypoint,
37.0262466,-119.2351941,3620.0875866433,163.385832,0,0.78586288604,22100,2018-06-18 21:44:06,16,0,23.736,3620.0875866433,163.385832,0.3131716,0.96082352156,0,0,-0.671082,328.7, -0.6, -1.9,0,0,1024,1024,1024,1024,329.5,-89.9,97,3.933,3.978,3.959,3.954,3.958,3.952,20.675,82.4,14,Waypoint,
37.0262466,-119.2351941,3621.0718386433,164.370084,0,0.78586288604,22200,2018-06-18 21:44:06,16,0,23.736,3621.0718386433,164.370084,0.3131716,0.96082352156,0,0,-0.671082,328.7, -0.6, -2,0,0,1024,1024,1024,1024,329.5,-90,97,3.933,3.978,3.959,3.954,3.958,3.952,20.675,82.4,14,Waypoint,
37.0262466,-119.2351941,3622.0560906433,165.354336,0,0.78586288604,22300,2018-06-18 21:44:06,16,0,23.736,3622.0560906433,165.354336,0.3131716,0.96082352156,0,0,-0.671082,328.6, -0.5, -2.1,0,0,1024,1024,1024,1024,329.5,-89.9,97,3.933,3.978,3.959,3.954,3.958,3.952,20.675,82.4,14,Waypoint,
37.0262466,-119.2351941,3623.0403426433,166.338588,0,0.78586288604,22400,2018-06-18 21:44:06,16,0,23.736,3623.0403426433,166.338588,0.3131716,0.96082352156,0,0,-0.671082,328.6, -0.4, -2,0,0,1024,1024,1024,1024,329.5,-89.9,97,3.933,3.978,3.959,3.954,3.958,3.952,20.675,82.4,14,Waypoint,
37.0262466,-119.2351942,3624.0245946433,167.32284,0,0.77990159976,22500,2018-06-18 21:44:06,16,0,23.736,3624.0245946433,167.32284,0.3131716,0.96082352156,0,0,-0.671082,328.5, -0.5, -2,0,0,1024,1024,1024,1024,329.5,-89.9,97,3.933,3.978,3.959,3.954,3.958,3.952,20.675,82.4,14,Waypoint,
37.0262466,-119.2351942,3625.0088466433,168.307092,0,0.77990159976,22600,2018-06-18 21:44:07,16,0,23.736,3625.0088466433,168.307092,0.3131716,0.96082352156,0,0,-0.671082,328.5, -0.6, -1.9,0,0,1024,1024,1024,1024,329.5,-89.9,97,3.933,3.978,3.959,3.954,3.958,3.952,20.675,82.4,14,Waypoint,
37.0262466,-119.2351942,3625.9930986433,169.291344,0,0.77990159976,22700,2018-06-18 21:44:07,16,0,23.736,3625.9930986433,169.291344,0.3131716,0.96082352156,0,0,-0.671082,328.4, -0.5, -1.7,0,0,1024,1024,1024,1024,329.5,-89.9,97,3.933,3.978,3.959,3.954,3.958,3.952,20.675,82.4,14,Waypoint,
37.0262466,-119.2351943,3626.9773506433,170.275596,0,0.77499346312,22800,2018-06-18 21:44:07,16,0,23.736,3626.9773506433,170.275596,0.3131716,0.96082352156,0,0,-0.671082,328.3, -0.4, -1.6,0,0,1024,1024,1024,1024,329.5,-89.9,97,3.933,3.978,3.959,3.954,3.958,3.952,20.675,82.4,14,Waypoint,
37.0262466,-119.2351943,3627.9616026433,171.259848,0,0.77499346312,22900,2018-06-18 21:44:07,16,0,23.736,3627.9616026433,171.259848,0.3131716,0.96082352156,0,0,-0.671082,328.3, -0.3, -1.7,0,0,1024,1024,1024,1024,329.5,-89.9,97,3.933,3.978,3.959,3.954,3.958,3.952,20.675,82.4,14,Waypoint,
37.0262467,-119.2351943,3629.9301066433,173.228352,0,0.7389435932,23100,2018-06-18 21:44:07,16,0,23.736,3629.9301066433,173.228352,0.3131716,0.96082352156,0,0,-0.671082,328.2, 0, -2,0,0,1024,1024,1024,1024,329.5,-89.9,97,3.933,3.978,3.959,3.954,3.958,3.952,20.675,82.4,14,Waypoint,
37.0262467,-119.2351943,3630.9143586433,174.212604,0,0.7389435932,23200,2018-06-18 21:44:07,16,0,23.736,3630.9143586433,174.212604,0.3131716,0.96082352156,0,0,-0.671082,328.2, 0.1, -2.1,0,0,1024,1024,1024,1024,329.5,-89.9,97,3.933,3.978,3.959,3.954,3.958,3.952,20.675,82.4,14,Waypoint,
37.0262467,-119.2351943,3631.8986106433,175.196856,0,0.7389435932,23300,2018-06-18 21:44:07,16,0,23.736,3631.8986106433,175.196856,0.3131716,0.96082352156,0,0,-0.671082,328.1, 0.4, -2,0,0,1024,1024,1024,1024,329.5,-89.9,97,3.933,3.978,3.959,3.954,3.958,3.952,20.675,82.4,14,Waypoint,
37.0262468,-119.2351943,3632.8828626433,176.181108,0,0.7029363742,23400,2018-06-18 21:44:07,16,0,23.736,3632.8828626433,176.181108,0.3131716,0.96082352156,0,0,-0.671082,328.2, 0.5, -2.3,0,0,1024,1024,1024,1024,329.5,-89.9,97,3.933,3.978,3.959,3.954,3.958,3.952,20.675,82.4,14,Waypoint,
37.0262468,-119.2351942,3633.8671146433,177.16536,0,0.70834647936,23500,2018-06-18 21:44:07,16,0,23.736,3633.8671146433,177.16536,0.3131716,0.96082352156,0,0,-0.671082,328.3, 0.4, -2.5,0,0,1024,1024,1024,1024,329.5,-89.9,97,3.933,3.978,3.959,3.954,3.958,3.952,20.675,82.4,14,Waypoint,
37.0262469,-119.2351942,3634.8513666433,178.149612,0,0.67268374856,23600,2018-06-18 21:44:08,16,0,23.736,3634.8513666433,178.149612,0.3131716,0.96082352156,0,0,-0.671082,328.4, 0.3, -2.7,0,0,1024,1024,1024,1024,329.5,-89.9,97,3.933,3.978,3.959,3.954,3.958,3.952,20.675,82.4,14,Waypoint,
37.0262469,-119.2351942,3635.8356186433,179.133864,0,0.67268374856,23800,2018-06-18 21:44:08,16,0,23.736,3635.8356186433,179.133864,0.3131716,0.96082352156,0,0,-0.671082,328.5, 0.1, -2.7,0,0,1024,1024,1024,1024,329.5,-90,97,3.933,3.978,3.959,3.954,3.958,3.952,20.675,82.4,14,Waypoint,
37.0262469,-119.2351942,3636.8198706433,180.118116,0,0.67268374856,23900,2018-06-18 21:44:08,16,0,23.736,3636.8198706433,180.118116,0.3131716,0.96082352156,0,0,-0.671082,328.6, 0, -2.6,0,0,1024,1024,1024,1024,329.5,-89.9,97,3.933,3.978,3.959,3.954,3.958,3.952,20.675,82.4,14,Waypoint,
37.026247,-119.2351942,3637.8041226433,181.102368,0,0.63711288128,24000,2018-06-18 21:44:08,16,0,23.72,3637.8041226433,181.102368,0.3131716,0.96082352156,0,0,-0.671082,328.7, 0.1, -2.2,0,0,1024,1024,1024,1024,329.5,-89.9,97,3.923,3.973,3.963,3.948,3.956,3.965,19.688,82.4,14,Waypoint,
37.026247,-119.2351943,3640.7568786433,184.055124,0,0.63109253988,24200,2018-06-18 21:44:08,16,0,23.72,3640.7568786433,184.055124,0.3131716,0.96082352156,0,0,-0.671082,328.5, 0.5, -1.7,0,0,1024,1024,1024,1024,329.5,-89.9,97,3.923,3.973,3.963,3.948,3.956,3.965,19.688,82.4,14,Waypoint,
37.026247,-119.2351943,3641.7411306433,185.039376,0,0.63109253988,24300,2018-06-18 21:44:08,16,0,23.72,3641.7411306433,185.039376,0.3131716,0.96082352156,0,0,-0.671082,328.5, 0.5, -1.6,0,0,1024,1024,1024,1024,329.5,-89.9,97,3.923,3.973,3.963,3.948,3.956,3.965,19.688,82.4,14,Waypoint,
37.026247,-119.2351943,3642.7253826433,186.023628,0,0.63109253988,24400,2018-06-18 21:44:08,16,0,23.72,3642.7253826433,186.023628,0.3131716,0.96082352156,0,0,-0.671082,328.5, 0.5, -1.7,0,0,1024,1024,1024,1024,329.5,-89.9,97,3.923,3.973,3.963,3.948,3.956,3.965,19.688,82.4,14,Waypoint,
37.026247,-119.2351943,3643.7096346433,187.00788,0,0.63109253988,24500,2018-06-18 21:44:08,16,0,23.72,3643.7096346433,187.00788,0.3131716,0.96082352156,0,0,-0.671082,328.6, 0.5, -2.1,0,0,1024,1024,1024,1024,329.5,-89.9,97,3.923,3.973,3.963,3.948,3.956,3.965,19.688,82.4,14,Waypoint,
37.026247,-119.2351943,3645.0219706433,188.320216,0,0.63109253988,24600,2018-06-18 21:44:09,16,0,23.72,3645.0219706433,188.320216,0.3131716,0.96082352156,0,0,-0.671082,328.5, 0.3, -2.2,0,0,1024,1024,1024,1024,329.5,-89.9,97,3.923,3.973,3.963,3.948,3.956,3.965,19.688,82.4,14,Waypoint,
37.0262471,-119.2351942,3646.0062226433,189.304468,0,0.60165356256,24700,2018-06-18 21:44:09,16,0,23.72,3646.0062226433,189.304468,0.3131716,0.96082352156,0,0,-0.671082,328.5, 0, -2.5,0,0,1024,1024,1024,1024,329.5,-90,97,3.923,3.973,3.963,3.948,3.956,3.965,19.688,82.4,14,Waypoint,
37.0262471,-119.2351941,3646.9904746433,190.28872,0,0.60936025572,24800,2018-06-18 21:44:09,16,0,23.72,3646.9904746433,190.28872,0.3131716,0.96082352156,0,0,-0.671082,328.4, 0, -2.9,0,0,1024,1024,1024,1024,329.5,-90,97,3.923,3.973,3.963,3.948,3.956,3.965,19.688,82.4,14,Waypoint,
37.0262472,-119.2351941,3647.6466426433,190.944888,0,0.57450133072,24900,2018-06-18 21:44:09,16,0,23.72,3647.6466426433,190.944888,0.3131716,0.96082352156,0,0,-0.671082,328.3, 0, -3.2,0,0,1024,1024,1024,1024,329.5,-89.9,97,3.923,3.973,3.963,3.948,3.956,3.965,19.688,82.4,14,Waypoint,
37.0262472,-119.235194,3648.6308946433,191.92914,0,0.5840223284,25000,2018-06-18 21:44:09,16,0,23.767,3648.6308946433,191.92914,0.3131716,0.96082352156,0,0,-0.671082,328.2, 0.2, -3.4,0,0,1024,1024,1024,1024,329.5,-89.9,97,3.937,3.975,3.972,3.961,3.955,3.959,19.146,82.4,14,Waypoint,
37.0262473,-119.2351939,3649.6151466433,192.913392,0,0.561433745,25100,2018-06-18 21:44:09,16,0,23.767,3649.6151466433,192.913392,0.3131716,0.96082352156,0,0,-0.671082,328.2, 0.5, -3.7,0,0,1024,1024,1024,1024,329.5,-89.9,97,3.937,3.975,3.972,3.961,3.955,3.959,19.146,82.4,14,Waypoint,
37.0262473,-119.2351938,3650.5993986433,193.897644,0,0.57413387664,25200,2018-06-18 21:44:09,16,0,23.767,3650.5993986433,193.897644,0.3131716,0.96082352156,0,0,-0.671082,328.2, 0.7, -3.8,0,0,1024,1024,1024,1024,329.5,-89.9,97,3.937,3.975,3.972,3.961,3.955,3.959,19.146,82.4,14,Waypoint,
37.0262474,-119.2351938,3651.9117346433,195.20998,0,0.5419291512,25300,2018-06-18 21:44:09,16,0,23.767,3651.9117346433,195.20998,0.3131716,0.96082352156,0,0,-0.671082,328.2, 0.7, -3.8,0,0,1024,1024,1024,1024,329.5,-89.9,97,3.937,3.975,3.972,3.961,3.955,3.959,19.146,82.4,14,Waypoint,
37.0262474,-119.2351937,3652.5679026433,195.866148,0,0.55660434852,25400,2018-06-18 21:44:09,16,0,23.767,3652.5679026433,195.866148,0.3131716,0.96082352156,0,0,-0.671082,328.3, 0.8, -3.7,0,0,1024,1024,1024,1024,329.5,-89.9,97,3.937,3.975,3.972,3.961,3.955,3.959,19.146,82.4,14,Waypoint,
37.0262475,-119.2351937,3653.5521546433,196.8504,0,0.52586287772,25500,2018-06-18 21:44:09,16,0,23.767,3653.5521546433,196.8504,0.3131716,0.96082352156,0,0,-0.671082,328.4, 0.9, -3.6,0,0,1024,1024,1024,1024,329.5,-89.9,97,3.937,3.975,3.972,3.961,3.955,3.959,19.146,82.4,14,Waypoint,
37.0262475,-119.2351937,3654.5364066433,197.834652,0,0.52586287772,25600,2018-06-18 21:44:10,17,0,23.767,3654.5364066433,197.834652,0.3131716,0.96082352156,0,0,-0.671082,328.5, 1, -3.6,0,0,1024,1024,1024,1024,329.5,-89.9,97,3.937,3.975,3.972,3.961,3.955,3.959,19.146,82.4,14,Waypoint,
37.0262475,-119.2351937,3655.5206586433,198.818904,0,0.52586287772,25800,2018-06-18 21:44:10,17,0,23.767,3655.5206586433,198.818904,0.3131716,0.96082352156,0,0,-0.671082,328.5, 0.9, -3.6,0,0,1024,1024,1024,1024,329.5,-89.9,97,3.937,3.975,3.972,3.961,3.955,3.959,19.146,82.4,14,Waypoint,
37.0262475,-119.2351937,3656.5049106433,199.803156,0,0.52586287772,25900,2018-06-18 21:44:10,17,0,23.767,3656.5049106433,199.803156,0.3131716,0.96082352156,0,0,-0.671082,328.6, 0.8, -3.4,0,0,1024,1024,1024,1024,329.5,-89.9,97,3.937,3.975,3.972,3.961,3.955,3.959,19.146,82.4,14,Waypoint,
37.0262475,-119.2351937,3657.4891626433,200.787408,0,0.52586287772,26000,2018-06-18 21:44:10,17,0,23.654,3657.4891626433,200.787408,0.3131716,0.96082352156,0,0,-0.671082,328.7, 0.7, -3,0,0,1024,1024,1024,1024,329.5,-90,97,3.914,3.961,3.952,3.939,3.945,3.946,19.785,82.4,14,Waypoint,
