Latitude, Longitude, Altitude (m), Time, Sats, Speed (m/s), Range (m), Battery (%), Roll (deg), Pitch (deg), Yaw (deg), Images, HD Signal (%), RC Signal (%), Battery Temp (C), Battery Voltage (mV), Battery Current (mA), Battery Energy (mAh), Battery Capacity (mAh), Battery Discharges, flyState, timestamp (Unix), LastUpdate (ms), radioChannel, Rc_elevator, Rc_aileron, Rc_throttle, Rc_rudder, Rc_gyro, Dronetype, Battery_Cell1 (mV), Battery_Cell2 (mV), Battery_Cell3 (mV), Battery_Cell4 (mV), Battery_Cell5 (mV), Battery_Cell6 (mV), Video, isFlying, elapsedTime (ms), gimbalPitch (deg), gimbalRoll (deg), gimbalYaw (deg), VelocityX (m/s), VelocityY (m/s), VelocityZ (m/s), GroundSmear (cm), App Version, Aircraft Name, Aircraft Firmware, Aircraft Serial Number, Battery Serial Number, Battery Lifetime (%), App_Tip, App_Warning, CurrentFlightStartingIndex, CurrentFlightLastVisitedWaypoint, PreviousFlightEndingWaypointIndex
37.0262630, -119.2351665, -0.100, 14:08:30.614, 11, 0.10, 0.06, 100, 2.900, -1.300, -27.200, 428, 100, 100, 27, 25444, -3769, 5358, 5358, 18, 11, 1529356110.614, 52, 0, 1024, 1024, 1024, 1024, 0, 6, 4159, 4246, 4280, 4219, 4273, 4197, 0, 1, 3041, -90.000, 0.000, -28.900, 0.000, 0.100, 0.000, 0.0, MapPilot_2.8.1_04242018, Dendroctonus I, 1.3.1.00, 041DDC1887, 1058163200627, 96, DJI_0426.jpg, Starting Mission from Lat/Long: 37.02626/-119.23517 Camera: Zenmuse X3 - Overlap: 90/90 - Active Connection: No, 17, 17, 17
37.0262631, -119.2351663, -0.100, 14:08:30.673, 11, 0.22, 0.05, 100, 1.300, -0.900, -27.000, 428, 100, 100, 27, 25444, -3769, 5358, 5358, 18, 11, 1529356110.674, 16, 0, 1024, 1024, 1024, 1024, 0, 6, 4159, 4246, 4280, 4219, 4273, 4197, 0, 1, 3101, -89.900, 0.000, -28.800, 0.100, 0.200, -0.200, 0.0, , , , , , 96, , , 17, 17, 17
37.0262632, -119.2351661, 0.000, 14:08:30.773, 11, 0.22, 0.04, 100, 0.300, -0.400, -26.700, 428, 100, 100, 27, 25444, -3769, 5358, 5358, 18, 11, 1529356110.774, 17, 0, 1024, 1024, 1024, 1024, 0, 6, 4159, 4246, 4280, 4219, 4273, 4197, 0, 1, 3201, -89.900, 0.000, -28.800, 0.100, 0.200, -0.300, 0.0, , , , , , 96, , , 17, 17, 17
37.0262633, -119.2351658, 0.000, 14:08:30.873, 11, 0.22, 0.04, 100, -0.600, 0.100, -26.500, 428, 100, 100, 27, 25444, -3769, 5358, 5358, 18, 11, 1529356110.874, 16, 0, 1024, 1024, 1024, 1024, 0, 6, 4159, 4246, 4280, 4219, 4273, 4197, 0, 1, 3301, -89.900, 0.000, -28.800, 0.100, 0.200, -0.400, 0.0, , , , , , 96, , , 17, 17, 17
37.0262634, -119.2351657, 0.000, 14:08:30.973, 11, 0.14, 0.05, 100, -1.300, 0.600, -26.500, 428, 100, 100, 27, 25444, -3769, 5358, 5358, 18, 11, 1529356110.974, 19, 0, 1024, 1024, 1024, 1024, 0, 6, 4159, 4246, 4280, 4219, 4273, 4197, 0, 1, 3401, -89.900, 0.000, -28.800, 0.100, 0.100, -0.400, 0.0, , , , , , 96, , , 17, 17, 17
37.0262635, -119.2351656, 0.000, 14:08:31.073, 11, 0.14, 0.06, 100, -1.900, 0.900, -26.700, 428, 100, 100, 27, 25444, -3769, 5358, 5358, 18, 11, 1529356111.073, 6, 0, 1024, 1024, 1024, 1024, 0, 6, 4242, 4244, 4230, 4254, 4259, 4183, 0, 1, 3500, -89.900, 0.000, -28.800, 0.100, 0.100, -0.300, 0.0, , , , , , 96, , , 17, 17, 17
37.0262635, -119.2351656, 0.000, 14:08:31.173, 11, 0.14, 0.06, 100, -1.900, 0.900, -26.700, 428, 100, 100, 27, 25444, -3769, 5358, 5358, 18, 11, 1529356111.174, 107, 0, 1024, 1024, 1024, 1024, 0, 6, 4242, 4244, 4230, 4254, 4259, 4183, 0, 1, 3601, -89.900, 0.000, -28.800, 0.100, 0.100, -0.300, 0.0, , , , , , 96, , , 17, 17, 17
37.0262638, -119.2351656, 0.100, 14:08:31.274, 11, 0.10, 0.07, 100, -1.900, 1.000, -27.100, 428, 100, 100, 27, 25444, -3769, 5358, 5358, 18, 11, 1529356111.274, 2, 0, 1024, 1024, 1024, 1024, 0, 6, 4242, 4244, 4230, 4254, 4259, 4183, 0, 1, 3701, -89.900, 0.000, -28.700, 0.100, 0.000, -0.300, 0.0, , , , , , 96, , , 17, 17, 17
37.0262639, -119.2351655, 0.100, 14:08:31.374, 12, 0.10, 0.09, 100, -1.800, 1.500, -27.100, 428, 100, 100, 27, 25444, -3769, 5358, 5358, 18, 11, 1529356111.374, 2, 0, 1024, 1024, 1024, 1024, 0, 6, 4242, 4244, 4230, 4254, 4259, 4183, 0, 1, 3801, -89.900, 0.000, -28.700, 0.100, 0.000, -0.400, 0.0, , , , , , 96, , , 17, 17, 17
37.0262639, -119.2351655, 0.100, 14:08:31.473, 12, 0.10, 0.09, 100, -1.800, 1.500, -27.100, 428, 100, 100, 27, 25444, -3769, 5358, 5358, 18, 11, 1529356111.474, 102, 0, 1024, 1024, 1024, 1024, 0, 6, 4242, 4244, 4230, 4254, 4259, 4183, 0, 1, 3900, -89.900, 0.000, -28.700, 0.100, 0.000, -0.400, 0.0, , , , , , 96, , , 17, 17, 17
37.0262640, -119.2351654, 0.200, 14:08:31.574, 12, 0.10, 0.10, 100, -1.600, 1.600, -27.200, 428, 100, 100, 27, 25444, -3769, 5358, 5358, 18, 11, 1529356111.574, 79, 0, 1024, 1024, 1024, 1024, 0, 6, 4242, 4244, 4230, 4254, 4259, 4183, 0, 1, 4001, -89.900, 0.000, -28.700, 0.100, 0.000, -0.400, 0.0, , , , , , 96, , , 17, 17, 17
37.0262641, -119.2351654, 0.300, 14:08:31.673, 12, 0.10, 0.10, 100, -1.300, 1.400, -27.300, 428, 100, 100, 27, 25444, -3769, 5358, 5358, 18, 11, 1529356111.674, 68, 0, 1024, 1024, 1024, 1024, 0, 6, 4242, 4244, 4230, 4254, 4259, 4183, 0, 1, 4101, -89.900, 0.000, -28.600, 0.100, 0.000, -0.500, 0.0, , , , , , 96, , , 17, 17, 17
37.0262642, -119.2351657, 0.400, 14:08:31.773, 12, 0.10, 0.10, 100, -0.500, 1.200, -27.700, 428, 100, 100, 27, 25444, -3769, 5358, 5358, 18, 11, 1529356111.774, 60, 0, 1024, 1024, 1024, 1024, 0, 6, 4242, 4244, 4230, 4254, 4259, 4183, 0, 1, 4201, -89.900, 0.000, -28.600, 0.000, -0.100, -0.600, 0.0, , , , , , 96, , , 17, 17, 17
37.0262642, -119.2351657, 0.400, 14:08:31.873, 12, 0.10, 0.10, 100, -0.500, 1.200, -27.700, 428, 100, 100, 27, 25444, -3769, 5358, 5358, 18, 11, 1529356111.874, 160, 0, 1024, 1024, 1024, 1024, 0, 6, 4242, 4244, 4230, 4254, 4259, 4183, 0, 1, 4301, -89.900, 0.000, -28.600, 0.000, -0.100, -0.600, 0.0, , , , , , 96, , , 17, 17, 17
37.0262642, -119.2351660, 0.600, 14:08:31.973, 12, 0.10, 0.09, 100, 0.600, 1.000, -28.100, 428, 100, 100, 27, 25444, -3769, 5358, 5358, 18, 11, 1529356111.974, 53, 0, 1024, 1024, 1024, 1024, 0, 6, 4242, 4244, 4230, 4254, 4259, 4183, 0, 1, 4401, -89.900, 0.000, -28.600, 0.000, -0.100, -0.500, 0.0, , , , , , 96, , , 17, 17, 17
37.0262643, -119.2351662, 0.600, 14:08:32.073, 12, 0.10, 0.09, 100, 1.000, 1.300, -28.200, 428, 100, 100, 27, 24398, -12616, 5358, 5358, 18, 11, 1529356112.074, 38, 0, 1024, 1024, 1024, 1024, 0, 6, 4065, 4070, 4042, 4061, 4095, 4046, 0, 1, 4501, -89.900, 0.000, -28.600, 0.000, -0.100, -0.400, 0.0, , , , , , 96, , , 17, 17, 17
37.0262644, -119.2351664, 0.700, 14:08:32.173, 11, 0.10, 0.10, 100, 1.200, 1.800, -28.100, 428, 100, 100, 27, 24398, -12616, 5358, 5358, 18, 11, 1529356112.174, 51, 0, 1024, 1024, 1024, 1024, 0, 6, 4065, 4070, 4042, 4061, 4095, 4046, 0, 1, 4601, -89.900, 0.000, -28.500, 0.000, -0.100, -0.400, 0.0, , , , , , 96, , , 17, 17, 17
37.0262646, -119.2351665, 0.700, 14:08:32.273, 11, 0.00, 0.12, 100, 1.000, 2.200, -27.800, 428, 100, 100, 27, 24398, -12616, 5358, 5358, 18, 11, 1529356112.274, 46, 0, 1024, 1024, 1024, 1024, 0, 6, 4065, 4070, 4042, 4061, 4095, 4046, 0, 1, 4701, -89.900, 0.000, -28.500, 0.000, 0.000, -0.500, 0.0, , , , , , 96, , , 17, 17, 17
37.0262646, -119.2351664, 0.800, 14:08:32.373, 12, 0.00, 0.13, 100, 0.800, 2.300, -27.500, 428, 100, 100, 27, 24398, -12616, 5358, 5358, 18, 11, 1529356112.374, 38, 0, 1024, 1024, 1024, 1024, 0, 6, 4065, 4070, 4042, 4061, 4095, 4046, 0, 1, 4800, -89.900, 0.000, -28.500, 0.000, 0.000, -0.500, 0.0, , , , , , 96, , , 17, 17, 17
37.0262647, -119.2351664, 0.900, 14:08:32.473, 12, 0.00, 0.13, 100, 0.600, 2.200, -27.300, 428, 100, 100, 27, 24398, -12616, 5358, 5358, 18, 14, 1529356112.474, 30, 0, 1024, 1024, 1024, 1024, 0, 6, 4065, 4070, 4042, 4061, 4095, 4046, 0, 1, 4901, -89.900, 0.000, -28.500, 0.000, 0.000, -0.500, 0.0, , , , , , 96, , , 17, 17, 17
37.0262647, -119.2351665, 1.000, 14:08:32.573, 12, 0.00, 0.14, 100, 0.300, 2.000, -27.200, 428, 100, 100, 27, 24398, -12616, 5358, 5358, 18, 14, 1529356112.574, 37, 0, 1024, 1024, 1024, 1024, 0, 6, 4065, 4070, 4042, 4061, 4095, 4046, 0, 1, 5000, -89.900, 0.000, -28.500, 0.000, 0.000, -0.500, 0.0, , , , , , 96, , , 17, 17, 17
37.0262648, -119.2351665, 1.000, 14:08:32.673, 12, 0.00, 0.15, 100, 0.000, 1.900, -27.100, 428, 100, 100, 27, 24398, -12616, 5358, 5358, 18, 14, 1529356112.674, 40, 0, 1024, 1024, 1024, 1024, 0, 6, 4065, 4070, 4042, 4061, 4095, 4046, 0, 1, 5101, -89.900, 0.000, -28.400, 0.000, 0.000, -0.300, 0.0, , , , , , 96, , , 17, 17, 17
37.0262649, -119.2351667, 1.100, 14:08:32.773, 11, 0.00, 0.17, 100, 0.000, 2.000, -27.000, 428, 100, 100, 27, 24398, -12616, 5358, 5358, 18, 14, 1529356112.774, 16, 0, 1024, 1024, 1024, 1024, 0, 6, 4065, 4070, 4042, 4061, 4095, 4046, 0, 1, 5200, -90.000, 0.000, -28.400, 0.000, 0.000, -0.200, 0.0, , , , , , 96, , , 17, 17, 17
37.0262651, -119.2351668, 1.100, 14:08:32.873, 11, 0.00, 0.18, 100, 0.200, 2.200, -26.900, 428, 100, 100, 27, 24398, -12616, 5358, 5358, 18, 14, 1529356112.874, 16, 0, 1024, 1024, 1024, 1024, 0, 6, 4065, 4070, 4042, 4061, 4095, 4046, 0, 1, 5301, -89.900, 0.000, -28.400, 0.000, 0.000, -0.200, 0.0, , , , , , 96, , , 17, 17, 17
37.0262651, -119.2351669, 1.200, 14:08:32.973, 11, 0.00, 0.19, 100, 0.300, 2.200, -26.800, 428, 100, 100, 27, 24398, -12616, 5358, 5358, 18, 14, 1529356112.974, 25, 0, 1024, 1024, 1024, 1024, 0, 6, 4065, 4070, 4042, 4061, 4095, 4046, 0, 1, 5401, -90.000, 0.000, -28.400, 0.000, 0.000, -0.300, 0.0, , , , , , 96, , , 17, 17, 17
37.0262651, -119.2351670, 1.200, 14:08:33.073, 11, 0.00, 0.19, 100, 0.200, 1.900, -26.800, 428, 100, 100, 27, 24213, -15718, 5358, 5358, 18, 14, 1529356113.073, 20, 0, 1024, 1024, 1024, 1024, 0, 6, 4020, 4037, 4027, 4034, 4051, 4028, 0, 1, 5500, -90.000, 0.000, -28.400, 0.000, 0.000, -0.400, 0.0, , , , , , 96, , , 17, 17, 17
37.0262651, -119.2351670, 1.200, 14:08:33.173, 11, 0.00, 0.19, 100, 0.200, 1.900, -26.800, 428, 100, 100, 27, 24213, -15718, 5358, 5358, 18, 14, 1529356113.174, 121, 0, 1024, 1024, 1024, 1024, 0, 6, 4020, 4037, 4027, 4034, 4051, 4028, 0, 1, 5600, -90.000, 0.000, -28.400, 0.000, 0.000, -0.400, 0.0, , , , , , 96, , , 17, 17, 17
37.0262652, -119.2351670, 1.300, 14:08:33.273, 11, 0.00, 0.20, 100, 0.000, 1.900, -26.900, 428, 100, 100, 27, 24213, -15718, 5358, 5358, 18, 14, 1529356113.273, 89, 0, 1024, 1024, 1024, 1024, 0, 6, 4020, 4037, 4027, 4034, 4051, 4028, 0, 1, 5700, -90.000, 0.000, -28.400, 0.000, 0.000, -0.600, 0.0, , , , , , 96, , , 17, 17, 17
37.0262653, -119.2351671, 1.400, 14:08:33.373, 11, 0.00, 0.21, 100, 0.200, 2.100, -26.900, 428, 100, 100, 27, 24213, -15718, 5358, 5358, 18, 14, 1529356113.373, 91, 0, 1024, 1024, 1024, 1024, 0, 6, 4020, 4037, 4027, 4034, 4051, 4028, 0, 1, 5800, -89.900, 0.000, -28.300, 0.000, 0.000, -0.800, 0.0, , , , , , 96, , , 17, 17, 17
37.0262654, -119.2351672, 1.500, 14:08:33.473, 11, 0.00, 0.22, 100, 0.500, 2.200, -26.900, 428, 100, 100, 27, 24213, -15718, 5358, 5358, 18, 14, 1529356113.473, 86, 0, 1024, 1024, 1024, 1024, 0, 6, 4020, 4037, 4027, 4034, 4051, 4028, 0, 1, 5900, -89.900, 0.000, -28.300, 0.000, 0.000, -1.000, 0.0, , , , , , 96, , , 17, 17, 17
37.0262654, -119.2351673, 1.600, 14:08:33.573, 11, 0.00, 0.24, 100, 0.800, 2.400, -27.000, 428, 100, 100, 27, 24213, -15718, 5358, 5358, 18, 14, 1529356113.573, 87, 0, 1024, 1024, 1024, 1024, 0, 6, 4020, 4037, 4027, 4034, 4051, 4028, 0, 1, 6000, -89.900, 0.000, -28.300, 0.000, 0.000, -1.200, 0.0, , , , , , 96, , , 17, 17, 17
37.0262654, -119.2351674, 1.700, 14:08:33.673, 11, 0.00, 0.24, 100, 0.900, 2.500, -27.100, 428, 100, 100, 27, 24213, -15718, 5358, 5358, 18, 14, 1529356113.673, 80, 0, 1024, 1024, 1024, 1024, 0, 6, 4020, 4037, 4027, 4034, 4051, 4028, 0, 1, 6100, -89.900, 0.000, -28.300, 0.000, 0.000, -1.400, 0.0, , , , , , 96, , , 17, 17, 17
37.0262654, -119.2351675, 1.900, 14:08:33.773, 11, 0.00, 0.24, 100, 0.800, 2.300, -27.300, 428, 100, 100, 27, 24213, -15718, 5358, 5358, 18, 14, 1529356113.773, 58, 0, 1024, 1024, 1024, 1024, 0, 6, 4020, 4037, 4027, 4034, 4051, 4028, 0, 1, 6200, -89.900, 0.000, -28.300, 0.000, 0.000, -1.600, 0.0, , , , , , 96, , , 17, 17, 17
37.0262655, -119.2351676, 2.100, 14:08:33.873, 11, 0.00, 0.26, 100, 0.600, 2.300, -27.400, 428, 100, 100, 27, 24213, -15718, 5358, 5358, 18, 14, 1529356113.873, 59, 0, 1024, 1024, 1024, 1024, 0, 6, 4020, 4037, 4027, 4034, 4051, 4028, 0, 1, 6300, -89.900, 0.000, -28.300, 0.000, 0.000, -1.800, 0.0, , , , , , 96, , , 17, 17, 17
37.0262656, -119.2351677, 2.500, 14:08:33.973, 11, 0.00, 0.27, 100, 0.100, 2.400, -27.500, 428, 100, 100, 27, 24213, -15718, 5358, 5358, 18, 14, 1529356113.973, 62, 0, 1024, 1024, 1024, 1024, 0, 6, 4020, 4037, 4027, 4034, 4051, 4028, 0, 1, 6400, -89.900, 0.000, -28.200, 0.000, 0.000, -2.300, 0.0, , , , , , 96, , , 17, 17, 17
37.0262656, -119.2351677, 2.500, 14:08:34.073, 11, 0.00, 0.27, 100, 0.100, 2.400, -27.500, 428, 100, 100, 27, 24213, -15718, 5358, 5358, 18, 14, 1529356114.073, 162, 0, 1024, 1024, 1024, 1024, 0, 6, 4020, 4037, 4027, 4034, 4051, 4028, 0, 1, 6500, -90.000, 0.000, -28.200, 0.000, 0.000, -2.300, 0.0, , , , , , 96, , , 17, 17, 17
37.0262656, -119.2351678, 3.000, 14:08:34.173, 11, 0.00, 0.28, 100, 0.200, 2.100, -27.400, 428, 100, 100, 27, 24240, -15897, 5358, 5358, 18, 14, 1529356114.173, 30, 0, 1024, 1024, 1024, 1024, 0, 6, 3998, 3977, 3997, 4049, 4026, 3994, 0, 1, 6600, -90.000, 0.000, -28.200, 0.000, 0.000, -2.800, 0.0, , , , , , 96, , , 17, 17, 17
37.0262656, -119.2351679, 3.300, 14:08:34.273, 11, 0.00, 0.28, 100, 0.400, 2.200, -27.300, 428, 100, 100, 27, 24240, -15897, 5358, 5358, 18, 14, 1529356114.273, 39, 0, 1024, 1024, 1024, 1024, 0, 6, 3998, 3977, 3997, 4049, 4026, 3994, 0, 1, 6700, -89.900, 0.000, -28.200, 0.000, 0.000, -2.900, 0.0, , , , , , 96, , , 17, 17, 17
37.0262656, -119.2351680, 3.700, 14:08:34.373, 12, 0.00, 0.28, 100, 0.500, 2.200, -27.200, 428, 100, 100, 27, 24240, -15897, 5358, 5358, 18, 14, 1529356114.373, 47, 0, 1024, 1024, 1024, 1024, 0, 6, 3998, 3977, 3997, 4049, 4026, 3994, 0, 1, 6800, -89.900, 0.000, -28.200, 0.000, 0.000, -3.100, 0.0, , , , , , 96, , , 17, 17, 17
37.0262656, -119.2351681, 4.000, 14:08:34.473, 12, 0.00, 0.29, 100, 0.600, 2.300, -27.000, 428, 100, 100, 27, 24240, -15897, 5358, 5358, 18, 14, 1529356114.473, 45, 0, 1024, 1024, 1024, 1024, 0, 6, 3998, 3977, 3997, 4049, 4026, 3994, 0, 1, 6900, -89.900, 0.000, -28.200, 0.000, 0.000, -3.100, 0.0, , , , , , 96, , , 17, 17, 17
37.0262656, -119.2351682, 4.300, 14:08:34.573, 12, 0.00, 0.29, 100, 0.700, 2.200, -26.800, 428, 100, 100, 27, 24240, -15897, 5358, 5358, 18, 14, 1529356114.573, 36, 0, 1024, 1024, 1024, 1024, 0, 6, 3998, 3977, 3997, 4049, 4026, 3994, 0, 1, 7000, -89.900, 0.000, -28.200, 0.000, 0.000, -3.100, 0.0, , , , , , 96, , , 17, 17, 17
37.0262656, -119.2351682, 4.700, 14:08:34.673, 12, 0.00, 0.29, 100, 0.700, 2.000, -26.800, 428, 100, 100, 27, 24240, -15897, 5358, 5358, 18, 14, 1529356114.673, 14, 0, 1024, 1024, 1024, 1024, 0, 6, 3998, 3977, 3997, 4049, 4026, 3994, 0, 1, 7100, -89.900, 0.000, -28.100, 0.000, 0.000, -3.100, 0.0, , , , , , 96, , , 17, 17, 17
37.0262655, -119.2351683, 5.000, 14:08:34.773, 12, 0.00, 0.29, 100, 0.600, 1.600, -26.800, 428, 100, 100, 27, 24240, -15897, 5358, 5358, 18, 14, 1529356114.773, 3, 0, 1024, 1024, 1024, 1024, 0, 6, 3998, 3977, 3997, 4049, 4026, 3994, 0, 1, 7200, -90.000, 0.000, -28.200, 0.000, 0.000, -3.100, 0.0, , , , , , 96, , , 17, 17, 17
37.0262654, -119.2351685, 5.300, 14:08:34.873, 12, 0.00, 0.29, 100, 0.800, 1.400, -26.800, 428, 100, 100, 27, 24240, -15897, 5358, 5358, 18, 14, 1529356114.873, 16, 0, 1024, 1024, 1024, 1024, 0, 6, 3998, 3977, 3997, 4049, 4026, 3994, 0, 1, 7300, -90.000, 0.000, -28.100, 0.000, 0.000, -3.200, 0.0, , , , , , 96, , , 17, 17, 17
37.0262653, -119.2351685, 5.700, 14:08:34.973, 12, 0.00, 0.29, 100, 0.800, 1.200, -26.900, 428, 100, 100, 27, 24240, -15897, 5358, 5358, 18, 14, 1529356114.973, 11, 0, 1024, 998, 1024, 1024, 0, 6, 3998, 3977, 3997, 4049, 4026, 3994, 0, 1, 7400, -90.000, 0.000, -28.200, 0.000, 0.000, -3.200, 0.0, , , , , , 96, , , 17, 17, 17
37.0262652, -119.2351685, 6.000, 14:08:35.072, 12, 0.00, 0.28, 100, 0.900, 1.100, -27.000, 428, 100, 100, 27, 23544, -23649, 5358, 5358, 18, 14, 1529356115.073, 3, 0, 1024, 1012, 1024, 1024, 0, 6, 3878, 3887, 3909, 3917, 3933, 3891, 0, 1, 7499, -90.000, 0.000, -28.100, 0.000, 0.000, -3.200, 0.0, , , , , , 96, , , 17, 17, 17
37.0262652, -119.2351686, 6.400, 14:08:35.173, 12, 0.00, 0.28, 100, 1.100, 1.200, -27.100, 428, 100, 100, 27, 23544, -23649, 5358, 5358, 18, 14, 1529356115.173, 4, 0, 1024, 1024, 1024, 1024, 0, 6, 3878, 3887, 3909, 3917, 3933, 3891, 0, 1, 7600, -89.900, 0.000, -28.100, 0.000, 0.000, -3.200, 0.0, , , , , , 96, , , 17, 17, 17
37.0262652, -119.2351686, 6.400, 14:08:35.273, 12, 0.00, 0.28, 100, 1.100, 1.200, -27.100, 428, 100, 100, 27, 23544, -23649, 5358, 5358, 18, 14, 1529356115.273, 104, 0, 1024, 1024, 1024, 1024, 0, 6, 3878, 3887, 3909, 3917, 3933, 3891, 0, 1, 7700, -89.900, 0.000, -28.100, 0.000, 0.000, -3.200, 0.0, , , , , , 96, , , 17, 17, 17
37.0262652, -119.2351687, 7.000, 14:08:35.383, 12, 0.00, 0.29, 100, 1.200, 1.600, -27.100, 428, 100, 100, 27, 23544, -23649, 5358, 5358, 18, 14, 1529356115.383, 1, 0, 1024, 1024, 1024, 1024, 0, 6, 3878, 3887, 3909, 3917, 3933, 3891, 0, 1, 7810, -89.900, 0.000, -28.100, 0.000, 0.000, -3.200, 0.0, , , , , , 96, , , 17, 17, 17
37.0262652, -119.2351687, 7.000, 14:08:35.473, 12, 0.00, 0.29, 100, 1.200, 1.600, -27.100, 428, 100, 100, 27, 23544, -23649, 5358, 5358, 18, 14, 1529356115.473, 92, 0, 1024, 1024, 1024, 1024, 0, 6, 3878, 3887, 3909, 3917, 3933, 3891, 0, 1, 7900, -89.900, 0.000, -28.100, 0.000, 0.000, -3.200, 0.0, , , , , , 96, , , 17, 17, 17
37.0262651, -119.2351687, 7.400, 14:08:35.573, 12, 0.00, 0.28, 100, 0.900, 1.700, -27.100, 428, 100, 100, 27, 23544, -23649, 5358, 5358, 18, 14, 1529356115.573, 78, 0, 1024, 1024, 1024, 1024, 0, 6, 3878, 3887, 3909, 3917, 3933, 3891, 0, 1, 8000, -89.900, 0.000, -28.100, 0.000, 0.000, -3.100, 0.0, , , , , , 96, , , 17, 17, 17
37.0262651, -119.2351686, 7.700, 14:08:35.673, 12, 0.00, 0.28, 100, 0.500, 1.600, -27.100, 428, 100, 100, 27, 23544, -23649, 5358, 5358, 18, 14, 1529356115.673, 68, 0, 1024, 1024, 1024, 1024, 0, 6, 3878, 3887, 3909, 3917, 3933, 3891, 0, 1, 8100, -89.900, 0.000, -28.200, 0.000, 0.000, -3.100, 0.0, , , , , , 96, , , 17, 17, 17
37.0262651, -119.2351686, 8.000, 14:08:35.773, 12, 0.00, 0.27, 100, 0.400, 1.700, -27.100, 428, 100, 100, 27, 23544, -23649, 5358, 5358, 18, 14, 1529356115.773, 70, 0, 1024, 1024, 1024, 1024, 0, 6, 3878, 3887, 3909, 3917, 3933, 3891, 0, 1, 8200, -89.900, 0.000, -28.100, 0.000, 0.000, -3.100, 0.0, , , , , , 96, , , 17, 17, 17
37.0262651, -119.2351684, 8.400, 14:08:35.873, 12, 0.10, 0.26, 100, 0.100, 1.600, -27.100, 428, 100, 100, 27, 23544, -23649, 5358, 5358, 18, 14, 1529356115.873, 71, 0, 1024, 1024, 1024, 1024, 0, 6, 3878, 3887, 3909, 3917, 3933, 3891, 0, 1, 8300, -90.000, 0.000, -28.100, 0.000, 0.100, -3.100, 0.0, , , , , , 96, , , 17, 17, 17
37.0262649, -119.2351682, 9.000, 14:08:35.973, 12, 0.10, 0.23, 100, -0.100, 1.000, -27.000, 428, 100, 100, 27, 23544, -23649, 5358, 5358, 18, 14, 1529356115.973, 60, 0, 1024, 1024, 1024, 1024, 0, 6, 3878, 3887, 3909, 3917, 3933, 3891, 0, 1, 8400, -90.000, 0.000, -28.100, 0.000, 0.100, -3.000, 0.0, , , , , , 96, , , 17, 17, 17
37.0262649, -119.2351682, 9.000, 14:08:36.073, 12, 0.10, 0.23, 100, -0.100, 1.000, -27.000, 428, 100, 100, 27, 23544, -23649, 5358, 5358, 18, 14, 1529356116.073, 160, 0, 1024, 1024, 1024, 1024, 0, 6, 3878, 3887, 3909, 3917, 3933, 3891, 0, 1, 8500, -90.000, 0.000, -28.100, 0.000, 0.100, -3.000, 0.0, , , , , , 96, , , 17, 17, 17
37.0262648, -119.2351681, 9.700, 14:08:36.173, 12, 0.00, 0.21, 100, 0.000, 0.300, -26.900, 428, 100, 100, 27, 23634, -20250, 5358, 5358, 18, 14, 1529356116.173, 71, 0, 1024, 1024, 1024, 1024, 0, 6, 3878, 3887, 3909, 3917, 3933, 3891, 0, 1, 8600, -90.000, 0.000, -28.100, 0.000, 0.000, -3.000, 0.0, , , , , , 96, , , 17, 17, 17
37.0262647, -119.2351681, 10.000, 14:08:36.273, 12, 0.00, 0.21, 100, 0.400, 0.400, -26.900, 428, 100, 100, 27, 23634, -20250, 5358, 5358, 18, 14, 1529356116.273, 61, 0, 1024, 1024, 1024, 1024, 0, 6, 3878, 3887, 3909, 3917, 3933, 3891, 0, 1, 8700, -89.900, 0.000, -28.100, 0.000, 0.000, -2.900, 0.0, , , , , , 96, , , 17, 17, 17
37.0262647, -119.2351680, 10.300, 14:08:36.373, 12, 0.00, 0.20, 100, 0.400, 0.600, -27.000, 428, 100, 100, 27, 23634, -20250, 5358, 5358, 18, 14, 1529356116.373, 35, 0, 1024, 1024, 1024, 1024, 0, 6, 3878, 3887, 3909, 3917, 3933, 3891, 0, 1, 8800, -89.900, 0.000, -28.100, 0.000, 0.000, -2.900, 0.0, , , , , , 96, , , 17, 17, 17
37.0262646, -119.2351680, 10.600, 14:08:36.473, 12, 0.00, 0.20, 100, 0.500, 0.800, -27.000, 428, 100, 100, 27, 23634, -20250, 5358, 5358, 18, 14, 1529356116.473, 48, 0, 1024, 1024, 1024, 1024, 0, 6, 3878, 3887, 3909, 3917, 3933, 3891, 0, 1, 8900, -89.900, 0.000, -28.100, 0.000, 0.000, -3.000, 0.0, , , , , , 96, , , 17, 17, 17
37.0262646, -119.2351680, 11.000, 14:08:36.573, 13, 0.00, 0.20, 100, 0.700, 0.900, -27.000, 428, 100, 100, 27, 23634, -20250, 5358, 5358, 18, 14, 1529356116.573, 25, 0, 1024, 1024, 1024, 1024, 0, 6, 3878, 3887, 3909, 3917, 3933, 3891, 0, 1, 9000, -89.900, 0.000, -28.100, 0.000, 0.000, -3.000, 0.0, , , , , , 96, , , 17, 17, 17
37.0262646, -119.2351680, 11.300, 14:08:36.673, 13, 0.00, 0.19, 100, 0.700, 1.000, -27.100, 428, 100, 100, 27, 23634, -20250, 5250, 5358, 18, 14, 1529356116.673, 53, 0, 1024, 1024, 1024, 1024, 0, 6, 3924, 3935, 3956, 3958, 3969, 3942, 0, 1, 9100, -89.900, 0.000, -28.100, 0.000, 0.000, -3.000, 0.0, , , , , , 96, , , 17, 17, 17
37.0262645, -119.2351680, 11.600, 14:08:36.773, 13, 0.00, 0.19, 100, 0.700, 0.900, -27.100, 428, 100, 100, 27, 23634, -20250, 5250, 5358, 18, 14, 1529356116.773, 14, 0, 1024, 1024, 1024, 1024, 0, 6, 3924, 3935, 3956, 3958, 3969, 3942, 0, 1, 9200, -90.000, 0.000, -28.100, 0.000, 0.000, -3.000, 0.0, , , , , , 96, , , 17, 17, 17
37.0262645, -119.2351680, 11.900, 14:08:36.873, 13, 0.00, 0.19, 100, 0.800, 0.800, -27.200, 428, 100, 100, 27, 23634, -20250, 5250, 5358, 18, 14, 1529356116.873, 18, 0, 1024, 1024, 1024, 1024, 0, 6, 3924, 3935, 3956, 3958, 3969, 3942, 0, 1, 9300, -90.000, 0.000, -28.100, 0.000, 0.000, -2.900, 0.0, , , , , , 96, , , 17, 17, 17
37.0262645, -119.2351679, 12.200, 14:08:36.973, 13, 0.00, 0.18, 100, 0.900, 0.800, -27.200, 428, 100, 100, 27, 23634, -20250, 5250, 5358, 18, 14, 1529356116.973, 13, 0, 1024, 1024, 1024, 1024, 0, 6, 3924, 3935, 3956, 3958, 3969, 3942, 0, 1, 9400, -90.000, 0.000, -28.100, 0.000, 0.000, -2.900, 0.0, , , , , , 96, , , 17, 17, 17
37.0262645, -119.2351677, 12.600, 14:08:37.073, 13, 0.00, 0.17, 98, 0.600, 0.800, -27.300, 428, 100, 100, 27, 23634, -20250, 5250, 5358, 18, 14, 1529356117.073, 14, 0, 1024, 1024, 1024, 1024, 0, 6, 3924, 3935, 3956, 3958, 3969, 3942, 0, 1, 9500, -89.900, 0.000, -28.100, 0.000, 0.000, -2.800, 0.0, , , , , , 96, , , 17, 17, 17
37.0262645, -119.2351676, 12.800, 14:08:37.173, 13, 0.00, 0.17, 98, 0.200, 0.900, -27.300, 428, 100, 100, 27, 23634, -20250, 5250, 5358, 18, 14, 1529356117.173, 18, 0, 1024, 1024, 1024, 1024, 0, 6, 3924, 3935, 3956, 3958, 3969, 3942, 0, 1, 9600, -89.900, 0.000, -28.100, 0.000, 0.000, -2.800, 0.0, , , , , , 96, , , 17, 17, 17
37.0262645, -119.2351675, 13.100, 14:08:37.273, 13, 0.00, 0.16, 98, -0.100, 0.900, -27.300, 428, 100, 100, 27, 23634, -20250, 5250, 5358, 18, 14, 1529356117.273, 19, 0, 1024, 1024, 1024, 1024, 0, 6, 3924, 3935, 3956, 3958, 3969, 3942, 0, 1, 9700, -90.000, 0.000, -28.100, 0.000, 0.000, -2.900, 0.0, , , , , , 96, , , 17, 17, 17
37.0262645, -119.2351675, 13.100, 14:08:37.373, 13, 0.00, 0.16, 98, -0.100, 0.900, -27.300, 428, 100, 100, 27, 23634, -20250, 5250, 5358, 18, 14, 1529356117.373, 119, 0, 1024, 1024, 1024, 1024, 0, 6, 3924, 3935, 3956, 3958, 3969, 3942, 0, 1, 9800, -90.000, 0.000, -28.100, 0.000, 0.000, -2.900, 0.0, , , , , , 96, , , 17, 17, 17
37.0262645, -119.2351674, 13.500, 14:08:37.473, 13, 0.00, 0.15, 98, -0.400, 0.800, -27.200, 428, 100, 100, 27, 23634, -20250, 5250, 5358, 18, 14, 1529356117.473, 77, 0, 1024, 1024, 1024, 1024, 0, 6, 3924, 3935, 3956, 3958, 3969, 3942, 0, 1, 9900, -89.900, 0.000, -28.100, 0.000, 0.000, -2.900, 0.0, , , , , , 96, , , 17, 17, 17
37.0262645, -119.2351673, 13.800, 14:08:37.573, 13, 0.00, 0.15, 98, -0.500, 0.600, -27.200, 428, 100, 100, 27, 23634, -20250, 5250, 5358, 18, 14, 1529356117.573, 86, 0, 1024, 1024, 1024, 1024, 0, 6, 3924, 3935, 3956, 3958, 3969, 3942, 0, 1, 10000, -90.000, 0.000, -28.100, 0.000, 0.000, -2.900, 0.0, , , , , , 96, , , 17, 17, 17
37.0262645, -119.2351672, 14.100, 14:08:37.673, 13, 0.00, 0.14, 98, -0.500, 0.600, -27.200, 428, 100, 100, 27, 23719, -19102, 5250, 5358, 18, 14, 1529356117.673, 91, 0, 1024, 1024, 1024, 1024, 0, 6, 3939, 3946, 3958, 3946, 3965, 3945, 0, 1, 10100, -90.000, 0.000, -28.100, 0.000, 0.000, -2.800, 0.0, , , , , , 96, , , 17, 17, 17
37.0262645, -119.2351672, 14.400, 14:08:37.773, 13, 0.00, 0.14, 98, -0.400, 0.700, -27.200, 428, 100, 100, 27, 23719, -19102, 5250, 5358, 18, 14, 1529356117.773, 89, 0, 1024, 1024, 1024, 1024, 0, 6, 3939, 3946, 3958, 3946, 3965, 3945, 0, 1, 10200, -90.000, 0.000, -28.100, 0.000, 0.000, -2.900, 0.0, , , , , , 96, , , 17, 17, 17
37.0262645, -119.2351672, 14.700, 14:08:37.873, 12, 0.00, 0.14, 98, -0.300, 0.600, -27.100, 428, 100, 100, 27, 23719, -19102, 5250, 5358, 18, 14, 1529356117.873, 74, 0, 1024, 1024, 1024, 1024, 0, 6, 3939, 3946, 3958, 3946, 3965, 3945, 0, 1, 10300, -90.000, 0.000, -28.100, 0.000, 0.000, -2.800, 0.0, , , , , , 96, , , 17, 17, 17
37.0262645, -119.2351671, 14.900, 14:08:37.973, 12, 0.00, 0.14, 98, -0.300, 0.600, -27.100, 428, 100, 100, 27, 23719, -19102, 5250, 5358, 18, 14, 1529356117.973, 76, 0, 1024, 1024, 1024, 1024, 0, 6, 3939, 3946, 3958, 3946, 3965, 3945, 0, 1, 10400, -89.900, 0.000, -28.100, 0.000, 0.000, -2.800, 0.0, , , , , , 96, , , 17, 17, 17
37.0262645, -119.2351670, 15.300, 14:08:38.073, 12, 0.00, 0.13, 98, -0.200, 0.800, -27.000, 428, 100, 100, 27, 23719, -19102, 5250, 5358, 18, 14, 1529356118.073, 70, 0, 1024, 1024, 1024, 1024, 0, 6, 3939, 3946, 3958, 3946, 3965, 3945, 0, 1, 10500, -89.900, 0.000, -28.100, 0.000, 0.000, -2.900, 0.0, , , , , , 96, , , 17, 17, 17
37.0262645, -119.2351670, 15.600, 14:08:38.173, 12, 0.00, 0.13, 98, 0.000, 1.000, -26.900, 428, 100, 100, 27, 23719, -19102, 5250, 5358, 18, 14, 1529356118.173, 70, 0, 1024, 1024, 1024, 1024, 0, 6, 3939, 3946, 3958, 3946, 3965, 3945, 0, 1, 10600, -90.000, 0.000, -28.100, 0.000, 0.000, -2.900, 0.0, , , , , , 96, , , 17, 17, 17
37.0262646, -119.2351669, 16.100, 14:08:38.273, 13, 0.00, 0.13, 98, -0.100, 0.800, -26.900, 428, 100, 100, 27, 23719, -19102, 5250, 5358, 18, 14, 1529356118.273, 74, 0, 1024, 1024, 1024, 1024, 0, 6, 3939, 3946, 3958, 3946, 3965, 3945, 0, 1, 10700, -89.900, 0.000, -28.100, 0.000, 0.000, -2.800, 0.0, , , , , , 96, , , 17, 17, 17
37.0262646, -119.2351669, 16.400, 14:08:38.373, 13, 0.00, 0.13, 98, 0.000, 0.800, -26.900, 428, 100, 100, 27, 23719, -19102, 5250, 5358, 18, 14, 1529356118.373, 61, 0, 1024, 1024, 1024, 1024, 0, 6, 3939, 3946, 3958, 3946, 3965, 3945, 0, 1, 10800, -89.900, 0.000, -28.100, 0.000, 0.000, -2.800, 0.0, , , , , , 96, , , 17, 17, 17
37.0262646, -119.2351668, 16.700, 14:08:38.473, 13, 0.00, 0.13, 98, -0.200, 0.700, -27.000, 428, 100, 100, 27, 23719, -19102, 5250, 5358, 18, 14, 1529356118.473, 53, 0, 1024, 1024, 1024, 1024, 0, 6, 3939, 3946, 3958, 3946, 3965, 3945, 0, 1, 10900, -90.000, 0.000, -28.100, 0.000, 0.000, -2.800, 0.0, , , , , , 96, , , 17, 17, 17
37.0262646, -119.2351668, 17.000, 14:08:38.573, 13, 0.00, 0.14, 98, -0.400, 0.800, -27.100, 428, 100, 100, 27, 23719, -19102, 5250, 5358, 18, 14, 1529356118.573, 56, 0, 1024, 1024, 1024, 1024, 0, 6, 3939, 3946, 3958, 3946, 3965, 3945, 0, 1, 11000, -89.900, 0.000, -28.100, 0.000, 0.000, -2.800, 0.0, , , , , , 96, , , 17, 17, 17
37.0262647, -119.2351668, 17.300, 14:08:38.673, 13, 0.00, 0.15, 98, -0.400, 1.100, -27.100, 428, 100, 100, 27, 23614, -19722, 5250, 5358, 18, 14, 1529356118.673, 48, 0, 1024, 1024, 1024, 1024, 0, 6, 3923, 3933, 3930, 3943, 3959, 3921, 0, 1, 11100, -89.900, 0.000, -28.100, 0.000, 0.000, -2.900, 0.0, , , , , , 96, , , 17, 17, 17
37.0262647, -119.2351668, 17.600, 14:08:38.773, 13, 0.00, 0.15, 98, -0.300, 1.400, -27.200, 428, 100, 99, 27, 23614, -19722, 5250, 5358, 18, 14, 1529356118.773, 44, 0, 1024, 1024, 1024, 1024, 0, 6, 3923, 3933, 3930, 3943, 3959, 3921, 0, 1, 11200, -89.900, 0.000, -28.100, 0.000, 0.000, -2.900, 0.0, , , , , , 96, , , 17, 17, 17
37.0262647, -119.2351668, 17.900, 14:08:38.873, 13, 0.00, 0.15, 98, -0.300, 1.300, -27.200, 428, 100, 99, 27, 23614, -19722, 5250, 5358, 18, 14, 1529356118.873, 37, 0, 1024, 1024, 1024, 1024, 0, 6, 3923, 3933, 3930, 3943, 3959, 3921, 0, 1, 11300, -89.900, 0.000, -28.100, 0.000, 0.000, -2.900, 0.0, , , , , , 96, , , 17, 17, 17
37.0262648, -119.2351668, 18.200, 14:08:38.973, 13, 0.00, 0.15, 98, -0.300, 1.200, -27.300, 428, 100, 99, 27, 23614, -19722, 5250, 5358, 18, 14, 1529356118.973, 27, 0, 1024, 1024, 1024, 1024, 0, 6, 3923, 3933, 3930, 3943, 3959, 3921, 0, 1, 11400, -90.000, 0.000, -28.100, 0.000, 0.000, -2.800, 0.0, , , , , , 96, , , 17, 17, 17
37.0262648, -119.2351669, 18.500, 14:08:39.073, 13, 0.00, 0.15, 98, -0.200, 1.200, -27.300, 428, 100, 99, 27, 23614, -19722, 5250, 5358, 18, 14, 1529356119.073, 15, 0, 1024, 1024, 1024, 1024, 0, 6, 3923, 3933, 3930, 3943, 3959, 3921, 0, 1, 11500, -89.900, 0.000, -28.100, 0.000, 0.000, -2.900, 0.0, , , , , , 96, , , 17, 17, 17
37.0262648, -119.2351669, 18.800, 14:08:39.173, 13, 0.00, 0.16, 98, 0.000, 1.100, -27.300, 428, 100, 99, 27, 23614, -19722, 5250, 5358, 18, 14, 1529356119.173, 18, 0, 1024, 1024, 1024, 1024, 0, 6, 3923, 3933, 3930, 3943, 3959, 3921, 0, 1, 11600, -89.900, 0.000, -28.100, 0.000, 0.000, -2.900, 0.0, , , , , , 96, , , 17, 17, 17
37.0262648, -119.2351669, 19.200, 14:08:39.273, 13, 0.00, 0.16, 98, -0.100, 1.000, -27.200, 428, 100, 99, 27, 23614, -19722, 5250, 5358, 18, 14, 1529356119.273, 24, 0, 1024, 1024, 1024, 1024, 0, 6, 3923, 3933, 3930, 3943, 3959, 3921, 0, 1, 11700, -89.900, 0.000, -28.100, 0.000, 0.000, -3.000, 0.0, , , , , , 96, , , 17, 17, 17
37.0262648, -119.2351669, 19.200, 14:08:39.372, 13, 0.00, 0.16, 98, -0.100, 1.000, -27.200, 428, 100, 99, 27, 23614, -19722, 5250, 5358, 18, 14, 1529356119.373, 123, 0, 1024, 1024, 1024, 1024, 0, 6, 3923, 3933, 3930, 3943, 3959, 3921, 0, 1, 11800, -89.900, 0.000, -28.100, 0.000, 0.000, -3.000, 0.0, , , , , , 96, , , 17, 17, 17
37.0262648, -119.2351669, 19.800, 14:08:39.472, 13, 0.00, 0.16, 98, 0.000, 0.900, -27.000, 428, 100, 99, 27, 23614, -19722, 5250, 5358, 18, 14, 1529356119.473, 3, 0, 1024, 1024, 1024, 1024, 0, 6, 3923, 3933, 3930, 3943, 3959, 3921, 0, 1, 11900, -90.000, 0.000, -28.100, 0.000, 0.000, -2.900, 0.0, , , , , , 96, , , 17, 17, 17
37.0262648, -119.2351669, 19.800, 14:08:39.573, 13, 0.00, 0.16, 98, 0.000, 0.900, -27.000, 428, 100, 99, 27, 23614, -19722, 5250, 5358, 18, 14, 1529356119.573, 104, 0, 1024, 1024, 1024, 1024, 0, 6, 3923, 3933, 3930, 3943, 3959, 3921, 0, 1, 12000, -90.000, 0.000, -28.100, 0.000, 0.000, -2.900, 0.0, , , , , , 96, , , 17, 17, 17
37.0262648, -119.2351669, 20.100, 14:08:39.673, 13, 0.00, 0.16, 98, 0.000, 0.800, -26.900, 428, 100, 99, 27, 23554, -20480, 5250, 5358, 18, 14, 1529356119.673, 96, 0, 1024, 1024, 1024, 1024, 0, 6, 3905, 3918, 3931, 3935, 3937, 3912, 0, 1, 12100, -90.000, 0.000, -28.100, 0.000, 0.000, -2.800, 0.0, , , , , , 96, , , 17, 17, 17
37.0262648, -119.2351669, 20.700, 14:08:39.773, 13, 0.00, 0.16, 98, 0.200, 0.800, -27.000, 428, 100, 100, 27, 23554, -20480, 5250, 5358, 18, 14, 1529356119.773, 2, 0, 1024, 1024, 1024, 1024, 0, 6, 3905, 3918, 3931, 3935, 3937, 3912, 0, 1, 12200, -90.000, 0.000, -28.100, 0.000, 0.000, -2.900, 0.0, , , , , , 96, , , 17, 17, 17
37.0262648, -119.2351669, 20.700, 14:08:39.873, 13, 0.00, 0.16, 98, 0.200, 0.800, -27.000, 428, 100, 100, 27, 23554, -20480, 5250, 5358, 18, 14, 1529356119.873, 102, 0, 1024, 1024, 1024, 1024, 0, 6, 3905, 3918, 3931, 3935, 3937, 3912, 0, 1, 12300, -90.000, 0.000, -28.100, 0.000, 0.000, -2.900, 0.0, , , , , , 96, , , 17, 17, 17
37.0262648, -119.2351669, 21.000, 14:08:39.972, 13, 0.00, 0.15, 98, 0.100, 0.600, -27.000, 428, 100, 100, 27, 23554, -20480, 5250, 5358, 18, 14, 1529356119.972, 95, 0, 1024, 1024, 1024, 1024, 0, 6, 3905, 3918, 3931, 3935, 3937, 3912, 0, 1, 12399, -90.000, 0.000, -28.100, 0.000, 0.000, -2.800, 0.0, , , , , , 96, , , 17, 17, 17
37.0262648, -119.2351669, 21.300, 14:08:40.073, 13, 0.00, 0.15, 98, 0.100, 0.500, -26.900, 428, 100, 100, 27, 23554, -20480, 5250, 5358, 18, 14, 1529356120.073, 72, 0, 1024, 1024, 1024, 1024, 0, 6, 3905, 3918, 3931, 3935, 3937, 3912, 0, 1, 12500, -90.000, 0.000, -28.100, 0.000, 0.000, -2.700, 0.0, , , , , , 96, , , 17, 17, 17
37.0262648, -119.2351669, 21.600, 14:08:40.173, 13, 0.00, 0.16, 98, 0.100, 0.600, -26.800, 428, 100, 100, 27, 23554, -20480, 5250, 5358, 18, 14, 1529356120.173, 76, 0, 1024, 1024, 1024, 1024, 0, 6, 3905, 3918, 3931, 3935, 3937, 3912, 0, 1, 12600, -89.900, 0.000, -28.100, 0.000, 0.000, -2.700, 0.0, , , , , , 96, , , 17, 17, 17
37.0262648, -119.2351668, 21.800, 14:08:40.273, 13, 0.00, 0.16, 98, -0.100, 0.700, -26.800, 428, 100, 100, 27, 23554, -20480, 5250, 5358, 18, 14, 1529356120.273, 56, 0, 1024, 1024, 1024, 1024, 0, 6, 3905, 3918, 3931, 3935, 3937, 3912, 0, 1, 12700, -89.900, 0.000, -28.100, 0.000, 0.000, -2.700, 0.0, , , , , , 96, , , 17, 17, 17
37.0262649, -119.2351667, 22.400, 14:08:40.373, 13, 0.00, 0.17, 98, -1.000, 1.000, -27.000, 428, 100, 100, 27, 23554, -20480, 5250, 5358, 18, 14, 1529356120.373, 46, 0, 1024, 1024, 1024, 1024, 0, 6, 3905, 3918, 3931, 3935, 3937, 3912, 0, 1, 12800, -90.000, 0.000, -28.100, 0.000, 0.000, -2.800, 0.0, , , , , , 96, , , 17, 17, 17
37.0262649, -119.2351667, 22.400, 14:08:40.473, 13, 0.00, 0.17, 98, -1.000, 1.000, -27.000, 428, 100, 100, 27, 23554, -20480, 5250, 5358, 18, 14, 1529356120.473, 146, 0, 1024, 1024, 1024, 1024, 0, 6, 3905, 3918, 3931, 3935, 3937, 3912, 0, 1, 12900, -90.000, 0.000, -28.100, 0.000, 0.000, -2.800, 0.0, , , , , , 96, , , 17, 17, 17
37.0262650, -119.2351666, 23.000, 14:08:40.573, 13, 0.00, 0.18, 98, -1.400, 1.200, -27.400, 428, 100, 100, 27, 23554, -20480, 5250, 5358, 18, 14, 1529356120.573, 65, 0, 1024, 1024, 1024, 1024, 0, 6, 3905, 3918, 3931, 3935, 3937, 3912, 0, 1, 13000, -89.900, 0.000, -28.100, 0.000, 0.000, -3.000, 0.0, , , , , , 96, , , 17, 17, 17
37.0262651, -119.2351667, 23.300, 14:08:40.673, 13, 0.00, 0.18, 98, -1.200, 1.400, -27.500, 428, 100, 100, 27, 23541, -20051, 5250, 5358, 18, 14, 1529356120.673, 35, 0, 1024, 1024, 1024, 1024, 0, 6, 3914, 3919, 3921, 3928, 3950, 3907, 0, 1, 13100, -89.900, 0.000, -28.100, 0.000, 0.000, -3.000, 0.0, , , , , , 96, , , 17, 17, 17
37.0262651, -119.2351667, 23.600, 14:08:40.773, 13, 0.00, 0.19, 98, -0.900, 1.500, -27.500, 428, 100, 100, 27, 23541, -20051, 5250, 5358, 18, 14, 1529356120.773, 47, 0, 1024, 1024, 1024, 1024, 0, 6, 3914, 3919, 3921, 3928, 3950, 3907, 0, 1, 13200, -89.900, 0.000, -28.100, 0.000, 0.000, -3.000, 0.0, , , , , , 96, , , 17, 17, 17
37.0262652, -119.2351668, 23.900, 14:08:40.873, 13, 0.00, 0.19, 98, -0.800, 1.600, -27.600, 428, 100, 100, 27, 23541, -20051, 5250, 5358, 18, 14, 1529356120.873, 41, 0, 1024, 1024, 1024, 1024, 0, 6, 3914, 3919, 3921, 3928, 3950, 3907, 0, 1, 13300, -89.900, 0.000, -28.100, 0.000, 0.000, -2.900, 0.0, , , , , , 96, , , 17, 17, 17
37.0262652, -119.2351668, 24.200, 14:08:40.973, 13, 0.00, 0.20, 98, -0.600, 1.700, -27.500, 428, 100, 100, 27, 23541, -20051, 5250, 5358, 18, 14, 1529356120.973, 41, 0, 1024, 1024, 1024, 1024, 0, 6, 3914, 3919, 3921, 3928, 3950, 3907, 0, 1, 13400, -89.900, 0.000, -28.100, 0.000, 0.000, -3.000, 0.0, , , , , , 96, , , 17, 17, 17
37.0262653, -119.2351668, 24.500, 14:08:41.073, 13, 0.00, 0.20, 98, -0.700, 1.700, -27.400, 428, 100, 100, 27, 23541, -20051, 5250, 5358, 18, 14, 1529356121.073, 40, 0, 1024, 1024, 1024, 1024, 0, 6, 3914, 3919, 3921, 3928, 3950, 3907, 0, 1, 13500, -89.900, 0.000, -28.100, 0.000, 0.000, -2.900, 0.0, , , , , , 96, , , 17, 17, 17
37.0262653, -119.2351668, 24.800, 14:08:41.173, 13, 0.00, 0.21, 98, -0.900, 1.200, -27.300, 428, 100, 100, 27, 23541, -20051, 5250, 5358, 18, 14, 1529356121.173, 19, 0, 1024, 1024, 1024, 1024, 0, 6, 3914, 3919, 3921, 3928, 3950, 3907, 0, 1, 13600, -89.900, 0.000, -28.100, 0.000, 0.000, -2.800, 0.0, , , , , , 96, , , 17, 17, 17
37.0262653, -119.2351669, 25.100, 14:08:41.273, 13, 0.00, 0.21, 98, -0.900, 1.100, -27.100, 428, 100, 100, 27, 23541, -20051, 5250, 5358, 18, 14, 1529356121.273, 10, 0, 1024, 1024, 1024, 1024, 0, 6, 3914, 3919, 3921, 3928, 3950, 3907, 0, 1, 13700, -89.900, 0.000, -28.100, 0.000, 0.000, -2.800, 0.0, , , , , , 96, , , 17, 17, 17
37.0262653, -119.2351669, 25.400, 14:08:41.382, 13, 0.00, 0.21, 98, -0.600, 1.200, -26.900, 428, 100, 100, 27, 23541, -20051, 5250, 5358, 18, 14, 1529356121.382, 2, 0, 1024, 1024, 1024, 1024, 0, 6, 3914, 3919, 3921, 3928, 3950, 3907, 0, 1, 13809, -89.900, 0.000, -28.100, 0.000, 0.000, -2.800, 0.0, , , , , , 96, , , 17, 17, 17
37.0262653, -119.2351669, 25.600, 14:08:41.473, 13, 0.00, 0.21, 98, -0.300, 1.300, -26.800, 428, 100, 100, 27, 23541, -20051, 5250, 5358, 18, 14, 1529356121.473, 31, 0, 1024, 1024, 1024, 1024, 0, 6, 3914, 3919, 3921, 3928, 3950, 3907, 0, 1, 13900, -89.900, 0.000, -28.100, 0.000, 0.000, -2.800, 0.0, , , , , , 96, , , 17, 17, 17
37.0262652, -119.2351670, 25.900, 14:08:41.573, 13, 0.00, 0.21, 98, -0.100, 1.500, -26.800, 428, 100, 100, 27, 23452, -20709, 5250, 5358, 18, 14, 1529356121.573, 21, 0, 1024, 1024, 1024, 1024, 0, 6, 3914, 3919, 3921, 3928, 3950, 3907, 0, 1, 14000, -89.900, 0.000, -28.100, 0.000, 0.000, -2.800, 0.0, , , , , , 96, , , 17, 17, 17
37.0262652, -119.2351670, 26.200, 14:08:41.673, 13, 0.00, 0.21, 98, 0.000, 1.500, -26.900, 428, 100, 99, 27, 23452, -20709, 5250, 5358, 18, 14, 1529356121.673, 16, 0, 1024, 1024, 1024, 1024, 0, 6, 3914, 3919, 3921, 3928, 3950, 3907, 0, 1, 14100, -89.900, 0.000, -28.100, 0.000, 0.000, -2.800, 0.0, , , , , , 96, , , 17, 17, 17
37.0262652, -119.2351670, 26.500, 14:08:41.773, 13, 0.00, 0.21, 98, 0.000, 1.500, -27.000, 428, 100, 99, 27, 23452, -20709, 5250, 5358, 18, 14, 1529356121.773, 16, 0, 1024, 1024, 1024, 1024, 0, 6, 3914, 3919, 3921, 3928, 3950, 3907, 0, 1, 14200, -89.900, 0.000, -28.100, 0.000, 0.000, -2.900, 0.0, , , , , , 96, , , 17, 17, 17
37.0262652, -119.2351670, 26.800, 14:08:41.873, 13, 0.00, 0.20, 98, -0.300, 1.300, -27.100, 428, 100, 99, 27, 23452, -20709, 5250, 5358, 18, 14, 1529356121.873, 7, 0, 1024, 1024, 1024, 1024, 0, 6, 3914, 3919, 3921, 3928, 3950, 3907, 0, 1, 14300, -89.900, 0.000, -28.100, 0.000, 0.000, -2.900, 0.0, , , , , , 96, , , 17, 17, 17
37.0262652, -119.2351670, 26.800, 14:08:41.972, 13, 0.00, 0.20, 98, -0.300, 1.300, -27.100, 428, 100, 99, 27, 23452, -20709, 5250, 5358, 18, 14, 1529356121.972, 105, 0, 1024, 1024, 1024, 1024, 0, 6, 3914, 3919, 3921, 3928, 3950, 3907, 0, 1, 14399, -89.900, 0.000, -28.100, 0.000, 0.000, -2.900, 0.0, , , , , , 96, , , 17, 17, 17
37.0262652, -119.2351670, 27.400, 14:08:42.073, 13, 0.00, 0.20, 98, -0.800, 1.100, -27.300, 428, 100, 99, 27, 23452, -20709, 5250, 5358, 18, 14, 1529356122.073, 1, 0, 1024, 1024, 1024, 1024, 0, 6, 3914, 3919, 3921, 3928, 3950, 3907, 0, 1, 14500, -89.900, 0.000, -28.100, 0.000, 0.000, -2.900, 0.0, , , , , , 96, , , 17, 17, 17
37.0262652, -119.2351670, 27.400, 14:08:42.173, 13, 0.00, 0.20, 98, -0.800, 1.100, -27.300, 428, 100, 99, 27, 23452, -20709, 5250, 5358, 18, 14, 1529356122.173, 101, 0, 1024, 1024, 1024, 1024, 0, 6, 3903, 3915, 3919, 3915, 3939, 3916, 0, 1, 14600, -89.900, 0.000, -28.100, 0.000, 0.000, -2.900, 0.0, , , , , , 96, , , 17, 17, 17
37.0262653, -119.2351669, 27.700, 14:08:42.273, 13, 0.00, 0.21, 98, -1.100, 1.300, -27.400, 428, 100, 99, 27, 23452, -20709, 5250, 5358, 18, 14, 1529356122.273, 96, 0, 1024, 1024, 1024, 1024, 0, 6, 3903, 3915, 3919, 3915, 3939, 3916, 0, 1, 14700, -89.900, 0.000, -28.100, 0.000, 0.000, -2.900, 0.0, , , , , , 96, , , 17, 17, 17
37.0262653, -119.2351669, 28.000, 14:08:42.373, 13, 0.00, 0.21, 98, -1.200, 1.500, -27.400, 428, 100, 99, 27, 23452, -20709, 5250, 5358, 18, 14, 1529356122.373, 90, 0, 1024, 1024, 1024, 1024, 0, 6, 3903, 3915, 3919, 3915, 3939, 3916, 0, 1, 14800, -89.900, 0.000, -28.100, 0.000, 0.000, -2.900, 0.0, , , , , , 96, , , 17, 17, 17
37.0262653, -119.2351669, 28.300, 14:08:42.473, 13, 0.00, 0.21, 98, -1.200, 1.600, -27.400, 428, 100, 99, 27, 23452, -20709, 5250, 5358, 18, 14, 1529356122.473, 43, 0, 1024, 1024, 1024, 1024, 0, 6, 3903, 3915, 3919, 3915, 3939, 3916, 0, 1, 14900, -89.900, 0.000, -28.100, 0.000, 0.000, -3.000, 0.0, , , , , , 96, , , 17, 17, 17
37.0262654, -119.2351669, 28.900, 14:08:42.573, 13, 0.00, 0.22, 98, -1.500, 1.800, -27.400, 428, 100, 99, 27, 23452, -20709, 5250, 5358, 18, 14, 1529356122.573, 58, 0, 1024, 1024, 1024, 1024, 0, 6, 3903, 3915, 3919, 3915, 3939, 3916, 0, 1, 15000, -89.900, 0.000, -28.100, 0.000, 0.000, -2.900, 0.0, , , , , , 96, , , 17, 17, 17
37.0262654, -119.2351669, 29.200, 14:08:42.673, 13, 0.00, 0.22, 98, -1.200, 2.000, -27.500, 428, 100, 99, 27, 23452, -20709, 5250, 5358, 18, 14, 1529356122.673, 75, 0, 1024, 1024, 1024, 1024, 0, 6, 3903, 3915, 3919, 3915, 3939, 3916, 0, 1, 15100, -89.900, 0.000, -28.100, 0.000, 0.000, -3.000, 0.0, , , , , , 96, , , 17, 17, 17
37.0262654, -119.2351669, 29.500, 14:08:42.772, 13, 0.00, 0.22, 98, -1.300, 2.100, -27.500, 428, 100, 99, 27, 23452, -20709, 5250, 5358, 18, 14, 1529356122.773, 67, 0, 1024, 1024, 1024, 1024, 0, 6, 3903, 3915, 3919, 3915, 3939, 3916, 0, 1, 15199, -89.900, 0.000, -28.100, 0.000, 0.000, -2.900, 0.0, , , , , , 96, , , 17, 17, 17
37.0262655, -119.2351669, 29.800, 14:08:42.873, 13, 0.00, 0.23, 98, -1.500, 2.300, -27.500, 428, 100, 99, 27, 23452, -20709, 5250, 5358, 18, 14, 1529356122.873, 56, 0, 1024, 1024, 1024, 1024, 0, 6, 3903, 3915, 3919, 3915, 3939, 3916, 0, 1, 15300, -89.900, 0.000, -28.100, 0.000, 0.000, -3.000, 0.0, , , , , , 96, , , 17, 17, 17
37.0262655, -119.2351668, 30.100, 14:08:42.973, 13, 0.00, 0.23, 98, -1.700, 2.200, -27.400, 428, 100, 99, 27, 23452, -20709, 5250, 5358, 18, 14, 1529356122.973, 47, 0, 1024, 1024, 1024, 1024, 0, 6, 3903, 3915, 3919, 3915, 3939, 3916, 0, 1, 15400, -89.900, 0.000, -28.100, 0.000, 0.000, -2.900, 0.0, , , , , , 96, , , 17, 17, 17
37.0262655, -119.2351667, 30.400, 14:08:43.073, 13, 0.00, 0.23, 98, -1.800, 2.100, -27.400, 428, 100, 99, 27, 23454, -20387, 5250, 5358, 18, 14, 1529356123.073, 23, 0, 1024, 1024, 1024, 1024, 0, 6, 3895, 3902, 3912, 3908, 3927, 3896, 0, 1, 15500, -89.900, 0.000, -28.100, 0.000, 0.000, -2.900, 0.0, , , , , , 96, , , 17, 17, 17
37.0262655, -119.2351666, 30.700, 14:08:43.173, 13, 0.00, 0.23, 98, -1.900, 2.000, -27.400, 428, 100, 100, 27, 23454, -20387, 5250, 5358, 18, 14, 1529356123.173, 16, 0, 1024, 1024, 1024, 1024, 0, 6, 3895, 3902, 3912, 3908, 3927, 3896, 0, 1, 15600, -89.900, 0.000, -28.100, 0.000, 0.000, -2.800, 0.0, , , , , , 96, , , 17, 17, 17
37.0262655, -119.2351666, 31.000, 14:08:43.273, 13, 0.00, 0.22, 98, -1.800, 1.700, -27.200, 428, 100, 100, 27, 23454, -20387, 5250, 5358, 18, 14, 1529356123.273, 29, 0, 1024, 1024, 1024, 1024, 0, 6, 3895, 3902, 3912, 3908, 3927, 3896, 0, 1, 15700, -90.000, 0.000, -28.100, 0.000, 0.000, -2.900, 0.0, , , , , , 96, , , 17, 17, 17
37.0262654, -119.2351665, 31.300, 14:08:43.381, 13, 0.00, 0.22, 98, -1.800, 1.300, -27.100, 428, 100, 100, 27, 23454, -20387, 5250, 5358, 18, 14, 1529356123.381, 2, 0, 1024, 1024, 1024, 1024, 0, 6, 3895, 3902, 3912, 3908, 3927, 3896, 0, 1, 15808, -90.000, 0.000, -28.100, 0.000, 0.000, -3.000, 0.0, , , , , , 96, , , 17, 17, 17
37.0262654, -119.2351665, 31.600, 14:08:43.473, 13, 0.00, 0.21, 98, -1.700, 0.900, -27.100, 428, 100, 100, 27, 23454, -20387, 5250, 5358, 18, 14, 1529356123.473, 11, 0, 1024, 1024, 1024, 1024, 0, 6, 3895, 3902, 3912, 3908, 3927, 3896, 0, 1, 15900, -90.000, 0.000, -28.100, 0.000, 0.000, -3.000, 0.0, , , , , , 96, , , 17, 17, 17
37.0262653, -119.2351664, 32.000, 14:08:43.573, 13, 0.00, 0.20, 98, -1.900, 0.900, -27.000, 428, 100, 100, 27, 23454, -20387, 5250, 5358, 18, 14, 1529356123.573, 11, 0, 1024, 1024, 1024, 1024, 0, 6, 3895, 3902, 3912, 3908, 3927, 3896, 0, 1, 16000, -90.000, 0.000, -28.100, 0.000, 0.000, -3.100, 0.0, , , , , , 96, , , 17, 17, 17
37.0262652, -119.2351663, 32.300, 14:08:43.673, 13, 0.10, 0.20, 98, -1.900, 0.600, -27.000, 428, 100, 100, 27, 23454, -20387, 5250, 5358, 18, 14, 1529356123.673, 3, 0, 1024, 1024, 1024, 1024, 0, 6, 3895, 3902, 3912, 3908, 3927, 3896, 0, 1, 16100, -90.000, 0.000, -28.100, 0.000, 0.100, -3.100, 0.0, , , , , , 96, , , 17, 17, 17
37.0262652, -119.2351663, 32.300, 14:08:43.773, 13, 0.10, 0.20, 98, -1.900, 0.600, -27.000, 428, 100, 100, 27, 23454, -20387, 5250, 5358, 18, 14, 1529356123.773, 104, 0, 1024, 1024, 1024, 1024, 0, 6, 3895, 3902, 3912, 3908, 3927, 3896, 0, 1, 16200, -90.000, 0.000, -28.100, 0.000, 0.100, -3.100, 0.0, , , , , , 96, , , 17, 17, 17
37.0262652, -119.2351662, 32.700, 14:08:43.872, 13, 0.10, 0.19, 98, -1.900, 0.100, -27.000, 428, 100, 100, 27, 23454, -20387, 5250, 5358, 18, 14, 1529356123.872, 73, 0, 1024, 1024, 1024, 1024, 0, 6, 3895, 3902, 3912, 3908, 3927, 3896, 0, 1, 16299, -90.000, 0.000, -28.100, 0.000, 0.100, -3.000, 0.0, , , , , , 96, , , 17, 17, 17
37.0262652, -119.2351661, 33.000, 14:08:43.973, 13, 0.10, 0.19, 98, -2.100, 0.000, -27.100, 428, 100, 100, 27, 23454, -20387, 5250, 5358, 18, 14, 1529356123.973, 78, 0, 1024, 1024, 1024, 1024, 0, 6, 3895, 3902, 3912, 3908, 3927, 3896, 0, 1, 16400, -90.000, 0.000, -28.100, 0.000, 0.100, -3.000, 0.0, , , , , , 96, , , 17, 17, 17
37.0262652, -119.2351660, 33.300, 14:08:44.073, 13, 0.10, 0.19, 98, -2.400, 0.000, -27.000, 428, 100, 100, 27, 23454, -20387, 5250, 5358, 18, 14, 1529356124.073, 71, 0, 1024, 1024, 1024, 1024, 0, 6, 3895, 3902, 3912, 3908, 3927, 3896, 0, 1, 16500, -90.000, 0.000, -28.100, 0.000, 0.100, -3.000, 0.0, , , , , , 96, , , 17, 17, 17
37.0262651, -119.2351659, 33.700, 14:08:44.173, 13, 0.10, 0.19, 98, -2.000, 0.000, -26.800, 428, 100, 100, 27, 23431, -20226, 5250, 5358, 18, 14, 1529356124.173, 76, 0, 1024, 1024, 1024, 1024, 0, 6, 3883, 3896, 3912, 3909, 3929, 3895, 0, 1, 16600, -90.000, 0.000, -28.100, 0.000, 0.100, -2.900, 0.0, , , , , , 96, , , 17, 17, 17
37.0262651, -119.2351657, 34.000, 14:08:44.273, 13, 0.10, 0.19, 98, -2.300, 0.100, -26.500, 428, 100, 100, 27, 23431, -20226, 5250, 5358, 18, 14, 1529356124.273, 77, 0, 1024, 1024, 1024, 1024, 0, 6, 3883, 3896, 3912, 3909, 3929, 3895, 0, 1, 16700, -90.000, 0.000, -28.100, 0.000, 0.100, -2.800, 0.0, , , , , , 96, , , 17, 17, 17
37.0262652, -119.2351656, 34.300, 14:08:44.373, 13, 0.10, 0.20, 98, -2.700, 0.300, -26.100, 428, 100, 100, 27, 23431, -20226, 5250, 5358, 18, 14, 1529356124.373, 81, 0, 1024, 1024, 1024, 1024, 0, 6, 3883, 3896, 3912, 3909, 3929, 3895, 0, 1, 16800, -89.900, 0.000, -28.100, 0.000, 0.100, -2.800, 0.0, , , , , , 96, , , 17, 17, 17
37.0262652, -119.2351654, 34.600, 14:08:44.473, 13, 0.10, 0.20, 98, -3.200, 0.500, -25.900, 428, 100, 100, 27, 23431, -20226, 5250, 5358, 18, 14, 1529356124.473, 62, 0, 1024, 1024, 1024, 1024, 0, 6, 3883, 3896, 3912, 3909, 3929, 3895, 0, 1, 16900, -89.900, 0.000, -28.100, 0.000, 0.100, -2.800, 0.0, , , , , , 96, , , 17, 17, 17
37.0262652, -119.2351650, 35.100, 14:08:44.573, 13, 0.10, 0.22, 98, -4.000, 0.600, -26.300, 428, 100, 100, 27, 23431, -20226, 5250, 5358, 18, 14, 1529356124.573, 60, 0, 1024, 1024, 1024, 1024, 0, 6, 3883, 3896, 3912, 3909, 3929, 3895, 0, 1, 17000, -90.000, 0.000, -28.100, 0.000, 0.100, -2.600, 0.0, , , , , , 96, , , 17, 17, 17
37.0262652, -119.2351650, 35.100, 14:08:44.673, 13, 0.10, 0.22, 98, -4.000, 0.600, -26.300, 428, 100, 100, 27, 23431, -20226, 5250, 5358, 18, 14, 1529356124.673, 160, 0, 1024, 1024, 1024, 1024, 0, 6, 3883, 3896, 3912, 3909, 3929, 3895, 0, 1, 17100, -90.000, 0.000, -28.100, 0.000, 0.100, -2.600, 0.0, , , , , , 96, , , 17, 17, 17
37.0262652, -119.2351647, 35.700, 14:08:44.772, 13, 0.10, 0.24, 98, -3.800, 0.400, -26.900, 428, 100, 99, 27, 23431, -20226, 5250, 5358, 18, 14, 1529356124.772, 55, 0, 1024, 1024, 1024, 1024, 0, 6, 3883, 3896, 3912, 3909, 3929, 3895, 0, 1, 17199, -90.000, 0.000, -28.100, 0.000, 0.100, -2.600, 0.0, , , , , , 96, , , 17, 17, 17
37.0262652, -119.2351645, 35.900, 14:08:44.873, 13, 0.10, 0.25, 98, -4.100, 0.100, -27.100, 428, 100, 99, 27, 23431, -20226, 5250, 5358, 18, 14, 1529356124.873, 36, 0, 1024, 1024, 1024, 1024, 0, 6, 3883, 3896, 3912, 3909, 3929, 3895, 0, 1, 17300, -90.000, 0.000, -28.100, 0.000, 0.100, -2.700, 0.0, , , , , , 96, , , 17, 17, 17
37.0262652, -119.2351644, 36.200, 14:08:44.973, 14, 0.00, 0.25, 98, -4.200, 0.000, -27.300, 428, 100, 99, 27, 23431, -20226, 5250, 5358, 18, 14, 1529356124.973, 24, 0, 1024, 1024, 1024, 1024, 0, 6, 3883, 3896, 3912, 3909, 3929, 3895, 0, 1, 17400, -90.000, 0.000, -28.100, 0.000, 0.000, -2.700, 0.0, , , , , , 96, , , 17, 17, 17
37.0262652, -119.2351644, 36.500, 14:08:45.073, 14, 0.00, 0.26, 98, -4.200, 0.000, -27.500, 428, 100, 99, 27, 23431, -20226, 5250, 5358, 18, 14, 1529356125.073, 49, 0, 1024, 1024, 1024, 1024, 0, 6, 3883, 3896, 3912, 3909, 3929, 3895, 0, 1, 17500, -89.900, 0.000, -28.100, 0.000, 0.000, -2.800, 0.0, , , , , , 96, , , 17, 17, 17
37.0262652, -119.2351644, 36.800, 14:08:45.173, 14, 0.00, 0.26, 98, -3.900, 0.000, -27.600, 428, 100, 98, 27, 23492, -19642, 5197, 5358, 18, 14, 1529356125.173, 51, 0, 1024, 1024, 1024, 1024, 0, 6, 3903, 3908, 3910, 3920, 3931, 3904, 0, 1, 17600, -89.900, 0.000, -28.100, 0.000, 0.000, -2.800, 0.0, , , , , , 96, , , 17, 17, 17
37.0262652, -119.2351644, 37.100, 14:08:45.273, 14, 0.00, 0.26, 98, -3.500, 0.100, -27.700, 428, 100, 98, 27, 23492, -19642, 5197, 5358, 18, 14, 1529356125.273, 44, 0, 1024, 1024, 1024, 1024, 0, 6, 3903, 3908, 3910, 3920, 3931, 3904, 0, 1, 17700, -89.900, 0.000, -28.100, 0.000, 0.000, -2.700, 0.0, , , , , , 96, , , 17, 17, 17
37.0262652, -119.2351644, 37.300, 14:08:45.373, 14, 0.00, 0.25, 98, -2.900, 0.000, -27.600, 428, 100, 98, 27, 23492, -19642, 5197, 5358, 18, 14, 1529356125.373, 23, 0, 1024, 1024, 1024, 1024, 0, 6, 3903, 3908, 3910, 3920, 3931, 3904, 0, 1, 17800, -89.900, 0.000, -28.100, 0.000, 0.000, -2.800, 0.0, , , , , , 96, , , 17, 17, 17
37.0262651, -119.2351644, 37.600, 14:08:45.473, 14, 0.00, 0.25, 98, -2.900, 0.100, -27.700, 428, 100, 98, 27, 23492, -19642, 5197, 5358, 18, 14, 1529356125.473, 13, 0, 1024, 1024, 1024, 1024, 0, 6, 3903, 3908, 3910, 3920, 3931, 3904, 0, 1, 17900, -90.000, 0.000, -28.100, 0.000, 0.000, -2.800, 0.0, , , , , , 96, , , 17, 17, 17
37.0262651, -119.2351645, 37.900, 14:08:45.573, 14, 0.00, 0.24, 98, -2.900, -0.100, -27.600, 428, 100, 98, 27, 23492, -19642, 5197, 5358, 18, 14, 1529356125.573, 17, 0, 1024, 1024, 1024, 1024, 0, 6, 3903, 3908, 3910, 3920, 3931, 3904, 0, 1, 18000, -90.000, 0.000, -28.100, 0.000, 0.000, -2.900, 0.0, , , , , , 96, , , 17, 17, 17
37.0262650, -119.2351645, 38.200, 14:08:45.673, 14, 0.10, 0.23, 98, -2.500, -0.700, -27.400, 428, 100, 98, 27, 23492, -19642, 5197, 5358, 18, 14, 1529356125.673, 10, 0, 1024, 1024, 1024, 1024, 0, 6, 3903, 3908, 3910, 3920, 3931, 3904, 0, 1, 18100, -90.000, 0.000, -28.100, -0.100, 0.000, -2.900, 0.0, , , , , , 96, , , 17, 17, 17
37.0262649, -119.2351646, 38.500, 14:08:45.773, 14, 0.10, 0.22, 98, -1.800, -1.400, -27.200, 428, 100, 98, 27, 23492, -19642, 5197, 5358, 18, 14, 1529356125.773, 13, 0, 1024, 1024, 1024, 1024, 0, 6, 3903, 3908, 3910, 3920, 3931, 3904, 0, 1, 18200, -90.000, 0.000, -28.100, -0.100, 0.000, -2.900, 0.0, , , , , , 96, , , 17, 17, 17
37.0262649, -119.2351646, 38.800, 14:08:45.873, 14, 0.10, 0.21, 98, -1.200, -1.700, -27.100, 428, 100, 98, 27, 23492, -19642, 5197, 5358, 18, 14, 1529356125.873, 14, 0, 1024, 1024, 1024, 1024, 0, 6, 3903, 3908, 3910, 3920, 3931, 3904, 0, 1, 18300, -90.000, 0.000, -28.100, -0.100, 0.000, -2.900, 0.0, , , , , , 96, , , 17, 17, 17
37.0262648, -119.2351647, 39.100, 14:08:45.972, 14, 0.10, 0.20, 98, -1.000, -1.600, -27.000, 428, 100, 98, 27, 23492, -19642, 5197, 5358, 18, 14, 1529356125.972, 2, 0, 1024, 1024, 1024, 1024, 0, 6, 3903, 3908, 3910, 3920, 3931, 3904, 0, 1, 18399, -89.900, 0.000, -28.100, -0.100, 0.000, -2.900, 0.0, , , , , , 96, , , 17, 17, 17
37.0262647, -119.2351648, 39.400, 14:08:46.073, 14, 0.10, 0.19, 97, -0.800, -1.500, -26.800, 428, 100, 98, 27, 23267, -21782, 5197, 5358, 18, 14, 1529356126.073, 5, 0, 1024, 1024, 1024, 1024, 0, 6, 3859, 3875, 3877, 3884, 3905, 3867, 0, 1, 18500, -89.900, 0.000, -28.100, -0.100, 0.000, -2.800, 0.0, , , , , , 96, , , 17, 17, 17
37.0262647, -119.2351648, 39.400, 14:08:46.173, 14, 0.10, 0.19, 97, -0.800, -1.500, -26.800, 428, 100, 98, 27, 23267, -21782, 5197, 5358, 18, 14, 1529356126.173, 105, 0, 1024, 1024, 1024, 1024, 0, 6, 3859, 3875, 3877, 3884, 3905, 3867, 0, 1, 18600, -89.900, 0.000, -28.100, -0.100, 0.000, -2.800, 0.0, , , , , , 96, , , 17, 17, 17
37.0262646, -119.2351649, 39.600, 14:08:46.273, 14, 0.10, 0.18, 97, -0.700, -1.100, -26.700, 428, 100, 99, 27, 23267, -21782, 5197, 5358, 18, 14, 1529356126.273, 78, 0, 1024, 1024, 1024, 1024, 0, 6, 3859, 3875, 3877, 3884, 3905, 3867, 0, 1, 18700, -89.900, 0.000, -28.100, -0.100, 0.000, -2.800, 0.0, , , , , , 96, , , 17, 17, 17
37.0262645, -119.2351650, 39.900, 14:08:46.373, 14, 0.10, 0.16, 97, -0.800, -0.800, -26.700, 428, 100, 99, 27, 23267, -21782, 5197, 5358, 18, 14, 1529356126.373, 94, 0, 1024, 1024, 1024, 1024, 0, 6, 3859, 3875, 3877, 3884, 3905, 3867, 0, 1, 18800, -89.900, 0.000, -28.100, -0.100, 0.000, -2.900, 0.0, , , , , , 96, , , 17, 17, 17
37.0262644, -119.2351651, 40.200, 14:08:46.473, 14, 0.10, 0.15, 97, -0.500, -1.300, -26.800, 428, 100, 99, 27, 23267, -21782, 5197, 5358, 18, 14, 1529356126.473, 70, 0, 1024, 1024, 1024, 1024, 0, 6, 3859, 3875, 3877, 3884, 3905, 3867, 0, 1, 18900, -89.900, 0.000, -28.100, -0.100, 0.000, -2.900, 0.0, , , , , , 96, , , 17, 17, 17
37.0262644, -119.2351653, 40.500, 14:08:46.573, 14, 0.10, 0.13, 97, 0.200, -1.300, -26.800, 428, 100, 99, 27, 23267, -21782, 5197, 5358, 18, 14, 1529356126.573, 76, 0, 1024, 1024, 1024, 1024, 0, 6, 3859, 3875, 3877, 3884, 3905, 3867, 0, 1, 19000, -89.900, 0.000, -28.100, -0.100, 0.000, -2.900, 0.0, , , , , , 96, , , 17, 17, 17
37.0262643, -119.2351653, 40.800, 14:08:46.673, 14, 0.10, 0.12, 97, 0.300, -1.200, -26.600, 428, 100, 99, 27, 23267, -21782, 5197, 5358, 18, 14, 1529356126.673, 77, 0, 1024, 1024, 1024, 1024, 0, 6, 3859, 3875, 3877, 3884, 3905, 3867, 0, 1, 19100, -89.900, 0.000, -28.100, -0.100, 0.000, -2.900, 0.0, , , , , , 96, , , 17, 17, 17
37.0262641, -119.2351655, 41.400, 14:08:46.772, 14, 0.00, 0.10, 97, 0.100, -1.200, -26.500, 428, 100, 98, 27, 23267, -21782, 5197, 5358, 18, 14, 1529356126.772, 67, 0, 1024, 1024, 1024, 1024, 0, 6, 3859, 3875, 3877, 3884, 3905, 3867, 0, 1, 19199, -89.900, 0.000, -28.100, 0.000, 0.000, -2.900, 0.0, , , , , , 96, , , 17, 17, 17
37.0262641, -119.2351655, 41.400, 14:08:46.873, 14, 0.00, 0.10, 97, 0.100, -1.200, -26.500, 428, 100, 98, 27, 23267, -21782, 5197, 5358, 18, 14, 1529356126.873, 168, 0, 1024, 1024, 1024, 1024, 0, 6, 3859, 3875, 3877, 3884, 3905, 3867, 0, 1, 19300, -89.900, 0.000, -28.100, 0.000, 0.000, -2.900, 0.0, , , , , , 96, , , 17, 17, 17
37.0262640, -119.2351656, 42.000, 14:08:46.972, 14, 0.00, 0.08, 97, -0.200, -1.100, -26.600, 428, 100, 98, 27, 23267, -21782, 5197, 5358, 18, 14, 1529356126.973, 55, 0, 1024, 1024, 1024, 1024, 0, 6, 3859, 3875, 3877, 3884, 3905, 3867, 0, 1, 19399, -90.000, 0.000, -28.100, 0.000, 0.000, -2.900, 0.0, , , , , , 96, , , 17, 17, 17
37.0262640, -119.2351656, 42.000, 14:08:47.072, 14, 0.00, 0.08, 97, -0.200, -1.100, -26.600, 428, 100, 98, 27, 23267, -21782, 5197, 5358, 18, 14, 1529356127.073, 155, 0, 1024, 1024, 1024, 1024, 0, 6, 3859, 3875, 3877, 3884, 3905, 3867, 0, 1, 19500, -90.000, 0.000, -28.100, 0.000, 0.000, -2.900, 0.0, , , , , , 96, , , 17, 17, 17
37.0262638, -119.2351656, 42.500, 14:08:47.172, 14, 0.00, 0.07, 97, -0.900, -2.100, -27.000, 428, 100, 98, 27, 23208, -21834, 5197, 5358, 18, 14, 1529356127.173, 56, 0, 1024, 1024, 1024, 1024, 0, 6, 3859, 3875, 3877, 3884, 3905, 3867, 0, 1, 19600, -90.000, 0.000, -28.100, 0.000, 0.000, -3.000, 0.0, , , , , , 96, , , 17, 17, 17
37.0262637, -119.2351656, 42.800, 14:08:47.272, 14, 0.00, 0.07, 97, -1.300, -2.400, -27.200, 428, 100, 98, 27, 23208, -21834, 5197, 5358, 18, 14, 1529356127.273, 52, 0, 1024, 1024, 1024, 1024, 0, 6, 3859, 3875, 3877, 3884, 3905, 3867, 0, 1, 19700, -90.000, 0.000, -28.100, 0.000, 0.000, -3.000, 0.0, , , , , , 96, , , 17, 17, 17
37.0262636, -119.2351656, 43.100, 14:08:47.372, 14, 0.00, 0.06, 97, -0.900, -2.700, -27.500, 428, 100, 98, 27, 23208, -21834, 5197, 5358, 18, 14, 1529356127.373, 47, 0, 1024, 1024, 1024, 1024, 0, 6, 3859, 3875, 3877, 3884, 3905, 3867, 0, 1, 19800, -90.000, 0.000, -28.100, 0.000, 0.000, -3.100, 0.0, , , , , , 96, , , 17, 17, 17
37.0262635, -119.2351657, 43.500, 14:08:47.472, 14, 0.00, 0.05, 97, -0.300, -2.600, -27.700, 428, 100, 98, 27, 23208, -21834, 5197, 5358, 18, 14, 1529356127.473, 58, 0, 1024, 1024, 1024, 1024, 0, 6, 3859, 3875, 3877, 3884, 3905, 3867, 0, 1, 19900, -90.000, 0.000, -28.100, 0.000, 0.000, -3.200, 0.0, , , , , , 96, , , 17, 17, 17
37.0262634, -119.2351658, 43.800, 14:08:47.572, 14, 0.00, 0.04, 97, -0.200, -2.200, -27.700, 428, 100, 98, 27, 23208, -21834, 5197, 5358, 18, 14, 1529356127.573, 34, 0, 1024, 1024, 1024, 1024, 0, 6, 3859, 3875, 3877, 3884, 3905, 3867, 0, 1, 20000, -89.900, 0.000, -28.100, 0.000, 0.000, -3.200, 0.0, , , , , , 96, , , 17, 17, 17
37.0262634, -119.2351660, 44.100, 14:08:47.672, 14, 0.00, 0.03, 97, 0.100, -1.800, -27.600, 428, 100, 98, 27, 23208, -21834, 5197, 5358, 18, 14, 1529356127.673, 26, 0, 1024, 1024, 1024, 1024, 0, 6, 3853, 3864, 3862, 3869, 3878, 3853, 0, 1, 20100, -89.900, 0.000, -28.100, 0.000, 0.000, -3.000, 0.0, , , , , , 96, , , 17, 17, 17
37.0262633, -119.2351661, 44.400, 14:08:47.772, 14, 0.00, 0.02, 97, 0.100, -1.500, -27.400, 428, 100, 98, 27, 23208, -21834, 5197, 5358, 18, 14, 1529356127.773, 31, 0, 1024, 1024, 1024, 1024, 0, 6, 3853, 3864, 3862, 3869, 3878, 3853, 0, 1, 20200, -89.900, 0.000, -28.100, 0.000, 0.000, -3.000, 0.0, , , , , , 96, , , 17, 17, 17
37.0262633, -119.2351663, 44.700, 14:08:47.872, 14, 0.00, 0.02, 97, 0.200, -1.400, -27.300, 428, 100, 98, 27, 23208, -21834, 5197, 5358, 18, 14, 1529356127.873, 33, 0, 1024, 1024, 1024, 1024, 0, 6, 3853, 3864, 3862, 3869, 3878, 3853, 0, 1, 20300, -89.900, 0.000, -28.100, 0.000, 0.000, -3.000, 0.0, , , , , , 96, , , 17, 17, 17
37.0262632, -119.2351664, 45.000, 14:08:47.973, 14, 0.00, 0.03, 97, 0.900, -1.200, -27.200, 428, 100, 98, 27, 23208, -21834, 5197, 5358, 18, 14, 1529356127.973, 2, 0, 1024, 1024, 1024, 1024, 0, 6, 3853, 3864, 3862, 3869, 3878, 3853, 0, 1, 20400, -89.900, 0.000, -28.100, 0.000, 0.000, -3.000, 0.0, , , , , , 96, , , 17, 17, 17
37.0262631, -119.2351665, 45.300, 14:08:48.072, 14, 0.00, 0.05, 97, 1.200, -1.400, -27.200, 428, 100, 98, 27, 23208, -21834, 5197, 5358, 18, 14, 1529356128.073, 4, 0, 1024, 1024, 1024, 1024, 0, 6, 3853, 3864, 3862, 3869, 3878, 3853, 0, 1, 20500, -89.900, 0.000, -28.100, 0.000, 0.000, -3.000, 0.0, , , , , , 96, , , 17, 17, 17
37.0262631, -119.2351667, 45.700, 14:08:48.172, 14, 0.00, 0.06, 97, 1.300, -1.600, -27.100, 428, 100, 99, 27, 23208, -21834, 5197, 5358, 18, 14, 1529356128.173, 6, 0, 1024, 1024, 1024, 1024, 0, 6, 3853, 3864, 3862, 3869, 3878, 3853, 0, 1, 20600, -89.900, 0.000, -28.100, 0.000, 0.000, -3.100, 0.0, , , , , , 96, , , 17, 17, 17
37.0262630, -119.2351668, 46.000, 14:08:48.272, 14, 0.00, 0.07, 97, 1.400, -1.800, -27.000, 428, 100, 99, 27, 23208, -21834, 5197, 5358, 18, 14, 1529356128.273, 6, 0, 1024, 1024, 1024, 1024, 0, 6, 3853, 3864, 3862, 3869, 3878, 3853, 0, 1, 20700, -90.000, 0.000, -28.100, 0.000, 0.000, -3.000, 0.0, , , , , , 96, , , 17, 17, 17
37.0262629, -119.2351669, 46.300, 14:08:48.381, 14, 0.00, 0.08, 97, 1.600, -1.600, -26.900, 428, 100, 99, 27, 23208, -21834, 5197, 5358, 18, 14, 1529356128.381, 2, 0, 1024, 1024, 1024, 1024, 0, 6, 3853, 3864, 3862, 3869, 3878, 3853, 0, 1, 20808, -89.900, 0.000, -28.100, 0.000, 0.000, -3.000, 0.0, , , , , , 96, , , 17, 17, 17
