Latitude, Longitude, Altitude (m), Time, Sats, Speed (m/s), Range (m), Battery (%), Roll (deg), Pitch (deg), Yaw (deg), Images, HD Signal (%), RC Signal (%), Battery Temp (C), Battery Voltage (mV), Battery Current (mA), Battery Energy (mAh), Battery Capacity (mAh), Battery Discharges, flyState, timestamp (Unix), LastUpdate (ms), radioChannel, Rc_elevator, Rc_aileron, Rc_throttle, Rc_rudder, Rc_gyro, Dronetype, Battery_Cell1 (mV), Battery_Cell2 (mV), Battery_Cell3 (mV), Battery_Cell4 (mV), Battery_Cell5 (mV), Battery_Cell6 (mV), Video, isFlying, elapsedTime (ms), gimbalPitch (deg), gimbalRoll (deg), gimbalYaw (deg), VelocityX (m/s), VelocityY (m/s), VelocityZ (m/s), GroundSmear (cm), App Version, Aircraft Name, Aircraft Firmware, Aircraft Serial Number, Battery Serial Number, Battery Lifetime (%), App_Tip, App_Warning, CurrentFlightStartingIndex, CurrentFlightLastVisitedWaypoint, PreviousFlightEndingWaypointIndex
37.0262327, -119.2351925, 0.000, 15:02:40.527, 10, 0.10, 0.05, 98, 1.300, 0.500, -22.500, 1614, 100, 100, 27, 25700, -2904, 4277, 4365, 9, 11, 1529359360.527, 21, 0, 1024, 1024, 1024, 1024, 0, 6, 4305, 4190, 4305, 4303, 4310, 4295, 0, 1, 2917, -90.000, 0.000, -24.600, 0.000, 0.100, -0.100, 0.0, MapPilot_2.8.1_04242018, Dendroctonus I, 1.3.1.00, 041DDC1887, 9971171300641, 98, DJI_0610.jpg, Starting Mission from Lat/Long: 37.02623/-119.23519 Camera: Zenmuse X3 - Overlap: 90/90 - Active Connection: No, 61, 61, 61
37.0262326, -119.2351923, 0.000, 15:02:40.611, 10, 0.14, 0.06, 98, 0.500, -0.200, -22.300, 1614, 100, 100, 27, 25700, -2904, 4277, 4365, 9, 11, 1529359360.611, 8, 0, 1024, 1024, 1024, 1024, 0, 6, 4305, 4190, 4305, 4303, 4310, 4295, 0, 1, 3001, -89.900, 0.000, -24.600, -0.100, 0.100, -0.300, 0.0, , , , , , 98, , , 61, 61, 61
37.0262326, -119.2351923, 0.000, 15:02:40.710, 10, 0.14, 0.06, 98, 0.500, -0.200, -22.300, 1614, 100, 100, 27, 25700, -2904, 4277, 4365, 9, 11, 1529359360.710, 108, 0, 1024, 1024, 1024, 1024, 0, 6, 4305, 4190, 4305, 4303, 4310, 4295, 0, 1, 3100, -89.900, 0.000, -24.600, -0.100, 0.100, -0.300, 0.0, , , , , , 98, , , 61, 61, 61
37.0262325, -119.2351921, 0.000, 15:02:40.811, 10, 0.10, 0.08, 98, 0.000, -0.600, -22.300, 1614, 100, 100, 27, 25638, -3332, 4277, 4365, 9, 11, 1529359360.811, 98, 0, 1024, 1024, 1024, 1024, 0, 6, 4284, 4276, 4258, 4252, 4240, 4255, 0, 1, 3201, -90.000, 0.000, -24.500, 0.000, 0.100, -0.300, 0.0, , , , , , 98, , , 61, 61, 61
37.0262324, -119.2351919, 0.100, 15:02:40.911, 10, 0.10, 0.10, 98, -0.200, -0.900, -22.300, 1614, 100, 100, 27, 25638, -3332, 4277, 4365, 9, 11, 1529359360.911, 91, 0, 1024, 1024, 1024, 1024, 0, 6, 4284, 4276, 4258, 4252, 4240, 4255, 0, 1, 3301, -90.000, 0.000, -24.500, 0.000, 0.100, -0.300, 0.0, , , , , , 98, , , 61, 61, 61
37.0262323, -119.2351917, 0.100, 15:02:41.011, 11, 0.10, 0.11, 98, -0.400, -0.900, -22.500, 1614, 100, 100, 27, 25638, -3332, 4277, 4365, 9, 11, 1529359361.011, 81, 0, 1024, 1024, 1024, 1024, 0, 6, 4284, 4276, 4258, 4252, 4240, 4255, 0, 1, 3401, -89.900, 0.000, -24.400, 0.000, 0.100, -0.300, 0.0, , , , , , 98, , , 61, 61, 61
37.0262322, -119.2351916, 0.100, 15:02:41.111, 11, 0.10, 0.13, 98, -0.500, -0.900, -22.600, 1614, 100, 100, 27, 25638, -3332, 4277, 4365, 9, 11, 1529359361.111, 81, 0, 1024, 1024, 1024, 1024, 0, 6, 4284, 4276, 4258, 4252, 4240, 4255, 0, 1, 3501, -90.000, 0.000, -24.400, 0.000, 0.100, -0.300, 0.0, , , , , , 98, , , 61, 61, 61
37.0262322, -119.2351915, 0.200, 15:02:41.211, 11, 0.10, 0.14, 98, -0.500, -0.800, -22.700, 1614, 100, 100, 27, 25638, -3332, 4277, 4365, 9, 11, 1529359361.211, 83, 0, 1024, 1024, 1024, 1024, 0, 6, 4284, 4276, 4258, 4252, 4240, 4255, 0, 1, 3601, -89.900, 0.000, -24.400, 0.000, 0.100, -0.300, 0.0, , , , , , 98, , , 61, 61, 61
37.0262321, -119.2351913, 0.200, 15:02:41.311, 11, 0.00, 0.15, 98, -0.400, -0.600, -22.600, 1614, 100, 100, 27, 25638, -3332, 4277, 4365, 9, 11, 1529359361.311, 87, 0, 1024, 1024, 1024, 1024, 0, 6, 4284, 4276, 4258, 4252, 4240, 4255, 0, 1, 3701, -89.900, 0.000, -24.300, 0.000, 0.000, -0.400, 0.0, , , , , , 98, , , 61, 61, 61
37.0262321, -119.2351912, 0.300, 15:02:41.411, 11, 0.00, 0.16, 98, -0.500, -0.400, -22.600, 1614, 100, 100, 27, 25638, -3332, 4277, 4365, 9, 11, 1529359361.411, 79, 0, 1024, 1024, 1024, 1024, 0, 6, 4284, 4276, 4258, 4252, 4240, 4255, 0, 1, 3801, -89.900, 0.000, -24.300, 0.000, 0.000, -0.400, 0.0, , , , , , 98, , , 61, 61, 61
37.0262321, -119.2351912, 0.300, 15:02:41.511, 11, 0.00, 0.16, 98, -0.700, -0.300, -22.500, 1614, 100, 100, 27, 25638, -3332, 4277, 4365, 9, 11, 1529359361.511, 70, 0, 1024, 1024, 1024, 1024, 0, 6, 4284, 4276, 4258, 4252, 4240, 4255, 0, 1, 3901, -89.900, 0.000, -24.300, 0.000, 0.000, -0.400, 0.0, , , , , , 98, , , 61, 61, 61
37.0262322, -119.2351912, 0.400, 15:02:41.611, 11, 0.00, 0.15, 98, -0.800, 0.000, -22.500, 1614, 100, 100, 27, 25638, -3332, 4277, 4365, 9, 11, 1529359361.611, 72, 0, 1024, 1024, 1024, 1024, 0, 6, 4284, 4276, 4258, 4252, 4240, 4255, 0, 1, 4001, -89.900, 0.000, -24.200, 0.000, 0.000, -0.400, 0.0, , , , , , 98, , , 61, 61, 61
37.0262322, -119.2351912, 0.400, 15:02:41.711, 11, 0.00, 0.15, 98, -0.700, 0.200, -22.600, 1614, 100, 100, 27, 25638, -3332, 4277, 4365, 9, 11, 1529359361.711, 49, 0, 1024, 1024, 1024, 1024, 0, 6, 4284, 4276, 4258, 4252, 4240, 4255, 0, 1, 4101, -89.900, 0.000, -24.200, 0.000, 0.000, -0.400, 0.0, , , , , , 98, , , 61, 61, 61
37.0262322, -119.2351913, 0.500, 15:02:41.811, 12, 0.00, 0.15, 98, -0.400, 0.300, -22.600, 1614, 100, 100, 27, 24853, -13495, 4277, 4365, 9, 11, 1529359361.811, 36, 0, 1024, 1024, 1024, 1024, 0, 6, 4148, 4150, 4142, 4138, 4131, 4145, 0, 1, 4201, -89.900, 0.000, -24.200, 0.000, 0.000, -0.400, 0.0, , , , , , 98, , , 61, 61, 61
37.0262322, -119.2351913, 0.500, 15:02:41.911, 12, 0.00, 0.14, 98, -0.100, 0.500, -22.700, 1614, 100, 100, 27, 24853, -13495, 4277, 4365, 9, 11, 1529359361.911, 57, 0, 1024, 1024, 1024, 1024, 0, 6, 4148, 4150, 4142, 4138, 4131, 4145, 0, 1, 4301, -89.900, 0.000, -24.200, 0.000, 0.000, -0.400, 0.0, , , , , , 98, , , 61, 61, 61
37.0262323, -119.2351914, 0.600, 15:02:42.011, 12, 0.00, 0.13, 98, 0.100, 0.600, -22.800, 1614, 100, 100, 27, 24853, -13495, 4277, 4365, 9, 11, 1529359362.011, 52, 0, 1024, 1024, 1024, 1024, 0, 6, 4148, 4150, 4142, 4138, 4131, 4145, 0, 1, 4401, -89.900, 0.000, -24.100, 0.000, 0.000, -0.400, 0.0, , , , , , 98, , , 61, 61, 61
37.0262322, -119.2351915, 0.600, 15:02:42.111, 12, 0.00, 0.13, 98, 0.200, 0.700, -22.900, 1614, 100, 100, 27, 24853, -13495, 4277, 4365, 9, 11, 1529359362.111, 33, 0, 1024, 1024, 1024, 1024, 0, 6, 4148, 4150, 4142, 4138, 4131, 4145, 0, 1, 4501, -89.900, 0.000, -24.100, 0.000, 0.000, -0.400, 0.0, , , , , , 98, , , 61, 61, 61
37.0262323, -119.2351916, 0.700, 15:02:42.211, 12, 0.00, 0.12, 98, 0.400, 0.500, -22.900, 1614, 100, 100, 27, 24853, -13495, 4277, 4365, 9, 11, 1529359362.211, 17, 0, 1024, 1024, 1024, 1024, 0, 6, 4148, 4150, 4142, 4138, 4131, 4145, 0, 1, 4601, -89.900, 0.000, -24.100, 0.000, 0.000, -0.400, 0.0, , , , , , 98, , , 61, 61, 61
37.0262323, -119.2351916, 0.700, 15:02:42.311, 12, 0.00, 0.12, 98, 0.400, 0.500, -22.900, 1614, 100, 100, 27, 24853, -13495, 4277, 4365, 9, 11, 1529359362.311, 117, 0, 1024, 1024, 1024, 1024, 0, 6, 4148, 4150, 4142, 4138, 4131, 4145, 0, 1, 4701, -89.900, 0.000, -24.100, 0.000, 0.000, -0.400, 0.0, , , , , , 98, , , 61, 61, 61
37.0262324, -119.2351917, 0.800, 15:02:42.411, 11, 0.00, 0.11, 98, 0.300, 0.700, -22.900, 1614, 100, 100, 27, 24853, -13495, 4277, 4365, 9, 11, 1529359362.411, 20, 0, 1024, 1024, 1024, 1024, 0, 6, 4148, 4150, 4142, 4138, 4131, 4145, 0, 1, 4801, -89.900, 0.000, -24.000, 0.000, 0.000, -0.400, 0.0, , , , , , 98, , , 61, 61, 61
37.0262324, -119.2351917, 0.900, 15:02:42.511, 12, 0.00, 0.10, 98, 0.100, 0.700, -22.800, 1614, 100, 100, 27, 24853, -13495, 4277, 4365, 9, 6, 1529359362.511, 19, 0, 1024, 1024, 1024, 1024, 0, 6, 4148, 4150, 4142, 4138, 4131, 4145, 0, 1, 4901, -89.900, 0.000, -24.000, 0.000, 0.000, -0.500, 0.0, , , , , , 98, , , 61, 61, 61
37.0262324, -119.2351918, 0.900, 15:02:42.611, 12, 0.00, 0.10, 98, 0.100, 0.700, -22.700, 1614, 100, 100, 27, 24853, -13495, 4277, 4365, 9, 14, 1529359362.611, 30, 0, 1024, 1024, 1024, 1024, 0, 6, 4148, 4150, 4142, 4138, 4131, 4145, 0, 1, 5001, -89.900, 0.000, -24.000, 0.000, 0.000, -0.300, 0.0, , , , , , 98, , , 61, 61, 61
37.0262325, -119.2351919, 1.000, 15:02:42.711, 12, 0.00, 0.09, 98, 0.100, 0.900, -22.700, 1614, 100, 100, 27, 24678, -14941, 4277, 4365, 9, 14, 1529359362.711, 25, 0, 1024, 1024, 1024, 1024, 0, 6, 4100, 4116, 4114, 4113, 4113, 4110, 0, 1, 5101, -89.900, 0.000, -24.000, 0.000, 0.000, -0.200, 0.0, , , , , , 98, , , 61, 61, 61
37.0262326, -119.2351919, 1.000, 15:02:42.810, 12, 0.00, 0.08, 98, 0.300, 1.000, -22.700, 1614, 100, 100, 27, 24678, -14941, 4277, 4365, 9, 14, 1529359362.811, 15, 0, 1024, 1024, 1024, 1024, 0, 6, 4100, 4116, 4114, 4113, 4113, 4110, 0, 1, 5201, -89.900, 0.000, -24.000, 0.000, 0.000, -0.200, 0.0, , , , , , 98, , , 61, 61, 61
37.0262326, -119.2351919, 1.000, 15:02:42.910, 11, 0.00, 0.07, 98, 0.200, 1.100, -22.700, 1614, 100, 100, 27, 24678, -14941, 4277, 4365, 9, 14, 1529359362.911, 30, 0, 1024, 1024, 1024, 1024, 0, 6, 4100, 4116, 4114, 4113, 4113, 4110, 0, 1, 5300, -89.900, 0.000, -24.000, 0.000, 0.000, -0.300, 0.0, , , , , , 98, , , 61, 61, 61
37.0262326, -119.2351920, 1.100, 15:02:43.010, 11, 0.00, 0.07, 98, 0.100, 1.200, -22.700, 1614, 100, 100, 27, 24678, -14941, 4277, 4365, 9, 14, 1529359363.011, 11, 0, 1024, 1024, 1024, 1024, 0, 6, 4100, 4116, 4114, 4113, 4113, 4110, 0, 1, 5401, -89.900, 0.000, -23.900, 0.000, 0.000, -0.400, 0.0, , , , , , 98, , , 61, 61, 61
37.0262326, -119.2351920, 1.100, 15:02:43.111, 11, 0.00, 0.07, 98, 0.000, 1.100, -22.700, 1614, 100, 100, 27, 24678, -14941, 4277, 4365, 9, 14, 1529359363.111, 11, 0, 1024, 1024, 1024, 1024, 0, 6, 4100, 4116, 4114, 4113, 4113, 4110, 0, 1, 5501, -89.900, 0.000, -23.900, 0.000, 0.000, -0.500, 0.0, , , , , , 98, , , 61, 61, 61
37.0262326, -119.2351921, 1.200, 15:02:43.210, 11, 0.00, 0.06, 98, 0.000, 1.000, -22.700, 1614, 100, 100, 27, 24678, -14941, 4277, 4365, 9, 14, 1529359363.211, 19, 0, 1024, 1024, 1024, 1024, 0, 6, 4100, 4116, 4114, 4113, 4113, 4110, 0, 1, 5600, -89.900, 0.000, -23.900, 0.000, 0.000, -0.700, 0.0, , , , , , 98, , , 61, 61, 61
37.0262326, -119.2351921, 1.200, 15:02:43.310, 11, 0.00, 0.06, 98, 0.000, 1.000, -22.700, 1614, 100, 100, 27, 24678, -14941, 4277, 4365, 9, 14, 1529359363.311, 119, 0, 1024, 1024, 1024, 1024, 0, 6, 4100, 4116, 4114, 4113, 4113, 4110, 0, 1, 5700, -89.900, 0.000, -23.900, 0.000, 0.000, -0.700, 0.0, , , , , , 98, , , 61, 61, 61
37.0262326, -119.2351922, 1.300, 15:02:43.410, 11, 0.00, 0.06, 98, 0.000, 0.900, -22.700, 1614, 100, 100, 27, 24678, -14941, 4277, 4365, 9, 14, 1529359363.411, 96, 0, 1024, 1024, 1024, 1024, 0, 6, 4100, 4116, 4114, 4113, 4113, 4110, 0, 1, 5800, -89.900, 0.000, -23.900, 0.000, 0.000, -0.900, 0.0, , , , , , 98, , , 61, 61, 61
37.0262327, -119.2351923, 1.400, 15:02:43.510, 11, 0.00, 0.06, 98, 0.300, 0.900, -22.600, 1614, 100, 100, 27, 24678, -14941, 4277, 4365, 9, 14, 1529359363.511, 80, 0, 1024, 1024, 1024, 1024, 0, 6, 4100, 4116, 4114, 4113, 4113, 4110, 0, 1, 5900, -89.900, 0.000, -23.900, 0.000, 0.000, -1.100, 0.0, , , , , , 98, , , 61, 61, 61
37.0262327, -119.2351924, 1.500, 15:02:43.610, 12, 0.00, 0.05, 98, 0.500, 0.900, -22.500, 1614, 100, 100, 27, 24678, -14941, 4277, 4365, 9, 14, 1529359363.611, 91, 0, 1024, 1024, 1024, 1024, 0, 6, 4100, 4116, 4114, 4113, 4113, 4110, 0, 1, 6001, -89.900, 0.000, -23.900, 0.000, 0.000, -1.300, 0.0, , , , , , 98, , , 61, 61, 61
37.0262326, -119.2351925, 1.700, 15:02:43.710, 12, 0.00, 0.06, 98, 0.700, 1.000, -22.400, 1614, 100, 100, 27, 24678, -14941, 4277, 4365, 9, 14, 1529359363.710, 91, 0, 1024, 1024, 1024, 1024, 0, 6, 4100, 4116, 4114, 4113, 4113, 4110, 0, 1, 6100, -89.900, 0.000, -23.800, 0.000, 0.000, -1.500, 0.0, , , , , , 98, , , 61, 61, 61
37.0262326, -119.2351926, 1.800, 15:02:43.810, 12, 0.00, 0.07, 98, 0.700, 1.000, -22.400, 1614, 100, 100, 27, 24628, -15422, 4277, 4365, 9, 14, 1529359363.810, 91, 0, 1024, 1024, 1024, 1024, 0, 6, 4095, 4109, 4094, 4100, 4084, 4154, 0, 1, 6200, -89.900, 0.000, -23.800, 0.000, 0.000, -1.700, 0.0, , , , , , 98, , , 61, 61, 61
37.0262327, -119.2351927, 2.000, 15:02:43.910, 12, 0.00, 0.06, 98, 0.600, 1.000, -22.500, 1614, 100, 100, 27, 24628, -15422, 4277, 4365, 9, 14, 1529359363.910, 81, 0, 1024, 1024, 1024, 1024, 0, 6, 4095, 4109, 4094, 4100, 4084, 4154, 0, 1, 6300, -89.900, 0.000, -23.800, 0.000, 0.000, -1.900, 0.0, , , , , , 98, , , 61, 61, 61
37.0262328, -119.2351928, 2.200, 15:02:44.010, 13, 0.00, 0.05, 98, 0.500, 1.300, -22.600, 1614, 100, 100, 27, 24628, -15422, 4277, 4365, 9, 14, 1529359364.011, 70, 0, 1024, 1024, 1024, 1024, 0, 6, 4095, 4109, 4094, 4100, 4084, 4154, 0, 1, 6400, -89.900, 0.000, -23.800, 0.000, 0.000, -2.100, 0.0, , , , , , 98, , , 61, 61, 61
37.0262328, -119.2351930, 2.500, 15:02:44.110, 13, 0.00, 0.06, 98, 0.200, 1.500, -22.700, 1614, 100, 100, 27, 24628, -15422, 4277, 4365, 9, 14, 1529359364.111, 35, 0, 1024, 1024, 1024, 1024, 0, 6, 4095, 4109, 4094, 4100, 4084, 4154, 0, 1, 6500, -89.900, 0.000, -23.800, 0.000, 0.000, -2.400, 0.0, , , , , , 98, , , 61, 61, 61
37.0262328, -119.2351932, 2.800, 15:02:44.210, 13, 0.00, 0.08, 98, 0.100, 1.600, -22.700, 1614, 100, 100, 27, 24628, -15422, 4277, 4365, 9, 14, 1529359364.210, 49, 0, 1024, 1024, 1024, 1024, 0, 6, 4095, 4109, 4094, 4100, 4084, 4154, 0, 1, 6600, -89.900, 0.000, -23.800, 0.000, 0.000, -2.600, 0.0, , , , , , 98, , , 61, 61, 61
37.0262328, -119.2351932, 3.000, 15:02:44.310, 13, 0.00, 0.08, 98, 0.200, 1.600, -22.700, 1614, 100, 100, 27, 24628, -15422, 4277, 4365, 9, 14, 1529359364.311, 52, 0, 1024, 1024, 1024, 1024, 0, 6, 4095, 4109, 4094, 4100, 4084, 4154, 0, 1, 6700, -89.900, 0.000, -23.800, 0.000, 0.000, -2.800, 0.0, , , , , , 98, , , 61, 61, 61
37.0262329, -119.2351933, 3.700, 15:02:44.410, 12, 0.00, 0.08, 98, 0.300, 1.300, -22.600, 1614, 100, 100, 27, 24628, -15422, 4277, 4365, 9, 14, 1529359364.411, 16, 0, 1024, 1024, 1024, 1024, 0, 6, 4095, 4109, 4094, 4100, 4084, 4154, 0, 1, 6800, -89.900, 0.000, -23.700, 0.000, 0.000, -3.000, 0.0, , , , , , 98, , , 61, 61, 61
37.0262329, -119.2351934, 4.000, 15:02:44.510, 12, 0.00, 0.09, 98, 0.500, 1.500, -22.600, 1614, 100, 100, 27, 24628, -15422, 4277, 4365, 9, 14, 1529359364.511, 44, 0, 1024, 1024, 1024, 1024, 0, 6, 4095, 4109, 4094, 4100, 4084, 4154, 0, 1, 6901, -89.900, 0.000, -23.700, 0.000, 0.000, -3.100, 0.0, , , , , , 98, , , 61, 61, 61
37.0262330, -119.2351934, 4.300, 15:02:44.610, 12, 0.00, 0.09, 98, 0.500, 1.700, -22.600, 1614, 100, 100, 27, 24628, -15422, 4277, 4365, 9, 14, 1529359364.611, 39, 0, 1024, 1024, 1024, 1024, 0, 6, 4095, 4109, 4094, 4100, 4084, 4154, 0, 1, 7001, -89.900, 0.000, -23.700, 0.000, 0.000, -3.100, 0.0, , , , , , 98, , , 61, 61, 61
37.0262331, -119.2351935, 4.700, 15:02:44.710, 12, 0.00, 0.09, 98, 0.600, 1.900, -22.700, 1614, 100, 100, 27, 24278, -19070, 4277, 4365, 9, 14, 1529359364.711, 22, 0, 1024, 1024, 1024, 1024, 0, 6, 4095, 4109, 4094, 4100, 4084, 4154, 0, 1, 7101, -89.900, 0.000, -23.700, 0.000, 0.000, -3.100, 0.0, , , , , , 98, , , 61, 61, 61
37.0262331, -119.2351936, 5.000, 15:02:44.810, 12, 0.00, 0.10, 98, 0.600, 2.100, -22.700, 1614, 100, 100, 27, 24278, -19070, 4277, 4365, 9, 14, 1529359364.811, 35, 0, 1024, 1024, 1024, 1024, 0, 6, 4095, 4109, 4094, 4100, 4084, 4154, 0, 1, 7200, -89.900, 0.000, -23.700, 0.000, 0.000, -3.100, 0.0, , , , , , 98, , , 61, 61, 61
37.0262332, -119.2351936, 5.300, 15:02:44.910, 12, 0.00, 0.11, 98, 0.500, 2.300, -22.800, 1614, 100, 100, 27, 24278, -19070, 4277, 4365, 9, 14, 1529359364.911, 29, 0, 1024, 1024, 1024, 1024, 0, 6, 4095, 4109, 4094, 4100, 4084, 4154, 0, 1, 7300, -89.900, 0.000, -23.700, 0.000, 0.000, -3.100, 0.0, , , , , , 98, , , 61, 61, 61
37.0262331, -119.2351936, 5.600, 15:02:45.010, 12, 0.00, 0.11, 98, 0.400, 2.000, -22.900, 1614, 100, 100, 27, 24278, -19070, 4277, 4365, 9, 14, 1529359365.010, 22, 0, 1024, 1024, 1024, 1024, 0, 6, 4095, 4109, 4094, 4100, 4084, 4154, 0, 1, 7400, -89.900, 0.000, -23.700, 0.000, 0.000, -3.100, 0.0, , , , , , 98, , , 61, 61, 61
37.0262331, -119.2351937, 6.000, 15:02:45.110, 11, 0.00, 0.11, 98, 0.600, 1.800, -23.000, 1614, 100, 100, 27, 24278, -19070, 4277, 4365, 9, 14, 1529359365.111, 15, 0, 1024, 1024, 1024, 1024, 0, 6, 4095, 4109, 4094, 4100, 4084, 4154, 0, 1, 7501, -89.900, 0.000, -23.700, 0.000, 0.000, -3.200, 0.0, , , , , , 98, , , 61, 61, 61
37.0262330, -119.2351937, 6.300, 15:02:45.210, 11, 0.00, 0.11, 98, 0.700, 1.500, -23.000, 1614, 100, 100, 27, 24278, -19070, 4277, 4365, 9, 14, 1529359365.210, 16, 0, 1024, 1024, 1024, 1024, 0, 6, 4029, 4027, 4021, 4022, 4040, 4044, 0, 1, 7600, -89.900, 0.000, -23.700, 0.000, 0.000, -3.100, 0.0, , , , , , 98, , , 61, 61, 61
37.0262330, -119.2351937, 6.300, 15:02:45.310, 11, 0.00, 0.11, 98, 0.700, 1.500, -23.000, 1614, 100, 100, 27, 24278, -19070, 4277, 4365, 9, 14, 1529359365.311, 116, 0, 1024, 1024, 1024, 1024, 0, 6, 4029, 4027, 4021, 4022, 4040, 4044, 0, 1, 7701, -89.900, 0.000, -23.700, 0.000, 0.000, -3.100, 0.0, , , , , , 98, , , 61, 61, 61
37.0262329, -119.2351937, 6.600, 15:02:45.410, 11, 0.00, 0.11, 98, 0.800, 1.400, -23.000, 1614, 100, 100, 27, 24278, -19070, 4277, 4365, 9, 14, 1529359365.411, 84, 0, 1024, 1024, 1024, 1024, 0, 6, 4029, 4027, 4021, 4022, 4040, 4044, 0, 1, 7801, -89.900, 0.000, -23.700, 0.000, 0.000, -3.100, 0.0, , , , , , 98, , , 61, 61, 61
37.0262329, -119.2351936, 7.000, 15:02:45.510, 11, 0.00, 0.11, 98, 0.800, 1.100, -22.900, 1614, 100, 100, 27, 24278, -19070, 4277, 4365, 9, 14, 1529359365.511, 81, 0, 1024, 1024, 1024, 1024, 0, 6, 4029, 4027, 4021, 4022, 4040, 4044, 0, 1, 7900, -89.900, 0.000, -23.700, 0.000, 0.000, -3.100, 0.0, , , , , , 98, , , 61, 61, 61
37.0262329, -119.2351935, 7.300, 15:02:45.610, 12, 0.00, 0.10, 98, 0.600, 1.200, -22.800, 1614, 100, 100, 27, 24278, -19070, 4277, 4365, 9, 14, 1529359365.611, 90, 0, 1024, 1024, 1024, 1024, 0, 6, 4029, 4027, 4021, 4022, 4040, 4044, 0, 1, 8000, -90.000, 0.000, -23.700, 0.000, 0.000, -3.000, 0.0, , , , , , 98, , , 61, 61, 61
37.0262329, -119.2351936, 7.600, 15:02:45.710, 12, 0.00, 0.10, 98, 0.500, 1.400, -22.700, 1614, 100, 100, 27, 24278, -19070, 4277, 4365, 9, 14, 1529359365.710, 88, 0, 1024, 1024, 1024, 1024, 0, 6, 4029, 4027, 4021, 4022, 4040, 4044, 0, 1, 8100, -89.900, 0.000, -23.700, 0.000, 0.000, -3.100, 0.0, , , , , , 98, , , 61, 61, 61
37.0262329, -119.2351936, 7.900, 15:02:45.810, 12, 0.00, 0.11, 98, 0.400, 1.500, -22.600, 1614, 100, 100, 27, 24278, -19070, 4277, 4365, 9, 14, 1529359365.811, 66, 0, 1024, 1024, 1024, 1024, 0, 6, 4029, 4027, 4021, 4022, 4040, 4044, 0, 1, 8200, -89.900, 0.000, -23.700, 0.000, 0.000, -3.100, 0.0, , , , , , 98, , , 61, 61, 61
37.0262328, -119.2351936, 8.300, 15:02:45.910, 12, 0.00, 0.11, 98, 0.600, 1.600, -22.500, 1614, 100, 100, 27, 24278, -19070, 4277, 4365, 9, 14, 1529359365.911, 68, 0, 1024, 1024, 1024, 1024, 0, 6, 4029, 4027, 4021, 4022, 4040, 4044, 0, 1, 8300, -89.900, 0.000, -23.700, 0.000, 0.000, -3.000, 0.0, , , , , , 98, , , 61, 61, 61
37.0262327, -119.2351936, 8.600, 15:02:46.010, 12, 0.00, 0.11, 98, 0.700, 1.600, -22.400, 1614, 100, 100, 27, 24278, -19070, 4277, 4365, 9, 14, 1529359366.010, 82, 0, 1024, 1024, 1024, 1024, 0, 6, 4029, 4027, 4021, 4022, 4040, 4044, 0, 1, 8400, -90.000, 0.000, -23.700, 0.000, 0.000, -3.000, 0.0, , , , , , 98, , , 61, 61, 61
37.0262327, -119.2351935, 8.900, 15:02:46.110, 12, 0.00, 0.11, 98, 0.600, 1.400, -22.400, 1614, 100, 100, 27, 24278, -19070, 4277, 4365, 9, 14, 1529359366.110, 72, 0, 1024, 1024, 1024, 1024, 0, 6, 4029, 4027, 4021, 4022, 4040, 4044, 0, 1, 8500, -90.000, 0.000, -23.700, 0.000, 0.000, -3.000, 0.0, , , , , , 98, , , 61, 61, 61
37.0262326, -119.2351934, 9.200, 15:02:46.210, 12, 0.00, 0.11, 98, 0.500, 0.900, -22.500, 1614, 100, 100, 27, 24278, -19070, 4277, 4365, 9, 14, 1529359366.211, 66, 0, 1024, 1024, 1024, 1024, 0, 6, 4029, 4027, 4021, 4022, 4040, 4044, 0, 1, 8600, -89.900, 0.000, -23.700, 0.000, 0.000, -3.100, 0.0, , , , , , 98, , , 61, 61, 61
37.0262325, -119.2351934, 9.500, 15:02:46.310, 12, 0.00, 0.12, 98, 0.400, 0.400, -22.500, 1614, 100, 100, 27, 24204, -20189, 4234, 4365, 9, 14, 1529359366.311, 41, 0, 1024, 1024, 1024, 1024, 0, 6, 4019, 4029, 4046, 4033, 4042, 4044, 0, 1, 8700, -90.000, 0.000, -23.700, 0.000, 0.000, -3.100, 0.0, , , , , , 98, , , 61, 61, 61
37.0262323, -119.2351934, 9.900, 15:02:46.410, 12, 0.00, 0.13, 98, 0.500, 0.100, -22.500, 1614, 100, 100, 27, 24204, -20189, 4234, 4365, 9, 14, 1529359366.411, 42, 0, 1024, 1024, 1024, 1024, 0, 6, 4019, 4029, 4046, 4033, 4042, 4044, 0, 1, 8800, -90.000, 0.000, -23.700, 0.000, 0.000, -3.000, 0.0, , , , , , 98, , , 61, 61, 61
37.0262322, -119.2351934, 10.200, 15:02:46.510, 12, 0.00, 0.13, 98, 0.800, 0.000, -22.600, 1614, 100, 100, 27, 24204, -20189, 4234, 4365, 9, 14, 1529359366.511, 32, 0, 1024, 1024, 1024, 1024, 0, 6, 4019, 4029, 4046, 4033, 4042, 4044, 0, 1, 8900, -90.000, 0.000, -23.700, 0.000, 0.000, -3.000, 0.0, , , , , , 98, , , 61, 61, 61
37.0262322, -119.2351934, 10.500, 15:02:46.610, 11, 0.00, 0.14, 98, 0.900, 0.000, -22.600, 1614, 100, 100, 27, 24204, -20189, 4234, 4365, 9, 14, 1529359366.611, 30, 0, 1024, 1024, 1024, 1024, 0, 6, 4019, 4029, 4046, 4033, 4042, 4044, 0, 1, 9000, -89.900, 0.000, -23.700, 0.000, 0.000, -3.000, 0.0, , , , , , 98, , , 61, 61, 61
37.0262320, -119.2351935, 11.100, 15:02:46.710, 12, 0.00, 0.16, 98, 1.200, 0.300, -22.700, 1614, 100, 100, 27, 24204, -20189, 4234, 4365, 9, 14, 1529359366.711, 31, 0, 1024, 1024, 1024, 1024, 0, 6, 4019, 4029, 4046, 4033, 4042, 4044, 0, 1, 9100, -89.900, 0.000, -23.700, 0.000, 0.000, -3.100, 0.0, , , , , , 98, , , 61, 61, 61
37.0262320, -119.2351935, 11.500, 15:02:46.810, 12, 0.00, 0.16, 98, 1.400, 0.500, -22.700, 1614, 100, 100, 27, 24204, -20189, 4234, 4365, 9, 14, 1529359366.811, 40, 0, 1024, 1024, 1024, 1024, 0, 6, 4019, 4029, 4046, 4033, 4042, 4044, 0, 1, 9200, -89.900, 0.000, -23.700, 0.000, 0.000, -3.000, 0.0, , , , , , 98, , , 61, 61, 61
37.0262320, -119.2351934, 11.800, 15:02:46.910, 12, 0.00, 0.16, 98, 1.400, 0.600, -22.700, 1614, 100, 100, 27, 24204, -20189, 4234, 4365, 9, 14, 1529359366.910, 14, 0, 1024, 1024, 1024, 1024, 0, 6, 4019, 4029, 4046, 4033, 4042, 4044, 0, 1, 9300, -89.900, 0.000, -23.700, 0.000, 0.000, -3.000, 0.0, , , , , , 98, , , 61, 61, 61
37.0262319, -119.2351935, 12.100, 15:02:47.010, 12, 0.00, 0.17, 98, 1.500, 0.500, -22.700, 1614, 100, 100, 27, 24204, -20189, 4234, 4365, 9, 14, 1529359367.011, 16, 0, 1024, 1024, 1024, 1024, 0, 6, 4019, 4029, 4046, 4033, 4042, 4044, 0, 1, 9400, -89.900, 0.000, -23.700, 0.000, 0.000, -3.000, 0.0, , , , , , 98, , , 61, 61, 61
37.0262318, -119.2351935, 12.400, 15:02:47.110, 12, 0.00, 0.18, 98, 1.600, 0.300, -22.800, 1614, 100, 100, 27, 24204, -20189, 4234, 4365, 9, 14, 1529359367.110, 3, 0, 1024, 1024, 1024, 1024, 0, 6, 4019, 4029, 4046, 4033, 4042, 4044, 0, 1, 9500, -90.000, 0.000, -23.700, 0.000, 0.000, -2.900, 0.0, , , , , , 98, , , 61, 61, 61
37.0262318, -119.2351935, 12.400, 15:02:47.210, 12, 0.00, 0.18, 98, 1.600, 0.300, -22.800, 1614, 100, 100, 27, 24204, -20189, 4234, 4365, 9, 14, 1529359367.211, 104, 0, 1024, 1024, 1024, 1024, 0, 6, 4019, 4029, 4046, 4033, 4042, 4044, 0, 1, 9600, -90.000, 0.000, -23.700, 0.000, 0.000, -2.900, 0.0, , , , , , 98, , , 61, 61, 61
37.0262317, -119.2351935, 12.700, 15:02:47.309, 12, 0.00, 0.18, 97, 1.400, 0.100, -22.800, 1614, 100, 100, 27, 24252, -18145, 4234, 4365, 9, 14, 1529359367.310, 92, 0, 1024, 1024, 1024, 1024, 0, 6, 4028, 4054, 4043, 4033, 4053, 4040, 0, 1, 9699, -90.000, 0.000, -23.700, 0.000, 0.000, -2.900, 0.0, , , , , , 98, , , 61, 61, 61
37.0262317, -119.2351934, 13.000, 15:02:47.411, 12, 0.00, 0.18, 97, 1.100, 0.200, -22.800, 1614, 100, 100, 27, 24252, -18145, 4234, 4365, 9, 14, 1529359367.411, 99, 0, 1024, 1024, 1024, 1024, 0, 6, 4028, 4054, 4043, 4033, 4053, 4040, 0, 1, 9801, -90.000, 0.000, -23.700, 0.000, 0.000, -2.800, 0.0, , , , , , 98, , , 61, 61, 61
37.0262316, -119.2351934, 13.600, 15:02:47.512, 13, 0.00, 0.19, 97, 0.700, 0.000, -22.700, 1614, 100, 100, 27, 24252, -18145, 4234, 4365, 9, 14, 1529359367.512, 2, 0, 1024, 1024, 1024, 1024, 0, 6, 4028, 4054, 4043, 4033, 4053, 4040, 0, 1, 9902, -89.900, 0.000, -23.700, 0.000, 0.000, -2.800, 0.0, , , , , , 98, , , 61, 61, 61
37.0262316, -119.2351934, 13.600, 15:02:47.610, 13, 0.00, 0.19, 97, 0.700, 0.000, -22.700, 1614, 100, 100, 27, 24252, -18145, 4234, 4365, 9, 14, 1529359367.610, 100, 0, 1024, 1024, 1024, 1024, 0, 6, 4028, 4054, 4043, 4033, 4053, 4040, 0, 1, 10000, -89.900, 0.000, -23.700, 0.000, 0.000, -2.800, 0.0, , , , , , 98, , , 61, 61, 61
37.0262316, -119.2351933, 13.900, 15:02:47.710, 13, 0.00, 0.19, 97, 0.600, 0.000, -22.700, 1614, 100, 100, 27, 24252, -18145, 4234, 4365, 9, 14, 1529359367.710, 89, 0, 1024, 1024, 1024, 1024, 0, 6, 4028, 4054, 4043, 4033, 4053, 4040, 0, 1, 10100, -90.000, 0.000, -23.700, 0.000, 0.000, -2.800, 0.0, , , , , , 98, , , 61, 61, 61
37.0262316, -119.2351932, 14.200, 15:02:47.810, 13, 0.00, 0.19, 97, 0.500, 0.200, -22.700, 1614, 100, 100, 27, 24252, -18145, 4234, 4365, 9, 14, 1529359367.810, 92, 0, 1024, 1024, 1024, 1024, 0, 6, 4028, 4054, 4043, 4033, 4053, 4040, 0, 1, 10200, -89.900, 0.000, -23.700, 0.000, 0.000, -2.800, 0.0, , , , , , 98, , , 61, 61, 61
37.0262315, -119.2351932, 14.500, 15:02:47.910, 13, 0.00, 0.19, 97, 0.600, 0.400, -22.700, 1614, 100, 100, 27, 24252, -18145, 4234, 4365, 9, 14, 1529359367.910, 89, 0, 1024, 1024, 1024, 1024, 0, 6, 4028, 4054, 4043, 4033, 4053, 4040, 0, 1, 10300, -89.900, 0.000, -23.700, 0.000, 0.000, -2.800, 0.0, , , , , , 98, , , 61, 61, 61
37.0262315, -119.2351933, 14.700, 15:02:48.010, 13, 0.00, 0.20, 97, 0.600, 0.500, -22.700, 1614, 100, 100, 27, 24252, -18145, 4234, 4365, 9, 14, 1529359368.010, 88, 0, 1024, 1024, 1024, 1024, 0, 6, 4028, 4054, 4043, 4033, 4053, 4040, 0, 1, 10400, -89.900, 0.000, -23.700, 0.000, 0.000, -2.800, 0.0, , , , , , 98, , , 61, 61, 61
37.0262315, -119.2351933, 15.000, 15:02:48.110, 13, 0.00, 0.20, 97, 0.900, 0.500, -22.700, 1614, 100, 100, 27, 24252, -18145, 4234, 4365, 9, 14, 1529359368.110, 78, 0, 1024, 1024, 1024, 1024, 0, 6, 4028, 4054, 4043, 4033, 4053, 4040, 0, 1, 10500, -89.900, 0.000, -23.700, 0.000, 0.000, -2.900, 0.0, , , , , , 98, , , 61, 61, 61
37.0262315, -119.2351933, 15.300, 15:02:48.210, 13, 0.00, 0.20, 97, 1.200, 0.600, -22.800, 1614, 100, 100, 27, 24252, -18145, 4234, 4365, 9, 14, 1529359368.211, 81, 0, 1024, 1024, 1024, 1024, 0, 6, 4028, 4054, 4043, 4033, 4053, 4040, 0, 1, 10600, -90.000, 0.000, -23.700, 0.000, 0.000, -2.900, 0.0, , , , , , 98, , , 61, 61, 61
37.0262315, -119.2351932, 15.600, 15:02:48.310, 13, 0.00, 0.19, 97, 1.100, 0.500, -22.700, 1614, 100, 100, 27, 24287, -17255, 4234, 4365, 9, 14, 1529359368.310, 62, 0, 1024, 1024, 1024, 1024, 0, 6, 4034, 4048, 4046, 4048, 4054, 4052, 0, 1, 10700, -90.000, 0.000, -23.700, 0.000, 0.000, -2.900, 0.0, , , , , , 98, , , 61, 61, 61
37.0262316, -119.2351931, 15.900, 15:02:48.410, 13, 0.00, 0.18, 97, 0.600, 0.400, -22.600, 1614, 100, 100, 27, 24287, -17255, 4234, 4365, 9, 14, 1529359368.410, 65, 0, 1024, 1024, 1024, 1024, 0, 6, 4034, 4048, 4046, 4048, 4054, 4052, 0, 1, 10800, -89.900, 0.000, -23.700, 0.000, 0.000, -3.000, 0.0, , , , , , 98, , , 61, 61, 61
37.0262317, -119.2351930, 16.200, 15:02:48.510, 13, 0.00, 0.17, 97, 0.100, 0.600, -22.600, 1614, 100, 100, 27, 24287, -17255, 4234, 4365, 9, 14, 1529359368.510, 62, 0, 1024, 1024, 1024, 1024, 0, 6, 4034, 4048, 4046, 4048, 4054, 4052, 0, 1, 10900, -89.900, 0.000, -23.700, 0.000, 0.000, -2.900, 0.0, , , , , , 98, , , 61, 61, 61
37.0262317, -119.2351929, 16.500, 15:02:48.610, 13, 0.00, 0.16, 97, -0.100, 0.800, -22.600, 1614, 100, 100, 27, 24287, -17255, 4234, 4365, 9, 14, 1529359368.610, 52, 0, 1024, 1024, 1024, 1024, 0, 6, 4034, 4048, 4046, 4048, 4054, 4052, 0, 1, 11000, -89.900, 0.000, -23.700, 0.000, 0.000, -2.900, 0.0, , , , , , 98, , , 61, 61, 61
37.0262319, -119.2351928, 16.800, 15:02:48.710, 13, 0.10, 0.15, 97, -0.100, 1.000, -22.500, 1614, 100, 100, 27, 24287, -17255, 4234, 4365, 9, 14, 1529359368.710, 40, 0, 1024, 1024, 1024, 1024, 0, 6, 4034, 4048, 4046, 4048, 4054, 4052, 0, 1, 11100, -89.900, 0.000, -23.700, 0.100, 0.000, -2.900, 0.0, , , , , , 98, , , 61, 61, 61
37.0262320, -119.2351926, 17.100, 15:02:48.810, 13, 0.10, 0.13, 97, -0.300, 1.100, -22.500, 1614, 100, 100, 27, 24287, -17255, 4234, 4365, 9, 14, 1529359368.810, 24, 0, 1024, 1024, 1024, 1024, 0, 6, 4034, 4048, 4046, 4048, 4054, 4052, 0, 1, 11200, -89.900, 0.000, -23.700, 0.100, 0.000, -2.900, 0.0, , , , , , 98, , , 61, 61, 61
37.0262320, -119.2351926, 17.400, 15:02:48.910, 13, 0.00, 0.12, 97, -0.400, 1.200, -22.600, 1614, 100, 100, 27, 24287, -17255, 4234, 4365, 9, 14, 1529359368.910, 36, 0, 1024, 1024, 1024, 1024, 0, 6, 4034, 4048, 4046, 4048, 4054, 4052, 0, 1, 11300, -89.900, 0.000, -23.700, 0.000, 0.000, -2.900, 0.0, , , , , , 98, , , 61, 61, 61
37.0262322, -119.2351924, 18.000, 15:02:49.010, 13, 0.00, 0.11, 97, -0.300, 1.200, -22.800, 1614, 100, 100, 27, 24287, -17255, 4234, 4365, 9, 14, 1529359369.010, 23, 0, 1024, 1024, 1024, 1024, 0, 6, 4034, 4048, 4046, 4048, 4054, 4052, 0, 1, 11400, -89.900, 0.000, -23.700, 0.000, 0.000, -2.900, 0.0, , , , , , 98, , , 61, 61, 61
37.0262322, -119.2351923, 18.300, 15:02:49.110, 13, 0.00, 0.10, 97, -0.300, 1.200, -22.900, 1614, 100, 100, 27, 24287, -17255, 4234, 4365, 9, 14, 1529359369.110, 36, 0, 1024, 1024, 1024, 1024, 0, 6, 4034, 4048, 4046, 4048, 4054, 4052, 0, 1, 11500, -89.900, 0.000, -23.700, 0.000, 0.000, -3.000, 0.0, , , , , , 98, , , 61, 61, 61
37.0262322, -119.2351922, 18.600, 15:02:49.210, 13, 0.00, 0.10, 97, -0.200, 1.300, -22.900, 1614, 100, 100, 27, 24174, -18783, 4234, 4365, 9, 14, 1529359369.210, 39, 0, 1024, 1024, 1024, 1024, 0, 6, 4013, 4020, 4035, 4028, 4035, 4030, 0, 1, 11600, -89.900, 0.000, -23.700, 0.000, 0.000, -2.900, 0.0, , , , , , 98, , , 61, 61, 61
37.0262323, -119.2351922, 18.900, 15:02:49.310, 13, 0.00, 0.10, 97, -0.100, 1.300, -22.900, 1614, 100, 100, 27, 24174, -18783, 4234, 4365, 9, 14, 1529359369.310, 29, 0, 1024, 1024, 1024, 1024, 0, 6, 4013, 4020, 4035, 4028, 4035, 4030, 0, 1, 11700, -89.900, 0.000, -23.700, 0.000, 0.000, -3.000, 0.0, , , , , , 98, , , 61, 61, 61
37.0262323, -119.2351921, 19.200, 15:02:49.416, 13, 0.00, 0.10, 97, -0.300, 1.200, -22.800, 1614, 100, 100, 27, 24174, -18783, 4234, 4365, 9, 14, 1529359369.416, 3, 0, 1024, 1024, 1024, 1024, 0, 6, 4013, 4020, 4035, 4028, 4035, 4030, 0, 1, 11806, -89.900, 0.000, -23.700, 0.000, 0.000, -3.000, 0.0, , , , , , 98, , , 61, 61, 61
37.0262323, -119.2351921, 19.200, 15:02:49.510, 13, 0.00, 0.10, 97, -0.300, 1.200, -22.800, 1614, 100, 100, 27, 24174, -18783, 4234, 4365, 9, 14, 1529359369.510, 97, 0, 1024, 1024, 1024, 1024, 0, 6, 4013, 4020, 4035, 4028, 4035, 4030, 0, 1, 11900, -89.900, 0.000, -23.700, 0.000, 0.000, -3.000, 0.0, , , , , , 98, , , 61, 61, 61
37.0262323, -119.2351920, 19.800, 15:02:49.610, 13, 0.00, 0.10, 97, -0.400, 1.000, -22.600, 1614, 100, 100, 27, 24174, -18783, 4234, 4365, 9, 14, 1529359369.610, 9, 0, 1024, 1024, 1024, 1024, 0, 6, 4013, 4020, 4035, 4028, 4035, 4030, 0, 1, 12000, -89.900, 0.000, -23.700, 0.000, 0.000, -2.900, 0.0, , , , , , 98, , , 61, 61, 61
37.0262323, -119.2351919, 20.100, 15:02:49.710, 13, 0.00, 0.10, 97, -0.300, 1.000, -22.500, 1614, 100, 100, 27, 24174, -18783, 4234, 4365, 9, 14, 1529359369.711, 9, 0, 1024, 1024, 1024, 1024, 0, 6, 4013, 4020, 4035, 4028, 4035, 4030, 0, 1, 12100, -89.900, 0.000, -23.700, 0.000, 0.000, -2.900, 0.0, , , , , , 98, , , 61, 61, 61
37.0262323, -119.2351919, 20.100, 15:02:49.810, 13, 0.00, 0.10, 97, -0.300, 1.000, -22.500, 1614, 100, 100, 27, 24174, -18783, 4234, 4365, 9, 14, 1529359369.810, 109, 0, 1024, 1024, 1024, 1024, 0, 6, 4013, 4020, 4035, 4028, 4035, 4030, 0, 1, 12200, -89.900, 0.000, -23.700, 0.000, 0.000, -2.900, 0.0, , , , , , 98, , , 61, 61, 61
37.0262324, -119.2351919, 20.400, 15:02:49.910, 13, 0.00, 0.10, 97, -0.100, 1.000, -22.400, 1614, 100, 98, 27, 24174, -18783, 4234, 4365, 9, 14, 1529359369.910, 86, 0, 1024, 1024, 1024, 1024, 0, 6, 4013, 4020, 4035, 4028, 4035, 4030, 0, 1, 12300, -89.900, 0.000, -23.700, 0.000, 0.000, -2.900, 0.0, , , , , , 98, , , 61, 61, 61
37.0262325, -119.2351918, 20.800, 15:02:50.010, 13, 0.00, 0.09, 97, -0.200, 1.000, -22.500, 1614, 100, 98, 27, 24174, -18783, 4234, 4365, 9, 14, 1529359370.010, 81, 0, 1024, 1024, 1024, 1024, 0, 6, 4013, 4020, 4035, 4028, 4035, 4030, 0, 1, 12400, -89.900, 0.000, -23.700, 0.000, 0.000, -2.900, 0.0, , , , , , 98, , , 61, 61, 61
37.0262324, -119.2351918, 21.100, 15:02:50.110, 13, 0.00, 0.10, 97, -0.200, 1.000, -22.600, 1614, 100, 98, 27, 24174, -18783, 4234, 4365, 9, 14, 1529359370.110, 86, 0, 1024, 1024, 1024, 1024, 0, 6, 4013, 4020, 4035, 4028, 4035, 4030, 0, 1, 12500, -89.900, 0.000, -23.700, 0.000, 0.000, -3.000, 0.0, , , , , , 98, , , 61, 61, 61
37.0262324, -119.2351918, 21.400, 15:02:50.210, 13, 0.00, 0.10, 97, -0.100, 1.100, -22.700, 1614, 100, 98, 27, 24174, -18783, 4234, 4365, 9, 14, 1529359370.210, 43, 0, 1024, 1024, 1024, 1024, 0, 6, 4013, 4020, 4035, 4028, 4035, 4030, 0, 1, 12600, -89.900, 0.000, -23.700, 0.000, 0.000, -3.000, 0.0, , , , , , 98, , , 61, 61, 61
37.0262324, -119.2351918, 21.700, 15:02:50.310, 13, 0.00, 0.10, 97, 0.000, 1.000, -22.800, 1614, 100, 98, 27, 24151, -18639, 4234, 4365, 9, 14, 1529359370.310, 42, 0, 1024, 1024, 1024, 1024, 0, 6, 4013, 4020, 4035, 4028, 4035, 4030, 0, 1, 12700, -89.900, 0.000, -23.700, 0.000, 0.000, -2.900, 0.0, , , , , , 98, , , 61, 61, 61
37.0262324, -119.2351918, 22.000, 15:02:50.410, 14, 0.00, 0.10, 97, -0.100, 0.800, -22.900, 1614, 100, 98, 27, 24151, -18639, 4234, 4365, 9, 14, 1529359370.410, 71, 0, 1024, 1024, 1024, 1024, 0, 6, 4013, 4020, 4035, 4028, 4035, 4030, 0, 1, 12800, -89.900, 0.000, -23.700, 0.000, 0.000, -2.900, 0.0, , , , , , 98, , , 61, 61, 61
37.0262324, -119.2351918, 22.300, 15:02:50.510, 14, 0.00, 0.10, 97, -0.100, 0.800, -22.900, 1614, 100, 98, 27, 24151, -18639, 4234, 4365, 9, 14, 1529359370.510, 57, 0, 1024, 1024, 1024, 1024, 0, 6, 4013, 4020, 4035, 4028, 4035, 4030, 0, 1, 12900, -89.900, 0.000, -23.700, 0.000, 0.000, -3.000, 0.0, , , , , , 98, , , 61, 61, 61
37.0262324, -119.2351919, 22.600, 15:02:50.610, 14, 0.00, 0.10, 97, 0.200, 0.900, -22.900, 1614, 100, 98, 27, 24151, -18639, 4234, 4365, 9, 14, 1529359370.610, 67, 0, 1024, 1024, 1024, 1024, 0, 6, 4013, 4020, 4035, 4028, 4035, 4030, 0, 1, 13000, -89.900, 0.000, -23.700, 0.000, 0.000, -2.900, 0.0, , , , , , 98, , , 61, 61, 61
37.0262324, -119.2351919, 22.900, 15:02:50.710, 14, 0.00, 0.10, 97, 0.400, 1.000, -22.800, 1614, 100, 98, 27, 24151, -18639, 4234, 4365, 9, 14, 1529359370.710, 59, 0, 1024, 1024, 1024, 1024, 0, 6, 4013, 4020, 4035, 4028, 4035, 4030, 0, 1, 13100, -89.900, 0.000, -23.700, 0.000, 0.000, -2.900, 0.0, , , , , , 98, , , 61, 61, 61
37.0262324, -119.2351919, 23.200, 15:02:50.810, 14, 0.00, 0.10, 97, 0.200, 1.000, -22.700, 1614, 100, 98, 27, 24151, -18639, 4234, 4365, 9, 14, 1529359370.810, 50, 0, 1024, 1024, 1024, 1024, 0, 6, 4018, 4025, 4031, 4019, 4034, 4031, 0, 1, 13200, -89.900, 0.000, -23.700, 0.000, 0.000, -2.800, 0.0, , , , , , 98, , , 61, 61, 61
37.0262324, -119.2351918, 23.500, 15:02:50.910, 14, 0.00, 0.10, 97, 0.100, 1.000, -22.600, 1614, 100, 98, 27, 24151, -18639, 4234, 4365, 9, 14, 1529359370.910, 52, 0, 1024, 1024, 1024, 1024, 0, 6, 4018, 4025, 4031, 4019, 4034, 4031, 0, 1, 13300, -89.900, 0.000, -23.700, 0.000, 0.000, -2.900, 0.0, , , , , , 98, , , 61, 61, 61
37.0262324, -119.2351918, 24.100, 15:02:51.010, 14, 0.00, 0.10, 97, 0.100, 0.800, -22.500, 1614, 100, 98, 27, 24151, -18639, 4234, 4365, 9, 14, 1529359371.010, 49, 0, 1024, 1024, 1024, 1024, 0, 6, 4018, 4025, 4031, 4019, 4034, 4031, 0, 1, 13400, -89.900, 0.000, -23.700, 0.000, 0.000, -2.900, 0.0, , , , , , 98, , , 61, 61, 61
37.0262324, -119.2351917, 24.400, 15:02:51.110, 14, 0.00, 0.10, 97, 0.000, 0.800, -22.500, 1614, 100, 98, 27, 24151, -18639, 4234, 4365, 9, 14, 1529359371.110, 7, 0, 1024, 1024, 1024, 1024, 0, 6, 4018, 4025, 4031, 4019, 4034, 4031, 0, 1, 13500, -89.900, 0.000, -23.700, 0.000, 0.000, -2.800, 0.0, , , , , , 98, , , 61, 61, 61
37.0262324, -119.2351917, 24.400, 15:02:51.210, 14, 0.00, 0.10, 97, 0.000, 0.800, -22.500, 1614, 100, 98, 27, 24151, -18639, 4234, 4365, 9, 14, 1529359371.210, 107, 0, 1024, 1024, 1024, 1024, 0, 6, 4018, 4025, 4031, 4019, 4034, 4031, 0, 1, 13600, -89.900, 0.000, -23.700, 0.000, 0.000, -2.800, 0.0, , , , , , 98, , , 61, 61, 61
37.0262324, -119.2351917, 24.700, 15:02:51.310, 14, 0.00, 0.11, 97, -0.300, 0.700, -22.600, 1614, 100, 98, 27, 24151, -18639, 4234, 4365, 9, 14, 1529359371.310, 47, 0, 1024, 1024, 1024, 1024, 0, 6, 4018, 4025, 4031, 4019, 4034, 4031, 0, 1, 13700, -89.900, 0.000, -23.700, 0.000, 0.000, -2.900, 0.0, , , , , , 98, , , 61, 61, 61
37.0262325, -119.2351916, 25.300, 15:02:51.410, 14, 0.00, 0.11, 97, -0.700, 0.900, -22.900, 1614, 100, 98, 27, 24151, -18639, 4234, 4365, 9, 14, 1529359371.410, 35, 0, 1024, 1024, 1024, 1024, 0, 6, 4018, 4025, 4031, 4019, 4034, 4031, 0, 1, 13800, -89.900, 0.000, -23.700, 0.000, 0.000, -2.900, 0.0, , , , , , 98, , , 61, 61, 61
37.0262325, -119.2351915, 25.600, 15:02:51.510, 14, 0.00, 0.11, 97, -0.700, 1.000, -23.000, 1614, 100, 98, 27, 24151, -18639, 4234, 4365, 9, 14, 1529359371.510, 38, 0, 1024, 1024, 1024, 1024, 0, 6, 4018, 4025, 4031, 4019, 4034, 4031, 0, 1, 13900, -89.900, 0.000, -23.700, 0.000, 0.000, -2.900, 0.0, , , , , , 98, , , 61, 61, 61
37.0262325, -119.2351915, 25.900, 15:02:51.610, 14, 0.00, 0.11, 97, -0.600, 1.200, -23.000, 1614, 100, 98, 27, 24151, -18639, 4234, 4365, 9, 14, 1529359371.610, 17, 0, 1024, 1024, 1024, 1024, 0, 6, 4018, 4025, 4031, 4019, 4034, 4031, 0, 1, 14000, -89.900, 0.000, -23.700, 0.000, 0.000, -2.900, 0.0, , , , , , 98, , , 61, 61, 61
37.0262325, -119.2351915, 26.200, 15:02:51.710, 15, 0.00, 0.11, 97, -0.400, 1.300, -23.000, 1614, 100, 98, 27, 24143, -18190, 4234, 4365, 9, 14, 1529359371.711, 13, 0, 1024, 1024, 1024, 1024, 0, 6, 4007, 4023, 4033, 4024, 4020, 4024, 0, 1, 14101, -89.900, 0.000, -23.700, 0.000, 0.000, -2.900, 0.0, , , , , , 98, , , 61, 61, 61
37.0262325, -119.2351915, 26.500, 15:02:51.810, 15, 0.00, 0.11, 97, -0.300, 1.300, -22.900, 1614, 100, 97, 27, 24143, -18190, 4234, 4365, 9, 14, 1529359371.811, 15, 0, 1024, 1024, 1024, 1024, 0, 6, 4007, 4023, 4033, 4024, 4020, 4024, 0, 1, 14200, -89.900, 0.000, -23.700, 0.000, 0.000, -2.900, 0.0, , , , , , 98, , , 61, 61, 61
37.0262325, -119.2351915, 26.800, 15:02:51.910, 16, 0.00, 0.11, 97, -0.300, 1.100, -22.900, 1614, 100, 97, 27, 24143, -18190, 4234, 4365, 9, 14, 1529359371.910, 20, 0, 1024, 1024, 1024, 1024, 0, 6, 4007, 4023, 4033, 4024, 4020, 4024, 0, 1, 14300, -89.900, 0.000, -23.700, 0.000, 0.000, -2.900, 0.0, , , , , , 98, , , 61, 61, 61
37.0262325, -119.2351915, 27.100, 15:02:52.010, 16, 0.00, 0.11, 97, -0.300, 0.900, -22.800, 1614, 100, 97, 27, 24143, -18190, 4234, 4365, 9, 14, 1529359372.011, 10, 0, 1024, 1024, 1024, 1024, 0, 6, 4007, 4023, 4033, 4024, 4020, 4024, 0, 1, 14400, -89.900, 0.000, -23.700, 0.000, 0.000, -3.000, 0.0, , , , , , 98, , , 61, 61, 61
37.0262324, -119.2351915, 27.400, 15:02:52.110, 16, 0.00, 0.12, 97, -0.300, 0.700, -22.700, 1614, 100, 97, 27, 24143, -18190, 4234, 4365, 9, 14, 1529359372.110, 9, 0, 1024, 1024, 1024, 1024, 0, 6, 4007, 4023, 4033, 4024, 4020, 4024, 0, 1, 14500, -89.900, 0.000, -23.700, 0.000, 0.000, -3.000, 0.0, , , , , , 98, , , 61, 61, 61
37.0262324, -119.2351914, 27.700, 15:02:52.210, 16, 0.00, 0.12, 97, -0.400, 0.400, -22.700, 1614, 100, 97, 27, 24143, -18190, 4234, 4365, 9, 14, 1529359372.210, 15, 0, 1024, 1024, 1024, 1024, 0, 6, 4007, 4023, 4033, 4024, 4020, 4024, 0, 1, 14600, -89.900, 0.000, -23.700, 0.000, 0.000, -2.900, 0.0, , , , , , 98, , , 61, 61, 61
37.0262324, -119.2351914, 27.700, 15:02:52.309, 16, 0.00, 0.12, 97, -0.400, 0.400, -22.700, 1614, 100, 97, 27, 24143, -18190, 4234, 4365, 9, 14, 1529359372.309, 115, 0, 1024, 1024, 1024, 1024, 0, 6, 4007, 4023, 4033, 4024, 4020, 4024, 0, 1, 14699, -89.900, 0.000, -23.700, 0.000, 0.000, -2.900, 0.0, , , , , , 98, , , 61, 61, 61
37.0262324, -119.2351914, 28.000, 15:02:52.410, 16, 0.00, 0.12, 97, -0.500, 0.000, -22.700, 1614, 100, 97, 27, 24143, -18190, 4234, 4365, 9, 14, 1529359372.410, 79, 0, 1024, 1024, 1024, 1024, 0, 6, 4007, 4023, 4033, 4024, 4020, 4024, 0, 1, 14800, -90.000, 0.000, -23.700, 0.000, 0.000, -2.900, 0.0, , , , , , 98, , , 61, 61, 61
37.0262324, -119.2351914, 28.300, 15:02:52.510, 16, 0.00, 0.12, 97, -0.200, -0.100, -22.900, 1614, 100, 97, 27, 24143, -18190, 4234, 4365, 9, 14, 1529359372.510, 83, 0, 1024, 1024, 1024, 1024, 0, 6, 4007, 4023, 4033, 4024, 4020, 4024, 0, 1, 14900, -89.900, 0.000, -23.700, 0.000, 0.000, -3.000, 0.0, , , , , , 98, , , 61, 61, 61
37.0262324, -119.2351914, 28.600, 15:02:52.610, 16, 0.00, 0.12, 97, -0.100, 0.000, -23.100, 1614, 100, 97, 27, 24143, -18190, 4234, 4365, 9, 14, 1529359372.610, 98, 0, 1024, 1024, 1024, 1024, 0, 6, 4007, 4023, 4033, 4024, 4020, 4024, 0, 1, 15000, -89.900, 0.000, -23.700, 0.000, 0.000, -2.900, 0.0, , , , , , 98, , , 61, 61, 61
37.0262324, -119.2351914, 28.900, 15:02:52.710, 16, 0.00, 0.12, 97, -0.200, 0.200, -23.300, 1614, 100, 97, 27, 24143, -18190, 4234, 4365, 9, 14, 1529359372.710, 86, 0, 1024, 1024, 1024, 1024, 0, 6, 4007, 4023, 4033, 4024, 4020, 4024, 0, 1, 15100, -89.900, 0.000, -23.700, 0.000, 0.000, -2.900, 0.0, , , , , , 98, , , 61, 61, 61
37.0262323, -119.2351914, 29.200, 15:02:52.810, 16, 0.00, 0.13, 97, -0.200, 0.500, -23.300, 1614, 100, 97, 27, 24044, -18966, 4234, 4365, 9, 14, 1529359372.810, 93, 0, 1024, 1024, 1024, 1024, 0, 6, 3998, 4007, 4007, 4003, 4014, 4008, 0, 1, 15200, -89.900, 0.000, -23.700, 0.000, 0.000, -2.900, 0.0, , , , , , 98, , , 61, 61, 61
37.0262323, -119.2351915, 29.500, 15:02:52.910, 16, 0.00, 0.13, 97, -0.100, 0.900, -23.200, 1614, 100, 96, 27, 24044, -18966, 4234, 4365, 9, 14, 1529359372.910, 87, 0, 1024, 1024, 1024, 1024, 0, 6, 3998, 4007, 4007, 4003, 4014, 4008, 0, 1, 15300, -89.900, 0.000, -23.700, 0.000, 0.000, -2.900, 0.0, , , , , , 98, , , 61, 61, 61
37.0262323, -119.2351915, 29.800, 15:02:53.010, 16, 0.00, 0.12, 97, -0.100, 1.100, -22.900, 1614, 100, 96, 27, 24044, -18966, 4234, 4365, 9, 14, 1529359373.010, 76, 0, 1024, 1024, 1024, 1024, 0, 6, 3998, 4007, 4007, 4003, 4014, 4008, 0, 1, 15400, -89.900, 0.000, -23.700, 0.000, 0.000, -2.900, 0.0, , , , , , 98, , , 61, 61, 61
37.0262323, -119.2351915, 30.000, 15:02:53.110, 16, 0.00, 0.12, 97, 0.000, 1.200, -22.700, 1614, 100, 96, 27, 24044, -18966, 4234, 4365, 9, 14, 1529359373.110, 76, 0, 1024, 1024, 1024, 1024, 0, 6, 3998, 4007, 4007, 4003, 4014, 4008, 0, 1, 15500, -89.900, 0.000, -23.700, 0.000, 0.000, -2.900, 0.0, , , , , , 98, , , 61, 61, 61
37.0262323, -119.2351915, 30.400, 15:02:53.210, 16, 0.00, 0.12, 97, 0.000, 1.100, -22.600, 1614, 100, 96, 27, 24044, -18966, 4234, 4365, 9, 14, 1529359373.210, 77, 0, 1024, 1024, 1024, 1024, 0, 6, 3998, 4007, 4007, 4003, 4014, 4008, 0, 1, 15600, -89.900, 0.000, -23.700, 0.000, 0.000, -2.900, 0.0, , , , , , 98, , , 61, 61, 61
37.0262323, -119.2351916, 30.700, 15:02:53.310, 16, 0.00, 0.12, 97, 0.100, 0.900, -22.500, 1614, 100, 96, 27, 24044, -18966, 4234, 4365, 9, 14, 1529359373.310, 56, 0, 1024, 1024, 1024, 1024, 0, 6, 3998, 4007, 4007, 4003, 4014, 4008, 0, 1, 15700, -89.900, 0.000, -23.700, 0.000, 0.000, -3.000, 0.0, , , , , , 98, , , 61, 61, 61
37.0262323, -119.2351916, 31.000, 15:02:53.410, 16, 0.00, 0.12, 97, 0.000, 0.600, -22.400, 1614, 100, 93, 27, 24044, -18966, 4234, 4365, 9, 14, 1529359373.410, 27, 0, 1024, 1024, 1024, 1024, 0, 6, 3998, 4007, 4007, 4003, 4014, 4008, 0, 1, 15800, -89.900, 0.000, -23.700, 0.000, 0.000, -3.000, 0.0, , , , , , 98, , , 61, 61, 61
37.0262322, -119.2351916, 31.300, 15:02:53.510, 16, 0.00, 0.13, 97, 0.000, 0.500, -22.300, 1614, 100, 93, 27, 24044, -18966, 4234, 4365, 9, 14, 1529359373.510, 37, 0, 1024, 1024, 1024, 1024, 0, 6, 3998, 4007, 4007, 4003, 4014, 4008, 0, 1, 15900, -89.900, 0.000, -23.700, 0.000, 0.000, -3.000, 0.0, , , , , , 98, , , 61, 61, 61
37.0262322, -119.2351916, 31.600, 15:02:53.610, 16, 0.00, 0.13, 97, 0.000, 0.400, -22.300, 1614, 100, 93, 27, 24044, -18966, 4234, 4365, 9, 14, 1529359373.610, 39, 0, 1024, 1024, 1024, 1024, 0, 6, 3998, 4007, 4007, 4003, 4014, 4008, 0, 1, 16000, -89.900, 0.000, -23.700, 0.000, 0.000, -3.000, 0.0, , , , , , 98, , , 61, 61, 61
37.0262321, -119.2351916, 31.900, 15:02:53.710, 16, 0.00, 0.13, 97, 0.100, 0.400, -22.400, 1614, 100, 93, 27, 24044, -18966, 4234, 4365, 9, 14, 1529359373.710, 42, 0, 1024, 1024, 1024, 1024, 0, 6, 3998, 4007, 4007, 4003, 4014, 4008, 0, 1, 16100, -89.900, 0.000, -23.700, 0.000, 0.000, -3.000, 0.0, , , , , , 98, , , 61, 61, 61
37.0262321, -119.2351916, 32.200, 15:02:53.810, 16, 0.00, 0.14, 97, 0.000, 0.300, -22.500, 1614, 100, 93, 27, 24064, -18788, 4190, 4365, 9, 14, 1529359373.810, 34, 0, 1024, 1024, 1024, 1024, 0, 6, 3997, 4019, 4007, 4017, 4011, 4009, 0, 1, 16200, -89.900, 0.000, -23.700, 0.000, 0.000, -2.900, 0.0, , , , , , 98, , , 61, 61, 61
37.0262320, -119.2351916, 32.800, 15:02:53.910, 16, 0.00, 0.15, 97, 0.100, 0.000, -22.600, 1614, 100, 93, 27, 24064, -18788, 4190, 4365, 9, 14, 1529359373.910, 32, 0, 1024, 1024, 1024, 1024, 0, 6, 3997, 4019, 4007, 4017, 4011, 4009, 0, 1, 16300, -90.000, 0.000, -23.700, 0.000, 0.000, -2.800, 0.0, , , , , , 98, , , 61, 61, 61
37.0262319, -119.2351917, 33.100, 15:02:54.010, 16, 0.00, 0.15, 97, 0.300, -0.100, -22.600, 1614, 100, 93, 27, 24064, -18788, 4190, 4365, 9, 14, 1529359374.010, 32, 0, 1024, 1024, 1024, 1024, 0, 6, 3997, 4019, 4007, 4017, 4011, 4009, 0, 1, 16400, -90.000, 0.000, -23.700, 0.000, 0.000, -2.800, 0.0, , , , , , 98, , , 61, 61, 61
37.0262319, -119.2351917, 33.400, 15:02:54.110, 17, 0.00, 0.16, 97, 0.400, -0.200, -22.600, 1614, 100, 93, 27, 24064, -18788, 4190, 4365, 9, 14, 1529359374.110, 29, 0, 1024, 1024, 1024, 1024, 0, 6, 3997, 4019, 4007, 4017, 4011, 4009, 0, 1, 16500, -90.000, 0.000, -23.700, 0.000, 0.000, -2.900, 0.0, , , , , , 98, , , 61, 61, 61
37.0262318, -119.2351916, 33.700, 15:02:54.210, 17, 0.00, 0.16, 96, 0.300, -0.200, -22.600, 1614, 100, 93, 27, 24064, -18788, 4190, 4365, 9, 14, 1529359374.211, 11, 0, 1024, 1024, 1024, 1024, 0, 6, 3997, 4019, 4007, 4017, 4011, 4009, 0, 1, 16600, -89.900, 0.000, -23.700, 0.000, 0.000, -2.900, 0.0, , , , , , 98, , , 61, 61, 61
37.0262318, -119.2351916, 34.000, 15:02:54.310, 17, 0.00, 0.16, 96, 0.200, -0.100, -22.600, 1614, 100, 96, 27, 24064, -18788, 4190, 4365, 9, 14, 1529359374.310, 20, 0, 1024, 1024, 1024, 1024, 0, 6, 3997, 4019, 4007, 4017, 4011, 4009, 0, 1, 16700, -90.000, 0.000, -23.700, 0.000, 0.000, -2.900, 0.0, , , , , , 98, , , 61, 61, 61
37.0262318, -119.2351916, 34.300, 15:02:54.410, 17, 0.00, 0.17, 96, 0.000, 0.000, -22.700, 1614, 100, 96, 27, 24064, -18788, 4190, 4365, 9, 14, 1529359374.410, 4, 0, 1024, 1024, 1024, 1024, 0, 6, 3997, 4019, 4007, 4017, 4011, 4009, 0, 1, 16800, -89.900, 0.000, -23.700, 0.000, 0.000, -2.900, 0.0, , , , , , 98, , , 61, 61, 61
37.0262318, -119.2351916, 34.300, 15:02:54.510, 17, 0.00, 0.17, 96, 0.000, 0.000, -22.700, 1614, 100, 96, 27, 24064, -18788, 4190, 4365, 9, 14, 1529359374.510, 104, 0, 1024, 1024, 1024, 1024, 0, 6, 3997, 4019, 4007, 4017, 4011, 4009, 0, 1, 16900, -89.900, 0.000, -23.700, 0.000, 0.000, -2.900, 0.0, , , , , , 98, , , 61, 61, 61
37.0262318, -119.2351916, 34.600, 15:02:54.610, 17, 0.00, 0.17, 96, -0.100, 0.000, -22.700, 1614, 100, 96, 27, 24064, -18788, 4190, 4365, 9, 14, 1529359374.610, 97, 0, 1024, 1024, 1024, 1024, 0, 6, 3997, 4019, 4007, 4017, 4011, 4009, 0, 1, 17000, -89.900, 0.000, -23.700, 0.000, 0.000, -2.900, 0.0, , , , , , 98, , , 61, 61, 61
37.0262317, -119.2351916, 34.900, 15:02:54.710, 17, 0.00, 0.17, 96, -0.100, -0.100, -22.700, 1614, 100, 96, 27, 24064, -18788, 4190, 4365, 9, 14, 1529359374.710, 91, 0, 1024, 1024, 1024, 1024, 0, 6, 3997, 4019, 4007, 4017, 4011, 4009, 0, 1, 17100, -89.900, 0.000, -23.700, 0.000, 0.000, -2.900, 0.0, , , , , , 98, , , 61, 61, 61
37.0262317, -119.2351915, 35.200, 15:02:54.810, 17, 0.00, 0.18, 96, -0.200, -0.100, -22.900, 1614, 100, 96, 27, 24075, -18097, 4190, 4365, 9, 14, 1529359374.810, 82, 0, 1024, 1024, 1024, 1024, 0, 6, 3999, 4016, 4005, 4015, 4020, 4012, 0, 1, 17200, -90.000, 0.000, -23.700, 0.000, 0.000, -2.900, 0.0, , , , , , 98, , , 61, 61, 61
37.0262317, -119.2351915, 35.500, 15:02:54.910, 17, 0.00, 0.18, 96, -0.300, -0.200, -23.000, 1614, 100, 99, 27, 24075, -18097, 4190, 4365, 9, 14, 1529359374.910, 88, 0, 1024, 1024, 1024, 1024, 0, 6, 3999, 4016, 4005, 4015, 4020, 4012, 0, 1, 17300, -90.000, 0.000, -23.700, 0.000, 0.000, -2.900, 0.0, , , , , , 98, , , 61, 61, 61
37.0262316, -119.2351915, 35.800, 15:02:55.010, 17, 0.00, 0.19, 96, 0.000, -0.200, -23.100, 1614, 100, 99, 27, 24075, -18097, 4190, 4365, 9, 14, 1529359375.010, 66, 0, 1024, 1024, 1024, 1024, 0, 6, 3999, 4016, 4005, 4015, 4020, 4012, 0, 1, 17400, -89.900, 0.000, -23.700, 0.000, 0.000, -2.900, 0.0, , , , , , 98, , , 61, 61, 61
37.0262316, -119.2351915, 36.100, 15:02:55.110, 17, 0.00, 0.19, 96, 0.000, -0.300, -23.000, 1614, 100, 99, 27, 24075, -18097, 4190, 4365, 9, 14, 1529359375.110, 68, 0, 1024, 1024, 1024, 1024, 0, 6, 3999, 4016, 4005, 4015, 4020, 4012, 0, 1, 17500, -90.000, 0.000, -23.700, 0.000, 0.000, -2.800, 0.0, , , , , , 98, , , 61, 61, 61
37.0262316, -119.2351915, 36.400, 15:02:55.210, 17, 0.00, 0.19, 96, 0.200, -0.400, -22.900, 1614, 100, 99, 27, 24075, -18097, 4190, 4365, 9, 14, 1529359375.210, 73, 0, 1024, 1024, 1024, 1024, 0, 6, 3999, 4016, 4005, 4015, 4020, 4012, 0, 1, 17600, -90.000, 0.000, -23.700, 0.000, 0.000, -2.800, 0.0, , , , , , 98, , , 61, 61, 61
37.0262316, -119.2351915, 36.600, 15:02:55.310, 17, 0.00, 0.19, 96, 0.500, -0.400, -22.700, 1614, 100, 99, 27, 24075, -18097, 4190, 4365, 9, 14, 1529359375.310, 76, 0, 1024, 1024, 1024, 1024, 0, 6, 3999, 4016, 4005, 4015, 4020, 4012, 0, 1, 17700, -89.900, 0.000, -23.700, 0.000, 0.000, -2.900, 0.0, , , , , , 98, , , 61, 61, 61
37.0262316, -119.2351915, 36.900, 15:02:55.410, 17, 0.00, 0.19, 96, 0.500, -0.300, -22.400, 1614, 100, 100, 27, 24075, -18097, 4190, 4365, 9, 14, 1529359375.410, 69, 0, 1024, 1024, 1024, 1024, 0, 6, 3999, 4016, 4005, 4015, 4020, 4012, 0, 1, 17800, -89.900, 0.000, -23.700, 0.000, 0.000, -2.900, 0.0, , , , , , 98, , , 61, 61, 61
37.0262316, -119.2351915, 37.200, 15:02:55.510, 17, 0.00, 0.19, 96, 0.500, -0.300, -22.000, 1614, 100, 100, 27, 24075, -18097, 4190, 4365, 9, 14, 1529359375.510, 30, 0, 1024, 1024, 1024, 1024, 0, 6, 3999, 4016, 4005, 4015, 4020, 4012, 0, 1, 17900, -89.900, 0.000, -23.700, 0.000, 0.000, -3.000, 0.0, , , , , , 98, , , 61, 61, 61
37.0262316, -119.2351915, 37.600, 15:02:55.610, 17, 0.00, 0.19, 96, 0.200, -0.200, -21.500, 1614, 100, 100, 27, 24075, -18097, 4190, 4365, 9, 14, 1529359375.610, 47, 0, 1024, 1024, 1024, 1024, 0, 6, 3999, 4016, 4005, 4015, 4020, 4012, 0, 1, 18000, -89.900, 0.000, -23.700, 0.000, 0.000, -3.000, 0.0, , , , , , 98, , , 61, 61, 61
37.0262316, -119.2351914, 37.900, 15:02:55.710, 17, 0.00, 0.19, 96, -0.200, -0.100, -21.300, 1614, 100, 100, 27, 24075, -18097, 4190, 4365, 9, 14, 1529359375.710, 42, 0, 1024, 1024, 1024, 1024, 0, 6, 3999, 4016, 4005, 4015, 4020, 4012, 0, 1, 18100, -89.900, 0.000, -23.700, 0.000, 0.000, -3.000, 0.0, , , , , , 98, , , 61, 61, 61
37.0262316, -119.2351914, 38.200, 15:02:55.810, 17, 0.00, 0.19, 96, -0.700, 0.100, -21.500, 1614, 100, 100, 27, 24029, -18405, 4190, 4365, 9, 14, 1529359375.810, 42, 0, 1024, 1024, 1024, 1024, 0, 6, 3999, 4016, 4005, 4015, 4020, 4012, 0, 1, 18200, -89.900, 0.000, -23.700, 0.000, 0.000, -2.900, 0.0, , , , , , 98, , , 61, 61, 61
37.0262317, -119.2351913, 38.800, 15:02:55.910, 17, 0.00, 0.19, 96, -1.300, 0.100, -22.500, 1614, 100, 100, 27, 24029, -18405, 4190, 4365, 9, 14, 1529359375.910, 41, 0, 1024, 1024, 1024, 1024, 0, 6, 3999, 4016, 4005, 4015, 4020, 4012, 0, 1, 18300, -89.900, 0.000, -23.700, 0.000, 0.000, -2.900, 0.0, , , , , , 98, , , 61, 61, 61
37.0262318, -119.2351912, 39.100, 15:02:56.010, 17, 0.00, 0.19, 96, -1.200, 0.200, -22.900, 1614, 100, 100, 27, 24029, -18405, 4190, 4365, 9, 14, 1529359376.010, 48, 0, 1024, 1024, 1024, 1024, 0, 6, 3999, 4016, 4005, 4015, 4020, 4012, 0, 1, 18400, -89.900, 0.000, -23.700, 0.000, 0.000, -2.900, 0.0, , , , , , 98, , , 61, 61, 61
37.0262318, -119.2351912, 39.300, 15:02:56.110, 17, 0.00, 0.19, 96, -1.000, 0.100, -23.200, 1614, 100, 100, 27, 24029, -18405, 4190, 4365, 9, 14, 1529359376.110, 28, 0, 1024, 1024, 1024, 1024, 0, 6, 3999, 4016, 4005, 4015, 4020, 4012, 0, 1, 18500, -89.900, 0.000, -23.700, 0.000, 0.000, -2.900, 0.0, , , , , , 98, , , 61, 61, 61
37.0262318, -119.2351911, 39.600, 15:02:56.210, 17, 0.00, 0.19, 96, -0.900, 0.000, -23.400, 1614, 100, 100, 27, 24029, -18405, 4190, 4365, 9, 14, 1529359376.210, 31, 0, 1024, 1024, 1024, 1024, 0, 6, 3995, 4004, 4010, 4008, 4012, 4007, 0, 1, 18600, -90.000, 0.000, -23.700, 0.000, 0.000, -2.800, 0.0, , , , , , 98, , , 61, 61, 61
37.0262318, -119.2351910, 39.900, 15:02:56.310, 17, 0.00, 0.19, 96, -0.900, -0.100, -23.300, 1614, 100, 100, 27, 24029, -18405, 4190, 4365, 9, 14, 1529359376.310, 21, 0, 1024, 1024, 1024, 1024, 0, 6, 3995, 4004, 4010, 4008, 4012, 4007, 0, 1, 18700, -90.000, 0.000, -23.700, 0.000, 0.000, -2.900, 0.0, , , , , , 98, , , 61, 61, 61
37.0262318, -119.2351910, 40.200, 15:02:56.413, 17, 0.00, 0.19, 96, -0.900, -0.200, -23.300, 1614, 100, 100, 27, 24029, -18405, 4190, 4365, 9, 14, 1529359376.413, 2, 0, 1024, 1024, 1024, 1024, 0, 6, 3995, 4004, 4010, 4008, 4012, 4007, 0, 1, 18803, -89.900, 0.000, -23.700, 0.000, 0.000, -2.900, 0.0, , , , , , 98, , , 61, 61, 61
37.0262319, -119.2351910, 40.500, 15:02:56.510, 17, 0.00, 0.19, 96, -1.000, -0.200, -23.200, 1614, 100, 100, 27, 24029, -18405, 4190, 4365, 9, 14, 1529359376.510, 13, 0, 1024, 1024, 1024, 1024, 0, 6, 3995, 4004, 4010, 4008, 4012, 4007, 0, 1, 18900, -90.000, 0.000, -23.700, 0.000, 0.000, -2.900, 0.0, , , , , , 98, , , 61, 61, 61
37.0262319, -119.2351910, 40.800, 15:02:56.610, 17, 0.00, 0.19, 96, -1.000, -0.300, -23.000, 1614, 100, 100, 27, 24029, -18405, 4190, 4365, 9, 14, 1529359376.610, 4, 0, 1024, 1024, 1024, 1024, 0, 6, 3995, 4004, 4010, 4008, 4012, 4007, 0, 1, 19000, -90.000, 0.000, -23.700, 0.000, 0.000, -3.000, 0.0, , , , , , 98, , , 61, 61, 61
37.0262318, -119.2351910, 41.100, 15:02:56.712, 17, 0.00, 0.19, 96, -0.900, -0.500, -22.800, 1614, 100, 100, 28, 24029, -18405, 4190, 4365, 9, 14, 1529359376.712, 4, 0, 1024, 1024, 1024, 1024, 0, 6, 3995, 4004, 4010, 4008, 4012, 4007, 0, 1, 19102, -90.000, 0.000, -23.700, 0.000, 0.000, -3.000, 0.0, , , , , , 98, , , 61, 61, 61
37.0262318, -119.2351910, 41.100, 15:02:56.810, 17, 0.00, 0.19, 96, -0.900, -0.500, -22.800, 1614, 100, 100, 28, 24029, -18405, 4190, 4365, 9, 14, 1529359376.810, 102, 0, 1024, 1024, 1024, 1024, 0, 6, 3995, 4004, 4010, 4008, 4012, 4007, 0, 1, 19200, -90.000, 0.000, -23.700, 0.000, 0.000, -3.000, 0.0, , , , , , 98, , , 61, 61, 61
37.0262319, -119.2351910, 41.400, 15:02:56.910, 17, 0.00, 0.19, 96, -0.600, -0.400, -22.600, 1614, 100, 100, 28, 24029, -18405, 4190, 4365, 9, 14, 1529359376.910, 93, 0, 1024, 1024, 1024, 1024, 0, 6, 3995, 4004, 4010, 4008, 4012, 4007, 0, 1, 19300, -89.900, 0.000, -23.700, 0.000, 0.000, -2.900, 0.0, , , , , , 98, , , 61, 61, 61
37.0262319, -119.2351909, 42.000, 15:02:57.010, 17, 0.00, 0.19, 96, -0.200, -0.200, -22.400, 1614, 100, 100, 28, 24029, -18405, 4190, 4365, 9, 14, 1529359377.010, 2, 0, 1024, 1024, 1024, 1024, 0, 6, 3995, 4004, 4010, 4008, 4012, 4007, 0, 1, 19400, -89.900, 0.000, -23.700, 0.000, 0.000, -2.900, 0.0, , , , , , 98, , , 61, 61, 61
37.0262319, -119.2351908, 42.300, 15:02:57.109, 17, 0.00, 0.19, 96, -0.500, -0.300, -22.400, 1614, 100, 100, 28, 24029, -18405, 4190, 4365, 9, 14, 1529359377.109, 5, 0, 1024, 1024, 1024, 1024, 0, 6, 3995, 4004, 4010, 4008, 4012, 4007, 0, 1, 19499, -89.900, 0.000, -23.700, 0.000, 0.000, -2.900, 0.0, , , , , , 98, , , 61, 61, 61
37.0262319, -119.2351908, 42.300, 15:02:57.209, 17, 0.00, 0.19, 96, -0.500, -0.300, -22.400, 1614, 100, 100, 28, 24029, -18405, 4190, 4365, 9, 14, 1529359377.210, 106, 0, 1024, 1024, 1024, 1024, 0, 6, 3995, 4004, 4010, 4008, 4012, 4007, 0, 1, 19599, -89.900, 0.000, -23.700, 0.000, 0.000, -2.900, 0.0, , , , , , 98, , , 61, 61, 61
37.0262320, -119.2351907, 42.600, 15:02:57.310, 17, 0.00, 0.20, 96, -1.000, -0.200, -22.500, 1614, 100, 100, 28, 24068, -17737, 4190, 4365, 9, 14, 1529359377.310, 75, 0, 1024, 1024, 1024, 1024, 0, 6, 3996, 4011, 4012, 4009, 4014, 4010, 0, 1, 19700, -89.900, 0.000, -23.700, 0.000, 0.000, -2.900, 0.0, , , , , , 98, , , 61, 61, 61
37.0262320, -119.2351907, 42.900, 15:02:57.409, 17, 0.00, 0.20, 96, -1.500, -0.200, -22.600, 1614, 100, 100, 28, 24068, -17737, 4190, 4365, 9, 14, 1529359377.409, 79, 0, 1024, 1024, 1024, 1024, 0, 6, 3996, 4011, 4012, 4009, 4014, 4010, 0, 1, 19799, -89.900, 0.000, -23.700, 0.000, 0.000, -3.000, 0.0, , , , , , 98, , , 61, 61, 61
37.0262320, -119.2351905, 43.200, 15:02:57.510, 17, 0.00, 0.21, 96, -1.700, -0.200, -22.700, 1614, 100, 100, 28, 24068, -17737, 4190, 4365, 9, 14, 1529359377.510, 64, 0, 1024, 1024, 1024, 1024, 0, 6, 3996, 4011, 4012, 4009, 4014, 4010, 0, 1, 19900, -89.900, 0.000, -23.700, 0.000, 0.000, -3.000, 0.0, , , , , , 98, , , 61, 61, 61
37.0262320, -119.2351905, 43.500, 15:02:57.609, 17, 0.00, 0.21, 96, -1.900, -0.400, -22.800, 1614, 100, 100, 28, 24068, -17737, 4190, 4365, 9, 14, 1529359377.609, 87, 0, 1024, 1024, 1024, 1024, 0, 6, 3996, 4011, 4012, 4009, 4014, 4010, 0, 1, 19999, -90.000, 0.000, -23.700, 0.000, 0.000, -2.900, 0.0, , , , , , 98, , , 61, 61, 61
37.0262320, -119.2351904, 43.800, 15:02:57.710, 17, 0.00, 0.22, 96, -1.800, -0.600, -22.900, 1614, 100, 100, 28, 24068, -17737, 4190, 4365, 9, 14, 1529359377.710, 69, 0, 1024, 1024, 1024, 1024, 0, 6, 3996, 4011, 4012, 4009, 4014, 4010, 0, 1, 20100, -90.000, 0.000, -23.700, 0.000, 0.000, -2.900, 0.0, , , , , , 98, , , 61, 61, 61
37.0262321, -119.2351903, 44.100, 15:02:57.810, 17, 0.00, 0.22, 96, -1.600, -0.700, -22.900, 1614, 100, 100, 28, 24068, -17737, 4190, 4365, 9, 14, 1529359377.810, 72, 0, 1024, 1024, 1024, 1024, 0, 6, 3996, 4011, 4012, 4009, 4014, 4010, 0, 1, 20200, -89.900, 0.000, -23.700, 0.000, 0.000, -2.800, 0.0, , , , , , 98, , , 61, 61, 61
37.0262321, -119.2351903, 44.400, 15:02:57.910, 17, 0.00, 0.22, 96, -1.200, -0.500, -22.800, 1614, 100, 100, 28, 24068, -17737, 4190, 4365, 9, 14, 1529359377.910, 52, 0, 1024, 1024, 1024, 1024, 0, 6, 3996, 4011, 4012, 4009, 4014, 4010, 0, 1, 20300, -89.900, 0.000, -23.700, 0.000, 0.000, -2.800, 0.0, , , , , , 98, , , 61, 61, 61
37.0262321, -119.2351903, 44.700, 15:02:58.010, 17, 0.00, 0.23, 96, -0.800, -0.300, -22.600, 1614, 100, 100, 28, 24068, -17737, 4190, 4365, 9, 14, 1529359378.010, 54, 0, 1024, 1024, 1024, 1024, 0, 6, 3996, 4011, 4012, 4009, 4014, 4010, 0, 1, 20400, -89.900, 0.000, -23.700, 0.000, 0.000, -2.900, 0.0, , , , , , 98, , , 61, 61, 61
37.0262321, -119.2351902, 45.300, 15:02:58.110, 17, 0.00, 0.22, 96, -1.000, 0.000, -22.400, 1614, 100, 100, 28, 24068, -17737, 4190, 4365, 9, 14, 1529359378.110, 32, 0, 1024, 1024, 1024, 1024, 0, 6, 3996, 4011, 4012, 4009, 4014, 4010, 0, 1, 20500, -89.900, 0.000, -23.700, 0.000, 0.000, -2.900, 0.0, , , , , , 98, , , 61, 61, 61
37.0262321, -119.2351902, 45.300, 15:02:58.210, 17, 0.00, 0.22, 96, -1.000, 0.000, -22.400, 1614, 100, 100, 28, 24068, -17737, 4190, 4365, 9, 14, 1529359378.210, 132, 0, 1024, 1024, 1024, 1024, 0, 6, 3996, 4011, 4012, 4009, 4014, 4010, 0, 1, 20600, -89.900, 0.000, -23.700, 0.000, 0.000, -2.900, 0.0, , , , , , 98, , , 61, 61, 61
37.0262322, -119.2351902, 45.500, 15:02:58.310, 17, 0.00, 0.23, 96, -1.200, -0.200, -22.400, 1614, 100, 100, 28, 24026, -17893, 4190, 4365, 9, 14, 1529359378.310, 25, 0, 1024, 1024, 1024, 1024, 0, 6, 3996, 4016, 4008, 4008, 4013, 4004, 0, 1, 20700, -89.900, 0.000, -23.700, 0.000, 0.000, -2.900, 0.0, , , , , , 98, , , 61, 61, 61
