Latitude, Longitude, Altitude (m), Time, Sats, Speed (m/s), Range (m), Battery (%), Roll (deg), Pitch (deg), Yaw (deg), Images, HD Signal (%), RC Signal (%), Battery Temp (C), Battery Voltage (mV), Battery Current (mA), Battery Energy (mAh), Battery Capacity (mAh), Battery Discharges, flyState, timestamp (Unix), LastUpdate (ms), radioChannel, Rc_elevator, Rc_aileron, Rc_throttle, Rc_rudder, Rc_gyro, Dronetype, Battery_Cell1 (mV), Battery_Cell2 (mV), Battery_Cell3 (mV), Battery_Cell4 (mV), Battery_Cell5 (mV), Battery_Cell6 (mV), Video, isFlying, elapsedTime (ms), gimbalPitch (deg), gimbalRoll (deg), gimbalYaw (deg), VelocityX (m/s), VelocityY (m/s), VelocityZ (m/s), GroundSmear (cm), App Version, Aircraft Name, Aircraft Firmware, Aircraft Serial Number, Battery Serial Number, Battery Lifetime (%), App_Tip, App_Warning, CurrentFlightStartingIndex, CurrentFlightLastVisitedWaypoint, PreviousFlightEndingWaypointIndex
36.7916122, -118.9555643, -0.200, 14:13:46.266, 12, 0.20, 0.06, 100, 1.700, -2.300, 4.500, 1091, 100, 100, 23, 25834, -1290, 5320, 5320, 20, 11, 1529010826.267, 38, 0, 1024, 1024, 1024, 1024, 0, 6, 4297, 4306, 4307, 4310, 4303, 4303, 0, 1, 3026, -89.900, 0.000, 3.100, 0.200, 0.000, -0.100, 0.0, MapPilot_2.8.1_04242018, Dendroctonus I, 1.3.1.00, 041DDC1887, 1058171200140, 95, DJI_0088.jpg, Starting Mission from Lat/Long: 36.79161/-118.95557 Camera: Zenmuse X3 - Overlap: 90/90 - Active Connection: No, 31, 31, 31
36.7916125, -118.9555642, -0.200, 14:13:46.341, 12, 0.30, 0.10, 100, 1.200, -1.100, 4.700, 1091, 100, 100, 23, 25591, -3865, 5320, 5320, 20, 11, 1529010826.341, 8, 0, 1024, 1024, 1024, 1024, 0, 6, 4255, 4287, 4296, 4276, 4282, 4257, 0, 1, 3100, -89.900, 0.000, 3.100, 0.300, 0.000, -0.300, 0.0, , , , , , 95, , , 31, 31, 31
36.7916128, -118.9555641, -0.100, 14:13:46.441, 12, 0.30, 0.13, 100, 0.400, 0.500, 4.700, 1091, 100, 100, 23, 25591, -3865, 5320, 5320, 20, 11, 1529010826.441, 10, 0, 1024, 1024, 1024, 1024, 0, 6, 4255, 4287, 4296, 4276, 4282, 4257, 0, 1, 3200, -89.900, 0.000, 3.200, 0.300, 0.000, -0.400, 0.0, , , , , , 95, , , 31, 31, 31
36.7916132, -118.9555640, -0.100, 14:13:46.541, 12, 0.30, 0.17, 100, -0.100, 1.600, 4.600, 1091, 100, 100, 23, 25591, -3865, 5320, 5320, 20, 11, 1529010826.541, 10, 0, 1024, 1024, 1024, 1024, 0, 6, 4255, 4287, 4296, 4276, 4282, 4257, 0, 1, 3301, -89.900, 0.000, 3.200, 0.300, 0.000, -0.500, 0.0, , , , , , 95, , , 31, 31, 31
36.7916132, -118.9555640, -0.100, 14:13:46.641, 12, 0.30, 0.17, 100, -0.100, 1.600, 4.600, 1091, 100, 100, 23, 25591, -3865, 5320, 5320, 20, 11, 1529010826.641, 110, 0, 1024, 1024, 1024, 1024, 0, 6, 4255, 4287, 4296, 4276, 4282, 4257, 0, 1, 3401, -89.900, 0.000, 3.200, 0.300, 0.000, -0.500, 0.0, , , , , , 95, , , 31, 31, 31
36.7916139, -118.9555639, 0.000, 14:13:46.740, 12, 0.30, 0.26, 100, -0.100, 4.000, 4.500, 1091, 100, 100, 23, 25591, -3865, 5320, 5320, 20, 11, 1529010826.741, 90, 0, 1024, 1024, 1024, 1024, 0, 6, 4255, 4287, 4296, 4276, 4282, 4257, 0, 1, 3500, -89.900, 0.000, 3.200, 0.300, 0.000, -0.400, 0.0, , , , , , 95, , , 31, 31, 31
36.7916142, -118.9555638, 0.000, 14:13:46.841, 12, 0.30, 0.29, 100, -0.100, 4.500, 4.400, 1091, 100, 100, 23, 25591, -3865, 5320, 5320, 20, 11, 1529010826.841, 81, 0, 1024, 1024, 1024, 1024, 0, 6, 4255, 4287, 4296, 4276, 4282, 4257, 0, 1, 3601, -89.900, 0.000, 3.200, 0.300, 0.000, -0.300, 0.0, , , , , , 95, , , 31, 31, 31
36.7916144, -118.9555638, 0.000, 14:13:46.941, 12, 0.20, 0.32, 100, -0.200, 4.100, 4.300, 1091, 100, 100, 23, 25591, -3865, 5320, 5320, 20, 11, 1529010826.941, 88, 0, 1024, 1024, 1024, 1024, 0, 6, 4255, 4287, 4296, 4276, 4282, 4257, 0, 1, 3701, -89.900, 0.000, 3.200, 0.200, 0.000, -0.300, 0.0, , , , , , 95, , , 31, 31, 31
36.7916147, -118.9555637, 0.100, 14:13:47.041, 13, 0.10, 0.34, 100, 0.000, 3.300, 4.300, 1091, 100, 100, 23, 25591, -3865, 5320, 5320, 20, 11, 1529010827.042, 58, 0, 1024, 1024, 1024, 1024, 0, 6, 4255, 4287, 4296, 4276, 4282, 4257, 0, 1, 3801, -89.900, 0.000, 3.300, 0.100, 0.000, -0.400, 0.0, , , , , , 95, , , 31, 31, 31
36.7916148, -118.9555637, 0.100, 14:13:47.141, 13, 0.10, 0.36, 100, 0.200, 2.600, 4.200, 1091, 100, 100, 23, 25591, -3865, 5320, 5320, 20, 11, 1529010827.141, 58, 0, 1024, 1024, 1024, 1024, 0, 6, 4255, 4287, 4296, 4276, 4282, 4257, 0, 1, 3901, -90.000, 0.000, 3.300, 0.100, 0.000, -0.400, 0.0, , , , , , 95, , , 31, 31, 31
36.7916150, -118.9555637, 0.100, 14:13:47.241, 13, 0.10, 0.38, 100, 0.200, 2.100, 4.100, 1091, 100, 100, 23, 25591, -3865, 5320, 5320, 20, 11, 1529010827.241, 71, 0, 1024, 1024, 1024, 1024, 0, 6, 4255, 4287, 4296, 4276, 4282, 4257, 0, 1, 4000, -90.000, 0.000, 3.300, 0.100, 0.000, -0.400, 0.0, , , , , , 95, , , 31, 31, 31
36.7916151, -118.9555637, 0.200, 14:13:47.341, 13, 0.10, 0.39, 100, 0.100, 1.500, 4.200, 1091, 100, 100, 23, 24883, -11129, 5320, 5320, 20, 11, 1529010827.341, 52, 0, 1024, 1024, 1024, 1024, 0, 6, 4066, 4088, 4102, 4106, 4072, 4107, 0, 1, 4101, -90.000, 0.000, 3.300, 0.100, 0.000, -0.400, 0.0, , , , , , 95, , , 31, 31, 31
36.7916152, -118.9555637, 0.200, 14:13:47.441, 12, 0.10, 0.40, 100, 0.100, 1.000, 4.200, 1091, 100, 100, 23, 24883, -11129, 5320, 5320, 20, 11, 1529010827.441, 56, 0, 1024, 1024, 1024, 1024, 0, 6, 4066, 4088, 4102, 4106, 4072, 4107, 0, 1, 4201, -90.000, 0.000, 3.300, 0.100, 0.000, -0.500, 0.0, , , , , , 95, , , 31, 31, 31
36.7916152, -118.9555637, 0.300, 14:13:47.541, 12, 0.00, 0.40, 100, 0.200, 0.800, 4.300, 1091, 100, 100, 23, 24883, -11129, 5320, 5320, 20, 11, 1529010827.542, 59, 0, 1024, 1024, 1024, 1024, 0, 6, 4066, 4088, 4102, 4106, 4072, 4107, 0, 1, 4301, -90.000, 0.000, 3.300, 0.000, 0.000, -0.500, 0.0, , , , , , 95, , , 31, 31, 31
36.7916154, -118.9555638, 0.400, 14:13:47.641, 13, 0.10, 0.42, 100, 0.500, 0.900, 4.300, 1091, 100, 100, 23, 24883, -11129, 5320, 5320, 20, 11, 1529010827.641, 61, 0, 1024, 1024, 1024, 1024, 0, 6, 4066, 4088, 4102, 4106, 4072, 4107, 0, 1, 4401, -90.000, 0.000, 3.300, 0.100, 0.000, -0.500, 0.0, , , , , , 95, , , 31, 31, 31
36.7916156, -118.9555638, 0.400, 14:13:47.741, 13, 0.10, 0.44, 100, 0.600, 1.200, 4.400, 1091, 100, 100, 23, 24883, -11129, 5320, 5320, 20, 11, 1529010827.741, 29, 0, 1024, 1024, 1024, 1024, 0, 6, 4066, 4088, 4102, 4106, 4072, 4107, 0, 1, 4501, -90.000, 0.000, 3.400, 0.100, 0.000, -0.500, 0.0, , , , , , 95, , , 31, 31, 31
36.7916157, -118.9555639, 0.500, 14:13:47.841, 13, 0.10, 0.46, 100, 0.700, 1.500, 4.500, 1091, 100, 100, 23, 24883, -11129, 5320, 5320, 20, 11, 1529010827.841, 22, 0, 1024, 1024, 1024, 1024, 0, 6, 4066, 4088, 4102, 4106, 4072, 4107, 0, 1, 4600, -90.000, 0.000, 3.400, 0.100, 0.000, -0.500, 0.0, , , , , , 95, , , 31, 31, 31
36.7916158, -118.9555640, 0.500, 14:13:47.941, 13, 0.10, 0.47, 100, 0.700, 1.600, 4.600, 1091, 100, 100, 23, 24883, -11129, 5320, 5320, 20, 11, 1529010827.941, 29, 0, 1024, 1024, 1024, 1024, 0, 6, 4066, 4088, 4102, 4106, 4072, 4107, 0, 1, 4700, -89.900, 0.000, 3.400, 0.100, 0.000, -0.500, 0.0, , , , , , 95, , , 31, 31, 31
36.7916160, -118.9555640, 0.600, 14:13:48.041, 14, 0.10, 0.48, 100, 0.700, 1.800, 4.700, 1091, 100, 100, 23, 24883, -11129, 5320, 5320, 20, 11, 1529010828.041, 9, 0, 1024, 1024, 1024, 1024, 0, 6, 4066, 4088, 4102, 4106, 4072, 4107, 0, 1, 4800, -90.000, 0.000, 3.400, 0.100, 0.000, -0.400, 0.0, , , , , , 95, , , 31, 31, 31
36.7916161, -118.9555640, 0.600, 14:13:48.141, 14, 0.00, 0.49, 100, 0.600, 2.000, 4.700, 1091, 100, 100, 23, 24883, -11129, 5320, 5320, 20, 11, 1529010828.141, 22, 0, 1024, 1024, 1024, 1024, 0, 6, 4066, 4088, 4102, 4106, 4072, 4107, 0, 1, 4901, -90.000, 0.000, 3.400, 0.000, 0.000, -0.400, 0.0, , , , , , 95, , , 31, 31, 31
36.7916161, -118.9555641, 0.700, 14:13:48.241, 14, 0.00, 0.50, 100, 0.700, 2.200, 4.800, 1091, 100, 100, 23, 24331, -11129, 5320, 5320, 20, 11, 1529010828.241, 4, 0, 1024, 1024, 1024, 1024, 0, 6, 4028, 4058, 4050, 4079, 4044, 4056, 0, 1, 5000, -89.900, 0.000, 3.400, 0.000, 0.000, -0.400, 0.0, , , , , , 95, , , 31, 31, 31
36.7916161, -118.9555641, 0.700, 14:13:48.341, 14, 0.00, 0.50, 100, 0.700, 2.200, 4.800, 1091, 100, 100, 23, 24331, -11129, 5320, 5320, 20, 11, 1529010828.341, 103, 0, 1024, 1024, 1024, 1024, 0, 6, 4028, 4058, 4050, 4079, 4044, 4056, 0, 1, 5100, -89.900, 0.000, 3.400, 0.000, 0.000, -0.400, 0.0, , , , , , 95, , , 31, 31, 31
36.7916162, -118.9555641, 0.800, 14:13:48.441, 15, 0.00, 0.50, 100, 0.600, 2.100, 4.900, 1091, 100, 100, 23, 24331, -11129, 5320, 5320, 20, 11, 1529010828.441, 17, 0, 1024, 1024, 1024, 1024, 0, 6, 4028, 4058, 4050, 4079, 4044, 4056, 0, 1, 5201, -90.000, 0.000, 3.400, 0.000, 0.000, -0.500, 0.0, , , , , , 95, , , 31, 31, 31
36.7916162, -118.9555641, 0.800, 14:13:48.541, 15, 0.00, 0.50, 100, 0.600, 2.100, 4.900, 1091, 100, 100, 23, 24331, -11129, 5320, 5320, 20, 11, 1529010828.541, 117, 0, 1024, 1024, 1024, 1024, 0, 6, 4028, 4058, 4050, 4079, 4044, 4056, 0, 1, 5301, -90.000, 0.000, 3.400, 0.000, 0.000, -0.500, 0.0, , , , , , 95, , , 31, 31, 31
36.7916161, -118.9555641, 0.900, 14:13:48.643, 13, 0.00, 0.50, 100, 0.300, 1.800, 4.800, 1091, 100, 100, 23, 24331, -11129, 5320, 5320, 20, 14, 1529010828.644, 3, 0, 1024, 1024, 1024, 1024, 0, 6, 4028, 4058, 4050, 4079, 4044, 4056, 0, 1, 5403, -90.000, 0.000, 3.400, 0.000, 0.000, -0.500, 0.0, , , , , , 95, , , 31, 31, 31
36.7916161, -118.9555641, 0.900, 14:13:48.741, 13, 0.00, 0.50, 100, 0.300, 1.800, 4.800, 1091, 100, 100, 23, 24331, -11129, 5320, 5320, 20, 14, 1529010828.741, 100, 0, 1024, 1024, 1024, 1024, 0, 6, 4028, 4058, 4050, 4079, 4044, 4056, 0, 1, 5500, -90.000, 0.000, 3.400, 0.000, 0.000, -0.500, 0.0, , , , , , 95, , , 31, 31, 31
36.7916161, -118.9555641, 0.900, 14:13:48.841, 13, 0.00, 0.50, 100, 0.300, 1.600, 4.800, 1091, 100, 100, 23, 24331, -11129, 5320, 5320, 20, 14, 1529010828.841, 94, 0, 1024, 1024, 1024, 1024, 0, 6, 4028, 4058, 4050, 4079, 4044, 4056, 0, 1, 5601, -90.000, 0.000, 3.400, 0.000, 0.000, -0.300, 0.0, , , , , , 95, , , 31, 31, 31
36.7916161, -118.9555642, 1.000, 14:13:48.941, 13, 0.00, 0.49, 100, 0.100, 0.700, 4.900, 1091, 100, 100, 23, 24331, -11129, 5320, 5320, 20, 14, 1529010828.941, 98, 0, 1024, 1024, 1024, 1024, 0, 6, 4028, 4058, 4050, 4079, 4044, 4056, 0, 1, 5701, -90.000, 0.000, 3.500, 0.000, 0.000, -0.200, 0.0, , , , , , 95, , , 31, 31, 31
36.7916160, -118.9555642, 1.000, 14:13:49.041, 13, 0.00, 0.49, 100, 0.100, 0.300, 5.100, 1091, 100, 100, 23, 24331, -11129, 5320, 5320, 20, 14, 1529010829.041, 89, 0, 1024, 1024, 1024, 1024, 0, 6, 4028, 4058, 4050, 4079, 4044, 4056, 0, 1, 5800, -90.000, 0.000, 3.500, 0.000, 0.000, -0.300, 0.0, , , , , , 95, , , 31, 31, 31
36.7916160, -118.9555643, 1.100, 14:13:49.141, 13, 0.00, 0.49, 100, 0.300, 0.500, 5.400, 1091, 100, 100, 23, 24331, -11129, 5320, 5320, 20, 14, 1529010829.141, 93, 0, 1024, 1024, 1024, 1024, 0, 6, 4028, 4058, 4050, 4079, 4044, 4056, 0, 1, 5901, -90.000, 0.000, 3.500, 0.000, 0.000, -0.400, 0.0, , , , , , 95, , , 31, 31, 31
36.7916160, -118.9555644, 1.100, 14:13:49.241, 13, 0.00, 0.49, 100, 0.700, 0.700, 5.500, 1091, 100, 100, 23, 24331, -11129, 5320, 5320, 20, 14, 1529010829.241, 79, 0, 1024, 1024, 1024, 1024, 0, 6, 4028, 4058, 4050, 4079, 4044, 4056, 0, 1, 6000, -90.000, 0.000, 3.600, 0.000, 0.000, -0.600, 0.0, , , , , , 95, , , 31, 31, 31
36.7916161, -118.9555644, 1.200, 14:13:49.341, 13, 0.00, 0.49, 100, 0.900, 0.900, 5.400, 1091, 100, 100, 23, 24152, -15927, 5213, 5320, 20, 14, 1529010829.341, 69, 0, 1024, 1024, 1024, 1024, 0, 6, 3978, 4062, 4020, 4042, 4012, 4032, 0, 1, 6100, -90.000, 0.000, 3.600, 0.000, 0.000, -0.700, 0.0, , , , , , 95, , , 31, 31, 31
36.7916161, -118.9555645, 1.200, 14:13:49.441, 13, 0.00, 0.49, 100, 1.100, 1.000, 5.400, 1091, 100, 100, 23, 24152, -15927, 5213, 5320, 20, 14, 1529010829.441, 60, 0, 1024, 1024, 1024, 1024, 0, 6, 3978, 4062, 4020, 4042, 4012, 4032, 0, 1, 6200, -90.000, 0.000, 3.600, 0.000, 0.000, -0.800, 0.0, , , , , , 95, , , 31, 31, 31
36.7916161, -118.9555646, 1.300, 14:13:49.541, 13, 0.00, 0.50, 100, 1.500, 0.900, 5.400, 1091, 100, 100, 23, 24152, -15927, 5213, 5320, 20, 14, 1529010829.541, 51, 0, 1024, 1024, 1024, 1024, 0, 6, 3978, 4062, 4020, 4042, 4012, 4032, 0, 1, 6300, -90.000, 0.000, 3.600, 0.000, 0.000, -1.000, 0.0, , , , , , 95, , , 31, 31, 31
36.7916161, -118.9555647, 1.400, 14:13:49.641, 13, 0.00, 0.50, 100, 1.500, 0.900, 5.300, 1091, 100, 100, 23, 24152, -15927, 5213, 5320, 20, 14, 1529010829.641, 58, 0, 1024, 1024, 1024, 1024, 0, 6, 3978, 4062, 4020, 4042, 4012, 4032, 0, 1, 6400, -90.000, 0.000, 3.600, 0.000, 0.000, -1.200, 0.0, , , , , , 95, , , 31, 31, 31
36.7916161, -118.9555648, 1.600, 14:13:49.741, 13, 0.00, 0.50, 100, 1.200, 1.100, 5.200, 1091, 100, 100, 23, 24152, -15927, 5213, 5320, 20, 14, 1529010829.741, 60, 0, 1024, 1024, 1024, 1024, 0, 6, 3978, 4062, 4020, 4042, 4012, 4032, 0, 1, 6500, -89.900, 0.000, 3.700, 0.000, 0.000, -1.500, 0.0, , , , , , 95, , , 31, 31, 31
36.7916161, -118.9555650, 1.700, 14:13:49.841, 13, 0.00, 0.50, 100, 0.900, 1.200, 5.000, 1091, 100, 100, 23, 24152, -15927, 5213, 5320, 20, 14, 1529010829.841, 51, 0, 1024, 1024, 1024, 1024, 0, 6, 3978, 4062, 4020, 4042, 4012, 4032, 0, 1, 6600, -90.000, 0.000, 3.700, 0.000, 0.000, -1.700, 0.0, , , , , , 95, , , 31, 31, 31
36.7916161, -118.9555651, 1.900, 14:13:49.941, 13, 0.00, 0.50, 100, 0.900, 1.000, 4.800, 1091, 100, 100, 23, 24152, -15927, 5213, 5320, 20, 14, 1529010829.941, 57, 0, 1024, 1024, 1024, 1024, 0, 6, 3978, 4062, 4020, 4042, 4012, 4032, 0, 1, 6700, -90.000, 0.000, 3.700, 0.000, 0.000, -2.000, 0.0, , , , , , 95, , , 31, 31, 31
36.7916161, -118.9555653, 2.100, 14:13:50.041, 14, 0.00, 0.50, 100, 1.100, 0.700, 4.700, 1091, 100, 100, 23, 24152, -15927, 5213, 5320, 20, 14, 1529010830.041, 61, 0, 1024, 1024, 1024, 1024, 0, 6, 3978, 4062, 4020, 4042, 4012, 4032, 0, 1, 6800, -90.000, 0.000, 3.800, 0.000, 0.000, -2.200, 0.0, , , , , , 95, , , 31, 31, 31
36.7916160, -118.9555656, 2.300, 14:13:50.141, 14, 0.00, 0.50, 100, 1.400, 0.700, 4.600, 1091, 100, 100, 23, 24152, -15927, 5213, 5320, 20, 14, 1529010830.141, 41, 0, 1024, 1024, 1024, 1024, 0, 6, 3978, 4062, 4020, 4042, 4012, 4032, 0, 1, 6900, -89.900, 0.000, 3.800, 0.000, 0.000, -2.500, 0.0, , , , , , 95, , , 31, 31, 31
36.7916160, -118.9555658, 2.600, 14:13:50.241, 14, 0.00, 0.50, 100, 1.900, 0.800, 4.600, 1091, 100, 100, 23, 24152, -15927, 5213, 5320, 20, 14, 1529010830.241, 31, 0, 1024, 1024, 1024, 1024, 0, 6, 3978, 4062, 4020, 4042, 4012, 4032, 0, 1, 7000, -90.000, 0.000, 3.800, 0.000, 0.000, -2.700, 0.0, , , , , , 95, , , 31, 31, 31
36.7916159, -118.9555659, 2.900, 14:13:50.341, 14, 0.00, 0.50, 98, 2.000, 0.700, 4.700, 1091, 100, 100, 23, 23514, -24475, 5213, 5320, 20, 14, 1529010830.341, 36, 0, 1024, 1024, 1024, 1024, 0, 6, 3978, 4062, 4020, 4042, 4012, 4032, 0, 1, 7100, -90.000, 0.000, 3.800, 0.000, 0.000, -2.800, 0.0, , , , , , 95, , , 31, 31, 31
36.7916158, -118.9555660, 3.200, 14:13:50.441, 14, 0.00, 0.49, 98, 1.900, 0.600, 4.800, 1091, 100, 100, 23, 23514, -24475, 5213, 5320, 20, 14, 1529010830.441, 11, 0, 1024, 1024, 1024, 1024, 0, 6, 3978, 4062, 4020, 4042, 4012, 4032, 0, 1, 7200, -90.000, 0.000, 3.800, 0.000, 0.000, -2.900, 0.0, , , , , , 95, , , 31, 31, 31
36.7916157, -118.9555661, 3.500, 14:13:50.541, 14, 0.00, 0.48, 98, 1.700, 0.500, 4.800, 1091, 100, 100, 23, 23514, -24475, 5213, 5320, 20, 14, 1529010830.541, 18, 0, 1024, 1024, 1024, 1024, 0, 6, 3978, 4062, 4020, 4042, 4012, 4032, 0, 1, 7300, -90.000, 0.000, 3.900, 0.000, 0.000, -3.100, 0.0, , , , , , 95, , , 31, 31, 31
36.7916156, -118.9555661, 3.800, 14:13:50.641, 14, 0.00, 0.47, 98, 1.600, 0.600, 4.900, 1091, 100, 100, 23, 23514, -24475, 5213, 5320, 20, 14, 1529010830.641, 23, 0, 1024, 1024, 1024, 1024, 0, 6, 3978, 4062, 4020, 4042, 4012, 4032, 0, 1, 7400, -90.000, 0.000, 3.900, 0.000, 0.000, -3.200, 0.0, , , , , , 95, , , 31, 31, 31
36.7916155, -118.9555661, 4.100, 14:13:50.741, 14, 0.00, 0.46, 98, 1.500, 0.400, 5.100, 1091, 100, 100, 23, 23514, -24475, 5213, 5320, 20, 14, 1529010830.742, 27, 0, 1024, 1024, 1024, 1024, 0, 6, 3883, 3918, 3926, 3952, 3871, 4006, 0, 1, 7501, -90.000, 0.000, 3.900, 0.000, 0.000, -3.200, 0.0, , , , , , 95, , , 31, 31, 31
36.7916153, -118.9555661, 4.500, 14:13:50.841, 14, 0.00, 0.44, 98, 1.000, 0.100, 5.200, 1091, 100, 100, 23, 23514, -24475, 5213, 5320, 20, 14, 1529010830.841, 5, 0, 1024, 1024, 1024, 1024, 0, 6, 3883, 3918, 3926, 3952, 3871, 4006, 0, 1, 7600, -90.000, 0.000, 3.900, 0.000, 0.000, -3.300, 0.0, , , , , , 95, , , 31, 31, 31
36.7916153, -118.9555661, 4.500, 14:13:50.941, 14, 0.00, 0.44, 98, 1.000, 0.100, 5.200, 1091, 100, 100, 23, 23514, -24475, 5213, 5320, 20, 14, 1529010830.941, 105, 0, 1024, 1024, 1024, 1024, 0, 6, 3883, 3918, 3926, 3952, 3871, 4006, 0, 1, 7700, -90.000, 0.000, 3.900, 0.000, 0.000, -3.300, 0.0, , , , , , 95, , , 31, 31, 31
36.7916151, -118.9555661, 4.800, 14:13:51.040, 14, 0.00, 0.42, 98, 0.800, 0.000, 5.300, 1091, 100, 100, 23, 23514, -24475, 5213, 5320, 20, 14, 1529010831.041, 84, 0, 1024, 1024, 1024, 1024, 0, 6, 3883, 3918, 3926, 3952, 3871, 4006, 0, 1, 7800, -90.000, 0.000, 3.900, 0.000, 0.000, -3.300, 0.0, , , , , , 95, , , 31, 31, 31
36.7916150, -118.9555660, 5.100, 14:13:51.141, 14, 0.00, 0.41, 98, 1.100, 0.000, 5.400, 1091, 100, 100, 23, 23514, -24475, 5213, 5320, 20, 14, 1529010831.141, 86, 0, 1024, 1024, 1024, 1024, 0, 6, 3883, 3918, 3926, 3952, 3871, 4006, 0, 1, 7900, -90.000, 0.000, 3.900, 0.000, 0.000, -3.400, 0.0, , , , , , 95, , , 31, 31, 31
36.7916149, -118.9555658, 5.500, 14:13:51.241, 14, 0.10, 0.39, 98, 0.900, 0.000, 5.500, 1091, 100, 100, 23, 23514, -24475, 5213, 5320, 20, 14, 1529010831.241, 88, 0, 1024, 1024, 1024, 1024, 0, 6, 3883, 3918, 3926, 3952, 3871, 4006, 0, 1, 8000, -90.000, 0.000, 4.000, 0.000, 0.100, -3.400, 0.0, , , , , , 95, , , 31, 31, 31
36.7916148, -118.9555656, 6.200, 14:13:51.341, 13, 0.10, 0.37, 98, -0.300, -0.100, 5.100, 1091, 100, 100, 23, 23514, -24475, 5213, 5320, 20, 14, 1529010831.341, 69, 0, 1024, 1024, 1024, 1024, 0, 6, 3883, 3918, 3926, 3952, 3871, 4006, 0, 1, 8100, -90.000, 0.000, 4.000, 0.000, 0.100, -3.400, 0.0, , , , , , 95, , , 31, 31, 31
36.7916148, -118.9555654, 6.600, 14:13:51.441, 13, 0.10, 0.36, 98, -0.500, -0.200, 4.900, 1091, 100, 100, 23, 23514, -24475, 5213, 5320, 20, 14, 1529010831.441, 93, 0, 1024, 1024, 1024, 1024, 0, 6, 3883, 3918, 3926, 3952, 3871, 4006, 0, 1, 8200, -89.900, 0.000, 4.000, 0.000, 0.100, -3.400, 0.0, , , , , , 95, , , 31, 31, 31
36.7916147, -118.9555653, 6.900, 14:13:51.541, 13, 0.00, 0.35, 98, -0.500, -0.200, 4.800, 1091, 100, 100, 23, 23514, -24475, 5213, 5320, 20, 14, 1529010831.541, 88, 0, 1024, 1024, 1024, 1024, 0, 6, 3883, 3918, 3926, 3952, 3871, 4006, 0, 1, 8300, -89.900, 0.000, 4.000, 0.000, 0.000, -3.300, 0.0, , , , , , 95, , , 31, 31, 31
36.7916147, -118.9555652, 7.200, 14:13:51.641, 14, 0.00, 0.35, 98, -0.500, -0.300, 4.800, 1091, 100, 100, 23, 23514, -24475, 5213, 5320, 20, 14, 1529010831.641, 55, 0, 1024, 1024, 1024, 1024, 0, 6, 3883, 3918, 3926, 3952, 3871, 4006, 0, 1, 8400, -90.000, 0.000, 4.000, 0.000, 0.000, -3.200, 0.0, , , , , , 95, , , 31, 31, 31
36.7916148, -118.9555650, 7.600, 14:13:51.741, 14, 0.00, 0.35, 98, -0.300, -0.200, 4.900, 1091, 100, 100, 23, 23514, -24475, 5213, 5320, 20, 14, 1529010831.741, 61, 0, 1024, 1024, 1024, 1024, 0, 6, 3883, 3918, 3926, 3952, 3871, 4006, 0, 1, 8500, -90.000, 0.000, 4.000, 0.000, 0.000, -3.200, 0.0, , , , , , 95, , , 31, 31, 31
36.7916148, -118.9555649, 7.900, 14:13:51.841, 15, 0.00, 0.36, 98, 0.000, 0.000, 5.000, 1091, 100, 100, 23, 23475, -22596, 5213, 5320, 20, 14, 1529010831.841, 76, 0, 1024, 1024, 1024, 1024, 0, 6, 3895, 3916, 3919, 3933, 3912, 3929, 0, 1, 8600, -89.900, 0.000, 4.000, 0.000, 0.000, -3.200, 0.0, , , , , , 95, , , 31, 31, 31
36.7916148, -118.9555649, 8.200, 14:13:51.941, 15, 0.00, 0.36, 98, 0.000, 0.100, 5.200, 1091, 100, 100, 23, 23475, -22596, 5213, 5320, 20, 14, 1529010831.942, 71, 0, 1024, 1024, 1024, 1024, 0, 6, 3895, 3916, 3919, 3933, 3912, 3929, 0, 1, 8701, -90.000, 0.000, 4.100, 0.000, 0.000, -3.300, 0.0, , , , , , 95, , , 31, 31, 31
36.7916149, -118.9555648, 8.600, 14:13:52.041, 13, 0.00, 0.36, 98, 0.000, 0.100, 5.400, 1091, 100, 100, 23, 23475, -22596, 5213, 5320, 20, 14, 1529010832.041, 59, 0, 1024, 1024, 1024, 1024, 0, 6, 3895, 3916, 3919, 3933, 3912, 3929, 0, 1, 8800, -90.000, 0.000, 4.100, 0.000, 0.000, -3.300, 0.0, , , , , , 95, , , 31, 31, 31
36.7916150, -118.9555647, 8.900, 14:13:52.141, 13, 0.00, 0.37, 98, 0.000, 0.000, 5.500, 1091, 100, 100, 23, 23475, -22596, 5213, 5320, 20, 14, 1529010832.141, 68, 0, 1024, 1024, 1024, 1024, 0, 6, 3895, 3916, 3919, 3933, 3912, 3929, 0, 1, 8900, -90.000, 0.000, 4.100, 0.000, 0.000, -3.200, 0.0, , , , , , 95, , , 31, 31, 31
36.7916150, -118.9555646, 9.300, 14:13:52.241, 14, 0.00, 0.38, 98, 0.000, 0.200, 5.500, 1091, 100, 100, 23, 23475, -22596, 5213, 5320, 20, 14, 1529010832.241, 28, 0, 1024, 1024, 1024, 1024, 0, 6, 3895, 3916, 3919, 3933, 3912, 3929, 0, 1, 9000, -89.900, 0.000, 4.100, 0.000, 0.000, -3.100, 0.0, , , , , , 95, , , 31, 31, 31
36.7916151, -118.9555645, 9.600, 14:13:52.341, 14, 0.00, 0.38, 98, 0.300, 0.500, 5.500, 1091, 100, 100, 23, 23475, -22596, 5213, 5320, 20, 14, 1529010832.341, 56, 0, 1024, 1024, 1024, 1024, 0, 6, 3895, 3916, 3919, 3933, 3912, 3929, 0, 1, 9100, -89.900, 0.000, 4.100, 0.000, 0.000, -3.100, 0.0, , , , , , 95, , , 31, 31, 31
36.7916152, -118.9555644, 9.900, 14:13:52.441, 14, 0.00, 0.39, 98, 0.500, 0.600, 5.400, 1091, 100, 100, 23, 23475, -22596, 5213, 5320, 20, 14, 1529010832.441, 34, 0, 1024, 1024, 1024, 1024, 0, 6, 3895, 3916, 3919, 3933, 3912, 3929, 0, 1, 9200, -90.000, 0.000, 4.100, 0.000, 0.000, -3.100, 0.0, , , , , , 95, , , 31, 31, 31
36.7916152, -118.9555642, 10.200, 14:13:52.541, 14, 0.00, 0.40, 98, 0.400, 0.500, 5.200, 1091, 100, 100, 23, 23475, -22596, 5213, 5320, 20, 14, 1529010832.541, 46, 0, 1024, 1024, 1024, 1024, 0, 6, 3895, 3916, 3919, 3933, 3912, 3929, 0, 1, 9300, -90.000, 0.000, 4.100, 0.000, 0.000, -3.100, 0.0, , , , , , 95, , , 31, 31, 31
36.7916153, -118.9555641, 10.500, 14:13:52.641, 13, 0.00, 0.41, 98, 0.000, 0.500, 5.000, 1091, 100, 100, 23, 23475, -22596, 5213, 5320, 20, 14, 1529010832.641, 29, 0, 1024, 1024, 1024, 1024, 0, 6, 3895, 3916, 3919, 3933, 3912, 3929, 0, 1, 9400, -90.000, 0.000, 4.100, 0.000, 0.000, -3.100, 0.0, , , , , , 95, , , 31, 31, 31
36.7916153, -118.9555641, 10.900, 14:13:52.741, 13, 0.00, 0.41, 98, -0.300, 0.500, 4.800, 1091, 100, 100, 23, 23683, -18936, 5213, 5320, 20, 14, 1529010832.741, 18, 0, 1024, 1024, 1024, 1024, 0, 6, 3923, 3952, 3961, 3975, 3935, 3956, 0, 1, 9500, -90.000, 0.000, 4.100, 0.000, 0.000, -3.100, 0.0, , , , , , 95, , , 31, 31, 31
36.7916154, -118.9555639, 11.200, 14:13:52.841, 15, 0.00, 0.42, 98, -0.500, 0.300, 4.700, 1091, 100, 100, 23, 23683, -18936, 5213, 5320, 20, 14, 1529010832.841, 21, 0, 1024, 1024, 1024, 1024, 0, 6, 3923, 3952, 3961, 3975, 3935, 3956, 0, 1, 9600, -90.000, 0.000, 4.100, 0.000, 0.000, -3.100, 0.0, , , , , , 95, , , 31, 31, 31
36.7916155, -118.9555638, 11.500, 14:13:52.941, 15, 0.00, 0.43, 98, -0.900, 0.300, 4.600, 1091, 100, 100, 23, 23683, -18936, 5213, 5320, 20, 14, 1529010832.941, 23, 0, 1024, 1024, 1024, 1024, 0, 6, 3923, 3952, 3961, 3975, 3935, 3956, 0, 1, 9700, -89.900, 0.000, 4.100, 0.000, 0.000, -3.000, 0.0, , , , , , 95, , , 31, 31, 31
36.7916156, -118.9555637, 11.800, 14:13:53.041, 14, 0.00, 0.44, 98, -0.800, 0.500, 4.600, 1091, 100, 100, 23, 23683, -18936, 5213, 5320, 20, 14, 1529010833.041, 28, 0, 1024, 1024, 1024, 1024, 0, 6, 3923, 3952, 3961, 3975, 3935, 3956, 0, 1, 9800, -89.900, 0.000, 4.100, 0.000, 0.000, -3.000, 0.0, , , , , , 95, , , 31, 31, 31
36.7916157, -118.9555637, 12.100, 14:13:53.141, 14, 0.00, 0.45, 98, -0.700, 0.400, 4.700, 1091, 100, 100, 23, 23683, -18936, 5213, 5320, 20, 14, 1529010833.141, 19, 0, 1024, 1024, 1024, 1024, 0, 6, 3923, 3952, 3961, 3975, 3935, 3956, 0, 1, 9900, -90.000, 0.000, 4.100, 0.000, 0.000, -3.000, 0.0, , , , , , 95, , , 31, 31, 31
36.7916157, -118.9555638, 12.400, 14:13:53.241, 14, 0.00, 0.46, 98, -0.200, 0.600, 4.800, 1091, 100, 100, 23, 23683, -18936, 5213, 5320, 20, 14, 1529010833.241, 10, 0, 1024, 1024, 1024, 1024, 0, 6, 3923, 3952, 3961, 3975, 3935, 3956, 0, 1, 10000, -89.900, 0.000, 4.100, 0.000, 0.000, -3.000, 0.0, , , , , , 95, , , 31, 31, 31
36.7916158, -118.9555638, 12.700, 14:13:53.341, 14, 0.00, 0.47, 98, 0.100, 0.700, 4.900, 1091, 100, 100, 23, 23683, -18936, 5213, 5320, 20, 14, 1529010833.341, 10, 0, 1024, 1024, 1024, 1024, 0, 6, 3923, 3952, 3961, 3975, 3935, 3956, 0, 1, 10100, -89.900, 0.000, 4.100, 0.000, 0.000, -3.000, 0.0, , , , , , 95, , , 31, 31, 31
36.7916158, -118.9555638, 12.700, 14:13:53.441, 14, 0.00, 0.47, 98, 0.100, 0.700, 4.900, 1091, 100, 100, 23, 23683, -18936, 5213, 5320, 20, 14, 1529010833.441, 110, 0, 1024, 1024, 1024, 1024, 0, 6, 3923, 3952, 3961, 3975, 3935, 3956, 0, 1, 10200, -89.900, 0.000, 4.100, 0.000, 0.000, -3.000, 0.0, , , , , , 95, , , 31, 31, 31
36.7916159, -118.9555638, 13.000, 14:13:53.541, 12, 0.00, 0.48, 98, 0.500, 0.800, 4.900, 1091, 100, 100, 23, 23683, -18936, 5213, 5320, 20, 14, 1529010833.541, 97, 0, 1024, 1024, 1024, 1024, 0, 6, 3923, 3952, 3961, 3975, 3935, 3956, 0, 1, 10300, -89.900, 0.000, 4.100, 0.000, 0.000, -2.900, 0.0, , , , , , 95, , , 31, 31, 31
36.7916160, -118.9555637, 13.300, 14:13:53.641, 12, 0.00, 0.49, 98, 0.500, 0.900, 4.900, 1091, 100, 100, 23, 23683, -18936, 5213, 5320, 20, 14, 1529010833.641, 88, 0, 1024, 1024, 1024, 1024, 0, 6, 3923, 3952, 3961, 3975, 3935, 3956, 0, 1, 10400, -89.900, 0.000, 4.100, 0.000, 0.000, -2.900, 0.0, , , , , , 95, , , 31, 31, 31
36.7916162, -118.9555637, 13.900, 14:13:53.741, 14, 0.00, 0.51, 98, 0.200, 1.100, 4.600, 1091, 100, 100, 23, 23683, -18936, 5213, 5320, 20, 14, 1529010833.741, 83, 0, 1024, 1024, 1024, 1024, 0, 6, 3923, 3952, 3961, 3975, 3935, 3956, 0, 1, 10500, -89.900, 0.000, 4.100, 0.000, 0.000, -2.900, 0.0, , , , , , 95, , , 31, 31, 31
36.7916162, -118.9555637, 13.900, 14:13:53.840, 14, 0.00, 0.51, 98, 0.200, 1.100, 4.600, 1091, 100, 100, 23, 23756, -18505, 5213, 5320, 20, 14, 1529010833.840, 183, 0, 1024, 1024, 1024, 1024, 0, 6, 3923, 3952, 3961, 3975, 3935, 3956, 0, 1, 10599, -89.900, 0.000, 4.100, 0.000, 0.000, -2.900, 0.0, , , , , , 95, , , 31, 31, 31
36.7916162, -118.9555637, 14.200, 14:13:53.941, 15, 0.00, 0.51, 98, 0.200, 1.300, 4.500, 1091, 100, 100, 23, 23756, -18505, 5213, 5320, 20, 14, 1529010833.941, 59, 0, 1024, 1024, 1024, 1024, 0, 6, 3930, 3962, 3974, 3978, 3950, 3962, 0, 1, 10700, -89.900, 0.000, 4.100, 0.000, 0.000, -2.900, 0.0, , , , , , 95, , , 31, 31, 31
36.7916164, -118.9555637, 14.800, 14:13:54.041, 14, 0.00, 0.53, 98, 0.400, 1.600, 4.600, 1091, 100, 100, 23, 23756, -18505, 5213, 5320, 20, 14, 1529010834.041, 84, 0, 1024, 1024, 1024, 1024, 0, 6, 3930, 3962, 3974, 3978, 3950, 3962, 0, 1, 10800, -90.000, 0.000, 4.100, 0.000, 0.000, -3.000, 0.0, , , , , , 95, , , 31, 31, 31
36.7916165, -118.9555637, 15.100, 14:13:54.141, 14, 0.00, 0.54, 98, 0.500, 1.600, 4.800, 1091, 100, 100, 23, 23756, -18505, 5213, 5320, 20, 14, 1529010834.141, 79, 0, 1024, 1024, 1024, 1024, 0, 6, 3930, 3962, 3974, 3978, 3950, 3962, 0, 1, 10900, -89.900, 0.000, 4.100, 0.000, 0.000, -3.000, 0.0, , , , , , 95, , , 31, 31, 31
36.7916165, -118.9555637, 15.400, 14:13:54.241, 14, 0.00, 0.54, 98, 0.500, 1.700, 5.000, 1091, 100, 100, 23, 23756, -18505, 5213, 5320, 20, 14, 1529010834.241, 63, 0, 1024, 1024, 1024, 1024, 0, 6, 3930, 3962, 3974, 3978, 3950, 3962, 0, 1, 11000, -89.900, 0.000, 4.100, 0.000, 0.000, -2.900, 0.0, , , , , , 95, , , 31, 31, 31
36.7916165, -118.9555637, 15.700, 14:13:54.341, 14, 0.00, 0.55, 98, 0.600, 1.800, 5.200, 1091, 100, 100, 23, 23756, -18505, 5213, 5320, 20, 14, 1529010834.341, 65, 0, 1024, 1024, 1024, 1024, 0, 6, 3930, 3962, 3974, 3978, 3950, 3962, 0, 1, 11100, -89.900, 0.000, 4.100, 0.000, 0.000, -2.900, 0.0, , , , , , 95, , , 31, 31, 31
36.7916166, -118.9555637, 16.000, 14:13:54.441, 14, 0.00, 0.55, 98, 0.800, 1.700, 5.400, 1091, 100, 100, 23, 23756, -18505, 5213, 5320, 20, 14, 1529010834.441, 58, 0, 1024, 1024, 1024, 1024, 0, 6, 3930, 3962, 3974, 3978, 3950, 3962, 0, 1, 11200, -90.000, 0.000, 4.100, 0.000, 0.000, -2.900, 0.0, , , , , , 95, , , 31, 31, 31
36.7916166, -118.9555637, 16.300, 14:13:54.541, 14, 0.00, 0.56, 98, 0.900, 1.600, 5.600, 1091, 100, 100, 23, 23756, -18505, 5213, 5320, 20, 14, 1529010834.541, 38, 0, 1024, 1024, 1024, 1024, 0, 6, 3930, 3962, 3974, 3978, 3950, 3962, 0, 1, 11300, -90.000, 0.000, 4.100, 0.000, 0.000, -2.900, 0.0, , , , , , 95, , , 31, 31, 31
36.7916166, -118.9555637, 16.600, 14:13:54.641, 14, 0.00, 0.56, 98, 0.800, 1.600, 5.700, 1091, 100, 100, 23, 23756, -18505, 5213, 5320, 20, 14, 1529010834.641, 39, 0, 1024, 1024, 1024, 1024, 0, 6, 3930, 3962, 3974, 3978, 3950, 3962, 0, 1, 11400, -89.900, 0.000, 4.100, 0.000, 0.000, -2.900, 0.0, , , , , , 95, , , 31, 31, 31
36.7916167, -118.9555638, 16.900, 14:13:54.741, 14, 0.00, 0.56, 98, 0.700, 1.600, 5.700, 1091, 100, 100, 23, 23756, -18505, 5213, 5320, 20, 14, 1529010834.741, 53, 0, 1024, 1024, 1024, 1024, 0, 6, 3930, 3962, 3974, 3978, 3950, 3962, 0, 1, 11500, -89.900, 0.000, 4.100, 0.000, 0.000, -2.900, 0.0, , , , , , 95, , , 31, 31, 31
36.7916167, -118.9555638, 17.200, 14:13:54.841, 14, 0.00, 0.56, 98, 0.600, 1.500, 5.700, 1091, 100, 100, 23, 23691, -19108, 5213, 5320, 20, 14, 1529010834.841, 31, 0, 1024, 1024, 1024, 1024, 0, 6, 3925, 3953, 3947, 3974, 3925, 3959, 0, 1, 11600, -90.000, 0.000, 4.100, 0.000, 0.000, -2.900, 0.0, , , , , , 95, , , 31, 31, 31
36.7916167, -118.9555639, 17.500, 14:13:54.941, 14, 0.00, 0.56, 98, 0.700, 1.400, 5.500, 1091, 100, 99, 23, 23691, -19108, 5213, 5320, 20, 14, 1529010834.941, 38, 0, 1024, 1024, 1024, 1024, 0, 6, 3925, 3953, 3947, 3974, 3925, 3959, 0, 1, 11700, -89.900, 0.000, 4.100, 0.000, 0.000, -3.000, 0.0, , , , , , 95, , , 31, 31, 31
36.7916166, -118.9555639, 17.800, 14:13:55.041, 15, 0.00, 0.56, 98, 0.800, 1.200, 5.300, 1091, 100, 99, 23, 23691, -19108, 5213, 5320, 20, 14, 1529010835.041, 40, 0, 1024, 1024, 1024, 1024, 0, 6, 3925, 3953, 3947, 3974, 3925, 3959, 0, 1, 11800, -90.000, 0.000, 4.100, 0.000, 0.000, -3.000, 0.0, , , , , , 95, , , 31, 31, 31
36.7916166, -118.9555640, 18.100, 14:13:55.141, 15, 0.00, 0.55, 98, 1.000, 1.000, 5.200, 1091, 100, 99, 23, 23691, -19108, 5213, 5320, 20, 14, 1529010835.141, 9, 0, 1024, 1024, 1024, 1024, 0, 6, 3925, 3953, 3947, 3974, 3925, 3959, 0, 1, 11900, -90.000, 0.000, 4.100, 0.000, 0.000, -2.900, 0.0, , , , , , 95, , , 31, 31, 31
36.7916166, -118.9555640, 18.400, 14:13:55.254, 15, 0.00, 0.55, 98, 0.900, 0.800, 5.100, 1091, 100, 99, 23, 23691, -19108, 5213, 5320, 20, 14, 1529010835.254, 3, 0, 1024, 1024, 1024, 1024, 0, 6, 3925, 3953, 3947, 3974, 3925, 3959, 0, 1, 12013, -90.000, 0.000, 4.100, 0.000, 0.000, -3.000, 0.0, , , , , , 95, , , 31, 31, 31
36.7916166, -118.9555640, 18.700, 14:13:55.343, 15, 0.00, 0.55, 98, 0.700, 0.600, 5.100, 1091, 100, 99, 23, 23691, -19108, 5213, 5320, 20, 14, 1529010835.343, 3, 0, 1024, 1024, 1024, 1024, 0, 6, 3925, 3953, 3947, 3974, 3925, 3959, 0, 1, 12102, -90.000, 0.000, 4.100, 0.000, 0.000, -2.900, 0.0, , , , , , 95, , , 31, 31, 31
36.7916165, -118.9555641, 19.000, 14:13:55.441, 15, 0.00, 0.54, 98, 0.600, 0.500, 5.100, 1091, 100, 99, 23, 23691, -19108, 5213, 5320, 20, 14, 1529010835.441, 13, 0, 1024, 1024, 1024, 1024, 0, 6, 3925, 3953, 3947, 3974, 3925, 3959, 0, 1, 12200, -90.000, 0.000, 4.100, 0.000, 0.000, -3.000, 0.0, , , , , , 95, , , 31, 31, 31
36.7916164, -118.9555641, 19.300, 14:13:55.541, 15, 0.00, 0.53, 98, 0.600, 0.500, 5.200, 1091, 100, 99, 23, 23691, -19108, 5213, 5320, 20, 14, 1529010835.541, 9, 0, 1024, 1024, 1024, 1024, 0, 6, 3925, 3953, 3947, 3974, 3925, 3959, 0, 1, 12300, -90.000, 0.000, 4.100, 0.000, 0.000, -3.000, 0.0, , , , , , 95, , , 31, 31, 31
36.7916163, -118.9555642, 19.600, 14:13:55.641, 15, 0.00, 0.52, 98, 0.600, 0.400, 5.200, 1091, 100, 99, 23, 23691, -19108, 5213, 5320, 20, 14, 1529010835.641, 10, 0, 1024, 1024, 1024, 1024, 0, 6, 3925, 3953, 3947, 3974, 3925, 3959, 0, 1, 12400, -90.000, 0.000, 4.100, 0.000, 0.000, -3.000, 0.0, , , , , , 95, , , 31, 31, 31
36.7916162, -118.9555642, 19.900, 14:13:55.741, 15, 0.00, 0.51, 98, 0.700, 0.200, 5.200, 1091, 100, 99, 23, 23691, -19108, 5213, 5320, 20, 14, 1529010835.741, 1, 0, 1024, 1024, 1024, 1024, 0, 6, 3925, 3953, 3947, 3974, 3925, 3959, 0, 1, 12500, -90.000, 0.000, 4.100, 0.000, 0.000, -2.900, 0.0, , , , , , 95, , , 31, 31, 31
36.7916162, -118.9555643, 20.200, 14:13:55.841, 15, 0.00, 0.50, 98, 1.000, 0.000, 5.300, 1091, 100, 99, 23, 23652, -18818, 5213, 5320, 20, 14, 1529010835.841, 98, 0, 1024, 1024, 1024, 1024, 0, 6, 3925, 3953, 3947, 3974, 3925, 3959, 0, 1, 12600, -90.000, 0.000, 4.100, 0.000, 0.000, -3.000, 0.0, , , , , , 95, , , 31, 31, 31
36.7916162, -118.9555643, 20.200, 14:13:55.940, 15, 0.00, 0.50, 98, 1.000, 0.000, 5.300, 1091, 100, 99, 23, 23652, -18818, 5213, 5320, 20, 14, 1529010835.941, 198, 0, 1024, 1024, 1024, 1024, 0, 6, 3925, 3953, 3947, 3974, 3925, 3959, 0, 1, 12700, -90.000, 0.000, 4.100, 0.000, 0.000, -3.000, 0.0, , , , , , 95, , , 31, 31, 31
36.7916161, -118.9555643, 20.500, 14:13:56.040, 15, 0.00, 0.49, 98, 1.100, -0.200, 5.400, 1091, 100, 99, 23, 23652, -18818, 5213, 5320, 20, 14, 1529010836.040, 82, 0, 1024, 1024, 1024, 1024, 0, 6, 3925, 3953, 3947, 3974, 3925, 3959, 0, 1, 12799, -90.000, 0.000, 4.100, 0.000, 0.000, -2.900, 0.0, , , , , , 95, , , 31, 31, 31
36.7916160, -118.9555643, 20.800, 14:13:56.140, 15, 0.00, 0.48, 98, 1.100, -0.300, 5.500, 1091, 100, 99, 23, 23652, -18818, 5213, 5320, 20, 14, 1529010836.140, 87, 0, 1024, 1024, 1024, 1024, 0, 6, 3925, 3953, 3947, 3974, 3925, 3959, 0, 1, 12899, -90.000, 0.000, 4.100, 0.000, 0.000, -2.900, 0.0, , , , , , 95, , , 31, 31, 31
36.7916158, -118.9555643, 21.400, 14:13:56.241, 15, 0.00, 0.46, 98, 0.700, -0.200, 5.600, 1091, 100, 99, 23, 23652, -18818, 5213, 5320, 20, 14, 1529010836.241, 57, 0, 1024, 1024, 1024, 1024, 0, 6, 3925, 3953, 3947, 3974, 3925, 3959, 0, 1, 13000, -90.000, 0.000, 4.100, 0.000, 0.000, -2.900, 0.0, , , , , , 95, , , 31, 31, 31
36.7916157, -118.9555643, 21.700, 14:13:56.341, 15, 0.00, 0.45, 98, 0.500, -0.100, 5.500, 1091, 100, 99, 23, 23652, -18818, 5213, 5320, 20, 14, 1529010836.341, 82, 0, 1024, 1024, 1024, 1024, 0, 6, 3912, 3945, 3956, 3965, 3924, 3945, 0, 1, 13100, -90.000, 0.000, 4.100, 0.000, 0.000, -3.000, 0.0, , , , , , 95, , , 31, 31, 31
36.7916156, -118.9555643, 22.000, 14:13:56.441, 15, 0.00, 0.44, 98, 0.300, -0.100, 5.400, 1091, 100, 100, 23, 23652, -18818, 5213, 5320, 20, 14, 1529010836.441, 83, 0, 1024, 1024, 1024, 1024, 0, 6, 3912, 3945, 3956, 3965, 3924, 3945, 0, 1, 13200, -90.000, 0.000, 4.100, 0.000, 0.000, -3.000, 0.0, , , , , , 95, , , 31, 31, 31
36.7916156, -118.9555644, 22.300, 14:13:56.541, 15, 0.00, 0.44, 98, 0.400, -0.100, 5.300, 1091, 100, 100, 23, 23652, -18818, 5213, 5320, 20, 14, 1529010836.541, 65, 0, 1024, 1024, 1024, 1024, 0, 6, 3912, 3945, 3956, 3965, 3924, 3945, 0, 1, 13300, -90.000, 0.000, 4.100, 0.000, 0.000, -2.900, 0.0, , , , , , 95, , , 31, 31, 31
36.7916155, -118.9555643, 22.600, 14:13:56.641, 15, 0.00, 0.43, 98, 0.400, -0.200, 5.100, 1091, 100, 100, 23, 23652, -18818, 5213, 5320, 20, 14, 1529010836.641, 54, 0, 1024, 1024, 1024, 1024, 0, 6, 3912, 3945, 3956, 3965, 3924, 3945, 0, 1, 13400, -90.000, 0.000, 4.100, 0.000, 0.000, -2.900, 0.0, , , , , , 95, , , 31, 31, 31
36.7916154, -118.9555643, 22.900, 14:13:56.741, 15, 0.00, 0.42, 98, 0.300, -0.400, 5.000, 1091, 100, 100, 23, 23652, -18818, 5213, 5320, 20, 14, 1529010836.741, 44, 0, 1024, 1024, 1024, 1024, 0, 6, 3912, 3945, 3956, 3965, 3924, 3945, 0, 1, 13500, -89.900, 0.000, 4.100, 0.000, 0.000, -2.900, 0.0, , , , , , 95, , , 31, 31, 31
36.7916153, -118.9555642, 23.200, 14:13:56.841, 15, 0.00, 0.41, 98, 0.000, -0.500, 5.000, 1091, 100, 100, 23, 23652, -18818, 5213, 5320, 20, 14, 1529010836.841, 31, 0, 1024, 1024, 1024, 1024, 0, 6, 3912, 3945, 3956, 3965, 3924, 3945, 0, 1, 13600, -89.900, 0.000, 4.100, 0.000, 0.000, -2.900, 0.0, , , , , , 95, , , 31, 31, 31
36.7916153, -118.9555642, 23.500, 14:13:56.941, 15, 0.00, 0.40, 98, 0.000, -0.500, 5.100, 1091, 100, 100, 23, 23652, -18818, 5213, 5320, 20, 14, 1529010836.941, 48, 0, 1024, 1024, 1024, 1024, 0, 6, 3912, 3945, 3956, 3965, 3924, 3945, 0, 1, 13700, -89.900, 0.000, 4.100, 0.000, 0.000, -2.900, 0.0, , , , , , 95, , , 31, 31, 31
36.7916152, -118.9555641, 23.800, 14:13:57.040, 15, 0.00, 0.40, 98, 0.000, -0.500, 5.200, 1091, 100, 100, 23, 23652, -18818, 5213, 5320, 20, 14, 1529010837.040, 50, 0, 1024, 1024, 1024, 1024, 0, 6, 3912, 3945, 3956, 3965, 3924, 3945, 0, 1, 13799, -89.900, 0.000, 4.100, 0.000, 0.000, -3.000, 0.0, , , , , , 95, , , 31, 31, 31
36.7916152, -118.9555641, 23.800, 14:13:57.141, 15, 0.00, 0.40, 98, 0.000, -0.500, 5.200, 1091, 100, 100, 23, 23652, -18818, 5213, 5320, 20, 14, 1529010837.141, 151, 0, 1024, 1024, 1024, 1024, 0, 6, 3912, 3945, 3956, 3965, 3924, 3945, 0, 1, 13900, -89.900, 0.000, 4.100, 0.000, 0.000, -3.000, 0.0, , , , , , 95, , , 31, 31, 31
36.7916151, -118.9555640, 24.400, 14:13:57.241, 15, 0.00, 0.38, 98, -0.100, -0.500, 5.400, 1091, 100, 100, 23, 23652, -18818, 5213, 5320, 20, 14, 1529010837.241, 46, 0, 1024, 1024, 1024, 1024, 0, 6, 3912, 3945, 3956, 3965, 3924, 3945, 0, 1, 14000, -90.000, 0.000, 4.100, 0.000, 0.000, -3.000, 0.0, , , , , , 95, , , 31, 31, 31
36.7916150, -118.9555640, 24.700, 14:13:57.341, 15, 0.00, 0.38, 98, -0.300, -0.500, 5.300, 1091, 100, 97, 23, 23661, -18933, 5213, 5320, 20, 14, 1529010837.341, 8, 0, 1024, 1024, 1024, 1024, 0, 6, 3921, 3942, 3944, 3968, 3915, 3956, 0, 1, 14100, -89.900, 0.000, 4.100, 0.000, 0.000, -3.000, 0.0, , , , , , 95, , , 31, 31, 31
36.7916150, -118.9555639, 25.000, 14:13:57.441, 15, 0.00, 0.38, 98, -0.400, -0.500, 5.300, 1091, 100, 97, 23, 23661, -18933, 5213, 5320, 20, 14, 1529010837.441, 19, 0, 1024, 1024, 1024, 1024, 0, 6, 3921, 3942, 3944, 3968, 3915, 3956, 0, 1, 14200, -89.900, 0.000, 4.100, 0.000, 0.000, -2.900, 0.0, , , , , , 95, , , 31, 31, 31
36.7916150, -118.9555639, 25.300, 14:13:57.541, 15, 0.00, 0.37, 98, -0.500, -0.300, 5.200, 1091, 100, 97, 23, 23661, -18933, 5213, 5320, 20, 14, 1529010837.541, 23, 0, 1024, 1024, 1024, 1024, 0, 6, 3921, 3942, 3944, 3968, 3915, 3956, 0, 1, 14300, -89.900, 0.000, 4.100, 0.000, 0.000, -2.900, 0.0, , , , , , 95, , , 31, 31, 31
36.7916149, -118.9555638, 25.600, 14:13:57.640, 15, 0.00, 0.37, 98, -0.700, -0.200, 5.100, 1091, 100, 97, 23, 23661, -18933, 5213, 5320, 20, 14, 1529010837.641, 8, 0, 1024, 1024, 1024, 1024, 0, 6, 3921, 3942, 3944, 3968, 3915, 3956, 0, 1, 14400, -90.000, 0.000, 4.100, 0.000, 0.000, -2.900, 0.0, , , , , , 95, , , 31, 31, 31
36.7916149, -118.9555638, 25.900, 14:13:57.740, 15, 0.00, 0.37, 98, -0.400, -0.100, 5.000, 1091, 100, 97, 23, 23661, -18933, 5213, 5320, 20, 14, 1529010837.741, 23, 0, 1024, 1024, 1024, 1024, 0, 6, 3921, 3942, 3944, 3968, 3915, 3956, 0, 1, 14500, -90.000, 0.000, 4.100, 0.000, 0.000, -2.900, 0.0, , , , , , 95, , , 31, 31, 31
36.7916149, -118.9555638, 25.900, 14:13:57.841, 15, 0.00, 0.37, 98, -0.400, -0.100, 5.000, 1091, 100, 97, 23, 23661, -18933, 5213, 5320, 20, 14, 1529010837.841, 123, 0, 1024, 1024, 1024, 1024, 0, 6, 3921, 3942, 3944, 3968, 3915, 3956, 0, 1, 14600, -90.000, 0.000, 4.100, 0.000, 0.000, -2.900, 0.0, , , , , , 95, , , 31, 31, 31
36.7916149, -118.9555638, 26.200, 14:13:57.941, 15, 0.00, 0.36, 98, 0.000, 0.000, 5.100, 1091, 100, 96, 23, 23661, -18933, 5213, 5320, 20, 14, 1529010837.941, 88, 0, 1024, 1024, 1024, 1024, 0, 6, 3921, 3942, 3944, 3968, 3915, 3956, 0, 1, 14700, -90.000, 0.000, 4.100, 0.000, 0.000, -2.900, 0.0, , , , , , 95, , , 31, 31, 31
36.7916148, -118.9555638, 26.500, 14:13:58.040, 15, 0.00, 0.35, 98, 0.000, -0.200, 5.200, 1091, 100, 96, 23, 23661, -18933, 5213, 5320, 20, 14, 1529010838.040, 92, 0, 1024, 1024, 1024, 1024, 0, 6, 3921, 3942, 3944, 3968, 3915, 3956, 0, 1, 14800, -90.000, 0.000, 4.100, 0.000, 0.000, -2.900, 0.0, , , , , , 95, , , 31, 31, 31
36.7916147, -118.9555638, 27.100, 14:13:58.140, 15, 0.00, 0.34, 98, 0.100, -0.600, 5.400, 1091, 100, 96, 23, 23661, -18933, 5213, 5320, 20, 14, 1529010838.140, 9, 0, 1024, 1024, 1024, 1024, 0, 6, 3921, 3942, 3944, 3968, 3915, 3956, 0, 1, 14900, -89.900, 0.000, 4.100, 0.000, 0.000, -2.900, 0.0, , , , , , 95, , , 31, 31, 31
36.7916147, -118.9555637, 27.400, 14:13:58.240, 15, 0.00, 0.34, 98, 0.000, -0.700, 5.500, 1091, 100, 96, 23, 23604, -19085, 5213, 5320, 20, 14, 1529010838.241, 5, 0, 1024, 1024, 1024, 1024, 0, 6, 3911, 3932, 3942, 3960, 3909, 3945, 0, 1, 15000, -89.900, 0.000, 4.100, 0.000, 0.000, -2.900, 0.0, , , , , , 95, , , 31, 31, 31
36.7916147, -118.9555637, 27.400, 14:13:58.340, 15, 0.00, 0.34, 98, 0.000, -0.700, 5.500, 1091, 100, 96, 23, 23604, -19085, 5213, 5320, 20, 14, 1529010838.341, 106, 0, 1024, 1024, 1024, 1024, 0, 6, 3911, 3932, 3942, 3960, 3909, 3945, 0, 1, 15100, -89.900, 0.000, 4.100, 0.000, 0.000, -2.900, 0.0, , , , , , 95, , , 31, 31, 31
36.7916146, -118.9555636, 28.000, 14:13:58.440, 15, 0.00, 0.33, 98, -0.300, -1.100, 5.600, 1091, 100, 94, 23, 23604, -19085, 5213, 5320, 20, 14, 1529010838.441, 69, 0, 1024, 1024, 1024, 1024, 0, 6, 3911, 3932, 3942, 3960, 3909, 3945, 0, 1, 15200, -90.000, 0.000, 4.100, 0.000, 0.000, -3.000, 0.0, , , , , , 95, , , 31, 31, 31
36.7916145, -118.9555636, 28.300, 14:13:58.540, 15, 0.00, 0.33, 98, -0.300, -1.300, 5.500, 1091, 100, 94, 23, 23604, -19085, 5213, 5320, 20, 14, 1529010838.541, 89, 0, 1024, 1024, 1024, 1024, 0, 6, 3911, 3932, 3942, 3960, 3909, 3945, 0, 1, 15300, -90.000, 0.000, 4.100, 0.000, 0.000, -3.000, 0.0, , , , , , 95, , , 31, 31, 31
36.7916145, -118.9555636, 28.600, 14:13:58.640, 15, 0.00, 0.33, 98, -0.400, -1.300, 5.400, 1091, 100, 94, 23, 23604, -19085, 5213, 5320, 20, 14, 1529010838.641, 63, 0, 1024, 1024, 1024, 1024, 0, 6, 3911, 3932, 3942, 3960, 3909, 3945, 0, 1, 15400, -90.000, 0.000, 4.100, 0.000, 0.000, -2.900, 0.0, , , , , , 95, , , 31, 31, 31
36.7916145, -118.9555636, 28.900, 14:13:58.740, 15, 0.00, 0.33, 98, -0.500, -1.200, 5.300, 1091, 100, 94, 23, 23604, -19085, 5213, 5320, 20, 14, 1529010838.741, 55, 0, 1024, 1024, 1024, 1024, 0, 6, 3911, 3932, 3942, 3960, 3909, 3945, 0, 1, 15500, -89.900, 0.000, 4.100, 0.000, 0.000, -3.000, 0.0, , , , , , 95, , , 31, 31, 31
36.7916146, -118.9555636, 29.200, 14:13:58.840, 15, 0.00, 0.33, 98, -0.400, -0.900, 5.100, 1091, 100, 94, 23, 23604, -19085, 5213, 5320, 20, 14, 1529010838.841, 50, 0, 1024, 1024, 1024, 1024, 0, 6, 3911, 3932, 3942, 3960, 3909, 3945, 0, 1, 15600, -89.900, 0.000, 4.100, 0.000, 0.000, -3.000, 0.0, , , , , , 95, , , 31, 31, 31
36.7916146, -118.9555636, 29.500, 14:13:58.940, 15, 0.00, 0.33, 98, -0.100, -0.600, 5.000, 1091, 100, 97, 23, 23604, -19085, 5213, 5320, 20, 14, 1529010838.941, 69, 0, 1024, 1024, 1024, 1024, 0, 6, 3911, 3932, 3942, 3960, 3909, 3945, 0, 1, 15700, -89.900, 0.000, 4.100, 0.000, 0.000, -2.900, 0.0, , , , , , 95, , , 31, 31, 31
36.7916146, -118.9555636, 29.800, 14:13:59.040, 15, 0.00, 0.34, 98, 0.000, -0.400, 4.900, 1091, 100, 97, 23, 23604, -19085, 5213, 5320, 20, 14, 1529010839.041, 36, 0, 1024, 1024, 1024, 1024, 0, 6, 3911, 3932, 3942, 3960, 3909, 3945, 0, 1, 15800, -89.900, 0.000, 4.100, 0.000, 0.000, -2.900, 0.0, , , , , , 95, , , 31, 31, 31
36.7916147, -118.9555635, 30.100, 14:13:59.140, 15, 0.00, 0.35, 98, 0.000, -0.400, 4.800, 1091, 100, 97, 23, 23604, -19085, 5213, 5320, 20, 14, 1529010839.141, 39, 0, 1024, 1024, 1024, 1024, 0, 6, 3911, 3932, 3942, 3960, 3909, 3945, 0, 1, 15900, -89.900, 0.000, 4.100, 0.000, 0.000, -2.900, 0.0, , , , , , 95, , , 31, 31, 31
36.7916147, -118.9555635, 30.400, 14:13:59.240, 15, 0.00, 0.35, 98, -0.100, -0.100, 4.800, 1091, 100, 97, 23, 23604, -19085, 5213, 5320, 20, 14, 1529010839.241, 52, 0, 1024, 1024, 1024, 1024, 0, 6, 3911, 3932, 3942, 3960, 3909, 3945, 0, 1, 16000, -89.900, 0.000, 4.100, 0.000, 0.000, -2.900, 0.0, , , , , , 95, , , 31, 31, 31
36.7916148, -118.9555634, 30.700, 14:13:59.340, 15, 0.00, 0.36, 98, -0.300, 0.100, 4.900, 1091, 100, 97, 23, 23588, -18686, 5213, 5320, 20, 14, 1529010839.341, 45, 0, 1024, 1024, 1024, 1024, 0, 6, 3904, 3931, 3942, 3961, 3915, 3948, 0, 1, 16100, -89.900, 0.000, 4.100, 0.000, 0.000, -3.000, 0.0, , , , , , 95, , , 31, 31, 31
36.7916148, -118.9555634, 31.000, 14:13:59.440, 15, 0.00, 0.36, 98, -0.500, 0.100, 4.800, 1091, 100, 97, 23, 23588, -18686, 5213, 5320, 20, 14, 1529010839.441, 57, 0, 1024, 1024, 1024, 1024, 0, 6, 3904, 3931, 3942, 3961, 3915, 3948, 0, 1, 16200, -89.900, 0.000, 4.100, 0.000, 0.000, -3.000, 0.0, , , , , , 95, , , 31, 31, 31
36.7916149, -118.9555634, 31.300, 14:13:59.540, 15, 0.00, 0.37, 98, -0.400, 0.200, 4.800, 1091, 100, 97, 23, 23588, -18686, 5213, 5320, 20, 14, 1529010839.541, 23, 0, 1024, 1024, 1024, 1024, 0, 6, 3904, 3931, 3942, 3961, 3915, 3948, 0, 1, 16300, -89.900, 0.000, 4.100, 0.000, 0.000, -2.900, 0.0, , , , , , 95, , , 31, 31, 31
36.7916149, -118.9555634, 31.600, 14:13:59.640, 15, 0.00, 0.37, 98, -0.400, 0.000, 4.700, 1091, 100, 97, 23, 23588, -18686, 5213, 5320, 20, 14, 1529010839.641, 39, 0, 1024, 1024, 1024, 1024, 0, 6, 3904, 3931, 3942, 3961, 3915, 3948, 0, 1, 16400, -89.900, 0.000, 4.100, 0.000, 0.000, -2.900, 0.0, , , , , , 95, , , 31, 31, 31
36.7916149, -118.9555634, 31.900, 14:13:59.740, 15, 0.00, 0.38, 98, 0.000, 0.000, 4.700, 1091, 100, 97, 23, 23588, -18686, 5213, 5320, 20, 14, 1529010839.741, 47, 0, 1024, 1024, 1024, 1024, 0, 6, 3904, 3931, 3942, 3961, 3915, 3948, 0, 1, 16500, -89.900, 0.000, 4.100, 0.000, 0.000, -3.000, 0.0, , , , , , 95, , , 31, 31, 31
36.7916150, -118.9555634, 32.200, 14:13:59.840, 15, 0.00, 0.38, 98, 0.300, 0.000, 4.800, 1091, 100, 98, 23, 23588, -18686, 5213, 5320, 20, 14, 1529010839.841, 11, 0, 1024, 1024, 1024, 1024, 0, 6, 3904, 3931, 3942, 3961, 3915, 3948, 0, 1, 16600, -89.900, 0.000, 4.100, 0.000, 0.000, -2.900, 0.0, , , , , , 95, , , 31, 31, 31
36.7916150, -118.9555634, 32.500, 14:13:59.940, 15, 0.00, 0.38, 98, 0.300, -0.200, 4.900, 1091, 100, 98, 23, 23588, -18686, 5213, 5320, 20, 14, 1529010839.941, 11, 0, 1024, 1024, 1024, 1024, 0, 6, 3904, 3931, 3942, 3961, 3915, 3948, 0, 1, 16700, -89.900, 0.000, 4.100, 0.000, 0.000, -2.900, 0.0, , , , , , 95, , , 31, 31, 31
36.7916150, -118.9555633, 32.800, 14:14:00.040, 15, 0.00, 0.39, 98, 0.100, 0.000, 5.000, 1091, 100, 98, 23, 23588, -18686, 5213, 5320, 20, 14, 1529010840.041, 14, 0, 1024, 1024, 1024, 1024, 0, 6, 3904, 3931, 3942, 3961, 3915, 3948, 0, 1, 16800, -89.900, 0.000, 4.100, 0.000, 0.000, -2.900, 0.0, , , , , , 95, , , 31, 31, 31
36.7916151, -118.9555633, 33.100, 14:14:00.140, 15, 0.00, 0.39, 98, -0.500, 0.000, 5.000, 1091, 100, 98, 23, 23588, -18686, 5213, 5320, 20, 14, 1529010840.141, 19, 0, 1024, 1024, 1024, 1024, 0, 6, 3904, 3931, 3942, 3961, 3915, 3948, 0, 1, 16900, -89.900, 0.000, 4.100, 0.000, 0.000, -3.000, 0.0, , , , , , 95, , , 31, 31, 31
36.7916151, -118.9555633, 33.100, 14:14:00.240, 15, 0.00, 0.39, 98, -0.500, 0.000, 5.000, 1091, 100, 98, 23, 23565, -18795, 5160, 5320, 20, 14, 1529010840.241, 119, 0, 1024, 1024, 1024, 1024, 0, 6, 3904, 3931, 3942, 3961, 3915, 3948, 0, 1, 17000, -89.900, 0.000, 4.100, 0.000, 0.000, -3.000, 0.0, , , , , , 95, , , 31, 31, 31
36.7916151, -118.9555632, 33.700, 14:14:00.340, 15, 0.00, 0.40, 98, -0.800, -0.400, 5.200, 1091, 100, 97, 23, 23565, -18795, 5160, 5320, 20, 14, 1529010840.341, 14, 0, 1024, 1024, 1024, 1024, 0, 6, 3897, 3919, 3942, 3949, 3903, 3936, 0, 1, 17100, -89.900, 0.000, 4.100, 0.000, 0.000, -3.000, 0.0, , , , , , 95, , , 31, 31, 31
36.7916151, -118.9555632, 34.000, 14:14:00.445, 15, 0.00, 0.40, 98, -0.600, -0.600, 5.300, 1091, 100, 97, 23, 23565, -18795, 5160, 5320, 20, 14, 1529010840.445, 2, 0, 1024, 1024, 1024, 1024, 0, 6, 3897, 3919, 3942, 3949, 3903, 3936, 0, 1, 17204, -89.900, 0.000, 4.100, 0.000, 0.000, -2.900, 0.0, , , , , , 95, , , 31, 31, 31
36.7916151, -118.9555632, 34.000, 14:14:00.540, 15, 0.00, 0.40, 98, -0.600, -0.600, 5.300, 1091, 100, 97, 23, 23565, -18795, 5160, 5320, 20, 14, 1529010840.541, 98, 0, 1024, 1024, 1024, 1024, 0, 6, 3897, 3919, 3942, 3949, 3903, 3936, 0, 1, 17300, -89.900, 0.000, 4.100, 0.000, 0.000, -2.900, 0.0, , , , , , 95, , , 31, 31, 31
36.7916152, -118.9555632, 34.600, 14:14:00.640, 15, 0.00, 0.40, 98, 0.200, -0.500, 5.600, 1091, 100, 97, 23, 23565, -18795, 5160, 5320, 20, 14, 1529010840.641, 9, 0, 1024, 1024, 1024, 1024, 0, 6, 3897, 3919, 3942, 3949, 3903, 3936, 0, 1, 17400, -89.900, 0.000, 4.100, 0.000, 0.000, -3.000, 0.0, , , , , , 95, , , 31, 31, 31
36.7916152, -118.9555632, 34.600, 14:14:00.740, 15, 0.00, 0.40, 98, 0.200, -0.500, 5.600, 1091, 100, 97, 23, 23565, -18795, 5160, 5320, 20, 14, 1529010840.741, 109, 0, 1024, 1024, 1024, 1024, 0, 6, 3897, 3919, 3942, 3949, 3903, 3936, 0, 1, 17500, -89.900, 0.000, 4.100, 0.000, 0.000, -3.000, 0.0, , , , , , 95, , , 31, 31, 31
36.7916152, -118.9555632, 34.900, 14:14:00.840, 15, 0.00, 0.41, 98, 0.300, -0.200, 5.800, 1091, 100, 97, 23, 23565, -18795, 5160, 5320, 20, 14, 1529010840.841, 84, 0, 1024, 1024, 1024, 1024, 0, 6, 3897, 3919, 3942, 3949, 3903, 3936, 0, 1, 17600, -89.900, 0.000, 4.100, 0.000, 0.000, -2.900, 0.0, , , , , , 95, , , 31, 31, 31
36.7916152, -118.9555632, 35.200, 14:14:00.940, 15, 0.00, 0.41, 98, 0.000, -0.100, 5.800, 1091, 100, 98, 23, 23565, -18795, 5160, 5320, 20, 14, 1529010840.941, 64, 0, 1024, 1024, 1024, 1024, 0, 6, 3897, 3919, 3942, 3949, 3903, 3936, 0, 1, 17700, -89.900, 0.000, 4.100, 0.000, 0.000, -2.900, 0.0, , , , , , 95, , , 31, 31, 31
36.7916153, -118.9555632, 35.800, 14:14:01.040, 15, 0.00, 0.42, 98, -0.800, 0.000, 5.600, 1091, 100, 98, 23, 23565, -18795, 5160, 5320, 20, 14, 1529010841.041, 69, 0, 1024, 1024, 1024, 1024, 0, 6, 3897, 3919, 3942, 3949, 3903, 3936, 0, 1, 17800, -89.900, 0.000, 4.100, 0.000, 0.000, -3.000, 0.0, , , , , , 95, , , 31, 31, 31
36.7916154, -118.9555631, 36.100, 14:14:01.141, 15, 0.00, 0.43, 98, -0.900, 0.000, 5.400, 1091, 100, 98, 23, 23565, -18795, 5160, 5320, 20, 14, 1529010841.141, 61, 0, 1024, 1024, 1024, 1024, 0, 6, 3897, 3919, 3942, 3949, 3903, 3936, 0, 1, 17900, -89.900, 0.000, 4.100, 0.000, 0.000, -3.000, 0.0, , , , , , 95, , , 31, 31, 31
36.7916154, -118.9555631, 36.400, 14:14:01.240, 15, 0.00, 0.43, 98, -1.000, -0.100, 5.200, 1091, 100, 98, 23, 23565, -18795, 5160, 5320, 20, 14, 1529010841.241, 61, 0, 1024, 1024, 1024, 1024, 0, 6, 3897, 3919, 3942, 3949, 3903, 3936, 0, 1, 18000, -89.900, 0.000, 4.100, 0.000, 0.000, -2.900, 0.0, , , , , , 95, , , 31, 31, 31
36.7916154, -118.9555630, 36.700, 14:14:01.340, 15, 0.00, 0.44, 97, -0.600, 0.000, 5.100, 1091, 100, 98, 23, 23520, -19132, 5160, 5320, 20, 14, 1529010841.340, 69, 0, 1024, 1024, 1024, 1024, 0, 6, 3897, 3919, 3942, 3949, 3903, 3936, 0, 1, 18100, -89.900, 0.000, 4.100, 0.000, 0.000, -3.000, 0.0, , , , , , 95, , , 31, 31, 31
36.7916155, -118.9555630, 37.000, 14:14:01.440, 15, 0.00, 0.44, 97, -0.700, 0.000, 4.800, 1091, 100, 98, 23, 23520, -19132, 5160, 5320, 20, 14, 1529010841.440, 71, 0, 1024, 1024, 1024, 1024, 0, 6, 3897, 3919, 3942, 3949, 3903, 3936, 0, 1, 18200, -89.900, 0.000, 4.100, 0.000, 0.000, -3.000, 0.0, , , , , , 95, , , 31, 31, 31
36.7916155, -118.9555629, 37.400, 14:14:01.540, 15, 0.00, 0.45, 97, -1.000, 0.100, 4.700, 1091, 100, 98, 23, 23520, -19132, 5160, 5320, 20, 14, 1529010841.540, 47, 0, 1024, 1024, 1024, 1024, 0, 6, 3897, 3919, 3942, 3949, 3903, 3936, 0, 1, 18300, -89.900, 0.000, 4.100, 0.000, 0.000, -3.000, 0.0, , , , , , 95, , , 31, 31, 31
36.7916155, -118.9555628, 37.700, 14:14:01.640, 15, 0.00, 0.45, 97, -1.400, 0.500, 4.700, 1091, 100, 98, 23, 23520, -19132, 5160, 5320, 20, 14, 1529010841.640, 50, 0, 1024, 1024, 1024, 1024, 0, 6, 3897, 3919, 3942, 3949, 3903, 3936, 0, 1, 18400, -89.900, 0.000, 4.100, 0.000, 0.000, -3.000, 0.0, , , , , , 95, , , 31, 31, 31
36.7916155, -118.9555627, 38.000, 14:14:01.740, 15, 0.00, 0.45, 97, -1.800, 0.600, 5.000, 1091, 100, 98, 23, 23520, -19132, 5160, 5320, 20, 14, 1529010841.740, 41, 0, 1024, 1024, 1024, 1024, 0, 6, 3897, 3919, 3942, 3949, 3903, 3936, 0, 1, 18500, -90.000, 0.000, 4.100, 0.000, 0.000, -2.900, 0.0, , , , , , 95, , , 31, 31, 31
36.7916155, -118.9555626, 38.300, 14:14:01.840, 15, 0.00, 0.46, 97, -2.100, 0.500, 5.200, 1091, 100, 98, 23, 23520, -19132, 5160, 5320, 20, 14, 1529010841.840, 44, 0, 1024, 1024, 1024, 1024, 0, 6, 3890, 3914, 3927, 3944, 3901, 3929, 0, 1, 18600, -90.000, 0.000, 4.100, 0.000, 0.000, -3.000, 0.0, , , , , , 95, , , 31, 31, 31
36.7916155, -118.9555624, 38.600, 14:14:01.940, 15, 0.00, 0.46, 97, -2.100, 0.100, 5.200, 1091, 100, 98, 23, 23520, -19132, 5160, 5320, 20, 14, 1529010841.940, 58, 0, 1024, 1024, 1024, 1024, 0, 6, 3890, 3914, 3927, 3944, 3901, 3929, 0, 1, 18700, -90.000, 0.000, 4.100, 0.000, 0.000, -3.000, 0.0, , , , , , 95, , , 31, 31, 31
36.7916155, -118.9555623, 38.900, 14:14:02.039, 15, 0.00, 0.47, 97, -2.400, 0.000, 5.200, 1091, 100, 98, 23, 23520, -19132, 5160, 5320, 20, 14, 1529010842.040, 48, 0, 1024, 1024, 1024, 1024, 0, 6, 3890, 3914, 3927, 3944, 3901, 3929, 0, 1, 18800, -90.000, 0.000, 4.100, 0.000, 0.000, -2.900, 0.0, , , , , , 95, , , 31, 31, 31
36.7916155, -118.9555622, 39.200, 14:14:02.140, 15, 0.00, 0.47, 97, -2.500, 0.000, 5.100, 1091, 100, 98, 23, 23520, -19132, 5160, 5320, 20, 14, 1529010842.140, 28, 0, 1024, 1024, 1024, 1024, 0, 6, 3890, 3914, 3927, 3944, 3901, 3929, 0, 1, 18900, -90.000, 0.000, 4.100, 0.000, 0.000, -2.900, 0.0, , , , , , 95, , , 31, 31, 31
36.7916155, -118.9555621, 39.500, 14:14:02.240, 15, 0.00, 0.47, 97, -2.600, 0.000, 5.000, 1091, 100, 98, 23, 23520, -19132, 5160, 5320, 20, 14, 1529010842.240, 28, 0, 1024, 1024, 1024, 1024, 0, 6, 3890, 3914, 3927, 3944, 3901, 3929, 0, 1, 19000, -90.000, 0.000, 4.100, 0.000, 0.000, -3.000, 0.0, , , , , , 95, , , 31, 31, 31
36.7916155, -118.9555620, 39.800, 14:14:02.340, 15, 0.00, 0.48, 97, -2.600, 0.200, 5.000, 1091, 100, 97, 23, 23520, -19132, 5160, 5320, 20, 14, 1529010842.341, 26, 0, 1024, 1024, 1024, 1024, 0, 6, 3890, 3914, 3927, 3944, 3901, 3929, 0, 1, 19100, -89.900, 0.000, 4.100, 0.000, 0.000, -2.900, 0.0, , , , , , 95, , , 31, 31, 31
36.7916155, -118.9555619, 40.100, 14:14:02.440, 15, 0.00, 0.48, 97, -2.600, 0.200, 5.100, 1091, 100, 97, 23, 23520, -19132, 5160, 5320, 20, 14, 1529010842.440, 40, 0, 1024, 1024, 1024, 1024, 0, 6, 3890, 3914, 3927, 3944, 3901, 3929, 0, 1, 19200, -89.900, 0.000, 4.100, 0.000, 0.000, -2.900, 0.0, , , , , , 95, , , 31, 31, 31
36.7916155, -118.9555618, 40.400, 14:14:02.543, 15, 0.00, 0.48, 97, -2.600, 0.200, 5.200, 1091, 100, 97, 23, 23520, -19132, 5160, 5320, 20, 14, 1529010842.543, 1, 0, 1024, 1024, 1024, 1024, 0, 6, 3890, 3914, 3927, 3944, 3901, 3929, 0, 1, 19302, -89.900, 0.000, 4.100, 0.000, 0.000, -2.900, 0.0, , , , , , 95, , , 31, 31, 31
36.7916155, -118.9555617, 40.700, 14:14:02.640, 15, 0.00, 0.48, 97, -2.500, 0.300, 5.200, 1091, 100, 97, 23, 23520, -19132, 5160, 5320, 20, 14, 1529010842.641, 35, 0, 1024, 1024, 1024, 1024, 0, 6, 3890, 3914, 3927, 3944, 3901, 3929, 0, 1, 19400, -89.900, 0.000, 4.100, 0.000, 0.000, -2.900, 0.0, , , , , , 95, , , 31, 31, 31
36.7916155, -118.9555617, 40.700, 14:14:02.740, 15, 0.00, 0.48, 97, -2.500, 0.300, 5.200, 1091, 100, 97, 23, 23520, -19132, 5160, 5320, 20, 14, 1529010842.740, 134, 0, 1024, 1024, 1024, 1024, 0, 6, 3890, 3914, 3927, 3944, 3901, 3929, 0, 1, 19500, -89.900, 0.000, 4.100, 0.000, 0.000, -2.900, 0.0, , , , , , 95, , , 31, 31, 31
36.7916154, -118.9555615, 41.300, 14:14:02.841, 15, 0.00, 0.49, 97, -2.800, 0.200, 5.200, 1091, 100, 97, 23, 23464, -19309, 5160, 5320, 20, 14, 1529010842.841, 9, 0, 1024, 1024, 1024, 1024, 0, 6, 3872, 3912, 3910, 3932, 3891, 3917, 0, 1, 19600, -90.000, 0.000, 4.100, 0.000, 0.000, -3.000, 0.0, , , , , , 95, , , 31, 31, 31
36.7916154, -118.9555615, 41.300, 14:14:02.940, 15, 0.00, 0.49, 97, -2.800, 0.200, 5.200, 1091, 100, 97, 23, 23464, -19309, 5160, 5320, 20, 14, 1529010842.940, 109, 0, 1024, 1024, 1024, 1024, 0, 6, 3872, 3912, 3910, 3932, 3891, 3917, 0, 1, 19700, -90.000, 0.000, 4.100, 0.000, 0.000, -3.000, 0.0, , , , , , 95, , , 31, 31, 31
36.7916154, -118.9555612, 41.900, 14:14:03.040, 15, 0.00, 0.50, 97, -3.600, -0.100, 5.300, 1091, 100, 97, 23, 23464, -19309, 5160, 5320, 20, 14, 1529010843.040, 3, 0, 1024, 1024, 1024, 1024, 0, 6, 3872, 3912, 3910, 3932, 3891, 3917, 0, 1, 19800, -89.900, 0.000, 4.200, 0.000, 0.000, -3.000, 0.0, , , , , , 95, , , 31, 31, 31
36.7916154, -118.9555612, 41.900, 14:14:03.140, 15, 0.00, 0.50, 97, -3.600, -0.100, 5.300, 1091, 100, 97, 23, 23464, -19309, 5160, 5320, 20, 14, 1529010843.140, 103, 0, 1024, 1024, 1024, 1024, 0, 6, 3872, 3912, 3910, 3932, 3891, 3917, 0, 1, 19900, -89.900, 0.000, 4.200, 0.000, 0.000, -3.000, 0.0, , , , , , 95, , , 31, 31, 31
36.7916154, -118.9555611, 42.200, 14:14:03.240, 15, 0.00, 0.50, 97, -3.800, -0.100, 5.200, 1091, 100, 97, 23, 23464, -19309, 5160, 5320, 20, 14, 1529010843.240, 88, 0, 1024, 1024, 1024, 1024, 0, 6, 3872, 3912, 3910, 3932, 3891, 3917, 0, 1, 19999, -89.900, 0.000, 4.200, 0.000, 0.000, -3.000, 0.0, , , , , , 95, , , 31, 31, 31
36.7916154, -118.9555609, 42.500, 14:14:03.340, 15, 0.00, 0.51, 97, -3.700, 0.000, 5.100, 1091, 100, 97, 23, 23464, -19309, 5160, 5320, 20, 14, 1529010843.340, 91, 0, 1024, 1024, 1024, 1024, 0, 6, 3872, 3912, 3910, 3932, 3891, 3917, 0, 1, 20100, -89.900, 0.000, 4.100, 0.000, 0.000, -2.900, 0.0, , , , , , 95, , , 31, 31, 31
36.7916154, -118.9555607, 43.100, 14:14:03.440, 15, 0.00, 0.52, 97, -4.100, 0.300, 4.800, 1091, 100, 99, 23, 23464, -19309, 5160, 5320, 20, 14, 1529010843.440, 85, 0, 1024, 1024, 1024, 1024, 0, 6, 3872, 3912, 3910, 3932, 3891, 3917, 0, 1, 20200, -89.900, 0.000, 4.100, 0.000, 0.000, -3.000, 0.0, , , , , , 95, , , 31, 31, 31
36.7916153, -118.9555606, 43.400, 14:14:03.540, 15, 0.00, 0.53, 97, -4.300, 0.500, 4.800, 1091, 100, 99, 23, 23464, -19309, 5160, 5320, 20, 14, 1529010843.540, 61, 0, 1024, 1024, 1024, 1024, 0, 6, 3872, 3912, 3910, 3932, 3891, 3917, 0, 1, 20300, -89.900, 0.000, 4.200, 0.000, 0.000, -2.900, 0.0, , , , , , 95, , , 31, 31, 31
36.7916153, -118.9555605, 43.700, 14:14:03.640, 15, 0.00, 0.53, 97, -4.100, 0.600, 5.000, 1091, 100, 99, 23, 23464, -19309, 5160, 5320, 20, 14, 1529010843.640, 84, 0, 1024, 1024, 1024, 1024, 0, 6, 3872, 3912, 3910, 3932, 3891, 3917, 0, 1, 20400, -89.900, 0.000, 4.200, 0.000, 0.000, -2.800, 0.0, , , , , , 95, , , 31, 31, 31
36.7916153, -118.9555605, 43.700, 14:14:03.740, 15, 0.00, 0.53, 97, -4.100, 0.600, 5.000, 1091, 100, 99, 23, 23464, -19309, 5160, 5320, 20, 14, 1529010843.740, 184, 0, 1024, 1024, 1024, 1024, 0, 6, 3872, 3912, 3910, 3932, 3891, 3917, 0, 1, 20500, -89.900, 0.000, 4.200, 0.000, 0.000, -2.800, 0.0, , , , , , 95, , , 31, 31, 31
36.7916153, -118.9555605, 44.300, 14:14:03.840, 15, 0.00, 0.53, 97, -3.400, 0.500, 5.300, 1091, 100, 99, 23, 23498, -18643, 5160, 5320, 20, 14, 1529010843.840, 65, 0, 1024, 1024, 1024, 1024, 0, 6, 3889, 3910, 3935, 3943, 3903, 3914, 0, 1, 20600, -89.900, 0.000, 4.200, 0.000, 0.000, -2.900, 0.0, , , , , , 95, , , 31, 31, 31
36.7916153, -118.9555605, 44.600, 14:14:03.940, 15, 0.00, 0.53, 97, -3.300, 0.100, 5.300, 1091, 100, 100, 23, 23498, -18643, 5160, 5320, 20, 14, 1529010843.940, 56, 0, 1024, 1024, 1024, 1024, 0, 6, 3889, 3910, 3935, 3943, 3903, 3914, 0, 1, 20699, -90.000, 0.000, 4.200, 0.000, 0.000, -2.900, 0.0, , , , , , 95, , , 31, 31, 31
36.7916152, -118.9555605, 44.900, 14:14:04.040, 15, 0.00, 0.52, 97, -3.400, -0.200, 5.200, 1091, 100, 100, 23, 23498, -18643, 5160, 5320, 20, 14, 1529010844.040, 59, 0, 1024, 1024, 1024, 1024, 0, 6, 3889, 3910, 3935, 3943, 3903, 3914, 0, 1, 20799, -90.000, 0.000, 4.200, 0.000, 0.000, -2.900, 0.0, , , , , , 95, , , 31, 31, 31
36.7916152, -118.9555606, 45.200, 14:14:04.140, 15, 0.00, 0.52, 97, -3.400, -0.300, 5.200, 1091, 100, 100, 23, 23498, -18643, 5160, 5320, 20, 14, 1529010844.140, 68, 0, 1024, 1024, 1024, 1024, 0, 6, 3889, 3910, 3935, 3943, 3903, 3914, 0, 1, 20899, -90.000, 0.000, 4.200, 0.000, 0.000, -2.900, 0.0, , , , , , 95, , , 31, 31, 31
36.7916152, -118.9555606, 45.500, 14:14:04.240, 15, 0.00, 0.51, 97, -3.200, -0.400, 5.100, 1091, 100, 100, 23, 23498, -18643, 5160, 5320, 20, 14, 1529010844.240, 59, 0, 1024, 1024, 1024, 1024, 0, 6, 3889, 3910, 3935, 3943, 3903, 3914, 0, 1, 20999, -90.000, 0.000, 4.200, 0.000, 0.000, -2.800, 0.0, , , , , , 95, , , 31, 31, 31
