Latitude, Longitude, Altitude (m), Time, Sats, Speed (m/s), Range (m), Battery (%), Roll (deg), Pitch (deg), Yaw (deg), Images, HD Signal (%), RC Signal (%), Battery Temp (C), Battery Voltage (mV), Battery Current (mA), Battery Energy (mAh), Battery Capacity (mAh), Battery Discharges, flyState, timestamp (Unix), LastUpdate (ms), radioChannel, Rc_elevator, Rc_aileron, Rc_throttle, Rc_rudder, Rc_gyro, Dronetype, Battery_Cell1 (mV), Battery_Cell2 (mV), Battery_Cell3 (mV), Battery_Cell4 (mV), Battery_Cell5 (mV), Battery_Cell6 (mV), Video, isFlying, elapsedTime (ms), gimbalPitch (deg), gimbalRoll (deg), gimbalYaw (deg), VelocityX (m/s), VelocityY (m/s), VelocityZ (m/s), GroundSmear (cm), App Version, Aircraft Name, Aircraft Firmware, Aircraft Serial Number, Battery Serial Number, Battery Lifetime (%), App_Tip, App_Warning, CurrentFlightStartingIndex, CurrentFlightLastVisitedWaypoint, PreviousFlightEndingWaypointIndex
36.7915899, -118.9555416, 0.000, 13:57:01.676, 12, 0.10, 0.14, 100, 1.300, -0.600, -2.400, 743, 100, 100, 23, 25760, -3959, 5415, 5415, 15, 11, 1529009821.676, 67, 0, 1024, 1024, 1024, 1024, 0, 6, 4301, 4289, 4282, 4318, 4282, 4306, 0, 1, 3101, -89.900, 0.000, -3.200, 0.100, 0.000, -0.100, 0.0, MapPilot_2.8.1_04242018, Dendroctonus I, 1.3.1.00, 041DDC1887, 1058171200161, 97, DJI_0740.jpg, Starting Mission from Lat/Long: 36.79159/-118.95554 Camera: Zenmuse X3 - Overlap: 90/90 - Active Connection: No, 21, 21, 21
36.7915901, -118.9555417, 0.000, 13:57:01.776, 12, 0.10, 0.16, 100, 0.600, -0.200, -2.400, 743, 100, 100, 23, 25760, -3959, 5415, 5415, 15, 11, 1529009821.776, 72, 0, 1024, 1024, 1024, 1024, 0, 6, 4301, 4289, 4282, 4318, 4282, 4306, 0, 1, 3201, -89.900, 0.000, -3.200, 0.100, 0.000, -0.200, 0.0, , , , , , 97, , , 21, 21, 21
36.7915903, -118.9555417, 0.000, 13:57:01.876, 12, 0.10, 0.19, 100, 0.300, 0.500, -2.300, 743, 100, 100, 23, 25760, -3959, 5415, 5415, 15, 11, 1529009821.876, 64, 0, 1024, 1024, 1024, 1024, 0, 6, 4301, 4289, 4282, 4318, 4282, 4306, 0, 1, 3301, -89.900, 0.000, -3.300, 0.100, 0.000, -0.300, 0.0, , , , , , 97, , , 21, 21, 21
36.7915905, -118.9555418, 0.000, 13:57:01.976, 12, 0.10, 0.21, 100, 0.200, 1.100, -2.300, 743, 100, 100, 23, 25760, -3959, 5415, 5415, 15, 11, 1529009821.976, 67, 0, 1024, 1024, 1024, 1024, 0, 6, 4301, 4289, 4282, 4318, 4282, 4306, 0, 1, 3401, -89.900, 0.000, -3.200, 0.100, 0.000, -0.300, 0.0, , , , , , 97, , , 21, 21, 21
36.7915907, -118.9555420, 0.000, 13:57:02.076, 12, 0.14, 0.24, 100, 0.300, 1.500, -2.200, 743, 100, 100, 23, 25760, -3959, 5415, 5415, 15, 11, 1529009822.076, 57, 0, 1024, 1024, 1024, 1024, 0, 6, 4301, 4289, 4282, 4318, 4282, 4306, 0, 1, 3501, -89.900, 0.000, -3.200, 0.100, -0.100, -0.300, 0.0, , , , , , 97, , , 21, 21, 21
36.7915909, -118.9555421, 0.100, 13:57:02.176, 12, 0.14, 0.26, 100, 0.700, 2.000, -2.100, 743, 100, 100, 23, 25760, -3959, 5415, 5415, 15, 11, 1529009822.176, 59, 0, 1024, 1024, 1024, 1024, 0, 6, 4301, 4289, 4282, 4318, 4282, 4306, 0, 1, 3601, -89.900, 0.000, -3.200, 0.100, -0.100, -0.400, 0.0, , , , , , 97, , , 21, 21, 21
36.7915911, -118.9555423, 0.100, 13:57:02.276, 12, 0.14, 0.28, 100, 1.500, 2.000, -1.900, 743, 100, 100, 23, 25760, -3959, 5415, 5415, 15, 11, 1529009822.276, 52, 0, 1024, 1024, 1024, 1024, 0, 6, 4301, 4289, 4282, 4318, 4282, 4306, 0, 1, 3701, -89.900, 0.000, -3.200, 0.100, -0.100, -0.400, 0.0, , , , , , 97, , , 21, 21, 21
36.7915912, -118.9555425, 0.200, 13:57:02.376, 12, 0.14, 0.30, 100, 1.700, 1.700, -1.800, 743, 100, 100, 23, 25760, -3959, 5415, 5415, 15, 11, 1529009822.376, 60, 0, 1024, 1024, 1024, 1024, 0, 6, 4301, 4289, 4282, 4318, 4282, 4306, 0, 1, 3800, -89.900, 0.000, -3.200, 0.100, -0.100, -0.300, 0.0, , , , , , 97, , , 21, 21, 21
36.7915913, -118.9555426, 0.200, 13:57:02.476, 12, 0.14, 0.32, 100, 1.800, 1.400, -1.800, 743, 100, 100, 23, 25760, -3959, 5415, 5415, 15, 11, 1529009822.476, 35, 0, 1024, 1024, 1024, 1024, 0, 6, 4301, 4289, 4282, 4318, 4282, 4306, 0, 1, 3900, -89.900, 0.000, -3.300, 0.100, -0.100, -0.300, 0.0, , , , , , 97, , , 21, 21, 21
36.7915915, -118.9555428, 0.300, 13:57:02.575, 12, 0.10, 0.34, 100, 1.800, 1.100, -1.700, 743, 100, 100, 23, 24893, -11996, 5415, 5415, 15, 11, 1529009822.575, 51, 0, 1024, 1024, 1024, 1024, 0, 6, 4136, 4131, 4137, 4115, 4104, 4119, 0, 1, 4000, -89.900, 0.000, -3.200, 0.000, -0.100, -0.400, 0.0, , , , , , 97, , , 21, 21, 21
36.7915916, -118.9555430, 0.300, 13:57:02.676, 12, 0.10, 0.36, 100, 1.700, 1.000, -1.700, 743, 100, 100, 23, 24893, -11996, 5415, 5415, 15, 11, 1529009822.676, 44, 0, 1024, 1024, 1024, 1024, 0, 6, 4136, 4131, 4137, 4115, 4104, 4119, 0, 1, 4101, -89.900, 0.000, -3.300, 0.000, -0.100, -0.400, 0.0, , , , , , 97, , , 21, 21, 21
36.7915917, -118.9555432, 0.300, 13:57:02.776, 12, 0.10, 0.38, 100, 1.900, 1.000, -1.700, 743, 100, 100, 23, 24893, -11996, 5415, 5415, 15, 11, 1529009822.776, 25, 0, 1024, 1024, 1024, 1024, 0, 6, 4136, 4131, 4137, 4115, 4104, 4119, 0, 1, 4201, -89.900, 0.000, -3.200, 0.000, -0.100, -0.400, 0.0, , , , , , 97, , , 21, 21, 21
36.7915918, -118.9555433, 0.400, 13:57:02.876, 12, 0.10, 0.40, 100, 2.000, 1.000, -1.800, 743, 100, 100, 23, 24893, -11996, 5415, 5415, 15, 11, 1529009822.876, 15, 0, 1024, 1024, 1024, 1024, 0, 6, 4136, 4131, 4137, 4115, 4104, 4119, 0, 1, 4301, -89.900, 0.000, -3.200, 0.000, -0.100, -0.400, 0.0, , , , , , 97, , , 21, 21, 21
36.7915919, -118.9555434, 0.400, 13:57:02.976, 12, 0.10, 0.41, 100, 1.800, 0.900, -2.000, 743, 100, 100, 23, 24893, -11996, 5415, 5415, 15, 11, 1529009822.976, 19, 0, 1024, 1024, 1024, 1024, 0, 6, 4136, 4131, 4137, 4115, 4104, 4119, 0, 1, 4400, -89.900, 0.000, -3.300, 0.000, -0.100, -0.400, 0.0, , , , , , 97, , , 21, 21, 21
36.7915920, -118.9555435, 0.500, 13:57:03.076, 12, 0.10, 0.43, 100, 1.700, 0.800, -2.100, 743, 100, 100, 23, 24893, -11996, 5415, 5415, 15, 11, 1529009823.076, 22, 0, 1024, 1024, 1024, 1024, 0, 6, 4136, 4131, 4137, 4115, 4104, 4119, 0, 1, 4501, -89.900, 0.000, -3.300, 0.000, -0.100, -0.400, 0.0, , , , , , 97, , , 21, 21, 21
36.7915920, -118.9555435, 0.500, 13:57:03.176, 12, 0.10, 0.43, 100, 1.700, 0.800, -2.100, 743, 100, 100, 23, 24893, -11996, 5415, 5415, 15, 11, 1529009823.176, 122, 0, 1024, 1024, 1024, 1024, 0, 6, 4136, 4131, 4137, 4115, 4104, 4119, 0, 1, 4601, -89.900, 0.000, -3.300, 0.000, -0.100, -0.400, 0.0, , , , , , 97, , , 21, 21, 21
36.7915921, -118.9555438, 0.600, 13:57:03.276, 12, 0.00, 0.45, 100, 1.600, 0.900, -2.400, 743, 100, 100, 23, 24893, -11996, 5415, 5415, 15, 11, 1529009823.276, 3, 0, 1024, 1024, 1024, 1024, 0, 6, 4136, 4131, 4137, 4115, 4104, 4119, 0, 1, 4700, -89.900, 0.000, -3.300, 0.000, 0.000, -0.500, 0.0, , , , , , 97, , , 21, 21, 21
36.7915921, -118.9555438, 0.600, 13:57:03.376, 12, 0.00, 0.45, 100, 1.600, 0.900, -2.400, 743, 100, 100, 23, 24893, -11996, 5415, 5415, 15, 11, 1529009823.376, 103, 0, 1024, 1024, 1024, 1024, 0, 6, 4136, 4131, 4137, 4115, 4104, 4119, 0, 1, 4801, -89.900, 0.000, -3.300, 0.000, 0.000, -0.500, 0.0, , , , , , 97, , , 21, 21, 21
36.7915923, -118.9555441, 0.700, 13:57:03.477, 12, 0.10, 0.49, 100, 1.400, 1.100, -2.800, 743, 100, 100, 23, 24893, -11996, 5415, 5415, 15, 11, 1529009823.477, 1, 0, 1024, 1024, 1024, 1024, 0, 6, 4136, 4131, 4137, 4115, 4104, 4119, 0, 1, 4902, -89.900, 0.000, -3.200, 0.000, -0.100, -0.500, 0.0, , , , , , 97, , , 21, 21, 21
36.7915923, -118.9555441, 0.700, 13:57:03.576, 12, 0.10, 0.49, 100, 1.400, 1.100, -2.800, 743, 100, 100, 23, 24893, -11996, 5415, 5415, 15, 11, 1529009823.576, 99, 0, 1024, 1024, 1024, 1024, 0, 6, 4136, 4131, 4137, 4115, 4104, 4119, 0, 1, 5001, -89.900, 0.000, -3.200, 0.000, -0.100, -0.500, 0.0, , , , , , 97, , , 21, 21, 21
36.7915924, -118.9555443, 0.800, 13:57:03.676, 12, 0.10, 0.51, 100, 1.500, 1.000, -2.800, 743, 100, 100, 23, 24406, -17096, 5415, 5415, 15, 11, 1529009823.676, 84, 0, 1024, 1024, 1024, 1024, 0, 6, 4136, 4131, 4137, 4115, 4104, 4119, 0, 1, 5100, -89.900, 0.000, -3.200, 0.000, -0.100, -0.500, 0.0, , , , , , 97, , , 21, 21, 21
36.7915925, -118.9555444, 0.900, 13:57:03.776, 12, 0.00, 0.52, 100, 1.600, 1.200, -2.700, 743, 100, 100, 23, 24406, -17096, 5415, 5415, 15, 11, 1529009823.776, 87, 0, 1024, 1024, 1024, 1024, 0, 6, 4136, 4131, 4137, 4115, 4104, 4119, 0, 1, 5200, -89.900, 0.000, -3.200, 0.000, 0.000, -0.500, 0.0, , , , , , 97, , , 21, 21, 21
36.7915926, -118.9555446, 1.000, 13:57:03.876, 12, 0.00, 0.55, 100, 1.800, 2.100, -2.700, 743, 100, 100, 23, 24406, -17096, 5415, 5415, 15, 14, 1529009823.876, 64, 0, 1024, 1024, 1024, 1024, 0, 6, 4136, 4131, 4137, 4115, 4104, 4119, 0, 1, 5300, -89.900, 0.000, -3.200, 0.000, 0.000, -0.400, 0.0, , , , , , 97, , , 21, 21, 21
36.7915927, -118.9555448, 1.000, 13:57:03.975, 12, 0.00, 0.57, 100, 1.800, 1.600, -2.900, 743, 100, 100, 23, 24406, -17096, 5415, 5415, 15, 14, 1529009823.976, 68, 0, 1024, 1024, 1024, 1024, 0, 6, 4136, 4131, 4137, 4115, 4104, 4119, 0, 1, 5400, -89.900, 0.000, -3.300, 0.000, 0.000, -0.300, 0.0, , , , , , 97, , , 21, 21, 21
36.7915927, -118.9555449, 1.100, 13:57:04.075, 12, 0.00, 0.58, 100, 2.000, 1.200, -3.200, 743, 100, 100, 23, 24406, -17096, 5415, 5415, 15, 14, 1529009824.076, 42, 0, 1024, 1024, 1024, 1024, 0, 6, 4136, 4131, 4137, 4115, 4104, 4119, 0, 1, 5500, -90.000, 0.000, -3.300, 0.000, 0.000, -0.200, 0.0, , , , , , 97, , , 21, 21, 21
36.7915928, -118.9555451, 1.100, 13:57:04.175, 12, 0.00, 0.58, 100, 2.200, 1.000, -3.600, 743, 100, 100, 23, 24406, -17096, 5415, 5415, 15, 14, 1529009824.176, 59, 0, 1024, 1024, 1024, 1024, 0, 6, 4049, 4047, 4037, 4063, 4061, 4060, 0, 1, 5600, -90.000, 0.000, -3.300, 0.000, 0.000, -0.100, 0.0, , , , , , 97, , , 21, 21, 21
36.7915928, -118.9555452, 1.100, 13:57:04.275, 12, 0.00, 0.60, 100, 2.200, 1.000, -3.900, 743, 100, 100, 23, 24406, -17096, 5415, 5415, 15, 14, 1529009824.276, 52, 0, 1024, 1024, 1024, 1024, 0, 6, 4049, 4047, 4037, 4063, 4061, 4060, 0, 1, 5701, -90.000, 0.000, -3.300, 0.000, 0.000, -0.300, 0.0, , , , , , 97, , , 21, 21, 21
36.7915929, -118.9555453, 1.200, 13:57:04.375, 12, 0.00, 0.61, 100, 1.900, 1.000, -4.300, 743, 100, 100, 23, 24406, -17096, 5415, 5415, 15, 14, 1529009824.376, 52, 0, 1024, 1024, 1024, 1024, 0, 6, 4049, 4047, 4037, 4063, 4061, 4060, 0, 1, 5801, -90.000, 0.000, -3.200, 0.000, 0.000, -0.600, 0.0, , , , , , 97, , , 21, 21, 21
36.7915929, -118.9555454, 1.300, 13:57:04.475, 12, 0.00, 0.61, 100, 1.400, 1.000, -4.600, 743, 100, 100, 23, 24406, -17096, 5415, 5415, 15, 14, 1529009824.475, 55, 0, 1024, 1024, 1024, 1024, 0, 6, 4049, 4047, 4037, 4063, 4061, 4060, 0, 1, 5900, -90.000, 0.000, -3.300, 0.000, 0.000, -0.800, 0.0, , , , , , 97, , , 21, 21, 21
36.7915929, -118.9555454, 1.400, 13:57:04.575, 12, 0.00, 0.61, 100, 1.100, 1.100, -4.800, 743, 100, 100, 23, 24406, -17096, 5415, 5415, 15, 14, 1529009824.576, 61, 0, 1024, 1024, 1024, 1024, 0, 6, 4049, 4047, 4037, 4063, 4061, 4060, 0, 1, 6000, -89.900, 0.000, -3.300, 0.000, 0.000, -0.900, 0.0, , , , , , 97, , , 21, 21, 21
36.7915929, -118.9555454, 1.400, 13:57:04.675, 12, 0.00, 0.62, 100, 0.900, 1.100, -5.000, 743, 100, 100, 23, 24406, -17096, 5415, 5415, 15, 14, 1529009824.676, 32, 0, 1024, 1024, 1024, 1024, 0, 6, 4049, 4047, 4037, 4063, 4061, 4060, 0, 1, 6101, -89.900, 0.000, -3.300, 0.000, 0.000, -1.000, 0.0, , , , , , 97, , , 21, 21, 21
36.7915929, -118.9555455, 1.600, 13:57:04.775, 11, 0.00, 0.62, 100, 0.900, 1.200, -5.000, 743, 100, 100, 23, 24406, -17096, 5415, 5415, 15, 14, 1529009824.776, 46, 0, 1024, 1024, 1024, 1024, 0, 6, 4049, 4047, 4037, 4063, 4061, 4060, 0, 1, 6200, -90.000, 0.000, -3.300, 0.000, 0.000, -1.200, 0.0, , , , , , 97, , , 21, 21, 21
36.7915929, -118.9555455, 1.700, 13:57:04.875, 11, 0.00, 0.62, 100, 0.700, 1.200, -4.900, 743, 100, 100, 23, 24406, -17096, 5415, 5415, 15, 14, 1529009824.876, 14, 0, 1024, 1024, 1024, 1024, 0, 6, 4049, 4047, 4037, 4063, 4061, 4060, 0, 1, 6300, -90.000, 0.000, -3.400, 0.000, 0.000, -1.500, 0.0, , , , , , 97, , , 21, 21, 21
36.7915929, -118.9555456, 1.900, 13:57:04.975, 12, 0.00, 0.63, 100, 0.600, 1.000, -4.800, 743, 100, 100, 23, 24406, -17096, 5415, 5415, 15, 14, 1529009824.976, 42, 0, 1024, 1024, 1024, 1024, 0, 6, 4049, 4047, 4037, 4063, 4061, 4060, 0, 1, 6400, -90.000, 0.000, -3.400, 0.000, 0.000, -1.600, 0.0, , , , , , 97, , , 21, 21, 21
36.7915928, -118.9555457, 2.100, 13:57:05.075, 12, 0.00, 0.63, 100, 0.900, 0.800, -4.900, 743, 100, 100, 23, 24225, -17670, 5415, 5415, 15, 14, 1529009825.076, 22, 0, 1024, 1024, 1024, 1024, 0, 6, 3994, 3992, 4015, 4042, 4037, 4035, 0, 1, 6500, -90.000, 0.000, -3.400, 0.000, 0.000, -1.900, 0.0, , , , , , 97, , , 21, 21, 21
36.7915927, -118.9555458, 2.300, 13:57:05.175, 11, 0.00, 0.63, 100, 1.300, 0.600, -5.000, 743, 100, 100, 23, 24225, -17670, 5415, 5415, 15, 14, 1529009825.176, 34, 0, 1024, 1024, 1024, 1024, 0, 6, 3994, 3992, 4015, 4042, 4037, 4035, 0, 1, 6600, -90.000, 0.000, -3.400, 0.000, 0.000, -2.200, 0.0, , , , , , 97, , , 21, 21, 21
36.7915927, -118.9555460, 2.500, 13:57:05.278, 11, 0.00, 0.63, 100, 1.500, 0.500, -5.000, 743, 100, 100, 23, 24225, -17670, 5415, 5415, 15, 14, 1529009825.278, 2, 0, 1024, 1024, 1024, 1024, 0, 6, 3994, 3992, 4015, 4042, 4037, 4035, 0, 1, 6703, -90.000, 0.000, -3.500, 0.000, 0.000, -2.400, 0.0, , , , , , 97, , , 21, 21, 21
36.7915926, -118.9555461, 2.800, 13:57:05.375, 12, 0.00, 0.64, 100, 1.700, 0.400, -5.000, 743, 100, 100, 23, 24225, -17670, 5415, 5415, 15, 14, 1529009825.375, 3, 0, 1024, 1024, 1024, 1024, 0, 6, 3994, 3992, 4015, 4042, 4037, 4035, 0, 1, 6800, -90.000, 0.000, -3.500, 0.000, 0.000, -2.700, 0.0, , , , , , 97, , , 21, 21, 21
36.7915925, -118.9555462, 3.100, 13:57:05.476, 12, 0.00, 0.64, 100, 2.000, 0.400, -5.000, 743, 100, 100, 23, 24225, -17670, 5415, 5415, 15, 14, 1529009825.477, 1, 0, 1024, 1024, 1024, 1024, 0, 6, 3994, 3992, 4015, 4042, 4037, 4035, 0, 1, 6901, -90.000, 0.000, -3.500, 0.000, 0.000, -3.000, 0.0, , , , , , 97, , , 21, 21, 21
36.7915924, -118.9555462, 3.400, 13:57:05.575, 11, 0.00, 0.63, 100, 2.000, 0.400, -5.000, 743, 100, 100, 23, 24225, -17670, 5415, 5415, 15, 14, 1529009825.576, 4, 0, 1024, 1024, 1024, 1024, 0, 6, 3994, 3992, 4015, 4042, 4037, 4035, 0, 1, 7000, -90.000, 0.000, -3.500, 0.000, 0.000, -3.100, 0.0, , , , , , 97, , , 21, 21, 21
36.7915922, -118.9555464, 3.700, 13:57:05.676, 11, 0.00, 0.63, 100, 1.900, 0.400, -4.800, 743, 100, 100, 23, 24225, -17670, 5415, 5415, 15, 14, 1529009825.676, 9, 0, 1024, 1024, 1024, 1024, 0, 6, 3994, 3992, 4015, 4042, 4037, 4035, 0, 1, 7101, -90.000, 0.000, -3.600, 0.000, 0.000, -3.200, 0.0, , , , , , 97, , , 21, 21, 21
36.7915921, -118.9555465, 4.100, 13:57:05.777, 12, 0.00, 0.63, 100, 1.800, 0.500, -4.600, 743, 100, 100, 23, 24225, -17670, 5415, 5415, 15, 14, 1529009825.777, 4, 0, 1024, 1024, 1024, 1024, 0, 6, 3994, 3992, 4015, 4042, 4037, 4035, 0, 1, 7202, -89.900, 0.000, -3.600, 0.000, 0.000, -3.300, 0.0, , , , , , 97, , , 21, 21, 21
36.7915921, -118.9555465, 4.100, 13:57:05.875, 12, 0.00, 0.63, 100, 1.800, 0.500, -4.600, 743, 100, 100, 23, 24225, -17670, 5415, 5415, 15, 14, 1529009825.876, 102, 0, 1024, 1024, 1024, 1024, 0, 6, 3994, 3992, 4015, 4042, 4037, 4035, 0, 1, 7300, -89.900, 0.000, -3.600, 0.000, 0.000, -3.300, 0.0, , , , , , 97, , , 21, 21, 21
36.7915920, -118.9555466, 4.400, 13:57:05.975, 12, 0.00, 0.64, 100, 1.800, 0.500, -4.400, 743, 100, 100, 23, 24225, -17670, 5415, 5415, 15, 14, 1529009825.976, 72, 0, 1024, 1024, 1024, 1024, 0, 6, 3994, 3992, 4015, 4042, 4037, 4035, 0, 1, 7400, -89.900, 0.000, -3.600, 0.000, 0.000, -3.400, 0.0, , , , , , 97, , , 21, 21, 21
36.7915918, -118.9555468, 4.800, 13:57:06.075, 11, 0.00, 0.64, 100, 1.800, 0.500, -4.200, 743, 100, 100, 23, 24225, -17670, 5415, 5415, 15, 14, 1529009826.075, 73, 0, 1024, 1024, 1024, 1024, 0, 6, 3994, 3992, 4015, 4042, 4037, 4035, 0, 1, 7500, -90.000, 0.000, -3.600, 0.000, 0.000, -3.300, 0.0, , , , , , 97, , , 21, 21, 21
36.7915916, -118.9555468, 5.500, 13:57:06.175, 11, 0.00, 0.63, 100, 1.600, -0.400, -4.200, 743, 100, 100, 23, 23405, -25854, 5306, 5415, 15, 14, 1529009826.175, 61, 0, 1024, 1024, 1024, 1024, 0, 6, 3884, 3888, 3896, 3904, 3900, 3970, 0, 1, 7600, -90.000, 0.000, -3.700, 0.000, 0.000, -3.300, 0.0, , , , , , 97, , , 21, 21, 21
36.7915916, -118.9555468, 5.500, 13:57:06.275, 11, 0.00, 0.63, 100, 1.600, -0.400, -4.200, 743, 100, 100, 23, 23405, -25854, 5306, 5415, 15, 14, 1529009826.276, 161, 0, 1024, 1024, 1024, 1024, 0, 6, 3884, 3888, 3896, 3904, 3900, 3970, 0, 1, 7700, -89.900, 0.000, -3.700, 0.000, 0.000, -3.300, 0.0, , , , , , 97, , , 21, 21, 21
36.7915915, -118.9555466, 6.200, 13:57:06.375, 12, 0.00, 0.61, 100, 1.500, -1.100, -4.300, 743, 100, 100, 23, 23405, -25854, 5306, 5415, 15, 14, 1529009826.376, 72, 0, 1024, 1024, 1024, 1024, 0, 6, 3884, 3888, 3896, 3904, 3900, 3970, 0, 1, 7800, -89.900, 0.000, -3.700, 0.000, 0.000, -3.200, 0.0, , , , , , 97, , , 21, 21, 21
36.7915914, -118.9555466, 6.600, 13:57:06.475, 12, 0.00, 0.60, 100, 1.900, -0.900, -4.400, 743, 100, 100, 23, 23405, -25854, 5306, 5415, 15, 14, 1529009826.476, 75, 0, 1024, 1024, 1024, 1024, 0, 6, 3884, 3888, 3896, 3904, 3900, 3970, 0, 1, 7900, -89.900, 0.000, -3.700, 0.000, 0.000, -3.200, 0.0, , , , , , 97, , , 21, 21, 21
36.7915914, -118.9555466, 6.900, 13:57:06.575, 12, 0.00, 0.60, 100, 2.300, -0.600, -4.500, 743, 100, 100, 23, 23405, -25854, 5306, 5415, 15, 14, 1529009826.576, 74, 0, 1024, 1024, 1024, 1024, 0, 6, 3884, 3888, 3896, 3904, 3900, 3970, 0, 1, 8000, -89.900, 0.000, -3.700, 0.000, 0.000, -3.100, 0.0, , , , , , 97, , , 21, 21, 21
36.7915915, -118.9555465, 7.200, 13:57:06.675, 12, 0.00, 0.60, 98, 2.400, -0.500, -4.600, 743, 100, 100, 23, 23405, -25854, 5306, 5415, 15, 14, 1529009826.676, 67, 0, 1024, 1024, 1024, 1024, 0, 6, 3884, 3888, 3896, 3904, 3900, 3970, 0, 1, 8100, -89.900, 0.000, -3.700, 0.000, 0.000, -3.100, 0.0, , , , , , 97, , , 21, 21, 21
36.7915915, -118.9555464, 7.600, 13:57:06.775, 12, 0.10, 0.59, 98, 2.200, -0.200, -4.600, 743, 100, 100, 23, 23405, -25854, 5306, 5415, 15, 14, 1529009826.775, 45, 0, 1024, 1024, 1024, 1024, 0, 6, 3884, 3888, 3896, 3904, 3900, 3970, 0, 1, 8200, -89.900, 0.000, -3.800, 0.000, 0.100, -3.100, 0.0, , , , , , 97, , , 21, 21, 21
36.7915916, -118.9555463, 7.900, 13:57:06.875, 12, 0.14, 0.59, 98, 1.700, 0.500, -4.500, 743, 100, 100, 23, 23405, -25854, 5306, 5415, 15, 14, 1529009826.876, 52, 0, 1024, 1024, 1024, 1024, 0, 6, 3884, 3888, 3896, 3904, 3900, 3970, 0, 1, 8300, -89.900, 0.000, -3.800, 0.100, 0.100, -3.000, 0.0, , , , , , 97, , , 21, 21, 21
36.7915918, -118.9555462, 8.200, 13:57:06.975, 12, 0.10, 0.59, 98, 1.500, 1.800, -4.400, 743, 100, 100, 23, 23405, -25854, 5306, 5415, 15, 14, 1529009826.976, 5, 0, 1024, 1024, 1024, 1024, 0, 6, 3884, 3888, 3896, 3904, 3900, 3970, 0, 1, 8400, -89.900, 0.000, -3.800, 0.000, 0.100, -3.000, 0.0, , , , , , 97, , , 21, 21, 21
36.7915919, -118.9555461, 8.500, 13:57:07.082, 12, 0.10, 0.59, 98, 1.000, 1.700, -4.400, 743, 100, 100, 23, 23790, -20279, 5306, 5415, 15, 14, 1529009827.082, 2, 0, 1024, 1024, 1024, 1024, 0, 6, 3969, 3976, 3959, 3985, 3987, 3978, 0, 1, 8507, -89.900, 0.000, -3.800, 0.000, 0.100, -3.000, 0.0, , , , , , 97, , , 21, 21, 21
36.7915920, -118.9555460, 8.900, 13:57:07.179, 12, 0.10, 0.59, 98, 0.200, 0.900, -4.500, 743, 100, 100, 23, 23790, -20279, 5306, 5415, 15, 14, 1529009827.179, 4, 0, 1024, 1024, 1024, 1024, 0, 6, 3969, 3976, 3959, 3985, 3987, 3978, 0, 1, 8604, -89.900, 0.000, -3.800, 0.000, 0.100, -3.000, 0.0, , , , , , 97, , , 21, 21, 21
36.7915921, -118.9555458, 9.200, 13:57:07.275, 12, 0.10, 0.58, 98, -0.400, 0.400, -4.700, 743, 100, 100, 23, 23790, -20279, 5306, 5415, 15, 14, 1529009827.275, 1, 0, 1024, 1024, 1024, 1024, 0, 6, 3969, 3976, 3959, 3985, 3987, 3978, 0, 1, 8700, -90.000, 0.000, -3.800, 0.000, 0.100, -3.000, 0.0, , , , , , 97, , , 21, 21, 21
36.7915921, -118.9555458, 9.200, 13:57:07.375, 12, 0.10, 0.58, 98, -0.400, 0.400, -4.700, 743, 100, 100, 23, 23790, -20279, 5306, 5415, 15, 14, 1529009827.375, 101, 0, 1024, 1024, 1024, 1024, 0, 6, 3969, 3976, 3959, 3985, 3987, 3978, 0, 1, 8800, -90.000, 0.000, -3.800, 0.000, 0.100, -3.000, 0.0, , , , , , 97, , , 21, 21, 21
36.7915921, -118.9555457, 9.500, 13:57:07.475, 12, 0.10, 0.58, 98, -0.500, 0.800, -4.900, 743, 100, 100, 23, 23790, -20279, 5306, 5415, 15, 14, 1529009827.475, 84, 0, 1024, 1024, 1024, 1024, 0, 6, 3969, 3976, 3959, 3985, 3987, 3978, 0, 1, 8900, -89.900, 0.000, -3.800, 0.000, 0.100, -2.900, 0.0, , , , , , 97, , , 21, 21, 21
36.7915922, -118.9555456, 9.800, 13:57:07.575, 12, 0.10, 0.58, 98, -0.500, 0.600, -5.100, 743, 100, 100, 23, 23790, -20279, 5306, 5415, 15, 14, 1529009827.575, 98, 0, 1024, 1024, 1024, 1024, 0, 6, 3969, 3976, 3959, 3985, 3987, 3978, 0, 1, 9000, -89.900, 0.000, -3.900, 0.000, 0.100, -3.000, 0.0, , , , , , 97, , , 21, 21, 21
36.7915923, -118.9555455, 10.100, 13:57:07.674, 12, 0.10, 0.58, 98, -0.200, 0.400, -5.400, 743, 100, 100, 23, 23790, -20279, 5306, 5415, 15, 14, 1529009827.675, 89, 0, 1024, 1024, 1024, 1024, 0, 6, 3969, 3976, 3959, 3985, 3987, 3978, 0, 1, 9099, -89.900, 0.000, -3.900, 0.000, 0.100, -3.000, 0.0, , , , , , 97, , , 21, 21, 21
36.7915924, -118.9555454, 10.400, 13:57:07.775, 12, 0.10, 0.58, 98, 0.000, 0.600, -5.600, 743, 100, 100, 23, 23790, -20279, 5306, 5415, 15, 14, 1529009827.775, 85, 0, 1024, 1024, 1024, 1024, 0, 6, 3969, 3976, 3959, 3985, 3987, 3978, 0, 1, 9200, -89.900, 0.000, -3.900, 0.000, 0.100, -3.000, 0.0, , , , , , 97, , , 21, 21, 21
36.7915924, -118.9555454, 10.800, 13:57:07.875, 12, 0.10, 0.58, 98, 0.100, 0.700, -5.700, 743, 100, 100, 23, 23790, -20279, 5306, 5415, 15, 14, 1529009827.875, 90, 0, 1024, 1024, 1024, 1024, 0, 6, 3969, 3976, 3959, 3985, 3987, 3978, 0, 1, 9300, -89.900, 0.000, -3.900, 0.000, 0.100, -2.900, 0.0, , , , , , 97, , , 21, 21, 21
36.7915925, -118.9555453, 11.100, 13:57:07.975, 12, 0.10, 0.58, 98, 0.000, 0.700, -5.600, 743, 100, 100, 23, 23790, -20279, 5306, 5415, 15, 14, 1529009827.975, 84, 0, 1024, 1024, 1024, 1024, 0, 6, 3969, 3976, 3959, 3985, 3987, 3978, 0, 1, 9400, -89.900, 0.000, -3.900, 0.000, 0.100, -3.000, 0.0, , , , , , 97, , , 21, 21, 21
36.7915925, -118.9555452, 11.400, 13:57:08.075, 12, 0.10, 0.57, 98, -0.200, 0.400, -5.400, 743, 100, 100, 23, 23790, -20279, 5306, 5415, 15, 14, 1529009828.075, 85, 0, 1024, 1024, 1024, 1024, 0, 6, 3969, 3976, 3959, 3985, 3987, 3978, 0, 1, 9500, -89.900, 0.000, -3.900, 0.000, 0.100, -3.000, 0.0, , , , , , 97, , , 21, 21, 21
36.7915925, -118.9555452, 11.800, 13:57:08.174, 12, 0.10, 0.57, 98, -0.100, 0.000, -5.200, 743, 100, 100, 23, 23829, -19042, 5306, 5415, 15, 14, 1529009828.175, 75, 0, 1024, 1024, 1024, 1024, 0, 6, 3954, 3968, 3941, 3978, 3970, 3963, 0, 1, 9599, -89.900, 0.000, -3.900, 0.000, 0.100, -3.000, 0.0, , , , , , 97, , , 21, 21, 21
36.7915925, -118.9555451, 12.400, 13:57:08.275, 13, 0.10, 0.57, 98, -0.200, -0.100, -4.600, 743, 100, 100, 23, 23829, -19042, 5306, 5415, 15, 14, 1529009828.275, 82, 0, 1024, 1024, 1024, 1024, 0, 6, 3954, 3968, 3941, 3978, 3970, 3963, 0, 1, 9700, -89.900, 0.000, -3.900, 0.000, 0.100, -3.000, 0.0, , , , , , 97, , , 21, 21, 21
36.7915925, -118.9555451, 12.700, 13:57:08.375, 12, 0.10, 0.56, 98, -0.300, -0.400, -4.400, 743, 100, 100, 23, 23829, -19042, 5306, 5415, 15, 14, 1529009828.375, 88, 0, 1024, 1024, 1024, 1024, 0, 6, 3954, 3968, 3941, 3978, 3970, 3963, 0, 1, 9800, -89.900, 0.000, -3.900, 0.000, 0.100, -2.900, 0.0, , , , , , 97, , , 21, 21, 21
36.7915925, -118.9555450, 13.100, 13:57:08.475, 12, 0.10, 0.56, 98, 0.000, -0.300, -4.300, 743, 100, 100, 23, 23829, -19042, 5306, 5415, 15, 14, 1529009828.475, 65, 0, 1024, 1024, 1024, 1024, 0, 6, 3954, 3968, 3941, 3978, 3970, 3963, 0, 1, 9900, -89.900, 0.000, -3.900, 0.000, 0.100, -2.900, 0.0, , , , , , 97, , , 21, 21, 21
36.7915925, -118.9555449, 13.400, 13:57:08.575, 13, 0.10, 0.55, 98, -0.500, -0.100, -4.400, 743, 100, 100, 23, 23829, -19042, 5306, 5415, 15, 14, 1529009828.575, 74, 0, 1024, 1024, 1024, 1024, 0, 6, 3954, 3968, 3941, 3978, 3970, 3963, 0, 1, 10000, -89.900, 0.000, -3.900, 0.000, 0.100, -2.900, 0.0, , , , , , 97, , , 21, 21, 21
36.7915925, -118.9555447, 13.700, 13:57:08.675, 13, 0.20, 0.55, 98, -1.500, 0.300, -4.400, 743, 100, 100, 23, 23829, -19042, 5306, 5415, 15, 14, 1529009828.675, 66, 0, 1024, 1024, 1024, 1024, 0, 6, 3954, 3968, 3941, 3978, 3970, 3963, 0, 1, 10100, -89.900, 0.000, -3.900, 0.000, 0.200, -2.900, 0.0, , , , , , 97, , , 21, 21, 21
36.7915926, -118.9555445, 14.000, 13:57:08.775, 13, 0.20, 0.53, 98, -2.900, 0.700, -4.400, 743, 100, 100, 23, 23829, -19042, 5306, 5415, 15, 14, 1529009828.775, 67, 0, 1024, 1024, 1024, 1024, 0, 6, 3954, 3968, 3941, 3978, 3970, 3963, 0, 1, 10200, -89.900, 0.000, -3.900, 0.000, 0.200, -2.800, 0.0, , , , , , 97, , , 21, 21, 21
36.7915926, -118.9555443, 14.300, 13:57:08.875, 13, 0.20, 0.53, 98, -3.700, 0.600, -4.500, 743, 100, 100, 23, 23829, -19042, 5306, 5415, 15, 14, 1529009828.875, 47, 0, 1024, 1024, 1024, 1024, 0, 6, 3954, 3968, 3941, 3978, 3970, 3963, 0, 1, 10300, -89.900, 0.000, -3.900, 0.000, 0.200, -2.800, 0.0, , , , , , 97, , , 21, 21, 21
36.7915926, -118.9555442, 14.600, 13:57:08.975, 12, 0.10, 0.52, 98, -3.600, -0.400, -4.700, 743, 100, 100, 23, 23829, -19042, 5306, 5415, 15, 14, 1529009828.975, 25, 0, 1024, 1024, 1024, 1024, 0, 6, 3954, 3968, 3941, 3978, 3970, 3963, 0, 1, 10400, -90.000, 0.000, -3.900, 0.000, 0.100, -2.700, 0.0, , , , , , 97, , , 21, 21, 21
36.7915926, -118.9555441, 14.800, 13:57:09.075, 12, 0.10, 0.52, 98, -3.100, -0.900, -4.900, 743, 100, 100, 23, 23828, -19074, 5306, 5415, 15, 14, 1529009829.075, 41, 0, 1024, 1024, 1024, 1024, 0, 6, 3954, 3968, 3941, 3978, 3970, 3963, 0, 1, 10500, -89.900, 0.000, -3.900, 0.000, 0.100, -2.600, 0.0, , , , , , 97, , , 21, 21, 21
36.7915926, -118.9555440, 15.100, 13:57:09.175, 13, 0.10, 0.51, 98, -2.500, -0.400, -5.200, 743, 100, 100, 23, 23828, -19074, 5306, 5415, 15, 14, 1529009829.175, 43, 0, 1024, 1024, 1024, 1024, 0, 6, 3954, 3968, 3941, 3978, 3970, 3963, 0, 1, 10600, -89.900, 0.000, -3.900, 0.000, 0.100, -2.700, 0.0, , , , , , 97, , , 21, 21, 21
36.7915926, -118.9555439, 15.400, 13:57:09.275, 13, 0.10, 0.51, 98, -1.900, 0.000, -5.500, 743, 100, 100, 23, 23828, -19074, 5306, 5415, 15, 14, 1529009829.275, 35, 0, 1024, 1024, 1024, 1024, 0, 6, 3954, 3968, 3941, 3978, 3970, 3963, 0, 1, 10700, -89.900, 0.000, -3.900, 0.000, 0.100, -2.700, 0.0, , , , , , 97, , , 21, 21, 21
36.7915926, -118.9555438, 15.600, 13:57:09.375, 13, 0.10, 0.50, 98, -1.600, 0.100, -5.800, 743, 100, 100, 23, 23828, -19074, 5306, 5415, 15, 14, 1529009829.375, 40, 0, 1024, 1024, 1024, 1024, 0, 6, 3954, 3968, 3941, 3978, 3970, 3963, 0, 1, 10800, -89.900, 0.000, -3.900, 0.000, 0.100, -2.800, 0.0, , , , , , 97, , , 21, 21, 21
36.7915926, -118.9555437, 15.900, 13:57:09.475, 13, 0.10, 0.50, 98, -2.200, 0.300, -6.000, 743, 100, 100, 23, 23828, -19074, 5306, 5415, 15, 14, 1529009829.475, 31, 0, 1024, 1024, 1024, 1024, 0, 6, 3954, 3968, 3941, 3978, 3970, 3963, 0, 1, 10900, -89.900, 0.000, -3.900, 0.000, 0.100, -2.800, 0.0, , , , , , 97, , , 21, 21, 21
36.7915927, -118.9555436, 16.200, 13:57:09.575, 13, 0.10, 0.49, 98, -2.500, 0.500, -5.900, 743, 100, 100, 23, 23828, -19074, 5306, 5415, 15, 14, 1529009829.575, 34, 0, 1024, 1024, 1024, 1024, 0, 6, 3972, 3970, 3956, 3977, 3978, 3971, 0, 1, 11000, -89.900, 0.000, -3.900, 0.000, 0.100, -2.800, 0.0, , , , , , 97, , , 21, 21, 21
36.7915927, -118.9555435, 16.500, 13:57:09.675, 13, 0.10, 0.49, 98, -3.000, 0.700, -5.700, 743, 100, 100, 23, 23828, -19074, 5306, 5415, 15, 14, 1529009829.675, 34, 0, 1024, 1024, 1024, 1024, 0, 6, 3972, 3970, 3956, 3977, 3978, 3971, 0, 1, 11100, -89.900, 0.000, -3.900, 0.000, 0.100, -2.800, 0.0, , , , , , 97, , , 21, 21, 21
36.7915926, -118.9555434, 16.700, 13:57:09.775, 13, 0.10, 0.48, 98, -2.900, 0.600, -5.500, 743, 100, 100, 23, 23828, -19074, 5306, 5415, 15, 14, 1529009829.775, 32, 0, 1024, 1024, 1024, 1024, 0, 6, 3972, 3970, 3956, 3977, 3978, 3971, 0, 1, 11200, -89.900, 0.000, -3.900, 0.000, 0.100, -2.900, 0.0, , , , , , 97, , , 21, 21, 21
36.7915926, -118.9555433, 17.000, 13:57:09.875, 13, 0.10, 0.48, 98, -2.700, 0.400, -5.200, 743, 100, 100, 23, 23828, -19074, 5306, 5415, 15, 14, 1529009829.876, 2, 0, 1024, 1024, 1024, 1024, 0, 6, 3972, 3970, 3956, 3977, 3978, 3971, 0, 1, 11300, -89.900, 0.000, -3.900, 0.000, 0.100, -2.900, 0.0, , , , , , 97, , , 21, 21, 21
36.7915926, -118.9555433, 17.300, 13:57:09.975, 13, 0.00, 0.47, 98, -2.900, 0.000, -5.000, 743, 100, 100, 23, 23828, -19074, 5306, 5415, 15, 14, 1529009829.975, 7, 0, 1024, 1024, 1024, 1024, 0, 6, 3972, 3970, 3956, 3977, 3978, 3971, 0, 1, 11400, -90.000, 0.000, -3.900, 0.000, 0.000, -2.900, 0.0, , , , , , 97, , , 21, 21, 21
36.7915925, -118.9555433, 17.600, 13:57:10.084, 13, 0.00, 0.47, 98, -3.200, -0.100, -5.000, 743, 100, 100, 23, 23828, -19074, 5306, 5415, 15, 14, 1529009830.084, 1, 0, 1024, 1024, 1024, 1024, 0, 6, 3972, 3970, 3956, 3977, 3978, 3971, 0, 1, 11509, -89.900, 0.000, -3.900, 0.000, 0.000, -2.900, 0.0, , , , , , 97, , , 21, 21, 21
36.7915925, -118.9555433, 17.900, 13:57:10.175, 13, 0.00, 0.46, 98, -3.100, -0.100, -5.000, 743, 100, 100, 23, 23828, -19074, 5306, 5415, 15, 14, 1529009830.175, 5, 0, 1024, 1024, 1024, 1024, 0, 6, 3972, 3970, 3956, 3977, 3978, 3971, 0, 1, 11600, -90.000, 0.000, -4.000, 0.000, 0.000, -2.900, 0.0, , , , , , 97, , , 21, 21, 21
36.7915923, -118.9555431, 18.400, 13:57:10.275, 13, 0.00, 0.44, 98, -2.300, -0.600, -4.700, 743, 100, 100, 23, 23828, -19074, 5306, 5415, 15, 14, 1529009830.275, 5, 0, 1024, 1024, 1024, 1024, 0, 6, 3972, 3970, 3956, 3977, 3978, 3971, 0, 1, 11700, -90.000, 0.000, -4.000, 0.000, 0.000, -2.800, 0.0, , , , , , 97, , , 21, 21, 21
36.7915923, -118.9555431, 18.400, 13:57:10.375, 13, 0.00, 0.44, 98, -2.300, -0.600, -4.700, 743, 100, 100, 23, 23828, -19074, 5306, 5415, 15, 14, 1529009830.375, 106, 0, 1024, 1024, 1024, 1024, 0, 6, 3972, 3970, 3956, 3977, 3978, 3971, 0, 1, 11800, -90.000, 0.000, -4.000, 0.000, 0.000, -2.800, 0.0, , , , , , 97, , , 21, 21, 21
36.7915923, -118.9555431, 18.400, 13:57:10.475, 13, 0.00, 0.44, 98, -2.300, -0.600, -4.700, 743, 100, 100, 23, 23828, -19074, 5306, 5415, 15, 14, 1529009830.475, 206, 0, 1024, 1024, 1024, 1024, 0, 6, 3972, 3970, 3956, 3977, 3978, 3971, 0, 1, 11900, -90.000, 0.000, -4.000, 0.000, 0.000, -2.800, 0.0, , , , , , 97, , , 21, 21, 21
36.7915921, -118.9555431, 19.000, 13:57:10.575, 13, 0.00, 0.42, 98, -1.900, -1.100, -4.300, 743, 100, 100, 23, 23828, -19074, 5306, 5415, 15, 14, 1529009830.575, 74, 0, 1024, 1024, 1024, 1024, 0, 6, 3972, 3970, 3956, 3977, 3978, 3971, 0, 1, 12000, -90.000, 0.000, -4.000, 0.000, 0.000, -3.000, 0.0, , , , , , 97, , , 21, 21, 21
36.7915921, -118.9555430, 19.300, 13:57:10.675, 13, 0.10, 0.41, 98, -2.400, -1.400, -4.200, 743, 100, 100, 23, 23726, -19217, 5306, 5415, 15, 14, 1529009830.675, 78, 0, 1024, 1024, 1024, 1024, 0, 6, 3948, 3947, 3935, 3968, 3978, 3946, 0, 1, 12100, -90.000, 0.000, -4.000, 0.000, 0.100, -3.100, 0.0, , , , , , 97, , , 21, 21, 21
36.7915920, -118.9555429, 19.600, 13:57:10.775, 13, 0.10, 0.40, 98, -3.000, -1.600, -4.200, 743, 100, 100, 23, 23726, -19217, 5306, 5415, 15, 14, 1529009830.775, 68, 0, 1024, 1024, 1024, 1024, 0, 6, 3948, 3947, 3935, 3968, 3978, 3946, 0, 1, 12200, -89.900, 0.000, -4.000, 0.000, 0.100, -3.000, 0.0, , , , , , 97, , , 21, 21, 21
36.7915919, -118.9555428, 19.900, 13:57:10.875, 13, 0.10, 0.39, 98, -3.300, -1.700, -4.300, 743, 100, 100, 23, 23726, -19217, 5306, 5415, 15, 14, 1529009830.875, 83, 0, 1024, 1024, 1024, 1024, 0, 6, 3948, 3947, 3935, 3968, 3978, 3946, 0, 1, 12300, -89.900, 0.000, -4.000, 0.000, 0.100, -3.100, 0.0, , , , , , 97, , , 21, 21, 21
36.7915919, -118.9555427, 20.200, 13:57:10.975, 13, 0.00, 0.38, 98, -3.400, -1.800, -4.500, 743, 100, 100, 23, 23726, -19217, 5306, 5415, 15, 14, 1529009830.975, 74, 0, 1024, 1024, 1024, 1024, 0, 6, 3948, 3947, 3935, 3968, 3978, 3946, 0, 1, 12400, -89.900, 0.000, -4.000, 0.000, 0.000, -3.000, 0.0, , , , , , 97, , , 21, 21, 21
36.7915918, -118.9555426, 20.500, 13:57:11.075, 13, 0.00, 0.37, 98, -3.200, -1.600, -4.600, 743, 100, 100, 23, 23726, -19217, 5306, 5415, 15, 14, 1529009831.075, 30, 0, 1024, 1024, 1024, 1024, 0, 6, 3948, 3947, 3935, 3968, 3978, 3946, 0, 1, 12500, -89.900, 0.000, -4.000, 0.000, 0.000, -3.000, 0.0, , , , , , 97, , , 21, 21, 21
36.7915918, -118.9555426, 20.800, 13:57:11.175, 13, 0.00, 0.37, 98, -3.100, -1.600, -4.700, 743, 100, 99, 23, 23726, -19217, 5306, 5415, 15, 14, 1529009831.175, 31, 0, 1024, 1024, 1024, 1024, 0, 6, 3948, 3947, 3935, 3968, 3978, 3946, 0, 1, 12600, -89.900, 0.000, -4.000, 0.000, 0.000, -3.000, 0.0, , , , , , 97, , , 21, 21, 21
36.7915918, -118.9555427, 21.100, 13:57:11.274, 13, 0.00, 0.37, 98, -2.900, -1.500, -4.900, 743, 100, 99, 23, 23726, -19217, 5306, 5415, 15, 14, 1529009831.274, 49, 0, 1024, 1024, 1024, 1024, 0, 6, 3948, 3947, 3935, 3968, 3978, 3946, 0, 1, 12699, -89.900, 0.000, -4.000, 0.000, 0.000, -2.900, 0.0, , , , , , 97, , , 21, 21, 21
36.7915918, -118.9555427, 21.300, 13:57:11.375, 13, 0.00, 0.37, 98, -3.000, -1.700, -5.000, 743, 100, 99, 23, 23726, -19217, 5306, 5415, 15, 14, 1529009831.375, 39, 0, 1024, 1024, 1024, 1024, 0, 6, 3948, 3947, 3935, 3968, 3978, 3946, 0, 1, 12800, -89.900, 0.000, -4.000, 0.000, 0.000, -2.800, 0.0, , , , , , 97, , , 21, 21, 21
36.7915918, -118.9555427, 21.600, 13:57:11.475, 13, 0.00, 0.37, 98, -2.600, -1.700, -5.100, 743, 100, 99, 23, 23726, -19217, 5306, 5415, 15, 14, 1529009831.475, 44, 0, 1024, 1024, 1024, 1024, 0, 6, 3948, 3947, 3935, 3968, 3978, 3946, 0, 1, 12900, -89.900, 0.000, -4.000, 0.000, 0.000, -2.900, 0.0, , , , , , 97, , , 21, 21, 21
36.7915917, -118.9555428, 21.900, 13:57:11.574, 13, 0.00, 0.37, 98, -2.400, -1.300, -5.300, 743, 100, 99, 23, 23738, -19290, 5306, 5415, 15, 14, 1529009831.574, 21, 0, 1024, 1024, 1024, 1024, 0, 6, 3957, 3943, 3929, 3950, 3953, 3942, 0, 1, 12999, -89.900, 0.000, -4.000, 0.000, 0.000, -2.900, 0.0, , , , , , 97, , , 21, 21, 21
36.7915918, -118.9555429, 22.200, 13:57:11.675, 13, 0.00, 0.37, 98, -2.100, -1.100, -5.400, 743, 100, 99, 23, 23738, -19290, 5306, 5415, 15, 14, 1529009831.675, 25, 0, 1024, 1024, 1024, 1024, 0, 6, 3957, 3943, 3929, 3950, 3953, 3942, 0, 1, 13100, -89.900, 0.000, -4.000, 0.000, 0.000, -2.900, 0.0, , , , , , 97, , , 21, 21, 21
36.7915918, -118.9555430, 22.500, 13:57:11.775, 13, 0.00, 0.38, 98, -1.400, -0.800, -5.400, 743, 100, 99, 23, 23738, -19290, 5306, 5415, 15, 14, 1529009831.775, 27, 0, 1024, 1024, 1024, 1024, 0, 6, 3957, 3943, 3929, 3950, 3953, 3942, 0, 1, 13200, -89.900, 0.000, -4.000, 0.000, 0.000, -2.900, 0.0, , , , , , 97, , , 21, 21, 21
36.7915918, -118.9555431, 22.700, 13:57:11.875, 13, 0.00, 0.39, 98, -0.700, -0.400, -5.300, 743, 100, 99, 23, 23738, -19290, 5306, 5415, 15, 14, 1529009831.875, 10, 0, 1024, 1024, 1024, 1024, 0, 6, 3957, 3943, 3929, 3950, 3953, 3942, 0, 1, 13300, -89.900, 0.000, -4.000, 0.000, 0.000, -2.900, 0.0, , , , , , 97, , , 21, 21, 21
36.7915919, -118.9555432, 23.000, 13:57:11.975, 13, 0.00, 0.40, 98, -0.400, -0.100, -5.300, 743, 100, 99, 23, 23738, -19290, 5306, 5415, 15, 14, 1529009831.975, 14, 0, 1024, 1024, 1024, 1024, 0, 6, 3957, 3943, 3929, 3950, 3953, 3942, 0, 1, 13400, -89.900, 0.000, -4.000, 0.000, 0.000, -2.900, 0.0, , , , , , 97, , , 21, 21, 21
36.7915919, -118.9555433, 23.300, 13:57:12.074, 13, 0.00, 0.40, 98, -0.500, -0.400, -5.200, 743, 100, 99, 23, 23738, -19290, 5306, 5415, 15, 14, 1529009832.075, 5, 0, 1024, 1024, 1024, 1024, 0, 6, 3957, 3943, 3929, 3950, 3953, 3942, 0, 1, 13499, -89.900, 0.000, -4.000, 0.000, 0.000, -3.000, 0.0, , , , , , 97, , , 21, 21, 21
36.7915919, -118.9555433, 23.600, 13:57:12.174, 13, 0.00, 0.41, 98, -0.700, -0.700, -5.000, 743, 100, 99, 23, 23738, -19290, 5306, 5415, 15, 14, 1529009832.175, 12, 0, 1024, 1024, 1024, 1024, 0, 6, 3957, 3943, 3929, 3950, 3953, 3942, 0, 1, 13599, -89.900, 0.000, -4.000, 0.000, 0.000, -3.100, 0.0, , , , , , 97, , , 21, 21, 21
36.7915919, -118.9555433, 23.900, 13:57:12.274, 13, 0.00, 0.41, 98, -1.100, -0.700, -4.900, 743, 100, 99, 23, 23738, -19290, 5306, 5415, 15, 14, 1529009832.275, 17, 0, 1024, 1024, 1024, 1024, 0, 6, 3957, 3943, 3929, 3950, 3953, 3942, 0, 1, 13699, -89.900, 0.000, -4.000, 0.000, 0.000, -3.100, 0.0, , , , , , 97, , , 21, 21, 21
36.7915919, -118.9555434, 24.200, 13:57:12.374, 13, 0.00, 0.41, 98, -1.300, -0.900, -4.700, 743, 100, 99, 23, 23738, -19290, 5306, 5415, 15, 14, 1529009832.374, 8, 0, 1024, 1024, 1024, 1024, 0, 6, 3957, 3943, 3929, 3950, 3953, 3942, 0, 1, 13799, -89.900, 0.000, -4.000, 0.000, 0.000, -3.100, 0.0, , , , , , 97, , , 21, 21, 21
36.7915919, -118.9555434, 24.200, 13:57:12.475, 13, 0.00, 0.41, 98, -1.300, -0.900, -4.700, 743, 100, 99, 23, 23738, -19290, 5306, 5415, 15, 14, 1529009832.475, 109, 0, 1024, 1024, 1024, 1024, 0, 6, 3957, 3943, 3929, 3950, 3953, 3942, 0, 1, 13900, -89.900, 0.000, -4.000, 0.000, 0.000, -3.100, 0.0, , , , , , 97, , , 21, 21, 21
36.7915920, -118.9555435, 24.900, 13:57:12.578, 13, 0.00, 0.43, 98, -1.400, -1.200, -4.500, 743, 100, 99, 23, 23719, -18927, 5306, 5415, 15, 14, 1529009832.578, 1, 0, 1024, 1024, 1024, 1024, 0, 6, 3957, 3943, 3929, 3950, 3953, 3942, 0, 1, 14002, -89.900, 0.000, -4.000, 0.000, 0.000, -3.100, 0.0, , , , , , 97, , , 21, 21, 21
36.7915920, -118.9555435, 25.200, 13:57:12.676, 13, 0.00, 0.43, 98, -1.300, -0.800, -4.500, 743, 100, 99, 23, 23719, -18927, 5306, 5415, 15, 14, 1529009832.676, 3, 0, 1024, 1024, 1024, 1024, 0, 6, 3952, 3939, 3927, 3944, 3957, 3932, 0, 1, 14101, -89.900, 0.000, -4.000, 0.000, 0.000, -3.000, 0.0, , , , , , 97, , , 21, 21, 21
36.7915920, -118.9555435, 25.200, 13:57:12.775, 13, 0.00, 0.43, 98, -1.300, -0.800, -4.500, 743, 100, 99, 23, 23719, -18927, 5306, 5415, 15, 14, 1529009832.775, 101, 0, 1024, 1024, 1024, 1024, 0, 6, 3952, 3939, 3927, 3944, 3957, 3932, 0, 1, 14200, -89.900, 0.000, -4.000, 0.000, 0.000, -3.000, 0.0, , , , , , 97, , , 21, 21, 21
36.7915921, -118.9555436, 25.800, 13:57:12.875, 13, 0.00, 0.45, 98, -1.200, -0.100, -4.600, 743, 100, 99, 23, 23719, -18927, 5306, 5415, 15, 14, 1529009832.875, 92, 0, 1024, 1024, 1024, 1024, 0, 6, 3952, 3939, 3927, 3944, 3957, 3932, 0, 1, 14300, -89.900, 0.000, -4.000, 0.000, 0.000, -3.000, 0.0, , , , , , 97, , , 21, 21, 21
36.7915921, -118.9555436, 25.800, 13:57:12.975, 13, 0.00, 0.45, 98, -1.200, -0.100, -4.600, 743, 100, 99, 23, 23719, -18927, 5306, 5415, 15, 14, 1529009832.975, 192, 0, 1024, 1024, 1024, 1024, 0, 6, 3952, 3939, 3927, 3944, 3957, 3932, 0, 1, 14400, -89.900, 0.000, -4.000, 0.000, 0.000, -3.000, 0.0, , , , , , 97, , , 21, 21, 21
36.7915922, -118.9555436, 26.400, 13:57:13.075, 13, 0.00, 0.46, 98, -1.400, 0.100, -4.800, 743, 100, 99, 23, 23719, -18927, 5306, 5415, 15, 14, 1529009833.075, 64, 0, 1024, 1024, 1024, 1024, 0, 6, 3952, 3939, 3927, 3944, 3957, 3932, 0, 1, 14500, -89.900, 0.000, -4.000, 0.000, 0.000, -3.100, 0.0, , , , , , 97, , , 21, 21, 21
36.7915923, -118.9555436, 26.700, 13:57:13.175, 13, 0.00, 0.46, 98, -1.700, 0.100, -4.900, 743, 100, 99, 23, 23719, -18927, 5306, 5415, 15, 14, 1529009833.175, 43, 0, 1024, 1024, 1024, 1024, 0, 6, 3952, 3939, 3927, 3944, 3957, 3932, 0, 1, 14600, -89.900, 0.000, -4.000, 0.000, 0.000, -3.100, 0.0, , , , , , 97, , , 21, 21, 21
36.7915923, -118.9555436, 27.000, 13:57:13.275, 13, 0.00, 0.47, 98, -2.200, -0.100, -4.800, 743, 100, 97, 23, 23719, -18927, 5306, 5415, 15, 14, 1529009833.275, 55, 0, 1024, 1024, 1024, 1024, 0, 6, 3952, 3939, 3927, 3944, 3957, 3932, 0, 1, 14700, -89.900, 0.000, -4.000, 0.000, 0.000, -3.100, 0.0, , , , , , 97, , , 21, 21, 21
36.7915924, -118.9555436, 27.300, 13:57:13.375, 13, 0.00, 0.47, 98, -2.700, -0.400, -4.800, 743, 100, 97, 23, 23719, -18927, 5306, 5415, 15, 14, 1529009833.375, 71, 0, 1024, 1024, 1024, 1024, 0, 6, 3952, 3939, 3927, 3944, 3957, 3932, 0, 1, 14800, -89.900, 0.000, -4.000, 0.000, 0.000, -3.100, 0.0, , , , , , 97, , , 21, 21, 21
36.7915924, -118.9555436, 27.600, 13:57:13.475, 13, 0.00, 0.47, 98, -2.500, -0.300, -4.800, 743, 100, 97, 23, 23719, -18927, 5306, 5415, 15, 14, 1529009833.475, 42, 0, 1024, 1024, 1024, 1024, 0, 6, 3952, 3939, 3927, 3944, 3957, 3932, 0, 1, 14900, -89.900, 0.000, -4.000, 0.000, 0.000, -3.100, 0.0, , , , , , 97, , , 21, 21, 21
36.7915925, -118.9555436, 28.000, 13:57:13.575, 13, 0.00, 0.48, 98, -2.300, -0.200, -4.800, 743, 100, 97, 23, 23719, -18927, 5306, 5415, 15, 14, 1529009833.575, 44, 0, 1024, 1024, 1024, 1024, 0, 6, 3952, 3939, 3927, 3944, 3957, 3932, 0, 1, 15000, -89.900, 0.000, -4.000, 0.000, 0.000, -3.100, 0.0, , , , , , 97, , , 21, 21, 21
36.7915926, -118.9555436, 28.300, 13:57:13.675, 13, 0.00, 0.49, 98, -2.300, 0.000, -5.000, 743, 100, 97, 23, 23528, -20957, 5306, 5415, 15, 14, 1529009833.675, 63, 0, 1024, 1024, 1024, 1024, 0, 6, 3914, 3918, 3908, 3921, 3940, 3919, 0, 1, 15100, -89.900, 0.000, -4.000, 0.000, 0.000, -3.100, 0.0, , , , , , 97, , , 21, 21, 21
36.7915927, -118.9555437, 28.600, 13:57:13.775, 13, 0.00, 0.50, 98, -2.700, 0.100, -5.100, 743, 100, 97, 23, 23528, -20957, 5306, 5415, 15, 14, 1529009833.775, 51, 0, 1024, 1024, 1024, 1024, 0, 6, 3914, 3918, 3908, 3921, 3940, 3919, 0, 1, 15200, -89.900, 0.000, -4.000, 0.000, 0.000, -3.000, 0.0, , , , , , 97, , , 21, 21, 21
36.7915928, -118.9555436, 28.900, 13:57:13.875, 13, 0.00, 0.51, 98, -2.400, 0.400, -5.200, 743, 100, 97, 23, 23528, -20957, 5306, 5415, 15, 14, 1529009833.875, 43, 0, 1024, 1024, 1024, 1024, 0, 6, 3914, 3918, 3908, 3921, 3940, 3919, 0, 1, 15300, -89.900, 0.000, -4.000, 0.000, 0.000, -3.100, 0.0, , , , , , 97, , , 21, 21, 21
36.7915928, -118.9555436, 28.900, 13:57:13.975, 13, 0.00, 0.51, 98, -2.400, 0.400, -5.200, 743, 100, 97, 23, 23528, -20957, 5306, 5415, 15, 14, 1529009833.975, 144, 0, 1024, 1024, 1024, 1024, 0, 6, 3914, 3918, 3908, 3921, 3940, 3919, 0, 1, 15400, -89.900, 0.000, -4.000, 0.000, 0.000, -3.100, 0.0, , , , , , 97, , , 21, 21, 21
36.7915929, -118.9555437, 29.600, 13:57:14.074, 13, 0.00, 0.52, 98, -2.000, 0.600, -5.300, 743, 100, 97, 23, 23528, -20957, 5306, 5415, 15, 14, 1529009834.074, 16, 0, 1024, 1024, 1024, 1024, 0, 6, 3914, 3918, 3908, 3921, 3940, 3919, 0, 1, 15499, -89.900, 0.000, -4.000, 0.000, 0.000, -3.000, 0.0, , , , , , 97, , , 21, 21, 21
36.7915929, -118.9555437, 29.900, 13:57:14.175, 13, 0.00, 0.52, 98, -2.400, 0.000, -5.100, 743, 100, 97, 23, 23528, -20957, 5306, 5415, 15, 14, 1529009834.175, 11, 0, 1024, 1024, 1024, 1024, 0, 6, 3914, 3918, 3908, 3921, 3940, 3919, 0, 1, 15600, -89.900, 0.000, -4.000, 0.000, 0.000, -2.900, 0.0, , , , , , 97, , , 21, 21, 21
36.7915930, -118.9555437, 30.200, 13:57:14.274, 13, 0.00, 0.53, 98, -2.600, -0.400, -5.000, 743, 100, 97, 23, 23528, -20957, 5306, 5415, 15, 14, 1529009834.274, 10, 0, 1024, 1024, 1024, 1024, 0, 6, 3914, 3918, 3908, 3921, 3940, 3919, 0, 1, 15699, -89.900, 0.000, -4.000, 0.000, 0.000, -2.900, 0.0, , , , , , 97, , , 21, 21, 21
36.7915930, -118.9555437, 30.500, 13:57:14.375, 13, 0.00, 0.54, 98, -2.700, -0.200, -5.000, 743, 100, 97, 23, 23528, -20957, 5306, 5415, 15, 14, 1529009834.375, 4, 0, 1024, 1024, 1024, 1024, 0, 6, 3914, 3918, 3908, 3921, 3940, 3919, 0, 1, 15800, -89.900, 0.000, -4.000, 0.000, 0.000, -2.900, 0.0, , , , , , 97, , , 21, 21, 21
36.7915930, -118.9555437, 30.500, 13:57:14.475, 13, 0.00, 0.54, 98, -2.700, -0.200, -5.000, 743, 100, 97, 23, 23528, -20957, 5306, 5415, 15, 14, 1529009834.475, 104, 0, 1024, 1024, 1024, 1024, 0, 6, 3914, 3918, 3908, 3921, 3940, 3919, 0, 1, 15900, -89.900, 0.000, -4.000, 0.000, 0.000, -2.900, 0.0, , , , , , 97, , , 21, 21, 21
36.7915930, -118.9555437, 30.500, 13:57:14.575, 13, 0.00, 0.54, 98, -2.700, -0.200, -5.000, 743, 100, 97, 23, 23528, -20957, 5306, 5415, 15, 14, 1529009834.575, 204, 0, 1024, 1024, 1024, 1024, 0, 6, 3914, 3918, 3908, 3921, 3940, 3919, 0, 1, 16000, -89.900, 0.000, -4.000, 0.000, 0.000, -2.900, 0.0, , , , , , 97, , , 21, 21, 21
36.7915933, -118.9555440, 31.400, 13:57:14.675, 13, 0.00, 0.57, 98, -1.600, 0.600, -5.000, 743, 100, 98, 23, 23534, -20132, 5306, 5415, 15, 14, 1529009834.675, 13, 0, 1024, 1024, 1024, 1024, 0, 6, 3914, 3918, 3908, 3921, 3940, 3919, 0, 1, 16100, -89.900, 0.000, -4.000, 0.000, 0.000, -2.800, 0.0, , , , , , 97, , , 21, 21, 21
36.7915933, -118.9555440, 31.400, 13:57:14.775, 13, 0.00, 0.57, 98, -1.600, 0.600, -5.000, 743, 100, 98, 23, 23534, -20132, 5306, 5415, 15, 14, 1529009834.775, 112, 0, 1024, 1024, 1024, 1024, 0, 6, 3914, 3918, 3908, 3921, 3940, 3919, 0, 1, 16200, -89.900, 0.000, -4.000, 0.000, 0.000, -2.800, 0.0, , , , , , 97, , , 21, 21, 21
36.7915933, -118.9555441, 31.700, 13:57:14.875, 13, 0.00, 0.58, 98, -1.800, 0.800, -5.100, 743, 100, 98, 23, 23534, -20132, 5306, 5415, 15, 14, 1529009834.875, 89, 0, 1024, 1024, 1024, 1024, 0, 6, 3914, 3918, 3908, 3921, 3940, 3919, 0, 1, 16300, -89.900, 0.000, -4.000, 0.000, 0.000, -2.900, 0.0, , , , , , 97, , , 21, 21, 21
36.7915934, -118.9555441, 32.000, 13:57:14.975, 13, 0.00, 0.59, 98, -1.500, 1.100, -5.200, 743, 100, 98, 23, 23534, -20132, 5306, 5415, 15, 14, 1529009834.975, 95, 0, 1024, 1024, 1024, 1024, 0, 6, 3914, 3918, 3908, 3921, 3940, 3919, 0, 1, 16400, -89.900, 0.000, -4.000, 0.000, 0.000, -2.800, 0.0, , , , , , 97, , , 21, 21, 21
36.7915935, -118.9555442, 32.300, 13:57:15.075, 13, 0.00, 0.60, 98, -1.600, 1.100, -5.200, 743, 100, 98, 23, 23534, -20132, 5306, 5415, 15, 14, 1529009835.075, 75, 0, 1024, 1024, 1024, 1024, 0, 6, 3914, 3918, 3908, 3921, 3940, 3919, 0, 1, 16500, -89.900, 0.000, -4.000, 0.000, 0.000, -2.900, 0.0, , , , , , 97, , , 21, 21, 21
36.7915935, -118.9555443, 32.600, 13:57:15.174, 13, 0.00, 0.61, 98, -1.900, 0.900, -5.200, 743, 100, 98, 23, 23534, -20132, 5306, 5415, 15, 14, 1529009835.174, 83, 0, 1024, 1024, 1024, 1024, 0, 6, 3921, 3916, 3898, 3931, 3940, 3928, 0, 1, 16599, -89.900, 0.000, -4.000, 0.000, 0.000, -3.000, 0.0, , , , , , 97, , , 21, 21, 21
36.7915936, -118.9555444, 33.200, 13:57:15.275, 13, 0.00, 0.62, 98, -2.100, 0.600, -5.200, 743, 100, 98, 23, 23534, -20132, 5306, 5415, 15, 14, 1529009835.275, 61, 0, 1024, 1024, 1024, 1024, 0, 6, 3921, 3916, 3898, 3931, 3940, 3928, 0, 1, 16700, -89.900, 0.000, -4.000, 0.000, 0.000, -3.000, 0.0, , , , , , 97, , , 21, 21, 21
36.7915936, -118.9555445, 33.500, 13:57:15.375, 13, 0.00, 0.63, 98, -2.400, 0.600, -5.000, 743, 100, 98, 23, 23534, -20132, 5306, 5415, 15, 14, 1529009835.375, 66, 0, 1024, 1024, 1024, 1024, 0, 6, 3921, 3916, 3898, 3931, 3940, 3928, 0, 1, 16800, -89.900, 0.000, -4.000, 0.000, 0.000, -2.900, 0.0, , , , , , 97, , , 21, 21, 21
36.7915937, -118.9555445, 33.800, 13:57:15.475, 13, 0.00, 0.63, 98, -2.500, 0.500, -4.800, 743, 100, 98, 23, 23534, -20132, 5306, 5415, 15, 14, 1529009835.475, 70, 0, 1024, 1024, 1024, 1024, 0, 6, 3921, 3916, 3898, 3931, 3940, 3928, 0, 1, 16900, -89.900, 0.000, -4.000, 0.000, 0.000, -2.800, 0.0, , , , , , 97, , , 21, 21, 21
36.7915937, -118.9555446, 34.100, 13:57:15.574, 13, 0.00, 0.64, 98, -2.200, 0.400, -4.700, 743, 100, 98, 23, 23534, -20132, 5306, 5415, 15, 14, 1529009835.574, 73, 0, 1024, 1024, 1024, 1024, 0, 6, 3921, 3916, 3898, 3931, 3940, 3928, 0, 1, 16999, -89.900, 0.000, -4.000, 0.000, 0.000, -2.800, 0.0, , , , , , 97, , , 21, 21, 21
36.7915937, -118.9555446, 34.400, 13:57:15.675, 13, 0.00, 0.64, 98, -1.900, 0.400, -4.700, 743, 100, 98, 23, 23534, -20132, 5306, 5415, 15, 14, 1529009835.675, 50, 0, 1024, 1024, 1024, 1024, 0, 6, 3921, 3916, 3898, 3931, 3940, 3928, 0, 1, 17100, -89.900, 0.000, -4.000, 0.000, 0.000, -2.800, 0.0, , , , , , 97, , , 21, 21, 21
36.7915937, -118.9555447, 34.700, 13:57:15.775, 13, 0.00, 0.64, 98, -1.700, 0.600, -4.800, 743, 100, 98, 23, 23534, -20132, 5306, 5415, 15, 14, 1529009835.775, 35, 0, 1024, 1024, 1024, 1024, 0, 6, 3921, 3916, 3898, 3931, 3940, 3928, 0, 1, 17200, -89.900, 0.000, -4.000, 0.000, 0.000, -2.800, 0.0, , , , , , 97, , , 21, 21, 21
36.7915937, -118.9555447, 34.900, 13:57:15.875, 13, 0.00, 0.65, 98, -1.800, 0.700, -4.900, 743, 100, 98, 23, 23534, -20132, 5306, 5415, 15, 14, 1529009835.875, 39, 0, 1024, 1024, 1024, 1024, 0, 6, 3921, 3916, 3898, 3931, 3940, 3928, 0, 1, 17300, -89.900, 0.000, -4.000, 0.000, 0.000, -2.800, 0.0, , , , , , 97, , , 21, 21, 21
36.7915937, -118.9555447, 35.300, 13:57:15.975, 13, 0.00, 0.65, 98, -1.800, 0.700, -5.100, 743, 100, 98, 23, 23534, -20132, 5306, 5415, 15, 14, 1529009835.975, 44, 0, 1024, 1024, 1024, 1024, 0, 6, 3921, 3916, 3898, 3931, 3940, 3928, 0, 1, 17400, -89.900, 0.000, -4.000, 0.000, 0.000, -2.900, 0.0, , , , , , 97, , , 21, 21, 21
36.7915937, -118.9555447, 35.600, 13:57:16.075, 13, 0.00, 0.65, 98, -2.000, 0.600, -5.200, 743, 100, 98, 23, 23350, -21565, 5306, 5415, 15, 14, 1529009836.075, 43, 0, 1024, 1024, 1024, 1024, 0, 6, 3880, 3896, 3864, 3908, 3906, 3881, 0, 1, 17500, -89.900, 0.000, -4.000, 0.000, 0.000, -3.000, 0.0, , , , , , 97, , , 21, 21, 21
36.7915937, -118.9555447, 35.900, 13:57:16.175, 13, 0.00, 0.65, 98, -2.300, 0.700, -5.300, 743, 100, 99, 23, 23350, -21565, 5306, 5415, 15, 14, 1529009836.175, 39, 0, 1024, 1024, 1024, 1024, 0, 6, 3880, 3896, 3864, 3908, 3906, 3881, 0, 1, 17600, -89.900, 0.000, -4.000, 0.000, 0.000, -3.100, 0.0, , , , , , 97, , , 21, 21, 21
36.7915937, -118.9555446, 36.200, 13:57:16.275, 13, 0.00, 0.64, 98, -2.500, 0.700, -5.200, 743, 100, 99, 23, 23350, -21565, 5306, 5415, 15, 14, 1529009836.275, 31, 0, 1024, 1024, 1024, 1024, 0, 6, 3880, 3896, 3864, 3908, 3906, 3881, 0, 1, 17700, -89.900, 0.000, -4.000, 0.000, 0.000, -3.000, 0.0, , , , , , 97, , , 21, 21, 21
36.7915937, -118.9555446, 36.500, 13:57:16.374, 13, 0.00, 0.64, 98, -2.600, 0.700, -5.100, 743, 100, 99, 23, 23350, -21565, 5306, 5415, 15, 14, 1529009836.374, 33, 0, 1024, 1024, 1024, 1024, 0, 6, 3880, 3896, 3864, 3908, 3906, 3881, 0, 1, 17799, -89.900, 0.000, -4.000, 0.000, 0.000, -2.900, 0.0, , , , , , 97, , , 21, 21, 21
36.7915937, -118.9555446, 36.800, 13:57:16.475, 13, 0.10, 0.64, 98, -2.700, 0.600, -5.100, 743, 100, 99, 23, 23350, -21565, 5306, 5415, 15, 14, 1529009836.475, 34, 0, 1024, 1024, 1024, 1024, 0, 6, 3880, 3896, 3864, 3908, 3906, 3881, 0, 1, 17900, -89.900, 0.000, -4.000, 0.000, 0.100, -2.900, 0.0, , , , , , 97, , , 21, 21, 21
36.7915937, -118.9555445, 37.100, 13:57:16.575, 13, 0.10, 0.64, 98, -2.800, 0.700, -5.100, 743, 100, 99, 23, 23350, -21565, 5306, 5415, 15, 14, 1529009836.575, 13, 0, 1024, 1024, 1024, 1024, 0, 6, 3880, 3896, 3864, 3908, 3906, 3881, 0, 1, 18000, -89.900, 0.000, -4.000, 0.000, 0.100, -2.900, 0.0, , , , , , 97, , , 21, 21, 21
36.7915937, -118.9555445, 37.400, 13:57:16.675, 13, 0.10, 0.63, 98, -3.100, 0.500, -5.000, 743, 100, 99, 23, 23350, -21565, 5306, 5415, 15, 14, 1529009836.675, 15, 0, 1024, 1024, 1024, 1024, 0, 6, 3880, 3896, 3864, 3908, 3906, 3881, 0, 1, 18100, -89.900, 0.000, -4.000, 0.000, 0.100, -2.900, 0.0, , , , , , 97, , , 21, 21, 21
36.7915937, -118.9555444, 37.700, 13:57:16.774, 13, 0.10, 0.63, 98, -3.400, 0.400, -5.000, 743, 100, 99, 23, 23350, -21565, 5306, 5415, 15, 14, 1529009836.774, 6, 0, 1024, 1024, 1024, 1024, 0, 6, 3880, 3896, 3864, 3908, 3906, 3881, 0, 1, 18199, -89.900, 0.000, -4.000, 0.000, 0.100, -3.000, 0.0, , , , , , 97, , , 21, 21, 21
36.7915937, -118.9555443, 38.000, 13:57:16.874, 13, 0.10, 0.63, 98, -3.600, 0.600, -5.100, 743, 100, 99, 23, 23350, -21565, 5306, 5415, 15, 14, 1529009836.874, 11, 0, 1024, 1024, 1024, 1024, 0, 6, 3880, 3896, 3864, 3908, 3906, 3881, 0, 1, 18299, -89.900, 0.000, -4.000, 0.000, 0.100, -2.900, 0.0, , , , , , 97, , , 21, 21, 21
36.7915937, -118.9555443, 38.300, 13:57:16.975, 13, 0.10, 0.62, 98, -3.600, 0.600, -5.200, 743, 100, 99, 23, 23350, -21565, 5306, 5415, 15, 14, 1529009836.975, 13, 0, 1024, 1024, 1024, 1024, 0, 6, 3880, 3896, 3864, 3908, 3906, 3881, 0, 1, 18400, -89.900, 0.000, -4.000, 0.000, 0.100, -2.800, 0.0, , , , , , 97, , , 21, 21, 21
36.7915937, -118.9555442, 38.600, 13:57:17.075, 13, 0.10, 0.62, 98, -3.600, 0.600, -5.300, 743, 100, 99, 24, 23302, -21565, 5252, 5415, 15, 14, 1529009837.075, 6, 0, 1024, 1024, 1024, 1024, 0, 6, 3871, 3893, 3854, 3890, 3888, 3879, 0, 1, 18500, -89.900, 0.000, -4.000, 0.000, 0.100, -2.800, 0.0, , , , , , 97, , , 21, 21, 21
36.7915937, -118.9555442, 38.600, 13:57:17.175, 13, 0.10, 0.62, 98, -3.600, 0.600, -5.300, 743, 100, 99, 24, 23302, -21565, 5252, 5415, 15, 14, 1529009837.175, 106, 0, 1024, 1024, 1024, 1024, 0, 6, 3871, 3893, 3854, 3890, 3888, 3879, 0, 1, 18600, -89.900, 0.000, -4.000, 0.000, 0.100, -2.800, 0.0, , , , , , 97, , , 21, 21, 21
36.7915937, -118.9555440, 38.900, 13:57:17.275, 13, 0.10, 0.61, 98, -3.800, 0.900, -5.400, 743, 100, 100, 24, 23302, -21565, 5252, 5415, 15, 14, 1529009837.275, 83, 0, 1024, 1024, 1024, 1024, 0, 6, 3871, 3893, 3854, 3890, 3888, 3879, 0, 1, 18700, -89.900, 0.000, -4.000, 0.000, 0.100, -2.800, 0.0, , , , , , 97, , , 21, 21, 21
36.7915937, -118.9555439, 39.200, 13:57:17.375, 13, 0.10, 0.61, 98, -3.900, 1.000, -5.500, 743, 100, 100, 24, 23302, -21565, 5252, 5415, 15, 14, 1529009837.375, 75, 0, 1024, 1024, 1024, 1024, 0, 6, 3871, 3893, 3854, 3890, 3888, 3879, 0, 1, 18800, -89.900, 0.000, -4.000, 0.000, 0.100, -2.800, 0.0, , , , , , 97, , , 21, 21, 21
36.7915937, -118.9555438, 39.800, 13:57:17.474, 13, 0.10, 0.60, 98, -3.900, 1.100, -5.500, 743, 100, 100, 24, 23302, -21565, 5252, 5415, 15, 14, 1529009837.474, 87, 0, 1024, 1024, 1024, 1024, 0, 6, 3871, 3893, 3854, 3890, 3888, 3879, 0, 1, 18899, -89.900, 0.000, -4.000, 0.000, 0.100, -2.900, 0.0, , , , , , 97, , , 21, 21, 21
36.7915937, -118.9555437, 40.000, 13:57:17.575, 13, 0.10, 0.60, 98, -4.100, 1.200, -5.400, 743, 100, 100, 24, 23302, -21565, 5252, 5415, 15, 14, 1529009837.575, 66, 0, 1024, 1024, 1024, 1024, 0, 6, 3871, 3893, 3854, 3890, 3888, 3879, 0, 1, 19000, -89.900, 0.000, -4.000, 0.000, 0.100, -3.000, 0.0, , , , , , 97, , , 21, 21, 21
36.7915937, -118.9555437, 40.300, 13:57:17.675, 13, 0.00, 0.60, 97, -4.200, 1.400, -5.100, 743, 100, 100, 24, 23302, -21565, 5252, 5415, 15, 14, 1529009837.675, 57, 0, 1024, 1024, 1024, 1024, 0, 6, 3871, 3893, 3854, 3890, 3888, 3879, 0, 1, 19100, -89.900, 0.000, -4.000, 0.000, 0.000, -3.000, 0.0, , , , , , 97, , , 21, 21, 21
36.7915937, -118.9555437, 40.600, 13:57:17.774, 13, 0.00, 0.60, 97, -4.400, 1.200, -4.900, 743, 100, 98, 24, 23302, -21565, 5252, 5415, 15, 14, 1529009837.774, 58, 0, 1024, 1024, 1024, 1024, 0, 6, 3871, 3893, 3854, 3890, 3888, 3879, 0, 1, 19199, -89.900, 0.000, -4.000, 0.000, 0.000, -2.900, 0.0, , , , , , 97, , , 21, 21, 21
36.7915937, -118.9555437, 40.900, 13:57:17.875, 13, 0.00, 0.59, 97, -3.700, 0.700, -4.700, 743, 100, 98, 24, 23302, -21565, 5252, 5415, 15, 14, 1529009837.875, 65, 0, 1024, 1024, 1024, 1024, 0, 6, 3871, 3893, 3854, 3890, 3888, 3879, 0, 1, 19300, -89.900, 0.000, -4.000, 0.000, 0.000, -2.800, 0.0, , , , , , 97, , , 21, 21, 21
36.7915936, -118.9555437, 41.200, 13:57:17.975, 13, 0.00, 0.59, 97, -2.900, 0.500, -4.600, 743, 100, 98, 24, 23302, -21565, 5252, 5415, 15, 14, 1529009837.975, 59, 0, 1024, 1024, 1024, 1024, 0, 6, 3871, 3893, 3854, 3890, 3888, 3879, 0, 1, 19400, -90.000, 0.000, -4.000, 0.000, 0.000, -2.900, 0.0, , , , , , 97, , , 21, 21, 21
36.7915936, -118.9555437, 41.200, 13:57:18.075, 13, 0.00, 0.59, 97, -2.900, 0.500, -4.600, 743, 100, 98, 24, 23302, -21565, 5252, 5415, 15, 14, 1529009838.075, 159, 0, 1024, 1024, 1024, 1024, 0, 6, 3871, 3893, 3854, 3890, 3888, 3879, 0, 1, 19500, -89.900, 0.000, -4.000, 0.000, 0.000, -2.900, 0.0, , , , , , 97, , , 21, 21, 21
36.7915936, -118.9555438, 41.800, 13:57:18.174, 13, 0.00, 0.59, 97, -2.400, 0.600, -4.800, 743, 100, 97, 24, 23274, -22511, 5252, 5415, 15, 14, 1529009838.174, 43, 0, 1024, 1024, 1024, 1024, 0, 6, 3849, 3862, 3841, 3893, 3898, 3862, 0, 1, 19599, -89.900, 0.000, -4.000, 0.000, 0.000, -2.900, 0.0, , , , , , 97, , , 21, 21, 21
36.7915935, -118.9555437, 42.100, 13:57:18.275, 13, 0.00, 0.59, 97, -2.300, 0.600, -4.900, 743, 100, 97, 24, 23274, -22511, 5252, 5415, 15, 14, 1529009838.275, 39, 0, 1024, 1024, 1024, 1024, 0, 6, 3849, 3862, 3841, 3893, 3898, 3862, 0, 1, 19700, -89.900, 0.000, -4.000, 0.000, 0.000, -2.900, 0.0, , , , , , 97, , , 21, 21, 21
36.7915935, -118.9555437, 42.400, 13:57:18.374, 13, 0.00, 0.58, 97, -2.500, 0.600, -5.100, 743, 100, 97, 24, 23274, -22511, 5252, 5415, 15, 14, 1529009838.374, 32, 0, 1024, 1024, 1024, 1024, 0, 6, 3849, 3862, 3841, 3893, 3898, 3862, 0, 1, 19799, -89.900, 0.000, -4.000, 0.000, 0.000, -3.000, 0.0, , , , , , 97, , , 21, 21, 21
36.7915935, -118.9555437, 42.600, 13:57:18.475, 13, 0.00, 0.58, 97, -2.900, 0.800, -5.200, 743, 100, 97, 24, 23274, -22511, 5252, 5415, 15, 14, 1529009838.475, 37, 0, 1024, 1024, 1024, 1024, 0, 6, 3849, 3862, 3841, 3893, 3898, 3862, 0, 1, 19900, -89.900, 0.000, -4.000, 0.000, 0.000, -2.900, 0.0, , , , , , 97, , , 21, 21, 21
36.7915935, -118.9555436, 42.900, 13:57:18.575, 13, 0.00, 0.58, 97, -3.000, 0.900, -5.300, 743, 100, 97, 24, 23274, -22511, 5252, 5415, 15, 14, 1529009838.575, 35, 0, 1024, 1024, 1024, 1024, 0, 6, 3849, 3862, 3841, 3893, 3898, 3862, 0, 1, 20000, -89.900, 0.000, -4.000, 0.000, 0.000, -2.900, 0.0, , , , , , 97, , , 21, 21, 21
36.7915935, -118.9555436, 43.200, 13:57:18.675, 13, 0.00, 0.58, 97, -3.200, 1.000, -5.300, 743, 100, 98, 24, 23274, -22511, 5252, 5415, 15, 14, 1529009838.675, 29, 0, 1024, 1024, 1024, 1024, 0, 6, 3849, 3862, 3841, 3893, 3898, 3862, 0, 1, 20100, -89.900, 0.000, -4.000, 0.000, 0.000, -2.900, 0.0, , , , , , 97, , , 21, 21, 21
36.7915935, -118.9555435, 43.500, 13:57:18.775, 13, 0.00, 0.57, 97, -3.300, 1.000, -5.300, 743, 100, 98, 24, 23274, -22511, 5252, 5415, 15, 14, 1529009838.775, 22, 0, 1024, 1024, 1024, 1024, 0, 6, 3849, 3862, 3841, 3893, 3898, 3862, 0, 1, 20199, -89.900, 0.000, -4.000, 0.000, 0.000, -3.100, 0.0, , , , , , 97, , , 21, 21, 21
36.7915935, -118.9555435, 43.500, 13:57:18.875, 13, 0.00, 0.57, 97, -3.300, 1.000, -5.300, 743, 100, 98, 24, 23274, -22511, 5252, 5415, 15, 14, 1529009838.875, 122, 0, 1024, 1024, 1024, 1024, 0, 6, 3849, 3862, 3841, 3893, 3898, 3862, 0, 1, 20300, -89.900, 0.000, -4.000, 0.000, 0.000, -3.100, 0.0, , , , , , 97, , , 21, 21, 21
36.7915935, -118.9555434, 44.100, 13:57:18.975, 13, 0.00, 0.57, 97, -3.100, 0.900, -5.000, 743, 100, 98, 24, 23274, -22511, 5252, 5415, 15, 14, 1529009838.975, 16, 0, 1024, 1024, 1024, 1024, 0, 6, 3849, 3862, 3841, 3893, 3898, 3862, 0, 1, 20400, -89.900, 0.000, -4.000, 0.000, 0.000, -2.900, 0.0, , , , , , 97, , , 21, 21, 21
36.7915935, -118.9555434, 44.400, 13:57:19.075, 13, 0.00, 0.57, 97, -2.800, 0.600, -5.000, 743, 100, 98, 24, 23104, -23601, 5252, 5415, 15, 14, 1529009839.075, 1, 0, 1024, 1024, 1024, 1024, 0, 6, 3849, 3862, 3841, 3893, 3898, 3862, 0, 1, 20499, -89.900, 0.000, -4.000, 0.000, 0.000, -3.000, 0.0, , , , , , 97, , , 21, 21, 21
36.7915935, -118.9555434, 44.700, 13:57:19.174, 13, 0.00, 0.57, 97, -3.000, 0.900, -5.000, 743, 100, 99, 24, 23104, -23601, 5252, 5415, 15, 14, 1529009839.174, 14, 0, 1024, 1024, 1024, 1024, 0, 6, 3829, 3836, 3823, 3854, 3859, 3862, 0, 1, 20599, -89.900, 0.000, -4.000, 0.000, 0.000, -3.100, 0.0, , , , , , 97, , , 21, 21, 21
36.7915935, -118.9555434, 44.700, 13:57:19.274, 13, 0.00, 0.57, 97, -3.000, 0.900, -5.000, 743, 100, 99, 24, 23104, -23601, 5252, 5415, 15, 14, 1529009839.274, 115, 0, 1024, 1024, 1024, 1024, 0, 6, 3829, 3836, 3823, 3854, 3859, 3862, 0, 1, 20699, -89.900, 0.000, -4.000, 0.000, 0.000, -3.100, 0.0, , , , , , 97, , , 21, 21, 21
36.7915935, -118.9555434, 44.700, 13:57:19.375, 13, 0.00, 0.57, 97, -3.000, 0.900, -5.000, 743, 100, 99, 24, 23104, -23601, 5252, 5415, 15, 14, 1529009839.375, 215, 0, 1024, 1024, 1024, 1024, 0, 6, 3829, 3836, 3823, 3854, 3859, 3862, 0, 1, 20799, -89.900, 0.000, -4.000, 0.000, 0.000, -3.100, 0.0, , , , , , 97, , , 21, 21, 21
36.7915935, -118.9555432, 45.400, 13:57:19.474, 13, 0.00, 0.56, 97, -4.100, 1.200, -4.900, 743, 100, 99, 24, 23104, -23601, 5252, 5415, 15, 14, 1529009839.474, 98, 0, 1024, 1024, 1024, 1024, 0, 6, 3829, 3836, 3823, 3854, 3859, 3862, 0, 1, 20899, -89.900, 0.000, -4.000, 0.000, 0.000, -3.200, 0.0, , , , , , 97, , , 21, 21, 21
36.7915936, -118.9555431, 45.700, 13:57:19.575, 13, 0.00, 0.56, 97, -4.200, 1.200, -4.900, 743, 100, 99, 24, 23104, -23601, 5252, 5415, 15, 14, 1529009839.575, 67, 0, 1024, 1024, 1024, 1024, 0, 6, 3829, 3836, 3823, 3854, 3859, 3862, 0, 1, 20999, -89.900, 0.000, -4.000, 0.000, 0.000, -3.100, 0.0, , , , , , 97, , , 21, 21, 21
