latitude,longitude,altitude(feet),ascent(feet),speed(mph),distance(feet),time(millisecond),datetime(utc),satellites,gpslevel,voltage(v),max_altitude(feet),max_ascent(feet),max_speed(mph),max_distance(feet), xSpeed(mph), ySpeed(mph), zSpeed(mph), compass_heading(degrees), pitch(degrees), roll(degrees),isPhoto,isVideo,rc_elevator,rc_aileron,rc_throttle,rc_rudder,gimbal_heading(degrees),gimbal_pitch(degrees),battery_percent,voltageCell1,voltageCell2,voltageCell3,voltageCell4,voltageCell5,voltageCell6,current(A),battery_temperature(f),flycStateRaw,flycState,message
36.7916122,-118.9555643,6417.1670878953,-0.656168,0.447388,0,3030,2018-06-14 21:13:46,12,0,25.834,6417.1670878953,0,0.447388,0,0,0,0,4.5, -2.3, 1.7,1,0,1024,1024,1024,1024,3.1,-89.9,100,4.297,4.306,4.307,4.31,4.303,4.303,1.29,73.4,11,AutoTakeoff,DJI_0088.jpg Starting Mission from Lat/Long: 36.79161/-118.95557 Camera: Zenmuse X3 - Overlap: 90/90 - Active Connection: No
36.7916125,-118.9555642,6417.1670878953,-0.656168,0.671082,0.1132874052,3100,2018-06-14 21:13:46,12,0,25.834,6417.1670878953,0,0.671082,0.1132874052,0,0,0,4.7, -1.1, 1.2,0,0,1024,1024,1024,1024,3.1,-89.9,100,4.297,4.306,4.307,4.31,4.303,4.303,1.29,73.4,11,AutoTakeoff,
36.7916128,-118.9555641,6417.4951718953,-0.328084,0.671082,0.2265748104,3200,2018-06-14 21:13:46,12,0,25.834,6417.4951718953,0,0.671082,0.2265748104,0,0,0,4.7, 0.5, 0.4,0,0,1024,1024,1024,1024,3.2,-89.9,100,4.297,4.306,4.307,4.31,4.303,4.303,1.29,73.4,11,AutoTakeoff,
36.7916132,-118.955564,6417.4951718953,-0.328084,0.671082,0.3752296708,3300,2018-06-14 21:13:47,12,0,25.834,6417.4951718953,0,0.671082,0.3752296708,0,0,-0.223694,4.6, 1.6, -0.1,0,0,1024,1024,1024,1024,3.2,-89.9,100,4.297,4.306,4.307,4.31,4.303,4.303,1.29,73.4,11,AutoTakeoff,
36.7916139,-118.9555639,6417.8232558953,0,0.671082,0.63115815668,3500,2018-06-14 21:13:47,12,0,25.834,6417.8232558953,0,0.671082,0.63115815668,0,0,0,4.5, 4, -0.1,0,0,1024,1024,1024,1024,3.2,-89.9,100,4.297,4.306,4.307,4.31,4.303,4.303,1.29,73.4,11,AutoTakeoff,
36.7916142,-118.9555638,6417.8232558953,0,0.671082,0.74417981384,3600,2018-06-14 21:13:47,12,0,25.834,6417.8232558953,0,0.671082,0.74417981384,0,0,0,4.4, 4.5, -0.1,0,0,1024,1024,1024,1024,3.2,-89.9,100,4.297,4.306,4.307,4.31,4.303,4.303,1.29,73.4,11,AutoTakeoff,
36.7916144,-118.9555638,6417.8232558953,0,0.447388,0.81585632532,3700,2018-06-14 21:13:47,12,0,25.834,6417.8232558953,0,0.671082,0.81585632532,0,0,0,4.3, 4.1, -0.2,0,0,1024,1024,1024,1024,3.2,-89.9,100,4.297,4.306,4.307,4.31,4.303,4.303,1.29,73.4,11,AutoTakeoff,
36.7916147,-118.9555637,6418.1513398953,0.328084,0.223694,0.92881892736,3800,2018-06-14 21:13:47,13,0,25.834,6418.1513398953,0.328084,0.671082,0.92881892736,0,0,0,4.3, 3.3, 0,0,0,1024,1024,1024,1024,3.3,-89.9,100,4.297,4.306,4.307,4.31,4.303,4.303,1.29,73.4,11,AutoTakeoff,
36.7916148,-118.9555637,6418.1513398953,0.328084,0.223694,0.96467194688,3900,2018-06-14 21:13:47,13,0,25.834,6418.1513398953,0.328084,0.671082,0.96467194688,0,0,0,4.2, 2.6, 0.2,0,0,1024,1024,1024,1024,3.3,-90,100,4.297,4.306,4.307,4.31,4.303,4.303,1.29,73.4,11,AutoTakeoff,
36.791615,-118.9555637,6418.1513398953,0.328084,0.223694,1.03651250036,4000,2018-06-14 21:13:47,13,0,25.591,6418.1513398953,0.328084,0.671082,1.03651250036,0,0,0,4.1, 2.1, 0.2,0,0,1024,1024,1024,1024,3.3,-90,100,4.255,4.287,4.296,4.276,4.282,4.257,3.865,73.4,11,AutoTakeoff,
36.7916151,-118.9555637,6418.4794238953,0.656168,0.223694,1.07248691096,4100,2018-06-14 21:13:47,13,0,25.591,6418.4794238953,0.656168,0.671082,1.07248691096,0,0,0,4.2, 1.5, 0.1,0,0,1024,1024,1024,1024,3.3,-90,100,4.255,4.287,4.296,4.276,4.282,4.257,3.865,73.4,11,AutoTakeoff,
36.7916152,-118.9555637,6418.4794238953,0.656168,0.223694,1.1084974108,4200,2018-06-14 21:13:47,12,0,25.591,6418.4794238953,0.656168,0.671082,1.1084974108,0,0,-0.223694,4.2, 1, 0.1,0,0,1024,1024,1024,1024,3.3,-90,100,4.255,4.287,4.296,4.276,4.282,4.257,3.865,73.4,11,AutoTakeoff,
36.7916152,-118.9555637,6418.8075078953,0.984252,0,1.1084974108,4300,2018-06-14 21:13:48,12,0,25.591,6418.8075078953,0.984252,0.671082,1.1084974108,0,0,-0.223694,4.3, 0.8, 0.2,0,0,1024,1024,1024,1024,3.3,-90,100,4.255,4.287,4.296,4.276,4.282,4.257,3.865,73.4,11,AutoTakeoff,
36.7916154,-118.9555638,6419.1355918953,1.312336,0.223694,1.1766240534,4400,2018-06-14 21:13:48,13,0,25.591,6419.1355918953,1.312336,0.671082,1.1766240534,0,0,-0.223694,4.3, 0.9, 0.5,0,0,1024,1024,1024,1024,3.3,-90,100,4.255,4.287,4.296,4.276,4.282,4.257,3.865,73.4,11,AutoTakeoff,
36.7916156,-118.9555638,6419.1355918953,1.312336,0.223694,1.24906171976,4500,2018-06-14 21:13:48,13,0,25.591,6419.1355918953,1.312336,0.671082,1.24906171976,0,0,-0.223694,4.4, 1.2, 0.6,0,0,1024,1024,1024,1024,3.4,-90,100,4.255,4.287,4.296,4.276,4.282,4.257,3.865,73.4,11,AutoTakeoff,
36.7916157,-118.9555639,6419.4636758953,1.64042,0.223694,1.28230975232,4600,2018-06-14 21:13:48,13,0,25.591,6419.4636758953,1.64042,0.671082,1.28230975232,0,0,-0.223694,4.5, 1.5, 0.7,0,0,1024,1024,1024,1024,3.4,-90,100,4.255,4.287,4.296,4.276,4.282,4.257,3.865,73.4,11,AutoTakeoff,
36.7916158,-118.955564,6419.4636758953,1.64042,0.223694,1.31637799488,4700,2018-06-14 21:13:48,13,0,25.591,6419.4636758953,1.64042,0.671082,1.31637799488,0,0,-0.223694,4.6, 1.6, 0.7,0,0,1024,1024,1024,1024,3.4,-89.9,100,4.255,4.287,4.296,4.276,4.282,4.257,3.865,73.4,11,AutoTakeoff,
36.791616,-118.955564,6419.7917598953,1.968504,0.223694,1.38919623868,4800,2018-06-14 21:13:48,14,0,25.591,6419.7917598953,1.968504,0.671082,1.38919623868,0,0,0,4.7, 1.8, 0.7,0,0,1024,1024,1024,1024,3.4,-90,100,4.255,4.287,4.296,4.276,4.282,4.257,3.865,73.4,11,AutoTakeoff,
36.7916161,-118.955564,6419.7917598953,1.968504,0,1.42561028184,4900,2018-06-14 21:13:48,14,0,25.591,6419.7917598953,1.968504,0.671082,1.42561028184,0,0,0,4.7, 2, 0.6,0,0,1024,1024,1024,1024,3.4,-90,100,4.255,4.287,4.296,4.276,4.282,4.257,3.865,73.4,11,AutoTakeoff,
36.7916161,-118.9555641,6420.1198438953,2.296588,0,1.42411093796,5000,2018-06-14 21:13:48,14,0,24.331,6420.1198438953,2.296588,0.671082,1.42561028184,0,0,0,4.8, 2.2, 0.7,0,0,1024,1024,1024,1024,3.4,-89.9,100,4.028,4.058,4.05,4.079,4.044,4.056,11.129,73.4,11,AutoTakeoff,
36.7916162,-118.9555641,6420.4479278953,2.624672,0,1.46056763204,5200,2018-06-14 21:13:48,15,0,24.331,6420.4479278953,2.624672,0.671082,1.46056763204,0,0,-0.223694,4.9, 2.1, 0.6,0,0,1024,1024,1024,1024,3.4,-90,100,4.028,4.058,4.05,4.079,4.044,4.056,11.129,73.4,11,AutoTakeoff,
36.7916161,-118.9555641,6420.7760118953,2.952756,0,1.42411093796,5400,2018-06-14 21:13:49,13,0,24.331,6420.7760118953,2.952756,0.671082,1.46056763204,0,0,-0.223694,4.8, 1.8, 0.3,0,0,1024,1024,1024,1024,3.4,-90,100,4.028,4.058,4.05,4.079,4.044,4.056,11.129,73.4,14,Waypoint,
36.7916161,-118.9555641,6420.7760118953,2.952756,0,1.42411093796,5600,2018-06-14 21:13:49,13,0,24.331,6420.7760118953,2.952756,0.671082,1.46056763204,0,0,0,4.8, 1.6, 0.3,0,0,1024,1024,1024,1024,3.4,-90,100,4.028,4.058,4.05,4.079,4.044,4.056,11.129,73.4,14,Waypoint,
36.7916161,-118.9555642,6421.1040958953,3.28084,0,1.4232119878,5700,2018-06-14 21:13:49,13,0,24.331,6421.1040958953,3.28084,0.671082,1.46056763204,0,0,0,4.9, 0.7, 0.1,0,0,1024,1024,1024,1024,3.5,-90,100,4.028,4.058,4.05,4.079,4.044,4.056,11.129,73.4,14,Waypoint,
36.791616,-118.9555642,6421.1040958953,3.28084,0,1.38673560868,5800,2018-06-14 21:13:49,13,0,24.331,6421.1040958953,3.28084,0.671082,1.46056763204,0,0,0,5.1, 0.3, 0.1,0,0,1024,1024,1024,1024,3.5,-90,100,4.028,4.058,4.05,4.079,4.044,4.056,11.129,73.4,14,Waypoint,
36.791616,-118.9555643,6421.4321798953,3.608924,0,1.38642720972,5900,2018-06-14 21:13:49,13,0,24.331,6421.4321798953,3.608924,0.671082,1.46056763204,0,0,0,5.4, 0.5, 0.3,0,0,1024,1024,1024,1024,3.5,-90,100,4.028,4.058,4.05,4.079,4.044,4.056,11.129,73.4,14,Waypoint,
36.791616,-118.9555644,6421.4321798953,3.608924,0,1.38673560868,6000,2018-06-14 21:13:49,13,0,24.331,6421.4321798953,3.608924,0.671082,1.46056763204,0,0,-0.223694,5.5, 0.7, 0.7,0,0,1024,1024,1024,1024,3.6,-90,100,4.028,4.058,4.05,4.079,4.044,4.056,11.129,73.4,14,Waypoint,
36.7916161,-118.9555644,6421.7602638953,3.937008,0,1.4232119878,6100,2018-06-14 21:13:49,13,0,24.331,6421.7602638953,3.937008,0.671082,1.46056763204,0,0,-0.223694,5.4, 0.9, 0.9,0,0,1024,1024,1024,1024,3.6,-90,100,4.028,4.058,4.05,4.079,4.044,4.056,11.129,73.4,14,Waypoint,
36.7916161,-118.9555645,6421.7602638953,3.937008,0,1.42411093796,6200,2018-06-14 21:13:49,13,0,24.331,6421.7602638953,3.937008,0.671082,1.46056763204,0,0,-0.223694,5.4, 1, 1.1,0,0,1024,1024,1024,1024,3.6,-90,100,4.028,4.058,4.05,4.079,4.044,4.056,11.129,73.4,14,Waypoint,
36.7916161,-118.9555646,6422.0883478953,4.265092,0,1.42561028184,6300,2018-06-14 21:13:50,13,0,24.331,6422.0883478953,4.265092,0.671082,1.46056763204,0,0,-0.223694,5.4, 0.9, 1.5,0,0,1024,1024,1024,1024,3.6,-90,100,4.028,4.058,4.05,4.079,4.044,4.056,11.129,73.4,14,Waypoint,
36.7916161,-118.9555647,6422.4164318953,4.593176,0,1.42770345776,6400,2018-06-14 21:13:50,13,0,24.331,6422.4164318953,4.593176,0.671082,1.46056763204,0,0,-0.223694,5.3, 0.9, 1.5,0,0,1024,1024,1024,1024,3.6,-90,100,4.028,4.058,4.05,4.079,4.044,4.056,11.129,73.4,14,Waypoint,
36.7916161,-118.9555648,6423.0725998953,5.249344,0,1.43039374656,6500,2018-06-14 21:13:50,13,0,24.331,6423.0725998953,5.249344,0.671082,1.46056763204,0,0,-0.447388,5.2, 1.1, 1.2,0,0,1024,1024,1024,1024,3.7,-89.9,100,4.028,4.058,4.05,4.079,4.044,4.056,11.129,73.4,14,Waypoint,
36.7916161,-118.955565,6423.4006838953,5.577428,0,1.43753613524,6600,2018-06-14 21:13:50,13,0,24.331,6423.4006838953,5.577428,0.671082,1.46056763204,0,0,-0.447388,5, 1.2, 0.9,0,0,1024,1024,1024,1024,3.7,-90,100,4.028,4.058,4.05,4.079,4.044,4.056,11.129,73.4,14,Waypoint,
36.7916161,-118.9555651,6424.0568518953,6.233596,0,1.44198495428,6700,2018-06-14 21:13:50,13,0,24.331,6424.0568518953,6.233596,0.671082,1.46056763204,0,0,-0.447388,4.8, 1, 0.9,0,0,1024,1024,1024,1024,3.7,-90,100,4.028,4.058,4.05,4.079,4.044,4.056,11.129,73.4,14,Waypoint,
36.7916161,-118.9555653,6424.7130198953,6.889764,0,1.45260175252,6800,2018-06-14 21:13:50,14,0,24.331,6424.7130198953,6.889764,0.671082,1.46056763204,0,0,-0.447388,4.7, 0.7, 1.1,0,0,1024,1024,1024,1024,3.8,-90,100,4.028,4.058,4.05,4.079,4.044,4.056,11.129,73.4,14,Waypoint,
36.791616,-118.9555656,6425.3691878953,7.545932,0,1.4375164502,6900,2018-06-14 21:13:50,14,0,24.331,6425.3691878953,7.545932,0.671082,1.46056763204,0,0,-0.671082,4.6, 0.7, 1.4,0,0,1024,1024,1024,1024,3.8,-89.9,100,4.028,4.058,4.05,4.079,4.044,4.056,11.129,73.4,14,Waypoint,
36.791616,-118.9555658,6426.3534398953,8.530184,0,1.45404860296,7000,2018-06-14 21:13:50,14,0,24.152,6426.3534398953,8.530184,0.671082,1.46056763204,0,0,-0.671082,4.6, 0.8, 1.9,0,0,1024,1024,1024,1024,3.8,-90,100,3.978,4.062,4.02,4.042,4.012,4.032,15.927,73.4,14,Waypoint,
36.7916159,-118.9555659,6427.3376918953,9.514436,0,1.42859584624,7100,2018-06-14 21:13:50,14,0,24.152,6427.3376918953,9.514436,0.671082,1.46056763204,0,0,-0.671082,4.7, 0.7, 2,0,0,1024,1024,1024,1024,3.8,-90,100,3.978,4.062,4.02,4.042,4.012,4.032,15.927,73.4,14,Waypoint,
36.7916158,-118.955566,6428.3219438953,10.498688,0,1.40423889008,7200,2018-06-14 21:13:50,14,0,24.152,6428.3219438953,10.498688,0.671082,1.46056763204,0,0,-0.671082,4.8, 0.6, 1.9,0,0,1024,1024,1024,1024,3.8,-90,100,3.978,4.062,4.02,4.042,4.012,4.032,15.927,73.4,14,Waypoint,
36.7916157,-118.9555661,6429.3061958953,11.48294,0,1.38103350876,7300,2018-06-14 21:13:51,14,0,24.152,6429.3061958953,11.48294,0.671082,1.46056763204,0,0,-0.671082,4.8, 0.5, 1.7,0,0,1024,1024,1024,1024,3.9,-90,100,3.978,4.062,4.02,4.042,4.012,4.032,15.927,73.4,14,Waypoint,
36.7916156,-118.9555661,6430.2904478953,12.467192,0,1.34736880952,7400,2018-06-14 21:13:51,14,0,24.152,6430.2904478953,12.467192,0.671082,1.46056763204,0,0,-0.671082,4.9, 0.6, 1.6,0,0,1024,1024,1024,1024,3.9,-90,100,3.978,4.062,4.02,4.042,4.012,4.032,15.927,73.4,14,Waypoint,
36.7916155,-118.9555661,6431.2746998953,13.451444,0,1.31385502892,7500,2018-06-14 21:13:51,14,0,24.152,6431.2746998953,13.451444,0.671082,1.46056763204,0,0,-0.671082,5.1, 0.4, 1.5,0,0,1024,1024,1024,1024,3.9,-90,100,3.978,4.062,4.02,4.042,4.012,4.032,15.927,73.4,14,Waypoint,
36.7916153,-118.9555661,6432.5870358953,14.76378,0,1.24732943624,7600,2018-06-14 21:13:51,14,0,24.152,6432.5870358953,14.76378,0.671082,1.46056763204,0,0,-0.671082,5.2, 0.1, 1,0,0,1024,1024,1024,1024,3.9,-90,100,3.978,4.062,4.02,4.042,4.012,4.032,15.927,73.4,14,Waypoint,
36.7916151,-118.9555661,6433.5712878953,15.748032,0,1.1815617176,7800,2018-06-14 21:13:51,14,0,24.152,6433.5712878953,15.748032,0.671082,1.46056763204,0,0,-0.671082,5.3, 0, 0.8,0,0,1024,1024,1024,1024,3.9,-90,100,3.978,4.062,4.02,4.042,4.012,4.032,15.927,73.4,14,Waypoint,
36.791615,-118.955566,6434.5555398953,16.732284,0,1.13592851404,7900,2018-06-14 21:13:51,14,0,24.152,6434.5555398953,16.732284,0.671082,1.46056763204,0,0,-0.671082,5.4, 0, 1.1,0,0,1024,1024,1024,1024,3.9,-90,100,3.978,4.062,4.02,4.042,4.012,4.032,15.927,73.4,14,Waypoint,
36.7916149,-118.9555658,6435.8678758953,18.04462,0.223694,1.07818573004,8000,2018-06-14 21:13:51,14,0,23.514,6435.8678758953,18.04462,0.671082,1.46056763204,0,0,-0.671082,5.5, 0, 0.9,0,0,1024,1024,1024,1024,4,-90,98,3.883,3.918,3.926,3.952,3.871,4.006,24.475,73.4,14,Waypoint,
36.7916148,-118.9555656,6438.1644638953,20.341208,0.223694,1.02182746052,8100,2018-06-14 21:13:51,13,0,23.514,6438.1644638953,20.341208,0.671082,1.46056763204,0,0,-0.671082,5.1, -0.1, -0.3,0,0,1024,1024,1024,1024,4,-90,98,3.883,3.918,3.926,3.952,3.871,4.006,24.475,73.4,14,Waypoint,
36.7916148,-118.9555654,6439.4767998953,21.653544,0.223694,1.0015748352,8200,2018-06-14 21:13:51,13,0,23.514,6439.4767998953,21.653544,0.671082,1.46056763204,0,0,-0.671082,4.9, -0.2, -0.5,0,0,1024,1024,1024,1024,4,-89.9,98,3.883,3.918,3.926,3.952,3.871,4.006,24.475,73.4,14,Waypoint,
36.7916147,-118.9555653,6440.4610518953,22.637796,0,0.95777890204,8300,2018-06-14 21:13:52,13,0,23.514,6440.4610518953,22.637796,0.671082,1.46056763204,0,0,-0.671082,4.8, -0.2, -0.5,0,0,1024,1024,1024,1024,4,-89.9,98,3.883,3.918,3.926,3.952,3.871,4.006,24.475,73.4,14,Waypoint,
36.7916147,-118.9555652,6441.4453038953,23.622048,0,0.94927168392,8400,2018-06-14 21:13:52,14,0,23.514,6441.4453038953,23.622048,0.671082,1.46056763204,0,0,-0.671082,4.8, -0.3, -0.5,0,0,1024,1024,1024,1024,4,-90,98,3.883,3.918,3.926,3.952,3.871,4.006,24.475,73.4,14,Waypoint,
36.7916148,-118.955565,6442.7576398953,24.934384,0,0.9704068552,8500,2018-06-14 21:13:52,14,0,23.514,6442.7576398953,24.934384,0.671082,1.46056763204,0,0,-0.671082,4.9, -0.2, -0.3,0,0,1024,1024,1024,1024,4,-90,98,3.883,3.918,3.926,3.952,3.871,4.006,24.475,73.4,14,Waypoint,
36.7916148,-118.9555649,6443.7418918953,25.918636,0,0.96467194688,8600,2018-06-14 21:13:52,15,0,23.514,6443.7418918953,25.918636,0.671082,1.46056763204,0,0,-0.671082,5, 0, 0,0,0,1024,1024,1024,1024,4,-89.9,98,3.883,3.918,3.926,3.952,3.871,4.006,24.475,73.4,14,Waypoint,
36.7916148,-118.9555649,6444.7261438953,26.902888,0,0.96467194688,8700,2018-06-14 21:13:52,15,0,23.514,6444.7261438953,26.902888,0.671082,1.46056763204,0,0,-0.671082,5.2, 0.1, 0,0,0,1024,1024,1024,1024,4.1,-90,98,3.883,3.918,3.926,3.952,3.871,4.006,24.475,73.4,14,Waypoint,
36.7916149,-118.9555648,6446.0384798953,28.215224,0,0.9958661736,8800,2018-06-14 21:13:52,13,0,23.514,6446.0384798953,28.215224,0.671082,1.46056763204,0,0,-0.671082,5.4, 0.1, 0,0,0,1024,1024,1024,1024,4.1,-90,98,3.883,3.918,3.926,3.952,3.871,4.006,24.475,73.4,14,Waypoint,
36.791615,-118.9555647,6447.0227318953,29.199476,0,1.02824150272,8900,2018-06-14 21:13:52,13,0,23.514,6447.0227318953,29.199476,0.671082,1.46056763204,0,0,-0.671082,5.5, 0, 0,0,0,1024,1024,1024,1024,4.1,-90,98,3.883,3.918,3.926,3.952,3.871,4.006,24.475,73.4,14,Waypoint,
36.791615,-118.9555646,6448.3350678953,30.511812,0,1.02533139764,9000,2018-06-14 21:13:52,14,0,23.475,6448.3350678953,30.511812,0.671082,1.46056763204,0,0,-0.671082,5.5, 0.2, 0,0,0,1024,1024,1024,1024,4.1,-89.9,98,3.895,3.916,3.919,3.933,3.912,3.929,22.596,73.4,14,Waypoint,
36.7916151,-118.9555645,6449.3193198953,31.496064,0,1.05967523076,9100,2018-06-14 21:13:52,14,0,23.475,6449.3193198953,31.496064,0.671082,1.46056763204,0,0,-0.671082,5.5, 0.5, 0.3,0,0,1024,1024,1024,1024,4.1,-89.9,98,3.895,3.916,3.919,3.933,3.912,3.929,22.596,73.4,14,Waypoint,
36.7916152,-118.9555644,6450.3035718953,32.480316,0,1.09493769908,9200,2018-06-14 21:13:52,14,0,23.475,6450.3035718953,32.480316,0.671082,1.46056763204,0,0,-0.671082,5.4, 0.6, 0.5,0,0,1024,1024,1024,1024,4.1,-90,98,3.895,3.916,3.919,3.933,3.912,3.929,22.596,73.4,14,Waypoint,
36.7916152,-118.9555642,6451.2878238953,33.464568,0,1.09493769908,9300,2018-06-14 21:13:53,14,0,23.475,6451.2878238953,33.464568,0.671082,1.46056763204,0,0,-0.671082,5.2, 0.5, 0.4,0,0,1024,1024,1024,1024,4.1,-90,98,3.895,3.916,3.919,3.933,3.912,3.929,22.596,73.4,14,Waypoint,
36.7916153,-118.9555641,6452.2720758953,34.44882,0,1.13254268716,9400,2018-06-14 21:13:53,13,0,23.475,6452.2720758953,34.44882,0.671082,1.46056763204,0,0,-0.671082,5, 0.5, 0,0,0,1024,1024,1024,1024,4.1,-90,98,3.895,3.916,3.919,3.933,3.912,3.929,22.596,73.4,14,Waypoint,
36.7916153,-118.9555641,6453.5844118953,35.761156,0,1.13254268716,9500,2018-06-14 21:13:53,13,0,23.475,6453.5844118953,35.761156,0.671082,1.46056763204,0,0,-0.671082,4.8, 0.5, -0.3,0,0,1024,1024,1024,1024,4.1,-90,98,3.895,3.916,3.919,3.933,3.912,3.929,22.596,73.4,14,Waypoint,
36.7916154,-118.9555639,6454.5686638953,36.745408,0,1.17335305592,9600,2018-06-14 21:13:53,15,0,23.475,6454.5686638953,36.745408,0.671082,1.46056763204,0,0,-0.671082,4.7, 0.3, -0.5,0,0,1024,1024,1024,1024,4.1,-90,98,3.895,3.916,3.919,3.933,3.912,3.929,22.596,73.4,14,Waypoint,
36.7916155,-118.9555638,6455.5529158953,37.72966,0,1.21283468448,9700,2018-06-14 21:13:53,15,0,23.475,6455.5529158953,37.72966,0.671082,1.46056763204,0,0,-0.671082,4.6, 0.3, -0.9,0,0,1024,1024,1024,1024,4.1,-89.9,98,3.895,3.916,3.919,3.933,3.912,3.929,22.596,73.4,14,Waypoint,
36.7916156,-118.9555637,6456.5371678953,38.713912,0,1.25281500072,9800,2018-06-14 21:13:53,14,0,23.475,6456.5371678953,38.713912,0.671082,1.46056763204,0,0,-0.671082,4.6, 0.5, -0.8,0,0,1024,1024,1024,1024,4.1,-89.9,98,3.895,3.916,3.919,3.933,3.912,3.929,22.596,73.4,14,Waypoint,
36.7916157,-118.9555637,6457.5214198953,39.698164,0,1.28895017248,9900,2018-06-14 21:13:53,14,0,23.475,6457.5214198953,39.698164,0.671082,1.46056763204,0,0,-0.671082,4.7, 0.4, -0.7,0,0,1024,1024,1024,1024,4.1,-90,98,3.895,3.916,3.919,3.933,3.912,3.929,22.596,73.4,14,Waypoint,
36.7916157,-118.9555638,6458.5056718953,40.682416,0,1.2853018784,10000,2018-06-14 21:13:53,14,0,23.683,6458.5056718953,40.682416,0.671082,1.46056763204,0,0,-0.671082,4.8, 0.6, -0.2,0,0,1024,1024,1024,1024,4.1,-89.9,98,3.923,3.952,3.961,3.975,3.935,3.956,18.936,73.4,14,Waypoint,
36.7916158,-118.9555638,6459.4899238953,41.666668,0,1.32155844124,10100,2018-06-14 21:13:53,14,0,23.683,6459.4899238953,41.666668,0.671082,1.46056763204,0,0,-0.671082,4.9, 0.7, 0.1,0,0,1024,1024,1024,1024,4.1,-89.9,98,3.923,3.952,3.961,3.975,3.935,3.956,18.936,73.4,14,Waypoint,
36.7916159,-118.9555638,6460.4741758953,42.65092,0,1.3578248466,10300,2018-06-14 21:13:54,12,0,23.683,6460.4741758953,42.65092,0.671082,1.46056763204,0,0,-0.671082,4.9, 0.8, 0.5,0,0,1024,1024,1024,1024,4.1,-89.9,98,3.923,3.952,3.961,3.975,3.935,3.956,18.936,73.4,14,Waypoint,
36.791616,-118.9555637,6461.4584278953,43.635172,0,1.39746723632,10400,2018-06-14 21:13:54,12,0,23.683,6461.4584278953,43.635172,0.671082,1.46056763204,0,0,-0.671082,4.9, 0.9, 0.5,0,0,1024,1024,1024,1024,4.1,-89.9,98,3.923,3.952,3.961,3.975,3.935,3.956,18.936,73.4,14,Waypoint,
36.7916162,-118.9555637,6463.4269318953,45.603676,0,1.46988849848,10500,2018-06-14 21:13:54,14,0,23.683,6463.4269318953,45.603676,0.671082,1.46988849848,0,0,-0.671082,4.6, 1.1, 0.2,0,0,1024,1024,1024,1024,4.1,-89.9,98,3.923,3.952,3.961,3.975,3.935,3.956,18.936,73.4,14,Waypoint,
36.7916162,-118.9555637,6464.4111838953,46.587928,0,1.46988849848,10700,2018-06-14 21:13:54,15,0,23.683,6464.4111838953,46.587928,0.671082,1.46988849848,0,0,-0.671082,4.5, 1.3, 0.2,0,0,1024,1024,1024,1024,4.1,-89.9,98,3.923,3.952,3.961,3.975,3.935,3.956,18.936,73.4,14,Waypoint,
36.7916164,-118.9555637,6466.3796878953,48.556432,0,1.54236225408,10800,2018-06-14 21:13:54,14,0,23.683,6466.3796878953,48.556432,0.671082,1.54236225408,0,0,-0.671082,4.6, 1.6, 0.4,0,0,1024,1024,1024,1024,4.1,-90,98,3.923,3.952,3.961,3.975,3.935,3.956,18.936,73.4,14,Waypoint,
36.7916165,-118.9555637,6467.3639398953,49.540684,0,1.57861553608,10900,2018-06-14 21:13:54,14,0,23.683,6467.3639398953,49.540684,0.671082,1.57861553608,0,0,-0.671082,4.8, 1.6, 0.5,0,0,1024,1024,1024,1024,4.1,-89.9,98,3.923,3.952,3.961,3.975,3.935,3.956,18.936,73.4,14,Waypoint,
36.7916165,-118.9555637,6468.3481918953,50.524936,0,1.57861553608,11000,2018-06-14 21:13:54,14,0,23.756,6468.3481918953,50.524936,0.671082,1.57861553608,0,0,-0.671082,5, 1.7, 0.5,0,0,1024,1024,1024,1024,4.1,-89.9,98,3.93,3.962,3.974,3.978,3.95,3.962,18.505,73.4,14,Waypoint,
36.7916165,-118.9555637,6469.3324438953,51.509188,0,1.57861553608,11100,2018-06-14 21:13:54,14,0,23.756,6469.3324438953,51.509188,0.671082,1.57861553608,0,0,-0.671082,5.2, 1.8, 0.6,0,0,1024,1024,1024,1024,4.1,-89.9,98,3.93,3.962,3.974,3.978,3.95,3.962,18.505,73.4,14,Waypoint,
36.7916166,-118.9555637,6470.3166958953,52.49344,0,1.61488194144,11200,2018-06-14 21:13:54,14,0,23.756,6470.3166958953,52.49344,0.671082,1.61488194144,0,0,-0.671082,5.4, 1.7, 0.8,0,0,1024,1024,1024,1024,4.1,-90,98,3.93,3.962,3.974,3.978,3.95,3.962,18.505,73.4,14,Waypoint,
36.7916166,-118.9555637,6471.3009478953,53.477692,0,1.61488194144,11300,2018-06-14 21:13:55,14,0,23.756,6471.3009478953,53.477692,0.671082,1.61488194144,0,0,-0.671082,5.6, 1.6, 0.9,0,0,1024,1024,1024,1024,4.1,-90,98,3.93,3.962,3.974,3.978,3.95,3.962,18.505,73.4,14,Waypoint,
36.7916166,-118.9555637,6472.2851998953,54.461944,0,1.61488194144,11400,2018-06-14 21:13:55,14,0,23.756,6472.2851998953,54.461944,0.671082,1.61488194144,0,0,-0.671082,5.7, 1.6, 0.8,0,0,1024,1024,1024,1024,4.1,-89.9,98,3.93,3.962,3.974,3.978,3.95,3.962,18.505,73.4,14,Waypoint,
36.7916167,-118.9555638,6473.2694518953,55.446196,0,1.6483104202,11500,2018-06-14 21:13:55,14,0,23.756,6473.2694518953,55.446196,0.671082,1.6483104202,0,0,-0.671082,5.7, 1.6, 0.7,0,0,1024,1024,1024,1024,4.1,-89.9,98,3.93,3.962,3.974,3.978,3.95,3.962,18.505,73.4,14,Waypoint,
36.7916167,-118.9555638,6474.2537038953,56.430448,0,1.6483104202,11600,2018-06-14 21:13:55,14,0,23.756,6474.2537038953,56.430448,0.671082,1.6483104202,0,0,-0.671082,5.7, 1.5, 0.6,0,0,1024,1024,1024,1024,4.1,-90,98,3.93,3.962,3.974,3.978,3.95,3.962,18.505,73.4,14,Waypoint,
36.7916167,-118.9555639,6475.2379558953,57.4147,0,1.64597774296,11700,2018-06-14 21:13:55,14,0,23.756,6475.2379558953,57.4147,0.671082,1.6483104202,0,0,-0.671082,5.5, 1.4, 0.7,0,0,1024,1024,1024,1024,4.1,-89.9,98,3.93,3.962,3.974,3.978,3.95,3.962,18.505,73.4,14,Waypoint,
36.7916166,-118.9555639,6476.2222078953,58.398952,0,1.60958666568,11800,2018-06-14 21:13:55,15,0,23.756,6476.2222078953,58.398952,0.671082,1.6483104202,0,0,-0.671082,5.3, 1.2, 0.8,0,0,1024,1024,1024,1024,4.1,-90,98,3.93,3.962,3.974,3.978,3.95,3.962,18.505,73.4,14,Waypoint,
36.7916166,-118.955564,6477.2064598953,59.383204,0,1.60772971024,11900,2018-06-14 21:13:55,15,0,23.756,6477.2064598953,59.383204,0.671082,1.6483104202,0,0,-0.671082,5.2, 1, 1,0,0,1024,1024,1024,1024,4.1,-90,98,3.93,3.962,3.974,3.978,3.95,3.962,18.505,73.4,14,Waypoint,
36.7916166,-118.955564,6478.1907118953,60.367456,0,1.60772971024,12010,2018-06-14 21:13:55,15,0,23.691,6478.1907118953,60.367456,0.671082,1.6483104202,0,0,-0.671082,5.1, 0.8, 0.9,0,0,1024,1024,1024,1024,4.1,-90,98,3.925,3.953,3.947,3.974,3.925,3.959,19.108,73.4,14,Waypoint,
36.7916166,-118.955564,6479.1749638953,61.351708,0,1.60772971024,12100,2018-06-14 21:13:55,15,0,23.691,6479.1749638953,61.351708,0.671082,1.6483104202,0,0,-0.671082,5.1, 0.6, 0.7,0,0,1024,1024,1024,1024,4.1,-90,98,3.925,3.953,3.947,3.974,3.925,3.959,19.108,73.4,14,Waypoint,
36.7916165,-118.9555641,6480.1592158953,62.33596,0,1.56994099512,12200,2018-06-14 21:13:55,15,0,23.691,6480.1592158953,62.33596,0.671082,1.6483104202,0,0,-0.671082,5.1, 0.5, 0.6,0,0,1024,1024,1024,1024,4.1,-90,98,3.925,3.953,3.947,3.974,3.925,3.959,19.108,73.4,14,Waypoint,
36.7916164,-118.9555641,6481.1434678953,63.320212,0,1.5334810202,12300,2018-06-14 21:13:56,15,0,23.691,6481.1434678953,63.320212,0.671082,1.6483104202,0,0,-0.671082,5.2, 0.5, 0.6,0,0,1024,1024,1024,1024,4.1,-90,98,3.925,3.953,3.947,3.974,3.925,3.959,19.108,73.4,14,Waypoint,
36.7916163,-118.9555642,6482.1277198953,64.304464,0,1.49616802688,12400,2018-06-14 21:13:56,15,0,23.691,6482.1277198953,64.304464,0.671082,1.6483104202,0,0,-0.671082,5.2, 0.4, 0.6,0,0,1024,1024,1024,1024,4.1,-90,98,3.925,3.953,3.947,3.974,3.925,3.959,19.108,73.4,14,Waypoint,
36.7916162,-118.9555642,6483.1119718953,65.288716,0,1.45969164776,12500,2018-06-14 21:13:56,15,0,23.691,6483.1119718953,65.288716,0.671082,1.6483104202,0,0,-0.671082,5.2, 0.2, 0.7,0,0,1024,1024,1024,1024,4.1,-90,98,3.925,3.953,3.947,3.974,3.925,3.959,19.108,73.4,14,Waypoint,
36.7916162,-118.9555643,6484.0962238953,66.272968,0,1.45939637216,12600,2018-06-14 21:13:56,15,0,23.691,6484.0962238953,66.272968,0.671082,1.6483104202,0,0,-0.671082,5.3, 0, 1,0,0,1024,1024,1024,1024,4.1,-90,98,3.925,3.953,3.947,3.974,3.925,3.959,19.108,73.4,14,Waypoint,
36.7916161,-118.9555643,6485.0804758953,67.25722,0,1.42291343136,12800,2018-06-14 21:13:56,15,0,23.691,6485.0804758953,67.25722,0.671082,1.6483104202,0,0,-0.671082,5.4, -0.2, 1.1,0,0,1024,1024,1024,1024,4.1,-90,98,3.925,3.953,3.947,3.974,3.925,3.959,19.108,73.4,14,Waypoint,
36.791616,-118.9555643,6486.0647278953,68.241472,0,1.38642720972,12900,2018-06-14 21:13:56,15,0,23.691,6486.0647278953,68.241472,0.671082,1.6483104202,0,0,-0.671082,5.5, -0.3, 1.1,0,0,1024,1024,1024,1024,4.1,-90,98,3.925,3.953,3.947,3.974,3.925,3.959,19.108,73.4,14,Waypoint,
36.7916158,-118.9555643,6488.0332318953,70.209976,0,1.31345804728,13000,2018-06-14 21:13:56,15,0,23.652,6488.0332318953,70.209976,0.671082,1.6483104202,0,0,-0.671082,5.6, -0.2, 0.7,0,0,1024,1024,1024,1024,4.1,-90,98,3.925,3.953,3.947,3.974,3.925,3.959,18.818,73.4,14,Waypoint,
36.7916157,-118.9555643,6489.0174838953,71.194228,0,1.27697182564,13100,2018-06-14 21:13:56,15,0,23.652,6489.0174838953,71.194228,0.671082,1.6483104202,0,0,-0.671082,5.5, -0.1, 0.5,0,0,1024,1024,1024,1024,4.1,-90,98,3.925,3.953,3.947,3.974,3.925,3.959,18.818,73.4,14,Waypoint,
36.7916156,-118.9555643,6490.0017358953,72.17848,0,1.24048888484,13200,2018-06-14 21:13:56,15,0,23.652,6490.0017358953,72.17848,0.671082,1.6483104202,0,0,-0.671082,5.4, -0.1, 0.3,0,0,1024,1024,1024,1024,4.1,-90,98,3.925,3.953,3.947,3.974,3.925,3.959,18.818,73.4,14,Waypoint,
36.7916156,-118.9555644,6490.9859878953,73.162732,0,1.24083337304,13300,2018-06-14 21:13:57,15,0,23.652,6490.9859878953,73.162732,0.671082,1.6483104202,0,0,-0.671082,5.3, -0.1, 0.4,0,0,1024,1024,1024,1024,4.1,-90,98,3.925,3.953,3.947,3.974,3.925,3.959,18.818,73.4,14,Waypoint,
36.7916155,-118.9555643,6491.9702398953,74.146984,0,1.2040026632,13400,2018-06-14 21:13:57,15,0,23.652,6491.9702398953,74.146984,0.671082,1.6483104202,0,0,-0.671082,5.1, -0.2, 0.4,0,0,1024,1024,1024,1024,4.1,-90,98,3.925,3.953,3.947,3.974,3.925,3.959,18.818,73.4,14,Waypoint,
36.7916154,-118.9555643,6492.9544918953,75.131236,0,1.1675197224,13500,2018-06-14 21:13:57,15,0,23.652,6492.9544918953,75.131236,0.671082,1.6483104202,0,0,-0.671082,5, -0.4, 0.3,0,0,1024,1024,1024,1024,4.1,-89.9,98,3.925,3.953,3.947,3.974,3.925,3.959,18.818,73.4,14,Waypoint,
36.7916153,-118.9555642,6493.9387438953,76.115488,0,1.13141079736,13600,2018-06-14 21:13:57,15,0,23.652,6493.9387438953,76.115488,0.671082,1.6483104202,0,0,-0.671082,5, -0.5, 0,0,0,1024,1024,1024,1024,4.1,-89.9,98,3.925,3.953,3.947,3.974,3.925,3.959,18.818,73.4,14,Waypoint,
36.7916153,-118.9555642,6494.9229958953,77.09974,0,1.13141079736,13700,2018-06-14 21:13:57,15,0,23.652,6494.9229958953,77.09974,0.671082,1.6483104202,0,0,-0.671082,5.1, -0.5, 0,0,0,1024,1024,1024,1024,4.1,-89.9,98,3.925,3.953,3.947,3.974,3.925,3.959,18.818,73.4,14,Waypoint,
36.7916152,-118.9555641,6495.9072478953,78.083992,0,1.09610567812,13800,2018-06-14 21:13:57,15,0,23.652,6495.9072478953,78.083992,0.671082,1.6483104202,0,0,-0.671082,5.2, -0.5, 0,0,0,1024,1024,1024,1024,4.1,-89.9,98,3.925,3.953,3.947,3.974,3.925,3.959,18.818,73.4,14,Waypoint,
36.7916151,-118.955564,6497.8757518953,80.052496,0,1.06168638568,14000,2018-06-14 21:13:57,15,0,23.652,6497.8757518953,80.052496,0.671082,1.6483104202,0,0,-0.671082,5.4, -0.5, -0.1,0,0,1024,1024,1024,1024,4.1,-90,98,3.912,3.945,3.956,3.965,3.924,3.945,18.818,73.4,14,Waypoint,
36.791615,-118.955564,6498.8600038953,81.036748,0,1.02533139764,14100,2018-06-14 21:13:57,15,0,23.652,6498.8600038953,81.036748,0.671082,1.6483104202,0,0,-0.671082,5.3, -0.5, -0.3,0,0,1024,1024,1024,1024,4.1,-89.9,98,3.912,3.945,3.956,3.965,3.924,3.945,18.818,73.4,14,Waypoint,
36.791615,-118.9555639,6499.8442558953,82.021,0,1.02824150272,14200,2018-06-14 21:13:57,15,0,23.652,6499.8442558953,82.021,0.671082,1.6483104202,0,0,-0.671082,5.3, -0.5, -0.4,0,0,1024,1024,1024,1024,4.1,-89.9,98,3.912,3.945,3.956,3.965,3.924,3.945,18.818,73.4,14,Waypoint,
36.791615,-118.9555639,6500.8285078953,83.005252,0,1.02824150272,14300,2018-06-14 21:13:58,15,0,23.652,6500.8285078953,83.005252,0.671082,1.6483104202,0,0,-0.671082,5.2, -0.3, -0.5,0,0,1024,1024,1024,1024,4.1,-89.9,98,3.912,3.945,3.956,3.965,3.924,3.945,18.818,73.4,14,Waypoint,
36.7916149,-118.9555638,6501.8127598953,83.989504,0,0.9958661736,14400,2018-06-14 21:13:58,15,0,23.652,6501.8127598953,83.989504,0.671082,1.6483104202,0,0,-0.671082,5.1, -0.2, -0.7,0,0,1024,1024,1024,1024,4.1,-90,98,3.912,3.945,3.956,3.965,3.924,3.945,18.818,73.4,14,Waypoint,
36.7916149,-118.9555638,6502.7970118953,84.973756,0,0.9958661736,14500,2018-06-14 21:13:58,15,0,23.652,6502.7970118953,84.973756,0.671082,1.6483104202,0,0,-0.671082,5, -0.1, -0.4,0,0,1024,1024,1024,1024,4.1,-90,98,3.912,3.945,3.956,3.965,3.924,3.945,18.818,73.4,14,Waypoint,
36.7916149,-118.9555638,6503.7812638953,85.958008,0,0.9958661736,14700,2018-06-14 21:13:58,15,0,23.652,6503.7812638953,85.958008,0.671082,1.6483104202,0,0,-0.671082,5.1, 0, 0,0,0,1024,1024,1024,1024,4.1,-90,98,3.912,3.945,3.956,3.965,3.924,3.945,18.818,73.4,14,Waypoint,
36.7916148,-118.9555638,6504.7655158953,86.94226,0,0.95979005696,14800,2018-06-14 21:13:58,15,0,23.652,6504.7655158953,86.94226,0.671082,1.6483104202,0,0,-0.671082,5.2, -0.2, 0,0,0,1024,1024,1024,1024,4.1,-90,98,3.912,3.945,3.956,3.965,3.924,3.945,18.818,73.4,14,Waypoint,
36.7916147,-118.9555638,6506.7340198953,88.910764,0,0.92375002956,14900,2018-06-14 21:13:58,15,0,23.652,6506.7340198953,88.910764,0.671082,1.6483104202,0,0,-0.671082,5.4, -0.6, 0.1,0,0,1024,1024,1024,1024,4.1,-89.9,98,3.912,3.945,3.956,3.965,3.924,3.945,18.818,73.4,14,Waypoint,
36.7916147,-118.9555637,6507.7182718953,89.895016,0,0.92881892736,15000,2018-06-14 21:13:58,15,0,23.604,6507.7182718953,89.895016,0.671082,1.6483104202,0,0,-0.671082,5.5, -0.7, 0,0,0,1024,1024,1024,1024,4.1,-89.9,98,3.911,3.932,3.942,3.96,3.909,3.945,19.085,73.4,14,Waypoint,
36.7916146,-118.9555636,6509.6867758953,91.86352,0,0.89920606552,15200,2018-06-14 21:13:58,15,0,23.604,6509.6867758953,91.86352,0.671082,1.6483104202,0,0,-0.671082,5.6, -1.1, -0.3,0,0,1024,1024,1024,1024,4.1,-90,98,3.911,3.932,3.942,3.96,3.909,3.945,19.085,73.4,14,Waypoint,
36.7916145,-118.9555636,6510.6710278953,92.847772,0,0.86371721924,15300,2018-06-14 21:13:59,15,0,23.604,6510.6710278953,92.847772,0.671082,1.6483104202,0,0,-0.671082,5.5, -1.3, -0.3,0,0,1024,1024,1024,1024,4.1,-90,98,3.911,3.932,3.942,3.96,3.909,3.945,19.085,73.4,14,Waypoint,
36.7916145,-118.9555636,6511.6552798953,93.832024,0,0.86371721924,15400,2018-06-14 21:13:59,15,0,23.604,6511.6552798953,93.832024,0.671082,1.6483104202,0,0,-0.671082,5.4, -1.3, -0.4,0,0,1024,1024,1024,1024,4.1,-90,98,3.911,3.932,3.942,3.96,3.909,3.945,19.085,73.4,14,Waypoint,
36.7916145,-118.9555636,6512.6395318953,94.816276,0,0.86371721924,15500,2018-06-14 21:13:59,15,0,23.604,6512.6395318953,94.816276,0.671082,1.6483104202,0,0,-0.671082,5.3, -1.2, -0.5,0,0,1024,1024,1024,1024,4.1,-89.9,98,3.911,3.932,3.942,3.96,3.909,3.945,19.085,73.4,14,Waypoint,
36.7916146,-118.9555636,6513.6237838953,95.800528,0,0.89920606552,15600,2018-06-14 21:13:59,15,0,23.604,6513.6237838953,95.800528,0.671082,1.6483104202,0,0,-0.671082,5.1, -0.9, -0.4,0,0,1024,1024,1024,1024,4.1,-89.9,98,3.911,3.932,3.942,3.96,3.909,3.945,19.085,73.4,14,Waypoint,
36.7916146,-118.9555636,6514.6080358953,96.78478,0,0.89920606552,15700,2018-06-14 21:13:59,15,0,23.604,6514.6080358953,96.78478,0.671082,1.6483104202,0,0,-0.671082,5, -0.6, -0.1,0,0,1024,1024,1024,1024,4.1,-89.9,98,3.911,3.932,3.942,3.96,3.909,3.945,19.085,73.4,14,Waypoint,
36.7916146,-118.9555636,6515.5922878953,97.769032,0,0.89920606552,15800,2018-06-14 21:13:59,15,0,23.604,6515.5922878953,97.769032,0.671082,1.6483104202,0,0,-0.671082,4.9, -0.4, 0,0,0,1024,1024,1024,1024,4.1,-89.9,98,3.911,3.932,3.942,3.96,3.909,3.945,19.085,73.4,14,Waypoint,
36.7916147,-118.9555635,6516.5765398953,98.753284,0,0.94159779916,15900,2018-06-14 21:13:59,15,0,23.604,6516.5765398953,98.753284,0.671082,1.6483104202,0,0,-0.671082,4.8, -0.4, 0,0,0,1024,1024,1024,1024,4.1,-89.9,98,3.911,3.932,3.942,3.96,3.909,3.945,19.085,73.4,14,Waypoint,
36.7916147,-118.9555635,6517.5607918953,99.737536,0,0.94159779916,16000,2018-06-14 21:13:59,15,0,23.604,6517.5607918953,99.737536,0.671082,1.6483104202,0,0,-0.671082,4.8, -0.1, -0.1,0,0,1024,1024,1024,1024,4.1,-89.9,98,3.911,3.932,3.942,3.96,3.909,3.945,19.085,73.4,14,Waypoint,
36.7916148,-118.9555634,6518.5450438953,100.721788,0,0.98437995276,16100,2018-06-14 21:13:59,15,0,23.604,6518.5450438953,100.721788,0.671082,1.6483104202,0,0,-0.671082,4.9, 0.1, -0.3,0,0,1024,1024,1024,1024,4.1,-89.9,98,3.911,3.932,3.942,3.96,3.909,3.945,19.085,73.4,14,Waypoint,
36.7916148,-118.9555634,6519.5292958953,101.70604,0,0.98437995276,16200,2018-06-14 21:13:59,15,0,23.604,6519.5292958953,101.70604,0.671082,1.6483104202,0,0,-0.671082,4.8, 0.1, -0.5,0,0,1024,1024,1024,1024,4.1,-89.9,98,3.911,3.932,3.942,3.96,3.909,3.945,19.085,73.4,14,Waypoint,
36.7916149,-118.9555634,6520.5135478953,102.690292,0,1.0195866468,16300,2018-06-14 21:14:00,15,0,23.604,6520.5135478953,102.690292,0.671082,1.6483104202,0,0,-0.671082,4.8, 0.2, -0.4,0,0,1024,1024,1024,1024,4.1,-89.9,98,3.911,3.932,3.942,3.96,3.909,3.945,19.085,73.4,14,Waypoint,
36.7916149,-118.9555634,6521.4977998953,103.674544,0,1.0195866468,16400,2018-06-14 21:14:00,15,0,23.604,6521.4977998953,103.674544,0.671082,1.6483104202,0,0,-0.671082,4.7, 0, -0.4,0,0,1024,1024,1024,1024,4.1,-89.9,98,3.911,3.932,3.942,3.96,3.909,3.945,19.085,73.4,14,Waypoint,
36.7916149,-118.9555634,6522.4820518953,104.658796,0,1.0195866468,16500,2018-06-14 21:14:00,15,0,23.604,6522.4820518953,104.658796,0.671082,1.6483104202,0,0,-0.671082,4.7, 0, 0,0,0,1024,1024,1024,1024,4.1,-89.9,98,3.911,3.932,3.942,3.96,3.909,3.945,19.085,73.4,14,Waypoint,
36.791615,-118.9555634,6523.4663038953,105.643048,0,1.05487864268,16600,2018-06-14 21:14:00,15,0,23.604,6523.4663038953,105.643048,0.671082,1.6483104202,0,0,-0.671082,4.8, 0, 0.3,0,0,1024,1024,1024,1024,4.1,-89.9,98,3.911,3.932,3.942,3.96,3.909,3.945,19.085,73.4,14,Waypoint,
36.791615,-118.9555634,6524.4505558953,106.6273,0,1.05487864268,16700,2018-06-14 21:14:00,15,0,23.604,6524.4505558953,106.6273,0.671082,1.6483104202,0,0,-0.671082,4.9, -0.2, 0.3,0,0,1024,1024,1024,1024,4.1,-89.9,98,3.911,3.932,3.942,3.96,3.909,3.945,19.085,73.4,14,Waypoint,
36.791615,-118.9555633,6525.4348078953,107.611552,0,1.06253940408,16800,2018-06-14 21:14:00,15,0,23.604,6525.4348078953,107.611552,0.671082,1.6483104202,0,0,-0.671082,5, 0, 0.1,0,0,1024,1024,1024,1024,4.1,-89.9,98,3.911,3.932,3.942,3.96,3.909,3.945,19.085,73.4,14,Waypoint,
36.7916151,-118.9555633,6526.4190598953,108.595804,0,1.09766407712,16900,2018-06-14 21:14:00,15,0,23.604,6526.4190598953,108.595804,0.671082,1.6483104202,0,0,-0.671082,5, 0, -0.5,0,0,1024,1024,1024,1024,4.1,-89.9,98,3.911,3.932,3.942,3.96,3.909,3.945,19.085,73.4,14,Waypoint,
36.7916151,-118.9555632,6528.3875638953,110.564308,0,1.10580056032,17100,2018-06-14 21:14:00,15,0,23.604,6528.3875638953,110.564308,0.671082,1.6483104202,0,0,-0.671082,5.2, -0.4, -0.8,0,0,1024,1024,1024,1024,4.1,-89.9,98,3.911,3.932,3.942,3.96,3.909,3.945,19.085,73.4,14,Waypoint,
36.7916151,-118.9555632,6529.3718158953,111.54856,0,1.10580056032,17200,2018-06-14 21:14:00,15,0,23.604,6529.3718158953,111.54856,0.671082,1.6483104202,0,0,-0.671082,5.3, -0.6, -0.6,0,0,1024,1024,1024,1024,4.1,-89.9,98,3.911,3.932,3.942,3.96,3.909,3.945,19.085,73.4,14,Waypoint,
36.7916151,-118.9555632,6529.3718158953,111.54856,0,1.10580056032,17300,2018-06-14 21:14:01,15,0,23.604,6529.3718158953,111.54856,0.671082,1.6483104202,0,0,-0.671082,5.3, -0.6, -0.6,0,0,1024,1024,1024,1024,4.1,-89.9,98,3.911,3.932,3.942,3.96,3.909,3.945,19.085,73.4,14,Waypoint,
36.7916152,-118.9555632,6531.3403198953,113.517064,0,1.14075791052,17400,2018-06-14 21:14:01,15,0,23.604,6531.3403198953,113.517064,0.671082,1.6483104202,0,0,-0.671082,5.6, -0.5, 0.2,0,0,1024,1024,1024,1024,4.1,-89.9,98,3.911,3.932,3.942,3.96,3.909,3.945,19.085,73.4,14,Waypoint,
36.7916152,-118.9555632,6532.3245718953,114.501316,0,1.14075791052,17600,2018-06-14 21:14:01,15,0,23.604,6532.3245718953,114.501316,0.671082,1.6483104202,0,0,-0.671082,5.8, -0.2, 0.3,0,0,1024,1024,1024,1024,4.1,-89.9,98,3.911,3.932,3.942,3.96,3.909,3.945,19.085,73.4,14,Waypoint,
36.7916152,-118.9555632,6533.3088238953,115.485568,0,1.14075791052,17700,2018-06-14 21:14:01,15,0,23.604,6533.3088238953,115.485568,0.671082,1.6483104202,0,0,-0.671082,5.8, -0.1, 0,0,0,1024,1024,1024,1024,4.1,-89.9,98,3.911,3.932,3.942,3.96,3.909,3.945,19.085,73.4,14,Waypoint,
36.7916153,-118.9555632,6535.2773278953,117.454072,0,1.17581040508,17800,2018-06-14 21:14:01,15,0,23.604,6535.2773278953,117.454072,0.671082,1.6483104202,0,0,-0.671082,5.6, 0, -0.8,0,0,1024,1024,1024,1024,4.1,-89.9,98,3.911,3.932,3.942,3.96,3.909,3.945,19.085,73.4,14,Waypoint,
36.7916154,-118.9555631,6536.2615798953,118.438324,0,1.2190289104,17900,2018-06-14 21:14:01,15,0,23.604,6536.2615798953,118.438324,0.671082,1.6483104202,0,0,-0.671082,5.4, 0, -0.9,0,0,1024,1024,1024,1024,4.1,-89.9,98,3.911,3.932,3.942,3.96,3.909,3.945,19.085,73.4,14,Waypoint,
36.7916154,-118.9555631,6537.2458318953,119.422576,0,1.2190289104,18000,2018-06-14 21:14:01,15,0,23.565,6537.2458318953,119.422576,0.671082,1.6483104202,0,0,-0.671082,5.2, -0.1, -1,0,0,1024,1024,1024,1024,4.1,-89.9,98,3.897,3.919,3.942,3.949,3.903,3.936,18.795,73.4,14,Waypoint,
36.7916154,-118.955563,6538.2300838953,120.406828,0,1.22774938312,18100,2018-06-14 21:14:01,15,0,23.565,6538.2300838953,120.406828,0.671082,1.6483104202,0,0,-0.671082,5.1, 0, -0.6,0,0,1024,1024,1024,1024,4.1,-89.9,98,3.897,3.919,3.942,3.949,3.903,3.936,18.795,73.4,14,Waypoint,
36.7916155,-118.955563,6539.2143358953,121.39108,0,1.26249675956,18200,2018-06-14 21:14:01,15,0,23.565,6539.2143358953,121.39108,0.671082,1.6483104202,0,0,-0.671082,4.8, 0, -0.7,0,0,1024,1024,1024,1024,4.1,-89.9,98,3.897,3.919,3.942,3.949,3.903,3.936,18.795,73.4,14,Waypoint,
36.7916155,-118.9555629,6540.5266718953,122.703416,0,1.27159124804,18300,2018-06-14 21:14:02,15,0,23.565,6540.5266718953,122.703416,0.671082,1.6483104202,0,0,-0.671082,4.7, 0.1, -1,0,0,1024,1024,1024,1024,4.1,-89.9,98,3.897,3.919,3.942,3.949,3.903,3.936,18.795,73.4,14,Waypoint,
36.7916155,-118.9555628,6541.5109238953,123.687668,0,1.28128941108,18400,2018-06-14 21:14:02,15,0,23.565,6541.5109238953,123.687668,0.671082,1.6483104202,0,0,-0.671082,4.7, 0.5, -1.4,0,0,1024,1024,1024,1024,4.1,-89.9,98,3.897,3.919,3.942,3.949,3.903,3.936,18.795,73.4,14,Waypoint,
36.7916155,-118.9555627,6542.4951758953,124.67192,0,1.29157484448,18500,2018-06-14 21:14:02,15,0,23.565,6542.4951758953,124.67192,0.671082,1.6483104202,0,0,-0.671082,5, 0.6, -1.8,0,0,1024,1024,1024,1024,4.1,-90,98,3.897,3.919,3.942,3.949,3.903,3.936,18.795,73.4,14,Waypoint,
36.7916155,-118.9555626,6543.4794278953,125.656172,0,1.30243442488,18600,2018-06-14 21:14:02,15,0,23.565,6543.4794278953,125.656172,0.671082,1.6483104202,0,0,-0.671082,5.2, 0.5, -2.1,0,0,1024,1024,1024,1024,4.1,-90,98,3.897,3.919,3.942,3.949,3.903,3.936,18.795,73.4,14,Waypoint,
36.7916155,-118.9555624,6544.4636798953,126.640424,0,1.3258202524,18700,2018-06-14 21:14:02,15,0,23.565,6544.4636798953,126.640424,0.671082,1.6483104202,0,0,-0.671082,5.2, 0.1, -2.1,0,0,1024,1024,1024,1024,4.1,-90,98,3.897,3.919,3.942,3.949,3.903,3.936,18.795,73.4,14,Waypoint,
36.7916155,-118.9555623,6545.4479318953,127.624676,0,1.33831697196,18800,2018-06-14 21:14:02,15,0,23.565,6545.4479318953,127.624676,0.671082,1.6483104202,0,0,-0.671082,5.2, 0, -2.4,0,0,1024,1024,1024,1024,4.1,-90,98,3.897,3.919,3.942,3.949,3.903,3.936,18.795,73.4,14,Waypoint,
36.7916155,-118.9555622,6546.4321838953,128.608928,0,1.35133206424,18900,2018-06-14 21:14:02,15,0,23.565,6546.4321838953,128.608928,0.671082,1.6483104202,0,0,-0.671082,5.1, 0, -2.5,0,0,1024,1024,1024,1024,4.1,-90,98,3.897,3.919,3.942,3.949,3.903,3.936,18.795,73.4,14,Waypoint,
36.7916155,-118.9555621,6547.4164358953,129.59318,0,1.3648458442,19000,2018-06-14 21:14:02,15,0,23.52,6547.4164358953,129.59318,0.671082,1.6483104202,0,0,-0.671082,5, 0, -2.6,0,0,1024,1024,1024,1024,4.1,-90,97,3.89,3.914,3.927,3.944,3.901,3.929,19.132,73.4,14,Waypoint,
36.7916155,-118.955562,6548.4006878953,130.577432,0,1.37884846932,19100,2018-06-14 21:14:02,15,0,23.52,6548.4006878953,130.577432,0.671082,1.6483104202,0,0,-0.671082,5, 0.2, -2.6,0,0,1024,1024,1024,1024,4.1,-89.9,97,3.89,3.914,3.927,3.944,3.901,3.929,19.132,73.4,14,Waypoint,
36.7916155,-118.9555619,6549.3849398953,131.561684,0,1.39332025456,19200,2018-06-14 21:14:02,15,0,23.52,6549.3849398953,131.561684,0.671082,1.6483104202,0,0,-0.671082,5.1, 0.2, -2.6,0,0,1024,1024,1024,1024,4.1,-89.9,97,3.89,3.914,3.927,3.944,3.901,3.929,19.132,73.4,14,Waypoint,
36.7916155,-118.9555618,6550.3691918953,132.545936,0,1.4082513574,19300,2018-06-14 21:14:03,15,0,23.52,6550.3691918953,132.545936,0.671082,1.6483104202,0,0,-0.671082,5.2, 0.2, -2.6,0,0,1024,1024,1024,1024,4.1,-89.9,97,3.89,3.914,3.927,3.944,3.901,3.929,19.132,73.4,14,Waypoint,
36.7916155,-118.9555617,6551.3534438953,133.530188,0,1.42362537364,19400,2018-06-14 21:14:03,15,0,23.52,6551.3534438953,133.530188,0.671082,1.6483104202,0,0,-0.671082,5.2, 0.3, -2.5,0,0,1024,1024,1024,1024,4.1,-89.9,97,3.89,3.914,3.927,3.944,3.901,3.929,19.132,73.4,14,Waypoint,
36.7916154,-118.9555615,6553.3219478953,135.498692,0,1.42561684352,19600,2018-06-14 21:14:03,15,0,23.52,6553.3219478953,135.498692,0.671082,1.6483104202,0,0,-0.671082,5.2, 0.2, -2.8,0,0,1024,1024,1024,1024,4.1,-90,97,3.89,3.914,3.927,3.944,3.901,3.929,19.132,73.4,14,Waypoint,
36.7916154,-118.9555612,6555.2904518953,137.467196,0,1.47766408928,19800,2018-06-14 21:14:03,15,0,23.52,6555.2904518953,137.467196,0.671082,1.6483104202,0,0,-0.671082,5.3, -0.1, -3.6,0,0,1024,1024,1024,1024,4.2,-89.9,97,3.89,3.914,3.927,3.944,3.901,3.929,19.132,73.4,14,Waypoint,
36.7916154,-118.9555611,6556.2747038953,138.451448,0,1.4957513602,20000,2018-06-14 21:14:03,15,0,23.464,6556.2747038953,138.451448,0.671082,1.6483104202,0,0,-0.671082,5.2, -0.1, -3.8,0,0,1024,1024,1024,1024,4.2,-89.9,97,3.872,3.912,3.91,3.932,3.891,3.917,19.309,73.4,14,Waypoint,
36.7916154,-118.9555609,6557.2589558953,139.4357,0,1.5329560858,20100,2018-06-14 21:14:03,15,0,23.464,6557.2589558953,139.4357,0.671082,1.6483104202,0,0,-0.671082,5.1, 0, -3.7,0,0,1024,1024,1024,1024,4.1,-89.9,97,3.872,3.912,3.91,3.932,3.891,3.917,19.309,73.4,14,Waypoint,
36.7916154,-118.9555607,6559.2274598953,141.404204,0,1.57145346236,20200,2018-06-14 21:14:03,15,0,23.464,6559.2274598953,141.404204,0.671082,1.6483104202,0,0,-0.671082,4.8, 0.3, -4.1,0,0,1024,1024,1024,1024,4.1,-89.9,97,3.872,3.912,3.91,3.932,3.891,3.917,19.309,73.4,14,Waypoint,
36.7916153,-118.9555606,6560.2117118953,142.388456,0,1.56458666424,20300,2018-06-14 21:14:04,15,0,23.464,6560.2117118953,142.388456,0.671082,1.6483104202,0,0,-0.671082,4.8, 0.5, -4.3,0,0,1024,1024,1024,1024,4.2,-89.9,97,3.872,3.912,3.91,3.932,3.891,3.917,19.309,73.4,14,Waypoint,
36.7916153,-118.9555605,6561.1959638953,143.372708,0,1.58491474888,20400,2018-06-14 21:14:04,15,0,23.464,6561.1959638953,143.372708,0.671082,1.6483104202,0,0,-0.671082,5, 0.6, -4.1,0,0,1024,1024,1024,1024,4.2,-89.9,97,3.872,3.912,3.91,3.932,3.891,3.917,19.309,73.4,14,Waypoint,
36.7916153,-118.9555605,6563.1644678953,145.341212,0,1.58491474888,20600,2018-06-14 21:14:04,15,0,23.464,6563.1644678953,145.341212,0.671082,1.6483104202,0,0,-0.671082,5.3, 0.5, -3.4,0,0,1024,1024,1024,1024,4.2,-89.9,97,3.872,3.912,3.91,3.932,3.891,3.917,19.309,73.4,14,Waypoint,
36.7916153,-118.9555605,6564.1487198953,146.325464,0,1.58491474888,20700,2018-06-14 21:14:04,15,0,23.464,6564.1487198953,146.325464,0.671082,1.6483104202,0,0,-0.671082,5.3, 0.1, -3.3,0,0,1024,1024,1024,1024,4.2,-90,97,3.872,3.912,3.91,3.932,3.891,3.917,19.309,73.4,14,Waypoint,
36.7916152,-118.9555605,6565.1329718953,147.309716,0,1.5590879764,20800,2018-06-14 21:14:04,15,0,23.464,6565.1329718953,147.309716,0.671082,1.6483104202,0,0,-0.671082,5.2, -0.2, -3.4,0,0,1024,1024,1024,1024,4.2,-90,97,3.872,3.912,3.91,3.932,3.891,3.917,19.309,73.4,14,Waypoint,
36.7916152,-118.9555606,6566.1172238953,148.293968,0,1.53841540356,20900,2018-06-14 21:14:04,15,0,23.464,6566.1172238953,148.293968,0.671082,1.6483104202,0,0,-0.671082,5.2, -0.3, -3.4,0,0,1024,1024,1024,1024,4.2,-90,97,3.872,3.912,3.91,3.932,3.891,3.917,19.309,73.4,14,Waypoint,
36.7916152,-118.9555606,6567.1014758953,149.27822,0,1.53841540356,21000,2018-06-14 21:14:04,15,0,23.498,6567.1014758953,149.27822,0.671082,1.6483104202,0,0,-0.671082,5.1, -0.4, -3.2,0,0,1024,1024,1024,1024,4.2,-90,97,3.889,3.91,3.935,3.943,3.903,3.914,18.643,73.4,14,Waypoint,
36.7916151,-118.9555606,6567.7576438953,149.934388,0,1.51267721376,21100,2018-06-14 21:14:04,15,0,23.498,6567.7576438953,149.934388,0.671082,1.6483104202,0,0,-0.671082,5.1, -0.3, -3.1,0,0,1024,1024,1024,1024,4.2,-90,97,3.889,3.91,3.935,3.943,3.903,3.914,18.643,73.4,14,Waypoint,
36.7916151,-118.9555607,6568.7418958953,150.91864,0,1.49193574328,21200,2018-06-14 21:14:04,15,0,23.498,6568.7418958953,150.91864,0.671082,1.6483104202,0,0,-0.671082,5, -0.2, -3.2,0,0,1024,1024,1024,1024,4.1,-90,97,3.889,3.91,3.935,3.943,3.903,3.914,18.643,73.4,14,Waypoint,
36.7916151,-118.9555608,6569.7261478953,151.902892,0.223694,1.47148298672,21300,2018-06-14 21:14:05,15,0,23.498,6569.7261478953,151.902892,0.671082,1.6483104202,0,0,-0.671082,5, -0.2, -3.1,0,0,1024,1024,1024,1024,4.2,-89.9,97,3.889,3.91,3.935,3.943,3.903,3.914,18.643,73.4,14,Waypoint,
36.7916151,-118.9555608,6570.3823158953,152.55906,0.223694,1.47148298672,21400,2018-06-14 21:14:05,15,0,23.498,6570.3823158953,152.55906,0.671082,1.6483104202,0,0,-0.671082,5.1, -0.1, -2.4,0,0,1024,1024,1024,1024,4.2,-90,97,3.889,3.91,3.935,3.943,3.903,3.914,18.643,73.4,14,Waypoint,
36.7916151,-118.9555609,6571.3665678953,153.543312,0,1.4513287866,21500,2018-06-14 21:14:05,15,0,23.498,6571.3665678953,153.543312,0.671082,1.6483104202,0,0,-0.671082,5.2, -0.1, -2.3,0,0,1024,1024,1024,1024,4.1,-90,97,3.889,3.91,3.935,3.943,3.903,3.914,18.643,73.4,14,Waypoint,
36.7916151,-118.9555609,6572.3508198953,154.527564,0,1.4513287866,21600,2018-06-14 21:14:05,15,0,23.498,6572.3508198953,154.527564,0.671082,1.6483104202,0,0,-0.671082,5.2, -0.1, -2.8,0,0,1024,1024,1024,1024,4.2,-89.9,97,3.889,3.91,3.935,3.943,3.903,3.914,18.643,73.4,14,Waypoint,
36.7916152,-118.955561,6573.3350718953,155.511816,0,1.458661464,21700,2018-06-14 21:14:05,15,0,23.498,6573.3350718953,155.511816,0.671082,1.6483104202,0,0,-0.671082,5.1, 0, -3.1,0,0,1024,1024,1024,1024,4.2,-89.9,97,3.889,3.91,3.935,3.943,3.903,3.914,18.643,73.4,14,Waypoint,
36.7916152,-118.9555611,6574.3193238953,156.496068,0,1.43951448176,21800,2018-06-14 21:14:05,15,0,23.498,6574.3193238953,156.496068,0.671082,1.6483104202,0,0,-0.671082,5.1, 0.4, -2.9,0,0,1024,1024,1024,1024,4.2,-89.9,97,3.889,3.91,3.935,3.943,3.903,3.914,18.643,73.4,14,Waypoint,
36.7916152,-118.9555612,6574.9754918953,157.152236,0,1.42071198772,22000,2018-06-14 21:14:05,15,0,23.545,6574.9754918953,157.152236,0.671082,1.6483104202,0,0,-0.671082,5, 0.5, -2.8,0,0,1024,1024,1024,1024,4.2,-89.9,97,3.896,3.919,3.946,3.952,3.889,3.935,17.748,75.2,14,Waypoint,
36.7916152,-118.9555613,6575.9597438953,158.136488,0.223694,1.40226710524,22100,2018-06-14 21:14:05,15,0,23.545,6575.9597438953,158.136488,0.671082,1.6483104202,0,0,-0.671082,5, 0.2, -2.7,0,0,1024,1024,1024,1024,4.2,-89.9,97,3.896,3.919,3.946,3.952,3.889,3.935,17.748,75.2,14,Waypoint,
36.7916153,-118.9555617,6577.9282478953,160.104992,0.223694,1.36247051604,22200,2018-06-14 21:14:05,15,0,23.545,6577.9282478953,160.104992,0.671082,1.6483104202,0,0,-0.671082,5, 0, -2.2,0,0,1024,1024,1024,1024,4.2,-90,97,3.896,3.919,3.946,3.952,3.889,3.935,17.748,75.2,14,Waypoint,
36.7916153,-118.9555618,6578.9124998953,161.089244,0.223694,1.34639768088,22300,2018-06-14 21:14:06,15,0,23.545,6578.9124998953,161.089244,0.671082,1.6483104202,0,0,-0.671082,5.1, 0, -1.5,0,0,1024,1024,1024,1024,4.1,-89.9,97,3.896,3.919,3.946,3.952,3.889,3.935,17.748,75.2,14,Waypoint,
36.7916153,-118.955562,6579.8967518953,162.073496,0.223694,1.31561027832,22400,2018-06-14 21:14:06,15,0,23.545,6579.8967518953,162.073496,0.671082,1.6483104202,0,0,-0.671082,5.2, 0.2, -1.2,0,0,1024,1024,1024,1024,4.2,-89.9,97,3.896,3.919,3.946,3.952,3.889,3.935,17.748,75.2,14,Waypoint,
36.7916153,-118.9555623,6581.8652558953,164.042,0.223694,1.27307090688,22600,2018-06-14 21:14:06,15,0,23.545,6581.8652558953,164.042,0.671082,1.6483104202,0,0,-0.671082,5.5, -0.2, -1.2,0,0,1024,1024,1024,1024,4.2,-90,97,3.896,3.919,3.946,3.952,3.889,3.935,17.748,75.2,14,Waypoint,
36.7916152,-118.9555624,6582.8495078953,165.026252,0.223694,1.227280223,22700,2018-06-14 21:14:06,15,0,23.545,6582.8495078953,165.026252,0.671082,1.6483104202,0,0,-0.671082,5.6, -0.4, -1.3,0,0,1024,1024,1024,1024,4.2,-90,97,3.896,3.919,3.946,3.952,3.889,3.935,17.748,75.2,14,Waypoint,
36.7916153,-118.9555625,6583.8337598953,166.010504,0.223694,1.24732943624,22800,2018-06-14 21:14:06,15,0,23.545,6583.8337598953,166.010504,0.671082,1.6483104202,0,0,-0.671082,5.7, -0.3, -1.2,0,0,1024,1024,1024,1024,4.2,-90,97,3.896,3.919,3.946,3.952,3.889,3.935,17.748,75.2,14,Waypoint,
36.7916153,-118.9555627,6584.8180118953,166.994756,0.223694,1.22383862184,22900,2018-06-14 21:14:06,15,0,23.545,6584.8180118953,166.994756,0.671082,1.6483104202,0,0,-0.671082,5.6, -0.3, -1,0,0,1024,1024,1024,1024,4.2,-90,97,3.896,3.919,3.946,3.952,3.889,3.935,17.748,75.2,14,Waypoint,
36.7916153,-118.9555628,6585.8022638953,167.979008,0.223694,1.21297904144,23000,2018-06-14 21:14:06,15,0,23.385,6585.8022638953,167.979008,0.671082,1.6483104202,0,0,-0.671082,5.4, -0.3, -0.7,0,0,1024,1024,1024,1024,4.2,-90,97,3.858,3.901,3.905,3.935,3.869,3.902,19.285,75.2,14,Waypoint,
36.7916153,-118.9555629,6586.7865158953,168.96326,0,1.20272969728,23100,2018-06-14 21:14:06,15,0,23.385,6586.7865158953,168.96326,0.671082,1.6483104202,0,0,-0.671082,5.1, -0.2, -0.5,0,0,1024,1024,1024,1024,4.2,-89.9,97,3.858,3.901,3.905,3.935,3.869,3.902,19.285,75.2,14,Waypoint,
36.7916153,-118.955563,6587.7707678953,169.947512,0,1.1931102744,23200,2018-06-14 21:14:06,15,0,23.385,6587.7707678953,169.947512,0.671082,1.6483104202,0,0,-0.671082,5, 0, -0.8,0,0,1024,1024,1024,1024,4.2,-89.9,97,3.858,3.901,3.905,3.935,3.869,3.902,19.285,75.2,14,Waypoint,
36.7916154,-118.9555631,6588.7550198953,170.931764,0,1.2190289104,23300,2018-06-14 21:14:07,15,0,23.385,6588.7550198953,170.931764,0.671082,1.6483104202,0,0,-0.671082,5, 0, -1.2,0,0,1024,1024,1024,1024,4.2,-89.9,97,3.858,3.901,3.905,3.935,3.869,3.902,19.285,75.2,14,Waypoint,
36.7916154,-118.9555631,6589.7392718953,171.916016,0,1.2190289104,23400,2018-06-14 21:14:07,15,0,23.385,6589.7392718953,171.916016,0.671082,1.6483104202,0,0,-0.671082,4.9, 0.1, -1.4,0,0,1024,1024,1024,1024,4.2,-89.9,97,3.858,3.901,3.905,3.935,3.869,3.902,19.285,75.2,14,Waypoint,
36.7916154,-118.9555632,6590.7235238953,172.900268,0,1.21094820148,23500,2018-06-14 21:14:07,15,0,23.385,6590.7235238953,172.900268,0.671082,1.6483104202,0,0,-0.671082,4.9, 0.2, -1.2,0,0,1024,1024,1024,1024,4.2,-89.9,97,3.858,3.901,3.905,3.935,3.869,3.902,19.285,75.2,14,Waypoint,
36.7916154,-118.9555632,6591.7077758953,173.88452,0,1.21094820148,23600,2018-06-14 21:14:07,15,0,23.385,6591.7077758953,173.88452,0.671082,1.6483104202,0,0,-0.671082,4.9, 0.2, -1,0,0,1024,1024,1024,1024,4.1,-89.9,97,3.858,3.901,3.905,3.935,3.869,3.902,19.285,75.2,14,Waypoint,
36.7916154,-118.9555633,6593.0201118953,175.196856,0,1.20352366056,23700,2018-06-14 21:14:07,15,0,23.385,6593.0201118953,175.196856,0.671082,1.6483104202,0,0,-0.671082,5, 0.2, -1.1,0,0,1024,1024,1024,1024,4.2,-90,97,3.858,3.901,3.905,3.935,3.869,3.902,19.285,75.2,14,Waypoint,
36.7916155,-118.9555633,6594.0043638953,176.181108,0,1.23894689004,23800,2018-06-14 21:14:07,15,0,23.385,6594.0043638953,176.181108,0.671082,1.6483104202,0,0,-0.671082,5.1, -0.1, -0.7,0,0,1024,1024,1024,1024,4.2,-90,97,3.858,3.901,3.905,3.935,3.869,3.902,19.285,75.2,14,Waypoint,
36.7916155,-118.9555634,6594.9886158953,177.16536,0,1.23238521004,23900,2018-06-14 21:14:07,15,0,23.385,6594.9886158953,177.16536,0.671082,1.6483104202,0,0,-0.671082,5.2, -0.1, -0.5,0,0,1024,1024,1024,1024,4.1,-89.9,97,3.858,3.901,3.905,3.935,3.869,3.902,19.285,75.2,14,Waypoint,
36.7916155,-118.9555634,6595.9728678953,178.149612,0,1.23238521004,24000,2018-06-14 21:14:07,15,0,23.222,6595.9728678953,178.149612,0.671082,1.6483104202,0,0,-0.671082,5.1, 0, -0.8,0,0,1024,1024,1024,1024,4.2,-89.9,97,3.836,3.867,3.878,3.904,3.84,3.882,21.356,75.2,14,Waypoint,
36.7916155,-118.9555634,6597.9413718953,180.118116,0,1.23238521004,24200,2018-06-14 21:14:07,15,0,23.222,6597.9413718953,180.118116,0.671082,1.6483104202,0,0,-0.671082,5.1, 0.2, -1.2,0,0,1024,1024,1024,1024,4.2,-89.9,97,3.836,3.867,3.878,3.904,3.84,3.882,21.356,75.2,14,Waypoint,
36.7916155,-118.9555633,6598.9256238953,181.102368,0,1.23894689004,24400,2018-06-14 21:14:08,15,0,23.222,6598.9256238953,181.102368,0.671082,1.6483104202,0,0,-0.671082,5, 0.2, -1.5,0,0,1024,1024,1024,1024,4.1,-90,97,3.836,3.867,3.878,3.904,3.84,3.882,21.356,75.2,14,Waypoint,
36.7916155,-118.9555632,6601.2222118953,183.398956,0,1.2461614572,24500,2018-06-14 21:14:08,15,0,23.222,6601.2222118953,183.398956,0.671082,1.6483104202,0,0,-0.671082,4.8, 0.4, -2,0,0,1024,1024,1024,1024,4.2,-89.9,97,3.836,3.867,3.878,3.904,3.84,3.882,21.356,75.2,14,Waypoint,
36.7916155,-118.9555631,6601.8783798953,184.055124,0,1.25401578816,24600,2018-06-14 21:14:08,15,0,23.222,6601.8783798953,184.055124,0.671082,1.6483104202,0,0,-0.671082,4.8, 0.2, -1.8,0,0,1024,1024,1024,1024,4.2,-90,97,3.836,3.867,3.878,3.904,3.84,3.882,21.356,75.2,14,Waypoint,
36.7916156,-118.9555631,6602.8626318953,185.039376,0,1.28908468692,24800,2018-06-14 21:14:08,15,0,23.222,6602.8626318953,185.039376,0.671082,1.6483104202,0,0,-0.671082,4.8, 0.1, -1.5,0,0,1024,1024,1024,1024,4.1,-89.9,97,3.836,3.867,3.878,3.904,3.84,3.882,21.356,75.2,14,Waypoint,
36.7916156,-118.9555629,6604.8311358953,187.00788,0,1.30619098668,24900,2018-06-14 21:14:08,15,0,23.222,6604.8311358953,187.00788,0.671082,1.6483104202,0,0,-0.671082,4.7, 0.6, -1.7,0,0,1024,1024,1024,1024,4.2,-89.9,97,3.836,3.867,3.878,3.904,3.84,3.882,21.356,75.2,14,Waypoint,
36.7916156,-118.9555629,6605.8153878953,187.992132,0,1.30619098668,25000,2018-06-14 21:14:08,15,0,23.222,6605.8153878953,187.992132,0.671082,1.6483104202,0,0,-0.671082,4.8, 0.8, -1.7,0,0,1024,1024,1024,1024,4.2,-89.9,97,3.836,3.867,3.878,3.904,3.84,3.882,21.356,75.2,14,Waypoint,
36.7916156,-118.9555628,6607.1277238953,189.304468,0,1.3156332442,25100,2018-06-14 21:14:08,15,0,23.222,6607.1277238953,189.304468,0.671082,1.6483104202,0,0,-0.671082,5, 0.6, -1.9,0,0,1024,1024,1024,1024,4.2,-89.9,97,3.836,3.867,3.878,3.904,3.84,3.882,21.356,75.2,14,Waypoint,
36.7916156,-118.9555627,6608.1119758953,190.28872,0,1.32565292956,25200,2018-06-14 21:14:08,15,0,23.222,6608.1119758953,190.28872,0.671082,1.6483104202,0,0,-0.671082,5.2, 0.4, -2.2,0,0,1024,1024,1024,1024,4.1,-90,97,3.836,3.867,3.878,3.904,3.84,3.882,21.356,75.2,14,Waypoint,
36.7916156,-118.9555626,6610.0804798953,192.257224,0,1.33623363856,25400,2018-06-14 21:14:09,15,0,23.222,6610.0804798953,192.257224,0.671082,1.6483104202,0,0,-0.671082,5.4, 0.1, -2.3,0,0,1024,1024,1024,1024,4.2,-90,97,3.836,3.867,3.878,3.904,3.84,3.882,21.356,75.2,14,Waypoint,
36.7916156,-118.9555625,6611.0647318953,193.241476,0,1.34736880952,25500,2018-06-14 21:14:09,15,0,23.222,6611.0647318953,193.241476,0.671082,1.6483104202,0,0,-0.671082,5.4, 0.2, -2.7,0,0,1024,1024,1024,1024,4.2,-90,97,3.836,3.867,3.878,3.904,3.84,3.882,21.356,75.2,14,Waypoint,
36.7916156,-118.9555624,6612.0489838953,194.225728,0,1.3590387574,25600,2018-06-14 21:14:09,15,0,23.222,6612.0489838953,194.225728,0.671082,1.6483104202,0,0,-0.671082,5.3, 0.6, -2.6,0,0,1024,1024,1024,1024,4.2,-89.9,97,3.836,3.867,3.878,3.904,3.84,3.882,21.356,75.2,14,Waypoint,
36.7916157,-118.9555623,6613.0332358953,195.20998,0,1.40432747276,25700,2018-06-14 21:14:09,15,0,23.222,6613.0332358953,195.20998,0.671082,1.6483104202,0,0,-0.671082,5.2, 0.9, -2.6,0,0,1024,1024,1024,1024,4.2,-89.9,97,3.836,3.867,3.878,3.904,3.84,3.882,21.356,75.2,14,Waypoint,
36.7916157,-118.9555623,6614.3455718953,196.522316,0,1.40432747276,25800,2018-06-14 21:14:09,15,0,23.222,6614.3455718953,196.522316,0.671082,1.6483104202,0,0,-0.671082,5.1, 1, -2.7,0,0,1024,1024,1024,1024,4.2,-89.9,97,3.836,3.867,3.878,3.904,3.84,3.882,21.356,75.2,14,Waypoint,
36.7916157,-118.9555622,6615.3298238953,197.506568,0,1.4167323288,25900,2018-06-14 21:14:09,15,0,23.222,6615.3298238953,197.506568,0.671082,1.6483104202,0,0,-0.671082,5.1, 1, -2.7,0,0,1024,1024,1024,1024,4.1,-89.9,97,3.836,3.867,3.878,3.904,3.84,3.882,21.356,75.2,14,Waypoint,
36.7916157,-118.9555621,6616.3140758953,198.49082,0,1.42962931084,26000,2018-06-14 21:14:09,15,0,23.138,6616.3140758953,198.49082,0.671082,1.6483104202,0,0,-0.671082,5.1, 1, -2.7,0,0,1024,1024,1024,1024,4.2,-89.9,97,3.832,3.848,3.865,3.884,3.83,3.864,22.021,75.2,14,Waypoint,
36.7916157,-118.955562,6618.2825798953,200.459324,0,1.44300201468,26200,2018-06-14 21:14:09,15,0,23.138,6618.2825798953,200.459324,0.671082,1.6483104202,0,0,-0.671082,5, 0.8, -2.7,0,0,1024,1024,1024,1024,4.2,-89.9,97,3.832,3.848,3.865,3.884,3.83,3.864,22.021,75.2,14,Waypoint,
36.7916157,-118.9555619,6619.2668318953,201.443576,0,1.4568405978,26300,2018-06-14 21:14:10,15,0,23.138,6619.2668318953,201.443576,0.671082,1.6483104202,0,0,-0.671082,5, 0.9, -2.9,0,0,1024,1024,1024,1024,4.1,-89.9,97,3.832,3.848,3.865,3.884,3.83,3.864,22.021,75.2,14,Waypoint,
36.7916157,-118.9555619,6619.9229998953,202.099744,0,1.4568405978,26400,2018-06-14 21:14:10,15,0,23.138,6619.9229998953,202.099744,0.671082,1.6483104202,0,0,-0.671082,5.1, 0.9, -2.8,0,0,1024,1024,1024,1024,4.2,-89.9,97,3.832,3.848,3.865,3.884,3.83,3.864,22.021,75.2,14,Waypoint,
36.7916157,-118.9555619,6621.8915038953,204.068248,0,1.4568405978,26600,2018-06-14 21:14:10,15,0,23.138,6621.8915038953,204.068248,0.671082,1.6483104202,0,0,-0.671082,5.3, 0.9, -2.8,0,0,1024,1024,1024,1024,4.2,-89.9,97,3.832,3.848,3.865,3.884,3.83,3.864,22.021,75.2,14,Waypoint,
36.7916157,-118.9555619,6622.8757558953,205.0525,0,1.4568405978,26700,2018-06-14 21:14:10,15,0,23.138,6622.8757558953,205.0525,0.671082,1.6483104202,0,0,-0.671082,5.5, 0.8, -2.6,0,0,1024,1024,1024,1024,4.2,-90,97,3.832,3.848,3.865,3.884,3.83,3.864,22.021,75.2,14,Waypoint,
36.7916156,-118.9555621,6624.8442598953,207.021004,0,1.39713587148,27000,2018-06-14 21:14:10,15,0,23.014,6624.8442598953,207.021004,0.671082,1.6483104202,0,0,-0.671082,5.6, -0.2, -2.1,0,0,1024,1024,1024,1024,4.2,-90,97,3.804,3.825,3.858,3.879,3.809,3.864,22.407,75.2,14,Waypoint,
