Latitude, Longitude, Altitude (m), Time, Sats, Speed (m/s), Range (m), Battery (%), Roll (deg), Pitch (deg), Yaw (deg), Images, HD Signal (%), RC Signal (%), Battery Temp (C), Battery Voltage (mV), Battery Current (mA), Battery Energy (mAh), Battery Capacity (mAh), Battery Discharges, flyState, timestamp (Unix), LastUpdate (ms), radioChannel, Rc_elevator, Rc_aileron, Rc_throttle, Rc_rudder, Rc_gyro, Dronetype, Battery_Cell1 (mV), Battery_Cell2 (mV), Battery_Cell3 (mV), Battery_Cell4 (mV), Battery_Cell5 (mV), Battery_Cell6 (mV), Video, isFlying, elapsedTime (ms), gimbalPitch (deg), gimbalRoll (deg), gimbalYaw (deg), VelocityX (m/s), VelocityY (m/s), VelocityZ (m/s), GroundSmear (cm), App Version, Aircraft Name, Aircraft Firmware, Aircraft Serial Number, Battery Serial Number, Battery Lifetime (%), App_Tip, App_Warning, CurrentFlightStartingIndex, CurrentFlightLastVisitedWaypoint, PreviousFlightEndingWaypointIndex
36.7915743, -118.9555667, -0.100, 14:34:06.180, 13, 0.20, 0.06, 95, 0.000, -1.100, 1.700, 1439, 100, 100, 24, 25300, -3864, 5180, 5453, 13, 11, 1529012046.181, 77, 0, 1024, 1024, 1024, 1024, 0, 6, 4269, 4265, 4256, 4267, 4275, 4267, 0, 1, 3200, -89.900, 0.000, 2.800, 0.200, 0.000, -0.100, 0.0, MapPilot_2.8.1_04242018, Dendroctonus I, 1.3.1.00, 041DDC1887, 1058163200445, 97, DJI_0435.jpg, Starting Mission from Lat/Long: 36.79157/-118.95557 Camera: Zenmuse X3 - Overlap: 90/90 - Active Connection: No, 41, 41, 41
36.7915748, -118.9555667, -0.100, 14:34:06.282, 15, 0.30, 0.11, 95, 0.200, 0.700, 1.600, 1439, 100, 100, 24, 25300, -3864, 5180, 5453, 13, 11, 1529012046.283, 1, 0, 1024, 1024, 1024, 1024, 0, 6, 4269, 4265, 4256, 4267, 4275, 4267, 0, 1, 3302, -89.900, 0.000, 2.800, 0.300, 0.000, -0.300, 0.0, , , , , , 97, , , 41, 41, 41
36.7915748, -118.9555667, -0.100, 14:34:06.381, 15, 0.30, 0.11, 95, 0.200, 0.700, 1.600, 1439, 100, 100, 24, 25300, -3864, 5180, 5453, 13, 11, 1529012046.381, 100, 0, 1024, 1024, 1024, 1024, 0, 6, 4269, 4265, 4256, 4267, 4275, 4267, 0, 1, 3401, -89.900, 0.000, 2.800, 0.300, 0.000, -0.300, 0.0, , , , , , 97, , , 41, 41, 41
36.7915751, -118.9555668, 0.000, 14:34:06.480, 12, 0.20, 0.14, 95, 0.400, 1.800, 1.700, 1439, 100, 100, 24, 25300, -3864, 5180, 5453, 13, 11, 1529012046.480, 65, 0, 1024, 1024, 1024, 1024, 0, 6, 4269, 4265, 4256, 4267, 4275, 4267, 0, 1, 3500, -89.900, 0.000, 2.800, 0.200, 0.000, -0.400, 0.0, , , , , , 97, , , 41, 41, 41
36.7915753, -118.9555669, 0.000, 14:34:06.581, 12, 0.20, 0.17, 95, 0.400, 2.900, 2.000, 1439, 100, 100, 24, 25300, -3864, 5180, 5453, 13, 11, 1529012046.581, 66, 0, 1024, 1024, 1024, 1024, 0, 6, 4269, 4265, 4256, 4267, 4275, 4267, 0, 1, 3601, -89.900, 0.000, 2.900, 0.200, 0.000, -0.400, 0.0, , , , , , 97, , , 41, 41, 41
36.7915755, -118.9555670, 0.000, 14:34:06.681, 13, 0.20, 0.20, 95, 0.800, 3.200, 2.200, 1439, 100, 100, 24, 25300, -3864, 5180, 5453, 13, 11, 1529012046.681, 61, 0, 1024, 1024, 1024, 1024, 0, 6, 4269, 4265, 4256, 4267, 4275, 4267, 0, 1, 3700, -89.900, 0.000, 2.800, 0.200, 0.000, -0.300, 0.0, , , , , , 97, , , 41, 41, 41
36.7915757, -118.9555671, 0.000, 14:34:06.781, 13, 0.10, 0.22, 95, 1.400, 2.700, 2.300, 1439, 100, 100, 24, 25300, -3864, 5180, 5453, 13, 11, 1529012046.782, 67, 0, 1024, 1024, 1024, 1024, 0, 6, 4269, 4265, 4256, 4267, 4275, 4267, 0, 1, 3801, -89.900, 0.000, 2.800, 0.100, 0.000, -0.300, 0.0, , , , , , 97, , , 41, 41, 41
36.7915759, -118.9555672, 0.000, 14:34:06.881, 14, 0.10, 0.24, 95, 1.500, 2.300, 2.300, 1439, 100, 100, 24, 25300, -3864, 5180, 5453, 13, 11, 1529012046.881, 71, 0, 1024, 1024, 1024, 1024, 0, 6, 4269, 4265, 4256, 4267, 4275, 4267, 0, 1, 3901, -90.000, 0.000, 2.800, 0.100, 0.000, -0.400, 0.0, , , , , , 97, , , 41, 41, 41
36.7915760, -118.9555673, 0.100, 14:34:06.981, 14, 0.10, 0.25, 95, 1.400, 1.700, 2.200, 1439, 100, 100, 24, 24952, -6648, 5180, 5453, 13, 11, 1529012046.981, 61, 0, 1024, 1024, 1024, 1024, 0, 6, 4104, 4081, 4087, 4077, 4091, 4061, 0, 1, 4001, -90.000, 0.000, 2.800, 0.100, 0.000, -0.400, 0.0, , , , , , 97, , , 41, 41, 41
36.7915761, -118.9555673, 0.100, 14:34:07.081, 14, 0.10, 0.27, 95, 1.100, 1.200, 2.100, 1439, 100, 100, 24, 24952, -6648, 5180, 5453, 13, 11, 1529012047.081, 39, 0, 1024, 1024, 1024, 1024, 0, 6, 4104, 4081, 4087, 4077, 4091, 4061, 0, 1, 4100, -89.900, 0.000, 2.800, 0.100, 0.000, -0.300, 0.0, , , , , , 97, , , 41, 41, 41
36.7915762, -118.9555674, 0.200, 14:34:07.181, 14, 0.10, 0.27, 95, 0.800, 1.000, 2.000, 1439, 100, 100, 24, 24952, -6648, 5180, 5453, 13, 11, 1529012047.181, 65, 0, 1024, 1024, 1024, 1024, 0, 6, 4104, 4081, 4087, 4077, 4091, 4061, 0, 1, 4200, -90.000, 0.000, 2.800, 0.100, 0.000, -0.400, 0.0, , , , , , 97, , , 41, 41, 41
36.7915764, -118.9555675, 0.300, 14:34:07.280, 14, 0.10, 0.31, 95, 0.800, 0.800, 1.900, 1439, 100, 100, 24, 24952, -6648, 5180, 5453, 13, 11, 1529012047.281, 32, 0, 1024, 1024, 1024, 1024, 0, 6, 4104, 4081, 4087, 4077, 4091, 4061, 0, 1, 4300, -90.000, 0.000, 2.800, 0.100, 0.000, -0.400, 0.0, , , , , , 97, , , 41, 41, 41
36.7915766, -118.9555676, 0.300, 14:34:07.381, 14, 0.10, 0.32, 95, 0.900, 1.100, 2.000, 1439, 100, 100, 24, 24952, -6648, 5180, 5453, 13, 11, 1529012047.381, 48, 0, 1024, 1024, 1024, 1024, 0, 6, 4104, 4081, 4087, 4077, 4091, 4061, 0, 1, 4400, -89.900, 0.000, 2.800, 0.100, 0.000, -0.300, 0.0, , , , , , 97, , , 41, 41, 41
36.7915766, -118.9555676, 0.300, 14:34:07.480, 14, 0.00, 0.33, 95, 0.900, 1.300, 2.100, 1439, 100, 100, 24, 24952, -6648, 5180, 5453, 13, 11, 1529012047.481, 27, 0, 1024, 1024, 1024, 1024, 0, 6, 4104, 4081, 4087, 4077, 4091, 4061, 0, 1, 4500, -89.900, 0.000, 2.800, 0.000, 0.000, -0.400, 0.0, , , , , , 97, , , 41, 41, 41
36.7915768, -118.9555677, 0.400, 14:34:07.580, 14, 0.00, 0.34, 95, 0.900, 1.300, 2.100, 1439, 100, 100, 24, 24952, -6648, 5180, 5453, 13, 11, 1529012047.581, 25, 0, 1024, 1024, 1024, 1024, 0, 6, 4104, 4081, 4087, 4077, 4091, 4061, 0, 1, 4600, -90.000, 0.000, 2.800, 0.000, 0.000, -0.400, 0.0, , , , , , 97, , , 41, 41, 41
36.7915769, -118.9555677, 0.400, 14:34:07.681, 14, 0.10, 0.36, 95, 0.900, 1.500, 2.100, 1439, 100, 100, 24, 24952, -6648, 5180, 5453, 13, 11, 1529012047.681, 39, 0, 1024, 1024, 1024, 1024, 0, 6, 4104, 4081, 4087, 4077, 4091, 4061, 0, 1, 4700, -89.900, 0.000, 2.800, 0.100, 0.000, -0.400, 0.0, , , , , , 97, , , 41, 41, 41
36.7915770, -118.9555678, 0.500, 14:34:07.783, 14, 0.00, 0.38, 95, 0.800, 1.600, 2.100, 1439, 100, 100, 24, 24952, -6648, 5180, 5453, 13, 11, 1529012047.784, 2, 0, 1024, 1024, 1024, 1024, 0, 6, 4104, 4081, 4087, 4077, 4091, 4061, 0, 1, 4803, -89.900, 0.000, 2.800, 0.000, 0.000, -0.500, 0.0, , , , , , 97, , , 41, 41, 41
36.7915771, -118.9555678, 0.500, 14:34:07.880, 14, 0.00, 0.38, 95, 0.800, 1.700, 2.000, 1439, 100, 100, 24, 24952, -6648, 5180, 5453, 13, 11, 1529012047.880, 13, 0, 1024, 1024, 1024, 1024, 0, 6, 4104, 4081, 4087, 4077, 4091, 4061, 0, 1, 4900, -89.900, 0.000, 2.900, 0.000, 0.000, -0.500, 0.0, , , , , , 97, , , 41, 41, 41
36.7915772, -118.9555679, 0.600, 14:34:07.980, 15, 0.00, 0.39, 95, 0.900, 2.000, 2.000, 1439, 100, 100, 24, 23950, -17379, 5180, 5453, 13, 11, 1529012047.980, 19, 0, 1024, 1024, 1024, 1024, 0, 6, 3939, 3922, 3961, 3974, 4009, 3984, 0, 1, 5000, -89.900, 0.000, 2.800, 0.000, 0.000, -0.500, 0.0, , , , , , 97, , , 41, 41, 41
36.7915772, -118.9555679, 0.600, 14:34:08.080, 15, 0.00, 0.40, 95, 1.000, 2.200, 2.000, 1439, 100, 100, 24, 23950, -17379, 5180, 5453, 13, 11, 1529012048.080, 11, 0, 1024, 1024, 1024, 1024, 0, 6, 3939, 3922, 3961, 3974, 4009, 3984, 0, 1, 5100, -89.900, 0.000, 2.800, 0.000, 0.000, -0.500, 0.0, , , , , , 97, , , 41, 41, 41
36.7915773, -118.9555680, 0.700, 14:34:08.181, 15, 0.00, 0.41, 95, 1.000, 2.000, 2.000, 1439, 100, 100, 24, 23950, -17379, 5180, 5453, 13, 11, 1529012048.181, 15, 0, 1024, 1024, 1024, 1024, 0, 6, 3939, 3922, 3961, 3974, 4009, 3984, 0, 1, 5200, -89.900, 0.000, 2.800, 0.000, 0.000, -0.400, 0.0, , , , , , 97, , , 41, 41, 41
36.7915774, -118.9555681, 0.700, 14:34:08.281, 15, 0.00, 0.42, 95, 1.300, 2.000, 1.900, 1439, 100, 100, 24, 23950, -17379, 5180, 5453, 13, 11, 1529012048.281, 3, 0, 1024, 1024, 1024, 1024, 0, 6, 3939, 3922, 3961, 3974, 4009, 3984, 0, 1, 5300, -89.900, 0.000, 2.800, 0.000, 0.000, -0.500, 0.0, , , , , , 97, , , 41, 41, 41
36.7915774, -118.9555681, 0.700, 14:34:08.380, 15, 0.00, 0.42, 95, 1.300, 2.000, 1.900, 1439, 100, 100, 24, 23950, -17379, 5180, 5453, 13, 11, 1529012048.381, 103, 0, 1024, 1024, 1024, 1024, 0, 6, 3939, 3922, 3961, 3974, 4009, 3984, 0, 1, 5400, -89.900, 0.000, 2.800, 0.000, 0.000, -0.500, 0.0, , , , , , 97, , , 41, 41, 41
36.7915774, -118.9555681, 0.800, 14:34:08.480, 14, 0.00, 0.42, 95, 1.600, 2.100, 1.800, 1439, 100, 100, 24, 23950, -17379, 5180, 5453, 13, 11, 1529012048.480, 83, 0, 1024, 1024, 1024, 1024, 0, 6, 3939, 3922, 3961, 3974, 4009, 3984, 0, 1, 5500, -89.900, 0.000, 2.800, 0.000, 0.000, -0.400, 0.0, , , , , , 97, , , 41, 41, 41
36.7915774, -118.9555682, 0.800, 14:34:08.580, 14, 0.00, 0.42, 95, 1.600, 2.400, 1.500, 1439, 100, 100, 24, 23950, -17379, 5180, 5453, 13, 11, 1529012048.580, 86, 0, 1024, 1024, 1024, 1024, 0, 6, 3939, 3922, 3961, 3974, 4009, 3984, 0, 1, 5600, -89.900, 0.000, 2.800, 0.000, 0.000, -0.400, 0.0, , , , , , 97, , , 41, 41, 41
36.7915774, -118.9555681, 0.900, 14:34:08.680, 14, 0.00, 0.42, 95, 1.800, 2.500, 1.300, 1439, 100, 100, 24, 23950, -17379, 5180, 5453, 13, 6, 1529012048.680, 91, 0, 1024, 1024, 1024, 1024, 0, 6, 3939, 3922, 3961, 3974, 4009, 3984, 0, 1, 5700, -89.900, 0.000, 2.800, 0.000, 0.000, -0.400, 0.0, , , , , , 97, , , 41, 41, 41
36.7915774, -118.9555680, 0.900, 14:34:08.781, 14, 0.00, 0.42, 95, 1.600, 2.400, 1.200, 1439, 100, 100, 24, 23950, -17379, 5180, 5453, 13, 14, 1529012048.781, 81, 0, 1024, 1024, 1024, 1024, 0, 6, 3939, 3922, 3961, 3974, 4009, 3984, 0, 1, 5801, -89.900, 0.000, 2.800, 0.000, 0.000, -0.300, 0.0, , , , , , 97, , , 41, 41, 41
36.7915773, -118.9555678, 0.900, 14:34:08.881, 15, 0.00, 0.41, 95, 0.600, 1.400, 1.200, 1439, 100, 100, 24, 23950, -17379, 5180, 5453, 13, 14, 1529012048.881, 86, 0, 1024, 1024, 1024, 1024, 0, 6, 3939, 3922, 3961, 3974, 4009, 3984, 0, 1, 5900, -90.000, 0.000, 2.800, 0.000, 0.000, -0.100, 0.0, , , , , , 97, , , 41, 41, 41
36.7915773, -118.9555678, 0.900, 14:34:08.981, 15, 0.00, 0.40, 95, -0.400, 0.400, 1.300, 1439, 100, 100, 24, 23608, -17345, 5180, 5453, 13, 14, 1529012048.981, 87, 0, 1024, 1024, 1024, 1024, 0, 6, 3932, 3918, 3906, 3938, 3969, 3934, 0, 1, 6000, -90.000, 0.000, 2.800, 0.000, 0.000, -0.200, 0.0, , , , , , 97, , , 41, 41, 41
36.7915773, -118.9555678, 1.000, 14:34:09.080, 15, 0.00, 0.40, 95, -0.800, 0.100, 1.500, 1439, 100, 100, 24, 23608, -17345, 5180, 5453, 13, 14, 1529012049.080, 68, 0, 1024, 1024, 1024, 1024, 0, 6, 3932, 3918, 3906, 3938, 3969, 3934, 0, 1, 6100, -89.900, 0.000, 2.800, 0.000, 0.000, -0.200, 0.0, , , , , , 97, , , 41, 41, 41
36.7915772, -118.9555677, 1.000, 14:34:09.181, 15, 0.00, 0.40, 95, -0.700, 0.400, 1.500, 1439, 100, 100, 24, 23608, -17345, 5180, 5453, 13, 14, 1529012049.181, 70, 0, 1024, 1024, 1024, 1024, 0, 6, 3932, 3918, 3906, 3938, 3969, 3934, 0, 1, 6200, -89.900, 0.000, 2.700, 0.000, 0.000, -0.400, 0.0, , , , , , 97, , , 41, 41, 41
36.7915772, -118.9555677, 1.000, 14:34:09.281, 15, 0.00, 0.39, 95, -0.300, 0.900, 1.500, 1439, 100, 100, 24, 23608, -17345, 5180, 5453, 13, 14, 1529012049.281, 59, 0, 1024, 1024, 1024, 1024, 0, 6, 3932, 3918, 3906, 3938, 3969, 3934, 0, 1, 6300, -89.900, 0.000, 2.700, 0.000, 0.000, -0.500, 0.0, , , , , , 97, , , 41, 41, 41
36.7915772, -118.9555678, 1.100, 14:34:09.380, 15, 0.00, 0.39, 95, 0.400, 1.100, 1.400, 1439, 100, 100, 24, 23608, -17345, 5180, 5453, 13, 14, 1529012049.380, 49, 0, 1024, 1024, 1024, 1024, 0, 6, 3932, 3918, 3906, 3938, 3969, 3934, 0, 1, 6400, -89.900, 0.000, 2.600, 0.000, 0.000, -0.600, 0.0, , , , , , 97, , , 41, 41, 41
36.7915771, -118.9555680, 1.300, 14:34:09.480, 14, 0.00, 0.39, 95, 1.200, 1.300, 1.000, 1439, 100, 100, 24, 23608, -17345, 5180, 5453, 13, 14, 1529012049.480, 36, 0, 1024, 1024, 1024, 1024, 0, 6, 3932, 3918, 3906, 3938, 3969, 3934, 0, 1, 6500, -89.900, 0.000, 2.600, 0.000, 0.000, -1.000, 0.0, , , , , , 97, , , 41, 41, 41
36.7915771, -118.9555680, 1.300, 14:34:09.580, 14, 0.00, 0.39, 95, 1.200, 1.300, 1.000, 1439, 100, 100, 24, 23608, -17345, 5180, 5453, 13, 14, 1529012049.580, 136, 0, 1024, 1024, 1024, 1024, 0, 6, 3932, 3918, 3906, 3938, 3969, 3934, 0, 1, 6600, -90.000, 0.000, 2.600, 0.000, 0.000, -1.000, 0.0, , , , , , 97, , , 41, 41, 41
36.7915770, -118.9555681, 1.400, 14:34:09.680, 14, 0.00, 0.39, 95, 1.400, 0.900, 0.600, 1439, 100, 100, 24, 23608, -17345, 5180, 5453, 13, 14, 1529012049.680, 45, 0, 1024, 1024, 1024, 1024, 0, 6, 3932, 3918, 3906, 3938, 3969, 3934, 0, 1, 6700, -90.000, 0.000, 2.500, 0.000, 0.000, -1.100, 0.0, , , , , , 97, , , 41, 41, 41
36.7915770, -118.9555683, 1.700, 14:34:09.781, 15, 0.00, 0.38, 95, 1.600, 0.100, 0.200, 1439, 100, 100, 24, 23608, -17345, 5180, 5453, 13, 14, 1529012049.781, 14, 0, 1024, 1024, 1024, 1024, 0, 6, 3932, 3918, 3906, 3938, 3969, 3934, 0, 1, 6800, -90.000, 0.000, 2.500, 0.000, 0.000, -1.600, 0.0, , , , , , 97, , , 41, 41, 41
36.7915770, -118.9555684, 1.800, 14:34:09.880, 15, 0.00, 0.40, 95, 1.200, 0.300, 0.200, 1439, 100, 100, 24, 23608, -17345, 5180, 5453, 13, 14, 1529012049.880, 15, 0, 1024, 1024, 1024, 1024, 0, 6, 3932, 3918, 3906, 3938, 3969, 3934, 0, 1, 6900, -90.000, 0.000, 2.400, 0.000, 0.000, -1.800, 0.0, , , , , , 97, , , 41, 41, 41
36.7915771, -118.9555685, 2.000, 14:34:09.981, 13, 0.00, 0.40, 95, 0.600, 0.600, 0.500, 1439, 100, 100, 24, 23317, -19495, 5180, 5453, 13, 14, 1529012049.981, 32, 0, 1024, 1024, 1024, 1024, 0, 6, 3932, 3918, 3906, 3938, 3969, 3934, 0, 1, 7000, -89.900, 0.000, 2.400, 0.000, 0.000, -2.100, 0.0, , , , , , 97, , , 41, 41, 41
36.7915771, -118.9555686, 2.300, 14:34:10.080, 13, 0.00, 0.41, 95, 0.500, 1.100, 0.700, 1439, 100, 100, 24, 23317, -19495, 5180, 5453, 13, 14, 1529012050.080, 19, 0, 1024, 1024, 1024, 1024, 0, 6, 3932, 3918, 3906, 3938, 3969, 3934, 0, 1, 7100, -89.900, 0.000, 2.400, 0.000, 0.000, -2.300, 0.0, , , , , , 97, , , 41, 41, 41
36.7915771, -118.9555687, 2.500, 14:34:10.180, 14, 0.00, 0.41, 95, 0.800, 0.800, 1.000, 1439, 100, 100, 24, 23317, -19495, 5180, 5453, 13, 14, 1529012050.180, 10, 0, 1024, 1024, 1024, 1024, 0, 6, 3932, 3918, 3906, 3938, 3969, 3934, 0, 1, 7200, -90.000, 0.000, 2.300, 0.000, 0.000, -2.600, 0.0, , , , , , 97, , , 41, 41, 41
36.7915770, -118.9555688, 2.800, 14:34:10.280, 14, 0.00, 0.41, 95, 0.900, 0.500, 1.300, 1439, 100, 100, 24, 23317, -19495, 5180, 5453, 13, 14, 1529012050.280, 15, 0, 1024, 1024, 1024, 1024, 0, 6, 3932, 3918, 3906, 3938, 3969, 3934, 0, 1, 7300, -90.000, 0.000, 2.300, 0.000, 0.000, -2.800, 0.0, , , , , , 97, , , 41, 41, 41
36.7915770, -118.9555689, 3.100, 14:34:10.381, 13, 0.00, 0.41, 95, 0.900, 0.200, 1.700, 1439, 100, 100, 24, 23317, -19495, 5180, 5453, 13, 14, 1529012050.381, 16, 0, 1024, 1024, 1024, 1024, 0, 6, 3932, 3918, 3906, 3938, 3969, 3934, 0, 1, 7400, -90.000, 0.000, 2.200, 0.000, 0.000, -3.000, 0.0, , , , , , 97, , , 41, 41, 41
36.7915769, -118.9555690, 3.400, 14:34:10.480, 13, 0.00, 0.40, 95, 1.000, 0.100, 1.900, 1439, 100, 100, 24, 23317, -19495, 5180, 5453, 13, 14, 1529012050.481, 16, 0, 1024, 1024, 1024, 1024, 0, 6, 3856, 3856, 3805, 3835, 3883, 3879, 0, 1, 7500, -90.000, 0.000, 2.200, 0.000, 0.000, -3.000, 0.0, , , , , , 97, , , 41, 41, 41
36.7915768, -118.9555690, 3.700, 14:34:10.581, 12, 0.00, 0.40, 95, 1.200, 0.000, 1.800, 1439, 100, 100, 24, 23317, -19495, 5180, 5453, 13, 14, 1529012050.581, 8, 0, 1024, 1024, 1024, 1024, 0, 6, 3856, 3856, 3805, 3835, 3883, 3879, 0, 1, 7600, -90.000, 0.000, 2.200, 0.000, 0.000, -3.200, 0.0, , , , , , 97, , , 41, 41, 41
36.7915768, -118.9555689, 4.000, 14:34:10.680, 12, 0.00, 0.39, 95, 1.500, 0.300, 1.500, 1439, 100, 100, 24, 23317, -19495, 5180, 5453, 13, 14, 1529012050.680, 10, 0, 1024, 1024, 1024, 1024, 0, 6, 3856, 3856, 3805, 3835, 3883, 3879, 0, 1, 7700, -89.900, 0.000, 2.100, 0.000, 0.000, -3.200, 0.0, , , , , , 97, , , 41, 41, 41
36.7915768, -118.9555689, 4.000, 14:34:10.780, 12, 0.00, 0.39, 95, 1.500, 0.300, 1.500, 1439, 100, 100, 24, 23317, -19495, 5180, 5453, 13, 14, 1529012050.780, 110, 0, 1024, 1024, 1024, 1024, 0, 6, 3856, 3856, 3805, 3835, 3883, 3879, 0, 1, 7800, -89.900, 0.000, 2.100, 0.000, 0.000, -3.200, 0.0, , , , , , 97, , , 41, 41, 41
36.7915768, -118.9555688, 4.400, 14:34:10.880, 12, 0.00, 0.39, 95, 1.600, 0.500, 1.100, 1439, 100, 100, 24, 23317, -19495, 5180, 5453, 13, 14, 1529012050.880, 88, 0, 1024, 1024, 1024, 1024, 0, 6, 3856, 3856, 3805, 3835, 3883, 3879, 0, 1, 7900, -89.900, 0.000, 2.100, 0.000, 0.000, -3.300, 0.0, , , , , , 97, , , 41, 41, 41
36.7915769, -118.9555687, 4.800, 14:34:10.980, 12, 0.10, 0.40, 95, 1.500, 0.900, 0.700, 1439, 100, 100, 24, 23317, -19495, 5180, 5453, 13, 14, 1529012050.980, 90, 0, 1024, 1024, 1024, 1024, 0, 6, 3856, 3856, 3805, 3835, 3883, 3879, 0, 1, 8000, -89.900, 0.000, 2.100, 0.100, 0.000, -3.400, 0.0, , , , , , 97, , , 41, 41, 41
36.7915770, -118.9555684, 5.100, 14:34:11.081, 12, 0.10, 0.39, 95, 1.000, 1.400, 0.400, 1439, 100, 100, 24, 23317, -19495, 5180, 5453, 13, 14, 1529012051.081, 60, 0, 1024, 1024, 1024, 1024, 0, 6, 3856, 3856, 3805, 3835, 3883, 3879, 0, 1, 8100, -89.900, 0.000, 2.000, 0.100, 0.000, -3.300, 0.0, , , , , , 97, , , 41, 41, 41
36.7915769, -118.9555680, 5.500, 14:34:11.180, 12, 0.10, 0.36, 95, 0.400, 1.500, 0.200, 1439, 100, 100, 24, 23317, -19495, 5180, 5453, 13, 14, 1529012051.180, 72, 0, 1024, 1024, 1024, 1024, 0, 6, 3856, 3856, 3805, 3835, 3883, 3879, 0, 1, 8200, -89.900, 0.000, 2.000, 0.000, 0.100, -3.300, 0.0, , , , , , 97, , , 41, 41, 41
36.7915768, -118.9555677, 5.800, 14:34:11.280, 14, 0.10, 0.35, 95, -1.100, 1.500, 0.100, 1439, 100, 100, 24, 23317, -19495, 5180, 5453, 13, 14, 1529012051.280, 74, 0, 1024, 1024, 1024, 1024, 0, 6, 3856, 3856, 3805, 3835, 3883, 3879, 0, 1, 8300, -89.900, 0.000, 2.000, 0.000, 0.100, -3.200, 0.0, , , , , , 97, , , 41, 41, 41
36.7915768, -118.9555675, 6.100, 14:34:11.381, 14, 0.10, 0.34, 95, -2.100, 1.000, 0.000, 1439, 100, 100, 24, 23317, -19495, 5180, 5453, 13, 14, 1529012051.381, 79, 0, 1024, 1024, 1024, 1024, 0, 6, 3856, 3856, 3805, 3835, 3883, 3879, 0, 1, 8400, -89.900, 0.000, 1.900, 0.000, 0.100, -3.200, 0.0, , , , , , 97, , , 41, 41, 41
36.7915768, -118.9555673, 6.500, 14:34:11.481, 13, 0.10, 0.34, 95, -2.300, 1.100, -0.100, 1439, 100, 100, 24, 22681, -26179, 5180, 5453, 13, 14, 1529012051.481, 79, 0, 1024, 1024, 1024, 1024, 0, 6, 3784, 3769, 3774, 3772, 3818, 3818, 0, 1, 8500, -89.900, 0.000, 1.900, 0.100, 0.000, -3.300, 0.0, , , , , , 97, , , 41, 41, 41
36.7915769, -118.9555671, 6.800, 14:34:11.580, 13, 0.10, 0.34, 95, -1.600, 1.400, 0.000, 1439, 100, 100, 24, 22681, -26179, 5180, 5453, 13, 14, 1529012051.580, 68, 0, 1024, 1024, 1024, 1024, 0, 6, 3784, 3769, 3774, 3772, 3818, 3818, 0, 1, 8600, -89.900, 0.000, 1.900, 0.100, 0.000, -3.300, 0.0, , , , , , 97, , , 41, 41, 41
36.7915769, -118.9555670, 7.200, 14:34:11.680, 11, 0.10, 0.35, 95, -1.000, 2.200, 0.000, 1439, 100, 100, 24, 22681, -26179, 5180, 5453, 13, 14, 1529012051.681, 72, 0, 1024, 1024, 1024, 1024, 0, 6, 3784, 3769, 3774, 3772, 3818, 3818, 0, 1, 8700, -89.900, 0.000, 1.900, 0.100, 0.000, -3.300, 0.0, , , , , , 97, , , 41, 41, 41
36.7915771, -118.9555668, 7.500, 14:34:11.781, 11, 0.10, 0.36, 95, -0.500, 3.200, 0.200, 1439, 100, 100, 24, 22681, -26179, 5180, 5453, 13, 14, 1529012051.781, 53, 0, 1024, 1024, 1024, 1024, 0, 6, 3784, 3769, 3774, 3772, 3818, 3818, 0, 1, 8800, -89.900, 0.000, 1.800, 0.100, 0.000, -3.200, 0.0, , , , , , 97, , , 41, 41, 41
36.7915771, -118.9555667, 7.800, 14:34:11.880, 13, 0.10, 0.37, 95, -0.300, 3.800, 0.300, 1439, 100, 100, 24, 22681, -26179, 5180, 5453, 13, 14, 1529012051.880, 56, 0, 1024, 1024, 1024, 1024, 0, 6, 3784, 3769, 3774, 3772, 3818, 3818, 0, 1, 8900, -89.900, 0.000, 1.800, 0.100, 0.000, -3.200, 0.0, , , , , , 97, , , 41, 41, 41
36.7915772, -118.9555666, 8.200, 14:34:11.980, 13, 0.10, 0.38, 95, -0.300, 3.900, 0.400, 1439, 100, 100, 24, 22681, -26179, 5180, 5453, 13, 14, 1529012051.980, 32, 0, 1024, 1024, 1024, 1024, 0, 6, 3784, 3769, 3774, 3772, 3818, 3818, 0, 1, 9000, -89.900, 0.000, 1.800, 0.100, 0.000, -3.100, 0.0, , , , , , 97, , , 41, 41, 41
36.7915772, -118.9555666, 8.500, 14:34:12.080, 12, 0.00, 0.38, 95, -0.600, 3.400, 0.500, 1439, 100, 100, 24, 22681, -26179, 5180, 5453, 13, 14, 1529012052.080, 39, 0, 1024, 1024, 1024, 1024, 0, 6, 3784, 3769, 3774, 3772, 3818, 3818, 0, 1, 9100, -89.900, 0.000, 1.800, 0.000, 0.000, -3.100, 0.0, , , , , , 97, , , 41, 41, 41
36.7915773, -118.9555668, 9.100, 14:34:12.180, 14, 0.00, 0.39, 95, -0.200, 2.900, 0.400, 1439, 100, 100, 24, 22681, -26179, 5180, 5453, 13, 14, 1529012052.180, 35, 0, 1024, 1024, 1024, 1024, 0, 6, 3784, 3769, 3774, 3772, 3818, 3818, 0, 1, 9200, -89.900, 0.000, 1.700, 0.000, 0.000, -3.100, 0.0, , , , , , 97, , , 41, 41, 41
36.7915773, -118.9555669, 9.400, 14:34:12.280, 14, 0.00, 0.39, 95, 0.000, 2.900, 0.300, 1439, 100, 100, 24, 22681, -26179, 5180, 5453, 13, 14, 1529012052.280, 18, 0, 1024, 1024, 1024, 1024, 0, 6, 3784, 3769, 3774, 3772, 3818, 3818, 0, 1, 9300, -89.900, 0.000, 1.700, 0.000, 0.000, -3.100, 0.0, , , , , , 97, , , 41, 41, 41
36.7915774, -118.9555669, 9.800, 14:34:12.380, 14, 0.00, 0.40, 95, 0.100, 2.600, 0.300, 1439, 100, 100, 24, 22681, -26179, 5180, 5453, 13, 14, 1529012052.380, 45, 0, 1024, 1024, 1024, 1024, 0, 6, 3784, 3769, 3774, 3772, 3818, 3818, 0, 1, 9400, -89.900, 0.000, 1.700, 0.000, 0.000, -3.100, 0.0, , , , , , 97, , , 41, 41, 41
36.7915774, -118.9555669, 10.100, 14:34:12.480, 14, 0.00, 0.41, 95, 0.100, 2.500, 0.200, 1439, 100, 100, 24, 22945, -21780, 5180, 5453, 13, 14, 1529012052.480, 38, 0, 1024, 1024, 1024, 1024, 0, 6, 3837, 3820, 3808, 3822, 3860, 3850, 0, 1, 9500, -89.900, 0.000, 1.700, 0.000, 0.000, -3.100, 0.0, , , , , , 97, , , 41, 41, 41
36.7915775, -118.9555670, 10.400, 14:34:12.581, 13, 0.00, 0.41, 95, 0.000, 2.500, 0.200, 1439, 100, 100, 24, 22945, -21780, 5180, 5453, 13, 14, 1529012052.581, 31, 0, 1024, 1024, 1024, 1024, 0, 6, 3837, 3820, 3808, 3822, 3860, 3850, 0, 1, 9600, -89.900, 0.000, 1.700, 0.000, 0.000, -3.000, 0.0, , , , , , 97, , , 41, 41, 41
36.7915775, -118.9555671, 10.700, 14:34:12.680, 13, 0.00, 0.41, 95, 0.100, 2.500, 0.200, 1439, 100, 100, 24, 22945, -21780, 5180, 5453, 13, 14, 1529012052.680, 31, 0, 1024, 1024, 1024, 1024, 0, 6, 3837, 3820, 3808, 3822, 3860, 3850, 0, 1, 9700, -89.900, 0.000, 1.600, 0.000, 0.000, -3.000, 0.0, , , , , , 97, , , 41, 41, 41
36.7915775, -118.9555671, 11.100, 14:34:12.781, 14, 0.00, 0.42, 95, 0.100, 2.400, 0.200, 1439, 100, 100, 24, 22945, -21780, 5180, 5453, 13, 14, 1529012052.781, 24, 0, 1024, 1024, 1024, 1024, 0, 6, 3837, 3820, 3808, 3822, 3860, 3850, 0, 1, 9800, -89.900, 0.000, 1.600, 0.000, 0.000, -3.000, 0.0, , , , , , 97, , , 41, 41, 41
36.7915776, -118.9555672, 11.400, 14:34:12.881, 14, 0.00, 0.42, 95, 0.200, 2.300, 0.400, 1439, 100, 100, 24, 22945, -21780, 5180, 5453, 13, 14, 1529012052.881, 27, 0, 1024, 1024, 1024, 1024, 0, 6, 3837, 3820, 3808, 3822, 3860, 3850, 0, 1, 9900, -89.900, 0.000, 1.600, 0.000, 0.000, -2.900, 0.0, , , , , , 97, , , 41, 41, 41
36.7915776, -118.9555672, 11.700, 14:34:12.980, 14, 0.00, 0.43, 95, 0.200, 2.300, 0.500, 1439, 100, 100, 24, 22945, -21780, 5180, 5453, 13, 14, 1529012052.980, 16, 0, 1024, 1024, 1024, 1024, 0, 6, 3837, 3820, 3808, 3822, 3860, 3850, 0, 1, 10000, -89.900, 0.000, 1.600, 0.000, 0.000, -2.900, 0.0, , , , , , 97, , , 41, 41, 41
36.7915776, -118.9555672, 11.700, 14:34:13.080, 14, 0.00, 0.43, 95, 0.200, 2.300, 0.500, 1439, 100, 100, 24, 22945, -21780, 5180, 5453, 13, 14, 1529012053.080, 116, 0, 1024, 1024, 1024, 1024, 0, 6, 3837, 3820, 3808, 3822, 3860, 3850, 0, 1, 10099, -89.900, 0.000, 1.600, 0.000, 0.000, -2.900, 0.0, , , , , , 97, , , 41, 41, 41
36.7915776, -118.9555672, 12.000, 14:34:13.180, 14, 0.00, 0.43, 95, 0.100, 2.200, 0.600, 1439, 100, 100, 24, 22945, -21780, 5180, 5453, 13, 14, 1529012053.180, 93, 0, 1024, 1024, 1024, 1024, 0, 6, 3837, 3820, 3808, 3822, 3860, 3850, 0, 1, 10200, -89.900, 0.000, 1.600, 0.000, 0.000, -3.000, 0.0, , , , , , 97, , , 41, 41, 41
36.7915777, -118.9555673, 12.300, 14:34:13.281, 14, 0.00, 0.44, 95, 0.000, 2.000, 0.600, 1439, 100, 100, 24, 22945, -21780, 5180, 5453, 13, 14, 1529012053.281, 97, 0, 1024, 1024, 1024, 1024, 0, 6, 3837, 3820, 3808, 3822, 3860, 3850, 0, 1, 10300, -89.900, 0.000, 1.600, 0.000, 0.000, -3.000, 0.0, , , , , , 97, , , 41, 41, 41
36.7915777, -118.9555673, 12.600, 14:34:13.380, 14, 0.00, 0.44, 95, -0.100, 2.000, 0.500, 1439, 100, 100, 24, 22945, -21780, 5180, 5453, 13, 14, 1529012053.380, 94, 0, 1024, 1024, 1024, 1024, 0, 6, 3837, 3820, 3808, 3822, 3860, 3850, 0, 1, 10400, -89.900, 0.000, 1.500, 0.000, 0.000, -3.000, 0.0, , , , , , 97, , , 41, 41, 41
36.7915777, -118.9555674, 12.900, 14:34:13.480, 14, 0.00, 0.44, 95, -0.200, 2.100, 0.400, 1439, 100, 100, 24, 23033, -21122, 5180, 5453, 13, 14, 1529012053.480, 88, 0, 1024, 1024, 1024, 1024, 0, 6, 3842, 3813, 3815, 3833, 3860, 3854, 0, 1, 10500, -89.900, 0.000, 1.500, 0.000, 0.000, -3.000, 0.0, , , , , , 97, , , 41, 41, 41
36.7915777, -118.9555675, 13.300, 14:34:13.580, 14, 0.00, 0.44, 95, 0.000, 2.400, 0.400, 1439, 100, 100, 24, 23033, -21122, 5180, 5453, 13, 14, 1529012053.580, 90, 0, 1024, 1024, 1024, 1024, 0, 6, 3842, 3813, 3815, 3833, 3860, 3854, 0, 1, 10600, -89.900, 0.000, 1.500, 0.000, 0.000, -3.000, 0.0, , , , , , 97, , , 41, 41, 41
36.7915777, -118.9555675, 13.600, 14:34:13.681, 14, 0.00, 0.44, 95, 0.100, 2.300, 0.400, 1439, 100, 100, 24, 23033, -21122, 5180, 5453, 13, 14, 1529012053.681, 94, 0, 1024, 1024, 1024, 1024, 0, 6, 3842, 3813, 3815, 3833, 3860, 3854, 0, 1, 10700, -89.900, 0.000, 1.500, 0.000, 0.000, -2.900, 0.0, , , , , , 97, , , 41, 41, 41
36.7915777, -118.9555675, 13.900, 14:34:13.780, 14, 0.00, 0.44, 95, 0.300, 2.100, 0.400, 1439, 100, 100, 24, 23033, -21122, 5180, 5453, 13, 14, 1529012053.780, 74, 0, 1024, 1024, 1024, 1024, 0, 6, 3842, 3813, 3815, 3833, 3860, 3854, 0, 1, 10800, -89.900, 0.000, 1.500, 0.000, 0.000, -2.900, 0.0, , , , , , 97, , , 41, 41, 41
36.7915777, -118.9555676, 14.200, 14:34:13.880, 14, 0.00, 0.44, 95, 0.200, 1.800, 0.400, 1439, 100, 100, 24, 23033, -21122, 5180, 5453, 13, 14, 1529012053.880, 68, 0, 1024, 1024, 1024, 1024, 0, 6, 3842, 3813, 3815, 3833, 3860, 3854, 0, 1, 10900, -89.900, 0.000, 1.500, 0.000, 0.000, -2.900, 0.0, , , , , , 97, , , 41, 41, 41
36.7915777, -118.9555676, 14.500, 14:34:13.980, 14, 0.00, 0.44, 95, 0.100, 1.500, 0.400, 1439, 100, 100, 24, 23033, -21122, 5180, 5453, 13, 14, 1529012053.980, 43, 0, 1024, 1024, 1024, 1024, 0, 6, 3842, 3813, 3815, 3833, 3860, 3854, 0, 1, 11000, -89.900, 0.000, 1.500, 0.000, 0.000, -2.900, 0.0, , , , , , 97, , , 41, 41, 41
36.7915777, -118.9555676, 14.800, 14:34:14.080, 14, 0.00, 0.44, 95, 0.000, 1.600, 0.400, 1439, 100, 100, 24, 23033, -21122, 5180, 5453, 13, 14, 1529012054.080, 49, 0, 1024, 1024, 1024, 1024, 0, 6, 3842, 3813, 3815, 3833, 3860, 3854, 0, 1, 11100, -89.900, 0.000, 1.400, 0.000, 0.000, -2.900, 0.0, , , , , , 97, , , 41, 41, 41
36.7915777, -118.9555677, 15.100, 14:34:14.180, 14, 0.00, 0.44, 95, 0.000, 1.500, 0.300, 1439, 100, 100, 24, 23033, -21122, 5180, 5453, 13, 14, 1529012054.180, 67, 0, 1024, 1024, 1024, 1024, 0, 6, 3842, 3813, 3815, 3833, 3860, 3854, 0, 1, 11199, -89.900, 0.000, 1.400, 0.000, 0.000, -2.900, 0.0, , , , , , 97, , , 41, 41, 41
36.7915776, -118.9555677, 15.700, 14:34:14.280, 15, 0.00, 0.44, 95, -0.100, 1.300, 0.200, 1439, 100, 100, 24, 23033, -21122, 5180, 5453, 13, 14, 1529012054.280, 46, 0, 1024, 1024, 1024, 1024, 0, 6, 3842, 3813, 3815, 3833, 3860, 3854, 0, 1, 11300, -90.000, 0.000, 1.400, 0.000, 0.000, -2.900, 0.0, , , , , , 97, , , 41, 41, 41
36.7915776, -118.9555677, 16.100, 14:34:14.381, 14, 0.00, 0.43, 95, -1.200, 1.000, 0.200, 1439, 100, 100, 24, 23033, -21122, 5180, 5453, 13, 14, 1529012054.381, 51, 0, 1024, 1024, 1024, 1024, 0, 6, 3842, 3813, 3815, 3833, 3860, 3854, 0, 1, 11400, -90.000, 0.000, 1.400, 0.000, 0.000, -3.000, 0.0, , , , , , 97, , , 41, 41, 41
36.7915776, -118.9555677, 16.100, 14:34:14.480, 14, 0.00, 0.43, 95, -1.200, 1.000, 0.200, 1439, 100, 100, 24, 22932, -21942, 5125, 5453, 13, 14, 1529012054.480, 150, 0, 1024, 1024, 1024, 1024, 0, 6, 3842, 3813, 3815, 3833, 3860, 3854, 0, 1, 11499, -89.900, 0.000, 1.400, 0.000, 0.000, -3.000, 0.0, , , , , , 97, , , 41, 41, 41
36.7915776, -118.9555677, 16.400, 14:34:14.580, 14, 0.00, 0.43, 95, -1.200, 0.900, 0.200, 1439, 100, 100, 24, 22932, -21942, 5125, 5453, 13, 14, 1529012054.580, 44, 0, 1024, 1024, 1024, 1024, 0, 6, 3838, 3807, 3802, 3822, 3854, 3834, 0, 1, 11599, -89.900, 0.000, 1.400, 0.000, 0.000, -3.000, 0.0, , , , , , 97, , , 41, 41, 41
36.7915776, -118.9555678, 17.000, 14:34:14.680, 14, 0.00, 0.44, 95, -0.200, 1.800, 0.300, 1439, 100, 100, 24, 22932, -21942, 5125, 5453, 13, 14, 1529012054.680, 46, 0, 1024, 1024, 1024, 1024, 0, 6, 3838, 3807, 3802, 3822, 3854, 3834, 0, 1, 11700, -89.900, 0.000, 1.400, 0.000, 0.000, -2.800, 0.0, , , , , , 97, , , 41, 41, 41
36.7915776, -118.9555679, 17.300, 14:34:14.780, 14, 0.00, 0.44, 95, 0.200, 2.100, 0.400, 1439, 100, 100, 24, 22932, -21942, 5125, 5453, 13, 14, 1529012054.780, 38, 0, 1024, 1024, 1024, 1024, 0, 6, 3838, 3807, 3802, 3822, 3854, 3834, 0, 1, 11800, -89.900, 0.000, 1.400, 0.000, 0.000, -2.800, 0.0, , , , , , 97, , , 41, 41, 41
36.7915776, -118.9555679, 17.600, 14:34:14.880, 14, 0.00, 0.44, 95, 0.800, 1.800, 0.400, 1439, 100, 100, 24, 22932, -21942, 5125, 5453, 13, 14, 1529012054.880, 43, 0, 1024, 1024, 1024, 1024, 0, 6, 3838, 3807, 3802, 3822, 3854, 3834, 0, 1, 11900, -89.900, 0.000, 1.400, 0.000, 0.000, -2.800, 0.0, , , , , , 97, , , 41, 41, 41
36.7915775, -118.9555680, 17.900, 14:34:14.981, 14, 0.00, 0.43, 94, 1.100, 1.400, 0.500, 1439, 100, 100, 24, 22932, -21942, 5125, 5453, 13, 14, 1529012054.981, 33, 0, 1024, 1024, 1024, 1024, 0, 6, 3838, 3807, 3802, 3822, 3854, 3834, 0, 1, 12000, -89.900, 0.000, 1.400, 0.000, 0.000, -2.900, 0.0, , , , , , 97, , , 41, 41, 41
36.7915775, -118.9555680, 18.200, 14:34:15.080, 14, 0.00, 0.43, 94, 1.000, 0.900, 0.500, 1439, 100, 100, 24, 22932, -21942, 5125, 5453, 13, 14, 1529012055.080, 14, 0, 1024, 1024, 1024, 1024, 0, 6, 3838, 3807, 3802, 3822, 3854, 3834, 0, 1, 12099, -89.900, 0.000, 1.400, 0.000, 0.000, -2.900, 0.0, , , , , , 97, , , 41, 41, 41
36.7915774, -118.9555680, 18.500, 14:34:15.180, 14, 0.00, 0.42, 94, 0.700, 0.300, 0.600, 1439, 100, 100, 24, 22932, -21942, 5125, 5453, 13, 14, 1529012055.180, 19, 0, 1024, 1024, 1024, 1024, 0, 6, 3838, 3807, 3802, 3822, 3854, 3834, 0, 1, 12200, -90.000, 0.000, 1.400, 0.000, 0.000, -2.800, 0.0, , , , , , 97, , , 41, 41, 41
36.7915773, -118.9555680, 18.800, 14:34:15.280, 14, 0.00, 0.41, 94, 0.600, 0.000, 0.500, 1439, 100, 100, 24, 22932, -21942, 5125, 5453, 13, 14, 1529012055.280, 18, 0, 1024, 1024, 1024, 1024, 0, 6, 3838, 3807, 3802, 3822, 3854, 3834, 0, 1, 12299, -90.000, 0.000, 1.400, 0.000, 0.000, -2.700, 0.0, , , , , , 97, , , 41, 41, 41
36.7915773, -118.9555680, 19.100, 14:34:15.381, 14, 0.00, 0.41, 94, 0.300, 0.000, 0.400, 1439, 100, 100, 24, 22932, -21942, 5125, 5453, 13, 14, 1529012055.381, 10, 0, 1024, 1024, 1024, 1024, 0, 6, 3838, 3807, 3802, 3822, 3854, 3834, 0, 1, 12400, -89.900, 0.000, 1.400, 0.000, 0.000, -2.800, 0.0, , , , , , 97, , , 41, 41, 41
36.7915772, -118.9555680, 19.300, 14:34:15.483, 14, 0.00, 0.40, 94, 0.200, 0.300, 0.300, 1439, 100, 100, 24, 22912, -21880, 5125, 5453, 13, 14, 1529012055.483, 5, 0, 1024, 1024, 1024, 1024, 0, 6, 3838, 3807, 3802, 3822, 3854, 3834, 0, 1, 12502, -89.900, 0.000, 1.400, 0.000, 0.000, -2.800, 0.0, , , , , , 97, , , 41, 41, 41
36.7915772, -118.9555680, 19.600, 14:34:15.580, 14, 0.00, 0.40, 94, 0.100, 0.600, 0.300, 1439, 100, 100, 24, 22912, -21880, 5125, 5453, 13, 14, 1529012055.580, 8, 0, 1024, 1024, 1024, 1024, 0, 6, 3838, 3807, 3802, 3822, 3854, 3834, 0, 1, 12600, -89.900, 0.000, 1.400, 0.000, 0.000, -2.800, 0.0, , , , , , 97, , , 41, 41, 41
36.7915771, -118.9555680, 19.900, 14:34:15.680, 14, 0.00, 0.39, 94, -0.300, 0.600, 0.300, 1439, 100, 100, 24, 22912, -21880, 5125, 5453, 13, 14, 1529012055.680, 13, 0, 1024, 1024, 1024, 1024, 0, 6, 3838, 3807, 3802, 3822, 3854, 3834, 0, 1, 12700, -89.900, 0.000, 1.400, 0.000, 0.000, -2.800, 0.0, , , , , , 97, , , 41, 41, 41
36.7915771, -118.9555680, 20.200, 14:34:15.780, 15, 0.00, 0.38, 94, -0.200, 0.400, 0.400, 1439, 100, 100, 24, 22912, -21880, 5125, 5453, 13, 14, 1529012055.781, 6, 0, 1024, 1024, 1024, 1024, 0, 6, 3838, 3807, 3802, 3822, 3854, 3834, 0, 1, 12800, -90.000, 0.000, 1.400, 0.000, 0.000, -2.800, 0.0, , , , , , 97, , , 41, 41, 41
36.7915771, -118.9555680, 20.200, 14:34:15.880, 15, 0.00, 0.38, 94, -0.200, 0.400, 0.400, 1439, 100, 100, 24, 22912, -21880, 5125, 5453, 13, 14, 1529012055.880, 105, 0, 1024, 1024, 1024, 1024, 0, 6, 3838, 3807, 3802, 3822, 3854, 3834, 0, 1, 12899, -90.000, 0.000, 1.400, 0.000, 0.000, -2.800, 0.0, , , , , , 97, , , 41, 41, 41
36.7915770, -118.9555680, 20.500, 14:34:15.980, 15, 0.00, 0.38, 94, 0.100, -0.200, 0.600, 1439, 100, 100, 24, 22912, -21880, 5125, 5453, 13, 14, 1529012055.980, 88, 0, 1024, 1024, 1024, 1024, 0, 6, 3832, 3815, 3793, 3825, 3860, 3840, 0, 1, 12999, -89.900, 0.000, 1.400, 0.000, 0.000, -2.800, 0.0, , , , , , 97, , , 41, 41, 41
36.7915770, -118.9555680, 20.800, 14:34:16.080, 14, 0.00, 0.38, 94, 0.000, -0.200, 0.700, 1439, 100, 100, 24, 22912, -21880, 5125, 5453, 13, 14, 1529012056.080, 70, 0, 1024, 1024, 1024, 1024, 0, 6, 3832, 3815, 3793, 3825, 3860, 3840, 0, 1, 13100, -89.900, 0.000, 1.400, 0.000, 0.000, -2.700, 0.0, , , , , , 97, , , 41, 41, 41
36.7915770, -118.9555680, 21.000, 14:34:16.180, 14, 0.00, 0.38, 94, -0.100, 0.100, 0.700, 1439, 100, 100, 24, 22912, -21880, 5125, 5453, 13, 14, 1529012056.181, 94, 0, 1024, 1024, 1024, 1024, 0, 6, 3832, 3815, 3793, 3825, 3860, 3840, 0, 1, 13200, -89.900, 0.000, 1.400, 0.000, 0.000, -2.700, 0.0, , , , , , 97, , , 41, 41, 41
36.7915771, -118.9555680, 21.300, 14:34:16.280, 15, 0.00, 0.38, 94, -0.100, 0.400, 0.600, 1439, 100, 100, 24, 22912, -21880, 5125, 5453, 13, 14, 1529012056.281, 86, 0, 1024, 1024, 1024, 1024, 0, 6, 3832, 3815, 3793, 3825, 3860, 3840, 0, 1, 13300, -89.900, 0.000, 1.400, 0.000, 0.000, -2.800, 0.0, , , , , , 97, , , 41, 41, 41
36.7915771, -118.9555680, 21.600, 14:34:16.380, 15, 0.00, 0.39, 94, -0.100, 0.900, 0.600, 1439, 100, 100, 24, 22912, -21880, 5125, 5453, 13, 14, 1529012056.381, 80, 0, 1024, 1024, 1024, 1024, 0, 6, 3832, 3815, 3793, 3825, 3860, 3840, 0, 1, 13400, -89.900, 0.000, 1.400, 0.000, 0.000, -2.700, 0.0, , , , , , 97, , , 41, 41, 41
36.7915772, -118.9555679, 21.900, 14:34:16.480, 15, 0.00, 0.40, 94, -0.100, 1.600, 0.500, 1439, 100, 100, 24, 22912, -21880, 5125, 5453, 13, 14, 1529012056.480, 71, 0, 1024, 1024, 1024, 1024, 0, 6, 3832, 3815, 3793, 3825, 3860, 3840, 0, 1, 13499, -89.900, 0.000, 1.400, 0.000, 0.000, -2.800, 0.0, , , , , , 97, , , 41, 41, 41
36.7915773, -118.9555679, 22.100, 14:34:16.580, 15, 0.00, 0.40, 94, -0.400, 2.000, 0.400, 1439, 100, 100, 24, 22912, -21880, 5125, 5453, 13, 14, 1529012056.580, 75, 0, 1024, 1024, 1024, 1024, 0, 6, 3832, 3815, 3793, 3825, 3860, 3840, 0, 1, 13600, -89.900, 0.000, 1.400, 0.000, 0.000, -2.800, 0.0, , , , , , 97, , , 41, 41, 41
36.7915773, -118.9555679, 22.400, 14:34:16.680, 14, 0.00, 0.41, 94, -0.600, 2.300, 0.300, 1439, 100, 100, 24, 22912, -21880, 5125, 5453, 13, 14, 1529012056.681, 67, 0, 1024, 1024, 1024, 1024, 0, 6, 3832, 3815, 3793, 3825, 3860, 3840, 0, 1, 13700, -89.900, 0.000, 1.400, 0.000, 0.000, -2.900, 0.0, , , , , , 97, , , 41, 41, 41
36.7915774, -118.9555679, 22.700, 14:34:16.780, 14, 0.00, 0.41, 94, -0.600, 2.300, 0.300, 1439, 100, 100, 24, 22912, -21880, 5125, 5453, 13, 14, 1529012056.781, 59, 0, 1024, 1024, 1024, 1024, 0, 6, 3832, 3815, 3793, 3825, 3860, 3840, 0, 1, 13800, -89.900, 0.000, 1.400, 0.000, 0.000, -2.900, 0.0, , , , , , 97, , , 41, 41, 41
36.7915774, -118.9555678, 23.000, 14:34:16.880, 15, 0.00, 0.42, 94, -0.400, 2.200, 0.400, 1439, 100, 100, 24, 22912, -21880, 5125, 5453, 13, 14, 1529012056.881, 64, 0, 1024, 1024, 1024, 1024, 0, 6, 3832, 3815, 3793, 3825, 3860, 3840, 0, 1, 13900, -89.900, 0.000, 1.400, 0.000, 0.000, -2.900, 0.0, , , , , , 97, , , 41, 41, 41
36.7915776, -118.9555677, 23.600, 14:34:16.980, 15, 0.00, 0.43, 94, -0.200, 2.200, 0.700, 1439, 100, 100, 24, 22870, -22031, 5125, 5453, 13, 14, 1529012056.980, 31, 0, 1024, 1024, 1024, 1024, 0, 6, 3816, 3794, 3774, 3805, 3848, 3814, 0, 1, 14000, -89.900, 0.000, 1.400, 0.000, 0.000, -2.900, 0.0, , , , , , 97, , , 41, 41, 41
36.7915776, -118.9555676, 23.900, 14:34:17.080, 15, 0.00, 0.43, 94, -0.500, 2.200, 0.700, 1439, 100, 100, 24, 22870, -22031, 5125, 5453, 13, 14, 1529012057.081, 44, 0, 1024, 1024, 1024, 1024, 0, 6, 3816, 3794, 3774, 3805, 3848, 3814, 0, 1, 14100, -89.900, 0.000, 1.400, 0.000, 0.000, -3.100, 0.0, , , , , , 97, , , 41, 41, 41
36.7915776, -118.9555675, 24.200, 14:34:17.180, 15, 0.00, 0.43, 94, -1.000, 2.100, 0.600, 1439, 100, 100, 24, 22870, -22031, 5125, 5453, 13, 14, 1529012057.180, 42, 0, 1024, 1024, 1024, 1024, 0, 6, 3816, 3794, 3774, 3805, 3848, 3814, 0, 1, 14199, -89.900, 0.000, 1.400, 0.000, 0.000, -3.100, 0.0, , , , , , 97, , , 41, 41, 41
36.7915777, -118.9555674, 24.600, 14:34:17.280, 15, 0.00, 0.44, 94, -1.300, 2.100, 0.500, 1439, 100, 100, 24, 22870, -22031, 5125, 5453, 13, 14, 1529012057.281, 44, 0, 1024, 1024, 1024, 1024, 0, 6, 3816, 3794, 3774, 3805, 3848, 3814, 0, 1, 14300, -89.900, 0.000, 1.400, 0.000, 0.000, -3.100, 0.0, , , , , , 97, , , 41, 41, 41
36.7915777, -118.9555674, 24.900, 14:34:17.380, 16, 0.00, 0.44, 94, -1.300, 2.200, 0.300, 1439, 100, 100, 24, 22870, -22031, 5125, 5453, 13, 14, 1529012057.381, 26, 0, 1024, 1024, 1024, 1024, 0, 6, 3816, 3794, 3774, 3805, 3848, 3814, 0, 1, 14400, -89.900, 0.000, 1.400, 0.000, 0.000, -3.000, 0.0, , , , , , 97, , , 41, 41, 41
36.7915778, -118.9555674, 25.200, 14:34:17.480, 16, 0.00, 0.45, 94, -0.900, 2.300, 0.200, 1439, 100, 100, 24, 22870, -22031, 5125, 5453, 13, 14, 1529012057.481, 27, 0, 1024, 1024, 1024, 1024, 0, 6, 3816, 3794, 3774, 3805, 3848, 3814, 0, 1, 14500, -89.900, 0.000, 1.400, 0.000, 0.000, -3.000, 0.0, , , , , , 97, , , 41, 41, 41
36.7915778, -118.9555674, 25.500, 14:34:17.580, 16, 0.00, 0.45, 94, -0.500, 2.600, 0.200, 1439, 100, 100, 24, 22870, -22031, 5125, 5453, 13, 14, 1529012057.581, 32, 0, 1024, 1024, 1024, 1024, 0, 6, 3816, 3794, 3774, 3805, 3848, 3814, 0, 1, 14600, -89.900, 0.000, 1.400, 0.000, 0.000, -2.900, 0.0, , , , , , 97, , , 41, 41, 41
36.7915778, -118.9555674, 25.800, 14:34:17.680, 16, 0.00, 0.45, 94, -0.300, 2.800, 0.200, 1439, 100, 100, 24, 22870, -22031, 5125, 5453, 13, 14, 1529012057.680, 22, 0, 1024, 1024, 1024, 1024, 0, 6, 3816, 3794, 3774, 3805, 3848, 3814, 0, 1, 14700, -89.900, 0.000, 1.400, 0.000, 0.000, -2.900, 0.0, , , , , , 97, , , 41, 41, 41
36.7915778, -118.9555674, 26.100, 14:34:17.780, 16, 0.00, 0.45, 94, 0.000, 2.500, 0.200, 1439, 100, 100, 24, 22870, -22031, 5125, 5453, 13, 14, 1529012057.780, 25, 0, 1024, 1024, 1024, 1024, 0, 6, 3816, 3794, 3774, 3805, 3848, 3814, 0, 1, 14799, -89.900, 0.000, 1.400, 0.000, 0.000, -3.000, 0.0, , , , , , 97, , , 41, 41, 41
36.7915778, -118.9555673, 26.400, 14:34:17.882, 16, 0.00, 0.45, 94, 0.000, 1.800, 0.300, 1439, 100, 100, 24, 22870, -22031, 5125, 5453, 13, 14, 1529012057.882, 2, 0, 1024, 1024, 1024, 1024, 0, 6, 3816, 3794, 3774, 3805, 3848, 3814, 0, 1, 14902, -89.900, 0.000, 1.400, 0.000, 0.000, -3.000, 0.0, , , , , , 97, , , 41, 41, 41
36.7915777, -118.9555672, 26.700, 14:34:17.983, 16, 0.00, 0.44, 94, -0.500, 1.500, 0.300, 1439, 100, 100, 24, 22635, -24469, 5125, 5453, 13, 14, 1529012057.984, 6, 0, 1024, 1024, 1024, 1024, 0, 6, 3816, 3794, 3774, 3805, 3848, 3814, 0, 1, 15003, -89.900, 0.000, 1.400, 0.000, 0.000, -3.000, 0.0, , , , , , 97, , , 41, 41, 41
36.7915777, -118.9555672, 26.700, 14:34:18.080, 16, 0.00, 0.44, 94, -0.500, 1.500, 0.300, 1439, 100, 100, 24, 22635, -24469, 5125, 5453, 13, 14, 1529012058.080, 102, 0, 1024, 1024, 1024, 1024, 0, 6, 3768, 3750, 3732, 3764, 3798, 3779, 0, 1, 15099, -89.900, 0.000, 1.400, 0.000, 0.000, -3.000, 0.0, , , , , , 97, , , 41, 41, 41
36.7915777, -118.9555671, 27.000, 14:34:18.180, 16, 0.00, 0.43, 94, -1.100, 1.200, 0.200, 1439, 100, 100, 24, 22635, -24469, 5125, 5453, 13, 14, 1529012058.180, 94, 0, 1024, 1024, 1024, 1024, 0, 6, 3768, 3750, 3732, 3764, 3798, 3779, 0, 1, 15199, -89.900, 0.000, 1.400, 0.000, 0.000, -2.900, 0.0, , , , , , 97, , , 41, 41, 41
36.7915776, -118.9555670, 27.400, 14:34:18.280, 16, 0.00, 0.43, 94, -1.500, 1.300, 0.200, 1439, 100, 100, 24, 22635, -24469, 5125, 5453, 13, 14, 1529012058.280, 96, 0, 1024, 1024, 1024, 1024, 0, 6, 3768, 3750, 3732, 3764, 3798, 3779, 0, 1, 15299, -89.900, 0.000, 1.400, 0.000, 0.000, -3.000, 0.0, , , , , , 97, , , 41, 41, 41
36.7915775, -118.9555669, 27.700, 14:34:18.380, 16, 0.00, 0.42, 94, -1.300, 1.300, 0.200, 1439, 100, 100, 24, 22635, -24469, 5125, 5453, 13, 14, 1529012058.380, 98, 0, 1024, 1024, 1024, 1024, 0, 6, 3768, 3750, 3732, 3764, 3798, 3779, 0, 1, 15399, -89.900, 0.000, 1.400, 0.000, 0.000, -3.000, 0.0, , , , , , 97, , , 41, 41, 41
36.7915775, -118.9555668, 28.000, 14:34:18.480, 16, 0.00, 0.41, 94, -1.000, 1.400, 0.200, 1439, 100, 100, 24, 22635, -24469, 5125, 5453, 13, 14, 1529012058.481, 87, 0, 1024, 1024, 1024, 1024, 0, 6, 3768, 3750, 3732, 3764, 3798, 3779, 0, 1, 15500, -89.900, 0.000, 1.400, 0.000, 0.000, -2.900, 0.0, , , , , , 97, , , 41, 41, 41
36.7915775, -118.9555667, 28.300, 14:34:18.580, 16, 0.00, 0.41, 94, -0.700, 1.600, 0.200, 1439, 100, 100, 24, 22635, -24469, 5125, 5453, 13, 14, 1529012058.580, 87, 0, 1024, 1024, 1024, 1024, 0, 6, 3768, 3750, 3732, 3764, 3798, 3779, 0, 1, 15599, -89.900, 0.000, 1.400, 0.000, 0.000, -2.900, 0.0, , , , , , 97, , , 41, 41, 41
36.7915775, -118.9555667, 28.600, 14:34:18.680, 16, 0.00, 0.41, 94, -0.700, 1.800, 0.200, 1439, 100, 100, 24, 22635, -24469, 5125, 5453, 13, 14, 1529012058.681, 90, 0, 1024, 1024, 1024, 1024, 0, 6, 3768, 3750, 3732, 3764, 3798, 3779, 0, 1, 15700, -89.900, 0.000, 1.400, 0.000, 0.000, -2.900, 0.0, , , , , , 97, , , 41, 41, 41
36.7915775, -118.9555667, 28.900, 14:34:18.780, 16, 0.00, 0.41, 94, -1.000, 1.900, 0.300, 1439, 100, 100, 24, 22635, -24469, 5125, 5453, 13, 14, 1529012058.781, 69, 0, 1024, 1024, 1024, 1024, 0, 6, 3768, 3750, 3732, 3764, 3798, 3779, 0, 1, 15800, -89.900, 0.000, 1.400, 0.000, 0.000, -2.900, 0.0, , , , , , 97, , , 41, 41, 41
36.7915774, -118.9555666, 29.200, 14:34:18.880, 16, 0.00, 0.40, 94, -1.000, 1.500, 0.300, 1439, 100, 100, 24, 22635, -24469, 5125, 5453, 13, 14, 1529012058.880, 85, 0, 1024, 1024, 1024, 1024, 0, 6, 3768, 3750, 3732, 3764, 3798, 3779, 0, 1, 15899, -89.900, 0.000, 1.400, 0.000, 0.000, -2.900, 0.0, , , , , , 97, , , 41, 41, 41
36.7915773, -118.9555665, 29.500, 14:34:18.980, 16, 0.00, 0.39, 94, -1.200, 0.700, 0.300, 1439, 100, 100, 24, 22665, -23828, 5125, 5453, 13, 14, 1529012058.980, 56, 0, 1024, 1024, 1024, 1024, 0, 6, 3777, 3754, 3739, 3768, 3800, 3786, 0, 1, 15999, -90.000, 0.000, 1.400, 0.000, 0.000, -3.000, 0.0, , , , , , 97, , , 41, 41, 41
36.7915773, -118.9555663, 29.900, 14:34:19.080, 16, 0.00, 0.39, 94, -1.300, 0.700, 0.300, 1439, 100, 100, 24, 22665, -23828, 5125, 5453, 13, 14, 1529012059.080, 44, 0, 1024, 1024, 1024, 1024, 0, 6, 3777, 3754, 3739, 3768, 3800, 3786, 0, 1, 16099, -90.000, 0.000, 1.400, 0.000, 0.000, -2.900, 0.0, , , , , , 97, , , 41, 41, 41
36.7915773, -118.9555662, 30.200, 14:34:19.179, 16, 0.00, 0.39, 94, -1.400, 1.000, 0.300, 1439, 100, 100, 24, 22665, -23828, 5125, 5453, 13, 14, 1529012059.180, 53, 0, 1024, 1024, 1024, 1024, 0, 6, 3777, 3754, 3739, 3768, 3800, 3786, 0, 1, 16199, -89.900, 0.000, 1.400, 0.000, 0.000, -2.800, 0.0, , , , , , 97, , , 41, 41, 41
36.7915772, -118.9555661, 30.400, 14:34:19.280, 16, 0.00, 0.39, 94, -1.400, 1.000, 0.300, 1439, 100, 100, 24, 22665, -23828, 5125, 5453, 13, 14, 1529012059.280, 56, 0, 1024, 1024, 1024, 1024, 0, 6, 3777, 3754, 3739, 3768, 3800, 3786, 0, 1, 16299, -89.900, 0.000, 1.400, 0.000, 0.000, -2.800, 0.0, , , , , , 97, , , 41, 41, 41
36.7915773, -118.9555660, 30.700, 14:34:19.380, 16, 0.00, 0.39, 94, -1.500, 1.200, 0.400, 1439, 100, 100, 24, 22665, -23828, 5125, 5453, 13, 14, 1529012059.380, 48, 0, 1024, 1024, 1024, 1024, 0, 6, 3777, 3754, 3739, 3768, 3800, 3786, 0, 1, 16399, -89.900, 0.000, 1.400, 0.000, 0.000, -2.800, 0.0, , , , , , 97, , , 41, 41, 41
36.7915773, -118.9555659, 31.000, 14:34:19.480, 16, 0.00, 0.40, 94, -1.600, 1.900, 0.600, 1439, 100, 100, 24, 22665, -23828, 5125, 5453, 13, 14, 1529012059.480, 49, 0, 1024, 1024, 1024, 1024, 0, 6, 3777, 3754, 3739, 3768, 3800, 3786, 0, 1, 16499, -89.900, 0.000, 1.400, 0.000, 0.000, -2.800, 0.0, , , , , , 97, , , 41, 41, 41
36.7915774, -118.9555655, 31.600, 14:34:19.580, 16, 0.00, 0.41, 94, -2.800, 2.900, 0.500, 1439, 100, 100, 24, 22665, -23828, 5125, 5453, 13, 14, 1529012059.580, 48, 0, 1024, 1024, 1024, 1024, 0, 6, 3777, 3754, 3739, 3768, 3800, 3786, 0, 1, 16600, -89.900, 0.000, 1.400, 0.000, 0.000, -2.900, 0.0, , , , , , 97, , , 41, 41, 41
36.7915774, -118.9555654, 31.900, 14:34:19.680, 16, 0.00, 0.42, 94, -3.300, 3.100, 0.400, 1439, 100, 100, 24, 22665, -23828, 5125, 5453, 13, 14, 1529012059.680, 29, 0, 1024, 1024, 1024, 1024, 0, 6, 3777, 3754, 3739, 3768, 3800, 3786, 0, 1, 16699, -89.900, 0.000, 1.400, 0.000, 0.000, -2.800, 0.0, , , , , , 97, , , 41, 41, 41
36.7915774, -118.9555652, 32.200, 14:34:19.779, 16, 0.00, 0.42, 94, -3.500, 2.700, 0.200, 1439, 100, 100, 24, 22665, -23828, 5125, 5453, 13, 14, 1529012059.780, 23, 0, 1024, 1024, 1024, 1024, 0, 6, 3777, 3754, 3739, 3768, 3800, 3786, 0, 1, 16799, -89.900, 0.000, 1.400, 0.000, 0.000, -2.800, 0.0, , , , , , 97, , , 41, 41, 41
36.7915774, -118.9555652, 32.400, 14:34:19.880, 16, 0.00, 0.43, 94, -3.400, 2.400, 0.100, 1439, 100, 100, 24, 22602, -23533, 5125, 5453, 13, 14, 1529012059.880, 14, 0, 1024, 1024, 1024, 1024, 0, 6, 3777, 3761, 3732, 3767, 3800, 3789, 0, 1, 16899, -89.900, 0.000, 1.400, 0.000, 0.000, -2.800, 0.0, , , , , , 97, , , 41, 41, 41
36.7915774, -118.9555651, 32.700, 14:34:19.980, 17, 0.00, 0.43, 94, -3.100, 2.200, 0.000, 1439, 100, 100, 24, 22602, -23533, 5125, 5453, 13, 14, 1529012059.980, 8, 0, 1024, 1024, 1024, 1024, 0, 6, 3777, 3761, 3732, 3767, 3800, 3789, 0, 1, 17000, -89.900, 0.000, 1.400, 0.000, 0.000, -2.800, 0.0, , , , , , 97, , , 41, 41, 41
36.7915774, -118.9555651, 32.700, 14:34:20.080, 17, 0.00, 0.43, 94, -3.100, 2.200, 0.000, 1439, 100, 100, 24, 22602, -23533, 5125, 5453, 13, 14, 1529012060.081, 108, 0, 1024, 1024, 1024, 1024, 0, 6, 3777, 3761, 3732, 3767, 3800, 3789, 0, 1, 17100, -89.900, 0.000, 1.400, 0.000, 0.000, -2.800, 0.0, , , , , , 97, , , 41, 41, 41
36.7915774, -118.9555650, 33.300, 14:34:20.180, 17, 0.00, 0.43, 94, -3.200, 2.000, -0.200, 1439, 100, 100, 24, 22602, -23533, 5125, 5453, 13, 14, 1529012060.181, 10, 0, 1024, 1024, 1024, 1024, 0, 6, 3777, 3761, 3732, 3767, 3800, 3789, 0, 1, 17201, -89.900, 0.000, 1.400, 0.000, 0.000, -2.900, 0.0, , , , , , 97, , , 41, 41, 41
36.7915774, -118.9555650, 33.300, 14:34:20.280, 17, 0.00, 0.43, 94, -3.200, 2.000, -0.200, 1439, 100, 100, 24, 22602, -23533, 5125, 5453, 13, 14, 1529012060.281, 110, 0, 1024, 1024, 1024, 1024, 0, 6, 3777, 3761, 3732, 3767, 3800, 3789, 0, 1, 17300, -89.900, 0.000, 1.400, 0.000, 0.000, -2.900, 0.0, , , , , , 97, , , 41, 41, 41
36.7915775, -118.9555651, 33.900, 14:34:20.380, 17, 0.00, 0.43, 94, -3.000, 2.300, -0.300, 1439, 100, 100, 24, 22602, -23533, 5125, 5453, 13, 14, 1529012060.381, 15, 0, 1024, 1024, 1024, 1024, 0, 6, 3777, 3761, 3732, 3767, 3800, 3789, 0, 1, 17400, -89.900, 0.000, 1.400, 0.000, 0.000, -2.900, 0.0, , , , , , 97, , , 41, 41, 41
36.7915775, -118.9555651, 33.900, 14:34:20.480, 17, 0.00, 0.43, 94, -3.000, 2.300, -0.300, 1439, 100, 100, 24, 22602, -23533, 5125, 5453, 13, 14, 1529012060.481, 115, 0, 1024, 1024, 1024, 1024, 0, 6, 3777, 3761, 3732, 3767, 3800, 3789, 0, 1, 17500, -89.900, 0.000, 1.400, 0.000, 0.000, -2.900, 0.0, , , , , , 97, , , 41, 41, 41
36.7915775, -118.9555651, 34.200, 14:34:20.580, 17, 0.00, 0.44, 94, -2.700, 2.300, -0.200, 1439, 100, 100, 24, 22602, -23533, 5125, 5453, 13, 14, 1529012060.581, 68, 0, 1024, 1024, 1024, 1024, 0, 6, 3777, 3761, 3732, 3767, 3800, 3789, 0, 1, 17600, -89.900, 0.000, 1.400, 0.000, 0.000, -3.000, 0.0, , , , , , 97, , , 41, 41, 41
36.7915775, -118.9555652, 34.500, 14:34:20.680, 17, 0.00, 0.44, 94, -2.300, 2.300, 0.000, 1439, 100, 100, 24, 22602, -23533, 5125, 5453, 13, 14, 1529012060.681, 87, 0, 1024, 1024, 1024, 1024, 0, 6, 3777, 3761, 3732, 3767, 3800, 3789, 0, 1, 17700, -89.900, 0.000, 1.400, 0.000, 0.000, -3.000, 0.0, , , , , , 97, , , 41, 41, 41
36.7915775, -118.9555652, 34.900, 14:34:20.780, 17, 0.00, 0.43, 94, -2.200, 2.200, 0.200, 1439, 100, 100, 24, 22602, -23533, 5125, 5453, 13, 14, 1529012060.781, 80, 0, 1024, 1024, 1024, 1024, 0, 6, 3777, 3761, 3732, 3767, 3800, 3789, 0, 1, 17800, -89.900, 0.000, 1.400, 0.000, 0.000, -3.000, 0.0, , , , , , 97, , , 41, 41, 41
36.7915775, -118.9555653, 35.200, 14:34:20.880, 17, 0.00, 0.43, 94, -1.900, 1.800, 0.300, 1439, 100, 100, 24, 22602, -23533, 5125, 5453, 13, 14, 1529012060.881, 80, 0, 1024, 1024, 1024, 1024, 0, 6, 3777, 3761, 3732, 3767, 3800, 3789, 0, 1, 17900, -89.900, 0.000, 1.400, 0.000, 0.000, -2.900, 0.0, , , , , , 97, , , 41, 41, 41
36.7915775, -118.9555653, 35.500, 14:34:20.980, 17, 0.00, 0.43, 94, -1.900, 1.700, 0.400, 1439, 100, 100, 24, 22517, -24677, 5125, 5453, 13, 14, 1529012060.981, 85, 0, 1024, 1024, 1024, 1024, 0, 6, 3777, 3761, 3732, 3767, 3800, 3789, 0, 1, 18000, -89.900, 0.000, 1.400, 0.000, 0.000, -2.900, 0.0, , , , , , 97, , , 41, 41, 41
36.7915775, -118.9555654, 35.800, 14:34:21.080, 17, 0.00, 0.43, 94, -1.800, 1.600, 0.400, 1439, 100, 100, 24, 22517, -24677, 5125, 5453, 13, 14, 1529012061.081, 87, 0, 1024, 1024, 1024, 1024, 0, 6, 3777, 3761, 3732, 3767, 3800, 3789, 0, 1, 18100, -89.900, 0.000, 1.400, 0.000, 0.000, -2.900, 0.0, , , , , , 97, , , 41, 41, 41
36.7915775, -118.9555655, 36.100, 14:34:21.180, 17, 0.00, 0.42, 94, -1.800, 1.500, 0.300, 1439, 100, 100, 24, 22517, -24677, 5125, 5453, 13, 14, 1529012061.181, 85, 0, 1024, 1024, 1024, 1024, 0, 6, 3777, 3761, 3732, 3767, 3800, 3789, 0, 1, 18200, -89.900, 0.000, 1.400, 0.000, 0.000, -3.000, 0.0, , , , , , 97, , , 41, 41, 41
36.7915775, -118.9555655, 36.400, 14:34:21.280, 17, 0.00, 0.42, 94, -1.800, 1.500, 0.300, 1439, 100, 100, 24, 22517, -24677, 5125, 5453, 13, 14, 1529012061.281, 84, 0, 1024, 1024, 1024, 1024, 0, 6, 3777, 3761, 3732, 3767, 3800, 3789, 0, 1, 18300, -89.900, 0.000, 1.400, 0.000, 0.000, -3.000, 0.0, , , , , , 97, , , 41, 41, 41
36.7915775, -118.9555655, 36.700, 14:34:21.380, 17, 0.00, 0.42, 94, -2.200, 1.300, 0.200, 1439, 100, 100, 24, 22517, -24677, 5125, 5453, 13, 14, 1529012061.381, 62, 0, 1024, 1024, 1024, 1024, 0, 6, 3777, 3761, 3732, 3767, 3800, 3789, 0, 1, 18400, -89.900, 0.000, 1.400, 0.000, 0.000, -2.900, 0.0, , , , , , 97, , , 41, 41, 41
36.7915775, -118.9555656, 37.000, 14:34:21.480, 17, 0.00, 0.42, 94, -2.200, 1.600, 0.200, 1439, 100, 100, 24, 22517, -24677, 5125, 5453, 13, 14, 1529012061.481, 49, 0, 1024, 1024, 1024, 1024, 0, 6, 3745, 3735, 3711, 3746, 3787, 3766, 0, 1, 18500, -89.900, 0.000, 1.400, 0.000, 0.000, -2.900, 0.0, , , , , , 97, , , 41, 41, 41
36.7915775, -118.9555656, 37.300, 14:34:21.580, 17, 0.00, 0.42, 94, -2.300, 1.700, 0.200, 1439, 100, 100, 24, 22517, -24677, 5125, 5453, 13, 14, 1529012061.581, 63, 0, 1024, 1024, 1024, 1024, 0, 6, 3745, 3735, 3711, 3746, 3787, 3766, 0, 1, 18600, -89.900, 0.000, 1.400, 0.000, 0.000, -3.000, 0.0, , , , , , 97, , , 41, 41, 41
36.7915775, -118.9555657, 37.600, 14:34:21.680, 17, 0.00, 0.42, 94, -2.400, 1.800, 0.300, 1439, 100, 100, 24, 22517, -24677, 5125, 5453, 13, 14, 1529012061.681, 54, 0, 1024, 1024, 1024, 1024, 0, 6, 3745, 3735, 3711, 3746, 3787, 3766, 0, 1, 18700, -89.900, 0.000, 1.400, 0.000, 0.000, -2.900, 0.0, , , , , , 97, , , 41, 41, 41
36.7915775, -118.9555657, 37.900, 14:34:21.780, 17, 0.00, 0.42, 94, -2.400, 1.800, 0.500, 1439, 100, 100, 24, 22517, -24677, 5125, 5453, 13, 14, 1529012061.781, 55, 0, 1024, 1024, 1024, 1024, 0, 6, 3745, 3735, 3711, 3746, 3787, 3766, 0, 1, 18800, -89.900, 0.000, 1.400, 0.000, 0.000, -2.900, 0.0, , , , , , 97, , , 41, 41, 41
36.7915775, -118.9555658, 38.200, 14:34:21.880, 17, 0.00, 0.42, 94, -2.100, 2.000, 0.700, 1439, 100, 100, 24, 22517, -24677, 5125, 5453, 13, 14, 1529012061.881, 57, 0, 1024, 1024, 1024, 1024, 0, 6, 3745, 3735, 3711, 3746, 3787, 3766, 0, 1, 18900, -89.900, 0.000, 1.400, 0.000, 0.000, -3.000, 0.0, , , , , , 97, , , 41, 41, 41
36.7915775, -118.9555660, 38.500, 14:34:21.980, 17, 0.10, 0.42, 94, -1.800, 1.900, 0.700, 1439, 100, 100, 25, 22517, -24677, 5125, 5453, 13, 14, 1529012061.981, 45, 0, 1024, 1024, 1024, 1024, 0, 6, 3745, 3735, 3711, 3746, 3787, 3766, 0, 1, 19000, -89.900, 0.000, 1.400, 0.000, -0.100, -3.000, 0.0, , , , , , 97, , , 41, 41, 41
36.7915774, -118.9555663, 39.100, 14:34:22.080, 17, 0.10, 0.41, 94, -0.900, 2.000, 0.600, 1439, 100, 100, 25, 22517, -24677, 5125, 5453, 13, 14, 1529012062.080, 20, 0, 1024, 1024, 1024, 1024, 0, 6, 3745, 3735, 3711, 3746, 3787, 3766, 0, 1, 19100, -89.900, 0.000, 1.400, 0.000, -0.100, -2.900, 0.0, , , , , , 97, , , 41, 41, 41
36.7915774, -118.9555665, 39.400, 14:34:22.180, 17, 0.10, 0.40, 94, -0.500, 1.600, 0.600, 1439, 100, 100, 25, 22517, -24677, 5125, 5453, 13, 14, 1529012062.181, 14, 0, 1024, 1024, 1024, 1024, 0, 6, 3745, 3735, 3711, 3746, 3787, 3766, 0, 1, 19200, -89.900, 0.000, 1.400, 0.000, -0.100, -2.900, 0.0, , , , , , 97, , , 41, 41, 41
36.7915774, -118.9555667, 39.700, 14:34:22.280, 17, 0.10, 0.40, 94, -0.300, 1.100, 0.700, 1439, 100, 100, 25, 22517, -24677, 5125, 5453, 13, 14, 1529012062.280, 40, 0, 1024, 1024, 1024, 1024, 0, 6, 3745, 3735, 3711, 3746, 3787, 3766, 0, 1, 19300, -90.000, 0.000, 1.400, 0.000, -0.100, -2.900, 0.0, , , , , , 97, , , 41, 41, 41
36.7915774, -118.9555669, 39.900, 14:34:22.380, 17, 0.10, 0.40, 94, 0.200, 1.000, 0.800, 1439, 100, 100, 25, 22517, -24677, 5125, 5453, 13, 14, 1529012062.380, 31, 0, 1024, 1024, 1024, 1024, 0, 6, 3745, 3735, 3711, 3746, 3787, 3766, 0, 1, 19400, -89.900, 0.000, 1.400, 0.000, -0.100, -2.800, 0.0, , , , , , 97, , , 41, 41, 41
36.7915774, -118.9555670, 40.200, 14:34:22.480, 17, 0.10, 0.41, 94, 0.700, 1.400, 1.000, 1439, 100, 100, 25, 22470, -23647, 5071, 5453, 13, 14, 1529012062.481, 35, 0, 1024, 1024, 1024, 1024, 0, 6, 3766, 3744, 3724, 3748, 3797, 3760, 0, 1, 19500, -89.900, 0.000, 1.400, 0.000, -0.100, -2.800, 0.0, , , , , , 97, , , 41, 41, 41
36.7915775, -118.9555672, 40.500, 14:34:22.579, 17, 0.00, 0.41, 94, 0.800, 1.900, 1.000, 1439, 100, 100, 25, 22470, -23647, 5071, 5453, 13, 14, 1529012062.580, 37, 0, 1024, 1024, 1024, 1024, 0, 6, 3766, 3744, 3724, 3748, 3797, 3760, 0, 1, 19599, -89.900, 0.000, 1.400, 0.000, 0.000, -2.800, 0.0, , , , , , 97, , , 41, 41, 41
36.7915774, -118.9555673, 40.800, 14:34:22.686, 17, 0.00, 0.41, 94, 0.500, 2.100, 0.900, 1439, 100, 100, 25, 22470, -23647, 5071, 5453, 13, 14, 1529012062.686, 7, 0, 1024, 1024, 1024, 1024, 0, 6, 3766, 3744, 3724, 3748, 3797, 3760, 0, 1, 19705, -89.900, 0.000, 1.400, 0.000, 0.000, -3.000, 0.0, , , , , , 97, , , 41, 41, 41
36.7915774, -118.9555673, 41.100, 14:34:22.782, 17, 0.00, 0.41, 94, -0.400, 2.000, 0.800, 1439, 100, 100, 25, 22470, -23647, 5071, 5453, 13, 14, 1529012062.783, 6, 0, 1024, 1024, 1024, 1024, 0, 6, 3766, 3744, 3724, 3748, 3797, 3760, 0, 1, 19802, -89.900, 0.000, 1.400, 0.000, 0.000, -3.100, 0.0, , , , , , 97, , , 41, 41, 41
36.7915774, -118.9555672, 41.400, 14:34:22.880, 17, 0.00, 0.41, 93, -1.200, 1.900, 0.600, 1439, 100, 100, 25, 22470, -23647, 5071, 5453, 13, 14, 1529012062.881, 7, 0, 1024, 1024, 1024, 1024, 0, 6, 3766, 3744, 3724, 3748, 3797, 3760, 0, 1, 19900, -89.900, 0.000, 1.400, 0.000, 0.000, -3.000, 0.0, , , , , , 97, , , 41, 41, 41
36.7915774, -118.9555672, 41.400, 14:34:22.980, 17, 0.00, 0.41, 93, -1.200, 1.900, 0.600, 1439, 100, 100, 25, 22470, -23647, 5071, 5453, 13, 14, 1529012062.981, 107, 0, 1024, 1024, 1024, 1024, 0, 6, 3766, 3744, 3724, 3748, 3797, 3760, 0, 1, 20000, -89.900, 0.000, 1.400, 0.000, 0.000, -3.000, 0.0, , , , , , 97, , , 41, 41, 41
36.7915774, -118.9555671, 41.700, 14:34:23.080, 17, 0.00, 0.40, 93, -2.000, 1.700, 0.400, 1439, 100, 100, 25, 22470, -23647, 5071, 5453, 13, 14, 1529012063.081, 84, 0, 1024, 1024, 1024, 1024, 0, 6, 3766, 3744, 3724, 3748, 3797, 3760, 0, 1, 20100, -89.900, 0.000, 1.400, 0.000, 0.000, -2.900, 0.0, , , , , , 97, , , 41, 41, 41
36.7915774, -118.9555669, 42.000, 14:34:23.180, 17, 0.00, 0.40, 93, -2.500, 1.500, 0.200, 1439, 100, 100, 25, 22470, -23647, 5071, 5453, 13, 14, 1529012063.180, 98, 0, 1024, 1024, 1024, 1024, 0, 6, 3766, 3744, 3724, 3748, 3797, 3760, 0, 1, 20200, -90.000, 0.000, 1.400, 0.000, 0.000, -2.900, 0.0, , , , , , 97, , , 41, 41, 41
36.7915773, -118.9555668, 42.300, 14:34:23.280, 17, 0.00, 0.39, 93, -2.700, 1.500, 0.000, 1439, 100, 100, 25, 22470, -23647, 5071, 5453, 13, 14, 1529012063.281, 85, 0, 1024, 1024, 1024, 1024, 0, 6, 3766, 3744, 3724, 3748, 3797, 3760, 0, 1, 20300, -89.900, 0.000, 1.400, 0.000, 0.000, -3.000, 0.0, , , , , , 97, , , 41, 41, 41
36.7915773, -118.9555667, 42.700, 14:34:23.380, 17, 0.00, 0.39, 93, -3.000, 1.300, 0.000, 1439, 100, 100, 25, 22470, -23647, 5071, 5453, 13, 14, 1529012063.380, 73, 0, 1024, 1024, 1024, 1024, 0, 6, 3766, 3744, 3724, 3748, 3797, 3760, 0, 1, 20400, -90.000, 0.000, 1.400, 0.000, 0.000, -3.000, 0.0, , , , , , 97, , , 41, 41, 41
36.7915773, -118.9555665, 43.000, 14:34:23.480, 17, 0.00, 0.39, 93, -3.200, 1.300, -0.100, 1439, 100, 100, 25, 22513, -23620, 5071, 5453, 13, 14, 1529012063.480, 72, 0, 1024, 1024, 1024, 1024, 0, 6, 3756, 3748, 3712, 3744, 3803, 3765, 0, 1, 20500, -89.900, 0.000, 1.400, 0.000, 0.000, -3.000, 0.0, , , , , , 97, , , 41, 41, 41
36.7915773, -118.9555664, 43.300, 14:34:23.580, 17, 0.00, 0.39, 93, -3.500, 1.200, -0.100, 1439, 100, 100, 25, 22513, -23620, 5071, 5453, 13, 14, 1529012063.580, 74, 0, 1024, 1024, 1024, 1024, 0, 6, 3756, 3748, 3712, 3744, 3803, 3765, 0, 1, 20600, -89.900, 0.000, 1.400, 0.000, 0.000, -2.900, 0.0, , , , , , 97, , , 41, 41, 41
36.7915773, -118.9555664, 43.600, 14:34:23.680, 17, 0.00, 0.39, 93, -3.100, 1.300, 0.000, 1439, 100, 100, 25, 22513, -23620, 5071, 5453, 13, 14, 1529012063.681, 74, 0, 1024, 1024, 1024, 1024, 0, 6, 3756, 3748, 3712, 3744, 3803, 3765, 0, 1, 20700, -89.900, 0.000, 1.400, 0.000, 0.000, -2.900, 0.0, , , , , , 97, , , 41, 41, 41
36.7915772, -118.9555663, 43.900, 14:34:23.780, 17, 0.00, 0.38, 93, -2.600, 1.400, 0.000, 1439, 100, 100, 25, 22513, -23620, 5071, 5453, 13, 14, 1529012063.781, 54, 0, 1024, 1024, 1024, 1024, 0, 6, 3756, 3748, 3712, 3744, 3803, 3765, 0, 1, 20800, -89.900, 0.000, 1.400, 0.000, 0.000, -2.900, 0.0, , , , , , 97, , , 41, 41, 41
36.7915772, -118.9555663, 44.200, 14:34:23.880, 17, 0.00, 0.38, 93, -2.400, 1.400, 0.100, 1439, 100, 100, 25, 22513, -23620, 5071, 5453, 13, 14, 1529012063.880, 53, 0, 1024, 1024, 1024, 1024, 0, 6, 3756, 3748, 3712, 3744, 3803, 3765, 0, 1, 20900, -89.900, 0.000, 1.400, 0.000, 0.000, -2.900, 0.0, , , , , , 97, , , 41, 41, 41
36.7915772, -118.9555663, 44.500, 14:34:23.979, 17, 0.00, 0.38, 93, -2.600, 1.400, 0.200, 1439, 100, 100, 25, 22513, -23620, 5071, 5453, 13, 14, 1529012063.980, 57, 0, 1024, 1024, 1024, 1024, 0, 6, 3756, 3748, 3712, 3744, 3803, 3765, 0, 1, 21000, -89.900, 0.000, 1.400, 0.000, 0.000, -2.900, 0.0, , , , , , 97, , , 41, 41, 41
36.7915772, -118.9555662, 45.100, 14:34:24.080, 17, 0.00, 0.38, 93, -2.200, 1.700, 0.400, 1439, 100, 100, 25, 22513, -23620, 5071, 5453, 13, 14, 1529012064.081, 47, 0, 1024, 1024, 1024, 1024, 0, 6, 3756, 3748, 3712, 3744, 3803, 3765, 0, 1, 21100, -89.900, 0.000, 1.400, 0.000, 0.000, -2.800, 0.0, , , , , , 97, , , 41, 41, 41
36.7915771, -118.9555661, 45.400, 14:34:24.180, 17, 0.00, 0.38, 93, -2.400, 1.500, 0.500, 1439, 100, 100, 25, 22513, -23620, 5071, 5453, 13, 14, 1529012064.180, 37, 0, 1024, 1024, 1024, 1024, 0, 6, 3756, 3748, 3712, 3744, 3803, 3765, 0, 1, 21200, -89.900, 0.000, 1.400, 0.000, 0.000, -2.900, 0.0, , , , , , 97, , , 41, 41, 41
