latitude,longitude,altitude(feet),ascent(feet),speed(mph),distance(feet),time(millisecond),datetime(utc),satellites,gpslevel,voltage(v),max_altitude(feet),max_ascent(feet),max_speed(mph),max_distance(feet), xSpeed(mph), ySpeed(mph), zSpeed(mph), compass_heading(degrees), pitch(degrees), roll(degrees),isPhoto,isVideo,rc_elevator,rc_aileron,rc_throttle,rc_rudder,gimbal_heading(degrees),gimbal_pitch(degrees),battery_percent,voltageCell1,voltageCell2,voltageCell3,voltageCell4,voltageCell5,voltageCell6,current(A),battery_temperature(f),flycStateRaw,flycState,message
36.7916208,-118.9555796,6418.4835892497,-0.328084,0.223694,0,3150,2018-06-14 20:21:22,12,0,0,6418.4835892497,0,0.223694,0,0,0,0,2.2, -1.1, 0.7,1,0,1024,1024,1024,1024,0.9,-89.9,98,4.201,4.212,4.181,4.234,4.233,4.176,0,73.4,11,AutoTakeoff,DJI_0001.jpg Starting Mission from Lat/Long: 36.79165/-118.95553 Camera: Zenmuse X3 - Overlap: 90/90 - Active Connection: No
36.7916211,-118.9555796,6418.4835892497,-0.328084,0.223694,0.109454727912,3300,2018-06-14 20:21:22,12,0,0,6418.4835892497,0,0.223694,0.109454727912,0,0,0,2.5, 0.4, 0.4,0,0,1024,1024,1024,1024,0.9,-89.9,98,4.201,4.212,4.181,4.234,4.233,4.176,0,73.4,11,AutoTakeoff,
36.7916213,-118.9555796,6418.8116732497,0,0.223694,0.18242454652,3400,2018-06-14 20:21:23,12,0,0,6418.8116732497,0,0.223694,0.18242454652,0,0,-0.223694,2.6, 0.7, 0.1,0,0,1024,1024,1024,1024,1,-89.9,98,4.201,4.212,4.181,4.234,4.233,4.176,0,73.4,11,AutoTakeoff,
36.7916215,-118.9555796,6418.8116732497,0,0.223694,0.255394693212,3500,2018-06-14 20:21:23,12,0,0,6418.8116732497,0,0.223694,0.255394693212,0,0,-0.223694,2.6, 0.6, 0,0,0,1024,1024,1024,1024,1,-89.9,98,4.201,4.212,4.181,4.234,4.233,4.176,0,73.4,11,AutoTakeoff,
36.7916216,-118.9555796,6418.8116732497,0,0.223694,0.291879602516,3600,2018-06-14 20:21:23,12,0,0,6418.8116732497,0,0.223694,0.291879602516,0,0,-0.223694,2.6, 0.9, 0,0,0,1024,1024,1024,1024,1,-89.9,98,4.201,4.212,4.181,4.234,4.233,4.176,0,73.4,11,AutoTakeoff,
36.7916218,-118.9555797,6418.8116732497,0,0.223694,0.36601707208,3700,2018-06-14 20:21:23,12,0,0,6418.8116732497,0,0.223694,0.36601707208,0,0,0,2.6, 1.1, 0.2,0,0,1024,1024,1024,1024,1,-89.9,98,4.201,4.212,4.181,4.234,4.233,4.176,0,73.4,11,AutoTakeoff,
36.7916219,-118.9555797,6419.1397572497,0.328084,0.223694,0.402395026,3800,2018-06-14 20:21:23,12,0,0,6419.1397572497,0.328084,0.223694,0.402395026,0,0,0,2.5, 1, 0.3,0,0,1024,1024,1024,1024,1,-89.9,98,4.201,4.212,4.181,4.234,4.233,4.176,0,73.4,11,AutoTakeoff,
36.791622,-118.9555798,6419.1397572497,0.328084,0.223694,0.44170277004,3900,2018-06-14 20:21:23,12,0,0,6419.1397572497,0.328084,0.223694,0.44170277004,0,0,0,2.3, 1.4, 0.5,0,0,1024,1024,1024,1024,1,-89.9,98,4.201,4.212,4.181,4.234,4.233,4.176,0,73.4,11,AutoTakeoff,
36.7916221,-118.9555798,6419.4678412497,0.656168,0,0.47789043524,4000,2018-06-14 20:21:23,12,0,25.434,6419.4678412497,0.656168,0.223694,0.47789043524,0,0,0,2, 1.7, 0.9,0,0,1024,1024,1024,1024,1,-89.9,98,4.201,4.212,4.181,4.234,4.233,4.176,5.007,73.4,11,AutoTakeoff,
36.7916222,-118.9555798,6419.4678412497,0.656168,0,0.51412075136,4100,2018-06-14 20:21:23,12,0,25.434,6419.4678412497,0.656168,0.223694,0.51412075136,0,0,0,1.7, 1.9, 0.7,0,0,1024,1024,1024,1024,1.1,-89.9,98,4.201,4.212,4.181,4.234,4.233,4.176,5.007,73.4,11,AutoTakeoff,
36.7916222,-118.9555799,6419.7959252497,0.984252,0,0.51825460976,4200,2018-06-14 20:21:23,12,0,25.434,6419.7959252497,0.984252,0.223694,0.51825460976,0,0,0,1.6, 1.6, 0.5,0,0,1024,1024,1024,1024,1.1,-89.9,98,4.201,4.212,4.181,4.234,4.233,4.176,5.007,73.4,11,AutoTakeoff,
36.7916223,-118.9555799,6419.7959252497,0.984252,0,0.5542487054,4300,2018-06-14 20:21:23,12,0,25.434,6419.7959252497,0.984252,0.223694,0.5542487054,0,0,0,1.6, 1.2, 0.3,0,0,1024,1024,1024,1024,1.1,-89.9,98,4.201,4.212,4.181,4.234,4.233,4.176,5.007,73.4,11,AutoTakeoff,
36.7916223,-118.9555799,6419.7959252497,0.984252,0,0.5542487054,4400,2018-06-14 20:21:24,12,0,25.434,6419.7959252497,0.984252,0.223694,0.5542487054,0,0,0,1.8, 0.9, 0.3,0,0,1024,1024,1024,1024,1.1,-89.9,98,4.201,4.212,4.181,4.234,4.233,4.176,5.007,73.4,11,AutoTakeoff,
36.7916223,-118.95558,6420.1240092497,1.312336,0,0.5596128788,4500,2018-06-14 20:21:24,12,0,25.434,6420.1240092497,1.312336,0.223694,0.5596128788,0,0,0,2.1, 0.6, 0.4,0,0,1024,1024,1024,1024,1.1,-89.9,98,4.201,4.212,4.181,4.234,4.233,4.176,5.007,73.4,11,AutoTakeoff,
36.7916223,-118.9555801,6420.1240092497,1.312336,0,0.566437026,4600,2018-06-14 20:21:24,12,0,25.434,6420.1240092497,1.312336,0.223694,0.566437026,0,0,0,2.5, 0.3, 0.6,0,0,1024,1024,1024,1024,1.1,-89.9,98,4.201,4.212,4.181,4.234,4.233,4.176,5.007,73.4,11,AutoTakeoff,
36.7916224,-118.9555802,6420.1240092497,1.312336,0,0.6095144552,4700,2018-06-14 20:21:24,12,0,25.434,6420.1240092497,1.312336,0.223694,0.6095144552,0,0,0,2.8, 0.3, 0.5,0,0,1024,1024,1024,1024,1.1,-89.9,98,4.201,4.212,4.181,4.234,4.233,4.176,5.007,73.4,11,AutoTakeoff,
36.7916224,-118.9555803,6420.4520932497,1.64042,0,0.61854988856,4800,2018-06-14 20:21:24,12,0,25.434,6420.4520932497,1.64042,0.223694,0.61854988856,0,0,0,3, 0.1, 0.6,0,0,1024,1024,1024,1024,1.2,-89.9,98,4.201,4.212,4.181,4.234,4.233,4.176,5.007,73.4,11,AutoTakeoff,
36.7916224,-118.9555805,6420.4520932497,1.64042,0,0.64025264516,4900,2018-06-14 20:21:24,12,0,25.434,6420.4520932497,1.64042,0.223694,0.64025264516,0,0,-0.223694,3.1, 0.1, 1,0,0,1024,1024,1024,1024,1.2,-89.9,98,4.201,4.212,4.181,4.234,4.233,4.176,5.007,73.4,11,AutoTakeoff,
36.7916224,-118.9555806,6420.7801772497,1.968504,0,0.65279529648,5000,2018-06-14 20:21:24,12,0,24.39,6420.7801772497,1.968504,0.223694,0.65279529648,0,0,-0.223694,3.1, 0, 1.4,0,0,1024,1024,1024,1024,1.2,-89.9,98,4.047,4.016,4.04,4.059,4.053,4.044,14.836,73.4,11,AutoTakeoff,
36.7916223,-118.9555807,6420.7801772497,1.968504,0,0.63466865548,5100,2018-06-14 20:21:24,12,0,24.39,6420.7801772497,1.968504,0.223694,0.65279529648,0,0,0,3.1, 0.2, 1.6,0,0,1024,1024,1024,1024,1.1,-89.9,98,4.047,4.016,4.04,4.059,4.053,4.044,14.836,73.4,11,AutoTakeoff,
36.7916222,-118.9555809,6421.1082612497,2.296588,0,0.63653545344,5300,2018-06-14 20:21:24,12,0,24.39,6421.1082612497,2.296588,0.223694,0.65279529648,0,0,0,2.9, 0.4, 1.9,0,0,1024,1024,1024,1024,1.2,-89.9,98,4.047,4.016,4.04,4.059,4.053,4.044,14.836,73.4,11,AutoTakeoff,
36.7916221,-118.955581,6421.1082612497,2.296588,0,0.6263287602,5500,2018-06-14 20:21:25,12,0,24.39,6421.1082612497,2.296588,0.223694,0.65279529648,0,0,0,2.7, 0.4, 2.2,0,0,1024,1024,1024,1024,1.2,-89.9,98,4.047,4.016,4.04,4.059,4.053,4.044,14.836,73.4,11,AutoTakeoff,
36.7916219,-118.955581,6421.4363452497,2.624672,0,0.57305448028,5600,2018-06-14 20:21:25,12,0,24.39,6421.4363452497,2.624672,0.223694,0.65279529648,0,0,0,2.2, -0.2, 1.6,0,0,1024,1024,1024,1024,1.2,-89.9,98,4.047,4.016,4.04,4.059,4.053,4.044,14.836,73.4,11,AutoTakeoff,
36.7916218,-118.9555809,6421.7644292497,2.952756,0,0.52667652604,5800,2018-06-14 20:21:25,12,0,24.39,6421.7644292497,2.952756,0.223694,0.65279529648,0,0,0,1.9, -0.4, 1,0,0,1024,1024,1024,1024,1.2,-89.9,98,4.047,4.016,4.04,4.059,4.053,4.044,14.836,73.4,14,Waypoint,
36.7916217,-118.9555809,6421.7644292497,2.952756,0,0.50208991108,5900,2018-06-14 20:21:25,12,0,24.39,6421.7644292497,2.952756,0.223694,0.65279529648,0,0,0,1.8, -0.7, 0.8,0,0,1024,1024,1024,1024,1.2,-89.9,98,4.047,4.016,4.04,4.059,4.053,4.044,14.836,73.4,14,Waypoint,
36.7916216,-118.9555809,6421.7644292497,2.952756,0,0.47902560588,6000,2018-06-14 20:21:25,12,0,24.05,6421.7644292497,2.952756,0.223694,0.65279529648,0,0,0,1.7, -1, 0,0,0,1024,1024,1024,1024,1.2,-89.9,98,3.984,3.995,3.983,4.026,4.027,3.992,16.552,73.4,14,Waypoint,
36.7916215,-118.9555809,6421.7644292497,2.952756,0,0.4577099884,6100,2018-06-14 20:21:25,12,0,24.05,6421.7644292497,2.952756,0.223694,0.65279529648,0,0,0,1.6, -1.1, -0.2,0,0,1024,1024,1024,1024,1.2,-89.9,98,3.984,3.995,3.983,4.026,4.027,3.992,16.552,73.4,14,Waypoint,
36.7916214,-118.955581,6421.7644292497,2.952756,0,0.4639435844,6200,2018-06-14 20:21:25,12,0,24.05,6421.7644292497,2.952756,0.223694,0.65279529648,0,0,0,1.6, -1.1, 0.1,0,0,1024,1024,1024,1024,1.2,-89.9,98,3.984,3.995,3.983,4.026,4.027,3.992,16.552,73.4,14,Waypoint,
36.7916213,-118.955581,6421.7644292497,2.952756,0,0.4478838726,6300,2018-06-14 20:21:25,12,0,24.05,6421.7644292497,2.952756,0.223694,0.65279529648,0,0,0,1.6, -1.1, 0.2,0,0,1024,1024,1024,1024,1.2,-89.9,98,3.984,3.995,3.983,4.026,4.027,3.992,16.552,73.4,14,Waypoint,
36.7916212,-118.955581,6422.0925132497,3.28084,0,0.43430447584,6400,2018-06-14 20:21:26,12,0,24.05,6422.0925132497,3.28084,0.223694,0.65279529648,0,0,-0.223694,1.6, -0.9, 0.3,0,0,1024,1024,1024,1024,1.2,-89.9,98,3.984,3.995,3.983,4.026,4.027,3.992,16.552,73.4,14,Waypoint,
36.7916211,-118.955581,6422.0925132497,3.28084,0,0.4234416146,6500,2018-06-14 20:21:26,12,0,24.05,6422.0925132497,3.28084,0.223694,0.65279529648,0,0,-0.223694,1.5, -0.7, 0.2,0,0,1024,1024,1024,1024,1.2,-89.9,98,3.984,3.995,3.983,4.026,4.027,3.992,16.552,73.4,14,Waypoint,
36.791621,-118.955581,6422.4205972497,3.608924,0,0.41550854348,6600,2018-06-14 20:21:26,12,0,24.05,6422.4205972497,3.608924,0.223694,0.65279529648,0,0,-0.223694,1.6, -0.5, 0.3,0,0,1024,1024,1024,1024,1.2,-89.9,98,3.984,3.995,3.983,4.026,4.027,3.992,16.552,73.4,14,Waypoint,
36.791621,-118.9555811,6422.4205972497,3.608924,0,0.44430119532,6700,2018-06-14 20:21:26,12,0,24.05,6422.4205972497,3.608924,0.223694,0.65279529648,0,0,-0.223694,1.7, -0.5, 0.4,0,0,1024,1024,1024,1024,1.2,-89.9,98,3.984,3.995,3.983,4.026,4.027,3.992,16.552,73.4,14,Waypoint,
36.7916209,-118.9555811,6422.7486812497,3.937008,0,0.43978347864,6800,2018-06-14 20:21:26,12,0,24.05,6422.7486812497,3.937008,0.223694,0.65279529648,0,0,-0.223694,1.8, -0.5, 0.2,0,0,1024,1024,1024,1024,1.2,-89.9,98,3.984,3.995,3.983,4.026,4.027,3.992,16.552,73.4,14,Waypoint,
36.7916208,-118.955581,6423.4048492497,4.593176,0,0.40904856952,6900,2018-06-14 20:21:26,12,0,24.05,6423.4048492497,4.593176,0.223694,0.65279529648,0,0,-0.447388,1.9, -0.4, 0.2,0,0,1024,1024,1024,1024,1.2,-89.9,98,3.984,3.995,3.983,4.026,4.027,3.992,16.552,73.4,14,Waypoint,
36.7916208,-118.955581,6423.7329332497,4.92126,0,0.40904856952,7000,2018-06-14 20:21:26,12,0,23.956,6423.7329332497,4.92126,0.223694,0.65279529648,0,0,-0.447388,1.8, -0.5, 0.1,0,0,1024,1024,1024,1024,1.2,-89.9,98,3.977,3.969,3.959,4.017,4.014,3.977,16.895,73.4,14,Waypoint,
36.7916207,-118.9555811,6424.3891012497,5.577428,0,0.43978347864,7100,2018-06-14 20:21:26,12,0,23.956,6424.3891012497,5.577428,0.223694,0.65279529648,0,0,-0.447388,1.7, -0.6, 0.2,0,0,1024,1024,1024,1024,1.2,-89.9,98,3.977,3.969,3.959,4.017,4.014,3.977,16.895,73.4,14,Waypoint,
36.7916207,-118.9555812,6425.3733532497,6.56168,0,0.46890749532,7200,2018-06-14 20:21:26,12,0,23.956,6425.3733532497,6.56168,0.223694,0.65279529648,0,0,-0.447388,1.7, -0.6, 0.2,0,0,1024,1024,1024,1024,1.2,-90,98,3.977,3.969,3.959,4.017,4.014,3.977,16.895,73.4,14,Waypoint,
36.7916205,-118.9555811,6426.0295212497,7.217848,0,0.45172901708,7300,2018-06-14 20:21:26,12,0,23.956,6426.0295212497,7.217848,0.223694,0.65279529648,0,0,-0.671082,1.7, -0.9, 0.3,0,0,1024,1024,1024,1024,1.2,-90,98,3.977,3.969,3.959,4.017,4.014,3.977,16.895,73.4,14,Waypoint,
36.7916204,-118.9555811,6427.0137732497,8.2021,0,0.4619258678,7400,2018-06-14 20:21:27,12,0,23.956,6427.0137732497,8.2021,0.223694,0.65279529648,0,0,-0.671082,1.6, -1, 0.2,0,0,1024,1024,1024,1024,1.2,-89.9,98,3.977,3.969,3.959,4.017,4.014,3.977,16.895,73.4,14,Waypoint,
36.7916202,-118.955581,6427.9980252497,9.186352,0,0.4639435844,7500,2018-06-14 20:21:27,12,0,23.956,6427.9980252497,9.186352,0.223694,0.65279529648,0,0,-0.671082,1.6, -1.1, 0.1,0,0,1024,1024,1024,1024,1.2,-90,98,3.977,3.969,3.959,4.017,4.014,3.977,16.895,73.4,14,Waypoint,
36.7916201,-118.955581,6428.9822772497,10.170604,0,0.48223098656,7600,2018-06-14 20:21:27,12,0,23.956,6428.9822772497,10.170604,0.223694,0.65279529648,0,0,-0.671082,1.6, -1.2, 0.1,0,0,1024,1024,1024,1024,1.2,-90,98,3.977,3.969,3.959,4.017,4.014,3.977,16.895,73.4,14,Waypoint,
36.7916199,-118.9555809,6429.9665292497,11.154856,0,0.50208991108,7700,2018-06-14 20:21:27,12,0,23.956,6429.9665292497,11.154856,0.223694,0.65279529648,0,0,-0.671082,1.7, -1.4, 0,0,0,1024,1024,1024,1024,1.2,-89.9,98,3.977,3.969,3.959,4.017,4.014,3.977,16.895,73.4,14,Waypoint,
36.7916198,-118.9555808,6430.9507812497,12.139108,0,0.50601051488,7800,2018-06-14 20:21:27,12,0,23.956,6430.9507812497,12.139108,0.223694,0.65279529648,0,0,-0.671082,1.7, -1.4, -0.1,0,0,1024,1024,1024,1024,1.2,-90,98,3.977,3.969,3.959,4.017,4.014,3.977,16.895,73.4,14,Waypoint,
36.7916198,-118.9555806,6431.9350332497,13.12336,0,0.4674212748,7900,2018-06-14 20:21:27,12,0,23.956,6431.9350332497,13.12336,0.223694,0.65279529648,0,0,-0.671082,1.7, -1.4, -0.5,0,0,1024,1024,1024,1024,1.2,-89.9,98,3.977,3.969,3.959,4.017,4.014,3.977,16.895,73.4,14,Waypoint,
36.7916197,-118.9555804,6433.2473692497,14.435696,0,0.46443899124,8000,2018-06-14 20:21:27,12,0,23.445,6433.2473692497,14.435696,0.223694,0.65279529648,0,0,-0.671082,1.6, -1.3, -1,0,0,1024,1024,1024,1024,1.2,-89.9,98,3.879,3.883,3.914,3.901,3.902,3.866,20.664,73.4,14,Waypoint,
36.7916196,-118.9555805,6434.2316212497,15.419948,0,0.51071852028,8100,2018-06-14 20:21:27,12,0,23.445,6434.2316212497,15.419948,0.223694,0.65279529648,0,0,-0.671082,1.5, -1, -1.2,0,0,1024,1024,1024,1024,1.2,-89.9,98,3.879,3.883,3.914,3.901,3.902,3.866,20.664,73.4,14,Waypoint,
36.7916194,-118.9555806,6436.5282092497,17.716536,0,0.5884514624,8200,2018-06-14 20:21:27,12,0,23.445,6436.5282092497,17.716536,0.223694,0.65279529648,0,0,-0.671082,1.6, -0.8, 0.1,0,0,1024,1024,1024,1024,1.2,-89.9,98,3.879,3.883,3.914,3.901,3.902,3.866,20.664,73.4,14,Waypoint,
36.7916194,-118.9555806,6437.5124612497,18.700788,0,0.5884514624,8300,2018-06-14 20:21:27,12,0,23.445,6437.5124612497,18.700788,0.223694,0.65279529648,0,0,-0.671082,1.7, -0.9, 0.7,0,0,1024,1024,1024,1024,1.2,-90,98,3.879,3.883,3.914,3.901,3.902,3.866,20.664,73.4,14,Waypoint,
36.7916194,-118.9555808,6439.8090492497,20.997376,0.223694,0.61954398308,8600,2018-06-14 20:21:28,12,0,23.445,6439.8090492497,20.997376,0.223694,0.65279529648,0,0,-0.671082,1.8, -0.6, 0.8,0,0,1024,1024,1024,1024,1.2,-89.9,98,3.879,3.883,3.914,3.901,3.902,3.866,20.664,73.4,14,Waypoint,
36.7916195,-118.9555808,6441.1213852497,22.309712,0.223694,0.58982613436,8700,2018-06-14 20:21:28,12,0,23.445,6441.1213852497,22.309712,0.223694,0.65279529648,0,0,-0.671082,1.8, -0.5, 0.7,0,0,1024,1024,1024,1024,1.2,-89.9,98,3.879,3.883,3.914,3.901,3.902,3.866,20.664,73.4,14,Waypoint,
36.7916195,-118.9555809,6442.1056372497,23.293964,0.223694,0.60764765724,8800,2018-06-14 20:21:28,12,0,23.445,6442.1056372497,23.293964,0.223694,0.65279529648,0,0,-0.671082,1.7, -0.4, 0.7,0,0,1024,1024,1024,1024,1.2,-89.9,98,3.879,3.883,3.914,3.901,3.902,3.866,20.664,73.4,14,Waypoint,
36.7916196,-118.955581,6443.0898892497,24.278216,0.223694,0.59917324752,8900,2018-06-14 20:21:28,12,0,23.445,6443.0898892497,24.278216,0.223694,0.65279529648,0,0,-0.671082,1.7, -0.3, 0.7,0,0,1024,1024,1024,1024,1.2,-89.9,98,3.879,3.883,3.914,3.901,3.902,3.866,20.664,73.4,14,Waypoint,
36.7916197,-118.955581,6444.4022252497,25.590552,0.223694,0.57305448028,9000,2018-06-14 20:21:28,12,0,23.156,6444.4022252497,25.590552,0.223694,0.65279529648,0,0,-0.671082,1.8, -0.2, 0.7,0,0,1024,1024,1024,1024,1.2,-89.9,98,3.836,3.858,3.851,3.911,3.908,3.851,24.436,73.4,14,Waypoint,
36.7916198,-118.9555811,6445.3864772497,26.574804,0.223694,0.57025592376,9100,2018-06-14 20:21:28,12,0,23.156,6445.3864772497,26.574804,0.223694,0.65279529648,0,0,-0.671082,1.8, -0.2, 0.7,0,0,1024,1024,1024,1024,1.2,-89.9,98,3.836,3.858,3.851,3.911,3.908,3.851,24.436,73.4,14,Waypoint,
36.7916198,-118.9555812,6446.3707292497,27.559056,0.223694,0.59300854916,9200,2018-06-14 20:21:28,12,0,23.156,6446.3707292497,27.559056,0.223694,0.65279529648,0,0,-0.671082,1.9, -0.5, 0.5,0,0,1024,1024,1024,1024,1.2,-90,98,3.836,3.858,3.851,3.911,3.908,3.851,24.436,73.4,14,Waypoint,
36.7916199,-118.9555814,6447.3549812497,28.543308,0.223694,0.6200131432,9300,2018-06-14 20:21:28,12,0,23.156,6447.3549812497,28.543308,0.223694,0.65279529648,0,0,-0.671082,1.9, -0.7, 0.5,0,0,1024,1024,1024,1024,1.2,-90,98,3.836,3.858,3.851,3.911,3.908,3.851,24.436,73.4,14,Waypoint,
36.79162,-118.9555815,6448.3392332497,29.52756,0.223694,0.62719490196,9400,2018-06-14 20:21:29,12,0,23.156,6448.3392332497,29.52756,0.223694,0.65279529648,0,0,-0.671082,1.8, -0.6, 0.7,0,0,1024,1024,1024,1024,1.2,-89.9,98,3.836,3.858,3.851,3.911,3.908,3.851,24.436,73.4,14,Waypoint,
36.7916202,-118.9555817,6449.6515692497,30.839896,0.223694,0.65145671376,9500,2018-06-14 20:21:29,12,0,23.156,6449.6515692497,30.839896,0.223694,0.65279529648,0,0,-0.671082,1.8, -0.4, 1,0,0,1024,1024,1024,1024,1.2,-89.9,98,3.836,3.858,3.851,3.911,3.908,3.851,24.436,73.4,14,Waypoint,
36.7916203,-118.9555818,6450.6358212497,31.824148,0.223694,0.6681758744,9600,2018-06-14 20:21:29,12,0,23.156,6450.6358212497,31.824148,0.223694,0.6681758744,0,0,-0.671082,1.8, 0, 1.4,0,0,1024,1024,1024,1024,1.2,-89.9,98,3.836,3.858,3.851,3.911,3.908,3.851,24.436,73.4,14,Waypoint,
36.7916205,-118.9555819,6451.6200732497,32.8084,0.223694,0.68086616352,9700,2018-06-14 20:21:29,12,0,23.156,6451.6200732497,32.8084,0.223694,0.68086616352,0,0,-0.671082,1.8, 0.4, 1.8,0,0,1024,1024,1024,1024,1.2,-89.9,98,3.836,3.858,3.851,3.911,3.908,3.851,24.436,73.4,14,Waypoint,
36.7916207,-118.955582,6452.6043252497,33.792652,0.223694,0.70217521932,9800,2018-06-14 20:21:29,12,0,23.156,6452.6043252497,33.792652,0.223694,0.70217521932,0,0,-0.671082,1.7, 0.8, 1.4,0,0,1024,1024,1024,1024,1.2,-89.9,98,3.836,3.858,3.851,3.911,3.908,3.851,24.436,73.4,14,Waypoint,
36.7916209,-118.955582,6453.5885772497,34.776904,0.223694,0.70217521932,9900,2018-06-14 20:21:29,12,0,23.156,6453.5885772497,34.776904,0.223694,0.70217521932,0,0,-0.671082,1.7, 1.1, 1.2,0,0,1024,1024,1024,1024,1.1,-89.9,98,3.836,3.858,3.851,3.911,3.908,3.851,24.436,73.4,14,Waypoint,
36.791621,-118.9555821,6454.5728292497,35.761156,0.223694,0.73408138832,10000,2018-06-14 20:21:29,12,0,23.455,6454.5728292497,35.761156,0.223694,0.73408138832,0,0,-0.671082,1.7, 1.4, 1.1,0,0,1024,1024,1024,1024,1.2,-89.9,98,3.836,3.858,3.851,3.911,3.908,3.851,20.193,73.4,14,Waypoint,
36.7916212,-118.9555821,6455.5570812497,36.745408,0.223694,0.7448819136,10100,2018-06-14 20:21:29,12,0,23.455,6455.5570812497,36.745408,0.223694,0.7448819136,0,0,-0.671082,1.7, 1.5, 1.3,0,0,1024,1024,1024,1024,1.2,-89.9,98,3.836,3.858,3.851,3.911,3.908,3.851,20.193,73.4,14,Waypoint,
36.7916214,-118.9555822,6456.8694172497,38.057744,0.223694,0.79057745312,10200,2018-06-14 20:21:29,12,0,23.455,6456.8694172497,38.057744,0.223694,0.79057745312,0,0,-0.671082,1.7, 1.5, 1.2,0,0,1024,1024,1024,1024,1.2,-89.9,98,3.836,3.858,3.851,3.911,3.908,3.851,20.193,73.4,14,Waypoint,
36.7916215,-118.9555822,6457.8536692497,39.041996,0.223694,0.80144687604,10300,2018-06-14 20:21:29,12,0,23.455,6457.8536692497,39.041996,0.223694,0.80144687604,0,0,-0.671082,1.7, 1.4, 1.1,0,0,1024,1024,1024,1024,1.2,-89.9,98,3.836,3.858,3.851,3.911,3.908,3.851,20.193,73.4,14,Waypoint,
36.7916217,-118.9555824,6459.8221732497,41.0105,0,0.88153874212,10500,2018-06-14 20:21:30,12,0,23.455,6459.8221732497,41.0105,0.223694,0.88153874212,0,0,-0.671082,1.6, 1.2, 0.9,0,0,1024,1024,1024,1024,1.2,-89.9,98,3.836,3.858,3.851,3.911,3.908,3.851,20.193,73.4,14,Waypoint,
36.7916218,-118.9555825,6461.1345092497,42.322836,0,0.92252955708,10700,2018-06-14 20:21:30,12,0,23.455,6461.1345092497,42.322836,0.223694,0.92252955708,0,0,-0.671082,1.6, 1.1, 1,0,0,1024,1024,1024,1024,1.2,-89.9,98,3.836,3.858,3.851,3.911,3.908,3.851,20.193,73.4,14,Waypoint,
36.7916219,-118.9555826,6463.1030132497,44.29134,0,0.96404530644,10800,2018-06-14 20:21:30,12,0,23.455,6463.1030132497,44.29134,0.223694,0.96404530644,0,0,-0.671082,1.8, 0.9, 1,0,0,1024,1024,1024,1024,1.2,-89.9,98,3.836,3.858,3.851,3.911,3.908,3.851,20.193,73.4,14,Waypoint,
36.791622,-118.9555826,6464.0872652497,45.275592,0,0.97979661928,10900,2018-06-14 20:21:30,12,0,23.455,6464.0872652497,45.275592,0.223694,0.97979661928,0,0,-0.671082,1.8, 0.9, 0.9,0,0,1024,1024,1024,1024,1.2,-89.9,98,3.836,3.858,3.851,3.911,3.908,3.851,20.193,73.4,14,Waypoint,
36.791622,-118.9555827,6464.7434332497,45.93176,0,1.0060203734,11000,2018-06-14 20:21:30,12,0,23.455,6464.7434332497,45.93176,0.223694,1.0060203734,0,0,-0.671082,1.7, 0.9, 0.9,0,0,1024,1024,1024,1024,1.2,-89.9,98,3.887,3.897,3.899,3.941,3.936,3.895,20.193,73.4,14,Waypoint,
36.7916221,-118.9555827,6465.7276852497,46.916012,0,1.0224245734,11100,2018-06-14 20:21:30,12,0,23.455,6465.7276852497,46.916012,0.223694,1.0224245734,0,0,-0.671082,1.7, 0.8, 1,0,0,1024,1024,1024,1024,1.2,-89.9,98,3.887,3.897,3.899,3.941,3.936,3.895,20.193,73.4,14,Waypoint,
36.7916222,-118.9555827,6466.7119372497,47.900264,0,1.03985239548,11200,2018-06-14 20:21:30,12,0,23.455,6466.7119372497,47.900264,0.223694,1.03985239548,0,0,-0.671082,1.7, 0.9, 0.9,0,0,1024,1024,1024,1024,1.2,-89.9,98,3.887,3.897,3.899,3.941,3.936,3.895,20.193,73.4,14,Waypoint,
36.7916222,-118.9555828,6467.6961892497,48.884516,0,1.06540029656,11300,2018-06-14 20:21:30,12,0,23.455,6467.6961892497,48.884516,0.223694,1.06540029656,0,0,-0.671082,1.7, 1.3, 1,0,0,1024,1024,1024,1024,1.2,-89.9,98,3.887,3.897,3.899,3.941,3.936,3.895,20.193,73.4,14,Waypoint,
36.7916223,-118.9555828,6468.6804412497,49.868768,0,1.0833661764,11400,2018-06-14 20:21:31,12,0,23.455,6468.6804412497,49.868768,0.223694,1.0833661764,0,0,-0.671082,1.8, 1.5, 1,0,0,1024,1024,1024,1024,1.2,-89.9,98,3.887,3.897,3.899,3.941,3.936,3.895,20.193,73.4,14,Waypoint,
36.7916223,-118.9555828,6469.9927772497,51.181104,0,1.0833661764,11500,2018-06-14 20:21:31,12,0,23.455,6469.9927772497,51.181104,0.223694,1.0833661764,0,0,-0.671082,1.9, 1.6, 1.2,0,0,1024,1024,1024,1024,1.2,-89.9,98,3.887,3.897,3.899,3.941,3.936,3.895,20.193,73.4,14,Waypoint,
36.7916223,-118.9555828,6470.9770292497,52.165356,0,1.0833661764,11600,2018-06-14 20:21:31,12,0,23.455,6470.9770292497,52.165356,0.223694,1.0833661764,0,0,-0.671082,2.1, 1.2, 1.2,0,0,1024,1024,1024,1024,1.2,-89.9,98,3.887,3.897,3.899,3.941,3.936,3.895,20.193,73.4,14,Waypoint,
36.7916223,-118.9555828,6471.9612812497,53.149608,0,1.0833661764,11700,2018-06-14 20:21:31,12,0,23.455,6471.9612812497,53.149608,0.223694,1.0833661764,0,0,-0.671082,2.1, 0.7, 1.5,0,0,1024,1024,1024,1024,1.2,-89.9,98,3.887,3.897,3.899,3.941,3.936,3.895,20.193,73.4,14,Waypoint,
36.7916223,-118.9555827,6472.9455332497,54.13386,0.223694,1.0582513462,11800,2018-06-14 20:21:31,12,0,23.455,6472.9455332497,54.13386,0.223694,1.0833661764,0,0,-0.671082,2.1, 0.4, 1.2,0,0,1024,1024,1024,1024,1.2,-89.9,98,3.887,3.897,3.899,3.941,3.936,3.895,20.193,73.4,14,Waypoint,
36.7916223,-118.9555826,6473.6017012497,54.790028,0.223694,1.03335633228,11900,2018-06-14 20:21:31,12,0,23.455,6473.6017012497,54.790028,0.223694,1.0833661764,0,0,-0.671082,2, 0.4, 0.6,0,0,1024,1024,1024,1024,1.2,-90,98,3.887,3.897,3.899,3.941,3.936,3.895,20.193,73.4,14,Waypoint,
36.7916223,-118.9555826,6474.5859532497,55.77428,0.223694,1.03335633228,12000,2018-06-14 20:21:31,12,0,23.463,6474.5859532497,55.77428,0.223694,1.0833661764,0,0,-0.671082,1.8, 0.5, -0.1,0,0,1024,1024,1024,1024,1.2,-89.9,98,3.892,3.897,3.893,3.943,3.948,3.9,19.671,73.4,14,Waypoint,
36.7916223,-118.9555825,6475.5702052497,56.758532,0.223694,1.00869097716,12100,2018-06-14 20:21:31,12,0,23.463,6475.5702052497,56.758532,0.223694,1.0833661764,0,0,-0.671082,1.6, 0.6, -0.3,0,0,1024,1024,1024,1024,1.2,-89.9,98,3.892,3.897,3.893,3.943,3.948,3.9,19.671,73.4,14,Waypoint,
36.7916223,-118.9555824,6476.5544572497,57.742784,0.223694,0.98427496588,12200,2018-06-14 20:21:31,12,0,23.463,6476.5544572497,57.742784,0.223694,1.0833661764,0,0,-0.671082,1.6, 0.9, -0.3,0,0,1024,1024,1024,1024,1.2,-89.9,98,3.892,3.897,3.893,3.943,3.948,3.9,19.671,73.4,14,Waypoint,
36.7916223,-118.9555823,6477.5387092497,58.727036,0.223694,0.96012798348,12300,2018-06-14 20:21:31,12,0,23.463,6477.5387092497,58.727036,0.223694,1.0833661764,0,0,-0.671082,1.6, 1.1, -0.1,0,0,1024,1024,1024,1024,1.2,-89.9,98,3.892,3.897,3.893,3.943,3.948,3.9,19.671,73.4,14,Waypoint,
36.7916223,-118.9555822,6478.5229612497,59.711288,0.223694,0.93626643416,12400,2018-06-14 20:21:32,12,0,23.463,6478.5229612497,59.711288,0.223694,1.0833661764,0,0,-0.671082,1.7, 1.1, -0.5,0,0,1024,1024,1024,1024,1.2,-89.9,98,3.892,3.897,3.893,3.943,3.948,3.9,19.671,73.4,14,Waypoint,
36.7916223,-118.9555821,6479.8352972497,61.023624,0.223694,0.91271984548,12500,2018-06-14 20:21:32,12,0,23.463,6479.8352972497,61.023624,0.223694,1.0833661764,0,0,-0.671082,1.9, 0.9, -0.8,0,0,1024,1024,1024,1024,1.2,-89.9,98,3.892,3.897,3.893,3.943,3.948,3.9,19.671,73.4,14,Waypoint,
36.7916223,-118.955582,6480.8195492497,62.007876,0.223694,0.88951118332,12600,2018-06-14 20:21:32,12,0,23.463,6480.8195492497,62.007876,0.223694,1.0833661764,0,0,-0.671082,2.1, 0.8, -0.3,0,0,1024,1024,1024,1024,1.2,-89.9,98,3.892,3.897,3.893,3.943,3.948,3.9,19.671,73.4,14,Waypoint,
36.7916222,-118.9555819,6481.8038012497,62.992128,0,0.84409779604,12700,2018-06-14 20:21:32,12,0,23.463,6481.8038012497,62.992128,0.223694,1.0833661764,0,0,-0.671082,2.3, 0.9, 0,0,0,1024,1024,1024,1024,1.2,-89.9,98,3.892,3.897,3.893,3.943,3.948,3.9,19.671,73.4,14,Waypoint,
36.7916222,-118.9555818,6482.7880532497,63.97638,0,0.82102692916,12800,2018-06-14 20:21:32,12,0,23.463,6482.7880532497,63.97638,0.223694,1.0833661764,0,0,-0.671082,2.4, 1.1, -0.1,0,0,1024,1024,1024,1024,1.1,-89.9,98,3.892,3.897,3.893,3.943,3.948,3.9,19.671,73.4,14,Waypoint,
36.7916222,-118.9555817,6483.7723052497,64.960632,0,0.7983596056,12900,2018-06-14 20:21:32,12,0,23.463,6483.7723052497,64.960632,0.223694,1.0833661764,0,0,-0.671082,2.3, 1.4, -0.3,0,0,1024,1024,1024,1024,1.2,-89.9,98,3.892,3.897,3.893,3.943,3.948,3.9,19.671,73.4,14,Waypoint,
36.7916221,-118.9555816,6485.4127252497,66.601052,0,0.75262141516,13100,2018-06-14 20:21:32,12,0,23.463,6485.4127252497,66.601052,0.223694,1.0833661764,0,0,-0.671082,1.8, 1, 0,0,0,1024,1024,1024,1024,1.2,-90,98,3.892,3.897,3.893,3.943,3.948,3.9,19.671,73.4,14,Waypoint,
36.7916221,-118.9555815,6487.7093132497,68.89764,0,0.7301673462,13300,2018-06-14 20:21:32,12,0,23.463,6487.7093132497,68.89764,0.223694,1.0833661764,0,0,-0.671082,1.6, 0.3, -0.3,0,0,1024,1024,1024,1024,1.2,-89.9,98,3.892,3.897,3.893,3.943,3.948,3.9,19.671,73.4,14,Waypoint,
36.7916221,-118.9555814,6489.6778172497,70.866144,0,0.70820868408,13500,2018-06-14 20:21:33,12,0,23.463,6489.6778172497,70.866144,0.223694,1.0833661764,0,0,-0.671082,1.5, 0.9, 0,0,0,1024,1024,1024,1024,1.2,-89.9,98,3.892,3.897,3.893,3.943,3.948,3.9,19.671,73.4,14,Waypoint,
36.7916221,-118.9555814,6490.6620692497,71.850396,0,0.70820868408,13600,2018-06-14 20:21:33,12,0,23.463,6490.6620692497,71.850396,0.223694,1.0833661764,0,0,-0.671082,1.4, 1.3, 0,0,0,1024,1024,1024,1024,1.2,-89.9,98,3.892,3.897,3.893,3.943,3.948,3.9,19.671,73.4,14,Waypoint,
36.7916221,-118.9555814,6491.6463212497,72.834648,0,0.70820868408,13700,2018-06-14 20:21:33,12,0,23.463,6491.6463212497,72.834648,0.223694,1.0833661764,0,0,-0.671082,1.5, 1.3, 0,0,0,1024,1024,1024,1024,1.2,-89.9,98,3.892,3.897,3.893,3.943,3.948,3.9,19.671,73.4,14,Waypoint,
36.7916221,-118.9555813,6492.6305732497,73.8189,0,0.68678807972,13800,2018-06-14 20:21:33,12,0,23.463,6492.6305732497,73.8189,0.223694,1.0833661764,0,0,-0.671082,1.7, 1.1, 0.1,0,0,1024,1024,1024,1024,1.2,-89.9,98,3.892,3.897,3.893,3.943,3.948,3.9,19.671,73.4,14,Waypoint,
36.7916221,-118.9555813,6493.6148252497,74.803152,0,0.68678807972,13900,2018-06-14 20:21:33,12,0,23.463,6493.6148252497,74.803152,0.223694,1.0833661764,0,0,-0.671082,1.9, 1.2, 0.2,0,0,1024,1024,1024,1024,1.2,-89.9,98,3.892,3.897,3.893,3.943,3.948,3.9,19.671,73.4,14,Waypoint,
36.7916221,-118.9555812,6494.5990772497,75.787404,0,0.66596458824,14000,2018-06-14 20:21:33,12,0,23.34,6494.5990772497,75.787404,0.223694,1.0833661764,0,0,-0.671082,2, 1.4, 0.3,0,0,1024,1024,1024,1024,1.2,-89.9,97,3.871,3.859,3.865,3.908,3.919,3.868,20.594,73.4,14,Waypoint,
36.791622,-118.9555812,6495.5833292497,76.771656,0,0.64049214648,14100,2018-06-14 20:21:33,12,0,23.34,6495.5833292497,76.771656,0.223694,1.0833661764,0,0,-0.671082,2, 1.6, 0.1,0,0,1024,1024,1024,1024,1.2,-89.9,97,3.871,3.859,3.865,3.908,3.919,3.868,20.594,73.4,14,Waypoint,
36.791622,-118.9555811,6496.5675812497,77.755908,0,0.6194882088,14200,2018-06-14 20:21:33,12,0,23.34,6496.5675812497,77.755908,0.223694,1.0833661764,0,0,-0.671082,1.9, 1.7, -0.2,0,0,1024,1024,1024,1024,1.2,-89.9,97,3.871,3.859,3.865,3.908,3.919,3.868,20.594,73.4,14,Waypoint,
36.791622,-118.9555811,6497.5518332497,78.74016,0,0.6194882088,14300,2018-06-14 20:21:33,12,0,23.34,6497.5518332497,78.74016,0.223694,1.0833661764,0,0,-0.671082,1.9, 1.4, -0.4,0,0,1024,1024,1024,1024,1.2,-89.9,97,3.871,3.859,3.865,3.908,3.919,3.868,20.594,73.4,14,Waypoint,
36.7916219,-118.9555811,6498.5360852497,79.724412,0,0.59426183004,14400,2018-06-14 20:21:34,12,0,23.34,6498.5360852497,79.724412,0.223694,1.0833661764,0,0,-0.671082,1.7, 0.9, -0.2,0,0,1024,1024,1024,1024,1.2,-89.9,97,3.871,3.859,3.865,3.908,3.919,3.868,20.594,73.4,14,Waypoint,
36.7916219,-118.955581,6499.5203372497,80.708664,0,0.57305448028,14500,2018-06-14 20:21:34,12,0,23.34,6499.5203372497,80.708664,0.223694,1.0833661764,0,0,-0.671082,1.6, 0.8, -0.1,0,0,1024,1024,1024,1024,1.2,-89.9,97,3.871,3.859,3.865,3.908,3.919,3.868,20.594,73.4,14,Waypoint,
36.7916218,-118.955581,6500.8326732497,82.021,0,0.54812009628,14600,2018-06-14 20:21:34,12,0,23.34,6500.8326732497,82.021,0.223694,1.0833661764,0,0,-0.671082,1.6, 0.6, 0,0,0,1024,1024,1024,1024,1.2,-90,97,3.871,3.859,3.865,3.908,3.919,3.868,20.594,73.4,14,Waypoint,
36.7916218,-118.955581,6501.8169252497,83.005252,0,0.54812009628,14700,2018-06-14 20:21:34,12,0,23.34,6501.8169252497,83.005252,0.223694,1.0833661764,0,0,-0.671082,1.6, 0.4, 0,0,0,1024,1024,1024,1024,1.2,-90,97,3.871,3.859,3.865,3.908,3.919,3.868,20.594,73.4,14,Waypoint,
36.7916218,-118.9555809,6502.8011772497,83.989504,0,0.52667652604,14800,2018-06-14 20:21:34,12,0,23.34,6502.8011772497,83.989504,0.223694,1.0833661764,0,0,-0.671082,1.7, 0.4, 0,0,0,1024,1024,1024,1024,1.2,-89.9,97,3.871,3.859,3.865,3.908,3.919,3.868,20.594,73.4,14,Waypoint,
36.7916217,-118.9555809,6503.7854292497,84.973756,0,0.50208991108,14900,2018-06-14 20:21:34,12,0,23.34,6503.7854292497,84.973756,0.223694,1.0833661764,0,0,-0.671082,1.7, 0.6, 0.1,0,0,1024,1024,1024,1024,1.2,-89.9,97,3.871,3.859,3.865,3.908,3.919,3.868,20.594,73.4,14,Waypoint,
36.7916217,-118.9555808,6504.7696812497,85.958008,0,0.48036746944,15000,2018-06-14 20:21:34,12,0,23.176,6504.7696812497,85.958008,0.223694,1.0833661764,0,0,-0.671082,1.8, 0.2, 0,0,0,1024,1024,1024,1024,1.2,-89.9,97,3.838,3.854,3.836,3.891,3.901,3.833,21.777,75.2,14,Waypoint,
36.7916218,-118.9555808,6505.7539332497,86.94226,0,0.50601051488,15100,2018-06-14 20:21:34,12,0,23.176,6505.7539332497,86.94226,0.223694,1.0833661764,0,0,-0.671082,1.8, 0.6, -0.2,0,0,1024,1024,1024,1024,1.2,-89.9,97,3.838,3.854,3.836,3.891,3.901,3.833,21.777,75.2,14,Waypoint,
36.7916218,-118.9555807,6506.7381852497,87.926512,0.223694,0.486220488,15200,2018-06-14 20:21:34,12,0,23.176,6506.7381852497,87.926512,0.223694,1.0833661764,0,0,-0.671082,1.8, 1.6, -0.6,0,0,1024,1024,1024,1024,1.2,-89.9,97,3.838,3.854,3.836,3.891,3.901,3.833,21.777,75.2,14,Waypoint,
36.791622,-118.9555805,6508.7066892497,89.895016,0,0.51071852028,15400,2018-06-14 20:21:35,12,0,23.176,6508.7066892497,89.895016,0.223694,1.0833661764,0,0,-0.671082,1.7, 2.3, -0.8,0,0,1024,1024,1024,1024,1.2,-89.9,97,3.838,3.854,3.836,3.891,3.901,3.833,21.777,75.2,14,Waypoint,
36.791622,-118.9555805,6509.6909412497,90.879268,0,0.51071852028,15600,2018-06-14 20:21:35,12,0,23.176,6509.6909412497,90.879268,0.223694,1.0833661764,0,0,-0.671082,1.7, 2.5, -1,0,0,1024,1024,1024,1024,1.2,-89.9,97,3.838,3.854,3.836,3.891,3.901,3.833,21.777,75.2,14,Waypoint,
36.791622,-118.9555804,6510.6751932497,91.86352,0,0.496309071,15700,2018-06-14 20:21:35,12,0,23.176,6510.6751932497,91.86352,0.223694,1.0833661764,0,0,-0.671082,1.7, 2.7, -0.9,0,0,1024,1024,1024,1024,1.2,-89.9,97,3.838,3.854,3.836,3.891,3.901,3.833,21.777,75.2,14,Waypoint,
36.7916221,-118.9555804,6511.3313612497,92.519688,0,0.5287729828,15800,2018-06-14 20:21:35,12,0,23.176,6511.3313612497,92.519688,0.223694,1.0833661764,0,0,-0.671082,1.7, 2.4, -0.8,0,0,1024,1024,1024,1024,1.2,-89.9,97,3.838,3.854,3.836,3.891,3.901,3.833,21.777,75.2,14,Waypoint,
36.7916221,-118.9555804,6513.2998652497,94.488192,0,0.5287729828,15900,2018-06-14 20:21:35,12,0,23.176,6513.2998652497,94.488192,0.223694,1.0833661764,0,0,-0.671082,1.7, 1.9, 0,0,0,1024,1024,1024,1024,1.2,-89.9,97,3.838,3.854,3.836,3.891,3.901,3.833,21.777,75.2,14,Waypoint,
36.7916222,-118.9555803,6514.6122012497,95.800528,0,0.5502132722,16000,2018-06-14 20:21:35,12,0,23.206,6514.6122012497,95.800528,0.223694,1.0833661764,0,0,-0.671082,1.6, 1.5, -0.2,0,0,1024,1024,1024,1024,1.2,-90,97,3.844,3.86,3.85,3.907,3.902,3.855,20.954,75.2,14,Waypoint,
36.7916222,-118.9555804,6516.2526212497,97.440948,0,0.5617290206,16200,2018-06-14 20:21:35,12,0,23.206,6516.2526212497,97.440948,0.223694,1.0833661764,0,0,-0.671082,1.9, 1.1, -0.4,0,0,1024,1024,1024,1024,1.2,-90,97,3.844,3.86,3.85,3.907,3.902,3.855,20.954,75.2,14,Waypoint,
36.7916222,-118.9555804,6517.2368732497,98.4252,0,0.5617290206,16300,2018-06-14 20:21:35,12,0,23.206,6517.2368732497,98.4252,0.223694,1.0833661764,0,0,-0.671082,2, 0.9, -0.5,0,0,1024,1024,1024,1024,1.2,-89.9,97,3.844,3.86,3.85,3.907,3.902,3.855,20.954,75.2,14,Waypoint,
36.7916222,-118.9555803,6519.2053772497,100.393704,0,0.5502132722,16500,2018-06-14 20:21:36,12,0,23.206,6519.2053772497,100.393704,0.223694,1.0833661764,0,0,-0.671082,2.1, 1.7, -0.2,0,0,1024,1024,1024,1024,1.2,-89.9,97,3.844,3.86,3.85,3.907,3.902,3.855,20.954,75.2,14,Waypoint,
36.7916222,-118.9555803,6520.1896292497,101.377956,0,0.5502132722,16600,2018-06-14 20:21:36,12,0,23.206,6520.1896292497,101.377956,0.223694,1.0833661764,0,0,-0.671082,2, 1.9, -0.2,0,0,1024,1024,1024,1024,1.2,-89.9,97,3.844,3.86,3.85,3.907,3.902,3.855,20.954,75.2,14,Waypoint,
36.7916222,-118.9555802,6521.1738812497,102.362208,0,0.54003610652,16700,2018-06-14 20:21:36,12,0,23.206,6521.1738812497,102.362208,0.223694,1.0833661764,0,0,-0.671082,1.9, 1.8, -0.1,0,0,1024,1024,1024,1024,1.2,-89.9,97,3.844,3.86,3.85,3.907,3.902,3.855,20.954,75.2,14,Waypoint,
36.7916222,-118.9555802,6522.1581332497,103.34646,0,0.54003610652,16800,2018-06-14 20:21:36,12,0,23.206,6522.1581332497,103.34646,0.223694,1.0833661764,0,0,-0.671082,1.8, 1.6, -0.4,0,0,1024,1024,1024,1024,1.2,-89.9,97,3.844,3.86,3.85,3.907,3.902,3.855,20.954,75.2,14,Waypoint,
36.7916222,-118.9555802,6523.4704692497,104.658796,0,0.54003610652,16900,2018-06-14 20:21:36,12,0,23.206,6523.4704692497,104.658796,0.223694,1.0833661764,0,0,-0.671082,1.7, 1.2, -0.4,0,0,1024,1024,1024,1024,1.2,-90,97,3.844,3.86,3.85,3.907,3.902,3.855,20.954,75.2,14,Waypoint,
36.7916221,-118.9555801,6524.4547212497,105.643048,0,0.4962926668,17000,2018-06-14 20:21:36,12,0,23.121,6524.4547212497,105.643048,0.223694,1.0833661764,0,0,-0.671082,1.6, 1, -0.2,0,0,1024,1024,1024,1024,1.2,-89.9,97,3.829,3.826,3.834,3.88,3.883,3.828,21.52,75.2,14,Waypoint,
36.7916221,-118.9555801,6525.4389732497,106.6273,0,0.4962926668,17100,2018-06-14 20:21:36,12,0,23.121,6525.4389732497,106.6273,0.223694,1.0833661764,0,0,-0.671082,1.6, 1.1, -0.3,0,0,1024,1024,1024,1024,1.2,-90,97,3.829,3.826,3.834,3.88,3.883,3.828,21.52,75.2,14,Waypoint,
36.7916221,-118.9555801,6526.4232252497,107.611552,0,0.4962926668,17200,2018-06-14 20:21:36,12,0,23.121,6526.4232252497,107.611552,0.223694,1.0833661764,0,0,-0.671082,1.6, 1.1, -0.5,0,0,1024,1024,1024,1024,1.2,-89.9,97,3.829,3.826,3.834,3.88,3.883,3.828,21.52,75.2,14,Waypoint,
36.7916222,-118.9555801,6527.4074772497,108.595804,0,0.53126970204,17300,2018-06-14 20:21:36,12,0,23.121,6527.4074772497,108.595804,0.223694,1.0833661764,0,0,-0.671082,1.7, 1.1, -0.6,0,0,1024,1024,1024,1024,1.2,-89.9,97,3.829,3.826,3.834,3.88,3.883,3.828,21.52,75.2,14,Waypoint,
36.7916222,-118.95558,6528.0636452497,109.251972,0,0.52398951808,17400,2018-06-14 20:21:37,12,0,23.121,6528.0636452497,109.251972,0.223694,1.0833661764,0,0,-0.671082,1.8, 1.3, -0.7,0,0,1024,1024,1024,1024,1.2,-89.9,97,3.829,3.826,3.834,3.88,3.883,3.828,21.52,75.2,14,Waypoint,
36.7916222,-118.95558,6529.0478972497,110.236224,0,0.52398951808,17500,2018-06-14 20:21:37,12,0,23.121,6529.0478972497,110.236224,0.223694,1.0833661764,0,0,-0.671082,1.8, 1.4, -0.8,0,0,1024,1024,1024,1024,1.2,-89.9,97,3.829,3.826,3.834,3.88,3.883,3.828,21.52,75.2,14,Waypoint,
36.7916222,-118.9555799,6530.0321492497,111.220476,0,0.51825460976,17600,2018-06-14 20:21:37,12,0,23.121,6530.0321492497,111.220476,0.223694,1.0833661764,0,0,-0.671082,1.7, 1.4, -1,0,0,1024,1024,1024,1024,1.2,-89.9,97,3.829,3.826,3.834,3.88,3.883,3.828,21.52,75.2,14,Waypoint,
36.7916223,-118.9555799,6531.3444852497,112.532812,0,0.5542487054,17700,2018-06-14 20:21:37,12,0,23.121,6531.3444852497,112.532812,0.223694,1.0833661764,0,0,-0.671082,1.5, 1.6, -1.2,0,0,1024,1024,1024,1024,1.2,-89.9,97,3.829,3.826,3.834,3.88,3.883,3.828,21.52,75.2,14,Waypoint,
36.7916223,-118.9555798,6532.3287372497,113.517064,0,0.55038387588,17800,2018-06-14 20:21:37,12,0,23.121,6532.3287372497,113.517064,0.223694,1.0833661764,0,0,-0.671082,1.5, 1.8, -1,0,0,1024,1024,1024,1024,1.2,-89.9,97,3.829,3.826,3.834,3.88,3.883,3.828,21.52,75.2,14,Waypoint,
36.7916223,-118.9555798,6533.3129892497,114.501316,0,0.55038387588,17900,2018-06-14 20:21:37,12,0,23.121,6533.3129892497,114.501316,0.223694,1.0833661764,0,0,-0.671082,1.5, 1.8, -1.2,0,0,1024,1024,1024,1024,1.2,-89.9,97,3.829,3.826,3.834,3.88,3.883,3.828,21.52,75.2,14,Waypoint,
36.7916223,-118.9555798,6535.2814932497,116.46982,0,0.55038387588,18110,2018-06-14 20:21:37,12,0,23.121,6535.2814932497,116.46982,0.223694,1.0833661764,0,0,-0.671082,1.8, 2.4, -1.1,0,0,1024,1024,1024,1024,1.2,-89.9,97,3.829,3.826,3.834,3.88,3.883,3.828,21.52,75.2,14,Waypoint,
36.7916224,-118.9555798,6536.5938292497,117.782156,0,0.58667652796,18200,2018-06-14 20:21:37,12,0,23.121,6536.5938292497,117.782156,0.223694,1.0833661764,0,0,-0.671082,2.1, 2.6, -1.1,0,0,1024,1024,1024,1024,1.2,-89.9,97,3.829,3.826,3.834,3.88,3.883,3.828,21.52,75.2,14,Waypoint,
36.7916223,-118.9555798,6537.5780812497,118.766408,0,0.55038387588,18300,2018-06-14 20:21:37,12,0,23.121,6537.5780812497,118.766408,0.223694,1.0833661764,0,0,-0.671082,2.5, 2.3, -1.6,0,0,1024,1024,1024,1024,1.2,-90,97,3.829,3.826,3.834,3.88,3.883,3.828,21.52,75.2,14,Waypoint,
36.7916223,-118.9555798,6538.5623332497,119.75066,0,0.55038387588,18400,2018-06-14 20:21:38,12,0,23.121,6538.5623332497,119.75066,0.223694,1.0833661764,0,0,-0.671082,2.8, 1.6, -1.9,0,0,1024,1024,1024,1024,1.2,-90,97,3.829,3.826,3.834,3.88,3.883,3.828,21.52,75.2,14,Waypoint,
36.7916223,-118.9555798,6539.5465852497,120.734912,0,0.55038387588,18600,2018-06-14 20:21:38,12,0,23.121,6539.5465852497,120.734912,0.223694,1.0833661764,0,0,-0.671082,2.9, 0.9, -1.9,0,0,1024,1024,1024,1024,1.2,-90,97,3.829,3.826,3.834,3.88,3.883,3.828,21.52,75.2,14,Waypoint,
36.7916223,-118.9555802,6542.4993412497,123.687668,0.223694,0.57466537272,18700,2018-06-14 20:21:38,12,0,23.121,6542.4993412497,123.687668,0.223694,1.0833661764,0,0,-0.671082,2.4, 1, 1.3,0,0,1024,1024,1024,1024,1.2,-89.9,97,3.829,3.826,3.834,3.88,3.883,3.828,21.52,75.2,14,Waypoint,
36.7916223,-118.9555803,6543.4835932497,124.67192,0,0.58424214468,18900,2018-06-14 20:21:38,12,0,23.121,6543.4835932497,124.67192,0.223694,1.0833661764,0,0,-0.671082,1.9, 1.4, 1.7,0,0,1024,1024,1024,1024,1.2,-89.9,97,3.829,3.826,3.834,3.88,3.883,3.828,21.52,75.2,14,Waypoint,
36.7916223,-118.9555804,6544.1397612497,125.328088,0,0.59510172508,19000,2018-06-14 20:21:38,12,0,22.907,6544.1397612497,125.328088,0.223694,1.0833661764,0,0,-0.671082,1.3, 1.8, 2,0,0,1024,1024,1024,1024,1.2,-89.9,97,3.796,3.796,3.805,3.85,3.869,3.821,22.867,75.2,14,Waypoint,
36.7916224,-118.9555805,6545.1240132497,126.31234,0,0.64025264516,19100,2018-06-14 20:21:38,12,0,22.907,6545.1240132497,126.31234,0.223694,1.0833661764,0,0,-0.671082,1.1, 2.1, 1.7,0,0,1024,1024,1024,1024,1.2,-89.9,97,3.796,3.796,3.805,3.85,3.869,3.821,22.867,75.2,14,Waypoint,
36.7916225,-118.9555806,6545.7801812497,126.968508,0,0.68561681984,19200,2018-06-14 20:21:38,12,0,22.907,6545.7801812497,126.968508,0.223694,1.0833661764,0,0,-0.671082,0.9, 2.4, 1,0,0,1024,1024,1024,1024,1.2,-89.9,97,3.796,3.796,3.805,3.85,3.869,3.821,22.867,75.2,14,Waypoint,
36.7916226,-118.9555806,6546.7644332497,127.95276,0,0.71879267392,19300,2018-06-14 20:21:38,12,0,22.907,6546.7644332497,127.95276,0.223694,1.0833661764,0,0,-0.671082,0.8, 2.5, 0.4,0,0,1024,1024,1024,1024,1.2,-89.9,97,3.796,3.796,3.805,3.85,3.869,3.821,22.867,75.2,14,Waypoint,
36.7916226,-118.9555805,6547.7486852497,128.937012,0,0.70741800164,19400,2018-06-14 20:21:39,12,0,22.907,6547.7486852497,128.937012,0.223694,1.0833661764,0,0,-0.671082,0.6, 2.5, -0.1,0,0,1024,1024,1024,1024,1.2,-89.9,97,3.796,3.796,3.805,3.85,3.869,3.821,22.867,75.2,14,Waypoint,
36.7916227,-118.9555805,6548.7329372497,129.921264,0,0.74141406572,19500,2018-06-14 20:21:39,12,0,22.907,6548.7329372497,129.921264,0.223694,1.0833661764,0,0,-0.671082,0.7, 2.3, -0.8,0,0,1024,1024,1024,1024,1.2,-89.9,97,3.796,3.796,3.805,3.85,3.869,3.821,22.867,75.2,14,Waypoint,
36.7916228,-118.9555804,6549.7171892497,130.905516,0,0.76622049696,19600,2018-06-14 20:21:39,12,0,22.907,6549.7171892497,130.905516,0.223694,1.0833661764,0,0,-0.671082,1, 2.5, -1,0,0,1024,1024,1024,1024,1.2,-89.9,97,3.796,3.796,3.805,3.85,3.869,3.821,22.867,75.2,14,Waypoint,
36.7916228,-118.9555804,6550.7014412497,131.889768,0,0.76622049696,19700,2018-06-14 20:21:39,12,0,22.907,6550.7014412497,131.889768,0.223694,1.0833661764,0,0,-0.671082,1.3, 2.7, -0.9,0,0,1024,1024,1024,1024,1.2,-89.9,97,3.796,3.796,3.805,3.85,3.869,3.821,22.867,75.2,14,Waypoint,
36.7916229,-118.9555804,6552.0137772497,133.202104,0,0.80104661356,19800,2018-06-14 20:21:39,12,0,22.907,6552.0137772497,133.202104,0.223694,1.0833661764,0,0,-0.671082,1.7, 3, -0.6,0,0,1024,1024,1024,1024,1.2,-89.9,97,3.796,3.796,3.805,3.85,3.869,3.821,22.867,75.2,14,Waypoint,
36.791623,-118.9555804,6552.6699452497,133.858272,0,0.83601052544,19900,2018-06-14 20:21:39,12,0,22.907,6552.6699452497,133.858272,0.223694,1.0833661764,0,0,-0.671082,1.8, 3.3, -0.3,0,0,1024,1024,1024,1024,1.2,-89.9,97,3.796,3.796,3.805,3.85,3.869,3.821,22.867,75.2,14,Waypoint,
36.791623,-118.9555804,6553.6541972497,134.842524,0,0.83601052544,20000,2018-06-14 20:21:39,12,0,23.088,6553.6541972497,134.842524,0.223694,1.0833661764,0,0,-0.671082,1.8, 3.6, -0.3,0,0,1024,1024,1024,1024,1.2,-89.9,97,3.83,3.832,3.826,3.876,3.881,3.827,20.786,75.2,14,Waypoint,
36.7916231,-118.9555803,6554.9665332497,136.15486,0,0.86371721924,20100,2018-06-14 20:21:39,12,0,23.088,6554.9665332497,136.15486,0.223694,1.0833661764,0,0,-0.671082,1.8, 3.7, -0.6,0,0,1024,1024,1024,1024,1.2,-89.9,97,3.83,3.832,3.826,3.876,3.881,3.827,20.786,75.2,14,Waypoint,
36.7916231,-118.9555803,6555.9507852497,137.139112,0,0.86371721924,20200,2018-06-14 20:21:39,12,0,23.088,6555.9507852497,137.139112,0.223694,1.0833661764,0,0,-0.671082,1.9, 3.1, -0.6,0,0,1024,1024,1024,1024,1.2,-89.9,97,3.83,3.832,3.826,3.876,3.881,3.827,20.786,75.2,14,Waypoint,
36.7916232,-118.9555802,6556.9350372497,138.123364,0,0.89301512044,20300,2018-06-14 20:21:39,12,0,23.088,6556.9350372497,138.123364,0.223694,1.0833661764,0,0,-0.671082,2, 2.8, -0.3,0,0,1024,1024,1024,1024,1.2,-89.9,97,3.83,3.832,3.826,3.876,3.881,3.827,20.786,75.2,14,Waypoint,
36.7916232,-118.9555801,6557.9192892497,139.107616,0,0.88774281056,20400,2018-06-14 20:21:40,12,0,23.088,6557.9192892497,139.107616,0.223694,1.0833661764,0,0,-0.671082,1.9, 3.1, -0.5,0,0,1024,1024,1024,1024,1.2,-89.9,97,3.83,3.832,3.826,3.876,3.881,3.827,20.786,75.2,14,Waypoint,
36.7916232,-118.9555801,6558.9035412497,140.091868,0,0.88774281056,20500,2018-06-14 20:21:40,12,0,23.088,6558.9035412497,140.091868,0.223694,1.0833661764,0,0,-0.671082,1.8, 3.4, -0.6,0,0,1024,1024,1024,1024,1.2,-89.9,97,3.83,3.832,3.826,3.876,3.881,3.827,20.786,75.2,14,Waypoint,
36.7916233,-118.9555801,6559.8877932497,141.07612,0,0.92375002956,20610,2018-06-14 20:21:40,12,0,23.088,6559.8877932497,141.07612,0.223694,1.0833661764,0,0,-0.671082,1.6, 3.7, -0.6,0,0,1024,1024,1024,1024,1.2,-89.9,97,3.83,3.832,3.826,3.876,3.881,3.827,20.786,75.2,14,Waypoint,
36.7916233,-118.95558,6560.5439612497,141.732288,0,0.91958008192,20700,2018-06-14 20:21:40,12,0,23.088,6560.5439612497,141.732288,0.223694,1.0833661764,0,0,-0.671082,1.6, 3.8, -0.7,0,0,1024,1024,1024,1024,1.2,-89.9,97,3.83,3.832,3.826,3.876,3.881,3.827,20.786,75.2,14,Waypoint,
36.7916234,-118.95558,6561.8562972497,143.044624,0,0.95578087048,20800,2018-06-14 20:21:40,12,0,23.088,6561.8562972497,143.044624,0.223694,1.0833661764,0,0,-0.671082,1.6, 3.8, -0.9,0,0,1024,1024,1024,1024,1.2,-89.9,97,3.83,3.832,3.826,3.876,3.881,3.827,20.786,75.2,14,Waypoint,
36.7916234,-118.95558,6563.8248012497,145.013128,0,0.95578087048,21000,2018-06-14 20:21:40,12,0,23.014,6563.8248012497,145.013128,0.223694,1.0833661764,0,0,-0.671082,1.5, 3.7, -1.2,0,0,1024,1024,1024,1024,1.2,-89.9,97,3.83,3.832,3.826,3.876,3.881,3.827,22.748,75.2,14,Waypoint,
36.7916234,-118.9555799,6565.7933052497,146.981632,0,0.95265094912,21200,2018-06-14 20:21:40,12,0,23.014,6565.7933052497,146.981632,0.223694,1.0833661764,0,0,-0.671082,1.5, 3.4, -1,0,0,1024,1024,1024,1024,1.2,-89.9,97,3.83,3.832,3.826,3.876,3.881,3.827,22.748,75.2,14,Waypoint,
36.7916234,-118.95558,6566.7775572497,147.965884,0,0.95578087048,21300,2018-06-14 20:21:40,12,0,23.014,6566.7775572497,147.965884,0.223694,1.0833661764,0,0,-0.671082,1.4, 3.6, -1,0,0,1024,1024,1024,1024,1.2,-89.9,97,3.83,3.832,3.826,3.876,3.881,3.827,22.748,75.2,14,Waypoint,
36.7916234,-118.95558,6567.7618092497,148.950136,0,0.95578087048,21400,2018-06-14 20:21:41,12,0,23.014,6567.7618092497,148.950136,0.223694,1.0833661764,0,0,-0.671082,1.5, 3.7, -1,0,0,1024,1024,1024,1024,1.2,-89.9,97,3.83,3.832,3.826,3.876,3.881,3.827,22.748,75.2,14,Waypoint,
36.7916234,-118.95558,6568.7460612497,149.934388,0,0.95578087048,21500,2018-06-14 20:21:41,12,0,23.014,6568.7460612497,149.934388,0.223694,1.0833661764,0,0,-0.671082,1.7, 3.5, -0.8,0,0,1024,1024,1024,1024,1.1,-89.9,97,3.83,3.832,3.826,3.876,3.881,3.827,22.748,75.2,14,Waypoint,
36.7916234,-118.95558,6569.7303132497,150.91864,0,0.95578087048,21600,2018-06-14 20:21:41,12,0,23.014,6569.7303132497,150.91864,0.223694,1.0833661764,0,0,-0.671082,1.9, 3.7, -0.6,0,0,1024,1024,1024,1024,1.2,-89.9,97,3.83,3.832,3.826,3.876,3.881,3.827,22.748,75.2,14,Waypoint,
36.7916234,-118.95558,6570.7145652497,151.902892,0,0.95578087048,21700,2018-06-14 20:21:41,12,0,23.014,6570.7145652497,151.902892,0.223694,1.0833661764,0,0,-0.671082,2, 3.3, -0.7,0,0,1024,1024,1024,1024,1.2,-89.9,97,3.83,3.832,3.826,3.876,3.881,3.827,22.748,75.2,14,Waypoint,
36.7916233,-118.95558,6571.6988172497,152.887144,0,0.91958008192,21800,2018-06-14 20:21:41,12,0,23.014,6571.6988172497,152.887144,0.223694,1.0833661764,0,0,-0.671082,2, 3.1, -0.8,0,0,1024,1024,1024,1024,1.2,-89.9,97,3.83,3.832,3.826,3.876,3.881,3.827,22.748,75.2,14,Waypoint,
36.7916233,-118.95558,6572.6830692497,153.871396,0,0.91958008192,21900,2018-06-14 20:21:41,12,0,23.014,6572.6830692497,153.871396,0.223694,1.0833661764,0,0,-0.671082,2, 3.4, -0.6,0,0,1024,1024,1024,1024,1.2,-89.9,97,3.83,3.832,3.826,3.876,3.881,3.827,22.748,75.2,14,Waypoint,
36.7916233,-118.9555801,6573.6673212497,154.855648,0,0.92375002956,22000,2018-06-14 20:21:41,12,0,23.014,6573.6673212497,154.855648,0.223694,1.0833661764,0,0,-0.671082,2.1, 3.4, -0.9,0,0,1024,1024,1024,1024,1.2,-89.9,97,3.809,3.823,3.815,3.873,3.873,3.812,22.748,75.2,14,Waypoint,
36.7916233,-118.9555802,6574.6515732497,155.8399,0,0.92881892736,22100,2018-06-14 20:21:41,12,0,23.014,6574.6515732497,155.8399,0.223694,1.0833661764,0,0,-0.671082,2.2, 3.4, -0.7,0,0,1024,1024,1024,1024,1.2,-89.9,97,3.809,3.823,3.815,3.873,3.873,3.812,22.748,75.2,14,Waypoint,
36.7916233,-118.9555803,6575.6358252497,156.824152,0.223694,0.93477365196,22200,2018-06-14 20:21:41,12,0,23.014,6575.6358252497,156.824152,0.223694,1.0833661764,0,0,-0.671082,2.3, 3.4, -0.1,0,0,1024,1024,1024,1024,1.2,-89.9,97,3.809,3.823,3.815,3.873,3.873,3.812,22.748,75.2,14,Waypoint,
36.7916232,-118.9555804,6576.6200772497,157.808404,0.223694,0.9062992416,22300,2018-06-14 20:21:41,12,0,23.014,6576.6200772497,157.808404,0.223694,1.0833661764,0,0,-0.671082,2.3, 3.6, 0.6,0,0,1024,1024,1024,1024,1.2,-89.9,97,3.809,3.823,3.815,3.873,3.873,3.812,22.748,75.2,14,Waypoint,
36.7916232,-118.9555805,6577.6043292497,158.792656,0,0.9142716828,22400,2018-06-14 20:21:42,12,0,23.014,6577.6043292497,158.792656,0.223694,1.0833661764,0,0,-0.671082,2.4, 3.4, 1.2,0,0,1024,1024,1024,1024,1.2,-89.9,97,3.809,3.823,3.815,3.873,3.873,3.812,22.748,75.2,14,Waypoint,
36.7916231,-118.9555806,6578.5885812497,159.776908,0,0.88856302056,22500,2018-06-14 20:21:42,12,0,23.014,6578.5885812497,159.776908,0.223694,1.0833661764,0,0,-0.671082,2.4, 3, 1.1,0,0,1024,1024,1024,1024,1.2,-89.9,97,3.809,3.823,3.815,3.873,3.873,3.812,22.748,75.2,14,Waypoint,
36.791623,-118.9555806,6579.5728332497,160.76116,0,0.85419294072,22600,2018-06-14 20:21:42,12,0,23.014,6579.5728332497,160.76116,0.223694,1.0833661764,0,0,-0.671082,2.2, 2.4, 1.1,0,0,1024,1024,1024,1024,1.2,-90,97,3.809,3.823,3.815,3.873,3.873,3.812,22.748,75.2,14,Waypoint,
36.7916229,-118.9555806,6580.5570852497,161.745412,0,0.82000330708,22700,2018-06-14 20:21:42,12,0,23.014,6580.5570852497,161.745412,0.223694,1.0833661764,0,0,-0.671082,1.8, 1.9, 0.6,0,0,1024,1024,1024,1024,1.2,-90,97,3.809,3.823,3.815,3.873,3.873,3.812,22.748,75.2,14,Waypoint,
36.7916228,-118.9555805,6581.5413372497,162.729664,0,0.77563322692,22800,2018-06-14 20:21:42,12,0,23.014,6581.5413372497,162.729664,0.223694,1.0833661764,0,0,-0.671082,1.6, 1.8, 0,0,0,1024,1024,1024,1024,1.2,-90,97,3.809,3.823,3.815,3.873,3.873,3.812,22.748,75.2,14,Waypoint,
36.7916228,-118.9555804,6582.5255892497,163.713916,0,0.76622049696,22900,2018-06-14 20:21:42,12,0,23.014,6582.5255892497,163.713916,0.223694,1.0833661764,0,0,-0.671082,1.5, 1.9, -0.5,0,0,1024,1024,1024,1024,1.2,-89.9,97,3.809,3.823,3.815,3.873,3.873,3.812,22.748,75.2,14,Waypoint,
36.7916227,-118.9555803,6583.5098412497,164.698168,0.223694,0.72275592864,23000,2018-06-14 20:21:42,12,0,22.96,6583.5098412497,164.698168,0.223694,1.0833661764,0,0,-0.671082,1.7, 1.8, -1.6,0,0,1024,1024,1024,1024,1.2,-90,96,3.819,3.812,3.802,3.86,3.866,3.818,22.008,75.2,14,Waypoint,
36.7916227,-118.9555802,6584.4940932497,165.68242,0.223694,0.71503611212,23100,2018-06-14 20:21:42,12,0,22.96,6584.4940932497,165.68242,0.223694,1.0833661764,0,0,-0.671082,2.1, 1.4, -2.4,0,0,1024,1024,1024,1024,1.2,-90,96,3.819,3.812,3.802,3.86,3.866,3.818,22.008,75.2,14,Waypoint,
36.7916226,-118.9555799,6586.1345132497,167.32284,0,0.66255251464,23300,2018-06-14 20:21:43,12,0,22.96,6586.1345132497,167.32284,0.223694,1.0833661764,0,0,-0.671082,2.4, 1.9, -2.6,0,0,1024,1024,1024,1024,1.2,-89.9,96,3.819,3.812,3.802,3.86,3.866,3.818,22.008,75.2,14,Waypoint,
36.7916226,-118.9555799,6586.1345132497,167.32284,0,0.66255251464,23400,2018-06-14 20:21:43,12,0,22.96,6586.1345132497,167.32284,0.223694,1.0833661764,0,0,-0.671082,2.4, 1.9, -2.6,0,0,1024,1024,1024,1024,1.2,-89.9,96,3.819,3.812,3.802,3.86,3.866,3.818,22.008,75.2,14,Waypoint,
36.7916226,-118.9555798,6588.1030172497,169.291344,0,0.65932416808,23500,2018-06-14 20:21:43,12,0,22.96,6588.1030172497,169.291344,0.223694,1.0833661764,0,0,-0.671082,1.7, 2.7, -2,0,0,1024,1024,1024,1024,1.2,-89.9,96,3.819,3.812,3.802,3.86,3.866,3.818,22.008,75.2,14,Waypoint,
36.7916226,-118.9555798,6589.0872692497,170.275596,0,0.65932416808,23700,2018-06-14 20:21:43,12,0,22.96,6589.0872692497,170.275596,0.223694,1.0833661764,0,0,-0.671082,1.3, 2.9, -2.1,0,0,1024,1024,1024,1024,1.1,-89.9,96,3.819,3.812,3.802,3.86,3.866,3.818,22.008,75.2,14,Waypoint,
36.7916226,-118.9555797,6590.3996052497,171.587932,0,0.65737862996,23810,2018-06-14 20:21:43,12,0,22.96,6590.3996052497,171.587932,0.223694,1.0833661764,0,0,-0.671082,1, 2.9, -1.7,0,0,1024,1024,1024,1024,1.2,-89.9,96,3.819,3.812,3.802,3.86,3.866,3.818,22.008,75.2,14,Waypoint,
36.7916225,-118.9555794,6592.3681092497,173.556436,0.223694,0.62299214592,23900,2018-06-14 20:21:43,12,0,22.96,6592.3681092497,173.556436,0.223694,1.0833661764,0,0,-0.671082,0.6, 2.9, -3.3,0,0,1024,1024,1024,1024,1.2,-89.9,96,3.819,3.812,3.802,3.86,3.866,3.818,22.008,75.2,14,Waypoint,
36.7916225,-118.9555793,6593.3523612497,174.540688,0.223694,0.62640750036,24000,2018-06-14 20:21:43,12,0,22.962,6593.3523612497,174.540688,0.223694,1.0833661764,0,0,-0.671082,0.5, 2.8, -4.1,0,0,1024,1024,1024,1024,1.2,-89.9,96,3.811,3.812,3.801,3.856,3.86,3.806,21.758,75.2,14,Waypoint,
36.7916225,-118.9555791,6594.6646972497,175.853024,0.223694,0.63721786816,24100,2018-06-14 20:21:43,12,0,22.962,6594.6646972497,175.853024,0.223694,1.0833661764,0,0,-0.671082,0.5, 2.8, -4.3,0,0,1024,1024,1024,1024,1.2,-89.9,96,3.811,3.812,3.801,3.856,3.86,3.806,21.758,75.2,14,Waypoint,
36.7916224,-118.9555789,6595.6489492497,176.837276,0.223694,0.61854988856,24200,2018-06-14 20:21:43,12,0,22.962,6595.6489492497,176.837276,0.223694,1.0833661764,0,0,-0.671082,0.6, 2.4, -4.7,0,0,1024,1024,1024,1024,1.2,-89.9,96,3.811,3.812,3.801,3.856,3.86,3.806,21.758,75.2,14,Waypoint,
36.7916223,-118.9555788,6596.6332012497,177.821528,0,0.59510172508,24300,2018-06-14 20:21:43,12,0,22.962,6596.6332012497,177.821528,0.223694,1.0833661764,0,0,-0.671082,0.7, 2.2, -4.8,0,0,1024,1024,1024,1024,1.2,-89.9,96,3.811,3.812,3.801,3.856,3.86,3.806,21.758,75.2,14,Waypoint,
36.7916223,-118.9555787,6597.6174532497,178.80578,0,0.60717193544,24400,2018-06-14 20:21:44,12,0,22.962,6597.6174532497,178.80578,0.223694,1.0833661764,0,0,-0.671082,0.9, 2.2, -4,0,0,1024,1024,1024,1024,1.2,-89.9,96,3.811,3.812,3.801,3.856,3.86,3.806,21.758,75.2,14,Waypoint,
36.7916222,-118.9555787,6598.6017052497,179.790032,0,0.57450461156,24500,2018-06-14 20:21:44,12,0,22.962,6598.6017052497,179.790032,0.223694,1.0833661764,0,0,-0.671082,1.2, 2.1, -3.3,0,0,1024,1024,1024,1024,1.2,-90,96,3.811,3.812,3.801,3.856,3.86,3.806,21.758,75.2,14,Waypoint,
36.7916221,-118.9555787,6599.5859572497,180.774284,0,0.542322852,24600,2018-06-14 20:21:44,12,0,22.962,6599.5859572497,180.774284,0.223694,1.0833661764,0,0,-0.671082,1.5, 1.6, -2.9,0,0,1024,1024,1024,1024,1.1,-90,96,3.811,3.812,3.801,3.856,3.86,3.806,21.758,75.2,14,Waypoint,
36.791622,-118.9555787,6600.2421252497,181.430452,0,0.51071852028,24700,2018-06-14 20:21:44,12,0,22.962,6600.2421252497,181.430452,0.223694,1.0833661764,0,0,-0.671082,1.8, 1.2, -2.9,0,0,1024,1024,1024,1024,1.2,-89.9,96,3.811,3.812,3.801,3.856,3.86,3.806,21.758,75.2,14,Waypoint,
36.7916219,-118.9555787,6601.2263772497,182.414704,0,0.47980972664,24800,2018-06-14 20:21:44,12,0,22.962,6601.2263772497,182.414704,0.223694,1.0833661764,0,0,-0.671082,2, 1, -2.6,0,0,1024,1024,1024,1024,1.2,-89.9,96,3.811,3.812,3.801,3.856,3.86,3.806,21.758,75.2,14,Waypoint,
36.7916218,-118.9555788,6602.2106292497,183.398956,0,0.4333005388,24900,2018-06-14 20:21:44,12,0,22.962,6602.2106292497,183.398956,0.223694,1.0833661764,0,0,-0.671082,2.1, 0.9, -2.4,0,0,1024,1024,1024,1024,1.2,-89.9,96,3.811,3.812,3.801,3.856,3.86,3.806,21.758,75.2,14,Waypoint,
36.7916217,-118.9555789,6603.1948812497,184.383208,0.223694,0.38685040608,25000,2018-06-14 20:21:44,12,0,22.863,6603.1948812497,184.383208,0.223694,1.0833661764,0,0,-0.671082,2.1, 1.1, -1.7,0,0,1024,1024,1024,1024,1.2,-89.9,96,3.782,3.784,3.79,3.839,3.848,3.793,22.727,77,14,Waypoint,
36.7916217,-118.955579,6604.1791332497,185.36746,0,0.37223098304,25100,2018-06-14 20:21:44,12,0,22.863,6604.1791332497,185.36746,0.223694,1.0833661764,0,0,-0.671082,2.1, 1.1, -1.1,0,0,1024,1024,1024,1024,1.2,-89.9,96,3.782,3.784,3.79,3.839,3.848,3.793,22.727,77,14,Waypoint,
36.7916216,-118.9555791,6605.1633852497,186.351712,0,0.326397976324,25200,2018-06-14 20:21:44,12,0,22.863,6605.1633852497,186.351712,0.223694,1.0833661764,0,0,-0.671082,2, 1.1, -1.3,0,0,1024,1024,1024,1024,1.2,-89.9,96,3.782,3.784,3.79,3.839,3.848,3.793,22.727,77,14,Waypoint,
36.7916216,-118.9555792,6606.1476372497,187.335964,0,0.314408146544,25300,2018-06-14 20:21:44,12,0,22.863,6606.1476372497,187.335964,0.223694,1.0833661764,0,0,-0.671082,1.9, 1.1, -1.1,0,0,1024,1024,1024,1024,1.2,-89.9,96,3.782,3.784,3.79,3.839,3.848,3.793,22.727,77,14,Waypoint,
36.7916215,-118.9555792,6606.8038052497,187.992132,0,0.280865166468,25400,2018-06-14 20:21:45,12,0,22.863,6606.8038052497,187.992132,0.223694,1.0833661764,0,0,-0.671082,2, 1.1, -0.8,0,0,1024,1024,1024,1024,1.2,-89.9,96,3.782,3.784,3.79,3.839,3.848,3.793,22.727,77,14,Waypoint,
36.7916214,-118.9555793,6607.7880572497,188.976384,0,0.235806109908,25500,2018-06-14 20:21:45,12,0,22.863,6607.7880572497,188.976384,0.223694,1.0833661764,0,0,-0.671082,2.1, 0.7, -1.2,0,0,1024,1024,1024,1024,1.2,-89.9,96,3.782,3.784,3.79,3.839,3.848,3.793,22.727,77,14,Waypoint,
36.7916214,-118.9555793,6609.1003932497,190.28872,0,0.235806109908,25600,2018-06-14 20:21:45,12,0,22.863,6609.1003932497,190.28872,0.223694,1.0833661764,0,0,-0.671082,2.2, 0.7, -1.5,0,0,1024,1024,1024,1024,1.2,-89.9,96,3.782,3.784,3.79,3.839,3.848,3.793,22.727,77,14,Waypoint,
36.7916213,-118.9555794,6609.7565612497,190.944888,0,0.191555452324,25700,2018-06-14 20:21:45,12,0,22.863,6609.7565612497,190.944888,0.223694,1.0833661764,0,0,-0.671082,2.4, 1, -1.6,0,0,1024,1024,1024,1024,1.2,-89.9,96,3.782,3.784,3.79,3.839,3.848,3.793,22.727,77,14,Waypoint,
36.7916213,-118.9555794,6610.7408132497,191.92914,0,0.191555452324,25800,2018-06-14 20:21:45,12,0,22.863,6610.7408132497,191.92914,0.223694,1.0833661764,0,0,-0.671082,2.4, 0.9, -1.7,0,0,1024,1024,1024,1024,1.2,-89.9,96,3.782,3.784,3.79,3.839,3.848,3.793,22.727,77,14,Waypoint,
36.7916213,-118.9555795,6611.7250652497,192.913392,0,0.184749677828,25900,2018-06-14 20:21:45,12,0,22.863,6611.7250652497,192.913392,0.223694,1.0833661764,0,0,-0.671082,2.3, 1, -0.8,0,0,1024,1024,1024,1024,1.2,-89.9,96,3.782,3.784,3.79,3.839,3.848,3.793,22.727,77,14,Waypoint,
36.7916213,-118.9555796,6612.7093172497,193.897644,0,0.18242454652,26000,2018-06-14 20:21:45,12,0,23.017,6612.7093172497,193.897644,0.223694,1.0833661764,0,0,-0.671082,2.1, 1.1, -0.7,0,0,1024,1024,1024,1024,1.2,-89.9,96,3.826,3.823,3.819,3.872,3.873,3.815,20.435,77,14,Waypoint,
36.7916213,-118.9555796,6613.6935692497,194.881896,0,0.18242454652,26110,2018-06-14 20:21:45,12,0,23.017,6613.6935692497,194.881896,0.223694,1.0833661764,0,0,-0.671082,2, 1.6, -0.3,0,0,1024,1024,1024,1024,1.2,-89.9,96,3.826,3.823,3.819,3.872,3.873,3.815,20.435,77,14,Waypoint,
36.7916213,-118.9555797,6614.6778212497,195.866148,0,0.184749677828,26200,2018-06-14 20:21:45,12,0,23.017,6614.6778212497,195.866148,0.223694,1.0833661764,0,0,-0.671082,1.8, 1.7, -1.2,0,0,1024,1024,1024,1024,1.2,-89.9,96,3.826,3.823,3.819,3.872,3.873,3.815,20.435,77,14,Waypoint,
36.7916213,-118.9555797,6615.6620732497,196.8504,0,0.184749677828,26300,2018-06-14 20:21:45,12,0,23.017,6615.6620732497,196.8504,0.223694,1.0833661764,0,0,-0.671082,1.6, 2.1, -1.8,0,0,1024,1024,1024,1024,1.2,-89.9,96,3.826,3.823,3.819,3.872,3.873,3.815,20.435,77,14,Waypoint,
36.7916213,-118.9555796,6617.6305772497,198.818904,0,0.18242454652,26500,2018-06-14 20:21:46,12,0,23.017,6617.6305772497,198.818904,0.223694,1.0833661764,0,0,-0.671082,1, 2.4, -1.9,0,0,1024,1024,1024,1024,1.2,-89.9,96,3.826,3.823,3.819,3.872,3.873,3.815,20.435,77,14,Waypoint,
36.7916213,-118.9555795,6618.6148292497,199.803156,0.223694,0.184749677828,26600,2018-06-14 20:21:46,12,0,23.017,6618.6148292497,199.803156,0.223694,1.0833661764,0,0,-0.671082,0.8, 2.3, -2.6,0,0,1024,1024,1024,1024,1.2,-89.9,96,3.826,3.823,3.819,3.872,3.873,3.815,20.435,77,14,Waypoint,
36.7916214,-118.9555793,6619.5990812497,200.787408,0.223694,0.235806109908,26700,2018-06-14 20:21:46,12,0,23.017,6619.5990812497,200.787408,0.223694,1.0833661764,0,0,-0.671082,0.7, 2.4, -4,0,0,1024,1024,1024,1024,1.2,-89.9,96,3.826,3.823,3.819,3.872,3.873,3.815,20.435,77,14,Waypoint,
