Latitude, Longitude, Altitude (m), Time, Sats, Speed (m/s), Range (m), Battery (%), Roll (deg), Pitch (deg), Yaw (deg), Images, HD Signal (%), RC Signal (%), Battery Temp (C), Battery Voltage (mV), Battery Current (mA), Battery Energy (mAh), Battery Capacity (mAh), Battery Discharges, flyState, timestamp (Unix), LastUpdate (ms), radioChannel, Rc_elevator, Rc_aileron, Rc_throttle, Rc_rudder, Rc_gyro, Dronetype, Battery_Cell1 (mV), Battery_Cell2 (mV), Battery_Cell3 (mV), Battery_Cell4 (mV), Battery_Cell5 (mV), Battery_Cell6 (mV), Video, isFlying, elapsedTime (ms), gimbalPitch (deg), gimbalRoll (deg), gimbalYaw (deg), VelocityX (m/s), VelocityY (m/s), VelocityZ (m/s), GroundSmear (cm), App Version, Aircraft Name, Aircraft Firmware, Aircraft Serial Number, Battery Serial Number, Battery Lifetime (%), App_Tip, App_Warning, CurrentFlightStartingIndex, CurrentFlightLastVisitedWaypoint, PreviousFlightEndingWaypointIndex
38.0965924, -120.1425923, 0.000, 14:29:38.134, 14, 0.00, 0.06, 98, 0.200, 0.600, 152.900, 819, 100, 100, 21, 25610, -2902, 5437, 5548, 8, 11, 1525987778.135, 82, 0, 1024, 1024, 1024, 1024, 0, 6, 4291, 4215, 4274, 4278, 4294, 4274, 0, 1, 3012, -89.900, 0.000, 153.600, 0.000, 0.000, -0.100, 0.0, MapPilot_2.8.1_04242018, Dendroctonus I, 1.3.1.00, 041DDC1887, 1058171200279, 98, DJI_0827.jpg, Starting Mission from Lat/Long: 38.09660/-120.14259 Camera: Zenmuse X3 - Overlap: 90/90 - Active Connection: No, 33, 33, 33
38.0965924, -120.1425922, 0.000, 14:29:38.223, 14, 0.10, 0.06, 98, 0.100, 0.500, 153.000, 819, 100, 100, 21, 25610, -2902, 5437, 5548, 8, 11, 1525987778.224, 56, 0, 1024, 1024, 1024, 1024, 0, 6, 4291, 4215, 4274, 4278, 4294, 4274, 0, 1, 3101, -89.900, 0.000, 153.600, 0.100, 0.000, -0.300, 0.0, , , , , , 98, , , 33, 33, 33
38.0965925, -120.1425921, 0.100, 14:29:38.324, 14, 0.10, 0.06, 98, 0.000, 0.300, 153.100, 819, 100, 100, 21, 25610, -2902, 5437, 5548, 8, 11, 1525987778.324, 73, 0, 1024, 1024, 1024, 1024, 0, 6, 4291, 4215, 4274, 4278, 4294, 4274, 0, 1, 3201, -90.000, 0.000, 153.500, 0.100, 0.000, -0.400, 0.0, , , , , , 98, , , 33, 33, 33
38.0965926, -120.1425920, 0.100, 14:29:38.424, 13, 0.14, 0.06, 98, 0.300, 0.000, 153.300, 819, 100, 100, 21, 25417, -3025, 5437, 5548, 8, 11, 1525987778.424, 63, 0, 1024, 1024, 1024, 1024, 0, 6, 4239, 4214, 4235, 4235, 4205, 4220, 0, 1, 3301, -90.000, 0.000, 153.500, 0.100, 0.100, -0.400, 0.0, , , , , , 98, , , 33, 33, 33
38.0965927, -120.1425918, 0.200, 14:29:38.524, 13, 0.14, 0.07, 98, 0.600, -0.300, 153.300, 819, 100, 100, 21, 25417, -3025, 5437, 5548, 8, 11, 1525987778.524, 52, 0, 1024, 1024, 1024, 1024, 0, 6, 4239, 4214, 4235, 4235, 4205, 4220, 0, 1, 3401, -90.000, 0.000, 153.500, 0.100, 0.100, -0.400, 0.0, , , , , , 98, , , 33, 33, 33
38.0965928, -120.1425916, 0.300, 14:29:38.624, 14, 0.14, 0.09, 98, 1.300, -0.400, 153.200, 819, 100, 100, 21, 25417, -3025, 5437, 5548, 8, 11, 1525987778.624, 70, 0, 1024, 1024, 1024, 1024, 0, 6, 4239, 4214, 4235, 4235, 4205, 4220, 0, 1, 3501, -90.000, 0.000, 153.500, 0.100, 0.100, -0.300, 0.0, , , , , , 98, , , 33, 33, 33
38.0965929, -120.1425914, 0.300, 14:29:38.724, 14, 0.14, 0.10, 98, 1.800, -0.500, 153.300, 819, 100, 100, 21, 25417, -3025, 5437, 5548, 8, 11, 1525987778.724, 37, 0, 1024, 1024, 1024, 1024, 0, 6, 4239, 4214, 4235, 4235, 4205, 4220, 0, 1, 3601, -90.000, 0.000, 153.500, 0.100, 0.100, -0.300, 0.0, , , , , , 98, , , 33, 33, 33
38.0965930, -120.1425913, 0.400, 14:29:38.824, 13, 0.10, 0.12, 98, 2.000, -0.400, 153.300, 819, 100, 100, 21, 25417, -3025, 5437, 5548, 8, 11, 1525987778.824, 39, 0, 1024, 1024, 1024, 1024, 0, 6, 4239, 4214, 4235, 4235, 4205, 4220, 0, 1, 3701, -90.000, 0.000, 153.500, 0.000, 0.100, -0.300, 0.0, , , , , , 98, , , 33, 33, 33
38.0965930, -120.1425911, 0.400, 14:29:38.924, 13, 0.10, 0.13, 98, 1.900, -0.500, 153.200, 819, 100, 100, 21, 25417, -3025, 5437, 5548, 8, 11, 1525987778.924, 41, 0, 1024, 1024, 1024, 1024, 0, 6, 4239, 4214, 4235, 4235, 4205, 4220, 0, 1, 3801, -90.000, 0.000, 153.500, 0.000, 0.100, -0.400, 0.0, , , , , , 98, , , 33, 33, 33
38.0965930, -120.1425910, 0.500, 14:29:39.024, 14, 0.10, 0.14, 98, 2.000, -0.400, 153.100, 819, 100, 100, 21, 25417, -3025, 5437, 5548, 8, 11, 1525987779.024, 42, 0, 1024, 1024, 1024, 1024, 0, 6, 4239, 4214, 4235, 4235, 4205, 4220, 0, 1, 3901, -90.000, 0.000, 153.500, 0.000, 0.100, -0.400, 0.0, , , , , , 98, , , 33, 33, 33
38.0965930, -120.1425908, 0.500, 14:29:39.124, 14, 0.10, 0.15, 98, 1.800, -0.200, 153.100, 819, 100, 100, 21, 25417, -3025, 5437, 5548, 8, 11, 1525987779.124, 41, 0, 1024, 1024, 1024, 1024, 0, 6, 4239, 4214, 4235, 4235, 4205, 4220, 0, 1, 4001, -89.900, 0.000, 153.500, 0.000, 0.100, -0.400, 0.0, , , , , , 98, , , 33, 33, 33
38.0965929, -120.1425907, 0.600, 14:29:39.224, 15, 0.10, 0.17, 98, 1.800, 0.300, 153.200, 819, 100, 100, 21, 25417, -3025, 5437, 5548, 8, 11, 1525987779.224, 38, 0, 1024, 1024, 1024, 1024, 0, 6, 4239, 4214, 4235, 4235, 4205, 4220, 0, 1, 4101, -89.900, 0.000, 153.500, 0.000, 0.100, -0.300, 0.0, , , , , , 98, , , 33, 33, 33
38.0965929, -120.1425906, 0.600, 14:29:39.324, 15, 0.10, 0.17, 98, 1.700, 0.600, 153.300, 819, 100, 100, 21, 24310, -14287, 5437, 5548, 8, 11, 1525987779.324, 36, 0, 1024, 1024, 1024, 1024, 0, 6, 4044, 4014, 4035, 4034, 4050, 4055, 0, 1, 4201, -89.900, 0.000, 153.500, 0.000, 0.100, -0.400, 0.0, , , , , , 98, , , 33, 33, 33
38.0965928, -120.1425905, 0.700, 14:29:39.424, 15, 0.10, 0.18, 98, 1.800, 0.600, 153.400, 819, 100, 100, 21, 24310, -14287, 5437, 5548, 8, 11, 1525987779.424, 12, 0, 1024, 1024, 1024, 1024, 0, 6, 4044, 4014, 4035, 4034, 4050, 4055, 0, 1, 4302, -89.900, 0.000, 153.500, 0.000, 0.100, -0.400, 0.0, , , , , , 98, , , 33, 33, 33
38.0965928, -120.1425904, 0.700, 14:29:39.523, 15, 0.10, 0.19, 98, 1.900, 0.700, 153.500, 819, 100, 100, 21, 24310, -14287, 5437, 5548, 8, 11, 1525987779.524, 14, 0, 1024, 1024, 1024, 1024, 0, 6, 4044, 4014, 4035, 4034, 4050, 4055, 0, 1, 4401, -89.900, 0.000, 153.500, 0.000, 0.100, -0.400, 0.0, , , , , , 98, , , 33, 33, 33
38.0965928, -120.1425903, 0.700, 14:29:39.624, 15, 0.00, 0.20, 98, 1.800, 0.600, 153.400, 819, 100, 100, 21, 24310, -14287, 5437, 5548, 8, 11, 1525987779.624, 26, 0, 1024, 1024, 1024, 1024, 0, 6, 4044, 4014, 4035, 4034, 4050, 4055, 0, 1, 4501, -89.900, 0.000, 153.500, 0.000, 0.000, -0.400, 0.0, , , , , , 98, , , 33, 33, 33
38.0965928, -120.1425902, 0.800, 14:29:39.728, 15, 0.00, 0.21, 98, 1.800, 0.700, 153.300, 819, 100, 100, 21, 24310, -14287, 5437, 5548, 8, 11, 1525987779.728, 4, 0, 1024, 1024, 1024, 1024, 0, 6, 4044, 4014, 4035, 4034, 4050, 4055, 0, 1, 4606, -89.900, 0.000, 153.500, 0.000, 0.000, -0.400, 0.0, , , , , , 98, , , 33, 33, 33
38.0965927, -120.1425899, 0.900, 14:29:39.823, 14, 0.00, 0.23, 98, 1.700, 0.900, 152.900, 819, 100, 100, 21, 24310, -14287, 5437, 5548, 8, 6, 1525987779.824, 4, 0, 1024, 1024, 1024, 1024, 0, 6, 4044, 4014, 4035, 4034, 4050, 4055, 0, 1, 4701, -89.900, 0.000, 153.500, 0.000, 0.000, -0.400, 0.0, , , , , , 98, , , 33, 33, 33
38.0965927, -120.1425899, 0.900, 14:29:39.924, 14, 0.00, 0.23, 98, 1.700, 0.900, 152.900, 819, 100, 100, 21, 24310, -14287, 5437, 5548, 8, 6, 1525987779.924, 105, 0, 1024, 1024, 1024, 1024, 0, 6, 4044, 4014, 4035, 4034, 4050, 4055, 0, 1, 4801, -89.900, 0.000, 153.500, 0.000, 0.000, -0.400, 0.0, , , , , , 98, , , 33, 33, 33
38.0965927, -120.1425898, 0.900, 14:29:40.023, 15, 0.00, 0.24, 98, 1.600, 0.900, 152.600, 819, 100, 100, 21, 24310, -14287, 5437, 5548, 8, 14, 1525987780.024, 87, 0, 1024, 1024, 1024, 1024, 0, 6, 4044, 4014, 4035, 4034, 4050, 4055, 0, 1, 4901, -89.900, 0.000, 153.500, 0.000, 0.000, -0.400, 0.0, , , , , , 98, , , 33, 33, 33
38.0965926, -120.1425897, 0.900, 14:29:40.123, 15, 0.00, 0.26, 98, 1.800, 0.900, 152.400, 819, 100, 100, 21, 24310, -14287, 5437, 5548, 8, 14, 1525987780.123, 90, 0, 1024, 1024, 1024, 1024, 0, 6, 4044, 4014, 4035, 4034, 4050, 4055, 0, 1, 5000, -89.900, 0.000, 153.500, 0.000, 0.000, -0.300, 0.0, , , , , , 98, , , 33, 33, 33
38.0965926, -120.1425895, 1.000, 14:29:40.224, 15, 0.00, 0.27, 98, 1.800, 1.000, 152.300, 819, 100, 100, 21, 24310, -14287, 5437, 5548, 8, 14, 1525987780.224, 69, 0, 1024, 1024, 1024, 1024, 0, 6, 4044, 4014, 4035, 4034, 4050, 4055, 0, 1, 5101, -89.900, 0.000, 153.500, 0.000, 0.000, -0.200, 0.0, , , , , , 98, , , 33, 33, 33
38.0965925, -120.1425894, 1.000, 14:29:40.324, 15, 0.00, 0.28, 98, 1.600, 1.300, 152.300, 819, 100, 100, 21, 24310, -14287, 5437, 5548, 8, 14, 1525987780.324, 57, 0, 1024, 1024, 1024, 1024, 0, 6, 4044, 4014, 4035, 4034, 4050, 4055, 0, 1, 5201, -89.900, 0.000, 153.500, 0.000, 0.000, -0.300, 0.0, , , , , , 98, , , 33, 33, 33
38.0965925, -120.1425893, 1.100, 14:29:40.424, 15, 0.00, 0.29, 98, 1.400, 1.200, 152.400, 819, 100, 100, 21, 23991, -16383, 5437, 5548, 8, 14, 1525987780.424, 82, 0, 1024, 1024, 1024, 1024, 0, 6, 4044, 4014, 4035, 4034, 4050, 4055, 0, 1, 5301, -89.900, 0.000, 153.500, 0.000, 0.000, -0.400, 0.0, , , , , , 98, , , 33, 33, 33
38.0965924, -120.1425893, 1.100, 14:29:40.524, 15, 0.00, 0.30, 98, 1.100, 1.000, 152.500, 819, 100, 100, 21, 23991, -16383, 5437, 5548, 8, 14, 1525987780.524, 63, 0, 1024, 1024, 1024, 1024, 0, 6, 4044, 4014, 4035, 4034, 4050, 4055, 0, 1, 5401, -89.900, 0.000, 153.500, 0.000, 0.000, -0.500, 0.0, , , , , , 98, , , 33, 33, 33
38.0965923, -120.1425893, 1.200, 14:29:40.624, 14, 0.00, 0.30, 98, 0.800, 1.000, 152.600, 819, 100, 100, 21, 23991, -16383, 5437, 5548, 8, 14, 1525987780.624, 63, 0, 1024, 1024, 1024, 1024, 0, 6, 4044, 4014, 4035, 4034, 4050, 4055, 0, 1, 5501, -89.900, 0.000, 153.500, 0.000, 0.000, -0.700, 0.0, , , , , , 98, , , 33, 33, 33
38.0965922, -120.1425892, 1.300, 14:29:40.724, 14, 0.00, 0.30, 98, 0.700, 1.100, 152.600, 819, 100, 100, 21, 23991, -16383, 5437, 5548, 8, 14, 1525987780.724, 64, 0, 1024, 1024, 1024, 1024, 0, 6, 4044, 4014, 4035, 4034, 4050, 4055, 0, 1, 5601, -89.900, 0.000, 153.500, 0.000, 0.000, -0.800, 0.0, , , , , , 98, , , 33, 33, 33
38.0965922, -120.1425891, 1.400, 14:29:40.824, 15, 0.00, 0.31, 98, 0.600, 1.100, 152.500, 819, 100, 100, 21, 23991, -16383, 5437, 5548, 8, 14, 1525987780.824, 41, 0, 1024, 1024, 1024, 1024, 0, 6, 4044, 4014, 4035, 4034, 4050, 4055, 0, 1, 5701, -89.900, 0.000, 153.400, 0.000, 0.000, -1.000, 0.0, , , , , , 98, , , 33, 33, 33
38.0965921, -120.1425890, 1.500, 14:29:40.924, 15, 0.00, 0.32, 98, 0.700, 1.100, 152.400, 819, 100, 100, 21, 23991, -16383, 5437, 5548, 8, 14, 1525987780.924, 43, 0, 1024, 1024, 1024, 1024, 0, 6, 3994, 3969, 3970, 3978, 4003, 3998, 0, 1, 5801, -89.900, 0.000, 153.400, 0.000, 0.000, -1.100, 0.0, , , , , , 98, , , 33, 33, 33
38.0965921, -120.1425889, 1.600, 14:29:41.023, 15, 0.00, 0.33, 98, 1.000, 1.000, 152.300, 819, 100, 100, 21, 23991, -16383, 5437, 5548, 8, 14, 1525987781.023, 7, 0, 1024, 1024, 1024, 1024, 0, 6, 3994, 3969, 3970, 3978, 4003, 3998, 0, 1, 5900, -89.900, 0.000, 153.400, 0.000, 0.000, -1.300, 0.0, , , , , , 98, , , 33, 33, 33
38.0965921, -120.1425888, 1.800, 14:29:41.123, 15, 0.00, 0.34, 98, 1.100, 1.100, 152.200, 819, 100, 100, 21, 23991, -16383, 5437, 5548, 8, 14, 1525987781.124, 66, 0, 1024, 1024, 1024, 1024, 0, 6, 3994, 3969, 3970, 3978, 4003, 3998, 0, 1, 6001, -89.900, 0.000, 153.400, 0.000, 0.000, -1.600, 0.0, , , , , , 98, , , 33, 33, 33
38.0965921, -120.1425888, 1.900, 14:29:41.223, 14, 0.00, 0.35, 98, 1.200, 1.400, 152.100, 819, 100, 100, 21, 23991, -16383, 5437, 5548, 8, 14, 1525987781.224, 54, 0, 1024, 1024, 1024, 1024, 0, 6, 3994, 3969, 3970, 3978, 4003, 3998, 0, 1, 6101, -89.900, 0.000, 153.400, 0.000, 0.000, -1.800, 0.0, , , , , , 98, , , 33, 33, 33
38.0965921, -120.1425886, 2.200, 14:29:41.323, 14, 0.00, 0.36, 98, 1.200, 1.500, 152.000, 819, 100, 100, 21, 23991, -16383, 5437, 5548, 8, 14, 1525987781.323, 24, 0, 1024, 1024, 1024, 1024, 0, 6, 3994, 3969, 3970, 3978, 4003, 3998, 0, 1, 6200, -89.900, 0.000, 153.400, 0.000, 0.000, -2.100, 0.0, , , , , , 98, , , 33, 33, 33
38.0965921, -120.1425884, 2.400, 14:29:41.424, 14, 0.00, 0.37, 98, 1.300, 1.300, 151.900, 819, 100, 100, 21, 23991, -16383, 5437, 5548, 8, 14, 1525987781.424, 12, 0, 1024, 1024, 1024, 1024, 0, 6, 3994, 3969, 3970, 3978, 4003, 3998, 0, 1, 6301, -89.900, 0.000, 153.400, 0.000, 0.000, -2.300, 0.0, , , , , , 98, , , 33, 33, 33
38.0965921, -120.1425884, 2.600, 14:29:41.523, 14, 0.00, 0.38, 98, 1.500, 1.200, 151.900, 819, 100, 100, 21, 23991, -16383, 5437, 5548, 8, 14, 1525987781.524, 15, 0, 1024, 1024, 1024, 1024, 0, 6, 3994, 3969, 3970, 3978, 4003, 3998, 0, 1, 6401, -89.900, 0.000, 153.400, 0.000, 0.000, -2.400, 0.0, , , , , , 98, , , 33, 33, 33
38.0965921, -120.1425884, 2.900, 14:29:41.624, 14, 0.00, 0.38, 98, 1.500, 1.100, 151.900, 819, 100, 100, 21, 23991, -16383, 5437, 5548, 8, 14, 1525987781.624, 19, 0, 1024, 1024, 1024, 1024, 0, 6, 3994, 3969, 3970, 3978, 4003, 3998, 0, 1, 6501, -89.900, 0.000, 153.400, 0.000, 0.000, -2.700, 0.0, , , , , , 98, , , 33, 33, 33
38.0965922, -120.1425883, 3.200, 14:29:41.724, 14, 0.00, 0.38, 98, 1.300, 1.100, 151.900, 819, 100, 100, 21, 23991, -16383, 5437, 5548, 8, 14, 1525987781.724, 22, 0, 1024, 1024, 1024, 1024, 0, 6, 3994, 3969, 3970, 3978, 4003, 3998, 0, 1, 6601, -90.000, 0.000, 153.400, 0.000, 0.000, -2.900, 0.0, , , , , , 98, , , 33, 33, 33
38.0965922, -120.1425883, 3.500, 14:29:41.824, 14, 0.00, 0.38, 98, 1.200, 0.900, 152.000, 819, 100, 100, 21, 23753, -17797, 5437, 5548, 8, 14, 1525987781.824, 34, 0, 1024, 1024, 1024, 1024, 0, 6, 3938, 3925, 3913, 3938, 3961, 3935, 0, 1, 6701, -90.000, 0.000, 153.400, 0.000, 0.000, -3.000, 0.0, , , , , , 98, , , 33, 33, 33
38.0965922, -120.1425883, 3.800, 14:29:41.923, 14, 0.00, 0.38, 98, 1.100, 0.800, 152.100, 819, 100, 100, 21, 23753, -17797, 5437, 5548, 8, 14, 1525987781.923, 12, 0, 1024, 1024, 1024, 1024, 0, 6, 3938, 3925, 3913, 3938, 3961, 3935, 0, 1, 6800, -90.000, 0.000, 153.400, 0.000, 0.000, -3.100, 0.0, , , , , , 98, , , 33, 33, 33
38.0965922, -120.1425883, 4.100, 14:29:42.032, 15, 0.00, 0.38, 98, 1.100, 0.800, 152.200, 819, 100, 100, 21, 23753, -17797, 5437, 5548, 8, 14, 1525987782.033, 8, 0, 1024, 1024, 1024, 1024, 0, 6, 3938, 3925, 3913, 3938, 3961, 3935, 0, 1, 6910, -90.000, 0.000, 153.400, 0.000, 0.000, -3.200, 0.0, , , , , , 98, , , 33, 33, 33
38.0965922, -120.1425883, 4.500, 14:29:42.124, 15, 0.00, 0.39, 98, 1.000, 0.900, 152.200, 819, 100, 100, 21, 23753, -17797, 5437, 5548, 8, 14, 1525987782.124, 87, 0, 1024, 1024, 1024, 1024, 0, 6, 3938, 3925, 3913, 3938, 3961, 3935, 0, 1, 7001, -89.900, 0.000, 153.400, 0.000, 0.000, -3.200, 0.0, , , , , , 98, , , 33, 33, 33
38.0965922, -120.1425881, 5.100, 14:29:42.225, 16, 0.00, 0.40, 98, 1.000, 1.100, 152.300, 819, 100, 100, 21, 23753, -17797, 5437, 5548, 8, 14, 1525987782.225, 4, 0, 1024, 1024, 1024, 1024, 0, 6, 3938, 3925, 3913, 3938, 3961, 3935, 0, 1, 7102, -89.900, 0.000, 153.400, 0.000, 0.000, -3.200, 0.0, , , , , , 98, , , 33, 33, 33
38.0965922, -120.1425880, 5.500, 14:29:42.324, 16, 0.00, 0.41, 98, 1.100, 1.100, 152.400, 819, 100, 100, 21, 23753, -17797, 5437, 5548, 8, 14, 1525987782.324, 3, 0, 1024, 1024, 1024, 1024, 0, 6, 3938, 3925, 3913, 3938, 3961, 3935, 0, 1, 7201, -89.900, 0.000, 153.400, 0.000, 0.000, -3.200, 0.0, , , , , , 98, , , 33, 33, 33
38.0965922, -120.1425880, 5.500, 14:29:42.424, 16, 0.00, 0.41, 98, 1.100, 1.100, 152.400, 819, 100, 100, 21, 23753, -17797, 5437, 5548, 8, 14, 1525987782.425, 104, 0, 1024, 1024, 1024, 1024, 0, 6, 3938, 3925, 3913, 3938, 3961, 3935, 0, 1, 7302, -89.900, 0.000, 153.400, 0.000, 0.000, -3.200, 0.0, , , , , , 98, , , 33, 33, 33
38.0965918, -120.1425881, 6.100, 14:29:42.528, 16, 0.00, 0.41, 98, 1.100, 2.000, 152.400, 819, 100, 100, 21, 23753, -17797, 5437, 5548, 8, 14, 1525987782.528, 5, 0, 1024, 1024, 1024, 1024, 0, 6, 3938, 3925, 3913, 3938, 3961, 3935, 0, 1, 7405, -89.900, 0.000, 153.400, 0.000, 0.000, -3.100, 0.0, , , , , , 98, , , 33, 33, 33
38.0965918, -120.1425881, 6.100, 14:29:42.624, 16, 0.00, 0.41, 98, 1.100, 2.000, 152.400, 819, 100, 100, 21, 23753, -17797, 5437, 5548, 8, 14, 1525987782.624, 101, 0, 1024, 1024, 1024, 1024, 0, 6, 3938, 3925, 3913, 3938, 3961, 3935, 0, 1, 7501, -89.900, 0.000, 153.400, 0.000, 0.000, -3.100, 0.0, , , , , , 98, , , 33, 33, 33
38.0965917, -120.1425882, 6.400, 14:29:42.724, 16, 0.00, 0.40, 98, 0.800, 2.400, 152.400, 819, 100, 100, 21, 23753, -17797, 5437, 5548, 8, 14, 1525987782.724, 92, 0, 1024, 1024, 1024, 1024, 0, 6, 3938, 3925, 3913, 3938, 3961, 3935, 0, 1, 7602, -89.900, 0.000, 153.400, 0.000, 0.000, -3.200, 0.0, , , , , , 98, , , 33, 33, 33
38.0965917, -120.1425883, 6.800, 14:29:42.824, 16, 0.00, 0.40, 98, 0.000, 2.300, 152.500, 819, 100, 100, 21, 23753, -17797, 5437, 5548, 8, 14, 1525987782.824, 75, 0, 1024, 1024, 1024, 1024, 0, 6, 3938, 3925, 3913, 3938, 3961, 3935, 0, 1, 7701, -89.900, 0.000, 153.400, 0.000, 0.000, -3.200, 0.0, , , , , , 98, , , 33, 33, 33
38.0965915, -120.1425885, 7.100, 14:29:42.924, 16, 0.00, 0.39, 98, -0.600, 2.000, 152.500, 819, 100, 100, 21, 23196, -24799, 5437, 5548, 8, 14, 1525987782.924, 78, 0, 1024, 1024, 1024, 1024, 0, 6, 3881, 3862, 3823, 3852, 3872, 3871, 0, 1, 7801, -89.900, 0.000, 153.400, 0.000, 0.000, -3.200, 0.0, , , , , , 98, , , 33, 33, 33
38.0965913, -120.1425886, 7.400, 14:29:43.023, 16, 0.00, 0.39, 98, -0.900, 2.000, 152.500, 819, 100, 100, 21, 23196, -24799, 5437, 5548, 8, 14, 1525987783.024, 66, 0, 1024, 1024, 1024, 1024, 0, 6, 3881, 3862, 3823, 3852, 3872, 3871, 0, 1, 7901, -89.900, 0.000, 153.400, 0.000, 0.000, -3.200, 0.0, , , , , , 98, , , 33, 33, 33
38.0965913, -120.1425884, 7.800, 14:29:43.124, 16, 0.00, 0.40, 98, -1.000, 2.000, 152.600, 819, 100, 100, 21, 23196, -24799, 5437, 5548, 8, 14, 1525987783.124, 73, 0, 1024, 1024, 1024, 1024, 0, 6, 3881, 3862, 3823, 3852, 3872, 3871, 0, 1, 8001, -89.900, 0.000, 153.400, 0.000, 0.000, -3.100, 0.0, , , , , , 98, , , 33, 33, 33
38.0965914, -120.1425882, 8.100, 14:29:43.224, 16, 0.00, 0.42, 98, -0.200, 1.900, 152.600, 819, 100, 100, 21, 23196, -24799, 5437, 5548, 8, 14, 1525987783.224, 63, 0, 1024, 1024, 1024, 1024, 0, 6, 3881, 3862, 3823, 3852, 3872, 3871, 0, 1, 8101, -89.900, 0.000, 153.400, 0.000, 0.000, -3.200, 0.0, , , , , , 98, , , 33, 33, 33
38.0965913, -120.1425883, 8.400, 14:29:43.324, 16, 0.00, 0.41, 98, 0.900, 1.700, 152.700, 819, 100, 100, 21, 23196, -24799, 5437, 5548, 8, 14, 1525987783.324, 48, 0, 1024, 1024, 1024, 1024, 0, 6, 3881, 3862, 3823, 3852, 3872, 3871, 0, 1, 8201, -89.900, 0.000, 153.400, 0.000, 0.000, -3.100, 0.0, , , , , , 98, , , 33, 33, 33
38.0965912, -120.1425883, 8.800, 14:29:43.424, 16, 0.00, 0.41, 98, 1.300, 1.800, 152.700, 819, 100, 100, 21, 23196, -24799, 5437, 5548, 8, 14, 1525987783.424, 51, 0, 1024, 1024, 1024, 1024, 0, 6, 3881, 3862, 3823, 3852, 3872, 3871, 0, 1, 8301, -89.900, 0.000, 153.400, 0.000, 0.000, -3.200, 0.0, , , , , , 98, , , 33, 33, 33
38.0965912, -120.1425884, 9.100, 14:29:43.524, 16, 0.00, 0.41, 98, 1.300, 2.000, 152.800, 819, 100, 100, 21, 23196, -24799, 5437, 5548, 8, 14, 1525987783.524, 52, 0, 1024, 1024, 1024, 1024, 0, 6, 3881, 3862, 3823, 3852, 3872, 3871, 0, 1, 8401, -89.900, 0.000, 153.400, 0.000, 0.000, -3.100, 0.0, , , , , , 98, , , 33, 33, 33
38.0965912, -120.1425884, 9.400, 14:29:43.624, 16, 0.00, 0.41, 98, 1.400, 1.900, 152.800, 819, 100, 100, 21, 23196, -24799, 5437, 5548, 8, 14, 1525987783.624, 50, 0, 1024, 1024, 1024, 1024, 0, 6, 3881, 3862, 3823, 3852, 3872, 3871, 0, 1, 8501, -89.900, 0.000, 153.400, 0.000, 0.000, -3.200, 0.0, , , , , , 98, , , 33, 33, 33
38.0965911, -120.1425886, 9.800, 14:29:43.724, 16, 0.00, 0.40, 98, 1.100, 1.800, 152.700, 819, 100, 100, 21, 23196, -24799, 5437, 5548, 8, 14, 1525987783.724, 51, 0, 1024, 1024, 1024, 1024, 0, 6, 3881, 3862, 3823, 3852, 3872, 3871, 0, 1, 8601, -89.900, 0.000, 153.400, 0.000, 0.000, -3.100, 0.0, , , , , , 98, , , 33, 33, 33
38.0965909, -120.1425887, 10.100, 14:29:43.824, 16, 0.00, 0.40, 98, 0.700, 1.800, 152.600, 819, 100, 100, 21, 23196, -24799, 5437, 5548, 8, 14, 1525987783.824, 38, 0, 1024, 1024, 1024, 1024, 0, 6, 3881, 3862, 3823, 3852, 3872, 3871, 0, 1, 8701, -89.900, 0.000, 153.400, 0.000, 0.000, -3.100, 0.0, , , , , , 98, , , 33, 33, 33
38.0965909, -120.1425889, 10.400, 14:29:43.924, 16, 0.00, 0.39, 98, 0.500, 1.900, 152.400, 819, 100, 100, 21, 23395, -19941, 5381, 5548, 8, 14, 1525987783.924, 18, 0, 1024, 1024, 1024, 1024, 0, 6, 3881, 3862, 3823, 3852, 3872, 3871, 0, 1, 8801, -89.900, 0.000, 153.400, 0.000, 0.000, -3.000, 0.0, , , , , , 98, , , 33, 33, 33
38.0965909, -120.1425890, 10.700, 14:29:44.024, 16, 0.00, 0.38, 98, 0.300, 1.800, 152.300, 819, 100, 100, 21, 23395, -19941, 5381, 5548, 8, 14, 1525987784.024, 21, 0, 1024, 1024, 1024, 1024, 0, 6, 3913, 3882, 3884, 3887, 3923, 3906, 0, 1, 8902, -89.900, 0.000, 153.400, 0.000, 0.000, -3.000, 0.0, , , , , , 98, , , 33, 33, 33
38.0965909, -120.1425892, 11.100, 14:29:44.132, 16, 0.00, 0.37, 98, 0.200, 1.600, 152.200, 819, 100, 100, 21, 23395, -19941, 5381, 5548, 8, 14, 1525987784.132, 7, 0, 1024, 1024, 1024, 1024, 0, 6, 3913, 3882, 3884, 3887, 3923, 3906, 0, 1, 9010, -90.000, 0.000, 153.400, 0.000, 0.000, -3.000, 0.0, , , , , , 98, , , 33, 33, 33
38.0965909, -120.1425893, 11.400, 14:29:44.227, 16, 0.00, 0.36, 98, 0.200, 1.400, 152.200, 819, 100, 100, 21, 23395, -19941, 5381, 5548, 8, 14, 1525987784.228, 9, 0, 1024, 1024, 1024, 1024, 0, 6, 3913, 3882, 3884, 3887, 3923, 3906, 0, 1, 9105, -89.900, 0.000, 153.400, 0.000, 0.000, -3.100, 0.0, , , , , , 98, , , 33, 33, 33
38.0965909, -120.1425894, 11.700, 14:29:44.327, 16, 0.00, 0.36, 98, 0.400, 1.200, 152.300, 819, 100, 100, 21, 23395, -19941, 5381, 5548, 8, 14, 1525987784.328, 8, 0, 1024, 1024, 1024, 1024, 0, 6, 3913, 3882, 3884, 3887, 3923, 3906, 0, 1, 9205, -89.900, 0.000, 153.400, 0.000, 0.000, -3.100, 0.0, , , , , , 98, , , 33, 33, 33
38.0965909, -120.1425894, 12.000, 14:29:44.424, 16, 0.00, 0.36, 98, 0.600, 1.200, 152.300, 819, 100, 100, 21, 23395, -19941, 5381, 5548, 8, 14, 1525987784.425, 12, 0, 1024, 1024, 1024, 1024, 0, 6, 3913, 3882, 3884, 3887, 3923, 3906, 0, 1, 9302, -89.900, 0.000, 153.400, 0.000, 0.000, -3.100, 0.0, , , , , , 98, , , 33, 33, 33
38.0965909, -120.1425894, 12.300, 14:29:44.526, 16, 0.10, 0.35, 98, 0.800, 1.300, 152.400, 819, 100, 100, 21, 23395, -19941, 5381, 5548, 8, 14, 1525987784.527, 4, 0, 1024, 1024, 1024, 1024, 0, 6, 3913, 3882, 3884, 3887, 3923, 3906, 0, 1, 9404, -89.900, 0.000, 153.400, 0.100, 0.000, -3.000, 0.0, , , , , , 98, , , 33, 33, 33
38.0965909, -120.1425894, 12.600, 14:29:44.624, 16, 0.10, 0.35, 98, 0.900, 1.300, 152.500, 819, 100, 100, 21, 23395, -19941, 5381, 5548, 8, 14, 1525987784.624, 22, 0, 1024, 1024, 1024, 1024, 0, 6, 3913, 3882, 3884, 3887, 3923, 3906, 0, 1, 9501, -89.900, 0.000, 153.400, 0.100, 0.000, -3.000, 0.0, , , , , , 98, , , 33, 33, 33
38.0965911, -120.1425895, 13.300, 14:29:44.724, 16, 0.10, 0.34, 98, 1.100, 1.200, 152.500, 819, 100, 100, 21, 23395, -19941, 5381, 5548, 8, 14, 1525987784.725, 16, 0, 1024, 1024, 1024, 1024, 0, 6, 3913, 3882, 3884, 3887, 3923, 3906, 0, 1, 9602, -90.000, 0.000, 153.400, 0.100, 0.000, -2.900, 0.0, , , , , , 98, , , 33, 33, 33
38.0965912, -120.1425892, 13.600, 14:29:44.833, 16, 0.10, 0.35, 97, 1.300, 1.100, 152.500, 819, 100, 100, 21, 23477, -18655, 5381, 5548, 8, 14, 1525987784.834, 12, 0, 1024, 1024, 1024, 1024, 0, 6, 3913, 3882, 3884, 3887, 3923, 3906, 0, 1, 9711, -90.000, 0.000, 153.400, 0.100, 0.000, -3.000, 0.0, , , , , , 98, , , 33, 33, 33
38.0965913, -120.1425889, 13.900, 14:29:44.943, 16, 0.10, 0.36, 97, 2.100, 1.000, 152.600, 819, 100, 100, 21, 23477, -18655, 5381, 5548, 8, 14, 1525987784.944, 4, 0, 1024, 1024, 1024, 1024, 0, 6, 3921, 3907, 3908, 3911, 3953, 3917, 0, 1, 9821, -90.000, 0.000, 153.400, 0.100, 0.000, -2.900, 0.0, , , , , , 98, , , 33, 33, 33
38.0965915, -120.1425886, 14.200, 14:29:45.030, 16, 0.14, 0.38, 97, 3.000, 1.000, 152.700, 819, 100, 100, 21, 23477, -18655, 5381, 5548, 8, 14, 1525987785.031, 8, 0, 1024, 1024, 1024, 1024, 0, 6, 3921, 3907, 3908, 3911, 3953, 3917, 0, 1, 9909, -90.000, 0.000, 153.400, 0.100, 0.100, -3.000, 0.0, , , , , , 98, , , 33, 33, 33
38.0965915, -120.1425886, 14.200, 14:29:45.124, 16, 0.14, 0.38, 97, 3.000, 1.000, 152.700, 819, 100, 100, 21, 23477, -18655, 5381, 5548, 8, 14, 1525987785.124, 101, 0, 1024, 1024, 1024, 1024, 0, 6, 3921, 3907, 3908, 3911, 3953, 3917, 0, 1, 10001, -90.000, 0.000, 153.400, 0.100, 0.100, -3.000, 0.0, , , , , , 98, , , 33, 33, 33
38.0965917, -120.1425883, 14.500, 14:29:45.224, 16, 0.14, 0.39, 97, 3.800, 1.100, 152.900, 819, 100, 100, 21, 23477, -18655, 5381, 5548, 8, 14, 1525987785.224, 85, 0, 1024, 1024, 1024, 1024, 0, 6, 3921, 3907, 3908, 3911, 3953, 3917, 0, 1, 10101, -89.900, 0.000, 153.400, 0.100, 0.100, -2.900, 0.0, , , , , , 98, , , 33, 33, 33
38.0965918, -120.1425882, 14.800, 14:29:45.324, 16, 0.10, 0.40, 97, 4.000, 1.100, 153.000, 819, 100, 100, 21, 23477, -18655, 5381, 5548, 8, 14, 1525987785.324, 72, 0, 1024, 1024, 1024, 1024, 0, 6, 3921, 3907, 3908, 3911, 3953, 3917, 0, 1, 10201, -90.000, 0.000, 153.400, 0.100, 0.000, -2.900, 0.0, , , , , , 98, , , 33, 33, 33
38.0965919, -120.1425881, 15.100, 14:29:45.424, 16, 0.10, 0.41, 97, 4.000, 1.100, 153.000, 819, 100, 100, 21, 23477, -18655, 5381, 5548, 8, 14, 1525987785.424, 90, 0, 1024, 1024, 1024, 1024, 0, 6, 3921, 3907, 3908, 3911, 3953, 3917, 0, 1, 10301, -90.000, 0.000, 153.400, 0.100, 0.000, -2.900, 0.0, , , , , , 98, , , 33, 33, 33
38.0965920, -120.1425882, 15.400, 14:29:45.524, 16, 0.00, 0.40, 97, 3.700, 1.000, 153.000, 819, 100, 100, 21, 23477, -18655, 5381, 5548, 8, 14, 1525987785.525, 87, 0, 1024, 1024, 1024, 1024, 0, 6, 3921, 3907, 3908, 3911, 3953, 3917, 0, 1, 10402, -90.000, 0.000, 153.400, 0.000, 0.000, -2.800, 0.0, , , , , , 98, , , 33, 33, 33
38.0965920, -120.1425882, 15.400, 14:29:45.624, 16, 0.00, 0.40, 97, 3.700, 1.000, 153.000, 819, 100, 100, 21, 23477, -18655, 5381, 5548, 8, 14, 1525987785.624, 186, 0, 1024, 1024, 1024, 1024, 0, 6, 3921, 3907, 3908, 3911, 3953, 3917, 0, 1, 10501, -90.000, 0.000, 153.400, 0.000, 0.000, -2.800, 0.0, , , , , , 98, , , 33, 33, 33
38.0965920, -120.1425884, 16.000, 14:29:45.724, 16, 0.00, 0.38, 97, 2.300, 1.100, 152.800, 819, 100, 100, 21, 23477, -18655, 5381, 5548, 8, 14, 1525987785.724, 86, 0, 1024, 1024, 1024, 1024, 0, 6, 3921, 3907, 3908, 3911, 3953, 3917, 0, 1, 10601, -89.900, 0.000, 153.400, 0.000, 0.000, -2.900, 0.0, , , , , , 98, , , 33, 33, 33
38.0965920, -120.1425884, 16.300, 14:29:45.824, 16, 0.00, 0.38, 97, 2.100, 1.200, 152.600, 819, 100, 100, 21, 23477, -18655, 5381, 5548, 8, 14, 1525987785.824, 71, 0, 1024, 1024, 1024, 1024, 0, 6, 3921, 3907, 3908, 3911, 3953, 3917, 0, 1, 10701, -90.000, 0.000, 153.400, 0.000, 0.000, -3.000, 0.0, , , , , , 98, , , 33, 33, 33
38.0965920, -120.1425884, 16.600, 14:29:45.924, 16, 0.00, 0.38, 97, 2.300, 1.200, 152.500, 819, 100, 99, 21, 23628, -17013, 5381, 5548, 8, 14, 1525987785.924, 63, 0, 1024, 1024, 1024, 1024, 0, 6, 3921, 3907, 3908, 3911, 3953, 3917, 0, 1, 10801, -90.000, 0.000, 153.400, 0.000, 0.000, -3.000, 0.0, , , , , , 98, , , 33, 33, 33
38.0965921, -120.1425884, 17.000, 14:29:46.024, 16, 0.10, 0.38, 97, 2.800, 1.300, 152.500, 819, 100, 99, 21, 23628, -17013, 5381, 5548, 8, 14, 1525987786.025, 57, 0, 1024, 1024, 1024, 1024, 0, 6, 3921, 3907, 3908, 3911, 3953, 3917, 0, 1, 10902, -90.000, 0.000, 153.400, 0.000, 0.100, -3.000, 0.0, , , , , , 98, , , 33, 33, 33
38.0965921, -120.1425883, 17.300, 14:29:46.124, 16, 0.10, 0.38, 97, 3.600, 1.200, 152.500, 819, 100, 99, 21, 23628, -17013, 5381, 5548, 8, 14, 1525987786.124, 44, 0, 1024, 1024, 1024, 1024, 0, 6, 3921, 3907, 3908, 3911, 3953, 3917, 0, 1, 11001, -90.000, 0.000, 153.400, 0.000, 0.100, -3.000, 0.0, , , , , , 98, , , 33, 33, 33
38.0965922, -120.1425882, 17.700, 14:29:46.223, 16, 0.10, 0.39, 97, 4.000, 1.300, 152.600, 819, 100, 99, 21, 23628, -17013, 5381, 5548, 8, 14, 1525987786.224, 21, 0, 1024, 1024, 1024, 1024, 0, 6, 3921, 3907, 3908, 3911, 3953, 3917, 0, 1, 11101, -89.900, 0.000, 153.400, 0.000, 0.100, -3.100, 0.0, , , , , , 98, , , 33, 33, 33
38.0965922, -120.1425881, 18.000, 14:29:46.324, 16, 0.10, 0.40, 97, 4.300, 1.400, 152.500, 819, 100, 99, 21, 23628, -17013, 5381, 5548, 8, 14, 1525987786.324, 52, 0, 1024, 1024, 1024, 1024, 0, 6, 3952, 3916, 3927, 3930, 3956, 3947, 0, 1, 11201, -89.900, 0.000, 153.400, 0.000, 0.100, -3.100, 0.0, , , , , , 98, , , 33, 33, 33
38.0965923, -120.1425880, 18.400, 14:29:46.424, 17, 0.14, 0.41, 97, 4.800, 1.200, 152.400, 819, 100, 98, 21, 23628, -17013, 5381, 5548, 8, 14, 1525987786.424, 54, 0, 1024, 1024, 1024, 1024, 0, 6, 3952, 3916, 3927, 3930, 3956, 3947, 0, 1, 11301, -90.000, 0.000, 153.400, 0.100, 0.100, -3.100, 0.0, , , , , , 98, , , 33, 33, 33
38.0965924, -120.1425879, 18.700, 14:29:46.524, 17, 0.14, 0.42, 97, 5.500, 1.100, 152.200, 819, 100, 98, 21, 23628, -17013, 5381, 5548, 8, 14, 1525987786.524, 42, 0, 1024, 1024, 1024, 1024, 0, 6, 3952, 3916, 3927, 3930, 3956, 3947, 0, 1, 11401, -90.000, 0.000, 153.400, 0.100, 0.100, -3.000, 0.0, , , , , , 98, , , 33, 33, 33
38.0965925, -120.1425877, 19.100, 14:29:46.624, 17, 0.14, 0.43, 97, 5.900, 0.800, 152.100, 819, 100, 98, 21, 23628, -17013, 5381, 5548, 8, 14, 1525987786.624, 42, 0, 1024, 1024, 1024, 1024, 0, 6, 3952, 3916, 3927, 3930, 3956, 3947, 0, 1, 11501, -90.000, 0.000, 153.400, 0.100, 0.100, -2.900, 0.0, , , , , , 98, , , 33, 33, 33
38.0965926, -120.1425876, 19.400, 14:29:46.724, 17, 0.14, 0.44, 97, 6.200, 0.900, 152.100, 819, 100, 98, 21, 23628, -17013, 5381, 5548, 8, 14, 1525987786.724, 20, 0, 1024, 1024, 1024, 1024, 0, 6, 3952, 3916, 3927, 3930, 3956, 3947, 0, 1, 11601, -90.000, 0.000, 153.400, 0.100, 0.100, -2.800, 0.0, , , , , , 98, , , 33, 33, 33
38.0965927, -120.1425874, 19.700, 14:29:46.824, 17, 0.14, 0.45, 97, 6.500, 0.800, 152.100, 819, 100, 98, 21, 23628, -17013, 5381, 5548, 8, 14, 1525987786.824, 15, 0, 1024, 1024, 1024, 1024, 0, 6, 3952, 3916, 3927, 3930, 3956, 3947, 0, 1, 11701, -90.000, 0.000, 153.400, 0.100, 0.100, -2.700, 0.0, , , , , , 98, , , 33, 33, 33
38.0965928, -120.1425873, 20.000, 14:29:46.923, 17, 0.14, 0.47, 97, 6.800, 0.700, 152.100, 819, 100, 98, 21, 23628, -17013, 5381, 5548, 8, 14, 1525987786.924, 17, 0, 1024, 1024, 1024, 1024, 0, 6, 3952, 3916, 3927, 3930, 3956, 3947, 0, 1, 11801, -90.000, 0.000, 153.400, 0.100, 0.100, -2.500, 0.0, , , , , , 98, , , 33, 33, 33
38.0965929, -120.1425872, 20.200, 14:29:47.024, 17, 0.10, 0.47, 97, 6.600, 0.800, 152.200, 819, 100, 98, 21, 23628, -17013, 5381, 5548, 8, 14, 1525987787.024, 29, 0, 1024, 1024, 1024, 1024, 0, 6, 3952, 3916, 3927, 3930, 3956, 3947, 0, 1, 11901, -89.900, 0.000, 153.400, 0.000, 0.100, -2.400, 0.0, , , , , , 98, , , 33, 33, 33
38.0965929, -120.1425872, 20.200, 14:29:47.124, 17, 0.10, 0.47, 97, 6.600, 0.800, 152.200, 819, 100, 98, 21, 23628, -17013, 5381, 5548, 8, 14, 1525987787.124, 129, 0, 1024, 1024, 1024, 1024, 0, 6, 3952, 3916, 3927, 3930, 3956, 3947, 0, 1, 12001, -89.900, 0.000, 153.400, 0.000, 0.100, -2.400, 0.0, , , , , , 98, , , 33, 33, 33
38.0965929, -120.1425871, 20.500, 14:29:47.224, 17, 0.10, 0.48, 97, 6.400, 0.900, 152.300, 819, 100, 98, 21, 23628, -17013, 5381, 5548, 8, 14, 1525987787.224, 57, 0, 1024, 1024, 1024, 1024, 0, 6, 3952, 3916, 3927, 3930, 3956, 3947, 0, 1, 12101, -89.900, 0.000, 153.400, 0.000, 0.100, -2.500, 0.0, , , , , , 98, , , 33, 33, 33
38.0965930, -120.1425870, 20.700, 14:29:47.324, 17, 0.00, 0.49, 97, 6.200, 1.100, 152.400, 819, 100, 98, 21, 23628, -17013, 5381, 5548, 8, 14, 1525987787.324, 91, 0, 1024, 1024, 1024, 1024, 0, 6, 3952, 3916, 3927, 3930, 3956, 3947, 0, 1, 12201, -89.900, 0.000, 153.400, 0.000, 0.000, -2.400, 0.0, , , , , , 98, , , 33, 33, 33
38.0965931, -120.1425870, 21.200, 14:29:47.424, 17, 0.00, 0.49, 97, 5.800, 1.200, 152.600, 819, 100, 98, 21, 23634, -16813, 5381, 5548, 8, 14, 1525987787.424, 82, 0, 1024, 1024, 1024, 1024, 0, 6, 3957, 3921, 3935, 3936, 3963, 3958, 0, 1, 12302, -89.900, 0.000, 153.400, 0.000, 0.000, -2.500, 0.0, , , , , , 98, , , 33, 33, 33
38.0965931, -120.1425870, 21.400, 14:29:47.524, 17, 0.00, 0.49, 97, 5.400, 1.100, 152.600, 819, 100, 99, 21, 23634, -16813, 5381, 5548, 8, 14, 1525987787.524, 96, 0, 1024, 1024, 1024, 1024, 0, 6, 3957, 3921, 3935, 3936, 3963, 3958, 0, 1, 12401, -90.000, 0.000, 153.400, 0.000, 0.000, -2.600, 0.0, , , , , , 98, , , 33, 33, 33
38.0965931, -120.1425869, 21.700, 14:29:47.624, 17, 0.00, 0.50, 97, 5.300, 1.000, 152.600, 819, 100, 99, 21, 23634, -16813, 5381, 5548, 8, 14, 1525987787.624, 90, 0, 1024, 1024, 1024, 1024, 0, 6, 3957, 3921, 3935, 3936, 3963, 3958, 0, 1, 12501, -90.000, 0.000, 153.400, 0.000, 0.000, -2.500, 0.0, , , , , , 98, , , 33, 33, 33
38.0965931, -120.1425869, 21.700, 14:29:47.724, 17, 0.00, 0.50, 97, 5.300, 1.000, 152.600, 819, 100, 99, 21, 23634, -16813, 5381, 5548, 8, 14, 1525987787.724, 190, 0, 1024, 1024, 1024, 1024, 0, 6, 3957, 3921, 3935, 3936, 3963, 3958, 0, 1, 12601, -89.900, 0.000, 153.400, 0.000, 0.000, -2.500, 0.0, , , , , , 98, , , 33, 33, 33
38.0965932, -120.1425868, 22.100, 14:29:47.824, 17, 0.00, 0.51, 97, 5.300, 1.400, 152.900, 819, 100, 99, 21, 23634, -16813, 5381, 5548, 8, 14, 1525987787.824, 84, 0, 1024, 1024, 1024, 1024, 0, 6, 3957, 3921, 3935, 3936, 3963, 3958, 0, 1, 12701, -89.900, 0.000, 153.400, 0.000, 0.000, -2.600, 0.0, , , , , , 98, , , 33, 33, 33
38.0965932, -120.1425867, 22.400, 14:29:47.924, 17, 0.00, 0.52, 97, 5.600, 1.700, 153.200, 819, 100, 99, 21, 23634, -16813, 5381, 5548, 8, 14, 1525987787.924, 69, 0, 1024, 1024, 1024, 1024, 0, 6, 3957, 3921, 3935, 3936, 3963, 3958, 0, 1, 12801, -89.900, 0.000, 153.400, 0.000, 0.000, -2.800, 0.0, , , , , , 98, , , 33, 33, 33
38.0965932, -120.1425866, 22.700, 14:29:48.023, 17, 0.00, 0.53, 97, 5.800, 1.900, 153.300, 819, 100, 99, 21, 23634, -16813, 5381, 5548, 8, 14, 1525987788.024, 82, 0, 1024, 1024, 1024, 1024, 0, 6, 3957, 3921, 3935, 3936, 3963, 3958, 0, 1, 12901, -89.900, 0.000, 153.400, 0.000, 0.000, -2.900, 0.0, , , , , , 98, , , 33, 33, 33
38.0965933, -120.1425864, 22.900, 14:29:48.124, 17, 0.00, 0.54, 97, 6.200, 2.000, 153.300, 819, 100, 99, 21, 23634, -16813, 5381, 5548, 8, 14, 1525987788.124, 69, 0, 1024, 1024, 1024, 1024, 0, 6, 3957, 3921, 3935, 3936, 3963, 3958, 0, 1, 13001, -89.900, 0.000, 153.300, 0.000, 0.000, -2.900, 0.0, , , , , , 98, , , 33, 33, 33
38.0965933, -120.1425863, 23.200, 14:29:48.224, 17, 0.00, 0.55, 97, 6.500, 2.000, 153.000, 819, 100, 99, 21, 23634, -16813, 5381, 5548, 8, 14, 1525987788.224, 42, 0, 1024, 1024, 1024, 1024, 0, 6, 3957, 3921, 3935, 3936, 3963, 3958, 0, 1, 13101, -89.900, 0.000, 153.400, 0.000, 0.000, -2.900, 0.0, , , , , , 98, , , 33, 33, 33
38.0965933, -120.1425862, 23.500, 14:29:48.324, 17, 0.00, 0.57, 97, 6.900, 2.200, 152.700, 819, 100, 99, 21, 23634, -16813, 5381, 5548, 8, 14, 1525987788.324, 69, 0, 1024, 1024, 1024, 1024, 0, 6, 3957, 3921, 3935, 3936, 3963, 3958, 0, 1, 13201, -89.900, 0.000, 153.300, 0.000, 0.000, -2.800, 0.0, , , , , , 98, , , 33, 33, 33
38.0965934, -120.1425860, 23.700, 14:29:48.424, 17, 0.10, 0.58, 97, 6.800, 2.100, 152.300, 819, 100, 99, 21, 23672, -14525, 5381, 5548, 8, 14, 1525987788.424, 54, 0, 1024, 1024, 1024, 1024, 0, 6, 3953, 3915, 3926, 3958, 3960, 3919, 0, 1, 13301, -89.900, 0.000, 153.300, 0.000, 0.100, -2.800, 0.0, , , , , , 98, , , 33, 33, 33
38.0965934, -120.1425858, 24.000, 14:29:48.523, 17, 0.10, 0.60, 97, 7.100, 2.000, 152.000, 819, 100, 99, 21, 23672, -14525, 5381, 5548, 8, 14, 1525987788.524, 44, 0, 1024, 1024, 1024, 1024, 0, 6, 3953, 3915, 3926, 3958, 3960, 3919, 0, 1, 13401, -89.900, 0.000, 153.300, 0.000, 0.100, -3.000, 0.0, , , , , , 98, , , 33, 33, 33
38.0965934, -120.1425857, 24.300, 14:29:48.624, 17, 0.10, 0.61, 97, 7.600, 2.000, 152.000, 819, 100, 99, 21, 23672, -14525, 5381, 5548, 8, 14, 1525987788.624, 55, 0, 1024, 1024, 1024, 1024, 0, 6, 3953, 3915, 3926, 3958, 3960, 3919, 0, 1, 13501, -89.900, 0.000, 153.300, 0.000, 0.100, -2.900, 0.0, , , , , , 98, , , 33, 33, 33
38.0965934, -120.1425856, 24.500, 14:29:48.724, 17, 0.00, 0.62, 97, 7.600, 2.000, 152.000, 819, 100, 99, 21, 23672, -14525, 5381, 5548, 8, 14, 1525987788.724, 19, 0, 1024, 1024, 1024, 1024, 0, 6, 3953, 3915, 3926, 3958, 3960, 3919, 0, 1, 13601, -89.900, 0.000, 153.300, 0.000, 0.000, -2.800, 0.0, , , , , , 98, , , 33, 33, 33
38.0965933, -120.1425855, 24.800, 14:29:48.824, 17, 0.00, 0.63, 97, 7.600, 2.200, 152.100, 819, 100, 99, 21, 23672, -14525, 5381, 5548, 8, 14, 1525987788.824, 19, 0, 1024, 1024, 1024, 1024, 0, 6, 3953, 3915, 3926, 3958, 3960, 3919, 0, 1, 13701, -89.900, 0.000, 153.300, 0.000, 0.000, -2.900, 0.0, , , , , , 98, , , 33, 33, 33
38.0965933, -120.1425854, 25.000, 14:29:48.924, 17, 0.00, 0.63, 97, 7.400, 2.400, 152.300, 819, 100, 98, 21, 23672, -14525, 5381, 5548, 8, 14, 1525987788.924, 21, 0, 1024, 1024, 1024, 1024, 0, 6, 3953, 3915, 3926, 3958, 3960, 3919, 0, 1, 13801, -89.900, 0.000, 153.300, 0.000, 0.000, -2.800, 0.0, , , , , , 98, , , 33, 33, 33
38.0965933, -120.1425854, 25.000, 14:29:49.024, 17, 0.00, 0.63, 97, 7.400, 2.400, 152.300, 819, 100, 98, 21, 23672, -14525, 5381, 5548, 8, 14, 1525987789.024, 121, 0, 1024, 1024, 1024, 1024, 0, 6, 3953, 3915, 3926, 3958, 3960, 3919, 0, 1, 13901, -89.900, 0.000, 153.300, 0.000, 0.000, -2.800, 0.0, , , , , , 98, , , 33, 33, 33
38.0965930, -120.1425853, 25.500, 14:29:49.123, 17, 0.10, 0.64, 97, 6.200, 3.800, 152.800, 819, 100, 98, 21, 23672, -14525, 5381, 5548, 8, 14, 1525987789.124, 22, 0, 1024, 1024, 1024, 1024, 0, 6, 3953, 3915, 3926, 3958, 3960, 3919, 0, 1, 14001, -89.900, 0.000, 153.300, -0.100, 0.000, -3.000, 0.0, , , , , , 98, , , 33, 33, 33
38.0965929, -120.1425853, 25.800, 14:29:49.224, 17, 0.10, 0.64, 97, 6.000, 4.200, 153.000, 819, 100, 98, 21, 23672, -14525, 5381, 5548, 8, 14, 1525987789.224, 32, 0, 1024, 1024, 1024, 1024, 0, 6, 3953, 3915, 3926, 3958, 3960, 3919, 0, 1, 14101, -89.900, 0.000, 153.200, -0.100, 0.000, -3.000, 0.0, , , , , , 98, , , 33, 33, 33
38.0965927, -120.1425853, 26.100, 14:29:49.324, 17, 0.10, 0.64, 97, 6.500, 4.600, 153.100, 819, 100, 98, 21, 23486, -18266, 5381, 5548, 8, 14, 1525987789.324, 17, 0, 1024, 1024, 1024, 1024, 0, 6, 3953, 3915, 3926, 3958, 3960, 3919, 0, 1, 14201, -89.900, 0.000, 153.200, -0.100, 0.000, -3.200, 0.0, , , , , , 98, , , 33, 33, 33
38.0965926, -120.1425853, 26.300, 14:29:49.432, 17, 0.00, 0.64, 97, 7.000, 4.800, 153.200, 819, 100, 98, 21, 23486, -18266, 5381, 5548, 8, 14, 1525987789.433, 9, 0, 1024, 1024, 1024, 1024, 0, 6, 3931, 3904, 3891, 3904, 3951, 3928, 0, 1, 14310, -89.900, 0.000, 153.200, 0.000, 0.000, -3.100, 0.0, , , , , , 98, , , 33, 33, 33
38.0965924, -120.1425851, 26.900, 14:29:49.526, 17, 0.00, 0.66, 97, 7.000, 5.400, 153.300, 819, 100, 97, 21, 23486, -18266, 5381, 5548, 8, 14, 1525987789.527, 4, 0, 1024, 1024, 1024, 1024, 0, 6, 3931, 3904, 3891, 3904, 3951, 3928, 0, 1, 14404, -89.900, 0.000, 153.200, 0.000, 0.000, -3.200, 0.0, , , , , , 98, , , 33, 33, 33
38.0965923, -120.1425850, 27.200, 14:29:49.624, 17, 0.00, 0.67, 97, 7.100, 5.100, 153.200, 819, 100, 97, 21, 23486, -18266, 5381, 5548, 8, 14, 1525987789.624, 6, 0, 1024, 1024, 1024, 1024, 0, 6, 3931, 3904, 3891, 3904, 3951, 3928, 0, 1, 14501, -89.900, 0.000, 153.200, 0.000, 0.000, -3.300, 0.0, , , , , , 98, , , 33, 33, 33
38.0965923, -120.1425850, 27.200, 14:29:49.724, 17, 0.00, 0.67, 97, 7.100, 5.100, 153.200, 819, 100, 97, 21, 23486, -18266, 5381, 5548, 8, 14, 1525987789.724, 106, 0, 1024, 1024, 1024, 1024, 0, 6, 3931, 3904, 3891, 3904, 3951, 3928, 0, 1, 14601, -89.900, 0.000, 153.200, 0.000, 0.000, -3.300, 0.0, , , , , , 98, , , 33, 33, 33
38.0965923, -120.1425850, 27.600, 14:29:49.824, 17, 0.00, 0.67, 97, 7.400, 4.600, 153.100, 819, 100, 97, 21, 23486, -18266, 5381, 5548, 8, 14, 1525987789.824, 86, 0, 1024, 1024, 1024, 1024, 0, 6, 3931, 3904, 3891, 3904, 3951, 3928, 0, 1, 14701, -90.000, 0.000, 153.200, 0.000, 0.000, -3.300, 0.0, , , , , , 98, , , 33, 33, 33
38.0965922, -120.1425849, 28.200, 14:29:49.924, 17, 0.00, 0.68, 97, 7.300, 4.100, 153.000, 819, 100, 95, 21, 23486, -18266, 5381, 5548, 8, 14, 1525987789.925, 4, 0, 1024, 1024, 1024, 1024, 0, 6, 3931, 3904, 3891, 3904, 3951, 3928, 0, 1, 14802, -90.000, 0.000, 153.200, 0.000, 0.000, -3.100, 0.0, , , , , , 98, , , 33, 33, 33
38.0965922, -120.1425849, 28.200, 14:29:50.024, 17, 0.00, 0.68, 97, 7.300, 4.100, 153.000, 819, 100, 95, 21, 23486, -18266, 5381, 5548, 8, 14, 1525987790.024, 104, 0, 1024, 1024, 1024, 1024, 0, 6, 3931, 3904, 3891, 3904, 3951, 3928, 0, 1, 14901, -90.000, 0.000, 153.200, 0.000, 0.000, -3.100, 0.0, , , , , , 98, , , 33, 33, 33
38.0965921, -120.1425849, 28.500, 14:29:50.124, 17, 0.00, 0.68, 97, 6.800, 4.100, 152.900, 819, 100, 95, 21, 23486, -18266, 5381, 5548, 8, 14, 1525987790.124, 97, 0, 1024, 1024, 1024, 1024, 0, 6, 3931, 3904, 3891, 3904, 3951, 3928, 0, 1, 15001, -90.000, 0.000, 153.200, 0.000, 0.000, -3.000, 0.0, , , , , , 98, , , 33, 33, 33
38.0965921, -120.1425850, 28.800, 14:29:50.224, 17, 0.00, 0.67, 97, 6.200, 4.000, 152.800, 819, 100, 95, 21, 23486, -18266, 5381, 5548, 8, 14, 1525987790.224, 86, 0, 1024, 1024, 1024, 1024, 0, 6, 3931, 3904, 3891, 3904, 3951, 3928, 0, 1, 15102, -90.000, 0.000, 153.200, 0.000, 0.000, -3.000, 0.0, , , , , , 98, , , 33, 33, 33
38.0965921, -120.1425851, 29.000, 14:29:50.324, 17, 0.00, 0.67, 97, 5.900, 3.900, 152.800, 819, 100, 95, 21, 23486, -18266, 5381, 5548, 8, 14, 1525987790.324, 73, 0, 1024, 1024, 1024, 1024, 0, 6, 3931, 3904, 3891, 3904, 3951, 3928, 0, 1, 15201, -90.000, 0.000, 153.200, 0.000, 0.000, -3.100, 0.0, , , , , , 98, , , 33, 33, 33
38.0965920, -120.1425852, 29.300, 14:29:50.423, 17, 0.10, 0.66, 97, 5.300, 3.700, 152.700, 819, 100, 95, 22, 23418, -18335, 5381, 5548, 8, 14, 1525987790.424, 72, 0, 1024, 1024, 1024, 1024, 0, 6, 3902, 3875, 3884, 3901, 3934, 3899, 0, 1, 15301, -90.000, 0.000, 153.200, 0.000, -0.100, -3.100, 0.0, , , , , , 98, , , 33, 33, 33
38.0965919, -120.1425853, 29.600, 14:29:50.524, 17, 0.10, 0.65, 97, 4.800, 3.500, 152.600, 819, 100, 98, 22, 23418, -18335, 5381, 5548, 8, 14, 1525987790.524, 72, 0, 1024, 1024, 1024, 1024, 0, 6, 3902, 3875, 3884, 3901, 3934, 3899, 0, 1, 15401, -90.000, 0.000, 153.200, 0.000, -0.100, -3.200, 0.0, , , , , , 98, , , 33, 33, 33
38.0965919, -120.1425855, 30.000, 14:29:50.624, 17, 0.10, 0.63, 97, 4.800, 3.500, 152.600, 819, 100, 98, 22, 23418, -18335, 5381, 5548, 8, 14, 1525987790.624, 72, 0, 1024, 1024, 1024, 1024, 0, 6, 3902, 3875, 3884, 3901, 3934, 3899, 0, 1, 15501, -90.000, 0.000, 153.200, 0.000, -0.100, -3.300, 0.0, , , , , , 98, , , 33, 33, 33
38.0965918, -120.1425856, 30.300, 14:29:50.724, 17, 0.10, 0.62, 97, 4.900, 3.700, 152.500, 819, 100, 98, 22, 23418, -18335, 5381, 5548, 8, 14, 1525987790.724, 72, 0, 1024, 1024, 1024, 1024, 0, 6, 3902, 3875, 3884, 3901, 3934, 3899, 0, 1, 15601, -89.900, 0.000, 153.200, 0.000, -0.100, -3.400, 0.0, , , , , , 98, , , 33, 33, 33
38.0965918, -120.1425858, 30.600, 14:29:50.824, 17, 0.10, 0.61, 97, 4.400, 3.400, 152.600, 819, 100, 98, 22, 23418, -18335, 5381, 5548, 8, 14, 1525987790.824, 69, 0, 1024, 1024, 1024, 1024, 0, 6, 3902, 3875, 3884, 3901, 3934, 3899, 0, 1, 15701, -90.000, 0.000, 153.200, 0.000, -0.100, -3.300, 0.0, , , , , , 98, , , 33, 33, 33
38.0965918, -120.1425858, 30.600, 14:29:50.923, 17, 0.10, 0.61, 97, 4.400, 3.400, 152.600, 819, 100, 100, 22, 23418, -18335, 5381, 5548, 8, 14, 1525987790.924, 169, 0, 1024, 1024, 1024, 1024, 0, 6, 3902, 3875, 3884, 3901, 3934, 3899, 0, 1, 15801, -90.000, 0.000, 153.200, 0.000, -0.100, -3.300, 0.0, , , , , , 98, , , 33, 33, 33
38.0965916, -120.1425861, 31.300, 14:29:51.024, 17, 0.10, 0.58, 97, 4.300, 3.900, 152.700, 819, 100, 100, 22, 23418, -18335, 5381, 5548, 8, 14, 1525987791.024, 56, 0, 1024, 1024, 1024, 1024, 0, 6, 3902, 3875, 3884, 3901, 3934, 3899, 0, 1, 15901, -90.000, 0.000, 153.200, 0.000, -0.100, -3.300, 0.0, , , , , , 98, , , 33, 33, 33
38.0965916, -120.1425862, 31.700, 14:29:51.124, 17, 0.00, 0.57, 97, 4.200, 4.000, 152.700, 819, 100, 100, 22, 23418, -18335, 5381, 5548, 8, 14, 1525987791.124, 24, 0, 1024, 1024, 1024, 1024, 0, 6, 3902, 3875, 3884, 3901, 3934, 3899, 0, 1, 16001, -89.900, 0.000, 153.200, 0.000, 0.000, -3.200, 0.0, , , , , , 98, , , 33, 33, 33
38.0965916, -120.1425864, 32.000, 14:29:51.224, 17, 0.00, 0.56, 97, 3.800, 4.100, 152.800, 819, 100, 100, 22, 23418, -18335, 5381, 5548, 8, 14, 1525987791.224, 53, 0, 1024, 1024, 1024, 1024, 0, 6, 3902, 3875, 3884, 3901, 3934, 3899, 0, 1, 16102, -89.900, 0.000, 153.200, 0.000, 0.000, -3.300, 0.0, , , , , , 98, , , 33, 33, 33
38.0965915, -120.1425865, 32.400, 14:29:51.324, 17, 0.00, 0.55, 97, 4.000, 4.100, 152.800, 819, 100, 100, 22, 23244, -19530, 5381, 5548, 8, 14, 1525987791.324, 18, 0, 1024, 1024, 1024, 1024, 0, 6, 3902, 3875, 3884, 3901, 3934, 3899, 0, 1, 16201, -89.900, 0.000, 153.200, 0.000, 0.000, -3.300, 0.0, , , , , , 98, , , 33, 33, 33
38.0965915, -120.1425866, 32.700, 14:29:51.424, 17, 0.00, 0.54, 97, 4.200, 4.200, 152.700, 819, 100, 99, 22, 23244, -19530, 5381, 5548, 8, 14, 1525987791.424, 19, 0, 1024, 1024, 1024, 1024, 0, 6, 3902, 3875, 3884, 3901, 3934, 3899, 0, 1, 16301, -90.000, 0.000, 153.200, 0.000, 0.000, -3.400, 0.0, , , , , , 98, , , 33, 33, 33
38.0965915, -120.1425867, 33.100, 14:29:51.529, 17, 0.00, 0.54, 97, 4.300, 4.000, 152.500, 819, 100, 99, 22, 23244, -19530, 5381, 5548, 8, 14, 1525987791.529, 9, 0, 1024, 1024, 1024, 1024, 0, 6, 3902, 3875, 3884, 3901, 3934, 3899, 0, 1, 16407, -90.000, 0.000, 153.200, 0.000, 0.000, -3.300, 0.0, , , , , , 98, , , 33, 33, 33
38.0965915, -120.1425869, 33.400, 14:29:51.624, 17, 0.00, 0.53, 97, 4.400, 3.800, 152.400, 819, 100, 99, 22, 23244, -19530, 5381, 5548, 8, 14, 1525987791.624, 19, 0, 1024, 1024, 1024, 1024, 0, 6, 3902, 3875, 3884, 3901, 3934, 3899, 0, 1, 16501, -90.000, 0.000, 153.200, 0.000, 0.000, -3.300, 0.0, , , , , , 98, , , 33, 33, 33
38.0965914, -120.1425871, 34.100, 14:29:51.724, 17, 0.00, 0.51, 97, 4.400, 3.800, 152.300, 819, 100, 99, 22, 23244, -19530, 5381, 5548, 8, 14, 1525987791.725, 19, 0, 1024, 1024, 1024, 1024, 0, 6, 3902, 3875, 3884, 3901, 3934, 3899, 0, 1, 16602, -90.000, 0.000, 153.200, 0.000, 0.000, -3.100, 0.0, , , , , , 98, , , 33, 33, 33
38.0965914, -120.1425872, 34.500, 14:29:51.827, 17, 0.00, 0.50, 97, 4.300, 4.100, 152.300, 819, 100, 99, 22, 23244, -19530, 5381, 5548, 8, 14, 1525987791.827, 4, 0, 1024, 1024, 1024, 1024, 0, 6, 3902, 3875, 3884, 3901, 3934, 3899, 0, 1, 16705, -89.900, 0.000, 153.200, 0.000, 0.000, -3.100, 0.0, , , , , , 98, , , 33, 33, 33
38.0965914, -120.1425872, 34.500, 14:29:51.924, 17, 0.00, 0.50, 97, 4.300, 4.100, 152.300, 819, 100, 99, 22, 23244, -19530, 5381, 5548, 8, 14, 1525987791.924, 100, 0, 1024, 1024, 1024, 1024, 0, 6, 3877, 3840, 3836, 3845, 3882, 3864, 0, 1, 16801, -89.900, 0.000, 153.200, 0.000, 0.000, -3.100, 0.0, , , , , , 98, , , 33, 33, 33
38.0965914, -120.1425873, 35.100, 14:29:52.027, 17, 0.00, 0.49, 97, 4.000, 4.200, 152.100, 819, 100, 99, 22, 23244, -19530, 5381, 5548, 8, 14, 1525987792.027, 4, 0, 1024, 1024, 1024, 1024, 0, 6, 3877, 3840, 3836, 3845, 3882, 3864, 0, 1, 16904, -89.900, 0.000, 153.200, 0.000, 0.000, -3.100, 0.0, , , , , , 98, , , 33, 33, 33
38.0965914, -120.1425873, 35.100, 14:29:52.124, 17, 0.00, 0.49, 97, 4.000, 4.200, 152.100, 819, 100, 99, 22, 23244, -19530, 5381, 5548, 8, 14, 1525987792.124, 101, 0, 1024, 1024, 1024, 1024, 0, 6, 3877, 3840, 3836, 3845, 3882, 3864, 0, 1, 17001, -89.900, 0.000, 153.200, 0.000, 0.000, -3.100, 0.0, , , , , , 98, , , 33, 33, 33
38.0965913, -120.1425874, 35.400, 14:29:52.224, 17, 0.00, 0.49, 97, 4.100, 4.200, 152.200, 819, 100, 99, 22, 23244, -19530, 5381, 5548, 8, 14, 1525987792.225, 72, 0, 1024, 1024, 1024, 1024, 0, 6, 3877, 3840, 3836, 3845, 3882, 3864, 0, 1, 17102, -89.900, 0.000, 153.200, 0.000, 0.000, -3.100, 0.0, , , , , , 98, , , 33, 33, 33
38.0965913, -120.1425874, 35.800, 14:29:52.324, 17, 0.00, 0.48, 97, 4.400, 4.300, 152.400, 819, 100, 99, 22, 23244, -19530, 5381, 5548, 8, 14, 1525987792.324, 62, 0, 1024, 1024, 1024, 1024, 0, 6, 3877, 3840, 3836, 3845, 3882, 3864, 0, 1, 17201, -89.900, 0.000, 153.200, 0.000, 0.000, -3.000, 0.0, , , , , , 98, , , 33, 33, 33
38.0965913, -120.1425874, 36.100, 14:29:52.424, 17, 0.00, 0.48, 97, 4.900, 4.300, 152.700, 819, 100, 99, 22, 23244, -19530, 5381, 5548, 8, 14, 1525987792.424, 69, 0, 1024, 1024, 1024, 1024, 0, 6, 3877, 3840, 3836, 3845, 3882, 3864, 0, 1, 17301, -89.900, 0.000, 153.200, 0.000, 0.000, -3.100, 0.0, , , , , , 98, , , 33, 33, 33
38.0965913, -120.1425874, 36.500, 14:29:52.524, 17, 0.00, 0.48, 97, 5.200, 4.200, 152.900, 819, 100, 98, 22, 23244, -19530, 5381, 5548, 8, 14, 1525987792.524, 53, 0, 1024, 1024, 1024, 1024, 0, 6, 3877, 3840, 3836, 3845, 3882, 3864, 0, 1, 17401, -89.900, 0.000, 153.200, 0.000, 0.000, -3.100, 0.0, , , , , , 98, , , 33, 33, 33
38.0965914, -120.1425875, 36.800, 14:29:52.624, 17, 0.00, 0.48, 97, 4.900, 4.200, 152.900, 819, 100, 98, 22, 23244, -19530, 5381, 5548, 8, 14, 1525987792.624, 67, 0, 1024, 1024, 1024, 1024, 0, 6, 3877, 3840, 3836, 3845, 3882, 3864, 0, 1, 17501, -89.900, 0.000, 153.200, 0.000, 0.000, -3.000, 0.0, , , , , , 98, , , 33, 33, 33
38.0965914, -120.1425875, 37.100, 14:29:52.723, 17, 0.00, 0.47, 97, 4.800, 3.900, 152.800, 819, 100, 98, 22, 23244, -19530, 5381, 5548, 8, 14, 1525987792.724, 77, 0, 1024, 1024, 1024, 1024, 0, 6, 3877, 3840, 3836, 3845, 3882, 3864, 0, 1, 17601, -89.900, 0.000, 153.200, 0.000, 0.000, -3.000, 0.0, , , , , , 98, , , 33, 33, 33
38.0965915, -120.1425875, 37.400, 14:29:52.824, 17, 0.00, 0.47, 97, 4.800, 3.800, 152.700, 819, 100, 98, 22, 23244, -19530, 5381, 5548, 8, 14, 1525987792.824, 72, 0, 1024, 1024, 1024, 1024, 0, 6, 3877, 3840, 3836, 3845, 3882, 3864, 0, 1, 17701, -89.900, 0.000, 153.200, 0.000, 0.000, -2.900, 0.0, , , , , , 98, , , 33, 33, 33
38.0965915, -120.1425876, 37.800, 14:29:52.924, 17, 0.00, 0.46, 97, 4.900, 3.600, 152.600, 819, 100, 98, 22, 23286, -18594, 5381, 5548, 8, 14, 1525987792.924, 56, 0, 1024, 1024, 1024, 1024, 0, 6, 3877, 3840, 3836, 3845, 3882, 3864, 0, 1, 17801, -90.000, 0.000, 153.200, 0.000, 0.000, -2.800, 0.0, , , , , , 98, , , 33, 33, 33
38.0965915, -120.1425876, 38.100, 14:29:53.024, 17, 0.00, 0.46, 97, 4.900, 3.500, 152.500, 819, 100, 98, 22, 23286, -18594, 5381, 5548, 8, 14, 1525987793.024, 59, 0, 1024, 1024, 1024, 1024, 0, 6, 3906, 3867, 3880, 3883, 3925, 3895, 0, 1, 17901, -90.000, 0.000, 153.200, 0.000, 0.000, -2.800, 0.0, , , , , , 98, , , 33, 33, 33
38.0965916, -120.1425877, 38.400, 14:29:53.123, 17, 0.00, 0.45, 97, 4.900, 3.500, 152.400, 819, 100, 98, 22, 23286, -18594, 5381, 5548, 8, 14, 1525987793.123, 51, 0, 1024, 1024, 1024, 1024, 0, 6, 3906, 3867, 3880, 3883, 3925, 3895, 0, 1, 18000, -90.000, 0.000, 153.200, 0.000, 0.000, -2.800, 0.0, , , , , , 98, , , 33, 33, 33
38.0965916, -120.1425877, 38.600, 14:29:53.224, 17, 0.00, 0.45, 97, 5.000, 3.500, 152.400, 819, 100, 98, 22, 23286, -18594, 5381, 5548, 8, 14, 1525987793.224, 20, 0, 1024, 1024, 1024, 1024, 0, 6, 3906, 3867, 3880, 3883, 3925, 3895, 0, 1, 18101, -89.900, 0.000, 153.200, 0.000, 0.000, -2.700, 0.0, , , , , , 98, , , 33, 33, 33
38.0965917, -120.1425877, 38.900, 14:29:53.324, 17, 0.00, 0.45, 97, 5.000, 3.500, 152.400, 819, 100, 98, 22, 23286, -18594, 5381, 5548, 8, 14, 1525987793.324, 47, 0, 1024, 1024, 1024, 1024, 0, 6, 3906, 3867, 3880, 3883, 3925, 3895, 0, 1, 18201, -90.000, 0.000, 153.200, 0.000, 0.000, -2.700, 0.0, , , , , , 98, , , 33, 33, 33
38.0965917, -120.1425877, 39.200, 14:29:53.424, 17, 0.00, 0.45, 97, 4.800, 3.400, 152.500, 819, 100, 97, 22, 23286, -18594, 5381, 5548, 8, 14, 1525987793.424, 35, 0, 1024, 1024, 1024, 1024, 0, 6, 3906, 3867, 3880, 3883, 3925, 3895, 0, 1, 18301, -90.000, 0.000, 153.200, 0.000, 0.000, -2.700, 0.0, , , , , , 98, , , 33, 33, 33
38.0965917, -120.1425877, 39.500, 14:29:53.524, 17, 0.00, 0.44, 97, 4.700, 3.500, 152.500, 819, 100, 97, 22, 23286, -18594, 5381, 5548, 8, 14, 1525987793.524, 21, 0, 1024, 1024, 1024, 1024, 0, 6, 3906, 3867, 3880, 3883, 3925, 3895, 0, 1, 18401, -90.000, 0.000, 153.200, 0.000, 0.000, -2.700, 0.0, , , , , , 98, , , 33, 33, 33
38.0965917, -120.1425877, 39.800, 14:29:53.624, 17, 0.00, 0.44, 97, 4.600, 3.600, 152.500, 819, 100, 97, 22, 23286, -18594, 5381, 5548, 8, 14, 1525987793.624, 38, 0, 1024, 1024, 1024, 1024, 0, 6, 3906, 3867, 3880, 3883, 3925, 3895, 0, 1, 18501, -89.900, 0.000, 153.200, 0.000, 0.000, -2.800, 0.0, , , , , , 98, , , 33, 33, 33
38.0965918, -120.1425877, 40.100, 14:29:53.724, 17, 0.00, 0.44, 97, 4.500, 3.900, 152.500, 819, 100, 97, 22, 23286, -18594, 5381, 5548, 8, 14, 1525987793.724, 38, 0, 1024, 1024, 1024, 1024, 0, 6, 3906, 3867, 3880, 3883, 3925, 3895, 0, 1, 18601, -89.900, 0.000, 153.200, 0.000, 0.000, -2.800, 0.0, , , , , , 98, , , 33, 33, 33
38.0965918, -120.1425877, 40.400, 14:29:53.824, 17, 0.00, 0.44, 97, 4.500, 4.100, 152.500, 819, 100, 97, 22, 23426, -16826, 5381, 5548, 8, 14, 1525987793.824, 23, 0, 1024, 1024, 1024, 1024, 0, 6, 3928, 3893, 3895, 3903, 3934, 3919, 0, 1, 18701, -89.900, 0.000, 153.200, 0.000, 0.000, -2.800, 0.0, , , , , , 98, , , 33, 33, 33
38.0965918, -120.1425877, 41.000, 14:29:53.935, 17, 0.00, 0.45, 97, 4.800, 4.000, 152.500, 819, 100, 97, 22, 23426, -16826, 5381, 5548, 8, 14, 1525987793.936, 10, 0, 1024, 1024, 1024, 1024, 0, 6, 3928, 3893, 3895, 3903, 3934, 3919, 0, 1, 18813, -90.000, 0.000, 153.200, 0.000, 0.000, -2.800, 0.0, , , , , , 98, , , 33, 33, 33
38.0965918, -120.1425877, 41.000, 14:29:54.023, 17, 0.00, 0.45, 97, 4.800, 4.000, 152.500, 819, 100, 97, 22, 23426, -16826, 5381, 5548, 8, 14, 1525987794.024, 99, 0, 1024, 1024, 1024, 1024, 0, 6, 3928, 3893, 3895, 3903, 3934, 3919, 0, 1, 18901, -89.900, 0.000, 153.200, 0.000, 0.000, -2.800, 0.0, , , , , , 98, , , 33, 33, 33
38.0965918, -120.1425877, 41.000, 14:29:54.124, 17, 0.00, 0.45, 97, 4.800, 4.000, 152.500, 819, 100, 97, 22, 23426, -16826, 5381, 5548, 8, 14, 1525987794.124, 199, 0, 1024, 1024, 1024, 1024, 0, 6, 3928, 3893, 3895, 3903, 3934, 3919, 0, 1, 19001, -89.900, 0.000, 153.200, 0.000, 0.000, -2.800, 0.0, , , , , , 98, , , 33, 33, 33
38.0965919, -120.1425876, 41.900, 14:29:54.227, 17, 0.00, 0.45, 97, 4.800, 4.100, 152.400, 819, 100, 97, 22, 23426, -16826, 5381, 5548, 8, 14, 1525987794.227, 4, 0, 1024, 1024, 1024, 1024, 0, 6, 3928, 3893, 3895, 3903, 3934, 3919, 0, 1, 19104, -89.900, 0.000, 153.200, 0.000, 0.000, -2.800, 0.0, , , , , , 98, , , 33, 33, 33
38.0965919, -120.1425876, 41.900, 14:29:54.325, 17, 0.00, 0.45, 97, 4.800, 4.100, 152.400, 819, 100, 97, 22, 23426, -16826, 5381, 5548, 8, 14, 1525987794.326, 103, 0, 1024, 1024, 1024, 1024, 0, 6, 3928, 3893, 3895, 3903, 3934, 3919, 0, 1, 19203, -89.900, 0.000, 153.200, 0.000, 0.000, -2.800, 0.0, , , , , , 98, , , 33, 33, 33
38.0965919, -120.1425876, 42.200, 14:29:54.424, 17, 0.00, 0.45, 97, 5.100, 4.200, 152.300, 819, 100, 97, 22, 23426, -16826, 5381, 5548, 8, 14, 1525987794.424, 95, 0, 1024, 1024, 1024, 1024, 0, 6, 3928, 3893, 3895, 3903, 3934, 3919, 0, 1, 19301, -89.900, 0.000, 153.200, 0.000, 0.000, -2.900, 0.0, , , , , , 98, , , 33, 33, 33
38.0965919, -120.1425876, 42.500, 14:29:54.523, 17, 0.00, 0.45, 97, 4.900, 4.400, 152.200, 819, 100, 97, 22, 23426, -16826, 5381, 5548, 8, 14, 1525987794.524, 78, 0, 1024, 1024, 1024, 1024, 0, 6, 3928, 3893, 3895, 3903, 3934, 3919, 0, 1, 19401, -89.900, 0.000, 153.200, 0.000, 0.000, -2.800, 0.0, , , , , , 98, , , 33, 33, 33
38.0965919, -120.1425876, 42.700, 14:29:54.624, 17, 0.00, 0.45, 97, 4.600, 4.600, 152.100, 819, 100, 97, 22, 23426, -16826, 5381, 5548, 8, 14, 1525987794.625, 59, 0, 1024, 1024, 1024, 1024, 0, 6, 3928, 3893, 3895, 3903, 3934, 3919, 0, 1, 19502, -89.900, 0.000, 153.200, 0.000, 0.000, -2.800, 0.0, , , , , , 98, , , 33, 33, 33
38.0965918, -120.1425877, 43.000, 14:29:54.724, 17, 0.00, 0.45, 97, 4.200, 4.700, 152.200, 819, 100, 97, 22, 23426, -16826, 5381, 5548, 8, 14, 1525987794.724, 85, 0, 1024, 1024, 1024, 1024, 0, 6, 3928, 3893, 3895, 3903, 3934, 3919, 0, 1, 19601, -89.900, 0.000, 153.200, 0.000, 0.000, -2.800, 0.0, , , , , , 98, , , 33, 33, 33
38.0965918, -120.1425877, 43.000, 14:29:54.824, 17, 0.00, 0.45, 97, 4.200, 4.700, 152.200, 819, 100, 97, 22, 23426, -16826, 5381, 5548, 8, 14, 1525987794.824, 185, 0, 1024, 1024, 1024, 1024, 0, 6, 3928, 3893, 3895, 3903, 3934, 3919, 0, 1, 19702, -89.900, 0.000, 153.200, 0.000, 0.000, -2.800, 0.0, , , , , , 98, , , 33, 33, 33
38.0965918, -120.1425876, 43.600, 14:29:54.924, 17, 0.00, 0.45, 97, 4.700, 4.900, 152.400, 819, 100, 97, 22, 23335, -18116, 5326, 5548, 8, 14, 1525987794.924, 70, 0, 1024, 1024, 1024, 1024, 0, 6, 3896, 3880, 3877, 3891, 3907, 3897, 0, 1, 19801, -89.900, 0.000, 153.200, 0.000, 0.000, -2.800, 0.0, , , , , , 98, , , 33, 33, 33
38.0965918, -120.1425876, 43.900, 14:29:55.024, 17, 0.00, 0.45, 97, 4.700, 4.800, 152.600, 819, 100, 97, 22, 23335, -18116, 5326, 5548, 8, 14, 1525987795.024, 71, 0, 1024, 1024, 1024, 1024, 0, 6, 3896, 3880, 3877, 3891, 3907, 3897, 0, 1, 19901, -89.900, 0.000, 153.200, 0.000, 0.000, -2.800, 0.0, , , , , , 98, , , 33, 33, 33
38.0965917, -120.1425876, 44.200, 14:29:55.124, 17, 0.00, 0.45, 97, 4.900, 4.900, 152.800, 819, 100, 97, 22, 23335, -18116, 5326, 5548, 8, 14, 1525987795.124, 56, 0, 1024, 1024, 1024, 1024, 0, 6, 3896, 3880, 3877, 3891, 3907, 3897, 0, 1, 20001, -89.900, 0.000, 153.200, 0.000, 0.000, -2.800, 0.0, , , , , , 98, , , 33, 33, 33
38.0965917, -120.1425876, 44.500, 14:29:55.224, 17, 0.00, 0.46, 97, 5.100, 5.100, 153.100, 819, 100, 97, 22, 23335, -18116, 5326, 5548, 8, 14, 1525987795.224, 18, 0, 1024, 1024, 1024, 1024, 0, 6, 3896, 3880, 3877, 3891, 3907, 3897, 0, 1, 20101, -89.900, 0.000, 153.200, 0.000, 0.000, -2.900, 0.0, , , , , , 98, , , 33, 33, 33
38.0965917, -120.1425876, 44.800, 14:29:55.324, 17, 0.00, 0.46, 97, 5.300, 5.200, 153.200, 819, 100, 97, 22, 23335, -18116, 5326, 5548, 8, 14, 1525987795.324, 55, 0, 1024, 1024, 1024, 1024, 0, 6, 3896, 3880, 3877, 3891, 3907, 3897, 0, 1, 20201, -89.900, 0.000, 153.200, 0.000, 0.000, -3.000, 0.0, , , , , , 98, , , 33, 33, 33
38.0965917, -120.1425876, 45.100, 14:29:55.424, 17, 0.00, 0.46, 97, 5.600, 5.100, 153.300, 819, 100, 97, 22, 23335, -18116, 5326, 5548, 8, 14, 1525987795.424, 53, 0, 1024, 1024, 1024, 1024, 0, 6, 3896, 3880, 3877, 3891, 3907, 3897, 0, 1, 20301, -89.900, 0.000, 153.200, 0.000, 0.000, -2.900, 0.0, , , , , , 98, , , 33, 33, 33
38.0965917, -120.1425876, 45.400, 14:29:55.524, 17, 0.00, 0.46, 97, 5.500, 5.000, 153.400, 819, 100, 97, 22, 23335, -18116, 5326, 5548, 8, 14, 1525987795.524, 26, 0, 1024, 1024, 1024, 1024, 0, 6, 3896, 3880, 3877, 3891, 3907, 3897, 0, 1, 20401, -89.900, 0.000, 153.200, 0.000, 0.000, -3.000, 0.0, , , , , , 98, , , 33, 33, 33
38.0965917, -120.1425876, 45.700, 14:29:55.624, 17, 0.00, 0.46, 97, 5.400, 4.700, 153.300, 819, 100, 97, 22, 23335, -18116, 5326, 5548, 8, 14, 1525987795.624, 16, 0, 1024, 1024, 1024, 1024, 0, 6, 3896, 3880, 3877, 3891, 3907, 3897, 0, 1, 20502, -90.000, 0.000, 153.200, 0.000, 0.000, -2.900, 0.0, , , , , , 98, , , 33, 33, 33
38.0965917, -120.1425876, 46.000, 14:29:55.724, 17, 0.00, 0.46, 97, 5.500, 4.600, 153.200, 819, 100, 97, 22, 23335, -18116, 5326, 5548, 8, 14, 1525987795.724, 34, 0, 1024, 1024, 1024, 1024, 0, 6, 3896, 3880, 3877, 3891, 3907, 3897, 0, 1, 20601, -90.000, 0.000, 153.200, 0.000, 0.000, -2.900, 0.0, , , , , , 98, , , 33, 33, 33
38.0965917, -120.1425876, 46.300, 14:29:55.824, 17, 0.00, 0.46, 97, 5.700, 4.500, 153.100, 819, 100, 97, 22, 23335, -18116, 5326, 5548, 8, 14, 1525987795.824, 39, 0, 1024, 1024, 1024, 1024, 0, 6, 3896, 3880, 3877, 3891, 3907, 3897, 0, 1, 20702, -89.900, 0.000, 153.200, 0.000, 0.000, -2.800, 0.0, , , , , , 98, , , 33, 33, 33
38.0965917, -120.1425876, 46.600, 14:29:55.924, 17, 0.00, 0.46, 97, 5.700, 4.700, 152.900, 819, 100, 93, 22, 23335, -18116, 5326, 5548, 8, 14, 1525987795.924, 39, 0, 1024, 1024, 1024, 1024, 0, 6, 3896, 3880, 3877, 3891, 3907, 3897, 0, 1, 20801, -89.900, 0.000, 153.200, 0.000, 0.000, -2.800, 0.0, , , , , , 98, , , 33, 33, 33
38.0965917, -120.1425876, 46.900, 14:29:56.023, 17, 0.00, 0.46, 97, 5.600, 4.700, 152.800, 819, 100, 93, 22, 23335, -18116, 5326, 5548, 8, 14, 1525987796.024, 9, 0, 1024, 1024, 1024, 1024, 0, 6, 3896, 3880, 3877, 3891, 3907, 3897, 0, 1, 20901, -89.900, 0.000, 153.200, 0.000, 0.000, -2.800, 0.0, , , , , , 98, , , 33, 33, 33
