Latitude, Longitude, Altitude (m), Time, Sats, Speed (m/s), Range (m), Battery (%), Roll (deg), Pitch (deg), Yaw (deg), Images, HD Signal (%), RC Signal (%), Battery Temp (C), Battery Voltage (mV), Battery Current (mA), Battery Energy (mAh), Battery Capacity (mAh), Battery Discharges, flyState, timestamp (Unix), LastUpdate (ms), radioChannel, Rc_elevator, Rc_aileron, Rc_throttle, Rc_rudder, Rc_gyro, Dronetype, Battery_Cell1 (mV), Battery_Cell2 (mV), Battery_Cell3 (mV), Battery_Cell4 (mV), Battery_Cell5 (mV), Battery_Cell6 (mV), Video, isFlying, elapsedTime (ms), gimbalPitch (deg), gimbalRoll (deg), gimbalYaw (deg), VelocityX (m/s), VelocityY (m/s), VelocityZ (m/s), GroundSmear (cm), App Version, Aircraft Name, Aircraft Firmware, Aircraft Serial Number, Battery Serial Number, Battery Lifetime (%), App_Tip, App_Warning, CurrentFlightStartingIndex, CurrentFlightLastVisitedWaypoint, PreviousFlightEndingWaypointIndex
38.0965994, -120.1425796, 0.000, 14:52:43.721, 14, 0.00, 0.08, 98, 2.400, 2.000, -28.700, 1243, 100, 100, 22, 25443, -3766, 5362, 5472, 12, 11, 1525989163.721, 66, 0, 1024, 1024, 1024, 1024, 0, 6, 4222, 4246, 4232, 4269, 4247, 4245, 0, 1, 3121, -89.900, 0.000, -30.700, 0.000, 0.000, 0.000, 0.0, MapPilot_2.8.1_04242018, Dendroctonus I, 1.3.1.00, 041DDC1887, 1058163200505, 97, DJI_0262.jpg, Starting Mission from Lat/Long: 38.09660/-120.14259 Camera: Zenmuse X3 - Overlap: 90/90 - Active Connection: No, 47, 47, 47
38.0965994, -120.1425794, 0.000, 14:52:43.801, 14, 0.10, 0.08, 98, 2.100, 1.000, -28.400, 1243, 100, 100, 22, 25443, -3766, 5362, 5472, 12, 11, 1525989163.801, 59, 0, 1024, 1024, 1024, 1024, 0, 6, 4222, 4246, 4232, 4269, 4247, 4245, 0, 1, 3201, -90.000, 0.000, -30.600, 0.000, 0.100, -0.200, 0.0, , , , , , 97, , , 47, 47, 47
38.0965995, -120.1425790, 0.000, 14:52:43.901, 14, 0.10, 0.11, 98, 0.100, -0.100, -28.000, 1243, 100, 100, 22, 25354, -6160, 5362, 5472, 12, 11, 1525989163.901, 32, 0, 1024, 1024, 1024, 1024, 0, 6, 4222, 4246, 4232, 4269, 4247, 4245, 0, 1, 3301, -90.000, 0.000, -30.600, 0.000, 0.100, -0.400, 0.0, , , , , , 97, , , 47, 47, 47
38.0965996, -120.1425787, 0.000, 14:52:44.001, 14, 0.20, 0.13, 98, -0.400, 0.000, -27.900, 1243, 100, 100, 22, 25354, -6160, 5362, 5472, 12, 11, 1525989164.001, 51, 0, 1024, 1024, 1024, 1024, 0, 6, 4222, 4246, 4232, 4269, 4247, 4245, 0, 1, 3401, -90.000, 0.000, -30.600, 0.000, 0.200, -0.400, 0.0, , , , , , 97, , , 47, 47, 47
38.0965996, -120.1425783, 0.100, 14:52:44.100, 14, 0.20, 0.16, 98, -0.800, 0.100, -27.900, 1243, 100, 100, 22, 25354, -6160, 5362, 5472, 12, 11, 1525989164.101, 50, 0, 1024, 1024, 1024, 1024, 0, 6, 4222, 4246, 4232, 4269, 4247, 4245, 0, 1, 3501, -89.900, 0.000, -30.500, 0.000, 0.200, -0.200, 0.0, , , , , , 97, , , 47, 47, 47
38.0965997, -120.1425780, 0.100, 14:52:44.201, 14, 0.20, 0.19, 98, -1.400, 0.100, -27.900, 1243, 100, 100, 22, 25354, -6160, 5362, 5472, 12, 11, 1525989164.201, 50, 0, 1024, 1024, 1024, 1024, 0, 6, 4222, 4246, 4232, 4269, 4247, 4245, 0, 1, 3601, -89.900, 0.000, -30.500, 0.000, 0.200, -0.200, 0.0, , , , , , 97, , , 47, 47, 47
38.0965997, -120.1425778, 0.100, 14:52:44.301, 14, 0.20, 0.21, 98, -2.300, -0.500, -28.100, 1243, 100, 100, 22, 25354, -6160, 5362, 5472, 12, 11, 1525989164.301, 52, 0, 1024, 1024, 1024, 1024, 0, 6, 4225, 4223, 4200, 4222, 4209, 4160, 0, 1, 3701, -90.000, 0.000, -30.500, 0.000, 0.200, -0.200, 0.0, , , , , , 97, , , 47, 47, 47
38.0965997, -120.1425775, 0.200, 14:52:44.401, 13, 0.20, 0.23, 98, -2.600, -0.800, -28.300, 1243, 100, 100, 22, 25354, -6160, 5362, 5472, 12, 11, 1525989164.401, 33, 0, 1024, 1024, 1024, 1024, 0, 6, 4225, 4223, 4200, 4222, 4209, 4160, 0, 1, 3801, -90.000, 0.000, -30.500, 0.000, 0.200, -0.300, 0.0, , , , , , 97, , , 47, 47, 47
38.0965998, -120.1425773, 0.200, 14:52:44.500, 13, 0.10, 0.25, 98, -2.600, -0.900, -28.400, 1243, 100, 100, 22, 25354, -6160, 5362, 5472, 12, 11, 1525989164.500, 20, 0, 1024, 1024, 1024, 1024, 0, 6, 4225, 4223, 4200, 4222, 4209, 4160, 0, 1, 3901, -90.000, 0.000, -30.400, 0.000, 0.100, -0.300, 0.0, , , , , , 97, , , 47, 47, 47
38.0965999, -120.1425771, 0.200, 14:52:44.600, 14, 0.10, 0.27, 98, -2.500, -0.800, -28.500, 1243, 100, 100, 22, 25354, -6160, 5362, 5472, 12, 11, 1525989164.601, 21, 0, 1024, 1024, 1024, 1024, 0, 6, 4225, 4223, 4200, 4222, 4209, 4160, 0, 1, 4001, -89.900, 0.000, -30.400, 0.000, 0.100, -0.300, 0.0, , , , , , 97, , , 47, 47, 47
38.0966000, -120.1425770, 0.300, 14:52:44.700, 14, 0.00, 0.29, 98, -2.100, -0.600, -28.500, 1243, 100, 100, 22, 25354, -6160, 5362, 5472, 12, 11, 1525989164.700, 9, 0, 1024, 1024, 1024, 1024, 0, 6, 4225, 4223, 4200, 4222, 4209, 4160, 0, 1, 4100, -89.900, 0.000, -30.400, 0.000, 0.000, -0.300, 0.0, , , , , , 97, , , 47, 47, 47
38.0966001, -120.1425769, 0.300, 14:52:44.800, 14, 0.00, 0.30, 98, -1.900, -0.300, -28.500, 1243, 100, 100, 22, 25354, -6160, 5362, 5472, 12, 11, 1525989164.801, 21, 0, 1024, 1024, 1024, 1024, 0, 6, 4225, 4223, 4200, 4222, 4209, 4160, 0, 1, 4201, -89.900, 0.000, -30.400, 0.000, 0.000, -0.500, 0.0, , , , , , 97, , , 47, 47, 47
38.0966001, -120.1425769, 0.300, 14:52:44.900, 14, 0.00, 0.30, 98, -1.900, -0.300, -28.500, 1243, 100, 100, 22, 25354, -6160, 5362, 5472, 12, 11, 1525989164.901, 122, 0, 1024, 1024, 1024, 1024, 0, 6, 4225, 4223, 4200, 4222, 4209, 4160, 0, 1, 4301, -89.900, 0.000, -30.400, 0.000, 0.000, -0.500, 0.0, , , , , , 97, , , 47, 47, 47
38.0966002, -120.1425768, 0.400, 14:52:45.000, 14, 0.00, 0.31, 98, -1.600, 0.000, -28.600, 1243, 100, 100, 22, 25354, -6160, 5362, 5472, 12, 11, 1525989165.001, 82, 0, 1024, 1024, 1024, 1024, 0, 6, 4225, 4223, 4200, 4222, 4209, 4160, 0, 1, 4401, -89.900, 0.000, -30.400, 0.000, 0.000, -0.500, 0.0, , , , , , 97, , , 47, 47, 47
38.0966002, -120.1425767, 0.400, 14:52:45.100, 14, 0.00, 0.32, 98, -1.200, 0.100, -28.700, 1243, 100, 100, 22, 25354, -6160, 5362, 5472, 12, 11, 1525989165.101, 96, 0, 1024, 1024, 1024, 1024, 0, 6, 4225, 4223, 4200, 4222, 4209, 4160, 0, 1, 4501, -89.900, 0.000, -30.400, 0.000, 0.000, -0.500, 0.0, , , , , , 97, , , 47, 47, 47
38.0966004, -120.1425767, 0.500, 14:52:45.200, 14, 0.00, 0.33, 98, -1.200, 0.000, -28.800, 1243, 100, 100, 22, 25354, -6160, 5362, 5472, 12, 11, 1525989165.201, 87, 0, 1024, 1024, 1024, 1024, 0, 6, 4225, 4223, 4200, 4222, 4209, 4160, 0, 1, 4601, -89.900, 0.000, -30.300, 0.000, 0.000, -0.500, 0.0, , , , , , 97, , , 47, 47, 47
38.0966005, -120.1425766, 0.500, 14:52:45.301, 14, 0.00, 0.34, 98, -1.300, 0.000, -28.900, 1243, 100, 100, 22, 25354, -6160, 5362, 5472, 12, 11, 1525989165.301, 98, 0, 1024, 1024, 1024, 1024, 0, 6, 4225, 4223, 4200, 4222, 4209, 4160, 0, 1, 4701, -89.900, 0.000, -30.300, 0.000, 0.000, -0.500, 0.0, , , , , , 97, , , 47, 47, 47
38.0966005, -120.1425766, 0.600, 14:52:45.401, 14, 0.00, 0.34, 98, -1.200, 0.100, -29.000, 1243, 100, 100, 22, 24261, -15716, 5362, 5472, 12, 11, 1525989165.401, 89, 0, 1024, 1024, 1024, 1024, 0, 6, 4026, 4041, 4025, 4076, 4064, 3996, 0, 1, 4801, -89.900, 0.000, -30.300, 0.000, 0.000, -0.500, 0.0, , , , , , 97, , , 47, 47, 47
38.0966006, -120.1425765, 0.700, 14:52:45.500, 15, 0.00, 0.35, 98, -1.200, 0.300, -29.000, 1243, 100, 100, 22, 24261, -15716, 5362, 5472, 12, 11, 1525989165.501, 89, 0, 1024, 1024, 1024, 1024, 0, 6, 4026, 4041, 4025, 4076, 4064, 3996, 0, 1, 4901, -89.900, 0.000, -30.300, 0.000, 0.000, -0.500, 0.0, , , , , , 97, , , 47, 47, 47
38.0966007, -120.1425764, 0.700, 14:52:45.600, 15, 0.00, 0.37, 98, -1.400, 0.500, -29.100, 1243, 100, 100, 22, 24261, -15716, 5362, 5472, 12, 11, 1525989165.601, 90, 0, 1024, 1024, 1024, 1024, 0, 6, 4026, 4041, 4025, 4076, 4064, 3996, 0, 1, 5001, -89.900, 0.000, -30.300, 0.000, 0.000, -0.500, 0.0, , , , , , 97, , , 47, 47, 47
38.0966007, -120.1425763, 0.800, 14:52:45.701, 15, 0.00, 0.38, 98, -1.500, 0.600, -29.100, 1243, 100, 100, 22, 24261, -15716, 5362, 5472, 12, 11, 1525989165.701, 54, 0, 1024, 1024, 1024, 1024, 0, 6, 4026, 4041, 4025, 4076, 4064, 3996, 0, 1, 5101, -89.900, 0.000, -30.300, 0.000, 0.000, -0.500, 0.0, , , , , , 97, , , 47, 47, 47
38.0966008, -120.1425763, 0.800, 14:52:45.801, 15, 0.00, 0.38, 98, -1.600, 0.800, -29.200, 1243, 100, 100, 22, 24261, -15716, 5362, 5472, 12, 11, 1525989165.801, 56, 0, 1024, 1024, 1024, 1024, 0, 6, 4026, 4041, 4025, 4076, 4064, 3996, 0, 1, 5201, -89.900, 0.000, -30.200, 0.000, 0.000, -0.400, 0.0, , , , , , 97, , , 47, 47, 47
38.0966008, -120.1425763, 0.900, 14:52:45.901, 14, 0.00, 0.39, 98, -1.800, 0.700, -29.400, 1243, 100, 100, 22, 24261, -15716, 5362, 5472, 12, 6, 1525989165.901, 70, 0, 1024, 1024, 1024, 1024, 0, 6, 4026, 4041, 4025, 4076, 4064, 3996, 0, 1, 5301, -89.900, 0.000, -30.200, 0.000, 0.000, -0.400, 0.0, , , , , , 97, , , 47, 47, 47
38.0966009, -120.1425763, 0.900, 14:52:46.001, 14, 0.00, 0.38, 98, -1.700, 0.200, -29.600, 1243, 100, 100, 22, 24261, -15716, 5362, 5472, 12, 14, 1525989166.001, 59, 0, 1024, 1024, 1024, 1024, 0, 6, 4026, 4041, 4025, 4076, 4064, 3996, 0, 1, 5401, -90.000, 0.000, -30.200, 0.000, 0.000, -0.400, 0.0, , , , , , 97, , , 47, 47, 47
38.0966008, -120.1425764, 1.000, 14:52:46.100, 15, 0.00, 0.38, 98, -0.500, 0.000, -30.400, 1243, 100, 100, 22, 24261, -15716, 5362, 5472, 12, 14, 1525989166.100, 41, 0, 1024, 1024, 1024, 1024, 0, 6, 4026, 4041, 4025, 4076, 4064, 3996, 0, 1, 5501, -89.900, 0.000, -30.200, 0.000, 0.000, -0.200, 0.0, , , , , , 97, , , 47, 47, 47
38.0966008, -120.1425764, 1.000, 14:52:46.201, 15, 0.00, 0.38, 98, -0.100, 0.200, -30.800, 1243, 100, 100, 22, 24261, -15716, 5362, 5472, 12, 14, 1525989166.201, 49, 0, 1024, 1024, 1024, 1024, 0, 6, 4026, 4041, 4025, 4076, 4064, 3996, 0, 1, 5601, -89.900, 0.000, -30.200, 0.000, 0.000, -0.300, 0.0, , , , , , 97, , , 47, 47, 47
38.0966009, -120.1425764, 1.100, 14:52:46.300, 15, 0.00, 0.38, 98, -0.400, 0.500, -31.100, 1243, 100, 100, 22, 24261, -15716, 5362, 5472, 12, 14, 1525989166.301, 21, 0, 1024, 1024, 1024, 1024, 0, 6, 4026, 4041, 4025, 4076, 4064, 3996, 0, 1, 5701, -89.900, 0.000, -30.200, 0.000, 0.000, -0.400, 0.0, , , , , , 97, , , 47, 47, 47
38.0966009, -120.1425765, 1.100, 14:52:46.401, 15, 0.00, 0.38, 98, -0.600, 0.700, -31.200, 1243, 100, 100, 22, 23946, -17534, 5362, 5472, 12, 14, 1525989166.401, 33, 0, 1024, 1024, 1024, 1024, 0, 6, 3978, 3982, 3974, 4010, 4024, 3985, 0, 1, 5801, -89.900, 0.000, -30.200, 0.000, 0.000, -0.500, 0.0, , , , , , 97, , , 47, 47, 47
38.0966009, -120.1425765, 1.200, 14:52:46.500, 15, 0.00, 0.38, 98, -0.500, 0.500, -31.300, 1243, 100, 100, 22, 23946, -17534, 5362, 5472, 12, 14, 1525989166.500, 37, 0, 1024, 1024, 1024, 1024, 0, 6, 3978, 3982, 3974, 4010, 4024, 3985, 0, 1, 5900, -89.900, 0.000, -30.200, 0.000, 0.000, -0.600, 0.0, , , , , , 97, , , 47, 47, 47
38.0966009, -120.1425765, 1.300, 14:52:46.600, 15, 0.00, 0.38, 98, -0.200, 0.300, -31.300, 1243, 100, 100, 22, 23946, -17534, 5362, 5472, 12, 14, 1525989166.601, 15, 0, 1024, 1024, 1024, 1024, 0, 6, 3978, 3982, 3974, 4010, 4024, 3985, 0, 1, 6001, -89.900, 0.000, -30.200, 0.000, 0.000, -0.800, 0.0, , , , , , 97, , , 47, 47, 47
38.0966009, -120.1425765, 1.400, 14:52:46.701, 15, 0.00, 0.38, 98, -0.100, 0.200, -31.100, 1243, 100, 100, 22, 23946, -17534, 5362, 5472, 12, 14, 1525989166.701, 5, 0, 1024, 1024, 1024, 1024, 0, 6, 3978, 3982, 3974, 4010, 4024, 3985, 0, 1, 6101, -89.900, 0.000, -30.200, 0.000, 0.000, -1.000, 0.0, , , , , , 97, , , 47, 47, 47
38.0966010, -120.1425764, 1.500, 14:52:46.801, 14, 0.00, 0.39, 98, -0.300, 0.100, -31.100, 1243, 100, 100, 22, 23946, -17534, 5362, 5472, 12, 14, 1525989166.802, 20, 0, 1024, 1024, 1024, 1024, 0, 6, 3978, 3982, 3974, 4010, 4024, 3985, 0, 1, 6202, -90.000, 0.000, -30.200, 0.000, 0.000, -1.200, 0.0, , , , , , 97, , , 47, 47, 47
38.0966010, -120.1425763, 1.600, 14:52:46.900, 14, 0.00, 0.39, 98, -0.900, 0.000, -31.000, 1243, 100, 100, 22, 23946, -17534, 5362, 5472, 12, 14, 1525989166.900, 6, 0, 1024, 1024, 1024, 1024, 0, 6, 3978, 3982, 3974, 4010, 4024, 3985, 0, 1, 6300, -90.000, 0.000, -30.200, 0.000, 0.000, -1.400, 0.0, , , , , , 97, , , 47, 47, 47
38.0966010, -120.1425762, 1.800, 14:52:47.001, 15, 0.00, 0.41, 98, -1.300, -0.200, -31.000, 1243, 100, 100, 22, 23946, -17534, 5362, 5472, 12, 14, 1525989167.001, 11, 0, 1024, 1024, 1024, 1024, 0, 6, 3978, 3982, 3974, 4010, 4024, 3985, 0, 1, 6401, -90.000, 0.000, -30.200, 0.000, 0.000, -1.700, 0.0, , , , , , 97, , , 47, 47, 47
38.0966010, -120.1425760, 2.000, 14:52:47.123, 15, 0.00, 0.42, 98, -1.300, -0.300, -31.000, 1243, 100, 100, 22, 23946, -17534, 5362, 5472, 12, 14, 1525989167.124, 23, 0, 1024, 1024, 1024, 1024, 0, 6, 3978, 3982, 3974, 4010, 4024, 3985, 0, 1, 6524, -90.000, 0.000, -30.200, 0.000, 0.000, -1.900, 0.0, , , , , , 97, , , 47, 47, 47
38.0966011, -120.1425758, 2.200, 14:52:47.201, 15, 0.10, 0.44, 98, -1.600, -0.500, -31.100, 1243, 100, 100, 22, 23946, -17534, 5362, 5472, 12, 14, 1525989167.201, 5, 0, 1024, 1024, 1024, 1024, 0, 6, 3978, 3982, 3974, 4010, 4024, 3985, 0, 1, 6602, -90.000, 0.000, -30.200, 0.000, 0.100, -2.100, 0.0, , , , , , 97, , , 47, 47, 47
38.0966011, -120.1425758, 2.200, 14:52:47.301, 15, 0.10, 0.44, 98, -1.600, -0.500, -31.100, 1243, 100, 100, 22, 23946, -17534, 5362, 5472, 12, 14, 1525989167.301, 104, 0, 1024, 1024, 1024, 1024, 0, 6, 3978, 3982, 3974, 4010, 4024, 3985, 0, 1, 6701, -90.000, 0.000, -30.200, 0.000, 0.100, -2.100, 0.0, , , , , , 97, , , 47, 47, 47
38.0966013, -120.1425757, 2.500, 14:52:47.401, 15, 0.00, 0.46, 98, -2.000, -0.500, -31.400, 1243, 100, 100, 22, 24128, -16081, 5362, 5472, 12, 14, 1525989167.401, 95, 0, 1024, 1024, 1024, 1024, 0, 6, 3979, 3961, 3984, 3999, 4002, 3988, 0, 1, 6801, -90.000, 0.000, -30.200, 0.000, 0.000, -2.300, 0.0, , , , , , 97, , , 47, 47, 47
38.0966014, -120.1425755, 2.700, 14:52:47.500, 15, 0.00, 0.48, 98, -2.500, -0.200, -31.600, 1243, 100, 100, 22, 24128, -16081, 5362, 5472, 12, 14, 1525989167.501, 80, 0, 1024, 1024, 1024, 1024, 0, 6, 3979, 3961, 3984, 3999, 4002, 3988, 0, 1, 6901, -89.900, 0.000, -30.200, 0.000, 0.000, -2.500, 0.0, , , , , , 97, , , 47, 47, 47
38.0966015, -120.1425753, 3.000, 14:52:47.600, 15, 0.00, 0.51, 98, -2.800, 0.000, -31.600, 1243, 100, 100, 22, 24128, -16081, 5362, 5472, 12, 14, 1525989167.601, 84, 0, 1024, 1024, 1024, 1024, 0, 6, 3979, 3961, 3984, 3999, 4002, 3988, 0, 1, 7001, -89.900, 0.000, -30.200, 0.000, 0.000, -2.800, 0.0, , , , , , 97, , , 47, 47, 47
38.0966017, -120.1425750, 3.300, 14:52:47.701, 15, 0.00, 0.53, 98, -3.200, 0.100, -31.600, 1243, 100, 100, 22, 24128, -16081, 5362, 5472, 12, 14, 1525989167.701, 86, 0, 1024, 1024, 1024, 1024, 0, 6, 3979, 3961, 3984, 3999, 4002, 3988, 0, 1, 7101, -89.900, 0.000, -30.200, 0.000, 0.000, -2.900, 0.0, , , , , , 97, , , 47, 47, 47
38.0966018, -120.1425749, 3.600, 14:52:47.802, 15, 0.00, 0.55, 98, -3.400, 0.000, -31.600, 1243, 100, 100, 22, 24128, -16081, 5362, 5472, 12, 14, 1525989167.803, 77, 0, 1024, 1024, 1024, 1024, 0, 6, 3979, 3961, 3984, 3999, 4002, 3988, 0, 1, 7203, -89.900, 0.000, -30.200, 0.000, 0.000, -3.000, 0.0, , , , , , 97, , , 47, 47, 47
38.0966019, -120.1425747, 3.900, 14:52:47.900, 15, 0.00, 0.57, 98, -3.700, 0.000, -31.500, 1243, 100, 100, 22, 24128, -16081, 5362, 5472, 12, 14, 1525989167.900, 73, 0, 1024, 1024, 1024, 1024, 0, 6, 3979, 3961, 3984, 3999, 4002, 3988, 0, 1, 7300, -89.900, 0.000, -30.200, 0.000, 0.000, -3.000, 0.0, , , , , , 97, , , 47, 47, 47
38.0966020, -120.1425746, 4.200, 14:52:48.001, 15, 0.00, 0.58, 98, -3.900, 0.000, -31.400, 1243, 100, 100, 22, 24128, -16081, 5362, 5472, 12, 14, 1525989168.002, 75, 0, 1024, 1024, 1024, 1024, 0, 6, 3979, 3961, 3984, 3999, 4002, 3988, 0, 1, 7402, -89.900, 0.000, -30.200, 0.000, 0.000, -3.100, 0.0, , , , , , 97, , , 47, 47, 47
38.0966020, -120.1425745, 4.500, 14:52:48.100, 15, 0.00, 0.60, 98, -3.700, -0.200, -31.300, 1243, 100, 100, 22, 24128, -16081, 5362, 5472, 12, 14, 1525989168.100, 63, 0, 1024, 1024, 1024, 1024, 0, 6, 3979, 3961, 3984, 3999, 4002, 3988, 0, 1, 7500, -89.900, 0.000, -30.200, 0.000, 0.000, -3.200, 0.0, , , , , , 97, , , 47, 47, 47
38.0966021, -120.1425744, 4.900, 14:52:48.200, 15, 0.00, 0.60, 98, -3.400, -0.200, -31.300, 1243, 100, 100, 22, 24128, -16081, 5362, 5472, 12, 14, 1525989168.201, 73, 0, 1024, 1024, 1024, 1024, 0, 6, 3979, 3961, 3984, 3999, 4002, 3988, 0, 1, 7601, -89.900, 0.000, -30.200, 0.000, 0.000, -3.200, 0.0, , , , , , 97, , , 47, 47, 47
38.0966021, -120.1425744, 5.200, 14:52:48.301, 15, 0.00, 0.61, 98, -3.200, -0.100, -31.200, 1243, 100, 100, 22, 24128, -16081, 5362, 5472, 12, 14, 1525989168.301, 51, 0, 1024, 1024, 1024, 1024, 0, 6, 3979, 3961, 3984, 3999, 4002, 3988, 0, 1, 7701, -89.900, 0.000, -30.200, 0.000, 0.000, -3.200, 0.0, , , , , , 97, , , 47, 47, 47
38.0966022, -120.1425744, 5.500, 14:52:48.401, 15, 0.00, 0.61, 98, -2.800, 0.200, -31.200, 1243, 100, 100, 22, 23374, -22632, 5362, 5472, 12, 14, 1525989168.401, 68, 0, 1024, 1024, 1024, 1024, 0, 6, 3862, 3858, 3866, 3918, 3905, 3874, 0, 1, 7801, -89.900, 0.000, -30.200, 0.000, 0.000, -3.200, 0.0, , , , , , 97, , , 47, 47, 47
38.0966022, -120.1425745, 6.200, 14:52:48.500, 15, 0.00, 0.60, 98, -2.400, 0.300, -31.100, 1243, 100, 100, 22, 23374, -22632, 5362, 5472, 12, 14, 1525989168.500, 27, 0, 1024, 1024, 1024, 1024, 0, 6, 3862, 3858, 3866, 3918, 3905, 3874, 0, 1, 7901, -89.900, 0.000, -30.200, 0.000, 0.000, -3.200, 0.0, , , , , , 97, , , 47, 47, 47
38.0966022, -120.1425746, 6.600, 14:52:48.600, 15, 0.00, 0.60, 98, -2.500, 0.500, -31.200, 1243, 100, 100, 22, 23374, -22632, 5362, 5472, 12, 14, 1525989168.601, 49, 0, 1024, 1024, 1024, 1024, 0, 6, 3862, 3858, 3866, 3918, 3905, 3874, 0, 1, 8001, -89.900, 0.000, -30.200, 0.000, 0.000, -3.200, 0.0, , , , , , 97, , , 47, 47, 47
38.0966022, -120.1425746, 6.600, 14:52:48.701, 15, 0.00, 0.60, 98, -2.500, 0.500, -31.200, 1243, 100, 100, 22, 23374, -22632, 5362, 5472, 12, 14, 1525989168.701, 149, 0, 1024, 1024, 1024, 1024, 0, 6, 3862, 3858, 3866, 3918, 3905, 3874, 0, 1, 8101, -89.900, 0.000, -30.200, 0.000, 0.000, -3.200, 0.0, , , , , , 97, , , 47, 47, 47
38.0966021, -120.1425748, 7.200, 14:52:48.800, 14, 0.00, 0.57, 98, -2.100, 0.600, -31.200, 1243, 100, 100, 22, 23374, -22632, 5362, 5472, 12, 14, 1525989168.801, 33, 0, 1024, 1024, 1024, 1024, 0, 6, 3862, 3858, 3866, 3918, 3905, 3874, 0, 1, 8201, -89.900, 0.000, -30.200, 0.000, 0.000, -3.100, 0.0, , , , , , 97, , , 47, 47, 47
38.0966020, -120.1425750, 7.500, 14:52:48.900, 14, 0.00, 0.56, 98, -1.700, 0.600, -31.100, 1243, 100, 100, 22, 23374, -22632, 5362, 5472, 12, 14, 1525989168.900, 37, 0, 1024, 1024, 1024, 1024, 0, 6, 3862, 3858, 3866, 3918, 3905, 3874, 0, 1, 8301, -89.900, 0.000, -30.200, 0.000, 0.000, -3.100, 0.0, , , , , , 97, , , 47, 47, 47
38.0966020, -120.1425752, 7.900, 14:52:49.000, 15, 0.00, 0.54, 98, -1.200, 0.600, -31.000, 1243, 100, 100, 22, 23374, -22632, 5362, 5472, 12, 14, 1525989169.001, 25, 0, 1024, 1024, 1024, 1024, 0, 6, 3862, 3858, 3866, 3918, 3905, 3874, 0, 1, 8401, -89.900, 0.000, -30.200, 0.000, 0.000, -3.100, 0.0, , , , , , 97, , , 47, 47, 47
38.0966019, -120.1425754, 8.200, 14:52:49.101, 15, 0.00, 0.52, 98, -0.800, 0.300, -30.900, 1243, 100, 100, 22, 23374, -22632, 5362, 5472, 12, 14, 1525989169.102, 31, 0, 1024, 1024, 1024, 1024, 0, 6, 3862, 3858, 3866, 3918, 3905, 3874, 0, 1, 8502, -89.900, 0.000, -30.200, 0.000, 0.000, -3.000, 0.0, , , , , , 97, , , 47, 47, 47
38.0966017, -120.1425756, 8.500, 14:52:49.201, 15, 0.00, 0.50, 98, -0.800, 0.200, -30.900, 1243, 100, 100, 22, 23374, -22632, 5362, 5472, 12, 14, 1525989169.201, 21, 0, 1024, 1024, 1024, 1024, 0, 6, 3862, 3858, 3866, 3918, 3905, 3874, 0, 1, 8601, -89.900, 0.000, -30.200, 0.000, 0.000, -3.100, 0.0, , , , , , 97, , , 47, 47, 47
38.0966016, -120.1425758, 8.800, 14:52:49.300, 15, 0.00, 0.47, 98, -0.500, 0.200, -31.000, 1243, 100, 100, 22, 23405, -21342, 5362, 5472, 12, 14, 1525989169.301, 21, 0, 1024, 1024, 1024, 1024, 0, 6, 3862, 3858, 3866, 3918, 3905, 3874, 0, 1, 8701, -89.900, 0.000, -30.200, 0.000, 0.000, -3.100, 0.0, , , , , , 97, , , 47, 47, 47
38.0966015, -120.1425761, 9.100, 14:52:49.410, 15, 0.00, 0.45, 98, -0.500, 0.100, -31.100, 1243, 100, 100, 22, 23405, -21342, 5362, 5472, 12, 14, 1525989169.410, 8, 0, 1024, 1024, 1024, 1024, 0, 6, 3862, 3858, 3866, 3918, 3905, 3874, 0, 1, 8811, -89.900, 0.000, -30.200, 0.000, 0.000, -3.100, 0.0, , , , , , 97, , , 47, 47, 47
38.0966015, -120.1425761, 9.100, 14:52:49.500, 15, 0.00, 0.45, 98, -0.500, 0.100, -31.100, 1243, 100, 98, 22, 23405, -21342, 5362, 5472, 12, 14, 1525989169.500, 98, 0, 1024, 1024, 1024, 1024, 0, 6, 3862, 3858, 3866, 3918, 3905, 3874, 0, 1, 8901, -89.900, 0.000, -30.200, 0.000, 0.000, -3.100, 0.0, , , , , , 97, , , 47, 47, 47
38.0966014, -120.1425763, 9.500, 14:52:49.600, 15, 0.00, 0.43, 98, -0.500, 0.000, -31.100, 1243, 100, 98, 22, 23405, -21342, 5362, 5472, 12, 14, 1525989169.601, 95, 0, 1024, 1024, 1024, 1024, 0, 6, 3862, 3858, 3866, 3918, 3905, 3874, 0, 1, 9001, -89.900, 0.000, -30.200, 0.000, 0.000, -3.100, 0.0, , , , , , 97, , , 47, 47, 47
38.0966013, -120.1425765, 9.800, 14:52:49.700, 15, 0.00, 0.41, 98, -0.300, 0.000, -31.200, 1243, 100, 98, 22, 23405, -21342, 5362, 5472, 12, 14, 1525989169.700, 84, 0, 1024, 1024, 1024, 1024, 0, 6, 3862, 3858, 3866, 3918, 3905, 3874, 0, 1, 9101, -89.900, 0.000, -30.200, 0.000, 0.000, -3.100, 0.0, , , , , , 97, , , 47, 47, 47
38.0966012, -120.1425766, 10.100, 14:52:49.801, 15, 0.00, 0.39, 98, -0.200, 0.100, -31.200, 1243, 100, 98, 22, 23405, -21342, 5362, 5472, 12, 14, 1525989169.801, 95, 0, 1024, 1024, 1024, 1024, 0, 6, 3862, 3858, 3866, 3918, 3905, 3874, 0, 1, 9201, -89.900, 0.000, -30.200, 0.000, 0.000, -3.100, 0.0, , , , , , 97, , , 47, 47, 47
38.0966011, -120.1425768, 10.400, 14:52:49.900, 14, 0.00, 0.37, 98, -0.200, 0.200, -31.200, 1243, 100, 98, 22, 23405, -21342, 5362, 5472, 12, 14, 1525989169.901, 86, 0, 1024, 1024, 1024, 1024, 0, 6, 3884, 3898, 3887, 3941, 3944, 3894, 0, 1, 9301, -89.900, 0.000, -30.200, 0.000, 0.000, -3.100, 0.0, , , , , , 97, , , 47, 47, 47
38.0966010, -120.1425769, 10.700, 14:52:50.001, 14, 0.00, 0.36, 98, -0.400, 0.100, -31.100, 1243, 100, 97, 22, 23405, -21342, 5362, 5472, 12, 14, 1525989170.001, 73, 0, 1024, 1024, 1024, 1024, 0, 6, 3884, 3898, 3887, 3941, 3944, 3894, 0, 1, 9401, -89.900, 0.000, -30.200, 0.000, 0.000, -3.000, 0.0, , , , , , 97, , , 47, 47, 47
38.0966010, -120.1425770, 11.000, 14:52:50.100, 15, 0.00, 0.35, 98, -0.500, 0.000, -31.100, 1243, 100, 97, 22, 23405, -21342, 5362, 5472, 12, 14, 1525989170.100, 74, 0, 1024, 1024, 1024, 1024, 0, 6, 3884, 3898, 3887, 3941, 3944, 3894, 0, 1, 9500, -89.900, 0.000, -30.200, 0.000, 0.000, -3.000, 0.0, , , , , , 97, , , 47, 47, 47
38.0966009, -120.1425771, 11.400, 14:52:50.200, 15, 0.00, 0.34, 98, -0.700, 0.000, -31.100, 1243, 100, 97, 22, 23405, -21342, 5362, 5472, 12, 14, 1525989170.200, 69, 0, 1024, 1024, 1024, 1024, 0, 6, 3884, 3898, 3887, 3941, 3944, 3894, 0, 1, 9601, -89.900, 0.000, -30.200, 0.000, 0.000, -3.000, 0.0, , , , , , 97, , , 47, 47, 47
38.0966009, -120.1425772, 11.700, 14:52:50.301, 15, 0.00, 0.33, 98, -0.800, 0.000, -31.100, 1243, 100, 97, 22, 23405, -21342, 5362, 5472, 12, 14, 1525989170.301, 70, 0, 1024, 1024, 1024, 1024, 0, 6, 3884, 3898, 3887, 3941, 3944, 3894, 0, 1, 9701, -89.900, 0.000, -30.200, 0.000, 0.000, -3.000, 0.0, , , , , , 97, , , 47, 47, 47
38.0966009, -120.1425773, 12.000, 14:52:50.400, 15, 0.00, 0.32, 98, -0.800, 0.000, -31.200, 1243, 100, 97, 22, 23405, -21342, 5362, 5472, 12, 14, 1525989170.401, 59, 0, 1024, 1024, 1024, 1024, 0, 6, 3884, 3898, 3887, 3941, 3944, 3894, 0, 1, 9801, -89.900, 0.000, -30.200, 0.000, 0.000, -3.000, 0.0, , , , , , 97, , , 47, 47, 47
38.0966008, -120.1425774, 12.300, 14:52:50.501, 15, 0.00, 0.31, 98, -0.700, 0.000, -31.200, 1243, 100, 98, 22, 23405, -21342, 5362, 5472, 12, 14, 1525989170.501, 62, 0, 1024, 1024, 1024, 1024, 0, 6, 3884, 3898, 3887, 3941, 3944, 3894, 0, 1, 9901, -89.900, 0.000, -30.200, 0.000, 0.000, -3.000, 0.0, , , , , , 97, , , 47, 47, 47
38.0966007, -120.1425775, 12.600, 14:52:50.600, 15, 0.00, 0.30, 98, -0.500, 0.000, -31.200, 1243, 100, 98, 22, 23405, -21342, 5362, 5472, 12, 14, 1525989170.601, 53, 0, 1024, 1024, 1024, 1024, 0, 6, 3884, 3898, 3887, 3941, 3944, 3894, 0, 1, 10001, -89.900, 0.000, -30.200, 0.000, 0.000, -3.000, 0.0, , , , , , 97, , , 47, 47, 47
38.0966007, -120.1425776, 12.900, 14:52:50.701, 15, 0.00, 0.29, 98, -0.400, 0.000, -31.200, 1243, 100, 98, 22, 23405, -21342, 5362, 5472, 12, 14, 1525989170.701, 29, 0, 1024, 1024, 1024, 1024, 0, 6, 3884, 3898, 3887, 3941, 3944, 3894, 0, 1, 10101, -89.900, 0.000, -30.200, 0.000, 0.000, -3.000, 0.0, , , , , , 97, , , 47, 47, 47
38.0966006, -120.1425776, 13.200, 14:52:50.801, 15, 0.00, 0.28, 98, -0.300, 0.000, -31.200, 1243, 100, 98, 22, 23405, -21342, 5362, 5472, 12, 14, 1525989170.801, 33, 0, 1024, 1024, 1024, 1024, 0, 6, 3884, 3898, 3887, 3941, 3944, 3894, 0, 1, 10201, -89.900, 0.000, -30.200, 0.000, 0.000, -3.000, 0.0, , , , , , 97, , , 47, 47, 47
38.0966005, -120.1425777, 13.900, 14:52:50.900, 15, 0.00, 0.27, 98, -0.500, -0.200, -31.100, 1243, 100, 99, 22, 23460, -19726, 5362, 5472, 12, 14, 1525989170.900, 45, 0, 1024, 1024, 1024, 1024, 0, 6, 3896, 3906, 3892, 3954, 3952, 3901, 0, 1, 10301, -90.000, 0.000, -30.200, 0.000, 0.000, -3.000, 0.0, , , , , , 97, , , 47, 47, 47
38.0966005, -120.1425777, 14.200, 14:52:51.000, 15, 0.00, 0.27, 98, -0.700, -0.200, -31.000, 1243, 100, 99, 22, 23460, -19726, 5362, 5472, 12, 14, 1525989171.001, 37, 0, 1024, 1024, 1024, 1024, 0, 6, 3896, 3906, 3892, 3954, 3952, 3901, 0, 1, 10401, -90.000, 0.000, -30.200, 0.000, 0.000, -3.000, 0.0, , , , , , 97, , , 47, 47, 47
38.0966005, -120.1425776, 14.500, 14:52:51.100, 15, 0.00, 0.27, 98, -0.900, -0.200, -31.000, 1243, 100, 99, 22, 23460, -19726, 5362, 5472, 12, 14, 1525989171.101, 22, 0, 1024, 1024, 1024, 1024, 0, 6, 3896, 3906, 3892, 3954, 3952, 3901, 0, 1, 10501, -90.000, 0.000, -30.200, 0.000, 0.000, -3.000, 0.0, , , , , , 97, , , 47, 47, 47
38.0966004, -120.1425775, 14.800, 14:52:51.201, 15, 0.00, 0.28, 98, -1.100, -0.300, -31.200, 1243, 100, 99, 22, 23460, -19726, 5362, 5472, 12, 14, 1525989171.201, 37, 0, 1024, 1024, 1024, 1024, 0, 6, 3896, 3906, 3892, 3954, 3952, 3901, 0, 1, 10601, -90.000, 0.000, -30.200, 0.000, 0.000, -3.000, 0.0, , , , , , 97, , , 47, 47, 47
38.0966004, -120.1425775, 15.100, 14:52:51.300, 15, 0.10, 0.28, 98, -1.100, -0.500, -31.300, 1243, 100, 99, 22, 23460, -19726, 5362, 5472, 12, 14, 1525989171.300, 41, 0, 1024, 1024, 1024, 1024, 0, 6, 3896, 3906, 3892, 3954, 3952, 3901, 0, 1, 10700, -90.000, 0.000, -30.200, 0.000, 0.100, -2.900, 0.0, , , , , , 97, , , 47, 47, 47
38.0966004, -120.1425774, 15.400, 14:52:51.413, 15, 0.10, 0.28, 98, -1.300, -0.600, -31.400, 1243, 100, 99, 22, 23460, -19726, 5362, 5472, 12, 14, 1525989171.413, 6, 0, 1024, 1024, 1024, 1024, 0, 6, 3896, 3906, 3892, 3954, 3952, 3901, 0, 1, 10814, -90.000, 0.000, -30.200, 0.000, 0.100, -2.900, 0.0, , , , , , 97, , , 47, 47, 47
38.0966004, -120.1425774, 15.700, 14:52:51.501, 15, 0.00, 0.28, 98, -1.200, -0.700, -31.400, 1243, 100, 99, 22, 23460, -19726, 5362, 5472, 12, 14, 1525989171.501, 4, 0, 1024, 1024, 1024, 1024, 0, 6, 3896, 3906, 3892, 3954, 3952, 3901, 0, 1, 10901, -90.000, 0.000, -30.200, 0.000, 0.000, -2.900, 0.0, , , , , , 97, , , 47, 47, 47
38.0966004, -120.1425774, 15.700, 14:52:51.600, 15, 0.00, 0.28, 98, -1.200, -0.700, -31.400, 1243, 100, 99, 22, 23460, -19726, 5362, 5472, 12, 14, 1525989171.601, 104, 0, 1024, 1024, 1024, 1024, 0, 6, 3896, 3906, 3892, 3954, 3952, 3901, 0, 1, 11001, -90.000, 0.000, -30.200, 0.000, 0.000, -2.900, 0.0, , , , , , 97, , , 47, 47, 47
38.0966004, -120.1425773, 16.300, 14:52:51.704, 15, 0.00, 0.29, 98, -1.200, -0.500, -31.400, 1243, 100, 99, 22, 23460, -19726, 5362, 5472, 12, 14, 1525989171.704, 5, 0, 1024, 1024, 1024, 1024, 0, 6, 3896, 3906, 3892, 3954, 3952, 3901, 0, 1, 11104, -89.900, 0.000, -30.200, 0.000, 0.000, -2.900, 0.0, , , , , , 97, , , 47, 47, 47
38.0966004, -120.1425773, 16.300, 14:52:51.801, 15, 0.00, 0.29, 98, -1.200, -0.500, -31.400, 1243, 100, 99, 22, 23460, -19726, 5362, 5472, 12, 14, 1525989171.801, 102, 0, 1024, 1024, 1024, 1024, 0, 6, 3896, 3906, 3892, 3954, 3952, 3901, 0, 1, 11201, -90.000, 0.000, -30.200, 0.000, 0.000, -2.900, 0.0, , , , , , 97, , , 47, 47, 47
38.0966004, -120.1425771, 16.900, 14:52:51.900, 15, 0.00, 0.30, 98, -1.400, -0.400, -31.500, 1243, 100, 99, 22, 23533, -18708, 5362, 5472, 12, 14, 1525989171.900, 15, 0, 1024, 1024, 1024, 1024, 0, 6, 3901, 3904, 3909, 3959, 3953, 3915, 0, 1, 11301, -89.900, 0.000, -30.200, 0.000, 0.000, -2.900, 0.0, , , , , , 97, , , 47, 47, 47
38.0966004, -120.1425771, 16.900, 14:52:52.001, 15, 0.00, 0.30, 98, -1.400, -0.400, -31.500, 1243, 100, 99, 22, 23533, -18708, 5362, 5472, 12, 14, 1525989172.002, 116, 0, 1024, 1024, 1024, 1024, 0, 6, 3901, 3904, 3909, 3959, 3953, 3915, 0, 1, 11402, -89.900, 0.000, -30.200, 0.000, 0.000, -2.900, 0.0, , , , , , 97, , , 47, 47, 47
38.0966004, -120.1425770, 17.200, 14:52:52.101, 15, 0.00, 0.31, 98, -1.600, -0.400, -31.500, 1243, 100, 99, 22, 23533, -18708, 5362, 5472, 12, 14, 1525989172.101, 91, 0, 1024, 1024, 1024, 1024, 0, 6, 3901, 3904, 3909, 3959, 3953, 3915, 0, 1, 11501, -89.900, 0.000, -30.200, 0.000, 0.000, -2.900, 0.0, , , , , , 97, , , 47, 47, 47
38.0966004, -120.1425768, 17.500, 14:52:52.201, 15, 0.00, 0.32, 98, -1.700, -0.500, -31.500, 1243, 100, 99, 22, 23533, -18708, 5362, 5472, 12, 14, 1525989172.201, 77, 0, 1024, 1024, 1024, 1024, 0, 6, 3901, 3904, 3909, 3959, 3953, 3915, 0, 1, 11601, -89.900, 0.000, -30.200, 0.000, 0.000, -2.900, 0.0, , , , , , 97, , , 47, 47, 47
38.0966004, -120.1425767, 17.800, 14:52:52.300, 15, 0.00, 0.33, 98, -1.700, -0.700, -31.500, 1243, 100, 99, 22, 23533, -18708, 5362, 5472, 12, 14, 1525989172.300, 64, 0, 1024, 1024, 1024, 1024, 0, 6, 3901, 3904, 3909, 3959, 3953, 3915, 0, 1, 11700, -90.000, 0.000, -30.200, 0.000, 0.000, -2.800, 0.0, , , , , , 97, , , 47, 47, 47
38.0966004, -120.1425767, 18.000, 14:52:52.401, 15, 0.00, 0.33, 98, -1.700, -0.800, -31.500, 1243, 100, 99, 22, 23533, -18708, 5362, 5472, 12, 14, 1525989172.401, 67, 0, 1024, 1024, 1024, 1024, 0, 6, 3901, 3904, 3909, 3959, 3953, 3915, 0, 1, 11801, -89.900, 0.000, -30.200, 0.000, 0.000, -2.900, 0.0, , , , , , 97, , , 47, 47, 47
38.0966004, -120.1425766, 18.300, 14:52:52.501, 15, 0.00, 0.34, 98, -1.400, -0.800, -31.400, 1243, 100, 98, 22, 23533, -18708, 5362, 5472, 12, 14, 1525989172.501, 48, 0, 1024, 1024, 1024, 1024, 0, 6, 3901, 3904, 3909, 3959, 3953, 3915, 0, 1, 11901, -89.900, 0.000, -30.200, 0.000, 0.000, -2.900, 0.0, , , , , , 97, , , 47, 47, 47
38.0966004, -120.1425765, 18.600, 14:52:52.600, 15, 0.00, 0.35, 98, -1.400, -0.700, -31.400, 1243, 100, 98, 22, 23533, -18708, 5362, 5472, 12, 14, 1525989172.601, 70, 0, 1024, 1024, 1024, 1024, 0, 6, 3901, 3904, 3909, 3959, 3953, 3915, 0, 1, 12001, -90.000, 0.000, -30.200, 0.000, 0.000, -3.000, 0.0, , , , , , 97, , , 47, 47, 47
38.0966004, -120.1425763, 19.000, 14:52:52.701, 15, 0.00, 0.36, 98, -1.600, -0.700, -31.200, 1243, 100, 98, 22, 23533, -18708, 5362, 5472, 12, 14, 1525989172.701, 74, 0, 1024, 1024, 1024, 1024, 0, 6, 3901, 3904, 3909, 3959, 3953, 3915, 0, 1, 12101, -89.900, 0.000, -30.200, 0.000, 0.000, -3.000, 0.0, , , , , , 97, , , 47, 47, 47
38.0966005, -120.1425762, 19.300, 14:52:52.801, 15, 0.00, 0.37, 98, -1.600, -0.600, -31.100, 1243, 100, 98, 22, 23533, -18708, 5362, 5472, 12, 14, 1525989172.801, 55, 0, 1024, 1024, 1024, 1024, 0, 6, 3901, 3904, 3909, 3959, 3953, 3915, 0, 1, 12201, -89.900, 0.000, -30.200, 0.000, 0.000, -3.000, 0.0, , , , , , 97, , , 47, 47, 47
38.0966005, -120.1425761, 19.600, 14:52:52.901, 15, 0.00, 0.38, 98, -1.500, -0.600, -30.900, 1243, 100, 98, 22, 23576, -18036, 5362, 5472, 12, 14, 1525989172.902, 32, 0, 1024, 1024, 1024, 1024, 0, 6, 3911, 3914, 3912, 3958, 3958, 3919, 0, 1, 12302, -89.900, 0.000, -30.200, 0.000, 0.000, -2.900, 0.0, , , , , , 97, , , 47, 47, 47
38.0966005, -120.1425760, 19.900, 14:52:53.000, 15, 0.00, 0.39, 98, -1.500, -0.500, -30.600, 1243, 100, 99, 22, 23576, -18036, 5362, 5472, 12, 14, 1525989173.001, 32, 0, 1024, 1024, 1024, 1024, 0, 6, 3911, 3914, 3912, 3958, 3958, 3919, 0, 1, 12401, -89.900, 0.000, -30.200, 0.000, 0.000, -2.900, 0.0, , , , , , 97, , , 47, 47, 47
38.0966005, -120.1425759, 20.400, 14:52:53.100, 15, 0.00, 0.40, 98, -1.300, -0.500, -30.300, 1243, 100, 99, 22, 23576, -18036, 5362, 5472, 12, 14, 1525989173.101, 25, 0, 1024, 1024, 1024, 1024, 0, 6, 3911, 3914, 3912, 3958, 3958, 3919, 0, 1, 12501, -90.000, 0.000, -30.200, 0.000, 0.000, -2.900, 0.0, , , , , , 97, , , 47, 47, 47
38.0966005, -120.1425758, 20.700, 14:52:53.200, 15, 0.00, 0.40, 98, -1.300, -0.500, -30.200, 1243, 100, 99, 22, 23576, -18036, 5362, 5472, 12, 14, 1525989173.201, 30, 0, 1024, 1024, 1024, 1024, 0, 6, 3911, 3914, 3912, 3958, 3958, 3919, 0, 1, 12601, -89.900, 0.000, -30.200, 0.000, 0.000, -2.900, 0.0, , , , , , 97, , , 47, 47, 47
38.0966005, -120.1425757, 21.000, 14:52:53.300, 15, 0.00, 0.41, 98, -1.300, -0.400, -30.300, 1243, 100, 99, 22, 23576, -18036, 5362, 5472, 12, 14, 1525989173.300, 35, 0, 1024, 1024, 1024, 1024, 0, 6, 3911, 3914, 3912, 3958, 3958, 3919, 0, 1, 12700, -89.900, 0.000, -30.200, 0.000, 0.000, -2.900, 0.0, , , , , , 97, , , 47, 47, 47
38.0966005, -120.1425757, 21.000, 14:52:53.401, 15, 0.00, 0.41, 98, -1.300, -0.400, -30.300, 1243, 100, 98, 22, 23576, -18036, 5362, 5472, 12, 14, 1525989173.401, 136, 0, 1024, 1024, 1024, 1024, 0, 6, 3911, 3914, 3912, 3958, 3958, 3919, 0, 1, 12802, -89.900, 0.000, -30.200, 0.000, 0.000, -2.900, 0.0, , , , , , 97, , , 47, 47, 47
38.0966005, -120.1425757, 21.000, 14:52:53.501, 15, 0.00, 0.41, 98, -1.300, -0.400, -30.300, 1243, 100, 98, 22, 23576, -18036, 5362, 5472, 12, 14, 1525989173.501, 235, 0, 1024, 1024, 1024, 1024, 0, 6, 3911, 3914, 3912, 3958, 3958, 3919, 0, 1, 12901, -89.900, 0.000, -30.200, 0.000, 0.000, -2.900, 0.0, , , , , , 97, , , 47, 47, 47
38.0966007, -120.1425754, 21.900, 14:52:53.600, 15, 0.00, 0.44, 98, -2.000, -0.300, -31.200, 1243, 100, 98, 22, 23576, -18036, 5362, 5472, 12, 14, 1525989173.601, 23, 0, 1024, 1024, 1024, 1024, 0, 6, 3911, 3914, 3912, 3958, 3958, 3919, 0, 1, 13001, -89.900, 0.000, -30.200, 0.000, 0.000, -2.900, 0.0, , , , , , 97, , , 47, 47, 47
38.0966007, -120.1425753, 22.200, 14:52:53.701, 15, 0.00, 0.45, 98, -2.200, -0.300, -31.300, 1243, 100, 98, 22, 23576, -18036, 5362, 5472, 12, 14, 1525989173.701, 29, 0, 1024, 1024, 1024, 1024, 0, 6, 3911, 3914, 3912, 3958, 3958, 3919, 0, 1, 13101, -89.900, 0.000, -30.200, 0.000, 0.000, -2.900, 0.0, , , , , , 97, , , 47, 47, 47
38.0966007, -120.1425752, 22.500, 14:52:53.800, 15, 0.00, 0.46, 98, -2.400, -0.400, -31.400, 1243, 100, 98, 22, 23564, -17975, 5307, 5472, 12, 14, 1525989173.800, 33, 0, 1024, 1024, 1024, 1024, 0, 6, 3906, 3912, 3910, 3957, 3952, 3915, 0, 1, 13201, -89.900, 0.000, -30.200, 0.000, 0.000, -2.900, 0.0, , , , , , 97, , , 47, 47, 47
38.0966007, -120.1425752, 22.800, 14:52:53.900, 15, 0.00, 0.46, 98, -2.300, -0.600, -31.300, 1243, 100, 96, 22, 23564, -17975, 5307, 5472, 12, 14, 1525989173.900, 22, 0, 1024, 1024, 1024, 1024, 0, 6, 3906, 3912, 3910, 3957, 3952, 3915, 0, 1, 13300, -89.900, 0.000, -30.200, 0.000, 0.000, -2.900, 0.0, , , , , , 97, , , 47, 47, 47
38.0966007, -120.1425752, 22.800, 14:52:54.000, 15, 0.00, 0.46, 98, -2.300, -0.600, -31.300, 1243, 100, 96, 22, 23564, -17975, 5307, 5472, 12, 14, 1525989174.001, 123, 0, 1024, 1024, 1024, 1024, 0, 6, 3906, 3912, 3910, 3957, 3952, 3915, 0, 1, 13401, -89.900, 0.000, -30.200, 0.000, 0.000, -2.900, 0.0, , , , , , 97, , , 47, 47, 47
38.0966008, -120.1425751, 23.100, 14:52:54.100, 15, 0.00, 0.47, 98, -2.100, -0.700, -31.200, 1243, 100, 96, 22, 23564, -17975, 5307, 5472, 12, 14, 1525989174.100, 97, 0, 1024, 1024, 1024, 1024, 0, 6, 3906, 3912, 3910, 3957, 3952, 3915, 0, 1, 13501, -89.900, 0.000, -30.200, 0.000, 0.000, -3.000, 0.0, , , , , , 97, , , 47, 47, 47
38.0966008, -120.1425750, 23.400, 14:52:54.200, 15, 0.00, 0.48, 98, -2.100, -0.600, -31.200, 1243, 100, 96, 22, 23564, -17975, 5307, 5472, 12, 14, 1525989174.201, 89, 0, 1024, 1024, 1024, 1024, 0, 6, 3906, 3912, 3910, 3957, 3952, 3915, 0, 1, 13601, -89.900, 0.000, -30.200, 0.000, 0.000, -3.000, 0.0, , , , , , 97, , , 47, 47, 47
38.0966009, -120.1425750, 23.700, 14:52:54.301, 15, 0.00, 0.48, 98, -2.100, -0.400, -31.200, 1243, 100, 96, 22, 23564, -17975, 5307, 5472, 12, 14, 1525989174.301, 88, 0, 1024, 1024, 1024, 1024, 0, 6, 3906, 3912, 3910, 3957, 3952, 3915, 0, 1, 13701, -89.900, 0.000, -30.200, 0.000, 0.000, -2.900, 0.0, , , , , , 97, , , 47, 47, 47
38.0966009, -120.1425750, 24.000, 14:52:54.401, 15, 0.00, 0.49, 98, -2.200, -0.100, -31.200, 1243, 100, 96, 22, 23564, -17975, 5307, 5472, 12, 14, 1525989174.401, 80, 0, 1024, 1024, 1024, 1024, 0, 6, 3906, 3912, 3910, 3957, 3952, 3915, 0, 1, 13801, -89.900, 0.000, -30.200, 0.000, 0.000, -2.900, 0.0, , , , , , 97, , , 47, 47, 47
38.0966009, -120.1425750, 24.300, 14:52:54.500, 15, 0.00, 0.49, 98, -2.100, 0.000, -31.100, 1243, 100, 95, 22, 23564, -17975, 5307, 5472, 12, 14, 1525989174.501, 59, 0, 1024, 1024, 1024, 1024, 0, 6, 3906, 3912, 3910, 3957, 3952, 3915, 0, 1, 13901, -89.900, 0.000, -30.200, 0.000, 0.000, -2.900, 0.0, , , , , , 97, , , 47, 47, 47
38.0966009, -120.1425749, 24.600, 14:52:54.600, 15, 0.00, 0.49, 98, -1.500, 0.000, -31.000, 1243, 100, 95, 22, 23564, -17975, 5307, 5472, 12, 14, 1525989174.601, 62, 0, 1024, 1024, 1024, 1024, 0, 6, 3906, 3912, 3910, 3957, 3952, 3915, 0, 1, 14001, -89.900, 0.000, -30.200, 0.000, 0.000, -2.900, 0.0, , , , , , 97, , , 47, 47, 47
38.0966009, -120.1425749, 24.900, 14:52:54.700, 15, 0.00, 0.49, 98, -1.700, -0.200, -30.800, 1243, 100, 95, 22, 23564, -17975, 5307, 5472, 12, 14, 1525989174.701, 62, 0, 1024, 1024, 1024, 1024, 0, 6, 3906, 3912, 3910, 3957, 3952, 3915, 0, 1, 14101, -90.000, 0.000, -30.200, 0.000, 0.000, -2.900, 0.0, , , , , , 97, , , 47, 47, 47
38.0966009, -120.1425748, 25.200, 14:52:54.801, 15, 0.00, 0.50, 98, -2.000, -0.700, -30.900, 1243, 100, 95, 22, 23564, -17975, 5307, 5472, 12, 14, 1525989174.801, 72, 0, 1024, 1024, 1024, 1024, 0, 6, 3906, 3912, 3910, 3957, 3952, 3915, 0, 1, 14201, -90.000, 0.000, -30.200, 0.000, 0.000, -2.900, 0.0, , , , , , 97, , , 47, 47, 47
38.0966009, -120.1425748, 25.500, 14:52:54.901, 15, 0.00, 0.50, 97, -2.100, -1.000, -31.000, 1243, 100, 95, 22, 23512, -18291, 5307, 5472, 12, 14, 1525989174.901, 38, 0, 1024, 1024, 1024, 1024, 0, 6, 3906, 3912, 3910, 3957, 3952, 3915, 0, 1, 14301, -90.000, 0.000, -30.200, 0.000, 0.000, -2.900, 0.0, , , , , , 97, , , 47, 47, 47
38.0966009, -120.1425747, 25.800, 14:52:55.000, 15, 0.00, 0.51, 97, -2.100, -1.100, -31.300, 1243, 100, 97, 22, 23512, -18291, 5307, 5472, 12, 14, 1525989175.000, 49, 0, 1024, 1024, 1024, 1024, 0, 6, 3906, 3912, 3910, 3957, 3952, 3915, 0, 1, 14400, -90.000, 0.000, -30.200, 0.000, 0.000, -2.900, 0.0, , , , , , 97, , , 47, 47, 47
38.0966009, -120.1425747, 26.400, 14:52:55.100, 15, 0.00, 0.51, 97, -2.400, -1.000, -31.700, 1243, 100, 97, 22, 23512, -18291, 5307, 5472, 12, 14, 1525989175.100, 53, 0, 1024, 1024, 1024, 1024, 0, 6, 3906, 3912, 3910, 3957, 3952, 3915, 0, 1, 14501, -90.000, 0.000, -30.200, 0.000, 0.000, -2.900, 0.0, , , , , , 97, , , 47, 47, 47
38.0966009, -120.1425747, 26.700, 14:52:55.200, 15, 0.00, 0.51, 97, -2.300, -0.800, -31.700, 1243, 100, 97, 22, 23512, -18291, 5307, 5472, 12, 14, 1525989175.200, 59, 0, 1024, 1024, 1024, 1024, 0, 6, 3906, 3912, 3910, 3957, 3952, 3915, 0, 1, 14601, -89.900, 0.000, -30.200, 0.000, 0.000, -2.900, 0.0, , , , , , 97, , , 47, 47, 47
38.0966009, -120.1425747, 27.000, 14:52:55.301, 15, 0.00, 0.51, 97, -2.200, -0.600, -31.700, 1243, 100, 97, 22, 23512, -18291, 5307, 5472, 12, 14, 1525989175.301, 38, 0, 1024, 1024, 1024, 1024, 0, 6, 3906, 3912, 3910, 3957, 3952, 3915, 0, 1, 14701, -89.900, 0.000, -30.200, 0.000, 0.000, -2.900, 0.0, , , , , , 97, , , 47, 47, 47
38.0966009, -120.1425747, 27.200, 14:52:55.401, 15, 0.00, 0.51, 97, -2.100, -0.400, -31.600, 1243, 100, 97, 22, 23512, -18291, 5307, 5472, 12, 14, 1525989175.401, 52, 0, 1024, 1024, 1024, 1024, 0, 6, 3901, 3903, 3895, 3953, 3953, 3909, 0, 1, 14801, -89.900, 0.000, -30.200, 0.000, 0.000, -2.800, 0.0, , , , , , 97, , , 47, 47, 47
38.0966010, -120.1425747, 27.500, 14:52:55.500, 15, 0.00, 0.51, 97, -2.100, -0.200, -31.500, 1243, 100, 97, 22, 23512, -18291, 5307, 5472, 12, 14, 1525989175.500, 42, 0, 1024, 1024, 1024, 1024, 0, 6, 3901, 3903, 3895, 3953, 3953, 3909, 0, 1, 14901, -89.900, 0.000, -30.200, 0.000, 0.000, -2.900, 0.0, , , , , , 97, , , 47, 47, 47
38.0966010, -120.1425747, 27.800, 14:52:55.600, 15, 0.00, 0.51, 97, -2.200, -0.100, -31.400, 1243, 100, 97, 22, 23512, -18291, 5307, 5472, 12, 14, 1525989175.601, 25, 0, 1024, 1024, 1024, 1024, 0, 6, 3901, 3903, 3895, 3953, 3953, 3909, 0, 1, 15001, -89.900, 0.000, -30.200, 0.000, 0.000, -2.900, 0.0, , , , , , 97, , , 47, 47, 47
38.0966010, -120.1425747, 28.100, 14:52:55.701, 15, 0.00, 0.51, 97, -2.100, 0.000, -31.200, 1243, 100, 97, 22, 23512, -18291, 5307, 5472, 12, 14, 1525989175.701, 16, 0, 1024, 1024, 1024, 1024, 0, 6, 3901, 3903, 3895, 3953, 3953, 3909, 0, 1, 15101, -89.900, 0.000, -30.200, 0.000, 0.000, -2.900, 0.0, , , , , , 97, , , 47, 47, 47
38.0966011, -120.1425748, 28.400, 14:52:55.800, 15, 0.00, 0.51, 97, -2.000, 0.200, -31.100, 1243, 100, 97, 22, 23512, -18291, 5307, 5472, 12, 14, 1525989175.800, 28, 0, 1024, 1024, 1024, 1024, 0, 6, 3901, 3903, 3895, 3953, 3953, 3909, 0, 1, 15201, -89.900, 0.000, -30.200, 0.000, 0.000, -2.900, 0.0, , , , , , 97, , , 47, 47, 47
38.0966011, -120.1425749, 28.700, 14:52:55.901, 15, 0.00, 0.51, 97, -2.100, 0.600, -31.000, 1243, 100, 97, 22, 23512, -18291, 5307, 5472, 12, 14, 1525989175.901, 27, 0, 1024, 1024, 1024, 1024, 0, 6, 3901, 3903, 3895, 3953, 3953, 3909, 0, 1, 15301, -89.900, 0.000, -30.200, 0.000, 0.000, -2.900, 0.0, , , , , , 97, , , 47, 47, 47
38.0966011, -120.1425749, 29.000, 14:52:56.000, 15, 0.00, 0.50, 97, -2.400, 0.400, -30.900, 1243, 100, 97, 22, 23512, -18291, 5307, 5472, 12, 14, 1525989176.000, 25, 0, 1024, 1024, 1024, 1024, 0, 6, 3901, 3903, 3895, 3953, 3953, 3909, 0, 1, 15401, -89.900, 0.000, -30.200, 0.000, 0.000, -3.000, 0.0, , , , , , 97, , , 47, 47, 47
38.0966012, -120.1425749, 29.300, 14:52:56.102, 15, 0.00, 0.51, 97, -2.000, 0.100, -30.900, 1243, 100, 97, 22, 23512, -18291, 5307, 5472, 12, 14, 1525989176.103, 6, 0, 1024, 1024, 1024, 1024, 0, 6, 3901, 3903, 3895, 3953, 3953, 3909, 0, 1, 15503, -89.900, 0.000, -30.200, 0.000, 0.000, -3.000, 0.0, , , , , , 97, , , 47, 47, 47
38.0966012, -120.1425749, 29.300, 14:52:56.201, 15, 0.00, 0.51, 97, -2.000, 0.100, -30.900, 1243, 100, 97, 22, 23512, -18291, 5307, 5472, 12, 14, 1525989176.201, 104, 0, 1024, 1024, 1024, 1024, 0, 6, 3901, 3903, 3895, 3953, 3953, 3909, 0, 1, 15601, -89.900, 0.000, -30.200, 0.000, 0.000, -3.000, 0.0, , , , , , 97, , , 47, 47, 47
38.0966012, -120.1425750, 29.600, 14:52:56.300, 15, 0.00, 0.51, 97, -1.500, 0.000, -31.000, 1243, 100, 97, 22, 23512, -18291, 5307, 5472, 12, 14, 1525989176.301, 97, 0, 1024, 1024, 1024, 1024, 0, 6, 3901, 3903, 3895, 3953, 3953, 3909, 0, 1, 15701, -89.900, 0.000, -30.200, 0.000, 0.000, -3.000, 0.0, , , , , , 97, , , 47, 47, 47
38.0966013, -120.1425750, 29.900, 14:52:56.400, 15, 0.00, 0.51, 97, -1.400, 0.100, -31.100, 1243, 100, 97, 22, 23422, -18895, 5307, 5472, 12, 14, 1525989176.401, 83, 0, 1024, 1024, 1024, 1024, 0, 6, 3883, 3889, 3882, 3940, 3941, 3883, 0, 1, 15801, -89.900, 0.000, -30.200, 0.000, 0.000, -3.000, 0.0, , , , , , 97, , , 47, 47, 47
38.0966013, -120.1425750, 30.300, 14:52:56.500, 15, 0.00, 0.51, 97, -1.500, 0.400, -31.300, 1243, 100, 96, 22, 23422, -18895, 5307, 5472, 12, 14, 1525989176.500, 82, 0, 1024, 1024, 1024, 1024, 0, 6, 3883, 3889, 3882, 3940, 3941, 3883, 0, 1, 15901, -89.900, 0.000, -30.200, 0.000, 0.000, -3.000, 0.0, , , , , , 97, , , 47, 47, 47
38.0966014, -120.1425750, 30.600, 14:52:56.600, 15, 0.00, 0.52, 97, -2.000, 0.300, -31.500, 1243, 100, 96, 22, 23422, -18895, 5307, 5472, 12, 14, 1525989176.600, 95, 0, 1024, 1024, 1024, 1024, 0, 6, 3883, 3889, 3882, 3940, 3941, 3883, 0, 1, 16001, -89.900, 0.000, -30.200, 0.000, 0.000, -3.000, 0.0, , , , , , 97, , , 47, 47, 47
38.0966015, -120.1425749, 30.900, 14:52:56.700, 15, 0.00, 0.53, 97, -2.900, 0.500, -31.500, 1243, 100, 96, 22, 23422, -18895, 5307, 5472, 12, 14, 1525989176.701, 80, 0, 1024, 1024, 1024, 1024, 0, 6, 3883, 3889, 3882, 3940, 3941, 3883, 0, 1, 16101, -89.900, 0.000, -30.200, 0.000, 0.000, -3.000, 0.0, , , , , , 97, , , 47, 47, 47
38.0966016, -120.1425749, 31.300, 14:52:56.801, 15, 0.00, 0.54, 97, -3.300, 0.900, -31.400, 1243, 100, 96, 22, 23422, -18895, 5307, 5472, 12, 14, 1525989176.801, 78, 0, 1024, 1024, 1024, 1024, 0, 6, 3883, 3889, 3882, 3940, 3941, 3883, 0, 1, 16201, -89.900, 0.000, -30.200, 0.000, 0.000, -3.100, 0.0, , , , , , 97, , , 47, 47, 47
38.0966017, -120.1425748, 31.600, 14:52:56.900, 15, 0.00, 0.55, 97, -3.400, 1.000, -31.300, 1243, 100, 96, 22, 23422, -18895, 5307, 5472, 12, 14, 1525989176.901, 83, 0, 1024, 1024, 1024, 1024, 0, 6, 3883, 3889, 3882, 3940, 3941, 3883, 0, 1, 16301, -89.900, 0.000, -30.200, 0.000, 0.000, -3.000, 0.0, , , , , , 97, , , 47, 47, 47
38.0966018, -120.1425748, 32.000, 14:52:57.001, 15, 0.00, 0.56, 97, -3.800, 1.100, -31.300, 1243, 100, 97, 22, 23422, -18895, 5307, 5472, 12, 14, 1525989177.001, 68, 0, 1024, 1024, 1024, 1024, 0, 6, 3883, 3889, 3882, 3940, 3941, 3883, 0, 1, 16401, -89.900, 0.000, -30.200, 0.000, 0.000, -3.000, 0.0, , , , , , 97, , , 47, 47, 47
38.0966018, -120.1425747, 32.300, 14:52:57.100, 15, 0.10, 0.57, 97, -4.300, 1.000, -31.400, 1243, 100, 97, 22, 23422, -18895, 5307, 5472, 12, 14, 1525989177.101, 68, 0, 1024, 1024, 1024, 1024, 0, 6, 3883, 3889, 3882, 3940, 3941, 3883, 0, 1, 16501, -89.900, 0.000, -30.200, 0.000, 0.100, -2.900, 0.0, , , , , , 97, , , 47, 47, 47
38.0966019, -120.1425746, 32.600, 14:52:57.200, 15, 0.10, 0.58, 97, -4.500, 0.100, -31.500, 1243, 100, 97, 22, 23422, -18895, 5307, 5472, 12, 14, 1525989177.201, 35, 0, 1024, 1024, 1024, 1024, 0, 6, 3883, 3889, 3882, 3940, 3941, 3883, 0, 1, 16601, -90.000, 0.000, -30.200, 0.000, 0.100, -2.800, 0.0, , , , , , 97, , , 47, 47, 47
38.0966019, -120.1425745, 32.900, 14:52:57.300, 15, 0.10, 0.58, 97, -4.500, 0.000, -31.500, 1243, 100, 97, 22, 23422, -18895, 5307, 5472, 12, 14, 1525989177.301, 20, 0, 1024, 1024, 1024, 1024, 0, 6, 3883, 3889, 3882, 3940, 3941, 3883, 0, 1, 16701, -90.000, 0.000, -30.200, 0.000, 0.100, -2.800, 0.0, , , , , , 97, , , 47, 47, 47
38.0966019, -120.1425744, 33.200, 14:52:57.404, 15, 0.10, 0.59, 97, -5.000, -0.400, -31.300, 1243, 100, 97, 22, 23281, -19936, 5307, 5472, 12, 14, 1525989177.404, 4, 0, 1024, 1024, 1024, 1024, 0, 6, 3883, 3889, 3882, 3940, 3941, 3883, 0, 1, 16804, -90.000, 0.000, -30.200, 0.000, 0.100, -2.800, 0.0, , , , , , 97, , , 47, 47, 47
38.0966021, -120.1425743, 33.800, 14:52:57.501, 15, 0.00, 0.61, 97, -5.400, -0.300, -30.900, 1243, 100, 96, 22, 23281, -19936, 5307, 5472, 12, 14, 1525989177.501, 30, 0, 1024, 1024, 1024, 1024, 0, 6, 3861, 3859, 3865, 3911, 3915, 3863, 0, 1, 16901, -90.000, 0.000, -30.200, 0.000, 0.000, -2.700, 0.0, , , , , , 97, , , 47, 47, 47
38.0966021, -120.1425742, 34.000, 14:52:57.623, 15, 0.00, 0.62, 97, -5.300, -0.300, -30.800, 1243, 100, 96, 22, 23281, -19936, 5307, 5472, 12, 14, 1525989177.623, 5, 0, 1024, 1024, 1024, 1024, 0, 6, 3861, 3859, 3865, 3911, 3915, 3863, 0, 1, 17023, -89.900, 0.000, -30.200, 0.000, 0.000, -2.700, 0.0, , , , , , 97, , , 47, 47, 47
38.0966021, -120.1425742, 34.000, 14:52:57.700, 15, 0.00, 0.62, 97, -5.300, -0.300, -30.800, 1243, 100, 96, 22, 23281, -19936, 5307, 5472, 12, 14, 1525989177.701, 82, 0, 1024, 1024, 1024, 1024, 0, 6, 3861, 3859, 3865, 3911, 3915, 3863, 0, 1, 17101, -89.900, 0.000, -30.200, 0.000, 0.000, -2.700, 0.0, , , , , , 97, , , 47, 47, 47
38.0966023, -120.1425742, 34.600, 14:52:57.800, 15, 0.00, 0.63, 97, -4.900, 0.500, -30.700, 1243, 100, 96, 22, 23281, -19936, 5307, 5472, 12, 14, 1525989177.800, 28, 0, 1024, 1024, 1024, 1024, 0, 6, 3861, 3859, 3865, 3911, 3915, 3863, 0, 1, 17201, -89.900, 0.000, -30.200, 0.000, 0.000, -2.800, 0.0, , , , , , 97, , , 47, 47, 47
38.0966023, -120.1425741, 34.900, 14:52:57.900, 15, 0.00, 0.64, 97, -5.100, 0.800, -30.800, 1243, 100, 98, 22, 23281, -19936, 5307, 5472, 12, 14, 1525989177.901, 49, 0, 1024, 1024, 1024, 1024, 0, 6, 3861, 3859, 3865, 3911, 3915, 3863, 0, 1, 17301, -89.900, 0.000, -30.200, 0.000, 0.000, -2.700, 0.0, , , , , , 97, , , 47, 47, 47
38.0966024, -120.1425741, 35.200, 14:52:58.000, 15, 0.00, 0.64, 97, -5.100, 0.900, -30.900, 1243, 100, 98, 22, 23281, -19936, 5307, 5472, 12, 14, 1525989178.001, 21, 0, 1024, 1024, 1024, 1024, 0, 6, 3861, 3859, 3865, 3911, 3915, 3863, 0, 1, 17401, -89.900, 0.000, -30.200, 0.000, 0.000, -2.700, 0.0, , , , , , 97, , , 47, 47, 47
38.0966025, -120.1425741, 35.400, 14:52:58.100, 15, 0.00, 0.65, 97, -5.200, 0.800, -31.000, 1243, 100, 98, 22, 23281, -19936, 5307, 5472, 12, 14, 1525989178.101, 18, 0, 1024, 1024, 1024, 1024, 0, 6, 3861, 3859, 3865, 3911, 3915, 3863, 0, 1, 17501, -89.900, 0.000, -30.200, 0.000, 0.000, -2.700, 0.0, , , , , , 97, , , 47, 47, 47
38.0966025, -120.1425740, 35.700, 14:52:58.200, 15, 0.00, 0.66, 97, -5.200, 0.600, -31.000, 1243, 100, 98, 22, 23281, -19936, 5307, 5472, 12, 14, 1525989178.201, 27, 0, 1024, 1024, 1024, 1024, 0, 6, 3861, 3859, 3865, 3911, 3915, 3863, 0, 1, 17601, -89.900, 0.000, -30.200, 0.000, 0.000, -2.800, 0.0, , , , , , 97, , , 47, 47, 47
38.0966025, -120.1425740, 35.700, 14:52:58.302, 15, 0.00, 0.66, 97, -5.200, 0.600, -31.000, 1243, 100, 98, 22, 23281, -19936, 5307, 5472, 12, 14, 1525989178.302, 128, 0, 1024, 1024, 1024, 1024, 0, 6, 3861, 3859, 3865, 3911, 3915, 3863, 0, 1, 17702, -89.900, 0.000, -30.200, 0.000, 0.000, -2.800, 0.0, , , , , , 97, , , 47, 47, 47
38.0966026, -120.1425739, 36.200, 14:52:58.403, 15, 0.00, 0.67, 97, -5.400, 0.600, -31.200, 1243, 100, 98, 22, 23263, -20110, 5307, 5472, 12, 14, 1525989178.404, 14, 0, 1024, 1024, 1024, 1024, 0, 6, 3839, 3857, 3853, 3908, 3916, 3850, 0, 1, 17804, -89.900, 0.000, -30.200, 0.000, 0.000, -2.800, 0.0, , , , , , 97, , , 47, 47, 47
38.0966026, -120.1425739, 36.500, 14:52:58.500, 15, 0.00, 0.68, 97, -5.500, 0.600, -31.200, 1243, 100, 98, 22, 23263, -20110, 5307, 5472, 12, 14, 1525989178.501, 16, 0, 1024, 1024, 1024, 1024, 0, 6, 3839, 3857, 3853, 3908, 3916, 3850, 0, 1, 17901, -89.900, 0.000, -30.200, 0.000, 0.000, -2.800, 0.0, , , , , , 97, , , 47, 47, 47
38.0966026, -120.1425739, 36.500, 14:52:58.600, 15, 0.00, 0.68, 97, -5.500, 0.600, -31.200, 1243, 100, 98, 22, 23263, -20110, 5307, 5472, 12, 14, 1525989178.600, 115, 0, 1024, 1024, 1024, 1024, 0, 6, 3839, 3857, 3853, 3908, 3916, 3850, 0, 1, 18000, -89.900, 0.000, -30.200, 0.000, 0.000, -2.800, 0.0, , , , , , 97, , , 47, 47, 47
38.0966027, -120.1425738, 36.800, 14:52:58.700, 15, 0.00, 0.68, 97, -5.500, 0.400, -31.200, 1243, 100, 98, 22, 23263, -20110, 5307, 5472, 12, 14, 1525989178.700, 71, 0, 1024, 1024, 1024, 1024, 0, 6, 3839, 3857, 3853, 3908, 3916, 3850, 0, 1, 18101, -89.900, 0.000, -30.200, 0.000, 0.000, -2.900, 0.0, , , , , , 97, , , 47, 47, 47
38.0966027, -120.1425738, 37.100, 14:52:58.800, 15, 0.00, 0.69, 97, -5.500, 0.300, -31.200, 1243, 100, 98, 22, 23263, -20110, 5307, 5472, 12, 14, 1525989178.801, 97, 0, 1024, 1024, 1024, 1024, 0, 6, 3839, 3857, 3853, 3908, 3916, 3850, 0, 1, 18201, -89.900, 0.000, -30.200, 0.000, 0.000, -2.900, 0.0, , , , , , 97, , , 47, 47, 47
38.0966027, -120.1425737, 37.400, 14:52:58.901, 15, 0.00, 0.69, 97, -5.300, 0.200, -31.300, 1243, 100, 98, 22, 23263, -20110, 5307, 5472, 12, 14, 1525989178.901, 87, 0, 1024, 1024, 1024, 1024, 0, 6, 3839, 3857, 3853, 3908, 3916, 3850, 0, 1, 18301, -89.900, 0.000, -30.200, 0.000, 0.000, -2.900, 0.0, , , , , , 97, , , 47, 47, 47
38.0966027, -120.1425737, 37.700, 14:52:59.001, 15, 0.00, 0.69, 97, -5.100, 0.400, -31.300, 1243, 100, 99, 22, 23263, -20110, 5307, 5472, 12, 14, 1525989179.001, 75, 0, 1024, 1024, 1024, 1024, 0, 6, 3839, 3857, 3853, 3908, 3916, 3850, 0, 1, 18401, -89.900, 0.000, -30.200, 0.000, 0.000, -2.900, 0.0, , , , , , 97, , , 47, 47, 47
38.0966027, -120.1425737, 37.700, 14:52:59.100, 15, 0.00, 0.69, 97, -5.100, 0.400, -31.300, 1243, 100, 99, 22, 23263, -20110, 5307, 5472, 12, 14, 1525989179.100, 175, 0, 1024, 1024, 1024, 1024, 0, 6, 3839, 3857, 3853, 3908, 3916, 3850, 0, 1, 18501, -89.900, 0.000, -30.200, 0.000, 0.000, -2.900, 0.0, , , , , , 97, , , 47, 47, 47
38.0966028, -120.1425737, 38.200, 14:52:59.200, 15, 0.00, 0.70, 97, -5.000, 1.000, -31.400, 1243, 100, 99, 22, 23263, -20110, 5307, 5472, 12, 14, 1525989179.200, 75, 0, 1024, 1024, 1024, 1024, 0, 6, 3839, 3857, 3853, 3908, 3916, 3850, 0, 1, 18601, -89.900, 0.000, -30.200, 0.000, 0.000, -2.800, 0.0, , , , , , 97, , , 47, 47, 47
38.0966028, -120.1425738, 38.400, 14:52:59.300, 15, 0.00, 0.70, 97, -4.900, 1.300, -31.400, 1243, 100, 99, 22, 23263, -20110, 5307, 5472, 12, 14, 1525989179.300, 65, 0, 1024, 1024, 1024, 1024, 0, 6, 3839, 3857, 3853, 3908, 3916, 3850, 0, 1, 18700, -89.900, 0.000, -30.200, 0.000, 0.000, -2.800, 0.0, , , , , , 97, , , 47, 47, 47
38.0966029, -120.1425738, 38.700, 14:52:59.401, 15, 0.00, 0.70, 97, -5.200, 1.300, -31.400, 1243, 100, 99, 22, 23093, -21862, 5307, 5472, 12, 14, 1525989179.401, 59, 0, 1024, 1024, 1024, 1024, 0, 6, 3809, 3817, 3820, 3874, 3879, 3820, 0, 1, 18801, -89.900, 0.000, -30.200, 0.000, 0.000, -2.900, 0.0, , , , , , 97, , , 47, 47, 47
38.0966029, -120.1425737, 39.000, 14:52:59.500, 15, 0.00, 0.70, 97, -5.500, 1.100, -31.300, 1243, 100, 98, 22, 23093, -21862, 5307, 5472, 12, 14, 1525989179.500, 49, 0, 1024, 1024, 1024, 1024, 0, 6, 3809, 3817, 3820, 3874, 3879, 3820, 0, 1, 18901, -89.900, 0.000, -30.200, 0.000, 0.000, -3.000, 0.0, , , , , , 97, , , 47, 47, 47
38.0966029, -120.1425737, 39.300, 14:52:59.600, 15, 0.00, 0.70, 97, -5.500, 0.700, -31.200, 1243, 100, 98, 22, 23093, -21862, 5307, 5472, 12, 14, 1525989179.600, 64, 0, 1024, 1024, 1024, 1024, 0, 6, 3809, 3817, 3820, 3874, 3879, 3820, 0, 1, 19000, -89.900, 0.000, -30.200, 0.000, 0.000, -3.100, 0.0, , , , , , 97, , , 47, 47, 47
38.0966028, -120.1425736, 39.900, 14:52:59.701, 15, 0.00, 0.71, 97, -5.800, 0.500, -31.100, 1243, 100, 98, 22, 23093, -21862, 5307, 5472, 12, 14, 1525989179.701, 51, 0, 1024, 1024, 1024, 1024, 0, 6, 3809, 3817, 3820, 3874, 3879, 3820, 0, 1, 19101, -89.900, 0.000, -30.200, 0.000, 0.000, -3.100, 0.0, , , , , , 97, , , 47, 47, 47
38.0966028, -120.1425736, 39.900, 14:52:59.801, 15, 0.00, 0.71, 97, -5.800, 0.500, -31.100, 1243, 100, 98, 22, 23093, -21862, 5307, 5472, 12, 14, 1525989179.802, 151, 0, 1024, 1024, 1024, 1024, 0, 6, 3809, 3817, 3820, 3874, 3879, 3820, 0, 1, 19202, -89.900, 0.000, -30.200, 0.000, 0.000, -3.100, 0.0, , , , , , 97, , , 47, 47, 47
38.0966028, -120.1425736, 40.200, 14:52:59.900, 15, 0.00, 0.71, 97, -6.000, 0.300, -31.100, 1243, 100, 98, 22, 23093, -21862, 5307, 5472, 12, 14, 1525989179.901, 56, 0, 1024, 1024, 1024, 1024, 0, 6, 3809, 3817, 3820, 3874, 3879, 3820, 0, 1, 19301, -89.900, 0.000, -30.200, 0.000, 0.000, -3.200, 0.0, , , , , , 97, , , 47, 47, 47
38.0966028, -120.1425735, 40.800, 14:53:00.001, 15, 0.00, 0.71, 97, -6.200, 0.400, -31.100, 1243, 100, 98, 22, 23093, -21862, 5307, 5472, 12, 14, 1525989180.001, 56, 0, 1024, 1024, 1024, 1024, 0, 6, 3809, 3817, 3820, 3874, 3879, 3820, 0, 1, 19401, -89.900, 0.000, -30.200, 0.000, 0.000, -3.100, 0.0, , , , , , 97, , , 47, 47, 47
38.0966027, -120.1425735, 41.100, 14:53:00.100, 15, 0.00, 0.71, 97, -5.900, 0.400, -31.000, 1243, 100, 98, 22, 23093, -21862, 5307, 5472, 12, 14, 1525989180.101, 62, 0, 1024, 1024, 1024, 1024, 0, 6, 3809, 3817, 3820, 3874, 3879, 3820, 0, 1, 19501, -89.900, 0.000, -30.200, 0.000, 0.000, -3.100, 0.0, , , , , , 97, , , 47, 47, 47
38.0966027, -120.1425735, 41.500, 14:53:00.200, 15, 0.00, 0.71, 97, -5.900, 0.300, -30.900, 1243, 100, 98, 22, 23093, -21862, 5307, 5472, 12, 14, 1525989180.203, 30, 0, 1024, 1024, 1024, 1024, 0, 6, 3809, 3817, 3820, 3874, 3879, 3820, 0, 1, 19603, -89.900, 0.000, -30.200, 0.000, 0.000, -3.100, 0.0, , , , , , 97, , , 47, 47, 47
38.0966027, -120.1425735, 41.800, 14:53:00.301, 15, 0.00, 0.70, 97, -5.800, 0.400, -30.900, 1243, 100, 98, 22, 23093, -21862, 5307, 5472, 12, 14, 1525989180.301, 21, 0, 1024, 1024, 1024, 1024, 0, 6, 3809, 3817, 3820, 3874, 3879, 3820, 0, 1, 19701, -89.900, 0.000, -30.200, 0.000, 0.000, -3.100, 0.0, , , , , , 97, , , 47, 47, 47
38.0966027, -120.1425736, 42.100, 14:53:00.403, 15, 0.00, 0.70, 97, -5.700, 0.600, -31.000, 1243, 100, 97, 22, 22841, -23507, 5307, 5472, 12, 14, 1525989180.403, 18, 0, 1024, 1024, 1024, 1024, 0, 6, 3809, 3817, 3820, 3874, 3879, 3820, 0, 1, 19804, -89.900, 0.000, -30.200, 0.000, 0.000, -3.000, 0.0, , , , , , 97, , , 47, 47, 47
38.0966027, -120.1425736, 42.300, 14:53:00.501, 15, 0.00, 0.70, 97, -5.700, 0.800, -30.900, 1243, 100, 97, 22, 22841, -23507, 5307, 5472, 12, 14, 1525989180.501, 14, 0, 1024, 1024, 1024, 1024, 0, 6, 3809, 3817, 3820, 3874, 3879, 3820, 0, 1, 19901, -89.900, 0.000, -30.200, 0.000, 0.000, -2.900, 0.0, , , , , , 97, , , 47, 47, 47
38.0966026, -120.1425737, 42.600, 14:53:00.601, 15, 0.00, 0.69, 97, -5.500, 0.800, -30.800, 1243, 100, 97, 22, 22841, -23507, 5307, 5472, 12, 14, 1525989180.602, 37, 0, 1024, 1024, 1024, 1024, 0, 6, 3809, 3817, 3820, 3874, 3879, 3820, 0, 1, 20002, -89.900, 0.000, -30.200, 0.000, 0.000, -3.000, 0.0, , , , , , 97, , , 47, 47, 47
38.0966026, -120.1425737, 42.900, 14:53:00.701, 15, 0.00, 0.68, 97, -5.300, 0.600, -30.700, 1243, 100, 97, 22, 22841, -23507, 5307, 5472, 12, 14, 1525989180.702, 8, 0, 1024, 1024, 1024, 1024, 0, 6, 3809, 3817, 3820, 3874, 3879, 3820, 0, 1, 20102, -89.900, 0.000, -30.200, 0.000, 0.000, -3.100, 0.0, , , , , , 97, , , 47, 47, 47
38.0966025, -120.1425738, 43.300, 14:53:00.801, 15, 0.00, 0.67, 97, -5.200, 0.300, -30.700, 1243, 100, 97, 22, 22841, -23507, 5307, 5472, 12, 14, 1525989180.802, 19, 0, 1024, 1024, 1024, 1024, 0, 6, 3809, 3817, 3820, 3874, 3879, 3820, 0, 1, 20202, -90.000, 0.000, -30.200, 0.000, 0.000, -3.100, 0.0, , , , , , 97, , , 47, 47, 47
38.0966025, -120.1425739, 43.600, 14:53:00.900, 15, 0.00, 0.66, 97, -5.000, 0.100, -30.800, 1243, 100, 96, 22, 22841, -23507, 5307, 5472, 12, 14, 1525989180.901, 17, 0, 1024, 1024, 1024, 1024, 0, 6, 3775, 3794, 3783, 3860, 3847, 3787, 0, 1, 20301, -90.000, 0.000, -30.200, 0.000, 0.000, -3.100, 0.0, , , , , , 97, , , 47, 47, 47
38.0966025, -120.1425739, 43.600, 14:53:01.001, 15, 0.00, 0.66, 97, -5.000, 0.100, -30.800, 1243, 100, 96, 22, 22841, -23507, 5307, 5472, 12, 14, 1525989181.001, 117, 0, 1024, 1024, 1024, 1024, 0, 6, 3775, 3794, 3783, 3860, 3847, 3787, 0, 1, 20401, -90.000, 0.000, -30.200, 0.000, 0.000, -3.100, 0.0, , , , , , 97, , , 47, 47, 47
38.0966024, -120.1425741, 44.200, 14:53:01.118, 15, 0.00, 0.64, 97, -5.100, 0.300, -31.100, 1243, 100, 96, 22, 22841, -23507, 5307, 5472, 12, 14, 1525989181.118, 19, 0, 1024, 1024, 1024, 1024, 0, 6, 3775, 3794, 3783, 3860, 3847, 3787, 0, 1, 20518, -89.900, 0.000, -30.200, 0.000, 0.000, -3.100, 0.0, , , , , , 97, , , 47, 47, 47
38.0966024, -120.1425741, 44.200, 14:53:01.201, 15, 0.00, 0.64, 97, -5.100, 0.300, -31.100, 1243, 100, 96, 22, 22841, -23507, 5307, 5472, 12, 14, 1525989181.201, 102, 0, 1024, 1024, 1024, 1024, 0, 6, 3775, 3794, 3783, 3860, 3847, 3787, 0, 1, 20601, -89.900, 0.000, -30.200, 0.000, 0.000, -3.100, 0.0, , , , , , 97, , , 47, 47, 47
38.0966023, -120.1425742, 44.500, 14:53:01.300, 15, 0.00, 0.63, 97, -4.800, 0.500, -31.300, 1243, 100, 96, 22, 22841, -23507, 5307, 5472, 12, 14, 1525989181.301, 96, 0, 1024, 1024, 1024, 1024, 0, 6, 3775, 3794, 3783, 3860, 3847, 3787, 0, 1, 20701, -89.900, 0.000, -30.200, 0.000, 0.000, -3.100, 0.0, , , , , , 97, , , 47, 47, 47
38.0966023, -120.1425743, 44.800, 14:53:01.400, 15, 0.00, 0.62, 97, -4.900, 0.500, -31.500, 1243, 100, 96, 23, 22841, -23507, 5307, 5472, 12, 14, 1525989181.400, 85, 0, 1024, 1024, 1024, 1024, 0, 6, 3775, 3794, 3783, 3860, 3847, 3787, 0, 1, 20801, -89.900, 0.000, -30.200, 0.000, 0.000, -3.100, 0.0, , , , , , 97, , , 47, 47, 47
38.0966023, -120.1425744, 45.100, 14:53:01.500, 15, 0.00, 0.61, 97, -4.900, 0.600, -31.500, 1243, 100, 96, 23, 22841, -23507, 5307, 5472, 12, 14, 1525989181.501, 98, 0, 1024, 1024, 1024, 1024, 0, 6, 3775, 3794, 3783, 3860, 3847, 3787, 0, 1, 20901, -89.900, 0.000, -30.200, 0.000, 0.000, -3.100, 0.0, , , , , , 97, , , 47, 47, 47
