Latitude, Longitude, Altitude (m), Time, Sats, Speed (m/s), Range (m), Battery (%), Roll (deg), Pitch (deg), Yaw (deg), Images, HD Signal (%), RC Signal (%), Battery Temp (C), Battery Voltage (mV), Battery Current (mA), Battery Energy (mAh), Battery Capacity (mAh), Battery Discharges, flyState, timestamp (Unix), LastUpdate (ms), radioChannel, Rc_elevator, Rc_aileron, Rc_throttle, Rc_rudder, Rc_gyro, Dronetype, Battery_Cell1 (mV), Battery_Cell2 (mV), Battery_Cell3 (mV), Battery_Cell4 (mV), Battery_Cell5 (mV), Battery_Cell6 (mV), Video, isFlying, elapsedTime (ms), gimbalPitch (deg), gimbalRoll (deg), gimbalYaw (deg), VelocityX (m/s), VelocityY (m/s), VelocityZ (m/s), GroundSmear (cm), App Version, Aircraft Name, Aircraft Firmware, Aircraft Serial Number, Battery Serial Number, Battery Lifetime (%), App_Tip, App_Warning, CurrentFlightStartingIndex, CurrentFlightLastVisitedWaypoint, PreviousFlightEndingWaypointIndex
38.0965891, -120.1425968, 0.000, 13:48:58.073, 11, 0.00, 0.03, 96, -0.700, 0.800, 151.300, 2, 100, 100, 24, 25500, -2977, 5271, 5491, 11, 11, 1525985338.073, 133, 0, 1024, 1024, 1024, 1024, 0, 6, 4255, 4240, 4240, 4232, 4278, 4280, 0, 1, 3083, -90.000, 0.000, 150.000, 0.000, 0.000, -0.200, 0.0, MapPilot_2.8.1_04242018, Dendroctonus I, 1.3.1.00, 041DDC1887, 1058163200459, 98, DJI_0001.jpg, Starting Mission from Lat/Long: 38.09659/-120.14259 Camera: Zenmuse X3 - Overlap: 90/90 - Active Connection: No, 0, 0, 0
38.0965891, -120.1425967, 0.000, 13:48:58.090, 11, 0.00, 0.03, 96, -0.500, 0.700, 151.400, 2, 100, 100, 24, 25500, -2977, 5271, 5491, 11, 11, 1525985338.091, 14, 0, 1024, 1024, 1024, 1024, 0, 6, 4255, 4240, 4240, 4232, 4278, 4280, 0, 1, 3100, -90.000, 0.000, 150.000, 0.000, 0.000, -0.300, 0.0, , , , , , 98, , , 0, 0, 0
38.0965892, -120.1425967, 0.000, 13:48:58.191, 11, 0.00, 0.04, 96, 0.000, 0.400, 151.500, 2, 100, 100, 24, 25500, -2977, 5271, 5491, 11, 11, 1525985338.191, 22, 0, 1024, 1024, 1024, 1024, 0, 6, 4255, 4240, 4240, 4232, 4278, 4280, 0, 1, 3201, -90.000, 0.000, 150.000, 0.000, 0.000, -0.300, 0.0, , , , , , 98, , , 0, 0, 0
38.0965893, -120.1425966, 0.100, 13:48:58.291, 11, 0.00, 0.05, 96, 0.400, 0.300, 151.500, 2, 100, 100, 24, 24825, -11367, 5271, 5491, 11, 11, 1525985338.291, 49, 0, 1024, 1024, 1024, 1024, 0, 6, 4255, 4240, 4240, 4232, 4278, 4280, 0, 1, 3301, -89.900, 0.000, 150.000, 0.000, 0.000, -0.400, 0.0, , , , , , 98, , , 0, 0, 0
38.0965894, -120.1425965, 0.100, 13:48:58.391, 11, 0.00, 0.06, 96, 0.700, 0.100, 151.500, 2, 100, 100, 24, 24825, -11367, 5271, 5491, 11, 11, 1525985338.392, 60, 0, 1024, 1024, 1024, 1024, 0, 6, 4088, 4101, 4080, 4102, 4103, 4097, 0, 1, 3401, -90.000, 0.000, 150.000, 0.000, 0.000, -0.400, 0.0, , , , , , 98, , , 0, 0, 0
38.0965895, -120.1425964, 0.100, 13:48:58.491, 11, 0.00, 0.07, 96, 1.200, 0.000, 151.400, 2, 100, 100, 24, 24825, -11367, 5271, 5491, 11, 11, 1525985338.492, 52, 0, 1024, 1024, 1024, 1024, 0, 6, 4088, 4101, 4080, 4102, 4103, 4097, 0, 1, 3501, -90.000, 0.000, 150.100, 0.000, 0.000, -0.400, 0.0, , , , , , 98, , , 0, 0, 0
38.0965895, -120.1425963, 0.200, 13:48:58.591, 11, 0.00, 0.08, 96, 1.200, -0.200, 151.400, 2, 100, 100, 24, 24825, -11367, 5271, 5491, 11, 11, 1525985338.591, 24, 0, 1024, 1024, 1024, 1024, 0, 6, 4088, 4101, 4080, 4102, 4103, 4097, 0, 1, 3601, -90.000, 0.000, 150.100, 0.000, 0.000, -0.400, 0.0, , , , , , 98, , , 0, 0, 0
38.0965895, -120.1425963, 0.200, 13:48:58.691, 11, 0.00, 0.08, 96, 1.100, -0.200, 151.300, 2, 100, 100, 24, 24825, -11367, 5271, 5491, 11, 11, 1525985338.691, 37, 0, 1024, 1024, 1024, 1024, 0, 6, 4088, 4101, 4080, 4102, 4103, 4097, 0, 1, 3701, -90.000, 0.000, 150.100, 0.000, 0.000, -0.400, 0.0, , , , , , 98, , , 0, 0, 0
38.0965895, -120.1425962, 0.300, 13:48:58.791, 10, 0.00, 0.08, 96, 1.000, 0.000, 151.300, 2, 100, 100, 24, 24825, -11367, 5271, 5491, 11, 11, 1525985338.791, 27, 0, 1024, 1024, 1024, 1024, 0, 6, 4088, 4101, 4080, 4102, 4103, 4097, 0, 1, 3801, -89.900, 0.000, 150.100, 0.000, 0.000, -0.500, 0.0, , , , , , 98, , , 0, 0, 0
38.0965894, -120.1425961, 0.300, 13:48:58.891, 10, 0.00, 0.08, 96, 0.800, 0.200, 151.100, 2, 100, 100, 24, 24825, -11367, 5271, 5491, 11, 11, 1525985338.891, 35, 0, 1024, 1024, 1024, 1024, 0, 6, 4088, 4101, 4080, 4102, 4103, 4097, 0, 1, 3901, -89.900, 0.000, 150.100, 0.000, 0.000, -0.500, 0.0, , , , , , 98, , , 0, 0, 0
38.0965894, -120.1425961, 0.400, 13:48:58.991, 12, 0.00, 0.07, 96, 0.700, 0.400, 151.000, 2, 100, 100, 24, 24825, -11367, 5271, 5491, 11, 11, 1525985338.991, 15, 0, 1024, 1024, 1024, 1024, 0, 6, 4088, 4101, 4080, 4102, 4103, 4097, 0, 1, 4001, -89.900, 0.000, 150.100, 0.000, 0.000, -0.400, 0.0, , , , , , 98, , , 0, 0, 0
38.0965893, -120.1425960, 0.400, 13:48:59.091, 12, 0.00, 0.07, 96, 0.600, 0.700, 150.900, 2, 100, 100, 24, 24825, -11367, 5271, 5491, 11, 11, 1525985339.091, 26, 0, 1024, 1024, 1024, 1024, 0, 6, 4088, 4101, 4080, 4102, 4103, 4097, 0, 1, 4101, -89.900, 0.000, 150.100, 0.000, 0.000, -0.400, 0.0, , , , , , 98, , , 0, 0, 0
38.0965892, -120.1425960, 0.500, 13:48:59.191, 12, 0.00, 0.07, 96, 0.700, 0.800, 150.900, 2, 100, 100, 24, 24825, -11367, 5271, 5491, 11, 11, 1525985339.191, 25, 0, 1024, 1024, 1024, 1024, 0, 6, 4088, 4101, 4080, 4102, 4103, 4097, 0, 1, 4201, -89.900, 0.000, 150.200, 0.000, 0.000, -0.500, 0.0, , , , , , 98, , , 0, 0, 0
38.0965891, -120.1425959, 0.500, 13:48:59.291, 12, 0.00, 0.07, 96, 0.900, 1.000, 151.000, 2, 100, 100, 24, 24825, -11367, 5271, 5491, 11, 11, 1525985339.291, 2, 0, 1024, 1024, 1024, 1024, 0, 6, 4088, 4101, 4080, 4102, 4103, 4097, 0, 1, 4301, -89.900, 0.000, 150.200, 0.000, 0.000, -0.500, 0.0, , , , , , 98, , , 0, 0, 0
38.0965890, -120.1425958, 0.600, 13:48:59.391, 11, 0.00, 0.07, 96, 0.600, 1.300, 151.100, 2, 100, 100, 24, 24237, -17159, 5271, 5491, 11, 11, 1525985339.391, 4, 0, 1024, 1024, 1024, 1024, 0, 6, 4088, 4101, 4080, 4102, 4103, 4097, 0, 1, 4400, -89.900, 0.000, 150.200, 0.000, 0.000, -0.500, 0.0, , , , , , 98, , , 0, 0, 0
38.0965890, -120.1425958, 0.600, 13:48:59.491, 11, 0.00, 0.07, 96, 0.600, 1.300, 151.100, 2, 100, 100, 24, 24237, -17159, 5271, 5491, 11, 11, 1525985339.492, 105, 0, 1024, 1024, 1024, 1024, 0, 6, 4088, 4101, 4080, 4102, 4103, 4097, 0, 1, 4501, -89.900, 0.000, 150.200, 0.000, 0.000, -0.500, 0.0, , , , , , 98, , , 0, 0, 0
38.0965890, -120.1425958, 0.600, 13:48:59.591, 11, 0.00, 0.07, 96, 0.600, 1.300, 151.100, 2, 100, 100, 24, 24237, -17159, 5271, 5491, 11, 11, 1525985339.591, 205, 0, 1024, 1024, 1024, 1024, 0, 6, 4088, 4101, 4080, 4102, 4103, 4097, 0, 1, 4601, -89.900, 0.000, 150.200, 0.000, 0.000, -0.500, 0.0, , , , , , 98, , , 0, 0, 0
38.0965888, -120.1425958, 0.700, 13:48:59.691, 11, 0.10, 0.08, 96, 0.400, 1.300, 151.400, 2, 100, 100, 24, 24237, -17159, 5271, 5491, 11, 11, 1525985339.691, 81, 0, 1024, 1024, 1024, 1024, 0, 6, 4088, 4101, 4080, 4102, 4103, 4097, 0, 1, 4701, -89.900, 0.000, 150.200, -0.100, 0.000, -0.500, 0.0, , , , , , 98, , , 0, 0, 0
38.0965888, -120.1425958, 0.700, 13:48:59.791, 11, 0.10, 0.08, 96, 0.400, 1.300, 151.400, 2, 100, 100, 24, 24237, -17159, 5271, 5491, 11, 11, 1525985339.791, 181, 0, 1024, 1024, 1024, 1024, 0, 6, 4088, 4101, 4080, 4102, 4103, 4097, 0, 1, 4801, -89.900, 0.000, 150.200, -0.100, 0.000, -0.500, 0.0, , , , , , 98, , , 0, 0, 0
38.0965886, -120.1425958, 0.900, 13:48:59.891, 12, 0.10, 0.08, 96, 0.200, 1.500, 151.600, 2, 100, 100, 24, 24237, -17159, 5271, 5491, 11, 11, 1525985339.891, 73, 0, 1024, 1024, 1024, 1024, 0, 6, 4006, 4031, 4041, 4028, 4035, 4049, 0, 1, 4901, -89.900, 0.000, 150.200, -0.100, 0.000, -0.500, 0.0, , , , , , 98, , , 0, 0, 0
38.0965886, -120.1425958, 0.900, 13:48:59.991, 12, 0.00, 0.08, 96, 0.200, 1.600, 151.600, 2, 100, 100, 24, 24237, -17159, 5271, 5491, 11, 14, 1525985339.992, 91, 0, 1024, 1024, 1024, 1024, 0, 6, 4006, 4031, 4041, 4028, 4035, 4049, 0, 1, 5001, -89.900, 0.000, 150.200, 0.000, 0.000, -0.400, 0.0, , , , , , 98, , , 0, 0, 0
38.0965885, -120.1425958, 0.900, 13:49:00.091, 12, 0.00, 0.08, 96, 0.000, 1.800, 151.700, 2, 100, 100, 24, 24237, -17159, 5271, 5491, 11, 14, 1525985340.092, 65, 0, 1024, 1024, 1024, 1024, 0, 6, 4006, 4031, 4041, 4028, 4035, 4049, 0, 1, 5101, -89.900, 0.000, 150.200, 0.000, 0.000, -0.300, 0.0, , , , , , 98, , , 0, 0, 0
38.0965884, -120.1425958, 1.000, 13:49:00.191, 11, 0.00, 0.09, 96, 0.000, 1.800, 151.700, 2, 100, 100, 24, 24237, -17159, 5271, 5491, 11, 14, 1525985340.192, 93, 0, 1024, 1024, 1024, 1024, 0, 6, 4006, 4031, 4041, 4028, 4035, 4049, 0, 1, 5201, -89.900, 0.000, 150.200, 0.000, 0.000, -0.300, 0.0, , , , , , 98, , , 0, 0, 0
38.0965883, -120.1425958, 1.000, 13:49:00.291, 11, 0.00, 0.10, 96, -0.200, 1.700, 151.800, 2, 100, 100, 24, 24237, -17159, 5271, 5491, 11, 14, 1525985340.291, 91, 0, 1024, 1024, 1024, 1024, 0, 6, 4006, 4031, 4041, 4028, 4035, 4049, 0, 1, 5301, -89.900, 0.000, 150.300, 0.000, 0.000, -0.300, 0.0, , , , , , 98, , , 0, 0, 0
38.0965883, -120.1425958, 1.000, 13:49:00.391, 11, 0.00, 0.10, 96, -0.100, 1.600, 151.800, 2, 100, 100, 24, 24237, -17159, 5271, 5491, 11, 14, 1525985340.392, 91, 0, 1024, 1024, 1024, 1024, 0, 6, 4006, 4031, 4041, 4028, 4035, 4049, 0, 1, 5401, -89.900, 0.000, 150.300, 0.000, 0.000, -0.300, 0.0, , , , , , 98, , , 0, 0, 0
38.0965883, -120.1425957, 1.100, 13:49:00.491, 11, 0.00, 0.10, 96, 0.000, 1.500, 151.900, 2, 100, 100, 24, 24237, -17159, 5271, 5491, 11, 14, 1525985340.492, 72, 0, 1024, 1024, 1024, 1024, 0, 6, 4006, 4031, 4041, 4028, 4035, 4049, 0, 1, 5501, -89.900, 0.000, 150.300, 0.000, 0.000, -0.400, 0.0, , , , , , 98, , , 0, 0, 0
38.0965883, -120.1425957, 1.100, 13:49:00.591, 11, 0.00, 0.11, 96, 0.300, 1.400, 151.900, 2, 100, 100, 24, 24237, -17159, 5271, 5491, 11, 14, 1525985340.591, 70, 0, 1024, 1024, 1024, 1024, 0, 6, 4006, 4031, 4041, 4028, 4035, 4049, 0, 1, 5601, -89.900, 0.000, 150.300, 0.000, 0.000, -0.500, 0.0, , , , , , 98, , , 0, 0, 0
38.0965882, -120.1425956, 1.200, 13:49:00.691, 11, 0.00, 0.12, 96, 0.600, 1.300, 151.800, 2, 100, 100, 24, 24237, -17159, 5271, 5491, 11, 14, 1525985340.692, 55, 0, 1024, 1024, 1024, 1024, 0, 6, 4006, 4031, 4041, 4028, 4035, 4049, 0, 1, 5701, -89.900, 0.000, 150.300, 0.000, 0.000, -0.700, 0.0, , , , , , 98, , , 0, 0, 0
38.0965882, -120.1425956, 1.300, 13:49:00.791, 12, 0.00, 0.12, 96, 0.800, 1.400, 151.800, 2, 100, 100, 24, 24118, -16665, 5271, 5491, 11, 14, 1525985340.791, 56, 0, 1024, 1024, 1024, 1024, 0, 6, 3996, 4028, 4030, 4009, 4019, 4037, 0, 1, 5801, -89.900, 0.000, 150.400, 0.000, 0.000, -0.900, 0.0, , , , , , 98, , , 0, 0, 0
38.0965882, -120.1425956, 1.400, 13:49:00.891, 12, 0.00, 0.12, 96, 0.700, 1.500, 151.700, 2, 100, 100, 24, 24118, -16665, 5271, 5491, 11, 14, 1525985340.892, 37, 0, 1024, 1024, 1024, 1024, 0, 6, 3996, 4028, 4030, 4009, 4019, 4037, 0, 1, 5901, -89.900, 0.000, 150.400, 0.000, 0.000, -1.200, 0.0, , , , , , 98, , , 0, 0, 0
38.0965882, -120.1425955, 1.500, 13:49:00.991, 10, 0.00, 0.13, 96, 0.500, 1.600, 151.600, 2, 100, 100, 24, 24118, -16665, 5271, 5491, 11, 14, 1525985340.991, 46, 0, 1024, 1024, 1024, 1024, 0, 6, 3996, 4028, 4030, 4009, 4019, 4037, 0, 1, 6001, -89.900, 0.000, 150.400, 0.000, 0.000, -1.400, 0.0, , , , , , 98, , , 0, 0, 0
38.0965882, -120.1425954, 1.700, 13:49:01.091, 10, 0.00, 0.13, 96, 0.500, 1.500, 151.600, 2, 100, 100, 24, 24118, -16665, 5271, 5491, 11, 14, 1525985341.091, 23, 0, 1024, 1024, 1024, 1024, 0, 6, 3996, 4028, 4030, 4009, 4019, 4037, 0, 1, 6101, -89.900, 0.000, 150.400, 0.000, 0.000, -1.600, 0.0, , , , , , 98, , , 0, 0, 0
38.0965882, -120.1425954, 1.800, 13:49:01.191, 11, 0.00, 0.13, 96, 0.600, 1.300, 151.600, 2, 100, 100, 24, 24118, -16665, 5271, 5491, 11, 14, 1525985341.191, 20, 0, 1024, 1024, 1024, 1024, 0, 6, 3996, 4028, 4030, 4009, 4019, 4037, 0, 1, 6201, -90.000, 0.000, 150.400, 0.000, 0.000, -1.800, 0.0, , , , , , 98, , , 0, 0, 0
38.0965881, -120.1425955, 2.000, 13:49:01.291, 11, 0.00, 0.13, 96, 0.600, 1.100, 151.600, 2, 100, 100, 24, 24118, -16665, 5271, 5491, 11, 14, 1525985341.291, 42, 0, 1024, 1024, 1024, 1024, 0, 6, 3996, 4028, 4030, 4009, 4019, 4037, 0, 1, 6301, -90.000, 0.000, 150.400, 0.000, 0.000, -2.000, 0.0, , , , , , 98, , , 0, 0, 0
38.0965881, -120.1425956, 2.200, 13:49:01.391, 12, 0.00, 0.13, 96, 0.400, 1.000, 151.500, 2, 100, 100, 24, 24118, -16665, 5271, 5491, 11, 14, 1525985341.392, 42, 0, 1024, 1024, 1024, 1024, 0, 6, 3996, 4028, 4030, 4009, 4019, 4037, 0, 1, 6401, -90.000, 0.000, 150.500, 0.000, 0.000, -2.200, 0.0, , , , , , 98, , , 0, 0, 0
38.0965881, -120.1425956, 2.400, 13:49:01.491, 12, 0.00, 0.13, 96, 0.100, 1.100, 151.500, 2, 100, 100, 24, 24118, -16665, 5271, 5491, 11, 14, 1525985341.493, 43, 0, 1024, 1024, 1024, 1024, 0, 6, 3996, 4028, 4030, 4009, 4019, 4037, 0, 1, 6502, -90.000, 0.000, 150.500, 0.000, 0.000, -2.400, 0.0, , , , , , 98, , , 0, 0, 0
38.0965880, -120.1425957, 2.700, 13:49:01.600, 13, 0.00, 0.13, 96, 0.000, 1.100, 151.600, 2, 100, 100, 24, 24118, -16665, 5271, 5491, 11, 14, 1525985341.600, 15, 0, 1024, 1024, 1024, 1024, 0, 6, 3996, 4028, 4030, 4009, 4019, 4037, 0, 1, 6609, -90.000, 0.000, 150.500, 0.000, 0.000, -2.600, 0.0, , , , , , 98, , , 0, 0, 0
38.0965879, -120.1425958, 3.000, 13:49:01.690, 13, 0.00, 0.13, 96, -0.500, 1.100, 151.600, 2, 100, 100, 24, 24118, -16665, 5271, 5491, 11, 14, 1525985341.691, 12, 0, 1024, 1024, 1024, 1024, 0, 6, 3996, 4028, 4030, 4009, 4019, 4037, 0, 1, 6701, -89.900, 0.000, 150.500, 0.000, 0.000, -2.900, 0.0, , , , , , 98, , , 0, 0, 0
38.0965878, -120.1425958, 3.300, 13:49:01.791, 13, 0.00, 0.14, 96, -0.700, 1.300, 151.600, 2, 100, 100, 24, 23943, -17888, 5271, 5491, 11, 14, 1525985341.792, 18, 0, 1024, 1024, 1024, 1024, 0, 6, 3913, 3958, 3953, 3978, 3973, 3975, 0, 1, 6802, -89.900, 0.000, 150.500, 0.000, 0.000, -3.100, 0.0, , , , , , 98, , , 0, 0, 0
38.0965878, -120.1425959, 3.600, 13:49:01.899, 13, 0.00, 0.14, 96, -0.800, 1.500, 151.700, 2, 100, 100, 24, 23943, -17888, 5271, 5491, 11, 14, 1525985341.900, 12, 0, 1024, 1024, 1024, 1024, 0, 6, 3913, 3958, 3953, 3978, 3973, 3975, 0, 1, 6909, -89.900, 0.000, 150.500, 0.000, 0.000, -3.300, 0.0, , , , , , 98, , , 0, 0, 0
38.0965877, -120.1425959, 4.300, 13:49:02.013, 12, 0.00, 0.15, 96, -0.900, 1.700, 151.700, 2, 100, 100, 24, 23943, -17888, 5271, 5491, 11, 14, 1525985342.014, 3, 0, 1024, 1024, 1024, 1024, 0, 6, 3913, 3958, 3953, 3978, 3973, 3975, 0, 1, 7023, -89.900, 0.000, 150.500, 0.000, 0.000, -3.200, 0.0, , , , , , 98, , , 0, 0, 0
38.0965877, -120.1425959, 4.300, 13:49:02.091, 12, 0.00, 0.15, 96, -0.900, 1.700, 151.700, 2, 100, 100, 24, 23943, -17888, 5271, 5491, 11, 14, 1525985342.092, 81, 0, 1024, 1024, 1024, 1024, 0, 6, 3913, 3958, 3953, 3978, 3973, 3975, 0, 1, 7101, -89.900, 0.000, 150.500, 0.000, 0.000, -3.200, 0.0, , , , , , 98, , , 0, 0, 0
38.0965875, -120.1425959, 5.000, 13:49:02.190, 12, 0.00, 0.16, 96, -0.400, 1.800, 151.700, 2, 100, 100, 24, 23943, -17888, 5271, 5491, 11, 14, 1525985342.191, 4, 0, 1024, 1024, 1024, 1024, 0, 6, 3913, 3958, 3953, 3978, 3973, 3975, 0, 1, 7200, -89.900, 0.000, 150.600, 0.000, 0.000, -3.300, 0.0, , , , , , 98, , , 0, 0, 0
38.0965875, -120.1425959, 5.000, 13:49:02.291, 12, 0.00, 0.16, 96, -0.400, 1.800, 151.700, 2, 100, 100, 24, 23943, -17888, 5271, 5491, 11, 14, 1525985342.291, 105, 0, 1024, 1024, 1024, 1024, 0, 6, 3913, 3958, 3953, 3978, 3973, 3975, 0, 1, 7301, -89.900, 0.000, 150.600, 0.000, 0.000, -3.300, 0.0, , , , , , 98, , , 0, 0, 0
38.0965875, -120.1425960, 5.300, 13:49:02.391, 12, 0.00, 0.17, 96, -0.200, 1.800, 151.600, 2, 100, 98, 24, 23943, -17888, 5271, 5491, 11, 14, 1525985342.392, 83, 0, 1024, 1024, 1024, 1024, 0, 6, 3913, 3958, 3953, 3978, 3973, 3975, 0, 1, 7401, -89.900, 0.000, 150.600, 0.000, 0.000, -3.300, 0.0, , , , , , 98, , , 0, 0, 0
38.0965875, -120.1425960, 5.700, 13:49:02.491, 12, 0.00, 0.17, 96, -0.400, 1.600, 151.500, 2, 100, 98, 24, 23943, -17888, 5271, 5491, 11, 14, 1525985342.492, 97, 0, 1024, 1024, 1024, 1024, 0, 6, 3913, 3958, 3953, 3978, 3973, 3975, 0, 1, 7501, -89.900, 0.000, 150.600, 0.000, 0.000, -3.300, 0.0, , , , , , 98, , , 0, 0, 0
38.0965874, -120.1425961, 6.000, 13:49:02.591, 12, 0.00, 0.17, 96, -0.400, 1.500, 151.500, 2, 100, 98, 24, 23943, -17888, 5271, 5491, 11, 14, 1525985342.591, 89, 0, 1024, 1024, 1024, 1024, 0, 6, 3913, 3958, 3953, 3978, 3973, 3975, 0, 1, 7601, -89.900, 0.000, 150.600, 0.000, 0.000, -3.300, 0.0, , , , , , 98, , , 0, 0, 0
38.0965874, -120.1425961, 6.400, 13:49:02.691, 12, 0.00, 0.17, 96, -0.400, 1.500, 151.500, 2, 100, 98, 24, 23943, -17888, 5271, 5491, 11, 14, 1525985342.692, 76, 0, 1024, 1024, 1024, 1024, 0, 6, 3913, 3958, 3953, 3978, 3973, 3975, 0, 1, 7701, -89.900, 0.000, 150.600, 0.000, 0.000, -3.300, 0.0, , , , , , 98, , , 0, 0, 0
38.0965873, -120.1425962, 6.700, 13:49:02.791, 13, 0.00, 0.18, 96, -0.700, 1.400, 151.600, 2, 100, 98, 24, 23347, -24902, 5271, 5491, 11, 14, 1525985342.792, 80, 0, 1024, 1024, 1024, 1024, 0, 6, 3869, 3916, 3905, 3896, 3920, 3949, 0, 1, 7802, -89.900, 0.000, 150.700, 0.000, 0.000, -3.300, 0.0, , , , , , 98, , , 0, 0, 0
38.0965873, -120.1425961, 7.100, 13:49:02.891, 13, 0.00, 0.18, 96, -0.800, 1.500, 151.600, 2, 100, 98, 24, 23347, -24902, 5271, 5491, 11, 14, 1525985342.892, 71, 0, 1024, 1024, 1024, 1024, 0, 6, 3869, 3916, 3905, 3896, 3920, 3949, 0, 1, 7901, -89.900, 0.000, 150.600, 0.000, 0.000, -3.200, 0.0, , , , , , 98, , , 0, 0, 0
38.0965874, -120.1425961, 7.400, 13:49:02.991, 13, 0.00, 0.17, 96, -0.600, 1.500, 151.600, 2, 100, 98, 24, 23347, -24902, 5271, 5491, 11, 14, 1525985342.992, 87, 0, 1024, 1024, 1024, 1024, 0, 6, 3869, 3916, 3905, 3896, 3920, 3949, 0, 1, 8001, -89.900, 0.000, 150.700, 0.000, 0.000, -3.200, 0.0, , , , , , 98, , , 0, 0, 0
38.0965875, -120.1425960, 7.800, 13:49:03.091, 13, 0.00, 0.16, 96, -0.200, 1.400, 151.600, 2, 100, 98, 24, 23347, -24902, 5271, 5491, 11, 14, 1525985343.091, 61, 0, 1024, 1024, 1024, 1024, 0, 6, 3869, 3916, 3905, 3896, 3920, 3949, 0, 1, 8101, -89.900, 0.000, 150.600, 0.000, 0.000, -3.200, 0.0, , , , , , 98, , , 0, 0, 0
38.0965875, -120.1425959, 8.100, 13:49:03.191, 12, 0.00, 0.16, 96, 0.300, 1.400, 151.700, 2, 100, 98, 24, 23347, -24902, 5271, 5491, 11, 14, 1525985343.191, 42, 0, 1024, 1024, 1024, 1024, 0, 6, 3869, 3916, 3905, 3896, 3920, 3949, 0, 1, 8201, -89.900, 0.000, 150.600, 0.000, 0.000, -3.100, 0.0, , , , , , 98, , , 0, 0, 0
38.0965875, -120.1425958, 8.400, 13:49:03.290, 12, 0.00, 0.17, 96, 0.500, 1.800, 151.800, 2, 100, 98, 24, 23347, -24902, 5271, 5491, 11, 14, 1525985343.291, 43, 0, 1024, 1024, 1024, 1024, 0, 6, 3869, 3916, 3905, 3896, 3920, 3949, 0, 1, 8300, -89.900, 0.000, 150.600, 0.000, 0.000, -3.100, 0.0, , , , , , 98, , , 0, 0, 0
38.0965875, -120.1425956, 8.700, 13:49:03.391, 12, 0.10, 0.18, 96, 0.800, 2.200, 151.800, 2, 100, 97, 24, 23347, -24902, 5271, 5491, 11, 14, 1525985343.392, 48, 0, 1024, 1024, 1024, 1024, 0, 6, 3869, 3916, 3905, 3896, 3920, 3949, 0, 1, 8401, -89.900, 0.000, 150.600, 0.000, 0.100, -3.100, 0.0, , , , , , 98, , , 0, 0, 0
38.0965875, -120.1425954, 9.100, 13:49:03.491, 12, 0.10, 0.18, 96, 1.000, 2.500, 151.800, 2, 100, 97, 24, 23347, -24902, 5271, 5491, 11, 14, 1525985343.492, 40, 0, 1024, 1024, 1024, 1024, 0, 6, 3869, 3916, 3905, 3896, 3920, 3949, 0, 1, 8501, -89.900, 0.000, 150.600, 0.000, 0.100, -3.100, 0.0, , , , , , 98, , , 0, 0, 0
38.0965876, -120.1425953, 9.400, 13:49:03.591, 13, 0.10, 0.19, 96, 1.100, 2.600, 151.700, 2, 100, 97, 24, 23347, -24902, 5271, 5491, 11, 14, 1525985343.592, 43, 0, 1024, 1024, 1024, 1024, 0, 6, 3869, 3916, 3905, 3896, 3920, 3949, 0, 1, 8601, -89.900, 0.000, 150.600, 0.000, 0.100, -3.100, 0.0, , , , , , 98, , , 0, 0, 0
38.0965876, -120.1425951, 9.700, 13:49:03.691, 13, 0.10, 0.19, 96, 1.400, 2.500, 151.700, 2, 100, 97, 24, 23347, -24902, 5271, 5491, 11, 14, 1525985343.692, 44, 0, 1024, 1024, 1024, 1024, 0, 6, 3869, 3916, 3905, 3896, 3920, 3949, 0, 1, 8701, -89.900, 0.000, 150.700, 0.000, 0.100, -3.100, 0.0, , , , , , 98, , , 0, 0, 0
38.0965877, -120.1425950, 10.100, 13:49:03.791, 13, 0.00, 0.19, 96, 1.700, 2.300, 151.700, 2, 100, 97, 24, 23691, -19104, 5216, 5491, 11, 14, 1525985343.792, 35, 0, 1024, 1024, 1024, 1024, 0, 6, 3930, 3967, 3971, 3950, 3958, 3984, 0, 1, 8801, -89.900, 0.000, 150.600, 0.000, 0.000, -3.000, 0.0, , , , , , 98, , , 0, 0, 0
38.0965878, -120.1425949, 10.400, 13:49:03.890, 13, 0.00, 0.20, 96, 1.800, 2.100, 151.600, 2, 100, 99, 24, 23691, -19104, 5216, 5491, 11, 14, 1525985343.891, 37, 0, 1024, 1024, 1024, 1024, 0, 6, 3930, 3967, 3971, 3950, 3958, 3984, 0, 1, 8900, -89.900, 0.000, 150.700, 0.000, 0.000, -3.000, 0.0, , , , , , 98, , , 0, 0, 0
38.0965878, -120.1425948, 10.700, 13:49:03.991, 13, 0.00, 0.20, 96, 1.700, 1.900, 151.500, 2, 100, 99, 24, 23691, -19104, 5216, 5491, 11, 14, 1525985343.992, 39, 0, 1024, 1024, 1024, 1024, 0, 6, 3930, 3967, 3971, 3950, 3958, 3984, 0, 1, 9001, -89.900, 0.000, 150.600, 0.000, 0.000, -3.000, 0.0, , , , , , 98, , , 0, 0, 0
38.0965878, -120.1425947, 11.000, 13:49:04.091, 13, 0.00, 0.21, 96, 1.600, 2.000, 151.400, 2, 100, 99, 24, 23691, -19104, 5216, 5491, 11, 14, 1525985344.091, 16, 0, 1024, 1024, 1024, 1024, 0, 6, 3930, 3967, 3971, 3950, 3958, 3984, 0, 1, 9101, -89.900, 0.000, 150.700, 0.000, 0.000, -2.900, 0.0, , , , , , 98, , , 0, 0, 0
38.0965878, -120.1425946, 11.300, 13:49:04.191, 13, 0.00, 0.22, 96, 1.700, 1.800, 151.400, 2, 100, 99, 24, 23691, -19104, 5216, 5491, 11, 14, 1525985344.192, 32, 0, 1024, 1024, 1024, 1024, 0, 6, 3930, 3967, 3971, 3950, 3958, 3984, 0, 1, 9201, -89.900, 0.000, 150.700, 0.000, 0.000, -2.900, 0.0, , , , , , 98, , , 0, 0, 0
38.0965878, -120.1425945, 11.600, 13:49:04.291, 13, 0.00, 0.22, 96, 1.600, 1.900, 151.500, 2, 100, 99, 24, 23691, -19104, 5216, 5491, 11, 14, 1525985344.292, 37, 0, 1024, 1024, 1024, 1024, 0, 6, 3930, 3967, 3971, 3950, 3958, 3984, 0, 1, 9301, -89.900, 0.000, 150.700, 0.000, 0.000, -3.000, 0.0, , , , , , 98, , , 0, 0, 0
38.0965878, -120.1425944, 11.900, 13:49:04.391, 13, 0.00, 0.23, 96, 1.500, 2.100, 151.500, 2, 100, 99, 24, 23691, -19104, 5216, 5491, 11, 14, 1525985344.392, 13, 0, 1024, 1024, 1024, 1024, 0, 6, 3930, 3967, 3971, 3950, 3958, 3984, 0, 1, 9401, -89.900, 0.000, 150.700, 0.000, 0.000, -3.000, 0.0, , , , , , 98, , , 0, 0, 0
38.0965877, -120.1425942, 12.200, 13:49:04.493, 13, 0.00, 0.25, 96, 1.500, 2.500, 151.600, 2, 100, 99, 24, 23691, -19104, 5216, 5491, 11, 14, 1525985344.494, 6, 0, 1024, 1024, 1024, 1024, 0, 6, 3930, 3967, 3971, 3950, 3958, 3984, 0, 1, 9503, -89.900, 0.000, 150.600, 0.000, 0.000, -3.000, 0.0, , , , , , 98, , , 0, 0, 0
38.0965878, -120.1425942, 12.500, 13:49:04.596, 13, 0.00, 0.25, 96, 1.700, 2.700, 151.800, 2, 100, 99, 24, 23691, -19104, 5216, 5491, 11, 14, 1525985344.596, 8, 0, 1024, 1024, 1024, 1024, 0, 6, 3930, 3967, 3971, 3950, 3958, 3984, 0, 1, 9606, -89.900, 0.000, 150.600, 0.000, 0.000, -2.900, 0.0, , , , , , 98, , , 0, 0, 0
38.0965878, -120.1425942, 12.500, 13:49:04.691, 13, 0.00, 0.25, 96, 1.700, 2.700, 151.800, 2, 100, 99, 24, 23691, -19104, 5216, 5491, 11, 14, 1525985344.692, 103, 0, 1024, 1024, 1024, 1024, 0, 6, 3930, 3967, 3971, 3950, 3958, 3984, 0, 1, 9701, -89.900, 0.000, 150.600, 0.000, 0.000, -2.900, 0.0, , , , , , 98, , , 0, 0, 0
38.0965878, -120.1425943, 13.100, 13:49:04.791, 13, 0.00, 0.24, 96, 1.500, 2.300, 152.000, 2, 100, 99, 24, 23691, -19104, 5216, 5491, 11, 14, 1525985344.792, 90, 0, 1024, 1024, 1024, 1024, 0, 6, 3930, 3967, 3971, 3950, 3958, 3984, 0, 1, 9801, -89.900, 0.000, 150.700, 0.000, 0.000, -2.900, 0.0, , , , , , 98, , , 0, 0, 0
38.0965879, -120.1425943, 13.500, 13:49:04.891, 13, 0.00, 0.23, 95, 1.000, 2.300, 152.000, 2, 100, 100, 24, 23785, -17953, 5216, 5491, 11, 14, 1525985344.892, 89, 0, 1024, 1024, 1024, 1024, 0, 6, 3930, 3967, 3971, 3950, 3958, 3984, 0, 1, 9901, -90.000, 0.000, 150.700, 0.000, 0.000, -3.000, 0.0, , , , , , 98, , , 0, 0, 0
38.0965879, -120.1425944, 13.800, 13:49:04.991, 13, 0.00, 0.23, 95, 0.700, 2.100, 151.900, 2, 100, 100, 24, 23785, -17953, 5216, 5491, 11, 14, 1525985344.992, 93, 0, 1024, 1024, 1024, 1024, 0, 6, 3930, 3967, 3971, 3950, 3958, 3984, 0, 1, 10001, -90.000, 0.000, 150.700, 0.000, 0.000, -2.900, 0.0, , , , , , 98, , , 0, 0, 0
38.0965880, -120.1425944, 14.100, 13:49:05.091, 13, 0.00, 0.22, 95, 0.500, 1.900, 151.700, 2, 100, 100, 24, 23785, -17953, 5216, 5491, 11, 14, 1525985345.092, 74, 0, 1024, 1024, 1024, 1024, 0, 6, 3930, 3967, 3971, 3950, 3958, 3984, 0, 1, 10101, -90.000, 0.000, 150.700, 0.000, 0.000, -2.900, 0.0, , , , , , 98, , , 0, 0, 0
38.0965880, -120.1425945, 14.400, 13:49:05.190, 13, 0.00, 0.21, 95, 0.500, 1.600, 151.500, 2, 100, 100, 24, 23785, -17953, 5216, 5491, 11, 14, 1525985345.191, 89, 0, 1024, 1024, 1024, 1024, 0, 6, 3930, 3967, 3971, 3950, 3958, 3984, 0, 1, 10200, -90.000, 0.000, 150.600, 0.000, 0.000, -2.900, 0.0, , , , , , 98, , , 0, 0, 0
38.0965880, -120.1425946, 14.700, 13:49:05.291, 13, 0.00, 0.20, 95, 0.700, 1.600, 151.300, 2, 100, 100, 24, 23785, -17953, 5216, 5491, 11, 14, 1525985345.292, 83, 0, 1024, 1024, 1024, 1024, 0, 6, 3932, 3973, 3971, 3956, 3962, 3985, 0, 1, 10301, -90.000, 0.000, 150.700, 0.000, 0.000, -2.900, 0.0, , , , , , 98, , , 0, 0, 0
38.0965881, -120.1425947, 15.000, 13:49:05.391, 15, 0.00, 0.20, 95, 0.900, 1.500, 151.200, 2, 100, 98, 24, 23785, -17953, 5216, 5491, 11, 14, 1525985345.392, 86, 0, 1024, 1024, 1024, 1024, 0, 6, 3932, 3973, 3971, 3956, 3962, 3985, 0, 1, 10401, -90.000, 0.000, 150.700, 0.000, 0.000, -2.900, 0.0, , , , , , 98, , , 0, 0, 0
38.0965881, -120.1425947, 15.300, 13:49:05.491, 15, 0.00, 0.19, 95, 0.800, 1.500, 151.200, 2, 100, 98, 24, 23785, -17953, 5216, 5491, 11, 14, 1525985345.492, 83, 0, 1024, 1024, 1024, 1024, 0, 6, 3932, 3973, 3971, 3956, 3962, 3985, 0, 1, 10502, -90.000, 0.000, 150.700, 0.000, 0.000, -2.800, 0.0, , , , , , 98, , , 0, 0, 0
38.0965881, -120.1425948, 15.500, 13:49:05.591, 16, 0.00, 0.19, 95, 0.600, 1.500, 151.300, 2, 100, 98, 24, 23785, -17953, 5216, 5491, 11, 14, 1525985345.592, 59, 0, 1024, 1024, 1024, 1024, 0, 6, 3932, 3973, 3971, 3956, 3962, 3985, 0, 1, 10601, -90.000, 0.000, 150.700, 0.000, 0.000, -2.800, 0.0, , , , , , 98, , , 0, 0, 0
38.0965881, -120.1425949, 15.800, 13:49:05.691, 16, 0.00, 0.18, 95, 0.300, 1.500, 151.400, 2, 100, 98, 24, 23785, -17953, 5216, 5491, 11, 14, 1525985345.692, 64, 0, 1024, 1024, 1024, 1024, 0, 6, 3932, 3973, 3971, 3956, 3962, 3985, 0, 1, 10701, -90.000, 0.000, 150.700, 0.000, 0.000, -2.900, 0.0, , , , , , 98, , , 0, 0, 0
38.0965881, -120.1425950, 16.100, 13:49:05.791, 16, 0.00, 0.17, 95, 0.000, 1.400, 151.600, 2, 100, 98, 24, 23785, -17953, 5216, 5491, 11, 14, 1525985345.792, 51, 0, 1024, 1024, 1024, 1024, 0, 6, 3932, 3973, 3971, 3956, 3962, 3985, 0, 1, 10801, -90.000, 0.000, 150.700, 0.000, 0.000, -2.900, 0.0, , , , , , 98, , , 0, 0, 0
38.0965881, -120.1425951, 16.400, 13:49:05.891, 16, 0.00, 0.16, 95, 0.000, 1.400, 151.700, 2, 100, 95, 24, 23785, -17953, 5216, 5491, 11, 14, 1525985345.892, 70, 0, 1024, 1024, 1024, 1024, 0, 6, 3932, 3973, 3971, 3956, 3962, 3985, 0, 1, 10901, -89.900, 0.000, 150.700, 0.000, 0.000, -2.900, 0.0, , , , , , 98, , , 0, 0, 0
38.0965881, -120.1425952, 16.700, 13:49:05.991, 16, 0.00, 0.15, 95, 0.000, 1.500, 151.900, 2, 100, 95, 24, 23785, -17953, 5216, 5491, 11, 14, 1525985345.992, 58, 0, 1024, 1024, 1024, 1024, 0, 6, 3932, 3973, 3971, 3956, 3962, 3985, 0, 1, 11001, -89.900, 0.000, 150.600, 0.000, 0.000, -2.800, 0.0, , , , , , 98, , , 0, 0, 0
38.0965881, -120.1425952, 17.000, 13:49:06.091, 16, 0.00, 0.15, 95, 0.000, 1.700, 152.000, 2, 100, 95, 24, 23785, -17953, 5216, 5491, 11, 14, 1525985346.092, 58, 0, 1024, 1024, 1024, 1024, 0, 6, 3932, 3973, 3971, 3956, 3962, 3985, 0, 1, 11101, -89.900, 0.000, 150.600, 0.000, 0.000, -2.800, 0.0, , , , , , 98, , , 0, 0, 0
38.0965880, -120.1425953, 17.300, 13:49:06.195, 15, 0.00, 0.15, 95, 0.000, 1.700, 152.000, 2, 100, 95, 24, 23785, -17953, 5216, 5491, 11, 14, 1525985346.198, 11, 0, 1024, 1024, 1024, 1024, 0, 6, 3932, 3973, 3971, 3956, 3962, 3985, 0, 1, 11207, -89.900, 0.000, 150.600, 0.000, 0.000, -2.900, 0.0, , , , , , 98, , , 0, 0, 0
38.0965880, -120.1425954, 17.600, 13:49:06.291, 15, 0.00, 0.14, 95, -0.100, 1.800, 151.900, 2, 100, 95, 24, 23695, -18639, 5216, 5491, 11, 14, 1525985346.292, 40, 0, 1024, 1024, 1024, 1024, 0, 6, 3932, 3973, 3971, 3956, 3962, 3985, 0, 1, 11301, -89.900, 0.000, 150.600, 0.000, 0.000, -3.000, 0.0, , , , , , 98, , , 0, 0, 0
38.0965880, -120.1425955, 17.900, 13:49:06.391, 16, 0.00, 0.14, 95, -0.200, 1.600, 151.800, 2, 100, 93, 24, 23695, -18639, 5216, 5491, 11, 14, 1525985346.391, 25, 0, 1024, 1024, 1024, 1024, 0, 6, 3926, 3957, 3955, 3942, 3950, 3970, 0, 1, 11401, -90.000, 0.000, 150.600, 0.000, 0.000, -2.900, 0.0, , , , , , 98, , , 0, 0, 0
38.0965881, -120.1425955, 18.200, 13:49:06.491, 16, 0.00, 0.14, 95, 0.000, 1.500, 151.700, 2, 100, 93, 24, 23695, -18639, 5216, 5491, 11, 14, 1525985346.492, 21, 0, 1024, 1024, 1024, 1024, 0, 6, 3926, 3957, 3955, 3942, 3950, 3970, 0, 1, 11501, -90.000, 0.000, 150.700, 0.000, 0.000, -2.900, 0.0, , , , , , 98, , , 0, 0, 0
38.0965881, -120.1425955, 18.500, 13:49:06.591, 15, 0.00, 0.14, 95, 0.100, 1.400, 151.800, 2, 100, 93, 24, 23695, -18639, 5216, 5491, 11, 14, 1525985346.592, 30, 0, 1024, 1024, 1024, 1024, 0, 6, 3926, 3957, 3955, 3942, 3950, 3970, 0, 1, 11601, -89.900, 0.000, 150.700, 0.000, 0.000, -3.000, 0.0, , , , , , 98, , , 0, 0, 0
38.0965881, -120.1425955, 18.800, 13:49:06.691, 15, 0.00, 0.13, 95, 0.300, 1.400, 151.800, 2, 100, 93, 24, 23695, -18639, 5216, 5491, 11, 14, 1525985346.692, 41, 0, 1024, 1024, 1024, 1024, 0, 6, 3926, 3957, 3955, 3942, 3950, 3970, 0, 1, 11701, -90.000, 0.000, 150.700, 0.000, 0.000, -2.900, 0.0, , , , , , 98, , , 0, 0, 0
38.0965881, -120.1425955, 19.100, 13:49:06.791, 16, 0.00, 0.13, 95, 0.500, 1.500, 151.800, 2, 100, 93, 24, 23695, -18639, 5216, 5491, 11, 14, 1525985346.792, 8, 0, 1024, 1024, 1024, 1024, 0, 6, 3926, 3957, 3955, 3942, 3950, 3970, 0, 1, 11801, -89.900, 0.000, 150.600, 0.000, 0.000, -2.900, 0.0, , , , , , 98, , , 0, 0, 0
38.0965881, -120.1425955, 19.400, 13:49:06.891, 16, 0.00, 0.13, 95, 0.600, 1.600, 151.800, 2, 100, 96, 24, 23695, -18639, 5216, 5491, 11, 14, 1525985346.891, 30, 0, 1024, 1024, 1024, 1024, 0, 6, 3926, 3957, 3955, 3942, 3950, 3970, 0, 1, 11901, -89.900, 0.000, 150.700, 0.000, 0.000, -2.900, 0.0, , , , , , 98, , , 0, 0, 0
38.0965881, -120.1425955, 19.400, 13:49:06.991, 16, 0.00, 0.13, 95, 0.600, 1.600, 151.800, 2, 100, 96, 24, 23695, -18639, 5216, 5491, 11, 14, 1525985346.991, 131, 0, 1024, 1024, 1024, 1024, 0, 6, 3926, 3957, 3955, 3942, 3950, 3970, 0, 1, 12001, -89.900, 0.000, 150.700, 0.000, 0.000, -2.900, 0.0, , , , , , 98, , , 0, 0, 0
38.0965881, -120.1425956, 20.000, 13:49:07.091, 16, 0.00, 0.13, 95, 0.300, 1.700, 151.800, 2, 100, 96, 24, 23695, -18639, 5216, 5491, 11, 14, 1525985347.092, 76, 0, 1024, 1024, 1024, 1024, 0, 6, 3926, 3957, 3955, 3942, 3950, 3970, 0, 1, 12101, -90.000, 0.000, 150.600, 0.000, 0.000, -2.900, 0.0, , , , , , 98, , , 0, 0, 0
38.0965881, -120.1425956, 20.000, 13:49:07.191, 16, 0.00, 0.13, 95, 0.300, 1.700, 151.800, 2, 100, 96, 24, 23695, -18639, 5216, 5491, 11, 14, 1525985347.192, 177, 0, 1024, 1024, 1024, 1024, 0, 6, 3926, 3957, 3955, 3942, 3950, 3970, 0, 1, 12201, -90.000, 0.000, 150.600, 0.000, 0.000, -2.900, 0.0, , , , , , 98, , , 0, 0, 0
38.0965881, -120.1425957, 20.600, 13:49:07.291, 16, 0.00, 0.12, 95, 0.000, 1.900, 151.800, 2, 100, 96, 24, 23695, -18639, 5216, 5491, 11, 14, 1525985347.292, 68, 0, 1024, 1024, 1024, 1024, 0, 6, 3926, 3957, 3955, 3942, 3950, 3970, 0, 1, 12301, -89.900, 0.000, 150.600, 0.000, 0.000, -2.900, 0.0, , , , , , 98, , , 0, 0, 0
38.0965881, -120.1425958, 21.200, 13:49:07.406, 16, 0.00, 0.12, 95, -0.100, 1.900, 151.700, 2, 100, 95, 24, 23631, -19104, 5216, 5491, 11, 14, 1525985347.407, 10, 0, 1024, 1024, 1024, 1024, 0, 6, 3926, 3957, 3955, 3942, 3950, 3970, 0, 1, 12416, -89.900, 0.000, 150.700, 0.000, 0.000, -2.900, 0.0, , , , , , 98, , , 0, 0, 0
38.0965881, -120.1425958, 21.200, 13:49:07.491, 16, 0.00, 0.12, 95, -0.100, 1.900, 151.700, 2, 100, 95, 24, 23631, -19104, 5216, 5491, 11, 14, 1525985347.492, 95, 0, 1024, 1024, 1024, 1024, 0, 6, 3903, 3948, 3946, 3928, 3939, 3957, 0, 1, 12502, -89.900, 0.000, 150.700, 0.000, 0.000, -2.900, 0.0, , , , , , 98, , , 0, 0, 0
38.0965880, -120.1425959, 21.500, 13:49:07.591, 16, 0.00, 0.11, 95, -0.100, 1.700, 151.700, 2, 100, 95, 24, 23631, -19104, 5216, 5491, 11, 14, 1525985347.592, 95, 0, 1024, 1024, 1024, 1024, 0, 6, 3903, 3948, 3946, 3928, 3939, 3957, 0, 1, 12601, -89.900, 0.000, 150.700, 0.000, 0.000, -2.900, 0.0, , , , , , 98, , , 0, 0, 0
38.0965880, -120.1425959, 21.800, 13:49:07.691, 16, 0.00, 0.11, 95, 0.000, 1.600, 151.600, 2, 100, 95, 24, 23631, -19104, 5216, 5491, 11, 14, 1525985347.692, 62, 0, 1024, 1024, 1024, 1024, 0, 6, 3903, 3948, 3946, 3928, 3939, 3957, 0, 1, 12701, -89.900, 0.000, 150.700, 0.000, 0.000, -2.900, 0.0, , , , , , 98, , , 0, 0, 0
38.0965880, -120.1425960, 22.100, 13:49:07.791, 16, 0.00, 0.11, 95, 0.000, 1.500, 151.600, 2, 100, 95, 24, 23631, -19104, 5216, 5491, 11, 14, 1525985347.792, 66, 0, 1024, 1024, 1024, 1024, 0, 6, 3903, 3948, 3946, 3928, 3939, 3957, 0, 1, 12801, -90.000, 0.000, 150.600, 0.000, 0.000, -2.900, 0.0, , , , , , 98, , , 0, 0, 0
38.0965880, -120.1425960, 22.400, 13:49:07.891, 16, 0.00, 0.11, 95, 0.100, 1.500, 151.600, 2, 100, 94, 24, 23631, -19104, 5216, 5491, 11, 14, 1525985347.892, 53, 0, 1024, 1024, 1024, 1024, 0, 6, 3903, 3948, 3946, 3928, 3939, 3957, 0, 1, 12901, -90.000, 0.000, 150.700, 0.000, 0.000, -2.900, 0.0, , , , , , 98, , , 0, 0, 0
38.0965880, -120.1425961, 22.700, 13:49:07.990, 16, 0.00, 0.11, 95, 0.100, 1.500, 151.600, 2, 100, 94, 24, 23631, -19104, 5216, 5491, 11, 14, 1525985347.991, 64, 0, 1024, 1024, 1024, 1024, 0, 6, 3903, 3948, 3946, 3928, 3939, 3957, 0, 1, 13000, -89.900, 0.000, 150.700, 0.000, 0.000, -3.000, 0.0, , , , , , 98, , , 0, 0, 0
38.0965880, -120.1425961, 23.000, 13:49:08.091, 16, 0.00, 0.11, 95, 0.000, 1.600, 151.600, 2, 100, 94, 24, 23631, -19104, 5216, 5491, 11, 14, 1525985348.092, 48, 0, 1024, 1024, 1024, 1024, 0, 6, 3903, 3948, 3946, 3928, 3939, 3957, 0, 1, 13101, -90.000, 0.000, 150.700, 0.000, 0.000, -3.000, 0.0, , , , , , 98, , , 0, 0, 0
38.0965880, -120.1425961, 23.300, 13:49:08.191, 16, 0.00, 0.11, 95, 0.000, 1.500, 151.600, 2, 100, 94, 24, 23631, -19104, 5216, 5491, 11, 14, 1525985348.191, 37, 0, 1024, 1024, 1024, 1024, 0, 6, 3903, 3948, 3946, 3928, 3939, 3957, 0, 1, 13201, -90.000, 0.000, 150.700, 0.000, 0.000, -2.900, 0.0, , , , , , 98, , , 0, 0, 0
38.0965880, -120.1425962, 23.600, 13:49:08.292, 16, 0.00, 0.11, 95, -0.100, 1.500, 151.700, 2, 100, 94, 24, 23657, -18814, 5216, 5491, 11, 14, 1525985348.293, 56, 0, 1024, 1024, 1024, 1024, 0, 6, 3916, 3954, 3943, 3931, 3938, 3962, 0, 1, 13302, -89.900, 0.000, 150.700, 0.000, 0.000, -3.000, 0.0, , , , , , 98, , , 0, 0, 0
38.0965880, -120.1425962, 23.900, 13:49:08.391, 16, 0.00, 0.11, 95, -0.100, 1.800, 151.800, 2, 100, 94, 24, 23657, -18814, 5216, 5491, 11, 14, 1525985348.392, 71, 0, 1024, 1024, 1024, 1024, 0, 6, 3916, 3954, 3943, 3931, 3938, 3962, 0, 1, 13401, -89.900, 0.000, 150.700, 0.000, 0.000, -2.900, 0.0, , , , , , 98, , , 0, 0, 0
38.0965879, -120.1425962, 24.200, 13:49:08.491, 16, 0.00, 0.11, 95, 0.000, 2.100, 151.900, 2, 100, 94, 24, 23657, -18814, 5216, 5491, 11, 14, 1525985348.492, 60, 0, 1024, 1024, 1024, 1024, 0, 6, 3916, 3954, 3943, 3931, 3938, 3962, 0, 1, 13501, -89.900, 0.000, 150.700, 0.000, 0.000, -2.900, 0.0, , , , , , 98, , , 0, 0, 0
38.0965879, -120.1425962, 24.500, 13:49:08.591, 16, 0.00, 0.11, 95, 0.400, 2.400, 151.900, 2, 100, 94, 24, 23657, -18814, 5216, 5491, 11, 14, 1525985348.592, 65, 0, 1024, 1024, 1024, 1024, 0, 6, 3916, 3954, 3943, 3931, 3938, 3962, 0, 1, 13601, -89.900, 0.000, 150.700, 0.000, 0.000, -3.000, 0.0, , , , , , 98, , , 0, 0, 0
38.0965879, -120.1425961, 24.800, 13:49:08.691, 16, 0.00, 0.12, 95, 0.600, 3.000, 151.900, 2, 100, 94, 24, 23657, -18814, 5216, 5491, 11, 14, 1525985348.692, 41, 0, 1024, 1024, 1024, 1024, 0, 6, 3916, 3954, 3943, 3931, 3938, 3962, 0, 1, 13701, -89.900, 0.000, 150.600, 0.000, 0.000, -3.000, 0.0, , , , , , 98, , , 0, 0, 0
38.0965878, -120.1425961, 25.100, 13:49:08.791, 16, 0.00, 0.12, 95, 0.600, 3.100, 151.700, 2, 100, 94, 24, 23657, -18814, 5216, 5491, 11, 14, 1525985348.792, 42, 0, 1024, 1024, 1024, 1024, 0, 6, 3916, 3954, 3943, 3931, 3938, 3962, 0, 1, 13801, -89.900, 0.000, 150.600, 0.000, 0.000, -2.900, 0.0, , , , , , 98, , , 0, 0, 0
38.0965878, -120.1425961, 25.400, 13:49:08.891, 16, 0.00, 0.13, 95, 0.400, 3.000, 151.500, 2, 100, 96, 24, 23657, -18814, 5216, 5491, 11, 14, 1525985348.892, 43, 0, 1024, 1024, 1024, 1024, 0, 6, 3916, 3954, 3943, 3931, 3938, 3962, 0, 1, 13901, -89.900, 0.000, 150.600, 0.000, 0.000, -3.000, 0.0, , , , , , 98, , , 0, 0, 0
38.0965878, -120.1425961, 25.700, 13:49:08.990, 16, 0.00, 0.13, 95, 0.200, 3.000, 151.400, 2, 100, 96, 24, 23657, -18814, 5216, 5491, 11, 14, 1525985348.991, 30, 0, 1024, 1024, 1024, 1024, 0, 6, 3916, 3954, 3943, 3931, 3938, 3962, 0, 1, 14000, -89.900, 0.000, 150.600, 0.000, 0.000, -3.000, 0.0, , , , , , 98, , , 0, 0, 0
38.0965878, -120.1425961, 25.700, 13:49:09.090, 16, 0.00, 0.13, 95, 0.200, 3.000, 151.400, 2, 100, 96, 24, 23657, -18814, 5216, 5491, 11, 14, 1525985349.091, 130, 0, 1024, 1024, 1024, 1024, 0, 6, 3916, 3954, 3943, 3931, 3938, 3962, 0, 1, 14100, -89.900, 0.000, 150.700, 0.000, 0.000, -3.000, 0.0, , , , , , 98, , , 0, 0, 0
38.0965877, -120.1425962, 26.300, 13:49:09.196, 16, 0.00, 0.14, 95, -0.100, 2.900, 151.600, 2, 100, 96, 24, 23657, -18814, 5216, 5491, 11, 14, 1525985349.197, 8, 0, 1024, 1024, 1024, 1024, 0, 6, 3916, 3954, 3943, 3931, 3938, 3962, 0, 1, 14207, -89.900, 0.000, 150.700, 0.000, 0.000, -2.900, 0.0, , , , , , 98, , , 0, 0, 0
38.0965876, -120.1425962, 26.600, 13:49:09.291, 16, 0.00, 0.14, 95, -0.200, 3.100, 151.700, 2, 100, 96, 25, 23611, -18580, 5216, 5491, 11, 14, 1525985349.292, 28, 0, 1024, 1024, 1024, 1024, 0, 6, 3916, 3954, 3943, 3931, 3938, 3962, 0, 1, 14301, -89.900, 0.000, 150.700, 0.000, 0.000, -2.900, 0.0, , , , , , 98, , , 0, 0, 0
38.0965876, -120.1425962, 26.600, 13:49:09.391, 16, 0.00, 0.14, 95, -0.200, 3.100, 151.700, 2, 100, 96, 25, 23611, -18580, 5216, 5491, 11, 14, 1525985349.392, 128, 0, 1024, 1024, 1024, 1024, 0, 6, 3910, 3939, 3941, 3920, 3941, 3960, 0, 1, 14401, -89.900, 0.000, 150.700, 0.000, 0.000, -2.900, 0.0, , , , , , 98, , , 0, 0, 0
38.0965876, -120.1425962, 27.200, 13:49:09.491, 16, 0.00, 0.15, 95, -0.300, 3.000, 151.600, 2, 100, 96, 25, 23611, -18580, 5216, 5491, 11, 14, 1525985349.492, 19, 0, 1024, 1024, 1024, 1024, 0, 6, 3910, 3939, 3941, 3920, 3941, 3960, 0, 1, 14501, -89.900, 0.000, 150.700, 0.000, 0.000, -3.000, 0.0, , , , , , 98, , , 0, 0, 0
38.0965876, -120.1425962, 27.200, 13:49:09.591, 16, 0.00, 0.15, 95, -0.300, 3.000, 151.600, 2, 100, 96, 25, 23611, -18580, 5216, 5491, 11, 14, 1525985349.591, 119, 0, 1024, 1024, 1024, 1024, 0, 6, 3910, 3939, 3941, 3920, 3941, 3960, 0, 1, 14601, -89.900, 0.000, 150.700, 0.000, 0.000, -3.000, 0.0, , , , , , 98, , , 0, 0, 0
38.0965876, -120.1425962, 27.500, 13:49:09.691, 16, 0.00, 0.15, 95, -0.300, 2.900, 151.500, 2, 100, 96, 25, 23611, -18580, 5216, 5491, 11, 14, 1525985349.692, 86, 0, 1024, 1024, 1024, 1024, 0, 6, 3910, 3939, 3941, 3920, 3941, 3960, 0, 1, 14701, -89.900, 0.000, 150.700, 0.000, 0.000, -2.900, 0.0, , , , , , 98, , , 0, 0, 0
38.0965876, -120.1425961, 27.800, 13:49:09.791, 16, 0.00, 0.14, 95, -0.100, 2.800, 151.500, 2, 100, 96, 25, 23611, -18580, 5216, 5491, 11, 14, 1525985349.792, 87, 0, 1024, 1024, 1024, 1024, 0, 6, 3910, 3939, 3941, 3920, 3941, 3960, 0, 1, 14801, -89.900, 0.000, 150.700, 0.000, 0.000, -3.000, 0.0, , , , , , 98, , , 0, 0, 0
38.0965876, -120.1425960, 28.400, 13:49:09.891, 16, 0.00, 0.15, 95, 0.600, 3.100, 151.700, 2, 100, 96, 25, 23611, -18580, 5216, 5491, 11, 14, 1525985349.893, 82, 0, 1024, 1024, 1024, 1024, 0, 6, 3910, 3939, 3941, 3920, 3941, 3960, 0, 1, 14902, -89.900, 0.000, 150.700, 0.000, 0.000, -3.000, 0.0, , , , , , 98, , , 0, 0, 0
38.0965877, -120.1425958, 29.000, 13:49:09.992, 16, 0.10, 0.15, 95, 1.300, 3.600, 151.800, 2, 100, 96, 25, 23611, -18580, 5216, 5491, 11, 14, 1525985349.992, 3, 0, 1024, 1024, 1024, 1024, 0, 6, 3910, 3939, 3941, 3920, 3941, 3960, 0, 1, 15002, -89.900, 0.000, 150.700, 0.000, 0.100, -2.900, 0.0, , , , , , 98, , , 0, 0, 0
38.0965877, -120.1425958, 29.000, 13:49:10.090, 16, 0.10, 0.15, 95, 1.300, 3.600, 151.800, 2, 100, 96, 25, 23611, -18580, 5216, 5491, 11, 14, 1525985350.091, 101, 0, 1024, 1024, 1024, 1024, 0, 6, 3910, 3939, 3941, 3920, 3941, 3960, 0, 1, 15100, -89.900, 0.000, 150.700, 0.000, 0.100, -2.900, 0.0, , , , , , 98, , , 0, 0, 0
38.0965876, -120.1425957, 29.300, 13:49:10.191, 16, 0.10, 0.16, 95, 1.400, 3.700, 151.900, 2, 100, 96, 25, 23611, -18580, 5216, 5491, 11, 14, 1525985350.192, 52, 0, 1024, 1024, 1024, 1024, 0, 6, 3910, 3939, 3941, 3920, 3941, 3960, 0, 1, 15201, -89.900, 0.000, 150.700, 0.000, 0.100, -2.900, 0.0, , , , , , 98, , , 0, 0, 0
38.0965876, -120.1425956, 29.600, 13:49:10.291, 16, 0.00, 0.17, 95, 1.400, 3.800, 152.000, 2, 100, 96, 25, 23585, -18580, 5216, 5491, 11, 14, 1525985350.292, 70, 0, 1024, 1024, 1024, 1024, 0, 6, 3910, 3939, 3941, 3920, 3941, 3960, 0, 1, 15301, -89.900, 0.000, 150.700, 0.000, 0.000, -2.900, 0.0, , , , , , 98, , , 0, 0, 0
38.0965876, -120.1425955, 29.900, 13:49:10.391, 16, 0.00, 0.17, 95, 1.300, 3.600, 152.000, 2, 100, 97, 25, 23585, -18580, 5216, 5491, 11, 14, 1525985350.392, 71, 0, 1024, 1024, 1024, 1024, 0, 6, 3910, 3939, 3941, 3920, 3941, 3960, 0, 1, 15401, -89.900, 0.000, 150.700, 0.000, 0.000, -2.900, 0.0, , , , , , 98, , , 0, 0, 0
38.0965877, -120.1425955, 30.200, 13:49:10.491, 16, 0.00, 0.16, 95, 1.200, 3.500, 151.800, 2, 100, 97, 25, 23585, -18580, 5216, 5491, 11, 14, 1525985350.492, 71, 0, 1024, 1024, 1024, 1024, 0, 6, 3910, 3939, 3941, 3920, 3941, 3960, 0, 1, 15501, -89.900, 0.000, 150.700, 0.000, 0.000, -2.900, 0.0, , , , , , 98, , , 0, 0, 0
38.0965877, -120.1425955, 30.500, 13:49:10.591, 16, 0.00, 0.16, 95, 1.100, 3.200, 151.700, 2, 100, 97, 25, 23585, -18580, 5216, 5491, 11, 14, 1525985350.592, 83, 0, 1024, 1024, 1024, 1024, 0, 6, 3910, 3939, 3941, 3920, 3941, 3960, 0, 1, 15601, -90.000, 0.000, 150.700, 0.000, 0.000, -2.800, 0.0, , , , , , 98, , , 0, 0, 0
38.0965878, -120.1425956, 30.700, 13:49:10.691, 16, 0.00, 0.16, 95, 0.600, 3.000, 151.600, 2, 100, 97, 25, 23585, -18580, 5216, 5491, 11, 14, 1525985350.691, 37, 0, 1024, 1024, 1024, 1024, 0, 6, 3910, 3939, 3941, 3920, 3941, 3960, 0, 1, 15701, -90.000, 0.000, 150.700, 0.000, 0.000, -2.900, 0.0, , , , , , 98, , , 0, 0, 0
38.0965878, -120.1425956, 31.000, 13:49:10.790, 16, 0.00, 0.15, 95, 0.400, 2.700, 151.700, 2, 100, 97, 25, 23585, -18580, 5216, 5491, 11, 14, 1525985350.791, 55, 0, 1024, 1024, 1024, 1024, 0, 6, 3910, 3939, 3941, 3920, 3941, 3960, 0, 1, 15800, -90.000, 0.000, 150.700, 0.000, 0.000, -2.900, 0.0, , , , , , 98, , , 0, 0, 0
38.0965879, -120.1425956, 31.400, 13:49:10.891, 16, 0.00, 0.14, 95, 0.300, 2.400, 151.800, 2, 100, 99, 25, 23585, -18580, 5216, 5491, 11, 14, 1525985350.892, 54, 0, 1024, 1024, 1024, 1024, 0, 6, 3910, 3939, 3941, 3920, 3941, 3960, 0, 1, 15901, -90.000, 0.000, 150.700, 0.000, 0.000, -3.000, 0.0, , , , , , 98, , , 0, 0, 0
38.0965879, -120.1425956, 31.700, 13:49:10.991, 16, 0.00, 0.14, 95, 0.500, 2.200, 151.900, 2, 100, 99, 25, 23585, -18580, 5216, 5491, 11, 14, 1525985350.992, 21, 0, 1024, 1024, 1024, 1024, 0, 6, 3910, 3939, 3941, 3920, 3941, 3960, 0, 1, 16001, -90.000, 0.000, 150.600, 0.000, 0.000, -3.000, 0.0, , , , , , 98, , , 0, 0, 0
38.0965880, -120.1425956, 32.000, 13:49:11.091, 16, 0.00, 0.14, 95, 1.200, 2.200, 152.000, 2, 100, 99, 25, 23585, -18580, 5216, 5491, 11, 14, 1525985351.091, 35, 0, 1024, 1024, 1024, 1024, 0, 6, 3910, 3939, 3941, 3920, 3941, 3960, 0, 1, 16101, -90.000, 0.000, 150.700, 0.000, 0.000, -3.000, 0.0, , , , , , 98, , , 0, 0, 0
38.0965881, -120.1425955, 32.300, 13:49:11.191, 16, 0.00, 0.14, 95, 1.700, 2.200, 152.000, 2, 100, 99, 25, 23585, -18580, 5216, 5491, 11, 14, 1525985351.192, 12, 0, 1024, 1024, 1024, 1024, 0, 6, 3910, 3939, 3941, 3920, 3941, 3960, 0, 1, 16201, -90.000, 0.000, 150.700, 0.000, 0.000, -3.000, 0.0, , , , , , 98, , , 0, 0, 0
38.0965882, -120.1425954, 32.600, 13:49:11.291, 16, 0.00, 0.13, 95, 1.900, 2.000, 152.000, 2, 100, 99, 25, 23534, -18939, 5216, 5491, 11, 14, 1525985351.291, 7, 0, 1024, 1024, 1024, 1024, 0, 6, 3910, 3939, 3941, 3920, 3941, 3960, 0, 1, 16301, -90.000, 0.000, 150.600, 0.000, 0.000, -3.000, 0.0, , , , , , 98, , , 0, 0, 0
38.0965883, -120.1425953, 32.900, 13:49:11.391, 16, 0.00, 0.13, 95, 2.000, 1.800, 151.900, 2, 100, 97, 25, 23534, -18939, 5216, 5491, 11, 14, 1525985351.392, 32, 0, 1024, 1024, 1024, 1024, 0, 6, 3910, 3939, 3941, 3920, 3941, 3960, 0, 1, 16401, -90.000, 0.000, 150.700, 0.000, 0.000, -3.000, 0.0, , , , , , 98, , , 0, 0, 0
38.0965883, -120.1425953, 32.900, 13:49:11.491, 16, 0.00, 0.13, 95, 2.000, 1.800, 151.900, 2, 100, 97, 25, 23534, -18939, 5216, 5491, 11, 14, 1525985351.492, 132, 0, 1024, 1024, 1024, 1024, 0, 6, 3910, 3939, 3941, 3920, 3941, 3960, 0, 1, 16501, -90.000, 0.000, 150.700, 0.000, 0.000, -3.000, 0.0, , , , , , 98, , , 0, 0, 0
38.0965884, -120.1425951, 33.500, 13:49:11.591, 16, 0.10, 0.15, 95, 2.500, 2.100, 151.400, 2, 100, 97, 25, 23534, -18939, 5216, 5491, 11, 14, 1525985351.592, 22, 0, 1024, 1024, 1024, 1024, 0, 6, 3910, 3939, 3941, 3920, 3941, 3960, 0, 1, 16602, -90.000, 0.000, 150.700, 0.000, 0.100, -3.100, 0.0, , , , , , 98, , , 0, 0, 0
38.0965884, -120.1425949, 33.800, 13:49:11.694, 16, 0.10, 0.16, 95, 2.700, 2.300, 151.300, 2, 100, 97, 25, 23534, -18939, 5216, 5491, 11, 14, 1525985351.694, 3, 0, 1024, 1024, 1024, 1024, 0, 6, 3910, 3939, 3941, 3920, 3941, 3960, 0, 1, 16704, -90.000, 0.000, 150.700, 0.000, 0.100, -3.000, 0.0, , , , , , 98, , , 0, 0, 0
38.0965884, -120.1425946, 34.500, 13:49:11.791, 16, 0.10, 0.19, 95, 3.000, 3.300, 151.300, 2, 100, 97, 25, 23534, -18939, 5216, 5491, 11, 14, 1525985351.791, 18, 0, 1024, 1024, 1024, 1024, 0, 6, 3894, 3947, 3928, 3915, 3927, 3959, 0, 1, 16801, -89.900, 0.000, 150.700, 0.000, 0.100, -3.000, 0.0, , , , , , 98, , , 0, 0, 0
38.0965884, -120.1425946, 34.500, 13:49:11.892, 16, 0.10, 0.19, 95, 3.000, 3.300, 151.300, 2, 100, 94, 25, 23534, -18939, 5216, 5491, 11, 14, 1525985351.893, 119, 0, 1024, 1024, 1024, 1024, 0, 6, 3894, 3947, 3928, 3915, 3927, 3959, 0, 1, 16902, -89.900, 0.000, 150.700, 0.000, 0.100, -3.000, 0.0, , , , , , 98, , , 0, 0, 0
38.0965883, -120.1425942, 35.000, 13:49:11.991, 16, 0.10, 0.22, 95, 3.300, 4.500, 152.000, 2, 100, 94, 25, 23534, -18939, 5216, 5491, 11, 14, 1525985351.991, 4, 0, 1024, 1024, 1024, 1024, 0, 6, 3894, 3947, 3928, 3915, 3927, 3959, 0, 1, 17001, -89.900, 0.000, 150.700, 0.000, 0.100, -2.800, 0.0, , , , , , 98, , , 0, 0, 0
38.0965883, -120.1425940, 35.300, 13:49:12.092, 16, 0.10, 0.24, 95, 3.200, 4.600, 152.300, 2, 100, 94, 25, 23534, -18939, 5216, 5491, 11, 14, 1525985352.092, 6, 0, 1024, 1024, 1024, 1024, 0, 6, 3894, 3947, 3928, 3915, 3927, 3959, 0, 1, 17102, -89.900, 0.000, 150.700, 0.000, 0.100, -2.900, 0.0, , , , , , 98, , , 0, 0, 0
38.0965882, -120.1425939, 35.600, 13:49:12.192, 16, 0.10, 0.25, 95, 3.500, 4.500, 152.500, 2, 100, 94, 25, 23534, -18939, 5216, 5491, 11, 14, 1525985352.193, 7, 0, 1024, 1024, 1024, 1024, 0, 6, 3894, 3947, 3928, 3915, 3927, 3959, 0, 1, 17202, -89.900, 0.000, 150.700, 0.000, 0.100, -3.000, 0.0, , , , , , 98, , , 0, 0, 0
38.0965882, -120.1425939, 35.600, 13:49:12.291, 16, 0.10, 0.25, 95, 3.500, 4.500, 152.500, 2, 100, 94, 25, 23534, -18939, 5216, 5491, 11, 14, 1525985352.292, 107, 0, 1024, 1024, 1024, 1024, 0, 6, 3894, 3947, 3928, 3915, 3927, 3959, 0, 1, 17301, -89.900, 0.000, 150.700, 0.000, 0.100, -3.000, 0.0, , , , , , 98, , , 0, 0, 0
38.0965883, -120.1425937, 36.000, 13:49:12.391, 16, 0.10, 0.27, 95, 3.800, 4.500, 152.600, 2, 100, 94, 25, 23534, -18939, 5216, 5491, 11, 14, 1525985352.392, 64, 0, 1024, 1024, 1024, 1024, 0, 6, 3894, 3947, 3928, 3915, 3927, 3959, 0, 1, 17401, -89.900, 0.000, 150.700, 0.000, 0.100, -3.000, 0.0, , , , , , 98, , , 0, 0, 0
38.0965883, -120.1425936, 36.300, 13:49:12.491, 16, 0.10, 0.27, 95, 4.100, 4.200, 152.500, 2, 100, 94, 25, 23534, -18939, 5216, 5491, 11, 14, 1525985352.492, 84, 0, 1024, 1024, 1024, 1024, 0, 6, 3894, 3947, 3928, 3915, 3927, 3959, 0, 1, 17501, -89.900, 0.000, 150.700, 0.000, 0.100, -2.900, 0.0, , , , , , 98, , , 0, 0, 0
38.0965884, -120.1425935, 36.500, 13:49:12.591, 16, 0.00, 0.28, 95, 4.200, 3.800, 152.400, 2, 100, 94, 25, 23534, -18939, 5216, 5491, 11, 14, 1525985352.592, 84, 0, 1024, 1024, 1024, 1024, 0, 6, 3894, 3947, 3928, 3915, 3927, 3959, 0, 1, 17601, -89.900, 0.000, 150.700, 0.000, 0.000, -2.800, 0.0, , , , , , 98, , , 0, 0, 0
38.0965885, -120.1425935, 36.800, 13:49:12.691, 16, 0.00, 0.28, 95, 4.000, 3.400, 152.200, 2, 100, 94, 25, 23534, -18939, 5216, 5491, 11, 14, 1525985352.691, 81, 0, 1024, 1024, 1024, 1024, 0, 6, 3894, 3947, 3928, 3915, 3927, 3959, 0, 1, 17701, -90.000, 0.000, 150.700, 0.000, 0.000, -2.800, 0.0, , , , , , 98, , , 0, 0, 0
38.0965885, -120.1425935, 37.100, 13:49:12.791, 16, 0.00, 0.28, 95, 3.500, 3.100, 152.000, 2, 100, 94, 25, 23663, -17102, 5216, 5491, 11, 14, 1525985352.792, 81, 0, 1024, 1024, 1024, 1024, 0, 6, 3906, 3945, 3959, 3927, 3954, 3958, 0, 1, 17801, -90.000, 0.000, 150.700, 0.000, 0.000, -2.800, 0.0, , , , , , 98, , , 0, 0, 0
38.0965886, -120.1425935, 37.400, 13:49:12.891, 16, 0.00, 0.28, 95, 3.300, 3.000, 151.900, 2, 100, 92, 25, 23663, -17102, 5216, 5491, 11, 14, 1525985352.892, 82, 0, 1024, 1024, 1024, 1024, 0, 6, 3906, 3945, 3959, 3927, 3954, 3958, 0, 1, 17901, -90.000, 0.000, 150.700, 0.000, 0.000, -2.800, 0.0, , , , , , 98, , , 0, 0, 0
38.0965886, -120.1425935, 37.700, 13:49:12.990, 16, 0.00, 0.28, 95, 3.300, 3.000, 151.800, 2, 100, 92, 25, 23663, -17102, 5216, 5491, 11, 14, 1525985352.991, 83, 0, 1024, 1024, 1024, 1024, 0, 6, 3906, 3945, 3959, 3927, 3954, 3958, 0, 1, 18000, -90.000, 0.000, 150.600, 0.000, 0.000, -2.900, 0.0, , , , , , 98, , , 0, 0, 0
38.0965886, -120.1425935, 37.900, 13:49:13.091, 16, 0.00, 0.28, 95, 3.400, 3.100, 151.800, 2, 100, 92, 25, 23663, -17102, 5216, 5491, 11, 14, 1525985353.092, 37, 0, 1024, 1024, 1024, 1024, 0, 6, 3906, 3945, 3959, 3927, 3954, 3958, 0, 1, 18101, -89.900, 0.000, 150.700, 0.000, 0.000, -2.900, 0.0, , , , , , 98, , , 0, 0, 0
38.0965887, -120.1425935, 38.200, 13:49:13.191, 16, 0.00, 0.28, 95, 3.300, 3.200, 151.800, 2, 100, 92, 25, 23663, -17102, 5216, 5491, 11, 14, 1525985353.191, 64, 0, 1024, 1024, 1024, 1024, 0, 6, 3906, 3945, 3959, 3927, 3954, 3958, 0, 1, 18201, -90.000, 0.000, 150.700, 0.000, 0.000, -2.900, 0.0, , , , , , 98, , , 0, 0, 0
38.0965887, -120.1425934, 38.500, 13:49:13.291, 16, 0.00, 0.28, 95, 3.500, 3.400, 151.900, 2, 100, 92, 25, 23663, -17102, 5216, 5491, 11, 14, 1525985353.292, 9, 0, 1024, 1024, 1024, 1024, 0, 6, 3906, 3945, 3959, 3927, 3954, 3958, 0, 1, 18301, -89.900, 0.000, 150.700, 0.000, 0.000, -2.800, 0.0, , , , , , 98, , , 0, 0, 0
38.0965887, -120.1425934, 38.800, 13:49:13.391, 16, 0.00, 0.29, 95, 3.700, 4.100, 152.000, 2, 100, 93, 25, 23663, -17102, 5216, 5491, 11, 14, 1525985353.392, 19, 0, 1024, 1024, 1024, 1024, 0, 6, 3906, 3945, 3959, 3927, 3954, 3958, 0, 1, 18401, -89.900, 0.000, 150.700, 0.000, 0.000, -2.800, 0.0, , , , , , 98, , , 0, 0, 0
38.0965887, -120.1425934, 39.100, 13:49:13.491, 16, 0.00, 0.29, 95, 3.500, 3.600, 152.100, 2, 100, 93, 25, 23663, -17102, 5216, 5491, 11, 14, 1525985353.491, 33, 0, 1024, 1024, 1024, 1024, 0, 6, 3906, 3945, 3959, 3927, 3954, 3958, 0, 1, 18501, -90.000, 0.000, 150.700, 0.000, 0.000, -2.900, 0.0, , , , , , 98, , , 0, 0, 0
38.0965887, -120.1425935, 39.300, 13:49:13.591, 16, 0.00, 0.28, 95, 2.900, 3.300, 151.900, 2, 100, 93, 25, 23663, -17102, 5216, 5491, 11, 14, 1525985353.591, 18, 0, 1024, 1024, 1024, 1024, 0, 6, 3906, 3945, 3959, 3927, 3954, 3958, 0, 1, 18601, -90.000, 0.000, 150.700, 0.000, 0.000, -2.900, 0.0, , , , , , 98, , , 0, 0, 0
38.0965886, -120.1425936, 39.600, 13:49:13.690, 16, 0.00, 0.27, 95, 2.300, 3.200, 151.700, 2, 100, 93, 25, 23663, -17102, 5216, 5491, 11, 14, 1525985353.691, 30, 0, 1024, 1024, 1024, 1024, 0, 6, 3906, 3945, 3959, 3927, 3954, 3958, 0, 1, 18700, -89.900, 0.000, 150.600, 0.000, 0.000, -2.900, 0.0, , , , , , 98, , , 0, 0, 0
38.0965886, -120.1425936, 39.900, 13:49:13.791, 16, 0.00, 0.27, 95, 1.800, 3.300, 151.500, 2, 100, 93, 25, 23602, -18190, 5216, 5491, 11, 14, 1525985353.791, 24, 0, 1024, 1024, 1024, 1024, 0, 6, 3898, 3941, 3932, 3917, 3936, 3947, 0, 1, 18801, -89.900, 0.000, 150.700, 0.000, 0.000, -3.000, 0.0, , , , , , 98, , , 0, 0, 0
38.0965885, -120.1425937, 40.200, 13:49:13.891, 16, 0.00, 0.26, 95, 1.500, 3.600, 151.500, 2, 100, 92, 25, 23602, -18190, 5216, 5491, 11, 14, 1525985353.892, 27, 0, 1024, 1024, 1024, 1024, 0, 6, 3898, 3941, 3932, 3917, 3936, 3947, 0, 1, 18901, -89.900, 0.000, 150.700, 0.000, 0.000, -3.000, 0.0, , , , , , 98, , , 0, 0, 0
38.0965884, -120.1425938, 40.500, 13:49:13.991, 16, 0.00, 0.26, 95, 1.500, 4.000, 151.500, 2, 100, 92, 25, 23602, -18190, 5216, 5491, 11, 14, 1525985353.992, 34, 0, 1024, 1024, 1024, 1024, 0, 6, 3898, 3941, 3932, 3917, 3936, 3947, 0, 1, 19002, -89.900, 0.000, 150.700, 0.000, 0.000, -3.000, 0.0, , , , , , 98, , , 0, 0, 0
38.0965883, -120.1425939, 41.100, 13:49:14.091, 16, 0.10, 0.25, 95, 1.700, 4.500, 151.500, 2, 100, 92, 25, 23602, -18190, 5216, 5491, 11, 14, 1525985354.091, 16, 0, 1024, 1024, 1024, 1024, 0, 6, 3898, 3941, 3932, 3917, 3936, 3947, 0, 1, 19101, -89.900, 0.000, 150.700, -0.100, 0.000, -3.100, 0.0, , , , , , 98, , , 0, 0, 0
38.0965882, -120.1425939, 41.500, 13:49:14.191, 16, 0.10, 0.25, 95, 1.600, 4.900, 151.500, 2, 100, 92, 25, 23602, -18190, 5216, 5491, 11, 14, 1525985354.192, 23, 0, 1024, 1024, 1024, 1024, 0, 6, 3898, 3941, 3932, 3917, 3936, 3947, 0, 1, 19201, -89.900, 0.000, 150.700, -0.100, 0.000, -3.100, 0.0, , , , , , 98, , , 0, 0, 0
38.0965881, -120.1425940, 41.800, 13:49:14.307, 16, 0.10, 0.25, 95, 1.400, 5.200, 151.400, 2, 100, 92, 25, 23602, -18190, 5216, 5491, 11, 14, 1525985354.307, 5, 0, 1024, 1024, 1024, 1024, 0, 6, 3898, 3941, 3932, 3917, 3936, 3947, 0, 1, 19317, -89.900, 0.000, 150.700, -0.100, 0.000, -3.100, 0.0, , , , , , 98, , , 0, 0, 0
38.0965881, -120.1425940, 41.800, 13:49:14.391, 16, 0.10, 0.25, 95, 1.400, 5.200, 151.400, 2, 100, 92, 25, 23602, -18190, 5216, 5491, 11, 14, 1525985354.392, 89, 0, 1024, 1024, 1024, 1024, 0, 6, 3898, 3941, 3932, 3917, 3936, 3947, 0, 1, 19401, -89.900, 0.000, 150.700, -0.100, 0.000, -3.100, 0.0, , , , , , 98, , , 0, 0, 0
38.0965880, -120.1425940, 42.100, 13:49:14.491, 16, 0.00, 0.25, 95, 1.300, 5.300, 151.600, 2, 100, 96, 25, 23602, -18190, 5216, 5491, 11, 14, 1525985354.492, 96, 0, 1024, 1024, 1024, 1024, 0, 6, 3898, 3941, 3932, 3917, 3936, 3947, 0, 1, 19501, -89.900, 0.000, 150.700, 0.000, 0.000, -3.100, 0.0, , , , , , 98, , , 0, 0, 0
38.0965880, -120.1425942, 42.700, 13:49:14.594, 16, 0.00, 0.24, 95, 0.900, 4.800, 151.700, 2, 100, 96, 25, 23602, -18190, 5216, 5491, 11, 14, 1525985354.594, 3, 0, 1024, 1024, 1024, 1024, 0, 6, 3898, 3941, 3932, 3917, 3936, 3947, 0, 1, 19604, -89.900, 0.000, 150.700, 0.000, 0.000, -3.000, 0.0, , , , , , 98, , , 0, 0, 0
38.0965880, -120.1425943, 43.000, 13:49:14.694, 16, 0.00, 0.23, 95, 0.900, 4.400, 151.700, 2, 100, 96, 25, 23502, -19110, 5161, 5491, 11, 14, 1525985354.694, 5, 0, 1024, 1024, 1024, 1024, 0, 6, 3898, 3941, 3932, 3917, 3936, 3947, 0, 1, 19704, -90.000, 0.000, 150.700, 0.000, 0.000, -3.100, 0.0, , , , , , 98, , , 0, 0, 0
38.0965880, -120.1425943, 43.000, 13:49:14.791, 16, 0.00, 0.23, 95, 0.900, 4.400, 151.700, 2, 100, 96, 25, 23502, -19110, 5161, 5491, 11, 14, 1525985354.792, 102, 0, 1024, 1024, 1024, 1024, 0, 6, 3889, 3929, 3923, 3905, 3918, 3938, 0, 1, 19801, -90.000, 0.000, 150.700, 0.000, 0.000, -3.100, 0.0, , , , , , 98, , , 0, 0, 0
38.0965880, -120.1425944, 43.300, 13:49:14.891, 16, 0.00, 0.22, 95, 1.100, 4.100, 151.500, 2, 100, 96, 25, 23502, -19110, 5161, 5491, 11, 14, 1525985354.892, 87, 0, 1024, 1024, 1024, 1024, 0, 6, 3889, 3929, 3923, 3905, 3918, 3938, 0, 1, 19902, -90.000, 0.000, 150.700, 0.000, 0.000, -3.100, 0.0, , , , , , 98, , , 0, 0, 0
38.0965880, -120.1425945, 43.700, 13:49:14.991, 16, 0.00, 0.21, 95, 0.800, 3.700, 151.400, 2, 100, 96, 25, 23502, -19110, 5161, 5491, 11, 14, 1525985354.992, 89, 0, 1024, 1024, 1024, 1024, 0, 6, 3889, 3929, 3923, 3905, 3918, 3938, 0, 1, 20001, -90.000, 0.000, 150.700, 0.000, 0.000, -3.000, 0.0, , , , , , 98, , , 0, 0, 0
38.0965881, -120.1425946, 44.000, 13:49:15.091, 16, 0.00, 0.20, 95, 0.600, 3.500, 151.300, 2, 100, 96, 25, 23502, -19110, 5161, 5491, 11, 14, 1525985355.092, 90, 0, 1024, 1024, 1024, 1024, 0, 6, 3889, 3929, 3923, 3905, 3918, 3938, 0, 1, 20101, -90.000, 0.000, 150.700, 0.000, 0.000, -3.000, 0.0, , , , , , 98, , , 0, 0, 0
38.0965881, -120.1425948, 44.300, 13:49:15.191, 16, 0.00, 0.19, 95, 0.700, 3.200, 151.300, 2, 100, 96, 25, 23502, -19110, 5161, 5491, 11, 14, 1525985355.191, 80, 0, 1024, 1024, 1024, 1024, 0, 6, 3889, 3929, 3923, 3905, 3918, 3938, 0, 1, 20201, -90.000, 0.000, 150.700, 0.000, 0.000, -3.000, 0.0, , , , , , 98, , , 0, 0, 0
38.0965881, -120.1425949, 44.600, 13:49:15.291, 16, 0.00, 0.17, 95, 0.900, 3.200, 151.200, 2, 100, 96, 25, 23502, -19110, 5161, 5491, 11, 14, 1525985355.292, 67, 0, 1024, 1024, 1024, 1024, 0, 6, 3889, 3929, 3923, 3905, 3918, 3938, 0, 1, 20301, -90.000, 0.000, 150.700, 0.000, 0.000, -3.000, 0.0, , , , , , 98, , , 0, 0, 0
38.0965882, -120.1425950, 44.900, 13:49:15.391, 16, 0.00, 0.16, 95, 1.300, 3.000, 151.100, 2, 100, 98, 25, 23502, -19110, 5161, 5491, 11, 14, 1525985355.392, 56, 0, 1024, 1024, 1024, 1024, 0, 6, 3889, 3929, 3923, 3905, 3918, 3938, 0, 1, 20401, -90.000, 0.000, 150.700, 0.000, 0.000, -3.000, 0.0, , , , , , 98, , , 0, 0, 0
38.0965883, -120.1425951, 45.200, 13:49:15.491, 16, 0.00, 0.15, 95, 1.700, 2.700, 151.100, 2, 100, 98, 25, 23502, -19110, 5161, 5491, 11, 14, 1525985355.491, 47, 0, 1024, 1024, 1024, 1024, 0, 6, 3889, 3929, 3923, 3905, 3918, 3938, 0, 1, 20501, -90.000, 0.000, 150.700, 0.000, 0.000, -3.000, 0.0, , , , , , 98, , , 0, 0, 0
38.0965883, -120.1425952, 45.500, 13:49:15.590, 16, 0.00, 0.14, 95, 1.800, 2.700, 151.200, 2, 100, 98, 25, 23502, -19110, 5161, 5491, 11, 14, 1525985355.591, 42, 0, 1024, 1024, 1024, 1024, 0, 6, 3889, 3929, 3923, 3905, 3918, 3938, 0, 1, 20600, -90.000, 0.000, 150.700, 0.000, 0.000, -3.000, 0.0, , , , , , 98, , , 0, 0, 0
38.0965883, -120.1425953, 45.800, 13:49:15.691, 16, 0.00, 0.13, 95, 1.700, 2.700, 151.400, 2, 100, 98, 25, 23502, -19110, 5161, 5491, 11, 14, 1525985355.692, 45, 0, 1024, 1024, 1024, 1024, 0, 6, 3889, 3929, 3923, 3905, 3918, 3938, 0, 1, 20701, -90.000, 0.000, 150.700, 0.000, 0.000, -2.900, 0.0, , , , , , 98, , , 0, 0, 0
38.0965884, -120.1425954, 46.100, 13:49:15.791, 16, 0.00, 0.12, 94, 1.500, 2.800, 151.500, 2, 100, 98, 25, 23560, -17936, 5161, 5491, 11, 14, 1525985355.792, 34, 0, 1024, 1024, 1024, 1024, 0, 6, 3898, 3938, 3929, 3915, 3933, 3947, 0, 1, 20801, -90.000, 0.000, 150.700, 0.000, 0.000, -2.900, 0.0, , , , , , 98, , , 0, 0, 0
38.0965884, -120.1425955, 46.400, 13:49:15.891, 16, 0.00, 0.12, 94, 1.300, 2.900, 151.600, 2, 100, 98, 25, 23560, -17936, 5161, 5491, 11, 14, 1525985355.891, 14, 0, 1024, 1024, 1024, 1024, 0, 6, 3898, 3938, 3929, 3915, 3933, 3947, 0, 1, 20900, -90.000, 0.000, 150.700, 0.000, 0.000, -3.000, 0.0, , , , , , 98, , , 0, 0, 0
38.0965884, -120.1425955, 46.700, 13:49:15.990, 16, 0.00, 0.11, 94, 1.200, 3.200, 151.800, 2, 100, 98, 25, 23560, -17936, 5161, 5491, 11, 14, 1525985355.991, 30, 0, 1024, 1024, 1024, 1024, 0, 6, 3898, 3938, 3929, 3915, 3933, 3947, 0, 1, 21000, -90.000, 0.000, 150.700, 0.000, 0.000, -3.000, 0.0, , , , , , 98, , , 0, 0, 0
38.0965884, -120.1425956, 47.000, 13:49:16.090, 16, 0.00, 0.11, 94, 1.300, 3.400, 152.000, 2, 100, 98, 25, 23560, -17936, 5161, 5491, 11, 14, 1525985356.091, 36, 0, 1024, 1024, 1024, 1024, 0, 6, 3898, 3938, 3929, 3915, 3933, 3947, 0, 1, 21101, -90.000, 0.000, 150.700, 0.000, 0.000, -2.900, 0.0, , , , , , 98, , , 0, 0, 0
