latitude,longitude,altitude(feet),ascent(feet),speed(mph),distance(feet),time(millisecond),datetime(utc),satellites,gpslevel,voltage(v),max_altitude(feet),max_ascent(feet),max_speed(mph),max_distance(feet), xSpeed(mph), ySpeed(mph), zSpeed(mph), compass_heading(degrees), pitch(degrees), roll(degrees),isPhoto,isVideo,rc_elevator,rc_aileron,rc_throttle,rc_rudder,gimbal_heading(degrees),gimbal_pitch(degrees),battery_percent,voltageCell1,voltageCell2,voltageCell3,voltageCell4,voltageCell5,voltageCell6,current(A),battery_temperature(f),flycStateRaw,flycState,message
38.0965994,-120.1425796,5090.4459342197,0,0,0,3120,2018-05-10 21:52:44,14,0,0,5090.4459342197,0,0,0,0,0,0,331.3, 2, 2.4,1,0,1024,1024,1024,1024,329.3,-89.9,98,4.225,4.223,4.2,4.222,4.209,4.16,0,71.6,11,AutoTakeoff,DJI_0262.jpg Starting Mission from Lat/Long: 38.09660/-120.14259 Camera: Zenmuse X3 - Overlap: 90/90 - Active Connection: No
38.0965994,-120.1425794,5090.4459342197,0,0.223694,0.057425198688,3200,2018-05-10 21:52:44,14,0,0,5090.4459342197,0,0.223694,0.057425198688,0,0,0,331.6, 1, 2.1,0,0,1024,1024,1024,1024,329.4,-90,98,4.225,4.223,4.2,4.222,4.209,4.16,0,71.6,11,AutoTakeoff,
38.0965995,-120.142579,5090.4459342197,0,0.223694,0.176096790412,3300,2018-05-10 21:52:44,14,0,0,5090.4459342197,0,0.223694,0.176096790412,0,0,0,332, -0.1, 0.1,0,0,1024,1024,1024,1024,329.4,-90,98,4.225,4.223,4.2,4.222,4.209,4.16,0,71.6,11,AutoTakeoff,
38.0965996,-120.1425787,5090.4459342197,0,0.447388,0.268518381296,3400,2018-05-10 21:52:44,14,0,0,5090.4459342197,0,0.447388,0.268518381296,0,0,0,332.1, 0, -0.4,0,0,1024,1024,1024,1024,329.4,-90,98,4.225,4.223,4.2,4.222,4.209,4.16,0,71.6,11,AutoTakeoff,
38.0965996,-120.1425783,5090.7740182197,0.328084,0.447388,0.38032809616,3500,2018-05-10 21:52:44,14,0,0,5090.7740182197,0.328084,0.447388,0.38032809616,0,0,0,332.1, 0.1, -0.8,0,0,1024,1024,1024,1024,329.5,-89.9,98,4.225,4.223,4.2,4.222,4.209,4.16,0,71.6,11,AutoTakeoff,
38.0965997,-120.142578,5090.7740182197,0.328084,0.447388,0.4722605138,3600,2018-05-10 21:52:44,14,0,0,5090.7740182197,0.328084,0.447388,0.4722605138,0,0,0,332.1, 0.1, -1.4,0,0,1024,1024,1024,1024,329.5,-89.9,98,4.225,4.223,4.2,4.222,4.209,4.16,0,71.6,11,AutoTakeoff,
38.0965997,-120.1425778,5090.7740182197,0.328084,0.447388,0.52829069932,3700,2018-05-10 21:52:44,14,0,0,5090.7740182197,0.328084,0.447388,0.52829069932,0,0,0,331.9, -0.5, -2.3,0,0,1024,1024,1024,1024,329.5,-90,98,4.225,4.223,4.2,4.222,4.209,4.16,0,71.6,11,AutoTakeoff,
38.0965997,-120.1425775,5091.1021022197,0.656168,0.447388,0.61281826108,3800,2018-05-10 21:52:44,13,0,0,5091.1021022197,0.656168,0.447388,0.61281826108,0,0,0,331.7, -0.8, -2.6,0,0,1024,1024,1024,1024,329.5,-90,98,4.225,4.223,4.2,4.222,4.209,4.16,0,71.6,11,AutoTakeoff,
38.0965998,-120.1425773,5091.1021022197,0.656168,0.223694,0.67632220012,3900,2018-05-10 21:52:45,13,0,0,5091.1021022197,0.656168,0.447388,0.67632220012,0,0,0,331.6, -0.9, -2.6,0,0,1024,1024,1024,1024,329.6,-90,98,4.225,4.223,4.2,4.222,4.209,4.16,0,71.6,11,AutoTakeoff,
38.0965999,-120.1425771,5091.1021022197,0.656168,0.223694,0.7406332258,4000,2018-05-10 21:52:45,14,0,25.354,5091.1021022197,0.656168,0.447388,0.7406332258,0,0,0,331.5, -0.8, -2.5,0,0,1024,1024,1024,1024,329.6,-89.9,98,4.225,4.223,4.2,4.222,4.209,4.16,6.16,71.6,11,AutoTakeoff,
38.0966,-120.142577,5091.4301862197,0.984252,0,0.77796262332,4100,2018-05-10 21:52:45,14,0,25.354,5091.4301862197,0.984252,0.447388,0.77796262332,0,0,0,331.5, -0.6, -2.1,0,0,1024,1024,1024,1024,329.6,-89.9,98,4.225,4.223,4.2,4.222,4.209,4.16,6.16,71.6,11,AutoTakeoff,
38.0966001,-120.1425769,5091.4301862197,0.984252,0,0.81622706024,4200,2018-05-10 21:52:45,14,0,25.354,5091.4301862197,0.984252,0.447388,0.81622706024,0,0,-0.223694,331.5, -0.3, -1.9,0,0,1024,1024,1024,1024,329.6,-89.9,98,4.225,4.223,4.2,4.222,4.209,4.16,6.16,71.6,11,AutoTakeoff,
38.0966002,-120.1425768,5091.7582702197,1.312336,0,0.8552985838,4400,2018-05-10 21:52:45,14,0,25.354,5091.7582702197,1.312336,0.447388,0.8552985838,0,0,-0.223694,331.4, 0, -1.6,0,0,1024,1024,1024,1024,329.6,-89.9,98,4.225,4.223,4.2,4.222,4.209,4.16,6.16,71.6,11,AutoTakeoff,
38.0966002,-120.1425767,5091.7582702197,1.312336,0,0.88234254792,4500,2018-05-10 21:52:45,14,0,25.354,5091.7582702197,1.312336,0.447388,0.88234254792,0,0,-0.223694,331.3, 0.1, -1.2,0,0,1024,1024,1024,1024,329.6,-89.9,98,4.225,4.223,4.2,4.222,4.209,4.16,6.16,71.6,11,AutoTakeoff,
38.0966004,-120.1425767,5092.0863542197,1.64042,0,0.90909123644,4600,2018-05-10 21:52:45,14,0,25.354,5092.0863542197,1.64042,0.447388,0.90909123644,0,0,-0.223694,331.2, 0, -1.2,0,0,1024,1024,1024,1024,329.7,-89.9,98,4.225,4.223,4.2,4.222,4.209,4.16,6.16,71.6,11,AutoTakeoff,
38.0966005,-120.1425766,5092.0863542197,1.64042,0,0.95028546348,4700,2018-05-10 21:52:45,14,0,25.354,5092.0863542197,1.64042,0.447388,0.95028546348,0,0,-0.223694,331.1, 0, -1.3,0,0,1024,1024,1024,1024,329.7,-89.9,98,4.225,4.223,4.2,4.222,4.209,4.16,6.16,71.6,11,AutoTakeoff,
38.0966005,-120.1425766,5092.4144382197,1.968504,0,0.95028546348,4800,2018-05-10 21:52:45,14,0,25.354,5092.4144382197,1.968504,0.447388,0.95028546348,0,0,-0.223694,331, 0.1, -1.2,0,0,1024,1024,1024,1024,329.7,-89.9,98,4.225,4.223,4.2,4.222,4.209,4.16,6.16,71.6,11,AutoTakeoff,
38.0966006,-120.1425765,5092.7425222197,2.296588,0,0.99194228896,4900,2018-05-10 21:52:46,15,0,25.354,5092.7425222197,2.296588,0.447388,0.99194228896,0,0,-0.223694,331, 0.3, -1.2,0,0,1024,1024,1024,1024,329.7,-89.9,98,4.225,4.223,4.2,4.222,4.209,4.16,6.16,71.6,11,AutoTakeoff,
38.0966007,-120.1425764,5092.7425222197,2.296588,0,1.03400265776,5000,2018-05-10 21:52:46,15,0,24.261,5092.7425222197,2.296588,0.447388,1.03400265776,0,0,-0.223694,330.9, 0.5, -1.4,0,0,1024,1024,1024,1024,329.7,-89.9,98,4.026,4.041,4.025,4.076,4.064,3.996,15.716,71.6,11,AutoTakeoff,
38.0966007,-120.1425763,5093.0706062197,2.624672,0,1.05959977144,5100,2018-05-10 21:52:46,15,0,24.261,5093.0706062197,2.624672,0.447388,1.05959977144,0,0,-0.223694,330.9, 0.6, -1.5,0,0,1024,1024,1024,1024,329.7,-89.9,98,4.026,4.041,4.025,4.076,4.064,3.996,15.716,71.6,11,AutoTakeoff,
38.0966008,-120.1425763,5093.0706062197,2.624672,0,1.0764271998,5200,2018-05-10 21:52:46,15,0,24.261,5093.0706062197,2.624672,0.447388,1.0764271998,0,0,0,330.8, 0.8, -1.6,0,0,1024,1024,1024,1024,329.8,-89.9,98,4.026,4.041,4.025,4.076,4.064,3.996,15.716,71.6,11,AutoTakeoff,
38.0966008,-120.1425763,5093.3986902197,2.952756,0,1.0764271998,5300,2018-05-10 21:52:46,14,0,24.261,5093.3986902197,2.952756,0.447388,1.0764271998,0,0,0,330.6, 0.7, -1.8,0,0,1024,1024,1024,1024,329.8,-89.9,98,4.026,4.041,4.025,4.076,4.064,3.996,15.716,71.6,6,P-GPS,
38.0966009,-120.1425763,5093.3986902197,2.952756,0,1.0942093526,5400,2018-05-10 21:52:46,14,0,24.261,5093.3986902197,2.952756,0.447388,1.0942093526,0,0,0,330.4, 0.2, -1.7,0,0,1024,1024,1024,1024,329.8,-90,98,4.026,4.041,4.025,4.076,4.064,3.996,15.716,71.6,14,Waypoint,
38.0966008,-120.1425764,5093.7267742197,3.28084,0,1.05124019112,5500,2018-05-10 21:52:46,15,0,24.261,5093.7267742197,3.28084,0.447388,1.0942093526,0,0,0,329.6, 0, -0.5,0,0,1024,1024,1024,1024,329.8,-89.9,98,4.026,4.041,4.025,4.076,4.064,3.996,15.716,71.6,14,Waypoint,
38.0966008,-120.1425764,5093.7267742197,3.28084,0,1.05124019112,5600,2018-05-10 21:52:46,15,0,24.261,5093.7267742197,3.28084,0.447388,1.0942093526,0,0,0,329.2, 0.2, -0.1,0,0,1024,1024,1024,1024,329.8,-89.9,98,4.026,4.041,4.025,4.076,4.064,3.996,15.716,71.6,14,Waypoint,
38.0966009,-120.1425764,5094.0548582197,3.608924,0,1.06944229144,5700,2018-05-10 21:52:46,15,0,24.261,5094.0548582197,3.608924,0.447388,1.0942093526,0,0,0,328.9, 0.5, -0.4,0,0,1024,1024,1024,1024,329.8,-89.9,98,4.026,4.041,4.025,4.076,4.064,3.996,15.716,71.6,14,Waypoint,
38.0966009,-120.1425765,5094.0548582197,3.608924,0,1.04487864236,5800,2018-05-10 21:52:46,15,0,24.261,5094.0548582197,3.608924,0.447388,1.0942093526,0,0,-0.223694,328.8, 0.7, -0.6,0,0,1024,1024,1024,1024,329.8,-89.9,98,4.026,4.041,4.025,4.076,4.064,3.996,15.716,71.6,14,Waypoint,
38.0966009,-120.1425765,5094.3829422197,3.937008,0,1.04487864236,5900,2018-05-10 21:52:47,15,0,24.261,5094.3829422197,3.937008,0.447388,1.0942093526,0,0,-0.223694,328.7, 0.5, -0.5,0,0,1024,1024,1024,1024,329.8,-89.9,98,4.026,4.041,4.025,4.076,4.064,3.996,15.716,71.6,14,Waypoint,
38.0966009,-120.1425765,5094.7110262197,4.265092,0,1.04487864236,6000,2018-05-10 21:52:47,15,0,23.946,5094.7110262197,4.265092,0.447388,1.0942093526,0,0,-0.223694,328.7, 0.3, -0.2,0,0,1024,1024,1024,1024,329.8,-89.9,98,3.978,3.982,3.974,4.01,4.024,3.985,17.534,71.6,14,Waypoint,
38.0966009,-120.1425765,5095.0391102197,4.593176,0,1.04487864236,6100,2018-05-10 21:52:47,15,0,23.946,5095.0391102197,4.593176,0.447388,1.0942093526,0,0,-0.223694,328.9, 0.2, -0.1,0,0,1024,1024,1024,1024,329.8,-89.9,98,3.978,3.982,3.974,4.01,4.024,3.985,17.534,71.6,14,Waypoint,
38.096601,-120.1425764,5095.3671942197,4.92126,0,1.0885663078,6200,2018-05-10 21:52:47,14,0,23.946,5095.3671942197,4.92126,0.447388,1.0942093526,0,0,-0.223694,328.9, 0.1, -0.3,0,0,1024,1024,1024,1024,329.8,-90,98,3.978,3.982,3.974,4.01,4.024,3.985,17.534,71.6,14,Waypoint,
38.096601,-120.1425763,5095.6952782197,5.249344,0,1.11290685976,6300,2018-05-10 21:52:47,14,0,23.946,5095.6952782197,5.249344,0.447388,1.11290685976,0,0,-0.223694,329, 0, -0.9,0,0,1024,1024,1024,1024,329.8,-90,98,3.978,3.982,3.974,4.01,4.024,3.985,17.534,71.6,14,Waypoint,
38.096601,-120.1425762,5096.3514462197,5.905512,0,1.1374508238,6400,2018-05-10 21:52:47,15,0,23.946,5096.3514462197,5.905512,0.447388,1.1374508238,0,0,-0.447388,329, -0.2, -1.3,0,0,1024,1024,1024,1024,329.8,-90,98,3.978,3.982,3.974,4.01,4.024,3.985,17.534,71.6,14,Waypoint,
38.096601,-120.142576,5097.0076142197,6.56168,0,1.18710305636,6520,2018-05-10 21:52:47,15,0,23.946,5097.0076142197,6.56168,0.447388,1.18710305636,0,0,-0.447388,329, -0.3, -1.3,0,0,1024,1024,1024,1024,329.8,-90,98,3.978,3.982,3.974,4.01,4.024,3.985,17.534,71.6,14,Waypoint,
38.0966011,-120.1425758,5097.6637822197,7.217848,0.223694,1.2550525336,6600,2018-05-10 21:52:47,15,0,23.946,5097.6637822197,7.217848,0.447388,1.2550525336,0,0,-0.447388,328.9, -0.5, -1.6,0,0,1024,1024,1024,1024,329.8,-90,98,3.978,3.982,3.974,4.01,4.024,3.985,17.534,71.6,14,Waypoint,
38.0966013,-120.1425757,5098.6480342197,8.2021,0,1.3169947928,6800,2018-05-10 21:52:47,15,0,23.946,5098.6480342197,8.2021,0.447388,1.3169947928,0,0,-0.447388,328.6, -0.5, -2,0,0,1024,1024,1024,1024,329.8,-90,98,3.978,3.982,3.974,4.01,4.024,3.985,17.534,71.6,14,Waypoint,
38.0966014,-120.1425755,5099.3042022197,8.858268,0,1.38502629104,6900,2018-05-10 21:52:48,15,0,23.946,5099.3042022197,8.858268,0.447388,1.38502629104,0,0,-0.671082,328.4, -0.2, -2.5,0,0,1024,1024,1024,1024,329.8,-89.9,98,3.978,3.982,3.974,4.01,4.024,3.985,17.534,71.6,14,Waypoint,
38.0966015,-120.1425753,5100.2884542197,9.84252,0,1.45305778928,7000,2018-05-10 21:52:48,15,0,24.128,5100.2884542197,9.84252,0.447388,1.45305778928,0,0,-0.671082,328.4, 0, -2.8,0,0,1024,1024,1024,1024,329.8,-89.9,98,3.979,3.961,3.984,3.999,4.002,3.988,16.081,71.6,14,Waypoint,
38.0966017,-120.142575,5101.2727062197,10.826772,0,1.5648130422,7100,2018-05-10 21:52:48,15,0,24.128,5101.2727062197,10.826772,0.447388,1.5648130422,0,0,-0.671082,328.4, 0.1, -3.2,0,0,1024,1024,1024,1024,329.8,-89.9,98,3.979,3.961,3.984,3.999,4.002,3.988,16.081,71.6,14,Waypoint,
38.0966018,-120.1425749,5102.2569582197,11.811024,0,1.60868771552,7200,2018-05-10 21:52:48,15,0,24.128,5102.2569582197,11.811024,0.447388,1.60868771552,0,0,-0.671082,328.4, 0, -3.4,0,0,1024,1024,1024,1024,329.8,-89.9,98,3.979,3.961,3.984,3.999,4.002,3.988,16.081,71.6,14,Waypoint,
38.0966019,-120.1425747,5103.2412102197,12.795276,0,1.67671921376,7300,2018-05-10 21:52:48,15,0,24.128,5103.2412102197,12.795276,0.447388,1.67671921376,0,0,-0.671082,328.5, 0, -3.7,0,0,1024,1024,1024,1024,329.8,-89.9,98,3.979,3.961,3.984,3.999,4.002,3.988,16.081,71.6,14,Waypoint,
38.096602,-120.1425746,5104.2254622197,13.779528,0,1.72072512068,7400,2018-05-10 21:52:48,15,0,24.128,5104.2254622197,13.779528,0.447388,1.72072512068,0,0,-0.671082,328.6, 0, -3.9,0,0,1024,1024,1024,1024,329.8,-89.9,98,3.979,3.961,3.984,3.999,4.002,3.988,16.081,71.6,14,Waypoint,
38.096602,-120.1425745,5105.2097142197,14.76378,0,1.744750712,7500,2018-05-10 21:52:48,15,0,24.128,5105.2097142197,14.76378,0.447388,1.744750712,0,0,-0.671082,328.7, -0.2, -3.7,0,0,1024,1024,1024,1024,329.8,-89.9,98,3.979,3.961,3.984,3.999,4.002,3.988,16.081,71.6,14,Waypoint,
38.0966021,-120.1425744,5106.5220502197,16.076116,0,1.78875005724,7600,2018-05-10 21:52:48,15,0,24.128,5106.5220502197,16.076116,0.447388,1.78875005724,0,0,-0.671082,328.7, -0.2, -3.4,0,0,1024,1024,1024,1024,329.8,-89.9,98,3.979,3.961,3.984,3.999,4.002,3.988,16.081,71.6,14,Waypoint,
38.0966021,-120.1425744,5107.5063022197,17.060368,0,1.78875005724,7700,2018-05-10 21:52:48,15,0,24.128,5107.5063022197,17.060368,0.447388,1.78875005724,0,0,-0.671082,328.8, -0.1, -3.2,0,0,1024,1024,1024,1024,329.8,-89.9,98,3.979,3.961,3.984,3.999,4.002,3.988,16.081,71.6,14,Waypoint,
38.0966022,-120.1425744,5108.4905542197,18.04462,0,1.80909782692,7800,2018-05-10 21:52:48,15,0,24.128,5108.4905542197,18.04462,0.447388,1.80909782692,0,0,-0.671082,328.8, 0.2, -2.8,0,0,1024,1024,1024,1024,329.8,-89.9,98,3.979,3.961,3.984,3.999,4.002,3.988,16.081,71.6,14,Waypoint,
38.0966022,-120.1425745,5110.7871422197,20.341208,0,1.78547577892,7900,2018-05-10 21:52:49,15,0,24.128,5110.7871422197,20.341208,0.447388,1.80909782692,0,0,-0.671082,328.9, 0.3, -2.4,0,0,1024,1024,1024,1024,329.8,-89.9,98,3.979,3.961,3.984,3.999,4.002,3.988,16.081,71.6,14,Waypoint,
38.0966022,-120.1425746,5112.0994782197,21.653544,0,1.76200464956,8000,2018-05-10 21:52:49,15,0,23.374,5112.0994782197,21.653544,0.447388,1.80909782692,0,0,-0.671082,328.8, 0.5, -2.5,0,0,1024,1024,1024,1024,329.8,-89.9,98,3.862,3.858,3.866,3.918,3.905,3.874,22.632,71.6,14,Waypoint,
38.0966021,-120.1425748,5114.0679822197,23.622048,0,1.69406501484,8200,2018-05-10 21:52:49,14,0,23.374,5114.0679822197,23.622048,0.447388,1.80909782692,0,0,-0.671082,328.8, 0.6, -2.1,0,0,1024,1024,1024,1024,329.8,-89.9,98,3.862,3.858,3.866,3.918,3.905,3.874,22.632,71.6,14,Waypoint,
38.096602,-120.142575,5115.0522342197,24.6063,0,1.62613522264,8300,2018-05-10 21:52:49,14,0,23.374,5115.0522342197,24.6063,0.447388,1.80909782692,0,0,-0.671082,328.9, 0.6, -1.7,0,0,1024,1024,1024,1024,329.8,-89.9,98,3.862,3.858,3.866,3.918,3.905,3.874,22.632,71.6,14,Waypoint,
38.096602,-120.1425752,5116.3645702197,25.918636,0,1.57984913192,8400,2018-05-10 21:52:49,15,0,23.374,5116.3645702197,25.918636,0.447388,1.80909782692,0,0,-0.671082,329, 0.6, -1.2,0,0,1024,1024,1024,1024,329.8,-89.9,98,3.862,3.858,3.866,3.918,3.905,3.874,22.632,71.6,14,Waypoint,
38.0966019,-120.1425754,5117.3488222197,26.902888,0,1.51203088828,8500,2018-05-10 21:52:49,15,0,23.374,5117.3488222197,26.902888,0.447388,1.80909782692,0,0,-0.671082,329.1, 0.3, -0.8,0,0,1024,1024,1024,1024,329.8,-89.9,98,3.862,3.858,3.866,3.918,3.905,3.874,22.632,71.6,14,Waypoint,
38.0966017,-120.1425756,5118.3330742197,27.88714,0,1.422408182,8600,2018-05-10 21:52:49,15,0,23.374,5118.3330742197,27.88714,0.447388,1.80909782692,0,0,-0.671082,329.1, 0.2, -0.8,0,0,1024,1024,1024,1024,329.8,-89.9,98,3.862,3.858,3.866,3.918,3.905,3.874,22.632,71.6,14,Waypoint,
38.0966016,-120.1425758,5119.3173262197,28.871392,0,1.35452104072,8700,2018-05-10 21:52:49,15,0,23.374,5119.3173262197,28.871392,0.447388,1.80909782692,0,0,-0.671082,329, 0.2, -0.5,0,0,1024,1024,1024,1024,329.8,-89.9,98,3.862,3.858,3.866,3.918,3.905,3.874,22.632,71.6,14,Waypoint,
38.0966015,-120.1425761,5120.3015782197,29.855644,0,1.26370410868,8810,2018-05-10 21:52:49,15,0,23.374,5120.3015782197,29.855644,0.447388,1.80909782692,0,0,-0.671082,328.9, 0.1, -0.5,0,0,1024,1024,1024,1024,329.8,-89.9,98,3.862,3.858,3.866,3.918,3.905,3.874,22.632,71.6,14,Waypoint,
38.0966015,-120.1425761,5120.3015782197,29.855644,0,1.26370410868,8900,2018-05-10 21:52:50,15,0,23.374,5120.3015782197,29.855644,0.447388,1.80909782692,0,0,-0.671082,328.9, 0.1, -0.5,0,0,1024,1024,1024,1024,329.8,-89.9,98,3.862,3.858,3.866,3.918,3.905,3.874,22.632,71.6,14,Waypoint,
38.0966014,-120.1425763,5121.6139142197,31.16798,0,1.19592851596,9000,2018-05-10 21:52:50,15,0,23.405,5121.6139142197,31.16798,0.447388,1.80909782692,0,0,-0.671082,328.9, 0, -0.5,0,0,1024,1024,1024,1024,329.8,-89.9,98,3.862,3.858,3.866,3.918,3.905,3.874,21.342,71.6,14,Waypoint,
38.0966013,-120.1425765,5122.5981662197,32.152232,0,1.12818901248,9100,2018-05-10 21:52:50,15,0,23.405,5122.5981662197,32.152232,0.447388,1.80909782692,0,0,-0.671082,328.8, 0, -0.3,0,0,1024,1024,1024,1024,329.8,-89.9,98,3.862,3.858,3.866,3.918,3.905,3.874,21.342,71.6,14,Waypoint,
38.0966012,-120.1425766,5123.5824182197,33.136484,0,1.08317260684,9200,2018-05-10 21:52:50,15,0,23.405,5123.5824182197,33.136484,0.447388,1.80909782692,0,0,-0.671082,328.8, 0.1, -0.2,0,0,1024,1024,1024,1024,329.8,-89.9,98,3.862,3.858,3.866,3.918,3.905,3.874,21.342,71.6,14,Waypoint,
38.0966011,-120.1425768,5124.5666702197,34.120736,0,1.0154035758,9300,2018-05-10 21:52:50,14,0,23.405,5124.5666702197,34.120736,0.447388,1.80909782692,0,0,-0.671082,328.8, 0.2, -0.2,0,0,1024,1024,1024,1024,329.8,-89.9,98,3.862,3.858,3.866,3.918,3.905,3.874,21.342,71.6,14,Waypoint,
38.096601,-120.1425769,5125.5509222197,35.104988,0,0.97044950612,9400,2018-05-10 21:52:50,14,0,23.405,5125.5509222197,35.104988,0.447388,1.80909782692,0,0,-0.671082,328.9, 0.1, -0.4,0,0,1024,1024,1024,1024,329.8,-89.9,98,3.862,3.858,3.866,3.918,3.905,3.874,21.342,71.6,14,Waypoint,
38.096601,-120.142577,5126.5351742197,36.08924,0,0.947670634,9500,2018-05-10 21:52:50,15,0,23.405,5126.5351742197,36.08924,0.447388,1.80909782692,0,0,-0.671082,328.9, 0, -0.5,0,0,1024,1024,1024,1024,329.8,-89.9,98,3.862,3.858,3.866,3.918,3.905,3.874,21.342,71.6,14,Waypoint,
38.0966009,-120.1425771,5127.8475102197,37.401576,0,0.90264438584,9600,2018-05-10 21:52:50,15,0,23.405,5127.8475102197,37.401576,0.447388,1.80909782692,0,0,-0.671082,328.9, 0, -0.7,0,0,1024,1024,1024,1024,329.8,-89.9,98,3.862,3.858,3.866,3.918,3.905,3.874,21.342,71.6,14,Waypoint,
38.0966009,-120.1425772,5128.8317622197,38.385828,0,0.87998362396,9700,2018-05-10 21:52:50,15,0,23.405,5128.8317622197,38.385828,0.447388,1.80909782692,0,0,-0.671082,328.9, 0, -0.8,0,0,1024,1024,1024,1024,329.8,-89.9,98,3.862,3.858,3.866,3.918,3.905,3.874,21.342,71.6,14,Waypoint,
38.0966009,-120.1425773,5129.8160142197,39.37008,0,0.85768375448,9800,2018-05-10 21:52:50,15,0,23.405,5129.8160142197,39.37008,0.447388,1.80909782692,0,0,-0.671082,328.8, 0, -0.8,0,0,1024,1024,1024,1024,329.8,-89.9,98,3.862,3.858,3.866,3.918,3.905,3.874,21.342,71.6,14,Waypoint,
38.0966008,-120.1425774,5130.8002662197,40.354332,0,0.81235566904,9900,2018-05-10 21:52:51,15,0,23.405,5130.8002662197,40.354332,0.447388,1.80909782692,0,0,-0.671082,328.8, 0, -0.7,0,0,1024,1024,1024,1024,329.8,-89.9,98,3.862,3.858,3.866,3.918,3.905,3.874,21.342,71.6,14,Waypoint,
38.0966007,-120.1425775,5131.7845182197,41.338584,0,0.7671588172,10000,2018-05-10 21:52:51,15,0,23.405,5131.7845182197,41.338584,0.447388,1.80909782692,0,0,-0.671082,328.8, 0, -0.5,0,0,1024,1024,1024,1024,329.8,-89.9,98,3.884,3.898,3.887,3.941,3.944,3.894,21.342,71.6,14,Waypoint,
38.0966007,-120.1425776,5132.7687702197,42.322836,0,0.74480317344,10100,2018-05-10 21:52:51,15,0,23.405,5132.7687702197,42.322836,0.447388,1.80909782692,0,0,-0.671082,328.8, 0, -0.4,0,0,1024,1024,1024,1024,329.8,-89.9,98,3.884,3.898,3.887,3.941,3.944,3.894,21.342,71.6,14,Waypoint,
38.0966006,-120.1425776,5133.7530222197,43.307088,0,0.72211616484,10200,2018-05-10 21:52:51,15,0,23.405,5133.7530222197,43.307088,0.447388,1.80909782692,0,0,-0.671082,328.8, 0, -0.3,0,0,1024,1024,1024,1024,329.8,-89.9,98,3.884,3.898,3.887,3.941,3.944,3.894,21.342,71.6,14,Waypoint,
38.0966005,-120.1425777,5136.0496102197,45.603676,0,0.67726052036,10300,2018-05-10 21:52:51,15,0,23.405,5136.0496102197,45.603676,0.447388,1.80909782692,0,0,-0.671082,328.9, -0.2, -0.5,0,0,1024,1024,1024,1024,329.8,-90,98,3.884,3.898,3.887,3.941,3.944,3.894,21.342,71.6,14,Waypoint,
38.0966005,-120.1425777,5137.0338622197,46.587928,0,0.67726052036,10400,2018-05-10 21:52:51,15,0,23.405,5137.0338622197,46.587928,0.447388,1.80909782692,0,0,-0.671082,329, -0.2, -0.7,0,0,1024,1024,1024,1024,329.8,-90,98,3.884,3.898,3.887,3.941,3.944,3.894,21.342,71.6,14,Waypoint,
38.0966005,-120.1425776,5138.0181142197,47.57218,0,0.70059713528,10500,2018-05-10 21:52:51,15,0,23.405,5138.0181142197,47.57218,0.447388,1.80909782692,0,0,-0.671082,329, -0.2, -0.9,0,0,1024,1024,1024,1024,329.8,-90,98,3.884,3.898,3.887,3.941,3.944,3.894,21.342,71.6,14,Waypoint,
38.0966004,-120.1425775,5139.0023662197,48.556432,0,0.7047572404,10600,2018-05-10 21:52:51,15,0,23.405,5139.0023662197,48.556432,0.447388,1.80909782692,0,0,-0.671082,328.8, -0.3, -1.1,0,0,1024,1024,1024,1024,329.8,-90,98,3.884,3.898,3.887,3.941,3.944,3.894,21.342,71.6,14,Waypoint,
38.0966004,-120.1425775,5139.9866182197,49.540684,0.223694,0.7047572404,10700,2018-05-10 21:52:51,15,0,23.405,5139.9866182197,49.540684,0.447388,1.80909782692,0,0,-0.671082,328.7, -0.5, -1.1,0,0,1024,1024,1024,1024,329.8,-90,98,3.884,3.898,3.887,3.941,3.944,3.894,21.342,71.6,14,Waypoint,
38.0966004,-120.1425774,5140.9708702197,50.524936,0.223694,0.72947508896,10810,2018-05-10 21:52:51,15,0,23.405,5140.9708702197,50.524936,0.447388,1.80909782692,0,0,-0.671082,328.6, -0.6, -1.3,0,0,1024,1024,1024,1024,329.8,-90,98,3.884,3.898,3.887,3.941,3.944,3.894,21.342,71.6,14,Waypoint,
38.0966004,-120.1425774,5141.9551222197,51.509188,0,0.72947508896,10900,2018-05-10 21:52:52,15,0,23.405,5141.9551222197,51.509188,0.447388,1.80909782692,0,0,-0.671082,328.6, -0.7, -1.2,0,0,1024,1024,1024,1024,329.8,-90,98,3.884,3.898,3.887,3.941,3.944,3.894,21.342,71.6,14,Waypoint,
38.0966004,-120.1425773,5143.9236262197,53.477692,0,0.75447180892,11100,2018-05-10 21:52:52,15,0,23.405,5143.9236262197,53.477692,0.447388,1.80909782692,0,0,-0.671082,328.6, -0.5, -1.2,0,0,1024,1024,1024,1024,329.8,-89.9,98,3.884,3.898,3.887,3.941,3.944,3.894,21.342,71.6,14,Waypoint,
38.0966004,-120.1425771,5145.8921302197,55.446196,0,0.8052165612,11300,2018-05-10 21:52:52,15,0,23.405,5145.8921302197,55.446196,0.447388,1.80909782692,0,0,-0.671082,328.5, -0.4, -1.4,0,0,1024,1024,1024,1024,329.8,-89.9,98,3.884,3.898,3.887,3.941,3.944,3.894,21.342,71.6,14,Waypoint,
38.0966004,-120.142577,5146.8763822197,56.430448,0,0.83091538092,11500,2018-05-10 21:52:52,15,0,23.405,5146.8763822197,56.430448,0.447388,1.80909782692,0,0,-0.671082,328.5, -0.4, -1.6,0,0,1024,1024,1024,1024,329.8,-89.9,98,3.884,3.898,3.887,3.941,3.944,3.894,21.342,71.6,14,Waypoint,
38.0966004,-120.1425768,5147.8606342197,57.4147,0,0.88286748232,11600,2018-05-10 21:52:52,15,0,23.405,5147.8606342197,57.4147,0.447388,1.80909782692,0,0,-0.671082,328.5, -0.5, -1.7,0,0,1024,1024,1024,1024,329.8,-89.9,98,3.884,3.898,3.887,3.941,3.944,3.894,21.342,71.6,14,Waypoint,
38.0966004,-120.1425767,5148.8448862197,58.398952,0,0.90909123644,11700,2018-05-10 21:52:52,15,0,23.405,5148.8448862197,58.398952,0.447388,1.80909782692,0,0,-0.671082,328.5, -0.7, -1.7,0,0,1024,1024,1024,1024,329.8,-90,98,3.884,3.898,3.887,3.941,3.944,3.894,21.342,71.6,14,Waypoint,
38.0966004,-120.1425767,5149.5010542197,59.05512,0,0.90909123644,11800,2018-05-10 21:52:52,15,0,23.405,5149.5010542197,59.05512,0.447388,1.80909782692,0,0,-0.671082,328.5, -0.8, -1.7,0,0,1024,1024,1024,1024,329.8,-89.9,98,3.884,3.898,3.887,3.941,3.944,3.894,21.342,71.6,14,Waypoint,
38.0966004,-120.1425766,5150.4853062197,60.039372,0,0.93546262836,11900,2018-05-10 21:52:53,15,0,23.405,5150.4853062197,60.039372,0.447388,1.80909782692,0,0,-0.671082,328.6, -0.8, -1.4,0,0,1024,1024,1024,1024,329.8,-89.9,98,3.884,3.898,3.887,3.941,3.944,3.894,21.342,71.6,14,Waypoint,
38.0966004,-120.1425765,5151.4695582197,61.023624,0,0.96196525388,12000,2018-05-10 21:52:53,15,0,23.533,5151.4695582197,61.023624,0.447388,1.80909782692,0,0,-0.671082,328.6, -0.7, -1.4,0,0,1024,1024,1024,1024,329.8,-90,98,3.901,3.904,3.909,3.959,3.953,3.915,18.708,71.6,14,Waypoint,
38.0966004,-120.1425763,5152.7818942197,62.33596,0,1.01533467816,12100,2018-05-10 21:52:53,15,0,23.533,5152.7818942197,62.33596,0.447388,1.80909782692,0,0,-0.671082,328.8, -0.7, -1.6,0,0,1024,1024,1024,1024,329.8,-89.9,98,3.901,3.904,3.909,3.959,3.953,3.915,18.708,71.6,14,Waypoint,
38.0966005,-120.1425762,5153.7661462197,63.320212,0,1.05550528312,12200,2018-05-10 21:52:53,15,0,23.533,5153.7661462197,63.320212,0.447388,1.80909782692,0,0,-0.671082,328.9, -0.6, -1.6,0,0,1024,1024,1024,1024,329.8,-89.9,98,3.901,3.904,3.909,3.959,3.953,3.915,18.708,71.6,14,Waypoint,
38.0966005,-120.1425761,5154.7503982197,64.304464,0,1.08211617636,12300,2018-05-10 21:52:53,15,0,23.533,5154.7503982197,64.304464,0.447388,1.80909782692,0,0,-0.671082,329.1, -0.6, -1.5,0,0,1024,1024,1024,1024,329.8,-89.9,98,3.901,3.904,3.909,3.959,3.953,3.915,18.708,71.6,14,Waypoint,
38.0966005,-120.142576,5155.7346502197,65.288716,0,1.10883205648,12400,2018-05-10 21:52:53,15,0,23.533,5155.7346502197,65.288716,0.447388,1.80909782692,0,0,-0.671082,329.4, -0.5, -1.5,0,0,1024,1024,1024,1024,329.8,-89.9,98,3.901,3.904,3.909,3.959,3.953,3.915,18.708,71.6,14,Waypoint,
38.0966005,-120.1425759,5157.3750702197,66.929136,0,1.1356463618,12500,2018-05-10 21:52:53,15,0,23.533,5157.3750702197,66.929136,0.447388,1.80909782692,0,0,-0.671082,329.7, -0.5, -1.3,0,0,1024,1024,1024,1024,329.8,-90,98,3.901,3.904,3.909,3.959,3.953,3.915,18.708,71.6,14,Waypoint,
38.0966005,-120.1425758,5158.3593222197,67.913388,0,1.1625492498,12600,2018-05-10 21:52:53,15,0,23.533,5158.3593222197,67.913388,0.447388,1.80909782692,0,0,-0.671082,329.8, -0.5, -1.3,0,0,1024,1024,1024,1024,329.8,-89.9,98,3.901,3.904,3.909,3.959,3.953,3.915,18.708,71.6,14,Waypoint,
38.0966005,-120.1425757,5159.3435742197,68.89764,0,1.18954072048,12700,2018-05-10 21:52:53,15,0,23.533,5159.3435742197,68.89764,0.447388,1.80909782692,0,0,-0.671082,329.7, -0.4, -1.3,0,0,1024,1024,1024,1024,329.8,-89.9,98,3.901,3.904,3.909,3.959,3.953,3.915,18.708,71.6,14,Waypoint,
38.0966007,-120.1425754,5162.2963302197,71.850396,0,1.29585305984,13000,2018-05-10 21:52:54,15,0,23.576,5162.2963302197,71.850396,0.447388,1.80909782692,0,0,-0.671082,328.8, -0.3, -2,0,0,1024,1024,1024,1024,329.8,-89.9,98,3.911,3.914,3.912,3.958,3.958,3.919,18.036,71.6,14,Waypoint,
38.0966007,-120.1425753,5163.2805822197,72.834648,0,1.32261487172,13100,2018-05-10 21:52:54,15,0,23.576,5163.2805822197,72.834648,0.447388,1.80909782692,0,0,-0.671082,328.7, -0.3, -2.2,0,0,1024,1024,1024,1024,329.8,-89.9,98,3.911,3.914,3.912,3.958,3.958,3.919,18.036,71.6,14,Waypoint,
38.0966007,-120.1425752,5164.2648342197,73.8189,0,1.34945542376,13200,2018-05-10 21:52:54,15,0,23.576,5164.2648342197,73.8189,0.447388,1.80909782692,0,0,-0.671082,328.6, -0.4, -2.4,0,0,1024,1024,1024,1024,329.8,-89.9,98,3.911,3.914,3.912,3.958,3.958,3.919,18.036,71.6,14,Waypoint,
38.0966007,-120.1425752,5165.2490862197,74.803152,0,1.34945542376,13300,2018-05-10 21:52:54,15,0,23.576,5165.2490862197,74.803152,0.447388,1.80909782692,0,0,-0.671082,328.7, -0.6, -2.3,0,0,1024,1024,1024,1024,329.8,-89.9,98,3.911,3.914,3.912,3.958,3.958,3.919,18.036,71.6,14,Waypoint,
38.0966008,-120.1425751,5166.2333382197,75.787404,0,1.38936684236,13500,2018-05-10 21:52:54,15,0,23.576,5166.2333382197,75.787404,0.447388,1.80909782692,0,0,-0.671082,328.8, -0.7, -2.1,0,0,1024,1024,1024,1024,329.8,-89.9,98,3.911,3.914,3.912,3.958,3.958,3.919,18.036,71.6,14,Waypoint,
38.0966008,-120.142575,5167.2175902197,76.771656,0,1.4161089692,13600,2018-05-10 21:52:54,15,0,23.576,5167.2175902197,76.771656,0.447388,1.80909782692,0,0,-0.671082,328.8, -0.6, -2.1,0,0,1024,1024,1024,1024,329.8,-89.9,98,3.911,3.914,3.912,3.958,3.958,3.919,18.036,71.6,14,Waypoint,
38.0966009,-120.142575,5168.2018422197,77.755908,0,1.4296752426,13700,2018-05-10 21:52:54,15,0,23.576,5168.2018422197,77.755908,0.447388,1.80909782692,0,0,-0.671082,328.8, -0.4, -2.1,0,0,1024,1024,1024,1024,329.8,-89.9,98,3.911,3.914,3.912,3.958,3.958,3.919,18.036,71.6,14,Waypoint,
38.0966009,-120.142575,5169.1860942197,78.74016,0,1.4296752426,13800,2018-05-10 21:52:54,15,0,23.576,5169.1860942197,78.74016,0.447388,1.80909782692,0,0,-0.671082,328.8, -0.1, -2.2,0,0,1024,1024,1024,1024,329.8,-89.9,98,3.911,3.914,3.912,3.958,3.958,3.919,18.036,71.6,14,Waypoint,
38.0966009,-120.142575,5170.1703462197,79.724412,0,1.4296752426,13900,2018-05-10 21:52:55,15,0,23.576,5170.1703462197,79.724412,0.447388,1.80909782692,0,0,-0.671082,328.9, 0, -2.1,0,0,1024,1024,1024,1024,329.8,-89.9,98,3.911,3.914,3.912,3.958,3.958,3.919,18.036,71.6,14,Waypoint,
38.0966009,-120.1425749,5171.1545982197,80.708664,0,1.45624020408,14000,2018-05-10 21:52:55,15,0,23.564,5171.1545982197,80.708664,0.447388,1.80909782692,0,0,-0.671082,329, 0, -1.5,0,0,1024,1024,1024,1024,329.8,-89.9,98,3.906,3.912,3.91,3.957,3.952,3.915,17.975,71.6,14,Waypoint,
38.0966009,-120.1425749,5172.1388502197,81.692916,0,1.45624020408,14100,2018-05-10 21:52:55,15,0,23.564,5172.1388502197,81.692916,0.447388,1.80909782692,0,0,-0.671082,329.2, -0.2, -1.7,0,0,1024,1024,1024,1024,329.8,-90,98,3.906,3.912,3.91,3.957,3.952,3.915,17.975,71.6,14,Waypoint,
38.0966009,-120.1425748,5173.1231022197,82.677168,0,1.48288718656,14200,2018-05-10 21:52:55,15,0,23.564,5173.1231022197,82.677168,0.447388,1.80909782692,0,0,-0.671082,329.1, -0.7, -2,0,0,1024,1024,1024,1024,329.8,-90,98,3.906,3.912,3.91,3.957,3.952,3.915,17.975,71.6,14,Waypoint,
38.0966009,-120.1425748,5174.1073542197,83.66142,0,1.48288718656,14300,2018-05-10 21:52:55,15,0,23.564,5174.1073542197,83.66142,0.447388,1.80909782692,0,0,-0.671082,329, -1, -2.1,0,0,1024,1024,1024,1024,329.8,-90,98,3.906,3.912,3.91,3.957,3.952,3.915,17.975,71.6,14,Waypoint,
38.0966009,-120.1425747,5175.0916062197,84.645672,0,1.5096129092,14400,2018-05-10 21:52:55,15,0,23.564,5175.0916062197,84.645672,0.447388,1.80909782692,0,0,-0.671082,328.7, -1.1, -2.1,0,0,1024,1024,1024,1024,329.8,-90,98,3.906,3.912,3.91,3.957,3.952,3.915,17.975,71.6,14,Waypoint,
38.0966009,-120.1425747,5177.0601102197,86.614176,0,1.5096129092,14500,2018-05-10 21:52:55,15,0,23.564,5177.0601102197,86.614176,0.447388,1.80909782692,0,0,-0.671082,328.3, -1, -2.4,0,0,1024,1024,1024,1024,329.8,-90,98,3.906,3.912,3.91,3.957,3.952,3.915,17.975,71.6,14,Waypoint,
38.0966009,-120.1425747,5178.0443622197,87.598428,0,1.5096129092,14600,2018-05-10 21:52:55,15,0,23.564,5178.0443622197,87.598428,0.447388,1.80909782692,0,0,-0.671082,328.3, -0.8, -2.3,0,0,1024,1024,1024,1024,329.8,-89.9,98,3.906,3.912,3.91,3.957,3.952,3.915,17.975,71.6,14,Waypoint,
38.0966009,-120.1425747,5179.0286142197,88.58268,0,1.5096129092,14700,2018-05-10 21:52:55,15,0,23.564,5179.0286142197,88.58268,0.447388,1.80909782692,0,0,-0.671082,328.3, -0.6, -2.2,0,0,1024,1024,1024,1024,329.8,-89.9,98,3.906,3.912,3.91,3.957,3.952,3.915,17.975,71.6,14,Waypoint,
38.0966009,-120.1425747,5179.6847822197,89.238848,0,1.5096129092,14800,2018-05-10 21:52:55,15,0,23.564,5179.6847822197,89.238848,0.447388,1.80909782692,0,0,-0.671082,328.4, -0.4, -2.1,0,0,1024,1024,1024,1024,329.8,-89.9,98,3.906,3.912,3.91,3.957,3.952,3.915,17.975,71.6,14,Waypoint,
38.096601,-120.1425747,5180.6690342197,90.2231,0,1.52321855268,14900,2018-05-10 21:52:56,15,0,23.564,5180.6690342197,90.2231,0.447388,1.80909782692,0,0,-0.671082,328.5, -0.2, -2.1,0,0,1024,1024,1024,1024,329.8,-89.9,98,3.906,3.912,3.91,3.957,3.952,3.915,17.975,71.6,14,Waypoint,
38.096601,-120.1425747,5181.6532862197,91.207352,0,1.52321855268,15000,2018-05-10 21:52:56,15,0,23.512,5181.6532862197,91.207352,0.447388,1.80909782692,0,0,-0.671082,328.6, -0.1, -2.2,0,0,1024,1024,1024,1024,329.8,-89.9,97,3.901,3.903,3.895,3.953,3.953,3.909,18.291,71.6,14,Waypoint,
38.096601,-120.1425747,5182.6375382197,92.191604,0,1.52321855268,15100,2018-05-10 21:52:56,15,0,23.512,5182.6375382197,92.191604,0.447388,1.80909782692,0,0,-0.671082,328.8, 0, -2.1,0,0,1024,1024,1024,1024,329.8,-89.9,97,3.901,3.903,3.895,3.953,3.953,3.909,18.291,71.6,14,Waypoint,
38.0966011,-120.1425748,5183.6217902197,93.175856,0,1.51134191188,15200,2018-05-10 21:52:56,15,0,23.512,5183.6217902197,93.175856,0.447388,1.80909782692,0,0,-0.671082,328.9, 0.2, -2,0,0,1024,1024,1024,1024,329.8,-89.9,97,3.901,3.903,3.895,3.953,3.953,3.909,18.291,71.6,14,Waypoint,
38.0966011,-120.1425749,5184.6060422197,94.160108,0,1.4852034596,15300,2018-05-10 21:52:56,15,0,23.512,5184.6060422197,94.160108,0.447388,1.80909782692,0,0,-0.671082,329, 0.6, -2.1,0,0,1024,1024,1024,1024,329.8,-89.9,97,3.901,3.903,3.895,3.953,3.953,3.909,18.291,71.6,14,Waypoint,
38.0966011,-120.1425749,5185.5902942197,95.14436,0,1.4852034596,15400,2018-05-10 21:52:56,15,0,23.512,5185.5902942197,95.14436,0.447388,1.80909782692,0,0,-0.671082,329.1, 0.4, -2.4,0,0,1024,1024,1024,1024,329.8,-89.9,97,3.901,3.903,3.895,3.953,3.953,3.909,18.291,71.6,14,Waypoint,
38.0966012,-120.1425749,5186.5745462197,96.128612,0,1.50080713464,15500,2018-05-10 21:52:56,15,0,23.512,5186.5745462197,96.128612,0.447388,1.80909782692,0,0,-0.671082,329.1, 0.1, -2,0,0,1024,1024,1024,1024,329.8,-89.9,97,3.901,3.903,3.895,3.953,3.953,3.909,18.291,71.6,14,Waypoint,
38.0966012,-120.142575,5187.5587982197,97.112864,0,1.47504269812,15700,2018-05-10 21:52:56,15,0,23.512,5187.5587982197,97.112864,0.447388,1.80909782692,0,0,-0.671082,329, 0, -1.5,0,0,1024,1024,1024,1024,329.8,-89.9,97,3.901,3.903,3.895,3.953,3.953,3.909,18.291,71.6,14,Waypoint,
38.0966013,-120.142575,5188.5430502197,98.097116,0,1.49164702936,15800,2018-05-10 21:52:56,15,0,23.512,5188.5430502197,98.097116,0.447388,1.80909782692,0,0,-0.671082,328.9, 0.1, -1.4,0,0,1024,1024,1024,1024,329.8,-89.9,97,3.901,3.903,3.895,3.953,3.953,3.909,18.291,71.6,14,Waypoint,
38.0966013,-120.142575,5189.8553862197,99.409452,0,1.49164702936,15900,2018-05-10 21:52:57,15,0,23.512,5189.8553862197,99.409452,0.447388,1.80909782692,0,0,-0.671082,328.7, 0.4, -1.5,0,0,1024,1024,1024,1024,329.8,-89.9,97,3.901,3.903,3.895,3.953,3.953,3.909,18.291,71.6,14,Waypoint,
38.0966014,-120.142575,5190.8396382197,100.393704,0,1.50894689868,16000,2018-05-10 21:52:57,15,0,23.422,5190.8396382197,100.393704,0.447388,1.80909782692,0,0,-0.671082,328.5, 0.3, -2,0,0,1024,1024,1024,1024,329.8,-89.9,97,3.883,3.889,3.882,3.94,3.941,3.883,18.895,71.6,14,Waypoint,
38.0966015,-120.1425749,5191.8238902197,101.377956,0,1.55182747748,16100,2018-05-10 21:52:57,15,0,23.422,5191.8238902197,101.377956,0.447388,1.80909782692,0,0,-0.671082,328.5, 0.5, -2.9,0,0,1024,1024,1024,1024,329.8,-89.9,97,3.883,3.889,3.882,3.94,3.941,3.883,18.895,71.6,14,Waypoint,
38.0966016,-120.1425749,5193.1362262197,102.690292,0,1.5701608114,16200,2018-05-10 21:52:57,15,0,23.422,5193.1362262197,102.690292,0.447388,1.80909782692,0,0,-0.671082,328.6, 0.9, -3.3,0,0,1024,1024,1024,1024,329.8,-89.9,97,3.883,3.889,3.882,3.94,3.941,3.883,18.895,71.6,14,Waypoint,
38.0966017,-120.1425748,5194.1204782197,103.674544,0,1.61357616712,16300,2018-05-10 21:52:57,15,0,23.422,5194.1204782197,103.674544,0.447388,1.80909782692,0,0,-0.671082,328.7, 1, -3.4,0,0,1024,1024,1024,1024,329.8,-89.9,97,3.883,3.889,3.882,3.94,3.941,3.883,18.895,71.6,14,Waypoint,
38.0966018,-120.1425748,5195.4328142197,104.98688,0,1.63284782128,16400,2018-05-10 21:52:57,15,0,23.422,5195.4328142197,104.98688,0.447388,1.80909782692,0,0,-0.671082,328.7, 1.1, -3.8,0,0,1024,1024,1024,1024,329.8,-89.9,97,3.883,3.889,3.882,3.94,3.941,3.883,18.895,71.6,14,Waypoint,
38.0966018,-120.1425747,5196.4170662197,105.971132,0.223694,1.65715556484,16500,2018-05-10 21:52:57,15,0,23.422,5196.4170662197,105.971132,0.447388,1.80909782692,0,0,-0.671082,328.6, 1, -4.3,0,0,1024,1024,1024,1024,329.8,-89.9,97,3.883,3.889,3.882,3.94,3.941,3.883,18.895,71.6,14,Waypoint,
38.0966019,-120.1425746,5197.4013182197,106.955384,0.223694,1.70088260036,16600,2018-05-10 21:52:57,15,0,23.422,5197.4013182197,106.955384,0.447388,1.80909782692,0,0,-0.671082,328.5, 0.1, -4.5,0,0,1024,1024,1024,1024,329.8,-90,97,3.883,3.889,3.882,3.94,3.941,3.883,18.895,71.6,14,Waypoint,
38.0966019,-120.1425745,5198.3855702197,107.939636,0.223694,1.72518706308,16700,2018-05-10 21:52:57,15,0,23.422,5198.3855702197,107.939636,0.447388,1.80909782692,0,0,-0.671082,328.5, 0, -4.5,0,0,1024,1024,1024,1024,329.8,-90,97,3.883,3.889,3.882,3.94,3.941,3.883,18.895,71.6,14,Waypoint,
38.0966019,-120.1425744,5199.3698222197,108.923888,0.223694,1.7496227594,16800,2018-05-10 21:52:57,15,0,23.422,5199.3698222197,108.923888,0.447388,1.80909782692,0,0,-0.671082,328.7, -0.4, -5,0,0,1024,1024,1024,1024,329.8,-90,97,3.883,3.889,3.882,3.94,3.941,3.883,18.895,71.6,14,Waypoint,
38.0966021,-120.1425743,5201.3383262197,110.892392,0,1.81278549108,16900,2018-05-10 21:52:58,15,0,23.422,5201.3383262197,110.892392,0.447388,1.81278549108,0,0,-0.671082,329.1, -0.3, -5.4,0,0,1024,1024,1024,1024,329.8,-90,97,3.883,3.889,3.882,3.94,3.941,3.883,18.895,71.6,14,Waypoint,
38.0966021,-120.1425742,5201.9944942197,111.54856,0,1.83695543936,17020,2018-05-10 21:52:58,15,0,23.281,5201.9944942197,111.54856,0.447388,1.83695543936,0,0,-0.671082,329.2, -0.3, -5.3,0,0,1024,1024,1024,1024,329.8,-89.9,97,3.861,3.859,3.865,3.911,3.915,3.863,19.936,71.6,14,Waypoint,
38.0966021,-120.1425742,5201.9944942197,111.54856,0,1.83695543936,17100,2018-05-10 21:52:58,15,0,23.281,5201.9944942197,111.54856,0.447388,1.83695543936,0,0,-0.671082,329.2, -0.3, -5.3,0,0,1024,1024,1024,1024,329.8,-89.9,97,3.861,3.859,3.865,3.911,3.915,3.863,19.936,71.6,14,Waypoint,
38.0966023,-120.1425742,5203.9629982197,113.517064,0,1.87709651676,17200,2018-05-10 21:52:58,15,0,23.281,5203.9629982197,113.517064,0.447388,1.87709651676,0,0,-0.671082,329.3, 0.5, -4.9,0,0,1024,1024,1024,1024,329.8,-89.9,97,3.861,3.859,3.865,3.911,3.915,3.863,19.936,71.6,14,Waypoint,
38.0966023,-120.1425741,5204.9472502197,114.501316,0,1.90088260676,17300,2018-05-10 21:52:58,15,0,23.281,5204.9472502197,114.501316,0.447388,1.90088260676,0,0,-0.671082,329.2, 0.8, -5.1,0,0,1024,1024,1024,1024,329.8,-89.9,97,3.861,3.859,3.865,3.911,3.915,3.863,19.936,71.6,14,Waypoint,
38.0966024,-120.1425741,5205.9315022197,115.485568,0,1.92142722684,17400,2018-05-10 21:52:58,15,0,23.281,5205.9315022197,115.485568,0.447388,1.92142722684,0,0,-0.671082,329.1, 0.9, -5.1,0,0,1024,1024,1024,1024,329.8,-89.9,97,3.861,3.859,3.865,3.911,3.915,3.863,19.936,71.6,14,Waypoint,
38.0966025,-120.1425741,5206.5876702197,116.141736,0,1.94244428788,17500,2018-05-10 21:52:58,15,0,23.281,5206.5876702197,116.141736,0.447388,1.94244428788,0,0,-0.671082,329, 0.8, -5.2,0,0,1024,1024,1024,1024,329.8,-89.9,97,3.861,3.859,3.865,3.911,3.915,3.863,19.936,71.6,14,Waypoint,
38.0966025,-120.142574,5207.5719222197,117.125988,0,1.96585964296,17600,2018-05-10 21:52:58,15,0,23.281,5207.5719222197,117.125988,0.447388,1.96585964296,0,0,-0.671082,329, 0.6, -5.2,0,0,1024,1024,1024,1024,329.8,-89.9,97,3.861,3.859,3.865,3.911,3.915,3.863,19.936,71.6,14,Waypoint,
38.0966026,-120.1425739,5209.2123422197,118.766408,0,2.01037736092,17800,2018-05-10 21:52:58,15,0,23.281,5209.2123422197,118.766408,0.447388,2.01037736092,0,0,-0.671082,328.8, 0.6, -5.4,0,0,1024,1024,1024,1024,329.8,-89.9,97,3.861,3.859,3.865,3.911,3.915,3.863,19.936,71.6,14,Waypoint,
38.0966026,-120.1425739,5210.1965942197,119.75066,0,2.01037736092,17900,2018-05-10 21:52:59,15,0,23.281,5210.1965942197,119.75066,0.447388,2.01037736092,0,0,-0.671082,328.8, 0.6, -5.5,0,0,1024,1024,1024,1024,329.8,-89.9,97,3.861,3.859,3.865,3.911,3.915,3.863,19.936,71.6,14,Waypoint,
38.0966027,-120.1425738,5211.1808462197,120.734912,0,2.05498366156,18100,2018-05-10 21:52:59,15,0,23.281,5211.1808462197,120.734912,0.447388,2.05498366156,0,0,-0.671082,328.8, 0.4, -5.5,0,0,1024,1024,1024,1024,329.8,-89.9,97,3.861,3.859,3.865,3.911,3.915,3.863,19.936,71.6,14,Waypoint,
38.0966027,-120.1425738,5212.1650982197,121.719164,0,2.05498366156,18200,2018-05-10 21:52:59,15,0,23.281,5212.1650982197,121.719164,0.447388,2.05498366156,0,0,-0.671082,328.8, 0.3, -5.5,0,0,1024,1024,1024,1024,329.8,-89.9,97,3.861,3.859,3.865,3.911,3.915,3.863,19.936,71.6,14,Waypoint,
38.0966027,-120.1425737,5213.1493502197,122.703416,0,2.07832027648,18300,2018-05-10 21:52:59,15,0,23.281,5213.1493502197,122.703416,0.447388,2.07832027648,0,0,-0.671082,328.7, 0.2, -5.3,0,0,1024,1024,1024,1024,329.8,-89.9,97,3.861,3.859,3.865,3.911,3.915,3.863,19.936,71.6,14,Waypoint,
38.0966027,-120.1425737,5214.1336022197,123.687668,0,2.07832027648,18400,2018-05-10 21:52:59,15,0,23.281,5214.1336022197,123.687668,0.447388,2.07832027648,0,0,-0.671082,328.7, 0.4, -5.1,0,0,1024,1024,1024,1024,329.8,-89.9,97,3.861,3.859,3.865,3.911,3.915,3.863,19.936,71.6,14,Waypoint,
38.0966028,-120.1425737,5215.7740222197,125.328088,0,2.09966542152,18600,2018-05-10 21:52:59,15,0,23.281,5215.7740222197,125.328088,0.447388,2.09966542152,0,0,-0.671082,328.6, 1, -5,0,0,1024,1024,1024,1024,329.8,-89.9,97,3.861,3.859,3.865,3.911,3.915,3.863,19.936,71.6,14,Waypoint,
38.0966028,-120.1425738,5216.4301902197,125.984256,0,2.07656830792,18700,2018-05-10 21:52:59,15,0,23.281,5216.4301902197,125.984256,0.447388,2.09966542152,0,0,-0.671082,328.6, 1.3, -4.9,0,0,1024,1024,1024,1024,329.8,-89.9,97,3.861,3.859,3.865,3.911,3.915,3.863,19.936,71.6,14,Waypoint,
38.0966029,-120.1425738,5217.4144422197,126.968508,0,2.09856962096,18800,2018-05-10 21:52:59,15,0,23.281,5217.4144422197,126.968508,0.447388,2.09966542152,0,0,-0.671082,328.6, 1.3, -5.2,0,0,1024,1024,1024,1024,329.8,-89.9,97,3.861,3.859,3.865,3.911,3.915,3.863,19.936,71.6,14,Waypoint,
38.0966029,-120.1425737,5218.3986942197,127.95276,0,2.1214239524,18900,2018-05-10 21:53:00,15,0,23.281,5218.3986942197,127.95276,0.447388,2.1214239524,0,0,-0.671082,328.7, 1.1, -5.5,0,0,1024,1024,1024,1024,329.8,-89.9,97,3.861,3.859,3.865,3.911,3.915,3.863,19.936,71.6,14,Waypoint,
38.0966029,-120.1425737,5219.3829462197,128.937012,0,2.1214239524,19000,2018-05-10 21:53:00,15,0,23.093,5219.3829462197,128.937012,0.447388,2.1214239524,0,0,-0.671082,328.8, 0.7, -5.5,0,0,1024,1024,1024,1024,329.8,-89.9,97,3.809,3.817,3.82,3.874,3.879,3.82,21.862,71.6,14,Waypoint,
38.0966028,-120.1425736,5221.3514502197,130.905516,0,2.1229003304,19100,2018-05-10 21:53:00,15,0,23.093,5221.3514502197,130.905516,0.447388,2.1229003304,0,0,-0.671082,328.9, 0.5, -5.8,0,0,1024,1024,1024,1024,329.8,-89.9,97,3.809,3.817,3.82,3.874,3.879,3.82,21.862,71.6,14,Waypoint,
38.0966028,-120.1425736,5222.3357022197,131.889768,0,2.1229003304,19300,2018-05-10 21:53:00,15,0,23.093,5222.3357022197,131.889768,0.447388,2.1229003304,0,0,-0.671082,328.9, 0.3, -6,0,0,1024,1024,1024,1024,329.8,-89.9,97,3.809,3.817,3.82,3.874,3.879,3.82,21.862,71.6,14,Waypoint,
38.0966028,-120.1425735,5224.3042062197,133.858272,0,2.14626647288,19400,2018-05-10 21:53:00,15,0,23.093,5224.3042062197,133.858272,0.447388,2.14626647288,0,0,-0.671082,328.9, 0.4, -6.2,0,0,1024,1024,1024,1024,329.8,-89.9,97,3.809,3.817,3.82,3.874,3.879,3.82,21.862,71.6,14,Waypoint,
38.0966027,-120.1425735,5225.2884582197,134.842524,0,2.12538720712,19500,2018-05-10 21:53:00,15,0,23.093,5225.2884582197,134.842524,0.447388,2.14626647288,0,0,-0.671082,329, 0.4, -5.9,0,0,1024,1024,1024,1024,329.8,-89.9,97,3.809,3.817,3.82,3.874,3.879,3.82,21.862,71.6,14,Waypoint,
38.0966027,-120.1425735,5226.6007942197,136.15486,0,2.12538720712,19600,2018-05-10 21:53:00,15,0,23.093,5226.6007942197,136.15486,0.447388,2.14626647288,0,0,-0.671082,329.1, 0.3, -5.9,0,0,1024,1024,1024,1024,329.8,-89.9,97,3.809,3.817,3.82,3.874,3.879,3.82,21.862,71.6,14,Waypoint,
38.0966027,-120.1425735,5227.5850462197,137.139112,0,2.12538720712,19700,2018-05-10 21:53:00,15,0,23.093,5227.5850462197,137.139112,0.447388,2.14626647288,0,0,-0.671082,329.1, 0.4, -5.8,0,0,1024,1024,1024,1024,329.8,-89.9,97,3.809,3.817,3.82,3.874,3.879,3.82,21.862,71.6,14,Waypoint,
38.0966027,-120.1425736,5228.5692982197,138.123364,0,2.101788125,19800,2018-05-10 21:53:00,15,0,23.093,5228.5692982197,138.123364,0.447388,2.14626647288,0,0,-0.671082,329, 0.6, -5.7,0,0,1024,1024,1024,1024,329.8,-89.9,97,3.809,3.817,3.82,3.874,3.879,3.82,21.862,71.6,14,Waypoint,
38.0966027,-120.1425736,5229.2254662197,138.779532,0,2.101788125,19900,2018-05-10 21:53:01,15,0,23.093,5229.2254662197,138.779532,0.447388,2.14626647288,0,0,-0.671082,329.1, 0.8, -5.7,0,0,1024,1024,1024,1024,329.8,-89.9,97,3.809,3.817,3.82,3.874,3.879,3.82,21.862,71.6,14,Waypoint,
38.0966026,-120.1425737,5230.2097182197,139.763784,0,2.0573983598,20000,2018-05-10 21:53:01,15,0,22.841,5230.2097182197,139.763784,0.447388,2.14626647288,0,0,-0.671082,329.2, 0.8, -5.5,0,0,1024,1024,1024,1024,329.8,-89.9,97,3.809,3.817,3.82,3.874,3.879,3.82,23.507,71.6,14,Waypoint,
38.0966026,-120.1425737,5231.1939702197,140.748036,0,2.0573983598,20100,2018-05-10 21:53:01,15,0,22.841,5231.1939702197,140.748036,0.447388,2.14626647288,0,0,-0.671082,329.3, 0.6, -5.3,0,0,1024,1024,1024,1024,329.8,-89.9,97,3.809,3.817,3.82,3.874,3.879,3.82,23.507,71.6,14,Waypoint,
38.0966025,-120.1425738,5232.5063062197,142.060372,0,2.01309717728,20200,2018-05-10 21:53:01,15,0,22.841,5232.5063062197,142.060372,0.447388,2.14626647288,0,0,-0.671082,329.3, 0.3, -5.2,0,0,1024,1024,1024,1024,329.8,-90,97,3.809,3.817,3.82,3.874,3.879,3.82,23.507,71.6,14,Waypoint,
38.0966025,-120.1425739,5233.4905582197,143.044624,0,1.98941279332,20300,2018-05-10 21:53:01,15,0,22.841,5233.4905582197,143.044624,0.447388,2.14626647288,0,0,-0.671082,329.2, 0.1, -5,0,0,1024,1024,1024,1024,329.8,-90,97,3.809,3.817,3.82,3.874,3.879,3.82,23.507,71.6,14,Waypoint,
38.0966024,-120.1425741,5235.4590622197,145.013128,0,1.92142722684,20520,2018-05-10 21:53:01,15,0,22.841,5235.4590622197,145.013128,0.447388,2.14626647288,0,0,-0.671082,328.9, 0.3, -5.1,0,0,1024,1024,1024,1024,329.8,-89.9,97,3.809,3.817,3.82,3.874,3.879,3.82,23.507,71.6,14,Waypoint,
38.0966023,-120.1425742,5236.4433142197,145.99738,0,1.87709651676,20700,2018-05-10 21:53:01,15,0,22.841,5236.4433142197,145.99738,0.447388,2.14626647288,0,0,-0.671082,328.7, 0.5, -4.8,0,0,1024,1024,1024,1024,329.8,-89.9,97,3.809,3.817,3.82,3.874,3.879,3.82,23.507,71.6,14,Waypoint,
38.0966023,-120.1425743,5237.4275662197,146.981632,0,1.85345150288,20800,2018-05-10 21:53:01,15,0,22.841,5237.4275662197,146.981632,0.447388,2.14626647288,0,0,-0.671082,328.5, 0.5, -4.9,0,0,1024,1024,1024,1024,329.8,-89.9,97,3.809,3.817,3.82,3.874,3.879,3.82,23.507,71.6,14,Waypoint,
38.0966023,-120.1425744,5238.4118182197,147.965884,0,1.82994756512,20900,2018-05-10 21:53:02,15,0,22.841,5238.4118182197,147.965884,0.447388,2.14626647288,0,0,-0.671082,328.5, 0.6, -4.9,0,0,1024,1024,1024,1024,329.8,-89.9,97,3.809,3.817,3.82,3.874,3.879,3.82,23.507,71.6,14,Waypoint,
38.0966023,-120.1425745,5239.3960702197,148.950136,0,1.80659782684,21000,2018-05-10 21:53:02,15,0,22.841,5239.3960702197,148.950136,0.447388,2.14626647288,0,0,-0.671082,328.5, 0.8, -4.6,0,0,1024,1024,1024,1024,329.8,-89.9,97,3.775,3.794,3.783,3.86,3.847,3.787,23.507,73.4,14,Waypoint,
38.0966023,-120.1425747,5240.3803222197,149.934388,0,1.76037407208,21100,2018-05-10 21:53:02,15,0,22.841,5240.3803222197,149.934388,0.447388,2.14626647288,0,0,-0.671082,328.5, 1, -4.6,0,0,1024,1024,1024,1024,329.8,-89.9,97,3.775,3.794,3.783,3.86,3.847,3.787,23.507,73.4,14,Waypoint,
38.0966023,-120.1425748,5241.6926582197,151.246724,0,1.73751317896,21200,2018-05-10 21:53:02,15,0,22.841,5241.6926582197,151.246724,0.447388,2.14626647288,0,0,-0.671082,328.5, 0.9, -4.8,0,0,1024,1024,1024,1024,329.8,-89.9,97,3.775,3.794,3.783,3.86,3.847,3.787,23.507,73.4,14,Waypoint,
38.0966023,-120.1425748,5242.6769102197,152.230976,0,1.73751317896,21300,2018-05-10 21:53:02,15,0,22.841,5242.6769102197,152.230976,0.447388,2.14626647288,0,0,-0.671082,328.7, 0.8, -5.3,0,0,1024,1024,1024,1024,329.8,-89.9,97,3.775,3.794,3.783,3.86,3.847,3.787,23.507,73.4,14,Waypoint,
38.0966023,-120.1425749,5243.6611622197,153.215228,0,1.71482617036,21400,2018-05-10 21:53:02,15,0,22.841,5243.6611622197,153.215228,0.447388,2.14626647288,0,0,-0.671082,328.7, 1.1, -5.5,0,0,1024,1024,1024,1024,329.8,-89.9,97,3.775,3.794,3.783,3.86,3.847,3.787,23.507,73.4,14,Waypoint,
38.0966023,-120.1425749,5244.6454142197,154.19948,0,1.71482617036,21500,2018-05-10 21:53:02,15,0,22.841,5244.6454142197,154.19948,0.447388,2.14626647288,0,0,-0.671082,328.7, 1.3, -5.5,0,0,1024,1024,1024,1024,329.8,-89.9,97,3.775,3.794,3.783,3.86,3.847,3.787,23.507,73.4,14,Waypoint,
38.0966024,-120.142575,5245.6296662197,155.183732,0,1.7153707898,21600,2018-05-10 21:53:02,15,0,22.841,5245.6296662197,155.183732,0.447388,2.14626647288,0,0,-0.671082,328.6, 1.6, -5.4,0,0,1024,1024,1024,1024,329.8,-89.9,97,3.775,3.794,3.783,3.86,3.847,3.787,23.507,73.4,14,Waypoint,
38.0966024,-120.1425751,5246.6139182197,156.167984,0,1.69336291508,21700,2018-05-10 21:53:02,15,0,22.841,5246.6139182197,156.167984,0.447388,2.14626647288,0,0,-0.671082,328.6, 1.6, -5.3,0,0,1024,1024,1024,1024,329.8,-89.9,97,3.775,3.794,3.783,3.86,3.847,3.787,23.507,73.4,14,Waypoint,
38.0966025,-120.1425752,5248.5824222197,158.136488,0,1.69567262644,21800,2018-05-10 21:53:02,15,0,22.841,5248.5824222197,158.136488,0.447388,2.14626647288,0,0,-0.671082,328.6, 1.9, -5,0,0,1024,1024,1024,1024,329.8,-89.9,97,3.775,3.794,3.783,3.86,3.847,3.787,23.507,73.4,14,Waypoint,
38.0966025,-120.1425753,5249.5666742197,159.12074,0,1.67438981736,21900,2018-05-10 21:53:03,15,0,22.841,5249.5666742197,159.12074,0.447388,2.14626647288,0,0,-0.671082,328.7, 2, -5.3,0,0,1024,1024,1024,1024,329.8,-89.9,97,3.775,3.794,3.783,3.86,3.847,3.787,23.507,73.4,14,Waypoint,
38.0966025,-120.1425753,5250.5509262197,160.104992,0,1.67438981736,22000,2018-05-10 21:53:03,15,0,22.948,5250.5509262197,160.104992,0.447388,2.14626647288,0,0,-0.671082,328.8, 2, -5.2,0,0,1024,1024,1024,1024,329.8,-89.9,97,3.795,3.813,3.792,3.867,3.856,3.81,22.545,73.4,14,Waypoint,
38.0966025,-120.1425754,5251.8632622197,161.417328,0,1.6533301054,22100,2018-05-10 21:53:03,15,0,22.948,5251.8632622197,161.417328,0.447388,2.14626647288,0,0,-0.671082,328.8, 1.8, -5.4,0,0,1024,1024,1024,1024,329.8,-89.9,97,3.795,3.813,3.792,3.867,3.856,3.81,22.545,73.4,14,Waypoint,
38.0966026,-120.1425753,5252.8475142197,162.40158,0,1.6992454612,22200,2018-05-10 21:53:03,15,0,22.948,5252.8475142197,162.40158,0.447388,2.14626647288,0,0,-0.671082,328.7, 1.6, -5.8,0,0,1024,1024,1024,1024,329.8,-89.9,97,3.795,3.813,3.792,3.867,3.856,3.81,22.545,73.4,14,Waypoint,
38.0966027,-120.1425753,5253.8317662197,163.385832,0,1.72451777172,22300,2018-05-10 21:53:03,15,0,22.948,5253.8317662197,163.385832,0.447388,2.14626647288,0,0,-0.671082,328.8, 1.6, -6.2,0,0,1024,1024,1024,1024,329.8,-89.9,97,3.795,3.813,3.792,3.867,3.856,3.81,22.545,73.4,14,Waypoint,
38.0966027,-120.1425752,5255.1441022197,164.698168,0,1.74519034456,22400,2018-05-10 21:53:03,15,0,22.948,5255.1441022197,164.698168,0.447388,2.14626647288,0,0,-0.671082,328.7, 1.6, -6.7,0,0,1024,1024,1024,1024,329.8,-89.9,97,3.795,3.813,3.792,3.867,3.856,3.81,22.545,73.4,14,Waypoint,
38.0966028,-120.1425752,5256.1283542197,165.68242,0,1.77055779944,22500,2018-05-10 21:53:03,15,0,22.948,5256.1283542197,165.68242,0.447388,2.14626647288,0,0,-0.671082,328.6, 1.7, -6.9,0,0,1024,1024,1024,1024,329.8,-89.9,97,3.795,3.813,3.792,3.867,3.856,3.81,22.545,73.4,14,Waypoint,
38.0966028,-120.1425751,5257.1126062197,166.666672,0,1.7911581938,22600,2018-05-10 21:53:03,15,0,22.948,5257.1126062197,166.666672,0.447388,2.14626647288,0,0,-0.671082,328.6, 1.7, -6.9,0,0,1024,1024,1024,1024,329.8,-89.9,97,3.795,3.813,3.792,3.867,3.856,3.81,22.545,73.4,14,Waypoint,
38.0966029,-120.142575,5259.0811102197,168.635176,0,1.83714900892,22800,2018-05-10 21:53:03,15,0,22.948,5259.0811102197,168.635176,0.447388,2.14626647288,0,0,-0.671082,328.7, 1.5, -6.7,0,0,1024,1024,1024,1024,329.8,-89.9,97,3.795,3.813,3.792,3.867,3.856,3.81,22.545,73.4,14,Waypoint,
38.0966029,-120.142575,5260.0653622197,169.619428,0,1.83714900892,23000,2018-05-10 21:53:04,15,0,22.933,5260.0653622197,169.619428,0.447388,2.14626647288,0,0,-0.671082,328.8, 1.3, -6.3,0,0,1024,1024,1024,1024,329.8,-89.9,96,3.803,3.809,3.795,3.856,3.865,3.809,22.089,73.4,14,Waypoint,
38.0966029,-120.142575,5261.7057822197,171.259848,0,1.83714900892,23200,2018-05-10 21:53:04,15,0,22.933,5261.7057822197,171.259848,0.447388,2.14626647288,0,0,-0.671082,328.8, 1.4, -6.1,0,0,1024,1024,1024,1024,329.8,-89.9,96,3.803,3.809,3.795,3.856,3.865,3.809,22.089,73.4,14,Waypoint,
38.0966029,-120.1425751,5262.6900342197,172.2441,0,1.8166175122,23300,2018-05-10 21:53:04,15,0,22.933,5262.6900342197,172.2441,0.447388,2.14626647288,0,0,-0.671082,328.8, 1.7, -6.1,0,0,1024,1024,1024,1024,329.8,-89.9,96,3.803,3.809,3.795,3.856,3.865,3.809,22.089,73.4,14,Waypoint,
38.096603,-120.1425751,5264.0023702197,173.556436,0,1.84244756552,23400,2018-05-10 21:53:04,15,0,22.933,5264.0023702197,173.556436,0.447388,2.14626647288,0,0,-0.671082,328.7, 2, -6.3,0,0,1024,1024,1024,1024,329.8,-89.9,96,3.803,3.809,3.795,3.856,3.865,3.809,22.089,73.4,14,Waypoint,
38.096603,-120.1425752,5264.9866222197,174.540688,0,1.822424599,23500,2018-05-10 21:53:04,15,0,22.933,5264.9866222197,174.540688,0.447388,2.14626647288,0,0,-0.671082,328.7, 2.2, -6.4,0,0,1024,1024,1024,1024,329.8,-89.9,96,3.803,3.809,3.795,3.856,3.865,3.809,22.089,73.4,14,Waypoint,
38.096603,-120.1425752,5265.9708742197,175.52494,0,1.822424599,23600,2018-05-10 21:53:04,15,0,22.933,5265.9708742197,175.52494,0.447388,2.14626647288,0,0,-0.671082,328.7, 2.3, -6.1,0,0,1024,1024,1024,1024,329.8,-89.9,96,3.803,3.809,3.795,3.856,3.865,3.809,22.089,73.4,14,Waypoint,
38.096603,-120.1425753,5266.9551262197,176.509192,0,1.8026411338,23700,2018-05-10 21:53:04,15,0,22.933,5266.9551262197,176.509192,0.447388,2.14626647288,0,0,-0.671082,328.7, 2.3, -5.8,0,0,1024,1024,1024,1024,329.8,-89.9,96,3.803,3.809,3.795,3.856,3.865,3.809,22.089,73.4,14,Waypoint,
38.0966031,-120.1425753,5267.9393782197,177.493444,0,1.829396384,23800,2018-05-10 21:53:04,15,0,22.933,5267.9393782197,177.493444,0.447388,2.14626647288,0,0,-0.671082,328.6, 2.2, -5.7,0,0,1024,1024,1024,1024,329.8,-89.9,96,3.803,3.809,3.795,3.856,3.865,3.809,22.089,73.4,14,Waypoint,
38.0966031,-120.1425753,5268.9236302197,178.477696,0,1.829396384,23900,2018-05-10 21:53:05,15,0,22.933,5268.9236302197,178.477696,0.447388,2.14626647288,0,0,-0.671082,328.6, 2.1, -5.7,0,0,1024,1024,1024,1024,329.8,-89.9,96,3.803,3.809,3.795,3.856,3.865,3.809,22.089,73.4,14,Waypoint,
38.0966031,-120.1425753,5270.8921342197,180.4462,0,1.829396384,24000,2018-05-10 21:53:05,15,0,23.01,5270.8921342197,180.4462,0.447388,2.14626647288,0,0,-0.671082,328.6, 2.3, -5.9,0,0,1024,1024,1024,1024,329.8,-89.9,96,3.813,3.813,3.832,3.871,3.89,3.807,20.963,73.4,14,Waypoint,
38.0966031,-120.1425753,5271.8763862197,181.430452,0,1.829396384,24100,2018-05-10 21:53:05,15,0,23.01,5271.8763862197,181.430452,0.447388,2.14626647288,0,0,-0.671082,328.5, 2.4, -6.5,0,0,1024,1024,1024,1024,329.8,-89.9,96,3.813,3.813,3.832,3.871,3.89,3.807,20.963,73.4,14,Waypoint,
38.0966031,-120.1425753,5273.5168062197,183.070872,0,1.829396384,24300,2018-05-10 21:53:05,15,0,23.01,5273.5168062197,183.070872,0.447388,2.14626647288,0,0,-0.671082,328.4, 2.2, -6.1,0,0,1024,1024,1024,1024,329.8,-89.9,96,3.813,3.813,3.832,3.871,3.89,3.807,20.963,73.4,14,Waypoint,
38.0966031,-120.1425754,5274.5010582197,184.055124,0,1.81014113404,24400,2018-05-10 21:53:05,15,0,23.01,5274.5010582197,184.055124,0.447388,2.14626647288,0,0,-0.671082,328.4, 2.1, -5.8,0,0,1024,1024,1024,1024,329.8,-89.9,96,3.813,3.813,3.832,3.871,3.89,3.807,20.963,73.4,14,Waypoint,
38.0966031,-120.1425754,5275.4853102197,185.039376,0,1.81014113404,24500,2018-05-10 21:53:05,15,0,23.01,5275.4853102197,185.039376,0.447388,2.14626647288,0,0,-0.671082,328.4, 2, -5.8,0,0,1024,1024,1024,1024,329.8,-89.9,96,3.813,3.813,3.832,3.871,3.89,3.807,20.963,73.4,14,Waypoint,
38.096603,-120.1425755,5276.4695622197,186.023628,0,1.76380583072,24600,2018-05-10 21:53:05,15,0,23.01,5276.4695622197,186.023628,0.447388,2.14626647288,0,0,-0.671082,328.5, 1.9, -5.7,0,0,1024,1024,1024,1024,329.8,-89.9,96,3.813,3.813,3.832,3.871,3.89,3.807,20.963,73.4,14,Waypoint,
38.096603,-120.1425755,5277.4538142197,187.00788,0,1.76380583072,24700,2018-05-10 21:53:05,15,0,23.01,5277.4538142197,187.00788,0.447388,2.14626647288,0,0,-0.671082,328.6, 2.1, -5.7,0,0,1024,1024,1024,1024,329.8,-89.9,96,3.813,3.813,3.832,3.871,3.89,3.807,20.963,73.4,14,Waypoint,
38.0966029,-120.1425755,5278.4380662197,187.992132,0,1.73680779836,24800,2018-05-10 21:53:05,15,0,23.01,5278.4380662197,187.992132,0.447388,2.14626647288,0,0,-0.671082,328.6, 2, -5.6,0,0,1024,1024,1024,1024,329.8,-89.9,96,3.813,3.813,3.832,3.871,3.89,3.807,20.963,73.4,14,Waypoint,
38.0966029,-120.1425756,5279.4223182197,188.976384,0,1.71747708908,24900,2018-05-10 21:53:06,15,0,23.01,5279.4223182197,188.976384,0.447388,2.14626647288,0,0,-0.671082,328.6, 2.1, -5.3,0,0,1024,1024,1024,1024,329.8,-89.9,96,3.813,3.813,3.832,3.871,3.89,3.807,20.963,73.4,14,Waypoint,
38.0966028,-120.1425756,5280.4065702197,189.960636,0,1.69052498848,25000,2018-05-10 21:53:06,15,0,23.079,5280.4065702197,189.960636,0.447388,2.14626647288,0,0,-0.671082,328.6, 2.1, -5.1,0,0,1024,1024,1024,1024,329.8,-89.9,96,3.823,3.838,3.817,3.887,3.878,3.846,19.786,73.4,14,Waypoint,
38.0966027,-120.1425756,5282.3750742197,191.92914,0,1.66393706112,25220,2018-05-10 21:53:06,15,0,23.079,5282.3750742197,191.92914,0.447388,2.14626647288,0,0,-0.671082,328.4, 2.1, -5.1,0,0,1024,1024,1024,1024,329.8,-89.9,96,3.823,3.838,3.817,3.887,3.878,3.846,19.786,73.4,14,Waypoint,
38.0966027,-120.1425756,5283.3593262197,192.913392,0,1.66393706112,25320,2018-05-10 21:53:06,15,0,23.079,5283.3593262197,192.913392,0.447388,2.14626647288,0,0,-0.671082,328.4, 1.9, -5.2,0,0,1024,1024,1024,1024,329.8,-89.9,96,3.823,3.838,3.817,3.887,3.878,3.846,19.786,73.4,14,Waypoint,
38.0966027,-120.1425756,5283.3593262197,192.913392,0,1.66393706112,25400,2018-05-10 21:53:06,15,0,23.079,5283.3593262197,192.913392,0.447388,2.14626647288,0,0,-0.671082,328.4, 1.9, -5.2,0,0,1024,1024,1024,1024,329.8,-89.9,96,3.823,3.838,3.817,3.887,3.878,3.846,19.786,73.4,14,Waypoint,
38.0966026,-120.1425756,5284.3435782197,193.897644,0,1.6377297112,25500,2018-05-10 21:53:06,15,0,23.079,5284.3435782197,193.897644,0.447388,2.14626647288,0,0,-0.671082,328.4, 1.9, -5.3,0,0,1024,1024,1024,1024,329.8,-89.9,96,3.823,3.838,3.817,3.887,3.878,3.846,19.786,73.4,14,Waypoint,
38.0966026,-120.1425755,5286.3120822197,195.866148,0,1.65799217904,25610,2018-05-10 21:53:06,15,0,23.079,5286.3120822197,195.866148,0.447388,2.14626647288,0,0,-0.671082,328.4, 1.5, -5.7,0,0,1024,1024,1024,1024,329.8,-89.9,96,3.823,3.838,3.817,3.887,3.878,3.846,19.786,73.4,14,Waypoint,
38.0966025,-120.1425754,5287.2963342197,196.8504,0,1.6533301054,25800,2018-05-10 21:53:06,15,0,23.079,5287.2963342197,196.8504,0.447388,2.14626647288,0,0,-0.671082,328.5, 1.6, -5.9,0,0,1024,1024,1024,1024,329.8,-89.9,96,3.823,3.838,3.817,3.887,3.878,3.846,19.786,73.4,14,Waypoint,
38.0966025,-120.1425754,5288.2805862197,197.834652,0,1.6533301054,25900,2018-05-10 21:53:07,15,0,23.079,5288.2805862197,197.834652,0.447388,2.14626647288,0,0,-0.671082,328.6, 1.8, -5.9,0,0,1024,1024,1024,1024,329.8,-89.9,96,3.823,3.838,3.817,3.887,3.878,3.846,19.786,73.4,14,Waypoint,
38.0966025,-120.1425753,5289.2648382197,198.818904,0,1.67438981736,26000,2018-05-10 21:53:07,15,0,23.083,5289.2648382197,198.818904,0.447388,2.14626647288,0,0,-0.671082,328.7, 1.9, -5.7,0,0,1024,1024,1024,1024,329.8,-89.9,96,3.833,3.832,3.831,3.88,3.868,3.836,20.17,73.4,14,Waypoint,
38.0966024,-120.1425753,5290.2490902197,199.803156,0,1.64996396356,26100,2018-05-10 21:53:07,15,0,23.083,5290.2490902197,199.803156,0.447388,2.14626647288,0,0,-0.671082,328.7, 2, -5.6,0,0,1024,1024,1024,1024,329.8,-89.9,96,3.833,3.832,3.831,3.88,3.868,3.836,20.17,73.4,14,Waypoint,
38.0966024,-120.1425753,5291.2333422197,200.787408,0,1.64996396356,26200,2018-05-10 21:53:07,15,0,23.083,5291.2333422197,200.787408,0.447388,2.14626647288,0,0,-0.671082,328.8, 2, -5.6,0,0,1024,1024,1024,1024,329.8,-89.9,96,3.833,3.832,3.831,3.88,3.868,3.836,20.17,73.4,14,Waypoint,
38.0966023,-120.1425752,5293.2018462197,202.755912,0,1.64789703436,26300,2018-05-10 21:53:07,15,0,23.083,5293.2018462197,202.755912,0.447388,2.14626647288,0,0,-0.671082,328.8, 1.7, -5.5,0,0,1024,1024,1024,1024,329.8,-89.9,96,3.833,3.832,3.831,3.88,3.868,3.836,20.17,73.4,14,Waypoint,
