Latitude, Longitude, Altitude (m), Time, Sats, Speed (m/s), Range (m), Battery (%), Roll (deg), Pitch (deg), Yaw (deg), Images, HD Signal (%), RC Signal (%), Battery Temp (C), Battery Voltage (mV), Battery Current (mA), Battery Energy (mAh), Battery Capacity (mAh), Battery Discharges, flyState, timestamp (Unix), LastUpdate (ms), radioChannel, Rc_elevator, Rc_aileron, Rc_throttle, Rc_rudder, Rc_gyro, Dronetype, Battery_Cell1 (mV), Battery_Cell2 (mV), Battery_Cell3 (mV), Battery_Cell4 (mV), Battery_Cell5 (mV), Battery_Cell6 (mV), Video, isFlying, elapsedTime (ms), gimbalPitch (deg), gimbalRoll (deg), gimbalYaw (deg), VelocityX (m/s), VelocityY (m/s), VelocityZ (m/s), GroundSmear (cm), App Version, Aircraft Name, Aircraft Firmware, Aircraft Serial Number, Battery Serial Number, Battery Lifetime (%), App_Tip, App_Warning, CurrentFlightStartingIndex, CurrentFlightLastVisitedWaypoint, PreviousFlightEndingWaypointIndex
38.0966040, -120.1426202, 0.000, 14:08:47.625, 16, 0.00, 0.08, 98, 0.000, 0.400, 151.600, 392, 100, 100, 20, 25429, -3951, 5474, 5586, 6, 11, 1525986527.625, 118, 0, 1024, 1024, 1024, 1024, 0, 6, 4281, 4277, 4265, 4283, 4285, 4283, 0, 1, 3194, -89.900, 0.000, 150.700, 0.000, 0.000, -0.100, 0.0, MapPilot_2.8.1_04242018, Dendroctonus I, 1.3.1.00, 041DDC1887, 1058163200468, 99, DJI_0395.jpg, Starting Mission from Lat/Long: 38.09660/-120.14263 Camera: Zenmuse X3 - Overlap: 90/90 - Active Connection: No, 19, 19, 19
38.0966040, -120.1426202, 0.000, 14:08:47.631, 16, 0.00, 0.08, 98, 0.000, 0.400, 151.600, 392, 100, 100, 20, 25429, -3951, 5474, 5586, 6, 11, 1525986527.632, 125, 0, 1024, 1024, 1024, 1024, 0, 6, 4236, 4246, 4184, 4232, 4229, 4240, 0, 1, 3201, -89.900, 0.000, 150.700, 0.000, 0.000, -0.100, 0.0, , , , , , 99, , , 19, 19, 19
38.0966040, -120.1426200, 0.000, 14:08:47.732, 16, 0.00, 0.10, 98, 0.500, 0.600, 151.800, 392, 100, 100, 20, 25429, -3951, 5474, 5586, 6, 11, 1525986527.732, 16, 0, 1024, 1024, 1024, 1024, 0, 6, 4236, 4246, 4184, 4232, 4229, 4240, 0, 1, 3301, -89.900, 0.000, 150.700, 0.000, 0.000, -0.500, 0.0, , , , , , 99, , , 19, 19, 19
38.0966041, -120.1426198, 0.000, 14:08:47.832, 16, 0.10, 0.11, 98, 0.400, 0.400, 151.600, 392, 100, 100, 20, 25429, -3951, 5474, 5586, 6, 11, 1525986527.832, 31, 0, 1024, 1024, 1024, 1024, 0, 6, 4236, 4246, 4184, 4232, 4229, 4240, 0, 1, 3401, -89.900, 0.000, 150.700, 0.000, 0.100, -0.500, 0.0, , , , , , 99, , , 19, 19, 19
38.0966041, -120.1426197, 0.000, 14:08:47.931, 16, 0.10, 0.13, 98, 0.300, 0.100, 151.400, 392, 100, 100, 20, 25429, -3951, 5474, 5586, 6, 11, 1525986527.932, 28, 0, 1024, 1024, 1024, 1024, 0, 6, 4236, 4246, 4184, 4232, 4229, 4240, 0, 1, 3501, -90.000, 0.000, 150.700, 0.000, 0.100, -0.400, 0.0, , , , , , 99, , , 19, 19, 19
38.0966041, -120.1426196, 0.100, 14:08:48.032, 16, 0.10, 0.14, 98, 0.300, 0.200, 151.200, 392, 100, 100, 20, 25429, -3951, 5474, 5586, 6, 11, 1525986528.032, 20, 0, 1024, 1024, 1024, 1024, 0, 6, 4236, 4246, 4184, 4232, 4229, 4240, 0, 1, 3601, -89.900, 0.000, 150.700, 0.000, 0.100, -0.400, 0.0, , , , , , 99, , , 19, 19, 19
38.0966041, -120.1426196, 0.100, 14:08:48.132, 16, 0.10, 0.14, 98, 0.300, 0.200, 151.200, 392, 100, 100, 20, 25429, -3951, 5474, 5586, 6, 11, 1525986528.132, 120, 0, 1024, 1024, 1024, 1024, 0, 6, 4236, 4246, 4184, 4232, 4229, 4240, 0, 1, 3701, -89.900, 0.000, 150.700, 0.000, 0.100, -0.400, 0.0, , , , , , 99, , , 19, 19, 19
38.0966041, -120.1426194, 0.100, 14:08:48.232, 16, 0.10, 0.15, 98, 0.500, 0.300, 151.000, 392, 100, 100, 20, 25429, -3951, 5474, 5586, 6, 11, 1525986528.232, 85, 0, 1024, 1024, 1024, 1024, 0, 6, 4236, 4246, 4184, 4232, 4229, 4240, 0, 1, 3801, -89.900, 0.000, 150.700, 0.000, 0.100, -0.400, 0.0, , , , , , 99, , , 19, 19, 19
38.0966042, -120.1426192, 0.200, 14:08:48.332, 15, 0.10, 0.17, 98, 1.500, 0.100, 151.000, 392, 100, 100, 20, 25429, -3951, 5474, 5586, 6, 11, 1525986528.332, 89, 0, 1024, 1024, 1024, 1024, 0, 6, 4236, 4246, 4184, 4232, 4229, 4240, 0, 1, 3901, -89.900, 0.000, 150.700, 0.000, 0.100, -0.400, 0.0, , , , , , 99, , , 19, 19, 19
38.0966041, -120.1426187, 0.300, 14:08:48.432, 15, 0.10, 0.22, 98, 2.000, 0.500, 150.900, 392, 100, 100, 20, 25429, -3951, 5474, 5586, 6, 11, 1525986528.433, 5, 0, 1024, 1024, 1024, 1024, 0, 6, 4236, 4246, 4184, 4232, 4229, 4240, 0, 1, 4002, -89.900, 0.000, 150.700, 0.000, 0.100, -0.400, 0.0, , , , , , 99, , , 19, 19, 19
38.0966041, -120.1426187, 0.300, 14:08:48.531, 15, 0.10, 0.22, 98, 2.000, 0.500, 150.900, 392, 100, 100, 20, 25429, -3951, 5474, 5586, 6, 11, 1525986528.532, 104, 0, 1024, 1024, 1024, 1024, 0, 6, 4236, 4246, 4184, 4232, 4229, 4240, 0, 1, 4101, -89.900, 0.000, 150.700, 0.000, 0.100, -0.400, 0.0, , , , , , 99, , , 19, 19, 19
38.0966041, -120.1426185, 0.400, 14:08:48.631, 15, 0.10, 0.23, 98, 2.000, 0.800, 150.900, 392, 100, 100, 20, 24862, -6362, 5474, 5586, 6, 11, 1525986528.631, 86, 0, 1024, 1024, 1024, 1024, 0, 6, 4092, 4076, 4046, 4102, 4095, 4124, 0, 1, 4201, -89.900, 0.000, 150.700, 0.000, 0.100, -0.400, 0.0, , , , , , 99, , , 19, 19, 19
38.0966041, -120.1426184, 0.400, 14:08:48.732, 14, 0.10, 0.24, 98, 1.600, 1.100, 150.900, 392, 100, 100, 20, 24862, -6362, 5474, 5586, 6, 11, 1525986528.732, 87, 0, 1024, 1024, 1024, 1024, 0, 6, 4092, 4076, 4046, 4102, 4095, 4124, 0, 1, 4301, -89.900, 0.000, 150.700, 0.000, 0.100, -0.400, 0.0, , , , , , 99, , , 19, 19, 19
38.0966039, -120.1426182, 0.500, 14:08:48.832, 14, 0.10, 0.26, 98, 1.600, 1.600, 151.000, 392, 100, 100, 20, 24862, -6362, 5474, 5586, 6, 11, 1525986528.832, 88, 0, 1024, 1024, 1024, 1024, 0, 6, 4092, 4076, 4046, 4102, 4095, 4124, 0, 1, 4401, -89.900, 0.000, 150.700, 0.000, 0.100, -0.400, 0.0, , , , , , 99, , , 19, 19, 19
38.0966038, -120.1426181, 0.500, 14:08:48.932, 14, 0.10, 0.27, 98, 1.700, 2.200, 151.200, 392, 100, 100, 20, 24862, -6362, 5474, 5586, 6, 11, 1525986528.932, 84, 0, 1024, 1024, 1024, 1024, 0, 6, 4092, 4076, 4046, 4102, 4095, 4124, 0, 1, 4502, -89.900, 0.000, 150.700, 0.000, 0.100, -0.400, 0.0, , , , , , 99, , , 19, 19, 19
38.0966038, -120.1426179, 0.600, 14:08:49.032, 14, 0.00, 0.28, 98, 1.800, 2.400, 151.500, 392, 100, 100, 20, 24862, -6362, 5474, 5586, 6, 11, 1525986529.032, 86, 0, 1024, 1024, 1024, 1024, 0, 6, 4092, 4076, 4046, 4102, 4095, 4124, 0, 1, 4601, -89.900, 0.000, 150.700, 0.000, 0.000, -0.400, 0.0, , , , , , 99, , , 19, 19, 19
38.0966037, -120.1426179, 0.600, 14:08:49.132, 14, 0.00, 0.29, 98, 2.200, 2.200, 151.700, 392, 100, 100, 20, 24862, -6362, 5474, 5586, 6, 11, 1525986529.132, 86, 0, 1024, 1024, 1024, 1024, 0, 6, 4092, 4076, 4046, 4102, 4095, 4124, 0, 1, 4701, -89.900, 0.000, 150.700, 0.000, 0.000, -0.500, 0.0, , , , , , 99, , , 19, 19, 19
38.0966036, -120.1426177, 0.700, 14:08:49.231, 14, 0.00, 0.30, 98, 2.100, 2.000, 152.100, 392, 100, 100, 20, 24862, -6362, 5474, 5586, 6, 11, 1525986529.231, 46, 0, 1024, 1024, 1024, 1024, 0, 6, 4092, 4076, 4046, 4102, 4095, 4124, 0, 1, 4800, -89.900, 0.000, 150.700, 0.000, 0.000, -0.500, 0.0, , , , , , 99, , , 19, 19, 19
38.0966036, -120.1426177, 0.800, 14:08:49.332, 14, 0.00, 0.31, 98, 2.000, 2.000, 152.300, 392, 100, 100, 20, 24862, -6362, 5474, 5586, 6, 11, 1525986529.332, 63, 0, 1024, 1024, 1024, 1024, 0, 6, 4092, 4076, 4046, 4102, 4095, 4124, 0, 1, 4901, -89.900, 0.000, 150.700, 0.000, 0.000, -0.500, 0.0, , , , , , 99, , , 19, 19, 19
38.0966036, -120.1426176, 0.800, 14:08:49.432, 14, 0.00, 0.31, 98, 1.900, 2.000, 152.300, 392, 100, 100, 20, 24862, -6362, 5474, 5586, 6, 11, 1525986529.432, 30, 0, 1024, 1024, 1024, 1024, 0, 6, 4092, 4076, 4046, 4102, 4095, 4124, 0, 1, 5001, -89.900, 0.000, 150.700, 0.000, 0.000, -0.500, 0.0, , , , , , 99, , , 19, 19, 19
38.0966036, -120.1426176, 0.900, 14:08:49.532, 14, 0.00, 0.31, 98, 1.900, 2.000, 152.200, 392, 100, 100, 20, 23778, -16909, 5474, 5586, 6, 14, 1525986529.532, 59, 0, 1024, 1024, 1024, 1024, 0, 6, 3922, 3918, 3928, 3957, 3947, 3984, 0, 1, 5101, -89.900, 0.000, 150.700, 0.000, 0.000, -0.500, 0.0, , , , , , 99, , , 19, 19, 19
38.0966035, -120.1426176, 0.900, 14:08:49.632, 14, 0.00, 0.31, 98, 1.900, 2.000, 152.000, 392, 100, 100, 20, 23778, -16909, 5474, 5586, 6, 14, 1525986529.632, 44, 0, 1024, 1024, 1024, 1024, 0, 6, 3922, 3918, 3928, 3957, 3947, 3984, 0, 1, 5201, -89.900, 0.000, 150.700, 0.000, 0.000, -0.400, 0.0, , , , , , 99, , , 19, 19, 19
38.0966034, -120.1426175, 1.000, 14:08:49.732, 14, 0.00, 0.32, 98, 0.800, 1.200, 151.900, 392, 100, 100, 20, 23778, -16909, 5474, 5586, 6, 14, 1525986529.732, 31, 0, 1024, 1024, 1024, 1024, 0, 6, 3922, 3918, 3928, 3957, 3947, 3984, 0, 1, 5301, -90.000, 0.000, 150.700, 0.000, 0.000, -0.200, 0.0, , , , , , 99, , , 19, 19, 19
38.0966033, -120.1426175, 1.000, 14:08:49.832, 14, 0.00, 0.33, 98, 0.400, 0.800, 151.900, 392, 100, 100, 20, 23778, -16909, 5474, 5586, 6, 14, 1525986529.832, 34, 0, 1024, 1024, 1024, 1024, 0, 6, 3922, 3918, 3928, 3957, 3947, 3984, 0, 1, 5401, -90.000, 0.000, 150.700, 0.000, 0.000, -0.200, 0.0, , , , , , 99, , , 19, 19, 19
38.0966033, -120.1426174, 1.000, 14:08:49.931, 14, 0.00, 0.33, 98, 0.400, 0.700, 152.000, 392, 100, 100, 20, 23778, -16909, 5474, 5586, 6, 14, 1525986529.931, 38, 0, 1024, 1024, 1024, 1024, 0, 6, 3922, 3918, 3928, 3957, 3947, 3984, 0, 1, 5500, -90.000, 0.000, 150.800, 0.000, 0.000, -0.300, 0.0, , , , , , 99, , , 19, 19, 19
38.0966032, -120.1426173, 1.000, 14:08:50.032, 14, 0.00, 0.34, 98, 0.400, 0.700, 152.300, 392, 100, 100, 20, 23778, -16909, 5474, 5586, 6, 14, 1525986530.032, 16, 0, 1024, 1024, 1024, 1024, 0, 6, 3922, 3918, 3928, 3957, 3947, 3984, 0, 1, 5601, -90.000, 0.000, 150.800, 0.000, 0.000, -0.300, 0.0, , , , , , 99, , , 19, 19, 19
38.0966031, -120.1426173, 1.100, 14:08:50.136, 14, 0.00, 0.35, 98, 0.400, 0.900, 152.600, 392, 100, 100, 20, 23778, -16909, 5474, 5586, 6, 14, 1525986530.136, 20, 0, 1024, 1024, 1024, 1024, 0, 6, 3922, 3918, 3928, 3957, 3947, 3984, 0, 1, 5705, -89.900, 0.000, 150.800, 0.000, 0.000, -0.500, 0.0, , , , , , 99, , , 19, 19, 19
38.0966031, -120.1426172, 1.100, 14:08:50.232, 13, 0.00, 0.36, 98, 0.700, 1.500, 152.800, 392, 100, 100, 20, 23778, -16909, 5474, 5586, 6, 14, 1525986530.232, 15, 0, 1024, 1024, 1024, 1024, 0, 6, 3922, 3918, 3928, 3957, 3947, 3984, 0, 1, 5801, -89.900, 0.000, 150.800, 0.000, 0.000, -0.700, 0.0, , , , , , 99, , , 19, 19, 19
38.0966030, -120.1426171, 1.200, 14:08:50.333, 13, 0.00, 0.37, 98, 1.200, 2.000, 153.100, 392, 100, 100, 20, 23778, -16909, 5474, 5586, 6, 14, 1525986530.334, 3, 0, 1024, 1024, 1024, 1024, 0, 6, 3922, 3918, 3928, 3957, 3947, 3984, 0, 1, 5903, -89.900, 0.000, 150.900, 0.000, 0.000, -0.900, 0.0, , , , , , 99, , , 19, 19, 19
38.0966030, -120.1426170, 1.300, 14:08:50.434, 13, 0.00, 0.37, 98, 1.600, 2.200, 153.500, 392, 100, 100, 20, 23784, -16038, 5474, 5586, 6, 14, 1525986530.435, 8, 0, 1024, 1024, 1024, 1024, 0, 6, 3922, 3918, 3928, 3957, 3947, 3984, 0, 1, 6004, -89.900, 0.000, 150.900, 0.000, 0.000, -1.100, 0.0, , , , , , 99, , , 19, 19, 19
38.0966030, -120.1426170, 1.300, 14:08:50.532, 13, 0.00, 0.37, 98, 1.600, 2.200, 153.500, 392, 100, 100, 20, 23784, -16038, 5474, 5586, 6, 14, 1525986530.532, 105, 0, 1024, 1024, 1024, 1024, 0, 6, 3918, 3879, 3909, 3922, 3943, 3945, 0, 1, 6101, -89.900, 0.000, 150.900, 0.000, 0.000, -1.100, 0.0, , , , , , 99, , , 19, 19, 19
38.0966030, -120.1426169, 1.400, 14:08:50.632, 13, 0.00, 0.38, 98, 1.500, 2.100, 153.900, 392, 100, 100, 20, 23784, -16038, 5474, 5586, 6, 14, 1525986530.632, 84, 0, 1024, 1024, 1024, 1024, 0, 6, 3918, 3879, 3909, 3922, 3943, 3945, 0, 1, 6201, -89.900, 0.000, 151.000, 0.000, 0.000, -1.200, 0.0, , , , , , 99, , , 19, 19, 19
38.0966029, -120.1426168, 1.600, 14:08:50.731, 15, 0.00, 0.39, 98, 1.500, 1.700, 154.300, 392, 100, 100, 20, 23784, -16038, 5474, 5586, 6, 14, 1525986530.732, 66, 0, 1024, 1024, 1024, 1024, 0, 6, 3918, 3879, 3909, 3922, 3943, 3945, 0, 1, 6301, -89.900, 0.000, 151.100, 0.000, 0.000, -1.500, 0.0, , , , , , 99, , , 19, 19, 19
38.0966029, -120.1426167, 1.700, 14:08:50.832, 15, 0.00, 0.41, 98, 1.400, 1.500, 154.500, 392, 100, 100, 20, 23784, -16038, 5474, 5586, 6, 14, 1525986530.832, 83, 0, 1024, 1024, 1024, 1024, 0, 6, 3918, 3879, 3909, 3922, 3943, 3945, 0, 1, 6401, -89.900, 0.000, 151.200, 0.000, 0.000, -1.700, 0.0, , , , , , 99, , , 19, 19, 19
38.0966028, -120.1426166, 1.900, 14:08:50.932, 15, 0.00, 0.42, 98, 1.400, 1.500, 154.500, 392, 100, 100, 20, 23784, -16038, 5474, 5586, 6, 14, 1525986530.932, 91, 0, 1024, 1024, 1024, 1024, 0, 6, 3918, 3879, 3909, 3922, 3943, 3945, 0, 1, 6501, -89.900, 0.000, 151.300, 0.000, 0.000, -2.000, 0.0, , , , , , 99, , , 19, 19, 19
38.0966028, -120.1426165, 2.100, 14:08:51.032, 15, 0.00, 0.42, 98, 1.500, 1.500, 154.300, 392, 100, 100, 20, 23784, -16038, 5474, 5586, 6, 14, 1525986531.032, 81, 0, 1024, 1024, 1024, 1024, 0, 6, 3918, 3879, 3909, 3922, 3943, 3945, 0, 1, 6601, -89.900, 0.000, 151.400, 0.000, 0.000, -2.100, 0.0, , , , , , 99, , , 19, 19, 19
38.0966028, -120.1426164, 2.400, 14:08:51.132, 16, 0.00, 0.43, 98, 1.700, 1.700, 154.100, 392, 100, 100, 20, 23784, -16038, 5474, 5586, 6, 14, 1525986531.133, 92, 0, 1024, 1024, 1024, 1024, 0, 6, 3918, 3879, 3909, 3922, 3943, 3945, 0, 1, 6702, -89.900, 0.000, 151.500, 0.000, 0.000, -2.500, 0.0, , , , , , 99, , , 19, 19, 19
38.0966027, -120.1426163, 2.600, 14:08:51.232, 16, 0.00, 0.44, 98, 1.800, 2.000, 153.800, 392, 100, 100, 20, 23784, -16038, 5474, 5586, 6, 14, 1525986531.232, 36, 0, 1024, 1024, 1024, 1024, 0, 6, 3918, 3879, 3909, 3922, 3943, 3945, 0, 1, 6801, -89.900, 0.000, 151.600, 0.000, 0.000, -2.700, 0.0, , , , , , 99, , , 19, 19, 19
38.0966026, -120.1426162, 3.000, 14:08:51.332, 15, 0.00, 0.46, 98, 1.800, 2.000, 153.700, 392, 100, 100, 20, 23784, -16038, 5474, 5586, 6, 14, 1525986531.332, 68, 0, 1024, 1024, 1024, 1024, 0, 6, 3918, 3879, 3909, 3922, 3943, 3945, 0, 1, 6901, -89.900, 0.000, 151.600, 0.000, 0.000, -2.900, 0.0, , , , , , 99, , , 19, 19, 19
38.0966024, -120.1426161, 3.300, 14:08:51.431, 15, 0.00, 0.47, 98, 1.700, 2.200, 153.600, 392, 100, 100, 20, 23784, -16038, 5474, 5586, 6, 14, 1525986531.432, 53, 0, 1024, 1024, 1024, 1024, 0, 6, 3918, 3879, 3909, 3922, 3943, 3945, 0, 1, 7001, -89.900, 0.000, 151.700, 0.000, 0.000, -3.000, 0.0, , , , , , 99, , , 19, 19, 19
38.0966022, -120.1426160, 3.900, 14:08:51.532, 15, 0.00, 0.49, 98, 1.700, 2.700, 153.700, 392, 100, 100, 20, 22914, -23048, 5474, 5586, 6, 14, 1525986531.532, 64, 0, 1024, 1024, 1024, 1024, 0, 6, 3918, 3879, 3909, 3922, 3943, 3945, 0, 1, 7101, -89.900, 0.000, 151.800, 0.000, 0.000, -3.100, 0.0, , , , , , 99, , , 19, 19, 19
38.0966022, -120.1426159, 4.200, 14:08:51.632, 14, 0.00, 0.49, 98, 1.700, 2.600, 153.700, 392, 100, 100, 20, 22914, -23048, 5474, 5586, 6, 14, 1525986531.632, 30, 0, 1024, 1024, 1024, 1024, 0, 6, 3918, 3879, 3909, 3922, 3943, 3945, 0, 1, 7202, -89.900, 0.000, 151.800, 0.000, 0.000, -3.200, 0.0, , , , , , 99, , , 19, 19, 19
38.0966021, -120.1426159, 4.600, 14:08:51.732, 14, 0.00, 0.50, 98, 1.700, 2.400, 153.700, 392, 100, 100, 20, 22914, -23048, 5474, 5586, 6, 14, 1525986531.732, 33, 0, 1024, 1024, 1024, 1024, 0, 6, 3918, 3879, 3909, 3922, 3943, 3945, 0, 1, 7301, -89.900, 0.000, 151.900, 0.000, 0.000, -3.300, 0.0, , , , , , 99, , , 19, 19, 19
38.0966021, -120.1426159, 4.900, 14:08:51.832, 15, 0.00, 0.50, 98, 1.700, 2.100, 153.700, 392, 100, 100, 20, 22914, -23048, 5474, 5586, 6, 14, 1525986531.832, 32, 0, 1024, 1024, 1024, 1024, 0, 6, 3918, 3879, 3909, 3922, 3943, 3945, 0, 1, 7401, -89.900, 0.000, 151.900, 0.000, 0.000, -3.300, 0.0, , , , , , 99, , , 19, 19, 19
38.0966021, -120.1426160, 5.300, 14:08:51.932, 15, 0.00, 0.49, 98, 1.700, 1.800, 153.600, 392, 100, 100, 20, 22914, -23048, 5474, 5586, 6, 14, 1525986531.932, 37, 0, 1024, 1024, 1024, 1024, 0, 6, 3918, 3879, 3909, 3922, 3943, 3945, 0, 1, 7501, -89.900, 0.000, 152.000, 0.000, 0.000, -3.300, 0.0, , , , , , 99, , , 19, 19, 19
38.0966022, -120.1426159, 5.600, 14:08:52.032, 16, 0.00, 0.50, 98, 1.600, 1.400, 153.700, 392, 100, 100, 20, 22914, -23048, 5474, 5586, 6, 14, 1525986532.032, 34, 0, 1024, 1024, 1024, 1024, 0, 6, 3918, 3879, 3909, 3922, 3943, 3945, 0, 1, 7601, -89.900, 0.000, 152.000, 0.000, 0.000, -3.200, 0.0, , , , , , 99, , , 19, 19, 19
38.0966023, -120.1426156, 6.000, 14:08:52.132, 16, 0.10, 0.51, 98, 1.700, 1.200, 153.700, 392, 100, 100, 20, 22914, -23048, 5474, 5586, 6, 14, 1525986532.132, 33, 0, 1024, 1024, 1024, 1024, 0, 6, 3803, 3778, 3775, 3807, 3811, 3823, 0, 1, 7701, -89.900, 0.000, 152.000, 0.100, 0.000, -3.200, 0.0, , , , , , 99, , , 19, 19, 19
38.0966025, -120.1426156, 6.300, 14:08:52.231, 16, 0.10, 0.51, 98, 2.000, 0.900, 153.700, 392, 100, 100, 20, 22914, -23048, 5474, 5586, 6, 14, 1525986532.232, 14, 0, 1024, 1024, 1024, 1024, 0, 6, 3803, 3778, 3775, 3807, 3811, 3823, 0, 1, 7801, -90.000, 0.000, 152.100, 0.100, 0.000, -3.100, 0.0, , , , , , 99, , , 19, 19, 19
38.0966027, -120.1426159, 6.600, 14:08:52.332, 16, 0.10, 0.48, 98, 2.000, 0.300, 153.900, 392, 100, 100, 20, 22914, -23048, 5474, 5586, 6, 14, 1525986532.332, 20, 0, 1024, 1024, 1024, 1024, 0, 6, 3803, 3778, 3775, 3807, 3811, 3823, 0, 1, 7902, -90.000, 0.000, 152.100, 0.100, 0.000, -3.100, 0.0, , , , , , 99, , , 19, 19, 19
38.0966028, -120.1426161, 6.900, 14:08:52.432, 15, 0.10, 0.46, 98, 1.700, -0.200, 154.000, 392, 100, 100, 20, 22914, -23048, 5474, 5586, 6, 14, 1525986532.432, 34, 0, 1024, 1024, 1024, 1024, 0, 6, 3803, 3778, 3775, 3807, 3811, 3823, 0, 1, 8001, -89.900, 0.000, 152.200, 0.100, 0.000, -3.100, 0.0, , , , , , 99, , , 19, 19, 19
38.0966029, -120.1426163, 7.200, 14:08:52.531, 15, 0.10, 0.44, 98, 1.400, -0.300, 154.000, 392, 100, 100, 20, 22914, -23048, 5474, 5586, 6, 14, 1525986532.532, 31, 0, 1024, 1024, 1024, 1024, 0, 6, 3803, 3778, 3775, 3807, 3811, 3823, 0, 1, 8101, -89.900, 0.000, 152.200, 0.100, 0.000, -3.000, 0.0, , , , , , 99, , , 19, 19, 19
38.0966030, -120.1426165, 7.600, 14:08:52.636, 15, 0.10, 0.42, 98, 1.100, 0.000, 154.100, 392, 100, 100, 20, 22914, -23048, 5474, 5586, 6, 14, 1525986532.637, 7, 0, 1024, 1024, 1024, 1024, 0, 6, 3803, 3778, 3775, 3807, 3811, 3823, 0, 1, 8206, -89.900, 0.000, 152.300, 0.000, -0.100, -3.100, 0.0, , , , , , 99, , , 19, 19, 19
38.0966031, -120.1426167, 7.900, 14:08:52.732, 15, 0.10, 0.40, 98, 0.700, 0.100, 154.100, 392, 100, 100, 20, 22914, -23048, 5474, 5586, 6, 14, 1525986532.732, 21, 0, 1024, 1024, 1024, 1024, 0, 6, 3803, 3778, 3775, 3807, 3811, 3823, 0, 1, 8302, -89.900, 0.000, 152.300, 0.000, -0.100, -3.200, 0.0, , , , , , 99, , , 19, 19, 19
38.0966032, -120.1426169, 8.200, 14:08:52.832, 16, 0.10, 0.38, 98, 0.300, -0.100, 154.000, 392, 100, 100, 20, 22914, -23048, 5474, 5586, 6, 14, 1525986532.832, 20, 0, 1024, 1024, 1024, 1024, 0, 6, 3803, 3778, 3775, 3807, 3811, 3823, 0, 1, 8401, -89.900, 0.000, 152.300, 0.000, -0.100, -3.200, 0.0, , , , , , 99, , , 19, 19, 19
38.0966033, -120.1426171, 8.600, 14:08:52.931, 16, 0.00, 0.36, 98, 0.100, -0.400, 154.000, 392, 100, 100, 20, 22914, -23048, 5474, 5586, 6, 14, 1525986532.932, 16, 0, 1024, 1024, 1024, 1024, 0, 6, 3803, 3778, 3775, 3807, 3811, 3823, 0, 1, 8501, -89.900, 0.000, 152.300, 0.000, 0.000, -3.200, 0.0, , , , , , 99, , , 19, 19, 19
38.0966034, -120.1426173, 8.900, 14:08:53.045, 16, 0.00, 0.34, 97, 0.200, -0.600, 154.000, 392, 100, 100, 20, 22951, -21658, 5418, 5586, 6, 14, 1525986533.045, 14, 0, 1024, 1024, 1024, 1024, 0, 6, 3803, 3778, 3775, 3807, 3811, 3823, 0, 1, 8615, -89.900, 0.000, 152.400, 0.000, 0.000, -3.100, 0.0, , , , , , 99, , , 19, 19, 19
38.0966034, -120.1426173, 8.900, 14:08:53.131, 16, 0.00, 0.34, 97, 0.200, -0.600, 154.000, 392, 100, 100, 20, 22951, -21658, 5418, 5586, 6, 14, 1525986533.132, 100, 0, 1024, 1024, 1024, 1024, 0, 6, 3832, 3835, 3819, 3842, 3845, 3875, 0, 1, 8701, -89.900, 0.000, 152.400, 0.000, 0.000, -3.100, 0.0, , , , , , 99, , , 19, 19, 19
38.0966034, -120.1426175, 9.200, 14:08:53.231, 16, 0.00, 0.33, 97, 0.300, -0.600, 154.100, 392, 100, 99, 20, 22951, -21658, 5418, 5586, 6, 14, 1525986533.232, 64, 0, 1024, 1024, 1024, 1024, 0, 6, 3832, 3835, 3819, 3842, 3845, 3875, 0, 1, 8801, -89.900, 0.000, 152.400, 0.000, 0.000, -3.100, 0.0, , , , , , 99, , , 19, 19, 19
38.0966035, -120.1426176, 9.500, 14:08:53.331, 16, 0.00, 0.31, 97, 0.300, -0.500, 154.100, 392, 100, 99, 20, 22951, -21658, 5418, 5586, 6, 14, 1525986533.332, 74, 0, 1024, 1024, 1024, 1024, 0, 6, 3832, 3835, 3819, 3842, 3845, 3875, 0, 1, 8901, -89.900, 0.000, 152.400, 0.000, 0.000, -3.000, 0.0, , , , , , 99, , , 19, 19, 19
38.0966035, -120.1426176, 9.500, 14:08:53.432, 16, 0.00, 0.31, 97, 0.300, -0.500, 154.100, 392, 100, 99, 20, 22951, -21658, 5418, 5586, 6, 14, 1525986533.432, 174, 0, 1024, 1024, 1024, 1024, 0, 6, 3832, 3835, 3819, 3842, 3845, 3875, 0, 1, 9001, -89.900, 0.000, 152.500, 0.000, 0.000, -3.000, 0.0, , , , , , 99, , , 19, 19, 19
38.0966037, -120.1426177, 10.200, 14:08:53.531, 16, 0.00, 0.30, 97, 0.800, -0.600, 154.100, 392, 100, 99, 20, 22951, -21658, 5418, 5586, 6, 14, 1525986533.532, 75, 0, 1024, 1024, 1024, 1024, 0, 6, 3832, 3835, 3819, 3842, 3845, 3875, 0, 1, 9101, -89.900, 0.000, 152.500, 0.000, 0.000, -3.100, 0.0, , , , , , 99, , , 19, 19, 19
38.0966038, -120.1426178, 10.500, 14:08:53.631, 16, 0.00, 0.29, 97, 1.300, -0.500, 154.100, 392, 100, 96, 20, 22951, -21658, 5418, 5586, 6, 14, 1525986533.631, 83, 0, 1024, 1024, 1024, 1024, 0, 6, 3832, 3835, 3819, 3842, 3845, 3875, 0, 1, 9201, -89.900, 0.000, 152.500, 0.000, 0.000, -3.100, 0.0, , , , , , 99, , , 19, 19, 19
38.0966038, -120.1426178, 10.800, 14:08:53.732, 16, 0.00, 0.29, 97, 1.500, -0.200, 154.000, 392, 100, 96, 20, 22951, -21658, 5418, 5586, 6, 14, 1525986533.733, 71, 0, 1024, 1024, 1024, 1024, 0, 6, 3832, 3835, 3819, 3842, 3845, 3875, 0, 1, 9302, -89.900, 0.000, 152.600, 0.000, 0.000, -3.000, 0.0, , , , , , 99, , , 19, 19, 19
38.0966038, -120.1426179, 11.100, 14:08:53.831, 16, 0.00, 0.28, 97, 1.400, 0.000, 153.900, 392, 100, 96, 20, 22951, -21658, 5418, 5586, 6, 14, 1525986533.832, 52, 0, 1024, 1024, 1024, 1024, 0, 6, 3832, 3835, 3819, 3842, 3845, 3875, 0, 1, 9401, -89.900, 0.000, 152.600, 0.000, 0.000, -3.000, 0.0, , , , , , 99, , , 19, 19, 19
38.0966040, -120.1426178, 11.800, 14:08:53.932, 16, 0.00, 0.29, 97, 1.200, -0.100, 153.900, 392, 100, 96, 20, 22951, -21658, 5418, 5586, 6, 14, 1525986533.932, 64, 0, 1024, 1024, 1024, 1024, 0, 6, 3832, 3835, 3819, 3842, 3845, 3875, 0, 1, 9501, -89.900, 0.000, 152.600, 0.000, 0.000, -3.000, 0.0, , , , , , 99, , , 19, 19, 19
38.0966041, -120.1426178, 12.100, 14:08:54.032, 16, 0.00, 0.29, 97, 1.300, -0.100, 153.900, 392, 100, 96, 20, 23099, -19663, 5418, 5586, 6, 14, 1525986534.032, 70, 0, 1024, 1024, 1024, 1024, 0, 6, 3832, 3833, 3844, 3854, 3866, 3865, 0, 1, 9601, -89.900, 0.000, 152.600, 0.000, 0.000, -3.000, 0.0, , , , , , 99, , , 19, 19, 19
38.0966041, -120.1426179, 12.400, 14:08:54.131, 16, 0.00, 0.28, 97, 1.200, 0.000, 153.900, 392, 100, 95, 20, 23099, -19663, 5418, 5586, 6, 14, 1525986534.132, 36, 0, 1024, 1024, 1024, 1024, 0, 6, 3832, 3833, 3844, 3854, 3866, 3865, 0, 1, 9701, -89.900, 0.000, 152.700, 0.000, 0.000, -2.900, 0.0, , , , , , 99, , , 19, 19, 19
38.0966041, -120.1426179, 12.700, 14:08:54.232, 16, 0.00, 0.28, 97, 1.200, 0.000, 154.000, 392, 100, 95, 20, 23099, -19663, 5418, 5586, 6, 14, 1525986534.233, 28, 0, 1024, 1024, 1024, 1024, 0, 6, 3832, 3833, 3844, 3854, 3866, 3865, 0, 1, 9802, -89.900, 0.000, 152.700, 0.000, 0.000, -2.900, 0.0, , , , , , 99, , , 19, 19, 19
38.0966041, -120.1426179, 13.000, 14:08:54.332, 16, 0.00, 0.28, 97, 1.300, 0.000, 154.000, 392, 100, 95, 20, 23099, -19663, 5418, 5586, 6, 14, 1525986534.332, 36, 0, 1024, 1024, 1024, 1024, 0, 6, 3832, 3833, 3844, 3854, 3866, 3865, 0, 1, 9901, -89.900, 0.000, 152.700, 0.000, 0.000, -2.900, 0.0, , , , , , 99, , , 19, 19, 19
38.0966041, -120.1426179, 13.300, 14:08:54.431, 16, 0.00, 0.28, 97, 1.500, 0.100, 154.000, 392, 100, 95, 20, 23099, -19663, 5418, 5586, 6, 14, 1525986534.432, 12, 0, 1024, 1024, 1024, 1024, 0, 6, 3832, 3833, 3844, 3854, 3866, 3865, 0, 1, 10001, -89.900, 0.000, 152.700, 0.000, 0.000, -2.900, 0.0, , , , , , 99, , , 19, 19, 19
38.0966041, -120.1426179, 13.600, 14:08:54.532, 16, 0.00, 0.29, 97, 1.600, 0.300, 154.000, 392, 100, 95, 20, 23099, -19663, 5418, 5586, 6, 14, 1525986534.532, 34, 0, 1024, 1024, 1024, 1024, 0, 6, 3832, 3833, 3844, 3854, 3866, 3865, 0, 1, 10101, -89.900, 0.000, 152.700, 0.000, 0.000, -3.000, 0.0, , , , , , 99, , , 19, 19, 19
38.0966041, -120.1426178, 13.900, 14:08:54.631, 16, 0.00, 0.29, 97, 1.600, 0.500, 154.100, 392, 100, 96, 20, 23099, -19663, 5418, 5586, 6, 14, 1525986534.632, 32, 0, 1024, 1024, 1024, 1024, 0, 6, 3832, 3833, 3844, 3854, 3866, 3865, 0, 1, 10201, -89.900, 0.000, 152.700, 0.000, 0.000, -2.900, 0.0, , , , , , 99, , , 19, 19, 19
38.0966041, -120.1426178, 14.200, 14:08:54.732, 16, 0.00, 0.29, 97, 1.500, 0.600, 154.200, 392, 100, 96, 20, 23099, -19663, 5418, 5586, 6, 14, 1525986534.733, 18, 0, 1024, 1024, 1024, 1024, 0, 6, 3832, 3833, 3844, 3854, 3866, 3865, 0, 1, 10302, -89.900, 0.000, 152.800, 0.000, 0.000, -2.900, 0.0, , , , , , 99, , , 19, 19, 19
38.0966041, -120.1426178, 14.500, 14:08:54.835, 16, 0.00, 0.29, 97, 1.600, 0.500, 154.200, 392, 100, 96, 20, 23099, -19663, 5418, 5586, 6, 14, 1525986534.835, 3, 0, 1024, 1024, 1024, 1024, 0, 6, 3832, 3833, 3844, 3854, 3866, 3865, 0, 1, 10405, -89.900, 0.000, 152.800, 0.000, 0.000, -2.900, 0.0, , , , , , 99, , , 19, 19, 19
38.0966041, -120.1426178, 14.500, 14:08:54.932, 16, 0.00, 0.29, 97, 1.600, 0.500, 154.200, 392, 100, 96, 20, 23099, -19663, 5418, 5586, 6, 14, 1525986534.932, 100, 0, 1024, 1024, 1024, 1024, 0, 6, 3832, 3833, 3844, 3854, 3866, 3865, 0, 1, 10501, -89.900, 0.000, 152.800, 0.000, 0.000, -2.900, 0.0, , , , , , 99, , , 19, 19, 19
38.0966040, -120.1426177, 15.100, 14:08:55.041, 16, 0.00, 0.30, 97, 1.400, 0.400, 154.300, 392, 100, 96, 20, 23046, -19320, 5418, 5586, 6, 14, 1525986535.042, 11, 0, 1024, 1024, 1024, 1024, 0, 6, 3832, 3833, 3844, 3854, 3866, 3865, 0, 1, 10611, -89.900, 0.000, 152.800, 0.000, 0.000, -3.000, 0.0, , , , , , 99, , , 19, 19, 19
38.0966040, -120.1426177, 15.100, 14:08:55.132, 16, 0.00, 0.30, 97, 1.400, 0.400, 154.300, 392, 100, 96, 20, 23046, -19320, 5418, 5586, 6, 14, 1525986535.132, 102, 0, 1024, 1024, 1024, 1024, 0, 6, 3827, 3830, 3822, 3854, 3848, 3861, 0, 1, 10701, -89.900, 0.000, 152.800, 0.000, 0.000, -3.000, 0.0, , , , , , 99, , , 19, 19, 19
38.0966040, -120.1426177, 15.400, 14:08:55.231, 16, 0.00, 0.30, 97, 1.700, 0.600, 154.300, 392, 100, 98, 20, 23046, -19320, 5418, 5586, 6, 14, 1525986535.233, 55, 0, 1024, 1024, 1024, 1024, 0, 6, 3827, 3830, 3822, 3854, 3848, 3861, 0, 1, 10802, -89.900, 0.000, 152.800, 0.000, 0.000, -3.000, 0.0, , , , , , 99, , , 19, 19, 19
38.0966040, -120.1426176, 15.700, 14:08:55.332, 16, 0.00, 0.31, 97, 2.000, 0.700, 154.200, 392, 100, 98, 20, 23046, -19320, 5418, 5586, 6, 14, 1525986535.332, 67, 0, 1024, 1024, 1024, 1024, 0, 6, 3827, 3830, 3822, 3854, 3848, 3861, 0, 1, 10901, -89.900, 0.000, 152.900, 0.000, 0.000, -3.000, 0.0, , , , , , 99, , , 19, 19, 19
38.0966041, -120.1426175, 16.000, 14:08:55.431, 16, 0.00, 0.31, 97, 2.000, 0.500, 154.100, 392, 100, 98, 20, 23046, -19320, 5418, 5586, 6, 14, 1525986535.432, 50, 0, 1024, 1024, 1024, 1024, 0, 6, 3827, 3830, 3822, 3854, 3848, 3861, 0, 1, 11001, -89.900, 0.000, 152.900, 0.000, 0.000, -2.900, 0.0, , , , , , 99, , , 19, 19, 19
38.0966041, -120.1426174, 16.300, 14:08:55.532, 16, 0.00, 0.32, 97, 2.100, 0.300, 153.900, 392, 100, 98, 20, 23046, -19320, 5418, 5586, 6, 14, 1525986535.532, 62, 0, 1024, 1024, 1024, 1024, 0, 6, 3827, 3830, 3822, 3854, 3848, 3861, 0, 1, 11102, -89.900, 0.000, 152.900, 0.000, 0.000, -2.900, 0.0, , , , , , 99, , , 19, 19, 19
38.0966041, -120.1426173, 16.600, 14:08:55.632, 16, 0.00, 0.33, 97, 2.200, 0.200, 153.700, 392, 100, 98, 20, 23046, -19320, 5418, 5586, 6, 14, 1525986535.633, 50, 0, 1024, 1024, 1024, 1024, 0, 6, 3827, 3830, 3822, 3854, 3848, 3861, 0, 1, 11202, -89.900, 0.000, 152.900, 0.000, 0.000, -2.900, 0.0, , , , , , 99, , , 19, 19, 19
38.0966041, -120.1426172, 16.900, 14:08:55.732, 16, 0.00, 0.34, 97, 2.400, 0.100, 153.600, 392, 100, 98, 20, 23046, -19320, 5418, 5586, 6, 14, 1525986535.732, 77, 0, 1024, 1024, 1024, 1024, 0, 6, 3827, 3830, 3822, 3854, 3848, 3861, 0, 1, 11301, -89.900, 0.000, 152.900, 0.000, 0.000, -2.800, 0.0, , , , , , 99, , , 19, 19, 19
38.0966042, -120.1426172, 17.200, 14:08:55.831, 16, 0.00, 0.35, 97, 2.700, 0.200, 153.700, 392, 100, 98, 20, 23046, -19320, 5418, 5586, 6, 14, 1525986535.832, 44, 0, 1024, 1024, 1024, 1024, 0, 6, 3827, 3830, 3822, 3854, 3848, 3861, 0, 1, 11401, -89.900, 0.000, 152.900, 0.000, 0.000, -2.900, 0.0, , , , , , 99, , , 19, 19, 19
38.0966042, -120.1426171, 17.500, 14:08:55.932, 16, 0.00, 0.35, 97, 3.100, 0.200, 153.700, 392, 100, 98, 20, 23046, -19320, 5418, 5586, 6, 14, 1525986535.932, 34, 0, 1024, 1024, 1024, 1024, 0, 6, 3827, 3830, 3822, 3854, 3848, 3861, 0, 1, 11501, -89.900, 0.000, 153.000, 0.000, 0.000, -2.900, 0.0, , , , , , 99, , , 19, 19, 19
38.0966044, -120.1426169, 18.200, 14:08:56.031, 16, 0.00, 0.37, 97, 2.900, -0.200, 153.700, 392, 100, 98, 20, 23004, -19815, 5418, 5586, 6, 14, 1525986536.031, 28, 0, 1024, 1024, 1024, 1024, 0, 6, 3821, 3827, 3815, 3838, 3843, 3857, 0, 1, 11601, -89.900, 0.000, 153.000, 0.000, 0.000, -2.900, 0.0, , , , , , 99, , , 19, 19, 19
38.0966044, -120.1426169, 18.500, 14:08:56.132, 16, 0.00, 0.38, 97, 2.700, -0.400, 153.800, 392, 100, 97, 20, 23004, -19815, 5418, 5586, 6, 14, 1525986536.132, 48, 0, 1024, 1024, 1024, 1024, 0, 6, 3821, 3827, 3815, 3838, 3843, 3857, 0, 1, 11701, -89.900, 0.000, 153.000, 0.000, 0.000, -2.800, 0.0, , , , , , 99, , , 19, 19, 19
38.0966044, -120.1426168, 18.800, 14:08:56.232, 16, 0.00, 0.38, 97, 2.600, -0.500, 153.900, 392, 100, 97, 20, 23004, -19815, 5418, 5586, 6, 14, 1525986536.233, 44, 0, 1024, 1024, 1024, 1024, 0, 6, 3821, 3827, 3815, 3838, 3843, 3857, 0, 1, 11802, -89.900, 0.000, 153.000, 0.000, 0.000, -2.800, 0.0, , , , , , 99, , , 19, 19, 19
38.0966044, -120.1426168, 18.800, 14:08:56.332, 16, 0.00, 0.38, 97, 2.600, -0.500, 153.900, 392, 100, 97, 20, 23004, -19815, 5418, 5586, 6, 14, 1525986536.332, 144, 0, 1024, 1024, 1024, 1024, 0, 6, 3821, 3827, 3815, 3838, 3843, 3857, 0, 1, 11902, -89.900, 0.000, 153.000, 0.000, 0.000, -2.800, 0.0, , , , , , 99, , , 19, 19, 19
38.0966045, -120.1426167, 19.000, 14:08:56.432, 16, 0.00, 0.40, 97, 2.800, -0.400, 154.000, 392, 100, 97, 20, 23004, -19815, 5418, 5586, 6, 14, 1525986536.432, 60, 0, 1024, 1024, 1024, 1024, 0, 6, 3821, 3827, 3815, 3838, 3843, 3857, 0, 1, 12001, -89.900, 0.000, 153.000, 0.000, 0.000, -2.800, 0.0, , , , , , 99, , , 19, 19, 19
38.0966046, -120.1426165, 19.300, 14:08:56.531, 16, 0.00, 0.41, 97, 3.000, -0.400, 154.000, 392, 100, 97, 20, 23004, -19815, 5418, 5586, 6, 14, 1525986536.532, 70, 0, 1024, 1024, 1024, 1024, 0, 6, 3821, 3827, 3815, 3838, 3843, 3857, 0, 1, 12101, -89.900, 0.000, 153.000, 0.000, 0.000, -2.800, 0.0, , , , , , 99, , , 19, 19, 19
38.0966046, -120.1426164, 19.600, 14:08:56.632, 16, 0.00, 0.42, 97, 3.300, -0.500, 154.000, 392, 100, 97, 20, 23004, -19815, 5418, 5586, 6, 14, 1525986536.632, 61, 0, 1024, 1024, 1024, 1024, 0, 6, 3821, 3827, 3815, 3838, 3843, 3857, 0, 1, 12201, -89.900, 0.000, 153.000, 0.000, 0.000, -2.800, 0.0, , , , , , 99, , , 19, 19, 19
38.0966047, -120.1426162, 19.900, 14:08:56.731, 16, 0.00, 0.44, 97, 3.500, -0.500, 154.000, 392, 100, 98, 20, 23004, -19815, 5418, 5586, 6, 14, 1525986536.732, 81, 0, 1024, 1024, 1024, 1024, 0, 6, 3821, 3827, 3815, 3838, 3843, 3857, 0, 1, 12301, -89.900, 0.000, 153.000, 0.000, 0.000, -2.800, 0.0, , , , , , 99, , , 19, 19, 19
38.0966047, -120.1426161, 20.200, 14:08:56.831, 16, 0.00, 0.45, 97, 3.900, -0.400, 153.900, 392, 100, 98, 20, 23004, -19815, 5418, 5586, 6, 14, 1525986536.832, 50, 0, 1024, 1024, 1024, 1024, 0, 6, 3821, 3827, 3815, 3838, 3843, 3857, 0, 1, 12401, -89.900, 0.000, 153.000, 0.000, 0.000, -2.800, 0.0, , , , , , 99, , , 19, 19, 19
38.0966048, -120.1426159, 20.500, 14:08:56.932, 16, 0.00, 0.46, 97, 4.100, -0.300, 153.900, 392, 100, 98, 20, 23004, -19815, 5418, 5586, 6, 14, 1525986536.932, 52, 0, 1024, 1024, 1024, 1024, 0, 6, 3821, 3827, 3815, 3838, 3843, 3857, 0, 1, 12502, -89.900, 0.000, 153.000, 0.000, 0.000, -2.800, 0.0, , , , , , 99, , , 19, 19, 19
38.0966048, -120.1426158, 20.800, 14:08:57.032, 16, 0.00, 0.47, 97, 4.000, -0.100, 154.000, 392, 100, 98, 20, 23004, -19815, 5418, 5586, 6, 14, 1525986537.032, 46, 0, 1024, 1024, 1024, 1024, 0, 6, 3821, 3827, 3815, 3838, 3843, 3857, 0, 1, 12602, -89.900, 0.000, 153.000, 0.000, 0.000, -2.800, 0.0, , , , , , 99, , , 19, 19, 19
38.0966048, -120.1426158, 20.800, 14:08:57.131, 16, 0.00, 0.47, 97, 4.000, -0.100, 154.000, 392, 100, 98, 20, 22941, -19994, 5418, 5586, 6, 14, 1525986537.131, 145, 0, 1024, 1024, 1024, 1024, 0, 6, 3821, 3827, 3815, 3838, 3843, 3857, 0, 1, 12701, -89.900, 0.000, 153.000, 0.000, 0.000, -2.800, 0.0, , , , , , 99, , , 19, 19, 19
38.0966048, -120.1426158, 20.800, 14:08:57.232, 16, 0.00, 0.47, 97, 4.000, -0.100, 154.000, 392, 100, 98, 20, 22941, -19994, 5418, 5586, 6, 14, 1525986537.233, 247, 0, 1024, 1024, 1024, 1024, 0, 6, 3821, 3827, 3815, 3838, 3843, 3857, 0, 1, 12802, -89.900, 0.000, 153.000, 0.000, 0.000, -2.800, 0.0, , , , , , 99, , , 19, 19, 19
38.0966048, -120.1426156, 21.600, 14:08:57.332, 16, 0.00, 0.49, 97, 3.700, -0.500, 153.900, 392, 100, 98, 20, 22941, -19994, 5418, 5586, 6, 14, 1525986537.332, 18, 0, 1024, 1024, 1024, 1024, 0, 6, 3821, 3827, 3815, 3838, 3843, 3857, 0, 1, 12902, -89.900, 0.000, 153.100, 0.000, 0.000, -2.800, 0.0, , , , , , 99, , , 19, 19, 19
38.0966048, -120.1426156, 21.600, 14:08:57.433, 16, 0.00, 0.49, 97, 3.700, -0.500, 153.900, 392, 100, 98, 20, 22941, -19994, 5418, 5586, 6, 14, 1525986537.434, 119, 0, 1024, 1024, 1024, 1024, 0, 6, 3821, 3827, 3815, 3838, 3843, 3857, 0, 1, 13003, -90.000, 0.000, 153.000, 0.000, 0.000, -2.800, 0.0, , , , , , 99, , , 19, 19, 19
38.0966049, -120.1426154, 22.200, 14:08:57.539, 16, 0.00, 0.51, 97, 3.700, -0.900, 153.800, 392, 100, 98, 20, 22941, -19994, 5418, 5586, 6, 14, 1525986537.539, 6, 0, 1024, 1024, 1024, 1024, 0, 6, 3821, 3827, 3815, 3838, 3843, 3857, 0, 1, 13109, -89.900, 0.000, 153.100, 0.000, 0.000, -2.800, 0.0, , , , , , 99, , , 19, 19, 19
38.0966049, -120.1426153, 22.500, 14:08:57.633, 16, 0.00, 0.52, 97, 3.800, -0.800, 153.800, 392, 100, 97, 20, 22941, -19994, 5418, 5586, 6, 14, 1525986537.634, 14, 0, 1024, 1024, 1024, 1024, 0, 6, 3813, 3809, 3809, 3828, 3826, 3833, 0, 1, 13204, -89.900, 0.000, 153.100, 0.000, 0.000, -2.900, 0.0, , , , , , 99, , , 19, 19, 19
38.0966049, -120.1426152, 22.800, 14:08:57.737, 16, 0.00, 0.53, 97, 3.900, -0.400, 153.900, 392, 100, 97, 20, 22941, -19994, 5418, 5586, 6, 14, 1525986537.738, 5, 0, 1024, 1024, 1024, 1024, 0, 6, 3813, 3809, 3809, 3828, 3826, 3833, 0, 1, 13307, -89.900, 0.000, 153.100, 0.000, 0.000, -2.900, 0.0, , , , , , 99, , , 19, 19, 19
38.0966048, -120.1426151, 23.000, 14:08:57.831, 16, 0.00, 0.53, 97, 3.900, -0.200, 154.000, 392, 100, 97, 20, 22941, -19994, 5418, 5586, 6, 14, 1525986537.833, 16, 0, 1024, 1024, 1024, 1024, 0, 6, 3813, 3809, 3809, 3828, 3826, 3833, 0, 1, 13402, -89.900, 0.000, 153.100, 0.000, 0.000, -2.900, 0.0, , , , , , 99, , , 19, 19, 19
38.0966048, -120.1426151, 23.300, 14:08:57.932, 16, 0.00, 0.54, 97, 3.900, 0.000, 154.100, 392, 100, 97, 20, 22941, -19994, 5418, 5586, 6, 14, 1525986537.932, 32, 0, 1024, 1024, 1024, 1024, 0, 6, 3813, 3809, 3809, 3828, 3826, 3833, 0, 1, 13502, -89.900, 0.000, 153.100, 0.000, 0.000, -2.900, 0.0, , , , , , 99, , , 19, 19, 19
38.0966047, -120.1426151, 23.600, 14:08:58.047, 16, 0.00, 0.54, 97, 3.800, 0.100, 154.100, 392, 100, 97, 20, 22941, -19994, 5418, 5586, 6, 14, 1525986538.048, 9, 0, 1024, 1024, 1024, 1024, 0, 6, 3813, 3809, 3809, 3828, 3826, 3833, 0, 1, 13617, -89.900, 0.000, 153.100, 0.000, 0.000, -3.000, 0.0, , , , , , 99, , , 19, 19, 19
38.0966047, -120.1426151, 23.600, 14:08:58.132, 16, 0.00, 0.54, 97, 3.800, 0.100, 154.100, 392, 100, 97, 20, 22941, -19994, 5418, 5586, 6, 14, 1525986538.132, 93, 0, 1024, 1024, 1024, 1024, 0, 6, 3813, 3809, 3809, 3828, 3826, 3833, 0, 1, 13701, -89.900, 0.000, 153.100, 0.000, 0.000, -3.000, 0.0, , , , , , 99, , , 19, 19, 19
38.0966047, -120.1426151, 24.200, 14:08:58.231, 16, 0.00, 0.54, 97, 3.500, 0.100, 154.200, 392, 100, 97, 20, 22941, -19994, 5418, 5586, 6, 14, 1525986538.232, 46, 0, 1024, 1024, 1024, 1024, 0, 6, 3813, 3809, 3809, 3828, 3826, 3833, 0, 1, 13801, -89.900, 0.000, 153.100, 0.000, 0.000, -3.000, 0.0, , , , , , 99, , , 19, 19, 19
38.0966046, -120.1426151, 24.500, 14:08:58.332, 16, 0.00, 0.54, 97, 3.100, 0.200, 154.100, 392, 100, 97, 20, 22941, -19994, 5418, 5586, 6, 14, 1525986538.332, 49, 0, 1024, 1024, 1024, 1024, 0, 6, 3813, 3809, 3809, 3828, 3826, 3833, 0, 1, 13901, -89.900, 0.000, 153.100, 0.000, 0.000, -2.900, 0.0, , , , , , 99, , , 19, 19, 19
38.0966046, -120.1426151, 24.800, 14:08:58.432, 16, 0.00, 0.53, 97, 2.800, 0.100, 153.900, 392, 100, 97, 20, 22941, -19994, 5418, 5586, 6, 14, 1525986538.432, 93, 0, 1024, 1024, 1024, 1024, 0, 6, 3813, 3809, 3809, 3828, 3826, 3833, 0, 1, 14001, -89.900, 0.000, 153.100, 0.000, 0.000, -3.000, 0.0, , , , , , 99, , , 19, 19, 19
38.0966046, -120.1426151, 24.800, 14:08:58.532, 16, 0.00, 0.53, 97, 2.800, 0.100, 153.900, 392, 100, 97, 20, 22941, -19994, 5418, 5586, 6, 14, 1525986538.532, 193, 0, 1024, 1024, 1024, 1024, 0, 6, 3813, 3809, 3809, 3828, 3826, 3833, 0, 1, 14101, -89.900, 0.000, 153.100, 0.000, 0.000, -3.000, 0.0, , , , , , 99, , , 19, 19, 19
38.0966046, -120.1426151, 25.400, 14:08:58.632, 16, 0.00, 0.54, 97, 2.800, -0.600, 153.200, 392, 100, 97, 20, 22711, -22175, 5418, 5586, 6, 14, 1525986538.632, 66, 0, 1024, 1024, 1024, 1024, 0, 6, 3777, 3766, 3758, 3773, 3787, 3804, 0, 1, 14201, -90.000, 0.000, 153.000, 0.000, 0.000, -3.100, 0.0, , , , , , 99, , , 19, 19, 19
38.0966046, -120.1426150, 25.700, 14:08:58.732, 16, 0.00, 0.54, 97, 3.400, -1.100, 153.100, 392, 100, 99, 20, 22711, -22175, 5418, 5586, 6, 14, 1525986538.732, 84, 0, 1024, 1024, 1024, 1024, 0, 6, 3777, 3766, 3758, 3773, 3787, 3804, 0, 1, 14301, -90.000, 0.000, 153.100, 0.000, 0.000, -3.100, 0.0, , , , , , 99, , , 19, 19, 19
38.0966046, -120.1426149, 26.000, 14:08:58.832, 16, 0.00, 0.55, 97, 4.300, -1.100, 153.300, 392, 100, 99, 20, 22711, -22175, 5418, 5586, 6, 14, 1525986538.833, 44, 0, 1024, 1024, 1024, 1024, 0, 6, 3777, 3766, 3758, 3773, 3787, 3804, 0, 1, 14402, -89.900, 0.000, 153.100, 0.000, 0.000, -3.200, 0.0, , , , , , 99, , , 19, 19, 19
38.0966046, -120.1426147, 26.300, 14:08:58.932, 16, 0.00, 0.56, 97, 5.100, -0.600, 153.600, 392, 100, 99, 20, 22711, -22175, 5418, 5586, 6, 14, 1525986538.932, 70, 0, 1024, 1024, 1024, 1024, 0, 6, 3777, 3766, 3758, 3773, 3787, 3804, 0, 1, 14501, -89.900, 0.000, 153.100, 0.000, 0.000, -3.200, 0.0, , , , , , 99, , , 19, 19, 19
38.0966045, -120.1426146, 26.600, 14:08:59.032, 16, 0.00, 0.57, 97, 5.500, 0.000, 154.100, 392, 100, 99, 20, 22711, -22175, 5418, 5586, 6, 14, 1525986539.032, 17, 0, 1024, 1024, 1024, 1024, 0, 6, 3777, 3766, 3758, 3773, 3787, 3804, 0, 1, 14602, -89.900, 0.000, 153.100, 0.000, 0.000, -3.200, 0.0, , , , , , 99, , , 19, 19, 19
38.0966045, -120.1426145, 27.000, 14:08:59.132, 16, 0.00, 0.58, 97, 5.100, 0.300, 154.400, 392, 100, 99, 20, 22711, -22175, 5418, 5586, 6, 14, 1525986539.132, 48, 0, 1024, 1024, 1024, 1024, 0, 6, 3777, 3766, 3758, 3773, 3787, 3804, 0, 1, 14701, -89.900, 0.000, 153.100, 0.000, 0.000, -3.100, 0.0, , , , , , 99, , , 19, 19, 19
38.0966045, -120.1426145, 27.300, 14:08:59.231, 16, 0.00, 0.58, 97, 4.700, 0.200, 154.700, 392, 100, 99, 20, 22711, -22175, 5418, 5586, 6, 14, 1525986539.232, 59, 0, 1024, 1024, 1024, 1024, 0, 6, 3777, 3766, 3758, 3773, 3787, 3804, 0, 1, 14801, -89.900, 0.000, 153.100, 0.000, 0.000, -3.100, 0.0, , , , , , 99, , , 19, 19, 19
38.0966044, -120.1426145, 27.600, 14:08:59.332, 16, 0.00, 0.58, 97, 4.300, -0.200, 154.700, 392, 100, 99, 20, 22711, -22175, 5418, 5586, 6, 14, 1525986539.332, 70, 0, 1024, 1024, 1024, 1024, 0, 6, 3777, 3766, 3758, 3773, 3787, 3804, 0, 1, 14901, -89.900, 0.000, 153.100, 0.000, 0.000, -3.000, 0.0, , , , , , 99, , , 19, 19, 19
38.0966044, -120.1426145, 27.600, 14:08:59.431, 16, 0.00, 0.58, 97, 4.300, -0.200, 154.700, 392, 100, 99, 20, 22711, -22175, 5418, 5586, 6, 14, 1525986539.432, 169, 0, 1024, 1024, 1024, 1024, 0, 6, 3777, 3766, 3758, 3773, 3787, 3804, 0, 1, 15001, -89.900, 0.000, 153.100, 0.000, 0.000, -3.000, 0.0, , , , , , 99, , , 19, 19, 19
38.0966044, -120.1426146, 28.200, 14:08:59.532, 16, 0.00, 0.58, 97, 4.100, 0.000, 154.700, 392, 100, 99, 20, 22711, -22175, 5418, 5586, 6, 14, 1525986539.532, 67, 0, 1024, 1024, 1024, 1024, 0, 6, 3777, 3766, 3758, 3773, 3787, 3804, 0, 1, 15101, -89.900, 0.000, 153.100, 0.000, 0.000, -3.000, 0.0, , , , , , 99, , , 19, 19, 19
38.0966043, -120.1426146, 28.500, 14:08:59.632, 16, 0.00, 0.57, 97, 3.700, 0.000, 154.600, 392, 100, 99, 21, 22589, -22801, 5418, 5586, 6, 14, 1525986539.632, 60, 0, 1024, 1024, 1024, 1024, 0, 6, 3766, 3758, 3743, 3767, 3771, 3790, 0, 1, 15201, -89.900, 0.000, 153.100, 0.000, 0.000, -3.000, 0.0, , , , , , 99, , , 19, 19, 19
38.0966043, -120.1426147, 28.700, 14:08:59.732, 16, 0.00, 0.57, 97, 3.400, 0.100, 154.300, 392, 100, 98, 21, 22589, -22801, 5418, 5586, 6, 14, 1525986539.732, 35, 0, 1024, 1024, 1024, 1024, 0, 6, 3766, 3758, 3743, 3767, 3771, 3790, 0, 1, 15301, -89.900, 0.000, 153.100, 0.000, 0.000, -3.000, 0.0, , , , , , 99, , , 19, 19, 19
38.0966043, -120.1426147, 29.000, 14:08:59.831, 16, 0.00, 0.56, 97, 3.500, 0.100, 154.100, 392, 100, 98, 21, 22589, -22801, 5418, 5586, 6, 14, 1525986539.832, 62, 0, 1024, 1024, 1024, 1024, 0, 6, 3766, 3758, 3743, 3767, 3771, 3790, 0, 1, 15401, -89.900, 0.000, 153.100, 0.000, 0.000, -3.000, 0.0, , , , , , 99, , , 19, 19, 19
38.0966042, -120.1426148, 29.300, 14:08:59.932, 16, 0.00, 0.56, 97, 3.700, 0.000, 153.900, 392, 100, 98, 21, 22589, -22801, 5418, 5586, 6, 14, 1525986539.932, 33, 0, 1024, 1024, 1024, 1024, 0, 6, 3766, 3758, 3743, 3767, 3771, 3790, 0, 1, 15502, -89.900, 0.000, 153.100, 0.000, 0.000, -3.100, 0.0, , , , , , 99, , , 19, 19, 19
38.0966042, -120.1426148, 29.600, 14:09:00.032, 16, 0.00, 0.56, 97, 3.900, 0.000, 153.800, 392, 100, 98, 21, 22589, -22801, 5418, 5586, 6, 14, 1525986540.032, 50, 0, 1024, 1024, 1024, 1024, 0, 6, 3766, 3758, 3743, 3767, 3771, 3790, 0, 1, 15601, -89.900, 0.000, 153.100, 0.000, 0.000, -3.100, 0.0, , , , , , 99, , , 19, 19, 19
38.0966042, -120.1426148, 29.900, 14:09:00.132, 16, 0.00, 0.55, 97, 4.100, -0.100, 153.700, 392, 100, 99, 21, 22589, -22801, 5418, 5586, 6, 14, 1525986540.133, 37, 0, 1024, 1024, 1024, 1024, 0, 6, 3766, 3758, 3743, 3767, 3771, 3790, 0, 1, 15702, -89.900, 0.000, 153.100, 0.000, 0.000, -3.100, 0.0, , , , , , 99, , , 19, 19, 19
38.0966042, -120.1426149, 30.200, 14:09:00.238, 16, 0.00, 0.55, 97, 4.200, -0.200, 153.700, 392, 100, 99, 21, 22589, -22801, 5418, 5586, 6, 14, 1525986540.239, 5, 0, 1024, 1024, 1024, 1024, 0, 6, 3766, 3758, 3743, 3767, 3771, 3790, 0, 1, 15808, -89.900, 0.000, 153.100, 0.000, 0.000, -3.100, 0.0, , , , , , 99, , , 19, 19, 19
38.0966042, -120.1426149, 30.600, 14:09:00.332, 16, 0.00, 0.55, 97, 4.600, -0.300, 153.700, 392, 100, 99, 21, 22589, -22801, 5418, 5586, 6, 14, 1525986540.332, 48, 0, 1024, 1024, 1024, 1024, 0, 6, 3766, 3758, 3743, 3767, 3771, 3790, 0, 1, 15901, -89.900, 0.000, 153.100, 0.000, 0.000, -3.200, 0.0, , , , , , 99, , , 19, 19, 19
38.0966042, -120.1426149, 30.600, 14:09:00.432, 16, 0.00, 0.55, 97, 4.600, -0.300, 153.700, 392, 100, 99, 21, 22589, -22801, 5418, 5586, 6, 14, 1525986540.432, 148, 0, 1024, 1024, 1024, 1024, 0, 6, 3766, 3758, 3743, 3767, 3771, 3790, 0, 1, 16001, -89.900, 0.000, 153.100, 0.000, 0.000, -3.200, 0.0, , , , , , 99, , , 19, 19, 19
38.0966042, -120.1426149, 31.200, 14:09:00.532, 16, 0.00, 0.55, 97, 4.800, -0.400, 153.900, 392, 100, 99, 21, 22589, -22801, 5418, 5586, 6, 14, 1525986540.532, 93, 0, 1024, 1024, 1024, 1024, 0, 6, 3766, 3758, 3743, 3767, 3771, 3790, 0, 1, 16101, -89.900, 0.000, 153.000, 0.000, 0.000, -3.000, 0.0, , , , , , 99, , , 19, 19, 19
38.0966042, -120.1426149, 31.200, 14:09:00.631, 16, 0.00, 0.55, 97, 4.800, -0.400, 153.900, 392, 100, 99, 21, 22589, -22801, 5418, 5586, 6, 14, 1525986540.632, 192, 0, 1024, 1024, 1024, 1024, 0, 6, 3766, 3758, 3743, 3767, 3771, 3790, 0, 1, 16201, -89.900, 0.000, 153.000, 0.000, 0.000, -3.000, 0.0, , , , , , 99, , , 19, 19, 19
38.0966043, -120.1426150, 31.800, 14:09:00.734, 16, 0.00, 0.54, 97, 4.800, -0.300, 154.100, 392, 100, 98, 21, 22589, -22801, 5418, 5586, 6, 14, 1525986540.736, 18, 0, 1024, 1024, 1024, 1024, 0, 6, 3766, 3758, 3743, 3767, 3771, 3790, 0, 1, 16305, -89.900, 0.000, 153.100, 0.000, 0.000, -3.100, 0.0, , , , , , 99, , , 19, 19, 19
38.0966044, -120.1426152, 32.400, 14:09:00.837, 16, 0.00, 0.52, 97, 4.800, -0.900, 154.100, 392, 100, 98, 21, 22589, -22801, 5418, 5586, 6, 14, 1525986540.837, 4, 0, 1024, 1024, 1024, 1024, 0, 6, 3766, 3758, 3743, 3767, 3771, 3790, 0, 1, 16406, -89.900, 0.000, 153.100, 0.000, 0.000, -3.000, 0.0, , , , , , 99, , , 19, 19, 19
38.0966044, -120.1426153, 32.700, 14:09:00.937, 16, 0.00, 0.52, 97, 4.700, -1.000, 154.100, 392, 100, 98, 21, 22589, -22801, 5418, 5586, 6, 14, 1525986540.937, 5, 0, 1024, 1024, 1024, 1024, 0, 6, 3766, 3758, 3743, 3767, 3771, 3790, 0, 1, 16507, -90.000, 0.000, 153.100, 0.000, 0.000, -2.900, 0.0, , , , , , 99, , , 19, 19, 19
38.0966044, -120.1426153, 32.700, 14:09:01.032, 16, 0.00, 0.52, 97, 4.700, -1.000, 154.100, 392, 100, 98, 21, 22589, -22801, 5418, 5586, 6, 14, 1525986541.033, 101, 0, 1024, 1024, 1024, 1024, 0, 6, 3766, 3758, 3743, 3767, 3771, 3790, 0, 1, 16602, -90.000, 0.000, 153.100, 0.000, 0.000, -2.900, 0.0, , , , , , 99, , , 19, 19, 19
38.0966045, -120.1426153, 33.000, 14:09:01.132, 16, 0.00, 0.51, 97, 4.700, -1.100, 154.200, 392, 100, 98, 21, 22793, -19941, 5418, 5586, 6, 14, 1525986541.132, 65, 0, 1024, 1024, 1024, 1024, 0, 6, 3766, 3758, 3743, 3767, 3771, 3790, 0, 1, 16701, -89.900, 0.000, 153.100, 0.000, 0.000, -2.900, 0.0, , , , , , 99, , , 19, 19, 19
38.0966045, -120.1426154, 33.600, 14:09:01.232, 16, 0.00, 0.50, 97, 5.000, -0.700, 154.100, 392, 100, 97, 21, 22793, -19941, 5418, 5586, 6, 14, 1525986541.232, 26, 0, 1024, 1024, 1024, 1024, 0, 6, 3792, 3794, 3777, 3793, 3799, 3824, 0, 1, 16802, -89.900, 0.000, 153.100, 0.000, 0.000, -2.900, 0.0, , , , , , 99, , , 19, 19, 19
38.0966045, -120.1426155, 33.900, 14:09:01.332, 16, 0.00, 0.50, 97, 4.700, -0.700, 154.000, 392, 100, 97, 21, 22793, -19941, 5418, 5586, 6, 14, 1525986541.333, 21, 0, 1024, 1024, 1024, 1024, 0, 6, 3792, 3794, 3777, 3793, 3799, 3824, 0, 1, 16902, -89.900, 0.000, 153.100, 0.000, 0.000, -2.900, 0.0, , , , , , 99, , , 19, 19, 19
38.0966045, -120.1426155, 33.900, 14:09:01.432, 16, 0.00, 0.50, 97, 4.700, -0.700, 154.000, 392, 100, 97, 21, 22793, -19941, 5418, 5586, 6, 14, 1525986541.432, 121, 0, 1024, 1024, 1024, 1024, 0, 6, 3792, 3794, 3777, 3793, 3799, 3824, 0, 1, 17002, -89.900, 0.000, 153.100, 0.000, 0.000, -2.900, 0.0, , , , , , 99, , , 19, 19, 19
38.0966045, -120.1426155, 33.900, 14:09:01.532, 16, 0.00, 0.50, 97, 4.700, -0.700, 154.000, 392, 100, 97, 21, 22796, -20360, 5418, 5586, 6, 14, 1525986541.532, 221, 0, 1024, 1024, 1024, 1024, 0, 6, 3792, 3794, 3777, 3793, 3799, 3824, 0, 1, 17101, -89.900, 0.000, 153.100, 0.000, 0.000, -2.900, 0.0, , , , , , 99, , , 19, 19, 19
38.0966045, -120.1426156, 34.800, 14:09:01.638, 16, 0.00, 0.49, 97, 4.200, -0.800, 154.300, 392, 100, 93, 21, 22796, -20360, 5418, 5586, 6, 14, 1525986541.639, 7, 0, 1024, 1024, 1024, 1024, 0, 6, 3804, 3803, 3780, 3807, 3817, 3829, 0, 1, 17208, -89.900, 0.000, 153.100, 0.000, 0.000, -3.000, 0.0, , , , , , 99, , , 19, 19, 19
38.0966045, -120.1426156, 34.800, 14:09:01.731, 16, 0.00, 0.49, 97, 4.200, -0.800, 154.300, 392, 100, 93, 21, 22796, -20360, 5418, 5586, 6, 14, 1525986541.732, 100, 0, 1024, 1024, 1024, 1024, 0, 6, 3804, 3803, 3780, 3807, 3817, 3829, 0, 1, 17301, -89.900, 0.000, 153.100, 0.000, 0.000, -3.000, 0.0, , , , , , 99, , , 19, 19, 19
38.0966045, -120.1426155, 35.100, 14:09:01.832, 16, 0.00, 0.49, 97, 4.700, -0.300, 154.300, 392, 100, 93, 21, 22796, -20360, 5418, 5586, 6, 14, 1525986541.832, 92, 0, 1024, 1024, 1024, 1024, 0, 6, 3804, 3803, 3780, 3807, 3817, 3829, 0, 1, 17401, -89.900, 0.000, 153.100, 0.000, 0.000, -3.000, 0.0, , , , , , 99, , , 19, 19, 19
38.0966044, -120.1426155, 35.400, 14:09:01.932, 16, 0.00, 0.49, 97, 4.800, 0.000, 154.300, 392, 100, 93, 21, 22796, -20360, 5418, 5586, 6, 14, 1525986541.933, 87, 0, 1024, 1024, 1024, 1024, 0, 6, 3804, 3803, 3780, 3807, 3817, 3829, 0, 1, 17502, -89.900, 0.000, 153.100, 0.000, 0.000, -3.000, 0.0, , , , , , 99, , , 19, 19, 19
38.0966044, -120.1426155, 35.700, 14:09:02.032, 16, 0.00, 0.50, 97, 5.000, 0.000, 154.300, 392, 100, 93, 21, 22796, -20360, 5418, 5586, 6, 14, 1525986542.032, 82, 0, 1024, 1024, 1024, 1024, 0, 6, 3804, 3803, 3780, 3807, 3817, 3829, 0, 1, 17601, -89.900, 0.000, 153.100, 0.000, 0.000, -3.100, 0.0, , , , , , 99, , , 19, 19, 19
38.0966044, -120.1426154, 36.100, 14:09:02.132, 16, 0.00, 0.50, 97, 4.900, -0.400, 154.200, 392, 100, 94, 21, 22796, -20360, 5418, 5586, 6, 14, 1525986542.132, 89, 0, 1024, 1024, 1024, 1024, 0, 6, 3804, 3803, 3780, 3807, 3817, 3829, 0, 1, 17701, -89.900, 0.000, 153.100, 0.000, 0.000, -3.100, 0.0, , , , , , 99, , , 19, 19, 19
38.0966044, -120.1426154, 36.400, 14:09:02.232, 16, 0.00, 0.50, 97, 5.400, -0.300, 154.300, 392, 100, 94, 21, 22796, -20360, 5418, 5586, 6, 14, 1525986542.232, 45, 0, 1024, 1024, 1024, 1024, 0, 6, 3804, 3803, 3780, 3807, 3817, 3829, 0, 1, 17801, -89.900, 0.000, 153.100, 0.000, 0.000, -3.100, 0.0, , , , , , 99, , , 19, 19, 19
38.0966044, -120.1426153, 36.700, 14:09:02.331, 16, 0.00, 0.51, 97, 5.600, 0.000, 154.300, 392, 100, 94, 21, 22796, -20360, 5418, 5586, 6, 14, 1525986542.332, 66, 0, 1024, 1024, 1024, 1024, 0, 6, 3804, 3803, 3780, 3807, 3817, 3829, 0, 1, 17901, -89.900, 0.000, 153.100, 0.000, 0.000, -3.000, 0.0, , , , , , 99, , , 19, 19, 19
38.0966044, -120.1426151, 37.300, 14:09:02.432, 16, 0.00, 0.53, 97, 6.100, 0.000, 154.300, 392, 100, 94, 21, 22796, -20360, 5418, 5586, 6, 14, 1525986542.432, 37, 0, 1024, 1024, 1024, 1024, 0, 6, 3804, 3803, 3780, 3807, 3817, 3829, 0, 1, 18001, -89.900, 0.000, 153.100, 0.000, 0.000, -3.000, 0.0, , , , , , 99, , , 19, 19, 19
38.0966044, -120.1426151, 37.300, 14:09:02.532, 16, 0.00, 0.53, 97, 6.100, 0.000, 154.300, 392, 100, 94, 21, 22771, -20385, 5418, 5586, 6, 14, 1525986542.532, 137, 0, 1024, 1024, 1024, 1024, 0, 6, 3804, 3803, 3780, 3807, 3817, 3829, 0, 1, 18102, -89.900, 0.000, 153.100, 0.000, 0.000, -3.000, 0.0, , , , , , 99, , , 19, 19, 19
38.0966045, -120.1426150, 37.600, 14:09:02.631, 16, 0.00, 0.54, 97, 6.200, -0.100, 154.300, 392, 100, 96, 21, 22771, -20385, 5418, 5586, 6, 14, 1525986542.632, 50, 0, 1024, 1024, 1024, 1024, 0, 6, 3804, 3803, 3780, 3807, 3817, 3829, 0, 1, 18201, -89.900, 0.000, 153.100, 0.000, 0.000, -3.100, 0.0, , , , , , 99, , , 19, 19, 19
38.0966045, -120.1426150, 38.000, 14:09:02.732, 16, 0.00, 0.54, 97, 6.400, -0.300, 154.300, 392, 100, 96, 21, 22771, -20385, 5418, 5586, 6, 14, 1525986542.733, 16, 0, 1024, 1024, 1024, 1024, 0, 6, 3804, 3803, 3780, 3807, 3817, 3829, 0, 1, 18302, -89.900, 0.000, 153.100, 0.000, 0.000, -3.100, 0.0, , , , , , 99, , , 19, 19, 19
38.0966046, -120.1426149, 38.600, 14:09:02.836, 16, 0.00, 0.55, 97, 6.200, -0.300, 154.300, 392, 100, 96, 21, 22771, -20385, 5418, 5586, 6, 14, 1525986542.837, 11, 0, 1024, 1024, 1024, 1024, 0, 6, 3804, 3803, 3780, 3807, 3817, 3829, 0, 1, 18406, -89.900, 0.000, 153.100, 0.000, 0.000, -3.000, 0.0, , , , , , 99, , , 19, 19, 19
38.0966046, -120.1426149, 38.900, 14:09:02.932, 16, 0.00, 0.55, 97, 6.200, -0.100, 154.200, 392, 100, 96, 21, 22771, -20385, 5418, 5586, 6, 14, 1525986542.932, 32, 0, 1024, 1024, 1024, 1024, 0, 6, 3804, 3803, 3780, 3807, 3817, 3829, 0, 1, 18501, -89.900, 0.000, 153.100, 0.000, 0.000, -3.000, 0.0, , , , , , 99, , , 19, 19, 19
38.0966046, -120.1426149, 38.900, 14:09:03.032, 16, 0.00, 0.55, 97, 6.200, -0.100, 154.200, 392, 100, 96, 21, 22771, -20385, 5418, 5586, 6, 14, 1525986543.032, 132, 0, 1024, 1024, 1024, 1024, 0, 6, 3804, 3803, 3780, 3807, 3817, 3829, 0, 1, 18601, -89.900, 0.000, 153.100, 0.000, 0.000, -3.000, 0.0, , , , , , 99, , , 19, 19, 19
38.0966046, -120.1426149, 39.200, 14:09:03.134, 16, 0.00, 0.55, 96, 6.200, -0.100, 154.100, 392, 100, 96, 21, 22771, -20385, 5362, 5586, 6, 14, 1525986543.134, 92, 0, 1024, 1024, 1024, 1024, 0, 6, 3804, 3803, 3780, 3807, 3817, 3829, 0, 1, 18704, -89.900, 0.000, 153.100, 0.000, 0.000, -3.000, 0.0, , , , , , 99, , , 19, 19, 19
38.0966046, -120.1426149, 39.600, 14:09:03.231, 16, 0.00, 0.55, 96, 6.200, -0.300, 153.900, 392, 100, 98, 21, 22771, -20385, 5362, 5586, 6, 14, 1525986543.232, 15, 0, 1024, 1024, 1024, 1024, 0, 6, 3791, 3782, 3764, 3785, 3781, 3811, 0, 1, 18801, -89.900, 0.000, 153.100, 0.000, 0.000, -3.000, 0.0, , , , , , 99, , , 19, 19, 19
38.0966046, -120.1426148, 39.900, 14:09:03.331, 16, 0.00, 0.56, 96, 6.500, -0.200, 153.800, 392, 100, 98, 21, 22771, -20385, 5362, 5586, 6, 14, 1525986543.332, 49, 0, 1024, 1024, 1024, 1024, 0, 6, 3791, 3782, 3764, 3785, 3781, 3811, 0, 1, 18901, -89.900, 0.000, 153.100, 0.000, 0.000, -3.000, 0.0, , , , , , 99, , , 19, 19, 19
38.0966046, -120.1426148, 39.900, 14:09:03.431, 16, 0.00, 0.56, 96, 6.500, -0.200, 153.800, 392, 100, 98, 21, 22771, -20385, 5362, 5586, 6, 14, 1525986543.433, 150, 0, 1024, 1024, 1024, 1024, 0, 6, 3791, 3782, 3764, 3785, 3781, 3811, 0, 1, 19002, -89.900, 0.000, 153.100, 0.000, 0.000, -3.000, 0.0, , , , , , 99, , , 19, 19, 19
38.0966046, -120.1426147, 40.200, 14:09:03.531, 16, 0.00, 0.57, 96, 6.900, 0.000, 153.700, 392, 100, 98, 21, 22771, -20385, 5362, 5586, 6, 14, 1525986543.532, 11, 0, 1024, 1024, 1024, 1024, 0, 6, 3791, 3782, 3764, 3785, 3781, 3811, 0, 1, 19101, -89.900, 0.000, 153.100, 0.000, 0.000, -2.900, 0.0, , , , , , 99, , , 19, 19, 19
38.0966046, -120.1426146, 40.500, 14:09:03.632, 16, 0.00, 0.58, 96, 7.300, 0.400, 153.700, 392, 100, 98, 21, 22771, -20385, 5362, 5586, 6, 14, 1525986543.632, 48, 0, 1024, 1024, 1024, 1024, 0, 6, 3791, 3782, 3764, 3785, 3781, 3811, 0, 1, 19201, -89.900, 0.000, 153.100, 0.000, 0.000, -2.800, 0.0, , , , , , 99, , , 19, 19, 19
38.0966046, -120.1426144, 40.700, 14:09:03.731, 16, 0.00, 0.59, 96, 7.200, 0.600, 153.700, 392, 100, 98, 21, 22771, -20385, 5362, 5586, 6, 14, 1525986543.732, 70, 0, 1024, 1024, 1024, 1024, 0, 6, 3791, 3782, 3764, 3785, 3781, 3811, 0, 1, 19301, -89.900, 0.000, 153.100, 0.000, 0.000, -2.800, 0.0, , , , , , 99, , , 19, 19, 19
38.0966046, -120.1426144, 40.700, 14:09:03.832, 16, 0.00, 0.59, 96, 7.200, 0.600, 153.700, 392, 100, 98, 21, 22771, -20385, 5362, 5586, 6, 14, 1525986543.832, 171, 0, 1024, 1024, 1024, 1024, 0, 6, 3791, 3782, 3764, 3785, 3781, 3811, 0, 1, 19402, -89.900, 0.000, 153.100, 0.000, 0.000, -2.800, 0.0, , , , , , 99, , , 19, 19, 19
38.0966046, -120.1426143, 41.000, 14:09:03.932, 16, 0.00, 0.60, 96, 7.000, 0.700, 153.800, 392, 100, 98, 21, 22771, -20385, 5362, 5586, 6, 14, 1525986543.932, 66, 0, 1024, 1024, 1024, 1024, 0, 6, 3791, 3782, 3764, 3785, 3781, 3811, 0, 1, 19502, -89.900, 0.000, 153.100, 0.000, 0.000, -2.800, 0.0, , , , , , 99, , , 19, 19, 19
38.0966046, -120.1426143, 41.300, 14:09:04.032, 16, 0.00, 0.60, 96, 7.000, 0.900, 153.900, 392, 100, 98, 21, 22771, -20385, 5362, 5586, 6, 14, 1525986544.033, 98, 0, 1024, 1024, 1024, 1024, 0, 6, 3791, 3782, 3764, 3785, 3781, 3811, 0, 1, 19603, -89.900, 0.000, 153.100, 0.000, 0.000, -2.800, 0.0, , , , , , 99, , , 19, 19, 19
38.0966045, -120.1426143, 41.600, 14:09:04.132, 16, 0.00, 0.60, 96, 7.100, 1.100, 154.100, 392, 100, 98, 21, 22771, -20385, 5362, 5586, 6, 14, 1525986544.133, 51, 0, 1024, 1024, 1024, 1024, 0, 6, 3791, 3782, 3764, 3785, 3781, 3811, 0, 1, 19702, -89.900, 0.000, 153.100, 0.000, 0.000, -2.800, 0.0, , , , , , 99, , , 19, 19, 19
38.0966045, -120.1426143, 41.600, 14:09:04.232, 16, 0.00, 0.60, 96, 7.100, 1.100, 154.100, 392, 100, 98, 21, 22771, -20385, 5362, 5586, 6, 14, 1525986544.233, 151, 0, 1024, 1024, 1024, 1024, 0, 6, 3791, 3782, 3764, 3785, 3781, 3811, 0, 1, 19802, -89.900, 0.000, 153.100, 0.000, 0.000, -2.800, 0.0, , , , , , 99, , , 19, 19, 19
38.0966045, -120.1426143, 41.800, 14:09:04.332, 16, 0.00, 0.60, 96, 6.700, 0.800, 154.200, 392, 100, 98, 21, 22771, -20385, 5362, 5586, 6, 14, 1525986544.334, 98, 0, 1024, 1024, 1024, 1024, 0, 6, 3791, 3782, 3764, 3785, 3781, 3811, 0, 1, 19903, -89.900, 0.000, 153.100, 0.000, 0.000, -2.700, 0.0, , , , , , 99, , , 19, 19, 19
38.0966044, -120.1426143, 42.100, 14:09:04.432, 16, 0.00, 0.60, 96, 5.900, 0.700, 154.400, 392, 100, 99, 21, 22936, -18031, 5362, 5586, 6, 14, 1525986544.433, 30, 0, 1024, 1024, 1024, 1024, 0, 6, 3791, 3782, 3764, 3785, 3781, 3811, 0, 1, 20002, -89.900, 0.000, 153.100, 0.000, 0.000, -2.700, 0.0, , , , , , 99, , , 19, 19, 19
38.0966044, -120.1426143, 42.100, 14:09:04.532, 16, 0.00, 0.60, 96, 5.900, 0.700, 154.400, 392, 100, 99, 21, 22936, -18031, 5362, 5586, 6, 14, 1525986544.533, 130, 0, 1024, 1024, 1024, 1024, 0, 6, 3833, 3821, 3817, 3840, 3834, 3833, 0, 1, 20102, -89.900, 0.000, 153.100, 0.000, 0.000, -2.700, 0.0, , , , , , 99, , , 19, 19, 19
38.0966043, -120.1426143, 42.700, 14:09:04.632, 16, 0.00, 0.60, 96, 5.200, 1.700, 154.800, 392, 100, 99, 21, 22936, -18031, 5362, 5586, 6, 14, 1525986544.633, 33, 0, 1024, 1024, 1024, 1024, 0, 6, 3833, 3821, 3817, 3840, 3834, 3833, 0, 1, 20202, -89.900, 0.000, 153.100, 0.000, 0.000, -2.800, 0.0, , , , , , 99, , , 19, 19, 19
38.0966043, -120.1426143, 42.700, 14:09:04.731, 16, 0.00, 0.60, 96, 5.200, 1.700, 154.800, 392, 100, 99, 21, 22936, -18031, 5362, 5586, 6, 14, 1525986544.732, 132, 0, 1024, 1024, 1024, 1024, 0, 6, 3833, 3821, 3817, 3840, 3834, 3833, 0, 1, 20301, -89.900, 0.000, 153.100, 0.000, 0.000, -2.800, 0.0, , , , , , 99, , , 19, 19, 19
38.0966041, -120.1426143, 43.200, 14:09:04.833, 16, 0.00, 0.60, 96, 5.700, 2.100, 154.900, 392, 100, 99, 21, 22936, -18031, 5362, 5586, 6, 14, 1525986544.833, 87, 0, 1024, 1024, 1024, 1024, 0, 6, 3833, 3821, 3817, 3840, 3834, 3833, 0, 1, 20403, -89.900, 0.000, 153.100, 0.000, 0.000, -2.800, 0.0, , , , , , 99, , , 19, 19, 19
38.0966040, -120.1426145, 43.700, 14:09:04.931, 16, 0.00, 0.58, 96, 5.500, 1.500, 154.200, 392, 100, 98, 21, 22936, -18031, 5362, 5586, 6, 14, 1525986544.932, 29, 0, 1024, 1024, 1024, 1024, 0, 6, 3833, 3821, 3817, 3840, 3834, 3833, 0, 1, 20501, -89.900, 0.000, 153.100, 0.000, 0.000, -2.800, 0.0, , , , , , 99, , , 19, 19, 19
38.0966040, -120.1426145, 43.700, 14:09:05.032, 16, 0.00, 0.58, 96, 5.500, 1.500, 154.200, 392, 100, 98, 21, 22936, -18031, 5362, 5586, 6, 14, 1525986545.033, 130, 0, 1024, 1024, 1024, 1024, 0, 6, 3833, 3821, 3817, 3840, 3834, 3833, 0, 1, 20602, -90.000, 0.000, 153.100, 0.000, 0.000, -2.800, 0.0, , , , , , 99, , , 19, 19, 19
38.0966040, -120.1426146, 44.000, 14:09:05.132, 16, 0.00, 0.57, 96, 5.300, 1.100, 154.000, 392, 100, 98, 21, 22936, -18031, 5362, 5586, 6, 14, 1525986545.132, 98, 0, 1024, 1024, 1024, 1024, 0, 6, 3833, 3821, 3817, 3840, 3834, 3833, 0, 1, 20702, -89.900, 0.000, 153.100, 0.000, 0.000, -2.900, 0.0, , , , , , 99, , , 19, 19, 19
38.0966039, -120.1426148, 44.600, 14:09:05.232, 16, 0.00, 0.56, 96, 4.900, 1.100, 153.900, 392, 100, 98, 21, 22936, -18031, 5362, 5586, 6, 14, 1525986545.233, 21, 0, 1024, 1024, 1024, 1024, 0, 6, 3833, 3821, 3817, 3840, 3834, 3833, 0, 1, 20802, -89.900, 0.000, 153.100, 0.000, 0.000, -3.000, 0.0, , , , , , 99, , , 19, 19, 19
38.0966038, -120.1426148, 44.900, 14:09:05.332, 16, 0.00, 0.55, 96, 5.000, 1.500, 153.900, 392, 100, 98, 21, 22821, -18997, 5362, 5586, 6, 14, 1525986545.333, 68, 0, 1024, 1024, 1024, 1024, 0, 6, 3833, 3821, 3817, 3840, 3834, 3833, 0, 1, 20902, -89.900, 0.000, 153.100, 0.000, 0.000, -3.100, 0.0, , , , , , 99, , , 19, 19, 19
38.0966038, -120.1426148, 44.900, 14:09:05.432, 16, 0.00, 0.55, 96, 5.000, 1.500, 153.900, 392, 100, 98, 21, 22821, -18997, 5362, 5586, 6, 14, 1525986545.433, 168, 0, 1024, 1024, 1024, 1024, 0, 6, 3833, 3821, 3817, 3840, 3834, 3833, 0, 1, 21002, -89.900, 0.000, 153.100, 0.000, 0.000, -3.100, 0.0, , , , , , 99, , , 19, 19, 19
