Latitude, Longitude, Altitude (m), Time, Sats, Speed (m/s), Range (m), Battery (%), Roll (deg), Pitch (deg), Yaw (deg), Images, HD Signal (%), RC Signal (%), Battery Temp (C), Battery Voltage (mV), Battery Current (mA), Battery Energy (mAh), Battery Capacity (mAh), Battery Discharges, flyState, timestamp (Unix), LastUpdate (ms), radioChannel, Rc_elevator, Rc_aileron, Rc_throttle, Rc_rudder, Rc_gyro, Dronetype, Battery_Cell1 (mV), Battery_Cell2 (mV), Battery_Cell3 (mV), Battery_Cell4 (mV), Battery_Cell5 (mV), Battery_Cell6 (mV), Video, isFlying, elapsedTime (ms), gimbalPitch (deg), gimbalRoll (deg), gimbalYaw (deg), VelocityX (m/s), VelocityY (m/s), VelocityZ (m/s), GroundSmear (cm), App Version, Aircraft Name, Aircraft Firmware, Aircraft Serial Number, Battery Serial Number, Battery Lifetime (%), App_Tip, App_Warning, CurrentFlightStartingIndex, CurrentFlightLastVisitedWaypoint, PreviousFlightEndingWaypointIndex
38.0965926, -120.1425866, 0.000, 15:18:00.358, 13, 0.00, 0.01, 98, 2.100, 0.400, -30.400, 1679, 100, 100, 22, 25356, -3810, 5381, 5491, 11, 11, 1525990680.358, 45, 0, 1024, 1024, 1024, 1024, 0, 6, 4214, 4254, 4262, 4256, 4264, 4227, 0, 1, 3025, -89.900, 0.000, -31.500, 0.000, 0.000, -0.100, 0.0, MapPilot_2.8.1_04242018, Dendroctonus I, 1.3.1.00, 041DDC1887, 1058163200627, 98, DJI_0699.jpg, Starting Mission from Lat/Long: 38.09660/-120.14259 Camera: Zenmuse X3 - Overlap: 90/90 - Active Connection: No, 67, 67, 67
38.0965926, -120.1425865, 0.000, 15:18:00.433, 13, 0.00, 0.02, 98, 1.000, 0.400, -30.300, 1679, 100, 100, 22, 25356, -3810, 5381, 5491, 11, 11, 1525990680.434, 24, 0, 1024, 1024, 1024, 1024, 0, 6, 4214, 4254, 4262, 4256, 4264, 4227, 0, 1, 3101, -89.900, 0.000, -31.500, 0.000, 0.000, -0.300, 0.0, , , , , , 98, , , 67, 67, 67
38.0965927, -120.1425864, 0.000, 15:18:00.533, 13, 0.14, 0.03, 98, 0.300, 0.100, -30.200, 1679, 100, 100, 22, 25356, -3810, 5381, 5491, 11, 11, 1525990680.534, 41, 0, 1024, 1024, 1024, 1024, 0, 6, 4214, 4254, 4262, 4256, 4264, 4227, 0, 1, 3201, -89.900, 0.000, -31.500, 0.100, 0.100, -0.300, 0.0, , , , , , 98, , , 67, 67, 67
38.0965928, -120.1425862, 0.000, 15:18:00.633, 13, 0.14, 0.05, 98, 0.000, 0.100, -30.000, 1679, 100, 100, 22, 25356, -3810, 5381, 5491, 11, 11, 1525990680.634, 32, 0, 1024, 1024, 1024, 1024, 0, 6, 4214, 4254, 4262, 4256, 4264, 4227, 0, 1, 3301, -89.900, 0.000, -31.500, 0.100, 0.100, -0.400, 0.0, , , , , , 98, , , 67, 67, 67
38.0965929, -120.1425861, 0.000, 15:18:00.733, 13, 0.14, 0.07, 98, -0.300, 0.300, -30.000, 1679, 100, 100, 22, 25356, -3810, 5381, 5491, 11, 11, 1525990680.734, 34, 0, 1024, 1024, 1024, 1024, 0, 6, 4214, 4254, 4262, 4256, 4264, 4227, 0, 1, 3401, -89.900, 0.000, -31.500, 0.100, 0.100, -0.400, 0.0, , , , , , 98, , , 67, 67, 67
38.0965930, -120.1425859, 0.100, 15:18:00.833, 12, 0.14, 0.08, 98, -0.500, 0.300, -30.100, 1679, 100, 100, 22, 25356, -3810, 5381, 5491, 11, 11, 1525990680.833, 9, 0, 1024, 1024, 1024, 1024, 0, 6, 4214, 4254, 4262, 4256, 4264, 4227, 0, 1, 3500, -89.900, 0.000, -31.500, 0.100, 0.100, -0.400, 0.0, , , , , , 98, , , 67, 67, 67
38.0965930, -120.1425858, 0.100, 15:18:00.933, 12, 0.14, 0.09, 98, -0.800, 0.400, -30.200, 1679, 100, 100, 22, 25356, -3810, 5381, 5491, 11, 11, 1525990680.933, 10, 0, 1024, 1024, 1024, 1024, 0, 6, 4214, 4254, 4262, 4256, 4264, 4227, 0, 1, 3601, -89.900, 0.000, -31.500, 0.100, 0.100, -0.400, 0.0, , , , , , 98, , , 67, 67, 67
38.0965931, -120.1425857, 0.200, 15:18:01.033, 12, 0.00, 0.10, 98, -0.900, 0.500, -30.200, 1679, 100, 100, 22, 25356, -3810, 5381, 5491, 11, 11, 1525990681.034, 11, 0, 1024, 1024, 1024, 1024, 0, 6, 4214, 4254, 4262, 4256, 4264, 4227, 0, 1, 3701, -89.900, 0.000, -31.500, 0.000, 0.000, -0.400, 0.0, , , , , , 98, , , 67, 67, 67
38.0965933, -120.1425856, 0.200, 15:18:01.135, 12, 0.00, 0.12, 98, -0.800, 0.400, -30.300, 1679, 100, 100, 22, 25356, -3810, 5381, 5491, 11, 11, 1525990681.135, 2, 0, 1024, 1024, 1024, 1024, 0, 6, 4214, 4254, 4262, 4256, 4264, 4227, 0, 1, 3802, -89.900, 0.000, -31.500, 0.000, 0.000, -0.400, 0.0, , , , , , 98, , , 67, 67, 67
38.0965934, -120.1425855, 0.300, 15:18:01.234, 12, 0.00, 0.13, 98, -0.800, 0.600, -30.400, 1679, 100, 100, 22, 25028, -6704, 5381, 5491, 11, 11, 1525990681.236, 11, 0, 1024, 1024, 1024, 1024, 0, 6, 4155, 4153, 4126, 4144, 4146, 4103, 0, 1, 3903, -89.900, 0.000, -31.500, 0.000, 0.000, -0.400, 0.0, , , , , , 98, , , 67, 67, 67
38.0965934, -120.1425855, 0.300, 15:18:01.333, 12, 0.00, 0.13, 98, -0.800, 0.600, -30.400, 1679, 100, 100, 22, 25028, -6704, 5381, 5491, 11, 11, 1525990681.334, 109, 0, 1024, 1024, 1024, 1024, 0, 6, 4155, 4153, 4126, 4144, 4146, 4103, 0, 1, 4001, -89.900, 0.000, -31.500, 0.000, 0.000, -0.400, 0.0, , , , , , 98, , , 67, 67, 67
38.0965934, -120.1425855, 0.400, 15:18:01.444, 12, 0.00, 0.14, 98, -1.000, 0.800, -30.200, 1679, 100, 100, 22, 25028, -6704, 5381, 5491, 11, 11, 1525990681.444, 12, 0, 1024, 1024, 1024, 1024, 0, 6, 4155, 4153, 4126, 4144, 4146, 4103, 0, 1, 4111, -89.900, 0.000, -31.500, 0.000, 0.000, -0.400, 0.0, , , , , , 98, , , 67, 67, 67
38.0965935, -120.1425854, 0.400, 15:18:01.540, 12, 0.00, 0.15, 98, -1.100, 0.800, -30.100, 1679, 100, 100, 22, 25028, -6704, 5381, 5491, 11, 11, 1525990681.541, 7, 0, 1024, 1024, 1024, 1024, 0, 6, 4155, 4153, 4126, 4144, 4146, 4103, 0, 1, 4208, -89.900, 0.000, -31.500, 0.000, 0.000, -0.400, 0.0, , , , , , 98, , , 67, 67, 67
38.0965935, -120.1425854, 0.400, 15:18:01.633, 12, 0.00, 0.15, 98, -1.100, 0.800, -30.100, 1679, 100, 100, 22, 25028, -6704, 5381, 5491, 11, 11, 1525990681.634, 100, 0, 1024, 1024, 1024, 1024, 0, 6, 4155, 4153, 4126, 4144, 4146, 4103, 0, 1, 4301, -89.900, 0.000, -31.500, 0.000, 0.000, -0.400, 0.0, , , , , , 98, , , 67, 67, 67
38.0965935, -120.1425853, 0.400, 15:18:01.733, 12, 0.00, 0.16, 98, -1.100, 0.600, -29.900, 1679, 100, 100, 22, 25028, -6704, 5381, 5491, 11, 11, 1525990681.733, 60, 0, 1024, 1024, 1024, 1024, 0, 6, 4155, 4153, 4126, 4144, 4146, 4103, 0, 1, 4400, -89.900, 0.000, -31.500, 0.000, 0.000, -0.400, 0.0, , , , , , 98, , , 67, 67, 67
38.0965935, -120.1425853, 0.500, 15:18:01.833, 12, 0.00, 0.16, 98, -1.000, 0.500, -29.700, 1679, 100, 100, 22, 25028, -6704, 5381, 5491, 11, 11, 1525990681.834, 70, 0, 1024, 1024, 1024, 1024, 0, 6, 4155, 4153, 4126, 4144, 4146, 4103, 0, 1, 4501, -89.900, 0.000, -31.500, 0.000, 0.000, -0.400, 0.0, , , , , , 98, , , 67, 67, 67
38.0965937, -120.1425852, 0.600, 15:18:01.933, 12, 0.00, 0.17, 98, -0.700, 0.600, -29.700, 1679, 100, 100, 22, 25028, -6704, 5381, 5491, 11, 11, 1525990681.934, 71, 0, 1024, 1024, 1024, 1024, 0, 6, 4155, 4153, 4126, 4144, 4146, 4103, 0, 1, 4601, -89.900, 0.000, -31.500, 0.000, 0.000, -0.400, 0.0, , , , , , 98, , , 67, 67, 67
38.0965937, -120.1425852, 0.600, 15:18:02.033, 13, 0.00, 0.18, 98, -0.700, 0.600, -29.800, 1679, 100, 100, 22, 25028, -6704, 5381, 5491, 11, 11, 1525990682.034, 80, 0, 1024, 1024, 1024, 1024, 0, 6, 4155, 4153, 4126, 4144, 4146, 4103, 0, 1, 4701, -89.900, 0.000, -31.500, 0.000, 0.000, -0.400, 0.0, , , , , , 98, , , 67, 67, 67
38.0965936, -120.1425853, 0.700, 15:18:02.133, 13, 0.00, 0.17, 98, -0.700, 0.700, -30.000, 1679, 100, 100, 22, 25028, -6704, 5381, 5491, 11, 11, 1525990682.133, 79, 0, 1024, 1024, 1024, 1024, 0, 6, 4155, 4153, 4126, 4144, 4146, 4103, 0, 1, 4800, -89.900, 0.000, -31.500, 0.000, 0.000, -0.400, 0.0, , , , , , 98, , , 67, 67, 67
38.0965937, -120.1425853, 0.700, 15:18:02.233, 13, 0.00, 0.17, 98, -0.600, 0.700, -30.100, 1679, 100, 100, 22, 23970, -16800, 5381, 5491, 11, 11, 1525990682.234, 57, 0, 1024, 1024, 1024, 1024, 0, 6, 3968, 3987, 3991, 4008, 4011, 3985, 0, 1, 4901, -89.900, 0.000, -31.500, 0.000, 0.000, -0.400, 0.0, , , , , , 98, , , 67, 67, 67
38.0965938, -120.1425852, 0.700, 15:18:02.333, 13, 0.00, 0.19, 98, -0.600, 0.800, -30.100, 1679, 100, 100, 22, 23970, -16800, 5381, 5491, 11, 11, 1525990682.334, 40, 0, 1024, 1024, 1024, 1024, 0, 6, 3968, 3987, 3991, 4008, 4011, 3985, 0, 1, 5001, -89.900, 0.000, -31.500, 0.000, 0.000, -0.500, 0.0, , , , , , 98, , , 67, 67, 67
38.0965939, -120.1425852, 0.800, 15:18:02.433, 13, 0.00, 0.20, 98, -0.800, 0.800, -30.100, 1679, 100, 100, 22, 23970, -16800, 5381, 5491, 11, 11, 1525990682.434, 39, 0, 1024, 1024, 1024, 1024, 0, 6, 3968, 3987, 3991, 4008, 4011, 3985, 0, 1, 5101, -89.900, 0.000, -31.500, 0.000, 0.000, -0.500, 0.0, , , , , , 98, , , 67, 67, 67
38.0965939, -120.1425852, 0.900, 15:18:02.533, 13, 0.00, 0.20, 98, -0.900, 1.000, -30.100, 1679, 100, 100, 22, 23970, -16800, 5381, 5491, 11, 11, 1525990682.534, 42, 0, 1024, 1024, 1024, 1024, 0, 6, 3968, 3987, 3991, 4008, 4011, 3985, 0, 1, 5201, -89.900, 0.000, -31.500, 0.000, 0.000, -0.500, 0.0, , , , , , 98, , , 67, 67, 67
38.0965939, -120.1425852, 0.900, 15:18:02.633, 12, 0.00, 0.20, 98, -1.200, 0.900, -30.200, 1679, 100, 100, 22, 23970, -16800, 5381, 5491, 11, 14, 1525990682.634, 50, 0, 1024, 1024, 1024, 1024, 0, 6, 3968, 3987, 3991, 4008, 4011, 3985, 0, 1, 5301, -89.900, 0.000, -31.500, 0.000, 0.000, -0.500, 0.0, , , , , , 98, , , 67, 67, 67
38.0965940, -120.1425852, 1.000, 15:18:02.733, 12, 0.00, 0.20, 98, -1.200, 0.700, -30.400, 1679, 100, 100, 22, 23970, -16800, 5381, 5491, 11, 14, 1525990682.734, 38, 0, 1024, 1024, 1024, 1024, 0, 6, 3968, 3987, 3991, 4008, 4011, 3985, 0, 1, 5401, -89.900, 0.000, -31.500, 0.000, 0.000, -0.400, 0.0, , , , , , 98, , , 67, 67, 67
38.0965940, -120.1425852, 1.000, 15:18:02.833, 12, 0.00, 0.20, 98, -0.600, 0.500, -30.700, 1679, 100, 100, 22, 23970, -16800, 5381, 5491, 11, 14, 1525990682.834, 36, 0, 1024, 1024, 1024, 1024, 0, 6, 3968, 3987, 3991, 4008, 4011, 3985, 0, 1, 5501, -89.900, 0.000, -31.500, 0.000, 0.000, -0.200, 0.0, , , , , , 98, , , 67, 67, 67
38.0965940, -120.1425852, 1.000, 15:18:02.933, 12, 0.00, 0.21, 98, -0.300, 0.300, -31.100, 1679, 100, 100, 22, 23970, -16800, 5381, 5491, 11, 14, 1525990682.934, 17, 0, 1024, 1024, 1024, 1024, 0, 6, 3968, 3987, 3991, 4008, 4011, 3985, 0, 1, 5601, -89.900, 0.000, -31.500, 0.000, 0.000, -0.200, 0.0, , , , , , 98, , , 67, 67, 67
38.0965941, -120.1425852, 1.000, 15:18:03.033, 13, 0.00, 0.21, 98, -0.100, 0.400, -31.600, 1679, 100, 100, 22, 23970, -16800, 5381, 5491, 11, 14, 1525990683.034, 17, 0, 1024, 1024, 1024, 1024, 0, 6, 3968, 3987, 3991, 4008, 4011, 3985, 0, 1, 5701, -89.900, 0.000, -31.500, 0.000, 0.000, -0.300, 0.0, , , , , , 98, , , 67, 67, 67
38.0965942, -120.1425854, 1.100, 15:18:03.134, 13, 0.00, 0.21, 98, -0.100, 0.700, -32.200, 1679, 100, 100, 22, 23742, -17421, 5381, 5491, 11, 14, 1525990683.134, 6, 0, 1024, 1024, 1024, 1024, 0, 6, 3968, 3987, 3991, 4008, 4011, 3985, 0, 1, 5801, -89.900, 0.000, -31.500, 0.000, 0.000, -0.400, 0.0, , , , , , 98, , , 67, 67, 67
38.0965943, -120.1425855, 1.100, 15:18:03.232, 13, 0.00, 0.22, 98, -0.200, 1.300, -32.900, 1679, 100, 100, 22, 23742, -17421, 5381, 5491, 11, 14, 1525990683.233, 10, 0, 1024, 1024, 1024, 1024, 0, 6, 3938, 3946, 3960, 3964, 3986, 3946, 0, 1, 5900, -89.900, 0.000, -31.500, 0.000, 0.000, -0.600, 0.0, , , , , , 98, , , 67, 67, 67
38.0965943, -120.1425856, 1.200, 15:18:03.333, 13, 0.00, 0.22, 98, -0.300, 1.700, -33.500, 1679, 100, 100, 22, 23742, -17421, 5381, 5491, 11, 14, 1525990683.334, 26, 0, 1024, 1024, 1024, 1024, 0, 6, 3938, 3946, 3960, 3964, 3986, 3946, 0, 1, 6001, -89.900, 0.000, -31.500, 0.000, 0.000, -0.700, 0.0, , , , , , 98, , , 67, 67, 67
38.0965943, -120.1425857, 1.300, 15:18:03.442, 12, 0.00, 0.22, 98, 0.000, 1.800, -34.000, 1679, 100, 100, 22, 23742, -17421, 5381, 5491, 11, 14, 1525990683.442, 12, 0, 1024, 1024, 1024, 1024, 0, 6, 3938, 3946, 3960, 3964, 3986, 3946, 0, 1, 6109, -89.900, 0.000, -31.500, 0.000, 0.000, -1.000, 0.0, , , , , , 98, , , 67, 67, 67
38.0965944, -120.1425858, 1.400, 15:18:03.534, 12, 0.00, 0.22, 98, 0.400, 1.600, -34.600, 1679, 100, 100, 22, 23742, -17421, 5381, 5491, 11, 14, 1525990683.534, 5, 0, 1024, 1024, 1024, 1024, 0, 6, 3938, 3946, 3960, 3964, 3986, 3946, 0, 1, 6201, -89.900, 0.000, -31.700, 0.000, 0.000, -1.100, 0.0, , , , , , 98, , , 67, 67, 67
38.0965944, -120.1425858, 1.500, 15:18:03.634, 13, 0.00, 0.22, 98, 0.500, 1.500, -35.000, 1679, 100, 100, 22, 23742, -17421, 5381, 5491, 11, 14, 1525990683.634, 5, 0, 1024, 1024, 1024, 1024, 0, 6, 3938, 3946, 3960, 3964, 3986, 3946, 0, 1, 6301, -89.900, 0.000, -31.700, 0.000, 0.000, -1.300, 0.0, , , , , , 98, , , 67, 67, 67
38.0965944, -120.1425858, 1.500, 15:18:03.733, 13, 0.00, 0.22, 98, 0.500, 1.500, -35.000, 1679, 100, 100, 22, 23742, -17421, 5381, 5491, 11, 14, 1525990683.734, 105, 0, 1024, 1024, 1024, 1024, 0, 6, 3938, 3946, 3960, 3964, 3986, 3946, 0, 1, 6401, -89.900, 0.000, -31.800, 0.000, 0.000, -1.300, 0.0, , , , , , 98, , , 67, 67, 67
38.0965944, -120.1425858, 1.700, 15:18:03.833, 13, 0.00, 0.22, 98, 0.500, 1.700, -35.200, 1679, 100, 100, 22, 23742, -17421, 5381, 5491, 11, 14, 1525990683.834, 75, 0, 1024, 1024, 1024, 1024, 0, 6, 3938, 3946, 3960, 3964, 3986, 3946, 0, 1, 6501, -89.900, 0.000, -31.900, 0.000, 0.000, -1.500, 0.0, , , , , , 98, , , 67, 67, 67
38.0965945, -120.1425857, 1.800, 15:18:03.933, 14, 0.00, 0.23, 98, 0.200, 1.800, -35.300, 1679, 100, 100, 22, 23742, -17421, 5381, 5491, 11, 14, 1525990683.934, 83, 0, 1024, 1024, 1024, 1024, 0, 6, 3938, 3946, 3960, 3964, 3986, 3946, 0, 1, 6601, -89.900, 0.000, -32.000, 0.000, 0.000, -1.800, 0.0, , , , , , 98, , , 67, 67, 67
38.0965946, -120.1425856, 2.000, 15:18:04.033, 14, 0.00, 0.25, 98, -0.300, 1.400, -35.300, 1679, 100, 100, 22, 23742, -17421, 5381, 5491, 11, 14, 1525990684.034, 80, 0, 1024, 1024, 1024, 1024, 0, 6, 3938, 3946, 3960, 3964, 3986, 3946, 0, 1, 6701, -89.900, 0.000, -32.100, 0.000, 0.000, -2.000, 0.0, , , , , , 98, , , 67, 67, 67
38.0965948, -120.1425854, 2.500, 15:18:04.133, 13, 0.00, 0.27, 98, -1.500, 0.800, -35.200, 1679, 100, 100, 22, 23742, -17421, 5381, 5491, 11, 14, 1525990684.135, 78, 0, 1024, 1024, 1024, 1024, 0, 6, 3938, 3946, 3960, 3964, 3986, 3946, 0, 1, 6802, -90.000, 0.000, -32.200, 0.000, 0.000, -2.500, 0.0, , , , , , 98, , , 67, 67, 67
38.0965949, -120.1425854, 2.800, 15:18:04.233, 14, 0.00, 0.28, 98, -1.600, 1.200, -35.100, 1679, 100, 100, 22, 23906, -17069, 5381, 5491, 11, 14, 1525990684.234, 82, 0, 1024, 1024, 1024, 1024, 0, 6, 3896, 3962, 3919, 3977, 3972, 3903, 0, 1, 6901, -89.900, 0.000, -32.300, 0.000, 0.000, -2.800, 0.0, , , , , , 98, , , 67, 67, 67
38.0965949, -120.1425854, 2.800, 15:18:04.333, 14, 0.00, 0.28, 98, -1.600, 1.200, -35.100, 1679, 100, 100, 22, 23906, -17069, 5381, 5491, 11, 14, 1525990684.334, 182, 0, 1024, 1024, 1024, 1024, 0, 6, 3896, 3962, 3919, 3977, 3972, 3903, 0, 1, 7001, -89.900, 0.000, -32.400, 0.000, 0.000, -2.800, 0.0, , , , , , 98, , , 67, 67, 67
38.0965950, -120.1425853, 3.400, 15:18:04.433, 13, 0.00, 0.30, 98, -0.300, 1.600, -34.800, 1679, 100, 100, 22, 23906, -17069, 5381, 5491, 11, 14, 1525990684.434, 63, 0, 1024, 1024, 1024, 1024, 0, 6, 3896, 3962, 3919, 3977, 3972, 3903, 0, 1, 7101, -89.900, 0.000, -32.400, 0.000, 0.000, -3.200, 0.0, , , , , , 98, , , 67, 67, 67
38.0965950, -120.1425851, 3.700, 15:18:04.533, 13, 0.00, 0.31, 98, -0.400, 1.200, -34.800, 1679, 100, 100, 22, 23906, -17069, 5381, 5491, 11, 14, 1525990684.534, 43, 0, 1024, 1024, 1024, 1024, 0, 6, 3896, 3962, 3919, 3977, 3972, 3903, 0, 1, 7201, -89.900, 0.000, -32.500, 0.000, 0.000, -3.300, 0.0, , , , , , 98, , , 67, 67, 67
38.0965951, -120.1425850, 4.100, 15:18:04.633, 14, 0.00, 0.32, 98, -1.200, 0.700, -34.900, 1679, 100, 100, 22, 23906, -17069, 5381, 5491, 11, 14, 1525990684.634, 47, 0, 1024, 1024, 1024, 1024, 0, 6, 3896, 3962, 3919, 3977, 3972, 3903, 0, 1, 7301, -89.900, 0.000, -32.600, 0.000, 0.000, -3.300, 0.0, , , , , , 98, , , 67, 67, 67
38.0965951, -120.1425849, 4.400, 15:18:04.733, 14, 0.00, 0.32, 98, -2.100, 0.100, -35.100, 1679, 100, 100, 22, 23906, -17069, 5381, 5491, 11, 14, 1525990684.734, 28, 0, 1024, 1024, 1024, 1024, 0, 6, 3896, 3962, 3919, 3977, 3972, 3903, 0, 1, 7401, -90.000, 0.000, -32.600, 0.000, 0.000, -3.300, 0.0, , , , , , 98, , , 67, 67, 67
38.0965951, -120.1425848, 4.800, 15:18:04.833, 14, 0.00, 0.32, 98, -2.400, 0.200, -35.200, 1679, 100, 100, 22, 23906, -17069, 5381, 5491, 11, 14, 1525990684.834, 38, 0, 1024, 1024, 1024, 1024, 0, 6, 3896, 3962, 3919, 3977, 3972, 3903, 0, 1, 7501, -90.000, 0.000, -32.700, 0.000, 0.000, -3.300, 0.0, , , , , , 98, , , 67, 67, 67
38.0965951, -120.1425847, 5.200, 15:18:04.933, 14, 0.00, 0.33, 98, -2.100, 0.000, -35.200, 1679, 100, 100, 22, 23906, -17069, 5381, 5491, 11, 14, 1525990684.934, 22, 0, 1024, 1024, 1024, 1024, 0, 6, 3896, 3962, 3919, 3977, 3972, 3903, 0, 1, 7601, -90.000, 0.000, -32.800, 0.000, 0.000, -3.200, 0.0, , , , , , 98, , , 67, 67, 67
38.0965950, -120.1425846, 5.500, 15:18:05.033, 14, 0.00, 0.33, 98, -1.700, 0.100, -35.100, 1679, 100, 100, 22, 23906, -17069, 5381, 5491, 11, 14, 1525990685.034, 21, 0, 1024, 1024, 1024, 1024, 0, 6, 3896, 3962, 3919, 3977, 3972, 3903, 0, 1, 7701, -90.000, 0.000, -32.900, 0.000, 0.000, -3.200, 0.0, , , , , , 98, , , 67, 67, 67
38.0965950, -120.1425846, 5.800, 15:18:05.133, 14, 0.00, 0.33, 98, -1.300, 0.100, -34.900, 1679, 100, 100, 22, 23067, -23823, 5381, 5491, 11, 14, 1525990685.134, 19, 0, 1024, 1024, 1024, 1024, 0, 6, 3896, 3962, 3919, 3977, 3972, 3903, 0, 1, 7801, -90.000, 0.000, -32.900, 0.000, 0.000, -3.100, 0.0, , , , , , 98, , , 67, 67, 67
38.0965949, -120.1425845, 6.200, 15:18:05.233, 14, 0.10, 0.32, 98, -1.100, -0.100, -34.800, 1679, 100, 100, 22, 23067, -23823, 5381, 5491, 11, 14, 1525990685.234, 34, 0, 1024, 1024, 1024, 1024, 0, 6, 3896, 3962, 3919, 3977, 3972, 3903, 0, 1, 7901, -90.000, 0.000, -32.900, -0.100, 0.000, -3.100, 0.0, , , , , , 98, , , 67, 67, 67
38.0965947, -120.1425844, 6.500, 15:18:05.333, 14, 0.10, 0.31, 98, -0.800, -0.400, -34.700, 1679, 100, 100, 22, 23067, -23823, 5381, 5491, 11, 14, 1525990685.334, 24, 0, 1024, 1024, 1024, 1024, 0, 6, 3896, 3962, 3919, 3977, 3972, 3903, 0, 1, 8001, -89.900, 0.000, -33.000, -0.100, 0.000, -3.100, 0.0, , , , , , 98, , , 67, 67, 67
38.0965946, -120.1425844, 6.800, 15:18:05.433, 14, 0.10, 0.30, 98, -0.400, -0.700, -34.700, 1679, 100, 100, 22, 23067, -23823, 5381, 5491, 11, 14, 1525990685.434, 29, 0, 1024, 1024, 1024, 1024, 0, 6, 3896, 3962, 3919, 3977, 3972, 3903, 0, 1, 8101, -89.900, 0.000, -33.100, -0.100, 0.000, -3.100, 0.0, , , , , , 98, , , 67, 67, 67
38.0965944, -120.1425845, 7.100, 15:18:05.533, 14, 0.10, 0.28, 98, -0.100, -0.900, -34.800, 1679, 100, 100, 22, 23067, -23823, 5381, 5491, 11, 14, 1525990685.534, 21, 0, 1024, 1024, 1024, 1024, 0, 6, 3896, 3962, 3919, 3977, 3972, 3903, 0, 1, 8201, -89.900, 0.000, -33.100, -0.100, 0.000, -3.000, 0.0, , , , , , 98, , , 67, 67, 67
38.0965943, -120.1425846, 7.400, 15:18:05.633, 14, 0.10, 0.27, 98, 0.000, -0.900, -34.900, 1679, 100, 100, 22, 23067, -23823, 5381, 5491, 11, 14, 1525990685.634, 12, 0, 1024, 1024, 1024, 1024, 0, 6, 3821, 3833, 3845, 3857, 3868, 3869, 0, 1, 8301, -89.900, 0.000, -33.100, -0.100, 0.000, -3.000, 0.0, , , , , , 98, , , 67, 67, 67
38.0965942, -120.1425846, 7.700, 15:18:05.753, 14, 0.10, 0.25, 98, 0.100, -0.900, -34.900, 1679, 100, 100, 22, 23067, -23823, 5381, 5491, 11, 14, 1525990685.754, 5, 0, 1024, 1024, 1024, 1024, 0, 6, 3821, 3833, 3845, 3857, 3868, 3869, 0, 1, 8421, -89.900, 0.000, -33.200, -0.100, 0.000, -3.000, 0.0, , , , , , 98, , , 67, 67, 67
38.0965940, -120.1425846, 8.000, 15:18:05.833, 14, 0.10, 0.24, 98, 0.400, -1.100, -35.100, 1679, 100, 100, 22, 23067, -23823, 5381, 5491, 11, 14, 1525990685.834, 12, 0, 1024, 1024, 1024, 1024, 0, 6, 3821, 3833, 3845, 3857, 3868, 3869, 0, 1, 8501, -89.900, 0.000, -33.200, -0.100, 0.000, -3.000, 0.0, , , , , , 98, , , 67, 67, 67
38.0965940, -120.1425846, 8.000, 15:18:05.933, 14, 0.10, 0.24, 98, 0.400, -1.100, -35.100, 1679, 100, 100, 22, 23067, -23823, 5381, 5491, 11, 14, 1525990685.934, 112, 0, 1024, 1024, 1024, 1024, 0, 6, 3821, 3833, 3845, 3857, 3868, 3869, 0, 1, 8601, -89.900, 0.000, -33.200, -0.100, 0.000, -3.000, 0.0, , , , , , 98, , , 67, 67, 67
38.0965938, -120.1425846, 8.400, 15:18:06.033, 14, 0.10, 0.22, 98, 0.900, -1.200, -35.200, 1679, 100, 100, 22, 23067, -23823, 5381, 5491, 11, 14, 1525990686.033, 91, 0, 1024, 1024, 1024, 1024, 0, 6, 3821, 3833, 3845, 3857, 3868, 3869, 0, 1, 8700, -89.900, 0.000, -33.300, -0.100, 0.000, -3.000, 0.0, , , , , , 98, , , 67, 67, 67
38.0965937, -120.1425847, 8.700, 15:18:06.134, 14, 0.00, 0.21, 98, 1.100, -1.100, -35.400, 1679, 100, 100, 22, 23067, -23823, 5381, 5491, 11, 14, 1525990686.134, 81, 0, 1024, 1024, 1024, 1024, 0, 6, 3821, 3833, 3845, 3857, 3868, 3869, 0, 1, 8801, -89.900, 0.000, -33.300, 0.000, 0.000, -3.100, 0.0, , , , , , 98, , , 67, 67, 67
38.0965936, -120.1425847, 9.300, 15:18:06.233, 13, 0.00, 0.20, 98, 0.600, -0.700, -35.400, 1679, 100, 100, 22, 23067, -23823, 5381, 5491, 11, 14, 1525990686.234, 77, 0, 1024, 1024, 1024, 1024, 0, 6, 3821, 3833, 3845, 3857, 3868, 3869, 0, 1, 8901, -89.900, 0.000, -33.300, 0.000, 0.000, -3.000, 0.0, , , , , , 98, , , 67, 67, 67
38.0965935, -120.1425847, 9.600, 15:18:06.333, 13, 0.00, 0.20, 98, 0.300, -0.500, -35.300, 1679, 100, 100, 22, 23067, -23823, 5381, 5491, 11, 14, 1525990686.334, 74, 0, 1024, 1024, 1024, 1024, 0, 6, 3821, 3833, 3845, 3857, 3868, 3869, 0, 1, 9001, -89.900, 0.000, -33.400, 0.000, 0.000, -3.100, 0.0, , , , , , 98, , , 67, 67, 67
38.0965935, -120.1425848, 9.900, 15:18:06.433, 14, 0.00, 0.19, 98, 0.200, -0.300, -35.200, 1679, 100, 100, 22, 23067, -23823, 5381, 5491, 11, 14, 1525990686.434, 53, 0, 1024, 1024, 1024, 1024, 0, 6, 3821, 3833, 3845, 3857, 3868, 3869, 0, 1, 9101, -89.900, 0.000, -33.400, 0.000, 0.000, -3.100, 0.0, , , , , , 98, , , 67, 67, 67
38.0965934, -120.1425848, 10.300, 15:18:06.533, 14, 0.00, 0.18, 98, 0.000, -0.400, -35.100, 1679, 100, 100, 22, 23067, -23823, 5381, 5491, 11, 14, 1525990686.534, 44, 0, 1024, 1024, 1024, 1024, 0, 6, 3821, 3833, 3845, 3857, 3868, 3869, 0, 1, 9201, -89.900, 0.000, -33.400, 0.000, 0.000, -3.000, 0.0, , , , , , 98, , , 67, 67, 67
38.0965933, -120.1425849, 10.600, 15:18:06.633, 13, 0.00, 0.17, 98, 0.100, -0.600, -35.000, 1679, 100, 100, 22, 23067, -23823, 5381, 5491, 11, 14, 1525990686.634, 51, 0, 1024, 1024, 1024, 1024, 0, 6, 3821, 3833, 3845, 3857, 3868, 3869, 0, 1, 9301, -89.900, 0.000, -33.400, 0.000, 0.000, -3.100, 0.0, , , , , , 98, , , 67, 67, 67
38.0965933, -120.1425849, 10.900, 15:18:06.733, 13, 0.00, 0.17, 98, 0.200, -0.500, -35.000, 1679, 100, 100, 22, 23377, -18667, 5381, 5491, 11, 14, 1525990686.733, 34, 0, 1024, 1024, 1024, 1024, 0, 6, 3875, 3869, 3895, 3906, 3919, 3887, 0, 1, 9400, -89.900, 0.000, -33.500, 0.000, 0.000, -3.000, 0.0, , , , , , 98, , , 67, 67, 67
38.0965932, -120.1425850, 11.200, 15:18:06.833, 14, 0.00, 0.16, 98, 0.200, -0.100, -34.800, 1679, 100, 100, 22, 23377, -18667, 5381, 5491, 11, 14, 1525990686.834, 51, 0, 1024, 1024, 1024, 1024, 0, 6, 3875, 3869, 3895, 3906, 3919, 3887, 0, 1, 9501, -89.900, 0.000, -33.500, 0.000, 0.000, -3.000, 0.0, , , , , , 98, , , 67, 67, 67
38.0965932, -120.1425851, 11.500, 15:18:06.933, 14, 0.00, 0.15, 98, 0.400, 0.100, -34.600, 1679, 100, 100, 22, 23377, -18667, 5381, 5491, 11, 14, 1525990686.934, 53, 0, 1024, 1024, 1024, 1024, 0, 6, 3875, 3869, 3895, 3906, 3919, 3887, 0, 1, 9601, -89.900, 0.000, -33.500, 0.000, 0.000, -3.000, 0.0, , , , , , 98, , , 67, 67, 67
38.0965932, -120.1425851, 11.800, 15:18:07.033, 14, 0.00, 0.15, 98, 0.400, 0.000, -34.500, 1679, 100, 100, 22, 23377, -18667, 5381, 5491, 11, 14, 1525990687.034, 48, 0, 1024, 1024, 1024, 1024, 0, 6, 3875, 3869, 3895, 3906, 3919, 3887, 0, 1, 9701, -89.900, 0.000, -33.500, 0.000, 0.000, -3.100, 0.0, , , , , , 98, , , 67, 67, 67
38.0965932, -120.1425851, 12.100, 15:18:07.133, 14, 0.00, 0.15, 98, 0.600, 0.000, -34.400, 1679, 100, 100, 22, 23377, -18667, 5381, 5491, 11, 14, 1525990687.134, 40, 0, 1024, 1024, 1024, 1024, 0, 6, 3875, 3869, 3895, 3906, 3919, 3887, 0, 1, 9801, -89.900, 0.000, -33.600, 0.000, 0.000, -3.100, 0.0, , , , , , 98, , , 67, 67, 67
38.0965931, -120.1425852, 12.500, 15:18:07.243, 14, 0.00, 0.14, 98, 0.600, 0.000, -34.400, 1679, 100, 100, 22, 23377, -18667, 5381, 5491, 11, 14, 1525990687.243, 11, 0, 1024, 1024, 1024, 1024, 0, 6, 3875, 3869, 3895, 3906, 3919, 3887, 0, 1, 9910, -89.900, 0.000, -33.600, 0.000, 0.000, -3.000, 0.0, , , , , , 98, , , 67, 67, 67
38.0965931, -120.1425852, 12.800, 15:18:07.333, 14, 0.00, 0.14, 98, 0.500, 0.000, -34.400, 1679, 100, 100, 22, 23377, -18667, 5381, 5491, 11, 14, 1525990687.334, 11, 0, 1024, 1024, 1024, 1024, 0, 6, 3875, 3869, 3895, 3906, 3919, 3887, 0, 1, 10001, -89.900, 0.000, -33.600, 0.000, 0.000, -3.000, 0.0, , , , , , 98, , , 67, 67, 67
38.0965931, -120.1425852, 13.100, 15:18:07.433, 13, 0.00, 0.14, 98, 0.400, -0.200, -34.500, 1679, 100, 100, 22, 23377, -18667, 5381, 5491, 11, 14, 1525990687.434, 20, 0, 1024, 1024, 1024, 1024, 0, 6, 3875, 3869, 3895, 3906, 3919, 3887, 0, 1, 10101, -89.900, 0.000, -33.700, 0.000, 0.000, -3.000, 0.0, , , , , , 98, , , 67, 67, 67
38.0965931, -120.1425853, 13.400, 15:18:07.533, 13, 0.00, 0.13, 98, 0.500, -0.100, -34.700, 1679, 100, 100, 22, 23377, -18667, 5381, 5491, 11, 14, 1525990687.534, 11, 0, 1024, 1024, 1024, 1024, 0, 6, 3875, 3869, 3895, 3906, 3919, 3887, 0, 1, 10201, -89.900, 0.000, -33.700, 0.000, 0.000, -3.000, 0.0, , , , , , 98, , , 67, 67, 67
38.0965930, -120.1425853, 13.700, 15:18:07.633, 13, 0.00, 0.13, 98, 0.500, 0.000, -34.800, 1679, 100, 100, 22, 23302, -19908, 5381, 5491, 11, 14, 1525990687.634, 13, 0, 1024, 1024, 1024, 1024, 0, 6, 3874, 3873, 3896, 3895, 3912, 3873, 0, 1, 10301, -89.900, 0.000, -33.700, 0.000, 0.000, -3.000, 0.0, , , , , , 98, , , 67, 67, 67
38.0965930, -120.1425853, 14.000, 15:18:07.763, 13, 0.00, 0.12, 98, 0.600, 0.100, -34.900, 1679, 100, 99, 22, 23302, -19908, 5381, 5491, 11, 14, 1525990687.763, 16, 0, 1024, 1024, 1024, 1024, 0, 6, 3874, 3873, 3896, 3895, 3912, 3873, 0, 1, 10431, -89.900, 0.000, -33.700, 0.000, 0.000, -2.900, 0.0, , , , , , 98, , , 67, 67, 67
38.0965930, -120.1425853, 14.000, 15:18:07.833, 13, 0.00, 0.12, 98, 0.600, 0.100, -34.900, 1679, 100, 99, 22, 23302, -19908, 5381, 5491, 11, 14, 1525990687.834, 86, 0, 1024, 1024, 1024, 1024, 0, 6, 3874, 3873, 3896, 3895, 3912, 3873, 0, 1, 10501, -89.900, 0.000, -33.700, 0.000, 0.000, -2.900, 0.0, , , , , , 98, , , 67, 67, 67
38.0965930, -120.1425853, 14.000, 15:18:07.933, 13, 0.00, 0.12, 98, 0.600, 0.100, -34.900, 1679, 100, 99, 22, 23302, -19908, 5381, 5491, 11, 14, 1525990687.933, 186, 0, 1024, 1024, 1024, 1024, 0, 6, 3874, 3873, 3896, 3895, 3912, 3873, 0, 1, 10601, -89.900, 0.000, -33.700, 0.000, 0.000, -2.900, 0.0, , , , , , 98, , , 67, 67, 67
38.0965930, -120.1425853, 14.600, 15:18:08.033, 14, 0.00, 0.13, 98, 0.200, 0.000, -35.000, 1679, 100, 99, 22, 23302, -19908, 5381, 5491, 11, 14, 1525990688.034, 88, 0, 1024, 1024, 1024, 1024, 0, 6, 3874, 3873, 3896, 3895, 3912, 3873, 0, 1, 10701, -89.900, 0.000, -33.800, 0.000, 0.000, -3.000, 0.0, , , , , , 98, , , 67, 67, 67
38.0965931, -120.1425852, 15.200, 15:18:08.133, 14, 0.00, 0.14, 98, -0.100, -0.100, -35.000, 1679, 100, 99, 22, 23302, -19908, 5381, 5491, 11, 14, 1525990688.134, 60, 0, 1024, 1024, 1024, 1024, 0, 6, 3874, 3873, 3896, 3895, 3912, 3873, 0, 1, 10801, -89.900, 0.000, -33.800, 0.000, 0.000, -3.000, 0.0, , , , , , 98, , , 67, 67, 67
38.0965931, -120.1425852, 15.600, 15:18:08.233, 14, 0.00, 0.14, 98, -0.400, -0.100, -35.000, 1679, 100, 99, 22, 23302, -19908, 5381, 5491, 11, 14, 1525990688.234, 73, 0, 1024, 1024, 1024, 1024, 0, 6, 3874, 3873, 3896, 3895, 3912, 3873, 0, 1, 10901, -89.900, 0.000, -33.800, 0.000, 0.000, -3.000, 0.0, , , , , , 98, , , 67, 67, 67
38.0965932, -120.1425852, 15.900, 15:18:08.333, 14, 0.00, 0.15, 98, -0.600, -0.100, -35.000, 1679, 100, 94, 22, 23302, -19908, 5381, 5491, 11, 14, 1525990688.334, 79, 0, 1024, 1024, 1024, 1024, 0, 6, 3874, 3873, 3896, 3895, 3912, 3873, 0, 1, 11001, -89.900, 0.000, -33.800, 0.000, 0.000, -3.000, 0.0, , , , , , 98, , , 67, 67, 67
38.0965932, -120.1425852, 16.200, 15:18:08.433, 14, 0.00, 0.15, 98, -0.600, -0.100, -35.100, 1679, 100, 94, 22, 23302, -19908, 5381, 5491, 11, 14, 1525990688.434, 78, 0, 1024, 1024, 1024, 1024, 0, 6, 3874, 3873, 3896, 3895, 3912, 3873, 0, 1, 11101, -89.900, 0.000, -33.800, 0.000, 0.000, -2.900, 0.0, , , , , , 98, , , 67, 67, 67
38.0965932, -120.1425852, 16.500, 15:18:08.533, 14, 0.00, 0.15, 98, -0.400, -0.200, -35.100, 1679, 100, 94, 22, 23302, -19908, 5381, 5491, 11, 14, 1525990688.534, 60, 0, 1024, 1024, 1024, 1024, 0, 6, 3874, 3873, 3896, 3895, 3912, 3873, 0, 1, 11201, -89.900, 0.000, -33.800, 0.000, 0.000, -2.900, 0.0, , , , , , 98, , , 67, 67, 67
38.0965933, -120.1425852, 16.800, 15:18:08.633, 14, 0.00, 0.15, 98, -0.200, -0.100, -35.200, 1679, 100, 94, 22, 23302, -19908, 5381, 5491, 11, 14, 1525990688.634, 60, 0, 1024, 1024, 1024, 1024, 0, 6, 3874, 3873, 3896, 3895, 3912, 3873, 0, 1, 11301, -89.900, 0.000, -33.900, 0.000, 0.000, -2.900, 0.0, , , , , , 98, , , 67, 67, 67
38.0965933, -120.1425851, 17.100, 15:18:08.733, 14, 0.00, 0.16, 98, -0.200, 0.000, -35.200, 1679, 100, 94, 22, 23351, -18734, 5381, 5491, 11, 14, 1525990688.734, 54, 0, 1024, 1024, 1024, 1024, 0, 6, 3878, 3879, 3896, 3898, 3925, 3873, 0, 1, 11401, -89.900, 0.000, -33.900, 0.000, 0.000, -3.000, 0.0, , , , , , 98, , , 67, 67, 67
38.0965934, -120.1425851, 17.400, 15:18:08.833, 14, 0.00, 0.17, 98, -0.500, 0.000, -35.200, 1679, 100, 94, 22, 23351, -18734, 5381, 5491, 11, 14, 1525990688.834, 29, 0, 1024, 1024, 1024, 1024, 0, 6, 3878, 3879, 3896, 3898, 3925, 3873, 0, 1, 11501, -89.900, 0.000, -33.900, 0.000, 0.000, -2.900, 0.0, , , , , , 98, , , 67, 67, 67
38.0965935, -120.1425850, 17.700, 15:18:08.933, 14, 0.00, 0.18, 98, -0.800, 0.000, -35.300, 1679, 100, 94, 22, 23351, -18734, 5381, 5491, 11, 14, 1525990688.934, 37, 0, 1024, 1024, 1024, 1024, 0, 6, 3878, 3879, 3896, 3898, 3925, 3873, 0, 1, 11601, -89.900, 0.000, -33.900, 0.000, 0.000, -2.800, 0.0, , , , , , 98, , , 67, 67, 67
38.0965935, -120.1425849, 18.000, 15:18:09.033, 14, 0.00, 0.19, 98, -1.200, 0.100, -35.300, 1679, 100, 94, 22, 23351, -18734, 5381, 5491, 11, 14, 1525990689.034, 60, 0, 1024, 1024, 1024, 1024, 0, 6, 3878, 3879, 3896, 3898, 3925, 3873, 0, 1, 11701, -89.900, 0.000, -33.900, 0.000, 0.000, -2.900, 0.0, , , , , , 98, , , 67, 67, 67
38.0965936, -120.1425848, 18.300, 15:18:09.135, 14, 0.00, 0.19, 98, -1.400, 0.200, -35.300, 1679, 100, 94, 22, 23351, -18734, 5381, 5491, 11, 14, 1525990689.136, 5, 0, 1024, 1024, 1024, 1024, 0, 6, 3878, 3879, 3896, 3898, 3925, 3873, 0, 1, 11803, -89.900, 0.000, -33.900, 0.000, 0.000, -2.900, 0.0, , , , , , 98, , , 67, 67, 67
38.0965936, -120.1425848, 18.600, 15:18:09.233, 14, 0.00, 0.20, 98, -1.300, 0.200, -35.200, 1679, 100, 94, 22, 23351, -18734, 5381, 5491, 11, 14, 1525990689.234, 30, 0, 1024, 1024, 1024, 1024, 0, 6, 3878, 3879, 3896, 3898, 3925, 3873, 0, 1, 11901, -89.900, 0.000, -34.000, 0.000, 0.000, -2.900, 0.0, , , , , , 98, , , 67, 67, 67
38.0965936, -120.1425847, 18.900, 15:18:09.333, 14, 0.00, 0.21, 98, -1.200, 0.100, -35.100, 1679, 100, 94, 22, 23351, -18734, 5381, 5491, 11, 14, 1525990689.334, 34, 0, 1024, 1024, 1024, 1024, 0, 6, 3878, 3879, 3896, 3898, 3925, 3873, 0, 1, 12001, -89.900, 0.000, -34.000, 0.000, 0.000, -2.900, 0.0, , , , , , 98, , , 67, 67, 67
38.0965937, -120.1425847, 19.200, 15:18:09.433, 14, 0.00, 0.21, 98, -1.000, -0.100, -35.000, 1679, 100, 94, 22, 23351, -18734, 5381, 5491, 11, 14, 1525990689.434, 36, 0, 1024, 1024, 1024, 1024, 0, 6, 3878, 3879, 3896, 3898, 3925, 3873, 0, 1, 12101, -89.900, 0.000, -34.000, 0.000, 0.000, -2.800, 0.0, , , , , , 98, , , 67, 67, 67
38.0965937, -120.1425846, 19.400, 15:18:09.533, 14, 0.00, 0.21, 98, -0.500, -0.400, -35.000, 1679, 100, 94, 22, 23351, -18734, 5381, 5491, 11, 14, 1525990689.534, 37, 0, 1024, 1024, 1024, 1024, 0, 6, 3878, 3879, 3896, 3898, 3925, 3873, 0, 1, 12201, -90.000, 0.000, -34.000, 0.000, 0.000, -2.800, 0.0, , , , , , 98, , , 67, 67, 67
38.0965937, -120.1425846, 19.700, 15:18:09.633, 14, 0.00, 0.21, 98, -0.300, -0.700, -35.100, 1679, 100, 94, 22, 23389, -18304, 5326, 5491, 11, 14, 1525990689.634, 39, 0, 1024, 1024, 1024, 1024, 0, 6, 3881, 3887, 3903, 3909, 3928, 3888, 0, 1, 12301, -90.000, 0.000, -34.000, 0.000, 0.000, -2.900, 0.0, , , , , , 98, , , 67, 67, 67
38.0965937, -120.1425846, 20.000, 15:18:09.733, 14, 0.00, 0.22, 98, -0.400, -0.800, -35.100, 1679, 100, 99, 22, 23389, -18304, 5326, 5491, 11, 14, 1525990689.734, 20, 0, 1024, 1024, 1024, 1024, 0, 6, 3881, 3887, 3903, 3909, 3928, 3888, 0, 1, 12401, -89.900, 0.000, -34.000, 0.000, 0.000, -2.900, 0.0, , , , , , 98, , , 67, 67, 67
38.0965937, -120.1425846, 20.300, 15:18:09.833, 14, 0.00, 0.22, 98, -0.400, -0.600, -35.100, 1679, 100, 99, 22, 23389, -18304, 5326, 5491, 11, 14, 1525990689.834, 17, 0, 1024, 1024, 1024, 1024, 0, 6, 3881, 3887, 3903, 3909, 3928, 3888, 0, 1, 12501, -89.900, 0.000, -34.000, 0.000, 0.000, -3.000, 0.0, , , , , , 98, , , 67, 67, 67
38.0965938, -120.1425845, 20.600, 15:18:09.938, 14, 0.00, 0.23, 98, -0.600, -0.400, -35.100, 1679, 100, 99, 22, 23389, -18304, 5326, 5491, 11, 14, 1525990689.939, 6, 0, 1024, 1024, 1024, 1024, 0, 6, 3881, 3887, 3903, 3909, 3928, 3888, 0, 1, 12606, -89.900, 0.000, -34.000, 0.000, 0.000, -2.900, 0.0, , , , , , 98, , , 67, 67, 67
38.0965938, -120.1425845, 20.600, 15:18:10.032, 14, 0.00, 0.23, 98, -0.600, -0.400, -35.100, 1679, 100, 99, 22, 23389, -18304, 5326, 5491, 11, 14, 1525990690.033, 100, 0, 1024, 1024, 1024, 1024, 0, 6, 3881, 3887, 3903, 3909, 3928, 3888, 0, 1, 12700, -89.900, 0.000, -34.000, 0.000, 0.000, -2.900, 0.0, , , , , , 98, , , 67, 67, 67
38.0965939, -120.1425844, 21.200, 15:18:10.136, 14, 0.00, 0.25, 98, -0.800, -0.200, -35.100, 1679, 100, 99, 22, 23389, -18304, 5326, 5491, 11, 14, 1525990690.137, 4, 0, 1024, 1024, 1024, 1024, 0, 6, 3881, 3887, 3903, 3909, 3928, 3888, 0, 1, 12804, -89.900, 0.000, -34.000, 0.000, 0.000, -2.900, 0.0, , , , , , 98, , , 67, 67, 67
38.0965940, -120.1425844, 21.500, 15:18:10.235, 14, 0.00, 0.25, 98, -0.900, -0.100, -35.200, 1679, 100, 99, 22, 23389, -18304, 5326, 5491, 11, 14, 1525990690.237, 5, 0, 1024, 1024, 1024, 1024, 0, 6, 3881, 3887, 3903, 3909, 3928, 3888, 0, 1, 12905, -89.900, 0.000, -34.000, 0.000, 0.000, -2.900, 0.0, , , , , , 98, , , 67, 67, 67
38.0965940, -120.1425844, 21.500, 15:18:10.333, 14, 0.00, 0.25, 98, -0.900, -0.100, -35.200, 1679, 100, 100, 22, 23389, -18304, 5326, 5491, 11, 14, 1525990690.334, 102, 0, 1024, 1024, 1024, 1024, 0, 6, 3881, 3887, 3903, 3909, 3928, 3888, 0, 1, 13001, -89.900, 0.000, -34.000, 0.000, 0.000, -2.900, 0.0, , , , , , 98, , , 67, 67, 67
38.0965940, -120.1425843, 22.100, 15:18:10.439, 14, 0.00, 0.26, 98, -1.400, -0.100, -35.500, 1679, 100, 100, 22, 23389, -18304, 5326, 5491, 11, 14, 1525990690.439, 8, 0, 1024, 1024, 1024, 1024, 0, 6, 3881, 3887, 3903, 3909, 3928, 3888, 0, 1, 13106, -89.900, 0.000, -34.000, 0.000, 0.000, -3.000, 0.0, , , , , , 98, , , 67, 67, 67
38.0965940, -120.1425843, 22.100, 15:18:10.533, 14, 0.00, 0.26, 98, -1.400, -0.100, -35.500, 1679, 100, 100, 22, 23389, -18304, 5326, 5491, 11, 14, 1525990690.534, 104, 0, 1024, 1024, 1024, 1024, 0, 6, 3881, 3887, 3903, 3909, 3928, 3888, 0, 1, 13201, -89.900, 0.000, -34.000, 0.000, 0.000, -3.000, 0.0, , , , , , 98, , , 67, 67, 67
38.0965941, -120.1425842, 22.400, 15:18:10.633, 14, 0.00, 0.27, 98, -1.400, -0.100, -35.600, 1679, 100, 100, 22, 23389, -18304, 5326, 5491, 11, 14, 1525990690.634, 82, 0, 1024, 1024, 1024, 1024, 0, 6, 3881, 3887, 3903, 3909, 3928, 3888, 0, 1, 13301, -89.900, 0.000, -34.000, 0.000, 0.000, -3.000, 0.0, , , , , , 98, , , 67, 67, 67
38.0965942, -120.1425841, 23.000, 15:18:10.733, 14, 0.00, 0.28, 97, -1.200, -0.300, -35.600, 1679, 100, 100, 22, 23306, -18547, 5326, 5491, 11, 14, 1525990690.734, 78, 0, 1024, 1024, 1024, 1024, 0, 6, 3881, 3887, 3903, 3909, 3928, 3888, 0, 1, 13401, -89.900, 0.000, -34.000, 0.000, 0.000, -3.000, 0.0, , , , , , 98, , , 67, 67, 67
38.0965942, -120.1425841, 23.300, 15:18:10.833, 14, 0.00, 0.29, 97, -1.100, -0.300, -35.500, 1679, 100, 100, 22, 23306, -18547, 5326, 5491, 11, 14, 1525990690.834, 56, 0, 1024, 1024, 1024, 1024, 0, 6, 3881, 3887, 3903, 3909, 3928, 3888, 0, 1, 13501, -89.900, 0.000, -34.000, 0.000, 0.000, -3.000, 0.0, , , , , , 98, , , 67, 67, 67
38.0965942, -120.1425841, 23.700, 15:18:10.934, 14, 0.00, 0.29, 97, -1.100, -0.200, -35.300, 1679, 100, 100, 22, 23306, -18547, 5326, 5491, 11, 14, 1525990690.934, 74, 0, 1024, 1024, 1024, 1024, 0, 6, 3881, 3887, 3903, 3909, 3928, 3888, 0, 1, 13601, -89.900, 0.000, -34.000, 0.000, 0.000, -3.000, 0.0, , , , , , 98, , , 67, 67, 67
38.0965942, -120.1425840, 24.000, 15:18:11.033, 14, 0.00, 0.29, 97, -1.000, -0.300, -35.100, 1679, 100, 100, 22, 23306, -18547, 5326, 5491, 11, 14, 1525990691.033, 77, 0, 1024, 1024, 1024, 1024, 0, 6, 3881, 3887, 3903, 3909, 3928, 3888, 0, 1, 13701, -89.900, 0.000, -34.000, 0.000, 0.000, -3.000, 0.0, , , , , , 98, , , 67, 67, 67
38.0965942, -120.1425840, 24.300, 15:18:11.133, 14, 0.00, 0.29, 97, -0.900, -0.400, -35.000, 1679, 100, 100, 22, 23306, -18547, 5326, 5491, 11, 14, 1525990691.134, 81, 0, 1024, 1024, 1024, 1024, 0, 6, 3881, 3887, 3903, 3909, 3928, 3888, 0, 1, 13801, -89.900, 0.000, -34.000, 0.000, 0.000, -2.900, 0.0, , , , , , 98, , , 67, 67, 67
38.0965942, -120.1425840, 24.600, 15:18:11.233, 14, 0.00, 0.30, 97, -1.100, -0.400, -34.800, 1679, 100, 100, 22, 23306, -18547, 5326, 5491, 11, 14, 1525990691.234, 68, 0, 1024, 1024, 1024, 1024, 0, 6, 3865, 3873, 3885, 3893, 3920, 3880, 0, 1, 13901, -89.900, 0.000, -34.000, 0.000, 0.000, -2.900, 0.0, , , , , , 98, , , 67, 67, 67
38.0965943, -120.1425840, 24.900, 15:18:11.334, 14, 0.00, 0.30, 97, -1.300, -0.300, -34.700, 1679, 100, 100, 22, 23306, -18547, 5326, 5491, 11, 14, 1525990691.334, 60, 0, 1024, 1024, 1024, 1024, 0, 6, 3865, 3873, 3885, 3893, 3920, 3880, 0, 1, 14001, -89.900, 0.000, -34.000, 0.000, 0.000, -2.900, 0.0, , , , , , 98, , , 67, 67, 67
38.0965943, -120.1425839, 25.200, 15:18:11.433, 14, 0.00, 0.30, 97, -1.400, -0.200, -34.600, 1679, 100, 100, 22, 23306, -18547, 5326, 5491, 11, 14, 1525990691.434, 60, 0, 1024, 1024, 1024, 1024, 0, 6, 3865, 3873, 3885, 3893, 3920, 3880, 0, 1, 14101, -89.900, 0.000, -34.000, 0.000, 0.000, -2.900, 0.0, , , , , , 98, , , 67, 67, 67
38.0965943, -120.1425839, 25.500, 15:18:11.533, 14, 0.00, 0.30, 97, -1.400, -0.100, -34.600, 1679, 100, 100, 22, 23306, -18547, 5326, 5491, 11, 14, 1525990691.534, 42, 0, 1024, 1024, 1024, 1024, 0, 6, 3865, 3873, 3885, 3893, 3920, 3880, 0, 1, 14201, -89.900, 0.000, -34.000, 0.000, 0.000, -2.900, 0.0, , , , , , 98, , , 67, 67, 67
38.0965942, -120.1425839, 25.800, 15:18:11.633, 14, 0.00, 0.30, 97, -1.400, 0.000, -34.600, 1679, 100, 100, 22, 23306, -18547, 5326, 5491, 11, 14, 1525990691.633, 41, 0, 1024, 1024, 1024, 1024, 0, 6, 3865, 3873, 3885, 3893, 3920, 3880, 0, 1, 14300, -89.900, 0.000, -34.000, 0.000, 0.000, -2.800, 0.0, , , , , , 98, , , 67, 67, 67
38.0965942, -120.1425840, 26.100, 15:18:11.733, 14, 0.00, 0.30, 97, -1.000, -0.200, -34.600, 1679, 100, 100, 22, 23306, -18547, 5326, 5491, 11, 14, 1525990691.733, 54, 0, 1024, 1024, 1024, 1024, 0, 6, 3865, 3873, 3885, 3893, 3920, 3880, 0, 1, 14400, -89.900, 0.000, -34.000, 0.000, 0.000, -2.800, 0.0, , , , , , 98, , , 67, 67, 67
38.0965941, -120.1425840, 26.300, 15:18:11.833, 14, 0.00, 0.29, 97, -0.800, -0.500, -34.700, 1679, 100, 100, 22, 23306, -18547, 5326, 5491, 11, 14, 1525990691.834, 18, 0, 1024, 1024, 1024, 1024, 0, 6, 3865, 3873, 3885, 3893, 3920, 3880, 0, 1, 14501, -90.000, 0.000, -34.000, 0.000, 0.000, -2.800, 0.0, , , , , , 98, , , 67, 67, 67
38.0965941, -120.1425840, 26.600, 15:18:11.933, 14, 0.00, 0.29, 97, -0.800, -1.000, -34.800, 1679, 100, 100, 22, 23306, -18547, 5326, 5491, 11, 14, 1525990691.934, 39, 0, 1024, 1024, 1024, 1024, 0, 6, 3865, 3873, 3885, 3893, 3920, 3880, 0, 1, 14601, -90.000, 0.000, -34.000, 0.000, 0.000, -2.800, 0.0, , , , , , 98, , , 67, 67, 67
38.0965940, -120.1425840, 26.900, 15:18:12.033, 14, 0.00, 0.28, 97, -0.800, -1.400, -34.900, 1679, 100, 100, 22, 23306, -18547, 5326, 5491, 11, 14, 1525990692.034, 25, 0, 1024, 1024, 1024, 1024, 0, 6, 3865, 3873, 3885, 3893, 3920, 3880, 0, 1, 14701, -89.900, 0.000, -34.000, 0.000, 0.000, -2.800, 0.0, , , , , , 98, , , 67, 67, 67
38.0965940, -120.1425840, 27.200, 15:18:12.133, 14, 0.00, 0.28, 97, -0.200, -1.300, -34.900, 1679, 100, 100, 22, 23355, -17779, 5326, 5491, 11, 14, 1525990692.133, 10, 0, 1024, 1024, 1024, 1024, 0, 6, 3865, 3873, 3885, 3893, 3920, 3880, 0, 1, 14800, -89.900, 0.000, -34.000, 0.000, 0.000, -2.900, 0.0, , , , , , 98, , , 67, 67, 67
38.0965940, -120.1425841, 27.500, 15:18:12.233, 14, 0.00, 0.27, 97, 0.000, -1.100, -35.000, 1679, 100, 99, 22, 23355, -17779, 5326, 5491, 11, 14, 1525990692.234, 31, 0, 1024, 1024, 1024, 1024, 0, 6, 3874, 3885, 3903, 3907, 3921, 3888, 0, 1, 14901, -89.900, 0.000, -34.000, 0.000, 0.000, -2.900, 0.0, , , , , , 98, , , 67, 67, 67
38.0965939, -120.1425841, 27.800, 15:18:12.333, 14, 0.00, 0.27, 97, 0.000, -0.600, -35.000, 1679, 100, 99, 22, 23355, -17779, 5326, 5491, 11, 14, 1525990692.334, 25, 0, 1024, 1024, 1024, 1024, 0, 6, 3874, 3885, 3903, 3907, 3921, 3888, 0, 1, 15001, -89.900, 0.000, -34.000, 0.000, 0.000, -2.800, 0.0, , , , , , 98, , , 67, 67, 67
38.0965939, -120.1425842, 28.000, 15:18:12.434, 14, 0.00, 0.26, 97, 0.000, -0.300, -35.000, 1679, 100, 99, 22, 23355, -17779, 5326, 5491, 11, 14, 1525990692.434, 17, 0, 1024, 1024, 1024, 1024, 0, 6, 3874, 3885, 3903, 3907, 3921, 3888, 0, 1, 15101, -89.900, 0.000, -34.000, 0.000, 0.000, -2.900, 0.0, , , , , , 98, , , 67, 67, 67
38.0965939, -120.1425843, 28.400, 15:18:12.533, 14, 0.00, 0.25, 97, 0.200, -0.100, -35.000, 1679, 100, 99, 22, 23355, -17779, 5326, 5491, 11, 14, 1525990692.534, 8, 0, 1024, 1024, 1024, 1024, 0, 6, 3874, 3885, 3903, 3907, 3921, 3888, 0, 1, 15201, -89.900, 0.000, -34.000, 0.000, 0.000, -2.900, 0.0, , , , , , 98, , , 67, 67, 67
38.0965939, -120.1425843, 28.400, 15:18:12.634, 14, 0.00, 0.25, 97, 0.200, -0.100, -35.000, 1679, 100, 99, 22, 23355, -17779, 5326, 5491, 11, 14, 1525990692.634, 108, 0, 1024, 1024, 1024, 1024, 0, 6, 3874, 3885, 3903, 3907, 3921, 3888, 0, 1, 15301, -89.900, 0.000, -34.000, 0.000, 0.000, -2.900, 0.0, , , , , , 98, , , 67, 67, 67
38.0965938, -120.1425844, 28.600, 15:18:12.733, 14, 0.00, 0.24, 97, 0.500, 0.000, -35.000, 1679, 100, 99, 22, 23355, -17779, 5326, 5491, 11, 14, 1525990692.734, 92, 0, 1024, 1024, 1024, 1024, 0, 6, 3874, 3885, 3903, 3907, 3921, 3888, 0, 1, 15401, -89.900, 0.000, -34.000, 0.000, 0.000, -2.900, 0.0, , , , , , 98, , , 67, 67, 67
38.0965938, -120.1425845, 28.900, 15:18:12.833, 14, 0.00, 0.24, 97, 0.600, 0.000, -35.100, 1679, 100, 99, 22, 23355, -17779, 5326, 5491, 11, 14, 1525990692.834, 75, 0, 1024, 1024, 1024, 1024, 0, 6, 3874, 3885, 3903, 3907, 3921, 3888, 0, 1, 15501, -89.900, 0.000, -34.000, 0.000, 0.000, -2.800, 0.0, , , , , , 98, , , 67, 67, 67
38.0965937, -120.1425845, 29.200, 15:18:12.933, 14, 0.00, 0.23, 97, 0.300, -0.100, -35.000, 1679, 100, 99, 22, 23355, -17779, 5326, 5491, 11, 14, 1525990692.934, 77, 0, 1024, 1024, 1024, 1024, 0, 6, 3874, 3885, 3903, 3907, 3921, 3888, 0, 1, 15601, -89.900, 0.000, -34.000, 0.000, 0.000, -2.900, 0.0, , , , , , 98, , , 67, 67, 67
38.0965937, -120.1425846, 29.500, 15:18:13.033, 14, 0.00, 0.22, 97, 0.000, -0.500, -35.000, 1679, 100, 99, 22, 23355, -17779, 5326, 5491, 11, 14, 1525990693.034, 74, 0, 1024, 1024, 1024, 1024, 0, 6, 3874, 3885, 3903, 3907, 3921, 3888, 0, 1, 15701, -89.900, 0.000, -34.000, 0.000, 0.000, -3.000, 0.0, , , , , , 98, , , 67, 67, 67
38.0965936, -120.1425847, 30.100, 15:18:13.133, 14, 0.00, 0.21, 97, 0.300, -0.600, -34.800, 1679, 100, 99, 22, 23355, -17779, 5326, 5491, 11, 14, 1525990693.134, 85, 0, 1024, 1024, 1024, 1024, 0, 6, 3874, 3885, 3903, 3907, 3921, 3888, 0, 1, 15801, -89.900, 0.000, -34.000, 0.000, 0.000, -2.900, 0.0, , , , , , 98, , , 67, 67, 67
38.0965936, -120.1425847, 30.400, 15:18:13.233, 15, 0.00, 0.21, 97, 0.800, -0.400, -34.700, 1679, 100, 99, 23, 23318, -17981, 5326, 5491, 11, 14, 1525990693.234, 88, 0, 1024, 1024, 1024, 1024, 0, 6, 3876, 3877, 3881, 3897, 3901, 3864, 0, 1, 15901, -89.900, 0.000, -34.000, 0.000, 0.000, -2.900, 0.0, , , , , , 98, , , 67, 67, 67
38.0965936, -120.1425847, 30.700, 15:18:13.333, 15, 0.00, 0.20, 97, 0.800, -0.300, -34.600, 1679, 100, 99, 23, 23318, -17981, 5326, 5491, 11, 14, 1525990693.334, 50, 0, 1024, 1024, 1024, 1024, 0, 6, 3876, 3877, 3881, 3897, 3901, 3864, 0, 1, 16001, -89.900, 0.000, -34.000, 0.000, 0.000, -2.900, 0.0, , , , , , 98, , , 67, 67, 67
38.0965936, -120.1425847, 31.000, 15:18:13.433, 15, 0.00, 0.20, 97, 0.400, -0.200, -34.500, 1679, 100, 99, 23, 23318, -17981, 5326, 5491, 11, 14, 1525990693.434, 50, 0, 1024, 1024, 1024, 1024, 0, 6, 3876, 3877, 3881, 3897, 3901, 3864, 0, 1, 16101, -89.900, 0.000, -34.000, 0.000, 0.000, -3.000, 0.0, , , , , , 98, , , 67, 67, 67
38.0965936, -120.1425847, 31.300, 15:18:13.533, 15, 0.00, 0.20, 97, -0.100, -0.200, -34.600, 1679, 100, 99, 23, 23318, -17981, 5326, 5491, 11, 14, 1525990693.534, 59, 0, 1024, 1024, 1024, 1024, 0, 6, 3876, 3877, 3881, 3897, 3901, 3864, 0, 1, 16201, -89.900, 0.000, -34.000, 0.000, 0.000, -3.000, 0.0, , , , , , 98, , , 67, 67, 67
38.0965936, -120.1425847, 31.600, 15:18:13.633, 15, 0.00, 0.20, 97, -0.600, -0.300, -34.700, 1679, 100, 99, 23, 23318, -17981, 5326, 5491, 11, 14, 1525990693.634, 61, 0, 1024, 1024, 1024, 1024, 0, 6, 3876, 3877, 3881, 3897, 3901, 3864, 0, 1, 16301, -89.900, 0.000, -34.000, 0.000, 0.000, -3.000, 0.0, , , , , , 98, , , 67, 67, 67
38.0965936, -120.1425848, 31.900, 15:18:13.733, 15, 0.00, 0.20, 97, -0.700, 0.000, -34.900, 1679, 100, 100, 23, 23318, -17981, 5326, 5491, 11, 14, 1525990693.734, 54, 0, 1024, 1024, 1024, 1024, 0, 6, 3876, 3877, 3881, 3897, 3901, 3864, 0, 1, 16401, -89.900, 0.000, -34.000, 0.000, 0.000, -3.000, 0.0, , , , , , 98, , , 67, 67, 67
38.0965936, -120.1425848, 32.200, 15:18:13.833, 15, 0.00, 0.20, 97, -0.400, 0.000, -35.100, 1679, 100, 100, 23, 23318, -17981, 5326, 5491, 11, 14, 1525990693.834, 30, 0, 1024, 1024, 1024, 1024, 0, 6, 3876, 3877, 3881, 3897, 3901, 3864, 0, 1, 16501, -89.900, 0.000, -34.000, 0.000, 0.000, -3.000, 0.0, , , , , , 98, , , 67, 67, 67
38.0965936, -120.1425848, 32.500, 15:18:13.933, 15, 0.00, 0.20, 97, -0.300, 0.000, -35.200, 1679, 100, 100, 23, 23318, -17981, 5326, 5491, 11, 14, 1525990693.934, 47, 0, 1024, 1024, 1024, 1024, 0, 6, 3876, 3877, 3881, 3897, 3901, 3864, 0, 1, 16601, -89.900, 0.000, -34.000, 0.000, 0.000, -3.000, 0.0, , , , , , 98, , , 67, 67, 67
38.0965936, -120.1425849, 32.800, 15:18:14.033, 15, 0.00, 0.20, 97, -0.100, 0.000, -35.300, 1679, 100, 100, 23, 23318, -17981, 5326, 5491, 11, 14, 1525990694.034, 23, 0, 1024, 1024, 1024, 1024, 0, 6, 3876, 3877, 3881, 3897, 3901, 3864, 0, 1, 16701, -89.900, 0.000, -34.000, 0.000, 0.000, -3.100, 0.0, , , , , , 98, , , 67, 67, 67
38.0965936, -120.1425848, 33.100, 15:18:14.140, 15, 0.00, 0.19, 97, -0.100, -0.200, -35.300, 1679, 100, 100, 23, 23318, -17981, 5326, 5491, 11, 14, 1525990694.141, 5, 0, 1024, 1024, 1024, 1024, 0, 6, 3876, 3877, 3881, 3897, 3901, 3864, 0, 1, 16808, -89.900, 0.000, -34.000, 0.000, 0.000, -3.000, 0.0, , , , , , 98, , , 67, 67, 67
38.0965936, -120.1425848, 33.400, 15:18:14.233, 15, 0.00, 0.19, 97, -0.100, -0.400, -35.200, 1679, 100, 97, 23, 23156, -19537, 5326, 5491, 11, 14, 1525990694.234, 26, 0, 1024, 1024, 1024, 1024, 0, 6, 3847, 3856, 3853, 3869, 3887, 3855, 0, 1, 16901, -89.900, 0.000, -34.000, 0.000, 0.000, -3.000, 0.0, , , , , , 98, , , 67, 67, 67
38.0965936, -120.1425848, 33.700, 15:18:14.333, 15, 0.00, 0.20, 97, 0.000, -0.400, -35.200, 1679, 100, 97, 23, 23156, -19537, 5326, 5491, 11, 14, 1525990694.334, 17, 0, 1024, 1024, 1024, 1024, 0, 6, 3847, 3856, 3853, 3869, 3887, 3855, 0, 1, 17001, -89.900, 0.000, -34.000, 0.000, 0.000, -3.000, 0.0, , , , , , 98, , , 67, 67, 67
38.0965935, -120.1425848, 34.100, 15:18:14.433, 15, 0.00, 0.19, 97, 0.000, -0.500, -35.100, 1679, 100, 97, 23, 23156, -19537, 5326, 5491, 11, 14, 1525990694.434, 22, 0, 1024, 1024, 1024, 1024, 0, 6, 3847, 3856, 3853, 3869, 3887, 3855, 0, 1, 17101, -89.900, 0.000, -34.000, 0.000, 0.000, -3.000, 0.0, , , , , , 98, , , 67, 67, 67
38.0965935, -120.1425848, 34.400, 15:18:14.533, 15, 0.00, 0.19, 97, -0.200, -0.500, -35.100, 1679, 100, 97, 23, 23156, -19537, 5326, 5491, 11, 14, 1525990694.534, 10, 0, 1024, 1024, 1024, 1024, 0, 6, 3847, 3856, 3853, 3869, 3887, 3855, 0, 1, 17201, -89.900, 0.000, -34.000, 0.000, 0.000, -3.000, 0.0, , , , , , 98, , , 67, 67, 67
38.0965935, -120.1425849, 34.700, 15:18:14.633, 15, 0.00, 0.18, 97, 0.000, -0.500, -35.200, 1679, 100, 97, 23, 23156, -19537, 5326, 5491, 11, 14, 1525990694.633, 12, 0, 1024, 1024, 1024, 1024, 0, 6, 3847, 3856, 3853, 3869, 3887, 3855, 0, 1, 17300, -89.900, 0.000, -34.000, 0.000, 0.000, -3.000, 0.0, , , , , , 98, , , 67, 67, 67
38.0965934, -120.1425849, 35.000, 15:18:14.733, 15, 0.00, 0.18, 97, 0.000, -0.300, -35.200, 1679, 100, 97, 23, 23156, -19537, 5326, 5491, 11, 14, 1525990694.734, 11, 0, 1024, 1024, 1024, 1024, 0, 6, 3847, 3856, 3853, 3869, 3887, 3855, 0, 1, 17401, -89.900, 0.000, -34.000, 0.000, 0.000, -3.000, 0.0, , , , , , 98, , , 67, 67, 67
38.0965934, -120.1425849, 35.300, 15:18:14.834, 15, 0.00, 0.18, 97, 0.000, -0.500, -35.200, 1679, 100, 97, 23, 23156, -19537, 5326, 5491, 11, 14, 1525990694.835, 3, 0, 1024, 1024, 1024, 1024, 0, 6, 3847, 3856, 3853, 3869, 3887, 3855, 0, 1, 17502, -89.900, 0.000, -34.000, 0.000, 0.000, -3.000, 0.0, , , , , , 98, , , 67, 67, 67
38.0965934, -120.1425849, 35.600, 15:18:14.933, 15, 0.00, 0.17, 97, 0.000, -0.600, -35.200, 1679, 100, 97, 23, 23156, -19537, 5326, 5491, 11, 14, 1525990694.934, 10, 0, 1024, 1024, 1024, 1024, 0, 6, 3847, 3856, 3853, 3869, 3887, 3855, 0, 1, 17601, -89.900, 0.000, -34.000, 0.000, 0.000, -3.000, 0.0, , , , , , 98, , , 67, 67, 67
38.0965934, -120.1425849, 35.600, 15:18:15.033, 15, 0.00, 0.17, 97, 0.000, -0.600, -35.200, 1679, 100, 97, 23, 23156, -19537, 5326, 5491, 11, 14, 1525990695.034, 110, 0, 1024, 1024, 1024, 1024, 0, 6, 3847, 3856, 3853, 3869, 3887, 3855, 0, 1, 17701, -89.900, 0.000, -34.000, 0.000, 0.000, -3.000, 0.0, , , , , , 98, , , 67, 67, 67
38.0965933, -120.1425850, 35.900, 15:18:15.133, 15, 0.00, 0.17, 97, 0.300, -0.600, -35.200, 1679, 100, 97, 23, 23156, -19537, 5326, 5491, 11, 14, 1525990695.134, 73, 0, 1024, 1024, 1024, 1024, 0, 6, 3847, 3856, 3853, 3869, 3887, 3855, 0, 1, 17801, -89.900, 0.000, -34.000, 0.000, 0.000, -2.900, 0.0, , , , , , 98, , , 67, 67, 67
38.0965933, -120.1425850, 36.200, 15:18:15.233, 15, 0.00, 0.16, 97, 0.700, -0.600, -35.200, 1679, 100, 97, 23, 23216, -18732, 5326, 5491, 11, 14, 1525990695.233, 93, 0, 1024, 1024, 1024, 1024, 0, 6, 3847, 3856, 3853, 3869, 3887, 3855, 0, 1, 17900, -89.900, 0.000, -34.000, 0.000, 0.000, -2.900, 0.0, , , , , , 98, , , 67, 67, 67
38.0965932, -120.1425850, 37.100, 15:18:15.345, 15, 0.00, 0.16, 97, 0.200, -0.600, -35.400, 1679, 100, 97, 23, 23216, -18732, 5326, 5491, 11, 14, 1525990695.346, 13, 0, 1024, 1024, 1024, 1024, 0, 6, 3863, 3868, 3875, 3881, 3903, 3858, 0, 1, 18013, -89.900, 0.000, -34.000, 0.000, 0.000, -3.000, 0.0, , , , , , 98, , , 67, 67, 67
38.0965932, -120.1425850, 37.100, 15:18:15.433, 15, 0.00, 0.16, 97, 0.200, -0.600, -35.400, 1679, 100, 97, 23, 23216, -18732, 5326, 5491, 11, 14, 1525990695.434, 101, 0, 1024, 1024, 1024, 1024, 0, 6, 3863, 3868, 3875, 3881, 3903, 3858, 0, 1, 18101, -89.900, 0.000, -34.000, 0.000, 0.000, -3.000, 0.0, , , , , , 98, , , 67, 67, 67
38.0965932, -120.1425850, 37.100, 15:18:15.533, 15, 0.00, 0.16, 97, 0.200, -0.600, -35.400, 1679, 100, 97, 23, 23216, -18732, 5326, 5491, 11, 14, 1525990695.534, 201, 0, 1024, 1024, 1024, 1024, 0, 6, 3863, 3868, 3875, 3881, 3903, 3858, 0, 1, 18201, -90.000, 0.000, -34.000, 0.000, 0.000, -3.000, 0.0, , , , , , 98, , , 67, 67, 67
38.0965931, -120.1425849, 37.700, 15:18:15.634, 15, 0.00, 0.16, 97, 0.300, -1.100, -35.200, 1679, 100, 97, 23, 23216, -18732, 5326, 5491, 11, 14, 1525990695.634, 71, 0, 1024, 1024, 1024, 1024, 0, 6, 3863, 3868, 3875, 3881, 3903, 3858, 0, 1, 18301, -90.000, 0.000, -34.000, 0.000, 0.000, -2.900, 0.0, , , , , , 98, , , 67, 67, 67
38.0965931, -120.1425849, 38.000, 15:18:15.733, 15, 0.00, 0.16, 97, 0.300, -1.100, -35.100, 1679, 100, 97, 23, 23216, -18732, 5326, 5491, 11, 14, 1525990695.734, 76, 0, 1024, 1024, 1024, 1024, 0, 6, 3863, 3868, 3875, 3881, 3903, 3858, 0, 1, 18401, -90.000, 0.000, -34.000, 0.000, 0.000, -2.900, 0.0, , , , , , 98, , , 67, 67, 67
38.0965931, -120.1425848, 38.300, 15:18:15.833, 15, 0.00, 0.17, 97, 0.000, -1.200, -35.000, 1679, 100, 100, 23, 23216, -18732, 5326, 5491, 11, 14, 1525990695.834, 48, 0, 1024, 1024, 1024, 1024, 0, 6, 3863, 3868, 3875, 3881, 3903, 3858, 0, 1, 18501, -90.000, 0.000, -34.000, 0.000, 0.000, -3.000, 0.0, , , , , , 98, , , 67, 67, 67
38.0965931, -120.1425848, 38.600, 15:18:15.933, 15, 0.00, 0.17, 97, -0.400, -1.100, -34.900, 1679, 100, 100, 23, 23216, -18732, 5326, 5491, 11, 14, 1525990695.934, 60, 0, 1024, 1024, 1024, 1024, 0, 6, 3863, 3868, 3875, 3881, 3903, 3858, 0, 1, 18601, -89.900, 0.000, -34.000, 0.000, 0.000, -3.100, 0.0, , , , , , 98, , , 67, 67, 67
38.0965931, -120.1425847, 38.900, 15:18:16.033, 15, 0.00, 0.18, 97, -0.600, -1.100, -34.700, 1679, 100, 100, 23, 23216, -18732, 5326, 5491, 11, 14, 1525990696.034, 61, 0, 1024, 1024, 1024, 1024, 0, 6, 3863, 3868, 3875, 3881, 3903, 3858, 0, 1, 18701, -89.900, 0.000, -34.000, 0.000, 0.000, -3.000, 0.0, , , , , , 98, , , 67, 67, 67
38.0965931, -120.1425846, 39.200, 15:18:16.133, 15, 0.00, 0.18, 97, -0.700, -1.300, -34.500, 1679, 100, 100, 23, 23216, -18732, 5326, 5491, 11, 14, 1525990696.133, 10, 0, 1024, 1024, 1024, 1024, 0, 6, 3863, 3868, 3875, 3881, 3903, 3858, 0, 1, 18801, -90.000, 0.000, -34.000, 0.000, 0.000, -3.000, 0.0, , , , , , 98, , , 67, 67, 67
38.0965931, -120.1425845, 39.500, 15:18:16.234, 15, 0.00, 0.19, 97, -0.600, -1.500, -34.200, 1679, 100, 100, 23, 23258, -17966, 5326, 5491, 11, 14, 1525990696.234, 50, 0, 1024, 1024, 1024, 1024, 0, 6, 3863, 3868, 3875, 3881, 3903, 3858, 0, 1, 18901, -90.000, 0.000, -34.000, 0.000, 0.000, -3.000, 0.0, , , , , , 98, , , 67, 67, 67
38.0965931, -120.1425844, 39.900, 15:18:16.333, 15, 0.10, 0.21, 97, -1.400, -1.700, -34.100, 1679, 100, 100, 23, 23258, -17966, 5326, 5491, 11, 14, 1525990696.334, 41, 0, 1024, 1024, 1024, 1024, 0, 6, 3863, 3868, 3875, 3881, 3903, 3858, 0, 1, 19001, -90.000, 0.000, -34.000, 0.000, 0.100, -3.000, 0.0, , , , , , 98, , , 67, 67, 67
38.0965932, -120.1425842, 40.200, 15:18:16.433, 15, 0.10, 0.22, 97, -2.300, -1.700, -34.200, 1679, 100, 100, 23, 23258, -17966, 5326, 5491, 11, 14, 1525990696.434, 41, 0, 1024, 1024, 1024, 1024, 0, 6, 3863, 3868, 3875, 3881, 3903, 3858, 0, 1, 19101, -90.000, 0.000, -34.100, 0.000, 0.100, -3.000, 0.0, , , , , , 98, , , 67, 67, 67
38.0965932, -120.1425840, 40.500, 15:18:16.533, 15, 0.10, 0.24, 97, -2.800, -1.800, -34.400, 1679, 100, 100, 23, 23258, -17966, 5326, 5491, 11, 14, 1525990696.533, 32, 0, 1024, 1024, 1024, 1024, 0, 6, 3863, 3868, 3875, 3881, 3903, 3858, 0, 1, 19201, -90.000, 0.000, -34.100, 0.000, 0.100, -3.000, 0.0, , , , , , 98, , , 67, 67, 67
38.0965933, -120.1425838, 40.800, 15:18:16.633, 15, 0.10, 0.26, 97, -3.100, -1.700, -34.500, 1679, 100, 100, 23, 23258, -17966, 5326, 5491, 11, 14, 1525990696.634, 34, 0, 1024, 1024, 1024, 1024, 0, 6, 3853, 3860, 3868, 3880, 3894, 3858, 0, 1, 19301, -89.900, 0.000, -34.100, 0.000, 0.100, -2.900, 0.0, , , , , , 98, , , 67, 67, 67
38.0965934, -120.1425836, 41.100, 15:18:16.733, 15, 0.10, 0.28, 97, -3.600, -1.500, -34.600, 1679, 100, 100, 23, 23258, -17966, 5326, 5491, 11, 14, 1525990696.734, 34, 0, 1024, 1024, 1024, 1024, 0, 6, 3853, 3860, 3868, 3880, 3894, 3858, 0, 1, 19401, -89.900, 0.000, -34.100, 0.000, 0.100, -2.900, 0.0, , , , , , 98, , , 67, 67, 67
38.0965934, -120.1425834, 41.400, 15:18:16.855, 15, 0.10, 0.30, 97, -3.600, -1.500, -34.700, 1679, 100, 100, 23, 23258, -17966, 5326, 5491, 11, 14, 1525990696.856, 9, 0, 1024, 1024, 1024, 1024, 0, 6, 3853, 3860, 3868, 3880, 3894, 3858, 0, 1, 19523, -89.900, 0.000, -34.100, 0.000, 0.100, -2.800, 0.0, , , , , , 98, , , 67, 67, 67
38.0965935, -120.1425833, 41.700, 15:18:16.933, 15, 0.00, 0.31, 97, -3.500, -1.500, -34.800, 1679, 100, 100, 23, 23258, -17966, 5326, 5491, 11, 14, 1525990696.934, 28, 0, 1024, 1024, 1024, 1024, 0, 6, 3853, 3860, 3868, 3880, 3894, 3858, 0, 1, 19601, -89.900, 0.000, -34.100, 0.000, 0.000, -2.800, 0.0, , , , , , 98, , , 67, 67, 67
38.0965935, -120.1425831, 42.000, 15:18:17.034, 15, 0.00, 0.32, 97, -3.300, -1.600, -35.000, 1679, 100, 100, 23, 23258, -17966, 5326, 5491, 11, 14, 1525990697.034, 4, 0, 1024, 1024, 1024, 1024, 0, 6, 3853, 3860, 3868, 3880, 3894, 3858, 0, 1, 19701, -89.900, 0.000, -34.100, 0.000, 0.000, -2.800, 0.0, , , , , , 98, , , 67, 67, 67
38.0965935, -120.1425830, 42.200, 15:18:17.135, 15, 0.00, 0.33, 97, -2.700, -1.700, -35.200, 1679, 100, 100, 23, 23258, -17966, 5326, 5491, 11, 14, 1525990697.135, 4, 0, 1024, 1024, 1024, 1024, 0, 6, 3853, 3860, 3868, 3880, 3894, 3858, 0, 1, 19802, -89.900, 0.000, -34.100, 0.000, 0.000, -2.700, 0.0, , , , , , 98, , , 67, 67, 67
38.0965935, -120.1425830, 42.500, 15:18:17.235, 15, 0.00, 0.33, 97, -2.300, -1.800, -35.300, 1679, 100, 100, 23, 23258, -17966, 5326, 5491, 11, 14, 1525990697.236, 7, 0, 1024, 1024, 1024, 1024, 0, 6, 3853, 3860, 3868, 3880, 3894, 3858, 0, 1, 19903, -89.900, 0.000, -34.100, 0.000, 0.000, -2.800, 0.0, , , , , , 98, , , 67, 67, 67
38.0965935, -120.1425830, 42.800, 15:18:17.333, 15, 0.00, 0.33, 97, -2.000, -1.800, -35.300, 1679, 100, 100, 23, 23258, -17966, 5326, 5491, 11, 14, 1525990697.334, 6, 0, 1024, 1024, 1024, 1024, 0, 6, 3853, 3860, 3868, 3880, 3894, 3858, 0, 1, 20001, -89.900, 0.000, -34.100, 0.000, 0.000, -2.800, 0.0, , , , , , 98, , , 67, 67, 67
38.0965935, -120.1425830, 42.800, 15:18:17.433, 15, 0.00, 0.33, 97, -2.000, -1.800, -35.300, 1679, 100, 100, 23, 23258, -17966, 5326, 5491, 11, 14, 1525990697.434, 106, 0, 1024, 1024, 1024, 1024, 0, 6, 3853, 3860, 3868, 3880, 3894, 3858, 0, 1, 20101, -89.900, 0.000, -34.100, 0.000, 0.000, -2.800, 0.0, , , , , , 98, , , 67, 67, 67
38.0965936, -120.1425830, 43.400, 15:18:17.533, 15, 0.00, 0.33, 97, -1.900, -1.700, -35.000, 1679, 100, 100, 23, 23258, -17966, 5326, 5491, 11, 14, 1525990697.534, 80, 0, 1024, 1024, 1024, 1024, 0, 6, 3853, 3860, 3868, 3880, 3894, 3858, 0, 1, 20201, -89.900, 0.000, -34.100, 0.000, 0.000, -2.900, 0.0, , , , , , 98, , , 67, 67, 67
38.0965936, -120.1425830, 43.400, 15:18:17.633, 15, 0.00, 0.33, 97, -1.900, -1.700, -35.000, 1679, 100, 100, 23, 23258, -17966, 5326, 5491, 11, 14, 1525990697.634, 180, 0, 1024, 1024, 1024, 1024, 0, 6, 3853, 3860, 3868, 3880, 3894, 3858, 0, 1, 20301, -89.900, 0.000, -34.100, 0.000, 0.000, -2.900, 0.0, , , , , , 98, , , 67, 67, 67
38.0965937, -120.1425830, 43.900, 15:18:17.733, 15, 0.00, 0.34, 97, -2.400, -1.400, -34.700, 1679, 100, 100, 23, 23303, -17482, 5326, 5491, 11, 14, 1525990697.734, 56, 0, 1024, 1024, 1024, 1024, 0, 6, 3865, 3878, 3891, 3891, 3914, 3886, 0, 1, 20401, -89.900, 0.000, -34.100, 0.000, 0.000, -2.900, 0.0, , , , , , 98, , , 67, 67, 67
38.0965937, -120.1425829, 44.200, 15:18:17.833, 15, 0.00, 0.35, 97, -2.600, -1.200, -34.700, 1679, 100, 100, 23, 23303, -17482, 5326, 5491, 11, 14, 1525990697.834, 46, 0, 1024, 1024, 1024, 1024, 0, 6, 3865, 3878, 3891, 3891, 3914, 3886, 0, 1, 20501, -89.900, 0.000, -34.100, 0.000, 0.000, -2.900, 0.0, , , , , , 98, , , 67, 67, 67
38.0965938, -120.1425829, 44.500, 15:18:17.933, 15, 0.00, 0.35, 97, -2.700, -1.000, -34.700, 1679, 100, 100, 23, 23303, -17482, 5326, 5491, 11, 14, 1525990697.934, 65, 0, 1024, 1024, 1024, 1024, 0, 6, 3865, 3878, 3891, 3891, 3914, 3886, 0, 1, 20601, -89.900, 0.000, -34.100, 0.000, 0.000, -2.900, 0.0, , , , , , 98, , , 67, 67, 67
38.0965939, -120.1425829, 44.800, 15:18:18.034, 15, 0.00, 0.36, 97, -2.600, -0.900, -34.800, 1679, 100, 100, 23, 23303, -17482, 5326, 5491, 11, 14, 1525990698.034, 77, 0, 1024, 1024, 1024, 1024, 0, 6, 3865, 3878, 3891, 3891, 3914, 3886, 0, 1, 20701, -89.900, 0.000, -34.100, 0.000, 0.000, -2.900, 0.0, , , , , , 98, , , 67, 67, 67
