latitude,longitude,altitude(feet),ascent(feet),speed(mph),distance(feet),time(millisecond),datetime(utc),satellites,gpslevel,voltage(v),max_altitude(feet),max_ascent(feet),max_speed(mph),max_distance(feet), xSpeed(mph), ySpeed(mph), zSpeed(mph), compass_heading(degrees), pitch(degrees), roll(degrees),isPhoto,isVideo,rc_elevator,rc_aileron,rc_throttle,rc_rudder,gimbal_heading(degrees),gimbal_pitch(degrees),battery_percent,voltageCell1,voltageCell2,voltageCell3,voltageCell4,voltageCell5,voltageCell6,current(A),battery_temperature(f),flycStateRaw,flycState,message
38.0965924,-120.1425923,5090.2332724675,0,0,0,3010,2018-05-10 21:29:38,14,0,25.61,5090.2332724675,0,0,0,0,0,0,152.9, 0.6, 0.2,1,0,1024,1024,1024,1024,153.6,-89.9,98,4.291,4.215,4.274,4.278,4.294,4.274,2.902,69.8,11,AutoTakeoff,DJI_0827.jpg Starting Mission from Lat/Long: 38.09660/-120.14259 Camera: Zenmuse X3 - Overlap: 90/90 - Active Connection: No
38.0965924,-120.1425922,5090.2332724675,0,0.223694,0.028712599344,3100,2018-05-10 21:29:38,14,0,25.61,5090.2332724675,0,0.223694,0.028712599344,0,0,0,153, 0.5, 0.1,0,0,1024,1024,1024,1024,153.6,-89.9,98,4.291,4.215,4.274,4.278,4.294,4.274,2.902,69.8,11,AutoTakeoff,
38.0965925,-120.1425921,5090.5613564675,0.328084,0.223694,0.068035435248,3200,2018-05-10 21:29:38,14,0,25.61,5090.5613564675,0.328084,0.223694,0.068035435248,0,0,0,153.1, 0.3, 0,0,0,1024,1024,1024,1024,153.5,-90,98,4.291,4.215,4.274,4.278,4.294,4.274,2.902,69.8,11,AutoTakeoff,
38.0965926,-120.142592,5090.5613564675,0.328084,0.3131716,0.112890751644,3300,2018-05-10 21:29:38,13,0,25.61,5090.5613564675,0.328084,0.3131716,0.112890751644,0,0,0,153.3, 0, 0.3,0,0,1024,1024,1024,1024,153.5,-90,98,4.291,4.215,4.274,4.278,4.294,4.274,2.902,69.8,11,AutoTakeoff,
38.0965927,-120.1425918,5090.8894404675,0.656168,0.3131716,0.180528877168,3400,2018-05-10 21:29:39,13,0,25.61,5090.8894404675,0.656168,0.3131716,0.180528877168,0,0,0,153.3, -0.3, 0.6,0,0,1024,1024,1024,1024,153.5,-90,98,4.291,4.215,4.274,4.278,4.294,4.274,2.902,69.8,11,AutoTakeoff,
38.0965928,-120.1425916,5091.2175244675,0.984252,0.3131716,0.2483841943,3500,2018-05-10 21:29:39,14,0,25.61,5091.2175244675,0.984252,0.3131716,0.2483841943,0,0,0,153.2, -0.4, 1.3,0,0,1024,1024,1024,1024,153.5,-90,98,4.291,4.215,4.274,4.278,4.294,4.274,2.902,69.8,11,AutoTakeoff,
38.0965929,-120.1425914,5091.2175244675,0.984252,0.3131716,0.316316939256,3600,2018-05-10 21:29:39,14,0,25.61,5091.2175244675,0.984252,0.3131716,0.316316939256,0,0,0,153.3, -0.5, 1.8,0,0,1024,1024,1024,1024,153.5,-90,98,4.291,4.215,4.274,4.278,4.294,4.274,2.902,69.8,11,AutoTakeoff,
38.096593,-120.1425913,5091.5456084675,1.312336,0.223694,0.361056442,3700,2018-05-10 21:29:39,13,0,25.61,5091.5456084675,1.312336,0.3131716,0.361056442,0,0,0,153.3, -0.4, 2,0,0,1024,1024,1024,1024,153.5,-90,98,4.291,4.215,4.274,4.278,4.294,4.274,2.902,69.8,11,AutoTakeoff,
38.096593,-120.1425911,5091.5456084675,1.312336,0.223694,0.40821195532,3800,2018-05-10 21:29:39,13,0,25.61,5091.5456084675,1.312336,0.3131716,0.40821195532,0,0,0,153.2, -0.5, 1.9,0,0,1024,1024,1024,1024,153.5,-90,98,4.291,4.215,4.274,4.278,4.294,4.274,2.902,69.8,11,AutoTakeoff,
38.096593,-120.142591,5091.8736924675,1.64042,0.223694,0.43271983012,3900,2018-05-10 21:29:39,14,0,25.61,5091.8736924675,1.64042,0.3131716,0.43271983012,0,0,0,153.1, -0.4, 2,0,0,1024,1024,1024,1024,153.5,-90,98,4.291,4.215,4.274,4.278,4.294,4.274,2.902,69.8,11,AutoTakeoff,
38.096593,-120.1425908,5091.8736924675,1.64042,0.223694,0.48312993672,4000,2018-05-10 21:29:39,14,0,25.417,5091.8736924675,1.64042,0.3131716,0.48312993672,0,0,0,153.1, -0.2, 1.8,0,0,1024,1024,1024,1024,153.5,-89.9,98,4.239,4.214,4.235,4.235,4.205,4.22,3.025,69.8,11,AutoTakeoff,
38.0965929,-120.1425907,5092.2017764675,1.968504,0.223694,0.49429791608,4100,2018-05-10 21:29:39,15,0,25.417,5092.2017764675,1.968504,0.3131716,0.49429791608,0,0,0,153.2, 0.3, 1.8,0,0,1024,1024,1024,1024,153.5,-89.9,98,4.239,4.214,4.235,4.235,4.205,4.22,3.025,69.8,11,AutoTakeoff,
38.0965929,-120.1425906,5092.2017764675,1.968504,0.223694,0.52108925552,4200,2018-05-10 21:29:39,15,0,25.417,5092.2017764675,1.968504,0.3131716,0.52108925552,0,0,0,153.3, 0.6, 1.7,0,0,1024,1024,1024,1024,153.5,-89.9,98,4.239,4.214,4.235,4.235,4.205,4.22,3.025,69.8,11,AutoTakeoff,
38.0965928,-120.1425905,5092.5298604675,2.296588,0.223694,0.53703741876,4300,2018-05-10 21:29:39,15,0,25.417,5092.5298604675,2.296588,0.3131716,0.53703741876,0,0,0,153.4, 0.6, 1.8,0,0,1024,1024,1024,1024,153.5,-89.9,98,4.239,4.214,4.235,4.235,4.205,4.22,3.025,69.8,11,AutoTakeoff,
38.0965928,-120.1425904,5092.5298604675,2.296588,0.223694,0.56472442752,4400,2018-05-10 21:29:40,15,0,25.417,5092.5298604675,2.296588,0.3131716,0.56472442752,0,0,0,153.5, 0.7, 1.9,0,0,1024,1024,1024,1024,153.5,-89.9,98,4.239,4.214,4.235,4.235,4.205,4.22,3.025,69.8,11,AutoTakeoff,
38.0965928,-120.1425903,5092.5298604675,2.296588,0,0.59250658064,4500,2018-05-10 21:29:40,15,0,25.417,5092.5298604675,2.296588,0.3131716,0.59250658064,0,0,0,153.4, 0.6, 1.8,0,0,1024,1024,1024,1024,153.5,-89.9,98,4.239,4.214,4.235,4.235,4.205,4.22,3.025,69.8,11,AutoTakeoff,
38.0965928,-120.1425902,5092.8579444675,2.624672,0,0.6203740356,4610,2018-05-10 21:29:40,15,0,25.417,5092.8579444675,2.624672,0.3131716,0.6203740356,0,0,0,153.3, 0.7, 1.8,0,0,1024,1024,1024,1024,153.5,-89.9,98,4.239,4.214,4.235,4.235,4.205,4.22,3.025,69.8,11,AutoTakeoff,
38.0965927,-120.1425899,5093.1860284675,2.952756,0,0.69774280448,4700,2018-05-10 21:29:40,14,0,25.417,5093.1860284675,2.952756,0.3131716,0.69774280448,0,0,0,152.9, 0.9, 1.7,0,0,1024,1024,1024,1024,153.5,-89.9,98,4.239,4.214,4.235,4.235,4.205,4.22,3.025,69.8,6,P-GPS,
38.0965927,-120.1425898,5093.1860284675,2.952756,0,0.72611222796,4900,2018-05-10 21:29:40,15,0,25.417,5093.1860284675,2.952756,0.3131716,0.72611222796,0,0,0,152.6, 0.9, 1.6,0,0,1024,1024,1024,1024,153.5,-89.9,98,4.239,4.214,4.235,4.235,4.205,4.22,3.025,69.8,14,Waypoint,
38.0965926,-120.1425897,5093.1860284675,2.952756,0,0.75008532584,5000,2018-05-10 21:29:40,15,0,24.31,5093.1860284675,2.952756,0.3131716,0.75008532584,0,0,0,152.4, 0.9, 1.8,0,0,1024,1024,1024,1024,153.5,-89.9,98,4.044,4.014,4.035,4.034,4.05,4.055,14.287,69.8,14,Waypoint,
38.0965926,-120.1425895,5093.5141124675,3.28084,0,0.80725724368,5100,2018-05-10 21:29:40,15,0,24.31,5093.5141124675,3.28084,0.3131716,0.80725724368,0,0,0,152.3, 1, 1.8,0,0,1024,1024,1024,1024,153.5,-89.9,98,4.044,4.014,4.035,4.034,4.05,4.055,14.287,69.8,14,Waypoint,
38.0965925,-120.1425894,5093.5141124675,3.28084,0,0.8334645936,5200,2018-05-10 21:29:40,15,0,24.31,5093.5141124675,3.28084,0.3131716,0.8334645936,0,0,0,152.3, 1.3, 1.6,0,0,1024,1024,1024,1024,153.5,-89.9,98,4.044,4.014,4.035,4.034,4.05,4.055,14.287,69.8,14,Waypoint,
38.0965925,-120.1425893,5093.8421964675,3.608924,0,0.86215225856,5300,2018-05-10 21:29:40,15,0,24.31,5093.8421964675,3.608924,0.3131716,0.86215225856,0,0,0,152.4, 1.2, 1.4,0,0,1024,1024,1024,1024,153.5,-89.9,98,4.044,4.014,4.035,4.034,4.05,4.055,14.287,69.8,14,Waypoint,
38.0965924,-120.1425893,5093.8421964675,3.608924,0,0.86137798032,5400,2018-05-10 21:29:41,15,0,24.31,5093.8421964675,3.608924,0.3131716,0.86215225856,0,0,-0.223694,152.5, 1, 1.1,0,0,1024,1024,1024,1024,153.5,-89.9,98,4.044,4.014,4.035,4.034,4.05,4.055,14.287,69.8,14,Waypoint,
38.0965923,-120.1425893,5094.1702804675,3.937008,0,0.86215225856,5500,2018-05-10 21:29:41,14,0,24.31,5094.1702804675,3.937008,0.3131716,0.86215225856,0,0,-0.223694,152.6, 1, 0.8,0,0,1024,1024,1024,1024,153.5,-89.9,98,4.044,4.014,4.035,4.034,4.05,4.055,14.287,69.8,14,Waypoint,
38.0965922,-120.1425892,5094.4983644675,4.265092,0,0.8930774564,5600,2018-05-10 21:29:41,14,0,24.31,5094.4983644675,4.265092,0.3131716,0.8930774564,0,0,-0.223694,152.6, 1.1, 0.7,0,0,1024,1024,1024,1024,153.5,-89.9,98,4.044,4.014,4.035,4.034,4.05,4.055,14.287,69.8,14,Waypoint,
38.0965922,-120.1425891,5094.8264484675,4.593176,0,0.92169622372,5700,2018-05-10 21:29:41,15,0,24.31,5094.8264484675,4.593176,0.3131716,0.92169622372,0,0,-0.223694,152.5, 1.1, 0.6,0,0,1024,1024,1024,1024,153.4,-89.9,98,4.044,4.014,4.035,4.034,4.05,4.055,14.287,69.8,14,Waypoint,
38.0965921,-120.142589,5095.1545324675,4.92126,0,0.95381892816,5800,2018-05-10 21:29:41,15,0,24.31,5095.1545324675,4.92126,0.3131716,0.95381892816,0,0,-0.223694,152.4, 1.1, 0.7,0,0,1024,1024,1024,1024,153.4,-89.9,98,4.044,4.014,4.035,4.034,4.05,4.055,14.287,69.8,14,Waypoint,
38.0965921,-120.1425889,5095.4826164675,5.249344,0,0.98234583196,5900,2018-05-10 21:29:41,15,0,24.31,5095.4826164675,5.249344,0.3131716,0.98234583196,0,0,-0.223694,152.3, 1, 1,0,0,1024,1024,1024,1024,153.4,-89.9,98,4.044,4.014,4.035,4.034,4.05,4.055,14.287,69.8,14,Waypoint,
38.0965921,-120.1425888,5096.1387844675,5.905512,0,1.01088585912,6000,2018-05-10 21:29:41,15,0,23.991,5096.1387844675,5.905512,0.3131716,1.01088585912,0,0,-0.447388,152.2, 1.1, 1.1,0,0,1024,1024,1024,1024,153.4,-89.9,98,3.994,3.969,3.97,3.978,4.003,3.998,16.383,69.8,14,Waypoint,
38.0965921,-120.1425888,5096.4668684675,6.233596,0,1.01088585912,6100,2018-05-10 21:29:41,14,0,23.991,5096.4668684675,6.233596,0.3131716,1.01088585912,0,0,-0.447388,152.1, 1.4, 1.2,0,0,1024,1024,1024,1024,153.4,-89.9,98,3.994,3.969,3.97,3.978,4.003,3.998,16.383,69.8,14,Waypoint,
38.0965921,-120.1425886,5097.4511204675,7.217848,0,1.06798887932,6200,2018-05-10 21:29:41,14,0,23.991,5097.4511204675,7.217848,0.3131716,1.06798887932,0,0,-0.447388,152, 1.5, 1.2,0,0,1024,1024,1024,1024,153.4,-89.9,98,3.994,3.969,3.97,3.978,4.003,3.998,16.383,69.8,14,Waypoint,
38.0965921,-120.1425884,5098.1072884675,7.874016,0,1.12512798876,6300,2018-05-10 21:29:41,14,0,23.991,5098.1072884675,7.874016,0.3131716,1.12512798876,0,0,-0.447388,151.9, 1.3, 1.3,0,0,1024,1024,1024,1024,153.4,-89.9,98,3.994,3.969,3.97,3.978,4.003,3.998,16.383,69.8,14,Waypoint,
38.0965921,-120.1425884,5098.7634564675,8.530184,0,1.12512798876,6400,2018-05-10 21:29:42,14,0,23.991,5098.7634564675,8.530184,0.3131716,1.12512798876,0,0,-0.447388,151.9, 1.2, 1.5,0,0,1024,1024,1024,1024,153.4,-89.9,98,3.994,3.969,3.97,3.978,4.003,3.998,16.383,69.8,14,Waypoint,
38.0965921,-120.1425884,5099.7477084675,9.514436,0,1.12512798876,6500,2018-05-10 21:29:42,14,0,23.991,5099.7477084675,9.514436,0.3131716,1.12512798876,0,0,-0.671082,151.9, 1.1, 1.5,0,0,1024,1024,1024,1024,153.4,-89.9,98,3.994,3.969,3.97,3.978,4.003,3.998,16.383,69.8,14,Waypoint,
38.0965922,-120.1425883,5100.7319604675,10.498688,0,1.1508202468,6600,2018-05-10 21:29:42,14,0,23.991,5100.7319604675,10.498688,0.3131716,1.1508202468,0,0,-0.671082,151.9, 1.1, 1.3,0,0,1024,1024,1024,1024,153.4,-90,98,3.994,3.969,3.97,3.978,4.003,3.998,16.383,69.8,14,Waypoint,
38.0965922,-120.1425883,5101.7162124675,11.48294,0,1.1508202468,6700,2018-05-10 21:29:42,14,0,23.991,5101.7162124675,11.48294,0.3131716,1.1508202468,0,0,-0.671082,152, 0.9, 1.2,0,0,1024,1024,1024,1024,153.4,-90,98,3.994,3.969,3.97,3.978,4.003,3.998,16.383,69.8,14,Waypoint,
38.0965922,-120.1425883,5102.7004644675,12.467192,0,1.1508202468,6800,2018-05-10 21:29:42,14,0,23.991,5102.7004644675,12.467192,0.3131716,1.1508202468,0,0,-0.671082,152.1, 0.8, 1.1,0,0,1024,1024,1024,1024,153.4,-90,98,3.994,3.969,3.97,3.978,4.003,3.998,16.383,69.8,14,Waypoint,
38.0965922,-120.1425883,5103.6847164675,13.451444,0,1.1508202468,6910,2018-05-10 21:29:42,15,0,23.991,5103.6847164675,13.451444,0.3131716,1.1508202468,0,0,-0.671082,152.2, 0.8, 1.1,0,0,1024,1024,1024,1024,153.4,-90,98,3.994,3.969,3.97,3.978,4.003,3.998,16.383,69.8,14,Waypoint,
38.0965922,-120.1425883,5104.9970524675,14.76378,0,1.1508202468,7000,2018-05-10 21:29:42,15,0,23.753,5104.9970524675,14.76378,0.3131716,1.1508202468,0,0,-0.671082,152.2, 0.9, 1,0,0,1024,1024,1024,1024,153.4,-89.9,98,3.938,3.925,3.913,3.938,3.961,3.935,17.797,69.8,14,Waypoint,
38.0965922,-120.1425881,5106.9655564675,16.732284,0,1.2081365216,7100,2018-05-10 21:29:42,16,0,23.753,5106.9655564675,16.732284,0.3131716,1.2081365216,0,0,-0.671082,152.3, 1.1, 1,0,0,1024,1024,1024,1024,153.4,-89.9,98,3.938,3.925,3.913,3.938,3.961,3.935,17.797,69.8,14,Waypoint,
38.0965922,-120.142588,5108.2778924675,18.04462,0,1.23679793984,7200,2018-05-10 21:29:42,16,0,23.753,5108.2778924675,18.04462,0.3131716,1.23679793984,0,0,-0.671082,152.4, 1.1, 1.1,0,0,1024,1024,1024,1024,153.4,-89.9,98,3.938,3.925,3.913,3.938,3.961,3.935,17.797,69.8,14,Waypoint,
38.0965918,-120.1425881,5110.2463964675,20.013124,0,1.22563652216,7410,2018-05-10 21:29:43,16,0,23.753,5110.2463964675,20.013124,0.3131716,1.23679793984,0,0,-0.671082,152.4, 2, 1.1,0,0,1024,1024,1024,1024,153.4,-89.9,98,3.938,3.925,3.913,3.938,3.961,3.935,17.797,69.8,14,Waypoint,
38.0965917,-120.1425882,5111.2306484675,20.997376,0,1.20460305692,7600,2018-05-10 21:29:43,16,0,23.753,5111.2306484675,20.997376,0.3131716,1.23679793984,0,0,-0.671082,152.4, 2.4, 0.8,0,0,1024,1024,1024,1024,153.4,-89.9,98,3.938,3.925,3.913,3.938,3.961,3.935,17.797,69.8,14,Waypoint,
38.0965917,-120.1425883,5112.5429844675,22.309712,0,1.1765584366,7700,2018-05-10 21:29:43,16,0,23.753,5112.5429844675,22.309712,0.3131716,1.23679793984,0,0,-0.671082,152.5, 2.3, 0,0,0,1024,1024,1024,1024,153.4,-89.9,98,3.938,3.925,3.913,3.938,3.961,3.935,17.797,69.8,14,Waypoint,
38.0965915,-120.1425885,5113.5272364675,23.293964,0,1.1394193278,7800,2018-05-10 21:29:43,16,0,23.753,5113.5272364675,23.293964,0.3131716,1.23679793984,0,0,-0.671082,152.5, 2, -0.6,0,0,1024,1024,1024,1024,153.4,-89.9,98,3.938,3.925,3.913,3.938,3.961,3.935,17.797,69.8,14,Waypoint,
38.0965913,-120.1425886,5114.5114884675,24.278216,0,1.1356463618,7900,2018-05-10 21:29:43,16,0,23.753,5114.5114884675,24.278216,0.3131716,1.23679793984,0,0,-0.671082,152.5, 2, -0.9,0,0,1024,1024,1024,1024,153.4,-89.9,98,3.938,3.925,3.913,3.938,3.961,3.935,17.797,69.8,14,Waypoint,
38.0965913,-120.1425884,5115.8238244675,25.590552,0,1.18954072048,8000,2018-05-10 21:29:43,16,0,23.196,5115.8238244675,25.590552,0.3131716,1.23679793984,0,0,-0.671082,152.6, 2, -1,0,0,1024,1024,1024,1024,153.4,-89.9,98,3.881,3.862,3.823,3.852,3.872,3.871,24.799,69.8,14,Waypoint,
38.0965914,-120.1425882,5116.8080764675,26.574804,0,1.23246066936,8100,2018-05-10 21:29:43,16,0,23.196,5116.8080764675,26.574804,0.3131716,1.23679793984,0,0,-0.671082,152.6, 1.9, -0.2,0,0,1024,1024,1024,1024,153.4,-89.9,98,3.881,3.862,3.823,3.852,3.872,3.871,24.799,69.8,14,Waypoint,
38.0965913,-120.1425883,5117.7923284675,27.559056,0,1.21660765048,8200,2018-05-10 21:29:43,16,0,23.196,5117.7923284675,27.559056,0.3131716,1.23679793984,0,0,-0.671082,152.7, 1.7, 0.9,0,0,1024,1024,1024,1024,153.4,-89.9,98,3.881,3.862,3.823,3.852,3.872,3.871,24.799,69.8,14,Waypoint,
38.0965912,-120.1425883,5119.1046644675,28.871392,0,1.22912405508,8300,2018-05-10 21:29:43,16,0,23.196,5119.1046644675,28.871392,0.3131716,1.23679793984,0,0,-0.671082,152.7, 1.8, 1.3,0,0,1024,1024,1024,1024,153.4,-89.9,98,3.881,3.862,3.823,3.852,3.872,3.871,24.799,69.8,14,Waypoint,
38.0965912,-120.1425884,5120.0889164675,29.855644,0,1.20233927732,8400,2018-05-10 21:29:44,16,0,23.196,5120.0889164675,29.855644,0.3131716,1.23679793984,0,0,-0.671082,152.8, 2, 1.3,0,0,1024,1024,1024,1024,153.4,-89.9,98,3.881,3.862,3.823,3.852,3.872,3.871,24.799,69.8,14,Waypoint,
38.0965912,-120.1425884,5121.0731684675,30.839896,0,1.20233927732,8500,2018-05-10 21:29:44,16,0,23.196,5121.0731684675,30.839896,0.3131716,1.23679793984,0,0,-0.671082,152.8, 1.9, 1.4,0,0,1024,1024,1024,1024,153.4,-89.9,98,3.881,3.862,3.823,3.852,3.872,3.871,24.799,69.8,14,Waypoint,
38.0965911,-120.1425886,5122.3855044675,32.152232,0,1.16343835744,8600,2018-05-10 21:29:44,16,0,23.196,5122.3855044675,32.152232,0.3131716,1.23679793984,0,0,-0.671082,152.7, 1.8, 1.1,0,0,1024,1024,1024,1024,153.4,-89.9,98,3.881,3.862,3.823,3.852,3.872,3.871,24.799,69.8,14,Waypoint,
38.0965909,-120.1425887,5123.3697564675,33.136484,0,1.16959321328,8700,2018-05-10 21:29:44,16,0,23.196,5123.3697564675,33.136484,0.3131716,1.23679793984,0,0,-0.671082,152.6, 1.8, 0.7,0,0,1024,1024,1024,1024,153.4,-89.9,98,3.881,3.862,3.823,3.852,3.872,3.871,24.799,69.8,14,Waypoint,
38.0965909,-120.1425889,5124.3540084675,34.120736,0,1.11916670248,8800,2018-05-10 21:29:44,16,0,23.196,5124.3540084675,34.120736,0.3131716,1.23679793984,0,0,-0.671082,152.4, 1.9, 0.5,0,0,1024,1024,1024,1024,153.4,-89.9,98,3.881,3.862,3.823,3.852,3.872,3.871,24.799,69.8,14,Waypoint,
38.0965909,-120.142589,5125.3382604675,35.104988,0,1.0942093526,8900,2018-05-10 21:29:44,16,0,23.196,5125.3382604675,35.104988,0.3131716,1.23679793984,0,0,-0.671082,152.3, 1.8, 0.3,0,0,1024,1024,1024,1024,153.4,-89.9,98,3.881,3.862,3.823,3.852,3.872,3.871,24.799,69.8,14,Waypoint,
38.0965909,-120.1425892,5126.6505964675,36.417324,0,1.04487864236,9010,2018-05-10 21:29:44,16,0,23.395,5126.6505964675,36.417324,0.3131716,1.23679793984,0,0,-0.671082,152.2, 1.6, 0.2,0,0,1024,1024,1024,1024,153.4,-90,98,3.913,3.882,3.884,3.887,3.923,3.906,19.941,69.8,14,Waypoint,
38.0965909,-120.1425893,5127.6348484675,37.401576,0,1.02053152872,9110,2018-05-10 21:29:44,16,0,23.395,5127.6348484675,37.401576,0.3131716,1.23679793984,0,0,-0.671082,152.2, 1.4, 0.2,0,0,1024,1024,1024,1024,153.4,-89.9,98,3.913,3.882,3.884,3.887,3.923,3.906,19.941,69.8,14,Waypoint,
38.0965909,-120.1425894,5128.6191004675,38.385828,0,0.99641407388,9210,2018-05-10 21:29:44,16,0,23.395,5128.6191004675,38.385828,0.3131716,1.23679793984,0,0,-0.671082,152.3, 1.2, 0.4,0,0,1024,1024,1024,1024,153.4,-89.9,98,3.913,3.882,3.884,3.887,3.923,3.906,19.941,69.8,14,Waypoint,
38.0965909,-120.1425894,5129.6033524675,39.37008,0,0.99641407388,9300,2018-05-10 21:29:44,16,0,23.395,5129.6033524675,39.37008,0.3131716,1.23679793984,0,0,-0.671082,152.3, 1.2, 0.6,0,0,1024,1024,1024,1024,153.4,-89.9,98,3.913,3.882,3.884,3.887,3.923,3.906,19.941,69.8,14,Waypoint,
38.0965909,-120.1425894,5130.5876044675,40.354332,0.223694,0.99641407388,9400,2018-05-10 21:29:45,16,0,23.395,5130.5876044675,40.354332,0.3131716,1.23679793984,0,0,-0.671082,152.4, 1.3, 0.8,0,0,1024,1024,1024,1024,153.4,-89.9,98,3.913,3.882,3.884,3.887,3.923,3.906,19.941,69.8,14,Waypoint,
38.0965909,-120.1425894,5131.5718564675,41.338584,0.223694,0.99641407388,9500,2018-05-10 21:29:45,16,0,23.395,5131.5718564675,41.338584,0.3131716,1.23679793984,0,0,-0.671082,152.5, 1.3, 0.9,0,0,1024,1024,1024,1024,153.4,-89.9,98,3.913,3.882,3.884,3.887,3.923,3.906,19.941,69.8,14,Waypoint,
38.0965911,-120.1425895,5133.8684444675,43.635172,0.223694,0.93343835008,9600,2018-05-10 21:29:45,16,0,23.395,5133.8684444675,43.635172,0.3131716,1.23679793984,0,0,-0.671082,152.5, 1.2, 1.1,0,0,1024,1024,1024,1024,153.4,-90,98,3.913,3.882,3.884,3.887,3.923,3.906,19.941,69.8,14,Waypoint,
38.0965912,-120.1425892,5134.8526964675,44.619424,0.223694,0.99194228896,9710,2018-05-10 21:29:45,16,0,23.395,5134.8526964675,44.619424,0.3131716,1.23679793984,0,0,-0.671082,152.5, 1.1, 1.3,0,0,1024,1024,1024,1024,153.4,-90,98,3.913,3.882,3.884,3.887,3.923,3.906,19.941,69.8,14,Waypoint,
38.0965913,-120.1425889,5135.8369484675,45.603676,0.223694,1.05550528312,9820,2018-05-10 21:29:45,16,0,23.395,5135.8369484675,45.603676,0.3131716,1.23679793984,0,0,-0.671082,152.6, 1, 2.1,0,0,1024,1024,1024,1024,153.4,-90,98,3.913,3.882,3.884,3.887,3.923,3.906,19.941,69.8,14,Waypoint,
38.0965915,-120.1425886,5136.8212004675,46.587928,0.3131716,1.11195541616,9910,2018-05-10 21:29:45,16,0,23.395,5136.8212004675,46.587928,0.3131716,1.23679793984,0,0,-0.671082,152.7, 1, 3,0,0,1024,1024,1024,1024,153.4,-90,98,3.913,3.882,3.884,3.887,3.923,3.906,19.941,69.8,14,Waypoint,
38.0965917,-120.1425883,5137.8054524675,47.57218,0.3131716,1.1765584366,10100,2018-05-10 21:29:45,16,0,23.395,5137.8054524675,47.57218,0.3131716,1.23679793984,0,0,-0.671082,152.9, 1.1, 3.8,0,0,1024,1024,1024,1024,153.4,-89.9,98,3.913,3.882,3.884,3.887,3.923,3.906,19.941,69.8,14,Waypoint,
38.0965918,-120.1425882,5138.7897044675,48.556432,0.223694,1.19739833228,10200,2018-05-10 21:29:45,16,0,23.395,5138.7897044675,48.556432,0.3131716,1.23679793984,0,0,-0.671082,153, 1.1, 4,0,0,1024,1024,1024,1024,153.4,-90,98,3.913,3.882,3.884,3.887,3.923,3.906,19.941,69.8,14,Waypoint,
38.0965919,-120.1425881,5139.7739564675,49.540684,0.223694,1.21964898916,10300,2018-05-10 21:29:45,16,0,23.395,5139.7739564675,49.540684,0.3131716,1.23679793984,0,0,-0.671082,153, 1.1, 4,0,0,1024,1024,1024,1024,153.4,-90,98,3.913,3.882,3.884,3.887,3.923,3.906,19.941,69.8,14,Waypoint,
38.096592,-120.1425882,5140.7582084675,50.524936,0,1.18623035292,10400,2018-05-10 21:29:46,16,0,23.395,5140.7582084675,50.524936,0.3131716,1.23679793984,0,0,-0.671082,153, 1, 3.7,0,0,1024,1024,1024,1024,153.4,-90,98,3.913,3.882,3.884,3.887,3.923,3.906,19.941,69.8,14,Waypoint,
38.096592,-120.1425884,5142.7267124675,52.49344,0,1.12926184716,10600,2018-05-10 21:29:46,16,0,23.395,5142.7267124675,52.49344,0.3131716,1.23679793984,0,0,-0.671082,152.8, 1.1, 2.3,0,0,1024,1024,1024,1024,153.4,-89.9,98,3.913,3.882,3.884,3.887,3.923,3.906,19.941,69.8,14,Waypoint,
38.096592,-120.1425884,5143.7109644675,53.477692,0,1.12926184716,10700,2018-05-10 21:29:46,16,0,23.395,5143.7109644675,53.477692,0.3131716,1.23679793984,0,0,-0.671082,152.6, 1.2, 2.1,0,0,1024,1024,1024,1024,153.4,-90,98,3.913,3.882,3.884,3.887,3.923,3.906,19.941,69.8,14,Waypoint,
38.096592,-120.1425884,5144.6952164675,54.461944,0,1.12926184716,10800,2018-05-10 21:29:46,16,0,23.395,5144.6952164675,54.461944,0.3131716,1.23679793984,0,0,-0.671082,152.5, 1.2, 2.3,0,0,1024,1024,1024,1024,153.4,-90,98,3.913,3.882,3.884,3.887,3.923,3.906,19.941,69.8,14,Waypoint,
38.0965921,-120.1425884,5146.0075524675,55.77428,0.223694,1.12512798876,10900,2018-05-10 21:29:46,16,0,23.395,5146.0075524675,55.77428,0.3131716,1.23679793984,0,0,-0.671082,152.5, 1.3, 2.8,0,0,1024,1024,1024,1024,153.4,-90,98,3.913,3.882,3.884,3.887,3.923,3.906,19.941,69.8,14,Waypoint,
38.0965921,-120.1425883,5146.9918044675,56.758532,0.223694,1.153707386,11000,2018-05-10 21:29:46,16,0,23.628,5146.9918044675,56.758532,0.3131716,1.23679793984,0,0,-0.671082,152.5, 1.2, 3.6,0,0,1024,1024,1024,1024,153.4,-90,97,3.921,3.907,3.908,3.911,3.953,3.917,17.013,69.8,14,Waypoint,
38.0965922,-120.1425882,5148.3041404675,58.070868,0.223694,1.17947510336,11100,2018-05-10 21:29:46,16,0,23.628,5148.3041404675,58.070868,0.3131716,1.23679793984,0,0,-0.671082,152.6, 1.3, 4,0,0,1024,1024,1024,1024,153.4,-89.9,97,3.921,3.907,3.908,3.911,3.953,3.917,17.013,69.8,14,Waypoint,
38.0965922,-120.1425881,5149.2883924675,59.05512,0.223694,1.2081365216,11200,2018-05-10 21:29:46,16,0,23.628,5149.2883924675,59.05512,0.3131716,1.23679793984,0,0,-0.671082,152.5, 1.4, 4.3,0,0,1024,1024,1024,1024,153.4,-89.9,97,3.921,3.907,3.908,3.911,3.953,3.917,17.013,69.8,14,Waypoint,
38.0965923,-120.142588,5150.6007284675,60.367456,0.3131716,1.23518048572,11300,2018-05-10 21:29:46,17,0,23.628,5150.6007284675,60.367456,0.3131716,1.23679793984,0,0,-0.671082,152.4, 1.2, 4.8,0,0,1024,1024,1024,1024,153.4,-90,97,3.921,3.907,3.908,3.911,3.953,3.917,17.013,69.8,14,Waypoint,
38.0965924,-120.1425879,5151.5849804675,61.351708,0.3131716,1.26335633964,11400,2018-05-10 21:29:47,17,0,23.628,5151.5849804675,61.351708,0.3131716,1.26335633964,0,0,-0.671082,152.2, 1.1, 5.5,0,0,1024,1024,1024,1024,153.4,-90,97,3.921,3.907,3.908,3.911,3.953,3.917,17.013,69.8,14,Waypoint,
38.0965925,-120.1425877,5152.8973164675,62.664044,0.3131716,1.32128285068,11500,2018-05-10 21:29:47,17,0,23.628,5152.8973164675,62.664044,0.3131716,1.32128285068,0,0,-0.671082,152.1, 0.8, 5.9,0,0,1024,1024,1024,1024,153.4,-90,97,3.921,3.907,3.908,3.911,3.953,3.917,17.013,69.8,14,Waypoint,
38.0965926,-120.1425876,5153.8815684675,63.648296,0.3131716,1.35146329784,11600,2018-05-10 21:29:47,17,0,23.628,5153.8815684675,63.648296,0.3131716,1.35146329784,0,0,-0.671082,152.1, 0.9, 6.2,0,0,1024,1024,1024,1024,153.4,-90,97,3.921,3.907,3.908,3.911,3.953,3.917,17.013,69.8,14,Waypoint,
38.0965927,-120.1425874,5154.8658204675,64.632548,0.3131716,1.41116802416,11700,2018-05-10 21:29:47,17,0,23.628,5154.8658204675,64.632548,0.3131716,1.41116802416,0,0,-0.671082,152.1, 0.8, 6.5,0,0,1024,1024,1024,1024,153.4,-90,97,3.921,3.907,3.908,3.911,3.953,3.917,17.013,69.8,14,Waypoint,
38.0965928,-120.1425873,5155.8500724675,65.6168,0.3131716,1.4430282614,11800,2018-05-10 21:29:47,17,0,23.628,5155.8500724675,65.6168,0.3131716,1.4430282614,0,0,-0.671082,152.1, 0.7, 6.8,0,0,1024,1024,1024,1024,153.4,-90,97,3.921,3.907,3.908,3.911,3.953,3.917,17.013,69.8,14,Waypoint,
38.0965929,-120.1425872,5156.5062404675,66.272968,0.223694,1.47566277688,11900,2018-05-10 21:29:47,17,0,23.628,5156.5062404675,66.272968,0.3131716,1.47566277688,0,0,-0.447388,152.2, 0.8, 6.6,0,0,1024,1024,1024,1024,153.4,-89.9,97,3.921,3.907,3.908,3.911,3.953,3.917,17.013,69.8,14,Waypoint,
38.0965929,-120.1425871,5157.4904924675,67.25722,0.223694,1.50416015312,12100,2018-05-10 21:29:47,17,0,23.628,5157.4904924675,67.25722,0.3131716,1.50416015312,0,0,-0.671082,152.3, 0.9, 6.4,0,0,1024,1024,1024,1024,153.4,-89.9,97,3.921,3.907,3.908,3.911,3.953,3.917,17.013,69.8,14,Waypoint,
38.096593,-120.142587,5158.1466604675,67.913388,0,1.5374344324,12200,2018-05-10 21:29:47,17,0,23.628,5158.1466604675,67.913388,0.3131716,1.5374344324,0,0,-0.447388,152.4, 1.1, 6.2,0,0,1024,1024,1024,1024,153.4,-89.9,97,3.921,3.907,3.908,3.911,3.953,3.917,17.013,69.8,14,Waypoint,
38.0965931,-120.142587,5159.7870804675,69.553808,0,1.54305123048,12300,2018-05-10 21:29:47,17,0,23.628,5159.7870804675,69.553808,0.3131716,1.54305123048,0,0,-0.671082,152.6, 1.2, 5.8,0,0,1024,1024,1024,1024,153.4,-89.9,97,3.921,3.907,3.908,3.911,3.953,3.917,17.013,69.8,14,Waypoint,
38.0965931,-120.142587,5160.4432484675,70.209976,0,1.54305123048,12400,2018-05-10 21:29:48,17,0,23.628,5160.4432484675,70.209976,0.3131716,1.54305123048,0,0,-0.671082,152.6, 1.1, 5.4,0,0,1024,1024,1024,1024,153.4,-90,97,3.921,3.907,3.908,3.911,3.953,3.917,17.013,69.8,14,Waypoint,
38.0965931,-120.1425869,5161.4275004675,71.194228,0,1.5713747222,12500,2018-05-10 21:29:48,17,0,23.628,5161.4275004675,71.194228,0.3131716,1.5713747222,0,0,-0.671082,152.6, 1, 5.3,0,0,1024,1024,1024,1024,153.4,-90,97,3.921,3.907,3.908,3.911,3.953,3.917,17.013,69.8,14,Waypoint,
38.0965932,-120.1425868,5162.7398364675,72.506564,0,1.60594165244,12700,2018-05-10 21:29:48,17,0,23.628,5162.7398364675,72.506564,0.3131716,1.60594165244,0,0,-0.671082,152.9, 1.4, 5.3,0,0,1024,1024,1024,1024,153.4,-89.9,97,3.921,3.907,3.908,3.911,3.953,3.917,17.013,69.8,14,Waypoint,
38.0965932,-120.1425867,5163.7240884675,73.490816,0,1.63418312316,12800,2018-05-10 21:29:48,17,0,23.628,5163.7240884675,73.490816,0.3131716,1.63418312316,0,0,-0.671082,153.2, 1.7, 5.6,0,0,1024,1024,1024,1024,153.4,-89.9,97,3.921,3.907,3.908,3.911,3.953,3.917,17.013,69.8,14,Waypoint,
38.0965932,-120.1425866,5164.7083404675,74.475068,0,1.66244427892,12900,2018-05-10 21:29:48,17,0,23.628,5164.7083404675,74.475068,0.3131716,1.66244427892,0,0,-0.671082,153.3, 1.9, 5.8,0,0,1024,1024,1024,1024,153.4,-89.9,97,3.921,3.907,3.908,3.911,3.953,3.917,17.013,69.8,14,Waypoint,
38.0965933,-120.1425864,5165.3645084675,75.131236,0,1.7255742022,13000,2018-05-10 21:29:48,17,0,23.634,5165.3645084675,75.131236,0.3131716,1.7255742022,0,0,-0.671082,153.3, 2, 6.2,0,0,1024,1024,1024,1024,153.3,-89.9,97,3.957,3.921,3.935,3.936,3.963,3.958,16.813,69.8,14,Waypoint,
38.0965933,-120.1425863,5166.3487604675,76.115488,0,1.753773022,13100,2018-05-10 21:29:48,17,0,23.634,5166.3487604675,76.115488,0.3131716,1.753773022,0,0,-0.671082,153, 2, 6.5,0,0,1024,1024,1024,1024,153.4,-89.9,97,3.957,3.921,3.935,3.936,3.963,3.958,16.813,69.8,14,Waypoint,
38.0965933,-120.1425862,5167.3330124675,77.09974,0,1.78198496516,13200,2018-05-10 21:29:48,17,0,23.634,5167.3330124675,77.09974,0.3131716,1.78198496516,0,0,-0.671082,152.7, 2.2, 6.9,0,0,1024,1024,1024,1024,153.3,-89.9,97,3.957,3.921,3.935,3.936,3.963,3.958,16.813,69.8,14,Waypoint,
38.0965934,-120.142586,5167.9891804675,77.755908,0.223694,1.84532158136,13300,2018-05-10 21:29:48,17,0,23.634,5167.9891804675,77.755908,0.3131716,1.84532158136,0,0,-0.671082,152.3, 2.1, 6.8,0,0,1024,1024,1024,1024,153.3,-89.9,97,3.957,3.921,3.935,3.936,3.963,3.958,16.813,69.8,14,Waypoint,
38.0965934,-120.1425858,5168.9734324675,78.74016,0.223694,1.90164704248,13400,2018-05-10 21:29:49,17,0,23.634,5168.9734324675,78.74016,0.3131716,1.90164704248,0,0,-0.671082,152, 2, 7.1,0,0,1024,1024,1024,1024,153.3,-89.9,97,3.957,3.921,3.935,3.936,3.963,3.958,16.813,69.8,14,Waypoint,
38.0965934,-120.1425857,5169.9576844675,79.724412,0.223694,1.92983601976,13500,2018-05-10 21:29:49,17,0,23.634,5169.9576844675,79.724412,0.3131716,1.92983601976,0,0,-0.671082,152, 2, 7.6,0,0,1024,1024,1024,1024,153.3,-89.9,97,3.957,3.921,3.935,3.936,3.963,3.958,16.813,69.8,14,Waypoint,
38.0965934,-120.1425856,5170.6138524675,80.38058,0,1.9580381204,13600,2018-05-10 21:29:49,17,0,23.634,5170.6138524675,80.38058,0.3131716,1.9580381204,0,0,-0.671082,152, 2, 7.6,0,0,1024,1024,1024,1024,153.3,-89.9,97,3.957,3.921,3.935,3.936,3.963,3.958,16.813,69.8,14,Waypoint,
38.0965933,-120.1425855,5171.5981044675,81.364832,0,1.97987867228,13700,2018-05-10 21:29:49,17,0,23.634,5171.5981044675,81.364832,0.3131716,1.97987867228,0,0,-0.671082,152.1, 2.2, 7.6,0,0,1024,1024,1024,1024,153.3,-89.9,97,3.957,3.921,3.935,3.936,3.963,3.958,16.813,69.8,14,Waypoint,
38.0965933,-120.1425854,5172.2542724675,82.021,0,2.00819888316,13800,2018-05-10 21:29:49,17,0,23.634,5172.2542724675,82.021,0.3131716,2.00819888316,0,0,-0.671082,152.3, 2.4, 7.4,0,0,1024,1024,1024,1024,153.3,-89.9,97,3.957,3.921,3.935,3.936,3.963,3.958,16.813,69.8,14,Waypoint,
38.096593,-120.1425853,5173.8946924675,83.66142,0.223694,2.0217684374,14000,2018-05-10 21:29:49,17,0,23.672,5173.8946924675,83.66142,0.3131716,2.0217684374,0,0,-0.671082,152.8, 3.8, 6.2,0,0,1024,1024,1024,1024,153.3,-89.9,97,3.953,3.915,3.926,3.958,3.96,3.919,14.525,69.8,14,Waypoint,
38.0965929,-120.1425853,5174.8789444675,84.645672,0.223694,2.01814639004,14100,2018-05-10 21:29:49,17,0,23.672,5174.8789444675,84.645672,0.3131716,2.0217684374,0,0,-0.671082,153, 4.2, 6,0,0,1024,1024,1024,1024,153.2,-89.9,97,3.953,3.915,3.926,3.958,3.96,3.919,14.525,69.8,14,Waypoint,
38.0965927,-120.1425853,5175.8631964675,85.629924,0.223694,2.0128609568,14200,2018-05-10 21:29:49,17,0,23.672,5175.8631964675,85.629924,0.3131716,2.0217684374,0,0,-0.671082,153.1, 4.6, 6.5,0,0,1024,1024,1024,1024,153.2,-89.9,97,3.953,3.915,3.926,3.958,3.96,3.919,14.525,69.8,14,Waypoint,
38.0965926,-120.1425853,5176.5193644675,86.286092,0,2.01120741344,14310,2018-05-10 21:29:49,17,0,23.672,5176.5193644675,86.286092,0.3131716,2.0217684374,0,0,-0.671082,153.2, 4.8, 7,0,0,1024,1024,1024,1024,153.2,-89.9,97,3.953,3.915,3.926,3.958,3.96,3.919,14.525,69.8,14,Waypoint,
38.0965924,-120.1425851,5178.4878684675,88.254596,0,2.06730977744,14400,2018-05-10 21:29:50,17,0,23.672,5178.4878684675,88.254596,0.3131716,2.06730977744,0,0,-0.671082,153.3, 5.4, 7,0,0,1024,1024,1024,1024,153.2,-89.9,97,3.953,3.915,3.926,3.958,3.96,3.919,14.525,69.8,14,Waypoint,
38.0965923,-120.142585,5179.4721204675,89.238848,0,2.09633864976,14500,2018-05-10 21:29:50,17,0,23.672,5179.4721204675,89.238848,0.3131716,2.09633864976,0,0,-0.671082,153.2, 5.1, 7.1,0,0,1024,1024,1024,1024,153.2,-89.9,97,3.953,3.915,3.926,3.958,3.96,3.919,14.525,69.8,14,Waypoint,
38.0965923,-120.142585,5180.7844564675,90.551184,0,2.09633864976,14700,2018-05-10 21:29:50,17,0,23.672,5180.7844564675,90.551184,0.3131716,2.09633864976,0,0,-0.671082,153.1, 4.6, 7.4,0,0,1024,1024,1024,1024,153.2,-90,97,3.953,3.915,3.926,3.958,3.96,3.919,14.525,69.8,14,Waypoint,
38.0965922,-120.1425849,5182.7529604675,92.519688,0,2.12598760084,14800,2018-05-10 21:29:50,17,0,23.672,5182.7529604675,92.519688,0.3131716,2.12598760084,0,0,-0.671082,153, 4.1, 7.3,0,0,1024,1024,1024,1024,153.2,-90,97,3.953,3.915,3.926,3.958,3.96,3.919,14.525,69.8,14,Waypoint,
38.0965921,-120.1425849,5183.7372124675,93.50394,0,2.12755256152,15000,2018-05-10 21:29:50,17,0,23.486,5183.7372124675,93.50394,0.3131716,2.12755256152,0,0,-0.671082,152.9, 4.1, 6.8,0,0,1024,1024,1024,1024,153.2,-90,97,3.931,3.904,3.891,3.904,3.951,3.928,18.266,69.8,14,Waypoint,
38.0965921,-120.142585,5184.7214644675,94.488192,0,2.09887801992,15100,2018-05-10 21:29:50,17,0,23.486,5184.7214644675,94.488192,0.3131716,2.12755256152,0,0,-0.671082,152.8, 4, 6.2,0,0,1024,1024,1024,1024,153.2,-90,97,3.931,3.904,3.891,3.904,3.951,3.928,18.266,69.8,14,Waypoint,
38.0965921,-120.1425851,5185.3776324675,95.14436,0,2.07020347832,15200,2018-05-10 21:29:50,17,0,23.486,5185.3776324675,95.14436,0.3131716,2.12755256152,0,0,-0.671082,152.8, 3.9, 5.9,0,0,1024,1024,1024,1024,153.2,-90,97,3.931,3.904,3.891,3.904,3.951,3.928,18.266,69.8,14,Waypoint,
38.096592,-120.1425852,5186.3618844675,96.128612,0.223694,2.04381240136,15300,2018-05-10 21:29:50,17,0,23.486,5186.3618844675,96.128612,0.3131716,2.12755256152,0,0,-0.671082,152.7, 3.7, 5.3,0,0,1024,1024,1024,1024,153.2,-90,97,3.931,3.904,3.891,3.904,3.951,3.928,18.266,69.8,14,Waypoint,
38.0965919,-120.1425853,5187.3461364675,97.112864,0.223694,2.01814639004,15400,2018-05-10 21:29:51,17,0,23.486,5187.3461364675,97.112864,0.3131716,2.12755256152,0,0,-0.671082,152.6, 3.5, 4.8,0,0,1024,1024,1024,1024,153.2,-90,97,3.931,3.904,3.891,3.904,3.951,3.928,18.266,69.8,14,Waypoint,
38.0965919,-120.1425855,5188.6584724675,98.4252,0.223694,1.96096134884,15500,2018-05-10 21:29:51,17,0,23.486,5188.6584724675,98.4252,0.3131716,2.12755256152,0,0,-0.671082,152.6, 3.5, 4.8,0,0,1024,1024,1024,1024,153.2,-90,97,3.931,3.904,3.891,3.904,3.951,3.928,18.266,69.8,14,Waypoint,
38.0965918,-120.1425856,5189.6427244675,99.409452,0.223694,1.93616147928,15600,2018-05-10 21:29:51,17,0,23.486,5189.6427244675,99.409452,0.3131716,2.12755256152,0,0,-0.671082,152.5, 3.7, 4.9,0,0,1024,1024,1024,1024,153.2,-89.9,97,3.931,3.904,3.891,3.904,3.951,3.928,18.266,69.8,14,Waypoint,
38.0965918,-120.1425858,5190.6269764675,100.393704,0.223694,1.87911423336,15700,2018-05-10 21:29:51,17,0,23.486,5190.6269764675,100.393704,0.3131716,2.12755256152,0,0,-0.671082,152.6, 3.4, 4.4,0,0,1024,1024,1024,1024,153.2,-90,97,3.931,3.904,3.891,3.904,3.951,3.928,18.266,69.8,14,Waypoint,
38.0965916,-120.1425861,5192.9235644675,102.690292,0.223694,1.8039534698,15900,2018-05-10 21:29:51,17,0,23.486,5192.9235644675,102.690292,0.3131716,2.12755256152,0,0,-0.671082,152.7, 3.9, 4.3,0,0,1024,1024,1024,1024,153.2,-90,97,3.931,3.904,3.891,3.904,3.951,3.928,18.266,69.8,14,Waypoint,
38.0965916,-120.1425862,5194.2359004675,104.002628,0,1.7756234164,16000,2018-05-10 21:29:51,17,0,23.418,5194.2359004675,104.002628,0.3131716,2.12755256152,0,0,-0.671082,152.7, 4, 4.2,0,0,1024,1024,1024,1024,153.2,-89.9,97,3.902,3.875,3.884,3.901,3.934,3.899,18.335,71.6,14,Waypoint,
38.0965916,-120.1425864,5195.2201524675,104.98688,0,1.71900596052,16100,2018-05-10 21:29:51,17,0,23.418,5195.2201524675,104.98688,0.3131716,2.12755256152,0,0,-0.671082,152.8, 4.1, 3.8,0,0,1024,1024,1024,1024,153.2,-89.9,97,3.902,3.875,3.884,3.901,3.934,3.899,18.335,71.6,14,Waypoint,
38.0965915,-120.1425865,5196.5324884675,106.299216,0,1.69739506744,16200,2018-05-10 21:29:51,17,0,23.418,5196.5324884675,106.299216,0.3131716,2.12755256152,0,0,-0.671082,152.8, 4.1, 4,0,0,1024,1024,1024,1024,153.2,-89.9,97,3.902,3.875,3.884,3.901,3.934,3.899,18.335,71.6,14,Waypoint,
38.0965915,-120.1425866,5197.5167404675,107.283468,0,1.66923561772,16300,2018-05-10 21:29:51,17,0,23.418,5197.5167404675,107.283468,0.3131716,2.12755256152,0,0,-0.671082,152.7, 4.2, 4.2,0,0,1024,1024,1024,1024,153.2,-90,97,3.902,3.875,3.884,3.901,3.934,3.899,18.335,71.6,14,Waypoint,
38.0965915,-120.1425867,5198.8290764675,108.595804,0,1.6410925722,16410,2018-05-10 21:29:52,17,0,23.418,5198.8290764675,108.595804,0.3131716,2.12755256152,0,0,-0.671082,152.5, 4, 4.3,0,0,1024,1024,1024,1024,153.2,-90,97,3.902,3.875,3.884,3.901,3.934,3.899,18.335,71.6,14,Waypoint,
38.0965915,-120.1425869,5199.8133284675,109.580056,0,1.58487209796,16500,2018-05-10 21:29:52,17,0,23.418,5199.8133284675,109.580056,0.3131716,2.12755256152,0,0,-0.671082,152.4, 3.8, 4.4,0,0,1024,1024,1024,1024,153.2,-90,97,3.902,3.875,3.884,3.901,3.934,3.899,18.335,71.6,14,Waypoint,
38.0965914,-120.1425871,5202.1099164675,111.876644,0,1.53698823816,16600,2018-05-10 21:29:52,17,0,23.418,5202.1099164675,111.876644,0.3131716,2.12755256152,0,0,-0.671082,152.3, 3.8, 4.4,0,0,1024,1024,1024,1024,153.2,-90,97,3.902,3.875,3.884,3.901,3.934,3.899,18.335,71.6,14,Waypoint,
38.0965914,-120.1425872,5203.4222524675,113.18898,0,1.50911094068,16700,2018-05-10 21:29:52,17,0,23.418,5203.4222524675,113.18898,0.3131716,2.12755256152,0,0,-0.671082,152.3, 4.1, 4.3,0,0,1024,1024,1024,1024,153.2,-89.9,97,3.902,3.875,3.884,3.901,3.934,3.899,18.335,71.6,14,Waypoint,
38.0965914,-120.1425873,5205.3907564675,115.157484,0,1.4812664516,16900,2018-05-10 21:29:52,17,0,23.418,5205.3907564675,115.157484,0.3131716,2.12755256152,0,0,-0.671082,152.1, 4.2, 4,0,0,1024,1024,1024,1024,153.2,-89.9,97,3.902,3.875,3.884,3.901,3.934,3.899,18.335,71.6,14,Waypoint,
38.0965913,-120.1425874,5206.3750084675,116.141736,0,1.4630413854,17100,2018-05-10 21:29:52,17,0,23.418,5206.3750084675,116.141736,0.3131716,2.12755256152,0,0,-0.671082,152.2, 4.2, 4.1,0,0,1024,1024,1024,1024,153.2,-89.9,97,3.902,3.875,3.884,3.901,3.934,3.899,18.335,71.6,14,Waypoint,
38.0965913,-120.1425874,5207.6873444675,117.454072,0,1.4630413854,17200,2018-05-10 21:29:52,17,0,23.418,5207.6873444675,117.454072,0.3131716,2.12755256152,0,0,-0.671082,152.4, 4.3, 4.4,0,0,1024,1024,1024,1024,153.2,-89.9,97,3.902,3.875,3.884,3.901,3.934,3.899,18.335,71.6,14,Waypoint,
38.0965913,-120.1425874,5208.6715964675,118.438324,0,1.4630413854,17300,2018-05-10 21:29:52,17,0,23.418,5208.6715964675,118.438324,0.3131716,2.12755256152,0,0,-0.671082,152.7, 4.3, 4.9,0,0,1024,1024,1024,1024,153.2,-89.9,97,3.902,3.875,3.884,3.901,3.934,3.899,18.335,71.6,14,Waypoint,
38.0965913,-120.1425874,5209.9839324675,119.75066,0,1.4630413854,17400,2018-05-10 21:29:53,17,0,23.418,5209.9839324675,119.75066,0.3131716,2.12755256152,0,0,-0.671082,152.9, 4.2, 5.2,0,0,1024,1024,1024,1024,153.2,-89.9,97,3.902,3.875,3.884,3.901,3.934,3.899,18.335,71.6,14,Waypoint,
38.0965914,-120.1425875,5210.9681844675,120.734912,0,1.42568246032,17500,2018-05-10 21:29:53,17,0,23.418,5210.9681844675,120.734912,0.3131716,2.12755256152,0,0,-0.671082,152.9, 4.2, 4.9,0,0,1024,1024,1024,1024,153.2,-89.9,97,3.902,3.875,3.884,3.901,3.934,3.899,18.335,71.6,14,Waypoint,
38.0965914,-120.1425875,5211.9524364675,121.719164,0,1.42568246032,17600,2018-05-10 21:29:53,17,0,23.418,5211.9524364675,121.719164,0.3131716,2.12755256152,0,0,-0.671082,152.8, 3.9, 4.8,0,0,1024,1024,1024,1024,153.2,-89.9,97,3.902,3.875,3.884,3.901,3.934,3.899,18.335,71.6,14,Waypoint,
38.0965915,-120.1425875,5212.9366884675,122.703416,0,1.4167815414,17700,2018-05-10 21:29:53,17,0,23.418,5212.9366884675,122.703416,0.3131716,2.12755256152,0,0,-0.671082,152.7, 3.8, 4.8,0,0,1024,1024,1024,1024,153.2,-89.9,97,3.902,3.875,3.884,3.901,3.934,3.899,18.335,71.6,14,Waypoint,
38.0965915,-120.1425876,5214.2490244675,124.015752,0,1.38886815468,17800,2018-05-10 21:29:53,17,0,23.418,5214.2490244675,124.015752,0.3131716,2.12755256152,0,0,-0.671082,152.6, 3.6, 4.9,0,0,1024,1024,1024,1024,153.2,-90,97,3.902,3.875,3.884,3.901,3.934,3.899,18.335,71.6,14,Waypoint,
38.0965915,-120.1425876,5215.2332764675,125.000004,0,1.38886815468,17900,2018-05-10 21:29:53,17,0,23.418,5215.2332764675,125.000004,0.3131716,2.12755256152,0,0,-0.671082,152.5, 3.5, 4.9,0,0,1024,1024,1024,1024,153.2,-90,97,3.902,3.875,3.884,3.901,3.934,3.899,18.335,71.6,14,Waypoint,
38.0965916,-120.1425877,5216.2175284675,125.984256,0,1.35264768108,18000,2018-05-10 21:29:53,17,0,23.286,5216.2175284675,125.984256,0.3131716,2.12755256152,0,0,-0.671082,152.4, 3.5, 4.9,0,0,1024,1024,1024,1024,153.2,-90,97,3.906,3.867,3.88,3.883,3.925,3.895,18.594,71.6,14,Waypoint,
38.0965916,-120.1425877,5216.8736964675,126.640424,0,1.35264768108,18100,2018-05-10 21:29:53,17,0,23.286,5216.8736964675,126.640424,0.3131716,2.12755256152,0,0,-0.671082,152.4, 3.5, 5,0,0,1024,1024,1024,1024,153.2,-89.9,97,3.906,3.867,3.88,3.883,3.925,3.895,18.594,71.6,14,Waypoint,
38.0965917,-120.1425877,5217.8579484675,127.624676,0,1.34524610604,18200,2018-05-10 21:29:53,17,0,23.286,5217.8579484675,127.624676,0.3131716,2.12755256152,0,0,-0.671082,152.4, 3.5, 5,0,0,1024,1024,1024,1024,153.2,-90,97,3.906,3.867,3.88,3.883,3.925,3.895,18.594,71.6,14,Waypoint,
38.0965917,-120.1425877,5218.8422004675,128.608928,0,1.34524610604,18300,2018-05-10 21:29:53,17,0,23.286,5218.8422004675,128.608928,0.3131716,2.12755256152,0,0,-0.671082,152.5, 3.4, 4.8,0,0,1024,1024,1024,1024,153.2,-90,97,3.906,3.867,3.88,3.883,3.925,3.895,18.594,71.6,14,Waypoint,
38.0965917,-120.1425877,5219.8264524675,129.59318,0,1.34524610604,18400,2018-05-10 21:29:54,17,0,23.286,5219.8264524675,129.59318,0.3131716,2.12755256152,0,0,-0.671082,152.5, 3.5, 4.7,0,0,1024,1024,1024,1024,153.2,-90,97,3.906,3.867,3.88,3.883,3.925,3.895,18.594,71.6,14,Waypoint,
38.0965917,-120.1425877,5220.8107044675,130.577432,0,1.34524610604,18500,2018-05-10 21:29:54,17,0,23.286,5220.8107044675,130.577432,0.3131716,2.12755256152,0,0,-0.671082,152.5, 3.6, 4.6,0,0,1024,1024,1024,1024,153.2,-89.9,97,3.906,3.867,3.88,3.883,3.925,3.895,18.594,71.6,14,Waypoint,
38.0965918,-120.1425877,5221.7949564675,131.561684,0,1.33879925544,18600,2018-05-10 21:29:54,17,0,23.286,5221.7949564675,131.561684,0.3131716,2.12755256152,0,0,-0.671082,152.5, 3.9, 4.5,0,0,1024,1024,1024,1024,153.2,-89.9,97,3.906,3.867,3.88,3.883,3.925,3.895,18.594,71.6,14,Waypoint,
38.0965918,-120.1425877,5222.7792084675,132.545936,0,1.33879925544,18700,2018-05-10 21:29:54,17,0,23.286,5222.7792084675,132.545936,0.3131716,2.12755256152,0,0,-0.671082,152.5, 4.1, 4.5,0,0,1024,1024,1024,1024,153.2,-89.9,97,3.906,3.867,3.88,3.883,3.925,3.895,18.594,71.6,14,Waypoint,
38.0965918,-120.1425877,5224.7477124675,134.51444,0,1.33879925544,18810,2018-05-10 21:29:54,17,0,23.286,5224.7477124675,134.51444,0.3131716,2.12755256152,0,0,-0.671082,152.5, 4, 4.8,0,0,1024,1024,1024,1024,153.2,-90,97,3.906,3.867,3.88,3.883,3.925,3.895,18.594,71.6,14,Waypoint,
38.0965918,-120.1425877,5224.7477124675,134.51444,0,1.33879925544,18900,2018-05-10 21:29:54,17,0,23.286,5224.7477124675,134.51444,0.3131716,2.12755256152,0,0,-0.671082,152.5, 4, 4.8,0,0,1024,1024,1024,1024,153.2,-89.9,97,3.906,3.867,3.88,3.883,3.925,3.895,18.594,71.6,14,Waypoint,
38.0965919,-120.1425876,5227.7004684675,137.467196,0,1.36176841628,19100,2018-05-10 21:29:54,17,0,23.286,5227.7004684675,137.467196,0.3131716,2.12755256152,0,0,-0.671082,152.4, 4.1, 4.8,0,0,1024,1024,1024,1024,153.2,-89.9,97,3.906,3.867,3.88,3.883,3.925,3.895,18.594,71.6,14,Waypoint,
38.0965919,-120.1425876,5228.6847204675,138.451448,0,1.36176841628,19300,2018-05-10 21:29:54,17,0,23.286,5228.6847204675,138.451448,0.3131716,2.12755256152,0,0,-0.671082,152.3, 4.2, 5.1,0,0,1024,1024,1024,1024,153.2,-89.9,97,3.906,3.867,3.88,3.883,3.925,3.895,18.594,71.6,14,Waypoint,
38.0965919,-120.1425876,5229.6689724675,139.4357,0,1.36176841628,19400,2018-05-10 21:29:55,17,0,23.286,5229.6689724675,139.4357,0.3131716,2.12755256152,0,0,-0.671082,152.2, 4.4, 4.9,0,0,1024,1024,1024,1024,153.2,-89.9,97,3.906,3.867,3.88,3.883,3.925,3.895,18.594,71.6,14,Waypoint,
38.0965919,-120.1425876,5230.3251404675,140.091868,0,1.36176841628,19500,2018-05-10 21:29:55,17,0,23.286,5230.3251404675,140.091868,0.3131716,2.12755256152,0,0,-0.671082,152.1, 4.6, 4.6,0,0,1024,1024,1024,1024,153.2,-89.9,97,3.906,3.867,3.88,3.883,3.925,3.895,18.594,71.6,14,Waypoint,
38.0965918,-120.1425877,5231.3093924675,141.07612,0,1.33879925544,19600,2018-05-10 21:29:55,17,0,23.286,5231.3093924675,141.07612,0.3131716,2.12755256152,0,0,-0.671082,152.2, 4.7, 4.2,0,0,1024,1024,1024,1024,153.2,-89.9,97,3.906,3.867,3.88,3.883,3.925,3.895,18.594,71.6,14,Waypoint,
38.0965918,-120.1425876,5233.2778964675,143.044624,0,1.36713258968,19800,2018-05-10 21:29:55,17,0,23.286,5233.2778964675,143.044624,0.3131716,2.12755256152,0,0,-0.671082,152.4, 4.9, 4.7,0,0,1024,1024,1024,1024,153.2,-89.9,97,3.906,3.867,3.88,3.883,3.925,3.895,18.594,71.6,14,Waypoint,
38.0965918,-120.1425876,5234.2621484675,144.028876,0,1.36713258968,19900,2018-05-10 21:29:55,17,0,23.286,5234.2621484675,144.028876,0.3131716,2.12755256152,0,0,-0.671082,152.6, 4.8, 4.7,0,0,1024,1024,1024,1024,153.2,-89.9,97,3.906,3.867,3.88,3.883,3.925,3.895,18.594,71.6,14,Waypoint,
38.0965917,-120.1425876,5235.2464004675,145.013128,0,1.37344820668,20000,2018-05-10 21:29:55,17,0,23.335,5235.2464004675,145.013128,0.3131716,2.12755256152,0,0,-0.671082,152.8, 4.9, 4.9,0,0,1024,1024,1024,1024,153.2,-89.9,97,3.896,3.88,3.877,3.891,3.907,3.897,18.116,71.6,14,Waypoint,
38.0965917,-120.1425876,5236.2306524675,145.99738,0,1.37344820668,20100,2018-05-10 21:29:55,17,0,23.335,5236.2306524675,145.99738,0.3131716,2.12755256152,0,0,-0.671082,153.1, 5.1, 5.1,0,0,1024,1024,1024,1024,153.2,-89.9,97,3.896,3.88,3.877,3.891,3.907,3.897,18.116,71.6,14,Waypoint,
38.0965917,-120.1425876,5237.2149044675,146.981632,0,1.37344820668,20200,2018-05-10 21:29:55,17,0,23.335,5237.2149044675,146.981632,0.3131716,2.12755256152,0,0,-0.671082,153.2, 5.2, 5.3,0,0,1024,1024,1024,1024,153.2,-89.9,97,3.896,3.88,3.877,3.891,3.907,3.897,18.116,71.6,14,Waypoint,
38.0965917,-120.1425876,5238.1991564675,147.965884,0,1.37344820668,20300,2018-05-10 21:29:55,17,0,23.335,5238.1991564675,147.965884,0.3131716,2.12755256152,0,0,-0.671082,153.3, 5.1, 5.6,0,0,1024,1024,1024,1024,153.2,-89.9,97,3.896,3.88,3.877,3.891,3.907,3.897,18.116,71.6,14,Waypoint,
38.0965917,-120.1425876,5239.1834084675,148.950136,0,1.37344820668,20400,2018-05-10 21:29:56,17,0,23.335,5239.1834084675,148.950136,0.3131716,2.12755256152,0,0,-0.671082,153.4, 5, 5.5,0,0,1024,1024,1024,1024,153.2,-89.9,97,3.896,3.88,3.877,3.891,3.907,3.897,18.116,71.6,14,Waypoint,
38.0965917,-120.1425876,5240.1676604675,149.934388,0,1.37344820668,20500,2018-05-10 21:29:56,17,0,23.335,5240.1676604675,149.934388,0.3131716,2.12755256152,0,0,-0.671082,153.3, 4.7, 5.4,0,0,1024,1024,1024,1024,153.2,-90,97,3.896,3.88,3.877,3.891,3.907,3.897,18.116,71.6,14,Waypoint,
38.0965917,-120.1425876,5241.1519124675,150.91864,0,1.37344820668,20600,2018-05-10 21:29:56,17,0,23.335,5241.1519124675,150.91864,0.3131716,2.12755256152,0,0,-0.671082,153.2, 4.6, 5.5,0,0,1024,1024,1024,1024,153.2,-90,97,3.896,3.88,3.877,3.891,3.907,3.897,18.116,71.6,14,Waypoint,
38.0965917,-120.1425876,5242.1361644675,151.902892,0,1.37344820668,20700,2018-05-10 21:29:56,17,0,23.335,5242.1361644675,151.902892,0.3131716,2.12755256152,0,0,-0.671082,153.1, 4.5, 5.7,0,0,1024,1024,1024,1024,153.2,-89.9,97,3.896,3.88,3.877,3.891,3.907,3.897,18.116,71.6,14,Waypoint,
38.0965917,-120.1425876,5243.1204164675,152.887144,0,1.37344820668,20800,2018-05-10 21:29:56,17,0,23.335,5243.1204164675,152.887144,0.3131716,2.12755256152,0,0,-0.671082,152.9, 4.7, 5.7,0,0,1024,1024,1024,1024,153.2,-89.9,97,3.896,3.88,3.877,3.891,3.907,3.897,18.116,71.6,14,Waypoint,
38.0965917,-120.1425876,5244.1046684675,153.871396,0,1.37344820668,20900,2018-05-10 21:29:56,17,0,23.335,5244.1046684675,153.871396,0.3131716,2.12755256152,0,0,-0.671082,152.8, 4.7, 5.6,0,0,1024,1024,1024,1024,153.2,-89.9,97,3.896,3.88,3.877,3.891,3.907,3.897,18.116,71.6,14,Waypoint,
38.0965917,-120.1425876,5246.0731724675,155.8399,0,1.37344820668,21100,2018-05-10 21:29:56,17,0,23.335,5246.0731724675,155.8399,0.3131716,2.12755256152,0,0,-0.671082,152.7, 4.8, 5.5,0,0,1024,1024,1024,1024,153.2,-89.9,97,3.896,3.88,3.877,3.891,3.907,3.897,18.116,71.6,14,Waypoint,
38.0965916,-120.1425876,5247.0574244675,156.824152,0,1.38069886308,21200,2018-05-10 21:29:56,17,0,23.335,5247.0574244675,156.824152,0.3131716,2.12755256152,0,0,-0.671082,152.6, 4.8, 5.2,0,0,1024,1024,1024,1024,153.2,-89.9,97,3.896,3.88,3.877,3.891,3.907,3.897,18.116,71.6,14,Waypoint,
38.0965916,-120.1425877,5248.0416764675,157.808404,0,1.35264768108,21300,2018-05-10 21:29:56,17,0,23.335,5248.0416764675,157.808404,0.3131716,2.12755256152,0,0,-0.671082,152.6, 4.8, 5,0,0,1024,1024,1024,1024,153.2,-89.9,97,3.896,3.88,3.877,3.891,3.907,3.897,18.116,71.6,14,Waypoint,
38.0965916,-120.1425877,5249.0259284675,158.792656,0,1.35264768108,21400,2018-05-10 21:29:57,17,0,23.335,5249.0259284675,158.792656,0.3131716,2.12755256152,0,0,-0.671082,152.5, 4.9, 4.7,0,0,1024,1024,1024,1024,153.2,-89.9,97,3.896,3.88,3.877,3.891,3.907,3.897,18.116,71.6,14,Waypoint,
38.0965915,-120.1425878,5250.6663484675,160.433076,0,1.33313980644,21700,2018-05-10 21:29:57,17,0,23.335,5250.6663484675,160.433076,0.3131716,2.12755256152,0,0,-0.671082,152.4, 5.1, 4.2,0,0,1024,1024,1024,1024,153.2,-89.9,97,3.896,3.88,3.877,3.891,3.907,3.897,18.116,71.6,14,Waypoint,
38.0965915,-120.1425879,5251.6506004675,161.417328,0,1.3053314066,22000,2018-05-10 21:29:57,17,0,23.335,5251.6506004675,161.417328,0.3131716,2.12755256152,0,0,-0.671082,152.4, 4.9, 4,0,0,1024,1024,1024,1024,153.2,-89.9,97,3.896,3.88,3.877,3.891,3.907,3.897,18.116,71.6,14,Waypoint,
38.0965915,-120.1425879,5252.6348524675,162.40158,0,1.3053314066,22100,2018-05-10 21:29:57,17,0,23.335,5252.6348524675,162.40158,0.3131716,2.12755256152,0,0,-0.671082,152.4, 4.7, 4.3,0,0,1024,1024,1024,1024,153.2,-90,97,3.896,3.88,3.877,3.891,3.907,3.897,18.116,71.6,14,Waypoint,
38.0965916,-120.142588,5253.6191044675,163.385832,0,1.26867458128,22400,2018-05-10 21:29:58,17,0,23.335,5253.6191044675,163.385832,0.3131716,2.12755256152,0,0,-0.671082,152.5, 4.4, 4.4,0,0,1024,1024,1024,1024,153.2,-90,97,3.896,3.88,3.877,3.891,3.907,3.897,18.116,71.6,14,Waypoint,
38.0965917,-120.142588,5256.5718604675,166.338588,0,1.26078088024,22610,2018-05-10 21:29:58,17,0,23.335,5256.5718604675,166.338588,0.3131716,2.12755256152,0,0,-0.671082,152.7, 4, 4.5,0,0,1024,1024,1024,1024,153.2,-90,97,3.896,3.88,3.877,3.891,3.907,3.897,18.116,71.6,14,Waypoint,
38.0965917,-120.142588,5256.5718604675,166.338588,0,1.26078088024,22700,2018-05-10 21:29:58,17,0,23.335,5256.5718604675,166.338588,0.3131716,2.12755256152,0,0,-0.671082,152.7, 4, 4.5,0,0,1024,1024,1024,1024,153.2,-90,97,3.896,3.88,3.877,3.891,3.907,3.897,18.116,71.6,14,Waypoint,
38.0965918,-120.1425879,5259.5246164675,169.291344,0,1.28218179956,22810,2018-05-10 21:29:58,17,0,23.335,5259.5246164675,169.291344,0.3131716,2.12755256152,0,0,-0.671082,152.7, 4.1, 5.3,0,0,1024,1024,1024,1024,153.2,-90,97,3.896,3.88,3.877,3.891,3.907,3.897,18.116,71.6,14,Waypoint,
38.0965919,-120.1425879,5260.5088684675,170.275596,0,1.27645673376,23010,2018-05-10 21:29:58,17,0,23.406,5260.5088684675,170.275596,0.3131716,2.12755256152,0,0,-0.671082,152.7, 4.1, 5.4,0,0,1024,1024,1024,1024,153.2,-90,96,3.91,3.879,3.878,3.887,3.919,3.901,17.103,71.6,14,Waypoint,
38.0965919,-120.1425879,5261.4931204675,171.259848,0,1.27645673376,23200,2018-05-10 21:29:58,17,0,23.406,5261.4931204675,171.259848,0.3131716,2.12755256152,0,0,-0.671082,152.6, 4, 5.3,0,0,1024,1024,1024,1024,153.2,-90,96,3.91,3.879,3.878,3.887,3.919,3.901,17.103,71.6,14,Waypoint,
38.0965918,-120.1425881,5267.0705484675,176.837276,0,1.22563652216,23380,2018-05-10 21:29:59,17,0,23.406,5267.0705484675,176.837276,0.3131716,2.12755256152,0,0,-0.671082,152.7, 4.4, 4.5,0,0,1024,1024,1024,1024,153.2,-89.9,96,3.91,3.879,3.878,3.887,3.919,3.901,17.103,71.6,14,Waypoint,
38.0965918,-120.1425881,5267.0705484675,176.837276,0,1.22563652216,23400,2018-05-10 21:29:59,17,0,23.406,5267.0705484675,176.837276,0.3131716,2.12755256152,0,0,-0.671082,152.7, 4.4, 4.5,0,0,1024,1024,1024,1024,153.2,-89.9,96,3.91,3.879,3.878,3.887,3.919,3.901,17.103,71.6,14,Waypoint,
38.0965918,-120.1425882,5269.0390524675,178.80578,0,1.19739833228,23500,2018-05-10 21:29:59,17,0,23.406,5269.0390524675,178.80578,0.3131716,2.12755256152,0,0,-0.671082,152.6, 4.5, 4.7,0,0,1024,1024,1024,1024,153.2,-89.9,96,3.91,3.879,3.878,3.887,3.919,3.901,17.103,71.6,14,Waypoint,
38.0965918,-120.1425882,5270.0233044675,179.790032,0,1.19739833228,23600,2018-05-10 21:29:59,17,0,23.406,5270.0233044675,179.790032,0.3131716,2.12755256152,0,0,-0.671082,152.6, 4.5, 4.9,0,0,1024,1024,1024,1024,153.2,-90,96,3.91,3.879,3.878,3.887,3.919,3.901,17.103,71.6,14,Waypoint,
38.0965918,-120.1425882,5271.0075564675,180.774284,0,1.19739833228,23710,2018-05-10 21:29:59,17,0,23.406,5271.0075564675,180.774284,0.3131716,2.12755256152,0,0,-0.671082,152.5, 4.4, 5,0,0,1024,1024,1024,1024,153.2,-90,96,3.91,3.879,3.878,3.887,3.919,3.901,17.103,71.6,14,Waypoint,
38.0965917,-120.1425882,5271.9918084675,181.758536,0,1.20460305692,23800,2018-05-10 21:29:59,17,0,23.406,5271.9918084675,181.758536,0.3131716,2.12755256152,0,0,-0.671082,152.5, 4.4, 5.1,0,0,1024,1024,1024,1024,153.2,-89.9,96,3.91,3.879,3.878,3.887,3.919,3.901,17.103,71.6,14,Waypoint,
38.0965917,-120.1425882,5272.9760604675,182.742788,0,1.20460305692,23900,2018-05-10 21:29:59,17,0,23.406,5272.9760604675,182.742788,0.3131716,2.12755256152,0,0,-0.671082,152.6, 4.3, 4.8,0,0,1024,1024,1024,1024,153.2,-90,96,3.91,3.879,3.878,3.887,3.919,3.901,17.103,71.6,14,Waypoint,
38.0965916,-120.1425884,5275.9288164675,185.695544,0,1.15720804228,24200,2018-05-10 21:29:59,17,0,23.406,5275.9288164675,185.695544,0.3131716,2.12755256152,0,0,-0.671082,152.6, 4.4, 4.4,0,0,1024,1024,1024,1024,153.2,-89.9,96,3.91,3.879,3.878,3.887,3.919,3.901,17.103,71.6,14,Waypoint,
38.0965915,-120.1425885,5277.8973204675,187.664048,0,1.1394193278,24400,2018-05-10 21:30:00,17,0,23.406,5277.8973204675,187.664048,0.3131716,2.12755256152,0,0,-0.671082,152.7, 4.4, 4.3,0,0,1024,1024,1024,1024,153.2,-89.9,96,3.91,3.879,3.878,3.887,3.919,3.901,17.103,71.6,14,Waypoint,
38.0965915,-120.1425885,5278.8815724675,188.6483,0,1.1394193278,24500,2018-05-10 21:30:00,17,0,23.406,5278.8815724675,188.6483,0.3131716,2.12755256152,0,0,-0.671082,152.7, 4.5, 4.2,0,0,1024,1024,1024,1024,153.2,-89.9,96,3.91,3.879,3.878,3.887,3.919,3.901,17.103,71.6,14,Waypoint,
38.0965914,-120.1425886,5280.8500764675,190.616804,0,1.12327103332,24700,2018-05-10 21:30:00,17,0,23.406,5280.8500764675,190.616804,0.3131716,2.12755256152,0,0,-0.671082,152.6, 4.7, 4.1,0,0,1024,1024,1024,1024,153.2,-89.9,96,3.91,3.879,3.878,3.887,3.919,3.901,17.103,71.6,14,Waypoint,
38.0965914,-120.1425886,5281.8343284675,191.601056,0,1.12327103332,24800,2018-05-10 21:30:00,17,0,23.406,5281.8343284675,191.601056,0.3131716,2.12755256152,0,0,-0.671082,152.6, 4.9, 4.3,0,0,1024,1024,1024,1024,153.2,-89.9,96,3.91,3.879,3.878,3.887,3.919,3.901,17.103,71.6,14,Waypoint,
38.0965913,-120.1425887,5282.8185804675,192.585308,0,1.10883205648,24900,2018-05-10 21:30:00,17,0,23.406,5282.8185804675,192.585308,0.3131716,2.12755256152,0,0,-0.671082,152.5, 4.9, 4.3,0,0,1024,1024,1024,1024,153.2,-89.9,96,3.91,3.879,3.878,3.887,3.919,3.901,17.103,71.6,14,Waypoint,
38.0965913,-120.1425887,5283.8028324675,193.56956,0,1.10883205648,25000,2018-05-10 21:30:00,17,0,23.173,5283.8028324675,193.56956,0.3131716,2.12755256152,0,0,-0.671082,152.4, 4.7, 4.3,0,0,1024,1024,1024,1024,153.2,-89.9,96,3.869,3.85,3.844,3.848,3.889,3.869,18.974,71.6,14,Waypoint,
38.0965913,-120.1425887,5284.7870844675,194.553812,0,1.10883205648,25100,2018-05-10 21:30:00,17,0,23.173,5284.7870844675,194.553812,0.3131716,2.12755256152,0,0,-0.671082,152.5, 4.6, 4.1,0,0,1024,1024,1024,1024,153.2,-89.9,96,3.869,3.85,3.844,3.848,3.889,3.869,18.974,71.6,14,Waypoint,
38.0965913,-120.1425888,5285.7713364675,195.538064,0,1.08211617636,25200,2018-05-10 21:30:00,17,0,23.173,5285.7713364675,195.538064,0.3131716,2.12755256152,0,0,-0.671082,152.5, 4.5, 4,0,0,1024,1024,1024,1024,153.2,-89.9,96,3.869,3.85,3.844,3.848,3.889,3.869,18.974,71.6,14,Waypoint,
38.0965913,-120.1425888,5286.7555884675,196.522316,0,1.08211617636,25300,2018-05-10 21:30:00,17,0,23.173,5286.7555884675,196.522316,0.3131716,2.12755256152,0,0,-0.671082,152.6, 4.5, 3.8,0,0,1024,1024,1024,1024,153.2,-89.9,96,3.869,3.85,3.844,3.848,3.889,3.869,18.974,71.6,14,Waypoint,
38.0965913,-120.1425889,5288.0679244675,197.834652,0,1.05550528312,25400,2018-05-10 21:30:01,17,0,23.173,5288.0679244675,197.834652,0.3131716,2.12755256152,0,0,-0.671082,152.6, 4.5, 3.8,0,0,1024,1024,1024,1024,153.2,-90,96,3.869,3.85,3.844,3.848,3.889,3.869,18.974,71.6,14,Waypoint,
38.0965913,-120.1425889,5288.7240924675,198.49082,0,1.05550528312,25500,2018-05-10 21:30:01,17,0,23.173,5288.7240924675,198.49082,0.3131716,2.12755256152,0,0,-0.671082,152.7, 4.5, 3.9,0,0,1024,1024,1024,1024,153.2,-89.9,96,3.869,3.85,3.844,3.848,3.889,3.869,18.974,71.6,14,Waypoint,
38.0965913,-120.1425889,5289.7083444675,199.475072,0,1.05550528312,25600,2018-05-10 21:30:01,17,0,23.173,5289.7083444675,199.475072,0.3131716,2.12755256152,0,0,-0.671082,152.7, 4.4, 4,0,0,1024,1024,1024,1024,153.2,-89.9,96,3.869,3.85,3.844,3.848,3.889,3.869,18.974,71.6,14,Waypoint,
38.0965913,-120.1425889,5290.6925964675,200.459324,0,1.05550528312,25800,2018-05-10 21:30:01,17,0,23.173,5290.6925964675,200.459324,0.3131716,2.12755256152,0,0,-0.671082,152.7, 4.4, 4.2,0,0,1024,1024,1024,1024,153.2,-89.9,96,3.869,3.85,3.844,3.848,3.889,3.869,18.974,71.6,14,Waypoint,
38.0965913,-120.1425889,5292.6611004675,202.427828,0,1.05550528312,25910,2018-05-10 21:30:01,17,0,23.173,5292.6611004675,202.427828,0.3131716,2.12755256152,0,0,-0.671082,152.7, 4.5, 4.8,0,0,1024,1024,1024,1024,153.2,-89.9,96,3.869,3.85,3.844,3.848,3.889,3.869,18.974,71.6,14,Waypoint,
38.0965913,-120.1425889,5293.6453524675,203.41208,0,1.05550528312,26210,2018-05-10 21:30:01,17,0,23.173,5293.6453524675,203.41208,0.3131716,2.12755256152,0,0,-0.671082,152.7, 4.5, 4.8,0,0,1024,1024,1024,1024,153.2,-89.9,96,3.869,3.85,3.844,3.848,3.889,3.869,18.974,71.6,14,Waypoint,
38.0965914,-120.1425888,5295.9419404675,205.708668,0,1.06912076912,26400,2018-05-10 21:30:02,17,0,23.173,5295.9419404675,205.708668,0.3131716,2.12755256152,0,0,-0.671082,152.7, 4.5, 4.9,0,0,1024,1024,1024,1024,153.2,-89.9,96,3.869,3.85,3.844,3.848,3.889,3.869,18.974,71.6,14,Waypoint,
38.0965914,-120.1425888,5296.9261924675,206.69292,0,1.06912076912,26500,2018-05-10 21:30:02,17,0,23.173,5296.9261924675,206.69292,0.3131716,2.12755256152,0,0,-0.671082,152.6, 4.4, 4.8,0,0,1024,1024,1024,1024,153.2,-89.9,96,3.869,3.85,3.844,3.848,3.889,3.869,18.974,71.6,14,Waypoint,
38.0965914,-120.1425888,5297.9104444675,207.677172,0,1.06912076912,26600,2018-05-10 21:30:02,17,0,23.173,5297.9104444675,207.677172,0.3131716,2.12755256152,0,0,-0.671082,152.6, 4.3, 4.7,0,0,1024,1024,1024,1024,153.2,-90,96,3.869,3.85,3.844,3.848,3.889,3.869,18.974,71.6,14,Waypoint,
38.0965914,-120.1425888,5298.8946964675,208.661424,0,1.06912076912,26700,2018-05-10 21:30:02,17,0,23.173,5298.8946964675,208.661424,0.3131716,2.12755256152,0,0,-0.671082,152.6, 4.3, 4.6,0,0,1024,1024,1024,1024,153.2,-89.9,96,3.869,3.85,3.844,3.848,3.889,3.869,18.974,71.6,14,Waypoint,
38.0965914,-120.1425888,5299.8789484675,209.645676,0,1.06912076912,26800,2018-05-10 21:30:02,17,0,23.173,5299.8789484675,209.645676,0.3131716,2.12755256152,0,0,-0.671082,152.6, 4.4, 4.6,0,0,1024,1024,1024,1024,153.2,-89.9,96,3.869,3.85,3.844,3.848,3.889,3.869,18.974,71.6,14,Waypoint,
38.0965915,-120.1425889,5300.8632004675,210.629928,0,1.02997378624,26900,2018-05-10 21:30:02,17,0,23.173,5300.8632004675,210.629928,0.3131716,2.12755256152,0,0,-0.671082,152.6, 4.4, 4.4,0,0,1024,1024,1024,1024,153.2,-89.9,96,3.869,3.85,3.844,3.848,3.889,3.869,18.974,71.6,14,Waypoint,
38.0965915,-120.1425889,5302.8317044675,212.598432,0,1.02997378624,27110,2018-05-10 21:30:02,17,0,23.173,5302.8317044675,212.598432,0.3131716,2.12755256152,0,0,-0.671082,152.6, 4.2, 4.3,0,0,1024,1024,1024,1024,153.2,-89.9,96,3.869,3.85,3.844,3.848,3.889,3.869,18.974,71.6,14,Waypoint,
38.0965916,-120.1425888,5304.8002084675,214.566936,0,1.04646984976,27300,2018-05-10 21:30:02,17,0,23.173,5304.8002084675,214.566936,0.3131716,2.12755256152,0,0,-0.671082,152.6, 4.2, 4.5,0,0,1024,1024,1024,1024,153.2,-90,96,3.869,3.85,3.844,3.848,3.889,3.869,18.974,71.6,14,Waypoint,
38.0965916,-120.1425888,5305.4563764675,215.223104,0,1.04646984976,27400,2018-05-10 21:30:03,17,0,23.173,5305.4563764675,215.223104,0.3131716,2.12755256152,0,0,-0.671082,152.6, 4.3, 4.6,0,0,1024,1024,1024,1024,153.2,-90,96,3.869,3.85,3.844,3.848,3.889,3.869,18.974,71.6,14,Waypoint,
38.0965917,-120.1425888,5306.7687124675,216.53544,0,1.03688651612,27500,2018-05-10 21:30:03,17,0,23.173,5306.7687124675,216.53544,0.3131716,2.12755256152,0,0,-0.671082,152.7, 4.2, 4.8,0,0,1024,1024,1024,1024,153.2,-90,96,3.869,3.85,3.844,3.848,3.889,3.869,18.974,71.6,14,Waypoint,
