latitude,longitude,altitude(feet),ascent(feet),speed(mph),distance(feet),time(millisecond),datetime(utc),satellites,gpslevel,voltage(v),max_altitude(feet),max_ascent(feet),max_speed(mph),max_distance(feet), xSpeed(mph), ySpeed(mph), zSpeed(mph), compass_heading(degrees), pitch(degrees), roll(degrees),isPhoto,isVideo,rc_elevator,rc_aileron,rc_throttle,rc_rudder,gimbal_heading(degrees),gimbal_pitch(degrees),battery_percent,voltageCell1,voltageCell2,voltageCell3,voltageCell4,voltageCell5,voltageCell6,current(A),battery_temperature(f),flycStateRaw,flycState,message
38.0965926,-120.1425866,5090.2933462883,0,0,0,3020,2018-05-10 22:18:00,13,0,25.356,5090.2933462883,0,0,0,0,0,0,329.6, 0.4, 2.1,1,0,1024,1024,1024,1024,328.5,-89.9,98,4.214,4.254,4.262,4.256,4.264,4.227,3.81,71.6,11,AutoTakeoff,DJI_0699.jpg Starting Mission from Lat/Long: 38.09660/-120.14259 Camera: Zenmuse X3 - Overlap: 90/90 - Active Connection: No
38.0965926,-120.1425865,5090.2933462883,0,0,0.028712599344,3100,2018-05-10 22:18:00,13,0,25.356,5090.2933462883,0,0,0.028712599344,0,0,0,329.7, 0.4, 1,0,0,1024,1024,1024,1024,328.5,-89.9,98,4.214,4.254,4.262,4.256,4.264,4.227,3.81,71.6,11,AutoTakeoff,
38.0965927,-120.1425864,5090.2933462883,0,0.3131716,0.068035435248,3200,2018-05-10 22:18:01,13,0,25.356,5090.2933462883,0,0.3131716,0.068035435248,0,0,0,329.8, 0.1, 0.3,0,0,1024,1024,1024,1024,328.5,-89.9,98,4.214,4.254,4.262,4.256,4.264,4.227,3.81,71.6,11,AutoTakeoff,
38.0965928,-120.1425862,5090.2933462883,0,0.3131716,0.136070542412,3300,2018-05-10 22:18:01,13,0,25.356,5090.2933462883,0,0.3131716,0.136070542412,0,0,0,330, 0.1, 0,0,0,1024,1024,1024,1024,328.5,-89.9,98,4.214,4.254,4.262,4.256,4.264,4.227,3.81,71.6,11,AutoTakeoff,
38.0965929,-120.1425861,5090.2933462883,0,0.3131716,0.180528877168,3400,2018-05-10 22:18:01,13,0,25.356,5090.2933462883,0,0.3131716,0.180528877168,0,0,0,330, 0.3, -0.3,0,0,1024,1024,1024,1024,328.5,-89.9,98,4.214,4.254,4.262,4.256,4.264,4.227,3.81,71.6,11,AutoTakeoff,
38.096593,-120.1425859,5090.6214302883,0.328084,0.3131716,0.2483841943,3500,2018-05-10 22:18:01,12,0,25.356,5090.6214302883,0.328084,0.3131716,0.2483841943,0,0,0,329.9, 0.3, -0.5,0,0,1024,1024,1024,1024,328.5,-89.9,98,4.214,4.254,4.262,4.256,4.264,4.227,3.81,71.6,11,AutoTakeoff,
38.096593,-120.1425858,5090.6214302883,0.328084,0.3131716,0.272141412908,3600,2018-05-10 22:18:01,12,0,25.356,5090.6214302883,0.328084,0.3131716,0.272141412908,0,0,0,329.8, 0.4, -0.8,0,0,1024,1024,1024,1024,328.5,-89.9,98,4.214,4.254,4.262,4.256,4.264,4.227,3.81,71.6,11,AutoTakeoff,
38.0965931,-120.1425857,5090.9495142883,0.656168,0,0.316316939256,3700,2018-05-10 22:18:01,12,0,25.356,5090.9495142883,0.656168,0.3131716,0.316316939256,0,0,0,329.8, 0.5, -0.9,0,0,1024,1024,1024,1024,328.5,-89.9,98,4.214,4.254,4.262,4.256,4.264,4.227,3.81,71.6,11,AutoTakeoff,
38.0965933,-120.1425856,5090.9495142883,0.656168,0,0.38427494668,3800,2018-05-10 22:18:01,12,0,25.356,5090.9495142883,0.656168,0.3131716,0.38427494668,0,0,0,329.7, 0.4, -0.8,0,0,1024,1024,1024,1024,328.5,-89.9,98,4.214,4.254,4.262,4.256,4.264,4.227,3.81,71.6,11,AutoTakeoff,
38.0965934,-120.1425855,5091.2775982883,0.984252,0,0.43005578804,3900,2018-05-10 22:18:01,12,0,25.356,5091.2775982883,0.984252,0.3131716,0.43005578804,0,0,0,329.6, 0.6, -0.8,0,0,1024,1024,1024,1024,328.5,-89.9,98,4.214,4.254,4.262,4.256,4.264,4.227,3.81,71.6,11,AutoTakeoff,
38.0965934,-120.1425855,5091.6056822883,1.312336,0,0.43005578804,4110,2018-05-10 22:18:01,12,0,25.356,5091.6056822883,1.312336,0.3131716,0.43005578804,0,0,0,329.8, 0.8, -1,0,0,1024,1024,1024,1024,328.5,-89.9,98,4.214,4.254,4.262,4.256,4.264,4.227,3.81,71.6,11,AutoTakeoff,
38.0965935,-120.1425854,5091.6056822883,1.312336,0,0.47596130132,4210,2018-05-10 22:18:02,12,0,25.356,5091.6056822883,1.312336,0.3131716,0.47596130132,0,0,0,329.9, 0.8, -1.1,0,0,1024,1024,1024,1024,328.5,-89.9,98,4.214,4.254,4.262,4.256,4.264,4.227,3.81,71.6,11,AutoTakeoff,
38.0965935,-120.1425853,5091.6056822883,1.312336,0,0.49714240436,4400,2018-05-10 22:18:02,12,0,25.356,5091.6056822883,1.312336,0.3131716,0.49714240436,0,0,0,330.1, 0.6, -1.1,0,0,1024,1024,1024,1024,328.5,-89.9,98,4.214,4.254,4.262,4.256,4.264,4.227,3.81,71.6,11,AutoTakeoff,
38.0965935,-120.1425853,5091.9337662883,1.64042,0,0.49714240436,4500,2018-05-10 22:18:02,12,0,25.356,5091.9337662883,1.64042,0.3131716,0.49714240436,0,0,0,330.3, 0.5, -1,0,0,1024,1024,1024,1024,328.5,-89.9,98,4.214,4.254,4.262,4.256,4.264,4.227,3.81,71.6,11,AutoTakeoff,
38.0965937,-120.1425852,5092.2618502883,1.968504,0,0.5680282334,4600,2018-05-10 22:18:02,12,0,25.356,5092.2618502883,1.968504,0.3131716,0.5680282334,0,0,0,330.3, 0.6, -0.7,0,0,1024,1024,1024,1024,328.5,-89.9,98,4.214,4.254,4.262,4.256,4.264,4.227,3.81,71.6,11,AutoTakeoff,
38.0965937,-120.1425852,5092.2618502883,1.968504,0,0.5680282334,4700,2018-05-10 22:18:02,13,0,25.356,5092.2618502883,1.968504,0.3131716,0.5680282334,0,0,0,330.2, 0.6, -0.7,0,0,1024,1024,1024,1024,328.5,-89.9,98,4.214,4.254,4.262,4.256,4.264,4.227,3.81,71.6,11,AutoTakeoff,
38.0965936,-120.1425853,5092.5899342883,2.296588,0,0.52195867812,4800,2018-05-10 22:18:02,13,0,25.356,5092.5899342883,2.296588,0.3131716,0.5680282334,0,0,0,330, 0.7, -0.7,0,0,1024,1024,1024,1024,328.5,-89.9,98,4.214,4.254,4.262,4.256,4.264,4.227,3.81,71.6,11,AutoTakeoff,
38.0965937,-120.1425853,5092.5899342883,2.296588,0,0.54808400704,4900,2018-05-10 22:18:02,13,0,25.356,5092.5899342883,2.296588,0.3131716,0.5680282334,0,0,0,329.9, 0.7, -0.6,0,0,1024,1024,1024,1024,328.5,-89.9,98,4.214,4.254,4.262,4.256,4.264,4.227,3.81,71.6,11,AutoTakeoff,
38.0965938,-120.1425852,5092.5899342883,2.296588,0,0.59436681692,5000,2018-05-10 22:18:02,13,0,23.97,5092.5899342883,2.296588,0.3131716,0.59436681692,0,0,-0.223694,329.9, 0.8, -0.6,0,0,1024,1024,1024,1024,328.5,-89.9,98,3.968,3.987,3.991,4.008,4.011,3.985,16.8,71.6,11,AutoTakeoff,
38.0965939,-120.1425852,5092.9180182883,2.624672,0,0.62173230336,5100,2018-05-10 22:18:02,13,0,23.97,5092.9180182883,2.624672,0.3131716,0.62173230336,0,0,-0.223694,329.9, 0.8, -0.8,0,0,1024,1024,1024,1024,328.5,-89.9,98,3.968,3.987,3.991,4.008,4.011,3.985,16.8,71.6,11,AutoTakeoff,
38.0965939,-120.1425852,5093.2461022883,2.952756,0,0.62173230336,5200,2018-05-10 22:18:03,13,0,23.97,5093.2461022883,2.952756,0.3131716,0.62173230336,0,0,-0.223694,329.9, 1, -0.9,0,0,1024,1024,1024,1024,328.5,-89.9,98,3.968,3.987,3.991,4.008,4.011,3.985,16.8,71.6,11,AutoTakeoff,
38.0965939,-120.1425852,5093.2461022883,2.952756,0,0.62173230336,5300,2018-05-10 22:18:03,12,0,23.97,5093.2461022883,2.952756,0.3131716,0.62173230336,0,0,-0.223694,329.8, 0.9, -1.2,0,0,1024,1024,1024,1024,328.5,-89.9,98,3.968,3.987,3.991,4.008,4.011,3.985,16.8,71.6,14,Waypoint,
38.096594,-120.1425852,5093.5741862883,3.28084,0,0.64999345912,5400,2018-05-10 22:18:03,12,0,23.97,5093.5741862883,3.28084,0.3131716,0.64999345912,0,0,0,329.6, 0.7, -1.2,0,0,1024,1024,1024,1024,328.5,-89.9,98,3.968,3.987,3.991,4.008,4.011,3.985,16.8,71.6,14,Waypoint,
38.096594,-120.1425852,5093.5741862883,3.28084,0,0.64999345912,5500,2018-05-10 22:18:03,12,0,23.97,5093.5741862883,3.28084,0.3131716,0.64999345912,0,0,0,329.3, 0.5, -0.6,0,0,1024,1024,1024,1024,328.5,-89.9,98,3.968,3.987,3.991,4.008,4.011,3.985,16.8,71.6,14,Waypoint,
38.096594,-120.1425852,5093.5741862883,3.28084,0,0.64999345912,5600,2018-05-10 22:18:03,12,0,23.97,5093.5741862883,3.28084,0.3131716,0.64999345912,0,0,0,328.9, 0.3, -0.3,0,0,1024,1024,1024,1024,328.5,-89.9,98,3.968,3.987,3.991,4.008,4.011,3.985,16.8,71.6,14,Waypoint,
38.0965941,-120.1425852,5093.5741862883,3.28084,0,0.67903873564,5700,2018-05-10 22:18:03,13,0,23.97,5093.5741862883,3.28084,0.3131716,0.67903873564,0,0,0,328.4, 0.4, -0.1,0,0,1024,1024,1024,1024,328.5,-89.9,98,3.968,3.987,3.991,4.008,4.011,3.985,16.8,71.6,14,Waypoint,
38.0965942,-120.1425854,5093.9022702883,3.608924,0,0.67785763324,5800,2018-05-10 22:18:03,13,0,23.97,5093.9022702883,3.608924,0.3131716,0.67903873564,0,0,0,327.8, 0.7, -0.1,0,0,1024,1024,1024,1024,328.5,-89.9,98,3.968,3.987,3.991,4.008,4.011,3.985,16.8,71.6,14,Waypoint,
38.0965943,-120.1425855,5093.9022702883,3.608924,0,0.696030206,5900,2018-05-10 22:18:03,13,0,23.97,5093.9022702883,3.608924,0.3131716,0.696030206,0,0,-0.223694,327.1, 1.3, -0.2,0,0,1024,1024,1024,1024,328.5,-89.9,98,3.968,3.987,3.991,4.008,4.011,3.985,16.8,71.6,14,Waypoint,
38.0965943,-120.1425856,5094.2303542883,3.937008,0,0.683480993,6000,2018-05-10 22:18:03,13,0,23.742,5094.2303542883,3.937008,0.3131716,0.696030206,0,0,-0.223694,326.5, 1.7, -0.3,0,0,1024,1024,1024,1024,328.5,-89.9,98,3.938,3.946,3.96,3.964,3.986,3.946,17.421,71.6,14,Waypoint,
38.0965943,-120.1425857,5094.5584382883,4.265092,0,0.67192259368,6110,2018-05-10 22:18:03,12,0,23.742,5094.5584382883,4.265092,0.3131716,0.696030206,0,0,-0.223694,326, 1.8, 0,0,0,1024,1024,1024,1024,328.5,-89.9,98,3.938,3.946,3.96,3.964,3.986,3.946,17.421,71.6,14,Waypoint,
38.0965944,-120.1425858,5094.8865222883,4.593176,0,0.69574149208,6200,2018-05-10 22:18:04,12,0,23.742,5094.8865222883,4.593176,0.3131716,0.696030206,0,0,-0.223694,325.4, 1.6, 0.4,0,0,1024,1024,1024,1024,328.3,-89.9,98,3.938,3.946,3.96,3.964,3.986,3.946,17.421,71.6,14,Waypoint,
38.0965944,-120.1425858,5095.2146062883,4.92126,0,0.69574149208,6300,2018-05-10 22:18:04,13,0,23.742,5095.2146062883,4.92126,0.3131716,0.696030206,0,0,-0.223694,325, 1.5, 0.5,0,0,1024,1024,1024,1024,328.3,-89.9,98,3.938,3.946,3.96,3.964,3.986,3.946,17.421,71.6,14,Waypoint,
38.0965944,-120.1425858,5095.8707742883,5.577428,0,0.69574149208,6500,2018-05-10 22:18:04,13,0,23.742,5095.8707742883,5.577428,0.3131716,0.696030206,0,0,-0.447388,324.8, 1.7, 0.5,0,0,1024,1024,1024,1024,328.1,-89.9,98,3.938,3.946,3.96,3.964,3.986,3.946,17.421,71.6,14,Waypoint,
38.0965945,-120.1425857,5096.1988582883,5.905512,0,0.7398130158,6600,2018-05-10 22:18:04,14,0,23.742,5096.1988582883,5.905512,0.3131716,0.7398130158,0,0,-0.447388,324.7, 1.8, 0.2,0,0,1024,1024,1024,1024,328,-89.9,98,3.938,3.946,3.96,3.964,3.986,3.946,17.421,71.6,14,Waypoint,
38.0965946,-120.1425856,5096.8550262883,6.56168,0,0.78415684924,6700,2018-05-10 22:18:04,14,0,23.742,5096.8550262883,6.56168,0.3131716,0.78415684924,0,0,-0.447388,324.7, 1.4, -0.3,0,0,1024,1024,1024,1024,327.9,-89.9,98,3.938,3.946,3.96,3.964,3.986,3.946,17.421,71.6,14,Waypoint,
38.0965948,-120.1425854,5098.4954462883,8.2021,0,0.87349412244,6800,2018-05-10 22:18:04,13,0,23.742,5098.4954462883,8.2021,0.3131716,0.87349412244,0,0,-0.671082,324.8, 0.8, -1.5,0,0,1024,1024,1024,1024,327.8,-90,98,3.938,3.946,3.96,3.964,3.986,3.946,17.421,71.6,14,Waypoint,
38.0965949,-120.1425854,5099.4796982883,9.186352,0,0.9071358558,6900,2018-05-10 22:18:04,14,0,23.742,5099.4796982883,9.186352,0.3131716,0.9071358558,0,0,-0.671082,324.9, 1.2, -1.6,0,0,1024,1024,1024,1024,327.7,-89.9,98,3.938,3.946,3.96,3.964,3.986,3.946,17.421,71.6,14,Waypoint,
38.096595,-120.1425853,5101.4482022883,11.154856,0,0.95187667088,7100,2018-05-10 22:18:04,13,0,23.742,5101.4482022883,11.154856,0.3131716,0.95187667088,0,0,-0.671082,325.2, 1.6, -0.3,0,0,1024,1024,1024,1024,327.6,-89.9,98,3.938,3.946,3.96,3.964,3.986,3.946,17.421,71.6,14,Waypoint,
38.096595,-120.1425851,5102.4324542883,12.139108,0,0.97582680288,7200,2018-05-10 22:18:05,13,0,23.742,5102.4324542883,12.139108,0.3131716,0.97582680288,0,0,-0.671082,325.2, 1.2, -0.4,0,0,1024,1024,1024,1024,327.5,-89.9,98,3.938,3.946,3.96,3.964,3.986,3.946,17.421,71.6,14,Waypoint,
38.0965951,-120.142585,5103.7447902883,13.451444,0,1.02128284108,7300,2018-05-10 22:18:05,14,0,23.742,5103.7447902883,13.451444,0.3131716,1.02128284108,0,0,-0.671082,325.1, 0.7, -1.2,0,0,1024,1024,1024,1024,327.4,-89.9,98,3.938,3.946,3.96,3.964,3.986,3.946,17.421,71.6,14,Waypoint,
38.0965951,-120.1425849,5104.7290422883,14.435696,0,1.03451774964,7400,2018-05-10 22:18:05,14,0,23.742,5104.7290422883,14.435696,0.3131716,1.03451774964,0,0,-0.671082,324.9, 0.1, -2.1,0,0,1024,1024,1024,1024,327.4,-90,98,3.938,3.946,3.96,3.964,3.986,3.946,17.421,71.6,14,Waypoint,
38.0965951,-120.1425848,5106.0413782883,15.748032,0,1.04836945612,7500,2018-05-10 22:18:05,14,0,23.742,5106.0413782883,15.748032,0.3131716,1.04836945612,0,0,-0.671082,324.8, 0.2, -2.4,0,0,1024,1024,1024,1024,327.3,-90,98,3.938,3.946,3.96,3.964,3.986,3.946,17.421,71.6,14,Waypoint,
38.0965951,-120.1425847,5107.3537142883,17.060368,0,1.06281827548,7600,2018-05-10 22:18:05,14,0,23.742,5107.3537142883,17.060368,0.3131716,1.06281827548,0,0,-0.671082,324.8, 0, -2.1,0,0,1024,1024,1024,1024,327.2,-90,98,3.938,3.946,3.96,3.964,3.986,3.946,17.421,71.6,14,Waypoint,
38.096595,-120.1425846,5108.3379662883,18.04462,0,1.04714242196,7700,2018-05-10 22:18:05,14,0,23.742,5108.3379662883,18.04462,0.3131716,1.06281827548,0,0,-0.671082,324.9, 0.1, -1.7,0,0,1024,1024,1024,1024,327.1,-90,98,3.938,3.946,3.96,3.964,3.986,3.946,17.421,71.6,14,Waypoint,
38.096595,-120.1425846,5109.3222182883,19.028872,0,1.04714242196,7800,2018-05-10 22:18:05,14,0,23.742,5109.3222182883,19.028872,0.3131716,1.06281827548,0,0,-0.671082,325.1, 0.1, -1.3,0,0,1024,1024,1024,1024,327.1,-90,98,3.938,3.946,3.96,3.964,3.986,3.946,17.421,71.6,14,Waypoint,
38.0965949,-120.1425845,5110.6345542883,20.341208,0.223694,1.0333169622,7900,2018-05-10 22:18:05,14,0,23.742,5110.6345542883,20.341208,0.3131716,1.06281827548,0,0,-0.671082,325.2, -0.1, -1.1,0,0,1024,1024,1024,1024,327.1,-90,98,3.938,3.946,3.96,3.964,3.986,3.946,17.421,71.6,14,Waypoint,
38.0965947,-120.1425844,5111.6188062883,21.32546,0.223694,0.99300200028,8000,2018-05-10 22:18:05,14,0,23.067,5111.6188062883,21.32546,0.3131716,1.06281827548,0,0,-0.671082,325.3, -0.4, -0.8,0,0,1024,1024,1024,1024,327,-89.9,98,3.896,3.962,3.919,3.977,3.972,3.903,23.823,71.6,14,Waypoint,
38.0965946,-120.1425844,5112.6030582883,22.309712,0.223694,0.96513126448,8100,2018-05-10 22:18:05,14,0,23.067,5112.6030582883,22.309712,0.3131716,1.06281827548,0,0,-0.671082,325.3, -0.7, -0.4,0,0,1024,1024,1024,1024,326.9,-89.9,98,3.896,3.962,3.919,3.977,3.972,3.903,23.823,71.6,14,Waypoint,
38.0965944,-120.1425845,5113.5873102883,23.293964,0.223694,0.89154858496,8200,2018-05-10 22:18:06,14,0,23.067,5113.5873102883,23.293964,0.3131716,1.06281827548,0,0,-0.671082,325.2, -0.9, -0.1,0,0,1024,1024,1024,1024,326.9,-89.9,98,3.896,3.962,3.919,3.977,3.972,3.903,23.823,71.6,14,Waypoint,
38.0965943,-120.1425846,5114.5715622883,24.278216,0.223694,0.84526249424,8300,2018-05-10 22:18:06,14,0,23.067,5114.5715622883,24.278216,0.3131716,1.06281827548,0,0,-0.671082,325.1, -0.9, 0,0,0,1024,1024,1024,1024,326.9,-89.9,98,3.896,3.962,3.919,3.977,3.972,3.903,23.823,71.6,14,Waypoint,
38.0965942,-120.1425846,5115.5558142883,25.262468,0.223694,0.8188648556,8420,2018-05-10 22:18:06,14,0,23.067,5115.5558142883,25.262468,0.3131716,1.06281827548,0,0,-0.671082,325.1, -0.9, 0.1,0,0,1024,1024,1024,1024,326.8,-89.9,98,3.896,3.962,3.919,3.977,3.972,3.903,23.823,71.6,14,Waypoint,
38.096594,-120.1425846,5116.5400662883,26.24672,0.223694,0.76854989336,8500,2018-05-10 22:18:06,14,0,23.067,5116.5400662883,26.24672,0.3131716,1.06281827548,0,0,-0.671082,324.9, -1.1, 0.4,0,0,1024,1024,1024,1024,326.8,-89.9,98,3.896,3.962,3.919,3.977,3.972,3.903,23.823,71.6,14,Waypoint,
38.0965938,-120.1425846,5117.8524022883,27.559056,0.223694,0.72211616484,8700,2018-05-10 22:18:06,14,0,23.067,5117.8524022883,27.559056,0.3131716,1.06281827548,0,0,-0.671082,324.8, -1.2, 0.9,0,0,1024,1024,1024,1024,326.7,-89.9,98,3.896,3.962,3.919,3.977,3.972,3.903,23.823,71.6,14,Waypoint,
38.0965937,-120.1425847,5118.8366542883,28.543308,0,0.67726052036,8800,2018-05-10 22:18:06,14,0,23.067,5118.8366542883,28.543308,0.3131716,1.06281827548,0,0,-0.671082,324.6, -1.1, 1.1,0,0,1024,1024,1024,1024,326.7,-89.9,98,3.896,3.962,3.919,3.977,3.972,3.903,23.823,71.6,14,Waypoint,
38.0965936,-120.1425847,5120.8051582883,30.511812,0,0.6562992336,8900,2018-05-10 22:18:06,13,0,23.067,5120.8051582883,30.511812,0.3131716,1.06281827548,0,0,-0.671082,324.6, -0.7, 0.6,0,0,1024,1024,1024,1024,326.7,-89.9,98,3.896,3.962,3.919,3.977,3.972,3.903,23.823,71.6,14,Waypoint,
38.0965935,-120.1425847,5121.7894102883,31.496064,0,0.63673886552,9000,2018-05-10 22:18:06,13,0,23.067,5121.7894102883,31.496064,0.3131716,1.06281827548,0,0,-0.671082,324.7, -0.5, 0.3,0,0,1024,1024,1024,1024,326.6,-89.9,98,3.821,3.833,3.845,3.857,3.868,3.869,23.823,71.6,14,Waypoint,
38.0965935,-120.1425848,5122.7736622883,32.480316,0,0.6123195734,9100,2018-05-10 22:18:06,14,0,23.067,5122.7736622883,32.480316,0.3131716,1.06281827548,0,0,-0.671082,324.8, -0.3, 0.2,0,0,1024,1024,1024,1024,326.6,-89.9,98,3.821,3.833,3.845,3.857,3.868,3.869,23.823,71.6,14,Waypoint,
38.0965934,-120.1425848,5124.0859982883,33.792652,0,0.5935531686,9200,2018-05-10 22:18:07,14,0,23.067,5124.0859982883,33.792652,0.3131716,1.06281827548,0,0,-0.671082,324.9, -0.4, 0,0,0,1024,1024,1024,1024,326.6,-89.9,98,3.821,3.833,3.845,3.857,3.868,3.869,23.823,71.6,14,Waypoint,
38.0965933,-120.1425849,5125.0702502883,34.776904,0,0.55089240608,9300,2018-05-10 22:18:07,13,0,23.067,5125.0702502883,34.776904,0.3131716,1.06281827548,0,0,-0.671082,325, -0.6, 0.1,0,0,1024,1024,1024,1024,326.6,-89.9,98,3.821,3.833,3.845,3.857,3.868,3.869,23.823,71.6,14,Waypoint,
38.0965933,-120.1425849,5126.0545022883,35.761156,0,0.55089240608,9400,2018-05-10 22:18:07,13,0,23.067,5126.0545022883,35.761156,0.3131716,1.06281827548,0,0,-0.671082,325, -0.5, 0.2,0,0,1024,1024,1024,1024,326.5,-89.9,98,3.821,3.833,3.845,3.857,3.868,3.869,23.823,71.6,14,Waypoint,
38.0965932,-120.142585,5127.0387542883,36.745408,0,0.5088910924,9500,2018-05-10 22:18:07,14,0,23.067,5127.0387542883,36.745408,0.3131716,1.06281827548,0,0,-0.671082,325.2, -0.1, 0.2,0,0,1024,1024,1024,1024,326.5,-89.9,98,3.821,3.833,3.845,3.857,3.868,3.869,23.823,71.6,14,Waypoint,
38.0965932,-120.1425851,5128.0230062883,37.72966,0,0.48312993672,9600,2018-05-10 22:18:07,14,0,23.067,5128.0230062883,37.72966,0.3131716,1.06281827548,0,0,-0.671082,325.4, 0.1, 0.4,0,0,1024,1024,1024,1024,326.5,-89.9,98,3.821,3.833,3.845,3.857,3.868,3.869,23.823,71.6,14,Waypoint,
38.0965932,-120.1425851,5129.0072582883,38.713912,0,0.48312993672,9700,2018-05-10 22:18:07,14,0,23.067,5129.0072582883,38.713912,0.3131716,1.06281827548,0,0,-0.671082,325.5, 0, 0.4,0,0,1024,1024,1024,1024,326.5,-89.9,98,3.821,3.833,3.845,3.857,3.868,3.869,23.823,71.6,14,Waypoint,
38.0965932,-120.1425851,5129.9915102883,39.698164,0,0.48312993672,9800,2018-05-10 22:18:07,14,0,23.067,5129.9915102883,39.698164,0.3131716,1.06281827548,0,0,-0.671082,325.6, 0, 0.6,0,0,1024,1024,1024,1024,326.4,-89.9,98,3.821,3.833,3.845,3.857,3.868,3.869,23.823,71.6,14,Waypoint,
38.0965931,-120.1425852,5131.3038462883,41.0105,0,0.44143374116,9910,2018-05-10 22:18:07,14,0,23.067,5131.3038462883,41.0105,0.3131716,1.06281827548,0,0,-0.671082,325.6, 0, 0.6,0,0,1024,1024,1024,1024,326.4,-89.9,98,3.821,3.833,3.845,3.857,3.868,3.869,23.823,71.6,14,Waypoint,
38.0965931,-120.1425852,5132.2880982883,41.994752,0,0.44143374116,10000,2018-05-10 22:18:07,14,0,23.377,5132.2880982883,41.994752,0.3131716,1.06281827548,0,0,-0.671082,325.6, 0, 0.5,0,0,1024,1024,1024,1024,326.4,-89.9,98,3.875,3.869,3.895,3.906,3.919,3.887,18.667,71.6,14,Waypoint,
38.0965931,-120.1425852,5133.2723502883,42.979004,0,0.44143374116,10100,2018-05-10 22:18:07,13,0,23.377,5133.2723502883,42.979004,0.3131716,1.06281827548,0,0,-0.671082,325.5, -0.2, 0.4,0,0,1024,1024,1024,1024,326.3,-89.9,98,3.875,3.869,3.895,3.906,3.919,3.887,18.667,71.6,14,Waypoint,
38.0965931,-120.1425853,5134.2566022883,43.963256,0,0.41545605004,10200,2018-05-10 22:18:08,13,0,23.377,5134.2566022883,43.963256,0.3131716,1.06281827548,0,0,-0.671082,325.3, -0.1, 0.5,0,0,1024,1024,1024,1024,326.3,-89.9,98,3.875,3.869,3.895,3.906,3.919,3.887,18.667,71.6,14,Waypoint,
38.096593,-120.1425853,5135.2408542883,44.947508,0,0.40078085272,10300,2018-05-10 22:18:08,13,0,23.377,5135.2408542883,44.947508,0.3131716,1.06281827548,0,0,-0.671082,325.2, 0, 0.5,0,0,1024,1024,1024,1024,326.3,-89.9,98,3.875,3.869,3.895,3.906,3.919,3.887,18.667,71.6,14,Waypoint,
38.096593,-120.1425853,5136.2251062883,45.93176,0,0.40078085272,10430,2018-05-10 22:18:08,13,0,23.377,5136.2251062883,45.93176,0.3131716,1.06281827548,0,0,-0.671082,325.1, 0.1, 0.6,0,0,1024,1024,1024,1024,326.3,-89.9,98,3.875,3.869,3.895,3.906,3.919,3.887,18.667,71.6,14,Waypoint,
38.096593,-120.1425853,5136.2251062883,45.93176,0,0.40078085272,10500,2018-05-10 22:18:08,13,0,23.377,5136.2251062883,45.93176,0.3131716,1.06281827548,0,0,-0.671082,325.1, 0.1, 0.6,0,0,1024,1024,1024,1024,326.3,-89.9,98,3.875,3.869,3.895,3.906,3.919,3.887,18.667,71.6,14,Waypoint,
38.096593,-120.1425853,5138.1936102883,47.900264,0,0.40078085272,10700,2018-05-10 22:18:08,14,0,23.377,5138.1936102883,47.900264,0.3131716,1.06281827548,0,0,-0.671082,325, 0, 0.2,0,0,1024,1024,1024,1024,326.2,-89.9,98,3.875,3.869,3.895,3.906,3.919,3.887,18.667,71.6,14,Waypoint,
38.0965931,-120.1425852,5140.1621142883,49.868768,0,0.44143374116,10800,2018-05-10 22:18:08,14,0,23.377,5140.1621142883,49.868768,0.3131716,1.06281827548,0,0,-0.671082,325, -0.1, -0.1,0,0,1024,1024,1024,1024,326.2,-89.9,98,3.875,3.869,3.895,3.906,3.919,3.887,18.667,71.6,14,Waypoint,
38.0965931,-120.1425852,5141.4744502883,51.181104,0,0.44143374116,10900,2018-05-10 22:18:08,14,0,23.377,5141.4744502883,51.181104,0.3131716,1.06281827548,0,0,-0.671082,325, -0.1, -0.4,0,0,1024,1024,1024,1024,326.2,-89.9,98,3.875,3.869,3.895,3.906,3.919,3.887,18.667,71.6,14,Waypoint,
38.0965932,-120.1425852,5142.4587022883,52.165356,0,0.45771983092,11000,2018-05-10 22:18:08,14,0,23.302,5142.4587022883,52.165356,0.3131716,1.06281827548,0,0,-0.671082,325, -0.1, -0.6,0,0,1024,1024,1024,1024,326.2,-89.9,98,3.874,3.873,3.896,3.895,3.912,3.873,19.908,71.6,14,Waypoint,
38.0965932,-120.1425852,5143.4429542883,53.149608,0,0.45771983092,11100,2018-05-10 22:18:08,14,0,23.302,5143.4429542883,53.149608,0.3131716,1.06281827548,0,0,-0.671082,324.9, -0.1, -0.6,0,0,1024,1024,1024,1024,326.2,-89.9,98,3.874,3.873,3.896,3.895,3.912,3.873,19.908,71.6,14,Waypoint,
38.0965932,-120.1425852,5144.4272062883,54.13386,0,0.45771983092,11200,2018-05-10 22:18:09,14,0,23.302,5144.4272062883,54.13386,0.3131716,1.06281827548,0,0,-0.671082,324.9, -0.2, -0.4,0,0,1024,1024,1024,1024,326.2,-89.9,98,3.874,3.873,3.896,3.895,3.912,3.873,19.908,71.6,14,Waypoint,
38.0965933,-120.1425852,5145.4114582883,55.118112,0,0.4762467344,11300,2018-05-10 22:18:09,14,0,23.302,5145.4114582883,55.118112,0.3131716,1.06281827548,0,0,-0.671082,324.8, -0.1, -0.2,0,0,1024,1024,1024,1024,326.1,-89.9,98,3.874,3.873,3.896,3.895,3.912,3.873,19.908,71.6,14,Waypoint,
38.0965933,-120.1425851,5146.3957102883,56.102364,0,0.50071851996,11400,2018-05-10 22:18:09,14,0,23.302,5146.3957102883,56.102364,0.3131716,1.06281827548,0,0,-0.671082,324.8, 0, -0.2,0,0,1024,1024,1024,1024,326.1,-89.9,98,3.874,3.873,3.896,3.895,3.912,3.873,19.908,71.6,14,Waypoint,
38.0965934,-120.1425851,5147.3799622883,57.086616,0,0.5202756072,11500,2018-05-10 22:18:09,14,0,23.302,5147.3799622883,57.086616,0.3131716,1.06281827548,0,0,-0.671082,324.8, 0, -0.5,0,0,1024,1024,1024,1024,326.1,-89.9,98,3.874,3.873,3.896,3.895,3.912,3.873,19.908,71.6,14,Waypoint,
38.0965935,-120.142585,5148.3642142883,58.070868,0,0.56468833828,11600,2018-05-10 22:18:09,14,0,23.302,5148.3642142883,58.070868,0.3131716,1.06281827548,0,0,-0.671082,324.7, 0, -0.8,0,0,1024,1024,1024,1024,326.1,-89.9,98,3.874,3.873,3.896,3.895,3.912,3.873,19.908,71.6,14,Waypoint,
38.0965935,-120.1425849,5149.3484662883,59.05512,0,0.58828413956,11700,2018-05-10 22:18:09,14,0,23.302,5149.3484662883,59.05512,0.3131716,1.06281827548,0,0,-0.671082,324.7, 0.1, -1.2,0,0,1024,1024,1024,1024,326.1,-89.9,98,3.874,3.873,3.896,3.895,3.912,3.873,19.908,71.6,14,Waypoint,
38.0965936,-120.1425848,5150.3327182883,60.039372,0,0.63263453468,11800,2018-05-10 22:18:09,14,0,23.302,5150.3327182883,60.039372,0.3131716,1.06281827548,0,0,-0.671082,324.7, 0.2, -1.4,0,0,1024,1024,1024,1024,326.1,-89.9,98,3.874,3.873,3.896,3.895,3.912,3.873,19.908,71.6,14,Waypoint,
38.0965936,-120.1425848,5151.3169702883,61.023624,0,0.63263453468,11900,2018-05-10 22:18:09,14,0,23.302,5151.3169702883,61.023624,0.3131716,1.06281827548,0,0,-0.671082,324.8, 0.2, -1.3,0,0,1024,1024,1024,1024,326,-89.9,98,3.874,3.873,3.896,3.895,3.912,3.873,19.908,71.6,14,Waypoint,
38.0965936,-120.1425847,5152.3012222883,62.007876,0,0.6562992336,12000,2018-05-10 22:18:09,14,0,23.351,5152.3012222883,62.007876,0.3131716,1.06281827548,0,0,-0.671082,324.9, 0.1, -1.2,0,0,1024,1024,1024,1024,326,-89.9,98,3.878,3.879,3.896,3.898,3.925,3.873,18.734,71.6,14,Waypoint,
38.0965937,-120.1425847,5153.2854742883,62.992128,0,0.67726052036,12100,2018-05-10 22:18:09,14,0,23.351,5153.2854742883,62.992128,0.3131716,1.06281827548,0,0,-0.671082,325, -0.1, -1,0,0,1024,1024,1024,1024,326,-89.9,98,3.878,3.879,3.896,3.898,3.925,3.873,18.734,71.6,14,Waypoint,
38.0965937,-120.1425846,5153.9416422883,63.648296,0,0.70059713528,12200,2018-05-10 22:18:10,14,0,23.351,5153.9416422883,63.648296,0.3131716,1.06281827548,0,0,-0.671082,325, -0.4, -0.5,0,0,1024,1024,1024,1024,326,-90,98,3.878,3.879,3.896,3.898,3.925,3.873,18.734,71.6,14,Waypoint,
38.0965937,-120.1425846,5154.9258942883,64.632548,0,0.70059713528,12300,2018-05-10 22:18:10,14,0,23.351,5154.9258942883,64.632548,0.3131716,1.06281827548,0,0,-0.671082,324.9, -0.7, -0.3,0,0,1024,1024,1024,1024,326,-90,98,3.878,3.879,3.896,3.898,3.925,3.873,18.734,71.6,14,Waypoint,
38.0965937,-120.1425846,5155.9101462883,65.6168,0,0.70059713528,12400,2018-05-10 22:18:10,14,0,23.351,5155.9101462883,65.6168,0.3131716,1.06281827548,0,0,-0.671082,324.9, -0.8, -0.4,0,0,1024,1024,1024,1024,326,-89.9,98,3.878,3.879,3.896,3.898,3.925,3.873,18.734,71.6,14,Waypoint,
38.0965937,-120.1425846,5156.8943982883,66.601052,0,0.70059713528,12500,2018-05-10 22:18:10,14,0,23.351,5156.8943982883,66.601052,0.3131716,1.06281827548,0,0,-0.671082,324.9, -0.6, -0.4,0,0,1024,1024,1024,1024,326,-89.9,98,3.878,3.879,3.896,3.898,3.925,3.873,18.734,71.6,14,Waypoint,
38.0965938,-120.1425845,5157.8786502883,67.585304,0,0.74515422332,12610,2018-05-10 22:18:10,14,0,23.351,5157.8786502883,67.585304,0.3131716,1.06281827548,0,0,-0.671082,324.9, -0.4, -0.6,0,0,1024,1024,1024,1024,326,-89.9,98,3.878,3.879,3.896,3.898,3.925,3.873,18.734,71.6,14,Waypoint,
38.0965939,-120.1425844,5159.8471542883,69.553808,0,0.78992456596,12800,2018-05-10 22:18:10,14,0,23.351,5159.8471542883,69.553808,0.3131716,1.06281827548,0,0,-0.671082,324.9, -0.2, -0.8,0,0,1024,1024,1024,1024,326,-89.9,98,3.878,3.879,3.896,3.898,3.925,3.873,18.734,71.6,14,Waypoint,
38.096594,-120.1425844,5160.8314062883,70.53806,0,0.81235566904,12900,2018-05-10 22:18:10,14,0,23.351,5160.8314062883,70.53806,0.3131716,1.06281827548,0,0,-0.671082,324.8, -0.1, -0.9,0,0,1024,1024,1024,1024,326,-89.9,98,3.878,3.879,3.896,3.898,3.925,3.873,18.734,71.6,14,Waypoint,
38.096594,-120.1425843,5162.7999102883,72.506564,0,0.83487863564,13110,2018-05-10 22:18:10,14,0,23.351,5162.7999102883,72.506564,0.3131716,1.06281827548,0,0,-0.671082,324.5, -0.1, -1.4,0,0,1024,1024,1024,1024,326,-89.9,98,3.878,3.879,3.896,3.898,3.925,3.873,18.734,71.6,14,Waypoint,
38.0965941,-120.1425842,5163.7841622883,73.490816,0,0.87998362396,13300,2018-05-10 22:18:11,14,0,23.351,5163.7841622883,73.490816,0.3131716,1.06281827548,0,0,-0.671082,324.4, -0.1, -1.4,0,0,1024,1024,1024,1024,326,-89.9,98,3.878,3.879,3.896,3.898,3.925,3.873,18.734,71.6,14,Waypoint,
38.0965942,-120.1425841,5165.7526662883,75.45932,0,0.92521984588,13400,2018-05-10 22:18:11,14,0,23.351,5165.7526662883,75.45932,0.3131716,1.06281827548,0,0,-0.671082,324.4, -0.3, -1.2,0,0,1024,1024,1024,1024,326,-89.9,98,3.878,3.879,3.896,3.898,3.925,3.873,18.734,71.6,14,Waypoint,
38.0965942,-120.1425841,5166.7369182883,76.443572,0,0.92521984588,13500,2018-05-10 22:18:11,14,0,23.351,5166.7369182883,76.443572,0.3131716,1.06281827548,0,0,-0.671082,324.5, -0.3, -1.1,0,0,1024,1024,1024,1024,326,-89.9,98,3.878,3.879,3.896,3.898,3.925,3.873,18.734,71.6,14,Waypoint,
38.0965942,-120.1425841,5168.0492542883,77.755908,0,0.92521984588,13600,2018-05-10 22:18:11,14,0,23.351,5168.0492542883,77.755908,0.3131716,1.06281827548,0,0,-0.671082,324.7, -0.2, -1.1,0,0,1024,1024,1024,1024,326,-89.9,98,3.878,3.879,3.896,3.898,3.925,3.873,18.734,71.6,14,Waypoint,
38.0965942,-120.142584,5169.0335062883,78.74016,0,0.947670634,13700,2018-05-10 22:18:11,14,0,23.351,5169.0335062883,78.74016,0.3131716,1.06281827548,0,0,-0.671082,324.9, -0.3, -1,0,0,1024,1024,1024,1024,326,-89.9,98,3.878,3.879,3.896,3.898,3.925,3.873,18.734,71.6,14,Waypoint,
38.0965942,-120.142584,5170.0177582883,79.724412,0,0.947670634,13800,2018-05-10 22:18:11,14,0,23.351,5170.0177582883,79.724412,0.3131716,1.06281827548,0,0,-0.671082,325, -0.4, -0.9,0,0,1024,1024,1024,1024,326,-89.9,98,3.878,3.879,3.896,3.898,3.925,3.873,18.734,71.6,14,Waypoint,
38.0965942,-120.142584,5171.0020102883,80.708664,0,0.947670634,13900,2018-05-10 22:18:11,14,0,23.351,5171.0020102883,80.708664,0.3131716,1.06281827548,0,0,-0.671082,325.2, -0.4, -1.1,0,0,1024,1024,1024,1024,326,-89.9,98,3.878,3.879,3.896,3.898,3.925,3.873,18.734,71.6,14,Waypoint,
38.0965943,-120.142584,5171.9862622883,81.692916,0,0.9705708972,14000,2018-05-10 22:18:11,14,0,23.306,5171.9862622883,81.692916,0.3131716,1.06281827548,0,0,-0.671082,325.3, -0.3, -1.3,0,0,1024,1024,1024,1024,326,-89.9,97,3.865,3.873,3.885,3.893,3.92,3.88,18.547,71.6,14,Waypoint,
38.0965943,-120.1425839,5172.9705142883,82.677168,0,0.99282483492,14100,2018-05-10 22:18:11,14,0,23.306,5172.9705142883,82.677168,0.3131716,1.06281827548,0,0,-0.671082,325.4, -0.2, -1.4,0,0,1024,1024,1024,1024,326,-89.9,97,3.865,3.873,3.885,3.893,3.92,3.88,18.547,71.6,14,Waypoint,
38.0965943,-120.1425839,5173.9547662883,83.66142,0,0.99282483492,14200,2018-05-10 22:18:12,14,0,23.306,5173.9547662883,83.66142,0.3131716,1.06281827548,0,0,-0.671082,325.4, -0.1, -1.4,0,0,1024,1024,1024,1024,326,-89.9,97,3.865,3.873,3.885,3.893,3.92,3.88,18.547,71.6,14,Waypoint,
38.0965942,-120.1425839,5174.9390182883,84.645672,0,0.97044950612,14300,2018-05-10 22:18:12,14,0,23.306,5174.9390182883,84.645672,0.3131716,1.06281827548,0,0,-0.671082,325.4, 0, -1.4,0,0,1024,1024,1024,1024,326,-89.9,97,3.865,3.873,3.885,3.893,3.92,3.88,18.547,71.6,14,Waypoint,
38.0965942,-120.142584,5175.9232702883,85.629924,0,0.947670634,14400,2018-05-10 22:18:12,14,0,23.306,5175.9232702883,85.629924,0.3131716,1.06281827548,0,0,-0.671082,325.4, -0.2, -1,0,0,1024,1024,1024,1024,326,-89.9,97,3.865,3.873,3.885,3.893,3.92,3.88,18.547,71.6,14,Waypoint,
38.0965941,-120.142584,5176.5794382883,86.286092,0,0.92564307424,14500,2018-05-10 22:18:12,14,0,23.306,5176.5794382883,86.286092,0.3131716,1.06281827548,0,0,-0.671082,325.3, -0.5, -0.8,0,0,1024,1024,1024,1024,326,-90,97,3.865,3.873,3.885,3.893,3.92,3.88,18.547,71.6,14,Waypoint,
38.0965941,-120.142584,5177.5636902883,87.270344,0,0.92564307424,14600,2018-05-10 22:18:12,14,0,23.306,5177.5636902883,87.270344,0.3131716,1.06281827548,0,0,-0.671082,325.2, -1, -0.8,0,0,1024,1024,1024,1024,326,-90,97,3.865,3.873,3.885,3.893,3.92,3.88,18.547,71.6,14,Waypoint,
38.096594,-120.142584,5178.5479422883,88.254596,0,0.90455055388,14700,2018-05-10 22:18:12,14,0,23.306,5178.5479422883,88.254596,0.3131716,1.06281827548,0,0,-0.671082,325.1, -1.4, -0.8,0,0,1024,1024,1024,1024,326,-89.9,97,3.865,3.873,3.885,3.893,3.92,3.88,18.547,71.6,14,Waypoint,
38.096594,-120.142584,5179.5321942883,89.238848,0,0.90455055388,14800,2018-05-10 22:18:12,14,0,23.306,5179.5321942883,89.238848,0.3131716,1.06281827548,0,0,-0.671082,325.1, -1.3, -0.2,0,0,1024,1024,1024,1024,326,-89.9,97,3.865,3.873,3.885,3.893,3.92,3.88,18.547,71.6,14,Waypoint,
38.096594,-120.1425841,5180.5164462883,90.2231,0,0.88100068436,14900,2018-05-10 22:18:12,14,0,23.306,5180.5164462883,90.2231,0.3131716,1.06281827548,0,0,-0.671082,325, -1.1, 0,0,0,1024,1024,1024,1024,326,-89.9,97,3.865,3.873,3.885,3.893,3.92,3.88,18.547,71.6,14,Waypoint,
38.0965939,-120.1425841,5181.5006982883,91.207352,0,0.86036091992,15000,2018-05-10 22:18:12,14,0,23.355,5181.5006982883,91.207352,0.3131716,1.06281827548,0,0,-0.671082,325, -0.6, 0,0,0,1024,1024,1024,1024,326,-89.9,97,3.874,3.885,3.903,3.907,3.921,3.888,17.779,71.6,14,Waypoint,
38.0965939,-120.1425842,5182.1568662883,91.86352,0,0.83655514488,15100,2018-05-10 22:18:12,14,0,23.355,5182.1568662883,91.86352,0.3131716,1.06281827548,0,0,-0.671082,325, -0.3, 0,0,0,1024,1024,1024,1024,326,-89.9,97,3.874,3.885,3.903,3.907,3.921,3.888,17.779,71.6,14,Waypoint,
38.0965939,-120.1425843,5183.4692022883,93.175856,0,0.81306761132,15200,2018-05-10 22:18:13,14,0,23.355,5183.4692022883,93.175856,0.3131716,1.06281827548,0,0,-0.671082,325, -0.1, 0.2,0,0,1024,1024,1024,1024,326,-89.9,97,3.874,3.885,3.903,3.907,3.921,3.888,17.779,71.6,14,Waypoint,
38.0965938,-120.1425844,5184.1253702883,93.832024,0,0.76857285924,15400,2018-05-10 22:18:13,14,0,23.355,5184.1253702883,93.832024,0.3131716,1.06281827548,0,0,-0.671082,325, 0, 0.5,0,0,1024,1024,1024,1024,326,-89.9,97,3.874,3.885,3.903,3.907,3.921,3.888,17.779,71.6,14,Waypoint,
38.0965938,-120.1425845,5185.1096222883,94.816276,0,0.74515422332,15500,2018-05-10 22:18:13,14,0,23.355,5185.1096222883,94.816276,0.3131716,1.06281827548,0,0,-0.671082,324.9, 0, 0.6,0,0,1024,1024,1024,1024,326,-89.9,97,3.874,3.885,3.903,3.907,3.921,3.888,17.779,71.6,14,Waypoint,
38.0965937,-120.1425845,5186.0938742883,95.800528,0,0.72431760848,15600,2018-05-10 22:18:13,14,0,23.355,5186.0938742883,95.800528,0.3131716,1.06281827548,0,0,-0.671082,325, -0.1, 0.3,0,0,1024,1024,1024,1024,326,-89.9,97,3.874,3.885,3.903,3.907,3.921,3.888,17.779,71.6,14,Waypoint,
38.0965937,-120.1425846,5187.0781262883,96.78478,0,0.70059713528,15700,2018-05-10 22:18:13,14,0,23.355,5187.0781262883,96.78478,0.3131716,1.06281827548,0,0,-0.671082,325, -0.5, 0,0,0,1024,1024,1024,1024,326,-89.9,97,3.874,3.885,3.903,3.907,3.921,3.888,17.779,71.6,14,Waypoint,
38.0965936,-120.1425847,5189.0466302883,98.753284,0,0.6562992336,15800,2018-05-10 22:18:13,14,0,23.355,5189.0466302883,98.753284,0.3131716,1.06281827548,0,0,-0.671082,325.2, -0.6, 0.3,0,0,1024,1024,1024,1024,326,-89.9,97,3.874,3.885,3.903,3.907,3.921,3.888,17.779,71.6,14,Waypoint,
38.0965936,-120.1425847,5190.0308822883,99.737536,0,0.6562992336,15900,2018-05-10 22:18:13,15,0,23.355,5190.0308822883,99.737536,0.3131716,1.06281827548,0,0,-0.671082,325.3, -0.4, 0.8,0,0,1024,1024,1024,1024,326,-89.9,97,3.874,3.885,3.903,3.907,3.921,3.888,17.779,71.6,14,Waypoint,
38.0965936,-120.1425847,5191.0151342883,100.721788,0,0.6562992336,16000,2018-05-10 22:18:13,15,0,23.318,5191.0151342883,100.721788,0.3131716,1.06281827548,0,0,-0.671082,325.4, -0.3, 0.8,0,0,1024,1024,1024,1024,326,-89.9,97,3.876,3.877,3.881,3.897,3.901,3.864,17.981,73.4,14,Waypoint,
38.0965936,-120.1425847,5191.9993862883,101.70604,0,0.6562992336,16100,2018-05-10 22:18:13,15,0,23.318,5191.9993862883,101.70604,0.3131716,1.06281827548,0,0,-0.671082,325.5, -0.2, 0.4,0,0,1024,1024,1024,1024,326,-89.9,97,3.876,3.877,3.881,3.897,3.901,3.864,17.981,73.4,14,Waypoint,
38.0965936,-120.1425847,5192.9836382883,102.690292,0,0.6562992336,16200,2018-05-10 22:18:14,15,0,23.318,5192.9836382883,102.690292,0.3131716,1.06281827548,0,0,-0.671082,325.4, -0.2, -0.1,0,0,1024,1024,1024,1024,326,-89.9,97,3.876,3.877,3.881,3.897,3.901,3.864,17.981,73.4,14,Waypoint,
38.0965936,-120.1425847,5193.9678902883,103.674544,0,0.6562992336,16300,2018-05-10 22:18:14,15,0,23.318,5193.9678902883,103.674544,0.3131716,1.06281827548,0,0,-0.671082,325.3, -0.3, -0.6,0,0,1024,1024,1024,1024,326,-89.9,97,3.876,3.877,3.881,3.897,3.901,3.864,17.981,73.4,14,Waypoint,
38.0965936,-120.1425848,5194.9521422883,104.658796,0,0.63263453468,16400,2018-05-10 22:18:14,15,0,23.318,5194.9521422883,104.658796,0.3131716,1.06281827548,0,0,-0.671082,325.1, 0, -0.7,0,0,1024,1024,1024,1024,326,-89.9,97,3.876,3.877,3.881,3.897,3.901,3.864,17.981,73.4,14,Waypoint,
38.0965936,-120.1425848,5195.9363942883,105.643048,0,0.63263453468,16500,2018-05-10 22:18:14,15,0,23.318,5195.9363942883,105.643048,0.3131716,1.06281827548,0,0,-0.671082,324.9, 0, -0.4,0,0,1024,1024,1024,1024,326,-89.9,97,3.876,3.877,3.881,3.897,3.901,3.864,17.981,73.4,14,Waypoint,
38.0965936,-120.1425848,5196.9206462883,106.6273,0,0.63263453468,16600,2018-05-10 22:18:14,15,0,23.318,5196.9206462883,106.6273,0.3131716,1.06281827548,0,0,-0.671082,324.8, 0, -0.3,0,0,1024,1024,1024,1024,326,-89.9,97,3.876,3.877,3.881,3.897,3.901,3.864,17.981,73.4,14,Waypoint,
38.0965936,-120.1425849,5197.9048982883,107.611552,0,0.60940290664,16700,2018-05-10 22:18:14,15,0,23.318,5197.9048982883,107.611552,0.3131716,1.06281827548,0,0,-0.671082,324.7, 0, -0.1,0,0,1024,1024,1024,1024,326,-89.9,97,3.876,3.877,3.881,3.897,3.901,3.864,17.981,73.4,14,Waypoint,
38.0965936,-120.1425848,5198.8891502883,108.595804,0,0.63263453468,16810,2018-05-10 22:18:14,15,0,23.318,5198.8891502883,108.595804,0.3131716,1.06281827548,0,0,-0.671082,324.7, -0.2, -0.1,0,0,1024,1024,1024,1024,326,-89.9,97,3.876,3.877,3.881,3.897,3.901,3.864,17.981,73.4,14,Waypoint,
38.0965936,-120.1425848,5199.8734022883,109.580056,0,0.63263453468,16900,2018-05-10 22:18:14,15,0,23.318,5199.8734022883,109.580056,0.3131716,1.06281827548,0,0,-0.671082,324.8, -0.4, -0.1,0,0,1024,1024,1024,1024,326,-89.9,97,3.876,3.877,3.881,3.897,3.901,3.864,17.981,73.4,14,Waypoint,
38.0965936,-120.1425848,5200.8576542883,110.564308,0,0.63263453468,17000,2018-05-10 22:18:14,15,0,23.156,5200.8576542883,110.564308,0.3131716,1.06281827548,0,0,-0.671082,324.8, -0.4, 0,0,0,1024,1024,1024,1024,326,-89.9,97,3.847,3.856,3.853,3.869,3.887,3.855,19.537,73.4,14,Waypoint,
38.0965935,-120.1425848,5202.1699902883,111.876644,0,0.6123195734,17100,2018-05-10 22:18:14,15,0,23.156,5202.1699902883,111.876644,0.3131716,1.06281827548,0,0,-0.671082,324.9, -0.5, 0,0,0,1024,1024,1024,1024,326,-89.9,97,3.847,3.856,3.853,3.869,3.887,3.855,19.537,73.4,14,Waypoint,
38.0965935,-120.1425848,5203.1542422883,112.860896,0,0.6123195734,17200,2018-05-10 22:18:15,15,0,23.156,5203.1542422883,112.860896,0.3131716,1.06281827548,0,0,-0.671082,324.9, -0.5, -0.2,0,0,1024,1024,1024,1024,326,-89.9,97,3.847,3.856,3.853,3.869,3.887,3.855,19.537,73.4,14,Waypoint,
38.0965935,-120.1425849,5204.1384942883,113.845148,0,0.58828413956,17300,2018-05-10 22:18:15,15,0,23.156,5204.1384942883,113.845148,0.3131716,1.06281827548,0,0,-0.671082,324.8, -0.5, 0,0,0,1024,1024,1024,1024,326,-89.9,97,3.847,3.856,3.853,3.869,3.887,3.855,19.537,73.4,14,Waypoint,
38.0965934,-120.1425849,5205.1227462883,114.8294,0,0.56872705232,17400,2018-05-10 22:18:15,15,0,23.156,5205.1227462883,114.8294,0.3131716,1.06281827548,0,0,-0.671082,324.8, -0.3, 0,0,0,1024,1024,1024,1024,326,-89.9,97,3.847,3.856,3.853,3.869,3.887,3.855,19.537,73.4,14,Waypoint,
38.0965934,-120.1425849,5206.1069982883,115.813652,0,0.56872705232,17500,2018-05-10 22:18:15,15,0,23.156,5206.1069982883,115.813652,0.3131716,1.06281827548,0,0,-0.671082,324.8, -0.5, 0,0,0,1024,1024,1024,1024,326,-89.9,97,3.847,3.856,3.853,3.869,3.887,3.855,19.537,73.4,14,Waypoint,
38.0965934,-120.1425849,5207.0912502883,116.797904,0,0.56872705232,17600,2018-05-10 22:18:15,15,0,23.156,5207.0912502883,116.797904,0.3131716,1.06281827548,0,0,-0.671082,324.8, -0.6, 0,0,0,1024,1024,1024,1024,326,-89.9,97,3.847,3.856,3.853,3.869,3.887,3.855,19.537,73.4,14,Waypoint,
38.0965933,-120.142585,5208.0755022883,117.782156,0,0.52562009556,17800,2018-05-10 22:18:15,15,0,23.156,5208.0755022883,117.782156,0.3131716,1.06281827548,0,0,-0.671082,324.8, -0.6, 0.3,0,0,1024,1024,1024,1024,326,-89.9,97,3.847,3.856,3.853,3.869,3.887,3.855,19.537,73.4,14,Waypoint,
38.0965933,-120.142585,5209.0597542883,118.766408,0,0.52562009556,17900,2018-05-10 22:18:15,15,0,23.156,5209.0597542883,118.766408,0.3131716,1.06281827548,0,0,-0.671082,324.8, -0.6, 0.7,0,0,1024,1024,1024,1024,326,-89.9,97,3.847,3.856,3.853,3.869,3.887,3.855,19.537,73.4,14,Waypoint,
38.0965932,-120.142585,5212.0125102883,121.719164,0,0.5088910924,18010,2018-05-10 22:18:15,15,0,23.216,5212.0125102883,121.719164,0.3131716,1.06281827548,0,0,-0.671082,324.6, -0.6, 0.2,0,0,1024,1024,1024,1024,326,-89.9,97,3.863,3.868,3.875,3.881,3.903,3.858,18.732,73.4,14,Waypoint,
38.0965931,-120.1425849,5213.9810142883,123.687668,0,0.52108925552,18300,2018-05-10 22:18:16,15,0,23.216,5213.9810142883,123.687668,0.3131716,1.06281827548,0,0,-0.671082,324.8, -1.1, 0.3,0,0,1024,1024,1024,1024,326,-90,97,3.863,3.868,3.875,3.881,3.903,3.858,18.732,73.4,14,Waypoint,
38.0965931,-120.1425849,5214.9652662883,124.67192,0,0.52108925552,18400,2018-05-10 22:18:16,15,0,23.216,5214.9652662883,124.67192,0.3131716,1.06281827548,0,0,-0.671082,324.9, -1.1, 0.3,0,0,1024,1024,1024,1024,326,-90,97,3.863,3.868,3.875,3.881,3.903,3.858,18.732,73.4,14,Waypoint,
38.0965931,-120.1425848,5215.9495182883,125.656172,0,0.54807744536,18500,2018-05-10 22:18:16,15,0,23.216,5215.9495182883,125.656172,0.3131716,1.06281827548,0,0,-0.671082,325, -1.2, 0,0,0,1024,1024,1024,1024,326,-90,97,3.863,3.868,3.875,3.881,3.903,3.858,18.732,73.4,14,Waypoint,
38.0965931,-120.1425848,5216.9337702883,126.640424,0,0.54807744536,18600,2018-05-10 22:18:16,15,0,23.216,5216.9337702883,126.640424,0.3131716,1.06281827548,0,0,-0.671082,325.1, -1.1, -0.4,0,0,1024,1024,1024,1024,326,-89.9,97,3.863,3.868,3.875,3.881,3.903,3.858,18.732,73.4,14,Waypoint,
38.0965931,-120.1425847,5217.9180222883,127.624676,0,0.57523295804,18700,2018-05-10 22:18:16,15,0,23.216,5217.9180222883,127.624676,0.3131716,1.06281827548,0,0,-0.671082,325.3, -1.1, -0.6,0,0,1024,1024,1024,1024,326,-89.9,97,3.863,3.868,3.875,3.881,3.903,3.858,18.732,73.4,14,Waypoint,
38.0965931,-120.1425846,5218.9022742883,128.608928,0,0.60253282768,18800,2018-05-10 22:18:16,15,0,23.216,5218.9022742883,128.608928,0.3131716,1.06281827548,0,0,-0.671082,325.5, -1.3, -0.7,0,0,1024,1024,1024,1024,326,-90,97,3.863,3.868,3.875,3.881,3.903,3.858,18.732,73.4,14,Waypoint,
38.0965931,-120.1425845,5219.8865262883,129.59318,0,0.62995736924,18900,2018-05-10 22:18:16,15,0,23.216,5219.8865262883,129.59318,0.3131716,1.06281827548,0,0,-0.671082,325.8, -1.5, -0.6,0,0,1024,1024,1024,1024,326,-90,97,3.863,3.868,3.875,3.881,3.903,3.858,18.732,73.4,14,Waypoint,
38.0965931,-120.1425844,5221.1988622883,130.905516,0.223694,0.65749017852,19000,2018-05-10 22:18:16,15,0,23.258,5221.1988622883,130.905516,0.3131716,1.06281827548,0,0,-0.671082,325.9, -1.7, -1.4,0,0,1024,1024,1024,1024,326,-90,97,3.863,3.868,3.875,3.881,3.903,3.858,17.966,73.4,14,Waypoint,
38.0965932,-120.1425842,5222.1831142883,131.889768,0.223694,0.72303808088,19100,2018-05-10 22:18:16,15,0,23.258,5222.1831142883,131.889768,0.3131716,1.06281827548,0,0,-0.671082,325.8, -1.7, -2.3,0,0,1024,1024,1024,1024,325.9,-90,97,3.863,3.868,3.875,3.881,3.903,3.858,17.966,73.4,14,Waypoint,
38.0965932,-120.142584,5223.1673662883,132.87402,0.223694,0.77796262332,19200,2018-05-10 22:18:17,15,0,23.258,5223.1673662883,132.87402,0.3131716,1.06281827548,0,0,-0.671082,325.6, -1.8, -2.8,0,0,1024,1024,1024,1024,325.9,-90,97,3.863,3.868,3.875,3.881,3.903,3.858,17.966,73.4,14,Waypoint,
38.0965933,-120.1425838,5224.1516182883,133.858272,0.223694,0.84354333408,19300,2018-05-10 22:18:17,15,0,23.258,5224.1516182883,133.858272,0.3131716,1.06281827548,0,0,-0.671082,325.5, -1.7, -3.1,0,0,1024,1024,1024,1024,325.9,-89.9,97,3.863,3.868,3.875,3.881,3.903,3.858,17.966,73.4,14,Waypoint,
38.0965934,-120.1425836,5225.1358702883,134.842524,0.223694,0.90948821808,19400,2018-05-10 22:18:17,15,0,23.258,5225.1358702883,134.842524,0.3131716,1.06281827548,0,0,-0.671082,325.4, -1.5, -3.6,0,0,1024,1024,1024,1024,325.9,-89.9,97,3.863,3.868,3.875,3.881,3.903,3.858,17.966,73.4,14,Waypoint,
38.0965934,-120.1425834,5226.1201222883,135.826776,0.223694,0.96405186812,19520,2018-05-10 22:18:17,15,0,23.258,5226.1201222883,135.826776,0.3131716,1.06281827548,0,0,-0.671082,325.3, -1.5, -3.6,0,0,1024,1024,1024,1024,325.9,-89.9,97,3.863,3.868,3.875,3.881,3.903,3.858,17.966,73.4,14,Waypoint,
38.0965935,-120.1425833,5227.1043742883,136.811028,0,1.00280186936,19600,2018-05-10 22:18:17,15,0,23.258,5227.1043742883,136.811028,0.3131716,1.06281827548,0,0,-0.671082,325.2, -1.5, -3.5,0,0,1024,1024,1024,1024,325.9,-89.9,97,3.863,3.868,3.875,3.881,3.903,3.858,17.966,73.4,14,Waypoint,
38.0965935,-120.1425831,5228.0886262883,137.79528,0,1.05722772412,19700,2018-05-10 22:18:17,15,0,23.258,5228.0886262883,137.79528,0.3131716,1.06281827548,0,0,-0.671082,325, -1.6, -3.3,0,0,1024,1024,1024,1024,325.9,-89.9,97,3.863,3.868,3.875,3.881,3.903,3.858,17.966,73.4,14,Waypoint,
38.0965935,-120.142583,5228.7447942883,138.451448,0,1.08455712132,19800,2018-05-10 22:18:17,15,0,23.258,5228.7447942883,138.451448,0.3131716,1.08455712132,0,0,-0.671082,324.8, -1.7, -2.7,0,0,1024,1024,1024,1024,325.9,-89.9,97,3.863,3.868,3.875,3.881,3.903,3.858,17.966,73.4,14,Waypoint,
38.0965935,-120.142583,5229.7290462883,139.4357,0,1.08455712132,19900,2018-05-10 22:18:17,15,0,23.258,5229.7290462883,139.4357,0.3131716,1.08455712132,0,0,-0.671082,324.7, -1.8, -2.3,0,0,1024,1024,1024,1024,325.9,-89.9,97,3.863,3.868,3.875,3.881,3.903,3.858,17.966,73.4,14,Waypoint,
38.0965935,-120.142583,5230.7132982883,140.419952,0,1.08455712132,20000,2018-05-10 22:18:17,15,0,23.258,5230.7132982883,140.419952,0.3131716,1.08455712132,0,0,-0.671082,324.7, -1.8, -2,0,0,1024,1024,1024,1024,325.9,-89.9,97,3.853,3.86,3.868,3.88,3.894,3.858,17.966,73.4,14,Waypoint,
38.0965936,-120.142583,5232.6818022883,142.388456,0,1.09615489072,20200,2018-05-10 22:18:18,15,0,23.258,5232.6818022883,142.388456,0.3131716,1.09615489072,0,0,-0.671082,325, -1.7, -1.9,0,0,1024,1024,1024,1024,325.9,-89.9,97,3.853,3.86,3.868,3.88,3.894,3.858,17.966,73.4,14,Waypoint,
38.0965937,-120.142583,5234.3222222883,144.028876,0,1.10883205648,20400,2018-05-10 22:18:18,15,0,23.258,5234.3222222883,144.028876,0.3131716,1.10883205648,0,0,-0.671082,325.3, -1.4, -2.4,0,0,1024,1024,1024,1024,325.9,-89.9,97,3.853,3.86,3.868,3.88,3.894,3.858,17.966,73.4,14,Waypoint,
38.0965937,-120.1425829,5235.3064742883,145.013128,0,1.1356463618,20500,2018-05-10 22:18:18,15,0,23.258,5235.3064742883,145.013128,0.3131716,1.1356463618,0,0,-0.671082,325.3, -1.2, -2.6,0,0,1024,1024,1024,1024,325.9,-89.9,97,3.853,3.86,3.868,3.88,3.894,3.858,17.966,73.4,14,Waypoint,
38.0965938,-120.1425829,5236.2907262883,145.99738,0,1.1490485932,20600,2018-05-10 22:18:18,15,0,23.258,5236.2907262883,145.99738,0.3131716,1.1490485932,0,0,-0.671082,325.3, -1, -2.7,0,0,1024,1024,1024,1024,325.9,-89.9,97,3.853,3.86,3.868,3.88,3.894,3.858,17.966,73.4,14,Waypoint,
38.0965939,-120.1425829,5237.2749782883,146.981632,0,1.16343835744,20700,2018-05-10 22:18:18,15,0,23.258,5237.2749782883,146.981632,0.3131716,1.16343835744,0,0,-0.671082,325.2, -0.9, -2.6,0,0,1024,1024,1024,1024,325.9,-89.9,97,3.853,3.86,3.868,3.88,3.894,3.858,17.966,73.4,14,Waypoint,
38.096594,-120.1425829,5238.2592302883,147.965884,0,1.17878284612,20800,2018-05-10 22:18:18,15,0,23.258,5238.2592302883,147.965884,0.3131716,1.17878284612,0,0,-0.671082,325.1, -0.8, -2.5,0,0,1024,1024,1024,1024,325.9,-89.9,97,3.853,3.86,3.868,3.88,3.894,3.858,17.966,73.4,14,Waypoint,
38.096594,-120.1425829,5239.2434822883,148.950136,0,1.17878284612,20900,2018-05-10 22:18:18,15,0,23.258,5239.2434822883,148.950136,0.3131716,1.17878284612,0,0,-0.671082,324.9, -0.8, -2.4,0,0,1024,1024,1024,1024,325.9,-89.9,97,3.853,3.86,3.868,3.88,3.894,3.858,17.966,73.4,14,Waypoint,
38.096594,-120.142583,5240.2277342883,149.934388,0,1.15297247784,21000,2018-05-10 22:18:18,15,0,23.303,5240.2277342883,149.934388,0.3131716,1.17878284612,0,0,-0.671082,324.8, -0.8, -2.6,0,0,1024,1024,1024,1024,325.9,-89.9,97,3.865,3.878,3.891,3.891,3.914,3.886,17.482,73.4,14,Waypoint,
38.0965941,-120.142583,5241.2119862883,150.91864,0,1.16959321328,21100,2018-05-10 22:18:18,15,0,23.303,5241.2119862883,150.91864,0.3131716,1.17878284612,0,0,-0.671082,324.8, -0.8, -2.5,0,0,1024,1024,1024,1024,325.9,-89.9,97,3.865,3.878,3.891,3.891,3.914,3.886,17.482,73.4,14,Waypoint,
38.0965941,-120.142583,5242.1962382883,151.902892,0,1.16959321328,21200,2018-05-10 22:18:19,15,0,23.303,5242.1962382883,151.902892,0.3131716,1.17878284612,0,0,-0.671082,324.8, -0.9, -2.4,0,0,1024,1024,1024,1024,325.9,-89.9,97,3.865,3.878,3.891,3.891,3.914,3.886,17.482,73.4,14,Waypoint,
38.0965941,-120.142583,5243.1804902883,152.887144,0,1.16959321328,21300,2018-05-10 22:18:19,15,0,23.303,5243.1804902883,152.887144,0.3131716,1.17878284612,0,0,-0.671082,324.8, -1, -2.2,0,0,1024,1024,1024,1024,325.9,-89.9,97,3.865,3.878,3.891,3.891,3.914,3.886,17.482,73.4,14,Waypoint,
38.0965941,-120.1425831,5244.1647422883,153.871396,0,1.14429793688,21400,2018-05-10 22:18:19,15,0,23.303,5244.1647422883,153.871396,0.3131716,1.17878284612,0,0,-0.671082,324.8, -1.1, -2.3,0,0,1024,1024,1024,1024,325.9,-89.9,97,3.865,3.878,3.891,3.891,3.914,3.886,17.482,73.4,14,Waypoint,
38.0965941,-120.1425831,5245.1489942883,154.855648,0,1.14429793688,21500,2018-05-10 22:18:19,15,0,23.303,5245.1489942883,154.855648,0.3131716,1.17878284612,0,0,-0.671082,324.9, -1.1, -2.2,0,0,1024,1024,1024,1024,325.9,-89.9,97,3.865,3.878,3.891,3.891,3.914,3.886,17.482,73.4,14,Waypoint,
38.0965941,-120.1425831,5246.1332462883,155.8399,0,1.14429793688,21600,2018-05-10 22:18:19,15,0,23.303,5246.1332462883,155.8399,0.3131716,1.17878284612,0,0,-0.671082,324.9, -1.1, -2,0,0,1024,1024,1024,1024,325.9,-89.9,97,3.865,3.878,3.891,3.891,3.914,3.886,17.482,73.4,14,Waypoint,
38.0965941,-120.1425832,5246.7894142883,156.496068,0,1.11916670248,21700,2018-05-10 22:18:19,15,0,23.303,5246.7894142883,156.496068,0.3131716,1.17878284612,0,0,-0.671082,325, -1.2, -1.7,0,0,1024,1024,1024,1024,325.9,-89.9,97,3.865,3.878,3.891,3.891,3.914,3.886,17.482,73.4,14,Waypoint,
38.0965941,-120.1425832,5247.7736662883,157.48032,0,1.11916670248,21800,2018-05-10 22:18:19,15,0,23.303,5247.7736662883,157.48032,0.3131716,1.17878284612,0,0,-0.671082,325.1, -1.3, -1.7,0,0,1024,1024,1024,1024,325.9,-89.9,97,3.865,3.878,3.891,3.891,3.914,3.886,17.482,73.4,14,Waypoint,
38.0965941,-120.1425833,5248.7579182883,158.464572,0,1.0942093526,21900,2018-05-10 22:18:19,15,0,23.303,5248.7579182883,158.464572,0.3131716,1.17878284612,0,0,-0.671082,325.2, -1.3, -1.8,0,0,1024,1024,1024,1024,325.9,-89.9,97,3.865,3.878,3.891,3.891,3.914,3.886,17.482,73.4,14,Waypoint,
38.096594,-120.1425834,5249.7421702883,159.448824,0,1.05124019112,22000,2018-05-10 22:18:19,15,0,23.187,5249.7421702883,159.448824,0.3131716,1.17878284612,0,0,-0.671082,325.2, -1.3, -1.7,0,0,1024,1024,1024,1024,325.9,-89.9,97,3.835,3.836,3.862,3.867,3.876,3.843,18.461,73.4,14,Waypoint,
38.096594,-120.1425834,5250.7264222883,160.433076,0,1.05124019112,22110,2018-05-10 22:18:19,15,0,23.187,5250.7264222883,160.433076,0.3131716,1.17878284612,0,0,-0.671082,325.1, -1.4, -1.6,0,0,1024,1024,1024,1024,325.9,-89.9,97,3.835,3.836,3.862,3.867,3.876,3.843,18.461,73.4,14,Waypoint,
38.096594,-120.1425835,5251.7106742883,161.417328,0,1.02624019032,22200,2018-05-10 22:18:20,15,0,23.187,5251.7106742883,161.417328,0.3131716,1.17878284612,0,0,-0.671082,325.1, -1.4, -1.4,0,0,1024,1024,1024,1024,325.9,-89.9,97,3.835,3.836,3.862,3.867,3.876,3.843,18.461,73.4,14,Waypoint,
38.096594,-120.1425835,5252.6949262883,162.40158,0,1.02624019032,22400,2018-05-10 22:18:20,15,0,23.187,5252.6949262883,162.40158,0.3131716,1.17878284612,0,0,-0.671082,325.1, -1.2, -1.5,0,0,1024,1024,1024,1024,325.9,-89.9,97,3.835,3.836,3.862,3.867,3.876,3.843,18.461,73.4,14,Waypoint,
38.096594,-120.1425836,5253.6791782883,163.385832,0,1.00143703992,22500,2018-05-10 22:18:20,15,0,23.187,5253.6791782883,163.385832,0.3131716,1.17878284612,0,0,-0.671082,325.2, -1, -1.4,0,0,1024,1024,1024,1024,325.9,-89.9,97,3.835,3.836,3.862,3.867,3.876,3.843,18.461,73.4,14,Waypoint,
38.096594,-120.1425837,5254.6634302883,164.370084,0,0.97685042496,22600,2018-05-10 22:18:20,15,0,23.187,5254.6634302883,164.370084,0.3131716,1.17878284612,0,0,-0.671082,325.2, -0.7, -1.3,0,0,1024,1024,1024,1024,325.9,-89.9,97,3.835,3.836,3.862,3.867,3.876,3.843,18.461,73.4,14,Waypoint,
38.0965941,-120.1425837,5256.9600182883,166.666672,0,0.99641407388,22700,2018-05-10 22:18:20,15,0,23.187,5256.9600182883,166.666672,0.3131716,1.17878284612,0,0,-0.671082,325.2, -0.7, -2,0,0,1024,1024,1024,1024,325.9,-89.9,97,3.835,3.836,3.862,3.867,3.876,3.843,18.461,73.4,14,Waypoint,
38.0965941,-120.1425837,5257.9442702883,167.650924,0,0.99641407388,22800,2018-05-10 22:18:20,15,0,23.187,5257.9442702883,167.650924,0.3131716,1.17878284612,0,0,-0.671082,325.2, -0.8, -2.5,0,0,1024,1024,1024,1024,325.9,-89.9,97,3.835,3.836,3.862,3.867,3.876,3.843,18.461,73.4,14,Waypoint,
38.0965941,-120.1425837,5258.9285222883,168.635176,0,0.99641407388,22900,2018-05-10 22:18:20,15,0,23.187,5258.9285222883,168.635176,0.3131716,1.17878284612,0,0,-0.671082,325.2, -0.7, -2.6,0,0,1024,1024,1024,1024,325.9,-89.9,97,3.835,3.836,3.862,3.867,3.876,3.843,18.461,73.4,14,Waypoint,
38.0965941,-120.1425837,5259.9127742883,169.619428,0,0.99641407388,23000,2018-05-10 22:18:20,15,0,23.059,5259.9127742883,169.619428,0.3131716,1.17878284612,0,0,-0.671082,325.3, -0.7, -2.7,0,0,1024,1024,1024,1024,325.9,-89.9,97,3.817,3.831,3.844,3.847,3.878,3.824,19.39,73.4,14,Waypoint,
38.0965941,-120.1425837,5260.8970262883,170.60368,0,0.99641407388,23100,2018-05-10 22:18:20,15,0,23.059,5260.8970262883,170.60368,0.3131716,1.17878284612,0,0,-0.671082,325.3, -0.8, -2.7,0,0,1024,1024,1024,1024,325.9,-89.9,97,3.817,3.831,3.844,3.847,3.878,3.824,19.39,73.4,14,Waypoint,
38.0965942,-120.1425837,5261.8812782883,171.587932,0,1.01690948136,23200,2018-05-10 22:18:21,15,0,23.059,5261.8812782883,171.587932,0.3131716,1.17878284612,0,0,-0.671082,325.2, -0.7, -2.8,0,0,1024,1024,1024,1024,325.9,-89.9,97,3.817,3.831,3.844,3.847,3.878,3.824,19.39,73.4,14,Waypoint,
38.0965942,-120.1425837,5262.8655302883,172.572184,0,1.01690948136,23300,2018-05-10 22:18:21,15,0,23.059,5262.8655302883,172.572184,0.3131716,1.17878284612,0,0,-0.671082,325.1, -0.6, -2.8,0,0,1024,1024,1024,1024,325.9,-89.9,97,3.817,3.831,3.844,3.847,3.878,3.824,19.39,73.4,14,Waypoint,
38.0965942,-120.1425837,5263.8497822883,173.556436,0,1.01690948136,23400,2018-05-10 22:18:21,15,0,23.059,5263.8497822883,173.556436,0.3131716,1.17878284612,0,0,-0.671082,325.1, -0.5, -3,0,0,1024,1024,1024,1024,325.9,-89.9,97,3.817,3.831,3.844,3.847,3.878,3.824,19.39,73.4,14,Waypoint,
38.0965942,-120.1425837,5264.8340342883,174.540688,0,1.01690948136,23500,2018-05-10 22:18:21,15,0,23.059,5264.8340342883,174.540688,0.3131716,1.17878284612,0,0,-0.671082,325.1, -0.5, -3,0,0,1024,1024,1024,1024,325.9,-89.9,97,3.817,3.831,3.844,3.847,3.878,3.824,19.39,73.4,14,Waypoint,
38.0965942,-120.1425837,5265.8182862883,175.52494,0,1.01690948136,23600,2018-05-10 22:18:21,15,0,23.059,5265.8182862883,175.52494,0.3131716,1.17878284612,0,0,-0.671082,325, -0.6, -3,0,0,1024,1024,1024,1024,325.9,-89.9,97,3.817,3.831,3.844,3.847,3.878,3.824,19.39,73.4,14,Waypoint,
38.0965942,-120.1425837,5266.8025382883,176.509192,0,1.01690948136,23700,2018-05-10 22:18:21,15,0,23.059,5266.8025382883,176.509192,0.3131716,1.17878284612,0,0,-0.671082,324.9, -0.6, -2.9,0,0,1024,1024,1024,1024,325.9,-89.9,97,3.817,3.831,3.844,3.847,3.878,3.824,19.39,73.4,14,Waypoint,
38.0965942,-120.1425837,5267.7867902883,177.493444,0,1.01690948136,23800,2018-05-10 22:18:21,15,0,23.059,5267.7867902883,177.493444,0.3131716,1.17878284612,0,0,-0.671082,324.9, -0.6, -2.7,0,0,1024,1024,1024,1024,325.9,-89.9,97,3.817,3.831,3.844,3.847,3.878,3.824,19.39,73.4,14,Waypoint,
38.0965942,-120.1425837,5268.7710422883,178.477696,0,1.01690948136,23900,2018-05-10 22:18:21,15,0,23.059,5268.7710422883,178.477696,0.3131716,1.17878284612,0,0,-0.671082,324.8, -0.5, -2.6,0,0,1024,1024,1024,1024,325.9,-89.9,97,3.817,3.831,3.844,3.847,3.878,3.824,19.39,73.4,14,Waypoint,
38.0965942,-120.1425837,5269.7552942883,179.461948,0,1.01690948136,24000,2018-05-10 22:18:21,15,0,23.026,5269.7552942883,179.461948,0.3131716,1.17878284612,0,0,-0.671082,324.8, -0.5, -2.6,0,0,1024,1024,1024,1024,325.9,-89.9,96,3.824,3.826,3.849,3.843,3.865,3.831,19.465,73.4,14,Waypoint,
38.0965942,-120.1425837,5270.7395462883,180.4462,0,1.01690948136,24100,2018-05-10 22:18:21,15,0,23.026,5270.7395462883,180.4462,0.3131716,1.17878284612,0,0,-0.671082,324.8, -0.6, -2.7,0,0,1024,1024,1024,1024,325.9,-89.9,96,3.824,3.826,3.849,3.843,3.865,3.831,19.465,73.4,14,Waypoint,
38.0965942,-120.1425838,5271.7237982883,181.430452,0,0.9935367772,24210,2018-05-10 22:18:22,15,0,23.026,5271.7237982883,181.430452,0.3131716,1.17878284612,0,0,-0.671082,324.9, -0.5, -2.6,0,0,1024,1024,1024,1024,325.9,-89.9,96,3.824,3.826,3.849,3.843,3.865,3.831,19.465,73.4,14,Waypoint,
38.0965942,-120.1425838,5272.7080502883,182.414704,0,0.9935367772,24310,2018-05-10 22:18:22,15,0,23.026,5272.7080502883,182.414704,0.3131716,1.17878284612,0,0,-0.671082,324.9, -0.5, -2.4,0,0,1024,1024,1024,1024,325.9,-89.9,96,3.824,3.826,3.849,3.843,3.865,3.831,19.465,73.4,14,Waypoint,
38.0965942,-120.1425838,5273.6923022883,183.398956,0,0.9935367772,24500,2018-05-10 22:18:22,15,0,23.026,5273.6923022883,183.398956,0.3131716,1.17878284612,0,0,-0.671082,325, -0.5, -2.4,0,0,1024,1024,1024,1024,325.9,-89.9,96,3.824,3.826,3.849,3.843,3.865,3.831,19.465,73.4,14,Waypoint,
38.0965942,-120.1425838,5274.6765542883,184.383208,0,0.9935367772,24600,2018-05-10 22:18:22,15,0,23.026,5274.6765542883,184.383208,0.3131716,1.17878284612,0,0,-0.671082,325, -0.4, -2.5,0,0,1024,1024,1024,1024,325.9,-89.9,96,3.824,3.826,3.849,3.843,3.865,3.831,19.465,73.4,14,Waypoint,
38.0965942,-120.1425838,5276.6450582883,186.351712,0,0.9935367772,24700,2018-05-10 22:18:22,15,0,23.026,5276.6450582883,186.351712,0.3131716,1.17878284612,0,0,-0.671082,325, -0.3, -2.6,0,0,1024,1024,1024,1024,325.9,-89.9,96,3.824,3.826,3.849,3.843,3.865,3.831,19.465,73.4,14,Waypoint,
38.0965942,-120.1425839,5278.6135622883,188.320216,0,0.97044950612,24900,2018-05-10 22:18:22,15,0,23.026,5278.6135622883,188.320216,0.3131716,1.17878284612,0,0,-0.671082,324.9, -0.2, -2.6,0,0,1024,1024,1024,1024,325.9,-89.9,96,3.824,3.826,3.849,3.843,3.865,3.831,19.465,73.4,14,Waypoint,
38.0965942,-120.1425839,5279.5978142883,189.304468,0,0.97044950612,25000,2018-05-10 22:18:22,15,0,23.164,5279.5978142883,189.304468,0.3131716,1.17878284612,0,0,-0.671082,325, -0.2, -2.5,0,0,1024,1024,1024,1024,325.9,-89.9,96,3.841,3.851,3.861,3.87,3.883,3.848,17.84,73.4,14,Waypoint,
38.0965942,-120.142584,5280.5820662883,190.28872,0,0.947670634,25100,2018-05-10 22:18:22,15,0,23.164,5280.5820662883,190.28872,0.3131716,1.17878284612,0,0,-0.671082,325, -0.2, -2.1,0,0,1024,1024,1024,1024,325.9,-89.9,96,3.841,3.851,3.861,3.87,3.883,3.848,17.84,73.4,14,Waypoint,
38.0965942,-120.142584,5281.5663182883,191.272972,0,0.947670634,25200,2018-05-10 22:18:23,15,0,23.164,5281.5663182883,191.272972,0.3131716,1.17878284612,0,0,-0.671082,324.9, -0.3, -2.1,0,0,1024,1024,1024,1024,325.9,-89.9,96,3.841,3.851,3.861,3.87,3.883,3.848,17.84,73.4,14,Waypoint,
38.0965942,-120.142584,5282.5505702883,192.257224,0,0.947670634,25300,2018-05-10 22:18:23,15,0,23.164,5282.5505702883,192.257224,0.3131716,1.17878284612,0,0,-0.671082,324.8, -0.5, -2.3,0,0,1024,1024,1024,1024,325.9,-89.9,96,3.841,3.851,3.861,3.87,3.883,3.848,17.84,73.4,14,Waypoint,
38.0965942,-120.1425841,5283.5348222883,193.241476,0,0.92521984588,25400,2018-05-10 22:18:23,15,0,23.164,5283.5348222883,193.241476,0.3131716,1.17878284612,0,0,-0.671082,324.8, -0.3, -2.5,0,0,1024,1024,1024,1024,325.9,-89.9,96,3.841,3.851,3.861,3.87,3.883,3.848,17.84,73.4,14,Waypoint,
38.0965942,-120.1425841,5284.5190742883,194.225728,0,0.92521984588,25500,2018-05-10 22:18:23,15,0,23.164,5284.5190742883,194.225728,0.3131716,1.17878284612,0,0,-0.671082,324.7, -0.2, -2.5,0,0,1024,1024,1024,1024,325.9,-89.9,96,3.841,3.851,3.861,3.87,3.883,3.848,17.84,73.4,14,Waypoint,
38.0965942,-120.1425841,5285.5033262883,195.20998,0,0.92521984588,25600,2018-05-10 22:18:23,15,0,23.164,5285.5033262883,195.20998,0.3131716,1.17878284612,0,0,-0.671082,324.7, -0.1, -2.5,0,0,1024,1024,1024,1024,325.9,-89.9,96,3.841,3.851,3.861,3.87,3.883,3.848,17.84,73.4,14,Waypoint,
38.0965943,-120.1425842,5286.4875782883,196.194232,0,0.92712601392,25700,2018-05-10 22:18:23,15,0,23.164,5286.4875782883,196.194232,0.3131716,1.17878284612,0,0,-0.671082,324.7, 0, -2.4,0,0,1024,1024,1024,1024,325.9,-89.9,96,3.841,3.851,3.861,3.87,3.883,3.848,17.84,73.4,14,Waypoint,
