latitude,longitude,altitude(feet),ascent(feet),speed(mph),distance(feet),time(millisecond),datetime(utc),satellites,gpslevel,voltage(v),max_altitude(feet),max_ascent(feet),max_speed(mph),max_distance(feet), xSpeed(mph), ySpeed(mph), zSpeed(mph), compass_heading(degrees), pitch(degrees), roll(degrees),isPhoto,isVideo,rc_elevator,rc_aileron,rc_throttle,rc_rudder,gimbal_heading(degrees),gimbal_pitch(degrees),battery_percent,voltageCell1,voltageCell2,voltageCell3,voltageCell4,voltageCell5,voltageCell6,current(A),battery_temperature(f),flycStateRaw,flycState,message
38.0965891,-120.1425967,5090.1760017964,0,0,0,3100,2018-05-10 20:48:58,11,0,0,5090.1760017964,0,0,0,0,0,0,151.4, 0.7, -0.5,1,0,1024,1024,1024,1024,150,-90,96,4.088,4.101,4.08,4.102,4.103,4.097,0,75.2,11,AutoTakeoff,
38.0965892,-120.1425967,5090.1760017964,0,0,0.036484909304,3200,2018-05-10 20:48:58,11,0,0,5090.1760017964,0,0,0.036484909304,0,0,0,151.5, 0.4, 0,0,0,1024,1024,1024,1024,150,-90,96,4.088,4.101,4.08,4.102,4.103,4.097,0,75.2,11,AutoTakeoff,
38.0965893,-120.1425966,5090.5040857964,0.328084,0,0.078415684924,3300,2018-05-10 20:48:58,11,0,0,5090.5040857964,0.328084,0,0.078415684924,0,0,0,151.5, 0.3, 0.4,0,0,1024,1024,1024,1024,150,-89.9,96,4.088,4.101,4.08,4.102,4.103,4.097,0,75.2,11,AutoTakeoff,
38.0965894,-120.1425965,5090.5040857964,0.328084,0,0.123604334664,3400,2018-05-10 20:48:58,11,0,0,5090.5040857964,0.328084,0,0.123604334664,0,0,0,151.5, 0.1, 0.7,0,0,1024,1024,1024,1024,150,-90,96,4.088,4.101,4.08,4.102,4.103,4.097,0,75.2,11,AutoTakeoff,
38.0965895,-120.1425964,5090.5040857964,0.328084,0,0.169464244268,3500,2018-05-10 20:48:58,11,0,0,5090.5040857964,0.328084,0,0.169464244268,0,0,0,151.4, 0, 1.2,0,0,1024,1024,1024,1024,150.1,-90,96,4.088,4.101,4.08,4.102,4.103,4.097,0,75.2,11,AutoTakeoff,
38.0965895,-120.1425963,5090.8321697964,0.656168,0,0.185712276284,3600,2018-05-10 20:48:59,11,0,0,5090.8321697964,0.656168,0,0.185712276284,0,0,0,151.4, -0.2, 1.2,0,0,1024,1024,1024,1024,150.1,-90,96,4.088,4.101,4.08,4.102,4.103,4.097,0,75.2,11,AutoTakeoff,
38.0965895,-120.1425963,5090.8321697964,0.656168,0,0.185712276284,3700,2018-05-10 20:48:59,11,0,0,5090.8321697964,0.656168,0,0.185712276284,0,0,0,151.3, -0.2, 1.1,0,0,1024,1024,1024,1024,150.1,-90,96,4.088,4.101,4.08,4.102,4.103,4.097,0,75.2,11,AutoTakeoff,
38.0965895,-120.1425962,5091.1602537964,0.984252,0,0.2047162139,3800,2018-05-10 20:48:59,10,0,0,5091.1602537964,0.984252,0,0.2047162139,0,0,-0.223694,151.3, 0, 1,0,0,1024,1024,1024,1024,150.1,-89.9,96,4.088,4.101,4.08,4.102,4.103,4.097,0,75.2,11,AutoTakeoff,
38.0965894,-120.1425961,5091.1602537964,0.984252,0,0.20410597766,3900,2018-05-10 20:48:59,10,0,0,5091.1602537964,0.984252,0,0.2047162139,0,0,-0.223694,151.1, 0.2, 0.8,0,0,1024,1024,1024,1024,150.1,-89.9,96,4.088,4.101,4.08,4.102,4.103,4.097,0,75.2,11,AutoTakeoff,
38.0965894,-120.1425961,5091.4883377964,1.312336,0,0.20410597766,4000,2018-05-10 20:48:59,12,0,24.825,5091.4883377964,1.312336,0,0.2047162139,0,0,0,151, 0.4, 0.7,0,0,1024,1024,1024,1024,150.1,-89.9,96,4.088,4.101,4.08,4.102,4.103,4.097,11.367,75.2,11,AutoTakeoff,
38.0965893,-120.142596,5091.4883377964,1.312336,0,0.213824481908,4100,2018-05-10 20:48:59,12,0,24.825,5091.4883377964,1.312336,0,0.213824481908,0,0,0,150.9, 0.7, 0.6,0,0,1024,1024,1024,1024,150.1,-89.9,96,4.088,4.101,4.08,4.102,4.103,4.097,11.367,75.2,11,AutoTakeoff,
38.0965892,-120.142596,5091.8164217964,1.64042,0,0.204272972416,4200,2018-05-10 20:48:59,12,0,24.825,5091.8164217964,1.64042,0,0.213824481908,0,0,-0.223694,150.9, 0.8, 0.7,0,0,1024,1024,1024,1024,150.2,-89.9,96,4.088,4.101,4.08,4.102,4.103,4.097,11.367,75.2,11,AutoTakeoff,
38.0965891,-120.1425959,5091.8164217964,1.64042,0,0.229700794752,4300,2018-05-10 20:48:59,12,0,24.825,5091.8164217964,1.64042,0,0.229700794752,0,0,-0.223694,151, 1, 0.9,0,0,1024,1024,1024,1024,150.2,-89.9,96,4.088,4.101,4.08,4.102,4.103,4.097,11.367,75.2,11,AutoTakeoff,
38.096589,-120.1425958,5092.1445057964,1.968504,0,0.260976386304,4400,2018-05-10 20:48:59,11,0,24.825,5092.1445057964,1.968504,0,0.260976386304,0,0,-0.223694,151.1, 1.3, 0.6,0,0,1024,1024,1024,1024,150.2,-89.9,96,4.088,4.101,4.08,4.102,4.103,4.097,11.367,75.2,11,AutoTakeoff,
38.0965888,-120.1425958,5092.4725897964,2.296588,0.223694,0.280638460424,4700,2018-05-10 20:49:00,11,0,24.825,5092.4725897964,2.296588,0.223694,0.280638460424,0,0,-0.223694,151.4, 1.3, 0.4,0,0,1024,1024,1024,1024,150.2,-89.9,96,4.088,4.101,4.08,4.102,4.103,4.097,11.367,75.2,11,AutoTakeoff,
38.0965886,-120.1425958,5093.1287577964,2.952756,0.223694,0.316316939256,4900,2018-05-10 20:49:00,12,0,24.825,5093.1287577964,2.952756,0.223694,0.316316939256,0,0,-0.223694,151.6, 1.5, 0.2,0,0,1024,1024,1024,1024,150.2,-89.9,96,4.088,4.101,4.08,4.102,4.103,4.097,11.367,75.2,11,AutoTakeoff,
38.0965886,-120.1425958,5093.1287577964,2.952756,0,0.316316939256,5000,2018-05-10 20:49:00,12,0,24.237,5093.1287577964,2.952756,0.223694,0.316316939256,0,0,0,151.6, 1.6, 0.2,0,0,1024,1024,1024,1024,150.2,-89.9,96,4.006,4.031,4.041,4.028,4.035,4.049,17.159,75.2,14,Waypoint,
38.0965885,-120.1425958,5093.1287577964,2.952756,0,0.33867127068,5100,2018-05-10 20:49:00,12,0,24.237,5093.1287577964,2.952756,0.223694,0.33867127068,0,0,0,151.7, 1.8, 0,0,0,1024,1024,1024,1024,150.2,-89.9,96,4.006,4.031,4.041,4.028,4.035,4.049,17.159,75.2,14,Waypoint,
38.0965884,-120.1425958,5093.4568417964,3.28084,0,0.36332350244,5200,2018-05-10 20:49:00,11,0,24.237,5093.4568417964,3.28084,0.223694,0.36332350244,0,0,0,151.7, 1.8, 0,0,0,1024,1024,1024,1024,150.2,-89.9,96,4.006,4.031,4.041,4.028,4.035,4.049,17.159,75.2,14,Waypoint,
38.0965883,-120.1425958,5093.4568417964,3.28084,0,0.38983597048,5300,2018-05-10 20:49:00,11,0,24.237,5093.4568417964,3.28084,0.223694,0.38983597048,0,0,0,151.8, 1.7, -0.2,0,0,1024,1024,1024,1024,150.3,-89.9,96,4.006,4.031,4.041,4.028,4.035,4.049,17.159,75.2,14,Waypoint,
38.0965883,-120.1425958,5093.4568417964,3.28084,0,0.38983597048,5400,2018-05-10 20:49:00,11,0,24.237,5093.4568417964,3.28084,0.223694,0.38983597048,0,0,0,151.8, 1.6, -0.1,0,0,1024,1024,1024,1024,150.3,-89.9,96,4.006,4.031,4.041,4.028,4.035,4.049,17.159,75.2,14,Waypoint,
38.0965883,-120.1425957,5093.7849257964,3.608924,0,0.4094324278,5500,2018-05-10 20:49:00,11,0,24.237,5093.7849257964,3.608924,0.223694,0.4094324278,0,0,0,151.9, 1.5, 0,0,0,1024,1024,1024,1024,150.3,-89.9,96,4.006,4.031,4.041,4.028,4.035,4.049,17.159,75.2,14,Waypoint,
38.0965883,-120.1425957,5093.7849257964,3.608924,0,0.4094324278,5600,2018-05-10 20:49:01,11,0,24.237,5093.7849257964,3.608924,0.223694,0.4094324278,0,0,-0.223694,151.9, 1.4, 0.3,0,0,1024,1024,1024,1024,150.3,-89.9,96,4.006,4.031,4.041,4.028,4.035,4.049,17.159,75.2,14,Waypoint,
38.0965882,-120.1425956,5094.1130097964,3.937008,0,0.45560696996,5700,2018-05-10 20:49:01,11,0,24.237,5094.1130097964,3.937008,0.223694,0.45560696996,0,0,-0.223694,151.8, 1.3, 0.6,0,0,1024,1024,1024,1024,150.3,-89.9,96,4.006,4.031,4.041,4.028,4.035,4.049,17.159,75.2,14,Waypoint,
38.0965882,-120.1425956,5094.4410937964,4.265092,0,0.45560696996,5800,2018-05-10 20:49:01,12,0,24.237,5094.4410937964,4.265092,0.223694,0.45560696996,0,0,-0.223694,151.8, 1.4, 0.8,0,0,1024,1024,1024,1024,150.4,-89.9,96,4.006,4.031,4.041,4.028,4.035,4.049,17.159,75.2,14,Waypoint,
38.0965882,-120.1425956,5094.7691777964,4.593176,0,0.45560696996,5900,2018-05-10 20:49:01,12,0,24.237,5094.7691777964,4.593176,0.223694,0.45560696996,0,0,-0.223694,151.7, 1.5, 0.7,0,0,1024,1024,1024,1024,150.4,-89.9,96,4.006,4.031,4.041,4.028,4.035,4.049,17.159,75.2,14,Waypoint,
38.0965882,-120.1425955,5095.0972617964,4.92126,0,0.47596130132,6000,2018-05-10 20:49:01,10,0,24.118,5095.0972617964,4.92126,0.223694,0.47596130132,0,0,-0.223694,151.6, 1.6, 0.5,0,0,1024,1024,1024,1024,150.4,-89.9,96,3.996,4.028,4.03,4.009,4.019,4.037,16.665,75.2,14,Waypoint,
38.0965882,-120.1425954,5095.7534297964,5.577428,0,0.49714240436,6100,2018-05-10 20:49:01,10,0,24.118,5095.7534297964,5.577428,0.223694,0.49714240436,0,0,-0.447388,151.6, 1.5, 0.5,0,0,1024,1024,1024,1024,150.4,-89.9,96,3.996,4.028,4.03,4.009,4.019,4.037,16.665,75.2,14,Waypoint,
38.0965882,-120.1425954,5096.0815137964,5.905512,0,0.49714240436,6200,2018-05-10 20:49:01,11,0,24.118,5096.0815137964,5.905512,0.223694,0.49714240436,0,0,-0.447388,151.6, 1.3, 0.6,0,0,1024,1024,1024,1024,150.4,-90,96,3.996,4.028,4.03,4.009,4.019,4.037,16.665,75.2,14,Waypoint,
38.0965881,-120.1425955,5096.7376817964,6.56168,0,0.50182744388,6300,2018-05-10 20:49:01,11,0,24.118,5096.7376817964,6.56168,0.223694,0.50182744388,0,0,-0.447388,151.6, 1.1, 0.6,0,0,1024,1024,1024,1024,150.4,-90,96,3.996,4.028,4.03,4.009,4.019,4.037,16.665,75.2,14,Waypoint,
38.0965881,-120.1425956,5097.3938497964,7.217848,0,0.48256563224,6400,2018-05-10 20:49:01,12,0,24.118,5097.3938497964,7.217848,0.223694,0.50182744388,0,0,-0.447388,151.5, 1, 0.4,0,0,1024,1024,1024,1024,150.5,-90,96,3.996,4.028,4.03,4.009,4.019,4.037,16.665,75.2,14,Waypoint,
38.0965881,-120.1425956,5098.0500177964,7.874016,0,0.48256563224,6500,2018-05-10 20:49:01,12,0,24.118,5098.0500177964,7.874016,0.223694,0.50182744388,0,0,-0.447388,151.5, 1.1, 0.1,0,0,1024,1024,1024,1024,150.5,-90,96,3.996,4.028,4.03,4.009,4.019,4.037,16.665,75.2,14,Waypoint,
38.096588,-120.1425957,5099.0342697964,8.858268,0,0.49346786356,6610,2018-05-10 20:49:02,13,0,24.118,5099.0342697964,8.858268,0.223694,0.50182744388,0,0,-0.671082,151.6, 1.1, 0,0,0,1024,1024,1024,1024,150.5,-90,96,3.996,4.028,4.03,4.009,4.019,4.037,16.665,75.2,14,Waypoint,
38.0965879,-120.1425958,5100.0185217964,9.84252,0,0.50839240472,6700,2018-05-10 20:49:02,13,0,24.118,5100.0185217964,9.84252,0.223694,0.50839240472,0,0,-0.671082,151.6, 1.1, -0.5,0,0,1024,1024,1024,1024,150.5,-89.9,96,3.996,4.028,4.03,4.009,4.019,4.037,16.665,75.2,14,Waypoint,
38.0965878,-120.1425958,5101.0027737964,10.826772,0,0.54013125088,6800,2018-05-10 20:49:02,13,0,24.118,5101.0027737964,10.826772,0.223694,0.54013125088,0,0,-0.671082,151.6, 1.3, -0.7,0,0,1024,1024,1024,1024,150.5,-89.9,96,3.996,4.028,4.03,4.009,4.019,4.037,16.665,75.2,14,Waypoint,
38.0965878,-120.1425959,5101.9870257964,11.811024,0,0.52699804836,6910,2018-05-10 20:49:02,13,0,24.118,5101.9870257964,11.811024,0.223694,0.54013125088,0,0,-0.671082,151.7, 1.5, -0.8,0,0,1024,1024,1024,1024,150.5,-89.9,96,3.996,4.028,4.03,4.009,4.019,4.037,16.665,75.2,14,Waypoint,
38.0965877,-120.1425959,5104.2836137964,14.107612,0,0.56006235388,7020,2018-05-10 20:49:02,12,0,23.943,5104.2836137964,14.107612,0.223694,0.56006235388,0,0,-0.671082,151.7, 1.7, -0.9,0,0,1024,1024,1024,1024,150.5,-89.9,96,3.913,3.958,3.953,3.978,3.973,3.975,17.888,75.2,14,Waypoint,
38.0965877,-120.1425959,5104.2836137964,14.107612,0,0.56006235388,7100,2018-05-10 20:49:02,12,0,23.943,5104.2836137964,14.107612,0.223694,0.56006235388,0,0,-0.671082,151.7, 1.7, -0.9,0,0,1024,1024,1024,1024,150.5,-89.9,96,3.913,3.958,3.953,3.978,3.973,3.975,17.888,75.2,14,Waypoint,
38.0965875,-120.1425959,5106.5802017964,16.4042,0,0.62732613556,7200,2018-05-10 20:49:02,12,0,23.943,5106.5802017964,16.4042,0.223694,0.62732613556,0,0,-0.671082,151.7, 1.8, -0.4,0,0,1024,1024,1024,1024,150.6,-89.9,96,3.913,3.958,3.953,3.978,3.973,3.975,17.888,75.2,14,Waypoint,
38.0965875,-120.142596,5107.5644537964,17.388452,0,0.61739175204,7400,2018-05-10 20:49:02,12,0,23.943,5107.5644537964,17.388452,0.223694,0.62732613556,0,0,-0.671082,151.6, 1.8, -0.2,0,0,1024,1024,1024,1024,150.6,-89.9,96,3.913,3.958,3.953,3.978,3.973,3.975,17.888,75.2,14,Waypoint,
38.0965875,-120.142596,5108.8767897964,18.700788,0,0.61739175204,7500,2018-05-10 20:49:02,12,0,23.943,5108.8767897964,18.700788,0.223694,0.62732613556,0,0,-0.671082,151.5, 1.6, -0.4,0,0,1024,1024,1024,1024,150.6,-89.9,96,3.913,3.958,3.953,3.978,3.973,3.975,17.888,75.2,14,Waypoint,
38.0965874,-120.1425961,5109.8610417964,19.68504,0,0.64372377388,7600,2018-05-10 20:49:03,12,0,23.943,5109.8610417964,19.68504,0.223694,0.64372377388,0,0,-0.671082,151.5, 1.5, -0.4,0,0,1024,1024,1024,1024,150.6,-89.9,96,3.913,3.958,3.953,3.978,3.973,3.975,17.888,75.2,14,Waypoint,
38.0965874,-120.1425961,5111.1733777964,20.997376,0,0.64372377388,7700,2018-05-10 20:49:03,12,0,23.943,5111.1733777964,20.997376,0.223694,0.64372377388,0,0,-0.671082,151.5, 1.5, -0.4,0,0,1024,1024,1024,1024,150.6,-89.9,96,3.913,3.958,3.953,3.978,3.973,3.975,17.888,75.2,14,Waypoint,
38.0965873,-120.1425962,5112.1576297964,21.981628,0,0.67223755432,7800,2018-05-10 20:49:03,13,0,23.943,5112.1576297964,21.981628,0.223694,0.67223755432,0,0,-0.671082,151.6, 1.4, -0.7,0,0,1024,1024,1024,1024,150.7,-89.9,96,3.913,3.958,3.953,3.978,3.973,3.975,17.888,75.2,14,Waypoint,
38.0965873,-120.1425961,5113.4699657964,23.293964,0,0.67895015296,7900,2018-05-10 20:49:03,13,0,23.943,5113.4699657964,23.293964,0.223694,0.67895015296,0,0,-0.671082,151.6, 1.5, -0.8,0,0,1024,1024,1024,1024,150.6,-89.9,96,3.913,3.958,3.953,3.978,3.973,3.975,17.888,75.2,14,Waypoint,
38.0965874,-120.1425961,5114.4542177964,24.278216,0,0.64372377388,8000,2018-05-10 20:49:03,13,0,23.347,5114.4542177964,24.278216,0.223694,0.67895015296,0,0,-0.671082,151.6, 1.5, -0.6,0,0,1024,1024,1024,1024,150.7,-89.9,96,3.869,3.916,3.905,3.896,3.92,3.949,24.902,75.2,14,Waypoint,
38.0965875,-120.142596,5115.7665537964,25.590552,0,0.61739175204,8100,2018-05-10 20:49:03,13,0,23.347,5115.7665537964,25.590552,0.223694,0.67895015296,0,0,-0.671082,151.6, 1.4, -0.2,0,0,1024,1024,1024,1024,150.6,-89.9,96,3.869,3.916,3.905,3.896,3.92,3.949,24.902,75.2,14,Waypoint,
38.0965875,-120.1425959,5116.7508057964,26.574804,0,0.62732613556,8200,2018-05-10 20:49:03,12,0,23.347,5116.7508057964,26.574804,0.223694,0.67895015296,0,0,-0.671082,151.7, 1.4, 0.3,0,0,1024,1024,1024,1024,150.6,-89.9,96,3.869,3.916,3.905,3.896,3.92,3.949,24.902,75.2,14,Waypoint,
38.0965875,-120.1425958,5117.7350577964,27.559056,0,0.63839897056,8300,2018-05-10 20:49:03,12,0,23.347,5117.7350577964,27.559056,0.223694,0.67895015296,0,0,-0.671082,151.8, 1.8, 0.5,0,0,1024,1024,1024,1024,150.6,-89.9,96,3.869,3.916,3.905,3.896,3.92,3.949,24.902,75.2,14,Waypoint,
38.0965875,-120.1425956,5118.7193097964,28.543308,0.223694,0.66372377452,8400,2018-05-10 20:49:03,12,0,23.347,5118.7193097964,28.543308,0.223694,0.67895015296,0,0,-0.671082,151.8, 2.2, 0.8,0,0,1024,1024,1024,1024,150.6,-89.9,96,3.869,3.916,3.905,3.896,3.92,3.949,24.902,75.2,14,Waypoint,
38.0965875,-120.1425954,5120.0316457964,29.855644,0.223694,0.69289372296,8500,2018-05-10 20:49:03,12,0,23.347,5120.0316457964,29.855644,0.223694,0.69289372296,0,0,-0.671082,151.8, 2.5, 1,0,0,1024,1024,1024,1024,150.6,-89.9,96,3.869,3.916,3.905,3.896,3.92,3.949,24.902,75.2,14,Waypoint,
38.0965876,-120.1425953,5121.0158977964,30.839896,0.223694,0.67903873564,8600,2018-05-10 20:49:04,13,0,23.347,5121.0158977964,30.839896,0.223694,0.69289372296,0,0,-0.671082,151.7, 2.6, 1.1,0,0,1024,1024,1024,1024,150.6,-89.9,96,3.869,3.916,3.905,3.896,3.92,3.949,24.902,75.2,14,Waypoint,
38.0965876,-120.1425951,5122.0001497964,31.824148,0.223694,0.7145341436,8700,2018-05-10 20:49:04,13,0,23.347,5122.0001497964,31.824148,0.223694,0.7145341436,0,0,-0.671082,151.7, 2.5, 1.4,0,0,1024,1024,1024,1024,150.7,-89.9,96,3.869,3.916,3.905,3.896,3.92,3.949,24.902,75.2,14,Waypoint,
38.0965877,-120.142595,5123.3124857964,33.136484,0,0.7065124898,8800,2018-05-10 20:49:04,13,0,23.347,5123.3124857964,33.136484,0.223694,0.7145341436,0,0,-0.671082,151.7, 2.3, 1.7,0,0,1024,1024,1024,1024,150.6,-89.9,96,3.869,3.916,3.905,3.896,3.92,3.949,24.902,75.2,14,Waypoint,
38.0965878,-120.1425949,5124.2967377964,34.120736,0,0.70147968124,8900,2018-05-10 20:49:04,13,0,23.347,5124.2967377964,34.120736,0.223694,0.7145341436,0,0,-0.671082,151.6, 2.1, 1.8,0,0,1024,1024,1024,1024,150.7,-89.9,96,3.869,3.916,3.905,3.896,3.92,3.949,24.902,75.2,14,Waypoint,
38.0965878,-120.1425948,5125.2809897964,35.104988,0,0.72289700476,9000,2018-05-10 20:49:04,13,0,23.691,5125.2809897964,35.104988,0.223694,0.72289700476,0,0,-0.671082,151.5, 1.9, 1.7,0,0,1024,1024,1024,1024,150.6,-89.9,96,3.93,3.967,3.971,3.95,3.958,3.984,19.104,75.2,14,Waypoint,
38.0965878,-120.1425947,5126.2652417964,36.08924,0,0.74480317344,9100,2018-05-10 20:49:04,13,0,23.691,5126.2652417964,36.08924,0.223694,0.74480317344,0,0,-0.671082,151.4, 2, 1.6,0,0,1024,1024,1024,1024,150.7,-89.9,96,3.93,3.967,3.971,3.95,3.958,3.984,19.104,75.2,14,Waypoint,
38.0965878,-120.1425946,5127.2494937964,37.073492,0,0.7671588172,9200,2018-05-10 20:49:04,13,0,23.691,5127.2494937964,37.073492,0.223694,0.7671588172,0,0,-0.671082,151.4, 1.8, 1.7,0,0,1024,1024,1024,1024,150.7,-89.9,96,3.93,3.967,3.971,3.95,3.958,3.984,19.104,75.2,14,Waypoint,
38.0965878,-120.1425945,5128.2337457964,38.057744,0,0.78992456596,9300,2018-05-10 20:49:04,13,0,23.691,5128.2337457964,38.057744,0.223694,0.78992456596,0,0,-0.671082,151.5, 1.9, 1.6,0,0,1024,1024,1024,1024,150.7,-89.9,96,3.93,3.967,3.971,3.95,3.958,3.984,19.104,75.2,14,Waypoint,
38.0965878,-120.1425944,5129.2179977964,39.041996,0,0.81306761132,9400,2018-05-10 20:49:04,13,0,23.691,5129.2179977964,39.041996,0.223694,0.81306761132,0,0,-0.671082,151.5, 2.1, 1.5,0,0,1024,1024,1024,1024,150.7,-89.9,96,3.93,3.967,3.971,3.95,3.958,3.984,19.104,75.2,14,Waypoint,
38.0965877,-120.1425942,5130.2022497964,40.026248,0,0.88100068436,9500,2018-05-10 20:49:04,13,0,23.691,5130.2022497964,40.026248,0.223694,0.88100068436,0,0,-0.671082,151.6, 2.5, 1.5,0,0,1024,1024,1024,1024,150.6,-89.9,96,3.93,3.967,3.971,3.95,3.958,3.984,19.104,75.2,14,Waypoint,
38.0965878,-120.1425942,5131.1865017964,41.0105,0,0.86036091992,9610,2018-05-10 20:49:05,13,0,23.691,5131.1865017964,41.0105,0.223694,0.88100068436,0,0,-0.671082,151.8, 2.7, 1.7,0,0,1024,1024,1024,1024,150.6,-89.9,96,3.93,3.967,3.971,3.95,3.958,3.984,19.104,75.2,14,Waypoint,
38.0965878,-120.1425943,5133.1550057964,42.979004,0,0.83655842572,9800,2018-05-10 20:49:05,13,0,23.691,5133.1550057964,42.979004,0.223694,0.88100068436,0,0,-0.671082,152, 2.3, 1.5,0,0,1024,1024,1024,1024,150.7,-89.9,96,3.93,3.967,3.971,3.95,3.958,3.984,19.104,75.2,14,Waypoint,
38.0965879,-120.1425943,5134.4673417964,44.29134,0,0.81642391064,9900,2018-05-10 20:49:05,13,0,23.691,5134.4673417964,44.29134,0.223694,0.88100068436,0,0,-0.671082,152, 2.3, 1,0,0,1024,1024,1024,1024,150.7,-90,96,3.93,3.967,3.971,3.95,3.958,3.984,19.104,75.2,14,Waypoint,
38.0965879,-120.1425944,5135.4515937964,45.275592,0,0.7923392642,10000,2018-05-10 20:49:05,13,0,23.785,5135.4515937964,45.275592,0.223694,0.88100068436,0,0,-0.671082,151.9, 2.1, 0.7,0,0,1024,1024,1024,1024,150.7,-90,95,3.93,3.967,3.971,3.95,3.958,3.984,17.953,75.2,14,Waypoint,
38.096588,-120.1425944,5136.4358457964,46.259844,0,0.77277561528,10100,2018-05-10 20:49:05,13,0,23.785,5136.4358457964,46.259844,0.223694,0.88100068436,0,0,-0.671082,151.7, 1.9, 0.5,0,0,1024,1024,1024,1024,150.7,-90,95,3.93,3.967,3.971,3.95,3.958,3.984,17.953,75.2,14,Waypoint,
38.096588,-120.1425945,5137.4200977964,47.244096,0,0.74838913156,10200,2018-05-10 20:49:05,13,0,23.785,5137.4200977964,47.244096,0.223694,0.88100068436,0,0,-0.671082,151.5, 1.6, 0.5,0,0,1024,1024,1024,1024,150.6,-90,95,3.93,3.967,3.971,3.95,3.958,3.984,17.953,75.2,14,Waypoint,
38.096588,-120.1425946,5138.4043497964,48.228348,0,0.72431760848,10300,2018-05-10 20:49:05,13,0,23.785,5138.4043497964,48.228348,0.223694,0.88100068436,0,0,-0.671082,151.3, 1.6, 0.7,0,0,1024,1024,1024,1024,150.7,-90,95,3.93,3.967,3.971,3.95,3.958,3.984,17.953,75.2,14,Waypoint,
38.0965881,-120.1425947,5139.3886017964,49.2126,0,0.68035435248,10400,2018-05-10 20:49:05,15,0,23.785,5139.3886017964,49.2126,0.223694,0.88100068436,0,0,-0.671082,151.2, 1.5, 0.9,0,0,1024,1024,1024,1024,150.7,-90,95,3.93,3.967,3.971,3.95,3.958,3.984,17.953,75.2,14,Waypoint,
38.0965881,-120.1425947,5140.3728537964,50.196852,0,0.68035435248,10500,2018-05-10 20:49:05,15,0,23.785,5140.3728537964,50.196852,0.223694,0.88100068436,0,0,-0.671082,151.2, 1.5, 0.8,0,0,1024,1024,1024,1024,150.7,-90,95,3.93,3.967,3.971,3.95,3.958,3.984,17.953,75.2,14,Waypoint,
38.0965881,-120.1425948,5141.0290217964,50.85302,0,0.6562992336,10600,2018-05-10 20:49:06,16,0,23.785,5141.0290217964,50.85302,0.223694,0.88100068436,0,0,-0.671082,151.3, 1.5, 0.6,0,0,1024,1024,1024,1024,150.7,-90,95,3.93,3.967,3.971,3.95,3.958,3.984,17.953,75.2,14,Waypoint,
38.0965881,-120.1425949,5142.0132737964,51.837272,0,0.63263453468,10700,2018-05-10 20:49:06,16,0,23.785,5142.0132737964,51.837272,0.223694,0.88100068436,0,0,-0.671082,151.4, 1.5, 0.3,0,0,1024,1024,1024,1024,150.7,-90,95,3.93,3.967,3.971,3.95,3.958,3.984,17.953,75.2,14,Waypoint,
38.0965881,-120.142595,5142.9975257964,52.821524,0,0.60940290664,10800,2018-05-10 20:49:06,16,0,23.785,5142.9975257964,52.821524,0.223694,0.88100068436,0,0,-0.671082,151.6, 1.4, 0,0,0,1024,1024,1024,1024,150.7,-90,95,3.93,3.967,3.971,3.95,3.958,3.984,17.953,75.2,14,Waypoint,
38.0965881,-120.1425951,5143.9817777964,53.805776,0,0.58665684292,10900,2018-05-10 20:49:06,16,0,23.785,5143.9817777964,53.805776,0.223694,0.88100068436,0,0,-0.671082,151.7, 1.4, 0,0,0,1024,1024,1024,1024,150.7,-89.9,95,3.93,3.967,3.971,3.95,3.958,3.984,17.953,75.2,14,Waypoint,
38.0965881,-120.1425952,5144.9660297964,54.790028,0,0.56445539864,11000,2018-05-10 20:49:06,16,0,23.785,5144.9660297964,54.790028,0.223694,0.88100068436,0,0,-0.671082,151.9, 1.5, 0,0,0,1024,1024,1024,1024,150.6,-89.9,95,3.932,3.973,3.971,3.956,3.962,3.985,17.953,75.2,14,Waypoint,
38.0965881,-120.1425952,5145.9502817964,55.77428,0,0.56445539864,11100,2018-05-10 20:49:06,16,0,23.785,5145.9502817964,55.77428,0.223694,0.88100068436,0,0,-0.671082,152, 1.7, 0,0,0,1024,1024,1024,1024,150.6,-89.9,95,3.932,3.973,3.971,3.956,3.962,3.985,17.953,75.2,14,Waypoint,
38.096588,-120.1425953,5146.9345337964,56.758532,0,0.5680282334,11210,2018-05-10 20:49:06,15,0,23.785,5146.9345337964,56.758532,0.223694,0.88100068436,0,0,-0.671082,152, 1.7, 0,0,0,1024,1024,1024,1024,150.6,-89.9,95,3.932,3.973,3.971,3.956,3.962,3.985,17.953,75.2,14,Waypoint,
38.096588,-120.1425954,5147.9187857964,57.742784,0,0.54808400704,11300,2018-05-10 20:49:06,15,0,23.785,5147.9187857964,57.742784,0.223694,0.88100068436,0,0,-0.671082,151.9, 1.8, -0.1,0,0,1024,1024,1024,1024,150.6,-89.9,95,3.932,3.973,3.971,3.956,3.962,3.985,17.953,75.2,14,Waypoint,
38.096588,-120.1425955,5148.9030377964,58.727036,0,0.52894686732,11400,2018-05-10 20:49:06,16,0,23.785,5148.9030377964,58.727036,0.223694,0.88100068436,0,0,-0.671082,151.8, 1.6, -0.2,0,0,1024,1024,1024,1024,150.6,-90,95,3.932,3.973,3.971,3.956,3.962,3.985,17.953,75.2,14,Waypoint,
38.0965881,-120.1425955,5149.8872897964,59.711288,0,0.50182744388,11500,2018-05-10 20:49:06,16,0,23.785,5149.8872897964,59.711288,0.223694,0.88100068436,0,0,-0.671082,151.7, 1.5, 0,0,0,1024,1024,1024,1024,150.7,-90,95,3.932,3.973,3.971,3.956,3.962,3.985,17.953,75.2,14,Waypoint,
38.0965881,-120.1425955,5150.8715417964,60.69554,0,0.50182744388,11600,2018-05-10 20:49:07,15,0,23.785,5150.8715417964,60.69554,0.223694,0.88100068436,0,0,-0.671082,151.8, 1.4, 0.1,0,0,1024,1024,1024,1024,150.7,-89.9,95,3.932,3.973,3.971,3.956,3.962,3.985,17.953,75.2,14,Waypoint,
38.0965881,-120.1425955,5151.8557937964,61.679792,0,0.50182744388,11700,2018-05-10 20:49:07,15,0,23.785,5151.8557937964,61.679792,0.223694,0.88100068436,0,0,-0.671082,151.8, 1.4, 0.3,0,0,1024,1024,1024,1024,150.7,-90,95,3.932,3.973,3.971,3.956,3.962,3.985,17.953,75.2,14,Waypoint,
38.0965881,-120.1425955,5152.8400457964,62.664044,0,0.50182744388,11800,2018-05-10 20:49:07,16,0,23.785,5152.8400457964,62.664044,0.223694,0.88100068436,0,0,-0.671082,151.8, 1.5, 0.5,0,0,1024,1024,1024,1024,150.6,-89.9,95,3.932,3.973,3.971,3.956,3.962,3.985,17.953,75.2,14,Waypoint,
38.0965881,-120.1425955,5153.8242977964,63.648296,0,0.50182744388,11900,2018-05-10 20:49:07,16,0,23.785,5153.8242977964,63.648296,0.223694,0.88100068436,0,0,-0.671082,151.8, 1.6, 0.6,0,0,1024,1024,1024,1024,150.7,-89.9,95,3.932,3.973,3.971,3.956,3.962,3.985,17.953,75.2,14,Waypoint,
38.0965881,-120.1425956,5155.7928017964,65.6168,0,0.48256563224,12100,2018-05-10 20:49:07,16,0,23.785,5155.7928017964,65.6168,0.223694,0.88100068436,0,0,-0.671082,151.8, 1.7, 0.3,0,0,1024,1024,1024,1024,150.6,-90,95,3.932,3.973,3.971,3.956,3.962,3.985,17.953,75.2,14,Waypoint,
38.0965881,-120.1425957,5157.7613057964,67.585304,0,0.46428151092,12300,2018-05-10 20:49:07,16,0,23.785,5157.7613057964,67.585304,0.223694,0.88100068436,0,0,-0.671082,151.8, 1.9, 0,0,0,1024,1024,1024,1024,150.6,-89.9,95,3.932,3.973,3.971,3.956,3.962,3.985,17.953,75.2,14,Waypoint,
38.0965881,-120.1425958,5159.7298097964,69.553808,0,0.44709319016,12420,2018-05-10 20:49:07,16,0,23.785,5159.7298097964,69.553808,0.223694,0.88100068436,0,0,-0.671082,151.7, 1.9, -0.1,0,0,1024,1024,1024,1024,150.7,-89.9,95,3.932,3.973,3.971,3.956,3.962,3.985,17.953,75.2,14,Waypoint,
38.0965881,-120.1425958,5159.7298097964,69.553808,0,0.44709319016,12500,2018-05-10 20:49:07,16,0,23.785,5159.7298097964,69.553808,0.223694,0.88100068436,0,0,-0.671082,151.7, 1.9, -0.1,0,0,1024,1024,1024,1024,150.7,-89.9,95,3.932,3.973,3.971,3.956,3.962,3.985,17.953,75.2,14,Waypoint,
38.096588,-120.1425959,5160.7140617964,70.53806,0,0.4624179938,12600,2018-05-10 20:49:08,16,0,23.785,5160.7140617964,70.53806,0.223694,0.88100068436,0,0,-0.671082,151.7, 1.7, -0.1,0,0,1024,1024,1024,1024,150.7,-89.9,95,3.932,3.973,3.971,3.956,3.962,3.985,17.953,75.2,14,Waypoint,
38.096588,-120.1425959,5161.6983137964,71.522312,0,0.4624179938,12700,2018-05-10 20:49:08,16,0,23.785,5161.6983137964,71.522312,0.223694,0.88100068436,0,0,-0.671082,151.6, 1.6, 0,0,0,1024,1024,1024,1024,150.7,-89.9,95,3.932,3.973,3.971,3.956,3.962,3.985,17.953,75.2,14,Waypoint,
38.096588,-120.142596,5162.6825657964,72.506564,0,0.44884843956,12800,2018-05-10 20:49:08,16,0,23.785,5162.6825657964,72.506564,0.223694,0.88100068436,0,0,-0.671082,151.6, 1.5, 0,0,0,1024,1024,1024,1024,150.6,-90,95,3.932,3.973,3.971,3.956,3.962,3.985,17.953,75.2,14,Waypoint,
38.096588,-120.142596,5163.6668177964,73.490816,0,0.44884843956,12900,2018-05-10 20:49:08,16,0,23.785,5163.6668177964,73.490816,0.223694,0.88100068436,0,0,-0.671082,151.6, 1.5, 0.1,0,0,1024,1024,1024,1024,150.7,-90,95,3.932,3.973,3.971,3.956,3.962,3.985,17.953,75.2,14,Waypoint,
38.096588,-120.1425961,5164.6510697964,74.475068,0,0.43674870164,13000,2018-05-10 20:49:08,16,0,23.631,5164.6510697964,74.475068,0.223694,0.88100068436,0,0,-0.671082,151.6, 1.5, 0.1,0,0,1024,1024,1024,1024,150.7,-89.9,95,3.903,3.948,3.946,3.928,3.939,3.957,19.104,75.2,14,Waypoint,
38.096588,-120.1425961,5165.6353217964,75.45932,0,0.43674870164,13100,2018-05-10 20:49:08,16,0,23.631,5165.6353217964,75.45932,0.223694,0.88100068436,0,0,-0.671082,151.6, 1.6, 0,0,0,1024,1024,1024,1024,150.7,-90,95,3.903,3.948,3.946,3.928,3.939,3.957,19.104,75.2,14,Waypoint,
38.096588,-120.1425961,5166.6195737964,76.443572,0,0.43674870164,13200,2018-05-10 20:49:08,16,0,23.631,5166.6195737964,76.443572,0.223694,0.88100068436,0,0,-0.671082,151.6, 1.5, 0,0,0,1024,1024,1024,1024,150.7,-90,95,3.903,3.948,3.946,3.928,3.939,3.957,19.104,75.2,14,Waypoint,
38.096588,-120.1425962,5167.6038257964,77.427824,0,0.42624017112,13300,2018-05-10 20:49:08,16,0,23.631,5167.6038257964,77.427824,0.223694,0.88100068436,0,0,-0.671082,151.7, 1.5, -0.1,0,0,1024,1024,1024,1024,150.7,-89.9,95,3.903,3.948,3.946,3.928,3.939,3.957,19.104,75.2,14,Waypoint,
38.096588,-120.1425962,5168.5880777964,78.412076,0,0.42624017112,13400,2018-05-10 20:49:08,16,0,23.631,5168.5880777964,78.412076,0.223694,0.88100068436,0,0,-0.671082,151.8, 1.8, -0.1,0,0,1024,1024,1024,1024,150.7,-89.9,95,3.903,3.948,3.946,3.928,3.939,3.957,19.104,75.2,14,Waypoint,
38.0965879,-120.1425962,5169.5723297964,79.396328,0,0.46075460792,13500,2018-05-10 20:49:08,16,0,23.631,5169.5723297964,79.396328,0.223694,0.88100068436,0,0,-0.671082,151.9, 2.1, 0,0,0,1024,1024,1024,1024,150.7,-89.9,95,3.903,3.948,3.946,3.928,3.939,3.957,19.104,75.2,14,Waypoint,
38.0965879,-120.1425962,5170.5565817964,80.38058,0,0.46075460792,13600,2018-05-10 20:49:09,16,0,23.631,5170.5565817964,80.38058,0.223694,0.88100068436,0,0,-0.671082,151.9, 2.4, 0.4,0,0,1024,1024,1024,1024,150.7,-89.9,95,3.903,3.948,3.946,3.928,3.939,3.957,19.104,75.2,14,Waypoint,
38.0965879,-120.1425961,5171.5408337964,81.364832,0,0.47049542188,13700,2018-05-10 20:49:09,16,0,23.631,5171.5408337964,81.364832,0.223694,0.88100068436,0,0,-0.671082,151.9, 3, 0.6,0,0,1024,1024,1024,1024,150.6,-89.9,95,3.903,3.948,3.946,3.928,3.939,3.957,19.104,75.2,14,Waypoint,
38.0965878,-120.1425961,5172.5250857964,82.349084,0,0.50462271956,13800,2018-05-10 20:49:09,16,0,23.631,5172.5250857964,82.349084,0.223694,0.88100068436,0,0,-0.671082,151.7, 3.1, 0.6,0,0,1024,1024,1024,1024,150.6,-89.9,95,3.903,3.948,3.946,3.928,3.939,3.957,19.104,75.2,14,Waypoint,
38.0965878,-120.1425961,5173.5093377964,83.333336,0,0.50462271956,13900,2018-05-10 20:49:09,16,0,23.631,5173.5093377964,83.333336,0.223694,0.88100068436,0,0,-0.671082,151.5, 3, 0.4,0,0,1024,1024,1024,1024,150.6,-89.9,95,3.903,3.948,3.946,3.928,3.939,3.957,19.104,75.2,14,Waypoint,
38.0965878,-120.1425961,5174.4935897964,84.317588,0,0.50462271956,14000,2018-05-10 20:49:09,16,0,23.657,5174.4935897964,84.317588,0.223694,0.88100068436,0,0,-0.671082,151.4, 3, 0.2,0,0,1024,1024,1024,1024,150.6,-89.9,95,3.916,3.954,3.943,3.931,3.938,3.962,18.814,75.2,14,Waypoint,
38.0965877,-120.1425962,5176.4620937964,86.286092,0,0.53058072564,14210,2018-05-10 20:49:09,16,0,23.657,5176.4620937964,86.286092,0.223694,0.88100068436,0,0,-0.671082,151.6, 2.9, -0.1,0,0,1024,1024,1024,1024,150.7,-89.9,95,3.916,3.954,3.943,3.931,3.938,3.962,18.814,75.2,14,Waypoint,
38.0965876,-120.1425962,5177.4463457964,87.270344,0,0.56579070052,14300,2018-05-10 20:49:09,16,0,23.657,5177.4463457964,87.270344,0.223694,0.88100068436,0,0,-0.671082,151.7, 3.1, -0.2,0,0,1024,1024,1024,1024,150.7,-89.9,95,3.916,3.954,3.943,3.931,3.938,3.962,18.814,75.2,14,Waypoint,
38.0965876,-120.1425962,5179.4148497964,89.238848,0,0.56579070052,14500,2018-05-10 20:49:09,16,0,23.657,5179.4148497964,89.238848,0.223694,0.88100068436,0,0,-0.671082,151.6, 3, -0.3,0,0,1024,1024,1024,1024,150.7,-89.9,95,3.916,3.954,3.943,3.931,3.938,3.962,18.814,75.2,14,Waypoint,
38.0965876,-120.1425962,5180.3991017964,90.2231,0,0.56579070052,14700,2018-05-10 20:49:10,16,0,23.657,5180.3991017964,90.2231,0.223694,0.88100068436,0,0,-0.671082,151.5, 2.9, -0.3,0,0,1024,1024,1024,1024,150.7,-89.9,95,3.916,3.954,3.943,3.931,3.938,3.962,18.814,75.2,14,Waypoint,
38.0965876,-120.1425961,5181.3833537964,91.207352,0,0.57375001836,14800,2018-05-10 20:49:10,16,0,23.657,5181.3833537964,91.207352,0.223694,0.88100068436,0,0,-0.671082,151.5, 2.8, -0.1,0,0,1024,1024,1024,1024,150.7,-89.9,95,3.916,3.954,3.943,3.931,3.938,3.962,18.814,75.2,14,Waypoint,
38.0965876,-120.142596,5183.3518577964,93.175856,0,0.58301511052,14900,2018-05-10 20:49:10,16,0,23.657,5183.3518577964,93.175856,0.223694,0.88100068436,0,0,-0.671082,151.7, 3.1, 0.6,0,0,1024,1024,1024,1024,150.7,-89.9,95,3.916,3.954,3.943,3.931,3.938,3.962,18.814,75.2,14,Waypoint,
38.0965877,-120.1425958,5185.3203617964,95.14436,0.223694,0.57243768236,15000,2018-05-10 20:49:10,16,0,23.611,5185.3203617964,95.14436,0.223694,0.88100068436,0,0,-0.671082,151.8, 3.6, 1.3,0,0,1024,1024,1024,1024,150.7,-89.9,95,3.91,3.939,3.941,3.92,3.941,3.96,18.58,77,14,Waypoint,
38.0965876,-120.1425957,5186.3046137964,96.128612,0.223694,0.61802167332,15200,2018-05-10 20:49:10,16,0,23.611,5186.3046137964,96.128612,0.223694,0.88100068436,0,0,-0.671082,151.9, 3.7, 1.4,0,0,1024,1024,1024,1024,150.7,-89.9,95,3.91,3.939,3.941,3.92,3.941,3.96,18.58,77,14,Waypoint,
38.0965876,-120.1425956,5187.2888657964,97.112864,0,0.6318733798,15300,2018-05-10 20:49:10,16,0,23.611,5187.2888657964,97.112864,0.223694,0.88100068436,0,0,-0.671082,152, 3.8, 1.4,0,0,1024,1024,1024,1024,150.7,-89.9,95,3.91,3.939,3.941,3.92,3.941,3.96,18.58,77,14,Waypoint,
38.0965876,-120.1425955,5188.2731177964,98.097116,0,0.6467027766,15400,2018-05-10 20:49:10,16,0,23.611,5188.2731177964,98.097116,0.223694,0.88100068436,0,0,-0.671082,152, 3.6, 1.3,0,0,1024,1024,1024,1024,150.7,-89.9,95,3.91,3.939,3.941,3.92,3.941,3.96,18.58,77,14,Waypoint,
38.0965877,-120.1425955,5189.2573697964,99.081368,0,0.61613519032,15500,2018-05-10 20:49:10,16,0,23.611,5189.2573697964,99.081368,0.223694,0.88100068436,0,0,-0.671082,151.8, 3.5, 1.2,0,0,1024,1024,1024,1024,150.7,-89.9,95,3.91,3.939,3.941,3.92,3.941,3.96,18.58,77,14,Waypoint,
38.0965877,-120.1425955,5190.2416217964,100.06562,0,0.61613519032,15600,2018-05-10 20:49:11,16,0,23.611,5190.2416217964,100.06562,0.223694,0.88100068436,0,0,-0.671082,151.7, 3.2, 1.1,0,0,1024,1024,1024,1024,150.7,-90,95,3.91,3.939,3.941,3.92,3.941,3.96,18.58,77,14,Waypoint,
38.0965878,-120.1425956,5190.8977897964,100.721788,0,0.56984253792,15700,2018-05-10 20:49:11,16,0,23.611,5190.8977897964,100.721788,0.223694,0.88100068436,0,0,-0.671082,151.6, 3, 0.6,0,0,1024,1024,1024,1024,150.7,-90,95,3.91,3.939,3.941,3.92,3.941,3.96,18.58,77,14,Waypoint,
38.0965878,-120.1425956,5191.8820417964,101.70604,0,0.56984253792,15800,2018-05-10 20:49:11,16,0,23.611,5191.8820417964,101.70604,0.223694,0.88100068436,0,0,-0.671082,151.7, 2.7, 0.4,0,0,1024,1024,1024,1024,150.7,-90,95,3.91,3.939,3.941,3.92,3.941,3.96,18.58,77,14,Waypoint,
38.0965879,-120.1425956,5193.1943777964,103.018376,0,0.53985237948,15900,2018-05-10 20:49:11,16,0,23.611,5193.1943777964,103.018376,0.223694,0.88100068436,0,0,-0.671082,151.8, 2.4, 0.3,0,0,1024,1024,1024,1024,150.7,-90,95,3.91,3.939,3.941,3.92,3.941,3.96,18.58,77,14,Waypoint,
38.0965879,-120.1425956,5194.1786297964,104.002628,0,0.53985237948,16000,2018-05-10 20:49:11,16,0,23.585,5194.1786297964,104.002628,0.223694,0.88100068436,0,0,-0.671082,151.9, 2.2, 0.5,0,0,1024,1024,1024,1024,150.6,-90,95,3.91,3.939,3.941,3.92,3.941,3.96,18.58,77,14,Waypoint,
38.096588,-120.1425956,5195.1628817964,104.98688,0,0.51070867776,16100,2018-05-10 20:49:11,16,0,23.585,5195.1628817964,104.98688,0.223694,0.88100068436,0,0,-0.671082,152, 2.2, 1.2,0,0,1024,1024,1024,1024,150.7,-90,95,3.91,3.939,3.941,3.92,3.941,3.96,18.58,77,14,Waypoint,
38.0965881,-120.1425955,5196.1471337964,105.971132,0,0.50182744388,16200,2018-05-10 20:49:11,16,0,23.585,5196.1471337964,105.971132,0.223694,0.88100068436,0,0,-0.671082,152, 2.2, 1.7,0,0,1024,1024,1024,1024,150.7,-90,95,3.91,3.939,3.941,3.92,3.941,3.96,18.58,77,14,Waypoint,
38.0965882,-120.1425954,5197.1313857964,106.955384,0,0.49714240436,16300,2018-05-10 20:49:11,16,0,23.585,5197.1313857964,106.955384,0.223694,0.88100068436,0,0,-0.671082,152, 2, 1.9,0,0,1024,1024,1024,1024,150.6,-90,95,3.91,3.939,3.941,3.92,3.941,3.96,18.58,77,14,Waypoint,
38.0965883,-120.1425953,5198.1156377964,107.939636,0,0.4967683886,16400,2018-05-10 20:49:11,16,0,23.585,5198.1156377964,107.939636,0.223694,0.88100068436,0,0,-0.671082,151.9, 1.8, 2,0,0,1024,1024,1024,1024,150.7,-90,95,3.91,3.939,3.941,3.92,3.941,3.96,18.58,77,14,Waypoint,
38.0965884,-120.1425951,5200.0841417964,109.90814,0.223694,0.52562009556,16600,2018-05-10 20:49:12,16,0,23.585,5200.0841417964,109.90814,0.223694,0.88100068436,0,0,-0.671082,151.4, 2.1, 2.5,0,0,1024,1024,1024,1024,150.7,-90,95,3.91,3.939,3.941,3.92,3.941,3.96,18.58,77,14,Waypoint,
38.0965884,-120.1425949,5201.0683937964,110.892392,0.223694,0.57648623892,16700,2018-05-10 20:49:12,16,0,23.585,5201.0683937964,110.892392,0.223694,0.88100068436,0,0,-0.671082,151.3, 2.3, 2.7,0,0,1024,1024,1024,1024,150.7,-90,95,3.91,3.939,3.941,3.92,3.941,3.96,18.58,77,14,Waypoint,
38.0965884,-120.1425946,5203.3649817964,113.18898,0.223694,0.6548228556,16800,2018-05-10 20:49:12,16,0,23.585,5203.3649817964,113.18898,0.223694,0.88100068436,0,0,-0.671082,151.3, 3.3, 3,0,0,1024,1024,1024,1024,150.7,-89.9,95,3.91,3.939,3.941,3.92,3.941,3.96,18.58,77,14,Waypoint,
38.0965883,-120.1425942,5205.0054017964,114.8294,0.223694,0.77488847624,17000,2018-05-10 20:49:12,16,0,23.534,5205.0054017964,114.8294,0.223694,0.88100068436,0,0,-0.671082,152, 4.5, 3.3,0,0,1024,1024,1024,1024,150.7,-89.9,95,3.894,3.947,3.928,3.915,3.927,3.959,18.939,77,14,Waypoint,
38.0965883,-120.142594,5205.9896537964,115.813652,0.223694,0.82836616824,17100,2018-05-10 20:49:12,16,0,23.534,5205.9896537964,115.813652,0.223694,0.88100068436,0,0,-0.671082,152.3, 4.6, 3.2,0,0,1024,1024,1024,1024,150.7,-89.9,95,3.894,3.947,3.928,3.915,3.927,3.959,18.939,77,14,Waypoint,
38.0965882,-120.1425939,5206.9739057964,116.797904,0.223694,0.86842522464,17200,2018-05-10 20:49:12,16,0,23.534,5206.9739057964,116.797904,0.223694,0.88100068436,0,0,-0.671082,152.5, 4.5, 3.5,0,0,1024,1024,1024,1024,150.7,-89.9,95,3.894,3.947,3.928,3.915,3.927,3.959,18.939,77,14,Waypoint,
38.0965883,-120.1425937,5208.2862417964,118.11024,0.223694,0.90948821808,17400,2018-05-10 20:49:12,16,0,23.534,5208.2862417964,118.11024,0.223694,0.90948821808,0,0,-0.671082,152.6, 4.5, 3.8,0,0,1024,1024,1024,1024,150.7,-89.9,95,3.894,3.947,3.928,3.915,3.927,3.959,18.939,77,14,Waypoint,
38.0965883,-120.1425936,5209.2704937964,119.094492,0.223694,0.93672575176,17500,2018-05-10 20:49:12,16,0,23.534,5209.2704937964,119.094492,0.223694,0.93672575176,0,0,-0.671082,152.5, 4.2, 4.1,0,0,1024,1024,1024,1024,150.7,-89.9,95,3.894,3.947,3.928,3.915,3.927,3.959,18.939,77,14,Waypoint,
38.0965884,-120.1425935,5209.9266617964,119.75066,0,0.95363848196,17600,2018-05-10 20:49:13,16,0,23.534,5209.9266617964,119.75066,0.223694,0.95363848196,0,0,-0.671082,152.4, 3.8, 4.2,0,0,1024,1024,1024,1024,150.7,-89.9,95,3.894,3.947,3.928,3.915,3.927,3.959,18.939,77,14,Waypoint,
38.0965885,-120.1425935,5210.9109137964,120.734912,0,0.9445210276,17700,2018-05-10 20:49:13,16,0,23.534,5210.9109137964,120.734912,0.223694,0.95363848196,0,0,-0.671082,152.2, 3.4, 4,0,0,1024,1024,1024,1024,150.7,-90,95,3.894,3.947,3.928,3.915,3.927,3.959,18.939,77,14,Waypoint,
38.0965885,-120.1425935,5211.8951657964,121.719164,0,0.9445210276,17800,2018-05-10 20:49:13,16,0,23.534,5211.8951657964,121.719164,0.223694,0.95363848196,0,0,-0.671082,152, 3.1, 3.5,0,0,1024,1024,1024,1024,150.7,-90,95,3.894,3.947,3.928,3.915,3.927,3.959,18.939,77,14,Waypoint,
38.0965886,-120.1425935,5212.8794177964,122.703416,0,0.93673887512,17900,2018-05-10 20:49:13,16,0,23.534,5212.8794177964,122.703416,0.223694,0.95363848196,0,0,-0.671082,151.9, 3, 3.3,0,0,1024,1024,1024,1024,150.7,-90,95,3.894,3.947,3.928,3.915,3.927,3.959,18.939,77,14,Waypoint,
38.0965886,-120.1425935,5213.8636697964,123.687668,0,0.93673887512,18000,2018-05-10 20:49:13,16,0,23.663,5213.8636697964,123.687668,0.223694,0.95363848196,0,0,-0.671082,151.8, 3, 3.3,0,0,1024,1024,1024,1024,150.6,-90,95,3.906,3.945,3.959,3.927,3.954,3.958,17.102,77,14,Waypoint,
38.0965886,-120.1425935,5214.5198377964,124.343836,0,0.93673887512,18100,2018-05-10 20:49:13,16,0,23.663,5214.5198377964,124.343836,0.223694,0.95363848196,0,0,-0.671082,151.8, 3.1, 3.4,0,0,1024,1024,1024,1024,150.7,-89.9,95,3.906,3.945,3.959,3.927,3.954,3.958,17.102,77,14,Waypoint,
38.0965887,-120.1425935,5215.5040897964,125.328088,0,0.93032155208,18200,2018-05-10 20:49:13,16,0,23.663,5215.5040897964,125.328088,0.223694,0.95363848196,0,0,-0.671082,151.8, 3.2, 3.3,0,0,1024,1024,1024,1024,150.7,-90,95,3.906,3.945,3.959,3.927,3.954,3.958,17.102,77,14,Waypoint,
38.0965887,-120.1425934,5216.4883417964,126.31234,0,0.95869097556,18300,2018-05-10 20:49:13,16,0,23.663,5216.4883417964,126.31234,0.223694,0.95869097556,0,0,-0.671082,151.9, 3.4, 3.5,0,0,1024,1024,1024,1024,150.7,-89.9,95,3.906,3.945,3.959,3.927,3.954,3.958,17.102,77,14,Waypoint,
38.0965887,-120.1425934,5217.4725937964,127.296592,0,0.95869097556,18400,2018-05-10 20:49:13,16,0,23.663,5217.4725937964,127.296592,0.223694,0.95869097556,0,0,-0.671082,152, 4.1, 3.7,0,0,1024,1024,1024,1024,150.7,-89.9,95,3.906,3.945,3.959,3.927,3.954,3.958,17.102,77,14,Waypoint,
38.0965887,-120.1425934,5218.4568457964,128.280844,0,0.95869097556,18500,2018-05-10 20:49:13,16,0,23.663,5218.4568457964,128.280844,0.223694,0.95869097556,0,0,-0.671082,152.1, 3.6, 3.5,0,0,1024,1024,1024,1024,150.7,-90,95,3.906,3.945,3.959,3.927,3.954,3.958,17.102,77,14,Waypoint,
38.0965887,-120.1425935,5219.1130137964,128.937012,0,0.93032155208,18600,2018-05-10 20:49:14,16,0,23.663,5219.1130137964,128.937012,0.223694,0.95869097556,0,0,-0.671082,151.9, 3.3, 2.9,0,0,1024,1024,1024,1024,150.7,-90,95,3.906,3.945,3.959,3.927,3.954,3.958,17.102,77,14,Waypoint,
38.0965886,-120.1425936,5220.0972657964,129.921264,0,0.90859254876,18700,2018-05-10 20:49:14,16,0,23.663,5220.0972657964,129.921264,0.223694,0.95869097556,0,0,-0.671082,151.7, 3.2, 2.3,0,0,1024,1024,1024,1024,150.6,-89.9,95,3.906,3.945,3.959,3.927,3.954,3.958,17.102,77,14,Waypoint,
38.0965886,-120.1425936,5221.0815177964,130.905516,0,0.90859254876,18800,2018-05-10 20:49:14,16,0,23.663,5221.0815177964,130.905516,0.223694,0.95869097556,0,0,-0.671082,151.5, 3.3, 1.8,0,0,1024,1024,1024,1024,150.7,-89.9,95,3.906,3.945,3.959,3.927,3.954,3.958,17.102,77,14,Waypoint,
38.0965885,-120.1425937,5222.0657697964,131.889768,0,0.88875987096,18900,2018-05-10 20:49:14,16,0,23.663,5222.0657697964,131.889768,0.223694,0.95869097556,0,0,-0.671082,151.5, 3.6, 1.5,0,0,1024,1024,1024,1024,150.7,-89.9,95,3.906,3.945,3.959,3.927,3.954,3.958,17.102,77,14,Waypoint,
38.0965884,-120.1425938,5223.0500217964,132.87402,0,0.87095147144,19000,2018-05-10 20:49:14,16,0,23.602,5223.0500217964,132.87402,0.223694,0.95869097556,0,0,-0.671082,151.5, 4, 1.5,0,0,1024,1024,1024,1024,150.7,-89.9,95,3.898,3.941,3.932,3.917,3.936,3.947,18.19,77,14,Waypoint,
38.0965883,-120.1425939,5225.0185257964,134.842524,0.223694,0.8552985838,19100,2018-05-10 20:49:14,16,0,23.602,5225.0185257964,134.842524,0.223694,0.95869097556,0,0,-0.671082,151.5, 4.5, 1.7,0,0,1024,1024,1024,1024,150.7,-89.9,95,3.898,3.941,3.932,3.917,3.936,3.947,18.19,77,14,Waypoint,
38.0965882,-120.1425939,5226.3308617964,136.15486,0.223694,0.86842522464,19200,2018-05-10 20:49:14,16,0,23.602,5226.3308617964,136.15486,0.223694,0.95869097556,0,0,-0.671082,151.5, 4.9, 1.6,0,0,1024,1024,1024,1024,150.7,-89.9,95,3.898,3.941,3.932,3.917,3.936,3.947,18.19,77,14,Waypoint,
38.0965881,-120.142594,5227.3151137964,137.139112,0.223694,0.85680448936,19320,2018-05-10 20:49:14,16,0,23.602,5227.3151137964,137.139112,0.223694,0.95869097556,0,0,-0.671082,151.4, 5.2, 1.4,0,0,1024,1024,1024,1024,150.7,-89.9,95,3.898,3.941,3.932,3.917,3.936,3.947,18.19,77,14,Waypoint,
38.0965881,-120.142594,5227.3151137964,137.139112,0.223694,0.85680448936,19400,2018-05-10 20:49:14,16,0,23.602,5227.3151137964,137.139112,0.223694,0.95869097556,0,0,-0.671082,151.4, 5.2, 1.4,0,0,1024,1024,1024,1024,150.7,-89.9,95,3.898,3.941,3.932,3.917,3.936,3.947,18.19,77,14,Waypoint,
38.096588,-120.142594,5228.2993657964,138.123364,0,0.8729659072,19500,2018-05-10 20:49:14,16,0,23.602,5228.2993657964,138.123364,0.223694,0.95869097556,0,0,-0.671082,151.6, 5.3, 1.3,0,0,1024,1024,1024,1024,150.7,-89.9,95,3.898,3.941,3.932,3.917,3.936,3.947,18.19,77,14,Waypoint,
38.096588,-120.1425942,5230.2678697964,140.091868,0,0.8223917586,19600,2018-05-10 20:49:15,16,0,23.602,5230.2678697964,140.091868,0.223694,0.95869097556,0,0,-0.671082,151.7, 4.8, 0.9,0,0,1024,1024,1024,1024,150.7,-89.9,95,3.898,3.941,3.932,3.917,3.936,3.947,18.19,77,14,Waypoint,
38.096588,-120.1425943,5231.2521217964,141.07612,0,0.79745409376,19700,2018-05-10 20:49:15,16,0,23.602,5231.2521217964,141.07612,0.223694,0.95869097556,0,0,-0.671082,151.7, 4.4, 0.9,0,0,1024,1024,1024,1024,150.7,-90,95,3.898,3.941,3.932,3.917,3.936,3.947,18.19,77,14,Waypoint,
38.096588,-120.1425944,5232.2363737964,142.060372,0,0.77277561528,19900,2018-05-10 20:49:15,16,0,23.602,5232.2363737964,142.060372,0.223694,0.95869097556,0,0,-0.671082,151.5, 4.1, 1.1,0,0,1024,1024,1024,1024,150.7,-90,95,3.898,3.941,3.932,3.917,3.936,3.947,18.19,77,14,Waypoint,
38.096588,-120.1425945,5233.5487097964,143.372708,0,0.74838913156,20000,2018-05-10 20:49:15,16,0,23.502,5233.5487097964,143.372708,0.223694,0.95869097556,0,0,-0.671082,151.4, 3.7, 0.8,0,0,1024,1024,1024,1024,150.7,-90,95,3.889,3.929,3.923,3.905,3.918,3.938,19.11,77,14,Waypoint,
38.0965881,-120.1425946,5234.5329617964,144.35696,0,0.7047572404,20100,2018-05-10 20:49:15,16,0,23.502,5234.5329617964,144.35696,0.223694,0.95869097556,0,0,-0.671082,151.3, 3.5, 0.6,0,0,1024,1024,1024,1024,150.7,-90,95,3.889,3.929,3.923,3.905,3.918,3.938,19.11,77,14,Waypoint,
38.0965881,-120.1425948,5235.5172137964,145.341212,0,0.6562992336,20200,2018-05-10 20:49:15,16,0,23.502,5235.5172137964,145.341212,0.223694,0.95869097556,0,0,-0.671082,151.3, 3.2, 0.7,0,0,1024,1024,1024,1024,150.7,-90,95,3.889,3.929,3.923,3.905,3.918,3.938,19.11,77,14,Waypoint,
38.0965881,-120.1425949,5236.5014657964,146.325464,0,0.63263453468,20300,2018-05-10 20:49:15,16,0,23.502,5236.5014657964,146.325464,0.223694,0.95869097556,0,0,-0.671082,151.2, 3.2, 0.9,0,0,1024,1024,1024,1024,150.7,-90,95,3.889,3.929,3.923,3.905,3.918,3.938,19.11,77,14,Waypoint,
38.0965882,-120.142595,5237.4857177964,147.309716,0,0.58828413956,20400,2018-05-10 20:49:15,16,0,23.502,5237.4857177964,147.309716,0.223694,0.95869097556,0,0,-0.671082,151.1, 3, 1.3,0,0,1024,1024,1024,1024,150.7,-90,95,3.889,3.929,3.923,3.905,3.918,3.938,19.11,77,14,Waypoint,
38.0965883,-120.1425951,5238.4699697964,148.293968,0,0.54428151348,20500,2018-05-10 20:49:15,16,0,23.502,5238.4699697964,148.293968,0.223694,0.95869097556,0,0,-0.671082,151.1, 2.7, 1.7,0,0,1024,1024,1024,1024,150.7,-90,95,3.889,3.929,3.923,3.905,3.918,3.938,19.11,77,14,Waypoint,
38.0965883,-120.1425952,5239.4542217964,149.27822,0,0.5202756072,20600,2018-05-10 20:49:16,16,0,23.502,5239.4542217964,149.27822,0.223694,0.95869097556,0,0,-0.671082,151.2, 2.7, 1.8,0,0,1024,1024,1024,1024,150.7,-90,95,3.889,3.929,3.923,3.905,3.918,3.938,19.11,77,14,Waypoint,
38.0965883,-120.1425953,5240.4384737964,150.262472,0,0.4967683886,20700,2018-05-10 20:49:16,16,0,23.502,5240.4384737964,150.262472,0.223694,0.95869097556,0,0,-0.671082,151.4, 2.7, 1.7,0,0,1024,1024,1024,1024,150.7,-90,95,3.889,3.929,3.923,3.905,3.918,3.938,19.11,77,14,Waypoint,
38.0965884,-120.1425954,5241.4227257964,151.246724,0,0.45227363652,20800,2018-05-10 20:49:16,16,0,23.502,5241.4227257964,151.246724,0.223694,0.95869097556,0,0,-0.671082,151.5, 2.8, 1.5,0,0,1024,1024,1024,1024,150.7,-90,95,3.889,3.929,3.923,3.905,3.918,3.938,19.11,77,14,Waypoint,
38.0965884,-120.1425955,5242.4069777964,152.230976,0,0.42888452816,20900,2018-05-10 20:49:16,16,0,23.502,5242.4069777964,152.230976,0.223694,0.95869097556,0,0,-0.671082,151.6, 2.9, 1.3,0,0,1024,1024,1024,1024,150.7,-90,95,3.889,3.929,3.923,3.905,3.918,3.938,19.11,77,14,Waypoint,
38.0965884,-120.1425955,5243.3912297964,153.215228,0,0.42888452816,21000,2018-05-10 20:49:16,16,0,23.56,5243.3912297964,153.215228,0.223694,0.95869097556,0,0,-0.671082,151.8, 3.2, 1.2,0,0,1024,1024,1024,1024,150.7,-90,94,3.898,3.938,3.929,3.915,3.933,3.947,17.936,77,14,Waypoint,
38.0965884,-120.1425956,5244.3754817964,154.19948,0,0.40617783452,21100,2018-05-10 20:49:16,16,0,23.56,5244.3754817964,154.19948,0.223694,0.95869097556,0,0,-0.671082,152, 3.4, 1.3,0,0,1024,1024,1024,1024,150.7,-90,94,3.898,3.938,3.929,3.915,3.933,3.947,17.936,77,14,Waypoint,
38.0965884,-120.1425956,5245.3597337964,155.183732,0,0.40617783452,21200,2018-05-10 20:49:16,16,0,23.56,5245.3597337964,155.183732,0.223694,0.95869097556,0,0,-0.671082,152.1, 3.4, 1.6,0,0,1024,1024,1024,1024,150.7,-90,94,3.898,3.938,3.929,3.915,3.933,3.947,17.936,77,14,Waypoint,
38.0965884,-120.1425957,5247.3282377964,157.152236,0,0.38427494668,21300,2018-05-10 20:49:16,16,0,23.56,5247.3282377964,157.152236,0.223694,0.95869097556,0,0,-0.671082,152.4, 3.1, 2.1,0,0,1024,1024,1024,1024,150.7,-90,94,3.898,3.938,3.929,3.915,3.933,3.947,17.936,77,14,Waypoint,
38.0965884,-120.1425957,5248.3124897964,158.136488,0,0.38427494668,21400,2018-05-10 20:49:16,16,0,23.56,5248.3124897964,158.136488,0.223694,0.95869097556,0,0,-0.671082,152.5, 3.1, 2.2,0,0,1024,1024,1024,1024,150.7,-90,94,3.898,3.938,3.929,3.915,3.933,3.947,17.936,77,14,Waypoint,
38.0965884,-120.1425957,5249.2967417964,159.12074,0,0.38427494668,21610,2018-05-10 20:49:17,16,0,23.56,5249.2967417964,159.12074,0.223694,0.95869097556,0,0,-0.671082,152.5, 3.1, 2.1,0,0,1024,1024,1024,1024,150.7,-90,94,3.898,3.938,3.929,3.915,3.933,3.947,17.936,77,14,Waypoint,
38.0965885,-120.1425957,5250.2809937964,160.104992,0,0.361056442,21700,2018-05-10 20:49:17,16,0,23.56,5250.2809937964,160.104992,0.223694,0.95869097556,0,0,-0.671082,152.4, 3.3, 2.2,0,0,1024,1024,1024,1024,150.7,-90,94,3.898,3.938,3.929,3.915,3.933,3.947,17.936,77,14,Waypoint,
38.0965885,-120.1425957,5251.2652457964,161.089244,0,0.361056442,21800,2018-05-10 20:49:17,16,0,23.56,5251.2652457964,161.089244,0.223694,0.95869097556,0,0,-0.671082,152.2, 3.2, 2.2,0,0,1024,1024,1024,1024,150.7,-90,94,3.898,3.938,3.929,3.915,3.933,3.947,17.936,77,14,Waypoint,
38.0965885,-120.1425957,5252.2494977964,162.073496,0,0.361056442,21900,2018-05-10 20:49:17,16,0,23.56,5252.2494977964,162.073496,0.223694,0.95869097556,0,0,-0.671082,152, 3, 2.4,0,0,1024,1024,1024,1024,150.7,-90,94,3.898,3.938,3.929,3.915,3.933,3.947,17.936,77,14,Waypoint,
38.0965886,-120.1425957,5253.2337497964,163.057748,0,0.34017717624,22000,2018-05-10 20:49:17,16,0,23.578,5253.2337497964,163.057748,0.223694,0.95869097556,0,0,-0.671082,151.8, 2.9, 2.5,0,0,1024,1024,1024,1024,150.7,-90,94,3.898,3.938,3.929,3.915,3.933,3.947,17.248,77,14,Waypoint,
38.0965886,-120.1425956,5255.2022537964,165.026252,0,0.36473754448,22200,2018-05-10 20:49:17,16,0,23.578,5255.2022537964,165.026252,0.223694,0.95869097556,0,0,-0.671082,151.4, 2.9, 2.4,0,0,1024,1024,1024,1024,150.7,-90,94,3.898,3.938,3.929,3.915,3.933,3.947,17.248,77,14,Waypoint,
38.0965886,-120.1425956,5256.5145897964,166.338588,0,0.36473754448,22300,2018-05-10 20:49:17,16,0,23.578,5256.5145897964,166.338588,0.223694,0.95869097556,0,0,-0.671082,151.4, 2.9, 2.3,0,0,1024,1024,1024,1024,150.7,-90,94,3.898,3.938,3.929,3.915,3.933,3.947,17.248,77,14,Waypoint,
38.0965886,-120.1425956,5257.1707577964,166.994756,0,0.36473754448,22400,2018-05-10 20:49:17,16,0,23.578,5257.1707577964,166.994756,0.223694,0.95869097556,0,0,-0.671082,151.3, 3.1, 2.1,0,0,1024,1024,1024,1024,150.7,-89.9,94,3.898,3.938,3.929,3.915,3.933,3.947,17.248,77,14,Waypoint,
38.0965886,-120.1425956,5258.4830937964,168.307092,0,0.36473754448,22500,2018-05-10 20:49:17,16,0,23.578,5258.4830937964,168.307092,0.223694,0.95869097556,0,0,-0.671082,151.3, 3.1, 2.2,0,0,1024,1024,1024,1024,150.7,-90,94,3.898,3.938,3.929,3.915,3.933,3.947,17.248,77,14,Waypoint,
38.0965886,-120.1425956,5259.1392617964,168.96326,0,0.36473754448,22600,2018-05-10 20:49:18,16,0,23.578,5259.1392617964,168.96326,0.223694,0.95869097556,0,0,-0.671082,151.3, 3.1, 2.2,0,0,1024,1024,1024,1024,150.7,-90,94,3.898,3.938,3.929,3.915,3.933,3.947,17.248,77,14,Waypoint,
38.0965887,-120.1425955,5260.1235137964,169.947512,0,0.37418308284,22700,2018-05-10 20:49:18,16,0,23.578,5260.1235137964,169.947512,0.223694,0.95869097556,0,0,-0.671082,151.3, 2.9, 2.3,0,0,1024,1024,1024,1024,150.6,-90,94,3.898,3.938,3.929,3.915,3.933,3.947,17.248,77,14,Waypoint,
38.0965887,-120.1425955,5261.4358497964,171.259848,0,0.37418308284,22800,2018-05-10 20:49:18,16,0,23.578,5261.4358497964,171.259848,0.223694,0.95869097556,0,0,-0.671082,151.3, 2.9, 2.4,0,0,1024,1024,1024,1024,150.7,-90,94,3.898,3.938,3.929,3.915,3.933,3.947,17.248,77,14,Waypoint,
38.0965887,-120.1425954,5262.4201017964,172.2441,0,0.40078085272,22900,2018-05-10 20:49:18,16,0,23.578,5262.4201017964,172.2441,0.223694,0.95869097556,0,0,-0.671082,151.4, 2.9, 2.6,0,0,1024,1024,1024,1024,150.7,-89.9,94,3.898,3.938,3.929,3.915,3.933,3.947,17.248,77,14,Waypoint,
38.0965887,-120.1425954,5263.4043537964,173.228352,0.223694,0.40078085272,23000,2018-05-10 20:49:18,16,0,23.578,5263.4043537964,173.228352,0.223694,0.95869097556,0,0,-0.671082,151.5, 3, 2.9,0,0,1024,1024,1024,1024,150.7,-89.9,94,3.901,3.945,3.938,3.932,3.933,3.961,17.248,77,14,Waypoint,
38.0965888,-120.1425952,5264.3886057964,174.212604,0.223694,0.44437993548,23100,2018-05-10 20:49:18,16,0,23.578,5264.3886057964,174.212604,0.223694,0.95869097556,0,0,-0.671082,151.7, 3.1, 3.2,0,0,1024,1024,1024,1024,150.7,-89.9,94,3.901,3.945,3.938,3.932,3.933,3.961,17.248,77,14,Waypoint,
38.0965888,-120.1425951,5265.3728577964,175.196856,0.223694,0.4722605138,23200,2018-05-10 20:49:18,16,0,23.578,5265.3728577964,175.196856,0.223694,0.95869097556,0,0,-0.671082,151.9, 3.1, 3.6,0,0,1024,1024,1024,1024,150.7,-90,94,3.901,3.945,3.938,3.932,3.933,3.961,17.248,77,14,Waypoint,
38.0965889,-120.142595,5266.3571097964,176.181108,0.223694,0.49354004204,23300,2018-05-10 20:49:18,16,0,23.578,5266.3571097964,176.181108,0.223694,0.95869097556,0,0,-0.671082,152, 3.1, 3.9,0,0,1024,1024,1024,1024,150.7,-90,94,3.901,3.945,3.938,3.932,3.933,3.961,17.248,77,14,Waypoint,
38.0965889,-120.1425949,5267.3413617964,177.16536,0.223694,0.52195211644,23400,2018-05-10 20:49:18,16,0,23.578,5267.3413617964,177.16536,0.223694,0.95869097556,0,0,-0.671082,152, 3, 4.3,0,0,1024,1024,1024,1024,150.7,-90,94,3.901,3.945,3.938,3.932,3.933,3.961,17.248,77,14,Waypoint,
38.0965891,-120.1425947,5269.3098657964,179.133864,0.223694,0.57425198688,23700,2018-05-10 20:49:19,16,0,23.578,5269.3098657964,179.133864,0.223694,0.95869097556,0,0,-0.671082,151.9, 2.6, 4.4,0,0,1024,1024,1024,1024,150.7,-90,94,3.901,3.945,3.938,3.932,3.933,3.961,17.248,77,14,Waypoint,
38.0965893,-120.1425944,5272.2626217964,182.08662,0,0.66440947008,23900,2018-05-10 20:49:19,16,0,23.578,5272.2626217964,182.08662,0.223694,0.95869097556,0,0,-0.671082,151.9, 2.3, 4.4,0,0,1024,1024,1024,1024,150.7,-90,94,3.901,3.945,3.938,3.932,3.933,3.961,17.248,77,14,Waypoint,
38.0965894,-120.1425943,5272.9187897964,182.742788,0,0.69774280448,24000,2018-05-10 20:49:19,16,0,23.567,5272.9187897964,182.742788,0.223694,0.95869097556,0,0,-0.671082,152, 2.3, 4.5,0,0,1024,1024,1024,1024,150.7,-90,94,3.899,3.938,3.925,3.912,3.925,3.954,17.858,77,14,Waypoint,
38.0965895,-120.1425943,5273.9030417964,183.72704,0.223694,0.70438650548,24100,2018-05-10 20:49:19,16,0,23.567,5273.9030417964,183.72704,0.223694,0.95869097556,0,0,-0.671082,152, 2.3, 4.6,0,0,1024,1024,1024,1024,150.7,-90,94,3.899,3.938,3.925,3.912,3.925,3.954,17.858,77,14,Waypoint,
38.0965895,-120.1425941,5274.8872937964,184.711292,0.223694,0.76065947316,24200,2018-05-10 20:49:19,16,0,23.567,5274.8872937964,184.711292,0.223694,0.95869097556,0,0,-0.671082,152, 2.4, 5,0,0,1024,1024,1024,1024,150.7,-89.9,94,3.899,3.938,3.925,3.912,3.925,3.954,17.858,77,14,Waypoint,
38.0965895,-120.142594,5275.8715457964,185.695544,0.223694,0.78885829296,24300,2018-05-10 20:49:19,16,0,23.567,5275.8715457964,185.695544,0.223694,0.95869097556,0,0,-0.671082,151.9, 2.5, 5.2,0,0,1024,1024,1024,1024,150.7,-89.9,94,3.899,3.938,3.925,3.912,3.925,3.954,17.858,77,14,Waypoint,
38.0965896,-120.1425939,5276.5277137964,186.351712,0,0.82438979016,24400,2018-05-10 20:49:19,16,0,23.567,5276.5277137964,186.351712,0.223694,0.95869097556,0,0,-0.671082,151.9, 2.9, 5.3,0,0,1024,1024,1024,1024,150.7,-89.9,94,3.899,3.938,3.925,3.912,3.925,3.954,17.858,77,14,Waypoint,
38.0965895,-120.1425938,5277.5119657964,187.335964,0,0.8453576386,24500,2018-05-10 20:49:19,16,0,23.567,5277.5119657964,187.335964,0.223694,0.95869097556,0,0,-0.671082,151.9, 3.1, 5.3,0,0,1024,1024,1024,1024,150.7,-89.9,94,3.899,3.938,3.925,3.912,3.925,3.954,17.858,77,14,Waypoint,
38.0965895,-120.1425938,5278.4962177964,188.320216,0,0.8453576386,24600,2018-05-10 20:49:20,16,0,23.567,5278.4962177964,188.320216,0.223694,0.95869097556,0,0,-0.671082,151.9, 3.2, 5.1,0,0,1024,1024,1024,1024,150.7,-89.9,94,3.899,3.938,3.925,3.912,3.925,3.954,17.858,77,14,Waypoint,
38.0965895,-120.1425937,5279.1523857964,188.976384,0,0.8736548836,24700,2018-05-10 20:49:20,16,0,23.567,5279.1523857964,188.976384,0.223694,0.95869097556,0,0,-0.671082,151.8, 3.5, 4.8,0,0,1024,1024,1024,1024,150.7,-89.9,94,3.899,3.938,3.925,3.912,3.925,3.954,17.858,77,14,Waypoint,
38.0965894,-120.1425937,5280.1366377964,189.960636,0,0.86830383356,24800,2018-05-10 20:49:20,16,0,23.567,5280.1366377964,189.960636,0.223694,0.95869097556,0,0,-0.671082,151.7, 3.6, 4.4,0,0,1024,1024,1024,1024,150.7,-89.9,94,3.899,3.938,3.925,3.912,3.925,3.954,17.858,77,14,Waypoint,
38.0965893,-120.1425937,5281.1208897964,190.944888,0,0.86446525076,24900,2018-05-10 20:49:20,16,0,23.567,5281.1208897964,190.944888,0.223694,0.95869097556,0,0,-0.671082,151.5, 3.7, 4.1,0,0,1024,1024,1024,1024,150.6,-89.9,94,3.899,3.938,3.925,3.912,3.925,3.954,17.858,77,14,Waypoint,
38.0965893,-120.1425937,5282.1051417964,191.92914,0,0.86446525076,25000,2018-05-10 20:49:20,16,0,23.58,5282.1051417964,191.92914,0.223694,0.95869097556,0,0,-0.671082,151.5, 3.8, 3.8,0,0,1024,1024,1024,1024,150.7,-89.9,94,3.906,3.944,3.94,3.926,3.945,3.957,17.319,77,14,Waypoint,
38.0965892,-120.1425937,5283.0893937964,192.913392,0,0.86215225856,25100,2018-05-10 20:49:20,16,0,23.58,5283.0893937964,192.913392,0.223694,0.95869097556,0,0,-0.671082,151.5, 3.8, 3.8,0,0,1024,1024,1024,1024,150.7,-89.9,94,3.906,3.944,3.94,3.926,3.945,3.957,17.319,77,14,Waypoint,
38.0965891,-120.1425937,5283.7455617964,193.56956,0,0.86137798032,25200,2018-05-10 20:49:20,16,0,23.58,5283.7455617964,193.56956,0.223694,0.95869097556,0,0,-0.671082,151.6, 3.8, 3.8,0,0,1024,1024,1024,1024,150.7,-89.9,94,3.906,3.944,3.94,3.926,3.945,3.957,17.319,77,14,Waypoint,
38.0965891,-120.1425938,5284.7298137964,194.553812,0,0.83266734948,25300,2018-05-10 20:49:20,16,0,23.58,5284.7298137964,194.553812,0.223694,0.95869097556,0,0,-0.671082,151.7, 3.8, 3.7,0,0,1024,1024,1024,1024,150.7,-89.9,94,3.906,3.944,3.94,3.926,3.945,3.957,17.319,77,14,Waypoint,
38.096589,-120.1425938,5285.7140657964,195.538064,0,0.8334645936,25400,2018-05-10 20:49:20,16,0,23.58,5285.7140657964,195.538064,0.223694,0.95869097556,0,0,-0.671082,151.8, 3.8, 3.6,0,0,1024,1024,1024,1024,150.7,-89.9,94,3.906,3.944,3.94,3.926,3.945,3.957,17.319,77,14,Waypoint,
38.096589,-120.1425939,5286.6983177964,196.522316,0,0.80478020948,25500,2018-05-10 20:49:20,16,0,23.58,5286.6983177964,196.522316,0.223694,0.95869097556,0,0,-0.671082,151.8, 3.9, 3.5,0,0,1024,1024,1024,1024,150.7,-89.9,94,3.906,3.944,3.94,3.926,3.945,3.957,17.319,77,14,Waypoint,
38.0965889,-120.1425939,5287.6825697964,197.506568,0,0.80725724368,25600,2018-05-10 20:49:21,16,0,23.58,5287.6825697964,197.506568,0.223694,0.95869097556,0,0,-0.671082,151.9, 4, 3.3,0,0,1024,1024,1024,1024,150.7,-89.9,94,3.906,3.944,3.94,3.926,3.945,3.957,17.319,77,14,Waypoint,
38.0965888,-120.1425941,5289.6510737964,199.475072,0,0.75450789816,25820,2018-05-10 20:49:21,16,0,23.58,5289.6510737964,199.475072,0.223694,0.95869097556,0,0,-0.671082,152, 3.9, 3,0,0,1024,1024,1024,1024,150.7,-89.9,94,3.906,3.944,3.94,3.926,3.945,3.957,17.319,77,14,Waypoint,
38.0965888,-120.1425942,5291.9476617964,201.77166,0,0.72611222796,25900,2018-05-10 20:49:21,16,0,23.58,5291.9476617964,201.77166,0.223694,0.95869097556,0,0,-0.671082,151.9, 3.4, 3.2,0,0,1024,1024,1024,1024,150.7,-90,94,3.906,3.944,3.94,3.926,3.945,3.957,17.319,77,14,Waypoint,
38.0965889,-120.1425942,5292.9319137964,202.755912,0,0.72151577112,26100,2018-05-10 20:49:21,16,0,23.58,5292.9319137964,202.755912,0.223694,0.95869097556,0,0,-0.671082,151.9, 3.1, 3.3,0,0,1024,1024,1024,1024,150.7,-90,94,3.906,3.944,3.94,3.926,3.945,3.957,17.319,77,14,Waypoint,
38.0965889,-120.1425943,5293.9161657964,203.740164,0,0.69295605892,26200,2018-05-10 20:49:21,16,0,23.58,5293.9161657964,203.740164,0.223694,0.95869097556,0,0,-0.671082,151.8, 2.9, 3.4,0,0,1024,1024,1024,1024,150.7,-90,94,3.906,3.944,3.94,3.926,3.945,3.957,17.319,77,14,Waypoint,
38.0965889,-120.1425943,5294.9004177964,204.724416,0,0.69295605892,26300,2018-05-10 20:49:21,16,0,23.58,5294.9004177964,204.724416,0.223694,0.95869097556,0,0,-0.671082,151.8, 2.8, 3.5,0,0,1024,1024,1024,1024,150.7,-90,94,3.906,3.944,3.94,3.926,3.945,3.957,17.319,77,14,Waypoint,
38.096589,-120.1425943,5295.8846697964,205.708668,0,0.69006891972,26400,2018-05-10 20:49:21,16,0,23.58,5295.8846697964,205.708668,0.223694,0.95869097556,0,0,-0.671082,151.8, 2.8, 3.4,0,0,1024,1024,1024,1024,150.7,-90,94,3.906,3.944,3.94,3.926,3.945,3.957,17.319,77,14,Waypoint,
38.096589,-120.1425944,5296.8689217964,206.69292,0,0.66139765896,26500,2018-05-10 20:49:21,16,0,23.58,5296.8689217964,206.69292,0.223694,0.95869097556,0,0,-0.671082,151.8, 2.9, 3.5,0,0,1024,1024,1024,1024,150.7,-89.9,94,3.906,3.944,3.94,3.926,3.945,3.957,17.319,77,14,Waypoint,
