latitude,longitude,altitude(feet),ascent(feet),speed(mph),distance(feet),time(millisecond),datetime(utc),satellites,gpslevel,voltage(v),max_altitude(feet),max_ascent(feet),max_speed(mph),max_distance(feet), xSpeed(mph), ySpeed(mph), zSpeed(mph), compass_heading(degrees), pitch(degrees), roll(degrees),isPhoto,isVideo,rc_elevator,rc_aileron,rc_throttle,rc_rudder,gimbal_heading(degrees),gimbal_pitch(degrees),battery_percent,voltageCell1,voltageCell2,voltageCell3,voltageCell4,voltageCell5,voltageCell6,current(A),battery_temperature(f),flycStateRaw,flycState,message
38.096604,-120.14262,5090.0522494958,0,0,0,3300,2018-05-10 21:08:48,16,0,0,5090.0522494958,0,0,0,0,0,-0.223694,151.8, 0.6, 0.5,1,0,1024,1024,1024,1024,150.7,-89.9,98,4.236,4.246,4.184,4.232,4.229,4.24,0,68,11,AutoTakeoff,
38.0966041,-120.1426198,5090.0522494958,0,0.223694,0.068035435248,3400,2018-05-10 21:08:48,16,0,0,5090.0522494958,0,0.223694,0.068035435248,0,0,-0.223694,151.6, 0.4, 0.4,0,0,1024,1024,1024,1024,150.7,-89.9,98,4.236,4.246,4.184,4.232,4.229,4.24,0,68,11,AutoTakeoff,
38.0966041,-120.1426197,5090.0522494958,0,0.223694,0.093546262836,3500,2018-05-10 21:08:48,16,0,0,5090.0522494958,0,0.223694,0.093546262836,0,0,0,151.4, 0.1, 0.3,0,0,1024,1024,1024,1024,150.7,-90,98,4.236,4.246,4.184,4.232,4.229,4.24,0,68,11,AutoTakeoff,
38.0966041,-120.1426196,5090.3803334958,0.328084,0.223694,0.120506237452,3600,2018-05-10 21:08:48,16,0,0,5090.3803334958,0.328084,0.223694,0.120506237452,0,0,0,151.2, 0.2, 0.3,0,0,1024,1024,1024,1024,150.7,-89.9,98,4.236,4.246,4.184,4.232,4.229,4.24,0,68,11,AutoTakeoff,
38.0966041,-120.1426194,5090.3803334958,0.328084,0.223694,0.176096790412,3800,2018-05-10 21:08:48,16,0,0,5090.3803334958,0.328084,0.223694,0.176096790412,0,0,0,151, 0.3, 0.5,0,0,1024,1024,1024,1024,150.7,-89.9,98,4.236,4.246,4.184,4.232,4.229,4.24,0,68,11,AutoTakeoff,
38.0966042,-120.1426192,5090.7084174958,0.656168,0.223694,0.241012802988,3900,2018-05-10 21:08:48,15,0,0,5090.7084174958,0.656168,0.223694,0.241012802988,0,0,0,151, 0.1, 1.5,0,0,1024,1024,1024,1024,150.7,-89.9,98,4.236,4.246,4.184,4.232,4.229,4.24,0,68,11,AutoTakeoff,
38.0966041,-120.1426187,5091.0365014958,0.984252,0.223694,0.37504266292,4000,2018-05-10 21:08:48,15,0,25.429,5091.0365014958,0.984252,0.223694,0.37504266292,0,0,0,150.9, 0.5, 2,0,0,1024,1024,1024,1024,150.7,-89.9,98,4.236,4.246,4.184,4.232,4.229,4.24,3.951,68,11,AutoTakeoff,
38.0966041,-120.1426185,5091.3645854958,1.312336,0.223694,0.43223098496,4200,2018-05-10 21:08:49,15,0,25.429,5091.3645854958,1.312336,0.223694,0.43223098496,0,0,0,150.9, 0.8, 2,0,0,1024,1024,1024,1024,150.7,-89.9,98,4.236,4.246,4.184,4.232,4.229,4.24,3.951,68,11,AutoTakeoff,
38.0966041,-120.1426184,5091.3645854958,1.312336,0.223694,0.46084975228,4300,2018-05-10 21:08:49,14,0,25.429,5091.3645854958,1.312336,0.223694,0.46084975228,0,0,0,150.9, 1.1, 1.6,0,0,1024,1024,1024,1024,150.7,-89.9,98,4.236,4.246,4.184,4.232,4.229,4.24,3.951,68,11,AutoTakeoff,
38.0966039,-120.1426182,5091.6926694958,1.64042,0.223694,0.51811353364,4400,2018-05-10 21:08:49,14,0,25.429,5091.6926694958,1.64042,0.223694,0.51811353364,0,0,0,151, 1.6, 1.6,0,0,1024,1024,1024,1024,150.7,-89.9,98,4.236,4.246,4.184,4.232,4.229,4.24,3.951,68,11,AutoTakeoff,
38.0966038,-120.1426181,5091.6926694958,1.64042,0.223694,0.55039699924,4500,2018-05-10 21:08:49,14,0,25.429,5091.6926694958,1.64042,0.223694,0.55039699924,0,0,0,151.2, 2.2, 1.7,0,0,1024,1024,1024,1024,150.7,-89.9,98,4.236,4.246,4.184,4.232,4.229,4.24,3.951,68,11,AutoTakeoff,
38.0966038,-120.1426179,5092.0207534958,1.968504,0,0.607365505,4600,2018-05-10 21:08:49,14,0,25.429,5092.0207534958,1.968504,0.223694,0.607365505,0,0,0,151.5, 2.4, 1.8,0,0,1024,1024,1024,1024,150.7,-89.9,98,4.236,4.246,4.184,4.232,4.229,4.24,3.951,68,11,AutoTakeoff,
38.0966037,-120.1426179,5092.0207534958,1.968504,0,0.61281826108,4700,2018-05-10 21:08:49,14,0,25.429,5092.0207534958,1.968504,0.223694,0.61281826108,0,0,-0.223694,151.7, 2.2, 2.2,0,0,1024,1024,1024,1024,150.7,-89.9,98,4.236,4.246,4.184,4.232,4.229,4.24,3.951,68,11,AutoTakeoff,
38.0966036,-120.1426177,5092.3488374958,2.296588,0,0.67632220012,4800,2018-05-10 21:08:49,14,0,25.429,5092.3488374958,2.296588,0.223694,0.67632220012,0,0,-0.223694,152.1, 2, 2.1,0,0,1024,1024,1024,1024,150.7,-89.9,98,4.236,4.246,4.184,4.232,4.229,4.24,3.951,68,11,AutoTakeoff,
38.0966036,-120.1426177,5092.6769214958,2.624672,0,0.67632220012,4900,2018-05-10 21:08:49,14,0,25.429,5092.6769214958,2.624672,0.223694,0.67632220012,0,0,-0.223694,152.3, 2, 2,0,0,1024,1024,1024,1024,150.7,-89.9,98,4.236,4.246,4.184,4.232,4.229,4.24,3.951,68,11,AutoTakeoff,
38.0966036,-120.1426176,5092.6769214958,2.624672,0,0.70438650548,5000,2018-05-10 21:08:49,14,0,24.862,5092.6769214958,2.624672,0.223694,0.70438650548,0,0,-0.223694,152.3, 2, 1.9,0,0,1024,1024,1024,1024,150.7,-89.9,98,4.092,4.076,4.046,4.102,4.095,4.124,6.362,68,11,AutoTakeoff,
38.0966036,-120.1426176,5093.0050054958,2.952756,0,0.70438650548,5100,2018-05-10 21:08:50,14,0,24.862,5093.0050054958,2.952756,0.223694,0.70438650548,0,0,-0.223694,152.2, 2, 1.9,0,0,1024,1024,1024,1024,150.7,-89.9,98,4.092,4.076,4.046,4.102,4.095,4.124,6.362,68,14,Waypoint,
38.0966035,-120.1426176,5093.0050054958,2.952756,0,0.71284123016,5200,2018-05-10 21:08:50,14,0,24.862,5093.0050054958,2.952756,0.223694,0.71284123016,0,0,0,152, 2, 1.9,0,0,1024,1024,1024,1024,150.7,-89.9,98,4.092,4.076,4.046,4.102,4.095,4.124,6.362,68,14,Waypoint,
38.0966034,-120.1426175,5093.3330894958,3.28084,0,0.75045277992,5300,2018-05-10 21:08:50,14,0,24.862,5093.3330894958,3.28084,0.223694,0.75045277992,0,0,0,151.9, 1.2, 0.8,0,0,1024,1024,1024,1024,150.7,-90,98,4.092,4.076,4.046,4.102,4.095,4.124,6.362,68,14,Waypoint,
38.0966033,-120.1426175,5093.3330894958,3.28084,0,0.76189634984,5400,2018-05-10 21:08:50,14,0,24.862,5093.3330894958,3.28084,0.223694,0.76189634984,0,0,0,151.9, 0.8, 0.4,0,0,1024,1024,1024,1024,150.7,-90,98,4.092,4.076,4.046,4.102,4.095,4.124,6.362,68,14,Waypoint,
38.0966033,-120.1426174,5093.3330894958,3.28084,0,0.78900593076,5500,2018-05-10 21:08:50,14,0,24.862,5093.3330894958,3.28084,0.223694,0.78900593076,0,0,0,152, 0.7, 0.4,0,0,1024,1024,1024,1024,150.8,-90,98,4.092,4.076,4.046,4.102,4.095,4.124,6.362,68,14,Waypoint,
38.0966032,-120.1426173,5093.3330894958,3.28084,0,0.82836616824,5600,2018-05-10 21:08:50,14,0,24.862,5093.3330894958,3.28084,0.223694,0.82836616824,0,0,0,152.3, 0.7, 0.4,0,0,1024,1024,1024,1024,150.8,-90,98,4.092,4.076,4.046,4.102,4.095,4.124,6.362,68,14,Waypoint,
38.0966031,-120.1426173,5093.6611734958,3.608924,0,0.84191603744,5710,2018-05-10 21:08:50,14,0,24.862,5093.6611734958,3.608924,0.223694,0.84191603744,0,0,-0.223694,152.6, 0.9, 0.4,0,0,1024,1024,1024,1024,150.8,-89.9,98,4.092,4.076,4.046,4.102,4.095,4.124,6.362,68,14,Waypoint,
38.0966031,-120.1426172,5093.6611734958,3.608924,0,0.86842522464,5800,2018-05-10 21:08:50,13,0,24.862,5093.6611734958,3.608924,0.223694,0.86842522464,0,0,-0.223694,152.8, 1.5, 0.7,0,0,1024,1024,1024,1024,150.8,-89.9,98,4.092,4.076,4.046,4.102,4.095,4.124,6.362,68,14,Waypoint,
38.096603,-120.1426171,5093.9892574958,3.937008,0,0.90909123644,5900,2018-05-10 21:08:50,13,0,24.862,5093.9892574958,3.937008,0.223694,0.90909123644,0,0,-0.223694,153.1, 2, 1.2,0,0,1024,1024,1024,1024,150.9,-89.9,98,4.092,4.076,4.046,4.102,4.095,4.124,6.362,68,14,Waypoint,
38.096603,-120.142617,5094.3173414958,4.265092,0,0.93546262836,6000,2018-05-10 21:08:50,13,0,23.784,5094.3173414958,4.265092,0.223694,0.93546262836,0,0,-0.223694,153.5, 2.2, 1.6,0,0,1024,1024,1024,1024,150.9,-89.9,98,3.922,3.918,3.928,3.957,3.947,3.984,16.038,68,14,Waypoint,
38.096603,-120.1426169,5094.6454254958,4.593176,0,0.96196525388,6200,2018-05-10 21:08:51,13,0,23.784,5094.6454254958,4.593176,0.223694,0.96196525388,0,0,-0.223694,153.9, 2.1, 1.5,0,0,1024,1024,1024,1024,151,-89.9,98,3.922,3.918,3.928,3.957,3.947,3.984,16.038,68,14,Waypoint,
38.0966029,-120.1426168,5095.3015934958,5.249344,0,1.00263126568,6300,2018-05-10 21:08:51,15,0,23.784,5095.3015934958,5.249344,0.223694,1.00263126568,0,0,-0.447388,154.3, 1.7, 1.5,0,0,1024,1024,1024,1024,151.1,-89.9,98,3.922,3.918,3.928,3.957,3.947,3.984,16.038,68,14,Waypoint,
38.0966029,-120.1426167,5095.6296774958,5.577428,0,1.02900593844,6400,2018-05-10 21:08:51,15,0,23.784,5095.6296774958,5.577428,0.223694,1.02900593844,0,0,-0.447388,154.5, 1.5, 1.4,0,0,1024,1024,1024,1024,151.2,-89.9,98,3.922,3.918,3.928,3.957,3.947,3.984,16.038,68,14,Waypoint,
38.0966028,-120.1426166,5096.2858454958,6.233596,0,1.06991145156,6500,2018-05-10 21:08:51,15,0,23.784,5096.2858454958,6.233596,0.223694,1.06991145156,0,0,-0.447388,154.5, 1.5, 1.4,0,0,1024,1024,1024,1024,151.3,-89.9,98,3.922,3.918,3.928,3.957,3.947,3.984,16.038,68,14,Waypoint,
38.0966028,-120.1426165,5096.9420134958,6.889764,0,1.09617129492,6600,2018-05-10 21:08:51,15,0,23.784,5096.9420134958,6.889764,0.223694,1.09617129492,0,0,-0.447388,154.3, 1.5, 1.5,0,0,1024,1024,1024,1024,151.4,-89.9,98,3.922,3.918,3.928,3.957,3.947,3.984,16.038,68,14,Waypoint,
38.0966028,-120.1426164,5097.9262654958,7.874016,0,1.12255252936,6700,2018-05-10 21:08:51,16,0,23.784,5097.9262654958,7.874016,0.223694,1.12255252936,0,0,-0.671082,154.1, 1.7, 1.7,0,0,1024,1024,1024,1024,151.5,-89.9,98,3.922,3.918,3.928,3.957,3.947,3.984,16.038,68,14,Waypoint,
38.0966027,-120.1426163,5098.5824334958,8.530184,0,1.16343835744,6800,2018-05-10 21:08:51,16,0,23.784,5098.5824334958,8.530184,0.223694,1.16343835744,0,0,-0.671082,153.8, 2, 1.8,0,0,1024,1024,1024,1024,151.6,-89.9,98,3.922,3.918,3.928,3.957,3.947,3.984,16.038,68,14,Waypoint,
38.0966026,-120.1426162,5099.8947694958,9.84252,0,1.204724448,6900,2018-05-10 21:08:51,15,0,23.784,5099.8947694958,9.84252,0.223694,1.204724448,0,0,-0.671082,153.7, 2, 1.8,0,0,1024,1024,1024,1024,151.6,-89.9,98,3.922,3.918,3.928,3.957,3.947,3.984,16.038,68,14,Waypoint,
38.0966024,-120.1426161,5100.8790214958,10.826772,0,1.26281828188,7000,2018-05-10 21:08:51,15,0,23.784,5100.8790214958,10.826772,0.223694,1.26281828188,0,0,-0.671082,153.6, 2.2, 1.7,0,0,1024,1024,1024,1024,151.7,-89.9,98,3.918,3.879,3.909,3.922,3.943,3.945,16.038,68,14,Waypoint,
38.0966022,-120.142616,5102.8475254958,12.795276,0,1.32300857252,7100,2018-05-10 21:08:52,15,0,23.784,5102.8475254958,12.795276,0.223694,1.32300857252,0,0,-0.671082,153.7, 2.7, 1.7,0,0,1024,1024,1024,1024,151.8,-89.9,98,3.918,3.879,3.909,3.922,3.943,3.945,16.038,68,14,Waypoint,
38.0966022,-120.1426159,5103.8317774958,13.779528,0,1.34801185416,7200,2018-05-10 21:08:52,14,0,23.784,5103.8317774958,13.779528,0.223694,1.34801185416,0,0,-0.671082,153.7, 2.6, 1.7,0,0,1024,1024,1024,1024,151.8,-89.9,98,3.918,3.879,3.909,3.922,3.943,3.945,16.038,68,14,Waypoint,
38.0966021,-120.1426159,5105.1441134958,15.091864,0,1.3661581802,7300,2018-05-10 21:08:52,14,0,23.784,5105.1441134958,15.091864,0.223694,1.3661581802,0,0,-0.671082,153.7, 2.4, 1.7,0,0,1024,1024,1024,1024,151.9,-89.9,98,3.918,3.879,3.909,3.922,3.943,3.945,16.038,68,14,Waypoint,
38.0966021,-120.1426159,5106.1283654958,16.076116,0,1.3661581802,7400,2018-05-10 21:08:52,15,0,23.784,5106.1283654958,16.076116,0.223694,1.3661581802,0,0,-0.671082,153.7, 2.1, 1.7,0,0,1024,1024,1024,1024,151.9,-89.9,98,3.918,3.879,3.909,3.922,3.943,3.945,16.038,68,14,Waypoint,
38.0966021,-120.142616,5107.4407014958,17.388452,0,1.34149610592,7500,2018-05-10 21:08:52,15,0,23.784,5107.4407014958,17.388452,0.223694,1.3661581802,0,0,-0.671082,153.6, 1.8, 1.7,0,0,1024,1024,1024,1024,152,-89.9,98,3.918,3.879,3.909,3.922,3.943,3.945,16.038,68,14,Waypoint,
38.0966022,-120.1426159,5108.4249534958,18.372704,0,1.34801185416,7600,2018-05-10 21:08:52,16,0,23.784,5108.4249534958,18.372704,0.223694,1.3661581802,0,0,-0.671082,153.7, 1.4, 1.6,0,0,1024,1024,1024,1024,152,-89.9,98,3.918,3.879,3.909,3.922,3.943,3.945,16.038,68,14,Waypoint,
38.0966023,-120.1426156,5109.7372894958,19.68504,0.223694,1.407398339,7700,2018-05-10 21:08:52,16,0,23.784,5109.7372894958,19.68504,0.223694,1.407398339,0,0,-0.671082,153.7, 1.2, 1.7,0,0,1024,1024,1024,1024,152,-89.9,98,3.918,3.879,3.909,3.922,3.943,3.945,16.038,68,14,Waypoint,
38.0966025,-120.1426156,5110.7215414958,20.669292,0.223694,1.37679794432,7800,2018-05-10 21:08:52,16,0,23.784,5110.7215414958,20.669292,0.223694,1.407398339,0,0,-0.671082,153.7, 0.9, 2,0,0,1024,1024,1024,1024,152.1,-90,98,3.918,3.879,3.909,3.922,3.943,3.945,16.038,68,14,Waypoint,
38.0966027,-120.1426159,5111.7057934958,21.653544,0.223694,1.26917326896,7900,2018-05-10 21:08:52,16,0,23.784,5111.7057934958,21.653544,0.223694,1.407398339,0,0,-0.671082,153.9, 0.3, 2,0,0,1024,1024,1024,1024,152.1,-90,98,3.918,3.879,3.909,3.922,3.943,3.945,16.038,68,14,Waypoint,
38.0966028,-120.1426161,5112.6900454958,22.637796,0.223694,1.20233927732,8000,2018-05-10 21:08:52,15,0,22.914,5112.6900454958,22.637796,0.223694,1.407398339,0,0,-0.671082,154, -0.2, 1.7,0,0,1024,1024,1024,1024,152.2,-89.9,98,3.803,3.778,3.775,3.807,3.811,3.823,23.048,68,14,Waypoint,
38.0966029,-120.1426163,5113.6742974958,23.622048,0.223694,1.1356463618,8100,2018-05-10 21:08:53,15,0,22.914,5113.6742974958,23.622048,0.223694,1.407398339,0,0,-0.671082,154, -0.3, 1.4,0,0,1024,1024,1024,1024,152.2,-89.9,98,3.803,3.778,3.775,3.807,3.811,3.823,23.048,68,14,Waypoint,
38.096603,-120.1426165,5114.9866334958,24.934384,0.223694,1.06912076912,8210,2018-05-10 21:08:53,15,0,22.914,5114.9866334958,24.934384,0.223694,1.407398339,0,0,-0.671082,154.1, 0, 1.1,0,0,1024,1024,1024,1024,152.3,-89.9,98,3.803,3.778,3.775,3.807,3.811,3.823,23.048,68,14,Waypoint,
38.0966031,-120.1426167,5115.9708854958,25.918636,0.223694,1.00280186936,8300,2018-05-10 21:08:53,15,0,22.914,5115.9708854958,25.918636,0.223694,1.407398339,0,0,-0.671082,154.1, 0.1, 0.7,0,0,1024,1024,1024,1024,152.3,-89.9,98,3.803,3.778,3.775,3.807,3.811,3.823,23.048,68,14,Waypoint,
38.0966032,-120.1426169,5116.9551374958,26.902888,0.223694,0.93672575176,8400,2018-05-10 21:08:53,16,0,22.914,5116.9551374958,26.902888,0.223694,1.407398339,0,0,-0.671082,154, -0.1, 0.3,0,0,1024,1024,1024,1024,152.3,-89.9,98,3.803,3.778,3.775,3.807,3.811,3.823,23.048,68,14,Waypoint,
38.0966033,-120.1426171,5118.2674734958,28.215224,0,0.87095147144,8500,2018-05-10 21:08:53,16,0,22.914,5118.2674734958,28.215224,0.223694,1.407398339,0,0,-0.671082,154, -0.4, 0.1,0,0,1024,1024,1024,1024,152.3,-89.9,98,3.803,3.778,3.775,3.807,3.811,3.823,23.048,68,14,Waypoint,
38.0966034,-120.1426173,5119.2517254958,29.199476,0,0.80555448772,8620,2018-05-10 21:08:53,16,0,22.914,5119.2517254958,29.199476,0.223694,1.407398339,0,0,-0.671082,154, -0.6, 0.2,0,0,1024,1024,1024,1024,152.4,-89.9,98,3.803,3.778,3.775,3.807,3.811,3.823,23.048,68,14,Waypoint,
38.0966034,-120.1426175,5120.2359774958,30.183728,0,0.75045277992,8800,2018-05-10 21:08:53,16,0,22.914,5120.2359774958,30.183728,0.223694,1.407398339,0,0,-0.671082,154.1, -0.6, 0.3,0,0,1024,1024,1024,1024,152.4,-89.9,98,3.803,3.778,3.775,3.807,3.811,3.823,23.048,68,14,Waypoint,
38.0966035,-120.1426176,5121.2202294958,31.16798,0,0.71284123016,8900,2018-05-10 21:08:53,16,0,22.914,5121.2202294958,31.16798,0.223694,1.407398339,0,0,-0.671082,154.1, -0.5, 0.3,0,0,1024,1024,1024,1024,152.4,-89.9,98,3.803,3.778,3.775,3.807,3.811,3.823,23.048,68,14,Waypoint,
38.0966037,-120.1426177,5123.5168174958,33.464568,0,0.66939962772,9100,2018-05-10 21:08:54,16,0,22.914,5123.5168174958,33.464568,0.223694,1.407398339,0,0,-0.671082,154.1, -0.6, 0.8,0,0,1024,1024,1024,1024,152.5,-89.9,98,3.803,3.778,3.775,3.807,3.811,3.823,23.048,68,14,Waypoint,
38.0966038,-120.1426178,5124.5010694958,34.44882,0,0.63587928544,9200,2018-05-10 21:08:54,16,0,22.914,5124.5010694958,34.44882,0.223694,1.407398339,0,0,-0.671082,154.1, -0.5, 1.3,0,0,1024,1024,1024,1024,152.5,-89.9,98,3.803,3.778,3.775,3.807,3.811,3.823,23.048,68,14,Waypoint,
38.0966038,-120.1426178,5125.4853214958,35.433072,0,0.63587928544,9300,2018-05-10 21:08:54,16,0,22.914,5125.4853214958,35.433072,0.223694,1.407398339,0,0,-0.671082,154, -0.2, 1.5,0,0,1024,1024,1024,1024,152.6,-89.9,98,3.803,3.778,3.775,3.807,3.811,3.823,23.048,68,14,Waypoint,
38.0966038,-120.1426179,5126.4695734958,36.417324,0,0.607365505,9400,2018-05-10 21:08:54,16,0,22.914,5126.4695734958,36.417324,0.223694,1.407398339,0,0,-0.671082,153.9, 0, 1.4,0,0,1024,1024,1024,1024,152.6,-89.9,98,3.803,3.778,3.775,3.807,3.811,3.823,23.048,68,14,Waypoint,
38.096604,-120.1426178,5128.7661614958,38.713912,0,0.6316765294,9500,2018-05-10 21:08:54,16,0,22.914,5128.7661614958,38.713912,0.223694,1.407398339,0,0,-0.671082,153.9, -0.1, 1.2,0,0,1024,1024,1024,1024,152.6,-89.9,98,3.803,3.778,3.775,3.807,3.811,3.823,23.048,68,14,Waypoint,
38.0966041,-120.1426178,5129.7504134958,39.698164,0,0.63272967904,9600,2018-05-10 21:08:54,16,0,22.914,5129.7504134958,39.698164,0.223694,1.407398339,0,0,-0.671082,153.9, -0.1, 1.3,0,0,1024,1024,1024,1024,152.6,-89.9,98,3.803,3.778,3.775,3.807,3.811,3.823,23.048,68,14,Waypoint,
38.0966041,-120.1426179,5130.7346654958,40.682416,0,0.6040682608,9700,2018-05-10 21:08:54,16,0,22.914,5130.7346654958,40.682416,0.223694,1.407398339,0,0,-0.671082,153.9, 0, 1.2,0,0,1024,1024,1024,1024,152.7,-89.9,98,3.803,3.778,3.775,3.807,3.811,3.823,23.048,68,14,Waypoint,
38.0966041,-120.1426179,5131.7189174958,41.666668,0,0.6040682608,9800,2018-05-10 21:08:54,16,0,22.914,5131.7189174958,41.666668,0.223694,1.407398339,0,0,-0.671082,154, 0, 1.2,0,0,1024,1024,1024,1024,152.7,-89.9,98,3.803,3.778,3.775,3.807,3.811,3.823,23.048,68,14,Waypoint,
38.0966041,-120.1426179,5132.7031694958,42.65092,0,0.6040682608,9900,2018-05-10 21:08:54,16,0,22.914,5132.7031694958,42.65092,0.223694,1.407398339,0,0,-0.671082,154, 0, 1.3,0,0,1024,1024,1024,1024,152.7,-89.9,98,3.803,3.778,3.775,3.807,3.811,3.823,23.048,68,14,Waypoint,
38.0966041,-120.1426179,5133.6874214958,43.635172,0,0.6040682608,10000,2018-05-10 21:08:54,16,0,23.099,5133.6874214958,43.635172,0.223694,1.407398339,0,0,-0.671082,154, 0.1, 1.5,0,0,1024,1024,1024,1024,152.7,-89.9,97,3.832,3.833,3.844,3.854,3.866,3.865,19.663,68,14,Waypoint,
38.0966041,-120.1426179,5134.6716734958,44.619424,0,0.6040682608,10100,2018-05-10 21:08:55,16,0,23.099,5134.6716734958,44.619424,0.223694,1.407398339,0,0,-0.671082,154, 0.3, 1.6,0,0,1024,1024,1024,1024,152.7,-89.9,97,3.832,3.833,3.844,3.854,3.866,3.865,19.663,68,14,Waypoint,
38.0966041,-120.1426178,5135.6559254958,45.603676,0,0.63272967904,10200,2018-05-10 21:08:55,16,0,23.099,5135.6559254958,45.603676,0.223694,1.407398339,0,0,-0.671082,154.1, 0.5, 1.6,0,0,1024,1024,1024,1024,152.7,-89.9,97,3.832,3.833,3.844,3.854,3.866,3.865,19.663,68,14,Waypoint,
38.0966041,-120.1426178,5136.6401774958,46.587928,0,0.63272967904,10300,2018-05-10 21:08:55,16,0,23.099,5136.6401774958,46.587928,0.223694,1.407398339,0,0,-0.671082,154.2, 0.6, 1.5,0,0,1024,1024,1024,1024,152.8,-89.9,97,3.832,3.833,3.844,3.854,3.866,3.865,19.663,68,14,Waypoint,
38.0966041,-120.1426178,5137.6244294958,47.57218,0,0.63272967904,10400,2018-05-10 21:08:55,16,0,23.099,5137.6244294958,47.57218,0.223694,1.407398339,0,0,-0.671082,154.2, 0.5, 1.6,0,0,1024,1024,1024,1024,152.8,-89.9,97,3.832,3.833,3.844,3.854,3.866,3.865,19.663,68,14,Waypoint,
38.096604,-120.1426177,5139.5929334958,49.540684,0,0.66039044108,10610,2018-05-10 21:08:55,16,0,23.099,5139.5929334958,49.540684,0.223694,1.407398339,0,0,-0.671082,154.3, 0.4, 1.4,0,0,1024,1024,1024,1024,152.8,-89.9,97,3.832,3.833,3.844,3.854,3.866,3.865,19.663,68,14,Waypoint,
38.096604,-120.1426177,5140.5771854958,50.524936,0,0.66039044108,10800,2018-05-10 21:08:55,16,0,23.099,5140.5771854958,50.524936,0.223694,1.407398339,0,0,-0.671082,154.3, 0.6, 1.7,0,0,1024,1024,1024,1024,152.8,-89.9,97,3.832,3.833,3.844,3.854,3.866,3.865,19.663,68,14,Waypoint,
38.096604,-120.1426176,5141.5614374958,51.509188,0,0.68910107192,10900,2018-05-10 21:08:55,16,0,23.099,5141.5614374958,51.509188,0.223694,1.407398339,0,0,-0.671082,154.2, 0.7, 2,0,0,1024,1024,1024,1024,152.9,-89.9,97,3.832,3.833,3.844,3.854,3.866,3.865,19.663,68,14,Waypoint,
38.0966041,-120.1426175,5142.5456894958,52.49344,0,0.71874346132,11000,2018-05-10 21:08:55,16,0,23.046,5142.5456894958,52.49344,0.223694,1.407398339,0,0,-0.671082,154.1, 0.5, 2,0,0,1024,1024,1024,1024,152.9,-89.9,97,3.827,3.83,3.822,3.854,3.848,3.861,19.32,68,14,Waypoint,
38.0966041,-120.1426174,5143.5299414958,53.477692,0,0.74741800292,11100,2018-05-10 21:08:56,16,0,23.046,5143.5299414958,53.477692,0.223694,1.407398339,0,0,-0.671082,153.9, 0.3, 2.1,0,0,1024,1024,1024,1024,152.9,-89.9,97,3.827,3.83,3.822,3.854,3.848,3.861,19.32,68,14,Waypoint,
38.0966041,-120.1426173,5144.5141934958,54.461944,0,0.7760991062,11200,2018-05-10 21:08:56,16,0,23.046,5144.5141934958,54.461944,0.223694,1.407398339,0,0,-0.671082,153.7, 0.2, 2.2,0,0,1024,1024,1024,1024,152.9,-89.9,97,3.827,3.83,3.822,3.854,3.848,3.861,19.32,68,14,Waypoint,
38.0966041,-120.1426172,5145.4984454958,55.446196,0,0.80478020948,11300,2018-05-10 21:08:56,16,0,23.046,5145.4984454958,55.446196,0.223694,1.407398339,0,0,-0.671082,153.6, 0.1, 2.4,0,0,1024,1024,1024,1024,152.9,-89.9,97,3.827,3.83,3.822,3.854,3.848,3.861,19.32,68,14,Waypoint,
38.0966042,-120.1426172,5146.4826974958,56.430448,0,0.80725724368,11400,2018-05-10 21:08:56,16,0,23.046,5146.4826974958,56.430448,0.223694,1.407398339,0,0,-0.671082,153.7, 0.2, 2.7,0,0,1024,1024,1024,1024,152.9,-89.9,97,3.827,3.83,3.822,3.854,3.848,3.861,19.32,68,14,Waypoint,
38.0966042,-120.1426171,5147.4669494958,57.4147,0,0.83585632596,11500,2018-05-10 21:08:56,16,0,23.046,5147.4669494958,57.4147,0.223694,1.407398339,0,0,-0.671082,153.7, 0.2, 3.1,0,0,1024,1024,1024,1024,153,-89.9,97,3.827,3.83,3.822,3.854,3.848,3.861,19.32,68,14,Waypoint,
38.0966044,-120.1426169,5149.7635374958,59.711288,0,0.90197509448,11600,2018-05-10 21:08:56,16,0,23.046,5149.7635374958,59.711288,0.223694,1.407398339,0,0,-0.671082,153.7, -0.2, 2.9,0,0,1024,1024,1024,1024,153,-89.9,97,3.827,3.83,3.822,3.854,3.848,3.861,19.32,68,14,Waypoint,
38.0966044,-120.1426169,5150.7477894958,60.69554,0,0.90197509448,11700,2018-05-10 21:08:56,16,0,23.046,5150.7477894958,60.69554,0.223694,1.407398339,0,0,-0.671082,153.8, -0.4, 2.7,0,0,1024,1024,1024,1024,153,-89.9,97,3.827,3.83,3.822,3.854,3.848,3.861,19.32,68,14,Waypoint,
38.0966044,-120.1426168,5151.7320414958,61.679792,0,0.93032155208,11800,2018-05-10 21:08:56,16,0,23.046,5151.7320414958,61.679792,0.223694,1.407398339,0,0,-0.671082,153.9, -0.5, 2.6,0,0,1024,1024,1024,1024,153,-89.9,97,3.827,3.83,3.822,3.854,3.848,3.861,19.32,68,14,Waypoint,
38.0966045,-120.1426167,5152.3882094958,62.33596,0,0.96491800988,12000,2018-05-10 21:08:56,16,0,23.004,5152.3882094958,62.33596,0.223694,1.407398339,0,0,-0.671082,154, -0.4, 2.8,0,0,1024,1024,1024,1024,153,-89.9,97,3.821,3.827,3.815,3.838,3.843,3.857,19.815,68,14,Waypoint,
38.0966046,-120.1426165,5153.3724614958,63.320212,0,1.02850725076,12100,2018-05-10 21:08:57,16,0,23.004,5153.3724614958,63.320212,0.223694,1.407398339,0,0,-0.671082,154, -0.4, 3,0,0,1024,1024,1024,1024,153,-89.9,97,3.821,3.827,3.815,3.838,3.843,3.857,19.815,68,14,Waypoint,
38.0966046,-120.1426164,5154.3567134958,64.304464,0,1.05658139864,12200,2018-05-10 21:08:57,16,0,23.004,5154.3567134958,64.304464,0.223694,1.407398339,0,0,-0.671082,154, -0.5, 3.3,0,0,1024,1024,1024,1024,153,-89.9,97,3.821,3.827,3.815,3.838,3.843,3.857,19.815,68,14,Waypoint,
38.0966047,-120.1426162,5155.3409654958,65.288716,0,1.120570902,12300,2018-05-10 21:08:57,16,0,23.004,5155.3409654958,65.288716,0.223694,1.407398339,0,0,-0.671082,154, -0.5, 3.5,0,0,1024,1024,1024,1024,153,-89.9,97,3.821,3.827,3.815,3.838,3.843,3.857,19.815,68,14,Waypoint,
38.0966047,-120.1426161,5156.3252174958,66.272968,0,1.14854662468,12400,2018-05-10 21:08:57,16,0,23.004,5156.3252174958,66.272968,0.223694,1.407398339,0,0,-0.671082,153.9, -0.4, 3.9,0,0,1024,1024,1024,1024,153,-89.9,97,3.821,3.827,3.815,3.838,3.843,3.857,19.815,68,14,Waypoint,
38.0966048,-120.1426159,5157.3094694958,67.25722,0,1.2128609312,12500,2018-05-10 21:08:57,16,0,23.004,5157.3094694958,67.25722,0.223694,1.407398339,0,0,-0.671082,153.9, -0.3, 4.1,0,0,1024,1024,1024,1024,153,-89.9,97,3.821,3.827,3.815,3.838,3.843,3.857,19.815,68,14,Waypoint,
38.0966048,-120.1426158,5158.2937214958,68.241472,0,1.24075135204,12600,2018-05-10 21:08:57,16,0,23.004,5158.2937214958,68.241472,0.223694,1.407398339,0,0,-0.671082,154, -0.1, 4,0,0,1024,1024,1024,1024,153,-89.9,97,3.821,3.827,3.815,3.838,3.843,3.857,19.815,68,14,Waypoint,
38.0966048,-120.1426156,5160.9183934958,70.866144,0,1.29663389976,12900,2018-05-10 21:08:57,16,0,23.004,5160.9183934958,70.866144,0.223694,1.407398339,0,0,-0.671082,153.9, -0.5, 3.7,0,0,1024,1024,1024,1024,153.1,-89.9,97,3.821,3.827,3.815,3.838,3.843,3.857,19.815,68,14,Waypoint,
38.0966049,-120.1426154,5162.8868974958,72.834648,0,1.36098757636,13110,2018-05-10 21:08:58,16,0,23.004,5162.8868974958,72.834648,0.223694,1.407398339,0,0,-0.671082,153.8, -0.9, 3.7,0,0,1024,1024,1024,1024,153.1,-89.9,97,3.821,3.827,3.815,3.838,3.843,3.857,19.815,68,14,Waypoint,
38.0966049,-120.1426153,5163.8711494958,73.8189,0,1.38886815468,13200,2018-05-10 21:08:58,16,0,23.004,5163.8711494958,73.8189,0.223694,1.407398339,0,0,-0.671082,153.8, -0.8, 3.8,0,0,1024,1024,1024,1024,153.1,-89.9,97,3.821,3.827,3.815,3.838,3.843,3.857,19.815,68,14,Waypoint,
38.0966049,-120.1426152,5164.8554014958,74.803152,0,1.4167815414,13310,2018-05-10 21:08:58,16,0,23.004,5164.8554014958,74.803152,0.223694,1.4167815414,0,0,-0.671082,153.9, -0.4, 3.9,0,0,1024,1024,1024,1024,153.1,-89.9,97,3.821,3.827,3.815,3.838,3.843,3.857,19.815,68,14,Waypoint,
38.0966048,-120.1426151,5165.5115694958,75.45932,0,1.4368766864,13400,2018-05-10 21:08:58,16,0,23.004,5165.5115694958,75.45932,0.223694,1.4368766864,0,0,-0.671082,154, -0.2, 3.9,0,0,1024,1024,1024,1024,153.1,-89.9,97,3.821,3.827,3.815,3.838,3.843,3.857,19.815,68,14,Waypoint,
38.0966048,-120.1426151,5166.4958214958,76.443572,0,1.4368766864,13500,2018-05-10 21:08:58,16,0,23.004,5166.4958214958,76.443572,0.223694,1.4368766864,0,0,-0.671082,154.1, 0, 3.9,0,0,1024,1024,1024,1024,153.1,-89.9,97,3.821,3.827,3.815,3.838,3.843,3.857,19.815,68,14,Waypoint,
38.0966047,-120.1426151,5167.4800734958,77.427824,0,1.42991146308,13620,2018-05-10 21:08:58,16,0,23.004,5167.4800734958,77.427824,0.223694,1.4368766864,0,0,-0.671082,154.1, 0.1, 3.8,0,0,1024,1024,1024,1024,153.1,-89.9,97,3.821,3.827,3.815,3.838,3.843,3.857,19.815,68,14,Waypoint,
38.0966047,-120.1426151,5167.4800734958,77.427824,0,1.42991146308,13700,2018-05-10 21:08:58,16,0,23.004,5167.4800734958,77.427824,0.223694,1.4368766864,0,0,-0.671082,154.1, 0.1, 3.8,0,0,1024,1024,1024,1024,153.1,-89.9,97,3.821,3.827,3.815,3.838,3.843,3.857,19.815,68,14,Waypoint,
38.0966047,-120.1426151,5169.4485774958,79.396328,0,1.42991146308,13800,2018-05-10 21:08:58,16,0,23.004,5169.4485774958,79.396328,0.223694,1.4368766864,0,0,-0.671082,154.2, 0.1, 3.5,0,0,1024,1024,1024,1024,153.1,-89.9,97,3.821,3.827,3.815,3.838,3.843,3.857,19.815,68,14,Waypoint,
38.0966046,-120.1426151,5170.4328294958,80.38058,0,1.42384518992,13900,2018-05-10 21:08:58,16,0,23.004,5170.4328294958,80.38058,0.223694,1.4368766864,0,0,-0.671082,154.1, 0.2, 3.1,0,0,1024,1024,1024,1024,153.1,-89.9,97,3.821,3.827,3.815,3.838,3.843,3.857,19.815,68,14,Waypoint,
38.0966046,-120.1426151,5171.4170814958,81.364832,0,1.42384518992,14000,2018-05-10 21:08:58,16,0,22.941,5171.4170814958,81.364832,0.223694,1.4368766864,0,0,-0.671082,153.9, 0.1, 2.8,0,0,1024,1024,1024,1024,153.1,-89.9,97,3.813,3.809,3.809,3.828,3.826,3.833,19.994,68,14,Waypoint,
38.0966046,-120.1426151,5173.3855854958,83.333336,0,1.42384518992,14200,2018-05-10 21:08:59,16,0,22.941,5173.3855854958,83.333336,0.223694,1.4368766864,0,0,-0.671082,153.2, -0.6, 2.8,0,0,1024,1024,1024,1024,153,-90,97,3.813,3.809,3.809,3.828,3.826,3.833,19.994,68,14,Waypoint,
38.0966046,-120.142615,5174.3698374958,84.317588,0,1.45222445592,14300,2018-05-10 21:08:59,16,0,22.941,5174.3698374958,84.317588,0.223694,1.45222445592,0,0,-0.671082,153.1, -1.1, 3.4,0,0,1024,1024,1024,1024,153.1,-90,97,3.813,3.809,3.809,3.828,3.826,3.833,19.994,68,14,Waypoint,
38.0966046,-120.1426149,5175.3540894958,85.30184,0,1.48061684528,14400,2018-05-10 21:08:59,16,0,22.941,5175.3540894958,85.30184,0.223694,1.48061684528,0,0,-0.671082,153.3, -1.1, 4.3,0,0,1024,1024,1024,1024,153.1,-89.9,97,3.813,3.809,3.809,3.828,3.826,3.833,19.994,68,14,Waypoint,
38.0966046,-120.1426147,5176.3383414958,86.286092,0,1.5374344324,14500,2018-05-10 21:08:59,16,0,22.941,5176.3383414958,86.286092,0.223694,1.5374344324,0,0,-0.671082,153.6, -0.6, 5.1,0,0,1024,1024,1024,1024,153.1,-89.9,97,3.813,3.809,3.809,3.828,3.826,3.833,19.994,68,14,Waypoint,
38.0966045,-120.1426146,5177.3225934958,87.270344,0,1.56117459064,14600,2018-05-10 21:08:59,16,0,22.941,5177.3225934958,87.270344,0.223694,1.56117459064,0,0,-0.671082,154.1, 0, 5.5,0,0,1024,1024,1024,1024,153.1,-89.9,97,3.813,3.809,3.809,3.828,3.826,3.833,19.994,68,14,Waypoint,
38.0966045,-120.1426145,5178.6349294958,88.58268,0,1.58969493276,14700,2018-05-10 21:08:59,16,0,22.941,5178.6349294958,88.58268,0.223694,1.58969493276,0,0,-0.671082,154.4, 0.3, 5.1,0,0,1024,1024,1024,1024,153.1,-89.9,97,3.813,3.809,3.809,3.828,3.826,3.833,19.994,68,14,Waypoint,
38.0966045,-120.1426145,5179.6191814958,89.566932,0,1.58969493276,14800,2018-05-10 21:08:59,16,0,22.941,5179.6191814958,89.566932,0.223694,1.58969493276,0,0,-0.671082,154.7, 0.2, 4.7,0,0,1024,1024,1024,1024,153.1,-89.9,97,3.813,3.809,3.809,3.828,3.826,3.833,19.994,68,14,Waypoint,
38.0966044,-120.1426145,5180.6034334958,90.551184,0,1.58592196676,14900,2018-05-10 21:08:59,16,0,22.941,5180.6034334958,90.551184,0.223694,1.58969493276,0,0,-0.671082,154.7, -0.2, 4.3,0,0,1024,1024,1024,1024,153.1,-89.9,97,3.813,3.809,3.809,3.828,3.826,3.833,19.994,68,14,Waypoint,
38.0966044,-120.1426146,5182.5719374958,92.519688,0,1.557332727,15100,2018-05-10 21:09:00,16,0,22.941,5182.5719374958,92.519688,0.223694,1.58969493276,0,0,-0.671082,154.7, 0, 4.1,0,0,1024,1024,1024,1024,153.1,-89.9,97,3.813,3.809,3.809,3.828,3.826,3.833,19.994,68,14,Waypoint,
38.0966043,-120.1426146,5183.5561894958,93.50394,0,1.55434060092,15200,2018-05-10 21:09:00,16,0,22.941,5183.5561894958,93.50394,0.223694,1.58969493276,0,0,-0.671082,154.6, 0, 3.7,0,0,1024,1024,1024,1024,153.1,-89.9,97,3.813,3.809,3.809,3.828,3.826,3.833,19.994,68,14,Waypoint,
38.0966043,-120.1426147,5184.2123574958,94.160108,0,1.52569886772,15300,2018-05-10 21:09:00,16,0,22.941,5184.2123574958,94.160108,0.223694,1.58969493276,0,0,-0.671082,154.3, 0.1, 3.4,0,0,1024,1024,1024,1024,153.1,-89.9,97,3.813,3.809,3.809,3.828,3.826,3.833,19.994,68,14,Waypoint,
38.0966043,-120.1426147,5185.1966094958,95.14436,0,1.52569886772,15400,2018-05-10 21:09:00,16,0,22.941,5185.1966094958,95.14436,0.223694,1.58969493276,0,0,-0.671082,154.1, 0.1, 3.5,0,0,1024,1024,1024,1024,153.1,-89.9,97,3.813,3.809,3.809,3.828,3.826,3.833,19.994,68,14,Waypoint,
38.0966042,-120.1426148,5186.1808614958,96.128612,0,1.49483928668,15500,2018-05-10 21:09:00,16,0,22.941,5186.1808614958,96.128612,0.223694,1.58969493276,0,0,-0.671082,153.9, 0, 3.7,0,0,1024,1024,1024,1024,153.1,-89.9,97,3.813,3.809,3.809,3.828,3.826,3.833,19.994,68,14,Waypoint,
38.0966042,-120.1426148,5187.1651134958,97.112864,0,1.49483928668,15600,2018-05-10 21:09:00,16,0,22.941,5187.1651134958,97.112864,0.223694,1.58969493276,0,0,-0.671082,153.8, 0, 3.9,0,0,1024,1024,1024,1024,153.1,-89.9,97,3.813,3.809,3.809,3.828,3.826,3.833,19.994,68,14,Waypoint,
38.0966042,-120.1426148,5188.1493654958,98.097116,0,1.49483928668,15700,2018-05-10 21:09:00,16,0,22.941,5188.1493654958,98.097116,0.223694,1.58969493276,0,0,-0.671082,153.7, -0.1, 4.1,0,0,1024,1024,1024,1024,153.1,-89.9,97,3.813,3.809,3.809,3.828,3.826,3.833,19.994,68,14,Waypoint,
38.0966042,-120.1426149,5189.1336174958,99.081368,0,1.46616146424,15810,2018-05-10 21:09:00,16,0,22.941,5189.1336174958,99.081368,0.223694,1.58969493276,0,0,-0.671082,153.7, -0.2, 4.2,0,0,1024,1024,1024,1024,153.1,-89.9,97,3.813,3.809,3.809,3.828,3.826,3.833,19.994,68,14,Waypoint,
38.0966042,-120.1426149,5190.4459534958,100.393704,0,1.46616146424,15900,2018-05-10 21:09:00,16,0,22.941,5190.4459534958,100.393704,0.223694,1.58969493276,0,0,-0.671082,153.7, -0.3, 4.6,0,0,1024,1024,1024,1024,153.1,-89.9,97,3.813,3.809,3.809,3.828,3.826,3.833,19.994,68,14,Waypoint,
38.0966042,-120.1426149,5192.4144574958,102.362208,0,1.46616146424,16100,2018-05-10 21:09:01,16,0,22.941,5192.4144574958,102.362208,0.223694,1.58969493276,0,0,-0.671082,153.9, -0.4, 4.8,0,0,1024,1024,1024,1024,153,-89.9,97,3.813,3.809,3.809,3.828,3.826,3.833,19.994,68,14,Waypoint,
38.0966043,-120.142615,5194.3829614958,104.330712,0,1.439796634,16300,2018-05-10 21:09:01,16,0,22.941,5194.3829614958,104.330712,0.223694,1.58969493276,0,0,-0.671082,154.1, -0.3, 4.8,0,0,1024,1024,1024,1024,153.1,-89.9,97,3.813,3.809,3.809,3.828,3.826,3.833,19.994,68,14,Waypoint,
38.0966044,-120.1426152,5196.3514654958,106.299216,0,1.38591211784,16410,2018-05-10 21:09:01,16,0,22.941,5196.3514654958,106.299216,0.223694,1.58969493276,0,0,-0.671082,154.1, -0.9, 4.8,0,0,1024,1024,1024,1024,153.1,-89.9,97,3.813,3.809,3.809,3.828,3.826,3.833,19.994,68,14,Waypoint,
38.0966044,-120.1426153,5197.3357174958,107.283468,0,1.35736224816,16510,2018-05-10 21:09:01,16,0,22.941,5197.3357174958,107.283468,0.223694,1.58969493276,0,0,-0.671082,154.1, -1, 4.7,0,0,1024,1024,1024,1024,153.1,-90,97,3.813,3.809,3.809,3.828,3.826,3.833,19.994,68,14,Waypoint,
38.0966045,-120.1426153,5198.3199694958,108.26772,0,1.36176841628,16700,2018-05-10 21:09:01,16,0,22.941,5198.3199694958,108.26772,0.223694,1.58969493276,0,0,-0.671082,154.2, -1.1, 4.7,0,0,1024,1024,1024,1024,153.1,-89.9,97,3.813,3.809,3.809,3.828,3.826,3.833,19.994,68,14,Waypoint,
38.0966045,-120.1426154,5200.2884734958,110.236224,0,1.33332025264,16800,2018-05-10 21:09:01,16,0,22.941,5200.2884734958,110.236224,0.223694,1.58969493276,0,0,-0.671082,154.1, -0.7, 5,0,0,1024,1024,1024,1024,153.1,-89.9,97,3.813,3.809,3.809,3.828,3.826,3.833,19.994,68,14,Waypoint,
38.0966045,-120.1426155,5201.2727254958,111.220476,0,1.30488193152,16900,2018-05-10 21:09:01,16,0,22.941,5201.2727254958,111.220476,0.223694,1.58969493276,0,0,-0.671082,154, -0.7, 4.7,0,0,1024,1024,1024,1024,153.1,-89.9,97,3.813,3.809,3.809,3.828,3.826,3.833,19.994,68,14,Waypoint,
38.0966045,-120.1426156,5204.2254814958,114.173232,0,1.27645673376,17210,2018-05-10 21:09:02,16,0,22.941,5204.2254814958,114.173232,0.223694,1.58969493276,0,0,-0.671082,154.3, -0.8, 4.2,0,0,1024,1024,1024,1024,153.1,-89.9,97,3.813,3.809,3.809,3.828,3.826,3.833,19.994,68,14,Waypoint,
38.0966045,-120.1426155,5205.2097334958,115.157484,0,1.30488193152,17400,2018-05-10 21:09:02,16,0,22.941,5205.2097334958,115.157484,0.223694,1.58969493276,0,0,-0.671082,154.3, -0.3, 4.7,0,0,1024,1024,1024,1024,153.1,-89.9,97,3.813,3.809,3.809,3.828,3.826,3.833,19.994,68,14,Waypoint,
38.0966044,-120.1426155,5206.1939854958,116.141736,0,1.30028219384,17500,2018-05-10 21:09:02,16,0,22.941,5206.1939854958,116.141736,0.223694,1.58969493276,0,0,-0.671082,154.3, 0, 4.8,0,0,1024,1024,1024,1024,153.1,-89.9,97,3.813,3.809,3.809,3.828,3.826,3.833,19.994,68,14,Waypoint,
38.0966044,-120.1426155,5207.1782374958,117.125988,0,1.30028219384,17600,2018-05-10 21:09:02,16,0,22.941,5207.1782374958,117.125988,0.223694,1.58969493276,0,0,-0.671082,154.3, 0, 5,0,0,1024,1024,1024,1024,153.1,-89.9,97,3.813,3.809,3.809,3.828,3.826,3.833,19.994,68,14,Waypoint,
38.0966044,-120.1426154,5208.4905734958,118.438324,0,1.32881894016,17700,2018-05-10 21:09:02,16,0,22.941,5208.4905734958,118.438324,0.223694,1.58969493276,0,0,-0.671082,154.2, -0.4, 4.9,0,0,1024,1024,1024,1024,153.1,-89.9,97,3.813,3.809,3.809,3.828,3.826,3.833,19.994,68,14,Waypoint,
38.0966044,-120.1426154,5209.4748254958,119.422576,0,1.32881894016,17800,2018-05-10 21:09:02,16,0,22.941,5209.4748254958,119.422576,0.223694,1.58969493276,0,0,-0.671082,154.3, -0.3, 5.4,0,0,1024,1024,1024,1024,153.1,-89.9,97,3.813,3.809,3.809,3.828,3.826,3.833,19.994,68,14,Waypoint,
38.0966044,-120.1426153,5210.4590774958,120.406828,0,1.35736224816,17900,2018-05-10 21:09:02,16,0,22.941,5210.4590774958,120.406828,0.223694,1.58969493276,0,0,-0.671082,154.3, 0, 5.6,0,0,1024,1024,1024,1024,153.1,-89.9,97,3.813,3.809,3.809,3.828,3.826,3.833,19.994,68,14,Waypoint,
38.0966044,-120.1426151,5212.4275814958,122.375332,0,1.41446526836,18000,2018-05-10 21:09:02,16,0,22.796,5212.4275814958,122.375332,0.223694,1.58969493276,0,0,-0.671082,154.3, 0, 6.1,0,0,1024,1024,1024,1024,153.1,-89.9,97,3.804,3.803,3.78,3.807,3.817,3.829,20.36,69.8,14,Waypoint,
38.0966045,-120.142615,5213.4118334958,123.359584,0,1.44717524316,18200,2018-05-10 21:09:03,16,0,22.796,5213.4118334958,123.359584,0.223694,1.58969493276,0,0,-0.671082,154.3, -0.1, 6.2,0,0,1024,1024,1024,1024,153.1,-89.9,97,3.804,3.803,3.78,3.807,3.817,3.829,20.36,69.8,14,Waypoint,
38.0966045,-120.142615,5214.7241694958,124.67192,0,1.44717524316,18300,2018-05-10 21:09:03,16,0,22.796,5214.7241694958,124.67192,0.223694,1.58969493276,0,0,-0.671082,154.3, -0.3, 6.4,0,0,1024,1024,1024,1024,153.1,-89.9,97,3.804,3.803,3.78,3.807,3.817,3.829,20.36,69.8,14,Waypoint,
38.0966046,-120.1426149,5216.6926734958,126.640424,0,1.48061684528,18410,2018-05-10 21:09:03,16,0,22.796,5216.6926734958,126.640424,0.223694,1.58969493276,0,0,-0.671082,154.3, -0.3, 6.2,0,0,1024,1024,1024,1024,153.1,-89.9,97,3.804,3.803,3.78,3.807,3.817,3.829,20.36,69.8,14,Waypoint,
38.0966046,-120.1426149,5217.6769254958,127.624676,0,1.48061684528,18500,2018-05-10 21:09:03,16,0,22.796,5217.6769254958,127.624676,0.223694,1.58969493276,0,0,-0.671082,154.2, -0.1, 6.2,0,0,1024,1024,1024,1024,153.1,-89.9,97,3.804,3.803,3.78,3.807,3.817,3.829,20.36,69.8,14,Waypoint,
38.0966046,-120.1426149,5218.6611774958,128.608928,0,1.48061684528,18700,2018-05-10 21:09:03,16,0,22.796,5218.6611774958,128.608928,0.223694,1.58969493276,0,0,-0.671082,154.1, -0.1, 6.2,0,0,1024,1024,1024,1024,153.1,-89.9,97,3.804,3.803,3.78,3.807,3.817,3.829,20.36,69.8,14,Waypoint,
38.0966046,-120.1426149,5219.9735134958,129.921264,0,1.48061684528,18800,2018-05-10 21:09:03,16,0,22.796,5219.9735134958,129.921264,0.223694,1.58969493276,0,0,-0.671082,153.9, -0.3, 6.2,0,0,1024,1024,1024,1024,153.1,-89.9,97,3.804,3.803,3.78,3.807,3.817,3.829,20.36,69.8,14,Waypoint,
38.0966046,-120.1426148,5220.9577654958,130.905516,0,1.50901907716,18900,2018-05-10 21:09:03,16,0,22.796,5220.9577654958,130.905516,0.223694,1.58969493276,0,0,-0.671082,153.8, -0.2, 6.5,0,0,1024,1024,1024,1024,153.1,-89.9,97,3.804,3.803,3.78,3.807,3.817,3.829,20.36,69.8,14,Waypoint,
38.0966046,-120.1426147,5221.9420174958,131.889768,0,1.5374344324,19100,2018-05-10 21:09:04,16,0,22.796,5221.9420174958,131.889768,0.223694,1.58969493276,0,0,-0.671082,153.7, 0, 6.9,0,0,1024,1024,1024,1024,153.1,-89.9,97,3.804,3.803,3.78,3.807,3.817,3.829,20.36,69.8,14,Waypoint,
38.0966046,-120.1426146,5222.9262694958,132.87402,0,1.56585963016,19200,2018-05-10 21:09:04,16,0,22.796,5222.9262694958,132.87402,0.223694,1.58969493276,0,0,-0.671082,153.7, 0.4, 7.3,0,0,1024,1024,1024,1024,153.1,-89.9,97,3.804,3.803,3.78,3.807,3.817,3.829,20.36,69.8,14,Waypoint,
38.0966046,-120.1426144,5223.5824374958,133.530188,0,1.62273955324,19300,2018-05-10 21:09:04,16,0,22.796,5223.5824374958,133.530188,0.223694,1.62273955324,0,0,-0.671082,153.7, 0.6, 7.2,0,0,1024,1024,1024,1024,153.1,-89.9,97,3.804,3.803,3.78,3.807,3.817,3.829,20.36,69.8,14,Waypoint,
38.0966046,-120.1426143,5224.5666894958,134.51444,0,1.65119427856,19500,2018-05-10 21:09:04,16,0,22.796,5224.5666894958,134.51444,0.223694,1.65119427856,0,0,-0.671082,153.8, 0.7, 7,0,0,1024,1024,1024,1024,153.1,-89.9,97,3.804,3.803,3.78,3.807,3.817,3.829,20.36,69.8,14,Waypoint,
38.0966046,-120.1426143,5225.5509414958,135.498692,0,1.65119427856,19600,2018-05-10 21:09:04,16,0,22.796,5225.5509414958,135.498692,0.223694,1.65119427856,0,0,-0.671082,153.9, 0.9, 7,0,0,1024,1024,1024,1024,153.1,-89.9,97,3.804,3.803,3.78,3.807,3.817,3.829,20.36,69.8,14,Waypoint,
38.0966045,-120.1426143,5226.5351934958,136.482944,0,1.64675530204,19700,2018-05-10 21:09:04,16,0,22.796,5226.5351934958,136.482944,0.223694,1.65119427856,0,0,-0.671082,154.1, 1.1, 7.1,0,0,1024,1024,1024,1024,153.1,-89.9,97,3.804,3.803,3.78,3.807,3.817,3.829,20.36,69.8,14,Waypoint,
38.0966045,-120.1426143,5227.1913614958,137.139112,0,1.64675530204,19900,2018-05-10 21:09:04,16,0,22.796,5227.1913614958,137.139112,0.223694,1.65119427856,0,0,-0.671082,154.2, 0.8, 6.7,0,0,1024,1024,1024,1024,153.1,-89.9,97,3.804,3.803,3.78,3.807,3.817,3.829,20.36,69.8,14,Waypoint,
38.0966044,-120.1426143,5228.1756134958,138.123364,0,1.64311356964,20000,2018-05-10 21:09:04,16,0,22.936,5228.1756134958,138.123364,0.223694,1.65119427856,0,0,-0.671082,154.4, 0.7, 5.9,0,0,1024,1024,1024,1024,153.1,-89.9,96,3.791,3.782,3.764,3.785,3.781,3.811,18.031,69.8,14,Waypoint,
38.0966043,-120.1426143,5230.1441174958,140.091868,0,1.64027564304,20200,2018-05-10 21:09:05,16,0,22.936,5230.1441174958,140.091868,0.223694,1.65119427856,0,0,-0.671082,154.8, 1.7, 5.2,0,0,1024,1024,1024,1024,153.1,-89.9,96,3.791,3.782,3.764,3.785,3.781,3.811,18.031,69.8,14,Waypoint,
38.0966041,-120.1426143,5231.7845374958,141.732288,0,1.6370243306,20400,2018-05-10 21:09:05,16,0,22.936,5231.7845374958,141.732288,0.223694,1.65119427856,0,0,-0.671082,154.9, 2.1, 5.7,0,0,1024,1024,1024,1024,153.1,-89.9,96,3.791,3.782,3.764,3.785,3.781,3.811,18.031,69.8,14,Waypoint,
38.096604,-120.1426145,5233.4249574958,143.372708,0,1.57919296392,20500,2018-05-10 21:09:05,16,0,22.936,5233.4249574958,143.372708,0.223694,1.65119427856,0,0,-0.671082,154.2, 1.5, 5.5,0,0,1024,1024,1024,1024,153.1,-89.9,96,3.791,3.782,3.764,3.785,3.781,3.811,18.031,69.8,14,Waypoint,
38.096604,-120.1426146,5234.4092094958,144.35696,0,1.55048233308,20700,2018-05-10 21:09:05,16,0,22.936,5234.4092094958,144.35696,0.223694,1.65119427856,0,0,-0.671082,154, 1.1, 5.3,0,0,1024,1024,1024,1024,153.1,-89.9,96,3.791,3.782,3.764,3.785,3.781,3.811,18.031,69.8,14,Waypoint,
38.0966039,-120.1426148,5236.3777134958,146.325464,0,1.49350070396,20800,2018-05-10 21:09:05,16,0,22.936,5236.3777134958,146.325464,0.223694,1.65119427856,0,0,-0.671082,153.9, 1.1, 4.9,0,0,1024,1024,1024,1024,153.1,-89.9,96,3.791,3.782,3.764,3.785,3.781,3.811,18.031,69.8,14,Waypoint,
38.0966038,-120.1426148,5237.3619654958,147.309716,0,1.49483928668,20900,2018-05-10 21:09:05,16,0,22.936,5237.3619654958,147.309716,0.223694,1.65119427856,0,0,-0.671082,153.9, 1.5, 5,0,0,1024,1024,1024,1024,153.1,-89.9,96,3.791,3.782,3.764,3.785,3.781,3.811,18.031,69.8,14,Waypoint,
38.0966037,-120.1426149,5238.3462174958,148.293968,0,1.46842852468,21100,2018-05-10 21:09:06,16,0,22.936,5238.3462174958,148.293968,0.223694,1.65119427856,0,0,-0.671082,153.8, 1.9, 5.2,0,0,1024,1024,1024,1024,153.1,-89.9,96,3.791,3.782,3.764,3.785,3.781,3.811,18.031,69.8,14,Waypoint,
38.0966036,-120.142615,5240.3147214958,150.262472,0,1.4430282614,21200,2018-05-10 21:09:06,16,0,22.936,5240.3147214958,150.262472,0.223694,1.65119427856,0,0,-0.671082,153.8, 1.8, 4.8,0,0,1024,1024,1024,1024,153.1,-89.9,96,3.791,3.782,3.764,3.785,3.781,3.811,18.031,69.8,14,Waypoint,
38.0966036,-120.142615,5241.2989734958,151.246724,0,1.4430282614,21300,2018-05-10 21:09:06,16,0,22.936,5241.2989734958,151.246724,0.223694,1.65119427856,0,0,-0.671082,153.8, 1.4, 5.2,0,0,1024,1024,1024,1024,153.1,-89.9,96,3.791,3.782,3.764,3.785,3.781,3.811,18.031,69.8,14,Waypoint,
38.0966036,-120.1426152,5246.5483174958,156.496068,0,1.38591211784,21530,2018-05-10 21:09:06,16,0,22.936,5246.5483174958,156.496068,0.223694,1.65119427856,0,0,-0.671082,154.1, 1, 6.3,0,0,1024,1024,1024,1024,153.1,-89.9,96,3.791,3.782,3.764,3.785,3.781,3.811,18.031,69.8,14,Waypoint,
38.0966036,-120.1426152,5247.8606534958,157.808404,0,1.38591211784,21600,2018-05-10 21:09:06,16,0,22.936,5247.8606534958,157.808404,0.223694,1.65119427856,0,0,-0.671082,154.2, 0.9, 6.1,0,0,1024,1024,1024,1024,153.1,-89.9,96,3.791,3.782,3.764,3.785,3.781,3.811,18.031,69.8,14,Waypoint,
38.0966035,-120.1426152,5249.8291574958,159.776908,0,1.39022642244,21810,2018-05-10 21:09:06,16,0,22.936,5249.8291574958,159.776908,0.223694,1.65119427856,0,0,-0.671082,154.4, 0.6, 5.4,0,0,1024,1024,1024,1024,153.1,-89.9,96,3.791,3.782,3.764,3.785,3.781,3.811,18.031,69.8,14,Waypoint,
38.0966035,-120.1426153,5250.8134094958,160.76116,0,1.36176841628,21900,2018-05-10 21:09:06,16,0,22.936,5250.8134094958,160.76116,0.223694,1.65119427856,0,0,-0.671082,154.4, 0.7, 5.8,0,0,1024,1024,1024,1024,153.1,-89.9,96,3.791,3.782,3.764,3.785,3.781,3.811,18.031,69.8,14,Waypoint,
38.0966034,-120.1426153,5253.1099974958,163.057748,0,1.36713258968,22110,2018-05-10 21:09:07,16,0,22.936,5253.1099974958,163.057748,0.223694,1.65119427856,0,0,-0.671082,154.4, 1.1, 6,0,0,1024,1024,1024,1024,153.1,-89.9,96,3.791,3.782,3.764,3.785,3.781,3.811,18.031,69.8,14,Waypoint,
38.0966033,-120.1426153,5253.7661654958,163.713916,0,1.37344820668,22300,2018-05-10 21:09:07,16,0,22.936,5253.7661654958,163.713916,0.223694,1.65119427856,0,0,-0.671082,154.4, 1.2, 5.8,0,0,1024,1024,1024,1024,153.1,-89.9,96,3.791,3.782,3.764,3.785,3.781,3.811,18.031,69.8,14,Waypoint,
38.0966032,-120.1426154,5254.7504174958,164.698168,0,1.35264768108,22400,2018-05-10 21:09:07,16,0,22.936,5254.7504174958,164.698168,0.223694,1.65119427856,0,0,-0.671082,154.3, 1.5, 5.6,0,0,1024,1024,1024,1024,153.1,-89.9,96,3.791,3.782,3.764,3.785,3.781,3.811,18.031,69.8,14,Waypoint,
38.0966031,-120.1426154,5255.7346694958,165.68242,0,1.36098757636,22500,2018-05-10 21:09:07,16,0,22.936,5255.7346694958,165.68242,0.223694,1.65119427856,0,0,-0.671082,154.2, 1.7, 5.1,0,0,1024,1024,1024,1024,153.1,-89.9,96,3.791,3.782,3.764,3.785,3.781,3.811,18.031,69.8,14,Waypoint,
38.0966031,-120.1426155,5256.7189214958,166.666672,0,1.33313980644,22600,2018-05-10 21:09:07,16,0,22.936,5256.7189214958,166.666672,0.223694,1.65119427856,0,0,-0.671082,154.2, 1.9, 4.9,0,0,1024,1024,1024,1024,153.1,-89.9,96,3.791,3.782,3.764,3.785,3.781,3.811,18.031,69.8,14,Waypoint,
38.096603,-120.1426155,5257.7031734958,167.650924,0,1.34259190648,22700,2018-05-10 21:09:07,16,0,22.936,5257.7031734958,167.650924,0.223694,1.65119427856,0,0,-0.671082,154.2, 2, 4.8,0,0,1024,1024,1024,1024,153.1,-89.9,96,3.791,3.782,3.764,3.785,3.781,3.811,18.031,69.8,14,Waypoint,
38.0966029,-120.1426156,5258.3593414958,168.307092,0,1.32557090856,22800,2018-05-10 21:09:07,16,0,22.936,5258.3593414958,168.307092,0.223694,1.65119427856,0,0,-0.671082,154.2, 2.1, 4.7,0,0,1024,1024,1024,1024,153.1,-89.9,96,3.791,3.782,3.764,3.785,3.781,3.811,18.031,69.8,14,Waypoint,
38.0966029,-120.1426156,5259.3435934958,169.291344,0,1.32557090856,22900,2018-05-10 21:09:07,16,0,22.936,5259.3435934958,169.291344,0.223694,1.65119427856,0,0,-0.671082,154.2, 2.1, 4.8,0,0,1024,1024,1024,1024,153.1,-89.9,96,3.791,3.782,3.764,3.785,3.781,3.811,18.031,69.8,14,Waypoint,
38.0966028,-120.1426156,5261.3120974958,171.259848,0,1.33706697192,23000,2018-05-10 21:09:07,16,0,22.88,5261.3120974958,171.259848,0.223694,1.65119427856,0,0,-0.671082,154.3, 1.8, 5.4,0,0,1024,1024,1024,1024,153.1,-89.9,96,3.807,3.81,3.796,3.82,3.815,3.842,18.163,69.8,14,Waypoint,
38.0966028,-120.1426154,5264.2648534958,174.212604,0,1.3914534566,23400,2018-05-10 21:09:08,16,0,22.88,5264.2648534958,174.212604,0.223694,1.65119427856,0,0,-0.671082,154.4, 1.7, 7.1,0,0,1024,1024,1024,1024,153.1,-89.9,96,3.807,3.81,3.796,3.82,3.815,3.842,18.163,69.8,14,Waypoint,
38.0966028,-120.1426154,5266.2333574958,176.181108,0,1.3914534566,23600,2018-05-10 21:09:08,16,0,22.88,5266.2333574958,176.181108,0.223694,1.65119427856,0,0,-0.671082,154.2, 1.7, 6.5,0,0,1024,1024,1024,1024,153.1,-89.9,96,3.807,3.81,3.796,3.82,3.815,3.842,18.163,69.8,14,Waypoint,
38.0966028,-120.1426155,5267.2176094958,177.16536,0,1.36422904628,23700,2018-05-10 21:09:08,16,0,22.88,5267.2176094958,177.16536,0.223694,1.65119427856,0,0,-0.671082,154.2, 1.6, 5.9,0,0,1024,1024,1024,1024,153.1,-89.9,96,3.807,3.81,3.796,3.82,3.815,3.842,18.163,69.8,14,Waypoint,
38.0966028,-120.1426156,5268.2018614958,178.149612,0,1.33706697192,23900,2018-05-10 21:09:08,16,0,22.88,5268.2018614958,178.149612,0.223694,1.65119427856,0,0,-0.671082,154.1, 1.4, 5.3,0,0,1024,1024,1024,1024,153.1,-89.9,96,3.807,3.81,3.796,3.82,3.815,3.842,18.163,69.8,14,Waypoint,
38.0966028,-120.1426158,5269.1861134958,179.133864,0,1.28294623528,24000,2018-05-10 21:09:08,16,0,22.854,5269.1861134958,179.133864,0.223694,1.65119427856,0,0,-0.671082,154, 1.2, 4.6,0,0,1024,1024,1024,1024,153.1,-89.9,96,3.807,3.81,3.796,3.82,3.815,3.842,18.277,69.8,14,Waypoint,
38.0966027,-120.142616,5270.1703654958,180.118116,0,1.24258862244,24100,2018-05-10 21:09:09,16,0,22.854,5270.1703654958,180.118116,0.223694,1.65119427856,0,0,-0.671082,154.1, 1.2, 4.5,0,0,1024,1024,1024,1024,153.1,-89.9,96,3.807,3.81,3.796,3.82,3.815,3.842,18.277,69.8,14,Waypoint,
38.0966027,-120.1426161,5271.1546174958,181.102368,0,1.21609912028,24200,2018-05-10 21:09:09,16,0,22.854,5271.1546174958,181.102368,0.223694,1.65119427856,0,0,-0.671082,154, 1.2, 4.3,0,0,1024,1024,1024,1024,153.1,-89.9,96,3.807,3.81,3.796,3.82,3.815,3.842,18.277,69.8,14,Waypoint,
38.0966027,-120.1426163,5272.1388694958,182.08662,0,1.16343835744,24300,2018-05-10 21:09:09,16,0,22.854,5272.1388694958,182.08662,0.223694,1.65119427856,0,0,-0.671082,154, 1.2, 3.8,0,0,1024,1024,1024,1024,153.1,-89.9,96,3.807,3.81,3.796,3.82,3.815,3.842,18.277,69.8,14,Waypoint,
38.0966027,-120.1426164,5273.4512054958,183.398956,0,1.13728022012,24400,2018-05-10 21:09:09,16,0,22.854,5273.4512054958,183.398956,0.223694,1.65119427856,0,0,-0.671082,153.9, 1.3, 3.4,0,0,1024,1024,1024,1024,153.1,-89.9,96,3.807,3.81,3.796,3.82,3.815,3.842,18.277,69.8,14,Waypoint,
38.0966027,-120.1426165,5274.4354574958,184.383208,0,1.11124675472,24500,2018-05-10 21:09:09,16,0,22.854,5274.4354574958,184.383208,0.223694,1.65119427856,0,0,-0.671082,153.9, 1.3, 3.4,0,0,1024,1024,1024,1024,153.1,-89.9,96,3.807,3.81,3.796,3.82,3.815,3.842,18.277,69.8,14,Waypoint,
38.0966027,-120.1426166,5275.4197094958,185.36746,0,1.0853510846,24600,2018-05-10 21:09:09,16,0,22.854,5275.4197094958,185.36746,0.223694,1.65119427856,0,0,-0.671082,153.8, 1.1, 3.6,0,0,1024,1024,1024,1024,153.1,-90,96,3.807,3.81,3.796,3.82,3.815,3.842,18.277,69.8,14,Waypoint,
38.0966028,-120.1426167,5276.4039614958,186.351712,0,1.04377956096,24700,2018-05-10 21:09:09,16,0,22.854,5276.4039614958,186.351712,0.223694,1.65119427856,0,0,-0.671082,153.8, 0.6, 4,0,0,1024,1024,1024,1024,153.1,-90,96,3.807,3.81,3.796,3.82,3.815,3.842,18.277,69.8,14,Waypoint,
38.096603,-120.1426167,5278.3724654958,188.320216,0,1.01533467816,24900,2018-05-10 21:09:09,16,0,22.854,5278.3724654958,188.320216,0.223694,1.65119427856,0,0,-0.671082,153.9, 0.2, 5,0,0,1024,1024,1024,1024,153.1,-90,96,3.807,3.81,3.796,3.82,3.815,3.842,18.277,69.8,14,Waypoint,
38.0966031,-120.1426166,5280.3409694958,190.28872,0,1.02997378624,25100,2018-05-10 21:09:10,16,0,22.854,5280.3409694958,190.28872,0.223694,1.65119427856,0,0,-0.671082,154.1, 0.5, 5.2,0,0,1024,1024,1024,1024,153.1,-89.9,96,3.807,3.81,3.796,3.82,3.815,3.842,18.277,69.8,14,Waypoint,
38.0966032,-120.1426164,5282.3094734958,192.257224,0,1.07407483752,25300,2018-05-10 21:09:10,16,0,22.854,5282.3094734958,192.257224,0.223694,1.65119427856,0,0,-0.671082,154.2, 1.1, 5.5,0,0,1024,1024,1024,1024,153.1,-89.9,96,3.807,3.81,3.796,3.82,3.815,3.842,18.277,69.8,14,Waypoint,
38.0966032,-120.1426162,5284.2779774958,194.225728,0,1.1294455742,25400,2018-05-10 21:09:10,16,0,22.854,5284.2779774958,194.225728,0.223694,1.65119427856,0,0,-0.671082,154.2, 1.5, 5.5,0,0,1024,1024,1024,1024,153.1,-89.9,96,3.807,3.81,3.796,3.82,3.815,3.842,18.277,69.8,14,Waypoint,
38.0966032,-120.1426162,5285.2622294958,195.20998,0,1.1294455742,25600,2018-05-10 21:09:10,16,0,22.854,5285.2622294958,195.20998,0.223694,1.65119427856,0,0,-0.671082,154.2, 1.4, 5.1,0,0,1024,1024,1024,1024,153.1,-89.9,96,3.807,3.81,3.796,3.82,3.815,3.842,18.277,69.8,14,Waypoint,
38.0966032,-120.1426161,5286.2464814958,196.194232,0,1.15720804228,25700,2018-05-10 21:09:10,16,0,22.854,5286.2464814958,196.194232,0.223694,1.65119427856,0,0,-0.671082,154.1, 1.4, 4.9,0,0,1024,1024,1024,1024,153.1,-89.9,96,3.807,3.81,3.796,3.82,3.815,3.842,18.277,69.8,14,Waypoint,
38.0966032,-120.1426161,5287.2307334958,197.178484,0,1.15720804228,25900,2018-05-10 21:09:10,16,0,22.854,5287.2307334958,197.178484,0.223694,1.65119427856,0,0,-0.671082,154, 1.5, 4.4,0,0,1024,1024,1024,1024,153.1,-89.9,96,3.807,3.81,3.796,3.82,3.815,3.842,18.277,69.8,14,Waypoint,
38.0966033,-120.1426159,5289.1992374958,199.146988,0,1.20460305692,26000,2018-05-10 21:09:10,16,0,22.725,5289.1992374958,199.146988,0.223694,1.65119427856,0,0,-0.671082,154, 1.1, 4.6,0,0,1024,1024,1024,1024,153.1,-89.9,96,3.794,3.791,3.771,3.796,3.793,3.831,19.608,71.6,14,Waypoint,
38.0966033,-120.1426158,5290.1834894958,200.13124,0,1.2326772048,26100,2018-05-10 21:09:11,16,0,22.725,5290.1834894958,200.13124,0.223694,1.65119427856,0,0,-0.671082,154, 1.3, 5.1,0,0,1024,1024,1024,1024,153.1,-89.9,96,3.794,3.791,3.771,3.796,3.793,3.831,19.608,71.6,14,Waypoint,
38.0966033,-120.1426155,5291.8239094958,201.77166,0,1.31706697128,26300,2018-05-10 21:09:11,16,0,22.725,5291.8239094958,201.77166,0.223694,1.65119427856,0,0,-0.671082,154.4, 1.6, 5.4,0,0,1024,1024,1024,1024,153.1,-89.9,96,3.794,3.791,3.771,3.796,3.793,3.831,19.608,71.6,14,Waypoint,
38.0966034,-120.1426154,5292.8081614958,202.755912,0,1.33879925544,26400,2018-05-10 21:09:11,16,0,22.725,5292.8081614958,202.755912,0.223694,1.65119427856,0,0,-0.671082,154.5, 1.5, 5.5,0,0,1024,1024,1024,1024,153.1,-89.9,96,3.794,3.791,3.771,3.796,3.793,3.831,19.608,71.6,14,Waypoint,
38.0966034,-120.1426153,5293.7924134958,203.740164,0,1.36713258968,26500,2018-05-10 21:09:11,16,0,22.725,5293.7924134958,203.740164,0.223694,1.65119427856,0,0,-0.671082,154.4, 1.5, 5.7,0,0,1024,1024,1024,1024,153.1,-89.9,96,3.794,3.791,3.771,3.796,3.793,3.831,19.608,71.6,14,Waypoint,
38.0966035,-120.1426152,5295.7609174958,205.708668,0,1.39022642244,26800,2018-05-10 21:09:11,16,0,22.725,5295.7609174958,205.708668,0.223694,1.65119427856,0,0,-0.671082,154.2, 0.9, 5.7,0,0,1024,1024,1024,1024,153.1,-90,96,3.794,3.791,3.771,3.796,3.793,3.831,19.608,71.6,14,Waypoint,
38.0966035,-120.1426151,5296.7451694958,206.69292,0,1.41869427112,26900,2018-05-10 21:09:11,16,0,22.725,5296.7451694958,206.69292,0.223694,1.65119427856,0,0,-0.671082,154.1, 0.7, 5.6,0,0,1024,1024,1024,1024,153.1,-90,96,3.794,3.791,3.771,3.796,3.793,3.831,19.608,71.6,14,Waypoint,
38.0966036,-120.1426151,5297.7294214958,207.677172,0,1.4144685492,27000,2018-05-10 21:09:11,16,0,22.812,5297.7294214958,207.677172,0.223694,1.65119427856,0,0,-0.671082,154, 0.6, 5.6,0,0,1024,1024,1024,1024,153.1,-90,96,3.799,3.789,3.784,3.806,3.809,3.827,18.272,71.6,14,Waypoint,
38.0966036,-120.142615,5298.7136734958,208.661424,0,1.4430282614,27100,2018-05-10 21:09:12,16,0,22.812,5298.7136734958,208.661424,0.223694,1.65119427856,0,0,-0.671082,154, 0.6, 5.5,0,0,1024,1024,1024,1024,153.1,-90,96,3.799,3.789,3.784,3.806,3.809,3.827,18.272,71.6,14,Waypoint,
38.0966036,-120.142615,5299.6979254958,209.645676,0,1.4430282614,27200,2018-05-10 21:09:12,16,0,22.812,5299.6979254958,209.645676,0.223694,1.65119427856,0,0,-0.671082,154.1, 0.7, 5.4,0,0,1024,1024,1024,1024,153.1,-89.9,96,3.799,3.789,3.784,3.806,3.809,3.827,18.272,71.6,14,Waypoint,
38.0966036,-120.142615,5300.6821774958,210.629928,0,1.4430282614,27300,2018-05-10 21:09:12,16,0,22.812,5300.6821774958,210.629928,0.223694,1.65119427856,0,0,-0.671082,154.1, 0.7, 5.4,0,0,1024,1024,1024,1024,153.1,-89.9,96,3.799,3.789,3.784,3.806,3.809,3.827,18.272,71.6,14,Waypoint,
38.0966036,-120.1426149,5301.6664294958,211.61418,0,1.47159781612,27400,2018-05-10 21:09:12,16,0,22.812,5301.6664294958,211.61418,0.223694,1.65119427856,0,0,-0.671082,154.1, 0.8, 5.3,0,0,1024,1024,1024,1024,153.1,-89.9,96,3.799,3.789,3.784,3.806,3.809,3.827,18.272,71.6,14,Waypoint,
38.0966036,-120.1426149,5302.6506814958,212.598432,0,1.47159781612,27500,2018-05-10 21:09:12,16,0,22.812,5302.6506814958,212.598432,0.223694,1.65119427856,0,0,-0.671082,154.1, 0.8, 5.3,0,0,1024,1024,1024,1024,153.1,-89.9,96,3.799,3.789,3.784,3.806,3.809,3.827,18.272,71.6,14,Waypoint,
38.0966036,-120.142615,5303.6349334958,213.582684,0,1.4430282614,27600,2018-05-10 21:09:12,16,0,22.812,5303.6349334958,213.582684,0.223694,1.65119427856,0,0,-0.671082,154.1, 0.9, 5.2,0,0,1024,1024,1024,1024,153.1,-89.9,96,3.799,3.789,3.784,3.806,3.809,3.827,18.272,71.6,14,Waypoint,
38.0966035,-120.142615,5304.6191854958,214.566936,0,1.44717524316,27700,2018-05-10 21:09:12,16,0,22.812,5304.6191854958,214.566936,0.223694,1.65119427856,0,0,-0.671082,154, 1.1, 5,0,0,1024,1024,1024,1024,153.1,-89.9,96,3.799,3.789,3.784,3.806,3.809,3.827,18.272,71.6,14,Waypoint,
38.0966035,-120.1426152,5306.5876894958,216.53544,0.223694,1.39022642244,27900,2018-05-10 21:09:12,16,0,22.812,5306.5876894958,216.53544,0.223694,1.65119427856,0,0,-0.671082,153.8, 1.2, 4.6,0,0,1024,1024,1024,1024,153.1,-89.9,96,3.799,3.789,3.784,3.806,3.809,3.827,18.272,71.6,14,Waypoint,
38.0966033,-120.1426153,5308.5561934958,218.503944,0.223694,1.37344820668,28000,2018-05-10 21:09:12,16,0,22.693,5308.5561934958,218.503944,0.223694,1.65119427856,0,0,-0.671082,153.8, 1.2, 3.7,0,0,1024,1024,1024,1024,153.1,-89.9,96,3.77,3.771,3.758,3.779,3.787,3.792,19.794,71.6,14,Waypoint,
38.0966032,-120.1426155,5310.1966134958,220.144364,0.223694,1.32462602664,28200,2018-05-10 21:09:13,16,0,22.693,5310.1966134958,220.144364,0.223694,1.65119427856,0,0,-0.671082,154.1, 1.7, 3.8,0,0,1024,1024,1024,1024,153.1,-89.9,96,3.77,3.771,3.758,3.779,3.787,3.792,19.794,71.6,14,Waypoint,
38.0966031,-120.1426156,5311.1808654958,221.128616,0.223694,1.3053314066,28400,2018-05-10 21:09:13,16,0,22.693,5311.1808654958,221.128616,0.223694,1.65119427856,0,0,-0.671082,154.2, 1.9, 3.8,0,0,1024,1024,1024,1024,153.1,-89.9,96,3.77,3.771,3.758,3.779,3.787,3.792,19.794,71.6,14,Waypoint,
38.096603,-120.1426156,5312.1651174958,222.112868,0.223694,1.31498363788,28500,2018-05-10 21:09:13,16,0,22.693,5312.1651174958,222.112868,0.223694,1.65119427856,0,0,-0.671082,154.4, 2, 3.7,0,0,1024,1024,1024,1024,153.1,-89.9,96,3.77,3.771,3.758,3.779,3.787,3.792,19.794,71.6,14,Waypoint,
38.096603,-120.1426157,5313.4774534958,223.425204,0.223694,1.28742130104,28600,2018-05-10 21:09:13,16,0,22.693,5313.4774534958,223.425204,0.223694,1.65119427856,0,0,-0.671082,154.5, 1.9, 3.4,0,0,1024,1024,1024,1024,153.1,-89.9,96,3.77,3.771,3.758,3.779,3.787,3.792,19.794,71.6,14,Waypoint,
38.0966029,-120.1426158,5314.4617054958,224.409456,0,1.27095804592,28700,2018-05-10 21:09:13,16,0,22.693,5314.4617054958,224.409456,0.223694,1.65119427856,0,0,-0.671082,154.5, 2, 3.6,0,0,1024,1024,1024,1024,153.1,-89.9,96,3.77,3.771,3.758,3.779,3.787,3.792,19.794,71.6,14,Waypoint,
38.0966028,-120.1426158,5315.4459574958,225.393708,0,1.28294623528,28800,2018-05-10 21:09:13,16,0,22.693,5315.4459574958,225.393708,0.223694,1.65119427856,0,0,-0.671082,154.5, 1.9, 3.8,0,0,1024,1024,1024,1024,153.1,-89.9,96,3.77,3.771,3.758,3.779,3.787,3.792,19.794,71.6,14,Waypoint,
38.0966028,-120.1426158,5316.4302094958,226.37796,0,1.28294623528,28900,2018-05-10 21:09:13,16,0,22.693,5316.4302094958,226.37796,0.223694,1.65119427856,0,0,-0.671082,154.5, 2, 4.1,0,0,1024,1024,1024,1024,153.1,-89.9,96,3.77,3.771,3.758,3.779,3.787,3.792,19.794,71.6,14,Waypoint,
38.0966027,-120.1426159,5318.3987134958,228.346464,0,1.26917326896,29000,2018-05-10 21:09:13,16,0,22.599,5318.3987134958,228.346464,0.223694,1.65119427856,0,0,-0.671082,154.4, 2.2, 4.2,0,0,1024,1024,1024,1024,153.1,-89.9,96,3.758,3.763,3.75,3.76,3.771,3.791,20.977,71.6,14,Waypoint,
38.0966026,-120.1426161,5320.3672174958,230.314968,0,1.23078744096,29100,2018-05-10 21:09:14,16,0,22.599,5320.3672174958,230.314968,0.223694,1.65119427856,0,0,-0.671082,154.3, 2.4, 3.9,0,0,1024,1024,1024,1024,153.1,-89.9,96,3.758,3.763,3.75,3.76,3.771,3.791,20.977,71.6,14,Waypoint,
38.0966026,-120.1426162,5321.3514694958,231.29922,0,1.204724448,29200,2018-05-10 21:09:14,16,0,22.599,5321.3514694958,231.29922,0.223694,1.65119427856,0,0,-0.671082,154.2, 2.2, 3.7,0,0,1024,1024,1024,1024,153.1,-89.9,96,3.758,3.763,3.75,3.76,3.771,3.791,20.977,71.6,14,Waypoint,
