Latitude, Longitude, Altitude (m), Time, Sats, Speed (m/s), Range (m), Battery (%), Roll (deg), Pitch (deg), Yaw (deg), Images, HD Signal (%), RC Signal (%), Battery Temp (C), Battery Voltage (mV), Battery Current (mA), Battery Energy (mAh), Battery Capacity (mAh), Battery Discharges, flyState, timestamp (Unix), LastUpdate (ms), radioChannel, Rc_elevator, Rc_aileron, Rc_throttle, Rc_rudder, Rc_gyro, Dronetype, Battery_Cell1 (mV), Battery_Cell2 (mV), Battery_Cell3 (mV), Battery_Cell4 (mV), Battery_Cell5 (mV), Battery_Cell6 (mV), Video, isFlying, elapsedTime (ms), gimbalPitch (deg), gimbalRoll (deg), gimbalYaw (deg), VelocityX (m/s), VelocityY (m/s), VelocityZ (m/s), GroundSmear (cm), App Version, Aircraft Name, Aircraft Firmware, Aircraft Serial Number, Battery Serial Number, Battery Lifetime (%), App_Tip, App_Warning, CurrentFlightStartingIndex, CurrentFlightLastVisitedWaypoint, PreviousFlightEndingWaypointIndex
36.0028500, -118.5646159, 0.000, 09:56:51.460, 12, 0.10, 0.01, 98, -0.500, -0.100, 52.900, 338, 100, 95, 17, 25316, -3785, 5269, 5377, 17, 11, 1530723411.461, 1, 0, 1024, 1024, 1024, 1024, 0, 6, 4236, 4189, 4174, 4177, 4184, 4189, 0, 1, 3300, -89.900, 0.000, 52.200, 0.100, 0.000, -0.300, 0.0, MapPilot_2.8.1_04242018, Dendroctonus I, 1.3.1.00, 041DDC1887, 1058171200279, 96, DJI_0337.jpg, Starting Mission from Lat/Long: 36.00285/-118.56462 Camera: Zenmuse X3 - Overlap: 90/90 - Active Connection: No, 13, 13, 13
36.0028500, -118.5646159, 0.000, 09:56:51.561, 12, 0.10, 0.01, 98, -0.500, -0.100, 52.900, 338, 100, 95, 17, 25316, -3785, 5269, 5377, 17, 11, 1530723411.561, 102, 0, 1024, 1024, 1024, 1024, 0, 6, 4236, 4189, 4174, 4177, 4184, 4189, 0, 1, 3400, -89.900, 0.000, 52.200, 0.100, 0.000, -0.300, 0.0, , , , , , 96, , , 13, 13, 13
36.0028501, -118.5646160, 0.000, 09:56:51.661, 12, 0.10, 0.02, 98, -0.300, 0.200, 52.900, 338, 100, 95, 17, 25316, -3785, 5269, 5377, 17, 11, 1530723411.661, 95, 0, 1024, 1024, 1024, 1024, 0, 6, 4236, 4189, 4174, 4177, 4184, 4189, 0, 1, 3500, -89.900, 0.000, 52.200, 0.100, 0.000, -0.300, 0.0, , , , , , 96, , , 13, 13, 13
36.0028503, -118.5646160, 0.100, 09:56:51.761, 12, 0.10, 0.04, 98, 0.000, 0.300, 52.900, 338, 100, 95, 17, 25316, -3785, 5269, 5377, 17, 11, 1530723411.761, 74, 0, 1024, 1024, 1024, 1024, 0, 6, 4236, 4189, 4174, 4177, 4184, 4189, 0, 1, 3600, -89.900, 0.000, 52.200, 0.100, 0.000, -0.400, 0.0, , , , , , 96, , , 13, 13, 13
36.0028505, -118.5646160, 0.100, 09:56:51.861, 12, 0.20, 0.06, 98, 1.000, 0.500, 53.000, 338, 100, 95, 17, 25316, -3785, 5269, 5377, 17, 11, 1530723411.861, 69, 0, 1024, 1024, 1024, 1024, 0, 6, 4236, 4189, 4174, 4177, 4184, 4189, 0, 1, 3700, -89.900, 0.000, 52.200, 0.200, 0.000, -0.400, 0.0, , , , , , 96, , , 13, 13, 13
36.0028507, -118.5646161, 0.200, 09:56:51.960, 12, 0.20, 0.08, 98, 1.900, 0.700, 53.000, 338, 100, 95, 17, 24046, -12583, 5269, 5377, 17, 11, 1530723411.960, 71, 0, 1024, 1024, 1024, 1024, 0, 6, 4024, 3971, 3942, 3939, 3949, 3973, 0, 1, 3800, -89.900, 0.000, 52.200, 0.200, 0.000, -0.400, 0.0, , , , , , 96, , , 13, 13, 13
36.0028509, -118.5646162, 0.200, 09:56:52.061, 12, 0.10, 0.11, 98, 2.200, 0.800, 53.000, 338, 100, 96, 17, 24046, -12583, 5269, 5377, 17, 11, 1530723412.061, 85, 0, 1024, 1024, 1024, 1024, 0, 6, 4024, 3971, 3942, 3939, 3949, 3973, 0, 1, 3900, -89.900, 0.000, 52.200, 0.100, 0.000, -0.400, 0.0, , , , , , 96, , , 13, 13, 13
36.0028510, -118.5646163, 0.300, 09:56:52.161, 12, 0.10, 0.12, 98, 2.400, 0.800, 53.100, 338, 100, 96, 17, 24046, -12583, 5269, 5377, 17, 11, 1530723412.161, 76, 0, 1024, 1024, 1024, 1024, 0, 6, 4024, 3971, 3942, 3939, 3949, 3973, 0, 1, 4000, -89.900, 0.000, 52.200, 0.100, 0.000, -0.400, 0.0, , , , , , 96, , , 13, 13, 13
36.0028511, -118.5646163, 0.300, 09:56:52.261, 10, 0.10, 0.13, 98, 2.400, 0.700, 53.100, 338, 100, 96, 17, 24046, -12583, 5269, 5377, 17, 11, 1530723412.261, 57, 0, 1024, 1024, 1024, 1024, 0, 6, 4024, 3971, 3942, 3939, 3949, 3973, 0, 1, 4100, -89.900, 0.000, 52.200, 0.100, 0.000, -0.400, 0.0, , , , , , 96, , , 13, 13, 13
36.0028512, -118.5646165, 0.400, 09:56:52.361, 10, 0.10, 0.15, 98, 2.200, 0.400, 53.100, 338, 100, 96, 17, 24046, -12583, 5269, 5377, 17, 11, 1530723412.361, 68, 0, 1024, 1024, 1024, 1024, 0, 6, 4024, 3971, 3942, 3939, 3949, 3973, 0, 1, 4200, -89.900, 0.000, 52.200, 0.100, 0.000, -0.400, 0.0, , , , , , 96, , , 13, 13, 13
36.0028513, -118.5646166, 0.400, 09:56:52.461, 10, 0.10, 0.17, 98, 2.200, 0.200, 53.000, 338, 100, 96, 17, 24046, -12583, 5269, 5377, 17, 11, 1530723412.461, 69, 0, 1024, 1024, 1024, 1024, 0, 6, 4024, 3971, 3942, 3939, 3949, 3973, 0, 1, 4300, -89.900, 0.000, 52.200, 0.100, 0.000, -0.400, 0.0, , , , , , 96, , , 13, 13, 13
36.0028514, -118.5646166, 0.500, 09:56:52.561, 10, 0.10, 0.18, 98, 1.900, 0.100, 52.900, 338, 100, 98, 17, 24046, -12583, 5269, 5377, 17, 11, 1530723412.561, 50, 0, 1024, 1024, 1024, 1024, 0, 6, 4024, 3971, 3942, 3939, 3949, 3973, 0, 1, 4400, -89.900, 0.000, 52.200, 0.100, 0.000, -0.400, 0.0, , , , , , 96, , , 13, 13, 13
36.0028516, -118.5646167, 0.500, 09:56:52.661, 11, 0.10, 0.19, 98, 1.500, 0.200, 52.800, 338, 100, 98, 17, 24046, -12583, 5269, 5377, 17, 11, 1530723412.661, 54, 0, 1024, 1024, 1024, 1024, 0, 6, 4024, 3971, 3942, 3939, 3949, 3973, 0, 1, 4500, -89.900, 0.000, 52.200, 0.100, 0.000, -0.500, 0.0, , , , , , 96, , , 13, 13, 13
36.0028519, -118.5646170, 0.600, 09:56:52.761, 11, 0.10, 0.24, 98, 1.800, 0.300, 52.800, 338, 100, 98, 17, 24046, -12583, 5269, 5377, 17, 11, 1530723412.761, 12, 0, 1024, 1024, 1024, 1024, 0, 6, 4024, 3971, 3942, 3939, 3949, 3973, 0, 1, 4600, -89.900, 0.000, 52.200, 0.100, 0.000, -0.500, 0.0, , , , , , 96, , , 13, 13, 13
36.0028521, -118.5646171, 0.700, 09:56:52.861, 11, 0.10, 0.26, 98, 1.900, 0.200, 52.900, 338, 100, 98, 17, 24046, -12583, 5269, 5377, 17, 11, 1530723412.861, 42, 0, 1024, 1024, 1024, 1024, 0, 6, 4024, 3971, 3942, 3939, 3949, 3973, 0, 1, 4700, -89.900, 0.000, 52.200, 0.100, 0.000, -0.500, 0.0, , , , , , 96, , , 13, 13, 13
36.0028522, -118.5646173, 0.700, 09:56:52.961, 11, 0.00, 0.28, 98, 2.000, 0.100, 53.000, 338, 100, 98, 17, 23432, -17475, 5215, 5377, 17, 11, 1530723412.961, 45, 0, 1024, 1024, 1024, 1024, 0, 6, 3924, 3883, 3875, 3882, 3909, 3905, 0, 1, 4800, -89.900, 0.000, 52.200, 0.000, 0.000, -0.500, 0.0, , , , , , 96, , , 13, 13, 13
36.0028523, -118.5646174, 0.800, 09:56:53.061, 11, 0.00, 0.29, 98, 2.200, 0.000, 53.200, 338, 100, 98, 17, 23432, -17475, 5215, 5377, 17, 11, 1530723413.061, 52, 0, 1024, 1024, 1024, 1024, 0, 6, 3924, 3883, 3875, 3882, 3909, 3905, 0, 1, 4900, -89.900, 0.000, 52.200, 0.000, 0.000, -0.500, 0.0, , , , , , 96, , , 13, 13, 13
36.0028524, -118.5646175, 0.800, 09:56:53.161, 11, 0.00, 0.31, 98, 2.700, 0.000, 53.300, 338, 100, 98, 17, 23432, -17475, 5215, 5377, 17, 11, 1530723413.161, 31, 0, 1024, 1024, 1024, 1024, 0, 6, 3924, 3883, 3875, 3882, 3909, 3905, 0, 1, 5000, -89.900, 0.000, 52.200, 0.000, 0.000, -0.500, 0.0, , , , , , 96, , , 13, 13, 13
36.0028526, -118.5646177, 0.900, 09:56:53.261, 11, 0.00, 0.34, 98, 3.000, 0.000, 53.300, 338, 100, 98, 17, 23432, -17475, 5215, 5377, 17, 6, 1530723413.261, 32, 0, 1024, 1024, 1024, 1024, 0, 6, 3924, 3883, 3875, 3882, 3909, 3905, 0, 1, 5100, -89.900, 0.000, 52.200, 0.000, 0.000, -0.500, 0.0, , , , , , 96, , , 13, 13, 13
36.0028528, -118.5646179, 0.900, 09:56:53.361, 12, 0.00, 0.36, 98, 3.400, -0.100, 53.200, 338, 100, 98, 17, 23432, -17475, 5215, 5377, 17, 14, 1530723413.361, 16, 0, 1024, 1024, 1024, 1024, 0, 6, 3924, 3883, 3875, 3882, 3909, 3905, 0, 1, 5200, -89.900, 0.000, 52.200, 0.000, 0.000, -0.400, 0.0, , , , , , 96, , , 13, 13, 13
36.0028529, -118.5646180, 1.000, 09:56:53.461, 12, 0.00, 0.37, 98, 2.900, -0.200, 53.200, 338, 100, 99, 17, 23432, -17475, 5215, 5377, 17, 14, 1530723413.461, 19, 0, 1024, 1024, 1024, 1024, 0, 6, 3924, 3883, 3875, 3882, 3909, 3905, 0, 1, 5300, -90.000, 0.000, 52.200, 0.000, 0.000, -0.300, 0.0, , , , , , 96, , , 13, 13, 13
36.0028530, -118.5646181, 1.000, 09:56:53.561, 11, 0.00, 0.39, 98, 2.400, -0.300, 53.200, 338, 100, 99, 17, 23432, -17475, 5215, 5377, 17, 14, 1530723413.561, 20, 0, 1024, 1024, 1024, 1024, 0, 6, 3924, 3883, 3875, 3882, 3909, 3905, 0, 1, 5400, -89.900, 0.000, 52.200, 0.000, 0.000, -0.300, 0.0, , , , , , 96, , , 13, 13, 13
36.0028531, -118.5646182, 1.000, 09:56:53.661, 11, 0.00, 0.40, 98, 2.200, -0.200, 53.300, 338, 100, 99, 17, 23432, -17475, 5215, 5377, 17, 14, 1530723413.661, 24, 0, 1024, 1024, 1024, 1024, 0, 6, 3924, 3883, 3875, 3882, 3909, 3905, 0, 1, 5500, -89.900, 0.000, 52.200, 0.000, 0.000, -0.300, 0.0, , , , , , 96, , , 13, 13, 13
36.0028532, -118.5646183, 1.100, 09:56:53.761, 11, 0.00, 0.42, 98, 2.100, -0.300, 53.500, 338, 100, 99, 17, 23432, -17475, 5215, 5377, 17, 14, 1530723413.761, 16, 0, 1024, 1024, 1024, 1024, 0, 6, 3924, 3883, 3875, 3882, 3909, 3905, 0, 1, 5600, -89.900, 0.000, 52.200, 0.000, 0.000, -0.400, 0.0, , , , , , 96, , , 13, 13, 13
36.0028532, -118.5646185, 1.200, 09:56:53.861, 11, 0.00, 0.43, 97, 2.200, -0.300, 53.700, 338, 100, 99, 17, 23323, -17076, 5215, 5377, 17, 14, 1530723413.861, 11, 0, 1024, 1024, 1024, 1024, 0, 6, 3924, 3883, 3875, 3882, 3909, 3905, 0, 1, 5700, -89.900, 0.000, 52.200, 0.000, 0.000, -0.500, 0.0, , , , , , 96, , , 13, 13, 13
36.0028532, -118.5646185, 1.200, 09:56:53.961, 11, 0.00, 0.43, 97, 2.200, -0.300, 53.700, 338, 100, 99, 17, 23323, -17076, 5215, 5377, 17, 14, 1530723413.961, 111, 0, 1024, 1024, 1024, 1024, 0, 6, 3924, 3883, 3875, 3882, 3909, 3905, 0, 1, 5800, -89.900, 0.000, 52.200, 0.000, 0.000, -0.500, 0.0, , , , , , 96, , , 13, 13, 13
36.0028533, -118.5646187, 1.300, 09:56:54.061, 11, 0.00, 0.45, 97, 2.200, -0.300, 54.000, 338, 100, 100, 17, 23323, -17076, 5215, 5377, 17, 14, 1530723414.061, 10, 0, 1024, 1024, 1024, 1024, 0, 6, 3924, 3883, 3875, 3882, 3909, 3905, 0, 1, 5900, -90.000, 0.000, 52.300, 0.000, 0.000, -0.700, 0.0, , , , , , 96, , , 13, 13, 13
36.0028533, -118.5646188, 1.300, 09:56:54.161, 12, 0.00, 0.46, 97, 1.900, -0.400, 54.100, 338, 100, 100, 17, 23323, -17076, 5215, 5377, 17, 14, 1530723414.162, 3, 0, 1024, 1024, 1024, 1024, 0, 6, 3924, 3883, 3875, 3882, 3909, 3905, 0, 1, 6001, -90.000, 0.000, 52.300, 0.000, 0.000, -0.900, 0.0, , , , , , 96, , , 13, 13, 13
36.0028534, -118.5646189, 1.500, 09:56:54.261, 12, 0.00, 0.47, 97, 1.700, -0.400, 54.100, 338, 100, 100, 17, 23323, -17076, 5215, 5377, 17, 14, 1530723414.261, 7, 0, 1024, 1024, 1024, 1024, 0, 6, 3924, 3883, 3875, 3882, 3909, 3905, 0, 1, 6100, -89.900, 0.000, 52.300, 0.000, 0.000, -1.200, 0.0, , , , , , 96, , , 13, 13, 13
36.0028534, -118.5646189, 1.500, 09:56:54.361, 12, 0.00, 0.47, 97, 1.700, -0.400, 54.100, 338, 100, 100, 17, 23323, -17076, 5215, 5377, 17, 14, 1530723414.361, 107, 0, 1024, 1024, 1024, 1024, 0, 6, 3924, 3883, 3875, 3882, 3909, 3905, 0, 1, 6200, -89.900, 0.000, 52.300, 0.000, 0.000, -1.200, 0.0, , , , , , 96, , , 13, 13, 13
36.0028534, -118.5646190, 1.600, 09:56:54.461, 12, 0.00, 0.48, 97, 1.700, -0.400, 54.100, 338, 100, 100, 17, 23323, -17076, 5215, 5377, 17, 14, 1530723414.461, 89, 0, 1024, 1024, 1024, 1024, 0, 6, 3909, 3859, 3870, 3879, 3897, 3899, 0, 1, 6300, -90.000, 0.000, 52.300, 0.000, 0.000, -1.500, 0.0, , , , , , 96, , , 13, 13, 13
36.0028533, -118.5646191, 1.700, 09:56:54.561, 12, 0.00, 0.48, 97, 1.800, -0.600, 54.100, 338, 100, 100, 17, 23323, -17076, 5215, 5377, 17, 14, 1530723414.561, 93, 0, 1024, 1024, 1024, 1024, 0, 6, 3909, 3859, 3870, 3879, 3897, 3899, 0, 1, 6400, -90.000, 0.000, 52.400, 0.000, 0.000, -1.500, 0.0, , , , , , 96, , , 13, 13, 13
36.0028533, -118.5646192, 1.900, 09:56:54.661, 11, 0.00, 0.48, 97, 1.800, -0.900, 54.100, 338, 100, 100, 17, 23323, -17076, 5215, 5377, 17, 14, 1530723414.661, 89, 0, 1024, 1024, 1024, 1024, 0, 6, 3909, 3859, 3870, 3879, 3897, 3899, 0, 1, 6500, -90.000, 0.000, 52.400, 0.000, 0.000, -1.800, 0.0, , , , , , 96, , , 13, 13, 13
36.0028533, -118.5646193, 2.100, 09:56:54.761, 11, 0.00, 0.48, 97, 1.400, -0.900, 54.000, 338, 100, 100, 17, 23323, -17076, 5215, 5377, 17, 14, 1530723414.761, 85, 0, 1024, 1024, 1024, 1024, 0, 6, 3909, 3859, 3870, 3879, 3897, 3899, 0, 1, 6600, -90.000, 0.000, 52.400, 0.000, 0.000, -2.000, 0.0, , , , , , 96, , , 13, 13, 13
36.0028534, -118.5646193, 2.400, 09:56:54.861, 11, 0.00, 0.49, 97, 1.000, -0.800, 53.800, 338, 100, 100, 17, 23323, -17076, 5215, 5377, 17, 14, 1530723414.861, 74, 0, 1024, 1024, 1024, 1024, 0, 6, 3909, 3859, 3870, 3879, 3897, 3899, 0, 1, 6700, -89.900, 0.000, 52.400, 0.000, 0.000, -2.300, 0.0, , , , , , 96, , , 13, 13, 13
36.0028534, -118.5646193, 2.600, 09:56:54.961, 11, 0.00, 0.49, 97, 0.800, -0.300, 53.600, 338, 100, 100, 17, 23323, -17076, 5215, 5377, 17, 14, 1530723414.961, 89, 0, 1024, 1024, 1024, 1024, 0, 6, 3909, 3859, 3870, 3879, 3897, 3899, 0, 1, 6800, -89.900, 0.000, 52.400, 0.000, 0.000, -2.500, 0.0, , , , , , 96, , , 13, 13, 13
36.0028534, -118.5646193, 2.900, 09:56:55.061, 11, 0.00, 0.49, 97, 1.100, 0.000, 53.400, 338, 100, 100, 17, 23323, -17076, 5215, 5377, 17, 14, 1530723415.061, 71, 0, 1024, 1024, 1024, 1024, 0, 6, 3909, 3859, 3870, 3879, 3897, 3899, 0, 1, 6900, -89.900, 0.000, 52.500, 0.000, 0.000, -2.800, 0.0, , , , , , 96, , , 13, 13, 13
36.0028533, -118.5646193, 3.200, 09:56:55.161, 11, 0.00, 0.49, 97, 1.400, 0.100, 53.300, 338, 100, 100, 17, 23323, -17076, 5215, 5377, 17, 14, 1530723415.161, 74, 0, 1024, 1024, 1024, 1024, 0, 6, 3909, 3859, 3870, 3879, 3897, 3899, 0, 1, 7000, -89.900, 0.000, 52.500, 0.000, 0.000, -2.900, 0.0, , , , , , 96, , , 13, 13, 13
36.0028533, -118.5646193, 3.500, 09:56:55.261, 10, 0.00, 0.48, 97, 1.500, 0.100, 53.200, 338, 100, 100, 17, 23323, -17076, 5215, 5377, 17, 14, 1530723415.261, 76, 0, 1024, 1024, 1024, 1024, 0, 6, 3909, 3859, 3870, 3879, 3897, 3899, 0, 1, 7100, -89.900, 0.000, 52.500, 0.000, 0.000, -3.100, 0.0, , , , , , 96, , , 13, 13, 13
36.0028533, -118.5646193, 3.800, 09:56:55.361, 10, 0.00, 0.48, 97, 1.600, 0.000, 53.300, 338, 100, 100, 17, 23323, -17076, 5215, 5377, 17, 14, 1530723415.361, 71, 0, 1024, 1024, 1024, 1024, 0, 6, 3909, 3859, 3870, 3879, 3897, 3899, 0, 1, 7200, -89.900, 0.000, 52.500, 0.000, 0.000, -3.100, 0.0, , , , , , 96, , , 13, 13, 13
36.0028532, -118.5646193, 4.200, 09:56:55.461, 12, 0.00, 0.48, 97, 1.300, -0.200, 53.500, 338, 100, 100, 17, 22977, -19158, 5215, 5377, 17, 14, 1530723415.461, 65, 0, 1024, 1024, 1024, 1024, 0, 6, 3854, 3754, 3771, 3776, 3784, 3811, 0, 1, 7300, -89.900, 0.000, 52.500, 0.000, 0.000, -3.200, 0.0, , , , , , 96, , , 13, 13, 13
36.0028533, -118.5646195, 4.900, 09:56:55.561, 11, 0.00, 0.49, 97, 1.300, -0.200, 53.800, 338, 100, 100, 17, 22977, -19158, 5215, 5377, 17, 14, 1530723415.561, 51, 0, 1024, 1024, 1024, 1024, 0, 6, 3854, 3754, 3771, 3776, 3784, 3811, 0, 1, 7400, -89.900, 0.000, 52.600, 0.000, 0.000, -3.200, 0.0, , , , , , 96, , , 13, 13, 13
36.0028535, -118.5646197, 5.200, 09:56:55.661, 11, 0.00, 0.52, 97, 1.600, 0.000, 53.900, 338, 100, 100, 17, 22977, -19158, 5215, 5377, 17, 14, 1530723415.661, 46, 0, 1024, 1024, 1024, 1024, 0, 6, 3854, 3754, 3771, 3776, 3784, 3811, 0, 1, 7500, -89.900, 0.000, 52.600, 0.000, 0.000, -3.200, 0.0, , , , , , 96, , , 13, 13, 13
36.0028537, -118.5646199, 5.600, 09:56:55.761, 10, 0.00, 0.55, 97, 2.200, 0.000, 53.900, 338, 100, 100, 17, 22977, -19158, 5215, 5377, 17, 14, 1530723415.761, 59, 0, 1024, 1024, 1024, 1024, 0, 6, 3854, 3754, 3771, 3776, 3784, 3811, 0, 1, 7600, -89.900, 0.000, 52.600, 0.000, 0.000, -3.200, 0.0, , , , , , 96, , , 13, 13, 13
36.0028539, -118.5646202, 5.900, 09:56:55.861, 10, 0.00, 0.58, 97, 2.900, 0.000, 53.900, 338, 100, 100, 17, 22977, -19158, 5215, 5377, 17, 14, 1530723415.861, 41, 0, 1024, 1024, 1024, 1024, 0, 6, 3854, 3754, 3771, 3776, 3784, 3811, 0, 1, 7700, -89.900, 0.000, 52.600, 0.000, 0.000, -3.300, 0.0, , , , , , 96, , , 13, 13, 13
36.0028541, -118.5646204, 6.300, 09:56:55.961, 12, 0.00, 0.61, 97, 3.600, -0.200, 53.900, 338, 100, 100, 17, 22977, -19158, 5215, 5377, 17, 14, 1530723415.961, 20, 0, 1024, 1024, 1024, 1024, 0, 6, 3854, 3754, 3771, 3776, 3784, 3811, 0, 1, 7800, -89.900, 0.000, 52.600, 0.000, 0.000, -3.200, 0.0, , , , , , 96, , , 13, 13, 13
36.0028542, -118.5646206, 6.600, 09:56:56.061, 12, 0.00, 0.63, 97, 4.000, -0.300, 53.800, 338, 100, 100, 17, 22977, -19158, 5215, 5377, 17, 14, 1530723416.061, 44, 0, 1024, 1024, 1024, 1024, 0, 6, 3854, 3754, 3771, 3776, 3784, 3811, 0, 1, 7900, -89.900, 0.000, 52.600, 0.000, 0.000, -3.200, 0.0, , , , , , 96, , , 13, 13, 13
36.0028543, -118.5646207, 6.900, 09:56:56.161, 14, 0.00, 0.65, 97, 3.900, -0.400, 53.800, 338, 100, 100, 17, 22977, -19158, 5215, 5377, 17, 14, 1530723416.161, 49, 0, 1024, 1024, 1024, 1024, 0, 6, 3854, 3754, 3771, 3776, 3784, 3811, 0, 1, 8000, -90.000, 0.000, 52.700, 0.000, 0.000, -3.100, 0.0, , , , , , 96, , , 13, 13, 13
36.0028543, -118.5646208, 7.300, 09:56:56.261, 14, 0.00, 0.65, 97, 3.500, -0.500, 53.700, 338, 100, 100, 17, 22977, -19158, 5215, 5377, 17, 14, 1530723416.261, 29, 0, 1024, 1024, 1024, 1024, 0, 6, 3854, 3754, 3771, 3776, 3784, 3811, 0, 1, 8100, -89.900, 0.000, 52.700, 0.000, 0.000, -3.100, 0.0, , , , , , 96, , , 13, 13, 13
36.0028542, -118.5646208, 7.600, 09:56:56.361, 14, 0.00, 0.65, 97, 3.000, -0.700, 53.700, 338, 100, 100, 17, 22977, -19158, 5215, 5377, 17, 14, 1530723416.361, 19, 0, 1024, 1024, 1024, 1024, 0, 6, 3854, 3754, 3771, 3776, 3784, 3811, 0, 1, 8200, -90.000, 0.000, 52.700, 0.000, 0.000, -3.100, 0.0, , , , , , 96, , , 13, 13, 13
36.0028541, -118.5646207, 7.900, 09:56:56.461, 14, 0.00, 0.64, 97, 2.700, -0.800, 53.700, 338, 100, 100, 17, 22335, -25697, 5215, 5377, 17, 14, 1530723416.461, 26, 0, 1024, 1024, 1024, 1024, 0, 6, 3754, 3722, 3722, 3736, 3737, 3749, 0, 1, 8300, -89.900, 0.000, 52.700, 0.000, 0.000, -3.100, 0.0, , , , , , 96, , , 13, 13, 13
36.0028540, -118.5646206, 8.200, 09:56:56.561, 15, 0.10, 0.62, 97, 2.300, -0.700, 53.700, 338, 100, 100, 17, 22335, -25697, 5215, 5377, 17, 14, 1530723416.561, 21, 0, 1024, 1024, 1024, 1024, 0, 6, 3754, 3722, 3722, 3736, 3737, 3749, 0, 1, 8400, -89.900, 0.000, 52.700, 0.000, 0.100, -3.100, 0.0, , , , , , 96, , , 13, 13, 13
36.0028539, -118.5646205, 8.600, 09:56:56.661, 15, 0.10, 0.61, 97, 1.900, -0.600, 53.700, 338, 100, 100, 17, 22335, -25697, 5215, 5377, 17, 14, 1530723416.661, 23, 0, 1024, 1024, 1024, 1024, 0, 6, 3754, 3722, 3722, 3736, 3737, 3749, 0, 1, 8500, -89.900, 0.000, 52.700, 0.000, 0.100, -3.100, 0.0, , , , , , 96, , , 13, 13, 13
36.0028537, -118.5646204, 8.900, 09:56:56.763, 14, 0.10, 0.59, 97, 1.500, -0.500, 53.700, 338, 100, 100, 17, 22335, -25697, 5215, 5377, 17, 14, 1530723416.763, 5, 0, 1024, 1024, 1024, 1024, 0, 6, 3754, 3722, 3722, 3736, 3737, 3749, 0, 1, 8602, -89.900, 0.000, 52.700, 0.000, 0.100, -3.100, 0.0, , , , , , 96, , , 13, 13, 13
36.0028537, -118.5646204, 8.900, 09:56:56.861, 14, 0.10, 0.59, 97, 1.500, -0.500, 53.700, 338, 100, 100, 17, 22335, -25697, 5215, 5377, 17, 14, 1530723416.861, 103, 0, 1024, 1024, 1024, 1024, 0, 6, 3754, 3722, 3722, 3736, 3737, 3749, 0, 1, 8700, -89.900, 0.000, 52.700, 0.000, 0.100, -3.100, 0.0, , , , , , 96, , , 13, 13, 13
36.0028535, -118.5646202, 9.600, 09:56:56.961, 14, 0.10, 0.55, 97, 1.200, -0.400, 53.700, 338, 100, 100, 17, 22335, -25697, 5215, 5377, 17, 14, 1530723416.961, 7, 0, 1024, 1024, 1024, 1024, 0, 6, 3754, 3722, 3722, 3736, 3737, 3749, 0, 1, 8800, -89.900, 0.000, 52.800, 0.000, 0.100, -3.000, 0.0, , , , , , 96, , , 13, 13, 13
36.0028534, -118.5646201, 9.900, 09:56:57.061, 14, 0.10, 0.54, 97, 1.100, -0.200, 53.700, 338, 100, 100, 17, 22335, -25697, 5215, 5377, 17, 14, 1530723417.061, 6, 0, 1024, 1024, 1024, 1024, 0, 6, 3754, 3722, 3722, 3736, 3737, 3749, 0, 1, 8900, -89.900, 0.000, 52.700, 0.000, 0.100, -3.000, 0.0, , , , , , 96, , , 13, 13, 13
36.0028533, -118.5646199, 10.200, 09:56:57.161, 14, 0.10, 0.52, 97, 1.100, 0.100, 53.700, 338, 100, 100, 17, 22335, -25697, 5215, 5377, 17, 14, 1530723417.161, 1, 0, 1024, 1024, 1024, 1024, 0, 6, 3754, 3722, 3722, 3736, 3737, 3749, 0, 1, 9001, -89.900, 0.000, 52.800, 0.000, 0.100, -3.000, 0.0, , , , , , 96, , , 13, 13, 13
36.0028533, -118.5646199, 10.200, 09:56:57.261, 14, 0.10, 0.52, 97, 1.100, 0.100, 53.700, 338, 100, 100, 17, 22335, -25697, 5215, 5377, 17, 14, 1530723417.261, 101, 0, 1024, 1024, 1024, 1024, 0, 6, 3754, 3722, 3722, 3736, 3737, 3749, 0, 1, 9100, -89.900, 0.000, 52.800, 0.000, 0.100, -3.000, 0.0, , , , , , 96, , , 13, 13, 13
36.0028531, -118.5646197, 10.600, 09:56:57.361, 14, 0.10, 0.49, 97, 1.100, 0.300, 53.600, 338, 100, 100, 17, 22335, -25697, 5215, 5377, 17, 14, 1530723417.361, 84, 0, 1024, 1024, 1024, 1024, 0, 6, 3754, 3722, 3722, 3736, 3737, 3749, 0, 1, 9200, -89.900, 0.000, 52.700, 0.000, 0.100, -3.000, 0.0, , , , , , 96, , , 13, 13, 13
36.0028529, -118.5646195, 10.900, 09:56:57.461, 15, 0.10, 0.46, 97, 0.800, 0.300, 53.600, 338, 100, 100, 17, 22707, -20619, 5215, 5377, 17, 14, 1530723417.461, 79, 0, 1024, 1024, 1024, 1024, 0, 6, 3807, 3762, 3773, 3774, 3797, 3802, 0, 1, 9300, -89.900, 0.000, 52.800, 0.000, 0.100, -2.900, 0.0, , , , , , 96, , , 13, 13, 13
36.0028528, -118.5646194, 11.200, 09:56:57.561, 15, 0.00, 0.45, 97, 0.400, 0.100, 53.500, 338, 100, 100, 17, 22707, -20619, 5215, 5377, 17, 14, 1530723417.561, 84, 0, 1024, 1024, 1024, 1024, 0, 6, 3807, 3762, 3773, 3774, 3797, 3802, 0, 1, 9400, -89.900, 0.000, 52.800, 0.000, 0.000, -2.900, 0.0, , , , , , 96, , , 13, 13, 13
36.0028528, -118.5646194, 11.500, 09:56:57.661, 15, 0.00, 0.45, 97, 0.600, -0.100, 53.500, 338, 100, 100, 17, 22707, -20619, 5215, 5377, 17, 14, 1530723417.661, 84, 0, 1024, 1024, 1024, 1024, 0, 6, 3807, 3762, 3773, 3774, 3797, 3802, 0, 1, 9500, -90.000, 0.000, 52.800, 0.000, 0.000, -3.000, 0.0, , , , , , 96, , , 13, 13, 13
36.0028527, -118.5646193, 11.800, 09:56:57.761, 15, 0.00, 0.43, 97, 1.000, -0.400, 53.500, 338, 100, 100, 17, 22707, -20619, 5215, 5377, 17, 14, 1530723417.761, 74, 0, 1024, 1024, 1024, 1024, 0, 6, 3807, 3762, 3773, 3774, 3797, 3802, 0, 1, 9600, -90.000, 0.000, 52.800, 0.000, 0.000, -3.000, 0.0, , , , , , 96, , , 13, 13, 13
36.0028525, -118.5646193, 12.200, 09:56:57.861, 13, 0.00, 0.42, 97, 1.100, -0.800, 53.500, 338, 100, 100, 17, 22707, -20619, 5215, 5377, 17, 14, 1530723417.861, 78, 0, 1024, 1024, 1024, 1024, 0, 6, 3807, 3762, 3773, 3774, 3797, 3802, 0, 1, 9700, -90.000, 0.000, 52.800, 0.000, 0.000, -3.000, 0.0, , , , , , 96, , , 13, 13, 13
36.0028525, -118.5646192, 12.500, 09:56:57.961, 13, 0.00, 0.41, 97, 1.200, -0.900, 53.600, 338, 100, 100, 17, 22707, -20619, 5215, 5377, 17, 14, 1530723417.961, 83, 0, 1024, 1024, 1024, 1024, 0, 6, 3807, 3762, 3773, 3774, 3797, 3802, 0, 1, 9800, -89.900, 0.000, 52.800, 0.000, 0.000, -3.000, 0.0, , , , , , 96, , , 13, 13, 13
36.0028524, -118.5646191, 12.800, 09:56:58.061, 14, 0.00, 0.40, 97, 1.100, -0.800, 53.700, 338, 100, 100, 17, 22707, -20619, 5215, 5377, 17, 14, 1530723418.061, 39, 0, 1024, 1024, 1024, 1024, 0, 6, 3807, 3762, 3773, 3774, 3797, 3802, 0, 1, 9900, -90.000, 0.000, 52.800, 0.000, 0.000, -2.900, 0.0, , , , , , 96, , , 13, 13, 13
36.0028524, -118.5646191, 13.400, 09:56:58.161, 14, 0.00, 0.39, 97, 1.400, -0.800, 53.700, 338, 100, 100, 17, 22707, -20619, 5215, 5377, 17, 14, 1530723418.161, 63, 0, 1024, 1024, 1024, 1024, 0, 6, 3807, 3762, 3773, 3774, 3797, 3802, 0, 1, 10000, -89.900, 0.000, 52.800, 0.000, 0.000, -2.800, 0.0, , , , , , 96, , , 13, 13, 13
36.0028523, -118.5646190, 13.700, 09:56:58.261, 14, 0.00, 0.39, 97, 1.700, -0.800, 53.700, 338, 100, 100, 17, 22707, -20619, 5215, 5377, 17, 14, 1530723418.261, 62, 0, 1024, 1024, 1024, 1024, 0, 6, 3807, 3762, 3773, 3774, 3797, 3802, 0, 1, 10100, -90.000, 0.000, 52.800, 0.000, 0.000, -2.800, 0.0, , , , , , 96, , , 13, 13, 13
36.0028523, -118.5646190, 14.000, 09:56:58.361, 14, 0.00, 0.39, 97, 1.900, -0.700, 53.700, 338, 100, 100, 17, 22707, -20619, 5215, 5377, 17, 14, 1530723418.361, 54, 0, 1024, 1024, 1024, 1024, 0, 6, 3807, 3762, 3773, 3774, 3797, 3802, 0, 1, 10200, -90.000, 0.000, 52.800, 0.000, 0.000, -2.800, 0.0, , , , , , 96, , , 13, 13, 13
36.0028523, -118.5646190, 14.000, 09:56:58.461, 14, 0.00, 0.39, 97, 1.900, -0.700, 53.700, 338, 100, 100, 17, 22717, -20296, 5215, 5377, 17, 14, 1530723418.461, 154, 0, 1024, 1024, 1024, 1024, 0, 6, 3807, 3762, 3773, 3774, 3797, 3802, 0, 1, 10300, -90.000, 0.000, 52.800, 0.000, 0.000, -2.800, 0.0, , , , , , 96, , , 13, 13, 13
36.0028524, -118.5646189, 14.500, 09:56:58.561, 14, 0.00, 0.38, 97, 2.000, -0.500, 53.600, 338, 100, 100, 17, 22717, -20296, 5215, 5377, 17, 14, 1530723418.561, 33, 0, 1024, 1024, 1024, 1024, 0, 6, 3810, 3763, 3765, 3772, 3807, 3803, 0, 1, 10400, -89.900, 0.000, 52.800, 0.000, 0.000, -2.800, 0.0, , , , , , 96, , , 13, 13, 13
36.0028524, -118.5646189, 14.800, 09:56:58.661, 14, 0.00, 0.39, 97, 2.100, -0.300, 53.600, 338, 100, 100, 17, 22717, -20296, 5215, 5377, 17, 14, 1530723418.661, 46, 0, 1024, 1024, 1024, 1024, 0, 6, 3810, 3763, 3765, 3772, 3807, 3803, 0, 1, 10500, -89.900, 0.000, 52.800, 0.000, 0.000, -2.800, 0.0, , , , , , 96, , , 13, 13, 13
36.0028525, -118.5646189, 15.100, 09:56:58.761, 14, 0.00, 0.40, 97, 2.000, -0.100, 53.700, 338, 100, 100, 17, 22717, -20296, 5215, 5377, 17, 14, 1530723418.761, 13, 0, 1024, 1024, 1024, 1024, 0, 6, 3810, 3763, 3765, 3772, 3807, 3803, 0, 1, 10600, -89.900, 0.000, 52.800, 0.000, 0.000, -2.900, 0.0, , , , , , 96, , , 13, 13, 13
36.0028526, -118.5646189, 15.500, 09:56:58.861, 14, 0.00, 0.40, 97, 2.100, -0.200, 53.700, 338, 100, 100, 17, 22717, -20296, 5215, 5377, 17, 14, 1530723418.861, 14, 0, 1024, 1024, 1024, 1024, 0, 6, 3810, 3763, 3765, 3772, 3807, 3803, 0, 1, 10700, -89.900, 0.000, 52.800, 0.000, 0.000, -2.900, 0.0, , , , , , 96, , , 13, 13, 13
36.0028526, -118.5646189, 15.800, 09:56:58.961, 15, 0.00, 0.40, 97, 2.100, -0.300, 53.800, 338, 100, 100, 17, 22717, -20296, 5215, 5377, 17, 14, 1530723418.961, 21, 0, 1024, 1024, 1024, 1024, 0, 6, 3810, 3763, 3765, 3772, 3807, 3803, 0, 1, 10800, -89.900, 0.000, 52.800, 0.000, 0.000, -2.800, 0.0, , , , , , 96, , , 13, 13, 13
36.0028526, -118.5646189, 15.800, 09:56:59.061, 15, 0.00, 0.40, 97, 2.100, -0.300, 53.800, 338, 100, 100, 17, 22717, -20296, 5215, 5377, 17, 14, 1530723419.061, 121, 0, 1024, 1024, 1024, 1024, 0, 6, 3810, 3763, 3765, 3772, 3807, 3803, 0, 1, 10900, -89.900, 0.000, 52.800, 0.000, 0.000, -2.800, 0.0, , , , , , 96, , , 13, 13, 13
36.0028528, -118.5646189, 16.300, 09:56:59.161, 15, 0.00, 0.42, 97, 2.500, -0.100, 53.800, 338, 100, 100, 17, 22717, -20296, 5215, 5377, 17, 14, 1530723419.161, 13, 0, 1024, 1024, 1024, 1024, 0, 6, 3810, 3763, 3765, 3772, 3807, 3803, 0, 1, 11000, -89.900, 0.000, 52.800, 0.000, 0.000, -2.800, 0.0, , , , , , 96, , , 13, 13, 13
36.0028528, -118.5646189, 16.600, 09:56:59.261, 15, 0.00, 0.42, 97, 2.700, -0.100, 53.900, 338, 100, 100, 17, 22717, -20296, 5215, 5377, 17, 14, 1530723419.261, 14, 0, 1024, 1024, 1024, 1024, 0, 6, 3810, 3763, 3765, 3772, 3807, 3803, 0, 1, 11100, -89.900, 0.000, 52.800, 0.000, 0.000, -2.800, 0.0, , , , , , 96, , , 13, 13, 13
36.0028529, -118.5646190, 16.900, 09:56:59.361, 15, 0.00, 0.43, 97, 2.700, -0.200, 53.900, 338, 100, 100, 17, 22687, -20409, 5215, 5377, 17, 14, 1530723419.361, 5, 0, 1024, 1024, 1024, 1024, 0, 6, 3810, 3763, 3765, 3772, 3807, 3803, 0, 1, 11200, -90.000, 0.000, 52.800, 0.000, 0.000, -2.800, 0.0, , , , , , 96, , , 13, 13, 13
36.0028529, -118.5646190, 17.200, 09:56:59.461, 15, 0.00, 0.44, 97, 2.400, -0.500, 53.800, 338, 100, 100, 17, 22687, -20409, 5215, 5377, 17, 14, 1530723419.461, 11, 0, 1024, 1024, 1024, 1024, 0, 6, 3810, 3763, 3765, 3772, 3807, 3803, 0, 1, 11301, -90.000, 0.000, 52.800, 0.000, 0.000, -2.800, 0.0, , , , , , 96, , , 13, 13, 13
36.0028529, -118.5646190, 17.200, 09:56:59.561, 15, 0.00, 0.44, 97, 2.400, -0.500, 53.800, 338, 100, 100, 17, 22687, -20409, 5215, 5377, 17, 14, 1530723419.562, 111, 0, 1024, 1024, 1024, 1024, 0, 6, 3810, 3763, 3765, 3772, 3807, 3803, 0, 1, 11401, -90.000, 0.000, 52.800, 0.000, 0.000, -2.800, 0.0, , , , , , 96, , , 13, 13, 13
36.0028530, -118.5646191, 17.500, 09:56:59.661, 16, 0.00, 0.44, 97, 2.600, -0.900, 53.800, 338, 100, 100, 17, 22687, -20409, 5215, 5377, 17, 14, 1530723419.662, 71, 0, 1024, 1024, 1024, 1024, 0, 6, 3810, 3763, 3765, 3772, 3807, 3803, 0, 1, 11501, -90.000, 0.000, 52.800, 0.000, 0.000, -2.800, 0.0, , , , , , 96, , , 13, 13, 13
36.0028530, -118.5646191, 17.800, 09:56:59.761, 16, 0.00, 0.45, 97, 2.800, -1.000, 53.800, 338, 100, 100, 17, 22687, -20409, 5215, 5377, 17, 14, 1530723419.762, 84, 0, 1024, 1024, 1024, 1024, 0, 6, 3810, 3763, 3765, 3772, 3807, 3803, 0, 1, 11601, -89.900, 0.000, 52.800, 0.000, 0.000, -2.800, 0.0, , , , , , 96, , , 13, 13, 13
36.0028531, -118.5646191, 18.100, 09:56:59.862, 16, 0.00, 0.46, 97, 2.800, -0.600, 53.800, 338, 100, 100, 17, 22687, -20409, 5215, 5377, 17, 14, 1530723419.862, 87, 0, 1024, 1024, 1024, 1024, 0, 6, 3810, 3763, 3765, 3772, 3807, 3803, 0, 1, 11701, -89.900, 0.000, 52.800, 0.000, 0.000, -2.900, 0.0, , , , , , 96, , , 13, 13, 13
36.0028531, -118.5646191, 18.100, 09:56:59.961, 16, 0.00, 0.46, 97, 2.800, -0.600, 53.800, 338, 100, 100, 17, 22687, -20409, 5215, 5377, 17, 14, 1530723419.961, 186, 0, 1024, 1024, 1024, 1024, 0, 6, 3810, 3763, 3765, 3772, 3807, 3803, 0, 1, 11800, -89.900, 0.000, 52.800, 0.000, 0.000, -2.900, 0.0, , , , , , 96, , , 13, 13, 13
36.0028532, -118.5646192, 18.700, 09:57:00.062, 16, 0.00, 0.47, 97, 2.900, -0.500, 53.700, 338, 100, 96, 17, 22687, -20409, 5215, 5377, 17, 14, 1530723420.062, 57, 0, 1024, 1024, 1024, 1024, 0, 6, 3787, 3744, 3746, 3753, 3795, 3787, 0, 1, 11901, -89.900, 0.000, 52.800, 0.000, 0.000, -2.900, 0.0, , , , , , 96, , , 13, 13, 13
36.0028533, -118.5646193, 19.000, 09:57:00.162, 16, 0.00, 0.48, 97, 3.200, -0.700, 53.800, 338, 100, 96, 17, 22687, -20409, 5215, 5377, 17, 14, 1530723420.162, 75, 0, 1024, 1024, 1024, 1024, 0, 6, 3787, 3744, 3746, 3753, 3795, 3787, 0, 1, 12001, -90.000, 0.000, 52.800, 0.000, 0.000, -2.900, 0.0, , , , , , 96, , , 13, 13, 13
36.0028533, -118.5646194, 19.200, 09:57:00.262, 16, 0.00, 0.49, 97, 3.300, -1.000, 54.000, 338, 100, 96, 17, 22687, -20409, 5215, 5377, 17, 14, 1530723420.262, 59, 0, 1024, 1024, 1024, 1024, 0, 6, 3787, 3744, 3746, 3753, 3795, 3787, 0, 1, 12101, -90.000, 0.000, 52.800, 0.000, 0.000, -2.800, 0.0, , , , , , 96, , , 13, 13, 13
36.0028533, -118.5646194, 19.500, 09:57:00.362, 16, 0.00, 0.49, 97, 3.100, -1.300, 54.100, 338, 100, 96, 17, 22687, -20409, 5215, 5377, 17, 14, 1530723420.362, 58, 0, 1024, 1024, 1024, 1024, 0, 6, 3787, 3744, 3746, 3753, 3795, 3787, 0, 1, 12201, -90.000, 0.000, 52.800, 0.000, 0.000, -2.800, 0.0, , , , , , 96, , , 13, 13, 13
36.0028533, -118.5646194, 19.800, 09:57:00.462, 16, 0.00, 0.49, 97, 2.800, -1.400, 54.200, 338, 100, 96, 17, 22687, -20409, 5215, 5377, 17, 14, 1530723420.463, 50, 0, 1024, 1024, 1024, 1024, 0, 6, 3787, 3744, 3746, 3753, 3795, 3787, 0, 1, 12302, -90.000, 0.000, 52.800, 0.000, 0.000, -2.800, 0.0, , , , , , 96, , , 13, 13, 13
36.0028533, -118.5646195, 20.400, 09:57:00.562, 15, 0.00, 0.49, 97, 2.100, -1.700, 54.000, 338, 100, 95, 17, 22687, -20409, 5215, 5377, 17, 14, 1530723420.563, 50, 0, 1024, 1024, 1024, 1024, 0, 6, 3787, 3744, 3746, 3753, 3795, 3787, 0, 1, 12402, -90.000, 0.000, 52.800, 0.000, 0.000, -2.900, 0.0, , , , , , 96, , , 13, 13, 13
36.0028532, -118.5646196, 20.700, 09:57:00.663, 15, 0.00, 0.49, 97, 2.100, -1.700, 53.900, 338, 100, 95, 17, 22687, -20409, 5215, 5377, 17, 14, 1530723420.663, 46, 0, 1024, 1024, 1024, 1024, 0, 6, 3787, 3744, 3746, 3753, 3795, 3787, 0, 1, 12502, -90.000, 0.000, 52.800, 0.000, 0.000, -2.900, 0.0, , , , , , 96, , , 13, 13, 13
36.0028532, -118.5646197, 21.000, 09:57:00.763, 16, 0.00, 0.50, 97, 2.000, -2.000, 53.800, 338, 100, 95, 17, 22687, -20409, 5215, 5377, 17, 14, 1530723420.763, 24, 0, 1024, 1024, 1024, 1024, 0, 6, 3787, 3744, 3746, 3753, 3795, 3787, 0, 1, 12602, -90.000, 0.000, 52.800, 0.000, 0.000, -3.000, 0.0, , , , , , 96, , , 13, 13, 13
36.0028532, -118.5646197, 21.300, 09:57:00.863, 16, 0.00, 0.49, 97, 2.100, -2.200, 53.700, 338, 100, 95, 17, 22687, -20409, 5215, 5377, 17, 14, 1530723420.863, 29, 0, 1024, 1024, 1024, 1024, 0, 6, 3787, 3744, 3746, 3753, 3795, 3787, 0, 1, 12702, -90.000, 0.000, 52.800, 0.000, 0.000, -3.000, 0.0, , , , , , 96, , , 13, 13, 13
36.0028532, -118.5646197, 21.300, 09:57:00.963, 16, 0.00, 0.49, 97, 2.100, -2.200, 53.700, 338, 100, 95, 17, 22687, -20409, 5215, 5377, 17, 14, 1530723420.963, 130, 0, 1024, 1024, 1024, 1024, 0, 6, 3787, 3744, 3746, 3753, 3795, 3787, 0, 1, 12802, -90.000, 0.000, 52.800, 0.000, 0.000, -3.000, 0.0, , , , , , 96, , , 13, 13, 13
36.0028531, -118.5646198, 21.900, 09:57:01.063, 16, 0.00, 0.49, 97, 1.900, -2.200, 53.700, 338, 100, 92, 17, 22687, -20409, 5215, 5377, 17, 14, 1530723421.063, 15, 0, 1024, 1024, 1024, 1024, 0, 6, 3787, 3744, 3746, 3753, 3795, 3787, 0, 1, 12902, -89.900, 0.000, 52.800, 0.000, 0.000, -3.000, 0.0, , , , , , 96, , , 13, 13, 13
36.0028531, -118.5646198, 22.200, 09:57:01.168, 16, 0.00, 0.50, 97, 2.000, -2.100, 53.700, 338, 100, 92, 17, 22687, -20409, 5215, 5377, 17, 14, 1530723421.168, 1, 0, 1024, 1024, 1024, 1024, 0, 6, 3787, 3744, 3746, 3753, 3795, 3787, 0, 1, 13007, -89.900, 0.000, 52.800, 0.000, 0.000, -2.900, 0.0, , , , , , 96, , , 13, 13, 13
36.0028530, -118.5646198, 22.400, 09:57:01.263, 16, 0.00, 0.49, 97, 1.800, -2.000, 53.700, 338, 100, 92, 17, 22687, -20409, 5215, 5377, 17, 14, 1530723421.263, 9, 0, 1024, 1024, 1024, 1024, 0, 6, 3787, 3744, 3746, 3753, 3795, 3787, 0, 1, 13103, -90.000, 0.000, 52.800, 0.000, 0.000, -2.900, 0.0, , , , , , 96, , , 13, 13, 13
36.0028530, -118.5646198, 22.400, 09:57:01.362, 16, 0.00, 0.49, 97, 1.800, -2.000, 53.700, 338, 100, 92, 17, 22687, -20409, 5215, 5377, 17, 14, 1530723421.362, 108, 0, 1024, 1024, 1024, 1024, 0, 6, 3787, 3744, 3746, 3753, 3795, 3787, 0, 1, 13202, -90.000, 0.000, 52.800, 0.000, 0.000, -2.900, 0.0, , , , , , 96, , , 13, 13, 13
36.0028530, -118.5646198, 23.000, 09:57:01.464, 16, 0.00, 0.49, 97, 1.600, -2.000, 53.500, 338, 100, 95, 17, 22687, -20409, 5215, 5377, 17, 14, 1530723421.464, 14, 0, 1024, 1024, 1024, 1024, 0, 6, 3787, 3744, 3746, 3753, 3795, 3787, 0, 1, 13303, -89.900, 0.000, 52.800, 0.000, 0.000, -2.900, 0.0, , , , , , 96, , , 13, 13, 13
36.0028530, -118.5646198, 23.300, 09:57:01.563, 16, 0.00, 0.49, 97, 1.800, -1.800, 53.500, 338, 100, 95, 17, 22687, -20409, 5215, 5377, 17, 14, 1530723421.564, 4, 0, 1024, 1024, 1024, 1024, 0, 6, 3787, 3744, 3746, 3753, 3795, 3787, 0, 1, 13403, -89.900, 0.000, 52.800, 0.000, 0.000, -2.900, 0.0, , , , , , 96, , , 13, 13, 13
36.0028530, -118.5646198, 23.300, 09:57:01.663, 16, 0.00, 0.49, 97, 1.800, -1.800, 53.500, 338, 100, 95, 17, 22687, -20409, 5215, 5377, 17, 14, 1530723421.664, 104, 0, 1024, 1024, 1024, 1024, 0, 6, 3787, 3744, 3746, 3753, 3795, 3787, 0, 1, 13503, -89.900, 0.000, 52.800, 0.000, 0.000, -2.900, 0.0, , , , , , 96, , , 13, 13, 13
36.0028529, -118.5646198, 23.600, 09:57:01.764, 16, 0.00, 0.49, 97, 1.900, -1.700, 53.500, 338, 100, 95, 17, 22687, -20409, 5215, 5377, 17, 14, 1530723421.764, 95, 0, 1024, 1024, 1024, 1024, 0, 6, 3787, 3744, 3746, 3753, 3795, 3787, 0, 1, 13603, -89.900, 0.000, 52.800, 0.000, 0.000, -3.000, 0.0, , , , , , 96, , , 13, 13, 13
36.0028529, -118.5646199, 23.900, 09:57:01.864, 16, 0.00, 0.49, 97, 2.000, -1.800, 53.500, 338, 100, 95, 17, 22687, -20409, 5215, 5377, 17, 14, 1530723421.864, 95, 0, 1024, 1024, 1024, 1024, 0, 6, 3787, 3744, 3746, 3753, 3795, 3787, 0, 1, 13703, -90.000, 0.000, 52.800, 0.000, 0.000, -3.000, 0.0, , , , , , 96, , , 13, 13, 13
36.0028529, -118.5646199, 24.200, 09:57:01.964, 16, 0.00, 0.49, 97, 2.200, -2.000, 53.600, 338, 100, 95, 17, 22460, -21648, 5161, 5377, 17, 14, 1530723421.964, 99, 0, 1024, 1024, 1024, 1024, 0, 6, 3751, 3723, 3709, 3739, 3771, 3751, 0, 1, 13803, -90.000, 0.000, 52.800, 0.000, 0.000, -3.000, 0.0, , , , , , 96, , , 13, 13, 13
36.0028529, -118.5646200, 24.500, 09:57:02.064, 16, 0.00, 0.49, 97, 2.200, -2.300, 53.600, 338, 100, 95, 17, 22460, -21648, 5161, 5377, 17, 14, 1530723422.064, 80, 0, 1024, 1024, 1024, 1024, 0, 6, 3751, 3723, 3709, 3739, 3771, 3751, 0, 1, 13903, -90.000, 0.000, 52.800, 0.000, 0.000, -3.000, 0.0, , , , , , 96, , , 13, 13, 13
36.0028529, -118.5646200, 24.800, 09:57:02.164, 16, 0.00, 0.49, 97, 2.200, -2.400, 53.600, 338, 100, 95, 17, 22460, -21648, 5161, 5377, 17, 14, 1530723422.164, 71, 0, 1024, 1024, 1024, 1024, 0, 6, 3751, 3723, 3709, 3739, 3771, 3751, 0, 1, 14003, -90.000, 0.000, 52.800, 0.000, 0.000, -3.000, 0.0, , , , , , 96, , , 13, 13, 13
36.0028529, -118.5646200, 25.200, 09:57:02.264, 16, 0.00, 0.49, 97, 2.300, -2.300, 53.600, 338, 100, 95, 17, 22460, -21648, 5161, 5377, 17, 14, 1530723422.264, 67, 0, 1024, 1024, 1024, 1024, 0, 6, 3751, 3723, 3709, 3739, 3771, 3751, 0, 1, 14104, -89.900, 0.000, 52.800, 0.000, 0.000, -3.100, 0.0, , , , , , 96, , , 13, 13, 13
36.0028529, -118.5646200, 25.500, 09:57:02.364, 16, 0.00, 0.50, 97, 2.500, -2.100, 53.600, 338, 100, 95, 17, 22460, -21648, 5161, 5377, 17, 14, 1530723422.364, 69, 0, 1024, 1024, 1024, 1024, 0, 6, 3751, 3723, 3709, 3739, 3771, 3751, 0, 1, 14203, -90.000, 0.000, 52.800, 0.000, 0.000, -3.100, 0.0, , , , , , 96, , , 13, 13, 13
36.0028529, -118.5646200, 25.800, 09:57:02.464, 16, 0.00, 0.50, 97, 2.600, -2.000, 53.600, 338, 100, 95, 17, 22460, -21648, 5161, 5377, 17, 14, 1530723422.465, 70, 0, 1024, 1024, 1024, 1024, 0, 6, 3751, 3723, 3709, 3739, 3771, 3751, 0, 1, 14304, -89.900, 0.000, 52.800, 0.000, 0.000, -3.000, 0.0, , , , , , 96, , , 13, 13, 13
36.0028529, -118.5646200, 26.100, 09:57:02.564, 16, 0.00, 0.50, 97, 2.700, -1.800, 53.600, 338, 100, 98, 17, 22460, -21648, 5161, 5377, 17, 14, 1530723422.564, 71, 0, 1024, 1024, 1024, 1024, 0, 6, 3751, 3723, 3709, 3739, 3771, 3751, 0, 1, 14403, -89.900, 0.000, 52.800, 0.000, 0.000, -3.000, 0.0, , , , , , 96, , , 13, 13, 13
36.0028529, -118.5646200, 26.400, 09:57:02.665, 16, 0.00, 0.50, 97, 2.600, -1.700, 53.700, 338, 100, 98, 17, 22460, -21648, 5161, 5377, 17, 14, 1530723422.665, 62, 0, 1024, 1024, 1024, 1024, 0, 6, 3751, 3723, 3709, 3739, 3771, 3751, 0, 1, 14504, -89.900, 0.000, 52.800, 0.000, 0.000, -2.900, 0.0, , , , , , 96, , , 13, 13, 13
36.0028529, -118.5646200, 26.700, 09:57:02.765, 16, 0.00, 0.50, 97, 2.500, -1.600, 53.600, 338, 100, 98, 17, 22460, -21648, 5161, 5377, 17, 14, 1530723422.765, 65, 0, 1024, 1024, 1024, 1024, 0, 6, 3751, 3723, 3709, 3739, 3771, 3751, 0, 1, 14604, -89.900, 0.000, 52.800, 0.000, 0.000, -3.000, 0.0, , , , , , 96, , , 13, 13, 13
36.0028530, -118.5646200, 27.300, 09:57:02.864, 16, 0.00, 0.50, 97, 2.500, -1.500, 53.600, 338, 100, 98, 17, 22460, -21648, 5161, 5377, 17, 14, 1530723422.864, 35, 0, 1024, 1024, 1024, 1024, 0, 6, 3751, 3723, 3709, 3739, 3771, 3751, 0, 1, 14704, -89.900, 0.000, 52.800, 0.000, 0.000, -2.900, 0.0, , , , , , 96, , , 13, 13, 13
36.0028530, -118.5646200, 27.600, 09:57:02.965, 16, 0.00, 0.51, 96, 2.500, -1.500, 53.600, 338, 100, 98, 17, 22468, -20995, 5161, 5377, 17, 14, 1530723422.965, 31, 0, 1024, 1024, 1024, 1024, 0, 6, 3767, 3730, 3717, 3728, 3766, 3761, 0, 1, 14804, -89.900, 0.000, 52.800, 0.000, 0.000, -2.900, 0.0, , , , , , 96, , , 13, 13, 13
36.0028530, -118.5646200, 27.600, 09:57:03.065, 16, 0.00, 0.51, 96, 2.500, -1.500, 53.600, 338, 100, 99, 17, 22468, -20995, 5161, 5377, 17, 14, 1530723423.065, 131, 0, 1024, 1024, 1024, 1024, 0, 6, 3767, 3730, 3717, 3728, 3766, 3761, 0, 1, 14904, -89.900, 0.000, 52.800, 0.000, 0.000, -2.900, 0.0, , , , , , 96, , , 13, 13, 13
36.0028530, -118.5646200, 28.100, 09:57:03.165, 16, 0.00, 0.51, 96, 2.500, -1.700, 53.600, 338, 100, 99, 17, 22468, -20995, 5161, 5377, 17, 14, 1530723423.165, 27, 0, 1024, 1024, 1024, 1024, 0, 6, 3767, 3730, 3717, 3728, 3766, 3761, 0, 1, 15005, -89.900, 0.000, 52.800, 0.000, 0.000, -2.900, 0.0, , , , , , 96, , , 13, 13, 13
36.0028530, -118.5646200, 28.400, 09:57:03.265, 16, 0.00, 0.50, 96, 2.400, -1.900, 53.700, 338, 100, 99, 17, 22468, -20995, 5161, 5377, 17, 14, 1530723423.265, 41, 0, 1024, 1024, 1024, 1024, 0, 6, 3767, 3730, 3717, 3728, 3766, 3761, 0, 1, 15105, -90.000, 0.000, 52.800, 0.000, 0.000, -3.000, 0.0, , , , , , 96, , , 13, 13, 13
36.0028530, -118.5646200, 28.700, 09:57:03.365, 16, 0.00, 0.50, 96, 2.300, -2.000, 53.700, 338, 100, 99, 17, 22468, -20995, 5161, 5377, 17, 14, 1530723423.366, 31, 0, 1024, 1024, 1024, 1024, 0, 6, 3767, 3730, 3717, 3728, 3766, 3761, 0, 1, 15205, -90.000, 0.000, 52.800, 0.000, 0.000, -3.000, 0.0, , , , , , 96, , , 13, 13, 13
36.0028529, -118.5646200, 29.000, 09:57:03.465, 16, 0.00, 0.50, 96, 2.100, -2.000, 53.800, 338, 100, 99, 17, 22468, -20995, 5161, 5377, 17, 14, 1530723423.466, 23, 0, 1024, 1024, 1024, 1024, 0, 6, 3767, 3730, 3717, 3728, 3766, 3761, 0, 1, 15305, -89.900, 0.000, 52.800, 0.000, 0.000, -3.000, 0.0, , , , , , 96, , , 13, 13, 13
36.0028529, -118.5646200, 29.300, 09:57:03.565, 16, 0.00, 0.49, 96, 2.000, -2.000, 53.800, 338, 100, 100, 17, 22468, -20995, 5161, 5377, 17, 14, 1530723423.566, 14, 0, 1024, 1024, 1024, 1024, 0, 6, 3767, 3730, 3717, 3728, 3766, 3761, 0, 1, 15405, -90.000, 0.000, 52.800, 0.000, 0.000, -3.000, 0.0, , , , , , 96, , , 13, 13, 13
36.0028529, -118.5646200, 29.700, 09:57:03.667, 16, 0.00, 0.49, 96, 2.000, -2.000, 53.800, 338, 100, 100, 17, 22468, -20995, 5161, 5377, 17, 14, 1530723423.667, 10, 0, 1024, 1024, 1024, 1024, 0, 6, 3767, 3730, 3717, 3728, 3766, 3761, 0, 1, 15506, -89.900, 0.000, 52.800, 0.000, 0.000, -3.000, 0.0, , , , , , 96, , , 13, 13, 13
36.0028529, -118.5646200, 30.000, 09:57:03.766, 16, 0.00, 0.49, 96, 2.000, -2.000, 53.800, 338, 100, 100, 17, 22468, -20995, 5161, 5377, 17, 14, 1530723423.766, 13, 0, 1024, 1024, 1024, 1024, 0, 6, 3767, 3730, 3717, 3728, 3766, 3761, 0, 1, 15605, -90.000, 0.000, 52.800, 0.000, 0.000, -3.000, 0.0, , , , , , 96, , , 13, 13, 13
36.0028529, -118.5646200, 30.300, 09:57:03.867, 16, 0.00, 0.49, 96, 2.100, -1.900, 53.700, 338, 100, 100, 17, 22369, -21511, 5161, 5377, 17, 14, 1530723423.867, 1, 0, 1024, 1024, 1024, 1024, 0, 6, 3767, 3730, 3717, 3728, 3766, 3761, 0, 1, 15706, -89.900, 0.000, 52.800, 0.000, 0.000, -3.000, 0.0, , , , , , 96, , , 13, 13, 13
36.0028529, -118.5646200, 30.600, 09:57:03.969, 16, 0.00, 0.49, 96, 2.200, -1.800, 53.700, 338, 100, 99, 17, 22369, -21511, 5161, 5377, 17, 14, 1530723423.969, 4, 0, 1024, 1024, 1024, 1024, 0, 6, 3751, 3706, 3701, 3714, 3751, 3733, 0, 1, 15808, -89.900, 0.000, 52.800, 0.000, 0.000, -3.000, 0.0, , , , , , 96, , , 13, 13, 13
36.0028529, -118.5646200, 30.900, 09:57:04.066, 16, 0.00, 0.49, 96, 2.200, -1.800, 53.600, 338, 100, 99, 17, 22369, -21511, 5161, 5377, 17, 14, 1530723424.066, 4, 0, 1024, 1024, 1024, 1024, 0, 6, 3751, 3706, 3701, 3714, 3751, 3733, 0, 1, 15905, -89.900, 0.000, 52.800, 0.000, 0.000, -3.000, 0.0, , , , , , 96, , , 13, 13, 13
36.0028529, -118.5646200, 31.200, 09:57:04.172, 16, 0.00, 0.49, 96, 2.200, -1.800, 53.600, 338, 100, 99, 17, 22369, -21511, 5161, 5377, 17, 14, 1530723424.172, 1, 0, 1024, 1024, 1024, 1024, 0, 6, 3751, 3706, 3701, 3714, 3751, 3733, 0, 1, 16011, -89.900, 0.000, 52.800, 0.000, 0.000, -3.000, 0.0, , , , , , 96, , , 13, 13, 13
36.0028529, -118.5646200, 31.200, 09:57:04.266, 16, 0.00, 0.49, 96, 2.200, -1.800, 53.600, 338, 100, 99, 17, 22369, -21511, 5161, 5377, 17, 14, 1530723424.266, 96, 0, 1024, 1024, 1024, 1024, 0, 6, 3751, 3706, 3701, 3714, 3751, 3733, 0, 1, 16106, -89.900, 0.000, 52.800, 0.000, 0.000, -3.000, 0.0, , , , , , 96, , , 13, 13, 13
36.0028529, -118.5646200, 31.500, 09:57:04.366, 16, 0.00, 0.49, 96, 2.200, -1.800, 53.700, 338, 100, 99, 17, 22369, -21511, 5161, 5377, 17, 14, 1530723424.366, 73, 0, 1024, 1024, 1024, 1024, 0, 6, 3751, 3706, 3701, 3714, 3751, 3733, 0, 1, 16206, -89.900, 0.000, 52.800, 0.000, 0.000, -3.000, 0.0, , , , , , 96, , , 13, 13, 13
36.0028529, -118.5646199, 31.800, 09:57:04.466, 16, 0.00, 0.49, 96, 2.100, -1.900, 53.700, 338, 100, 99, 17, 22369, -21511, 5161, 5377, 17, 14, 1530723424.467, 90, 0, 1024, 1024, 1024, 1024, 0, 6, 3751, 3706, 3701, 3714, 3751, 3733, 0, 1, 16306, -89.900, 0.000, 52.800, 0.000, 0.000, -2.900, 0.0, , , , , , 96, , , 13, 13, 13
36.0028529, -118.5646199, 32.100, 09:57:04.566, 16, 0.00, 0.49, 96, 2.000, -1.900, 53.800, 338, 100, 99, 17, 22369, -21511, 5161, 5377, 17, 14, 1530723424.567, 90, 0, 1024, 1024, 1024, 1024, 0, 6, 3751, 3706, 3701, 3714, 3751, 3733, 0, 1, 16406, -89.900, 0.000, 52.800, 0.000, 0.000, -3.000, 0.0, , , , , , 96, , , 13, 13, 13
36.0028528, -118.5646199, 32.400, 09:57:04.666, 16, 0.00, 0.48, 96, 2.000, -1.900, 53.800, 338, 100, 99, 17, 22369, -21511, 5161, 5377, 17, 14, 1530723424.667, 90, 0, 1024, 1024, 1024, 1024, 0, 6, 3751, 3706, 3701, 3714, 3751, 3733, 0, 1, 16506, -89.900, 0.000, 52.800, 0.000, 0.000, -2.900, 0.0, , , , , , 96, , , 13, 13, 13
36.0028528, -118.5646198, 32.700, 09:57:04.767, 16, 0.00, 0.48, 96, 2.000, -1.800, 53.900, 338, 100, 99, 17, 22369, -21511, 5161, 5377, 17, 14, 1530723424.767, 88, 0, 1024, 1024, 1024, 1024, 0, 6, 3751, 3706, 3701, 3714, 3751, 3733, 0, 1, 16606, -89.900, 0.000, 52.800, 0.000, 0.000, -2.900, 0.0, , , , , , 96, , , 13, 13, 13
36.0028528, -118.5646198, 32.700, 09:57:04.867, 16, 0.00, 0.48, 96, 2.000, -1.800, 53.900, 338, 100, 99, 17, 22369, -21511, 5161, 5377, 17, 14, 1530723424.867, 188, 0, 1024, 1024, 1024, 1024, 0, 6, 3751, 3706, 3701, 3714, 3751, 3733, 0, 1, 16706, -89.900, 0.000, 52.800, 0.000, 0.000, -2.900, 0.0, , , , , , 96, , , 13, 13, 13
36.0028529, -118.5646197, 33.300, 09:57:04.967, 16, 0.00, 0.47, 96, 1.900, -1.500, 53.900, 338, 100, 99, 18, 22376, -20876, 5161, 5377, 17, 14, 1530723424.967, 69, 0, 1024, 1024, 1024, 1024, 0, 6, 3751, 3706, 3701, 3714, 3751, 3733, 0, 1, 16806, -89.900, 0.000, 52.800, 0.000, 0.000, -2.900, 0.0, , , , , , 96, , , 13, 13, 13
36.0028529, -118.5646197, 33.600, 09:57:05.067, 16, 0.00, 0.47, 96, 1.800, -1.500, 53.900, 338, 100, 99, 18, 22376, -20876, 5161, 5377, 17, 14, 1530723425.067, 57, 0, 1024, 1024, 1024, 1024, 0, 6, 3751, 3706, 3701, 3714, 3751, 3733, 0, 1, 16906, -89.900, 0.000, 52.800, 0.000, 0.000, -3.000, 0.0, , , , , , 96, , , 13, 13, 13
36.0028529, -118.5646196, 34.200, 09:57:05.167, 16, 0.00, 0.46, 96, 1.900, -1.600, 53.900, 338, 100, 99, 18, 22376, -20876, 5161, 5377, 17, 14, 1530723425.167, 63, 0, 1024, 1024, 1024, 1024, 0, 6, 3751, 3706, 3701, 3714, 3751, 3733, 0, 1, 17006, -89.900, 0.000, 52.800, 0.000, 0.000, -3.000, 0.0, , , , , , 96, , , 13, 13, 13
36.0028529, -118.5646195, 34.500, 09:57:05.267, 16, 0.00, 0.46, 96, 1.700, -1.400, 53.800, 338, 100, 99, 18, 22376, -20876, 5161, 5377, 17, 14, 1530723425.267, 61, 0, 1024, 1024, 1024, 1024, 0, 6, 3751, 3706, 3701, 3714, 3751, 3733, 0, 1, 17106, -89.900, 0.000, 52.800, 0.000, 0.000, -3.000, 0.0, , , , , , 96, , , 13, 13, 13
36.0028529, -118.5646195, 34.500, 09:57:05.367, 16, 0.00, 0.46, 96, 1.700, -1.400, 53.800, 338, 100, 99, 18, 22376, -20876, 5161, 5377, 17, 14, 1530723425.367, 161, 0, 1024, 1024, 1024, 1024, 0, 6, 3751, 3706, 3701, 3714, 3751, 3733, 0, 1, 17206, -89.900, 0.000, 52.800, 0.000, 0.000, -3.000, 0.0, , , , , , 96, , , 13, 13, 13
36.0028529, -118.5646194, 34.800, 09:57:05.467, 16, 0.00, 0.46, 96, 1.700, -1.200, 53.800, 338, 100, 99, 18, 22376, -20876, 5161, 5377, 17, 14, 1530723425.467, 44, 0, 1024, 1024, 1024, 1024, 0, 6, 3753, 3712, 3705, 3720, 3756, 3750, 0, 1, 17306, -89.900, 0.000, 52.800, 0.000, 0.000, -2.900, 0.0, , , , , , 96, , , 13, 13, 13
36.0028529, -118.5646194, 34.800, 09:57:05.567, 16, 0.00, 0.46, 96, 1.700, -1.200, 53.800, 338, 100, 99, 18, 22376, -20876, 5161, 5377, 17, 14, 1530723425.567, 144, 0, 1024, 1024, 1024, 1024, 0, 6, 3753, 3712, 3705, 3720, 3756, 3750, 0, 1, 17407, -89.900, 0.000, 52.800, 0.000, 0.000, -2.900, 0.0, , , , , , 96, , , 13, 13, 13
36.0028529, -118.5646193, 35.700, 09:57:05.666, 16, 0.00, 0.46, 96, 2.000, -1.000, 53.800, 338, 100, 99, 18, 22376, -20876, 5161, 5377, 17, 14, 1530723425.667, 36, 0, 1024, 1024, 1024, 1024, 0, 6, 3753, 3712, 3705, 3720, 3756, 3750, 0, 1, 17506, -89.900, 0.000, 52.800, 0.000, 0.000, -2.900, 0.0, , , , , , 96, , , 13, 13, 13
36.0028530, -118.5646193, 36.000, 09:57:05.767, 16, 0.00, 0.45, 96, 1.800, -1.000, 53.600, 338, 100, 99, 18, 22376, -20876, 5161, 5377, 17, 14, 1530723425.768, 19, 0, 1024, 1024, 1024, 1024, 0, 6, 3753, 3712, 3705, 3720, 3756, 3750, 0, 1, 17607, -89.900, 0.000, 52.800, 0.000, 0.000, -2.900, 0.0, , , , , , 96, , , 13, 13, 13
36.0028530, -118.5646193, 36.300, 09:57:05.867, 16, 0.00, 0.45, 96, 1.600, -1.200, 53.400, 338, 100, 99, 18, 22376, -20876, 5161, 5377, 17, 14, 1530723425.868, 24, 0, 1024, 1024, 1024, 1024, 0, 6, 3753, 3712, 3705, 3720, 3756, 3750, 0, 1, 17707, -89.900, 0.000, 52.800, 0.000, 0.000, -2.900, 0.0, , , , , , 96, , , 13, 13, 13
36.0028530, -118.5646193, 36.600, 09:57:05.968, 16, 0.00, 0.45, 96, 1.600, -1.400, 53.300, 338, 100, 97, 18, 22376, -20876, 5161, 5377, 17, 14, 1530723425.968, 15, 0, 1024, 1024, 1024, 1024, 0, 6, 3753, 3712, 3705, 3720, 3756, 3750, 0, 1, 17807, -90.000, 0.000, 52.800, 0.000, 0.000, -2.900, 0.0, , , , , , 96, , , 13, 13, 13
36.0028530, -118.5646192, 36.900, 09:57:06.068, 16, 0.00, 0.45, 96, 1.700, -1.500, 53.300, 338, 100, 97, 18, 22376, -20876, 5161, 5377, 17, 14, 1530723426.068, 16, 0, 1024, 1024, 1024, 1024, 0, 6, 3753, 3712, 3705, 3720, 3756, 3750, 0, 1, 17907, -90.000, 0.000, 52.800, 0.000, 0.000, -2.900, 0.0, , , , , , 96, , , 13, 13, 13
36.0028530, -118.5646193, 37.200, 09:57:06.168, 16, 0.00, 0.45, 96, 2.000, -1.500, 53.400, 338, 100, 97, 18, 22376, -20876, 5161, 5377, 17, 14, 1530723426.168, 19, 0, 1024, 1024, 1024, 1024, 0, 6, 3753, 3712, 3705, 3720, 3756, 3750, 0, 1, 18007, -89.900, 0.000, 52.800, 0.000, 0.000, -2.900, 0.0, , , , , , 96, , , 13, 13, 13
36.0028530, -118.5646193, 37.500, 09:57:06.268, 16, 0.00, 0.46, 96, 2.100, -1.500, 53.500, 338, 100, 97, 18, 22376, -20876, 5161, 5377, 17, 14, 1530723426.268, 11, 0, 1024, 1024, 1024, 1024, 0, 6, 3753, 3712, 3705, 3720, 3756, 3750, 0, 1, 18107, -89.900, 0.000, 52.800, 0.000, 0.000, -2.900, 0.0, , , , , , 96, , , 13, 13, 13
36.0028530, -118.5646193, 37.800, 09:57:06.368, 16, 0.00, 0.46, 96, 2.000, -1.600, 53.600, 338, 100, 97, 18, 22347, -21245, 5161, 5377, 17, 14, 1530723426.368, 5, 0, 1024, 1024, 1024, 1024, 0, 6, 3753, 3698, 3701, 3709, 3751, 3735, 0, 1, 18207, -90.000, 0.000, 52.800, 0.000, 0.000, -2.900, 0.0, , , , , , 96, , , 13, 13, 13
36.0028530, -118.5646193, 38.100, 09:57:06.467, 16, 0.00, 0.46, 96, 2.000, -1.700, 53.600, 338, 100, 97, 18, 22347, -21245, 5161, 5377, 17, 14, 1530723426.467, 3, 0, 1024, 1024, 1024, 1024, 0, 6, 3753, 3698, 3701, 3709, 3751, 3735, 0, 1, 18306, -90.000, 0.000, 52.800, 0.000, 0.000, -3.000, 0.0, , , , , , 96, , , 13, 13, 13
36.0028530, -118.5646193, 38.500, 09:57:06.568, 16, 0.00, 0.46, 96, 2.000, -1.800, 53.700, 338, 100, 97, 18, 22347, -21245, 5161, 5377, 17, 14, 1530723426.568, 10, 0, 1024, 1024, 1024, 1024, 0, 6, 3753, 3698, 3701, 3709, 3751, 3735, 0, 1, 18407, -90.000, 0.000, 52.800, 0.000, 0.000, -2.900, 0.0, , , , , , 96, , , 13, 13, 13
36.0028530, -118.5646193, 38.500, 09:57:06.668, 16, 0.00, 0.46, 96, 2.000, -1.800, 53.700, 338, 100, 97, 18, 22347, -21245, 5161, 5377, 17, 14, 1530723426.668, 110, 0, 1024, 1024, 1024, 1024, 0, 6, 3753, 3698, 3701, 3709, 3751, 3735, 0, 1, 18507, -90.000, 0.000, 52.800, 0.000, 0.000, -2.900, 0.0, , , , , , 96, , , 13, 13, 13
36.0028530, -118.5646193, 38.500, 09:57:06.768, 16, 0.00, 0.46, 96, 2.000, -1.800, 53.700, 338, 100, 97, 18, 22347, -21245, 5161, 5377, 17, 14, 1530723426.768, 211, 0, 1024, 1024, 1024, 1024, 0, 6, 3753, 3698, 3701, 3709, 3751, 3735, 0, 1, 18608, -89.900, 0.000, 52.800, 0.000, 0.000, -2.900, 0.0, , , , , , 96, , , 13, 13, 13
36.0028530, -118.5646193, 39.100, 09:57:06.868, 16, 0.00, 0.46, 96, 1.900, -1.900, 53.800, 338, 100, 97, 18, 22347, -21245, 5161, 5377, 17, 14, 1530723426.868, 81, 0, 1024, 1024, 1024, 1024, 0, 6, 3753, 3698, 3701, 3709, 3751, 3735, 0, 1, 18708, -90.000, 0.000, 52.800, 0.000, 0.000, -3.000, 0.0, , , , , , 96, , , 13, 13, 13
36.0028530, -118.5646193, 39.400, 09:57:06.968, 16, 0.00, 0.46, 96, 1.900, -1.900, 53.900, 338, 100, 97, 18, 22347, -21245, 5161, 5377, 17, 14, 1530723426.968, 59, 0, 1024, 1024, 1024, 1024, 0, 6, 3753, 3698, 3701, 3709, 3751, 3735, 0, 1, 18808, -90.000, 0.000, 52.800, 0.000, 0.000, -2.900, 0.0, , , , , , 96, , , 13, 13, 13
36.0028530, -118.5646193, 39.700, 09:57:07.068, 16, 0.00, 0.46, 96, 1.900, -1.900, 53.900, 338, 100, 98, 18, 22347, -21245, 5161, 5377, 17, 14, 1530723427.069, 61, 0, 1024, 1024, 1024, 1024, 0, 6, 3753, 3698, 3701, 3709, 3751, 3735, 0, 1, 18908, -89.900, 0.000, 52.800, 0.000, 0.000, -2.900, 0.0, , , , , , 96, , , 13, 13, 13
36.0028529, -118.5646194, 40.000, 09:57:07.168, 16, 0.00, 0.46, 96, 1.800, -2.000, 53.900, 338, 100, 98, 18, 22347, -21245, 5161, 5377, 17, 14, 1530723427.169, 51, 0, 1024, 1024, 1024, 1024, 0, 6, 3753, 3698, 3701, 3709, 3751, 3735, 0, 1, 19008, -90.000, 0.000, 52.800, 0.000, 0.000, -2.900, 0.0, , , , , , 96, , , 13, 13, 13
36.0028529, -118.5646194, 40.300, 09:57:07.268, 16, 0.00, 0.46, 96, 1.800, -2.100, 53.800, 338, 100, 98, 18, 22347, -21245, 5161, 5377, 17, 14, 1530723427.268, 53, 0, 1024, 1024, 1024, 1024, 0, 6, 3753, 3698, 3701, 3709, 3751, 3735, 0, 1, 19107, -89.900, 0.000, 52.800, 0.000, 0.000, -2.900, 0.0, , , , , , 96, , , 13, 13, 13
36.0028530, -118.5646194, 40.600, 09:57:07.369, 16, 0.00, 0.47, 96, 1.900, -2.100, 53.800, 338, 100, 98, 18, 22347, -21245, 5161, 5377, 17, 14, 1530723427.369, 57, 0, 1024, 1024, 1024, 1024, 0, 6, 3753, 3698, 3701, 3709, 3751, 3735, 0, 1, 19208, -90.000, 0.000, 52.800, 0.000, 0.000, -2.900, 0.0, , , , , , 96, , , 13, 13, 13
36.0028530, -118.5646195, 40.900, 09:57:07.469, 16, 0.00, 0.47, 96, 2.000, -2.000, 53.900, 338, 100, 98, 18, 22300, -21463, 5161, 5377, 17, 14, 1530723427.469, 52, 0, 1024, 1024, 1024, 1024, 0, 6, 3737, 3688, 3691, 3695, 3751, 3722, 0, 1, 19308, -89.900, 0.000, 52.800, 0.000, 0.000, -2.900, 0.0, , , , , , 96, , , 13, 13, 13
36.0028530, -118.5646194, 41.500, 09:57:07.569, 16, 0.00, 0.47, 96, 2.200, -1.600, 53.900, 338, 100, 98, 18, 22300, -21463, 5161, 5377, 17, 14, 1530723427.569, 43, 0, 1024, 1024, 1024, 1024, 0, 6, 3737, 3688, 3691, 3695, 3751, 3722, 0, 1, 19408, -89.900, 0.000, 52.800, 0.000, 0.000, -2.900, 0.0, , , , , , 96, , , 13, 13, 13
36.0028530, -118.5646194, 41.500, 09:57:07.669, 16, 0.00, 0.47, 96, 2.200, -1.600, 53.900, 338, 100, 98, 18, 22300, -21463, 5161, 5377, 17, 14, 1530723427.669, 143, 0, 1024, 1024, 1024, 1024, 0, 6, 3737, 3688, 3691, 3695, 3751, 3722, 0, 1, 19508, -89.900, 0.000, 52.800, 0.000, 0.000, -2.900, 0.0, , , , , , 96, , , 13, 13, 13
36.0028531, -118.5646194, 42.100, 09:57:07.769, 16, 0.00, 0.47, 96, 2.100, -1.400, 53.900, 338, 100, 98, 18, 22300, -21463, 5161, 5377, 17, 14, 1530723427.769, 43, 0, 1024, 1024, 1024, 1024, 0, 6, 3737, 3688, 3691, 3695, 3751, 3722, 0, 1, 19608, -89.900, 0.000, 52.800, 0.000, 0.000, -2.800, 0.0, , , , , , 96, , , 13, 13, 13
36.0028531, -118.5646194, 42.400, 09:57:07.869, 16, 0.00, 0.47, 96, 2.100, -1.600, 53.800, 338, 100, 98, 18, 22300, -21463, 5161, 5377, 17, 14, 1530723427.869, 48, 0, 1024, 1024, 1024, 1024, 0, 6, 3737, 3688, 3691, 3695, 3751, 3722, 0, 1, 19708, -89.900, 0.000, 52.800, 0.000, 0.000, -2.900, 0.0, , , , , , 96, , , 13, 13, 13
36.0028531, -118.5646195, 42.700, 09:57:07.969, 16, 0.00, 0.48, 96, 2.200, -1.600, 53.800, 338, 100, 98, 18, 22300, -21463, 5161, 5377, 17, 14, 1530723427.969, 28, 0, 1024, 1024, 1024, 1024, 0, 6, 3737, 3688, 3691, 3695, 3751, 3722, 0, 1, 19808, -90.000, 0.000, 52.800, 0.000, 0.000, -2.900, 0.0, , , , , , 96, , , 13, 13, 13
36.0028531, -118.5646195, 43.000, 09:57:08.069, 16, 0.00, 0.48, 96, 2.100, -1.700, 53.800, 338, 100, 99, 18, 22300, -21463, 5161, 5377, 17, 14, 1530723428.069, 43, 0, 1024, 1024, 1024, 1024, 0, 6, 3737, 3688, 3691, 3695, 3751, 3722, 0, 1, 19908, -89.900, 0.000, 52.800, 0.000, 0.000, -2.900, 0.0, , , , , , 96, , , 13, 13, 13
36.0028531, -118.5646195, 43.300, 09:57:08.169, 16, 0.00, 0.48, 96, 2.000, -1.800, 53.800, 338, 100, 99, 18, 22300, -21463, 5161, 5377, 17, 14, 1530723428.169, 12, 0, 1024, 1024, 1024, 1024, 0, 6, 3737, 3688, 3691, 3695, 3751, 3722, 0, 1, 20009, -90.000, 0.000, 52.800, 0.000, 0.000, -2.900, 0.0, , , , , , 96, , , 13, 13, 13
36.0028531, -118.5646195, 43.600, 09:57:08.269, 16, 0.00, 0.48, 96, 1.900, -1.800, 53.800, 338, 100, 99, 18, 22300, -21463, 5161, 5377, 17, 14, 1530723428.269, 19, 0, 1024, 1024, 1024, 1024, 0, 6, 3737, 3688, 3691, 3695, 3751, 3722, 0, 1, 20109, -89.900, 0.000, 52.800, 0.000, 0.000, -2.900, 0.0, , , , , , 96, , , 13, 13, 13
36.0028531, -118.5646195, 43.900, 09:57:08.369, 16, 0.00, 0.48, 96, 2.000, -1.800, 53.800, 338, 100, 99, 18, 22300, -21463, 5161, 5377, 17, 14, 1530723428.369, 23, 0, 1024, 1024, 1024, 1024, 0, 6, 3737, 3688, 3691, 3695, 3751, 3722, 0, 1, 20208, -89.900, 0.000, 52.800, 0.000, 0.000, -2.900, 0.0, , , , , , 96, , , 13, 13, 13
36.0028532, -118.5646194, 44.100, 09:57:08.469, 16, 0.00, 0.48, 96, 2.000, -1.700, 53.800, 338, 100, 99, 18, 22301, -20955, 5161, 5377, 17, 14, 1530723428.470, 18, 0, 1024, 1024, 1024, 1024, 0, 6, 3743, 3690, 3694, 3700, 3752, 3725, 0, 1, 20309, -89.900, 0.000, 52.800, 0.000, 0.000, -2.900, 0.0, , , , , , 96, , , 13, 13, 13
36.0028532, -118.5646194, 44.500, 09:57:08.570, 16, 0.00, 0.48, 96, 1.900, -1.600, 53.800, 338, 100, 99, 18, 22301, -20955, 5161, 5377, 17, 14, 1530723428.570, 5, 0, 1024, 1024, 1024, 1024, 0, 6, 3743, 3690, 3694, 3700, 3752, 3725, 0, 1, 20409, -89.900, 0.000, 52.800, 0.000, 0.000, -2.900, 0.0, , , , , , 96, , , 13, 13, 13
36.0028532, -118.5646194, 44.800, 09:57:08.670, 16, 0.00, 0.48, 96, 1.900, -1.300, 53.800, 338, 100, 99, 18, 22301, -20955, 5161, 5377, 17, 14, 1530723428.670, 19, 0, 1024, 1024, 1024, 1024, 0, 6, 3743, 3690, 3694, 3700, 3752, 3725, 0, 1, 20509, -89.900, 0.000, 52.800, 0.000, 0.000, -2.900, 0.0, , , , , , 96, , , 13, 13, 13
36.0028532, -118.5646194, 45.100, 09:57:08.769, 16, 0.00, 0.48, 96, 1.900, -1.200, 53.800, 338, 100, 99, 18, 22301, -20955, 5161, 5377, 17, 14, 1530723428.769, 19, 0, 1024, 1024, 1024, 1024, 0, 6, 3743, 3690, 3694, 3700, 3752, 3725, 0, 1, 20608, -89.900, 0.000, 52.800, 0.000, 0.000, -2.900, 0.0, , , , , , 96, , , 13, 13, 13
36.0028532, -118.5646194, 45.400, 09:57:08.869, 16, 0.00, 0.48, 96, 2.000, -1.200, 53.700, 338, 100, 99, 18, 22301, -20955, 5161, 5377, 17, 14, 1530723428.869, 11, 0, 1024, 1024, 1024, 1024, 0, 6, 3743, 3690, 3694, 3700, 3752, 3725, 0, 1, 20708, -89.900, 0.000, 52.800, 0.000, 0.000, -2.900, 0.0, , , , , , 96, , , 13, 13, 13
36.0028532, -118.5646194, 45.400, 09:57:08.970, 16, 0.00, 0.48, 96, 2.000, -1.200, 53.700, 338, 100, 99, 18, 22301, -20955, 5161, 5377, 17, 14, 1530723428.970, 111, 0, 1024, 1024, 1024, 1024, 0, 6, 3743, 3690, 3694, 3700, 3752, 3725, 0, 1, 20809, -89.900, 0.000, 52.800, 0.000, 0.000, -2.900, 0.0, , , , , , 96, , , 13, 13, 13
36.0028533, -118.5646194, 45.700, 09:57:09.070, 16, 0.00, 0.49, 96, 2.100, -1.400, 53.800, 338, 100, 99, 18, 22301, -20955, 5161, 5377, 17, 14, 1530723429.070, 94, 0, 1024, 1024, 1024, 1024, 0, 6, 3743, 3690, 3694, 3700, 3752, 3725, 0, 1, 20909, -89.900, 0.000, 52.800, 0.000, 0.000, -2.900, 0.0, , , , , , 96, , , 13, 13, 13
36.0028533, -118.5646194, 45.900, 09:57:09.170, 16, 0.00, 0.49, 96, 2.100, -1.600, 53.800, 338, 100, 99, 18, 22301, -20955, 5161, 5377, 17, 14, 1530723429.170, 98, 0, 1024, 1024, 1024, 1024, 0, 6, 3743, 3690, 3694, 3700, 3752, 3725, 0, 1, 21009, -90.000, 0.000, 52.800, 0.000, 0.000, -2.800, 0.0, , , , , , 96, , , 13, 13, 13
36.0028532, -118.5646194, 46.200, 09:57:09.270, 16, 0.00, 0.49, 96, 2.100, -1.800, 53.900, 338, 100, 99, 18, 22301, -20955, 5161, 5377, 17, 14, 1530723429.270, 95, 0, 1024, 1024, 1024, 1024, 0, 6, 3743, 3690, 3694, 3700, 3752, 3725, 0, 1, 21109, -89.900, 0.000, 52.800, 0.000, 0.000, -2.900, 0.0, , , , , , 96, , , 13, 13, 13
36.0028532, -118.5646194, 46.500, 09:57:09.370, 16, 0.00, 0.48, 96, 2.100, -2.000, 53.900, 338, 100, 99, 18, 22301, -20955, 5161, 5377, 17, 14, 1530723429.370, 90, 0, 1024, 1024, 1024, 1024, 0, 6, 3743, 3690, 3694, 3700, 3752, 3725, 0, 1, 21209, -90.000, 0.000, 52.800, 0.000, 0.000, -2.900, 0.0, , , , , , 96, , , 13, 13, 13
