Latitude, Longitude, Altitude (m), Time, Sats, Speed (m/s), Range (m), Battery (%), Roll (deg), Pitch (deg), Yaw (deg), Images, HD Signal (%), RC Signal (%), Battery Temp (C), Battery Voltage (mV), Battery Current (mA), Battery Energy (mAh), Battery Capacity (mAh), Battery Discharges, flyState, timestamp (Unix), LastUpdate (ms), radioChannel, Rc_elevator, Rc_aileron, Rc_throttle, Rc_rudder, Rc_gyro, Dronetype, Battery_Cell1 (mV), Battery_Cell2 (mV), Battery_Cell3 (mV), Battery_Cell4 (mV), Battery_Cell5 (mV), Battery_Cell6 (mV), Video, isFlying, elapsedTime (ms), gimbalPitch (deg), gimbalRoll (deg), gimbalYaw (deg), VelocityX (m/s), VelocityY (m/s), VelocityZ (m/s), GroundSmear (cm), App Version, Aircraft Name, Aircraft Firmware, Aircraft Serial Number, Battery Serial Number, Battery Lifetime (%), App_Tip, App_Warning, CurrentFlightStartingIndex, CurrentFlightLastVisitedWaypoint, PreviousFlightEndingWaypointIndex
36.0028568, -118.5646161, 0.000, 10:30:58.211, 13, 0.00, 0.05, 98, -0.800, 0.100, -37.800, 1018, 100, 100, 18, 25516, -3891, 5269, 5377, 17, 11, 1530725458.211, 31, 0, 1024, 1024, 1024, 1024, 0, 6, 4251, 4264, 4264, 4246, 4249, 4250, 0, 1, 3135, -90.000, 0.000, -39.700, 0.000, 0.000, 0.000, 0.0, MapPilot_2.8.1_04242018, Dendroctonus I, 1.3.1.00, 041DDC1887, 1058163200563, 96, DJI_0017.jpg, Starting Mission from Lat/Long: 36.00285/-118.56462 Camera: Zenmuse X3 - Overlap: 90/90 - Active Connection: No, 41, 41, 41
36.0028567, -118.5646161, 0.000, 10:30:58.277, 13, 0.00, 0.04, 98, -1.100, -0.400, -37.700, 1018, 100, 100, 18, 25516, -3891, 5269, 5377, 17, 11, 1530725458.277, 8, 0, 1024, 1024, 1024, 1024, 0, 6, 4251, 4264, 4264, 4246, 4249, 4250, 0, 1, 3201, -89.900, 0.000, -39.700, 0.000, 0.000, -0.100, 0.0, , , , , , 96, , , 41, 41, 41
36.0028567, -118.5646161, 0.000, 10:30:58.377, 13, 0.00, 0.04, 98, -1.100, -0.400, -37.700, 1018, 100, 100, 18, 25516, -3891, 5269, 5377, 17, 11, 1530725458.377, 108, 0, 1024, 1024, 1024, 1024, 0, 6, 4251, 4264, 4264, 4246, 4249, 4250, 0, 1, 3301, -89.900, 0.000, -39.700, 0.000, 0.000, -0.100, 0.0, , , , , , 96, , , 41, 41, 41
36.0028567, -118.5646161, 0.000, 10:30:58.477, 13, 0.00, 0.04, 98, -0.800, -0.700, -37.600, 1018, 100, 100, 18, 25516, -3891, 5269, 5377, 17, 11, 1530725458.477, 89, 0, 1024, 1024, 1024, 1024, 0, 6, 4251, 4264, 4264, 4246, 4249, 4250, 0, 1, 3401, -90.000, 0.000, -39.700, 0.000, 0.000, -0.300, 0.0, , , , , , 96, , , 41, 41, 41
36.0028566, -118.5646162, 0.000, 10:30:58.577, 13, 0.10, 0.03, 98, -0.300, -0.700, -37.600, 1018, 100, 100, 18, 25516, -3891, 5269, 5377, 17, 11, 1530725458.577, 80, 0, 1024, 1024, 1024, 1024, 0, 6, 4251, 4264, 4264, 4246, 4249, 4250, 0, 1, 3501, -89.900, 0.000, -39.600, -0.100, 0.000, -0.300, 0.0, , , , , , 96, , , 41, 41, 41
36.0028566, -118.5646163, 0.100, 10:30:58.677, 13, 0.10, 0.02, 98, 0.400, -0.600, -37.700, 1018, 100, 100, 18, 25516, -3891, 5269, 5377, 17, 11, 1530725458.677, 83, 0, 1024, 1024, 1024, 1024, 0, 6, 4251, 4264, 4264, 4246, 4249, 4250, 0, 1, 3601, -89.900, 0.000, -39.600, 0.000, -0.100, -0.400, 0.0, , , , , , 96, , , 41, 41, 41
36.0028566, -118.5646164, 0.100, 10:30:58.777, 13, 0.10, 0.02, 98, 0.900, -0.600, -37.800, 1018, 100, 100, 18, 24636, -9302, 5269, 5377, 17, 11, 1530725458.777, 87, 0, 1024, 1024, 1024, 1024, 0, 6, 4251, 4264, 4264, 4246, 4249, 4250, 0, 1, 3701, -89.900, 0.000, -39.600, 0.000, -0.100, -0.500, 0.0, , , , , , 96, , , 41, 41, 41
36.0028566, -118.5646166, 0.200, 10:30:58.877, 15, 0.10, 0.03, 98, 1.300, -0.100, -37.800, 1018, 100, 100, 18, 24636, -9302, 5269, 5377, 17, 11, 1530725458.877, 87, 0, 1024, 1024, 1024, 1024, 0, 6, 4251, 4264, 4264, 4246, 4249, 4250, 0, 1, 3801, -89.900, 0.000, -39.500, 0.000, -0.100, -0.400, 0.0, , , , , , 96, , , 41, 41, 41
36.0028565, -118.5646168, 0.200, 10:30:58.977, 15, 0.10, 0.05, 98, 1.400, 0.200, -37.800, 1018, 100, 100, 18, 24636, -9302, 5269, 5377, 17, 11, 1530725458.977, 67, 0, 1024, 1024, 1024, 1024, 0, 6, 4251, 4264, 4264, 4246, 4249, 4250, 0, 1, 3901, -89.900, 0.000, -39.500, 0.000, -0.100, -0.300, 0.0, , , , , , 96, , , 41, 41, 41
36.0028566, -118.5646170, 0.300, 10:30:59.077, 13, 0.10, 0.07, 98, 1.500, 0.600, -37.900, 1018, 100, 100, 18, 24636, -9302, 5269, 5377, 17, 11, 1530725459.077, 55, 0, 1024, 1024, 1024, 1024, 0, 6, 4251, 4264, 4264, 4246, 4249, 4250, 0, 1, 4001, -89.900, 0.000, -39.500, 0.000, -0.100, -0.300, 0.0, , , , , , 96, , , 41, 41, 41
36.0028566, -118.5646171, 0.300, 10:30:59.177, 13, 0.10, 0.08, 98, 1.700, 0.800, -37.900, 1018, 100, 100, 18, 24636, -9302, 5269, 5377, 17, 11, 1530725459.177, 48, 0, 1024, 1024, 1024, 1024, 0, 6, 4251, 4264, 4264, 4246, 4249, 4250, 0, 1, 4101, -89.900, 0.000, -39.400, 0.000, -0.100, -0.300, 0.0, , , , , , 96, , , 41, 41, 41
36.0028566, -118.5646173, 0.400, 10:30:59.277, 13, 0.10, 0.09, 98, 1.700, 0.900, -37.900, 1018, 100, 100, 18, 24636, -9302, 5269, 5377, 17, 11, 1530725459.277, 63, 0, 1024, 1024, 1024, 1024, 0, 6, 4094, 4069, 4114, 4054, 4054, 4075, 0, 1, 4201, -89.900, 0.000, -39.400, 0.000, -0.100, -0.400, 0.0, , , , , , 96, , , 41, 41, 41
36.0028567, -118.5646174, 0.400, 10:30:59.377, 13, 0.00, 0.11, 98, 1.600, 1.000, -37.900, 1018, 100, 100, 18, 24636, -9302, 5269, 5377, 17, 11, 1530725459.377, 55, 0, 1024, 1024, 1024, 1024, 0, 6, 4094, 4069, 4114, 4054, 4054, 4075, 0, 1, 4301, -89.900, 0.000, -39.400, 0.000, 0.000, -0.400, 0.0, , , , , , 96, , , 41, 41, 41
36.0028567, -118.5646175, 0.500, 10:30:59.477, 11, 0.00, 0.12, 98, 1.600, 1.100, -37.900, 1018, 100, 100, 18, 24636, -9302, 5269, 5377, 17, 11, 1530725459.477, 56, 0, 1024, 1024, 1024, 1024, 0, 6, 4094, 4069, 4114, 4054, 4054, 4075, 0, 1, 4401, -89.900, 0.000, -39.300, 0.000, 0.000, -0.400, 0.0, , , , , , 96, , , 41, 41, 41
36.0028567, -118.5646176, 0.500, 10:30:59.577, 11, 0.00, 0.12, 98, 1.600, 1.200, -37.900, 1018, 100, 100, 18, 24636, -9302, 5269, 5377, 17, 11, 1530725459.577, 59, 0, 1024, 1024, 1024, 1024, 0, 6, 4094, 4069, 4114, 4054, 4054, 4075, 0, 1, 4500, -89.900, 0.000, -39.300, 0.000, 0.000, -0.400, 0.0, , , , , , 96, , , 41, 41, 41
36.0028567, -118.5646177, 0.600, 10:30:59.677, 12, 0.00, 0.14, 98, 1.600, 1.300, -37.800, 1018, 100, 100, 18, 24636, -9302, 5269, 5377, 17, 11, 1530725459.677, 23, 0, 1024, 1024, 1024, 1024, 0, 6, 4094, 4069, 4114, 4054, 4054, 4075, 0, 1, 4601, -89.900, 0.000, -39.300, 0.000, 0.000, -0.400, 0.0, , , , , , 96, , , 41, 41, 41
36.0028567, -118.5646177, 0.600, 10:30:59.777, 12, 0.00, 0.14, 98, 1.600, 1.300, -37.800, 1018, 100, 100, 18, 24636, -9302, 5269, 5377, 17, 11, 1530725459.778, 123, 0, 1024, 1024, 1024, 1024, 0, 6, 4094, 4069, 4114, 4054, 4054, 4075, 0, 1, 4701, -89.900, 0.000, -39.300, 0.000, 0.000, -0.400, 0.0, , , , , , 96, , , 41, 41, 41
36.0028568, -118.5646178, 0.700, 10:30:59.877, 11, 0.00, 0.14, 98, 1.600, 1.300, -37.800, 1018, 100, 100, 18, 24636, -9302, 5269, 5377, 17, 11, 1530725459.877, 19, 0, 1024, 1024, 1024, 1024, 0, 6, 4094, 4069, 4114, 4054, 4054, 4075, 0, 1, 4800, -89.900, 0.000, -39.300, 0.000, 0.000, -0.400, 0.0, , , , , , 96, , , 41, 41, 41
36.0028569, -118.5646178, 0.800, 10:30:59.977, 13, 0.00, 0.14, 98, 1.500, 1.300, -37.600, 1018, 100, 100, 18, 24636, -9302, 5269, 5377, 17, 11, 1530725459.977, 20, 0, 1024, 1024, 1024, 1024, 0, 6, 4094, 4069, 4114, 4054, 4054, 4075, 0, 1, 4901, -89.900, 0.000, -39.200, 0.000, 0.000, -0.500, 0.0, , , , , , 96, , , 41, 41, 41
36.0028569, -118.5646177, 0.800, 10:31:00.077, 13, 0.00, 0.14, 98, 1.200, 1.400, -37.600, 1018, 100, 100, 18, 24636, -9302, 5269, 5377, 17, 11, 1530725460.077, 29, 0, 1024, 1024, 1024, 1024, 0, 6, 4094, 4069, 4114, 4054, 4054, 4075, 0, 1, 5001, -89.900, 0.000, -39.200, 0.000, 0.000, -0.400, 0.0, , , , , , 96, , , 41, 41, 41
36.0028569, -118.5646177, 0.900, 10:31:00.179, 12, 0.00, 0.14, 98, 1.100, 1.400, -37.600, 1018, 100, 100, 18, 23707, -16812, 5215, 5377, 17, 14, 1530725460.180, 2, 0, 1024, 1024, 1024, 1024, 0, 6, 3945, 3928, 3956, 3952, 3954, 3954, 0, 1, 5103, -89.900, 0.000, -39.200, 0.000, 0.000, -0.400, 0.0, , , , , , 96, , , 41, 41, 41
36.0028569, -118.5646177, 0.900, 10:31:00.277, 12, 0.00, 0.14, 98, 1.100, 1.400, -37.600, 1018, 100, 100, 18, 23707, -16812, 5215, 5377, 17, 14, 1530725460.277, 100, 0, 1024, 1024, 1024, 1024, 0, 6, 3945, 3928, 3956, 3952, 3954, 3954, 0, 1, 5201, -89.900, 0.000, -39.200, 0.000, 0.000, -0.400, 0.0, , , , , , 96, , , 41, 41, 41
36.0028569, -118.5646177, 1.000, 10:31:00.377, 12, 0.00, 0.14, 98, 1.100, 1.300, -37.500, 1018, 100, 100, 18, 23707, -16812, 5215, 5377, 17, 14, 1530725460.377, 95, 0, 1024, 1024, 1024, 1024, 0, 6, 3945, 3928, 3956, 3952, 3954, 3954, 0, 1, 5301, -89.900, 0.000, -39.200, 0.000, 0.000, -0.400, 0.0, , , , , , 96, , , 41, 41, 41
36.0028570, -118.5646176, 1.100, 10:31:00.479, 12, 0.00, 0.14, 98, 0.100, -0.100, -37.400, 1018, 100, 100, 18, 23707, -16812, 5215, 5377, 17, 14, 1530725460.479, 2, 0, 1024, 1024, 1024, 1024, 0, 6, 3945, 3928, 3956, 3952, 3954, 3954, 0, 1, 5403, -90.000, 0.000, -39.100, 0.000, 0.000, -0.300, 0.0, , , , , , 96, , , 41, 41, 41
36.0028570, -118.5646176, 1.100, 10:31:00.577, 12, 0.00, 0.14, 98, 0.100, -0.100, -37.400, 1018, 100, 100, 18, 23707, -16812, 5215, 5377, 17, 14, 1530725460.577, 100, 0, 1024, 1024, 1024, 1024, 0, 6, 3945, 3928, 3956, 3952, 3954, 3954, 0, 1, 5501, -90.000, 0.000, -39.100, 0.000, 0.000, -0.300, 0.0, , , , , , 96, , , 41, 41, 41
36.0028569, -118.5646176, 1.100, 10:31:00.677, 11, 0.00, 0.14, 98, 0.000, -0.100, -37.300, 1018, 100, 100, 18, 23707, -16812, 5215, 5377, 17, 14, 1530725460.677, 89, 0, 1024, 1024, 1024, 1024, 0, 6, 3945, 3928, 3956, 3952, 3954, 3954, 0, 1, 5601, -90.000, 0.000, -39.100, 0.000, 0.000, -0.300, 0.0, , , , , , 96, , , 41, 41, 41
36.0028569, -118.5646177, 1.100, 10:31:00.777, 11, 0.00, 0.14, 98, 0.100, 0.000, -37.200, 1018, 100, 100, 18, 23707, -16812, 5215, 5377, 17, 14, 1530725460.777, 81, 0, 1024, 1024, 1024, 1024, 0, 6, 3945, 3928, 3956, 3952, 3954, 3954, 0, 1, 5701, -89.900, 0.000, -39.100, 0.000, 0.000, -0.400, 0.0, , , , , , 96, , , 41, 41, 41
36.0028568, -118.5646177, 1.200, 10:31:00.877, 11, 0.00, 0.14, 98, 0.500, 0.200, -37.000, 1018, 100, 100, 18, 23707, -16812, 5215, 5377, 17, 14, 1530725460.877, 76, 0, 1024, 1024, 1024, 1024, 0, 6, 3945, 3928, 3956, 3952, 3954, 3954, 0, 1, 5801, -89.900, 0.000, -39.000, 0.000, 0.000, -0.500, 0.0, , , , , , 96, , , 41, 41, 41
36.0028568, -118.5646177, 1.300, 10:31:00.977, 11, 0.00, 0.14, 98, 0.800, 0.400, -37.000, 1018, 100, 100, 18, 23707, -16812, 5215, 5377, 17, 14, 1530725460.977, 79, 0, 1024, 1024, 1024, 1024, 0, 6, 3945, 3928, 3956, 3952, 3954, 3954, 0, 1, 5901, -89.900, 0.000, -39.000, 0.000, 0.000, -0.600, 0.0, , , , , , 96, , , 41, 41, 41
36.0028568, -118.5646177, 1.300, 10:31:01.077, 12, 0.00, 0.14, 98, 1.000, 0.400, -37.000, 1018, 100, 100, 18, 23707, -16812, 5215, 5377, 17, 14, 1530725461.077, 74, 0, 1024, 1024, 1024, 1024, 0, 6, 3945, 3928, 3956, 3952, 3954, 3954, 0, 1, 6001, -89.900, 0.000, -39.000, 0.000, 0.000, -0.800, 0.0, , , , , , 96, , , 41, 41, 41
36.0028568, -118.5646177, 1.400, 10:31:01.177, 12, 0.00, 0.14, 98, 0.900, 0.500, -37.100, 1018, 100, 100, 18, 23707, -16812, 5215, 5377, 17, 14, 1530725461.177, 44, 0, 1024, 1024, 1024, 1024, 0, 6, 3945, 3928, 3956, 3952, 3954, 3954, 0, 1, 6101, -89.900, 0.000, -39.000, 0.000, 0.000, -1.000, 0.0, , , , , , 96, , , 41, 41, 41
36.0028568, -118.5646178, 1.600, 10:31:01.277, 12, 0.00, 0.15, 97, 0.800, 0.600, -37.200, 1018, 100, 100, 18, 23474, -17557, 5215, 5377, 17, 14, 1530725461.277, 50, 0, 1024, 1024, 1024, 1024, 0, 6, 3903, 3883, 3917, 3912, 3922, 3922, 0, 1, 6201, -89.900, 0.000, -39.000, 0.000, 0.000, -1.200, 0.0, , , , , , 96, , , 41, 41, 41
36.0028568, -118.5646179, 1.700, 10:31:01.377, 12, 0.00, 0.16, 97, 0.900, 0.800, -37.300, 1018, 100, 100, 18, 23474, -17557, 5215, 5377, 17, 14, 1530725461.377, 48, 0, 1024, 1024, 1024, 1024, 0, 6, 3903, 3883, 3917, 3912, 3922, 3922, 0, 1, 6301, -89.900, 0.000, -38.900, 0.000, 0.000, -1.400, 0.0, , , , , , 96, , , 41, 41, 41
36.0028569, -118.5646179, 1.900, 10:31:01.477, 13, 0.00, 0.16, 97, 1.300, 0.900, -37.500, 1018, 100, 100, 18, 23474, -17557, 5215, 5377, 17, 14, 1530725461.477, 46, 0, 1024, 1024, 1024, 1024, 0, 6, 3903, 3883, 3917, 3912, 3922, 3922, 0, 1, 6401, -89.900, 0.000, -38.900, 0.000, 0.000, -1.600, 0.0, , , , , , 96, , , 41, 41, 41
36.0028570, -118.5646178, 2.000, 10:31:01.577, 13, 0.00, 0.15, 97, 1.300, 0.800, -37.600, 1018, 100, 100, 18, 23474, -17557, 5215, 5377, 17, 14, 1530725461.577, 57, 0, 1024, 1024, 1024, 1024, 0, 6, 3903, 3883, 3917, 3912, 3922, 3922, 0, 1, 6501, -89.900, 0.000, -38.900, 0.000, 0.000, -1.800, 0.0, , , , , , 96, , , 41, 41, 41
36.0028572, -118.5646179, 2.400, 10:31:01.677, 13, 0.00, 0.18, 97, 0.800, 0.800, -37.800, 1018, 100, 100, 18, 23474, -17557, 5215, 5377, 17, 14, 1530725461.677, 27, 0, 1024, 1024, 1024, 1024, 0, 6, 3903, 3883, 3917, 3912, 3922, 3922, 0, 1, 6601, -89.900, 0.000, -38.900, 0.000, 0.000, -2.300, 0.0, , , , , , 96, , , 41, 41, 41
36.0028574, -118.5646178, 2.700, 10:31:01.777, 15, 0.00, 0.18, 97, 0.700, 1.100, -37.900, 1018, 100, 100, 18, 23474, -17557, 5215, 5377, 17, 14, 1530725461.777, 30, 0, 1024, 1024, 1024, 1024, 0, 6, 3903, 3883, 3917, 3912, 3922, 3922, 0, 1, 6701, -89.900, 0.000, -38.800, 0.000, 0.000, -2.700, 0.0, , , , , , 96, , , 41, 41, 41
36.0028576, -118.5646177, 3.000, 10:31:01.877, 15, 0.00, 0.18, 97, 0.500, 1.400, -37.900, 1018, 100, 100, 18, 23474, -17557, 5215, 5377, 17, 14, 1530725461.877, 21, 0, 1024, 1024, 1024, 1024, 0, 6, 3903, 3883, 3917, 3912, 3922, 3922, 0, 1, 6801, -89.900, 0.000, -38.800, 0.000, 0.000, -2.900, 0.0, , , , , , 96, , , 41, 41, 41
36.0028576, -118.5646177, 3.000, 10:31:01.977, 15, 0.00, 0.18, 97, 0.500, 1.400, -37.900, 1018, 100, 100, 18, 23474, -17557, 5215, 5377, 17, 14, 1530725461.977, 121, 0, 1024, 1024, 1024, 1024, 0, 6, 3903, 3883, 3917, 3912, 3922, 3922, 0, 1, 6901, -89.900, 0.000, -38.800, 0.000, 0.000, -2.900, 0.0, , , , , , 96, , , 41, 41, 41
36.0028580, -118.5646174, 3.600, 10:31:02.077, 14, 0.00, 0.21, 97, -0.400, 1.600, -37.900, 1018, 100, 100, 18, 23474, -17557, 5215, 5377, 17, 14, 1530725462.077, 17, 0, 1024, 1024, 1024, 1024, 0, 6, 3903, 3883, 3917, 3912, 3922, 3922, 0, 1, 7001, -89.900, 0.000, -38.800, 0.000, 0.000, -3.200, 0.0, , , , , , 96, , , 41, 41, 41
36.0028582, -118.5646173, 4.000, 10:31:02.177, 15, 0.00, 0.22, 97, -0.800, 1.500, -37.800, 1018, 100, 100, 18, 23474, -17557, 5215, 5377, 17, 14, 1530725462.177, 12, 0, 1024, 1024, 1024, 1024, 0, 6, 3903, 3883, 3917, 3912, 3922, 3922, 0, 1, 7101, -89.900, 0.000, -38.800, 0.000, 0.000, -3.200, 0.0, , , , , , 96, , , 41, 41, 41
36.0028584, -118.5646172, 4.300, 10:31:02.277, 15, 0.00, 0.24, 97, -0.900, 1.500, -37.700, 1018, 100, 100, 18, 23231, -17954, 5215, 5377, 17, 14, 1530725462.277, 12, 0, 1024, 1024, 1024, 1024, 0, 6, 3843, 3811, 3846, 3842, 3862, 3859, 0, 1, 7201, -89.900, 0.000, -38.700, 0.000, 0.000, -3.300, 0.0, , , , , , 96, , , 41, 41, 41
36.0028585, -118.5646171, 4.700, 10:31:02.387, 14, 0.00, 0.24, 97, -1.100, 1.500, -37.600, 1018, 100, 100, 18, 23231, -17954, 5215, 5377, 17, 14, 1530725462.387, 4, 0, 1024, 1024, 1024, 1024, 0, 6, 3843, 3811, 3846, 3842, 3862, 3859, 0, 1, 7311, -89.900, 0.000, -38.700, 0.000, 0.000, -3.400, 0.0, , , , , , 96, , , 41, 41, 41
36.0028585, -118.5646171, 4.700, 10:31:02.477, 14, 0.00, 0.24, 97, -1.100, 1.500, -37.600, 1018, 100, 100, 18, 23231, -17954, 5215, 5377, 17, 14, 1530725462.477, 94, 0, 1024, 1024, 1024, 1024, 0, 6, 3843, 3811, 3846, 3842, 3862, 3859, 0, 1, 7401, -89.900, 0.000, -38.700, 0.000, 0.000, -3.400, 0.0, , , , , , 96, , , 41, 41, 41
36.0028585, -118.5646169, 5.000, 10:31:02.577, 14, 0.00, 0.24, 97, -1.200, 1.500, -37.500, 1018, 100, 100, 18, 23231, -17954, 5215, 5377, 17, 14, 1530725462.577, 92, 0, 1024, 1024, 1024, 1024, 0, 6, 3843, 3811, 3846, 3842, 3862, 3859, 0, 1, 7501, -89.900, 0.000, -38.700, 0.000, 0.000, -3.300, 0.0, , , , , , 96, , , 41, 41, 41
36.0028585, -118.5646168, 5.400, 10:31:02.677, 15, 0.00, 0.24, 97, -1.200, 1.200, -37.500, 1018, 100, 100, 18, 23231, -17954, 5215, 5377, 17, 14, 1530725462.677, 79, 0, 1024, 1024, 1024, 1024, 0, 6, 3843, 3811, 3846, 3842, 3862, 3859, 0, 1, 7601, -89.900, 0.000, -38.700, 0.000, 0.000, -3.300, 0.0, , , , , , 96, , , 41, 41, 41
36.0028585, -118.5646168, 5.700, 10:31:02.777, 15, 0.00, 0.24, 97, -1.000, 0.800, -37.500, 1018, 100, 100, 18, 23231, -17954, 5215, 5377, 17, 14, 1530725462.777, 82, 0, 1024, 1024, 1024, 1024, 0, 6, 3843, 3811, 3846, 3842, 3862, 3859, 0, 1, 7701, -89.900, 0.000, -38.700, 0.000, 0.000, -3.200, 0.0, , , , , , 96, , , 41, 41, 41
36.0028584, -118.5646168, 6.100, 10:31:02.877, 15, 0.10, 0.23, 97, -0.400, 0.500, -37.500, 1018, 100, 100, 18, 23231, -17954, 5215, 5377, 17, 14, 1530725462.877, 95, 0, 1024, 1024, 1024, 1024, 0, 6, 3843, 3811, 3846, 3842, 3862, 3859, 0, 1, 7801, -90.000, 0.000, -38.700, -0.100, 0.000, -3.300, 0.0, , , , , , 96, , , 41, 41, 41
36.0028582, -118.5646168, 6.400, 10:31:02.977, 15, 0.10, 0.21, 97, 0.000, 0.200, -37.500, 1018, 100, 100, 18, 23231, -17954, 5215, 5377, 17, 14, 1530725462.977, 72, 0, 1024, 1024, 1024, 1024, 0, 6, 3843, 3811, 3846, 3842, 3862, 3859, 0, 1, 7901, -90.000, 0.000, -38.700, -0.100, 0.000, -3.300, 0.0, , , , , , 96, , , 41, 41, 41
36.0028581, -118.5646169, 6.800, 10:31:03.076, 15, 0.10, 0.20, 97, 0.500, 0.000, -37.500, 1018, 100, 100, 18, 23231, -17954, 5215, 5377, 17, 14, 1530725463.076, 79, 0, 1024, 1024, 1024, 1024, 0, 6, 3843, 3811, 3846, 3842, 3862, 3859, 0, 1, 8000, -90.000, 0.000, -38.600, -0.100, 0.000, -3.200, 0.0, , , , , , 96, , , 41, 41, 41
36.0028580, -118.5646171, 7.100, 10:31:03.176, 15, 0.00, 0.20, 97, 0.900, 0.100, -37.500, 1018, 100, 100, 18, 23231, -17954, 5215, 5377, 17, 14, 1530725463.176, 74, 0, 1024, 1024, 1024, 1024, 0, 6, 3843, 3811, 3846, 3842, 3862, 3859, 0, 1, 8100, -89.900, 0.000, -38.600, 0.000, 0.000, -3.100, 0.0, , , , , , 96, , , 41, 41, 41
36.0028579, -118.5646172, 7.400, 10:31:03.276, 15, 0.00, 0.19, 97, 1.000, 0.300, -37.500, 1018, 100, 100, 19, 22587, -25796, 5215, 5377, 17, 14, 1530725463.276, 69, 0, 1024, 1024, 1024, 1024, 0, 6, 3782, 3759, 3803, 3778, 3806, 3798, 0, 1, 8200, -89.900, 0.000, -38.600, 0.000, 0.000, -3.100, 0.0, , , , , , 96, , , 41, 41, 41
36.0028578, -118.5646173, 7.700, 10:31:03.376, 15, 0.00, 0.18, 97, 0.900, 0.700, -37.500, 1018, 100, 100, 19, 22587, -25796, 5215, 5377, 17, 14, 1530725463.376, 58, 0, 1024, 1024, 1024, 1024, 0, 6, 3782, 3759, 3803, 3778, 3806, 3798, 0, 1, 8300, -89.900, 0.000, -38.600, 0.000, 0.000, -3.100, 0.0, , , , , , 96, , , 41, 41, 41
36.0028577, -118.5646175, 8.100, 10:31:03.476, 15, 0.00, 0.18, 97, 0.900, 0.700, -37.500, 1018, 100, 100, 19, 22587, -25796, 5215, 5377, 17, 14, 1530725463.476, 39, 0, 1024, 1024, 1024, 1024, 0, 6, 3782, 3759, 3803, 3778, 3806, 3798, 0, 1, 8400, -89.900, 0.000, -38.600, 0.000, 0.000, -3.000, 0.0, , , , , , 96, , , 41, 41, 41
36.0028575, -118.5646176, 8.400, 10:31:03.576, 15, 0.00, 0.17, 97, 1.000, 0.700, -37.600, 1018, 100, 100, 19, 22587, -25796, 5215, 5377, 17, 14, 1530725463.576, 51, 0, 1024, 1024, 1024, 1024, 0, 6, 3782, 3759, 3803, 3778, 3806, 3798, 0, 1, 8500, -89.900, 0.000, -38.600, 0.000, 0.000, -3.000, 0.0, , , , , , 96, , , 41, 41, 41
36.0028574, -118.5646178, 8.700, 10:31:03.676, 15, 0.00, 0.17, 97, 1.200, 0.700, -37.700, 1018, 100, 100, 19, 22587, -25796, 5215, 5377, 17, 14, 1530725463.676, 44, 0, 1024, 1024, 1024, 1024, 0, 6, 3782, 3759, 3803, 3778, 3806, 3798, 0, 1, 8600, -89.900, 0.000, -38.600, 0.000, 0.000, -3.100, 0.0, , , , , , 96, , , 41, 41, 41
36.0028573, -118.5646179, 9.000, 10:31:03.776, 15, 0.00, 0.18, 97, 1.700, 0.800, -37.700, 1018, 100, 100, 19, 22587, -25796, 5215, 5377, 17, 14, 1530725463.777, 38, 0, 1024, 1024, 1024, 1024, 0, 6, 3782, 3759, 3803, 3778, 3806, 3798, 0, 1, 8700, -89.900, 0.000, -38.600, 0.000, 0.000, -3.100, 0.0, , , , , , 96, , , 41, 41, 41
36.0028572, -118.5646181, 9.300, 10:31:03.876, 13, 0.00, 0.19, 97, 2.200, 0.600, -37.700, 1018, 100, 100, 19, 22587, -25796, 5215, 5377, 17, 14, 1530725463.876, 29, 0, 1024, 1024, 1024, 1024, 0, 6, 3782, 3759, 3803, 3778, 3806, 3798, 0, 1, 8800, -89.900, 0.000, -38.600, 0.000, 0.000, -3.000, 0.0, , , , , , 96, , , 41, 41, 41
36.0028571, -118.5646184, 9.600, 10:31:03.976, 13, 0.00, 0.20, 97, 2.500, 0.400, -37.600, 1018, 100, 100, 19, 22587, -25796, 5215, 5377, 17, 14, 1530725463.976, 30, 0, 1024, 1024, 1024, 1024, 0, 6, 3782, 3759, 3803, 3778, 3806, 3798, 0, 1, 8900, -89.900, 0.000, -38.600, 0.000, 0.000, -3.000, 0.0, , , , , , 96, , , 41, 41, 41
36.0028570, -118.5646185, 9.900, 10:31:04.077, 14, 0.00, 0.21, 97, 2.500, 0.300, -37.600, 1018, 100, 100, 19, 22587, -25796, 5215, 5377, 17, 14, 1530725464.077, 19, 0, 1024, 1024, 1024, 1024, 0, 6, 3782, 3759, 3803, 3778, 3806, 3798, 0, 1, 9001, -89.900, 0.000, -38.600, 0.000, 0.000, -3.000, 0.0, , , , , , 96, , , 41, 41, 41
36.0028569, -118.5646187, 10.600, 10:31:04.177, 15, 0.00, 0.22, 97, 2.000, 0.600, -37.600, 1018, 100, 100, 19, 22587, -25796, 5215, 5377, 17, 14, 1530725464.177, 26, 0, 1024, 1024, 1024, 1024, 0, 6, 3782, 3759, 3803, 3778, 3806, 3798, 0, 1, 9101, -89.900, 0.000, -38.600, 0.000, 0.000, -3.100, 0.0, , , , , , 96, , , 41, 41, 41
36.0028569, -118.5646189, 10.900, 10:31:04.279, 15, 0.00, 0.25, 97, 1.800, 1.000, -37.600, 1018, 100, 100, 19, 22915, -20648, 5215, 5377, 17, 14, 1530725464.280, 5, 0, 1024, 1024, 1024, 1024, 0, 6, 3782, 3759, 3803, 3778, 3806, 3798, 0, 1, 9203, -89.900, 0.000, -38.600, 0.000, 0.000, -3.100, 0.0, , , , , , 96, , , 41, 41, 41
36.0028569, -118.5646191, 11.200, 10:31:04.380, 16, 0.00, 0.26, 97, 1.600, 1.500, -37.600, 1018, 100, 100, 19, 22915, -20648, 5215, 5377, 17, 14, 1530725464.380, 4, 0, 1024, 1024, 1024, 1024, 0, 6, 3782, 3759, 3803, 3778, 3806, 3798, 0, 1, 9304, -89.900, 0.000, -38.600, 0.000, 0.000, -3.000, 0.0, , , , , , 96, , , 41, 41, 41
36.0028568, -118.5646191, 11.600, 10:31:04.477, 16, 0.00, 0.26, 97, 1.600, 1.900, -37.600, 1018, 100, 100, 19, 22915, -20648, 5215, 5377, 17, 14, 1530725464.477, 7, 0, 1024, 1024, 1024, 1024, 0, 6, 3782, 3759, 3803, 3778, 3806, 3798, 0, 1, 9401, -89.900, 0.000, -38.600, 0.000, 0.000, -3.000, 0.0, , , , , , 96, , , 41, 41, 41
36.0028567, -118.5646192, 11.800, 10:31:04.577, 15, 0.00, 0.26, 97, 1.600, 1.800, -37.500, 1018, 100, 100, 19, 22915, -20648, 5215, 5377, 17, 14, 1530725464.577, 10, 0, 1024, 1024, 1024, 1024, 0, 6, 3782, 3759, 3803, 3778, 3806, 3798, 0, 1, 9501, -89.900, 0.000, -38.600, 0.000, 0.000, -2.900, 0.0, , , , , , 96, , , 41, 41, 41
36.0028567, -118.5646192, 11.800, 10:31:04.677, 15, 0.00, 0.26, 97, 1.600, 1.800, -37.500, 1018, 100, 100, 19, 22915, -20648, 5215, 5377, 17, 14, 1530725464.677, 110, 0, 1024, 1024, 1024, 1024, 0, 6, 3782, 3759, 3803, 3778, 3806, 3798, 0, 1, 9601, -89.900, 0.000, -38.600, 0.000, 0.000, -2.900, 0.0, , , , , , 96, , , 41, 41, 41
36.0028566, -118.5646193, 12.400, 10:31:04.777, 15, 0.00, 0.27, 97, 1.700, 0.800, -37.400, 1018, 100, 100, 19, 22915, -20648, 5215, 5377, 17, 14, 1530725464.777, 6, 0, 1024, 1024, 1024, 1024, 0, 6, 3824, 3811, 3832, 3829, 3849, 3840, 0, 1, 9701, -89.900, 0.000, -38.600, 0.000, 0.000, -2.900, 0.0, , , , , , 96, , , 41, 41, 41
36.0028566, -118.5646193, 12.400, 10:31:04.877, 15, 0.00, 0.27, 97, 1.700, 0.800, -37.400, 1018, 100, 100, 19, 22915, -20648, 5215, 5377, 17, 14, 1530725464.877, 106, 0, 1024, 1024, 1024, 1024, 0, 6, 3824, 3811, 3832, 3829, 3849, 3840, 0, 1, 9801, -89.900, 0.000, -38.600, 0.000, 0.000, -2.900, 0.0, , , , , , 96, , , 41, 41, 41
36.0028565, -118.5646193, 12.700, 10:31:04.977, 15, 0.00, 0.28, 97, 1.600, 0.600, -37.400, 1018, 100, 100, 19, 22915, -20648, 5215, 5377, 17, 14, 1530725464.977, 97, 0, 1024, 1024, 1024, 1024, 0, 6, 3824, 3811, 3832, 3829, 3849, 3840, 0, 1, 9901, -90.000, 0.000, -38.600, 0.000, 0.000, -2.900, 0.0, , , , , , 96, , , 41, 41, 41
36.0028565, -118.5646194, 13.000, 10:31:05.077, 15, 0.00, 0.28, 97, 1.600, 0.600, -37.400, 1018, 100, 100, 19, 22915, -20648, 5215, 5377, 17, 14, 1530725465.077, 79, 0, 1024, 1024, 1024, 1024, 0, 6, 3824, 3811, 3832, 3829, 3849, 3840, 0, 1, 10001, -90.000, 0.000, -38.600, 0.000, 0.000, -2.900, 0.0, , , , , , 96, , , 41, 41, 41
36.0028564, -118.5646194, 13.400, 10:31:05.177, 15, 0.00, 0.28, 97, 1.500, 0.600, -37.400, 1018, 100, 100, 19, 22915, -20648, 5215, 5377, 17, 14, 1530725465.177, 93, 0, 1024, 1024, 1024, 1024, 0, 6, 3824, 3811, 3832, 3829, 3849, 3840, 0, 1, 10101, -90.000, 0.000, -38.600, 0.000, 0.000, -3.000, 0.0, , , , , , 96, , , 41, 41, 41
36.0028564, -118.5646194, 13.700, 10:31:05.277, 15, 0.00, 0.28, 97, 1.600, 0.500, -37.400, 1018, 100, 100, 19, 22915, -20648, 5215, 5377, 17, 14, 1530725465.277, 79, 0, 1024, 1024, 1024, 1024, 0, 6, 3824, 3811, 3832, 3829, 3849, 3840, 0, 1, 10201, -90.000, 0.000, -38.600, 0.000, 0.000, -3.000, 0.0, , , , , , 96, , , 41, 41, 41
36.0028563, -118.5646194, 14.000, 10:31:05.377, 15, 0.00, 0.28, 97, 1.700, 0.600, -37.500, 1018, 100, 100, 19, 22915, -20648, 5215, 5377, 17, 14, 1530725465.377, 60, 0, 1024, 1024, 1024, 1024, 0, 6, 3824, 3811, 3832, 3829, 3849, 3840, 0, 1, 10301, -90.000, 0.000, -38.600, 0.000, 0.000, -3.000, 0.0, , , , , , 96, , , 41, 41, 41
36.0028563, -118.5646194, 14.300, 10:31:05.477, 15, 0.00, 0.28, 97, 1.700, 0.500, -37.500, 1018, 100, 100, 19, 22915, -20648, 5215, 5377, 17, 14, 1530725465.478, 38, 0, 1024, 1024, 1024, 1024, 0, 6, 3824, 3811, 3832, 3829, 3849, 3840, 0, 1, 10401, -90.000, 0.000, -38.600, 0.000, 0.000, -2.900, 0.0, , , , , , 96, , , 41, 41, 41
36.0028562, -118.5646194, 14.600, 10:31:05.577, 15, 0.00, 0.28, 97, 1.800, 0.500, -37.500, 1018, 100, 100, 19, 22915, -20648, 5215, 5377, 17, 14, 1530725465.577, 52, 0, 1024, 1024, 1024, 1024, 0, 6, 3824, 3811, 3832, 3829, 3849, 3840, 0, 1, 10501, -90.000, 0.000, -38.600, 0.000, 0.000, -3.000, 0.0, , , , , , 96, , , 41, 41, 41
36.0028562, -118.5646194, 14.900, 10:31:05.677, 15, 0.00, 0.28, 97, 1.900, 0.800, -37.500, 1018, 100, 100, 19, 22915, -20648, 5215, 5377, 17, 14, 1530725465.677, 61, 0, 1024, 1024, 1024, 1024, 0, 6, 3824, 3811, 3832, 3829, 3849, 3840, 0, 1, 10601, -89.900, 0.000, -38.600, 0.000, 0.000, -2.900, 0.0, , , , , , 96, , , 41, 41, 41
36.0028562, -118.5646194, 15.200, 10:31:05.777, 15, 0.00, 0.28, 97, 1.900, 1.000, -37.400, 1018, 100, 100, 19, 22975, -19712, 5215, 5377, 17, 14, 1530725465.777, 47, 0, 1024, 1024, 1024, 1024, 0, 6, 3822, 3785, 3849, 3826, 3846, 3853, 0, 1, 10701, -89.900, 0.000, -38.600, 0.000, 0.000, -2.900, 0.0, , , , , , 96, , , 41, 41, 41
36.0028563, -118.5646193, 15.500, 10:31:05.877, 15, 0.00, 0.28, 97, 1.900, 1.100, -37.400, 1018, 100, 100, 19, 22975, -19712, 5215, 5377, 17, 14, 1530725465.877, 51, 0, 1024, 1024, 1024, 1024, 0, 6, 3822, 3785, 3849, 3826, 3846, 3853, 0, 1, 10801, -89.900, 0.000, -38.600, 0.000, 0.000, -2.900, 0.0, , , , , , 96, , , 41, 41, 41
36.0028563, -118.5646193, 15.800, 10:31:05.977, 15, 0.00, 0.27, 97, 1.600, 1.200, -37.500, 1018, 100, 100, 19, 22975, -19712, 5215, 5377, 17, 14, 1530725465.977, 30, 0, 1024, 1024, 1024, 1024, 0, 6, 3822, 3785, 3849, 3826, 3846, 3853, 0, 1, 10901, -89.900, 0.000, -38.600, 0.000, 0.000, -2.900, 0.0, , , , , , 96, , , 41, 41, 41
36.0028563, -118.5646193, 16.100, 10:31:06.077, 15, 0.00, 0.27, 97, 1.300, 1.200, -37.400, 1018, 100, 100, 19, 22975, -19712, 5215, 5377, 17, 14, 1530725466.077, 35, 0, 1024, 1024, 1024, 1024, 0, 6, 3822, 3785, 3849, 3826, 3846, 3853, 0, 1, 11001, -89.900, 0.000, -38.600, 0.000, 0.000, -2.800, 0.0, , , , , , 96, , , 41, 41, 41
36.0028564, -118.5646193, 16.400, 10:31:06.177, 15, 0.00, 0.27, 97, 1.100, 1.200, -37.400, 1018, 100, 100, 19, 22975, -19712, 5215, 5377, 17, 14, 1530725466.177, 27, 0, 1024, 1024, 1024, 1024, 0, 6, 3822, 3785, 3849, 3826, 3846, 3853, 0, 1, 11101, -89.900, 0.000, -38.600, 0.000, 0.000, -2.900, 0.0, , , , , , 96, , , 41, 41, 41
36.0028564, -118.5646193, 17.000, 10:31:06.277, 16, 0.00, 0.27, 97, 1.100, 1.200, -37.200, 1018, 100, 95, 19, 22975, -19712, 5215, 5377, 17, 14, 1530725466.277, 27, 0, 1024, 1024, 1024, 1024, 0, 6, 3822, 3785, 3849, 3826, 3846, 3853, 0, 1, 11201, -89.900, 0.000, -38.600, 0.000, 0.000, -2.900, 0.0, , , , , , 96, , , 41, 41, 41
36.0028565, -118.5646193, 17.300, 10:31:06.379, 16, 0.00, 0.27, 97, 1.300, 1.400, -37.100, 1018, 100, 95, 19, 22975, -19712, 5215, 5377, 17, 14, 1530725466.379, 3, 0, 1024, 1024, 1024, 1024, 0, 6, 3822, 3785, 3849, 3826, 3846, 3853, 0, 1, 11303, -89.900, 0.000, -38.600, 0.000, 0.000, -2.900, 0.0, , , , , , 96, , , 41, 41, 41
36.0028565, -118.5646192, 17.600, 10:31:06.477, 16, 0.00, 0.26, 97, 1.600, 1.600, -37.200, 1018, 100, 95, 19, 22975, -19712, 5215, 5377, 17, 14, 1530725466.477, 4, 0, 1024, 1024, 1024, 1024, 0, 6, 3822, 3785, 3849, 3826, 3846, 3853, 0, 1, 11400, -89.900, 0.000, -38.600, 0.000, 0.000, -2.900, 0.0, , , , , , 96, , , 41, 41, 41
36.0028566, -118.5646192, 17.900, 10:31:06.578, 16, 0.00, 0.26, 97, 1.800, 1.500, -37.200, 1018, 100, 95, 19, 22975, -19712, 5215, 5377, 17, 14, 1530725466.578, 2, 0, 1024, 1024, 1024, 1024, 0, 6, 3822, 3785, 3849, 3826, 3846, 3853, 0, 1, 11501, -89.900, 0.000, -38.600, 0.000, 0.000, -2.900, 0.0, , , , , , 96, , , 41, 41, 41
36.0028566, -118.5646192, 17.900, 10:31:06.677, 16, 0.00, 0.26, 97, 1.800, 1.500, -37.200, 1018, 100, 95, 19, 22975, -19712, 5215, 5377, 17, 14, 1530725466.677, 101, 0, 1024, 1024, 1024, 1024, 0, 6, 3822, 3785, 3849, 3826, 3846, 3853, 0, 1, 11601, -89.900, 0.000, -38.600, 0.000, 0.000, -2.900, 0.0, , , , , , 96, , , 41, 41, 41
36.0028566, -118.5646192, 18.200, 10:31:06.777, 16, 0.00, 0.26, 97, 2.000, 1.300, -37.400, 1018, 100, 95, 19, 22987, -19376, 5215, 5377, 17, 14, 1530725466.777, 92, 0, 1024, 1024, 1024, 1024, 0, 6, 3830, 3807, 3834, 3834, 3845, 3845, 0, 1, 11700, -89.900, 0.000, -38.600, 0.000, 0.000, -2.900, 0.0, , , , , , 96, , , 41, 41, 41
36.0028566, -118.5646192, 18.500, 10:31:06.877, 16, 0.00, 0.26, 97, 2.200, 1.100, -37.500, 1018, 100, 95, 19, 22987, -19376, 5215, 5377, 17, 14, 1530725466.877, 97, 0, 1024, 1024, 1024, 1024, 0, 6, 3830, 3807, 3834, 3834, 3845, 3845, 0, 1, 11801, -89.900, 0.000, -38.600, 0.000, 0.000, -2.900, 0.0, , , , , , 96, , , 41, 41, 41
36.0028566, -118.5646191, 18.800, 10:31:06.977, 16, 0.00, 0.26, 97, 2.200, 1.200, -37.700, 1018, 100, 95, 19, 22987, -19376, 5215, 5377, 17, 14, 1530725466.978, 88, 0, 1024, 1024, 1024, 1024, 0, 6, 3830, 3807, 3834, 3834, 3845, 3845, 0, 1, 11901, -89.900, 0.000, -38.600, 0.000, 0.000, -2.900, 0.0, , , , , , 96, , , 41, 41, 41
36.0028566, -118.5646191, 19.100, 10:31:07.077, 16, 0.00, 0.26, 97, 2.000, 1.100, -37.800, 1018, 100, 95, 19, 22987, -19376, 5215, 5377, 17, 14, 1530725467.077, 80, 0, 1024, 1024, 1024, 1024, 0, 6, 3830, 3807, 3834, 3834, 3845, 3845, 0, 1, 12001, -89.900, 0.000, -38.600, 0.000, 0.000, -2.800, 0.0, , , , , , 96, , , 41, 41, 41
36.0028567, -118.5646191, 19.400, 10:31:07.177, 16, 0.00, 0.25, 97, 1.900, 1.100, -37.700, 1018, 100, 95, 19, 22987, -19376, 5215, 5377, 17, 14, 1530725467.177, 78, 0, 1024, 1024, 1024, 1024, 0, 6, 3830, 3807, 3834, 3834, 3845, 3845, 0, 1, 12101, -89.900, 0.000, -38.600, 0.000, 0.000, -2.900, 0.0, , , , , , 96, , , 41, 41, 41
36.0028568, -118.5646190, 19.700, 10:31:07.277, 16, 0.00, 0.25, 97, 1.700, 1.200, -37.700, 1018, 100, 95, 19, 22987, -19376, 5215, 5377, 17, 14, 1530725467.277, 31, 0, 1024, 1024, 1024, 1024, 0, 6, 3830, 3807, 3834, 3834, 3845, 3845, 0, 1, 12201, -89.900, 0.000, -38.600, 0.000, 0.000, -2.900, 0.0, , , , , , 96, , , 41, 41, 41
36.0028568, -118.5646190, 20.000, 10:31:07.377, 16, 0.00, 0.25, 97, 1.500, 1.400, -37.600, 1018, 100, 99, 19, 22987, -19376, 5215, 5377, 17, 14, 1530725467.377, 73, 0, 1024, 1024, 1024, 1024, 0, 6, 3830, 3807, 3834, 3834, 3845, 3845, 0, 1, 12301, -89.900, 0.000, -38.600, 0.000, 0.000, -2.900, 0.0, , , , , , 96, , , 41, 41, 41
36.0028569, -118.5646189, 20.300, 10:31:07.477, 16, 0.00, 0.25, 97, 1.400, 1.400, -37.500, 1018, 100, 99, 19, 22987, -19376, 5215, 5377, 17, 14, 1530725467.477, 55, 0, 1024, 1024, 1024, 1024, 0, 6, 3830, 3807, 3834, 3834, 3845, 3845, 0, 1, 12401, -89.900, 0.000, -38.600, 0.000, 0.000, -2.900, 0.0, , , , , , 96, , , 41, 41, 41
36.0028569, -118.5646189, 20.300, 10:31:07.577, 16, 0.00, 0.25, 97, 1.400, 1.400, -37.500, 1018, 100, 99, 19, 22987, -19376, 5215, 5377, 17, 14, 1530725467.577, 155, 0, 1024, 1024, 1024, 1024, 0, 6, 3830, 3807, 3834, 3834, 3845, 3845, 0, 1, 12501, -89.900, 0.000, -38.600, 0.000, 0.000, -2.900, 0.0, , , , , , 96, , , 41, 41, 41
36.0028571, -118.5646188, 20.900, 10:31:07.677, 16, 0.00, 0.24, 97, 1.200, 1.400, -37.500, 1018, 100, 99, 19, 22987, -19376, 5215, 5377, 17, 14, 1530725467.677, 61, 0, 1024, 1024, 1024, 1024, 0, 6, 3830, 3807, 3834, 3834, 3845, 3845, 0, 1, 12601, -89.900, 0.000, -38.600, 0.000, 0.000, -2.900, 0.0, , , , , , 96, , , 41, 41, 41
36.0028571, -118.5646187, 21.200, 10:31:07.777, 16, 0.00, 0.23, 97, 0.900, 1.600, -37.500, 1018, 100, 99, 19, 22943, -19425, 5215, 5377, 17, 14, 1530725467.777, 51, 0, 1024, 1024, 1024, 1024, 0, 6, 3818, 3800, 3824, 3820, 3842, 3833, 0, 1, 12701, -89.900, 0.000, -38.600, 0.000, 0.000, -2.800, 0.0, , , , , , 96, , , 41, 41, 41
36.0028572, -118.5646187, 21.500, 10:31:07.877, 16, 0.00, 0.23, 97, 0.600, 1.900, -37.600, 1018, 100, 96, 19, 22943, -19425, 5215, 5377, 17, 14, 1530725467.877, 43, 0, 1024, 1024, 1024, 1024, 0, 6, 3818, 3800, 3824, 3820, 3842, 3833, 0, 1, 12800, -89.900, 0.000, -38.600, 0.000, 0.000, -2.900, 0.0, , , , , , 96, , , 41, 41, 41
36.0028573, -118.5646187, 21.800, 10:31:07.977, 16, 0.00, 0.24, 97, 0.500, 2.000, -37.700, 1018, 100, 96, 19, 22943, -19425, 5215, 5377, 17, 14, 1530725467.977, 46, 0, 1024, 1024, 1024, 1024, 0, 6, 3818, 3800, 3824, 3820, 3842, 3833, 0, 1, 12901, -89.900, 0.000, -38.600, 0.000, 0.000, -2.900, 0.0, , , , , , 96, , , 41, 41, 41
36.0028574, -118.5646186, 22.100, 10:31:08.077, 16, 0.00, 0.24, 97, 0.700, 2.200, -37.800, 1018, 100, 96, 19, 22943, -19425, 5215, 5377, 17, 14, 1530725468.077, 51, 0, 1024, 1024, 1024, 1024, 0, 6, 3818, 3800, 3824, 3820, 3842, 3833, 0, 1, 13001, -89.900, 0.000, -38.600, 0.000, 0.000, -2.900, 0.0, , , , , , 96, , , 41, 41, 41
36.0028574, -118.5646186, 22.100, 10:31:08.177, 16, 0.00, 0.24, 97, 0.700, 2.200, -37.800, 1018, 100, 96, 19, 22943, -19425, 5215, 5377, 17, 14, 1530725468.177, 151, 0, 1024, 1024, 1024, 1024, 0, 6, 3818, 3800, 3824, 3820, 3842, 3833, 0, 1, 13101, -89.900, 0.000, -38.600, 0.000, 0.000, -2.900, 0.0, , , , , , 96, , , 41, 41, 41
36.0028575, -118.5646186, 22.700, 10:31:08.277, 16, 0.00, 0.24, 97, 0.800, 1.900, -37.900, 1018, 100, 96, 19, 22943, -19425, 5215, 5377, 17, 14, 1530725468.277, 44, 0, 1024, 1024, 1024, 1024, 0, 6, 3818, 3800, 3824, 3820, 3842, 3833, 0, 1, 13201, -89.900, 0.000, -38.600, 0.000, 0.000, -2.900, 0.0, , , , , , 96, , , 41, 41, 41
36.0028575, -118.5646186, 23.000, 10:31:08.377, 16, 0.00, 0.24, 97, 1.000, 1.800, -38.000, 1018, 100, 95, 19, 22943, -19425, 5215, 5377, 17, 14, 1530725468.377, 16, 0, 1024, 1024, 1024, 1024, 0, 6, 3818, 3800, 3824, 3820, 3842, 3833, 0, 1, 13301, -89.900, 0.000, -38.600, 0.000, 0.000, -2.900, 0.0, , , , , , 96, , , 41, 41, 41
36.0028575, -118.5646185, 23.300, 10:31:08.477, 16, 0.00, 0.24, 97, 1.300, 1.800, -38.000, 1018, 100, 95, 19, 22943, -19425, 5215, 5377, 17, 14, 1530725468.477, 18, 0, 1024, 1024, 1024, 1024, 0, 6, 3818, 3800, 3824, 3820, 3842, 3833, 0, 1, 13401, -89.900, 0.000, -38.600, 0.000, 0.000, -3.000, 0.0, , , , , , 96, , , 41, 41, 41
36.0028575, -118.5646185, 23.600, 10:31:08.577, 16, 0.00, 0.24, 97, 1.700, 1.700, -38.000, 1018, 100, 95, 19, 22943, -19425, 5215, 5377, 17, 14, 1530725468.577, 19, 0, 1024, 1024, 1024, 1024, 0, 6, 3818, 3800, 3824, 3820, 3842, 3833, 0, 1, 13501, -89.900, 0.000, -38.600, 0.000, 0.000, -3.000, 0.0, , , , , , 96, , , 41, 41, 41
36.0028575, -118.5646185, 24.200, 10:31:08.677, 16, 0.00, 0.23, 97, 1.700, 1.500, -37.600, 1018, 100, 95, 19, 22943, -19425, 5215, 5377, 17, 14, 1530725468.678, 3, 0, 1024, 1024, 1024, 1024, 0, 6, 3818, 3800, 3824, 3820, 3842, 3833, 0, 1, 13601, -89.900, 0.000, -38.600, 0.000, 0.000, -3.000, 0.0, , , , , , 96, , , 41, 41, 41
36.0028575, -118.5646184, 24.500, 10:31:08.777, 16, 0.00, 0.23, 97, 1.500, 1.400, -37.400, 1018, 100, 95, 19, 22834, -20100, 5215, 5377, 17, 14, 1530725468.777, 16, 0, 1024, 1024, 1024, 1024, 0, 6, 3794, 3790, 3808, 3801, 3832, 3815, 0, 1, 13701, -90.000, 0.000, -38.600, 0.000, 0.000, -2.900, 0.0, , , , , , 96, , , 41, 41, 41
36.0028576, -118.5646184, 24.800, 10:31:08.877, 16, 0.00, 0.23, 97, 1.300, 1.300, -37.200, 1018, 100, 97, 19, 22834, -20100, 5215, 5377, 17, 14, 1530725468.877, 19, 0, 1024, 1024, 1024, 1024, 0, 6, 3794, 3790, 3808, 3801, 3832, 3815, 0, 1, 13801, -90.000, 0.000, -38.600, 0.000, 0.000, -2.900, 0.0, , , , , , 96, , , 41, 41, 41
36.0028576, -118.5646183, 25.100, 10:31:08.977, 16, 0.00, 0.23, 97, 1.100, 1.300, -37.100, 1018, 100, 97, 19, 22834, -20100, 5215, 5377, 17, 14, 1530725468.977, 11, 0, 1024, 1024, 1024, 1024, 0, 6, 3794, 3790, 3808, 3801, 3832, 3815, 0, 1, 13901, -89.900, 0.000, -38.600, 0.000, 0.000, -2.900, 0.0, , , , , , 96, , , 41, 41, 41
36.0028575, -118.5646183, 25.400, 10:31:09.077, 16, 0.00, 0.22, 97, 1.200, 1.200, -37.000, 1018, 100, 97, 19, 22834, -20100, 5215, 5377, 17, 14, 1530725469.077, 13, 0, 1024, 1024, 1024, 1024, 0, 6, 3794, 3790, 3808, 3801, 3832, 3815, 0, 1, 14001, -90.000, 0.000, -38.600, 0.000, 0.000, -2.900, 0.0, , , , , , 96, , , 41, 41, 41
36.0028575, -118.5646183, 25.400, 10:31:09.177, 16, 0.00, 0.22, 97, 1.200, 1.200, -37.000, 1018, 100, 97, 19, 22834, -20100, 5215, 5377, 17, 14, 1530725469.177, 113, 0, 1024, 1024, 1024, 1024, 0, 6, 3794, 3790, 3808, 3801, 3832, 3815, 0, 1, 14101, -90.000, 0.000, -38.600, 0.000, 0.000, -2.900, 0.0, , , , , , 96, , , 41, 41, 41
36.0028575, -118.5646183, 25.700, 10:31:09.277, 16, 0.00, 0.22, 97, 1.600, 1.000, -37.000, 1018, 100, 97, 19, 22834, -20100, 5215, 5377, 17, 14, 1530725469.277, 80, 0, 1024, 1024, 1024, 1024, 0, 6, 3794, 3790, 3808, 3801, 3832, 3815, 0, 1, 14201, -90.000, 0.000, -38.600, 0.000, 0.000, -2.900, 0.0, , , , , , 96, , , 41, 41, 41
36.0028576, -118.5646183, 26.000, 10:31:09.377, 16, 0.00, 0.22, 97, 1.700, 0.900, -37.100, 1018, 100, 99, 19, 22834, -20100, 5215, 5377, 17, 14, 1530725469.377, 70, 0, 1024, 1024, 1024, 1024, 0, 6, 3794, 3790, 3808, 3801, 3832, 3815, 0, 1, 14301, -90.000, 0.000, -38.600, 0.000, 0.000, -2.900, 0.0, , , , , , 96, , , 41, 41, 41
36.0028576, -118.5646183, 26.300, 10:31:09.477, 16, 0.00, 0.23, 97, 1.600, 1.000, -37.200, 1018, 100, 99, 19, 22834, -20100, 5215, 5377, 17, 14, 1530725469.477, 82, 0, 1024, 1024, 1024, 1024, 0, 6, 3794, 3790, 3808, 3801, 3832, 3815, 0, 1, 14400, -90.000, 0.000, -38.600, 0.000, 0.000, -2.900, 0.0, , , , , , 96, , , 41, 41, 41
36.0028576, -118.5646184, 26.600, 10:31:09.577, 16, 0.00, 0.23, 97, 1.500, 1.200, -37.200, 1018, 100, 99, 19, 22834, -20100, 5215, 5377, 17, 14, 1530725469.577, 87, 0, 1024, 1024, 1024, 1024, 0, 6, 3794, 3790, 3808, 3801, 3832, 3815, 0, 1, 14501, -89.900, 0.000, -38.600, 0.000, 0.000, -2.900, 0.0, , , , , , 96, , , 41, 41, 41
36.0028576, -118.5646184, 26.900, 10:31:09.677, 16, 0.00, 0.23, 97, 1.700, 1.500, -37.300, 1018, 100, 99, 19, 22834, -20100, 5215, 5377, 17, 14, 1530725469.677, 71, 0, 1024, 1024, 1024, 1024, 0, 6, 3794, 3790, 3808, 3801, 3832, 3815, 0, 1, 14601, -89.900, 0.000, -38.600, 0.000, 0.000, -2.900, 0.0, , , , , , 96, , , 41, 41, 41
36.0028576, -118.5646184, 27.200, 10:31:09.777, 16, 0.00, 0.23, 97, 1.800, 1.700, -37.400, 1018, 100, 99, 19, 22893, -19275, 5215, 5377, 17, 14, 1530725469.777, 85, 0, 1024, 1024, 1024, 1024, 0, 6, 3794, 3790, 3808, 3801, 3832, 3815, 0, 1, 14701, -89.900, 0.000, -38.600, 0.000, 0.000, -2.900, 0.0, , , , , , 96, , , 41, 41, 41
36.0028576, -118.5646184, 27.500, 10:31:09.877, 16, 0.00, 0.23, 97, 1.900, 2.000, -37.600, 1018, 100, 100, 19, 22893, -19275, 5215, 5377, 17, 14, 1530725469.877, 87, 0, 1024, 1024, 1024, 1024, 0, 6, 3794, 3790, 3808, 3801, 3832, 3815, 0, 1, 14801, -89.900, 0.000, -38.600, 0.000, 0.000, -2.900, 0.0, , , , , , 96, , , 41, 41, 41
36.0028577, -118.5646184, 27.800, 10:31:09.977, 16, 0.00, 0.24, 97, 2.000, 2.200, -37.700, 1018, 100, 100, 19, 22893, -19275, 5215, 5377, 17, 14, 1530725469.977, 68, 0, 1024, 1024, 1024, 1024, 0, 6, 3794, 3790, 3808, 3801, 3832, 3815, 0, 1, 14901, -89.900, 0.000, -38.600, 0.000, 0.000, -2.900, 0.0, , , , , , 96, , , 41, 41, 41
36.0028577, -118.5646184, 28.100, 10:31:10.077, 16, 0.00, 0.24, 97, 1.800, 2.000, -37.900, 1018, 100, 100, 19, 22893, -19275, 5215, 5377, 17, 14, 1530725470.077, 71, 0, 1024, 1024, 1024, 1024, 0, 6, 3794, 3790, 3808, 3801, 3832, 3815, 0, 1, 15000, -89.900, 0.000, -38.600, 0.000, 0.000, -2.800, 0.0, , , , , , 96, , , 41, 41, 41
36.0028578, -118.5646184, 28.400, 10:31:10.177, 16, 0.00, 0.24, 97, 1.400, 1.900, -38.000, 1018, 100, 100, 19, 22893, -19275, 5215, 5377, 17, 14, 1530725470.177, 77, 0, 1024, 1024, 1024, 1024, 0, 6, 3794, 3790, 3808, 3801, 3832, 3815, 0, 1, 15101, -89.900, 0.000, -38.600, 0.000, 0.000, -2.900, 0.0, , , , , , 96, , , 41, 41, 41
36.0028578, -118.5646183, 28.700, 10:31:10.277, 16, 0.00, 0.24, 96, 1.100, 1.700, -38.000, 1018, 100, 100, 19, 22893, -19275, 5161, 5377, 17, 14, 1530725470.277, 55, 0, 1024, 1024, 1024, 1024, 0, 6, 3807, 3788, 3831, 3806, 3826, 3825, 0, 1, 15201, -89.900, 0.000, -38.600, 0.000, 0.000, -3.000, 0.0, , , , , , 96, , , 41, 41, 41
36.0028578, -118.5646183, 29.000, 10:31:10.377, 16, 0.00, 0.24, 96, 1.000, 1.500, -38.000, 1018, 100, 100, 19, 22893, -19275, 5161, 5377, 17, 14, 1530725470.377, 49, 0, 1024, 1024, 1024, 1024, 0, 6, 3807, 3788, 3831, 3806, 3826, 3825, 0, 1, 15301, -89.900, 0.000, -38.600, 0.000, 0.000, -3.000, 0.0, , , , , , 96, , , 41, 41, 41
36.0028579, -118.5646183, 29.300, 10:31:10.477, 16, 0.00, 0.24, 96, 0.900, 1.700, -37.800, 1018, 100, 100, 19, 22893, -19275, 5161, 5377, 17, 14, 1530725470.477, 41, 0, 1024, 1024, 1024, 1024, 0, 6, 3807, 3788, 3831, 3806, 3826, 3825, 0, 1, 15400, -89.900, 0.000, -38.600, 0.000, 0.000, -3.000, 0.0, , , , , , 96, , , 41, 41, 41
36.0028579, -118.5646183, 29.600, 10:31:10.577, 16, 0.00, 0.24, 96, 1.100, 1.800, -37.600, 1018, 100, 100, 19, 22893, -19275, 5161, 5377, 17, 14, 1530725470.577, 44, 0, 1024, 1024, 1024, 1024, 0, 6, 3807, 3788, 3831, 3806, 3826, 3825, 0, 1, 15501, -89.900, 0.000, -38.600, 0.000, 0.000, -3.000, 0.0, , , , , , 96, , , 41, 41, 41
36.0028579, -118.5646183, 29.900, 10:31:10.677, 16, 0.00, 0.24, 96, 1.400, 1.800, -37.400, 1018, 100, 100, 19, 22893, -19275, 5161, 5377, 17, 14, 1530725470.677, 36, 0, 1024, 1024, 1024, 1024, 0, 6, 3807, 3788, 3831, 3806, 3826, 3825, 0, 1, 15601, -89.900, 0.000, -38.600, 0.000, 0.000, -2.900, 0.0, , , , , , 96, , , 41, 41, 41
36.0028579, -118.5646183, 30.200, 10:31:10.777, 16, 0.00, 0.24, 96, 1.400, 1.600, -37.300, 1018, 100, 100, 19, 22893, -19275, 5161, 5377, 17, 14, 1530725470.777, 48, 0, 1024, 1024, 1024, 1024, 0, 6, 3807, 3788, 3831, 3806, 3826, 3825, 0, 1, 15701, -89.900, 0.000, -38.600, 0.000, 0.000, -2.900, 0.0, , , , , , 96, , , 41, 41, 41
36.0028578, -118.5646183, 30.800, 10:31:10.877, 16, 0.00, 0.24, 96, 1.900, 1.200, -37.300, 1018, 100, 100, 19, 22893, -19275, 5161, 5377, 17, 14, 1530725470.877, 37, 0, 1024, 1024, 1024, 1024, 0, 6, 3807, 3788, 3831, 3806, 3826, 3825, 0, 1, 15800, -90.000, 0.000, -38.600, 0.000, 0.000, -3.000, 0.0, , , , , , 96, , , 41, 41, 41
36.0028578, -118.5646183, 31.100, 10:31:10.977, 16, 0.00, 0.24, 96, 1.800, 1.300, -37.300, 1018, 100, 100, 19, 22893, -19275, 5161, 5377, 17, 14, 1530725470.977, 43, 0, 1024, 1024, 1024, 1024, 0, 6, 3807, 3788, 3831, 3806, 3826, 3825, 0, 1, 15901, -89.900, 0.000, -38.600, 0.000, 0.000, -2.900, 0.0, , , , , , 96, , , 41, 41, 41
36.0028578, -118.5646183, 31.400, 10:31:11.077, 16, 0.00, 0.23, 96, 1.700, 1.400, -37.300, 1018, 100, 100, 19, 22893, -19275, 5161, 5377, 17, 14, 1530725471.077, 35, 0, 1024, 1024, 1024, 1024, 0, 6, 3807, 3788, 3831, 3806, 3826, 3825, 0, 1, 16000, -89.900, 0.000, -38.600, 0.000, 0.000, -2.800, 0.0, , , , , , 96, , , 41, 41, 41
36.0028578, -118.5646183, 31.700, 10:31:11.177, 16, 0.00, 0.24, 96, 1.600, 1.500, -37.300, 1018, 100, 100, 19, 22893, -19275, 5161, 5377, 17, 14, 1530725471.177, 23, 0, 1024, 1024, 1024, 1024, 0, 6, 3807, 3788, 3831, 3806, 3826, 3825, 0, 1, 16101, -89.900, 0.000, -38.600, 0.000, 0.000, -2.900, 0.0, , , , , , 96, , , 41, 41, 41
36.0028578, -118.5646183, 32.000, 10:31:11.280, 16, 0.00, 0.24, 96, 1.400, 1.300, -37.400, 1018, 100, 100, 19, 22858, -19800, 5161, 5377, 17, 14, 1530725471.281, 4, 0, 1024, 1024, 1024, 1024, 0, 6, 3801, 3789, 3811, 3812, 3816, 3818, 0, 1, 16204, -89.900, 0.000, -38.600, 0.000, 0.000, -2.800, 0.0, , , , , , 96, , , 41, 41, 41
36.0028578, -118.5646183, 32.300, 10:31:11.377, 16, 0.00, 0.24, 96, 1.100, 1.200, -37.500, 1018, 100, 100, 19, 22858, -19800, 5161, 5377, 17, 14, 1530725471.377, 4, 0, 1024, 1024, 1024, 1024, 0, 6, 3801, 3789, 3811, 3812, 3816, 3818, 0, 1, 16301, -90.000, 0.000, -38.600, 0.000, 0.000, -2.800, 0.0, , , , , , 96, , , 41, 41, 41
36.0028578, -118.5646184, 32.600, 10:31:11.480, 16, 0.00, 0.25, 96, 1.000, 1.400, -37.500, 1018, 100, 100, 19, 22858, -19800, 5161, 5377, 17, 14, 1530725471.480, 3, 0, 1024, 1024, 1024, 1024, 0, 6, 3801, 3789, 3811, 3812, 3816, 3818, 0, 1, 16404, -89.900, 0.000, -38.600, 0.000, 0.000, -2.900, 0.0, , , , , , 96, , , 41, 41, 41
36.0028578, -118.5646184, 32.600, 10:31:11.577, 16, 0.00, 0.25, 96, 1.000, 1.400, -37.500, 1018, 100, 100, 19, 22858, -19800, 5161, 5377, 17, 14, 1530725471.577, 100, 0, 1024, 1024, 1024, 1024, 0, 6, 3801, 3789, 3811, 3812, 3816, 3818, 0, 1, 16500, -89.900, 0.000, -38.600, 0.000, 0.000, -2.900, 0.0, , , , , , 96, , , 41, 41, 41
36.0028579, -118.5646184, 32.900, 10:31:11.677, 16, 0.00, 0.25, 96, 1.300, 2.000, -37.400, 1018, 100, 100, 19, 22858, -19800, 5161, 5377, 17, 14, 1530725471.677, 80, 0, 1024, 1024, 1024, 1024, 0, 6, 3801, 3789, 3811, 3812, 3816, 3818, 0, 1, 16601, -89.900, 0.000, -38.600, 0.000, 0.000, -2.800, 0.0, , , , , , 96, , , 41, 41, 41
36.0028579, -118.5646185, 33.200, 10:31:11.777, 16, 0.00, 0.26, 96, 1.600, 2.600, -37.200, 1018, 100, 100, 19, 22858, -19800, 5161, 5377, 17, 14, 1530725471.777, 92, 0, 1024, 1024, 1024, 1024, 0, 6, 3801, 3789, 3811, 3812, 3816, 3818, 0, 1, 16700, -89.900, 0.000, -38.600, 0.000, 0.000, -2.800, 0.0, , , , , , 96, , , 41, 41, 41
36.0028579, -118.5646187, 33.500, 10:31:11.877, 16, 0.00, 0.27, 96, 1.800, 3.100, -37.000, 1018, 100, 100, 19, 22858, -19800, 5161, 5377, 17, 14, 1530725471.877, 80, 0, 1024, 1024, 1024, 1024, 0, 6, 3801, 3789, 3811, 3812, 3816, 3818, 0, 1, 16800, -89.900, 0.000, -38.600, 0.000, 0.000, -2.900, 0.0, , , , , , 96, , , 41, 41, 41
36.0028580, -118.5646188, 33.800, 10:31:11.977, 16, 0.00, 0.29, 96, 2.200, 3.400, -36.900, 1018, 100, 100, 19, 22858, -19800, 5161, 5377, 17, 14, 1530725471.977, 79, 0, 1024, 1024, 1024, 1024, 0, 6, 3801, 3789, 3811, 3812, 3816, 3818, 0, 1, 16900, -89.900, 0.000, -38.600, 0.000, 0.000, -3.000, 0.0, , , , , , 96, , , 41, 41, 41
36.0028580, -118.5646189, 34.100, 10:31:12.077, 16, 0.00, 0.29, 96, 2.200, 3.600, -37.100, 1018, 100, 100, 19, 22858, -19800, 5161, 5377, 17, 14, 1530725472.077, 68, 0, 1024, 1024, 1024, 1024, 0, 6, 3801, 3789, 3811, 3812, 3816, 3818, 0, 1, 17001, -89.900, 0.000, -38.600, 0.000, 0.000, -3.000, 0.0, , , , , , 96, , , 41, 41, 41
36.0028580, -118.5646190, 34.400, 10:31:12.177, 16, 0.00, 0.30, 96, 2.000, 3.600, -37.300, 1018, 100, 100, 19, 22858, -19800, 5161, 5377, 17, 14, 1530725472.177, 68, 0, 1024, 1024, 1024, 1024, 0, 6, 3801, 3789, 3811, 3812, 3816, 3818, 0, 1, 17101, -89.900, 0.000, -38.600, 0.000, 0.000, -3.000, 0.0, , , , , , 96, , , 41, 41, 41
36.0028581, -118.5646190, 34.700, 10:31:12.285, 16, 0.00, 0.31, 96, 1.900, 3.500, -37.500, 1018, 100, 100, 19, 22921, -18982, 5161, 5377, 17, 14, 1530725472.286, 80, 0, 1024, 1024, 1024, 1024, 0, 6, 3814, 3800, 3822, 3824, 3822, 3831, 0, 1, 17209, -89.900, 0.000, -38.600, 0.000, 0.000, -2.900, 0.0, , , , , , 96, , , 41, 41, 41
36.0028581, -118.5646191, 35.000, 10:31:12.376, 16, 0.00, 0.32, 96, 1.900, 3.600, -37.700, 1018, 100, 100, 19, 22921, -18982, 5161, 5377, 17, 14, 1530725472.376, 60, 0, 1024, 1024, 1024, 1024, 0, 6, 3814, 3800, 3822, 3824, 3822, 3831, 0, 1, 17300, -89.900, 0.000, -38.600, 0.000, 0.000, -2.900, 0.0, , , , , , 96, , , 41, 41, 41
36.0028581, -118.5646192, 35.300, 10:31:12.477, 16, 0.00, 0.33, 96, 1.800, 3.700, -37.800, 1018, 100, 100, 19, 22921, -18982, 5161, 5377, 17, 14, 1530725472.477, 53, 0, 1024, 1024, 1024, 1024, 0, 6, 3814, 3800, 3822, 3824, 3822, 3831, 0, 1, 17400, -89.900, 0.000, -38.600, 0.000, 0.000, -2.900, 0.0, , , , , , 96, , , 41, 41, 41
36.0028582, -118.5646192, 35.600, 10:31:12.577, 16, 0.00, 0.33, 96, 1.400, 3.700, -37.800, 1018, 100, 100, 19, 22921, -18982, 5161, 5377, 17, 14, 1530725472.577, 61, 0, 1024, 1024, 1024, 1024, 0, 6, 3814, 3800, 3822, 3824, 3822, 3831, 0, 1, 17501, -89.900, 0.000, -38.600, 0.000, 0.000, -2.900, 0.0, , , , , , 96, , , 41, 41, 41
36.0028582, -118.5646193, 35.900, 10:31:12.677, 16, 0.00, 0.34, 96, 1.100, 3.600, -37.700, 1018, 100, 100, 19, 22921, -18982, 5161, 5377, 17, 14, 1530725472.677, 30, 0, 1024, 1024, 1024, 1024, 0, 6, 3814, 3800, 3822, 3824, 3822, 3831, 0, 1, 17600, -89.900, 0.000, -38.600, 0.000, 0.000, -2.900, 0.0, , , , , , 96, , , 41, 41, 41
36.0028582, -118.5646194, 36.200, 10:31:12.777, 16, 0.00, 0.34, 96, 1.200, 3.500, -37.600, 1018, 100, 100, 19, 22921, -18982, 5161, 5377, 17, 14, 1530725472.777, 32, 0, 1024, 1024, 1024, 1024, 0, 6, 3814, 3800, 3822, 3824, 3822, 3831, 0, 1, 17700, -89.900, 0.000, -38.600, 0.000, 0.000, -2.900, 0.0, , , , , , 96, , , 41, 41, 41
36.0028582, -118.5646195, 36.800, 10:31:12.877, 16, 0.00, 0.35, 96, 2.000, 3.500, -37.300, 1018, 100, 99, 19, 22921, -18982, 5161, 5377, 17, 14, 1530725472.878, 37, 0, 1024, 1024, 1024, 1024, 0, 6, 3814, 3800, 3822, 3824, 3822, 3831, 0, 1, 17802, -89.900, 0.000, -38.600, 0.000, 0.000, -3.000, 0.0, , , , , , 96, , , 41, 41, 41
36.0028582, -118.5646196, 37.100, 10:31:12.977, 16, 0.00, 0.36, 96, 2.300, 3.700, -37.300, 1018, 100, 99, 19, 22921, -18982, 5161, 5377, 17, 14, 1530725472.977, 26, 0, 1024, 1024, 1024, 1024, 0, 6, 3814, 3800, 3822, 3824, 3822, 3831, 0, 1, 17900, -89.900, 0.000, -38.600, 0.000, 0.000, -2.900, 0.0, , , , , , 96, , , 41, 41, 41
36.0028582, -118.5646196, 37.100, 10:31:13.077, 16, 0.00, 0.36, 96, 2.300, 3.700, -37.300, 1018, 100, 99, 19, 22921, -18982, 5161, 5377, 17, 14, 1530725473.077, 126, 0, 1024, 1024, 1024, 1024, 0, 6, 3814, 3800, 3822, 3824, 3822, 3831, 0, 1, 18001, -89.900, 0.000, -38.600, 0.000, 0.000, -2.900, 0.0, , , , , , 96, , , 41, 41, 41
36.0028581, -118.5646197, 37.700, 10:31:13.181, 16, 0.00, 0.36, 96, 2.200, 3.300, -37.100, 1018, 100, 99, 19, 22921, -18982, 5161, 5377, 17, 14, 1530725473.181, 2, 0, 1024, 1024, 1024, 1024, 0, 6, 3814, 3800, 3822, 3824, 3822, 3831, 0, 1, 18104, -89.900, 0.000, -38.600, 0.000, 0.000, -2.900, 0.0, , , , , , 96, , , 41, 41, 41
36.0028581, -118.5646198, 38.000, 10:31:13.277, 16, 0.00, 0.37, 96, 2.400, 3.400, -37.100, 1018, 100, 99, 19, 22853, -19222, 5161, 5377, 17, 14, 1530725473.277, 17, 0, 1024, 1024, 1024, 1024, 0, 6, 3807, 3784, 3817, 3815, 3826, 3826, 0, 1, 18201, -89.900, 0.000, -38.600, 0.000, 0.000, -2.900, 0.0, , , , , , 96, , , 41, 41, 41
36.0028581, -118.5646198, 38.300, 10:31:13.377, 16, 0.00, 0.37, 96, 2.400, 3.600, -37.200, 1018, 100, 99, 19, 22853, -19222, 5161, 5377, 17, 14, 1530725473.377, 6, 0, 1024, 1024, 1024, 1024, 0, 6, 3807, 3784, 3817, 3815, 3826, 3826, 0, 1, 18300, -89.900, 0.000, -38.600, 0.000, 0.000, -2.900, 0.0, , , , , , 96, , , 41, 41, 41
36.0028581, -118.5646198, 38.300, 10:31:13.477, 16, 0.00, 0.37, 96, 2.400, 3.600, -37.200, 1018, 100, 99, 19, 22853, -19222, 5161, 5377, 17, 14, 1530725473.477, 107, 0, 1024, 1024, 1024, 1024, 0, 6, 3807, 3784, 3817, 3815, 3826, 3826, 0, 1, 18401, -89.900, 0.000, -38.600, 0.000, 0.000, -2.900, 0.0, , , , , , 96, , , 41, 41, 41
36.0028581, -118.5646199, 38.800, 10:31:13.585, 16, 0.00, 0.38, 96, 2.000, 3.600, -37.400, 1018, 100, 99, 19, 22853, -19222, 5161, 5377, 17, 14, 1530725473.586, 4, 0, 1024, 1024, 1024, 1024, 0, 6, 3807, 3784, 3817, 3815, 3826, 3826, 0, 1, 18509, -89.900, 0.000, -38.600, 0.000, 0.000, -2.800, 0.0, , , , , , 96, , , 41, 41, 41
36.0028581, -118.5646199, 38.800, 10:31:13.677, 16, 0.00, 0.38, 96, 2.000, 3.600, -37.400, 1018, 100, 99, 19, 22853, -19222, 5161, 5377, 17, 14, 1530725473.677, 95, 0, 1024, 1024, 1024, 1024, 0, 6, 3807, 3784, 3817, 3815, 3826, 3826, 0, 1, 18601, -89.900, 0.000, -38.600, 0.000, 0.000, -2.800, 0.0, , , , , , 96, , , 41, 41, 41
36.0028581, -118.5646200, 39.100, 10:31:13.777, 16, 0.00, 0.38, 96, 1.900, 3.700, -37.400, 1018, 100, 99, 19, 22853, -19222, 5161, 5377, 17, 14, 1530725473.777, 95, 0, 1024, 1024, 1024, 1024, 0, 6, 3807, 3784, 3817, 3815, 3826, 3826, 0, 1, 18701, -89.900, 0.000, -38.600, 0.000, 0.000, -2.800, 0.0, , , , , , 96, , , 41, 41, 41
36.0028581, -118.5646200, 39.100, 10:31:13.875, 16, 0.00, 0.38, 96, 1.900, 3.700, -37.400, 1018, 100, 99, 19, 22853, -19222, 5161, 5377, 17, 14, 1530725473.875, 193, 0, 1024, 1024, 1024, 1024, 0, 6, 3807, 3784, 3817, 3815, 3826, 3826, 0, 1, 18799, -89.900, 0.000, -38.600, 0.000, 0.000, -2.800, 0.0, , , , , , 96, , , 41, 41, 41
36.0028580, -118.5646200, 39.700, 10:31:13.977, 16, 0.00, 0.39, 96, 1.800, 4.000, -37.400, 1018, 100, 99, 19, 22853, -19222, 5161, 5377, 17, 14, 1530725473.977, 80, 0, 1024, 1024, 1024, 1024, 0, 6, 3807, 3784, 3817, 3815, 3826, 3826, 0, 1, 18900, -89.900, 0.000, -38.600, 0.000, 0.000, -3.000, 0.0, , , , , , 96, , , 41, 41, 41
36.0028580, -118.5646200, 40.000, 10:31:14.076, 16, 0.00, 0.38, 96, 1.700, 3.900, -37.400, 1018, 100, 99, 19, 22853, -19222, 5161, 5377, 17, 14, 1530725474.076, 56, 0, 1024, 1024, 1024, 1024, 0, 6, 3807, 3784, 3817, 3815, 3826, 3826, 0, 1, 19000, -89.900, 0.000, -38.600, 0.000, 0.000, -3.000, 0.0, , , , , , 96, , , 41, 41, 41
36.0028580, -118.5646200, 40.300, 10:31:14.176, 16, 0.00, 0.38, 96, 1.800, 3.700, -37.400, 1018, 100, 99, 19, 22853, -19222, 5161, 5377, 17, 14, 1530725474.176, 75, 0, 1024, 1024, 1024, 1024, 0, 6, 3807, 3784, 3817, 3815, 3826, 3826, 0, 1, 19100, -89.900, 0.000, -38.600, 0.000, 0.000, -2.900, 0.0, , , , , , 96, , , 41, 41, 41
36.0028580, -118.5646200, 40.600, 10:31:14.276, 16, 0.00, 0.38, 96, 1.900, 3.400, -37.400, 1018, 100, 99, 19, 22841, -19385, 5161, 5377, 17, 14, 1530725474.276, 68, 0, 1024, 1024, 1024, 1024, 0, 6, 3802, 3780, 3823, 3792, 3806, 3811, 0, 1, 19200, -89.900, 0.000, -38.600, 0.000, 0.000, -2.900, 0.0, , , , , , 96, , , 41, 41, 41
36.0028579, -118.5646200, 40.900, 10:31:14.376, 16, 0.00, 0.38, 96, 2.200, 3.200, -37.400, 1018, 100, 95, 19, 22841, -19385, 5161, 5377, 17, 14, 1530725474.376, 77, 0, 1024, 1024, 1024, 1024, 0, 6, 3802, 3780, 3823, 3792, 3806, 3811, 0, 1, 19300, -89.900, 0.000, -38.600, 0.000, 0.000, -2.800, 0.0, , , , , , 96, , , 41, 41, 41
36.0028579, -118.5646200, 41.200, 10:31:14.476, 16, 0.00, 0.37, 96, 2.100, 3.100, -37.400, 1018, 100, 95, 19, 22841, -19385, 5161, 5377, 17, 14, 1530725474.476, 46, 0, 1024, 1024, 1024, 1024, 0, 6, 3802, 3780, 3823, 3792, 3806, 3811, 0, 1, 19400, -89.900, 0.000, -38.600, 0.000, 0.000, -2.900, 0.0, , , , , , 96, , , 41, 41, 41
36.0028578, -118.5646200, 41.500, 10:31:14.576, 16, 0.00, 0.37, 96, 2.000, 3.100, -37.300, 1018, 100, 95, 19, 22841, -19385, 5161, 5377, 17, 14, 1530725474.576, 47, 0, 1024, 1024, 1024, 1024, 0, 6, 3802, 3780, 3823, 3792, 3806, 3811, 0, 1, 19500, -89.900, 0.000, -38.600, 0.000, 0.000, -3.000, 0.0, , , , , , 96, , , 41, 41, 41
36.0028578, -118.5646200, 41.500, 10:31:14.676, 16, 0.00, 0.37, 96, 2.000, 3.100, -37.300, 1018, 100, 95, 19, 22841, -19385, 5161, 5377, 17, 14, 1530725474.676, 147, 0, 1024, 1024, 1024, 1024, 0, 6, 3802, 3780, 3823, 3792, 3806, 3811, 0, 1, 19600, -89.900, 0.000, -38.600, 0.000, 0.000, -3.000, 0.0, , , , , , 96, , , 41, 41, 41
36.0028577, -118.5646199, 42.100, 10:31:14.776, 16, 0.00, 0.36, 96, 1.900, 3.000, -37.400, 1018, 100, 95, 19, 22841, -19385, 5161, 5377, 17, 14, 1530725474.776, 40, 0, 1024, 1024, 1024, 1024, 0, 6, 3802, 3780, 3823, 3792, 3806, 3811, 0, 1, 19700, -89.900, 0.000, -38.600, 0.000, 0.000, -3.000, 0.0, , , , , , 96, , , 41, 41, 41
36.0028577, -118.5646198, 42.400, 10:31:14.876, 16, 0.00, 0.35, 96, 1.900, 3.000, -37.500, 1018, 100, 93, 19, 22841, -19385, 5161, 5377, 17, 14, 1530725474.876, 36, 0, 1024, 1024, 1024, 1024, 0, 6, 3802, 3780, 3823, 3792, 3806, 3811, 0, 1, 19800, -89.900, 0.000, -38.600, 0.000, 0.000, -2.900, 0.0, , , , , , 96, , , 41, 41, 41
36.0028576, -118.5646197, 43.000, 10:31:14.976, 16, 0.00, 0.34, 96, 2.000, 3.000, -37.700, 1018, 100, 93, 19, 22841, -19385, 5161, 5377, 17, 14, 1530725474.976, 25, 0, 1024, 1024, 1024, 1024, 0, 6, 3802, 3780, 3823, 3792, 3806, 3811, 0, 1, 19900, -89.900, 0.000, -38.600, 0.000, 0.000, -3.000, 0.0, , , , , , 96, , , 41, 41, 41
36.0028576, -118.5646197, 43.300, 10:31:15.077, 16, 0.00, 0.33, 96, 2.000, 3.000, -37.800, 1018, 100, 93, 19, 22841, -19385, 5161, 5377, 17, 14, 1530725475.077, 7, 0, 1024, 1024, 1024, 1024, 0, 6, 3802, 3780, 3823, 3792, 3806, 3811, 0, 1, 20000, -89.900, 0.000, -38.600, 0.000, 0.000, -3.000, 0.0, , , , , , 96, , , 41, 41, 41
36.0028575, -118.5646196, 43.600, 10:31:15.177, 16, 0.00, 0.32, 96, 1.900, 2.900, -37.900, 1018, 100, 93, 20, 22736, -20319, 5161, 5377, 17, 14, 1530725475.177, 13, 0, 1024, 1024, 1024, 1024, 0, 6, 3802, 3780, 3823, 3792, 3806, 3811, 0, 1, 20101, -89.900, 0.000, -38.600, 0.000, 0.000, -3.000, 0.0, , , , , , 96, , , 41, 41, 41
36.0028575, -118.5646195, 43.900, 10:31:15.277, 16, 0.00, 0.32, 96, 1.800, 2.700, -37.900, 1018, 100, 97, 20, 22736, -20319, 5161, 5377, 17, 14, 1530725475.277, 29, 0, 1024, 1024, 1024, 1024, 0, 6, 3802, 3780, 3823, 3792, 3806, 3811, 0, 1, 20201, -89.900, 0.000, -38.600, 0.000, 0.000, -2.900, 0.0, , , , , , 96, , , 41, 41, 41
36.0028575, -118.5646194, 44.200, 10:31:15.377, 16, 0.00, 0.31, 96, 1.500, 2.600, -37.800, 1018, 100, 97, 20, 22736, -20319, 5161, 5377, 17, 14, 1530725475.377, 6, 0, 1024, 1024, 1024, 1024, 0, 6, 3802, 3780, 3823, 3792, 3806, 3811, 0, 1, 20300, -89.900, 0.000, -38.600, 0.000, 0.000, -2.900, 0.0, , , , , , 96, , , 41, 41, 41
36.0028575, -118.5646193, 44.500, 10:31:15.476, 16, 0.00, 0.30, 96, 1.300, 2.500, -37.800, 1018, 100, 97, 20, 22736, -20319, 5161, 5377, 17, 14, 1530725475.476, 11, 0, 1024, 1024, 1024, 1024, 0, 6, 3802, 3780, 3823, 3792, 3806, 3811, 0, 1, 20400, -90.000, 0.000, -38.600, 0.000, 0.000, -2.900, 0.0, , , , , , 96, , , 41, 41, 41
36.0028575, -118.5646193, 44.500, 10:31:15.576, 16, 0.00, 0.30, 96, 1.300, 2.500, -37.800, 1018, 100, 97, 20, 22736, -20319, 5161, 5377, 17, 14, 1530725475.576, 111, 0, 1024, 1024, 1024, 1024, 0, 6, 3802, 3780, 3823, 3792, 3806, 3811, 0, 1, 20500, -90.000, 0.000, -38.600, 0.000, 0.000, -2.900, 0.0, , , , , , 96, , , 41, 41, 41
36.0028574, -118.5646193, 44.800, 10:31:15.676, 16, 0.00, 0.29, 96, 1.300, 2.600, -37.700, 1018, 100, 97, 20, 22736, -20319, 5161, 5377, 17, 14, 1530725475.676, 90, 0, 1024, 1024, 1024, 1024, 0, 6, 3802, 3780, 3823, 3792, 3806, 3811, 0, 1, 20599, -89.900, 0.000, -38.600, 0.000, 0.000, -2.900, 0.0, , , , , , 96, , , 41, 41, 41
36.0028574, -118.5646192, 45.100, 10:31:15.776, 16, 0.00, 0.29, 96, 1.300, 2.600, -37.600, 1018, 100, 97, 20, 22736, -20319, 5161, 5377, 17, 14, 1530725475.776, 95, 0, 1024, 1024, 1024, 1024, 0, 6, 3774, 3772, 3784, 3788, 3801, 3807, 0, 1, 20699, -89.900, 0.000, -38.600, 0.000, 0.000, -3.000, 0.0, , , , , , 96, , , 41, 41, 41
36.0028574, -118.5646191, 45.400, 10:31:15.876, 16, 0.00, 0.28, 96, 1.400, 2.600, -37.600, 1018, 100, 96, 20, 22736, -20319, 5161, 5377, 17, 14, 1530725475.876, 90, 0, 1024, 1024, 1024, 1024, 0, 6, 3774, 3772, 3784, 3788, 3801, 3807, 0, 1, 20800, -89.900, 0.000, -38.600, 0.000, 0.000, -3.100, 0.0, , , , , , 96, , , 41, 41, 41
36.0028574, -118.5646191, 45.700, 10:31:15.976, 16, 0.00, 0.27, 96, 1.400, 2.700, -37.500, 1018, 100, 96, 20, 22736, -20319, 5161, 5377, 17, 14, 1530725475.976, 92, 0, 1024, 1024, 1024, 1024, 0, 6, 3774, 3772, 3784, 3788, 3801, 3807, 0, 1, 20900, -89.900, 0.000, -38.600, 0.000, 0.000, -3.000, 0.0, , , , , , 96, , , 41, 41, 41
