latitude,longitude,altitude(feet),ascent(feet),speed(mph),distance(feet),time(millisecond),datetime(utc),satellites,gpslevel,voltage(v),max_altitude(feet),max_ascent(feet),max_speed(mph),max_distance(feet), xSpeed(mph), ySpeed(mph), zSpeed(mph), compass_heading(degrees), pitch(degrees), roll(degrees),isPhoto,isVideo,rc_elevator,rc_aileron,rc_throttle,rc_rudder,gimbal_heading(degrees),gimbal_pitch(degrees),battery_percent,voltageCell1,voltageCell2,voltageCell3,voltageCell4,voltageCell5,voltageCell6,current(A),battery_temperature(f),flycStateRaw,flycState,message
36.0028804,-118.5646389,5757.1200713669,0,0,0,3100,2018-07-04 17:49:44,14,0,0,5757.1200713669,0,0,0,0,0,0,324.2, 0.2, 0,1,0,1024,1024,1024,1024,323,-90,98,4.044,4.023,3.989,4.056,4.049,4.245,0,66.2,11,AutoTakeoff,DJI_0404.jpg Starting Mission from Lat/Long: 36.00289/-118.56464 Camera: Zenmuse X3 - Overlap: 90/90 - Active Connection: No
36.0028804,-118.5646389,5757.1200713669,0,0,0,3200,2018-07-04 17:49:44,14,0,0,5757.1200713669,0,0,0,0,0,0,324, -0.6, -0.2,0,0,1024,1024,1024,1024,323,-90,98,4.044,4.023,3.989,4.056,4.049,4.245,0,66.2,11,AutoTakeoff,
36.0028803,-118.5646389,5757.1200713669,0,0,0.036484909304,3300,2018-07-04 17:49:44,15,0,0,5757.1200713669,0,0,0.036484909304,0,0,0,323.9, -0.8, 0,0,0,1024,1024,1024,1024,323,-89.9,98,4.044,4.023,3.989,4.056,4.049,4.245,0,66.2,11,AutoTakeoff,
36.0028803,-118.5646389,5757.1200713669,0,0,0.036484909304,3400,2018-07-04 17:49:44,15,0,0,5757.1200713669,0,0,0.036484909304,0,0,0,323.8, -0.5, 0.3,0,0,1024,1024,1024,1024,323,-89.9,98,4.044,4.023,3.989,4.056,4.049,4.245,0,66.2,11,AutoTakeoff,
36.0028802,-118.5646389,5757.1200713669,0,0,0.072969818608,3500,2018-07-04 17:49:44,15,0,0,5757.1200713669,0,0,0.072969818608,0,0,0,323.7, -0.3, 0.3,0,0,1024,1024,1024,1024,323,-89.9,98,4.044,4.023,3.989,4.056,4.049,4.245,0,66.2,11,AutoTakeoff,
36.0028802,-118.564639,5757.4481553669,0.328084,0,0.078713257112,3600,2018-07-04 17:49:44,15,0,0,5757.4481553669,0.328084,0,0.078713257112,0,0,0,323.7, -0.1, 0.5,0,0,1024,1024,1024,1024,323.1,-89.9,98,4.044,4.023,3.989,4.056,4.049,4.245,0,66.2,11,AutoTakeoff,
36.0028802,-118.564639,5757.4481553669,0.328084,0,0.078713257112,3700,2018-07-04 17:49:44,14,0,0,5757.4481553669,0.328084,0,0.078713257112,0,0,0,323.7, 0, 0.6,0,0,1024,1024,1024,1024,323.1,-89.9,98,4.044,4.023,3.989,4.056,4.049,4.245,0,66.2,11,AutoTakeoff,
36.0028802,-118.564639,5757.7762393669,0.656168,0,0.078713257112,3800,2018-07-04 17:49:44,14,0,0,5757.7762393669,0.656168,0,0.078713257112,0,0,0,323.8, 0.4, 0.5,0,0,1024,1024,1024,1024,323.1,-89.9,98,4.044,4.023,3.989,4.056,4.049,4.245,0,66.2,11,AutoTakeoff,
36.0028803,-118.564639,5757.7762393669,0.656168,0,0.04692913536,3900,2018-07-04 17:49:44,13,0,0,5757.7762393669,0.656168,0,0.078713257112,0,0,0,323.9, 0.5, 0.4,0,0,1024,1024,1024,1024,323.1,-89.9,98,4.044,4.023,3.989,4.056,4.049,4.245,0,66.2,11,AutoTakeoff,
36.0028803,-118.5646391,5758.1043233669,0.984252,0,0.069396655764,4000,2018-07-04 17:49:45,13,0,24.577,5758.1043233669,0.984252,0,0.078713257112,0,0,0,323.9, 0.5, 0.3,0,0,1024,1024,1024,1024,323.1,-89.9,98,4.044,4.023,3.989,4.056,4.049,4.245,8.057,66.2,11,AutoTakeoff,
36.0028804,-118.5646391,5758.1043233669,0.984252,0,0.059031826036,4100,2018-07-04 17:49:45,12,0,24.577,5758.1043233669,0.984252,0,0.078713257112,0,0,-0.223694,324, 0.7, 0.2,0,0,1024,1024,1024,1024,323.1,-89.9,98,4.044,4.023,3.989,4.056,4.049,4.245,8.057,66.2,11,AutoTakeoff,
36.0028804,-118.5646392,5758.4324073669,1.312336,0,0.088547575012,4200,2018-07-04 17:49:45,12,0,24.577,5758.4324073669,1.312336,0,0.088547575012,0,0,0,324, 1, 0,0,0,1024,1024,1024,1024,323.1,-89.9,98,4.044,4.023,3.989,4.056,4.049,4.245,8.057,66.2,11,AutoTakeoff,
36.0028804,-118.5646393,5758.4324073669,1.312336,0,0.118063323988,4300,2018-07-04 17:49:45,14,0,24.577,5758.4324073669,1.312336,0,0.118063323988,0,0,0,324, 1, 0,0,0,1024,1024,1024,1024,323.1,-89.9,98,4.044,4.023,3.989,4.056,4.049,4.245,8.057,66.2,11,AutoTakeoff,
36.0028805,-118.5646394,5758.7604913669,1.64042,0,0.152022314576,4400,2018-07-04 17:49:45,14,0,24.577,5758.7604913669,1.64042,0,0.152022314576,0,0,0,324, 1, 0.1,0,0,1024,1024,1024,1024,323.1,-89.9,98,4.044,4.023,3.989,4.056,4.049,4.245,8.057,66.2,11,AutoTakeoff,
36.0028805,-118.5646394,5758.7604913669,1.64042,0,0.152022314576,4500,2018-07-04 17:49:45,13,0,24.577,5758.7604913669,1.64042,0,0.152022314576,0,0,0,324, 1.1, 0.2,0,0,1024,1024,1024,1024,323.1,-89.9,98,4.044,4.023,3.989,4.056,4.049,4.245,8.057,66.2,11,AutoTakeoff,
36.0028805,-118.5646395,5759.0885753669,1.968504,0,0.180814310248,4600,2018-07-04 17:49:45,13,0,24.577,5759.0885753669,1.968504,0,0.180814310248,0,0,0,324, 1.1, 0.2,0,0,1024,1024,1024,1024,323.1,-89.9,98,4.044,4.023,3.989,4.056,4.049,4.245,8.057,66.2,11,AutoTakeoff,
36.0028805,-118.5646396,5759.0885753669,1.968504,0,0.209807749496,4700,2018-07-04 17:49:45,13,0,24.577,5759.0885753669,1.968504,0,0.209807749496,0,0,0,324, 1.1, 0.3,0,0,1024,1024,1024,1024,323.1,-89.9,98,4.044,4.023,3.989,4.056,4.049,4.245,8.057,66.2,11,AutoTakeoff,
36.0028806,-118.5646396,5759.4166593669,2.296588,0,0.219118117248,4900,2018-07-04 17:49:45,13,0,24.577,5759.4166593669,2.296588,0,0.219118117248,0,0,0,324, 1.2, 0.4,0,0,1024,1024,1024,1024,323.1,-89.9,98,4.044,4.023,3.989,4.056,4.049,4.245,8.057,66.2,11,AutoTakeoff,
36.0028806,-118.5646397,5759.4166593669,2.296588,0,0.247144692948,5000,2018-07-04 17:49:46,14,0,23.536,5759.4166593669,2.296588,0,0.247144692948,0,0,0,324.1, 1.3, 0.3,0,0,1024,1024,1024,1024,323.2,-89.9,98,3.91,3.909,3.898,3.94,3.926,3.94,16.537,66.2,11,AutoTakeoff,
36.0028805,-118.5646399,5759.7447433669,2.624672,0,0.29740486516,5100,2018-07-04 17:49:46,15,0,23.536,5759.7447433669,2.624672,0,0.29740486516,0,0,0,324.4, 1.4, 0.2,0,0,1024,1024,1024,1024,323.1,-89.9,98,3.91,3.909,3.898,3.94,3.926,3.94,16.537,66.2,11,AutoTakeoff,
36.0028805,-118.5646399,5760.0728273669,2.952756,0,0.29740486516,5300,2018-07-04 17:49:46,15,0,23.536,5760.0728273669,2.952756,0,0.29740486516,0,0,0,324.6, 1.4, 0.1,0,0,1024,1024,1024,1024,323.1,-89.9,98,3.91,3.909,3.898,3.94,3.926,3.94,16.537,66.2,14,Waypoint,
36.0028805,-118.5646399,5760.4009113669,3.28084,0,0.29740486516,5500,2018-07-04 17:49:46,15,0,23.536,5760.4009113669,3.28084,0,0.29740486516,0,0,0,324.8, 0.9, -0.1,0,0,1024,1024,1024,1024,323.2,-89.9,98,3.91,3.909,3.898,3.94,3.926,3.94,16.537,66.2,14,Waypoint,
36.0028805,-118.5646399,5760.4009113669,3.28084,0,0.29740486516,5600,2018-07-04 17:49:46,15,0,23.536,5760.4009113669,3.28084,0,0.29740486516,0,0,0,324.9, 0.5, -0.2,0,0,1024,1024,1024,1024,323.2,-90,98,3.91,3.909,3.898,3.94,3.926,3.94,16.537,66.2,14,Waypoint,
36.0028805,-118.5646399,5760.4009113669,3.28084,0,0.29740486516,5700,2018-07-04 17:49:46,15,0,23.536,5760.4009113669,3.28084,0,0.29740486516,0,0,0,324.9, 0.3, -0.2,0,0,1024,1024,1024,1024,323.2,-90,98,3.91,3.909,3.898,3.94,3.926,3.94,16.537,66.2,14,Waypoint,
36.0028804,-118.5646399,5760.7289953669,3.608924,0,0.295158474012,5800,2018-07-04 17:49:46,15,0,23.536,5760.7289953669,3.608924,0,0.29740486516,0,0,0,324.9, 0.4, 0,0,0,1024,1024,1024,1024,323.3,-89.9,98,3.91,3.909,3.898,3.94,3.926,3.94,16.537,66.2,14,Waypoint,
36.0028804,-118.56464,5760.7289953669,3.608924,0,0.324674551072,5900,2018-07-04 17:49:46,14,0,23.536,5760.7289953669,3.608924,0,0.324674551072,0,0,0,324.9, 0.5, 0.1,0,0,1024,1024,1024,1024,323.3,-89.9,98,3.91,3.909,3.898,3.94,3.926,3.94,16.537,66.2,14,Waypoint,
36.0028803,-118.5646401,5760.7289953669,3.608924,0,0.35606300352,6000,2018-07-04 17:49:47,14,0,23.305,5760.7289953669,3.608924,0,0.35606300352,0,0,-0.223694,324.8, 0.5, 0.2,0,0,1024,1024,1024,1024,323.3,-89.9,97,3.883,3.873,3.873,3.89,3.877,3.906,17.302,66.2,14,Waypoint,
36.0028803,-118.5646401,5761.0570793669,3.937008,0,0.35606300352,6100,2018-07-04 17:49:47,13,0,23.305,5761.0570793669,3.937008,0,0.35606300352,0,0,-0.223694,324.7, 0.5, 0.3,0,0,1024,1024,1024,1024,323.3,-89.9,97,3.883,3.873,3.873,3.89,3.877,3.906,17.302,66.2,14,Waypoint,
36.0028803,-118.5646402,5761.3851633669,4.265092,0,0.38543636404,6200,2018-07-04 17:49:47,13,0,23.305,5761.3851633669,4.265092,0,0.38543636404,0,0,-0.223694,324.7, 0.7, 0.3,0,0,1024,1024,1024,1024,323.3,-89.9,97,3.883,3.873,3.873,3.89,3.877,3.906,17.302,66.2,14,Waypoint,
36.0028804,-118.5646403,5761.7132473669,4.593176,0,0.413221798,6300,2018-07-04 17:49:47,14,0,23.305,5761.7132473669,4.593176,0,0.413221798,0,0,-0.223694,324.7, 0.9, 0.3,0,0,1024,1024,1024,1024,323.4,-89.9,97,3.883,3.873,3.873,3.89,3.877,3.906,17.302,66.2,14,Waypoint,
36.0028805,-118.5646404,5762.3694153669,5.249344,0,0.44423885936,6400,2018-07-04 17:49:47,14,0,23.305,5762.3694153669,5.249344,0,0.44423885936,0,0,-0.223694,324.8, 1.1, 0.3,0,0,1024,1024,1024,1024,323.4,-89.9,97,3.883,3.873,3.873,3.89,3.877,3.906,17.302,66.2,14,Waypoint,
36.0028806,-118.5646404,5762.6974993669,5.577428,0,0.44871064428,6500,2018-07-04 17:49:47,15,0,23.305,5762.6974993669,5.577428,0,0.44871064428,0,0,-0.447388,324.9, 1.5, 0.2,0,0,1024,1024,1024,1024,323.4,-89.9,97,3.883,3.873,3.873,3.89,3.877,3.906,17.302,66.2,14,Waypoint,
36.0028807,-118.5646403,5763.3536673669,6.233596,0,0.42747376696,6600,2018-07-04 17:49:47,15,0,23.305,5763.3536673669,6.233596,0,0.44871064428,0,0,-0.447388,325.1, 1.7, 0,0,0,1024,1024,1024,1024,323.4,-89.9,97,3.883,3.873,3.873,3.89,3.877,3.906,17.302,66.2,14,Waypoint,
36.0028808,-118.5646403,5764.0098353669,6.889764,0,0.43823492216,6700,2018-07-04 17:49:47,15,0,23.305,5764.0098353669,6.889764,0,0.44871064428,0,0,-0.447388,325.2, 1.6, -0.4,0,0,1024,1024,1024,1024,323.5,-89.9,97,3.883,3.873,3.873,3.89,3.877,3.906,17.302,66.2,14,Waypoint,
36.0028809,-118.5646404,5764.6660033669,7.545932,0,0.47884844052,6800,2018-07-04 17:49:47,15,0,23.305,5764.6660033669,7.545932,0,0.47884844052,0,0,-0.447388,325.3, 1.4, -0.4,0,0,1024,1024,1024,1024,323.5,-89.9,97,3.883,3.873,3.873,3.89,3.877,3.906,17.302,66.2,14,Waypoint,
36.0028809,-118.5646404,5765.6502553669,8.530184,0,0.47884844052,6900,2018-07-04 17:49:47,15,0,23.305,5765.6502553669,8.530184,0,0.47884844052,0,0,-0.671082,325.3, 1.2, -0.4,0,0,1024,1024,1024,1024,323.5,-89.9,97,3.883,3.873,3.873,3.89,3.877,3.906,17.302,66.2,14,Waypoint,
36.002881,-118.5646404,5766.3064233669,9.186352,0,0.49390093444,7000,2018-07-04 17:49:48,15,0,23.225,5766.3064233669,9.186352,0,0.49390093444,0,0,-0.671082,325.3, 1.2, -0.4,0,0,1024,1024,1024,1024,323.5,-89.9,97,3.872,3.843,3.899,3.862,3.84,3.831,16.823,66.2,14,Waypoint,
36.0028809,-118.5646403,5767.6187593669,10.498688,0,0.45169948952,7100,2018-07-04 17:49:48,15,0,23.225,5767.6187593669,10.498688,0,0.49390093444,0,0,-0.671082,325.2, 1.2, -0.4,0,0,1024,1024,1024,1024,323.5,-89.9,97,3.872,3.843,3.899,3.862,3.84,3.831,16.823,66.2,14,Waypoint,
36.0028809,-118.5646402,5768.6030113669,11.48294,0,0.42486221832,7200,2018-07-04 17:49:48,15,0,23.225,5768.6030113669,11.48294,0,0.49390093444,0,0,-0.671082,325.1, 1, 0,0,0,1024,1024,1024,1024,323.5,-89.9,97,3.872,3.843,3.899,3.862,3.84,3.831,16.823,66.2,14,Waypoint,
36.0028809,-118.5646402,5769.5872633669,12.467192,0,0.42486221832,7300,2018-07-04 17:49:48,16,0,23.225,5769.5872633669,12.467192,0,0.49390093444,0,0,-0.671082,325, 0.7, 0,0,0,1024,1024,1024,1024,323.5,-89.9,97,3.872,3.843,3.899,3.862,3.84,3.831,16.823,66.2,14,Waypoint,
36.0028809,-118.5646401,5770.8995993669,13.779528,0,0.3984088054,7400,2018-07-04 17:49:48,16,0,23.225,5770.8995993669,13.779528,0,0.49390093444,0,0,-0.671082,325, 0.7, -0.1,0,0,1024,1024,1024,1024,323.6,-89.9,97,3.872,3.843,3.899,3.862,3.84,3.831,16.823,66.2,14,Waypoint,
36.0028809,-118.5646402,5771.8838513669,14.76378,0,0.42486221832,7500,2018-07-04 17:49:48,15,0,23.225,5771.8838513669,14.76378,0,0.49390093444,0,0,-0.671082,324.9, 0.7, -0.1,0,0,1024,1024,1024,1024,323.6,-89.9,97,3.872,3.843,3.899,3.862,3.84,3.831,16.823,66.2,14,Waypoint,
36.0028809,-118.5646403,5772.8681033669,15.748032,0,0.45169948952,7700,2018-07-04 17:49:48,15,0,23.225,5772.8681033669,15.748032,0,0.49390093444,0,0,-0.671082,324.9, 0.7, 0,0,0,1024,1024,1024,1024,323.6,-89.9,97,3.872,3.843,3.899,3.862,3.84,3.831,16.823,66.2,14,Waypoint,
36.0028809,-118.5646404,5774.1804393669,17.060368,0,0.47884844052,7800,2018-07-04 17:49:48,15,0,23.225,5774.1804393669,17.060368,0,0.49390093444,0,0,-0.671082,324.9, 0.9, 0.1,0,0,1024,1024,1024,1024,323.6,-89.9,97,3.872,3.843,3.899,3.862,3.84,3.831,16.823,66.2,14,Waypoint,
36.0028807,-118.5646405,5776.4770273669,19.356956,0,0.48477363756,7900,2018-07-04 17:49:48,16,0,23.225,5776.4770273669,19.356956,0,0.49390093444,0,0,-0.671082,324.8, 1.3, 0.6,0,0,1024,1024,1024,1024,323.6,-89.9,97,3.872,3.843,3.899,3.862,3.84,3.831,16.823,66.2,14,Waypoint,
36.0028807,-118.5646407,5777.4612793669,20.341208,0,0.54244424308,8000,2018-07-04 17:49:49,16,0,22.478,5777.4612793669,20.341208,0,0.54244424308,0,0,-0.671082,324.7, 1.3, 0.6,0,0,1024,1024,1024,1024,323.7,-89.9,97,3.872,3.843,3.899,3.862,3.84,3.831,25.719,66.2,14,Waypoint,
36.0028806,-118.5646408,5778.4455313669,21.32546,0,0.56552823332,8100,2018-07-04 17:49:49,15,0,22.478,5778.4455313669,21.32546,0,0.56552823332,0,0,-0.671082,324.7, 1.3, 0.8,0,0,1024,1024,1024,1024,323.7,-89.9,97,3.872,3.843,3.899,3.862,3.84,3.831,25.719,66.2,14,Waypoint,
36.0028805,-118.5646409,5779.7578673669,22.637796,0,0.59144358848,8200,2018-07-04 17:49:49,15,0,22.478,5779.7578673669,22.637796,0,0.59144358848,0,0,-0.671082,324.6, 1.3, 1,0,0,1024,1024,1024,1024,323.7,-89.9,97,3.872,3.843,3.899,3.862,3.84,3.831,25.719,66.2,14,Waypoint,
36.0028804,-118.564641,5780.7421193669,23.622048,0,0.619832697,8300,2018-07-04 17:49:49,16,0,22.478,5780.7421193669,23.622048,0,0.619832697,0,0,-0.671082,324.6, 1.2, 1.1,0,0,1024,1024,1024,1024,323.7,-89.9,97,3.872,3.843,3.899,3.862,3.84,3.831,25.719,66.2,14,Waypoint,
36.0028804,-118.5646412,5781.7263713669,24.6063,0,0.67886485112,8400,2018-07-04 17:49:49,16,0,22.478,5781.7263713669,24.6063,0,0.67886485112,0,0,-0.671082,324.6, 1, 1.1,0,0,1024,1024,1024,1024,323.7,-89.9,97,3.872,3.843,3.899,3.862,3.84,3.831,25.719,66.2,14,Waypoint,
36.0028803,-118.5646413,5782.7106233669,25.590552,0,0.70932088884,8500,2018-07-04 17:49:49,15,0,22.478,5782.7106233669,25.590552,0,0.70932088884,0,0,-0.671082,324.7, 1.1, 1.1,0,0,1024,1024,1024,1024,323.7,-89.9,97,3.872,3.843,3.899,3.862,3.84,3.831,25.719,66.2,14,Waypoint,
36.0028803,-118.5646414,5784.0229593669,26.902888,0,0.73879923624,8600,2018-07-04 17:49:49,15,0,22.478,5784.0229593669,26.902888,0,0.73879923624,0,0,-0.671082,324.7, 1.2, 1.2,0,0,1024,1024,1024,1024,323.7,-89.9,97,3.872,3.843,3.899,3.862,3.84,3.831,25.719,66.2,14,Waypoint,
36.0028803,-118.5646416,5785.0072113669,27.88714,0,0.79776249272,8700,2018-07-04 17:49:49,16,0,22.478,5785.0072113669,27.88714,0,0.79776249272,0,0,-0.671082,324.8, 1.3, 1.3,0,0,1024,1024,1024,1024,323.7,-89.9,97,3.872,3.843,3.899,3.862,3.84,3.831,25.719,66.2,14,Waypoint,
36.0028802,-118.5646417,5785.9914633669,28.871392,0,0.8296588192,8800,2018-07-04 17:49:49,16,0,22.478,5785.9914633669,28.871392,0,0.8296588192,0,0,-0.671082,324.8, 1.3, 1.3,0,0,1024,1024,1024,1024,323.7,-89.9,97,3.872,3.843,3.899,3.862,3.84,3.831,25.719,66.2,14,Waypoint,
36.0028801,-118.5646418,5786.9757153669,29.855644,0,0.86292981764,8900,2018-07-04 17:49:49,16,0,22.478,5786.9757153669,29.855644,0,0.86292981764,0,0,-0.671082,324.8, 1.3, 1.4,0,0,1024,1024,1024,1024,323.7,-89.9,97,3.872,3.843,3.899,3.862,3.84,3.831,25.719,66.2,14,Waypoint,
36.0028801,-118.5646419,5788.2880513669,31.16798,0,0.89221459548,9000,2018-07-04 17:49:50,16,0,22.478,5788.2880513669,31.16798,0,0.89221459548,0,0,-0.671082,324.8, 1.3, 1.6,0,0,1024,1024,1024,1024,323.7,-89.9,97,3.735,3.723,3.74,3.757,3.716,3.765,25.719,66.2,14,Waypoint,
36.0028801,-118.5646419,5789.2723033669,32.152232,0,0.89221459548,9100,2018-07-04 17:49:50,16,0,22.478,5789.2723033669,32.152232,0,0.89221459548,0,0,-0.671082,324.8, 1.3, 1.7,0,0,1024,1024,1024,1024,323.7,-89.9,97,3.735,3.723,3.74,3.757,3.716,3.765,25.719,66.2,14,Waypoint,
36.00288,-118.564642,5790.2565553669,33.136484,0,0.9265584286,9200,2018-07-04 17:49:50,16,0,22.478,5790.2565553669,33.136484,0,0.9265584286,0,0,-0.671082,324.7, 1.2, 1.5,0,0,1024,1024,1024,1024,323.7,-89.9,97,3.735,3.723,3.74,3.757,3.716,3.765,25.719,66.2,14,Waypoint,
36.00288,-118.564642,5791.2408073669,34.120736,0,0.9265584286,9300,2018-07-04 17:49:50,15,0,22.478,5791.2408073669,34.120736,0,0.9265584286,0,0,-0.671082,324.7, 1, 1.3,0,0,1024,1024,1024,1024,323.7,-89.9,97,3.735,3.723,3.74,3.757,3.716,3.765,25.719,66.2,14,Waypoint,
36.00288,-118.5646421,5792.5531433669,35.433072,0,0.95571525368,9400,2018-07-04 17:49:50,15,0,22.478,5792.5531433669,35.433072,0,0.95571525368,0,0,-0.671082,324.7, 1, 1.2,0,0,1024,1024,1024,1024,323.7,-89.9,97,3.735,3.723,3.74,3.757,3.716,3.765,25.719,66.2,14,Waypoint,
36.00288,-118.5646422,5793.5373953669,36.417324,0,0.98489504464,9500,2018-07-04 17:49:50,16,0,22.478,5793.5373953669,36.417324,0,0.98489504464,0,0,-0.671082,324.8, 1.3, 1.2,0,0,1024,1024,1024,1024,323.7,-89.9,97,3.735,3.723,3.74,3.757,3.716,3.765,25.719,66.2,14,Waypoint,
36.00288,-118.5646422,5794.5216473669,37.401576,0,0.98489504464,9600,2018-07-04 17:49:50,16,0,22.478,5794.5216473669,37.401576,0,0.98489504464,0,0,-0.671082,324.9, 1.6, 1.1,0,0,1024,1024,1024,1024,323.7,-89.9,97,3.735,3.723,3.74,3.757,3.716,3.765,25.719,66.2,14,Waypoint,
36.00288,-118.5646421,5795.8339833669,38.713912,0,0.95571525368,9700,2018-07-04 17:49:50,16,0,22.478,5795.8339833669,38.713912,0,0.98489504464,0,0,-0.671082,325, 1.6, 0.8,0,0,1024,1024,1024,1024,323.7,-89.9,97,3.735,3.723,3.74,3.757,3.716,3.765,25.719,66.2,14,Waypoint,
36.00288,-118.5646421,5796.8182353669,39.698164,0,0.95571525368,9900,2018-07-04 17:49:50,16,0,22.478,5796.8182353669,39.698164,0,0.98489504464,0,0,-0.671082,325.1, 1.5, 0.8,0,0,1024,1024,1024,1024,323.7,-89.9,97,3.735,3.723,3.74,3.757,3.716,3.765,25.719,66.2,14,Waypoint,
36.0028799,-118.564642,5799.7709913669,42.65092,0,0.93299871752,10010,2018-07-04 17:49:51,16,0,22.738,5799.7709913669,42.65092,0,0.98489504464,0,0,-0.671082,324.9, 0.7, 1.2,0,0,1024,1024,1024,1024,323.7,-90,97,3.784,3.782,3.778,3.792,3.796,3.827,21.201,66.2,14,Waypoint,
36.0028799,-118.564642,5799.7709913669,42.65092,0,0.93299871752,10100,2018-07-04 17:49:51,16,0,22.738,5799.7709913669,42.65092,0,0.98489504464,0,0,-0.671082,324.9, 0.7, 1.2,0,0,1024,1024,1024,1024,323.7,-90,97,3.784,3.782,3.778,3.792,3.796,3.827,21.201,66.2,14,Waypoint,
36.0028798,-118.564642,5800.7552433669,43.635172,0,0.9408136784,10300,2018-07-04 17:49:51,16,0,22.738,5800.7552433669,43.635172,0,0.98489504464,0,0,-0.671082,324.8, 0.4, 1.4,0,0,1024,1024,1024,1024,323.7,-90,97,3.784,3.782,3.778,3.792,3.796,3.827,21.201,66.2,14,Waypoint,
36.0028798,-118.5646421,5802.7237473669,45.603676,0,0.96954399428,10400,2018-07-04 17:49:51,16,0,22.738,5802.7237473669,45.603676,0,0.98489504464,0,0,-0.671082,324.5, 0.4, 1.3,0,0,1024,1024,1024,1024,323.7,-90,97,3.784,3.782,3.778,3.792,3.796,3.827,21.201,66.2,14,Waypoint,
36.0028799,-118.5646421,5803.7079993669,46.587928,0,0.96196197304,10500,2018-07-04 17:49:51,16,0,22.738,5803.7079993669,46.587928,0,0.98489504464,0,0,-0.671082,324.3, 1, 1.1,0,0,1024,1024,1024,1024,323.7,-89.9,97,3.784,3.782,3.778,3.792,3.796,3.827,21.201,66.2,14,Waypoint,
36.0028799,-118.5646421,5804.6922513669,47.57218,0,0.96196197304,10600,2018-07-04 17:49:51,16,0,22.738,5804.6922513669,47.57218,0,0.98489504464,0,0,-0.671082,324.3, 1.4, 1,0,0,1024,1024,1024,1024,323.7,-89.9,97,3.784,3.782,3.778,3.792,3.796,3.827,21.201,66.2,14,Waypoint,
36.0028799,-118.5646421,5805.6765033669,48.556432,0,0.96196197304,10700,2018-07-04 17:49:51,16,0,22.738,5805.6765033669,48.556432,0,0.98489504464,0,0,-0.671082,324.4, 1.5, 0.9,0,0,1024,1024,1024,1024,323.7,-89.9,97,3.784,3.782,3.778,3.792,3.796,3.827,21.201,66.2,14,Waypoint,
36.00288,-118.564642,5806.6607553669,49.540684,0,0.9265584286,10800,2018-07-04 17:49:51,16,0,22.738,5806.6607553669,49.540684,0,0.98489504464,0,0,-0.671082,324.6, 1.5, 0.8,0,0,1024,1024,1024,1024,323.7,-89.9,97,3.784,3.782,3.778,3.792,3.796,3.827,21.201,66.2,14,Waypoint,
36.00288,-118.5646419,5807.6450073669,50.524936,0,0.89742128856,10900,2018-07-04 17:49:51,16,0,22.738,5807.6450073669,50.524936,0,0.98489504464,0,0,-0.671082,324.8, 1.4, 0.5,0,0,1024,1024,1024,1024,323.7,-89.9,97,3.784,3.782,3.778,3.792,3.796,3.827,21.201,66.2,14,Waypoint,
36.00288,-118.5646419,5808.6292593669,51.509188,0,0.89742128856,11000,2018-07-04 17:49:52,16,0,22.818,5808.6292593669,51.509188,0,0.98489504464,0,0,-0.671082,324.9, 1.3, 0.5,0,0,1024,1024,1024,1024,323.7,-89.9,97,3.801,3.794,3.791,3.797,3.798,3.827,20.041,66.2,14,Waypoint,
36.00288,-118.5646418,5809.6135113669,52.49344,0,0.86831039524,11100,2018-07-04 17:49:52,16,0,22.818,5809.6135113669,52.49344,0,0.98489504464,0,0,-0.671082,324.8, 1.3, 0.6,0,0,1024,1024,1024,1024,323.7,-89.9,97,3.801,3.794,3.791,3.797,3.798,3.827,20.041,66.2,14,Waypoint,
36.00288,-118.5646418,5810.5977633669,53.477692,0,0.86831039524,11200,2018-07-04 17:49:52,16,0,22.818,5810.5977633669,53.477692,0,0.98489504464,0,0,-0.671082,324.8, 1.3, 0.7,0,0,1024,1024,1024,1024,323.7,-89.9,97,3.801,3.794,3.791,3.797,3.798,3.827,20.041,66.2,14,Waypoint,
36.00288,-118.5646417,5811.5820153669,54.461944,0,0.83923231032,11300,2018-07-04 17:49:52,16,0,22.818,5811.5820153669,54.461944,0,0.98489504464,0,0,-0.671082,324.8, 1.2, 0.8,0,0,1024,1024,1024,1024,323.7,-89.9,97,3.801,3.794,3.791,3.797,3.798,3.827,20.041,66.2,14,Waypoint,
36.00288,-118.5646417,5812.5662673669,55.446196,0,0.83923231032,11400,2018-07-04 17:49:52,16,0,22.818,5812.5662673669,55.446196,0,0.98489504464,0,0,-0.671082,324.9, 1.2, 0.7,0,0,1024,1024,1024,1024,323.7,-89.9,97,3.801,3.794,3.791,3.797,3.798,3.827,20.041,66.2,14,Waypoint,
36.00288,-118.5646416,5814.5347713669,57.4147,0,0.81018047212,11600,2018-07-04 17:49:52,16,0,22.818,5814.5347713669,57.4147,0,0.98489504464,0,0,-0.671082,324.8, 1.5, 0.9,0,0,1024,1024,1024,1024,323.7,-89.9,97,3.801,3.794,3.791,3.797,3.798,3.827,20.041,66.2,14,Waypoint,
36.00288,-118.5646416,5815.5190233669,58.398952,0,0.81018047212,11700,2018-07-04 17:49:52,16,0,22.818,5815.5190233669,58.398952,0,0.98489504464,0,0,-0.671082,324.8, 1.5, 0.9,0,0,1024,1024,1024,1024,323.7,-89.9,97,3.801,3.794,3.791,3.797,3.798,3.827,20.041,66.2,14,Waypoint,
36.00288,-118.5646416,5816.5032753669,59.383204,0,0.81018047212,11800,2018-07-04 17:49:52,16,0,22.818,5816.5032753669,59.383204,0,0.98489504464,0,0,-0.671082,324.7, 1.5, 0.7,0,0,1024,1024,1024,1024,323.7,-89.9,97,3.801,3.794,3.791,3.797,3.798,3.827,20.041,66.2,14,Waypoint,
36.0028801,-118.5646415,5818.4717793669,61.351708,0,0.77517719016,12000,2018-07-04 17:49:53,16,0,22.825,5818.4717793669,61.351708,0,0.98489504464,0,0,-0.671082,324.8, 1.3, 0.9,0,0,1024,1024,1024,1024,323.7,-89.9,97,3.807,3.791,3.797,3.804,3.806,3.833,19.553,68,14,Waypoint,
36.0028801,-118.5646415,5819.4560313669,62.33596,0,0.77517719016,12200,2018-07-04 17:49:53,16,0,22.825,5819.4560313669,62.33596,0,0.98489504464,0,0,-0.671082,324.9, 1.2, 0.9,0,0,1024,1024,1024,1024,323.7,-89.9,97,3.807,3.791,3.797,3.804,3.806,3.833,19.553,68,14,Waypoint,
36.0028801,-118.5646414,5821.4245353669,64.304464,0,0.74597115248,12300,2018-07-04 17:49:53,16,0,22.825,5821.4245353669,64.304464,0,0.98489504464,0,0,-0.671082,325.1, 1.3, 0.9,0,0,1024,1024,1024,1024,323.7,-89.9,97,3.807,3.791,3.797,3.804,3.806,3.833,19.553,68,14,Waypoint,
36.0028801,-118.5646413,5823.3930393669,66.272968,0,0.71678808068,12500,2018-07-04 17:49:53,16,0,22.825,5823.3930393669,66.272968,0,0.98489504464,0,0,-0.671082,325.2, 1.1, 1.4,0,0,1024,1024,1024,1024,323.7,-89.9,97,3.807,3.791,3.797,3.804,3.806,3.833,19.553,68,14,Waypoint,
36.0028802,-118.5646413,5825.3615433669,68.241472,0,0.71212928788,12700,2018-07-04 17:49:53,16,0,22.825,5825.3615433669,68.241472,0,0.98489504464,0,0,-0.671082,325.2, 1.4, 1.4,0,0,1024,1024,1024,1024,323.7,-89.9,97,3.807,3.791,3.797,3.804,3.806,3.833,19.553,68,14,Waypoint,
36.0028802,-118.5646413,5827.3300473669,70.209976,0,0.71212928788,12900,2018-07-04 17:49:53,16,0,22.825,5827.3300473669,70.209976,0,0.98489504464,0,0,-0.671082,325.1, 1.5, 0.9,0,0,1024,1024,1024,1024,323.7,-89.9,97,3.807,3.791,3.797,3.804,3.806,3.833,19.553,68,14,Waypoint,
36.0028802,-118.5646413,5828.3142993669,71.194228,0,0.71212928788,13000,2018-07-04 17:49:54,16,0,22.853,5828.3142993669,71.194228,0,0.98489504464,0,0,-0.671082,325, 1.6, 0.9,0,0,1024,1024,1024,1024,323.7,-89.9,97,3.811,3.802,3.798,3.813,3.803,3.837,18.94,68,14,Waypoint,
36.0028802,-118.5646413,5829.2985513669,72.17848,0,0.71212928788,13100,2018-07-04 17:49:54,16,0,22.853,5829.2985513669,72.17848,0,0.98489504464,0,0,-0.671082,325, 1.8, 1.3,0,0,1024,1024,1024,1024,323.7,-89.9,97,3.811,3.802,3.798,3.813,3.803,3.837,18.94,68,14,Waypoint,
36.0028802,-118.5646413,5830.2828033669,73.162732,0,0.71212928788,13200,2018-07-04 17:49:54,16,0,22.853,5830.2828033669,73.162732,0,0.98489504464,0,0,-0.671082,325, 2.1, 1.7,0,0,1024,1024,1024,1024,323.7,-89.9,97,3.811,3.802,3.798,3.813,3.803,3.837,18.94,68,14,Waypoint,
36.0028803,-118.5646413,5830.9389713669,73.8189,0,0.70932088884,13300,2018-07-04 17:49:54,16,0,22.853,5830.9389713669,73.8189,0,0.98489504464,0,0,-0.671082,325.1, 2.3, 1.7,0,0,1024,1024,1024,1024,323.7,-89.9,97,3.811,3.802,3.798,3.813,3.803,3.837,18.94,68,14,Waypoint,
36.0028803,-118.5646414,5831.9232233669,74.803152,0,0.73879923624,13400,2018-07-04 17:49:54,16,0,22.853,5831.9232233669,74.803152,0,0.98489504464,0,0,-0.671082,325.2, 2.5, 1.5,0,0,1024,1024,1024,1024,323.7,-89.9,97,3.811,3.802,3.798,3.813,3.803,3.837,18.94,68,14,Waypoint,
36.0028804,-118.5646414,5832.9074753669,75.787404,0,0.73789700524,13500,2018-07-04 17:49:54,16,0,22.853,5832.9074753669,75.787404,0,0.98489504464,0,0,-0.671082,325.2, 2.6, 1.6,0,0,1024,1024,1024,1024,323.7,-89.9,97,3.811,3.802,3.798,3.813,3.803,3.837,18.94,68,14,Waypoint,
36.0028804,-118.5646415,5833.8917273669,76.771656,0,0.76741144188,13600,2018-07-04 17:49:54,16,0,22.853,5833.8917273669,76.771656,0,0.98489504464,0,0,-0.671082,325.1, 2.8, 1.5,0,0,1024,1024,1024,1024,323.7,-89.9,97,3.811,3.802,3.798,3.813,3.803,3.837,18.94,68,14,Waypoint,
36.0028804,-118.5646415,5834.8759793669,77.755908,0,0.76741144188,13700,2018-07-04 17:49:54,16,0,22.853,5834.8759793669,77.755908,0,0.98489504464,0,0,-0.671082,325, 2.8, 1.6,0,0,1024,1024,1024,1024,323.7,-89.9,97,3.811,3.802,3.798,3.813,3.803,3.837,18.94,68,14,Waypoint,
36.0028804,-118.5646415,5835.8602313669,78.74016,0,0.76741144188,13800,2018-07-04 17:49:54,16,0,22.853,5835.8602313669,78.74016,0,0.98489504464,0,0,-0.671082,324.8, 2.7, 1.7,0,0,1024,1024,1024,1024,323.7,-89.9,97,3.811,3.802,3.798,3.813,3.803,3.837,18.94,68,14,Waypoint,
36.0028804,-118.5646415,5836.8444833669,79.724412,0,0.76741144188,13900,2018-07-04 17:49:54,16,0,22.853,5836.8444833669,79.724412,0,0.98489504464,0,0,-0.671082,324.6, 2.4, 1.7,0,0,1024,1024,1024,1024,323.7,-89.9,97,3.811,3.802,3.798,3.813,3.803,3.837,18.94,68,14,Waypoint,
36.0028804,-118.5646415,5837.8287353669,80.708664,0,0.76741144188,14000,2018-07-04 17:49:55,16,0,22.836,5837.8287353669,80.708664,0,0.98489504464,0,0,-0.671082,324.5, 2.1, 1.7,0,0,1024,1024,1024,1024,323.7,-89.9,97,3.808,3.794,3.791,3.816,3.802,3.835,19.001,68,14,Waypoint,
36.0028804,-118.5646415,5838.8129873669,81.692916,0,0.76741144188,14100,2018-07-04 17:49:55,16,0,22.836,5838.8129873669,81.692916,0,0.98489504464,0,0,-0.671082,324.4, 1.9, 2,0,0,1024,1024,1024,1024,323.7,-89.9,97,3.808,3.794,3.791,3.816,3.802,3.835,19.001,68,14,Waypoint,
36.0028804,-118.5646415,5839.7972393669,82.677168,0,0.76741144188,14300,2018-07-04 17:49:55,16,0,22.836,5839.7972393669,82.677168,0,0.98489504464,0,0,-0.671082,324.4, 1.9, 2.3,0,0,1024,1024,1024,1024,323.7,-89.9,97,3.808,3.794,3.791,3.816,3.802,3.835,19.001,68,14,Waypoint,
36.0028804,-118.5646416,5842.0938273669,84.973756,0,0.79692915936,14410,2018-07-04 17:49:55,16,0,22.836,5842.0938273669,84.973756,0,0.98489504464,0,0,-0.671082,324.7, 2.4, 2.4,0,0,1024,1024,1024,1024,323.7,-89.9,97,3.808,3.794,3.791,3.816,3.802,3.835,19.001,68,14,Waypoint,
36.0028804,-118.5646416,5842.0938273669,84.973756,0,0.79692915936,14500,2018-07-04 17:49:55,16,0,22.836,5842.0938273669,84.973756,0,0.98489504464,0,0,-0.671082,324.7, 2.4, 2.4,0,0,1024,1024,1024,1024,323.7,-89.9,97,3.808,3.794,3.791,3.816,3.802,3.835,19.001,68,14,Waypoint,
36.0028804,-118.5646416,5843.0780793669,85.958008,0,0.79692915936,14600,2018-07-04 17:49:55,16,0,22.836,5843.0780793669,85.958008,0,0.98489504464,0,0,-0.671082,324.8, 2.5, 2.1,0,0,1024,1024,1024,1024,323.7,-89.9,97,3.808,3.794,3.791,3.816,3.802,3.835,19.001,68,14,Waypoint,
36.0028804,-118.5646416,5844.7184993669,87.598428,0,0.79692915936,14700,2018-07-04 17:49:55,16,0,22.836,5844.7184993669,87.598428,0,0.98489504464,0,0,-0.671082,324.5, 2.7, 2.2,0,0,1024,1024,1024,1024,323.7,-89.9,97,3.808,3.794,3.791,3.816,3.802,3.835,19.001,68,14,Waypoint,
36.0028804,-118.5646416,5845.7027513669,88.58268,0,0.79692915936,14800,2018-07-04 17:49:55,16,0,22.836,5845.7027513669,88.58268,0,0.98489504464,0,0,-0.671082,324.4, 2.3, 2.2,0,0,1024,1024,1024,1024,323.7,-89.9,97,3.808,3.794,3.791,3.816,3.802,3.835,19.001,68,14,Waypoint,
36.0028803,-118.5646416,5847.0150873669,89.895016,0,0.79776249272,14900,2018-07-04 17:49:55,16,0,22.836,5847.0150873669,89.895016,0,0.98489504464,0,0,-0.671082,324.3, 1.9, 2.1,0,0,1024,1024,1024,1024,323.7,-89.9,97,3.808,3.794,3.791,3.816,3.802,3.835,19.001,68,14,Waypoint,
36.0028803,-118.5646416,5847.6712553669,90.551184,0,0.79776249272,15000,2018-07-04 17:49:56,16,0,22.778,5847.6712553669,90.551184,0,0.98489504464,0,0,-0.671082,324.4, 1.6, 2.1,0,0,1024,1024,1024,1024,323.7,-90,97,3.783,3.775,3.777,3.789,3.785,3.814,19.107,68,14,Waypoint,
36.0028802,-118.5646417,5848.6555073669,91.535436,0,0.8296588192,15100,2018-07-04 17:49:56,16,0,22.778,5848.6555073669,91.535436,0,0.98489504464,0,0,-0.671082,324.5, 1.6, 2.1,0,0,1024,1024,1024,1024,323.7,-89.9,97,3.783,3.775,3.777,3.789,3.785,3.814,19.107,68,14,Waypoint,
36.0028802,-118.5646417,5849.9678433669,92.847772,0,0.8296588192,15200,2018-07-04 17:49:56,16,0,22.778,5849.9678433669,92.847772,0,0.98489504464,0,0,-0.671082,324.6, 1.8, 2.5,0,0,1024,1024,1024,1024,323.7,-89.9,97,3.783,3.775,3.777,3.789,3.785,3.814,19.107,68,14,Waypoint,
36.0028802,-118.5646418,5850.6240113669,93.50394,0,0.85906498812,15300,2018-07-04 17:49:56,16,0,22.778,5850.6240113669,93.50394,0,0.98489504464,0,0,-0.671082,324.8, 2.2, 2.7,0,0,1024,1024,1024,1024,323.7,-89.9,97,3.783,3.775,3.777,3.789,3.785,3.814,19.107,68,14,Waypoint,
36.0028801,-118.5646418,5851.9363473669,94.816276,0,0.86292981764,15400,2018-07-04 17:49:56,16,0,22.778,5851.9363473669,94.816276,0,0.98489504464,0,0,-0.671082,324.9, 2.3, 2.7,0,0,1024,1024,1024,1024,323.7,-89.9,97,3.783,3.775,3.777,3.789,3.785,3.814,19.107,68,14,Waypoint,
36.0028801,-118.5646418,5852.5925153669,95.472444,0,0.86292981764,15500,2018-07-04 17:49:56,16,0,22.778,5852.5925153669,95.472444,0,0.98489504464,0,0,-0.671082,325, 2.4, 2.8,0,0,1024,1024,1024,1024,323.7,-89.9,97,3.783,3.775,3.777,3.789,3.785,3.814,19.107,68,14,Waypoint,
36.0028801,-118.5646418,5853.5767673669,96.456696,0,0.86292981764,15600,2018-07-04 17:49:56,16,0,22.778,5853.5767673669,96.456696,0,0.98489504464,0,0,-0.671082,325.1, 2.3, 2.7,0,0,1024,1024,1024,1024,323.7,-89.9,97,3.783,3.775,3.777,3.789,3.785,3.814,19.107,68,14,Waypoint,
36.0028801,-118.5646418,5854.8891033669,97.769032,0,0.86292981764,15700,2018-07-04 17:49:56,16,0,22.778,5854.8891033669,97.769032,0,0.98489504464,0,0,-0.671082,325.2, 2.3, 2.5,0,0,1024,1024,1024,1024,323.7,-89.9,97,3.783,3.775,3.777,3.789,3.785,3.814,19.107,68,14,Waypoint,
36.0028801,-118.5646418,5855.5452713669,98.4252,0,0.86292981764,15800,2018-07-04 17:49:56,16,0,22.778,5855.5452713669,98.4252,0,0.98489504464,0,0,-0.671082,325.1, 2.3, 2.3,0,0,1024,1024,1024,1024,323.7,-89.9,97,3.783,3.775,3.777,3.789,3.785,3.814,19.107,68,14,Waypoint,
36.0028801,-118.5646418,5856.5295233669,99.409452,0,0.86292981764,15900,2018-07-04 17:49:56,16,0,22.778,5856.5295233669,99.409452,0,0.98489504464,0,0,-0.671082,325, 2.3, 2.6,0,0,1024,1024,1024,1024,323.7,-89.9,97,3.783,3.775,3.777,3.789,3.785,3.814,19.107,68,14,Waypoint,
36.0028801,-118.5646418,5857.5137753669,100.393704,0,0.86292981764,16000,2018-07-04 17:49:57,16,0,22.61,5857.5137753669,100.393704,0,0.98489504464,0,0,-0.671082,324.9, 2.2, 2.7,0,0,1024,1024,1024,1024,323.7,-89.9,97,3.773,3.76,3.764,3.781,3.782,3.803,19.591,68,14,Waypoint,
36.00288,-118.5646418,5859.4822793669,102.362208,0,0.86831039524,16200,2018-07-04 17:49:57,16,0,22.61,5859.4822793669,102.362208,0,0.98489504464,0,0,-0.671082,324.7, 2, 2.8,0,0,1024,1024,1024,1024,323.7,-89.9,97,3.773,3.76,3.764,3.781,3.782,3.803,19.591,68,14,Waypoint,
36.00288,-118.5646418,5860.4665313669,103.34646,0,0.86831039524,16400,2018-07-04 17:49:57,16,0,22.61,5860.4665313669,103.34646,0,0.98489504464,0,0,-0.671082,324.6, 1.7, 2.6,0,0,1024,1024,1024,1024,323.7,-89.9,97,3.773,3.76,3.764,3.781,3.782,3.803,19.591,68,14,Waypoint,
36.0028799,-118.5646418,5862.4350353669,105.314964,0,0.87518375504,16510,2018-07-04 17:49:57,16,0,22.61,5862.4350353669,105.314964,0,0.98489504464,0,0,-0.671082,324.6, 1.9, 2.5,0,0,1024,1024,1024,1024,323.7,-89.9,97,3.773,3.76,3.764,3.781,3.782,3.803,19.591,68,14,Waypoint,
36.0028799,-118.5646418,5862.4350353669,105.314964,0,0.87518375504,16600,2018-07-04 17:49:57,16,0,22.61,5862.4350353669,105.314964,0,0.98489504464,0,0,-0.671082,324.6, 1.9, 2.5,0,0,1024,1024,1024,1024,323.7,-89.9,97,3.773,3.76,3.764,3.781,3.782,3.803,19.591,68,14,Waypoint,
36.0028799,-118.5646418,5864.4035393669,107.283468,0,0.87518375504,16700,2018-07-04 17:49:57,16,0,22.61,5864.4035393669,107.283468,0,0.98489504464,0,0,-0.671082,324.6, 2.2, 2.4,0,0,1024,1024,1024,1024,323.7,-89.9,97,3.773,3.76,3.764,3.781,3.782,3.803,19.591,68,14,Waypoint,
36.00288,-118.5646417,5865.3877913669,108.26772,0,0.83923231032,16800,2018-07-04 17:49:57,16,0,22.61,5865.3877913669,108.26772,0,0.98489504464,0,0,-0.671082,324.7, 2.3, 2.4,0,0,1024,1024,1024,1024,323.7,-89.9,97,3.773,3.76,3.764,3.781,3.782,3.803,19.591,68,14,Waypoint,
36.00288,-118.5646417,5866.3720433669,109.251972,0,0.83923231032,16900,2018-07-04 17:49:57,16,0,22.61,5866.3720433669,109.251972,0,0.98489504464,0,0,-0.671082,324.8, 2.3, 2.3,0,0,1024,1024,1024,1024,323.7,-89.9,97,3.773,3.76,3.764,3.781,3.782,3.803,19.591,68,14,Waypoint,
36.00288,-118.5646417,5868.3405473669,111.220476,0,0.83923231032,17100,2018-07-04 17:49:58,17,0,22.61,5868.3405473669,111.220476,0,0.98489504464,0,0,-0.671082,325.2, 2.4, 2.1,0,0,1024,1024,1024,1024,323.7,-89.9,97,3.773,3.76,3.764,3.781,3.782,3.803,19.591,68,14,Waypoint,
36.00288,-118.5646416,5871.2933033669,114.173232,0,0.81018047212,17400,2018-07-04 17:49:58,17,0,22.61,5871.2933033669,114.173232,0,0.98489504464,0,0,-0.671082,325.4, 2.2, 2.7,0,0,1024,1024,1024,1024,323.7,-89.9,97,3.773,3.76,3.764,3.781,3.782,3.803,19.591,68,14,Waypoint,
36.0028799,-118.5646417,5872.6056393669,115.485568,0,0.84633860976,17500,2018-07-04 17:49:58,17,0,22.61,5872.6056393669,115.485568,0,0.98489504464,0,0,-0.671082,325.1, 2.4, 3.5,0,0,1024,1024,1024,1024,323.7,-89.9,97,3.773,3.76,3.764,3.781,3.782,3.803,19.591,68,14,Waypoint,
36.0028799,-118.5646417,5873.5898913669,116.46982,0,0.84633860976,17600,2018-07-04 17:49:58,17,0,22.61,5873.5898913669,116.46982,0,0.98489504464,0,0,-0.671082,324.8, 2.4, 3.8,0,0,1024,1024,1024,1024,323.7,-89.9,97,3.773,3.76,3.764,3.781,3.782,3.803,19.591,68,14,Waypoint,
36.0028799,-118.5646418,5874.5741433669,117.454072,0,0.87518375504,17700,2018-07-04 17:49:58,17,0,22.61,5874.5741433669,117.454072,0,0.98489504464,0,0,-0.671082,324.5, 2.3, 3.7,0,0,1024,1024,1024,1024,323.7,-89.9,97,3.773,3.76,3.764,3.781,3.782,3.803,19.591,68,14,Waypoint,
36.0028799,-118.5646418,5875.5583953669,118.438324,0,0.87518375504,17800,2018-07-04 17:49:58,17,0,22.61,5875.5583953669,118.438324,0,0.98489504464,0,0,-0.671082,324.4, 2.3, 3.3,0,0,1024,1024,1024,1024,323.7,-89.9,97,3.773,3.76,3.764,3.781,3.782,3.803,19.591,68,14,Waypoint,
36.0028799,-118.5646417,5876.2145633669,119.094492,0,0.84633860976,17900,2018-07-04 17:49:58,17,0,22.61,5876.2145633669,119.094492,0,0.98489504464,0,0,-0.671082,324.4, 2.4, 2.9,0,0,1024,1024,1024,1024,323.7,-89.9,97,3.773,3.76,3.764,3.781,3.782,3.803,19.591,68,14,Waypoint,
36.0028799,-118.5646417,5877.1988153669,120.078744,0,0.84633860976,18000,2018-07-04 17:49:59,17,0,22.539,5877.1988153669,120.078744,0,0.98489504464,0,0,-0.671082,324.5, 2.3, 2.8,0,0,1024,1024,1024,1024,323.7,-89.9,96,3.761,3.735,3.753,3.762,3.761,3.794,20.563,68,14,Waypoint,
36.0028798,-118.5646417,5878.1830673669,121.062996,0,0.85494425308,18100,2018-07-04 17:49:59,17,0,22.539,5878.1830673669,121.062996,0,0.98489504464,0,0,-0.671082,324.5, 2.3, 2.8,0,0,1024,1024,1024,1024,323.7,-89.9,96,3.761,3.735,3.753,3.762,3.761,3.794,20.563,68,14,Waypoint,
36.0028798,-118.5646417,5879.1673193669,122.047248,0,0.85494425308,18200,2018-07-04 17:49:59,17,0,22.539,5879.1673193669,122.047248,0,0.98489504464,0,0,-0.671082,324.6, 2.2, 2.8,0,0,1024,1024,1024,1024,323.7,-89.9,96,3.761,3.735,3.753,3.762,3.761,3.794,20.563,68,14,Waypoint,
36.0028798,-118.5646416,5881.1358233669,124.015752,0,0.82644687684,18400,2018-07-04 17:49:59,17,0,22.539,5881.1358233669,124.015752,0,0.98489504464,0,0,-0.671082,324.7, 2.3, 2.8,0,0,1024,1024,1024,1024,323.7,-89.9,96,3.761,3.735,3.753,3.762,3.761,3.794,20.563,68,14,Waypoint,
36.0028798,-118.5646415,5882.1200753669,125.000004,0,0.79802495992,18500,2018-07-04 17:49:59,17,0,22.539,5882.1200753669,125.000004,0,0.98489504464,0,0,-0.671082,324.8, 2.3, 2.7,0,0,1024,1024,1024,1024,323.7,-89.9,96,3.761,3.735,3.753,3.762,3.761,3.794,20.563,68,14,Waypoint,
36.0028798,-118.5646414,5883.1043273669,125.984256,0,0.769685064,18600,2018-07-04 17:49:59,17,0,22.539,5883.1043273669,125.984256,0,0.98489504464,0,0,-0.671082,324.8, 2.1, 2.4,0,0,1024,1024,1024,1024,323.7,-89.9,96,3.761,3.735,3.753,3.762,3.761,3.794,20.563,68,14,Waypoint,
36.0028798,-118.5646414,5884.0885793669,126.968508,0,0.769685064,18700,2018-07-04 17:49:59,17,0,22.539,5884.0885793669,126.968508,0,0.98489504464,0,0,-0.671082,324.8, 2.1, 2.2,0,0,1024,1024,1024,1024,323.7,-89.9,96,3.761,3.735,3.753,3.762,3.761,3.794,20.563,68,14,Waypoint,
36.0028798,-118.5646413,5886.0570833669,128.937012,0,0.74143375076,18900,2018-07-04 17:49:59,17,0,22.539,5886.0570833669,128.937012,0,0.98489504464,0,0,-0.671082,324.9, 2.1, 2.8,0,0,1024,1024,1024,1024,323.7,-89.9,96,3.761,3.735,3.753,3.762,3.761,3.794,20.563,68,14,Waypoint,
36.0028798,-118.5646412,5887.0413353669,129.921264,0,0.7132874244,19010,2018-07-04 17:50:00,17,0,22.632,5887.0413353669,129.921264,0,0.98489504464,0,0,-0.671082,324.8, 2.1, 2.8,0,0,1024,1024,1024,1024,323.7,-89.9,96,3.761,3.735,3.753,3.762,3.761,3.794,19.739,68,14,Waypoint,
36.0028798,-118.5646411,5888.0255873669,130.905516,0,0.68525592744,19100,2018-07-04 17:50:00,17,0,22.632,5888.0255873669,130.905516,0,0.98489504464,0,0,-0.671082,324.6, 2.1, 2.6,0,0,1024,1024,1024,1024,323.7,-89.9,96,3.761,3.735,3.753,3.762,3.761,3.794,19.739,68,14,Waypoint,
36.0028798,-118.5646411,5889.0098393669,131.889768,0,0.68525592744,19200,2018-07-04 17:50:00,17,0,22.632,5889.0098393669,131.889768,0,0.98489504464,0,0,-0.671082,324.5, 2, 2.3,0,0,1024,1024,1024,1024,323.7,-90,96,3.761,3.735,3.753,3.762,3.761,3.794,19.739,68,14,Waypoint,
36.0028798,-118.564641,5889.9940913669,132.87402,0,0.65735566408,19400,2018-07-04 17:50:00,17,0,22.632,5889.9940913669,132.87402,0,0.98489504464,0,0,-0.671082,324.6, 1.8, 2.1,0,0,1024,1024,1024,1024,323.7,-90,96,3.761,3.735,3.753,3.762,3.761,3.794,19.739,68,14,Waypoint,
36.0028798,-118.5646408,5893.2749313669,136.15486,0,0.60201445496,19600,2018-07-04 17:50:00,17,0,22.632,5893.2749313669,136.15486,0,0.98489504464,0,0,-0.671082,324.8, 1.9, 1.7,0,0,1024,1024,1024,1024,323.7,-89.9,96,3.761,3.735,3.753,3.762,3.761,3.794,19.739,68,14,Waypoint,
36.0028798,-118.5646407,5894.2591833669,137.139112,0,0.57461944096,19700,2018-07-04 17:50:00,17,0,22.632,5894.2591833669,137.139112,0,0.98489504464,0,0,-0.671082,324.9, 1.7, 1.5,0,0,1024,1024,1024,1024,323.7,-89.9,96,3.761,3.735,3.753,3.762,3.761,3.794,19.739,68,14,Waypoint,
36.0028798,-118.5646407,5895.2434353669,138.123364,0,0.57461944096,19800,2018-07-04 17:50:00,17,0,22.632,5895.2434353669,138.123364,0,0.98489504464,0,0,-0.671082,325.1, 1.8, 1.7,0,0,1024,1024,1024,1024,323.7,-89.9,96,3.761,3.735,3.753,3.762,3.761,3.794,19.739,68,14,Waypoint,
36.0028798,-118.5646407,5896.2276873669,139.107616,0,0.57461944096,19900,2018-07-04 17:50:00,17,0,22.632,5896.2276873669,139.107616,0,0.98489504464,0,0,-0.671082,325.2, 1.8, 2.1,0,0,1024,1024,1024,1024,323.7,-89.9,96,3.761,3.735,3.753,3.762,3.761,3.794,19.739,68,14,Waypoint,
36.0028798,-118.5646406,5897.2119393669,140.091868,0,0.54744424324,20000,2018-07-04 17:50:01,17,0,22.632,5897.2119393669,140.091868,0,0.98489504464,0,0,-0.671082,325.3, 1.8, 2.3,0,0,1024,1024,1024,1024,323.7,-89.9,96,3.755,3.742,3.762,3.774,3.754,3.782,19.739,69.8,14,Waypoint,
36.0028798,-118.5646406,5898.1961913669,141.07612,0,0.54744424324,20100,2018-07-04 17:50:01,17,0,22.632,5898.1961913669,141.07612,0,0.98489504464,0,0,-0.671082,325.2, 1.9, 2.3,0,0,1024,1024,1024,1024,323.7,-89.9,96,3.755,3.742,3.762,3.774,3.754,3.782,19.739,69.8,14,Waypoint,
36.0028798,-118.5646405,5900.1646953669,143.044624,0,0.52052495104,20300,2018-07-04 17:50:01,17,0,22.632,5900.1646953669,143.044624,0,0.98489504464,0,0,-0.671082,324.9, 1.9, 2.8,0,0,1024,1024,1024,1024,323.7,-89.9,96,3.755,3.742,3.762,3.774,3.754,3.782,19.739,69.8,14,Waypoint,
36.0028798,-118.5646405,5901.1489473669,144.028876,0,0.52052495104,20400,2018-07-04 17:50:01,17,0,22.632,5901.1489473669,144.028876,0,0.98489504464,0,0,-0.671082,324.8, 1.9, 2.9,0,0,1024,1024,1024,1024,323.7,-89.9,96,3.755,3.742,3.762,3.774,3.754,3.782,19.739,69.8,14,Waypoint,
36.0028798,-118.5646405,5902.1331993669,145.013128,0,0.52052495104,20500,2018-07-04 17:50:01,17,0,22.632,5902.1331993669,145.013128,0,0.98489504464,0,0,-0.671082,324.7, 2, 2.7,0,0,1024,1024,1024,1024,323.7,-89.9,96,3.755,3.742,3.762,3.774,3.754,3.782,19.739,69.8,14,Waypoint,
36.0028798,-118.5646405,5903.1174513669,145.99738,0,0.52052495104,20600,2018-07-04 17:50:01,17,0,22.632,5903.1174513669,145.99738,0,0.98489504464,0,0,-0.671082,324.6, 2, 2.8,0,0,1024,1024,1024,1024,323.7,-89.9,96,3.755,3.742,3.762,3.774,3.754,3.782,19.739,69.8,14,Waypoint,
36.0028798,-118.5646405,5904.1017033669,146.981632,0,0.52052495104,20700,2018-07-04 17:50:01,17,0,22.632,5904.1017033669,146.981632,0,0.98489504464,0,0,-0.671082,324.5, 2.3, 2.8,0,0,1024,1024,1024,1024,323.7,-89.9,96,3.755,3.742,3.762,3.774,3.754,3.782,19.739,69.8,14,Waypoint,
36.0028799,-118.5646405,5905.0859553669,147.965884,0,0.50626313956,20800,2018-07-04 17:50:01,17,0,22.632,5905.0859553669,147.965884,0,0.98489504464,0,0,-0.671082,324.5, 2.3, 2.7,0,0,1024,1024,1024,1024,323.7,-89.9,96,3.755,3.742,3.762,3.774,3.754,3.782,19.739,69.8,14,Waypoint,
36.0028799,-118.5646405,5906.0702073669,148.950136,0,0.50626313956,20900,2018-07-04 17:50:01,17,0,22.632,5906.0702073669,148.950136,0,0.98489504464,0,0,-0.671082,324.5, 2.4, 2.5,0,0,1024,1024,1024,1024,323.7,-89.9,96,3.755,3.742,3.762,3.774,3.754,3.782,19.739,69.8,14,Waypoint,
36.00288,-118.5646405,5907.0544593669,149.934388,0,0.49428807356,21000,2018-07-04 17:50:02,17,0,22.579,5907.0544593669,149.934388,0,0.98489504464,0,0,-0.671082,324.6, 2.5, 2.4,0,0,1024,1024,1024,1024,323.7,-89.9,96,3.757,3.745,3.758,3.766,3.76,3.793,20.123,69.8,14,Waypoint,
36.00288,-118.5646405,5908.0387113669,150.91864,0.223694,0.49428807356,21100,2018-07-04 17:50:02,17,0,22.579,5908.0387113669,150.91864,0.223694,0.98489504464,0,0,-0.671082,324.7, 2.7, 2.2,0,0,1024,1024,1024,1024,323.7,-89.9,96,3.757,3.745,3.758,3.766,3.76,3.793,20.123,69.8,14,Waypoint,
36.0028801,-118.5646405,5909.0229633669,151.902892,0.223694,0.48477363756,21200,2018-07-04 17:50:02,17,0,22.579,5909.0229633669,151.902892,0.223694,0.98489504464,0,0,-0.671082,324.7, 2.9, 1.8,0,0,1024,1024,1024,1024,323.7,-89.9,96,3.757,3.745,3.758,3.766,3.76,3.793,20.123,69.8,14,Waypoint,
36.0028802,-118.5646404,5910.0072153669,152.887144,0,0.44871064428,21300,2018-07-04 17:50:02,17,0,22.579,5910.0072153669,152.887144,0.223694,0.98489504464,0,0,-0.671082,324.8, 3.1, 1.6,0,0,1024,1024,1024,1024,323.7,-89.9,96,3.757,3.745,3.758,3.766,3.76,3.793,20.123,69.8,14,Waypoint,
36.0028802,-118.5646404,5910.9914673669,153.871396,0,0.44871064428,21400,2018-07-04 17:50:02,17,0,22.579,5910.9914673669,153.871396,0.223694,0.98489504464,0,0,-0.671082,324.8, 3.2, 1.4,0,0,1024,1024,1024,1024,323.7,-89.9,96,3.757,3.745,3.758,3.766,3.76,3.793,20.123,69.8,14,Waypoint,
36.0028803,-118.5646404,5911.9757193669,154.855648,0,0.44423885936,21600,2018-07-04 17:50:02,17,0,22.579,5911.9757193669,154.855648,0.223694,0.98489504464,0,0,-0.671082,324.8, 3, 1.4,0,0,1024,1024,1024,1024,323.7,-89.9,96,3.757,3.745,3.758,3.766,3.76,3.793,20.123,69.8,14,Waypoint,
36.0028803,-118.5646403,5912.9599713669,155.8399,0,0.4148294096,21700,2018-07-04 17:50:02,17,0,22.579,5912.9599713669,155.8399,0.223694,0.98489504464,0,0,-0.671082,324.8, 2.9, 1.5,0,0,1024,1024,1024,1024,323.7,-89.9,96,3.757,3.745,3.758,3.766,3.76,3.793,20.123,69.8,14,Waypoint,
36.0028804,-118.5646403,5914.9284753669,157.808404,0,0.413221798,21800,2018-07-04 17:50:02,17,0,22.579,5914.9284753669,157.808404,0.223694,0.98489504464,0,0,-0.671082,324.7, 2.9, 1.4,0,0,1024,1024,1024,1024,323.7,-89.9,96,3.757,3.745,3.758,3.766,3.76,3.793,20.123,69.8,14,Waypoint,
36.0028805,-118.5646403,5915.9127273669,158.792656,0,0.4148294096,21900,2018-07-04 17:50:02,17,0,22.579,5915.9127273669,158.792656,0.223694,0.98489504464,0,0,-0.671082,324.6, 3.2, 1.3,0,0,1024,1024,1024,1024,323.7,-89.9,96,3.757,3.745,3.758,3.766,3.76,3.793,20.123,69.8,14,Waypoint,
36.0028805,-118.5646403,5916.8969793669,159.776908,0,0.4148294096,22000,2018-07-04 17:50:03,17,0,22.59,5916.8969793669,159.776908,0.223694,0.98489504464,0,0,-0.671082,324.5, 3.5, 1.6,0,0,1024,1024,1024,1024,323.7,-89.9,96,3.761,3.749,3.756,3.765,3.762,3.786,19.695,69.8,14,Waypoint,
36.0028805,-118.5646404,5917.8812313669,160.76116,0,0.44423885936,22100,2018-07-04 17:50:03,17,0,22.59,5917.8812313669,160.76116,0.223694,0.98489504464,0,0,-0.671082,324.4, 3.6, 2,0,0,1024,1024,1024,1024,323.7,-89.9,96,3.761,3.749,3.756,3.765,3.762,3.786,19.695,69.8,14,Waypoint,
36.0028806,-118.5646404,5918.8654833669,161.745412,0,0.44871064428,22200,2018-07-04 17:50:03,17,0,22.59,5918.8654833669,161.745412,0.223694,0.98489504464,0,0,-0.671082,324.4, 3.4, 1.8,0,0,1024,1024,1024,1024,323.7,-89.9,96,3.761,3.749,3.756,3.765,3.762,3.786,19.695,69.8,14,Waypoint,
36.0028806,-118.5646404,5919.8497353669,162.729664,0,0.44871064428,22300,2018-07-04 17:50:03,17,0,22.59,5919.8497353669,162.729664,0.223694,0.98489504464,0,0,-0.671082,324.5, 3.2, 1.5,0,0,1024,1024,1024,1024,323.7,-89.9,96,3.761,3.749,3.756,3.765,3.762,3.786,19.695,69.8,14,Waypoint,
36.0028806,-118.5646405,5921.8182393669,164.698168,0,0.47785762684,22500,2018-07-04 17:50:03,17,0,22.59,5921.8182393669,164.698168,0.223694,0.98489504464,0,0,-0.671082,324.7, 3.1, 2,0,0,1024,1024,1024,1024,323.7,-89.9,96,3.761,3.749,3.756,3.765,3.762,3.786,19.695,69.8,14,Waypoint,
36.0028806,-118.5646405,5922.8024913669,165.68242,0,0.47785762684,22600,2018-07-04 17:50:03,17,0,22.59,5922.8024913669,165.68242,0.223694,0.98489504464,0,0,-0.671082,324.7, 2.8, 2.2,0,0,1024,1024,1024,1024,323.7,-90,96,3.761,3.749,3.756,3.765,3.762,3.786,19.695,69.8,14,Waypoint,
36.0028806,-118.5646405,5923.7867433669,166.666672,0,0.47785762684,22700,2018-07-04 17:50:03,17,0,22.59,5923.7867433669,166.666672,0.223694,0.98489504464,0,0,-0.671082,324.7, 2.5, 2.3,0,0,1024,1024,1024,1024,323.7,-89.9,96,3.761,3.749,3.756,3.765,3.762,3.786,19.695,69.8,14,Waypoint,
36.0028806,-118.5646406,5924.7709953669,167.650924,0,0.50704726032,22800,2018-07-04 17:50:03,17,0,22.59,5924.7709953669,167.650924,0.223694,0.98489504464,0,0,-0.671082,324.7, 2.4, 2.2,0,0,1024,1024,1024,1024,323.7,-89.9,96,3.761,3.749,3.756,3.765,3.762,3.786,19.695,69.8,14,Waypoint,
36.0028805,-118.5646406,5925.7552473669,168.635176,0,0.50309384812,22900,2018-07-04 17:50:03,17,0,22.59,5925.7552473669,168.635176,0.223694,0.98489504464,0,0,-0.671082,324.8, 2.5, 2,0,0,1024,1024,1024,1024,323.7,-89.9,96,3.761,3.749,3.756,3.765,3.762,3.786,19.695,69.8,14,Waypoint,
36.0028805,-118.5646406,5926.7394993669,169.619428,0,0.50309384812,23000,2018-07-04 17:50:04,17,0,22.591,5926.7394993669,169.619428,0.223694,0.98489504464,0,0,-0.671082,324.9, 2.5, 1.7,0,0,1024,1024,1024,1024,323.7,-89.9,96,3.751,3.745,3.763,3.774,3.76,3.79,19.223,69.8,14,Waypoint,
36.0028806,-118.5646406,5927.7237513669,170.60368,0,0.50704726032,23100,2018-07-04 17:50:04,17,0,22.591,5927.7237513669,170.60368,0.223694,0.98489504464,0,0,-0.671082,324.9, 2.7, 1.5,0,0,1024,1024,1024,1024,323.7,-89.9,96,3.751,3.745,3.763,3.774,3.76,3.79,19.223,69.8,14,Waypoint,
36.0028805,-118.5646406,5928.7080033669,171.587932,0,0.50309384812,23200,2018-07-04 17:50:04,17,0,22.591,5928.7080033669,171.587932,0.223694,0.98489504464,0,0,-0.671082,324.9, 2.8, 1.6,0,0,1024,1024,1024,1024,323.7,-89.9,96,3.751,3.745,3.763,3.774,3.76,3.79,19.223,69.8,14,Waypoint,
36.0028805,-118.5646406,5929.6922553669,172.572184,0,0.50309384812,23300,2018-07-04 17:50:04,17,0,22.591,5929.6922553669,172.572184,0.223694,0.98489504464,0,0,-0.671082,324.8, 2.8, 2,0,0,1024,1024,1024,1024,323.7,-89.9,96,3.751,3.745,3.763,3.774,3.76,3.79,19.223,69.8,14,Waypoint,
36.0028805,-118.5646407,5930.6765073669,173.556436,0,0.53253610628,23400,2018-07-04 17:50:04,17,0,22.591,5930.6765073669,173.556436,0.223694,0.98489504464,0,0,-0.671082,324.6, 2.9, 2.1,0,0,1024,1024,1024,1024,323.7,-89.9,96,3.751,3.745,3.763,3.774,3.76,3.79,19.223,69.8,14,Waypoint,
36.0028805,-118.5646407,5931.3326753669,174.212604,0,0.53253610628,23500,2018-07-04 17:50:04,17,0,22.591,5931.3326753669,174.212604,0.223694,0.98489504464,0,0,-0.671082,324.5, 2.7, 2.1,0,0,1024,1024,1024,1024,323.7,-89.9,96,3.751,3.745,3.763,3.774,3.76,3.79,19.223,69.8,14,Waypoint,
36.0028804,-118.5646407,5932.3169273669,175.196856,0,0.53128610624,23600,2018-07-04 17:50:04,17,0,22.591,5932.3169273669,175.196856,0.223694,0.98489504464,0,0,-0.671082,324.5, 2.5, 2.1,0,0,1024,1024,1024,1024,323.7,-89.9,96,3.751,3.745,3.763,3.774,3.76,3.79,19.223,69.8,14,Waypoint,
36.0028804,-118.5646408,5933.3011793669,176.181108,0,0.56080054288,23700,2018-07-04 17:50:04,17,0,22.591,5933.3011793669,176.181108,0.223694,0.98489504464,0,0,-0.671082,324.4, 2.6, 2,0,0,1024,1024,1024,1024,323.7,-89.9,96,3.751,3.745,3.763,3.774,3.76,3.79,19.223,69.8,14,Waypoint,
36.0028804,-118.5646407,5934.2854313669,177.16536,0,0.53128610624,23800,2018-07-04 17:50:04,17,0,22.591,5934.2854313669,177.16536,0.223694,0.98489504464,0,0,-0.671082,324.5, 2.4, 2,0,0,1024,1024,1024,1024,323.7,-90,96,3.751,3.745,3.763,3.774,3.76,3.79,19.223,69.8,14,Waypoint,
36.0028803,-118.5646407,5935.2696833669,178.149612,0,0.53253610628,24000,2018-07-04 17:50:05,17,0,22.615,5935.2696833669,178.149612,0.223694,0.98489504464,0,0,-0.671082,324.5, 2.2, 2,0,0,1024,1024,1024,1024,323.7,-90,96,3.758,3.754,3.757,3.774,3.77,3.794,19.033,69.8,14,Waypoint,
36.0028802,-118.5646406,5938.2224393669,181.102368,0,0.50704726032,24200,2018-07-04 17:50:05,17,0,22.615,5938.2224393669,181.102368,0.223694,0.98489504464,0,0,-0.671082,324.9, 1.8, 1.7,0,0,1024,1024,1024,1024,323.7,-90,96,3.758,3.754,3.757,3.774,3.77,3.794,19.033,69.8,14,Waypoint,
36.0028802,-118.5646406,5939.2066913669,182.08662,0,0.50704726032,24300,2018-07-04 17:50:05,17,0,22.615,5939.2066913669,182.08662,0.223694,0.98489504464,0,0,-0.671082,324.9, 2, 1.4,0,0,1024,1024,1024,1024,323.7,-89.9,96,3.758,3.754,3.757,3.774,3.77,3.794,19.033,69.8,14,Waypoint,
36.0028801,-118.5646405,5941.1751953669,184.055124,0,0.48477363756,24500,2018-07-04 17:50:05,17,0,22.615,5941.1751953669,184.055124,0.223694,0.98489504464,0,0,-0.671082,324.6, 2, 1.6,0,0,1024,1024,1024,1024,323.7,-90,96,3.758,3.754,3.757,3.774,3.77,3.794,19.033,69.8,14,Waypoint,
36.0028801,-118.5646404,5942.1594473669,185.039376,0,0.45606628756,24600,2018-07-04 17:50:05,17,0,22.615,5942.1594473669,185.039376,0.223694,0.98489504464,0,0,-0.671082,324.6, 1.7, 1.6,0,0,1024,1024,1024,1024,323.7,-90,96,3.758,3.754,3.757,3.774,3.77,3.794,19.033,69.8,14,Waypoint,
36.00288,-118.5646404,5943.1436993669,186.023628,0,0.46617127476,24700,2018-07-04 17:50:05,17,0,22.615,5943.1436993669,186.023628,0.223694,0.98489504464,0,0,-0.671082,324.7, 1.2, 1.9,0,0,1024,1024,1024,1024,323.7,-90,96,3.758,3.754,3.757,3.774,3.77,3.794,19.033,69.8,14,Waypoint,
36.0028799,-118.5646403,5944.1279513669,187.00788,0,0.45169948952,24800,2018-07-04 17:50:05,17,0,22.615,5944.1279513669,187.00788,0.223694,0.98489504464,0,0,-0.671082,325, 0.9, 1.9,0,0,1024,1024,1024,1024,323.7,-89.9,96,3.758,3.754,3.757,3.774,3.77,3.794,19.033,69.8,14,Waypoint,
36.0028799,-118.5646403,5945.1122033669,187.992132,0,0.45169948952,24900,2018-07-04 17:50:05,17,0,22.615,5945.1122033669,187.992132,0.223694,0.98489504464,0,0,-0.671082,325.2, 1, 1.7,0,0,1024,1024,1024,1024,323.7,-89.9,96,3.758,3.754,3.757,3.774,3.77,3.794,19.033,69.8,14,Waypoint,
36.0028798,-118.5646402,5946.0964553669,188.976384,0,0.44175854432,25000,2018-07-04 17:50:06,17,0,22.536,5946.0964553669,188.976384,0.223694,0.98489504464,0,0,-0.671082,325.2, 1.1, 1.5,0,0,1024,1024,1024,1024,323.7,-89.9,96,3.756,3.734,3.746,3.744,3.749,3.777,19.69,69.8,14,Waypoint,
36.0028797,-118.5646401,5947.0807073669,189.960636,0,0.43666668064,25100,2018-07-04 17:50:06,17,0,22.536,5947.0807073669,189.960636,0.223694,0.98489504464,0,0,-0.671082,325, 1.1, 1.5,0,0,1024,1024,1024,1024,323.7,-89.9,96,3.756,3.734,3.746,3.744,3.749,3.777,19.69,69.8,14,Waypoint,
36.0028797,-118.5646401,5948.0649593669,190.944888,0,0.43666668064,25200,2018-07-04 17:50:06,17,0,22.536,5948.0649593669,190.944888,0.223694,0.98489504464,0,0,-0.671082,324.8, 1.1, 1.6,0,0,1024,1024,1024,1024,323.7,-89.9,96,3.756,3.734,3.746,3.744,3.749,3.777,19.69,69.8,14,Waypoint,
36.0028796,-118.5646401,5949.0492113669,191.92914,0,0.45895998844,25300,2018-07-04 17:50:06,17,0,22.536,5949.0492113669,191.92914,0.223694,0.98489504464,0,0,-0.671082,324.7, 1.1, 1.7,0,0,1024,1024,1024,1024,323.7,-89.9,96,3.756,3.734,3.746,3.744,3.749,3.777,19.69,69.8,14,Waypoint,
36.0028796,-118.56464,5950.0334633669,192.913392,0,0.43658465964,25400,2018-07-04 17:50:06,17,0,22.536,5950.0334633669,192.913392,0.223694,0.98489504464,0,0,-0.671082,324.7, 1.2, 1.8,0,0,1024,1024,1024,1024,323.7,-89.9,96,3.756,3.734,3.746,3.744,3.749,3.777,19.69,69.8,14,Waypoint,
36.0028795,-118.56464,5951.0177153669,193.897644,0,0.46177494916,25500,2018-07-04 17:50:06,17,0,22.536,5951.0177153669,193.897644,0.223694,0.98489504464,0,0,-0.671082,324.7, 1.3, 1.8,0,0,1024,1024,1024,1024,323.7,-89.9,96,3.756,3.734,3.746,3.744,3.749,3.777,19.69,69.8,14,Waypoint,
36.0028795,-118.5646398,5952.9862193669,195.866148,0,0.42236221824,25700,2018-07-04 17:50:06,17,0,22.536,5952.9862193669,195.866148,0.223694,0.98489504464,0,0,-0.671082,324.9, 1.2, 1.8,0,0,1024,1024,1024,1024,323.7,-90,96,3.756,3.734,3.746,3.744,3.749,3.777,19.69,69.8,14,Waypoint,
36.0028794,-118.5646398,5953.9704713669,196.8504,0,0.45130906956,25800,2018-07-04 17:50:06,17,0,22.536,5953.9704713669,196.8504,0.223694,0.98489504464,0,0,-0.671082,325, 1, 1.8,0,0,1024,1024,1024,1024,323.7,-89.9,96,3.756,3.734,3.746,3.744,3.749,3.777,19.69,69.8,14,Waypoint,
36.0028794,-118.5646397,5954.9547233669,197.834652,0,0.43459318976,25900,2018-07-04 17:50:06,17,0,22.536,5954.9547233669,197.834652,0.223694,0.98489504464,0,0,-0.671082,325.1, 0.9, 1.9,0,0,1024,1024,1024,1024,323.7,-90,96,3.756,3.734,3.746,3.744,3.749,3.777,19.69,69.8,14,Waypoint,
36.0028793,-118.5646397,5955.9389753669,198.818904,0,0.46564634036,26000,2018-07-04 17:50:07,17,0,22.375,5955.9389753669,198.818904,0.223694,0.98489504464,0,0,-0.671082,325.1, 0.7, 1.8,0,0,1024,1024,1024,1024,323.7,-90,95,3.727,3.701,3.705,3.716,3.715,3.744,21.429,69.8,14,Waypoint,
36.0028792,-118.5646395,5957.9074793669,200.787408,0,0.47228019884,26200,2018-07-04 17:50:07,17,0,22.375,5957.9074793669,200.787408,0.223694,0.98489504464,0,0,-0.671082,325, 0.5, 1.6,0,0,1024,1024,1024,1024,323.7,-89.9,95,3.727,3.701,3.705,3.716,3.715,3.744,21.429,69.8,14,Waypoint,
36.0028792,-118.5646395,5958.8917313669,201.77166,0,0.47228019884,26300,2018-07-04 17:50:07,17,0,22.375,5958.8917313669,201.77166,0.223694,0.98489504464,0,0,-0.671082,325, 0.3, 1.5,0,0,1024,1024,1024,1024,323.7,-89.9,95,3.727,3.701,3.705,3.716,3.715,3.744,21.429,69.8,14,Waypoint,
36.0028791,-118.5646394,5959.8759833669,202.755912,0,0.49673229936,26500,2018-07-04 17:50:07,17,0,22.375,5959.8759833669,202.755912,0.223694,0.98489504464,0,0,-0.671082,324.9, 0.3, 1.6,0,0,1024,1024,1024,1024,323.7,-89.9,95,3.727,3.701,3.705,3.716,3.715,3.744,21.429,69.8,14,Waypoint,
36.0028791,-118.5646394,5960.8602353669,203.740164,0,0.49673229936,26600,2018-07-04 17:50:07,17,0,22.375,5960.8602353669,203.740164,0.223694,0.98489504464,0,0,-0.671082,324.9, 0.4, 1.8,0,0,1024,1024,1024,1024,323.7,-89.9,95,3.727,3.701,3.705,3.716,3.715,3.744,21.429,69.8,14,Waypoint,
36.0028791,-118.5646393,5962.5006553669,205.380584,0,0.48877626236,26700,2018-07-04 17:50:07,17,0,22.375,5962.5006553669,205.380584,0.223694,0.98489504464,0,0,-0.671082,324.9, 0.5, 1.7,0,0,1024,1024,1024,1024,323.7,-89.9,95,3.727,3.701,3.705,3.716,3.715,3.744,21.429,69.8,14,Waypoint,
36.0028791,-118.5646393,5963.4849073669,206.364836,0,0.48877626236,26800,2018-07-04 17:50:07,17,0,22.375,5963.4849073669,206.364836,0.223694,0.98489504464,0,0,-0.671082,324.8, 0.7, 1.4,0,0,1024,1024,1024,1024,323.7,-89.9,95,3.727,3.701,3.705,3.716,3.715,3.744,21.429,69.8,14,Waypoint,
36.0028791,-118.5646393,5964.4691593669,207.349088,0,0.48877626236,26900,2018-07-04 17:50:07,17,0,22.375,5964.4691593669,207.349088,0.223694,0.98489504464,0,0,-0.671082,324.7, 1.1, 1.4,0,0,1024,1024,1024,1024,323.7,-89.9,95,3.727,3.701,3.705,3.716,3.715,3.744,21.429,69.8,14,Waypoint,
36.0028792,-118.5646393,5965.7814953669,208.661424,0,0.45345801976,27000,2018-07-04 17:50:08,17,0,22.239,5965.7814953669,208.661424,0.223694,0.98489504464,0,0,-0.671082,324.5, 1.3, 1.6,0,0,1024,1024,1024,1024,323.7,-89.9,95,3.698,3.697,3.695,3.706,3.706,3.74,22.021,69.8,14,Waypoint,
36.0028792,-118.5646392,5966.4376633669,209.317592,0,0.44668308516,27100,2018-07-04 17:50:08,17,0,22.239,5966.4376633669,209.317592,0.223694,0.98489504464,0,0,-0.671082,324.4, 1.5, 1.6,0,0,1024,1024,1024,1024,323.7,-89.9,95,3.698,3.697,3.695,3.706,3.706,3.74,22.021,69.8,14,Waypoint,
36.0028792,-118.5646392,5967.7499993669,210.629928,0,0.44668308516,27200,2018-07-04 17:50:08,17,0,22.239,5967.7499993669,210.629928,0.223694,0.98489504464,0,0,-0.671082,324.3, 1.4, 1.3,0,0,1024,1024,1024,1024,323.7,-89.9,95,3.698,3.697,3.695,3.706,3.706,3.74,22.021,69.8,14,Waypoint,
36.0028792,-118.5646391,5968.7342513669,211.61418,0,0.4417815102,27300,2018-07-04 17:50:08,17,0,22.239,5968.7342513669,211.61418,0.223694,0.98489504464,0,0,-0.671082,324.2, 1.2, 1,0,0,1024,1024,1024,1024,323.7,-89.9,95,3.698,3.697,3.695,3.706,3.706,3.74,22.021,69.8,14,Waypoint,
36.0028793,-118.5646391,5969.7185033669,212.598432,0,0.40565290012,27400,2018-07-04 17:50:08,17,0,22.239,5969.7185033669,212.598432,0.223694,0.98489504464,0,0,-0.671082,324.3, 1.1, 0.9,0,0,1024,1024,1024,1024,323.7,-89.9,95,3.698,3.697,3.695,3.706,3.706,3.74,22.021,69.8,14,Waypoint,
36.0028793,-118.5646391,5970.7027553669,213.582684,0,0.40565290012,27500,2018-07-04 17:50:08,17,0,22.239,5970.7027553669,213.582684,0.223694,0.98489504464,0,0,-0.671082,324.3, 1, 0.7,0,0,1024,1024,1024,1024,323.7,-89.9,95,3.698,3.697,3.695,3.706,3.706,3.74,22.021,69.8,14,Waypoint,
36.0028793,-118.5646391,5972.6712593669,215.551188,0,0.40565290012,27700,2018-07-04 17:50:08,17,0,22.239,5972.6712593669,215.551188,0.223694,0.98489504464,0,0,-0.671082,324.6, 1.1, 1,0,0,1024,1024,1024,1024,323.7,-89.9,95,3.698,3.697,3.695,3.706,3.706,3.74,22.021,69.8,14,Waypoint,
36.0028793,-118.5646391,5973.6555113669,216.53544,0,0.40565290012,27800,2018-07-04 17:50:08,17,0,22.239,5973.6555113669,216.53544,0.223694,0.98489504464,0,0,-0.671082,324.8, 1.5, 1.3,0,0,1024,1024,1024,1024,323.7,-89.9,95,3.698,3.697,3.695,3.706,3.706,3.74,22.021,69.8,14,Waypoint,
