latitude,longitude,altitude(feet),ascent(feet),speed(mph),distance(feet),time(millisecond),datetime(utc),satellites,gpslevel,voltage(v),max_altitude(feet),max_ascent(feet),max_speed(mph),max_distance(feet), xSpeed(mph), ySpeed(mph), zSpeed(mph), compass_heading(degrees), pitch(degrees), roll(degrees),isPhoto,isVideo,rc_elevator,rc_aileron,rc_throttle,rc_rudder,gimbal_heading(degrees),gimbal_pitch(degrees),battery_percent,voltageCell1,voltageCell2,voltageCell3,voltageCell4,voltageCell5,voltageCell6,current(A),battery_temperature(f),flycStateRaw,flycState,message
36.0028653,-118.5646343,5757.9178538728,0,0,0,3210,2018-07-04 16:40:10,14,0,0,5757.9178538728,0,0,0,0,0,0,53.2, 0.4, -0.4,1,0,1024,1024,1024,1024,53.4,-89.9,96,4.081,4.097,4.06,4.083,4.065,4.032,0,66.2,11,AutoTakeoff,DJI_0001.jpg Starting Mission from Lat/Long: 36.00287/-118.56464 Camera: Zenmuse X3 - Overlap: 90/90 - Active Connection: No
36.0028653,-118.5646343,5757.9178538728,0,0,0,3300,2018-07-04 16:40:10,14,0,0,5757.9178538728,0,0,0,0,0,0,53.2, 0.5, -0.1,0,0,1024,1024,1024,1024,53.4,-89.9,96,4.081,4.097,4.06,4.083,4.065,4.032,0,66.2,11,AutoTakeoff,
36.0028653,-118.5646343,5757.9178538728,0,0,0,3400,2018-07-04 16:40:10,14,0,0,5757.9178538728,0,0,0,0,0,0,53.2, 0.2, 0,0,0,1024,1024,1024,1024,53.4,-89.9,96,4.081,4.097,4.06,4.083,4.065,4.032,0,66.2,11,AutoTakeoff,
36.0028653,-118.5646343,5758.2459378728,0.328084,0,0,3500,2018-07-04 16:40:10,14,0,0,5758.2459378728,0.328084,0,0,0,0,0,53.3, -0.2, 0.1,0,0,1024,1024,1024,1024,53.4,-90,96,4.081,4.097,4.06,4.083,4.065,4.032,0,66.2,11,AutoTakeoff,
36.0028653,-118.5646343,5758.2459378728,0.328084,0,0,3600,2018-07-04 16:40:10,14,0,0,5758.2459378728,0.328084,0,0,0,0,0,53.3, -0.3, 0.3,0,0,1024,1024,1024,1024,53.4,-89.9,96,4.081,4.097,4.06,4.083,4.065,4.032,0,66.2,11,AutoTakeoff,
36.0028653,-118.5646343,5758.5740218728,0.656168,0,0,3700,2018-07-04 16:40:10,14,0,0,5758.5740218728,0.656168,0,0,0,0,0,53.3, -0.2, 0.2,0,0,1024,1024,1024,1024,53.4,-89.9,96,4.081,4.097,4.06,4.083,4.065,4.032,0,66.2,11,AutoTakeoff,
36.0028653,-118.5646344,5758.5740218728,0.656168,0,0.0295158802096,3800,2018-07-04 16:40:10,14,0,0,5758.5740218728,0.656168,0,0.0295158802096,0,0,0,53.3, 0, 0.3,0,0,1024,1024,1024,1024,53.4,-89.9,96,4.081,4.097,4.06,4.083,4.065,4.032,0,66.2,11,AutoTakeoff,
36.0028654,-118.5646344,5758.9021058728,0.984252,0,0.04692913536,3900,2018-07-04 16:40:11,13,0,0,5758.9021058728,0.984252,0,0.04692913536,0,0,0,53.2, 0.3, 0.6,0,0,1024,1024,1024,1024,53.4,-89.9,96,4.081,4.097,4.06,4.083,4.065,4.032,0,66.2,11,AutoTakeoff,
36.0028655,-118.5646344,5759.2301898728,1.312336,0,0.078713257112,4000,2018-07-04 16:40:11,13,0,24.793,5759.2301898728,1.312336,0,0.078713257112,0,0,0,53.1, 0.2, 0.7,0,0,1024,1024,1024,1024,53.4,-89.9,96,4.081,4.097,4.06,4.083,4.065,4.032,7.719,66.2,11,AutoTakeoff,
36.0028656,-118.5646344,5759.5582738728,1.64042,0,0.11336450494,4200,2018-07-04 16:40:11,13,0,24.793,5759.5582738728,1.64042,0,0.11336450494,0,0,0,53.1, 0, 0.7,0,0,1024,1024,1024,1024,53.4,-89.9,96,4.081,4.097,4.06,4.083,4.065,4.032,7.719,66.2,11,AutoTakeoff,
36.0028656,-118.5646344,5759.5582738728,1.64042,0,0.11336450494,4300,2018-07-04 16:40:11,13,0,24.793,5759.5582738728,1.64042,0,0.11336450494,0,0,0,53.1, 0.1, 0.6,0,0,1024,1024,1024,1024,53.4,-89.9,96,4.081,4.097,4.06,4.083,4.065,4.032,7.719,66.2,11,AutoTakeoff,
36.0028656,-118.5646343,5759.8863578728,1.968504,0,0.109454727912,4400,2018-07-04 16:40:11,13,0,24.793,5759.8863578728,1.968504,0,0.11336450494,0,0,0,53.2, 0.3, 0.7,0,0,1024,1024,1024,1024,53.4,-89.9,96,4.081,4.097,4.06,4.083,4.065,4.032,7.719,66.2,11,AutoTakeoff,
36.0028657,-118.5646343,5759.8863578728,1.968504,0,0.145939637216,4500,2018-07-04 16:40:11,12,0,24.793,5759.8863578728,1.968504,0,0.145939637216,0,0,-0.223694,53.2, 0.3, 0.7,0,0,1024,1024,1024,1024,53.4,-89.9,96,4.081,4.097,4.06,4.083,4.065,4.032,7.719,66.2,11,AutoTakeoff,
36.0028658,-118.5646344,5760.2144418728,2.296588,0,0.184796921924,4600,2018-07-04 16:40:11,12,0,24.793,5760.2144418728,2.296588,0,0.184796921924,0,0,0,53.2, 0.4, 0.7,0,0,1024,1024,1024,1024,53.4,-89.9,96,4.081,4.097,4.06,4.083,4.065,4.032,7.719,66.2,11,AutoTakeoff,
36.0028659,-118.5646344,5760.2144418728,2.296588,0,0.220890427016,4700,2018-07-04 16:40:11,12,0,24.793,5760.2144418728,2.296588,0,0.220890427016,0,0,0,53.3, 0.4, 0.8,0,0,1024,1024,1024,1024,53.4,-89.9,96,4.081,4.097,4.06,4.083,4.065,4.032,7.719,66.2,11,AutoTakeoff,
36.0028659,-118.5646344,5760.2144418728,2.296588,0,0.220890427016,4800,2018-07-04 16:40:11,12,0,24.793,5760.2144418728,2.296588,0,0.220890427016,0,0,0,53.3, 0.4, 0.9,0,0,1024,1024,1024,1024,53.4,-89.9,96,4.081,4.097,4.06,4.083,4.065,4.032,7.719,66.2,11,AutoTakeoff,
36.002866,-118.5646343,5760.5425258728,2.624672,0,0.255394693212,5000,2018-07-04 16:40:12,12,0,23.635,5760.5425258728,2.624672,0,0.255394693212,0,0,0,53.3, 0.5, 0.8,0,0,1024,1024,1024,1024,53.4,-89.9,96,3.909,3.94,3.921,3.937,3.918,3.92,16.581,66.2,11,AutoTakeoff,
36.0028661,-118.5646343,5760.8706098728,2.952756,0,0.291879602516,5200,2018-07-04 16:40:12,13,0,23.635,5760.8706098728,2.952756,0,0.291879602516,0,0,0,53.3, 0.7, 1,0,0,1024,1024,1024,1024,53.4,-89.9,96,3.909,3.94,3.921,3.937,3.918,3.92,16.581,66.2,14,Waypoint,
36.0028661,-118.5646342,5761.1986938728,3.28084,0,0.293368119624,5310,2018-07-04 16:40:12,12,0,23.635,5761.1986938728,3.28084,0,0.293368119624,0,0,0,53.2, 0.6, 1,0,0,1024,1024,1024,1024,53.4,-89.9,96,3.909,3.94,3.921,3.937,3.918,3.92,16.581,66.2,14,Waypoint,
36.0028661,-118.5646342,5761.1986938728,3.28084,0,0.293368119624,5400,2018-07-04 16:40:12,12,0,23.635,5761.1986938728,3.28084,0,0.293368119624,0,0,0,53.2, 0.6, 1,0,0,1024,1024,1024,1024,53.4,-89.9,96,3.909,3.94,3.921,3.937,3.918,3.92,16.581,66.2,14,Waypoint,
36.002866,-118.5646341,5761.1986938728,3.28084,0,0.262127961144,5600,2018-07-04 16:40:12,11,0,23.635,5761.1986938728,3.28084,0,0.293368119624,0,0,0,53.3, 0.5, 0.5,0,0,1024,1024,1024,1024,53.4,-89.9,96,3.909,3.94,3.921,3.937,3.918,3.92,16.581,66.2,14,Waypoint,
36.002866,-118.5646341,5761.1986938728,3.28084,0,0.262127961144,5700,2018-07-04 16:40:12,11,0,23.635,5761.1986938728,3.28084,0,0.293368119624,0,0,0,53.3, 0.5, 0.4,0,0,1024,1024,1024,1024,53.4,-89.9,96,3.909,3.94,3.921,3.937,3.918,3.92,16.581,66.2,14,Waypoint,
36.002866,-118.5646341,5761.5267778728,3.608924,0,0.262127961144,5800,2018-07-04 16:40:12,11,0,23.635,5761.5267778728,3.608924,0,0.293368119624,0,0,-0.223694,53.3, 0.5, 0.3,0,0,1024,1024,1024,1024,53.4,-89.9,96,3.909,3.94,3.921,3.937,3.918,3.92,16.581,66.2,14,Waypoint,
36.002866,-118.564634,5761.5267778728,3.608924,0,0.270309063768,5900,2018-07-04 16:40:13,11,0,23.635,5761.5267778728,3.608924,0,0.293368119624,0,0,-0.223694,53.3, 0.5, 0.4,0,0,1024,1024,1024,1024,53.4,-89.9,96,3.909,3.94,3.921,3.937,3.918,3.92,16.581,66.2,14,Waypoint,
36.0028661,-118.564634,5761.8548618728,3.937008,0,0.305015429708,6000,2018-07-04 16:40:13,12,0,23.341,5761.8548618728,3.937008,0,0.305015429708,0,0,-0.223694,53.3, 0.5, 0.4,0,0,1024,1024,1024,1024,53.4,-89.9,96,3.873,3.899,3.894,3.896,3.888,3.88,17.232,66.2,14,Waypoint,
36.0028661,-118.564634,5762.1829458728,4.265092,0,0.305015429708,6100,2018-07-04 16:40:13,12,0,23.341,5762.1829458728,4.265092,0,0.305015429708,0,0,-0.223694,53.3, 0.6, 0.5,0,0,1024,1024,1024,1024,53.4,-89.9,96,3.873,3.899,3.894,3.896,3.888,3.88,17.232,66.2,14,Waypoint,
36.0028662,-118.5646341,5762.5110298728,4.593176,0,0.3336286196,6200,2018-07-04 16:40:13,13,0,23.341,5762.5110298728,4.593176,0,0.3336286196,0,0,-0.223694,53.3, 0.6, 0.6,0,0,1024,1024,1024,1024,53.4,-89.9,96,3.873,3.899,3.894,3.896,3.888,3.88,17.232,66.2,14,Waypoint,
36.0028662,-118.5646341,5763.1671978728,5.249344,0,0.3336286196,6300,2018-07-04 16:40:13,13,0,23.341,5763.1671978728,5.249344,0,0.3336286196,0,0,-0.223694,53.2, 0.6, 0.7,0,0,1024,1024,1024,1024,53.4,-89.9,96,3.873,3.899,3.894,3.896,3.888,3.88,17.232,66.2,14,Waypoint,
36.0028662,-118.5646341,5763.4952818728,5.577428,0,0.3336286196,6400,2018-07-04 16:40:13,13,0,23.341,5763.4952818728,5.577428,0,0.3336286196,0,0,-0.447388,53.1, 0.6, 0.8,0,0,1024,1024,1024,1024,53.4,-89.9,96,3.873,3.899,3.894,3.896,3.888,3.88,17.232,66.2,14,Waypoint,
36.0028662,-118.5646341,5764.1514498728,6.233596,0,0.3336286196,6500,2018-07-04 16:40:13,13,0,23.341,5764.1514498728,6.233596,0,0.3336286196,0,0,-0.447388,53.1, 0.5, 0.8,0,0,1024,1024,1024,1024,53.4,-89.9,96,3.873,3.899,3.894,3.896,3.888,3.88,17.232,66.2,14,Waypoint,
36.0028662,-118.5646341,5764.8076178728,6.889764,0,0.3336286196,6600,2018-07-04 16:40:13,13,0,23.341,5764.8076178728,6.889764,0,0.3336286196,0,0,-0.447388,53.1, 0.4, 0.6,0,0,1024,1024,1024,1024,53.4,-90,96,3.873,3.899,3.894,3.896,3.888,3.88,17.232,66.2,14,Waypoint,
36.0028662,-118.5646342,5765.4637858728,7.545932,0,0.32968833076,6700,2018-07-04 16:40:13,13,0,23.341,5765.4637858728,7.545932,0,0.3336286196,0,0,-0.447388,53.2, 0.3, 0.4,0,0,1024,1024,1024,1024,53.4,-89.9,96,3.873,3.899,3.894,3.896,3.888,3.88,17.232,66.2,14,Waypoint,
36.0028664,-118.5646343,5767.4322898728,9.514436,0,0.40133531468,6800,2018-07-04 16:40:13,12,0,23.341,5767.4322898728,9.514436,0,0.40133531468,0,0,-0.671082,53.4, 0.3, 1,0,0,1024,1024,1024,1024,53.4,-89.9,96,3.873,3.899,3.894,3.896,3.888,3.88,17.232,66.2,14,Waypoint,
36.0028664,-118.5646344,5768.4165418728,10.498688,0,0.40241799188,6900,2018-07-04 16:40:14,12,0,23.341,5768.4165418728,10.498688,0,0.40241799188,0,0,-0.671082,53.5, 0.3, 1.1,0,0,1024,1024,1024,1024,53.4,-89.9,96,3.873,3.899,3.894,3.896,3.888,3.88,17.232,66.2,14,Waypoint,
36.0028664,-118.5646344,5769.7288778728,11.811024,0,0.40241799188,7000,2018-07-04 16:40:14,12,0,23.148,5769.7288778728,11.811024,0,0.40241799188,0,0,-0.671082,53.5, 0.4, 1.2,0,0,1024,1024,1024,1024,53.4,-89.9,96,3.842,3.898,3.842,3.85,3.803,3.832,16.765,66.2,14,Waypoint,
36.0028664,-118.5646344,5770.7131298728,12.795276,0,0.40241799188,7100,2018-07-04 16:40:14,12,0,23.148,5770.7131298728,12.795276,0,0.40241799188,0,0,-0.671082,53.5, 0.4, 1.2,0,0,1024,1024,1024,1024,53.4,-89.9,96,3.842,3.898,3.842,3.85,3.803,3.832,16.765,66.2,14,Waypoint,
36.0028664,-118.5646345,5771.6973818728,13.779528,0,0.40565290012,7200,2018-07-04 16:40:14,12,0,23.148,5771.6973818728,13.779528,0,0.40565290012,0,0,-0.671082,53.4, 0.4, 1.2,0,0,1024,1024,1024,1024,53.4,-89.9,96,3.842,3.898,3.842,3.85,3.803,3.832,16.765,66.2,14,Waypoint,
36.0028663,-118.5646343,5773.9939698728,16.076116,0,0.36484909304,7400,2018-07-04 16:40:14,12,0,23.148,5773.9939698728,16.076116,0,0.40565290012,0,0,-0.671082,53.4, 0.3, 0.8,0,0,1024,1024,1024,1024,53.4,-89.9,96,3.842,3.898,3.842,3.85,3.803,3.832,16.765,66.2,14,Waypoint,
36.0028663,-118.5646342,5775.3063058728,17.388452,0,0.36604003796,7500,2018-07-04 16:40:14,13,0,23.148,5775.3063058728,17.388452,0,0.40565290012,0,0,-0.671082,53.4, 0.5, 0.5,0,0,1024,1024,1024,1024,53.4,-89.9,96,3.842,3.898,3.842,3.85,3.803,3.832,16.765,66.2,14,Waypoint,
36.0028662,-118.5646342,5776.2905578728,18.372704,0,0.32968833076,7600,2018-07-04 16:40:14,13,0,23.148,5776.2905578728,18.372704,0,0.40565290012,0,0,-0.671082,53.4, 0.6, 0.3,0,0,1024,1024,1024,1024,53.4,-89.9,96,3.842,3.898,3.842,3.85,3.803,3.832,16.765,66.2,14,Waypoint,
36.0028662,-118.5646342,5777.2748098728,19.356956,0,0.32968833076,7710,2018-07-04 16:40:14,12,0,23.148,5777.2748098728,19.356956,0,0.40565290012,0,0,-0.671082,53.4, 0.7, 0.2,0,0,1024,1024,1024,1024,53.4,-89.9,96,3.842,3.898,3.842,3.85,3.803,3.832,16.765,66.2,14,Waypoint,
36.0028661,-118.5646342,5779.5713978728,21.653544,0,0.293368119624,7910,2018-07-04 16:40:15,12,0,23.148,5779.5713978728,21.653544,0,0.40565290012,0,0,-0.671082,53.2, 0.5, 0.2,0,0,1024,1024,1024,1024,53.4,-90,96,3.842,3.898,3.842,3.85,3.803,3.832,16.765,66.2,14,Waypoint,
36.0028661,-118.5646342,5780.5556498728,22.637796,0,0.293368119624,8100,2018-07-04 16:40:15,12,0,23.148,5780.5556498728,22.637796,0,0.40565290012,0,0,-0.671082,53.2, 0.3, 0.3,0,0,1024,1024,1024,1024,53.4,-90,96,3.842,3.898,3.842,3.85,3.803,3.832,16.765,66.2,14,Waypoint,
36.0028661,-118.5646343,5781.8679858728,23.950132,0,0.291879602516,8200,2018-07-04 16:40:15,12,0,23.148,5781.8679858728,23.950132,0,0.40565290012,0,0,-0.671082,53.2, 0, 0.6,0,0,1024,1024,1024,1024,53.4,-90,96,3.842,3.898,3.842,3.85,3.803,3.832,16.765,66.2,14,Waypoint,
36.002866,-118.5646343,5783.8364898728,25.918636,0,0.255394693212,8300,2018-07-04 16:40:15,13,0,23.148,5783.8364898728,25.918636,0,0.40565290012,0,0,-0.671082,53.2, 0, 0.9,0,0,1024,1024,1024,1024,53.4,-89.9,96,3.842,3.898,3.842,3.85,3.803,3.832,16.765,66.2,14,Waypoint,
36.0028659,-118.5646344,5785.1488258728,27.230972,0,0.220890427016,8500,2018-07-04 16:40:15,13,0,23.148,5785.1488258728,27.230972,0,0.40565290012,0,0,-0.671082,53.2, -0.1, 0.7,0,0,1024,1024,1024,1024,53.4,-90,96,3.842,3.898,3.842,3.85,3.803,3.832,16.765,66.2,14,Waypoint,
36.0028658,-118.5646345,5786.1330778728,28.215224,0,0.191738195112,8600,2018-07-04 16:40:15,13,0,23.148,5786.1330778728,28.215224,0,0.40565290012,0,0,-0.671082,53.2, -0.2, 0.4,0,0,1024,1024,1024,1024,53.4,-90,96,3.842,3.898,3.842,3.85,3.803,3.832,16.765,66.2,14,Waypoint,
36.0028657,-118.5646345,5787.1173298728,29.199476,0,0.157426842308,8700,2018-07-04 16:40:15,13,0,23.148,5787.1173298728,29.199476,0,0.40565290012,0,0,-0.671082,53.2, -0.3, 0.3,0,0,1024,1024,1024,1024,53.4,-90,96,3.842,3.898,3.842,3.85,3.803,3.832,16.765,66.2,14,Waypoint,
36.0028657,-118.5646345,5788.1015818728,30.183728,0,0.157426842308,8800,2018-07-04 16:40:15,13,0,23.148,5788.1015818728,30.183728,0,0.40565290012,0,0,-0.671082,53.3, -0.3, 0.3,0,0,1024,1024,1024,1024,53.4,-90,96,3.842,3.898,3.842,3.85,3.803,3.832,16.765,66.2,14,Waypoint,
36.0028656,-118.5646346,5789.4139178728,31.496064,0,0.140787077996,8900,2018-07-04 16:40:16,13,0,23.148,5789.4139178728,31.496064,0,0.40565290012,0,0,-0.671082,53.4, -0.3, 0.3,0,0,1024,1024,1024,1024,53.4,-90,96,3.842,3.898,3.842,3.85,3.803,3.832,16.765,66.2,14,Waypoint,
36.0028656,-118.5646346,5790.3981698728,32.480316,0,0.140787077996,9000,2018-07-04 16:40:16,14,0,22.663,5790.3981698728,32.480316,0,0.40565290012,0,0,-0.671082,53.4, -0.3, 0.3,0,0,1024,1024,1024,1024,53.4,-90,96,3.752,3.792,3.795,3.798,3.783,3.784,21.597,66.2,14,Waypoint,
36.0028656,-118.5646347,5791.3824218728,33.464568,0,0.160994755808,9100,2018-07-04 16:40:16,14,0,22.663,5791.3824218728,33.464568,0,0.40565290012,0,0,-0.671082,53.3, -0.3, 0.3,0,0,1024,1024,1024,1024,53.4,-90,96,3.752,3.792,3.795,3.798,3.783,3.784,21.597,66.2,14,Waypoint,
36.0028656,-118.5646347,5792.3666738728,34.44882,0,0.160994755808,9200,2018-07-04 16:40:16,14,0,22.663,5792.3666738728,34.44882,0,0.40565290012,0,0,-0.671082,53.3, -0.1, 0.4,0,0,1024,1024,1024,1024,53.4,-89.9,96,3.752,3.792,3.795,3.798,3.783,3.784,21.597,66.2,14,Waypoint,
36.0028656,-118.5646347,5793.3509258728,35.433072,0,0.160994755808,9300,2018-07-04 16:40:16,14,0,22.663,5793.3509258728,35.433072,0,0.40565290012,0,0,-0.671082,53.2, -0.1, 0.5,0,0,1024,1024,1024,1024,53.4,-89.9,96,3.752,3.792,3.795,3.798,3.783,3.784,21.597,66.2,14,Waypoint,
36.0028655,-118.5646348,5795.3194298728,37.401576,0,0.164633863536,9400,2018-07-04 16:40:16,14,0,22.663,5795.3194298728,37.401576,0,0.40565290012,0,0,-0.671082,53.1, -0.1, 0.5,0,0,1024,1024,1024,1024,53.4,-90,96,3.752,3.792,3.795,3.798,3.783,3.784,21.597,66.2,14,Waypoint,
36.0028655,-118.5646348,5796.3036818728,38.385828,0,0.164633863536,9500,2018-07-04 16:40:16,14,0,22.663,5796.3036818728,38.385828,0,0.40565290012,0,0,-0.671082,53.1, -0.2, 0.3,0,0,1024,1024,1024,1024,53.4,-90,96,3.752,3.792,3.795,3.798,3.783,3.784,21.597,66.2,14,Waypoint,
36.0028654,-118.5646347,5797.2879338728,39.37008,0,0.123572510516,9600,2018-07-04 16:40:16,14,0,22.663,5797.2879338728,39.37008,0,0.40565290012,0,0,-0.671082,53.1, -0.2, 0.2,0,0,1024,1024,1024,1024,53.4,-90,96,3.752,3.792,3.795,3.798,3.783,3.784,21.597,66.2,14,Waypoint,
36.0028654,-118.5646347,5798.2721858728,40.354332,0,0.123572510516,9700,2018-07-04 16:40:16,14,0,22.663,5798.2721858728,40.354332,0,0.40565290012,0,0,-0.671082,53.2, -0.2, 0,0,0,1024,1024,1024,1024,53.4,-90,96,3.752,3.792,3.795,3.798,3.783,3.784,21.597,66.2,14,Waypoint,
36.0028653,-118.5646347,5799.2564378728,41.338584,0,0.118063323988,9800,2018-07-04 16:40:16,14,0,22.663,5799.2564378728,41.338584,0,0.40565290012,0,0,-0.671082,53.2, -0.2, -0.1,0,0,1024,1024,1024,1024,53.4,-89.9,96,3.752,3.792,3.795,3.798,3.783,3.784,21.597,66.2,14,Waypoint,
36.0028653,-118.5646347,5800.2406898728,42.322836,0,0.118063323988,9900,2018-07-04 16:40:17,14,0,22.663,5800.2406898728,42.322836,0,0.40565290012,0,0,-0.671082,53.3, 0, 0,0,0,1024,1024,1024,1024,53.4,-89.9,96,3.752,3.792,3.795,3.798,3.783,3.784,21.597,66.2,14,Waypoint,
36.0028653,-118.5646348,5801.2249418728,43.307088,0,0.147579401048,10000,2018-07-04 16:40:17,14,0,22.801,5801.2249418728,43.307088,0,0.40565290012,0,0,-0.671082,53.3, -0.1, 0.1,0,0,1024,1024,1024,1024,53.4,-90,96,3.775,3.807,3.812,3.808,3.799,3.811,19.763,66.2,14,Waypoint,
36.0028654,-118.5646348,5802.2091938728,44.29134,0,0.152022314576,10100,2018-07-04 16:40:17,14,0,22.801,5802.2091938728,44.29134,0,0.40565290012,0,0,-0.671082,53.4, 0, 0.3,0,0,1024,1024,1024,1024,53.4,-89.9,96,3.775,3.807,3.812,3.808,3.799,3.811,19.763,66.2,14,Waypoint,
36.0028654,-118.5646347,5803.5215298728,45.603676,0,0.123572510516,10200,2018-07-04 16:40:17,14,0,22.801,5803.5215298728,45.603676,0,0.40565290012,0,0,-0.671082,53.4, 0, 0.2,0,0,1024,1024,1024,1024,53.4,-89.9,96,3.775,3.807,3.812,3.808,3.799,3.811,19.763,66.2,14,Waypoint,
36.0028654,-118.5646347,5804.5057818728,46.587928,0,0.123572510516,10300,2018-07-04 16:40:17,15,0,22.801,5804.5057818728,46.587928,0,0.40565290012,0,0,-0.671082,53.5, 0.1, 0.2,0,0,1024,1024,1024,1024,53.4,-89.9,96,3.775,3.807,3.812,3.808,3.799,3.811,19.763,66.2,14,Waypoint,
36.0028654,-118.5646347,5805.4900338728,47.57218,0,0.123572510516,10410,2018-07-04 16:40:17,15,0,22.801,5805.4900338728,47.57218,0,0.40565290012,0,0,-0.671082,53.7, 0.3, 0.3,0,0,1024,1024,1024,1024,53.4,-89.9,96,3.775,3.807,3.812,3.808,3.799,3.811,19.763,66.2,14,Waypoint,
36.0028655,-118.5646347,5806.4742858728,48.556432,0,0.138793311528,10500,2018-07-04 16:40:17,14,0,22.801,5806.4742858728,48.556432,0,0.40565290012,0,0,-0.671082,53.9, 0.3, 0.3,0,0,1024,1024,1024,1024,53.4,-89.9,96,3.775,3.807,3.812,3.808,3.799,3.811,19.763,66.2,14,Waypoint,
36.0028655,-118.5646348,5807.4585378728,49.540684,0,0.164633863536,10600,2018-07-04 16:40:17,14,0,22.801,5807.4585378728,49.540684,0,0.40565290012,0,0,-0.671082,53.9, 0.3, 0.5,0,0,1024,1024,1024,1024,53.4,-89.9,96,3.775,3.807,3.812,3.808,3.799,3.811,19.763,66.2,14,Waypoint,
36.0028655,-118.5646348,5808.4427898728,50.524936,0,0.164633863536,10800,2018-07-04 16:40:17,15,0,22.801,5808.4427898728,50.524936,0,0.40565290012,0,0,-0.671082,53.9, 0.2, 1,0,0,1024,1024,1024,1024,53.4,-90,96,3.775,3.807,3.812,3.808,3.799,3.811,19.763,66.2,14,Waypoint,
36.0028655,-118.5646349,5809.4270418728,51.509188,0,0.191539376208,10900,2018-07-04 16:40:18,15,0,22.801,5809.4270418728,51.509188,0,0.40565290012,0,0,-0.671082,53.7, 0, 1.2,0,0,1024,1024,1024,1024,53.4,-90,96,3.775,3.807,3.812,3.808,3.799,3.811,19.763,66.2,14,Waypoint,
36.0028656,-118.564635,5811.3955458728,53.477692,0,0.233812999608,11000,2018-07-04 16:40:18,14,0,22.759,5811.3955458728,53.477692,0,0.40565290012,0,0,-0.671082,53.4, -0.4, 1.5,0,0,1024,1024,1024,1024,53.4,-90,96,3.775,3.807,3.812,3.808,3.799,3.811,19.985,66.2,14,Waypoint,
36.0028656,-118.564635,5812.3797978728,54.461944,0,0.233812999608,11200,2018-07-04 16:40:18,14,0,22.759,5812.3797978728,54.461944,0,0.40565290012,0,0,-0.671082,53.2, -0.5, 1.5,0,0,1024,1024,1024,1024,53.4,-90,96,3.775,3.807,3.812,3.808,3.799,3.811,19.985,66.2,14,Waypoint,
36.0028655,-118.564635,5813.0359658728,55.118112,0,0.219118117248,11300,2018-07-04 16:40:18,14,0,22.759,5813.0359658728,55.118112,0,0.40565290012,0,0,-0.671082,53.1, -0.4, 1.1,0,0,1024,1024,1024,1024,53.4,-90,96,3.775,3.807,3.812,3.808,3.799,3.811,19.985,66.2,14,Waypoint,
36.0028655,-118.5646349,5814.0202178728,56.102364,0,0.191539376208,11400,2018-07-04 16:40:18,14,0,22.759,5814.0202178728,56.102364,0,0.40565290012,0,0,-0.671082,53.1, -0.2, 0.7,0,0,1024,1024,1024,1024,53.4,-89.9,96,3.775,3.807,3.812,3.808,3.799,3.811,19.985,66.2,14,Waypoint,
36.0028655,-118.5646349,5815.0044698728,57.086616,0,0.191539376208,11500,2018-07-04 16:40:18,14,0,22.759,5815.0044698728,57.086616,0,0.40565290012,0,0,-0.671082,53.1, 0, 0.5,0,0,1024,1024,1024,1024,53.4,-89.9,96,3.775,3.807,3.812,3.808,3.799,3.811,19.985,66.2,14,Waypoint,
36.0028656,-118.5646349,5815.9887218728,58.070868,0,0.208189967292,11600,2018-07-04 16:40:18,14,0,22.759,5815.9887218728,58.070868,0,0.40565290012,0,0,-0.671082,53.1, 0, 0.5,0,0,1024,1024,1024,1024,53.4,-89.9,96,3.775,3.807,3.812,3.808,3.799,3.811,19.985,66.2,14,Waypoint,
36.0028656,-118.5646349,5816.9729738728,59.05512,0,0.208189967292,11700,2018-07-04 16:40:18,14,0,22.759,5816.9729738728,59.05512,0,0.40565290012,0,0,-0.671082,53, 0.1, 0.8,0,0,1024,1024,1024,1024,53.4,-89.9,96,3.775,3.807,3.812,3.808,3.799,3.811,19.985,66.2,14,Waypoint,
36.0028656,-118.5646349,5819.2695618728,61.351708,0,0.208189967292,11800,2018-07-04 16:40:18,14,0,22.759,5819.2695618728,61.351708,0,0.40565290012,0,0,-0.671082,53, 0.4, 0.9,0,0,1024,1024,1024,1024,53.4,-89.9,96,3.775,3.807,3.812,3.808,3.799,3.811,19.985,66.2,14,Waypoint,
36.0028656,-118.5646349,5820.2538138728,62.33596,0,0.208189967292,11900,2018-07-04 16:40:19,14,0,22.759,5820.2538138728,62.33596,0,0.40565290012,0,0,-0.671082,53, 0.1, 1.3,0,0,1024,1024,1024,1024,53.4,-89.9,96,3.775,3.807,3.812,3.808,3.799,3.811,19.985,66.2,14,Waypoint,
36.0028656,-118.5646348,5821.2380658728,63.320212,0,0.183738851024,12000,2018-07-04 16:40:19,14,0,22.759,5821.2380658728,63.320212,0,0.40565290012,0,0,-0.671082,53.1, 0, 1.4,0,0,1024,1024,1024,1024,53.4,-89.9,96,3.78,3.798,3.799,3.791,3.779,3.789,19.985,66.2,14,Waypoint,
36.0028656,-118.5646348,5822.2223178728,64.304464,0,0.183738851024,12100,2018-07-04 16:40:19,15,0,22.759,5822.2223178728,64.304464,0,0.40565290012,0,0,-0.671082,53.1, -0.2, 0.9,0,0,1024,1024,1024,1024,53.4,-90,96,3.78,3.798,3.799,3.791,3.779,3.789,19.985,66.2,14,Waypoint,
36.0028655,-118.5646347,5823.2065698728,65.288716,0,0.138793311528,12200,2018-07-04 16:40:19,15,0,22.759,5823.2065698728,65.288716,0,0.40565290012,0,0,-0.671082,53.1, -0.4, 0.5,0,0,1024,1024,1024,1024,53.4,-90,96,3.78,3.798,3.799,3.791,3.779,3.789,19.985,66.2,14,Waypoint,
36.0028655,-118.5646347,5825.1750738728,67.25722,0,0.138793311528,12400,2018-07-04 16:40:19,15,0,22.759,5825.1750738728,67.25722,0,0.40565290012,0,0,-0.671082,53.2, -0.5, -0.3,0,0,1024,1024,1024,1024,53.4,-90,96,3.78,3.798,3.799,3.791,3.779,3.789,19.985,66.2,14,Waypoint,
36.0028654,-118.5646346,5826.1593258728,68.241472,0,0.095769688104,12510,2018-07-04 16:40:19,15,0,22.759,5826.1593258728,68.241472,0,0.40565290012,0,0,-0.671082,53.2, -0.4, -0.5,0,0,1024,1024,1024,1024,53.4,-90,96,3.78,3.798,3.799,3.791,3.779,3.789,19.985,66.2,14,Waypoint,
36.0028654,-118.5646345,5827.1435778728,69.225724,0,0.069396655764,12600,2018-07-04 16:40:19,15,0,22.759,5827.1435778728,69.225724,0,0.40565290012,0,0,-0.671082,53.2, -0.4, -0.4,0,0,1024,1024,1024,1024,53.4,-90,96,3.78,3.798,3.799,3.791,3.779,3.789,19.985,66.2,14,Waypoint,
36.0028654,-118.5646345,5828.1278298728,70.209976,0,0.069396655764,12700,2018-07-04 16:40:19,15,0,22.759,5828.1278298728,70.209976,0,0.40565290012,0,0,-0.671082,53.2, -0.4, -0.4,0,0,1024,1024,1024,1024,53.4,-90,96,3.78,3.798,3.799,3.791,3.779,3.789,19.985,66.2,14,Waypoint,
36.0028654,-118.5646345,5829.1120818728,71.194228,0,0.069396655764,12800,2018-07-04 16:40:19,15,0,22.759,5829.1120818728,71.194228,0,0.40565290012,0,0,-0.671082,53.2, -0.4, -0.2,0,0,1024,1024,1024,1024,53.4,-90,96,3.78,3.798,3.799,3.791,3.779,3.789,19.985,66.2,14,Waypoint,
36.0028654,-118.5646345,5829.7682498728,71.850396,0,0.069396655764,13000,2018-07-04 16:40:20,15,0,22.703,5829.7682498728,71.850396,0,0.40565290012,0,0,-0.671082,53.1, -0.2, 0.1,0,0,1024,1024,1024,1024,53.4,-89.9,96,3.751,3.785,3.797,3.795,3.779,3.783,20.278,66.2,14,Waypoint,
36.0028654,-118.5646344,5831.0805858728,73.162732,0,0.04692913536,13100,2018-07-04 16:40:20,15,0,22.703,5831.0805858728,73.162732,0,0.40565290012,0,0,-0.671082,53, -0.2, 0,0,0,1024,1024,1024,1024,53.4,-89.9,96,3.751,3.785,3.797,3.795,3.779,3.783,20.278,66.2,14,Waypoint,
36.0028654,-118.5646343,5831.7367538728,73.8189,0,0.036484909304,13200,2018-07-04 16:40:20,15,0,22.703,5831.7367538728,73.8189,0,0.40565290012,0,0,-0.671082,52.9, -0.2, -0.1,0,0,1024,1024,1024,1024,53.4,-89.9,96,3.751,3.785,3.797,3.795,3.779,3.783,20.278,66.2,14,Waypoint,
36.0028654,-118.5646343,5832.7210058728,74.803152,0,0.036484909304,13300,2018-07-04 16:40:20,15,0,22.703,5832.7210058728,74.803152,0,0.40565290012,0,0,-0.671082,52.9, -0.2, -0.2,0,0,1024,1024,1024,1024,53.4,-90,96,3.751,3.785,3.797,3.795,3.779,3.783,20.278,66.2,14,Waypoint,
36.0028654,-118.5646342,5834.0333418728,76.115488,0,0.04692913536,13400,2018-07-04 16:40:20,15,0,22.703,5834.0333418728,76.115488,0,0.40565290012,0,0,-0.671082,52.8, -0.2, -0.2,0,0,1024,1024,1024,1024,53.4,-89.9,96,3.751,3.785,3.797,3.795,3.779,3.783,20.278,66.2,14,Waypoint,
36.0028654,-118.5646342,5835.0175938728,77.09974,0,0.04692913536,13500,2018-07-04 16:40:20,15,0,22.703,5835.0175938728,77.09974,0,0.40565290012,0,0,-0.671082,52.8, 0, -0.3,0,0,1024,1024,1024,1024,53.4,-89.9,96,3.751,3.785,3.797,3.795,3.779,3.783,20.278,66.2,14,Waypoint,
36.0028654,-118.5646341,5836.0018458728,78.083992,0,0.069396655764,13600,2018-07-04 16:40:20,15,0,22.703,5836.0018458728,78.083992,0,0.40565290012,0,0,-0.671082,52.9, 0.2, -0.2,0,0,1024,1024,1024,1024,53.4,-89.9,96,3.751,3.785,3.797,3.795,3.779,3.783,20.278,66.2,14,Waypoint,
36.0028654,-118.5646342,5836.9860978728,79.068244,0,0.04692913536,13700,2018-07-04 16:40:20,15,0,22.703,5836.9860978728,79.068244,0,0.40565290012,0,0,-0.671082,53.1, 0.3, 0,0,0,1024,1024,1024,1024,53.4,-89.9,96,3.751,3.785,3.797,3.795,3.779,3.783,20.278,66.2,14,Waypoint,
36.0028655,-118.5646342,5837.9703498728,80.052496,0,0.078713257112,13800,2018-07-04 16:40:20,16,0,22.703,5837.9703498728,80.052496,0,0.40565290012,0,0,-0.671082,53.3, 0.2, 0.2,0,0,1024,1024,1024,1024,53.4,-89.9,96,3.751,3.785,3.797,3.795,3.779,3.783,20.278,66.2,14,Waypoint,
36.0028655,-118.5646342,5838.9546018728,81.036748,0,0.078713257112,13900,2018-07-04 16:40:21,16,0,22.703,5838.9546018728,81.036748,0,0.40565290012,0,0,-0.671082,53.5, 0, 0.4,0,0,1024,1024,1024,1024,53.4,-90,96,3.751,3.785,3.797,3.795,3.779,3.783,20.278,66.2,14,Waypoint,
36.0028655,-118.5646342,5839.9388538728,82.021,0,0.078713257112,14000,2018-07-04 16:40:21,16,0,22.596,5839.9388538728,82.021,0,0.40565290012,0,0,-0.671082,53.6, -0.2, 0.1,0,0,1024,1024,1024,1024,53.4,-90,95,3.749,3.785,3.779,3.779,3.767,3.774,20.547,66.2,14,Waypoint,
36.0028656,-118.5646342,5840.9231058728,83.005252,0,0.11336450494,14100,2018-07-04 16:40:21,16,0,22.596,5840.9231058728,83.005252,0,0.40565290012,0,0,-0.671082,53.6, -0.2, 0.1,0,0,1024,1024,1024,1024,53.4,-89.9,95,3.749,3.785,3.779,3.779,3.767,3.774,20.547,66.2,14,Waypoint,
36.0028657,-118.5646343,5842.8916098728,84.973756,0,0.145939637216,14200,2018-07-04 16:40:21,16,0,22.596,5842.8916098728,84.973756,0,0.40565290012,0,0,-0.671082,53.8, -0.4, 0.8,0,0,1024,1024,1024,1024,53.4,-90,95,3.749,3.785,3.779,3.779,3.767,3.774,20.547,66.2,14,Waypoint,
36.0028657,-118.5646343,5843.8758618728,85.958008,0,0.145939637216,14300,2018-07-04 16:40:21,16,0,22.596,5843.8758618728,85.958008,0,0.40565290012,0,0,-0.671082,53.8, -0.5, 1.1,0,0,1024,1024,1024,1024,53.4,-90,95,3.749,3.785,3.779,3.779,3.767,3.774,20.547,66.2,14,Waypoint,
36.0028658,-118.5646343,5844.8601138728,86.94226,0,0.18242454652,14400,2018-07-04 16:40:21,16,0,22.596,5844.8601138728,86.94226,0,0.40565290012,0,0,-0.671082,53.6, -0.3, 1.5,0,0,1024,1024,1024,1024,53.4,-89.9,95,3.749,3.785,3.779,3.779,3.767,3.774,20.547,66.2,14,Waypoint,
36.0028659,-118.5646343,5845.8443658728,87.926512,0,0.218909783908,14500,2018-07-04 16:40:21,16,0,22.596,5845.8443658728,87.926512,0,0.40565290012,0,0,-0.671082,53.4, -0.2, 1.9,0,0,1024,1024,1024,1024,53.4,-89.9,95,3.749,3.785,3.779,3.779,3.767,3.774,20.547,66.2,14,Waypoint,
36.0028659,-118.5646343,5846.8286178728,88.910764,0,0.218909783908,14600,2018-07-04 16:40:21,16,0,22.596,5846.8286178728,88.910764,0,0.40565290012,0,0,-0.671082,53.3, 0, 1.8,0,0,1024,1024,1024,1024,53.4,-89.9,95,3.749,3.785,3.779,3.779,3.767,3.774,20.547,66.2,14,Waypoint,
36.0028659,-118.5646343,5847.8128698728,89.895016,0,0.218909783908,14700,2018-07-04 16:40:21,16,0,22.596,5847.8128698728,89.895016,0,0.40565290012,0,0,-0.671082,53.1, -0.2, 1.7,0,0,1024,1024,1024,1024,53.4,-89.9,95,3.749,3.785,3.779,3.779,3.767,3.774,20.547,66.2,14,Waypoint,
36.002866,-118.5646343,5848.7971218728,90.879268,0,0.255394693212,14800,2018-07-04 16:40:21,16,0,22.596,5848.7971218728,90.879268,0,0.40565290012,0,0,-0.671082,52.9, -0.1, 1.6,0,0,1024,1024,1024,1024,53.4,-89.9,95,3.749,3.785,3.779,3.779,3.767,3.774,20.547,66.2,14,Waypoint,
36.002866,-118.5646343,5849.7813738728,91.86352,0,0.255394693212,14900,2018-07-04 16:40:22,16,0,22.596,5849.7813738728,91.86352,0,0.40565290012,0,0,-0.671082,52.6, 0, 1.6,0,0,1024,1024,1024,1024,53.4,-89.9,95,3.749,3.785,3.779,3.779,3.767,3.774,20.547,66.2,14,Waypoint,
36.002866,-118.5646343,5850.4375418728,92.519688,0,0.255394693212,15100,2018-07-04 16:40:22,16,0,22.596,5850.4375418728,92.519688,0,0.40565290012,0,0,-0.671082,52.5, 0, 1.4,0,0,1024,1024,1024,1024,53.4,-89.9,95,3.749,3.785,3.779,3.779,3.767,3.774,20.547,66.2,14,Waypoint,
36.002866,-118.5646344,5852.4060458728,94.488192,0,0.257094496416,15200,2018-07-04 16:40:22,16,0,22.596,5852.4060458728,94.488192,0,0.40565290012,0,0,-0.671082,52.7, -0.4, 1,0,0,1024,1024,1024,1024,53.4,-90,95,3.749,3.785,3.779,3.779,3.767,3.774,20.547,66.2,14,Waypoint,
36.002866,-118.5646345,5853.3902978728,95.472444,0,0.262127961144,15300,2018-07-04 16:40:22,16,0,22.596,5853.3902978728,95.472444,0,0.40565290012,0,0,-0.671082,53, -0.7, 0.8,0,0,1024,1024,1024,1024,53.4,-90,95,3.749,3.785,3.779,3.779,3.767,3.774,20.547,66.2,14,Waypoint,
36.002866,-118.5646345,5854.3745498728,96.456696,0,0.262127961144,15500,2018-07-04 16:40:22,16,0,22.596,5854.3745498728,96.456696,0,0.40565290012,0,0,-0.671082,53.2, -0.7, 1,0,0,1024,1024,1024,1024,53.4,-90,95,3.749,3.785,3.779,3.779,3.767,3.774,20.547,66.2,14,Waypoint,
36.0028661,-118.5646346,5855.3588018728,97.440948,0,0.305015429708,15600,2018-07-04 16:40:22,16,0,22.596,5855.3588018728,97.440948,0,0.40565290012,0,0,-0.671082,53.3, -0.8, 1.1,0,0,1024,1024,1024,1024,53.4,-90,95,3.749,3.785,3.779,3.779,3.767,3.774,20.547,66.2,14,Waypoint,
36.0028661,-118.5646347,5856.3430538728,98.4252,0,0.314853356532,15700,2018-07-04 16:40:22,16,0,22.596,5856.3430538728,98.4252,0,0.40565290012,0,0,-0.671082,53.5, -0.7, 1.4,0,0,1024,1024,1024,1024,53.4,-89.9,95,3.749,3.785,3.779,3.779,3.767,3.774,20.547,66.2,14,Waypoint,
36.0028661,-118.5646348,5857.3273058728,99.409452,0,0.327067923852,15800,2018-07-04 16:40:22,16,0,22.596,5857.3273058728,99.409452,0,0.40565290012,0,0,-0.671082,53.5, -0.7, 1.5,0,0,1024,1024,1024,1024,53.4,-89.9,95,3.749,3.785,3.779,3.779,3.767,3.774,20.547,66.2,14,Waypoint,
36.0028662,-118.5646348,5858.3115578728,100.393704,0,0.36000329236,15900,2018-07-04 16:40:23,16,0,22.596,5858.3115578728,100.393704,0,0.40565290012,0,0,-0.671082,53.6, -0.6, 1.6,0,0,1024,1024,1024,1024,53.4,-89.9,95,3.749,3.785,3.779,3.779,3.767,3.774,20.547,66.2,14,Waypoint,
36.0028662,-118.5646349,5858.9677258728,101.049872,0,0.37307743976,16000,2018-07-04 16:40:23,16,0,22.57,5858.9677258728,101.049872,0,0.40565290012,0,0,-0.671082,53.6, -0.4, 1.8,0,0,1024,1024,1024,1024,53.4,-89.9,95,3.729,3.766,3.76,3.757,3.752,3.766,20.077,68,14,Waypoint,
36.0028662,-118.564635,5859.9519778728,102.034124,0,0.38795933,16100,2018-07-04 16:40:23,16,0,22.57,5859.9519778728,102.034124,0,0.40565290012,0,0,-0.671082,53.6, -0.2, 2,0,0,1024,1024,1024,1024,53.4,-89.9,95,3.729,3.766,3.76,3.757,3.752,3.766,20.077,68,14,Waypoint,
36.0028661,-118.5646351,5861.9204818728,104.002628,0,0.37543308288,16300,2018-07-04 16:40:23,16,0,22.57,5861.9204818728,104.002628,0,0.40565290012,0,0,-0.671082,53.5, -0.9, 1.7,0,0,1024,1024,1024,1024,53.4,-90,95,3.729,3.766,3.76,3.757,3.752,3.766,20.077,68,14,Waypoint,
36.0028661,-118.5646351,5862.9047338728,104.98688,0,0.37543308288,16400,2018-07-04 16:40:23,16,0,22.57,5862.9047338728,104.98688,0,0.40565290012,0,0,-0.671082,53.3, -1.2, 1.2,0,0,1024,1024,1024,1024,53.4,-90,95,3.729,3.766,3.76,3.757,3.752,3.766,20.077,68,14,Waypoint,
36.002866,-118.5646352,5865.2013218728,107.283468,0,0.36850066796,16500,2018-07-04 16:40:23,16,0,22.57,5865.2013218728,107.283468,0,0.40565290012,0,0,-0.671082,53, -1.7, 0.6,0,0,1024,1024,1024,1024,53.4,-90,95,3.729,3.766,3.76,3.757,3.752,3.766,20.077,68,14,Waypoint,
36.002866,-118.5646353,5866.1855738728,108.26772,0,0.39031497312,16600,2018-07-04 16:40:23,16,0,22.57,5866.1855738728,108.26772,0,0.40565290012,0,0,-0.671082,53, -1.6, 0.8,0,0,1024,1024,1024,1024,53.4,-90,95,3.729,3.766,3.76,3.757,3.752,3.766,20.077,68,14,Waypoint,
36.0028659,-118.5646354,5867.1698258728,109.251972,0,0.39158137736,16700,2018-07-04 16:40:23,16,0,22.57,5867.1698258728,109.251972,0,0.40565290012,0,0,-0.671082,52.9, -1.4, 1.1,0,0,1024,1024,1024,1024,53.4,-90,95,3.729,3.766,3.76,3.757,3.752,3.766,20.077,68,14,Waypoint,
36.0028659,-118.5646354,5868.1540778728,110.236224,0,0.39158137736,16800,2018-07-04 16:40:23,16,0,22.57,5868.1540778728,110.236224,0,0.40565290012,0,0,-0.671082,52.9, -1.4, 1.4,0,0,1024,1024,1024,1024,53.4,-90,95,3.729,3.766,3.76,3.757,3.752,3.766,20.077,68,14,Waypoint,
36.002866,-118.5646355,5869.1383298728,111.220476,0,0.43666668064,16900,2018-07-04 16:40:24,16,0,22.57,5869.1383298728,111.220476,0,0.43666668064,0,0,-0.671082,53, -1.4, 1.7,0,0,1024,1024,1024,1024,53.4,-90,95,3.729,3.766,3.76,3.757,3.752,3.766,20.077,68,14,Waypoint,
36.002866,-118.5646356,5870.1225818728,112.204728,0,0.46093177328,17000,2018-07-04 16:40:24,16,0,22.409,5870.1225818728,112.204728,0,0.46093177328,0,0,-0.671082,53.1, -1.4, 2.2,0,0,1024,1024,1024,1024,53.4,-89.9,95,3.709,3.748,3.74,3.738,3.723,3.735,21.698,68,14,Waypoint,
36.002866,-118.5646356,5871.1068338728,113.18898,0,0.46093177328,17100,2018-07-04 16:40:24,16,0,22.409,5871.1068338728,113.18898,0,0.46093177328,0,0,-0.671082,53.1, -1.5, 2.2,0,0,1024,1024,1024,1024,53.4,-90,95,3.709,3.748,3.74,3.738,3.723,3.735,21.698,68,14,Waypoint,
36.0028659,-118.5646357,5872.0910858728,114.173232,0,0.46762468688,17200,2018-07-04 16:40:24,16,0,22.409,5872.0910858728,114.173232,0,0.46762468688,0,0,-0.671082,53.1, -1.5, 1.9,0,0,1024,1024,1024,1024,53.4,-90,95,3.709,3.748,3.74,3.738,3.723,3.735,21.698,68,14,Waypoint,
36.0028659,-118.5646358,5873.0753378728,115.157484,0,0.49390093444,17300,2018-07-04 16:40:24,16,0,22.409,5873.0753378728,115.157484,0,0.49390093444,0,0,-0.671082,53.1, -1.6, 1.7,0,0,1024,1024,1024,1024,53.4,-90,95,3.709,3.748,3.74,3.738,3.723,3.735,21.698,68,14,Waypoint,
36.0028659,-118.5646358,5874.0595898728,116.141736,0,0.49390093444,17400,2018-07-04 16:40:24,16,0,22.409,5874.0595898728,116.141736,0,0.49390093444,0,0,-0.671082,53.1, -1.7, 1.9,0,0,1024,1024,1024,1024,53.4,-90,95,3.709,3.748,3.74,3.738,3.723,3.735,21.698,68,14,Waypoint,
36.0028659,-118.5646359,5875.0438418728,117.125988,0,0.52052495104,17600,2018-07-04 16:40:24,16,0,22.409,5875.0438418728,117.125988,0,0.52052495104,0,0,-0.671082,53, -2.2, 2.4,0,0,1024,1024,1024,1024,53.4,-90,95,3.709,3.748,3.74,3.738,3.723,3.735,21.698,68,14,Waypoint,
36.0028659,-118.5646359,5876.0280938728,118.11024,0,0.52052495104,17700,2018-07-04 16:40:24,16,0,22.409,5876.0280938728,118.11024,0,0.52052495104,0,0,-0.671082,53, -2.3, 2.2,0,0,1024,1024,1024,1024,53.4,-90,95,3.709,3.748,3.74,3.738,3.723,3.735,21.698,68,14,Waypoint,
36.0028658,-118.5646359,5877.0123458728,119.094492,0,0.50626313956,17800,2018-07-04 16:40:24,16,0,22.409,5877.0123458728,119.094492,0,0.52052495104,0,0,-0.671082,53.1, -1.8, 2.1,0,0,1024,1024,1024,1024,53.4,-89.9,95,3.709,3.748,3.74,3.738,3.723,3.735,21.698,68,14,Waypoint,
36.0028658,-118.5646359,5877.9965978728,120.078744,0,0.50626313956,17900,2018-07-04 16:40:25,16,0,22.409,5877.9965978728,120.078744,0,0.52052495104,0,0,-0.671082,53.2, -1.5, 1.9,0,0,1024,1024,1024,1024,53.4,-89.9,95,3.709,3.748,3.74,3.738,3.723,3.735,21.698,68,14,Waypoint,
36.0028658,-118.5646359,5878.9808498728,121.062996,0,0.50626313956,18000,2018-07-04 16:40:25,16,0,22.442,5878.9808498728,121.062996,0,0.52052495104,0,0,-0.671082,53.5, -1.3, 1.7,0,0,1024,1024,1024,1024,53.4,-89.9,95,3.721,3.758,3.75,3.742,3.736,3.755,20.573,68,14,Waypoint,
36.0028658,-118.5646359,5879.9651018728,122.047248,0,0.50626313956,18100,2018-07-04 16:40:25,16,0,22.442,5879.9651018728,122.047248,0,0.52052495104,0,0,-0.671082,53.7, -1.2, 1.4,0,0,1024,1024,1024,1024,53.4,-89.9,95,3.721,3.758,3.75,3.742,3.736,3.755,20.573,68,14,Waypoint,
36.0028658,-118.5646359,5880.9493538728,123.0315,0,0.50626313956,18200,2018-07-04 16:40:25,16,0,22.442,5880.9493538728,123.0315,0,0.52052495104,0,0,-0.671082,53.8, -1.1, 1.6,0,0,1024,1024,1024,1024,53.4,-89.9,95,3.721,3.758,3.75,3.742,3.736,3.755,20.573,68,14,Waypoint,
36.0028658,-118.5646359,5881.9336058728,124.015752,0,0.50626313956,18300,2018-07-04 16:40:25,16,0,22.442,5881.9336058728,124.015752,0,0.52052495104,0,0,-0.671082,53.7, -1, 1.7,0,0,1024,1024,1024,1024,53.4,-89.9,95,3.721,3.758,3.75,3.742,3.736,3.755,20.573,68,14,Waypoint,
36.0028658,-118.564636,5882.9178578728,125.000004,0,0.53390093572,18400,2018-07-04 16:40:25,16,0,22.442,5882.9178578728,125.000004,0,0.53390093572,0,0,-0.671082,53.5, -1.2, 1.9,0,0,1024,1024,1024,1024,53.4,-90,95,3.721,3.758,3.75,3.742,3.736,3.755,20.573,68,14,Waypoint,
36.0028658,-118.564636,5883.9021098728,125.984256,0,0.53390093572,18500,2018-07-04 16:40:25,16,0,22.442,5883.9021098728,125.984256,0,0.53390093572,0,0,-0.671082,53.4, -1.4, 2,0,0,1024,1024,1024,1024,53.4,-90,95,3.721,3.758,3.75,3.742,3.736,3.755,20.573,68,14,Waypoint,
36.0028658,-118.564636,5884.8863618728,126.968508,0,0.53390093572,18600,2018-07-04 16:40:25,16,0,22.442,5884.8863618728,126.968508,0,0.53390093572,0,0,-0.671082,53.2, -1.7, 2,0,0,1024,1024,1024,1024,53.4,-90,95,3.721,3.758,3.75,3.742,3.736,3.755,20.573,68,14,Waypoint,
36.0028658,-118.564636,5886.5267818728,128.608928,0,0.53390093572,18700,2018-07-04 16:40:25,16,0,22.442,5886.5267818728,128.608928,0,0.53390093572,0,0,-0.671082,52.9, -1.3, 1.6,0,0,1024,1024,1024,1024,53.4,-89.9,95,3.721,3.758,3.75,3.742,3.736,3.755,20.573,68,14,Waypoint,
36.0028658,-118.564636,5887.5110338728,129.59318,0,0.53390093572,18800,2018-07-04 16:40:25,16,0,22.442,5887.5110338728,129.59318,0,0.53390093572,0,0,-0.671082,52.8, -1.1, 1.3,0,0,1024,1024,1024,1024,53.4,-89.9,95,3.721,3.758,3.75,3.742,3.736,3.755,20.573,68,14,Waypoint,
36.0028658,-118.5646359,5888.4952858728,130.577432,0,0.50626313956,18900,2018-07-04 16:40:26,16,0,22.442,5888.4952858728,130.577432,0,0.53390093572,0,0,-0.671082,52.8, -1.2, 1.4,0,0,1024,1024,1024,1024,53.4,-89.9,95,3.721,3.758,3.75,3.742,3.736,3.755,20.573,68,14,Waypoint,
36.0028658,-118.5646359,5889.4795378728,131.561684,0,0.50626313956,19000,2018-07-04 16:40:26,16,0,22.487,5889.4795378728,131.561684,0,0.53390093572,0,0,-0.671082,52.7, -1.1, 1.4,0,0,1024,1024,1024,1024,53.4,-89.9,95,3.71,3.756,3.748,3.747,3.731,3.741,20.082,68,14,Waypoint,
36.0028658,-118.5646359,5890.7918738728,132.87402,0,0.50626313956,19100,2018-07-04 16:40:26,16,0,22.487,5890.7918738728,132.87402,0,0.53390093572,0,0,-0.671082,52.7, -1, 1.8,0,0,1024,1024,1024,1024,53.4,-89.9,95,3.71,3.756,3.748,3.747,3.731,3.741,20.082,68,14,Waypoint,
36.0028658,-118.5646359,5891.7761258728,133.858272,0,0.50626313956,19200,2018-07-04 16:40:26,16,0,22.487,5891.7761258728,133.858272,0,0.53390093572,0,0,-0.671082,52.8, -1, 2.2,0,0,1024,1024,1024,1024,53.4,-89.9,95,3.71,3.756,3.748,3.747,3.731,3.741,20.082,68,14,Waypoint,
36.0028659,-118.5646359,5892.7603778728,134.842524,0,0.52052495104,19300,2018-07-04 16:40:26,16,0,22.487,5892.7603778728,134.842524,0,0.53390093572,0,0,-0.671082,53, -0.9, 2.2,0,0,1024,1024,1024,1024,53.4,-89.9,95,3.71,3.756,3.748,3.747,3.731,3.741,20.082,68,14,Waypoint,
36.0028659,-118.5646359,5893.7446298728,135.826776,0,0.52052495104,19400,2018-07-04 16:40:26,16,0,22.487,5893.7446298728,135.826776,0,0.53390093572,0,0,-0.671082,53.1, -0.9, 2.2,0,0,1024,1024,1024,1024,53.4,-89.9,95,3.71,3.756,3.748,3.747,3.731,3.741,20.082,68,14,Waypoint,
36.002866,-118.5646359,5894.7288818728,136.811028,0,0.53688978096,19500,2018-07-04 16:40:26,16,0,22.487,5894.7288818728,136.811028,0,0.53688978096,0,0,-0.671082,53.2, -0.9, 2.6,0,0,1024,1024,1024,1024,53.4,-89.9,95,3.71,3.756,3.748,3.747,3.731,3.741,20.082,68,14,Waypoint,
36.002866,-118.5646359,5895.7131338728,137.79528,0,0.53688978096,19700,2018-07-04 16:40:26,16,0,22.487,5895.7131338728,137.79528,0,0.53688978096,0,0,-0.671082,53.3, -0.8, 2.8,0,0,1024,1024,1024,1024,53.4,-89.9,95,3.71,3.756,3.748,3.747,3.731,3.741,20.082,68,14,Waypoint,
36.0028661,-118.564636,5897.6816378728,139.763784,0,0.58048886372,19900,2018-07-04 16:40:27,16,0,22.487,5897.6816378728,139.763784,0,0.58048886372,0,0,-0.671082,53, -1.1, 3.3,0,0,1024,1024,1024,1024,53.4,-89.9,95,3.71,3.756,3.748,3.747,3.731,3.741,20.082,68,14,Waypoint,
36.0028662,-118.5646361,5898.6658898728,140.748036,0,0.62457022996,20000,2018-07-04 16:40:27,16,0,22.334,5898.6658898728,140.748036,0,0.62457022996,0,0,-0.671082,52.8, -1.3, 3,0,0,1024,1024,1024,1024,53.4,-89.9,95,3.701,3.741,3.731,3.717,3.714,3.731,21.303,68,14,Waypoint,
36.0028662,-118.5646361,5899.6501418728,141.732288,0,0.62457022996,20100,2018-07-04 16:40:27,16,0,22.334,5899.6501418728,141.732288,0,0.62457022996,0,0,-0.671082,52.9, -1.3, 2.9,0,0,1024,1024,1024,1024,53.4,-89.9,95,3.701,3.741,3.731,3.717,3.714,3.731,21.303,68,14,Waypoint,
36.0028663,-118.5646361,5900.6343938728,142.71654,0,0.64449805212,20200,2018-07-04 16:40:27,16,0,22.334,5900.6343938728,142.71654,0,0.64449805212,0,0,-0.671082,53.1, -1.2, 2.8,0,0,1024,1024,1024,1024,53.4,-90,95,3.701,3.741,3.731,3.717,3.714,3.731,21.303,68,14,Waypoint,
36.0028663,-118.5646361,5901.6186458728,143.700792,0,0.64449805212,20300,2018-07-04 16:40:27,16,0,22.334,5901.6186458728,143.700792,0,0.64449805212,0,0,-0.671082,53.2, -1.1, 2.8,0,0,1024,1024,1024,1024,53.4,-89.9,95,3.701,3.741,3.731,3.717,3.714,3.731,21.303,68,14,Waypoint,
36.0028664,-118.564636,5902.6028978728,144.685044,0,0.64252626728,20400,2018-07-04 16:40:27,16,0,22.334,5902.6028978728,144.685044,0,0.64449805212,0,0,-0.671082,53.3, -0.8, 2.8,0,0,1024,1024,1024,1024,53.4,-89.9,95,3.701,3.741,3.731,3.717,3.714,3.731,21.303,68,14,Waypoint,
36.0028664,-118.564636,5903.2590658728,145.341212,0,0.64252626728,20500,2018-07-04 16:40:27,16,0,22.334,5903.2590658728,145.341212,0,0.64449805212,0,0,-0.671082,53.4, -0.5, 2.9,0,0,1024,1024,1024,1024,53.4,-89.9,95,3.701,3.741,3.731,3.717,3.714,3.731,21.303,68,14,Waypoint,
36.0028665,-118.564636,5904.2433178728,146.325464,0,0.66592521816,20600,2018-07-04 16:40:27,16,0,22.334,5904.2433178728,146.325464,0,0.66592521816,0,0,-0.671082,53.3, -0.3, 3.2,0,0,1024,1024,1024,1024,53.4,-89.9,95,3.701,3.741,3.731,3.717,3.714,3.731,21.303,68,14,Waypoint,
36.0028667,-118.564636,5906.2118218728,148.293968,0,0.71601708328,20700,2018-07-04 16:40:27,16,0,22.334,5906.2118218728,148.293968,0,0.71601708328,0,0,-0.671082,53.1, 0.3, 3.7,0,0,1024,1024,1024,1024,53.4,-89.9,95,3.701,3.741,3.731,3.717,3.714,3.731,21.303,68,14,Waypoint,
36.0028667,-118.564636,5907.1960738728,149.27822,0,0.71601708328,20800,2018-07-04 16:40:27,16,0,22.334,5907.1960738728,149.27822,0,0.71601708328,0,0,-0.671082,52.9, 0, 3.8,0,0,1024,1024,1024,1024,53.4,-89.9,95,3.701,3.741,3.731,3.717,3.714,3.731,21.303,68,14,Waypoint,
36.0028667,-118.5646361,5908.1803258728,150.262472,0,0.73700133592,20900,2018-07-04 16:40:28,16,0,22.334,5908.1803258728,150.262472,0,0.73700133592,0,0,-0.671082,52.8, -0.4, 3.8,0,0,1024,1024,1024,1024,53.4,-89.9,95,3.701,3.741,3.731,3.717,3.714,3.731,21.303,68,14,Waypoint,
36.0028667,-118.5646361,5910.1488298728,152.230976,0,0.73700133592,21100,2018-07-04 16:40:28,16,0,22.334,5910.1488298728,152.230976,0,0.73700133592,0,0,-0.671082,52.7, -1, 3.3,0,0,1024,1024,1024,1024,53.4,-90,95,3.701,3.741,3.731,3.717,3.714,3.731,21.303,68,14,Waypoint,
36.0028668,-118.5646362,5911.1330818728,153.215228,0,0.78358598308,21200,2018-07-04 16:40:28,16,0,22.334,5911.1330818728,153.215228,0,0.78358598308,0,0,-0.671082,52.8, -1.5, 3.4,0,0,1024,1024,1024,1024,53.4,-90,95,3.701,3.741,3.731,3.717,3.714,3.731,21.303,68,14,Waypoint,
36.0028668,-118.5646362,5912.1173338728,154.19948,0,0.78358598308,21300,2018-07-04 16:40:28,16,0,22.334,5912.1173338728,154.19948,0,0.78358598308,0,0,-0.671082,53, -1.7, 3.5,0,0,1024,1024,1024,1024,53.4,-90,95,3.701,3.741,3.731,3.717,3.714,3.731,21.303,68,14,Waypoint,
36.0028668,-118.5646363,5913.1015858728,155.183732,0,0.80497377904,21400,2018-07-04 16:40:28,16,0,22.334,5913.1015858728,155.183732,0,0.80497377904,0,0,-0.671082,53.2, -1.7, 3.4,0,0,1024,1024,1024,1024,53.4,-90,95,3.701,3.741,3.731,3.717,3.714,3.731,21.303,68,14,Waypoint,
36.0028668,-118.5646363,5914.0858378728,156.167984,0,0.80497377904,21500,2018-07-04 16:40:28,16,0,22.334,5914.0858378728,156.167984,0,0.80497377904,0,0,-0.671082,53.6, -1.6, 3.4,0,0,1024,1024,1024,1024,53.4,-90,95,3.701,3.741,3.731,3.717,3.714,3.731,21.303,68,14,Waypoint,
36.0028668,-118.5646363,5915.0700898728,157.152236,0,0.80497377904,21600,2018-07-04 16:40:28,16,0,22.334,5915.0700898728,157.152236,0,0.80497377904,0,0,-0.671082,53.9, -1.3, 3.5,0,0,1024,1024,1024,1024,53.4,-90,95,3.701,3.741,3.731,3.717,3.714,3.731,21.303,68,14,Waypoint,
36.0028668,-118.5646363,5916.0543418728,158.136488,0,0.80497377904,21800,2018-07-04 16:40:28,16,0,22.334,5916.0543418728,158.136488,0,0.80497377904,0,0,-0.671082,54, -1.3, 3.3,0,0,1024,1024,1024,1024,53.4,-89.9,95,3.701,3.741,3.731,3.717,3.714,3.731,21.303,68,14,Waypoint,
36.0028667,-118.5646362,5918.0228458728,160.104992,0,0.75855317388,21900,2018-07-04 16:40:29,16,0,22.334,5918.0228458728,160.104992,0,0.80497377904,0,0,-0.671082,53.7, -1.5, 2.4,0,0,1024,1024,1024,1024,53.4,-90,95,3.701,3.741,3.731,3.717,3.714,3.731,21.303,68,14,Waypoint,
36.0028666,-118.5646362,5919.0070978728,161.089244,0,0.7344816508,22100,2018-07-04 16:40:29,16,0,22.334,5919.0070978728,161.089244,0,0.80497377904,0,0,-0.671082,53.5, -1.4, 2,0,0,1024,1024,1024,1024,53.4,-90,95,3.701,3.741,3.731,3.717,3.714,3.731,21.303,68,14,Waypoint,
36.0028665,-118.5646361,5919.9913498728,162.073496,0,0.68844162308,22200,2018-07-04 16:40:29,16,0,22.334,5919.9913498728,162.073496,0,0.80497377904,0,0,-0.671082,53.4, -1.5, 1.7,0,0,1024,1024,1024,1024,53.4,-90,95,3.701,3.741,3.731,3.717,3.714,3.731,21.303,68,14,Waypoint,
36.0028665,-118.5646361,5920.9756018728,163.057748,0,0.68844162308,22300,2018-07-04 16:40:29,16,0,22.334,5920.9756018728,163.057748,0,0.80497377904,0,0,-0.671082,53.2, -1.7, 1.5,0,0,1024,1024,1024,1024,53.4,-90,95,3.701,3.741,3.731,3.717,3.714,3.731,21.303,68,14,Waypoint,
36.0028664,-118.564636,5921.9598538728,164.042,0,0.64252626728,22400,2018-07-04 16:40:29,16,0,22.334,5921.9598538728,164.042,0,0.80497377904,0,0,-0.671082,53.1, -1.7, 1.4,0,0,1024,1024,1024,1024,53.4,-90,95,3.701,3.741,3.731,3.717,3.714,3.731,21.303,68,14,Waypoint,
36.0028663,-118.5646359,5922.9441058728,165.026252,0,0.59677495348,22500,2018-07-04 16:40:29,16,0,22.334,5922.9441058728,165.026252,0,0.80497377904,0,0,-0.671082,53.1, -1.5, 1.4,0,0,1024,1024,1024,1024,53.4,-90,95,3.701,3.741,3.731,3.717,3.714,3.731,21.303,68,14,Waypoint,
36.0028663,-118.5646359,5923.9283578728,166.010504,0,0.59677495348,22600,2018-07-04 16:40:29,16,0,22.334,5923.9283578728,166.010504,0,0.80497377904,0,0,-0.671082,53.1, -1.3, 1.3,0,0,1024,1024,1024,1024,53.4,-89.9,95,3.701,3.741,3.731,3.717,3.714,3.731,21.303,68,14,Waypoint,
36.0028662,-118.5646358,5924.9126098728,166.994756,0,0.55121720924,22700,2018-07-04 16:40:29,16,0,22.334,5924.9126098728,166.994756,0,0.80497377904,0,0,-0.671082,53.2, -1.2, 1.2,0,0,1024,1024,1024,1024,53.4,-89.9,95,3.701,3.741,3.731,3.717,3.714,3.731,21.303,68,14,Waypoint,
36.0028661,-118.5646357,5925.8968618728,167.979008,0,0.50591208968,22800,2018-07-04 16:40:29,16,0,22.334,5925.8968618728,167.979008,0,0.80497377904,0,0,-0.671082,53.3, -1, 1.2,0,0,1024,1024,1024,1024,53.4,-89.9,95,3.701,3.741,3.731,3.717,3.714,3.731,21.303,68,14,Waypoint,
36.0028661,-118.5646356,5926.8811138728,168.96326,0,0.4821030338,22900,2018-07-04 16:40:30,16,0,22.334,5926.8811138728,168.96326,0,0.80497377904,0,0,-0.671082,53.3, -1.2, 1.2,0,0,1024,1024,1024,1024,53.4,-89.9,95,3.701,3.741,3.731,3.717,3.714,3.731,21.303,68,14,Waypoint,
36.002866,-118.5646355,5927.8653658728,169.947512,0,0.43666668064,23000,2018-07-04 16:40:30,16,0,22.309,5927.8653658728,169.947512,0,0.80497377904,0,0,-0.671082,53.4, -1.3, 1.2,0,0,1024,1024,1024,1024,53.4,-89.9,94,3.703,3.731,3.739,3.722,3.706,3.735,20.912,68,14,Waypoint,
36.0028658,-118.5646354,5928.8496178728,170.931764,0,0.37241471008,23100,2018-07-04 16:40:30,16,0,22.309,5928.8496178728,170.931764,0,0.80497377904,0,0,-0.671082,53.4, -1.4, 0.9,0,0,1024,1024,1024,1024,53.4,-89.9,94,3.703,3.731,3.739,3.722,3.706,3.735,20.912,68,14,Waypoint,
36.0028656,-118.5646353,5931.1462058728,173.228352,0,0.31479987884,23200,2018-07-04 16:40:30,16,0,22.309,5931.1462058728,173.228352,0,0.80497377904,0,0,-0.671082,53.2, -1.5, 0.4,0,0,1024,1024,1024,1024,53.4,-90,94,3.703,3.731,3.739,3.722,3.706,3.735,20.912,68,14,Waypoint,
36.0028656,-118.5646352,5932.1304578728,174.212604,0,0.287309064312,23300,2018-07-04 16:40:30,16,0,22.309,5932.1304578728,174.212604,0,0.80497377904,0,0,-0.671082,53.1, -1.6, 0.2,0,0,1024,1024,1024,1024,53.4,-90,94,3.703,3.731,3.739,3.722,3.706,3.735,20.912,68,14,Waypoint,
36.0028655,-118.5646352,5933.1147098728,175.196856,0,0.275482620364,23400,2018-07-04 16:40:30,16,0,22.309,5933.1147098728,175.196856,0,0.80497377904,0,0,-0.671082,53, -1.6, 0,0,0,1024,1024,1024,1024,53.4,-90,94,3.703,3.731,3.739,3.722,3.706,3.735,20.912,68,14,Waypoint,
36.0028654,-118.5646351,5934.0989618728,176.181108,0,0.238929141504,23500,2018-07-04 16:40:30,16,0,22.309,5934.0989618728,176.181108,0,0.80497377904,0,0,-0.671082,52.9, -1.6, 0.1,0,0,1024,1024,1024,1024,53.4,-90,94,3.703,3.731,3.739,3.722,3.706,3.735,20.912,68,14,Waypoint,
36.0028653,-118.564635,5935.0832138728,177.16536,0,0.206610899,23600,2018-07-04 16:40:30,16,0,22.309,5935.0832138728,177.16536,0,0.80497377904,0,0,-0.671082,52.9, -1.6, 0.2,0,0,1024,1024,1024,1024,53.4,-90,94,3.703,3.731,3.739,3.722,3.706,3.735,20.912,68,14,Waypoint,
36.0028653,-118.564635,5936.0674658728,178.149612,0,0.206610899,23700,2018-07-04 16:40:30,16,0,22.309,5936.0674658728,178.149612,0,0.80497377904,0,0,-0.671082,53, -1.7, 0.2,0,0,1024,1024,1024,1024,53.4,-90,94,3.703,3.731,3.739,3.722,3.706,3.735,20.912,68,14,Waypoint,
36.0028652,-118.5646349,5937.0517178728,179.133864,0,0.180814310248,23900,2018-07-04 16:40:31,16,0,22.309,5937.0517178728,179.133864,0,0.80497377904,0,0,-0.671082,53.1, -1.7, 0.3,0,0,1024,1024,1024,1024,53.4,-90,94,3.703,3.731,3.739,3.722,3.706,3.735,20.912,68,14,Waypoint,
36.0028652,-118.5646349,5938.0359698728,180.118116,0,0.180814310248,24000,2018-07-04 16:40:31,16,0,22.307,5938.0359698728,180.118116,0,0.80497377904,0,0,-0.671082,53.2, -1.7, 0.5,0,0,1024,1024,1024,1024,53.4,-90,94,3.693,3.732,3.718,3.717,3.704,3.71,20.543,68,14,Waypoint,
36.0028652,-118.5646348,5939.3483058728,181.430452,0,0.152022314576,24100,2018-07-04 16:40:31,16,0,22.307,5939.3483058728,181.430452,0,0.80497377904,0,0,-0.671082,53.3, -1.6, 0.6,0,0,1024,1024,1024,1024,53.4,-89.9,94,3.693,3.732,3.718,3.717,3.704,3.71,20.543,68,14,Waypoint,
36.0028652,-118.5646348,5940.3325578728,182.414704,0,0.152022314576,24200,2018-07-04 16:40:31,16,0,22.307,5940.3325578728,182.414704,0,0.80497377904,0,0,-0.671082,53.5, -1.4, 0.6,0,0,1024,1024,1024,1024,53.4,-89.9,94,3.693,3.732,3.718,3.717,3.704,3.71,20.543,68,14,Waypoint,
36.0028652,-118.5646347,5941.3168098728,183.398956,0,0.123572510516,24300,2018-07-04 16:40:31,16,0,22.307,5941.3168098728,183.398956,0,0.80497377904,0,0,-0.671082,53.6, -1, 0.7,0,0,1024,1024,1024,1024,53.4,-89.9,94,3.693,3.732,3.718,3.717,3.704,3.71,20.543,68,14,Waypoint,
36.0028652,-118.5646346,5942.3010618728,184.383208,0,0.095769688104,24400,2018-07-04 16:40:31,16,0,22.307,5942.3010618728,184.383208,0,0.80497377904,0,0,-0.671082,53.7, -0.7, 0.7,0,0,1024,1024,1024,1024,53.4,-89.9,94,3.693,3.732,3.718,3.717,3.704,3.71,20.543,68,14,Waypoint,
36.0028652,-118.5646345,5943.2853138728,185.36746,0,0.069396655764,24500,2018-07-04 16:40:31,16,0,22.307,5943.2853138728,185.36746,0,0.80497377904,0,0,-0.671082,53.7, -0.5, 0.7,0,0,1024,1024,1024,1024,53.4,-89.9,94,3.693,3.732,3.718,3.717,3.704,3.71,20.543,68,14,Waypoint,
36.0028652,-118.5646345,5944.2695658728,186.351712,0,0.069396655764,24600,2018-07-04 16:40:31,16,0,22.307,5944.2695658728,186.351712,0,0.80497377904,0,0,-0.671082,53.6, -0.6, 0.6,0,0,1024,1024,1024,1024,53.4,-89.9,94,3.693,3.732,3.718,3.717,3.704,3.71,20.543,68,14,Waypoint,
36.0028652,-118.5646344,5945.2538178728,187.335964,0,0.04692913536,24700,2018-07-04 16:40:31,16,0,22.307,5945.2538178728,187.335964,0,0.80497377904,0,0,-0.671082,53.5, -0.7, 0.6,0,0,1024,1024,1024,1024,53.4,-89.9,94,3.693,3.732,3.718,3.717,3.704,3.71,20.543,68,14,Waypoint,
36.0028652,-118.5646344,5946.2380698728,188.320216,0,0.04692913536,24800,2018-07-04 16:40:31,16,0,22.307,5946.2380698728,188.320216,0,0.80497377904,0,0,-0.671082,53.4, -0.7, 0.8,0,0,1024,1024,1024,1024,53.4,-89.9,94,3.693,3.732,3.718,3.717,3.704,3.71,20.543,68,14,Waypoint,
36.0028652,-118.5646344,5947.2223218728,189.304468,0,0.04692913536,24900,2018-07-04 16:40:32,16,0,22.307,5947.2223218728,189.304468,0,0.80497377904,0,0,-0.671082,53.4, -0.6, 1,0,0,1024,1024,1024,1024,53.4,-89.9,94,3.693,3.732,3.718,3.717,3.704,3.71,20.543,68,14,Waypoint,
36.0028653,-118.5646343,5948.5346578728,190.616804,0,0,25000,2018-07-04 16:40:32,16,0,22.282,5948.5346578728,190.616804,0,0.80497377904,0,0,-0.671082,53.3, -0.6, 1.1,0,0,1024,1024,1024,1024,53.4,-89.9,94,3.69,3.734,3.724,3.72,3.701,3.721,20.541,69.8,14,Waypoint,
36.0028653,-118.5646343,5949.5189098728,191.601056,0,0,25100,2018-07-04 16:40:32,16,0,22.282,5949.5189098728,191.601056,0,0.80497377904,0,0,-0.671082,53.2, -0.6, 1.1,0,0,1024,1024,1024,1024,53.4,-89.9,94,3.69,3.734,3.724,3.72,3.701,3.721,20.541,69.8,14,Waypoint,
36.0028653,-118.5646343,5950.5031618728,192.585308,0,0,25200,2018-07-04 16:40:32,16,0,22.282,5950.5031618728,192.585308,0,0.80497377904,0,0,-0.671082,53.1, -0.7, 1.2,0,0,1024,1024,1024,1024,53.4,-89.9,94,3.69,3.734,3.724,3.72,3.701,3.721,20.541,69.8,14,Waypoint,
36.0028653,-118.5646343,5951.4874138728,193.56956,0,0,25300,2018-07-04 16:40:32,16,0,22.282,5951.4874138728,193.56956,0,0.80497377904,0,0,-0.671082,53.1, -0.8, 1.3,0,0,1024,1024,1024,1024,53.4,-89.9,94,3.69,3.734,3.724,3.72,3.701,3.721,20.541,69.8,14,Waypoint,
36.0028654,-118.5646343,5953.1278338728,195.20998,0,0.036484909304,25400,2018-07-04 16:40:32,16,0,22.282,5953.1278338728,195.20998,0,0.80497377904,0,0,-0.671082,52.9, -0.8, 1.5,0,0,1024,1024,1024,1024,53.4,-89.9,94,3.69,3.734,3.724,3.72,3.701,3.721,20.541,69.8,14,Waypoint,
36.0028654,-118.5646343,5954.1120858728,196.194232,0,0.036484909304,25500,2018-07-04 16:40:32,16,0,22.282,5954.1120858728,196.194232,0,0.80497377904,0,0,-0.671082,52.8, -0.8, 1.4,0,0,1024,1024,1024,1024,53.4,-90,94,3.69,3.734,3.724,3.72,3.701,3.721,20.541,69.8,14,Waypoint,
36.0028655,-118.5646343,5956.0805898728,198.162736,0,0.072969818608,25800,2018-07-04 16:40:32,16,0,22.282,5956.0805898728,198.162736,0,0.80497377904,0,0,-0.671082,52.9, -0.7, 1.4,0,0,1024,1024,1024,1024,53.4,-89.9,94,3.69,3.734,3.724,3.72,3.701,3.721,20.541,69.8,14,Waypoint,
36.0028656,-118.5646342,5958.3771778728,200.459324,0,0.11336450494,25900,2018-07-04 16:40:33,16,0,22.282,5958.3771778728,200.459324,0,0.80497377904,0,0,-0.671082,53.2, -0.5, 1.4,0,0,1024,1024,1024,1024,53.4,-89.9,94,3.69,3.734,3.724,3.72,3.701,3.721,20.541,69.8,14,Waypoint,
36.0028656,-118.5646342,5959.0333458728,201.115492,0,0.11336450494,26000,2018-07-04 16:40:33,16,0,22.294,5959.0333458728,201.115492,0,0.80497377904,0,0,-0.671082,53.3, -0.4, 1.3,0,0,1024,1024,1024,1024,53.4,-89.9,94,3.697,3.743,3.727,3.721,3.707,3.731,20.317,69.8,14,Waypoint,
36.0028657,-118.5646342,5960.0175978728,202.099744,0,0.148894689804,26100,2018-07-04 16:40:33,16,0,22.294,5960.0175978728,202.099744,0,0.80497377904,0,0,-0.671082,53.4, -0.1, 1.4,0,0,1024,1024,1024,1024,53.4,-89.9,94,3.697,3.743,3.727,3.721,3.707,3.731,20.317,69.8,14,Waypoint,
36.0028657,-118.5646342,5961.0018498728,203.083996,0,0.148894689804,26200,2018-07-04 16:40:33,16,0,22.294,5961.0018498728,203.083996,0,0.80497377904,0,0,-0.671082,53.4, -0.1, 1.5,0,0,1024,1024,1024,1024,53.4,-89.9,94,3.697,3.743,3.727,3.721,3.707,3.731,20.317,69.8,14,Waypoint,
36.0028658,-118.5646342,5961.9861018728,204.068248,0,0.184796921924,26400,2018-07-04 16:40:33,16,0,22.294,5961.9861018728,204.068248,0,0.80497377904,0,0,-0.671082,53.5, -0.1, 1.5,0,0,1024,1024,1024,1024,53.4,-89.9,94,3.697,3.743,3.727,3.721,3.707,3.731,20.317,69.8,14,Waypoint,
36.0028659,-118.5646342,5963.9546058728,206.036752,0,0.220890427016,26600,2018-07-04 16:40:33,16,0,22.294,5963.9546058728,206.036752,0,0.80497377904,0,0,-0.671082,53.5, -0.1, 1.4,0,0,1024,1024,1024,1024,53.4,-89.9,94,3.697,3.743,3.727,3.721,3.707,3.731,20.317,69.8,14,Waypoint,
36.0028659,-118.5646342,5964.9388578728,207.021004,0,0.220890427016,26700,2018-07-04 16:40:33,16,0,22.294,5964.9388578728,207.021004,0,0.80497377904,0,0,-0.671082,53.4, 0, 1.5,0,0,1024,1024,1024,1024,53.4,-89.9,94,3.697,3.743,3.727,3.721,3.707,3.731,20.317,69.8,14,Waypoint,
36.002866,-118.5646342,5966.9073618728,208.989508,0,0.257094496416,26900,2018-07-04 16:40:34,16,0,22.294,5966.9073618728,208.989508,0,0.80497377904,0,0,-0.671082,53.2, -0.1, 1.5,0,0,1024,1024,1024,1024,53.4,-89.9,94,3.697,3.743,3.727,3.721,3.707,3.731,20.317,69.8,14,Waypoint,
36.002866,-118.5646342,5967.8916138728,209.97376,0,0.257094496416,27000,2018-07-04 16:40:34,16,0,22.354,5967.8916138728,209.97376,0,0.80497377904,0,0,-0.671082,53.1, -0.2, 1.6,0,0,1024,1024,1024,1024,53.4,-89.9,94,3.703,3.748,3.734,3.727,3.72,3.731,19.546,69.8,14,Waypoint,
36.0028661,-118.5646342,5968.8758658728,210.958012,0,0.293368119624,27100,2018-07-04 16:40:34,16,0,22.354,5968.8758658728,210.958012,0,0.80497377904,0,0,-0.671082,53.1, -0.2, 1.9,0,0,1024,1024,1024,1024,53.4,-89.9,94,3.703,3.748,3.734,3.727,3.72,3.731,19.546,69.8,14,Waypoint,
36.0028661,-118.5646342,5969.8601178728,211.942264,0,0.293368119624,27200,2018-07-04 16:40:34,16,0,22.354,5969.8601178728,211.942264,0,0.80497377904,0,0,-0.671082,53.1, -0.1, 2.1,0,0,1024,1024,1024,1024,53.4,-89.9,94,3.703,3.748,3.734,3.727,3.72,3.731,19.546,69.8,14,Waypoint,
36.0028661,-118.5646342,5970.8443698728,212.926516,0,0.293368119624,27300,2018-07-04 16:40:34,16,0,22.354,5970.8443698728,212.926516,0,0.80497377904,0,0,-0.671082,53.3, -0.1, 2.3,0,0,1024,1024,1024,1024,53.4,-89.9,94,3.703,3.748,3.734,3.727,3.72,3.731,19.546,69.8,14,Waypoint,
36.0028662,-118.5646343,5971.8286218728,213.910768,0,0.3283628714,27400,2018-07-04 16:40:34,16,0,22.354,5971.8286218728,213.910768,0,0.80497377904,0,0,-0.671082,53.4, -0.1, 2.5,0,0,1024,1024,1024,1024,53.4,-89.9,94,3.703,3.748,3.734,3.727,3.72,3.731,19.546,69.8,14,Waypoint,
36.0028662,-118.5646343,5972.4847898728,214.566936,0,0.3283628714,27500,2018-07-04 16:40:34,16,0,22.354,5972.4847898728,214.566936,0,0.80497377904,0,0,-0.671082,53.5, -0.2, 2.3,0,0,1024,1024,1024,1024,53.4,-89.9,94,3.703,3.748,3.734,3.727,3.72,3.731,19.546,69.8,14,Waypoint,
36.0028662,-118.5646343,5973.4690418728,215.551188,0,0.3283628714,27600,2018-07-04 16:40:34,16,0,22.354,5973.4690418728,215.551188,0,0.80497377904,0,0,-0.671082,53.5, -0.2, 2,0,0,1024,1024,1024,1024,53.4,-89.9,94,3.703,3.748,3.734,3.727,3.72,3.731,19.546,69.8,14,Waypoint,
36.0028662,-118.5646342,5975.4375458728,217.519692,0,0.32968833076,27700,2018-07-04 16:40:34,16,0,22.354,5975.4375458728,217.519692,0,0.80497377904,0,0,-0.671082,53.5, -0.2, 1.2,0,0,1024,1024,1024,1024,53.4,-89.9,94,3.703,3.748,3.734,3.727,3.72,3.731,19.546,69.8,14,Waypoint,
