latitude,longitude,altitude(feet),ascent(feet),speed(mph),distance(feet),time(millisecond),datetime(utc),satellites,gpslevel,voltage(v),max_altitude(feet),max_ascent(feet),max_speed(mph),max_distance(feet), xSpeed(mph), ySpeed(mph), zSpeed(mph), compass_heading(degrees), pitch(degrees), roll(degrees),isPhoto,isVideo,rc_elevator,rc_aileron,rc_throttle,rc_rudder,gimbal_heading(degrees),gimbal_pitch(degrees),battery_percent,voltageCell1,voltageCell2,voltageCell3,voltageCell4,voltageCell5,voltageCell6,current(A),battery_temperature(f),flycStateRaw,flycState,message
36.6869859,-118.9584901,4940.5593651189,0,0,0,3000,2018-04-13 22:11:10,17,0,25.278,4940.5593651189,0,0,0,0,0,0,134.6, 0.1, -0.8,1,0,1024,1024,1025,1024,132.5,-89.9,91,4.18,4.232,4.208,4.227,0,0,4.029,57.2,11,AutoTakeoff,DJI_0798.jpg Starting Mission from Lat/Long: 36.68697/-118.95849 Camera: Zenmuse X3 - Overlap: 90/90 - Active Connection: Yes
36.6869859,-118.95849,4940.5593651189,0,0,0.02925771091,3100,2018-04-13 22:11:10,17,0,25.278,4940.5593651189,0,0,0.02925771091,0,0,0,134.7, 0, -0.6,0,0,1024,1024,1025,1024,132.5,-89.9,91,4.18,4.232,4.208,4.227,0,0,4.029,57.2,11,AutoTakeoff,
36.6869859,-118.95849,4940.5593651189,0,0,0.02925771091,3200,2018-04-13 22:11:10,17,0,25.278,4940.5593651189,0,0,0.02925771091,0,0,0,134.7, 0.1, 0,0,0,1024,1024,1024,1024,132.5,-89.9,91,4.18,4.232,4.208,4.227,0,0,4.029,57.2,11,AutoTakeoff,
36.6869859,-118.9584899,4940.8874491189,0.328084,0,0.05851542182,3300,2018-04-13 22:11:10,17,0,25.278,4940.8874491189,0.328084,0,0.05851542182,0,0,0,134.7, 0, 0.4,0,0,1024,1024,1025,1024,132.6,-89.9,91,4.18,4.232,4.208,4.227,0,0,4.029,57.2,11,AutoTakeoff,
36.6869858,-118.9584899,4940.8874491189,0.328084,0,0.068958007456,3400,2018-04-13 22:11:10,14,0,25.278,4940.8874491189,0.328084,0,0.068958007456,0,0,0,134.6, -0.2, 0.3,0,0,1024,1024,1025,1024,132.6,-89.9,91,4.18,4.232,4.208,4.227,0,0,4.029,57.2,11,AutoTakeoff,
36.6869858,-118.9584898,4941.2155331189,0.656168,0,0.0950541369,3500,2018-04-13 22:11:10,14,0,25.278,4941.2155331189,0.656168,0,0.0950541369,0,0,0,134.5, 0, 0,0,0,1024,1024,1025,1024,132.7,-89.9,91,4.18,4.232,4.208,4.227,0,0,4.029,57.2,11,AutoTakeoff,
36.6869857,-118.9584898,4941.2155331189,0.656168,0,0.114143376356,3600,2018-04-13 22:11:10,14,0,25.278,4941.2155331189,0.656168,0,0.114143376356,0,0,0,134.3, 0.3, -0.2,0,0,1024,1024,1025,1024,132.7,-89.9,91,4.18,4.232,4.208,4.227,0,0,4.029,57.2,11,AutoTakeoff,
36.6869856,-118.9584898,4941.2155331189,0.656168,0,0.140301513676,3700,2018-04-13 22:11:11,14,0,25.278,4941.2155331189,0.656168,0,0.140301513676,0,0,0,134.1, 0.5, -0.4,0,0,1024,1024,1025,1024,132.7,-89.9,91,4.18,4.232,4.208,4.227,0,0,4.029,57.2,11,AutoTakeoff,
36.6869856,-118.9584897,4941.5436171189,0.984252,0,0.160239178356,3800,2018-04-13 22:11:11,15,0,25.278,4941.5436171189,0.984252,0,0.160239178356,0,0,0,133.8, 0.7, -0.6,0,0,1024,1024,1024,1024,132.8,-89.9,91,4.18,4.232,4.208,4.227,0,0,4.029,57.2,11,AutoTakeoff,
36.6869855,-118.9584896,4941.5436171189,0.984252,0,0.206636817636,3900,2018-04-13 22:11:11,15,0,25.278,4941.5436171189,0.984252,0,0.206636817636,0,0,0,133.7, 0.8, -0.7,0,0,1024,1024,1025,1024,132.8,-89.9,91,4.18,4.232,4.208,4.227,0,0,4.029,57.2,11,AutoTakeoff,
36.6869854,-118.9584895,4941.8717011189,1.312336,0,0.253170283692,4000,2018-04-13 22:11:11,16,0,24.455,4941.8717011189,1.312336,0,0.253170283692,0,0,0,133.6, 1.3, -0.4,0,0,1024,1024,1025,1024,132.8,-89.9,91,3.97,4.039,4.002,4.032,0,0,9.494,57.2,11,AutoTakeoff,
36.6869854,-118.9584894,4941.8717011189,1.312336,0,0.274268709564,4100,2018-04-13 22:11:11,16,0,24.455,4941.8717011189,1.312336,0,0.274268709564,0,0,0,133.7, 1.6, -0.1,0,0,1024,1024,1024,1024,132.9,-89.9,91,3.97,4.039,4.002,4.032,0,0,9.494,57.2,11,AutoTakeoff,
36.6869853,-118.9584892,4942.1997851189,1.64042,0,0.34243111332,4300,2018-04-13 22:11:11,17,0,24.455,4942.1997851189,1.64042,0,0.34243111332,0,0,-0.223694,133.9, 1.6, 0,0,0,1024,1024,1025,1024,132.9,-89.9,91,3.97,4.039,4.002,4.032,0,0,9.494,57.2,11,AutoTakeoff,
36.6869851,-118.958489,4942.5278691189,1.968504,0,0.43447836036,4400,2018-04-13 22:11:11,17,0,24.455,4942.5278691189,1.968504,0,0.43447836036,0,0,-0.223694,134.1, 1.7, 0.1,0,0,1024,1024,1025,1024,133,-89.9,91,3.97,4.039,4.002,4.032,0,0,9.494,57.2,11,AutoTakeoff,
36.6869851,-118.958489,4942.8559531189,2.296588,0,0.43447836036,4600,2018-04-13 22:11:11,17,0,24.455,4942.8559531189,2.296588,0,0.43447836036,0,0,-0.223694,134.3, 1.7, 0.1,0,0,1024,1024,1025,1024,133,-89.9,91,3.97,4.039,4.002,4.032,0,0,9.494,57.2,11,AutoTakeoff,
36.6869851,-118.9584889,4942.8559531189,2.296588,0,0.45657481776,4700,2018-04-13 22:11:12,17,0,24.455,4942.8559531189,2.296588,0,0.45657481776,0,0,-0.223694,134.5, 1.5, 0,0,0,1024,1024,1025,1024,133,-89.9,91,3.97,4.039,4.002,4.032,0,0,9.494,57.2,11,AutoTakeoff,
36.686985,-118.9584887,4943.1840371189,2.624672,0,0.52497705092,4800,2018-04-13 22:11:12,18,0,24.455,4943.1840371189,2.624672,0,0.52497705092,0,0,-0.223694,134.7, 1.7, -0.1,0,0,1024,1024,1025,1024,133,-89.9,91,3.97,4.039,4.002,4.032,0,0,9.494,57.2,11,AutoTakeoff,
36.686985,-118.9584887,4943.5121211189,2.952756,0,0.52497705092,4900,2018-04-13 22:11:12,18,0,24.455,4943.5121211189,2.952756,0,0.52497705092,0,0,-0.223694,135, 1.9, -0.1,0,0,1024,1024,1024,1024,133.1,-89.9,91,3.97,4.039,4.002,4.032,0,0,9.494,57.2,6,P-GPS,
36.6869849,-118.9584886,4943.5121211189,2.952756,0,0.5707185222,5000,2018-04-13 22:11:12,18,0,23.426,4943.5121211189,2.952756,0,0.5707185222,0,0,-0.223694,135.2, 2.3, -0.1,0,0,1024,1024,1024,1024,133.1,-89.9,91,3.862,3.887,3.899,3.917,0,0,16.863,57.2,14,Waypoint,
36.6869849,-118.9584886,4943.8402051189,3.28084,0,0.5707185222,5100,2018-04-13 22:11:12,18,0,23.426,4943.8402051189,3.28084,0,0.5707185222,0,0,0,135.5, 2.1, -0.2,0,0,1024,1024,1025,1024,133.2,-89.9,91,3.862,3.887,3.899,3.917,0,0,16.863,57.2,14,Waypoint,
36.6869849,-118.9584885,4943.8402051189,3.28084,0,0.59351051768,5200,2018-04-13 22:11:12,17,0,23.426,4943.8402051189,3.28084,0,0.59351051768,0,0,0,135.9, 1.5, -0.2,0,0,1024,1024,1025,1024,133.2,-89.9,91,3.862,3.887,3.899,3.917,0,0,16.863,57.2,14,Waypoint,
36.6869848,-118.9584884,4944.1682891189,3.608924,0,0.639107632,5300,2018-04-13 22:11:12,17,0,23.426,4944.1682891189,3.608924,0,0.639107632,0,0,0,136.2, 1.3, 0,0,0,1024,1024,1025,1024,133.3,-89.9,91,3.862,3.887,3.899,3.917,0,0,16.863,57.2,14,Waypoint,
36.6869848,-118.9584883,4944.1682891189,3.608924,0,0.66212928628,5400,2018-04-13 22:11:12,18,0,23.426,4944.1682891189,3.608924,0,0.66212928628,0,0,0,136.4, 1.3, 0.2,0,0,1024,1024,1025,1024,133.4,-89.9,91,3.862,3.887,3.899,3.917,0,0,16.863,57.2,14,Waypoint,
36.6869847,-118.9584882,4944.1682891189,3.608924,0,0.70760500952,5500,2018-04-13 22:11:12,18,0,23.426,4944.1682891189,3.608924,0,0.70760500952,0,0,0,136.5, 1.3, 0.3,0,0,1024,1024,1025,1024,133.5,-89.9,91,3.862,3.887,3.899,3.917,0,0,16.863,57.2,14,Waypoint,
36.6869846,-118.9584881,4944.4963731189,3.937008,0,0.75323821308,5600,2018-04-13 22:11:12,20,0,23.426,4944.4963731189,3.937008,0,0.75323821308,0,0,-0.223694,136.6, 1.5, 0.2,0,0,1024,1024,1025,1024,133.6,-89.9,91,3.862,3.887,3.899,3.917,0,0,16.863,57.2,14,Waypoint,
36.6869846,-118.958488,4944.4963731189,3.937008,0,0.77618768888,5700,2018-04-13 22:11:13,20,0,23.426,4944.4963731189,3.937008,0,0.77618768888,0,0,-0.223694,136.6, 1.7, 0.2,0,0,1024,1024,1025,1024,133.7,-89.9,91,3.862,3.887,3.899,3.917,0,0,16.863,57.2,14,Waypoint,
36.6869845,-118.9584879,4944.8244571189,4.265092,0,0.82171590556,5800,2018-04-13 22:11:13,19,0,23.426,4944.8244571189,4.265092,0,0.82171590556,0,0,-0.223694,136.5, 1.8, 0.3,0,0,1024,1024,1025,1024,133.7,-89.9,91,3.862,3.887,3.899,3.917,0,0,16.863,57.2,14,Waypoint,
36.6869844,-118.9584879,4945.1525411189,4.593176,0,0.84487863596,5900,2018-04-13 22:11:13,19,0,23.426,4945.1525411189,4.593176,0,0.84487863596,0,0,-0.223694,136.4, 2, 0,0,0,1024,1024,1025,1024,133.7,-89.9,91,3.862,3.887,3.899,3.917,0,0,16.863,57.2,14,Waypoint,
36.6869843,-118.9584878,4945.8087091189,5.249344,0,0.8908464852,6000,2018-04-13 22:11:13,17,0,23.191,4945.8087091189,5.249344,0,0.8908464852,0,0,-0.223694,136.2, 2.1, -0.1,0,0,1024,1024,1025,1024,133.9,-89.9,91,3.862,3.887,3.899,3.917,0,0,17.187,57.2,14,Waypoint,
36.6869843,-118.9584877,4946.1367931189,5.577428,0,0.91314635468,6100,2018-04-13 22:11:13,17,0,23.191,4946.1367931189,5.577428,0,0.91314635468,0,0,-0.447388,136.1, 2.2, -0.2,0,0,1024,1024,1025,1024,133.9,-89.9,91,3.862,3.887,3.899,3.917,0,0,17.187,57.2,14,Waypoint,
36.6869842,-118.9584876,4946.7929611189,6.233596,0,0.95901577872,6210,2018-04-13 22:11:13,19,0,23.191,4946.7929611189,6.233596,0,0.95901577872,0,0,-0.447388,136.1, 2.3, -0.2,0,0,1024,1024,1025,1024,133.9,-89.9,91,3.862,3.887,3.899,3.917,0,0,17.187,57.2,14,Waypoint,
36.6869842,-118.9584874,4948.1052971189,7.545932,0,1.00435698752,6400,2018-04-13 22:11:13,18,0,23.191,4948.1052971189,7.545932,0,1.00435698752,0,0,-0.447388,136.1, 2.3, 0,0,0,1024,1024,1025,1024,134.1,-89.9,91,3.862,3.887,3.899,3.917,0,0,17.187,57.2,14,Waypoint,
36.6869844,-118.958487,4949.7457171189,9.186352,0,1.05931105752,6600,2018-04-13 22:11:13,18,0,23.191,4949.7457171189,9.186352,0,1.05931105752,0,0,-0.671082,136.2, 1.6, 0.9,0,0,1024,1024,1025,1024,134.2,-89.9,91,3.862,3.887,3.899,3.917,0,0,17.187,57.2,14,Waypoint,
36.6869843,-118.9584869,4951.7142211189,11.154856,0,1.10332680696,6700,2018-04-13 22:11:14,17,0,23.191,4951.7142211189,11.154856,0,1.10332680696,0,0,-0.671082,136.6, 1.6, 1.2,0,0,1024,1024,1024,1024,134.3,-89.9,91,3.862,3.887,3.899,3.917,0,0,17.187,57.2,14,Waypoint,
36.6869842,-118.9584868,4953.0265571189,12.467192,0,1.14756237268,6900,2018-04-13 22:11:14,17,0,23.191,4953.0265571189,12.467192,0,1.14756237268,0,0,-0.671082,136.8, 2, 1,0,0,1024,1024,1025,1024,134.3,-89.9,91,3.862,3.887,3.899,3.917,0,0,17.187,57.2,14,Waypoint,
36.6869841,-118.9584867,4954.0108091189,13.451444,0,1.19199150796,7000,2018-04-13 22:11:14,19,0,22.85,4954.0108091189,13.451444,0,1.19199150796,0,0,-0.671082,136.9, 2.3, 0.8,0,0,1024,1024,1025,1024,134.4,-89.9,91,3.794,3.835,3.783,3.797,0,0,20.046,59,14,Waypoint,
36.686984,-118.9584866,4954.9950611189,14.435696,0,1.23659124692,7100,2018-04-13 22:11:14,19,0,22.85,4954.9950611189,14.435696,0,1.23659124692,0,0,-0.671082,136.9, 2.3, 0.5,0,0,1024,1024,1025,1024,134.4,-89.9,91,3.794,3.835,3.783,3.797,0,0,20.046,59,14,Waypoint,
36.686984,-118.9584866,4956.3073971189,15.748032,0,1.23659124692,7200,2018-04-13 22:11:14,19,0,22.85,4956.3073971189,15.748032,0,1.23659124692,0,0,-0.671082,136.8, 2.3, 0.5,0,0,1024,1024,1025,1024,134.4,-89.9,91,3.794,3.835,3.783,3.797,0,0,20.046,59,14,Waypoint,
36.686984,-118.9584866,4957.6197331189,17.060368,0,1.23659124692,7300,2018-04-13 22:11:14,19,0,22.85,4957.6197331189,17.060368,0,1.23659124692,0,0,-0.671082,136.7, 2.2, 0.6,0,0,1024,1024,1024,1024,134.5,-89.9,91,3.794,3.835,3.783,3.797,0,0,20.046,59,14,Waypoint,
36.6869841,-118.9584865,4958.6039851189,18.04462,0,1.24124347804,7400,2018-04-13 22:11:14,18,0,22.85,4958.6039851189,18.04462,0,1.24124347804,0,0,-0.671082,136.6, 2, 1,0,0,1024,1024,1025,1024,134.5,-89.9,91,3.794,3.835,3.783,3.797,0,0,20.046,59,14,Waypoint,
36.6869842,-118.9584865,4959.9163211189,19.356956,0,1.22233271628,7500,2018-04-13 22:11:14,18,0,22.85,4959.9163211189,19.356956,0,1.24124347804,0,0,-0.671082,136.5, 1.6, 1.3,0,0,1024,1024,1025,1024,134.5,-89.9,91,3.794,3.835,3.783,3.797,0,0,20.046,59,14,Waypoint,
36.6869843,-118.9584865,4960.9005731189,20.341208,0.223694,1.20422904116,7600,2018-04-13 22:11:14,19,0,22.85,4960.9005731189,20.341208,0.223694,1.24124347804,0,0,-0.671082,136.4, 1.4, 1.7,0,0,1024,1024,1025,1024,134.6,-89.9,91,3.794,3.835,3.783,3.797,0,0,20.046,59,14,Waypoint,
36.6869845,-118.9584864,4962.2129091189,21.653544,0.223694,1.19699150812,7700,2018-04-13 22:11:15,19,0,22.85,4962.2129091189,21.653544,0.223694,1.24124347804,0,0,-0.671082,136.3, 1.3, 2.3,0,0,1024,1024,1025,1024,134.6,-89.9,91,3.794,3.835,3.783,3.797,0,0,20.046,59,14,Waypoint,
36.6869846,-118.9584864,4963.1971611189,22.637796,0.223694,1.18188323992,7800,2018-04-13 22:11:15,19,0,22.85,4963.1971611189,22.637796,0.223694,1.24124347804,0,0,-0.671082,136.4, 1.3, 2.5,0,0,1024,1024,1025,1024,134.6,-89.9,91,3.794,3.835,3.783,3.797,0,0,20.046,59,14,Waypoint,
36.6869847,-118.9584864,4964.5094971189,23.950132,0.223694,1.16771985364,7900,2018-04-13 22:11:15,19,0,22.85,4964.5094971189,23.950132,0.223694,1.24124347804,0,0,-0.671082,136.5, 1.3, 2.5,0,0,1024,1024,1025,1024,134.7,-89.9,91,3.794,3.835,3.783,3.797,0,0,20.046,59,14,Waypoint,
36.6869849,-118.9584864,4965.4937491189,24.934384,0.223694,1.14236552212,8000,2018-04-13 22:11:15,17,0,22.303,4965.4937491189,24.934384,0.223694,1.24124347804,0,0,-0.671082,136.5, 1.2, 2.6,0,0,1024,1024,1025,1024,134.7,-90,91,3.677,3.71,3.73,3.768,0,0,23.912,59,14,Waypoint,
36.686985,-118.9584864,4966.8060851189,26.24672,0.223694,1.13124019368,8100,2018-04-13 22:11:15,17,0,22.303,4966.8060851189,26.24672,0.223694,1.24124347804,0,0,-0.671082,136.4, 0.8, 3,0,0,1024,1024,1024,1024,134.7,-90,91,3.677,3.71,3.73,3.768,0,0,23.912,59,14,Waypoint,
36.6869852,-118.9584865,4967.7903371189,27.230972,0.223694,1.08379924728,8200,2018-04-13 22:11:15,19,0,22.303,4967.7903371189,27.230972,0.223694,1.24124347804,0,0,-0.671082,136.4, 0.4, 3.2,0,0,1024,1024,1024,1024,134.8,-90,91,3.677,3.71,3.73,3.768,0,0,23.912,59,14,Waypoint,
36.6869853,-118.9584863,4969.1026731189,28.543308,0.223694,1.13313980004,8300,2018-04-13 22:11:15,19,0,22.303,4969.1026731189,28.543308,0.223694,1.24124347804,0,0,-0.671082,136.4, 0.1, 3.1,0,0,1024,1024,1025,1024,134.8,-90,91,3.677,3.71,3.73,3.768,0,0,23.912,59,14,Waypoint,
36.6869855,-118.9584862,4970.0869251189,29.52756,0,1.150344525,8400,2018-04-13 22:11:15,19,0,22.303,4970.0869251189,29.52756,0.223694,1.24124347804,0,0,-0.671082,136.3, 0.3, 3.1,0,0,1024,1024,1025,1024,134.8,-89.9,91,3.677,3.71,3.73,3.768,0,0,23.912,59,14,Waypoint,
36.6869856,-118.9584863,4971.0711771189,30.511812,0,1.11716867092,8500,2018-04-13 22:11:15,19,0,22.303,4971.0711771189,30.511812,0.223694,1.24124347804,0,0,-0.671082,136.2, 0.5, 3.3,0,0,1024,1024,1025,1024,134.8,-90,91,3.677,3.71,3.73,3.768,0,0,23.912,59,14,Waypoint,
36.6869858,-118.9584864,4972.0554291189,31.496064,0,1.08314964096,8600,2018-04-13 22:11:15,18,0,22.303,4972.0554291189,31.496064,0.223694,1.24124347804,0,0,-0.671082,136, 0.3, 3.3,0,0,1024,1024,1025,1024,134.8,-90,91,3.677,3.71,3.73,3.768,0,0,23.912,59,14,Waypoint,
36.686986,-118.9584865,4974.0239331189,33.464568,0,1.05390751404,8700,2018-04-13 22:11:16,18,0,22.303,4974.0239331189,33.464568,0.223694,1.24124347804,0,0,-0.671082,135.7, -0.1, 3,0,0,1024,1024,1025,1024,134.9,-90,91,3.677,3.71,3.73,3.768,0,0,23.912,59,14,Waypoint,
36.6869862,-118.9584868,4975.9924371189,35.433072,0,0.97168966364,9010,2018-04-13 22:11:16,18,0,22.894,4975.9924371189,35.433072,0.223694,1.24124347804,0,0,-0.671082,136, -0.3, 1.5,0,0,1024,1024,1024,1024,134.9,-90,91,3.677,3.71,3.73,3.768,0,0,17.855,59,14,Waypoint,
36.6869862,-118.9584868,4976.9766891189,36.417324,0,0.97168966364,9100,2018-04-13 22:11:16,18,0,22.894,4976.9766891189,36.417324,0.223694,1.24124347804,0,0,-0.671082,136.3, -0.1, 1.3,0,0,1024,1024,1025,1024,135,-89.9,91,3.677,3.71,3.73,3.768,0,0,17.855,59,14,Waypoint,
36.6869863,-118.9584867,4977.9609411189,37.401576,0,1.00541013716,9200,2018-04-13 22:11:16,17,0,22.894,4977.9609411189,37.401576,0.223694,1.24124347804,0,0,-0.671082,136.6, 0.1, 1.6,0,0,1024,1024,1025,1024,135,-89.9,91,3.677,3.71,3.73,3.768,0,0,17.855,59,14,Waypoint,
36.6869864,-118.9584867,4978.9451931189,38.385828,0,1.0113517384,9300,2018-04-13 22:11:16,17,0,22.894,4978.9451931189,38.385828,0.223694,1.24124347804,0,0,-0.671082,136.8, 0.4, 2.1,0,0,1024,1024,1025,1024,135,-89.9,91,3.677,3.71,3.73,3.768,0,0,17.855,59,14,Waypoint,
36.6869864,-118.9584867,4979.6013611189,39.041996,0,1.0113517384,9400,2018-04-13 22:11:16,18,0,22.894,4979.6013611189,39.041996,0.223694,1.24124347804,0,0,-0.671082,136.9, 0.7, 2.6,0,0,1024,1024,1025,1024,135,-89.9,91,3.677,3.71,3.73,3.768,0,0,17.855,59,14,Waypoint,
36.6869865,-118.9584867,4980.5856131189,40.026248,0,1.01856302472,9500,2018-04-13 22:11:16,18,0,22.894,4980.5856131189,40.026248,0.223694,1.24124347804,0,0,-0.671082,136.9, 0.9, 3,0,0,1024,1024,1025,1024,135,-89.9,91,3.677,3.71,3.73,3.768,0,0,17.855,59,14,Waypoint,
36.6869865,-118.9584867,4981.5698651189,41.0105,0,1.01856302472,9600,2018-04-13 22:11:16,18,0,22.894,4981.5698651189,41.0105,0.223694,1.24124347804,0,0,-0.671082,136.9, 0.9, 3.2,0,0,1024,1024,1025,1024,135,-89.9,91,3.677,3.71,3.73,3.768,0,0,17.855,59,14,Waypoint,
36.6869865,-118.9584866,4982.5541171189,41.994752,0,1.04715554532,9700,2018-04-13 22:11:17,18,0,22.894,4982.5541171189,41.994752,0.223694,1.24124347804,0,0,-0.671082,136.9, 1, 3.3,0,0,1024,1024,1025,1024,135.1,-89.9,91,3.677,3.71,3.73,3.768,0,0,17.855,59,14,Waypoint,
36.6869865,-118.9584866,4983.8664531189,43.307088,0,1.04715554532,9800,2018-04-13 22:11:17,18,0,22.894,4983.8664531189,43.307088,0.223694,1.24124347804,0,0,-0.671082,136.9, 1, 3,0,0,1024,1024,1025,1024,135.1,-89.9,91,3.677,3.71,3.73,3.768,0,0,17.855,59,14,Waypoint,
36.6869866,-118.9584867,4984.5226211189,43.963256,0,1.02702431108,9900,2018-04-13 22:11:17,18,0,22.894,4984.5226211189,43.963256,0.223694,1.24124347804,0,0,-0.671082,136.8, 1, 2.8,0,0,1024,1024,1025,1024,135.1,-89.9,91,3.677,3.71,3.73,3.768,0,0,17.855,59,14,Waypoint,
36.6869866,-118.9584867,4985.5068731189,44.947508,0,1.02702431108,10000,2018-04-13 22:11:17,19,0,22.894,4985.5068731189,44.947508,0.223694,1.24124347804,0,0,-0.671082,136.7, 0.8, 2.5,0,0,1024,1024,1025,1024,135.1,-89.9,90,3.783,3.809,3.826,3.842,0,0,17.855,59,14,Waypoint,
36.6869866,-118.9584867,4986.4911251189,45.93176,0,1.02702431108,10100,2018-04-13 22:11:17,19,0,22.894,4986.4911251189,45.93176,0.223694,1.24124347804,0,0,-0.671082,136.4, 0.5, 2.6,0,0,1024,1024,1025,1024,135.1,-90,90,3.783,3.809,3.826,3.842,0,0,17.855,59,14,Waypoint,
36.6869866,-118.9584867,4987.4753771189,46.916012,0,1.02702431108,10200,2018-04-13 22:11:17,18,0,22.894,4987.4753771189,46.916012,0.223694,1.24124347804,0,0,-0.671082,136.2, 0.4, 2.4,0,0,1024,1024,1025,1024,135.1,-90,90,3.783,3.809,3.826,3.842,0,0,17.855,59,14,Waypoint,
36.6869866,-118.9584867,4988.4596291189,47.900264,0,1.02702431108,10300,2018-04-13 22:11:17,18,0,22.894,4988.4596291189,47.900264,0.223694,1.24124347804,0,0,-0.671082,136, 0.5, 2.3,0,0,1024,1024,1025,1024,135.1,-89.9,90,3.783,3.809,3.826,3.842,0,0,17.855,59,14,Waypoint,
36.6869865,-118.9584867,4989.4438811189,48.884516,0,1.01856302472,10400,2018-04-13 22:11:17,19,0,22.894,4989.4438811189,48.884516,0.223694,1.24124347804,0,0,-0.671082,136, 0.8, 2.4,0,0,1024,1024,1025,1024,135.2,-89.9,90,3.783,3.809,3.826,3.842,0,0,17.855,59,14,Waypoint,
36.6869865,-118.9584867,4990.4281331189,49.868768,0,1.01856302472,10500,2018-04-13 22:11:17,19,0,22.894,4990.4281331189,49.868768,0.223694,1.24124347804,0,0,-0.671082,136.1, 0.9, 2.5,0,0,1024,1024,1024,1024,135.2,-89.9,90,3.783,3.809,3.826,3.842,0,0,17.855,59,14,Waypoint,
36.6869865,-118.9584866,4991.4123851189,50.85302,0,1.04715554532,10600,2018-04-13 22:11:17,20,0,22.894,4991.4123851189,50.85302,0.223694,1.24124347804,0,0,-0.671082,136.2, 1.1, 3.1,0,0,1024,1024,1025,1024,135.2,-89.9,90,3.783,3.809,3.826,3.842,0,0,17.855,59,14,Waypoint,
36.6869865,-118.9584866,4992.3966371189,51.837272,0,1.04715554532,10700,2018-04-13 22:11:18,20,0,22.894,4992.3966371189,51.837272,0.223694,1.24124347804,0,0,-0.671082,136.3, 1.2, 3.5,0,0,1024,1024,1025,1024,135.2,-89.9,90,3.783,3.809,3.826,3.842,0,0,17.855,59,14,Waypoint,
36.6869865,-118.9584865,4993.3808891189,52.821524,0,1.07578415516,10800,2018-04-13 22:11:18,20,0,22.894,4993.3808891189,52.821524,0.223694,1.24124347804,0,0,-0.671082,136.4, 1.3, 3.6,0,0,1024,1024,1025,1024,135.2,-89.9,90,3.783,3.809,3.826,3.842,0,0,17.855,59,14,Waypoint,
36.6869864,-118.9584865,4994.3651411189,53.805776,0,1.06895672712,10900,2018-04-13 22:11:18,20,0,22.894,4994.3651411189,53.805776,0.223694,1.24124347804,0,0,-0.671082,136.5, 1.4, 3.5,0,0,1024,1024,1025,1024,135.2,-89.9,90,3.783,3.809,3.826,3.842,0,0,17.855,59,14,Waypoint,
36.6869864,-118.9584865,4995.3493931189,54.790028,0,1.06895672712,11000,2018-04-13 22:11:18,20,0,22.837,4995.3493931189,54.790028,0.223694,1.24124347804,0,0,-0.671082,136.5, 1.5, 3.3,0,0,1024,1024,1025,1024,135.2,-89.9,90,3.789,3.8,3.792,3.81,0,0,18.422,59,14,Waypoint,
36.6869863,-118.9584865,4996.3336451189,55.77428,0,1.06333992904,11100,2018-04-13 22:11:18,20,0,22.837,4996.3336451189,55.77428,0.223694,1.24124347804,0,0,-0.671082,136.6, 1.4, 3.1,0,0,1024,1024,1025,1024,135.2,-89.9,90,3.789,3.8,3.792,3.81,0,0,18.422,59,14,Waypoint,
36.6869862,-118.9584865,4997.3178971189,56.758532,0,1.05895016512,11200,2018-04-13 22:11:18,20,0,22.837,4997.3178971189,56.758532,0.223694,1.24124347804,0,0,-0.671082,136.6, 1.3, 2.9,0,0,1024,1024,1025,1024,135.2,-89.9,90,3.789,3.8,3.792,3.81,0,0,18.422,59,14,Waypoint,
36.6869862,-118.9584866,4998.3021491189,57.742784,0,1.02985239516,11300,2018-04-13 22:11:18,20,0,22.837,4998.3021491189,57.742784,0.223694,1.24124347804,0,0,-0.671082,136.7, 1.5, 2.7,0,0,1024,1024,1025,1024,135.2,-89.9,90,3.789,3.8,3.792,3.81,0,0,18.422,59,14,Waypoint,
36.6869861,-118.9584867,4999.2864011189,58.727036,0,0.99743441512,11400,2018-04-13 22:11:18,20,0,22.837,4999.2864011189,58.727036,0.223694,1.24124347804,0,0,-0.671082,136.7, 1.8, 2.4,0,0,1024,1024,1025,1024,135.2,-89.9,90,3.789,3.8,3.792,3.81,0,0,18.422,59,14,Waypoint,
36.686986,-118.9584867,5000.2706531189,59.711288,0,0.99542982188,11500,2018-04-13 22:11:18,20,0,22.837,5000.2706531189,59.711288,0.223694,1.24124347804,0,0,-0.671082,136.5, 1.7, 1.8,0,0,1024,1024,1025,1024,135.2,-89.9,90,3.789,3.8,3.792,3.81,0,0,18.422,59,14,Waypoint,
36.6869859,-118.9584867,5001.2549051189,60.69554,0,0.99476053052,11600,2018-04-13 22:11:18,19,0,22.837,5001.2549051189,60.69554,0.223694,1.24124347804,0,0,-0.671082,136.3, 1.7, 2,0,0,1024,1024,1024,1024,135.2,-89.9,90,3.789,3.8,3.792,3.81,0,0,18.422,59,14,Waypoint,
36.6869858,-118.9584868,5002.2391571189,61.679792,0,0.96619425664,11700,2018-04-13 22:11:19,19,0,22.837,5002.2391571189,61.679792,0.223694,1.24124347804,0,0,-0.671082,136.1, 1.7, 1.8,0,0,1024,1024,1025,1024,135.2,-89.9,90,3.789,3.8,3.792,3.81,0,0,18.422,59,14,Waypoint,
36.6869856,-118.9584868,5004.2076611189,63.648296,0,0.97168966364,11900,2018-04-13 22:11:19,19,0,22.837,5004.2076611189,63.648296,0.223694,1.24124347804,0,0,-0.671082,135.9, 1.8, 2.1,0,0,1024,1024,1025,1024,135.2,-89.9,90,3.789,3.8,3.792,3.81,0,0,18.422,59,14,Waypoint,
36.6869855,-118.9584868,5005.1919131189,64.632548,0,0.97646984752,12000,2018-04-13 22:11:19,19,0,22.591,5005.1919131189,64.632548,0.223694,1.24124347804,0,0,-0.671082,135.9, 1.9, 2.1,0,0,1024,1024,1025,1024,135.2,-89.9,90,3.735,3.763,3.771,3.788,0,0,19.959,59,14,Waypoint,
36.6869854,-118.9584868,5006.1761651189,65.6168,0,0.98258533328,12100,2018-04-13 22:11:19,19,0,22.591,5006.1761651189,65.6168,0.223694,1.24124347804,0,0,-0.671082,135.9, 2.2, 2,0,0,1024,1024,1024,1024,135.3,-89.9,90,3.735,3.763,3.771,3.788,0,0,19.959,59,14,Waypoint,
36.6869853,-118.9584867,5008.1446691189,67.585304,0,1.01856302472,12200,2018-04-13 22:11:19,20,0,22.591,5008.1446691189,67.585304,0.223694,1.24124347804,0,0,-0.671082,136.2, 2.7, 2.3,0,0,1024,1024,1025,1024,135.2,-89.9,90,3.735,3.763,3.771,3.788,0,0,19.959,59,14,Waypoint,
36.6869852,-118.9584867,5008.8008371189,68.241472,0,1.02702431108,12400,2018-04-13 22:11:19,20,0,22.591,5008.8008371189,68.241472,0.223694,1.24124347804,0,0,-0.671082,136.3, 2.8, 2.1,0,0,1024,1024,1025,1024,135.2,-89.9,90,3.735,3.763,3.771,3.788,0,0,19.959,59,14,Waypoint,
36.6869851,-118.9584867,5009.7850891189,69.225724,0,1.03669950824,12500,2018-04-13 22:11:19,20,0,22.591,5009.7850891189,69.225724,0.223694,1.24124347804,0,0,-0.671082,136.5, 2.9, 2.1,0,0,1024,1024,1025,1024,135.2,-89.9,90,3.735,3.763,3.771,3.788,0,0,19.959,59,14,Waypoint,
36.686985,-118.9584866,5010.7693411189,70.209976,0,1.075377331,12600,2018-04-13 22:11:19,20,0,22.591,5010.7693411189,70.209976,0.223694,1.24124347804,0,0,-0.671082,136.9, 2.8, 2,0,0,1024,1024,1025,1024,135.2,-89.9,90,3.735,3.763,3.771,3.788,0,0,19.959,59,14,Waypoint,
36.6869849,-118.9584866,5011.7535931189,71.194228,0,1.0870735256,12700,2018-04-13 22:11:20,20,0,22.591,5011.7535931189,71.194228,0.223694,1.24124347804,0,0,-0.671082,137.1, 2.6, 1.8,0,0,1024,1024,1025,1024,135.2,-89.9,90,3.735,3.763,3.771,3.788,0,0,19.959,59,14,Waypoint,
36.6869849,-118.9584865,5013.0659291189,72.506564,0,1.11467851336,12800,2018-04-13 22:11:20,19,0,22.591,5013.0659291189,72.506564,0.223694,1.24124347804,0,0,-0.671082,137.2, 2.8, 2.3,0,0,1024,1024,1025,1024,135.3,-89.9,90,3.735,3.763,3.771,3.788,0,0,19.959,59,14,Waypoint,
36.6869848,-118.9584865,5014.0501811189,73.490816,0,1.1271489862,12900,2018-04-13 22:11:20,19,0,22.591,5014.0501811189,73.490816,0.223694,1.24124347804,0,0,-0.671082,137, 3, 2.7,0,0,1024,1024,1025,1024,135.2,-89.9,90,3.735,3.763,3.771,3.788,0,0,19.959,59,14,Waypoint,
36.6869848,-118.9584864,5015.0344331189,74.475068,0,1.15453415768,13000,2018-04-13 22:11:20,20,0,22.6,5015.0344331189,74.475068,0.223694,1.24124347804,0,0,-0.671082,136.8, 3, 2.9,0,0,1024,1024,1025,1024,135.2,-89.9,90,3.738,3.76,3.769,3.792,0,0,19.588,59,14,Waypoint,
36.6869848,-118.9584864,5016.0186851189,75.45932,0,1.15453415768,13100,2018-04-13 22:11:20,20,0,22.6,5016.0186851189,75.45932,0.223694,1.24124347804,0,0,-0.671082,136.6, 2.8, 3,0,0,1024,1024,1025,1024,135.2,-89.9,90,3.738,3.76,3.769,3.792,0,0,19.588,59,14,Waypoint,
36.6869848,-118.9584863,5017.0029371189,76.443572,0,1.18201119268,13200,2018-04-13 22:11:20,19,0,22.6,5017.0029371189,76.443572,0.223694,1.24124347804,0,0,-0.671082,136.5, 2.7, 2.9,0,0,1024,1024,1025,1024,135.2,-89.9,90,3.738,3.76,3.769,3.792,0,0,19.588,59,14,Waypoint,
36.6869848,-118.9584863,5017.9871891189,77.427824,0,1.18201119268,13300,2018-04-13 22:11:20,19,0,22.6,5017.9871891189,77.427824,0.223694,1.24124347804,0,0,-0.671082,136.4, 2.5, 2.9,0,0,1024,1024,1025,1024,135.2,-89.9,90,3.738,3.76,3.769,3.792,0,0,19.588,59,14,Waypoint,
36.6869847,-118.9584864,5018.6433571189,78.083992,0,1.16771985364,13400,2018-04-13 22:11:20,19,0,22.6,5018.6433571189,78.083992,0.223694,1.24124347804,0,0,-0.671082,136.4, 2.4, 2.8,0,0,1024,1024,1025,1024,135.2,-89.9,90,3.738,3.76,3.769,3.792,0,0,19.588,59,14,Waypoint,
36.6869847,-118.9584865,5020.6118611189,80.052496,0,1.14064636196,13600,2018-04-13 22:11:20,19,0,22.6,5020.6118611189,80.052496,0.223694,1.24124347804,0,0,-0.671082,136.3, 2.2, 1.8,0,0,1024,1024,1025,1024,135.2,-89.9,90,3.738,3.76,3.769,3.792,0,0,19.588,59,14,Waypoint,
36.6869847,-118.9584866,5022.9084491189,82.349084,0,1.11368769968,13810,2018-04-13 22:11:21,20,0,22.6,5022.9084491189,82.349084,0.223694,1.24124347804,0,0,-0.671082,136, 1.7, 1.5,0,0,1024,1024,1025,1024,135.2,-90,90,3.738,3.76,3.769,3.792,0,0,19.588,59,14,Waypoint,
36.6869847,-118.9584867,5023.8927011189,83.333336,0,1.08684714764,14000,2018-04-13 22:11:21,20,0,22.496,5023.8927011189,83.333336,0.223694,1.24124347804,0,0,-0.671082,135.7, 1.6, 1.7,0,0,1024,1024,1025,1024,135.2,-90,90,3.716,3.764,3.759,3.773,0,0,20.319,59,14,Waypoint,
36.6869847,-118.9584867,5027.1735411189,86.614176,0,1.08684714764,14110,2018-04-13 22:11:21,20,0,22.496,5027.1735411189,86.614176,0.223694,1.24124347804,0,0,-0.671082,135.7, 1.1, 2,0,0,1024,1024,1025,1024,135.2,-90,90,3.716,3.764,3.759,3.773,0,0,20.319,59,14,Waypoint,
36.6869848,-118.9584867,5028.1577931189,87.598428,0,1.072670638,14300,2018-04-13 22:11:21,20,0,22.496,5028.1577931189,87.598428,0.223694,1.24124347804,0,0,-0.671082,135.9, 1.3, 2.2,0,0,1024,1024,1025,1024,135.2,-89.9,90,3.716,3.764,3.759,3.773,0,0,20.319,59,14,Waypoint,
36.6869848,-118.9584867,5029.1420451189,88.58268,0,1.072670638,14400,2018-04-13 22:11:21,20,0,22.496,5029.1420451189,88.58268,0.223694,1.24124347804,0,0,-0.671082,136.2, 1.6, 2.2,0,0,1024,1024,1025,1024,135.2,-89.9,90,3.716,3.764,3.759,3.773,0,0,20.319,59,14,Waypoint,
36.6869848,-118.9584868,5030.1262971189,89.566932,0,1.04559386548,14500,2018-04-13 22:11:21,20,0,22.496,5030.1262971189,89.566932,0.223694,1.24124347804,0,0,-0.671082,136.5, 1.7, 2.4,0,0,1024,1024,1025,1024,135.2,-89.9,90,3.716,3.764,3.759,3.773,0,0,20.319,59,14,Waypoint,
36.6869848,-118.9584868,5031.1105491189,90.551184,0,1.04559386548,14600,2018-04-13 22:11:21,20,0,22.496,5031.1105491189,90.551184,0.223694,1.24124347804,0,0,-0.671082,136.6, 1.6, 2.3,0,0,1024,1024,1025,1024,135.2,-89.9,90,3.716,3.764,3.759,3.773,0,0,20.319,59,14,Waypoint,
36.6869849,-118.9584869,5033.0790531189,92.519688,0,1.0048228668,14730,2018-04-13 22:11:22,20,0,22.496,5033.0790531189,92.519688,0.223694,1.24124347804,0,0,-0.671082,136.5, 1.2, 2.2,0,0,1024,1024,1025,1024,135.2,-89.9,90,3.716,3.764,3.759,3.773,0,0,20.319,59,14,Waypoint,
36.6869849,-118.9584869,5033.0790531189,92.519688,0,1.0048228668,14800,2018-04-13 22:11:22,20,0,22.496,5033.0790531189,92.519688,0.223694,1.24124347804,0,0,-0.671082,136.5, 1.2, 2.2,0,0,1024,1024,1025,1024,135.2,-89.9,90,3.716,3.764,3.759,3.773,0,0,20.319,59,14,Waypoint,
36.6869849,-118.9584869,5034.0633051189,93.50394,0,1.0048228668,14900,2018-04-13 22:11:22,20,0,22.496,5034.0633051189,93.50394,0.223694,1.24124347804,0,0,-0.671082,136.4, 1.3, 2.3,0,0,1024,1024,1025,1024,135.2,-89.9,90,3.716,3.764,3.759,3.773,0,0,20.319,59,14,Waypoint,
36.6869849,-118.958487,5035.0475571189,94.488192,0,0.97762142236,15000,2018-04-13 22:11:22,20,0,22.515,5035.0475571189,94.488192,0.223694,1.24124347804,0,0,-0.671082,136.3, 1.5, 2.1,0,0,1024,1024,1025,1024,135.3,-89.9,90,3.729,3.757,3.776,3.795,0,0,19.607,59,14,Waypoint,
36.6869849,-118.9584871,5036.0318091189,95.472444,0,0.950541369,15100,2018-04-13 22:11:22,20,0,22.515,5036.0318091189,95.472444,0.223694,1.24124347804,0,0,-0.671082,136.3, 1.3, 1.9,0,0,1024,1024,1025,1024,135.3,-90,90,3.729,3.757,3.776,3.795,0,0,19.607,59,14,Waypoint,
36.686985,-118.9584872,5037.0160611189,96.456696,0,0.90979661704,15210,2018-04-13 22:11:22,20,0,22.515,5037.0160611189,96.456696,0.223694,1.24124347804,0,0,-0.671082,136.2, 1, 1.6,0,0,1024,1024,1025,1024,135.3,-90,90,3.729,3.757,3.776,3.795,0,0,19.607,59,14,Waypoint,
36.6869851,-118.9584874,5038.9845651189,98.4252,0,0.84215553876,15400,2018-04-13 22:11:22,20,0,22.515,5038.9845651189,98.4252,0.223694,1.24124347804,0,0,-0.671082,136.2, 0.6, 1.5,0,0,1024,1024,1025,1024,135.3,-90,90,3.729,3.757,3.776,3.795,0,0,19.607,59,14,Waypoint,
36.6869851,-118.9584875,5039.9688171189,99.409452,0,0.81477364812,15500,2018-04-13 22:11:22,20,0,22.515,5039.9688171189,99.409452,0.223694,1.24124347804,0,0,-0.671082,136.2, 0.6, 1.7,0,0,1024,1024,1025,1024,135.3,-90,90,3.729,3.757,3.776,3.795,0,0,19.607,59,14,Waypoint,
36.6869852,-118.9584875,5040.9530691189,100.393704,0,0.8024278472,15600,2018-04-13 22:11:22,20,0,22.515,5040.9530691189,100.393704,0.223694,1.24124347804,0,0,-0.671082,136.1, 0.5, 1.8,0,0,1024,1024,1025,1024,135.3,-90,90,3.729,3.757,3.776,3.795,0,0,19.607,59,14,Waypoint,
36.6869852,-118.9584876,5041.9373211189,101.377956,0,0.77474740012,15700,2018-04-13 22:11:23,20,0,22.515,5041.9373211189,101.377956,0.223694,1.24124347804,0,0,-0.671082,136.1, 0.5, 1.8,0,0,1024,1024,1025,1024,135.3,-90,90,3.729,3.757,3.776,3.795,0,0,19.607,59,14,Waypoint,
36.6869852,-118.9584877,5042.9215731189,102.362208,0,0.74718834412,15800,2018-04-13 22:11:23,20,0,22.515,5042.9215731189,102.362208,0.223694,1.24124347804,0,0,-0.671082,136.2, 0.5, 1.6,0,0,1024,1024,1025,1024,135.3,-90,90,3.729,3.757,3.776,3.795,0,0,19.607,59,14,Waypoint,
36.6869853,-118.9584877,5043.9058251189,103.34646,0,0.7355151154,15900,2018-04-13 22:11:23,20,0,22.515,5043.9058251189,103.34646,0.223694,1.24124347804,0,0,-0.671082,136.2, 0.6, 1.7,0,0,1024,1024,1025,1024,135.3,-90,90,3.729,3.757,3.776,3.795,0,0,19.607,59,14,Waypoint,
36.6869853,-118.9584877,5044.8900771189,104.330712,0,0.7355151154,16000,2018-04-13 22:11:23,20,0,22.625,5044.8900771189,104.330712,0.223694,1.24124347804,0,0,-0.671082,136.1, 0.6, 1.7,0,0,1024,1024,1025,1024,135.3,-90,90,3.741,3.766,3.789,3.8,0,0,18.185,59,14,Waypoint,
36.6869853,-118.9584877,5045.8743291189,105.314964,0,0.7355151154,16100,2018-04-13 22:11:23,20,0,22.625,5045.8743291189,105.314964,0.223694,1.24124347804,0,0,-0.671082,136.1, 0.7, 1.8,0,0,1024,1024,1025,1024,135.3,-90,90,3.741,3.766,3.789,3.8,0,0,18.185,59,14,Waypoint,
36.6869854,-118.9584877,5046.8585811189,106.299216,0,0.72549543004,16200,2018-04-13 22:11:23,20,0,22.625,5046.8585811189,106.299216,0.223694,1.24124347804,0,0,-0.671082,136.1, 0.7, 2.1,0,0,1024,1024,1025,1024,135.3,-89.9,90,3.741,3.766,3.789,3.8,0,0,18.185,59,14,Waypoint,
36.6869854,-118.9584877,5047.8428331189,107.283468,0,0.72549543004,16300,2018-04-13 22:11:23,20,0,22.625,5047.8428331189,107.283468,0.223694,1.24124347804,0,0,-0.671082,136.2, 0.7, 2.2,0,0,1024,1024,1025,1024,135.3,-89.9,90,3.741,3.766,3.789,3.8,0,0,18.185,59,14,Waypoint,
36.6869854,-118.9584878,5048.8270851189,108.26772,0,0.69721458924,16400,2018-04-13 22:11:23,20,0,22.625,5048.8270851189,108.26772,0.223694,1.24124347804,0,0,-0.671082,136.3, 0.8, 2.2,0,0,1024,1024,1025,1024,135.3,-89.9,90,3.741,3.766,3.789,3.8,0,0,18.185,59,14,Waypoint,
36.6869854,-118.9584877,5049.8113371189,109.251972,0,0.72549543004,16500,2018-04-13 22:11:23,20,0,22.625,5049.8113371189,109.251972,0.223694,1.24124347804,0,0,-0.671082,136.4, 1.1, 2.2,0,0,1024,1024,1025,1024,135.3,-89.9,90,3.741,3.766,3.789,3.8,0,0,18.185,59,14,Waypoint,
36.6869854,-118.9584877,5050.7955891189,110.236224,0,0.72549543004,16600,2018-04-13 22:11:23,20,0,22.625,5050.7955891189,110.236224,0.223694,1.24124347804,0,0,-0.671082,136.5, 1.3, 2.4,0,0,1024,1024,1025,1024,135.3,-89.9,90,3.741,3.766,3.789,3.8,0,0,18.185,59,14,Waypoint,
36.6869854,-118.9584877,5051.7798411189,111.220476,0,0.72549543004,16700,2018-04-13 22:11:24,20,0,22.625,5051.7798411189,111.220476,0.223694,1.24124347804,0,0,-0.671082,136.5, 1.4, 2.4,0,0,1024,1024,1025,1024,135.3,-89.9,90,3.741,3.766,3.789,3.8,0,0,18.185,59,14,Waypoint,
36.6869854,-118.9584878,5052.7640931189,112.204728,0,0.69721458924,16810,2018-04-13 22:11:24,20,0,22.625,5052.7640931189,112.204728,0.223694,1.24124347804,0,0,-0.671082,136.3, 1.2, 2.1,0,0,1024,1024,1025,1024,135.3,-89.9,90,3.741,3.766,3.789,3.8,0,0,18.185,59,14,Waypoint,
36.6869854,-118.9584878,5052.7640931189,112.204728,0,0.69721458924,16900,2018-04-13 22:11:24,20,0,22.625,5052.7640931189,112.204728,0.223694,1.24124347804,0,0,-0.671082,136.3, 1.2, 2.1,0,0,1024,1024,1025,1024,135.3,-90,90,3.741,3.766,3.789,3.8,0,0,18.185,59,14,Waypoint,
36.6869854,-118.9584878,5054.7325971189,114.173232,0,0.69721458924,17000,2018-04-13 22:11:24,20,0,22.641,5054.7325971189,114.173232,0.223694,1.24124347804,0,0,-0.671082,135.9, 1, 1.5,0,0,1024,1024,1025,1024,135.3,-90,90,3.744,3.772,3.785,3.808,0,0,17.895,59,14,Waypoint,
36.6869854,-118.9584878,5055.7168491189,115.157484,0,0.69721458924,17100,2018-04-13 22:11:24,20,0,22.641,5055.7168491189,115.157484,0.223694,1.24124347804,0,0,-0.671082,135.7, 0.9, 1.3,0,0,1024,1024,1025,1024,135.3,-89.9,90,3.744,3.772,3.785,3.808,0,0,17.895,59,14,Waypoint,
36.6869853,-118.9584878,5056.7011011189,116.141736,0,0.70763781792,17200,2018-04-13 22:11:24,20,0,22.641,5056.7011011189,116.141736,0.223694,1.24124347804,0,0,-0.671082,135.6, 1.1, 1.3,0,0,1024,1024,1025,1024,135.2,-89.9,90,3.744,3.772,3.785,3.808,0,0,17.895,59,14,Waypoint,
36.6869853,-118.9584879,5057.6853531189,117.125988,0,0.67987534984,17300,2018-04-13 22:11:24,20,0,22.641,5057.6853531189,117.125988,0.223694,1.24124347804,0,0,-0.671082,135.7, 1.1, 1.6,0,0,1024,1024,1024,1024,135.3,-89.9,90,3.744,3.772,3.785,3.808,0,0,17.895,59,14,Waypoint,
36.6869853,-118.9584879,5058.6696051189,118.11024,0,0.67987534984,17400,2018-04-13 22:11:24,20,0,22.641,5058.6696051189,118.11024,0.223694,1.24124347804,0,0,-0.671082,135.9, 1.3, 1.6,0,0,1024,1024,1025,1024,135.3,-89.9,90,3.744,3.772,3.785,3.808,0,0,17.895,59,14,Waypoint,
36.6869853,-118.9584879,5059.6538571189,119.094492,0,0.67987534984,17500,2018-04-13 22:11:24,20,0,22.641,5059.6538571189,119.094492,0.223694,1.24124347804,0,0,-0.671082,136.1, 1.5, 1.7,0,0,1024,1024,1024,1024,135.3,-89.9,90,3.744,3.772,3.785,3.808,0,0,17.895,59,14,Waypoint,
36.6869853,-118.9584879,5060.6381091189,120.078744,0,0.67987534984,17600,2018-04-13 22:11:24,20,0,22.641,5060.6381091189,120.078744,0.223694,1.24124347804,0,0,-0.671082,136.3, 1.6, 1.7,0,0,1024,1024,1025,1024,135.3,-89.9,90,3.744,3.772,3.785,3.808,0,0,17.895,59,14,Waypoint,
36.6869853,-118.9584879,5061.6223611189,121.062996,0,0.67987534984,17700,2018-04-13 22:11:25,20,0,22.641,5061.6223611189,121.062996,0.223694,1.24124347804,0,0,-0.671082,136.4, 1.6, 1.7,0,0,1024,1024,1025,1024,135.3,-89.9,90,3.744,3.772,3.785,3.808,0,0,17.895,59,14,Waypoint,
36.6869853,-118.9584879,5062.6066131189,122.047248,0,0.67987534984,17800,2018-04-13 22:11:25,20,0,22.641,5062.6066131189,122.047248,0.223694,1.24124347804,0,0,-0.671082,136.5, 1.4, 1.6,0,0,1024,1024,1025,1024,135.3,-90,90,3.744,3.772,3.785,3.808,0,0,17.895,59,14,Waypoint,
36.6869853,-118.9584879,5063.5908651189,123.0315,0,0.67987534984,17900,2018-04-13 22:11:25,20,0,22.641,5063.5908651189,123.0315,0.223694,1.24124347804,0,0,-0.671082,136.6, 1, 1.6,0,0,1024,1024,1025,1024,135.3,-90,90,3.744,3.772,3.785,3.808,0,0,17.895,59,14,Waypoint,
36.6869853,-118.9584879,5064.5751171189,124.015752,0,0.67987534984,18000,2018-04-13 22:11:25,20,0,22.647,5064.5751171189,124.015752,0.223694,1.24124347804,0,0,-0.671082,136.7, 0.8, 1.7,0,0,1024,1024,1025,1024,135.3,-90,90,3.75,3.766,3.787,3.802,0,0,17.778,59,14,Waypoint,
36.6869853,-118.9584879,5065.5593691189,125.000004,0,0.67987534984,18100,2018-04-13 22:11:25,20,0,22.647,5065.5593691189,125.000004,0.223694,1.24124347804,0,0,-0.671082,136.7, 0.8, 1.7,0,0,1024,1024,1025,1024,135.3,-90,90,3.75,3.766,3.787,3.802,0,0,17.778,59,14,Waypoint,
36.6869853,-118.9584879,5066.5436211189,125.984256,0,0.67987534984,18200,2018-04-13 22:11:25,20,0,22.647,5066.5436211189,125.984256,0.223694,1.24124347804,0,0,-0.671082,136.6, 0.8, 1.8,0,0,1024,1024,1025,1024,135.3,-90,90,3.75,3.766,3.787,3.802,0,0,17.778,59,14,Waypoint,
36.6869853,-118.9584879,5067.5278731189,126.968508,0,0.67987534984,18300,2018-04-13 22:11:25,20,0,22.647,5067.5278731189,126.968508,0.223694,1.24124347804,0,0,-0.671082,136.5, 0.8, 1.8,0,0,1024,1024,1025,1024,135.3,-90,90,3.75,3.766,3.787,3.802,0,0,17.778,59,14,Waypoint,
36.6869853,-118.9584879,5068.5121251189,127.95276,0,0.67987534984,18400,2018-04-13 22:11:25,20,0,22.647,5068.5121251189,127.95276,0.223694,1.24124347804,0,0,-0.671082,136.4, 0.9, 1.6,0,0,1024,1024,1025,1024,135.3,-89.9,90,3.75,3.766,3.787,3.802,0,0,17.778,59,14,Waypoint,
36.6869853,-118.9584879,5069.4963771189,128.937012,0,0.67987534984,18500,2018-04-13 22:11:25,20,0,22.647,5069.4963771189,128.937012,0.223694,1.24124347804,0,0,-0.671082,136.4, 0.9, 1.5,0,0,1024,1024,1024,1024,135.3,-90,90,3.75,3.766,3.787,3.802,0,0,17.778,59,14,Waypoint,
36.6869853,-118.9584879,5070.4806291189,129.921264,0,0.67987534984,18600,2018-04-13 22:11:25,20,0,22.647,5070.4806291189,129.921264,0.223694,1.24124347804,0,0,-0.671082,136.4, 0.9, 1.4,0,0,1024,1024,1025,1024,135.3,-89.9,90,3.75,3.766,3.787,3.802,0,0,17.778,59,14,Waypoint,
36.6869853,-118.9584879,5072.1210491189,131.561684,0,0.67987534984,18800,2018-04-13 22:11:26,20,0,22.647,5072.1210491189,131.561684,0.223694,1.24124347804,0,0,-0.671082,136.5, 0.8, 1.1,0,0,1024,1024,1025,1024,135.3,-90,90,3.75,3.766,3.787,3.802,0,0,17.778,59,14,Waypoint,
36.6869852,-118.9584879,5073.1053011189,132.545936,0,0.6924868988,18910,2018-04-13 22:11:26,20,0,22.647,5073.1053011189,132.545936,0.223694,1.24124347804,0,0,-0.671082,136.5, 0.8, 1.2,0,0,1024,1024,1025,1024,135.3,-89.9,90,3.75,3.766,3.787,3.802,0,0,17.778,59,14,Waypoint,
36.6869852,-118.9584879,5073.1053011189,132.545936,0,0.6924868988,19000,2018-04-13 22:11:26,20,0,22.671,5073.1053011189,132.545936,0.223694,1.24124347804,0,0,-0.671082,136.5, 0.8, 1.2,0,0,1024,1024,1025,1024,135.3,-89.9,90,3.75,3.777,3.781,3.805,0,0,17.692,59,14,Waypoint,
36.6869852,-118.958488,5075.0738051189,134.51444,0,0.66537731788,19100,2018-04-13 22:11:26,20,0,22.671,5075.0738051189,134.51444,0.223694,1.24124347804,0,0,-0.671082,136.3, 0.9, 1.4,0,0,1024,1024,1025,1024,135.3,-89.9,90,3.75,3.777,3.781,3.805,0,0,17.692,59,14,Waypoint,
36.6869852,-118.958488,5076.0580571189,135.498692,0,0.66537731788,19200,2018-04-13 22:11:26,20,0,22.671,5076.0580571189,135.498692,0.223694,1.24124347804,0,0,-0.671082,136.2, 0.9, 1.3,0,0,1024,1024,1025,1024,135.3,-89.9,90,3.75,3.777,3.781,3.805,0,0,17.692,59,14,Waypoint,
36.6869852,-118.958488,5077.0423091189,136.482944,0,0.66537731788,19300,2018-04-13 22:11:26,20,0,22.671,5077.0423091189,136.482944,0.223694,1.24124347804,0,0,-0.671082,136.2, 0.9, 1.2,0,0,1024,1024,1025,1024,135.3,-90,90,3.75,3.777,3.781,3.805,0,0,17.692,59,14,Waypoint,
36.6869851,-118.958488,5078.0265611189,137.467196,0,0.6802165572,19400,2018-04-13 22:11:26,20,0,22.671,5078.0265611189,137.467196,0.223694,1.24124347804,0,0,-0.671082,136.3, 0.9, 1,0,0,1024,1024,1025,1024,135.3,-89.9,90,3.75,3.777,3.781,3.805,0,0,17.692,59,14,Waypoint,
36.6869851,-118.958488,5079.0108131189,138.451448,0,0.6802165572,19500,2018-04-13 22:11:26,20,0,22.671,5079.0108131189,138.451448,0.223694,1.24124347804,0,0,-0.671082,136.3, 1, 0.9,0,0,1024,1024,1025,1024,135.3,-89.9,90,3.75,3.777,3.781,3.805,0,0,17.692,59,14,Waypoint,
36.6869851,-118.9584881,5079.9950651189,139.4357,0,0.65391078208,19600,2018-04-13 22:11:26,20,0,22.671,5079.9950651189,139.4357,0.223694,1.24124347804,0,0,-0.671082,136.3, 1.2, 0.9,0,0,1024,1024,1025,1024,135.3,-89.9,90,3.75,3.777,3.781,3.805,0,0,17.692,59,14,Waypoint,
36.686985,-118.958488,5080.9793171189,140.419952,0,0.6966535656,19700,2018-04-13 22:11:27,20,0,22.671,5080.9793171189,140.419952,0.223694,1.24124347804,0,0,-0.671082,136.2, 1.3, 1,0,0,1024,1024,1025,1024,135.3,-89.9,90,3.75,3.777,3.781,3.805,0,0,17.692,59,14,Waypoint,
36.686985,-118.958488,5081.9635691189,141.404204,0,0.6966535656,19800,2018-04-13 22:11:27,20,0,22.671,5081.9635691189,141.404204,0.223694,1.24124347804,0,0,-0.671082,136.1, 1.3, 1.1,0,0,1024,1024,1025,1024,135.3,-89.9,90,3.75,3.777,3.781,3.805,0,0,17.692,59,14,Waypoint,
36.686985,-118.958488,5082.9478211189,142.388456,0,0.6966535656,19900,2018-04-13 22:11:27,20,0,22.671,5082.9478211189,142.388456,0.223694,1.24124347804,0,0,-0.671082,136, 1.3, 1.2,0,0,1024,1024,1025,1024,135.3,-89.9,90,3.75,3.777,3.781,3.805,0,0,17.692,59,14,Waypoint,
36.6869851,-118.958488,5083.9320731189,143.372708,0,0.6802165572,20000,2018-04-13 22:11:27,20,0,22.595,5083.9320731189,143.372708,0.223694,1.24124347804,0,0,-0.671082,135.9, 1.2, 1.3,0,0,1024,1024,1024,1024,135.3,-90,90,3.75,3.777,3.781,3.805,0,0,17.721,59,14,Waypoint,
36.686985,-118.958488,5085.9005771189,145.341212,0,0.6966535656,20200,2018-04-13 22:11:27,20,0,22.595,5085.9005771189,145.341212,0.223694,1.24124347804,0,0,-0.671082,135.7, 0.8, 1.5,0,0,1024,1024,1025,1024,135.3,-89.9,90,3.75,3.777,3.781,3.805,0,0,17.721,59,14,Waypoint,
36.686985,-118.958488,5086.8848291189,146.325464,0,0.6966535656,20300,2018-04-13 22:11:27,20,0,22.595,5086.8848291189,146.325464,0.223694,1.24124347804,0,0,-0.671082,135.8, 0.9, 1.5,0,0,1024,1024,1025,1024,135.3,-89.9,90,3.75,3.777,3.781,3.805,0,0,17.721,59,14,Waypoint,
36.686985,-118.958488,5087.8690811189,147.309716,0,0.6966535656,20400,2018-04-13 22:11:27,20,0,22.595,5087.8690811189,147.309716,0.223694,1.24124347804,0,0,-0.671082,135.9, 1.2, 1.5,0,0,1024,1024,1025,1024,135.3,-89.9,90,3.75,3.777,3.781,3.805,0,0,17.721,59,14,Waypoint,
36.686985,-118.958488,5089.1814171189,148.622052,0,0.6966535656,20500,2018-04-13 22:11:27,20,0,22.595,5089.1814171189,148.622052,0.223694,1.24124347804,0,0,-0.671082,136.1, 1.2, 1.5,0,0,1024,1024,1025,1024,135.3,-89.9,90,3.75,3.777,3.781,3.805,0,0,17.721,59,14,Waypoint,
36.686985,-118.9584879,5091.1499211189,150.590556,0,0.7225886058,20610,2018-04-13 22:11:27,20,0,22.595,5091.1499211189,150.590556,0.223694,1.24124347804,0,0,-0.671082,136.2, 1.2, 1.5,0,0,1024,1024,1025,1024,135.3,-89.9,90,3.75,3.777,3.781,3.805,0,0,17.721,59,14,Waypoint,
36.686985,-118.9584879,5091.8060891189,151.246724,0,0.7225886058,20700,2018-04-13 22:11:28,20,0,22.595,5091.8060891189,151.246724,0.223694,1.24124347804,0,0,-0.671082,136.3, 1.3, 1.7,0,0,1024,1024,1025,1024,135.3,-89.9,90,3.75,3.777,3.781,3.805,0,0,17.721,59,14,Waypoint,
36.686985,-118.9584879,5092.7903411189,152.230976,0,0.7225886058,20900,2018-04-13 22:11:28,20,0,22.595,5092.7903411189,152.230976,0.223694,1.24124347804,0,0,-0.671082,136.4, 1.4, 1.7,0,0,1024,1024,1025,1024,135.3,-89.9,90,3.75,3.777,3.781,3.805,0,0,17.721,59,14,Waypoint,
36.6869851,-118.9584879,5094.7588451189,154.19948,0,0.70675527196,21100,2018-04-13 22:11:28,20,0,22.595,5094.7588451189,154.19948,0.223694,1.24124347804,0,0,-0.671082,136.4, 1, 1.8,0,0,1024,1024,1025,1024,135.3,-89.9,90,3.75,3.777,3.781,3.805,0,0,17.721,59,14,Waypoint,
36.6869852,-118.9584879,5096.7273491189,156.167984,0,0.6924868988,21200,2018-04-13 22:11:28,20,0,22.595,5096.7273491189,156.167984,0.223694,1.24124347804,0,0,-0.671082,136.2, 0.8, 2,0,0,1024,1024,1025,1024,135.3,-90,90,3.75,3.777,3.781,3.805,0,0,17.721,59,14,Waypoint,
36.6869852,-118.9584879,5097.7116011189,157.152236,0,0.6924868988,21400,2018-04-13 22:11:28,20,0,22.595,5097.7116011189,157.152236,0.223694,1.24124347804,0,0,-0.671082,136.2, 0.5, 2.2,0,0,1024,1024,1025,1024,135.3,-90,90,3.75,3.777,3.781,3.805,0,0,17.721,59,14,Waypoint,
36.6869852,-118.9584879,5098.6958531189,158.136488,0,0.6924868988,21500,2018-04-13 22:11:28,20,0,22.595,5098.6958531189,158.136488,0.223694,1.24124347804,0,0,-0.671082,136.2, 0.3, 2.2,0,0,1024,1024,1025,1024,135.3,-90,90,3.75,3.777,3.781,3.805,0,0,17.721,59,14,Waypoint,
36.6869853,-118.9584879,5099.6801051189,159.12074,0,0.67987534984,21600,2018-04-13 22:11:28,20,0,22.595,5099.6801051189,159.12074,0.223694,1.24124347804,0,0,-0.671082,136.2, 0.2, 2.1,0,0,1024,1024,1025,1024,135.3,-90,90,3.75,3.777,3.781,3.805,0,0,17.721,59,14,Waypoint,
36.6869853,-118.9584878,5100.6643571189,160.104992,0,0.70763781792,21700,2018-04-13 22:11:29,20,0,22.595,5100.6643571189,160.104992,0.223694,1.24124347804,0,0,-0.671082,136.3, 0.3, 2,0,0,1024,1024,1025,1024,135.3,-90,90,3.75,3.777,3.781,3.805,0,0,17.721,59,14,Waypoint,
36.6869853,-118.9584878,5101.6486091189,161.089244,0,0.70763781792,21800,2018-04-13 22:11:29,20,0,22.595,5101.6486091189,161.089244,0.223694,1.24124347804,0,0,-0.671082,136.4, 0.5, 2.1,0,0,1024,1024,1025,1024,135.3,-89.9,90,3.75,3.777,3.781,3.805,0,0,17.721,59,14,Waypoint,
36.6869854,-118.9584878,5102.6328611189,162.073496,0,0.69721458924,21900,2018-04-13 22:11:29,20,0,22.595,5102.6328611189,162.073496,0.223694,1.24124347804,0,0,-0.671082,136.4, 0.7, 2.3,0,0,1024,1024,1025,1024,135.3,-89.9,90,3.75,3.777,3.781,3.805,0,0,17.721,59,14,Waypoint,
36.6869854,-118.9584878,5103.6171131189,163.057748,0,0.69721458924,22000,2018-04-13 22:11:29,20,0,22.595,5103.6171131189,163.057748,0.223694,1.24124347804,0,0,-0.671082,136.4, 0.7, 2.3,0,0,1024,1024,1025,1024,135.3,-89.9,89,3.733,3.767,3.765,3.799,0,0,17.942,59,14,Waypoint,
36.6869854,-118.9584878,5104.6013651189,164.042,0,0.69721458924,22100,2018-04-13 22:11:29,20,0,22.595,5104.6013651189,164.042,0.223694,1.24124347804,0,0,-0.671082,136.4, 0.8, 2.4,0,0,1024,1024,1025,1024,135.3,-89.9,89,3.733,3.767,3.765,3.799,0,0,17.942,59,14,Waypoint,
36.6869854,-118.9584877,5105.5856171189,165.026252,0,0.72549543004,22200,2018-04-13 22:11:29,20,0,22.595,5105.5856171189,165.026252,0.223694,1.24124347804,0,0,-0.671082,136.4, 0.9, 2.3,0,0,1024,1024,1025,1024,135.3,-89.9,89,3.733,3.767,3.765,3.799,0,0,17.942,59,14,Waypoint,
36.6869854,-118.9584877,5106.5698691189,166.010504,0,0.72549543004,22300,2018-04-13 22:11:29,20,0,22.595,5106.5698691189,166.010504,0.223694,1.24124347804,0,0,-0.671082,136.3, 1.1, 2.1,0,0,1024,1024,1025,1024,135.3,-89.9,89,3.733,3.767,3.765,3.799,0,0,17.942,59,14,Waypoint,
36.6869854,-118.9584877,5107.5541211189,166.994756,0,0.72549543004,22400,2018-04-13 22:11:29,20,0,22.595,5107.5541211189,166.994756,0.223694,1.24124347804,0,0,-0.671082,136.2, 1, 1.9,0,0,1024,1024,1025,1024,135.3,-89.9,89,3.733,3.767,3.765,3.799,0,0,17.942,59,14,Waypoint,
36.6869854,-118.9584878,5108.5383731189,167.979008,0,0.69721458924,22500,2018-04-13 22:11:29,20,0,22.595,5108.5383731189,167.979008,0.223694,1.24124347804,0,0,-0.671082,136.1, 0.8, 1.9,0,0,1024,1024,1025,1024,135.3,-90,89,3.733,3.767,3.765,3.799,0,0,17.942,59,14,Waypoint,
36.6869854,-118.9584878,5109.5226251189,168.96326,0,0.69721458924,22600,2018-04-13 22:11:29,20,0,22.595,5109.5226251189,168.96326,0.223694,1.24124347804,0,0,-0.671082,136.1, 0.5, 1.8,0,0,1024,1024,1025,1024,135.3,-90,89,3.733,3.767,3.765,3.799,0,0,17.942,59,14,Waypoint,
36.6869854,-118.9584878,5110.5068771189,169.947512,0,0.69721458924,22700,2018-04-13 22:11:30,20,0,22.595,5110.5068771189,169.947512,0.223694,1.24124347804,0,0,-0.671082,136.2, 0.4, 1.8,0,0,1024,1024,1025,1024,135.3,-90,89,3.733,3.767,3.765,3.799,0,0,17.942,59,14,Waypoint,
36.6869854,-118.9584878,5111.4911291189,170.931764,0,0.69721458924,22800,2018-04-13 22:11:30,20,0,22.595,5111.4911291189,170.931764,0.223694,1.24124347804,0,0,-0.671082,136.2, 0.5, 1.8,0,0,1024,1024,1025,1024,135.3,-89.9,89,3.733,3.767,3.765,3.799,0,0,17.942,59,14,Waypoint,
36.6869854,-118.9584878,5112.4753811189,171.916016,0,0.69721458924,22900,2018-04-13 22:11:30,20,0,22.595,5112.4753811189,171.916016,0.223694,1.24124347804,0,0,-0.671082,136.3, 0.6, 1.9,0,0,1024,1024,1025,1024,135.3,-89.9,89,3.733,3.767,3.765,3.799,0,0,17.942,59,14,Waypoint,
36.6869854,-118.9584877,5113.4596331189,172.900268,0,0.72549543004,23020,2018-04-13 22:11:30,20,0,22.546,5113.4596331189,172.900268,0.223694,1.24124347804,0,0,-0.671082,136.4, 0.7, 1.8,0,0,1024,1024,1025,1024,135.3,-89.9,89,3.731,3.755,3.765,3.787,0,0,17.869,59,14,Waypoint,
36.6869853,-118.9584877,5115.4281371189,174.868772,0,0.7355151154,23110,2018-04-13 22:11:30,20,0,22.546,5115.4281371189,174.868772,0.223694,1.24124347804,0,0,-0.671082,136.5, 0.9, 1.9,0,0,1024,1024,1025,1024,135.3,-89.9,89,3.731,3.755,3.765,3.787,0,0,17.869,59,14,Waypoint,
36.6869853,-118.9584877,5116.4123891189,175.853024,0,0.7355151154,23200,2018-04-13 22:11:30,20,0,22.546,5116.4123891189,175.853024,0.223694,1.24124347804,0,0,-0.671082,136.6, 1.2, 1.9,0,0,1024,1024,1025,1024,135.3,-89.9,89,3.731,3.755,3.765,3.787,0,0,17.869,59,14,Waypoint,
36.6869852,-118.9584876,5118.3808931189,177.821528,0,0.77474740012,23410,2018-04-13 22:11:30,20,0,22.546,5118.3808931189,177.821528,0.223694,1.24124347804,0,0,-0.671082,136.7, 1.6, 2.3,0,0,1024,1024,1025,1024,135.3,-89.9,89,3.731,3.755,3.765,3.787,0,0,17.869,59,14,Waypoint,
36.6869852,-118.9584876,5121.3336491189,180.774284,0,0.77474740012,23710,2018-04-13 22:11:31,20,0,22.546,5121.3336491189,180.774284,0.223694,1.24124347804,0,0,-0.671082,136.6, 1.5, 2.1,0,0,1024,1024,1025,1024,135.3,-89.9,89,3.731,3.755,3.765,3.787,0,0,17.869,59,14,Waypoint,
36.6869852,-118.9584876,5121.3336491189,180.774284,0,0.77474740012,23800,2018-04-13 22:11:31,20,0,22.546,5121.3336491189,180.774284,0.223694,1.24124347804,0,0,-0.671082,136.6, 1.5, 2.1,0,0,1024,1024,1025,1024,135.3,-89.9,89,3.731,3.755,3.765,3.787,0,0,17.869,59,14,Waypoint,
36.6869853,-118.9584876,5123.3021531189,182.742788,0,0.76349739976,24000,2018-04-13 22:11:31,20,0,22.481,5123.3021531189,182.742788,0.223694,1.24124347804,0,0,-0.671082,136.5, 1, 2.4,0,0,1024,1024,1025,1024,135.3,-90,89,3.71,3.744,3.756,3.781,0,0,18.407,60.8,14,Waypoint,
36.6869853,-118.9584876,5124.2864051189,183.72704,0,0.76349739976,24100,2018-04-13 22:11:31,20,0,22.481,5124.2864051189,183.72704,0.223694,1.24124347804,0,0,-0.671082,136.4, 0.8, 2.8,0,0,1024,1024,1025,1024,135.3,-90,89,3.71,3.744,3.756,3.781,0,0,18.407,60.8,14,Waypoint,
36.6869854,-118.9584876,5125.5987411189,185.039376,0,0.75384844932,24200,2018-04-13 22:11:31,20,0,22.481,5125.5987411189,185.039376,0.223694,1.24124347804,0,0,-0.671082,136.1, 0.3, 2.9,0,0,1024,1024,1025,1024,135.3,-90,89,3.71,3.744,3.756,3.781,0,0,18.407,60.8,14,Waypoint,
36.6869854,-118.9584876,5126.5829931189,186.023628,0,0.75384844932,24300,2018-04-13 22:11:31,20,0,22.481,5126.5829931189,186.023628,0.223694,1.24124347804,0,0,-0.671082,136, 0, 2.9,0,0,1024,1024,1025,1024,135.3,-90,89,3.71,3.744,3.756,3.781,0,0,18.407,60.8,14,Waypoint,
36.6869855,-118.9584876,5127.5672451189,187.00788,0,0.74585960392,24400,2018-04-13 22:11:31,20,0,22.481,5127.5672451189,187.00788,0.223694,1.24124347804,0,0,-0.671082,135.9, 0, 3,0,0,1024,1024,1025,1024,135.3,-90,89,3.71,3.744,3.756,3.781,0,0,18.407,60.8,14,Waypoint,
36.6869855,-118.9584876,5128.5514971189,187.992132,0,0.74585960392,24500,2018-04-13 22:11:31,20,0,22.481,5128.5514971189,187.992132,0.223694,1.24124347804,0,0,-0.671082,136, 0, 3.1,0,0,1024,1024,1025,1024,135.3,-89.9,89,3.71,3.744,3.756,3.781,0,0,18.407,60.8,14,Waypoint,
36.6869855,-118.9584875,5129.5357491189,188.976384,0,0.7745735156,24600,2018-04-13 22:11:31,21,0,22.481,5129.5357491189,188.976384,0.223694,1.24124347804,0,0,-0.671082,136.1, 0.4, 3.3,0,0,1024,1024,1025,1024,135.3,-89.9,89,3.71,3.744,3.756,3.781,0,0,18.407,60.8,14,Waypoint,
36.6869855,-118.9584874,5130.5200011189,189.960636,0,0.80332679736,24700,2018-04-13 22:11:32,21,0,22.481,5130.5200011189,189.960636,0.223694,1.24124347804,0,0,-0.671082,136.3, 0.8, 3.3,0,0,1024,1024,1025,1024,135.3,-89.9,89,3.71,3.744,3.756,3.781,0,0,18.407,60.8,14,Waypoint,
36.6869855,-118.9584874,5131.5042531189,190.944888,0,0.80332679736,24800,2018-04-13 22:11:32,21,0,22.481,5131.5042531189,190.944888,0.223694,1.24124347804,0,0,-0.671082,136.3, 1.2, 3.3,0,0,1024,1024,1025,1024,135.3,-89.9,89,3.71,3.744,3.756,3.781,0,0,18.407,60.8,14,Waypoint,
36.6869856,-118.9584873,5132.4885051189,191.92914,0,0.82649608944,24900,2018-04-13 22:11:32,21,0,22.481,5132.4885051189,191.92914,0.223694,1.24124347804,0,0,-0.671082,136.4, 1.4, 3.3,0,0,1024,1024,1025,1024,135.3,-89.9,89,3.71,3.744,3.756,3.781,0,0,18.407,60.8,14,Waypoint,
36.6869856,-118.9584873,5133.4727571189,192.913392,0,0.82649608944,25000,2018-04-13 22:11:32,20,0,22.428,5133.4727571189,192.913392,0.223694,1.24124347804,0,0,-0.671082,136.4, 1.1, 3.2,0,0,1024,1024,1025,1024,135.3,-89.9,89,3.708,3.759,3.743,3.773,0,0,17.991,60.8,14,Waypoint,
36.6869856,-118.9584873,5134.1289251189,193.56956,0,0.82649608944,25100,2018-04-13 22:11:32,20,0,22.428,5134.1289251189,193.56956,0.223694,1.24124347804,0,0,-0.671082,136.4, 0.8, 3.2,0,0,1024,1024,1025,1024,135.3,-89.9,89,3.708,3.759,3.743,3.773,0,0,17.991,60.8,14,Waypoint,
36.6869856,-118.9584873,5135.1131771189,194.553812,0,0.82649608944,25220,2018-04-13 22:11:32,21,0,22.428,5135.1131771189,194.553812,0.223694,1.24124347804,0,0,-0.671082,136.5, 0.7, 3.2,0,0,1024,1024,1025,1024,135.3,-89.9,89,3.708,3.759,3.743,3.773,0,0,17.991,60.8,14,Waypoint,
36.6869857,-118.9584873,5136.0974291189,195.538064,0,0.8224573754,25300,2018-04-13 22:11:32,21,0,22.428,5136.0974291189,195.538064,0.223694,1.24124347804,0,0,-0.671082,136.6, 0.6, 3.1,0,0,1024,1024,1025,1024,135.3,-90,89,3.708,3.759,3.743,3.773,0,0,17.991,60.8,14,Waypoint,
36.6869857,-118.9584872,5137.7378491189,197.178484,0,0.85160435796,25400,2018-04-13 22:11:32,21,0,22.428,5137.7378491189,197.178484,0.223694,1.24124347804,0,0,-0.671082,136.6, 0.7, 2.9,0,0,1024,1024,1025,1024,135.3,-89.9,89,3.708,3.759,3.743,3.773,0,0,17.991,60.8,14,Waypoint,
36.6869857,-118.9584872,5138.7221011189,198.162736,0,0.85160435796,25500,2018-04-13 22:11:32,21,0,22.428,5138.7221011189,198.162736,0.223694,1.24124347804,0,0,-0.671082,136.5, 0.7, 2.9,0,0,1024,1024,1025,1024,135.3,-89.9,89,3.708,3.759,3.743,3.773,0,0,17.991,60.8,14,Waypoint,
36.6869857,-118.9584873,5139.7063531189,199.146988,0,0.8224573754,25600,2018-04-13 22:11:32,21,0,22.428,5139.7063531189,199.146988,0.223694,1.24124347804,0,0,-0.671082,136.3, 0.8, 3,0,0,1024,1024,1025,1024,135.3,-89.9,89,3.708,3.759,3.743,3.773,0,0,17.991,60.8,14,Waypoint,
36.6869857,-118.9584873,5140.6906051189,200.13124,0,0.8224573754,25700,2018-04-13 22:11:33,21,0,22.428,5140.6906051189,200.13124,0.223694,1.24124347804,0,0,-0.671082,136.1, 0.9, 2.9,0,0,1024,1024,1025,1024,135.3,-89.9,89,3.708,3.759,3.743,3.773,0,0,17.991,60.8,14,Waypoint,
36.6869857,-118.9584874,5141.6748571189,201.115492,0,0.79332023536,25900,2018-04-13 22:11:33,21,0,22.428,5141.6748571189,201.115492,0.223694,1.24124347804,0,0,-0.671082,135.8, 0.9, 2.6,0,0,1024,1024,1025,1024,135.3,-89.9,89,3.708,3.759,3.743,3.773,0,0,17.991,60.8,14,Waypoint,
36.6869857,-118.9584874,5142.6591091189,202.099744,0,0.79332023536,26000,2018-04-13 22:11:33,21,0,22.542,5142.6591091189,202.099744,0.223694,1.24124347804,0,0,-0.671082,135.5, 0.8, 2.2,0,0,1024,1024,1025,1024,135.3,-90,89,3.724,3.741,3.756,3.781,0,0,17.317,60.8,14,Waypoint,
36.6869857,-118.9584875,5143.6433611189,203.083996,0,0.76419293784,26100,2018-04-13 22:11:33,21,0,22.542,5143.6433611189,203.083996,0.223694,1.24124347804,0,0,-0.671082,135.3, 0.6, 2,0,0,1024,1024,1025,1024,135.3,-90,89,3.724,3.741,3.756,3.781,0,0,17.317,60.8,14,Waypoint,
36.6869857,-118.9584876,5144.6276131189,204.068248,0,0.735072202,26200,2018-04-13 22:11:33,21,0,22.542,5144.6276131189,204.068248,0.223694,1.24124347804,0,0,-0.671082,135.3, 0.3, 2.1,0,0,1024,1024,1025,1024,135.3,-90,89,3.724,3.741,3.756,3.781,0,0,17.317,60.8,14,Waypoint,
36.6869857,-118.9584876,5145.6118651189,205.0525,0,0.735072202,26300,2018-04-13 22:11:33,21,0,22.542,5145.6118651189,205.0525,0.223694,1.24124347804,0,0,-0.671082,135.3, 0, 2.1,0,0,1024,1024,1025,1024,135.3,-90,89,3.724,3.741,3.756,3.781,0,0,17.317,60.8,14,Waypoint,
36.6869857,-118.9584877,5146.5961171189,206.036752,0,0.70596458952,26400,2018-04-13 22:11:33,21,0,22.542,5146.5961171189,206.036752,0.223694,1.24124347804,0,0,-0.671082,135.5, 0, 2.2,0,0,1024,1024,1025,1024,135.3,-90,89,3.724,3.741,3.756,3.781,0,0,17.317,60.8,14,Waypoint,
36.6869857,-118.9584878,5147.5803691189,207.021004,0,0.6768701004,26500,2018-04-13 22:11:33,21,0,22.542,5147.5803691189,207.021004,0.223694,1.24124347804,0,0,-0.671082,135.8, 0, 2.2,0,0,1024,1024,1025,1024,135.3,-90,89,3.724,3.741,3.756,3.781,0,0,17.317,60.8,14,Waypoint,
36.6869857,-118.9584878,5148.5646211189,208.005256,0,0.6768701004,26600,2018-04-13 22:11:33,21,0,22.542,5148.5646211189,208.005256,0.223694,1.24124347804,0,0,-0.671082,136.1, 0, 2.6,0,0,1024,1024,1025,1024,135.3,-90,89,3.724,3.741,3.756,3.781,0,0,17.317,60.8,14,Waypoint,
36.6869857,-118.9584879,5149.5488731189,208.989508,0,0.64779201548,26700,2018-04-13 22:11:34,21,0,22.542,5149.5488731189,208.989508,0.223694,1.24124347804,0,0,-0.671082,136.3, 0, 2.7,0,0,1024,1024,1025,1024,135.3,-90,89,3.724,3.741,3.756,3.781,0,0,17.317,60.8,14,Waypoint,
36.6869857,-118.9584879,5150.5331251189,209.97376,0,0.64779201548,26800,2018-04-13 22:11:34,21,0,22.542,5150.5331251189,209.97376,0.223694,1.24124347804,0,0,-0.671082,136.4, 0, 2.1,0,0,1024,1024,1025,1024,135.3,-90,89,3.724,3.741,3.756,3.781,0,0,17.317,60.8,14,Waypoint,
36.6869857,-118.9584879,5151.8454611189,211.286096,0,0.64779201548,26900,2018-04-13 22:11:34,21,0,22.542,5151.8454611189,211.286096,0.223694,1.24124347804,0,0,-0.671082,136.6, -0.2, 2.1,0,0,1024,1024,1025,1024,135.3,-89.9,89,3.724,3.741,3.756,3.781,0,0,17.317,60.8,14,Waypoint,
36.6869857,-118.9584878,5152.8297131189,212.270348,0,0.6768701004,27000,2018-04-13 22:11:34,21,0,22.426,5152.8297131189,212.270348,0.223694,1.24124347804,0,0,-0.671082,136.7, 0, 2.4,0,0,1024,1024,1025,1024,135.3,-89.9,89,3.704,3.736,3.749,3.772,0,0,18.629,60.8,14,Waypoint,
36.6869857,-118.9584878,5153.8139651189,213.2546,0,0.6768701004,27100,2018-04-13 22:11:34,21,0,22.426,5153.8139651189,213.2546,0.223694,1.24124347804,0,0,-0.671082,136.7, 0.4, 3,0,0,1024,1024,1025,1024,135.3,-89.9,89,3.704,3.736,3.749,3.772,0,0,18.629,60.8,14,Waypoint,
36.6869857,-118.9584877,5154.7982171189,214.238852,0,0.70596458952,27200,2018-04-13 22:11:34,20,0,22.426,5154.7982171189,214.238852,0.223694,1.24124347804,0,0,-0.671082,136.7, 0.8, 3.1,0,0,1024,1024,1025,1024,135.3,-89.9,89,3.704,3.736,3.749,3.772,0,0,18.629,60.8,14,Waypoint,
36.6869857,-118.9584876,5156.1105531189,215.551188,0,0.735072202,27300,2018-04-13 22:11:34,20,0,22.426,5156.1105531189,215.551188,0.223694,1.24124347804,0,0,-0.671082,136.6, 1.2, 3.4,0,0,1024,1024,1025,1024,135.3,-89.9,89,3.704,3.736,3.749,3.772,0,0,18.629,60.8,14,Waypoint,
