latitude,longitude,altitude(feet),ascent(feet),speed(mph),distance(feet),time(millisecond),datetime(utc),satellites,gpslevel,voltage(v),max_altitude(feet),max_ascent(feet),max_speed(mph),max_distance(feet), xSpeed(mph), ySpeed(mph), zSpeed(mph), compass_heading(degrees), pitch(degrees), roll(degrees),isPhoto,isVideo,rc_elevator,rc_aileron,rc_throttle,rc_rudder,gimbal_heading(degrees),gimbal_pitch(degrees),battery_percent,voltageCell1,voltageCell2,voltageCell3,voltageCell4,voltageCell5,voltageCell6,current(A),battery_temperature(f),flycStateRaw,flycState,message
36.6869634,-118.9584903,4940.0443309817,0,0,0,3000,2018-04-13 22:30:11,15,0,25.324,4940.0443309817,0,0,0,0,0,0,138.9, -1.3, -0.5,1,0,1024,1024,1026,1024,137.8,-90,98,4.208,4.207,4.197,4.261,0,0,3.895,55.4,11,AutoTakeoff,DJI_0081.jpg Starting Mission from Lat/Long: 36.68696/-118.95849 Camera: Zenmuse X3 - Overlap: 90/90 - Active Connection: Yes
36.6869634,-118.9584902,4940.0443309817,0,0.223694,0.02925771091,3100,2018-04-13 22:30:11,15,0,25.324,4940.0443309817,0,0.223694,0.02925771091,0,0,0,139.1, -1.3, -1,0,0,1024,1024,1026,1024,137.8,-89.9,98,4.208,4.207,4.197,4.261,0,0,3.895,55.4,11,AutoTakeoff,
36.6869633,-118.9584897,4940.3724149817,0.328084,0.447388,0.179297577916,3200,2018-04-13 22:30:11,15,0,25.324,4940.3724149817,0.328084,0.447388,0.179297577916,0,0,0,139.4, -0.1, -0.3,0,0,1024,1024,1027,1024,137.8,-89.9,98,4.208,4.207,4.197,4.261,0,0,3.895,55.4,11,AutoTakeoff,
36.6869633,-118.9584895,4940.3724149817,0.328084,0.447388,0.23688813094,3400,2018-04-13 22:30:11,15,0,25.324,4940.3724149817,0.328084,0.447388,0.23688813094,0,0,0,139.5, 0.6, 0,0,0,1024,1024,1026,1024,137.8,-89.9,98,4.208,4.207,4.197,4.261,0,0,3.895,55.4,11,AutoTakeoff,
36.6869633,-118.9584889,4940.7004989817,0.656168,0.447388,0.41123032812,3500,2018-04-13 22:30:12,15,0,25.324,4940.7004989817,0.656168,0.447388,0.41123032812,0,0,0,139.3, 1.7, 1.1,0,0,1024,1024,1027,1024,137.8,-89.9,98,4.208,4.207,4.197,4.261,0,0,3.895,55.4,11,AutoTakeoff,
36.6869632,-118.9584886,4940.7004989817,0.656168,0.447388,0.50270342816,3600,2018-04-13 22:30:12,15,0,25.324,4940.7004989817,0.656168,0.447388,0.50270342816,0,0,0,139.2, 2.1, 1.8,0,0,1024,1024,1026,1024,137.8,-89.9,98,4.208,4.207,4.197,4.261,0,0,3.895,55.4,11,AutoTakeoff,
36.6869632,-118.9584882,4941.0285829817,0.984252,0.447388,0.61873033476,3700,2018-04-13 22:30:12,15,0,25.324,4941.0285829817,0.984252,0.447388,0.61873033476,0,0,0,139, 2.2, 2.2,0,0,1024,1024,1026,1024,137.8,-89.9,98,4.208,4.207,4.197,4.261,0,0,3.895,55.4,11,AutoTakeoff,
36.6869632,-118.9584879,4941.0285829817,0.984252,0.447388,0.70596458952,3800,2018-04-13 22:30:12,15,0,25.324,4941.0285829817,0.984252,0.447388,0.70596458952,0,0,0,138.9, 2.1, 2.3,0,0,1024,1024,1026,1024,137.8,-89.9,98,4.208,4.207,4.197,4.261,0,0,3.895,55.4,11,AutoTakeoff,
36.6869632,-118.9584878,4941.3566669817,1.312336,0.223694,0.735072202,3900,2018-04-13 22:30:12,15,0,25.324,4941.3566669817,1.312336,0.447388,0.735072202,0,0,0,138.8, 1.9, 2,0,0,1024,1024,1026,1024,137.8,-89.9,98,4.208,4.207,4.197,4.261,0,0,3.895,55.4,11,AutoTakeoff,
36.6869631,-118.9584876,4941.3566669817,1.312336,0.223694,0.79750330636,4000,2018-04-13 22:30:12,14,0,25.122,4941.3566669817,1.312336,0.447388,0.79750330636,0,0,0,138.7, 1.7, 1.6,0,0,1024,1024,1026,1024,137.8,-89.9,98,4.149,4.147,4.115,4.143,0,0,5.898,55.4,11,AutoTakeoff,
36.6869631,-118.9584874,4941.6847509817,1.64042,0.223694,0.85550527672,4100,2018-04-13 22:30:12,14,0,25.122,4941.6847509817,1.64042,0.447388,0.85550527672,0,0,-0.223694,138.7, 1.7, 1.4,0,0,1024,1024,1027,1024,137.8,-89.9,98,4.149,4.147,4.115,4.143,0,0,5.898,55.4,11,AutoTakeoff,
36.6869631,-118.9584872,4941.6847509817,1.64042,0.223694,0.91356958304,4200,2018-04-13 22:30:12,14,0,25.122,4941.6847509817,1.64042,0.447388,0.91356958304,0,0,-0.223694,138.6, 1.4, 1.1,0,0,1024,1024,1027,1024,137.8,-89.9,98,4.149,4.147,4.115,4.143,0,0,5.898,55.4,11,AutoTakeoff,
36.6869631,-118.9584868,4942.0128349817,1.968504,0.223694,1.02985239516,4400,2018-04-13 22:30:12,14,0,25.122,4942.0128349817,1.968504,0.447388,1.02985239516,0,0,-0.223694,138.7, 1.3, 1.1,0,0,1024,1024,1027,1024,137.8,-89.9,98,4.149,4.147,4.115,4.143,0,0,5.898,55.4,11,AutoTakeoff,
36.6869631,-118.9584866,4942.3409189817,2.296588,0.223694,1.08805449676,4500,2018-04-13 22:30:13,14,0,25.122,4942.3409189817,2.296588,0.447388,1.08805449676,0,0,-0.223694,138.7, 1.3, 1.3,0,0,1024,1024,1027,1024,137.8,-89.9,98,4.149,4.147,4.115,4.143,0,0,5.898,55.4,11,AutoTakeoff,
36.686963,-118.9584864,4942.6690029817,2.624672,0.223694,1.150344525,4600,2018-04-13 22:30:13,14,0,25.122,4942.6690029817,2.624672,0.447388,1.150344525,0,0,-0.223694,138.8, 1.5, 1.5,0,0,1024,1024,1026,1024,137.8,-89.9,98,4.149,4.147,4.115,4.143,0,0,5.898,55.4,11,AutoTakeoff,
36.686963,-118.9584861,4942.6690029817,2.624672,0.223694,1.23746066952,4800,2018-04-13 22:30:13,14,0,25.122,4942.6690029817,2.624672,0.447388,1.23746066952,0,0,0,138.8, 1.7, 1.5,0,0,1024,1024,1026,1024,137.8,-89.9,98,4.149,4.147,4.115,4.143,0,0,5.898,55.4,11,AutoTakeoff,
36.686963,-118.9584859,4942.9970869817,2.952756,0.223694,1.29558403096,4900,2018-04-13 22:30:13,14,0,25.122,4942.9970869817,2.952756,0.447388,1.29558403096,0,0,-0.223694,138.9, 2, 1.8,0,0,1024,1024,1026,1024,137.8,-89.9,98,4.149,4.147,4.115,4.143,0,0,5.898,55.4,6,P-GPS,
36.6869631,-118.9584857,4942.9970869817,2.952756,0.223694,1.35029859964,5000,2018-04-13 22:30:13,14,0,23.938,4942.9970869817,2.952756,0.447388,1.35029859964,0,0,0,138.9, 2.3, 2.2,0,0,1024,1024,1026,1024,137.8,-89.9,98,3.96,3.972,3.975,3.996,0,0,15.426,55.4,14,Waypoint,
36.6869632,-118.9584855,4943.3251709817,3.28084,0.223694,1.40626316836,5100,2018-04-13 22:30:13,14,0,23.938,4943.3251709817,3.28084,0.447388,1.40626316836,0,0,0,138.9, 2.2, 2.1,0,0,1024,1024,1026,1024,137.8,-89.9,98,3.96,3.972,3.975,3.996,0,0,15.426,55.4,14,Waypoint,
36.6869633,-118.9584852,4943.3251709817,3.28084,0.223694,1.49258863044,5200,2018-04-13 22:30:13,14,0,23.938,4943.3251709817,3.28084,0.447388,1.49258863044,0,0,0,139, 1.9, 1.9,0,0,1024,1024,1026,1024,137.8,-90,98,3.96,3.972,3.975,3.996,0,0,15.426,55.4,14,Waypoint,
36.6869634,-118.958485,4943.6532549817,3.608924,0.223694,1.55065949844,5300,2018-04-13 22:30:13,14,0,23.938,4943.6532549817,3.608924,0.447388,1.55065949844,0,0,0,139.1, 1.6, 1.9,0,0,1024,1024,1026,1024,137.8,-90,98,3.96,3.972,3.975,3.996,0,0,15.426,55.4,14,Waypoint,
36.6869634,-118.9584849,4943.6532549817,3.608924,0,1.57991474872,5400,2018-04-13 22:30:13,14,0,23.938,4943.6532549817,3.608924,0.447388,1.57991474872,0,0,0,139.1, 1.4, 2,0,0,1024,1024,1026,1024,137.8,-90,98,3.96,3.972,3.975,3.996,0,0,15.426,55.4,14,Waypoint,
36.6869634,-118.9584848,4943.6532549817,3.608924,0,1.60917327984,5500,2018-04-13 22:30:14,14,0,23.938,4943.6532549817,3.608924,0.447388,1.60917327984,0,0,-0.223694,139, 1.4, 2,0,0,1024,1024,1027,1024,137.8,-89.9,98,3.96,3.972,3.975,3.996,0,0,15.426,55.4,14,Waypoint,
36.6869635,-118.9584846,4943.9813389817,3.937008,0,1.66808732372,5600,2018-04-13 22:30:14,14,0,23.938,4943.9813389817,3.937008,0.447388,1.66808732372,0,0,-0.223694,138.9, 1.5, 2,0,0,1024,1024,1026,1024,137.8,-89.9,98,3.96,3.972,3.975,3.996,0,0,15.426,55.4,14,Waypoint,
36.6869635,-118.9584845,4944.3094229817,4.265092,0,1.69733929316,5700,2018-04-13 22:30:14,14,0,23.938,4944.3094229817,4.265092,0.447388,1.69733929316,0,0,-0.223694,138.8, 1.5, 2,0,0,1024,1024,1026,1024,137.8,-89.9,98,3.96,3.972,3.975,3.996,0,0,15.426,55.4,14,Waypoint,
36.6869634,-118.9584843,4944.9655909817,4.92126,0,1.7554626546,5800,2018-04-13 22:30:14,13,0,23.938,4944.9655909817,4.92126,0.447388,1.7554626546,0,0,-0.223694,138.2, 1.4, 2.1,0,0,1024,1024,1026,1024,137.8,-90,98,3.96,3.972,3.975,3.996,0,0,15.426,55.4,14,Waypoint,
36.6869631,-118.9584843,4945.6217589817,5.577428,0,1.75887144736,5900,2018-04-13 22:30:14,13,0,23.938,4945.6217589817,5.577428,0.447388,1.75887144736,0,0,-0.223694,137.8, 1.6, 1.8,0,0,1024,1024,1026,1024,137.8,-89.9,98,3.96,3.972,3.975,3.996,0,0,15.426,55.4,14,Waypoint,
36.6869629,-118.9584843,4945.9498429817,5.905512,0.223694,1.76491475464,6000,2018-04-13 22:30:14,14,0,23.699,4945.9498429817,5.905512,0.447388,1.76491475464,0,0,-0.447388,137.6, 1.8, 1.2,0,0,1024,1024,1026,1024,137.8,-89.9,98,3.935,3.953,3.947,3.955,0,0,15.887,55.4,14,Waypoint,
36.6869629,-118.9584842,4946.6060109817,6.56168,0,1.79401908628,6100,2018-04-13 22:30:14,14,0,23.699,4946.6060109817,6.56168,0.447388,1.79401908628,0,0,-0.447388,137.6, 2.1, 0.6,0,0,1024,1024,1026,1024,137.8,-89.9,98,3.935,3.953,3.947,3.955,0,0,15.887,55.4,14,Waypoint,
36.6869629,-118.9584841,4947.2621789817,7.217848,0,1.82312669876,6200,2018-04-13 22:30:14,13,0,23.699,4947.2621789817,7.217848,0.447388,1.82312669876,0,0,-0.447388,137.7, 2, 0.4,0,0,1024,1024,1026,1024,137.8,-89.9,98,3.935,3.953,3.947,3.955,0,0,15.887,55.4,14,Waypoint,
36.6869628,-118.958484,4947.9183469817,7.874016,0,1.85618772344,6300,2018-04-13 22:30:14,13,0,23.699,4947.9183469817,7.874016,0.447388,1.85618772344,0,0,-0.447388,137.9, 1.9, 0.5,0,0,1024,1024,1026,1024,137.8,-89.9,98,3.935,3.953,3.947,3.955,0,0,15.887,55.4,14,Waypoint,
36.6869629,-118.9584838,4948.5745149817,8.530184,0,1.91047906376,6410,2018-04-13 22:30:14,14,0,23.699,4948.5745149817,8.530184,0.447388,1.91047906376,0,0,-0.671082,138.2, 2, 0.7,0,0,1024,1024,1026,1024,137.8,-89.9,98,3.935,3.953,3.947,3.955,0,0,15.887,55.4,14,Waypoint,
36.6869629,-118.9584836,4949.5587669817,9.514436,0,1.96873693964,6500,2018-04-13 22:30:15,14,0,23.699,4949.5587669817,9.514436,0.447388,1.96873693964,0,0,-0.671082,138.4, 2.2, 1,0,0,1024,1024,1026,1024,137.8,-89.9,98,3.935,3.953,3.947,3.955,0,0,15.887,55.4,14,Waypoint,
36.686963,-118.9584834,4950.5430189817,10.498688,0,2.0240486212,6600,2018-04-13 22:30:15,15,0,23.699,4950.5430189817,10.498688,0.447388,2.0240486212,0,0,-0.671082,138.6, 2.4, 1.6,0,0,1024,1024,1026,1024,137.8,-89.9,98,3.935,3.953,3.947,3.955,0,0,15.887,55.4,14,Waypoint,
36.6869631,-118.9584832,4951.8553549817,11.811024,0,2.08017723192,6700,2018-04-13 22:30:15,15,0,23.699,4951.8553549817,11.811024,0.447388,2.08017723192,0,0,-0.671082,138.6, 2.3, 1.9,0,0,1024,1024,1027,1024,137.8,-89.9,98,3.935,3.953,3.947,3.955,0,0,15.887,55.4,14,Waypoint,
36.6869632,-118.9584831,4952.8396069817,12.795276,0,2.10781830892,6800,2018-04-13 22:30:15,15,0,23.699,4952.8396069817,12.795276,0.447388,2.10781830892,0,0,-0.671082,138.5, 2.4, 2.2,0,0,1024,1024,1026,1024,137.8,-89.9,98,3.935,3.953,3.947,3.955,0,0,15.887,55.4,14,Waypoint,
36.6869633,-118.9584829,4954.1519429817,14.107612,0,2.16537736588,6900,2018-04-13 22:30:15,15,0,23.699,4954.1519429817,14.107612,0.447388,2.16537736588,0,0,-0.671082,138.4, 2.3, 2.4,0,0,1024,1024,1026,1024,137.8,-90,98,3.935,3.953,3.947,3.955,0,0,15.887,55.4,14,Waypoint,
36.6869635,-118.9584827,4955.1361949817,15.091864,0,2.2238845856,7100,2018-04-13 22:30:15,15,0,23.699,4955.1361949817,15.091864,0.447388,2.2238845856,0,0,-0.671082,138.2, 1.7, 2.5,0,0,1024,1024,1026,1024,137.8,-90,98,3.935,3.953,3.947,3.955,0,0,15.887,55.4,14,Waypoint,
36.6869637,-118.9584826,4956.4485309817,16.4042,0,2.25549875984,7200,2018-04-13 22:30:15,15,0,23.699,4956.4485309817,16.4042,0.447388,2.25549875984,0,0,-0.671082,138.2, 1.2, 2.3,0,0,1024,1024,1026,1024,137.8,-89.9,98,3.935,3.953,3.947,3.955,0,0,15.887,55.4,14,Waypoint,
36.6869638,-118.9584824,4957.4327829817,17.388452,0,2.3159613602,7300,2018-04-13 22:30:15,15,0,23.699,4957.4327829817,17.388452,0.447388,2.3159613602,0,0,-0.671082,138.3, 1, 2.6,0,0,1024,1024,1026,1024,137.8,-89.9,98,3.935,3.953,3.947,3.955,0,0,15.887,55.4,14,Waypoint,
36.6869638,-118.9584824,4958.4170349817,18.372704,0,2.3159613602,7400,2018-04-13 22:30:15,15,0,23.699,4958.4170349817,18.372704,0.447388,2.3159613602,0,0,-0.671082,138.5, 1, 3,0,0,1024,1024,1026,1024,137.8,-89.9,98,3.935,3.953,3.947,3.955,0,0,15.887,55.4,14,Waypoint,
36.6869637,-118.9584825,4959.7293709817,19.68504,0,2.28472448256,7500,2018-04-13 22:30:16,15,0,23.699,4959.7293709817,19.68504,0.447388,2.3159613602,0,0,-0.671082,138.5, 1.1, 2.6,0,0,1024,1024,1026,1024,137.8,-90,98,3.935,3.953,3.947,3.955,0,0,15.887,55.4,14,Waypoint,
36.6869637,-118.9584826,4960.7136229817,20.669292,0.223694,2.25549875984,7600,2018-04-13 22:30:16,15,0,23.699,4960.7136229817,20.669292,0.447388,2.3159613602,0,0,-0.671082,138.5, 1.4, 2.1,0,0,1024,1024,1026,1024,137.8,-89.9,98,3.935,3.953,3.947,3.955,0,0,15.887,55.4,14,Waypoint,
36.6869636,-118.9584827,4961.6978749817,21.653544,0.223694,2.22478353576,7700,2018-04-13 22:30:16,15,0,23.699,4961.6978749817,21.653544,0.447388,2.3159613602,0,0,-0.671082,138.3, 1.9, 1.6,0,0,1024,1024,1026,1024,137.8,-89.9,98,3.935,3.953,3.947,3.955,0,0,15.887,55.4,14,Waypoint,
36.6869635,-118.9584828,4963.0102109817,22.96588,0.223694,2.19462933532,7800,2018-04-13 22:30:16,15,0,23.699,4963.0102109817,22.96588,0.447388,2.3159613602,0,0,-0.671082,138.1, 2.2, 1.2,0,0,1024,1024,1026,1024,137.8,-89.9,98,3.935,3.953,3.947,3.955,0,0,15.887,55.4,14,Waypoint,
36.6869635,-118.9584829,4963.9944629817,23.950132,0.223694,2.16537736588,7900,2018-04-13 22:30:16,15,0,23.699,4963.9944629817,23.950132,0.447388,2.3159613602,0,0,-0.671082,137.9, 2.3, 0.7,0,0,1024,1024,1026,1024,137.8,-89.9,98,3.935,3.953,3.947,3.955,0,0,15.887,55.4,14,Waypoint,
36.6869634,-118.958483,4965.3067989817,25.262468,0.223694,2.1358104358,8000,2018-04-13 22:30:16,15,0,22.832,4965.3067989817,25.262468,0.447388,2.3159613602,0,0,-0.671082,137.7, 1.8, 0.3,0,0,1024,1024,1026,1024,137.8,-90,98,3.782,3.816,3.797,3.811,0,0,23.225,55.4,14,Waypoint,
36.6869634,-118.9584831,4966.2910509817,26.24672,0.223694,2.10655518552,8100,2018-04-13 22:30:16,15,0,22.832,4966.2910509817,26.24672,0.447388,2.3159613602,0,0,-0.671082,137.5, 1.4, 0.2,0,0,1024,1024,1026,1024,137.8,-90,98,3.782,3.816,3.797,3.811,0,0,23.225,55.4,14,Waypoint,
36.6869634,-118.9584832,4967.2753029817,27.230972,0.223694,2.0772966544,8200,2018-04-13 22:30:16,15,0,22.832,4967.2753029817,27.230972,0.447388,2.3159613602,0,0,-0.671082,137.4, 1.4, 0.5,0,0,1024,1024,1026,1024,137.8,-89.9,98,3.782,3.816,3.797,3.811,0,0,23.225,55.4,14,Waypoint,
36.6869634,-118.9584834,4968.2595549817,28.215224,0.223694,2.01877959216,8300,2018-04-13 22:30:16,15,0,22.832,4968.2595549817,28.215224,0.447388,2.3159613602,0,0,-0.671082,137.4, 1.7, 0.8,0,0,1024,1024,1026,1024,137.8,-89.9,98,3.782,3.816,3.797,3.811,0,0,23.225,55.4,14,Waypoint,
36.6869634,-118.9584838,4970.5561429817,30.511812,0.223694,1.90175202936,8400,2018-04-13 22:30:16,15,0,22.832,4970.5561429817,30.511812,0.447388,2.3159613602,0,0,-0.671082,137.5, 1.6, 0.8,0,0,1024,1024,1026,1024,137.8,-89.9,98,3.782,3.816,3.797,3.811,0,0,23.225,55.4,14,Waypoint,
36.6869634,-118.9584839,4971.5403949817,31.496064,0.223694,1.87249349824,8500,2018-04-13 22:30:17,15,0,22.832,4971.5403949817,31.496064,0.447388,2.3159613602,0,0,-0.671082,137.6, 1.3, 0.8,0,0,1024,1024,1026,1024,137.8,-90,98,3.782,3.816,3.797,3.811,0,0,23.225,55.4,14,Waypoint,
36.6869635,-118.958484,4972.8527309817,32.8084,0.223694,1.84359585952,8600,2018-04-13 22:30:17,15,0,22.832,4972.8527309817,32.8084,0.447388,2.3159613602,0,0,-0.671082,137.7, 1.1, 0.6,0,0,1024,1024,1026,1024,137.8,-90,98,3.782,3.816,3.797,3.811,0,0,23.225,55.4,14,Waypoint,
36.6869636,-118.9584839,4973.8369829817,33.792652,0.223694,1.87391410196,8700,2018-04-13 22:30:17,15,0,22.832,4973.8369829817,33.792652,0.447388,2.3159613602,0,0,-0.671082,137.7, 1, 0.6,0,0,1024,1024,1027,1024,137.8,-90,98,3.782,3.816,3.797,3.811,0,0,23.225,55.4,14,Waypoint,
36.6869637,-118.9584837,4974.8212349817,34.776904,0,1.93410767344,8800,2018-04-13 22:30:17,16,0,22.832,4974.8212349817,34.776904,0.447388,2.3159613602,0,0,-0.671082,137.7, 0.9, 0.9,0,0,1024,1024,1026,1024,137.8,-90,98,3.782,3.816,3.797,3.811,0,0,23.225,55.4,14,Waypoint,
36.6869639,-118.9584835,4975.8054869817,35.761156,0,1.99787079884,8900,2018-04-13 22:30:17,16,0,22.832,4975.8054869817,35.761156,0.447388,2.3159613602,0,0,-0.671082,137.8, 0.9, 1.6,0,0,1024,1024,1026,1024,137.8,-90,98,3.782,3.816,3.797,3.811,0,0,23.225,55.4,14,Waypoint,
36.686964,-118.9584835,4976.7897389817,36.745408,0,2.00153221628,9000,2018-04-13 22:30:17,16,0,22.832,4976.7897389817,36.745408,0.447388,2.3159613602,0,0,-0.671082,137.8, 1, 2.1,0,0,1024,1024,1026,1024,137.8,-90,98,3.782,3.816,3.797,3.811,0,0,23.225,55.4,14,Waypoint,
36.6869639,-118.9584837,4978.1020749817,38.057744,0,1.93960636128,9100,2018-04-13 22:30:17,16,0,22.832,4978.1020749817,38.057744,0.447388,2.3159613602,0,0,-0.671082,137.8, 1.1, 2,0,0,1024,1024,1026,1024,137.8,-89.9,98,3.782,3.816,3.797,3.811,0,0,23.225,55.4,14,Waypoint,
36.6869639,-118.958484,4979.0863269817,39.041996,0.223694,1.85224087292,9200,2018-04-13 22:30:17,17,0,22.832,4979.0863269817,39.041996,0.447388,2.3159613602,0,0,-0.671082,137.7, 1.1, 1.6,0,0,1024,1024,1026,1024,137.8,-90,98,3.782,3.816,3.797,3.811,0,0,23.225,55.4,14,Waypoint,
36.6869639,-118.9584841,4980.0705789817,40.026248,0.223694,1.82312669876,9300,2018-04-13 22:30:17,17,0,22.832,4980.0705789817,40.026248,0.447388,2.3159613602,0,0,-0.671082,137.7, 0.6, 1.5,0,0,1024,1024,1026,1024,137.8,-90,98,3.782,3.816,3.797,3.811,0,0,23.225,55.4,14,Waypoint,
36.6869639,-118.9584843,4981.0548309817,41.0105,0.223694,1.76491475464,9410,2018-04-13 22:30:17,16,0,22.832,4981.0548309817,41.0105,0.447388,2.3159613602,0,0,-0.671082,137.7, 0.3, 1.5,0,0,1024,1024,1026,1024,137.8,-90,98,3.782,3.816,3.797,3.811,0,0,23.225,55.4,14,Waypoint,
36.6869639,-118.9584844,4982.0390829817,41.994752,0.223694,1.73581698468,9500,2018-04-13 22:30:18,16,0,22.832,4982.0390829817,41.994752,0.447388,2.3159613602,0,0,-0.671082,137.8, 0, 1.5,0,0,1024,1024,1026,1024,137.8,-90,98,3.782,3.816,3.797,3.811,0,0,23.225,55.4,14,Waypoint,
36.6869639,-118.9584845,4983.0233349817,42.979004,0.223694,1.70672249556,9600,2018-04-13 22:30:18,17,0,22.832,4983.0233349817,42.979004,0.447388,2.3159613602,0,0,-0.671082,137.9, -0.1, 1.4,0,0,1024,1024,1026,1024,137.8,-89.9,98,3.782,3.816,3.797,3.811,0,0,23.225,55.4,14,Waypoint,
36.6869639,-118.9584848,4984.0075869817,43.963256,0.223694,1.61948167912,9700,2018-04-13 22:30:18,17,0,22.832,4984.0075869817,43.963256,0.447388,2.3159613602,0,0,-0.671082,137.9, 0, 1.2,0,0,1024,1024,1026,1024,137.8,-89.9,98,3.782,3.816,3.797,3.811,0,0,23.225,55.4,14,Waypoint,
36.6869638,-118.9584851,4984.9918389817,44.947508,0.223694,1.52838259484,9900,2018-04-13 22:30:18,17,0,22.832,4984.9918389817,44.947508,0.447388,2.3159613602,0,0,-0.671082,137.9, 0, 0.8,0,0,1024,1024,1026,1024,137.8,-90,98,3.782,3.816,3.797,3.811,0,0,23.225,55.4,14,Waypoint,
36.6869637,-118.9584854,4985.9760909817,45.93176,0.223694,1.43779860244,10000,2018-04-13 22:30:18,17,0,23.219,4985.9760909817,45.93176,0.447388,2.3159613602,0,0,-0.671082,138, 0, 0.4,0,0,1024,1024,1027,1024,137.8,-89.9,97,3.853,3.868,3.878,3.878,0,0,18.029,57.2,14,Waypoint,
36.6869636,-118.9584856,4986.9603429817,46.916012,0.223694,1.37704728816,10100,2018-04-13 22:30:18,17,0,23.219,4986.9603429817,46.916012,0.447388,2.3159613602,0,0,-0.671082,138.1, 0, 0,0,0,1024,1024,1027,1024,137.8,-90,97,3.853,3.868,3.878,3.878,0,0,18.029,57.2,14,Waypoint,
36.6869634,-118.9584858,4987.9445949817,47.900264,0,1.31659781116,10200,2018-04-13 22:30:18,17,0,23.219,4987.9445949817,47.900264,0.447388,2.3159613602,0,0,-0.671082,138.2, 0, -0.4,0,0,1024,1024,1026,1024,137.8,-89.9,97,3.853,3.868,3.878,3.878,0,0,18.029,57.2,14,Waypoint,
36.6869633,-118.958486,4988.9288469817,48.884516,0,1.25860896416,10300,2018-04-13 22:30:18,18,0,23.219,4988.9288469817,48.884516,0.447388,2.3159613602,0,0,-0.671082,138.2, 0.2, -0.6,0,0,1024,1024,1026,1024,137.8,-89.9,97,3.853,3.868,3.878,3.878,0,0,18.029,57.2,14,Waypoint,
36.6869632,-118.9584861,4989.9130989817,49.868768,0,1.2309875722,10400,2018-04-13 22:30:18,18,0,23.219,4989.9130989817,49.868768,0.447388,2.3159613602,0,0,-0.671082,138.2, 0.6, -0.5,0,0,1024,1024,1026,1024,137.8,-89.9,97,3.853,3.868,3.878,3.878,0,0,18.029,57.2,14,Waypoint,
36.686963,-118.9584864,4992.8658549817,52.821524,0,1.150344525,10600,2018-04-13 22:30:19,17,0,23.219,4992.8658549817,52.821524,0.447388,2.3159613602,0,0,-0.671082,137.9, 1.1, -0.3,0,0,1024,1024,1026,1024,137.8,-89.9,97,3.853,3.868,3.878,3.878,0,0,18.029,57.2,14,Waypoint,
36.6869629,-118.9584866,4994.8343589817,54.790028,0,1.09779859156,10800,2018-04-13 22:30:19,18,0,23.219,4994.8343589817,54.790028,0.447388,2.3159613602,0,0,-0.671082,137.7, 1.1, -0.1,0,0,1024,1024,1027,1024,137.8,-90,97,3.853,3.868,3.878,3.878,0,0,18.029,57.2,14,Waypoint,
36.6869628,-118.9584866,4995.8186109817,55.77428,0,1.1044455734,10900,2018-04-13 22:30:19,18,0,23.219,4995.8186109817,55.77428,0.447388,2.3159613602,0,0,-0.671082,137.6, 1, 0,0,0,1024,1024,1026,1024,137.8,-89.9,97,3.853,3.868,3.878,3.878,0,0,18.029,57.2,14,Waypoint,
36.6869628,-118.9584866,4996.8028629817,56.758532,0,1.1044455734,11000,2018-04-13 22:30:19,17,0,23.268,4996.8028629817,56.758532,0.447388,2.3159613602,0,0,-0.671082,137.6, 0.9, 0.2,0,0,1024,1024,1027,1024,137.8,-90,97,3.853,3.868,3.878,3.878,0,0,17.146,57.2,14,Waypoint,
36.6869628,-118.9584867,4997.7871149817,57.742784,0,1.07578415516,11100,2018-04-13 22:30:19,17,0,23.268,4997.7871149817,57.742784,0.447388,2.3159613602,0,0,-0.671082,137.7, 0.9, 0.3,0,0,1024,1024,1026,1024,137.8,-90,97,3.853,3.868,3.878,3.878,0,0,17.146,57.2,14,Waypoint,
36.6869627,-118.9584867,4998.4432829817,58.398952,0,1.08379924728,11200,2018-04-13 22:30:19,18,0,23.268,4998.4432829817,58.398952,0.447388,2.3159613602,0,0,-0.671082,137.9, 1, 0.4,0,0,1024,1024,1026,1024,137.8,-89.9,97,3.853,3.868,3.878,3.878,0,0,17.146,57.2,14,Waypoint,
36.6869627,-118.9584867,4999.4275349817,59.383204,0,1.08379924728,11300,2018-04-13 22:30:19,18,0,23.268,4999.4275349817,59.383204,0.447388,2.3159613602,0,0,-0.671082,138, 0.9, 0.5,0,0,1024,1024,1026,1024,137.8,-89.9,97,3.853,3.868,3.878,3.878,0,0,17.146,57.2,14,Waypoint,
36.6869627,-118.9584866,5001.3960389817,61.351708,0,1.1122539726,11500,2018-04-13 22:30:20,18,0,23.268,5001.3960389817,61.351708,0.447388,2.3159613602,0,0,-0.671082,137.9, 0.8, 0.3,0,0,1024,1024,1027,1024,137.8,-89.9,97,3.853,3.868,3.878,3.878,0,0,17.146,57.2,14,Waypoint,
36.6869628,-118.9584866,5002.3802909817,62.33596,0,1.1044455734,11600,2018-04-13 22:30:20,17,0,23.268,5002.3802909817,62.33596,0.447388,2.3159613602,0,0,-0.671082,137.8, 0.9, 0.2,0,0,1024,1024,1026,1024,137.8,-90,97,3.853,3.868,3.878,3.878,0,0,17.146,57.2,14,Waypoint,
36.6869628,-118.9584865,5003.3645429817,63.320212,0,1.13313980004,11700,2018-04-13 22:30:20,17,0,23.268,5003.3645429817,63.320212,0.447388,2.3159613602,0,0,-0.671082,137.9, 0.8, 0.1,0,0,1024,1024,1026,1024,137.8,-90,97,3.853,3.868,3.878,3.878,0,0,17.146,57.2,14,Waypoint,
36.6869628,-118.9584865,5004.3487949817,64.304464,0,1.13313980004,11800,2018-04-13 22:30:20,18,0,23.268,5004.3487949817,64.304464,0.447388,2.3159613602,0,0,-0.671082,138, 1.2, 0.5,0,0,1024,1024,1027,1024,137.8,-89.9,97,3.853,3.868,3.878,3.878,0,0,17.146,57.2,14,Waypoint,
36.6869628,-118.9584864,5005.3330469817,65.288716,0,1.1618602734,11900,2018-04-13 22:30:20,18,0,23.268,5005.3330469817,65.288716,0.447388,2.3159613602,0,0,-0.671082,138, 1.1, 0.7,0,0,1024,1024,1027,1024,137.8,-89.9,97,3.853,3.868,3.878,3.878,0,0,17.146,57.2,14,Waypoint,
36.6869628,-118.9584863,5006.3172989817,66.272968,0,1.19060699348,12000,2018-04-13 22:30:20,18,0,23.268,5006.3172989817,66.272968,0.447388,2.3159613602,0,0,-0.671082,137.9, 1, 0.7,0,0,1024,1024,1026,1024,137.8,-89.9,97,3.865,3.875,3.883,3.882,0,0,17.146,57.2,14,Waypoint,
36.6869629,-118.9584863,5007.3015509817,67.25722,0,1.18443901428,12100,2018-04-13 22:30:20,18,0,23.268,5007.3015509817,67.25722,0.447388,2.3159613602,0,0,-0.671082,137.9, 0.8, 0.6,0,0,1024,1024,1027,1024,137.8,-89.9,97,3.865,3.875,3.883,3.882,0,0,17.146,57.2,14,Waypoint,
36.6869629,-118.9584862,5007.9577189817,67.913388,0,1.21335633804,12200,2018-04-13 22:30:20,18,0,23.268,5007.9577189817,67.913388,0.447388,2.3159613602,0,0,-0.671082,137.9, 0.8, 0.7,0,0,1024,1024,1027,1024,137.8,-89.9,97,3.865,3.875,3.883,3.882,0,0,17.146,57.2,14,Waypoint,
36.686963,-118.9584859,5009.9262229817,69.881892,0,1.29558403096,12400,2018-04-13 22:30:20,18,0,23.268,5009.9262229817,69.881892,0.447388,2.3159613602,0,0,-0.671082,138.1, 1, 1.3,0,0,1024,1024,1026,1024,137.8,-89.9,97,3.865,3.875,3.883,3.882,0,0,17.146,57.2,14,Waypoint,
36.6869631,-118.9584857,5011.8947269817,71.850396,0,1.35029859964,12620,2018-04-13 22:30:21,18,0,23.268,5011.8947269817,71.850396,0.447388,2.3159613602,0,0,-0.671082,138.2, 1.2, 1.6,0,0,1024,1024,1026,1024,137.8,-89.9,97,3.865,3.875,3.883,3.882,0,0,17.146,57.2,14,Waypoint,
36.6869631,-118.9584857,5011.8947269817,71.850396,0,1.35029859964,12700,2018-04-13 22:30:21,18,0,23.268,5011.8947269817,71.850396,0.447388,2.3159613602,0,0,-0.671082,138.2, 1.2, 1.6,0,0,1024,1024,1026,1024,137.8,-90,97,3.865,3.875,3.883,3.882,0,0,17.146,57.2,14,Waypoint,
36.6869631,-118.9584856,5012.8789789817,72.834648,0,1.3794619864,12800,2018-04-13 22:30:21,18,0,23.268,5012.8789789817,72.834648,0.447388,2.3159613602,0,0,-0.671082,138.2, 1.1, 1.7,0,0,1024,1024,1026,1024,137.8,-89.9,97,3.865,3.875,3.883,3.882,0,0,17.146,57.2,14,Waypoint,
36.6869632,-118.9584855,5013.8632309817,73.8189,0,1.40626316836,12900,2018-04-13 22:30:21,18,0,23.268,5013.8632309817,73.8189,0.447388,2.3159613602,0,0,-0.671082,138.2, 1.1, 1.7,0,0,1024,1024,1027,1024,137.8,-89.9,97,3.865,3.875,3.883,3.882,0,0,17.146,57.2,14,Waypoint,
36.6869632,-118.9584853,5014.8474829817,74.803152,0,1.46470477128,13000,2018-04-13 22:30:21,18,0,23.144,5014.8474829817,74.803152,0.447388,2.3159613602,0,0,-0.671082,138.1, 1.1, 1.6,0,0,1024,1024,1026,1024,137.8,-89.9,97,3.836,3.862,3.857,3.849,0,0,17.995,57.2,14,Waypoint,
36.6869633,-118.9584852,5015.8317349817,75.787404,0,1.49258863044,13100,2018-04-13 22:30:21,17,0,23.144,5015.8317349817,75.787404,0.447388,2.3159613602,0,0,-0.671082,138, 1.1, 1.8,0,0,1024,1024,1026,1024,137.8,-89.9,97,3.836,3.862,3.857,3.849,0,0,17.995,57.2,14,Waypoint,
36.6869633,-118.9584851,5016.8159869817,76.771656,0,1.52183731904,13200,2018-04-13 22:30:21,17,0,23.144,5016.8159869817,76.771656,0.447388,2.3159613602,0,0,-0.671082,138, 1.2, 2,0,0,1024,1024,1026,1024,137.8,-89.9,97,3.836,3.862,3.857,3.849,0,0,17.995,57.2,14,Waypoint,
36.6869634,-118.9584849,5017.8002389817,77.755908,0,1.57991474872,13300,2018-04-13 22:30:21,18,0,23.144,5017.8002389817,77.755908,0.447388,2.3159613602,0,0,-0.671082,137.9, 1.1, 1.9,0,0,1024,1024,1026,1024,137.8,-90,97,3.836,3.862,3.857,3.849,0,0,17.995,57.2,14,Waypoint,
36.6869635,-118.9584849,5018.7844909817,78.74016,0,1.58033797708,13400,2018-04-13 22:30:21,18,0,23.144,5018.7844909817,78.74016,0.447388,2.3159613602,0,0,-0.671082,137.8, 0.9, 1.7,0,0,1024,1024,1026,1024,137.8,-90,97,3.836,3.862,3.857,3.849,0,0,17.995,57.2,14,Waypoint,
36.6869635,-118.9584847,5020.7529949817,80.708664,0,1.63883863512,13500,2018-04-13 22:30:22,18,0,23.144,5020.7529949817,80.708664,0.447388,2.3159613602,0,0,-0.671082,137.7, 0.7, 1.6,0,0,1024,1024,1026,1024,137.8,-90,97,3.836,3.862,3.857,3.849,0,0,17.995,57.2,14,Waypoint,
36.6869635,-118.9584846,5021.7372469817,81.692916,0,1.66808732372,13600,2018-04-13 22:30:22,18,0,23.144,5021.7372469817,81.692916,0.447388,2.3159613602,0,0,-0.671082,137.7, 0.7, 1.7,0,0,1024,1024,1026,1024,137.8,-90,97,3.836,3.862,3.857,3.849,0,0,17.995,57.2,14,Waypoint,
36.6869635,-118.9584845,5022.7214989817,82.677168,0,1.69733929316,13700,2018-04-13 22:30:22,18,0,23.144,5022.7214989817,82.677168,0.447388,2.3159613602,0,0,-0.671082,137.7, 1.1, 1.5,0,0,1024,1024,1026,1024,137.8,-89.9,97,3.836,3.862,3.857,3.849,0,0,17.995,57.2,14,Waypoint,
36.6869635,-118.9584844,5023.7057509817,83.66142,0,1.72658798176,13800,2018-04-13 22:30:22,18,0,23.144,5023.7057509817,83.66142,0.447388,2.3159613602,0,0,-0.671082,137.7, 1.5, 1.5,0,0,1024,1024,1026,1024,137.8,-89.9,97,3.836,3.862,3.857,3.849,0,0,17.995,57.2,14,Waypoint,
36.6869636,-118.9584842,5024.6900029817,84.645672,0,1.78621068708,13900,2018-04-13 22:30:22,18,0,23.144,5024.6900029817,84.645672,0.447388,2.3159613602,0,0,-0.671082,137.8, 1.7, 1.8,0,0,1024,1024,1026,1024,137.8,-89.9,97,3.836,3.862,3.857,3.849,0,0,17.995,57.2,14,Waypoint,
36.6869636,-118.9584841,5025.6742549817,85.629924,0,1.81544297148,14000,2018-04-13 22:30:22,18,0,23.01,5025.6742549817,85.629924,0.447388,2.3159613602,0,0,-0.671082,137.9, 1.8, 1.8,0,0,1024,1024,1026,1024,137.8,-89.9,97,3.811,3.838,3.837,3.834,0,0,18.962,57.2,14,Waypoint,
36.6869636,-118.9584839,5026.6585069817,86.614176,0,1.87391410196,14100,2018-04-13 22:30:22,18,0,23.01,5026.6585069817,86.614176,0.447388,2.3159613602,0,0,-0.671082,138.2, 1.6, 2.1,0,0,1024,1024,1026,1024,137.8,-89.9,97,3.811,3.838,3.837,3.834,0,0,18.962,57.2,14,Waypoint,
36.6869637,-118.9584838,5027.6427589817,87.598428,0,1.90489835492,14200,2018-04-13 22:30:22,18,0,23.01,5027.6427589817,87.598428,0.447388,2.3159613602,0,0,-0.671082,138.4, 1.8, 2.5,0,0,1024,1024,1027,1024,137.8,-89.9,97,3.811,3.838,3.837,3.834,0,0,18.962,57.2,14,Waypoint,
36.6869637,-118.9584836,5028.6270109817,88.58268,0,1.9633202728,14300,2018-04-13 22:30:22,18,0,23.01,5028.6270109817,88.58268,0.447388,2.3159613602,0,0,-0.671082,138.5, 2, 3,0,0,1024,1024,1026,1024,137.8,-89.9,97,3.811,3.838,3.837,3.834,0,0,18.962,57.2,14,Waypoint,
36.6869638,-118.9584833,5030.5955149817,90.551184,0,2.053231693,14500,2018-04-13 22:30:23,18,0,23.01,5030.5955149817,90.551184,0.447388,2.3159613602,0,0,-0.671082,138.4, 2.4, 3.2,0,0,1024,1024,1026,1024,137.8,-89.9,97,3.811,3.838,3.837,3.834,0,0,18.962,57.2,14,Waypoint,
36.6869638,-118.958483,5032.5640189817,92.519688,0,2.14079075092,14700,2018-04-13 22:30:23,18,0,23.01,5032.5640189817,92.519688,0.447388,2.3159613602,0,0,-0.671082,138.2, 2.3, 3.6,0,0,1024,1024,1026,1024,137.8,-89.9,97,3.811,3.838,3.837,3.834,0,0,18.962,57.2,14,Waypoint,
36.6869638,-118.9584828,5033.5482709817,93.50394,0,2.19917657956,14800,2018-04-13 22:30:23,18,0,23.01,5033.5482709817,93.50394,0.447388,2.3159613602,0,0,-0.671082,138.1, 2.2, 3.6,0,0,1024,1024,1026,1024,137.8,-89.9,97,3.811,3.838,3.837,3.834,0,0,18.962,57.2,14,Waypoint,
36.6869638,-118.9584827,5034.5325229817,94.488192,0,2.22836949388,14910,2018-04-13 22:30:23,18,0,23.01,5034.5325229817,94.488192,0.447388,2.3159613602,0,0,-0.671082,138.1, 2.2, 3.4,0,0,1024,1024,1026,1024,137.8,-89.9,97,3.811,3.838,3.837,3.834,0,0,18.962,57.2,14,Waypoint,
36.6869638,-118.9584826,5036.5010269817,96.456696,0,2.25756568904,15100,2018-04-13 22:30:23,18,0,23.01,5036.5010269817,96.456696,0.447388,2.3159613602,0,0,-0.671082,137.9, 2.7, 2.8,0,0,1024,1024,1026,1024,137.8,-89.9,97,3.811,3.838,3.837,3.834,0,0,18.962,57.2,14,Waypoint,
36.6869637,-118.9584825,5037.4852789817,97.440948,0,2.28472448256,15200,2018-04-13 22:30:23,18,0,23.01,5037.4852789817,97.440948,0.447388,2.3159613602,0,0,-0.671082,137.8, 2.9, 2.7,0,0,1024,1024,1027,1024,137.8,-89.9,97,3.811,3.838,3.837,3.834,0,0,18.962,57.2,14,Waypoint,
36.6869637,-118.9584825,5038.4695309817,98.4252,0,2.28472448256,15310,2018-04-13 22:30:23,18,0,23.01,5038.4695309817,98.4252,0.447388,2.3159613602,0,0,-0.671082,137.8, 2.9, 2.6,0,0,1024,1024,1027,1024,137.8,-89.9,97,3.811,3.838,3.837,3.834,0,0,18.962,57.2,14,Waypoint,
36.6869637,-118.9584825,5039.4537829817,99.409452,0,2.28472448256,15500,2018-04-13 22:30:24,18,0,23.01,5039.4537829817,99.409452,0.447388,2.3159613602,0,0,-0.671082,137.9, 2.7, 2.3,0,0,1024,1024,1026,1024,137.8,-89.9,97,3.811,3.838,3.837,3.834,0,0,18.962,57.2,14,Waypoint,
36.6869637,-118.9584825,5040.1099509817,100.06562,0,2.28472448256,15600,2018-04-13 22:30:24,18,0,23.01,5040.1099509817,100.06562,0.447388,2.3159613602,0,0,-0.671082,137.9, 2.6, 2.3,0,0,1024,1024,1026,1024,137.8,-89.9,97,3.811,3.838,3.837,3.834,0,0,18.962,57.2,14,Waypoint,
36.6869637,-118.9584825,5041.0942029817,101.049872,0,2.28472448256,15700,2018-04-13 22:30:24,18,0,23.01,5041.0942029817,101.049872,0.447388,2.3159613602,0,0,-0.671082,137.9, 2.6, 2.6,0,0,1024,1024,1026,1024,137.8,-89.9,97,3.811,3.838,3.837,3.834,0,0,18.962,57.2,14,Waypoint,
36.6869637,-118.9584824,5042.0784549817,102.034124,0,2.31394692444,15800,2018-04-13 22:30:24,18,0,23.01,5042.0784549817,102.034124,0.447388,2.3159613602,0,0,-0.671082,138, 2.6, 2.7,0,0,1024,1024,1026,1024,137.8,-89.9,97,3.811,3.838,3.837,3.834,0,0,18.962,57.2,14,Waypoint,
36.6869637,-118.9584824,5043.0627069817,103.018376,0,2.31394692444,15900,2018-04-13 22:30:24,18,0,23.01,5043.0627069817,103.018376,0.447388,2.3159613602,0,0,-0.671082,138.1, 2.7, 2.6,0,0,1024,1024,1026,1024,137.8,-89.9,97,3.811,3.838,3.837,3.834,0,0,18.962,57.2,14,Waypoint,
36.6869637,-118.9584824,5044.0469589817,104.002628,0,2.31394692444,16000,2018-04-13 22:30:24,18,0,22.923,5044.0469589817,104.002628,0.447388,2.3159613602,0,0,-0.671082,138.2, 2.8, 2.6,0,0,1024,1024,1026,1024,137.8,-89.9,97,3.799,3.815,3.826,3.814,0,0,18.758,57.2,14,Waypoint,
36.6869636,-118.9584824,5045.0312109817,104.98688,0,2.31250991652,16100,2018-04-13 22:30:24,18,0,22.923,5045.0312109817,104.98688,0.447388,2.3159613602,0,0,-0.671082,138.2, 3.1, 2.6,0,0,1024,1024,1026,1024,137.8,-89.9,97,3.799,3.815,3.826,3.814,0,0,18.758,57.2,14,Waypoint,
36.6869636,-118.9584824,5046.0154629817,105.971132,0,2.31250991652,16200,2018-04-13 22:30:24,18,0,22.923,5046.0154629817,105.971132,0.447388,2.3159613602,0,0,-0.671082,138.1, 3.1, 2.6,0,0,1024,1024,1026,1024,137.8,-89.9,97,3.799,3.815,3.826,3.814,0,0,18.758,57.2,14,Waypoint,
36.6869636,-118.9584824,5047.9839669817,107.939636,0,2.31250991652,16300,2018-04-13 22:30:24,18,0,22.923,5047.9839669817,107.939636,0.447388,2.3159613602,0,0,-0.671082,138, 2.8, 2.6,0,0,1024,1024,1027,1024,137.8,-89.9,97,3.799,3.815,3.826,3.814,0,0,18.758,57.2,14,Waypoint,
36.6869636,-118.9584825,5048.9682189817,108.923888,0,2.2832677896,16400,2018-04-13 22:30:24,18,0,22.923,5048.9682189817,108.923888,0.447388,2.3159613602,0,0,-0.671082,138, 2.8, 2.5,0,0,1024,1024,1027,1024,137.8,-89.9,97,3.799,3.815,3.826,3.814,0,0,18.758,57.2,14,Waypoint,
36.6869636,-118.9584825,5049.9524709817,109.90814,0.223694,2.2832677896,16500,2018-04-13 22:30:25,18,0,22.923,5049.9524709817,109.90814,0.447388,2.3159613602,0,0,-0.671082,137.8, 2.7, 2.4,0,0,1024,1024,1027,1024,137.8,-89.9,97,3.799,3.815,3.826,3.814,0,0,18.758,57.2,14,Waypoint,
36.6869636,-118.9584826,5050.9367229817,110.892392,0.223694,2.25402566268,16600,2018-04-13 22:30:25,18,0,22.923,5050.9367229817,110.892392,0.447388,2.3159613602,0,0,-0.671082,137.7, 2.6, 2.2,0,0,1024,1024,1027,1024,137.8,-89.9,97,3.799,3.815,3.826,3.814,0,0,18.758,57.2,14,Waypoint,
36.6869636,-118.9584827,5051.9209749817,111.876644,0.223694,2.22478353576,16700,2018-04-13 22:30:25,18,0,22.923,5051.9209749817,111.876644,0.447388,2.3159613602,0,0,-0.671082,137.7, 2.4, 2.1,0,0,1024,1024,1027,1024,137.8,-89.9,97,3.799,3.815,3.826,3.814,0,0,18.758,57.2,14,Waypoint,
36.6869636,-118.9584828,5052.9052269817,112.860896,0.223694,2.19554140884,16800,2018-04-13 22:30:25,18,0,22.923,5052.9052269817,112.860896,0.447388,2.3159613602,0,0,-0.671082,137.7, 2.3, 2.2,0,0,1024,1024,1026,1024,137.8,-89.9,97,3.799,3.815,3.826,3.814,0,0,18.758,57.2,14,Waypoint,
36.6869636,-118.958483,5054.2175629817,114.173232,0.223694,2.137057155,16900,2018-04-13 22:30:25,18,0,22.923,5054.2175629817,114.173232,0.447388,2.3159613602,0,0,-0.671082,137.8, 2.3, 2.2,0,0,1024,1024,1026,1024,137.8,-90,97,3.799,3.815,3.826,3.814,0,0,18.758,57.2,14,Waypoint,
36.6869636,-118.9584831,5055.2018149817,115.157484,0.223694,2.10781830892,17000,2018-04-13 22:30:25,18,0,22.827,5055.2018149817,115.157484,0.447388,2.3159613602,0,0,-0.671082,138, 2, 2.1,0,0,1024,1024,1026,1024,137.8,-89.9,97,3.776,3.807,3.808,3.799,0,0,19.545,57.2,14,Waypoint,
36.6869636,-118.9584832,5056.1860669817,116.141736,0.223694,2.078576182,17100,2018-04-13 22:30:25,18,0,22.827,5056.1860669817,116.141736,0.447388,2.3159613602,0,0,-0.671082,138.2, 2, 1.9,0,0,1024,1024,1026,1024,137.8,-89.9,97,3.776,3.807,3.808,3.799,0,0,19.545,57.2,14,Waypoint,
36.6869636,-118.9584833,5057.1703189817,117.125988,0.223694,2.04933733592,17200,2018-04-13 22:30:25,18,0,22.827,5057.1703189817,117.125988,0.447388,2.3159613602,0,0,-0.671082,138.2, 2, 2,0,0,1024,1024,1026,1024,137.8,-89.9,97,3.776,3.807,3.808,3.799,0,0,19.545,57.2,14,Waypoint,
36.6869635,-118.9584834,5058.1545709817,118.11024,0.223694,2.019110957,17300,2018-04-13 22:30:25,18,0,22.827,5058.1545709817,118.11024,0.447388,2.3159613602,0,0,-0.671082,138.2, 2.2, 1.9,0,0,1024,1024,1027,1024,137.8,-89.9,97,3.776,3.807,3.808,3.799,0,0,19.545,57.2,14,Waypoint,
36.6869635,-118.9584835,5059.1388229817,119.094492,0,1.98985898756,17400,2018-04-13 22:30:25,18,0,22.827,5059.1388229817,119.094492,0.447388,2.3159613602,0,0,-0.671082,138.1, 2.3, 1.8,0,0,1024,1024,1026,1024,137.8,-89.9,97,3.776,3.807,3.808,3.799,0,0,19.545,57.2,14,Waypoint,
36.6869635,-118.9584836,5060.1230749817,120.078744,0,1.96060373728,17600,2018-04-13 22:30:26,18,0,22.827,5060.1230749817,120.078744,0.447388,2.3159613602,0,0,-0.671082,138.1, 2.3, 1.8,0,0,1024,1024,1026,1024,137.8,-89.9,97,3.776,3.807,3.808,3.799,0,0,19.545,57.2,14,Waypoint,
36.6869635,-118.9584838,5062.0915789817,122.047248,0,1.9020997984,17700,2018-04-13 22:30:26,18,0,22.827,5062.0915789817,122.047248,0.447388,2.3159613602,0,0,-0.671082,138, 2.1, 1.8,0,0,1024,1024,1027,1024,137.8,-89.9,97,3.776,3.807,3.808,3.799,0,0,19.545,57.2,14,Waypoint,
36.6869635,-118.9584839,5063.0758309817,123.0315,0,1.87284782896,17810,2018-04-13 22:30:26,18,0,22.827,5063.0758309817,123.0315,0.447388,2.3159613602,0,0,-0.671082,137.9, 2.2, 1.8,0,0,1024,1024,1026,1024,137.8,-89.9,97,3.776,3.807,3.808,3.799,0,0,19.545,57.2,14,Waypoint,
36.6869635,-118.9584839,5064.0600829817,124.015752,0,1.87284782896,17910,2018-04-13 22:30:26,18,0,22.827,5064.0600829817,124.015752,0.447388,2.3159613602,0,0,-0.671082,138, 2.4, 1.8,0,0,1024,1024,1026,1024,137.8,-89.9,97,3.776,3.807,3.808,3.799,0,0,19.545,57.2,14,Waypoint,
36.6869635,-118.9584839,5065.0443349817,125.000004,0,1.87284782896,18100,2018-04-13 22:30:26,18,0,22.827,5065.0443349817,125.000004,0.447388,2.3159613602,0,0,-0.671082,138, 2.5, 2.1,0,0,1024,1024,1026,1024,137.8,-89.9,97,3.776,3.807,3.808,3.799,0,0,19.545,57.2,14,Waypoint,
36.6869635,-118.958484,5066.0285869817,125.984256,0,1.84359585952,18200,2018-04-13 22:30:26,18,0,22.827,5066.0285869817,125.984256,0.447388,2.3159613602,0,0,-0.671082,138, 2.6, 2.3,0,0,1024,1024,1026,1024,137.8,-89.9,97,3.776,3.807,3.808,3.799,0,0,19.545,57.2,14,Waypoint,
36.6869635,-118.958484,5067.0128389817,126.968508,0,1.84359585952,18300,2018-04-13 22:30:26,18,0,22.827,5067.0128389817,126.968508,0.447388,2.3159613602,0,0,-0.671082,137.9, 2.6, 2.1,0,0,1024,1024,1026,1024,137.8,-89.9,97,3.776,3.807,3.808,3.799,0,0,19.545,57.2,14,Waypoint,
36.6869635,-118.958484,5067.9970909817,127.95276,0,1.84359585952,18400,2018-04-13 22:30:26,18,0,22.827,5067.9970909817,127.95276,0.447388,2.3159613602,0,0,-0.671082,137.9, 2.5, 2,0,0,1024,1024,1026,1024,137.8,-89.9,97,3.776,3.807,3.808,3.799,0,0,19.545,57.2,14,Waypoint,
36.6869635,-118.958484,5068.9813429817,128.937012,0,1.84359585952,18500,2018-04-13 22:30:27,18,0,22.827,5068.9813429817,128.937012,0.447388,2.3159613602,0,0,-0.671082,137.9, 2.5, 2.3,0,0,1024,1024,1026,1024,137.8,-89.9,97,3.776,3.807,3.808,3.799,0,0,19.545,57.2,14,Waypoint,
36.6869634,-118.958484,5070.9498469817,130.905516,0,1.84323496712,18700,2018-04-13 22:30:27,17,0,22.827,5070.9498469817,130.905516,0.447388,2.3159613602,0,0,-0.671082,138, 2.6, 2.3,0,0,1024,1024,1026,1024,137.8,-89.9,97,3.776,3.807,3.808,3.799,0,0,19.545,57.2,14,Waypoint,
36.6869634,-118.9584841,5071.9340989817,131.889768,0,1.813976436,18800,2018-04-13 22:30:27,17,0,22.827,5071.9340989817,131.889768,0.447388,2.3159613602,0,0,-0.671082,137.9, 2.8, 2,0,0,1024,1024,1026,1024,137.8,-89.9,97,3.776,3.807,3.808,3.799,0,0,19.545,57.2,14,Waypoint,
36.6869633,-118.9584841,5073.9026029817,133.858272,0,1.81434389008,19000,2018-04-13 22:30:27,17,0,22.879,5073.9026029817,133.858272,0.447388,2.3159613602,0,0,-0.671082,137.9, 2.9, 1.6,0,0,1024,1024,1026,1024,137.8,-89.9,96,3.773,3.806,3.794,3.791,0,0,18.377,57.2,14,Waypoint,
36.6869633,-118.958484,5074.8868549817,134.842524,0,1.84359585952,19200,2018-04-13 22:30:27,17,0,22.879,5074.8868549817,134.842524,0.447388,2.3159613602,0,0,-0.671082,137.9, 2.9, 1.9,0,0,1024,1024,1027,1024,137.8,-89.9,96,3.773,3.806,3.794,3.791,0,0,18.377,57.2,14,Waypoint,
36.6869633,-118.958484,5075.8711069817,135.826776,0,1.84359585952,19300,2018-04-13 22:30:27,17,0,22.879,5075.8711069817,135.826776,0.447388,2.3159613602,0,0,-0.671082,137.9, 2.9, 2.1,0,0,1024,1024,1026,1024,137.8,-89.9,96,3.773,3.806,3.794,3.791,0,0,18.377,57.2,14,Waypoint,
36.6869633,-118.958484,5076.8553589817,136.811028,0,1.84359585952,19500,2018-04-13 22:30:28,17,0,22.879,5076.8553589817,136.811028,0.447388,2.3159613602,0,0,-0.671082,137.9, 3.2, 2.3,0,0,1024,1024,1026,1024,137.8,-89.9,96,3.773,3.806,3.794,3.791,0,0,18.377,57.2,14,Waypoint,
36.6869632,-118.958484,5077.8396109817,137.79528,0,1.84467853672,19600,2018-04-13 22:30:28,17,0,22.879,5077.8396109817,137.79528,0.447388,2.3159613602,0,0,-0.671082,137.8, 3.6, 2.2,0,0,1024,1024,1026,1024,137.8,-89.9,96,3.773,3.806,3.794,3.791,0,0,18.377,57.2,14,Waypoint,
36.6869632,-118.9584839,5078.8238629817,138.779532,0,1.87391410196,19700,2018-04-13 22:30:28,17,0,22.879,5078.8238629817,138.779532,0.447388,2.3159613602,0,0,-0.671082,137.8, 3.8, 2,0,0,1024,1024,1027,1024,137.8,-89.9,96,3.773,3.806,3.794,3.791,0,0,18.377,57.2,14,Waypoint,
36.6869631,-118.958484,5079.8081149817,139.763784,0,1.84648299872,19800,2018-04-13 22:30:28,17,0,22.879,5079.8081149817,139.763784,0.447388,2.3159613602,0,0,-0.671082,137.8, 3.7, 1.8,0,0,1024,1024,1026,1024,137.8,-89.9,96,3.773,3.806,3.794,3.791,0,0,18.377,57.2,14,Waypoint,
36.6869631,-118.958484,5080.7923669817,140.748036,0,1.84648299872,19930,2018-04-13 22:30:28,17,0,22.879,5080.7923669817,140.748036,0.447388,2.3159613602,0,0,-0.671082,137.8, 3.5, 1.5,0,0,1024,1024,1026,1024,137.8,-89.9,96,3.773,3.806,3.794,3.791,0,0,18.377,57.2,14,Waypoint,
36.6869631,-118.958484,5080.7923669817,140.748036,0,1.84648299872,20000,2018-04-13 22:30:28,17,0,22.82,5080.7923669817,140.748036,0.447388,2.3159613602,0,0,-0.671082,137.8, 3.5, 1.5,0,0,1024,1024,1026,1024,137.8,-90,96,3.803,3.814,3.811,3.811,0,0,19.057,57.2,14,Waypoint,
36.686963,-118.9584841,5082.7608709817,142.71654,0,1.81983929708,20100,2018-04-13 22:30:28,18,0,22.82,5082.7608709817,142.71654,0.447388,2.3159613602,0,0,-0.671082,137.8, 2.9, 1.3,0,0,1024,1024,1026,1024,137.8,-90,96,3.803,3.814,3.811,3.811,0,0,19.057,57.2,14,Waypoint,
36.686963,-118.9584841,5083.7451229817,143.700792,0,1.81983929708,20200,2018-04-13 22:30:28,18,0,22.82,5083.7451229817,143.700792,0.447388,2.3159613602,0,0,-0.671082,137.8, 2.7, 1.5,0,0,1024,1024,1026,1024,137.8,-89.9,96,3.803,3.814,3.811,3.811,0,0,19.057,57.2,14,Waypoint,
36.686963,-118.958484,5085.7136269817,145.669296,0,1.84900268384,20300,2018-04-13 22:30:28,18,0,22.82,5085.7136269817,145.669296,0.447388,2.3159613602,0,0,-0.671082,137.8, 3.1, 1.2,0,0,1024,1024,1026,1024,137.8,-89.9,96,3.803,3.814,3.811,3.811,0,0,19.057,57.2,14,Waypoint,
36.6869629,-118.958484,5086.6978789817,146.653548,0,1.85224087292,20400,2018-04-13 22:30:28,18,0,22.82,5086.6978789817,146.653548,0.447388,2.3159613602,0,0,-0.671082,137.6, 3.3, 1.1,0,0,1024,1024,1026,1024,137.8,-89.9,96,3.803,3.814,3.811,3.811,0,0,19.057,57.2,14,Waypoint,
36.6869629,-118.958484,5088.6663829817,148.622052,0,1.85224087292,20500,2018-04-13 22:30:29,17,0,22.82,5088.6663829817,148.622052,0.447388,2.3159613602,0,0,-0.671082,137.4, 3.2, 1.3,0,0,1024,1024,1027,1024,137.8,-89.9,96,3.803,3.814,3.811,3.811,0,0,19.057,57.2,14,Waypoint,
36.6869629,-118.958484,5089.9787189817,149.934388,0,1.85224087292,20600,2018-04-13 22:30:29,17,0,22.82,5089.9787189817,149.934388,0.447388,2.3159613602,0,0,-0.671082,137.3, 3.2, 1.5,0,0,1024,1024,1026,1024,137.8,-89.9,96,3.803,3.814,3.811,3.811,0,0,19.057,57.2,14,Waypoint,
36.6869628,-118.958484,5090.9629709817,150.91864,0,1.85618772344,20700,2018-04-13 22:30:29,17,0,22.82,5090.9629709817,150.91864,0.447388,2.3159613602,0,0,-0.671082,137.4, 3.4, 1.7,0,0,1024,1024,1026,1024,137.8,-89.9,96,3.803,3.814,3.811,3.811,0,0,19.057,57.2,14,Waypoint,
36.6869628,-118.9584839,5091.6191389817,151.574808,0,1.88524612332,20800,2018-04-13 22:30:29,17,0,22.82,5091.6191389817,151.574808,0.447388,2.3159613602,0,0,-0.671082,137.6, 3.9, 1.9,0,0,1024,1024,1026,1024,137.8,-89.9,96,3.803,3.814,3.811,3.811,0,0,19.057,57.2,14,Waypoint,
36.6869627,-118.9584839,5093.9157269817,153.871396,0,1.8898294568,20900,2018-04-13 22:30:29,17,0,22.82,5093.9157269817,153.871396,0.447388,2.3159613602,0,0,-0.671082,138.1, 4.1, 1.3,0,0,1024,1024,1027,1024,137.8,-89.9,96,3.803,3.814,3.811,3.811,0,0,19.057,57.2,14,Waypoint,
36.6869626,-118.9584839,5094.8999789817,154.855648,0,1.89510504752,21000,2018-04-13 22:30:29,17,0,22.731,5094.8999789817,154.855648,0.447388,2.3159613602,0,0,-0.671082,138.3, 4.1, 1.2,0,0,1024,1024,1026,1024,137.8,-89.9,96,3.772,3.78,3.783,3.79,0,0,19.744,57.2,14,Waypoint,
36.6869626,-118.9584838,5096.8684829817,156.824152,0,1.92401909044,21200,2018-04-13 22:30:29,17,0,22.731,5096.8684829817,156.824152,0.447388,2.3159613602,0,0,-0.671082,138.5, 4.1, 1.5,0,0,1024,1024,1026,1024,137.8,-89.9,96,3.772,3.78,3.783,3.79,0,0,19.744,57.2,14,Waypoint,
36.6869626,-118.9584838,5097.8527349817,157.808404,0,1.92401909044,21300,2018-04-13 22:30:29,17,0,22.731,5097.8527349817,157.808404,0.447388,2.3159613602,0,0,-0.671082,138.4, 4, 1.4,0,0,1024,1024,1026,1024,137.8,-89.9,96,3.772,3.78,3.783,3.79,0,0,19.744,57.2,14,Waypoint,
36.6869626,-118.9584838,5098.5089029817,158.464572,0,1.92401909044,21400,2018-04-13 22:30:29,18,0,22.731,5098.5089029817,158.464572,0.447388,2.3159613602,0,0,-0.671082,138.3, 4, 1.8,0,0,1024,1024,1026,1024,137.8,-89.9,96,3.772,3.78,3.783,3.79,0,0,19.744,57.2,14,Waypoint,
36.6869626,-118.9584837,5099.8212389817,159.776908,0,1.95294297588,21500,2018-04-13 22:30:30,18,0,22.731,5099.8212389817,159.776908,0.447388,2.3159613602,0,0,-0.671082,138.2, 4, 2.2,0,0,1024,1024,1026,1024,137.8,-89.9,96,3.772,3.78,3.783,3.79,0,0,19.744,57.2,14,Waypoint,
36.6869626,-118.9584837,5100.4774069817,160.433076,0,1.95294297588,21600,2018-04-13 22:30:30,18,0,22.731,5100.4774069817,160.433076,0.447388,2.3159613602,0,0,-0.671082,138.1, 3.9, 2.3,0,0,1024,1024,1026,1024,137.8,-89.9,96,3.772,3.78,3.783,3.79,0,0,19.744,57.2,14,Waypoint,
36.6869626,-118.9584836,5102.4459109817,162.40158,0,1.98187670384,21830,2018-04-13 22:30:30,18,0,22.731,5102.4459109817,162.40158,0.447388,2.3159613602,0,0,-0.671082,138.1, 3.8, 2.4,0,0,1024,1024,1026,1024,137.8,-89.9,96,3.772,3.78,3.783,3.79,0,0,19.744,57.2,14,Waypoint,
36.6869626,-118.9584835,5103.4301629817,163.385832,0,2.01082027432,21910,2018-04-13 22:30:30,18,0,22.731,5103.4301629817,163.385832,0.447388,2.3159613602,0,0,-0.671082,138.2, 3.9, 2.5,0,0,1024,1024,1026,1024,137.8,-89.9,96,3.772,3.78,3.783,3.79,0,0,19.744,57.2,14,Waypoint,
36.6869626,-118.9584835,5103.4301629817,163.385832,0,2.01082027432,22000,2018-04-13 22:30:30,18,0,22.729,5103.4301629817,163.385832,0.447388,2.3159613602,0,0,-0.671082,138.2, 3.9, 2.5,0,0,1024,1024,1026,1024,137.8,-89.9,96,3.772,3.78,3.783,3.79,0,0,19.345,57.2,14,Waypoint,
36.6869627,-118.9584834,5105.3986669817,165.354336,0,2.03487211236,22120,2018-04-13 22:30:30,18,0,22.729,5105.3986669817,165.354336,0.447388,2.3159613602,0,0,-0.671082,138.3, 4, 2.6,0,0,1024,1024,1026,1024,137.8,-89.9,96,3.772,3.78,3.783,3.79,0,0,19.345,57.2,14,Waypoint,
36.6869627,-118.9584834,5107.6952549817,167.650924,0,2.03487211236,22310,2018-04-13 22:30:30,18,0,22.729,5107.6952549817,167.650924,0.447388,2.3159613602,0,0,-0.671082,138.2, 4.3, 2.6,0,0,1024,1024,1026,1024,137.8,-89.9,96,3.772,3.78,3.783,3.79,0,0,19.345,57.2,14,Waypoint,
36.6869627,-118.9584833,5108.6795069817,168.635176,0,2.06390098468,22500,2018-04-13 22:30:31,18,0,22.729,5108.6795069817,168.635176,0.447388,2.3159613602,0,0,-0.671082,138.2, 4.4, 2.6,0,0,1024,1024,1026,1024,137.8,-89.9,96,3.772,3.78,3.783,3.79,0,0,19.345,57.2,14,Waypoint,
36.6869627,-118.9584833,5109.3356749817,169.291344,0,2.06390098468,22600,2018-04-13 22:30:31,18,0,22.729,5109.3356749817,169.291344,0.447388,2.3159613602,0,0,-0.671082,138.2, 4.5, 2.5,0,0,1024,1024,1026,1024,137.8,-89.9,96,3.772,3.78,3.783,3.79,0,0,19.345,57.2,14,Waypoint,
36.6869627,-118.9584832,5110.3199269817,170.275596,0,2.09293641868,22700,2018-04-13 22:30:31,18,0,22.729,5110.3199269817,170.275596,0.447388,2.3159613602,0,0,-0.671082,138.2, 4.4, 2.6,0,0,1024,1024,1026,1024,137.8,-89.9,96,3.772,3.78,3.783,3.79,0,0,19.345,57.2,14,Waypoint,
36.6869627,-118.9584832,5111.3041789817,171.259848,0,2.09293641868,22800,2018-04-13 22:30:31,18,0,22.729,5111.3041789817,171.259848,0.447388,2.3159613602,0,0,-0.671082,138.2, 4.3, 2.7,0,0,1024,1024,1026,1024,137.8,-89.9,96,3.772,3.78,3.783,3.79,0,0,19.345,57.2,14,Waypoint,
36.6869628,-118.9584832,5112.2884309817,172.2441,0,2.08879927944,22900,2018-04-13 22:30:31,18,0,22.729,5112.2884309817,172.2441,0.447388,2.3159613602,0,0,-0.671082,138.2, 4.2, 2.9,0,0,1024,1024,1026,1024,137.8,-89.9,96,3.772,3.78,3.783,3.79,0,0,19.345,57.2,14,Waypoint,
36.6869628,-118.9584832,5113.2726829817,173.228352,0,2.08879927944,23000,2018-04-13 22:30:31,18,0,22.729,5113.2726829817,173.228352,0.447388,2.3159613602,0,0,-0.671082,138.2, 3.9, 2.9,0,0,1024,1024,1026,1024,137.8,-89.9,96,3.776,3.785,3.78,3.785,0,0,19.345,57.2,14,Waypoint,
36.6869629,-118.9584832,5115.2411869817,175.196856,0,2.08529206148,23120,2018-04-13 22:30:31,18,0,22.729,5115.2411869817,175.196856,0.447388,2.3159613602,0,0,-0.671082,138, 3.7, 2.9,0,0,1024,1024,1027,1024,137.8,-89.9,96,3.776,3.785,3.78,3.785,0,0,19.345,57.2,14,Waypoint,
36.6869629,-118.9584832,5116.2254389817,176.181108,0,2.08529206148,23200,2018-04-13 22:30:31,18,0,22.729,5116.2254389817,176.181108,0.447388,2.3159613602,0,0,-0.671082,137.8, 3.9, 3,0,0,1024,1024,1026,1024,137.8,-89.9,96,3.776,3.785,3.78,3.785,0,0,19.345,57.2,14,Waypoint,
36.686963,-118.9584832,5117.2096909817,177.16536,0,2.08241804564,23300,2018-04-13 22:30:31,18,0,22.729,5117.2096909817,177.16536,0.447388,2.3159613602,0,0,-0.671082,137.8, 4.1, 3.1,0,0,1024,1024,1026,1024,137.8,-89.9,96,3.776,3.785,3.78,3.785,0,0,19.345,57.2,14,Waypoint,
36.686963,-118.9584832,5118.1939429817,178.149612,0,2.08241804564,23400,2018-04-13 22:30:31,18,0,22.729,5118.1939429817,178.149612,0.447388,2.3159613602,0,0,-0.671082,137.8, 4.1, 2.8,0,0,1024,1024,1026,1024,137.8,-89.9,96,3.776,3.785,3.78,3.785,0,0,19.345,57.2,14,Waypoint,
36.686963,-118.9584832,5119.1781949817,179.133864,0,2.08241804564,23500,2018-04-13 22:30:32,18,0,22.729,5119.1781949817,179.133864,0.447388,2.3159613602,0,0,-0.671082,137.9, 4, 2.6,0,0,1024,1024,1026,1024,137.8,-89.9,96,3.776,3.785,3.78,3.785,0,0,19.345,57.2,14,Waypoint,
36.686963,-118.9584833,5120.1624469817,180.118116,0,2.053231693,23600,2018-04-13 22:30:32,18,0,22.729,5120.1624469817,180.118116,0.447388,2.3159613602,0,0,-0.671082,138, 3.9, 2.4,0,0,1024,1024,1026,1024,137.8,-89.9,96,3.776,3.785,3.78,3.785,0,0,19.345,57.2,14,Waypoint,
36.686963,-118.9584833,5120.8186149817,180.774284,0,2.053231693,23700,2018-04-13 22:30:32,18,0,22.729,5120.8186149817,180.774284,0.447388,2.3159613602,0,0,-0.671082,138.1, 3.7, 2.5,0,0,1024,1024,1027,1024,137.8,-89.9,96,3.776,3.785,3.78,3.785,0,0,19.345,57.2,14,Waypoint,
36.686963,-118.9584833,5121.8028669817,181.758536,0,2.053231693,23800,2018-04-13 22:30:32,18,0,22.729,5121.8028669817,181.758536,0.447388,2.3159613602,0,0,-0.671082,138, 3.8, 2.4,0,0,1024,1024,1026,1024,137.8,-89.9,96,3.776,3.785,3.78,3.785,0,0,19.345,57.2,14,Waypoint,
36.686963,-118.9584833,5122.7871189817,182.742788,0,2.053231693,23900,2018-04-13 22:30:32,18,0,22.729,5122.7871189817,182.742788,0.447388,2.3159613602,0,0,-0.671082,138, 4, 2.3,0,0,1024,1024,1026,1024,137.8,-89.9,96,3.776,3.785,3.78,3.785,0,0,19.345,57.2,14,Waypoint,
36.686963,-118.9584833,5123.7713709817,183.72704,0,2.053231693,24000,2018-04-13 22:30:32,18,0,22.709,5123.7713709817,183.72704,0.447388,2.3159613602,0,0,-0.671082,137.9, 4.2, 2.2,0,0,1024,1024,1026,1024,137.8,-89.9,96,3.77,3.788,3.79,3.791,0,0,19.288,57.2,14,Waypoint,
36.686963,-118.9584833,5125.0837069817,185.039376,0,2.053231693,24100,2018-04-13 22:30:32,18,0,22.709,5125.0837069817,185.039376,0.447388,2.3159613602,0,0,-0.671082,137.8, 4.3, 2.3,0,0,1024,1024,1026,1024,137.8,-89.9,96,3.77,3.788,3.79,3.791,0,0,19.288,57.2,14,Waypoint,
36.686963,-118.9584834,5126.0679589817,186.023628,0,2.0240486212,24200,2018-04-13 22:30:32,18,0,22.709,5126.0679589817,186.023628,0.447388,2.3159613602,0,0,-0.671082,137.8, 4.1, 2.4,0,0,1024,1024,1026,1024,137.8,-89.9,96,3.77,3.788,3.79,3.791,0,0,19.288,57.2,14,Waypoint,
36.686963,-118.9584834,5127.0522109817,187.00788,0,2.0240486212,24310,2018-04-13 22:30:32,18,0,22.709,5127.0522109817,187.00788,0.447388,2.3159613602,0,0,-0.671082,137.7, 3.9, 2.4,0,0,1024,1024,1026,1024,137.8,-90,96,3.77,3.788,3.79,3.791,0,0,19.288,57.2,14,Waypoint,
36.6869631,-118.9584835,5128.0364629817,187.992132,0,1.99253287216,24500,2018-04-13 22:30:33,18,0,22.709,5128.0364629817,187.992132,0.447388,2.3159613602,0,0,-0.671082,137.7, 3.8, 2.4,0,0,1024,1024,1026,1024,137.8,-89.9,96,3.77,3.788,3.79,3.791,0,0,19.288,57.2,14,Waypoint,
36.6869631,-118.9584836,5129.0207149817,188.976384,0,1.9633202728,24600,2018-04-13 22:30:33,18,0,22.709,5129.0207149817,188.976384,0.447388,2.3159613602,0,0,-0.671082,137.7, 3.7, 2.2,0,0,1024,1024,1026,1024,137.8,-89.9,96,3.77,3.788,3.79,3.791,0,0,19.288,57.2,14,Waypoint,
36.6869631,-118.9584836,5130.0049669817,189.960636,0,1.9633202728,24700,2018-04-13 22:30:33,18,0,22.709,5130.0049669817,189.960636,0.447388,2.3159613602,0,0,-0.671082,137.7, 3.5, 2.1,0,0,1024,1024,1026,1024,137.8,-90,96,3.77,3.788,3.79,3.791,0,0,19.288,57.2,14,Waypoint,
36.6869631,-118.9584837,5130.9892189817,190.944888,0,1.93410767344,24800,2018-04-13 22:30:33,18,0,22.709,5130.9892189817,190.944888,0.447388,2.3159613602,0,0,-0.671082,137.8, 3.5, 2,0,0,1024,1024,1026,1024,137.8,-89.9,96,3.77,3.788,3.79,3.791,0,0,19.288,57.2,14,Waypoint,
36.6869631,-118.9584838,5131.9734709817,191.92914,0,1.90489835492,24900,2018-04-13 22:30:33,18,0,22.709,5131.9734709817,191.92914,0.447388,2.3159613602,0,0,-0.671082,137.8, 3.5, 1.9,0,0,1024,1024,1026,1024,137.8,-89.9,96,3.77,3.788,3.79,3.791,0,0,19.288,57.2,14,Waypoint,
36.6869631,-118.9584838,5132.9577229817,192.913392,0,1.90489835492,25000,2018-04-13 22:30:33,18,0,22.771,5132.9577229817,192.913392,0.447388,2.3159613602,0,0,-0.671082,137.9, 3.5, 1.7,0,0,1024,1024,1026,1024,137.8,-89.9,96,3.759,3.782,3.78,3.788,0,0,19.398,59,14,Waypoint,
36.686963,-118.9584839,5133.9419749817,193.897644,0,1.87817263228,25140,2018-04-13 22:30:33,18,0,22.771,5133.9419749817,193.897644,0.447388,2.3159613602,0,0,-0.671082,137.9, 3.5, 1.8,0,0,1024,1024,1026,1024,137.8,-90,96,3.759,3.782,3.78,3.788,0,0,19.398,59,14,Waypoint,
36.686963,-118.9584839,5133.9419749817,193.897644,0,1.87817263228,25200,2018-04-13 22:30:33,18,0,22.771,5133.9419749817,193.897644,0.447388,2.3159613602,0,0,-0.671082,137.9, 3.5, 1.8,0,0,1024,1024,1026,1024,137.8,-90,96,3.759,3.782,3.78,3.788,0,0,19.398,59,14,Waypoint,
36.6869631,-118.958484,5134.9262269817,194.881896,0,1.84648299872,25300,2018-04-13 22:30:33,18,0,22.771,5134.9262269817,194.881896,0.447388,2.3159613602,0,0,-0.671082,137.9, 3.5, 1.8,0,0,1024,1024,1026,1024,137.8,-90,96,3.759,3.782,3.78,3.788,0,0,19.398,59,14,Waypoint,
36.686963,-118.9584841,5136.8947309817,196.8504,0,1.81983929708,25410,2018-04-13 22:30:33,18,0,22.771,5136.8947309817,196.8504,0.447388,2.3159613602,0,0,-0.671082,138, 3.3, 1.8,0,0,1024,1024,1027,1024,137.8,-90,96,3.759,3.782,3.78,3.788,0,0,19.398,59,14,Waypoint,
36.686963,-118.9584842,5138.8632349817,198.818904,0,1.79067591032,25600,2018-04-13 22:30:34,18,0,22.771,5138.8632349817,198.818904,0.447388,2.3159613602,0,0,-0.671082,138.2, 3.4, 1.8,0,0,1024,1024,1026,1024,137.8,-89.9,96,3.759,3.782,3.78,3.788,0,0,19.398,59,14,Waypoint,
36.686963,-118.9584843,5139.8474869817,199.803156,0,1.76151908524,25700,2018-04-13 22:30:34,18,0,22.771,5139.8474869817,199.803156,0.447388,2.3159613602,0,0,-0.671082,138.3, 3.3, 1.8,0,0,1024,1024,1026,1024,137.8,-89.9,96,3.759,3.782,3.78,3.788,0,0,19.398,59,14,Waypoint,
36.686963,-118.9584843,5140.8317389817,200.787408,0,1.76151908524,25800,2018-04-13 22:30:34,18,0,22.771,5140.8317389817,200.787408,0.447388,2.3159613602,0,0,-0.671082,138.3, 3.3, 1.7,0,0,1024,1024,1027,1024,137.8,-90,96,3.759,3.782,3.78,3.788,0,0,19.398,59,14,Waypoint,
36.686963,-118.9584843,5141.8159909817,201.77166,0,1.76151908524,26000,2018-04-13 22:30:34,18,0,22.747,5141.8159909817,201.77166,0.447388,2.3159613602,0,0,-0.671082,138.3, 3.5, 1.9,0,0,1024,1024,1027,1024,137.8,-89.9,96,3.777,3.785,3.795,3.792,0,0,18.445,59,14,Waypoint,
36.686963,-118.9584842,5142.8002429817,202.755912,0,1.79067591032,26110,2018-04-13 22:30:34,18,0,22.747,5142.8002429817,202.755912,0.447388,2.3159613602,0,0,-0.671082,138.3, 3.8, 2,0,0,1024,1024,1026,1024,137.8,-89.9,96,3.777,3.785,3.795,3.792,0,0,18.445,59,14,Waypoint,
36.686963,-118.9584842,5143.7844949817,203.740164,0,1.79067591032,26210,2018-04-13 22:30:34,18,0,22.747,5143.7844949817,203.740164,0.447388,2.3159613602,0,0,-0.671082,138.4, 3.8, 2.5,0,0,1024,1024,1026,1024,137.8,-89.9,96,3.777,3.785,3.795,3.792,0,0,18.445,59,14,Waypoint,
36.6869631,-118.9584841,5144.7687469817,204.724416,0,1.81727696104,26400,2018-04-13 22:30:34,18,0,22.747,5144.7687469817,204.724416,0.447388,2.3159613602,0,0,-0.671082,138.3, 3.5, 3.5,0,0,1024,1024,1027,1024,137.8,-90,96,3.777,3.785,3.795,3.792,0,0,18.445,59,14,Waypoint,
36.6869631,-118.9584841,5145.7529989817,205.708668,0,1.81727696104,26500,2018-04-13 22:30:35,18,0,22.747,5145.7529989817,205.708668,0.447388,2.3159613602,0,0,-0.671082,138.1, 3.2, 3.9,0,0,1024,1024,1026,1024,137.8,-90,96,3.777,3.785,3.795,3.792,0,0,18.445,59,14,Waypoint,
36.6869632,-118.958484,5147.0653349817,207.021004,0,1.84467853672,26600,2018-04-13 22:30:35,18,0,22.747,5147.0653349817,207.021004,0.447388,2.3159613602,0,0,-0.671082,138, 3.2, 3.7,0,0,1024,1024,1026,1024,137.8,-90,96,3.777,3.785,3.795,3.792,0,0,18.445,59,14,Waypoint,
36.6869632,-118.9584839,5148.0495869817,208.005256,0,1.87391410196,26700,2018-04-13 22:30:35,18,0,22.747,5148.0495869817,208.005256,0.447388,2.3159613602,0,0,-0.671082,137.8, 3.3, 3.9,0,0,1024,1024,1026,1024,137.8,-89.9,96,3.777,3.785,3.795,3.792,0,0,18.445,59,14,Waypoint,
36.6869632,-118.9584838,5148.7057549817,208.661424,0,1.9031496672,26800,2018-04-13 22:30:35,18,0,22.747,5148.7057549817,208.661424,0.447388,2.3159613602,0,0,-0.671082,137.8, 3.7, 4.2,0,0,1024,1024,1026,1024,137.8,-89.9,96,3.777,3.785,3.795,3.792,0,0,18.445,59,14,Waypoint,
36.6869632,-118.9584837,5149.6900069817,209.645676,0,1.93238523244,26900,2018-04-13 22:30:35,18,0,22.747,5149.6900069817,209.645676,0.447388,2.3159613602,0,0,-0.671082,137.9, 4.2, 4.3,0,0,1024,1024,1026,1024,137.8,-89.9,96,3.777,3.785,3.795,3.792,0,0,18.445,59,14,Waypoint,
36.6869633,-118.9584836,5150.6742589817,210.629928,0,1.96060373728,27000,2018-04-13 22:30:35,18,0,22.666,5150.6742589817,210.629928,0.447388,2.3159613602,0,0,-0.671082,138, 4.6, 4.4,0,0,1024,1024,1027,1024,137.8,-89.9,95,3.754,3.785,3.775,3.784,0,0,18.756,59,14,Waypoint,
36.6869633,-118.9584835,5151.6585109817,211.61418,0,1.98985898756,27100,2018-04-13 22:30:35,18,0,22.666,5151.6585109817,211.61418,0.447388,2.3159613602,0,0,-0.671082,138.1, 4.7, 4.4,0,0,1024,1024,1026,1024,137.8,-89.9,95,3.754,3.785,3.775,3.784,0,0,18.756,59,14,Waypoint,
36.6869632,-118.9584834,5153.6270149817,213.582684,0,2.02009848984,27400,2018-04-13 22:30:35,18,0,22.666,5153.6270149817,213.582684,0.447388,2.3159613602,0,0,-0.671082,138.1, 4.6, 4.2,0,0,1024,1024,1026,1024,137.8,-89.9,95,3.754,3.785,3.775,3.784,0,0,18.756,59,14,Waypoint,
36.6869632,-118.9584833,5155.9236029817,215.879272,0,2.04933733592,27510,2018-04-13 22:30:36,18,0,22.666,5155.9236029817,215.879272,0.447388,2.3159613602,0,0,-0.671082,138, 4.2, 3.9,0,0,1024,1024,1026,1024,137.8,-89.9,95,3.754,3.785,3.775,3.784,0,0,18.756,59,14,Waypoint,
36.6869633,-118.9584833,5156.5797709817,216.53544,0,2.04836292644,27700,2018-04-13 22:30:36,18,0,22.666,5156.5797709817,216.53544,0.447388,2.3159613602,0,0,-0.671082,138, 4.1, 3.8,0,0,1024,1024,1026,1024,137.8,-89.9,95,3.754,3.785,3.775,3.784,0,0,18.756,59,14,Waypoint,
