latitude,longitude,altitude(feet),ascent(feet),speed(mph),distance(feet),time(millisecond),datetime(utc),satellites,gpslevel,voltage(v),max_altitude(feet),max_ascent(feet),max_speed(mph),max_distance(feet), xSpeed(mph), ySpeed(mph), zSpeed(mph), compass_heading(degrees), pitch(degrees), roll(degrees),isPhoto,isVideo,rc_elevator,rc_aileron,rc_throttle,rc_rudder,gimbal_heading(degrees),gimbal_pitch(degrees),battery_percent,voltageCell1,voltageCell2,voltageCell3,voltageCell4,voltageCell5,voltageCell6,current(A),battery_temperature(f),flycStateRaw,flycState,message
36.9906774,-119.1416905,5650.2116250325,0,0.3131716,0,3200,2018-06-13 22:07:54,14,0,0,5650.2116250325,0,0.3131716,0,0,0,0,83.3, 1.9, -1.1,1,0,1024,1024,1024,1024,82.7,-90,98,4.202,4.283,4.304,4.309,4.309,4.299,0,93.2,11,AutoTakeoff,DJI_0001.jpg Starting Mission from Lat/Long: 36.99068/-119.14171 Camera: Zenmuse X3 - Overlap: 90/90 - Active Connection: No
36.9906775,-119.1416906,5650.2116250325,0,0.3131716,0.0466945553,3300,2018-06-13 22:07:54,14,0,0,5650.2116250325,0,0.3131716,0.0466945553,0,0,0,83.4, 1, -0.2,0,0,1024,1024,1024,1024,82.8,-90,98,4.202,4.283,4.304,4.309,4.309,4.299,0,93.2,11,AutoTakeoff,
36.9906776,-119.1416908,5650.2116250325,0,0.3131716,0.113875987896,3400,2018-06-13 22:07:55,13,0,0,5650.2116250325,0,0.3131716,0.113875987896,0,0,0,83.4, 0.1, 0.4,0,0,1024,1024,1024,1024,82.7,-90,98,4.202,4.283,4.304,4.309,4.309,4.299,0,93.2,11,AutoTakeoff,
36.9906778,-119.1416909,5650.2116250325,0,0.3131716,0.186778549284,3500,2018-06-13 22:07:55,13,0,0,5650.2116250325,0,0.3131716,0.186778549284,0,0,0,83.3, -0.6, 0.7,0,0,1024,1024,1024,1024,82.7,-90,98,4.202,4.283,4.304,4.309,4.309,4.299,0,93.2,11,AutoTakeoff,
36.9906779,-119.141691,5650.5397090325,0.328084,0.4921268,0.233473432668,3600,2018-06-13 22:07:55,14,0,0,5650.5397090325,0.328084,0.4921268,0.233473432668,0,0,0,83.2, -0.9, 1.2,0,0,1024,1024,1024,1024,82.7,-89.9,98,4.202,4.283,4.304,4.309,4.309,4.299,0,93.2,11,AutoTakeoff,
36.9906781,-119.1416911,5650.5397090325,0.328084,0.447388,0.309514117516,3700,2018-06-13 22:07:55,14,0,0,5650.5397090325,0.328084,0.4921268,0.309514117516,0,0,0,83.1, -1.1, 2,0,0,1024,1024,1024,1024,82.7,-89.9,98,4.202,4.283,4.304,4.309,4.309,4.299,0,93.2,11,AutoTakeoff,
36.9906783,-119.1416912,5650.8677930325,0.656168,0.447388,0.38656825384,3800,2018-06-13 22:07:55,13,0,0,5650.8677930325,0.656168,0.4921268,0.38656825384,0,0,-0.223694,83.1, -0.9, 2.6,0,0,1024,1024,1024,1024,82.7,-89.9,98,4.202,4.283,4.304,4.309,4.309,4.299,0,93.2,11,AutoTakeoff,
36.9906786,-119.1416912,5651.1958770325,0.984252,0.223694,0.48300854564,3900,2018-06-13 22:07:55,11,0,0,5651.1958770325,0.984252,0.4921268,0.48300854564,0,0,0,83.1, 0.1, 2.6,0,0,1024,1024,1024,1024,82.7,-89.9,98,4.202,4.283,4.304,4.309,4.309,4.299,0,93.2,11,AutoTakeoff,
36.9906787,-119.1416911,5651.1958770325,0.984252,0.223694,0.50550526552,4000,2018-06-13 22:07:55,11,0,25.712,5651.1958770325,0.984252,0.4921268,0.50550526552,0,0,0,83.1, 0.3, 2.5,0,0,1024,1024,1024,1024,82.7,-89.9,98,4.202,4.283,4.304,4.309,4.309,4.299,3.593,93.2,11,AutoTakeoff,
36.9906789,-119.141691,5651.5239610325,1.312336,0.223694,0.5663386008,4200,2018-06-13 22:07:55,14,0,25.712,5651.5239610325,1.312336,0.4921268,0.5663386008,0,0,0,83, 0.6, 1.9,0,0,1024,1024,1024,1024,82.7,-89.9,98,4.202,4.283,4.304,4.309,4.309,4.299,3.593,93.2,11,AutoTakeoff,
36.9906789,-119.141691,5651.8520450325,1.64042,0.223694,0.5663386008,4400,2018-06-13 22:07:56,14,0,25.712,5651.8520450325,1.64042,0.4921268,0.5663386008,0,0,0,82.9, 0.6, 1.6,0,0,1024,1024,1024,1024,82.7,-89.9,98,4.202,4.283,4.304,4.309,4.309,4.299,3.593,93.2,11,AutoTakeoff,
36.990679,-119.1416909,5651.8520450325,1.64042,0,0.59528217128,4500,2018-06-13 22:07:56,14,0,25.712,5651.8520450325,1.64042,0.4921268,0.59528217128,0,0,0,82.9, 0.6, 1.4,0,0,1024,1024,1024,1024,82.7,-89.9,98,4.202,4.283,4.304,4.309,4.309,4.299,3.593,93.2,11,AutoTakeoff,
36.990679,-119.1416909,5652.1801290325,1.968504,0,0.59528217128,4600,2018-06-13 22:07:56,14,0,25.712,5652.1801290325,1.968504,0.4921268,0.59528217128,0,0,0,82.8, 0.6, 1.3,0,0,1024,1024,1024,1024,82.7,-89.9,98,4.202,4.283,4.304,4.309,4.309,4.299,3.593,93.2,11,AutoTakeoff,
36.9906791,-119.1416908,5652.1801290325,1.968504,0,0.62637469196,4700,2018-06-13 22:07:56,14,0,25.712,5652.1801290325,1.968504,0.4921268,0.62637469196,0,0,-0.223694,82.7, 0.7, 1.2,0,0,1024,1024,1024,1024,82.7,-89.9,98,4.202,4.283,4.304,4.309,4.309,4.299,3.593,93.2,11,AutoTakeoff,
36.9906792,-119.1416907,5652.5082130325,2.296588,0.223694,0.65931104472,4800,2018-06-13 22:07:56,14,0,25.712,5652.5082130325,2.296588,0.4921268,0.65931104472,0,0,-0.223694,82.7, 0.9, 1.4,0,0,1024,1024,1024,1024,82.7,-89.9,98,4.202,4.283,4.304,4.309,4.309,4.299,3.593,93.2,11,AutoTakeoff,
36.9906793,-119.1416907,5652.5082130325,2.296588,0.223694,0.69565947108,4900,2018-06-13 22:07:56,14,0,25.712,5652.5082130325,2.296588,0.4921268,0.69565947108,0,0,-0.223694,82.8, 1.1, 1.7,0,0,1024,1024,1024,1024,82.7,-89.9,98,4.202,4.283,4.304,4.309,4.309,4.299,3.593,93.2,11,AutoTakeoff,
36.9906794,-119.1416906,5652.8362970325,2.624672,0.223694,0.73027889476,5000,2018-06-13 22:07:56,13,0,25.017,5652.8362970325,2.624672,0.4921268,0.73027889476,0,0,-0.223694,82.9, 1.2, 1.8,0,0,1024,1024,1024,1024,82.7,-89.9,98,4.098,4.135,4.126,4.163,4.152,4.151,13.343,93.2,11,AutoTakeoff,
36.9906795,-119.1416905,5652.8362970325,2.624672,0.223694,0.76618440772,5100,2018-06-13 22:07:56,13,0,25.017,5652.8362970325,2.624672,0.4921268,0.76618440772,0,0,0,83.1, 1.2, 1.8,0,0,1024,1024,1024,1024,82.7,-89.9,98,4.098,4.135,4.126,4.163,4.152,4.151,13.343,93.2,11,AutoTakeoff,
36.9906796,-119.1416904,5653.1643810325,2.952756,0,0.8031988446,5200,2018-06-13 22:07:56,13,0,25.017,5653.1643810325,2.952756,0.4921268,0.8031988446,0,0,-0.223694,83.2, 1.1, 1.8,0,0,1024,1024,1024,1024,82.7,-89.9,98,4.098,4.135,4.126,4.163,4.152,4.151,13.343,93.2,6,P-GPS,
36.9906798,-119.1416904,5653.1643810325,2.952756,0,0.87612207528,5300,2018-06-13 22:07:56,13,0,25.017,5653.1643810325,2.952756,0.4921268,0.87612207528,0,0,-0.223694,83.4, 1.1, 1.9,0,0,1024,1024,1024,1024,82.7,-89.9,98,4.098,4.135,4.126,4.163,4.152,4.151,13.343,93.2,14,Waypoint,
36.9906798,-119.1416903,5653.4924650325,3.28084,0,0.8775754874,5400,2018-06-13 22:07:57,14,0,25.017,5653.4924650325,3.28084,0.4921268,0.8775754874,0,0,0,83.6, 1.1, 2,0,0,1024,1024,1024,1024,82.7,-89.9,98,4.098,4.135,4.126,4.163,4.152,4.151,13.343,93.2,14,Waypoint,
36.9906799,-119.1416903,5653.4924650325,3.28084,0,0.91398296888,5500,2018-06-13 22:07:57,14,0,25.017,5653.4924650325,3.28084,0.4921268,0.91398296888,0,0,0,83.8, 1, 1.8,0,0,1024,1024,1024,1024,82.7,-89.9,98,4.098,4.135,4.126,4.163,4.152,4.151,13.343,93.2,14,Waypoint,
36.99068,-119.1416902,5653.8205490325,3.608924,0,0.95262798324,5600,2018-06-13 22:07:57,14,0,25.017,5653.8205490325,3.608924,0.4921268,0.95262798324,0,0,0,84, 0.8, 1.7,0,0,1024,1024,1024,1024,82.7,-90,98,4.098,4.135,4.126,4.163,4.152,4.151,13.343,93.2,14,Waypoint,
36.9906801,-119.1416902,5653.8205490325,3.608924,0,0.98896656708,5700,2018-06-13 22:07:57,14,0,25.017,5653.8205490325,3.608924,0.4921268,0.98896656708,0,0,0,84.1, 0.7, 1.7,0,0,1024,1024,1024,1024,82.8,-90,98,4.098,4.135,4.126,4.163,4.152,4.151,13.343,93.2,14,Waypoint,
36.9906801,-119.1416902,5654.1486330325,3.937008,0,0.98896656708,5800,2018-06-13 22:07:57,13,0,25.017,5654.1486330325,3.937008,0.4921268,0.98896656708,0,0,-0.223694,84.2, 0.7, 1.9,0,0,1024,1024,1024,1024,82.8,-89.9,98,4.098,4.135,4.126,4.163,4.152,4.151,13.343,93.2,14,Waypoint,
36.9906801,-119.1416902,5654.1486330325,3.937008,0,0.98896656708,5900,2018-06-13 22:07:57,13,0,25.017,5654.1486330325,3.937008,0.4921268,0.98896656708,0,0,-0.223694,84.2, 0.8, 1.8,0,0,1024,1024,1024,1024,82.8,-89.9,98,4.098,4.135,4.126,4.163,4.152,4.151,13.343,93.2,14,Waypoint,
36.9906802,-119.1416901,5654.4767170325,4.265092,0,1.02820869432,6000,2018-06-13 22:07:57,13,0,24.678,5654.4767170325,4.265092,0.4921268,1.02820869432,0,0,-0.223694,84, 1, 1.7,0,0,1024,1024,1024,1024,82.8,-89.9,98,4.08,4.098,4.103,4.114,4.125,4.1,16.582,93.2,14,Waypoint,
36.9906802,-119.1416901,5654.8048010325,4.593176,0,1.02820869432,6100,2018-06-13 22:07:57,13,0,24.678,5654.8048010325,4.593176,0.4921268,1.02820869432,0,0,-0.223694,83.9, 1.1, 1.8,0,0,1024,1024,1024,1024,82.8,-89.9,98,4.08,4.098,4.103,4.114,4.125,4.1,16.582,93.2,14,Waypoint,
36.9906805,-119.1416901,5655.4609690325,5.249344,0,1.1370243146,6200,2018-06-13 22:07:57,13,0,24.678,5655.4609690325,5.249344,0.4921268,1.1370243146,0,0,-0.223694,83.6, 0.9, 2.1,0,0,1024,1024,1024,1024,82.9,-90,98,4.08,4.098,4.103,4.114,4.125,4.1,16.582,93.2,14,Waypoint,
36.9906806,-119.14169,5655.7890530325,5.577428,0,1.1765748408,6300,2018-06-13 22:07:57,12,0,24.678,5655.7890530325,5.577428,0.4921268,1.1765748408,0,0,-0.447388,83.6, 0.7, 2.4,0,0,1024,1024,1024,1024,82.9,-90,98,4.08,4.098,4.103,4.114,4.125,4.1,16.582,93.2,14,Waypoint,
36.9906807,-119.1416899,5656.4452210325,6.233596,0,1.2166338972,6400,2018-06-13 22:07:58,12,0,24.678,5656.4452210325,6.233596,0.4921268,1.2166338972,0,0,-0.447388,83.7, 0.8, 2.6,0,0,1024,1024,1024,1024,82.9,-89.9,98,4.08,4.098,4.103,4.114,4.125,4.1,16.582,93.2,14,Waypoint,
36.9906807,-119.1416898,5657.1013890325,6.889764,0,1.2211614564,6500,2018-06-13 22:07:58,13,0,24.678,5657.1013890325,6.889764,0.4921268,1.2211614564,0,0,-0.447388,83.8, 0.9, 2.5,0,0,1024,1024,1024,1024,82.9,-89.9,98,4.08,4.098,4.103,4.114,4.125,4.1,16.582,93.2,14,Waypoint,
36.9906806,-119.1416897,5658.0856410325,7.874016,0,1.1905676234,6600,2018-06-13 22:07:58,13,0,24.678,5658.0856410325,7.874016,0.4921268,1.2211614564,0,0,-0.447388,84, 1.1, 2.1,0,0,1024,1024,1024,1024,82.9,-89.9,98,4.08,4.098,4.103,4.114,4.125,4.1,16.582,93.2,14,Waypoint,
36.9906807,-119.1416896,5658.7418090325,8.530184,0,1.23223757224,6800,2018-06-13 22:07:58,14,0,24.678,5658.7418090325,8.530184,0.4921268,1.23223757224,0,0,-0.671082,84.1, 1.4, 1.6,0,0,1024,1024,1024,1024,82.9,-89.9,98,4.08,4.098,4.103,4.114,4.125,4.1,16.582,93.2,14,Waypoint,
36.9906808,-119.1416895,5659.7260610325,9.514436,0,1.27425857096,6900,2018-06-13 22:07:58,14,0,24.678,5659.7260610325,9.514436,0.4921268,1.27425857096,0,0,-0.671082,84.3, 1.3, 1.4,0,0,1024,1024,1024,1024,83,-89.9,98,4.08,4.098,4.103,4.114,4.125,4.1,16.582,93.2,14,Waypoint,
36.9906809,-119.1416894,5660.3822290325,10.170604,0,1.31659453032,7000,2018-06-13 22:07:58,13,0,24.599,5660.3822290325,10.170604,0.4921268,1.31659453032,0,0,-0.671082,84.5, 1.3, 1.7,0,0,1024,1024,1024,1024,83,-89.9,98,4.086,4.074,4.086,4.109,4.18,4.075,15.659,93.2,14,Waypoint,
36.9906809,-119.1416893,5661.6945650325,11.48294,0,1.32398954368,7100,2018-06-13 22:07:58,13,0,24.599,5661.6945650325,11.48294,0.4921268,1.32398954368,0,0,-0.671082,84.6, 1.4, 2.1,0,0,1024,1024,1024,1024,83,-89.9,98,4.086,4.074,4.086,4.109,4.18,4.075,15.659,93.2,14,Waypoint,
36.990681,-119.1416892,5662.6788170325,12.467192,0,1.36700135608,7200,2018-06-13 22:07:58,14,0,24.599,5662.6788170325,12.467192,0.4921268,1.36700135608,0,0,-0.671082,84.6, 1.6, 2.4,0,0,1024,1024,1024,1024,83,-89.9,98,4.086,4.074,4.086,4.109,4.18,4.075,15.659,93.2,14,Waypoint,
36.9906811,-119.1416892,5663.6630690325,13.451444,0,1.40209322072,7300,2018-06-13 22:07:58,14,0,24.599,5663.6630690325,13.451444,0.4921268,1.40209322072,0,0,-0.671082,84.5, 1.7, 2.6,0,0,1024,1024,1024,1024,83,-89.9,98,4.086,4.074,4.086,4.109,4.18,4.075,15.659,93.2,14,Waypoint,
36.990681,-119.1416891,5664.6473210325,14.435696,0,1.37536421724,7400,2018-06-13 22:07:59,14,0,24.599,5664.6473210325,14.435696,0.4921268,1.40209322072,0,0,-0.671082,84.4, 1.7, 2.6,0,0,1024,1024,1024,1024,83,-89.9,98,4.086,4.074,4.086,4.109,4.18,4.075,15.659,93.2,14,Waypoint,
36.990681,-119.1416888,5665.9596570325,15.748032,0,1.40378285332,7500,2018-06-13 22:07:59,14,0,24.599,5665.9596570325,15.748032,0.4921268,1.40378285332,0,0,-0.671082,84.3, 1.8, 2.4,0,0,1024,1024,1024,1024,83,-89.9,98,4.086,4.074,4.086,4.109,4.18,4.075,15.659,93.2,14,Waypoint,
36.9906809,-119.1416888,5666.9439090325,16.732284,0,1.36970476824,7600,2018-06-13 22:07:59,14,0,24.599,5666.9439090325,16.732284,0.4921268,1.40378285332,0,0,-0.671082,84.2, 1.9, 2,0,0,1024,1024,1024,1024,83,-89.9,98,4.086,4.074,4.086,4.109,4.18,4.075,15.659,93.2,14,Waypoint,
36.9906807,-119.1416888,5667.9281610325,17.716536,0,1.30194229888,7700,2018-06-13 22:07:59,14,0,24.599,5667.9281610325,17.716536,0.4921268,1.40378285332,0,0,-0.671082,84.1, 1.9, 1.5,0,0,1024,1024,1024,1024,83.1,-89.9,98,4.086,4.074,4.086,4.109,4.18,4.075,15.659,93.2,14,Waypoint,
36.9906806,-119.1416887,5669.2404970325,19.028872,0,1.27994098584,7800,2018-06-13 22:07:59,14,0,24.599,5669.2404970325,19.028872,0.4921268,1.40378285332,0,0,-0.671082,84.1, 1.8, 1.2,0,0,1024,1024,1024,1024,83.1,-89.9,98,4.086,4.074,4.086,4.109,4.18,4.075,15.659,93.2,14,Waypoint,
36.9906805,-119.1416886,5670.2247490325,20.013124,0,1.25929137888,7900,2018-06-13 22:07:59,14,0,24.599,5670.2247490325,20.013124,0.4921268,1.40378285332,0,0,-0.671082,84.1, 1.7, 1,0,0,1024,1024,1024,1024,83.1,-89.9,98,4.086,4.074,4.086,4.109,4.18,4.075,15.659,93.2,14,Waypoint,
36.9906804,-119.1416886,5671.2090010325,20.997376,0,1.22662733584,8000,2018-06-13 22:07:59,14,0,24.323,5671.2090010325,20.997376,0.4921268,1.40378285332,0,0,-0.671082,84.1, 1.6, 1,0,0,1024,1024,1024,1024,83.1,-89.9,98,4.004,4.039,4.029,4.047,4.079,4.023,19.52,93.2,14,Waypoint,
36.9906803,-119.1416885,5672.5213370325,22.309712,0,1.2079724796,8100,2018-06-13 22:07:59,14,0,24.323,5672.5213370325,22.309712,0.4921268,1.40378285332,0,0,-0.671082,84.2, 1.5, 0.8,0,0,1024,1024,1024,1024,83.1,-89.9,98,4.004,4.039,4.029,4.047,4.079,4.023,19.52,93.2,14,Waypoint,
36.9906799,-119.1416886,5674.4898410325,24.278216,0,1.0670275932,8200,2018-06-13 22:07:59,14,0,24.323,5674.4898410325,24.278216,0.4921268,1.40378285332,0,0,-0.671082,84.3, 1.6, 0.4,0,0,1024,1024,1024,1024,83.1,-89.9,98,4.004,4.039,4.029,4.047,4.079,4.023,19.52,93.2,14,Waypoint,
36.9906799,-119.1416887,5675.4740930325,25.262468,0,1.0521981964,8300,2018-06-13 22:07:59,14,0,24.323,5675.4740930325,25.262468,0.4921268,1.40378285332,0,0,-0.671082,84.3, 1.4, 0.3,0,0,1024,1024,1024,1024,83.1,-89.9,98,4.004,4.039,4.029,4.047,4.079,4.023,19.52,93.2,14,Waypoint,
36.9906799,-119.1416887,5676.7864290325,26.574804,0,1.0521981964,8400,2018-06-13 22:08:00,14,0,24.323,5676.7864290325,26.574804,0.4921268,1.40378285332,0,0,-0.671082,84.3, 1.2, 0.2,0,0,1024,1024,1024,1024,83.1,-89.9,98,4.004,4.039,4.029,4.047,4.079,4.023,19.52,93.2,14,Waypoint,
36.9906798,-119.1416888,5677.7706810325,27.559056,0,1.006069586,8510,2018-06-13 22:08:00,14,0,24.323,5677.7706810325,27.559056,0.4921268,1.40378285332,0,0,-0.671082,84.2, 1.1, 0.5,0,0,1024,1024,1024,1024,83.1,-90,98,4.004,4.039,4.029,4.047,4.079,4.023,19.52,93.2,14,Waypoint,
36.9906797,-119.141689,5680.0672690325,29.855644,0,0.94618113264,8700,2018-06-13 22:08:00,14,0,24.323,5680.0672690325,29.855644,0.4921268,1.40378285332,0,0,-0.671082,84.2, 0.8, 0.8,0,0,1024,1024,1024,1024,83.1,-90,98,4.004,4.039,4.029,4.047,4.079,4.023,19.52,93.2,14,Waypoint,
36.9906797,-119.1416891,5681.0515210325,30.839896,0,0.93307417684,8800,2018-06-13 22:08:00,14,0,24.323,5681.0515210325,30.839896,0.4921268,1.40378285332,0,0,-0.671082,84.2, 0.8, 0.8,0,0,1024,1024,1024,1024,83.1,-90,98,4.004,4.039,4.029,4.047,4.079,4.023,19.52,93.2,14,Waypoint,
36.9906797,-119.1416892,5682.0357730325,31.824148,0,0.92070541004,9000,2018-06-13 22:08:00,14,0,24.011,5682.0357730325,31.824148,0.4921268,1.40378285332,0,0,-0.671082,84.3, 0.8, 0.9,0,0,1024,1024,1024,1024,83.1,-90,98,4.035,4.041,4.038,4.038,4.047,4.03,18.812,93.2,14,Waypoint,
36.9906799,-119.1416894,5684.3323610325,34.120736,0,0.9668143354,9100,2018-06-13 22:08:00,14,0,24.011,5684.3323610325,34.120736,0.4921268,1.40378285332,0,0,-0.671082,84.3, 0.9, 1.8,0,0,1024,1024,1024,1024,83.1,-89.9,98,4.035,4.041,4.038,4.038,4.047,4.03,18.812,93.2,14,Waypoint,
36.9906801,-119.1416895,5685.3166130325,35.104988,0,1.02729333996,9300,2018-06-13 22:08:00,14,0,24.011,5685.3166130325,35.104988,0.4921268,1.40378285332,0,0,-0.671082,84.2, 1.1, 2.3,0,0,1024,1024,1024,1024,83.1,-89.9,98,4.035,4.041,4.038,4.038,4.047,4.03,18.812,93.2,14,Waypoint,
36.9906802,-119.1416896,5686.3008650325,36.08924,0,1.054708039,9400,2018-06-13 22:08:01,13,0,24.011,5686.3008650325,36.08924,0.4921268,1.40378285332,0,0,-0.671082,84.3, 0.9, 2.8,0,0,1024,1024,1024,1024,83.1,-90,98,4.035,4.041,4.038,4.038,4.047,4.03,18.812,93.2,14,Waypoint,
36.9906802,-119.1416897,5687.2851170325,37.073492,0,1.04784124088,9500,2018-06-13 22:08:01,13,0,24.011,5687.2851170325,37.073492,0.4921268,1.40378285332,0,0,-0.671082,84.2, 0.7, 2.9,0,0,1024,1024,1024,1024,83.1,-90,98,4.035,4.041,4.038,4.038,4.047,4.03,18.812,93.2,14,Waypoint,
36.9906802,-119.1416898,5688.2693690325,38.057744,0,1.04174544016,9600,2018-06-13 22:08:01,13,0,24.011,5688.2693690325,38.057744,0.4921268,1.40378285332,0,0,-0.671082,84.2, 0.6, 2.7,0,0,1024,1024,1024,1024,83.1,-90,98,4.035,4.041,4.038,4.038,4.047,4.03,18.812,93.2,14,Waypoint,
36.9906802,-119.1416898,5689.2536210325,39.041996,0,1.04174544016,9700,2018-06-13 22:08:01,13,0,24.011,5689.2536210325,39.041996,0.4921268,1.40378285332,0,0,-0.671082,84.1, 0.6, 2.4,0,0,1024,1024,1024,1024,83.1,-90,98,4.035,4.041,4.038,4.038,4.047,4.03,18.812,93.2,14,Waypoint,
36.9906802,-119.1416899,5690.2378730325,40.026248,0,1.0364337602,9800,2018-06-13 22:08:01,13,0,24.011,5690.2378730325,40.026248,0.4921268,1.40378285332,0,0,-0.671082,84.1, 0.8, 2.1,0,0,1024,1024,1024,1024,83.1,-89.9,98,4.035,4.041,4.038,4.038,4.047,4.03,18.812,93.2,14,Waypoint,
36.9906801,-119.1416899,5691.5502090325,41.338584,0,1.000492158,9900,2018-06-13 22:08:01,13,0,24.011,5691.5502090325,41.338584,0.4921268,1.40378285332,0,0,-0.671082,84.1, 1, 1.8,0,0,1024,1024,1024,1024,83.1,-89.9,98,4.035,4.041,4.038,4.038,4.047,4.03,18.812,93.2,14,Waypoint,
36.9906801,-119.1416899,5692.5344610325,42.322836,0,1.000492158,10000,2018-06-13 22:08:01,13,0,24.304,5692.5344610325,42.322836,0.4921268,1.40378285332,0,0,-0.671082,84.1, 1.1, 1.6,0,0,1024,1024,1024,1024,83.1,-89.9,98,4.028,4.053,4.046,4.055,4.064,4.046,18.23,93.2,14,Waypoint,
36.99068,-119.1416898,5693.5187130325,43.307088,0,0.97029530664,10100,2018-06-13 22:08:01,13,0,24.304,5693.5187130325,43.307088,0.4921268,1.40378285332,0,0,-0.671082,84.2, 1.3, 1.4,0,0,1024,1024,1024,1024,83.1,-89.9,98,4.028,4.053,4.046,4.055,4.064,4.046,18.23,93.2,14,Waypoint,
36.99068,-119.1416899,5694.1748810325,43.963256,0,0.96458992588,10200,2018-06-13 22:08:01,13,0,24.304,5694.1748810325,43.963256,0.4921268,1.40378285332,0,0,-0.671082,84.3, 1.4, 1.3,0,0,1024,1024,1024,1024,83.1,-89.9,98,4.028,4.053,4.046,4.055,4.064,4.046,18.23,93.2,14,Waypoint,
36.99068,-119.1416899,5695.1591330325,44.947508,0,0.96458992588,10300,2018-06-13 22:08:01,13,0,24.304,5695.1591330325,44.947508,0.4921268,1.40378285332,0,0,-0.671082,84.3, 1.5, 1.2,0,0,1024,1024,1024,1024,83.1,-89.9,98,4.028,4.053,4.046,4.055,4.064,4.046,18.23,93.2,14,Waypoint,
36.99068,-119.1416899,5696.1433850325,45.93176,0,0.96458992588,10400,2018-06-13 22:08:02,13,0,24.304,5696.1433850325,45.93176,0.4921268,1.40378285332,0,0,-0.671082,84.3, 1.5, 1.2,0,0,1024,1024,1024,1024,83.1,-89.9,98,4.028,4.053,4.046,4.055,4.064,4.046,18.23,93.2,14,Waypoint,
36.9906799,-119.1416899,5697.1276370325,46.916012,0,0.92873034468,10500,2018-06-13 22:08:02,13,0,24.304,5697.1276370325,46.916012,0.4921268,1.40378285332,0,0,-0.671082,84.2, 1.4, 1.1,0,0,1024,1024,1024,1024,83.1,-89.9,98,4.028,4.053,4.046,4.055,4.064,4.046,18.23,93.2,14,Waypoint,
36.9906798,-119.1416899,5698.1118890325,47.900264,0,0.89292653776,10600,2018-06-13 22:08:02,13,0,24.304,5698.1118890325,47.900264,0.4921268,1.40378285332,0,0,-0.671082,84.2, 1.3, 1.1,0,0,1024,1024,1024,1024,83.1,-89.9,98,4.028,4.053,4.046,4.055,4.064,4.046,18.23,93.2,14,Waypoint,
36.9906797,-119.1416899,5700.0803930325,49.868768,0,0.85717522428,10700,2018-06-13 22:08:02,14,0,24.304,5700.0803930325,49.868768,0.4921268,1.40378285332,0,0,-0.671082,83.9, 1.4, 0.9,0,0,1024,1024,1024,1024,83.1,-89.9,98,4.028,4.053,4.046,4.055,4.064,4.046,18.23,93.2,14,Waypoint,
36.9906797,-119.1416899,5701.0646450325,50.85302,0,0.85717522428,10800,2018-06-13 22:08:02,14,0,24.304,5701.0646450325,50.85302,0.4921268,1.40378285332,0,0,-0.671082,83.9, 1.3, 0.9,0,0,1024,1024,1024,1024,83.1,-89.9,98,4.028,4.053,4.046,4.055,4.064,4.046,18.23,93.2,14,Waypoint,
36.9906796,-119.1416899,5702.3769810325,52.165356,0,0.82149280844,10900,2018-06-13 22:08:02,14,0,24.304,5702.3769810325,52.165356,0.4921268,1.40378285332,0,0,-0.671082,83.9, 1.2, 0.9,0,0,1024,1024,1024,1024,83.1,-89.9,98,4.028,4.053,4.046,4.055,4.064,4.046,18.23,93.2,14,Waypoint,
36.9906796,-119.1416899,5703.3612330325,53.149608,0,0.82149280844,11000,2018-06-13 22:08:02,14,0,24.26,5703.3612330325,53.149608,0.4921268,1.40378285332,0,0,-0.671082,83.9, 1.1, 1,0,0,1024,1024,1024,1024,83.1,-89.9,98,4.022,4.03,4.045,4.049,4.063,4.026,18.726,93.2,14,Waypoint,
36.9906796,-119.1416898,5704.3454850325,54.13386,0,0.82818572204,11200,2018-06-13 22:08:02,14,0,24.26,5704.3454850325,54.13386,0.4921268,1.40378285332,0,0,-0.671082,83.9, 1.3, 0.9,0,0,1024,1024,1024,1024,83.1,-89.9,98,4.022,4.03,4.045,4.049,4.063,4.026,18.726,93.2,14,Waypoint,
36.9906795,-119.1416897,5705.3297370325,55.118112,0,0.80086616736,11300,2018-06-13 22:08:02,14,0,24.26,5705.3297370325,55.118112,0.4921268,1.40378285332,0,0,-0.671082,84, 1.5, 0.9,0,0,1024,1024,1024,1024,83.1,-89.9,98,4.022,4.03,4.045,4.049,4.063,4.026,18.726,93.2,14,Waypoint,
36.9906795,-119.1416897,5706.3139890325,56.102364,0,0.80086616736,11400,2018-06-13 22:08:03,14,0,24.26,5706.3139890325,56.102364,0.4921268,1.40378285332,0,0,-0.671082,84.1, 1.7, 0.8,0,0,1024,1024,1024,1024,83.1,-89.9,98,4.022,4.03,4.045,4.049,4.063,4.026,18.726,93.2,14,Waypoint,
36.9906794,-119.1416896,5708.2824930325,58.070868,0,0.77540356812,11500,2018-06-13 22:08:03,14,0,24.26,5708.2824930325,58.070868,0.4921268,1.40378285332,0,0,-0.671082,84.2, 1.8, 0.6,0,0,1024,1024,1024,1024,83.1,-89.9,98,4.022,4.03,4.045,4.049,4.063,4.026,18.726,93.2,14,Waypoint,
36.9906793,-119.1416896,5709.2667450325,59.05512,0,0.74117128356,11700,2018-06-13 22:08:03,14,0,24.26,5709.2667450325,59.05512,0.4921268,1.40378285332,0,0,-0.671082,84.2, 1.7, 0.5,0,0,1024,1024,1024,1024,83.1,-89.9,98,4.022,4.03,4.045,4.049,4.063,4.026,18.726,93.2,14,Waypoint,
36.9906793,-119.1416896,5710.2509970325,60.039372,0,0.74117128356,11800,2018-06-13 22:08:03,14,0,24.26,5710.2509970325,60.039372,0.4921268,1.40378285332,0,0,-0.671082,84.2, 1.5, 0.6,0,0,1024,1024,1024,1024,83.1,-90,98,4.022,4.03,4.045,4.049,4.063,4.026,18.726,93.2,14,Waypoint,
36.9906793,-119.1416896,5711.2352490325,61.023624,0,0.74117128356,11900,2018-06-13 22:08:03,14,0,24.26,5711.2352490325,61.023624,0.4921268,1.40378285332,0,0,-0.671082,84.2, 1.5, 0.8,0,0,1024,1024,1024,1024,83.1,-89.9,98,4.022,4.03,4.045,4.049,4.063,4.026,18.726,93.2,14,Waypoint,
36.9906793,-119.1416896,5712.2195010325,62.007876,0,0.74117128356,12000,2018-06-13 22:08:03,14,0,24.229,5712.2195010325,62.007876,0.4921268,1.40378285332,0,0,-0.671082,84.2, 1.6, 0.9,0,0,1024,1024,1024,1024,83.1,-89.9,98,4.022,4.03,4.045,4.049,4.063,4.026,18.758,93.2,14,Waypoint,
36.9906793,-119.1416895,5713.2037530325,62.992128,0,0.75197837052,12100,2018-06-13 22:08:03,14,0,24.229,5713.2037530325,62.992128,0.4921268,1.40378285332,0,0,-0.671082,84.3, 1.5, 1.1,0,0,1024,1024,1024,1024,83.1,-89.9,98,4.022,4.03,4.045,4.049,4.063,4.026,18.758,93.2,14,Waypoint,
36.9906794,-119.1416895,5714.1880050325,63.97638,0,0.78573821412,12200,2018-06-13 22:08:03,14,0,24.229,5714.1880050325,63.97638,0.4921268,1.40378285332,0,0,-0.671082,84.3, 1.5, 1.3,0,0,1024,1024,1024,1024,83.1,-89.9,98,4.022,4.03,4.045,4.049,4.063,4.026,18.758,93.2,14,Waypoint,
36.9906795,-119.1416896,5715.1722570325,64.960632,0,0.80982942224,12300,2018-06-13 22:08:03,14,0,24.229,5715.1722570325,64.960632,0.4921268,1.40378285332,0,0,-0.671082,84.3, 1.4, 1.6,0,0,1024,1024,1024,1024,83.1,-90,98,4.022,4.03,4.045,4.049,4.063,4.026,18.758,93.2,14,Waypoint,
36.9906795,-119.1416895,5716.1565090325,65.944884,0,0.8197342782,12400,2018-06-13 22:08:04,14,0,24.229,5716.1565090325,65.944884,0.4921268,1.40378285332,0,0,-0.671082,84.3, 1.3, 1.7,0,0,1024,1024,1024,1024,83.1,-89.9,98,4.022,4.03,4.045,4.049,4.063,4.026,18.758,93.2,14,Waypoint,
36.9906794,-119.1416895,5717.1407610325,66.929136,0,0.78573821412,12500,2018-06-13 22:08:04,14,0,24.229,5717.1407610325,66.929136,0.4921268,1.40378285332,0,0,-0.671082,84.3, 1.3, 1.5,0,0,1024,1024,1024,1024,83.1,-89.9,98,4.022,4.03,4.045,4.049,4.063,4.026,18.758,93.2,14,Waypoint,
36.9906795,-119.1416895,5718.1250130325,67.913388,0,0.8197342782,12600,2018-06-13 22:08:04,14,0,24.229,5718.1250130325,67.913388,0.4921268,1.40378285332,0,0,-0.671082,84.3, 1.4, 1.2,0,0,1024,1024,1024,1024,83.1,-90,98,4.022,4.03,4.045,4.049,4.063,4.026,18.758,93.2,14,Waypoint,
36.9906795,-119.1416895,5719.1092650325,68.89764,0,0.8197342782,12700,2018-06-13 22:08:04,14,0,24.229,5719.1092650325,68.89764,0.4921268,1.40378285332,0,0,-0.671082,84.2, 1.4, 1.2,0,0,1024,1024,1024,1024,83.1,-89.9,98,4.022,4.03,4.045,4.049,4.063,4.026,18.758,93.2,14,Waypoint,
36.9906795,-119.1416895,5720.0935170325,69.881892,0,0.8197342782,12800,2018-06-13 22:08:04,14,0,24.229,5720.0935170325,69.881892,0.4921268,1.40378285332,0,0,-0.671082,84, 1.4, 1.3,0,0,1024,1024,1024,1024,83.1,-89.9,98,4.022,4.03,4.045,4.049,4.063,4.026,18.758,93.2,14,Waypoint,
36.9906794,-119.1416894,5721.0777690325,70.866144,0,0.79700461868,12900,2018-06-13 22:08:04,14,0,24.229,5721.0777690325,70.866144,0.4921268,1.40378285332,0,0,-0.671082,83.9, 1.5, 1.3,0,0,1024,1024,1024,1024,83.1,-89.9,98,4.022,4.03,4.045,4.049,4.063,4.026,18.758,93.2,14,Waypoint,
36.9906794,-119.1416894,5723.0462730325,72.834648,0,0.79700461868,13000,2018-06-13 22:08:04,14,0,24.229,5723.0462730325,72.834648,0.4921268,1.40378285332,0,0,-0.671082,83.6, 1.5, 1,0,0,1024,1024,1024,1024,83.1,-89.9,98,4.023,4.028,4.048,4.044,4.06,4.024,18.758,93.2,14,Waypoint,
36.9906794,-119.1416893,5724.0305250325,73.8189,0,0.80916669256,13100,2018-06-13 22:08:04,14,0,24.229,5724.0305250325,73.8189,0.4921268,1.40378285332,0,0,-0.671082,83.5, 1.5, 0.9,0,0,1024,1024,1024,1024,83.1,-89.9,98,4.023,4.028,4.048,4.044,4.06,4.024,18.758,93.2,14,Waypoint,
36.9906794,-119.1416892,5725.0147770325,74.803152,0,0.82218178484,13200,2018-06-13 22:08:04,14,0,24.229,5725.0147770325,74.803152,0.4921268,1.40378285332,0,0,-0.671082,83.5, 1.5, 1,0,0,1024,1024,1024,1024,83.1,-89.9,98,4.023,4.028,4.048,4.044,4.06,4.024,18.758,93.2,14,Waypoint,
36.9906793,-119.1416892,5725.9990290325,75.787404,0,0.78998034024,13400,2018-06-13 22:08:05,14,0,24.229,5725.9990290325,75.787404,0.4921268,1.40378285332,0,0,-0.671082,83.5, 1.5, 1,0,0,1024,1024,1024,1024,83.1,-89.9,98,4.023,4.028,4.048,4.044,4.06,4.024,18.758,93.2,14,Waypoint,
36.9906792,-119.1416892,5726.9832810325,76.771656,0,0.75816603476,13500,2018-06-13 22:08:05,14,0,24.229,5726.9832810325,76.771656,0.4921268,1.40378285332,0,0,-0.671082,83.5, 1.6, 0.9,0,0,1024,1024,1024,1024,83.1,-89.9,98,4.023,4.028,4.048,4.044,4.06,4.024,18.758,93.2,14,Waypoint,
36.9906792,-119.1416892,5727.9675330325,77.755908,0,0.75816603476,13600,2018-06-13 22:08:05,14,0,24.229,5727.9675330325,77.755908,0.4921268,1.40378285332,0,0,-0.671082,83.5, 1.4, 0.6,0,0,1024,1024,1024,1024,83.1,-89.9,98,4.023,4.028,4.048,4.044,4.06,4.024,18.758,93.2,14,Waypoint,
36.9906791,-119.1416892,5728.9517850325,78.74016,0,0.72679136184,13700,2018-06-13 22:08:05,14,0,24.229,5728.9517850325,78.74016,0.4921268,1.40378285332,0,0,-0.671082,83.6, 1.3, 0.5,0,0,1024,1024,1024,1024,83.1,-89.9,98,4.023,4.028,4.048,4.044,4.06,4.024,18.758,93.2,14,Waypoint,
36.9906791,-119.1416892,5729.9360370325,79.724412,0,0.72679136184,13800,2018-06-13 22:08:05,14,0,24.229,5729.9360370325,79.724412,0.4921268,1.40378285332,0,0,-0.671082,83.6, 1.4, 0.4,0,0,1024,1024,1024,1024,83.1,-89.9,98,4.023,4.028,4.048,4.044,4.06,4.024,18.758,93.2,14,Waypoint,
36.9906791,-119.1416891,5730.9202890325,80.708664,0,0.74239831772,13900,2018-06-13 22:08:05,14,0,24.229,5730.9202890325,80.708664,0.4921268,1.40378285332,0,0,-0.671082,83.7, 1.6, 0.4,0,0,1024,1024,1024,1024,83.1,-89.9,98,4.023,4.028,4.048,4.044,4.06,4.024,18.758,93.2,14,Waypoint,
36.9906791,-119.1416891,5731.9045410325,81.692916,0,0.74239831772,14000,2018-06-13 22:08:05,14,0,24.235,5731.9045410325,81.692916,0.4921268,1.40378285332,0,0,-0.671082,83.9, 1.7, 0.5,0,0,1024,1024,1024,1024,83.1,-89.9,97,4.025,4.034,4.034,4.046,4.064,4.026,18.604,93.2,14,Waypoint,
36.9906791,-119.141689,5732.8887930325,82.677168,0,0.75880251772,14100,2018-06-13 22:08:05,14,0,24.235,5732.8887930325,82.677168,0.4921268,1.40378285332,0,0,-0.671082,84, 1.8, 0.4,0,0,1024,1024,1024,1024,83.1,-89.9,97,4.025,4.034,4.034,4.046,4.064,4.026,18.604,93.2,14,Waypoint,
36.9906791,-119.141689,5733.8730450325,83.66142,0,0.75880251772,14200,2018-06-13 22:08:05,14,0,24.235,5733.8730450325,83.66142,0.4921268,1.40378285332,0,0,-0.671082,84.1, 1.8, 0.3,0,0,1024,1024,1024,1024,83.1,-89.9,97,4.025,4.034,4.034,4.046,4.064,4.026,18.604,93.2,14,Waypoint,
36.9906791,-119.141689,5735.1853810325,84.973756,0,0.75880251772,14300,2018-06-13 22:08:05,14,0,24.235,5735.1853810325,84.973756,0.4921268,1.40378285332,0,0,-0.671082,84.1, 1.8, 0.4,0,0,1024,1024,1024,1024,83.1,-89.9,97,4.025,4.034,4.034,4.046,4.064,4.026,18.604,93.2,14,Waypoint,
36.9906791,-119.141689,5736.1696330325,85.958008,0,0.75880251772,14400,2018-06-13 22:08:06,14,0,24.235,5736.1696330325,85.958008,0.4921268,1.40378285332,0,0,-0.671082,84.2, 1.6, 0.5,0,0,1024,1024,1024,1024,83.1,-89.9,97,4.025,4.034,4.034,4.046,4.064,4.026,18.604,93.2,14,Waypoint,
36.9906791,-119.141689,5737.1538850325,86.94226,0,0.75880251772,14500,2018-06-13 22:08:06,14,0,24.235,5737.1538850325,86.94226,0.4921268,1.40378285332,0,0,-0.671082,84.2, 1.4, 0.5,0,0,1024,1024,1024,1024,83.1,-89.9,97,4.025,4.034,4.034,4.046,4.064,4.026,18.604,93.2,14,Waypoint,
36.9906791,-119.141689,5738.1381370325,87.926512,0,0.75880251772,14600,2018-06-13 22:08:06,14,0,24.235,5738.1381370325,87.926512,0.4921268,1.40378285332,0,0,-0.671082,84.2, 1.4, 0.4,0,0,1024,1024,1024,1024,83.1,-89.9,97,4.025,4.034,4.034,4.046,4.064,4.026,18.604,93.2,14,Waypoint,
36.9906791,-119.1416889,5738.7943050325,88.58268,0,0.77595474924,14700,2018-06-13 22:08:06,14,0,24.235,5738.7943050325,88.58268,0.4921268,1.40378285332,0,0,-0.671082,84.3, 1.5, 0.4,0,0,1024,1024,1024,1024,83.1,-89.9,97,4.025,4.034,4.034,4.046,4.064,4.026,18.604,93.2,14,Waypoint,
36.9906791,-119.1416889,5739.7785570325,89.566932,0,0.77595474924,14800,2018-06-13 22:08:06,14,0,24.235,5739.7785570325,89.566932,0.4921268,1.40378285332,0,0,-0.671082,84.3, 1.5, 0.5,0,0,1024,1024,1024,1024,83.1,-89.9,97,4.025,4.034,4.034,4.046,4.064,4.026,18.604,93.2,14,Waypoint,
36.9906791,-119.1416889,5740.7628090325,90.551184,0,0.77595474924,14900,2018-06-13 22:08:06,14,0,24.235,5740.7628090325,90.551184,0.4921268,1.40378285332,0,0,-0.671082,84.4, 1.6, 0.6,0,0,1024,1024,1024,1024,83.1,-89.9,97,4.025,4.034,4.034,4.046,4.064,4.026,18.604,93.2,14,Waypoint,
36.9906791,-119.1416889,5741.7470610325,91.535436,0,0.77595474924,15000,2018-06-13 22:08:06,14,0,24.234,5741.7470610325,91.535436,0.4921268,1.40378285332,0,0,-0.671082,84.3, 1.6, 0.6,0,0,1024,1024,1024,1024,83.1,-89.9,97,4.022,4.03,4.046,4.046,4.06,4.031,17.733,93.2,14,Waypoint,
36.9906791,-119.1416889,5742.7313130325,92.519688,0,0.77595474924,15100,2018-06-13 22:08:06,14,0,24.234,5742.7313130325,92.519688,0.4921268,1.40378285332,0,0,-0.671082,84.3, 1.6, 0.5,0,0,1024,1024,1024,1024,83.1,-89.9,97,4.022,4.03,4.046,4.046,4.06,4.031,17.733,93.2,14,Waypoint,
36.9906791,-119.1416889,5743.7155650325,93.50394,0,0.77595474924,15200,2018-06-13 22:08:06,14,0,24.234,5743.7155650325,93.50394,0.4921268,1.40378285332,0,0,-0.671082,84.2, 1.6, 0.5,0,0,1024,1024,1024,1024,83.1,-89.9,97,4.022,4.03,4.046,4.046,4.06,4.031,17.733,93.2,14,Waypoint,
36.9906791,-119.1416888,5745.6840690325,95.472444,0,0.79380908052,15310,2018-06-13 22:08:06,14,0,24.234,5745.6840690325,95.472444,0.4921268,1.40378285332,0,0,-0.671082,83.9, 2, 0.6,0,0,1024,1024,1024,1024,83.1,-89.9,97,4.022,4.03,4.046,4.046,4.06,4.031,17.733,93.2,14,Waypoint,
36.9906791,-119.1416888,5746.6683210325,96.456696,0,0.79380908052,15400,2018-06-13 22:08:07,14,0,24.234,5746.6683210325,96.456696,0.4921268,1.40378285332,0,0,-0.671082,83.8, 2.1, 0.6,0,0,1024,1024,1024,1024,83.1,-89.9,97,4.022,4.03,4.046,4.046,4.06,4.031,17.733,93.2,14,Waypoint,
36.9906791,-119.1416888,5747.6525730325,97.440948,0,0.79380908052,15500,2018-06-13 22:08:07,15,0,24.234,5747.6525730325,97.440948,0.4921268,1.40378285332,0,0,-0.671082,83.6, 2, 0.9,0,0,1024,1024,1024,1024,83.1,-89.9,97,4.022,4.03,4.046,4.046,4.06,4.031,17.733,93.2,14,Waypoint,
36.9906791,-119.1416889,5748.6368250325,98.4252,0,0.77595474924,15600,2018-06-13 22:08:07,15,0,24.234,5748.6368250325,98.4252,0.4921268,1.40378285332,0,0,-0.671082,83.6, 1.9, 0.7,0,0,1024,1024,1024,1024,83.1,-89.9,97,4.022,4.03,4.046,4.046,4.06,4.031,17.733,93.2,14,Waypoint,
36.9906791,-119.1416889,5749.6210770325,99.409452,0,0.77595474924,15700,2018-06-13 22:08:07,15,0,24.234,5749.6210770325,99.409452,0.4921268,1.40378285332,0,0,-0.671082,83.7, 1.6, 0.3,0,0,1024,1024,1024,1024,83.1,-90,97,4.022,4.03,4.046,4.046,4.06,4.031,17.733,93.2,14,Waypoint,
36.9906791,-119.1416889,5750.6053290325,100.393704,0,0.77595474924,15800,2018-06-13 22:08:07,15,0,24.234,5750.6053290325,100.393704,0.4921268,1.40378285332,0,0,-0.671082,83.7, 1.3, 0.1,0,0,1024,1024,1024,1024,83.1,-90,97,4.022,4.03,4.046,4.046,4.06,4.031,17.733,93.2,14,Waypoint,
36.990679,-119.1416889,5751.5895810325,101.377956,0,0.74711616564,15900,2018-06-13 22:08:07,15,0,24.234,5751.5895810325,101.377956,0.4921268,1.40378285332,0,0,-0.671082,83.9, 1.2, 0.2,0,0,1024,1024,1024,1024,83.1,-90,97,4.022,4.03,4.046,4.046,4.06,4.031,17.733,93.2,14,Waypoint,
36.990679,-119.1416889,5752.5738330325,102.362208,0,0.74711616564,16100,2018-06-13 22:08:07,15,0,24.234,5752.5738330325,102.362208,0.4921268,1.40378285332,0,0,-0.671082,84, 1.1, 0.2,0,0,1024,1024,1024,1024,83.1,-89.9,97,4.022,4.03,4.046,4.046,4.06,4.031,17.733,93.2,14,Waypoint,
36.990679,-119.1416889,5753.5580850325,103.34646,0,0.74711616564,16200,2018-06-13 22:08:07,15,0,24.234,5753.5580850325,103.34646,0.4921268,1.40378285332,0,0,-0.671082,84.1, 1.4, 0.3,0,0,1024,1024,1024,1024,83.1,-89.9,97,4.022,4.03,4.046,4.046,4.06,4.031,17.733,93.2,14,Waypoint,
36.9906791,-119.141689,5754.5423370325,104.330712,0,0.75880251772,16300,2018-06-13 22:08:07,15,0,24.234,5754.5423370325,104.330712,0.4921268,1.40378285332,0,0,-0.671082,84.1, 1.8, 0.3,0,0,1024,1024,1024,1024,83.1,-89.9,97,4.022,4.03,4.046,4.046,4.06,4.031,17.733,93.2,14,Waypoint,
36.9906791,-119.141689,5755.5265890325,105.314964,0,0.75880251772,16400,2018-06-13 22:08:08,15,0,24.234,5755.5265890325,105.314964,0.4921268,1.40378285332,0,0,-0.671082,84.2, 2, 0.3,0,0,1024,1024,1024,1024,83.1,-89.9,97,4.022,4.03,4.046,4.046,4.06,4.031,17.733,93.2,14,Waypoint,
36.990679,-119.1416889,5756.5108410325,106.299216,0,0.74711616564,16500,2018-06-13 22:08:08,15,0,24.234,5756.5108410325,106.299216,0.4921268,1.40378285332,0,0,-0.671082,84.3, 2, 0.4,0,0,1024,1024,1024,1024,83.1,-89.9,97,4.022,4.03,4.046,4.046,4.06,4.031,17.733,93.2,14,Waypoint,
36.990679,-119.1416889,5757.4950930325,107.283468,0,0.74711616564,16600,2018-06-13 22:08:08,15,0,24.234,5757.4950930325,107.283468,0.4921268,1.40378285332,0,0,-0.671082,84.3, 2.1, 0.4,0,0,1024,1024,1024,1024,83.1,-89.9,97,4.022,4.03,4.046,4.046,4.06,4.031,17.733,93.2,14,Waypoint,
36.990679,-119.1416889,5758.4793450325,108.26772,0,0.74711616564,16700,2018-06-13 22:08:08,15,0,24.234,5758.4793450325,108.26772,0.4921268,1.40378285332,0,0,-0.671082,84.3, 2.1, 0.4,0,0,1024,1024,1024,1024,83.1,-89.9,97,4.022,4.03,4.046,4.046,4.06,4.031,17.733,93.2,14,Waypoint,
36.990679,-119.1416889,5759.4635970325,109.251972,0,0.74711616564,16800,2018-06-13 22:08:08,15,0,24.234,5759.4635970325,109.251972,0.4921268,1.40378285332,0,0,-0.671082,84.3, 2, 0.2,0,0,1024,1024,1024,1024,83.1,-89.9,97,4.022,4.03,4.046,4.046,4.06,4.031,17.733,93.2,14,Waypoint,
36.990679,-119.1416889,5760.4478490325,110.236224,0,0.74711616564,16900,2018-06-13 22:08:08,15,0,24.234,5760.4478490325,110.236224,0.4921268,1.40378285332,0,0,-0.671082,84.3, 1.8, 0.1,0,0,1024,1024,1024,1024,83.1,-89.9,97,4.022,4.03,4.046,4.046,4.06,4.031,17.733,93.2,14,Waypoint,
36.9906789,-119.1416889,5761.4321010325,111.220476,0,0.71896655844,17000,2018-06-13 22:08:08,15,0,24.201,5761.4321010325,111.220476,0.4921268,1.40378285332,0,0,-0.671082,84.2, 1.8, 0,0,0,1024,1024,1024,1024,83.1,-89.9,97,4.02,4.029,4.04,4.04,4.056,4.023,17.943,93.2,14,Waypoint,
36.9906789,-119.1416889,5762.4163530325,112.204728,0,0.71896655844,17100,2018-06-13 22:08:08,15,0,24.201,5762.4163530325,112.204728,0.4921268,1.40378285332,0,0,-0.671082,84.2, 1.9, -0.1,0,0,1024,1024,1024,1024,83.1,-89.9,97,4.02,4.029,4.04,4.04,4.056,4.023,17.943,93.2,14,Waypoint,
36.9906789,-119.1416889,5763.4006050325,113.18898,0,0.71896655844,17200,2018-06-13 22:08:08,15,0,24.201,5763.4006050325,113.18898,0.4921268,1.40378285332,0,0,-0.671082,84.1, 1.8, 0,0,0,1024,1024,1024,1024,83.1,-89.9,97,4.02,4.029,4.04,4.04,4.056,4.023,17.943,93.2,14,Waypoint,
36.9906788,-119.1416889,5764.3848570325,114.173232,0,0.691601072,17300,2018-06-13 22:08:08,15,0,24.201,5764.3848570325,114.173232,0.4921268,1.40378285332,0,0,-0.671082,84.1, 2, -0.1,0,0,1024,1024,1024,1024,83.1,-89.9,97,4.02,4.029,4.04,4.04,4.056,4.023,17.943,93.2,14,Waypoint,
36.9906787,-119.1416888,5766.3533610325,116.141736,0,0.68585304032,17400,2018-06-13 22:08:09,15,0,24.201,5766.3533610325,116.141736,0.4921268,1.40378285332,0,0,-0.671082,84, 2.5, -0.8,0,0,1024,1024,1024,1024,83.1,-89.9,97,4.02,4.029,4.04,4.04,4.056,4.023,17.943,93.2,14,Waypoint,
36.9906786,-119.1416888,5767.3376130325,117.125988,0,0.66114831512,17500,2018-06-13 22:08:09,15,0,24.201,5767.3376130325,117.125988,0.4921268,1.40378285332,0,0,-0.671082,84.1, 2.6, -0.7,0,0,1024,1024,1024,1024,83.1,-89.9,97,4.02,4.029,4.04,4.04,4.056,4.023,17.943,93.2,14,Waypoint,
36.9906786,-119.1416888,5768.3218650325,118.11024,0,0.66114831512,17600,2018-06-13 22:08:09,15,0,24.201,5768.3218650325,118.11024,0.4921268,1.40378285332,0,0,-0.671082,84.1, 2.4, -0.7,0,0,1024,1024,1024,1024,83.1,-89.9,97,4.02,4.029,4.04,4.04,4.056,4.023,17.943,93.2,14,Waypoint,
36.9906786,-119.1416888,5769.3061170325,119.094492,0,0.66114831512,17700,2018-06-13 22:08:09,15,0,24.201,5769.3061170325,119.094492,0.4921268,1.40378285332,0,0,-0.671082,84.2, 2.3, -0.7,0,0,1024,1024,1024,1024,83.1,-89.9,97,4.02,4.029,4.04,4.04,4.056,4.023,17.943,93.2,14,Waypoint,
36.9906786,-119.1416888,5769.9622850325,119.75066,0,0.66114831512,17800,2018-06-13 22:08:09,15,0,24.201,5769.9622850325,119.75066,0.4921268,1.40378285332,0,0,-0.671082,84.2, 2.4, -0.5,0,0,1024,1024,1024,1024,83.1,-89.9,97,4.02,4.029,4.04,4.04,4.056,4.023,17.943,93.2,14,Waypoint,
36.9906786,-119.1416888,5770.9465370325,120.734912,0,0.66114831512,18000,2018-06-13 22:08:09,15,0,24.229,5770.9465370325,120.734912,0.4921268,1.40378285332,0,0,-0.671082,84.1, 2.3, -0.6,0,0,1024,1024,1024,1024,83.1,-89.9,97,4.021,4.029,4.046,4.048,4.056,4.03,17.569,93.2,14,Waypoint,
36.9906785,-119.1416888,5772.9150410325,122.703416,0,0.63757219888,18200,2018-06-13 22:08:09,15,0,24.229,5772.9150410325,122.703416,0.4921268,1.40378285332,0,0,-0.671082,84.2, 2.1, -0.6,0,0,1024,1024,1024,1024,83.1,-89.9,97,4.021,4.029,4.046,4.048,4.056,4.03,17.569,93.2,14,Waypoint,
36.9906785,-119.1416888,5773.8992930325,123.687668,0,0.63757219888,18300,2018-06-13 22:08:09,15,0,24.229,5773.8992930325,123.687668,0.4921268,1.40378285332,0,0,-0.671082,84.2, 2.2, -0.5,0,0,1024,1024,1024,1024,83.1,-89.9,97,4.021,4.029,4.046,4.048,4.056,4.03,17.569,93.2,14,Waypoint,
36.9906785,-119.1416888,5774.8835450325,124.67192,0,0.63757219888,18400,2018-06-13 22:08:10,15,0,24.229,5774.8835450325,124.67192,0.4921268,1.40378285332,0,0,-0.671082,84.2, 2.2, -0.4,0,0,1024,1024,1024,1024,83.1,-89.9,97,4.021,4.029,4.046,4.048,4.056,4.03,17.569,93.2,14,Waypoint,
36.9906785,-119.1416888,5775.8677970325,125.656172,0,0.63757219888,18500,2018-06-13 22:08:10,15,0,24.229,5775.8677970325,125.656172,0.4921268,1.40378285332,0,0,-0.671082,84.2, 2.4, -0.7,0,0,1024,1024,1024,1024,83.1,-89.9,97,4.021,4.029,4.046,4.048,4.056,4.03,17.569,93.2,14,Waypoint,
36.9906785,-119.1416888,5776.8520490325,126.640424,0,0.63757219888,18600,2018-06-13 22:08:10,15,0,24.229,5776.8520490325,126.640424,0.4921268,1.40378285332,0,0,-0.671082,84.1, 2.6, -0.8,0,0,1024,1024,1024,1024,83.1,-89.9,97,4.021,4.029,4.046,4.048,4.056,4.03,17.569,93.2,14,Waypoint,
36.9906784,-119.1416888,5777.8363010325,127.624676,0,0.61525920604,18700,2018-06-13 22:08:10,15,0,24.229,5777.8363010325,127.624676,0.4921268,1.40378285332,0,0,-0.671082,84.1, 2.6, -0.6,0,0,1024,1024,1024,1024,83.1,-89.9,97,4.021,4.029,4.046,4.048,4.056,4.03,17.569,93.2,14,Waypoint,
36.9906783,-119.1416888,5779.8048050325,129.59318,0,0.59435041272,18900,2018-06-13 22:08:10,15,0,24.229,5779.8048050325,129.59318,0.4921268,1.40378285332,0,0,-0.671082,84, 2.7, -1.1,0,0,1024,1024,1024,1024,83.1,-89.9,97,4.021,4.029,4.046,4.048,4.056,4.03,17.569,93.2,14,Waypoint,
36.9906783,-119.1416888,5781.1171410325,130.905516,0,0.59435041272,19000,2018-06-13 22:08:10,15,0,24.182,5781.1171410325,130.905516,0.4921268,1.40378285332,0,0,-0.671082,83.9, 2.6, -1.2,0,0,1024,1024,1024,1024,83.1,-90,97,4.008,4.021,4.032,4.04,4.052,4.025,17.842,93.2,14,Waypoint,
36.9906783,-119.1416887,5782.1013930325,131.889768,0,0.61885172584,19100,2018-06-13 22:08:10,15,0,24.182,5782.1013930325,131.889768,0.4921268,1.40378285332,0,0,-0.671082,83.9, 2.6, -1.2,0,0,1024,1024,1024,1024,83.1,-89.9,97,4.008,4.021,4.032,4.04,4.052,4.025,17.842,93.2,14,Waypoint,
36.9906783,-119.1416887,5783.0856450325,132.87402,0,0.61885172584,19200,2018-06-13 22:08:10,15,0,24.182,5783.0856450325,132.87402,0.4921268,1.40378285332,0,0,-0.671082,83.8, 2.7, -1.4,0,0,1024,1024,1024,1024,83.1,-89.9,97,4.008,4.021,4.032,4.04,4.052,4.025,17.842,93.2,14,Waypoint,
36.9906782,-119.1416887,5785.0541490325,134.842524,0,0.60028873312,19300,2018-06-13 22:08:10,15,0,24.182,5785.0541490325,134.842524,0.4921268,1.40378285332,0,0,-0.671082,83.8, 2.9, -1.1,0,0,1024,1024,1024,1024,83.1,-89.9,97,4.008,4.021,4.032,4.04,4.052,4.025,17.842,93.2,14,Waypoint,
36.9906783,-119.1416887,5787.0226530325,136.811028,0,0.61885172584,19510,2018-06-13 22:08:11,15,0,24.182,5787.0226530325,136.811028,0.4921268,1.40378285332,0,0,-0.671082,83.9, 3.3, -0.8,0,0,1024,1024,1024,1024,83.1,-89.9,97,4.008,4.021,4.032,4.04,4.052,4.025,17.842,93.2,14,Waypoint,
36.9906782,-119.1416887,5788.0069050325,137.79528,0,0.60028873312,19600,2018-06-13 22:08:11,15,0,24.182,5788.0069050325,137.79528,0.4921268,1.40378285332,0,0,-0.671082,83.9, 3.1, -0.8,0,0,1024,1024,1024,1024,83.1,-89.9,97,4.008,4.021,4.032,4.04,4.052,4.025,17.842,93.2,14,Waypoint,
36.9906782,-119.1416887,5788.9911570325,138.779532,0,0.60028873312,19700,2018-06-13 22:08:11,15,0,24.182,5788.9911570325,138.779532,0.4921268,1.40378285332,0,0,-0.671082,83.9, 2.8, -0.9,0,0,1024,1024,1024,1024,83.1,-90,97,4.008,4.021,4.032,4.04,4.052,4.025,17.842,93.2,14,Waypoint,
36.9906782,-119.1416888,5789.9754090325,139.763784,0,0.5750000184,19800,2018-06-13 22:08:11,15,0,24.182,5789.9754090325,139.763784,0.4921268,1.40378285332,0,0,-0.671082,84, 2.6, -1.2,0,0,1024,1024,1024,1024,83.1,-90,97,4.008,4.021,4.032,4.04,4.052,4.025,17.842,93.2,14,Waypoint,
36.9906782,-119.1416888,5791.2877450325,141.07612,0,0.5750000184,20000,2018-06-13 22:08:11,15,0,24.1,5791.2877450325,141.07612,0.4921268,1.40378285332,0,0,-0.671082,84.2, 2.2, -1.3,0,0,1024,1024,1024,1024,83.1,-90,97,4.003,4.012,4.021,4.022,4.028,4.004,18.94,93.2,14,Waypoint,
36.9906782,-119.1416889,5792.2719970325,142.060372,0,0.55009188112,20100,2018-06-13 22:08:11,15,0,24.1,5792.2719970325,142.060372,0.4921268,1.40378285332,0,0,-0.671082,84.5, 1.9, -1.2,0,0,1024,1024,1024,1024,83.1,-90,97,4.003,4.012,4.021,4.022,4.028,4.004,18.94,93.2,14,Waypoint,
36.9906782,-119.1416889,5793.2562490325,143.044624,0,0.55009188112,20200,2018-06-13 22:08:11,15,0,24.1,5793.2562490325,143.044624,0.4921268,1.40378285332,0,0,-0.671082,84.6, 1.8, -0.9,0,0,1024,1024,1024,1024,83.1,-89.9,97,4.003,4.012,4.021,4.022,4.028,4.004,18.94,93.2,14,Waypoint,
36.9906783,-119.1416889,5794.2405010325,144.028876,0,0.57028873216,20300,2018-06-13 22:08:11,15,0,24.1,5794.2405010325,144.028876,0.4921268,1.40378285332,0,0,-0.671082,84.8, 2, -0.2,0,0,1024,1024,1024,1024,83.1,-90,97,4.003,4.012,4.021,4.022,4.028,4.004,18.94,93.2,14,Waypoint,
36.9906783,-119.1416889,5795.2247530325,145.013128,0.223694,0.57028873216,20400,2018-06-13 22:08:12,15,0,24.1,5795.2247530325,145.013128,0.4921268,1.40378285332,0,0,-0.671082,84.7, 2.5, 0,0,0,1024,1024,1024,1024,83.1,-89.9,97,4.003,4.012,4.021,4.022,4.028,4.004,18.94,93.2,14,Waypoint,
36.9906784,-119.1416888,5796.2090050325,145.99738,0.223694,0.61525920604,20500,2018-06-13 22:08:12,15,0,24.1,5796.2090050325,145.99738,0.4921268,1.40378285332,0,0,-0.671082,84.6, 3.2, 0.1,0,0,1024,1024,1024,1024,83.1,-89.9,97,4.003,4.012,4.021,4.022,4.028,4.004,18.94,93.2,14,Waypoint,
36.9906784,-119.1416887,5797.1932570325,146.981632,0.223694,0.6389599942,20600,2018-06-13 22:08:12,15,0,24.1,5797.1932570325,146.981632,0.4921268,1.40378285332,0,0,-0.671082,84.5, 3.8, 0.1,0,0,1024,1024,1024,1024,83.1,-89.9,97,4.003,4.012,4.021,4.022,4.028,4.004,18.94,93.2,14,Waypoint,
36.9906785,-119.1416887,5798.1775090325,147.965884,0.223694,0.66047246208,20700,2018-06-13 22:08:12,15,0,24.1,5798.1775090325,147.965884,0.4921268,1.40378285332,0,0,-0.671082,84.4, 4, 0.3,0,0,1024,1024,1024,1024,83.1,-89.9,97,4.003,4.012,4.021,4.022,4.028,4.004,18.94,93.2,14,Waypoint,
36.9906786,-119.1416886,5800.1460130325,149.934388,0,0.70587600684,20900,2018-06-13 22:08:12,15,0,24.1,5800.1460130325,149.934388,0.4921268,1.40378285332,0,0,-0.671082,84.1, 4, 0.3,0,0,1024,1024,1024,1024,83.1,-89.9,97,4.003,4.012,4.021,4.022,4.028,4.004,18.94,93.2,14,Waypoint,
36.9906786,-119.1416886,5801.1302650325,150.91864,0,0.70587600684,21000,2018-06-13 22:08:12,15,0,24.073,5801.1302650325,150.91864,0.4921268,1.40378285332,0,0,-0.671082,84, 3.8, 0.4,0,0,1024,1024,1024,1024,83.1,-89.9,97,4.001,4.004,4.021,4.015,4.027,4.002,18.907,93.2,14,Waypoint,
36.9906787,-119.1416886,5801.7864330325,151.574808,0,0.7290682648,21100,2018-06-13 22:08:12,15,0,24.073,5801.7864330325,151.574808,0.4921268,1.40378285332,0,0,-0.671082,83.9, 3.5, 0.5,0,0,1024,1024,1024,1024,83.1,-89.9,97,4.001,4.004,4.021,4.015,4.027,4.002,18.907,93.2,14,Waypoint,
36.9906788,-119.1416886,5802.7706850325,152.55906,0.223694,0.7533136724,21200,2018-06-13 22:08:12,15,0,24.073,5802.7706850325,152.55906,0.4921268,1.40378285332,0,0,-0.671082,83.8, 3.1, 0.4,0,0,1024,1024,1024,1024,83.1,-89.9,97,4.001,4.004,4.021,4.015,4.027,4.002,18.907,93.2,14,Waypoint,
36.9906788,-119.1416886,5803.7549370325,153.543312,0,0.7533136724,21300,2018-06-13 22:08:12,15,0,24.073,5803.7549370325,153.543312,0.4921268,1.40378285332,0,0,-0.671082,83.7, 3.2, 0.4,0,0,1024,1024,1024,1024,83.1,-89.9,97,4.001,4.004,4.021,4.015,4.027,4.002,18.907,93.2,14,Waypoint,
36.9906789,-119.1416886,5804.7391890325,154.527564,0,0.77851380444,21400,2018-06-13 22:08:13,15,0,24.073,5804.7391890325,154.527564,0.4921268,1.40378285332,0,0,-0.671082,83.7, 3.4, 0.5,0,0,1024,1024,1024,1024,83.1,-89.9,97,4.001,4.004,4.021,4.015,4.027,4.002,18.907,93.2,14,Waypoint,
36.990679,-119.1416886,5806.7076930325,156.496068,0,0.80458007824,21500,2018-06-13 22:08:13,15,0,24.073,5806.7076930325,156.496068,0.4921268,1.40378285332,0,0,-0.671082,83.8, 3.7, 0.4,0,0,1024,1024,1024,1024,83.1,-89.9,97,4.001,4.004,4.021,4.015,4.027,4.002,18.907,93.2,14,Waypoint,
36.9906791,-119.1416886,5807.6919450325,157.48032,0,0.8314304728,21600,2018-06-13 22:08:13,15,0,24.073,5807.6919450325,157.48032,0.4921268,1.40378285332,0,0,-0.671082,83.9, 3.6, 0.4,0,0,1024,1024,1024,1024,83.1,-89.9,97,4.001,4.004,4.021,4.015,4.027,4.002,18.907,93.2,14,Waypoint,
36.9906791,-119.1416886,5808.6761970325,158.464572,0,0.8314304728,21700,2018-06-13 22:08:13,15,0,24.073,5808.6761970325,158.464572,0.4921268,1.40378285332,0,0,-0.671082,83.9, 3.6, 0.4,0,0,1024,1024,1024,1024,83.1,-89.9,97,4.001,4.004,4.021,4.015,4.027,4.002,18.907,93.2,14,Waypoint,
36.9906792,-119.1416886,5809.6604490325,159.448824,0.223694,0.85899280964,21800,2018-06-13 22:08:13,15,0,24.073,5809.6604490325,159.448824,0.4921268,1.40378285332,0,0,-0.671082,84, 3.7, 0.8,0,0,1024,1024,1024,1024,83.1,-89.9,97,4.001,4.004,4.021,4.015,4.027,4.002,18.907,93.2,14,Waypoint,
36.9906793,-119.1416887,5810.6447010325,160.433076,0,0.86931105144,21900,2018-06-13 22:08:13,15,0,24.073,5810.6447010325,160.433076,0.4921268,1.40378285332,0,0,-0.671082,84.1, 3.5, 1.1,0,0,1024,1024,1024,1024,83.1,-90,97,4.001,4.004,4.021,4.015,4.027,4.002,18.907,93.2,14,Waypoint,
36.9906794,-119.1416888,5812.6132050325,162.40158,0,0.88198165552,22100,2018-06-13 22:08:13,15,0,24.073,5812.6132050325,162.40158,0.4921268,1.40378285332,0,0,-0.671082,84, 2.8, 1.5,0,0,1024,1024,1024,1024,83.1,-90,97,4.001,4.004,4.021,4.015,4.027,4.002,18.907,93.2,14,Waypoint,
36.9906795,-119.1416888,5813.5974570325,163.385832,0,0.91239832316,22300,2018-06-13 22:08:13,15,0,24.073,5813.5974570325,163.385832,0.4921268,1.40378285332,0,0,-0.671082,83.8, 2.5, 1.6,0,0,1024,1024,1024,1024,83.1,-90,97,4.001,4.004,4.021,4.015,4.027,4.002,18.907,93.2,14,Waypoint,
36.9906796,-119.1416889,5814.5817090325,164.370084,0,0.92826774624,22400,2018-06-13 22:08:14,15,0,24.073,5814.5817090325,164.370084,0.4921268,1.40378285332,0,0,-0.671082,83.7, 2.2, 1.6,0,0,1024,1024,1024,1024,83.1,-90,97,4.001,4.004,4.021,4.015,4.027,4.002,18.907,93.2,14,Waypoint,
36.9906796,-119.1416889,5815.5659610325,165.354336,0,0.92826774624,22500,2018-06-13 22:08:14,15,0,24.073,5815.5659610325,165.354336,0.4921268,1.40378285332,0,0,-0.671082,83.7, 2.3, 1.5,0,0,1024,1024,1024,1024,83.1,-90,97,4.001,4.004,4.021,4.015,4.027,4.002,18.907,93.2,14,Waypoint,
36.9906797,-119.1416889,5816.8782970325,166.666672,0,0.95999346904,22600,2018-06-13 22:08:14,15,0,24.073,5816.8782970325,166.666672,0.4921268,1.40378285332,0,0,-0.671082,83.7, 2.7, 1.5,0,0,1024,1024,1024,1024,83.1,-89.9,97,4.001,4.004,4.021,4.015,4.027,4.002,18.907,93.2,14,Waypoint,
36.9906797,-119.1416889,5817.8625490325,167.650924,0,0.95999346904,22700,2018-06-13 22:08:14,15,0,24.073,5817.8625490325,167.650924,0.4921268,1.40378285332,0,0,-0.671082,83.9, 2.9, 1.5,0,0,1024,1024,1024,1024,83.1,-89.9,97,4.001,4.004,4.021,4.015,4.027,4.002,18.907,93.2,14,Waypoint,
36.9906798,-119.1416889,5819.8310530325,169.619428,0,0.992043995,22900,2018-06-13 22:08:14,15,0,24.073,5819.8310530325,169.619428,0.4921268,1.40378285332,0,0,-0.671082,84.6, 3.6, 1.4,0,0,1024,1024,1024,1024,83.1,-89.9,97,4.001,4.004,4.021,4.015,4.027,4.002,18.907,93.2,14,Waypoint,
36.9906798,-119.1416889,5821.1433890325,170.931764,0,0.992043995,23000,2018-06-13 22:08:14,15,0,24.061,5821.1433890325,170.931764,0.4921268,1.40378285332,0,0,-0.671082,84.7, 3.8, 1.7,0,0,1024,1024,1024,1024,83.1,-89.9,97,3.998,4.007,4.016,4.018,4.029,3.996,19.001,93.2,14,Waypoint,
36.9906799,-119.1416889,5822.1276410325,171.916016,0,1.02438979656,23100,2018-06-13 22:08:14,15,0,24.061,5822.1276410325,171.916016,0.4921268,1.40378285332,0,0,-0.671082,84.8, 3.8, 1.8,0,0,1024,1024,1024,1024,83.1,-89.9,97,3.998,4.007,4.016,4.018,4.029,3.996,19.001,93.2,14,Waypoint,
36.9906799,-119.1416888,5823.1118930325,172.900268,0,1.03797903584,23200,2018-06-13 22:08:14,15,0,24.061,5823.1118930325,172.900268,0.4921268,1.40378285332,0,0,-0.671082,84.7, 3.8, 1.7,0,0,1024,1024,1024,1024,83.1,-89.9,97,3.998,4.007,4.016,4.018,4.029,3.996,19.001,93.2,14,Waypoint,
36.9906799,-119.1416888,5824.0961450325,173.88452,0,1.03797903584,23300,2018-06-13 22:08:14,15,0,24.061,5824.0961450325,173.88452,0.4921268,1.40378285332,0,0,-0.671082,84.7, 3.7, 1.5,0,0,1024,1024,1024,1024,83.1,-89.9,97,3.998,4.007,4.016,4.018,4.029,3.996,19.001,93.2,14,Waypoint,
36.9906799,-119.1416888,5825.0803970325,174.868772,0,1.03797903584,23400,2018-06-13 22:08:15,15,0,24.061,5825.0803970325,174.868772,0.4921268,1.40378285332,0,0,-0.671082,84.5, 3.6, 1.2,0,0,1024,1024,1024,1024,83.1,-89.9,97,3.998,4.007,4.016,4.018,4.029,3.996,19.001,93.2,14,Waypoint,
36.9906799,-119.1416888,5826.0646490325,175.853024,0,1.03797903584,23500,2018-06-13 22:08:15,15,0,24.061,5826.0646490325,175.853024,0.4921268,1.40378285332,0,0,-0.671082,84.3, 3.5, 1.1,0,0,1024,1024,1024,1024,83.1,-89.9,97,3.998,4.007,4.016,4.018,4.029,3.996,19.001,93.2,14,Waypoint,
36.9906799,-119.1416888,5827.7050690325,177.493444,0,1.03797903584,23700,2018-06-13 22:08:15,15,0,24.061,5827.7050690325,177.493444,0.4921268,1.40378285332,0,0,-0.671082,84, 3.1, 1.8,0,0,1024,1024,1024,1024,83.1,-89.9,97,3.998,4.007,4.016,4.018,4.029,3.996,19.001,93.2,14,Waypoint,
36.9906799,-119.1416888,5828.6893210325,178.477696,0,1.03797903584,23800,2018-06-13 22:08:15,15,0,24.061,5828.6893210325,178.477696,0.4921268,1.40378285332,0,0,-0.671082,84, 3.2, 2.4,0,0,1024,1024,1024,1024,83.1,-89.9,97,3.998,4.007,4.016,4.018,4.029,3.996,19.001,93.2,14,Waypoint,
36.99068,-119.1416889,5830.6578250325,180.4462,0,1.05700790784,23900,2018-06-13 22:08:15,15,0,24.061,5830.6578250325,180.4462,0.4921268,1.40378285332,0,0,-0.671082,84, 3.4, 2.7,0,0,1024,1024,1024,1024,83.1,-89.9,97,3.998,4.007,4.016,4.018,4.029,3.996,19.001,93.2,14,Waypoint,
36.99068,-119.1416889,5831.6420770325,181.430452,0,1.05700790784,24000,2018-06-13 22:08:15,15,0,24.061,5831.6420770325,181.430452,0.4921268,1.40378285332,0,0,-0.671082,84.1, 3.2, 2.7,0,0,1024,1024,1024,1024,83.1,-89.9,97,4.005,4.009,4.01,4.028,4.034,4.002,19.001,95,14,Waypoint,
36.99068,-119.1416889,5832.2982450325,182.08662,0,1.05700790784,24100,2018-06-13 22:08:15,15,0,24.061,5832.2982450325,182.08662,0.4921268,1.40378285332,0,0,-0.671082,84.3, 3.3, 2.4,0,0,1024,1024,1024,1024,83.1,-89.9,97,4.005,4.009,4.01,4.028,4.034,4.002,19.001,95,14,Waypoint,
36.99068,-119.1416889,5833.2824970325,183.070872,0,1.05700790784,24200,2018-06-13 22:08:15,15,0,24.061,5833.2824970325,183.070872,0.4921268,1.40378285332,0,0,-0.671082,84.5, 3.3, 1.9,0,0,1024,1024,1024,1024,83.1,-89.9,97,4.005,4.009,4.01,4.028,4.034,4.002,19.001,95,14,Waypoint,
36.99068,-119.1416889,5834.2667490325,184.055124,0,1.05700790784,24400,2018-06-13 22:08:16,15,0,24.061,5834.2667490325,184.055124,0.4921268,1.40378285332,0,0,-0.671082,84.7, 3.2, 1.7,0,0,1024,1024,1024,1024,83.1,-89.9,97,4.005,4.009,4.01,4.028,4.034,4.002,19.001,95,14,Waypoint,
36.99068,-119.1416889,5834.9229170325,184.711292,0,1.05700790784,24500,2018-06-13 22:08:16,15,0,24.061,5834.9229170325,184.711292,0.4921268,1.40378285332,0,0,-0.671082,84.7, 3.3, 1.7,0,0,1024,1024,1024,1024,83.1,-89.9,97,4.005,4.009,4.01,4.028,4.034,4.002,19.001,95,14,Waypoint,
36.99068,-119.1416889,5835.9071690325,185.695544,0,1.05700790784,24600,2018-06-13 22:08:16,15,0,24.061,5835.9071690325,185.695544,0.4921268,1.40378285332,0,0,-0.671082,84.6, 3.6, 2,0,0,1024,1024,1024,1024,83.1,-89.9,97,4.005,4.009,4.01,4.028,4.034,4.002,19.001,95,14,Waypoint,
36.99068,-119.1416889,5836.8914210325,186.679796,0,1.05700790784,24700,2018-06-13 22:08:16,15,0,24.061,5836.8914210325,186.679796,0.4921268,1.40378285332,0,0,-0.671082,84.5, 3.6, 2.1,0,0,1024,1024,1024,1024,83.1,-89.9,97,4.005,4.009,4.01,4.028,4.034,4.002,19.001,95,14,Waypoint,
36.99068,-119.1416889,5837.8756730325,187.664048,0,1.05700790784,24800,2018-06-13 22:08:16,15,0,24.061,5837.8756730325,187.664048,0.4921268,1.40378285332,0,0,-0.671082,84.4, 3.6, 2,0,0,1024,1024,1024,1024,83.1,-89.9,97,4.005,4.009,4.01,4.028,4.034,4.002,19.001,95,14,Waypoint,
36.99068,-119.1416889,5838.8599250325,188.6483,0,1.05700790784,24900,2018-06-13 22:08:16,15,0,24.061,5838.8599250325,188.6483,0.4921268,1.40378285332,0,0,-0.671082,84.3, 3.5, 2.1,0,0,1024,1024,1024,1024,83.1,-89.9,97,4.005,4.009,4.01,4.028,4.034,4.002,19.001,95,14,Waypoint,
36.99068,-119.1416889,5839.5160930325,189.304468,0,1.05700790784,25000,2018-06-13 22:08:16,15,0,24.17,5839.5160930325,189.304468,0.4921268,1.40378285332,0,0,-0.671082,84.3, 3.7, 2,0,0,1024,1024,1024,1024,83.1,-89.9,96,4.022,4.039,4.033,4.03,4.053,4.025,16.764,95,14,Waypoint,
36.99068,-119.1416888,5840.5003450325,190.28872,0,1.07018048044,25100,2018-06-13 22:08:16,15,0,24.17,5840.5003450325,190.28872,0.4921268,1.40378285332,0,0,-0.671082,84.4, 4, 1.9,0,0,1024,1024,1024,1024,83.1,-89.9,96,4.022,4.039,4.033,4.03,4.053,4.025,16.764,95,14,Waypoint,
36.99068,-119.1416888,5841.1565130325,190.944888,0,1.07018048044,25200,2018-06-13 22:08:16,15,0,24.17,5841.1565130325,190.944888,0.4921268,1.40378285332,0,0,-0.671082,84.4, 4, 1.8,0,0,1024,1024,1024,1024,83.1,-89.9,96,4.022,4.039,4.033,4.03,4.053,4.025,16.764,95,14,Waypoint,
36.99068,-119.1416888,5842.1407650325,191.92914,0,1.07018048044,25300,2018-06-13 22:08:16,15,0,24.17,5842.1407650325,191.92914,0.4921268,1.40378285332,0,0,-0.671082,84.4, 3.8, 1.8,0,0,1024,1024,1024,1024,83.1,-89.9,96,4.022,4.039,4.033,4.03,4.053,4.025,16.764,95,14,Waypoint,
36.99068,-119.1416889,5842.7969330325,192.585308,0,1.05700790784,25400,2018-06-13 22:08:17,15,0,24.17,5842.7969330325,192.585308,0.4921268,1.40378285332,0,0,-0.671082,84.3, 3.7, 1.8,0,0,1024,1024,1024,1024,83.1,-90,96,4.022,4.039,4.033,4.03,4.053,4.025,16.764,95,14,Waypoint,
36.9906799,-119.1416889,5843.7811850325,193.56956,0,1.02438979656,25500,2018-06-13 22:08:17,15,0,24.17,5843.7811850325,193.56956,0.4921268,1.40378285332,0,0,-0.671082,84.2, 3.5, 1.9,0,0,1024,1024,1024,1024,83.1,-90,96,4.022,4.039,4.033,4.03,4.053,4.025,16.764,95,14,Waypoint,
36.99068,-119.141689,5844.7654370325,194.553812,0,1.04447837988,25600,2018-06-13 22:08:17,15,0,24.17,5844.7654370325,194.553812,0.4921268,1.40378285332,0,0,-0.671082,84.1, 3.3, 2,0,0,1024,1024,1024,1024,83.1,-90,96,4.022,4.039,4.033,4.03,4.053,4.025,16.764,95,14,Waypoint,
36.99068,-119.141689,5845.4216050325,195.20998,0,1.04447837988,25700,2018-06-13 22:08:17,15,0,24.17,5845.4216050325,195.20998,0.4921268,1.40378285332,0,0,-0.671082,84.1, 3.1, 2.1,0,0,1024,1024,1024,1024,83.1,-90,96,4.022,4.039,4.033,4.03,4.053,4.025,16.764,95,14,Waypoint,
36.9906801,-119.1416892,5847.3901090325,197.178484,0,1.0554298238,25900,2018-06-13 22:08:17,15,0,24.17,5847.3901090325,197.178484,0.4921268,1.40378285332,0,0,-0.671082,84.1, 2.8, 2.2,0,0,1024,1024,1024,1024,83.1,-90,96,4.022,4.039,4.033,4.03,4.053,4.025,16.764,95,14,Waypoint,
36.9906802,-119.1416893,5848.3743610325,198.162736,0,1.0797736566,26000,2018-06-13 22:08:17,15,0,24.22,5848.3743610325,198.162736,0.4921268,1.40378285332,0,0,-0.671082,84.2, 2.6, 2.4,0,0,1024,1024,1024,1024,83.1,-90,96,4.035,4.026,4.043,4.043,4.065,4.02,16.143,95,14,Waypoint,
36.9906802,-119.1416894,5850.3428650325,200.13124,0,1.07069229148,26100,2018-06-13 22:08:17,15,0,24.22,5850.3428650325,200.13124,0.4921268,1.40378285332,0,0,-0.671082,84.2, 2.7, 2.6,0,0,1024,1024,1024,1024,83.1,-90,96,4.035,4.026,4.043,4.043,4.065,4.02,16.143,95,14,Waypoint,
36.9906802,-119.1416894,5851.3271170325,201.115492,0,1.07069229148,26200,2018-06-13 22:08:17,15,0,24.22,5851.3271170325,201.115492,0.4921268,1.40378285332,0,0,-0.671082,84.2, 2.9, 2.6,0,0,1024,1024,1024,1024,83.1,-90,96,4.035,4.026,4.043,4.043,4.065,4.02,16.143,95,14,Waypoint,
36.9906803,-119.1416894,5852.3113690325,202.099744,0,1.10555777816,26300,2018-06-13 22:08:17,15,0,24.22,5852.3113690325,202.099744,0.4921268,1.40378285332,0,0,-0.671082,84.2, 3.1, 2.4,0,0,1024,1024,1024,1024,83.1,-89.9,96,4.035,4.026,4.043,4.043,4.065,4.02,16.143,95,14,Waypoint,
36.9906803,-119.1416893,5854.6079570325,204.396332,0,1.11435699104,26500,2018-06-13 22:08:18,15,0,24.22,5854.6079570325,204.396332,0.4921268,1.40378285332,0,0,-0.671082,84, 3.2, 2.1,0,0,1024,1024,1024,1024,83.1,-89.9,96,4.035,4.026,4.043,4.043,4.065,4.02,16.143,95,14,Waypoint,
36.9906803,-119.1416893,5855.5922090325,205.380584,0,1.11435699104,26700,2018-06-13 22:08:18,15,0,24.22,5855.5922090325,205.380584,0.4921268,1.40378285332,0,0,-0.671082,84, 3.6, 2.2,0,0,1024,1024,1024,1024,83.1,-89.9,96,4.035,4.026,4.043,4.043,4.065,4.02,16.143,95,14,Waypoint,
