Latitude, Longitude, Altitude (m), Time, Sats, Speed (m/s), Range (m), Battery (%), Roll (deg), Pitch (deg), Yaw (deg), Images, HD Signal (%), RC Signal (%), Battery Temp (C), Battery Voltage (mV), Battery Current (mA), Battery Energy (mAh), Battery Capacity (mAh), Battery Discharges, flyState, timestamp (Unix), LastUpdate (ms), radioChannel, Rc_elevator, Rc_aileron, Rc_throttle, Rc_rudder, Rc_gyro, Dronetype, Battery_Cell1 (mV), Battery_Cell2 (mV), Battery_Cell3 (mV), Battery_Cell4 (mV), Battery_Cell5 (mV), Battery_Cell6 (mV), Video, isFlying, elapsedTime (ms), gimbalPitch (deg), gimbalRoll (deg), gimbalYaw (deg), VelocityX (m/s), VelocityY (m/s), VelocityZ (m/s), GroundSmear (cm), App Version, Aircraft Name, Aircraft Firmware, Aircraft Serial Number, Battery Serial Number, Battery Lifetime (%), App_Tip, App_Warning, CurrentFlightStartingIndex, CurrentFlightLastVisitedWaypoint, PreviousFlightEndingWaypointIndex
36.9906497, -119.1416991, 0.000, 15:48:35.353, 14, 0.00, 0.12, 100, 0.500, 1.100, -96.200, 910, 100, 100, 31, 25846, -2877, 5434, 5434, 14, 11, 1528930115.353, 31, 0, 1024, 1024, 1024, 1024, 0, 6, 4327, 4321, 4319, 4320, 4327, 4324, 0, 1, 3038, -89.900, 0.000, -95.900, 0.000, 0.000, -0.100, 0.0, MapPilot_2.8.1_04242018, Dendroctonus I, 1.3.1.00, 041DDC1887, 1058171200279, 97, DJI_0907.jpg, Starting Mission from Lat/Long: 36.99066/-119.14170 Camera: Zenmuse X3 - Overlap: 90/90 - Active Connection: No, 27, 27, 27
36.9906497, -119.1416991, 0.000, 15:48:35.416, 14, 0.00, 0.12, 100, 0.500, 1.100, -96.200, 910, 100, 100, 31, 25846, -2877, 5434, 5434, 14, 11, 1528930115.417, 95, 0, 1024, 1024, 1024, 1024, 0, 6, 4327, 4321, 4319, 4320, 4327, 4324, 0, 1, 3102, -89.900, 0.000, -95.900, 0.000, 0.000, -0.100, 0.0, , , , , , 97, , , 27, 27, 27
36.9906496, -119.1416991, 0.000, 15:48:35.517, 14, 0.00, 0.13, 100, 0.300, 1.100, -96.200, 910, 100, 100, 31, 25846, -2877, 5434, 5434, 14, 11, 1528930115.517, 86, 0, 1024, 1024, 1024, 1024, 0, 6, 4321, 4304, 4303, 4291, 4303, 4303, 0, 1, 3202, -89.900, 0.000, -95.900, 0.000, 0.000, -0.200, 0.0, , , , , , 97, , , 27, 27, 27
36.9906496, -119.1416990, 0.000, 15:48:35.616, 14, 0.00, 0.13, 100, 0.500, 0.900, -96.200, 910, 100, 100, 31, 25846, -2877, 5434, 5434, 14, 11, 1528930115.617, 95, 0, 1024, 1024, 1024, 1024, 0, 6, 4321, 4304, 4303, 4291, 4303, 4303, 0, 1, 3302, -89.900, 0.000, -95.900, 0.000, 0.000, -0.200, 0.0, , , , , , 97, , , 27, 27, 27
36.9906496, -119.1416990, 0.000, 15:48:35.717, 14, 0.00, 0.13, 100, 0.400, 0.400, -96.200, 910, 100, 100, 31, 25846, -2877, 5434, 5434, 14, 11, 1528930115.717, 83, 0, 1024, 1024, 1024, 1024, 0, 6, 4321, 4304, 4303, 4291, 4303, 4303, 0, 1, 3402, -89.900, 0.000, -95.900, 0.000, 0.000, -0.300, 0.0, , , , , , 97, , , 27, 27, 27
36.9906496, -119.1416990, 0.100, 15:48:35.817, 15, 0.00, 0.14, 100, 0.400, 0.200, -96.200, 910, 100, 100, 31, 25846, -2877, 5434, 5434, 14, 11, 1528930115.817, 62, 0, 1024, 1024, 1024, 1024, 0, 6, 4321, 4304, 4303, 4291, 4303, 4303, 0, 1, 3502, -90.000, 0.000, -95.900, 0.000, 0.000, -0.300, 0.0, , , , , , 97, , , 27, 27, 27
36.9906495, -119.1416990, 0.100, 15:48:35.917, 15, 0.00, 0.14, 100, 0.200, 0.000, -96.300, 910, 100, 100, 31, 25846, -2877, 5434, 5434, 14, 11, 1528930115.917, 73, 0, 1024, 1024, 1024, 1024, 0, 6, 4321, 4304, 4303, 4291, 4303, 4303, 0, 1, 3602, -90.000, 0.000, -95.900, 0.000, 0.000, -0.400, 0.0, , , , , , 97, , , 27, 27, 27
36.9906495, -119.1416990, 0.100, 15:48:36.017, 14, 0.00, 0.14, 100, 0.200, -0.100, -96.400, 910, 100, 100, 31, 25846, -2877, 5434, 5434, 14, 11, 1528930116.017, 79, 0, 1024, 1024, 1024, 1024, 0, 6, 4321, 4304, 4303, 4291, 4303, 4303, 0, 1, 3703, -90.000, 0.000, -95.900, 0.000, 0.000, -0.400, 0.0, , , , , , 97, , , 27, 27, 27
36.9906495, -119.1416989, 0.200, 15:48:36.117, 14, 0.00, 0.14, 100, 0.100, -0.100, -96.400, 910, 100, 100, 31, 25846, -2877, 5434, 5434, 14, 11, 1528930116.117, 68, 0, 1024, 1024, 1024, 1024, 0, 6, 4321, 4304, 4303, 4291, 4303, 4303, 0, 1, 3803, -90.000, 0.000, -95.900, 0.000, 0.000, -0.400, 0.0, , , , , , 97, , , 27, 27, 27
36.9906495, -119.1416989, 0.200, 15:48:36.217, 15, 0.00, 0.15, 100, 0.200, -0.100, -96.500, 910, 100, 100, 31, 25846, -2877, 5434, 5434, 14, 11, 1528930116.217, 62, 0, 1024, 1024, 1024, 1024, 0, 6, 4321, 4304, 4303, 4291, 4303, 4303, 0, 1, 3902, -90.000, 0.000, -95.900, 0.000, 0.000, -0.400, 0.0, , , , , , 97, , , 27, 27, 27
36.9906495, -119.1416989, 0.300, 15:48:36.317, 15, 0.00, 0.15, 100, 0.000, -0.200, -96.500, 910, 100, 100, 31, 25846, -2877, 5434, 5434, 14, 11, 1528930116.317, 62, 0, 1024, 1024, 1024, 1024, 0, 6, 4321, 4304, 4303, 4291, 4303, 4303, 0, 1, 4003, -90.000, 0.000, -95.900, 0.000, 0.000, -0.400, 0.0, , , , , , 97, , , 27, 27, 27
36.9906495, -119.1416988, 0.300, 15:48:36.417, 14, 0.00, 0.15, 100, -0.100, -0.300, -96.500, 910, 100, 100, 31, 25846, -2877, 5434, 5434, 14, 11, 1528930116.417, 62, 0, 1024, 1024, 1024, 1024, 0, 6, 4321, 4304, 4303, 4291, 4303, 4303, 0, 1, 4103, -89.900, 0.000, -95.900, 0.000, 0.000, -0.400, 0.0, , , , , , 97, , , 27, 27, 27
36.9906495, -119.1416988, 0.400, 15:48:36.517, 14, 0.00, 0.15, 100, 0.000, -0.200, -96.500, 910, 100, 100, 31, 25335, -10293, 5434, 5434, 14, 11, 1528930116.517, 43, 0, 1024, 1024, 1024, 1024, 0, 6, 4221, 4206, 4217, 4186, 4197, 4202, 0, 1, 4203, -89.900, 0.000, -95.900, 0.000, 0.000, -0.400, 0.0, , , , , , 97, , , 27, 27, 27
36.9906494, -119.1416987, 0.400, 15:48:36.617, 14, 0.00, 0.16, 100, 0.100, -0.100, -96.500, 910, 100, 100, 31, 25335, -10293, 5434, 5434, 14, 11, 1528930116.617, 32, 0, 1024, 1024, 1024, 1024, 0, 6, 4221, 4206, 4217, 4186, 4197, 4202, 0, 1, 4303, -89.900, 0.000, -95.900, 0.000, 0.000, -0.400, 0.0, , , , , , 97, , , 27, 27, 27
36.9906495, -119.1416987, 0.500, 15:48:36.717, 14, 0.00, 0.16, 100, 0.000, -0.300, -96.500, 910, 100, 100, 31, 25335, -10293, 5434, 5434, 14, 11, 1528930116.717, 59, 0, 1024, 1024, 1024, 1024, 0, 6, 4221, 4206, 4217, 4186, 4197, 4202, 0, 1, 4403, -90.000, 0.000, -95.800, 0.000, 0.000, -0.400, 0.0, , , , , , 97, , , 27, 27, 27
36.9906495, -119.1416986, 0.500, 15:48:36.817, 14, 0.00, 0.16, 100, 0.000, -0.500, -96.500, 910, 100, 100, 31, 25335, -10293, 5434, 5434, 14, 11, 1528930116.817, 40, 0, 1024, 1024, 1024, 1024, 0, 6, 4221, 4206, 4217, 4186, 4197, 4202, 0, 1, 4503, -90.000, 0.000, -95.900, 0.000, 0.000, -0.400, 0.0, , , , , , 97, , , 27, 27, 27
36.9906495, -119.1416986, 0.600, 15:48:36.917, 14, 0.00, 0.16, 100, -0.100, -0.500, -96.400, 910, 100, 100, 31, 25335, -10293, 5434, 5434, 14, 11, 1528930116.917, 30, 0, 1024, 1024, 1024, 1024, 0, 6, 4221, 4206, 4217, 4186, 4197, 4202, 0, 1, 4603, -89.900, 0.000, -95.900, 0.000, 0.000, -0.400, 0.0, , , , , , 97, , , 27, 27, 27
36.9906495, -119.1416986, 0.700, 15:48:37.017, 16, 0.00, 0.16, 100, -0.200, -0.400, -96.400, 910, 100, 100, 31, 25335, -10293, 5434, 5434, 14, 11, 1528930117.017, 24, 0, 1024, 1024, 1024, 1024, 0, 6, 4221, 4206, 4217, 4186, 4197, 4202, 0, 1, 4703, -89.900, 0.000, -95.900, 0.000, 0.000, -0.400, 0.0, , , , , , 97, , , 27, 27, 27
36.9906496, -119.1416985, 0.700, 15:48:37.117, 16, 0.00, 0.16, 100, -0.300, -0.300, -96.500, 910, 100, 100, 31, 25335, -10293, 5434, 5434, 14, 11, 1528930117.117, 9, 0, 1024, 1024, 1024, 1024, 0, 6, 4221, 4206, 4217, 4186, 4197, 4202, 0, 1, 4803, -89.900, 0.000, -95.900, 0.000, 0.000, -0.400, 0.0, , , , , , 97, , , 27, 27, 27
36.9906496, -119.1416985, 0.800, 15:48:37.217, 16, 0.00, 0.16, 100, -0.500, -0.300, -96.500, 910, 100, 100, 31, 25335, -10293, 5434, 5434, 14, 11, 1528930117.217, 15, 0, 1024, 1024, 1024, 1024, 0, 6, 4221, 4206, 4217, 4186, 4197, 4202, 0, 1, 4903, -89.900, 0.000, -95.900, 0.000, 0.000, -0.500, 0.0, , , , , , 97, , , 27, 27, 27
36.9906496, -119.1416985, 0.800, 15:48:37.317, 16, 0.00, 0.16, 100, -0.700, -0.300, -96.500, 910, 100, 100, 31, 25335, -10293, 5434, 5434, 14, 11, 1528930117.317, 20, 0, 1024, 1024, 1024, 1024, 0, 6, 4221, 4206, 4217, 4186, 4197, 4202, 0, 1, 5003, -90.000, 0.000, -95.900, 0.000, 0.000, -0.400, 0.0, , , , , , 97, , , 27, 27, 27
36.9906497, -119.1416984, 0.900, 15:48:37.417, 16, 0.00, 0.16, 100, -0.700, -0.400, -96.500, 910, 100, 100, 31, 25335, -10293, 5434, 5434, 14, 6, 1528930117.417, 21, 0, 1024, 1024, 1024, 1024, 0, 6, 4221, 4206, 4217, 4186, 4197, 4202, 0, 1, 5103, -90.000, 0.000, -95.900, 0.000, 0.000, -0.400, 0.0, , , , , , 97, , , 27, 27, 27
36.9906497, -119.1416984, 0.900, 15:48:37.520, 16, 0.00, 0.15, 100, -0.800, -0.400, -96.600, 910, 100, 100, 31, 24863, -16471, 5434, 5434, 14, 14, 1528930117.520, 2, 0, 1024, 1024, 1024, 1024, 0, 6, 4221, 4206, 4217, 4186, 4197, 4202, 0, 1, 5205, -90.000, 0.000, -95.900, 0.000, 0.000, -0.300, 0.0, , , , , , 97, , , 27, 27, 27
36.9906497, -119.1416984, 0.900, 15:48:37.617, 16, 0.00, 0.15, 100, -0.800, -0.400, -96.600, 910, 100, 100, 31, 24863, -16471, 5434, 5434, 14, 14, 1528930117.617, 99, 0, 1024, 1024, 1024, 1024, 0, 6, 4151, 4140, 4130, 4133, 4156, 4141, 0, 1, 5303, -90.000, 0.000, -95.900, 0.000, 0.000, -0.300, 0.0, , , , , , 97, , , 27, 27, 27
36.9906498, -119.1416982, 1.000, 15:48:37.717, 15, 0.00, 0.16, 100, -1.100, -0.400, -96.900, 910, 100, 100, 31, 24863, -16471, 5434, 5434, 14, 14, 1528930117.717, 3, 0, 1024, 1024, 1024, 1024, 0, 6, 4151, 4140, 4130, 4133, 4156, 4141, 0, 1, 5403, -90.000, 0.000, -95.900, 0.000, 0.000, -0.300, 0.0, , , , , , 97, , , 27, 27, 27
36.9906498, -119.1416982, 1.000, 15:48:37.817, 15, 0.00, 0.16, 100, -1.100, -0.400, -96.900, 910, 100, 100, 31, 24863, -16471, 5434, 5434, 14, 14, 1528930117.818, 103, 0, 1024, 1024, 1024, 1024, 0, 6, 4151, 4140, 4130, 4133, 4156, 4141, 0, 1, 5503, -90.000, 0.000, -95.900, 0.000, 0.000, -0.300, 0.0, , , , , , 97, , , 27, 27, 27
36.9906498, -119.1416981, 1.000, 15:48:37.917, 15, 0.00, 0.17, 100, -0.900, -0.400, -97.000, 910, 100, 100, 31, 24863, -16471, 5434, 5434, 14, 14, 1528930117.918, 82, 0, 1024, 1024, 1024, 1024, 0, 6, 4151, 4140, 4130, 4133, 4156, 4141, 0, 1, 5603, -89.900, 0.000, -95.900, 0.000, 0.000, -0.400, 0.0, , , , , , 97, , , 27, 27, 27
36.9906497, -119.1416980, 1.100, 15:48:38.018, 13, 0.00, 0.18, 100, -0.600, -0.400, -97.000, 910, 100, 100, 31, 24863, -16471, 5434, 5434, 14, 14, 1528930118.019, 92, 0, 1024, 1024, 1024, 1024, 0, 6, 4151, 4140, 4130, 4133, 4156, 4141, 0, 1, 5704, -89.900, 0.000, -95.900, 0.000, 0.000, -0.500, 0.0, , , , , , 97, , , 27, 27, 27
36.9906497, -119.1416979, 1.100, 15:48:38.126, 13, 0.00, 0.19, 100, -0.200, -0.500, -96.900, 910, 100, 100, 31, 24863, -16471, 5434, 5434, 14, 14, 1528930118.126, 99, 0, 1024, 1024, 1024, 1024, 0, 6, 4151, 4140, 4130, 4133, 4156, 4141, 0, 1, 5812, -90.000, 0.000, -95.900, 0.000, 0.000, -0.600, 0.0, , , , , , 97, , , 27, 27, 27
36.9906496, -119.1416979, 1.200, 15:48:38.218, 13, 0.00, 0.20, 100, 0.000, -0.500, -96.700, 910, 100, 100, 31, 24863, -16471, 5434, 5434, 14, 14, 1528930118.218, 68, 0, 1024, 1024, 1024, 1024, 0, 6, 4151, 4140, 4130, 4133, 4156, 4141, 0, 1, 5903, -90.000, 0.000, -95.900, 0.000, 0.000, -0.800, 0.0, , , , , , 97, , , 27, 27, 27
36.9906495, -119.1416978, 1.300, 15:48:38.317, 13, 0.00, 0.21, 100, 0.300, -0.500, -96.400, 910, 100, 100, 31, 24863, -16471, 5434, 5434, 14, 14, 1528930118.318, 80, 0, 1024, 1024, 1024, 1024, 0, 6, 4151, 4140, 4130, 4133, 4156, 4141, 0, 1, 6003, -90.000, 0.000, -95.900, 0.000, 0.000, -1.000, 0.0, , , , , , 97, , , 27, 27, 27
36.9906495, -119.1416977, 1.400, 15:48:38.418, 14, 0.00, 0.22, 100, 0.500, -0.600, -96.100, 910, 100, 100, 31, 24863, -16471, 5434, 5434, 14, 14, 1528930118.418, 83, 0, 1024, 1024, 1024, 1024, 0, 6, 4151, 4140, 4130, 4133, 4156, 4141, 0, 1, 6104, -90.000, 0.000, -95.900, 0.000, 0.000, -1.200, 0.0, , , , , , 97, , , 27, 27, 27
36.9906494, -119.1416976, 1.600, 15:48:38.518, 14, 0.00, 0.23, 100, 0.600, -0.500, -95.700, 910, 100, 100, 31, 24780, -16623, 5434, 5434, 14, 14, 1528930118.518, 39, 0, 1024, 1024, 1024, 1024, 0, 6, 4132, 4128, 4117, 4121, 4139, 4137, 0, 1, 6204, -89.900, 0.000, -95.900, 0.000, 0.000, -1.500, 0.0, , , , , , 97, , , 27, 27, 27
36.9906493, -119.1416975, 1.800, 15:48:38.618, 14, 0.00, 0.24, 100, 0.500, -0.300, -95.400, 910, 100, 100, 31, 24780, -16623, 5434, 5434, 14, 14, 1528930118.618, 49, 0, 1024, 1024, 1024, 1024, 0, 6, 4132, 4128, 4117, 4121, 4139, 4137, 0, 1, 6304, -89.900, 0.000, -95.900, 0.000, 0.000, -1.800, 0.0, , , , , , 97, , , 27, 27, 27
36.9906492, -119.1416974, 2.000, 15:48:38.718, 14, 0.00, 0.25, 100, 0.300, -0.300, -95.200, 910, 100, 100, 31, 24780, -16623, 5434, 5434, 14, 14, 1528930118.718, 54, 0, 1024, 1024, 1024, 1024, 0, 6, 4132, 4128, 4117, 4121, 4139, 4137, 0, 1, 6404, -90.000, 0.000, -95.900, 0.000, 0.000, -1.900, 0.0, , , , , , 97, , , 27, 27, 27
36.9906491, -119.1416974, 2.200, 15:48:38.818, 14, 0.00, 0.26, 100, 0.000, -0.600, -95.300, 910, 100, 100, 31, 24780, -16623, 5434, 5434, 14, 14, 1528930118.818, 59, 0, 1024, 1024, 1024, 1024, 0, 6, 4132, 4128, 4117, 4121, 4139, 4137, 0, 1, 6504, -90.000, 0.000, -95.900, 0.000, 0.000, -2.100, 0.0, , , , , , 97, , , 27, 27, 27
36.9906489, -119.1416974, 2.400, 15:48:38.918, 14, 0.00, 0.28, 100, 0.000, -0.700, -95.400, 910, 100, 100, 31, 24780, -16623, 5434, 5434, 14, 14, 1528930118.918, 63, 0, 1024, 1024, 1024, 1024, 0, 6, 4132, 4128, 4117, 4121, 4139, 4137, 0, 1, 6604, -90.000, 0.000, -95.900, 0.000, 0.000, -2.200, 0.0, , , , , , 97, , , 27, 27, 27
36.9906488, -119.1416973, 2.600, 15:48:39.018, 16, 0.00, 0.29, 100, 0.500, -0.400, -95.500, 910, 100, 100, 31, 24780, -16623, 5434, 5434, 14, 14, 1528930119.018, 43, 0, 1024, 1024, 1024, 1024, 0, 6, 4132, 4128, 4117, 4121, 4139, 4137, 0, 1, 6704, -89.900, 0.000, -95.900, 0.000, 0.000, -2.400, 0.0, , , , , , 97, , , 27, 27, 27
36.9906486, -119.1416973, 2.900, 15:48:39.117, 16, 0.00, 0.31, 100, 1.000, -0.100, -95.600, 910, 100, 100, 31, 24780, -16623, 5434, 5434, 14, 14, 1528930119.117, 56, 0, 1024, 1024, 1024, 1024, 0, 6, 4132, 4128, 4117, 4121, 4139, 4137, 0, 1, 6803, -89.900, 0.000, -95.900, 0.000, 0.000, -2.600, 0.0, , , , , , 97, , , 27, 27, 27
36.9906485, -119.1416972, 3.200, 15:48:39.217, 16, 0.00, 0.32, 100, 1.400, -0.200, -95.800, 910, 100, 100, 31, 24780, -16623, 5434, 5434, 14, 14, 1528930119.217, 37, 0, 1024, 1024, 1024, 1024, 0, 6, 4132, 4128, 4117, 4121, 4139, 4137, 0, 1, 6903, -89.900, 0.000, -95.900, 0.000, 0.000, -2.900, 0.0, , , , , , 97, , , 27, 27, 27
36.9906485, -119.1416972, 3.500, 15:48:39.317, 16, 0.00, 0.33, 100, 1.300, -0.600, -95.800, 910, 100, 100, 31, 24780, -16623, 5434, 5434, 14, 14, 1528930119.317, 26, 0, 1024, 1024, 1024, 1024, 0, 6, 4132, 4128, 4117, 4121, 4139, 4137, 0, 1, 7003, -90.000, 0.000, -95.900, 0.000, 0.000, -3.000, 0.0, , , , , , 97, , , 27, 27, 27
36.9906484, -119.1416972, 3.800, 15:48:39.417, 16, 0.00, 0.33, 100, 1.100, -0.800, -95.700, 910, 100, 100, 31, 24780, -16623, 5434, 5434, 14, 14, 1528930119.417, 32, 0, 1024, 1024, 1024, 1024, 0, 6, 4132, 4128, 4117, 4121, 4139, 4137, 0, 1, 7103, -90.000, 0.000, -95.900, 0.000, 0.000, -3.100, 0.0, , , , , , 97, , , 27, 27, 27
36.9906484, -119.1416971, 4.100, 15:48:39.523, 16, 0.00, 0.34, 100, 0.900, -0.900, -95.500, 910, 100, 100, 31, 24780, -16623, 5434, 5434, 14, 14, 1528930119.523, 1, 0, 1024, 1024, 1024, 1024, 0, 6, 4132, 4128, 4117, 4121, 4139, 4137, 0, 1, 7208, -90.000, 0.000, -95.900, 0.000, 0.000, -3.200, 0.0, , , , , , 97, , , 27, 27, 27
36.9906484, -119.1416970, 4.400, 15:48:39.617, 15, 0.00, 0.34, 100, 0.500, -0.900, -95.500, 910, 100, 100, 31, 24505, -19431, 5325, 5434, 14, 14, 1528930119.617, 9, 0, 1024, 1024, 1024, 1024, 0, 6, 4069, 4060, 4057, 4065, 4082, 4082, 0, 1, 7303, -89.900, 0.000, -95.900, 0.000, 0.000, -3.200, 0.0, , , , , , 97, , , 27, 27, 27
36.9906485, -119.1416969, 4.800, 15:48:39.717, 15, 0.00, 0.34, 100, 0.200, -1.000, -95.500, 910, 100, 100, 31, 24505, -19431, 5325, 5434, 14, 14, 1528930119.717, 13, 0, 1024, 1024, 1024, 1024, 0, 6, 4069, 4060, 4057, 4065, 4082, 4082, 0, 1, 7403, -90.000, 0.000, -95.900, 0.000, 0.000, -3.300, 0.0, , , , , , 97, , , 27, 27, 27
36.9906487, -119.1416966, 5.500, 15:48:39.817, 15, 0.10, 0.35, 100, -0.500, -1.800, -95.500, 910, 100, 100, 31, 24505, -19431, 5325, 5434, 14, 14, 1528930119.818, 14, 0, 1024, 1024, 1024, 1024, 0, 6, 4069, 4060, 4057, 4065, 4082, 4082, 0, 1, 7503, -90.000, 0.000, -95.900, 0.100, 0.000, -3.300, 0.0, , , , , , 97, , , 27, 27, 27
36.9906488, -119.1416966, 5.900, 15:48:39.917, 16, 0.10, 0.34, 100, -0.800, -1.900, -95.400, 910, 100, 100, 31, 24505, -19431, 5325, 5434, 14, 14, 1528930119.917, 16, 0, 1024, 1024, 1024, 1024, 0, 6, 4069, 4060, 4057, 4065, 4082, 4082, 0, 1, 7603, -90.000, 0.000, -95.900, 0.100, 0.000, -3.300, 0.0, , , , , , 97, , , 27, 27, 27
36.9906488, -119.1416966, 5.900, 15:48:40.017, 16, 0.10, 0.34, 100, -0.800, -1.900, -95.400, 910, 100, 100, 31, 24505, -19431, 5325, 5434, 14, 14, 1528930120.018, 116, 0, 1024, 1024, 1024, 1024, 0, 6, 4069, 4060, 4057, 4065, 4082, 4082, 0, 1, 7703, -90.000, 0.000, -95.900, 0.100, 0.000, -3.300, 0.0, , , , , , 97, , , 27, 27, 27
36.9906491, -119.1416964, 6.500, 15:48:40.117, 16, 0.10, 0.34, 100, -1.000, -1.800, -95.200, 910, 100, 100, 31, 24505, -19431, 5325, 5434, 14, 14, 1528930120.117, 2, 0, 1024, 1024, 1024, 1024, 0, 6, 4069, 4060, 4057, 4065, 4082, 4082, 0, 1, 7803, -90.000, 0.000, -95.900, 0.100, 0.000, -3.100, 0.0, , , , , , 97, , , 27, 27, 27
36.9906491, -119.1416964, 6.500, 15:48:40.218, 16, 0.10, 0.34, 100, -1.000, -1.800, -95.200, 910, 100, 100, 31, 24505, -19431, 5325, 5434, 14, 14, 1528930120.219, 103, 0, 1024, 1024, 1024, 1024, 0, 6, 4069, 4060, 4057, 4065, 4082, 4082, 0, 1, 7904, -90.000, 0.000, -95.900, 0.100, 0.000, -3.100, 0.0, , , , , , 97, , , 27, 27, 27
36.9906492, -119.1416964, 6.900, 15:48:40.318, 16, 0.00, 0.33, 100, -0.700, -1.700, -95.200, 910, 100, 100, 31, 24505, -19431, 5325, 5434, 14, 14, 1528930120.319, 71, 0, 1024, 1024, 1024, 1024, 0, 6, 4069, 4060, 4057, 4065, 4082, 4082, 0, 1, 8004, -90.000, 0.000, -95.900, 0.000, 0.000, -3.100, 0.0, , , , , , 97, , , 27, 27, 27
36.9906493, -119.1416964, 7.200, 15:48:40.418, 16, 0.00, 0.33, 100, -0.600, -1.400, -95.300, 910, 100, 100, 31, 24505, -19431, 5325, 5434, 14, 14, 1528930120.418, 75, 0, 1024, 1024, 1024, 1024, 0, 6, 4069, 4060, 4057, 4065, 4082, 4082, 0, 1, 8104, -89.900, 0.000, -95.900, 0.000, 0.000, -3.100, 0.0, , , , , , 97, , , 27, 27, 27
36.9906494, -119.1416964, 7.500, 15:48:40.518, 16, 0.00, 0.32, 98, -0.600, -1.100, -95.400, 910, 100, 100, 31, 24231, -23325, 5325, 5434, 14, 14, 1528930120.519, 72, 0, 1024, 1024, 1024, 1024, 0, 6, 4069, 4060, 4057, 4065, 4082, 4082, 0, 1, 8204, -89.900, 0.000, -95.900, 0.000, 0.000, -3.100, 0.0, , , , , , 97, , , 27, 27, 27
36.9906495, -119.1416964, 7.800, 15:48:40.618, 16, 0.00, 0.32, 98, -0.700, -1.000, -95.600, 910, 100, 100, 31, 24231, -23325, 5325, 5434, 14, 14, 1528930120.619, 73, 0, 1024, 1024, 1024, 1024, 0, 6, 4069, 4060, 4057, 4065, 4082, 4082, 0, 1, 8304, -89.900, 0.000, -95.900, 0.000, 0.000, -3.000, 0.0, , , , , , 97, , , 27, 27, 27
36.9906495, -119.1416964, 8.100, 15:48:40.718, 16, 0.00, 0.31, 98, -0.900, -1.000, -95.700, 910, 100, 100, 31, 24231, -23325, 5325, 5434, 14, 14, 1528930120.719, 67, 0, 1024, 1024, 1024, 1024, 0, 6, 4069, 4060, 4057, 4065, 4082, 4082, 0, 1, 8404, -89.900, 0.000, -95.900, 0.000, 0.000, -3.100, 0.0, , , , , , 97, , , 27, 27, 27
36.9906496, -119.1416965, 8.500, 15:48:40.819, 16, 0.00, 0.31, 98, -0.900, -1.000, -95.900, 910, 100, 100, 31, 24231, -23325, 5325, 5434, 14, 14, 1528930120.819, 83, 0, 1024, 1024, 1024, 1024, 0, 6, 4069, 4060, 4057, 4065, 4082, 4082, 0, 1, 8505, -89.900, 0.000, -95.900, 0.000, 0.000, -3.100, 0.0, , , , , , 97, , , 27, 27, 27
36.9906497, -119.1416965, 8.800, 15:48:40.919, 16, 0.10, 0.30, 98, -0.800, -0.800, -96.000, 910, 100, 100, 31, 24231, -23325, 5325, 5434, 14, 14, 1528930120.919, 71, 0, 1024, 1024, 1024, 1024, 0, 6, 4069, 4060, 4057, 4065, 4082, 4082, 0, 1, 8604, -89.900, 0.000, -95.900, 0.000, -0.100, -3.100, 0.0, , , , , , 97, , , 27, 27, 27
36.9906498, -119.1416966, 9.100, 15:48:41.019, 16, 0.10, 0.29, 98, -0.900, -0.500, -95.900, 910, 100, 100, 31, 24231, -23325, 5325, 5434, 14, 14, 1528930121.019, 61, 0, 1024, 1024, 1024, 1024, 0, 6, 4053, 4047, 4046, 4039, 4071, 4068, 0, 1, 8704, -89.900, 0.000, -95.900, 0.000, -0.100, -3.100, 0.0, , , , , , 97, , , 27, 27, 27
36.9906499, -119.1416966, 9.500, 15:48:41.119, 16, 0.10, 0.28, 98, -0.900, -0.300, -95.800, 910, 100, 100, 31, 24231, -23325, 5325, 5434, 14, 14, 1528930121.119, 52, 0, 1024, 1024, 1024, 1024, 0, 6, 4053, 4047, 4046, 4039, 4071, 4068, 0, 1, 8804, -89.900, 0.000, -95.900, 0.000, -0.100, -3.100, 0.0, , , , , , 97, , , 27, 27, 27
36.9906499, -119.1416967, 9.800, 15:48:41.219, 16, 0.00, 0.28, 98, -0.900, -0.100, -95.600, 910, 100, 100, 31, 24231, -23325, 5325, 5434, 14, 14, 1528930121.219, 65, 0, 1024, 1024, 1024, 1024, 0, 6, 4053, 4047, 4046, 4039, 4071, 4068, 0, 1, 8904, -89.900, 0.000, -95.900, 0.000, 0.000, -3.000, 0.0, , , , , , 97, , , 27, 27, 27
36.9906500, -119.1416967, 10.100, 15:48:41.319, 16, 0.00, 0.27, 98, -1.000, -0.100, -95.700, 910, 100, 100, 31, 24231, -23325, 5325, 5434, 14, 14, 1528930121.319, 55, 0, 1024, 1024, 1024, 1024, 0, 6, 4053, 4047, 4046, 4039, 4071, 4068, 0, 1, 9004, -89.900, 0.000, -95.900, 0.000, 0.000, -3.000, 0.0, , , , , , 97, , , 27, 27, 27
36.9906500, -119.1416967, 10.400, 15:48:41.419, 16, 0.00, 0.27, 98, -1.200, -0.100, -95.700, 910, 100, 100, 31, 24231, -23325, 5325, 5434, 14, 14, 1528930121.419, 36, 0, 1024, 1024, 1024, 1024, 0, 6, 4053, 4047, 4046, 4039, 4071, 4068, 0, 1, 9104, -89.900, 0.000, -95.900, 0.000, 0.000, -3.100, 0.0, , , , , , 97, , , 27, 27, 27
36.9906501, -119.1416967, 10.700, 15:48:41.519, 16, 0.00, 0.27, 98, -1.200, -0.500, -95.700, 910, 100, 100, 31, 24231, -23325, 5325, 5434, 14, 14, 1528930121.519, 26, 0, 1024, 1024, 1024, 1024, 0, 6, 4053, 4047, 4046, 4039, 4071, 4068, 0, 1, 9204, -89.900, 0.000, -95.900, 0.000, 0.000, -3.000, 0.0, , , , , , 97, , , 27, 27, 27
36.9906502, -119.1416967, 11.100, 15:48:41.619, 16, 0.00, 0.27, 98, -1.200, -0.800, -95.800, 910, 100, 100, 31, 24231, -23325, 5325, 5434, 14, 14, 1528930121.619, 30, 0, 1024, 1024, 1024, 1024, 0, 6, 4053, 4047, 4046, 4039, 4071, 4068, 0, 1, 9304, -89.900, 0.000, -95.800, 0.000, 0.000, -3.000, 0.0, , , , , , 97, , , 27, 27, 27
36.9906502, -119.1416966, 11.400, 15:48:41.719, 16, 0.00, 0.27, 98, -1.200, -1.000, -95.800, 910, 100, 100, 31, 24231, -23325, 5325, 5434, 14, 14, 1528930121.719, 21, 0, 1024, 1024, 1024, 1024, 0, 6, 4053, 4047, 4046, 4039, 4071, 4068, 0, 1, 9404, -89.900, 0.000, -95.900, 0.000, 0.000, -2.900, 0.0, , , , , , 97, , , 27, 27, 27
36.9906503, -119.1416966, 11.700, 15:48:41.819, 16, 0.00, 0.28, 98, -1.200, -1.300, -95.900, 910, 100, 100, 31, 24231, -23325, 5325, 5434, 14, 14, 1528930121.819, 24, 0, 1024, 1024, 1024, 1024, 0, 6, 4053, 4047, 4046, 4039, 4071, 4068, 0, 1, 9504, -90.000, 0.000, -95.900, 0.000, 0.000, -2.900, 0.0, , , , , , 97, , , 27, 27, 27
36.9906503, -119.1416966, 12.000, 15:48:41.919, 16, 0.00, 0.28, 98, -1.200, -1.600, -95.900, 910, 100, 100, 31, 24231, -23325, 5325, 5434, 14, 14, 1528930121.919, 18, 0, 1024, 1024, 1024, 1024, 0, 6, 4053, 4047, 4046, 4039, 4071, 4068, 0, 1, 9605, -90.000, 0.000, -95.900, 0.000, 0.000, -2.900, 0.0, , , , , , 97, , , 27, 27, 27
36.9906503, -119.1416966, 12.300, 15:48:42.019, 16, 0.00, 0.28, 98, -1.200, -1.700, -95.800, 910, 100, 100, 31, 24471, -18390, 5325, 5434, 14, 14, 1528930122.019, 5, 0, 1024, 1024, 1024, 1024, 0, 6, 4053, 4047, 4046, 4039, 4071, 4068, 0, 1, 9705, -90.000, 0.000, -95.900, 0.000, 0.000, -2.900, 0.0, , , , , , 97, , , 27, 27, 27
36.9906503, -119.1416966, 12.300, 15:48:42.118, 16, 0.00, 0.28, 98, -1.200, -1.700, -95.800, 910, 100, 100, 31, 24471, -18390, 5325, 5434, 14, 14, 1528930122.118, 105, 0, 1024, 1024, 1024, 1024, 0, 6, 4053, 4047, 4046, 4039, 4071, 4068, 0, 1, 9804, -90.000, 0.000, -95.900, 0.000, 0.000, -2.900, 0.0, , , , , , 97, , , 27, 27, 27
36.9906503, -119.1416965, 13.200, 15:48:42.219, 16, 0.00, 0.28, 98, -1.000, -1.100, -95.700, 910, 100, 100, 31, 24471, -18390, 5325, 5434, 14, 14, 1528930122.220, 2, 0, 1024, 1024, 1024, 1024, 0, 6, 4088, 4071, 4073, 4076, 4096, 4085, 0, 1, 9905, -89.900, 0.000, -95.900, 0.000, 0.000, -3.000, 0.0, , , , , , 97, , , 27, 27, 27
36.9906503, -119.1416965, 13.500, 15:48:42.318, 16, 0.00, 0.28, 98, -1.000, -0.900, -95.700, 910, 100, 100, 31, 24471, -18390, 5325, 5434, 14, 14, 1528930122.318, 5, 0, 1024, 1024, 1024, 1024, 0, 6, 4088, 4071, 4073, 4076, 4096, 4085, 0, 1, 10004, -89.900, 0.000, -95.900, 0.000, 0.000, -2.900, 0.0, , , , , , 97, , , 27, 27, 27
36.9906502, -119.1416965, 13.800, 15:48:42.427, 16, 0.00, 0.28, 98, -1.000, -0.900, -95.700, 910, 100, 100, 31, 24471, -18390, 5325, 5434, 14, 14, 1528930122.428, 1, 0, 1024, 1024, 1024, 1024, 0, 6, 4088, 4071, 4073, 4076, 4096, 4085, 0, 1, 10113, -89.900, 0.000, -95.900, 0.000, 0.000, -2.900, 0.0, , , , , , 97, , , 27, 27, 27
36.9906502, -119.1416965, 14.100, 15:48:42.518, 17, 0.00, 0.29, 98, -1.100, -1.100, -95.700, 910, 100, 100, 31, 24471, -18390, 5325, 5434, 14, 14, 1528930122.518, 3, 0, 1024, 1024, 1024, 1024, 0, 6, 4088, 4071, 4073, 4076, 4096, 4085, 0, 1, 10203, -90.000, 0.000, -95.900, 0.000, 0.000, -3.000, 0.0, , , , , , 97, , , 27, 27, 27
36.9906502, -119.1416965, 14.100, 15:48:42.618, 17, 0.00, 0.29, 98, -1.100, -1.100, -95.700, 910, 100, 100, 31, 24471, -18390, 5325, 5434, 14, 14, 1528930122.618, 103, 0, 1024, 1024, 1024, 1024, 0, 6, 4088, 4071, 4073, 4076, 4096, 4085, 0, 1, 10304, -90.000, 0.000, -95.900, 0.000, 0.000, -3.000, 0.0, , , , , , 97, , , 27, 27, 27
36.9906501, -119.1416965, 14.400, 15:48:42.718, 17, 0.00, 0.28, 98, -1.100, -1.400, -95.700, 910, 100, 100, 31, 24471, -18390, 5325, 5434, 14, 14, 1528930122.718, 74, 0, 1024, 1024, 1024, 1024, 0, 6, 4088, 4071, 4073, 4076, 4096, 4085, 0, 1, 10404, -90.000, 0.000, -95.900, 0.000, 0.000, -2.900, 0.0, , , , , , 97, , , 27, 27, 27
36.9906501, -119.1416965, 14.700, 15:48:42.818, 17, 0.00, 0.28, 98, -1.000, -1.500, -95.700, 910, 100, 100, 31, 24471, -18390, 5325, 5434, 14, 14, 1528930122.818, 75, 0, 1024, 1024, 1024, 1024, 0, 6, 4088, 4071, 4073, 4076, 4096, 4085, 0, 1, 10504, -90.000, 0.000, -95.900, 0.000, 0.000, -2.900, 0.0, , , , , , 97, , , 27, 27, 27
36.9906501, -119.1416965, 15.000, 15:48:42.918, 17, 0.00, 0.29, 98, -0.700, -1.400, -95.700, 910, 100, 100, 31, 24471, -18390, 5325, 5434, 14, 14, 1528930122.918, 75, 0, 1024, 1024, 1024, 1024, 0, 6, 4088, 4071, 4073, 4076, 4096, 4085, 0, 1, 10604, -90.000, 0.000, -95.900, 0.000, 0.000, -2.900, 0.0, , , , , , 97, , , 27, 27, 27
36.9906500, -119.1416964, 15.300, 15:48:43.018, 17, 0.00, 0.29, 98, -0.500, -1.400, -95.800, 910, 100, 100, 31, 24467, -18617, 5325, 5434, 14, 14, 1528930123.018, 76, 0, 1024, 1024, 1024, 1024, 0, 6, 4073, 4072, 4058, 4060, 4100, 4085, 0, 1, 10704, -90.000, 0.000, -95.900, 0.000, 0.000, -2.800, 0.0, , , , , , 97, , , 27, 27, 27
36.9906499, -119.1416964, 15.600, 15:48:43.118, 17, 0.00, 0.30, 98, -0.100, -1.400, -95.800, 910, 100, 99, 31, 24467, -18617, 5325, 5434, 14, 14, 1528930123.118, 78, 0, 1024, 1024, 1024, 1024, 0, 6, 4073, 4072, 4058, 4060, 4100, 4085, 0, 1, 10804, -89.900, 0.000, -95.900, 0.000, 0.000, -2.800, 0.0, , , , , , 97, , , 27, 27, 27
36.9906498, -119.1416964, 15.900, 15:48:43.218, 17, 0.00, 0.30, 98, 0.100, -1.300, -95.900, 910, 100, 99, 31, 24467, -18617, 5325, 5434, 14, 14, 1528930123.218, 74, 0, 1024, 1024, 1024, 1024, 0, 6, 4073, 4072, 4058, 4060, 4100, 4085, 0, 1, 10904, -90.000, 0.000, -95.900, 0.000, 0.000, -2.800, 0.0, , , , , , 97, , , 27, 27, 27
36.9906497, -119.1416964, 16.200, 15:48:43.318, 17, 0.00, 0.31, 98, 0.100, -1.300, -96.000, 910, 100, 99, 31, 24467, -18617, 5325, 5434, 14, 14, 1528930123.319, 56, 0, 1024, 1024, 1024, 1024, 0, 6, 4073, 4072, 4058, 4060, 4100, 4085, 0, 1, 11004, -89.900, 0.000, -95.900, 0.000, 0.000, -2.800, 0.0, , , , , , 97, , , 27, 27, 27
36.9906497, -119.1416964, 16.400, 15:48:43.418, 17, 0.00, 0.31, 98, 0.100, -1.300, -96.000, 910, 100, 99, 31, 24467, -18617, 5325, 5434, 14, 14, 1528930123.419, 45, 0, 1024, 1024, 1024, 1024, 0, 6, 4073, 4072, 4058, 4060, 4100, 4085, 0, 1, 11104, -90.000, 0.000, -95.900, 0.000, 0.000, -2.900, 0.0, , , , , , 97, , , 27, 27, 27
36.9906495, -119.1416964, 16.700, 15:48:43.518, 17, 0.00, 0.31, 98, 0.100, -1.300, -96.000, 910, 100, 99, 31, 24467, -18617, 5325, 5434, 14, 14, 1528930123.519, 12, 0, 1024, 1024, 1024, 1024, 0, 6, 4073, 4072, 4058, 4060, 4100, 4085, 0, 1, 11204, -90.000, 0.000, -95.900, 0.000, 0.000, -2.900, 0.0, , , , , , 97, , , 27, 27, 27
36.9906495, -119.1416964, 16.700, 15:48:43.618, 17, 0.00, 0.31, 98, 0.100, -1.300, -96.000, 910, 100, 99, 31, 24467, -18617, 5325, 5434, 14, 14, 1528930123.619, 112, 0, 1024, 1024, 1024, 1024, 0, 6, 4073, 4072, 4058, 4060, 4100, 4085, 0, 1, 11304, -90.000, 0.000, -95.900, 0.000, 0.000, -2.900, 0.0, , , , , , 97, , , 27, 27, 27
36.9906493, -119.1416964, 17.300, 15:48:43.718, 17, 0.00, 0.32, 98, 0.200, -1.200, -96.100, 910, 100, 99, 31, 24467, -18617, 5325, 5434, 14, 14, 1528930123.719, 31, 0, 1024, 1024, 1024, 1024, 0, 6, 4073, 4072, 4058, 4060, 4100, 4085, 0, 1, 11404, -90.000, 0.000, -95.900, 0.000, 0.000, -2.900, 0.0, , , , , , 97, , , 27, 27, 27
36.9906493, -119.1416964, 17.300, 15:48:43.818, 17, 0.00, 0.32, 98, 0.200, -1.200, -96.100, 910, 100, 99, 31, 24467, -18617, 5325, 5434, 14, 14, 1528930123.819, 131, 0, 1024, 1024, 1024, 1024, 0, 6, 4073, 4072, 4058, 4060, 4100, 4085, 0, 1, 11504, -90.000, 0.000, -95.900, 0.000, 0.000, -2.900, 0.0, , , , , , 97, , , 27, 27, 27
36.9906491, -119.1416964, 17.900, 15:48:43.918, 17, 0.00, 0.33, 98, 0.300, -1.100, -95.800, 910, 100, 99, 31, 24467, -18617, 5325, 5434, 14, 14, 1528930123.919, 28, 0, 1024, 1024, 1024, 1024, 0, 6, 4073, 4072, 4058, 4060, 4100, 4085, 0, 1, 11604, -89.900, 0.000, -95.900, 0.000, 0.000, -3.000, 0.0, , , , , , 97, , , 27, 27, 27
36.9906490, -119.1416965, 18.200, 15:48:44.019, 17, 0.00, 0.33, 98, 0.300, -1.100, -95.700, 910, 100, 99, 31, 24415, -18655, 5325, 5434, 14, 14, 1528930124.019, 20, 0, 1024, 1024, 1024, 1024, 0, 6, 4070, 4060, 4058, 4056, 4094, 4077, 0, 1, 11704, -89.900, 0.000, -95.900, 0.000, 0.000, -3.000, 0.0, , , , , , 97, , , 27, 27, 27
36.9906490, -119.1416965, 18.500, 15:48:44.118, 17, 0.00, 0.34, 98, 0.300, -1.300, -95.600, 910, 100, 98, 31, 24415, -18655, 5325, 5434, 14, 14, 1528930124.119, 32, 0, 1024, 1024, 1024, 1024, 0, 6, 4070, 4060, 4058, 4056, 4094, 4077, 0, 1, 11804, -90.000, 0.000, -95.900, 0.000, 0.000, -3.000, 0.0, , , , , , 97, , , 27, 27, 27
36.9906489, -119.1416965, 18.800, 15:48:44.220, 17, 0.00, 0.34, 98, 0.300, -1.600, -95.700, 910, 100, 98, 31, 24415, -18655, 5325, 5434, 14, 14, 1528930124.221, 2, 0, 1024, 1024, 1024, 1024, 0, 6, 4070, 4060, 4058, 4056, 4094, 4077, 0, 1, 11906, -90.000, 0.000, -95.900, 0.000, 0.000, -3.000, 0.0, , , , , , 97, , , 27, 27, 27
36.9906489, -119.1416965, 19.100, 15:48:44.320, 17, 0.00, 0.34, 98, 0.100, -1.600, -95.900, 910, 100, 98, 31, 24415, -18655, 5325, 5434, 14, 14, 1528930124.320, 5, 0, 1024, 1024, 1024, 1024, 0, 6, 4070, 4060, 4058, 4056, 4094, 4077, 0, 1, 12006, -90.000, 0.000, -95.900, 0.000, 0.000, -3.000, 0.0, , , , , , 97, , , 27, 27, 27
36.9906489, -119.1416965, 19.500, 15:48:44.419, 17, 0.00, 0.34, 98, 0.000, -1.400, -96.100, 910, 100, 98, 31, 24415, -18655, 5325, 5434, 14, 14, 1528930124.420, 5, 0, 1024, 1024, 1024, 1024, 0, 6, 4070, 4060, 4058, 4056, 4094, 4077, 0, 1, 12105, -89.900, 0.000, -95.900, 0.000, 0.000, -3.000, 0.0, , , , , , 97, , , 27, 27, 27
36.9906489, -119.1416965, 19.500, 15:48:44.519, 17, 0.00, 0.34, 98, 0.000, -1.400, -96.100, 910, 100, 98, 31, 24415, -18655, 5325, 5434, 14, 14, 1528930124.519, 104, 0, 1024, 1024, 1024, 1024, 0, 6, 4070, 4060, 4058, 4056, 4094, 4077, 0, 1, 12204, -89.900, 0.000, -95.900, 0.000, 0.000, -3.000, 0.0, , , , , , 97, , , 27, 27, 27
36.9906488, -119.1416966, 20.100, 15:48:44.619, 17, 0.00, 0.34, 98, 0.000, -0.900, -96.100, 910, 100, 98, 31, 24415, -18655, 5325, 5434, 14, 14, 1528930124.619, 85, 0, 1024, 1024, 1024, 1024, 0, 6, 4070, 4060, 4058, 4056, 4094, 4077, 0, 1, 12305, -89.900, 0.000, -95.900, 0.000, 0.000, -3.000, 0.0, , , , , , 97, , , 27, 27, 27
36.9906486, -119.1416967, 20.700, 15:48:44.719, 17, 0.10, 0.34, 98, 0.400, -0.700, -95.800, 910, 100, 97, 31, 24415, -18655, 5325, 5434, 14, 14, 1528930124.719, 2, 0, 1024, 1024, 1024, 1024, 0, 6, 4070, 4060, 4058, 4056, 4094, 4077, 0, 1, 12404, -89.900, 0.000, -95.900, 0.000, -0.100, -2.900, 0.0, , , , , , 97, , , 27, 27, 27
36.9906486, -119.1416967, 20.700, 15:48:44.819, 17, 0.10, 0.34, 98, 0.400, -0.700, -95.800, 910, 100, 97, 31, 24415, -18655, 5325, 5434, 14, 14, 1528930124.819, 103, 0, 1024, 1024, 1024, 1024, 0, 6, 4070, 4060, 4058, 4056, 4094, 4077, 0, 1, 12505, -89.900, 0.000, -95.900, 0.000, -0.100, -2.900, 0.0, , , , , , 97, , , 27, 27, 27
36.9906485, -119.1416968, 21.300, 15:48:44.919, 17, 0.00, 0.34, 98, 0.800, -0.300, -95.500, 910, 100, 97, 31, 24415, -18655, 5325, 5434, 14, 14, 1528930124.919, 7, 0, 1024, 1024, 1024, 1024, 0, 6, 4070, 4060, 4058, 4056, 4094, 4077, 0, 1, 12605, -89.900, 0.000, -95.900, 0.000, 0.000, -2.900, 0.0, , , , , , 97, , , 27, 27, 27
36.9906485, -119.1416968, 21.300, 15:48:45.019, 17, 0.00, 0.34, 98, 0.800, -0.300, -95.500, 910, 100, 97, 31, 24415, -18655, 5325, 5434, 14, 14, 1528930125.019, 107, 0, 1024, 1024, 1024, 1024, 0, 6, 4070, 4060, 4058, 4056, 4094, 4077, 0, 1, 12705, -89.900, 0.000, -95.900, 0.000, 0.000, -2.900, 0.0, , , , , , 97, , , 27, 27, 27
36.9906485, -119.1416969, 21.600, 15:48:45.119, 17, 0.00, 0.34, 98, 0.800, -0.500, -95.500, 910, 100, 97, 32, 24348, -19277, 5325, 5434, 14, 14, 1528930125.119, 95, 0, 1024, 1024, 1024, 1024, 0, 6, 4057, 4053, 4047, 4048, 4088, 4058, 0, 1, 12805, -89.900, 0.000, -95.900, 0.000, 0.000, -2.900, 0.0, , , , , , 97, , , 27, 27, 27
36.9906485, -119.1416969, 21.900, 15:48:45.219, 17, 0.00, 0.34, 98, 0.600, -0.700, -95.500, 910, 100, 97, 32, 24348, -19277, 5325, 5434, 14, 14, 1528930125.219, 63, 0, 1024, 1024, 1024, 1024, 0, 6, 4057, 4053, 4047, 4048, 4088, 4058, 0, 1, 12905, -89.900, 0.000, -95.900, 0.000, 0.000, -2.900, 0.0, , , , , , 97, , , 27, 27, 27
36.9906485, -119.1416969, 22.200, 15:48:45.319, 17, 0.00, 0.35, 98, 0.500, -0.800, -95.500, 910, 100, 97, 32, 24348, -19277, 5325, 5434, 14, 14, 1528930125.319, 87, 0, 1024, 1024, 1024, 1024, 0, 6, 4057, 4053, 4047, 4048, 4088, 4058, 0, 1, 13005, -89.900, 0.000, -95.900, 0.000, 0.000, -3.000, 0.0, , , , , , 97, , , 27, 27, 27
36.9906485, -119.1416969, 22.500, 15:48:45.419, 17, 0.00, 0.35, 98, 0.400, -0.900, -95.500, 910, 100, 97, 32, 24348, -19277, 5325, 5434, 14, 14, 1528930125.419, 67, 0, 1024, 1024, 1024, 1024, 0, 6, 4057, 4053, 4047, 4048, 4088, 4058, 0, 1, 13105, -90.000, 0.000, -95.900, 0.000, 0.000, -2.900, 0.0, , , , , , 97, , , 27, 27, 27
36.9906485, -119.1416969, 22.700, 15:48:45.519, 17, 0.00, 0.34, 98, 0.300, -1.000, -95.600, 910, 100, 97, 32, 24348, -19277, 5325, 5434, 14, 14, 1528930125.519, 82, 0, 1024, 1024, 1024, 1024, 0, 6, 4057, 4053, 4047, 4048, 4088, 4058, 0, 1, 13205, -90.000, 0.000, -95.900, 0.000, 0.000, -2.900, 0.0, , , , , , 97, , , 27, 27, 27
36.9906485, -119.1416969, 23.000, 15:48:45.619, 17, 0.00, 0.34, 98, 0.200, -1.100, -95.600, 910, 100, 98, 32, 24348, -19277, 5325, 5434, 14, 14, 1528930125.619, 75, 0, 1024, 1024, 1024, 1024, 0, 6, 4057, 4053, 4047, 4048, 4088, 4058, 0, 1, 13305, -90.000, 0.000, -95.900, 0.000, 0.000, -2.900, 0.0, , , , , , 97, , , 27, 27, 27
36.9906485, -119.1416969, 23.300, 15:48:45.719, 17, 0.00, 0.34, 98, 0.000, -1.100, -95.700, 910, 100, 98, 32, 24348, -19277, 5325, 5434, 14, 14, 1528930125.719, 55, 0, 1024, 1024, 1024, 1024, 0, 6, 4057, 4053, 4047, 4048, 4088, 4058, 0, 1, 13405, -90.000, 0.000, -95.900, 0.000, 0.000, -2.900, 0.0, , , , , , 97, , , 27, 27, 27
36.9906485, -119.1416969, 23.600, 15:48:45.819, 17, 0.00, 0.34, 98, 0.000, -1.100, -95.700, 910, 100, 98, 32, 24348, -19277, 5325, 5434, 14, 14, 1528930125.819, 45, 0, 1024, 1024, 1024, 1024, 0, 6, 4057, 4053, 4047, 4048, 4088, 4058, 0, 1, 13505, -90.000, 0.000, -95.900, 0.000, 0.000, -2.900, 0.0, , , , , , 97, , , 27, 27, 27
36.9906485, -119.1416969, 23.900, 15:48:45.919, 17, 0.00, 0.34, 98, -0.100, -1.100, -95.700, 910, 100, 98, 32, 24348, -19277, 5325, 5434, 14, 14, 1528930125.919, 64, 0, 1024, 1024, 1024, 1024, 0, 6, 4057, 4053, 4047, 4048, 4088, 4058, 0, 1, 13605, -89.900, 0.000, -95.900, 0.000, 0.000, -3.000, 0.0, , , , , , 97, , , 27, 27, 27
36.9906485, -119.1416969, 24.200, 15:48:46.019, 17, 0.00, 0.34, 98, 0.000, -1.000, -95.700, 910, 100, 98, 32, 24348, -19277, 5325, 5434, 14, 14, 1528930126.019, 58, 0, 1024, 1024, 1024, 1024, 0, 6, 4057, 4053, 4047, 4048, 4088, 4058, 0, 1, 13705, -89.900, 0.000, -95.900, 0.000, 0.000, -2.900, 0.0, , , , , , 97, , , 27, 27, 27
36.9906485, -119.1416970, 24.500, 15:48:46.119, 17, 0.00, 0.33, 98, 0.000, -0.900, -95.700, 910, 100, 98, 32, 24348, -19277, 5325, 5434, 14, 14, 1528930126.119, 49, 0, 1024, 1024, 1024, 1024, 0, 6, 4057, 4053, 4047, 4048, 4088, 4058, 0, 1, 13805, -89.900, 0.000, -95.900, 0.000, 0.000, -3.000, 0.0, , , , , , 97, , , 27, 27, 27
36.9906486, -119.1416970, 24.800, 15:48:46.219, 17, 0.00, 0.33, 98, 0.100, -0.800, -95.700, 910, 100, 98, 32, 24348, -19277, 5325, 5434, 14, 14, 1528930126.219, 27, 0, 1024, 1024, 1024, 1024, 0, 6, 4057, 4053, 4047, 4048, 4088, 4058, 0, 1, 13905, -89.900, 0.000, -95.900, 0.000, 0.000, -3.000, 0.0, , , , , , 97, , , 27, 27, 27
36.9906486, -119.1416970, 25.100, 15:48:46.319, 17, 0.00, 0.33, 98, 0.100, -0.800, -95.700, 910, 100, 98, 32, 24348, -19277, 5325, 5434, 14, 14, 1528930126.319, 32, 0, 1024, 1024, 1024, 1024, 0, 6, 4057, 4053, 4047, 4048, 4088, 4058, 0, 1, 14005, -89.900, 0.000, -95.900, 0.000, 0.000, -3.000, 0.0, , , , , , 97, , , 27, 27, 27
36.9906486, -119.1416971, 25.400, 15:48:46.419, 17, 0.00, 0.33, 98, 0.000, -0.800, -95.700, 910, 100, 98, 32, 24348, -19277, 5325, 5434, 14, 14, 1528930126.419, 36, 0, 1024, 1024, 1024, 1024, 0, 6, 4057, 4053, 4047, 4048, 4088, 4058, 0, 1, 14105, -89.900, 0.000, -95.900, 0.000, 0.000, -3.000, 0.0, , , , , , 97, , , 27, 27, 27
36.9906486, -119.1416971, 25.700, 15:48:46.519, 17, 0.00, 0.32, 98, -0.100, -0.800, -95.800, 910, 100, 98, 32, 24363, -18780, 5325, 5434, 14, 14, 1528930126.520, 29, 0, 1024, 1024, 1024, 1024, 0, 6, 4071, 4063, 4038, 4061, 4079, 4069, 0, 1, 14205, -89.900, 0.000, -95.900, 0.000, 0.000, -3.000, 0.0, , , , , , 97, , , 27, 27, 27
36.9906486, -119.1416971, 26.000, 15:48:46.619, 17, 0.00, 0.32, 98, 0.000, -0.700, -95.700, 910, 100, 94, 32, 24363, -18780, 5325, 5434, 14, 14, 1528930126.620, 21, 0, 1024, 1024, 1024, 1024, 0, 6, 4071, 4063, 4038, 4061, 4079, 4069, 0, 1, 14305, -89.900, 0.000, -95.900, 0.000, 0.000, -2.900, 0.0, , , , , , 97, , , 27, 27, 27
36.9906486, -119.1416972, 26.300, 15:48:46.719, 17, 0.00, 0.32, 98, 0.000, -0.600, -95.700, 910, 100, 94, 32, 24363, -18780, 5325, 5434, 14, 14, 1528930126.719, 14, 0, 1024, 1024, 1024, 1024, 0, 6, 4071, 4063, 4038, 4061, 4079, 4069, 0, 1, 14405, -89.900, 0.000, -95.900, 0.000, 0.000, -3.000, 0.0, , , , , , 97, , , 27, 27, 27
36.9906486, -119.1416972, 26.600, 15:48:46.819, 18, 0.00, 0.32, 98, 0.000, -0.500, -95.700, 910, 100, 94, 32, 24363, -18780, 5325, 5434, 14, 14, 1528930126.819, 21, 0, 1024, 1024, 1024, 1024, 0, 6, 4071, 4063, 4038, 4061, 4079, 4069, 0, 1, 14505, -89.900, 0.000, -95.900, 0.000, 0.000, -3.000, 0.0, , , , , , 97, , , 27, 27, 27
36.9906486, -119.1416972, 27.000, 15:48:46.919, 18, 0.00, 0.31, 98, 0.100, -0.500, -95.700, 910, 100, 94, 32, 24363, -18780, 5325, 5434, 14, 14, 1528930126.920, 12, 0, 1024, 1024, 1024, 1024, 0, 6, 4071, 4063, 4038, 4061, 4079, 4069, 0, 1, 14605, -89.900, 0.000, -95.900, 0.000, 0.000, -3.000, 0.0, , , , , , 97, , , 27, 27, 27
36.9906486, -119.1416972, 27.300, 15:48:47.019, 18, 0.00, 0.31, 98, 0.100, -0.600, -95.700, 910, 100, 94, 32, 24363, -18780, 5325, 5434, 14, 14, 1528930127.019, 17, 0, 1024, 1024, 1024, 1024, 0, 6, 4071, 4063, 4038, 4061, 4079, 4069, 0, 1, 14705, -89.900, 0.000, -95.900, 0.000, 0.000, -3.000, 0.0, , , , , , 97, , , 27, 27, 27
36.9906487, -119.1416973, 27.600, 15:48:47.119, 18, 0.00, 0.31, 98, 0.200, -0.600, -95.700, 910, 100, 95, 32, 24363, -18780, 5325, 5434, 14, 14, 1528930127.119, 9, 0, 1024, 1024, 1024, 1024, 0, 6, 4071, 4063, 4038, 4061, 4079, 4069, 0, 1, 14805, -89.900, 0.000, -95.900, 0.000, 0.000, -2.900, 0.0, , , , , , 97, , , 27, 27, 27
36.9906487, -119.1416973, 27.600, 15:48:47.219, 18, 0.00, 0.31, 98, 0.200, -0.600, -95.700, 910, 100, 95, 32, 24363, -18780, 5325, 5434, 14, 14, 1528930127.220, 109, 0, 1024, 1024, 1024, 1024, 0, 6, 4071, 4063, 4038, 4061, 4079, 4069, 0, 1, 14905, -89.900, 0.000, -95.900, 0.000, 0.000, -2.900, 0.0, , , , , , 97, , , 27, 27, 27
36.9906487, -119.1416972, 28.200, 15:48:47.319, 18, 0.00, 0.31, 98, -0.100, -0.700, -95.800, 910, 100, 95, 32, 24363, -18780, 5325, 5434, 14, 14, 1528930127.320, 95, 0, 1024, 1024, 1024, 1024, 0, 6, 4071, 4063, 4038, 4061, 4079, 4069, 0, 1, 15005, -89.900, 0.000, -95.900, 0.000, 0.000, -2.900, 0.0, , , , , , 97, , , 27, 27, 27
36.9906487, -119.1416972, 28.500, 15:48:47.419, 18, 0.00, 0.31, 98, 0.000, -0.800, -95.800, 910, 100, 95, 32, 24363, -18780, 5325, 5434, 14, 14, 1528930127.420, 77, 0, 1024, 1024, 1024, 1024, 0, 6, 4071, 4063, 4038, 4061, 4079, 4069, 0, 1, 15105, -90.000, 0.000, -95.900, 0.000, 0.000, -2.900, 0.0, , , , , , 97, , , 27, 27, 27
36.9906487, -119.1416972, 28.800, 15:48:47.519, 18, 0.00, 0.30, 98, 0.000, -0.900, -95.700, 910, 100, 95, 32, 24363, -18780, 5325, 5434, 14, 14, 1528930127.520, 54, 0, 1024, 1024, 1024, 1024, 0, 6, 4071, 4063, 4038, 4061, 4079, 4069, 0, 1, 15205, -90.000, 0.000, -95.900, 0.000, 0.000, -2.900, 0.0, , , , , , 97, , , 27, 27, 27
36.9906487, -119.1416972, 29.100, 15:48:47.619, 18, 0.00, 0.30, 98, 0.000, -0.900, -95.700, 910, 100, 95, 32, 24328, -18897, 5325, 5434, 14, 14, 1528930127.620, 85, 0, 1024, 1024, 1024, 1024, 0, 6, 4058, 4050, 4044, 4048, 4074, 4063, 0, 1, 15305, -90.000, 0.000, -95.900, 0.000, 0.000, -2.900, 0.0, , , , , , 97, , , 27, 27, 27
36.9906487, -119.1416972, 29.400, 15:48:47.719, 18, 0.00, 0.30, 98, 0.000, -0.900, -95.700, 910, 100, 95, 32, 24328, -18897, 5325, 5434, 14, 14, 1528930127.720, 57, 0, 1024, 1024, 1024, 1024, 0, 6, 4058, 4050, 4044, 4048, 4074, 4063, 0, 1, 15405, -89.900, 0.000, -95.900, 0.000, 0.000, -2.900, 0.0, , , , , , 97, , , 27, 27, 27
36.9906488, -119.1416972, 29.700, 15:48:47.819, 18, 0.00, 0.30, 98, 0.000, -0.900, -95.700, 910, 100, 95, 32, 24328, -18897, 5325, 5434, 14, 14, 1528930127.820, 61, 0, 1024, 1024, 1024, 1024, 0, 6, 4058, 4050, 4044, 4048, 4074, 4063, 0, 1, 15505, -90.000, 0.000, -95.900, 0.000, 0.000, -2.900, 0.0, , , , , , 97, , , 27, 27, 27
36.9906488, -119.1416972, 30.000, 15:48:47.919, 18, 0.00, 0.30, 98, 0.000, -0.900, -95.700, 910, 100, 95, 32, 24328, -18897, 5325, 5434, 14, 14, 1528930127.920, 61, 0, 1024, 1024, 1024, 1024, 0, 6, 4058, 4050, 4044, 4048, 4074, 4063, 0, 1, 15605, -90.000, 0.000, -95.900, 0.000, 0.000, -2.900, 0.0, , , , , , 97, , , 27, 27, 27
36.9906489, -119.1416972, 30.300, 15:48:48.019, 18, 0.00, 0.30, 98, -0.100, -1.000, -95.700, 910, 100, 95, 32, 24328, -18897, 5325, 5434, 14, 14, 1528930128.020, 65, 0, 1024, 1024, 1024, 1024, 0, 6, 4058, 4050, 4044, 4048, 4074, 4063, 0, 1, 15705, -90.000, 0.000, -95.900, 0.000, 0.000, -2.900, 0.0, , , , , , 97, , , 27, 27, 27
36.9906489, -119.1416971, 30.600, 15:48:48.119, 18, 0.00, 0.30, 98, -0.100, -1.100, -95.800, 910, 100, 99, 32, 24328, -18897, 5325, 5434, 14, 14, 1528930128.120, 55, 0, 1024, 1024, 1024, 1024, 0, 6, 4058, 4050, 4044, 4048, 4074, 4063, 0, 1, 15805, -90.000, 0.000, -95.900, 0.000, 0.000, -3.000, 0.0, , , , , , 97, , , 27, 27, 27
36.9906489, -119.1416971, 30.900, 15:48:48.219, 18, 0.00, 0.30, 98, -0.200, -1.200, -95.800, 910, 100, 99, 32, 24328, -18897, 5325, 5434, 14, 14, 1528930128.220, 49, 0, 1024, 1024, 1024, 1024, 0, 6, 4058, 4050, 4044, 4048, 4074, 4063, 0, 1, 15905, -90.000, 0.000, -95.900, 0.000, 0.000, -2.900, 0.0, , , , , , 97, , , 27, 27, 27
36.9906490, -119.1416970, 31.200, 15:48:48.319, 18, 0.00, 0.30, 98, -0.300, -1.300, -95.800, 910, 100, 99, 32, 24328, -18897, 5325, 5434, 14, 14, 1528930128.320, 62, 0, 1024, 1024, 1024, 1024, 0, 6, 4058, 4050, 4044, 4048, 4074, 4063, 0, 1, 16005, -90.000, 0.000, -95.900, 0.000, 0.000, -2.900, 0.0, , , , , , 97, , , 27, 27, 27
36.9906490, -119.1416970, 31.500, 15:48:48.419, 18, 0.00, 0.30, 98, -0.400, -1.300, -95.800, 910, 100, 99, 32, 24328, -18897, 5325, 5434, 14, 14, 1528930128.420, 52, 0, 1024, 1024, 1024, 1024, 0, 6, 4058, 4050, 4044, 4048, 4074, 4063, 0, 1, 16105, -90.000, 0.000, -95.900, 0.000, 0.000, -2.900, 0.0, , , , , , 97, , , 27, 27, 27
36.9906490, -119.1416969, 31.800, 15:48:48.519, 18, 0.00, 0.30, 98, -0.300, -1.200, -95.800, 910, 100, 99, 32, 24317, -18533, 5325, 5434, 14, 14, 1528930128.520, 64, 0, 1024, 1024, 1024, 1024, 0, 6, 4055, 4046, 4041, 4042, 4075, 4059, 0, 1, 16205, -90.000, 0.000, -95.900, 0.000, 0.000, -2.900, 0.0, , , , , , 97, , , 27, 27, 27
36.9906490, -119.1416969, 32.100, 15:48:48.620, 18, 0.00, 0.31, 98, -0.100, -1.200, -95.700, 910, 100, 97, 32, 24317, -18533, 5325, 5434, 14, 14, 1528930128.620, 32, 0, 1024, 1024, 1024, 1024, 0, 6, 4055, 4046, 4041, 4042, 4075, 4059, 0, 1, 16305, -90.000, 0.000, -95.900, 0.000, 0.000, -2.900, 0.0, , , , , , 97, , , 27, 27, 27
36.9906490, -119.1416968, 32.400, 15:48:48.720, 18, 0.00, 0.31, 98, 0.000, -1.300, -95.700, 910, 100, 97, 32, 24317, -18533, 5325, 5434, 14, 14, 1528930128.720, 22, 0, 1024, 1024, 1024, 1024, 0, 6, 4055, 4046, 4041, 4042, 4075, 4059, 0, 1, 16405, -90.000, 0.000, -95.900, 0.000, 0.000, -2.900, 0.0, , , , , , 97, , , 27, 27, 27
36.9906490, -119.1416968, 32.700, 15:48:48.820, 18, 0.00, 0.31, 98, 0.200, -1.400, -95.700, 910, 100, 97, 32, 24317, -18533, 5325, 5434, 14, 14, 1528930128.820, 24, 0, 1024, 1024, 1024, 1024, 0, 6, 4055, 4046, 4041, 4042, 4075, 4059, 0, 1, 16506, -90.000, 0.000, -95.900, 0.000, 0.000, -2.900, 0.0, , , , , , 97, , , 27, 27, 27
36.9906490, -119.1416967, 33.000, 15:48:48.920, 18, 0.00, 0.32, 98, 0.300, -1.400, -95.800, 910, 100, 97, 32, 24317, -18533, 5325, 5434, 14, 14, 1528930128.920, 37, 0, 1024, 1024, 1024, 1024, 0, 6, 4055, 4046, 4041, 4042, 4075, 4059, 0, 1, 16605, -90.000, 0.000, -95.900, 0.000, 0.000, -2.900, 0.0, , , , , , 97, , , 27, 27, 27
36.9906490, -119.1416967, 33.000, 15:48:49.020, 18, 0.00, 0.32, 98, 0.300, -1.400, -95.800, 910, 100, 97, 32, 24317, -18533, 5325, 5434, 14, 14, 1528930129.020, 137, 0, 1024, 1024, 1024, 1024, 0, 6, 4055, 4046, 4041, 4042, 4075, 4059, 0, 1, 16706, -90.000, 0.000, -95.900, 0.000, 0.000, -2.900, 0.0, , , , , , 97, , , 27, 27, 27
36.9906490, -119.1416966, 33.600, 15:48:49.121, 18, 0.00, 0.32, 98, 0.200, -1.700, -95.800, 910, 100, 91, 32, 24317, -18533, 5325, 5434, 14, 14, 1528930129.122, 30, 0, 1024, 1024, 1024, 1024, 0, 6, 4055, 4046, 4041, 4042, 4075, 4059, 0, 1, 16807, -90.000, 0.000, -95.900, 0.000, 0.000, -2.900, 0.0, , , , , , 97, , , 27, 27, 27
36.9906490, -119.1416966, 33.900, 15:48:49.221, 18, 0.00, 0.33, 98, 0.300, -1.800, -95.700, 910, 100, 91, 32, 24317, -18533, 5325, 5434, 14, 14, 1528930129.221, 23, 0, 1024, 1024, 1024, 1024, 0, 6, 4055, 4046, 4041, 4042, 4075, 4059, 0, 1, 16907, -90.000, 0.000, -95.900, 0.000, 0.000, -3.000, 0.0, , , , , , 97, , , 27, 27, 27
36.9906490, -119.1416965, 34.200, 15:48:49.329, 18, 0.00, 0.33, 98, 0.400, -1.800, -95.700, 910, 100, 91, 32, 24317, -18533, 5325, 5434, 14, 14, 1528930129.329, 12, 0, 1024, 1024, 1024, 1024, 0, 6, 4055, 4046, 4041, 4042, 4075, 4059, 0, 1, 17015, -90.000, 0.000, -95.900, 0.000, 0.000, -3.000, 0.0, , , , , , 97, , , 27, 27, 27
36.9906490, -119.1416965, 34.500, 15:48:49.421, 18, 0.00, 0.33, 98, 0.300, -1.700, -95.700, 910, 100, 91, 32, 24317, -18533, 5325, 5434, 14, 14, 1528930129.422, 20, 0, 1024, 1024, 1024, 1024, 0, 6, 4055, 4046, 4041, 4042, 4075, 4059, 0, 1, 17108, -90.000, 0.000, -95.900, 0.000, 0.000, -3.000, 0.0, , , , , , 97, , , 27, 27, 27
36.9906490, -119.1416964, 35.100, 15:48:49.520, 18, 0.00, 0.34, 98, 0.100, -1.700, -95.800, 910, 100, 91, 32, 24299, -18788, 5270, 5434, 14, 14, 1528930129.521, 14, 0, 1024, 1024, 1024, 1024, 0, 6, 4052, 4047, 4029, 4039, 4068, 4055, 0, 1, 17206, -89.900, 0.000, -95.900, 0.000, 0.000, -2.900, 0.0, , , , , , 97, , , 27, 27, 27
36.9906490, -119.1416964, 35.400, 15:48:49.621, 18, 0.00, 0.34, 98, 0.200, -1.800, -95.800, 910, 100, 92, 32, 24299, -18788, 5270, 5434, 14, 14, 1528930129.622, 19, 0, 1024, 1024, 1024, 1024, 0, 6, 4052, 4047, 4029, 4039, 4068, 4055, 0, 1, 17308, -89.900, 0.000, -95.900, 0.000, 0.000, -2.900, 0.0, , , , , , 97, , , 27, 27, 27
36.9906490, -119.1416964, 35.400, 15:48:49.721, 18, 0.00, 0.34, 98, 0.200, -1.800, -95.800, 910, 100, 92, 32, 24299, -18788, 5270, 5434, 14, 14, 1528930129.721, 118, 0, 1024, 1024, 1024, 1024, 0, 6, 4052, 4047, 4029, 4039, 4068, 4055, 0, 1, 17407, -89.900, 0.000, -95.900, 0.000, 0.000, -2.900, 0.0, , , , , , 97, , , 27, 27, 27
36.9906490, -119.1416964, 35.700, 15:48:49.825, 18, 0.00, 0.34, 98, 0.400, -1.700, -95.800, 910, 100, 92, 32, 24299, -18788, 5270, 5434, 14, 14, 1528930129.825, 1, 0, 1024, 1024, 1024, 1024, 0, 6, 4052, 4047, 4029, 4039, 4068, 4055, 0, 1, 17511, -89.900, 0.000, -95.900, 0.000, 0.000, -3.000, 0.0, , , , , , 97, , , 27, 27, 27
36.9906490, -119.1416964, 35.700, 15:48:49.920, 18, 0.00, 0.34, 98, 0.400, -1.700, -95.800, 910, 100, 92, 32, 24299, -18788, 5270, 5434, 14, 14, 1528930129.921, 96, 0, 1024, 1024, 1024, 1024, 0, 6, 4052, 4047, 4029, 4039, 4068, 4055, 0, 1, 17606, -89.900, 0.000, -95.900, 0.000, 0.000, -3.000, 0.0, , , , , , 97, , , 27, 27, 27
36.9906489, -119.1416964, 36.300, 15:48:50.020, 18, 0.00, 0.35, 98, 0.500, -1.400, -95.800, 910, 100, 92, 32, 24299, -18788, 5270, 5434, 14, 14, 1528930130.020, 80, 0, 1024, 1024, 1024, 1024, 0, 6, 4052, 4047, 4029, 4039, 4068, 4055, 0, 1, 17706, -89.900, 0.000, -95.900, 0.000, 0.000, -2.900, 0.0, , , , , , 97, , , 27, 27, 27
36.9906489, -119.1416963, 36.600, 15:48:50.129, 18, 0.00, 0.35, 98, 0.400, -1.500, -95.900, 910, 100, 86, 32, 24299, -18788, 5270, 5434, 14, 14, 1528930130.129, 96, 0, 1024, 1024, 1024, 1024, 0, 6, 4052, 4047, 4029, 4039, 4068, 4055, 0, 1, 17815, -89.900, 0.000, -95.900, 0.000, 0.000, -2.900, 0.0, , , , , , 97, , , 27, 27, 27
36.9906489, -119.1416963, 36.900, 15:48:50.221, 18, 0.00, 0.35, 98, 0.200, -1.500, -96.000, 910, 100, 86, 32, 24299, -18788, 5270, 5434, 14, 14, 1528930130.221, 80, 0, 1024, 1024, 1024, 1024, 0, 6, 4052, 4047, 4029, 4039, 4068, 4055, 0, 1, 17907, -90.000, 0.000, -95.900, 0.000, 0.000, -2.900, 0.0, , , , , , 97, , , 27, 27, 27
36.9906489, -119.1416963, 37.200, 15:48:50.320, 18, 0.00, 0.35, 98, 0.400, -1.500, -96.000, 910, 100, 86, 32, 24299, -18788, 5270, 5434, 14, 14, 1528930130.320, 80, 0, 1024, 1024, 1024, 1024, 0, 6, 4052, 4047, 4029, 4039, 4068, 4055, 0, 1, 18006, -89.900, 0.000, -95.900, 0.000, 0.000, -2.900, 0.0, , , , , , 97, , , 27, 27, 27
36.9906489, -119.1416963, 37.500, 15:48:50.421, 18, 0.00, 0.36, 98, 0.700, -1.500, -95.900, 910, 100, 86, 32, 24299, -18788, 5270, 5434, 14, 14, 1528930130.421, 61, 0, 1024, 1024, 1024, 1024, 0, 6, 4052, 4047, 4029, 4039, 4068, 4055, 0, 1, 18107, -90.000, 0.000, -95.900, 0.000, 0.000, -2.900, 0.0, , , , , , 97, , , 27, 27, 27
36.9906488, -119.1416963, 37.800, 15:48:50.521, 18, 0.00, 0.36, 97, 0.900, -1.600, -95.900, 910, 100, 86, 32, 24295, -18673, 5270, 5434, 14, 14, 1528930130.521, 65, 0, 1024, 1024, 1024, 1024, 0, 6, 4048, 4045, 4038, 4036, 4073, 4053, 0, 1, 18207, -90.000, 0.000, -95.900, 0.000, 0.000, -2.900, 0.0, , , , , , 97, , , 27, 27, 27
36.9906488, -119.1416963, 38.100, 15:48:50.621, 18, 0.00, 0.37, 97, 1.100, -1.800, -95.800, 910, 100, 88, 32, 24295, -18673, 5270, 5434, 14, 14, 1528930130.621, 66, 0, 1024, 1024, 1024, 1024, 0, 6, 4048, 4045, 4038, 4036, 4073, 4053, 0, 1, 18306, -90.000, 0.000, -95.900, 0.000, 0.000, -2.900, 0.0, , , , , , 97, , , 27, 27, 27
36.9906487, -119.1416962, 38.400, 15:48:50.729, 18, 0.00, 0.37, 97, 1.200, -1.900, -95.700, 910, 100, 88, 32, 24295, -18673, 5270, 5434, 14, 14, 1528930130.729, 58, 0, 1024, 1024, 1024, 1024, 0, 6, 4048, 4045, 4038, 4036, 4073, 4053, 0, 1, 18415, -90.000, 0.000, -95.900, 0.000, 0.000, -2.900, 0.0, , , , , , 97, , , 27, 27, 27
36.9906486, -119.1416962, 38.700, 15:48:50.820, 18, 0.00, 0.38, 97, 1.300, -1.800, -95.700, 910, 100, 88, 32, 24295, -18673, 5270, 5434, 14, 14, 1528930130.820, 55, 0, 1024, 1024, 1024, 1024, 0, 6, 4048, 4045, 4038, 4036, 4073, 4053, 0, 1, 18506, -90.000, 0.000, -95.900, 0.000, 0.000, -2.900, 0.0, , , , , , 97, , , 27, 27, 27
36.9906486, -119.1416962, 38.700, 15:48:50.921, 18, 0.00, 0.38, 97, 1.300, -1.800, -95.700, 910, 100, 88, 32, 24295, -18673, 5270, 5434, 14, 14, 1528930130.921, 156, 0, 1024, 1024, 1024, 1024, 0, 6, 4048, 4045, 4038, 4036, 4073, 4053, 0, 1, 18607, -90.000, 0.000, -95.900, 0.000, 0.000, -2.900, 0.0, , , , , , 97, , , 27, 27, 27
36.9906486, -119.1416961, 39.300, 15:48:51.021, 18, 0.00, 0.39, 97, 1.400, -2.200, -95.700, 910, 100, 88, 32, 24295, -18673, 5270, 5434, 14, 14, 1528930131.021, 47, 0, 1024, 1024, 1024, 1024, 0, 6, 4048, 4045, 4038, 4036, 4073, 4053, 0, 1, 18707, -90.000, 0.000, -95.900, 0.000, 0.000, -2.900, 0.0, , , , , , 97, , , 27, 27, 27
36.9906486, -119.1416961, 39.300, 15:48:51.120, 18, 0.00, 0.39, 97, 1.400, -2.200, -95.700, 910, 100, 87, 32, 24295, -18673, 5270, 5434, 14, 14, 1528930131.120, 146, 0, 1024, 1024, 1024, 1024, 0, 6, 4048, 4045, 4038, 4036, 4073, 4053, 0, 1, 18806, -89.900, 0.000, -95.900, 0.000, 0.000, -2.900, 0.0, , , , , , 97, , , 27, 27, 27
36.9906486, -119.1416961, 39.300, 15:48:51.220, 18, 0.00, 0.39, 97, 1.400, -2.200, -95.700, 910, 100, 87, 32, 24295, -18673, 5270, 5434, 14, 14, 1528930131.220, 246, 0, 1024, 1024, 1024, 1024, 0, 6, 4048, 4045, 4038, 4036, 4073, 4053, 0, 1, 18906, -89.900, 0.000, -95.900, 0.000, 0.000, -2.900, 0.0, , , , , , 97, , , 27, 27, 27
36.9906486, -119.1416961, 39.300, 15:48:51.320, 18, 0.00, 0.39, 97, 1.400, -2.200, -95.700, 910, 100, 87, 32, 24295, -18673, 5270, 5434, 14, 14, 1528930131.320, 346, 0, 1024, 1024, 1024, 1024, 0, 6, 4048, 4045, 4038, 4036, 4073, 4053, 0, 1, 19006, -89.900, 0.000, -95.900, 0.000, 0.000, -2.900, 0.0, , , , , , 97, , , 27, 27, 27
36.9906485, -119.1416960, 40.500, 15:48:51.420, 18, 0.00, 0.40, 97, 1.300, -1.500, -96.000, 910, 100, 87, 32, 24295, -18673, 5270, 5434, 14, 14, 1528930131.420, 35, 0, 1024, 1024, 1024, 1024, 0, 6, 4048, 4045, 4038, 4036, 4073, 4053, 0, 1, 19106, -89.900, 0.000, -95.900, 0.000, 0.000, -2.900, 0.0, , , , , , 97, , , 27, 27, 27
36.9906486, -119.1416960, 40.800, 15:48:51.520, 18, 0.00, 0.40, 97, 0.900, -1.800, -96.100, 910, 100, 87, 32, 24283, -18383, 5270, 5434, 14, 14, 1528930131.520, 13, 0, 1024, 1024, 1024, 1024, 0, 6, 4048, 4045, 4038, 4036, 4073, 4053, 0, 1, 19206, -90.000, 0.000, -95.900, 0.000, 0.000, -2.900, 0.0, , , , , , 97, , , 27, 27, 27
36.9906486, -119.1416959, 41.100, 15:48:51.623, 18, 0.00, 0.40, 97, 0.600, -2.300, -96.000, 910, 100, 87, 32, 24283, -18383, 5270, 5434, 14, 14, 1528930131.623, 4, 0, 1024, 1024, 1024, 1024, 0, 6, 4048, 4045, 4038, 4036, 4073, 4053, 0, 1, 19309, -90.000, 0.000, -95.900, 0.000, 0.000, -2.900, 0.0, , , , , , 97, , , 27, 27, 27
36.9906487, -119.1416959, 41.400, 15:48:51.720, 18, 0.00, 0.40, 97, 0.200, -2.700, -95.900, 910, 100, 88, 32, 24283, -18383, 5270, 5434, 14, 14, 1528930131.720, 15, 0, 1024, 1024, 1024, 1024, 0, 6, 4048, 4045, 4038, 4036, 4073, 4053, 0, 1, 19406, -90.000, 0.000, -95.900, 0.000, 0.000, -2.900, 0.0, , , , , , 97, , , 27, 27, 27
36.9906487, -119.1416959, 41.400, 15:48:51.819, 18, 0.00, 0.40, 97, 0.200, -2.700, -95.900, 910, 100, 88, 32, 24283, -18383, 5270, 5434, 14, 14, 1528930131.820, 115, 0, 1024, 1024, 1024, 1024, 0, 6, 4048, 4045, 4038, 4036, 4073, 4053, 0, 1, 19505, -89.900, 0.000, -95.900, 0.000, 0.000, -2.900, 0.0, , , , , , 97, , , 27, 27, 27
36.9906488, -119.1416958, 41.900, 15:48:51.920, 18, 0.10, 0.40, 97, -0.100, -2.600, -95.600, 910, 100, 88, 32, 24283, -18383, 5270, 5434, 14, 14, 1528930131.920, 8, 0, 1024, 1024, 1024, 1024, 0, 6, 4048, 4045, 4038, 4036, 4073, 4053, 0, 1, 19605, -89.900, 0.000, -95.900, 0.100, 0.000, -2.800, 0.0, , , , , , 97, , , 27, 27, 27
36.9906488, -119.1416958, 42.200, 15:48:52.020, 18, 0.00, 0.40, 97, -0.300, -2.500, -95.500, 910, 100, 88, 32, 24283, -18383, 5270, 5434, 14, 14, 1528930132.020, 8, 0, 1024, 1024, 1024, 1024, 0, 6, 4051, 4046, 4030, 4032, 4064, 4053, 0, 1, 19706, -89.900, 0.000, -95.900, 0.000, 0.000, -2.900, 0.0, , , , , , 97, , , 27, 27, 27
36.9906488, -119.1416958, 42.800, 15:48:52.120, 18, 0.00, 0.40, 97, 0.000, -2.200, -95.200, 910, 100, 87, 32, 24283, -18383, 5270, 5434, 14, 14, 1528930132.120, 13, 0, 1024, 1024, 1024, 1024, 0, 6, 4051, 4046, 4030, 4032, 4064, 4053, 0, 1, 19806, -89.900, 0.000, -95.900, 0.000, 0.000, -2.900, 0.0, , , , , , 97, , , 27, 27, 27
36.9906488, -119.1416958, 42.800, 15:48:52.220, 18, 0.00, 0.40, 97, 0.000, -2.200, -95.200, 910, 100, 87, 32, 24283, -18383, 5270, 5434, 14, 14, 1528930132.220, 113, 0, 1024, 1024, 1024, 1024, 0, 6, 4051, 4046, 4030, 4032, 4064, 4053, 0, 1, 19906, -89.900, 0.000, -95.900, 0.000, 0.000, -2.900, 0.0, , , , , , 97, , , 27, 27, 27
36.9906489, -119.1416959, 43.400, 15:48:52.325, 18, 0.00, 0.39, 97, -0.400, -1.900, -95.400, 910, 100, 87, 32, 24283, -18383, 5270, 5434, 14, 14, 1528930132.325, 1, 0, 1024, 1024, 1024, 1024, 0, 6, 4051, 4046, 4030, 4032, 4064, 4053, 0, 1, 20011, -89.900, 0.000, -95.900, 0.000, 0.000, -2.900, 0.0, , , , , , 97, , , 27, 27, 27
36.9906489, -119.1416959, 43.700, 15:48:52.423, 18, 0.00, 0.39, 97, -0.100, -2.000, -95.500, 910, 100, 87, 32, 24283, -18383, 5270, 5434, 14, 14, 1528930132.423, 2, 0, 1024, 1024, 1024, 1024, 0, 6, 4051, 4046, 4030, 4032, 4064, 4053, 0, 1, 20108, -90.000, 0.000, -95.900, 0.000, 0.000, -2.900, 0.0, , , , , , 97, , , 27, 27, 27
36.9906489, -119.1416959, 43.700, 15:48:52.520, 18, 0.00, 0.39, 97, -0.100, -2.000, -95.500, 910, 100, 87, 32, 24283, -18383, 5270, 5434, 14, 14, 1528930132.520, 99, 0, 1024, 1024, 1024, 1024, 0, 6, 4051, 4046, 4030, 4032, 4064, 4053, 0, 1, 20206, -90.000, 0.000, -95.900, 0.000, 0.000, -2.900, 0.0, , , , , , 97, , , 27, 27, 27
36.9906489, -119.1416959, 44.000, 15:48:52.620, 18, 0.00, 0.39, 97, 0.100, -2.200, -95.600, 910, 100, 92, 32, 24283, -18383, 5270, 5434, 14, 14, 1528930132.620, 96, 0, 1024, 1024, 1024, 1024, 0, 6, 4051, 4046, 4030, 4032, 4064, 4053, 0, 1, 20306, -89.900, 0.000, -95.900, 0.000, 0.000, -2.900, 0.0, , , , , , 97, , , 27, 27, 27
36.9906489, -119.1416958, 44.200, 15:48:52.720, 18, 0.00, 0.39, 97, 0.300, -2.400, -95.700, 910, 100, 92, 32, 24283, -18383, 5270, 5434, 14, 14, 1528930132.720, 87, 0, 1024, 1024, 1024, 1024, 0, 6, 4051, 4046, 4030, 4032, 4064, 4053, 0, 1, 20406, -90.000, 0.000, -95.900, 0.000, 0.000, -3.000, 0.0, , , , , , 97, , , 27, 27, 27
36.9906489, -119.1416958, 44.500, 15:48:52.820, 18, 0.00, 0.39, 97, 0.500, -2.600, -95.700, 910, 100, 92, 32, 24283, -18383, 5270, 5434, 14, 14, 1528930132.820, 65, 0, 1024, 1024, 1024, 1024, 0, 6, 4051, 4046, 4030, 4032, 4064, 4053, 0, 1, 20506, -90.000, 0.000, -95.900, 0.000, 0.000, -3.000, 0.0, , , , , , 97, , , 27, 27, 27
36.9906489, -119.1416958, 44.800, 15:48:52.920, 18, 0.00, 0.40, 97, 0.500, -2.700, -95.700, 910, 100, 92, 32, 24283, -18383, 5270, 5434, 14, 14, 1528930132.920, 72, 0, 1024, 1024, 1024, 1024, 0, 6, 4051, 4046, 4030, 4032, 4064, 4053, 0, 1, 20606, -90.000, 0.000, -95.900, 0.000, 0.000, -2.900, 0.0, , , , , , 97, , , 27, 27, 27
36.9906489, -119.1416957, 45.100, 15:48:53.020, 18, 0.00, 0.40, 97, 0.400, -2.800, -95.600, 910, 100, 92, 32, 24283, -18383, 5270, 5434, 14, 14, 1528930133.020, 66, 0, 1024, 1024, 1024, 1024, 0, 6, 4051, 4046, 4030, 4032, 4064, 4053, 0, 1, 20706, -90.000, 0.000, -95.900, 0.000, 0.000, -2.900, 0.0, , , , , , 97, , , 27, 27, 27
36.9906489, -119.1416957, 45.400, 15:48:53.120, 18, 0.00, 0.40, 97, 0.300, -3.100, -95.700, 910, 100, 98, 32, 24283, -18383, 5270, 5434, 14, 14, 1528930133.121, 59, 0, 1024, 1024, 1024, 1024, 0, 6, 4051, 4046, 4030, 4032, 4064, 4053, 0, 1, 20806, -90.000, 0.000, -95.900, 0.000, 0.000, -3.100, 0.0, , , , , , 97, , , 27, 27, 27
