latitude,longitude,altitude(feet),ascent(feet),speed(mph),distance(feet),time(millisecond),datetime(utc),satellites,gpslevel,voltage(v),max_altitude(feet),max_ascent(feet),max_speed(mph),max_distance(feet), xSpeed(mph), ySpeed(mph), zSpeed(mph), compass_heading(degrees), pitch(degrees), roll(degrees),isPhoto,isVideo,rc_elevator,rc_aileron,rc_throttle,rc_rudder,gimbal_heading(degrees),gimbal_pitch(degrees),battery_percent,voltageCell1,voltageCell2,voltageCell3,voltageCell4,voltageCell5,voltageCell6,current(A),battery_temperature(f),flycStateRaw,flycState,message
36.9906497,-119.1416991,5649.6637506711,0,0,0,3040,2018-06-13 22:48:35,14,0,25.846,5649.6637506711,0,0,0,0,0,0,263.8, 1.1, 0.5,1,0,1024,1024,1024,1024,264.1,-89.9,100,4.327,4.321,4.319,4.32,4.327,4.324,2.877,87.8,11,AutoTakeoff,DJI_0907.jpg Starting Mission from Lat/Long: 36.99066/-119.14170 Camera: Zenmuse X3 - Overlap: 90/90 - Active Connection: No
36.9906497,-119.1416991,5649.6637506711,0,0,0,3100,2018-06-13 22:48:35,14,0,25.846,5649.6637506711,0,0,0,0,0,0,263.8, 1.1, 0.5,0,0,1024,1024,1024,1024,264.1,-89.9,100,4.327,4.321,4.319,4.32,4.327,4.324,2.877,87.8,11,AutoTakeoff,
36.9906496,-119.1416991,5649.6637506711,0,0,0.036484909304,3200,2018-06-13 22:48:36,14,0,25.846,5649.6637506711,0,0,0.036484909304,0,0,0,263.8, 1.1, 0.3,0,0,1024,1024,1024,1024,264.1,-89.9,100,4.327,4.321,4.319,4.32,4.327,4.324,2.877,87.8,11,AutoTakeoff,
36.9906496,-119.141699,5649.6637506711,0,0,0.0466945553,3300,2018-06-13 22:48:36,14,0,25.846,5649.6637506711,0,0,0.0466945553,0,0,0,263.8, 0.9, 0.5,0,0,1024,1024,1024,1024,264.1,-89.9,100,4.327,4.321,4.319,4.32,4.327,4.324,2.877,87.8,11,AutoTakeoff,
36.9906496,-119.141699,5649.6637506711,0,0,0.0466945553,3400,2018-06-13 22:48:36,14,0,25.846,5649.6637506711,0,0,0.0466945553,0,0,0,263.8, 0.4, 0.4,0,0,1024,1024,1024,1024,264.1,-89.9,100,4.327,4.321,4.319,4.32,4.327,4.324,2.877,87.8,11,AutoTakeoff,
36.9906496,-119.141699,5649.9918346711,0.328084,0,0.0466945553,3500,2018-06-13 22:48:36,15,0,25.846,5649.9918346711,0.328084,0,0.0466945553,0,0,0,263.8, 0.2, 0.4,0,0,1024,1024,1024,1024,264.1,-90,100,4.327,4.321,4.319,4.32,4.327,4.324,2.877,87.8,11,AutoTakeoff,
36.9906495,-119.141699,5649.9918346711,0.328084,0,0.078573821412,3600,2018-06-13 22:48:36,15,0,25.846,5649.9918346711,0.328084,0,0.078573821412,0,0,0,263.7, 0, 0.2,0,0,1024,1024,1024,1024,264.1,-90,100,4.327,4.321,4.319,4.32,4.327,4.324,2.877,87.8,11,AutoTakeoff,
36.9906495,-119.141699,5649.9918346711,0.328084,0,0.078573821412,3700,2018-06-13 22:48:36,14,0,25.846,5649.9918346711,0.328084,0,0.078573821412,0,0,0,263.6, -0.1, 0.2,0,0,1024,1024,1024,1024,264.1,-90,100,4.327,4.321,4.319,4.32,4.327,4.324,2.877,87.8,11,AutoTakeoff,
36.9906495,-119.1416989,5650.3199186711,0.656168,0,0.093389438684,3800,2018-06-13 22:48:36,14,0,25.846,5650.3199186711,0.656168,0,0.093389438684,0,0,0,263.6, -0.1, 0.1,0,0,1024,1024,1024,1024,264.1,-90,100,4.327,4.321,4.319,4.32,4.327,4.324,2.877,87.8,11,AutoTakeoff,
36.9906495,-119.1416989,5650.3199186711,0.656168,0,0.093389438684,3900,2018-06-13 22:48:36,15,0,25.846,5650.3199186711,0.656168,0,0.093389438684,0,0,0,263.5, -0.1, 0.2,0,0,1024,1024,1024,1024,264.1,-90,100,4.327,4.321,4.319,4.32,4.327,4.324,2.877,87.8,11,AutoTakeoff,
36.9906495,-119.1416989,5650.6480026711,0.984252,0,0.093389438684,4000,2018-06-13 22:48:36,15,0,25.846,5650.6480026711,0.984252,0,0.093389438684,0,0,0,263.5, -0.2, 0,0,0,1024,1024,1024,1024,264.1,-90,100,4.321,4.304,4.303,4.291,4.303,4.303,2.877,87.8,11,AutoTakeoff,
36.9906495,-119.1416988,5650.6480026711,0.984252,0,0.113875987896,4100,2018-06-13 22:48:36,14,0,25.846,5650.6480026711,0.984252,0,0.113875987896,0,0,0,263.5, -0.3, -0.1,0,0,1024,1024,1024,1024,264.1,-89.9,100,4.321,4.304,4.303,4.291,4.303,4.303,2.877,87.8,11,AutoTakeoff,
36.9906495,-119.1416988,5650.9760866711,1.312336,0,0.113875987896,4200,2018-06-13 22:48:37,14,0,25.846,5650.9760866711,1.312336,0,0.113875987896,0,0,0,263.5, -0.2, 0,0,0,1024,1024,1024,1024,264.1,-89.9,100,4.321,4.304,4.303,4.291,4.303,4.303,2.877,87.8,11,AutoTakeoff,
36.9906494,-119.1416987,5650.9760866711,1.312336,0,0.159900595668,4300,2018-06-13 22:48:37,14,0,25.846,5650.9760866711,1.312336,0,0.159900595668,0,0,0,263.5, -0.1, 0.1,0,0,1024,1024,1024,1024,264.1,-89.9,100,4.321,4.304,4.303,4.291,4.303,4.303,2.877,87.8,11,AutoTakeoff,
36.9906495,-119.1416987,5651.3041706711,1.64042,0,0.137522642196,4400,2018-06-13 22:48:37,14,0,25.846,5651.3041706711,1.64042,0,0.159900595668,0,0,0,263.5, -0.3, 0,0,0,1024,1024,1024,1024,264.2,-90,100,4.321,4.304,4.303,4.291,4.303,4.303,2.877,87.8,11,AutoTakeoff,
36.9906495,-119.1416986,5651.3041706711,1.64042,0,0.162958994716,4500,2018-06-13 22:48:37,14,0,25.846,5651.3041706711,1.64042,0,0.162958994716,0,0,0,263.5, -0.5, 0,0,0,1024,1024,1024,1024,264.1,-90,100,4.321,4.304,4.303,4.291,4.303,4.303,2.877,87.8,11,AutoTakeoff,
36.9906495,-119.1416986,5651.6322546711,1.968504,0,0.162958994716,4600,2018-06-13 22:48:37,14,0,25.846,5651.6322546711,1.968504,0,0.162958994716,0,0,0,263.6, -0.5, -0.1,0,0,1024,1024,1024,1024,264.1,-89.9,100,4.321,4.304,4.303,4.291,4.303,4.303,2.877,87.8,11,AutoTakeoff,
36.9906495,-119.1416986,5651.9603386711,2.296588,0,0.162958994716,4700,2018-06-13 22:48:37,16,0,25.846,5651.9603386711,2.296588,0,0.162958994716,0,0,0,263.6, -0.4, -0.2,0,0,1024,1024,1024,1024,264.1,-89.9,100,4.321,4.304,4.303,4.291,4.303,4.303,2.877,87.8,11,AutoTakeoff,
36.9906496,-119.1416985,5651.9603386711,2.296588,0,0.178616475532,4800,2018-06-13 22:48:37,16,0,25.846,5651.9603386711,2.296588,0,0.178616475532,0,0,0,263.5, -0.3, -0.3,0,0,1024,1024,1024,1024,264.1,-89.9,100,4.321,4.304,4.303,4.291,4.303,4.303,2.877,87.8,11,AutoTakeoff,
36.9906496,-119.1416985,5652.2884226711,2.624672,0,0.178616475532,4900,2018-06-13 22:48:37,16,0,25.846,5652.2884226711,2.624672,0,0.178616475532,0,0,-0.223694,263.5, -0.3, -0.5,0,0,1024,1024,1024,1024,264.1,-89.9,100,4.321,4.304,4.303,4.291,4.303,4.303,2.877,87.8,11,AutoTakeoff,
36.9906496,-119.1416985,5652.2884226711,2.624672,0,0.178616475532,5000,2018-06-13 22:48:37,16,0,25.335,5652.2884226711,2.624672,0,0.178616475532,0,0,0,263.5, -0.3, -0.7,0,0,1024,1024,1024,1024,264.1,-90,100,4.221,4.206,4.217,4.186,4.197,4.202,10.293,87.8,11,AutoTakeoff,
36.9906497,-119.1416984,5652.6165066711,2.952756,0,0.203992132512,5100,2018-06-13 22:48:37,16,0,25.335,5652.6165066711,2.952756,0,0.203992132512,0,0,0,263.5, -0.4, -0.7,0,0,1024,1024,1024,1024,264.1,-90,100,4.221,4.206,4.217,4.186,4.197,4.202,10.293,87.8,6,P-GPS,
36.9906497,-119.1416984,5652.6165066711,2.952756,0,0.203992132512,5210,2018-06-13 22:48:38,16,0,25.335,5652.6165066711,2.952756,0,0.203992132512,0,0,0,263.4, -0.4, -0.8,0,0,1024,1024,1024,1024,264.1,-90,100,4.221,4.206,4.217,4.186,4.197,4.202,10.293,87.8,14,Waypoint,
36.9906497,-119.1416984,5652.6165066711,2.952756,0,0.203992132512,5300,2018-06-13 22:48:38,16,0,25.335,5652.6165066711,2.952756,0,0.203992132512,0,0,0,263.4, -0.4, -0.8,0,0,1024,1024,1024,1024,264.1,-90,100,4.221,4.206,4.217,4.186,4.197,4.202,10.293,87.8,14,Waypoint,
36.9906498,-119.1416982,5652.9445906711,3.28084,0,0.264801189576,5400,2018-06-13 22:48:38,15,0,25.335,5652.9445906711,3.28084,0,0.264801189576,0,0,0,263.1, -0.4, -1.1,0,0,1024,1024,1024,1024,264.1,-90,100,4.221,4.206,4.217,4.186,4.197,4.202,10.293,87.8,14,Waypoint,
36.9906498,-119.1416981,5652.9445906711,3.28084,0,0.2936925947,5600,2018-06-13 22:48:38,15,0,25.335,5652.9445906711,3.28084,0,0.2936925947,0,0,0,263, -0.4, -0.9,0,0,1024,1024,1024,1024,264.1,-89.9,100,4.221,4.206,4.217,4.186,4.197,4.202,10.293,87.8,14,Waypoint,
36.9906497,-119.141698,5653.2726746711,3.608924,0,0.32055939346,5700,2018-06-13 22:48:38,13,0,25.335,5653.2726746711,3.608924,0,0.32055939346,0,0,-0.223694,263, -0.4, -0.6,0,0,1024,1024,1024,1024,264.1,-89.9,100,4.221,4.206,4.217,4.186,4.197,4.202,10.293,87.8,14,Waypoint,
36.9906497,-119.1416979,5653.2726746711,3.608924,0,0.34970145476,5810,2018-06-13 22:48:38,13,0,25.335,5653.2726746711,3.608924,0,0.34970145476,0,0,-0.223694,263.1, -0.5, -0.2,0,0,1024,1024,1024,1024,264.1,-90,100,4.221,4.206,4.217,4.186,4.197,4.202,10.293,87.8,14,Waypoint,
36.9906496,-119.1416979,5653.6007586711,3.937008,0,0.35159778028,5900,2018-06-13 22:48:38,13,0,25.335,5653.6007586711,3.937008,0,0.35159778028,0,0,-0.223694,263.3, -0.5, 0,0,0,1024,1024,1024,1024,264.1,-90,100,4.221,4.206,4.217,4.186,4.197,4.202,10.293,87.8,14,Waypoint,
36.9906495,-119.1416978,5653.9288426711,4.265092,0,0.38580709896,6000,2018-06-13 22:48:38,13,0,24.863,5653.9288426711,4.265092,0,0.38580709896,0,0,-0.223694,263.6, -0.5, 0.3,0,0,1024,1024,1024,1024,264.1,-90,100,4.151,4.14,4.13,4.133,4.156,4.141,16.471,87.8,14,Waypoint,
36.9906495,-119.1416977,5654.2569266711,4.593176,0,0.41445867468,6100,2018-06-13 22:48:38,14,0,24.863,5654.2569266711,4.593176,0,0.41445867468,0,0,-0.223694,263.9, -0.6, 0.5,0,0,1024,1024,1024,1024,264.1,-90,100,4.151,4.14,4.13,4.133,4.156,4.141,16.471,87.8,14,Waypoint,
36.9906494,-119.1416976,5654.9130946711,5.249344,0,0.45062009316,6200,2018-06-13 22:48:39,14,0,24.863,5654.9130946711,5.249344,0,0.45062009316,0,0,-0.447388,264.3, -0.5, 0.6,0,0,1024,1024,1024,1024,264.1,-89.9,100,4.151,4.14,4.13,4.133,4.156,4.141,16.471,87.8,14,Waypoint,
36.9906493,-119.1416975,5655.5692626711,5.905512,0,0.48857285028,6300,2018-06-13 22:48:39,14,0,24.863,5655.5692626711,5.905512,0,0.48857285028,0,0,-0.447388,264.6, -0.3, 0.5,0,0,1024,1024,1024,1024,264.1,-89.9,100,4.151,4.14,4.13,4.133,4.156,4.141,16.471,87.8,14,Waypoint,
36.9906492,-119.1416974,5656.2254306711,6.56168,0,0.52792980692,6400,2018-06-13 22:48:39,14,0,24.863,5656.2254306711,6.56168,0,0.52792980692,0,0,-0.447388,264.8, -0.3, 0.3,0,0,1024,1024,1024,1024,264.1,-90,100,4.151,4.14,4.13,4.133,4.156,4.141,16.471,87.8,14,Waypoint,
36.9906491,-119.1416974,5656.8815986711,7.217848,0,0.54162075224,6500,2018-06-13 22:48:39,14,0,24.863,5656.8815986711,7.217848,0,0.54162075224,0,0,-0.447388,264.7, -0.6, 0,0,0,1024,1024,1024,1024,264.1,-90,100,4.151,4.14,4.13,4.133,4.156,4.141,16.471,87.8,14,Waypoint,
36.9906489,-119.1416974,5657.5377666711,7.874016,0,0.5750000184,6600,2018-06-13 22:48:39,14,0,24.863,5657.5377666711,7.874016,0,0.5750000184,0,0,-0.447388,264.6, -0.7, 0,0,0,1024,1024,1024,1024,264.1,-90,100,4.151,4.14,4.13,4.133,4.156,4.141,16.471,87.8,14,Waypoint,
36.9906488,-119.1416973,5658.1939346711,8.530184,0,0.61885172584,6700,2018-06-13 22:48:39,16,0,24.863,5658.1939346711,8.530184,0,0.61885172584,0,0,-0.447388,264.5, -0.4, 0.5,0,0,1024,1024,1024,1024,264.1,-89.9,100,4.151,4.14,4.13,4.133,4.156,4.141,16.471,87.8,14,Waypoint,
36.9906486,-119.1416973,5659.1781866711,9.514436,0,0.66047246208,6800,2018-06-13 22:48:39,16,0,24.863,5659.1781866711,9.514436,0,0.66047246208,0,0,-0.671082,264.4, -0.1, 1,0,0,1024,1024,1024,1024,264.1,-89.9,100,4.151,4.14,4.13,4.133,4.156,4.141,16.471,87.8,14,Waypoint,
36.9906485,-119.1416972,5660.1624386711,10.498688,0,0.70587600684,6900,2018-06-13 22:48:39,16,0,24.863,5660.1624386711,10.498688,0,0.70587600684,0,0,-0.671082,264.2, -0.2, 1.4,0,0,1024,1024,1024,1024,264.1,-89.9,100,4.151,4.14,4.13,4.133,4.156,4.141,16.471,87.8,14,Waypoint,
36.9906485,-119.1416972,5661.1466906711,11.48294,0,0.70587600684,7000,2018-06-13 22:48:39,16,0,24.78,5661.1466906711,11.48294,0,0.70587600684,0,0,-0.671082,264.2, -0.6, 1.3,0,0,1024,1024,1024,1024,264.1,-90,100,4.132,4.128,4.117,4.121,4.139,4.137,16.623,87.8,14,Waypoint,
36.9906484,-119.1416972,5662.1309426711,12.467192,0,0.7290682648,7100,2018-06-13 22:48:39,16,0,24.78,5662.1309426711,12.467192,0,0.7290682648,0,0,-0.671082,264.3, -0.8, 1.1,0,0,1024,1024,1024,1024,264.1,-90,100,4.132,4.128,4.117,4.121,4.139,4.137,16.623,87.8,14,Waypoint,
36.9906484,-119.1416971,5663.1151946711,13.451444,0,0.75144031276,7210,2018-06-13 22:48:40,16,0,24.78,5663.1151946711,13.451444,0,0.75144031276,0,0,-0.671082,264.5, -0.9, 0.9,0,0,1024,1024,1024,1024,264.1,-90,100,4.132,4.128,4.117,4.121,4.139,4.137,16.623,87.8,14,Waypoint,
36.9906484,-119.141697,5664.0994466711,14.435696,0,0.7742618358,7300,2018-06-13 22:48:40,15,0,24.78,5664.0994466711,14.435696,0,0.7742618358,0,0,-0.671082,264.5, -0.9, 0.5,0,0,1024,1024,1024,1024,264.1,-89.9,100,4.132,4.128,4.117,4.121,4.139,4.137,16.623,87.8,14,Waypoint,
36.9906485,-119.1416969,5665.4117826711,15.748032,0,0.77634845004,7400,2018-06-13 22:48:40,15,0,24.78,5665.4117826711,15.748032,0,0.77634845004,0,0,-0.671082,264.5, -1, 0.2,0,0,1024,1024,1024,1024,264.1,-90,100,4.132,4.128,4.117,4.121,4.139,4.137,16.623,87.8,14,Waypoint,
36.9906487,-119.1416966,5667.7083706711,18.04462,0.223694,0.814796614,7500,2018-06-13 22:48:40,15,0,24.78,5667.7083706711,18.04462,0.223694,0.814796614,0,0,-0.671082,264.5, -1.8, -0.5,0,0,1024,1024,1024,1024,264.1,-90,100,4.132,4.128,4.117,4.121,4.139,4.137,16.623,87.8,14,Waypoint,
36.9906488,-119.1416966,5669.0207066711,19.356956,0.223694,0.79912404132,7600,2018-06-13 22:48:40,16,0,24.78,5669.0207066711,19.356956,0.223694,0.814796614,0,0,-0.671082,264.6, -1.9, -0.8,0,0,1024,1024,1024,1024,264.1,-90,100,4.132,4.128,4.117,4.121,4.139,4.137,16.623,87.8,14,Waypoint,
36.9906491,-119.1416964,5670.9892106711,21.32546,0.223694,0.81671262456,7800,2018-06-13 22:48:40,16,0,24.78,5670.9892106711,21.32546,0.223694,0.81671262456,0,0,-0.671082,264.8, -1.8, -1,0,0,1024,1024,1024,1024,264.1,-90,100,4.132,4.128,4.117,4.121,4.139,4.137,16.623,87.8,14,Waypoint,
36.9906492,-119.1416964,5672.3015466711,22.637796,0,0.80769687624,8000,2018-06-13 22:48:40,16,0,24.505,5672.3015466711,22.637796,0.223694,0.81671262456,0,0,-0.671082,264.8, -1.7, -0.7,0,0,1024,1024,1024,1024,264.1,-90,100,4.069,4.06,4.057,4.065,4.082,4.082,19.431,87.8,14,Waypoint,
36.9906493,-119.1416964,5673.2857986711,23.622048,0,0.8002460886,8100,2018-06-13 22:48:40,16,0,24.505,5673.2857986711,23.622048,0.223694,0.81671262456,0,0,-0.671082,264.7, -1.4, -0.6,0,0,1024,1024,1024,1024,264.1,-89.9,100,4.069,4.06,4.057,4.065,4.082,4.082,19.431,87.8,14,Waypoint,
36.9906494,-119.1416964,5674.2700506711,24.6063,0,0.79440291256,8200,2018-06-13 22:48:41,16,0,24.505,5674.2700506711,24.6063,0.223694,0.81671262456,0,0,-0.671082,264.6, -1.1, -0.6,0,0,1024,1024,1024,1024,264.1,-89.9,100,4.069,4.06,4.057,4.065,4.082,4.082,19.431,87.8,14,Waypoint,
36.9906495,-119.1416964,5675.2543026711,25.590552,0,0.79020343736,8300,2018-06-13 22:48:41,16,0,24.505,5675.2543026711,25.590552,0.223694,0.81671262456,0,0,-0.671082,264.4, -1, -0.7,0,0,1024,1024,1024,1024,264.1,-89.9,100,4.069,4.06,4.057,4.065,4.082,4.082,19.431,87.8,14,Waypoint,
36.9906495,-119.1416964,5676.2385546711,26.574804,0,0.79020343736,8400,2018-06-13 22:48:41,16,0,24.505,5676.2385546711,26.574804,0.223694,0.81671262456,0,0,-0.671082,264.3, -1, -0.9,0,0,1024,1024,1024,1024,264.1,-89.9,100,4.069,4.06,4.057,4.065,4.082,4.082,19.431,87.8,14,Waypoint,
36.9906496,-119.1416965,5677.5508906711,27.88714,0,0.7585630164,8510,2018-06-13 22:48:41,16,0,24.505,5677.5508906711,27.88714,0.223694,0.81671262456,0,0,-0.671082,264.1, -1, -0.9,0,0,1024,1024,1024,1024,264.1,-89.9,100,4.069,4.06,4.057,4.065,4.082,4.082,19.431,87.8,14,Waypoint,
36.9906497,-119.1416965,5678.5351426711,28.871392,0.223694,0.75768703212,8600,2018-06-13 22:48:41,16,0,24.505,5678.5351426711,28.871392,0.223694,0.81671262456,0,0,-0.671082,264, -0.8, -0.8,0,0,1024,1024,1024,1024,264.1,-89.9,100,4.069,4.06,4.057,4.065,4.082,4.082,19.431,87.8,14,Waypoint,
36.9906498,-119.1416966,5679.5193946711,29.855644,0.223694,0.72945540392,8700,2018-06-13 22:48:41,16,0,24.505,5679.5193946711,29.855644,0.223694,0.81671262456,0,0,-0.671082,264.1, -0.5, -0.9,0,0,1024,1024,1024,1024,264.1,-89.9,100,4.069,4.06,4.057,4.065,4.082,4.082,19.431,87.8,14,Waypoint,
36.9906499,-119.1416966,5680.8317306711,31.16798,0.223694,0.73218834364,8800,2018-06-13 22:48:41,16,0,24.505,5680.8317306711,31.16798,0.223694,0.81671262456,0,0,-0.671082,264.2, -0.3, -0.9,0,0,1024,1024,1024,1024,264.1,-89.9,100,4.069,4.06,4.057,4.065,4.082,4.082,19.431,87.8,14,Waypoint,
36.9906499,-119.1416967,5681.8159826711,32.152232,0,0.7031988414,8900,2018-06-13 22:48:41,16,0,24.505,5681.8159826711,32.152232,0.223694,0.81671262456,0,0,-0.671082,264.4, -0.1, -0.9,0,0,1024,1024,1024,1024,264.1,-89.9,100,4.069,4.06,4.057,4.065,4.082,4.082,19.431,87.8,14,Waypoint,
36.99065,-119.1416967,5682.8002346711,33.136484,0,0.70791340848,9000,2018-06-13 22:48:41,16,0,24.231,5682.8002346711,33.136484,0.223694,0.81671262456,0,0,-0.671082,264.3, -0.1, -1,0,0,1024,1024,1024,1024,264.1,-89.9,98,4.053,4.047,4.046,4.039,4.071,4.068,23.325,87.8,14,Waypoint,
36.99065,-119.1416967,5683.7844866711,34.120736,0,0.70791340848,9100,2018-06-13 22:48:41,16,0,24.231,5683.7844866711,34.120736,0.223694,0.81671262456,0,0,-0.671082,264.3, -0.1, -1.2,0,0,1024,1024,1024,1024,264.1,-89.9,98,4.053,4.047,4.046,4.039,4.071,4.068,23.325,87.8,14,Waypoint,
36.9906501,-119.1416967,5684.7687386711,35.104988,0,0.71446524596,9200,2018-06-13 22:48:42,16,0,24.231,5684.7687386711,35.104988,0.223694,0.81671262456,0,0,-0.671082,264.3, -0.5, -1.2,0,0,1024,1024,1024,1024,264.1,-89.9,98,4.053,4.047,4.046,4.039,4.071,4.068,23.325,87.8,14,Waypoint,
36.9906502,-119.1416967,5686.0810746711,36.417324,0,0.7228018604,9300,2018-06-13 22:48:42,16,0,24.231,5686.0810746711,36.417324,0.223694,0.81671262456,0,0,-0.671082,264.2, -0.8, -1.2,0,0,1024,1024,1024,1024,264.2,-89.9,98,4.053,4.047,4.046,4.039,4.071,4.068,23.325,87.8,14,Waypoint,
36.9906502,-119.1416966,5687.0653266711,37.401576,0,0.75103676944,9400,2018-06-13 22:48:42,16,0,24.231,5687.0653266711,37.401576,0.223694,0.81671262456,0,0,-0.671082,264.2, -1, -1.2,0,0,1024,1024,1024,1024,264.1,-89.9,98,4.053,4.047,4.046,4.039,4.071,4.068,23.325,87.8,14,Waypoint,
36.9906503,-119.1416966,5688.0495786711,38.385828,0,0.76072180912,9500,2018-06-13 22:48:42,16,0,24.231,5688.0495786711,38.385828,0.223694,0.81671262456,0,0,-0.671082,264.1, -1.3, -1.2,0,0,1024,1024,1024,1024,264.1,-90,98,4.053,4.047,4.046,4.039,4.071,4.068,23.325,87.8,14,Waypoint,
36.9906503,-119.1416966,5689.0338306711,39.37008,0,0.76072180912,9610,2018-06-13 22:48:42,16,0,24.231,5689.0338306711,39.37008,0.223694,0.81671262456,0,0,-0.671082,264.1, -1.6, -1.2,0,0,1024,1024,1024,1024,264.1,-90,98,4.053,4.047,4.046,4.039,4.071,4.068,23.325,87.8,14,Waypoint,
36.9906503,-119.1416966,5690.0180826711,40.354332,0,0.76072180912,9710,2018-06-13 22:48:42,16,0,24.231,5690.0180826711,40.354332,0.223694,0.81671262456,0,0,-0.671082,264.2, -1.7, -1.2,0,0,1024,1024,1024,1024,264.1,-90,98,4.053,4.047,4.046,4.039,4.071,4.068,23.325,87.8,14,Waypoint,
36.9906503,-119.1416965,5692.9708386711,43.307088,0,0.78867456592,9900,2018-06-13 22:48:42,16,0,24.231,5692.9708386711,43.307088,0.223694,0.81671262456,0,0,-0.671082,264.3, -1.1, -1,0,0,1024,1024,1024,1024,264.1,-89.9,98,4.053,4.047,4.046,4.039,4.071,4.068,23.325,87.8,14,Waypoint,
36.9906503,-119.1416965,5693.9550906711,44.29134,0,0.78867456592,10000,2018-06-13 22:48:42,16,0,24.471,5693.9550906711,44.29134,0.223694,0.81671262456,0,0,-0.671082,264.3, -0.9, -1,0,0,1024,1024,1024,1024,264.1,-89.9,98,4.088,4.071,4.073,4.076,4.096,4.085,18.39,87.8,14,Waypoint,
36.9906502,-119.1416965,5694.9393426711,45.275592,0,0.77933729528,10110,2018-06-13 22:48:42,16,0,24.471,5694.9393426711,45.275592,0.223694,0.81671262456,0,0,-0.671082,264.3, -0.9, -1,0,0,1024,1024,1024,1024,264.1,-89.9,98,4.088,4.071,4.073,4.076,4.096,4.085,18.39,87.8,14,Waypoint,
36.9906502,-119.1416965,5695.9235946711,46.259844,0,0.77933729528,10200,2018-06-13 22:48:43,17,0,24.471,5695.9235946711,46.259844,0.223694,0.81671262456,0,0,-0.671082,264.3, -1.1, -1.1,0,0,1024,1024,1024,1024,264.1,-90,98,4.088,4.071,4.073,4.076,4.096,4.085,18.39,87.8,14,Waypoint,
36.9906501,-119.1416965,5696.9078466711,47.244096,0,0.77161091708,10400,2018-06-13 22:48:43,17,0,24.471,5696.9078466711,47.244096,0.223694,0.81671262456,0,0,-0.671082,264.3, -1.4, -1.1,0,0,1024,1024,1024,1024,264.1,-90,98,4.088,4.071,4.073,4.076,4.096,4.085,18.39,87.8,14,Waypoint,
36.9906501,-119.1416965,5697.8920986711,48.228348,0,0.77161091708,10500,2018-06-13 22:48:43,17,0,24.471,5697.8920986711,48.228348,0.223694,0.81671262456,0,0,-0.671082,264.3, -1.5, -1,0,0,1024,1024,1024,1024,264.1,-90,98,4.088,4.071,4.073,4.076,4.096,4.085,18.39,87.8,14,Waypoint,
36.9906501,-119.1416965,5698.8763506711,49.2126,0,0.77161091708,10600,2018-06-13 22:48:43,17,0,24.471,5698.8763506711,49.2126,0.223694,0.81671262456,0,0,-0.671082,264.3, -1.4, -0.7,0,0,1024,1024,1024,1024,264.1,-90,98,4.088,4.071,4.073,4.076,4.096,4.085,18.39,87.8,14,Waypoint,
36.99065,-119.1416964,5699.8606026711,50.196852,0,0.79440291256,10700,2018-06-13 22:48:43,17,0,24.471,5699.8606026711,50.196852,0.223694,0.81671262456,0,0,-0.671082,264.2, -1.4, -0.5,0,0,1024,1024,1024,1024,264.1,-90,98,4.088,4.071,4.073,4.076,4.096,4.085,18.39,87.8,14,Waypoint,
36.9906499,-119.1416964,5700.8448546711,51.181104,0,0.79020343736,10800,2018-06-13 22:48:43,17,0,24.471,5700.8448546711,51.181104,0.223694,0.81671262456,0,0,-0.671082,264.2, -1.4, -0.1,0,0,1024,1024,1024,1024,264.1,-89.9,98,4.088,4.071,4.073,4.076,4.096,4.085,18.39,87.8,14,Waypoint,
36.9906498,-119.1416964,5701.8291066711,52.165356,0,0.78767390972,10900,2018-06-13 22:48:43,17,0,24.471,5701.8291066711,52.165356,0.223694,0.81671262456,0,0,-0.671082,264.1, -1.3, 0.1,0,0,1024,1024,1024,1024,264.1,-90,98,4.088,4.071,4.073,4.076,4.096,4.085,18.39,87.8,14,Waypoint,
36.9906497,-119.1416964,5702.8133586711,53.149608,0,0.786827453,11000,2018-06-13 22:48:43,17,0,24.467,5702.8133586711,53.149608,0.223694,0.81671262456,0,0,-0.671082,264, -1.3, 0.1,0,0,1024,1024,1024,1024,264.1,-89.9,98,4.073,4.072,4.058,4.06,4.1,4.085,18.617,87.8,14,Waypoint,
36.9906497,-119.1416964,5703.4695266711,53.805776,0,0.786827453,11100,2018-06-13 22:48:43,17,0,24.467,5703.4695266711,53.805776,0.223694,0.81671262456,0,0,-0.671082,264, -1.3, 0.1,0,0,1024,1024,1024,1024,264.1,-90,98,4.073,4.072,4.058,4.06,4.1,4.085,18.617,87.8,14,Waypoint,
36.9906495,-119.1416964,5704.4537786711,54.790028,0,0.79020343736,11200,2018-06-13 22:48:44,17,0,24.467,5704.4537786711,54.790028,0.223694,0.81671262456,0,0,-0.671082,264, -1.3, 0.1,0,0,1024,1024,1024,1024,264.1,-90,98,4.073,4.072,4.058,4.06,4.1,4.085,18.617,87.8,14,Waypoint,
36.9906493,-119.1416964,5706.4222826711,56.758532,0,0.8002460886,11400,2018-06-13 22:48:44,17,0,24.467,5706.4222826711,56.758532,0.223694,0.81671262456,0,0,-0.671082,263.9, -1.2, 0.2,0,0,1024,1024,1024,1024,264.1,-90,98,4.073,4.072,4.058,4.06,4.1,4.085,18.617,87.8,14,Waypoint,
36.9906491,-119.1416964,5708.3907866711,58.727036,0,0.81671262456,11600,2018-06-13 22:48:44,17,0,24.467,5708.3907866711,58.727036,0.223694,0.81671262456,0,0,-0.671082,264.2, -1.1, 0.3,0,0,1024,1024,1024,1024,264.1,-89.9,98,4.073,4.072,4.058,4.06,4.1,4.085,18.617,87.8,14,Waypoint,
36.990649,-119.1416965,5709.3750386711,59.711288,0,0.79957023556,11700,2018-06-13 22:48:44,17,0,24.467,5709.3750386711,59.711288,0.223694,0.81671262456,0,0,-0.671082,264.3, -1.1, 0.3,0,0,1024,1024,1024,1024,264.1,-89.9,98,4.073,4.072,4.058,4.06,4.1,4.085,18.617,87.8,14,Waypoint,
36.990649,-119.1416965,5710.3592906711,60.69554,0,0.79957023556,11800,2018-06-13 22:48:44,17,0,24.467,5710.3592906711,60.69554,0.223694,0.81671262456,0,0,-0.671082,264.4, -1.3, 0.3,0,0,1024,1024,1024,1024,264.1,-90,98,4.073,4.072,4.058,4.06,4.1,4.085,18.617,87.8,14,Waypoint,
36.9906489,-119.1416965,5711.3435426711,61.679792,0,0.81196196824,11910,2018-06-13 22:48:44,17,0,24.467,5711.3435426711,61.679792,0.223694,0.81671262456,0,0,-0.671082,264.3, -1.6, 0.3,0,0,1024,1024,1024,1024,264.1,-90,98,4.073,4.072,4.058,4.06,4.1,4.085,18.617,87.8,14,Waypoint,
36.9906489,-119.1416965,5712.3277946711,62.664044,0,0.81196196824,12010,2018-06-13 22:48:44,17,0,24.415,5712.3277946711,62.664044,0.223694,0.81671262456,0,0,-0.671082,264.1, -1.6, 0.1,0,0,1024,1024,1024,1024,264.1,-90,98,4.07,4.06,4.058,4.056,4.094,4.077,18.655,87.8,14,Waypoint,
36.9906489,-119.1416965,5713.6401306711,63.97638,0,0.81196196824,12110,2018-06-13 22:48:44,17,0,24.415,5713.6401306711,63.97638,0.223694,0.81671262456,0,0,-0.671082,263.9, -1.4, 0,0,0,1024,1024,1024,1024,264.1,-89.9,98,4.07,4.06,4.058,4.056,4.094,4.077,18.655,87.8,14,Waypoint,
36.9906488,-119.1416966,5715.6086346711,65.944884,0,0.79912404132,12300,2018-06-13 22:48:45,17,0,24.415,5715.6086346711,65.944884,0.223694,0.81671262456,0,0,-0.671082,263.9, -0.9, 0,0,0,1024,1024,1024,1024,264.1,-89.9,98,4.07,4.06,4.058,4.056,4.094,4.077,18.655,87.8,14,Waypoint,
36.9906486,-119.1416967,5717.5771386711,67.913388,0.223694,0.80637141688,12400,2018-06-13 22:48:45,17,0,24.415,5717.5771386711,67.913388,0.223694,0.81671262456,0,0,-0.671082,264.2, -0.7, 0.4,0,0,1024,1024,1024,1024,264.1,-89.9,98,4.07,4.06,4.058,4.056,4.094,4.077,18.655,87.8,14,Waypoint,
36.9906485,-119.1416968,5719.5456426711,69.881892,0,0.80058401512,12610,2018-06-13 22:48:45,17,0,24.415,5719.5456426711,69.881892,0.223694,0.81671262456,0,0,-0.671082,264.5, -0.3, 0.8,0,0,1024,1024,1024,1024,264.1,-89.9,98,4.07,4.06,4.058,4.056,4.094,4.077,18.655,87.8,14,Waypoint,
36.9906485,-119.1416969,5720.5298946711,70.866144,0,0.77634845004,12800,2018-06-13 22:48:45,17,0,24.415,5720.5298946711,70.866144,0.223694,0.81671262456,0,0,-0.671082,264.5, -0.5, 0.8,0,0,1024,1024,1024,1024,264.1,-89.9,98,4.07,4.06,4.058,4.056,4.094,4.077,18.655,87.8,14,Waypoint,
36.9906485,-119.1416969,5721.5141466711,71.850396,0,0.77634845004,12900,2018-06-13 22:48:45,17,0,24.415,5721.5141466711,71.850396,0.223694,0.81671262456,0,0,-0.671082,264.5, -0.7, 0.6,0,0,1024,1024,1024,1024,264.1,-89.9,98,4.07,4.06,4.058,4.056,4.094,4.077,18.655,87.8,14,Waypoint,
36.9906485,-119.1416969,5722.4983986711,72.834648,0,0.77634845004,13010,2018-06-13 22:48:45,17,0,24.348,5722.4983986711,72.834648,0.223694,0.81671262456,0,0,-0.671082,264.5, -0.8, 0.5,0,0,1024,1024,1024,1024,264.1,-89.9,98,4.057,4.053,4.047,4.048,4.088,4.058,19.277,89.6,14,Waypoint,
36.9906485,-119.1416969,5723.4826506711,73.8189,0,0.77634845004,13110,2018-06-13 22:48:45,17,0,24.348,5723.4826506711,73.8189,0.223694,0.81671262456,0,0,-0.671082,264.5, -0.9, 0.4,0,0,1024,1024,1024,1024,264.1,-90,98,4.057,4.053,4.047,4.048,4.088,4.058,19.277,89.6,14,Waypoint,
36.9906485,-119.1416969,5724.1388186711,74.475068,0,0.77634845004,13210,2018-06-13 22:48:46,17,0,24.348,5724.1388186711,74.475068,0.223694,0.81671262456,0,0,-0.671082,264.4, -1, 0.3,0,0,1024,1024,1024,1024,264.1,-90,98,4.057,4.053,4.047,4.048,4.088,4.058,19.277,89.6,14,Waypoint,
36.9906485,-119.1416969,5725.1230706711,75.45932,0,0.77634845004,13300,2018-06-13 22:48:46,17,0,24.348,5725.1230706711,75.45932,0.223694,0.81671262456,0,0,-0.671082,264.4, -1.1, 0.2,0,0,1024,1024,1024,1024,264.1,-90,98,4.057,4.053,4.047,4.048,4.088,4.058,19.277,89.6,14,Waypoint,
36.9906485,-119.1416969,5726.1073226711,76.443572,0,0.77634845004,13400,2018-06-13 22:48:46,17,0,24.348,5726.1073226711,76.443572,0.223694,0.81671262456,0,0,-0.671082,264.3, -1.1, 0,0,0,1024,1024,1024,1024,264.1,-90,98,4.057,4.053,4.047,4.048,4.088,4.058,19.277,89.6,14,Waypoint,
36.9906485,-119.1416969,5727.0915746711,77.427824,0,0.77634845004,13510,2018-06-13 22:48:46,17,0,24.348,5727.0915746711,77.427824,0.223694,0.81671262456,0,0,-0.671082,264.3, -1.1, 0,0,0,1024,1024,1024,1024,264.1,-90,98,4.057,4.053,4.047,4.048,4.088,4.058,19.277,89.6,14,Waypoint,
36.9906485,-119.1416969,5728.0758266711,78.412076,0,0.77634845004,13610,2018-06-13 22:48:46,17,0,24.348,5728.0758266711,78.412076,0.223694,0.81671262456,0,0,-0.671082,264.3, -1.1, -0.1,0,0,1024,1024,1024,1024,264.1,-89.9,98,4.057,4.053,4.047,4.048,4.088,4.058,19.277,89.6,14,Waypoint,
36.9906485,-119.1416969,5729.0600786711,79.396328,0,0.77634845004,13710,2018-06-13 22:48:46,17,0,24.348,5729.0600786711,79.396328,0.223694,0.81671262456,0,0,-0.671082,264.3, -1, 0,0,0,1024,1024,1024,1024,264.1,-89.9,98,4.057,4.053,4.047,4.048,4.088,4.058,19.277,89.6,14,Waypoint,
36.9906485,-119.141697,5730.0443306711,80.38058,0,0.75246393484,13800,2018-06-13 22:48:46,17,0,24.348,5730.0443306711,80.38058,0.223694,0.81671262456,0,0,-0.671082,264.3, -0.9, 0,0,0,1024,1024,1024,1024,264.1,-89.9,98,4.057,4.053,4.047,4.048,4.088,4.058,19.277,89.6,14,Waypoint,
36.9906486,-119.141697,5731.0285826711,81.364832,0,0.73183729376,13900,2018-06-13 22:48:46,17,0,24.348,5731.0285826711,81.364832,0.223694,0.81671262456,0,0,-0.671082,264.3, -0.8, 0.1,0,0,1024,1024,1024,1024,264.1,-89.9,98,4.057,4.053,4.047,4.048,4.088,4.058,19.277,89.6,14,Waypoint,
36.9906486,-119.141697,5732.0128346711,82.349084,0,0.73183729376,14010,2018-06-13 22:48:46,17,0,24.348,5732.0128346711,82.349084,0.223694,0.81671262456,0,0,-0.671082,264.3, -0.8, 0.1,0,0,1024,1024,1024,1024,264.1,-89.9,98,4.057,4.053,4.047,4.048,4.088,4.058,19.277,89.6,14,Waypoint,
36.9906486,-119.1416971,5732.9970866711,83.333336,0,0.70764766044,14110,2018-06-13 22:48:46,17,0,24.348,5732.9970866711,83.333336,0.223694,0.81671262456,0,0,-0.671082,264.3, -0.8, 0,0,0,1024,1024,1024,1024,264.1,-89.9,98,4.057,4.053,4.047,4.048,4.088,4.058,19.277,89.6,14,Waypoint,
36.9906486,-119.1416971,5733.9813386711,84.317588,0,0.70764766044,14210,2018-06-13 22:48:47,17,0,24.348,5733.9813386711,84.317588,0.223694,0.81671262456,0,0,-0.671082,264.2, -0.8, -0.1,0,0,1024,1024,1024,1024,264.1,-89.9,98,4.057,4.053,4.047,4.048,4.088,4.058,19.277,89.6,14,Waypoint,
36.9906486,-119.1416971,5734.9655906711,85.30184,0,0.70764766044,14300,2018-06-13 22:48:47,17,0,24.348,5734.9655906711,85.30184,0.223694,0.81671262456,0,0,-0.671082,264.3, -0.7, 0,0,0,1024,1024,1024,1024,264.1,-89.9,98,4.057,4.053,4.047,4.048,4.088,4.058,19.277,89.6,14,Waypoint,
36.9906486,-119.1416972,5735.9498426711,86.286092,0,0.68384516624,14400,2018-06-13 22:48:47,17,0,24.348,5735.9498426711,86.286092,0.223694,0.81671262456,0,0,-0.671082,264.3, -0.6, 0,0,0,1024,1024,1024,1024,264.1,-89.9,98,4.057,4.053,4.047,4.048,4.088,4.058,19.277,89.6,14,Waypoint,
36.9906486,-119.1416972,5736.9340946711,87.270344,0,0.68384516624,14510,2018-06-13 22:48:47,18,0,24.348,5736.9340946711,87.270344,0.223694,0.81671262456,0,0,-0.671082,264.3, -0.5, 0,0,0,1024,1024,1024,1024,264.1,-89.9,98,4.057,4.053,4.047,4.048,4.088,4.058,19.277,89.6,14,Waypoint,
36.9906486,-119.1416972,5738.2464306711,88.58268,0,0.68384516624,14610,2018-06-13 22:48:47,18,0,24.348,5738.2464306711,88.58268,0.223694,0.81671262456,0,0,-0.671082,264.3, -0.5, 0.1,0,0,1024,1024,1024,1024,264.1,-89.9,98,4.057,4.053,4.047,4.048,4.088,4.058,19.277,89.6,14,Waypoint,
36.9906486,-119.1416972,5739.2306826711,89.566932,0,0.68384516624,14710,2018-06-13 22:48:47,18,0,24.348,5739.2306826711,89.566932,0.223694,0.81671262456,0,0,-0.671082,264.3, -0.6, 0.1,0,0,1024,1024,1024,1024,264.1,-89.9,98,4.057,4.053,4.047,4.048,4.088,4.058,19.277,89.6,14,Waypoint,
36.9906487,-119.1416973,5740.2149346711,90.551184,0,0.6389599942,14800,2018-06-13 22:48:47,18,0,24.348,5740.2149346711,90.551184,0.223694,0.81671262456,0,0,-0.671082,264.3, -0.6, 0.2,0,0,1024,1024,1024,1024,264.1,-89.9,98,4.057,4.053,4.047,4.048,4.088,4.058,19.277,89.6,14,Waypoint,
36.9906487,-119.1416972,5742.1834386711,92.519688,0,0.66309385324,15010,2018-06-13 22:48:47,18,0,24.363,5742.1834386711,92.519688,0.223694,0.81671262456,0,0,-0.671082,264.2, -0.7, -0.1,0,0,1024,1024,1024,1024,264.1,-89.9,98,4.071,4.063,4.038,4.061,4.079,4.069,18.78,89.6,14,Waypoint,
36.9906487,-119.1416972,5743.1676906711,93.50394,0,0.66309385324,15110,2018-06-13 22:48:47,18,0,24.363,5743.1676906711,93.50394,0.223694,0.81671262456,0,0,-0.671082,264.2, -0.8, 0,0,0,1024,1024,1024,1024,264.1,-90,98,4.071,4.063,4.038,4.061,4.079,4.069,18.78,89.6,14,Waypoint,
36.9906487,-119.1416972,5744.1519426711,94.488192,0,0.66309385324,15210,2018-06-13 22:48:48,18,0,24.363,5744.1519426711,94.488192,0.223694,0.81671262456,0,0,-0.671082,264.3, -0.9, 0,0,0,1024,1024,1024,1024,264.1,-90,98,4.071,4.063,4.038,4.061,4.079,4.069,18.78,89.6,14,Waypoint,
36.9906487,-119.1416972,5745.1361946711,95.472444,0,0.66309385324,15300,2018-06-13 22:48:48,18,0,24.363,5745.1361946711,95.472444,0.223694,0.81671262456,0,0,-0.671082,264.3, -0.9, 0,0,0,1024,1024,1024,1024,264.1,-90,98,4.071,4.063,4.038,4.061,4.079,4.069,18.78,89.6,14,Waypoint,
36.9906487,-119.1416972,5746.1204466711,96.456696,0,0.66309385324,15400,2018-06-13 22:48:48,18,0,24.363,5746.1204466711,96.456696,0.223694,0.81671262456,0,0,-0.671082,264.3, -0.9, 0,0,0,1024,1024,1024,1024,264.1,-89.9,98,4.071,4.063,4.038,4.061,4.079,4.069,18.78,89.6,14,Waypoint,
36.9906488,-119.1416972,5747.1046986711,97.440948,0,0.64374017808,15510,2018-06-13 22:48:48,18,0,24.363,5747.1046986711,97.440948,0.223694,0.81671262456,0,0,-0.671082,264.3, -0.9, 0,0,0,1024,1024,1024,1024,264.1,-90,98,4.071,4.063,4.038,4.061,4.079,4.069,18.78,89.6,14,Waypoint,
36.9906488,-119.1416972,5748.0889506711,98.4252,0,0.64374017808,15610,2018-06-13 22:48:48,18,0,24.363,5748.0889506711,98.4252,0.223694,0.81671262456,0,0,-0.671082,264.3, -0.9, 0,0,0,1024,1024,1024,1024,264.1,-90,98,4.071,4.063,4.038,4.061,4.079,4.069,18.78,89.6,14,Waypoint,
36.9906489,-119.1416972,5749.0732026711,99.409452,0,0.62591537436,15710,2018-06-13 22:48:48,18,0,24.363,5749.0732026711,99.409452,0.223694,0.81671262456,0,0,-0.671082,264.3, -1, -0.1,0,0,1024,1024,1024,1024,264.1,-90,98,4.071,4.063,4.038,4.061,4.079,4.069,18.78,89.6,14,Waypoint,
36.9906489,-119.1416971,5750.0574546711,100.393704,0,0.6518372912,15800,2018-06-13 22:48:48,18,0,24.363,5750.0574546711,100.393704,0.223694,0.81671262456,0,0,-0.671082,264.2, -1.1, -0.1,0,0,1024,1024,1024,1024,264.1,-90,98,4.071,4.063,4.038,4.061,4.079,4.069,18.78,89.6,14,Waypoint,
36.9906489,-119.1416971,5751.0417066711,101.377956,0,0.6518372912,15900,2018-06-13 22:48:48,18,0,24.363,5751.0417066711,101.377956,0.223694,0.81671262456,0,0,-0.671082,264.2, -1.2, -0.2,0,0,1024,1024,1024,1024,264.1,-90,98,4.071,4.063,4.038,4.061,4.079,4.069,18.78,89.6,14,Waypoint,
36.990649,-119.141697,5752.0259586711,102.362208,0,0.66312994248,16000,2018-06-13 22:48:48,18,0,24.328,5752.0259586711,102.362208,0.223694,0.81671262456,0,0,-0.671082,264.2, -1.3, -0.3,0,0,1024,1024,1024,1024,264.1,-90,98,4.058,4.05,4.044,4.048,4.074,4.063,18.897,89.6,14,Waypoint,
36.990649,-119.141697,5753.0102106711,103.34646,0,0.66312994248,16110,2018-06-13 22:48:48,18,0,24.328,5753.0102106711,103.34646,0.223694,0.81671262456,0,0,-0.671082,264.2, -1.3, -0.4,0,0,1024,1024,1024,1024,264.1,-90,98,4.058,4.05,4.044,4.048,4.074,4.063,18.897,89.6,14,Waypoint,
36.990649,-119.1416969,5753.9944626711,104.330712,0,0.69011485148,16200,2018-06-13 22:48:49,18,0,24.328,5753.9944626711,104.330712,0.223694,0.81671262456,0,0,-0.671082,264.2, -1.2, -0.3,0,0,1024,1024,1024,1024,264.1,-90,98,4.058,4.05,4.044,4.048,4.074,4.063,18.897,89.6,14,Waypoint,
36.990649,-119.1416969,5754.9787146711,105.314964,0,0.69011485148,16300,2018-06-13 22:48:49,18,0,24.328,5754.9787146711,105.314964,0.223694,0.81671262456,0,0,-0.671082,264.3, -1.2, -0.1,0,0,1024,1024,1024,1024,264.1,-90,98,4.058,4.05,4.044,4.048,4.074,4.063,18.897,89.6,14,Waypoint,
36.990649,-119.1416968,5755.9629666711,106.299216,0,0.71727036416,16410,2018-06-13 22:48:49,18,0,24.328,5755.9629666711,106.299216,0.223694,0.81671262456,0,0,-0.671082,264.3, -1.3, 0,0,0,1024,1024,1024,1024,264.1,-90,98,4.058,4.05,4.044,4.048,4.074,4.063,18.897,89.6,14,Waypoint,
36.990649,-119.1416968,5756.9472186711,107.283468,0,0.71727036416,16510,2018-06-13 22:48:49,18,0,24.328,5756.9472186711,107.283468,0.223694,0.81671262456,0,0,-0.671082,264.3, -1.4, 0.2,0,0,1024,1024,1024,1024,264.1,-90,98,4.058,4.05,4.044,4.048,4.074,4.063,18.897,89.6,14,Waypoint,
36.990649,-119.1416967,5757.9314706711,108.26772,0,0.74457351464,16610,2018-06-13 22:48:49,18,0,24.328,5757.9314706711,108.26772,0.223694,0.81671262456,0,0,-0.671082,264.2, -1.4, 0.3,0,0,1024,1024,1024,1024,264.1,-90,98,4.058,4.05,4.044,4.048,4.074,4.063,18.897,89.6,14,Waypoint,
36.990649,-119.1416966,5759.8999746711,110.236224,0,0.77201117956,16810,2018-06-13 22:48:49,18,0,24.328,5759.8999746711,110.236224,0.223694,0.81671262456,0,0,-0.671082,264.2, -1.7, 0.2,0,0,1024,1024,1024,1024,264.1,-90,98,4.058,4.05,4.044,4.048,4.074,4.063,18.897,89.6,14,Waypoint,
36.990649,-119.1416966,5760.8842266711,111.220476,0,0.77201117956,16910,2018-06-13 22:48:49,18,0,24.328,5760.8842266711,111.220476,0.223694,0.81671262456,0,0,-0.671082,264.3, -1.8, 0.3,0,0,1024,1024,1024,1024,264.1,-90,98,4.058,4.05,4.044,4.048,4.074,4.063,18.897,89.6,14,Waypoint,
36.990649,-119.1416965,5761.8684786711,112.204728,0,0.79957023556,17020,2018-06-13 22:48:49,18,0,24.317,5761.8684786711,112.204728,0.223694,0.81671262456,0,0,-0.671082,264.3, -1.8, 0.4,0,0,1024,1024,1024,1024,264.1,-90,98,4.055,4.046,4.041,4.042,4.075,4.059,18.533,89.6,14,Waypoint,
36.990649,-119.1416965,5762.8527306711,113.18898,0,0.79957023556,17110,2018-06-13 22:48:49,18,0,24.317,5762.8527306711,113.18898,0.223694,0.81671262456,0,0,-0.671082,264.3, -1.7, 0.3,0,0,1024,1024,1024,1024,264.1,-90,98,4.055,4.046,4.041,4.042,4.075,4.059,18.533,89.6,14,Waypoint,
36.990649,-119.1416964,5764.8212346711,115.157484,0,0.82723755928,17210,2018-06-13 22:48:50,18,0,24.317,5764.8212346711,115.157484,0.223694,0.82723755928,0,0,-0.671082,264.2, -1.7, 0.1,0,0,1024,1024,1024,1024,264.1,-89.9,98,4.055,4.046,4.041,4.042,4.075,4.059,18.533,89.6,14,Waypoint,
36.990649,-119.1416964,5765.8054866711,116.141736,0,0.82723755928,17310,2018-06-13 22:48:50,18,0,24.317,5765.8054866711,116.141736,0.223694,0.82723755928,0,0,-0.671082,264.2, -1.8, 0.2,0,0,1024,1024,1024,1024,264.1,-89.9,98,4.055,4.046,4.041,4.042,4.075,4.059,18.533,89.6,14,Waypoint,
36.990649,-119.1416964,5766.7897386711,117.125988,0,0.82723755928,17510,2018-06-13 22:48:50,18,0,24.317,5766.7897386711,117.125988,0.223694,0.82723755928,0,0,-0.671082,264.2, -1.7, 0.4,0,0,1024,1024,1024,1024,264.1,-89.9,98,4.055,4.046,4.041,4.042,4.075,4.059,18.533,89.6,14,Waypoint,
36.990649,-119.1416964,5766.7897386711,117.125988,0,0.82723755928,17610,2018-06-13 22:48:50,18,0,24.317,5766.7897386711,117.125988,0.223694,0.82723755928,0,0,-0.671082,264.2, -1.7, 0.4,0,0,1024,1024,1024,1024,264.1,-89.9,98,4.055,4.046,4.041,4.042,4.075,4.059,18.533,89.6,14,Waypoint,
36.9906489,-119.1416964,5768.7582426711,119.094492,0,0.83921918696,17710,2018-06-13 22:48:50,18,0,24.317,5768.7582426711,119.094492,0.223694,0.83921918696,0,0,-0.671082,264.2, -1.4, 0.5,0,0,1024,1024,1024,1024,264.1,-89.9,98,4.055,4.046,4.041,4.042,4.075,4.059,18.533,89.6,14,Waypoint,
36.9906489,-119.1416963,5769.7424946711,120.078744,0,0.8666010776,17820,2018-06-13 22:48:50,18,0,24.317,5769.7424946711,120.078744,0.223694,0.8666010776,0,0,-0.671082,264.1, -1.5, 0.4,0,0,1024,1024,1024,1024,264.1,-89.9,98,4.055,4.046,4.041,4.042,4.075,4.059,18.533,89.6,14,Waypoint,
36.9906489,-119.1416963,5770.7267466711,121.062996,0,0.8666010776,17910,2018-06-13 22:48:50,18,0,24.317,5770.7267466711,121.062996,0.223694,0.8666010776,0,0,-0.671082,264, -1.5, 0.2,0,0,1024,1024,1024,1024,264.1,-90,98,4.055,4.046,4.041,4.042,4.075,4.059,18.533,89.6,14,Waypoint,
36.9906489,-119.1416963,5771.7109986711,122.047248,0,0.8666010776,18010,2018-06-13 22:48:50,18,0,24.299,5771.7109986711,122.047248,0.223694,0.8666010776,0,0,-0.671082,264, -1.5, 0.4,0,0,1024,1024,1024,1024,264.1,-89.9,98,4.052,4.047,4.029,4.039,4.068,4.055,18.788,89.6,14,Waypoint,
36.9906489,-119.1416963,5772.6952506711,123.0315,0,0.8666010776,18110,2018-06-13 22:48:50,18,0,24.299,5772.6952506711,123.0315,0.223694,0.8666010776,0,0,-0.671082,264.1, -1.5, 0.7,0,0,1024,1024,1024,1024,264.1,-90,98,4.052,4.047,4.029,4.039,4.068,4.055,18.788,89.6,14,Waypoint,
36.9906488,-119.1416963,5773.6795026711,124.015752,0,0.8795603956,18210,2018-06-13 22:48:51,18,0,24.299,5773.6795026711,124.015752,0.223694,0.8795603956,0,0,-0.671082,264.1, -1.6, 0.9,0,0,1024,1024,1024,1024,264.1,-90,98,4.052,4.047,4.029,4.039,4.068,4.055,18.788,89.6,14,Waypoint,
36.9906488,-119.1416963,5774.6637546711,125.000004,0,0.8795603956,18310,2018-06-13 22:48:51,18,0,24.299,5774.6637546711,125.000004,0.223694,0.8795603956,0,0,-0.671082,264.2, -1.8, 1.1,0,0,1024,1024,1024,1024,264.1,-90,98,4.052,4.047,4.029,4.039,4.068,4.055,18.788,89.6,14,Waypoint,
36.9906487,-119.1416962,5775.6480066711,125.984256,0,0.9205052788,18410,2018-06-13 22:48:51,18,0,24.299,5775.6480066711,125.984256,0.223694,0.9205052788,0,0,-0.671082,264.3, -1.9, 1.2,0,0,1024,1024,1024,1024,264.1,-90,98,4.052,4.047,4.029,4.039,4.068,4.055,18.788,89.6,14,Waypoint,
36.9906486,-119.1416962,5776.6322586711,126.968508,0,0.9355643344,18510,2018-06-13 22:48:51,18,0,24.299,5776.6322586711,126.968508,0.223694,0.9355643344,0,0,-0.671082,264.3, -1.8, 1.3,0,0,1024,1024,1024,1024,264.1,-90,98,4.052,4.047,4.029,4.039,4.068,4.055,18.788,89.6,14,Waypoint,
36.9906486,-119.1416961,5778.6007626711,128.937012,0,0.96197181556,18710,2018-06-13 22:48:51,18,0,24.299,5778.6007626711,128.937012,0.223694,0.96197181556,0,0,-0.671082,264.3, -2.2, 1.4,0,0,1024,1024,1024,1024,264.1,-90,98,4.052,4.047,4.029,4.039,4.068,4.055,18.788,89.6,14,Waypoint,
36.9906485,-119.141696,5782.5377706711,132.87402,0,1.00389438908,19110,2018-06-13 22:48:51,18,0,24.299,5782.5377706711,132.87402,0.223694,1.00389438908,0,0,-0.671082,264, -1.5, 1.3,0,0,1024,1024,1024,1024,264.1,-89.9,98,4.052,4.047,4.029,4.039,4.068,4.055,18.788,89.6,14,Waypoint,
36.9906486,-119.141696,5783.5220226711,133.858272,0,0.98853021536,19210,2018-06-13 22:48:52,18,0,24.299,5783.5220226711,133.858272,0.223694,1.00389438908,0,0,-0.671082,263.9, -1.8, 0.9,0,0,1024,1024,1024,1024,264.1,-90,98,4.052,4.047,4.029,4.039,4.068,4.055,18.788,89.6,14,Waypoint,
36.9906486,-119.1416959,5784.5062746711,134.842524,0,1.01522969128,19310,2018-06-13 22:48:52,18,0,24.299,5784.5062746711,134.842524,0.223694,1.01522969128,0,0,-0.671082,264, -2.3, 0.6,0,0,1024,1024,1024,1024,264.1,-90,98,4.052,4.047,4.029,4.039,4.068,4.055,18.788,89.6,14,Waypoint,
36.9906487,-119.1416959,5785.4905266711,135.826776,0,1.00136814228,19410,2018-06-13 22:48:52,18,0,24.299,5785.4905266711,135.826776,0.223694,1.01522969128,0,0,-0.671082,264.1, -2.7, 0.2,0,0,1024,1024,1024,1024,264.1,-90,98,4.052,4.047,4.029,4.039,4.068,4.055,18.788,89.6,14,Waypoint,
36.9906488,-119.1416958,5787.1309466711,137.467196,0.223694,1.01619425824,19610,2018-06-13 22:48:52,18,0,24.299,5787.1309466711,137.467196,0.223694,1.01619425824,0,0,-0.671082,264.4, -2.6, -0.1,0,0,1024,1024,1024,1024,264.1,-89.9,98,4.052,4.047,4.029,4.039,4.068,4.055,18.788,89.6,14,Waypoint,
36.9906488,-119.1416958,5788.1151986711,138.451448,0,1.01619425824,19710,2018-06-13 22:48:52,18,0,24.299,5788.1151986711,138.451448,0.223694,1.01619425824,0,0,-0.671082,264.5, -2.5, -0.3,0,0,1024,1024,1024,1024,264.1,-89.9,98,4.052,4.047,4.029,4.039,4.068,4.055,18.788,89.6,14,Waypoint,
36.9906488,-119.1416958,5790.0837026711,140.419952,0,1.01619425824,19810,2018-06-13 22:48:52,18,0,24.299,5790.0837026711,140.419952,0.223694,1.01619425824,0,0,-0.671082,264.8, -2.2, 0,0,0,1024,1024,1024,1024,264.1,-89.9,98,4.052,4.047,4.029,4.039,4.068,4.055,18.788,89.6,14,Waypoint,
36.9906489,-119.1416959,5792.0522066711,142.388456,0,0.9771489814,20010,2018-06-13 22:48:52,18,0,24.283,5792.0522066711,142.388456,0.223694,1.01619425824,0,0,-0.671082,264.6, -1.9, -0.4,0,0,1024,1024,1024,1024,264.1,-89.9,97,4.051,4.046,4.03,4.032,4.064,4.053,18.383,89.6,14,Waypoint,
36.9906489,-119.1416959,5793.0364586711,143.372708,0,0.9771489814,20110,2018-06-13 22:48:52,18,0,24.283,5793.0364586711,143.372708,0.223694,1.01619425824,0,0,-0.671082,264.5, -2, -0.1,0,0,1024,1024,1024,1024,264.1,-90,97,4.051,4.046,4.03,4.032,4.064,4.053,18.383,89.6,14,Waypoint,
36.9906489,-119.1416959,5793.0364586711,143.372708,0,0.9771489814,20210,2018-06-13 22:48:53,18,0,24.283,5793.0364586711,143.372708,0.223694,1.01619425824,0,0,-0.671082,264.5, -2, -0.1,0,0,1024,1024,1024,1024,264.1,-90,97,4.051,4.046,4.03,4.032,4.064,4.053,18.383,89.6,14,Waypoint,
36.9906489,-119.1416959,5794.0207106711,144.35696,0,0.9771489814,20310,2018-06-13 22:48:53,18,0,24.283,5794.0207106711,144.35696,0.223694,1.01619425824,0,0,-0.671082,264.4, -2.2, 0.1,0,0,1024,1024,1024,1024,264.1,-89.9,97,4.051,4.046,4.03,4.032,4.064,4.053,18.383,89.6,14,Waypoint,
36.9906489,-119.1416958,5794.6768786711,145.013128,0,1.00499675132,20410,2018-06-13 22:48:53,18,0,24.283,5794.6768786711,145.013128,0.223694,1.01619425824,0,0,-0.671082,264.3, -2.4, 0.3,0,0,1024,1024,1024,1024,264.1,-90,97,4.051,4.046,4.03,4.032,4.064,4.053,18.383,89.6,14,Waypoint,
36.9906489,-119.1416958,5795.6611306711,145.99738,0,1.00499675132,20510,2018-06-13 22:48:53,18,0,24.283,5795.6611306711,145.99738,0.223694,1.01619425824,0,0,-0.671082,264.3, -2.6, 0.5,0,0,1024,1024,1024,1024,264.1,-90,97,4.051,4.046,4.03,4.032,4.064,4.053,18.383,89.6,14,Waypoint,
36.9906489,-119.1416958,5796.6453826711,146.981632,0,1.00499675132,20610,2018-06-13 22:48:53,18,0,24.283,5796.6453826711,146.981632,0.223694,1.01619425824,0,0,-0.671082,264.3, -2.7, 0.5,0,0,1024,1024,1024,1024,264.1,-90,97,4.051,4.046,4.03,4.032,4.064,4.053,18.383,89.6,14,Waypoint,
36.9906489,-119.1416957,5797.6296346711,147.965884,0,1.03291669972,20710,2018-06-13 22:48:53,18,0,24.283,5797.6296346711,147.965884,0.223694,1.03291669972,0,0,-0.671082,264.4, -2.8, 0.4,0,0,1024,1024,1024,1024,264.1,-90,97,4.051,4.046,4.03,4.032,4.064,4.053,18.383,89.6,14,Waypoint,
36.9906489,-119.1416957,5798.6138866711,148.950136,0,1.03291669972,20810,2018-06-13 22:48:53,18,0,24.283,5798.6138866711,148.950136,0.223694,1.03291669972,0,0,-0.671082,264.3, -3.1, 0.3,0,0,1024,1024,1024,1024,264.1,-90,97,4.051,4.046,4.03,4.032,4.064,4.053,18.383,89.6,14,Waypoint,
36.9906489,-119.1416957,5800.9104746711,151.246724,0,1.03291669972,21010,2018-06-13 22:48:53,18,0,24.283,5800.9104746711,151.246724,0.223694,1.03291669972,0,0,-0.671082,264.1, -3.3, 0,0,0,1024,1024,1024,1024,264.1,-90,97,4.051,4.046,4.03,4.032,4.064,4.053,18.383,89.6,14,Waypoint,
36.990649,-119.1416957,5801.8947266711,152.230976,0,1.02320541332,21110,2018-06-13 22:48:53,18,0,24.283,5801.8947266711,152.230976,0.223694,1.03291669972,0,0,-0.671082,264.1, -3, -0.1,0,0,1024,1024,1024,1024,264.1,-89.9,97,4.051,4.046,4.03,4.032,4.064,4.053,18.383,89.6,14,Waypoint,
36.990649,-119.1416957,5802.8789786711,153.215228,0,1.02320541332,21210,2018-06-13 22:48:54,18,0,24.283,5802.8789786711,153.215228,0.223694,1.03291669972,0,0,-0.671082,264.1, -2.7, 0,0,0,1024,1024,1024,1024,264.1,-89.9,97,4.051,4.046,4.03,4.032,4.064,4.053,18.383,89.6,14,Waypoint,
36.990649,-119.1416957,5803.8632306711,154.19948,0,1.02320541332,21310,2018-06-13 22:48:54,18,0,24.283,5803.8632306711,154.19948,0.223694,1.03291669972,0,0,-0.671082,264.1, -2.7, 0.2,0,0,1024,1024,1024,1024,264.1,-89.9,97,4.051,4.046,4.03,4.032,4.064,4.053,18.383,89.6,14,Waypoint,
36.990649,-119.1416957,5805.1755666711,155.511816,0,1.02320541332,21410,2018-06-13 22:48:54,18,0,24.283,5805.1755666711,155.511816,0.223694,1.03291669972,0,0,-0.671082,264.1, -2.9, 0.5,0,0,1024,1024,1024,1024,264.1,-90,97,4.051,4.046,4.03,4.032,4.064,4.053,18.383,89.6,14,Waypoint,
36.990649,-119.1416956,5806.1598186711,156.496068,0,1.05145016488,21500,2018-06-13 22:48:54,18,0,24.283,5806.1598186711,156.496068,0.223694,1.05145016488,0,0,-0.671082,264.1, -3.1, 0.7,0,0,1024,1024,1024,1024,264.1,-90,97,4.051,4.046,4.03,4.032,4.064,4.053,18.383,89.6,14,Waypoint,
36.9906491,-119.1416956,5807.1440706711,157.48032,0,1.04318900976,21610,2018-06-13 22:48:54,18,0,24.283,5807.1440706711,157.48032,0.223694,1.05145016488,0,0,-0.671082,264.1, -3.4, 0.7,0,0,1024,1024,1024,1024,264.1,-90,97,4.051,4.046,4.03,4.032,4.064,4.053,18.383,89.6,14,Waypoint,
36.9906491,-119.1416955,5808.1283226711,158.464572,0,1.07169950936,21710,2018-06-13 22:48:54,18,0,24.283,5808.1283226711,158.464572,0.223694,1.07169950936,0,0,-0.671082,264.2, -3.5, 0.6,0,0,1024,1024,1024,1024,264.1,-90,97,4.051,4.046,4.03,4.032,4.064,4.053,18.383,89.6,14,Waypoint,
36.9906491,-119.1416954,5809.1125746711,159.448824,0,1.10024281736,21810,2018-06-13 22:48:54,18,0,24.283,5809.1125746711,159.448824,0.223694,1.10024281736,0,0,-0.671082,264.2, -3.4, 0.6,0,0,1024,1024,1024,1024,264.1,-90,97,4.051,4.046,4.03,4.032,4.064,4.053,18.383,89.6,14,Waypoint,
36.9906491,-119.1416954,5810.0968266711,160.433076,0,1.10024281736,21910,2018-06-13 22:48:54,18,0,24.283,5810.0968266711,160.433076,0.223694,1.10024281736,0,0,-0.671082,264.2, -3.4, 0.6,0,0,1024,1024,1024,1024,264.1,-90,97,4.051,4.046,4.03,4.032,4.064,4.053,18.383,89.6,14,Waypoint,
36.9906492,-119.1416953,5812.0653306711,162.40158,0,1.12231302804,22010,2018-06-13 22:48:54,18,0,24.134,5812.0653306711,162.40158,0.223694,1.12231302804,0,0,-0.671082,264.3, -3.6, 0.5,0,0,1024,1024,1024,1024,264.1,-90,97,4.028,4.014,4.009,4.004,4.047,4.024,19.841,89.6,14,Waypoint,
36.9906492,-119.1416953,5813.0495826711,163.385832,0,1.12231302804,22110,2018-06-13 22:48:54,18,0,24.134,5813.0495826711,163.385832,0.223694,1.12231302804,0,0,-0.671082,264.3, -3.7, 0.9,0,0,1024,1024,1024,1024,264.1,-90,97,4.028,4.014,4.009,4.004,4.047,4.024,19.841,89.6,14,Waypoint,
36.9906492,-119.1416953,5814.0338346711,164.370084,0,1.12231302804,22210,2018-06-13 22:48:55,18,0,24.134,5814.0338346711,164.370084,0.223694,1.12231302804,0,0,-0.671082,264.3, -3.6, 1,0,0,1024,1024,1024,1024,264.1,-90,97,4.028,4.014,4.009,4.004,4.047,4.024,19.841,89.6,14,Waypoint,
36.9906492,-119.1416953,5816.0023386711,166.338588,0,1.12231302804,22510,2018-06-13 22:48:55,18,0,24.134,5816.0023386711,166.338588,0.223694,1.12231302804,0,0,-0.671082,264.2, -3.3, 0.5,0,0,1024,1024,1024,1024,264.1,-89.9,97,4.028,4.014,4.009,4.004,4.047,4.024,19.841,89.6,14,Waypoint,
36.9906493,-119.1416953,5816.9865906711,167.32284,0,1.116961978,22610,2018-06-13 22:48:55,18,0,24.134,5816.9865906711,167.32284,0.223694,1.12231302804,0,0,-0.671082,264.1, -3.1, 0.2,0,0,1024,1024,1024,1024,264.1,-89.9,97,4.028,4.014,4.009,4.004,4.047,4.024,19.841,89.6,14,Waypoint,
36.9906493,-119.1416953,5817.9708426711,168.307092,0.223694,1.116961978,22710,2018-06-13 22:48:55,18,0,24.134,5817.9708426711,168.307092,0.223694,1.12231302804,0,0,-0.671082,264.1, -3.1, 0.1,0,0,1024,1024,1024,1024,264.1,-89.9,97,4.028,4.014,4.009,4.004,4.047,4.024,19.841,89.6,14,Waypoint,
36.9906493,-119.1416953,5818.9550946711,169.291344,0,1.116961978,22810,2018-06-13 22:48:55,18,0,24.134,5818.9550946711,169.291344,0.223694,1.12231302804,0,0,-0.671082,264.1, -2.9, 0,0,0,1024,1024,1024,1024,264.1,-89.9,97,4.028,4.014,4.009,4.004,4.047,4.024,19.841,89.6,14,Waypoint,
36.9906494,-119.1416953,5819.9393466711,170.275596,0,1.11278218784,22910,2018-06-13 22:48:55,18,0,24.134,5819.9393466711,170.275596,0.223694,1.12231302804,0,0,-0.671082,264.2, -3, 0.1,0,0,1024,1024,1024,1024,264.1,-90,97,4.028,4.014,4.009,4.004,4.047,4.024,19.841,89.6,14,Waypoint,
36.9906494,-119.1416953,5820.9235986711,171.259848,0,1.11278218784,23010,2018-06-13 22:48:55,18,0,24.204,5820.9235986711,171.259848,0.223694,1.12231302804,0,0,-0.671082,264.2, -3.1, 0.3,0,0,1024,1024,1024,1024,264.1,-90,97,4.043,4.029,4.015,4.025,4.06,4.031,18.511,89.6,14,Waypoint,
36.9906494,-119.1416953,5822.8921026711,173.228352,0,1.11278218784,23210,2018-06-13 22:48:56,18,0,24.204,5822.8921026711,173.228352,0.223694,1.12231302804,0,0,-0.671082,264.2, -3.3, 0.3,0,0,1024,1024,1024,1024,264.1,-90,97,4.043,4.029,4.015,4.025,4.06,4.031,18.511,89.6,14,Waypoint,
36.9906494,-119.1416953,5823.8763546711,174.212604,0,1.11278218784,23310,2018-06-13 22:48:56,18,0,24.204,5823.8763546711,174.212604,0.223694,1.12231302804,0,0,-0.671082,264.1, -3.3, 0.3,0,0,1024,1024,1024,1024,264.1,-89.9,97,4.043,4.029,4.015,4.025,4.06,4.031,18.511,89.6,14,Waypoint,
36.9906495,-119.1416953,5824.8606066711,175.196856,0,1.10978678092,23410,2018-06-13 22:48:56,18,0,24.204,5824.8606066711,175.196856,0.223694,1.12231302804,0,0,-0.671082,264.2, -3.4, 0.5,0,0,1024,1024,1024,1024,264.1,-90,97,4.043,4.029,4.015,4.025,4.06,4.031,18.511,89.6,14,Waypoint,
36.9906495,-119.1416953,5825.8448586711,176.181108,0,1.10978678092,23510,2018-06-13 22:48:56,18,0,24.204,5825.8448586711,176.181108,0.223694,1.12231302804,0,0,-0.671082,264.2, -3.5, 0.5,0,0,1024,1024,1024,1024,264.1,-90,97,4.043,4.029,4.015,4.025,4.06,4.031,18.511,89.6,14,Waypoint,
36.9906495,-119.1416953,5826.8291106711,177.16536,0,1.10978678092,23610,2018-06-13 22:48:56,18,0,24.204,5826.8291106711,177.16536,0.223694,1.12231302804,0,0,-0.671082,264.2, -3.5, 0.5,0,0,1024,1024,1024,1024,264.1,-90,97,4.043,4.029,4.015,4.025,4.06,4.031,18.511,89.6,14,Waypoint,
36.9906495,-119.1416953,5827.8133626711,178.149612,0,1.10978678092,23710,2018-06-13 22:48:56,18,0,24.204,5827.8133626711,178.149612,0.223694,1.12231302804,0,0,-0.671082,264.3, -3.5, 0.3,0,0,1024,1024,1024,1024,264.1,-90,97,4.043,4.029,4.015,4.025,4.06,4.031,18.511,89.6,14,Waypoint,
36.9906495,-119.1416954,5828.7976146711,179.133864,0,1.08071197684,23810,2018-06-13 22:48:56,18,0,24.204,5828.7976146711,179.133864,0.223694,1.12231302804,0,0,-0.671082,264.3, -3.4, 0.3,0,0,1024,1024,1024,1024,264.1,-90,97,4.043,4.029,4.015,4.025,4.06,4.031,18.511,89.6,14,Waypoint,
36.9906495,-119.1416954,5829.4537826711,179.790032,0.223694,1.08071197684,23910,2018-06-13 22:48:56,18,0,24.204,5829.4537826711,179.790032,0.223694,1.12231302804,0,0,-0.671082,264.4, -3.2, 0.1,0,0,1024,1024,1024,1024,264.1,-90,97,4.043,4.029,4.015,4.025,4.06,4.031,18.511,89.6,14,Waypoint,
36.9906496,-119.1416955,5830.7661186711,181.102368,0.223694,1.0497375664,24010,2018-06-13 22:48:56,18,0,24.165,5830.7661186711,181.102368,0.223694,1.12231302804,0,0,-0.671082,264.4, -3, 0,0,0,1024,1024,1024,1024,264.1,-89.9,97,4.03,4.031,4.012,4.012,4.052,4.038,18.765,89.6,14,Waypoint,
36.9906496,-119.1416956,5831.4222866711,181.758536,0.223694,1.02061354972,24110,2018-06-13 22:48:56,18,0,24.165,5831.4222866711,181.758536,0.223694,1.12231302804,0,0,-0.671082,264.4, -2.8, 0,0,0,1024,1024,1024,1024,264.1,-89.9,97,4.03,4.031,4.012,4.012,4.052,4.038,18.765,89.6,14,Waypoint,
36.9906497,-119.1416957,5832.4065386711,182.742788,0.223694,0.99082024168,24210,2018-06-13 22:48:57,18,0,24.165,5832.4065386711,182.742788,0.223694,1.12231302804,0,0,-0.671082,264.4, -2.7, 0,0,0,1024,1024,1024,1024,264.1,-89.9,97,4.03,4.031,4.012,4.012,4.052,4.038,18.765,89.6,14,Waypoint,
36.9906497,-119.1416958,5833.3907906711,183.72704,0.223694,0.96167653996,24310,2018-06-13 22:48:57,18,0,24.165,5833.3907906711,183.72704,0.223694,1.12231302804,0,0,-0.671082,264.4, -2.6, 0,0,0,1024,1024,1024,1024,264.1,-90,97,4.03,4.031,4.012,4.012,4.052,4.038,18.765,89.6,14,Waypoint,
36.9906497,-119.1416959,5834.3750426711,184.711292,0.223694,0.93253611908,24410,2018-06-13 22:48:57,18,0,24.165,5834.3750426711,184.711292,0.223694,1.12231302804,0,0,-0.671082,264.4, -2.4, -0.4,0,0,1024,1024,1024,1024,264.1,-89.9,97,4.03,4.031,4.012,4.012,4.052,4.038,18.765,89.6,14,Waypoint,
36.9906497,-119.1416959,5835.3592946711,185.695544,0.223694,0.93253611908,24610,2018-06-13 22:48:57,18,0,24.165,5835.3592946711,185.695544,0.223694,1.12231302804,0,0,-0.671082,264.4, -2.4, -0.3,0,0,1024,1024,1024,1024,264.1,-89.9,97,4.03,4.031,4.012,4.012,4.052,4.038,18.765,89.6,14,Waypoint,
36.9906498,-119.1416961,5837.3277986711,187.664048,0.223694,0.87501315136,24710,2018-06-13 22:48:57,18,0,24.165,5837.3277986711,187.664048,0.223694,1.12231302804,0,0,-0.671082,264.4, -2.4, -0.5,0,0,1024,1024,1024,1024,264.1,-89.9,97,4.03,4.031,4.012,4.012,4.052,4.038,18.765,89.6,14,Waypoint,
36.9906498,-119.1416962,5838.3120506711,188.6483,0.223694,0.8458989772,24810,2018-06-13 22:48:57,18,0,24.165,5838.3120506711,188.6483,0.223694,1.12231302804,0,0,-0.671082,264.4, -2.5, -0.5,0,0,1024,1024,1024,1024,264.1,-89.9,97,4.03,4.031,4.012,4.012,4.052,4.038,18.765,89.6,14,Waypoint,
36.9906498,-119.1416962,5839.2963026711,189.632552,0,0.8458989772,24910,2018-06-13 22:48:57,18,0,24.165,5839.2963026711,189.632552,0.223694,1.12231302804,0,0,-0.671082,264.4, -2.5, -0.2,0,0,1024,1024,1024,1024,264.1,-89.9,97,4.03,4.031,4.012,4.012,4.052,4.038,18.765,89.6,14,Waypoint,
36.9906498,-119.1416963,5840.2805546711,190.616804,0,0.81678480304,25010,2018-06-13 22:48:57,18,0,24.166,5840.2805546711,190.616804,0.223694,1.12231302804,0,0,-0.671082,264.3, -2.5, 0,0,0,1024,1024,1024,1024,264.1,-89.9,97,4.03,4.031,4.012,4.012,4.052,4.038,18.916,89.6,14,Waypoint,
36.9906497,-119.1416964,5841.2648066711,191.601056,0,0.786827453,25110,2018-06-13 22:48:57,18,0,24.166,5841.2648066711,191.601056,0.223694,1.12231302804,0,0,-0.671082,264.3, -2.4, 0.2,0,0,1024,1024,1024,1024,264.1,-89.9,97,4.03,4.031,4.012,4.012,4.052,4.038,18.916,89.6,14,Waypoint,
36.9906497,-119.1416964,5842.2490586711,192.585308,0,0.786827453,25210,2018-06-13 22:48:58,18,0,24.166,5842.2490586711,192.585308,0.223694,1.12231302804,0,0,-0.671082,264.3, -2.4, 0.4,0,0,1024,1024,1024,1024,264.1,-90,97,4.03,4.031,4.012,4.012,4.052,4.038,18.916,89.6,14,Waypoint,
36.9906497,-119.1416965,5843.2333106711,193.56956,0,0.75768703212,25310,2018-06-13 22:48:58,18,0,24.166,5843.2333106711,193.56956,0.223694,1.12231302804,0,0,-0.671082,264.3, -2.4, 0.3,0,0,1024,1024,1024,1024,264.1,-89.9,97,4.03,4.031,4.012,4.012,4.052,4.038,18.916,89.6,14,Waypoint,
36.9906497,-119.1416966,5845.5298986711,195.866148,0,0.7285433304,25510,2018-06-13 22:48:58,18,0,24.166,5845.5298986711,195.866148,0.223694,1.12231302804,0,0,-0.671082,264.3, -2.3, -0.2,0,0,1024,1024,1024,1024,264.1,-89.9,97,4.03,4.031,4.012,4.012,4.052,4.038,18.916,89.6,14,Waypoint,
36.9906497,-119.1416966,5846.5141506711,196.8504,0,0.7285433304,25610,2018-06-13 22:48:58,18,0,24.166,5846.5141506711,196.8504,0.223694,1.12231302804,0,0,-0.671082,264.3, -2.4, -0.1,0,0,1024,1024,1024,1024,264.1,-89.9,97,4.03,4.031,4.012,4.012,4.052,4.038,18.916,89.6,14,Waypoint,
36.9906496,-119.1416967,5847.4984026711,197.834652,0,0.70035435312,25710,2018-06-13 22:48:58,18,0,24.166,5847.4984026711,197.834652,0.223694,1.12231302804,0,0,-0.671082,264.2, -2.3, 0,0,0,1024,1024,1024,1024,264.1,-89.9,97,4.03,4.031,4.012,4.012,4.052,4.038,18.916,89.6,14,Waypoint,
36.9906496,-119.1416967,5848.4826546711,198.818904,0,0.70035435312,25810,2018-06-13 22:48:58,18,0,24.166,5848.4826546711,198.818904,0.223694,1.12231302804,0,0,-0.671082,264.2, -2.3, 0.1,0,0,1024,1024,1024,1024,264.1,-89.9,97,4.03,4.031,4.012,4.012,4.052,4.038,18.916,89.6,14,Waypoint,
36.9906496,-119.1416968,5849.1388226711,199.475072,0,0.67125330232,25910,2018-06-13 22:48:58,18,0,24.166,5849.1388226711,199.475072,0.223694,1.12231302804,0,0,-0.671082,264.2, -2.1, 0.2,0,0,1024,1024,1024,1024,264.1,-89.9,97,4.03,4.031,4.012,4.012,4.052,4.038,18.916,89.6,14,Waypoint,
36.9906496,-119.1416968,5850.4511586711,200.787408,0,0.67125330232,26000,2018-06-13 22:48:58,18,0,24.166,5850.4511586711,200.787408,0.223694,1.12231302804,0,0,-0.671082,264.1, -1.9, 0.1,0,0,1024,1024,1024,1024,264.1,-89.9,97,4.042,4.015,4.01,4.012,4.055,4.018,18.916,89.6,14,Waypoint,
36.9906495,-119.1416968,5851.4354106711,201.77166,0,0.67421918168,26110,2018-06-13 22:48:58,18,0,24.166,5851.4354106711,201.77166,0.223694,1.12231302804,0,0,-0.671082,264.1, -1.9, 0,0,0,1024,1024,1024,1024,264.1,-89.9,97,4.042,4.015,4.01,4.012,4.055,4.018,18.916,89.6,14,Waypoint,
36.9906495,-119.1416968,5852.4196626711,202.755912,0,0.67421918168,26210,2018-06-13 22:48:59,18,0,24.166,5852.4196626711,202.755912,0.223694,1.12231302804,0,0,-0.671082,264.1, -2.2, 0,0,0,1024,1024,1024,1024,264.1,-89.9,97,4.042,4.015,4.01,4.012,4.055,4.018,18.916,89.6,14,Waypoint,
36.9906495,-119.1416969,5853.4039146711,203.740164,0,0.645259207,26310,2018-06-13 22:48:59,18,0,24.166,5853.4039146711,203.740164,0.223694,1.12231302804,0,0,-0.671082,264.1, -2.4, 0.1,0,0,1024,1024,1024,1024,264.1,-90,97,4.042,4.015,4.01,4.012,4.055,4.018,18.916,89.6,14,Waypoint,
36.9906495,-119.1416968,5854.3881666711,204.724416,0,0.67421918168,26410,2018-06-13 22:48:59,18,0,24.166,5854.3881666711,204.724416,0.223694,1.12231302804,0,0,-0.671082,264.1, -2.4, 0.1,0,0,1024,1024,1024,1024,264.1,-90,97,4.042,4.015,4.01,4.012,4.055,4.018,18.916,89.6,14,Waypoint,
36.9906494,-119.1416968,5855.3724186711,205.708668,0,0.67913716084,26510,2018-06-13 22:48:59,18,0,24.166,5855.3724186711,205.708668,0.223694,1.12231302804,0,0,-0.671082,264.2, -2.6, 0.2,0,0,1024,1024,1024,1024,264.1,-90,97,4.042,4.015,4.01,4.012,4.055,4.018,18.916,89.6,14,Waypoint,
36.9906494,-119.1416968,5856.3566706711,206.69292,0,0.67913716084,26610,2018-06-13 22:48:59,18,0,24.166,5856.3566706711,206.69292,0.223694,1.12231302804,0,0,-0.671082,264.3, -2.7, 0.2,0,0,1024,1024,1024,1024,264.1,-90,97,4.042,4.015,4.01,4.012,4.055,4.018,18.916,89.6,14,Waypoint,
