latitude,longitude,altitude(feet),ascent(feet),speed(mph),distance(feet),time(millisecond),datetime(utc),satellites,gpslevel,voltage(v),max_altitude(feet),max_ascent(feet),max_speed(mph),max_distance(feet), xSpeed(mph), ySpeed(mph), zSpeed(mph), compass_heading(degrees), pitch(degrees), roll(degrees),isPhoto,isVideo,rc_elevator,rc_aileron,rc_throttle,rc_rudder,gimbal_heading(degrees),gimbal_pitch(degrees),battery_percent,voltageCell1,voltageCell2,voltageCell3,voltageCell4,voltageCell5,voltageCell6,current(A),battery_temperature(f),flycStateRaw,flycState,message
36.9906957,-119.1416683,5650.1903989819,0,0,0,3100,2018-06-13 22:28:41,12,0,0,5650.1903989819,0,0,0,0,0,0,84.7, -0.2, -0.1,1,0,1024,1024,1024,1024,83.6,-90,100,4.295,4.317,4.284,4.29,4.302,4.278,0,89.6,11,AutoTakeoff,DJI_0462.jpg Starting Mission from Lat/Long: 36.99069/-119.14166 Camera: Zenmuse X3 - Overlap: 90/90 - Active Connection: No
36.9906957,-119.1416684,5650.1903989819,0,0,0.029141733216,3200,2018-06-13 22:28:41,12,0,0,5650.1903989819,0,0,0.029141733216,0,0,0,85, -0.2, -0.3,0,0,1024,1024,1024,1024,83.6,-89.9,100,4.295,4.317,4.284,4.29,4.302,4.278,0,89.6,11,AutoTakeoff,
36.9906958,-119.1416685,5650.1903989819,0,0,0.068761157056,3300,2018-06-13 22:28:41,12,0,0,5650.1903989819,0,0,0.068761157056,0,0,0,85.2, -0.1, 0,0,0,1024,1024,1024,1024,83.6,-89.9,100,4.295,4.317,4.284,4.29,4.302,4.278,0,89.6,11,AutoTakeoff,
36.9906959,-119.1416685,5650.1903989819,0,0,0.093389438684,3400,2018-06-13 22:28:41,12,0,0,5650.1903989819,0,0,0.093389438684,0,0,0,85.1, -0.1, 0.3,0,0,1024,1024,1024,1024,83.6,-90,100,4.295,4.317,4.284,4.29,4.302,4.278,0,89.6,11,AutoTakeoff,
36.990696,-119.1416686,5650.5184829819,0.328084,0.223694,0.140083993984,3500,2018-06-13 22:28:42,12,0,0,5650.5184829819,0.328084,0.223694,0.140083993984,0,0,0,85, -0.2, 0,0,0,1024,1024,1024,1024,83.6,-90,100,4.295,4.317,4.284,4.29,4.302,4.278,0,89.6,11,AutoTakeoff,
36.9906962,-119.1416686,5650.5184829819,0.328084,0.223694,0.20229167314,3600,2018-06-13 22:28:42,11,0,0,5650.5184829819,0.328084,0.223694,0.20229167314,0,0,0,84.9, 0, 0.2,0,0,1024,1024,1024,1024,83.6,-89.9,100,4.295,4.317,4.284,4.29,4.302,4.278,0,89.6,11,AutoTakeoff,
36.9906963,-119.1416686,5650.5184829819,0.328084,0.223694,0.235721464236,3700,2018-06-13 22:28:42,11,0,0,5650.5184829819,0.328084,0.223694,0.235721464236,0,0,0,84.7, 0.1, 0.7,0,0,1024,1024,1024,1024,83.6,-89.9,100,4.295,4.317,4.284,4.29,4.302,4.278,0,89.6,11,AutoTakeoff,
36.9906965,-119.1416687,5650.8465669819,0.656168,0.223694,0.314295285648,3800,2018-06-13 22:28:42,11,0,0,5650.8465669819,0.656168,0.223694,0.314295285648,0,0,0,84.5, 0.1, 0.9,0,0,1024,1024,1024,1024,83.6,-90,100,4.295,4.317,4.284,4.29,4.302,4.278,0,89.6,11,AutoTakeoff,
36.9906967,-119.1416687,5650.8465669819,0.656168,0.223694,0.38301838496,3900,2018-06-13 22:28:42,11,0,0,5650.8465669819,0.656168,0.223694,0.38301838496,0,0,0,84.4, 0.2, 1.5,0,0,1024,1024,1024,1024,83.6,-89.9,100,4.295,4.317,4.284,4.29,4.302,4.278,0,89.6,11,AutoTakeoff,
36.9906968,-119.1416686,5650.8465669819,0.656168,0.223694,0.4107447638,4000,2018-06-13 22:28:42,11,0,25.804,5650.8465669819,0.656168,0.223694,0.4107447638,0,0,0,84.3, 0.5, 2,0,0,1024,1024,1024,1024,83.6,-89.9,100,4.295,4.317,4.284,4.29,4.302,4.278,3.843,89.6,11,AutoTakeoff,
36.9906969,-119.1416686,5651.1746509819,0.984252,0.223694,0.44646326888,4100,2018-06-13 22:28:42,11,0,25.804,5651.1746509819,0.984252,0.223694,0.44646326888,0,0,0,84.1, 0.7, 2.3,0,0,1024,1024,1024,1024,83.6,-89.9,100,4.295,4.317,4.284,4.29,4.302,4.278,3.843,89.6,11,AutoTakeoff,
36.990697,-119.1416686,5651.1746509819,0.984252,0,0.48229332252,4200,2018-06-13 22:28:42,12,0,25.804,5651.1746509819,0.984252,0.223694,0.48229332252,0,0,-0.223694,84.1, 0.8, 2.5,0,0,1024,1024,1024,1024,83.6,-89.9,100,4.295,4.317,4.284,4.29,4.302,4.278,3.843,89.6,11,AutoTakeoff,
36.990697,-119.1416685,5651.5027349819,1.312336,0,0.4778707502,4300,2018-06-13 22:28:42,12,0,25.804,5651.5027349819,1.312336,0.223694,0.48229332252,0,0,-0.223694,84.1, 0.8, 1.9,0,0,1024,1024,1024,1024,83.6,-89.9,100,4.295,4.317,4.284,4.29,4.302,4.278,3.843,89.6,11,AutoTakeoff,
36.990697,-119.1416685,5651.8308189819,1.64042,0,0.4778707502,4500,2018-06-13 22:28:43,12,0,25.804,5651.8308189819,1.64042,0.223694,0.48229332252,0,0,-0.223694,84.2, 0.9, 1.5,0,0,1024,1024,1024,1024,83.6,-89.9,100,4.295,4.317,4.284,4.29,4.302,4.278,3.843,89.6,11,AutoTakeoff,
36.990697,-119.1416683,5652.1589029819,1.968504,0,0.47430447712,4600,2018-06-13 22:28:43,12,0,25.804,5652.1589029819,1.968504,0.223694,0.48229332252,0,0,-0.223694,84.3, 1.1, 0.9,0,0,1024,1024,1024,1024,83.6,-89.9,100,4.295,4.317,4.284,4.29,4.302,4.278,3.843,89.6,11,AutoTakeoff,
36.9906968,-119.1416681,5652.4869869819,2.296588,0,0.4055446324,4800,2018-06-13 22:28:43,11,0,25.804,5652.4869869819,2.296588,0.223694,0.48229332252,0,0,-0.223694,84.2, 1.4, 0.6,0,0,1024,1024,1024,1024,83.6,-89.9,100,4.295,4.317,4.284,4.29,4.302,4.278,3.843,89.6,11,AutoTakeoff,
36.9906968,-119.1416681,5652.4869869819,2.296588,0,0.4055446324,4900,2018-06-13 22:28:43,13,0,25.804,5652.4869869819,2.296588,0.223694,0.48229332252,0,0,-0.223694,84.1, 1.4, 0.4,0,0,1024,1024,1024,1024,83.6,-89.9,100,4.295,4.317,4.284,4.29,4.302,4.278,3.843,89.6,11,AutoTakeoff,
36.9906967,-119.1416679,5652.8150709819,2.624672,0,0.38301838496,5000,2018-06-13 22:28:43,13,0,25.067,5652.8150709819,2.624672,0.223694,0.48229332252,0,0,0,84, 1.3, 0.3,0,0,1024,1024,1024,1024,83.6,-89.9,100,4.154,4.188,4.16,4.128,4.167,4.149,13.739,89.6,11,AutoTakeoff,
36.9906966,-119.1416678,5653.1431549819,2.952756,0,0.35924213748,5200,2018-06-13 22:28:43,14,0,25.067,5653.1431549819,2.952756,0.223694,0.48229332252,0,0,-0.223694,83.8, 1.4, 0.4,0,0,1024,1024,1024,1024,83.6,-89.9,100,4.154,4.188,4.16,4.128,4.167,4.149,13.739,89.6,14,Waypoint,
36.9906966,-119.1416678,5653.1431549819,2.952756,0,0.35924213748,5300,2018-06-13 22:28:43,14,0,25.067,5653.1431549819,2.952756,0.223694,0.48229332252,0,0,0,83.7, 1.5, 0.3,0,0,1024,1024,1024,1024,83.6,-89.9,100,4.154,4.188,4.16,4.128,4.167,4.149,13.739,89.6,14,Waypoint,
36.9906965,-119.1416677,5653.4712389819,3.28084,0,0.34024607388,5400,2018-06-13 22:28:43,14,0,25.067,5653.4712389819,3.28084,0.223694,0.48229332252,0,0,0,83.5, 1.5, 0,0,0,1024,1024,1024,1024,83.6,-89.9,100,4.154,4.188,4.16,4.128,4.167,4.149,13.739,89.6,14,Waypoint,
36.9906965,-119.1416676,5653.4712389819,3.28084,0,0.35609909276,5600,2018-06-13 22:28:44,13,0,25.067,5653.4712389819,3.28084,0.223694,0.48229332252,0,0,0,83.4, 1.4, -0.2,0,0,1024,1024,1024,1024,83.6,-89.9,100,4.154,4.188,4.16,4.128,4.167,4.149,13.739,89.6,14,Waypoint,
36.9906966,-119.1416676,5653.4712389819,3.28084,0,0.38656825384,5700,2018-06-13 22:28:44,13,0,25.067,5653.4712389819,3.28084,0.223694,0.48229332252,0,0,0,83.3, 1.3, 0,0,0,1024,1024,1024,1024,83.6,-89.9,100,4.154,4.188,4.16,4.128,4.167,4.149,13.739,89.6,14,Waypoint,
36.9906967,-119.1416677,5653.7993229819,3.608924,0,0.40458334628,5800,2018-06-13 22:28:44,13,0,25.067,5653.7993229819,3.608924,0.223694,0.48229332252,0,0,0,83.2, 1.2, 0.2,0,0,1024,1024,1024,1024,83.6,-89.9,100,4.154,4.188,4.16,4.128,4.167,4.149,13.739,89.6,14,Waypoint,
36.9906967,-119.1416676,5653.7993229819,3.608924,0,0.41800526272,5900,2018-06-13 22:28:44,13,0,25.067,5653.7993229819,3.608924,0.223694,0.48229332252,0,0,-0.223694,83.1, 1.1, 0.5,0,0,1024,1024,1024,1024,83.6,-89.9,100,4.154,4.188,4.16,4.128,4.167,4.149,13.739,89.6,14,Waypoint,
36.9906967,-119.1416675,5654.1274069819,3.937008,0,0.4329724548,6000,2018-06-13 22:28:44,13,0,24.707,5654.1274069819,3.937008,0.223694,0.48229332252,0,0,-0.223694,83.1, 1.2, 0.6,0,0,1024,1024,1024,1024,83.6,-89.9,100,4.104,4.11,4.1,4.108,4.117,4.128,16.428,89.6,14,Waypoint,
36.9906967,-119.1416675,5654.4554909819,4.265092,0,0.4329724548,6100,2018-06-13 22:28:44,13,0,24.707,5654.4554909819,4.265092,0.223694,0.48229332252,0,0,-0.223694,83.1, 1.4, 0.6,0,0,1024,1024,1024,1024,83.6,-89.9,100,4.104,4.11,4.1,4.108,4.117,4.128,16.428,89.6,14,Waypoint,
36.9906968,-119.1416674,5654.7835749819,4.593176,0,0.47943571088,6200,2018-06-13 22:28:44,14,0,24.707,5654.7835749819,4.593176,0.223694,0.48229332252,0,0,-0.223694,83.2, 1.4, 0.6,0,0,1024,1024,1024,1024,83.6,-89.9,100,4.104,4.11,4.1,4.108,4.117,4.128,16.428,89.6,14,Waypoint,
36.9906968,-119.1416675,5655.7678269819,5.577428,0,0.46413387312,6300,2018-06-13 22:28:44,14,0,24.707,5655.7678269819,5.577428,0.223694,0.48229332252,0,0,-0.447388,83.3, 1.1, 0.5,0,0,1024,1024,1024,1024,83.6,-89.9,100,4.104,4.11,4.1,4.108,4.117,4.128,16.428,89.6,14,Waypoint,
36.990697,-119.1416675,5656.4239949819,6.233596,0,0.52850395392,6500,2018-06-13 22:28:45,14,0,24.707,5656.4239949819,6.233596,0.223694,0.52850395392,0,0,-0.447388,83.3, 0.8, 0.4,0,0,1024,1024,1024,1024,83.6,-90,100,4.104,4.11,4.1,4.108,4.117,4.128,16.428,89.6,14,Waypoint,
36.9906971,-119.1416675,5657.0801629819,6.889764,0,0.56147639592,6600,2018-06-13 22:28:45,13,0,24.707,5657.0801629819,6.889764,0.223694,0.56147639592,0,0,-0.447388,83.2, 0.8, 0.7,0,0,1024,1024,1024,1024,83.6,-89.9,100,4.104,4.11,4.1,4.108,4.117,4.128,16.428,89.6,14,Waypoint,
36.9906969,-119.1416674,5658.7205829819,8.530184,0,0.5103674704,6700,2018-06-13 22:28:45,13,0,24.707,5658.7205829819,8.530184,0.223694,0.56147639592,0,0,-0.671082,83.3, 1.2, 0.5,0,0,1024,1024,1024,1024,83.6,-89.9,100,4.104,4.11,4.1,4.108,4.117,4.128,16.428,89.6,14,Waypoint,
36.9906968,-119.1416674,5659.3767509819,9.186352,0,0.47943571088,6800,2018-06-13 22:28:45,13,0,24.707,5659.3767509819,9.186352,0.223694,0.56147639592,0,0,-0.671082,83.5, 1.3, -0.3,0,0,1024,1024,1024,1024,83.6,-89.9,100,4.104,4.11,4.1,4.108,4.117,4.128,16.428,89.6,14,Waypoint,
36.9906966,-119.1416673,5660.3610029819,10.170604,0,0.43902888544,6900,2018-06-13 22:28:45,14,0,24.707,5660.3610029819,10.170604,0.223694,0.56147639592,0,0,-0.671082,83.7, 1.3, -1.1,0,0,1024,1024,1024,1024,83.6,-89.9,100,4.104,4.11,4.1,4.108,4.117,4.128,16.428,89.6,14,Waypoint,
36.9906964,-119.1416674,5661.3452549819,11.154856,0,0.36607940804,7000,2018-06-13 22:28:45,14,0,24.635,5661.3452549819,11.154856,0.223694,0.56147639592,0,0,-0.671082,83.9, 1.4, -1.4,0,0,1024,1024,1024,1024,83.6,-89.9,100,4.101,4.11,4.091,4.109,4.104,4.124,16.214,89.6,14,Waypoint,
36.9906962,-119.1416674,5662.3295069819,12.139108,0,0.319479669016,7100,2018-06-13 22:28:45,14,0,24.635,5662.3295069819,12.139108,0.223694,0.56147639592,0,0,-0.671082,84, 1.1, -1.3,0,0,1024,1024,1024,1024,83.6,-89.9,100,4.101,4.11,4.091,4.109,4.104,4.124,16.214,89.6,14,Waypoint,
36.990696,-119.1416673,5664.2980109819,14.107612,0,0.311294629384,7300,2018-06-13 22:28:45,15,0,24.635,5664.2980109819,14.107612,0.223694,0.56147639592,0,0,-0.671082,84.3, 1.1, -0.7,0,0,1024,1024,1024,1024,83.6,-89.9,100,4.101,4.11,4.091,4.109,4.104,4.124,16.214,89.6,14,Waypoint,
36.9906959,-119.1416673,5665.2822629819,15.091864,0,0.300414051608,7500,2018-06-13 22:28:46,15,0,24.635,5665.2822629819,15.091864,0.223694,0.56147639592,0,0,-0.671082,84.3, 1.2, -0.5,0,0,1024,1024,1024,1024,83.6,-89.9,100,4.101,4.11,4.091,4.109,4.104,4.124,16.214,89.6,14,Waypoint,
36.9906958,-119.1416672,5666.5945989819,16.4042,0,0.322628619248,7600,2018-06-13 22:28:46,13,0,24.635,5666.5945989819,16.4042,0.223694,0.56147639592,0,0,-0.671082,84.3, 1.3, -0.4,0,0,1024,1024,1024,1024,83.6,-89.9,100,4.101,4.11,4.091,4.109,4.104,4.124,16.214,89.6,14,Waypoint,
36.9906959,-119.1416673,5668.5631029819,18.372704,0,0.300414051608,7710,2018-06-13 22:28:46,14,0,24.635,5668.5631029819,18.372704,0.223694,0.56147639592,0,0,-0.671082,84.1, 1.4, -0.2,0,0,1024,1024,1024,1024,83.6,-89.9,100,4.101,4.11,4.091,4.109,4.104,4.124,16.214,89.6,14,Waypoint,
36.9906961,-119.1416673,5669.8754389819,19.68504,0,0.325917989432,7800,2018-06-13 22:28:46,14,0,24.635,5669.8754389819,19.68504,0.223694,0.56147639592,0,0,-0.671082,84, 1.4, 0,0,0,1024,1024,1024,1024,83.6,-89.9,100,4.101,4.11,4.091,4.109,4.104,4.124,16.214,89.6,14,Waypoint,
36.9906962,-119.1416673,5670.8596909819,20.669292,0,0.34380578528,8000,2018-06-13 22:28:46,14,0,24.301,5670.8596909819,20.669292,0.223694,0.56147639592,0,0,-0.671082,83.9, 1.4, 0.5,0,0,1024,1024,1024,1024,83.6,-89.9,98,4.022,4.034,4.033,4.041,4.042,4.054,21.391,89.6,14,Waypoint,
36.9906964,-119.1416673,5671.8439429819,21.653544,0,0.38749345072,8100,2018-06-13 22:28:46,14,0,24.301,5671.8439429819,21.653544,0.223694,0.56147639592,0,0,-0.671082,83.9, 1.4, 1,0,0,1024,1024,1024,1024,83.6,-89.9,98,4.022,4.034,4.033,4.041,4.042,4.054,21.391,89.6,14,Waypoint,
36.9906966,-119.1416674,5673.1562789819,22.96588,0.223694,0.42025263812,8200,2018-06-13 22:28:46,15,0,24.301,5673.1562789819,22.96588,0.223694,0.56147639592,0,0,-0.671082,83.9, 1.3, 1.5,0,0,1024,1024,1024,1024,83.6,-89.9,98,4.022,4.034,4.033,4.041,4.042,4.054,21.391,89.6,14,Waypoint,
36.9906969,-119.1416674,5674.1405309819,23.950132,0,0.5103674704,8300,2018-06-13 22:28:46,15,0,24.301,5674.1405309819,23.950132,0.223694,0.56147639592,0,0,-0.671082,83.8, 1.1, 1.7,0,0,1024,1024,1024,1024,83.6,-90,98,4.022,4.034,4.033,4.041,4.042,4.054,21.391,89.6,14,Waypoint,
36.9906971,-119.1416674,5675.1247829819,24.934384,0,0.57418965092,8400,2018-06-13 22:28:46,15,0,24.301,5675.1247829819,24.934384,0.223694,0.57418965092,0,0,-0.671082,83.8, 0.9, 1.9,0,0,1024,1024,1024,1024,83.6,-89.9,98,4.022,4.034,4.033,4.041,4.042,4.054,21.391,89.6,14,Waypoint,
36.9906972,-119.1416674,5676.1090349819,25.918636,0,0.60687665984,8500,2018-06-13 22:28:47,15,0,24.301,5676.1090349819,25.918636,0.223694,0.60687665984,0,0,-0.671082,83.7, 1, 2,0,0,1024,1024,1024,1024,83.6,-89.9,98,4.022,4.034,4.033,4.041,4.042,4.054,21.391,89.6,14,Waypoint,
36.9906974,-119.1416674,5677.0932869819,26.902888,0,0.67341865672,8600,2018-06-13 22:28:47,15,0,24.301,5677.0932869819,26.902888,0.223694,0.67341865672,0,0,-0.671082,83.7, 1.1, 1.9,0,0,1024,1024,1024,1024,83.6,-89.9,98,4.022,4.034,4.033,4.041,4.042,4.054,21.391,89.6,14,Waypoint,
36.9906976,-119.1416674,5678.4056229819,28.215224,0,0.74117128356,8700,2018-06-13 22:28:47,15,0,24.301,5678.4056229819,28.215224,0.223694,0.74117128356,0,0,-0.671082,83.7, 1.2, 1.7,0,0,1024,1024,1024,1024,83.6,-89.9,98,4.022,4.034,4.033,4.041,4.042,4.054,21.391,89.6,14,Waypoint,
36.9906978,-119.1416674,5679.3898749819,29.199476,0,0.80982942224,8800,2018-06-13 22:28:47,15,0,24.301,5679.3898749819,29.199476,0.223694,0.80982942224,0,0,-0.671082,83.7, 1.3, 1.8,0,0,1024,1024,1024,1024,83.6,-89.9,98,4.022,4.034,4.033,4.041,4.042,4.054,21.391,89.6,14,Waypoint,
36.9906981,-119.1416672,5681.3583789819,31.16798,0,0.93247050228,8900,2018-06-13 22:28:47,15,0,24.301,5681.3583789819,31.16798,0.223694,0.93247050228,0,0,-0.671082,83.7, 1.5, 2.1,0,0,1024,1024,1024,1024,83.6,-89.9,98,4.022,4.034,4.033,4.041,4.042,4.054,21.391,89.6,14,Waypoint,
36.9906982,-119.1416673,5682.3426309819,32.152232,0,0.9575459624,9000,2018-06-13 22:28:47,15,0,24.159,5682.3426309819,32.152232,0.223694,0.9575459624,0,0,-0.671082,83.7, 1.6, 2.1,0,0,1024,1024,1024,1024,83.6,-89.9,98,4.036,4.025,4.035,4.035,4.037,4.044,21.964,89.6,14,Waypoint,
36.9906982,-119.1416673,5683.6549669819,33.464568,0,0.9575459624,9100,2018-06-13 22:28:47,15,0,24.159,5683.6549669819,33.464568,0.223694,0.9575459624,0,0,-0.671082,83.7, 1.6, 2.2,0,0,1024,1024,1024,1024,83.6,-89.9,98,4.036,4.025,4.035,4.035,4.037,4.044,21.964,89.6,14,Waypoint,
36.9906984,-119.1416673,5684.6392189819,34.44882,0,1.02729333996,9200,2018-06-13 22:28:47,15,0,24.159,5684.6392189819,34.44882,0.223694,1.02729333996,0,0,-0.671082,83.6, 1.5, 2.2,0,0,1024,1024,1024,1024,83.6,-89.9,98,4.036,4.025,4.035,4.035,4.037,4.044,21.964,89.6,14,Waypoint,
36.9906985,-119.1416672,5685.6234709819,35.433072,0,1.07069229148,9300,2018-06-13 22:28:47,14,0,24.159,5685.6234709819,35.433072,0.223694,1.07069229148,0,0,-0.671082,83.6, 1.5, 2.2,0,0,1024,1024,1024,1024,83.6,-89.9,98,4.036,4.025,4.035,4.035,4.037,4.044,21.964,89.6,14,Waypoint,
36.9906986,-119.1416672,5686.6077229819,36.417324,0,1.10555777816,9400,2018-06-13 22:28:47,14,0,24.159,5686.6077229819,36.417324,0.223694,1.10555777816,0,0,-0.671082,83.6, 1.6, 2.1,0,0,1024,1024,1024,1024,83.6,-89.9,98,4.036,4.025,4.035,4.035,4.037,4.044,21.964,89.6,14,Waypoint,
36.9906986,-119.1416672,5687.5919749819,37.401576,0,1.10555777816,9500,2018-06-13 22:28:48,15,0,24.159,5687.5919749819,37.401576,0.223694,1.10555777816,0,0,-0.671082,83.5, 1.5, 2,0,0,1024,1024,1024,1024,83.6,-89.9,98,4.036,4.025,4.035,4.035,4.037,4.044,21.964,89.6,14,Waypoint,
36.9906986,-119.1416672,5688.5762269819,38.385828,0,1.10555777816,9600,2018-06-13 22:28:48,15,0,24.159,5688.5762269819,38.385828,0.223694,1.10555777816,0,0,-0.671082,83.5, 1.6, 2,0,0,1024,1024,1024,1024,83.6,-89.9,98,4.036,4.025,4.035,4.035,4.037,4.044,21.964,89.6,14,Waypoint,
36.9906986,-119.1416672,5690.8728149819,40.682416,0,1.10555777816,9800,2018-06-13 22:28:48,15,0,24.159,5690.8728149819,40.682416,0.223694,1.10555777816,0,0,-0.671082,83.5, 1.5, 1.6,0,0,1024,1024,1024,1024,83.6,-89.9,98,4.036,4.025,4.035,4.035,4.037,4.044,21.964,89.6,14,Waypoint,
36.9906985,-119.1416672,5691.8570669819,41.666668,0,1.07069229148,10000,2018-06-13 22:28:48,15,0,24.348,5691.8570669819,41.666668,0.223694,1.10555777816,0,0,-0.671082,83.5, 1.5, 1.3,0,0,1024,1024,1024,1024,83.6,-89.9,98,4.052,4.061,4.04,4.052,4.052,4.079,18.467,89.6,14,Waypoint,
36.9906985,-119.1416672,5692.8413189819,42.65092,0.223694,1.07069229148,10100,2018-06-13 22:28:48,15,0,24.348,5692.8413189819,42.65092,0.223694,1.10555777816,0,0,-0.671082,83.5, 1.6, 1.1,0,0,1024,1024,1024,1024,83.6,-89.9,98,4.052,4.061,4.04,4.052,4.052,4.079,18.467,89.6,14,Waypoint,
36.9906985,-119.1416673,5693.8255709819,43.635172,0.223694,1.06232943032,10200,2018-06-13 22:28:48,15,0,24.348,5693.8255709819,43.635172,0.223694,1.10555777816,0,0,-0.671082,83.5, 1.4, 1,0,0,1024,1024,1024,1024,83.6,-89.9,98,4.052,4.061,4.04,4.052,4.052,4.079,18.467,89.6,14,Waypoint,
36.9906984,-119.1416673,5694.8098229819,44.619424,0.223694,1.02729333996,10300,2018-06-13 22:28:48,15,0,24.348,5694.8098229819,44.619424,0.223694,1.10555777816,0,0,-0.671082,83.5, 1.3, 1,0,0,1024,1024,1024,1024,83.6,-89.9,98,4.052,4.061,4.04,4.052,4.052,4.079,18.467,89.6,14,Waypoint,
36.9906984,-119.1416674,5696.1221589819,45.93176,0.223694,1.01940948144,10400,2018-06-13 22:28:48,15,0,24.348,5696.1221589819,45.93176,0.223694,1.10555777816,0,0,-0.671082,83.5, 1.2, 1,0,0,1024,1024,1024,1024,83.6,-89.9,98,4.052,4.061,4.04,4.052,4.052,4.079,18.467,89.6,14,Waypoint,
36.9906983,-119.1416674,5697.1064109819,46.916012,0.223694,0.98419950656,10500,2018-06-13 22:28:49,15,0,24.348,5697.1064109819,46.916012,0.223694,1.10555777816,0,0,-0.671082,83.5, 1, 0.8,0,0,1024,1024,1024,1024,83.6,-90,98,4.052,4.061,4.04,4.052,4.052,4.079,18.467,89.6,14,Waypoint,
36.9906983,-119.1416675,5698.0906629819,47.900264,0.223694,0.9768373016,10600,2018-06-13 22:28:49,15,0,24.348,5698.0906629819,47.900264,0.223694,1.10555777816,0,0,-0.671082,83.6, 0.9, 0.8,0,0,1024,1024,1024,1024,83.6,-89.9,98,4.052,4.061,4.04,4.052,4.052,4.079,18.467,89.6,14,Waypoint,
36.9906982,-119.1416676,5699.0749149819,48.884516,0.223694,0.93465554172,10700,2018-06-13 22:28:49,15,0,24.348,5699.0749149819,48.884516,0.223694,1.10555777816,0,0,-0.671082,83.6, 0.8, 0.6,0,0,1024,1024,1024,1024,83.6,-89.9,98,4.052,4.061,4.04,4.052,4.052,4.079,18.467,89.6,14,Waypoint,
36.9906981,-119.1416677,5700.0591669819,49.868768,0.223694,0.89292653776,10800,2018-06-13 22:28:49,15,0,24.348,5700.0591669819,49.868768,0.223694,1.10555777816,0,0,-0.671082,83.6, 0.6, 0.4,0,0,1024,1024,1024,1024,83.6,-89.9,98,4.052,4.061,4.04,4.052,4.052,4.079,18.467,89.6,14,Waypoint,
36.990698,-119.1416678,5701.0434189819,50.85302,0.223694,0.85170934484,10900,2018-06-13 22:28:49,15,0,24.348,5701.0434189819,50.85302,0.223694,1.10555777816,0,0,-0.671082,83.7, 0.4, 0.2,0,0,1024,1024,1024,1024,83.6,-90,98,4.052,4.061,4.04,4.052,4.052,4.079,18.467,89.6,14,Waypoint,
36.9906979,-119.1416678,5701.6995869819,51.509188,0.223694,0.81578742768,11000,2018-06-13 22:28:49,15,0,24.339,5701.6995869819,51.509188,0.223694,1.10555777816,0,0,-0.671082,83.6, 0.3, 0.1,0,0,1024,1024,1024,1024,83.6,-89.9,98,4.047,4.063,4.051,4.059,4.057,4.079,18.223,89.6,14,Waypoint,
36.9906977,-119.141668,5703.6680909819,53.477692,0,0.73491800252,11100,2018-06-13 22:28:49,17,0,24.339,5703.6680909819,53.477692,0.223694,1.10555777816,0,0,-0.671082,83.5, 0.6, 0.1,0,0,1024,1024,1024,1024,83.6,-89.9,98,4.047,4.063,4.051,4.059,4.057,4.079,18.223,89.6,14,Waypoint,
36.9906977,-119.141668,5704.6523429819,54.461944,0,0.73491800252,11200,2018-06-13 22:28:49,17,0,24.339,5704.6523429819,54.461944,0.223694,1.10555777816,0,0,-0.671082,83.5, 0.7, 0.2,0,0,1024,1024,1024,1024,83.6,-89.9,98,4.047,4.063,4.051,4.059,4.057,4.079,18.223,89.6,14,Waypoint,
36.9906976,-119.141668,5705.6365949819,55.446196,0,0.6987040906,11300,2018-06-13 22:28:49,17,0,24.339,5705.6365949819,55.446196,0.223694,1.10555777816,0,0,-0.671082,83.5, 0.7, 0.3,0,0,1024,1024,1024,1024,83.6,-89.9,98,4.047,4.063,4.051,4.059,4.057,4.079,18.223,89.6,14,Waypoint,
36.9906974,-119.1416681,5707.6050989819,57.4147,0,0.62297574172,11500,2018-06-13 22:28:50,16,0,24.339,5707.6050989819,57.4147,0.223694,1.10555777816,0,0,-0.671082,83.5, 0.7, 0.2,0,0,1024,1024,1024,1024,83.6,-90,98,4.047,4.063,4.051,4.059,4.057,4.079,18.223,89.6,14,Waypoint,
36.9906972,-119.141668,5709.5736029819,59.383204,0,0.55421261616,11700,2018-06-13 22:28:50,16,0,24.339,5709.5736029819,59.383204,0.223694,1.10555777816,0,0,-0.671082,83.5, 0.8, -0.2,0,0,1024,1024,1024,1024,83.6,-89.9,98,4.047,4.063,4.051,4.059,4.057,4.079,18.223,89.6,14,Waypoint,
36.9906971,-119.141668,5710.5578549819,60.367456,0,0.51821852052,11800,2018-06-13 22:28:50,16,0,24.339,5710.5578549819,60.367456,0.223694,1.10555777816,0,0,-0.671082,83.5, 1.1, -0.3,0,0,1024,1024,1024,1024,83.6,-89.9,98,4.047,4.063,4.051,4.059,4.057,4.079,18.223,89.6,14,Waypoint,
36.990697,-119.141668,5711.5421069819,61.351708,0,0.48229332252,11900,2018-06-13 22:28:50,17,0,24.339,5711.5421069819,61.351708,0.223694,1.10555777816,0,0,-0.671082,83.5, 1.2, -0.2,0,0,1024,1024,1024,1024,83.6,-89.9,98,4.047,4.063,4.051,4.059,4.057,4.079,18.223,89.6,14,Waypoint,
36.9906969,-119.1416681,5712.5263589819,62.33596,0,0.441683085,12000,2018-06-13 22:28:50,17,0,24.348,5712.5263589819,62.33596,0.223694,1.10555777816,0,0,-0.671082,83.6, 1.2, -0.2,0,0,1024,1024,1024,1024,83.6,-89.9,98,4.027,4.031,4.043,4.06,4.06,4.074,18.862,89.6,14,Waypoint,
36.9906967,-119.1416681,5714.4948629819,64.304464,0,0.36947507744,12200,2018-06-13 22:28:50,17,0,24.348,5714.4948629819,64.304464,0.223694,1.10555777816,0,0,-0.671082,83.7, 1.1, -0.2,0,0,1024,1024,1024,1024,83.6,-89.9,98,4.027,4.031,4.043,4.06,4.06,4.074,18.862,89.6,14,Waypoint,
36.9906966,-119.1416681,5716.4633669819,66.272968,0,0.333497386,12400,2018-06-13 22:28:50,17,0,24.348,5716.4633669819,66.272968,0.223694,1.10555777816,0,0,-0.671082,83.7, 0.9, -0.1,0,0,1024,1024,1024,1024,83.6,-90,98,4.027,4.031,4.043,4.06,4.06,4.074,18.862,89.6,14,Waypoint,
36.9906965,-119.1416681,5717.4476189819,67.25722,0,0.297641741808,12600,2018-06-13 22:28:51,17,0,24.348,5717.4476189819,67.25722,0.223694,1.10555777816,0,0,-0.671082,83.7, 0.9, -0.1,0,0,1024,1024,1024,1024,83.6,-89.9,98,4.027,4.031,4.043,4.06,4.06,4.074,18.862,89.6,14,Waypoint,
36.9906965,-119.1416682,5718.4318709819,68.241472,0,0.293330718048,12700,2018-06-13 22:28:51,17,0,24.348,5718.4318709819,68.241472,0.223694,1.10555777816,0,0,-0.671082,83.7, 0.9, -0.1,0,0,1024,1024,1024,1024,83.6,-89.9,98,4.027,4.031,4.043,4.06,4.06,4.074,18.862,89.6,14,Waypoint,
36.9906964,-119.1416682,5719.4161229819,69.225724,0,0.257051845496,12800,2018-06-13 22:28:51,17,0,24.348,5719.4161229819,69.225724,0.223694,1.10555777816,0,0,-0.671082,83.7, 1, -0.1,0,0,1024,1024,1024,1024,83.6,-89.9,98,4.027,4.031,4.043,4.06,4.06,4.074,18.862,89.6,14,Waypoint,
36.9906964,-119.1416682,5720.7284589819,70.53806,0,0.257051845496,12900,2018-06-13 22:28:51,17,0,24.348,5720.7284589819,70.53806,0.223694,1.10555777816,0,0,-0.671082,83.6, 1, 0,0,0,1024,1024,1024,1024,83.6,-89.9,98,4.027,4.031,4.043,4.06,4.06,4.074,18.862,89.6,14,Waypoint,
36.9906963,-119.1416682,5721.7127109819,71.522312,0,0.220840886332,13000,2018-06-13 22:28:51,17,0,24.202,5721.7127109819,71.522312,0.223694,1.10555777816,0,0,-0.671082,83.6, 1.1, 0.1,0,0,1024,1024,1024,1024,83.6,-89.9,98,4.027,4.031,4.043,4.06,4.06,4.074,18.949,89.6,14,Waypoint,
36.9906963,-119.1416682,5722.6969629819,72.506564,0,0.220840886332,13100,2018-06-13 22:28:51,17,0,24.202,5722.6969629819,72.506564,0.223694,1.10555777816,0,0,-0.671082,83.6, 1.1, 0.1,0,0,1024,1024,1024,1024,83.6,-89.9,98,4.027,4.031,4.043,4.06,4.06,4.074,18.949,89.6,14,Waypoint,
36.9906962,-119.1416682,5723.6812149819,73.490816,0,0.18473753872,13200,2018-06-13 22:28:51,17,0,24.202,5723.6812149819,73.490816,0.223694,1.10555777816,0,0,-0.671082,83.6, 1.1, 0.1,0,0,1024,1024,1024,1024,83.6,-89.9,98,4.027,4.031,4.043,4.06,4.06,4.074,18.949,89.6,14,Waypoint,
36.9906962,-119.1416682,5724.6654669819,74.475068,0,0.18473753872,13300,2018-06-13 22:28:51,17,0,24.202,5724.6654669819,74.475068,0.223694,1.10555777816,0,0,-0.671082,83.6, 1, 0.1,0,0,1024,1024,1024,1024,83.6,-89.9,98,4.027,4.031,4.043,4.06,4.06,4.074,18.949,89.6,14,Waypoint,
36.9906962,-119.1416682,5725.6497189819,75.45932,0,0.18473753872,13400,2018-06-13 22:28:51,17,0,24.202,5725.6497189819,75.45932,0.223694,1.10555777816,0,0,-0.671082,83.6, 1, 0,0,0,1024,1024,1024,1024,83.6,-89.9,98,4.027,4.031,4.043,4.06,4.06,4.074,18.949,89.6,14,Waypoint,
36.9906962,-119.1416682,5726.6339709819,76.443572,0,0.18473753872,13500,2018-06-13 22:28:52,17,0,24.202,5726.6339709819,76.443572,0.223694,1.10555777816,0,0,-0.671082,83.7, 1.1, 0,0,0,1024,1024,1024,1024,83.6,-89.9,98,4.027,4.031,4.043,4.06,4.06,4.074,18.949,89.6,14,Waypoint,
36.9906962,-119.1416682,5727.6182229819,77.427824,0,0.18473753872,13600,2018-06-13 22:28:52,17,0,24.202,5727.6182229819,77.427824,0.223694,1.10555777816,0,0,-0.671082,83.7, 1.1, 0,0,0,1024,1024,1024,1024,83.6,-89.9,98,4.027,4.031,4.043,4.06,4.06,4.074,18.949,89.6,14,Waypoint,
36.9906962,-119.1416682,5729.5867269819,79.396328,0,0.18473753872,13700,2018-06-13 22:28:52,17,0,24.202,5729.5867269819,79.396328,0.223694,1.10555777816,0,0,-0.671082,83.6, 1.3, 0.1,0,0,1024,1024,1024,1024,83.6,-89.9,98,4.027,4.031,4.043,4.06,4.06,4.074,18.949,89.6,14,Waypoint,
36.9906962,-119.1416682,5730.5709789819,80.38058,0,0.18473753872,13800,2018-06-13 22:28:52,17,0,24.202,5730.5709789819,80.38058,0.223694,1.10555777816,0,0,-0.671082,83.6, 1.3, 0.5,0,0,1024,1024,1024,1024,83.6,-89.9,98,4.027,4.031,4.043,4.06,4.06,4.074,18.949,89.6,14,Waypoint,
36.9906962,-119.1416682,5731.5552309819,81.364832,0,0.18473753872,13900,2018-06-13 22:28:52,17,0,24.202,5731.5552309819,81.364832,0.223694,1.10555777816,0,0,-0.671082,83.7, 1.2, 0.8,0,0,1024,1024,1024,1024,83.6,-89.9,98,4.027,4.031,4.043,4.06,4.06,4.074,18.949,89.6,14,Waypoint,
36.9906963,-119.1416682,5732.5394829819,82.349084,0,0.220840886332,14000,2018-06-13 22:28:52,17,0,24.202,5732.5394829819,82.349084,0.223694,1.10555777816,0,0,-0.671082,83.7, 1.2, 0.9,0,0,1024,1024,1024,1024,83.6,-89.9,98,4.024,4.027,4.028,4.033,4.042,4.053,18.949,89.6,14,Waypoint,
36.9906963,-119.1416682,5733.5237349819,83.333336,0,0.220840886332,14100,2018-06-13 22:28:52,17,0,24.202,5733.5237349819,83.333336,0.223694,1.10555777816,0,0,-0.671082,83.6, 1.2, 1,0,0,1024,1024,1024,1024,83.6,-89.9,98,4.024,4.027,4.028,4.033,4.042,4.053,18.949,89.6,14,Waypoint,
36.9906964,-119.1416682,5734.5079869819,84.317588,0,0.257051845496,14200,2018-06-13 22:28:52,17,0,24.202,5734.5079869819,84.317588,0.223694,1.10555777816,0,0,-0.671082,83.6, 1.1, 1.1,0,0,1024,1024,1024,1024,83.6,-89.9,98,4.024,4.027,4.028,4.033,4.042,4.053,18.949,89.6,14,Waypoint,
36.9906964,-119.1416683,5735.4922389819,85.30184,0,0.255394693212,14300,2018-06-13 22:28:52,17,0,24.202,5735.4922389819,85.30184,0.223694,1.10555777816,0,0,-0.671082,83.5, 1, 1,0,0,1024,1024,1024,1024,83.6,-89.9,98,4.024,4.027,4.028,4.033,4.042,4.053,18.949,89.6,14,Waypoint,
36.9906964,-119.1416683,5736.4764909819,86.286092,0,0.255394693212,14400,2018-06-13 22:28:52,17,0,24.202,5736.4764909819,86.286092,0.223694,1.10555777816,0,0,-0.671082,83.4, 1, 1.1,0,0,1024,1024,1024,1024,83.6,-89.9,98,4.024,4.027,4.028,4.033,4.042,4.053,18.949,89.6,14,Waypoint,
36.9906965,-119.1416683,5737.4607429819,87.270344,0,0.291879602516,14500,2018-06-13 22:28:53,17,0,24.202,5737.4607429819,87.270344,0.223694,1.10555777816,0,0,-0.671082,83.4, 1.1, 1.3,0,0,1024,1024,1024,1024,83.6,-89.9,98,4.024,4.027,4.028,4.033,4.042,4.053,18.949,89.6,14,Waypoint,
36.9906965,-119.1416683,5738.4449949819,88.254596,0,0.291879602516,14700,2018-06-13 22:28:53,17,0,24.202,5738.4449949819,88.254596,0.223694,1.10555777816,0,0,-0.671082,83.5, 1.2, 1.5,0,0,1024,1024,1024,1024,83.6,-89.9,98,4.024,4.027,4.028,4.033,4.042,4.053,18.949,89.6,14,Waypoint,
36.9906966,-119.1416684,5740.4134989819,90.2231,0,0.32965552236,14810,2018-06-13 22:28:53,17,0,24.202,5740.4134989819,90.2231,0.223694,1.10555777816,0,0,-0.671082,83.7, 0.9, 1.7,0,0,1024,1024,1024,1024,83.6,-89.9,98,4.024,4.027,4.028,4.033,4.042,4.053,18.949,89.6,14,Waypoint,
36.9906966,-119.1416684,5740.4134989819,90.2231,0,0.32965552236,14900,2018-06-13 22:28:53,17,0,24.202,5740.4134989819,90.2231,0.223694,1.10555777816,0,0,-0.671082,83.7, 0.9, 1.7,0,0,1024,1024,1024,1024,83.6,-89.9,98,4.024,4.027,4.028,4.033,4.042,4.053,18.949,89.6,14,Waypoint,
36.9906966,-119.1416684,5741.3977509819,91.207352,0,0.32965552236,15000,2018-06-13 22:28:53,17,0,24.218,5741.3977509819,91.207352,0.223694,1.10555777816,0,0,-0.671082,83.7, 0.8, 1.3,0,0,1024,1024,1024,1024,83.6,-89.9,98,4.028,4.033,4.025,4.04,4.04,4.059,18.471,89.6,14,Waypoint,
36.9906966,-119.1416685,5742.3820029819,92.191604,0,0.333497386,15100,2018-06-13 22:28:53,17,0,24.218,5742.3820029819,92.191604,0.223694,1.10555777816,0,0,-0.671082,83.8, 0.7, 1.1,0,0,1024,1024,1024,1024,83.6,-89.9,98,4.028,4.033,4.025,4.04,4.04,4.059,18.471,89.6,14,Waypoint,
36.9906966,-119.1416685,5743.3662549819,93.175856,0,0.333497386,15200,2018-06-13 22:28:53,17,0,24.218,5743.3662549819,93.175856,0.223694,1.10555777816,0,0,-0.671082,83.8, 0.7, 1,0,0,1024,1024,1024,1024,83.6,-90,98,4.028,4.033,4.025,4.04,4.04,4.059,18.471,89.6,14,Waypoint,
36.9906967,-119.1416686,5744.3505069819,94.160108,0,0.37517717736,15300,2018-06-13 22:28:53,17,0,24.218,5744.3505069819,94.160108,0.223694,1.10555777816,0,0,-0.671082,83.7, 0.5, 1.1,0,0,1024,1024,1024,1024,83.6,-90,98,4.028,4.033,4.025,4.04,4.04,4.059,18.471,89.6,14,Waypoint,
36.9906967,-119.1416686,5745.3347589819,95.14436,0,0.37517717736,15400,2018-06-13 22:28:53,17,0,24.218,5745.3347589819,95.14436,0.223694,1.10555777816,0,0,-0.671082,83.7, 0.4, 1.3,0,0,1024,1024,1024,1024,83.6,-90,98,4.028,4.033,4.025,4.04,4.04,4.059,18.471,89.6,14,Waypoint,
36.9906968,-119.1416687,5746.3190109819,96.128612,0,0.41791996088,15500,2018-06-13 22:28:54,17,0,24.218,5746.3190109819,96.128612,0.223694,1.10555777816,0,0,-0.671082,83.6, 0.3, 1.5,0,0,1024,1024,1024,1024,83.6,-90,98,4.028,4.033,4.025,4.04,4.04,4.059,18.471,89.6,14,Waypoint,
36.9906968,-119.1416688,5747.3032629819,97.112864,0,0.42696523676,15600,2018-06-13 22:28:54,17,0,24.218,5747.3032629819,97.112864,0.223694,1.10555777816,0,0,-0.671082,83.6, 0.3, 1.7,0,0,1024,1024,1024,1024,83.6,-89.9,98,4.028,4.033,4.025,4.04,4.04,4.059,18.471,89.6,14,Waypoint,
36.9906969,-119.1416688,5748.2875149819,98.097116,0,0.46143046096,15700,2018-06-13 22:28:54,17,0,24.218,5748.2875149819,98.097116,0.223694,1.10555777816,0,0,-0.671082,83.5, 0.3, 1.8,0,0,1024,1024,1024,1024,83.6,-89.9,98,4.028,4.033,4.025,4.04,4.04,4.059,18.471,89.6,14,Waypoint,
36.9906969,-119.1416689,5749.2717669819,99.081368,0,0.47144358464,15800,2018-06-13 22:28:54,17,0,24.218,5749.2717669819,99.081368,0.223694,1.10555777816,0,0,-0.671082,83.4, 0.3, 1.9,0,0,1024,1024,1024,1024,83.6,-89.9,98,4.028,4.033,4.025,4.04,4.04,4.059,18.471,89.6,14,Waypoint,
36.990697,-119.141669,5750.2560189819,100.06562,0,0.51631235248,15900,2018-06-13 22:28:54,17,0,24.218,5750.2560189819,100.06562,0.223694,1.10555777816,0,0,-0.671082,83.3, 0.2, 2.1,0,0,1024,1024,1024,1024,83.6,-90,98,4.028,4.033,4.025,4.04,4.04,4.059,18.471,89.6,14,Waypoint,
36.990697,-119.141669,5750.9121869819,100.721788,0,0.51631235248,16000,2018-06-13 22:28:54,17,0,24.235,5750.9121869819,100.721788,0.223694,1.10555777816,0,0,-0.671082,83.2, 0.2, 2.1,0,0,1024,1024,1024,1024,83.6,-89.9,98,4.027,4.039,4.029,4.038,4.045,4.058,17.846,89.6,14,Waypoint,
36.990697,-119.141669,5752.8806909819,102.690292,0,0.51631235248,16100,2018-06-13 22:28:54,17,0,24.235,5752.8806909819,102.690292,0.223694,1.10555777816,0,0,-0.671082,83.5, 0.4, 1.7,0,0,1024,1024,1024,1024,83.6,-89.9,98,4.027,4.039,4.029,4.038,4.045,4.058,17.846,89.6,14,Waypoint,
36.990697,-119.141669,5753.8649429819,103.674544,0,0.51631235248,16200,2018-06-13 22:28:54,17,0,24.235,5753.8649429819,103.674544,0.223694,1.10555777816,0,0,-0.671082,83.7, 0.6, 1.4,0,0,1024,1024,1024,1024,83.6,-89.9,98,4.027,4.039,4.029,4.038,4.045,4.058,17.846,89.6,14,Waypoint,
36.990697,-119.141669,5754.8491949819,104.658796,0,0.51631235248,16300,2018-06-13 22:28:54,17,0,24.235,5754.8491949819,104.658796,0.223694,1.10555777816,0,0,-0.671082,83.9, 0.7, 1.2,0,0,1024,1024,1024,1024,83.6,-89.9,98,4.027,4.039,4.029,4.038,4.045,4.058,17.846,89.6,14,Waypoint,
36.990697,-119.141669,5755.8334469819,105.643048,0,0.51631235248,16400,2018-06-13 22:28:54,17,0,24.235,5755.8334469819,105.643048,0.223694,1.10555777816,0,0,-0.671082,84, 0.8, 1.1,0,0,1024,1024,1024,1024,83.6,-89.9,98,4.027,4.039,4.029,4.038,4.045,4.058,17.846,89.6,14,Waypoint,
36.990697,-119.141669,5757.8019509819,107.611552,0,0.51631235248,16600,2018-06-13 22:28:55,17,0,24.235,5757.8019509819,107.611552,0.223694,1.10555777816,0,0,-0.671082,83.9, 0.8, 1.3,0,0,1024,1024,1024,1024,83.6,-89.9,98,4.027,4.039,4.029,4.038,4.045,4.058,17.846,89.6,14,Waypoint,
36.990697,-119.141669,5758.7862029819,108.595804,0,0.51631235248,16700,2018-06-13 22:28:55,17,0,24.235,5758.7862029819,108.595804,0.223694,1.10555777816,0,0,-0.671082,83.7, 0.7, 1.3,0,0,1024,1024,1024,1024,83.6,-89.9,98,4.027,4.039,4.029,4.038,4.045,4.058,17.846,89.6,14,Waypoint,
36.990697,-119.1416691,5759.7704549819,109.580056,0,0.52850395392,16800,2018-06-13 22:28:55,17,0,24.235,5759.7704549819,109.580056,0.223694,1.10555777816,0,0,-0.671082,83.6, 0.7, 1.3,0,0,1024,1024,1024,1024,83.6,-89.9,98,4.027,4.039,4.029,4.038,4.045,4.058,17.846,89.6,14,Waypoint,
36.9906969,-119.1416691,5760.7547069819,110.564308,0,0.49602035708,16900,2018-06-13 22:28:55,17,0,24.235,5760.7547069819,110.564308,0.223694,1.10555777816,0,0,-0.671082,83.5, 0.8, 1.3,0,0,1024,1024,1024,1024,83.6,-89.9,98,4.027,4.039,4.029,4.038,4.045,4.058,17.846,89.6,14,Waypoint,
36.9906969,-119.1416691,5761.7389589819,111.54856,0,0.49602035708,17000,2018-06-13 22:28:55,17,0,24.203,5761.7389589819,111.54856,0.223694,1.10555777816,0,0,-0.671082,83.4, 0.7, 1.2,0,0,1024,1024,1024,1024,83.6,-89.9,98,4.022,4.034,4.021,4.041,4.037,4.044,18.219,89.6,14,Waypoint,
36.9906968,-119.1416691,5762.7232109819,112.532812,0,0.46413387312,17200,2018-06-13 22:28:55,17,0,24.203,5762.7232109819,112.532812,0.223694,1.10555777816,0,0,-0.671082,83.4, 0.5, 1.2,0,0,1024,1024,1024,1024,83.6,-89.9,98,4.022,4.034,4.021,4.041,4.037,4.044,18.219,89.6,14,Waypoint,
36.9906968,-119.1416691,5763.7074629819,113.517064,0,0.46413387312,17300,2018-06-13 22:28:55,17,0,24.203,5763.7074629819,113.517064,0.223694,1.10555777816,0,0,-0.671082,83.5, 0.3, 1.1,0,0,1024,1024,1024,1024,83.6,-89.9,98,4.022,4.034,4.021,4.041,4.037,4.044,18.219,89.6,14,Waypoint,
36.9906968,-119.1416691,5764.6917149819,114.501316,0,0.46413387312,17400,2018-06-13 22:28:55,17,0,24.203,5764.6917149819,114.501316,0.223694,1.10555777816,0,0,-0.671082,83.5, 0.2, 0.8,0,0,1024,1024,1024,1024,83.6,-89.9,98,4.022,4.034,4.021,4.041,4.037,4.044,18.219,89.6,14,Waypoint,
36.9906967,-119.1416691,5765.6759669819,115.485568,0,0.4329724548,17500,2018-06-13 22:28:56,17,0,24.203,5765.6759669819,115.485568,0.223694,1.10555777816,0,0,-0.671082,83.6, 0.3, 0.7,0,0,1024,1024,1024,1024,83.6,-89.9,98,4.022,4.034,4.021,4.041,4.037,4.044,18.219,89.6,14,Waypoint,
36.9906967,-119.1416691,5766.6602189819,116.46982,0,0.4329724548,17600,2018-06-13 22:28:56,17,0,24.203,5766.6602189819,116.46982,0.223694,1.10555777816,0,0,-0.671082,83.7, 0.5, 0.6,0,0,1024,1024,1024,1024,83.6,-89.9,98,4.022,4.034,4.021,4.041,4.037,4.044,18.219,89.6,14,Waypoint,
36.9906966,-119.1416691,5767.6444709819,117.454072,0,0.40270998664,17700,2018-06-13 22:28:56,17,0,24.203,5767.6444709819,117.454072,0.223694,1.10555777816,0,0,-0.671082,83.7, 0.8, 0.7,0,0,1024,1024,1024,1024,83.6,-89.9,98,4.022,4.034,4.021,4.041,4.037,4.044,18.219,89.6,14,Waypoint,
36.9906966,-119.141669,5768.6287229819,118.438324,0,0.38656825384,17800,2018-06-13 22:28:56,17,0,24.203,5768.6287229819,118.438324,0.223694,1.10555777816,0,0,-0.671082,83.6, 1.1, 0.9,0,0,1024,1024,1024,1024,83.6,-89.9,98,4.022,4.034,4.021,4.041,4.037,4.044,18.219,89.6,14,Waypoint,
36.9906966,-119.141669,5769.6129749819,119.422576,0,0.38656825384,17900,2018-06-13 22:28:56,17,0,24.203,5769.6129749819,119.422576,0.223694,1.10555777816,0,0,-0.671082,83.6, 1.2, 0.8,0,0,1024,1024,1024,1024,83.6,-89.9,98,4.022,4.034,4.021,4.041,4.037,4.044,18.219,89.6,14,Waypoint,
36.9906966,-119.141669,5770.5972269819,120.406828,0,0.38656825384,18000,2018-06-13 22:28:56,17,0,24.166,5770.5972269819,120.406828,0.223694,1.10555777816,0,0,-0.671082,83.5, 1.1, 0.8,0,0,1024,1024,1024,1024,83.6,-89.9,97,4.01,4.023,4.024,4.029,4.023,4.05,18.513,89.6,14,Waypoint,
36.9906965,-119.141669,5771.5814789819,121.39108,0,0.35609909276,18100,2018-06-13 22:28:56,17,0,24.166,5771.5814789819,121.39108,0.223694,1.10555777816,0,0,-0.671082,83.5, 1.1, 0.9,0,0,1024,1024,1024,1024,83.6,-89.9,97,4.01,4.023,4.024,4.029,4.023,4.05,18.513,89.6,14,Waypoint,
36.9906965,-119.1416689,5772.5657309819,122.375332,0,0.34024607388,18200,2018-06-13 22:28:56,17,0,24.166,5772.5657309819,122.375332,0.223694,1.10555777816,0,0,-0.671082,83.5, 1, 1,0,0,1024,1024,1024,1024,83.6,-89.9,97,4.01,4.023,4.024,4.029,4.023,4.05,18.513,89.6,14,Waypoint,
36.9906964,-119.1416689,5774.5342349819,124.343836,0,0.309514117516,18300,2018-06-13 22:28:56,17,0,24.166,5774.5342349819,124.343836,0.223694,1.10555777816,0,0,-0.671082,83.5, 0.8, 0.8,0,0,1024,1024,1024,1024,83.6,-89.9,97,4.01,4.023,4.024,4.029,4.023,4.05,18.513,89.6,14,Waypoint,
36.9906964,-119.1416689,5775.5184869819,125.328088,0,0.309514117516,18400,2018-06-13 22:28:56,17,0,24.166,5775.5184869819,125.328088,0.223694,1.10555777816,0,0,-0.671082,83.6, 0.8, 0.7,0,0,1024,1024,1024,1024,83.6,-89.9,97,4.01,4.023,4.024,4.029,4.023,4.05,18.513,89.6,14,Waypoint,
36.9906964,-119.1416688,5776.5027389819,126.31234,0,0.294036426732,18500,2018-06-13 22:28:57,17,0,24.166,5776.5027389819,126.31234,0.223694,1.10555777816,0,0,-0.671082,83.6, 1, 0.7,0,0,1024,1024,1024,1024,83.6,-89.9,97,4.01,4.023,4.024,4.029,4.023,4.05,18.513,89.6,14,Waypoint,
36.9906964,-119.1416688,5777.4869909819,127.296592,0,0.294036426732,18600,2018-06-13 22:28:57,17,0,24.166,5777.4869909819,127.296592,0.223694,1.10555777816,0,0,-0.671082,83.6, 1.2, 0.7,0,0,1024,1024,1024,1024,83.6,-89.9,97,4.01,4.023,4.024,4.029,4.023,4.05,18.513,89.6,14,Waypoint,
36.9906964,-119.1416687,5778.4712429819,128.280844,0,0.280738854128,18700,2018-06-13 22:28:57,17,0,24.166,5778.4712429819,128.280844,0.223694,1.10555777816,0,0,-0.671082,83.7, 0.9, 1.1,0,0,1024,1024,1024,1024,83.6,-89.9,97,4.01,4.023,4.024,4.029,4.023,4.05,18.513,89.6,14,Waypoint,
36.9906964,-119.1416687,5779.4554949819,129.265096,0,0.280738854128,18800,2018-06-13 22:28:57,17,0,24.166,5779.4554949819,129.265096,0.223694,1.10555777816,0,0,-0.671082,83.8, 1.1, 1.1,0,0,1024,1024,1024,1024,83.6,-89.9,97,4.01,4.023,4.024,4.029,4.023,4.05,18.513,89.6,14,Waypoint,
36.9906964,-119.1416687,5780.4397469819,130.249348,0,0.280738854128,18910,2018-06-13 22:28:57,17,0,24.166,5780.4397469819,130.249348,0.223694,1.10555777816,0,0,-0.671082,84, 1, 1,0,0,1024,1024,1024,1024,83.6,-89.9,97,4.01,4.023,4.024,4.029,4.023,4.05,18.513,89.6,14,Waypoint,
36.9906964,-119.1416687,5780.4397469819,130.249348,0,0.280738854128,19000,2018-06-13 22:28:57,17,0,24.132,5780.4397469819,130.249348,0.223694,1.10555777816,0,0,-0.671082,84, 1, 1,0,0,1024,1024,1024,1024,83.6,-89.9,97,4.013,4.027,4.008,4.023,4.025,4.043,18.443,89.6,14,Waypoint,
36.9906964,-119.1416686,5781.4239989819,131.2336,0,0.269943578192,19100,2018-06-13 22:28:57,17,0,24.132,5781.4239989819,131.2336,0.223694,1.10555777816,0,0,-0.671082,84.1, 1, 1.3,0,0,1024,1024,1024,1024,83.6,-89.9,97,4.013,4.027,4.008,4.023,4.025,4.043,18.443,89.6,14,Waypoint,
36.9906964,-119.1416685,5783.3925029819,133.202104,0.223694,0.261960638304,19200,2018-06-13 22:28:57,17,0,24.132,5783.3925029819,133.202104,0.223694,1.10555777816,0,0,-0.671082,84.1, 1.4, 1.6,0,0,1024,1024,1024,1024,83.6,-89.9,97,4.013,4.027,4.008,4.023,4.025,4.043,18.443,89.6,14,Waypoint,
36.9906964,-119.1416684,5784.3767549819,134.186356,0.223694,0.257051845496,19400,2018-06-13 22:28:57,17,0,24.132,5784.3767549819,134.186356,0.223694,1.10555777816,0,0,-0.671082,84, 1.6, 1.8,0,0,1024,1024,1024,1024,83.6,-89.9,97,4.013,4.027,4.008,4.023,4.025,4.043,18.443,89.6,14,Waypoint,
36.9906964,-119.1416683,5785.3610069819,135.170608,0.223694,0.255394693212,19500,2018-06-13 22:28:58,17,0,24.132,5785.3610069819,135.170608,0.223694,1.10555777816,0,0,-0.671082,84, 2, 1.9,0,0,1024,1024,1024,1024,83.6,-89.9,97,4.013,4.027,4.008,4.023,4.025,4.043,18.443,89.6,14,Waypoint,
36.9906964,-119.1416683,5786.3452589819,136.15486,0.223694,0.255394693212,19600,2018-06-13 22:28:58,17,0,24.132,5786.3452589819,136.15486,0.223694,1.10555777816,0,0,-0.671082,84, 2.3, 1.8,0,0,1024,1024,1024,1024,83.6,-89.9,97,4.013,4.027,4.008,4.023,4.025,4.043,18.443,89.6,14,Waypoint,
36.9906964,-119.1416682,5787.3295109819,137.139112,0.223694,0.257051845496,19700,2018-06-13 22:28:58,17,0,24.132,5787.3295109819,137.139112,0.223694,1.10555777816,0,0,-0.671082,83.9, 2.3, 1.9,0,0,1024,1024,1024,1024,83.6,-89.9,97,4.013,4.027,4.008,4.023,4.025,4.043,18.443,89.6,14,Waypoint,
36.9906964,-119.1416681,5788.3137629819,138.123364,0,0.261960638304,19800,2018-06-13 22:28:58,17,0,24.132,5788.3137629819,138.123364,0.223694,1.10555777816,0,0,-0.671082,83.7, 2.2, 1.8,0,0,1024,1024,1024,1024,83.6,-89.9,97,4.013,4.027,4.008,4.023,4.025,4.043,18.443,89.6,14,Waypoint,
36.9906964,-119.141668,5789.2980149819,139.107616,0.223694,0.269943578192,19900,2018-06-13 22:28:58,17,0,24.132,5789.2980149819,139.107616,0.223694,1.10555777816,0,0,-0.671082,83.6, 2.2, 1.6,0,0,1024,1024,1024,1024,83.6,-89.9,97,4.013,4.027,4.008,4.023,4.025,4.043,18.443,89.6,14,Waypoint,
36.9906964,-119.1416679,5790.2822669819,140.091868,0.3131716,0.280738854128,20000,2018-06-13 22:28:58,17,0,24.112,5790.2822669819,140.091868,0.3131716,1.10555777816,0,0,-0.671082,83.6, 2.2, 1.2,0,0,1024,1024,1024,1024,83.6,-89.9,97,4.011,4.016,4.011,4.017,4.023,4.029,18.811,89.6,14,Waypoint,
36.9906964,-119.1416678,5791.2665189819,141.07612,0.3131716,0.294036426732,20100,2018-06-13 22:28:58,17,0,24.112,5791.2665189819,141.07612,0.3131716,1.10555777816,0,0,-0.671082,83.5, 2.5, 1.3,0,0,1024,1024,1024,1024,83.6,-89.9,97,4.011,4.016,4.011,4.017,4.023,4.029,18.811,89.6,14,Waypoint,
36.9906965,-119.1416677,5792.2507709819,142.060372,0.3131716,0.34024607388,20200,2018-06-13 22:28:58,17,0,24.112,5792.2507709819,142.060372,0.3131716,1.10555777816,0,0,-0.671082,83.6, 3.1, 2.2,0,0,1024,1024,1024,1024,83.6,-89.9,97,4.011,4.016,4.011,4.017,4.023,4.029,18.811,89.6,14,Waypoint,
36.9906965,-119.1416676,5793.2350229819,143.044624,0.3131716,0.35609909276,20300,2018-06-13 22:28:58,17,0,24.112,5793.2350229819,143.044624,0.3131716,1.10555777816,0,0,-0.671082,83.8, 3.6, 3,0,0,1024,1024,1024,1024,83.6,-89.9,97,4.011,4.016,4.011,4.017,4.023,4.029,18.811,89.6,14,Waypoint,
36.9906966,-119.1416675,5794.2192749819,144.028876,0.3131716,0.40270998664,20400,2018-06-13 22:28:58,17,0,24.112,5794.2192749819,144.028876,0.3131716,1.10555777816,0,0,-0.671082,84, 3.6, 3.4,0,0,1024,1024,1024,1024,83.6,-89.9,97,4.011,4.016,4.011,4.017,4.023,4.029,18.811,89.6,14,Waypoint,
36.9906967,-119.1416674,5795.2035269819,145.013128,0.3131716,0.44933728472,20500,2018-06-13 22:28:59,17,0,24.112,5795.2035269819,145.013128,0.3131716,1.10555777816,0,0,-0.671082,84.2, 3.6, 3.5,0,0,1024,1024,1024,1024,83.6,-89.9,97,4.011,4.016,4.011,4.017,4.023,4.029,18.811,89.6,14,Waypoint,
36.9906968,-119.1416673,5797.5001149819,147.309716,0.223694,0.49597770616,20600,2018-06-13 22:28:59,17,0,24.112,5797.5001149819,147.309716,0.3131716,1.10555777816,0,0,-0.671082,84.2, 3.1, 3.1,0,0,1024,1024,1024,1024,83.6,-89.9,97,4.011,4.016,4.011,4.017,4.023,4.029,18.811,89.6,14,Waypoint,
36.9906968,-119.1416673,5798.4843669819,148.293968,0.223694,0.49597770616,20700,2018-06-13 22:28:59,17,0,24.112,5798.4843669819,148.293968,0.3131716,1.10555777816,0,0,-0.671082,84.1, 2.8, 3.4,0,0,1024,1024,1024,1024,83.6,-89.9,97,4.011,4.016,4.011,4.017,4.023,4.029,18.811,89.6,14,Waypoint,
36.990697,-119.1416673,5799.4686189819,149.27822,0.223694,0.556676527,20800,2018-06-13 22:28:59,17,0,24.112,5799.4686189819,149.27822,0.3131716,1.10555777816,0,0,-0.671082,83.9, 2.5, 3.8,0,0,1024,1024,1024,1024,83.6,-89.9,97,4.011,4.016,4.011,4.017,4.023,4.029,18.811,89.6,14,Waypoint,
36.9906971,-119.1416673,5800.7809549819,150.590556,0.447388,0.5880741658,20900,2018-06-13 22:28:59,17,0,24.112,5800.7809549819,150.590556,0.447388,1.10555777816,0,0,-0.671082,83.8, 2.3, 4.3,0,0,1024,1024,1024,1024,83.6,-89.9,97,4.011,4.016,4.011,4.017,4.023,4.029,18.811,89.6,14,Waypoint,
36.9906973,-119.1416673,5801.7652069819,151.574808,0.447388,0.65245736996,21000,2018-06-13 22:28:59,17,0,24.082,5801.7652069819,151.574808,0.447388,1.10555777816,0,0,-0.671082,83.6, 2.1, 4.9,0,0,1024,1024,1024,1024,83.6,-90,97,4.005,4.008,4.001,4.015,4.015,4.029,18.868,89.6,14,Waypoint,
36.9906975,-119.1416674,5802.7494589819,152.55906,0.447388,0.70716537696,21100,2018-06-13 22:28:59,17,0,24.082,5802.7494589819,152.55906,0.447388,1.10555777816,0,0,-0.671082,83.5, 2.2, 5.2,0,0,1024,1024,1024,1024,83.6,-89.9,97,4.005,4.008,4.001,4.015,4.015,4.029,18.868,89.6,14,Waypoint,
36.9906977,-119.1416674,5803.7337109819,153.543312,0.447388,0.77540356812,21200,2018-06-13 22:28:59,17,0,24.082,5803.7337109819,153.543312,0.447388,1.10555777816,0,0,-0.671082,83.4, 2.4, 5.7,0,0,1024,1024,1024,1024,83.6,-89.9,97,4.005,4.008,4.001,4.015,4.015,4.029,18.868,89.6,14,Waypoint,
36.9906978,-119.1416674,5804.3898789819,154.19948,0.223694,0.80982942224,21300,2018-06-13 22:28:59,17,0,24.082,5804.3898789819,154.19948,0.447388,1.10555777816,0,0,-0.671082,83.3, 2.4, 5.9,0,0,1024,1024,1024,1024,83.6,-89.9,97,4.005,4.008,4.001,4.015,4.015,4.029,18.868,89.6,14,Waypoint,
36.9906979,-119.1416674,5805.3741309819,155.183732,0.223694,0.84443244172,21400,2018-06-13 22:28:59,17,0,24.082,5805.3741309819,155.183732,0.447388,1.10555777816,0,0,-0.671082,83.4, 2.1, 5.7,0,0,1024,1024,1024,1024,83.6,-89.9,97,4.005,4.008,4.001,4.015,4.015,4.029,18.868,89.6,14,Waypoint,
36.990698,-119.1416674,5806.3583829819,156.167984,0.223694,0.87918637984,21500,2018-06-13 22:29:00,17,0,24.082,5806.3583829819,156.167984,0.447388,1.10555777816,0,0,-0.671082,83.7, 2.3, 5.5,0,0,1024,1024,1024,1024,83.6,-89.9,97,4.005,4.008,4.001,4.015,4.015,4.029,18.868,89.6,14,Waypoint,
36.9906981,-119.1416674,5807.0145509819,156.824152,0.223694,0.9140748324,21600,2018-06-13 22:29:00,17,0,24.082,5807.0145509819,156.824152,0.447388,1.10555777816,0,0,-0.671082,84.1, 2.6, 4.8,0,0,1024,1024,1024,1024,83.6,-89.9,97,4.005,4.008,4.001,4.015,4.015,4.029,18.868,89.6,14,Waypoint,
36.9906981,-119.1416674,5807.0145509819,156.824152,0.223694,0.9140748324,21700,2018-06-13 22:29:00,17,0,24.082,5807.0145509819,156.824152,0.447388,1.10555777816,0,0,-0.671082,84.1, 2.6, 4.8,0,0,1024,1024,1024,1024,83.6,-89.9,97,4.005,4.008,4.001,4.015,4.015,4.029,18.868,89.6,14,Waypoint,
36.9906981,-119.1416674,5807.9988029819,157.808404,0.223694,0.9140748324,21800,2018-06-13 22:29:00,17,0,24.082,5807.9988029819,157.808404,0.447388,1.10555777816,0,0,-0.671082,84.3, 2.7, 4.4,0,0,1024,1024,1024,1024,83.6,-89.9,97,4.005,4.008,4.001,4.015,4.015,4.029,18.868,89.6,14,Waypoint,
36.9906981,-119.1416674,5808.9830549819,158.792656,0,0.9140748324,21900,2018-06-13 22:29:00,17,0,24.082,5808.9830549819,158.792656,0.447388,1.10555777816,0,0,-0.671082,84.3, 2.9, 4.2,0,0,1024,1024,1024,1024,83.6,-89.9,97,4.005,4.008,4.001,4.015,4.015,4.029,18.868,89.6,14,Waypoint,
36.9906982,-119.1416674,5809.9673069819,159.776908,0.223694,0.9490813952,22000,2018-06-13 22:29:00,17,0,24.047,5809.9673069819,159.776908,0.447388,1.10555777816,0,0,-0.671082,84.1, 2.9, 4.4,0,0,1024,1024,1024,1024,83.6,-89.9,97,4.007,4.006,4.011,4.008,4.022,4.027,19.139,89.6,14,Waypoint,
36.9906983,-119.1416674,5810.9515589819,160.76116,0.223694,0.98419950656,22100,2018-06-13 22:29:00,17,0,24.047,5810.9515589819,160.76116,0.447388,1.10555777816,0,0,-0.671082,83.9, 2.8, 4.8,0,0,1024,1024,1024,1024,83.6,-89.9,97,4.007,4.006,4.011,4.008,4.022,4.027,19.139,89.6,14,Waypoint,
36.9906983,-119.1416674,5811.9358109819,161.745412,0.223694,0.98419950656,22200,2018-06-13 22:29:00,17,0,24.047,5811.9358109819,161.745412,0.447388,1.10555777816,0,0,-0.671082,83.6, 2.5, 5.2,0,0,1024,1024,1024,1024,83.6,-89.9,97,4.007,4.006,4.011,4.008,4.022,4.027,19.139,89.6,14,Waypoint,
36.9906984,-119.1416675,5812.9200629819,162.729664,0.223694,1.012303182,22300,2018-06-13 22:29:00,17,0,24.047,5812.9200629819,162.729664,0.447388,1.10555777816,0,0,-0.671082,83.4, 2.3, 5.3,0,0,1024,1024,1024,1024,83.6,-89.9,97,4.007,4.006,4.011,4.008,4.022,4.027,19.139,89.6,14,Waypoint,
36.9906984,-119.1416675,5813.9043149819,163.713916,0,1.012303182,22400,2018-06-13 22:29:00,17,0,24.047,5813.9043149819,163.713916,0.447388,1.10555777816,0,0,-0.671082,83.4, 2.2, 5.3,0,0,1024,1024,1024,1024,83.6,-89.9,97,4.007,4.006,4.011,4.008,4.022,4.027,19.139,89.6,14,Waypoint,
36.9906984,-119.1416675,5814.8885669819,164.698168,0,1.012303182,22500,2018-06-13 22:29:01,17,0,24.047,5814.8885669819,164.698168,0.447388,1.10555777816,0,0,-0.671082,83.3, 2.2, 5.4,0,0,1024,1024,1024,1024,83.6,-89.9,97,4.007,4.006,4.011,4.008,4.022,4.027,19.139,89.6,14,Waypoint,
36.9906985,-119.1416675,5815.8728189819,165.68242,0,1.04784124088,22600,2018-06-13 22:29:01,17,0,24.047,5815.8728189819,165.68242,0.447388,1.10555777816,0,0,-0.671082,83.3, 2.2, 5.4,0,0,1024,1024,1024,1024,83.6,-90,97,4.007,4.006,4.011,4.008,4.022,4.027,19.139,89.6,14,Waypoint,
36.9906984,-119.1416675,5816.5289869819,166.338588,0,1.012303182,22700,2018-06-13 22:29:01,17,0,24.047,5816.5289869819,166.338588,0.447388,1.10555777816,0,0,-0.671082,83.4, 2.1, 4.9,0,0,1024,1024,1024,1024,83.6,-89.9,97,4.007,4.006,4.011,4.008,4.022,4.027,19.139,89.6,14,Waypoint,
36.9906984,-119.1416676,5818.1694069819,167.979008,0,1.00599412668,22800,2018-06-13 22:29:01,17,0,24.047,5818.1694069819,167.979008,0.447388,1.10555777816,0,0,-0.671082,83.2, 2.1, 4.4,0,0,1024,1024,1024,1024,83.6,-89.9,97,4.007,4.006,4.011,4.008,4.022,4.027,19.139,89.6,14,Waypoint,
36.9906983,-119.1416676,5819.1536589819,168.96326,0,0.97029530664,22900,2018-06-13 22:29:01,17,0,24.047,5819.1536589819,168.96326,0.447388,1.10555777816,0,0,-0.671082,83.2, 2.4, 4.1,0,0,1024,1024,1024,1024,83.6,-89.9,97,4.007,4.006,4.011,4.008,4.022,4.027,19.139,89.6,14,Waypoint,
36.9906982,-119.1416676,5820.1379109819,169.947512,0,0.93465554172,23000,2018-06-13 22:29:01,17,0,23.986,5820.1379109819,169.947512,0.447388,1.10555777816,0,0,-0.671082,83.4, 2.5, 3.6,0,0,1024,1024,1024,1024,83.6,-89.9,97,3.977,3.992,3.995,4.003,4.009,4.017,19.451,91.4,14,Waypoint,
36.9906981,-119.1416676,5820.7940789819,170.60368,0,0.89908467444,23100,2018-06-13 22:29:01,17,0,23.986,5820.7940789819,170.60368,0.447388,1.10555777816,0,0,-0.671082,83.5, 2.6, 3.3,0,0,1024,1024,1024,1024,83.6,-89.9,97,3.977,3.992,3.995,4.003,4.009,4.017,19.451,91.4,14,Waypoint,
36.990698,-119.1416676,5821.7783309819,171.587932,0,0.86359254732,23200,2018-06-13 22:29:01,17,0,23.986,5821.7783309819,171.587932,0.447388,1.10555777816,0,0,-0.671082,83.6, 2.5, 3.1,0,0,1024,1024,1024,1024,83.6,-89.9,97,3.977,3.992,3.995,4.003,4.009,4.017,19.451,91.4,14,Waypoint,
36.9906978,-119.1416677,5823.7468349819,173.556436,0,0.78588257108,23400,2018-06-13 22:29:01,17,0,23.986,5823.7468349819,173.556436,0.447388,1.10555777816,0,0,-0.671082,83.7, 2.4, 2.1,0,0,1024,1024,1024,1024,83.6,-89.9,97,3.977,3.992,3.995,4.003,4.009,4.017,19.451,91.4,14,Waypoint,
36.9906976,-119.1416677,5824.7310869819,174.540688,0,0.71492456356,23600,2018-06-13 22:29:02,17,0,23.986,5824.7310869819,174.540688,0.447388,1.10555777816,0,0,-0.671082,83.8, 2.4, 1.8,0,0,1024,1024,1024,1024,83.6,-89.9,97,3.977,3.992,3.995,4.003,4.009,4.017,19.451,91.4,14,Waypoint,
36.9906975,-119.1416676,5826.0434229819,175.853024,0,0.6876804682,23700,2018-06-13 22:29:02,17,0,23.986,5826.0434229819,175.853024,0.447388,1.10555777816,0,0,-0.671082,83.8, 2.6, 1.7,0,0,1024,1024,1024,1024,83.6,-89.9,97,3.977,3.992,3.995,4.003,4.009,4.017,19.451,91.4,14,Waypoint,
36.9906973,-119.1416676,5827.0276749819,176.837276,0,0.61837600404,23800,2018-06-13 22:29:02,17,0,23.986,5827.0276749819,176.837276,0.447388,1.10555777816,0,0,-0.671082,83.8, 2.7, 1.9,0,0,1024,1024,1024,1024,83.6,-89.9,97,3.977,3.992,3.995,4.003,4.009,4.017,19.451,91.4,14,Waypoint,
36.9906973,-119.1416676,5828.0119269819,177.821528,0,0.61837600404,23900,2018-06-13 22:29:02,17,0,23.986,5828.0119269819,177.821528,0.447388,1.10555777816,0,0,-0.671082,83.8, 2.9, 1.9,0,0,1024,1024,1024,1024,83.6,-89.9,97,3.977,3.992,3.995,4.003,4.009,4.017,19.451,91.4,14,Waypoint,
36.9906972,-119.1416676,5828.9961789819,178.80578,0,0.5840551368,24000,2018-06-13 22:29:02,17,0,24.057,5828.9961789819,178.80578,0.447388,1.10555777816,0,0,-0.671082,83.8, 3, 2.2,0,0,1024,1024,1024,1024,83.6,-89.9,97,3.977,3.992,3.995,4.003,4.009,4.017,18.72,91.4,14,Waypoint,
36.9906972,-119.1416675,5830.3085149819,180.118116,0,0.59486222376,24100,2018-06-13 22:29:02,17,0,24.057,5830.3085149819,180.118116,0.447388,1.10555777816,0,0,-0.671082,83.8, 3.1, 2.2,0,0,1024,1024,1024,1024,83.6,-89.9,97,3.977,3.992,3.995,4.003,4.009,4.017,18.72,91.4,14,Waypoint,
36.9906971,-119.1416675,5832.2770189819,182.08662,0,0.56147639592,24300,2018-06-13 22:29:02,17,0,24.057,5832.2770189819,182.08662,0.447388,1.10555777816,0,0,-0.671082,83.8, 3.5, 2.4,0,0,1024,1024,1024,1024,83.6,-89.9,97,3.977,3.992,3.995,4.003,4.009,4.017,18.72,91.4,14,Waypoint,
36.9906971,-119.1416675,5833.2612709819,183.070872,0,0.56147639592,24400,2018-06-13 22:29:02,17,0,24.057,5833.2612709819,183.070872,0.447388,1.10555777816,0,0,-0.671082,83.7, 3.2, 2.8,0,0,1024,1024,1024,1024,83.6,-89.9,97,3.977,3.992,3.995,4.003,4.009,4.017,18.72,91.4,14,Waypoint,
36.9906972,-119.1416676,5835.5578589819,185.36746,0,0.5840551368,24600,2018-06-13 22:29:03,17,0,24.057,5835.5578589819,185.36746,0.447388,1.10555777816,0,0,-0.671082,83.6, 2.7, 3.4,0,0,1024,1024,1024,1024,83.6,-89.9,97,3.977,3.992,3.995,4.003,4.009,4.017,18.72,91.4,14,Waypoint,
36.9906972,-119.1416676,5836.5421109819,186.351712,0,0.5840551368,24700,2018-06-13 22:29:03,17,0,24.057,5836.5421109819,186.351712,0.447388,1.10555777816,0,0,-0.671082,83.5, 2.7, 3.5,0,0,1024,1024,1024,1024,83.6,-89.9,97,3.977,3.992,3.995,4.003,4.009,4.017,18.72,91.4,14,Waypoint,
36.9906972,-119.1416676,5837.5263629819,187.335964,0,0.5840551368,24800,2018-06-13 22:29:03,17,0,24.057,5837.5263629819,187.335964,0.447388,1.10555777816,0,0,-0.671082,83.6, 2.7, 3.6,0,0,1024,1024,1024,1024,83.6,-89.9,97,3.977,3.992,3.995,4.003,4.009,4.017,18.72,91.4,14,Waypoint,
36.9906972,-119.1416676,5839.4948669819,189.304468,0,0.5840551368,24900,2018-06-13 22:29:03,17,0,24.057,5839.4948669819,189.304468,0.447388,1.10555777816,0,0,-0.671082,83.6, 3.1, 3.5,0,0,1024,1024,1024,1024,83.6,-89.9,97,3.977,3.992,3.995,4.003,4.009,4.017,18.72,91.4,14,Waypoint,
36.9906972,-119.1416676,5840.4791189819,190.28872,0,0.5840551368,25000,2018-06-13 22:29:03,17,0,24.057,5840.4791189819,190.28872,0.447388,1.10555777816,0,0,-0.671082,83.6, 3.3, 3.2,0,0,1024,1024,1024,1024,83.6,-89.9,97,3.991,4.007,3.995,4.01,4.013,4.025,18.72,91.4,14,Waypoint,
36.9906971,-119.1416675,5841.7914549819,191.601056,0,0.56147639592,25100,2018-06-13 22:29:03,17,0,24.057,5841.7914549819,191.601056,0.447388,1.10555777816,0,0,-0.671082,83.6, 3.3, 2.9,0,0,1024,1024,1024,1024,83.6,-89.9,97,3.991,4.007,3.995,4.01,4.013,4.025,18.72,91.4,14,Waypoint,
36.9906971,-119.1416675,5842.7757069819,192.585308,0,0.56147639592,25200,2018-06-13 22:29:03,17,0,24.057,5842.7757069819,192.585308,0.447388,1.10555777816,0,0,-0.671082,83.5, 3.2, 2.7,0,0,1024,1024,1024,1024,83.6,-89.9,97,3.991,4.007,3.995,4.01,4.013,4.025,18.72,91.4,14,Waypoint,
36.9906971,-119.1416676,5843.7599589819,193.56956,0,0.5500164218,25300,2018-06-13 22:29:03,18,0,24.057,5843.7599589819,193.56956,0.447388,1.10555777816,0,0,-0.671082,83.5, 3, 2.6,0,0,1024,1024,1024,1024,83.6,-89.9,97,3.991,4.007,3.995,4.01,4.013,4.025,18.72,91.4,14,Waypoint,
36.990697,-119.1416675,5844.7442109819,194.553812,0,0.52850395392,25400,2018-06-13 22:29:03,18,0,24.057,5844.7442109819,194.553812,0.447388,1.10555777816,0,0,-0.671082,83.5, 2.8, 2.7,0,0,1024,1024,1024,1024,83.6,-89.9,97,3.991,4.007,3.995,4.01,4.013,4.025,18.72,91.4,14,Waypoint,
36.990697,-119.1416675,5845.7284629819,195.538064,0,0.52850395392,25500,2018-06-13 22:29:04,18,0,24.057,5845.7284629819,195.538064,0.447388,1.10555777816,0,0,-0.671082,83.6, 2.9, 2.9,0,0,1024,1024,1024,1024,83.6,-89.9,97,3.991,4.007,3.995,4.01,4.013,4.025,18.72,91.4,14,Waypoint,
36.9906969,-119.1416675,5846.7127149819,196.522316,0,0.49602035708,25600,2018-06-13 22:29:04,18,0,24.057,5846.7127149819,196.522316,0.447388,1.10555777816,0,0,-0.671082,83.7, 2.9, 3.2,0,0,1024,1024,1024,1024,83.6,-89.9,97,3.991,4.007,3.995,4.01,4.013,4.025,18.72,91.4,14,Waypoint,
36.9906969,-119.1416676,5847.6969669819,197.506568,0,0.48300854564,25800,2018-06-13 22:29:04,18,0,24.057,5847.6969669819,197.506568,0.447388,1.10555777816,0,0,-0.671082,83.7, 2.9, 3.3,0,0,1024,1024,1024,1024,83.6,-89.9,97,3.991,4.007,3.995,4.01,4.013,4.025,18.72,91.4,14,Waypoint,
36.9906968,-119.1416676,5849.6654709819,199.475072,0,0.45020342648,25900,2018-06-13 22:29:04,18,0,24.057,5849.6654709819,199.475072,0.447388,1.10555777816,0,0,-0.671082,83.7, 2.8, 3.4,0,0,1024,1024,1024,1024,83.6,-89.9,97,3.991,4.007,3.995,4.01,4.013,4.025,18.72,91.4,14,Waypoint,
36.9906968,-119.1416676,5849.6654709819,199.475072,0,0.45020342648,26000,2018-06-13 22:29:04,18,0,24.034,5849.6654709819,199.475072,0.447388,1.10555777816,0,0,-0.671082,83.7, 2.8, 3.4,0,0,1024,1024,1024,1024,83.6,-89.9,97,4.015,4.029,4.014,4.014,4.022,4.031,16.869,91.4,14,Waypoint,
36.9906968,-119.1416676,5850.6497229819,200.459324,0,0.45020342648,26100,2018-06-13 22:29:04,18,0,24.034,5850.6497229819,200.459324,0.447388,1.10555777816,0,0,-0.671082,83.7, 2.8, 3.3,0,0,1024,1024,1024,1024,83.6,-89.9,97,4.015,4.029,4.014,4.014,4.022,4.031,16.869,91.4,14,Waypoint,
36.9906967,-119.1416676,5851.6339749819,201.443576,0,0.41800526272,26200,2018-06-13 22:29:04,18,0,24.034,5851.6339749819,201.443576,0.447388,1.10555777816,0,0,-0.671082,83.6, 2.9, 3.1,0,0,1024,1024,1024,1024,83.6,-89.9,97,4.015,4.029,4.014,4.014,4.022,4.031,16.869,91.4,14,Waypoint,
36.9906966,-119.1416676,5852.6182269819,202.427828,0,0.38656825384,26300,2018-06-13 22:29:04,18,0,24.034,5852.6182269819,202.427828,0.447388,1.10555777816,0,0,-0.671082,83.6, 2.8, 2.9,0,0,1024,1024,1024,1024,83.6,-89.9,97,4.015,4.029,4.014,4.014,4.022,4.031,16.869,91.4,14,Waypoint,
36.9906965,-119.1416676,5853.6024789819,203.41208,0,0.35609909276,26400,2018-06-13 22:29:04,18,0,24.034,5853.6024789819,203.41208,0.447388,1.10555777816,0,0,-0.671082,83.6, 2.7, 2.7,0,0,1024,1024,1024,1024,83.6,-89.9,97,4.015,4.029,4.014,4.014,4.022,4.031,16.869,91.4,14,Waypoint,
36.9906965,-119.1416676,5854.5867309819,204.396332,0,0.35609909276,26500,2018-06-13 22:29:05,18,0,24.034,5854.5867309819,204.396332,0.447388,1.10555777816,0,0,-0.671082,83.7, 2.8, 2.5,0,0,1024,1024,1024,1024,83.6,-89.9,97,4.015,4.029,4.014,4.014,4.022,4.031,16.869,91.4,14,Waypoint,
