Latitude, Longitude, Altitude (m), Time, Sats, Speed (m/s), Range (m), Battery (%), Roll (deg), Pitch (deg), Yaw (deg), Images, HD Signal (%), RC Signal (%), Battery Temp (C), Battery Voltage (mV), Battery Current (mA), Battery Energy (mAh), Battery Capacity (mAh), Battery Discharges, flyState, timestamp (Unix), LastUpdate (ms), radioChannel, Rc_elevator, Rc_aileron, Rc_throttle, Rc_rudder, Rc_gyro, Dronetype, Battery_Cell1 (mV), Battery_Cell2 (mV), Battery_Cell3 (mV), Battery_Cell4 (mV), Battery_Cell5 (mV), Battery_Cell6 (mV), Video, isFlying, elapsedTime (ms), gimbalPitch (deg), gimbalRoll (deg), gimbalYaw (deg), VelocityX (m/s), VelocityY (m/s), VelocityZ (m/s), GroundSmear (cm), App Version, Aircraft Name, Aircraft Firmware, Aircraft Serial Number, Battery Serial Number, Battery Lifetime (%), App_Tip, App_Warning, CurrentFlightStartingIndex, CurrentFlightLastVisitedWaypoint, PreviousFlightEndingWaypointIndex
36.9906229, -119.1416764, 0.000, 16:07:53.364, 14, 0.10, 0.11, 100, -0.200, -0.400, 83.900, 1359, 100, 100, 31, 25760, -2840, 5434, 5434, 14, 11, 1528931273.365, 9, 0, 1024, 1024, 1024, 1024, 0, 6, 4281, 4259, 4282, 4277, 4288, 4285, 0, 1, 3101, -89.900, 0.000, 83.200, 0.100, 0.000, -0.300, 0.0, MapPilot_2.8.1_04242018, Dendroctonus I, 1.3.1.00, 041DDC1887, 1058163200563, 97, DJI_0356.jpg, Starting Mission from Lat/Long: 36.99062/-119.14168 Camera: Zenmuse X3 - Overlap: 90/90 - Active Connection: No, 41, 41, 41
36.9906230, -119.1416764, 0.000, 16:07:53.466, 14, 0.10, 0.13, 100, 0.100, -0.200, 83.900, 1359, 100, 100, 31, 25760, -2840, 5434, 5434, 14, 11, 1528931273.466, 2, 0, 1024, 1024, 1024, 1024, 0, 6, 4281, 4259, 4282, 4277, 4288, 4285, 0, 1, 3202, -89.900, 0.000, 83.200, 0.100, 0.000, -0.300, 0.0, , , , , , 97, , , 41, 41, 41
36.9906230, -119.1416764, 0.000, 16:07:53.564, 14, 0.10, 0.13, 100, 0.100, -0.200, 83.900, 1359, 100, 100, 31, 25760, -2840, 5434, 5434, 14, 11, 1528931273.564, 101, 0, 1024, 1024, 1024, 1024, 0, 6, 4281, 4259, 4282, 4277, 4288, 4285, 0, 1, 3301, -89.900, 0.000, 83.200, 0.100, 0.000, -0.300, 0.0, , , , , , 97, , , 41, 41, 41
36.9906232, -119.1416764, 0.100, 16:07:53.663, 14, 0.10, 0.14, 100, 0.400, 0.100, 84.000, 1359, 100, 100, 31, 25760, -2840, 5434, 5434, 14, 11, 1528931273.663, 95, 0, 1024, 1024, 1024, 1024, 0, 6, 4281, 4259, 4282, 4277, 4288, 4285, 0, 1, 3400, -89.900, 0.000, 83.200, 0.100, 0.000, -0.400, 0.0, , , , , , 97, , , 41, 41, 41
36.9906234, -119.1416764, 0.100, 16:07:53.764, 14, 0.10, 0.17, 100, 1.100, 0.300, 84.000, 1359, 100, 100, 31, 25760, -2840, 5434, 5434, 14, 11, 1528931273.765, 89, 0, 1024, 1024, 1024, 1024, 0, 6, 4281, 4259, 4282, 4277, 4288, 4285, 0, 1, 3501, -89.900, 0.000, 83.200, 0.100, 0.000, -0.400, 0.0, , , , , , 97, , , 41, 41, 41
36.9906236, -119.1416763, 0.200, 16:07:53.864, 14, 0.10, 0.19, 100, 1.500, 0.400, 83.900, 1359, 100, 100, 31, 25760, -2840, 5434, 5434, 14, 11, 1528931273.864, 69, 0, 1024, 1024, 1024, 1024, 0, 6, 4281, 4259, 4282, 4277, 4288, 4285, 0, 1, 3601, -89.900, 0.000, 83.200, 0.100, 0.000, -0.400, 0.0, , , , , , 97, , , 41, 41, 41
36.9906238, -119.1416763, 0.200, 16:07:53.964, 14, 0.10, 0.21, 100, 2.000, 0.700, 83.800, 1359, 100, 100, 31, 25760, -2840, 5434, 5434, 14, 11, 1528931273.965, 71, 0, 1024, 1024, 1024, 1024, 0, 6, 4281, 4259, 4282, 4277, 4288, 4285, 0, 1, 3701, -89.900, 0.000, 83.200, 0.100, 0.000, -0.400, 0.0, , , , , , 97, , , 41, 41, 41
36.9906240, -119.1416763, 0.300, 16:07:54.064, 14, 0.10, 0.23, 100, 2.300, 0.700, 83.700, 1359, 100, 100, 31, 25760, -2840, 5434, 5434, 14, 11, 1528931274.065, 61, 0, 1024, 1024, 1024, 1024, 0, 6, 4281, 4259, 4282, 4277, 4288, 4285, 0, 1, 3801, -89.900, 0.000, 83.200, 0.100, 0.000, -0.400, 0.0, , , , , , 97, , , 41, 41, 41
36.9906242, -119.1416762, 0.300, 16:07:54.163, 14, 0.10, 0.25, 100, 2.400, 0.700, 83.600, 1359, 100, 100, 31, 25760, -2840, 5434, 5434, 14, 11, 1528931274.163, 63, 0, 1024, 1024, 1024, 1024, 0, 6, 4281, 4259, 4282, 4277, 4288, 4285, 0, 1, 3900, -89.900, 0.000, 83.200, 0.100, 0.000, -0.400, 0.0, , , , , , 97, , , 41, 41, 41
36.9906243, -119.1416762, 0.300, 16:07:54.264, 14, 0.10, 0.27, 100, 2.400, 0.700, 83.600, 1359, 100, 100, 31, 25760, -2840, 5434, 5434, 14, 11, 1528931274.264, 64, 0, 1024, 1024, 1024, 1024, 0, 6, 4281, 4259, 4282, 4277, 4288, 4285, 0, 1, 4001, -89.900, 0.000, 83.200, 0.100, 0.000, -0.400, 0.0, , , , , , 97, , , 41, 41, 41
36.9906246, -119.1416761, 0.400, 16:07:54.364, 13, 0.10, 0.30, 100, 1.600, 0.700, 83.700, 1359, 100, 100, 31, 24970, -13971, 5434, 5434, 14, 11, 1528931274.364, 63, 0, 1024, 1024, 1024, 1024, 0, 6, 4150, 4140, 4167, 4166, 4140, 4138, 0, 1, 4101, -89.900, 0.000, 83.200, 0.100, 0.000, -0.400, 0.0, , , , , , 97, , , 41, 41, 41
36.9906247, -119.1416760, 0.500, 16:07:54.464, 13, 0.00, 0.31, 100, 1.500, 0.600, 83.700, 1359, 100, 100, 31, 24970, -13971, 5434, 5434, 14, 11, 1528931274.464, 56, 0, 1024, 1024, 1024, 1024, 0, 6, 4150, 4140, 4167, 4166, 4140, 4138, 0, 1, 4201, -89.900, 0.000, 83.200, 0.000, 0.000, -0.400, 0.0, , , , , , 97, , , 41, 41, 41
36.9906248, -119.1416760, 0.500, 16:07:54.564, 14, 0.00, 0.32, 100, 1.400, 0.600, 83.800, 1359, 100, 100, 31, 24970, -13971, 5434, 5434, 14, 11, 1528931274.564, 58, 0, 1024, 1024, 1024, 1024, 0, 6, 4150, 4140, 4167, 4166, 4140, 4138, 0, 1, 4301, -89.900, 0.000, 83.200, 0.000, 0.000, -0.500, 0.0, , , , , , 97, , , 41, 41, 41
36.9906249, -119.1416759, 0.600, 16:07:54.663, 14, 0.00, 0.34, 100, 1.300, 0.700, 83.800, 1359, 100, 100, 31, 24970, -13971, 5434, 5434, 14, 11, 1528931274.663, 58, 0, 1024, 1024, 1024, 1024, 0, 6, 4150, 4140, 4167, 4166, 4140, 4138, 0, 1, 4400, -89.900, 0.000, 83.200, 0.000, 0.000, -0.500, 0.0, , , , , , 97, , , 41, 41, 41
36.9906250, -119.1416758, 0.700, 16:07:54.764, 14, 0.00, 0.35, 100, 1.400, 0.800, 83.700, 1359, 100, 100, 31, 24970, -13971, 5434, 5434, 14, 11, 1528931274.765, 41, 0, 1024, 1024, 1024, 1024, 0, 6, 4150, 4140, 4167, 4166, 4140, 4138, 0, 1, 4501, -89.900, 0.000, 83.200, 0.000, 0.000, -0.500, 0.0, , , , , , 97, , , 41, 41, 41
36.9906251, -119.1416758, 0.700, 16:07:54.864, 14, 0.00, 0.36, 100, 1.500, 0.800, 83.600, 1359, 100, 100, 31, 24970, -13971, 5434, 5434, 14, 11, 1528931274.864, 42, 0, 1024, 1024, 1024, 1024, 0, 6, 4150, 4140, 4167, 4166, 4140, 4138, 0, 1, 4601, -89.900, 0.000, 83.200, 0.000, 0.000, -0.500, 0.0, , , , , , 97, , , 41, 41, 41
36.9906252, -119.1416758, 0.800, 16:07:54.964, 14, 0.00, 0.37, 100, 1.600, 1.000, 83.400, 1359, 100, 100, 31, 24970, -13971, 5434, 5434, 14, 11, 1528931274.964, 34, 0, 1024, 1024, 1024, 1024, 0, 6, 4150, 4140, 4167, 4166, 4140, 4138, 0, 1, 4701, -89.900, 0.000, 83.200, 0.000, 0.000, -0.500, 0.0, , , , , , 97, , , 41, 41, 41
36.9906253, -119.1416757, 0.800, 16:07:55.064, 14, 0.00, 0.38, 100, 1.600, 1.000, 83.200, 1359, 100, 100, 31, 24970, -13971, 5434, 5434, 14, 11, 1528931275.064, 37, 0, 1024, 1024, 1024, 1024, 0, 6, 4150, 4140, 4167, 4166, 4140, 4138, 0, 1, 4801, -89.900, 0.000, 83.200, 0.000, 0.000, -0.400, 0.0, , , , , , 97, , , 41, 41, 41
36.9906254, -119.1416756, 0.900, 16:07:55.163, 14, 0.00, 0.40, 100, 1.700, 1.100, 83.100, 1359, 100, 100, 31, 24970, -13971, 5434, 5434, 14, 14, 1528931275.163, 35, 0, 1024, 1024, 1024, 1024, 0, 6, 4150, 4140, 4167, 4166, 4140, 4138, 0, 1, 4900, -89.900, 0.000, 83.200, 0.000, 0.000, -0.400, 0.0, , , , , , 97, , , 41, 41, 41
36.9906255, -119.1416756, 0.900, 16:07:55.264, 14, 0.00, 0.41, 100, 1.900, 1.100, 83.000, 1359, 100, 100, 31, 24970, -13971, 5434, 5434, 14, 14, 1528931275.264, 28, 0, 1024, 1024, 1024, 1024, 0, 6, 4150, 4140, 4167, 4166, 4140, 4138, 0, 1, 5001, -89.900, 0.000, 83.200, 0.000, 0.000, -0.400, 0.0, , , , , , 97, , , 41, 41, 41
36.9906256, -119.1416756, 1.000, 16:07:55.364, 14, 0.00, 0.42, 100, 1.500, 0.800, 82.900, 1359, 100, 100, 31, 24708, -16436, 5434, 5434, 14, 14, 1528931275.365, 19, 0, 1024, 1024, 1024, 1024, 0, 6, 4108, 4110, 4120, 4114, 4122, 4118, 0, 1, 5101, -90.000, 0.000, 83.200, 0.000, 0.000, -0.300, 0.0, , , , , , 97, , , 41, 41, 41
36.9906256, -119.1416756, 1.000, 16:07:55.464, 14, 0.00, 0.42, 100, 1.300, 0.600, 83.000, 1359, 100, 100, 31, 24708, -16436, 5434, 5434, 14, 14, 1528931275.464, 9, 0, 1024, 1024, 1024, 1024, 0, 6, 4108, 4110, 4120, 4114, 4122, 4118, 0, 1, 5201, -90.000, 0.000, 83.200, 0.000, 0.000, -0.300, 0.0, , , , , , 97, , , 41, 41, 41
36.9906257, -119.1416757, 1.100, 16:07:55.564, 14, 0.00, 0.43, 100, 1.400, 0.400, 83.000, 1359, 100, 100, 31, 24708, -16436, 5434, 5434, 14, 14, 1528931275.565, 9, 0, 1024, 1024, 1024, 1024, 0, 6, 4108, 4110, 4120, 4114, 4122, 4118, 0, 1, 5301, -90.000, 0.000, 83.200, 0.000, 0.000, -0.300, 0.0, , , , , , 97, , , 41, 41, 41
36.9906258, -119.1416756, 1.100, 16:07:55.663, 14, 0.00, 0.44, 100, 1.500, 0.400, 83.100, 1359, 100, 100, 31, 24708, -16436, 5434, 5434, 14, 14, 1528931275.663, 10, 0, 1024, 1024, 1024, 1024, 0, 6, 4108, 4110, 4120, 4114, 4122, 4118, 0, 1, 5400, -89.900, 0.000, 83.200, 0.000, 0.000, -0.400, 0.0, , , , , , 97, , , 41, 41, 41
36.9906258, -119.1416756, 1.100, 16:07:55.764, 14, 0.00, 0.44, 100, 1.500, 0.400, 83.100, 1359, 100, 100, 31, 24708, -16436, 5434, 5434, 14, 14, 1528931275.764, 111, 0, 1024, 1024, 1024, 1024, 0, 6, 4108, 4110, 4120, 4114, 4122, 4118, 0, 1, 5501, -89.900, 0.000, 83.200, 0.000, 0.000, -0.400, 0.0, , , , , , 97, , , 41, 41, 41
36.9906259, -119.1416756, 1.200, 16:07:55.864, 14, 0.00, 0.46, 100, 1.800, 0.400, 83.300, 1359, 100, 100, 31, 24708, -16436, 5434, 5434, 14, 14, 1528931275.864, 87, 0, 1024, 1024, 1024, 1024, 0, 6, 4108, 4110, 4120, 4114, 4122, 4118, 0, 1, 5601, -89.900, 0.000, 83.200, 0.000, 0.000, -0.500, 0.0, , , , , , 97, , , 41, 41, 41
36.9906260, -119.1416755, 1.200, 16:07:55.964, 14, 0.00, 0.47, 100, 2.000, 0.600, 83.300, 1359, 100, 100, 31, 24708, -16436, 5434, 5434, 14, 14, 1528931275.964, 70, 0, 1024, 1024, 1024, 1024, 0, 6, 4108, 4110, 4120, 4114, 4122, 4118, 0, 1, 5701, -89.900, 0.000, 83.200, 0.000, 0.000, -0.700, 0.0, , , , , , 97, , , 41, 41, 41
36.9906261, -119.1416755, 1.300, 16:07:56.064, 14, 0.00, 0.47, 100, 2.000, 0.900, 83.400, 1359, 100, 100, 31, 24708, -16436, 5434, 5434, 14, 14, 1528931276.065, 84, 0, 1024, 1024, 1024, 1024, 0, 6, 4108, 4110, 4120, 4114, 4122, 4118, 0, 1, 5801, -89.900, 0.000, 83.200, 0.000, 0.000, -0.900, 0.0, , , , , , 97, , , 41, 41, 41
36.9906262, -119.1416755, 1.500, 16:07:56.163, 14, 0.00, 0.49, 100, 1.900, 1.000, 83.300, 1359, 100, 100, 31, 24708, -16436, 5434, 5434, 14, 14, 1528931276.163, 75, 0, 1024, 1024, 1024, 1024, 0, 6, 4108, 4110, 4120, 4114, 4122, 4118, 0, 1, 5900, -89.900, 0.000, 83.200, 0.000, 0.000, -1.100, 0.0, , , , , , 97, , , 41, 41, 41
36.9906263, -119.1416755, 1.600, 16:07:56.264, 14, 0.00, 0.49, 100, 1.700, 1.000, 83.300, 1359, 100, 100, 31, 24708, -16436, 5434, 5434, 14, 14, 1528931276.264, 81, 0, 1024, 1024, 1024, 1024, 0, 6, 4108, 4110, 4120, 4114, 4122, 4118, 0, 1, 6001, -89.900, 0.000, 83.200, 0.000, 0.000, -1.300, 0.0, , , , , , 97, , , 41, 41, 41
36.9906263, -119.1416755, 1.700, 16:07:56.364, 14, 0.00, 0.50, 100, 1.500, 1.000, 83.200, 1359, 100, 100, 31, 24663, -15659, 5434, 5434, 14, 14, 1528931276.365, 73, 0, 1024, 1024, 1024, 1024, 0, 6, 4108, 4110, 4120, 4114, 4122, 4118, 0, 1, 6101, -89.900, 0.000, 83.200, 0.000, 0.000, -1.500, 0.0, , , , , , 97, , , 41, 41, 41
36.9906265, -119.1416756, 2.100, 16:07:56.471, 14, 0.00, 0.52, 100, 1.800, 0.400, 83.100, 1359, 100, 100, 31, 24663, -15659, 5434, 5434, 14, 14, 1528931276.471, 76, 0, 1024, 1024, 1024, 1024, 0, 6, 4108, 4110, 4120, 4114, 4122, 4118, 0, 1, 6208, -90.000, 0.000, 83.200, 0.000, 0.000, -1.900, 0.0, , , , , , 97, , , 41, 41, 41
36.9906266, -119.1416756, 2.300, 16:07:56.563, 14, 0.00, 0.53, 100, 2.000, 0.500, 83.000, 1359, 100, 100, 31, 24663, -15659, 5434, 5434, 14, 14, 1528931276.563, 62, 0, 1024, 1024, 1024, 1024, 0, 6, 4108, 4110, 4120, 4114, 4122, 4118, 0, 1, 6299, -90.000, 0.000, 83.200, 0.000, 0.000, -2.100, 0.0, , , , , , 97, , , 41, 41, 41
36.9906267, -119.1416756, 2.500, 16:07:56.663, 14, 0.00, 0.54, 100, 2.300, 0.400, 82.900, 1359, 100, 100, 31, 24663, -15659, 5434, 5434, 14, 14, 1528931276.663, 38, 0, 1024, 1024, 1024, 1024, 0, 6, 4108, 4110, 4120, 4114, 4122, 4118, 0, 1, 6400, -89.900, 0.000, 83.200, 0.000, 0.000, -2.300, 0.0, , , , , , 97, , , 41, 41, 41
36.9906268, -119.1416756, 2.800, 16:07:56.764, 14, 0.00, 0.55, 100, 2.400, 0.600, 82.800, 1359, 100, 100, 31, 24663, -15659, 5434, 5434, 14, 14, 1528931276.764, 42, 0, 1024, 1024, 1024, 1024, 0, 6, 4108, 4110, 4120, 4114, 4122, 4118, 0, 1, 6501, -89.900, 0.000, 83.200, 0.000, 0.000, -2.600, 0.0, , , , , , 97, , , 41, 41, 41
36.9906269, -119.1416756, 3.100, 16:07:56.863, 14, 0.00, 0.56, 100, 2.300, 0.700, 82.800, 1359, 100, 100, 31, 24663, -15659, 5434, 5434, 14, 14, 1528931276.863, 35, 0, 1024, 1024, 1024, 1024, 0, 6, 4113, 4078, 4169, 4161, 4124, 4125, 0, 1, 6600, -89.900, 0.000, 83.200, 0.000, 0.000, -2.900, 0.0, , , , , , 97, , , 41, 41, 41
36.9906270, -119.1416756, 3.400, 16:07:56.964, 14, 0.00, 0.57, 100, 2.200, 0.800, 82.700, 1359, 100, 100, 31, 24663, -15659, 5434, 5434, 14, 14, 1528931276.964, 37, 0, 1024, 1024, 1024, 1024, 0, 6, 4113, 4078, 4169, 4161, 4124, 4125, 0, 1, 6701, -89.900, 0.000, 83.200, 0.000, 0.000, -2.900, 0.0, , , , , , 97, , , 41, 41, 41
36.9906270, -119.1416756, 3.700, 16:07:57.064, 14, 0.00, 0.57, 100, 2.100, 0.900, 82.800, 1359, 100, 100, 31, 24663, -15659, 5434, 5434, 14, 14, 1528931277.064, 39, 0, 1024, 1024, 1024, 1024, 0, 6, 4113, 4078, 4169, 4161, 4124, 4125, 0, 1, 6800, -89.900, 0.000, 83.200, 0.000, 0.000, -3.000, 0.0, , , , , , 97, , , 41, 41, 41
36.9906270, -119.1416755, 4.000, 16:07:57.164, 14, 0.00, 0.57, 100, 1.800, 0.900, 82.800, 1359, 100, 100, 31, 24663, -15659, 5434, 5434, 14, 14, 1528931277.164, 32, 0, 1024, 1024, 1024, 1024, 0, 6, 4113, 4078, 4169, 4161, 4124, 4125, 0, 1, 6900, -89.900, 0.000, 83.200, 0.000, 0.000, -3.100, 0.0, , , , , , 97, , , 41, 41, 41
36.9906268, -119.1416756, 4.300, 16:07:57.264, 14, 0.10, 0.55, 100, 1.400, 0.900, 83.000, 1359, 100, 100, 31, 24663, -15659, 5434, 5434, 14, 14, 1528931277.264, 34, 0, 1024, 1024, 1024, 1024, 0, 6, 4113, 4078, 4169, 4161, 4124, 4125, 0, 1, 7001, -89.900, 0.000, 83.200, -0.100, 0.000, -3.100, 0.0, , , , , , 97, , , 41, 41, 41
36.9906266, -119.1416757, 4.700, 16:07:57.364, 14, 0.10, 0.52, 100, 0.800, 0.800, 83.000, 1359, 100, 100, 31, 24663, -15659, 5434, 5434, 14, 14, 1528931277.364, 18, 0, 1024, 1024, 1024, 1024, 0, 6, 4113, 4078, 4169, 4161, 4124, 4125, 0, 1, 7101, -89.900, 0.000, 83.200, -0.100, 0.000, -3.200, 0.0, , , , , , 97, , , 41, 41, 41
36.9906264, -119.1416757, 5.000, 16:07:57.464, 14, 0.10, 0.51, 100, 0.400, 0.600, 82.900, 1359, 100, 100, 31, 24663, -15659, 5434, 5434, 14, 14, 1528931277.465, 18, 0, 1024, 1024, 1024, 1024, 0, 6, 4113, 4078, 4169, 4161, 4124, 4125, 0, 1, 7201, -89.900, 0.000, 83.200, -0.100, 0.000, -3.200, 0.0, , , , , , 97, , , 41, 41, 41
36.9906263, -119.1416757, 5.300, 16:07:57.564, 14, 0.10, 0.49, 100, 0.100, 0.500, 82.900, 1359, 100, 100, 31, 24663, -15659, 5434, 5434, 14, 14, 1528931277.565, 8, 0, 1024, 1024, 1024, 1024, 0, 6, 4113, 4078, 4169, 4161, 4124, 4125, 0, 1, 7301, -89.900, 0.000, 83.200, -0.100, 0.000, -3.200, 0.0, , , , , , 97, , , 41, 41, 41
36.9906261, -119.1416757, 5.700, 16:07:57.663, 14, 0.10, 0.47, 100, 0.000, 0.300, 82.800, 1359, 100, 100, 31, 24663, -15659, 5434, 5434, 14, 14, 1528931277.663, 11, 0, 1024, 1024, 1024, 1024, 0, 6, 4113, 4078, 4169, 4161, 4124, 4125, 0, 1, 7400, -90.000, 0.000, 83.200, -0.100, 0.000, -3.200, 0.0, , , , , , 97, , , 41, 41, 41
36.9906260, -119.1416757, 6.000, 16:07:57.764, 14, 0.10, 0.46, 100, 0.000, 0.300, 82.800, 1359, 100, 100, 31, 24356, -20906, 5434, 5434, 14, 14, 1528931277.764, 14, 0, 1024, 1024, 1024, 1024, 0, 6, 4045, 4052, 4063, 4046, 4053, 4046, 0, 1, 7501, -89.900, 0.000, 83.200, -0.100, 0.000, -3.200, 0.0, , , , , , 97, , , 41, 41, 41
36.9906260, -119.1416757, 6.000, 16:07:57.864, 14, 0.10, 0.46, 100, 0.000, 0.300, 82.800, 1359, 100, 100, 31, 24356, -20906, 5434, 5434, 14, 14, 1528931277.864, 114, 0, 1024, 1024, 1024, 1024, 0, 6, 4045, 4052, 4063, 4046, 4053, 4046, 0, 1, 7601, -89.900, 0.000, 83.200, -0.100, 0.000, -3.200, 0.0, , , , , , 97, , , 41, 41, 41
36.9906260, -119.1416756, 6.700, 16:07:57.964, 15, 0.00, 0.46, 100, -0.200, 0.900, 82.900, 1359, 100, 100, 31, 24356, -20906, 5434, 5434, 14, 14, 1528931277.964, 3, 0, 1024, 1024, 1024, 1024, 0, 6, 4045, 4052, 4063, 4046, 4053, 4046, 0, 1, 7700, -89.900, 0.000, 83.200, 0.000, 0.000, -3.200, 0.0, , , , , , 97, , , 41, 41, 41
36.9906260, -119.1416756, 6.700, 16:07:58.064, 15, 0.00, 0.46, 100, -0.200, 0.900, 82.900, 1359, 100, 100, 31, 24356, -20906, 5434, 5434, 14, 14, 1528931278.064, 103, 0, 1024, 1024, 1024, 1024, 0, 6, 4045, 4052, 4063, 4046, 4053, 4046, 0, 1, 7801, -89.900, 0.000, 83.200, 0.000, 0.000, -3.200, 0.0, , , , , , 97, , , 41, 41, 41
36.9906260, -119.1416755, 7.000, 16:07:58.163, 15, 0.00, 0.46, 100, -0.100, 1.100, 83.000, 1359, 100, 100, 31, 24356, -20906, 5434, 5434, 14, 14, 1528931278.163, 72, 0, 1024, 1024, 1024, 1024, 0, 6, 4045, 4052, 4063, 4046, 4053, 4046, 0, 1, 7900, -89.900, 0.000, 83.200, 0.000, 0.000, -3.200, 0.0, , , , , , 97, , , 41, 41, 41
36.9906260, -119.1416755, 7.400, 16:07:58.264, 14, 0.00, 0.47, 100, 0.000, 1.200, 83.100, 1359, 100, 100, 31, 24356, -20906, 5434, 5434, 14, 14, 1528931278.264, 77, 0, 1024, 1024, 1024, 1024, 0, 6, 4045, 4052, 4063, 4046, 4053, 4046, 0, 1, 8001, -89.900, 0.000, 83.200, 0.000, 0.000, -3.200, 0.0, , , , , , 97, , , 41, 41, 41
36.9906260, -119.1416754, 7.700, 16:07:58.364, 14, 0.00, 0.47, 100, 0.100, 1.300, 83.100, 1359, 100, 100, 31, 24356, -20906, 5434, 5434, 14, 14, 1528931278.364, 82, 0, 1024, 1024, 1024, 1024, 0, 6, 4045, 4052, 4063, 4046, 4053, 4046, 0, 1, 8101, -89.900, 0.000, 83.200, 0.000, 0.000, -3.100, 0.0, , , , , , 97, , , 41, 41, 41
36.9906261, -119.1416754, 8.000, 16:07:58.464, 14, 0.00, 0.47, 100, 0.300, 1.100, 83.200, 1359, 100, 99, 31, 24356, -20906, 5434, 5434, 14, 14, 1528931278.464, 73, 0, 1024, 1024, 1024, 1024, 0, 6, 4045, 4052, 4063, 4046, 4053, 4046, 0, 1, 8201, -89.900, 0.000, 83.200, 0.000, 0.000, -3.100, 0.0, , , , , , 97, , , 41, 41, 41
36.9906262, -119.1416754, 8.400, 16:07:58.564, 14, 0.00, 0.48, 100, 0.900, 0.900, 83.200, 1359, 100, 99, 31, 24356, -20906, 5434, 5434, 14, 14, 1528931278.564, 74, 0, 1024, 1024, 1024, 1024, 0, 6, 4045, 4052, 4063, 4046, 4053, 4046, 0, 1, 8301, -89.900, 0.000, 83.200, 0.000, 0.000, -3.100, 0.0, , , , , , 97, , , 41, 41, 41
36.9906264, -119.1416755, 9.000, 16:07:58.663, 14, 0.00, 0.51, 100, 1.400, 0.800, 83.000, 1359, 100, 99, 31, 24356, -20906, 5434, 5434, 14, 14, 1528931278.663, 61, 0, 1024, 1024, 1024, 1024, 0, 6, 4045, 4052, 4063, 4046, 4053, 4046, 0, 1, 8400, -89.900, 0.000, 83.200, 0.000, 0.000, -3.000, 0.0, , , , , , 97, , , 41, 41, 41
36.9906265, -119.1416755, 9.300, 16:07:58.764, 14, 0.00, 0.51, 100, 1.500, 0.800, 82.800, 1359, 100, 99, 31, 24356, -20906, 5434, 5434, 14, 14, 1528931278.764, 66, 0, 1024, 1024, 1024, 1024, 0, 6, 4045, 4052, 4063, 4046, 4053, 4046, 0, 1, 8501, -89.900, 0.000, 83.200, 0.000, 0.000, -3.000, 0.0, , , , , , 97, , , 41, 41, 41
36.9906265, -119.1416755, 9.600, 16:07:58.863, 14, 0.00, 0.52, 100, 1.500, 0.800, 82.800, 1359, 100, 99, 31, 24172, -17831, 5325, 5434, 14, 14, 1528931278.863, 36, 0, 1024, 1024, 1024, 1024, 0, 6, 4058, 4064, 4047, 4043, 4061, 4063, 0, 1, 8600, -89.900, 0.000, 83.200, 0.000, 0.000, -3.000, 0.0, , , , , , 97, , , 41, 41, 41
36.9906265, -119.1416755, 9.900, 16:07:58.964, 14, 0.00, 0.52, 100, 1.400, 0.900, 82.800, 1359, 100, 99, 31, 24172, -17831, 5325, 5434, 14, 14, 1528931278.964, 37, 0, 1024, 1024, 1024, 1024, 0, 6, 4058, 4064, 4047, 4043, 4061, 4063, 0, 1, 8701, -89.900, 0.000, 83.200, 0.000, 0.000, -3.000, 0.0, , , , , , 97, , , 41, 41, 41
36.9906266, -119.1416754, 10.200, 16:07:59.064, 14, 0.00, 0.53, 100, 1.100, 1.000, 82.800, 1359, 100, 99, 31, 24172, -17831, 5325, 5434, 14, 14, 1528931279.064, 27, 0, 1024, 1024, 1024, 1024, 0, 6, 4058, 4064, 4047, 4043, 4061, 4063, 0, 1, 8801, -89.900, 0.000, 83.200, 0.000, 0.000, -3.000, 0.0, , , , , , 97, , , 41, 41, 41
36.9906266, -119.1416754, 10.600, 16:07:59.163, 14, 0.00, 0.53, 100, 0.800, 1.300, 82.800, 1359, 100, 99, 31, 24172, -17831, 5325, 5434, 14, 14, 1528931279.163, 43, 0, 1024, 1024, 1024, 1024, 0, 6, 4058, 4064, 4047, 4043, 4061, 4063, 0, 1, 8900, -89.900, 0.000, 83.200, 0.000, 0.000, -3.000, 0.0, , , , , , 97, , , 41, 41, 41
36.9906267, -119.1416754, 10.900, 16:07:59.264, 14, 0.00, 0.54, 100, 0.700, 1.500, 82.800, 1359, 100, 99, 31, 24172, -17831, 5325, 5434, 14, 14, 1528931279.264, 21, 0, 1024, 1024, 1024, 1024, 0, 6, 4058, 4064, 4047, 4043, 4061, 4063, 0, 1, 9001, -89.900, 0.000, 83.200, 0.000, 0.000, -3.000, 0.0, , , , , , 97, , , 41, 41, 41
36.9906268, -119.1416754, 11.200, 16:07:59.364, 16, 0.00, 0.55, 98, 0.900, 1.500, 82.900, 1359, 100, 99, 31, 24172, -17831, 5325, 5434, 14, 14, 1528931279.364, 34, 0, 1024, 1024, 1024, 1024, 0, 6, 4058, 4064, 4047, 4043, 4061, 4063, 0, 1, 9101, -89.900, 0.000, 83.200, 0.000, 0.000, -2.900, 0.0, , , , , , 97, , , 41, 41, 41
36.9906268, -119.1416754, 11.500, 16:07:59.464, 16, 0.00, 0.55, 98, 1.100, 1.500, 82.800, 1359, 100, 98, 31, 24172, -17831, 5325, 5434, 14, 14, 1528931279.464, 3, 0, 1024, 1024, 1024, 1024, 0, 6, 4058, 4064, 4047, 4043, 4061, 4063, 0, 1, 9200, -89.900, 0.000, 83.200, 0.000, 0.000, -2.900, 0.0, , , , , , 97, , , 41, 41, 41
36.9906268, -119.1416753, 11.800, 16:07:59.564, 16, 0.00, 0.56, 98, 1.200, 1.400, 82.800, 1359, 100, 98, 31, 24172, -17831, 5325, 5434, 14, 14, 1528931279.565, 18, 0, 1024, 1024, 1024, 1024, 0, 6, 4058, 4064, 4047, 4043, 4061, 4063, 0, 1, 9301, -89.900, 0.000, 83.200, 0.000, 0.000, -3.000, 0.0, , , , , , 97, , , 41, 41, 41
36.9906269, -119.1416753, 12.100, 16:07:59.663, 16, 0.00, 0.56, 98, 1.000, 1.300, 82.900, 1359, 100, 98, 31, 24172, -17831, 5325, 5434, 14, 14, 1528931279.663, 6, 0, 1024, 1024, 1024, 1024, 0, 6, 4058, 4064, 4047, 4043, 4061, 4063, 0, 1, 9400, -89.900, 0.000, 83.200, 0.000, 0.000, -2.900, 0.0, , , , , , 97, , , 41, 41, 41
36.9906269, -119.1416753, 12.400, 16:07:59.764, 15, 0.00, 0.57, 98, 1.000, 1.300, 82.900, 1359, 100, 98, 31, 24172, -17831, 5325, 5434, 14, 14, 1528931279.764, 15, 0, 1024, 1024, 1024, 1024, 0, 6, 4058, 4064, 4047, 4043, 4061, 4063, 0, 1, 9501, -89.900, 0.000, 83.200, 0.000, 0.000, -2.900, 0.0, , , , , , 97, , , 41, 41, 41
36.9906269, -119.1416753, 12.700, 16:07:59.874, 15, 0.00, 0.57, 98, 0.900, 1.300, 82.900, 1359, 100, 98, 31, 24413, -17973, 5325, 5434, 14, 14, 1528931279.874, 5, 0, 1024, 1024, 1024, 1024, 0, 6, 4055, 4057, 4075, 4063, 4085, 4077, 0, 1, 9610, -89.900, 0.000, 83.200, 0.000, 0.000, -2.900, 0.0, , , , , , 97, , , 41, 41, 41
36.9906269, -119.1416753, 13.000, 16:07:59.964, 15, 0.00, 0.57, 98, 0.700, 1.200, 82.900, 1359, 100, 98, 31, 24413, -17973, 5325, 5434, 14, 14, 1528931279.964, 7, 0, 1024, 1024, 1024, 1024, 0, 6, 4055, 4057, 4075, 4063, 4085, 4077, 0, 1, 9701, -89.900, 0.000, 83.200, 0.000, 0.000, -2.900, 0.0, , , , , , 97, , , 41, 41, 41
36.9906269, -119.1416753, 13.000, 16:08:00.064, 15, 0.00, 0.57, 98, 0.700, 1.200, 82.900, 1359, 100, 98, 31, 24413, -17973, 5325, 5434, 14, 14, 1528931280.064, 106, 0, 1024, 1024, 1024, 1024, 0, 6, 4055, 4057, 4075, 4063, 4085, 4077, 0, 1, 9800, -89.900, 0.000, 83.200, 0.000, 0.000, -2.900, 0.0, , , , , , 97, , , 41, 41, 41
36.9906269, -119.1416753, 13.300, 16:08:00.164, 15, 0.00, 0.57, 98, 0.700, 1.200, 82.900, 1359, 100, 98, 31, 24413, -17973, 5325, 5434, 14, 14, 1528931280.164, 97, 0, 1024, 1024, 1024, 1024, 0, 6, 4055, 4057, 4075, 4063, 4085, 4077, 0, 1, 9900, -89.900, 0.000, 83.200, 0.000, 0.000, -2.900, 0.0, , , , , , 97, , , 41, 41, 41
36.9906269, -119.1416753, 13.700, 16:08:00.264, 16, 0.00, 0.57, 98, 0.600, 1.100, 82.900, 1359, 100, 98, 31, 24413, -17973, 5325, 5434, 14, 14, 1528931280.264, 93, 0, 1024, 1024, 1024, 1024, 0, 6, 4055, 4057, 4075, 4063, 4085, 4077, 0, 1, 10000, -89.900, 0.000, 83.200, 0.000, 0.000, -2.900, 0.0, , , , , , 97, , , 41, 41, 41
36.9906269, -119.1416753, 14.000, 16:08:00.364, 16, 0.00, 0.57, 98, 0.500, 1.000, 82.900, 1359, 100, 98, 31, 24413, -17973, 5325, 5434, 14, 14, 1528931280.364, 94, 0, 1024, 1024, 1024, 1024, 0, 6, 4055, 4057, 4075, 4063, 4085, 4077, 0, 1, 10100, -89.900, 0.000, 83.200, 0.000, 0.000, -3.000, 0.0, , , , , , 97, , , 41, 41, 41
36.9906269, -119.1416753, 14.300, 16:08:00.464, 16, 0.00, 0.57, 98, 0.500, 1.100, 82.900, 1359, 100, 98, 31, 24413, -17973, 5325, 5434, 14, 14, 1528931280.464, 90, 0, 1024, 1024, 1024, 1024, 0, 6, 4055, 4057, 4075, 4063, 4085, 4077, 0, 1, 10201, -89.900, 0.000, 83.200, 0.000, 0.000, -2.900, 0.0, , , , , , 97, , , 41, 41, 41
36.9906269, -119.1416754, 14.600, 16:08:00.564, 16, 0.00, 0.56, 98, 0.600, 1.000, 82.900, 1359, 100, 98, 31, 24413, -17973, 5325, 5434, 14, 14, 1528931280.564, 83, 0, 1024, 1024, 1024, 1024, 0, 6, 4055, 4057, 4075, 4063, 4085, 4077, 0, 1, 10300, -89.900, 0.000, 83.200, 0.000, 0.000, -2.900, 0.0, , , , , , 97, , , 41, 41, 41
36.9906269, -119.1416754, 14.900, 16:08:00.664, 16, 0.00, 0.56, 98, 0.700, 0.900, 82.900, 1359, 100, 98, 31, 24413, -17973, 5325, 5434, 14, 14, 1528931280.664, 61, 0, 1024, 1024, 1024, 1024, 0, 6, 4055, 4057, 4075, 4063, 4085, 4077, 0, 1, 10400, -90.000, 0.000, 83.200, 0.000, 0.000, -2.900, 0.0, , , , , , 97, , , 41, 41, 41
36.9906269, -119.1416754, 15.200, 16:08:00.764, 16, 0.00, 0.56, 98, 0.800, 0.800, 82.900, 1359, 100, 98, 31, 24413, -17973, 5325, 5434, 14, 14, 1528931280.764, 64, 0, 1024, 1024, 1024, 1024, 0, 6, 4055, 4057, 4075, 4063, 4085, 4077, 0, 1, 10500, -90.000, 0.000, 83.200, 0.000, 0.000, -2.900, 0.0, , , , , , 97, , , 41, 41, 41
36.9906269, -119.1416755, 15.800, 16:08:00.863, 15, 0.00, 0.56, 98, 0.700, 0.900, 82.900, 1359, 100, 98, 31, 24353, -18032, 5325, 5434, 14, 14, 1528931280.863, 44, 0, 1024, 1024, 1024, 1024, 0, 6, 4046, 4044, 4073, 4055, 4078, 4076, 0, 1, 10600, -89.900, 0.000, 83.200, 0.000, 0.000, -2.900, 0.0, , , , , , 97, , , 41, 41, 41
36.9906268, -119.1416755, 16.100, 16:08:00.964, 16, 0.10, 0.56, 98, 0.600, 1.000, 83.000, 1359, 100, 98, 31, 24353, -18032, 5325, 5434, 14, 14, 1528931280.964, 59, 0, 1024, 1024, 1024, 1024, 0, 6, 4046, 4044, 4073, 4055, 4078, 4076, 0, 1, 10700, -89.900, 0.000, 83.200, -0.100, 0.000, -2.900, 0.0, , , , , , 97, , , 41, 41, 41
36.9906268, -119.1416755, 16.400, 16:08:01.064, 16, 0.10, 0.55, 98, 0.500, 1.000, 83.000, 1359, 100, 98, 31, 24353, -18032, 5325, 5434, 14, 14, 1528931281.064, 64, 0, 1024, 1024, 1024, 1024, 0, 6, 4046, 4044, 4073, 4055, 4078, 4076, 0, 1, 10800, -89.900, 0.000, 83.200, -0.100, 0.000, -2.900, 0.0, , , , , , 97, , , 41, 41, 41
36.9906268, -119.1416755, 16.700, 16:08:01.164, 16, 0.00, 0.55, 98, 0.400, 0.900, 83.100, 1359, 100, 98, 31, 24353, -18032, 5325, 5434, 14, 14, 1528931281.164, 41, 0, 1024, 1024, 1024, 1024, 0, 6, 4046, 4044, 4073, 4055, 4078, 4076, 0, 1, 10900, -89.900, 0.000, 83.200, 0.000, 0.000, -2.900, 0.0, , , , , , 97, , , 41, 41, 41
36.9906267, -119.1416755, 17.000, 16:08:01.263, 16, 0.00, 0.54, 98, 0.400, 0.900, 83.200, 1359, 100, 98, 31, 24353, -18032, 5325, 5434, 14, 14, 1528931281.264, 34, 0, 1024, 1024, 1024, 1024, 0, 6, 4046, 4044, 4073, 4055, 4078, 4076, 0, 1, 11000, -89.900, 0.000, 83.200, 0.000, 0.000, -2.900, 0.0, , , , , , 97, , , 41, 41, 41
36.9906267, -119.1416756, 17.300, 16:08:01.363, 15, 0.00, 0.54, 98, 0.300, 0.800, 83.200, 1359, 100, 98, 31, 24353, -18032, 5325, 5434, 14, 14, 1528931281.364, 37, 0, 1024, 1024, 1024, 1024, 0, 6, 4046, 4044, 4073, 4055, 4078, 4076, 0, 1, 11100, -89.900, 0.000, 83.200, 0.000, 0.000, -2.900, 0.0, , , , , , 97, , , 41, 41, 41
36.9906267, -119.1416756, 17.600, 16:08:01.463, 15, 0.00, 0.54, 98, 0.300, 0.800, 83.200, 1359, 100, 99, 31, 24353, -18032, 5325, 5434, 14, 14, 1528931281.464, 38, 0, 1024, 1024, 1024, 1024, 0, 6, 4046, 4044, 4073, 4055, 4078, 4076, 0, 1, 11200, -89.900, 0.000, 83.200, 0.000, 0.000, -2.800, 0.0, , , , , , 97, , , 41, 41, 41
36.9906267, -119.1416756, 17.900, 16:08:01.563, 16, 0.00, 0.53, 98, 0.400, 0.700, 83.100, 1359, 100, 99, 31, 24353, -18032, 5325, 5434, 14, 14, 1528931281.564, 43, 0, 1024, 1024, 1024, 1024, 0, 6, 4046, 4044, 4073, 4055, 4078, 4076, 0, 1, 11300, -89.900, 0.000, 83.200, 0.000, 0.000, -2.900, 0.0, , , , , , 97, , , 41, 41, 41
36.9906266, -119.1416757, 18.200, 16:08:01.664, 16, 0.00, 0.52, 98, 0.600, 0.700, 83.000, 1359, 100, 99, 31, 24353, -18032, 5325, 5434, 14, 14, 1528931281.664, 14, 0, 1024, 1024, 1024, 1024, 0, 6, 4046, 4044, 4073, 4055, 4078, 4076, 0, 1, 11401, -90.000, 0.000, 83.200, 0.000, 0.000, -2.900, 0.0, , , , , , 97, , , 41, 41, 41
36.9906265, -119.1416757, 18.500, 16:08:01.764, 16, 0.00, 0.52, 98, 0.600, 0.700, 82.900, 1359, 100, 99, 31, 24353, -18032, 5325, 5434, 14, 14, 1528931281.764, 18, 0, 1024, 1024, 1024, 1024, 0, 6, 4046, 4044, 4073, 4055, 4078, 4076, 0, 1, 11501, -90.000, 0.000, 83.200, 0.000, 0.000, -2.900, 0.0, , , , , , 97, , , 41, 41, 41
36.9906265, -119.1416757, 18.800, 16:08:01.865, 16, 0.00, 0.51, 98, 0.400, 0.700, 82.900, 1359, 100, 99, 31, 24363, -17905, 5325, 5434, 14, 14, 1528931281.865, 3, 0, 1024, 1024, 1024, 1024, 0, 6, 4046, 4044, 4073, 4055, 4078, 4076, 0, 1, 11601, -89.900, 0.000, 83.200, 0.000, 0.000, -2.900, 0.0, , , , , , 97, , , 41, 41, 41
36.9906265, -119.1416758, 19.100, 16:08:01.964, 16, 0.00, 0.51, 98, 0.300, 0.800, 82.800, 1359, 100, 99, 31, 24363, -17905, 5325, 5434, 14, 14, 1528931281.964, 14, 0, 1024, 1024, 1024, 1024, 0, 6, 4046, 4044, 4073, 4055, 4078, 4076, 0, 1, 11701, -89.900, 0.000, 83.200, 0.000, 0.000, -2.900, 0.0, , , , , , 97, , , 41, 41, 41
36.9906264, -119.1416758, 19.400, 16:08:02.063, 16, 0.00, 0.51, 98, 0.200, 0.800, 82.800, 1359, 100, 99, 31, 24363, -17905, 5325, 5434, 14, 14, 1528931282.064, 5, 0, 1024, 1024, 1024, 1024, 0, 6, 4046, 4044, 4073, 4055, 4078, 4076, 0, 1, 11800, -89.900, 0.000, 83.200, 0.000, 0.000, -2.900, 0.0, , , , , , 97, , , 41, 41, 41
36.9906264, -119.1416758, 19.400, 16:08:02.163, 16, 0.00, 0.51, 98, 0.200, 0.800, 82.800, 1359, 100, 99, 31, 24363, -17905, 5325, 5434, 14, 14, 1528931282.164, 105, 0, 1024, 1024, 1024, 1024, 0, 6, 4046, 4044, 4073, 4055, 4078, 4076, 0, 1, 11900, -89.900, 0.000, 83.200, 0.000, 0.000, -2.900, 0.0, , , , , , 97, , , 41, 41, 41
36.9906264, -119.1416758, 20.000, 16:08:02.263, 16, 0.00, 0.50, 98, 0.300, 0.800, 82.900, 1359, 100, 99, 31, 24363, -17905, 5325, 5434, 14, 14, 1528931282.264, 11, 0, 1024, 1024, 1024, 1024, 0, 6, 4053, 4053, 4062, 4057, 4074, 4068, 0, 1, 12000, -89.900, 0.000, 83.200, 0.000, 0.000, -2.900, 0.0, , , , , , 97, , , 41, 41, 41
36.9906263, -119.1416759, 20.300, 16:08:02.364, 16, 0.00, 0.49, 98, 0.400, 0.700, 83.000, 1359, 100, 99, 31, 24363, -17905, 5325, 5434, 14, 14, 1528931282.364, 4, 0, 1024, 1024, 1024, 1024, 0, 6, 4053, 4053, 4062, 4057, 4074, 4068, 0, 1, 12100, -89.900, 0.000, 83.200, 0.000, 0.000, -2.900, 0.0, , , , , , 97, , , 41, 41, 41
36.9906263, -119.1416759, 20.300, 16:08:02.463, 16, 0.00, 0.49, 98, 0.400, 0.700, 83.000, 1359, 100, 99, 31, 24363, -17905, 5325, 5434, 14, 14, 1528931282.464, 103, 0, 1024, 1024, 1024, 1024, 0, 6, 4053, 4053, 4062, 4057, 4074, 4068, 0, 1, 12200, -89.900, 0.000, 83.200, 0.000, 0.000, -2.900, 0.0, , , , , , 97, , , 41, 41, 41
36.9906263, -119.1416759, 20.600, 16:08:02.563, 16, 0.00, 0.49, 98, 0.500, 0.600, 83.000, 1359, 100, 99, 31, 24363, -17905, 5325, 5434, 14, 14, 1528931282.564, 94, 0, 1024, 1024, 1024, 1024, 0, 6, 4053, 4053, 4062, 4057, 4074, 4068, 0, 1, 12300, -90.000, 0.000, 83.200, 0.000, 0.000, -2.900, 0.0, , , , , , 97, , , 41, 41, 41
36.9906262, -119.1416760, 21.200, 16:08:02.663, 16, 0.00, 0.48, 98, 0.300, 0.500, 82.900, 1359, 100, 99, 31, 24363, -17905, 5325, 5434, 14, 14, 1528931282.664, 3, 0, 1024, 1024, 1024, 1024, 0, 6, 4053, 4053, 4062, 4057, 4074, 4068, 0, 1, 12400, -89.900, 0.000, 83.200, 0.000, 0.000, -2.900, 0.0, , , , , , 97, , , 41, 41, 41
36.9906262, -119.1416760, 21.200, 16:08:02.763, 16, 0.00, 0.48, 98, 0.300, 0.500, 82.900, 1359, 100, 99, 31, 24363, -17905, 5325, 5434, 14, 14, 1528931282.764, 103, 0, 1024, 1024, 1024, 1024, 0, 6, 4053, 4053, 4062, 4057, 4074, 4068, 0, 1, 12500, -89.900, 0.000, 83.200, 0.000, 0.000, -2.900, 0.0, , , , , , 97, , , 41, 41, 41
36.9906261, -119.1416760, 21.500, 16:08:02.863, 16, 0.00, 0.47, 98, 0.200, 0.500, 82.900, 1359, 100, 99, 31, 24363, -17905, 5325, 5434, 14, 14, 1528931282.863, 70, 0, 1024, 1024, 1024, 1024, 0, 6, 4053, 4053, 4062, 4057, 4074, 4068, 0, 1, 12600, -89.900, 0.000, 83.200, 0.000, 0.000, -2.900, 0.0, , , , , , 97, , , 41, 41, 41
36.9906261, -119.1416760, 21.800, 16:08:02.963, 16, 0.00, 0.47, 98, 0.200, 0.500, 82.800, 1359, 100, 98, 31, 24363, -17905, 5325, 5434, 14, 14, 1528931282.963, 60, 0, 1024, 1024, 1024, 1024, 0, 6, 4053, 4053, 4062, 4057, 4074, 4068, 0, 1, 12700, -89.900, 0.000, 83.200, 0.000, 0.000, -2.900, 0.0, , , , , , 97, , , 41, 41, 41
36.9906261, -119.1416760, 22.100, 16:08:03.063, 16, 0.00, 0.46, 98, 0.200, 0.600, 82.800, 1359, 100, 98, 31, 24363, -17905, 5325, 5434, 14, 14, 1528931283.064, 64, 0, 1024, 1024, 1024, 1024, 0, 6, 4053, 4053, 4062, 4057, 4074, 4068, 0, 1, 12800, -89.900, 0.000, 83.200, 0.000, 0.000, -2.900, 0.0, , , , , , 97, , , 41, 41, 41
36.9906260, -119.1416760, 22.400, 16:08:03.164, 16, 0.00, 0.46, 98, 0.300, 0.600, 82.700, 1359, 100, 98, 31, 24363, -17905, 5325, 5434, 14, 14, 1528931283.164, 93, 0, 1024, 1024, 1024, 1024, 0, 6, 4053, 4053, 4062, 4057, 4074, 4068, 0, 1, 12901, -89.900, 0.000, 83.200, 0.000, 0.000, -2.900, 0.0, , , , , , 97, , , 41, 41, 41
36.9906260, -119.1416760, 22.700, 16:08:03.263, 16, 0.00, 0.45, 98, 0.100, 0.400, 82.800, 1359, 100, 98, 31, 24363, -17905, 5325, 5434, 14, 14, 1528931283.264, 81, 0, 1024, 1024, 1024, 1024, 0, 6, 4053, 4053, 4062, 4057, 4074, 4068, 0, 1, 13000, -89.900, 0.000, 83.200, 0.000, 0.000, -2.900, 0.0, , , , , , 97, , , 41, 41, 41
36.9906259, -119.1416760, 23.000, 16:08:03.363, 16, 0.00, 0.45, 98, 0.000, 0.600, 82.900, 1359, 100, 98, 31, 24335, -17724, 5325, 5434, 14, 14, 1528931283.364, 64, 0, 1024, 1024, 1024, 1024, 0, 6, 4042, 4045, 4057, 4053, 4075, 4056, 0, 1, 13100, -89.900, 0.000, 83.200, 0.000, 0.000, -2.800, 0.0, , , , , , 97, , , 41, 41, 41
36.9906259, -119.1416760, 23.300, 16:08:03.463, 16, 0.00, 0.45, 98, 0.100, 0.700, 83.000, 1359, 100, 97, 31, 24335, -17724, 5325, 5434, 14, 14, 1528931283.464, 67, 0, 1024, 1024, 1024, 1024, 0, 6, 4042, 4045, 4057, 4053, 4075, 4056, 0, 1, 13200, -89.900, 0.000, 83.200, 0.000, 0.000, -2.800, 0.0, , , , , , 97, , , 41, 41, 41
36.9906259, -119.1416760, 23.900, 16:08:03.563, 16, 0.00, 0.45, 98, 0.500, 0.800, 82.900, 1359, 100, 97, 31, 24335, -17724, 5325, 5434, 14, 14, 1528931283.564, 64, 0, 1024, 1024, 1024, 1024, 0, 6, 4042, 4045, 4057, 4053, 4075, 4056, 0, 1, 13300, -89.900, 0.000, 83.200, 0.000, 0.000, -2.800, 0.0, , , , , , 97, , , 41, 41, 41
36.9906259, -119.1416760, 24.200, 16:08:03.663, 16, 0.00, 0.44, 98, 0.500, 0.800, 82.900, 1359, 100, 97, 31, 24335, -17724, 5325, 5434, 14, 14, 1528931283.664, 22, 0, 1024, 1024, 1024, 1024, 0, 6, 4042, 4045, 4057, 4053, 4075, 4056, 0, 1, 13400, -89.900, 0.000, 83.200, 0.000, 0.000, -2.900, 0.0, , , , , , 97, , , 41, 41, 41
36.9906259, -119.1416760, 24.500, 16:08:03.763, 16, 0.00, 0.44, 98, 0.300, 0.800, 82.900, 1359, 100, 97, 31, 24335, -17724, 5325, 5434, 14, 14, 1528931283.764, 30, 0, 1024, 1024, 1024, 1024, 0, 6, 4042, 4045, 4057, 4053, 4075, 4056, 0, 1, 13500, -89.900, 0.000, 83.200, 0.000, 0.000, -2.800, 0.0, , , , , , 97, , , 41, 41, 41
36.9906258, -119.1416759, 24.800, 16:08:03.863, 16, 0.00, 0.44, 98, 0.000, 0.900, 82.900, 1359, 100, 97, 31, 24335, -17724, 5325, 5434, 14, 14, 1528931283.863, 26, 0, 1024, 1024, 1024, 1024, 0, 6, 4042, 4045, 4057, 4053, 4075, 4056, 0, 1, 13600, -89.900, 0.000, 83.200, 0.000, 0.000, -2.900, 0.0, , , , , , 97, , , 41, 41, 41
36.9906258, -119.1416759, 25.000, 16:08:03.963, 16, 0.00, 0.43, 98, -0.100, 1.100, 82.900, 1359, 100, 97, 31, 24335, -17724, 5325, 5434, 14, 14, 1528931283.964, 40, 0, 1024, 1024, 1024, 1024, 0, 6, 4042, 4045, 4057, 4053, 4075, 4056, 0, 1, 13700, -89.900, 0.000, 83.200, 0.000, 0.000, -2.800, 0.0, , , , , , 97, , , 41, 41, 41
36.9906257, -119.1416758, 25.300, 16:08:04.063, 16, 0.00, 0.43, 98, -0.200, 1.300, 83.000, 1359, 100, 97, 31, 24335, -17724, 5325, 5434, 14, 14, 1528931284.064, 44, 0, 1024, 1024, 1024, 1024, 0, 6, 4042, 4045, 4057, 4053, 4075, 4056, 0, 1, 13800, -89.900, 0.000, 83.200, 0.000, 0.000, -2.900, 0.0, , , , , , 97, , , 41, 41, 41
36.9906257, -119.1416758, 25.600, 16:08:04.163, 16, 0.00, 0.42, 98, -0.300, 1.300, 83.100, 1359, 100, 97, 31, 24335, -17724, 5325, 5434, 14, 14, 1528931284.163, 31, 0, 1024, 1024, 1024, 1024, 0, 6, 4042, 4045, 4057, 4053, 4075, 4056, 0, 1, 13900, -89.900, 0.000, 83.200, 0.000, 0.000, -2.900, 0.0, , , , , , 97, , , 41, 41, 41
36.9906257, -119.1416757, 25.900, 16:08:04.263, 16, 0.00, 0.42, 98, -0.300, 1.300, 83.200, 1359, 100, 97, 31, 24335, -17724, 5325, 5434, 14, 14, 1528931284.264, 22, 0, 1024, 1024, 1024, 1024, 0, 6, 4042, 4045, 4057, 4053, 4075, 4056, 0, 1, 14000, -89.900, 0.000, 83.200, 0.000, 0.000, -2.800, 0.0, , , , , , 97, , , 41, 41, 41
36.9906257, -119.1416757, 26.200, 16:08:04.364, 16, 0.00, 0.43, 98, -0.100, 1.300, 83.200, 1359, 100, 98, 31, 24338, -17641, 5325, 5434, 14, 14, 1528931284.364, 4, 0, 1024, 1024, 1024, 1024, 0, 6, 4045, 4041, 4059, 4048, 4072, 4061, 0, 1, 14101, -89.900, 0.000, 83.200, 0.000, 0.000, -2.900, 0.0, , , , , , 97, , , 41, 41, 41
36.9906257, -119.1416757, 26.500, 16:08:04.463, 16, 0.00, 0.43, 98, 0.000, 1.500, 83.200, 1359, 100, 98, 31, 24338, -17641, 5325, 5434, 14, 14, 1528931284.463, 19, 0, 1024, 1024, 1024, 1024, 0, 6, 4045, 4041, 4059, 4048, 4072, 4061, 0, 1, 14199, -89.900, 0.000, 83.200, 0.000, 0.000, -3.000, 0.0, , , , , , 97, , , 41, 41, 41
36.9906257, -119.1416756, 26.800, 16:08:04.563, 16, 0.00, 0.43, 98, 0.100, 1.600, 83.100, 1359, 100, 98, 31, 24338, -17641, 5325, 5434, 14, 14, 1528931284.563, 14, 0, 1024, 1024, 1024, 1024, 0, 6, 4045, 4041, 4059, 4048, 4072, 4061, 0, 1, 14300, -89.900, 0.000, 83.200, 0.000, 0.000, -2.900, 0.0, , , , , , 97, , , 41, 41, 41
36.9906257, -119.1416756, 27.100, 16:08:04.663, 16, 0.00, 0.43, 98, 0.200, 1.600, 83.100, 1359, 100, 98, 31, 24338, -17641, 5325, 5434, 14, 14, 1528931284.664, 5, 0, 1024, 1024, 1024, 1024, 0, 6, 4045, 4041, 4059, 4048, 4072, 4061, 0, 1, 14400, -89.900, 0.000, 83.200, 0.000, 0.000, -2.900, 0.0, , , , , , 97, , , 41, 41, 41
36.9906257, -119.1416756, 27.100, 16:08:04.763, 16, 0.00, 0.43, 98, 0.200, 1.600, 83.100, 1359, 100, 98, 31, 24338, -17641, 5325, 5434, 14, 14, 1528931284.764, 105, 0, 1024, 1024, 1024, 1024, 0, 6, 4045, 4041, 4059, 4048, 4072, 4061, 0, 1, 14500, -89.900, 0.000, 83.200, 0.000, 0.000, -2.900, 0.0, , , , , , 97, , , 41, 41, 41
36.9906257, -119.1416755, 27.700, 16:08:04.873, 16, 0.00, 0.43, 98, 0.300, 1.600, 83.000, 1359, 100, 98, 31, 24338, -17641, 5325, 5434, 14, 14, 1528931284.874, 3, 0, 1024, 1024, 1024, 1024, 0, 6, 4045, 4041, 4059, 4048, 4072, 4061, 0, 1, 14610, -89.900, 0.000, 83.200, 0.000, 0.000, -2.900, 0.0, , , , , , 97, , , 41, 41, 41
36.9906257, -119.1416755, 27.700, 16:08:04.963, 16, 0.00, 0.43, 98, 0.300, 1.600, 83.000, 1359, 100, 99, 31, 24338, -17641, 5325, 5434, 14, 14, 1528931284.964, 93, 0, 1024, 1024, 1024, 1024, 0, 6, 4045, 4041, 4059, 4048, 4072, 4061, 0, 1, 14700, -89.900, 0.000, 83.200, 0.000, 0.000, -2.900, 0.0, , , , , , 97, , , 41, 41, 41
36.9906257, -119.1416755, 28.000, 16:08:05.063, 16, 0.00, 0.44, 98, 0.300, 1.700, 83.000, 1359, 100, 99, 31, 24338, -17641, 5325, 5434, 14, 14, 1528931285.064, 92, 0, 1024, 1024, 1024, 1024, 0, 6, 4045, 4041, 4059, 4048, 4072, 4061, 0, 1, 14800, -89.900, 0.000, 83.200, 0.000, 0.000, -2.900, 0.0, , , , , , 97, , , 41, 41, 41
36.9906258, -119.1416754, 28.300, 16:08:05.163, 16, 0.00, 0.44, 98, 0.300, 1.700, 83.000, 1359, 100, 99, 31, 24338, -17641, 5325, 5434, 14, 14, 1528931285.164, 84, 0, 1024, 1024, 1024, 1024, 0, 6, 4045, 4041, 4059, 4048, 4072, 4061, 0, 1, 14900, -89.900, 0.000, 83.200, 0.000, 0.000, -2.900, 0.0, , , , , , 97, , , 41, 41, 41
36.9906258, -119.1416754, 28.600, 16:08:05.263, 16, 0.00, 0.45, 98, 0.200, 1.800, 83.000, 1359, 100, 99, 31, 24338, -17641, 5325, 5434, 14, 14, 1528931285.263, 63, 0, 1024, 1024, 1024, 1024, 0, 6, 4045, 4041, 4059, 4048, 4072, 4061, 0, 1, 15000, -89.900, 0.000, 83.200, 0.000, 0.000, -2.900, 0.0, , , , , , 97, , , 41, 41, 41
36.9906258, -119.1416753, 28.900, 16:08:05.363, 16, 0.00, 0.45, 98, 0.000, 2.000, 83.000, 1359, 100, 99, 31, 24256, -18642, 5325, 5434, 14, 14, 1528931285.363, 67, 0, 1024, 1024, 1024, 1024, 0, 6, 4031, 4029, 4048, 4036, 4057, 4044, 0, 1, 15100, -89.900, 0.000, 83.200, 0.000, 0.000, -2.800, 0.0, , , , , , 97, , , 41, 41, 41
36.9906258, -119.1416753, 29.200, 16:08:05.463, 16, 0.00, 0.45, 98, 0.000, 2.000, 83.000, 1359, 100, 99, 31, 24256, -18642, 5325, 5434, 14, 14, 1528931285.463, 59, 0, 1024, 1024, 1024, 1024, 0, 6, 4031, 4029, 4048, 4036, 4057, 4044, 0, 1, 15200, -89.900, 0.000, 83.200, 0.000, 0.000, -2.800, 0.0, , , , , , 97, , , 41, 41, 41
36.9906259, -119.1416752, 29.500, 16:08:05.563, 16, 0.00, 0.46, 98, 0.200, 2.200, 83.000, 1359, 100, 99, 31, 24256, -18642, 5325, 5434, 14, 14, 1528931285.563, 71, 0, 1024, 1024, 1024, 1024, 0, 6, 4031, 4029, 4048, 4036, 4057, 4044, 0, 1, 15300, -89.900, 0.000, 83.200, 0.000, 0.000, -2.900, 0.0, , , , , , 97, , , 41, 41, 41
36.9906259, -119.1416751, 29.800, 16:08:05.663, 16, 0.00, 0.47, 98, 0.500, 2.300, 83.000, 1359, 100, 99, 31, 24256, -18642, 5325, 5434, 14, 14, 1528931285.664, 52, 0, 1024, 1024, 1024, 1024, 0, 6, 4031, 4029, 4048, 4036, 4057, 4044, 0, 1, 15400, -89.900, 0.000, 83.200, 0.000, 0.000, -2.900, 0.0, , , , , , 97, , , 41, 41, 41
36.9906260, -119.1416751, 30.400, 16:08:05.763, 16, 0.00, 0.48, 98, 0.600, 2.400, 82.800, 1359, 100, 99, 31, 24256, -18642, 5325, 5434, 14, 14, 1528931285.763, 53, 0, 1024, 1024, 1024, 1024, 0, 6, 4031, 4029, 4048, 4036, 4057, 4044, 0, 1, 15500, -89.900, 0.000, 83.200, 0.000, 0.000, -2.900, 0.0, , , , , , 97, , , 41, 41, 41
36.9906261, -119.1416750, 30.700, 16:08:05.863, 16, 0.00, 0.48, 98, 0.600, 2.200, 82.700, 1359, 100, 99, 31, 24256, -18642, 5325, 5434, 14, 14, 1528931285.863, 32, 0, 1024, 1024, 1024, 1024, 0, 6, 4031, 4029, 4048, 4036, 4057, 4044, 0, 1, 15600, -89.900, 0.000, 83.200, 0.000, 0.000, -2.900, 0.0, , , , , , 97, , , 41, 41, 41
36.9906261, -119.1416750, 31.000, 16:08:05.963, 16, 0.00, 0.49, 98, 0.500, 2.100, 82.800, 1359, 100, 99, 31, 24256, -18642, 5325, 5434, 14, 14, 1528931285.963, 31, 0, 1024, 1024, 1024, 1024, 0, 6, 4031, 4029, 4048, 4036, 4057, 4044, 0, 1, 15700, -89.900, 0.000, 83.200, 0.000, 0.000, -2.900, 0.0, , , , , , 97, , , 41, 41, 41
36.9906262, -119.1416749, 31.300, 16:08:06.063, 16, 0.00, 0.50, 98, 0.400, 2.400, 82.800, 1359, 100, 99, 31, 24256, -18642, 5325, 5434, 14, 14, 1528931286.063, 45, 0, 1024, 1024, 1024, 1024, 0, 6, 4031, 4029, 4048, 4036, 4057, 4044, 0, 1, 15800, -89.900, 0.000, 83.200, 0.000, 0.000, -2.800, 0.0, , , , , , 97, , , 41, 41, 41
36.9906262, -119.1416748, 31.600, 16:08:06.163, 16, 0.00, 0.51, 98, 0.500, 2.700, 82.900, 1359, 100, 99, 31, 24256, -18642, 5325, 5434, 14, 14, 1528931286.164, 47, 0, 1024, 1024, 1024, 1024, 0, 6, 4031, 4029, 4048, 4036, 4057, 4044, 0, 1, 15900, -89.900, 0.000, 83.200, 0.000, 0.000, -2.900, 0.0, , , , , , 97, , , 41, 41, 41
36.9906263, -119.1416747, 31.800, 16:08:06.263, 16, 0.10, 0.52, 98, 0.500, 3.100, 83.000, 1359, 100, 99, 31, 24256, -18642, 5325, 5434, 14, 14, 1528931286.264, 42, 0, 1024, 1024, 1024, 1024, 0, 6, 4031, 4029, 4048, 4036, 4057, 4044, 0, 1, 16000, -89.900, 0.000, 83.200, 0.000, 0.100, -2.800, 0.0, , , , , , 97, , , 41, 41, 41
36.9906263, -119.1416746, 32.100, 16:08:06.363, 16, 0.10, 0.53, 98, 0.600, 3.300, 83.200, 1359, 100, 99, 31, 24239, -18671, 5325, 5434, 14, 14, 1528931286.363, 45, 0, 1024, 1024, 1024, 1024, 0, 6, 4025, 4021, 4046, 4029, 4052, 4041, 0, 1, 16100, -89.900, 0.000, 83.200, 0.000, 0.100, -2.900, 0.0, , , , , , 97, , , 41, 41, 41
36.9906264, -119.1416745, 32.400, 16:08:06.463, 16, 0.10, 0.53, 98, 0.400, 3.400, 83.400, 1359, 100, 99, 31, 24239, -18671, 5325, 5434, 14, 14, 1528931286.463, 40, 0, 1024, 1024, 1024, 1024, 0, 6, 4025, 4021, 4046, 4029, 4052, 4041, 0, 1, 16200, -89.900, 0.000, 83.200, 0.000, 0.100, -2.900, 0.0, , , , , , 97, , , 41, 41, 41
36.9906264, -119.1416744, 32.700, 16:08:06.563, 16, 0.10, 0.54, 98, 0.400, 3.600, 83.400, 1359, 100, 99, 31, 24239, -18671, 5325, 5434, 14, 14, 1528931286.563, 16, 0, 1024, 1024, 1024, 1024, 0, 6, 4025, 4021, 4046, 4029, 4052, 4041, 0, 1, 16300, -89.900, 0.000, 83.200, 0.000, 0.100, -2.900, 0.0, , , , , , 97, , , 41, 41, 41
36.9906265, -119.1416742, 33.000, 16:08:06.663, 16, 0.10, 0.55, 98, 0.400, 3.900, 83.500, 1359, 100, 99, 31, 24239, -18671, 5325, 5434, 14, 14, 1528931286.664, 22, 0, 1024, 1024, 1024, 1024, 0, 6, 4025, 4021, 4046, 4029, 4052, 4041, 0, 1, 16400, -89.900, 0.000, 83.200, 0.000, 0.100, -2.900, 0.0, , , , , , 97, , , 41, 41, 41
36.9906266, -119.1416741, 33.300, 16:08:06.763, 16, 0.10, 0.57, 98, 0.600, 4.400, 83.400, 1359, 100, 99, 31, 24239, -18671, 5325, 5434, 14, 14, 1528931286.764, 6, 0, 1024, 1024, 1024, 1024, 0, 6, 4025, 4021, 4046, 4029, 4052, 4041, 0, 1, 16500, -89.900, 0.000, 83.200, 0.000, 0.100, -2.900, 0.0, , , , , , 97, , , 41, 41, 41
36.9906267, -119.1416739, 33.600, 16:08:06.877, 16, 0.10, 0.59, 98, 1.200, 4.700, 83.400, 1359, 100, 97, 31, 24239, -18671, 5325, 5434, 14, 14, 1528931286.877, 3, 0, 1024, 1024, 1024, 1024, 0, 6, 4025, 4021, 4046, 4029, 4052, 4041, 0, 1, 16614, -89.900, 0.000, 83.200, 0.000, 0.100, -3.000, 0.0, , , , , , 97, , , 41, 41, 41
36.9906267, -119.1416739, 33.600, 16:08:06.963, 16, 0.10, 0.59, 98, 1.200, 4.700, 83.400, 1359, 100, 97, 31, 24239, -18671, 5325, 5434, 14, 14, 1528931286.963, 89, 0, 1024, 1024, 1024, 1024, 0, 6, 4025, 4021, 4046, 4029, 4052, 4041, 0, 1, 16700, -89.900, 0.000, 83.200, 0.000, 0.100, -3.000, 0.0, , , , , , 97, , , 41, 41, 41
36.9906269, -119.1416736, 34.300, 16:08:07.063, 16, 0.10, 0.62, 98, 1.900, 5.600, 83.200, 1359, 100, 97, 31, 24239, -18671, 5325, 5434, 14, 14, 1528931287.063, 10, 0, 1024, 1024, 1024, 1024, 0, 6, 4025, 4021, 4046, 4029, 4052, 4041, 0, 1, 16800, -89.900, 0.000, 83.200, 0.000, 0.100, -3.100, 0.0, , , , , , 97, , , 41, 41, 41
36.9906270, -119.1416735, 34.600, 16:08:07.165, 16, 0.10, 0.64, 98, 2.100, 5.600, 83.000, 1359, 100, 97, 31, 24239, -18671, 5325, 5434, 14, 14, 1528931287.166, 2, 0, 1024, 1024, 1024, 1024, 0, 6, 4025, 4021, 4046, 4029, 4052, 4041, 0, 1, 16902, -89.900, 0.000, 83.200, 0.000, 0.100, -3.100, 0.0, , , , , , 97, , , 41, 41, 41
36.9906271, -119.1416734, 34.900, 16:08:07.263, 16, 0.10, 0.65, 98, 2.100, 5.600, 82.900, 1359, 100, 97, 31, 24102, -19956, 5325, 5434, 14, 14, 1528931287.263, 5, 0, 1024, 1024, 1024, 1024, 0, 6, 4025, 4021, 4046, 4029, 4052, 4041, 0, 1, 17000, -89.900, 0.000, 83.200, 0.000, 0.100, -3.000, 0.0, , , , , , 97, , , 41, 41, 41
36.9906271, -119.1416734, 34.900, 16:08:07.363, 16, 0.10, 0.65, 98, 2.100, 5.600, 82.900, 1359, 100, 97, 31, 24102, -19956, 5325, 5434, 14, 14, 1528931287.364, 105, 0, 1024, 1024, 1024, 1024, 0, 6, 4025, 4021, 4046, 4029, 4052, 4041, 0, 1, 17100, -89.900, 0.000, 83.200, 0.000, 0.100, -3.000, 0.0, , , , , , 97, , , 41, 41, 41
36.9906271, -119.1416733, 35.200, 16:08:07.463, 16, 0.00, 0.66, 98, 1.900, 5.600, 82.900, 1359, 100, 97, 31, 24102, -19956, 5325, 5434, 14, 14, 1528931287.463, 95, 0, 1024, 1024, 1024, 1024, 0, 6, 4025, 4021, 4046, 4029, 4052, 4041, 0, 1, 17200, -89.900, 0.000, 83.200, 0.000, 0.000, -3.000, 0.0, , , , , , 97, , , 41, 41, 41
36.9906272, -119.1416732, 35.600, 16:08:07.563, 16, 0.00, 0.67, 98, 1.800, 5.500, 82.900, 1359, 100, 97, 31, 24102, -19956, 5325, 5434, 14, 14, 1528931287.563, 92, 0, 1024, 1024, 1024, 1024, 0, 6, 4025, 4021, 4046, 4029, 4052, 4041, 0, 1, 17300, -89.900, 0.000, 83.200, 0.000, 0.000, -2.900, 0.0, , , , , , 97, , , 41, 41, 41
36.9906272, -119.1416731, 35.900, 16:08:07.663, 16, 0.00, 0.67, 98, 1.700, 5.400, 83.000, 1359, 100, 97, 31, 24102, -19956, 5325, 5434, 14, 14, 1528931287.663, 69, 0, 1024, 1024, 1024, 1024, 0, 6, 4025, 4021, 4046, 4029, 4052, 4041, 0, 1, 17400, -89.900, 0.000, 83.200, 0.000, 0.000, -2.900, 0.0, , , , , , 97, , , 41, 41, 41
36.9906273, -119.1416731, 36.200, 16:08:07.763, 16, 0.00, 0.68, 98, 1.600, 5.400, 83.100, 1359, 100, 97, 31, 24102, -19956, 5325, 5434, 14, 14, 1528931287.763, 63, 0, 1024, 1024, 1024, 1024, 0, 6, 4025, 4021, 4046, 4029, 4052, 4041, 0, 1, 17500, -89.900, 0.000, 83.200, 0.000, 0.000, -2.900, 0.0, , , , , , 97, , , 41, 41, 41
36.9906273, -119.1416730, 36.500, 16:08:07.863, 16, 0.00, 0.68, 98, 1.600, 5.200, 83.200, 1359, 100, 97, 31, 24102, -19956, 5325, 5434, 14, 14, 1528931287.863, 82, 0, 1024, 1024, 1024, 1024, 0, 6, 4020, 3994, 4018, 4002, 4028, 4028, 0, 1, 17599, -89.900, 0.000, 83.200, 0.000, 0.000, -2.800, 0.0, , , , , , 97, , , 41, 41, 41
36.9906273, -119.1416730, 36.700, 16:08:07.963, 16, 0.00, 0.68, 98, 1.700, 4.900, 83.200, 1359, 100, 96, 31, 24102, -19956, 5325, 5434, 14, 14, 1528931287.964, 76, 0, 1024, 1024, 1024, 1024, 0, 6, 4020, 3994, 4018, 4002, 4028, 4028, 0, 1, 17700, -89.900, 0.000, 83.200, 0.000, 0.000, -2.700, 0.0, , , , , , 97, , , 41, 41, 41
36.9906273, -119.1416730, 37.000, 16:08:08.063, 16, 0.00, 0.69, 98, 1.800, 4.700, 83.200, 1359, 100, 96, 31, 24102, -19956, 5325, 5434, 14, 14, 1528931288.063, 88, 0, 1024, 1024, 1024, 1024, 0, 6, 4020, 3994, 4018, 4002, 4028, 4028, 0, 1, 17800, -89.900, 0.000, 83.200, 0.000, 0.000, -2.800, 0.0, , , , , , 97, , , 41, 41, 41
36.9906273, -119.1416730, 37.000, 16:08:08.163, 16, 0.00, 0.69, 98, 1.800, 4.700, 83.200, 1359, 100, 96, 31, 24102, -19956, 5325, 5434, 14, 14, 1528931288.163, 188, 0, 1024, 1024, 1024, 1024, 0, 6, 4020, 3994, 4018, 4002, 4028, 4028, 0, 1, 17900, -89.900, 0.000, 83.200, 0.000, 0.000, -2.800, 0.0, , , , , , 97, , , 41, 41, 41
36.9906274, -119.1416730, 37.900, 16:08:08.263, 16, 0.00, 0.69, 98, 1.600, 4.500, 82.900, 1359, 100, 96, 31, 24102, -19956, 5325, 5434, 14, 14, 1528931288.263, 59, 0, 1024, 1024, 1024, 1024, 0, 6, 4020, 3994, 4018, 4002, 4028, 4028, 0, 1, 18000, -89.900, 0.000, 83.200, 0.000, 0.000, -3.000, 0.0, , , , , , 97, , , 41, 41, 41
36.9906274, -119.1416730, 38.200, 16:08:08.363, 16, 0.00, 0.69, 98, 1.500, 4.600, 82.900, 1359, 100, 96, 32, 24102, -19956, 5325, 5434, 14, 14, 1528931288.363, 52, 0, 1024, 1024, 1024, 1024, 0, 6, 4020, 3994, 4018, 4002, 4028, 4028, 0, 1, 18100, -89.900, 0.000, 83.200, 0.000, 0.000, -3.000, 0.0, , , , , , 97, , , 41, 41, 41
36.9906274, -119.1416730, 38.500, 16:08:08.463, 16, 0.00, 0.69, 98, 1.500, 4.700, 82.900, 1359, 100, 95, 32, 24102, -19956, 5325, 5434, 14, 14, 1528931288.463, 55, 0, 1024, 1024, 1024, 1024, 0, 6, 4020, 3994, 4018, 4002, 4028, 4028, 0, 1, 18200, -89.900, 0.000, 83.200, 0.000, 0.000, -2.900, 0.0, , , , , , 97, , , 41, 41, 41
36.9906274, -119.1416730, 38.800, 16:08:08.563, 16, 0.00, 0.69, 98, 1.400, 4.800, 82.900, 1359, 100, 95, 32, 24102, -19956, 5325, 5434, 14, 14, 1528931288.563, 60, 0, 1024, 1024, 1024, 1024, 0, 6, 4020, 3994, 4018, 4002, 4028, 4028, 0, 1, 18300, -89.900, 0.000, 83.200, 0.000, 0.000, -3.000, 0.0, , , , , , 97, , , 41, 41, 41
36.9906274, -119.1416730, 39.100, 16:08:08.663, 16, 0.00, 0.69, 98, 1.500, 4.800, 83.000, 1359, 100, 95, 32, 24102, -19956, 5325, 5434, 14, 14, 1528931288.663, 50, 0, 1024, 1024, 1024, 1024, 0, 6, 4020, 3994, 4018, 4002, 4028, 4028, 0, 1, 18400, -89.900, 0.000, 83.200, 0.000, 0.000, -2.900, 0.0, , , , , , 97, , , 41, 41, 41
36.9906274, -119.1416730, 39.400, 16:08:08.763, 16, 0.00, 0.69, 98, 1.600, 5.100, 83.100, 1359, 100, 95, 32, 24102, -19956, 5325, 5434, 14, 14, 1528931288.763, 37, 0, 1024, 1024, 1024, 1024, 0, 6, 4020, 3994, 4018, 4002, 4028, 4028, 0, 1, 18499, -89.900, 0.000, 83.200, 0.000, 0.000, -2.900, 0.0, , , , , , 97, , , 41, 41, 41
36.9906274, -119.1416730, 39.700, 16:08:08.863, 16, 0.00, 0.69, 98, 1.500, 4.900, 83.200, 1359, 100, 95, 32, 24151, -19809, 5270, 5434, 14, 14, 1528931288.863, 37, 0, 1024, 1024, 1024, 1024, 0, 6, 4020, 4012, 4027, 4019, 4042, 4032, 0, 1, 18599, -89.900, 0.000, 83.200, 0.000, 0.000, -2.900, 0.0, , , , , , 97, , , 41, 41, 41
36.9906274, -119.1416731, 40.000, 16:08:08.963, 16, 0.00, 0.69, 98, 1.900, 4.500, 83.400, 1359, 100, 95, 32, 24151, -19809, 5270, 5434, 14, 14, 1528931288.963, 16, 0, 1024, 1024, 1024, 1024, 0, 6, 4020, 4012, 4027, 4019, 4042, 4032, 0, 1, 18700, -90.000, 0.000, 83.200, 0.000, 0.000, -3.000, 0.0, , , , , , 97, , , 41, 41, 41
36.9906274, -119.1416731, 40.300, 16:08:09.063, 16, 0.00, 0.69, 98, 2.200, 4.300, 83.500, 1359, 100, 95, 32, 24151, -19809, 5270, 5434, 14, 14, 1528931289.063, 20, 0, 1024, 1024, 1024, 1024, 0, 6, 4020, 4012, 4027, 4019, 4042, 4032, 0, 1, 18800, -89.900, 0.000, 83.200, 0.000, 0.000, -3.000, 0.0, , , , , , 97, , , 41, 41, 41
36.9906274, -119.1416732, 40.600, 16:08:09.163, 16, 0.00, 0.69, 98, 2.300, 4.400, 83.500, 1359, 100, 95, 32, 24151, -19809, 5270, 5434, 14, 14, 1528931289.164, 2, 0, 1024, 1024, 1024, 1024, 0, 6, 4020, 4012, 4027, 4019, 4042, 4032, 0, 1, 18900, -89.900, 0.000, 83.200, 0.000, 0.000, -3.000, 0.0, , , , , , 97, , , 41, 41, 41
36.9906274, -119.1416732, 40.600, 16:08:09.263, 16, 0.00, 0.69, 98, 2.300, 4.400, 83.500, 1359, 100, 95, 32, 24151, -19809, 5270, 5434, 14, 14, 1528931289.263, 102, 0, 1024, 1024, 1024, 1024, 0, 6, 4020, 4012, 4027, 4019, 4042, 4032, 0, 1, 19000, -89.900, 0.000, 83.200, 0.000, 0.000, -3.000, 0.0, , , , , , 97, , , 41, 41, 41
36.9906274, -119.1416732, 40.900, 16:08:09.371, 16, 0.00, 0.69, 97, 2.300, 4.400, 83.600, 1359, 100, 95, 32, 24151, -19809, 5270, 5434, 14, 14, 1528931289.371, 104, 0, 1024, 1024, 1024, 1024, 0, 6, 4020, 4012, 4027, 4019, 4042, 4032, 0, 1, 19107, -89.900, 0.000, 83.200, 0.000, 0.000, -2.800, 0.0, , , , , , 97, , , 41, 41, 41
36.9906274, -119.1416733, 41.200, 16:08:09.463, 16, 0.00, 0.68, 97, 2.000, 4.200, 83.500, 1359, 100, 98, 32, 24151, -19809, 5270, 5434, 14, 14, 1528931289.463, 87, 0, 1024, 1024, 1024, 1024, 0, 6, 4020, 4012, 4027, 4019, 4042, 4032, 0, 1, 19200, -89.900, 0.000, 83.200, 0.000, 0.000, -2.800, 0.0, , , , , , 97, , , 41, 41, 41
36.9906274, -119.1416734, 41.500, 16:08:09.563, 16, 0.00, 0.67, 97, 1.900, 4.200, 83.400, 1359, 100, 98, 32, 24151, -19809, 5270, 5434, 14, 14, 1528931289.563, 78, 0, 1024, 1024, 1024, 1024, 0, 6, 4020, 4012, 4027, 4019, 4042, 4032, 0, 1, 19300, -90.000, 0.000, 83.200, 0.000, 0.000, -2.800, 0.0, , , , , , 97, , , 41, 41, 41
36.9906273, -119.1416734, 41.800, 16:08:09.663, 16, 0.10, 0.67, 97, 1.300, 4.000, 83.200, 1359, 100, 98, 32, 24151, -19809, 5270, 5434, 14, 14, 1528931289.663, 95, 0, 1024, 1024, 1024, 1024, 0, 6, 4020, 4012, 4027, 4019, 4042, 4032, 0, 1, 19400, -89.900, 0.000, 83.200, -0.100, 0.000, -2.900, 0.0, , , , , , 97, , , 41, 41, 41
36.9906273, -119.1416735, 42.100, 16:08:09.763, 16, 0.00, 0.66, 97, 1.300, 4.000, 83.100, 1359, 100, 98, 32, 24151, -19809, 5270, 5434, 14, 14, 1528931289.763, 74, 0, 1024, 1024, 1024, 1024, 0, 6, 4020, 4012, 4027, 4019, 4042, 4032, 0, 1, 19500, -89.900, 0.000, 83.200, 0.000, 0.000, -2.900, 0.0, , , , , , 97, , , 41, 41, 41
36.9906272, -119.1416736, 42.400, 16:08:09.863, 16, 0.10, 0.66, 97, 1.200, 4.100, 83.000, 1359, 100, 98, 32, 24074, -19952, 5270, 5434, 14, 14, 1528931289.863, 76, 0, 1024, 1024, 1024, 1024, 0, 6, 4006, 3998, 4020, 4001, 4034, 4015, 0, 1, 19599, -89.900, 0.000, 83.200, -0.100, 0.000, -3.000, 0.0, , , , , , 97, , , 41, 41, 41
36.9906272, -119.1416737, 43.000, 16:08:09.963, 16, 0.00, 0.64, 97, 1.400, 4.100, 83.000, 1359, 100, 100, 32, 24074, -19952, 5270, 5434, 14, 14, 1528931289.963, 65, 0, 1024, 1024, 1024, 1024, 0, 6, 4006, 3998, 4020, 4001, 4034, 4015, 0, 1, 19700, -89.900, 0.000, 83.200, 0.000, 0.000, -2.900, 0.0, , , , , , 97, , , 41, 41, 41
36.9906272, -119.1416738, 43.200, 16:08:10.063, 16, 0.00, 0.64, 97, 1.700, 4.000, 83.000, 1359, 100, 100, 32, 24074, -19952, 5270, 5434, 14, 14, 1528931290.063, 81, 0, 1024, 1024, 1024, 1024, 0, 6, 4006, 3998, 4020, 4001, 4034, 4015, 0, 1, 19800, -89.900, 0.000, 83.200, 0.000, 0.000, -2.800, 0.0, , , , , , 97, , , 41, 41, 41
36.9906272, -119.1416739, 43.500, 16:08:10.163, 16, 0.00, 0.64, 97, 1.700, 3.800, 82.900, 1359, 100, 100, 32, 24074, -19952, 5270, 5434, 14, 14, 1528931290.163, 55, 0, 1024, 1024, 1024, 1024, 0, 6, 4006, 3998, 4020, 4001, 4034, 4015, 0, 1, 19900, -89.900, 0.000, 83.200, 0.000, 0.000, -2.800, 0.0, , , , , , 97, , , 41, 41, 41
36.9906272, -119.1416740, 43.800, 16:08:10.263, 16, 0.00, 0.63, 97, 1.500, 3.700, 82.900, 1359, 100, 100, 32, 24074, -19952, 5270, 5434, 14, 14, 1528931290.263, 47, 0, 1024, 1024, 1024, 1024, 0, 6, 4006, 3998, 4020, 4001, 4034, 4015, 0, 1, 20000, -90.000, 0.000, 83.200, 0.000, 0.000, -2.900, 0.0, , , , , , 97, , , 41, 41, 41
36.9906272, -119.1416741, 44.100, 16:08:10.363, 16, 0.00, 0.63, 97, 1.400, 3.700, 82.800, 1359, 100, 100, 32, 24074, -19952, 5270, 5434, 14, 14, 1528931290.363, 43, 0, 1024, 1024, 1024, 1024, 0, 6, 4006, 3998, 4020, 4001, 4034, 4015, 0, 1, 20100, -89.900, 0.000, 83.200, 0.000, 0.000, -3.000, 0.0, , , , , , 97, , , 41, 41, 41
36.9906271, -119.1416741, 44.400, 16:08:10.463, 16, 0.00, 0.62, 97, 1.300, 3.600, 82.900, 1359, 100, 100, 32, 24074, -19952, 5270, 5434, 14, 14, 1528931290.463, 44, 0, 1024, 1024, 1024, 1024, 0, 6, 4006, 3998, 4020, 4001, 4034, 4015, 0, 1, 20200, -90.000, 0.000, 83.200, 0.000, 0.000, -3.000, 0.0, , , , , , 97, , , 41, 41, 41
36.9906271, -119.1416742, 44.700, 16:08:10.563, 16, 0.00, 0.62, 97, 1.600, 3.600, 83.000, 1359, 100, 100, 32, 24074, -19952, 5270, 5434, 14, 14, 1528931290.563, 46, 0, 1024, 1024, 1024, 1024, 0, 6, 4006, 3998, 4020, 4001, 4034, 4015, 0, 1, 20300, -89.900, 0.000, 83.200, 0.000, 0.000, -2.900, 0.0, , , , , , 97, , , 41, 41, 41
36.9906271, -119.1416742, 45.000, 16:08:10.663, 16, 0.00, 0.62, 97, 1.400, 3.600, 83.100, 1359, 100, 100, 32, 24074, -19952, 5270, 5434, 14, 14, 1528931290.663, 51, 0, 1024, 1024, 1024, 1024, 0, 6, 4006, 3998, 4020, 4001, 4034, 4015, 0, 1, 20399, -89.900, 0.000, 83.200, 0.000, 0.000, -2.900, 0.0, , , , , , 97, , , 41, 41, 41
36.9906271, -119.1416743, 45.300, 16:08:10.763, 16, 0.00, 0.62, 97, 1.500, 4.000, 83.200, 1359, 100, 100, 32, 24074, -19952, 5270, 5434, 14, 14, 1528931290.763, 29, 0, 1024, 1024, 1024, 1024, 0, 6, 4006, 3998, 4020, 4001, 4034, 4015, 0, 1, 20499, -89.900, 0.000, 83.200, 0.000, 0.000, -3.100, 0.0, , , , , , 97, , , 41, 41, 41
36.9906271, -119.1416743, 45.600, 16:08:10.863, 16, 0.00, 0.62, 97, 1.600, 4.500, 83.200, 1359, 100, 100, 32, 24066, -20045, 5270, 5434, 14, 14, 1528931290.863, 34, 0, 1024, 1024, 1024, 1024, 0, 6, 4009, 3996, 4008, 4008, 4018, 4010, 0, 1, 20599, -89.900, 0.000, 83.200, 0.000, 0.000, -3.000, 0.0, , , , , , 97, , , 41, 41, 41
36.9906271, -119.1416743, 46.000, 16:08:10.973, 16, 0.00, 0.62, 97, 1.800, 4.600, 83.100, 1359, 100, 99, 32, 24066, -20045, 5270, 5434, 14, 14, 1528931290.973, 2, 0, 1024, 1024, 1024, 1024, 0, 6, 4009, 3996, 4008, 4008, 4018, 4010, 0, 1, 20709, -89.900, 0.000, 83.200, 0.000, 0.000, -3.000, 0.0, , , , , , 97, , , 41, 41, 41
36.9906271, -119.1416744, 46.300, 16:08:11.063, 16, 0.00, 0.62, 97, 1.900, 4.500, 83.200, 1359, 100, 99, 32, 24066, -20045, 5270, 5434, 14, 14, 1528931291.063, 16, 0, 1024, 1024, 1024, 1024, 0, 6, 4009, 3996, 4008, 4008, 4018, 4010, 0, 1, 20799, -89.900, 0.000, 83.200, 0.000, 0.000, -3.000, 0.0, , , , , , 97, , , 41, 41, 41
36.9906271, -119.1416744, 46.600, 16:08:11.163, 16, 0.00, 0.61, 97, 1.800, 4.300, 83.100, 1359, 100, 99, 32, 24066, -20045, 5270, 5434, 14, 14, 1528931291.163, 11, 0, 1024, 1024, 1024, 1024, 0, 6, 4009, 3996, 4008, 4008, 4018, 4010, 0, 1, 20900, -89.900, 0.000, 83.200, 0.000, 0.000, -3.000, 0.0, , , , , , 97, , , 41, 41, 41
36.9906271, -119.1416745, 46.900, 16:08:11.263, 16, 0.00, 0.61, 97, 1.700, 4.300, 82.900, 1359, 100, 99, 32, 24066, -20045, 5270, 5434, 14, 14, 1528931291.263, 19, 0, 1024, 1024, 1024, 1024, 0, 6, 4009, 3996, 4008, 4008, 4018, 4010, 0, 1, 21000, -89.900, 0.000, 83.200, 0.000, 0.000, -3.000, 0.0, , , , , , 97, , , 41, 41, 41
