Latitude, Longitude, Altitude (m), Time, Sats, Speed (m/s), Range (m), Battery (%), Roll (deg), Pitch (deg), Yaw (deg), Images, HD Signal (%), RC Signal (%), Battery Temp (C), Battery Voltage (mV), Battery Current (mA), Battery Energy (mAh), Battery Capacity (mAh), Battery Discharges, flyState, timestamp (Unix), LastUpdate (ms), radioChannel, Rc_elevator, Rc_aileron, Rc_throttle, Rc_rudder, Rc_gyro, Dronetype, Battery_Cell1 (mV), Battery_Cell2 (mV), Battery_Cell3 (mV), Battery_Cell4 (mV), Battery_Cell5 (mV), Battery_Cell6 (mV), Video, isFlying, elapsedTime (ms), gimbalPitch (deg), gimbalRoll (deg), gimbalYaw (deg), VelocityX (m/s), VelocityY (m/s), VelocityZ (m/s), GroundSmear (cm), App Version, Aircraft Name, Aircraft Firmware, Aircraft Serial Number, Battery Serial Number, Battery Lifetime (%), App_Tip, App_Warning, CurrentFlightStartingIndex, CurrentFlightLastVisitedWaypoint, PreviousFlightEndingWaypointIndex
36.9906957, -119.1416683, 0.000, 15:28:41.137, 12, 0.00, 0.14, 100, -0.100, -0.200, 84.700, 464, 100, 100, 32, 25946, -2519, 5491, 5491, 11, 11, 1528928921.137, 87, 0, 1024, 1024, 1024, 1024, 0, 6, 4323, 4324, 4217, 4325, 4328, 4219, 0, 1, 3101, -90.000, 0.000, 83.600, 0.000, 0.000, -0.100, 0.0, MapPilot_2.8.1_04242018, Dendroctonus I, 1.3.1.00, 041DDC1887, 1058163200468, 98, DJI_0462.jpg, Starting Mission from Lat/Long: 36.99069/-119.14166 Camera: Zenmuse X3 - Overlap: 90/90 - Active Connection: No, 15, 15, 15
36.9906957, -119.1416684, 0.000, 15:28:41.237, 12, 0.00, 0.15, 100, -0.300, -0.200, 85.000, 464, 100, 100, 32, 25946, -2519, 5491, 5491, 11, 11, 1528928921.237, 92, 0, 1024, 1024, 1024, 1024, 0, 6, 4323, 4324, 4217, 4325, 4328, 4219, 0, 1, 3201, -89.900, 0.000, 83.600, 0.000, 0.000, -0.300, 0.0, , , , , , 98, , , 15, 15, 15
36.9906958, -119.1416685, 0.000, 15:28:41.337, 12, 0.00, 0.16, 100, 0.000, -0.100, 85.200, 464, 100, 100, 32, 25804, -3843, 5491, 5491, 11, 11, 1528928921.337, 84, 0, 1024, 1024, 1024, 1024, 0, 6, 4295, 4317, 4284, 4290, 4302, 4278, 0, 1, 3301, -89.900, 0.000, 83.600, 0.000, 0.000, -0.300, 0.0, , , , , , 98, , , 15, 15, 15
36.9906959, -119.1416685, 0.000, 15:28:41.437, 12, 0.00, 0.17, 100, 0.300, -0.100, 85.100, 464, 100, 100, 32, 25804, -3843, 5491, 5491, 11, 11, 1528928921.437, 87, 0, 1024, 1024, 1024, 1024, 0, 6, 4295, 4317, 4284, 4290, 4302, 4278, 0, 1, 3401, -90.000, 0.000, 83.600, 0.000, 0.000, -0.400, 0.0, , , , , , 98, , , 15, 15, 15
36.9906960, -119.1416686, 0.100, 15:28:41.537, 12, 0.10, 0.18, 100, 0.000, -0.200, 85.000, 464, 100, 100, 32, 25804, -3843, 5491, 5491, 11, 11, 1528928921.537, 79, 0, 1024, 1024, 1024, 1024, 0, 6, 4295, 4317, 4284, 4290, 4302, 4278, 0, 1, 3501, -90.000, 0.000, 83.600, 0.100, 0.000, -0.300, 0.0, , , , , , 98, , , 15, 15, 15
36.9906962, -119.1416686, 0.100, 15:28:41.636, 11, 0.10, 0.19, 100, 0.200, 0.000, 84.900, 464, 100, 100, 32, 25804, -3843, 5491, 5491, 11, 11, 1528928921.637, 82, 0, 1024, 1024, 1024, 1024, 0, 6, 4295, 4317, 4284, 4290, 4302, 4278, 0, 1, 3601, -89.900, 0.000, 83.600, 0.100, 0.000, -0.300, 0.0, , , , , , 98, , , 15, 15, 15
36.9906963, -119.1416686, 0.100, 15:28:41.737, 11, 0.10, 0.21, 100, 0.700, 0.100, 84.700, 464, 100, 100, 32, 25804, -3843, 5491, 5491, 11, 11, 1528928921.737, 72, 0, 1024, 1024, 1024, 1024, 0, 6, 4295, 4317, 4284, 4290, 4302, 4278, 0, 1, 3701, -89.900, 0.000, 83.600, 0.100, 0.000, -0.300, 0.0, , , , , , 98, , , 15, 15, 15
36.9906965, -119.1416687, 0.200, 15:28:41.837, 11, 0.10, 0.22, 100, 0.900, 0.100, 84.500, 464, 100, 100, 32, 25804, -3843, 5491, 5491, 11, 11, 1528928921.837, 89, 0, 1024, 1024, 1024, 1024, 0, 6, 4295, 4317, 4284, 4290, 4302, 4278, 0, 1, 3801, -90.000, 0.000, 83.600, 0.100, 0.000, -0.400, 0.0, , , , , , 98, , , 15, 15, 15
36.9906967, -119.1416687, 0.200, 15:28:41.936, 11, 0.10, 0.23, 100, 1.500, 0.200, 84.400, 464, 100, 100, 32, 25804, -3843, 5491, 5491, 11, 11, 1528928921.936, 69, 0, 1024, 1024, 1024, 1024, 0, 6, 4295, 4317, 4284, 4290, 4302, 4278, 0, 1, 3900, -89.900, 0.000, 83.600, 0.100, 0.000, -0.300, 0.0, , , , , , 98, , , 15, 15, 15
36.9906968, -119.1416686, 0.200, 15:28:42.037, 11, 0.10, 0.25, 100, 2.000, 0.500, 84.300, 464, 100, 100, 32, 25804, -3843, 5491, 5491, 11, 11, 1528928922.037, 79, 0, 1024, 1024, 1024, 1024, 0, 6, 4295, 4317, 4284, 4290, 4302, 4278, 0, 1, 4001, -89.900, 0.000, 83.600, 0.100, 0.000, -0.300, 0.0, , , , , , 98, , , 15, 15, 15
36.9906969, -119.1416686, 0.300, 15:28:42.137, 11, 0.10, 0.25, 100, 2.300, 0.700, 84.100, 464, 100, 100, 32, 25804, -3843, 5491, 5491, 11, 11, 1528928922.137, 60, 0, 1024, 1024, 1024, 1024, 0, 6, 4295, 4317, 4284, 4290, 4302, 4278, 0, 1, 4101, -89.900, 0.000, 83.600, 0.100, 0.000, -0.400, 0.0, , , , , , 98, , , 15, 15, 15
36.9906970, -119.1416686, 0.300, 15:28:42.236, 12, 0.00, 0.26, 100, 2.500, 0.800, 84.100, 464, 100, 100, 32, 25804, -3843, 5491, 5491, 11, 11, 1528928922.236, 39, 0, 1024, 1024, 1024, 1024, 0, 6, 4295, 4317, 4284, 4290, 4302, 4278, 0, 1, 4200, -89.900, 0.000, 83.600, 0.000, 0.000, -0.500, 0.0, , , , , , 98, , , 15, 15, 15
36.9906970, -119.1416685, 0.400, 15:28:42.336, 12, 0.00, 0.26, 100, 1.900, 0.800, 84.100, 464, 100, 100, 32, 25067, -13739, 5491, 5491, 11, 11, 1528928922.337, 54, 0, 1024, 1024, 1024, 1024, 0, 6, 4154, 4188, 4160, 4128, 4167, 4149, 0, 1, 4301, -89.900, 0.000, 83.600, 0.000, 0.000, -0.500, 0.0, , , , , , 98, , , 15, 15, 15
36.9906970, -119.1416685, 0.400, 15:28:42.437, 12, 0.00, 0.26, 100, 1.900, 0.800, 84.100, 464, 100, 100, 32, 25067, -13739, 5491, 5491, 11, 11, 1528928922.437, 155, 0, 1024, 1024, 1024, 1024, 0, 6, 4154, 4188, 4160, 4128, 4167, 4149, 0, 1, 4401, -89.900, 0.000, 83.600, 0.000, 0.000, -0.500, 0.0, , , , , , 98, , , 15, 15, 15
36.9906970, -119.1416685, 0.500, 15:28:42.537, 12, 0.00, 0.26, 100, 1.500, 0.900, 84.200, 464, 100, 100, 32, 25067, -13739, 5491, 5491, 11, 11, 1528928922.537, 49, 0, 1024, 1024, 1024, 1024, 0, 6, 4154, 4188, 4160, 4128, 4167, 4149, 0, 1, 4501, -89.900, 0.000, 83.600, 0.000, 0.000, -0.500, 0.0, , , , , , 98, , , 15, 15, 15
36.9906970, -119.1416683, 0.600, 15:28:42.637, 12, 0.00, 0.25, 100, 0.900, 1.100, 84.300, 464, 100, 100, 32, 25067, -13739, 5491, 5491, 11, 11, 1528928922.637, 50, 0, 1024, 1024, 1024, 1024, 0, 6, 4154, 4188, 4160, 4128, 4167, 4149, 0, 1, 4601, -89.900, 0.000, 83.600, 0.000, 0.000, -0.500, 0.0, , , , , , 98, , , 15, 15, 15
36.9906970, -119.1416683, 0.600, 15:28:42.737, 12, 0.00, 0.25, 100, 0.900, 1.100, 84.300, 464, 100, 100, 32, 25067, -13739, 5491, 5491, 11, 11, 1528928922.737, 149, 0, 1024, 1024, 1024, 1024, 0, 6, 4154, 4188, 4160, 4128, 4167, 4149, 0, 1, 4701, -89.900, 0.000, 83.600, 0.000, 0.000, -0.500, 0.0, , , , , , 98, , , 15, 15, 15
36.9906968, -119.1416681, 0.700, 15:28:42.837, 11, 0.00, 0.23, 100, 0.600, 1.400, 84.200, 464, 100, 100, 32, 25067, -13739, 5491, 5491, 11, 11, 1528928922.837, 30, 0, 1024, 1024, 1024, 1024, 0, 6, 4154, 4188, 4160, 4128, 4167, 4149, 0, 1, 4801, -89.900, 0.000, 83.600, 0.000, 0.000, -0.500, 0.0, , , , , , 98, , , 15, 15, 15
36.9906968, -119.1416681, 0.700, 15:28:42.936, 13, 0.00, 0.22, 100, 0.400, 1.400, 84.100, 464, 100, 100, 32, 25067, -13739, 5491, 5491, 11, 11, 1528928922.936, 30, 0, 1024, 1024, 1024, 1024, 0, 6, 4154, 4188, 4160, 4128, 4167, 4149, 0, 1, 4900, -89.900, 0.000, 83.600, 0.000, 0.000, -0.500, 0.0, , , , , , 98, , , 15, 15, 15
36.9906967, -119.1416679, 0.800, 15:28:43.036, 13, 0.00, 0.21, 100, 0.300, 1.300, 84.000, 464, 100, 100, 32, 25067, -13739, 5491, 5491, 11, 11, 1528928923.036, 23, 0, 1024, 1024, 1024, 1024, 0, 6, 4154, 4188, 4160, 4128, 4167, 4149, 0, 1, 4999, -89.900, 0.000, 83.600, 0.000, 0.000, -0.400, 0.0, , , , , , 98, , , 15, 15, 15
36.9906967, -119.1416679, 0.800, 15:28:43.136, 13, 0.00, 0.21, 100, 0.300, 1.300, 84.000, 464, 100, 100, 32, 25067, -13739, 5491, 5491, 11, 11, 1528928923.137, 124, 0, 1024, 1024, 1024, 1024, 0, 6, 4154, 4188, 4160, 4128, 4167, 4149, 0, 1, 5101, -89.900, 0.000, 83.600, 0.000, 0.000, -0.400, 0.0, , , , , , 98, , , 15, 15, 15
36.9906966, -119.1416678, 0.900, 15:28:43.237, 14, 0.00, 0.19, 100, 0.400, 1.400, 83.800, 464, 100, 100, 32, 24707, -16428, 5491, 5491, 11, 14, 1528928923.237, 19, 0, 1024, 1024, 1024, 1024, 0, 6, 4104, 4110, 4100, 4108, 4117, 4128, 0, 1, 5201, -89.900, 0.000, 83.600, 0.000, 0.000, -0.500, 0.0, , , , , , 98, , , 15, 15, 15
36.9906966, -119.1416678, 0.900, 15:28:43.337, 14, 0.00, 0.19, 100, 0.300, 1.500, 83.700, 464, 100, 100, 32, 24707, -16428, 5491, 5491, 11, 14, 1528928923.337, 9, 0, 1024, 1024, 1024, 1024, 0, 6, 4104, 4110, 4100, 4108, 4117, 4128, 0, 1, 5301, -89.900, 0.000, 83.600, 0.000, 0.000, -0.300, 0.0, , , , , , 98, , , 15, 15, 15
36.9906965, -119.1416677, 1.000, 15:28:43.437, 14, 0.00, 0.19, 100, 0.000, 1.500, 83.500, 464, 100, 100, 32, 24707, -16428, 5491, 5491, 11, 14, 1528928923.437, 12, 0, 1024, 1024, 1024, 1024, 0, 6, 4104, 4110, 4100, 4108, 4117, 4128, 0, 1, 5401, -89.900, 0.000, 83.600, 0.000, 0.000, -0.200, 0.0, , , , , , 98, , , 15, 15, 15
36.9906965, -119.1416677, 1.000, 15:28:43.537, 14, 0.00, 0.19, 100, 0.000, 1.500, 83.500, 464, 100, 100, 32, 24707, -16428, 5491, 5491, 11, 14, 1528928923.537, 112, 0, 1024, 1024, 1024, 1024, 0, 6, 4104, 4110, 4100, 4108, 4117, 4128, 0, 1, 5501, -89.900, 0.000, 83.600, 0.000, 0.000, -0.200, 0.0, , , , , , 98, , , 15, 15, 15
36.9906965, -119.1416676, 1.000, 15:28:43.637, 13, 0.00, 0.18, 100, -0.200, 1.400, 83.400, 464, 100, 100, 32, 24707, -16428, 5491, 5491, 11, 14, 1528928923.637, 72, 0, 1024, 1024, 1024, 1024, 0, 6, 4104, 4110, 4100, 4108, 4117, 4128, 0, 1, 5601, -89.900, 0.000, 83.600, 0.000, 0.000, -0.300, 0.0, , , , , , 98, , , 15, 15, 15
36.9906966, -119.1416676, 1.000, 15:28:43.736, 13, 0.00, 0.19, 100, 0.000, 1.300, 83.300, 464, 100, 100, 32, 24707, -16428, 5491, 5491, 11, 14, 1528928923.736, 77, 0, 1024, 1024, 1024, 1024, 0, 6, 4104, 4110, 4100, 4108, 4117, 4128, 0, 1, 5700, -89.900, 0.000, 83.600, 0.000, 0.000, -0.300, 0.0, , , , , , 98, , , 15, 15, 15
36.9906967, -119.1416677, 1.100, 15:28:43.836, 13, 0.00, 0.20, 100, 0.200, 1.200, 83.200, 464, 100, 100, 32, 24707, -16428, 5491, 5491, 11, 14, 1528928923.836, 78, 0, 1024, 1024, 1024, 1024, 0, 6, 4104, 4110, 4100, 4108, 4117, 4128, 0, 1, 5800, -89.900, 0.000, 83.600, 0.000, 0.000, -0.400, 0.0, , , , , , 98, , , 15, 15, 15
36.9906967, -119.1416676, 1.100, 15:28:43.936, 13, 0.00, 0.20, 100, 0.500, 1.100, 83.100, 464, 100, 100, 32, 24707, -16428, 5491, 5491, 11, 14, 1528928923.936, 81, 0, 1024, 1024, 1024, 1024, 0, 6, 4104, 4110, 4100, 4108, 4117, 4128, 0, 1, 5900, -89.900, 0.000, 83.600, 0.000, 0.000, -0.500, 0.0, , , , , , 98, , , 15, 15, 15
36.9906967, -119.1416675, 1.200, 15:28:44.036, 13, 0.00, 0.19, 100, 0.600, 1.200, 83.100, 464, 100, 100, 32, 24707, -16428, 5491, 5491, 11, 14, 1528928924.037, 65, 0, 1024, 1024, 1024, 1024, 0, 6, 4104, 4110, 4100, 4108, 4117, 4128, 0, 1, 6001, -89.900, 0.000, 83.600, 0.000, 0.000, -0.700, 0.0, , , , , , 98, , , 15, 15, 15
36.9906967, -119.1416675, 1.300, 15:28:44.137, 13, 0.00, 0.20, 100, 0.600, 1.400, 83.100, 464, 100, 100, 32, 24707, -16428, 5491, 5491, 11, 14, 1528928924.137, 77, 0, 1024, 1024, 1024, 1024, 0, 6, 4104, 4110, 4100, 4108, 4117, 4128, 0, 1, 6101, -89.900, 0.000, 83.600, 0.000, 0.000, -0.900, 0.0, , , , , , 98, , , 15, 15, 15
36.9906968, -119.1416674, 1.400, 15:28:44.237, 14, 0.00, 0.21, 100, 0.600, 1.400, 83.200, 464, 100, 100, 32, 24707, -16428, 5491, 5491, 11, 14, 1528928924.237, 78, 0, 1024, 1024, 1024, 1024, 0, 6, 4104, 4110, 4100, 4108, 4117, 4128, 0, 1, 6201, -89.900, 0.000, 83.600, 0.000, 0.000, -1.200, 0.0, , , , , , 98, , , 15, 15, 15
36.9906968, -119.1416675, 1.700, 15:28:44.337, 14, 0.00, 0.21, 100, 0.500, 1.100, 83.300, 464, 100, 100, 32, 24635, -16214, 5491, 5491, 11, 14, 1528928924.337, 41, 0, 1024, 1024, 1024, 1024, 0, 6, 4101, 4110, 4091, 4109, 4104, 4124, 0, 1, 6301, -89.900, 0.000, 83.600, 0.000, 0.000, -1.600, 0.0, , , , , , 98, , , 15, 15, 15
36.9906968, -119.1416675, 1.700, 15:28:44.436, 14, 0.00, 0.21, 100, 0.500, 1.100, 83.300, 464, 100, 100, 32, 24635, -16214, 5491, 5491, 11, 14, 1528928924.437, 141, 0, 1024, 1024, 1024, 1024, 0, 6, 4101, 4110, 4091, 4109, 4104, 4124, 0, 1, 6401, -90.000, 0.000, 83.600, 0.000, 0.000, -1.600, 0.0, , , , , , 98, , , 15, 15, 15
36.9906970, -119.1416675, 1.900, 15:28:44.536, 14, 0.00, 0.23, 100, 0.400, 0.800, 83.300, 464, 100, 100, 32, 24635, -16214, 5491, 5491, 11, 14, 1528928924.537, 35, 0, 1024, 1024, 1024, 1024, 0, 6, 4101, 4110, 4091, 4109, 4104, 4124, 0, 1, 6501, -90.000, 0.000, 83.600, 0.000, 0.000, -1.900, 0.0, , , , , , 98, , , 15, 15, 15
36.9906971, -119.1416675, 2.100, 15:28:44.636, 13, 0.00, 0.25, 100, 0.700, 0.800, 83.200, 464, 100, 100, 32, 24635, -16214, 5491, 5491, 11, 14, 1528928924.637, 38, 0, 1024, 1024, 1024, 1024, 0, 6, 4101, 4110, 4091, 4109, 4104, 4124, 0, 1, 6600, -89.900, 0.000, 83.600, 0.000, 0.000, -2.000, 0.0, , , , , , 98, , , 15, 15, 15
36.9906969, -119.1416674, 2.600, 15:28:44.736, 13, 0.00, 0.22, 100, 0.500, 1.200, 83.300, 464, 100, 100, 32, 24635, -16214, 5491, 5491, 11, 14, 1528928924.737, 28, 0, 1024, 1024, 1024, 1024, 0, 6, 4101, 4110, 4091, 4109, 4104, 4124, 0, 1, 6701, -89.900, 0.000, 83.600, 0.000, 0.000, -2.500, 0.0, , , , , , 98, , , 15, 15, 15
36.9906968, -119.1416674, 2.800, 15:28:44.836, 13, 0.00, 0.20, 100, -0.300, 1.300, 83.500, 464, 100, 100, 32, 24635, -16214, 5491, 5491, 11, 14, 1528928924.837, 32, 0, 1024, 1024, 1024, 1024, 0, 6, 4101, 4110, 4091, 4109, 4104, 4124, 0, 1, 6801, -89.900, 0.000, 83.600, 0.000, 0.000, -2.700, 0.0, , , , , , 98, , , 15, 15, 15
36.9906966, -119.1416673, 3.100, 15:28:44.936, 14, 0.00, 0.19, 100, -1.100, 1.300, 83.700, 464, 100, 100, 32, 24635, -16214, 5491, 5491, 11, 14, 1528928924.936, 34, 0, 1024, 1024, 1024, 1024, 0, 6, 4101, 4110, 4091, 4109, 4104, 4124, 0, 1, 6900, -89.900, 0.000, 83.600, 0.000, 0.000, -2.800, 0.0, , , , , , 98, , , 15, 15, 15
36.9906964, -119.1416674, 3.400, 15:28:45.036, 14, 0.00, 0.16, 100, -1.400, 1.400, 83.900, 464, 100, 100, 32, 24635, -16214, 5491, 5491, 11, 14, 1528928925.037, 29, 0, 1024, 1024, 1024, 1024, 0, 6, 4101, 4110, 4091, 4109, 4104, 4124, 0, 1, 7001, -89.900, 0.000, 83.600, 0.000, 0.000, -2.900, 0.0, , , , , , 98, , , 15, 15, 15
36.9906962, -119.1416674, 3.700, 15:28:45.136, 14, 0.00, 0.14, 100, -1.300, 1.100, 84.000, 464, 100, 100, 32, 24635, -16214, 5491, 5491, 11, 14, 1528928925.137, 29, 0, 1024, 1024, 1024, 1024, 0, 6, 4101, 4110, 4091, 4109, 4104, 4124, 0, 1, 7101, -89.900, 0.000, 83.600, 0.000, 0.000, -3.000, 0.0, , , , , , 98, , , 15, 15, 15
36.9906962, -119.1416674, 3.700, 15:28:45.236, 14, 0.00, 0.14, 100, -1.300, 1.100, 84.000, 464, 100, 100, 32, 24635, -16214, 5491, 5491, 11, 14, 1528928925.237, 130, 0, 1024, 1024, 1024, 1024, 0, 6, 4101, 4110, 4091, 4109, 4104, 4124, 0, 1, 7201, -89.900, 0.000, 83.600, 0.000, 0.000, -3.000, 0.0, , , , , , 98, , , 15, 15, 15
36.9906960, -119.1416673, 4.300, 15:28:45.339, 15, 0.00, 0.12, 100, -0.700, 1.100, 84.300, 464, 100, 100, 32, 24301, -21391, 5491, 5491, 11, 14, 1528928925.340, 5, 0, 1024, 1024, 1024, 1024, 0, 6, 4101, 4110, 4091, 4109, 4104, 4124, 0, 1, 7303, -89.900, 0.000, 83.600, 0.000, 0.000, -3.100, 0.0, , , , , , 98, , , 15, 15, 15
36.9906960, -119.1416673, 4.300, 15:28:45.436, 15, 0.00, 0.12, 100, -0.700, 1.100, 84.300, 464, 100, 100, 32, 24301, -21391, 5491, 5491, 11, 14, 1528928925.437, 102, 0, 1024, 1024, 1024, 1024, 0, 6, 4101, 4110, 4091, 4109, 4104, 4124, 0, 1, 7401, -89.900, 0.000, 83.600, 0.000, 0.000, -3.100, 0.0, , , , , , 98, , , 15, 15, 15
36.9906959, -119.1416673, 4.600, 15:28:45.536, 15, 0.00, 0.11, 100, -0.500, 1.200, 84.300, 464, 100, 100, 32, 24301, -21391, 5491, 5491, 11, 14, 1528928925.537, 92, 0, 1024, 1024, 1024, 1024, 0, 6, 4101, 4110, 4091, 4109, 4104, 4124, 0, 1, 7501, -89.900, 0.000, 83.600, 0.000, 0.000, -3.200, 0.0, , , , , , 98, , , 15, 15, 15
36.9906958, -119.1416672, 5.000, 15:28:45.636, 13, 0.00, 0.09, 100, -0.400, 1.300, 84.300, 464, 100, 100, 32, 24301, -21391, 5491, 5491, 11, 14, 1528928925.637, 73, 0, 1024, 1024, 1024, 1024, 0, 6, 4101, 4110, 4091, 4109, 4104, 4124, 0, 1, 7601, -89.900, 0.000, 83.600, 0.000, 0.000, -3.200, 0.0, , , , , , 98, , , 15, 15, 15
36.9906959, -119.1416673, 5.600, 15:28:45.741, 14, 0.00, 0.11, 98, -0.200, 1.400, 84.100, 464, 100, 100, 32, 24301, -21391, 5381, 5491, 11, 14, 1528928925.741, 5, 0, 1024, 1024, 1024, 1024, 0, 6, 4101, 4110, 4091, 4109, 4104, 4124, 0, 1, 7705, -89.900, 0.000, 83.600, 0.000, 0.000, -3.200, 0.0, , , , , , 98, , , 15, 15, 15
36.9906961, -119.1416673, 6.000, 15:28:45.838, 14, 0.00, 0.12, 98, 0.000, 1.400, 84.000, 464, 100, 100, 32, 24301, -21391, 5381, 5491, 11, 14, 1528928925.838, 3, 0, 1024, 1024, 1024, 1024, 0, 6, 4022, 4034, 4033, 4041, 4042, 4054, 0, 1, 7802, -89.900, 0.000, 83.600, 0.000, 0.000, -3.200, 0.0, , , , , , 98, , , 15, 15, 15
36.9906961, -119.1416673, 6.000, 15:28:45.936, 14, 0.00, 0.12, 98, 0.000, 1.400, 84.000, 464, 100, 100, 32, 24301, -21391, 5381, 5491, 11, 14, 1528928925.936, 101, 0, 1024, 1024, 1024, 1024, 0, 6, 4022, 4034, 4033, 4041, 4042, 4054, 0, 1, 7900, -89.900, 0.000, 83.600, 0.000, 0.000, -3.200, 0.0, , , , , , 98, , , 15, 15, 15
36.9906962, -119.1416673, 6.300, 15:28:46.036, 14, 0.00, 0.14, 98, 0.500, 1.400, 83.900, 464, 100, 100, 32, 24301, -21391, 5381, 5491, 11, 14, 1528928926.037, 90, 0, 1024, 1024, 1024, 1024, 0, 6, 4022, 4034, 4033, 4041, 4042, 4054, 0, 1, 8001, -89.900, 0.000, 83.600, 0.000, 0.000, -3.300, 0.0, , , , , , 98, , , 15, 15, 15
36.9906964, -119.1416673, 6.600, 15:28:46.136, 14, 0.00, 0.16, 98, 1.000, 1.400, 83.900, 464, 100, 100, 32, 24301, -21391, 5381, 5491, 11, 14, 1528928926.137, 80, 0, 1024, 1024, 1024, 1024, 0, 6, 4022, 4034, 4033, 4041, 4042, 4054, 0, 1, 8101, -89.900, 0.000, 83.600, 0.000, 0.000, -3.200, 0.0, , , , , , 98, , , 15, 15, 15
36.9906966, -119.1416674, 7.000, 15:28:46.236, 15, 0.10, 0.19, 98, 1.500, 1.300, 83.900, 464, 100, 100, 32, 24301, -21391, 5381, 5491, 11, 14, 1528928926.237, 82, 0, 1024, 1024, 1024, 1024, 0, 6, 4022, 4034, 4033, 4041, 4042, 4054, 0, 1, 8201, -89.900, 0.000, 83.600, 0.100, 0.000, -3.200, 0.0, , , , , , 98, , , 15, 15, 15
36.9906969, -119.1416674, 7.300, 15:28:46.336, 15, 0.00, 0.21, 98, 1.700, 1.100, 83.800, 464, 100, 100, 32, 24301, -21391, 5381, 5491, 11, 14, 1528928926.337, 66, 0, 1024, 1024, 1024, 1024, 0, 6, 4022, 4034, 4033, 4041, 4042, 4054, 0, 1, 8301, -90.000, 0.000, 83.600, 0.000, 0.000, -3.100, 0.0, , , , , , 98, , , 15, 15, 15
36.9906971, -119.1416674, 7.600, 15:28:46.436, 15, 0.00, 0.24, 98, 1.900, 0.900, 83.800, 464, 100, 100, 32, 24301, -21391, 5381, 5491, 11, 14, 1528928926.437, 66, 0, 1024, 1024, 1024, 1024, 0, 6, 4022, 4034, 4033, 4041, 4042, 4054, 0, 1, 8401, -89.900, 0.000, 83.600, 0.000, 0.000, -3.200, 0.0, , , , , , 98, , , 15, 15, 15
36.9906972, -119.1416674, 7.900, 15:28:46.539, 15, 0.00, 0.25, 98, 2.000, 1.000, 83.700, 464, 100, 100, 32, 24301, -21391, 5381, 5491, 11, 14, 1528928926.540, 72, 0, 1024, 1024, 1024, 1024, 0, 6, 4022, 4034, 4033, 4041, 4042, 4054, 0, 1, 8503, -89.900, 0.000, 83.600, 0.000, 0.000, -3.100, 0.0, , , , , , 98, , , 15, 15, 15
36.9906974, -119.1416674, 8.200, 15:28:46.636, 15, 0.00, 0.27, 98, 1.900, 1.100, 83.700, 464, 100, 100, 32, 24301, -21391, 5381, 5491, 11, 14, 1528928926.637, 25, 0, 1024, 1024, 1024, 1024, 0, 6, 4022, 4034, 4033, 4041, 4042, 4054, 0, 1, 8601, -89.900, 0.000, 83.600, 0.000, 0.000, -3.000, 0.0, , , , , , 98, , , 15, 15, 15
36.9906976, -119.1416674, 8.600, 15:28:46.736, 15, 0.00, 0.29, 98, 1.700, 1.200, 83.700, 464, 100, 100, 32, 24301, -21391, 5381, 5491, 11, 14, 1528928926.737, 39, 0, 1024, 1024, 1024, 1024, 0, 6, 4022, 4034, 4033, 4041, 4042, 4054, 0, 1, 8701, -89.900, 0.000, 83.600, 0.000, 0.000, -3.100, 0.0, , , , , , 98, , , 15, 15, 15
36.9906978, -119.1416674, 8.900, 15:28:46.836, 15, 0.00, 0.32, 98, 1.800, 1.300, 83.700, 464, 100, 100, 32, 24159, -21964, 5381, 5491, 11, 14, 1528928926.837, 15, 0, 1024, 1024, 1024, 1024, 0, 6, 4036, 4025, 4035, 4035, 4037, 4044, 0, 1, 8801, -89.900, 0.000, 83.600, 0.000, 0.000, -3.100, 0.0, , , , , , 98, , , 15, 15, 15
36.9906981, -119.1416672, 9.500, 15:28:46.936, 15, 0.00, 0.35, 98, 2.100, 1.500, 83.700, 464, 100, 100, 32, 24159, -21964, 5381, 5491, 11, 14, 1528928926.936, 27, 0, 1024, 1024, 1024, 1024, 0, 6, 4036, 4025, 4035, 4035, 4037, 4044, 0, 1, 8899, -89.900, 0.000, 83.600, 0.000, 0.000, -3.100, 0.0, , , , , , 98, , , 15, 15, 15
36.9906982, -119.1416673, 9.800, 15:28:47.036, 15, 0.00, 0.36, 98, 2.100, 1.600, 83.700, 464, 100, 100, 32, 24159, -21964, 5381, 5491, 11, 14, 1528928927.037, 30, 0, 1024, 1024, 1024, 1024, 0, 6, 4036, 4025, 4035, 4035, 4037, 4044, 0, 1, 9001, -89.900, 0.000, 83.600, 0.000, 0.000, -3.100, 0.0, , , , , , 98, , , 15, 15, 15
36.9906982, -119.1416673, 10.200, 15:28:47.136, 15, 0.00, 0.37, 98, 2.200, 1.600, 83.700, 464, 100, 100, 32, 24159, -21964, 5381, 5491, 11, 14, 1528928927.137, 32, 0, 1024, 1024, 1024, 1024, 0, 6, 4036, 4025, 4035, 4035, 4037, 4044, 0, 1, 9101, -89.900, 0.000, 83.600, 0.000, 0.000, -3.100, 0.0, , , , , , 98, , , 15, 15, 15
36.9906984, -119.1416673, 10.500, 15:28:47.236, 15, 0.00, 0.38, 98, 2.200, 1.500, 83.600, 464, 100, 100, 32, 24159, -21964, 5381, 5491, 11, 14, 1528928927.237, 24, 0, 1024, 1024, 1024, 1024, 0, 6, 4036, 4025, 4035, 4035, 4037, 4044, 0, 1, 9201, -89.900, 0.000, 83.600, 0.000, 0.000, -3.100, 0.0, , , , , , 98, , , 15, 15, 15
36.9906985, -119.1416672, 10.800, 15:28:47.336, 14, 0.00, 0.39, 98, 2.200, 1.500, 83.600, 464, 100, 99, 32, 24159, -21964, 5381, 5491, 11, 14, 1528928927.337, 29, 0, 1024, 1024, 1024, 1024, 0, 6, 4036, 4025, 4035, 4035, 4037, 4044, 0, 1, 9301, -89.900, 0.000, 83.600, 0.000, 0.000, -3.100, 0.0, , , , , , 98, , , 15, 15, 15
36.9906986, -119.1416672, 11.100, 15:28:47.436, 14, 0.00, 0.40, 98, 2.100, 1.600, 83.600, 464, 100, 99, 32, 24159, -21964, 5381, 5491, 11, 14, 1528928927.437, 22, 0, 1024, 1024, 1024, 1024, 0, 6, 4036, 4025, 4035, 4035, 4037, 4044, 0, 1, 9400, -89.900, 0.000, 83.600, 0.000, 0.000, -3.000, 0.0, , , , , , 98, , , 15, 15, 15
36.9906986, -119.1416672, 11.400, 15:28:47.536, 15, 0.00, 0.41, 98, 2.000, 1.500, 83.500, 464, 100, 99, 32, 24159, -21964, 5381, 5491, 11, 14, 1528928927.537, 12, 0, 1024, 1024, 1024, 1024, 0, 6, 4036, 4025, 4035, 4035, 4037, 4044, 0, 1, 9501, -89.900, 0.000, 83.600, 0.000, 0.000, -3.000, 0.0, , , , , , 98, , , 15, 15, 15
36.9906986, -119.1416672, 11.700, 15:28:47.636, 15, 0.00, 0.41, 98, 2.000, 1.600, 83.500, 464, 100, 99, 32, 24159, -21964, 5381, 5491, 11, 14, 1528928927.637, 5, 0, 1024, 1024, 1024, 1024, 0, 6, 4036, 4025, 4035, 4035, 4037, 4044, 0, 1, 9601, -89.900, 0.000, 83.600, 0.000, 0.000, -3.000, 0.0, , , , , , 98, , , 15, 15, 15
36.9906986, -119.1416672, 11.700, 15:28:47.736, 15, 0.00, 0.41, 98, 2.000, 1.600, 83.500, 464, 100, 99, 32, 24159, -21964, 5381, 5491, 11, 14, 1528928927.737, 105, 0, 1024, 1024, 1024, 1024, 0, 6, 4036, 4025, 4035, 4035, 4037, 4044, 0, 1, 9701, -89.900, 0.000, 83.600, 0.000, 0.000, -3.000, 0.0, , , , , , 98, , , 15, 15, 15
36.9906986, -119.1416672, 12.400, 15:28:47.836, 15, 0.00, 0.40, 98, 1.600, 1.500, 83.500, 464, 100, 99, 32, 24348, -18467, 5381, 5491, 11, 14, 1528928927.837, 4, 0, 1024, 1024, 1024, 1024, 0, 6, 4052, 4061, 4040, 4052, 4052, 4079, 0, 1, 9800, -89.900, 0.000, 83.600, 0.000, 0.000, -3.000, 0.0, , , , , , 98, , , 15, 15, 15
36.9906986, -119.1416672, 12.400, 15:28:47.935, 15, 0.00, 0.40, 98, 1.600, 1.500, 83.500, 464, 100, 99, 32, 24348, -18467, 5381, 5491, 11, 14, 1528928927.936, 103, 0, 1024, 1024, 1024, 1024, 0, 6, 4052, 4061, 4040, 4052, 4052, 4079, 0, 1, 9899, -89.900, 0.000, 83.600, 0.000, 0.000, -3.000, 0.0, , , , , , 98, , , 15, 15, 15
36.9906985, -119.1416672, 12.700, 15:28:48.036, 15, 0.00, 0.40, 98, 1.300, 1.500, 83.500, 464, 100, 99, 32, 24348, -18467, 5381, 5491, 11, 14, 1528928928.037, 95, 0, 1024, 1024, 1024, 1024, 0, 6, 4052, 4061, 4040, 4052, 4052, 4079, 0, 1, 10001, -89.900, 0.000, 83.600, 0.000, 0.000, -3.100, 0.0, , , , , , 98, , , 15, 15, 15
36.9906985, -119.1416672, 13.000, 15:28:48.136, 15, 0.10, 0.40, 98, 1.100, 1.600, 83.500, 464, 100, 99, 32, 24348, -18467, 5381, 5491, 11, 14, 1528928928.137, 86, 0, 1024, 1024, 1024, 1024, 0, 6, 4052, 4061, 4040, 4052, 4052, 4079, 0, 1, 10100, -89.900, 0.000, 83.600, -0.100, 0.000, -3.000, 0.0, , , , , , 98, , , 15, 15, 15
36.9906985, -119.1416673, 13.300, 15:28:48.236, 15, 0.10, 0.39, 98, 1.000, 1.400, 83.500, 464, 100, 99, 32, 24348, -18467, 5381, 5491, 11, 14, 1528928928.236, 92, 0, 1024, 1024, 1024, 1024, 0, 6, 4052, 4061, 4040, 4052, 4052, 4079, 0, 1, 10200, -89.900, 0.000, 83.600, -0.100, 0.000, -3.100, 0.0, , , , , , 98, , , 15, 15, 15
36.9906984, -119.1416673, 13.600, 15:28:48.336, 15, 0.10, 0.39, 98, 1.000, 1.300, 83.500, 464, 100, 99, 32, 24348, -18467, 5381, 5491, 11, 14, 1528928928.337, 90, 0, 1024, 1024, 1024, 1024, 0, 6, 4052, 4061, 4040, 4052, 4052, 4079, 0, 1, 10301, -89.900, 0.000, 83.600, -0.100, 0.000, -3.000, 0.0, , , , , , 98, , , 15, 15, 15
36.9906984, -119.1416674, 14.000, 15:28:48.436, 15, 0.10, 0.38, 98, 1.000, 1.200, 83.500, 464, 100, 100, 32, 24348, -18467, 5381, 5491, 11, 14, 1528928928.437, 92, 0, 1024, 1024, 1024, 1024, 0, 6, 4052, 4061, 4040, 4052, 4052, 4079, 0, 1, 10401, -89.900, 0.000, 83.600, -0.100, 0.000, -3.000, 0.0, , , , , , 98, , , 15, 15, 15
36.9906983, -119.1416674, 14.300, 15:28:48.536, 15, 0.10, 0.38, 98, 0.800, 1.000, 83.500, 464, 100, 100, 32, 24348, -18467, 5381, 5491, 11, 14, 1528928928.536, 66, 0, 1024, 1024, 1024, 1024, 0, 6, 4052, 4061, 4040, 4052, 4052, 4079, 0, 1, 10500, -90.000, 0.000, 83.600, -0.100, 0.000, -3.000, 0.0, , , , , , 98, , , 15, 15, 15
36.9906983, -119.1416675, 14.600, 15:28:48.636, 15, 0.10, 0.37, 98, 0.800, 0.900, 83.600, 464, 100, 100, 32, 24348, -18467, 5381, 5491, 11, 14, 1528928928.636, 64, 0, 1024, 1024, 1024, 1024, 0, 6, 4052, 4061, 4040, 4052, 4052, 4079, 0, 1, 10600, -89.900, 0.000, 83.600, -0.100, 0.000, -3.000, 0.0, , , , , , 98, , , 15, 15, 15
36.9906982, -119.1416676, 14.900, 15:28:48.736, 15, 0.10, 0.36, 98, 0.600, 0.800, 83.600, 464, 100, 100, 32, 24348, -18467, 5381, 5491, 11, 14, 1528928928.737, 64, 0, 1024, 1024, 1024, 1024, 0, 6, 4052, 4061, 4040, 4052, 4052, 4079, 0, 1, 10700, -89.900, 0.000, 83.600, -0.100, 0.000, -2.900, 0.0, , , , , , 98, , , 15, 15, 15
36.9906981, -119.1416677, 15.200, 15:28:48.836, 15, 0.10, 0.35, 98, 0.400, 0.600, 83.600, 464, 100, 100, 32, 24339, -18223, 5381, 5491, 11, 14, 1528928928.837, 70, 0, 1024, 1024, 1024, 1024, 0, 6, 4047, 4063, 4051, 4059, 4057, 4079, 0, 1, 10801, -89.900, 0.000, 83.600, -0.100, 0.000, -2.900, 0.0, , , , , , 98, , , 15, 15, 15
36.9906980, -119.1416678, 15.500, 15:28:48.936, 15, 0.10, 0.34, 98, 0.200, 0.400, 83.700, 464, 100, 98, 32, 24339, -18223, 5381, 5491, 11, 14, 1528928928.936, 46, 0, 1024, 1024, 1024, 1024, 0, 6, 4047, 4063, 4051, 4059, 4057, 4079, 0, 1, 10900, -90.000, 0.000, 83.600, -0.100, 0.000, -2.900, 0.0, , , , , , 98, , , 15, 15, 15
36.9906979, -119.1416678, 15.700, 15:28:49.036, 15, 0.10, 0.33, 98, 0.100, 0.300, 83.600, 464, 100, 98, 32, 24339, -18223, 5381, 5491, 11, 14, 1528928929.036, 51, 0, 1024, 1024, 1024, 1024, 0, 6, 4047, 4063, 4051, 4059, 4057, 4079, 0, 1, 11000, -89.900, 0.000, 83.600, -0.100, 0.000, -2.800, 0.0, , , , , , 98, , , 15, 15, 15
36.9906977, -119.1416680, 16.300, 15:28:49.136, 17, 0.00, 0.32, 98, 0.100, 0.600, 83.500, 464, 100, 98, 32, 24339, -18223, 5381, 5491, 11, 14, 1528928929.137, 39, 0, 1024, 1024, 1024, 1024, 0, 6, 4047, 4063, 4051, 4059, 4057, 4079, 0, 1, 11101, -89.900, 0.000, 83.600, 0.000, 0.000, -2.800, 0.0, , , , , , 98, , , 15, 15, 15
36.9906977, -119.1416680, 16.600, 15:28:49.236, 17, 0.00, 0.31, 98, 0.200, 0.700, 83.500, 464, 100, 98, 32, 24339, -18223, 5381, 5491, 11, 14, 1528928929.237, 44, 0, 1024, 1024, 1024, 1024, 0, 6, 4047, 4063, 4051, 4059, 4057, 4079, 0, 1, 11201, -89.900, 0.000, 83.600, 0.000, 0.000, -2.900, 0.0, , , , , , 98, , , 15, 15, 15
36.9906976, -119.1416680, 16.900, 15:28:49.336, 17, 0.00, 0.30, 98, 0.300, 0.700, 83.500, 464, 100, 98, 32, 24339, -18223, 5381, 5491, 11, 14, 1528928929.337, 35, 0, 1024, 1024, 1024, 1024, 0, 6, 4047, 4063, 4051, 4059, 4057, 4079, 0, 1, 11301, -89.900, 0.000, 83.600, 0.000, 0.000, -2.900, 0.0, , , , , , 98, , , 15, 15, 15
36.9906976, -119.1416680, 16.900, 15:28:49.436, 17, 0.00, 0.30, 98, 0.300, 0.700, 83.500, 464, 100, 96, 32, 24339, -18223, 5381, 5491, 11, 14, 1528928929.436, 134, 0, 1024, 1024, 1024, 1024, 0, 6, 4047, 4063, 4051, 4059, 4057, 4079, 0, 1, 11400, -89.900, 0.000, 83.600, 0.000, 0.000, -2.900, 0.0, , , , , , 98, , , 15, 15, 15
36.9906974, -119.1416681, 17.500, 15:28:49.536, 16, 0.00, 0.28, 98, 0.200, 0.700, 83.500, 464, 100, 96, 32, 24339, -18223, 5381, 5491, 11, 14, 1528928929.537, 20, 0, 1024, 1024, 1024, 1024, 0, 6, 4047, 4063, 4051, 4059, 4057, 4079, 0, 1, 11501, -90.000, 0.000, 83.600, 0.000, 0.000, -2.900, 0.0, , , , , , 98, , , 15, 15, 15
36.9906974, -119.1416681, 17.500, 15:28:49.636, 16, 0.00, 0.28, 98, 0.200, 0.700, 83.500, 464, 100, 96, 32, 24339, -18223, 5381, 5491, 11, 14, 1528928929.636, 119, 0, 1024, 1024, 1024, 1024, 0, 6, 4047, 4063, 4051, 4059, 4057, 4079, 0, 1, 11600, -89.900, 0.000, 83.600, 0.000, 0.000, -2.900, 0.0, , , , , , 98, , , 15, 15, 15
36.9906972, -119.1416680, 18.100, 15:28:49.735, 16, 0.00, 0.26, 98, -0.200, 0.800, 83.500, 464, 100, 96, 32, 24348, -18862, 5381, 5491, 11, 14, 1528928929.735, 4, 0, 1024, 1024, 1024, 1024, 0, 6, 4027, 4031, 4043, 4060, 4060, 4074, 0, 1, 11699, -89.900, 0.000, 83.600, 0.000, 0.000, -3.000, 0.0, , , , , , 98, , , 15, 15, 15
36.9906971, -119.1416680, 18.400, 15:28:49.836, 16, 0.00, 0.25, 98, -0.300, 1.100, 83.500, 464, 100, 96, 32, 24348, -18862, 5381, 5491, 11, 14, 1528928929.836, 8, 0, 1024, 1024, 1024, 1024, 0, 6, 4027, 4031, 4043, 4060, 4060, 4074, 0, 1, 11800, -89.900, 0.000, 83.600, 0.000, 0.000, -2.900, 0.0, , , , , , 98, , , 15, 15, 15
36.9906970, -119.1416680, 18.700, 15:28:49.935, 17, 0.00, 0.24, 98, -0.200, 1.200, 83.500, 464, 100, 96, 32, 24348, -18862, 5381, 5491, 11, 14, 1528928929.936, 14, 0, 1024, 1024, 1024, 1024, 0, 6, 4027, 4031, 4043, 4060, 4060, 4074, 0, 1, 11899, -89.900, 0.000, 83.600, 0.000, 0.000, -3.000, 0.0, , , , , , 98, , , 15, 15, 15
36.9906969, -119.1416681, 19.000, 15:28:50.036, 17, 0.00, 0.23, 98, -0.200, 1.200, 83.600, 464, 100, 96, 32, 24348, -18862, 5381, 5491, 11, 14, 1528928930.036, 6, 0, 1024, 1024, 1024, 1024, 0, 6, 4027, 4031, 4043, 4060, 4060, 4074, 0, 1, 12000, -89.900, 0.000, 83.600, 0.000, 0.000, -3.000, 0.0, , , , , , 98, , , 15, 15, 15
36.9906969, -119.1416681, 19.000, 15:28:50.136, 17, 0.00, 0.23, 98, -0.200, 1.200, 83.600, 464, 100, 96, 32, 24348, -18862, 5381, 5491, 11, 14, 1528928930.136, 106, 0, 1024, 1024, 1024, 1024, 0, 6, 4027, 4031, 4043, 4060, 4060, 4074, 0, 1, 12100, -89.900, 0.000, 83.600, 0.000, 0.000, -3.000, 0.0, , , , , , 98, , , 15, 15, 15
36.9906967, -119.1416681, 19.600, 15:28:50.236, 17, 0.00, 0.21, 98, -0.200, 1.100, 83.700, 464, 100, 96, 32, 24348, -18862, 5381, 5491, 11, 14, 1528928930.236, 9, 0, 1024, 1024, 1024, 1024, 0, 6, 4027, 4031, 4043, 4060, 4060, 4074, 0, 1, 12200, -89.900, 0.000, 83.600, 0.000, 0.000, -2.900, 0.0, , , , , , 98, , , 15, 15, 15
36.9906967, -119.1416681, 19.600, 15:28:50.336, 17, 0.00, 0.21, 98, -0.200, 1.100, 83.700, 464, 100, 96, 32, 24348, -18862, 5381, 5491, 11, 14, 1528928930.337, 110, 0, 1024, 1024, 1024, 1024, 0, 6, 4027, 4031, 4043, 4060, 4060, 4074, 0, 1, 12301, -89.900, 0.000, 83.600, 0.000, 0.000, -2.900, 0.0, , , , , , 98, , , 15, 15, 15
36.9906966, -119.1416681, 20.200, 15:28:50.436, 17, 0.00, 0.20, 98, -0.100, 0.900, 83.700, 464, 100, 96, 32, 24348, -18862, 5381, 5491, 11, 14, 1528928930.436, 3, 0, 1024, 1024, 1024, 1024, 0, 6, 4027, 4031, 4043, 4060, 4060, 4074, 0, 1, 12400, -90.000, 0.000, 83.600, 0.000, 0.000, -3.000, 0.0, , , , , , 98, , , 15, 15, 15
36.9906966, -119.1416681, 20.200, 15:28:50.536, 17, 0.00, 0.20, 98, -0.100, 0.900, 83.700, 464, 100, 96, 32, 24348, -18862, 5381, 5491, 11, 14, 1528928930.536, 104, 0, 1024, 1024, 1024, 1024, 0, 6, 4027, 4031, 4043, 4060, 4060, 4074, 0, 1, 12500, -90.000, 0.000, 83.600, 0.000, 0.000, -3.000, 0.0, , , , , , 98, , , 15, 15, 15
36.9906965, -119.1416681, 20.500, 15:28:50.636, 17, 0.00, 0.20, 98, -0.100, 0.900, 83.700, 464, 100, 96, 32, 24348, -18862, 5381, 5491, 11, 14, 1528928930.636, 78, 0, 1024, 1024, 1024, 1024, 0, 6, 4027, 4031, 4043, 4060, 4060, 4074, 0, 1, 12600, -89.900, 0.000, 83.600, 0.000, 0.000, -2.900, 0.0, , , , , , 98, , , 15, 15, 15
36.9906965, -119.1416682, 20.800, 15:28:50.736, 17, 0.00, 0.19, 98, -0.100, 0.900, 83.700, 464, 100, 96, 32, 24348, -18862, 5381, 5491, 11, 14, 1528928930.736, 79, 0, 1024, 1024, 1024, 1024, 0, 6, 4027, 4031, 4043, 4060, 4060, 4074, 0, 1, 12700, -89.900, 0.000, 83.600, 0.000, 0.000, -2.900, 0.0, , , , , , 98, , , 15, 15, 15
36.9906964, -119.1416682, 21.100, 15:28:50.836, 17, 0.00, 0.19, 98, -0.100, 1.000, 83.700, 464, 100, 96, 32, 24202, -18949, 5381, 5491, 11, 14, 1528928930.836, 84, 0, 1024, 1024, 1024, 1024, 0, 6, 4027, 4031, 4043, 4060, 4060, 4074, 0, 1, 12800, -89.900, 0.000, 83.600, 0.000, 0.000, -3.000, 0.0, , , , , , 98, , , 15, 15, 15
36.9906964, -119.1416682, 21.500, 15:28:50.935, 17, 0.00, 0.18, 98, 0.000, 1.000, 83.600, 464, 100, 96, 32, 24202, -18949, 5381, 5491, 11, 14, 1528928930.935, 52, 0, 1024, 1024, 1024, 1024, 0, 6, 4027, 4031, 4043, 4060, 4060, 4074, 0, 1, 12899, -89.900, 0.000, 83.600, 0.000, 0.000, -3.000, 0.0, , , , , , 98, , , 15, 15, 15
36.9906963, -119.1416682, 21.800, 15:28:51.036, 17, 0.00, 0.18, 98, 0.100, 1.100, 83.600, 464, 100, 96, 32, 24202, -18949, 5381, 5491, 11, 14, 1528928931.037, 68, 0, 1024, 1024, 1024, 1024, 0, 6, 4027, 4031, 4043, 4060, 4060, 4074, 0, 1, 13000, -89.900, 0.000, 83.600, 0.000, 0.000, -2.900, 0.0, , , , , , 98, , , 15, 15, 15
36.9906963, -119.1416682, 22.100, 15:28:51.136, 17, 0.00, 0.18, 98, 0.100, 1.100, 83.600, 464, 100, 96, 32, 24202, -18949, 5381, 5491, 11, 14, 1528928931.137, 59, 0, 1024, 1024, 1024, 1024, 0, 6, 4027, 4031, 4043, 4060, 4060, 4074, 0, 1, 13100, -89.900, 0.000, 83.600, 0.000, 0.000, -3.000, 0.0, , , , , , 98, , , 15, 15, 15
36.9906962, -119.1416682, 22.400, 15:28:51.236, 17, 0.00, 0.17, 98, 0.100, 1.100, 83.600, 464, 100, 96, 32, 24202, -18949, 5381, 5491, 11, 14, 1528928931.237, 60, 0, 1024, 1024, 1024, 1024, 0, 6, 4027, 4031, 4043, 4060, 4060, 4074, 0, 1, 13201, -89.900, 0.000, 83.600, 0.000, 0.000, -2.900, 0.0, , , , , , 98, , , 15, 15, 15
36.9906962, -119.1416682, 22.700, 15:28:51.336, 17, 0.00, 0.17, 98, 0.100, 1.000, 83.600, 464, 100, 96, 32, 24202, -18949, 5381, 5491, 11, 14, 1528928931.336, 59, 0, 1024, 1024, 1024, 1024, 0, 6, 4024, 4027, 4028, 4033, 4042, 4053, 0, 1, 13300, -89.900, 0.000, 83.600, 0.000, 0.000, -2.900, 0.0, , , , , , 98, , , 15, 15, 15
36.9906962, -119.1416682, 23.000, 15:28:51.436, 17, 0.00, 0.17, 98, 0.000, 1.000, 83.600, 464, 100, 95, 32, 24202, -18949, 5381, 5491, 11, 14, 1528928931.436, 37, 0, 1024, 1024, 1024, 1024, 0, 6, 4024, 4027, 4028, 4033, 4042, 4053, 0, 1, 13400, -89.900, 0.000, 83.600, 0.000, 0.000, -2.900, 0.0, , , , , , 98, , , 15, 15, 15
36.9906962, -119.1416682, 23.300, 15:28:51.536, 17, 0.00, 0.17, 98, 0.000, 1.100, 83.700, 464, 100, 95, 32, 24202, -18949, 5381, 5491, 11, 14, 1528928931.536, 39, 0, 1024, 1024, 1024, 1024, 0, 6, 4024, 4027, 4028, 4033, 4042, 4053, 0, 1, 13500, -89.900, 0.000, 83.600, 0.000, 0.000, -3.000, 0.0, , , , , , 98, , , 15, 15, 15
36.9906962, -119.1416682, 23.600, 15:28:51.636, 17, 0.00, 0.16, 98, 0.000, 1.100, 83.700, 464, 100, 95, 32, 24202, -18949, 5381, 5491, 11, 14, 1528928931.636, 39, 0, 1024, 1024, 1024, 1024, 0, 6, 4024, 4027, 4028, 4033, 4042, 4053, 0, 1, 13600, -89.900, 0.000, 83.600, 0.000, 0.000, -3.000, 0.0, , , , , , 98, , , 15, 15, 15
36.9906962, -119.1416682, 24.200, 15:28:51.736, 17, 0.00, 0.17, 98, 0.100, 1.300, 83.600, 464, 100, 95, 32, 24202, -18949, 5381, 5491, 11, 14, 1528928931.737, 42, 0, 1024, 1024, 1024, 1024, 0, 6, 4024, 4027, 4028, 4033, 4042, 4053, 0, 1, 13700, -89.900, 0.000, 83.600, 0.000, 0.000, -3.000, 0.0, , , , , , 98, , , 15, 15, 15
36.9906962, -119.1416682, 24.500, 15:28:51.836, 17, 0.00, 0.17, 98, 0.500, 1.300, 83.600, 464, 100, 98, 32, 24202, -18949, 5381, 5491, 11, 14, 1528928931.837, 25, 0, 1024, 1024, 1024, 1024, 0, 6, 4024, 4027, 4028, 4033, 4042, 4053, 0, 1, 13801, -89.900, 0.000, 83.600, 0.000, 0.000, -3.000, 0.0, , , , , , 98, , , 15, 15, 15
36.9906962, -119.1416682, 24.800, 15:28:51.935, 17, 0.00, 0.17, 98, 0.800, 1.200, 83.700, 464, 100, 98, 32, 24202, -18949, 5381, 5491, 11, 14, 1528928931.935, 35, 0, 1024, 1024, 1024, 1024, 0, 6, 4024, 4027, 4028, 4033, 4042, 4053, 0, 1, 13899, -89.900, 0.000, 83.600, 0.000, 0.000, -3.000, 0.0, , , , , , 98, , , 15, 15, 15
36.9906963, -119.1416682, 25.100, 15:28:52.036, 17, 0.00, 0.18, 98, 0.900, 1.200, 83.700, 464, 100, 98, 32, 24202, -18949, 5381, 5491, 11, 14, 1528928932.036, 38, 0, 1024, 1024, 1024, 1024, 0, 6, 4024, 4027, 4028, 4033, 4042, 4053, 0, 1, 14000, -89.900, 0.000, 83.600, 0.000, 0.000, -3.000, 0.0, , , , , , 98, , , 15, 15, 15
36.9906963, -119.1416682, 25.400, 15:28:52.136, 17, 0.00, 0.18, 98, 1.000, 1.200, 83.600, 464, 100, 98, 32, 24202, -18949, 5381, 5491, 11, 14, 1528928932.136, 30, 0, 1024, 1024, 1024, 1024, 0, 6, 4024, 4027, 4028, 4033, 4042, 4053, 0, 1, 14100, -89.900, 0.000, 83.600, 0.000, 0.000, -3.000, 0.0, , , , , , 98, , , 15, 15, 15
36.9906964, -119.1416682, 25.700, 15:28:52.236, 17, 0.00, 0.19, 98, 1.100, 1.100, 83.600, 464, 100, 98, 32, 24218, -18471, 5381, 5491, 11, 14, 1528928932.236, 22, 0, 1024, 1024, 1024, 1024, 0, 6, 4028, 4033, 4025, 4040, 4040, 4059, 0, 1, 14200, -89.900, 0.000, 83.600, 0.000, 0.000, -2.900, 0.0, , , , , , 98, , , 15, 15, 15
36.9906964, -119.1416683, 26.000, 15:28:52.336, 17, 0.00, 0.19, 98, 1.000, 1.000, 83.500, 464, 100, 94, 32, 24218, -18471, 5381, 5491, 11, 14, 1528928932.336, 9, 0, 1024, 1024, 1024, 1024, 0, 6, 4028, 4033, 4025, 4040, 4040, 4059, 0, 1, 14300, -89.900, 0.000, 83.600, 0.000, 0.000, -2.900, 0.0, , , , , , 98, , , 15, 15, 15
36.9906964, -119.1416683, 26.300, 15:28:52.436, 17, 0.00, 0.19, 98, 1.100, 1.000, 83.400, 464, 100, 94, 32, 24218, -18471, 5381, 5491, 11, 14, 1528928932.436, 9, 0, 1024, 1024, 1024, 1024, 0, 6, 4028, 4033, 4025, 4040, 4040, 4059, 0, 1, 14400, -89.900, 0.000, 83.600, 0.000, 0.000, -2.900, 0.0, , , , , , 98, , , 15, 15, 15
36.9906965, -119.1416683, 26.600, 15:28:52.536, 17, 0.00, 0.20, 98, 1.300, 1.100, 83.400, 464, 100, 94, 32, 24218, -18471, 5381, 5491, 11, 14, 1528928932.536, 10, 0, 1024, 1024, 1024, 1024, 0, 6, 4028, 4033, 4025, 4040, 4040, 4059, 0, 1, 14500, -89.900, 0.000, 83.600, 0.000, 0.000, -2.900, 0.0, , , , , , 98, , , 15, 15, 15
36.9906965, -119.1416683, 26.600, 15:28:52.636, 17, 0.00, 0.20, 98, 1.300, 1.100, 83.400, 464, 100, 94, 32, 24218, -18471, 5381, 5491, 11, 14, 1528928932.637, 111, 0, 1024, 1024, 1024, 1024, 0, 6, 4028, 4033, 4025, 4040, 4040, 4059, 0, 1, 14601, -89.900, 0.000, 83.600, 0.000, 0.000, -2.900, 0.0, , , , , , 98, , , 15, 15, 15
36.9906965, -119.1416683, 26.900, 15:28:52.736, 17, 0.00, 0.20, 98, 1.500, 1.200, 83.500, 464, 100, 94, 32, 24218, -18471, 5381, 5491, 11, 14, 1528928932.736, 98, 0, 1024, 1024, 1024, 1024, 0, 6, 4028, 4033, 4025, 4040, 4040, 4059, 0, 1, 14700, -89.900, 0.000, 83.600, 0.000, 0.000, -2.900, 0.0, , , , , , 98, , , 15, 15, 15
36.9906966, -119.1416684, 27.500, 15:28:52.846, 17, 0.00, 0.21, 98, 1.700, 0.900, 83.700, 464, 100, 95, 32, 24218, -18471, 5381, 5491, 11, 14, 1528928932.846, 2, 0, 1024, 1024, 1024, 1024, 0, 6, 4028, 4033, 4025, 4040, 4040, 4059, 0, 1, 14810, -89.900, 0.000, 83.600, 0.000, 0.000, -2.900, 0.0, , , , , , 98, , , 15, 15, 15
36.9906966, -119.1416684, 27.500, 15:28:52.935, 17, 0.00, 0.21, 98, 1.700, 0.900, 83.700, 464, 100, 95, 32, 24218, -18471, 5381, 5491, 11, 14, 1528928932.935, 91, 0, 1024, 1024, 1024, 1024, 0, 6, 4028, 4033, 4025, 4040, 4040, 4059, 0, 1, 14899, -89.900, 0.000, 83.600, 0.000, 0.000, -2.900, 0.0, , , , , , 98, , , 15, 15, 15
36.9906966, -119.1416684, 27.800, 15:28:53.036, 17, 0.00, 0.22, 98, 1.300, 0.800, 83.700, 464, 100, 95, 32, 24218, -18471, 5381, 5491, 11, 14, 1528928933.036, 92, 0, 1024, 1024, 1024, 1024, 0, 6, 4028, 4033, 4025, 4040, 4040, 4059, 0, 1, 15000, -89.900, 0.000, 83.600, 0.000, 0.000, -2.900, 0.0, , , , , , 98, , , 15, 15, 15
36.9906966, -119.1416685, 28.100, 15:28:53.136, 17, 0.00, 0.22, 98, 1.100, 0.700, 83.800, 464, 100, 95, 32, 24218, -18471, 5381, 5491, 11, 14, 1528928933.136, 84, 0, 1024, 1024, 1024, 1024, 0, 6, 4028, 4033, 4025, 4040, 4040, 4059, 0, 1, 15100, -89.900, 0.000, 83.600, 0.000, 0.000, -2.900, 0.0, , , , , , 98, , , 15, 15, 15
36.9906966, -119.1416685, 28.400, 15:28:53.236, 17, 0.00, 0.23, 98, 1.000, 0.700, 83.800, 464, 100, 95, 32, 24218, -18471, 5381, 5491, 11, 14, 1528928933.237, 68, 0, 1024, 1024, 1024, 1024, 0, 6, 4028, 4033, 4025, 4040, 4040, 4059, 0, 1, 15200, -90.000, 0.000, 83.600, 0.000, 0.000, -2.800, 0.0, , , , , , 98, , , 15, 15, 15
36.9906967, -119.1416686, 28.700, 15:28:53.336, 17, 0.00, 0.23, 98, 1.100, 0.500, 83.700, 464, 100, 95, 32, 24235, -17846, 5381, 5491, 11, 14, 1528928933.337, 69, 0, 1024, 1024, 1024, 1024, 0, 6, 4027, 4039, 4029, 4038, 4045, 4058, 0, 1, 15300, -90.000, 0.000, 83.600, 0.000, 0.000, -2.800, 0.0, , , , , , 98, , , 15, 15, 15
36.9906967, -119.1416686, 29.000, 15:28:53.435, 17, 0.00, 0.24, 98, 1.300, 0.400, 83.700, 464, 100, 97, 32, 24235, -17846, 5381, 5491, 11, 14, 1528928933.436, 68, 0, 1024, 1024, 1024, 1024, 0, 6, 4027, 4039, 4029, 4038, 4045, 4058, 0, 1, 15400, -90.000, 0.000, 83.600, 0.000, 0.000, -2.900, 0.0, , , , , , 98, , , 15, 15, 15
36.9906968, -119.1416687, 29.300, 15:28:53.536, 17, 0.00, 0.25, 98, 1.500, 0.300, 83.600, 464, 100, 97, 32, 24235, -17846, 5381, 5491, 11, 14, 1528928933.536, 61, 0, 1024, 1024, 1024, 1024, 0, 6, 4027, 4039, 4029, 4038, 4045, 4058, 0, 1, 15500, -90.000, 0.000, 83.600, 0.000, 0.000, -2.800, 0.0, , , , , , 98, , , 15, 15, 15
36.9906968, -119.1416688, 29.600, 15:28:53.636, 17, 0.00, 0.26, 98, 1.700, 0.300, 83.600, 464, 100, 97, 32, 24235, -17846, 5381, 5491, 11, 14, 1528928933.636, 62, 0, 1024, 1024, 1024, 1024, 0, 6, 4027, 4039, 4029, 4038, 4045, 4058, 0, 1, 15600, -89.900, 0.000, 83.600, 0.000, 0.000, -2.900, 0.0, , , , , , 98, , , 15, 15, 15
36.9906969, -119.1416688, 29.900, 15:28:53.736, 17, 0.00, 0.26, 98, 1.800, 0.300, 83.500, 464, 100, 97, 32, 24235, -17846, 5381, 5491, 11, 14, 1528928933.736, 59, 0, 1024, 1024, 1024, 1024, 0, 6, 4027, 4039, 4029, 4038, 4045, 4058, 0, 1, 15700, -89.900, 0.000, 83.600, 0.000, 0.000, -2.900, 0.0, , , , , , 98, , , 15, 15, 15
36.9906969, -119.1416689, 30.200, 15:28:53.836, 17, 0.00, 0.27, 98, 1.900, 0.300, 83.400, 464, 100, 97, 32, 24235, -17846, 5381, 5491, 11, 14, 1528928933.836, 58, 0, 1024, 1024, 1024, 1024, 0, 6, 4027, 4039, 4029, 4038, 4045, 4058, 0, 1, 15800, -89.900, 0.000, 83.600, 0.000, 0.000, -2.900, 0.0, , , , , , 98, , , 15, 15, 15
36.9906970, -119.1416690, 30.500, 15:28:53.935, 17, 0.00, 0.28, 98, 2.100, 0.200, 83.300, 464, 100, 100, 32, 24235, -17846, 5381, 5491, 11, 14, 1528928933.935, 24, 0, 1024, 1024, 1024, 1024, 0, 6, 4027, 4039, 4029, 4038, 4045, 4058, 0, 1, 15899, -90.000, 0.000, 83.600, 0.000, 0.000, -2.900, 0.0, , , , , , 98, , , 15, 15, 15
36.9906970, -119.1416690, 30.700, 15:28:54.036, 17, 0.00, 0.28, 98, 2.100, 0.200, 83.200, 464, 100, 100, 32, 24235, -17846, 5381, 5491, 11, 14, 1528928934.036, 39, 0, 1024, 1024, 1024, 1024, 0, 6, 4027, 4039, 4029, 4038, 4045, 4058, 0, 1, 16000, -89.900, 0.000, 83.600, 0.000, 0.000, -2.900, 0.0, , , , , , 98, , , 15, 15, 15
36.9906970, -119.1416690, 31.300, 15:28:54.136, 17, 0.00, 0.29, 98, 1.700, 0.400, 83.500, 464, 100, 100, 32, 24235, -17846, 5381, 5491, 11, 14, 1528928934.136, 43, 0, 1024, 1024, 1024, 1024, 0, 6, 4027, 4039, 4029, 4038, 4045, 4058, 0, 1, 16100, -89.900, 0.000, 83.600, 0.000, 0.000, -2.900, 0.0, , , , , , 98, , , 15, 15, 15
36.9906970, -119.1416690, 31.600, 15:28:54.236, 17, 0.00, 0.29, 98, 1.400, 0.600, 83.700, 464, 100, 100, 32, 24235, -17846, 5381, 5491, 11, 14, 1528928934.236, 26, 0, 1024, 1024, 1024, 1024, 0, 6, 4027, 4039, 4029, 4038, 4045, 4058, 0, 1, 16200, -89.900, 0.000, 83.600, 0.000, 0.000, -3.000, 0.0, , , , , , 98, , , 15, 15, 15
36.9906970, -119.1416690, 31.900, 15:28:54.336, 17, 0.00, 0.28, 98, 1.200, 0.700, 83.900, 464, 100, 100, 32, 24203, -18219, 5381, 5491, 11, 14, 1528928934.336, 41, 0, 1024, 1024, 1024, 1024, 0, 6, 4022, 4034, 4021, 4041, 4037, 4044, 0, 1, 16300, -89.900, 0.000, 83.600, 0.000, 0.000, -2.900, 0.0, , , , , , 98, , , 15, 15, 15
36.9906970, -119.1416690, 32.200, 15:28:54.436, 17, 0.00, 0.28, 98, 1.100, 0.800, 84.000, 464, 100, 100, 32, 24203, -18219, 5381, 5491, 11, 14, 1528928934.436, 19, 0, 1024, 1024, 1024, 1024, 0, 6, 4022, 4034, 4021, 4041, 4037, 4044, 0, 1, 16400, -89.900, 0.000, 83.600, 0.000, 0.000, -2.900, 0.0, , , , , , 98, , , 15, 15, 15
36.9906970, -119.1416690, 32.200, 15:28:54.536, 17, 0.00, 0.28, 98, 1.100, 0.800, 84.000, 464, 100, 100, 32, 24203, -18219, 5381, 5491, 11, 14, 1528928934.536, 119, 0, 1024, 1024, 1024, 1024, 0, 6, 4022, 4034, 4021, 4041, 4037, 4044, 0, 1, 16500, -89.900, 0.000, 83.600, 0.000, 0.000, -2.900, 0.0, , , , , , 98, , , 15, 15, 15
36.9906970, -119.1416690, 32.800, 15:28:54.636, 17, 0.00, 0.28, 98, 1.300, 0.800, 83.900, 464, 100, 100, 32, 24203, -18219, 5381, 5491, 11, 14, 1528928934.636, 12, 0, 1024, 1024, 1024, 1024, 0, 6, 4022, 4034, 4021, 4041, 4037, 4044, 0, 1, 16600, -89.900, 0.000, 83.600, 0.000, 0.000, -2.900, 0.0, , , , , , 98, , , 15, 15, 15
36.9906970, -119.1416690, 33.100, 15:28:54.736, 17, 0.00, 0.28, 98, 1.300, 0.700, 83.700, 464, 100, 100, 32, 24203, -18219, 5381, 5491, 11, 14, 1528928934.736, 29, 0, 1024, 1024, 1024, 1024, 0, 6, 4022, 4034, 4021, 4041, 4037, 4044, 0, 1, 16700, -89.900, 0.000, 83.600, 0.000, 0.000, -2.900, 0.0, , , , , , 98, , , 15, 15, 15
36.9906970, -119.1416691, 33.400, 15:28:54.836, 17, 0.00, 0.28, 98, 1.300, 0.700, 83.600, 464, 100, 99, 32, 24203, -18219, 5381, 5491, 11, 14, 1528928934.836, 4, 0, 1024, 1024, 1024, 1024, 0, 6, 4022, 4034, 4021, 4041, 4037, 4044, 0, 1, 16800, -89.900, 0.000, 83.600, 0.000, 0.000, -2.900, 0.0, , , , , , 98, , , 15, 15, 15
36.9906969, -119.1416691, 33.700, 15:28:54.940, 17, 0.00, 0.28, 98, 1.300, 0.800, 83.500, 464, 100, 99, 32, 24203, -18219, 5381, 5491, 11, 14, 1528928934.940, 2, 0, 1024, 1024, 1024, 1024, 0, 6, 4022, 4034, 4021, 4041, 4037, 4044, 0, 1, 16904, -89.900, 0.000, 83.600, 0.000, 0.000, -3.000, 0.0, , , , , , 98, , , 15, 15, 15
36.9906969, -119.1416691, 34.000, 15:28:55.037, 17, 0.00, 0.28, 98, 1.200, 0.700, 83.400, 464, 100, 99, 32, 24203, -18219, 5381, 5491, 11, 14, 1528928935.037, 2, 0, 1024, 1024, 1024, 1024, 0, 6, 4022, 4034, 4021, 4041, 4037, 4044, 0, 1, 17001, -89.900, 0.000, 83.600, 0.000, 0.000, -3.000, 0.0, , , , , , 98, , , 15, 15, 15
36.9906969, -119.1416691, 34.000, 15:28:55.136, 17, 0.00, 0.28, 98, 1.200, 0.700, 83.400, 464, 100, 99, 32, 24203, -18219, 5381, 5491, 11, 14, 1528928935.136, 100, 0, 1024, 1024, 1024, 1024, 0, 6, 4022, 4034, 4021, 4041, 4037, 4044, 0, 1, 17100, -89.900, 0.000, 83.600, 0.000, 0.000, -3.000, 0.0, , , , , , 98, , , 15, 15, 15
36.9906968, -119.1416691, 34.300, 15:28:55.236, 17, 0.00, 0.28, 98, 1.200, 0.500, 83.400, 464, 100, 99, 32, 24203, -18219, 5381, 5491, 11, 14, 1528928935.236, 93, 0, 1024, 1024, 1024, 1024, 0, 6, 4022, 4034, 4021, 4041, 4037, 4044, 0, 1, 17200, -89.900, 0.000, 83.600, 0.000, 0.000, -2.900, 0.0, , , , , , 98, , , 15, 15, 15
36.9906968, -119.1416691, 34.600, 15:28:55.336, 17, 0.00, 0.27, 98, 1.100, 0.300, 83.500, 464, 100, 99, 32, 24166, -18513, 5326, 5491, 11, 14, 1528928935.336, 81, 0, 1024, 1024, 1024, 1024, 0, 6, 4010, 4023, 4024, 4029, 4023, 4050, 0, 1, 17300, -89.900, 0.000, 83.600, 0.000, 0.000, -2.900, 0.0, , , , , , 98, , , 15, 15, 15
36.9906968, -119.1416691, 34.900, 15:28:55.436, 17, 0.00, 0.27, 98, 0.800, 0.200, 83.500, 464, 100, 99, 32, 24166, -18513, 5326, 5491, 11, 14, 1528928935.436, 83, 0, 1024, 1024, 1024, 1024, 0, 6, 4010, 4023, 4024, 4029, 4023, 4050, 0, 1, 17400, -89.900, 0.000, 83.600, 0.000, 0.000, -2.900, 0.0, , , , , , 98, , , 15, 15, 15
36.9906967, -119.1416691, 35.200, 15:28:55.536, 17, 0.00, 0.27, 98, 0.700, 0.300, 83.600, 464, 100, 99, 32, 24166, -18513, 5326, 5491, 11, 14, 1528928935.536, 76, 0, 1024, 1024, 1024, 1024, 0, 6, 4010, 4023, 4024, 4029, 4023, 4050, 0, 1, 17500, -89.900, 0.000, 83.600, 0.000, 0.000, -3.000, 0.0, , , , , , 98, , , 15, 15, 15
36.9906967, -119.1416691, 35.500, 15:28:55.636, 17, 0.00, 0.26, 98, 0.600, 0.500, 83.700, 464, 100, 99, 32, 24166, -18513, 5326, 5491, 11, 14, 1528928935.636, 89, 0, 1024, 1024, 1024, 1024, 0, 6, 4010, 4023, 4024, 4029, 4023, 4050, 0, 1, 17600, -89.900, 0.000, 83.600, 0.000, 0.000, -3.000, 0.0, , , , , , 98, , , 15, 15, 15
36.9906966, -119.1416691, 35.800, 15:28:55.736, 17, 0.00, 0.26, 98, 0.700, 0.800, 83.700, 464, 100, 99, 32, 24166, -18513, 5326, 5491, 11, 14, 1528928935.736, 69, 0, 1024, 1024, 1024, 1024, 0, 6, 4010, 4023, 4024, 4029, 4023, 4050, 0, 1, 17700, -89.900, 0.000, 83.600, 0.000, 0.000, -3.000, 0.0, , , , , , 98, , , 15, 15, 15
36.9906966, -119.1416690, 36.100, 15:28:55.836, 17, 0.00, 0.25, 97, 0.900, 1.100, 83.600, 464, 100, 99, 32, 24166, -18513, 5326, 5491, 11, 14, 1528928935.836, 61, 0, 1024, 1024, 1024, 1024, 0, 6, 4010, 4023, 4024, 4029, 4023, 4050, 0, 1, 17800, -89.900, 0.000, 83.600, 0.000, 0.000, -3.000, 0.0, , , , , , 98, , , 15, 15, 15
36.9906966, -119.1416690, 36.400, 15:28:55.935, 17, 0.00, 0.25, 97, 0.800, 1.200, 83.600, 464, 100, 98, 32, 24166, -18513, 5326, 5491, 11, 14, 1528928935.935, 76, 0, 1024, 1024, 1024, 1024, 0, 6, 4010, 4023, 4024, 4029, 4023, 4050, 0, 1, 17899, -89.900, 0.000, 83.600, 0.000, 0.000, -2.900, 0.0, , , , , , 98, , , 15, 15, 15
36.9906966, -119.1416690, 36.700, 15:28:56.035, 17, 0.00, 0.24, 97, 0.800, 1.100, 83.500, 464, 100, 98, 32, 24166, -18513, 5326, 5491, 11, 14, 1528928936.035, 37, 0, 1024, 1024, 1024, 1024, 0, 6, 4010, 4023, 4024, 4029, 4023, 4050, 0, 1, 17999, -89.900, 0.000, 83.600, 0.000, 0.000, -2.900, 0.0, , , , , , 98, , , 15, 15, 15
36.9906965, -119.1416690, 37.000, 15:28:56.136, 17, 0.00, 0.24, 97, 0.900, 1.100, 83.500, 464, 100, 98, 32, 24166, -18513, 5326, 5491, 11, 14, 1528928936.136, 49, 0, 1024, 1024, 1024, 1024, 0, 6, 4010, 4023, 4024, 4029, 4023, 4050, 0, 1, 18100, -89.900, 0.000, 83.600, 0.000, 0.000, -2.900, 0.0, , , , , , 98, , , 15, 15, 15
36.9906965, -119.1416689, 37.300, 15:28:56.236, 17, 0.00, 0.24, 97, 1.000, 1.000, 83.500, 464, 100, 98, 32, 24166, -18513, 5326, 5491, 11, 14, 1528928936.236, 49, 0, 1024, 1024, 1024, 1024, 0, 6, 4010, 4023, 4024, 4029, 4023, 4050, 0, 1, 18200, -89.900, 0.000, 83.600, 0.000, 0.000, -2.900, 0.0, , , , , , 98, , , 15, 15, 15
36.9906964, -119.1416689, 37.900, 15:28:56.336, 17, 0.00, 0.23, 97, 0.800, 0.800, 83.500, 464, 100, 98, 32, 24132, -18443, 5326, 5491, 11, 14, 1528928936.336, 48, 0, 1024, 1024, 1024, 1024, 0, 6, 4010, 4023, 4024, 4029, 4023, 4050, 0, 1, 18300, -89.900, 0.000, 83.600, 0.000, 0.000, -3.000, 0.0, , , , , , 98, , , 15, 15, 15
36.9906964, -119.1416689, 38.200, 15:28:56.436, 17, 0.00, 0.22, 97, 0.700, 0.800, 83.600, 464, 100, 99, 32, 24132, -18443, 5326, 5491, 11, 14, 1528928936.436, 42, 0, 1024, 1024, 1024, 1024, 0, 6, 4010, 4023, 4024, 4029, 4023, 4050, 0, 1, 18400, -89.900, 0.000, 83.600, 0.000, 0.000, -2.900, 0.0, , , , , , 98, , , 15, 15, 15
36.9906964, -119.1416688, 38.500, 15:28:56.536, 17, 0.00, 0.22, 97, 0.700, 1.000, 83.600, 464, 100, 99, 32, 24132, -18443, 5326, 5491, 11, 14, 1528928936.536, 44, 0, 1024, 1024, 1024, 1024, 0, 6, 4010, 4023, 4024, 4029, 4023, 4050, 0, 1, 18500, -89.900, 0.000, 83.600, 0.000, 0.000, -3.000, 0.0, , , , , , 98, , , 15, 15, 15
36.9906964, -119.1416688, 38.800, 15:28:56.636, 17, 0.00, 0.22, 97, 0.700, 1.200, 83.600, 464, 100, 99, 32, 24132, -18443, 5326, 5491, 11, 14, 1528928936.636, 10, 0, 1024, 1024, 1024, 1024, 0, 6, 4010, 4023, 4024, 4029, 4023, 4050, 0, 1, 18600, -89.900, 0.000, 83.600, 0.000, 0.000, -3.000, 0.0, , , , , , 98, , , 15, 15, 15
36.9906964, -119.1416687, 39.100, 15:28:56.736, 17, 0.00, 0.22, 97, 1.100, 0.900, 83.700, 464, 100, 99, 32, 24132, -18443, 5326, 5491, 11, 14, 1528928936.736, 14, 0, 1024, 1024, 1024, 1024, 0, 6, 4013, 4027, 4008, 4023, 4025, 4043, 0, 1, 18700, -89.900, 0.000, 83.600, 0.000, 0.000, -3.000, 0.0, , , , , , 98, , , 15, 15, 15
36.9906964, -119.1416687, 39.400, 15:28:56.836, 17, 0.00, 0.21, 97, 1.100, 1.100, 83.800, 464, 100, 100, 32, 24132, -18443, 5326, 5491, 11, 14, 1528928936.836, 5, 0, 1024, 1024, 1024, 1024, 0, 6, 4013, 4027, 4008, 4023, 4025, 4043, 0, 1, 18800, -89.900, 0.000, 83.600, 0.000, 0.000, -3.000, 0.0, , , , , , 98, , , 15, 15, 15
36.9906964, -119.1416687, 39.700, 15:28:56.944, 17, 0.00, 0.21, 97, 1.000, 1.000, 84.000, 464, 100, 100, 32, 24132, -18443, 5326, 5491, 11, 14, 1528928936.945, 3, 0, 1024, 1024, 1024, 1024, 0, 6, 4013, 4027, 4008, 4023, 4025, 4043, 0, 1, 18909, -89.900, 0.000, 83.600, 0.000, 0.000, -2.900, 0.0, , , , , , 98, , , 15, 15, 15
36.9906964, -119.1416687, 39.700, 15:28:57.035, 17, 0.00, 0.21, 97, 1.000, 1.000, 84.000, 464, 100, 100, 32, 24132, -18443, 5326, 5491, 11, 14, 1528928937.036, 94, 0, 1024, 1024, 1024, 1024, 0, 6, 4013, 4027, 4008, 4023, 4025, 4043, 0, 1, 19000, -89.900, 0.000, 83.600, 0.000, 0.000, -2.900, 0.0, , , , , , 98, , , 15, 15, 15
36.9906964, -119.1416686, 40.000, 15:28:57.136, 17, 0.00, 0.21, 97, 1.300, 1.000, 84.100, 464, 100, 100, 32, 24132, -18443, 5326, 5491, 11, 14, 1528928937.136, 97, 0, 1024, 1024, 1024, 1024, 0, 6, 4013, 4027, 4008, 4023, 4025, 4043, 0, 1, 19100, -89.900, 0.000, 83.600, 0.000, 0.000, -3.000, 0.0, , , , , , 98, , , 15, 15, 15
36.9906964, -119.1416685, 40.600, 15:28:57.237, 17, 0.10, 0.20, 97, 1.600, 1.400, 84.100, 464, 100, 100, 32, 24132, -18443, 5326, 5491, 11, 14, 1528928937.237, 2, 0, 1024, 1024, 1024, 1024, 0, 6, 4013, 4027, 4008, 4023, 4025, 4043, 0, 1, 19201, -89.900, 0.000, 83.600, 0.000, 0.100, -2.900, 0.0, , , , , , 98, , , 15, 15, 15
36.9906964, -119.1416685, 40.600, 15:28:57.336, 17, 0.10, 0.20, 97, 1.600, 1.400, 84.100, 464, 100, 100, 32, 24132, -18443, 5326, 5491, 11, 14, 1528928937.336, 101, 0, 1024, 1024, 1024, 1024, 0, 6, 4013, 4027, 4008, 4023, 4025, 4043, 0, 1, 19300, -89.900, 0.000, 83.600, 0.000, 0.100, -2.900, 0.0, , , , , , 98, , , 15, 15, 15
36.9906964, -119.1416684, 40.900, 15:28:57.436, 17, 0.10, 0.20, 97, 1.800, 1.600, 84.000, 464, 100, 100, 32, 24132, -18443, 5326, 5491, 11, 14, 1528928937.436, 90, 0, 1024, 1024, 1024, 1024, 0, 6, 4013, 4027, 4008, 4023, 4025, 4043, 0, 1, 19400, -89.900, 0.000, 83.600, 0.000, 0.100, -2.900, 0.0, , , , , , 98, , , 15, 15, 15
36.9906964, -119.1416683, 41.200, 15:28:57.536, 17, 0.10, 0.19, 97, 1.900, 2.000, 84.000, 464, 100, 100, 32, 24132, -18443, 5326, 5491, 11, 14, 1528928937.536, 94, 0, 1024, 1024, 1024, 1024, 0, 6, 4013, 4027, 4008, 4023, 4025, 4043, 0, 1, 19500, -89.900, 0.000, 83.600, 0.000, 0.100, -2.900, 0.0, , , , , , 98, , , 15, 15, 15
36.9906964, -119.1416683, 41.500, 15:28:57.636, 17, 0.10, 0.19, 97, 1.800, 2.300, 84.000, 464, 100, 100, 32, 24132, -18443, 5326, 5491, 11, 14, 1528928937.636, 98, 0, 1024, 1024, 1024, 1024, 0, 6, 4013, 4027, 4008, 4023, 4025, 4043, 0, 1, 19600, -89.900, 0.000, 83.600, 0.000, 0.100, -3.000, 0.0, , , , , , 98, , , 15, 15, 15
36.9906964, -119.1416682, 41.800, 15:28:57.736, 17, 0.10, 0.18, 97, 1.900, 2.300, 83.900, 464, 100, 100, 32, 24132, -18443, 5326, 5491, 11, 14, 1528928937.736, 69, 0, 1024, 1024, 1024, 1024, 0, 6, 4013, 4027, 4008, 4023, 4025, 4043, 0, 1, 19700, -89.900, 0.000, 83.600, 0.000, 0.100, -2.900, 0.0, , , , , , 98, , , 15, 15, 15
36.9906964, -119.1416681, 42.100, 15:28:57.836, 17, 0.00, 0.18, 97, 1.800, 2.200, 83.700, 464, 100, 100, 32, 24112, -18811, 5326, 5491, 11, 14, 1528928937.836, 69, 0, 1024, 1024, 1024, 1024, 0, 6, 4011, 4016, 4011, 4017, 4023, 4029, 0, 1, 19800, -89.900, 0.000, 83.600, 0.000, 0.000, -2.900, 0.0, , , , , , 98, , , 15, 15, 15
36.9906964, -119.1416680, 42.400, 15:28:57.935, 17, 0.10, 0.18, 97, 1.600, 2.200, 83.600, 464, 100, 100, 32, 24112, -18811, 5326, 5491, 11, 14, 1528928937.935, 69, 0, 1024, 1024, 1024, 1024, 0, 6, 4011, 4016, 4011, 4017, 4023, 4029, 0, 1, 19899, -89.900, 0.000, 83.600, 0.000, 0.100, -2.900, 0.0, , , , , , 98, , , 15, 15, 15
36.9906964, -119.1416679, 42.700, 15:28:58.036, 17, 0.14, 0.17, 97, 1.200, 2.200, 83.600, 464, 100, 100, 32, 24112, -18811, 5326, 5491, 11, 14, 1528928938.036, 50, 0, 1024, 1024, 1024, 1024, 0, 6, 4011, 4016, 4011, 4017, 4023, 4029, 0, 1, 20000, -89.900, 0.000, 83.600, 0.100, 0.100, -3.000, 0.0, , , , , , 98, , , 15, 15, 15
36.9906964, -119.1416678, 43.000, 15:28:58.136, 17, 0.14, 0.17, 97, 1.300, 2.500, 83.500, 464, 100, 100, 32, 24112, -18811, 5326, 5491, 11, 14, 1528928938.136, 60, 0, 1024, 1024, 1024, 1024, 0, 6, 4011, 4016, 4011, 4017, 4023, 4029, 0, 1, 20100, -89.900, 0.000, 83.600, 0.100, 0.100, -3.000, 0.0, , , , , , 98, , , 15, 15, 15
36.9906965, -119.1416677, 43.300, 15:28:58.236, 17, 0.14, 0.18, 97, 2.200, 3.100, 83.600, 464, 100, 100, 32, 24112, -18811, 5326, 5491, 11, 14, 1528928938.236, 49, 0, 1024, 1024, 1024, 1024, 0, 6, 4011, 4016, 4011, 4017, 4023, 4029, 0, 1, 20200, -89.900, 0.000, 83.600, 0.100, 0.100, -2.900, 0.0, , , , , , 98, , , 15, 15, 15
36.9906965, -119.1416676, 43.600, 15:28:58.336, 17, 0.14, 0.18, 97, 3.000, 3.600, 83.800, 464, 100, 100, 32, 24112, -18811, 5326, 5491, 11, 14, 1528928938.336, 50, 0, 1024, 1024, 1024, 1024, 0, 6, 4011, 4016, 4011, 4017, 4023, 4029, 0, 1, 20300, -89.900, 0.000, 83.600, 0.100, 0.100, -2.900, 0.0, , , , , , 98, , , 15, 15, 15
36.9906966, -119.1416675, 43.900, 15:28:58.436, 17, 0.14, 0.19, 97, 3.400, 3.600, 84.000, 464, 100, 100, 32, 24112, -18811, 5326, 5491, 11, 14, 1528928938.436, 53, 0, 1024, 1024, 1024, 1024, 0, 6, 4011, 4016, 4011, 4017, 4023, 4029, 0, 1, 20400, -89.900, 0.000, 83.600, 0.100, 0.100, -3.100, 0.0, , , , , , 98, , , 15, 15, 15
36.9906967, -119.1416674, 44.200, 15:28:58.536, 17, 0.14, 0.19, 97, 3.500, 3.600, 84.200, 464, 100, 100, 32, 24112, -18811, 5326, 5491, 11, 14, 1528928938.536, 30, 0, 1024, 1024, 1024, 1024, 0, 6, 4011, 4016, 4011, 4017, 4023, 4029, 0, 1, 20500, -89.900, 0.000, 83.600, 0.100, 0.100, -3.100, 0.0, , , , , , 98, , , 15, 15, 15
36.9906968, -119.1416673, 44.900, 15:28:58.636, 17, 0.10, 0.20, 97, 3.100, 3.100, 84.200, 464, 100, 100, 32, 24112, -18811, 5326, 5491, 11, 14, 1528928938.636, 46, 0, 1024, 1024, 1024, 1024, 0, 6, 4011, 4016, 4011, 4017, 4023, 4029, 0, 1, 20600, -89.900, 0.000, 83.600, 0.100, 0.000, -3.000, 0.0, , , , , , 98, , , 15, 15, 15
36.9906968, -119.1416673, 45.200, 15:28:58.736, 17, 0.10, 0.21, 97, 3.400, 2.800, 84.100, 464, 100, 100, 32, 24112, -18811, 5326, 5491, 11, 14, 1528928938.736, 25, 0, 1024, 1024, 1024, 1024, 0, 6, 4011, 4016, 4011, 4017, 4023, 4029, 0, 1, 20700, -89.900, 0.000, 83.600, 0.100, 0.000, -3.000, 0.0, , , , , , 98, , , 15, 15, 15
36.9906970, -119.1416673, 45.500, 15:28:58.836, 17, 0.10, 0.22, 97, 3.800, 2.500, 83.900, 464, 100, 100, 32, 24082, -18868, 5326, 5491, 11, 14, 1528928938.836, 29, 0, 1024, 1024, 1024, 1024, 0, 6, 4005, 4008, 4001, 4015, 4015, 4029, 0, 1, 20800, -89.900, 0.000, 83.600, 0.100, 0.000, -3.000, 0.0, , , , , , 98, , , 15, 15, 15
36.9906971, -119.1416673, 45.900, 15:28:58.935, 17, 0.20, 0.24, 97, 4.300, 2.300, 83.800, 464, 100, 100, 32, 24082, -18868, 5326, 5491, 11, 14, 1528928938.935, 7, 0, 1024, 1024, 1024, 1024, 0, 6, 4005, 4008, 4001, 4015, 4015, 4029, 0, 1, 20899, -89.900, 0.000, 83.600, 0.200, 0.000, -3.000, 0.0, , , , , , 98, , , 15, 15, 15
36.9906973, -119.1416673, 46.200, 15:28:59.036, 17, 0.20, 0.26, 97, 4.900, 2.100, 83.600, 464, 100, 100, 32, 24082, -18868, 5326, 5491, 11, 14, 1528928939.036, 2, 0, 1024, 1024, 1024, 1024, 0, 6, 4005, 4008, 4001, 4015, 4015, 4029, 0, 1, 21000, -90.000, 0.000, 83.600, 0.200, 0.000, -2.900, 0.0, , , , , , 98, , , 15, 15, 15
36.9906975, -119.1416674, 46.500, 15:28:59.135, 17, 0.20, 0.28, 97, 5.200, 2.200, 83.500, 464, 100, 100, 32, 24082, -18868, 5326, 5491, 11, 14, 1528928939.136, 7, 0, 1024, 1024, 1024, 1024, 0, 6, 4005, 4008, 4001, 4015, 4015, 4029, 0, 1, 21099, -89.900, 0.000, 83.600, 0.200, 0.000, -2.900, 0.0, , , , , , 98, , , 15, 15, 15
